{"displayFieldName":"TOWNNAME","fieldAliases":{"ID":"ID","DIS_CODE":"DIS_CODE","TOWNNAME":"TOWNNAME","LI":"LI","LIN":"LIN","STREET":"STREET","SECT":"SECT","MAREA":"MAREA","LANE":"LANE","ALLEY":"ALLEY","HOUSE_NO":"HOUSE_NO","E_COORD97":"E_COORD97","N_COORD97":"N_COORD97","ADDRESS":"ADDRESS","OBJECTID":"OBJECTID"},"geometryType":"esriGeometryPoint","spatialReference":{"wkid":102443,"latestWkid":3826},"fields":[{"name":"ID","type":"esriFieldTypeDouble","alias":"ID"},{"name":"DIS_CODE","type":"esriFieldTypeInteger","alias":"DIS_CODE"},{"name":"TOWNNAME","type":"esriFieldTypeString","alias":"TOWNNAME","length":8},{"name":"LI","type":"esriFieldTypeString","alias":"LI","length":8},{"name":"LIN","type":"esriFieldTypeString","alias":"LIN","length":12},{"name":"STREET","type":"esriFieldTypeString","alias":"STREET","length":20},{"name":"SECT","type":"esriFieldTypeString","alias":"SECT","length":8},{"name":"MAREA","type":"esriFieldTypeString","alias":"MAREA","length":12},{"name":"LANE","type":"esriFieldTypeString","alias":"LANE","length":10},{"name":"ALLEY","type":"esriFieldTypeString","alias":"ALLEY","length":10},{"name":"HOUSE_NO","type":"esriFieldTypeString","alias":"HOUSE_NO","length":20},{"name":"E_COORD97","type":"esriFieldTypeDouble","alias":"E_COORD97"},{"name":"N_COORD97","type":"esriFieldTypeDouble","alias":"N_COORD97"},{"name":"ADDRESS","type":"esriFieldTypeString","alias":"ADDRESS","length":50},{"name":"OBJECTID","type":"esriFieldTypeOID","alias":"OBJECTID"}],"features":[{"attributes":{"ID":598428,"DIS_CODE":0,"TOWNNAME":"中西區","LI":"藥王里","LIN":"15鄰","STREET":"民權路","SECT":"三段","MAREA":" ","LANE":" ","ALLEY":" ","HOUSE_NO":"３９４號","E_COORD97":166861.41,"N_COORD97":2544406.0499999998,"ADDRESS":"民權路三段３９４號","OBJECTID":598401},"geometry":{"x":166861.41000000201,"y":2544406.0500000026}},{"attributes":{"ID":598429,"DIS_CODE":0,"TOWNNAME":"中西區","LI":"藥王里","LIN":"15鄰","STREET":"民權路","SECT":"三段","MAREA":" ","LANE":" ","ALLEY":" ","HOUSE_NO":"３９６號","E_COORD97":166854.82999999999,"N_COORD97":2544408.1499999999,"ADDRESS":"民權路三段３９６號","OBJECTID":598402},"geometry":{"x":166854.83000000007,"y":2544408.1500000022}},{"attributes":{"ID":598430,"DIS_CODE":0,"TOWNNAME":"中西區","LI":"藥王里","LIN":"15鄰","STREET":"民權路","SECT":"三段","MAREA":" ","LANE":" ","ALLEY":" ","HOUSE_NO":"４０２號","E_COORD97":166840.35000000001,"N_COORD97":2544415.52,"ADDRESS":"民權路三段４０２號","OBJECTID":598403},"geometry":{"x":166840.34999999963,"y":2544415.5199999996}},{"attributes":{"ID":598431,"DIS_CODE":0,"TOWNNAME":"中西區","LI":"藥王里","LIN":"15鄰","STREET":"民權路","SECT":"三段","MAREA":" ","LANE":" ","ALLEY":" ","HOUSE_NO":"４０６號","E_COORD97":166832.45000000001,"N_COORD97":2544416.5699999998,"ADDRESS":"民權路三段４０６號","OBJECTID":598404},"geometry":{"x":166832.45000000112,"y":2544416.5700000003}},{"attributes":{"ID":598432,"DIS_CODE":0,"TOWNNAME":"中西區","LI":"藥王里","LIN":"15鄰","STREET":"民權路","SECT":"三段","MAREA":" ","LANE":" ","ALLEY":" ","HOUSE_NO":"４０８號","E_COORD97":166826.06,"N_COORD97":2544413,"ADDRESS":"民權路三段４０８號","OBJECTID":598405},"geometry":{"x":166826.06000000052,"y":2544413}},{"attributes":{"ID":598433,"DIS_CODE":0,"TOWNNAME":"中西區","LI":"藥王里","LIN":"15鄰","STREET":"民權路","SECT":"三段","MAREA":" ","LANE":" ","ALLEY":" ","HOUSE_NO":"４１２號","E_COORD97":166819.87,"N_COORD97":2544411.46,"ADDRESS":"民權路三段４１２號","OBJECTID":598406},"geometry":{"x":166819.87000000104,"y":2544411.4600000009}},{"attributes":{"ID":598434,"DIS_CODE":0,"TOWNNAME":"中西區","LI":"藥王里","LIN":"15鄰","STREET":"民權路","SECT":"三段","MAREA":" ","LANE":" ","ALLEY":" ","HOUSE_NO":"４１６號","E_COORD97":166813.67999999999,"N_COORD97":2544411.79,"ADDRESS":"民權路三段４１６號","OBJECTID":598407},"geometry":{"x":166813.68000000063,"y":2544411.790000001}},{"attributes":{"ID":598435,"DIS_CODE":0,"TOWNNAME":"中西區","LI":"藥王里","LIN":"15鄰","STREET":"民權路","SECT":"三段","MAREA":" ","LANE":" ","ALLEY":" ","HOUSE_NO":"４１８號","E_COORD97":166809.48999999999,"N_COORD97":2544413.5600000001,"ADDRESS":"民權路三段４１８號","OBJECTID":598408},"geometry":{"x":166809.49000000022,"y":2544413.5600000005}},{"attributes":{"ID":598436,"DIS_CODE":0,"TOWNNAME":"中西區","LI":"藥王里","LIN":"15鄰","STREET":"民權路","SECT":"三段","MAREA":" ","LANE":" ","ALLEY":" ","HOUSE_NO":"４１８號地下層","E_COORD97":166809.48999999999,"N_COORD97":2544413.5600000001,"ADDRESS":"民權路三段４１８號地下層","OBJECTID":598409},"geometry":{"x":166809.49000000022,"y":2544413.5600000005}},{"attributes":{"ID":598437,"DIS_CODE":0,"TOWNNAME":"安平區","LI":"國平里","LIN":"27鄰","STREET":"健康三街","SECT":" ","MAREA":" ","LANE":" ","ALLEY":" ","HOUSE_NO":"１４０號十二樓之１","E_COORD97":164752.78,"N_COORD97":2543131.3599999999,"ADDRESS":"健康三街１４０號十二樓之１","OBJECTID":598410},"geometry":{"x":164752.78000000026,"y":2543131.3599999994}},{"attributes":{"ID":598438,"DIS_CODE":0,"TOWNNAME":"中西區","LI":"藥王里","LIN":"15鄰","STREET":"民權路","SECT":"三段","MAREA":" ","LANE":" ","ALLEY":" ","HOUSE_NO":"４２２號","E_COORD97":166801.97,"N_COORD97":2544414,"ADDRESS":"民權路三段４２２號","OBJECTID":598411},"geometry":{"x":166801.97000000067,"y":2544413.9999999981}},{"attributes":{"ID":598439,"DIS_CODE":0,"TOWNNAME":"中西區","LI":"藥王里","LIN":"15鄰","STREET":"民權路","SECT":"三段","MAREA":" ","LANE":" ","ALLEY":" ","HOUSE_NO":"４２６號","E_COORD97":166794.67999999999,"N_COORD97":2544415.54,"ADDRESS":"民權路三段４２６號","OBJECTID":598412},"geometry":{"x":166794.68000000156,"y":2544415.5399999991}},{"attributes":{"ID":598440,"DIS_CODE":0,"TOWNNAME":"安平區","LI":"國平里","LIN":"27鄰","STREET":"健康三街","SECT":" ","MAREA":" ","LANE":" ","ALLEY":" ","HOUSE_NO":"１４０號十一樓之１","E_COORD97":164752.78,"N_COORD97":2543131.3599999999,"ADDRESS":"健康三街１４０號十一樓之１","OBJECTID":598413},"geometry":{"x":164752.78000000026,"y":2543131.3599999994}},{"attributes":{"ID":598441,"DIS_CODE":0,"TOWNNAME":"安平區","LI":"國平里","LIN":"27鄰","STREET":"健康三街","SECT":" ","MAREA":" ","LANE":" ","ALLEY":" ","HOUSE_NO":"１４０號十四樓之１","E_COORD97":164752.78,"N_COORD97":2543131.3599999999,"ADDRESS":"健康三街１４０號十四樓之１","OBJECTID":598414},"geometry":{"x":164752.78000000026,"y":2543131.3599999994}},{"attributes":{"ID":598442,"DIS_CODE":0,"TOWNNAME":"安平區","LI":"國平里","LIN":"27鄰","STREET":"健康三街","SECT":" ","MAREA":" ","LANE":" ","ALLEY":" ","HOUSE_NO":"１４２號七樓之１","E_COORD97":164749.67999999999,"N_COORD97":2543112.8599999999,"ADDRESS":"健康三街１４２號七樓之１","OBJECTID":598415},"geometry":{"x":164749.6799999997,"y":2543112.8600000013}},{"attributes":{"ID":598443,"DIS_CODE":0,"TOWNNAME":"安平區","LI":"國平里","LIN":"27鄰","STREET":"健康三街","SECT":" ","MAREA":" ","LANE":" ","ALLEY":" ","HOUSE_NO":"１４０號五樓之２","E_COORD97":164752.78,"N_COORD97":2543131.3599999999,"ADDRESS":"健康三街１４０號五樓之２","OBJECTID":598416},"geometry":{"x":164752.78000000026,"y":2543131.3599999994}},{"attributes":{"ID":598444,"DIS_CODE":0,"TOWNNAME":"安平區","LI":"國平里","LIN":"27鄰","STREET":"健康三街","SECT":" ","MAREA":" ","LANE":" ","ALLEY":" ","HOUSE_NO":"１４０號四樓之１","E_COORD97":164752.78,"N_COORD97":2543131.3599999999,"ADDRESS":"健康三街１４０號四樓之１","OBJECTID":598417},"geometry":{"x":164752.78000000026,"y":2543131.3599999994}},{"attributes":{"ID":598445,"DIS_CODE":0,"TOWNNAME":"安平區","LI":"國平里","LIN":"27鄰","STREET":"健康三街","SECT":" ","MAREA":" ","LANE":" ","ALLEY":" ","HOUSE_NO":"１４０號四樓之２","E_COORD97":164752.78,"N_COORD97":2543131.3599999999,"ADDRESS":"健康三街１４０號四樓之２","OBJECTID":598418},"geometry":{"x":164752.78000000026,"y":2543131.3599999994}},{"attributes":{"ID":598446,"DIS_CODE":0,"TOWNNAME":"安平區","LI":"國平里","LIN":"27鄰","STREET":"健康三街","SECT":" ","MAREA":" ","LANE":" ","ALLEY":" ","HOUSE_NO":"１４０號十樓之２","E_COORD97":164752.78,"N_COORD97":2543131.3599999999,"ADDRESS":"健康三街１４０號十樓之２","OBJECTID":598419},"geometry":{"x":164752.78000000026,"y":2543131.3599999994}},{"attributes":{"ID":598447,"DIS_CODE":0,"TOWNNAME":"安平區","LI":"國平里","LIN":"27鄰","STREET":"健康三街","SECT":" ","MAREA":" ","LANE":" ","ALLEY":" ","HOUSE_NO":"１４０號十四樓之２","E_COORD97":164752.78,"N_COORD97":2543131.3599999999,"ADDRESS":"健康三街１４０號十四樓之２","OBJECTID":598420},"geometry":{"x":164752.78000000026,"y":2543131.3599999994}},{"attributes":{"ID":598448,"DIS_CODE":0,"TOWNNAME":"安平區","LI":"國平里","LIN":"27鄰","STREET":"健康三街","SECT":" ","MAREA":" ","LANE":" ","ALLEY":" ","HOUSE_NO":"１４０號六樓之１","E_COORD97":164752.78,"N_COORD97":2543131.3599999999,"ADDRESS":"健康三街１４０號六樓之１","OBJECTID":598421},"geometry":{"x":164752.78000000026,"y":2543131.3599999994}},{"attributes":{"ID":598449,"DIS_CODE":0,"TOWNNAME":"安平區","LI":"國平里","LIN":"27鄰","STREET":"健康三街","SECT":" ","MAREA":" ","LANE":" ","ALLEY":" ","HOUSE_NO":"１４０號十三樓之１","E_COORD97":164752.78,"N_COORD97":2543131.3599999999,"ADDRESS":"健康三街１４０號十三樓之１","OBJECTID":598422},"geometry":{"x":164752.78000000026,"y":2543131.3599999994}},{"attributes":{"ID":598450,"DIS_CODE":0,"TOWNNAME":"安平區","LI":"國平里","LIN":"27鄰","STREET":"健康三街","SECT":" ","MAREA":" ","LANE":" ","ALLEY":" ","HOUSE_NO":"１４０號八樓之１","E_COORD97":164752.78,"N_COORD97":2543131.3599999999,"ADDRESS":"健康三街１４０號八樓之１","OBJECTID":598423},"geometry":{"x":164752.78000000026,"y":2543131.3599999994}},{"attributes":{"ID":598451,"DIS_CODE":0,"TOWNNAME":"安平區","LI":"國平里","LIN":"27鄰","STREET":"健康三街","SECT":" ","MAREA":" ","LANE":" ","ALLEY":" ","HOUSE_NO":"１４２號七樓之２","E_COORD97":164749.67999999999,"N_COORD97":2543112.8599999999,"ADDRESS":"健康三街１４２號七樓之２","OBJECTID":598424},"geometry":{"x":164749.6799999997,"y":2543112.8600000013}},{"attributes":{"ID":598452,"DIS_CODE":0,"TOWNNAME":"安平區","LI":"國平里","LIN":"27鄰","STREET":"健康三街","SECT":" ","MAREA":" ","LANE":" ","ALLEY":" ","HOUSE_NO":"１４２號十一樓之２","E_COORD97":164749.67999999999,"N_COORD97":2543112.8599999999,"ADDRESS":"健康三街１４２號十一樓之２","OBJECTID":598425},"geometry":{"x":164749.6799999997,"y":2543112.8600000013}},{"attributes":{"ID":598453,"DIS_CODE":0,"TOWNNAME":"安平區","LI":"國平里","LIN":"27鄰","STREET":"健康三街","SECT":" ","MAREA":" ","LANE":" ","ALLEY":" ","HOUSE_NO":"１４２號十二樓之１","E_COORD97":164749.67999999999,"N_COORD97":2543112.8599999999,"ADDRESS":"健康三街１４２號十二樓之１","OBJECTID":598426},"geometry":{"x":164749.6799999997,"y":2543112.8600000013}},{"attributes":{"ID":598454,"DIS_CODE":0,"TOWNNAME":"安平區","LI":"國平里","LIN":"27鄰","STREET":"健康三街","SECT":" ","MAREA":" ","LANE":" ","ALLEY":" ","HOUSE_NO":"１４６號七樓之１","E_COORD97":164773.32999999999,"N_COORD97":2543110.3399999999,"ADDRESS":"健康三街１４６號七樓之１","OBJECTID":598427},"geometry":{"x":164773.33000000194,"y":2543110.3400000017}},{"attributes":{"ID":598455,"DIS_CODE":0,"TOWNNAME":"安平區","LI":"國平里","LIN":"27鄰","STREET":"健康三街","SECT":" ","MAREA":" ","LANE":" ","ALLEY":" ","HOUSE_NO":"１４６號二樓之１","E_COORD97":164773.32999999999,"N_COORD97":2543110.3399999999,"ADDRESS":"健康三街１４６號二樓之１","OBJECTID":598428},"geometry":{"x":164773.33000000194,"y":2543110.3400000017}},{"attributes":{"ID":598456,"DIS_CODE":0,"TOWNNAME":"安平區","LI":"國平里","LIN":"27鄰","STREET":"健康三街","SECT":" ","MAREA":" ","LANE":" ","ALLEY":" ","HOUSE_NO":"１４６號二樓之３","E_COORD97":164773.32999999999,"N_COORD97":2543110.3399999999,"ADDRESS":"健康三街１４６號二樓之３","OBJECTID":598429},"geometry":{"x":164773.33000000194,"y":2543110.3400000017}},{"attributes":{"ID":598457,"DIS_CODE":0,"TOWNNAME":"安平區","LI":"國平里","LIN":"27鄰","STREET":"健康三街","SECT":" ","MAREA":" ","LANE":" ","ALLEY":" ","HOUSE_NO":"１４６號三樓之３","E_COORD97":164773.32999999999,"N_COORD97":2543110.3399999999,"ADDRESS":"健康三街１４６號三樓之３","OBJECTID":598430},"geometry":{"x":164773.33000000194,"y":2543110.3400000017}},{"attributes":{"ID":598458,"DIS_CODE":0,"TOWNNAME":"安平區","LI":"國平里","LIN":"27鄰","STREET":"健康三街","SECT":" ","MAREA":" ","LANE":" ","ALLEY":" ","HOUSE_NO":"１４６號五樓之１","E_COORD97":164773.32999999999,"N_COORD97":2543110.3399999999,"ADDRESS":"健康三街１４６號五樓之１","OBJECTID":598431},"geometry":{"x":164773.33000000194,"y":2543110.3400000017}},{"attributes":{"ID":598459,"DIS_CODE":0,"TOWNNAME":"安平區","LI":"國平里","LIN":"27鄰","STREET":"健康三街","SECT":" ","MAREA":" ","LANE":" ","ALLEY":" ","HOUSE_NO":"１４６號六樓之３","E_COORD97":164773.32999999999,"N_COORD97":2543110.3399999999,"ADDRESS":"健康三街１４６號六樓之３","OBJECTID":598432},"geometry":{"x":164773.33000000194,"y":2543110.3400000017}},{"attributes":{"ID":598460,"DIS_CODE":0,"TOWNNAME":"安平區","LI":"國平里","LIN":"27鄰","STREET":"健康三街","SECT":" ","MAREA":" ","LANE":" ","ALLEY":" ","HOUSE_NO":"１４８號七樓之３","E_COORD97":164775.39000000001,"N_COORD97":2543128.9300000002,"ADDRESS":"健康三街１４８號七樓之３","OBJECTID":598433},"geometry":{"x":164775.38999999966,"y":2543128.9299999997}},{"attributes":{"ID":598461,"DIS_CODE":0,"TOWNNAME":"安平區","LI":"國平里","LIN":"27鄰","STREET":"健康三街","SECT":" ","MAREA":" ","LANE":" ","ALLEY":" ","HOUSE_NO":"１４８號十二樓之３","E_COORD97":164775.39000000001,"N_COORD97":2543128.9300000002,"ADDRESS":"健康三街１４８號十二樓之３","OBJECTID":598434},"geometry":{"x":164775.38999999966,"y":2543128.9299999997}},{"attributes":{"ID":598462,"DIS_CODE":0,"TOWNNAME":"永康區","LI":"崑山里","LIN":"22鄰","STREET":"國光二街","SECT":" ","MAREA":" ","LANE":" ","ALLEY":" ","HOUSE_NO":"３１號","E_COORD97":174000.26000000001,"N_COORD97":2544678,"ADDRESS":"國光二街３１號","OBJECTID":598435},"geometry":{"x":174000.25999999885,"y":2544678}},{"attributes":{"ID":598463,"DIS_CODE":0,"TOWNNAME":"安平區","LI":"國平里","LIN":"27鄰","STREET":"健康三街","SECT":" ","MAREA":" ","LANE":" ","ALLEY":" ","HOUSE_NO":"１４８號十三樓之２","E_COORD97":164775.39000000001,"N_COORD97":2543128.9300000002,"ADDRESS":"健康三街１４８號十三樓之２","OBJECTID":598436},"geometry":{"x":164775.38999999966,"y":2543128.9299999997}},{"attributes":{"ID":598464,"DIS_CODE":0,"TOWNNAME":"安平區","LI":"國平里","LIN":"27鄰","STREET":"健康三街","SECT":" ","MAREA":" ","LANE":" ","ALLEY":" ","HOUSE_NO":"１４８號十四樓之３","E_COORD97":164775.39000000001,"N_COORD97":2543128.9300000002,"ADDRESS":"健康三街１４８號十四樓之３","OBJECTID":598437},"geometry":{"x":164775.38999999966,"y":2543128.9299999997}},{"attributes":{"ID":598465,"DIS_CODE":0,"TOWNNAME":"安平區","LI":"國平里","LIN":"27鄰","STREET":"健康三街","SECT":" ","MAREA":" ","LANE":" ","ALLEY":" ","HOUSE_NO":"１５０號七樓之２","E_COORD97":164777.10000000001,"N_COORD97":2543144.1099999999,"ADDRESS":"健康三街１５０號七樓之２","OBJECTID":598438},"geometry":{"x":164777.09999999963,"y":2543144.1099999994}},{"attributes":{"ID":598466,"DIS_CODE":0,"TOWNNAME":"安平區","LI":"國平里","LIN":"27鄰","STREET":"健康三街","SECT":" ","MAREA":" ","LANE":" ","ALLEY":" ","HOUSE_NO":"１５０號三樓之１","E_COORD97":164777.10000000001,"N_COORD97":2543144.1099999999,"ADDRESS":"健康三街１５０號三樓之１","OBJECTID":598439},"geometry":{"x":164777.09999999963,"y":2543144.1099999994}},{"attributes":{"ID":598467,"DIS_CODE":0,"TOWNNAME":"安平區","LI":"國平里","LIN":"27鄰","STREET":"健康三街","SECT":" ","MAREA":" ","LANE":" ","ALLEY":" ","HOUSE_NO":"１５０號八樓之１","E_COORD97":164777.10000000001,"N_COORD97":2543144.1099999999,"ADDRESS":"健康三街１５０號八樓之１","OBJECTID":598440},"geometry":{"x":164777.09999999963,"y":2543144.1099999994}},{"attributes":{"ID":598468,"DIS_CODE":0,"TOWNNAME":"安平區","LI":"國平里","LIN":"27鄰","STREET":"健康三街","SECT":" ","MAREA":" ","LANE":" ","ALLEY":" ","HOUSE_NO":"１５２號七樓之２","E_COORD97":164778.89999999999,"N_COORD97":2543159.3900000001,"ADDRESS":"健康三街１５２號七樓之２","OBJECTID":598441},"geometry":{"x":164778.9000000013,"y":2543159.3900000006}},{"attributes":{"ID":598469,"DIS_CODE":0,"TOWNNAME":"安平區","LI":"國平里","LIN":"27鄰","STREET":"健康三街","SECT":" ","MAREA":" ","LANE":" ","ALLEY":" ","HOUSE_NO":"１５２號二樓之２","E_COORD97":164778.89999999999,"N_COORD97":2543159.3900000001,"ADDRESS":"健康三街１５２號二樓之２","OBJECTID":598442},"geometry":{"x":164778.9000000013,"y":2543159.3900000006}},{"attributes":{"ID":598470,"DIS_CODE":0,"TOWNNAME":"永康區","LI":"埔園里","LIN":"18鄰","STREET":"龍埔街","SECT":" ","MAREA":" ","LANE":" ","ALLEY":" ","HOUSE_NO":"４７１號","E_COORD97":173514.23999999999,"N_COORD97":2548370.4900000002,"ADDRESS":"龍埔街４７１號","OBJECTID":598443},"geometry":{"x":173514.24000000022,"y":2548370.4900000002}},{"attributes":{"ID":598471,"DIS_CODE":0,"TOWNNAME":"永康區","LI":"勝利里","LIN":"20鄰","STREET":"勝學路","SECT":" ","MAREA":" ","LANE":" ","ALLEY":" ","HOUSE_NO":"２６１號","E_COORD97":171180.35999999999,"N_COORD97":2545291.0099999998,"ADDRESS":"勝學路２６１號","OBJECTID":598444},"geometry":{"x":171180.36000000034,"y":2545291.0099999998}},{"attributes":{"ID":598472,"DIS_CODE":0,"TOWNNAME":"永康區","LI":"勝利里","LIN":"41鄰","STREET":"中華路","SECT":" ","MAREA":" ","LANE":" ","ALLEY":" ","HOUSE_NO":"２０９號","E_COORD97":171599.19,"N_COORD97":2545032.9500000002,"ADDRESS":"中華路２０９號","OBJECTID":598445},"geometry":{"x":171599.19000000041,"y":2545032.9499999993}},{"attributes":{"ID":598473,"DIS_CODE":0,"TOWNNAME":"安平區","LI":"國平里","LIN":"27鄰","STREET":"健康三街","SECT":" ","MAREA":" ","LANE":" ","ALLEY":" ","HOUSE_NO":"１５２號十三樓之１","E_COORD97":164778.89999999999,"N_COORD97":2543159.3900000001,"ADDRESS":"健康三街１５２號十三樓之１","OBJECTID":598446},"geometry":{"x":164778.9000000013,"y":2543159.3900000006}},{"attributes":{"ID":598474,"DIS_CODE":0,"TOWNNAME":"安平區","LI":"國平里","LIN":"27鄰","STREET":"健康三街","SECT":" ","MAREA":" ","LANE":" ","ALLEY":" ","HOUSE_NO":"１５２號十四樓之２","E_COORD97":164778.89999999999,"N_COORD97":2543159.3900000001,"ADDRESS":"健康三街１５２號十四樓之２","OBJECTID":598447},"geometry":{"x":164778.9000000013,"y":2543159.3900000006}},{"attributes":{"ID":598475,"DIS_CODE":0,"TOWNNAME":"安平區","LI":"國平里","LIN":"27鄰","STREET":"健康三街","SECT":" ","MAREA":" ","LANE":" ","ALLEY":" ","HOUSE_NO":"１４０號三樓之１","E_COORD97":164752.78,"N_COORD97":2543131.3599999999,"ADDRESS":"健康三街１４０號三樓之１","OBJECTID":598448},"geometry":{"x":164752.78000000026,"y":2543131.3599999994}},{"attributes":{"ID":598476,"DIS_CODE":0,"TOWNNAME":"安平區","LI":"國平里","LIN":"27鄰","STREET":"健康三街","SECT":" ","MAREA":" ","LANE":" ","ALLEY":" ","HOUSE_NO":"１４２號二樓之２","E_COORD97":164749.67999999999,"N_COORD97":2543112.8599999999,"ADDRESS":"健康三街１４２號二樓之２","OBJECTID":598449},"geometry":{"x":164749.6799999997,"y":2543112.8600000013}},{"attributes":{"ID":598477,"DIS_CODE":0,"TOWNNAME":"安平區","LI":"國平里","LIN":"27鄰","STREET":"健康三街","SECT":" ","MAREA":" ","LANE":" ","ALLEY":" ","HOUSE_NO":"１４２號四樓之１","E_COORD97":164749.67999999999,"N_COORD97":2543112.8599999999,"ADDRESS":"健康三街１４２號四樓之１","OBJECTID":598450},"geometry":{"x":164749.6799999997,"y":2543112.8600000013}},{"attributes":{"ID":598478,"DIS_CODE":0,"TOWNNAME":"安平區","LI":"國平里","LIN":"27鄰","STREET":"健康三街","SECT":" ","MAREA":" ","LANE":" ","ALLEY":" ","HOUSE_NO":"１４２號五樓之１","E_COORD97":164749.67999999999,"N_COORD97":2543112.8599999999,"ADDRESS":"健康三街１４２號五樓之１","OBJECTID":598451},"geometry":{"x":164749.6799999997,"y":2543112.8600000013}},{"attributes":{"ID":598479,"DIS_CODE":0,"TOWNNAME":"安平區","LI":"國平里","LIN":"27鄰","STREET":"健康三街","SECT":" ","MAREA":" ","LANE":" ","ALLEY":" ","HOUSE_NO":"１４２號八樓之２","E_COORD97":164749.67999999999,"N_COORD97":2543112.8599999999,"ADDRESS":"健康三街１４２號八樓之２","OBJECTID":598452},"geometry":{"x":164749.6799999997,"y":2543112.8600000013}},{"attributes":{"ID":598480,"DIS_CODE":0,"TOWNNAME":"永康區","LI":"勝利里","LIN":"20鄰","STREET":"勝華街","SECT":" ","MAREA":" ","LANE":" ","ALLEY":" ","HOUSE_NO":"８５號","E_COORD97":171278.89000000001,"N_COORD97":2545205.5099999998,"ADDRESS":"勝華街８５號","OBJECTID":598453},"geometry":{"x":171278.8900000006,"y":2545205.5099999998}},{"attributes":{"ID":598481,"DIS_CODE":0,"TOWNNAME":"東區","LI":"大智里","LIN":"25鄰","STREET":"文東街","SECT":" ","MAREA":" ","LANE":" ","ALLEY":" ","HOUSE_NO":"７０號","E_COORD97":171408.48000000001,"N_COORD97":2540197.1000000001,"ADDRESS":"文東街７０號","OBJECTID":598454},"geometry":{"x":171408.48000000138,"y":2540197.1000000015}},{"attributes":{"ID":598482,"DIS_CODE":0,"TOWNNAME":"永康區","LI":"復國里","LIN":"17鄰","STREET":"國華街","SECT":" ","MAREA":" ","LANE":" ","ALLEY":" ","HOUSE_NO":"３４號","E_COORD97":172847.07999999999,"N_COORD97":2545650.2799999998,"ADDRESS":"國華街３４號","OBJECTID":598455},"geometry":{"x":172847.08000000007,"y":2545650.2800000012}},{"attributes":{"ID":598483,"DIS_CODE":0,"TOWNNAME":"永康區","LI":"復國里","LIN":"7鄰","STREET":"復國一路","SECT":" ","MAREA":" ","LANE":" ","ALLEY":" ","HOUSE_NO":"２１６號","E_COORD97":172736.98999999999,"N_COORD97":2545227.52,"ADDRESS":"復國一路２１６號","OBJECTID":598456},"geometry":{"x":172736.99000000115,"y":2545227.5200000014}},{"attributes":{"ID":598484,"DIS_CODE":0,"TOWNNAME":"永康區","LI":"勝利里","LIN":"33鄰","STREET":"中華路","SECT":" ","MAREA":" ","LANE":" ","ALLEY":" ","HOUSE_NO":"１號之３１","E_COORD97":171501.85999999999,"N_COORD97":2544353.0499999998,"ADDRESS":"中華路１號之３１","OBJECTID":598457},"geometry":{"x":171501.86000000127,"y":2544353.0500000007}},{"attributes":{"ID":598485,"DIS_CODE":0,"TOWNNAME":"永康區","LI":"勝利里","LIN":"33鄰","STREET":"中華路","SECT":" ","MAREA":" ","LANE":" ","ALLEY":" ","HOUSE_NO":"１號之１４２","E_COORD97":171503.23999999999,"N_COORD97":2544353.0499999998,"ADDRESS":"中華路１號之１４２","OBJECTID":598458},"geometry":{"x":171503.24000000022,"y":2544353.0500000007}},{"attributes":{"ID":598486,"DIS_CODE":0,"TOWNNAME":"永康區","LI":"勝利里","LIN":"33鄰","STREET":"中華路","SECT":" ","MAREA":" ","LANE":" ","ALLEY":" ","HOUSE_NO":"１號之３６","E_COORD97":171501.95999999999,"N_COORD97":2544353.0499999998,"ADDRESS":"中華路１號之３６","OBJECTID":598459},"geometry":{"x":171501.95999999996,"y":2544353.0500000007}},{"attributes":{"ID":598487,"DIS_CODE":0,"TOWNNAME":"安平區","LI":"國平里","LIN":"27鄰","STREET":"健康三街","SECT":" ","MAREA":" ","LANE":" ","ALLEY":" ","HOUSE_NO":"１４２號六樓之２","E_COORD97":164749.67999999999,"N_COORD97":2543112.8599999999,"ADDRESS":"健康三街１４２號六樓之２","OBJECTID":598460},"geometry":{"x":164749.6799999997,"y":2543112.8600000013}},{"attributes":{"ID":598488,"DIS_CODE":0,"TOWNNAME":"安平區","LI":"國平里","LIN":"27鄰","STREET":"健康三街","SECT":" ","MAREA":" ","LANE":" ","ALLEY":" ","HOUSE_NO":"１４２號九樓之１","E_COORD97":164749.67999999999,"N_COORD97":2543112.8599999999,"ADDRESS":"健康三街１４２號九樓之１","OBJECTID":598461},"geometry":{"x":164749.6799999997,"y":2543112.8600000013}},{"attributes":{"ID":598489,"DIS_CODE":0,"TOWNNAME":"安平區","LI":"國平里","LIN":"27鄰","STREET":"健康三街","SECT":" ","MAREA":" ","LANE":" ","ALLEY":" ","HOUSE_NO":"１４２號十二樓之２","E_COORD97":164749.67999999999,"N_COORD97":2543112.8599999999,"ADDRESS":"健康三街１４２號十二樓之２","OBJECTID":598462},"geometry":{"x":164749.6799999997,"y":2543112.8600000013}},{"attributes":{"ID":598490,"DIS_CODE":0,"TOWNNAME":"安平區","LI":"國平里","LIN":"27鄰","STREET":"健康三街","SECT":" ","MAREA":" ","LANE":" ","ALLEY":" ","HOUSE_NO":"１４０號十樓之１","E_COORD97":164752.78,"N_COORD97":2543131.3599999999,"ADDRESS":"健康三街１４０號十樓之１","OBJECTID":598463},"geometry":{"x":164752.78000000026,"y":2543131.3599999994}},{"attributes":{"ID":598491,"DIS_CODE":0,"TOWNNAME":"安平區","LI":"國平里","LIN":"27鄰","STREET":"健康三街","SECT":" ","MAREA":" ","LANE":" ","ALLEY":" ","HOUSE_NO":"１４０號十三樓之２","E_COORD97":164752.78,"N_COORD97":2543131.3599999999,"ADDRESS":"健康三街１４０號十三樓之２","OBJECTID":598464},"geometry":{"x":164752.78000000026,"y":2543131.3599999994}},{"attributes":{"ID":598492,"DIS_CODE":0,"TOWNNAME":"安平區","LI":"國平里","LIN":"27鄰","STREET":"健康三街","SECT":" ","MAREA":" ","LANE":" ","ALLEY":" ","HOUSE_NO":"１４０號二樓之２","E_COORD97":164752.78,"N_COORD97":2543131.3599999999,"ADDRESS":"健康三街１４０號二樓之２","OBJECTID":598465},"geometry":{"x":164752.78000000026,"y":2543131.3599999994}},{"attributes":{"ID":598493,"DIS_CODE":0,"TOWNNAME":"安平區","LI":"國平里","LIN":"27鄰","STREET":"健康三街","SECT":" ","MAREA":" ","LANE":" ","ALLEY":" ","HOUSE_NO":"１４０號三樓之２","E_COORD97":164752.78,"N_COORD97":2543131.3599999999,"ADDRESS":"健康三街１４０號三樓之２","OBJECTID":598466},"geometry":{"x":164752.78000000026,"y":2543131.3599999994}},{"attributes":{"ID":598494,"DIS_CODE":0,"TOWNNAME":"安平區","LI":"國平里","LIN":"27鄰","STREET":"健康三街","SECT":" ","MAREA":" ","LANE":" ","ALLEY":" ","HOUSE_NO":"１４０號六樓之２","E_COORD97":164752.78,"N_COORD97":2543131.3599999999,"ADDRESS":"健康三街１４０號六樓之２","OBJECTID":598467},"geometry":{"x":164752.78000000026,"y":2543131.3599999994}},{"attributes":{"ID":598495,"DIS_CODE":0,"TOWNNAME":"安平區","LI":"國平里","LIN":"27鄰","STREET":"健康三街","SECT":" ","MAREA":" ","LANE":" ","ALLEY":" ","HOUSE_NO":"１４０號九樓之２","E_COORD97":164752.78,"N_COORD97":2543131.3599999999,"ADDRESS":"健康三街１４０號九樓之２","OBJECTID":598468},"geometry":{"x":164752.78000000026,"y":2543131.3599999994}},{"attributes":{"ID":598496,"DIS_CODE":0,"TOWNNAME":"永康區","LI":"復國里","LIN":"18鄰","STREET":"國華街","SECT":" ","MAREA":" ","LANE":" ","ALLEY":" ","HOUSE_NO":"２７號","E_COORD97":172823.70000000001,"N_COORD97":2545662.9900000002,"ADDRESS":"國華街２７號","OBJECTID":598469},"geometry":{"x":172823.70000000112,"y":2545662.9900000021}},{"attributes":{"ID":598497,"DIS_CODE":0,"TOWNNAME":"永康區","LI":"復國里","LIN":"7鄰","STREET":"復國一路","SECT":" ","MAREA":" ","LANE":" ","ALLEY":" ","HOUSE_NO":"１４６號","E_COORD97":172726.14000000001,"N_COORD97":2545064.7799999998,"ADDRESS":"復國一路１４６號","OBJECTID":598470},"geometry":{"x":172726.13999999966,"y":2545064.7799999993}},{"attributes":{"ID":598498,"DIS_CODE":0,"TOWNNAME":"永康區","LI":"復國里","LIN":"7鄰","STREET":"復國一路","SECT":" ","MAREA":" ","LANE":" ","ALLEY":" ","HOUSE_NO":"２２８號","E_COORD97":172738.64999999999,"N_COORD97":2545245.4500000002,"ADDRESS":"復國一路２２８號","OBJECTID":598471},"geometry":{"x":172738.65000000037,"y":2545245.4500000011}},{"attributes":{"ID":598499,"DIS_CODE":0,"TOWNNAME":"永康區","LI":"崑山里","LIN":"23鄰","STREET":"國光二街","SECT":" ","MAREA":" ","LANE":" ","ALLEY":" ","HOUSE_NO":"６５號","E_COORD97":173896.87,"N_COORD97":2544715.1400000001,"ADDRESS":"國光二街６５號","OBJECTID":598472},"geometry":{"x":173896.87000000104,"y":2544715.1400000006}},{"attributes":{"ID":598500,"DIS_CODE":0,"TOWNNAME":"安平區","LI":"國平里","LIN":"27鄰","STREET":"健康三街","SECT":" ","MAREA":" ","LANE":" ","ALLEY":" ","HOUSE_NO":"１４０號十一樓之２","E_COORD97":164752.78,"N_COORD97":2543131.3599999999,"ADDRESS":"健康三街１４０號十一樓之２","OBJECTID":598473},"geometry":{"x":164752.78000000026,"y":2543131.3599999994}},{"attributes":{"ID":598501,"DIS_CODE":0,"TOWNNAME":"安平區","LI":"國平里","LIN":"27鄰","STREET":"健康三街","SECT":" ","MAREA":" ","LANE":" ","ALLEY":" ","HOUSE_NO":"１４０號七樓之２","E_COORD97":164752.78,"N_COORD97":2543131.3599999999,"ADDRESS":"健康三街１４０號七樓之２","OBJECTID":598474},"geometry":{"x":164752.78000000026,"y":2543131.3599999994}},{"attributes":{"ID":598502,"DIS_CODE":0,"TOWNNAME":"安平區","LI":"國平里","LIN":"27鄰","STREET":"健康三街","SECT":" ","MAREA":" ","LANE":" ","ALLEY":" ","HOUSE_NO":"１４２號三樓之１","E_COORD97":164749.67999999999,"N_COORD97":2543112.8599999999,"ADDRESS":"健康三街１４２號三樓之１","OBJECTID":598475},"geometry":{"x":164749.6799999997,"y":2543112.8600000013}},{"attributes":{"ID":598503,"DIS_CODE":0,"TOWNNAME":"安平區","LI":"國平里","LIN":"27鄰","STREET":"健康三街","SECT":" ","MAREA":" ","LANE":" ","ALLEY":" ","HOUSE_NO":"１４２號十樓之２","E_COORD97":164749.67999999999,"N_COORD97":2543112.8599999999,"ADDRESS":"健康三街１４２號十樓之２","OBJECTID":598476},"geometry":{"x":164749.6799999997,"y":2543112.8600000013}},{"attributes":{"ID":598504,"DIS_CODE":0,"TOWNNAME":"安平區","LI":"國平里","LIN":"27鄰","STREET":"健康三街","SECT":" ","MAREA":" ","LANE":" ","ALLEY":" ","HOUSE_NO":"１４２號十三樓之１","E_COORD97":164749.67999999999,"N_COORD97":2543112.8599999999,"ADDRESS":"健康三街１４２號十三樓之１","OBJECTID":598477},"geometry":{"x":164749.6799999997,"y":2543112.8600000013}},{"attributes":{"ID":598505,"DIS_CODE":0,"TOWNNAME":"安平區","LI":"國平里","LIN":"27鄰","STREET":"健康三街","SECT":" ","MAREA":" ","LANE":" ","ALLEY":" ","HOUSE_NO":"１４６號十二樓之３","E_COORD97":164773.32999999999,"N_COORD97":2543110.3399999999,"ADDRESS":"健康三街１４６號十二樓之３","OBJECTID":598478},"geometry":{"x":164773.33000000194,"y":2543110.3400000017}},{"attributes":{"ID":598506,"DIS_CODE":0,"TOWNNAME":"安平區","LI":"國平里","LIN":"27鄰","STREET":"健康三街","SECT":" ","MAREA":" ","LANE":" ","ALLEY":" ","HOUSE_NO":"１４６號十四樓之３","E_COORD97":164773.32999999999,"N_COORD97":2543110.3399999999,"ADDRESS":"健康三街１４６號十四樓之３","OBJECTID":598479},"geometry":{"x":164773.33000000194,"y":2543110.3400000017}},{"attributes":{"ID":598507,"DIS_CODE":0,"TOWNNAME":"安平區","LI":"國平里","LIN":"27鄰","STREET":"健康三街","SECT":" ","MAREA":" ","LANE":" ","ALLEY":" ","HOUSE_NO":"１４６號九樓之２","E_COORD97":164773.32999999999,"N_COORD97":2543110.3399999999,"ADDRESS":"健康三街１４６號九樓之２","OBJECTID":598480},"geometry":{"x":164773.33000000194,"y":2543110.3400000017}},{"attributes":{"ID":598508,"DIS_CODE":0,"TOWNNAME":"安平區","LI":"國平里","LIN":"27鄰","STREET":"健康三街","SECT":" ","MAREA":" ","LANE":" ","ALLEY":" ","HOUSE_NO":"１４６號十一樓之１","E_COORD97":164773.32999999999,"N_COORD97":2543110.3399999999,"ADDRESS":"健康三街１４６號十一樓之１","OBJECTID":598481},"geometry":{"x":164773.33000000194,"y":2543110.3400000017}},{"attributes":{"ID":598509,"DIS_CODE":0,"TOWNNAME":"安平區","LI":"國平里","LIN":"27鄰","STREET":"健康三街","SECT":" ","MAREA":" ","LANE":" ","ALLEY":" ","HOUSE_NO":"１４６號三樓之２","E_COORD97":164773.32999999999,"N_COORD97":2543110.3399999999,"ADDRESS":"健康三街１４６號三樓之２","OBJECTID":598482},"geometry":{"x":164773.33000000194,"y":2543110.3400000017}},{"attributes":{"ID":598510,"DIS_CODE":0,"TOWNNAME":"安平區","LI":"國平里","LIN":"27鄰","STREET":"健康三街","SECT":" ","MAREA":" ","LANE":" ","ALLEY":" ","HOUSE_NO":"１４６號四樓之２","E_COORD97":164773.32999999999,"N_COORD97":2543110.3399999999,"ADDRESS":"健康三街１４６號四樓之２","OBJECTID":598483},"geometry":{"x":164773.33000000194,"y":2543110.3400000017}},{"attributes":{"ID":598511,"DIS_CODE":0,"TOWNNAME":"安平區","LI":"國平里","LIN":"27鄰","STREET":"健康三街","SECT":" ","MAREA":" ","LANE":" ","ALLEY":" ","HOUSE_NO":"１４６號六樓之１","E_COORD97":164773.32999999999,"N_COORD97":2543110.3399999999,"ADDRESS":"健康三街１４６號六樓之１","OBJECTID":598484},"geometry":{"x":164773.33000000194,"y":2543110.3400000017}},{"attributes":{"ID":598512,"DIS_CODE":0,"TOWNNAME":"安平區","LI":"國平里","LIN":"27鄰","STREET":"健康三街","SECT":" ","MAREA":" ","LANE":" ","ALLEY":" ","HOUSE_NO":"１４６號七樓之３","E_COORD97":164773.32999999999,"N_COORD97":2543110.3399999999,"ADDRESS":"健康三街１４６號七樓之３","OBJECTID":598485},"geometry":{"x":164773.33000000194,"y":2543110.3400000017}},{"attributes":{"ID":598513,"DIS_CODE":0,"TOWNNAME":"安平區","LI":"國平里","LIN":"27鄰","STREET":"健康三街","SECT":" ","MAREA":" ","LANE":" ","ALLEY":" ","HOUSE_NO":"１４６號十三樓之３","E_COORD97":164773.32999999999,"N_COORD97":2543110.3399999999,"ADDRESS":"健康三街１４６號十三樓之３","OBJECTID":598486},"geometry":{"x":164773.33000000194,"y":2543110.3400000017}},{"attributes":{"ID":598514,"DIS_CODE":0,"TOWNNAME":"安平區","LI":"國平里","LIN":"27鄰","STREET":"健康三街","SECT":" ","MAREA":" ","LANE":" ","ALLEY":" ","HOUSE_NO":"１４６號八樓之１","E_COORD97":164773.32999999999,"N_COORD97":2543110.3399999999,"ADDRESS":"健康三街１４６號八樓之１","OBJECTID":598487},"geometry":{"x":164773.33000000194,"y":2543110.3400000017}},{"attributes":{"ID":598515,"DIS_CODE":0,"TOWNNAME":"安平區","LI":"國平里","LIN":"27鄰","STREET":"健康三街","SECT":" ","MAREA":" ","LANE":" ","ALLEY":" ","HOUSE_NO":"１４８號三樓之２","E_COORD97":164775.39000000001,"N_COORD97":2543128.9300000002,"ADDRESS":"健康三街１４８號三樓之２","OBJECTID":598488},"geometry":{"x":164775.38999999966,"y":2543128.9299999997}},{"attributes":{"ID":598516,"DIS_CODE":0,"TOWNNAME":"安平區","LI":"國平里","LIN":"27鄰","STREET":"健康三街","SECT":" ","MAREA":" ","LANE":" ","ALLEY":" ","HOUSE_NO":"１４８號六樓之３","E_COORD97":164775.39000000001,"N_COORD97":2543128.9300000002,"ADDRESS":"健康三街１４８號六樓之３","OBJECTID":598489},"geometry":{"x":164775.38999999966,"y":2543128.9299999997}},{"attributes":{"ID":598517,"DIS_CODE":0,"TOWNNAME":"安平區","LI":"國平里","LIN":"27鄰","STREET":"健康三街","SECT":" ","MAREA":" ","LANE":" ","ALLEY":" ","HOUSE_NO":"１４８號十一樓之３","E_COORD97":164775.39000000001,"N_COORD97":2543128.9300000002,"ADDRESS":"健康三街１４８號十一樓之３","OBJECTID":598490},"geometry":{"x":164775.38999999966,"y":2543128.9299999997}},{"attributes":{"ID":598518,"DIS_CODE":0,"TOWNNAME":"安平區","LI":"國平里","LIN":"27鄰","STREET":"健康三街","SECT":" ","MAREA":" ","LANE":" ","ALLEY":" ","HOUSE_NO":"１４８號二樓之１","E_COORD97":164775.39000000001,"N_COORD97":2543128.9300000002,"ADDRESS":"健康三街１４８號二樓之１","OBJECTID":598491},"geometry":{"x":164775.38999999966,"y":2543128.9299999997}},{"attributes":{"ID":598519,"DIS_CODE":0,"TOWNNAME":"安平區","LI":"國平里","LIN":"27鄰","STREET":"健康三街","SECT":" ","MAREA":" ","LANE":" ","ALLEY":" ","HOUSE_NO":"１４８號二樓之３","E_COORD97":164775.39000000001,"N_COORD97":2543128.9300000002,"ADDRESS":"健康三街１４８號二樓之３","OBJECTID":598492},"geometry":{"x":164775.38999999966,"y":2543128.9299999997}},{"attributes":{"ID":598520,"DIS_CODE":0,"TOWNNAME":"安平區","LI":"國平里","LIN":"27鄰","STREET":"健康三街","SECT":" ","MAREA":" ","LANE":" ","ALLEY":" ","HOUSE_NO":"１４８號十一樓之１","E_COORD97":164775.39000000001,"N_COORD97":2543128.9300000002,"ADDRESS":"健康三街１４８號十一樓之１","OBJECTID":598493},"geometry":{"x":164775.38999999966,"y":2543128.9299999997}},{"attributes":{"ID":598521,"DIS_CODE":0,"TOWNNAME":"安平區","LI":"國平里","LIN":"27鄰","STREET":"健康三街","SECT":" ","MAREA":" ","LANE":" ","ALLEY":" ","HOUSE_NO":"１４８號三樓之１","E_COORD97":164775.39000000001,"N_COORD97":2543128.9300000002,"ADDRESS":"健康三街１４８號三樓之１","OBJECTID":598494},"geometry":{"x":164775.38999999966,"y":2543128.9299999997}},{"attributes":{"ID":598522,"DIS_CODE":0,"TOWNNAME":"安平區","LI":"國平里","LIN":"27鄰","STREET":"健康三街","SECT":" ","MAREA":" ","LANE":" ","ALLEY":" ","HOUSE_NO":"１４８號四樓之１","E_COORD97":164775.39000000001,"N_COORD97":2543128.9300000002,"ADDRESS":"健康三街１４８號四樓之１","OBJECTID":598495},"geometry":{"x":164775.38999999966,"y":2543128.9299999997}},{"attributes":{"ID":598523,"DIS_CODE":0,"TOWNNAME":"安平區","LI":"國平里","LIN":"27鄰","STREET":"健康三街","SECT":" ","MAREA":" ","LANE":" ","ALLEY":" ","HOUSE_NO":"１４８號九樓之１","E_COORD97":164775.39000000001,"N_COORD97":2543128.9300000002,"ADDRESS":"健康三街１４８號九樓之１","OBJECTID":598496},"geometry":{"x":164775.38999999966,"y":2543128.9299999997}},{"attributes":{"ID":598524,"DIS_CODE":0,"TOWNNAME":"安平區","LI":"國平里","LIN":"27鄰","STREET":"健康三街","SECT":" ","MAREA":" ","LANE":" ","ALLEY":" ","HOUSE_NO":"１４８號十三樓之３","E_COORD97":164775.39000000001,"N_COORD97":2543128.9300000002,"ADDRESS":"健康三街１４８號十三樓之３","OBJECTID":598497},"geometry":{"x":164775.38999999966,"y":2543128.9299999997}},{"attributes":{"ID":598525,"DIS_CODE":0,"TOWNNAME":"安平區","LI":"國平里","LIN":"27鄰","STREET":"健康三街","SECT":" ","MAREA":" ","LANE":" ","ALLEY":" ","HOUSE_NO":"１４８號十四樓之１","E_COORD97":164775.39000000001,"N_COORD97":2543128.9300000002,"ADDRESS":"健康三街１４８號十四樓之１","OBJECTID":598498},"geometry":{"x":164775.38999999966,"y":2543128.9299999997}},{"attributes":{"ID":598526,"DIS_CODE":0,"TOWNNAME":"安平區","LI":"國平里","LIN":"27鄰","STREET":"健康三街","SECT":" ","MAREA":" ","LANE":" ","ALLEY":" ","HOUSE_NO":"１４８號三樓之３","E_COORD97":164775.39000000001,"N_COORD97":2543128.9300000002,"ADDRESS":"健康三街１４８號三樓之３","OBJECTID":598499},"geometry":{"x":164775.38999999966,"y":2543128.9299999997}},{"attributes":{"ID":598527,"DIS_CODE":0,"TOWNNAME":"安平區","LI":"國平里","LIN":"27鄰","STREET":"健康三街","SECT":" ","MAREA":" ","LANE":" ","ALLEY":" ","HOUSE_NO":"１４８號七樓之２","E_COORD97":164775.39000000001,"N_COORD97":2543128.9300000002,"ADDRESS":"健康三街１４８號七樓之２","OBJECTID":598500},"geometry":{"x":164775.38999999966,"y":2543128.9299999997}},{"attributes":{"ID":598528,"DIS_CODE":0,"TOWNNAME":"安平區","LI":"國平里","LIN":"27鄰","STREET":"健康三街","SECT":" ","MAREA":" ","LANE":" ","ALLEY":" ","HOUSE_NO":"１４８號十一樓之２","E_COORD97":164775.39000000001,"N_COORD97":2543128.9300000002,"ADDRESS":"健康三街１４８號十一樓之２","OBJECTID":598501},"geometry":{"x":164775.38999999966,"y":2543128.9299999997}},{"attributes":{"ID":598529,"DIS_CODE":0,"TOWNNAME":"安平區","LI":"國平里","LIN":"27鄰","STREET":"健康三街","SECT":" ","MAREA":" ","LANE":" ","ALLEY":" ","HOUSE_NO":"１４８號五樓之１","E_COORD97":164775.39000000001,"N_COORD97":2543128.9300000002,"ADDRESS":"健康三街１４８號五樓之１","OBJECTID":598502},"geometry":{"x":164775.38999999966,"y":2543128.9299999997}},{"attributes":{"ID":598530,"DIS_CODE":0,"TOWNNAME":"安平區","LI":"國平里","LIN":"27鄰","STREET":"健康三街","SECT":" ","MAREA":" ","LANE":" ","ALLEY":" ","HOUSE_NO":"１４８號十二樓之２","E_COORD97":164775.39000000001,"N_COORD97":2543128.9300000002,"ADDRESS":"健康三街１４８號十二樓之２","OBJECTID":598503},"geometry":{"x":164775.38999999966,"y":2543128.9299999997}},{"attributes":{"ID":598531,"DIS_CODE":0,"TOWNNAME":"安平區","LI":"國平里","LIN":"27鄰","STREET":"健康三街","SECT":" ","MAREA":" ","LANE":" ","ALLEY":" ","HOUSE_NO":"１４８號十三樓之１","E_COORD97":164775.39000000001,"N_COORD97":2543128.9300000002,"ADDRESS":"健康三街１４８號十三樓之１","OBJECTID":598504},"geometry":{"x":164775.38999999966,"y":2543128.9299999997}},{"attributes":{"ID":598532,"DIS_CODE":0,"TOWNNAME":"安平區","LI":"國平里","LIN":"27鄰","STREET":"健康三街","SECT":" ","MAREA":" ","LANE":" ","ALLEY":" ","HOUSE_NO":"１５０號十三樓之１","E_COORD97":164777.10000000001,"N_COORD97":2543144.1099999999,"ADDRESS":"健康三街１５０號十三樓之１","OBJECTID":598505},"geometry":{"x":164777.09999999963,"y":2543144.1099999994}},{"attributes":{"ID":598533,"DIS_CODE":0,"TOWNNAME":"安平區","LI":"國平里","LIN":"27鄰","STREET":"健康三街","SECT":" ","MAREA":" ","LANE":" ","ALLEY":" ","HOUSE_NO":"１５０號十四樓之２","E_COORD97":164777.10000000001,"N_COORD97":2543144.1099999999,"ADDRESS":"健康三街１５０號十四樓之２","OBJECTID":598506},"geometry":{"x":164777.09999999963,"y":2543144.1099999994}},{"attributes":{"ID":598534,"DIS_CODE":0,"TOWNNAME":"安平區","LI":"國平里","LIN":"27鄰","STREET":"健康三街","SECT":" ","MAREA":" ","LANE":" ","ALLEY":" ","HOUSE_NO":"１５０號九樓之２","E_COORD97":164777.10000000001,"N_COORD97":2543144.1099999999,"ADDRESS":"健康三街１５０號九樓之２","OBJECTID":598507},"geometry":{"x":164777.09999999963,"y":2543144.1099999994}},{"attributes":{"ID":598535,"DIS_CODE":0,"TOWNNAME":"安平區","LI":"國平里","LIN":"27鄰","STREET":"健康三街","SECT":" ","MAREA":" ","LANE":" ","ALLEY":" ","HOUSE_NO":"１５０號十三樓之３","E_COORD97":164777.10000000001,"N_COORD97":2543144.1099999999,"ADDRESS":"健康三街１５０號十三樓之３","OBJECTID":598508},"geometry":{"x":164777.09999999963,"y":2543144.1099999994}},{"attributes":{"ID":598536,"DIS_CODE":0,"TOWNNAME":"安平區","LI":"國平里","LIN":"27鄰","STREET":"健康三街","SECT":" ","MAREA":" ","LANE":" ","ALLEY":" ","HOUSE_NO":"１５０號十四樓之３","E_COORD97":164777.10000000001,"N_COORD97":2543144.1099999999,"ADDRESS":"健康三街１５０號十四樓之３","OBJECTID":598509},"geometry":{"x":164777.09999999963,"y":2543144.1099999994}},{"attributes":{"ID":598537,"DIS_CODE":0,"TOWNNAME":"永康區","LI":"復國里","LIN":"3鄰","STREET":"復國一路","SECT":" ","MAREA":" ","LANE":" ","ALLEY":" ","HOUSE_NO":"２０號","E_COORD97":172728.56,"N_COORD97":2544734.77,"ADDRESS":"復國一路２０號","OBJECTID":598510},"geometry":{"x":172728.56000000145,"y":2544734.7700000014}},{"attributes":{"ID":598538,"DIS_CODE":0,"TOWNNAME":"永康區","LI":"復國里","LIN":"18鄰","STREET":"復華六街","SECT":" ","MAREA":" ","LANE":" ","ALLEY":" ","HOUSE_NO":"１５號","E_COORD97":172846.10999999999,"N_COORD97":2545831.2799999998,"ADDRESS":"復華六街１５號","OBJECTID":598511},"geometry":{"x":172846.11000000127,"y":2545831.2799999993}},{"attributes":{"ID":598539,"DIS_CODE":0,"TOWNNAME":"永康區","LI":"勝利里","LIN":"20鄰","STREET":"勝華街","SECT":" ","MAREA":" ","LANE":" ","ALLEY":" ","HOUSE_NO":"１１６號","E_COORD97":171284.20999999999,"N_COORD97":2545221.25,"ADDRESS":"勝華街１１６號","OBJECTID":598512},"geometry":{"x":171284.21000000089,"y":2545221.25}},{"attributes":{"ID":598540,"DIS_CODE":0,"TOWNNAME":"永康區","LI":"復國里","LIN":"8鄰","STREET":"復國二路","SECT":" ","MAREA":" ","LANE":" ","ALLEY":" ","HOUSE_NO":"７８號之１","E_COORD97":172844.57999999999,"N_COORD97":2545159.79,"ADDRESS":"復國二路７８號之１","OBJECTID":598513},"geometry":{"x":172844.58000000101,"y":2545159.7899999991}},{"attributes":{"ID":598541,"DIS_CODE":0,"TOWNNAME":"永康區","LI":"崑山里","LIN":"1鄰","STREET":"大灣路","SECT":" ","MAREA":" ","LANE":" ","ALLEY":" ","HOUSE_NO":"８１９號","E_COORD97":173733.23000000001,"N_COORD97":2544391.6800000002,"ADDRESS":"大灣路８１９號","OBJECTID":598514},"geometry":{"x":173733.23000000045,"y":2544391.6799999997}},{"attributes":{"ID":598542,"DIS_CODE":0,"TOWNNAME":"永康區","LI":"崑山里","LIN":"33鄰","STREET":"大仁街","SECT":" ","MAREA":" ","LANE":" ","ALLEY":" ","HOUSE_NO":"１１８號","E_COORD97":173873.20999999999,"N_COORD97":2544865.3900000001,"ADDRESS":"大仁街１１８號","OBJECTID":598515},"geometry":{"x":173873.20999999996,"y":2544865.3900000006}},{"attributes":{"ID":598543,"DIS_CODE":0,"TOWNNAME":"永康區","LI":"崑山里","LIN":"29鄰","STREET":"大仁街","SECT":" ","MAREA":" ","LANE":" ","ALLEY":" ","HOUSE_NO":"１０５號","E_COORD97":173829.45999999999,"N_COORD97":2544792.5099999998,"ADDRESS":"大仁街１０５號","OBJECTID":598516},"geometry":{"x":173829.45999999996,"y":2544792.5099999998}},{"attributes":{"ID":598544,"DIS_CODE":0,"TOWNNAME":"安平區","LI":"國平里","LIN":"27鄰","STREET":"健康三街","SECT":" ","MAREA":" ","LANE":" ","ALLEY":" ","HOUSE_NO":"１５０號九樓之３","E_COORD97":164777.10000000001,"N_COORD97":2543144.1099999999,"ADDRESS":"健康三街１５０號九樓之３","OBJECTID":598517},"geometry":{"x":164777.09999999963,"y":2543144.1099999994}},{"attributes":{"ID":598545,"DIS_CODE":0,"TOWNNAME":"安平區","LI":"國平里","LIN":"27鄰","STREET":"健康三街","SECT":" ","MAREA":" ","LANE":" ","ALLEY":" ","HOUSE_NO":"１５０號十一樓之２","E_COORD97":164777.10000000001,"N_COORD97":2543144.1099999999,"ADDRESS":"健康三街１５０號十一樓之２","OBJECTID":598518},"geometry":{"x":164777.09999999963,"y":2543144.1099999994}},{"attributes":{"ID":598546,"DIS_CODE":0,"TOWNNAME":"安平區","LI":"國平里","LIN":"27鄰","STREET":"健康三街","SECT":" ","MAREA":" ","LANE":" ","ALLEY":" ","HOUSE_NO":"１５０號十一樓之３","E_COORD97":164777.10000000001,"N_COORD97":2543144.1099999999,"ADDRESS":"健康三街１５０號十一樓之３","OBJECTID":598519},"geometry":{"x":164777.09999999963,"y":2543144.1099999994}},{"attributes":{"ID":598547,"DIS_CODE":0,"TOWNNAME":"安平區","LI":"國平里","LIN":"27鄰","STREET":"健康三街","SECT":" ","MAREA":" ","LANE":" ","ALLEY":" ","HOUSE_NO":"１５０號七樓之１","E_COORD97":164777.10000000001,"N_COORD97":2543144.1099999999,"ADDRESS":"健康三街１５０號七樓之１","OBJECTID":598520},"geometry":{"x":164777.09999999963,"y":2543144.1099999994}},{"attributes":{"ID":598548,"DIS_CODE":0,"TOWNNAME":"安平區","LI":"國平里","LIN":"27鄰","STREET":"健康三街","SECT":" ","MAREA":" ","LANE":" ","ALLEY":" ","HOUSE_NO":"１５０號十一樓之１","E_COORD97":164777.10000000001,"N_COORD97":2543144.1099999999,"ADDRESS":"健康三街１５０號十一樓之１","OBJECTID":598521},"geometry":{"x":164777.09999999963,"y":2543144.1099999994}},{"attributes":{"ID":598549,"DIS_CODE":0,"TOWNNAME":"安平區","LI":"國平里","LIN":"27鄰","STREET":"健康三街","SECT":" ","MAREA":" ","LANE":" ","ALLEY":" ","HOUSE_NO":"１５０號四樓之１","E_COORD97":164777.10000000001,"N_COORD97":2543144.1099999999,"ADDRESS":"健康三街１５０號四樓之１","OBJECTID":598522},"geometry":{"x":164777.09999999963,"y":2543144.1099999994}},{"attributes":{"ID":598550,"DIS_CODE":0,"TOWNNAME":"安平區","LI":"國平里","LIN":"27鄰","STREET":"健康三街","SECT":" ","MAREA":" ","LANE":" ","ALLEY":" ","HOUSE_NO":"１５０號四樓之２","E_COORD97":164777.10000000001,"N_COORD97":2543144.1099999999,"ADDRESS":"健康三街１５０號四樓之２","OBJECTID":598523},"geometry":{"x":164777.09999999963,"y":2543144.1099999994}},{"attributes":{"ID":598551,"DIS_CODE":0,"TOWNNAME":"永康區","LI":"崑山里","LIN":"38鄰","STREET":"國光三街","SECT":" ","MAREA":" ","LANE":" ","ALLEY":" ","HOUSE_NO":"４６號","E_COORD97":174000.42999999999,"N_COORD97":2544924.8300000001,"ADDRESS":"國光三街４６號","OBJECTID":598524},"geometry":{"x":174000.4299999997,"y":2544924.8300000019}},{"attributes":{"ID":598552,"DIS_CODE":0,"TOWNNAME":"永康區","LI":"復國里","LIN":"7鄰","STREET":"復國一路","SECT":" ","MAREA":" ","LANE":" ","ALLEY":" ","HOUSE_NO":"２３４號","E_COORD97":172739.57999999999,"N_COORD97":2545257.9500000002,"ADDRESS":"復國一路２３４號","OBJECTID":598525},"geometry":{"x":172739.58000000101,"y":2545257.950000003}},{"attributes":{"ID":598553,"DIS_CODE":0,"TOWNNAME":"永康區","LI":"崑山里","LIN":"19鄰","STREET":"大灣路","SECT":" ","MAREA":" ","LANE":" ","ALLEY":" ","HOUSE_NO":"７８８之２號","E_COORD97":174036.13,"N_COORD97":2544510.4900000002,"ADDRESS":"大灣路７８８之２號","OBJECTID":598526},"geometry":{"x":174036.12999999989,"y":2544510.4900000021}},{"attributes":{"ID":598554,"DIS_CODE":0,"TOWNNAME":"永康區","LI":"崑山里","LIN":"19鄰","STREET":"大灣路","SECT":" ","MAREA":" ","LANE":" ","ALLEY":" ","HOUSE_NO":"８６８號","E_COORD97":173793.98999999999,"N_COORD97":2544468.3599999999,"ADDRESS":"大灣路８６８號","OBJECTID":598527},"geometry":{"x":173793.99000000022,"y":2544468.3599999994}},{"attributes":{"ID":598555,"DIS_CODE":0,"TOWNNAME":"安平區","LI":"國平里","LIN":"27鄰","STREET":"健康三街","SECT":" ","MAREA":" ","LANE":" ","ALLEY":" ","HOUSE_NO":"１５０號八樓之２","E_COORD97":164777.10000000001,"N_COORD97":2543144.1099999999,"ADDRESS":"健康三街１５０號八樓之２","OBJECTID":598528},"geometry":{"x":164777.09999999963,"y":2543144.1099999994}},{"attributes":{"ID":598556,"DIS_CODE":0,"TOWNNAME":"安平區","LI":"國平里","LIN":"27鄰","STREET":"健康三街","SECT":" ","MAREA":" ","LANE":" ","ALLEY":" ","HOUSE_NO":"１５０號十二樓之３","E_COORD97":164777.10000000001,"N_COORD97":2543144.1099999999,"ADDRESS":"健康三街１５０號十二樓之３","OBJECTID":598529},"geometry":{"x":164777.09999999963,"y":2543144.1099999994}},{"attributes":{"ID":598557,"DIS_CODE":0,"TOWNNAME":"安平區","LI":"國平里","LIN":"27鄰","STREET":"健康三街","SECT":" ","MAREA":" ","LANE":" ","ALLEY":" ","HOUSE_NO":"１５０號十樓之１","E_COORD97":164777.10000000001,"N_COORD97":2543144.1099999999,"ADDRESS":"健康三街１５０號十樓之１","OBJECTID":598530},"geometry":{"x":164777.09999999963,"y":2543144.1099999994}},{"attributes":{"ID":598558,"DIS_CODE":0,"TOWNNAME":"安平區","LI":"國平里","LIN":"27鄰","STREET":"健康三街","SECT":" ","MAREA":" ","LANE":" ","ALLEY":" ","HOUSE_NO":"１５０號十三樓之２","E_COORD97":164777.10000000001,"N_COORD97":2543144.1099999999,"ADDRESS":"健康三街１５０號十三樓之２","OBJECTID":598531},"geometry":{"x":164777.09999999963,"y":2543144.1099999994}},{"attributes":{"ID":598559,"DIS_CODE":0,"TOWNNAME":"安平區","LI":"國平里","LIN":"27鄰","STREET":"健康三街","SECT":" ","MAREA":" ","LANE":" ","ALLEY":" ","HOUSE_NO":"１４８號二樓之２","E_COORD97":164775.39000000001,"N_COORD97":2543128.9300000002,"ADDRESS":"健康三街１４８號二樓之２","OBJECTID":598532},"geometry":{"x":164775.38999999966,"y":2543128.9299999997}},{"attributes":{"ID":598560,"DIS_CODE":0,"TOWNNAME":"安平區","LI":"國平里","LIN":"27鄰","STREET":"健康三街","SECT":" ","MAREA":" ","LANE":" ","ALLEY":" ","HOUSE_NO":"１４８號五樓之３","E_COORD97":164775.39000000001,"N_COORD97":2543128.9300000002,"ADDRESS":"健康三街１４８號五樓之３","OBJECTID":598533},"geometry":{"x":164775.38999999966,"y":2543128.9299999997}},{"attributes":{"ID":598561,"DIS_CODE":0,"TOWNNAME":"安平區","LI":"國平里","LIN":"27鄰","STREET":"健康三街","SECT":" ","MAREA":" ","LANE":" ","ALLEY":" ","HOUSE_NO":"１４８號八樓之２","E_COORD97":164775.39000000001,"N_COORD97":2543128.9300000002,"ADDRESS":"健康三街１４８號八樓之２","OBJECTID":598534},"geometry":{"x":164775.38999999966,"y":2543128.9299999997}},{"attributes":{"ID":598562,"DIS_CODE":0,"TOWNNAME":"安平區","LI":"國平里","LIN":"27鄰","STREET":"健康三街","SECT":" ","MAREA":" ","LANE":" ","ALLEY":" ","HOUSE_NO":"１４８號八樓之１","E_COORD97":164775.39000000001,"N_COORD97":2543128.9300000002,"ADDRESS":"健康三街１４８號八樓之１","OBJECTID":598535},"geometry":{"x":164775.38999999966,"y":2543128.9299999997}},{"attributes":{"ID":598563,"DIS_CODE":0,"TOWNNAME":"安平區","LI":"國平里","LIN":"27鄰","STREET":"健康三街","SECT":" ","MAREA":" ","LANE":" ","ALLEY":" ","HOUSE_NO":"１４８號八樓之３","E_COORD97":164775.39000000001,"N_COORD97":2543128.9300000002,"ADDRESS":"健康三街１４８號八樓之３","OBJECTID":598536},"geometry":{"x":164775.38999999966,"y":2543128.9299999997}},{"attributes":{"ID":598564,"DIS_CODE":0,"TOWNNAME":"安平區","LI":"國平里","LIN":"27鄰","STREET":"健康三街","SECT":" ","MAREA":" ","LANE":" ","ALLEY":" ","HOUSE_NO":"１４８號十樓之１","E_COORD97":164775.39000000001,"N_COORD97":2543128.9300000002,"ADDRESS":"健康三街１４８號十樓之１","OBJECTID":598537},"geometry":{"x":164775.38999999966,"y":2543128.9299999997}},{"attributes":{"ID":598565,"DIS_CODE":0,"TOWNNAME":"安平區","LI":"國平里","LIN":"27鄰","STREET":"健康三街","SECT":" ","MAREA":" ","LANE":" ","ALLEY":" ","HOUSE_NO":"１４８號四樓之３","E_COORD97":164775.39000000001,"N_COORD97":2543128.9300000002,"ADDRESS":"健康三街１４８號四樓之３","OBJECTID":598538},"geometry":{"x":164775.38999999966,"y":2543128.9299999997}},{"attributes":{"ID":598566,"DIS_CODE":0,"TOWNNAME":"安平區","LI":"國平里","LIN":"27鄰","STREET":"健康三街","SECT":" ","MAREA":" ","LANE":" ","ALLEY":" ","HOUSE_NO":"１４８號七樓之１","E_COORD97":164775.39000000001,"N_COORD97":2543128.9300000002,"ADDRESS":"健康三街１４８號七樓之１","OBJECTID":598539},"geometry":{"x":164775.38999999966,"y":2543128.9299999997}},{"attributes":{"ID":598567,"DIS_CODE":0,"TOWNNAME":"安平區","LI":"國平里","LIN":"27鄰","STREET":"健康三街","SECT":" ","MAREA":" ","LANE":" ","ALLEY":" ","HOUSE_NO":"１４８號十樓之２","E_COORD97":164775.39000000001,"N_COORD97":2543128.9300000002,"ADDRESS":"健康三街１４８號十樓之２","OBJECTID":598540},"geometry":{"x":164775.38999999966,"y":2543128.9299999997}},{"attributes":{"ID":598568,"DIS_CODE":0,"TOWNNAME":"安平區","LI":"國平里","LIN":"27鄰","STREET":"健康三街","SECT":" ","MAREA":" ","LANE":" ","ALLEY":" ","HOUSE_NO":"１４８號十二樓之１","E_COORD97":164775.39000000001,"N_COORD97":2543128.9300000002,"ADDRESS":"健康三街１４８號十二樓之１","OBJECTID":598541},"geometry":{"x":164775.38999999966,"y":2543128.9299999997}},{"attributes":{"ID":598569,"DIS_CODE":0,"TOWNNAME":"永康區","LI":"勝利里","LIN":"20鄰","STREET":"勝華街","SECT":" ","MAREA":" ","LANE":" ","ALLEY":" ","HOUSE_NO":"８３號","E_COORD97":171283.64000000001,"N_COORD97":2545205.5099999998,"ADDRESS":"勝華街８３號","OBJECTID":598542},"geometry":{"x":171283.64000000153,"y":2545205.5099999998}},{"attributes":{"ID":598570,"DIS_CODE":0,"TOWNNAME":"永康區","LI":"復國里","LIN":"7鄰","STREET":"復國一路","SECT":" ","MAREA":" ","LANE":" ","ALLEY":" ","HOUSE_NO":"１３０號","E_COORD97":172727.04000000001,"N_COORD97":2545030.02,"ADDRESS":"復國一路１３０號","OBJECTID":598543},"geometry":{"x":172727.04000000004,"y":2545030.0199999996}},{"attributes":{"ID":598571,"DIS_CODE":0,"TOWNNAME":"永康區","LI":"勝利里","LIN":"6鄰","STREET":"勝學路","SECT":" ","MAREA":" ","LANE":" ","ALLEY":" ","HOUSE_NO":"６號","E_COORD97":171171.95999999999,"N_COORD97":2544589.2599999998,"ADDRESS":"勝學路６號","OBJECTID":598544},"geometry":{"x":171171.96000000089,"y":2544589.2600000016}},{"attributes":{"ID":598572,"DIS_CODE":0,"TOWNNAME":"永康區","LI":"復國里","LIN":"9鄰","STREET":"復國二路","SECT":" ","MAREA":" ","LANE":" ","ALLEY":" ","HOUSE_NO":"９２號","E_COORD97":172855.23000000001,"N_COORD97":2545248.52,"ADDRESS":"復國二路９２號","OBJECTID":598545},"geometry":{"x":172855.22999999952,"y":2545248.5200000014}},{"attributes":{"ID":598573,"DIS_CODE":0,"TOWNNAME":"永康區","LI":"崑山里","LIN":"29鄰","STREET":"大仁街","SECT":" ","MAREA":" ","LANE":" ","ALLEY":" ","HOUSE_NO":"１０１號","E_COORD97":173826.81,"N_COORD97":2544783.8399999999,"ADDRESS":"大仁街１０１號","OBJECTID":598546},"geometry":{"x":173826.80999999866,"y":2544783.8399999999}},{"attributes":{"ID":598574,"DIS_CODE":0,"TOWNNAME":"安平區","LI":"國平里","LIN":"27鄰","STREET":"健康三街","SECT":" ","MAREA":" ","LANE":" ","ALLEY":" ","HOUSE_NO":"１４８號五樓之２","E_COORD97":164775.39000000001,"N_COORD97":2543128.9300000002,"ADDRESS":"健康三街１４８號五樓之２","OBJECTID":598547},"geometry":{"x":164775.38999999966,"y":2543128.9299999997}},{"attributes":{"ID":598575,"DIS_CODE":0,"TOWNNAME":"安平區","LI":"國平里","LIN":"27鄰","STREET":"健康三街","SECT":" ","MAREA":" ","LANE":" ","ALLEY":" ","HOUSE_NO":"１４８號六樓之２","E_COORD97":164775.39000000001,"N_COORD97":2543128.9300000002,"ADDRESS":"健康三街１４８號六樓之２","OBJECTID":598548},"geometry":{"x":164775.38999999966,"y":2543128.9299999997}},{"attributes":{"ID":598576,"DIS_CODE":0,"TOWNNAME":"安平區","LI":"國平里","LIN":"27鄰","STREET":"健康三街","SECT":" ","MAREA":" ","LANE":" ","ALLEY":" ","HOUSE_NO":"１４６號十樓之３","E_COORD97":164773.32999999999,"N_COORD97":2543110.3399999999,"ADDRESS":"健康三街１４６號十樓之３","OBJECTID":598549},"geometry":{"x":164773.33000000194,"y":2543110.3400000017}},{"attributes":{"ID":598577,"DIS_CODE":0,"TOWNNAME":"安平區","LI":"國平里","LIN":"27鄰","STREET":"健康三街","SECT":" ","MAREA":" ","LANE":" ","ALLEY":" ","HOUSE_NO":"１４６號十四樓之１","E_COORD97":164773.32999999999,"N_COORD97":2543110.3399999999,"ADDRESS":"健康三街１４６號十四樓之１","OBJECTID":598550},"geometry":{"x":164773.33000000194,"y":2543110.3400000017}},{"attributes":{"ID":598578,"DIS_CODE":0,"TOWNNAME":"安平區","LI":"國平里","LIN":"27鄰","STREET":"健康三街","SECT":" ","MAREA":" ","LANE":" ","ALLEY":" ","HOUSE_NO":"１４６號八樓之３","E_COORD97":164773.32999999999,"N_COORD97":2543110.3399999999,"ADDRESS":"健康三街１４６號八樓之３","OBJECTID":598551},"geometry":{"x":164773.33000000194,"y":2543110.3400000017}},{"attributes":{"ID":598579,"DIS_CODE":0,"TOWNNAME":"安平區","LI":"國平里","LIN":"27鄰","STREET":"健康三街","SECT":" ","MAREA":" ","LANE":" ","ALLEY":" ","HOUSE_NO":"１４６號十樓之２","E_COORD97":164773.32999999999,"N_COORD97":2543110.3399999999,"ADDRESS":"健康三街１４６號十樓之２","OBJECTID":598552},"geometry":{"x":164773.33000000194,"y":2543110.3400000017}},{"attributes":{"ID":598580,"DIS_CODE":0,"TOWNNAME":"安平區","LI":"國平里","LIN":"27鄰","STREET":"健康三街","SECT":" ","MAREA":" ","LANE":" ","ALLEY":" ","HOUSE_NO":"１４６號十二樓之２","E_COORD97":164773.32999999999,"N_COORD97":2543110.3399999999,"ADDRESS":"健康三街１４６號十二樓之２","OBJECTID":598553},"geometry":{"x":164773.33000000194,"y":2543110.3400000017}},{"attributes":{"ID":598581,"DIS_CODE":0,"TOWNNAME":"安平區","LI":"國平里","LIN":"27鄰","STREET":"健康三街","SECT":" ","MAREA":" ","LANE":" ","ALLEY":" ","HOUSE_NO":"１４８號四樓之２","E_COORD97":164775.39000000001,"N_COORD97":2543128.9300000002,"ADDRESS":"健康三街１４８號四樓之２","OBJECTID":598554},"geometry":{"x":164775.38999999966,"y":2543128.9299999997}},{"attributes":{"ID":598582,"DIS_CODE":0,"TOWNNAME":"安平區","LI":"國平里","LIN":"27鄰","STREET":"健康三街","SECT":" ","MAREA":" ","LANE":" ","ALLEY":" ","HOUSE_NO":"１４８號六樓之１","E_COORD97":164775.39000000001,"N_COORD97":2543128.9300000002,"ADDRESS":"健康三街１４８號六樓之１","OBJECTID":598555},"geometry":{"x":164775.38999999966,"y":2543128.9299999997}},{"attributes":{"ID":598583,"DIS_CODE":0,"TOWNNAME":"安平區","LI":"國平里","LIN":"27鄰","STREET":"健康三街","SECT":" ","MAREA":" ","LANE":" ","ALLEY":" ","HOUSE_NO":"１４８號九樓之２","E_COORD97":164775.39000000001,"N_COORD97":2543128.9300000002,"ADDRESS":"健康三街１４８號九樓之２","OBJECTID":598556},"geometry":{"x":164775.38999999966,"y":2543128.9299999997}},{"attributes":{"ID":598584,"DIS_CODE":0,"TOWNNAME":"安平區","LI":"國平里","LIN":"27鄰","STREET":"健康三街","SECT":" ","MAREA":" ","LANE":" ","ALLEY":" ","HOUSE_NO":"１４８號九樓之３","E_COORD97":164775.39000000001,"N_COORD97":2543128.9300000002,"ADDRESS":"健康三街１４８號九樓之３","OBJECTID":598557},"geometry":{"x":164775.38999999966,"y":2543128.9299999997}},{"attributes":{"ID":598585,"DIS_CODE":0,"TOWNNAME":"安平區","LI":"國平里","LIN":"27鄰","STREET":"健康三街","SECT":" ","MAREA":" ","LANE":" ","ALLEY":" ","HOUSE_NO":"１４８號十四樓之２","E_COORD97":164775.39000000001,"N_COORD97":2543128.9300000002,"ADDRESS":"健康三街１４８號十四樓之２","OBJECTID":598558},"geometry":{"x":164775.38999999966,"y":2543128.9299999997}},{"attributes":{"ID":598586,"DIS_CODE":0,"TOWNNAME":"永康區","LI":"崑山里","LIN":"22鄰","STREET":"國光二街","SECT":" ","MAREA":" ","LANE":" ","ALLEY":" ","HOUSE_NO":"２５號","E_COORD97":174012.67999999999,"N_COORD97":2544672.9399999999,"ADDRESS":"國光二街２５號","OBJECTID":598559},"geometry":{"x":174012.68000000156,"y":2544672.9400000013}},{"attributes":{"ID":598587,"DIS_CODE":0,"TOWNNAME":"永康區","LI":"復國里","LIN":"7鄰","STREET":"復國一路","SECT":" ","MAREA":" ","LANE":" ","ALLEY":" ","HOUSE_NO":"１２２號","E_COORD97":172725.66,"N_COORD97":2545012.27,"ADDRESS":"復國一路１２２號","OBJECTID":598560},"geometry":{"x":172725.66000000108,"y":2545012.2700000014}},{"attributes":{"ID":598588,"DIS_CODE":0,"TOWNNAME":"永康區","LI":"勝利里","LIN":"33鄰","STREET":"中華路","SECT":" ","MAREA":" ","LANE":" ","ALLEY":" ","HOUSE_NO":"１號之４５","E_COORD97":171502.01000000001,"N_COORD97":2544353.0499999998,"ADDRESS":"中華路１號之４５","OBJECTID":598561},"geometry":{"x":171502.01000000071,"y":2544353.0500000007}},{"attributes":{"ID":598589,"DIS_CODE":0,"TOWNNAME":"永康區","LI":"復國里","LIN":"19鄰","STREET":"國華街","SECT":" ","MAREA":" ","LANE":" ","ALLEY":" ","HOUSE_NO":"４１號","E_COORD97":172835.57999999999,"N_COORD97":2545720.1299999999,"ADDRESS":"國華街４１號","OBJECTID":598562},"geometry":{"x":172835.58000000194,"y":2545720.129999999}},{"attributes":{"ID":598590,"DIS_CODE":0,"TOWNNAME":"永康區","LI":"勝利里","LIN":"23鄰","STREET":"勝利街","SECT":" ","MAREA":" ","LANE":" ","ALLEY":" ","HOUSE_NO":"１１８之１號","E_COORD97":171361.23999999999,"N_COORD97":2544895.5499999998,"ADDRESS":"勝利街１１８之１號","OBJECTID":598563},"geometry":{"x":171361.24000000022,"y":2544895.5500000007}},{"attributes":{"ID":598591,"DIS_CODE":0,"TOWNNAME":"安平區","LI":"國平里","LIN":"27鄰","STREET":"健康三街","SECT":" ","MAREA":" ","LANE":" ","ALLEY":" ","HOUSE_NO":"１４６號四樓之１","E_COORD97":164773.32999999999,"N_COORD97":2543110.3399999999,"ADDRESS":"健康三街１４６號四樓之１","OBJECTID":598564},"geometry":{"x":164773.33000000194,"y":2543110.3400000017}},{"attributes":{"ID":598592,"DIS_CODE":0,"TOWNNAME":"安平區","LI":"國平里","LIN":"27鄰","STREET":"健康三街","SECT":" ","MAREA":" ","LANE":" ","ALLEY":" ","HOUSE_NO":"１４６號五樓之２","E_COORD97":164773.32999999999,"N_COORD97":2543110.3399999999,"ADDRESS":"健康三街１４６號五樓之２","OBJECTID":598565},"geometry":{"x":164773.33000000194,"y":2543110.3400000017}},{"attributes":{"ID":598593,"DIS_CODE":0,"TOWNNAME":"安平區","LI":"國平里","LIN":"27鄰","STREET":"健康三街","SECT":" ","MAREA":" ","LANE":" ","ALLEY":" ","HOUSE_NO":"１４６號九樓之１","E_COORD97":164773.32999999999,"N_COORD97":2543110.3399999999,"ADDRESS":"健康三街１４６號九樓之１","OBJECTID":598566},"geometry":{"x":164773.33000000194,"y":2543110.3400000017}},{"attributes":{"ID":598594,"DIS_CODE":0,"TOWNNAME":"安平區","LI":"國平里","LIN":"27鄰","STREET":"健康三街","SECT":" ","MAREA":" ","LANE":" ","ALLEY":" ","HOUSE_NO":"１４６號四樓之３","E_COORD97":164773.32999999999,"N_COORD97":2543110.3399999999,"ADDRESS":"健康三街１４６號四樓之３","OBJECTID":598567},"geometry":{"x":164773.33000000194,"y":2543110.3400000017}},{"attributes":{"ID":598595,"DIS_CODE":0,"TOWNNAME":"安平區","LI":"國平里","LIN":"27鄰","STREET":"健康三街","SECT":" ","MAREA":" ","LANE":" ","ALLEY":" ","HOUSE_NO":"１４６號五樓之３","E_COORD97":164773.32999999999,"N_COORD97":2543110.3399999999,"ADDRESS":"健康三街１４６號五樓之３","OBJECTID":598568},"geometry":{"x":164773.33000000194,"y":2543110.3400000017}},{"attributes":{"ID":598596,"DIS_CODE":0,"TOWNNAME":"安平區","LI":"國平里","LIN":"27鄰","STREET":"健康三街","SECT":" ","MAREA":" ","LANE":" ","ALLEY":" ","HOUSE_NO":"１５０號三樓之３","E_COORD97":164777.10000000001,"N_COORD97":2543144.1099999999,"ADDRESS":"健康三街１５０號三樓之３","OBJECTID":598569},"geometry":{"x":164777.09999999963,"y":2543144.1099999994}},{"attributes":{"ID":598597,"DIS_CODE":0,"TOWNNAME":"安平區","LI":"國平里","LIN":"27鄰","STREET":"健康三街","SECT":" ","MAREA":" ","LANE":" ","ALLEY":" ","HOUSE_NO":"１５０號四樓之３","E_COORD97":164777.10000000001,"N_COORD97":2543144.1099999999,"ADDRESS":"健康三街１５０號四樓之３","OBJECTID":598570},"geometry":{"x":164777.09999999963,"y":2543144.1099999994}},{"attributes":{"ID":598598,"DIS_CODE":0,"TOWNNAME":"安平區","LI":"國平里","LIN":"27鄰","STREET":"健康三街","SECT":" ","MAREA":" ","LANE":" ","ALLEY":" ","HOUSE_NO":"１５０號六樓之１","E_COORD97":164777.10000000001,"N_COORD97":2543144.1099999999,"ADDRESS":"健康三街１５０號六樓之１","OBJECTID":598571},"geometry":{"x":164777.09999999963,"y":2543144.1099999994}},{"attributes":{"ID":598599,"DIS_CODE":0,"TOWNNAME":"安平區","LI":"國平里","LIN":"27鄰","STREET":"健康三街","SECT":" ","MAREA":" ","LANE":" ","ALLEY":" ","HOUSE_NO":"１５０號十樓之２","E_COORD97":164777.10000000001,"N_COORD97":2543144.1099999999,"ADDRESS":"健康三街１５０號十樓之２","OBJECTID":598572},"geometry":{"x":164777.09999999963,"y":2543144.1099999994}},{"attributes":{"ID":598600,"DIS_CODE":0,"TOWNNAME":"安平區","LI":"國平里","LIN":"27鄰","STREET":"健康三街","SECT":" ","MAREA":" ","LANE":" ","ALLEY":" ","HOUSE_NO":"１５０號十樓之３","E_COORD97":164777.10000000001,"N_COORD97":2543144.1099999999,"ADDRESS":"健康三街１５０號十樓之３","OBJECTID":598573},"geometry":{"x":164777.09999999963,"y":2543144.1099999994}},{"attributes":{"ID":598601,"DIS_CODE":0,"TOWNNAME":"安平區","LI":"國平里","LIN":"27鄰","STREET":"健康三街","SECT":" ","MAREA":" ","LANE":" ","ALLEY":" ","HOUSE_NO":"１５０號五樓之３","E_COORD97":164777.10000000001,"N_COORD97":2543144.1099999999,"ADDRESS":"健康三街１５０號五樓之３","OBJECTID":598574},"geometry":{"x":164777.09999999963,"y":2543144.1099999994}},{"attributes":{"ID":598602,"DIS_CODE":0,"TOWNNAME":"永康區","LI":"勝利里","LIN":"33鄰","STREET":"中華路","SECT":" ","MAREA":" ","LANE":" ","ALLEY":" ","HOUSE_NO":"１號之６０","E_COORD97":171501.91,"N_COORD97":2544353.0499999998,"ADDRESS":"中華路１號之６０","OBJECTID":598575},"geometry":{"x":171501.91000000015,"y":2544353.0500000007}},{"attributes":{"ID":598603,"DIS_CODE":0,"TOWNNAME":"安平區","LI":"國平里","LIN":"27鄰","STREET":"健康三街","SECT":" ","MAREA":" ","LANE":" ","ALLEY":" ","HOUSE_NO":"１５０號二樓之３","E_COORD97":164777.10000000001,"N_COORD97":2543144.1099999999,"ADDRESS":"健康三街１５０號二樓之３","OBJECTID":598576},"geometry":{"x":164777.09999999963,"y":2543144.1099999994}},{"attributes":{"ID":598604,"DIS_CODE":0,"TOWNNAME":"安平區","LI":"國平里","LIN":"27鄰","STREET":"健康三街","SECT":" ","MAREA":" ","LANE":" ","ALLEY":" ","HOUSE_NO":"１５０號五樓之１","E_COORD97":164777.10000000001,"N_COORD97":2543144.1099999999,"ADDRESS":"健康三街１５０號五樓之１","OBJECTID":598577},"geometry":{"x":164777.09999999963,"y":2543144.1099999994}},{"attributes":{"ID":598605,"DIS_CODE":0,"TOWNNAME":"安平區","LI":"國平里","LIN":"27鄰","STREET":"健康三街","SECT":" ","MAREA":" ","LANE":" ","ALLEY":" ","HOUSE_NO":"１５０號五樓之２","E_COORD97":164777.10000000001,"N_COORD97":2543144.1099999999,"ADDRESS":"健康三街１５０號五樓之２","OBJECTID":598578},"geometry":{"x":164777.09999999963,"y":2543144.1099999994}},{"attributes":{"ID":598606,"DIS_CODE":0,"TOWNNAME":"永康區","LI":"勝利里","LIN":"39鄰","STREET":"勝華街","SECT":" ","MAREA":" ","LANE":" ","ALLEY":" ","HOUSE_NO":"４１號","E_COORD97":171421.29000000001,"N_COORD97":2545202.2599999998,"ADDRESS":"勝華街４１號","OBJECTID":598579},"geometry":{"x":171421.29000000004,"y":2545202.2600000035}},{"attributes":{"ID":598607,"DIS_CODE":0,"TOWNNAME":"永康區","LI":"崑山里","LIN":"40鄰","STREET":"國光五街","SECT":" ","MAREA":" ","LANE":" ","ALLEY":" ","HOUSE_NO":"１９號","E_COORD97":174135.70000000001,"N_COORD97":2545077,"ADDRESS":"國光五街１９號","OBJECTID":598580},"geometry":{"x":174135.70000000112,"y":2545077}},{"attributes":{"ID":598608,"DIS_CODE":0,"TOWNNAME":"永康區","LI":"崑山里","LIN":"7鄰","STREET":"大灣路","SECT":" ","MAREA":" ","LANE":" ","ALLEY":" ","HOUSE_NO":"９０９號","E_COORD97":173578,"N_COORD97":2544389.71,"ADDRESS":"大灣路９０９號","OBJECTID":598581},"geometry":{"x":173578,"y":2544389.709999999}},{"attributes":{"ID":598609,"DIS_CODE":0,"TOWNNAME":"安平區","LI":"國平里","LIN":"27鄰","STREET":"健康三街","SECT":" ","MAREA":" ","LANE":" ","ALLEY":" ","HOUSE_NO":"１５０號七樓之３","E_COORD97":164777.10000000001,"N_COORD97":2543144.1099999999,"ADDRESS":"健康三街１５０號七樓之３","OBJECTID":598582},"geometry":{"x":164777.09999999963,"y":2543144.1099999994}},{"attributes":{"ID":598610,"DIS_CODE":0,"TOWNNAME":"安平區","LI":"國平里","LIN":"27鄰","STREET":"健康三街","SECT":" ","MAREA":" ","LANE":" ","ALLEY":" ","HOUSE_NO":"１５０號八樓之３","E_COORD97":164777.10000000001,"N_COORD97":2543144.1099999999,"ADDRESS":"健康三街１５０號八樓之３","OBJECTID":598583},"geometry":{"x":164777.09999999963,"y":2543144.1099999994}},{"attributes":{"ID":598611,"DIS_CODE":0,"TOWNNAME":"安平區","LI":"國平里","LIN":"27鄰","STREET":"健康三街","SECT":" ","MAREA":" ","LANE":" ","ALLEY":" ","HOUSE_NO":"１５０號二樓之２","E_COORD97":164777.10000000001,"N_COORD97":2543144.1099999999,"ADDRESS":"健康三街１５０號二樓之２","OBJECTID":598584},"geometry":{"x":164777.09999999963,"y":2543144.1099999994}},{"attributes":{"ID":598612,"DIS_CODE":0,"TOWNNAME":"安平區","LI":"國平里","LIN":"27鄰","STREET":"健康三街","SECT":" ","MAREA":" ","LANE":" ","ALLEY":" ","HOUSE_NO":"１５０號三樓之２","E_COORD97":164777.10000000001,"N_COORD97":2543144.1099999999,"ADDRESS":"健康三街１５０號三樓之２","OBJECTID":598585},"geometry":{"x":164777.09999999963,"y":2543144.1099999994}},{"attributes":{"ID":598613,"DIS_CODE":0,"TOWNNAME":"安平區","LI":"國平里","LIN":"27鄰","STREET":"健康三街","SECT":" ","MAREA":" ","LANE":" ","ALLEY":" ","HOUSE_NO":"１５０號六樓之２","E_COORD97":164777.10000000001,"N_COORD97":2543144.1099999999,"ADDRESS":"健康三街１５０號六樓之２","OBJECTID":598586},"geometry":{"x":164777.09999999963,"y":2543144.1099999994}},{"attributes":{"ID":598614,"DIS_CODE":0,"TOWNNAME":"安平區","LI":"國平里","LIN":"27鄰","STREET":"健康三街","SECT":" ","MAREA":" ","LANE":" ","ALLEY":" ","HOUSE_NO":"１５０號九樓之１","E_COORD97":164777.10000000001,"N_COORD97":2543144.1099999999,"ADDRESS":"健康三街１５０號九樓之１","OBJECTID":598587},"geometry":{"x":164777.09999999963,"y":2543144.1099999994}},{"attributes":{"ID":598615,"DIS_CODE":0,"TOWNNAME":"安平區","LI":"國平里","LIN":"27鄰","STREET":"健康三街","SECT":" ","MAREA":" ","LANE":" ","ALLEY":" ","HOUSE_NO":"１５０號六樓之３","E_COORD97":164777.10000000001,"N_COORD97":2543144.1099999999,"ADDRESS":"健康三街１５０號六樓之３","OBJECTID":598588},"geometry":{"x":164777.09999999963,"y":2543144.1099999994}},{"attributes":{"ID":598616,"DIS_CODE":0,"TOWNNAME":"永康區","LI":"崑山里","LIN":"22鄰","STREET":"崑山街","SECT":" ","MAREA":" ","LANE":" ","ALLEY":" ","HOUSE_NO":"５８號","E_COORD97":173958.03,"N_COORD97":2544662.2400000002,"ADDRESS":"崑山街５８號","OBJECTID":598589},"geometry":{"x":173958.03000000026,"y":2544662.2400000002}},{"attributes":{"ID":598617,"DIS_CODE":0,"TOWNNAME":"永康區","LI":"崑山里","LIN":"19鄰","STREET":"大灣路","SECT":" ","MAREA":" ","LANE":" ","ALLEY":" ","HOUSE_NO":"８６８之１號","E_COORD97":173796.48999999999,"N_COORD97":2544468.4100000001,"ADDRESS":"大灣路８６８之１號","OBJECTID":598590},"geometry":{"x":173796.49000000115,"y":2544468.4100000001}},{"attributes":{"ID":598618,"DIS_CODE":0,"TOWNNAME":"永康區","LI":"崑山里","LIN":"37鄰","STREET":"大仁街","SECT":" ","MAREA":" ","LANE":" ","ALLEY":" ","HOUSE_NO":"１９６號","E_COORD97":173947.32000000001,"N_COORD97":2545065.3799999999,"ADDRESS":"大仁街１９６號","OBJECTID":598591},"geometry":{"x":173947.3200000003,"y":2545065.3800000008}},{"attributes":{"ID":598619,"DIS_CODE":0,"TOWNNAME":"安平區","LI":"國平里","LIN":"27鄰","STREET":"健康三街","SECT":" ","MAREA":" ","LANE":" ","ALLEY":" ","HOUSE_NO":"１５０號十二樓之２","E_COORD97":164777.10000000001,"N_COORD97":2543144.1099999999,"ADDRESS":"健康三街１５０號十二樓之２","OBJECTID":598592},"geometry":{"x":164777.09999999963,"y":2543144.1099999994}},{"attributes":{"ID":598620,"DIS_CODE":0,"TOWNNAME":"安平區","LI":"國平里","LIN":"27鄰","STREET":"健康三街","SECT":" ","MAREA":" ","LANE":" ","ALLEY":" ","HOUSE_NO":"１５０號十四樓之１","E_COORD97":164777.10000000001,"N_COORD97":2543144.1099999999,"ADDRESS":"健康三街１５０號十四樓之１","OBJECTID":598593},"geometry":{"x":164777.09999999963,"y":2543144.1099999994}},{"attributes":{"ID":598621,"DIS_CODE":0,"TOWNNAME":"安平區","LI":"國平里","LIN":"27鄰","STREET":"健康三街","SECT":" ","MAREA":" ","LANE":" ","ALLEY":" ","HOUSE_NO":"１５０號二樓之１","E_COORD97":164777.10000000001,"N_COORD97":2543144.1099999999,"ADDRESS":"健康三街１５０號二樓之１","OBJECTID":598594},"geometry":{"x":164777.09999999963,"y":2543144.1099999994}},{"attributes":{"ID":598622,"DIS_CODE":0,"TOWNNAME":"安平區","LI":"國平里","LIN":"27鄰","STREET":"健康三街","SECT":" ","MAREA":" ","LANE":" ","ALLEY":" ","HOUSE_NO":"１５０號十二樓之１","E_COORD97":164777.10000000001,"N_COORD97":2543144.1099999999,"ADDRESS":"健康三街１５０號十二樓之１","OBJECTID":598595},"geometry":{"x":164777.09999999963,"y":2543144.1099999994}},{"attributes":{"ID":598623,"DIS_CODE":0,"TOWNNAME":"安平區","LI":"國平里","LIN":"27鄰","STREET":"健康三街","SECT":" ","MAREA":" ","LANE":" ","ALLEY":" ","HOUSE_NO":"１４６號六樓之２","E_COORD97":164773.32999999999,"N_COORD97":2543110.3399999999,"ADDRESS":"健康三街１４６號六樓之２","OBJECTID":598596},"geometry":{"x":164773.33000000194,"y":2543110.3400000017}},{"attributes":{"ID":598624,"DIS_CODE":0,"TOWNNAME":"安平區","LI":"國平里","LIN":"27鄰","STREET":"健康三街","SECT":" ","MAREA":" ","LANE":" ","ALLEY":" ","HOUSE_NO":"１４６號九樓之３","E_COORD97":164773.32999999999,"N_COORD97":2543110.3399999999,"ADDRESS":"健康三街１４６號九樓之３","OBJECTID":598597},"geometry":{"x":164773.33000000194,"y":2543110.3400000017}},{"attributes":{"ID":598625,"DIS_CODE":0,"TOWNNAME":"安平區","LI":"國平里","LIN":"27鄰","STREET":"健康三街","SECT":" ","MAREA":" ","LANE":" ","ALLEY":" ","HOUSE_NO":"１４６號十一樓之３","E_COORD97":164773.32999999999,"N_COORD97":2543110.3399999999,"ADDRESS":"健康三街１４６號十一樓之３","OBJECTID":598598},"geometry":{"x":164773.33000000194,"y":2543110.3400000017}},{"attributes":{"ID":598626,"DIS_CODE":0,"TOWNNAME":"安平區","LI":"國平里","LIN":"27鄰","STREET":"健康三街","SECT":" ","MAREA":" ","LANE":" ","ALLEY":" ","HOUSE_NO":"１４６號十三樓之２","E_COORD97":164773.32999999999,"N_COORD97":2543110.3399999999,"ADDRESS":"健康三街１４６號十三樓之２","OBJECTID":598599},"geometry":{"x":164773.33000000194,"y":2543110.3400000017}},{"attributes":{"ID":598627,"DIS_CODE":0,"TOWNNAME":"安平區","LI":"國平里","LIN":"27鄰","STREET":"健康三街","SECT":" ","MAREA":" ","LANE":" ","ALLEY":" ","HOUSE_NO":"１４２號四樓之２","E_COORD97":164749.67999999999,"N_COORD97":2543112.8599999999,"ADDRESS":"健康三街１４２號四樓之２","OBJECTID":598600},"geometry":{"x":164749.6799999997,"y":2543112.8600000013}}]}