{"displayFieldName":"TOWNNAME","fieldAliases":{"ID":"ID","DIS_CODE":"DIS_CODE","TOWNNAME":"TOWNNAME","LI":"LI","LIN":"LIN","STREET":"STREET","SECT":"SECT","MAREA":"MAREA","LANE":"LANE","ALLEY":"ALLEY","HOUSE_NO":"HOUSE_NO","E_COORD97":"E_COORD97","N_COORD97":"N_COORD97","ADDRESS":"ADDRESS","OBJECTID":"OBJECTID"},"geometryType":"esriGeometryPoint","spatialReference":{"wkid":102443,"latestWkid":3826},"fields":[{"name":"ID","type":"esriFieldTypeDouble","alias":"ID"},{"name":"DIS_CODE","type":"esriFieldTypeInteger","alias":"DIS_CODE"},{"name":"TOWNNAME","type":"esriFieldTypeString","alias":"TOWNNAME","length":8},{"name":"LI","type":"esriFieldTypeString","alias":"LI","length":8},{"name":"LIN","type":"esriFieldTypeString","alias":"LIN","length":12},{"name":"STREET","type":"esriFieldTypeString","alias":"STREET","length":20},{"name":"SECT","type":"esriFieldTypeString","alias":"SECT","length":8},{"name":"MAREA","type":"esriFieldTypeString","alias":"MAREA","length":12},{"name":"LANE","type":"esriFieldTypeString","alias":"LANE","length":10},{"name":"ALLEY","type":"esriFieldTypeString","alias":"ALLEY","length":10},{"name":"HOUSE_NO","type":"esriFieldTypeString","alias":"HOUSE_NO","length":20},{"name":"E_COORD97","type":"esriFieldTypeDouble","alias":"E_COORD97"},{"name":"N_COORD97","type":"esriFieldTypeDouble","alias":"N_COORD97"},{"name":"ADDRESS","type":"esriFieldTypeString","alias":"ADDRESS","length":50},{"name":"OBJECTID","type":"esriFieldTypeOID","alias":"OBJECTID"}],"features":[{"attributes":{"ID":385425,"DIS_CODE":0,"TOWNNAME":"安南區","LI":"城東里","LIN":"9鄰","STREET":"城北路","SECT":" ","MAREA":" ","LANE":"９８巷","ALLEY":" ","HOUSE_NO":"１７號","E_COORD97":161064.48000000001,"N_COORD97":2551582.9700000002,"ADDRESS":"城北路９８巷１７號","OBJECTID":385401},"geometry":{"x":161064.48000000045,"y":2551582.9700000025}},{"attributes":{"ID":385426,"DIS_CODE":0,"TOWNNAME":"安南區","LI":"城東里","LIN":"9鄰","STREET":"城北路","SECT":" ","MAREA":" ","LANE":"９８巷","ALLEY":" ","HOUSE_NO":"３號","E_COORD97":161028.39000000001,"N_COORD97":2551590.1000000001,"ADDRESS":"城北路９８巷３號","OBJECTID":385402},"geometry":{"x":161028.3900000006,"y":2551590.0999999996}},{"attributes":{"ID":385427,"DIS_CODE":0,"TOWNNAME":"新市區","LI":"永就里","LIN":"9鄰","STREET":"中山路","SECT":" ","MAREA":" ","LANE":"１９５巷","ALLEY":" ","HOUSE_NO":"２１號","E_COORD97":177666.23999999999,"N_COORD97":2551997,"ADDRESS":"中山路１９５巷２１號","OBJECTID":385403},"geometry":{"x":177666.24000000115,"y":2551997}},{"attributes":{"ID":385428,"DIS_CODE":0,"TOWNNAME":"新市區","LI":"永就里","LIN":"9鄰","STREET":"中山路","SECT":" ","MAREA":" ","LANE":"工業巷","ALLEY":" ","HOUSE_NO":"８號","E_COORD97":177551.13,"N_COORD97":2551996.25,"ADDRESS":"中山路工業巷８號","OBJECTID":385404},"geometry":{"x":177551.13000000175,"y":2551996.25}},{"attributes":{"ID":385429,"DIS_CODE":0,"TOWNNAME":"安南區","LI":"安富里","LIN":"5鄰","STREET":"郡安路","SECT":"五段","MAREA":" ","LANE":"１８４巷","ALLEY":" ","HOUSE_NO":"４６號","E_COORD97":167481.76000000001,"N_COORD97":2547629.7799999998,"ADDRESS":"郡安路五段１８４巷４６號","OBJECTID":385405},"geometry":{"x":167481.75999999978,"y":2547629.7800000012}},{"attributes":{"ID":385430,"DIS_CODE":0,"TOWNNAME":"中西區","LI":"仙草里","LIN":"20鄰","STREET":"健康路","SECT":"一段","MAREA":" ","LANE":"３９０巷","ALLEY":" ","HOUSE_NO":"２１號","E_COORD97":167840.73999999999,"N_COORD97":2542502.29,"ADDRESS":"健康路一段３９０巷２１號","OBJECTID":385406},"geometry":{"x":167840.74000000209,"y":2542502.2899999972}},{"attributes":{"ID":385431,"DIS_CODE":0,"TOWNNAME":"中西區","LI":"仙草里","LIN":"20鄰","STREET":"健康路","SECT":"一段","MAREA":" ","LANE":"３９０巷","ALLEY":" ","HOUSE_NO":"２３號","E_COORD97":167837.98999999999,"N_COORD97":2542505.6299999999,"ADDRESS":"健康路一段３９０巷２３號","OBJECTID":385407},"geometry":{"x":167837.99000000115,"y":2542505.629999999}},{"attributes":{"ID":385432,"DIS_CODE":0,"TOWNNAME":"中西區","LI":"仙草里","LIN":"20鄰","STREET":"健康路","SECT":"一段","MAREA":" ","LANE":"３９０巷","ALLEY":" ","HOUSE_NO":"２５號","E_COORD97":167832.88,"N_COORD97":2542504.8399999999,"ADDRESS":"健康路一段３９０巷２５號","OBJECTID":385408},"geometry":{"x":167832.88000000082,"y":2542504.8399999999}},{"attributes":{"ID":385433,"DIS_CODE":0,"TOWNNAME":"安南區","LI":"安富里","LIN":"8鄰","STREET":"郡安路","SECT":"五段","MAREA":" ","LANE":"１８４巷","ALLEY":" ","HOUSE_NO":"９８號","E_COORD97":167507.13,"N_COORD97":2547507.2999999998,"ADDRESS":"郡安路五段１８４巷９８號","OBJECTID":385409},"geometry":{"x":167507.13000000175,"y":2547507.3000000007}},{"attributes":{"ID":385434,"DIS_CODE":0,"TOWNNAME":"安南區","LI":"安富里","LIN":"7鄰","STREET":"郡安路","SECT":"五段","MAREA":" ","LANE":"１８４巷","ALLEY":" ","HOUSE_NO":"８２號","E_COORD97":167499.76000000001,"N_COORD97":2547544.3300000001,"ADDRESS":"郡安路五段１８４巷８２號","OBJECTID":385410},"geometry":{"x":167499.76000000071,"y":2547544.3300000001}},{"attributes":{"ID":385435,"DIS_CODE":0,"TOWNNAME":"安南區","LI":"安富里","LIN":"9鄰","STREET":"郡安路","SECT":"五段","MAREA":" ","LANE":"１８４巷","ALLEY":" ","HOUSE_NO":"１１６號","E_COORD97":167516.26999999999,"N_COORD97":2547463.5299999998,"ADDRESS":"郡安路五段１８４巷１１６號","OBJECTID":385411},"geometry":{"x":167516.27000000048,"y":2547463.5299999993}},{"attributes":{"ID":385436,"DIS_CODE":0,"TOWNNAME":"白河區","LI":"外角里","LIN":"13鄰","STREET":"三民路","SECT":" ","MAREA":" ","LANE":" ","ALLEY":" ","HOUSE_NO":"２４２號","E_COORD97":190797.31,"N_COORD97":2583312.5800000001,"ADDRESS":"三民路２４２號","OBJECTID":385412},"geometry":{"x":190797.30999999959,"y":2583312.5800000019}},{"attributes":{"ID":385437,"DIS_CODE":0,"TOWNNAME":"安南區","LI":"安富里","LIN":"9鄰","STREET":"郡安路","SECT":"五段","MAREA":" ","LANE":"１８４巷","ALLEY":" ","HOUSE_NO":"１０２號","E_COORD97":167509.51999999999,"N_COORD97":2547497.5699999998,"ADDRESS":"郡安路五段１８４巷１０２號","OBJECTID":385413},"geometry":{"x":167509.52000000048,"y":2547497.5700000003}},{"attributes":{"ID":385438,"DIS_CODE":0,"TOWNNAME":"安南區","LI":"安富里","LIN":"9鄰","STREET":"郡安路","SECT":"五段","MAREA":" ","LANE":"１８４巷","ALLEY":" ","HOUSE_NO":"１０４號","E_COORD97":167509.95000000001,"N_COORD97":2547493.02,"ADDRESS":"郡安路五段１８４巷１０４號","OBJECTID":385414},"geometry":{"x":167509.95000000019,"y":2547493.0200000014}},{"attributes":{"ID":385439,"DIS_CODE":0,"TOWNNAME":"安南區","LI":"安富里","LIN":"4鄰","STREET":"郡安路","SECT":"五段","MAREA":" ","LANE":"１８４巷","ALLEY":" ","HOUSE_NO":"４２號","E_COORD97":167479.60000000001,"N_COORD97":2547640.1600000001,"ADDRESS":"郡安路五段１８４巷４２號","OBJECTID":385415},"geometry":{"x":167479.59999999963,"y":2547640.1600000001}},{"attributes":{"ID":385440,"DIS_CODE":0,"TOWNNAME":"中西區","LI":"仙草里","LIN":"20鄰","STREET":"健康路","SECT":"一段","MAREA":" ","LANE":"３９０巷","ALLEY":" ","HOUSE_NO":"２７號","E_COORD97":167828.56,"N_COORD97":2542504.2599999998,"ADDRESS":"健康路一段３９０巷２７號","OBJECTID":385416},"geometry":{"x":167828.55999999959,"y":2542504.2600000016}},{"attributes":{"ID":385441,"DIS_CODE":0,"TOWNNAME":"中西區","LI":"仙草里","LIN":"20鄰","STREET":"健康路","SECT":"一段","MAREA":" ","LANE":"３９０巷","ALLEY":" ","HOUSE_NO":"３１號","E_COORD97":167823.45999999999,"N_COORD97":2542502.6899999999,"ADDRESS":"健康路一段３９０巷３１號","OBJECTID":385417},"geometry":{"x":167823.45999999996,"y":2542502.6899999995}},{"attributes":{"ID":385442,"DIS_CODE":0,"TOWNNAME":"中西區","LI":"仙草里","LIN":"20鄰","STREET":"健康路","SECT":"一段","MAREA":" ","LANE":"３９０巷","ALLEY":" ","HOUSE_NO":"３３號","E_COORD97":167819.92000000001,"N_COORD97":2542505.2400000002,"ADDRESS":"健康路一段３９０巷３３號","OBJECTID":385418},"geometry":{"x":167819.91999999993,"y":2542505.2400000021}},{"attributes":{"ID":385443,"DIS_CODE":0,"TOWNNAME":"中西區","LI":"仙草里","LIN":"20鄰","STREET":"健康路","SECT":"一段","MAREA":" ","LANE":"３９０巷","ALLEY":" ","HOUSE_NO":"３５號","E_COORD97":167815.39999999999,"N_COORD97":2542506.4100000001,"ADDRESS":"健康路一段３９０巷３５號","OBJECTID":385419},"geometry":{"x":167815.40000000037,"y":2542506.410000002}},{"attributes":{"ID":385444,"DIS_CODE":0,"TOWNNAME":"中西區","LI":"仙草里","LIN":"20鄰","STREET":"健康路","SECT":"一段","MAREA":" ","LANE":"３９０巷","ALLEY":" ","HOUSE_NO":"３７號","E_COORD97":167811.87,"N_COORD97":2542505.4199999999,"ADDRESS":"健康路一段３９０巷３７號","OBJECTID":385420},"geometry":{"x":167811.87000000011,"y":2542505.4199999999}},{"attributes":{"ID":385445,"DIS_CODE":0,"TOWNNAME":"中西區","LI":"仙草里","LIN":"20鄰","STREET":"健康路","SECT":"一段","MAREA":" ","LANE":"３９０巷","ALLEY":" ","HOUSE_NO":"３９號","E_COORD97":167807.54999999999,"N_COORD97":2542506.21,"ADDRESS":"健康路一段３９０巷３９號","OBJECTID":385421},"geometry":{"x":167807.55000000168,"y":2542506.2100000028}},{"attributes":{"ID":385446,"DIS_CODE":0,"TOWNNAME":"中西區","LI":"仙草里","LIN":"20鄰","STREET":"健康路","SECT":"一段","MAREA":" ","LANE":"３９０巷","ALLEY":" ","HOUSE_NO":"４１號","E_COORD97":167826.39999999999,"N_COORD97":2542515.3599999999,"ADDRESS":"健康路一段３９０巷４１號","OBJECTID":385422},"geometry":{"x":167826.4000000013,"y":2542515.3599999994}},{"attributes":{"ID":385447,"DIS_CODE":0,"TOWNNAME":"中西區","LI":"仙草里","LIN":"20鄰","STREET":"健康路","SECT":"一段","MAREA":" ","LANE":"３９０巷","ALLEY":" ","HOUSE_NO":"４３號","E_COORD97":167832.29000000001,"N_COORD97":2542515.7599999998,"ADDRESS":"健康路一段３９０巷４３號","OBJECTID":385423},"geometry":{"x":167832.29000000097,"y":2542515.7599999998}},{"attributes":{"ID":385448,"DIS_CODE":0,"TOWNNAME":"中西區","LI":"仙草里","LIN":"20鄰","STREET":"健康路","SECT":"一段","MAREA":" ","LANE":"３９０巷","ALLEY":" ","HOUSE_NO":"４５號","E_COORD97":167837.59,"N_COORD97":2542515.7599999998,"ADDRESS":"健康路一段３９０巷４５號","OBJECTID":385424},"geometry":{"x":167837.58999999985,"y":2542515.7599999998}},{"attributes":{"ID":385449,"DIS_CODE":0,"TOWNNAME":"中西區","LI":"仙草里","LIN":"20鄰","STREET":"健康路","SECT":"一段","MAREA":" ","LANE":"３９０巷","ALLEY":" ","HOUSE_NO":"４７號","E_COORD97":167842.10999999999,"N_COORD97":2542518.1099999999,"ADDRESS":"健康路一段３９０巷４７號","OBJECTID":385425},"geometry":{"x":167842.11000000127,"y":2542518.1100000013}},{"attributes":{"ID":385450,"DIS_CODE":0,"TOWNNAME":"中西區","LI":"仙草里","LIN":"20鄰","STREET":"健康路","SECT":"一段","MAREA":" ","LANE":"３９０巷","ALLEY":" ","HOUSE_NO":"４９號","E_COORD97":167838.17999999999,"N_COORD97":2542524.98,"ADDRESS":"健康路一段３９０巷４９號","OBJECTID":385426},"geometry":{"x":167838.1799999997,"y":2542524.9800000004}},{"attributes":{"ID":385451,"DIS_CODE":0,"TOWNNAME":"東區","LI":"崇善里","LIN":"9鄰","STREET":"仁和路","SECT":" ","MAREA":" ","LANE":"８０巷","ALLEY":" ","HOUSE_NO":"１０號","E_COORD97":171123.01000000001,"N_COORD97":2541704.8799999999,"ADDRESS":"仁和路８０巷１０號","OBJECTID":385427},"geometry":{"x":171123.00999999978,"y":2541704.8800000027}},{"attributes":{"ID":385452,"DIS_CODE":0,"TOWNNAME":"東區","LI":"崇善里","LIN":"9鄰","STREET":"仁和路","SECT":" ","MAREA":" ","LANE":"８０巷","ALLEY":" ","HOUSE_NO":"１１號","E_COORD97":171120.89000000001,"N_COORD97":2541686.2200000002,"ADDRESS":"仁和路８０巷１１號","OBJECTID":385428},"geometry":{"x":171120.89000000153,"y":2541686.2200000007}},{"attributes":{"ID":385453,"DIS_CODE":0,"TOWNNAME":"東區","LI":"崇善里","LIN":"9鄰","STREET":"仁和路","SECT":" ","MAREA":" ","LANE":"８０巷","ALLEY":" ","HOUSE_NO":"１２號","E_COORD97":171117.94,"N_COORD97":2541703.5699999998,"ADDRESS":"仁和路８０巷１２號","OBJECTID":385429},"geometry":{"x":171117.94000000227,"y":2541703.5700000003}},{"attributes":{"ID":385454,"DIS_CODE":0,"TOWNNAME":"東區","LI":"崇善里","LIN":"9鄰","STREET":"仁和路","SECT":" ","MAREA":" ","LANE":"８０巷","ALLEY":" ","HOUSE_NO":"１３號","E_COORD97":171117.12,"N_COORD97":2541684.4199999999,"ADDRESS":"仁和路８０巷１３號","OBJECTID":385430},"geometry":{"x":171117.12000000104,"y":2541684.4199999999}},{"attributes":{"ID":385455,"DIS_CODE":0,"TOWNNAME":"東區","LI":"崇善里","LIN":"9鄰","STREET":"仁和路","SECT":" ","MAREA":" ","LANE":"８０巷","ALLEY":" ","HOUSE_NO":"１５號","E_COORD97":171113.51999999999,"N_COORD97":2541681.7999999998,"ADDRESS":"仁和路８０巷１５號","OBJECTID":385431},"geometry":{"x":171113.52000000048,"y":2541681.8000000026}},{"attributes":{"ID":385456,"DIS_CODE":0,"TOWNNAME":"東區","LI":"崇善里","LIN":"9鄰","STREET":"仁和路","SECT":" ","MAREA":" ","LANE":"８０巷","ALLEY":" ","HOUSE_NO":"１６號","E_COORD97":171113.67999999999,"N_COORD97":2541702.4300000002,"ADDRESS":"仁和路８０巷１６號","OBJECTID":385432},"geometry":{"x":171113.6799999997,"y":2541702.4300000016}},{"attributes":{"ID":385457,"DIS_CODE":0,"TOWNNAME":"東區","LI":"崇善里","LIN":"9鄰","STREET":"仁和路","SECT":" ","MAREA":" ","LANE":"８０巷","ALLEY":" ","HOUSE_NO":"１７號","E_COORD97":171107.45999999999,"N_COORD97":2541680.6499999999,"ADDRESS":"仁和路８０巷１７號","OBJECTID":385433},"geometry":{"x":171107.46000000089,"y":2541680.6499999985}},{"attributes":{"ID":385458,"DIS_CODE":0,"TOWNNAME":"中西區","LI":"仙草里","LIN":"20鄰","STREET":"健康路","SECT":"一段","MAREA":" ","LANE":"３９０巷","ALLEY":" ","HOUSE_NO":"５１號","E_COORD97":167839.75,"N_COORD97":2542530.6699999999,"ADDRESS":"健康路一段３９０巷５１號","OBJECTID":385434},"geometry":{"x":167839.75,"y":2542530.6699999999}},{"attributes":{"ID":385459,"DIS_CODE":0,"TOWNNAME":"中西區","LI":"仙草里","LIN":"20鄰","STREET":"健康路","SECT":"一段","MAREA":" ","LANE":"３９０巷","ALLEY":" ","HOUSE_NO":"５３號","E_COORD97":167839.95000000001,"N_COORD97":2542533.8100000001,"ADDRESS":"健康路一段３９０巷５３號","OBJECTID":385435},"geometry":{"x":167839.95000000112,"y":2542533.8100000005}},{"attributes":{"ID":385460,"DIS_CODE":0,"TOWNNAME":"中西區","LI":"仙草里","LIN":"20鄰","STREET":"健康路","SECT":"一段","MAREA":" ","LANE":"３９０巷","ALLEY":" ","HOUSE_NO":"５５號","E_COORD97":167839.75,"N_COORD97":2542536.5600000001,"ADDRESS":"健康路一段３９０巷５５號","OBJECTID":385436},"geometry":{"x":167839.75,"y":2542536.5600000024}},{"attributes":{"ID":385461,"DIS_CODE":0,"TOWNNAME":"中西區","LI":"仙草里","LIN":"20鄰","STREET":"健康路","SECT":"一段","MAREA":" ","LANE":"３９０巷","ALLEY":" ","HOUSE_NO":"５７號","E_COORD97":167839.75,"N_COORD97":2542539.7000000002,"ADDRESS":"健康路一段３９０巷５７號","OBJECTID":385437},"geometry":{"x":167839.75,"y":2542539.6999999993}},{"attributes":{"ID":385462,"DIS_CODE":0,"TOWNNAME":"中西區","LI":"仙草里","LIN":"20鄰","STREET":"健康路","SECT":"一段","MAREA":" ","LANE":"３９０巷","ALLEY":" ","HOUSE_NO":"５９號","E_COORD97":167839.95000000001,"N_COORD97":2542542.8399999999,"ADDRESS":"健康路一段３９０巷５９號","OBJECTID":385438},"geometry":{"x":167839.95000000112,"y":2542542.8399999999}},{"attributes":{"ID":385463,"DIS_CODE":0,"TOWNNAME":"中西區","LI":"仙草里","LIN":"20鄰","STREET":"健康路","SECT":"一段","MAREA":" ","LANE":"３９０巷","ALLEY":" ","HOUSE_NO":"６１號","E_COORD97":167834.85000000001,"N_COORD97":2542544.4100000001,"ADDRESS":"健康路一段３９０巷６１號","OBJECTID":385439},"geometry":{"x":167834.85000000056,"y":2542544.410000002}},{"attributes":{"ID":385464,"DIS_CODE":0,"TOWNNAME":"中西區","LI":"仙草里","LIN":"20鄰","STREET":"健康路","SECT":"一段","MAREA":" ","LANE":"３９０巷","ALLEY":" ","HOUSE_NO":"６３號","E_COORD97":167829.54000000001,"N_COORD97":2542544.21,"ADDRESS":"健康路一段３９０巷６３號","OBJECTID":385440},"geometry":{"x":167829.54000000004,"y":2542544.2100000009}},{"attributes":{"ID":385465,"DIS_CODE":0,"TOWNNAME":"中西區","LI":"仙草里","LIN":"20鄰","STREET":"健康路","SECT":"一段","MAREA":" ","LANE":"３９０巷","ALLEY":" ","HOUSE_NO":"６５號","E_COORD97":167821.10000000001,"N_COORD97":2542558.6099999999,"ADDRESS":"健康路一段３９０巷６５號","OBJECTID":385441},"geometry":{"x":167821.10000000056,"y":2542558.6100000013}},{"attributes":{"ID":385466,"DIS_CODE":0,"TOWNNAME":"中西區","LI":"仙草里","LIN":"20鄰","STREET":"健康路","SECT":"一段","MAREA":" ","LANE":"３９０巷","ALLEY":" ","HOUSE_NO":"６７號","E_COORD97":167826.01000000001,"N_COORD97":2542558.4199999999,"ADDRESS":"健康路一段３９０巷６７號","OBJECTID":385442},"geometry":{"x":167826.00999999978,"y":2542558.4199999999}},{"attributes":{"ID":385467,"DIS_CODE":0,"TOWNNAME":"中西區","LI":"仙草里","LIN":"20鄰","STREET":"健康路","SECT":"一段","MAREA":" ","LANE":"３９０巷","ALLEY":" ","HOUSE_NO":"６９號","E_COORD97":167830.13,"N_COORD97":2542558.02,"ADDRESS":"健康路一段３９０巷６９號","OBJECTID":385443},"geometry":{"x":167830.12999999989,"y":2542558.0199999996}},{"attributes":{"ID":385468,"DIS_CODE":0,"TOWNNAME":"中西區","LI":"仙草里","LIN":"20鄰","STREET":"健康路","SECT":"一段","MAREA":" ","LANE":"３９０巷","ALLEY":" ","HOUSE_NO":"７１號","E_COORD97":167833.26999999999,"N_COORD97":2542560.1800000002,"ADDRESS":"健康路一段３９０巷７１號","OBJECTID":385444},"geometry":{"x":167833.27000000048,"y":2542560.1799999997}},{"attributes":{"ID":385469,"DIS_CODE":0,"TOWNNAME":"中西區","LI":"仙草里","LIN":"20鄰","STREET":"健康路","SECT":"一段","MAREA":" ","LANE":"３９０巷","ALLEY":" ","HOUSE_NO":"７３號","E_COORD97":167838.17999999999,"N_COORD97":2542557.8300000001,"ADDRESS":"健康路一段３９０巷７３號","OBJECTID":385445},"geometry":{"x":167838.1799999997,"y":2542557.8300000019}},{"attributes":{"ID":385470,"DIS_CODE":0,"TOWNNAME":"中西區","LI":"仙草里","LIN":"20鄰","STREET":"健康路","SECT":"一段","MAREA":" ","LANE":"３９０巷","ALLEY":" ","HOUSE_NO":"７５號","E_COORD97":167841.32999999999,"N_COORD97":2542559.3999999999,"ADDRESS":"健康路一段３９０巷７５號","OBJECTID":385446},"geometry":{"x":167841.33000000007,"y":2542559.4000000004}},{"attributes":{"ID":385471,"DIS_CODE":0,"TOWNNAME":"中西區","LI":"仙草里","LIN":"20鄰","STREET":"健康路","SECT":"一段","MAREA":" ","LANE":"３９０巷","ALLEY":" ","HOUSE_NO":"７７號","E_COORD97":167839.76000000001,"N_COORD97":2542565.8700000001,"ADDRESS":"健康路一段３９０巷７７號","OBJECTID":385447},"geometry":{"x":167839.75999999978,"y":2542565.8700000029}},{"attributes":{"ID":385472,"DIS_CODE":0,"TOWNNAME":"東區","LI":"崇善里","LIN":"9鄰","STREET":"仁和路","SECT":" ","MAREA":" ","LANE":"８０巷","ALLEY":" ","HOUSE_NO":"１８號","E_COORD97":171109.26000000001,"N_COORD97":2541701.1200000001,"ADDRESS":"仁和路８０巷１８號","OBJECTID":385448},"geometry":{"x":171109.25999999978,"y":2541701.120000001}},{"attributes":{"ID":385473,"DIS_CODE":0,"TOWNNAME":"東區","LI":"崇善里","LIN":"9鄰","STREET":"仁和路","SECT":" ","MAREA":" ","LANE":"７０巷","ALLEY":" ","HOUSE_NO":"１０號","E_COORD97":171076.03,"N_COORD97":2541798.04,"ADDRESS":"仁和路７０巷１０號","OBJECTID":385449},"geometry":{"x":171076.03000000026,"y":2541798.0399999991}},{"attributes":{"ID":385474,"DIS_CODE":0,"TOWNNAME":"東區","LI":"崇善里","LIN":"9鄰","STREET":"仁和路","SECT":" ","MAREA":" ","LANE":"７０巷","ALLEY":" ","HOUSE_NO":"８號","E_COORD97":171080.60999999999,"N_COORD97":2541799.52,"ADDRESS":"仁和路７０巷８號","OBJECTID":385450},"geometry":{"x":171080.61000000034,"y":2541799.5200000033}},{"attributes":{"ID":385475,"DIS_CODE":0,"TOWNNAME":"東區","LI":"路東里","LIN":"9鄰","STREET":"林森路","SECT":"一段","MAREA":" ","LANE":"５８巷","ALLEY":" ","HOUSE_NO":"７號","E_COORD97":169331.26000000001,"N_COORD97":2542346.8799999999,"ADDRESS":"林森路一段５８巷７號","OBJECTID":385451},"geometry":{"x":169331.25999999978,"y":2542346.8800000008}},{"attributes":{"ID":385476,"DIS_CODE":0,"TOWNNAME":"東區","LI":"路東里","LIN":"9鄰","STREET":"林森路","SECT":"一段","MAREA":" ","LANE":"５８巷","ALLEY":" ","HOUSE_NO":"８號","E_COORD97":169318.92000000001,"N_COORD97":2542337.5099999998,"ADDRESS":"林森路一段５８巷８號","OBJECTID":385452},"geometry":{"x":169318.91999999899,"y":2542337.5099999998}},{"attributes":{"ID":385477,"DIS_CODE":0,"TOWNNAME":"善化區","LI":"文正里","LIN":"9鄰","STREET":"文正路","SECT":" ","MAREA":" ","LANE":"７９巷","ALLEY":" ","HOUSE_NO":"１９號之１","E_COORD97":177000.64999999999,"N_COORD97":2559345.0299999998,"ADDRESS":"文正路７９巷１９號之１","OBJECTID":385453},"geometry":{"x":177000.65000000224,"y":2559345.0300000012}},{"attributes":{"ID":385478,"DIS_CODE":0,"TOWNNAME":"仁德區","LI":"二行里","LIN":"9鄰","STREET":"中正西路","SECT":" ","MAREA":" ","LANE":"２１１巷","ALLEY":" ","HOUSE_NO":"４９號","E_COORD97":170068.56,"N_COORD97":2535223.75,"ADDRESS":"中正西路２１１巷４９號","OBJECTID":385454},"geometry":{"x":170068.55999999866,"y":2535223.75}},{"attributes":{"ID":385479,"DIS_CODE":0,"TOWNNAME":"仁德區","LI":"二行里","LIN":"9鄰","STREET":"中正西路","SECT":" ","MAREA":" ","LANE":"２１１巷","ALLEY":" ","HOUSE_NO":"６１號","E_COORD97":170063.85000000001,"N_COORD97":2535199.2400000002,"ADDRESS":"中正西路２１１巷６１號","OBJECTID":385455},"geometry":{"x":170063.85000000056,"y":2535199.2400000021}},{"attributes":{"ID":385480,"DIS_CODE":0,"TOWNNAME":"仁德區","LI":"二行里","LIN":"9鄰","STREET":"中正西路","SECT":" ","MAREA":" ","LANE":"２１１巷","ALLEY":" ","HOUSE_NO":"１２號","E_COORD97":170077.82000000001,"N_COORD97":2535350.5,"ADDRESS":"中正西路２１１巷１２號","OBJECTID":385456},"geometry":{"x":170077.82000000216,"y":2535350.5}},{"attributes":{"ID":385481,"DIS_CODE":0,"TOWNNAME":"仁德區","LI":"二行里","LIN":"9鄰","STREET":"中正西路","SECT":" ","MAREA":" ","LANE":"２１１巷","ALLEY":" ","HOUSE_NO":"１９號","E_COORD97":170086.14000000001,"N_COORD97":2535306.9900000002,"ADDRESS":"中正西路２１１巷１９號","OBJECTID":385457},"geometry":{"x":170086.13999999966,"y":2535306.9900000002}},{"attributes":{"ID":385482,"DIS_CODE":0,"TOWNNAME":"仁德區","LI":"二行里","LIN":"9鄰","STREET":"中正西路","SECT":" ","MAREA":" ","LANE":"２１１巷","ALLEY":" ","HOUSE_NO":"３５號","E_COORD97":170073.73999999999,"N_COORD97":2535255.25,"ADDRESS":"中正西路２１１巷３５號","OBJECTID":385458},"geometry":{"x":170073.74000000115,"y":2535255.2500000037}},{"attributes":{"ID":385483,"DIS_CODE":0,"TOWNNAME":"仁德區","LI":"二行里","LIN":"9鄰","STREET":"中正西路","SECT":" ","MAREA":" ","LANE":"２１１巷","ALLEY":" ","HOUSE_NO":"３９號","E_COORD97":170072.29000000001,"N_COORD97":2535246.25,"ADDRESS":"中正西路２１１巷３９號","OBJECTID":385459},"geometry":{"x":170072.29000000004,"y":2535246.2500000019}},{"attributes":{"ID":385484,"DIS_CODE":0,"TOWNNAME":"仁德區","LI":"二行里","LIN":"9鄰","STREET":"中正西路","SECT":" ","MAREA":" ","LANE":"２１１巷","ALLEY":" ","HOUSE_NO":"１６號","E_COORD97":170075.12,"N_COORD97":2535340.75,"ADDRESS":"中正西路２１１巷１６號","OBJECTID":385460},"geometry":{"x":170075.12000000011,"y":2535340.7500000019}},{"attributes":{"ID":385485,"DIS_CODE":0,"TOWNNAME":"仁德區","LI":"二行里","LIN":"9鄰","STREET":"中正西路","SECT":" ","MAREA":" ","LANE":"２１１巷","ALLEY":" ","HOUSE_NO":"１１號","E_COORD97":170089.64999999999,"N_COORD97":2535325.75,"ADDRESS":"中正西路２１１巷１１號","OBJECTID":385461},"geometry":{"x":170089.6500000013,"y":2535325.75}},{"attributes":{"ID":385486,"DIS_CODE":0,"TOWNNAME":"仁德區","LI":"二行里","LIN":"9鄰","STREET":"中正西路","SECT":" ","MAREA":" ","LANE":"２１１巷","ALLEY":" ","HOUSE_NO":"２５之１號","E_COORD97":170088.92000000001,"N_COORD97":2535276.04,"ADDRESS":"中正西路２１１巷２５之１號","OBJECTID":385462},"geometry":{"x":170088.92000000086,"y":2535276.0400000028}},{"attributes":{"ID":385487,"DIS_CODE":0,"TOWNNAME":"仁德區","LI":"二行里","LIN":"9鄰","STREET":"中正西路","SECT":" ","MAREA":" ","LANE":"２１１巷","ALLEY":" ","HOUSE_NO":"６號","E_COORD97":170079.29000000001,"N_COORD97":2535363.5,"ADDRESS":"中正西路２１１巷６號","OBJECTID":385463},"geometry":{"x":170079.29000000004,"y":2535363.5000000019}},{"attributes":{"ID":385488,"DIS_CODE":0,"TOWNNAME":"仁德區","LI":"二行里","LIN":"9鄰","STREET":"中正西路","SECT":" ","MAREA":" ","LANE":"２１１巷","ALLEY":" ","HOUSE_NO":"３７號","E_COORD97":170072.95000000001,"N_COORD97":2535251,"ADDRESS":"中正西路２１１巷３７號","OBJECTID":385464},"geometry":{"x":170072.95000000019,"y":2535251.0000000019}},{"attributes":{"ID":385489,"DIS_CODE":0,"TOWNNAME":"仁德區","LI":"二行里","LIN":"9鄰","STREET":"中正西路","SECT":" ","MAREA":" ","LANE":"２１１巷","ALLEY":" ","HOUSE_NO":"４５號","E_COORD97":170069.98999999999,"N_COORD97":2535234,"ADDRESS":"中正西路２１１巷４５號","OBJECTID":385465},"geometry":{"x":170069.99000000115,"y":2535234.0000000019}},{"attributes":{"ID":385490,"DIS_CODE":0,"TOWNNAME":"仁德區","LI":"一甲里","LIN":"9鄰","STREET":"中正路","SECT":"三段","MAREA":" ","LANE":"２４２巷","ALLEY":" ","HOUSE_NO":"２６號","E_COORD97":173683.98000000001,"N_COORD97":2541920.77,"ADDRESS":"中正路三段２４２巷２６號","OBJECTID":385466},"geometry":{"x":173683.98000000045,"y":2541920.7700000014}},{"attributes":{"ID":385491,"DIS_CODE":0,"TOWNNAME":"仁德區","LI":"二行里","LIN":"9鄰","STREET":"中正西路","SECT":" ","MAREA":" ","LANE":"２１１巷","ALLEY":" ","HOUSE_NO":"５５號","E_COORD97":170066.66,"N_COORD97":2535210.2400000002,"ADDRESS":"中正西路２１１巷５５號","OBJECTID":385467},"geometry":{"x":170066.66000000015,"y":2535210.2400000002}},{"attributes":{"ID":385492,"DIS_CODE":0,"TOWNNAME":"仁德區","LI":"一甲里","LIN":"9鄰","STREET":"中正路","SECT":"三段","MAREA":" ","LANE":"２４２巷","ALLEY":" ","HOUSE_NO":"３０號","E_COORD97":173725.34,"N_COORD97":2541918.52,"ADDRESS":"中正路三段２４２巷３０號","OBJECTID":385468},"geometry":{"x":173725.34000000171,"y":2541918.5200000014}},{"attributes":{"ID":385493,"DIS_CODE":0,"TOWNNAME":"仁德區","LI":"二行里","LIN":"9鄰","STREET":"中正西路","SECT":" ","MAREA":" ","LANE":"２１１巷","ALLEY":" ","HOUSE_NO":"１３號","E_COORD97":170089.26999999999,"N_COORD97":2535320.9900000002,"ADDRESS":"中正西路２１１巷１３號","OBJECTID":385469},"geometry":{"x":170089.27000000142,"y":2535320.9900000002}},{"attributes":{"ID":385494,"DIS_CODE":0,"TOWNNAME":"仁德區","LI":"二行里","LIN":"9鄰","STREET":"中正西路","SECT":" ","MAREA":" ","LANE":"２１１巷","ALLEY":" ","HOUSE_NO":"１０號","E_COORD97":170078.79999999999,"N_COORD97":2535355,"ADDRESS":"中正西路２１１巷１０號","OBJECTID":385470},"geometry":{"x":170078.79999999981,"y":2535355.0000000037}},{"attributes":{"ID":385495,"DIS_CODE":0,"TOWNNAME":"仁德區","LI":"二行里","LIN":"9鄰","STREET":"中正西路","SECT":" ","MAREA":" ","LANE":"２１１巷","ALLEY":" ","HOUSE_NO":"１４號","E_COORD97":170076.54000000001,"N_COORD97":2535346.25,"ADDRESS":"中正西路２１１巷１４號","OBJECTID":385471},"geometry":{"x":170076.54000000097,"y":2535346.25}},{"attributes":{"ID":385496,"DIS_CODE":0,"TOWNNAME":"仁德區","LI":"二行里","LIN":"9鄰","STREET":"中正西路","SECT":" ","MAREA":" ","LANE":"２１１巷","ALLEY":" ","HOUSE_NO":"３１號","E_COORD97":170075.23999999999,"N_COORD97":2535264.25,"ADDRESS":"中正西路２１１巷３１號","OBJECTID":385472},"geometry":{"x":170075.24000000115,"y":2535264.25}},{"attributes":{"ID":385497,"DIS_CODE":0,"TOWNNAME":"仁德區","LI":"二行里","LIN":"9鄰","STREET":"中正西路","SECT":" ","MAREA":" ","LANE":"２１１巷","ALLEY":" ","HOUSE_NO":"４３號","E_COORD97":170070.63,"N_COORD97":2535238.25,"ADDRESS":"中正西路２１１巷４３號","OBJECTID":385473},"geometry":{"x":170070.63000000082,"y":2535238.2500000037}},{"attributes":{"ID":385498,"DIS_CODE":0,"TOWNNAME":"仁德區","LI":"一甲里","LIN":"9鄰","STREET":"中正路","SECT":"三段","MAREA":" ","LANE":"２４２巷","ALLEY":" ","HOUSE_NO":"２３號","E_COORD97":173709.85000000001,"N_COORD97":2541994.2799999998,"ADDRESS":"中正路三段２４２巷２３號","OBJECTID":385474},"geometry":{"x":173709.85000000149,"y":2541994.2800000031}},{"attributes":{"ID":385499,"DIS_CODE":0,"TOWNNAME":"安南區","LI":"大安里","LIN":"9鄰","STREET":"大安街","SECT":" ","MAREA":" ","LANE":"２０８巷","ALLEY":" ","HOUSE_NO":"１２號","E_COORD97":167438.45000000001,"N_COORD97":2548277.3700000001,"ADDRESS":"大安街２０８巷１２號","OBJECTID":385475},"geometry":{"x":167438.45000000019,"y":2548277.370000001}},{"attributes":{"ID":385500,"DIS_CODE":0,"TOWNNAME":"白河區","LI":"永安里","LIN":"13鄰","STREET":"三民路","SECT":" ","MAREA":" ","LANE":" ","ALLEY":" ","HOUSE_NO":"４１０號","E_COORD97":190306.38,"N_COORD97":2583326.48,"ADDRESS":"三民路４１０號","OBJECTID":385476},"geometry":{"x":190306.38000000082,"y":2583326.4800000023}},{"attributes":{"ID":385501,"DIS_CODE":0,"TOWNNAME":"安南區","LI":"大安里","LIN":"9鄰","STREET":"大安街","SECT":" ","MAREA":" ","LANE":"２０８巷","ALLEY":" ","HOUSE_NO":"１３號","E_COORD97":167459.20999999999,"N_COORD97":2548290.02,"ADDRESS":"大安街２０８巷１３號","OBJECTID":385477},"geometry":{"x":167459.21000000183,"y":2548290.0200000014}},{"attributes":{"ID":385502,"DIS_CODE":0,"TOWNNAME":"安南區","LI":"大安里","LIN":"9鄰","STREET":"大安街","SECT":" ","MAREA":" ","LANE":"２０８巷","ALLEY":" ","HOUSE_NO":"１４號","E_COORD97":167446.51000000001,"N_COORD97":2548273.3399999999,"ADDRESS":"大安街２０８巷１４號","OBJECTID":385478},"geometry":{"x":167446.50999999978,"y":2548273.3400000036}},{"attributes":{"ID":385503,"DIS_CODE":0,"TOWNNAME":"安南區","LI":"大安里","LIN":"9鄰","STREET":"大安街","SECT":" ","MAREA":" ","LANE":"２０８巷","ALLEY":" ","HOUSE_NO":"１５號","E_COORD97":167463.82000000001,"N_COORD97":2548286.3799999999,"ADDRESS":"大安街２０８巷１５號","OBJECTID":385479},"geometry":{"x":167463.82000000216,"y":2548286.3800000008}},{"attributes":{"ID":385504,"DIS_CODE":0,"TOWNNAME":"安南區","LI":"大安里","LIN":"9鄰","STREET":"大安街","SECT":" ","MAREA":" ","LANE":"２０８巷","ALLEY":" ","HOUSE_NO":"１６號","E_COORD97":167452.07000000001,"N_COORD97":2548270.27,"ADDRESS":"大安街２０８巷１６號","OBJECTID":385480},"geometry":{"x":167452.07000000216,"y":2548270.2700000033}},{"attributes":{"ID":385505,"DIS_CODE":0,"TOWNNAME":"安南區","LI":"大安里","LIN":"9鄰","STREET":"大安街","SECT":" ","MAREA":" ","LANE":"２０８巷","ALLEY":" ","HOUSE_NO":"１７號","E_COORD97":167468.62,"N_COORD97":2548284.27,"ADDRESS":"大安街２０８巷１７號","OBJECTID":385481},"geometry":{"x":167468.62000000104,"y":2548284.2700000014}},{"attributes":{"ID":385506,"DIS_CODE":0,"TOWNNAME":"安南區","LI":"大安里","LIN":"9鄰","STREET":"大安街","SECT":" ","MAREA":" ","LANE":"２０８巷","ALLEY":" ","HOUSE_NO":"１８號","E_COORD97":167456.87,"N_COORD97":2548267.5899999999,"ADDRESS":"大安街２０８巷１８號","OBJECTID":385482},"geometry":{"x":167456.87000000104,"y":2548267.5899999999}},{"attributes":{"ID":385507,"DIS_CODE":0,"TOWNNAME":"安南區","LI":"大安里","LIN":"9鄰","STREET":"大安街","SECT":" ","MAREA":" ","LANE":"２０８巷","ALLEY":" ","HOUSE_NO":"１９號","E_COORD97":167472.84,"N_COORD97":2548281.0099999998,"ADDRESS":"大安街２０８巷１９號","OBJECTID":385483},"geometry":{"x":167472.83999999985,"y":2548281.0099999998}},{"attributes":{"ID":385508,"DIS_CODE":0,"TOWNNAME":"安南區","LI":"大安里","LIN":"9鄰","STREET":"大安街","SECT":" ","MAREA":" ","LANE":"２０８巷","ALLEY":" ","HOUSE_NO":"１號","E_COORD97":167428.04999999999,"N_COORD97":2548310.9900000002,"ADDRESS":"大安街２０８巷１號","OBJECTID":385484},"geometry":{"x":167428.05000000075,"y":2548310.9900000021}},{"attributes":{"ID":385509,"DIS_CODE":0,"TOWNNAME":"安南區","LI":"大安里","LIN":"9鄰","STREET":"大安街","SECT":" ","MAREA":" ","LANE":"２０８巷","ALLEY":" ","HOUSE_NO":"２０號","E_COORD97":167461.09,"N_COORD97":2548264.3300000001,"ADDRESS":"大安街２０８巷２０號","OBJECTID":385485},"geometry":{"x":167461.08999999985,"y":2548264.3300000019}},{"attributes":{"ID":385510,"DIS_CODE":0,"TOWNNAME":"安南區","LI":"大安里","LIN":"9鄰","STREET":"大安街","SECT":" ","MAREA":" ","LANE":"２０８巷","ALLEY":" ","HOUSE_NO":"２２號","E_COORD97":167465.70000000001,"N_COORD97":2548261.2599999998,"ADDRESS":"大安街２０８巷２２號","OBJECTID":385486},"geometry":{"x":167465.70000000019,"y":2548261.2600000016}},{"attributes":{"ID":385511,"DIS_CODE":0,"TOWNNAME":"安南區","LI":"大安里","LIN":"9鄰","STREET":"大安街","SECT":" ","MAREA":" ","LANE":"２０８巷","ALLEY":" ","HOUSE_NO":"２３號","E_COORD97":167480.70999999999,"N_COORD97":2548275.8300000001,"ADDRESS":"大安街２０８巷２３號","OBJECTID":385487},"geometry":{"x":167480.70999999996,"y":2548275.8300000001}},{"attributes":{"ID":385512,"DIS_CODE":0,"TOWNNAME":"安南區","LI":"大安里","LIN":"9鄰","STREET":"大安街","SECT":" ","MAREA":" ","LANE":"２０８巷","ALLEY":" ","HOUSE_NO":"２４號","E_COORD97":167469.54000000001,"N_COORD97":2548258.5800000001,"ADDRESS":"大安街２０８巷２４號","OBJECTID":385488},"geometry":{"x":167469.54000000097,"y":2548258.5800000038}},{"attributes":{"ID":385513,"DIS_CODE":0,"TOWNNAME":"安南區","LI":"大安里","LIN":"9鄰","STREET":"大安街","SECT":" ","MAREA":" ","LANE":"２０８巷","ALLEY":" ","HOUSE_NO":"２５號","E_COORD97":167485.70000000001,"N_COORD97":2548273.1499999999,"ADDRESS":"大安街２０８巷２５號","OBJECTID":385489},"geometry":{"x":167485.70000000112,"y":2548273.1500000022}},{"attributes":{"ID":385514,"DIS_CODE":0,"TOWNNAME":"安南區","LI":"大安里","LIN":"9鄰","STREET":"大安街","SECT":" ","MAREA":" ","LANE":"２０８巷","ALLEY":" ","HOUSE_NO":"２７號","E_COORD97":167489.92000000001,"N_COORD97":2548270.4700000002,"ADDRESS":"大安街２０８巷２７號","OBJECTID":385490},"geometry":{"x":167489.92000000179,"y":2548270.4700000025}},{"attributes":{"ID":385515,"DIS_CODE":0,"TOWNNAME":"安南區","LI":"大安里","LIN":"9鄰","STREET":"大安街","SECT":" ","MAREA":" ","LANE":"２０８巷","ALLEY":" ","HOUSE_NO":"２８號","E_COORD97":167477.41,"N_COORD97":2548252.25,"ADDRESS":"大安街２０８巷２８號","OBJECTID":385491},"geometry":{"x":167477.41000000108,"y":2548252.25}},{"attributes":{"ID":385516,"DIS_CODE":0,"TOWNNAME":"安南區","LI":"大安里","LIN":"9鄰","STREET":"大安街","SECT":" ","MAREA":" ","LANE":"２０８巷","ALLEY":" ","HOUSE_NO":"２號","E_COORD97":167417.37,"N_COORD97":2548295.0699999998,"ADDRESS":"大安街２０８巷２號","OBJECTID":385492},"geometry":{"x":167417.37000000011,"y":2548295.0700000003}},{"attributes":{"ID":385517,"DIS_CODE":0,"TOWNNAME":"安南區","LI":"大安里","LIN":"9鄰","STREET":"大安街","SECT":" ","MAREA":" ","LANE":"２０８巷","ALLEY":" ","HOUSE_NO":"３號","E_COORD97":167432.31,"N_COORD97":2548308.6600000001,"ADDRESS":"大安街２０８巷３號","OBJECTID":385493},"geometry":{"x":167432.30999999959,"y":2548308.6600000039}},{"attributes":{"ID":385518,"DIS_CODE":0,"TOWNNAME":"安南區","LI":"大安里","LIN":"9鄰","STREET":"大安街","SECT":" ","MAREA":" ","LANE":"２０８巷","ALLEY":" ","HOUSE_NO":"４號","E_COORD97":167421.22,"N_COORD97":2548291.6899999999,"ADDRESS":"大安街２０８巷４號","OBJECTID":385494},"geometry":{"x":167421.21999999974,"y":2548291.6900000013}},{"attributes":{"ID":385519,"DIS_CODE":0,"TOWNNAME":"安南區","LI":"大安里","LIN":"9鄰","STREET":"大安街","SECT":" ","MAREA":" ","LANE":"２０８巷","ALLEY":" ","HOUSE_NO":"５號","E_COORD97":167437.31,"N_COORD97":2548306.7400000002,"ADDRESS":"大安街２０８巷５號","OBJECTID":385495},"geometry":{"x":167437.30999999959,"y":2548306.7400000002}},{"attributes":{"ID":385520,"DIS_CODE":0,"TOWNNAME":"安南區","LI":"大安里","LIN":"9鄰","STREET":"大安街","SECT":" ","MAREA":" ","LANE":"２０８巷","ALLEY":" ","HOUSE_NO":"６號","E_COORD97":167424.64999999999,"N_COORD97":2548288.4900000002,"ADDRESS":"大安街２０８巷６號","OBJECTID":385496},"geometry":{"x":167424.6500000013,"y":2548288.4900000002}},{"attributes":{"ID":385521,"DIS_CODE":0,"TOWNNAME":"安南區","LI":"大安里","LIN":"9鄰","STREET":"大安街","SECT":" ","MAREA":" ","LANE":"２０８巷","ALLEY":" ","HOUSE_NO":"８號","E_COORD97":167429.23999999999,"N_COORD97":2548284.8399999999,"ADDRESS":"大安街２０８巷８號","OBJECTID":385497},"geometry":{"x":167429.24000000115,"y":2548284.8400000017}},{"attributes":{"ID":385522,"DIS_CODE":0,"TOWNNAME":"安南區","LI":"大安里","LIN":"9鄰","STREET":"大安街","SECT":" ","MAREA":" ","LANE":"２０８巷","ALLEY":" ","HOUSE_NO":"９號","E_COORD97":167445.51000000001,"N_COORD97":2548300.2599999998,"ADDRESS":"大安街２０８巷９號","OBJECTID":385498},"geometry":{"x":167445.51000000071,"y":2548300.2599999998}},{"attributes":{"ID":385523,"DIS_CODE":0,"TOWNNAME":"安南區","LI":"大安里","LIN":"9鄰","STREET":"大安街","SECT":" ","MAREA":" ","LANE":"２２２巷","ALLEY":" ","HOUSE_NO":"１０號","E_COORD97":167452.23000000001,"N_COORD97":2548309.9900000002,"ADDRESS":"大安街２２２巷１０號","OBJECTID":385499},"geometry":{"x":167452.23000000045,"y":2548309.9900000039}},{"attributes":{"ID":385524,"DIS_CODE":0,"TOWNNAME":"安南區","LI":"大安里","LIN":"9鄰","STREET":"大安街","SECT":" ","MAREA":" ","LANE":"２２２巷","ALLEY":" ","HOUSE_NO":"１１號","E_COORD97":167469.04999999999,"N_COORD97":2548325.6099999999,"ADDRESS":"大安街２２２巷１１號","OBJECTID":385500},"geometry":{"x":167469.05000000075,"y":2548325.6100000013}},{"attributes":{"ID":385525,"DIS_CODE":0,"TOWNNAME":"安南區","LI":"大安里","LIN":"9鄰","STREET":"大安街","SECT":" ","MAREA":" ","LANE":"２２２巷","ALLEY":" ","HOUSE_NO":"１２號","E_COORD97":167455.76000000001,"N_COORD97":2548307.0099999998,"ADDRESS":"大安街２２２巷１２號","OBJECTID":385501},"geometry":{"x":167455.76000000071,"y":2548307.0100000016}},{"attributes":{"ID":385526,"DIS_CODE":0,"TOWNNAME":"安南區","LI":"大安里","LIN":"9鄰","STREET":"大安街","SECT":" ","MAREA":" ","LANE":"２２２巷","ALLEY":" ","HOUSE_NO":"１３號","E_COORD97":167477.78,"N_COORD97":2548319.3700000001,"ADDRESS":"大安街２２２巷１３號","OBJECTID":385502},"geometry":{"x":167477.78000000212,"y":2548319.3700000029}},{"attributes":{"ID":385527,"DIS_CODE":0,"TOWNNAME":"安南區","LI":"大安里","LIN":"9鄰","STREET":"大安街","SECT":" ","MAREA":" ","LANE":"２２２巷","ALLEY":" ","HOUSE_NO":"１４號","E_COORD97":167465.45999999999,"N_COORD97":2548301.8500000001,"ADDRESS":"大安街２２２巷１４號","OBJECTID":385503},"geometry":{"x":167465.45999999996,"y":2548301.8499999996}},{"attributes":{"ID":385528,"DIS_CODE":0,"TOWNNAME":"南區","LI":"再興里","LIN":"9鄰","STREET":"三官路","SECT":" ","MAREA":" ","LANE":"９６巷","ALLEY":" ","HOUSE_NO":"８號","E_COORD97":167317.29999999999,"N_COORD97":2542197.6600000001,"ADDRESS":"三官路９６巷８號","OBJECTID":385504},"geometry":{"x":167317.29999999981,"y":2542197.6600000001}},{"attributes":{"ID":385529,"DIS_CODE":0,"TOWNNAME":"安南區","LI":"大安里","LIN":"9鄰","STREET":"大安街","SECT":" ","MAREA":" ","LANE":"２２２巷","ALLEY":" ","HOUSE_NO":"１５號","E_COORD97":167482.60999999999,"N_COORD97":2548315.54,"ADDRESS":"大安街２２２巷１５號","OBJECTID":385505},"geometry":{"x":167482.61000000127,"y":2548315.540000001}},{"attributes":{"ID":385530,"DIS_CODE":0,"TOWNNAME":"安南區","LI":"大安里","LIN":"9鄰","STREET":"大安街","SECT":" ","MAREA":" ","LANE":"２２２巷","ALLEY":" ","HOUSE_NO":"１６號","E_COORD97":167472.75,"N_COORD97":2548300.71,"ADDRESS":"大安街２２２巷１６號","OBJECTID":385506},"geometry":{"x":167472.75000000093,"y":2548300.7100000028}},{"attributes":{"ID":385531,"DIS_CODE":0,"TOWNNAME":"安南區","LI":"大安里","LIN":"9鄰","STREET":"大安街","SECT":" ","MAREA":" ","LANE":"２２２巷","ALLEY":" ","HOUSE_NO":"１７號","E_COORD97":167487.81,"N_COORD97":2548312.8199999998,"ADDRESS":"大安街２２２巷１７號","OBJECTID":385507},"geometry":{"x":167487.80999999959,"y":2548312.8200000022}},{"attributes":{"ID":385532,"DIS_CODE":0,"TOWNNAME":"安南區","LI":"大安里","LIN":"9鄰","STREET":"大安街","SECT":" ","MAREA":" ","LANE":"２２２巷","ALLEY":" ","HOUSE_NO":"１８號","E_COORD97":167477.14999999999,"N_COORD97":2548294.2999999998,"ADDRESS":"大安街２２２巷１８號","OBJECTID":385508},"geometry":{"x":167477.1500000013,"y":2548294.3000000007}},{"attributes":{"ID":385533,"DIS_CODE":0,"TOWNNAME":"安南區","LI":"大安里","LIN":"9鄰","STREET":"大安街","SECT":" ","MAREA":" ","LANE":"２２２巷","ALLEY":" ","HOUSE_NO":"１９號","E_COORD97":167492.14999999999,"N_COORD97":2548308.3500000001,"ADDRESS":"大安街２２２巷１９號","OBJECTID":385509},"geometry":{"x":167492.14999999944,"y":2548308.3500000015}},{"attributes":{"ID":385534,"DIS_CODE":0,"TOWNNAME":"安南區","LI":"大安里","LIN":"9鄰","STREET":"大安街","SECT":" ","MAREA":" ","LANE":"２２２巷","ALLEY":" ","HOUSE_NO":"１號","E_COORD97":167445.67000000001,"N_COORD97":2548338.25,"ADDRESS":"大安街２２２巷１號","OBJECTID":385510},"geometry":{"x":167445.66999999993,"y":2548338.2499999981}},{"attributes":{"ID":385535,"DIS_CODE":0,"TOWNNAME":"安南區","LI":"大安里","LIN":"9鄰","STREET":"大安街","SECT":" ","MAREA":" ","LANE":"２２２巷","ALLEY":" ","HOUSE_NO":"２０號","E_COORD97":167480.67999999999,"N_COORD97":2548292.79,"ADDRESS":"大安街２２２巷２０號","OBJECTID":385511},"geometry":{"x":167480.6799999997,"y":2548292.7899999991}},{"attributes":{"ID":385536,"DIS_CODE":0,"TOWNNAME":"安南區","LI":"大安里","LIN":"9鄰","STREET":"大安街","SECT":" ","MAREA":" ","LANE":"２２２巷","ALLEY":" ","HOUSE_NO":"２１號","E_COORD97":167497.67000000001,"N_COORD97":2548305.1699999999,"ADDRESS":"大安街２２２巷２１號","OBJECTID":385512},"geometry":{"x":167497.66999999993,"y":2548305.1700000037}},{"attributes":{"ID":385537,"DIS_CODE":0,"TOWNNAME":"安南區","LI":"大安里","LIN":"9鄰","STREET":"大安街","SECT":" ","MAREA":" ","LANE":"２２２巷","ALLEY":" ","HOUSE_NO":"２２號","E_COORD97":167486.17999999999,"N_COORD97":2548287.71,"ADDRESS":"大安街２２２巷２２號","OBJECTID":385513},"geometry":{"x":167486.18000000156,"y":2548287.7100000009}},{"attributes":{"ID":385538,"DIS_CODE":0,"TOWNNAME":"安南區","LI":"大安里","LIN":"9鄰","STREET":"大安街","SECT":" ","MAREA":" ","LANE":"２２２巷","ALLEY":" ","HOUSE_NO":"２３號","E_COORD97":167502.85000000001,"N_COORD97":2548301.9900000002,"ADDRESS":"大安街２２２巷２３號","OBJECTID":385514},"geometry":{"x":167502.84999999963,"y":2548301.9900000002}},{"attributes":{"ID":385539,"DIS_CODE":0,"TOWNNAME":"安南區","LI":"大安里","LIN":"9鄰","STREET":"大安街","SECT":" ","MAREA":" ","LANE":"２２２巷","ALLEY":" ","HOUSE_NO":"２４號","E_COORD97":167490.88,"N_COORD97":2548283.6899999999,"ADDRESS":"大安街２２２巷２４號","OBJECTID":385515},"geometry":{"x":167490.88000000082,"y":2548283.6899999995}},{"attributes":{"ID":385540,"DIS_CODE":0,"TOWNNAME":"安南區","LI":"大安里","LIN":"9鄰","STREET":"大安街","SECT":" ","MAREA":" ","LANE":"２２２巷","ALLEY":" ","HOUSE_NO":"２５號","E_COORD97":167507.23000000001,"N_COORD97":2548299.25,"ADDRESS":"大安街２２２巷２５號","OBJECTID":385516},"geometry":{"x":167507.23000000138,"y":2548299.2500000019}},{"attributes":{"ID":385541,"DIS_CODE":0,"TOWNNAME":"安南區","LI":"大安里","LIN":"9鄰","STREET":"大安街","SECT":" ","MAREA":" ","LANE":"２２２巷","ALLEY":" ","HOUSE_NO":"２６號","E_COORD97":167496.25,"N_COORD97":2548280.6299999999,"ADDRESS":"大安街２２２巷２６號","OBJECTID":385517},"geometry":{"x":167496.25000000186,"y":2548280.6300000027}},{"attributes":{"ID":385542,"DIS_CODE":0,"TOWNNAME":"安南區","LI":"大安里","LIN":"9鄰","STREET":"大安街","SECT":" ","MAREA":" ","LANE":"２２２巷","ALLEY":" ","HOUSE_NO":"２號","E_COORD97":167434.10000000001,"N_COORD97":2548320.8599999999,"ADDRESS":"大安街２２２巷２號","OBJECTID":385518},"geometry":{"x":167434.10000000149,"y":2548320.8600000013}},{"attributes":{"ID":385543,"DIS_CODE":0,"TOWNNAME":"安南區","LI":"大安里","LIN":"9鄰","STREET":"大安街","SECT":" ","MAREA":" ","LANE":"２２２巷","ALLEY":" ","HOUSE_NO":"３號","E_COORD97":167450.06,"N_COORD97":2548335.2999999998,"ADDRESS":"大安街２２２巷３號","OBJECTID":385519},"geometry":{"x":167450.06000000052,"y":2548335.2999999989}},{"attributes":{"ID":385544,"DIS_CODE":0,"TOWNNAME":"安南區","LI":"大安里","LIN":"9鄰","STREET":"大安街","SECT":" ","MAREA":" ","LANE":"２２２巷","ALLEY":" ","HOUSE_NO":"４號","E_COORD97":167438.57999999999,"N_COORD97":2548317.9100000001,"ADDRESS":"大安街２２２巷４號","OBJECTID":385520},"geometry":{"x":167438.58000000101,"y":2548317.910000002}},{"attributes":{"ID":385545,"DIS_CODE":0,"TOWNNAME":"安南區","LI":"大安里","LIN":"9鄰","STREET":"大安街","SECT":" ","MAREA":" ","LANE":"２２２巷","ALLEY":" ","HOUSE_NO":"５號","E_COORD97":167455.20999999999,"N_COORD97":2548332.8599999999,"ADDRESS":"大安街２２２巷５號","OBJECTID":385521},"geometry":{"x":167455.20999999996,"y":2548332.8599999994}},{"attributes":{"ID":385546,"DIS_CODE":0,"TOWNNAME":"安南區","LI":"大安里","LIN":"9鄰","STREET":"大安街","SECT":" ","MAREA":" ","LANE":"２２２巷","ALLEY":" ","HOUSE_NO":"６號","E_COORD97":167443.13,"N_COORD97":2548314.96,"ADDRESS":"大安街２２２巷６號","OBJECTID":385522},"geometry":{"x":167443.13000000082,"y":2548314.9600000028}},{"attributes":{"ID":385547,"DIS_CODE":0,"TOWNNAME":"安南區","LI":"大安里","LIN":"9鄰","STREET":"大安街","SECT":" ","MAREA":" ","LANE":"２２２巷","ALLEY":" ","HOUSE_NO":"７號","E_COORD97":167458.92000000001,"N_COORD97":2548330.4199999999,"ADDRESS":"大安街２２２巷７號","OBJECTID":385523},"geometry":{"x":167458.91999999993,"y":2548330.4200000037}},{"attributes":{"ID":385548,"DIS_CODE":0,"TOWNNAME":"安南區","LI":"大安里","LIN":"9鄰","STREET":"大安街","SECT":" ","MAREA":" ","LANE":"２２２巷","ALLEY":" ","HOUSE_NO":"８號","E_COORD97":167447.64999999999,"N_COORD97":2548312.73,"ADDRESS":"大安街２２２巷８號","OBJECTID":385524},"geometry":{"x":167447.65000000037,"y":2548312.7300000023}},{"attributes":{"ID":385549,"DIS_CODE":0,"TOWNNAME":"安南區","LI":"大安里","LIN":"9鄰","STREET":"大安街","SECT":" ","MAREA":" ","LANE":"２２２巷","ALLEY":" ","HOUSE_NO":"９號","E_COORD97":167463.14000000001,"N_COORD97":2548328.2200000002,"ADDRESS":"大安街２２２巷９號","OBJECTID":385525},"geometry":{"x":167463.1400000006,"y":2548328.2200000007}},{"attributes":{"ID":385550,"DIS_CODE":0,"TOWNNAME":"南區","LI":"新昌里","LIN":"9鄰","STREET":"國華街","SECT":"一段","MAREA":" ","LANE":"５６巷","ALLEY":" ","HOUSE_NO":"７號","E_COORD97":167638.04000000001,"N_COORD97":2542751.1299999999,"ADDRESS":"國華街一段５６巷７號","OBJECTID":385526},"geometry":{"x":167638.04000000004,"y":2542751.1300000027}},{"attributes":{"ID":385551,"DIS_CODE":0,"TOWNNAME":"南區","LI":"新昌里","LIN":"9鄰","STREET":"國華街","SECT":"一段","MAREA":" ","LANE":"５６巷","ALLEY":" ","HOUSE_NO":"９號","E_COORD97":167645.76000000001,"N_COORD97":2542752.0899999999,"ADDRESS":"國華街一段５６巷９號","OBJECTID":385527},"geometry":{"x":167645.76000000071,"y":2542752.0900000036}},{"attributes":{"ID":385552,"DIS_CODE":0,"TOWNNAME":"南區","LI":"新昌里","LIN":"9鄰","STREET":"國華街","SECT":"一段","MAREA":" ","LANE":"５６巷","ALLEY":" ","HOUSE_NO":"１０號","E_COORD97":167649.62,"N_COORD97":2542751.4500000002,"ADDRESS":"國華街一段５６巷１０號","OBJECTID":385528},"geometry":{"x":167649.62000000011,"y":2542751.4499999993}},{"attributes":{"ID":385553,"DIS_CODE":0,"TOWNNAME":"南區","LI":"彰南里","LIN":"9鄰","STREET":"新建路","SECT":" ","MAREA":" ","LANE":"２０巷","ALLEY":" ","HOUSE_NO":"１號","E_COORD97":166441.23000000001,"N_COORD97":2541188.29,"ADDRESS":"新建路２０巷１號","OBJECTID":385529},"geometry":{"x":166441.23000000138,"y":2541188.290000001}},{"attributes":{"ID":385554,"DIS_CODE":0,"TOWNNAME":"南區","LI":"彰南里","LIN":"9鄰","STREET":"新建路","SECT":" ","MAREA":" ","LANE":"２０巷","ALLEY":" ","HOUSE_NO":"２號","E_COORD97":166423.22,"N_COORD97":2541213.3300000001,"ADDRESS":"新建路２０巷２號","OBJECTID":385530},"geometry":{"x":166423.2200000016,"y":2541213.3300000001}},{"attributes":{"ID":385555,"DIS_CODE":0,"TOWNNAME":"南區","LI":"彰南里","LIN":"9鄰","STREET":"新建路","SECT":" ","MAREA":" ","LANE":"２０巷","ALLEY":" ","HOUSE_NO":"３號","E_COORD97":166433.19,"N_COORD97":2541188.0099999998,"ADDRESS":"新建路２０巷３號","OBJECTID":385531},"geometry":{"x":166433.19000000134,"y":2541188.0099999998}},{"attributes":{"ID":385556,"DIS_CODE":0,"TOWNNAME":"南區","LI":"彰南里","LIN":"9鄰","STREET":"新建路","SECT":" ","MAREA":" ","LANE":"２０巷","ALLEY":" ","HOUSE_NO":"４號","E_COORD97":166415.67999999999,"N_COORD97":2541213.3300000001,"ADDRESS":"新建路２０巷４號","OBJECTID":385532},"geometry":{"x":166415.68000000063,"y":2541213.3300000001}},{"attributes":{"ID":385557,"DIS_CODE":0,"TOWNNAME":"南區","LI":"彰南里","LIN":"9鄰","STREET":"新建路","SECT":" ","MAREA":" ","LANE":"２０巷","ALLEY":" ","HOUSE_NO":"５號","E_COORD97":166423.14000000001,"N_COORD97":2541191.46,"ADDRESS":"新建路２０巷５號","OBJECTID":385533},"geometry":{"x":166423.13999999966,"y":2541191.4600000028}},{"attributes":{"ID":385558,"DIS_CODE":0,"TOWNNAME":"南區","LI":"彰南里","LIN":"9鄰","STREET":"新建路","SECT":" ","MAREA":" ","LANE":"２０巷","ALLEY":" ","HOUSE_NO":"６號","E_COORD97":166406.19,"N_COORD97":2541214.3900000001,"ADDRESS":"新建路２０巷６號","OBJECTID":385534},"geometry":{"x":166406.19000000134,"y":2541214.3900000006}},{"attributes":{"ID":385559,"DIS_CODE":0,"TOWNNAME":"南區","LI":"彰南里","LIN":"9鄰","STREET":"新建路","SECT":" ","MAREA":" ","LANE":"２０巷","ALLEY":" ","HOUSE_NO":"７號","E_COORD97":166415.42000000001,"N_COORD97":2541188.54,"ADDRESS":"新建路２０巷７號","OBJECTID":385535},"geometry":{"x":166415.42000000086,"y":2541188.5400000028}},{"attributes":{"ID":385560,"DIS_CODE":0,"TOWNNAME":"南區","LI":"彰南里","LIN":"9鄰","STREET":"新建路","SECT":" ","MAREA":" ","LANE":"２０巷","ALLEY":" ","HOUSE_NO":"８號","E_COORD97":166398.82999999999,"N_COORD97":2541214.21,"ADDRESS":"新建路２０巷８號","OBJECTID":385536},"geometry":{"x":166398.83000000007,"y":2541214.2100000028}},{"attributes":{"ID":385561,"DIS_CODE":0,"TOWNNAME":"南區","LI":"興農里","LIN":"9鄰","STREET":"灣裡路","SECT":" ","MAREA":" ","LANE":"２６３巷","ALLEY":" ","HOUSE_NO":"８１號","E_COORD97":166348.64999999999,"N_COORD97":2536371.2000000002,"ADDRESS":"灣裡路２６３巷８１號","OBJECTID":385537},"geometry":{"x":166348.6500000013,"y":2536371.2000000011}},{"attributes":{"ID":385562,"DIS_CODE":0,"TOWNNAME":"白河區","LI":"庄內里","LIN":"9鄰","STREET":"愛國街","SECT":" ","MAREA":" ","LANE":"１５７巷","ALLEY":" ","HOUSE_NO":"２號","E_COORD97":190985.70999999999,"N_COORD97":2583599.8599999999,"ADDRESS":"愛國街１５７巷２號","OBJECTID":385538},"geometry":{"x":190985.71000000089,"y":2583599.8599999994}},{"attributes":{"ID":385563,"DIS_CODE":0,"TOWNNAME":"南區","LI":"興農里","LIN":"9鄰","STREET":"灣裡路","SECT":" ","MAREA":" ","LANE":"２６３巷","ALLEY":" ","HOUSE_NO":"１０５號","E_COORD97":166431.20000000001,"N_COORD97":2536362.73,"ADDRESS":"灣裡路２６３巷１０５號","OBJECTID":385539},"geometry":{"x":166431.20000000112,"y":2536362.7300000004}},{"attributes":{"ID":385564,"DIS_CODE":0,"TOWNNAME":"善化區","LI":"南關里","LIN":"5鄰","STREET":"自由路","SECT":" ","MAREA":" ","LANE":"１０５巷","ALLEY":" ","HOUSE_NO":"３號","E_COORD97":177122.45999999999,"N_COORD97":2558839.5,"ADDRESS":"自由路１０５巷３號","OBJECTID":385540},"geometry":{"x":177122.46000000089,"y":2558839.5}},{"attributes":{"ID":385565,"DIS_CODE":0,"TOWNNAME":"新化區","LI":"太平里","LIN":"9鄰","STREET":"中正路","SECT":" ","MAREA":" ","LANE":"６８６巷","ALLEY":" ","HOUSE_NO":"１９號之１","E_COORD97":178649.59,"N_COORD97":2549566.2599999998,"ADDRESS":"中正路６８６巷１９號之１","OBJECTID":385541},"geometry":{"x":178649.58999999985,"y":2549566.2600000016}},{"attributes":{"ID":385566,"DIS_CODE":0,"TOWNNAME":"新化區","LI":"東榮里","LIN":"9鄰","STREET":"信義路","SECT":" ","MAREA":" ","LANE":"１３１巷","ALLEY":" ","HOUSE_NO":"９８號","E_COORD97":179652.98000000001,"N_COORD97":2548264.25,"ADDRESS":"信義路１３１巷９８號","OBJECTID":385542},"geometry":{"x":179652.97999999952,"y":2548264.2500000019}},{"attributes":{"ID":385567,"DIS_CODE":0,"TOWNNAME":"白河區","LI":"庄內里","LIN":"9鄰","STREET":"愛國街","SECT":" ","MAREA":" ","LANE":"１５７巷","ALLEY":" ","HOUSE_NO":"１０號","E_COORD97":190963.76000000001,"N_COORD97":2583598.6299999999,"ADDRESS":"愛國街１５７巷１０號","OBJECTID":385543},"geometry":{"x":190963.75999999978,"y":2583598.6300000008}},{"attributes":{"ID":385568,"DIS_CODE":0,"TOWNNAME":"白河區","LI":"庄內里","LIN":"9鄰","STREET":"愛國街","SECT":" ","MAREA":" ","LANE":"１５７巷","ALLEY":" ","HOUSE_NO":"１２號","E_COORD97":190956.98999999999,"N_COORD97":2583598.6600000001,"ADDRESS":"愛國街１５７巷１２號","OBJECTID":385544},"geometry":{"x":190956.99000000115,"y":2583598.6600000001}},{"attributes":{"ID":385569,"DIS_CODE":0,"TOWNNAME":"白河區","LI":"庄內里","LIN":"9鄰","STREET":"愛國街","SECT":" ","MAREA":" ","LANE":"１５７巷","ALLEY":" ","HOUSE_NO":"１４號","E_COORD97":190949.92000000001,"N_COORD97":2583598.54,"ADDRESS":"愛國街１５７巷１４號","OBJECTID":385545},"geometry":{"x":190949.92000000086,"y":2583598.5399999991}},{"attributes":{"ID":385570,"DIS_CODE":0,"TOWNNAME":"白河區","LI":"庄內里","LIN":"9鄰","STREET":"愛國街","SECT":" ","MAREA":" ","LANE":"１５７巷","ALLEY":" ","HOUSE_NO":"６號","E_COORD97":190977.44,"N_COORD97":2583599.1600000001,"ADDRESS":"愛國街１５７巷６號","OBJECTID":385546},"geometry":{"x":190977.44000000134,"y":2583599.1600000039}},{"attributes":{"ID":385571,"DIS_CODE":0,"TOWNNAME":"白河區","LI":"庄內里","LIN":"9鄰","STREET":"愛國街","SECT":" ","MAREA":" ","LANE":"１５７巷","ALLEY":" ","HOUSE_NO":"８號","E_COORD97":190970.60999999999,"N_COORD97":2583598.8500000001,"ADDRESS":"愛國街１５７巷８號","OBJECTID":385547},"geometry":{"x":190970.61000000034,"y":2583598.8500000015}},{"attributes":{"ID":385572,"DIS_CODE":0,"TOWNNAME":"西港區","LI":"慶安里","LIN":"9鄰","STREET":"新興街","SECT":" ","MAREA":" ","LANE":"１０６巷","ALLEY":" ","HOUSE_NO":"１０號","E_COORD97":168253.67000000001,"N_COORD97":2558227.9399999999,"ADDRESS":"新興街１０６巷１０號","OBJECTID":385548},"geometry":{"x":168253.66999999993,"y":2558227.9400000013}},{"attributes":{"ID":385573,"DIS_CODE":0,"TOWNNAME":"西港區","LI":"慶安里","LIN":"9鄰","STREET":"新興街","SECT":" ","MAREA":" ","LANE":"１０６巷","ALLEY":" ","HOUSE_NO":"１２號","E_COORD97":168257.81,"N_COORD97":2558227.1499999999,"ADDRESS":"新興街１０６巷１２號","OBJECTID":385549},"geometry":{"x":168257.80999999959,"y":2558227.1500000022}},{"attributes":{"ID":385574,"DIS_CODE":0,"TOWNNAME":"西港區","LI":"慶安里","LIN":"9鄰","STREET":"新興街","SECT":" ","MAREA":" ","LANE":"１０６巷","ALLEY":" ","HOUSE_NO":"１３號","E_COORD97":168263.89000000001,"N_COORD97":2558241.2599999998,"ADDRESS":"新興街１０６巷１３號","OBJECTID":385550},"geometry":{"x":168263.88999999966,"y":2558241.2599999979}},{"attributes":{"ID":385575,"DIS_CODE":0,"TOWNNAME":"西港區","LI":"慶安里","LIN":"9鄰","STREET":"新興街","SECT":" ","MAREA":" ","LANE":"１０６巷","ALLEY":" ","HOUSE_NO":"１４號","E_COORD97":168261.75,"N_COORD97":2558226.3399999999,"ADDRESS":"新興街１０６巷１４號","OBJECTID":385551},"geometry":{"x":168261.75,"y":2558226.3399999999}},{"attributes":{"ID":385576,"DIS_CODE":0,"TOWNNAME":"西港區","LI":"慶安里","LIN":"9鄰","STREET":"新興街","SECT":" ","MAREA":" ","LANE":"１０６巷","ALLEY":" ","HOUSE_NO":"１５號","E_COORD97":168267.98000000001,"N_COORD97":2558240.7400000002,"ADDRESS":"新興街１０６巷１５號","OBJECTID":385552},"geometry":{"x":168267.98000000045,"y":2558240.7400000002}},{"attributes":{"ID":385577,"DIS_CODE":0,"TOWNNAME":"西港區","LI":"慶安里","LIN":"9鄰","STREET":"新興街","SECT":" ","MAREA":" ","LANE":"１０６巷","ALLEY":" ","HOUSE_NO":"１６號","E_COORD97":168265.85000000001,"N_COORD97":2558225.8900000001,"ADDRESS":"新興街１０６巷１６號","OBJECTID":385553},"geometry":{"x":168265.84999999963,"y":2558225.8900000025}},{"attributes":{"ID":385578,"DIS_CODE":0,"TOWNNAME":"西港區","LI":"慶安里","LIN":"9鄰","STREET":"新興街","SECT":" ","MAREA":" ","LANE":"１０６巷","ALLEY":" ","HOUSE_NO":"１８號","E_COORD97":168270.04999999999,"N_COORD97":2558225.4100000001,"ADDRESS":"新興街１０６巷１８號","OBJECTID":385554},"geometry":{"x":168270.04999999981,"y":2558225.410000002}},{"attributes":{"ID":385579,"DIS_CODE":0,"TOWNNAME":"西港區","LI":"慶安里","LIN":"9鄰","STREET":"新興街","SECT":" ","MAREA":" ","LANE":"１０６巷","ALLEY":" ","HOUSE_NO":"１號","E_COORD97":168239.5,"N_COORD97":2558244.6699999999,"ADDRESS":"新興街１０６巷１號","OBJECTID":385555},"geometry":{"x":168239.50000000093,"y":2558244.6699999999}},{"attributes":{"ID":385580,"DIS_CODE":0,"TOWNNAME":"西港區","LI":"慶安里","LIN":"9鄰","STREET":"新興街","SECT":" ","MAREA":" ","LANE":"１０６巷","ALLEY":" ","HOUSE_NO":"２０號","E_COORD97":168273.85000000001,"N_COORD97":2558224.6099999999,"ADDRESS":"新興街１０６巷２０號","OBJECTID":385556},"geometry":{"x":168273.85000000056,"y":2558224.6099999994}},{"attributes":{"ID":385581,"DIS_CODE":0,"TOWNNAME":"西港區","LI":"慶安里","LIN":"9鄰","STREET":"新興街","SECT":" ","MAREA":" ","LANE":"１０６巷","ALLEY":" ","HOUSE_NO":"２號","E_COORD97":168237.94,"N_COORD97":2558230.8100000001,"ADDRESS":"新興街１０６巷２號","OBJECTID":385557},"geometry":{"x":168237.94000000227,"y":2558230.8100000005}},{"attributes":{"ID":385582,"DIS_CODE":0,"TOWNNAME":"西港區","LI":"慶安里","LIN":"9鄰","STREET":"新興街","SECT":" ","MAREA":" ","LANE":"１０６巷","ALLEY":" ","HOUSE_NO":"３號","E_COORD97":168243.59,"N_COORD97":2558244.1200000001,"ADDRESS":"新興街１０６巷３號","OBJECTID":385558},"geometry":{"x":168243.59000000078,"y":2558244.1200000029}},{"attributes":{"ID":385583,"DIS_CODE":0,"TOWNNAME":"西港區","LI":"慶安里","LIN":"9鄰","STREET":"新興街","SECT":" ","MAREA":" ","LANE":"１０６巷","ALLEY":" ","HOUSE_NO":"４號","E_COORD97":168242.06,"N_COORD97":2558230.1800000002,"ADDRESS":"新興街１０６巷４號","OBJECTID":385559},"geometry":{"x":168242.06000000052,"y":2558230.1799999997}},{"attributes":{"ID":385584,"DIS_CODE":0,"TOWNNAME":"西港區","LI":"慶安里","LIN":"9鄰","STREET":"新興街","SECT":" ","MAREA":" ","LANE":"１０６巷","ALLEY":" ","HOUSE_NO":"５號","E_COORD97":168247.88,"N_COORD97":2558243.52,"ADDRESS":"新興街１０６巷５號","OBJECTID":385560},"geometry":{"x":168247.88000000175,"y":2558243.5200000014}},{"attributes":{"ID":385585,"DIS_CODE":0,"TOWNNAME":"西港區","LI":"慶安里","LIN":"9鄰","STREET":"新興街","SECT":" ","MAREA":" ","LANE":"１０６巷","ALLEY":" ","HOUSE_NO":"６號","E_COORD97":168245.92999999999,"N_COORD97":2558229.6099999999,"ADDRESS":"新興街１０６巷６號","OBJECTID":385561},"geometry":{"x":168245.93000000063,"y":2558229.6100000013}},{"attributes":{"ID":385586,"DIS_CODE":0,"TOWNNAME":"西港區","LI":"慶安里","LIN":"9鄰","STREET":"新興街","SECT":" ","MAREA":" ","LANE":"１０６巷","ALLEY":" ","HOUSE_NO":"７號","E_COORD97":168251.73000000001,"N_COORD97":2558242.96,"ADDRESS":"新興街１０６巷７號","OBJECTID":385562},"geometry":{"x":168251.73000000138,"y":2558242.9600000028}},{"attributes":{"ID":385587,"DIS_CODE":0,"TOWNNAME":"西港區","LI":"慶安里","LIN":"9鄰","STREET":"新興街","SECT":" ","MAREA":" ","LANE":"１０６巷","ALLEY":" ","HOUSE_NO":"８號","E_COORD97":168249.88,"N_COORD97":2558228.6200000001,"ADDRESS":"新興街１０６巷８號","OBJECTID":385563},"geometry":{"x":168249.88000000082,"y":2558228.620000001}},{"attributes":{"ID":385588,"DIS_CODE":0,"TOWNNAME":"西港區","LI":"慶安里","LIN":"9鄰","STREET":"新興街","SECT":" ","MAREA":" ","LANE":"１０６巷","ALLEY":" ","HOUSE_NO":"９號","E_COORD97":168255.89999999999,"N_COORD97":2558242.3999999999,"ADDRESS":"新興街１０６巷９號","OBJECTID":385564},"geometry":{"x":168255.9000000013,"y":2558242.4000000022}},{"attributes":{"ID":385589,"DIS_CODE":0,"TOWNNAME":"永康區","LI":"正強里","LIN":"9鄰","STREET":"正義街","SECT":" ","MAREA":" ","LANE":"１２６巷","ALLEY":" ","HOUSE_NO":"２號","E_COORD97":173395.98999999999,"N_COORD97":2547574.02,"ADDRESS":"正義街１２６巷２號","OBJECTID":385565},"geometry":{"x":173395.99000000115,"y":2547574.0200000014}},{"attributes":{"ID":385590,"DIS_CODE":0,"TOWNNAME":"永康區","LI":"南灣里","LIN":"9鄰","STREET":"南興路","SECT":" ","MAREA":" ","LANE":"１０１巷","ALLEY":" ","HOUSE_NO":"２３號","E_COORD97":174046.10999999999,"N_COORD97":2544312.3100000001,"ADDRESS":"南興路１０１巷２３號","OBJECTID":385566},"geometry":{"x":174046.1100000022,"y":2544312.3100000024}},{"attributes":{"ID":385591,"DIS_CODE":0,"TOWNNAME":"永康區","LI":"埔園里","LIN":"9鄰","STREET":"中山路","SECT":" ","MAREA":" ","LANE":"１１３巷","ALLEY":" ","HOUSE_NO":"１３號之１","E_COORD97":173701.42999999999,"N_COORD97":2547827.29,"ADDRESS":"中山路１１３巷１３號之１","OBJECTID":385567},"geometry":{"x":173701.43000000063,"y":2547827.2899999991}},{"attributes":{"ID":385592,"DIS_CODE":0,"TOWNNAME":"永康區","LI":"西橋里","LIN":"9鄰","STREET":"中華西街","SECT":" ","MAREA":" ","LANE":"８５巷","ALLEY":" ","HOUSE_NO":"２０號","E_COORD97":170644.70999999999,"N_COORD97":2546063.9900000002,"ADDRESS":"中華西街８５巷２０號","OBJECTID":385568},"geometry":{"x":170644.71000000089,"y":2546063.9900000002}},{"attributes":{"ID":385593,"DIS_CODE":0,"TOWNNAME":"永康區","LI":"西灣里","LIN":"9鄰","STREET":"大灣五街","SECT":" ","MAREA":" ","LANE":"１４１巷","ALLEY":" ","HOUSE_NO":"１８號","E_COORD97":174416.03,"N_COORD97":2545293.7400000002,"ADDRESS":"大灣五街１４１巷１８號","OBJECTID":385569},"geometry":{"x":174416.03000000212,"y":2545293.7400000002}},{"attributes":{"ID":385594,"DIS_CODE":0,"TOWNNAME":"永康區","LI":"西勢里","LIN":"9鄰","STREET":"西勢路","SECT":" ","MAREA":" ","LANE":"２３７巷","ALLEY":" ","HOUSE_NO":"１０號","E_COORD97":175780.72,"N_COORD97":2546728.0099999998,"ADDRESS":"西勢路２３７巷１０號","OBJECTID":385570},"geometry":{"x":175780.72000000067,"y":2546728.0099999998}},{"attributes":{"ID":385595,"DIS_CODE":0,"TOWNNAME":"永康區","LI":"尚頂里","LIN":"9鄰","STREET":"正南一街","SECT":" ","MAREA":" ","LANE":"１２９巷","ALLEY":" ","HOUSE_NO":"３３號","E_COORD97":170718.54000000001,"N_COORD97":2547120.6299999999,"ADDRESS":"正南一街１２９巷３３號","OBJECTID":385571},"geometry":{"x":170718.5400000019,"y":2547120.629999999}},{"attributes":{"ID":385596,"DIS_CODE":0,"TOWNNAME":"永康區","LI":"西勢里","LIN":"9鄰","STREET":"西勢路","SECT":" ","MAREA":" ","LANE":"２３７巷","ALLEY":" ","HOUSE_NO":"１５號","E_COORD97":175797.32000000001,"N_COORD97":2546708.7799999998,"ADDRESS":"西勢路２３７巷１５號","OBJECTID":385572},"geometry":{"x":175797.31999999937,"y":2546708.7799999993}},{"attributes":{"ID":385597,"DIS_CODE":0,"TOWNNAME":"東區","LI":"崇善里","LIN":"9鄰","STREET":"仁和路","SECT":" ","MAREA":" ","LANE":"８２巷","ALLEY":" ","HOUSE_NO":"１１號","E_COORD97":171136.10999999999,"N_COORD97":2541653.6400000001,"ADDRESS":"仁和路８２巷１１號","OBJECTID":385573},"geometry":{"x":171136.11000000127,"y":2541653.6400000006}},{"attributes":{"ID":385598,"DIS_CODE":0,"TOWNNAME":"東區","LI":"關聖里","LIN":"9鄰","STREET":"裕農路","SECT":" ","MAREA":" ","LANE":"７２６巷","ALLEY":" ","HOUSE_NO":"１１０之１號","E_COORD97":171870.26999999999,"N_COORD97":2542975.8599999999,"ADDRESS":"裕農路７２６巷１１０之１號","OBJECTID":385574},"geometry":{"x":171870.26999999955,"y":2542975.8599999994}},{"attributes":{"ID":385599,"DIS_CODE":0,"TOWNNAME":"東區","LI":"關聖里","LIN":"9鄰","STREET":"裕農路","SECT":" ","MAREA":" ","LANE":"７２６巷","ALLEY":" ","HOUSE_NO":"１１９號","E_COORD97":171871.76999999999,"N_COORD97":2542929.7200000002,"ADDRESS":"裕農路７２６巷１１９號","OBJECTID":385575},"geometry":{"x":171871.76999999955,"y":2542929.7200000025}},{"attributes":{"ID":385600,"DIS_CODE":0,"TOWNNAME":"東區","LI":"關聖里","LIN":"9鄰","STREET":"裕農路","SECT":" ","MAREA":" ","LANE":"７２６巷","ALLEY":" ","HOUSE_NO":"１２１號","E_COORD97":171866.12,"N_COORD97":2542930.0699999998,"ADDRESS":"裕農路７２６巷１２１號","OBJECTID":385576},"geometry":{"x":171866.12000000104,"y":2542930.0700000022}},{"attributes":{"ID":385601,"DIS_CODE":0,"TOWNNAME":"東區","LI":"關聖里","LIN":"9鄰","STREET":"裕農路","SECT":" ","MAREA":" ","LANE":"７２６巷","ALLEY":" ","HOUSE_NO":"１２３號","E_COORD97":171861.5,"N_COORD97":2542929.8399999999,"ADDRESS":"裕農路７２６巷１２３號","OBJECTID":385577},"geometry":{"x":171861.50000000093,"y":2542929.839999998}},{"attributes":{"ID":385602,"DIS_CODE":0,"TOWNNAME":"東區","LI":"崇善里","LIN":"9鄰","STREET":"仁和路","SECT":" ","MAREA":" ","LANE":"８０巷","ALLEY":" ","HOUSE_NO":"９號","E_COORD97":171125.14000000001,"N_COORD97":2541688.1800000002,"ADDRESS":"仁和路８０巷９號","OBJECTID":385578},"geometry":{"x":171125.1400000006,"y":2541688.1800000016}},{"attributes":{"ID":385603,"DIS_CODE":0,"TOWNNAME":"東區","LI":"關聖里","LIN":"9鄰","STREET":"裕農路","SECT":" ","MAREA":" ","LANE":"７２６巷","ALLEY":" ","HOUSE_NO":"１２５號","E_COORD97":171857.23999999999,"N_COORD97":2542929.96,"ADDRESS":"裕農路７２６巷１２５號","OBJECTID":385579},"geometry":{"x":171857.24000000115,"y":2542929.9600000009}},{"attributes":{"ID":385604,"DIS_CODE":0,"TOWNNAME":"東區","LI":"關聖里","LIN":"9鄰","STREET":"裕農路","SECT":" ","MAREA":" ","LANE":"７２６巷","ALLEY":" ","HOUSE_NO":"１２６號","E_COORD97":171851.12,"N_COORD97":2542945.1800000002,"ADDRESS":"裕農路７２６巷１２６號","OBJECTID":385580},"geometry":{"x":171851.12000000104,"y":2542945.1800000016}},{"attributes":{"ID":385605,"DIS_CODE":0,"TOWNNAME":"東區","LI":"關聖里","LIN":"9鄰","STREET":"裕農路","SECT":" ","MAREA":" ","LANE":"７２６巷","ALLEY":" ","HOUSE_NO":"１２７號","E_COORD97":171851.47,"N_COORD97":2542929.7200000002,"ADDRESS":"裕農路７２６巷１２７號","OBJECTID":385581},"geometry":{"x":171851.47000000067,"y":2542929.7200000025}},{"attributes":{"ID":385606,"DIS_CODE":0,"TOWNNAME":"東區","LI":"關聖里","LIN":"9鄰","STREET":"裕農路","SECT":" ","MAREA":" ","LANE":"７２６巷","ALLEY":" ","HOUSE_NO":"１２８號","E_COORD97":171845.01000000001,"N_COORD97":2542945.2999999998,"ADDRESS":"裕農路７２６巷１２８號","OBJECTID":385582},"geometry":{"x":171845.00999999978,"y":2542945.3000000026}},{"attributes":{"ID":385607,"DIS_CODE":0,"TOWNNAME":"東區","LI":"關聖里","LIN":"9鄰","STREET":"裕農路","SECT":" ","MAREA":" ","LANE":"７２６巷","ALLEY":" ","HOUSE_NO":"１２９號","E_COORD97":171845.92999999999,"N_COORD97":2542929.8399999999,"ADDRESS":"裕農路７２６巷１２９號","OBJECTID":385583},"geometry":{"x":171845.9299999997,"y":2542929.839999998}},{"attributes":{"ID":385608,"DIS_CODE":0,"TOWNNAME":"東區","LI":"關聖里","LIN":"9鄰","STREET":"裕農路","SECT":" ","MAREA":" ","LANE":"７２６巷","ALLEY":" ","HOUSE_NO":"１３０號","E_COORD97":171838.32000000001,"N_COORD97":2542945.1800000002,"ADDRESS":"裕農路７２６巷１３０號","OBJECTID":385584},"geometry":{"x":171838.3200000003,"y":2542945.1800000016}},{"attributes":{"ID":385609,"DIS_CODE":0,"TOWNNAME":"東區","LI":"關聖里","LIN":"9鄰","STREET":"裕農路","SECT":" ","MAREA":" ","LANE":"７２６巷","ALLEY":" ","HOUSE_NO":"１３１號","E_COORD97":171839.13,"N_COORD97":2542929.96,"ADDRESS":"裕農路７２６巷１３１號","OBJECTID":385585},"geometry":{"x":171839.13000000082,"y":2542929.9600000009}},{"attributes":{"ID":385610,"DIS_CODE":0,"TOWNNAME":"東區","LI":"崇善里","LIN":"9鄰","STREET":"崇善五街","SECT":" ","MAREA":" ","LANE":"７巷","ALLEY":" ","HOUSE_NO":"２號","E_COORD97":171042.70999999999,"N_COORD97":2541611.5299999998,"ADDRESS":"崇善五街７巷２號","OBJECTID":385586},"geometry":{"x":171042.70999999903,"y":2541611.5299999993}},{"attributes":{"ID":385611,"DIS_CODE":0,"TOWNNAME":"東區","LI":"關聖里","LIN":"9鄰","STREET":"裕農路","SECT":" ","MAREA":" ","LANE":"７２６巷","ALLEY":" ","HOUSE_NO":"１３２號","E_COORD97":171831.28,"N_COORD97":2542945.0699999998,"ADDRESS":"裕農路７２６巷１３２號","OBJECTID":385587},"geometry":{"x":171831.28000000119,"y":2542945.0700000003}},{"attributes":{"ID":385612,"DIS_CODE":0,"TOWNNAME":"東區","LI":"關聖里","LIN":"9鄰","STREET":"裕農路","SECT":" ","MAREA":" ","LANE":"７２６巷","ALLEY":" ","HOUSE_NO":"１３３號","E_COORD97":171831.73999999999,"N_COORD97":2542930.1899999999,"ADDRESS":"裕農路７２６巷１３３號","OBJECTID":385588},"geometry":{"x":171831.74000000115,"y":2542930.1899999995}},{"attributes":{"ID":385613,"DIS_CODE":0,"TOWNNAME":"東區","LI":"關聖里","LIN":"9鄰","STREET":"裕農路","SECT":" ","MAREA":" ","LANE":"７２６巷","ALLEY":" ","HOUSE_NO":"１３５號","E_COORD97":171824.48000000001,"N_COORD97":2542930.0699999998,"ADDRESS":"裕農路７２６巷１３５號","OBJECTID":385589},"geometry":{"x":171824.48000000045,"y":2542930.0700000022}},{"attributes":{"ID":385614,"DIS_CODE":0,"TOWNNAME":"東區","LI":"關聖里","LIN":"9鄰","STREET":"裕農路","SECT":" ","MAREA":" ","LANE":"７２６巷","ALLEY":" ","HOUSE_NO":"１３６號","E_COORD97":171824.70999999999,"N_COORD97":2542944.7200000002,"ADDRESS":"裕農路７２６巷１３６號","OBJECTID":385590},"geometry":{"x":171824.71000000089,"y":2542944.7200000007}},{"attributes":{"ID":385615,"DIS_CODE":0,"TOWNNAME":"東區","LI":"關聖里","LIN":"9鄰","STREET":"裕農路","SECT":" ","MAREA":" ","LANE":"７２６巷","ALLEY":" ","HOUSE_NO":"１３７號","E_COORD97":171817.67000000001,"N_COORD97":2542929.7200000002,"ADDRESS":"裕農路７２６巷１３７號","OBJECTID":385591},"geometry":{"x":171817.66999999899,"y":2542929.7200000025}},{"attributes":{"ID":385616,"DIS_CODE":0,"TOWNNAME":"東區","LI":"關聖里","LIN":"9鄰","STREET":"裕農路","SECT":" ","MAREA":" ","LANE":"７２６巷","ALLEY":" ","HOUSE_NO":"１３８號","E_COORD97":171818.01999999999,"N_COORD97":2542944.3700000001,"ADDRESS":"裕農路７２６巷１３８號","OBJECTID":385592},"geometry":{"x":171818.01999999955,"y":2542944.370000001}},{"attributes":{"ID":385617,"DIS_CODE":0,"TOWNNAME":"東區","LI":"崇善里","LIN":"9鄰","STREET":"仁和路","SECT":" ","MAREA":" ","LANE":"７０巷","ALLEY":" ","HOUSE_NO":"１６號","E_COORD97":171066.69,"N_COORD97":2541797.3900000001,"ADDRESS":"仁和路７０巷１６號","OBJECTID":385593},"geometry":{"x":171066.69000000041,"y":2541797.3900000006}},{"attributes":{"ID":385618,"DIS_CODE":0,"TOWNNAME":"東區","LI":"崇信里","LIN":"9鄰","STREET":"崇信街","SECT":" ","MAREA":" ","LANE":"５１巷","ALLEY":" ","HOUSE_NO":"１２號","E_COORD97":170773.35000000001,"N_COORD97":2542453.25,"ADDRESS":"崇信街５１巷１２號","OBJECTID":385594},"geometry":{"x":170773.34999999963,"y":2542453.2500000019}},{"attributes":{"ID":385619,"DIS_CODE":0,"TOWNNAME":"東區","LI":"崇信里","LIN":"9鄰","STREET":"崇信街","SECT":" ","MAREA":" ","LANE":"５１巷","ALLEY":" ","HOUSE_NO":"１６號","E_COORD97":170777.01999999999,"N_COORD97":2542456.6600000001,"ADDRESS":"崇信街５１巷１６號","OBJECTID":385595},"geometry":{"x":170777.01999999955,"y":2542456.6600000001}},{"attributes":{"ID":385620,"DIS_CODE":0,"TOWNNAME":"東區","LI":"崇信里","LIN":"9鄰","STREET":"崇信街","SECT":" ","MAREA":" ","LANE":"５１巷","ALLEY":" ","HOUSE_NO":"１８號","E_COORD97":170781.29999999999,"N_COORD97":2542460.2400000002,"ADDRESS":"崇信街５１巷１８號","OBJECTID":385596},"geometry":{"x":170781.30000000075,"y":2542460.2400000021}},{"attributes":{"ID":385621,"DIS_CODE":0,"TOWNNAME":"東區","LI":"崇善里","LIN":"9鄰","STREET":"仁和路","SECT":" ","MAREA":" ","LANE":"８０巷","ALLEY":" ","HOUSE_NO":"１號","E_COORD97":171142.14999999999,"N_COORD97":2541696.5800000001,"ADDRESS":"仁和路８０巷１號","OBJECTID":385597},"geometry":{"x":171142.1500000013,"y":2541696.5800000001}},{"attributes":{"ID":385622,"DIS_CODE":0,"TOWNNAME":"東區","LI":"崇善里","LIN":"9鄰","STREET":"仁和路","SECT":" ","MAREA":" ","LANE":"８０巷","ALLEY":" ","HOUSE_NO":"２０號","E_COORD97":171105.17000000001,"N_COORD97":2541699.3199999998,"ADDRESS":"仁和路８０巷２０號","OBJECTID":385598},"geometry":{"x":171105.16999999993,"y":2541699.3200000003}},{"attributes":{"ID":385623,"DIS_CODE":0,"TOWNNAME":"東區","LI":"崇善里","LIN":"9鄰","STREET":"仁和路","SECT":" ","MAREA":" ","LANE":"８０巷","ALLEY":" ","HOUSE_NO":"２２號","E_COORD97":171100.09,"N_COORD97":2541697.8399999999,"ADDRESS":"仁和路８０巷２２號","OBJECTID":385599},"geometry":{"x":171100.09000000078,"y":2541697.8399999999}},{"attributes":{"ID":385624,"DIS_CODE":0,"TOWNNAME":"東區","LI":"崇善里","LIN":"9鄰","STREET":"仁和路","SECT":" ","MAREA":" ","LANE":"８０巷","ALLEY":" ","HOUSE_NO":"２號","E_COORD97":171135.62,"N_COORD97":2541711.4300000002,"ADDRESS":"仁和路８０巷２號","OBJECTID":385600},"geometry":{"x":171135.62000000104,"y":2541711.4299999997}}]}