{"displayFieldName":"TOWNNAME","fieldAliases":{"ID":"ID","DIS_CODE":"DIS_CODE","TOWNNAME":"TOWNNAME","LI":"LI","LIN":"LIN","STREET":"STREET","SECT":"SECT","MAREA":"MAREA","LANE":"LANE","ALLEY":"ALLEY","HOUSE_NO":"HOUSE_NO","E_COORD97":"E_COORD97","N_COORD97":"N_COORD97","ADDRESS":"ADDRESS","OBJECTID":"OBJECTID"},"geometryType":"esriGeometryPoint","spatialReference":{"wkid":102443,"latestWkid":3826},"fields":[{"name":"ID","type":"esriFieldTypeDouble","alias":"ID"},{"name":"DIS_CODE","type":"esriFieldTypeInteger","alias":"DIS_CODE"},{"name":"TOWNNAME","type":"esriFieldTypeString","alias":"TOWNNAME","length":8},{"name":"LI","type":"esriFieldTypeString","alias":"LI","length":8},{"name":"LIN","type":"esriFieldTypeString","alias":"LIN","length":12},{"name":"STREET","type":"esriFieldTypeString","alias":"STREET","length":20},{"name":"SECT","type":"esriFieldTypeString","alias":"SECT","length":8},{"name":"MAREA","type":"esriFieldTypeString","alias":"MAREA","length":12},{"name":"LANE","type":"esriFieldTypeString","alias":"LANE","length":10},{"name":"ALLEY","type":"esriFieldTypeString","alias":"ALLEY","length":10},{"name":"HOUSE_NO","type":"esriFieldTypeString","alias":"HOUSE_NO","length":20},{"name":"E_COORD97","type":"esriFieldTypeDouble","alias":"E_COORD97"},{"name":"N_COORD97","type":"esriFieldTypeDouble","alias":"N_COORD97"},{"name":"ADDRESS","type":"esriFieldTypeString","alias":"ADDRESS","length":50},{"name":"OBJECTID","type":"esriFieldTypeOID","alias":"OBJECTID"}],"features":[{"attributes":{"ID":432626,"DIS_CODE":0,"TOWNNAME":"安南區","LI":"海東里","LIN":"4鄰","STREET":"海中街","SECT":" ","MAREA":" ","LANE":"１３０巷","ALLEY":" ","HOUSE_NO":"４５號","E_COORD97":166482.12,"N_COORD97":2549181.77,"ADDRESS":"海中街１３０巷４５號","OBJECTID":432601},"geometry":{"x":166482.12000000104,"y":2549181.7699999996}},{"attributes":{"ID":432627,"DIS_CODE":0,"TOWNNAME":"安南區","LI":"長安里","LIN":"15鄰","STREET":"公學路","SECT":"二段","MAREA":" ","LANE":"１２３巷","ALLEY":" ","HOUSE_NO":"１４３號","E_COORD97":167958.88,"N_COORD97":2552476.5899999999,"ADDRESS":"公學路二段１２３巷１４３號","OBJECTID":432602},"geometry":{"x":167958.87999999989,"y":2552476.5900000017}},{"attributes":{"ID":432628,"DIS_CODE":0,"TOWNNAME":"安南區","LI":"長安里","LIN":"15鄰","STREET":"公學路","SECT":"二段","MAREA":" ","LANE":"１２３巷","ALLEY":" ","HOUSE_NO":"１４５號","E_COORD97":167962.14999999999,"N_COORD97":2552473.0899999999,"ADDRESS":"公學路二段１２３巷１４５號","OBJECTID":432603},"geometry":{"x":167962.1500000013,"y":2552473.0900000017}},{"attributes":{"ID":432629,"DIS_CODE":0,"TOWNNAME":"安南區","LI":"長安里","LIN":"15鄰","STREET":"公學路","SECT":"二段","MAREA":" ","LANE":"１２３巷","ALLEY":" ","HOUSE_NO":"１４７號","E_COORD97":167964.39000000001,"N_COORD97":2552469.7400000002,"ADDRESS":"公學路二段１２３巷１４７號","OBJECTID":432604},"geometry":{"x":167964.38999999873,"y":2552469.7400000021}},{"attributes":{"ID":432630,"DIS_CODE":0,"TOWNNAME":"安南區","LI":"長安里","LIN":"15鄰","STREET":"公學路","SECT":"二段","MAREA":" ","LANE":"１２３巷","ALLEY":" ","HOUSE_NO":"１５１號","E_COORD97":167971.69,"N_COORD97":2552464.5299999998,"ADDRESS":"公學路二段１２３巷１５１號","OBJECTID":432605},"geometry":{"x":167971.69000000227,"y":2552464.5299999993}},{"attributes":{"ID":432631,"DIS_CODE":0,"TOWNNAME":"安南區","LI":"理想里","LIN":"1鄰","STREET":"同安路","SECT":" ","MAREA":" ","LANE":"３６巷","ALLEY":" ","HOUSE_NO":"４７號","E_COORD97":166909.76000000001,"N_COORD97":2548758.5299999998,"ADDRESS":"同安路３６巷４７號","OBJECTID":432606},"geometry":{"x":166909.76000000071,"y":2548758.5299999993}},{"attributes":{"ID":432632,"DIS_CODE":0,"TOWNNAME":"安南區","LI":"淵中里","LIN":"12鄰","STREET":"安中路","SECT":"四段","MAREA":" ","LANE":"２９０巷","ALLEY":" ","HOUSE_NO":"３３６號","E_COORD97":165243.92999999999,"N_COORD97":2550334.5800000001,"ADDRESS":"安中路四段２９０巷３３６號","OBJECTID":432607},"geometry":{"x":165243.93000000063,"y":2550334.5800000019}},{"attributes":{"ID":432633,"DIS_CODE":0,"TOWNNAME":"安南區","LI":"淵中里","LIN":"12鄰","STREET":"安中路","SECT":"四段","MAREA":" ","LANE":"２９０巷","ALLEY":" ","HOUSE_NO":"３３８號","E_COORD97":165253.07000000001,"N_COORD97":2550340.3799999999,"ADDRESS":"安中路四段２９０巷３３８號","OBJECTID":432608},"geometry":{"x":165253.0700000003,"y":2550340.3800000027}},{"attributes":{"ID":432634,"DIS_CODE":0,"TOWNNAME":"安南區","LI":"理想里","LIN":"1鄰","STREET":"同安路","SECT":" ","MAREA":" ","LANE":"３６巷","ALLEY":" ","HOUSE_NO":"２９號","E_COORD97":166891.35999999999,"N_COORD97":2548790.6899999999,"ADDRESS":"同安路３６巷２９號","OBJECTID":432609},"geometry":{"x":166891.36000000127,"y":2548790.6900000013}},{"attributes":{"ID":432635,"DIS_CODE":0,"TOWNNAME":"安南區","LI":"理想里","LIN":"1鄰","STREET":"同安路","SECT":" ","MAREA":" ","LANE":"３６巷","ALLEY":" ","HOUSE_NO":"３７號","E_COORD97":166898.73999999999,"N_COORD97":2548777.1400000001,"ADDRESS":"同安路３６巷３７號","OBJECTID":432610},"geometry":{"x":166898.74000000115,"y":2548777.1400000043}},{"attributes":{"ID":432636,"DIS_CODE":0,"TOWNNAME":"安南區","LI":"理想里","LIN":"1鄰","STREET":"同安路","SECT":" ","MAREA":" ","LANE":"３６巷","ALLEY":" ","HOUSE_NO":"１１號","E_COORD97":166874.17000000001,"N_COORD97":2548824.1800000002,"ADDRESS":"同安路３６巷１１號","OBJECTID":432611},"geometry":{"x":166874.16999999993,"y":2548824.1800000016}},{"attributes":{"ID":432637,"DIS_CODE":0,"TOWNNAME":"安南區","LI":"理想里","LIN":"1鄰","STREET":"同安路","SECT":" ","MAREA":" ","LANE":"３６巷","ALLEY":" ","HOUSE_NO":"１３號","E_COORD97":166874.91,"N_COORD97":2548820.1099999999,"ADDRESS":"同安路３６巷１３號","OBJECTID":432612},"geometry":{"x":166874.91000000201,"y":2548820.1099999975}},{"attributes":{"ID":432638,"DIS_CODE":0,"TOWNNAME":"安南區","LI":"安東里","LIN":"12鄰","STREET":"安和路","SECT":"一段","MAREA":" ","LANE":"２８８巷","ALLEY":" ","HOUSE_NO":"１２６號","E_COORD97":169589.91,"N_COORD97":2548190.27,"ADDRESS":"安和路一段２８８巷１２６號","OBJECTID":432613},"geometry":{"x":169589.91000000015,"y":2548190.2700000014}},{"attributes":{"ID":432639,"DIS_CODE":0,"TOWNNAME":"安南區","LI":"安東里","LIN":"12鄰","STREET":"安和路","SECT":"一段","MAREA":" ","LANE":"２８８巷","ALLEY":" ","HOUSE_NO":"１２８號","E_COORD97":169595.5,"N_COORD97":2548191.8100000001,"ADDRESS":"安和路一段２８８巷１２８號","OBJECTID":432614},"geometry":{"x":169595.50000000093,"y":2548191.8100000005}},{"attributes":{"ID":432640,"DIS_CODE":0,"TOWNNAME":"安南區","LI":"安東里","LIN":"12鄰","STREET":"安和路","SECT":"一段","MAREA":" ","LANE":"２８８巷","ALLEY":" ","HOUSE_NO":"１３０號","E_COORD97":169600.10999999999,"N_COORD97":2548192.6499999999,"ADDRESS":"安和路一段２８８巷１３０號","OBJECTID":432615},"geometry":{"x":169600.11000000127,"y":2548192.6500000004}},{"attributes":{"ID":432641,"DIS_CODE":0,"TOWNNAME":"安南區","LI":"城南里","LIN":"16鄰","STREET":"青砂街","SECT":"一段","MAREA":" ","LANE":"６５巷","ALLEY":" ","HOUSE_NO":"６２號之３","E_COORD97":160441.84,"N_COORD97":2551634.1499999999,"ADDRESS":"青砂街一段６５巷６２號之３","OBJECTID":432616},"geometry":{"x":160441.84000000171,"y":2551634.1500000004}},{"attributes":{"ID":432642,"DIS_CODE":0,"TOWNNAME":"安南區","LI":"海東里","LIN":"2鄰","STREET":"海環街","SECT":" ","MAREA":" ","LANE":"５９６巷","ALLEY":" ","HOUSE_NO":"１０號","E_COORD97":166427.20000000001,"N_COORD97":2549235.3199999998,"ADDRESS":"海環街５９６巷１０號","OBJECTID":432617},"geometry":{"x":166427.20000000205,"y":2549235.3200000003}},{"attributes":{"ID":432643,"DIS_CODE":0,"TOWNNAME":"安南區","LI":"海東里","LIN":"2鄰","STREET":"海環街","SECT":" ","MAREA":" ","LANE":"５９６巷","ALLEY":" ","HOUSE_NO":"１２號","E_COORD97":166422.87,"N_COORD97":2549234.9500000002,"ADDRESS":"海環街５９６巷１２號","OBJECTID":432618},"geometry":{"x":166422.87000000104,"y":2549234.950000003}},{"attributes":{"ID":432644,"DIS_CODE":0,"TOWNNAME":"安南區","LI":"海東里","LIN":"2鄰","STREET":"海環街","SECT":" ","MAREA":" ","LANE":"５９６巷","ALLEY":" ","HOUSE_NO":"１８號","E_COORD97":166441.92000000001,"N_COORD97":2549239.73,"ADDRESS":"海環街５９６巷１８號","OBJECTID":432619},"geometry":{"x":166441.91999999993,"y":2549239.7300000004}},{"attributes":{"ID":432645,"DIS_CODE":0,"TOWNNAME":"安南區","LI":"理想里","LIN":"2鄰","STREET":"同安路","SECT":" ","MAREA":" ","LANE":"３６巷","ALLEY":" ","HOUSE_NO":"５９號","E_COORD97":166918.70000000001,"N_COORD97":2548735.8900000001,"ADDRESS":"同安路３６巷５９號","OBJECTID":432620},"geometry":{"x":166918.70000000205,"y":2548735.8900000025}},{"attributes":{"ID":432646,"DIS_CODE":0,"TOWNNAME":"安南區","LI":"總頭里","LIN":"7鄰","STREET":"長溪路","SECT":"二段","MAREA":" ","LANE":"５９８巷","ALLEY":" ","HOUSE_NO":"３０號","E_COORD97":168340.78,"N_COORD97":2550709.8500000001,"ADDRESS":"長溪路二段５９８巷３０號","OBJECTID":432621},"geometry":{"x":168340.78000000119,"y":2550709.8499999996}},{"attributes":{"ID":432647,"DIS_CODE":0,"TOWNNAME":"安南區","LI":"城東里","LIN":"4鄰","STREET":"城北路","SECT":" ","MAREA":" ","LANE":"１７２巷","ALLEY":" ","HOUSE_NO":"５３號","E_COORD97":161118.67000000001,"N_COORD97":2551759.9199999999,"ADDRESS":"城北路１７２巷５３號","OBJECTID":432622},"geometry":{"x":161118.66999999993,"y":2551759.9199999999}},{"attributes":{"ID":432648,"DIS_CODE":0,"TOWNNAME":"安南區","LI":"城東里","LIN":"4鄰","STREET":"城北路","SECT":" ","MAREA":" ","LANE":"１７２巷","ALLEY":" ","HOUSE_NO":"５５號","E_COORD97":161122.92000000001,"N_COORD97":2551761.6299999999,"ADDRESS":"城北路１７２巷５５號","OBJECTID":432623},"geometry":{"x":161122.92000000179,"y":2551761.629999999}},{"attributes":{"ID":432649,"DIS_CODE":0,"TOWNNAME":"安南區","LI":"城東里","LIN":"4鄰","STREET":"城北路","SECT":" ","MAREA":" ","LANE":"１７２巷","ALLEY":" ","HOUSE_NO":"５７號","E_COORD97":161129.48999999999,"N_COORD97":2551763.5499999998,"ADDRESS":"城北路１７２巷５７號","OBJECTID":432624},"geometry":{"x":161129.49000000209,"y":2551763.5500000007}},{"attributes":{"ID":432650,"DIS_CODE":0,"TOWNNAME":"安南區","LI":"城東里","LIN":"4鄰","STREET":"城北路","SECT":" ","MAREA":" ","LANE":"１７２巷","ALLEY":" ","HOUSE_NO":"５９號","E_COORD97":161134.34,"N_COORD97":2551765.27,"ADDRESS":"城北路１７２巷５９號","OBJECTID":432625},"geometry":{"x":161134.33999999985,"y":2551765.2699999996}},{"attributes":{"ID":432651,"DIS_CODE":0,"TOWNNAME":"安南區","LI":"淵東里","LIN":"10鄰","STREET":"安中路","SECT":"三段","MAREA":" ","LANE":"４００巷","ALLEY":" ","HOUSE_NO":"１２６號","E_COORD97":165507.04000000001,"N_COORD97":2550171.5699999998,"ADDRESS":"安中路三段４００巷１２６號","OBJECTID":432626},"geometry":{"x":165507.04000000004,"y":2550171.5700000022}},{"attributes":{"ID":432652,"DIS_CODE":0,"TOWNNAME":"安南區","LI":"州南里","LIN":"10鄰","STREET":"安和路","SECT":"四段","MAREA":" ","LANE":"５８９巷","ALLEY":" ","HOUSE_NO":"１１號之１","E_COORD97":169882.01999999999,"N_COORD97":2551459.5499999998,"ADDRESS":"安和路四段５８９巷１１號之１","OBJECTID":432627},"geometry":{"x":169882.01999999955,"y":2551459.5499999989}},{"attributes":{"ID":432653,"DIS_CODE":0,"TOWNNAME":"安南區","LI":"淵中里","LIN":"3鄰","STREET":"安中路","SECT":"四段","MAREA":" ","LANE":"１１９巷","ALLEY":" ","HOUSE_NO":"２９號之１","E_COORD97":165063.54999999999,"N_COORD97":2549854.77,"ADDRESS":"安中路四段１１９巷２９號之１","OBJECTID":432628},"geometry":{"x":165063.55000000075,"y":2549854.7700000014}},{"attributes":{"ID":432654,"DIS_CODE":0,"TOWNNAME":"安南區","LI":"淵中里","LIN":"3鄰","STREET":"安中路","SECT":"四段","MAREA":" ","LANE":"１１９巷","ALLEY":" ","HOUSE_NO":"２９號之４","E_COORD97":165084.64999999999,"N_COORD97":2549870.1099999999,"ADDRESS":"安中路四段１１９巷２９號之４","OBJECTID":432629},"geometry":{"x":165084.65000000037,"y":2549870.1099999994}},{"attributes":{"ID":432655,"DIS_CODE":0,"TOWNNAME":"安南區","LI":"淵中里","LIN":"3鄰","STREET":"安中路","SECT":"四段","MAREA":" ","LANE":"１１９巷","ALLEY":" ","HOUSE_NO":"２９號之２","E_COORD97":165066.14999999999,"N_COORD97":2549852.0699999998,"ADDRESS":"安中路四段１１９巷２９號之２","OBJECTID":432630},"geometry":{"x":165066.15000000037,"y":2549852.070000004}},{"attributes":{"ID":432656,"DIS_CODE":0,"TOWNNAME":"安南區","LI":"淵中里","LIN":"3鄰","STREET":"安中路","SECT":"四段","MAREA":" ","LANE":"１１９巷","ALLEY":" ","HOUSE_NO":"２９號之５","E_COORD97":165093.01000000001,"N_COORD97":2549876.9300000002,"ADDRESS":"安中路四段１１９巷２９號之５","OBJECTID":432631},"geometry":{"x":165093.00999999978,"y":2549876.9300000016}},{"attributes":{"ID":432657,"DIS_CODE":0,"TOWNNAME":"安南區","LI":"淵中里","LIN":"3鄰","STREET":"安中路","SECT":"四段","MAREA":" ","LANE":"１１９巷","ALLEY":" ","HOUSE_NO":"２９號之６","E_COORD97":165101.64999999999,"N_COORD97":2549882.52,"ADDRESS":"安中路四段１１９巷２９號之６","OBJECTID":432632},"geometry":{"x":165101.65000000037,"y":2549882.5200000014}},{"attributes":{"ID":432658,"DIS_CODE":0,"TOWNNAME":"安南區","LI":"公\u25A0里","LIN":"4鄰","STREET":"安興街","SECT":" ","MAREA":" ","LANE":"４３巷","ALLEY":" ","HOUSE_NO":"５５號","E_COORD97":164264.31,"N_COORD97":2552144.0600000001,"ADDRESS":"安興街４３巷５５號","OBJECTID":432633},"geometry":{"x":164264.31000000145,"y":2552144.0600000005}},{"attributes":{"ID":432659,"DIS_CODE":0,"TOWNNAME":"安南區","LI":"公\u25A0里","LIN":"4鄰","STREET":"安興街","SECT":" ","MAREA":" ","LANE":"４３巷","ALLEY":" ","HOUSE_NO":"５６號","E_COORD97":164253.23999999999,"N_COORD97":2552168.3500000001,"ADDRESS":"安興街４３巷５６號","OBJECTID":432634},"geometry":{"x":164253.24000000022,"y":2552168.3499999978}},{"attributes":{"ID":432660,"DIS_CODE":0,"TOWNNAME":"安南區","LI":"公\u25A0里","LIN":"4鄰","STREET":"安興街","SECT":" ","MAREA":" ","LANE":"４３巷","ALLEY":" ","HOUSE_NO":"５７號","E_COORD97":164260.07999999999,"N_COORD97":2552141.2400000002,"ADDRESS":"安興街４３巷５７號","OBJECTID":432635},"geometry":{"x":164260.08000000101,"y":2552141.2400000002}},{"attributes":{"ID":432661,"DIS_CODE":0,"TOWNNAME":"安南區","LI":"公\u25A0里","LIN":"4鄰","STREET":"安興街","SECT":" ","MAREA":" ","LANE":"４３巷","ALLEY":" ","HOUSE_NO":"５８號","E_COORD97":164248.81,"N_COORD97":2552166.4900000002,"ADDRESS":"安興街４３巷５８號","OBJECTID":432636},"geometry":{"x":164248.80999999959,"y":2552166.4900000021}},{"attributes":{"ID":432662,"DIS_CODE":0,"TOWNNAME":"安南區","LI":"公\u25A0里","LIN":"4鄰","STREET":"安興街","SECT":" ","MAREA":" ","LANE":"４３巷","ALLEY":" ","HOUSE_NO":"５９號","E_COORD97":164256.31,"N_COORD97":2552138.8900000001,"ADDRESS":"安興街４３巷５９號","OBJECTID":432637},"geometry":{"x":164256.31000000052,"y":2552138.8900000043}},{"attributes":{"ID":432663,"DIS_CODE":0,"TOWNNAME":"安南區","LI":"公\u25A0里","LIN":"4鄰","STREET":"安興街","SECT":" ","MAREA":" ","LANE":"４３巷","ALLEY":" ","HOUSE_NO":"６０號","E_COORD97":164244.53,"N_COORD97":2552164.5499999998,"ADDRESS":"安興街４３巷６０號","OBJECTID":432638},"geometry":{"x":164244.53000000026,"y":2552164.5500000007}},{"attributes":{"ID":432664,"DIS_CODE":0,"TOWNNAME":"安南區","LI":"公\u25A0里","LIN":"4鄰","STREET":"安興街","SECT":" ","MAREA":" ","LANE":"４３巷","ALLEY":" ","HOUSE_NO":"６２號","E_COORD97":164242.20999999999,"N_COORD97":2552160.9700000002,"ADDRESS":"安興街４３巷６２號","OBJECTID":432639},"geometry":{"x":164242.21000000089,"y":2552160.9700000007}},{"attributes":{"ID":432665,"DIS_CODE":0,"TOWNNAME":"安南區","LI":"安東里","LIN":"17鄰","STREET":"安和路","SECT":"一段","MAREA":" ","LANE":"４７８巷","ALLEY":" ","HOUSE_NO":"２８號","E_COORD97":169498.73000000001,"N_COORD97":2548391.5,"ADDRESS":"安和路一段４７８巷２８號","OBJECTID":432640},"geometry":{"x":169498.72999999952,"y":2548391.5000000019}},{"attributes":{"ID":432666,"DIS_CODE":0,"TOWNNAME":"安南區","LI":"州北里","LIN":"9鄰","STREET":"北安路","SECT":"四段","MAREA":" ","LANE":"４２０巷","ALLEY":" ","HOUSE_NO":"１５號","E_COORD97":169565.26999999999,"N_COORD97":2551627.1099999999,"ADDRESS":"北安路四段４２０巷１５號","OBJECTID":432641},"geometry":{"x":169565.26999999955,"y":2551627.1099999994}},{"attributes":{"ID":432667,"DIS_CODE":0,"TOWNNAME":"安南區","LI":"州北里","LIN":"9鄰","STREET":"北安路","SECT":"四段","MAREA":" ","LANE":"４２０巷","ALLEY":" ","HOUSE_NO":"１７號","E_COORD97":169570.04999999999,"N_COORD97":2551626.7200000002,"ADDRESS":"北安路四段４２０巷１７號","OBJECTID":432642},"geometry":{"x":169570.04999999981,"y":2551626.7200000007}},{"attributes":{"ID":432668,"DIS_CODE":0,"TOWNNAME":"安南區","LI":"州北里","LIN":"9鄰","STREET":"北安路","SECT":"四段","MAREA":" ","LANE":"４２０巷","ALLEY":" ","HOUSE_NO":"１９號","E_COORD97":169575.34,"N_COORD97":2551627.1099999999,"ADDRESS":"北安路四段４２０巷１９號","OBJECTID":432643},"geometry":{"x":169575.33999999892,"y":2551627.1099999994}},{"attributes":{"ID":432669,"DIS_CODE":0,"TOWNNAME":"安南區","LI":"城北里","LIN":"8鄰","STREET":"安中路","SECT":"六段","MAREA":" ","LANE":"１巷","ALLEY":" ","HOUSE_NO":"２５６號之１０","E_COORD97":161286.91,"N_COORD97":2550618.7599999998,"ADDRESS":"安中路六段１巷２５６號之１０","OBJECTID":432644},"geometry":{"x":161286.91000000015,"y":2550618.7599999998}},{"attributes":{"ID":432670,"DIS_CODE":0,"TOWNNAME":"安南區","LI":"海東里","LIN":"5鄰","STREET":"海中街","SECT":" ","MAREA":" ","LANE":"１３０巷","ALLEY":" ","HOUSE_NO":"７２號","E_COORD97":166549.39999999999,"N_COORD97":2549180.1299999999,"ADDRESS":"海中街１３０巷７２號","OBJECTID":432645},"geometry":{"x":166549.40000000037,"y":2549180.1300000008}},{"attributes":{"ID":432671,"DIS_CODE":0,"TOWNNAME":"安南區","LI":"公親里","LIN":"9鄰","STREET":"公學路","SECT":"一段","MAREA":" ","LANE":"１７３巷","ALLEY":" ","HOUSE_NO":"４１號之１","E_COORD97":168002.42000000001,"N_COORD97":2552958.21,"ADDRESS":"公學路一段１７３巷４１號之１","OBJECTID":432646},"geometry":{"x":168002.42000000086,"y":2552958.2100000028}},{"attributes":{"ID":432672,"DIS_CODE":0,"TOWNNAME":"安南區","LI":"\u25A0南里","LIN":"20鄰","STREET":"環福街","SECT":" ","MAREA":" ","LANE":"１３２巷","ALLEY":" ","HOUSE_NO":"３０號","E_COORD97":170468.69,"N_COORD97":2552477.6499999999,"ADDRESS":"環福街１３２巷３０號","OBJECTID":432647},"geometry":{"x":170468.69000000227,"y":2552477.6500000004}},{"attributes":{"ID":432673,"DIS_CODE":0,"TOWNNAME":"安南區","LI":"\u25A0南里","LIN":"20鄰","STREET":"環福街","SECT":" ","MAREA":" ","LANE":"１３２巷","ALLEY":" ","HOUSE_NO":"３２號","E_COORD97":170471.13,"N_COORD97":2552482.3900000001,"ADDRESS":"環福街１３２巷３２號","OBJECTID":432648},"geometry":{"x":170471.13000000082,"y":2552482.3900000025}},{"attributes":{"ID":432674,"DIS_CODE":0,"TOWNNAME":"佳里區","LI":"鎮山里","LIN":"14鄰","STREET":"安南路","SECT":" ","MAREA":" ","LANE":"２巷","ALLEY":" ","HOUSE_NO":"６號","E_COORD97":166000.82000000001,"N_COORD97":2561405.3100000001,"ADDRESS":"安南路２巷６號","OBJECTID":432649},"geometry":{"x":166000.81999999937,"y":2561405.3100000042}},{"attributes":{"ID":432675,"DIS_CODE":0,"TOWNNAME":"安南區","LI":"\u25A0南里","LIN":"20鄰","STREET":"環福街","SECT":" ","MAREA":" ","LANE":"１３２巷","ALLEY":" ","HOUSE_NO":"３４號","E_COORD97":170471.56,"N_COORD97":2552486.9700000002,"ADDRESS":"環福街１３２巷３４號","OBJECTID":432650},"geometry":{"x":170471.55999999959,"y":2552486.9700000007}},{"attributes":{"ID":432676,"DIS_CODE":0,"TOWNNAME":"安南區","LI":"\u25A0南里","LIN":"20鄰","STREET":"環福街","SECT":" ","MAREA":" ","LANE":"１３２巷","ALLEY":" ","HOUSE_NO":"３６號","E_COORD97":170474.14999999999,"N_COORD97":2552490.8399999999,"ADDRESS":"環福街１３２巷３６號","OBJECTID":432651},"geometry":{"x":170474.15000000224,"y":2552490.8400000036}},{"attributes":{"ID":432677,"DIS_CODE":0,"TOWNNAME":"安南區","LI":"長安里","LIN":"14鄰","STREET":"長溪路","SECT":"三段","MAREA":" ","LANE":"３８０巷","ALLEY":" ","HOUSE_NO":"８９號","E_COORD97":167939.25,"N_COORD97":2552176.0499999998,"ADDRESS":"長溪路三段３８０巷８９號","OBJECTID":432652},"geometry":{"x":167939.25000000093,"y":2552176.0500000026}},{"attributes":{"ID":432678,"DIS_CODE":0,"TOWNNAME":"安南區","LI":"長安里","LIN":"14鄰","STREET":"長溪路","SECT":"三段","MAREA":" ","LANE":"３８０巷","ALLEY":" ","HOUSE_NO":"９１號","E_COORD97":167941.76000000001,"N_COORD97":2552172.8500000001,"ADDRESS":"長溪路三段３８０巷９１號","OBJECTID":432653},"geometry":{"x":167941.76000000164,"y":2552172.8500000015}},{"attributes":{"ID":432679,"DIS_CODE":0,"TOWNNAME":"安南區","LI":"長安里","LIN":"14鄰","STREET":"長溪路","SECT":"三段","MAREA":" ","LANE":"３８０巷","ALLEY":" ","HOUSE_NO":"９３號","E_COORD97":167945.26000000001,"N_COORD97":2552170.3599999999,"ADDRESS":"長溪路三段３８０巷９３號","OBJECTID":432654},"geometry":{"x":167945.26000000164,"y":2552170.3599999994}},{"attributes":{"ID":432680,"DIS_CODE":0,"TOWNNAME":"安南區","LI":"長安里","LIN":"4鄰","STREET":"長溪路","SECT":"三段","MAREA":" ","LANE":"４０５巷","ALLEY":" ","HOUSE_NO":"１２２號","E_COORD97":167432.45999999999,"N_COORD97":2551919.9199999999,"ADDRESS":"長溪路三段４０５巷１２２號","OBJECTID":432655},"geometry":{"x":167432.46000000089,"y":2551919.9199999999}},{"attributes":{"ID":432681,"DIS_CODE":0,"TOWNNAME":"安南區","LI":"長安里","LIN":"4鄰","STREET":"長溪路","SECT":"三段","MAREA":" ","LANE":"４０５巷","ALLEY":" ","HOUSE_NO":"１１２號","E_COORD97":167447.14999999999,"N_COORD97":2551902.3999999999,"ADDRESS":"長溪路三段４０５巷１１２號","OBJECTID":432656},"geometry":{"x":167447.1500000013,"y":2551902.4000000022}},{"attributes":{"ID":432682,"DIS_CODE":0,"TOWNNAME":"安南區","LI":"長安里","LIN":"4鄰","STREET":"長溪路","SECT":"三段","MAREA":" ","LANE":"４０５巷","ALLEY":" ","HOUSE_NO":"１１４號","E_COORD97":167444.56,"N_COORD97":2551905.3999999999,"ADDRESS":"長溪路三段４０５巷１１４號","OBJECTID":432657},"geometry":{"x":167444.56000000145,"y":2551905.4000000022}},{"attributes":{"ID":432683,"DIS_CODE":0,"TOWNNAME":"安南區","LI":"長安里","LIN":"4鄰","STREET":"長溪路","SECT":"三段","MAREA":" ","LANE":"４０５巷","ALLEY":" ","HOUSE_NO":"１１８號","E_COORD97":167438.60999999999,"N_COORD97":2551912.4100000001,"ADDRESS":"長溪路三段４０５巷１１８號","OBJECTID":432658},"geometry":{"x":167438.61000000127,"y":2551912.410000002}},{"attributes":{"ID":432684,"DIS_CODE":0,"TOWNNAME":"安南區","LI":"長安里","LIN":"4鄰","STREET":"長溪路","SECT":"三段","MAREA":" ","LANE":"４０５巷","ALLEY":" ","HOUSE_NO":"１２０號","E_COORD97":167436.23999999999,"N_COORD97":2551916.6099999999,"ADDRESS":"長溪路三段４０５巷１２０號","OBJECTID":432659},"geometry":{"x":167436.24000000115,"y":2551916.6100000013}},{"attributes":{"ID":432685,"DIS_CODE":0,"TOWNNAME":"安南區","LI":"長安里","LIN":"4鄰","STREET":"長溪路","SECT":"三段","MAREA":" ","LANE":"４０５巷","ALLEY":" ","HOUSE_NO":"１２４號","E_COORD97":167428.89999999999,"N_COORD97":2551924.21,"ADDRESS":"長溪路三段４０５巷１２４號","OBJECTID":432660},"geometry":{"x":167428.90000000037,"y":2551924.2100000028}},{"attributes":{"ID":432686,"DIS_CODE":0,"TOWNNAME":"安南區","LI":"長安里","LIN":"4鄰","STREET":"長溪路","SECT":"三段","MAREA":" ","LANE":"４０５巷","ALLEY":" ","HOUSE_NO":"１２６號","E_COORD97":167425.56,"N_COORD97":2551929.6000000001,"ADDRESS":"長溪路三段４０５巷１２６號","OBJECTID":432661},"geometry":{"x":167425.55999999959,"y":2551929.6000000034}},{"attributes":{"ID":432687,"DIS_CODE":0,"TOWNNAME":"安南區","LI":"安東里","LIN":"4鄰","STREET":"安和路","SECT":"一段","MAREA":" ","LANE":"２８８巷","ALLEY":" ","HOUSE_NO":"１１７號","E_COORD97":169602.82000000001,"N_COORD97":2548217.8900000001,"ADDRESS":"安和路一段２８８巷１１７號","OBJECTID":432662},"geometry":{"x":169602.8200000003,"y":2548217.8900000006}},{"attributes":{"ID":432688,"DIS_CODE":0,"TOWNNAME":"安南區","LI":"海東里","LIN":"8鄰","STREET":"海佃路","SECT":"二段","MAREA":" ","LANE":"４８３巷","ALLEY":" ","HOUSE_NO":"３４號","E_COORD97":166596.98000000001,"N_COORD97":2549113.7999999998,"ADDRESS":"海佃路二段４８３巷３４號","OBJECTID":432663},"geometry":{"x":166596.98000000138,"y":2549113.8000000007}},{"attributes":{"ID":432689,"DIS_CODE":0,"TOWNNAME":"安南區","LI":"海東里","LIN":"8鄰","STREET":"海佃路","SECT":"二段","MAREA":" ","LANE":"４８３巷","ALLEY":" ","HOUSE_NO":"３０號","E_COORD97":166604.89999999999,"N_COORD97":2549117.7599999998,"ADDRESS":"海佃路二段４８３巷３０號","OBJECTID":432664},"geometry":{"x":166604.90000000037,"y":2549117.7599999979}},{"attributes":{"ID":432690,"DIS_CODE":0,"TOWNNAME":"安南區","LI":"海東里","LIN":"8鄰","STREET":"海佃路","SECT":"二段","MAREA":" ","LANE":"４８３巷","ALLEY":" ","HOUSE_NO":"３２號","E_COORD97":166600.94,"N_COORD97":2549116.29,"ADDRESS":"海佃路二段４８３巷３２號","OBJECTID":432665},"geometry":{"x":166600.94000000134,"y":2549116.2899999991}},{"attributes":{"ID":432691,"DIS_CODE":0,"TOWNNAME":"安南區","LI":"海東里","LIN":"8鄰","STREET":"海佃路","SECT":"二段","MAREA":" ","LANE":"５０９巷","ALLEY":" ","HOUSE_NO":"３７號","E_COORD97":166592.97,"N_COORD97":2549136.6099999999,"ADDRESS":"海佃路二段５０９巷３７號","OBJECTID":432666},"geometry":{"x":166592.97000000067,"y":2549136.6100000013}},{"attributes":{"ID":432692,"DIS_CODE":0,"TOWNNAME":"安南區","LI":"海東里","LIN":"8鄰","STREET":"海佃路","SECT":"二段","MAREA":" ","LANE":"５０９巷","ALLEY":" ","HOUSE_NO":"３５號","E_COORD97":166596.88,"N_COORD97":2549139.5099999998,"ADDRESS":"海佃路二段５０９巷３５號","OBJECTID":432667},"geometry":{"x":166596.88000000175,"y":2549139.5099999998}},{"attributes":{"ID":432693,"DIS_CODE":0,"TOWNNAME":"安南區","LI":"海東里","LIN":"8鄰","STREET":"海佃路","SECT":"二段","MAREA":" ","LANE":"５０９巷","ALLEY":" ","HOUSE_NO":"３９號","E_COORD97":166589.10000000001,"N_COORD97":2549135.5099999998,"ADDRESS":"海佃路二段５０９巷３９號","OBJECTID":432668},"geometry":{"x":166589.09999999963,"y":2549135.5099999998}},{"attributes":{"ID":432694,"DIS_CODE":0,"TOWNNAME":"安南區","LI":"城北里","LIN":"1鄰","STREET":"安中路","SECT":"六段","MAREA":" ","LANE":"５７８巷","ALLEY":" ","HOUSE_NO":"１９號之１","E_COORD97":160872.79999999999,"N_COORD97":2551457.7799999998,"ADDRESS":"安中路六段５７８巷１９號之１","OBJECTID":432669},"geometry":{"x":160872.80000000075,"y":2551457.7800000012}},{"attributes":{"ID":432695,"DIS_CODE":0,"TOWNNAME":"安南區","LI":"城西里","LIN":"4鄰","STREET":"城西街","SECT":"三段","MAREA":" ","LANE":"７６５巷","ALLEY":" ","HOUSE_NO":"２號之１６","E_COORD97":156534.87,"N_COORD97":2550720.5800000001,"ADDRESS":"城西街三段７６５巷２號之１６","OBJECTID":432670},"geometry":{"x":156534.87000000104,"y":2550720.5800000019}},{"attributes":{"ID":432696,"DIS_CODE":0,"TOWNNAME":"東區","LI":"崇文里","LIN":"31鄰","STREET":"生產路","SECT":" ","MAREA":" ","LANE":"２９７巷","ALLEY":" ","HOUSE_NO":"１２號","E_COORD97":170997.72,"N_COORD97":2540661.6299999999,"ADDRESS":"生產路２９７巷１２號","OBJECTID":432671},"geometry":{"x":170997.71999999974,"y":2540661.629999999}},{"attributes":{"ID":432697,"DIS_CODE":0,"TOWNNAME":"東區","LI":"崇文里","LIN":"31鄰","STREET":"生產路","SECT":" ","MAREA":" ","LANE":"２９７巷","ALLEY":" ","HOUSE_NO":"１４號","E_COORD97":170997.72,"N_COORD97":2540665.9100000001,"ADDRESS":"生產路２９７巷１４號","OBJECTID":432672},"geometry":{"x":170997.71999999974,"y":2540665.910000002}},{"attributes":{"ID":432698,"DIS_CODE":0,"TOWNNAME":"東區","LI":"崇文里","LIN":"31鄰","STREET":"生產路","SECT":" ","MAREA":" ","LANE":"２９７巷","ALLEY":" ","HOUSE_NO":"１６號","E_COORD97":170998.22,"N_COORD97":2540670.7799999998,"ADDRESS":"生產路２９７巷１６號","OBJECTID":432673},"geometry":{"x":170998.21999999974,"y":2540670.7799999993}},{"attributes":{"ID":432699,"DIS_CODE":0,"TOWNNAME":"東區","LI":"崇文里","LIN":"31鄰","STREET":"生產路","SECT":" ","MAREA":" ","LANE":"２９７巷","ALLEY":" ","HOUSE_NO":"１８號","E_COORD97":170998.42000000001,"N_COORD97":2540674.5600000001,"ADDRESS":"生產路２９７巷１８號","OBJECTID":432674},"geometry":{"x":170998.41999999993,"y":2540674.5599999987}},{"attributes":{"ID":432700,"DIS_CODE":0,"TOWNNAME":"東區","LI":"崇明里","LIN":"4鄰","STREET":"大同路","SECT":"二段","MAREA":" ","LANE":"４０３巷","ALLEY":" ","HOUSE_NO":"５８號","E_COORD97":169666.98000000001,"N_COORD97":2541390.3199999998,"ADDRESS":"大同路二段４０３巷５８號","OBJECTID":432675},"geometry":{"x":169666.98000000138,"y":2541390.3200000003}},{"attributes":{"ID":432701,"DIS_CODE":0,"TOWNNAME":"東區","LI":"崇明里","LIN":"4鄰","STREET":"大同路","SECT":"二段","MAREA":" ","LANE":"４０３巷","ALLEY":" ","HOUSE_NO":"６０號","E_COORD97":169669.57999999999,"N_COORD97":2541392.0499999998,"ADDRESS":"大同路二段４０３巷６０號","OBJECTID":432676},"geometry":{"x":169669.58000000101,"y":2541392.0500000026}},{"attributes":{"ID":432702,"DIS_CODE":0,"TOWNNAME":"東區","LI":"崇明里","LIN":"4鄰","STREET":"大同路","SECT":"二段","MAREA":" ","LANE":"４０３巷","ALLEY":" ","HOUSE_NO":"６２號","E_COORD97":169671.48999999999,"N_COORD97":2541393.7799999998,"ADDRESS":"大同路二段４０３巷６２號","OBJECTID":432677},"geometry":{"x":169671.49000000209,"y":2541393.7799999993}},{"attributes":{"ID":432703,"DIS_CODE":0,"TOWNNAME":"玉井區","LI":"玉田里","LIN":"40鄰","STREET":"中華路","SECT":" ","MAREA":" ","LANE":" ","ALLEY":" ","HOUSE_NO":"２０２號","E_COORD97":195284.95999999999,"N_COORD97":2557705.25,"ADDRESS":"中華路２０２號","OBJECTID":432678},"geometry":{"x":195284.95999999996,"y":2557705.25}},{"attributes":{"ID":432704,"DIS_CODE":0,"TOWNNAME":"東區","LI":"崇明里","LIN":"4鄰","STREET":"大同路","SECT":"二段","MAREA":" ","LANE":"４０３巷","ALLEY":" ","HOUSE_NO":"６４號","E_COORD97":169673.73999999999,"N_COORD97":2541395.6899999999,"ADDRESS":"大同路二段４０３巷６４號","OBJECTID":432679},"geometry":{"x":169673.74000000115,"y":2541395.6900000013}},{"attributes":{"ID":432705,"DIS_CODE":0,"TOWNNAME":"東區","LI":"崇明里","LIN":"4鄰","STREET":"大同路","SECT":"二段","MAREA":" ","LANE":"４０３巷","ALLEY":" ","HOUSE_NO":"８０號","E_COORD97":169724.17000000001,"N_COORD97":2541416.2999999998,"ADDRESS":"大同路二段４０３巷８０號","OBJECTID":432680},"geometry":{"x":169724.17000000179,"y":2541416.3000000026}},{"attributes":{"ID":432706,"DIS_CODE":0,"TOWNNAME":"東區","LI":"崇明里","LIN":"4鄰","STREET":"大同路","SECT":"二段","MAREA":" ","LANE":"４０３巷","ALLEY":" ","HOUSE_NO":"８１號","E_COORD97":169659.25,"N_COORD97":2541401.7000000002,"ADDRESS":"大同路二段４０３巷８１號","OBJECTID":432681},"geometry":{"x":169659.25000000186,"y":2541401.7000000011}},{"attributes":{"ID":432707,"DIS_CODE":0,"TOWNNAME":"中西區","LI":"三合里","LIN":"8鄰","STREET":"忠孝街","SECT":" ","MAREA":" ","LANE":"９３巷","ALLEY":" ","HOUSE_NO":"２號","E_COORD97":167721.95999999999,"N_COORD97":2544558.3500000001,"ADDRESS":"忠孝街９３巷２號","OBJECTID":432682},"geometry":{"x":167721.96000000183,"y":2544558.3500000015}},{"attributes":{"ID":432708,"DIS_CODE":0,"TOWNNAME":"中西區","LI":"三合里","LIN":"8鄰","STREET":"忠孝街","SECT":" ","MAREA":" ","LANE":"９３巷","ALLEY":" ","HOUSE_NO":"３４號","E_COORD97":167653.88,"N_COORD97":2544594.1899999999,"ADDRESS":"忠孝街９３巷３４號","OBJECTID":432683},"geometry":{"x":167653.87999999989,"y":2544594.1899999995}},{"attributes":{"ID":432709,"DIS_CODE":0,"TOWNNAME":"中西區","LI":"三合里","LIN":"8鄰","STREET":"忠孝街","SECT":" ","MAREA":" ","LANE":"９３巷","ALLEY":" ","HOUSE_NO":"４號","E_COORD97":167718,"N_COORD97":2544559.2599999998,"ADDRESS":"忠孝街９３巷４號","OBJECTID":432684},"geometry":{"x":167718,"y":2544559.2600000016}},{"attributes":{"ID":432710,"DIS_CODE":0,"TOWNNAME":"中西區","LI":"保安里","LIN":"6鄰","STREET":"友愛街","SECT":" ","MAREA":" ","LANE":"２５１巷","ALLEY":" ","HOUSE_NO":"１２號","E_COORD97":167636.35999999999,"N_COORD97":2543601.2599999998,"ADDRESS":"友愛街２５１巷１２號","OBJECTID":432685},"geometry":{"x":167636.36000000034,"y":2543601.2599999998}},{"attributes":{"ID":432711,"DIS_CODE":0,"TOWNNAME":"中西區","LI":"保安里","LIN":"6鄰","STREET":"友愛街","SECT":" ","MAREA":" ","LANE":"２５１巷","ALLEY":" ","HOUSE_NO":"１４號","E_COORD97":167634.17999999999,"N_COORD97":2543604.7799999998,"ADDRESS":"友愛街２５１巷１４號","OBJECTID":432686},"geometry":{"x":167634.18000000063,"y":2543604.7800000031}},{"attributes":{"ID":432712,"DIS_CODE":0,"TOWNNAME":"中西區","LI":"保安里","LIN":"6鄰","STREET":"友愛街","SECT":" ","MAREA":" ","LANE":"２５１巷","ALLEY":" ","HOUSE_NO":"１６號","E_COORD97":167628.29999999999,"N_COORD97":2543606.46,"ADDRESS":"友愛街２５１巷１６號","OBJECTID":432687},"geometry":{"x":167628.30000000075,"y":2543606.4600000028}},{"attributes":{"ID":432713,"DIS_CODE":0,"TOWNNAME":"中西區","LI":"保安里","LIN":"6鄰","STREET":"友愛街","SECT":" ","MAREA":" ","LANE":"２５１巷","ALLEY":" ","HOUSE_NO":"４號","E_COORD97":167604.35000000001,"N_COORD97":2543590.5299999998,"ADDRESS":"友愛街２５１巷４號","OBJECTID":432688},"geometry":{"x":167604.35000000056,"y":2543590.5300000012}},{"attributes":{"ID":432714,"DIS_CODE":0,"TOWNNAME":"中西區","LI":"保安里","LIN":"6鄰","STREET":"友愛街","SECT":" ","MAREA":" ","LANE":"２５１巷","ALLEY":" ","HOUSE_NO":"３號","E_COORD97":167648.95999999999,"N_COORD97":2543595.7200000002,"ADDRESS":"友愛街２５１巷３號","OBJECTID":432689},"geometry":{"x":167648.95999999903,"y":2543595.7200000007}},{"attributes":{"ID":432715,"DIS_CODE":0,"TOWNNAME":"中西區","LI":"保安里","LIN":"6鄰","STREET":"友愛街","SECT":" ","MAREA":" ","LANE":"２５１巷","ALLEY":" ","HOUSE_NO":"５號","E_COORD97":167649.29999999999,"N_COORD97":2543591.8599999999,"ADDRESS":"友愛街２５１巷５號","OBJECTID":432690},"geometry":{"x":167649.29999999981,"y":2543591.8600000013}},{"attributes":{"ID":432716,"DIS_CODE":0,"TOWNNAME":"佳里區","LI":"安西里","LIN":"39鄰","STREET":"佳西路","SECT":" ","MAREA":" ","LANE":"３１０巷","ALLEY":" ","HOUSE_NO":"４０號","E_COORD97":164886.54999999999,"N_COORD97":2562734.5699999998,"ADDRESS":"佳西路３１０巷４０號","OBJECTID":432691},"geometry":{"x":164886.54999999981,"y":2562734.5700000003}},{"attributes":{"ID":432717,"DIS_CODE":0,"TOWNNAME":"佳里區","LI":"安西里","LIN":"39鄰","STREET":"佳西路","SECT":" ","MAREA":" ","LANE":"３１０巷","ALLEY":" ","HOUSE_NO":"４２號","E_COORD97":164892.34,"N_COORD97":2562733.8999999999,"ADDRESS":"佳西路３１０巷４２號","OBJECTID":432692},"geometry":{"x":164892.34000000078,"y":2562733.9000000022}},{"attributes":{"ID":432718,"DIS_CODE":0,"TOWNNAME":"佳里區","LI":"安西里","LIN":"39鄰","STREET":"佳西路","SECT":" ","MAREA":" ","LANE":"３１０巷","ALLEY":" ","HOUSE_NO":"４６號","E_COORD97":164897.5,"N_COORD97":2562733.7799999998,"ADDRESS":"佳西路３１０巷４６號","OBJECTID":432693},"geometry":{"x":164897.50000000186,"y":2562733.7800000012}},{"attributes":{"ID":432719,"DIS_CODE":0,"TOWNNAME":"佳里區","LI":"東寧里","LIN":"20鄰","STREET":"佳東路","SECT":" ","MAREA":" ","LANE":"３９３巷","ALLEY":" ","HOUSE_NO":"２號","E_COORD97":166259.32999999999,"N_COORD97":2562532.7599999998,"ADDRESS":"佳東路３９３巷２號","OBJECTID":432694},"geometry":{"x":166259.33000000007,"y":2562532.7599999998}},{"attributes":{"ID":432720,"DIS_CODE":0,"TOWNNAME":"佳里區","LI":"東寧里","LIN":"20鄰","STREET":"佳東路","SECT":" ","MAREA":" ","LANE":"３９３巷","ALLEY":" ","HOUSE_NO":"３２號","E_COORD97":166201.39000000001,"N_COORD97":2562542.3100000001,"ADDRESS":"佳東路３９３巷３２號","OBJECTID":432695},"geometry":{"x":166201.38999999873,"y":2562542.3100000024}},{"attributes":{"ID":432721,"DIS_CODE":0,"TOWNNAME":"佳里區","LI":"東寧里","LIN":"20鄰","STREET":"佳東路","SECT":" ","MAREA":" ","LANE":"３９３巷","ALLEY":" ","HOUSE_NO":"５６號","E_COORD97":166170.57999999999,"N_COORD97":2562514.96,"ADDRESS":"佳東路３９３巷５６號","OBJECTID":432696},"geometry":{"x":166170.58000000101,"y":2562514.9600000009}},{"attributes":{"ID":432722,"DIS_CODE":0,"TOWNNAME":"佳里區","LI":"建南里","LIN":"34鄰","STREET":"佳南路","SECT":" ","MAREA":" ","LANE":"２２５巷","ALLEY":" ","HOUSE_NO":"１９號","E_COORD97":166000.67999999999,"N_COORD97":2560926.1400000001,"ADDRESS":"佳南路２２５巷１９號","OBJECTID":432697},"geometry":{"x":166000.6799999997,"y":2560926.1400000025}},{"attributes":{"ID":432723,"DIS_CODE":0,"TOWNNAME":"佳里區","LI":"建南里","LIN":"34鄰","STREET":"佳南路","SECT":" ","MAREA":" ","LANE":"２２５巷","ALLEY":" ","HOUSE_NO":"２１號","E_COORD97":166019.35000000001,"N_COORD97":2560930.98,"ADDRESS":"佳南路２２５巷２１號","OBJECTID":432698},"geometry":{"x":166019.35000000056,"y":2560930.9800000004}},{"attributes":{"ID":432724,"DIS_CODE":0,"TOWNNAME":"佳里區","LI":"建南里","LIN":"34鄰","STREET":"佳南路","SECT":" ","MAREA":" ","LANE":"２２５巷","ALLEY":" ","HOUSE_NO":"２２號","E_COORD97":165981.45000000001,"N_COORD97":2560885.5,"ADDRESS":"佳南路２２５巷２２號","OBJECTID":432699},"geometry":{"x":165981.45000000112,"y":2560885.5000000019}},{"attributes":{"ID":432725,"DIS_CODE":0,"TOWNNAME":"佳里區","LI":"建南里","LIN":"34鄰","STREET":"佳南路","SECT":" ","MAREA":" ","LANE":"２２５巷","ALLEY":" ","HOUSE_NO":"２３號","E_COORD97":165998.29000000001,"N_COORD97":2560887.8100000001,"ADDRESS":"佳南路２２５巷２３號","OBJECTID":432700},"geometry":{"x":165998.29000000097,"y":2560887.8100000024}},{"attributes":{"ID":432726,"DIS_CODE":0,"TOWNNAME":"佳里區","LI":"建南里","LIN":"34鄰","STREET":"佳南路","SECT":" ","MAREA":" ","LANE":"２２５巷","ALLEY":" ","HOUSE_NO":"２４號","E_COORD97":165984.64999999999,"N_COORD97":2560876.29,"ADDRESS":"佳南路２２５巷２４號","OBJECTID":432701},"geometry":{"x":165984.65000000037,"y":2560876.290000001}},{"attributes":{"ID":432727,"DIS_CODE":0,"TOWNNAME":"佳里區","LI":"建南里","LIN":"34鄰","STREET":"佳南路","SECT":" ","MAREA":" ","LANE":"２２５巷","ALLEY":" ","HOUSE_NO":"２５號","E_COORD97":166000.14000000001,"N_COORD97":2560879.6000000001,"ADDRESS":"佳南路２２５巷２５號","OBJECTID":432702},"geometry":{"x":166000.1400000006,"y":2560879.5999999996}},{"attributes":{"ID":432728,"DIS_CODE":0,"TOWNNAME":"佳里區","LI":"建南里","LIN":"34鄰","STREET":"佳南路","SECT":" ","MAREA":" ","LANE":"２２５巷","ALLEY":" ","HOUSE_NO":"２６號","E_COORD97":165985.53,"N_COORD97":2560867.8100000001,"ADDRESS":"佳南路２２５巷２６號","OBJECTID":432703},"geometry":{"x":165985.53000000026,"y":2560867.8100000005}},{"attributes":{"ID":432729,"DIS_CODE":0,"TOWNNAME":"佳里區","LI":"建南里","LIN":"34鄰","STREET":"佳南路","SECT":" ","MAREA":" ","LANE":"２２５巷","ALLEY":" ","HOUSE_NO":"２７號","E_COORD97":166001.63,"N_COORD97":2560871.6400000001,"ADDRESS":"佳南路２２５巷２７號","OBJECTID":432704},"geometry":{"x":166001.62999999989,"y":2560871.6400000025}},{"attributes":{"ID":432730,"DIS_CODE":0,"TOWNNAME":"佳里區","LI":"建南里","LIN":"34鄰","STREET":"佳南路","SECT":" ","MAREA":" ","LANE":"２２５巷","ALLEY":" ","HOUSE_NO":"２８號","E_COORD97":165965.44,"N_COORD97":2560862.4500000002,"ADDRESS":"佳南路２２５巷２８號","OBJECTID":432705},"geometry":{"x":165965.44000000134,"y":2560862.4499999993}},{"attributes":{"ID":432731,"DIS_CODE":0,"TOWNNAME":"佳里區","LI":"建南里","LIN":"34鄰","STREET":"佳南路","SECT":" ","MAREA":" ","LANE":"２２５巷","ALLEY":" ","HOUSE_NO":"２９號","E_COORD97":166003.85000000001,"N_COORD97":2560860.1800000002,"ADDRESS":"佳南路２２５巷２９號","OBJECTID":432706},"geometry":{"x":166003.85000000056,"y":2560860.1800000016}},{"attributes":{"ID":432732,"DIS_CODE":0,"TOWNNAME":"佳里區","LI":"建南里","LIN":"34鄰","STREET":"佳南路","SECT":" ","MAREA":" ","LANE":"２２５巷","ALLEY":" ","HOUSE_NO":"３０號","E_COORD97":165986.57000000001,"N_COORD97":2560857.0600000001,"ADDRESS":"佳南路２２５巷３０號","OBJECTID":432707},"geometry":{"x":165986.5700000003,"y":2560857.0600000005}},{"attributes":{"ID":432733,"DIS_CODE":0,"TOWNNAME":"佳里區","LI":"龍安里","LIN":"10鄰","STREET":" ","SECT":" ","MAREA":"塭子內","LANE":" ","ALLEY":" ","HOUSE_NO":"１００號","E_COORD97":164547.10784300001,"N_COORD97":2558212.66805,"ADDRESS":"塭子內１００號","OBJECTID":432708},"geometry":{"x":164547.1078430023,"y":2558212.6680490002}},{"attributes":{"ID":432734,"DIS_CODE":0,"TOWNNAME":"中西區","LI":"保安里","LIN":"4鄰","STREET":"西門路","SECT":"一段","MAREA":" ","LANE":"７７１巷","ALLEY":" ","HOUSE_NO":"３號","E_COORD97":167701.03,"N_COORD97":2543400.27,"ADDRESS":"西門路一段７７１巷３號","OBJECTID":432709},"geometry":{"x":167701.03000000026,"y":2543400.2699999996}},{"attributes":{"ID":432735,"DIS_CODE":0,"TOWNNAME":"中西區","LI":"保安里","LIN":"4鄰","STREET":"西門路","SECT":"一段","MAREA":" ","LANE":"７７１巷","ALLEY":" ","HOUSE_NO":"４號","E_COORD97":167710.81,"N_COORD97":2543404.0800000001,"ADDRESS":"西門路一段７７１巷４號","OBJECTID":432710},"geometry":{"x":167710.81000000145,"y":2543404.0800000019}},{"attributes":{"ID":432736,"DIS_CODE":0,"TOWNNAME":"下營區","LI":"仁里里","LIN":"21鄰","STREET":"仁南街","SECT":" ","MAREA":" ","LANE":"６巷","ALLEY":" ","HOUSE_NO":"９０號","E_COORD97":174333.73999999999,"N_COORD97":2569760.2200000002,"ADDRESS":"仁南街６巷９０號","OBJECTID":432711},"geometry":{"x":174333.74000000115,"y":2569760.2200000025}},{"attributes":{"ID":432737,"DIS_CODE":0,"TOWNNAME":"玉井區","LI":"玉田里","LIN":"40鄰","STREET":"和平街","SECT":" ","MAREA":" ","LANE":" ","ALLEY":" ","HOUSE_NO":"１１１號","E_COORD97":195223.73000000001,"N_COORD97":2557564.2400000002,"ADDRESS":"和平街１１１號","OBJECTID":432712},"geometry":{"x":195223.73000000138,"y":2557564.2400000039}},{"attributes":{"ID":432738,"DIS_CODE":0,"TOWNNAME":"中西區","LI":"保安里","LIN":"4鄰","STREET":"西門路","SECT":"一段","MAREA":" ","LANE":"７７１巷","ALLEY":" ","HOUSE_NO":"６號","E_COORD97":167706.70000000001,"N_COORD97":2543404.2200000002,"ADDRESS":"西門路一段７７１巷６號","OBJECTID":432713},"geometry":{"x":167706.70000000019,"y":2543404.2200000025}},{"attributes":{"ID":432739,"DIS_CODE":0,"TOWNNAME":"中西區","LI":"安海里","LIN":"13鄰","STREET":"河中街","SECT":" ","MAREA":" ","LANE":"３７巷","ALLEY":" ","HOUSE_NO":"６號","E_COORD97":167265.03,"N_COORD97":2544009.5299999998,"ADDRESS":"河中街３７巷６號","OBJECTID":432714},"geometry":{"x":167265.03000000026,"y":2544009.5299999975}},{"attributes":{"ID":432740,"DIS_CODE":0,"TOWNNAME":"中西區","LI":"普濟里","LIN":"14鄰","STREET":"國華街","SECT":"三段","MAREA":" ","LANE":"２４５巷","ALLEY":" ","HOUSE_NO":"８號","E_COORD97":167934.51999999999,"N_COORD97":2544442.7400000002,"ADDRESS":"國華街三段２４５巷８號","OBJECTID":432715},"geometry":{"x":167934.51999999955,"y":2544442.7400000002}},{"attributes":{"ID":432741,"DIS_CODE":0,"TOWNNAME":"中西區","LI":"普濟里","LIN":"6鄰","STREET":"海安路","SECT":" ","MAREA":" ","LANE":"４３６巷","ALLEY":" ","HOUSE_NO":"１８號","E_COORD97":167818.97,"N_COORD97":2544368.0699999998,"ADDRESS":"海安路４３６巷１８號","OBJECTID":432716},"geometry":{"x":167818.97000000067,"y":2544368.0700000022}},{"attributes":{"ID":432742,"DIS_CODE":0,"TOWNNAME":"中西區","LI":"郡西里","LIN":"1鄰","STREET":"海安路","SECT":"一段","MAREA":" ","LANE":" ","ALLEY":" ","HOUSE_NO":"１１號","E_COORD97":167423.06,"N_COORD97":2543187.4900000002,"ADDRESS":"海安路一段１１號","OBJECTID":432717},"geometry":{"x":167423.06000000052,"y":2543187.4900000021}},{"attributes":{"ID":432743,"DIS_CODE":0,"TOWNNAME":"中西區","LI":"郡西里","LIN":"7鄰","STREET":"建安街","SECT":" ","MAREA":" ","LANE":"７４巷","ALLEY":" ","HOUSE_NO":"１０號","E_COORD97":167414.88,"N_COORD97":2543283.5800000001,"ADDRESS":"建安街７４巷１０號","OBJECTID":432718},"geometry":{"x":167414.87999999989,"y":2543283.5800000001}},{"attributes":{"ID":432744,"DIS_CODE":0,"TOWNNAME":"中西區","LI":"郡西里","LIN":"7鄰","STREET":"建安街","SECT":" ","MAREA":" ","LANE":"７４巷","ALLEY":" ","HOUSE_NO":"１２號","E_COORD97":167416.22,"N_COORD97":2543288.8199999998,"ADDRESS":"建安街７４巷１２號","OBJECTID":432719},"geometry":{"x":167416.21999999974,"y":2543288.8200000003}},{"attributes":{"ID":432745,"DIS_CODE":0,"TOWNNAME":"中西區","LI":"郡西里","LIN":"7鄰","STREET":"建安街","SECT":" ","MAREA":" ","LANE":"７４巷","ALLEY":" ","HOUSE_NO":"１４號","E_COORD97":167415.98000000001,"N_COORD97":2543292.73,"ADDRESS":"建安街７４巷１４號","OBJECTID":432720},"geometry":{"x":167415.98000000138,"y":2543292.7300000004}},{"attributes":{"ID":432746,"DIS_CODE":0,"TOWNNAME":"中西區","LI":"郡西里","LIN":"7鄰","STREET":"建安街","SECT":" ","MAREA":" ","LANE":"７４巷","ALLEY":" ","HOUSE_NO":"１６號","E_COORD97":167415.98000000001,"N_COORD97":2543296.6299999999,"ADDRESS":"建安街７４巷１６號","OBJECTID":432721},"geometry":{"x":167415.98000000138,"y":2543296.6300000027}},{"attributes":{"ID":432747,"DIS_CODE":0,"TOWNNAME":"中西區","LI":"郡西里","LIN":"7鄰","STREET":"建安街","SECT":" ","MAREA":" ","LANE":"７４巷","ALLEY":" ","HOUSE_NO":"２號","E_COORD97":167412.32000000001,"N_COORD97":2543267.1099999999,"ADDRESS":"建安街７４巷２號","OBJECTID":432722},"geometry":{"x":167412.3200000003,"y":2543267.1100000013}},{"attributes":{"ID":432748,"DIS_CODE":0,"TOWNNAME":"中西區","LI":"郡西里","LIN":"1鄰","STREET":"永華路","SECT":"一段","MAREA":" ","LANE":"９８巷","ALLEY":" ","HOUSE_NO":"１０號","E_COORD97":167405,"N_COORD97":2543188.6400000001,"ADDRESS":"永華路一段９８巷１０號","OBJECTID":432723},"geometry":{"x":167405.00000000093,"y":2543188.6400000006}},{"attributes":{"ID":432749,"DIS_CODE":0,"TOWNNAME":"中西區","LI":"郡西里","LIN":"1鄰","STREET":"永華路","SECT":"一段","MAREA":" ","LANE":"９８巷","ALLEY":" ","HOUSE_NO":"１２號","E_COORD97":167405.35999999999,"N_COORD97":2543191.8500000001,"ADDRESS":"永華路一段９８巷１２號","OBJECTID":432724},"geometry":{"x":167405.36000000034,"y":2543191.8500000015}},{"attributes":{"ID":432750,"DIS_CODE":0,"TOWNNAME":"中西區","LI":"郡西里","LIN":"1鄰","STREET":"永華路","SECT":"一段","MAREA":" ","LANE":"９８巷","ALLEY":" ","HOUSE_NO":"１４號","E_COORD97":167405.60000000001,"N_COORD97":2543197.5499999998,"ADDRESS":"永華路一段９８巷１４號","OBJECTID":432725},"geometry":{"x":167405.60000000056,"y":2543197.5500000045}},{"attributes":{"ID":432751,"DIS_CODE":0,"TOWNNAME":"中西區","LI":"郡西里","LIN":"2鄰","STREET":"永華路","SECT":"一段","MAREA":" ","LANE":"９８巷","ALLEY":" ","HOUSE_NO":"２１號","E_COORD97":167390.70999999999,"N_COORD97":2543210.9700000002,"ADDRESS":"永華路一段９８巷２１號","OBJECTID":432726},"geometry":{"x":167390.70999999996,"y":2543210.9700000007}},{"attributes":{"ID":432752,"DIS_CODE":0,"TOWNNAME":"中西區","LI":"郡西里","LIN":"2鄰","STREET":"永華路","SECT":"一段","MAREA":" ","LANE":"９８巷","ALLEY":" ","HOUSE_NO":"２３號","E_COORD97":167390.34,"N_COORD97":2543217.1899999999,"ADDRESS":"永華路一段９８巷２３號","OBJECTID":432727},"geometry":{"x":167390.34000000171,"y":2543217.1900000013}},{"attributes":{"ID":432753,"DIS_CODE":0,"TOWNNAME":"中西區","LI":"郡西里","LIN":"2鄰","STREET":"永華路","SECT":"一段","MAREA":" ","LANE":"９８巷","ALLEY":" ","HOUSE_NO":"２５號","E_COORD97":167393.76000000001,"N_COORD97":2543223.1600000001,"ADDRESS":"永華路一段９８巷２５號","OBJECTID":432728},"geometry":{"x":167393.75999999978,"y":2543223.1600000039}},{"attributes":{"ID":432754,"DIS_CODE":0,"TOWNNAME":"中西區","LI":"郡西里","LIN":"2鄰","STREET":"永華路","SECT":"一段","MAREA":" ","LANE":"９８巷","ALLEY":" ","HOUSE_NO":"２７號","E_COORD97":167393.76000000001,"N_COORD97":2543228.04,"ADDRESS":"永華路一段９８巷２７號","OBJECTID":432729},"geometry":{"x":167393.75999999978,"y":2543228.0399999991}},{"attributes":{"ID":432755,"DIS_CODE":0,"TOWNNAME":"中西區","LI":"郡西里","LIN":"2鄰","STREET":"永華路","SECT":"一段","MAREA":" ","LANE":"９８巷","ALLEY":" ","HOUSE_NO":"２９號","E_COORD97":167394.48999999999,"N_COORD97":2543232.5600000001,"ADDRESS":"永華路一段９８巷２９號","OBJECTID":432730},"geometry":{"x":167394.49000000022,"y":2543232.5600000024}},{"attributes":{"ID":432756,"DIS_CODE":0,"TOWNNAME":"中西區","LI":"郡西里","LIN":"2鄰","STREET":"永華路","SECT":"一段","MAREA":" ","LANE":"９８巷","ALLEY":" ","HOUSE_NO":"３１號","E_COORD97":167394.48999999999,"N_COORD97":2543238.29,"ADDRESS":"永華路一段９８巷３１號","OBJECTID":432731},"geometry":{"x":167394.49000000022,"y":2543238.2900000028}},{"attributes":{"ID":432757,"DIS_CODE":0,"TOWNNAME":"中西區","LI":"郡西里","LIN":"2鄰","STREET":"永華路","SECT":"一段","MAREA":" ","LANE":"９８巷","ALLEY":" ","HOUSE_NO":"３３號","E_COORD97":167394.48999999999,"N_COORD97":2543242.3100000001,"ADDRESS":"永華路一段９８巷３３號","OBJECTID":432732},"geometry":{"x":167394.49000000022,"y":2543242.3100000005}},{"attributes":{"ID":432758,"DIS_CODE":0,"TOWNNAME":"中西區","LI":"郡西里","LIN":"2鄰","STREET":"永華路","SECT":"一段","MAREA":" ","LANE":"９８巷","ALLEY":" ","HOUSE_NO":"３５號","E_COORD97":167392.42000000001,"N_COORD97":2543246.71,"ADDRESS":"永華路一段９８巷３５號","OBJECTID":432733},"geometry":{"x":167392.42000000086,"y":2543246.7100000009}},{"attributes":{"ID":432759,"DIS_CODE":0,"TOWNNAME":"中西區","LI":"郡西里","LIN":"2鄰","STREET":"永華路","SECT":"一段","MAREA":" ","LANE":"９８巷","ALLEY":" ","HOUSE_NO":"３號","E_COORD97":167388.26999999999,"N_COORD97":2543177.48,"ADDRESS":"永華路一段９８巷３號","OBJECTID":432734},"geometry":{"x":167388.26999999955,"y":2543177.4800000042}},{"attributes":{"ID":432760,"DIS_CODE":0,"TOWNNAME":"中西區","LI":"郡西里","LIN":"2鄰","STREET":"永華路","SECT":"一段","MAREA":" ","LANE":"９８巷","ALLEY":" ","HOUSE_NO":"５號","E_COORD97":167388.75,"N_COORD97":2543181.27,"ADDRESS":"永華路一段９８巷５號","OBJECTID":432735},"geometry":{"x":167388.75,"y":2543181.2700000033}},{"attributes":{"ID":432761,"DIS_CODE":0,"TOWNNAME":"中西區","LI":"郡西里","LIN":"2鄰","STREET":"永華路","SECT":"一段","MAREA":" ","LANE":"９８巷","ALLEY":" ","HOUSE_NO":"７號","E_COORD97":167389,"N_COORD97":2543185.1699999999,"ADDRESS":"永華路一段９８巷７號","OBJECTID":432736},"geometry":{"x":167389,"y":2543185.1699999999}},{"attributes":{"ID":432762,"DIS_CODE":0,"TOWNNAME":"下營區","LI":"仁里里","LIN":"21鄰","STREET":"仁南街","SECT":" ","MAREA":" ","LANE":"６巷","ALLEY":" ","HOUSE_NO":"９２號","E_COORD97":174325.17000000001,"N_COORD97":2569762.0099999998,"ADDRESS":"仁南街６巷９２號","OBJECTID":432737},"geometry":{"x":174325.17000000086,"y":2569762.0099999998}},{"attributes":{"ID":432763,"DIS_CODE":0,"TOWNNAME":"下營區","LI":"仁里里","LIN":"23鄰","STREET":"仁里街","SECT":" ","MAREA":" ","LANE":"２３巷","ALLEY":" ","HOUSE_NO":"２號","E_COORD97":174267.32000000001,"N_COORD97":2570030.3900000001,"ADDRESS":"仁里街２３巷２號","OBJECTID":432738},"geometry":{"x":174267.32000000123,"y":2570030.3900000025}},{"attributes":{"ID":432764,"DIS_CODE":0,"TOWNNAME":"下營區","LI":"仁里里","LIN":"4鄰","STREET":"仁里街","SECT":" ","MAREA":" ","LANE":"４８巷","ALLEY":" ","HOUSE_NO":"１０號","E_COORD97":174264.48999999999,"N_COORD97":2570237.8100000001,"ADDRESS":"仁里街４８巷１０號","OBJECTID":432739},"geometry":{"x":174264.49000000115,"y":2570237.8100000024}},{"attributes":{"ID":432765,"DIS_CODE":0,"TOWNNAME":"下營區","LI":"仁里里","LIN":"4鄰","STREET":"仁里街","SECT":" ","MAREA":" ","LANE":"４８巷","ALLEY":" ","HOUSE_NO":"１２號","E_COORD97":174260.70999999999,"N_COORD97":2570239.3900000001,"ADDRESS":"仁里街４８巷１２號","OBJECTID":432740},"geometry":{"x":174260.71000000089,"y":2570239.3900000006}},{"attributes":{"ID":432766,"DIS_CODE":0,"TOWNNAME":"下營區","LI":"仁里里","LIN":"4鄰","STREET":"仁里街","SECT":" ","MAREA":" ","LANE":"４８巷","ALLEY":" ","HOUSE_NO":"１６號","E_COORD97":174257.17999999999,"N_COORD97":2570241.0499999998,"ADDRESS":"仁里街４８巷１６號","OBJECTID":432741},"geometry":{"x":174257.18000000063,"y":2570241.0500000007}},{"attributes":{"ID":432767,"DIS_CODE":0,"TOWNNAME":"下營區","LI":"仁里里","LIN":"4鄰","STREET":"仁里街","SECT":" ","MAREA":" ","LANE":"４８巷","ALLEY":" ","HOUSE_NO":"１８號","E_COORD97":174230.73000000001,"N_COORD97":2570259.96,"ADDRESS":"仁里街４８巷１８號","OBJECTID":432742},"geometry":{"x":174230.73000000138,"y":2570259.959999999}},{"attributes":{"ID":432768,"DIS_CODE":0,"TOWNNAME":"下營區","LI":"仁里里","LIN":"4鄰","STREET":"仁里街","SECT":" ","MAREA":" ","LANE":"４８巷","ALLEY":" ","HOUSE_NO":"２０號","E_COORD97":174223.67000000001,"N_COORD97":2570241.1800000002,"ADDRESS":"仁里街４８巷２０號","OBJECTID":432743},"geometry":{"x":174223.67000000086,"y":2570241.1800000016}},{"attributes":{"ID":432769,"DIS_CODE":0,"TOWNNAME":"下營區","LI":"仁里里","LIN":"4鄰","STREET":"仁里街","SECT":" ","MAREA":" ","LANE":"４８巷","ALLEY":" ","HOUSE_NO":"２號","E_COORD97":174275.06,"N_COORD97":2570233.2999999998,"ADDRESS":"仁里街４８巷２號","OBJECTID":432744},"geometry":{"x":174275.06000000052,"y":2570233.3000000007}},{"attributes":{"ID":432770,"DIS_CODE":0,"TOWNNAME":"下營區","LI":"仁里里","LIN":"4鄰","STREET":"仁里街","SECT":" ","MAREA":" ","LANE":"４８巷","ALLEY":" ","HOUSE_NO":"３號","E_COORD97":174263.94,"N_COORD97":2570217.3100000001,"ADDRESS":"仁里街４８巷３號","OBJECTID":432745},"geometry":{"x":174263.94000000041,"y":2570217.3100000024}},{"attributes":{"ID":432771,"DIS_CODE":0,"TOWNNAME":"中西區","LI":"普濟里","LIN":"6鄰","STREET":"海安路","SECT":"二段","MAREA":" ","LANE":"２９６巷","ALLEY":" ","HOUSE_NO":"２２號","E_COORD97":167824.35000000001,"N_COORD97":2544372.5600000001,"ADDRESS":"海安路二段２９６巷２２號","OBJECTID":432746},"geometry":{"x":167824.35000000056,"y":2544372.5600000005}},{"attributes":{"ID":432772,"DIS_CODE":0,"TOWNNAME":"下營區","LI":"仁里里","LIN":"1鄰","STREET":"仁南街","SECT":" ","MAREA":" ","LANE":"２１巷","ALLEY":" ","HOUSE_NO":"２１號","E_COORD97":174615.57000000001,"N_COORD97":2569493.3100000001,"ADDRESS":"仁南街２１巷２１號","OBJECTID":432747},"geometry":{"x":174615.5700000003,"y":2569493.3100000005}},{"attributes":{"ID":432773,"DIS_CODE":0,"TOWNNAME":"下營區","LI":"仁里里","LIN":"1鄰","STREET":"仁南街","SECT":" ","MAREA":" ","LANE":"６巷","ALLEY":" ","HOUSE_NO":"２號","E_COORD97":174628.39000000001,"N_COORD97":2569737.23,"ADDRESS":"仁南街６巷２號","OBJECTID":432748},"geometry":{"x":174628.39000000153,"y":2569737.2300000023}},{"attributes":{"ID":432774,"DIS_CODE":0,"TOWNNAME":"下營區","LI":"仁里里","LIN":"1鄰","STREET":"仁南街","SECT":" ","MAREA":" ","LANE":"６巷","ALLEY":" ","HOUSE_NO":"６號","E_COORD97":174571.70000000001,"N_COORD97":2569729.9700000002,"ADDRESS":"仁南街６巷６號","OBJECTID":432749},"geometry":{"x":174571.70000000019,"y":2569729.9700000007}},{"attributes":{"ID":432775,"DIS_CODE":0,"TOWNNAME":"下營區","LI":"仁里里","LIN":"21鄰","STREET":"仁南街","SECT":" ","MAREA":" ","LANE":"６巷","ALLEY":" ","HOUSE_NO":"４１號","E_COORD97":174389.20000000001,"N_COORD97":2569735.23,"ADDRESS":"仁南街６巷４１號","OBJECTID":432750},"geometry":{"x":174389.20000000019,"y":2569735.2300000004}},{"attributes":{"ID":432776,"DIS_CODE":0,"TOWNNAME":"下營區","LI":"仁里里","LIN":"21鄰","STREET":"仁南街","SECT":" ","MAREA":" ","LANE":"６巷","ALLEY":" ","HOUSE_NO":"４３號","E_COORD97":174380.60999999999,"N_COORD97":2569736.54,"ADDRESS":"仁南街６巷４３號","OBJECTID":432751},"geometry":{"x":174380.61000000127,"y":2569736.540000001}},{"attributes":{"ID":432777,"DIS_CODE":0,"TOWNNAME":"下營區","LI":"仁里里","LIN":"21鄰","STREET":"仁南街","SECT":" ","MAREA":" ","LANE":"６巷","ALLEY":" ","HOUSE_NO":"４５號","E_COORD97":174374.81,"N_COORD97":2569735.9900000002,"ADDRESS":"仁南街６巷４５號","OBJECTID":432752},"geometry":{"x":174374.81000000052,"y":2569735.9900000002}},{"attributes":{"ID":432778,"DIS_CODE":0,"TOWNNAME":"下營區","LI":"仁里里","LIN":"21鄰","STREET":"仁南街","SECT":" ","MAREA":" ","LANE":"６巷","ALLEY":" ","HOUSE_NO":"９６號","E_COORD97":174336.82000000001,"N_COORD97":2569777.7799999998,"ADDRESS":"仁南街６巷９６號","OBJECTID":432753},"geometry":{"x":174336.82000000123,"y":2569777.7799999993}},{"attributes":{"ID":432779,"DIS_CODE":0,"TOWNNAME":"下營區","LI":"仁里里","LIN":"21鄰","STREET":"仁南街","SECT":" ","MAREA":" ","LANE":"９９巷","ALLEY":" ","HOUSE_NO":"３號","E_COORD97":174314.39999999999,"N_COORD97":2569685.6000000001,"ADDRESS":"仁南街９９巷３號","OBJECTID":432754},"geometry":{"x":174314.4000000013,"y":2569685.6000000015}},{"attributes":{"ID":432780,"DIS_CODE":0,"TOWNNAME":"下營區","LI":"仁里里","LIN":"21鄰","STREET":"仁南街","SECT":" ","MAREA":" ","LANE":"９９巷","ALLEY":" ","HOUSE_NO":"９號","E_COORD97":174302.60000000001,"N_COORD97":2569686.2000000002,"ADDRESS":"仁南街９９巷９號","OBJECTID":432755},"geometry":{"x":174302.59999999963,"y":2569686.1999999993}},{"attributes":{"ID":432781,"DIS_CODE":0,"TOWNNAME":"下營區","LI":"仁里里","LIN":"17鄰","STREET":"公園路","SECT":" ","MAREA":" ","LANE":"２０巷","ALLEY":" ","HOUSE_NO":"５號","E_COORD97":174348.07999999999,"N_COORD97":2570388.3799999999,"ADDRESS":"公園路２０巷５號","OBJECTID":432756},"geometry":{"x":174348.08000000101,"y":2570388.3800000008}},{"attributes":{"ID":432782,"DIS_CODE":0,"TOWNNAME":"下營區","LI":"仁里里","LIN":"14鄰","STREET":"公園路","SECT":" ","MAREA":" ","LANE":"３２巷","ALLEY":" ","HOUSE_NO":"２１號","E_COORD97":174308.26999999999,"N_COORD97":2570436.7200000002,"ADDRESS":"公園路３２巷２１號","OBJECTID":432757},"geometry":{"x":174308.26999999955,"y":2570436.7200000007}},{"attributes":{"ID":432783,"DIS_CODE":0,"TOWNNAME":"下營區","LI":"仁里里","LIN":"14鄰","STREET":"公園路","SECT":" ","MAREA":" ","LANE":"３２巷","ALLEY":" ","HOUSE_NO":"２３號","E_COORD97":174303.60000000001,"N_COORD97":2570444.9100000001,"ADDRESS":"公園路３２巷２３號","OBJECTID":432758},"geometry":{"x":174303.60000000056,"y":2570444.9100000001}},{"attributes":{"ID":432784,"DIS_CODE":0,"TOWNNAME":"下營區","LI":"仁里里","LIN":"17鄰","STREET":"公園路","SECT":" ","MAREA":" ","LANE":"３２巷","ALLEY":" ","HOUSE_NO":"１號","E_COORD97":174319.92000000001,"N_COORD97":2570366.75,"ADDRESS":"公園路３２巷１號","OBJECTID":432759},"geometry":{"x":174319.92000000179,"y":2570366.7500000019}},{"attributes":{"ID":432785,"DIS_CODE":0,"TOWNNAME":"下營區","LI":"仁里里","LIN":"17鄰","STREET":"公園路","SECT":" ","MAREA":" ","LANE":"３２巷","ALLEY":" ","HOUSE_NO":"２號","E_COORD97":174332.63,"N_COORD97":2570372.3500000001,"ADDRESS":"公園路３２巷２號","OBJECTID":432760},"geometry":{"x":174332.63000000082,"y":2570372.3500000015}},{"attributes":{"ID":432786,"DIS_CODE":0,"TOWNNAME":"下營區","LI":"仁里里","LIN":"17鄰","STREET":"公園路","SECT":" ","MAREA":" ","LANE":"３２巷","ALLEY":" ","HOUSE_NO":"３號","E_COORD97":174319.01000000001,"N_COORD97":2570371.6600000001,"ADDRESS":"公園路３２巷３號","OBJECTID":432761},"geometry":{"x":174319.01000000164,"y":2570371.6600000001}},{"attributes":{"ID":432787,"DIS_CODE":0,"TOWNNAME":"下營區","LI":"仁里里","LIN":"17鄰","STREET":"公園路","SECT":" ","MAREA":" ","LANE":"３２巷","ALLEY":" ","HOUSE_NO":"８號","E_COORD97":174333.35000000001,"N_COORD97":2570384.52,"ADDRESS":"公園路３２巷８號","OBJECTID":432762},"geometry":{"x":174333.34999999963,"y":2570384.5200000014}},{"attributes":{"ID":432788,"DIS_CODE":0,"TOWNNAME":"下營區","LI":"仁里里","LIN":"15鄰","STREET":"公園路","SECT":" ","MAREA":" ","LANE":"３２巷","ALLEY":" ","HOUSE_NO":"１１號","E_COORD97":174307.95999999999,"N_COORD97":2570406.3199999998,"ADDRESS":"公園路３２巷１１號","OBJECTID":432763},"geometry":{"x":174307.96000000089,"y":2570406.320000004}},{"attributes":{"ID":432789,"DIS_CODE":0,"TOWNNAME":"下營區","LI":"仁里里","LIN":"15鄰","STREET":"公園路","SECT":" ","MAREA":" ","LANE":"３２巷","ALLEY":" ","HOUSE_NO":"１３號","E_COORD97":174308.66,"N_COORD97":2570413.0899999999,"ADDRESS":"公園路３２巷１３號","OBJECTID":432764},"geometry":{"x":174308.66000000108,"y":2570413.0899999999}},{"attributes":{"ID":432790,"DIS_CODE":0,"TOWNNAME":"下營區","LI":"宅內里","LIN":"4鄰","STREET":"友愛街","SECT":" ","MAREA":" ","LANE":"１４９巷","ALLEY":" ","HOUSE_NO":"１０號","E_COORD97":174161.76999999999,"N_COORD97":2570721.8199999998,"ADDRESS":"友愛街１４９巷１０號","OBJECTID":432765},"geometry":{"x":174161.77000000048,"y":2570721.820000004}},{"attributes":{"ID":432791,"DIS_CODE":0,"TOWNNAME":"下營區","LI":"宅內里","LIN":"4鄰","STREET":"友愛街","SECT":" ","MAREA":" ","LANE":"１４９巷","ALLEY":" ","HOUSE_NO":"１１號","E_COORD97":174143.56,"N_COORD97":2570693.3199999998,"ADDRESS":"友愛街１４９巷１１號","OBJECTID":432766},"geometry":{"x":174143.55999999959,"y":2570693.3200000003}},{"attributes":{"ID":432792,"DIS_CODE":0,"TOWNNAME":"下營區","LI":"宅內里","LIN":"4鄰","STREET":"友愛街","SECT":" ","MAREA":" ","LANE":"１４９巷","ALLEY":" ","HOUSE_NO":"１８號","E_COORD97":174154.14000000001,"N_COORD97":2570714.1400000001,"ADDRESS":"友愛街１４９巷１８號","OBJECTID":432767},"geometry":{"x":174154.1400000006,"y":2570714.1400000025}},{"attributes":{"ID":432793,"DIS_CODE":0,"TOWNNAME":"下營區","LI":"宅內里","LIN":"4鄰","STREET":"友愛街","SECT":" ","MAREA":" ","LANE":"１４９巷","ALLEY":" ","HOUSE_NO":"２０號","E_COORD97":174149.84,"N_COORD97":2570713.2799999998,"ADDRESS":"友愛街１４９巷２０號","OBJECTID":432768},"geometry":{"x":174149.84000000078,"y":2570713.2799999993}},{"attributes":{"ID":432794,"DIS_CODE":0,"TOWNNAME":"下營區","LI":"宅內里","LIN":"4鄰","STREET":"友愛街","SECT":" ","MAREA":" ","LANE":"１４９巷","ALLEY":" ","HOUSE_NO":"２２號","E_COORD97":174145.41,"N_COORD97":2570714.1600000001,"ADDRESS":"友愛街１４９巷２２號","OBJECTID":432769},"geometry":{"x":174145.40999999922,"y":2570714.1600000001}},{"attributes":{"ID":432795,"DIS_CODE":0,"TOWNNAME":"下營區","LI":"宅內里","LIN":"4鄰","STREET":"友愛街","SECT":" ","MAREA":" ","LANE":"１４９巷","ALLEY":" ","HOUSE_NO":"３６號","E_COORD97":174133.73999999999,"N_COORD97":2570717.6800000002,"ADDRESS":"友愛街１４９巷３６號","OBJECTID":432770},"geometry":{"x":174133.74000000115,"y":2570717.6799999997}},{"attributes":{"ID":432796,"DIS_CODE":0,"TOWNNAME":"下營區","LI":"宅內里","LIN":"6鄰","STREET":"友愛街","SECT":" ","MAREA":" ","LANE":"１８７巷","ALLEY":" ","HOUSE_NO":"１１６號","E_COORD97":173717.63,"N_COORD97":2570689.1000000001,"ADDRESS":"友愛街１８７巷１１６號","OBJECTID":432771},"geometry":{"x":173717.62999999989,"y":2570689.1000000015}},{"attributes":{"ID":432797,"DIS_CODE":0,"TOWNNAME":"下營區","LI":"宅內里","LIN":"6鄰","STREET":"友愛街","SECT":" ","MAREA":" ","LANE":"１８７巷","ALLEY":" ","HOUSE_NO":"１２２號","E_COORD97":173649.09,"N_COORD97":2570634.9700000002,"ADDRESS":"友愛街１８７巷１２２號","OBJECTID":432772},"geometry":{"x":173649.09000000171,"y":2570634.9700000007}},{"attributes":{"ID":432798,"DIS_CODE":0,"TOWNNAME":"南區","LI":"金華里","LIN":"24鄰","STREET":"惠南街","SECT":" ","MAREA":" ","LANE":"１０９巷","ALLEY":" ","HOUSE_NO":"７號","E_COORD97":166700.97,"N_COORD97":2542331.9700000002,"ADDRESS":"惠南街１０９巷７號","OBJECTID":432773},"geometry":{"x":166700.96999999974,"y":2542331.9700000007}},{"attributes":{"ID":432799,"DIS_CODE":0,"TOWNNAME":"下營區","LI":"仁里里","LIN":"13鄰","STREET":"友愛街","SECT":" ","MAREA":" ","LANE":"２７巷","ALLEY":" ","HOUSE_NO":"１０號","E_COORD97":174166.26999999999,"N_COORD97":2570380.1699999999,"ADDRESS":"友愛街２７巷１０號","OBJECTID":432774},"geometry":{"x":174166.27000000142,"y":2570380.1700000018}},{"attributes":{"ID":432800,"DIS_CODE":0,"TOWNNAME":"下營區","LI":"仁里里","LIN":"13鄰","STREET":"友愛街","SECT":" ","MAREA":" ","LANE":"２７巷","ALLEY":" ","HOUSE_NO":"２５號","E_COORD97":174134.26000000001,"N_COORD97":2570424.1499999999,"ADDRESS":"友愛街２７巷２５號","OBJECTID":432775},"geometry":{"x":174134.26000000164,"y":2570424.1500000004}},{"attributes":{"ID":432801,"DIS_CODE":0,"TOWNNAME":"下營區","LI":"仁里里","LIN":"13鄰","STREET":"友愛街","SECT":" ","MAREA":" ","LANE":"２７巷","ALLEY":" ","HOUSE_NO":"２７號","E_COORD97":174153.45000000001,"N_COORD97":2570418.5600000001,"ADDRESS":"友愛街２７巷２７號","OBJECTID":432776},"geometry":{"x":174153.45000000019,"y":2570418.5600000042}},{"attributes":{"ID":432802,"DIS_CODE":0,"TOWNNAME":"下營區","LI":"仁里里","LIN":"13鄰","STREET":"友愛街","SECT":" ","MAREA":" ","LANE":"６７巷","ALLEY":" ","HOUSE_NO":"１號","E_COORD97":174150.70000000001,"N_COORD97":2570447.7000000002,"ADDRESS":"友愛街６７巷１號","OBJECTID":432777},"geometry":{"x":174150.70000000112,"y":2570447.7000000011}},{"attributes":{"ID":432803,"DIS_CODE":0,"TOWNNAME":"下營區","LI":"仁里里","LIN":"13鄰","STREET":"友愛街","SECT":" ","MAREA":" ","LANE":"９７巷","ALLEY":" ","HOUSE_NO":"１７號","E_COORD97":174129.70000000001,"N_COORD97":2570511.1800000002,"ADDRESS":"友愛街９７巷１７號","OBJECTID":432778},"geometry":{"x":174129.70000000019,"y":2570511.1799999997}},{"attributes":{"ID":432804,"DIS_CODE":0,"TOWNNAME":"下營區","LI":"仁里里","LIN":"13鄰","STREET":"友愛街","SECT":" ","MAREA":" ","LANE":"９７巷","ALLEY":" ","HOUSE_NO":"１９號","E_COORD97":174122.64999999999,"N_COORD97":2570510.9500000002,"ADDRESS":"友愛街９７巷１９號","OBJECTID":432779},"geometry":{"x":174122.6500000013,"y":2570510.9500000011}},{"attributes":{"ID":432805,"DIS_CODE":0,"TOWNNAME":"下營區","LI":"仁里里","LIN":"13鄰","STREET":"友愛街","SECT":" ","MAREA":" ","LANE":"９７巷","ALLEY":" ","HOUSE_NO":"２１號","E_COORD97":174116.78,"N_COORD97":2570511.1899999999,"ADDRESS":"友愛街９７巷２１號","OBJECTID":432780},"geometry":{"x":174116.78000000119,"y":2570511.1899999976}},{"attributes":{"ID":432806,"DIS_CODE":0,"TOWNNAME":"下營區","LI":"仁里里","LIN":"13鄰","STREET":"友愛街","SECT":" ","MAREA":" ","LANE":"９７巷","ALLEY":" ","HOUSE_NO":"２３號","E_COORD97":174112.84,"N_COORD97":2570511.4700000002,"ADDRESS":"友愛街９７巷２３號","OBJECTID":432781},"geometry":{"x":174112.83999999985,"y":2570511.4700000025}},{"attributes":{"ID":432807,"DIS_CODE":0,"TOWNNAME":"下營區","LI":"仁里里","LIN":"13鄰","STREET":"友愛街","SECT":" ","MAREA":" ","LANE":"９７巷","ALLEY":" ","HOUSE_NO":"２５號","E_COORD97":174108.31,"N_COORD97":2570511.5299999998,"ADDRESS":"友愛街９７巷２５號","OBJECTID":432782},"geometry":{"x":174108.31000000145,"y":2570511.5299999993}},{"attributes":{"ID":432808,"DIS_CODE":0,"TOWNNAME":"下營區","LI":"營前里","LIN":"14鄰","STREET":"文明街","SECT":" ","MAREA":" ","LANE":"４２巷","ALLEY":" ","HOUSE_NO":"１３號","E_COORD97":174698.32000000001,"N_COORD97":2570397.2200000002,"ADDRESS":"文明街４２巷１３號","OBJECTID":432783},"geometry":{"x":174698.3200000003,"y":2570397.2200000044}},{"attributes":{"ID":432809,"DIS_CODE":0,"TOWNNAME":"下營區","LI":"營前里","LIN":"14鄰","STREET":"文明街","SECT":" ","MAREA":" ","LANE":"６８巷","ALLEY":" ","HOUSE_NO":"２號","E_COORD97":174648.39999999999,"N_COORD97":2570362.5,"ADDRESS":"文明街６８巷２號","OBJECTID":432784},"geometry":{"x":174648.4000000013,"y":2570362.5}},{"attributes":{"ID":432810,"DIS_CODE":0,"TOWNNAME":"下營區","LI":"仁里里","LIN":"20鄰","STREET":"民族二街","SECT":" ","MAREA":" ","LANE":"２７巷","ALLEY":" ","HOUSE_NO":"１０號","E_COORD97":174287.69,"N_COORD97":2570487.2200000002,"ADDRESS":"民族二街２７巷１０號","OBJECTID":432785},"geometry":{"x":174287.69000000041,"y":2570487.2200000007}},{"attributes":{"ID":432811,"DIS_CODE":0,"TOWNNAME":"下營區","LI":"仁里里","LIN":"20鄰","STREET":"民族二街","SECT":" ","MAREA":" ","LANE":"２７巷","ALLEY":" ","HOUSE_NO":"６號","E_COORD97":174289.48999999999,"N_COORD97":2570478.4700000002,"ADDRESS":"民族二街２７巷６號","OBJECTID":432786},"geometry":{"x":174289.49000000115,"y":2570478.4700000025}},{"attributes":{"ID":432812,"DIS_CODE":0,"TOWNNAME":"下營區","LI":"仁里里","LIN":"20鄰","STREET":"民族二街","SECT":" ","MAREA":" ","LANE":"２７巷","ALLEY":" ","HOUSE_NO":"８號","E_COORD97":174288.60999999999,"N_COORD97":2570483,"ADDRESS":"民族二街２７巷８號","OBJECTID":432787},"geometry":{"x":174288.61000000127,"y":2570483.0000000037}},{"attributes":{"ID":432813,"DIS_CODE":0,"TOWNNAME":"下營區","LI":"下營里","LIN":"17鄰","STREET":"民權一街","SECT":" ","MAREA":" ","LANE":"６１巷","ALLEY":" ","HOUSE_NO":"１１號","E_COORD97":174394.13,"N_COORD97":2570623.75,"ADDRESS":"民權一街６１巷１１號","OBJECTID":432788},"geometry":{"x":174394.12999999989,"y":2570623.7500000019}},{"attributes":{"ID":432814,"DIS_CODE":0,"TOWNNAME":"下營區","LI":"下營里","LIN":"17鄰","STREET":"民權一街","SECT":" ","MAREA":" ","LANE":"６１巷","ALLEY":" ","HOUSE_NO":"１５號","E_COORD97":174388.06,"N_COORD97":2570640.8199999998,"ADDRESS":"民權一街６１巷１５號","OBJECTID":432789},"geometry":{"x":174388.06000000145,"y":2570640.8200000022}},{"attributes":{"ID":432815,"DIS_CODE":0,"TOWNNAME":"下營區","LI":"下營里","LIN":"17鄰","STREET":"民權一街","SECT":" ","MAREA":" ","LANE":"６１巷","ALLEY":" ","HOUSE_NO":"９號","E_COORD97":174390.70000000001,"N_COORD97":2570608.2400000002,"ADDRESS":"民權一街６１巷９號","OBJECTID":432790},"geometry":{"x":174390.70000000019,"y":2570608.2400000021}},{"attributes":{"ID":432816,"DIS_CODE":0,"TOWNNAME":"下營區","LI":"後街里","LIN":"10鄰","STREET":"民權一街","SECT":" ","MAREA":" ","LANE":"６１巷","ALLEY":" ","HOUSE_NO":"１２號","E_COORD97":174402.92000000001,"N_COORD97":2570652.0099999998,"ADDRESS":"民權一街６１巷１２號","OBJECTID":432791},"geometry":{"x":174402.92000000179,"y":2570652.0100000035}},{"attributes":{"ID":432817,"DIS_CODE":0,"TOWNNAME":"下營區","LI":"下營里","LIN":"16鄰","STREET":"民權一街","SECT":" ","MAREA":" ","LANE":"６１巷","ALLEY":" ","HOUSE_NO":"５號","E_COORD97":174401.84,"N_COORD97":2570594.1800000002,"ADDRESS":"民權一街６１巷５號","OBJECTID":432792},"geometry":{"x":174401.84000000078,"y":2570594.1800000016}},{"attributes":{"ID":432818,"DIS_CODE":0,"TOWNNAME":"下營區","LI":"宅內里","LIN":"13鄰","STREET":"玄德街","SECT":" ","MAREA":" ","LANE":"４３巷","ALLEY":" ","HOUSE_NO":"２１號","E_COORD97":174272.28,"N_COORD97":2570577.73,"ADDRESS":"玄德街４３巷２１號","OBJECTID":432793},"geometry":{"x":174272.28000000119,"y":2570577.7300000023}},{"attributes":{"ID":432819,"DIS_CODE":0,"TOWNNAME":"下營區","LI":"新興里","LIN":"8鄰","STREET":"自由街","SECT":" ","MAREA":" ","LANE":"２１巷","ALLEY":" ","HOUSE_NO":"１３號","E_COORD97":174728.06,"N_COORD97":2570671.8799999999,"ADDRESS":"自由街２１巷１３號","OBJECTID":432794},"geometry":{"x":174728.05999999959,"y":2570671.879999999}},{"attributes":{"ID":432820,"DIS_CODE":0,"TOWNNAME":"下營區","LI":"新興里","LIN":"8鄰","STREET":"自由街","SECT":" ","MAREA":" ","LANE":"２１巷","ALLEY":" ","HOUSE_NO":"７號","E_COORD97":174738.06,"N_COORD97":2570672.1099999999,"ADDRESS":"自由街２１巷７號","OBJECTID":432795},"geometry":{"x":174738.06000000052,"y":2570672.1100000013}},{"attributes":{"ID":432821,"DIS_CODE":0,"TOWNNAME":"下營區","LI":"新興里","LIN":"1鄰","STREET":"自由街","SECT":" ","MAREA":" ","LANE":"６０巷","ALLEY":" ","HOUSE_NO":"３號","E_COORD97":174815.01000000001,"N_COORD97":2570809.98,"ADDRESS":"自由街６０巷３號","OBJECTID":432796},"geometry":{"x":174815.00999999978,"y":2570809.9800000023}},{"attributes":{"ID":432822,"DIS_CODE":0,"TOWNNAME":"下營區","LI":"新興里","LIN":"1鄰","STREET":"自由街","SECT":" ","MAREA":" ","LANE":"６０巷","ALLEY":" ","HOUSE_NO":"９號","E_COORD97":174831.39000000001,"N_COORD97":2570814.8799999999,"ADDRESS":"自由街６０巷９號","OBJECTID":432797},"geometry":{"x":174831.38999999966,"y":2570814.8800000027}},{"attributes":{"ID":432823,"DIS_CODE":0,"TOWNNAME":"下營區","LI":"營前里","LIN":"18鄰","STREET":"健康路","SECT":" ","MAREA":" ","LANE":"１５３巷","ALLEY":" ","HOUSE_NO":"１號","E_COORD97":174905.10000000001,"N_COORD97":2570254.8300000001,"ADDRESS":"健康路１５３巷１號","OBJECTID":432798},"geometry":{"x":174905.10000000056,"y":2570254.8300000019}},{"attributes":{"ID":432824,"DIS_CODE":0,"TOWNNAME":"下營區","LI":"營前里","LIN":"19鄰","STREET":"健康路","SECT":" ","MAREA":" ","LANE":"１５３巷","ALLEY":" ","HOUSE_NO":"１６號","E_COORD97":174922.5,"N_COORD97":2570267.1499999999,"ADDRESS":"健康路１５３巷１６號","OBJECTID":432799},"geometry":{"x":174922.5,"y":2570267.1500000004}},{"attributes":{"ID":432825,"DIS_CODE":0,"TOWNNAME":"下營區","LI":"營前里","LIN":"19鄰","STREET":"健康路","SECT":" ","MAREA":" ","LANE":"１５３巷","ALLEY":" ","HOUSE_NO":"２０號","E_COORD97":174917.72,"N_COORD97":2570287.1899999999,"ADDRESS":"健康路１５３巷２０號","OBJECTID":432800},"geometry":{"x":174917.7200000016,"y":2570287.1899999995}}]}