{"displayFieldName":"TOWNNAME","fieldAliases":{"ID":"ID","DIS_CODE":"DIS_CODE","TOWNNAME":"TOWNNAME","LI":"LI","LIN":"LIN","STREET":"STREET","SECT":"SECT","MAREA":"MAREA","LANE":"LANE","ALLEY":"ALLEY","HOUSE_NO":"HOUSE_NO","E_COORD97":"E_COORD97","N_COORD97":"N_COORD97","ADDRESS":"ADDRESS","OBJECTID":"OBJECTID"},"geometryType":"esriGeometryPoint","spatialReference":{"wkid":102443,"latestWkid":3826},"fields":[{"name":"ID","type":"esriFieldTypeDouble","alias":"ID"},{"name":"DIS_CODE","type":"esriFieldTypeInteger","alias":"DIS_CODE"},{"name":"TOWNNAME","type":"esriFieldTypeString","alias":"TOWNNAME","length":8},{"name":"LI","type":"esriFieldTypeString","alias":"LI","length":8},{"name":"LIN","type":"esriFieldTypeString","alias":"LIN","length":12},{"name":"STREET","type":"esriFieldTypeString","alias":"STREET","length":20},{"name":"SECT","type":"esriFieldTypeString","alias":"SECT","length":8},{"name":"MAREA","type":"esriFieldTypeString","alias":"MAREA","length":12},{"name":"LANE","type":"esriFieldTypeString","alias":"LANE","length":10},{"name":"ALLEY","type":"esriFieldTypeString","alias":"ALLEY","length":10},{"name":"HOUSE_NO","type":"esriFieldTypeString","alias":"HOUSE_NO","length":20},{"name":"E_COORD97","type":"esriFieldTypeDouble","alias":"E_COORD97"},{"name":"N_COORD97","type":"esriFieldTypeDouble","alias":"N_COORD97"},{"name":"ADDRESS","type":"esriFieldTypeString","alias":"ADDRESS","length":50},{"name":"OBJECTID","type":"esriFieldTypeOID","alias":"OBJECTID"}],"features":[{"attributes":{"ID":235605,"DIS_CODE":0,"TOWNNAME":"中西區","LI":"水仙里","LIN":"13鄰","STREET":"西門路","SECT":"二段","MAREA":" ","LANE":"３０７巷","ALLEY":" ","HOUSE_NO":"９號二樓之２","E_COORD97":167930.26999999999,"N_COORD97":2544146.48,"ADDRESS":"西門路二段３０７巷９號二樓之２","OBJECTID":235601},"geometry":{"x":167930.27000000048,"y":2544146.4800000004}},{"attributes":{"ID":235606,"DIS_CODE":0,"TOWNNAME":"中西區","LI":"水仙里","LIN":"13鄰","STREET":"西門路","SECT":"二段","MAREA":" ","LANE":"３０７巷","ALLEY":" ","HOUSE_NO":"９號三樓之１","E_COORD97":167930.26999999999,"N_COORD97":2544146.48,"ADDRESS":"西門路二段３０７巷９號三樓之１","OBJECTID":235602},"geometry":{"x":167930.27000000048,"y":2544146.4800000004}},{"attributes":{"ID":235607,"DIS_CODE":0,"TOWNNAME":"仁德區","LI":"仁愛里","LIN":"16鄰","STREET":" ","SECT":" ","MAREA":"仁愛","LANE":" ","ALLEY":" ","HOUSE_NO":"３３０號","E_COORD97":170227.65584200001,"N_COORD97":2539964.77,"ADDRESS":"仁愛３３０號","OBJECTID":235603},"geometry":{"x":170227.65584199969,"y":2539964.7700000014}},{"attributes":{"ID":235608,"DIS_CODE":0,"TOWNNAME":"仁德區","LI":"仁愛里","LIN":"16鄰","STREET":" ","SECT":" ","MAREA":"仁愛","LANE":" ","ALLEY":" ","HOUSE_NO":"３３５號","E_COORD97":170202.02141399999,"N_COORD97":2539964.77,"ADDRESS":"仁愛３３５號","OBJECTID":235604},"geometry":{"x":170202.02141400054,"y":2539964.7700000014}},{"attributes":{"ID":235609,"DIS_CODE":0,"TOWNNAME":"佳里區","LI":"民安里","LIN":"16鄰","STREET":" ","SECT":" ","MAREA":"新宅","LANE":" ","ALLEY":" ","HOUSE_NO":"４２號之２","E_COORD97":167550.78,"N_COORD97":2564707.3500000001,"ADDRESS":"新宅４２號之２","OBJECTID":235605},"geometry":{"x":167550.78000000119,"y":2564707.3500000015}},{"attributes":{"ID":235610,"DIS_CODE":0,"TOWNNAME":"佳里區","LI":"民安里","LIN":"16鄰","STREET":" ","SECT":" ","MAREA":"新宅","LANE":" ","ALLEY":" ","HOUSE_NO":"４２號之３","E_COORD97":167507.70000000001,"N_COORD97":2564717.6099999999,"ADDRESS":"新宅４２號之３","OBJECTID":235606},"geometry":{"x":167507.70000000112,"y":2564717.6100000031}},{"attributes":{"ID":235611,"DIS_CODE":0,"TOWNNAME":"佳里區","LI":"民安里","LIN":"16鄰","STREET":" ","SECT":" ","MAREA":"新宅","LANE":" ","ALLEY":" ","HOUSE_NO":"４２號之４","E_COORD97":167549.10000000001,"N_COORD97":2564712.1099999999,"ADDRESS":"新宅４２號之４","OBJECTID":235607},"geometry":{"x":167549.09999999963,"y":2564712.1100000013}},{"attributes":{"ID":235612,"DIS_CODE":0,"TOWNNAME":"佳里區","LI":"民安里","LIN":"16鄰","STREET":" ","SECT":" ","MAREA":"新宅","LANE":" ","ALLEY":" ","HOUSE_NO":"４２號","E_COORD97":167540.04000000001,"N_COORD97":2564705.04,"ADDRESS":"新宅４２號","OBJECTID":235608},"geometry":{"x":167540.0400000019,"y":2564705.040000001}},{"attributes":{"ID":235613,"DIS_CODE":0,"TOWNNAME":"佳里區","LI":"民安里","LIN":"16鄰","STREET":" ","SECT":" ","MAREA":"新宅","LANE":" ","ALLEY":" ","HOUSE_NO":"４３號","E_COORD97":167552.70000000001,"N_COORD97":2564691.3799999999,"ADDRESS":"新宅４３號","OBJECTID":235609},"geometry":{"x":167552.70000000205,"y":2564691.379999999}},{"attributes":{"ID":235614,"DIS_CODE":0,"TOWNNAME":"中西區","LI":"水仙里","LIN":"13鄰","STREET":"西門路","SECT":"二段","MAREA":" ","LANE":"３０７巷","ALLEY":" ","HOUSE_NO":"９號三樓之２","E_COORD97":167930.26999999999,"N_COORD97":2544146.48,"ADDRESS":"西門路二段３０７巷９號三樓之２","OBJECTID":235610},"geometry":{"x":167930.27000000048,"y":2544146.4800000004}},{"attributes":{"ID":235615,"DIS_CODE":0,"TOWNNAME":"中西區","LI":"水仙里","LIN":"13鄰","STREET":"西門路","SECT":"二段","MAREA":" ","LANE":"３０７巷","ALLEY":" ","HOUSE_NO":"９號五樓之１","E_COORD97":167930.26999999999,"N_COORD97":2544146.48,"ADDRESS":"西門路二段３０７巷９號五樓之１","OBJECTID":235611},"geometry":{"x":167930.27000000048,"y":2544146.4800000004}},{"attributes":{"ID":235616,"DIS_CODE":0,"TOWNNAME":"中西區","LI":"水仙里","LIN":"13鄰","STREET":"西門路","SECT":"二段","MAREA":" ","LANE":"３０７巷","ALLEY":" ","HOUSE_NO":"９號五樓之２","E_COORD97":167930.26999999999,"N_COORD97":2544146.48,"ADDRESS":"西門路二段３０７巷９號五樓之２","OBJECTID":235612},"geometry":{"x":167930.27000000048,"y":2544146.4800000004}},{"attributes":{"ID":235617,"DIS_CODE":0,"TOWNNAME":"中西區","LI":"水仙里","LIN":"13鄰","STREET":"西門路","SECT":"二段","MAREA":" ","LANE":"３０７巷","ALLEY":" ","HOUSE_NO":"９號六樓之１","E_COORD97":167930.26999999999,"N_COORD97":2544146.48,"ADDRESS":"西門路二段３０７巷９號六樓之１","OBJECTID":235613},"geometry":{"x":167930.27000000048,"y":2544146.4800000004}},{"attributes":{"ID":235618,"DIS_CODE":0,"TOWNNAME":"西港區","LI":"慶安里","LIN":"14鄰","STREET":"進學街","SECT":" ","MAREA":" ","LANE":" ","ALLEY":" ","HOUSE_NO":"９５號七樓之３","E_COORD97":168020.51999999999,"N_COORD97":2558028.7200000002,"ADDRESS":"進學街９５號七樓之３","OBJECTID":235614},"geometry":{"x":168020.51999999955,"y":2558028.7200000007}},{"attributes":{"ID":235619,"DIS_CODE":0,"TOWNNAME":"佳里區","LI":"民安里","LIN":"16鄰","STREET":" ","SECT":" ","MAREA":"新宅","LANE":" ","ALLEY":" ","HOUSE_NO":"４５號","E_COORD97":167541.01000000001,"N_COORD97":2564668.3199999998,"ADDRESS":"新宅４５號","OBJECTID":235615},"geometry":{"x":167541.00999999978,"y":2564668.3200000003}},{"attributes":{"ID":235620,"DIS_CODE":0,"TOWNNAME":"西港區","LI":"慶安里","LIN":"14鄰","STREET":"進學街","SECT":" ","MAREA":" ","LANE":" ","ALLEY":" ","HOUSE_NO":"９５號二樓","E_COORD97":168020.51999999999,"N_COORD97":2558028.7200000002,"ADDRESS":"進學街９５號二樓","OBJECTID":235616},"geometry":{"x":168020.51999999955,"y":2558028.7200000007}},{"attributes":{"ID":235621,"DIS_CODE":0,"TOWNNAME":"佳里區","LI":"民安里","LIN":"16鄰","STREET":" ","SECT":" ","MAREA":"新宅","LANE":" ","ALLEY":" ","HOUSE_NO":"４６號之１０","E_COORD97":167329.92000000001,"N_COORD97":2564649.9900000002,"ADDRESS":"新宅４６號之１０","OBJECTID":235617},"geometry":{"x":167329.91999999993,"y":2564649.9900000002}},{"attributes":{"ID":235622,"DIS_CODE":0,"TOWNNAME":"佳里區","LI":"民安里","LIN":"16鄰","STREET":" ","SECT":" ","MAREA":"新宅","LANE":" ","ALLEY":" ","HOUSE_NO":"４６號之１","E_COORD97":167563.54999999999,"N_COORD97":2564627.2000000002,"ADDRESS":"新宅４６號之１","OBJECTID":235618},"geometry":{"x":167563.55000000168,"y":2564627.1999999993}},{"attributes":{"ID":235623,"DIS_CODE":0,"TOWNNAME":"佳里區","LI":"民安里","LIN":"16鄰","STREET":" ","SECT":" ","MAREA":"新宅","LANE":" ","ALLEY":" ","HOUSE_NO":"４６號之２","E_COORD97":167564.79000000001,"N_COORD97":2564643.1499999999,"ADDRESS":"新宅４６號之２","OBJECTID":235619},"geometry":{"x":167564.79000000004,"y":2564643.1500000004}},{"attributes":{"ID":235624,"DIS_CODE":0,"TOWNNAME":"佳里區","LI":"民安里","LIN":"16鄰","STREET":" ","SECT":" ","MAREA":"新宅","LANE":" ","ALLEY":" ","HOUSE_NO":"４６號之７","E_COORD97":167482.19,"N_COORD97":2564637.1899999999,"ADDRESS":"新宅４６號之７","OBJECTID":235620},"geometry":{"x":167482.19000000134,"y":2564637.1900000013}},{"attributes":{"ID":235625,"DIS_CODE":0,"TOWNNAME":"佳里區","LI":"民安里","LIN":"16鄰","STREET":" ","SECT":" ","MAREA":"新宅","LANE":" ","ALLEY":" ","HOUSE_NO":"４６號之８","E_COORD97":167471.57999999999,"N_COORD97":2564641.02,"ADDRESS":"新宅４６號之８","OBJECTID":235621},"geometry":{"x":167471.58000000007,"y":2564641.0200000014}},{"attributes":{"ID":235626,"DIS_CODE":0,"TOWNNAME":"佳里區","LI":"民安里","LIN":"16鄰","STREET":" ","SECT":" ","MAREA":"新宅","LANE":" ","ALLEY":" ","HOUSE_NO":"４６號","E_COORD97":167540.10000000001,"N_COORD97":2564632.7999999998,"ADDRESS":"新宅４６號","OBJECTID":235622},"geometry":{"x":167540.09999999963,"y":2564632.8000000007}},{"attributes":{"ID":235627,"DIS_CODE":0,"TOWNNAME":"佳里區","LI":"民安里","LIN":"16鄰","STREET":" ","SECT":" ","MAREA":"新宅","LANE":" ","ALLEY":" ","HOUSE_NO":"４９號","E_COORD97":167235.56,"N_COORD97":2564653.4500000002,"ADDRESS":"新宅４９號","OBJECTID":235623},"geometry":{"x":167235.55999999959,"y":2564653.4499999993}},{"attributes":{"ID":235628,"DIS_CODE":0,"TOWNNAME":"佳里區","LI":"民安里","LIN":"16鄰","STREET":" ","SECT":" ","MAREA":"新宅","LANE":" ","ALLEY":" ","HOUSE_NO":"５０號之１","E_COORD97":166948.07000000001,"N_COORD97":2564665.73,"ADDRESS":"新宅５０號之１","OBJECTID":235624},"geometry":{"x":166948.0700000003,"y":2564665.7300000004}},{"attributes":{"ID":235629,"DIS_CODE":0,"TOWNNAME":"佳里區","LI":"民安里","LIN":"16鄰","STREET":" ","SECT":" ","MAREA":"新宅","LANE":" ","ALLEY":" ","HOUSE_NO":"５０號","E_COORD97":166953.17000000001,"N_COORD97":2564665.9700000002,"ADDRESS":"新宅５０號","OBJECTID":235625},"geometry":{"x":166953.17000000086,"y":2564665.9700000044}},{"attributes":{"ID":235630,"DIS_CODE":0,"TOWNNAME":"佳里區","LI":"民安里","LIN":"16鄰","STREET":" ","SECT":" ","MAREA":"新宅","LANE":" ","ALLEY":" ","HOUSE_NO":"５１號","E_COORD97":166787.19,"N_COORD97":2564684.3599999999,"ADDRESS":"新宅５１號","OBJECTID":235626},"geometry":{"x":166787.19000000134,"y":2564684.3599999994}},{"attributes":{"ID":235631,"DIS_CODE":0,"TOWNNAME":"永康區","LI":"正強里","LIN":"16鄰","STREET":"自強路","SECT":" ","MAREA":" ","LANE":"１８８巷","ALLEY":" ","HOUSE_NO":"１２號","E_COORD97":173191.45000000001,"N_COORD97":2547490.73,"ADDRESS":"自強路１８８巷１２號","OBJECTID":235627},"geometry":{"x":173191.45000000112,"y":2547490.7300000004}},{"attributes":{"ID":235632,"DIS_CODE":0,"TOWNNAME":"永康區","LI":"安康里","LIN":"16鄰","STREET":"中華路","SECT":" ","MAREA":" ","LANE":"６６１巷","ALLEY":" ","HOUSE_NO":"８９號","E_COORD97":170838.39999999999,"N_COORD97":2546128.5,"ADDRESS":"中華路６６１巷８９號","OBJECTID":235628},"geometry":{"x":170838.39999999944,"y":2546128.5}},{"attributes":{"ID":235633,"DIS_CODE":0,"TOWNNAME":"永康區","LI":"安康里","LIN":"16鄰","STREET":"中華路","SECT":" ","MAREA":" ","LANE":"６６１巷","ALLEY":" ","HOUSE_NO":"８７號","E_COORD97":170841.54000000001,"N_COORD97":2546130.75,"ADDRESS":"中華路６６１巷８７號","OBJECTID":235629},"geometry":{"x":170841.54000000004,"y":2546130.75}},{"attributes":{"ID":235634,"DIS_CODE":0,"TOWNNAME":"永康區","LI":"永康里","LIN":"16鄰","STREET":"永中街","SECT":" ","MAREA":" ","LANE":"１００巷","ALLEY":" ","HOUSE_NO":"３５號","E_COORD97":174050.38,"N_COORD97":2547155.6699999999,"ADDRESS":"永中街１００巷３５號","OBJECTID":235630},"geometry":{"x":174050.37999999989,"y":2547155.6700000037}},{"attributes":{"ID":235635,"DIS_CODE":0,"TOWNNAME":"中西區","LI":"水仙里","LIN":"13鄰","STREET":"西門路","SECT":"二段","MAREA":" ","LANE":"３０７巷","ALLEY":" ","HOUSE_NO":"９號四樓之１","E_COORD97":167930.26999999999,"N_COORD97":2544146.48,"ADDRESS":"西門路二段３０７巷９號四樓之１","OBJECTID":235631},"geometry":{"x":167930.27000000048,"y":2544146.4800000004}},{"attributes":{"ID":235636,"DIS_CODE":0,"TOWNNAME":"中西區","LI":"水仙里","LIN":"13鄰","STREET":"西門路","SECT":"二段","MAREA":" ","LANE":"３０７巷","ALLEY":" ","HOUSE_NO":"９號四樓之２","E_COORD97":167930.26999999999,"N_COORD97":2544146.48,"ADDRESS":"西門路二段３０７巷９號四樓之２","OBJECTID":235632},"geometry":{"x":167930.27000000048,"y":2544146.4800000004}},{"attributes":{"ID":235637,"DIS_CODE":0,"TOWNNAME":"中西區","LI":"銀同里","LIN":"13鄰","STREET":"開山路","SECT":" ","MAREA":" ","LANE":"２９巷","ALLEY":" ","HOUSE_NO":"２２號一樓之１","E_COORD97":168618.32999999999,"N_COORD97":2543560.9199999999,"ADDRESS":"開山路２９巷２２號一樓之１","OBJECTID":235633},"geometry":{"x":168618.33000000101,"y":2543560.9200000018}},{"attributes":{"ID":235638,"DIS_CODE":0,"TOWNNAME":"中西區","LI":"銀同里","LIN":"13鄰","STREET":"開山路","SECT":" ","MAREA":" ","LANE":"２９巷","ALLEY":" ","HOUSE_NO":"２２號一樓之２","E_COORD97":168618.89000000001,"N_COORD97":2543563.1299999999,"ADDRESS":"開山路２９巷２２號一樓之２","OBJECTID":235634},"geometry":{"x":168618.89000000153,"y":2543563.129999999}},{"attributes":{"ID":235639,"DIS_CODE":0,"TOWNNAME":"中西區","LI":"銀同里","LIN":"13鄰","STREET":"開山路","SECT":" ","MAREA":" ","LANE":"２９巷","ALLEY":" ","HOUSE_NO":"２２號一樓之３","E_COORD97":168619.03,"N_COORD97":2543565.4900000002,"ADDRESS":"開山路２９巷２２號一樓之３","OBJECTID":235635},"geometry":{"x":168619.03000000119,"y":2543565.4900000002}},{"attributes":{"ID":235640,"DIS_CODE":0,"TOWNNAME":"中西區","LI":"銀同里","LIN":"13鄰","STREET":"開山路","SECT":" ","MAREA":" ","LANE":"２９巷","ALLEY":" ","HOUSE_NO":"２２號一樓之４","E_COORD97":168619.17000000001,"N_COORD97":2543568.1200000001,"ADDRESS":"開山路２９巷２２號一樓之４","OBJECTID":235636},"geometry":{"x":168619.17000000086,"y":2543568.1200000029}},{"attributes":{"ID":235641,"DIS_CODE":0,"TOWNNAME":"中西區","LI":"銀同里","LIN":"13鄰","STREET":"開山路","SECT":" ","MAREA":" ","LANE":"２９巷","ALLEY":" ","HOUSE_NO":"２２號二樓之１","E_COORD97":168618.32999999999,"N_COORD97":2543560.9199999999,"ADDRESS":"開山路２９巷２２號二樓之１","OBJECTID":235637},"geometry":{"x":168618.33000000101,"y":2543560.9200000018}},{"attributes":{"ID":235642,"DIS_CODE":0,"TOWNNAME":"中西區","LI":"銀同里","LIN":"13鄰","STREET":"開山路","SECT":" ","MAREA":" ","LANE":"２９巷","ALLEY":" ","HOUSE_NO":"２２號二樓之２","E_COORD97":168618.89000000001,"N_COORD97":2543563.1299999999,"ADDRESS":"開山路２９巷２２號二樓之２","OBJECTID":235638},"geometry":{"x":168618.89000000153,"y":2543563.129999999}},{"attributes":{"ID":235643,"DIS_CODE":0,"TOWNNAME":"中西區","LI":"銀同里","LIN":"13鄰","STREET":"開山路","SECT":" ","MAREA":" ","LANE":"２９巷","ALLEY":" ","HOUSE_NO":"２２號二樓之３","E_COORD97":168619.03,"N_COORD97":2543565.4900000002,"ADDRESS":"開山路２９巷２２號二樓之３","OBJECTID":235639},"geometry":{"x":168619.03000000119,"y":2543565.4900000002}},{"attributes":{"ID":235644,"DIS_CODE":0,"TOWNNAME":"西港區","LI":"慶安里","LIN":"14鄰","STREET":"進學街","SECT":" ","MAREA":" ","LANE":" ","ALLEY":" ","HOUSE_NO":"９５號八樓之１","E_COORD97":168020.51999999999,"N_COORD97":2558028.7200000002,"ADDRESS":"進學街９５號八樓之１","OBJECTID":235640},"geometry":{"x":168020.51999999955,"y":2558028.7200000007}},{"attributes":{"ID":235645,"DIS_CODE":0,"TOWNNAME":"西港區","LI":"慶安里","LIN":"14鄰","STREET":"進學街","SECT":" ","MAREA":" ","LANE":" ","ALLEY":" ","HOUSE_NO":"９５號八樓之２","E_COORD97":168020.51999999999,"N_COORD97":2558028.7200000002,"ADDRESS":"進學街９５號八樓之２","OBJECTID":235641},"geometry":{"x":168020.51999999955,"y":2558028.7200000007}},{"attributes":{"ID":235646,"DIS_CODE":0,"TOWNNAME":"西港區","LI":"慶安里","LIN":"14鄰","STREET":"進學街","SECT":" ","MAREA":" ","LANE":" ","ALLEY":" ","HOUSE_NO":"９５號八樓之３","E_COORD97":168020.51999999999,"N_COORD97":2558028.7200000002,"ADDRESS":"進學街９５號八樓之３","OBJECTID":235642},"geometry":{"x":168020.51999999955,"y":2558028.7200000007}},{"attributes":{"ID":235647,"DIS_CODE":0,"TOWNNAME":"西港區","LI":"慶安里","LIN":"14鄰","STREET":"進學街","SECT":" ","MAREA":" ","LANE":" ","ALLEY":" ","HOUSE_NO":"９５號三樓之１","E_COORD97":168020.51999999999,"N_COORD97":2558028.7200000002,"ADDRESS":"進學街９５號三樓之１","OBJECTID":235643},"geometry":{"x":168020.51999999955,"y":2558028.7200000007}},{"attributes":{"ID":235648,"DIS_CODE":0,"TOWNNAME":"西港區","LI":"慶安里","LIN":"14鄰","STREET":"進學街","SECT":" ","MAREA":" ","LANE":" ","ALLEY":" ","HOUSE_NO":"９５號三樓之２","E_COORD97":168020.51999999999,"N_COORD97":2558028.7200000002,"ADDRESS":"進學街９５號三樓之２","OBJECTID":235644},"geometry":{"x":168020.51999999955,"y":2558028.7200000007}},{"attributes":{"ID":235649,"DIS_CODE":0,"TOWNNAME":"永康區","LI":"西勢里","LIN":"16鄰","STREET":"西勢路","SECT":" ","MAREA":" ","LANE":"６６巷","ALLEY":" ","HOUSE_NO":"２７號","E_COORD97":176129.51999999999,"N_COORD97":2546833.54,"ADDRESS":"西勢路６６巷２７號","OBJECTID":235645},"geometry":{"x":176129.52000000048,"y":2546833.5400000028}},{"attributes":{"ID":235650,"DIS_CODE":0,"TOWNNAME":"永康區","LI":"復華里","LIN":"16鄰","STREET":"國華街","SECT":" ","MAREA":" ","LANE":"１０２巷","ALLEY":" ","HOUSE_NO":"８１號","E_COORD97":172931.09,"N_COORD97":2546174.2999999998,"ADDRESS":"國華街１０２巷８１號","OBJECTID":235646},"geometry":{"x":172931.09000000078,"y":2546174.3000000007}},{"attributes":{"ID":235651,"DIS_CODE":0,"TOWNNAME":"永康區","LI":"復興里","LIN":"16鄰","STREET":"復興路","SECT":" ","MAREA":" ","LANE":"３５６巷","ALLEY":" ","HOUSE_NO":"３９號之１","E_COORD97":172285.06,"N_COORD97":2544447.0499999998,"ADDRESS":"復興路３５６巷３９號之１","OBJECTID":235647},"geometry":{"x":172285.06000000052,"y":2544447.0500000007}},{"attributes":{"ID":235652,"DIS_CODE":0,"TOWNNAME":"永康區","LI":"烏竹里","LIN":"16鄰","STREET":"龍橋街","SECT":" ","MAREA":" ","LANE":"１８６巷","ALLEY":" ","HOUSE_NO":"６３號","E_COORD97":174772.92000000001,"N_COORD97":2548834.6499999999,"ADDRESS":"龍橋街１８６巷６３號","OBJECTID":235648},"geometry":{"x":174772.92000000086,"y":2548834.6500000041}},{"attributes":{"ID":235653,"DIS_CODE":0,"TOWNNAME":"永康區","LI":"烏竹里","LIN":"16鄰","STREET":"龍橋街","SECT":" ","MAREA":" ","LANE":"１８６巷","ALLEY":" ","HOUSE_NO":"４６號","E_COORD97":174713.73000000001,"N_COORD97":2548803.75,"ADDRESS":"龍橋街１８６巷４６號","OBJECTID":235649},"geometry":{"x":174713.73000000138,"y":2548803.7500000019}},{"attributes":{"ID":235654,"DIS_CODE":0,"TOWNNAME":"永康區","LI":"永康里","LIN":"16鄰","STREET":"永中街","SECT":" ","MAREA":" ","LANE":"１００巷","ALLEY":" ","HOUSE_NO":"２３號","E_COORD97":174002.97,"N_COORD97":2547178.1499999999,"ADDRESS":"永中街１００巷２３號","OBJECTID":235650},"geometry":{"x":174002.97000000067,"y":2547178.1500000022}},{"attributes":{"ID":235655,"DIS_CODE":0,"TOWNNAME":"永康區","LI":"永康里","LIN":"16鄰","STREET":"永中街","SECT":" ","MAREA":" ","LANE":"１００巷","ALLEY":" ","HOUSE_NO":"３９號","E_COORD97":174061.56,"N_COORD97":2547143.73,"ADDRESS":"永中街１００巷３９號","OBJECTID":235651},"geometry":{"x":174061.56000000052,"y":2547143.7300000023}},{"attributes":{"ID":235656,"DIS_CODE":0,"TOWNNAME":"永康區","LI":"王行里","LIN":"16鄰","STREET":"中山北路","SECT":" ","MAREA":" ","LANE":"８８５巷","ALLEY":" ","HOUSE_NO":"３號","E_COORD97":176242.07000000001,"N_COORD97":2548143.8300000001,"ADDRESS":"中山北路８８５巷３號","OBJECTID":235652},"geometry":{"x":176242.07000000123,"y":2548143.8300000001}},{"attributes":{"ID":235657,"DIS_CODE":0,"TOWNNAME":"永康區","LI":"復國里","LIN":"16鄰","STREET":"復國二路","SECT":" ","MAREA":" ","LANE":"１９０巷","ALLEY":" ","HOUSE_NO":"７號","E_COORD97":172968.51000000001,"N_COORD97":2545760.27,"ADDRESS":"復國二路１９０巷７號","OBJECTID":235653},"geometry":{"x":172968.51000000071,"y":2545760.2699999996}},{"attributes":{"ID":235658,"DIS_CODE":0,"TOWNNAME":"中西區","LI":"銀同里","LIN":"13鄰","STREET":"開山路","SECT":" ","MAREA":" ","LANE":"２９巷","ALLEY":" ","HOUSE_NO":"２２號二樓之４","E_COORD97":168619.17000000001,"N_COORD97":2543568.1200000001,"ADDRESS":"開山路２９巷２２號二樓之４","OBJECTID":235654},"geometry":{"x":168619.17000000086,"y":2543568.1200000029}},{"attributes":{"ID":235659,"DIS_CODE":0,"TOWNNAME":"中西區","LI":"銀同里","LIN":"13鄰","STREET":"開山路","SECT":" ","MAREA":" ","LANE":"２９巷","ALLEY":" ","HOUSE_NO":"２２號三樓之１","E_COORD97":168618.32999999999,"N_COORD97":2543560.9199999999,"ADDRESS":"開山路２９巷２２號三樓之１","OBJECTID":235655},"geometry":{"x":168618.33000000101,"y":2543560.9200000018}},{"attributes":{"ID":235660,"DIS_CODE":0,"TOWNNAME":"中西區","LI":"銀同里","LIN":"13鄰","STREET":"開山路","SECT":" ","MAREA":" ","LANE":"２９巷","ALLEY":" ","HOUSE_NO":"２２號三樓之２","E_COORD97":168618.89000000001,"N_COORD97":2543563.1299999999,"ADDRESS":"開山路２９巷２２號三樓之２","OBJECTID":235656},"geometry":{"x":168618.89000000153,"y":2543563.129999999}},{"attributes":{"ID":235661,"DIS_CODE":0,"TOWNNAME":"中西區","LI":"銀同里","LIN":"13鄰","STREET":"開山路","SECT":" ","MAREA":" ","LANE":"２９巷","ALLEY":" ","HOUSE_NO":"２２號三樓之３","E_COORD97":168619.03,"N_COORD97":2543565.4900000002,"ADDRESS":"開山路２９巷２２號三樓之３","OBJECTID":235657},"geometry":{"x":168619.03000000119,"y":2543565.4900000002}},{"attributes":{"ID":235662,"DIS_CODE":0,"TOWNNAME":"中西區","LI":"銀同里","LIN":"13鄰","STREET":"開山路","SECT":" ","MAREA":" ","LANE":"２９巷","ALLEY":" ","HOUSE_NO":"２２號三樓之４","E_COORD97":168619.17000000001,"N_COORD97":2543568.1200000001,"ADDRESS":"開山路２９巷２２號三樓之４","OBJECTID":235658},"geometry":{"x":168619.17000000086,"y":2543568.1200000029}},{"attributes":{"ID":235663,"DIS_CODE":0,"TOWNNAME":"中西區","LI":"銀同里","LIN":"13鄰","STREET":"開山路","SECT":" ","MAREA":" ","LANE":"２９巷","ALLEY":" ","HOUSE_NO":"２２號五樓之１","E_COORD97":168618.32999999999,"N_COORD97":2543560.9199999999,"ADDRESS":"開山路２９巷２２號五樓之１","OBJECTID":235659},"geometry":{"x":168618.33000000101,"y":2543560.9200000018}},{"attributes":{"ID":235664,"DIS_CODE":0,"TOWNNAME":"西港區","LI":"慶安里","LIN":"14鄰","STREET":"進學街","SECT":" ","MAREA":" ","LANE":" ","ALLEY":" ","HOUSE_NO":"９５號三樓之３","E_COORD97":168020.51999999999,"N_COORD97":2558028.7200000002,"ADDRESS":"進學街９５號三樓之３","OBJECTID":235660},"geometry":{"x":168020.51999999955,"y":2558028.7200000007}},{"attributes":{"ID":235665,"DIS_CODE":0,"TOWNNAME":"西港區","LI":"慶安里","LIN":"14鄰","STREET":"進學街","SECT":" ","MAREA":" ","LANE":" ","ALLEY":" ","HOUSE_NO":"９５號五樓之１","E_COORD97":168020.51999999999,"N_COORD97":2558028.7200000002,"ADDRESS":"進學街９５號五樓之１","OBJECTID":235661},"geometry":{"x":168020.51999999955,"y":2558028.7200000007}},{"attributes":{"ID":235666,"DIS_CODE":0,"TOWNNAME":"西港區","LI":"慶安里","LIN":"14鄰","STREET":"進學街","SECT":" ","MAREA":" ","LANE":" ","ALLEY":" ","HOUSE_NO":"９５號五樓之２","E_COORD97":168020.51999999999,"N_COORD97":2558028.7200000002,"ADDRESS":"進學街９５號五樓之２","OBJECTID":235662},"geometry":{"x":168020.51999999955,"y":2558028.7200000007}},{"attributes":{"ID":235667,"DIS_CODE":0,"TOWNNAME":"西港區","LI":"慶安里","LIN":"14鄰","STREET":"進學街","SECT":" ","MAREA":" ","LANE":" ","ALLEY":" ","HOUSE_NO":"９５號五樓之３","E_COORD97":168020.51999999999,"N_COORD97":2558028.7200000002,"ADDRESS":"進學街９５號五樓之３","OBJECTID":235663},"geometry":{"x":168020.51999999955,"y":2558028.7200000007}},{"attributes":{"ID":235668,"DIS_CODE":0,"TOWNNAME":"西港區","LI":"慶安里","LIN":"14鄰","STREET":"進學街","SECT":" ","MAREA":" ","LANE":" ","ALLEY":" ","HOUSE_NO":"９５號六樓之１","E_COORD97":168020.51999999999,"N_COORD97":2558028.7200000002,"ADDRESS":"進學街９５號六樓之１","OBJECTID":235664},"geometry":{"x":168020.51999999955,"y":2558028.7200000007}},{"attributes":{"ID":235669,"DIS_CODE":0,"TOWNNAME":"西港區","LI":"慶安里","LIN":"14鄰","STREET":"進學街","SECT":" ","MAREA":" ","LANE":" ","ALLEY":" ","HOUSE_NO":"９５號六樓之２","E_COORD97":168020.51999999999,"N_COORD97":2558028.7200000002,"ADDRESS":"進學街９５號六樓之２","OBJECTID":235665},"geometry":{"x":168020.51999999955,"y":2558028.7200000007}},{"attributes":{"ID":235670,"DIS_CODE":0,"TOWNNAME":"西港區","LI":"慶安里","LIN":"14鄰","STREET":"進學街","SECT":" ","MAREA":" ","LANE":" ","ALLEY":" ","HOUSE_NO":"９５號六樓之３","E_COORD97":168020.51999999999,"N_COORD97":2558028.7200000002,"ADDRESS":"進學街９５號六樓之３","OBJECTID":235666},"geometry":{"x":168020.51999999955,"y":2558028.7200000007}},{"attributes":{"ID":235671,"DIS_CODE":0,"TOWNNAME":"西港區","LI":"慶安里","LIN":"14鄰","STREET":"進學街","SECT":" ","MAREA":" ","LANE":" ","ALLEY":" ","HOUSE_NO":"９５號四樓之１","E_COORD97":168020.51999999999,"N_COORD97":2558028.7200000002,"ADDRESS":"進學街９５號四樓之１","OBJECTID":235667},"geometry":{"x":168020.51999999955,"y":2558028.7200000007}},{"attributes":{"ID":235672,"DIS_CODE":0,"TOWNNAME":"西港區","LI":"慶安里","LIN":"14鄰","STREET":"進學街","SECT":" ","MAREA":" ","LANE":" ","ALLEY":" ","HOUSE_NO":"９５號四樓之２","E_COORD97":168020.51999999999,"N_COORD97":2558028.7200000002,"ADDRESS":"進學街９５號四樓之２","OBJECTID":235668},"geometry":{"x":168020.51999999955,"y":2558028.7200000007}},{"attributes":{"ID":235673,"DIS_CODE":0,"TOWNNAME":"永康區","LI":"烏竹里","LIN":"16鄰","STREET":"龍橋街","SECT":" ","MAREA":" ","LANE":"１８６巷","ALLEY":" ","HOUSE_NO":"２７號","E_COORD97":174708.06,"N_COORD97":2548776.04,"ADDRESS":"龍橋街１８６巷２７號","OBJECTID":235669},"geometry":{"x":174708.05999999959,"y":2548776.0399999991}},{"attributes":{"ID":235674,"DIS_CODE":0,"TOWNNAME":"關廟區","LI":"新埔里","LIN":"4鄰","STREET":"新埔三街","SECT":" ","MAREA":" ","LANE":"２７巷","ALLEY":" ","HOUSE_NO":"３８號","E_COORD97":181108.29530999999,"N_COORD97":2540889.3671200001,"ADDRESS":"新埔三街２７巷３８號","OBJECTID":235670},"geometry":{"x":181108.29531000089,"y":2540889.3671169989}},{"attributes":{"ID":235675,"DIS_CODE":0,"TOWNNAME":"永康區","LI":"埔園里","LIN":"16鄰","STREET":"中山路","SECT":" ","MAREA":" ","LANE":"３８３巷","ALLEY":" ","HOUSE_NO":"１６號","E_COORD97":173487.54999999999,"N_COORD97":2548527.7400000002,"ADDRESS":"中山路３８３巷１６號","OBJECTID":235671},"geometry":{"x":173487.54999999981,"y":2548527.7400000002}},{"attributes":{"ID":235676,"DIS_CODE":0,"TOWNNAME":"永康區","LI":"烏竹里","LIN":"16鄰","STREET":"龍橋街","SECT":" ","MAREA":" ","LANE":"１８６巷","ALLEY":" ","HOUSE_NO":"３９號","E_COORD97":174729.26999999999,"N_COORD97":2548793.1000000001,"ADDRESS":"龍橋街１８６巷３９號","OBJECTID":235672},"geometry":{"x":174729.27000000048,"y":2548793.0999999996}},{"attributes":{"ID":235677,"DIS_CODE":0,"TOWNNAME":"永康區","LI":"烏竹里","LIN":"16鄰","STREET":"龍橋街","SECT":" ","MAREA":" ","LANE":"２９６巷","ALLEY":" ","HOUSE_NO":"１０號","E_COORD97":174548.07999999999,"N_COORD97":2549001.75,"ADDRESS":"龍橋街２９６巷１０號","OBJECTID":235673},"geometry":{"x":174548.08000000101,"y":2549001.75}},{"attributes":{"ID":235678,"DIS_CODE":0,"TOWNNAME":"永康區","LI":"烏竹里","LIN":"16鄰","STREET":"龍橋街","SECT":" ","MAREA":" ","LANE":"１８６巷","ALLEY":" ","HOUSE_NO":"５９號","E_COORD97":174765.78,"N_COORD97":2548828.73,"ADDRESS":"龍橋街１８６巷５９號","OBJECTID":235674},"geometry":{"x":174765.78000000119,"y":2548828.7300000023}},{"attributes":{"ID":235679,"DIS_CODE":0,"TOWNNAME":"永康區","LI":"烏竹里","LIN":"16鄰","STREET":"龍橋街","SECT":" ","MAREA":" ","LANE":"１８６巷","ALLEY":" ","HOUSE_NO":"４９號","E_COORD97":174746.04000000001,"N_COORD97":2548807.7999999998,"ADDRESS":"龍橋街１８６巷４９號","OBJECTID":235675},"geometry":{"x":174746.04000000004,"y":2548807.8000000026}},{"attributes":{"ID":235680,"DIS_CODE":0,"TOWNNAME":"永康區","LI":"烏竹里","LIN":"16鄰","STREET":"龍橋街","SECT":" ","MAREA":" ","LANE":"２９６巷","ALLEY":" ","HOUSE_NO":"１７號","E_COORD97":174562.42000000001,"N_COORD97":2549039.75,"ADDRESS":"龍橋街２９６巷１７號","OBJECTID":235676},"geometry":{"x":174562.42000000086,"y":2549039.75}},{"attributes":{"ID":235681,"DIS_CODE":0,"TOWNNAME":"中西區","LI":"銀同里","LIN":"13鄰","STREET":"開山路","SECT":" ","MAREA":" ","LANE":"２９巷","ALLEY":" ","HOUSE_NO":"２２號五樓之２","E_COORD97":168618.89000000001,"N_COORD97":2543563.1299999999,"ADDRESS":"開山路２９巷２２號五樓之２","OBJECTID":235677},"geometry":{"x":168618.89000000153,"y":2543563.129999999}},{"attributes":{"ID":235682,"DIS_CODE":0,"TOWNNAME":"中西區","LI":"銀同里","LIN":"13鄰","STREET":"開山路","SECT":" ","MAREA":" ","LANE":"２９巷","ALLEY":" ","HOUSE_NO":"２２號五樓之３","E_COORD97":168619.03,"N_COORD97":2543565.4900000002,"ADDRESS":"開山路２９巷２２號五樓之３","OBJECTID":235678},"geometry":{"x":168619.03000000119,"y":2543565.4900000002}},{"attributes":{"ID":235683,"DIS_CODE":0,"TOWNNAME":"中西區","LI":"銀同里","LIN":"13鄰","STREET":"開山路","SECT":" ","MAREA":" ","LANE":"２９巷","ALLEY":" ","HOUSE_NO":"２２號五樓之４","E_COORD97":168619.17000000001,"N_COORD97":2543568.1200000001,"ADDRESS":"開山路２９巷２２號五樓之４","OBJECTID":235679},"geometry":{"x":168619.17000000086,"y":2543568.1200000029}},{"attributes":{"ID":235684,"DIS_CODE":0,"TOWNNAME":"中西區","LI":"銀同里","LIN":"13鄰","STREET":"開山路","SECT":" ","MAREA":" ","LANE":"２９巷","ALLEY":" ","HOUSE_NO":"２２號六樓之１","E_COORD97":168618.32999999999,"N_COORD97":2543560.9199999999,"ADDRESS":"開山路２９巷２２號六樓之１","OBJECTID":235680},"geometry":{"x":168618.33000000101,"y":2543560.9200000018}},{"attributes":{"ID":235685,"DIS_CODE":0,"TOWNNAME":"中西區","LI":"銀同里","LIN":"13鄰","STREET":"開山路","SECT":" ","MAREA":" ","LANE":"２９巷","ALLEY":" ","HOUSE_NO":"２２號六樓之２","E_COORD97":168618.89000000001,"N_COORD97":2543563.1299999999,"ADDRESS":"開山路２９巷２２號六樓之２","OBJECTID":235681},"geometry":{"x":168618.89000000153,"y":2543563.129999999}},{"attributes":{"ID":235686,"DIS_CODE":0,"TOWNNAME":"中西區","LI":"銀同里","LIN":"13鄰","STREET":"開山路","SECT":" ","MAREA":" ","LANE":"２９巷","ALLEY":" ","HOUSE_NO":"２２號四樓之１","E_COORD97":168618.32999999999,"N_COORD97":2543560.9199999999,"ADDRESS":"開山路２９巷２２號四樓之１","OBJECTID":235682},"geometry":{"x":168618.33000000101,"y":2543560.9200000018}},{"attributes":{"ID":235687,"DIS_CODE":0,"TOWNNAME":"中西區","LI":"銀同里","LIN":"13鄰","STREET":"開山路","SECT":" ","MAREA":" ","LANE":"２９巷","ALLEY":" ","HOUSE_NO":"２２號四樓之２","E_COORD97":168618.89000000001,"N_COORD97":2543563.1299999999,"ADDRESS":"開山路２９巷２２號四樓之２","OBJECTID":235683},"geometry":{"x":168618.89000000153,"y":2543563.129999999}},{"attributes":{"ID":235688,"DIS_CODE":0,"TOWNNAME":"中西區","LI":"銀同里","LIN":"13鄰","STREET":"開山路","SECT":" ","MAREA":" ","LANE":"２９巷","ALLEY":" ","HOUSE_NO":"２２號四樓之４","E_COORD97":168619.17000000001,"N_COORD97":2543568.1200000001,"ADDRESS":"開山路２９巷２２號四樓之４","OBJECTID":235684},"geometry":{"x":168619.17000000086,"y":2543568.1200000029}},{"attributes":{"ID":235689,"DIS_CODE":0,"TOWNNAME":"中西區","LI":"銀同里","LIN":"13鄰","STREET":"開山路","SECT":" ","MAREA":" ","LANE":"２９巷","ALLEY":" ","HOUSE_NO":"６號二樓之１","E_COORD97":168618.04999999999,"N_COORD97":2543545.3799999999,"ADDRESS":"開山路２９巷６號二樓之１","OBJECTID":235685},"geometry":{"x":168618.05000000168,"y":2543545.379999999}},{"attributes":{"ID":235690,"DIS_CODE":0,"TOWNNAME":"中西區","LI":"銀同里","LIN":"13鄰","STREET":"開山路","SECT":" ","MAREA":" ","LANE":"２９巷","ALLEY":" ","HOUSE_NO":"６號二樓之２","E_COORD97":168618.04999999999,"N_COORD97":2543545.3799999999,"ADDRESS":"開山路２９巷６號二樓之２","OBJECTID":235686},"geometry":{"x":168618.05000000168,"y":2543545.379999999}},{"attributes":{"ID":235691,"DIS_CODE":0,"TOWNNAME":"西港區","LI":"慶安里","LIN":"14鄰","STREET":"進學街","SECT":" ","MAREA":" ","LANE":" ","ALLEY":" ","HOUSE_NO":"９５號四樓之３","E_COORD97":168020.51999999999,"N_COORD97":2558028.7200000002,"ADDRESS":"進學街９５號四樓之３","OBJECTID":235687},"geometry":{"x":168020.51999999955,"y":2558028.7200000007}},{"attributes":{"ID":235692,"DIS_CODE":0,"TOWNNAME":"東區","LI":"關聖里","LIN":"14鄰","STREET":"裕智街","SECT":" ","MAREA":" ","LANE":" ","ALLEY":" ","HOUSE_NO":"３３號二樓","E_COORD97":172137.54999999999,"N_COORD97":2542987.2400000002,"ADDRESS":"裕智街３３號二樓","OBJECTID":235688},"geometry":{"x":172137.55000000075,"y":2542987.2400000002}},{"attributes":{"ID":235693,"DIS_CODE":0,"TOWNNAME":"東區","LI":"關聖里","LIN":"14鄰","STREET":"裕智街","SECT":" ","MAREA":" ","LANE":" ","ALLEY":" ","HOUSE_NO":"３３號三樓","E_COORD97":172137.54999999999,"N_COORD97":2542987.2400000002,"ADDRESS":"裕智街３３號三樓","OBJECTID":235689},"geometry":{"x":172137.55000000075,"y":2542987.2400000002}},{"attributes":{"ID":235694,"DIS_CODE":0,"TOWNNAME":"東區","LI":"關聖里","LIN":"14鄰","STREET":"裕智街","SECT":" ","MAREA":" ","LANE":" ","ALLEY":" ","HOUSE_NO":"３３號四樓","E_COORD97":172137.54999999999,"N_COORD97":2542987.2400000002,"ADDRESS":"裕智街３３號四樓","OBJECTID":235690},"geometry":{"x":172137.55000000075,"y":2542987.2400000002}},{"attributes":{"ID":235695,"DIS_CODE":0,"TOWNNAME":"東區","LI":"關聖里","LIN":"14鄰","STREET":"裕智街","SECT":" ","MAREA":" ","LANE":" ","ALLEY":" ","HOUSE_NO":"３３號五樓","E_COORD97":172137.54999999999,"N_COORD97":2542987.2400000002,"ADDRESS":"裕智街３３號五樓","OBJECTID":235691},"geometry":{"x":172137.55000000075,"y":2542987.2400000002}},{"attributes":{"ID":235696,"DIS_CODE":0,"TOWNNAME":"東區","LI":"關聖里","LIN":"14鄰","STREET":"裕智街","SECT":" ","MAREA":" ","LANE":" ","ALLEY":" ","HOUSE_NO":"３３號六樓","E_COORD97":172137.54999999999,"N_COORD97":2542987.2400000002,"ADDRESS":"裕智街３３號六樓","OBJECTID":235692},"geometry":{"x":172137.55000000075,"y":2542987.2400000002}},{"attributes":{"ID":235697,"DIS_CODE":0,"TOWNNAME":"善化區","LI":"東關里","LIN":"14鄰","STREET":"中和街","SECT":" ","MAREA":" ","LANE":" ","ALLEY":" ","HOUSE_NO":"３０號之３四樓","E_COORD97":177400.16,"N_COORD97":2559004.77,"ADDRESS":"中和街３０號之３四樓","OBJECTID":235693},"geometry":{"x":177400.16000000015,"y":2559004.7700000014}},{"attributes":{"ID":235698,"DIS_CODE":0,"TOWNNAME":"南區","LI":"明興里","LIN":"16鄰","STREET":"德興路","SECT":" ","MAREA":" ","LANE":"１６４巷","ALLEY":" ","HOUSE_NO":"１０９號","E_COORD97":167173.29999999999,"N_COORD97":2540314.6299999999,"ADDRESS":"德興路１６４巷１０９號","OBJECTID":235694},"geometry":{"x":167173.29999999981,"y":2540314.6300000008}},{"attributes":{"ID":235699,"DIS_CODE":0,"TOWNNAME":"南區","LI":"建南里","LIN":"16鄰","STREET":"中華南路","SECT":"二段","MAREA":" ","LANE":"２３３巷","ALLEY":" ","HOUSE_NO":"５７號","E_COORD97":166969.5,"N_COORD97":2540051.9399999999,"ADDRESS":"中華南路二段２３３巷５７號","OBJECTID":235695},"geometry":{"x":166969.50000000093,"y":2540051.9400000013}},{"attributes":{"ID":235700,"DIS_CODE":0,"TOWNNAME":"中西區","LI":"銀同里","LIN":"13鄰","STREET":"開山路","SECT":" ","MAREA":" ","LANE":"２９巷","ALLEY":" ","HOUSE_NO":"６號三樓之１","E_COORD97":168618.04999999999,"N_COORD97":2543545.3799999999,"ADDRESS":"開山路２９巷６號三樓之１","OBJECTID":235696},"geometry":{"x":168618.05000000168,"y":2543545.379999999}},{"attributes":{"ID":235701,"DIS_CODE":0,"TOWNNAME":"中西區","LI":"銀同里","LIN":"13鄰","STREET":"開山路","SECT":" ","MAREA":" ","LANE":"２９巷","ALLEY":" ","HOUSE_NO":"６號三樓之２","E_COORD97":168618.04999999999,"N_COORD97":2543545.3799999999,"ADDRESS":"開山路２９巷６號三樓之２","OBJECTID":235697},"geometry":{"x":168618.05000000168,"y":2543545.379999999}},{"attributes":{"ID":235702,"DIS_CODE":0,"TOWNNAME":"中西區","LI":"銀同里","LIN":"13鄰","STREET":"開山路","SECT":" ","MAREA":" ","LANE":"２９巷","ALLEY":" ","HOUSE_NO":"６號五樓之１","E_COORD97":168618.04999999999,"N_COORD97":2543545.3799999999,"ADDRESS":"開山路２９巷６號五樓之１","OBJECTID":235698},"geometry":{"x":168618.05000000168,"y":2543545.379999999}},{"attributes":{"ID":235703,"DIS_CODE":0,"TOWNNAME":"中西區","LI":"銀同里","LIN":"13鄰","STREET":"開山路","SECT":" ","MAREA":" ","LANE":"２９巷","ALLEY":" ","HOUSE_NO":"６號五樓之２","E_COORD97":168618.04999999999,"N_COORD97":2543545.3799999999,"ADDRESS":"開山路２９巷６號五樓之２","OBJECTID":235699},"geometry":{"x":168618.05000000168,"y":2543545.379999999}},{"attributes":{"ID":235704,"DIS_CODE":0,"TOWNNAME":"中西區","LI":"銀同里","LIN":"13鄰","STREET":"開山路","SECT":" ","MAREA":" ","LANE":"２９巷","ALLEY":" ","HOUSE_NO":"６號六樓","E_COORD97":168618.04999999999,"N_COORD97":2543545.3799999999,"ADDRESS":"開山路２９巷６號六樓","OBJECTID":235700},"geometry":{"x":168618.05000000168,"y":2543545.379999999}},{"attributes":{"ID":235705,"DIS_CODE":0,"TOWNNAME":"中西區","LI":"銀同里","LIN":"13鄰","STREET":"開山路","SECT":" ","MAREA":" ","LANE":"２９巷","ALLEY":" ","HOUSE_NO":"６號四樓之１","E_COORD97":168618.04999999999,"N_COORD97":2543545.3799999999,"ADDRESS":"開山路２９巷６號四樓之１","OBJECTID":235701},"geometry":{"x":168618.05000000168,"y":2543545.379999999}},{"attributes":{"ID":235706,"DIS_CODE":0,"TOWNNAME":"新營區","LI":"王公里","LIN":"33鄰","STREET":"民族路","SECT":" ","MAREA":" ","LANE":"３３０巷","ALLEY":" ","HOUSE_NO":"１８號","E_COORD97":180438.14137999999,"N_COORD97":2579789.8368899999,"ADDRESS":"民族路３３０巷１８號","OBJECTID":235702},"geometry":{"x":180438.14137999993,"y":2579789.8368900027}},{"attributes":{"ID":235707,"DIS_CODE":0,"TOWNNAME":"中西區","LI":"銀同里","LIN":"13鄰","STREET":"開山路","SECT":" ","MAREA":" ","LANE":"２９巷","ALLEY":" ","HOUSE_NO":"６號四樓之２","E_COORD97":168618.04999999999,"N_COORD97":2543545.3799999999,"ADDRESS":"開山路２９巷６號四樓之２","OBJECTID":235703},"geometry":{"x":168618.05000000168,"y":2543545.379999999}},{"attributes":{"ID":235708,"DIS_CODE":0,"TOWNNAME":"仁德區","LI":"新田里","LIN":"13鄰","STREET":"北保一街","SECT":" ","MAREA":" ","LANE":"１巷","ALLEY":" ","HOUSE_NO":"１８號三樓","E_COORD97":173250.23000000001,"N_COORD97":2539392.0099999998,"ADDRESS":"北保一街１巷１８號三樓","OBJECTID":235704},"geometry":{"x":173250.22999999952,"y":2539392.0099999998}},{"attributes":{"ID":235709,"DIS_CODE":0,"TOWNNAME":"仁德區","LI":"新田里","LIN":"13鄰","STREET":"北保一街","SECT":" ","MAREA":" ","LANE":"１巷","ALLEY":" ","HOUSE_NO":"１６號四樓","E_COORD97":173250.95999999999,"N_COORD97":2539416.75,"ADDRESS":"北保一街１巷１６號四樓","OBJECTID":235705},"geometry":{"x":173250.95999999996,"y":2539416.75}},{"attributes":{"ID":235710,"DIS_CODE":0,"TOWNNAME":"仁德區","LI":"新田里","LIN":"13鄰","STREET":"北保一街","SECT":" ","MAREA":" ","LANE":"１巷","ALLEY":" ","HOUSE_NO":"２０號五樓","E_COORD97":173257.57000000001,"N_COORD97":2539403.5099999998,"ADDRESS":"北保一街１巷２０號五樓","OBJECTID":235706},"geometry":{"x":173257.5700000003,"y":2539403.5100000016}},{"attributes":{"ID":235711,"DIS_CODE":0,"TOWNNAME":"仁德區","LI":"新田里","LIN":"13鄰","STREET":"北保一街","SECT":" ","MAREA":" ","LANE":"１巷","ALLEY":" ","HOUSE_NO":"１６號二樓","E_COORD97":173250.95999999999,"N_COORD97":2539416.75,"ADDRESS":"北保一街１巷１６號二樓","OBJECTID":235707},"geometry":{"x":173250.95999999996,"y":2539416.75}},{"attributes":{"ID":235712,"DIS_CODE":0,"TOWNNAME":"仁德區","LI":"新田里","LIN":"13鄰","STREET":"北保一街","SECT":" ","MAREA":" ","LANE":"１巷","ALLEY":" ","HOUSE_NO":"２０號三樓","E_COORD97":173257.57000000001,"N_COORD97":2539403.5099999998,"ADDRESS":"北保一街１巷２０號三樓","OBJECTID":235708},"geometry":{"x":173257.5700000003,"y":2539403.5100000016}},{"attributes":{"ID":235713,"DIS_CODE":0,"TOWNNAME":"永康區","LI":"西橋里","LIN":"13鄰","STREET":"大橋三街","SECT":" ","MAREA":" ","LANE":"１０巷","ALLEY":" ","HOUSE_NO":"１２號三樓之１","E_COORD97":170536.10000000001,"N_COORD97":2546335.7999999998,"ADDRESS":"大橋三街１０巷１２號三樓之１","OBJECTID":235709},"geometry":{"x":170536.09999999963,"y":2546335.8000000026}},{"attributes":{"ID":235714,"DIS_CODE":0,"TOWNNAME":"永康區","LI":"西橋里","LIN":"13鄰","STREET":"大橋三街","SECT":" ","MAREA":" ","LANE":"１０巷","ALLEY":" ","HOUSE_NO":"１６號三樓之１","E_COORD97":170544.04999999999,"N_COORD97":2546330.0499999998,"ADDRESS":"大橋三街１０巷１６號三樓之１","OBJECTID":235710},"geometry":{"x":170544.05000000075,"y":2546330.0500000045}},{"attributes":{"ID":235715,"DIS_CODE":0,"TOWNNAME":"永康區","LI":"西橋里","LIN":"13鄰","STREET":"大橋三街","SECT":" ","MAREA":" ","LANE":"１０巷","ALLEY":" ","HOUSE_NO":"１２號之１二樓之１","E_COORD97":170542.78,"N_COORD97":2546332.7999999998,"ADDRESS":"大橋三街１０巷１２號之１二樓之１","OBJECTID":235711},"geometry":{"x":170542.78000000119,"y":2546332.8000000026}},{"attributes":{"ID":235716,"DIS_CODE":0,"TOWNNAME":"永康區","LI":"網寮里","LIN":"13鄰","STREET":"永勝街","SECT":" ","MAREA":" ","LANE":"１６９巷","ALLEY":" ","HOUSE_NO":"２號五樓之２","E_COORD97":173315.32999999999,"N_COORD97":2546526.3700000001,"ADDRESS":"永勝街１６９巷２號五樓之２","OBJECTID":235712},"geometry":{"x":173315.33000000194,"y":2546526.3700000029}},{"attributes":{"ID":235717,"DIS_CODE":0,"TOWNNAME":"永康區","LI":"西橋里","LIN":"13鄰","STREET":"大橋三街","SECT":" ","MAREA":" ","LANE":"１０巷","ALLEY":" ","HOUSE_NO":"１６號二樓之１","E_COORD97":170544.04999999999,"N_COORD97":2546330.0499999998,"ADDRESS":"大橋三街１０巷１６號二樓之１","OBJECTID":235713},"geometry":{"x":170544.05000000075,"y":2546330.0500000045}},{"attributes":{"ID":235718,"DIS_CODE":0,"TOWNNAME":"仁德區","LI":"新田里","LIN":"13鄰","STREET":"北保一街","SECT":" ","MAREA":" ","LANE":"１巷","ALLEY":" ","HOUSE_NO":"１４號三樓","E_COORD97":173259.72,"N_COORD97":2539414.75,"ADDRESS":"北保一街１巷１４號三樓","OBJECTID":235714},"geometry":{"x":173259.71999999881,"y":2539414.75}},{"attributes":{"ID":235719,"DIS_CODE":0,"TOWNNAME":"仁德區","LI":"新田里","LIN":"13鄰","STREET":"北保一街","SECT":" ","MAREA":" ","LANE":"１巷","ALLEY":" ","HOUSE_NO":"１８號一樓","E_COORD97":173250.23000000001,"N_COORD97":2539392.0099999998,"ADDRESS":"北保一街１巷１８號一樓","OBJECTID":235715},"geometry":{"x":173250.22999999952,"y":2539392.0099999998}},{"attributes":{"ID":235720,"DIS_CODE":0,"TOWNNAME":"仁德區","LI":"新田里","LIN":"13鄰","STREET":"北保一街","SECT":" ","MAREA":" ","LANE":"１巷","ALLEY":" ","HOUSE_NO":"２０號二樓","E_COORD97":173257.57000000001,"N_COORD97":2539403.5099999998,"ADDRESS":"北保一街１巷２０號二樓","OBJECTID":235716},"geometry":{"x":173257.5700000003,"y":2539403.5100000016}},{"attributes":{"ID":235721,"DIS_CODE":0,"TOWNNAME":"仁德區","LI":"新田里","LIN":"13鄰","STREET":"北保一街","SECT":" ","MAREA":" ","LANE":"１巷","ALLEY":" ","HOUSE_NO":"１６號三樓","E_COORD97":173250.95999999999,"N_COORD97":2539416.75,"ADDRESS":"北保一街１巷１６號三樓","OBJECTID":235717},"geometry":{"x":173250.95999999996,"y":2539416.75}},{"attributes":{"ID":235722,"DIS_CODE":0,"TOWNNAME":"仁德區","LI":"新田里","LIN":"13鄰","STREET":"北保一街","SECT":" ","MAREA":" ","LANE":"１巷","ALLEY":" ","HOUSE_NO":"１６號一樓","E_COORD97":173250.95999999999,"N_COORD97":2539416.75,"ADDRESS":"北保一街１巷１６號一樓","OBJECTID":235718},"geometry":{"x":173250.95999999996,"y":2539416.75}},{"attributes":{"ID":235723,"DIS_CODE":0,"TOWNNAME":"仁德區","LI":"新田里","LIN":"13鄰","STREET":"北保一街","SECT":" ","MAREA":" ","LANE":"１巷","ALLEY":" ","HOUSE_NO":"１８號四樓","E_COORD97":173250.23000000001,"N_COORD97":2539392.0099999998,"ADDRESS":"北保一街１巷１８號四樓","OBJECTID":235719},"geometry":{"x":173250.22999999952,"y":2539392.0099999998}},{"attributes":{"ID":235724,"DIS_CODE":0,"TOWNNAME":"仁德區","LI":"新田里","LIN":"13鄰","STREET":"北保一街","SECT":" ","MAREA":" ","LANE":"１巷","ALLEY":" ","HOUSE_NO":"２０號一樓","E_COORD97":173257.57000000001,"N_COORD97":2539403.5099999998,"ADDRESS":"北保一街１巷２０號一樓","OBJECTID":235720},"geometry":{"x":173257.5700000003,"y":2539403.5100000016}},{"attributes":{"ID":235725,"DIS_CODE":0,"TOWNNAME":"東區","LI":"復興里","LIN":"13鄰","STREET":"自由路","SECT":"三段","MAREA":" ","LANE":" ","ALLEY":" ","HOUSE_NO":"２３５號九樓之２","E_COORD97":171752.01000000001,"N_COORD97":2542582.98,"ADDRESS":"自由路三段２３５號九樓之２","OBJECTID":235721},"geometry":{"x":171752.00999999978,"y":2542582.9800000004}},{"attributes":{"ID":235726,"DIS_CODE":0,"TOWNNAME":"東區","LI":"復興里","LIN":"13鄰","STREET":"自由路","SECT":"三段","MAREA":" ","LANE":" ","ALLEY":" ","HOUSE_NO":"２３５號二樓","E_COORD97":171752.01000000001,"N_COORD97":2542582.98,"ADDRESS":"自由路三段２３５號二樓","OBJECTID":235722},"geometry":{"x":171752.00999999978,"y":2542582.9800000004}},{"attributes":{"ID":235727,"DIS_CODE":0,"TOWNNAME":"東區","LI":"圍下里","LIN":"14鄰","STREET":"前鋒路","SECT":" ","MAREA":" ","LANE":" ","ALLEY":" ","HOUSE_NO":"８７號五樓之１","E_COORD97":169297.45000000001,"N_COORD97":2543610.73,"ADDRESS":"前鋒路８７號五樓之１","OBJECTID":235723},"geometry":{"x":169297.45000000112,"y":2543610.7300000023}},{"attributes":{"ID":235728,"DIS_CODE":0,"TOWNNAME":"南區","LI":"大忠里","LIN":"5鄰","STREET":"公英一街","SECT":" ","MAREA":" ","LANE":" ","ALLEY":" ","HOUSE_NO":"４７號","E_COORD97":169372.85000000001,"N_COORD97":2541247.5,"ADDRESS":"公英一街４７號","OBJECTID":235724},"geometry":{"x":169372.84999999963,"y":2541247.5000000037}},{"attributes":{"ID":235729,"DIS_CODE":0,"TOWNNAME":"麻豆區","LI":"保安里","LIN":"1鄰","STREET":"中正路","SECT":" ","MAREA":" ","LANE":" ","ALLEY":" ","HOUSE_NO":"１５號","E_COORD97":173062.63,"N_COORD97":2564882.8999999999,"ADDRESS":"中正路１５號","OBJECTID":235725},"geometry":{"x":173062.63000000082,"y":2564882.9000000041}},{"attributes":{"ID":235730,"DIS_CODE":0,"TOWNNAME":"南區","LI":"明興里","LIN":"16鄰","STREET":"德興路","SECT":" ","MAREA":" ","LANE":"１６４巷","ALLEY":" ","HOUSE_NO":"２５號","E_COORD97":167116.51000000001,"N_COORD97":2540336.6000000001,"ADDRESS":"德興路１６４巷２５號","OBJECTID":235726},"geometry":{"x":167116.51000000071,"y":2540336.5999999996}},{"attributes":{"ID":235731,"DIS_CODE":0,"TOWNNAME":"南區","LI":"明興里","LIN":"16鄰","STREET":"德興路","SECT":" ","MAREA":" ","LANE":"１６４巷","ALLEY":" ","HOUSE_NO":"２７號","E_COORD97":167111.04999999999,"N_COORD97":2540335.6899999999,"ADDRESS":"德興路１６４巷２７號","OBJECTID":235727},"geometry":{"x":167111.05000000075,"y":2540335.6899999995}},{"attributes":{"ID":235732,"DIS_CODE":0,"TOWNNAME":"南區","LI":"明興里","LIN":"16鄰","STREET":"德興路","SECT":" ","MAREA":" ","LANE":"１６４巷","ALLEY":" ","HOUSE_NO":"７１號","E_COORD97":167095.94,"N_COORD97":2540298.7400000002,"ADDRESS":"德興路１６４巷７１號","OBJECTID":235728},"geometry":{"x":167095.94000000134,"y":2540298.7400000002}},{"attributes":{"ID":235733,"DIS_CODE":0,"TOWNNAME":"南區","LI":"明興里","LIN":"16鄰","STREET":"德興路","SECT":" ","MAREA":" ","LANE":"１６４巷","ALLEY":" ","HOUSE_NO":"７３號","E_COORD97":167100.32000000001,"N_COORD97":2540299.73,"ADDRESS":"德興路１６４巷７３號","OBJECTID":235729},"geometry":{"x":167100.3200000003,"y":2540299.7300000004}},{"attributes":{"ID":235734,"DIS_CODE":0,"TOWNNAME":"南區","LI":"明興里","LIN":"16鄰","STREET":"德興路","SECT":" ","MAREA":" ","LANE":"１６４巷","ALLEY":" ","HOUSE_NO":"７５號","E_COORD97":167104.04000000001,"N_COORD97":2540300.5499999998,"ADDRESS":"德興路１６４巷７５號","OBJECTID":235730},"geometry":{"x":167104.04000000004,"y":2540300.5500000007}},{"attributes":{"ID":235735,"DIS_CODE":0,"TOWNNAME":"南區","LI":"明興里","LIN":"16鄰","STREET":"德興路","SECT":" ","MAREA":" ","LANE":"１６４巷","ALLEY":" ","HOUSE_NO":"７７號","E_COORD97":167108.34,"N_COORD97":2540301.29,"ADDRESS":"德興路１６４巷７７號","OBJECTID":235731},"geometry":{"x":167108.33999999985,"y":2540301.2899999991}},{"attributes":{"ID":235736,"DIS_CODE":0,"TOWNNAME":"南區","LI":"明興里","LIN":"16鄰","STREET":"德興路","SECT":" ","MAREA":" ","LANE":"１６４巷","ALLEY":" ","HOUSE_NO":"７９號","E_COORD97":167112.72,"N_COORD97":2540302.04,"ADDRESS":"德興路１６４巷７９號","OBJECTID":235732},"geometry":{"x":167112.71999999974,"y":2540302.040000001}},{"attributes":{"ID":235737,"DIS_CODE":0,"TOWNNAME":"南區","LI":"明興里","LIN":"16鄰","STREET":"德興路","SECT":" ","MAREA":" ","LANE":"１６４巷","ALLEY":" ","HOUSE_NO":"８１號","E_COORD97":167116.84,"N_COORD97":2540302.9199999999,"ADDRESS":"德興路１６４巷８１號","OBJECTID":235733},"geometry":{"x":167116.83999999985,"y":2540302.9200000018}},{"attributes":{"ID":235738,"DIS_CODE":0,"TOWNNAME":"南區","LI":"明興里","LIN":"16鄰","STREET":"德興路","SECT":" ","MAREA":" ","LANE":"１６４巷","ALLEY":" ","HOUSE_NO":"８３號","E_COORD97":167120.31,"N_COORD97":2540303.5800000001,"ADDRESS":"德興路１６４巷８３號","OBJECTID":235734},"geometry":{"x":167120.30999999959,"y":2540303.5800000001}},{"attributes":{"ID":235739,"DIS_CODE":0,"TOWNNAME":"南區","LI":"明興里","LIN":"16鄰","STREET":"德興路","SECT":" ","MAREA":" ","LANE":"１６４巷","ALLEY":" ","HOUSE_NO":"８５號","E_COORD97":167124.94,"N_COORD97":2540304.0699999998,"ADDRESS":"德興路１６４巷８５號","OBJECTID":235735},"geometry":{"x":167124.94000000134,"y":2540304.0700000003}},{"attributes":{"ID":235740,"DIS_CODE":0,"TOWNNAME":"南區","LI":"明興里","LIN":"16鄰","STREET":"德興路","SECT":" ","MAREA":" ","LANE":"１６４巷","ALLEY":" ","HOUSE_NO":"８７號","E_COORD97":167128.64999999999,"N_COORD97":2540304.8999999999,"ADDRESS":"德興路１６４巷８７號","OBJECTID":235736},"geometry":{"x":167128.65000000037,"y":2540304.9000000004}},{"attributes":{"ID":235741,"DIS_CODE":0,"TOWNNAME":"東區","LI":"復興里","LIN":"13鄰","STREET":"自由路","SECT":"三段","MAREA":" ","LANE":" ","ALLEY":" ","HOUSE_NO":"２３５號二樓之１","E_COORD97":171752.01000000001,"N_COORD97":2542582.98,"ADDRESS":"自由路三段２３５號二樓之１","OBJECTID":235737},"geometry":{"x":171752.00999999978,"y":2542582.9800000004}},{"attributes":{"ID":235742,"DIS_CODE":0,"TOWNNAME":"東區","LI":"復興里","LIN":"13鄰","STREET":"自由路","SECT":"三段","MAREA":" ","LANE":" ","ALLEY":" ","HOUSE_NO":"２３５號二樓之２","E_COORD97":171752.01000000001,"N_COORD97":2542582.98,"ADDRESS":"自由路三段２３５號二樓之２","OBJECTID":235738},"geometry":{"x":171752.00999999978,"y":2542582.9800000004}},{"attributes":{"ID":235743,"DIS_CODE":0,"TOWNNAME":"東區","LI":"復興里","LIN":"13鄰","STREET":"自由路","SECT":"三段","MAREA":" ","LANE":" ","ALLEY":" ","HOUSE_NO":"２３５號八樓","E_COORD97":171752.01000000001,"N_COORD97":2542582.98,"ADDRESS":"自由路三段２３５號八樓","OBJECTID":235739},"geometry":{"x":171752.00999999978,"y":2542582.9800000004}},{"attributes":{"ID":235744,"DIS_CODE":0,"TOWNNAME":"東區","LI":"復興里","LIN":"13鄰","STREET":"自由路","SECT":"三段","MAREA":" ","LANE":" ","ALLEY":" ","HOUSE_NO":"２３５號八樓之１","E_COORD97":171752.01000000001,"N_COORD97":2542582.98,"ADDRESS":"自由路三段２３５號八樓之１","OBJECTID":235740},"geometry":{"x":171752.00999999978,"y":2542582.9800000004}},{"attributes":{"ID":235745,"DIS_CODE":0,"TOWNNAME":"東區","LI":"復興里","LIN":"13鄰","STREET":"自由路","SECT":"三段","MAREA":" ","LANE":" ","ALLEY":" ","HOUSE_NO":"２３５號八樓之２","E_COORD97":171752.01000000001,"N_COORD97":2542582.98,"ADDRESS":"自由路三段２３５號八樓之２","OBJECTID":235741},"geometry":{"x":171752.00999999978,"y":2542582.9800000004}},{"attributes":{"ID":235746,"DIS_CODE":0,"TOWNNAME":"東區","LI":"復興里","LIN":"13鄰","STREET":"自由路","SECT":"三段","MAREA":" ","LANE":" ","ALLEY":" ","HOUSE_NO":"２３５號十樓","E_COORD97":171752.01000000001,"N_COORD97":2542582.98,"ADDRESS":"自由路三段２３５號十樓","OBJECTID":235742},"geometry":{"x":171752.00999999978,"y":2542582.9800000004}},{"attributes":{"ID":235747,"DIS_CODE":0,"TOWNNAME":"永康區","LI":"\u25A0行里","LIN":"14鄰","STREET":"中正六街","SECT":" ","MAREA":" ","LANE":" ","ALLEY":" ","HOUSE_NO":"１７７號六樓之２","E_COORD97":171861.98000000001,"N_COORD97":2548865.5600000001,"ADDRESS":"中正六街１７７號六樓之２","OBJECTID":235743},"geometry":{"x":171861.98000000231,"y":2548865.5600000005}},{"attributes":{"ID":235748,"DIS_CODE":0,"TOWNNAME":"永康區","LI":"\u25A0行里","LIN":"14鄰","STREET":"中正六街","SECT":" ","MAREA":" ","LANE":" ","ALLEY":" ","HOUSE_NO":"１７７號八樓之１","E_COORD97":171861.85000000001,"N_COORD97":2548865.5600000001,"ADDRESS":"中正六街１７７號八樓之１","OBJECTID":235744},"geometry":{"x":171861.8499999987,"y":2548865.5600000005}},{"attributes":{"ID":235749,"DIS_CODE":0,"TOWNNAME":"永康區","LI":"\u25A0行里","LIN":"14鄰","STREET":"中正六街","SECT":" ","MAREA":" ","LANE":" ","ALLEY":" ","HOUSE_NO":"１７７號六樓之５","E_COORD97":171862,"N_COORD97":2548865.5600000001,"ADDRESS":"中正六街１７７號六樓之５","OBJECTID":235745},"geometry":{"x":171862.00000000093,"y":2548865.5600000005}},{"attributes":{"ID":235750,"DIS_CODE":0,"TOWNNAME":"永康區","LI":"\u25A0行里","LIN":"14鄰","STREET":"中正六街","SECT":" ","MAREA":" ","LANE":" ","ALLEY":" ","HOUSE_NO":"１７７號六樓之１","E_COORD97":171861.85000000001,"N_COORD97":2548865.5600000001,"ADDRESS":"中正六街１７７號六樓之１","OBJECTID":235746},"geometry":{"x":171861.8499999987,"y":2548865.5600000005}},{"attributes":{"ID":235751,"DIS_CODE":0,"TOWNNAME":"永康區","LI":"\u25A0行里","LIN":"14鄰","STREET":"中正六街","SECT":" ","MAREA":" ","LANE":" ","ALLEY":" ","HOUSE_NO":"１７７號七樓之１","E_COORD97":171861.85000000001,"N_COORD97":2548865.5600000001,"ADDRESS":"中正六街１７７號七樓之１","OBJECTID":235747},"geometry":{"x":171861.8499999987,"y":2548865.5600000005}},{"attributes":{"ID":235752,"DIS_CODE":0,"TOWNNAME":"永康區","LI":"\u25A0行里","LIN":"14鄰","STREET":"中正六街","SECT":" ","MAREA":" ","LANE":" ","ALLEY":" ","HOUSE_NO":"１７７號四樓之２","E_COORD97":171861.98000000001,"N_COORD97":2548865.5600000001,"ADDRESS":"中正六街１７７號四樓之２","OBJECTID":235748},"geometry":{"x":171861.98000000231,"y":2548865.5600000005}},{"attributes":{"ID":235753,"DIS_CODE":0,"TOWNNAME":"永康區","LI":"\u25A0行里","LIN":"14鄰","STREET":"中正六街","SECT":" ","MAREA":" ","LANE":" ","ALLEY":" ","HOUSE_NO":"１７７號四樓之１","E_COORD97":171861.85000000001,"N_COORD97":2548865.5600000001,"ADDRESS":"中正六街１７７號四樓之１","OBJECTID":235749},"geometry":{"x":171861.8499999987,"y":2548865.5600000005}},{"attributes":{"ID":235754,"DIS_CODE":0,"TOWNNAME":"永康區","LI":"\u25A0行里","LIN":"14鄰","STREET":"中正六街","SECT":" ","MAREA":" ","LANE":" ","ALLEY":" ","HOUSE_NO":"１７７號六樓之６","E_COORD97":171861.95000000001,"N_COORD97":2548865.5600000001,"ADDRESS":"中正六街１７７號六樓之６","OBJECTID":235750},"geometry":{"x":171861.95000000205,"y":2548865.5600000005}},{"attributes":{"ID":235755,"DIS_CODE":0,"TOWNNAME":"南區","LI":"明興里","LIN":"17鄰","STREET":"中華南路","SECT":"二段","MAREA":" ","LANE":" ","ALLEY":" ","HOUSE_NO":"１４８號","E_COORD97":167109.38,"N_COORD97":2540277.3799999999,"ADDRESS":"中華南路二段１４８號","OBJECTID":235751},"geometry":{"x":167109.38000000082,"y":2540277.3799999971}},{"attributes":{"ID":235756,"DIS_CODE":0,"TOWNNAME":"永康區","LI":"\u25A0行里","LIN":"14鄰","STREET":"中正六街","SECT":" ","MAREA":" ","LANE":" ","ALLEY":" ","HOUSE_NO":"１７７號四樓之５","E_COORD97":171862,"N_COORD97":2548865.5600000001,"ADDRESS":"中正六街１７７號四樓之５","OBJECTID":235752},"geometry":{"x":171862.00000000093,"y":2548865.5600000005}},{"attributes":{"ID":235757,"DIS_CODE":0,"TOWNNAME":"南區","LI":"建南里","LIN":"16鄰","STREET":"中華南路","SECT":"二段","MAREA":" ","LANE":"２３３巷","ALLEY":" ","HOUSE_NO":"６號","E_COORD97":166886.17999999999,"N_COORD97":2540148.3999999999,"ADDRESS":"中華南路二段２３３巷６號","OBJECTID":235753},"geometry":{"x":166886.18000000156,"y":2540148.4000000022}},{"attributes":{"ID":235758,"DIS_CODE":0,"TOWNNAME":"南區","LI":"建南里","LIN":"16鄰","STREET":"中華南路","SECT":"二段","MAREA":" ","LANE":"２３３巷","ALLEY":" ","HOUSE_NO":"２２號","E_COORD97":166900.29000000001,"N_COORD97":2540099.25,"ADDRESS":"中華南路二段２３３巷２２號","OBJECTID":235754},"geometry":{"x":166900.29000000004,"y":2540099.25}},{"attributes":{"ID":235759,"DIS_CODE":0,"TOWNNAME":"南區","LI":"建南里","LIN":"16鄰","STREET":"中華南路","SECT":"二段","MAREA":" ","LANE":"２３３巷","ALLEY":" ","HOUSE_NO":"３０號","E_COORD97":166907.35999999999,"N_COORD97":2540081.5,"ADDRESS":"中華南路二段２３３巷３０號","OBJECTID":235755},"geometry":{"x":166907.36000000034,"y":2540081.5000000037}},{"attributes":{"ID":235760,"DIS_CODE":0,"TOWNNAME":"南區","LI":"建南里","LIN":"16鄰","STREET":"中華南路","SECT":"二段","MAREA":" ","LANE":"２３３巷","ALLEY":" ","HOUSE_NO":"４２號","E_COORD97":166925.72,"N_COORD97":2540044.2799999998,"ADDRESS":"中華南路二段２３３巷４２號","OBJECTID":235756},"geometry":{"x":166925.72000000067,"y":2540044.2799999993}},{"attributes":{"ID":235761,"DIS_CODE":0,"TOWNNAME":"南區","LI":"建南里","LIN":"16鄰","STREET":"中華南路","SECT":"二段","MAREA":" ","LANE":"２３３巷","ALLEY":" ","HOUSE_NO":"４６號","E_COORD97":166929.87,"N_COORD97":2540034.7000000002,"ADDRESS":"中華南路二段２３３巷４６號","OBJECTID":235757},"geometry":{"x":166929.87000000104,"y":2540034.6999999993}},{"attributes":{"ID":235762,"DIS_CODE":0,"TOWNNAME":"南區","LI":"建南里","LIN":"16鄰","STREET":"中華南路","SECT":"二段","MAREA":" ","LANE":"２３３巷","ALLEY":" ","HOUSE_NO":"４８號","E_COORD97":166931.67999999999,"N_COORD97":2540029.79,"ADDRESS":"中華南路二段２３３巷４８號","OBJECTID":235758},"geometry":{"x":166931.6799999997,"y":2540029.7899999991}},{"attributes":{"ID":235763,"DIS_CODE":0,"TOWNNAME":"南區","LI":"建南里","LIN":"16鄰","STREET":"中華南路","SECT":"二段","MAREA":" ","LANE":"２３３巷","ALLEY":" ","HOUSE_NO":"５０號","E_COORD97":166934.01000000001,"N_COORD97":2540024.8700000001,"ADDRESS":"中華南路二段２３３巷５０號","OBJECTID":235759},"geometry":{"x":166934.00999999978,"y":2540024.870000001}},{"attributes":{"ID":235764,"DIS_CODE":0,"TOWNNAME":"南區","LI":"建南里","LIN":"16鄰","STREET":"中華南路","SECT":"二段","MAREA":" ","LANE":"２３３巷","ALLEY":" ","HOUSE_NO":"５２號","E_COORD97":166934.53,"N_COORD97":2540019.7000000002,"ADDRESS":"中華南路二段２３３巷５２號","OBJECTID":235760},"geometry":{"x":166934.53000000026,"y":2540019.7000000011}},{"attributes":{"ID":235765,"DIS_CODE":0,"TOWNNAME":"南區","LI":"建南里","LIN":"16鄰","STREET":"中華南路","SECT":"二段","MAREA":" ","LANE":"２３３巷","ALLEY":" ","HOUSE_NO":"５４號","E_COORD97":166936.09,"N_COORD97":2540015.5600000001,"ADDRESS":"中華南路二段２３３巷５４號","OBJECTID":235761},"geometry":{"x":166936.09000000171,"y":2540015.5600000005}},{"attributes":{"ID":235766,"DIS_CODE":0,"TOWNNAME":"南區","LI":"建南里","LIN":"16鄰","STREET":"中華南路","SECT":"二段","MAREA":" ","LANE":"２３３巷","ALLEY":" ","HOUSE_NO":"５６號","E_COORD97":166936.60000000001,"N_COORD97":2540011.9399999999,"ADDRESS":"中華南路二段２３３巷５６號","OBJECTID":235762},"geometry":{"x":166936.60000000056,"y":2540011.9399999995}},{"attributes":{"ID":235767,"DIS_CODE":0,"TOWNNAME":"東區","LI":"復興里","LIN":"13鄰","STREET":"自由路","SECT":"三段","MAREA":" ","LANE":" ","ALLEY":" ","HOUSE_NO":"２３５號十樓之１","E_COORD97":171752.01000000001,"N_COORD97":2542582.98,"ADDRESS":"自由路三段２３５號十樓之１","OBJECTID":235763},"geometry":{"x":171752.00999999978,"y":2542582.9800000004}},{"attributes":{"ID":235768,"DIS_CODE":0,"TOWNNAME":"東區","LI":"復興里","LIN":"13鄰","STREET":"自由路","SECT":"三段","MAREA":" ","LANE":" ","ALLEY":" ","HOUSE_NO":"２３５號十樓之２","E_COORD97":171752.01000000001,"N_COORD97":2542582.98,"ADDRESS":"自由路三段２３５號十樓之２","OBJECTID":235764},"geometry":{"x":171752.00999999978,"y":2542582.9800000004}},{"attributes":{"ID":235769,"DIS_CODE":0,"TOWNNAME":"東區","LI":"復興里","LIN":"13鄰","STREET":"自由路","SECT":"三段","MAREA":" ","LANE":" ","ALLEY":" ","HOUSE_NO":"２３５號三樓","E_COORD97":171752.01000000001,"N_COORD97":2542582.98,"ADDRESS":"自由路三段２３５號三樓","OBJECTID":235765},"geometry":{"x":171752.00999999978,"y":2542582.9800000004}},{"attributes":{"ID":235770,"DIS_CODE":0,"TOWNNAME":"東區","LI":"復興里","LIN":"13鄰","STREET":"自由路","SECT":"三段","MAREA":" ","LANE":" ","ALLEY":" ","HOUSE_NO":"２３５號三樓之１","E_COORD97":171752.01000000001,"N_COORD97":2542582.98,"ADDRESS":"自由路三段２３５號三樓之１","OBJECTID":235766},"geometry":{"x":171752.00999999978,"y":2542582.9800000004}},{"attributes":{"ID":235771,"DIS_CODE":0,"TOWNNAME":"東區","LI":"復興里","LIN":"13鄰","STREET":"自由路","SECT":"三段","MAREA":" ","LANE":" ","ALLEY":" ","HOUSE_NO":"２３５號三樓之２","E_COORD97":171752.01000000001,"N_COORD97":2542582.98,"ADDRESS":"自由路三段２３５號三樓之２","OBJECTID":235767},"geometry":{"x":171752.00999999978,"y":2542582.9800000004}},{"attributes":{"ID":235772,"DIS_CODE":0,"TOWNNAME":"東區","LI":"復興里","LIN":"13鄰","STREET":"自由路","SECT":"三段","MAREA":" ","LANE":" ","ALLEY":" ","HOUSE_NO":"２３５號五樓","E_COORD97":171752.01000000001,"N_COORD97":2542582.98,"ADDRESS":"自由路三段２３５號五樓","OBJECTID":235768},"geometry":{"x":171752.00999999978,"y":2542582.9800000004}},{"attributes":{"ID":235773,"DIS_CODE":0,"TOWNNAME":"東區","LI":"復興里","LIN":"13鄰","STREET":"自由路","SECT":"三段","MAREA":" ","LANE":" ","ALLEY":" ","HOUSE_NO":"２３５號五樓之１","E_COORD97":171752.01000000001,"N_COORD97":2542582.98,"ADDRESS":"自由路三段２３５號五樓之１","OBJECTID":235769},"geometry":{"x":171752.00999999978,"y":2542582.9800000004}},{"attributes":{"ID":235774,"DIS_CODE":0,"TOWNNAME":"東區","LI":"復興里","LIN":"13鄰","STREET":"自由路","SECT":"三段","MAREA":" ","LANE":" ","ALLEY":" ","HOUSE_NO":"２３５號五樓之２","E_COORD97":171752.01000000001,"N_COORD97":2542582.98,"ADDRESS":"自由路三段２３５號五樓之２","OBJECTID":235770},"geometry":{"x":171752.00999999978,"y":2542582.9800000004}},{"attributes":{"ID":235775,"DIS_CODE":0,"TOWNNAME":"東區","LI":"復興里","LIN":"13鄰","STREET":"自由路","SECT":"三段","MAREA":" ","LANE":" ","ALLEY":" ","HOUSE_NO":"２３５號六樓","E_COORD97":171752.01000000001,"N_COORD97":2542582.98,"ADDRESS":"自由路三段２３５號六樓","OBJECTID":235771},"geometry":{"x":171752.00999999978,"y":2542582.9800000004}},{"attributes":{"ID":235776,"DIS_CODE":0,"TOWNNAME":"永康區","LI":"\u25A0行里","LIN":"14鄰","STREET":"中正六街","SECT":" ","MAREA":" ","LANE":" ","ALLEY":" ","HOUSE_NO":"１７７號五樓之６","E_COORD97":171861.95000000001,"N_COORD97":2548865.5600000001,"ADDRESS":"中正六街１７７號五樓之６","OBJECTID":235772},"geometry":{"x":171861.95000000205,"y":2548865.5600000005}},{"attributes":{"ID":235777,"DIS_CODE":0,"TOWNNAME":"永康區","LI":"\u25A0行里","LIN":"14鄰","STREET":"中正六街","SECT":" ","MAREA":" ","LANE":" ","ALLEY":" ","HOUSE_NO":"１７７號七樓之３","E_COORD97":171861.95000000001,"N_COORD97":2548865.5600000001,"ADDRESS":"中正六街１７７號七樓之３","OBJECTID":235773},"geometry":{"x":171861.95000000205,"y":2548865.5600000005}},{"attributes":{"ID":235778,"DIS_CODE":0,"TOWNNAME":"東區","LI":"圍下里","LIN":"14鄰","STREET":"前鋒路","SECT":" ","MAREA":" ","LANE":" ","ALLEY":" ","HOUSE_NO":"８９號五樓之３","E_COORD97":169299.07000000001,"N_COORD97":2543628.4900000002,"ADDRESS":"前鋒路８９號五樓之３","OBJECTID":235774},"geometry":{"x":169299.0700000003,"y":2543628.4900000021}},{"attributes":{"ID":235779,"DIS_CODE":0,"TOWNNAME":"永康區","LI":"\u25A0行里","LIN":"14鄰","STREET":"中正六街","SECT":" ","MAREA":" ","LANE":" ","ALLEY":" ","HOUSE_NO":"１７５號八樓之１","E_COORD97":171858.19,"N_COORD97":2548861.5600000001,"ADDRESS":"中正六街１７５號八樓之１","OBJECTID":235775},"geometry":{"x":171858.19000000041,"y":2548861.5600000005}},{"attributes":{"ID":235780,"DIS_CODE":0,"TOWNNAME":"永康區","LI":"\u25A0行里","LIN":"14鄰","STREET":"中正六街","SECT":" ","MAREA":" ","LANE":" ","ALLEY":" ","HOUSE_NO":"１７５號六樓之６","E_COORD97":171858.29000000001,"N_COORD97":2548861.5600000001,"ADDRESS":"中正六街１７５號六樓之６","OBJECTID":235776},"geometry":{"x":171858.29000000097,"y":2548861.5600000005}},{"attributes":{"ID":235781,"DIS_CODE":0,"TOWNNAME":"永康區","LI":"\u25A0行里","LIN":"14鄰","STREET":"中正六街","SECT":" ","MAREA":" ","LANE":" ","ALLEY":" ","HOUSE_NO":"１７５號八樓之３","E_COORD97":171858.29000000001,"N_COORD97":2548861.5600000001,"ADDRESS":"中正六街１７５號八樓之３","OBJECTID":235777},"geometry":{"x":171858.29000000097,"y":2548861.5600000005}},{"attributes":{"ID":235782,"DIS_CODE":0,"TOWNNAME":"永康區","LI":"\u25A0行里","LIN":"14鄰","STREET":"中正六街","SECT":" ","MAREA":" ","LANE":" ","ALLEY":" ","HOUSE_NO":"１７７號五樓之１","E_COORD97":171861.85000000001,"N_COORD97":2548865.5600000001,"ADDRESS":"中正六街１７７號五樓之１","OBJECTID":235778},"geometry":{"x":171861.8499999987,"y":2548865.5600000005}},{"attributes":{"ID":235783,"DIS_CODE":0,"TOWNNAME":"永康區","LI":"\u25A0行里","LIN":"14鄰","STREET":"中正六街","SECT":" ","MAREA":" ","LANE":" ","ALLEY":" ","HOUSE_NO":"１７７號五樓之２","E_COORD97":171861.98000000001,"N_COORD97":2548865.5600000001,"ADDRESS":"中正六街１７７號五樓之２","OBJECTID":235779},"geometry":{"x":171861.98000000231,"y":2548865.5600000005}},{"attributes":{"ID":235784,"DIS_CODE":0,"TOWNNAME":"永康區","LI":"\u25A0行里","LIN":"14鄰","STREET":"中正六街","SECT":" ","MAREA":" ","LANE":" ","ALLEY":" ","HOUSE_NO":"１７７號五樓之５","E_COORD97":171862,"N_COORD97":2548865.5600000001,"ADDRESS":"中正六街１７７號五樓之５","OBJECTID":235780},"geometry":{"x":171862.00000000093,"y":2548865.5600000005}},{"attributes":{"ID":235785,"DIS_CODE":0,"TOWNNAME":"永康區","LI":"\u25A0行里","LIN":"14鄰","STREET":"中正六街","SECT":" ","MAREA":" ","LANE":" ","ALLEY":" ","HOUSE_NO":"１７５號七樓之２","E_COORD97":171858.32000000001,"N_COORD97":2548861.5600000001,"ADDRESS":"中正六街１７５號七樓之２","OBJECTID":235781},"geometry":{"x":171858.32000000123,"y":2548861.5600000005}},{"attributes":{"ID":235786,"DIS_CODE":0,"TOWNNAME":"東區","LI":"復興里","LIN":"13鄰","STREET":"自由路","SECT":"三段","MAREA":" ","LANE":" ","ALLEY":" ","HOUSE_NO":"２３５號六樓之１","E_COORD97":171752.01000000001,"N_COORD97":2542582.98,"ADDRESS":"自由路三段２３５號六樓之１","OBJECTID":235782},"geometry":{"x":171752.00999999978,"y":2542582.9800000004}},{"attributes":{"ID":235787,"DIS_CODE":0,"TOWNNAME":"東區","LI":"復興里","LIN":"13鄰","STREET":"自由路","SECT":"三段","MAREA":" ","LANE":" ","ALLEY":" ","HOUSE_NO":"２３５號六樓之２","E_COORD97":171752.01000000001,"N_COORD97":2542582.98,"ADDRESS":"自由路三段２３５號六樓之２","OBJECTID":235783},"geometry":{"x":171752.00999999978,"y":2542582.9800000004}},{"attributes":{"ID":235788,"DIS_CODE":0,"TOWNNAME":"東區","LI":"復興里","LIN":"13鄰","STREET":"自由路","SECT":"三段","MAREA":" ","LANE":" ","ALLEY":" ","HOUSE_NO":"２３５號四樓","E_COORD97":171752.01000000001,"N_COORD97":2542582.98,"ADDRESS":"自由路三段２３５號四樓","OBJECTID":235784},"geometry":{"x":171752.00999999978,"y":2542582.9800000004}},{"attributes":{"ID":235789,"DIS_CODE":0,"TOWNNAME":"東區","LI":"復興里","LIN":"13鄰","STREET":"自由路","SECT":"三段","MAREA":" ","LANE":" ","ALLEY":" ","HOUSE_NO":"２３５號四樓之１","E_COORD97":171752.01000000001,"N_COORD97":2542582.98,"ADDRESS":"自由路三段２３５號四樓之１","OBJECTID":235785},"geometry":{"x":171752.00999999978,"y":2542582.9800000004}},{"attributes":{"ID":235790,"DIS_CODE":0,"TOWNNAME":"南區","LI":"南都里","LIN":"17鄰","STREET":"明興路","SECT":" ","MAREA":" ","LANE":"８８巷","ALLEY":" ","HOUSE_NO":"５號","E_COORD97":166663.97,"N_COORD97":2540040.46,"ADDRESS":"明興路８８巷５號","OBJECTID":235786},"geometry":{"x":166663.97000000067,"y":2540040.4600000009}},{"attributes":{"ID":235791,"DIS_CODE":0,"TOWNNAME":"東區","LI":"復興里","LIN":"13鄰","STREET":"自由路","SECT":"三段","MAREA":" ","LANE":" ","ALLEY":" ","HOUSE_NO":"２３５號四樓之２","E_COORD97":171752.01000000001,"N_COORD97":2542582.98,"ADDRESS":"自由路三段２３５號四樓之２","OBJECTID":235787},"geometry":{"x":171752.00999999978,"y":2542582.9800000004}},{"attributes":{"ID":235792,"DIS_CODE":0,"TOWNNAME":"東區","LI":"復興里","LIN":"13鄰","STREET":"自由路","SECT":"三段","MAREA":" ","LANE":" ","ALLEY":" ","HOUSE_NO":"２４１號七樓","E_COORD97":171746.82999999999,"N_COORD97":2542603.2599999998,"ADDRESS":"自由路三段２４１號七樓","OBJECTID":235788},"geometry":{"x":171746.83000000007,"y":2542603.2600000016}},{"attributes":{"ID":235793,"DIS_CODE":0,"TOWNNAME":"東區","LI":"復興里","LIN":"13鄰","STREET":"自由路","SECT":"三段","MAREA":" ","LANE":" ","ALLEY":" ","HOUSE_NO":"２４１號七樓之１","E_COORD97":171746.82999999999,"N_COORD97":2542603.2599999998,"ADDRESS":"自由路三段２４１號七樓之１","OBJECTID":235789},"geometry":{"x":171746.83000000007,"y":2542603.2600000016}},{"attributes":{"ID":235794,"DIS_CODE":0,"TOWNNAME":"東區","LI":"復興里","LIN":"13鄰","STREET":"自由路","SECT":"三段","MAREA":" ","LANE":" ","ALLEY":" ","HOUSE_NO":"２４１號七樓之２","E_COORD97":171746.82999999999,"N_COORD97":2542603.2599999998,"ADDRESS":"自由路三段２４１號七樓之２","OBJECTID":235790},"geometry":{"x":171746.83000000007,"y":2542603.2600000016}},{"attributes":{"ID":235795,"DIS_CODE":0,"TOWNNAME":"東區","LI":"復興里","LIN":"13鄰","STREET":"自由路","SECT":"三段","MAREA":" ","LANE":" ","ALLEY":" ","HOUSE_NO":"２４１號九樓","E_COORD97":171746.82999999999,"N_COORD97":2542603.2599999998,"ADDRESS":"自由路三段２４１號九樓","OBJECTID":235791},"geometry":{"x":171746.83000000007,"y":2542603.2600000016}},{"attributes":{"ID":235796,"DIS_CODE":0,"TOWNNAME":"新營區","LI":"民榮里","LIN":"1鄰","STREET":"復興路","SECT":" ","MAREA":" ","LANE":"１３５巷","ALLEY":" ","HOUSE_NO":"３號","E_COORD97":179337.843196,"N_COORD97":2577984.20107,"ADDRESS":"復興路１３５巷３號","OBJECTID":235792},"geometry":{"x":179337.84319600184,"y":2577984.2010740023}},{"attributes":{"ID":235797,"DIS_CODE":0,"TOWNNAME":"新化區","LI":"全興里","LIN":"16鄰","STREET":" ","SECT":" ","MAREA":"竹子\u25A0","LANE":" ","ALLEY":" ","HOUSE_NO":"２４７號之３９６","E_COORD97":178250.07999999999,"N_COORD97":2546677.2599999998,"ADDRESS":"竹子\u25A0２４７號之３９６","OBJECTID":235793},"geometry":{"x":178250.08000000194,"y":2546677.2600000016}},{"attributes":{"ID":235798,"DIS_CODE":0,"TOWNNAME":"新化區","LI":"全興里","LIN":"16鄰","STREET":" ","SECT":" ","MAREA":"竹子\u25A0","LANE":" ","ALLEY":" ","HOUSE_NO":"２４７號之４００","E_COORD97":178239.57000000001,"N_COORD97":2546677.2599999998,"ADDRESS":"竹子\u25A0２４７號之４００","OBJECTID":235794},"geometry":{"x":178239.5700000003,"y":2546677.2600000016}},{"attributes":{"ID":235799,"DIS_CODE":0,"TOWNNAME":"東區","LI":"復興里","LIN":"13鄰","STREET":"自由路","SECT":"三段","MAREA":" ","LANE":" ","ALLEY":" ","HOUSE_NO":"２４１號九樓之１","E_COORD97":171746.82999999999,"N_COORD97":2542603.2599999998,"ADDRESS":"自由路三段２４１號九樓之１","OBJECTID":235795},"geometry":{"x":171746.83000000007,"y":2542603.2600000016}},{"attributes":{"ID":235800,"DIS_CODE":0,"TOWNNAME":"新化區","LI":"全興里","LIN":"16鄰","STREET":" ","SECT":" ","MAREA":"竹子\u25A0","LANE":" ","ALLEY":" ","HOUSE_NO":"２４７號之３９０","E_COORD97":178269.76999999999,"N_COORD97":2546677.2599999998,"ADDRESS":"竹子\u25A0２４７號之３９０","OBJECTID":235796},"geometry":{"x":178269.76999999955,"y":2546677.2600000016}},{"attributes":{"ID":235801,"DIS_CODE":0,"TOWNNAME":"東區","LI":"復興里","LIN":"13鄰","STREET":"自由路","SECT":"三段","MAREA":" ","LANE":" ","ALLEY":" ","HOUSE_NO":"２４１號九樓之２","E_COORD97":171746.82999999999,"N_COORD97":2542603.2599999998,"ADDRESS":"自由路三段２４１號九樓之２","OBJECTID":235797},"geometry":{"x":171746.83000000007,"y":2542603.2600000016}},{"attributes":{"ID":235802,"DIS_CODE":0,"TOWNNAME":"東區","LI":"復興里","LIN":"13鄰","STREET":"自由路","SECT":"三段","MAREA":" ","LANE":" ","ALLEY":" ","HOUSE_NO":"２４１號二樓","E_COORD97":171746.82999999999,"N_COORD97":2542603.2599999998,"ADDRESS":"自由路三段２４１號二樓","OBJECTID":235798},"geometry":{"x":171746.83000000007,"y":2542603.2600000016}},{"attributes":{"ID":235803,"DIS_CODE":0,"TOWNNAME":"東區","LI":"復興里","LIN":"13鄰","STREET":"自由路","SECT":"三段","MAREA":" ","LANE":" ","ALLEY":" ","HOUSE_NO":"２４１號二樓之１","E_COORD97":171746.82999999999,"N_COORD97":2542603.2599999998,"ADDRESS":"自由路三段２４１號二樓之１","OBJECTID":235799},"geometry":{"x":171746.83000000007,"y":2542603.2600000016}},{"attributes":{"ID":235804,"DIS_CODE":0,"TOWNNAME":"歸仁區","LI":"文化里","LIN":"18鄰","STREET":"文化北二街","SECT":" ","MAREA":" ","LANE":"４５巷","ALLEY":" ","HOUSE_NO":"１號","E_COORD97":177140.20999999999,"N_COORD97":2541442.3399999999,"ADDRESS":"文化北二街４５巷１號","OBJECTID":235800},"geometry":{"x":177140.20999999996,"y":2541442.3400000017}}]}