{"displayFieldName":"TOWNNAME","fieldAliases":{"ID":"ID","DIS_CODE":"DIS_CODE","TOWNNAME":"TOWNNAME","LI":"LI","LIN":"LIN","STREET":"STREET","SECT":"SECT","MAREA":"MAREA","LANE":"LANE","ALLEY":"ALLEY","HOUSE_NO":"HOUSE_NO","E_COORD97":"E_COORD97","N_COORD97":"N_COORD97","ADDRESS":"ADDRESS","OBJECTID":"OBJECTID"},"geometryType":"esriGeometryPoint","spatialReference":{"wkid":102443,"latestWkid":3826},"fields":[{"name":"ID","type":"esriFieldTypeDouble","alias":"ID"},{"name":"DIS_CODE","type":"esriFieldTypeInteger","alias":"DIS_CODE"},{"name":"TOWNNAME","type":"esriFieldTypeString","alias":"TOWNNAME","length":8},{"name":"LI","type":"esriFieldTypeString","alias":"LI","length":8},{"name":"LIN","type":"esriFieldTypeString","alias":"LIN","length":12},{"name":"STREET","type":"esriFieldTypeString","alias":"STREET","length":20},{"name":"SECT","type":"esriFieldTypeString","alias":"SECT","length":8},{"name":"MAREA","type":"esriFieldTypeString","alias":"MAREA","length":12},{"name":"LANE","type":"esriFieldTypeString","alias":"LANE","length":10},{"name":"ALLEY","type":"esriFieldTypeString","alias":"ALLEY","length":10},{"name":"HOUSE_NO","type":"esriFieldTypeString","alias":"HOUSE_NO","length":20},{"name":"E_COORD97","type":"esriFieldTypeDouble","alias":"E_COORD97"},{"name":"N_COORD97","type":"esriFieldTypeDouble","alias":"N_COORD97"},{"name":"ADDRESS","type":"esriFieldTypeString","alias":"ADDRESS","length":50},{"name":"OBJECTID","type":"esriFieldTypeOID","alias":"OBJECTID"}],"features":[{"attributes":{"ID":189202,"DIS_CODE":0,"TOWNNAME":"北區","LI":"重興里","LIN":"5鄰","STREET":"林森路","SECT":"三段","MAREA":" ","LANE":"８４巷","ALLEY":"２弄","HOUSE_NO":"１３號","E_COORD97":170577.29000000001,"N_COORD97":2544824.5699999998,"ADDRESS":"林森路三段８４巷２弄１３號","OBJECTID":189201},"geometry":{"x":170577.29000000004,"y":2544824.5700000022}},{"attributes":{"ID":189203,"DIS_CODE":0,"TOWNNAME":"永康區","LI":"西勢里","LIN":"21鄰","STREET":"富強路","SECT":"一段","MAREA":" ","LANE":" ","ALLEY":" ","HOUSE_NO":"７４號","E_COORD97":175463.04999999999,"N_COORD97":2546114.0299999998,"ADDRESS":"富強路一段７４號","OBJECTID":189202},"geometry":{"x":175463.05000000168,"y":2546114.0299999993}},{"attributes":{"ID":189204,"DIS_CODE":0,"TOWNNAME":"佳里區","LI":"安西里","LIN":"21鄰","STREET":"光華街","SECT":" ","MAREA":" ","LANE":" ","ALLEY":" ","HOUSE_NO":"８２號","E_COORD97":165254.88,"N_COORD97":2562814.2000000002,"ADDRESS":"光華街８２號","OBJECTID":189203},"geometry":{"x":165254.88000000082,"y":2562814.1999999993}},{"attributes":{"ID":189205,"DIS_CODE":0,"TOWNNAME":"北區","LI":"重興里","LIN":"5鄰","STREET":"林森路","SECT":"三段","MAREA":" ","LANE":"８４巷","ALLEY":"２弄","HOUSE_NO":"１４號","E_COORD97":170572.72,"N_COORD97":2544825.3500000001,"ADDRESS":"林森路三段８４巷２弄１４號","OBJECTID":189204},"geometry":{"x":170572.71999999974,"y":2544825.3500000015}},{"attributes":{"ID":189206,"DIS_CODE":0,"TOWNNAME":"永康區","LI":"西灣里","LIN":"21鄰","STREET":"永大路","SECT":"二段","MAREA":" ","LANE":" ","ALLEY":" ","HOUSE_NO":"２３５號","E_COORD97":174356.51999999999,"N_COORD97":2545379.9300000002,"ADDRESS":"永大路二段２３５號","OBJECTID":189205},"geometry":{"x":174356.52000000048,"y":2545379.9299999997}},{"attributes":{"ID":189207,"DIS_CODE":0,"TOWNNAME":"佳里區","LI":"安西里","LIN":"21鄰","STREET":"光華街","SECT":" ","MAREA":" ","LANE":" ","ALLEY":" ","HOUSE_NO":"８６號","E_COORD97":165242.51999999999,"N_COORD97":2562815.0899999999,"ADDRESS":"光華街８６號","OBJECTID":189206},"geometry":{"x":165242.51999999955,"y":2562815.0899999999}},{"attributes":{"ID":189208,"DIS_CODE":0,"TOWNNAME":"北區","LI":"重興里","LIN":"5鄰","STREET":"林森路","SECT":"三段","MAREA":" ","LANE":"８４巷","ALLEY":"２弄","HOUSE_NO":"１５號","E_COORD97":170567.45999999999,"N_COORD97":2544825.0899999999,"ADDRESS":"林森路三段８４巷２弄１５號","OBJECTID":189207},"geometry":{"x":170567.45999999996,"y":2544825.0900000017}},{"attributes":{"ID":189209,"DIS_CODE":0,"TOWNNAME":"永康區","LI":"尚頂里","LIN":"21鄰","STREET":"南台街","SECT":" ","MAREA":" ","LANE":" ","ALLEY":" ","HOUSE_NO":"９號之２","E_COORD97":170452.34,"N_COORD97":2546943.7999999998,"ADDRESS":"南台街９號之２","OBJECTID":189208},"geometry":{"x":170452.34000000078,"y":2546943.8000000026}},{"attributes":{"ID":189210,"DIS_CODE":0,"TOWNNAME":"北區","LI":"重興里","LIN":"5鄰","STREET":"林森路","SECT":"三段","MAREA":" ","LANE":"８４巷","ALLEY":"２弄","HOUSE_NO":"１６號","E_COORD97":170564.87,"N_COORD97":2544810.3599999999,"ADDRESS":"林森路三段８４巷２弄１６號","OBJECTID":189209},"geometry":{"x":170564.87000000011,"y":2544810.3599999994}},{"attributes":{"ID":189211,"DIS_CODE":0,"TOWNNAME":"北區","LI":"重興里","LIN":"5鄰","STREET":"林森路","SECT":"三段","MAREA":" ","LANE":"８４巷","ALLEY":"２弄","HOUSE_NO":"１７號","E_COORD97":170569.01000000001,"N_COORD97":2544808.7200000002,"ADDRESS":"林森路三段８４巷２弄１７號","OBJECTID":189210},"geometry":{"x":170569.00999999978,"y":2544808.7200000007}},{"attributes":{"ID":189212,"DIS_CODE":0,"TOWNNAME":"北區","LI":"重興里","LIN":"5鄰","STREET":"林森路","SECT":"三段","MAREA":" ","LANE":"８４巷","ALLEY":"２弄","HOUSE_NO":"１８號","E_COORD97":170574.17999999999,"N_COORD97":2544807.8599999999,"ADDRESS":"林森路三段８４巷２弄１８號","OBJECTID":189211},"geometry":{"x":170574.1799999997,"y":2544807.8600000031}},{"attributes":{"ID":189213,"DIS_CODE":0,"TOWNNAME":"北區","LI":"重興里","LIN":"5鄰","STREET":"林森路","SECT":"三段","MAREA":" ","LANE":"８４巷","ALLEY":"２弄","HOUSE_NO":"１９號","E_COORD97":170579.10000000001,"N_COORD97":2544807,"ADDRESS":"林森路三段８４巷２弄１９號","OBJECTID":189212},"geometry":{"x":170579.10000000056,"y":2544807}},{"attributes":{"ID":189214,"DIS_CODE":0,"TOWNNAME":"佳里區","LI":"安西里","LIN":"21鄰","STREET":"光華街","SECT":" ","MAREA":" ","LANE":" ","ALLEY":" ","HOUSE_NO":"８８號","E_COORD97":165235.64000000001,"N_COORD97":2562815.5099999998,"ADDRESS":"光華街８８號","OBJECTID":189213},"geometry":{"x":165235.6400000006,"y":2562815.5099999998}},{"attributes":{"ID":189215,"DIS_CODE":0,"TOWNNAME":"永康區","LI":"西灣里","LIN":"21鄰","STREET":"永大路","SECT":"二段","MAREA":" ","LANE":" ","ALLEY":" ","HOUSE_NO":"２０１號","E_COORD97":174332.70999999999,"N_COORD97":2545306.5499999998,"ADDRESS":"永大路二段２０１號","OBJECTID":189214},"geometry":{"x":174332.70999999996,"y":2545306.5500000026}},{"attributes":{"ID":189216,"DIS_CODE":0,"TOWNNAME":"永康區","LI":"西灣里","LIN":"21鄰","STREET":"永大路","SECT":"二段","MAREA":" ","LANE":" ","ALLEY":" ","HOUSE_NO":"２１５號","E_COORD97":174342.92999999999,"N_COORD97":2545337.2599999998,"ADDRESS":"永大路二段２１５號","OBJECTID":189215},"geometry":{"x":174342.9299999997,"y":2545337.2599999998}},{"attributes":{"ID":189217,"DIS_CODE":0,"TOWNNAME":"官田區","LI":"渡頭里","LIN":"27鄰","STREET":" ","SECT":" ","MAREA":"三塊厝","LANE":" ","ALLEY":" ","HOUSE_NO":"７１號之９","E_COORD97":182362.45999999999,"N_COORD97":2562396.4500000002,"ADDRESS":"三塊厝７１號之９","OBJECTID":189216},"geometry":{"x":182362.45999999996,"y":2562396.450000003}},{"attributes":{"ID":189218,"DIS_CODE":0,"TOWNNAME":"官田區","LI":"渡頭里","LIN":"27鄰","STREET":" ","SECT":" ","MAREA":"三塊厝","LANE":" ","ALLEY":" ","HOUSE_NO":"７２號","E_COORD97":182386.20000000001,"N_COORD97":2562370.4100000001,"ADDRESS":"三塊厝７２號","OBJECTID":189217},"geometry":{"x":182386.20000000112,"y":2562370.4100000039}},{"attributes":{"ID":189219,"DIS_CODE":0,"TOWNNAME":"官田區","LI":"渡頭里","LIN":"27鄰","STREET":" ","SECT":" ","MAREA":"三塊厝","LANE":" ","ALLEY":" ","HOUSE_NO":"７７號","E_COORD97":182437.22,"N_COORD97":2562130.9900000002,"ADDRESS":"三塊厝７７號","OBJECTID":189218},"geometry":{"x":182437.21999999974,"y":2562130.9900000002}},{"attributes":{"ID":189220,"DIS_CODE":0,"TOWNNAME":"官田區","LI":"渡頭里","LIN":"27鄰","STREET":" ","SECT":" ","MAREA":"三塊厝","LANE":" ","ALLEY":" ","HOUSE_NO":"７８號之２","E_COORD97":182438.37,"N_COORD97":2562089.79,"ADDRESS":"三塊厝７８號之２","OBJECTID":189219},"geometry":{"x":182438.37000000011,"y":2562089.790000001}},{"attributes":{"ID":189221,"DIS_CODE":0,"TOWNNAME":"官田區","LI":"渡頭里","LIN":"27鄰","STREET":" ","SECT":" ","MAREA":"三塊厝","LANE":" ","ALLEY":" ","HOUSE_NO":"７８號","E_COORD97":182439.10000000001,"N_COORD97":2562098.8199999998,"ADDRESS":"三塊厝７８號","OBJECTID":189220},"geometry":{"x":182439.10000000056,"y":2562098.8200000003}},{"attributes":{"ID":189222,"DIS_CODE":0,"TOWNNAME":"官田區","LI":"渡頭里","LIN":"27鄰","STREET":" ","SECT":" ","MAREA":"三塊厝","LANE":" ","ALLEY":" ","HOUSE_NO":"８１號","E_COORD97":182411.64999999999,"N_COORD97":2562049.71,"ADDRESS":"三塊厝８１號","OBJECTID":189221},"geometry":{"x":182411.65000000224,"y":2562049.7100000009}},{"attributes":{"ID":189223,"DIS_CODE":0,"TOWNNAME":"官田區","LI":"渡頭里","LIN":"27鄰","STREET":" ","SECT":" ","MAREA":"三塊厝","LANE":" ","ALLEY":" ","HOUSE_NO":"８２號","E_COORD97":182407.41,"N_COORD97":2562038.73,"ADDRESS":"三塊厝８２號","OBJECTID":189222},"geometry":{"x":182407.41000000015,"y":2562038.7300000004}},{"attributes":{"ID":189224,"DIS_CODE":0,"TOWNNAME":"官田區","LI":"渡頭里","LIN":"27鄰","STREET":" ","SECT":" ","MAREA":"三塊厝","LANE":" ","ALLEY":" ","HOUSE_NO":"８４號","E_COORD97":182366.32000000001,"N_COORD97":2561975.5299999998,"ADDRESS":"三塊厝８４號","OBJECTID":189223},"geometry":{"x":182366.32000000216,"y":2561975.5300000031}},{"attributes":{"ID":189225,"DIS_CODE":0,"TOWNNAME":"官田區","LI":"渡頭里","LIN":"27鄰","STREET":" ","SECT":" ","MAREA":"三塊厝","LANE":" ","ALLEY":" ","HOUSE_NO":"８９號","E_COORD97":182310.64999999999,"N_COORD97":2561913.52,"ADDRESS":"三塊厝８９號","OBJECTID":189224},"geometry":{"x":182310.6500000013,"y":2561913.5199999996}},{"attributes":{"ID":189226,"DIS_CODE":0,"TOWNNAME":"官田區","LI":"渡頭里","LIN":"27鄰","STREET":" ","SECT":" ","MAREA":"三塊厝","LANE":" ","ALLEY":" ","HOUSE_NO":"９４號","E_COORD97":182383.97,"N_COORD97":2561903.46,"ADDRESS":"三塊厝９４號","OBJECTID":189225},"geometry":{"x":182383.97000000067,"y":2561903.4600000028}},{"attributes":{"ID":189227,"DIS_CODE":0,"TOWNNAME":"官田區","LI":"渡頭里","LIN":"27鄰","STREET":" ","SECT":" ","MAREA":"三塊厝","LANE":" ","ALLEY":" ","HOUSE_NO":"９５號","E_COORD97":182428.10999999999,"N_COORD97":2561891.0800000001,"ADDRESS":"三塊厝９５號","OBJECTID":189226},"geometry":{"x":182428.11000000034,"y":2561891.0800000038}},{"attributes":{"ID":189228,"DIS_CODE":0,"TOWNNAME":"官田區","LI":"渡頭里","LIN":"27鄰","STREET":" ","SECT":" ","MAREA":"三塊厝","LANE":" ","ALLEY":" ","HOUSE_NO":"９８號","E_COORD97":182423.39000000001,"N_COORD97":2561967.3900000001,"ADDRESS":"三塊厝９８號","OBJECTID":189227},"geometry":{"x":182423.3900000006,"y":2561967.3900000043}},{"attributes":{"ID":189229,"DIS_CODE":0,"TOWNNAME":"新市區","LI":"大社里","LIN":"27鄰","STREET":" ","SECT":" ","MAREA":"大社","LANE":" ","ALLEY":" ","HOUSE_NO":"７２０之３號","E_COORD97":180123.32000000001,"N_COORD97":2554257.2999999998,"ADDRESS":"大社７２０之３號","OBJECTID":189228},"geometry":{"x":180123.3200000003,"y":2554257.3000000007}},{"attributes":{"ID":189230,"DIS_CODE":0,"TOWNNAME":"北區","LI":"重興里","LIN":"5鄰","STREET":"林森路","SECT":"三段","MAREA":" ","LANE":"８４巷","ALLEY":"２弄","HOUSE_NO":"１號","E_COORD97":170633.29999999999,"N_COORD97":2544814.7200000002,"ADDRESS":"林森路三段８４巷２弄１號","OBJECTID":189229},"geometry":{"x":170633.29999999981,"y":2544814.7200000025}},{"attributes":{"ID":189231,"DIS_CODE":0,"TOWNNAME":"永康區","LI":"永康里","LIN":"21鄰","STREET":"中山南路","SECT":" ","MAREA":" ","LANE":" ","ALLEY":" ","HOUSE_NO":"９８６號","E_COORD97":173594.09,"N_COORD97":2547210.0600000001,"ADDRESS":"中山南路９８６號","OBJECTID":189230},"geometry":{"x":173594.08999999985,"y":2547210.0600000005}},{"attributes":{"ID":189232,"DIS_CODE":0,"TOWNNAME":"新市區","LI":"大社里","LIN":"27鄰","STREET":" ","SECT":" ","MAREA":"大社","LANE":" ","ALLEY":" ","HOUSE_NO":"７１５之２號","E_COORD97":180104.12,"N_COORD97":2554306.2999999998,"ADDRESS":"大社７１５之２號","OBJECTID":189231},"geometry":{"x":180104.12000000011,"y":2554306.3000000026}},{"attributes":{"ID":189233,"DIS_CODE":0,"TOWNNAME":"新市區","LI":"大社里","LIN":"27鄰","STREET":" ","SECT":" ","MAREA":"大社","LANE":" ","ALLEY":" ","HOUSE_NO":"７２５號","E_COORD97":180013.39999999999,"N_COORD97":2554263,"ADDRESS":"大社７２５號","OBJECTID":189232},"geometry":{"x":180013.4000000013,"y":2554262.9999999981}},{"attributes":{"ID":189234,"DIS_CODE":0,"TOWNNAME":"新市區","LI":"大社里","LIN":"27鄰","STREET":" ","SECT":" ","MAREA":"大社","LANE":" ","ALLEY":" ","HOUSE_NO":"７２１號","E_COORD97":180076.26000000001,"N_COORD97":2554291.5,"ADDRESS":"大社７２１號","OBJECTID":189233},"geometry":{"x":180076.26000000071,"y":2554291.5000000019}},{"attributes":{"ID":189235,"DIS_CODE":0,"TOWNNAME":"新市區","LI":"大社里","LIN":"27鄰","STREET":" ","SECT":" ","MAREA":"大社","LANE":" ","ALLEY":" ","HOUSE_NO":"７１６號","E_COORD97":180105.73000000001,"N_COORD97":2554298.5,"ADDRESS":"大社７１６號","OBJECTID":189234},"geometry":{"x":180105.73000000231,"y":2554298.5000000019}},{"attributes":{"ID":189236,"DIS_CODE":0,"TOWNNAME":"新市區","LI":"大社里","LIN":"27鄰","STREET":" ","SECT":" ","MAREA":"大社","LANE":" ","ALLEY":" ","HOUSE_NO":"７１５之１號","E_COORD97":180102.73000000001,"N_COORD97":2554309.7999999998,"ADDRESS":"大社７１５之１號","OBJECTID":189235},"geometry":{"x":180102.73000000138,"y":2554309.8000000026}},{"attributes":{"ID":189237,"DIS_CODE":0,"TOWNNAME":"新市區","LI":"大社里","LIN":"27鄰","STREET":" ","SECT":" ","MAREA":"大社","LANE":" ","ALLEY":" ","HOUSE_NO":"７２８號","E_COORD97":179995.42999999999,"N_COORD97":2554256,"ADDRESS":"大社７２８號","OBJECTID":189236},"geometry":{"x":179995.43000000063,"y":2554256}},{"attributes":{"ID":189238,"DIS_CODE":0,"TOWNNAME":"新市區","LI":"大社里","LIN":"27鄰","STREET":" ","SECT":" ","MAREA":"大社","LANE":" ","ALLEY":" ","HOUSE_NO":"７２２號","E_COORD97":180053.35000000001,"N_COORD97":2554287.5,"ADDRESS":"大社７２２號","OBJECTID":189237},"geometry":{"x":180053.35000000056,"y":2554287.5000000019}},{"attributes":{"ID":189239,"DIS_CODE":0,"TOWNNAME":"新市區","LI":"大社里","LIN":"27鄰","STREET":" ","SECT":" ","MAREA":"大社","LANE":" ","ALLEY":" ","HOUSE_NO":"７１９號","E_COORD97":180113.23000000001,"N_COORD97":2554280.5,"ADDRESS":"大社７１９號","OBJECTID":189238},"geometry":{"x":180113.23000000138,"y":2554280.5000000019}},{"attributes":{"ID":189240,"DIS_CODE":0,"TOWNNAME":"新市區","LI":"大社里","LIN":"27鄰","STREET":" ","SECT":" ","MAREA":"大社","LANE":" ","ALLEY":" ","HOUSE_NO":"７１５號","E_COORD97":180103.38,"N_COORD97":2554302.5,"ADDRESS":"大社７１５號","OBJECTID":189239},"geometry":{"x":180103.37999999989,"y":2554302.5}},{"attributes":{"ID":189241,"DIS_CODE":0,"TOWNNAME":"鹽水區","LI":"河南里","LIN":"10鄰","STREET":" ","SECT":" ","MAREA":"?頭港","LANE":" ","ALLEY":" ","HOUSE_NO":"８４號","E_COORD97":172780.75,"N_COORD97":2572603.6499999999,"ADDRESS":"?頭港８４號","OBJECTID":189240},"geometry":{"x":172780.75000000093,"y":2572603.6500000004}},{"attributes":{"ID":189242,"DIS_CODE":0,"TOWNNAME":"鹽水區","LI":"南港里","LIN":"10鄰","STREET":" ","SECT":" ","MAREA":"?頭港","LANE":" ","ALLEY":" ","HOUSE_NO":"２０６號","E_COORD97":173490.23000000001,"N_COORD97":2572650.8799999999,"ADDRESS":"?頭港２０６號","OBJECTID":189241},"geometry":{"x":173490.23000000045,"y":2572650.879999999}},{"attributes":{"ID":189243,"DIS_CODE":0,"TOWNNAME":"麻豆區","LI":"大埕里","LIN":"10鄰","STREET":" ","SECT":" ","MAREA":"\u25A0祖\u25A0","LANE":" ","ALLEY":" ","HOUSE_NO":"１２號之９","E_COORD97":172956.42000000001,"N_COORD97":2565214.8900000001,"ADDRESS":"\u25A0祖\u25A0１２號之９","OBJECTID":189242},"geometry":{"x":172956.41999999993,"y":2565214.8900000006}},{"attributes":{"ID":189244,"DIS_CODE":0,"TOWNNAME":"麻豆區","LI":"大埕里","LIN":"10鄰","STREET":" ","SECT":" ","MAREA":"\u25A0祖\u25A0","LANE":" ","ALLEY":" ","HOUSE_NO":"１２號","E_COORD97":172961.89000000001,"N_COORD97":2565245.6800000002,"ADDRESS":"\u25A0祖\u25A0１２號","OBJECTID":189243},"geometry":{"x":172961.89000000153,"y":2565245.6799999997}},{"attributes":{"ID":189245,"DIS_CODE":0,"TOWNNAME":"鹽水區","LI":"南港里","LIN":"10鄰","STREET":" ","SECT":" ","MAREA":"?頭港","LANE":" ","ALLEY":" ","HOUSE_NO":"２０７號","E_COORD97":173485.38,"N_COORD97":2572675.27,"ADDRESS":"?頭港２０７號","OBJECTID":189244},"geometry":{"x":173485.37999999989,"y":2572675.2700000014}},{"attributes":{"ID":189246,"DIS_CODE":0,"TOWNNAME":"鹽水區","LI":"南港里","LIN":"10鄰","STREET":" ","SECT":" ","MAREA":"?頭港","LANE":" ","ALLEY":" ","HOUSE_NO":"２０８之２號","E_COORD97":173518.14000000001,"N_COORD97":2572715.4900000002,"ADDRESS":"?頭港２０８之２號","OBJECTID":189245},"geometry":{"x":173518.1400000006,"y":2572715.4900000021}},{"attributes":{"ID":189247,"DIS_CODE":0,"TOWNNAME":"鹽水區","LI":"南港里","LIN":"10鄰","STREET":" ","SECT":" ","MAREA":"?頭港","LANE":" ","ALLEY":" ","HOUSE_NO":"２０８號","E_COORD97":173500.79000000001,"N_COORD97":2572720.1400000001,"ADDRESS":"?頭港２０８號","OBJECTID":189246},"geometry":{"x":173500.79000000097,"y":2572720.1400000043}},{"attributes":{"ID":189248,"DIS_CODE":0,"TOWNNAME":"鹽水區","LI":"南港里","LIN":"10鄰","STREET":" ","SECT":" ","MAREA":"?頭港","LANE":" ","ALLEY":" ","HOUSE_NO":"２０９號","E_COORD97":173515.54000000001,"N_COORD97":2572671.6600000001,"ADDRESS":"?頭港２０９號","OBJECTID":189247},"geometry":{"x":173515.53999999911,"y":2572671.6600000001}},{"attributes":{"ID":189249,"DIS_CODE":0,"TOWNNAME":"鹽水區","LI":"南港里","LIN":"10鄰","STREET":" ","SECT":" ","MAREA":"?頭港","LANE":" ","ALLEY":" ","HOUSE_NO":"２１０號","E_COORD97":173515.44,"N_COORD97":2572659.5099999998,"ADDRESS":"?頭港２１０號","OBJECTID":189248},"geometry":{"x":173515.44000000134,"y":2572659.5100000016}},{"attributes":{"ID":189250,"DIS_CODE":0,"TOWNNAME":"鹽水區","LI":"南港里","LIN":"10鄰","STREET":" ","SECT":" ","MAREA":"?頭港","LANE":" ","ALLEY":" ","HOUSE_NO":"２１１號","E_COORD97":173512.17999999999,"N_COORD97":2572641.1800000002,"ADDRESS":"?頭港２１１號","OBJECTID":189249},"geometry":{"x":173512.1799999997,"y":2572641.1800000016}},{"attributes":{"ID":189251,"DIS_CODE":0,"TOWNNAME":"鹽水區","LI":"南港里","LIN":"10鄰","STREET":" ","SECT":" ","MAREA":"?頭港","LANE":" ","ALLEY":" ","HOUSE_NO":"２１２號","E_COORD97":173545.03,"N_COORD97":2572664.3399999999,"ADDRESS":"?頭港２１２號","OBJECTID":189250},"geometry":{"x":173545.03000000119,"y":2572664.3400000017}},{"attributes":{"ID":189252,"DIS_CODE":0,"TOWNNAME":"鹽水區","LI":"南港里","LIN":"10鄰","STREET":" ","SECT":" ","MAREA":"?頭港","LANE":" ","ALLEY":" ","HOUSE_NO":"２１３之１號","E_COORD97":173568.37,"N_COORD97":2572666.3199999998,"ADDRESS":"?頭港２１３之１號","OBJECTID":189251},"geometry":{"x":173568.37000000104,"y":2572666.3200000003}},{"attributes":{"ID":189253,"DIS_CODE":0,"TOWNNAME":"鹽水區","LI":"南港里","LIN":"10鄰","STREET":" ","SECT":" ","MAREA":"?頭港","LANE":" ","ALLEY":" ","HOUSE_NO":"２１３號","E_COORD97":173561.03,"N_COORD97":2572663.7000000002,"ADDRESS":"?頭港２１３號","OBJECTID":189252},"geometry":{"x":173561.03000000026,"y":2572663.6999999993}},{"attributes":{"ID":189254,"DIS_CODE":0,"TOWNNAME":"鹽水區","LI":"南港里","LIN":"10鄰","STREET":" ","SECT":" ","MAREA":"?頭港","LANE":" ","ALLEY":" ","HOUSE_NO":"２１４號","E_COORD97":173560.54999999999,"N_COORD97":2572687.3500000001,"ADDRESS":"?頭港２１４號","OBJECTID":189253},"geometry":{"x":173560.54999999981,"y":2572687.3500000034}},{"attributes":{"ID":189255,"DIS_CODE":0,"TOWNNAME":"鹽水區","LI":"南港里","LIN":"10鄰","STREET":" ","SECT":" ","MAREA":"?頭港","LANE":" ","ALLEY":" ","HOUSE_NO":"２１５號","E_COORD97":173549.51000000001,"N_COORD97":2572688.0899999999,"ADDRESS":"?頭港２１５號","OBJECTID":189254},"geometry":{"x":173549.51000000164,"y":2572688.0899999999}},{"attributes":{"ID":189256,"DIS_CODE":0,"TOWNNAME":"北區","LI":"重興里","LIN":"5鄰","STREET":"林森路","SECT":"三段","MAREA":" ","LANE":"８４巷","ALLEY":"２弄","HOUSE_NO":"２０號","E_COORD97":170583.92999999999,"N_COORD97":2544806.5699999998,"ADDRESS":"林森路三段８４巷２弄２０號","OBJECTID":189255},"geometry":{"x":170583.93000000063,"y":2544806.5700000003}},{"attributes":{"ID":189257,"DIS_CODE":0,"TOWNNAME":"北區","LI":"重興里","LIN":"5鄰","STREET":"林森路","SECT":"三段","MAREA":" ","LANE":"８４巷","ALLEY":"２弄","HOUSE_NO":"２１號","E_COORD97":170588.67000000001,"N_COORD97":2544806.0499999998,"ADDRESS":"林森路三段８４巷２弄２１號","OBJECTID":189256},"geometry":{"x":170588.67000000179,"y":2544806.0500000026}},{"attributes":{"ID":189258,"DIS_CODE":0,"TOWNNAME":"北區","LI":"重興里","LIN":"5鄰","STREET":"林森路","SECT":"三段","MAREA":" ","LANE":"８４巷","ALLEY":"２弄","HOUSE_NO":"２３號","E_COORD97":170598.85000000001,"N_COORD97":2544804.1499999999,"ADDRESS":"林森路三段８４巷２弄２３號","OBJECTID":189257},"geometry":{"x":170598.84999999963,"y":2544804.1500000022}},{"attributes":{"ID":189259,"DIS_CODE":0,"TOWNNAME":"北區","LI":"重興里","LIN":"5鄰","STREET":"林森路","SECT":"三段","MAREA":" ","LANE":"８４巷","ALLEY":"２弄","HOUSE_NO":"２４號","E_COORD97":170603.32999999999,"N_COORD97":2544802.0899999999,"ADDRESS":"林森路三段８４巷２弄２４號","OBJECTID":189258},"geometry":{"x":170603.33000000101,"y":2544802.0899999999}},{"attributes":{"ID":189260,"DIS_CODE":0,"TOWNNAME":"北區","LI":"重興里","LIN":"5鄰","STREET":"林森路","SECT":"三段","MAREA":" ","LANE":"８４巷","ALLEY":"２弄","HOUSE_NO":"２５號","E_COORD97":170608.29000000001,"N_COORD97":2544801.02,"ADDRESS":"林森路三段８４巷２弄２５號","OBJECTID":189259},"geometry":{"x":170608.28999999911,"y":2544801.0200000014}},{"attributes":{"ID":189261,"DIS_CODE":0,"TOWNNAME":"安南區","LI":"新順里","LIN":"21鄰","STREET":"育安三街","SECT":" ","MAREA":" ","LANE":" ","ALLEY":" ","HOUSE_NO":"１號","E_COORD97":169217.98999999999,"N_COORD97":2549833.54,"ADDRESS":"育安三街１號","OBJECTID":189260},"geometry":{"x":169217.99000000115,"y":2549833.5399999991}},{"attributes":{"ID":189262,"DIS_CODE":0,"TOWNNAME":"佳里區","LI":"六安里","LIN":"21鄰","STREET":"安北路","SECT":" ","MAREA":" ","LANE":" ","ALLEY":" ","HOUSE_NO":"１９２號","E_COORD97":165469.51999999999,"N_COORD97":2563359.4100000001,"ADDRESS":"安北路１９２號","OBJECTID":189261},"geometry":{"x":165469.51999999955,"y":2563359.4100000001}},{"attributes":{"ID":189263,"DIS_CODE":0,"TOWNNAME":"安南區","LI":"安順里","LIN":"21鄰","STREET":"育安三街","SECT":" ","MAREA":" ","LANE":" ","ALLEY":" ","HOUSE_NO":"９９號","E_COORD97":169382.34,"N_COORD97":2549958,"ADDRESS":"育安三街９９號","OBJECTID":189262},"geometry":{"x":169382.34000000171,"y":2549958.0000000019}},{"attributes":{"ID":189264,"DIS_CODE":0,"TOWNNAME":"安南區","LI":"安順里","LIN":"21鄰","STREET":"育安三街","SECT":" ","MAREA":" ","LANE":" ","ALLEY":" ","HOUSE_NO":"９７號","E_COORD97":169377.57000000001,"N_COORD97":2549955.46,"ADDRESS":"育安三街９７號","OBJECTID":189263},"geometry":{"x":169377.5700000003,"y":2549955.4600000046}},{"attributes":{"ID":189265,"DIS_CODE":0,"TOWNNAME":"安南區","LI":"安順里","LIN":"21鄰","STREET":"育安三街","SECT":" ","MAREA":" ","LANE":" ","ALLEY":" ","HOUSE_NO":"１０１號","E_COORD97":169386.45999999999,"N_COORD97":2549960.8599999999,"ADDRESS":"育安三街１０１號","OBJECTID":189264},"geometry":{"x":169386.45999999996,"y":2549960.8599999975}},{"attributes":{"ID":189266,"DIS_CODE":0,"TOWNNAME":"安南區","LI":"安順里","LIN":"21鄰","STREET":"育安三街","SECT":" ","MAREA":" ","LANE":" ","ALLEY":" ","HOUSE_NO":"１０３號","E_COORD97":169390.42999999999,"N_COORD97":2549963.8700000001,"ADDRESS":"育安三街１０３號","OBJECTID":189265},"geometry":{"x":169390.43000000063,"y":2549963.8700000029}},{"attributes":{"ID":189267,"DIS_CODE":0,"TOWNNAME":"安南區","LI":"安順里","LIN":"21鄰","STREET":"育安三街","SECT":" ","MAREA":" ","LANE":" ","ALLEY":" ","HOUSE_NO":"１０７號","E_COORD97":169421.70999999999,"N_COORD97":2549987.6899999999,"ADDRESS":"育安三街１０７號","OBJECTID":189266},"geometry":{"x":169421.70999999996,"y":2549987.6900000013}},{"attributes":{"ID":189268,"DIS_CODE":0,"TOWNNAME":"安南區","LI":"海東里","LIN":"21鄰","STREET":"海佃路","SECT":"二段","MAREA":" ","LANE":" ","ALLEY":" ","HOUSE_NO":"８７號","E_COORD97":166954.67000000001,"N_COORD97":2548167.7599999998,"ADDRESS":"海佃路二段８７號","OBJECTID":189267},"geometry":{"x":166954.67000000086,"y":2548167.7599999998}},{"attributes":{"ID":189269,"DIS_CODE":0,"TOWNNAME":"仁德區","LI":"一甲里","LIN":"20鄰","STREET":"太乙七街","SECT":" ","MAREA":" ","LANE":" ","ALLEY":" ","HOUSE_NO":"４３號","E_COORD97":173120.20999999999,"N_COORD97":2542206.2599999998,"ADDRESS":"太乙七街４３號","OBJECTID":189268},"geometry":{"x":173120.21000000089,"y":2542206.2600000016}},{"attributes":{"ID":189270,"DIS_CODE":0,"TOWNNAME":"七股區","LI":"大潭里","LIN":"21鄰","STREET":" ","SECT":" ","MAREA":"頂潭","LANE":" ","ALLEY":" ","HOUSE_NO":"４８號","E_COORD97":160961.70999999999,"N_COORD97":2565763.4399999999,"ADDRESS":"頂潭４８號","OBJECTID":189269},"geometry":{"x":160961.71000000089,"y":2565763.4400000032}},{"attributes":{"ID":189271,"DIS_CODE":0,"TOWNNAME":"仁德區","LI":"一甲里","LIN":"20鄰","STREET":"太乙七街","SECT":" ","MAREA":" ","LANE":" ","ALLEY":" ","HOUSE_NO":"４５號","E_COORD97":173108.17000000001,"N_COORD97":2542180.5099999998,"ADDRESS":"太乙七街４５號","OBJECTID":189270},"geometry":{"x":173108.17000000086,"y":2542180.5100000016}},{"attributes":{"ID":189272,"DIS_CODE":0,"TOWNNAME":"北區","LI":"重興里","LIN":"5鄰","STREET":"林森路","SECT":"三段","MAREA":" ","LANE":"８４巷","ALLEY":"２弄","HOUSE_NO":"２６號","E_COORD97":170613.20999999999,"N_COORD97":2544800.5,"ADDRESS":"林森路三段８４巷２弄２６號","OBJECTID":189271},"geometry":{"x":170613.20999999996,"y":2544800.4999999981}},{"attributes":{"ID":189273,"DIS_CODE":0,"TOWNNAME":"北區","LI":"重興里","LIN":"5鄰","STREET":"林森路","SECT":"三段","MAREA":" ","LANE":"８４巷","ALLEY":"２弄","HOUSE_NO":"２７號","E_COORD97":170618.47,"N_COORD97":2544799.73,"ADDRESS":"林森路三段８４巷２弄２７號","OBJECTID":189272},"geometry":{"x":170618.46999999974,"y":2544799.7300000042}},{"attributes":{"ID":189274,"DIS_CODE":0,"TOWNNAME":"北區","LI":"重興里","LIN":"5鄰","STREET":"林森路","SECT":"三段","MAREA":" ","LANE":"８４巷","ALLEY":"２弄","HOUSE_NO":"２８號","E_COORD97":170631.12,"N_COORD97":2544796.98,"ADDRESS":"林森路三段８４巷２弄２８號","OBJECTID":189273},"geometry":{"x":170631.12000000011,"y":2544796.9800000004}},{"attributes":{"ID":189275,"DIS_CODE":0,"TOWNNAME":"北區","LI":"重興里","LIN":"5鄰","STREET":"林森路","SECT":"三段","MAREA":" ","LANE":"８４巷","ALLEY":"２弄","HOUSE_NO":"２９號","E_COORD97":170640.26000000001,"N_COORD97":2544794.1400000001,"ADDRESS":"林森路三段８４巷２弄２９號","OBJECTID":189274},"geometry":{"x":170640.25999999978,"y":2544794.1400000025}},{"attributes":{"ID":189276,"DIS_CODE":0,"TOWNNAME":"北區","LI":"重興里","LIN":"5鄰","STREET":"林森路","SECT":"三段","MAREA":" ","LANE":"８４巷","ALLEY":"２弄","HOUSE_NO":"２號","E_COORD97":170626.75,"N_COORD97":2544815.75,"ADDRESS":"林森路三段８４巷２弄２號","OBJECTID":189275},"geometry":{"x":170626.75,"y":2544815.7499999981}},{"attributes":{"ID":189277,"DIS_CODE":0,"TOWNNAME":"北區","LI":"重興里","LIN":"5鄰","STREET":"林森路","SECT":"三段","MAREA":" ","LANE":"８４巷","ALLEY":"２弄","HOUSE_NO":"３０號","E_COORD97":170649.66,"N_COORD97":2544793.9700000002,"ADDRESS":"林森路三段８４巷２弄３０號","OBJECTID":189276},"geometry":{"x":170649.66000000015,"y":2544793.9700000007}},{"attributes":{"ID":189278,"DIS_CODE":0,"TOWNNAME":"仁德區","LI":"一甲里","LIN":"20鄰","STREET":"太乙六街","SECT":" ","MAREA":" ","LANE":" ","ALLEY":" ","HOUSE_NO":"５７號","E_COORD97":173205.39999999999,"N_COORD97":2542260.5,"ADDRESS":"太乙六街５７號","OBJECTID":189277},"geometry":{"x":173205.4000000013,"y":2542260.5}},{"attributes":{"ID":189279,"DIS_CODE":0,"TOWNNAME":"北區","LI":"重興里","LIN":"5鄰","STREET":"林森路","SECT":"三段","MAREA":" ","LANE":"８４巷","ALLEY":"２弄","HOUSE_NO":"３１號","E_COORD97":170657.85999999999,"N_COORD97":2544792.6699999999,"ADDRESS":"林森路三段８４巷２弄３１號","OBJECTID":189278},"geometry":{"x":170657.86000000127,"y":2544792.6700000037}},{"attributes":{"ID":189280,"DIS_CODE":0,"TOWNNAME":"北區","LI":"重興里","LIN":"5鄰","STREET":"林森路","SECT":"三段","MAREA":" ","LANE":"８４巷","ALLEY":"２弄","HOUSE_NO":"３２號","E_COORD97":170663.89000000001,"N_COORD97":2544792.0699999998,"ADDRESS":"林森路三段８４巷２弄３２號","OBJECTID":189279},"geometry":{"x":170663.8900000006,"y":2544792.0700000003}},{"attributes":{"ID":189281,"DIS_CODE":0,"TOWNNAME":"北區","LI":"重興里","LIN":"5鄰","STREET":"林森路","SECT":"三段","MAREA":" ","LANE":"８４巷","ALLEY":"２弄","HOUSE_NO":"３３號","E_COORD97":170670.45000000001,"N_COORD97":2544791.5499999998,"ADDRESS":"林森路三段８４巷２弄３３號","OBJECTID":189280},"geometry":{"x":170670.45000000112,"y":2544791.5500000026}},{"attributes":{"ID":189282,"DIS_CODE":0,"TOWNNAME":"北區","LI":"重興里","LIN":"5鄰","STREET":"林森路","SECT":"三段","MAREA":" ","LANE":"８４巷","ALLEY":"２弄","HOUSE_NO":"３４號","E_COORD97":170675.97,"N_COORD97":2544790.4300000002,"ADDRESS":"林森路三段８４巷２弄３４號","OBJECTID":189281},"geometry":{"x":170675.96999999974,"y":2544790.4299999978}},{"attributes":{"ID":189283,"DIS_CODE":0,"TOWNNAME":"北區","LI":"重興里","LIN":"5鄰","STREET":"林森路","SECT":"三段","MAREA":" ","LANE":"８４巷","ALLEY":"２弄","HOUSE_NO":"３５號","E_COORD97":170680.79000000001,"N_COORD97":2544789.7400000002,"ADDRESS":"林森路三段８４巷２弄３５號","OBJECTID":189282},"geometry":{"x":170680.79000000004,"y":2544789.7400000021}},{"attributes":{"ID":189284,"DIS_CODE":0,"TOWNNAME":"北區","LI":"重興里","LIN":"5鄰","STREET":"林森路","SECT":"三段","MAREA":" ","LANE":"８４巷","ALLEY":"２弄","HOUSE_NO":"３６號","E_COORD97":170685.79999999999,"N_COORD97":2544788.54,"ADDRESS":"林森路三段８４巷２弄３６號","OBJECTID":189283},"geometry":{"x":170685.79999999981,"y":2544788.5399999991}},{"attributes":{"ID":189285,"DIS_CODE":0,"TOWNNAME":"北區","LI":"重興里","LIN":"5鄰","STREET":"林森路","SECT":"三段","MAREA":" ","LANE":"８４巷","ALLEY":"２弄","HOUSE_NO":"３７號","E_COORD97":170690.79999999999,"N_COORD97":2544787.4199999999,"ADDRESS":"林森路三段８４巷２弄３７號","OBJECTID":189284},"geometry":{"x":170690.79999999981,"y":2544787.4200000037}},{"attributes":{"ID":189286,"DIS_CODE":0,"TOWNNAME":"北區","LI":"重興里","LIN":"5鄰","STREET":"林森路","SECT":"三段","MAREA":" ","LANE":"８４巷","ALLEY":"２弄","HOUSE_NO":"３８號","E_COORD97":170695.97,"N_COORD97":2544786.4700000002,"ADDRESS":"林森路三段８４巷２弄３８號","OBJECTID":189285},"geometry":{"x":170695.96999999974,"y":2544786.4700000007}},{"attributes":{"ID":189287,"DIS_CODE":0,"TOWNNAME":"北區","LI":"重興里","LIN":"5鄰","STREET":"林森路","SECT":"三段","MAREA":" ","LANE":"８４巷","ALLEY":"２弄","HOUSE_NO":"３９號","E_COORD97":170695.70999999999,"N_COORD97":2544800.8599999999,"ADDRESS":"林森路三段８４巷２弄３９號","OBJECTID":189286},"geometry":{"x":170695.71000000089,"y":2544800.8600000031}},{"attributes":{"ID":189288,"DIS_CODE":0,"TOWNNAME":"北區","LI":"重興里","LIN":"5鄰","STREET":"林森路","SECT":"三段","MAREA":" ","LANE":"８４巷","ALLEY":"２弄","HOUSE_NO":"３號","E_COORD97":170622.01000000001,"N_COORD97":2544816.4399999999,"ADDRESS":"林森路三段８４巷２弄３號","OBJECTID":189287},"geometry":{"x":170622.01000000071,"y":2544816.4399999995}},{"attributes":{"ID":189289,"DIS_CODE":0,"TOWNNAME":"鹽水區","LI":"河南里","LIN":"10鄰","STREET":" ","SECT":" ","MAREA":"?頭港","LANE":" ","ALLEY":" ","HOUSE_NO":"８５號之１","E_COORD97":172816.10999999999,"N_COORD97":2572578.48,"ADDRESS":"?頭港８５號之１","OBJECTID":189288},"geometry":{"x":172816.11000000127,"y":2572578.4799999986}},{"attributes":{"ID":189290,"DIS_CODE":0,"TOWNNAME":"鹽水區","LI":"河南里","LIN":"10鄰","STREET":" ","SECT":" ","MAREA":"?頭港","LANE":" ","ALLEY":" ","HOUSE_NO":"８５號","E_COORD97":172806.62,"N_COORD97":2572599.6699999999,"ADDRESS":"?頭港８５號","OBJECTID":189289},"geometry":{"x":172806.62000000197,"y":2572599.6699999999}},{"attributes":{"ID":189291,"DIS_CODE":0,"TOWNNAME":"鹽水區","LI":"大豐里","LIN":"10鄰","STREET":" ","SECT":" ","MAREA":"大豐","LANE":" ","ALLEY":" ","HOUSE_NO":"１０１之１號","E_COORD97":170328.37,"N_COORD97":2573711.3700000001,"ADDRESS":"大豐１０１之１號","OBJECTID":189290},"geometry":{"x":170328.37000000104,"y":2573711.370000001}},{"attributes":{"ID":189292,"DIS_CODE":0,"TOWNNAME":"鹽水區","LI":"大豐里","LIN":"10鄰","STREET":" ","SECT":" ","MAREA":"大豐","LANE":" ","ALLEY":" ","HOUSE_NO":"８３號","E_COORD97":170361.20000000001,"N_COORD97":2573740.5600000001,"ADDRESS":"大豐８３號","OBJECTID":189291},"geometry":{"x":170361.20000000019,"y":2573740.5600000005}},{"attributes":{"ID":189293,"DIS_CODE":0,"TOWNNAME":"麻豆區","LI":"龍泉里","LIN":"10鄰","STREET":" ","SECT":" ","MAREA":"溝子墘","LANE":" ","ALLEY":" ","HOUSE_NO":"１０２號之２","E_COORD97":173971.35000000001,"N_COORD97":2564288.0800000001,"ADDRESS":"溝子墘１０２號之２","OBJECTID":189292},"geometry":{"x":173971.35000000056,"y":2564288.0800000038}},{"attributes":{"ID":189294,"DIS_CODE":0,"TOWNNAME":"鹽水區","LI":"竹埔里","LIN":"10鄰","STREET":" ","SECT":" ","MAREA":"竹子腳","LANE":" ","ALLEY":" ","HOUSE_NO":"４６號","E_COORD97":172936.91,"N_COORD97":2574535.75,"ADDRESS":"竹子腳４６號","OBJECTID":189293},"geometry":{"x":172936.91000000201,"y":2574535.7499999981}},{"attributes":{"ID":189295,"DIS_CODE":0,"TOWNNAME":"鹽水區","LI":"竹埔里","LIN":"10鄰","STREET":" ","SECT":" ","MAREA":"竹子腳","LANE":" ","ALLEY":" ","HOUSE_NO":"５０號","E_COORD97":172932.17999999999,"N_COORD97":2574564.6299999999,"ADDRESS":"竹子腳５０號","OBJECTID":189294},"geometry":{"x":172932.1799999997,"y":2574564.629999999}},{"attributes":{"ID":189296,"DIS_CODE":0,"TOWNNAME":"北區","LI":"重興里","LIN":"5鄰","STREET":"林森路","SECT":"三段","MAREA":" ","LANE":"８４巷","ALLEY":"２弄","HOUSE_NO":"４０號","E_COORD97":170688.98999999999,"N_COORD97":2544803.27,"ADDRESS":"林森路三段８４巷２弄４０號","OBJECTID":189295},"geometry":{"x":170688.99000000115,"y":2544803.2700000014}},{"attributes":{"ID":189297,"DIS_CODE":0,"TOWNNAME":"北區","LI":"重興里","LIN":"5鄰","STREET":"林森路","SECT":"三段","MAREA":" ","LANE":"８４巷","ALLEY":"２弄","HOUSE_NO":"４１號","E_COORD97":170683.73000000001,"N_COORD97":2544804.2200000002,"ADDRESS":"林森路三段８４巷２弄４１號","OBJECTID":189296},"geometry":{"x":170683.72999999952,"y":2544804.2200000025}},{"attributes":{"ID":189298,"DIS_CODE":0,"TOWNNAME":"七股區","LI":"大潭里","LIN":"21鄰","STREET":" ","SECT":" ","MAREA":"頂潭","LANE":" ","ALLEY":" ","HOUSE_NO":"４４號之３","E_COORD97":160929.45000000001,"N_COORD97":2565612.5099999998,"ADDRESS":"頂潭４４號之３","OBJECTID":189297},"geometry":{"x":160929.45000000019,"y":2565612.5099999998}},{"attributes":{"ID":189299,"DIS_CODE":0,"TOWNNAME":"七股區","LI":"大潭里","LIN":"21鄰","STREET":" ","SECT":" ","MAREA":"頂潭","LANE":" ","ALLEY":" ","HOUSE_NO":"４４號之５","E_COORD97":160946.14999999999,"N_COORD97":2565665.8999999999,"ADDRESS":"頂潭４４號之５","OBJECTID":189298},"geometry":{"x":160946.1500000013,"y":2565665.8999999985}},{"attributes":{"ID":189300,"DIS_CODE":0,"TOWNNAME":"七股區","LI":"大潭里","LIN":"21鄰","STREET":" ","SECT":" ","MAREA":"頂潭","LANE":" ","ALLEY":" ","HOUSE_NO":"４４號之６","E_COORD97":160936.35000000001,"N_COORD97":2565636.2799999998,"ADDRESS":"頂潭４４號之６","OBJECTID":189299},"geometry":{"x":160936.3499999987,"y":2565636.2800000012}},{"attributes":{"ID":189301,"DIS_CODE":0,"TOWNNAME":"七股區","LI":"大潭里","LIN":"21鄰","STREET":" ","SECT":" ","MAREA":"頂潭","LANE":" ","ALLEY":" ","HOUSE_NO":"４４號","E_COORD97":160940.89999999999,"N_COORD97":2565754.9300000002,"ADDRESS":"頂潭４４號","OBJECTID":189300},"geometry":{"x":160940.9000000013,"y":2565754.9300000016}},{"attributes":{"ID":189302,"DIS_CODE":0,"TOWNNAME":"七股區","LI":"大潭里","LIN":"21鄰","STREET":" ","SECT":" ","MAREA":"頂潭","LANE":" ","ALLEY":" ","HOUSE_NO":"４５號","E_COORD97":160945.92999999999,"N_COORD97":2565769.3199999998,"ADDRESS":"頂潭４５號","OBJECTID":189301},"geometry":{"x":160945.9299999997,"y":2565769.3200000022}},{"attributes":{"ID":189303,"DIS_CODE":0,"TOWNNAME":"七股區","LI":"大潭里","LIN":"21鄰","STREET":" ","SECT":" ","MAREA":"頂潭","LANE":" ","ALLEY":" ","HOUSE_NO":"４７號之１","E_COORD97":160959.44,"N_COORD97":2565784.1200000001,"ADDRESS":"頂潭４７號之１","OBJECTID":189302},"geometry":{"x":160959.44000000134,"y":2565784.1200000048}},{"attributes":{"ID":189304,"DIS_CODE":0,"TOWNNAME":"麻豆區","LI":"油車里","LIN":"21鄰","STREET":"興民街","SECT":" ","MAREA":" ","LANE":" ","ALLEY":" ","HOUSE_NO":"７６號之３","E_COORD97":172587.92999999999,"N_COORD97":2564985.5499999998,"ADDRESS":"興民街７６號之３","OBJECTID":189303},"geometry":{"x":172587.9299999997,"y":2564985.5500000026}},{"attributes":{"ID":189305,"DIS_CODE":0,"TOWNNAME":"中西區","LI":"光賢里","LIN":"21鄰","STREET":"光賢街","SECT":" ","MAREA":" ","LANE":" ","ALLEY":" ","HOUSE_NO":"６３號","E_COORD97":166864.17999999999,"N_COORD97":2545053.6200000001,"ADDRESS":"光賢街６３號","OBJECTID":189304},"geometry":{"x":166864.18000000156,"y":2545053.620000001}},{"attributes":{"ID":189306,"DIS_CODE":0,"TOWNNAME":"中西區","LI":"光賢里","LIN":"21鄰","STREET":"光賢街","SECT":" ","MAREA":" ","LANE":" ","ALLEY":" ","HOUSE_NO":"６５號","E_COORD97":166863.22,"N_COORD97":2545059.9700000002,"ADDRESS":"光賢街６５號","OBJECTID":189305},"geometry":{"x":166863.21999999974,"y":2545059.9700000025}},{"attributes":{"ID":189307,"DIS_CODE":0,"TOWNNAME":"安南區","LI":"新順里","LIN":"21鄰","STREET":"培安二街","SECT":" ","MAREA":" ","LANE":" ","ALLEY":" ","HOUSE_NO":"１０６號","E_COORD97":169314.29999999999,"N_COORD97":2549861.3100000001,"ADDRESS":"培安二街１０６號","OBJECTID":189306},"geometry":{"x":169314.29999999981,"y":2549861.3100000024}},{"attributes":{"ID":189308,"DIS_CODE":0,"TOWNNAME":"安南區","LI":"新順里","LIN":"21鄰","STREET":"培安二街","SECT":" ","MAREA":" ","LANE":" ","ALLEY":" ","HOUSE_NO":"１０８號","E_COORD97":169310.79999999999,"N_COORD97":2549866.3900000001,"ADDRESS":"培安二街１０８號","OBJECTID":189307},"geometry":{"x":169310.79999999981,"y":2549866.3900000006}},{"attributes":{"ID":189309,"DIS_CODE":0,"TOWNNAME":"北區","LI":"重興里","LIN":"5鄰","STREET":"林森路","SECT":"三段","MAREA":" ","LANE":"８４巷","ALLEY":"２弄","HOUSE_NO":"４２號","E_COORD97":170678.64000000001,"N_COORD97":2544805.5099999998,"ADDRESS":"林森路三段８４巷２弄４２號","OBJECTID":189308},"geometry":{"x":170678.6400000006,"y":2544805.5099999998}},{"attributes":{"ID":189310,"DIS_CODE":0,"TOWNNAME":"北區","LI":"重興里","LIN":"5鄰","STREET":"林森路","SECT":"三段","MAREA":" ","LANE":"８４巷","ALLEY":"２弄","HOUSE_NO":"４３號","E_COORD97":170673.45999999999,"N_COORD97":2544806.46,"ADDRESS":"林森路三段８４巷２弄４３號","OBJECTID":189309},"geometry":{"x":170673.46000000089,"y":2544806.4600000028}},{"attributes":{"ID":189311,"DIS_CODE":0,"TOWNNAME":"北區","LI":"重興里","LIN":"5鄰","STREET":"林森路","SECT":"三段","MAREA":" ","LANE":"８４巷","ALLEY":"２弄","HOUSE_NO":"４５號","E_COORD97":170667.42999999999,"N_COORD97":2544807.4100000001,"ADDRESS":"林森路三段８４巷２弄４５號","OBJECTID":189310},"geometry":{"x":170667.4299999997,"y":2544807.4100000001}},{"attributes":{"ID":189312,"DIS_CODE":0,"TOWNNAME":"北區","LI":"重興里","LIN":"5鄰","STREET":"林森路","SECT":"三段","MAREA":" ","LANE":"８４巷","ALLEY":"２弄","HOUSE_NO":"４６號","E_COORD97":170661.56,"N_COORD97":2544808.5299999998,"ADDRESS":"林森路三段８４巷２弄４６號","OBJECTID":189311},"geometry":{"x":170661.55999999959,"y":2544808.5299999993}},{"attributes":{"ID":189313,"DIS_CODE":0,"TOWNNAME":"北區","LI":"重興里","LIN":"5鄰","STREET":"林森路","SECT":"三段","MAREA":" ","LANE":"８４巷","ALLEY":"２弄","HOUSE_NO":"４７號","E_COORD97":170653.64999999999,"N_COORD97":2544810.2400000002,"ADDRESS":"林森路三段８４巷２弄４７號","OBJECTID":189312},"geometry":{"x":170653.64999999944,"y":2544810.2400000021}},{"attributes":{"ID":189314,"DIS_CODE":0,"TOWNNAME":"北區","LI":"重興里","LIN":"5鄰","STREET":"林森路","SECT":"三段","MAREA":" ","LANE":"８４巷","ALLEY":"２弄","HOUSE_NO":"４８號","E_COORD97":170646.23999999999,"N_COORD97":2544809.29,"ADDRESS":"林森路三段８４巷２弄４８號","OBJECTID":189313},"geometry":{"x":170646.24000000209,"y":2544809.290000001}},{"attributes":{"ID":189315,"DIS_CODE":0,"TOWNNAME":"北區","LI":"重興里","LIN":"5鄰","STREET":"林森路","SECT":"三段","MAREA":" ","LANE":"８４巷","ALLEY":"２弄","HOUSE_NO":"５號","E_COORD97":170616.92000000001,"N_COORD97":2544817.0499999998,"ADDRESS":"林森路三段８４巷２弄５號","OBJECTID":189314},"geometry":{"x":170616.91999999993,"y":2544817.0500000007}},{"attributes":{"ID":189316,"DIS_CODE":0,"TOWNNAME":"北區","LI":"重興里","LIN":"5鄰","STREET":"林森路","SECT":"三段","MAREA":" ","LANE":"８４巷","ALLEY":"２弄","HOUSE_NO":"６號","E_COORD97":170611.57000000001,"N_COORD97":2544817.9100000001,"ADDRESS":"林森路三段８４巷２弄６號","OBJECTID":189315},"geometry":{"x":170611.5700000003,"y":2544817.9100000001}},{"attributes":{"ID":189317,"DIS_CODE":0,"TOWNNAME":"北區","LI":"重興里","LIN":"5鄰","STREET":"林森路","SECT":"三段","MAREA":" ","LANE":"８４巷","ALLEY":"２弄","HOUSE_NO":"８號","E_COORD97":170601.78,"N_COORD97":2544819.23,"ADDRESS":"林森路三段８４巷２弄８號","OBJECTID":189316},"geometry":{"x":170601.77999999933,"y":2544819.2300000004}},{"attributes":{"ID":189318,"DIS_CODE":0,"TOWNNAME":"北區","LI":"重興里","LIN":"5鄰","STREET":"林森路","SECT":"三段","MAREA":" ","LANE":"８４巷","ALLEY":"２弄","HOUSE_NO":"９號","E_COORD97":170596.78,"N_COORD97":2544819.75,"ADDRESS":"林森路三段８４巷２弄９號","OBJECTID":189317},"geometry":{"x":170596.78000000212,"y":2544819.7500000019}},{"attributes":{"ID":189319,"DIS_CODE":0,"TOWNNAME":"北區","LI":"重興里","LIN":"5鄰","STREET":"林森路","SECT":"三段","MAREA":" ","LANE":"８４巷","ALLEY":"２弄","HOUSE_NO":"２２號","E_COORD97":170594.19,"N_COORD97":2544805.4500000002,"ADDRESS":"林森路三段８４巷２弄２２號","OBJECTID":189318},"geometry":{"x":170594.19000000227,"y":2544805.4499999993}},{"attributes":{"ID":189320,"DIS_CODE":0,"TOWNNAME":"北區","LI":"重興里","LIN":"5鄰","STREET":"林森路","SECT":"三段","MAREA":" ","LANE":"８６巷","ALLEY":"２弄","HOUSE_NO":"１０號","E_COORD97":170585.47,"N_COORD97":2544845.1000000001,"ADDRESS":"林森路三段８６巷２弄１０號","OBJECTID":189319},"geometry":{"x":170585.47000000067,"y":2544845.1000000015}},{"attributes":{"ID":189321,"DIS_CODE":0,"TOWNNAME":"北區","LI":"重興里","LIN":"5鄰","STREET":"林森路","SECT":"三段","MAREA":" ","LANE":"８６巷","ALLEY":"２弄","HOUSE_NO":"１１號","E_COORD97":170594.69,"N_COORD97":2544861.5600000001,"ADDRESS":"林森路三段８６巷２弄１１號","OBJECTID":189320},"geometry":{"x":170594.69000000134,"y":2544861.5599999987}},{"attributes":{"ID":189322,"DIS_CODE":0,"TOWNNAME":"北區","LI":"重興里","LIN":"5鄰","STREET":"林森路","SECT":"三段","MAREA":" ","LANE":"８６巷","ALLEY":"２弄","HOUSE_NO":"１２號","E_COORD97":170590.42000000001,"N_COORD97":2544844.4199999999,"ADDRESS":"林森路三段８６巷２弄１２號","OBJECTID":189321},"geometry":{"x":170590.42000000179,"y":2544844.4199999999}},{"attributes":{"ID":189323,"DIS_CODE":0,"TOWNNAME":"北區","LI":"重興里","LIN":"5鄰","STREET":"林森路","SECT":"三段","MAREA":" ","LANE":"８６巷","ALLEY":"２弄","HOUSE_NO":"１３號","E_COORD97":170599.73000000001,"N_COORD97":2544860.71,"ADDRESS":"林森路三段８６巷２弄１３號","OBJECTID":189322},"geometry":{"x":170599.73000000138,"y":2544860.7100000009}},{"attributes":{"ID":189324,"DIS_CODE":0,"TOWNNAME":"北區","LI":"重興里","LIN":"5鄰","STREET":"林森路","SECT":"三段","MAREA":" ","LANE":"８６巷","ALLEY":"２弄","HOUSE_NO":"１４號","E_COORD97":170595.45999999999,"N_COORD97":2544842.7200000002,"ADDRESS":"林森路三段８６巷２弄１４號","OBJECTID":189323},"geometry":{"x":170595.46000000089,"y":2544842.7200000007}},{"attributes":{"ID":189325,"DIS_CODE":0,"TOWNNAME":"七股區","LI":"龍山里","LIN":"21鄰","STREET":" ","SECT":" ","MAREA":"龍山","LANE":" ","ALLEY":" ","HOUSE_NO":"２２０號之８","E_COORD97":158071.14999999999,"N_COORD97":2557764.7000000002,"ADDRESS":"龍山２２０號之８","OBJECTID":189324},"geometry":{"x":158071.1500000013,"y":2557764.7000000011}},{"attributes":{"ID":189326,"DIS_CODE":0,"TOWNNAME":"七股區","LI":"龍山里","LIN":"21鄰","STREET":" ","SECT":" ","MAREA":"龍山","LANE":" ","ALLEY":" ","HOUSE_NO":"２２０號","E_COORD97":158072.12,"N_COORD97":2557821.1400000001,"ADDRESS":"龍山２２０號","OBJECTID":189325},"geometry":{"x":158072.12000000197,"y":2557821.1400000006}},{"attributes":{"ID":189327,"DIS_CODE":0,"TOWNNAME":"七股區","LI":"龍山里","LIN":"21鄰","STREET":" ","SECT":" ","MAREA":"龍山","LANE":" ","ALLEY":" ","HOUSE_NO":"２２１號","E_COORD97":158061.07999999999,"N_COORD97":2557815.9300000002,"ADDRESS":"龍山２２１號","OBJECTID":189326},"geometry":{"x":158061.08000000101,"y":2557815.9299999997}},{"attributes":{"ID":189328,"DIS_CODE":0,"TOWNNAME":"鹽水區","LI":"竹埔里","LIN":"10鄰","STREET":" ","SECT":" ","MAREA":"竹子腳","LANE":" ","ALLEY":" ","HOUSE_NO":"５１號","E_COORD97":172908.04000000001,"N_COORD97":2574543.1699999999,"ADDRESS":"竹子腳５１號","OBJECTID":189327},"geometry":{"x":172908.04000000004,"y":2574543.1700000037}},{"attributes":{"ID":189329,"DIS_CODE":0,"TOWNNAME":"鹽水區","LI":"竹埔里","LIN":"10鄰","STREET":" ","SECT":" ","MAREA":"竹子腳","LANE":" ","ALLEY":" ","HOUSE_NO":"５２號","E_COORD97":172932.94,"N_COORD97":2574592.9700000002,"ADDRESS":"竹子腳５２號","OBJECTID":189328},"geometry":{"x":172932.94000000041,"y":2574592.9700000044}},{"attributes":{"ID":189330,"DIS_CODE":0,"TOWNNAME":"鹽水區","LI":"竹埔里","LIN":"10鄰","STREET":" ","SECT":" ","MAREA":"竹子腳","LANE":" ","ALLEY":" ","HOUSE_NO":"５３號之１","E_COORD97":172911.72,"N_COORD97":2574651.46,"ADDRESS":"竹子腳５３號之１","OBJECTID":189329},"geometry":{"x":172911.71999999974,"y":2574651.4600000028}},{"attributes":{"ID":189331,"DIS_CODE":0,"TOWNNAME":"鹽水區","LI":"竹埔里","LIN":"10鄰","STREET":" ","SECT":" ","MAREA":"竹子腳","LANE":" ","ALLEY":" ","HOUSE_NO":"５３之２號","E_COORD97":172941.97,"N_COORD97":2574654.1800000002,"ADDRESS":"竹子腳５３之２號","OBJECTID":189330},"geometry":{"x":172941.96999999974,"y":2574654.1799999997}},{"attributes":{"ID":189332,"DIS_CODE":0,"TOWNNAME":"鹽水區","LI":"竹埔里","LIN":"10鄰","STREET":" ","SECT":" ","MAREA":"竹子腳","LANE":" ","ALLEY":" ","HOUSE_NO":"５３號之２","E_COORD97":172941.97,"N_COORD97":2574654.1800000002,"ADDRESS":"竹子腳５３號之２","OBJECTID":189331},"geometry":{"x":172941.96999999974,"y":2574654.1799999997}},{"attributes":{"ID":189333,"DIS_CODE":0,"TOWNNAME":"鹽水區","LI":"竹埔里","LIN":"10鄰","STREET":" ","SECT":" ","MAREA":"竹子腳","LANE":" ","ALLEY":" ","HOUSE_NO":"５３號之３","E_COORD97":172950.92999999999,"N_COORD97":2574650.3900000001,"ADDRESS":"竹子腳５３號之３","OBJECTID":189332},"geometry":{"x":172950.9299999997,"y":2574650.3900000006}},{"attributes":{"ID":189334,"DIS_CODE":0,"TOWNNAME":"鹽水區","LI":"竹埔里","LIN":"10鄰","STREET":" ","SECT":" ","MAREA":"竹子腳","LANE":" ","ALLEY":" ","HOUSE_NO":"５３之４號","E_COORD97":172958.17000000001,"N_COORD97":2574646.9700000002,"ADDRESS":"竹子腳５３之４號","OBJECTID":189333},"geometry":{"x":172958.16999999993,"y":2574646.9700000044}},{"attributes":{"ID":189335,"DIS_CODE":0,"TOWNNAME":"鹽水區","LI":"竹埔里","LIN":"10鄰","STREET":" ","SECT":" ","MAREA":"竹子腳","LANE":" ","ALLEY":" ","HOUSE_NO":"５３號之４","E_COORD97":172958.17000000001,"N_COORD97":2574646.9700000002,"ADDRESS":"竹子腳５３號之４","OBJECTID":189334},"geometry":{"x":172958.16999999993,"y":2574646.9700000044}},{"attributes":{"ID":189336,"DIS_CODE":0,"TOWNNAME":"鹽水區","LI":"竹埔里","LIN":"10鄰","STREET":" ","SECT":" ","MAREA":"竹子腳","LANE":" ","ALLEY":" ","HOUSE_NO":"５３號之５","E_COORD97":172967.70000000001,"N_COORD97":2574643.1600000001,"ADDRESS":"竹子腳５３號之５","OBJECTID":189335},"geometry":{"x":172967.70000000112,"y":2574643.160000002}},{"attributes":{"ID":189337,"DIS_CODE":0,"TOWNNAME":"鹽水區","LI":"竹埔里","LIN":"10鄰","STREET":" ","SECT":" ","MAREA":"竹子腳","LANE":" ","ALLEY":" ","HOUSE_NO":"５３號之６","E_COORD97":172974.32999999999,"N_COORD97":2574639.5,"ADDRESS":"竹子腳５３號之６","OBJECTID":189336},"geometry":{"x":172974.33000000007,"y":2574639.5000000037}},{"attributes":{"ID":189338,"DIS_CODE":0,"TOWNNAME":"鹽水區","LI":"竹埔里","LIN":"10鄰","STREET":" ","SECT":" ","MAREA":"竹子腳","LANE":" ","ALLEY":" ","HOUSE_NO":"５３號之７","E_COORD97":172983.17000000001,"N_COORD97":2574636.2400000002,"ADDRESS":"竹子腳５３號之７","OBJECTID":189337},"geometry":{"x":172983.17000000086,"y":2574636.2400000021}},{"attributes":{"ID":189339,"DIS_CODE":0,"TOWNNAME":"麻豆區","LI":"大埕里","LIN":"10鄰","STREET":" ","SECT":" ","MAREA":"\u25A0祖\u25A0","LANE":" ","ALLEY":" ","HOUSE_NO":"１４號之１０","E_COORD97":172898.26999999999,"N_COORD97":2565237.79,"ADDRESS":"\u25A0祖\u25A0１４號之１０","OBJECTID":189338},"geometry":{"x":172898.27000000142,"y":2565237.7899999991}},{"attributes":{"ID":189340,"DIS_CODE":0,"TOWNNAME":"北區","LI":"重興里","LIN":"5鄰","STREET":"林森路","SECT":"三段","MAREA":" ","LANE":"８６巷","ALLEY":"２弄","HOUSE_NO":"１５號","E_COORD97":170604.23000000001,"N_COORD97":2544859.1800000002,"ADDRESS":"林森路三段８６巷２弄１５號","OBJECTID":189339},"geometry":{"x":170604.23000000231,"y":2544859.1799999997}},{"attributes":{"ID":189341,"DIS_CODE":0,"TOWNNAME":"麻豆區","LI":"大埕里","LIN":"10鄰","STREET":" ","SECT":" ","MAREA":"\u25A0祖\u25A0","LANE":" ","ALLEY":" ","HOUSE_NO":"１４號之１１","E_COORD97":172893.85999999999,"N_COORD97":2565239.7999999998,"ADDRESS":"\u25A0祖\u25A0１４號之１１","OBJECTID":189340},"geometry":{"x":172893.86000000127,"y":2565239.7999999989}},{"attributes":{"ID":189342,"DIS_CODE":0,"TOWNNAME":"北區","LI":"重興里","LIN":"5鄰","STREET":"林森路","SECT":"三段","MAREA":" ","LANE":"８６巷","ALLEY":"２弄","HOUSE_NO":"１６號","E_COORD97":170603.63,"N_COORD97":2544839.1499999999,"ADDRESS":"林森路三段８６巷２弄１６號","OBJECTID":189341},"geometry":{"x":170603.62999999989,"y":2544839.1500000004}},{"attributes":{"ID":189343,"DIS_CODE":0,"TOWNNAME":"麻豆區","LI":"大埕里","LIN":"10鄰","STREET":" ","SECT":" ","MAREA":"\u25A0祖\u25A0","LANE":" ","ALLEY":" ","HOUSE_NO":"１４號之１５","E_COORD97":172926.67000000001,"N_COORD97":2565262.8500000001,"ADDRESS":"\u25A0祖\u25A0１４號之１５","OBJECTID":189342},"geometry":{"x":172926.67000000086,"y":2565262.8500000015}},{"attributes":{"ID":189344,"DIS_CODE":0,"TOWNNAME":"鹽水區","LI":"竹埔里","LIN":"10鄰","STREET":" ","SECT":" ","MAREA":"竹子腳","LANE":" ","ALLEY":" ","HOUSE_NO":"５６號","E_COORD97":172914.26999999999,"N_COORD97":2574585.96,"ADDRESS":"竹子腳５６號","OBJECTID":189343},"geometry":{"x":172914.27000000048,"y":2574585.9600000009}},{"attributes":{"ID":189345,"DIS_CODE":0,"TOWNNAME":"鹽水區","LI":"竹埔里","LIN":"10鄰","STREET":" ","SECT":" ","MAREA":"竹子腳","LANE":" ","ALLEY":" ","HOUSE_NO":"５７號之１","E_COORD97":172870.44,"N_COORD97":2574535.7999999998,"ADDRESS":"竹子腳５７號之１","OBJECTID":189344},"geometry":{"x":172870.44000000041,"y":2574535.8000000007}},{"attributes":{"ID":189346,"DIS_CODE":0,"TOWNNAME":"鹽水區","LI":"竹埔里","LIN":"10鄰","STREET":" ","SECT":" ","MAREA":"竹子腳","LANE":" ","ALLEY":" ","HOUSE_NO":"５７號","E_COORD97":172904.28,"N_COORD97":2574531.2400000002,"ADDRESS":"竹子腳５７號","OBJECTID":189345},"geometry":{"x":172904.28000000119,"y":2574531.2400000002}},{"attributes":{"ID":189347,"DIS_CODE":0,"TOWNNAME":"麻豆區","LI":"大埕里","LIN":"10鄰","STREET":" ","SECT":" ","MAREA":"\u25A0祖\u25A0","LANE":" ","ALLEY":" ","HOUSE_NO":"１４號之１６","E_COORD97":172920.85000000001,"N_COORD97":2565262.1299999999,"ADDRESS":"\u25A0祖\u25A0１４號之１６","OBJECTID":189346},"geometry":{"x":172920.84999999963,"y":2565262.129999999}},{"attributes":{"ID":189348,"DIS_CODE":0,"TOWNNAME":"麻豆區","LI":"大埕里","LIN":"10鄰","STREET":" ","SECT":" ","MAREA":"\u25A0祖\u25A0","LANE":" ","ALLEY":" ","HOUSE_NO":"１４號之１７","E_COORD97":172914.84,"N_COORD97":2565261.4100000001,"ADDRESS":"\u25A0祖\u25A0１４號之１７","OBJECTID":189347},"geometry":{"x":172914.83999999985,"y":2565261.4100000001}},{"attributes":{"ID":189349,"DIS_CODE":0,"TOWNNAME":"麻豆區","LI":"大埕里","LIN":"10鄰","STREET":" ","SECT":" ","MAREA":"\u25A0祖\u25A0","LANE":" ","ALLEY":" ","HOUSE_NO":"１４號之１８","E_COORD97":172909.28,"N_COORD97":2565260.77,"ADDRESS":"\u25A0祖\u25A0１４號之１８","OBJECTID":189348},"geometry":{"x":172909.28000000119,"y":2565260.7700000014}},{"attributes":{"ID":189350,"DIS_CODE":0,"TOWNNAME":"麻豆區","LI":"大埕里","LIN":"10鄰","STREET":" ","SECT":" ","MAREA":"\u25A0祖\u25A0","LANE":" ","ALLEY":" ","HOUSE_NO":"１４號之１","E_COORD97":172922.26999999999,"N_COORD97":2565244.3199999998,"ADDRESS":"\u25A0祖\u25A0１４號之１","OBJECTID":189349},"geometry":{"x":172922.27000000048,"y":2565244.3200000022}},{"attributes":{"ID":189351,"DIS_CODE":0,"TOWNNAME":"麻豆區","LI":"大埕里","LIN":"10鄰","STREET":" ","SECT":" ","MAREA":"\u25A0祖\u25A0","LANE":" ","ALLEY":" ","HOUSE_NO":"１９號之１７","E_COORD97":172900.89999999999,"N_COORD97":2565368.6800000002,"ADDRESS":"\u25A0祖\u25A0１９號之１７","OBJECTID":189350},"geometry":{"x":172900.90000000037,"y":2565368.6800000034}},{"attributes":{"ID":189352,"DIS_CODE":0,"TOWNNAME":"麻豆區","LI":"大埕里","LIN":"10鄰","STREET":" ","SECT":" ","MAREA":"\u25A0祖\u25A0","LANE":" ","ALLEY":" ","HOUSE_NO":"１９號之１８","E_COORD97":172905.54999999999,"N_COORD97":2565370.3599999999,"ADDRESS":"\u25A0祖\u25A0１９號之１８","OBJECTID":189351},"geometry":{"x":172905.55000000075,"y":2565370.3600000031}},{"attributes":{"ID":189353,"DIS_CODE":0,"TOWNNAME":"麻豆區","LI":"大埕里","LIN":"10鄰","STREET":" ","SECT":" ","MAREA":"\u25A0祖\u25A0","LANE":" ","ALLEY":" ","HOUSE_NO":"１９號之１９","E_COORD97":172910.20999999999,"N_COORD97":2565372.04,"ADDRESS":"\u25A0祖\u25A0１９號之１９","OBJECTID":189352},"geometry":{"x":172910.20999999996,"y":2565372.0399999972}},{"attributes":{"ID":189354,"DIS_CODE":0,"TOWNNAME":"麻豆區","LI":"大埕里","LIN":"10鄰","STREET":" ","SECT":" ","MAREA":"\u25A0祖\u25A0","LANE":" ","ALLEY":" ","HOUSE_NO":"１９號之１","E_COORD97":172840.29000000001,"N_COORD97":2565339.5299999998,"ADDRESS":"\u25A0祖\u25A0１９號之１","OBJECTID":189353},"geometry":{"x":172840.29000000004,"y":2565339.5300000012}},{"attributes":{"ID":189355,"DIS_CODE":0,"TOWNNAME":"麻豆區","LI":"大埕里","LIN":"10鄰","STREET":" ","SECT":" ","MAREA":"\u25A0祖\u25A0","LANE":" ","ALLEY":" ","HOUSE_NO":"１９號之２０","E_COORD97":172914.85999999999,"N_COORD97":2565373.73,"ADDRESS":"\u25A0祖\u25A0１９號之２０","OBJECTID":189354},"geometry":{"x":172914.86000000034,"y":2565373.7300000023}},{"attributes":{"ID":189356,"DIS_CODE":0,"TOWNNAME":"麻豆區","LI":"大埕里","LIN":"10鄰","STREET":" ","SECT":" ","MAREA":"\u25A0祖\u25A0","LANE":" ","ALLEY":" ","HOUSE_NO":"１９號","E_COORD97":172867.95999999999,"N_COORD97":2565330.3300000001,"ADDRESS":"\u25A0祖\u25A0１９號","OBJECTID":189355},"geometry":{"x":172867.95999999996,"y":2565330.3300000001}},{"attributes":{"ID":189357,"DIS_CODE":0,"TOWNNAME":"麻豆區","LI":"大埕里","LIN":"10鄰","STREET":" ","SECT":" ","MAREA":"\u25A0祖\u25A0","LANE":" ","ALLEY":" ","HOUSE_NO":"１號之１","E_COORD97":172995.48999999999,"N_COORD97":2565199.6800000002,"ADDRESS":"\u25A0祖\u25A0１號之１","OBJECTID":189356},"geometry":{"x":172995.49000000022,"y":2565199.6800000016}},{"attributes":{"ID":189358,"DIS_CODE":0,"TOWNNAME":"麻豆區","LI":"大埕里","LIN":"10鄰","STREET":" ","SECT":" ","MAREA":"\u25A0祖\u25A0","LANE":" ","ALLEY":" ","HOUSE_NO":"１號之２０","E_COORD97":173012.07000000001,"N_COORD97":2565247.5800000001,"ADDRESS":"\u25A0祖\u25A0１號之２０","OBJECTID":189357},"geometry":{"x":173012.0700000003,"y":2565247.5800000038}},{"attributes":{"ID":189359,"DIS_CODE":0,"TOWNNAME":"麻豆區","LI":"大埕里","LIN":"10鄰","STREET":" ","SECT":" ","MAREA":"\u25A0祖\u25A0","LANE":" ","ALLEY":" ","HOUSE_NO":"１號之２１","E_COORD97":173011.38,"N_COORD97":2565251.29,"ADDRESS":"\u25A0祖\u25A0１號之２１","OBJECTID":189358},"geometry":{"x":173011.38000000175,"y":2565251.2899999991}},{"attributes":{"ID":189360,"DIS_CODE":0,"TOWNNAME":"麻豆區","LI":"大埕里","LIN":"10鄰","STREET":" ","SECT":" ","MAREA":"\u25A0祖\u25A0","LANE":" ","ALLEY":" ","HOUSE_NO":"１號之２２","E_COORD97":173006.14000000001,"N_COORD97":2565257.3500000001,"ADDRESS":"\u25A0祖\u25A0１號之２２","OBJECTID":189359},"geometry":{"x":173006.1400000006,"y":2565257.3499999996}},{"attributes":{"ID":189361,"DIS_CODE":0,"TOWNNAME":"七股區","LI":"?埕里","LIN":"10鄰","STREET":" ","SECT":" ","MAREA":"?埕","LANE":" ","ALLEY":" ","HOUSE_NO":"１５９號","E_COORD97":156721.45000000001,"N_COORD97":2561383.7599999998,"ADDRESS":"?埕１５９號","OBJECTID":189360},"geometry":{"x":156721.45000000019,"y":2561383.7599999998}},{"attributes":{"ID":189362,"DIS_CODE":0,"TOWNNAME":"七股區","LI":"?埕里","LIN":"10鄰","STREET":" ","SECT":" ","MAREA":"?埕","LANE":" ","ALLEY":" ","HOUSE_NO":"１６０號","E_COORD97":156699.41,"N_COORD97":2561383.4500000002,"ADDRESS":"?埕１６０號","OBJECTID":189361},"geometry":{"x":156699.41000000108,"y":2561383.4500000011}},{"attributes":{"ID":189363,"DIS_CODE":0,"TOWNNAME":"七股區","LI":"?埕里","LIN":"10鄰","STREET":" ","SECT":" ","MAREA":"?埕","LANE":" ","ALLEY":" ","HOUSE_NO":"１６１號","E_COORD97":156721.45000000001,"N_COORD97":2561379.7000000002,"ADDRESS":"?埕１６１號","OBJECTID":189362},"geometry":{"x":156721.45000000019,"y":2561379.6999999993}},{"attributes":{"ID":189364,"DIS_CODE":0,"TOWNNAME":"七股區","LI":"?埕里","LIN":"10鄰","STREET":" ","SECT":" ","MAREA":"?埕","LANE":" ","ALLEY":" ","HOUSE_NO":"１６２號","E_COORD97":156699.48000000001,"N_COORD97":2561379.4199999999,"ADDRESS":"?埕１６２號","OBJECTID":189363},"geometry":{"x":156699.48000000045,"y":2561379.4199999999}},{"attributes":{"ID":189365,"DIS_CODE":0,"TOWNNAME":"七股區","LI":"?埕里","LIN":"10鄰","STREET":" ","SECT":" ","MAREA":"?埕","LANE":" ","ALLEY":" ","HOUSE_NO":"１６３號","E_COORD97":156721.45000000001,"N_COORD97":2561375.6299999999,"ADDRESS":"?埕１６３號","OBJECTID":189364},"geometry":{"x":156721.45000000019,"y":2561375.6300000008}},{"attributes":{"ID":189366,"DIS_CODE":0,"TOWNNAME":"七股區","LI":"?埕里","LIN":"10鄰","STREET":" ","SECT":" ","MAREA":"?埕","LANE":" ","ALLEY":" ","HOUSE_NO":"１６５號之１","E_COORD97":156723.48999999999,"N_COORD97":2561350.2000000002,"ADDRESS":"?埕１６５號之１","OBJECTID":189365},"geometry":{"x":156723.48999999929,"y":2561350.200000003}},{"attributes":{"ID":189367,"DIS_CODE":0,"TOWNNAME":"七股區","LI":"?埕里","LIN":"10鄰","STREET":" ","SECT":" ","MAREA":"?埕","LANE":" ","ALLEY":" ","HOUSE_NO":"１６６號","E_COORD97":156699.62,"N_COORD97":2561371.3500000001,"ADDRESS":"?埕１６６號","OBJECTID":189366},"geometry":{"x":156699.62000000104,"y":2561371.3500000015}},{"attributes":{"ID":189368,"DIS_CODE":0,"TOWNNAME":"七股區","LI":"?埕里","LIN":"10鄰","STREET":" ","SECT":" ","MAREA":"?埕","LANE":" ","ALLEY":" ","HOUSE_NO":"１６８號","E_COORD97":156701.29000000001,"N_COORD97":2561329.3599999999,"ADDRESS":"?埕１６８號","OBJECTID":189367},"geometry":{"x":156701.29000000097,"y":2561329.3600000013}},{"attributes":{"ID":189369,"DIS_CODE":0,"TOWNNAME":"麻豆區","LI":"大埕里","LIN":"10鄰","STREET":" ","SECT":" ","MAREA":"\u25A0祖\u25A0","LANE":" ","ALLEY":" ","HOUSE_NO":"２號之１５","E_COORD97":173027.89999999999,"N_COORD97":2565261,"ADDRESS":"\u25A0祖\u25A0２號之１５","OBJECTID":189368},"geometry":{"x":173027.90000000037,"y":2565261}},{"attributes":{"ID":189370,"DIS_CODE":0,"TOWNNAME":"麻豆區","LI":"大埕里","LIN":"10鄰","STREET":" ","SECT":" ","MAREA":"\u25A0祖\u25A0","LANE":" ","ALLEY":" ","HOUSE_NO":"２號之１","E_COORD97":173043.66,"N_COORD97":2565191.4399999999,"ADDRESS":"\u25A0祖\u25A0２號之１","OBJECTID":189369},"geometry":{"x":173043.66000000201,"y":2565191.4400000013}},{"attributes":{"ID":189371,"DIS_CODE":0,"TOWNNAME":"七股區","LI":"?埕里","LIN":"10鄰","STREET":" ","SECT":" ","MAREA":"?埕","LANE":" ","ALLEY":" ","HOUSE_NO":"１６９號","E_COORD97":156719.69,"N_COORD97":2561329.5099999998,"ADDRESS":"?埕１６９號","OBJECTID":189370},"geometry":{"x":156719.69000000134,"y":2561329.5100000016}},{"attributes":{"ID":189372,"DIS_CODE":0,"TOWNNAME":"七股區","LI":"?埕里","LIN":"10鄰","STREET":" ","SECT":" ","MAREA":"?埕","LANE":" ","ALLEY":" ","HOUSE_NO":"１７０號","E_COORD97":156701.41,"N_COORD97":2561325.1000000001,"ADDRESS":"?埕１７０號","OBJECTID":189371},"geometry":{"x":156701.41000000015,"y":2561325.1000000015}},{"attributes":{"ID":189373,"DIS_CODE":0,"TOWNNAME":"七股區","LI":"?埕里","LIN":"10鄰","STREET":" ","SECT":" ","MAREA":"?埕","LANE":" ","ALLEY":" ","HOUSE_NO":"１７１號","E_COORD97":156719.59,"N_COORD97":2561325.4300000002,"ADDRESS":"?埕１７１號","OBJECTID":189372},"geometry":{"x":156719.59000000078,"y":2561325.4300000034}},{"attributes":{"ID":189374,"DIS_CODE":0,"TOWNNAME":"七股區","LI":"?埕里","LIN":"10鄰","STREET":" ","SECT":" ","MAREA":"?埕","LANE":" ","ALLEY":" ","HOUSE_NO":"１７２號","E_COORD97":156703.06,"N_COORD97":2561320.73,"ADDRESS":"?埕１７２號","OBJECTID":189373},"geometry":{"x":156703.05999999959,"y":2561320.7299999986}},{"attributes":{"ID":189375,"DIS_CODE":0,"TOWNNAME":"七股區","LI":"?埕里","LIN":"10鄰","STREET":" ","SECT":" ","MAREA":"?埕","LANE":" ","ALLEY":" ","HOUSE_NO":"１７３號","E_COORD97":156719.48999999999,"N_COORD97":2561321.3500000001,"ADDRESS":"?埕１７３號","OBJECTID":189374},"geometry":{"x":156719.49000000022,"y":2561321.3499999996}},{"attributes":{"ID":189376,"DIS_CODE":0,"TOWNNAME":"七股區","LI":"?埕里","LIN":"10鄰","STREET":" ","SECT":" ","MAREA":"?埕","LANE":" ","ALLEY":" ","HOUSE_NO":"１７４號","E_COORD97":156701.64000000001,"N_COORD97":2561316.5699999998,"ADDRESS":"?埕１７４號","OBJECTID":189375},"geometry":{"x":156701.64000000153,"y":2561316.5700000022}},{"attributes":{"ID":189377,"DIS_CODE":0,"TOWNNAME":"七股區","LI":"?埕里","LIN":"10鄰","STREET":" ","SECT":" ","MAREA":"?埕","LANE":" ","ALLEY":" ","HOUSE_NO":"１７５號","E_COORD97":156719.39999999999,"N_COORD97":2561317.2599999998,"ADDRESS":"?埕１７５號","OBJECTID":189376},"geometry":{"x":156719.40000000224,"y":2561317.2600000016}},{"attributes":{"ID":189378,"DIS_CODE":0,"TOWNNAME":"柳營區","LI":"重溪里","LIN":"10鄰","STREET":" ","SECT":" ","MAREA":"小腳腿","LANE":" ","ALLEY":" ","HOUSE_NO":"１０４號","E_COORD97":185236.87,"N_COORD97":2576759.0800000001,"ADDRESS":"小腳腿１０４號","OBJECTID":189377},"geometry":{"x":185236.87000000011,"y":2576759.0800000019}},{"attributes":{"ID":189379,"DIS_CODE":0,"TOWNNAME":"柳營區","LI":"重溪里","LIN":"10鄰","STREET":" ","SECT":" ","MAREA":"小腳腿","LANE":" ","ALLEY":" ","HOUSE_NO":"１０６號之１","E_COORD97":185263.20999999999,"N_COORD97":2576726.6000000001,"ADDRESS":"小腳腿１０６號之１","OBJECTID":189378},"geometry":{"x":185263.20999999996,"y":2576726.5999999978}},{"attributes":{"ID":189380,"DIS_CODE":0,"TOWNNAME":"柳營區","LI":"重溪里","LIN":"10鄰","STREET":" ","SECT":" ","MAREA":"小腳腿","LANE":" ","ALLEY":" ","HOUSE_NO":"１０７號之３","E_COORD97":185240.57999999999,"N_COORD97":2576721.8599999999,"ADDRESS":"小腳腿１０７號之３","OBJECTID":189379},"geometry":{"x":185240.58000000007,"y":2576721.8600000013}},{"attributes":{"ID":189381,"DIS_CODE":0,"TOWNNAME":"柳營區","LI":"重溪里","LIN":"10鄰","STREET":" ","SECT":" ","MAREA":"小腳腿","LANE":" ","ALLEY":" ","HOUSE_NO":"１０７號之４","E_COORD97":185236.89000000001,"N_COORD97":2576721.1499999999,"ADDRESS":"小腳腿１０７號之４","OBJECTID":189380},"geometry":{"x":185236.89000000153,"y":2576721.1500000022}},{"attributes":{"ID":189382,"DIS_CODE":0,"TOWNNAME":"柳營區","LI":"重溪里","LIN":"10鄰","STREET":" ","SECT":" ","MAREA":"小腳腿","LANE":" ","ALLEY":" ","HOUSE_NO":"１０７號","E_COORD97":185246.84,"N_COORD97":2576720.7599999998,"ADDRESS":"小腳腿１０７號","OBJECTID":189381},"geometry":{"x":185246.83999999985,"y":2576720.7599999998}},{"attributes":{"ID":189383,"DIS_CODE":0,"TOWNNAME":"柳營區","LI":"重溪里","LIN":"10鄰","STREET":" ","SECT":" ","MAREA":"小腳腿","LANE":" ","ALLEY":" ","HOUSE_NO":"１０９號","E_COORD97":185227.35000000001,"N_COORD97":2576717.0800000001,"ADDRESS":"小腳腿１０９號","OBJECTID":189382},"geometry":{"x":185227.35000000056,"y":2576717.0800000038}},{"attributes":{"ID":189384,"DIS_CODE":0,"TOWNNAME":"柳營區","LI":"重溪里","LIN":"10鄰","STREET":" ","SECT":" ","MAREA":"小腳腿","LANE":" ","ALLEY":" ","HOUSE_NO":"１１１號","E_COORD97":185224.16,"N_COORD97":2576738.3300000001,"ADDRESS":"小腳腿１１１號","OBJECTID":189383},"geometry":{"x":185224.16000000108,"y":2576738.3300000001}},{"attributes":{"ID":189385,"DIS_CODE":0,"TOWNNAME":"柳營區","LI":"重溪里","LIN":"10鄰","STREET":" ","SECT":" ","MAREA":"小腳腿","LANE":" ","ALLEY":" ","HOUSE_NO":"１１２號","E_COORD97":185222.5,"N_COORD97":2576751.6099999999,"ADDRESS":"小腳腿１１２號","OBJECTID":189384},"geometry":{"x":185222.5,"y":2576751.6100000013}},{"attributes":{"ID":189386,"DIS_CODE":0,"TOWNNAME":"柳營區","LI":"篤農里","LIN":"10鄰","STREET":" ","SECT":" ","MAREA":"小腳腿","LANE":" ","ALLEY":" ","HOUSE_NO":"２６４號之１０","E_COORD97":185554.45999999999,"N_COORD97":2576203.0800000001,"ADDRESS":"小腳腿２６４號之１０","OBJECTID":189385},"geometry":{"x":185554.46000000089,"y":2576203.0800000019}},{"attributes":{"ID":189387,"DIS_CODE":0,"TOWNNAME":"柳營區","LI":"篤農里","LIN":"10鄰","STREET":" ","SECT":" ","MAREA":"小腳腿","LANE":" ","ALLEY":" ","HOUSE_NO":"２６４之１３號","E_COORD97":185595.82999999999,"N_COORD97":2576318.4399999999,"ADDRESS":"小腳腿２６４之１３號","OBJECTID":189386},"geometry":{"x":185595.83000000101,"y":2576318.4400000013}},{"attributes":{"ID":189388,"DIS_CODE":0,"TOWNNAME":"柳營區","LI":"篤農里","LIN":"10鄰","STREET":" ","SECT":" ","MAREA":"小腳腿","LANE":" ","ALLEY":" ","HOUSE_NO":"２６４號之１","E_COORD97":185596.20999999999,"N_COORD97":2576306.1600000001,"ADDRESS":"小腳腿２６４號之１","OBJECTID":189387},"geometry":{"x":185596.21000000089,"y":2576306.1600000001}},{"attributes":{"ID":189389,"DIS_CODE":0,"TOWNNAME":"柳營區","LI":"篤農里","LIN":"10鄰","STREET":" ","SECT":" ","MAREA":"小腳腿","LANE":" ","ALLEY":" ","HOUSE_NO":"２６４號之２５","E_COORD97":185581.60000000001,"N_COORD97":2576196.9100000001,"ADDRESS":"小腳腿２６４號之２５","OBJECTID":189388},"geometry":{"x":185581.60000000056,"y":2576196.910000002}},{"attributes":{"ID":189390,"DIS_CODE":0,"TOWNNAME":"柳營區","LI":"篤農里","LIN":"10鄰","STREET":" ","SECT":" ","MAREA":"小腳腿","LANE":" ","ALLEY":" ","HOUSE_NO":"２６４號之２９","E_COORD97":185594.10999999999,"N_COORD97":2576266.8300000001,"ADDRESS":"小腳腿２６４號之２９","OBJECTID":189389},"geometry":{"x":185594.11000000127,"y":2576266.8300000001}},{"attributes":{"ID":189391,"DIS_CODE":0,"TOWNNAME":"柳營區","LI":"篤農里","LIN":"10鄰","STREET":" ","SECT":" ","MAREA":"小腳腿","LANE":" ","ALLEY":" ","HOUSE_NO":"２６４號之２","E_COORD97":185583,"N_COORD97":2576258.0499999998,"ADDRESS":"小腳腿２６４號之２","OBJECTID":189390},"geometry":{"x":185583.00000000093,"y":2576258.0500000026}},{"attributes":{"ID":189392,"DIS_CODE":0,"TOWNNAME":"柳營區","LI":"篤農里","LIN":"10鄰","STREET":" ","SECT":" ","MAREA":"小腳腿","LANE":" ","ALLEY":" ","HOUSE_NO":"２６４號之３","E_COORD97":185590.10000000001,"N_COORD97":2576285.04,"ADDRESS":"小腳腿２６４號之３","OBJECTID":189391},"geometry":{"x":185590.10000000056,"y":2576285.0399999991}},{"attributes":{"ID":189393,"DIS_CODE":0,"TOWNNAME":"柳營區","LI":"篤農里","LIN":"10鄰","STREET":" ","SECT":" ","MAREA":"小腳腿","LANE":" ","ALLEY":" ","HOUSE_NO":"２６４號之６","E_COORD97":185560.26999999999,"N_COORD97":2576329.8599999999,"ADDRESS":"小腳腿２６４號之６","OBJECTID":189392},"geometry":{"x":185560.27000000048,"y":2576329.8599999994}},{"attributes":{"ID":189394,"DIS_CODE":0,"TOWNNAME":"柳營區","LI":"篤農里","LIN":"10鄰","STREET":" ","SECT":" ","MAREA":"小腳腿","LANE":" ","ALLEY":" ","HOUSE_NO":"２６４號之７","E_COORD97":185561.26000000001,"N_COORD97":2576311.48,"ADDRESS":"小腳腿２６４號之７","OBJECTID":189393},"geometry":{"x":185561.25999999978,"y":2576311.4800000042}},{"attributes":{"ID":189395,"DIS_CODE":0,"TOWNNAME":"柳營區","LI":"篤農里","LIN":"10鄰","STREET":" ","SECT":" ","MAREA":"小腳腿","LANE":" ","ALLEY":" ","HOUSE_NO":"２６４號之８","E_COORD97":185564.98999999999,"N_COORD97":2576273.5800000001,"ADDRESS":"小腳腿２６４號之８","OBJECTID":189394},"geometry":{"x":185564.99000000022,"y":2576273.5800000019}},{"attributes":{"ID":189396,"DIS_CODE":0,"TOWNNAME":"柳營區","LI":"篤農里","LIN":"10鄰","STREET":" ","SECT":" ","MAREA":"小腳腿","LANE":" ","ALLEY":" ","HOUSE_NO":"２６４號之９","E_COORD97":185561.26000000001,"N_COORD97":2576241.3999999999,"ADDRESS":"小腳腿２６４號之９","OBJECTID":189395},"geometry":{"x":185561.25999999978,"y":2576241.4000000022}},{"attributes":{"ID":189397,"DIS_CODE":0,"TOWNNAME":"柳營區","LI":"篤農里","LIN":"10鄰","STREET":" ","SECT":" ","MAREA":"小腳腿","LANE":" ","ALLEY":" ","HOUSE_NO":"２６４號","E_COORD97":185583.98000000001,"N_COORD97":2576386.3500000001,"ADDRESS":"小腳腿２６４號","OBJECTID":189396},"geometry":{"x":185583.98000000045,"y":2576386.3500000015}},{"attributes":{"ID":189398,"DIS_CODE":0,"TOWNNAME":"柳營區","LI":"篤農里","LIN":"10鄰","STREET":" ","SECT":" ","MAREA":"小腳腿","LANE":" ","ALLEY":" ","HOUSE_NO":"２６６號之１","E_COORD97":185662.79000000001,"N_COORD97":2576347.8900000001,"ADDRESS":"小腳腿２６６號之１","OBJECTID":189397},"geometry":{"x":185662.79000000004,"y":2576347.8900000006}},{"attributes":{"ID":189399,"DIS_CODE":0,"TOWNNAME":"柳營區","LI":"篤農里","LIN":"10鄰","STREET":" ","SECT":" ","MAREA":"小腳腿","LANE":" ","ALLEY":" ","HOUSE_NO":"２６６號之３","E_COORD97":185622.76999999999,"N_COORD97":2576367.5299999998,"ADDRESS":"小腳腿２６６號之３","OBJECTID":189398},"geometry":{"x":185622.77000000048,"y":2576367.5300000031}},{"attributes":{"ID":189400,"DIS_CODE":0,"TOWNNAME":"北區","LI":"重興里","LIN":"5鄰","STREET":"林森路","SECT":"三段","MAREA":" ","LANE":"８６巷","ALLEY":"２弄","HOUSE_NO":"１７號","E_COORD97":170609.10000000001,"N_COORD97":2544857.3799999999,"ADDRESS":"林森路三段８６巷２弄１７號","OBJECTID":189399},"geometry":{"x":170609.0999999987,"y":2544857.379999999}},{"attributes":{"ID":189401,"DIS_CODE":0,"TOWNNAME":"北區","LI":"重興里","LIN":"5鄰","STREET":"林森路","SECT":"三段","MAREA":" ","LANE":"８６巷","ALLEY":"２弄","HOUSE_NO":"１號","E_COORD97":170570.87,"N_COORD97":2544868.8100000001,"ADDRESS":"林森路三段８６巷２弄１號","OBJECTID":189400},"geometry":{"x":170570.87000000104,"y":2544868.8100000005}}]}