{"displayFieldName":"TOWNNAME","fieldAliases":{"ID":"ID","DIS_CODE":"DIS_CODE","TOWNNAME":"TOWNNAME","LI":"LI","LIN":"LIN","STREET":"STREET","SECT":"SECT","MAREA":"MAREA","LANE":"LANE","ALLEY":"ALLEY","HOUSE_NO":"HOUSE_NO","E_COORD97":"E_COORD97","N_COORD97":"N_COORD97","ADDRESS":"ADDRESS","OBJECTID":"OBJECTID"},"geometryType":"esriGeometryPoint","spatialReference":{"wkid":102443,"latestWkid":3826},"fields":[{"name":"ID","type":"esriFieldTypeDouble","alias":"ID"},{"name":"DIS_CODE","type":"esriFieldTypeInteger","alias":"DIS_CODE"},{"name":"TOWNNAME","type":"esriFieldTypeString","alias":"TOWNNAME","length":8},{"name":"LI","type":"esriFieldTypeString","alias":"LI","length":8},{"name":"LIN","type":"esriFieldTypeString","alias":"LIN","length":12},{"name":"STREET","type":"esriFieldTypeString","alias":"STREET","length":20},{"name":"SECT","type":"esriFieldTypeString","alias":"SECT","length":8},{"name":"MAREA","type":"esriFieldTypeString","alias":"MAREA","length":12},{"name":"LANE","type":"esriFieldTypeString","alias":"LANE","length":10},{"name":"ALLEY","type":"esriFieldTypeString","alias":"ALLEY","length":10},{"name":"HOUSE_NO","type":"esriFieldTypeString","alias":"HOUSE_NO","length":20},{"name":"E_COORD97","type":"esriFieldTypeDouble","alias":"E_COORD97"},{"name":"N_COORD97","type":"esriFieldTypeDouble","alias":"N_COORD97"},{"name":"ADDRESS","type":"esriFieldTypeString","alias":"ADDRESS","length":50},{"name":"OBJECTID","type":"esriFieldTypeOID","alias":"OBJECTID"}],"features":[{"attributes":{"ID":392025,"DIS_CODE":0,"TOWNNAME":"安南區","LI":"溪墘里","LIN":"23鄰","STREET":"安寧街","SECT":" ","MAREA":" ","LANE":"９１巷","ALLEY":" ","HOUSE_NO":"１８號","E_COORD97":167327.07000000001,"N_COORD97":2547108.5299999998,"ADDRESS":"安寧街９１巷１８號","OBJECTID":392001},"geometry":{"x":167327.07000000123,"y":2547108.5300000031}},{"attributes":{"ID":392026,"DIS_CODE":0,"TOWNNAME":"安南區","LI":"溪墘里","LIN":"23鄰","STREET":"安寧街","SECT":" ","MAREA":" ","LANE":"９１巷","ALLEY":" ","HOUSE_NO":"２０號","E_COORD97":167322.23000000001,"N_COORD97":2547106.8999999999,"ADDRESS":"安寧街９１巷２０號","OBJECTID":392002},"geometry":{"x":167322.23000000231,"y":2547106.8999999985}},{"attributes":{"ID":392027,"DIS_CODE":0,"TOWNNAME":"安南區","LI":"溪墘里","LIN":"23鄰","STREET":"安寧街","SECT":" ","MAREA":" ","LANE":"９１巷","ALLEY":" ","HOUSE_NO":"２１號","E_COORD97":167319.88,"N_COORD97":2547086.8300000001,"ADDRESS":"安寧街９１巷２１號","OBJECTID":392003},"geometry":{"x":167319.87999999989,"y":2547086.8299999982}},{"attributes":{"ID":392028,"DIS_CODE":0,"TOWNNAME":"安南區","LI":"溪墘里","LIN":"23鄰","STREET":"安寧街","SECT":" ","MAREA":" ","LANE":"９１巷","ALLEY":" ","HOUSE_NO":"２２號","E_COORD97":167316.57000000001,"N_COORD97":2547105.9100000001,"ADDRESS":"安寧街９１巷２２號","OBJECTID":392004},"geometry":{"x":167316.57000000123,"y":2547105.9100000001}},{"attributes":{"ID":392029,"DIS_CODE":0,"TOWNNAME":"安南區","LI":"溪墘里","LIN":"23鄰","STREET":"安寧街","SECT":" ","MAREA":" ","LANE":"９１巷","ALLEY":" ","HOUSE_NO":"２３號","E_COORD97":167315.26999999999,"N_COORD97":2547085.6600000001,"ADDRESS":"安寧街９１巷２３號","OBJECTID":392005},"geometry":{"x":167315.26999999955,"y":2547085.660000002}},{"attributes":{"ID":392030,"DIS_CODE":0,"TOWNNAME":"安南區","LI":"溪墘里","LIN":"23鄰","STREET":"安寧街","SECT":" ","MAREA":" ","LANE":"９１巷","ALLEY":" ","HOUSE_NO":"２４號","E_COORD97":167311.42999999999,"N_COORD97":2547104.7400000002,"ADDRESS":"安寧街９１巷２４號","OBJECTID":392006},"geometry":{"x":167311.4299999997,"y":2547104.7400000039}},{"attributes":{"ID":392031,"DIS_CODE":0,"TOWNNAME":"安南區","LI":"溪墘里","LIN":"23鄰","STREET":"安寧街","SECT":" ","MAREA":" ","LANE":"９１巷","ALLEY":" ","HOUSE_NO":"２５號","E_COORD97":167309.32000000001,"N_COORD97":2547084.9100000001,"ADDRESS":"安寧街９１巷２５號","OBJECTID":392007},"geometry":{"x":167309.3200000003,"y":2547084.9100000001}},{"attributes":{"ID":392032,"DIS_CODE":0,"TOWNNAME":"安南區","LI":"溪墘里","LIN":"23鄰","STREET":"安寧街","SECT":" ","MAREA":" ","LANE":"９１巷","ALLEY":" ","HOUSE_NO":"１７號","E_COORD97":167331.392131,"N_COORD97":2547088.8349199998,"ADDRESS":"安寧街９１巷１７號","OBJECTID":392008},"geometry":{"x":167331.39213100076,"y":2547088.8349239994}},{"attributes":{"ID":392033,"DIS_CODE":0,"TOWNNAME":"善化區","LI":"光文里","LIN":"14鄰","STREET":"民生路","SECT":" ","MAREA":" ","LANE":"１８３巷","ALLEY":" ","HOUSE_NO":"５號","E_COORD97":178455.51000000001,"N_COORD97":2558921.0099999998,"ADDRESS":"民生路１８３巷５號","OBJECTID":392009},"geometry":{"x":178455.51000000071,"y":2558921.0099999979}},{"attributes":{"ID":392034,"DIS_CODE":0,"TOWNNAME":"安南區","LI":"溪墘里","LIN":"23鄰","STREET":"安寧街","SECT":" ","MAREA":" ","LANE":"９１巷","ALLEY":" ","HOUSE_NO":"２６號","E_COORD97":167306.35999999999,"N_COORD97":2547103.23,"ADDRESS":"安寧街９１巷２６號","OBJECTID":392010},"geometry":{"x":167306.36000000127,"y":2547103.2300000023}},{"attributes":{"ID":392035,"DIS_CODE":0,"TOWNNAME":"安南區","LI":"溪墘里","LIN":"23鄰","STREET":"安寧街","SECT":" ","MAREA":" ","LANE":"９１巷","ALLEY":" ","HOUSE_NO":"２９號","E_COORD97":167297.60999999999,"N_COORD97":2547081.4100000001,"ADDRESS":"安寧街９１巷２９號","OBJECTID":392011},"geometry":{"x":167297.6100000022,"y":2547081.410000002}},{"attributes":{"ID":392036,"DIS_CODE":0,"TOWNNAME":"安南區","LI":"溪墘里","LIN":"23鄰","STREET":"安寧街","SECT":" ","MAREA":" ","LANE":"９１巷","ALLEY":" ","HOUSE_NO":"３３號","E_COORD97":167287.39999999999,"N_COORD97":2547078.7400000002,"ADDRESS":"安寧街９１巷３３號","OBJECTID":392012},"geometry":{"x":167287.4000000013,"y":2547078.7400000021}},{"attributes":{"ID":392037,"DIS_CODE":0,"TOWNNAME":"安南區","LI":"溪墘里","LIN":"23鄰","STREET":"安寧街","SECT":" ","MAREA":" ","LANE":"９１巷","ALLEY":" ","HOUSE_NO":"３４號","E_COORD97":167283.42999999999,"N_COORD97":2547100.0600000001,"ADDRESS":"安寧街９１巷３４號","OBJECTID":392013},"geometry":{"x":167283.43000000063,"y":2547100.0600000024}},{"attributes":{"ID":392038,"DIS_CODE":0,"TOWNNAME":"安南區","LI":"溪墘里","LIN":"23鄰","STREET":"安寧街","SECT":" ","MAREA":" ","LANE":"９１巷","ALLEY":" ","HOUSE_NO":"３５號","E_COORD97":167282.5,"N_COORD97":2547077.5,"ADDRESS":"安寧街９１巷３５號","OBJECTID":392014},"geometry":{"x":167282.5,"y":2547077.5}},{"attributes":{"ID":392039,"DIS_CODE":0,"TOWNNAME":"安南區","LI":"溪墘里","LIN":"23鄰","STREET":"安寧街","SECT":" ","MAREA":" ","LANE":"９１巷","ALLEY":" ","HOUSE_NO":"３７號","E_COORD97":167276.10000000001,"N_COORD97":2547077.6899999999,"ADDRESS":"安寧街９１巷３７號","OBJECTID":392015},"geometry":{"x":167276.09999999963,"y":2547077.6900000013}},{"attributes":{"ID":392040,"DIS_CODE":0,"TOWNNAME":"安南區","LI":"溪墘里","LIN":"23鄰","STREET":"安寧街","SECT":" ","MAREA":" ","LANE":"９１巷","ALLEY":" ","HOUSE_NO":"４０號","E_COORD97":167266.35999999999,"N_COORD97":2547095.1699999999,"ADDRESS":"安寧街９１巷４０號","OBJECTID":392016},"geometry":{"x":167266.36000000034,"y":2547095.1700000018}},{"attributes":{"ID":392041,"DIS_CODE":0,"TOWNNAME":"安南區","LI":"溪墘里","LIN":"23鄰","STREET":"安寧街","SECT":" ","MAREA":" ","LANE":"９１巷","ALLEY":" ","HOUSE_NO":"４１號","E_COORD97":167265.25,"N_COORD97":2547075.2999999998,"ADDRESS":"安寧街９１巷４１號","OBJECTID":392017},"geometry":{"x":167265.25,"y":2547075.3000000026}},{"attributes":{"ID":392042,"DIS_CODE":0,"TOWNNAME":"安南區","LI":"溪墘里","LIN":"23鄰","STREET":"安寧街","SECT":" ","MAREA":" ","LANE":"９１巷","ALLEY":" ","HOUSE_NO":"４２號","E_COORD97":167261.81,"N_COORD97":2547094.29,"ADDRESS":"安寧街９１巷４２號","OBJECTID":392018},"geometry":{"x":167261.81000000052,"y":2547094.290000001}},{"attributes":{"ID":392043,"DIS_CODE":0,"TOWNNAME":"安南區","LI":"溪墘里","LIN":"23鄰","STREET":"安寧街","SECT":" ","MAREA":" ","LANE":"９１巷","ALLEY":" ","HOUSE_NO":"４６號","E_COORD97":167250.95000000001,"N_COORD97":2547091.5499999998,"ADDRESS":"安寧街９１巷４６號","OBJECTID":392019},"geometry":{"x":167250.95000000205,"y":2547091.5500000007}},{"attributes":{"ID":392044,"DIS_CODE":0,"TOWNNAME":"安南區","LI":"溪墘里","LIN":"23鄰","STREET":"安寧街","SECT":" ","MAREA":" ","LANE":"９１巷","ALLEY":" ","HOUSE_NO":"４８號","E_COORD97":167245.76000000001,"N_COORD97":2547090.1000000001,"ADDRESS":"安寧街９１巷４８號","OBJECTID":392020},"geometry":{"x":167245.76000000071,"y":2547090.0999999996}},{"attributes":{"ID":392045,"DIS_CODE":0,"TOWNNAME":"安南區","LI":"溪墘里","LIN":"23鄰","STREET":"安寧街","SECT":" ","MAREA":" ","LANE":"９１巷","ALLEY":" ","HOUSE_NO":"５０號","E_COORD97":167240.69,"N_COORD97":2547087.4199999999,"ADDRESS":"安寧街９１巷５０號","OBJECTID":392021},"geometry":{"x":167240.69000000041,"y":2547087.4200000018}},{"attributes":{"ID":392046,"DIS_CODE":0,"TOWNNAME":"安南區","LI":"溪墘里","LIN":"23鄰","STREET":"安寧街","SECT":" ","MAREA":" ","LANE":"９１巷","ALLEY":" ","HOUSE_NO":"４４號","E_COORD97":167255.62,"N_COORD97":2547092.8300000001,"ADDRESS":"安寧街９１巷４４號","OBJECTID":392022},"geometry":{"x":167255.62000000104,"y":2547092.8300000001}},{"attributes":{"ID":392047,"DIS_CODE":0,"TOWNNAME":"安南區","LI":"溪墘里","LIN":"23鄰","STREET":"安寧街","SECT":" ","MAREA":" ","LANE":"９１巷","ALLEY":" ","HOUSE_NO":"３６號","E_COORD97":167277.76999999999,"N_COORD97":2547098.3700000001,"ADDRESS":"安寧街９１巷３６號","OBJECTID":392023},"geometry":{"x":167277.77000000048,"y":2547098.3700000029}},{"attributes":{"ID":392048,"DIS_CODE":0,"TOWNNAME":"安南區","LI":"溪墘里","LIN":"23鄰","STREET":"安寧街","SECT":" ","MAREA":" ","LANE":"１０３巷","ALLEY":" ","HOUSE_NO":"１５號","E_COORD97":167330.32999999999,"N_COORD97":2547122.8599999999,"ADDRESS":"安寧街１０３巷１５號","OBJECTID":392024},"geometry":{"x":167330.33000000101,"y":2547122.8599999994}},{"attributes":{"ID":392049,"DIS_CODE":0,"TOWNNAME":"安南區","LI":"溪墘里","LIN":"23鄰","STREET":"安寧街","SECT":" ","MAREA":" ","LANE":"９１巷","ALLEY":" ","HOUSE_NO":"１號","E_COORD97":167374.67999999999,"N_COORD97":2547097.1800000002,"ADDRESS":"安寧街９１巷１號","OBJECTID":392025},"geometry":{"x":167374.68000000063,"y":2547097.1799999997}},{"attributes":{"ID":392050,"DIS_CODE":0,"TOWNNAME":"安南區","LI":"溪墘里","LIN":"23鄰","STREET":"安寧街","SECT":" ","MAREA":" ","LANE":"９１巷","ALLEY":" ","HOUSE_NO":"３號","E_COORD97":167369.25,"N_COORD97":2547096.3100000001,"ADDRESS":"安寧街９１巷３號","OBJECTID":392026},"geometry":{"x":167369.25000000093,"y":2547096.3100000005}},{"attributes":{"ID":392051,"DIS_CODE":0,"TOWNNAME":"安南區","LI":"溪墘里","LIN":"23鄰","STREET":"安寧街","SECT":" ","MAREA":" ","LANE":"９１巷","ALLEY":" ","HOUSE_NO":"５１號","E_COORD97":167238.41,"N_COORD97":2547071.2200000002,"ADDRESS":"安寧街９１巷５１號","OBJECTID":392027},"geometry":{"x":167238.41000000108,"y":2547071.2199999988}},{"attributes":{"ID":392052,"DIS_CODE":0,"TOWNNAME":"安南區","LI":"溪墘里","LIN":"23鄰","STREET":"安寧街","SECT":" ","MAREA":" ","LANE":"１０３巷","ALLEY":" ","HOUSE_NO":"４１號","E_COORD97":167258.70000000001,"N_COORD97":2547110.25,"ADDRESS":"安寧街１０３巷４１號","OBJECTID":392028},"geometry":{"x":167258.70000000019,"y":2547110.25}},{"attributes":{"ID":392053,"DIS_CODE":0,"TOWNNAME":"安南區","LI":"州南里","LIN":"23鄰","STREET":"安和路","SECT":"四段","MAREA":" ","LANE":"５３７巷","ALLEY":" ","HOUSE_NO":"３５號","E_COORD97":169854.09,"N_COORD97":2551376,"ADDRESS":"安和路四段５３７巷３５號","OBJECTID":392029},"geometry":{"x":169854.09000000078,"y":2551376.0000000019}},{"attributes":{"ID":392054,"DIS_CODE":0,"TOWNNAME":"安南區","LI":"溪墘里","LIN":"23鄰","STREET":"安寧街","SECT":" ","MAREA":" ","LANE":"９１巷","ALLEY":" ","HOUSE_NO":"１５號","E_COORD97":167337.16185599999,"N_COORD97":2547089.8932599998,"ADDRESS":"安寧街９１巷１５號","OBJECTID":392030},"geometry":{"x":167337.16185599938,"y":2547089.8932570014}},{"attributes":{"ID":392055,"DIS_CODE":0,"TOWNNAME":"東區","LI":"小東里","LIN":"23鄰","STREET":"光明街","SECT":" ","MAREA":" ","LANE":"２０１巷","ALLEY":" ","HOUSE_NO":"２２號","E_COORD97":170995.51999999999,"N_COORD97":2544047.1899999999,"ADDRESS":"光明街２０１巷２２號","OBJECTID":392031},"geometry":{"x":170995.51999999955,"y":2544047.1900000013}},{"attributes":{"ID":392056,"DIS_CODE":0,"TOWNNAME":"東區","LI":"小東里","LIN":"23鄰","STREET":"光明街","SECT":" ","MAREA":" ","LANE":"２０１巷","ALLEY":" ","HOUSE_NO":"２４號","E_COORD97":171001.47,"N_COORD97":2544047.1899999999,"ADDRESS":"光明街２０１巷２４號","OBJECTID":392032},"geometry":{"x":171001.46999999974,"y":2544047.1900000013}},{"attributes":{"ID":392057,"DIS_CODE":0,"TOWNNAME":"東區","LI":"小東里","LIN":"23鄰","STREET":"光明街","SECT":" ","MAREA":" ","LANE":"２０１巷","ALLEY":" ","HOUSE_NO":"２６號","E_COORD97":171009.5,"N_COORD97":2544046.4199999999,"ADDRESS":"光明街２０１巷２６號","OBJECTID":392033},"geometry":{"x":171009.50000000093,"y":2544046.4200000018}},{"attributes":{"ID":392058,"DIS_CODE":0,"TOWNNAME":"東區","LI":"大智里","LIN":"23鄰","STREET":"德東街","SECT":" ","MAREA":" ","LANE":"１６２巷","ALLEY":" ","HOUSE_NO":"１號","E_COORD97":171265.69,"N_COORD97":2540237.7999999998,"ADDRESS":"德東街１６２巷１號","OBJECTID":392034},"geometry":{"x":171265.69000000134,"y":2540237.8000000007}},{"attributes":{"ID":392059,"DIS_CODE":0,"TOWNNAME":"東區","LI":"大智里","LIN":"23鄰","STREET":"德東街","SECT":" ","MAREA":" ","LANE":"１６２巷","ALLEY":" ","HOUSE_NO":"３號","E_COORD97":171265.01999999999,"N_COORD97":2540232.77,"ADDRESS":"德東街１６２巷３號","OBJECTID":392035},"geometry":{"x":171265.01999999955,"y":2540232.7700000014}},{"attributes":{"ID":392060,"DIS_CODE":0,"TOWNNAME":"東區","LI":"大智里","LIN":"23鄰","STREET":"德東街","SECT":" ","MAREA":" ","LANE":"１６２巷","ALLEY":" ","HOUSE_NO":"５號","E_COORD97":171265.20000000001,"N_COORD97":2540228.5699999998,"ADDRESS":"德東街１６２巷５號","OBJECTID":392036},"geometry":{"x":171265.20000000205,"y":2540228.5700000003}},{"attributes":{"ID":392061,"DIS_CODE":0,"TOWNNAME":"東區","LI":"大智里","LIN":"23鄰","STREET":"德東街","SECT":" ","MAREA":" ","LANE":"１６２巷","ALLEY":" ","HOUSE_NO":"７號","E_COORD97":171265.38,"N_COORD97":2540224.3799999999,"ADDRESS":"德東街１６２巷７號","OBJECTID":392037},"geometry":{"x":171265.38000000175,"y":2540224.3800000008}},{"attributes":{"ID":392062,"DIS_CODE":0,"TOWNNAME":"東區","LI":"大智里","LIN":"23鄰","STREET":"德東街","SECT":" ","MAREA":" ","LANE":"１６２巷","ALLEY":" ","HOUSE_NO":"９號","E_COORD97":171265.56,"N_COORD97":2540220.1800000002,"ADDRESS":"德東街１６２巷９號","OBJECTID":392038},"geometry":{"x":171265.56000000145,"y":2540220.1800000016}},{"attributes":{"ID":392063,"DIS_CODE":0,"TOWNNAME":"東區","LI":"大智里","LIN":"23鄰","STREET":"德東街","SECT":" ","MAREA":" ","LANE":"１６２巷","ALLEY":" ","HOUSE_NO":"１１號","E_COORD97":171265,"N_COORD97":2540215.4500000002,"ADDRESS":"德東街１６２巷１１號","OBJECTID":392039},"geometry":{"x":171265.00000000093,"y":2540215.4499999993}},{"attributes":{"ID":392064,"DIS_CODE":0,"TOWNNAME":"東區","LI":"大智里","LIN":"23鄰","STREET":"德東街","SECT":" ","MAREA":" ","LANE":"１６２巷","ALLEY":" ","HOUSE_NO":"１５號","E_COORD97":171267.48000000001,"N_COORD97":2540200.3999999999,"ADDRESS":"德東街１６２巷１５號","OBJECTID":392040},"geometry":{"x":171267.48000000138,"y":2540200.4000000004}},{"attributes":{"ID":392065,"DIS_CODE":0,"TOWNNAME":"東區","LI":"大智里","LIN":"23鄰","STREET":"德東街","SECT":" ","MAREA":" ","LANE":"１６２巷","ALLEY":" ","HOUSE_NO":"１７號","E_COORD97":171266.63,"N_COORD97":2540194.6800000002,"ADDRESS":"德東街１６２巷１７號","OBJECTID":392041},"geometry":{"x":171266.62999999989,"y":2540194.6799999997}},{"attributes":{"ID":392066,"DIS_CODE":0,"TOWNNAME":"東區","LI":"大智里","LIN":"23鄰","STREET":"德東街","SECT":" ","MAREA":" ","LANE":"１６２巷","ALLEY":" ","HOUSE_NO":"１９號","E_COORD97":171266.81,"N_COORD97":2540190.4500000002,"ADDRESS":"德東街１６２巷１９號","OBJECTID":392042},"geometry":{"x":171266.80999999959,"y":2540190.4500000011}},{"attributes":{"ID":392067,"DIS_CODE":0,"TOWNNAME":"東區","LI":"大智里","LIN":"23鄰","STREET":"德東街","SECT":" ","MAREA":" ","LANE":"１６２巷","ALLEY":" ","HOUSE_NO":"２１號","E_COORD97":171267,"N_COORD97":2540186.2599999998,"ADDRESS":"德東街１６２巷２１號","OBJECTID":392043},"geometry":{"x":171267.00000000093,"y":2540186.2599999998}},{"attributes":{"ID":392068,"DIS_CODE":0,"TOWNNAME":"東區","LI":"大智里","LIN":"23鄰","STREET":"德東街","SECT":" ","MAREA":" ","LANE":"１６２巷","ALLEY":" ","HOUSE_NO":"２３號","E_COORD97":171267.19,"N_COORD97":2540182.0600000001,"ADDRESS":"德東街１６２巷２３號","OBJECTID":392044},"geometry":{"x":171267.19000000227,"y":2540182.0600000005}},{"attributes":{"ID":392069,"DIS_CODE":0,"TOWNNAME":"東區","LI":"大智里","LIN":"23鄰","STREET":"德東街","SECT":" ","MAREA":" ","LANE":"１６２巷","ALLEY":" ","HOUSE_NO":"２５號","E_COORD97":171269.92999999999,"N_COORD97":2540177.0899999999,"ADDRESS":"德東街１６２巷２５號","OBJECTID":392045},"geometry":{"x":171269.93000000156,"y":2540177.0900000017}},{"attributes":{"ID":392070,"DIS_CODE":0,"TOWNNAME":"永康區","LI":"安康里","LIN":"23鄰","STREET":"中華路","SECT":" ","MAREA":" ","LANE":"７０３巷","ALLEY":" ","HOUSE_NO":"５１號","E_COORD97":170800.42999999999,"N_COORD97":2546234.25,"ADDRESS":"中華路７０３巷５１號","OBJECTID":392046},"geometry":{"x":170800.43000000156,"y":2546234.2500000019}},{"attributes":{"ID":392071,"DIS_CODE":0,"TOWNNAME":"永康區","LI":"龍潭里","LIN":"23鄰","STREET":"自強路","SECT":" ","MAREA":" ","LANE":"７５０巷","ALLEY":" ","HOUSE_NO":"５０號","E_COORD97":174513.54999999999,"N_COORD97":2548465.29,"ADDRESS":"自強路７５０巷５０號","OBJECTID":392047},"geometry":{"x":174513.54999999981,"y":2548465.2899999991}},{"attributes":{"ID":392072,"DIS_CODE":0,"TOWNNAME":"永康區","LI":"龍潭里","LIN":"23鄰","STREET":"自強路","SECT":" ","MAREA":" ","LANE":"７５０巷","ALLEY":" ","HOUSE_NO":"６６號","E_COORD97":174546.69,"N_COORD97":2548460.54,"ADDRESS":"自強路７５０巷６６號","OBJECTID":392048},"geometry":{"x":174546.69000000041,"y":2548460.5399999991}},{"attributes":{"ID":392073,"DIS_CODE":0,"TOWNNAME":"善化區","LI":"坐駕里","LIN":"17鄰","STREET":"興華路","SECT":" ","MAREA":" ","LANE":"３０７巷","ALLEY":" ","HOUSE_NO":"２號","E_COORD97":177786.79000000001,"N_COORD97":2558470.75,"ADDRESS":"興華路３０７巷２號","OBJECTID":392049},"geometry":{"x":177786.79000000004,"y":2558470.75}},{"attributes":{"ID":392074,"DIS_CODE":0,"TOWNNAME":"善化區","LI":"東關里","LIN":"17鄰","STREET":"中興路","SECT":" ","MAREA":" ","LANE":"６９巷","ALLEY":" ","HOUSE_NO":"１號","E_COORD97":177573.03,"N_COORD97":2558988.9900000002,"ADDRESS":"中興路６９巷１號","OBJECTID":392050},"geometry":{"x":177573.03000000119,"y":2558988.9900000002}},{"attributes":{"ID":392075,"DIS_CODE":0,"TOWNNAME":"永康區","LI":"龍潭里","LIN":"23鄰","STREET":"自強路","SECT":" ","MAREA":" ","LANE":"７５０巷","ALLEY":" ","HOUSE_NO":"５２號","E_COORD97":174517.69,"N_COORD97":2548464.54,"ADDRESS":"自強路７５０巷５２號","OBJECTID":392051},"geometry":{"x":174517.69000000134,"y":2548464.5400000028}},{"attributes":{"ID":392076,"DIS_CODE":0,"TOWNNAME":"永康區","LI":"龍潭里","LIN":"23鄰","STREET":"自強路","SECT":" ","MAREA":" ","LANE":"７５０巷","ALLEY":" ","HOUSE_NO":"６４號","E_COORD97":174542.54999999999,"N_COORD97":2548461.29,"ADDRESS":"自強路７５０巷６４號","OBJECTID":392052},"geometry":{"x":174542.55000000168,"y":2548461.2899999991}},{"attributes":{"ID":392077,"DIS_CODE":0,"TOWNNAME":"永康區","LI":"龍潭里","LIN":"23鄰","STREET":"自強路","SECT":" ","MAREA":" ","LANE":"７５０巷","ALLEY":" ","HOUSE_NO":"４８號","E_COORD97":174501.54999999999,"N_COORD97":2548460.3799999999,"ADDRESS":"自強路７５０巷４８號","OBJECTID":392053},"geometry":{"x":174501.54999999981,"y":2548460.379999999}},{"attributes":{"ID":392078,"DIS_CODE":0,"TOWNNAME":"永康區","LI":"龍潭里","LIN":"23鄰","STREET":"自強路","SECT":" ","MAREA":" ","LANE":"７５０巷","ALLEY":" ","HOUSE_NO":"６２號","E_COORD97":174538.35000000001,"N_COORD97":2548461.79,"ADDRESS":"自強路７５０巷６２號","OBJECTID":392054},"geometry":{"x":174538.34999999963,"y":2548461.7899999991}},{"attributes":{"ID":392079,"DIS_CODE":0,"TOWNNAME":"永康區","LI":"網寮里","LIN":"23鄰","STREET":"永春街","SECT":" ","MAREA":" ","LANE":"２０巷","ALLEY":" ","HOUSE_NO":"１７號","E_COORD97":173808.85000000001,"N_COORD97":2546308.8999999999,"ADDRESS":"永春街２０巷１７號","OBJECTID":392055},"geometry":{"x":173808.85000000056,"y":2546308.9000000004}},{"attributes":{"ID":392080,"DIS_CODE":0,"TOWNNAME":"永康區","LI":"網寮里","LIN":"23鄰","STREET":"永春街","SECT":" ","MAREA":" ","LANE":"２０巷","ALLEY":" ","HOUSE_NO":"２２號","E_COORD97":173826.37,"N_COORD97":2546299.1299999999,"ADDRESS":"永春街２０巷２２號","OBJECTID":392056},"geometry":{"x":173826.37000000011,"y":2546299.129999999}},{"attributes":{"ID":392081,"DIS_CODE":0,"TOWNNAME":"永康區","LI":"網寮里","LIN":"23鄰","STREET":"永春街","SECT":" ","MAREA":" ","LANE":"２０巷","ALLEY":" ","HOUSE_NO":"１９號","E_COORD97":173812.82999999999,"N_COORD97":2546309.8999999999,"ADDRESS":"永春街２０巷１９號","OBJECTID":392057},"geometry":{"x":173812.83000000101,"y":2546309.9000000004}},{"attributes":{"ID":392082,"DIS_CODE":0,"TOWNNAME":"永康區","LI":"網寮里","LIN":"23鄰","STREET":"永春街","SECT":" ","MAREA":" ","LANE":"２０巷","ALLEY":" ","HOUSE_NO":"２１號","E_COORD97":173817.17999999999,"N_COORD97":2546311.1499999999,"ADDRESS":"永春街２０巷２１號","OBJECTID":392058},"geometry":{"x":173817.1799999997,"y":2546311.1500000004}},{"attributes":{"ID":392083,"DIS_CODE":0,"TOWNNAME":"永康區","LI":"網寮里","LIN":"23鄰","STREET":"永春街","SECT":" ","MAREA":" ","LANE":"２０巷","ALLEY":" ","HOUSE_NO":"１６號","E_COORD97":173813.62,"N_COORD97":2546294.8799999999,"ADDRESS":"永春街２０巷１６號","OBJECTID":392059},"geometry":{"x":173813.62000000197,"y":2546294.879999999}},{"attributes":{"ID":392084,"DIS_CODE":0,"TOWNNAME":"仁德區","LI":"大甲里","LIN":"23鄰","STREET":"中正西路","SECT":" ","MAREA":" ","LANE":"１１９６巷","ALLEY":" ","HOUSE_NO":"５００號","E_COORD97":168980.42000000001,"N_COORD97":2536306.7400000002,"ADDRESS":"中正西路１１９６巷５００號","OBJECTID":392060},"geometry":{"x":168980.42000000086,"y":2536306.7400000021}},{"attributes":{"ID":392085,"DIS_CODE":0,"TOWNNAME":"仁德區","LI":"大甲里","LIN":"23鄰","STREET":"中正西路","SECT":" ","MAREA":" ","LANE":"７２１巷","ALLEY":" ","HOUSE_NO":"１５號","E_COORD97":168743.73000000001,"N_COORD97":2535613.4900000002,"ADDRESS":"中正西路７２１巷１５號","OBJECTID":392061},"geometry":{"x":168743.73000000045,"y":2535613.4900000021}},{"attributes":{"ID":392086,"DIS_CODE":0,"TOWNNAME":"仁德區","LI":"大甲里","LIN":"23鄰","STREET":"行大街","SECT":" ","MAREA":" ","LANE":"４０２巷","ALLEY":" ","HOUSE_NO":"４６號","E_COORD97":169618.26000000001,"N_COORD97":2535245.75,"ADDRESS":"行大街４０２巷４６號","OBJECTID":392062},"geometry":{"x":169618.26000000164,"y":2535245.7500000019}},{"attributes":{"ID":392087,"DIS_CODE":0,"TOWNNAME":"仁德區","LI":"上崙里","LIN":"23鄰","STREET":"德崙路","SECT":" ","MAREA":" ","LANE":"１９６巷","ALLEY":" ","HOUSE_NO":"１２號","E_COORD97":173616.51000000001,"N_COORD97":2538264.27,"ADDRESS":"德崙路１９６巷１２號","OBJECTID":392063},"geometry":{"x":173616.50999999978,"y":2538264.2699999996}},{"attributes":{"ID":392088,"DIS_CODE":0,"TOWNNAME":"仁德區","LI":"大甲里","LIN":"23鄰","STREET":"中正西路","SECT":" ","MAREA":" ","LANE":"６２５巷","ALLEY":" ","HOUSE_NO":"２５號","E_COORD97":168960.078606,"N_COORD97":2535522.9449800001,"ADDRESS":"中正西路６２５巷２５號","OBJECTID":392064},"geometry":{"x":168960.0786060011,"y":2535522.9449809995}},{"attributes":{"ID":392089,"DIS_CODE":0,"TOWNNAME":"仁德區","LI":"土庫里","LIN":"23鄰","STREET":"太子二街","SECT":" ","MAREA":" ","LANE":"１２１巷","ALLEY":" ","HOUSE_NO":"６號","E_COORD97":174483.87,"N_COORD97":2543325.5099999998,"ADDRESS":"太子二街１２１巷６號","OBJECTID":392065},"geometry":{"x":174483.87000000104,"y":2543325.5100000035}},{"attributes":{"ID":392090,"DIS_CODE":0,"TOWNNAME":"仁德區","LI":"大甲里","LIN":"23鄰","STREET":"二仁路","SECT":"一段","MAREA":" ","LANE":"３１５巷","ALLEY":" ","HOUSE_NO":"５０１號","E_COORD97":169309.32000000001,"N_COORD97":2535918.27,"ADDRESS":"二仁路一段３１５巷５０１號","OBJECTID":392066},"geometry":{"x":169309.3200000003,"y":2535918.2699999996}},{"attributes":{"ID":392091,"DIS_CODE":0,"TOWNNAME":"永康區","LI":"復國里","LIN":"15鄰","STREET":"復國二路","SECT":" ","MAREA":" ","LANE":"１７３巷","ALLEY":" ","HOUSE_NO":"１１號","E_COORD97":172899.03,"N_COORD97":2545797.5299999998,"ADDRESS":"復國二路１７３巷１１號","OBJECTID":392067},"geometry":{"x":172899.03000000119,"y":2545797.5300000012}},{"attributes":{"ID":392092,"DIS_CODE":0,"TOWNNAME":"仁德區","LI":"大甲里","LIN":"23鄰","STREET":"中正西路","SECT":" ","MAREA":" ","LANE":"６２５巷","ALLEY":" ","HOUSE_NO":"２１號","E_COORD97":169050.29999999999,"N_COORD97":2535549.5,"ADDRESS":"中正西路６２５巷２１號","OBJECTID":392068},"geometry":{"x":169050.30000000168,"y":2535549.5000000019}},{"attributes":{"ID":392093,"DIS_CODE":0,"TOWNNAME":"仁德區","LI":"土庫里","LIN":"23鄰","STREET":"太子二街","SECT":" ","MAREA":" ","LANE":"１２１巷","ALLEY":" ","HOUSE_NO":"１０號","E_COORD97":174479.95999999999,"N_COORD97":2543346.2599999998,"ADDRESS":"太子二街１２１巷１０號","OBJECTID":392069},"geometry":{"x":174479.95999999996,"y":2543346.2599999998}},{"attributes":{"ID":392094,"DIS_CODE":0,"TOWNNAME":"仁德區","LI":"仁德里","LIN":"23鄰","STREET":"文心路","SECT":" ","MAREA":" ","LANE":"５８巷","ALLEY":" ","HOUSE_NO":"３１號","E_COORD97":172260.70000000001,"N_COORD97":2541374.8300000001,"ADDRESS":"文心路５８巷３１號","OBJECTID":392070},"geometry":{"x":172260.70000000112,"y":2541374.8300000019}},{"attributes":{"ID":392095,"DIS_CODE":0,"TOWNNAME":"仁德區","LI":"仁德里","LIN":"23鄰","STREET":"文心路","SECT":" ","MAREA":" ","LANE":"５８巷","ALLEY":" ","HOUSE_NO":"９號","E_COORD97":172209.16,"N_COORD97":2541388.5699999998,"ADDRESS":"文心路５８巷９號","OBJECTID":392071},"geometry":{"x":172209.16000000015,"y":2541388.5700000003}},{"attributes":{"ID":392096,"DIS_CODE":0,"TOWNNAME":"仁德區","LI":"仁德里","LIN":"23鄰","STREET":"文心路","SECT":" ","MAREA":" ","LANE":"５８巷","ALLEY":" ","HOUSE_NO":"２０號","E_COORD97":172218.53,"N_COORD97":2541367.5800000001,"ADDRESS":"文心路５８巷２０號","OBJECTID":392072},"geometry":{"x":172218.53000000026,"y":2541367.5800000001}},{"attributes":{"ID":392097,"DIS_CODE":0,"TOWNNAME":"仁德區","LI":"仁德里","LIN":"23鄰","STREET":"文心路","SECT":" ","MAREA":" ","LANE":"５８巷","ALLEY":" ","HOUSE_NO":"１７號","E_COORD97":172227.59,"N_COORD97":2541383.8199999998,"ADDRESS":"文心路５８巷１７號","OBJECTID":392073},"geometry":{"x":172227.59000000078,"y":2541383.8200000003}},{"attributes":{"ID":392098,"DIS_CODE":0,"TOWNNAME":"仁德區","LI":"仁德里","LIN":"23鄰","STREET":"文心路","SECT":" ","MAREA":" ","LANE":"５８巷","ALLEY":" ","HOUSE_NO":"１號","E_COORD97":172191.26999999999,"N_COORD97":2541393.3199999998,"ADDRESS":"文心路５８巷１號","OBJECTID":392074},"geometry":{"x":172191.27000000142,"y":2541393.3200000003}},{"attributes":{"ID":392099,"DIS_CODE":0,"TOWNNAME":"仁德區","LI":"仁德里","LIN":"23鄰","STREET":"文心路","SECT":" ","MAREA":" ","LANE":"５８巷","ALLEY":" ","HOUSE_NO":"１８號","E_COORD97":172213.98999999999,"N_COORD97":2541368.5800000001,"ADDRESS":"文心路５８巷１８號","OBJECTID":392075},"geometry":{"x":172213.99000000022,"y":2541368.5800000001}},{"attributes":{"ID":392100,"DIS_CODE":0,"TOWNNAME":"仁德區","LI":"仁德里","LIN":"23鄰","STREET":"文心路","SECT":" ","MAREA":" ","LANE":"５８巷","ALLEY":" ","HOUSE_NO":"３５號","E_COORD97":172271.14000000001,"N_COORD97":2541372.3300000001,"ADDRESS":"文心路５８巷３５號","OBJECTID":392076},"geometry":{"x":172271.13999999966,"y":2541372.3300000019}},{"attributes":{"ID":392101,"DIS_CODE":0,"TOWNNAME":"永康區","LI":"網寮里","LIN":"20鄰","STREET":"文化路","SECT":" ","MAREA":" ","LANE":"３２３巷","ALLEY":" ","HOUSE_NO":"５號","E_COORD97":173438.31,"N_COORD97":2546118.1099999999,"ADDRESS":"文化路３２３巷５號","OBJECTID":392077},"geometry":{"x":173438.30999999959,"y":2546118.1100000031}},{"attributes":{"ID":392102,"DIS_CODE":0,"TOWNNAME":"永康區","LI":"網寮里","LIN":"17鄰","STREET":"永興路","SECT":" ","MAREA":" ","LANE":"４２７巷","ALLEY":" ","HOUSE_NO":"３號","E_COORD97":173283.91,"N_COORD97":2546862.6200000001,"ADDRESS":"永興路４２７巷３號","OBJECTID":392078},"geometry":{"x":173283.91000000015,"y":2546862.6200000029}},{"attributes":{"ID":392103,"DIS_CODE":0,"TOWNNAME":"永康區","LI":"網寮里","LIN":"21鄰","STREET":"文化路","SECT":" ","MAREA":" ","LANE":"２３５巷","ALLEY":" ","HOUSE_NO":"１２號","E_COORD97":173649.07999999999,"N_COORD97":2546083.9199999999,"ADDRESS":"文化路２３５巷１２號","OBJECTID":392079},"geometry":{"x":173649.08000000007,"y":2546083.9200000018}},{"attributes":{"ID":392104,"DIS_CODE":0,"TOWNNAME":"仁德區","LI":"仁德里","LIN":"23鄰","STREET":"文心路","SECT":" ","MAREA":" ","LANE":"５８巷","ALLEY":" ","HOUSE_NO":"５０號","E_COORD97":172246.38,"N_COORD97":2541348.8300000001,"ADDRESS":"文心路５８巷５０號","OBJECTID":392080},"geometry":{"x":172246.37999999989,"y":2541348.8300000001}},{"attributes":{"ID":392105,"DIS_CODE":0,"TOWNNAME":"仁德區","LI":"仁德里","LIN":"23鄰","STREET":"文心路","SECT":" ","MAREA":" ","LANE":"５８巷","ALLEY":" ","HOUSE_NO":"３７號","E_COORD97":172275.64999999999,"N_COORD97":2541371.0800000001,"ADDRESS":"文心路５８巷３７號","OBJECTID":392081},"geometry":{"x":172275.65000000037,"y":2541371.0800000001}},{"attributes":{"ID":392106,"DIS_CODE":0,"TOWNNAME":"仁德區","LI":"仁德里","LIN":"23鄰","STREET":"文心路","SECT":" ","MAREA":" ","LANE":"５８巷","ALLEY":" ","HOUSE_NO":"２號","E_COORD97":172186.35999999999,"N_COORD97":2541375.8300000001,"ADDRESS":"文心路５８巷２號","OBJECTID":392082},"geometry":{"x":172186.3599999994,"y":2541375.8300000019}},{"attributes":{"ID":392107,"DIS_CODE":0,"TOWNNAME":"仁德區","LI":"太子里","LIN":"23鄰","STREET":"中正路","SECT":"三段","MAREA":" ","LANE":"７０４巷","ALLEY":" ","HOUSE_NO":"１號","E_COORD97":173768.23000000001,"N_COORD97":2543599.52,"ADDRESS":"中正路三段７０４巷１號","OBJECTID":392083},"geometry":{"x":173768.23000000045,"y":2543599.5199999996}},{"attributes":{"ID":392108,"DIS_CODE":0,"TOWNNAME":"仁德區","LI":"仁德里","LIN":"23鄰","STREET":"文心路","SECT":" ","MAREA":" ","LANE":"５８巷","ALLEY":" ","HOUSE_NO":"６號","E_COORD97":172190.95000000001,"N_COORD97":2541374.3300000001,"ADDRESS":"文心路５８巷６號","OBJECTID":392084},"geometry":{"x":172190.95000000112,"y":2541374.3300000038}},{"attributes":{"ID":392109,"DIS_CODE":0,"TOWNNAME":"仁德區","LI":"仁德里","LIN":"23鄰","STREET":"文心路","SECT":" ","MAREA":" ","LANE":"５８巷","ALLEY":" ","HOUSE_NO":"５２號","E_COORD97":172245.23000000001,"N_COORD97":2541345.0800000001,"ADDRESS":"文心路５８巷５２號","OBJECTID":392085},"geometry":{"x":172245.23000000138,"y":2541345.0800000001}},{"attributes":{"ID":392110,"DIS_CODE":0,"TOWNNAME":"仁德區","LI":"仁德里","LIN":"23鄰","STREET":"文心路","SECT":" ","MAREA":" ","LANE":"５８巷","ALLEY":" ","HOUSE_NO":"７號","E_COORD97":172204.85999999999,"N_COORD97":2541389.5699999998,"ADDRESS":"文心路５８巷７號","OBJECTID":392086},"geometry":{"x":172204.86000000034,"y":2541389.5699999984}},{"attributes":{"ID":392111,"DIS_CODE":0,"TOWNNAME":"仁德區","LI":"仁德里","LIN":"23鄰","STREET":"文心路","SECT":" ","MAREA":" ","LANE":"５８巷","ALLEY":" ","HOUSE_NO":"６０號","E_COORD97":172255.17000000001,"N_COORD97":2541332.0800000001,"ADDRESS":"文心路５８巷６０號","OBJECTID":392087},"geometry":{"x":172255.17000000179,"y":2541332.0800000038}},{"attributes":{"ID":392112,"DIS_CODE":0,"TOWNNAME":"仁德區","LI":"仁德里","LIN":"23鄰","STREET":"文心路","SECT":" ","MAREA":" ","LANE":"５８巷","ALLEY":" ","HOUSE_NO":"１３號","E_COORD97":172219.26999999999,"N_COORD97":2541386.5699999998,"ADDRESS":"文心路５８巷１３號","OBJECTID":392088},"geometry":{"x":172219.27000000048,"y":2541386.570000004}},{"attributes":{"ID":392113,"DIS_CODE":0,"TOWNNAME":"仁德區","LI":"仁德里","LIN":"23鄰","STREET":"文心路","SECT":" ","MAREA":" ","LANE":"５８巷","ALLEY":" ","HOUSE_NO":"１９號","E_COORD97":172232.82000000001,"N_COORD97":2541383.0699999998,"ADDRESS":"文心路５８巷１９號","OBJECTID":392089},"geometry":{"x":172232.82000000123,"y":2541383.070000004}},{"attributes":{"ID":392114,"DIS_CODE":0,"TOWNNAME":"仁德區","LI":"仁德里","LIN":"23鄰","STREET":"文心路","SECT":" ","MAREA":" ","LANE":"５８巷","ALLEY":" ","HOUSE_NO":"２６號","E_COORD97":172214.69,"N_COORD97":2541352.8300000001,"ADDRESS":"文心路５８巷２６號","OBJECTID":392090},"geometry":{"x":172214.68999999948,"y":2541352.8300000001}},{"attributes":{"ID":392115,"DIS_CODE":0,"TOWNNAME":"仁德區","LI":"仁德里","LIN":"23鄰","STREET":"文心路","SECT":" ","MAREA":" ","LANE":"５８巷","ALLEY":" ","HOUSE_NO":"２３號","E_COORD97":172241.63,"N_COORD97":2541380.0800000001,"ADDRESS":"文心路５８巷２３號","OBJECTID":392091},"geometry":{"x":172241.62999999989,"y":2541380.0800000019}},{"attributes":{"ID":392116,"DIS_CODE":0,"TOWNNAME":"仁德區","LI":"仁德里","LIN":"23鄰","STREET":"文心路","SECT":" ","MAREA":" ","LANE":"５８巷","ALLEY":" ","HOUSE_NO":"２１號","E_COORD97":172238.10000000001,"N_COORD97":2541381.3199999998,"ADDRESS":"文心路５８巷２１號","OBJECTID":392092},"geometry":{"x":172238.09999999963,"y":2541381.320000004}},{"attributes":{"ID":392117,"DIS_CODE":0,"TOWNNAME":"仁德區","LI":"仁德里","LIN":"23鄰","STREET":"文心路","SECT":" ","MAREA":" ","LANE":"５８巷","ALLEY":" ","HOUSE_NO":"１５號","E_COORD97":172223.54000000001,"N_COORD97":2541385.0699999998,"ADDRESS":"文心路５８巷１５號","OBJECTID":392093},"geometry":{"x":172223.54000000004,"y":2541385.0700000003}},{"attributes":{"ID":392118,"DIS_CODE":0,"TOWNNAME":"永康區","LI":"網寮里","LIN":"6鄰","STREET":"永二街","SECT":" ","MAREA":" ","LANE":"１９６巷","ALLEY":" ","HOUSE_NO":"１２號","E_COORD97":173350.48000000001,"N_COORD97":2546280.4900000002,"ADDRESS":"永二街１９６巷１２號","OBJECTID":392094},"geometry":{"x":173350.48000000138,"y":2546280.4900000021}},{"attributes":{"ID":392119,"DIS_CODE":0,"TOWNNAME":"永康區","LI":"龍潭里","LIN":"12鄰","STREET":"龍橋街","SECT":" ","MAREA":" ","LANE":"３７巷","ALLEY":" ","HOUSE_NO":"６號","E_COORD97":174801.76000000001,"N_COORD97":2548340.2000000002,"ADDRESS":"龍橋街３７巷６號","OBJECTID":392095},"geometry":{"x":174801.75999999978,"y":2548340.1999999993}},{"attributes":{"ID":392120,"DIS_CODE":0,"TOWNNAME":"仁德區","LI":"仁德里","LIN":"23鄰","STREET":"文心路","SECT":" ","MAREA":" ","LANE":"５８巷","ALLEY":" ","HOUSE_NO":"１６號","E_COORD97":172209.87,"N_COORD97":2541369.5800000001,"ADDRESS":"文心路５８巷１６號","OBJECTID":392096},"geometry":{"x":172209.87000000197,"y":2541369.5800000019}},{"attributes":{"ID":392121,"DIS_CODE":0,"TOWNNAME":"仁德區","LI":"仁德里","LIN":"23鄰","STREET":"文心路","SECT":" ","MAREA":" ","LANE":"５８巷","ALLEY":" ","HOUSE_NO":"３８號","E_COORD97":172234.17000000001,"N_COORD97":2541364.3300000001,"ADDRESS":"文心路５８巷３８號","OBJECTID":392097},"geometry":{"x":172234.16999999993,"y":2541364.3300000019}},{"attributes":{"ID":392122,"DIS_CODE":0,"TOWNNAME":"仁德區","LI":"仁德里","LIN":"23鄰","STREET":"文心路","SECT":" ","MAREA":" ","LANE":"５８巷","ALLEY":" ","HOUSE_NO":"５６號","E_COORD97":172244.06,"N_COORD97":2541341.3300000001,"ADDRESS":"文心路５８巷５６號","OBJECTID":392098},"geometry":{"x":172244.06000000052,"y":2541341.3300000019}},{"attributes":{"ID":392123,"DIS_CODE":0,"TOWNNAME":"安南區","LI":"安慶里","LIN":"23鄰","STREET":"安通二街","SECT":" ","MAREA":" ","LANE":"１３６巷","ALLEY":" ","HOUSE_NO":"２６號","E_COORD97":168686.34,"N_COORD97":2548191.29,"ADDRESS":"安通二街１３６巷２６號","OBJECTID":392099},"geometry":{"x":168686.34000000078,"y":2548191.2899999972}},{"attributes":{"ID":392124,"DIS_CODE":0,"TOWNNAME":"安南區","LI":"安慶里","LIN":"23鄰","STREET":"安通二街","SECT":" ","MAREA":" ","LANE":"１３６巷","ALLEY":" ","HOUSE_NO":"２８號","E_COORD97":168693.47,"N_COORD97":2548184.8399999999,"ADDRESS":"安通二街１３６巷２８號","OBJECTID":392100},"geometry":{"x":168693.47000000067,"y":2548184.8399999999}},{"attributes":{"ID":392125,"DIS_CODE":0,"TOWNNAME":"安南區","LI":"安慶里","LIN":"23鄰","STREET":"安通二街","SECT":" ","MAREA":" ","LANE":"１３６巷","ALLEY":" ","HOUSE_NO":"３０號","E_COORD97":168697.51999999999,"N_COORD97":2548194.8599999999,"ADDRESS":"安通二街１３６巷３０號","OBJECTID":392101},"geometry":{"x":168697.52000000142,"y":2548194.8600000031}},{"attributes":{"ID":392126,"DIS_CODE":0,"TOWNNAME":"安南區","LI":"安慶里","LIN":"23鄰","STREET":"安通二街","SECT":" ","MAREA":" ","LANE":"１３６巷","ALLEY":" ","HOUSE_NO":"３８號","E_COORD97":168713.48999999999,"N_COORD97":2548190.5800000001,"ADDRESS":"安通二街１３６巷３８號","OBJECTID":392102},"geometry":{"x":168713.49000000022,"y":2548190.5800000038}},{"attributes":{"ID":392127,"DIS_CODE":0,"TOWNNAME":"東區","LI":"泉南里","LIN":"23鄰","STREET":"光華街","SECT":" ","MAREA":" ","LANE":"２７５巷","ALLEY":" ","HOUSE_NO":"２號","E_COORD97":169395.91,"N_COORD97":2543029.5600000001,"ADDRESS":"光華街２７５巷２號","OBJECTID":392103},"geometry":{"x":169395.91000000108,"y":2543029.5600000005}},{"attributes":{"ID":392128,"DIS_CODE":0,"TOWNNAME":"東區","LI":"泉南里","LIN":"23鄰","STREET":"光華街","SECT":" ","MAREA":" ","LANE":"２７５巷","ALLEY":" ","HOUSE_NO":"４號","E_COORD97":169396.53,"N_COORD97":2543024.5899999999,"ADDRESS":"光華街２７５巷４號","OBJECTID":392104},"geometry":{"x":169396.52999999933,"y":2543024.5900000017}},{"attributes":{"ID":392129,"DIS_CODE":0,"TOWNNAME":"永康區","LI":"復國里","LIN":"29鄰","STREET":"復華二街","SECT":" ","MAREA":" ","LANE":"１巷","ALLEY":" ","HOUSE_NO":"２８號","E_COORD97":172671.97,"N_COORD97":2545276.7400000002,"ADDRESS":"復華二街１巷２８號","OBJECTID":392105},"geometry":{"x":172671.97000000067,"y":2545276.7400000002}},{"attributes":{"ID":392130,"DIS_CODE":0,"TOWNNAME":"安南區","LI":"安富里","LIN":"23鄰","STREET":"郡安路","SECT":"五段","MAREA":" ","LANE":"１７８巷","ALLEY":" ","HOUSE_NO":"５３號","E_COORD97":167553.79000000001,"N_COORD97":2547606.5899999999,"ADDRESS":"郡安路五段１７８巷５３號","OBJECTID":392106},"geometry":{"x":167553.79000000097,"y":2547606.5899999999}},{"attributes":{"ID":392131,"DIS_CODE":0,"TOWNNAME":"永康區","LI":"復興里","LIN":"14鄰","STREET":"復興路","SECT":" ","MAREA":" ","LANE":"２８２巷","ALLEY":" ","HOUSE_NO":"１２號","E_COORD97":172384.45000000001,"N_COORD97":2544401.1400000001,"ADDRESS":"復興路２８２巷１２號","OBJECTID":392107},"geometry":{"x":172384.45000000112,"y":2544401.1400000025}},{"attributes":{"ID":392132,"DIS_CODE":0,"TOWNNAME":"永康區","LI":"龍潭里","LIN":"12鄰","STREET":"龍橋街","SECT":" ","MAREA":" ","LANE":"３７巷","ALLEY":" ","HOUSE_NO":"１８號","E_COORD97":174792.12,"N_COORD97":2548313.75,"ADDRESS":"龍橋街３７巷１８號","OBJECTID":392108},"geometry":{"x":174792.12000000104,"y":2548313.75}},{"attributes":{"ID":392133,"DIS_CODE":0,"TOWNNAME":"永康區","LI":"新樹里","LIN":"12鄰","STREET":"富強路","SECT":"二段","MAREA":" ","LANE":"１２１巷","ALLEY":" ","HOUSE_NO":"６３號","E_COORD97":175634.57999999999,"N_COORD97":2547010.7400000002,"ADDRESS":"富強路二段１２１巷６３號","OBJECTID":392109},"geometry":{"x":175634.58000000101,"y":2547010.7400000021}},{"attributes":{"ID":392134,"DIS_CODE":0,"TOWNNAME":"永康區","LI":"復華里","LIN":"28鄰","STREET":"復華八街","SECT":" ","MAREA":" ","LANE":"４１巷","ALLEY":" ","HOUSE_NO":"１０號","E_COORD97":172721.35000000001,"N_COORD97":2546281.6699999999,"ADDRESS":"復華八街４１巷１０號","OBJECTID":392110},"geometry":{"x":172721.3499999987,"y":2546281.6700000018}},{"attributes":{"ID":392135,"DIS_CODE":0,"TOWNNAME":"永康區","LI":"復興里","LIN":"4鄰","STREET":"復興路","SECT":" ","MAREA":" ","LANE":"４２３巷","ALLEY":" ","HOUSE_NO":"４７號","E_COORD97":172188.35000000001,"N_COORD97":2544280.52,"ADDRESS":"復興路４２３巷４７號","OBJECTID":392111},"geometry":{"x":172188.34999999963,"y":2544280.5199999996}},{"attributes":{"ID":392136,"DIS_CODE":0,"TOWNNAME":"永康區","LI":"復華里","LIN":"32鄰","STREET":"復華十街","SECT":" ","MAREA":" ","LANE":"３９巷","ALLEY":" ","HOUSE_NO":"２３號","E_COORD97":172577.03,"N_COORD97":2546352.27,"ADDRESS":"復華十街３９巷２３號","OBJECTID":392112},"geometry":{"x":172577.03000000119,"y":2546352.2700000014}},{"attributes":{"ID":392137,"DIS_CODE":0,"TOWNNAME":"永康區","LI":"網寮里","LIN":"21鄰","STREET":"文化路","SECT":" ","MAREA":" ","LANE":"２３５巷","ALLEY":" ","HOUSE_NO":"１０號","E_COORD97":173649.79000000001,"N_COORD97":2546092.7799999998,"ADDRESS":"文化路２３５巷１０號","OBJECTID":392113},"geometry":{"x":173649.79000000097,"y":2546092.7799999993}},{"attributes":{"ID":392138,"DIS_CODE":0,"TOWNNAME":"中西區","LI":"三民里","LIN":"23鄰","STREET":"忠義路","SECT":"二段","MAREA":" ","LANE":"１５８巷","ALLEY":" ","HOUSE_NO":"１１號","E_COORD97":168456.38,"N_COORD97":2544036.3700000001,"ADDRESS":"忠義路二段１５８巷１１號","OBJECTID":392114},"geometry":{"x":168456.38000000175,"y":2544036.3700000048}},{"attributes":{"ID":392139,"DIS_CODE":0,"TOWNNAME":"中西區","LI":"三民里","LIN":"23鄰","STREET":"忠義路","SECT":"二段","MAREA":" ","LANE":"１５８巷","ALLEY":" ","HOUSE_NO":"１號","E_COORD97":168407.13,"N_COORD97":2544055.4700000002,"ADDRESS":"忠義路二段１５８巷１號","OBJECTID":392115},"geometry":{"x":168407.12999999896,"y":2544055.4699999988}},{"attributes":{"ID":392140,"DIS_CODE":0,"TOWNNAME":"中西區","LI":"三民里","LIN":"23鄰","STREET":"忠義路","SECT":"二段","MAREA":" ","LANE":"１５８巷","ALLEY":" ","HOUSE_NO":"３號","E_COORD97":168412.57999999999,"N_COORD97":2544054.5299999998,"ADDRESS":"忠義路二段１５８巷３號","OBJECTID":392116},"geometry":{"x":168412.58000000007,"y":2544054.5300000012}},{"attributes":{"ID":392141,"DIS_CODE":0,"TOWNNAME":"中西區","LI":"三民里","LIN":"23鄰","STREET":"忠義路","SECT":"二段","MAREA":" ","LANE":"１５８巷","ALLEY":" ","HOUSE_NO":"５號","E_COORD97":168420.14999999999,"N_COORD97":2544050.5099999998,"ADDRESS":"忠義路二段１５８巷５號","OBJECTID":392117},"geometry":{"x":168420.1500000013,"y":2544050.5099999998}},{"attributes":{"ID":392142,"DIS_CODE":0,"TOWNNAME":"中西區","LI":"赤嵌里","LIN":"23鄰","STREET":"忠義路","SECT":"二段","MAREA":" ","LANE":"２３３巷","ALLEY":" ","HOUSE_NO":"６號","E_COORD97":168397.57000000001,"N_COORD97":2544306.8300000001,"ADDRESS":"忠義路二段２３３巷６號","OBJECTID":392118},"geometry":{"x":168397.5700000003,"y":2544306.8300000038}},{"attributes":{"ID":392143,"DIS_CODE":0,"TOWNNAME":"中西區","LI":"赤嵌里","LIN":"23鄰","STREET":"忠義路","SECT":"二段","MAREA":" ","LANE":"２３３巷","ALLEY":" ","HOUSE_NO":"８號","E_COORD97":168393.45000000001,"N_COORD97":2544307.7200000002,"ADDRESS":"忠義路二段２３３巷８號","OBJECTID":392119},"geometry":{"x":168393.44999999925,"y":2544307.7200000007}},{"attributes":{"ID":392144,"DIS_CODE":0,"TOWNNAME":"永康區","LI":"復國里","LIN":"15鄰","STREET":"復國二路","SECT":" ","MAREA":" ","LANE":"１７３巷","ALLEY":" ","HOUSE_NO":"３號","E_COORD97":172919.87,"N_COORD97":2545796.5299999998,"ADDRESS":"復國二路１７３巷３號","OBJECTID":392120},"geometry":{"x":172919.87000000011,"y":2545796.5300000031}},{"attributes":{"ID":392145,"DIS_CODE":0,"TOWNNAME":"永康區","LI":"新樹里","LIN":"1鄰","STREET":"富強路","SECT":"二段","MAREA":" ","LANE":"１８９巷","ALLEY":" ","HOUSE_NO":"２號","E_COORD97":175564.62,"N_COORD97":2547238.1299999999,"ADDRESS":"富強路二段１８９巷２號","OBJECTID":392121},"geometry":{"x":175564.62000000197,"y":2547238.129999999}},{"attributes":{"ID":392146,"DIS_CODE":0,"TOWNNAME":"永康區","LI":"龍潭里","LIN":"23鄰","STREET":"自強路","SECT":" ","MAREA":" ","LANE":"７５０巷","ALLEY":" ","HOUSE_NO":"４２號","E_COORD97":174491.20999999999,"N_COORD97":2548461.6299999999,"ADDRESS":"自強路７５０巷４２號","OBJECTID":392122},"geometry":{"x":174491.21000000089,"y":2548461.6300000008}},{"attributes":{"ID":392147,"DIS_CODE":0,"TOWNNAME":"東區","LI":"富強里","LIN":"23鄰","STREET":"中華東路","SECT":"二段","MAREA":" ","LANE":"４８巷","ALLEY":" ","HOUSE_NO":"１０號","E_COORD97":171335.98999999999,"N_COORD97":2543024.2400000002,"ADDRESS":"中華東路二段４８巷１０號","OBJECTID":392123},"geometry":{"x":171335.99000000022,"y":2543024.2400000021}},{"attributes":{"ID":392148,"DIS_CODE":0,"TOWNNAME":"東區","LI":"富強里","LIN":"23鄰","STREET":"中華東路","SECT":"二段","MAREA":" ","LANE":"４８巷","ALLEY":" ","HOUSE_NO":"１１號","E_COORD97":171334.47,"N_COORD97":2542999.9700000002,"ADDRESS":"中華東路二段４８巷１１號","OBJECTID":392124},"geometry":{"x":171334.47000000067,"y":2542999.9700000007}},{"attributes":{"ID":392149,"DIS_CODE":0,"TOWNNAME":"東區","LI":"富強里","LIN":"23鄰","STREET":"中華東路","SECT":"二段","MAREA":" ","LANE":"４８巷","ALLEY":" ","HOUSE_NO":"１４號","E_COORD97":171323.85999999999,"N_COORD97":2543023.0099999998,"ADDRESS":"中華東路二段４８巷１４號","OBJECTID":392125},"geometry":{"x":171323.86000000127,"y":2543023.0099999998}},{"attributes":{"ID":392150,"DIS_CODE":0,"TOWNNAME":"東區","LI":"富強里","LIN":"23鄰","STREET":"中華東路","SECT":"二段","MAREA":" ","LANE":"４８巷","ALLEY":" ","HOUSE_NO":"１６號","E_COORD97":171319.64000000001,"N_COORD97":2543022.1299999999,"ADDRESS":"中華東路二段４８巷１６號","OBJECTID":392126},"geometry":{"x":171319.6400000006,"y":2543022.1300000027}},{"attributes":{"ID":392151,"DIS_CODE":0,"TOWNNAME":"東區","LI":"富強里","LIN":"23鄰","STREET":"中華東路","SECT":"二段","MAREA":" ","LANE":"４８巷","ALLEY":" ","HOUSE_NO":"１８號之１","E_COORD97":171302.88,"N_COORD97":2543037.4900000002,"ADDRESS":"中華東路二段４８巷１８號之１","OBJECTID":392127},"geometry":{"x":171302.88000000082,"y":2543037.4900000002}},{"attributes":{"ID":392152,"DIS_CODE":0,"TOWNNAME":"東區","LI":"富強里","LIN":"23鄰","STREET":"中華東路","SECT":"二段","MAREA":" ","LANE":"４８巷","ALLEY":" ","HOUSE_NO":"２２號","E_COORD97":171303.12,"N_COORD97":2543018.79,"ADDRESS":"中華東路二段４８巷２２號","OBJECTID":392128},"geometry":{"x":171303.12000000104,"y":2543018.790000001}},{"attributes":{"ID":392153,"DIS_CODE":0,"TOWNNAME":"東區","LI":"富強里","LIN":"23鄰","STREET":"中華東路","SECT":"二段","MAREA":" ","LANE":"４８巷","ALLEY":" ","HOUSE_NO":"２４號","E_COORD97":171297.85000000001,"N_COORD97":2543018.27,"ADDRESS":"中華東路二段４８巷２４號","OBJECTID":392129},"geometry":{"x":171297.85000000056,"y":2543018.2700000033}},{"attributes":{"ID":392154,"DIS_CODE":0,"TOWNNAME":"東區","LI":"富強里","LIN":"23鄰","STREET":"中華東路","SECT":"二段","MAREA":" ","LANE":"４８巷","ALLEY":" ","HOUSE_NO":"２８號","E_COORD97":171288.72,"N_COORD97":2543014.6400000001,"ADDRESS":"中華東路二段４８巷２８號","OBJECTID":392130},"geometry":{"x":171288.72000000067,"y":2543014.6400000025}},{"attributes":{"ID":392155,"DIS_CODE":0,"TOWNNAME":"東區","LI":"富強里","LIN":"23鄰","STREET":"中華東路","SECT":"二段","MAREA":" ","LANE":"４８巷","ALLEY":" ","HOUSE_NO":"２號","E_COORD97":171365.70000000001,"N_COORD97":2543023.5299999998,"ADDRESS":"中華東路二段４８巷２號","OBJECTID":392131},"geometry":{"x":171365.70000000112,"y":2543023.5300000012}},{"attributes":{"ID":392156,"DIS_CODE":0,"TOWNNAME":"東區","LI":"富強里","LIN":"23鄰","STREET":"中華東路","SECT":"二段","MAREA":" ","LANE":"４８巷","ALLEY":" ","HOUSE_NO":"３０號","E_COORD97":171284.25,"N_COORD97":2543015.4399999999,"ADDRESS":"中華東路二段４８巷３０號","OBJECTID":392132},"geometry":{"x":171284.25,"y":2543015.4400000013}},{"attributes":{"ID":392157,"DIS_CODE":0,"TOWNNAME":"東區","LI":"富強里","LIN":"23鄰","STREET":"裕農路","SECT":" ","MAREA":" ","LANE":"４４６巷","ALLEY":" ","HOUSE_NO":"１９號之１","E_COORD97":171258.85999999999,"N_COORD97":2543084.6800000002,"ADDRESS":"裕農路４４６巷１９號之１","OBJECTID":392133},"geometry":{"x":171258.86000000034,"y":2543084.6800000016}},{"attributes":{"ID":392158,"DIS_CODE":0,"TOWNNAME":"東區","LI":"富強里","LIN":"23鄰","STREET":"裕農路","SECT":" ","MAREA":" ","LANE":"４４６巷","ALLEY":" ","HOUSE_NO":"２７號","E_COORD97":171263.82000000001,"N_COORD97":2543056.3500000001,"ADDRESS":"裕農路４４６巷２７號","OBJECTID":392134},"geometry":{"x":171263.8200000003,"y":2543056.3500000015}},{"attributes":{"ID":392159,"DIS_CODE":0,"TOWNNAME":"東區","LI":"富強里","LIN":"23鄰","STREET":"裕農路","SECT":" ","MAREA":" ","LANE":"４４６巷","ALLEY":" ","HOUSE_NO":"３７號","E_COORD97":171297.94,"N_COORD97":2543053.7799999998,"ADDRESS":"裕農路４４６巷３７號","OBJECTID":392135},"geometry":{"x":171297.94000000134,"y":2543053.7799999993}},{"attributes":{"ID":392160,"DIS_CODE":0,"TOWNNAME":"東區","LI":"龍山里","LIN":"23鄰","STREET":"東門路","SECT":"二段","MAREA":" ","LANE":"１０４巷","ALLEY":" ","HOUSE_NO":"１２號","E_COORD97":170020.67999999999,"N_COORD97":2542921.9399999999,"ADDRESS":"東門路二段１０４巷１２號","OBJECTID":392136},"geometry":{"x":170020.68000000063,"y":2542921.9399999995}},{"attributes":{"ID":392161,"DIS_CODE":0,"TOWNNAME":"東區","LI":"龍山里","LIN":"23鄰","STREET":"東門路","SECT":"二段","MAREA":" ","LANE":"１０４巷","ALLEY":" ","HOUSE_NO":"１６號","E_COORD97":170019.64999999999,"N_COORD97":2542911.29,"ADDRESS":"東門路二段１０４巷１６號","OBJECTID":392137},"geometry":{"x":170019.64999999944,"y":2542911.2899999991}},{"attributes":{"ID":392162,"DIS_CODE":0,"TOWNNAME":"東區","LI":"龍山里","LIN":"23鄰","STREET":"東門路","SECT":"二段","MAREA":" ","LANE":"１０４巷","ALLEY":" ","HOUSE_NO":"２０號","E_COORD97":170013.94,"N_COORD97":2542899.0099999998,"ADDRESS":"東門路二段１０４巷２０號","OBJECTID":392138},"geometry":{"x":170013.94000000041,"y":2542899.0100000016}},{"attributes":{"ID":392163,"DIS_CODE":0,"TOWNNAME":"東區","LI":"龍山里","LIN":"23鄰","STREET":"東門路","SECT":"二段","MAREA":" ","LANE":"１０４巷","ALLEY":" ","HOUSE_NO":"８號","E_COORD97":170027.56,"N_COORD97":2542932.0800000001,"ADDRESS":"東門路二段１０４巷８號","OBJECTID":392139},"geometry":{"x":170027.55999999959,"y":2542932.0800000038}},{"attributes":{"ID":392164,"DIS_CODE":0,"TOWNNAME":"永康區","LI":"復華里","LIN":"32鄰","STREET":"復華十街","SECT":" ","MAREA":" ","LANE":"３９巷","ALLEY":" ","HOUSE_NO":"２５號","E_COORD97":172572.78,"N_COORD97":2546352.02,"ADDRESS":"復華十街３９巷２５號","OBJECTID":392140},"geometry":{"x":172572.78000000026,"y":2546352.0199999996}},{"attributes":{"ID":392165,"DIS_CODE":0,"TOWNNAME":"永康區","LI":"網寮里","LIN":"17鄰","STREET":"永興路","SECT":" ","MAREA":" ","LANE":"４２７巷","ALLEY":" ","HOUSE_NO":"１９號","E_COORD97":173272.26000000001,"N_COORD97":2546824.75,"ADDRESS":"永興路４２７巷１９號","OBJECTID":392141},"geometry":{"x":173272.26000000071,"y":2546824.75}},{"attributes":{"ID":392166,"DIS_CODE":0,"TOWNNAME":"永康區","LI":"網寮里","LIN":"6鄰","STREET":"永二街","SECT":" ","MAREA":" ","LANE":"１９６巷","ALLEY":" ","HOUSE_NO":"２０號","E_COORD97":173333.19,"N_COORD97":2546293.9900000002,"ADDRESS":"永二街１９６巷２０號","OBJECTID":392142},"geometry":{"x":173333.19000000041,"y":2546293.9900000021}},{"attributes":{"ID":392167,"DIS_CODE":0,"TOWNNAME":"永康區","LI":"復華里","LIN":"12鄰","STREET":"國華街","SECT":" ","MAREA":" ","LANE":"９８巷","ALLEY":" ","HOUSE_NO":"２３號","E_COORD97":172890.95000000001,"N_COORD97":2545972.9900000002,"ADDRESS":"國華街９８巷２３號","OBJECTID":392143},"geometry":{"x":172890.95000000205,"y":2545972.9900000002}},{"attributes":{"ID":392168,"DIS_CODE":0,"TOWNNAME":"永康區","LI":"北灣里","LIN":"23鄰","STREET":"大灣路","SECT":" ","MAREA":" ","LANE":"１２巷","ALLEY":" ","HOUSE_NO":"１０號","E_COORD97":175306.95999999999,"N_COORD97":2545997.4500000002,"ADDRESS":"大灣路１２巷１０號","OBJECTID":392144},"geometry":{"x":175306.96000000089,"y":2545997.4500000011}},{"attributes":{"ID":392169,"DIS_CODE":0,"TOWNNAME":"永康區","LI":"網寮里","LIN":"23鄰","STREET":"永春街","SECT":" ","MAREA":" ","LANE":"２０巷","ALLEY":" ","HOUSE_NO":"１３號","E_COORD97":173800.13,"N_COORD97":2546306.1499999999,"ADDRESS":"永春街２０巷１３號","OBJECTID":392145},"geometry":{"x":173800.13000000082,"y":2546306.1500000022}},{"attributes":{"ID":392170,"DIS_CODE":0,"TOWNNAME":"永康區","LI":"復國里","LIN":"23鄰","STREET":"復國一路","SECT":" ","MAREA":" ","LANE":"３２９巷","ALLEY":" ","HOUSE_NO":"１１號","E_COORD97":172708.14999999999,"N_COORD97":2545659.27,"ADDRESS":"復國一路３２９巷１１號","OBJECTID":392146},"geometry":{"x":172708.15000000037,"y":2545659.2699999977}},{"attributes":{"ID":392171,"DIS_CODE":0,"TOWNNAME":"永康區","LI":"復華里","LIN":"23鄰","STREET":"國華街","SECT":" ","MAREA":" ","LANE":"９９巷","ALLEY":" ","HOUSE_NO":"１１號","E_COORD97":172698.22,"N_COORD97":2546098.5,"ADDRESS":"國華街９９巷１１號","OBJECTID":392147},"geometry":{"x":172698.21999999974,"y":2546098.5}},{"attributes":{"ID":392172,"DIS_CODE":0,"TOWNNAME":"永康區","LI":"網寮里","LIN":"23鄰","STREET":"永春街","SECT":" ","MAREA":" ","LANE":"１２巷","ALLEY":" ","HOUSE_NO":"２號之１","E_COORD97":173796.37,"N_COORD97":2546240.2400000002,"ADDRESS":"永春街１２巷２號之１","OBJECTID":392148},"geometry":{"x":173796.37000000011,"y":2546240.2400000039}},{"attributes":{"ID":392173,"DIS_CODE":0,"TOWNNAME":"永康區","LI":"復國里","LIN":"23鄰","STREET":"復華三街","SECT":" ","MAREA":" ","LANE":"９０巷","ALLEY":" ","HOUSE_NO":"１３號","E_COORD97":172584.14999999999,"N_COORD97":2545614.0899999999,"ADDRESS":"復華三街９０巷１３號","OBJECTID":392149},"geometry":{"x":172584.15000000037,"y":2545614.0900000017}},{"attributes":{"ID":392174,"DIS_CODE":0,"TOWNNAME":"永康區","LI":"復華里","LIN":"23鄰","STREET":"國華街","SECT":" ","MAREA":" ","LANE":"９９巷","ALLEY":" ","HOUSE_NO":"１６號","E_COORD97":172683.59,"N_COORD97":2546107,"ADDRESS":"國華街９９巷１６號","OBJECTID":392150},"geometry":{"x":172683.59000000078,"y":2546107.0000000019}},{"attributes":{"ID":392175,"DIS_CODE":0,"TOWNNAME":"永康區","LI":"網寮里","LIN":"25鄰","STREET":"永大一路","SECT":" ","MAREA":" ","LANE":"１６０巷","ALLEY":" ","HOUSE_NO":"６６號","E_COORD97":173821.20999999999,"N_COORD97":2546563.7400000002,"ADDRESS":"永大一路１６０巷６６號","OBJECTID":392151},"geometry":{"x":173821.21000000183,"y":2546563.7400000021}},{"attributes":{"ID":392176,"DIS_CODE":0,"TOWNNAME":"永康區","LI":"復華里","LIN":"28鄰","STREET":"復華八街","SECT":" ","MAREA":" ","LANE":"４３巷","ALLEY":" ","HOUSE_NO":"２２號","E_COORD97":172707.09,"N_COORD97":2546324.7799999998,"ADDRESS":"復華八街４３巷２２號","OBJECTID":392152},"geometry":{"x":172707.09000000078,"y":2546324.7800000012}},{"attributes":{"ID":392177,"DIS_CODE":0,"TOWNNAME":"歸仁區","LI":"崙頂里","LIN":"23鄰","STREET":"崙頂二街","SECT":" ","MAREA":" ","LANE":"５０巷","ALLEY":" ","HOUSE_NO":"３９號","E_COORD97":177736.04000000001,"N_COORD97":2540017.48,"ADDRESS":"崙頂二街５０巷３９號","OBJECTID":392153},"geometry":{"x":177736.04000000004,"y":2540017.4800000042}},{"attributes":{"ID":392178,"DIS_CODE":0,"TOWNNAME":"歸仁區","LI":"看西里","LIN":"23鄰","STREET":"凱旋路","SECT":"一段","MAREA":" ","LANE":"２１０巷","ALLEY":" ","HOUSE_NO":"１３號","E_COORD97":178410.70999999999,"N_COORD97":2539774.3700000001,"ADDRESS":"凱旋路一段２１０巷１３號","OBJECTID":392154},"geometry":{"x":178410.71000000089,"y":2539774.370000001}},{"attributes":{"ID":392179,"DIS_CODE":0,"TOWNNAME":"歸仁區","LI":"看西里","LIN":"23鄰","STREET":"凱旋路","SECT":"一段","MAREA":" ","LANE":"２１０巷","ALLEY":" ","HOUSE_NO":"１５號","E_COORD97":178406.60999999999,"N_COORD97":2539774.3700000001,"ADDRESS":"凱旋路一段２１０巷１５號","OBJECTID":392155},"geometry":{"x":178406.61000000127,"y":2539774.370000001}},{"attributes":{"ID":392180,"DIS_CODE":0,"TOWNNAME":"歸仁區","LI":"看西里","LIN":"23鄰","STREET":"凱旋路","SECT":"一段","MAREA":" ","LANE":"２１０巷","ALLEY":" ","HOUSE_NO":"４２號","E_COORD97":178396.41,"N_COORD97":2539792.3700000001,"ADDRESS":"凱旋路一段２１０巷４２號","OBJECTID":392156},"geometry":{"x":178396.41000000015,"y":2539792.3700000029}},{"attributes":{"ID":392181,"DIS_CODE":0,"TOWNNAME":"安平區","LI":"文平里","LIN":"23鄰","STREET":"建平一街","SECT":" ","MAREA":" ","LANE":"２３巷","ALLEY":" ","HOUSE_NO":"６０號","E_COORD97":165983.35999999999,"N_COORD97":2542852.6800000002,"ADDRESS":"建平一街２３巷６０號","OBJECTID":392157},"geometry":{"x":165983.36000000034,"y":2542852.6799999997}},{"attributes":{"ID":392182,"DIS_CODE":0,"TOWNNAME":"新營區","LI":"民榮里","LIN":"23鄰","STREET":"裕民路","SECT":" ","MAREA":" ","LANE":"３４巷","ALLEY":" ","HOUSE_NO":"２２號","E_COORD97":179070.92000000001,"N_COORD97":2577881.6499999999,"ADDRESS":"裕民路３４巷２２號","OBJECTID":392158},"geometry":{"x":179070.91999999993,"y":2577881.6500000004}},{"attributes":{"ID":392183,"DIS_CODE":0,"TOWNNAME":"永康區","LI":"復興里","LIN":"4鄰","STREET":"復興路","SECT":" ","MAREA":" ","LANE":"４２３巷","ALLEY":" ","HOUSE_NO":"６２號","E_COORD97":172220.79000000001,"N_COORD97":2544130.5299999998,"ADDRESS":"復興路４２３巷６２號","OBJECTID":392159},"geometry":{"x":172220.79000000097,"y":2544130.5299999993}},{"attributes":{"ID":392184,"DIS_CODE":0,"TOWNNAME":"永康區","LI":"復國里","LIN":"14鄰","STREET":"復國二路","SECT":" ","MAREA":" ","LANE":"１７８巷","ALLEY":" ","HOUSE_NO":"７號","E_COORD97":172950.95999999999,"N_COORD97":2545701.5299999998,"ADDRESS":"復國二路１７８巷７號","OBJECTID":392160},"geometry":{"x":172950.95999999996,"y":2545701.5300000031}},{"attributes":{"ID":392185,"DIS_CODE":0,"TOWNNAME":"永康區","LI":"復國里","LIN":"35鄰","STREET":"復國一路","SECT":" ","MAREA":" ","LANE":"８５巷","ALLEY":" ","HOUSE_NO":"１號","E_COORD97":172678.91,"N_COORD97":2544960.7799999998,"ADDRESS":"復國一路８５巷１號","OBJECTID":392161},"geometry":{"x":172678.91000000015,"y":2544960.7800000031}},{"attributes":{"ID":392186,"DIS_CODE":0,"TOWNNAME":"永康區","LI":"復華里","LIN":"28鄰","STREET":"復華八街","SECT":" ","MAREA":" ","LANE":"４１巷","ALLEY":" ","HOUSE_NO":"１１號","E_COORD97":172700.64999999999,"N_COORD97":2546275.5499999998,"ADDRESS":"復華八街４１巷１１號","OBJECTID":392162},"geometry":{"x":172700.6500000013,"y":2546275.5500000007}},{"attributes":{"ID":392187,"DIS_CODE":0,"TOWNNAME":"永康區","LI":"復國里","LIN":"35鄰","STREET":"復國一路","SECT":" ","MAREA":" ","LANE":"６７巷","ALLEY":" ","HOUSE_NO":"２號","E_COORD97":172679.60999999999,"N_COORD97":2544928.6899999999,"ADDRESS":"復國一路６７巷２號","OBJECTID":392163},"geometry":{"x":172679.6099999994,"y":2544928.6900000013}},{"attributes":{"ID":392188,"DIS_CODE":0,"TOWNNAME":"永康區","LI":"網寮里","LIN":"6鄰","STREET":"永二街","SECT":" ","MAREA":" ","LANE":"１９６巷","ALLEY":" ","HOUSE_NO":"１０號","E_COORD97":173354.42999999999,"N_COORD97":2546277.2400000002,"ADDRESS":"永二街１９６巷１０號","OBJECTID":392164},"geometry":{"x":173354.4299999997,"y":2546277.2399999984}},{"attributes":{"ID":392189,"DIS_CODE":0,"TOWNNAME":"永康區","LI":"復華里","LIN":"28鄰","STREET":"復華八街","SECT":" ","MAREA":" ","LANE":"４１巷","ALLEY":" ","HOUSE_NO":"２４號","E_COORD97":172684.23999999999,"N_COORD97":2546290.4199999999,"ADDRESS":"復華八街４１巷２４號","OBJECTID":392165},"geometry":{"x":172684.24000000115,"y":2546290.4200000018}},{"attributes":{"ID":392190,"DIS_CODE":0,"TOWNNAME":"安平區","LI":"文平里","LIN":"23鄰","STREET":"建平一街","SECT":" ","MAREA":" ","LANE":"２３巷","ALLEY":" ","HOUSE_NO":"４６號","E_COORD97":166008.07999999999,"N_COORD97":2542849.4199999999,"ADDRESS":"建平一街２３巷４６號","OBJECTID":392166},"geometry":{"x":166008.08000000101,"y":2542849.4200000018}},{"attributes":{"ID":392191,"DIS_CODE":0,"TOWNNAME":"安平區","LI":"文平里","LIN":"23鄰","STREET":"建平一街","SECT":" ","MAREA":" ","LANE":"２３巷","ALLEY":" ","HOUSE_NO":"４８號","E_COORD97":166004.29000000001,"N_COORD97":2542850.7200000002,"ADDRESS":"建平一街２３巷４８號","OBJECTID":392167},"geometry":{"x":166004.2900000019,"y":2542850.7200000025}},{"attributes":{"ID":392192,"DIS_CODE":0,"TOWNNAME":"安平區","LI":"文平里","LIN":"23鄰","STREET":"建平一街","SECT":" ","MAREA":" ","LANE":"２３巷","ALLEY":" ","HOUSE_NO":"５０號","E_COORD97":166000.29000000001,"N_COORD97":2542851.8199999998,"ADDRESS":"建平一街２３巷５０號","OBJECTID":392168},"geometry":{"x":166000.29000000004,"y":2542851.8200000003}},{"attributes":{"ID":392193,"DIS_CODE":0,"TOWNNAME":"安平區","LI":"文平里","LIN":"23鄰","STREET":"建平一街","SECT":" ","MAREA":" ","LANE":"２３巷","ALLEY":" ","HOUSE_NO":"５２號","E_COORD97":165995.70000000001,"N_COORD97":2542852.1200000001,"ADDRESS":"建平一街２３巷５２號","OBJECTID":392169},"geometry":{"x":165995.70000000019,"y":2542852.1200000029}},{"attributes":{"ID":392194,"DIS_CODE":0,"TOWNNAME":"永康區","LI":"蔦松里","LIN":"9鄰","STREET":"正北一路","SECT":" ","MAREA":" ","LANE":"１３６巷","ALLEY":" ","HOUSE_NO":"１７號","E_COORD97":174285.54000000001,"N_COORD97":2550041.2400000002,"ADDRESS":"正北一路１３６巷１７號","OBJECTID":392170},"geometry":{"x":174285.54000000097,"y":2550041.2400000021}},{"attributes":{"ID":392195,"DIS_CODE":0,"TOWNNAME":"永康區","LI":"復華里","LIN":"28鄰","STREET":"復華八街","SECT":" ","MAREA":" ","LANE":"４３巷","ALLEY":" ","HOUSE_NO":"１２號","E_COORD97":172731.73999999999,"N_COORD97":2546319.0299999998,"ADDRESS":"復華八街４３巷１２號","OBJECTID":392171},"geometry":{"x":172731.74000000115,"y":2546319.0300000012}},{"attributes":{"ID":392196,"DIS_CODE":0,"TOWNNAME":"南區","LI":"田寮里","LIN":"23鄰","STREET":"西門路","SECT":"一段","MAREA":" ","LANE":"２７９巷","ALLEY":" ","HOUSE_NO":"１８號","E_COORD97":167615.5,"N_COORD97":2541964.79,"ADDRESS":"西門路一段２７９巷１８號","OBJECTID":392172},"geometry":{"x":167615.50000000093,"y":2541964.790000001}},{"attributes":{"ID":392197,"DIS_CODE":0,"TOWNNAME":"南區","LI":"田寮里","LIN":"23鄰","STREET":"西門路","SECT":"一段","MAREA":" ","LANE":"２７９巷","ALLEY":" ","HOUSE_NO":"２２號","E_COORD97":167600.70000000001,"N_COORD97":2541960.1200000001,"ADDRESS":"西門路一段２７９巷２２號","OBJECTID":392173},"geometry":{"x":167600.70000000112,"y":2541960.1200000029}},{"attributes":{"ID":392198,"DIS_CODE":0,"TOWNNAME":"歸仁區","LI":"大廟里","LIN":"23鄰","STREET":"大廟一街","SECT":" ","MAREA":" ","LANE":"９０巷","ALLEY":" ","HOUSE_NO":"３５號","E_COORD97":175665.82000000001,"N_COORD97":2543955.25,"ADDRESS":"大廟一街９０巷３５號","OBJECTID":392174},"geometry":{"x":175665.82000000123,"y":2543955.2500000019}},{"attributes":{"ID":392199,"DIS_CODE":0,"TOWNNAME":"歸仁區","LI":"大廟里","LIN":"23鄰","STREET":"大廟一街","SECT":" ","MAREA":" ","LANE":"９０巷","ALLEY":" ","HOUSE_NO":"２４號","E_COORD97":175689.51999999999,"N_COORD97":2543984.25,"ADDRESS":"大廟一街９０巷２４號","OBJECTID":392175},"geometry":{"x":175689.51999999955,"y":2543984.25}},{"attributes":{"ID":392200,"DIS_CODE":0,"TOWNNAME":"安平區","LI":"平通里","LIN":"23鄰","STREET":"育平九街","SECT":" ","MAREA":" ","LANE":"３７２巷","ALLEY":" ","HOUSE_NO":"９２號","E_COORD97":164609.64000000001,"N_COORD97":2543973.6200000001,"ADDRESS":"育平九街３７２巷９２號","OBJECTID":392176},"geometry":{"x":164609.63999999873,"y":2543973.6200000048}},{"attributes":{"ID":392201,"DIS_CODE":0,"TOWNNAME":"安平區","LI":"平通里","LIN":"23鄰","STREET":"育平九街","SECT":" ","MAREA":" ","LANE":"３７２巷","ALLEY":" ","HOUSE_NO":"９４號","E_COORD97":164609.54999999999,"N_COORD97":2543978.2799999998,"ADDRESS":"育平九街３７２巷９４號","OBJECTID":392177},"geometry":{"x":164609.55000000075,"y":2543978.2800000012}},{"attributes":{"ID":392202,"DIS_CODE":0,"TOWNNAME":"安平區","LI":"平通里","LIN":"23鄰","STREET":"育平九街","SECT":" ","MAREA":" ","LANE":"３７２巷","ALLEY":" ","HOUSE_NO":"９６號","E_COORD97":164609.45999999999,"N_COORD97":2543982.29,"ADDRESS":"育平九街３７２巷９６號","OBJECTID":392178},"geometry":{"x":164609.45999999903,"y":2543982.290000001}},{"attributes":{"ID":392203,"DIS_CODE":0,"TOWNNAME":"安平區","LI":"平通里","LIN":"23鄰","STREET":"育平九街","SECT":" ","MAREA":" ","LANE":"３７２巷","ALLEY":" ","HOUSE_NO":"９８號","E_COORD97":164609.04999999999,"N_COORD97":2543986.29,"ADDRESS":"育平九街３７２巷９８號","OBJECTID":392179},"geometry":{"x":164609.05000000075,"y":2543986.2899999991}},{"attributes":{"ID":392204,"DIS_CODE":0,"TOWNNAME":"永康區","LI":"復華里","LIN":"1鄰","STREET":"復國二路","SECT":" ","MAREA":" ","LANE":"２１０巷","ALLEY":" ","HOUSE_NO":"１３號","E_COORD97":173000.92999999999,"N_COORD97":2545840.3399999999,"ADDRESS":"復國二路２１０巷１３號","OBJECTID":392180},"geometry":{"x":173000.93000000063,"y":2545840.3400000017}},{"attributes":{"ID":392205,"DIS_CODE":0,"TOWNNAME":"永康區","LI":"復華里","LIN":"40鄰","STREET":"復華七街","SECT":" ","MAREA":" ","LANE":"３２巷","ALLEY":" ","HOUSE_NO":"３０號","E_COORD97":172682.51000000001,"N_COORD97":2545873.46,"ADDRESS":"復華七街３２巷３０號","OBJECTID":392181},"geometry":{"x":172682.50999999978,"y":2545873.4600000046}},{"attributes":{"ID":392206,"DIS_CODE":0,"TOWNNAME":"永康區","LI":"復國里","LIN":"15鄰","STREET":"復國二路","SECT":" ","MAREA":" ","LANE":"１７３巷","ALLEY":" ","HOUSE_NO":"１３號","E_COORD97":172893.62,"N_COORD97":2545797.5299999998,"ADDRESS":"復國二路１７３巷１３號","OBJECTID":392182},"geometry":{"x":172893.62000000104,"y":2545797.5300000012}},{"attributes":{"ID":392207,"DIS_CODE":0,"TOWNNAME":"永康區","LI":"復華里","LIN":"1鄰","STREET":"復國二路","SECT":" ","MAREA":" ","LANE":"２１０巷","ALLEY":" ","HOUSE_NO":"１５號","E_COORD97":173005.09,"N_COORD97":2545840.5899999999,"ADDRESS":"復國二路２１０巷１５號","OBJECTID":392183},"geometry":{"x":173005.09000000078,"y":2545840.5900000036}},{"attributes":{"ID":392208,"DIS_CODE":0,"TOWNNAME":"永康區","LI":"網寮里","LIN":"6鄰","STREET":"永二街","SECT":" ","MAREA":" ","LANE":"１９６巷","ALLEY":" ","HOUSE_NO":"３號","E_COORD97":173352.26000000001,"N_COORD97":2546258.2999999998,"ADDRESS":"永二街１９６巷３號","OBJECTID":392184},"geometry":{"x":173352.25999999978,"y":2546258.3000000026}},{"attributes":{"ID":392209,"DIS_CODE":0,"TOWNNAME":"永康區","LI":"網寮里","LIN":"20鄰","STREET":"文化路","SECT":" ","MAREA":" ","LANE":"３２３巷","ALLEY":" ","HOUSE_NO":"３號地下一層","E_COORD97":173434.29000000001,"N_COORD97":2546121.6099999999,"ADDRESS":"文化路３２３巷３號地下一層","OBJECTID":392185},"geometry":{"x":173434.2900000019,"y":2546121.6100000031}},{"attributes":{"ID":392210,"DIS_CODE":0,"TOWNNAME":"永康區","LI":"復國里","LIN":"35鄰","STREET":"復國一路","SECT":" ","MAREA":" ","LANE":"６７巷","ALLEY":" ","HOUSE_NO":"１３號","E_COORD97":172657.22,"N_COORD97":2544912.27,"ADDRESS":"復國一路６７巷１３號","OBJECTID":392186},"geometry":{"x":172657.21999999974,"y":2544912.2699999996}},{"attributes":{"ID":392211,"DIS_CODE":0,"TOWNNAME":"永康區","LI":"中華里","LIN":"23鄰","STREET":"華興街","SECT":" ","MAREA":" ","LANE":"１２０巷","ALLEY":" ","HOUSE_NO":"５號","E_COORD97":171784.39000000001,"N_COORD97":2544609.8300000001,"ADDRESS":"華興街１２０巷５號","OBJECTID":392187},"geometry":{"x":171784.3900000006,"y":2544609.8300000019}},{"attributes":{"ID":392212,"DIS_CODE":0,"TOWNNAME":"永康區","LI":"復華里","LIN":"28鄰","STREET":"復華八街","SECT":" ","MAREA":" ","LANE":"４１巷","ALLEY":" ","HOUSE_NO":"１４號","E_COORD97":172711.23999999999,"N_COORD97":2546284.1699999999,"ADDRESS":"復華八街４１巷１４號","OBJECTID":392188},"geometry":{"x":172711.24000000115,"y":2546284.1699999981}},{"attributes":{"ID":392213,"DIS_CODE":0,"TOWNNAME":"新營區","LI":"南紙里","LIN":"23鄰","STREET":"南紙街","SECT":" ","MAREA":" ","LANE":"１１９巷","ALLEY":" ","HOUSE_NO":"１５號","E_COORD97":177891.26999999999,"N_COORD97":2577426.6499999999,"ADDRESS":"南紙街１１９巷１５號","OBJECTID":392189},"geometry":{"x":177891.27000000048,"y":2577426.6500000022}},{"attributes":{"ID":392214,"DIS_CODE":0,"TOWNNAME":"新營區","LI":"民榮里","LIN":"23鄰","STREET":"裕民路","SECT":" ","MAREA":" ","LANE":"３４巷","ALLEY":" ","HOUSE_NO":"１８號","E_COORD97":179080.04999999999,"N_COORD97":2577881.6099999999,"ADDRESS":"裕民路３４巷１８號","OBJECTID":392190},"geometry":{"x":179080.04999999981,"y":2577881.6099999994}},{"attributes":{"ID":392215,"DIS_CODE":0,"TOWNNAME":"新營區","LI":"民榮里","LIN":"23鄰","STREET":"裕民路","SECT":" ","MAREA":" ","LANE":"３４巷","ALLEY":" ","HOUSE_NO":"１４號","E_COORD97":179088.23000000001,"N_COORD97":2577881.5699999998,"ADDRESS":"裕民路３４巷１４號","OBJECTID":392191},"geometry":{"x":179088.23000000045,"y":2577881.5700000022}},{"attributes":{"ID":392216,"DIS_CODE":0,"TOWNNAME":"永康區","LI":"網寮里","LIN":"23鄰","STREET":"文化路","SECT":" ","MAREA":" ","LANE":"１２８巷","ALLEY":" ","HOUSE_NO":"１４號","E_COORD97":173894.38,"N_COORD97":2546281.5,"ADDRESS":"文化路１２８巷１４號","OBJECTID":392192},"geometry":{"x":173894.37999999989,"y":2546281.5}},{"attributes":{"ID":392217,"DIS_CODE":0,"TOWNNAME":"鹽水區","LI":"橋南里","LIN":"23鄰","STREET":"四維路","SECT":" ","MAREA":" ","LANE":"２０６巷","ALLEY":" ","HOUSE_NO":"３０號","E_COORD97":175619.51000000001,"N_COORD97":2578758.1400000001,"ADDRESS":"四維路２０６巷３０號","OBJECTID":392193},"geometry":{"x":175619.51000000071,"y":2578758.1399999987}},{"attributes":{"ID":392218,"DIS_CODE":0,"TOWNNAME":"鹽水區","LI":"橋南里","LIN":"23鄰","STREET":"四維路","SECT":" ","MAREA":" ","LANE":"２０６巷","ALLEY":" ","HOUSE_NO":"３號","E_COORD97":175600.12,"N_COORD97":2578727.4500000002,"ADDRESS":"四維路２０６巷３號","OBJECTID":392194},"geometry":{"x":175600.11999999918,"y":2578727.4499999974}},{"attributes":{"ID":392219,"DIS_CODE":0,"TOWNNAME":"鹽水區","LI":"橋南里","LIN":"23鄰","STREET":"四維路","SECT":" ","MAREA":" ","LANE":"２０６巷","ALLEY":" ","HOUSE_NO":"７號","E_COORD97":175599.17999999999,"N_COORD97":2578740.4100000001,"ADDRESS":"四維路２０６巷７號","OBJECTID":392195},"geometry":{"x":175599.1799999997,"y":2578740.410000002}},{"attributes":{"ID":392220,"DIS_CODE":0,"TOWNNAME":"關廟區","LI":"北勢里","LIN":"23鄰","STREET":"成功路","SECT":" ","MAREA":" ","LANE":"１１５巷","ALLEY":" ","HOUSE_NO":"１５號","E_COORD97":181569.12,"N_COORD97":2540387.27,"ADDRESS":"成功路１１５巷１５號","OBJECTID":392196},"geometry":{"x":181569.12000000197,"y":2540387.2699999977}},{"attributes":{"ID":392221,"DIS_CODE":0,"TOWNNAME":"永康區","LI":"網寮里","LIN":"23鄰","STREET":"永春街","SECT":" ","MAREA":" ","LANE":"２０巷","ALLEY":" ","HOUSE_NO":"１１號","E_COORD97":173796.07999999999,"N_COORD97":2546305.1499999999,"ADDRESS":"永春街２０巷１１號","OBJECTID":392197},"geometry":{"x":173796.08000000007,"y":2546305.1499999985}},{"attributes":{"ID":392222,"DIS_CODE":0,"TOWNNAME":"永康區","LI":"網寮里","LIN":"20鄰","STREET":"文化路","SECT":" ","MAREA":" ","LANE":"３２３巷","ALLEY":" ","HOUSE_NO":"１０號","E_COORD97":173396.5,"N_COORD97":2546134.0800000001,"ADDRESS":"文化路３２３巷１０號","OBJECTID":392198},"geometry":{"x":173396.5,"y":2546134.0800000019}},{"attributes":{"ID":392223,"DIS_CODE":0,"TOWNNAME":"永康區","LI":"復華里","LIN":"32鄰","STREET":"復華十街","SECT":" ","MAREA":" ","LANE":"３９巷","ALLEY":" ","HOUSE_NO":"２１號","E_COORD97":172581.48000000001,"N_COORD97":2546351.7799999998,"ADDRESS":"復華十街３９巷２１號","OBJECTID":392199},"geometry":{"x":172581.48000000138,"y":2546351.7800000012}},{"attributes":{"ID":392224,"DIS_CODE":0,"TOWNNAME":"歸仁區","LI":"南興里","LIN":"23鄰","STREET":"文化二十街","SECT":" ","MAREA":" ","LANE":"１２巷","ALLEY":" ","HOUSE_NO":"６號","E_COORD97":175502.59,"N_COORD97":2541232.3300000001,"ADDRESS":"文化二十街１２巷６號","OBJECTID":392200},"geometry":{"x":175502.59000000078,"y":2541232.3300000019}}]}