{"displayFieldName":"TOWNNAME","fieldAliases":{"ID":"ID","DIS_CODE":"DIS_CODE","TOWNNAME":"TOWNNAME","LI":"LI","LIN":"LIN","STREET":"STREET","SECT":"SECT","MAREA":"MAREA","LANE":"LANE","ALLEY":"ALLEY","HOUSE_NO":"HOUSE_NO","E_COORD97":"E_COORD97","N_COORD97":"N_COORD97","ADDRESS":"ADDRESS","OBJECTID":"OBJECTID"},"geometryType":"esriGeometryPoint","spatialReference":{"wkid":102443,"latestWkid":3826},"fields":[{"name":"ID","type":"esriFieldTypeDouble","alias":"ID"},{"name":"DIS_CODE","type":"esriFieldTypeInteger","alias":"DIS_CODE"},{"name":"TOWNNAME","type":"esriFieldTypeString","alias":"TOWNNAME","length":8},{"name":"LI","type":"esriFieldTypeString","alias":"LI","length":8},{"name":"LIN","type":"esriFieldTypeString","alias":"LIN","length":12},{"name":"STREET","type":"esriFieldTypeString","alias":"STREET","length":20},{"name":"SECT","type":"esriFieldTypeString","alias":"SECT","length":8},{"name":"MAREA","type":"esriFieldTypeString","alias":"MAREA","length":12},{"name":"LANE","type":"esriFieldTypeString","alias":"LANE","length":10},{"name":"ALLEY","type":"esriFieldTypeString","alias":"ALLEY","length":10},{"name":"HOUSE_NO","type":"esriFieldTypeString","alias":"HOUSE_NO","length":20},{"name":"E_COORD97","type":"esriFieldTypeDouble","alias":"E_COORD97"},{"name":"N_COORD97","type":"esriFieldTypeDouble","alias":"N_COORD97"},{"name":"ADDRESS","type":"esriFieldTypeString","alias":"ADDRESS","length":50},{"name":"OBJECTID","type":"esriFieldTypeOID","alias":"OBJECTID"}],"features":[{"attributes":{"ID":108201,"DIS_CODE":0,"TOWNNAME":"新營區","LI":"南紙里","LIN":"9鄰","STREET":"南紙街","SECT":" ","MAREA":" ","LANE":"８５巷","ALLEY":"１３弄","HOUSE_NO":"８號","E_COORD97":177914.53,"N_COORD97":2577614.7999999998,"ADDRESS":"南紙街８５巷１３弄８號","OBJECTID":108201},"geometry":{"x":177914.53000000026,"y":2577614.8000000045}},{"attributes":{"ID":108202,"DIS_CODE":0,"TOWNNAME":"新營區","LI":"南紙里","LIN":"9鄰","STREET":"南紙街","SECT":" ","MAREA":" ","LANE":"８５巷","ALLEY":"１３弄","HOUSE_NO":"１號","E_COORD97":177898.01999999999,"N_COORD97":2577599.3799999999,"ADDRESS":"南紙街８５巷１３弄１號","OBJECTID":108202},"geometry":{"x":177898.02000000048,"y":2577599.3800000008}},{"attributes":{"ID":108203,"DIS_CODE":0,"TOWNNAME":"新營區","LI":"南紙里","LIN":"9鄰","STREET":"南紙街","SECT":" ","MAREA":" ","LANE":"８５巷","ALLEY":"１３弄","HOUSE_NO":"１０號","E_COORD97":177914.70000000001,"N_COORD97":2577619.23,"ADDRESS":"南紙街８５巷１３弄１０號","OBJECTID":108203},"geometry":{"x":177914.70000000019,"y":2577619.2300000023}},{"attributes":{"ID":108204,"DIS_CODE":0,"TOWNNAME":"新營區","LI":"南紙里","LIN":"9鄰","STREET":"南紙街","SECT":" ","MAREA":" ","LANE":"８５巷","ALLEY":"１３弄","HOUSE_NO":"９號","E_COORD97":177896.03,"N_COORD97":2577617.1000000001,"ADDRESS":"南紙街８５巷１３弄９號","OBJECTID":108204},"geometry":{"x":177896.03000000026,"y":2577617.0999999996}},{"attributes":{"ID":108205,"DIS_CODE":0,"TOWNNAME":"新營區","LI":"新東里","LIN":"9鄰","STREET":"東仁街","SECT":" ","MAREA":" ","LANE":"４３巷","ALLEY":"１６弄","HOUSE_NO":"２７號","E_COORD97":181187.51000000001,"N_COORD97":2579687.8900000001,"ADDRESS":"東仁街４３巷１６弄２７號","OBJECTID":108205},"geometry":{"x":181187.50999999978,"y":2579687.8900000006}},{"attributes":{"ID":108206,"DIS_CODE":0,"TOWNNAME":"歸仁區","LI":"西埔里","LIN":"9鄰","STREET":"西埔一街","SECT":" ","MAREA":" ","LANE":"１７７巷","ALLEY":"９弄","HOUSE_NO":"１２號","E_COORD97":176976.10000000001,"N_COORD97":2544593.4100000001,"ADDRESS":"西埔一街１７７巷９弄１２號","OBJECTID":108206},"geometry":{"x":176976.09999999963,"y":2544593.4100000001}},{"attributes":{"ID":108207,"DIS_CODE":0,"TOWNNAME":"關廟區","LI":"深坑里","LIN":"9鄰","STREET":"深坑三街","SECT":" ","MAREA":" ","LANE":"２５巷","ALLEY":"６０弄","HOUSE_NO":"１８號","E_COORD97":181863.67000000001,"N_COORD97":2537947.2999999998,"ADDRESS":"深坑三街２５巷６０弄１８號","OBJECTID":108207},"geometry":{"x":181863.67000000086,"y":2537947.2999999989}},{"attributes":{"ID":108208,"DIS_CODE":0,"TOWNNAME":"南區","LI":"白雪里","LIN":" ","STREET":"鹽埕路","SECT":" ","MAREA":" ","LANE":" ","ALLEY":" ","HOUSE_NO":"９６號","E_COORD97":166799.54999999999,"N_COORD97":2540934.4500000002,"ADDRESS":"鹽埕路９６號","OBJECTID":108208},"geometry":{"x":166799.55000000075,"y":2540934.4499999993}},{"attributes":{"ID":108209,"DIS_CODE":0,"TOWNNAME":"白河區","LI":"汴頭里","LIN":"1鄰","STREET":" ","SECT":" ","MAREA":"林子內","LANE":" ","ALLEY":" ","HOUSE_NO":"１０之２號","E_COORD97":195078.10000000001,"N_COORD97":2584817.7400000002,"ADDRESS":"林子內１０之２號","OBJECTID":108209},"geometry":{"x":195078.10000000056,"y":2584817.7400000002}},{"attributes":{"ID":108210,"DIS_CODE":0,"TOWNNAME":"白河區","LI":"汴頭里","LIN":"1鄰","STREET":" ","SECT":" ","MAREA":"林子內","LANE":" ","ALLEY":" ","HOUSE_NO":"１０號","E_COORD97":195069.63,"N_COORD97":2584843.6000000001,"ADDRESS":"林子內１０號","OBJECTID":108210},"geometry":{"x":195069.63000000082,"y":2584843.6000000034}},{"attributes":{"ID":108211,"DIS_CODE":0,"TOWNNAME":"白河區","LI":"汴頭里","LIN":"1鄰","STREET":" ","SECT":" ","MAREA":"林子內","LANE":" ","ALLEY":" ","HOUSE_NO":"１１之２號","E_COORD97":194634.69,"N_COORD97":2584622.7400000002,"ADDRESS":"林子內１１之２號","OBJECTID":108211},"geometry":{"x":194634.69000000041,"y":2584622.7400000039}},{"attributes":{"ID":108212,"DIS_CODE":0,"TOWNNAME":"白河區","LI":"汴頭里","LIN":"1鄰","STREET":" ","SECT":" ","MAREA":"林子內","LANE":" ","ALLEY":" ","HOUSE_NO":"１１之５號","E_COORD97":194853.03,"N_COORD97":2584512.7599999998,"ADDRESS":"林子內１１之５號","OBJECTID":108212},"geometry":{"x":194853.03000000026,"y":2584512.7599999998}},{"attributes":{"ID":108213,"DIS_CODE":0,"TOWNNAME":"東山區","LI":"東原里","LIN":"9鄰","STREET":" ","SECT":" ","MAREA":"前大埔","LANE":" ","ALLEY":" ","HOUSE_NO":"１０９號之４","E_COORD97":193578.42000000001,"N_COORD97":2573882.3900000001,"ADDRESS":"前大埔１０９號之４","OBJECTID":108213},"geometry":{"x":193578.41999999993,"y":2573882.3900000025}},{"attributes":{"ID":108214,"DIS_CODE":0,"TOWNNAME":"白河區","LI":"汴頭里","LIN":"1鄰","STREET":" ","SECT":" ","MAREA":"林子內","LANE":" ","ALLEY":" ","HOUSE_NO":"１１號","E_COORD97":194731.06,"N_COORD97":2584662.7000000002,"ADDRESS":"林子內１１號","OBJECTID":108214},"geometry":{"x":194731.06000000052,"y":2584662.700000003}},{"attributes":{"ID":108215,"DIS_CODE":0,"TOWNNAME":"關廟區","LI":"埤頭里","LIN":"9鄰","STREET":"關新路","SECT":"二段","MAREA":" ","LANE":"５１巷","ALLEY":"１１弄","HOUSE_NO":"１８號","E_COORD97":179037.82000000001,"N_COORD97":2544128.2999999998,"ADDRESS":"關新路二段５１巷１１弄１８號","OBJECTID":108215},"geometry":{"x":179037.8200000003,"y":2544128.3000000045}},{"attributes":{"ID":108216,"DIS_CODE":0,"TOWNNAME":"關廟區","LI":"埤頭里","LIN":"9鄰","STREET":"關新路","SECT":"二段","MAREA":" ","LANE":"５１巷","ALLEY":"５１弄","HOUSE_NO":"１９號","E_COORD97":178941.97,"N_COORD97":2544103.25,"ADDRESS":"關新路二段５１巷５１弄１９號","OBJECTID":108216},"geometry":{"x":178941.96999999881,"y":2544103.25}},{"attributes":{"ID":108217,"DIS_CODE":0,"TOWNNAME":"白河區","LI":"草店里","LIN":"1鄰","STREET":" ","SECT":" ","MAREA":"草店","LANE":" ","ALLEY":" ","HOUSE_NO":"１０之７７號","E_COORD97":192639.06,"N_COORD97":2588247.6699999999,"ADDRESS":"草店１０之７７號","OBJECTID":108217},"geometry":{"x":192639.06000000052,"y":2588247.6700000018}},{"attributes":{"ID":108218,"DIS_CODE":0,"TOWNNAME":"白河區","LI":"草店里","LIN":"1鄰","STREET":" ","SECT":" ","MAREA":"草店","LANE":" ","ALLEY":" ","HOUSE_NO":"６號","E_COORD97":192642.54000000001,"N_COORD97":2587924.1800000002,"ADDRESS":"草店６號","OBJECTID":108218},"geometry":{"x":192642.5400000019,"y":2587924.1799999997}},{"attributes":{"ID":108219,"DIS_CODE":0,"TOWNNAME":"白河區","LI":"廣安里","LIN":"1鄰","STREET":" ","SECT":" ","MAREA":"埤斗子","LANE":" ","ALLEY":" ","HOUSE_NO":"９之１號","E_COORD97":189333.51999999999,"N_COORD97":2587158.54,"ADDRESS":"埤斗子９之１號","OBJECTID":108219},"geometry":{"x":189333.52000000048,"y":2587158.5399999991}},{"attributes":{"ID":108220,"DIS_CODE":0,"TOWNNAME":"白河區","LI":"廣安里","LIN":"1鄰","STREET":" ","SECT":" ","MAREA":"埤斗子","LANE":" ","ALLEY":" ","HOUSE_NO":"９之５號","E_COORD97":189323.23999999999,"N_COORD97":2587084.6200000001,"ADDRESS":"埤斗子９之５號","OBJECTID":108220},"geometry":{"x":189323.24000000022,"y":2587084.620000001}},{"attributes":{"ID":108221,"DIS_CODE":0,"TOWNNAME":"白河區","LI":"白河里","LIN":"1鄰","STREET":"富民路","SECT":" ","MAREA":" ","LANE":" ","ALLEY":" ","HOUSE_NO":"１７８號","E_COORD97":190013.04000000001,"N_COORD97":2582645.1299999999,"ADDRESS":"富民路１７８號","OBJECTID":108221},"geometry":{"x":190013.04000000004,"y":2582645.129999999}},{"attributes":{"ID":108222,"DIS_CODE":0,"TOWNNAME":"關廟區","LI":"埤頭里","LIN":"9鄰","STREET":"關新路","SECT":"二段","MAREA":" ","LANE":"５１巷","ALLEY":"２１弄","HOUSE_NO":"１１號","E_COORD97":179013.76999999999,"N_COORD97":2544126.25,"ADDRESS":"關新路二段５１巷２１弄１１號","OBJECTID":108222},"geometry":{"x":179013.76999999955,"y":2544126.25}},{"attributes":{"ID":108223,"DIS_CODE":0,"TOWNNAME":"白河區","LI":"玉豐里","LIN":"1鄰","STREET":" ","SECT":" ","MAREA":"頂崁頭","LANE":" ","ALLEY":" ","HOUSE_NO":"５號","E_COORD97":191100.87,"N_COORD97":2586917.2799999998,"ADDRESS":"頂崁頭５號","OBJECTID":108223},"geometry":{"x":191100.87000000011,"y":2586917.2800000012}},{"attributes":{"ID":108224,"DIS_CODE":0,"TOWNNAME":"關廟區","LI":"關廟里","LIN":"9鄰","STREET":"大仁街","SECT":" ","MAREA":" ","LANE":"３４６巷","ALLEY":"２１弄","HOUSE_NO":"１號","E_COORD97":180865.32000000001,"N_COORD97":2539653.25,"ADDRESS":"大仁街３４６巷２１弄１號","OBJECTID":108224},"geometry":{"x":180865.3200000003,"y":2539653.2500000019}},{"attributes":{"ID":108225,"DIS_CODE":0,"TOWNNAME":"關廟區","LI":"埤頭里","LIN":"9鄰","STREET":"關新路","SECT":"二段","MAREA":" ","LANE":"５１巷","ALLEY":"１１弄","HOUSE_NO":"１號","E_COORD97":179041.72,"N_COORD97":2544159.2999999998,"ADDRESS":"關新路二段５１巷１１弄１號","OBJECTID":108225},"geometry":{"x":179041.71999999974,"y":2544159.3000000026}},{"attributes":{"ID":108226,"DIS_CODE":0,"TOWNNAME":"關廟區","LI":"埤頭里","LIN":"9鄰","STREET":"關新路","SECT":"二段","MAREA":" ","LANE":"５１巷","ALLEY":"１１弄","HOUSE_NO":"１０號","E_COORD97":179035.51999999999,"N_COORD97":2544143.2999999998,"ADDRESS":"關新路二段５１巷１１弄１０號","OBJECTID":108226},"geometry":{"x":179035.52000000048,"y":2544143.3000000026}},{"attributes":{"ID":108227,"DIS_CODE":0,"TOWNNAME":"南區","LI":"府南里","LIN":"9鄰","STREET":"金華路","SECT":"一段","MAREA":" ","LANE":"４８４巷","ALLEY":"１８３弄","HOUSE_NO":"１６號","E_COORD97":167394.20000000001,"N_COORD97":2541210.8999999999,"ADDRESS":"金華路一段４８４巷１８３弄１６號","OBJECTID":108227},"geometry":{"x":167394.20000000112,"y":2541210.9000000004}},{"attributes":{"ID":108228,"DIS_CODE":0,"TOWNNAME":"南區","LI":"府南里","LIN":"9鄰","STREET":"金華路","SECT":"一段","MAREA":" ","LANE":"４８４巷","ALLEY":"１８３弄","HOUSE_NO":"１８號","E_COORD97":167397.67000000001,"N_COORD97":2541212.6299999999,"ADDRESS":"金華路一段４８４巷１８３弄１８號","OBJECTID":108228},"geometry":{"x":167397.66999999993,"y":2541212.6300000008}},{"attributes":{"ID":108229,"DIS_CODE":0,"TOWNNAME":"麻豆區","LI":"總榮里","LIN":"1鄰","STREET":" ","SECT":" ","MAREA":"總爺\u25A0","LANE":" ","ALLEY":" ","HOUSE_NO":"１０４號","E_COORD97":174739.67000000001,"N_COORD97":2564675.8199999998,"ADDRESS":"總爺\u25A0１０４號","OBJECTID":108229},"geometry":{"x":174739.66999999993,"y":2564675.8200000003}},{"attributes":{"ID":108230,"DIS_CODE":0,"TOWNNAME":"南區","LI":"府南里","LIN":"9鄰","STREET":"金華路","SECT":"一段","MAREA":" ","LANE":"４８４巷","ALLEY":"１８３弄","HOUSE_NO":"２８號","E_COORD97":167420.26999999999,"N_COORD97":2541220.5299999998,"ADDRESS":"金華路一段４８４巷１８３弄２８號","OBJECTID":108230},"geometry":{"x":167420.26999999955,"y":2541220.5300000012}},{"attributes":{"ID":108231,"DIS_CODE":0,"TOWNNAME":"白河區","LI":"白河里","LIN":"1鄰","STREET":"富民路","SECT":" ","MAREA":" ","LANE":" ","ALLEY":" ","HOUSE_NO":"１８０號","E_COORD97":190006.82000000001,"N_COORD97":2582647.23,"ADDRESS":"富民路１８０號","OBJECTID":108231},"geometry":{"x":190006.82000000123,"y":2582647.2300000023}},{"attributes":{"ID":108232,"DIS_CODE":0,"TOWNNAME":"白河區","LI":"玉豐里","LIN":"1鄰","STREET":" ","SECT":" ","MAREA":"頂崁頭","LANE":" ","ALLEY":" ","HOUSE_NO":"６之１號","E_COORD97":191129.54999999999,"N_COORD97":2586919.1000000001,"ADDRESS":"頂崁頭６之１號","OBJECTID":108232},"geometry":{"x":191129.54999999981,"y":2586919.1000000015}},{"attributes":{"ID":108233,"DIS_CODE":0,"TOWNNAME":"白河區","LI":"玉豐里","LIN":"1鄰","STREET":" ","SECT":" ","MAREA":"頂崁頭","LANE":" ","ALLEY":" ","HOUSE_NO":"６號","E_COORD97":191112.35000000001,"N_COORD97":2586904.8100000001,"ADDRESS":"頂崁頭６號","OBJECTID":108233},"geometry":{"x":191112.34999999963,"y":2586904.8100000024}},{"attributes":{"ID":108234,"DIS_CODE":0,"TOWNNAME":"南區","LI":"府南里","LIN":"9鄰","STREET":"金華路","SECT":"一段","MAREA":" ","LANE":"４８４巷","ALLEY":"１８３弄","HOUSE_NO":"３０號","E_COORD97":167424.85999999999,"N_COORD97":2541221.96,"ADDRESS":"金華路一段４８４巷１８３弄３０號","OBJECTID":108234},"geometry":{"x":167424.86000000127,"y":2541221.9600000028}},{"attributes":{"ID":108235,"DIS_CODE":0,"TOWNNAME":"永康區","LI":"\u25A0行里","LIN":"41鄰","STREET":"永安路","SECT":" ","MAREA":" ","LANE":"１６５巷","ALLEY":"３０弄","HOUSE_NO":"１１號之１","E_COORD97":172448.70000000001,"N_COORD97":2549481.8100000001,"ADDRESS":"永安路１６５巷３０弄１１號之１","OBJECTID":108235},"geometry":{"x":172448.70000000112,"y":2549481.8100000024}},{"attributes":{"ID":108236,"DIS_CODE":0,"TOWNNAME":"永康區","LI":"\u25A0行里","LIN":"24鄰","STREET":"中正南路","SECT":" ","MAREA":" ","LANE":"５９２巷","ALLEY":"２９弄","HOUSE_NO":"１１號","E_COORD97":171595.72,"N_COORD97":2548625.4399999999,"ADDRESS":"中正南路５９２巷２９弄１１號","OBJECTID":108236},"geometry":{"x":171595.72000000067,"y":2548625.4400000013}},{"attributes":{"ID":108237,"DIS_CODE":0,"TOWNNAME":"永康區","LI":"\u25A0行里","LIN":"24鄰","STREET":"中正南路","SECT":" ","MAREA":" ","LANE":"５９２巷","ALLEY":"１１弄","HOUSE_NO":"２２號","E_COORD97":171559.26000000001,"N_COORD97":2548653.6800000002,"ADDRESS":"中正南路５９２巷１１弄２２號","OBJECTID":108237},"geometry":{"x":171559.26000000164,"y":2548653.6799999997}},{"attributes":{"ID":108238,"DIS_CODE":0,"TOWNNAME":"永康區","LI":"\u25A0行里","LIN":"35鄰","STREET":"中正北路","SECT":" ","MAREA":" ","LANE":"１７７巷","ALLEY":"１１弄","HOUSE_NO":"２號","E_COORD97":172367.37,"N_COORD97":2549169.79,"ADDRESS":"中正北路１７７巷１１弄２號","OBJECTID":108238},"geometry":{"x":172367.37000000011,"y":2549169.7899999991}},{"attributes":{"ID":108239,"DIS_CODE":0,"TOWNNAME":"永康區","LI":"\u25A0行里","LIN":"22鄰","STREET":"正南五街","SECT":" ","MAREA":" ","LANE":"５２０巷","ALLEY":"５６弄","HOUSE_NO":"１８號","E_COORD97":171700.82000000001,"N_COORD97":2548752.0699999998,"ADDRESS":"正南五街５２０巷５６弄１８號","OBJECTID":108239},"geometry":{"x":171700.82000000123,"y":2548752.0700000003}},{"attributes":{"ID":108240,"DIS_CODE":0,"TOWNNAME":"永康區","LI":"\u25A0行里","LIN":"40鄰","STREET":"永安路","SECT":" ","MAREA":" ","LANE":"１０５巷","ALLEY":"４０弄","HOUSE_NO":"６４號","E_COORD97":172640.70999999999,"N_COORD97":2549363.8100000001,"ADDRESS":"永安路１０５巷４０弄６４號","OBJECTID":108240},"geometry":{"x":172640.70999999996,"y":2549363.8100000024}},{"attributes":{"ID":108241,"DIS_CODE":0,"TOWNNAME":"永康區","LI":"\u25A0行里","LIN":"24鄰","STREET":"中正南路","SECT":" ","MAREA":" ","LANE":"５９２巷","ALLEY":"１１弄","HOUSE_NO":"１４號","E_COORD97":171545.51000000001,"N_COORD97":2548667.9300000002,"ADDRESS":"中正南路５９２巷１１弄１４號","OBJECTID":108241},"geometry":{"x":171545.50999999978,"y":2548667.9299999997}},{"attributes":{"ID":108242,"DIS_CODE":0,"TOWNNAME":"安平區","LI":"西門里","LIN":"9鄰","STREET":"安北路","SECT":" ","MAREA":" ","LANE":"２３３巷","ALLEY":"２弄","HOUSE_NO":"１８號之４","E_COORD97":163821.89999999999,"N_COORD97":2544725.5499999998,"ADDRESS":"安北路２３３巷２弄１８號之４","OBJECTID":108242},"geometry":{"x":163821.90000000037,"y":2544725.5500000007}},{"attributes":{"ID":108243,"DIS_CODE":0,"TOWNNAME":"麻豆區","LI":"謝安里","LIN":"1鄰","STREET":" ","SECT":" ","MAREA":"謝厝寮","LANE":" ","ALLEY":" ","HOUSE_NO":"１號","E_COORD97":172289.04999999999,"N_COORD97":2561461.1800000002,"ADDRESS":"謝厝寮１號","OBJECTID":108243},"geometry":{"x":172289.04999999981,"y":2561461.1799999997}},{"attributes":{"ID":108244,"DIS_CODE":0,"TOWNNAME":"麻豆區","LI":"謝安里","LIN":"1鄰","STREET":" ","SECT":" ","MAREA":"謝厝寮","LANE":" ","ALLEY":" ","HOUSE_NO":"９號","E_COORD97":172215.70000000001,"N_COORD97":2561362.4100000001,"ADDRESS":"謝厝寮９號","OBJECTID":108244},"geometry":{"x":172215.70000000019,"y":2561362.4100000001}},{"attributes":{"ID":108245,"DIS_CODE":0,"TOWNNAME":"麻豆區","LI":"港尾里","LIN":"1鄰","STREET":" ","SECT":" ","MAREA":"謝榜寮","LANE":" ","ALLEY":" ","HOUSE_NO":"１０號","E_COORD97":168051.41,"N_COORD97":2566305.3999999999,"ADDRESS":"謝榜寮１０號","OBJECTID":108245},"geometry":{"x":168051.41000000201,"y":2566305.4000000004}},{"attributes":{"ID":108246,"DIS_CODE":0,"TOWNNAME":"麻豆區","LI":"港尾里","LIN":"1鄰","STREET":" ","SECT":" ","MAREA":"謝榜寮","LANE":" ","ALLEY":" ","HOUSE_NO":"１１號","E_COORD97":168025.92999999999,"N_COORD97":2566295.8399999999,"ADDRESS":"謝榜寮１１號","OBJECTID":108246},"geometry":{"x":168025.93000000063,"y":2566295.8399999999}},{"attributes":{"ID":108247,"DIS_CODE":0,"TOWNNAME":"安定區","LI":"安加里","LIN":"1鄰","STREET":" ","SECT":" ","MAREA":"安定","LANE":" ","ALLEY":" ","HOUSE_NO":"１５６號之１０","E_COORD97":172049.45000000001,"N_COORD97":2557605.3199999998,"ADDRESS":"安定１５６號之１０","OBJECTID":108247},"geometry":{"x":172049.45000000019,"y":2557605.3200000022}},{"attributes":{"ID":108248,"DIS_CODE":0,"TOWNNAME":"安定區","LI":"安加里","LIN":"1鄰","STREET":" ","SECT":" ","MAREA":"安定","LANE":" ","ALLEY":" ","HOUSE_NO":"１５９之２０號","E_COORD97":172031.37,"N_COORD97":2557572.3199999998,"ADDRESS":"安定１５９之２０號","OBJECTID":108248},"geometry":{"x":172031.37000000011,"y":2557572.3200000003}},{"attributes":{"ID":108249,"DIS_CODE":0,"TOWNNAME":"安定區","LI":"海寮里","LIN":"1鄰","STREET":" ","SECT":" ","MAREA":"海寮","LANE":" ","ALLEY":" ","HOUSE_NO":"１９號之１５","E_COORD97":169268.13,"N_COORD97":2555173.2999999998,"ADDRESS":"海寮１９號之１５","OBJECTID":108249},"geometry":{"x":169268.12999999989,"y":2555173.3000000007}},{"attributes":{"ID":108250,"DIS_CODE":0,"TOWNNAME":"安定區","LI":"海寮里","LIN":"1鄰","STREET":" ","SECT":" ","MAREA":"海寮","LANE":" ","ALLEY":" ","HOUSE_NO":"１９號之８","E_COORD97":169286.28,"N_COORD97":2555144.2999999998,"ADDRESS":"海寮１９號之８","OBJECTID":108250},"geometry":{"x":169286.28000000026,"y":2555144.3000000026}},{"attributes":{"ID":108251,"DIS_CODE":0,"TOWNNAME":"東山區","LI":"東原里","LIN":"9鄰","STREET":" ","SECT":" ","MAREA":"前大埔","LANE":" ","ALLEY":" ","HOUSE_NO":"１０９號之５","E_COORD97":193533.37,"N_COORD97":2573915.54,"ADDRESS":"前大埔１０９號之５","OBJECTID":108251},"geometry":{"x":193533.37000000011,"y":2573915.5399999991}},{"attributes":{"ID":108252,"DIS_CODE":0,"TOWNNAME":"東山區","LI":"東原里","LIN":"9鄰","STREET":" ","SECT":" ","MAREA":"前大埔","LANE":" ","ALLEY":" ","HOUSE_NO":"１０９號之６","E_COORD97":193528.85999999999,"N_COORD97":2573911.9100000001,"ADDRESS":"前大埔１０９號之６","OBJECTID":108252},"geometry":{"x":193528.8600000022,"y":2573911.910000002}},{"attributes":{"ID":108253,"DIS_CODE":0,"TOWNNAME":"東山區","LI":"東原里","LIN":"9鄰","STREET":" ","SECT":" ","MAREA":"前大埔","LANE":" ","ALLEY":" ","HOUSE_NO":"１０９號","E_COORD97":193605.76999999999,"N_COORD97":2573876.6000000001,"ADDRESS":"前大埔１０９號","OBJECTID":108253},"geometry":{"x":193605.77000000048,"y":2573876.6000000015}},{"attributes":{"ID":108254,"DIS_CODE":0,"TOWNNAME":"東山區","LI":"南勢里","LIN":"9鄰","STREET":" ","SECT":" ","MAREA":"南勢庄","LANE":" ","ALLEY":" ","HOUSE_NO":"２號之２","E_COORD97":194976.39000000001,"N_COORD97":2571632.52,"ADDRESS":"南勢庄２號之２","OBJECTID":108254},"geometry":{"x":194976.3900000006,"y":2571632.5200000014}},{"attributes":{"ID":108255,"DIS_CODE":0,"TOWNNAME":"東山區","LI":"南勢里","LIN":"9鄰","STREET":" ","SECT":" ","MAREA":"南勢庄","LANE":" ","ALLEY":" ","HOUSE_NO":"２之３號","E_COORD97":195127.91,"N_COORD97":2571807.1600000001,"ADDRESS":"南勢庄２之３號","OBJECTID":108255},"geometry":{"x":195127.91000000015,"y":2571807.1600000001}},{"attributes":{"ID":108256,"DIS_CODE":0,"TOWNNAME":"東山區","LI":"南勢里","LIN":"9鄰","STREET":" ","SECT":" ","MAREA":"南勢庄","LANE":" ","ALLEY":" ","HOUSE_NO":"２號之３","E_COORD97":195127.91,"N_COORD97":2571807.1600000001,"ADDRESS":"南勢庄２號之３","OBJECTID":108256},"geometry":{"x":195127.91000000015,"y":2571807.1600000001}},{"attributes":{"ID":108257,"DIS_CODE":0,"TOWNNAME":"東山區","LI":"南勢里","LIN":"9鄰","STREET":" ","SECT":" ","MAREA":"南勢庄","LANE":" ","ALLEY":" ","HOUSE_NO":"２號之４","E_COORD97":195177.07999999999,"N_COORD97":2571832.6200000001,"ADDRESS":"南勢庄２號之４","OBJECTID":108257},"geometry":{"x":195177.08000000101,"y":2571832.6200000048}},{"attributes":{"ID":108258,"DIS_CODE":0,"TOWNNAME":"東山區","LI":"南勢里","LIN":"9鄰","STREET":" ","SECT":" ","MAREA":"南勢庄","LANE":" ","ALLEY":" ","HOUSE_NO":"２號之５","E_COORD97":195202.47,"N_COORD97":2571804.75,"ADDRESS":"南勢庄２號之５","OBJECTID":108258},"geometry":{"x":195202.4700000016,"y":2571804.7500000019}},{"attributes":{"ID":108259,"DIS_CODE":0,"TOWNNAME":"東山區","LI":"南勢里","LIN":"9鄰","STREET":" ","SECT":" ","MAREA":"南勢庄","LANE":" ","ALLEY":" ","HOUSE_NO":"２號之７","E_COORD97":195157.28,"N_COORD97":2571811.5499999998,"ADDRESS":"南勢庄２號之７","OBJECTID":108259},"geometry":{"x":195157.28000000119,"y":2571811.5500000007}},{"attributes":{"ID":108260,"DIS_CODE":0,"TOWNNAME":"東山區","LI":"南勢里","LIN":"9鄰","STREET":" ","SECT":" ","MAREA":"南勢庄","LANE":" ","ALLEY":" ","HOUSE_NO":"３號","E_COORD97":195505.14000000001,"N_COORD97":2571655.23,"ADDRESS":"南勢庄３號","OBJECTID":108260},"geometry":{"x":195505.1400000006,"y":2571655.2300000023}},{"attributes":{"ID":108261,"DIS_CODE":0,"TOWNNAME":"麻豆區","LI":"總榮里","LIN":"1鄰","STREET":" ","SECT":" ","MAREA":"總爺\u25A0","LANE":" ","ALLEY":" ","HOUSE_NO":"１０１號","E_COORD97":174741.57000000001,"N_COORD97":2564695.5499999998,"ADDRESS":"總爺\u25A0１０１號","OBJECTID":108261},"geometry":{"x":174741.57000000123,"y":2564695.5500000007}},{"attributes":{"ID":108262,"DIS_CODE":0,"TOWNNAME":"麻豆區","LI":"總榮里","LIN":"1鄰","STREET":" ","SECT":" ","MAREA":"總爺\u25A0","LANE":" ","ALLEY":" ","HOUSE_NO":"１０２號","E_COORD97":174740.78,"N_COORD97":2564688.71,"ADDRESS":"總爺\u25A0１０２號","OBJECTID":108262},"geometry":{"x":174740.78000000026,"y":2564688.7100000028}},{"attributes":{"ID":108263,"DIS_CODE":0,"TOWNNAME":"麻豆區","LI":"總榮里","LIN":"1鄰","STREET":" ","SECT":" ","MAREA":"總爺\u25A0","LANE":" ","ALLEY":" ","HOUSE_NO":"１０３號","E_COORD97":174740.19,"N_COORD97":2564682.8700000001,"ADDRESS":"總爺\u25A0１０３號","OBJECTID":108263},"geometry":{"x":174740.19000000041,"y":2564682.870000001}},{"attributes":{"ID":108264,"DIS_CODE":0,"TOWNNAME":"麻豆區","LI":"總榮里","LIN":"1鄰","STREET":" ","SECT":" ","MAREA":"總爺\u25A0","LANE":" ","ALLEY":" ","HOUSE_NO":"１０５號","E_COORD97":174739.88,"N_COORD97":2564669.7200000002,"ADDRESS":"總爺\u25A0１０５號","OBJECTID":108264},"geometry":{"x":174739.87999999989,"y":2564669.7200000007}},{"attributes":{"ID":108265,"DIS_CODE":0,"TOWNNAME":"麻豆區","LI":"總榮里","LIN":"1鄰","STREET":" ","SECT":" ","MAREA":"總爺\u25A0","LANE":" ","ALLEY":" ","HOUSE_NO":"１０６號","E_COORD97":174724.73999999999,"N_COORD97":2564709.46,"ADDRESS":"總爺\u25A0１０６號","OBJECTID":108265},"geometry":{"x":174724.73999999929,"y":2564709.4600000009}},{"attributes":{"ID":108266,"DIS_CODE":0,"TOWNNAME":"東山區","LI":"南勢里","LIN":"9鄰","STREET":" ","SECT":" ","MAREA":"南勢庄","LANE":" ","ALLEY":" ","HOUSE_NO":"４號之１","E_COORD97":195522.04000000001,"N_COORD97":2571707.2400000002,"ADDRESS":"南勢庄４號之１","OBJECTID":108266},"geometry":{"x":195522.04000000004,"y":2571707.2400000002}},{"attributes":{"ID":108267,"DIS_CODE":0,"TOWNNAME":"東山區","LI":"南勢里","LIN":"9鄰","STREET":" ","SECT":" ","MAREA":"南勢庄","LANE":" ","ALLEY":" ","HOUSE_NO":"４號之２","E_COORD97":195388.35999999999,"N_COORD97":2571654.73,"ADDRESS":"南勢庄４號之２","OBJECTID":108267},"geometry":{"x":195388.3599999994,"y":2571654.7300000042}},{"attributes":{"ID":108268,"DIS_CODE":0,"TOWNNAME":"東山區","LI":"南勢里","LIN":"9鄰","STREET":" ","SECT":" ","MAREA":"南勢庄","LANE":" ","ALLEY":" ","HOUSE_NO":"４號之３","E_COORD97":195361.67000000001,"N_COORD97":2571657.0600000001,"ADDRESS":"南勢庄４號之３","OBJECTID":108268},"geometry":{"x":195361.66999999993,"y":2571657.0600000024}},{"attributes":{"ID":108269,"DIS_CODE":0,"TOWNNAME":"東山區","LI":"南勢里","LIN":"9鄰","STREET":" ","SECT":" ","MAREA":"南勢庄","LANE":" ","ALLEY":" ","HOUSE_NO":"４號","E_COORD97":195491.82000000001,"N_COORD97":2571681.0600000001,"ADDRESS":"南勢庄４號","OBJECTID":108269},"geometry":{"x":195491.8200000003,"y":2571681.0600000024}},{"attributes":{"ID":108270,"DIS_CODE":0,"TOWNNAME":"東山區","LI":"南勢里","LIN":"9鄰","STREET":" ","SECT":" ","MAREA":"南勢庄","LANE":" ","ALLEY":" ","HOUSE_NO":"６之１號","E_COORD97":195343.45999999999,"N_COORD97":2571792.9399999999,"ADDRESS":"南勢庄６之１號","OBJECTID":108270},"geometry":{"x":195343.46000000183,"y":2571792.9400000013}},{"attributes":{"ID":108271,"DIS_CODE":0,"TOWNNAME":"東山區","LI":"南勢里","LIN":"9鄰","STREET":" ","SECT":" ","MAREA":"南勢庄","LANE":" ","ALLEY":" ","HOUSE_NO":"６號之１","E_COORD97":195343.45999999999,"N_COORD97":2571792.9399999999,"ADDRESS":"南勢庄６號之１","OBJECTID":108271},"geometry":{"x":195343.46000000183,"y":2571792.9400000013}},{"attributes":{"ID":108272,"DIS_CODE":0,"TOWNNAME":"東山區","LI":"南勢里","LIN":"9鄰","STREET":" ","SECT":" ","MAREA":"南勢庄","LANE":" ","ALLEY":" ","HOUSE_NO":"６號之２","E_COORD97":195306.92999999999,"N_COORD97":2571719.0099999998,"ADDRESS":"南勢庄６號之２","OBJECTID":108272},"geometry":{"x":195306.9299999997,"y":2571719.0099999998}},{"attributes":{"ID":108273,"DIS_CODE":0,"TOWNNAME":"東山區","LI":"南勢里","LIN":"9鄰","STREET":" ","SECT":" ","MAREA":"南勢庄","LANE":" ","ALLEY":" ","HOUSE_NO":"６之３號","E_COORD97":195255.73999999999,"N_COORD97":2571718.02,"ADDRESS":"南勢庄６之３號","OBJECTID":108273},"geometry":{"x":195255.74000000115,"y":2571718.0199999996}},{"attributes":{"ID":108274,"DIS_CODE":0,"TOWNNAME":"東山區","LI":"南勢里","LIN":"9鄰","STREET":" ","SECT":" ","MAREA":"南勢庄","LANE":" ","ALLEY":" ","HOUSE_NO":"６號","E_COORD97":195382.67000000001,"N_COORD97":2571738.7599999998,"ADDRESS":"南勢庄６號","OBJECTID":108274},"geometry":{"x":195382.67000000179,"y":2571738.7600000035}},{"attributes":{"ID":108275,"DIS_CODE":0,"TOWNNAME":"東山區","LI":"南勢里","LIN":"9鄰","STREET":" ","SECT":" ","MAREA":"南勢庄","LANE":" ","ALLEY":" ","HOUSE_NO":"７號之２","E_COORD97":195522.89999999999,"N_COORD97":2571528.27,"ADDRESS":"南勢庄７號之２","OBJECTID":108275},"geometry":{"x":195522.9000000013,"y":2571528.2700000033}},{"attributes":{"ID":108276,"DIS_CODE":0,"TOWNNAME":"東山區","LI":"南勢里","LIN":"9鄰","STREET":" ","SECT":" ","MAREA":"南勢庄","LANE":" ","ALLEY":" ","HOUSE_NO":"７號之３","E_COORD97":195496.59,"N_COORD97":2571553.5800000001,"ADDRESS":"南勢庄７號之３","OBJECTID":108276},"geometry":{"x":195496.59000000171,"y":2571553.5800000038}},{"attributes":{"ID":108277,"DIS_CODE":0,"TOWNNAME":"東山區","LI":"科里里","LIN":"9鄰","STREET":" ","SECT":" ","MAREA":"科里","LANE":" ","ALLEY":" ","HOUSE_NO":"１０１號","E_COORD97":189942.72,"N_COORD97":2578137.2000000002,"ADDRESS":"科里１０１號","OBJECTID":108277},"geometry":{"x":189942.72000000067,"y":2578137.2000000011}},{"attributes":{"ID":108278,"DIS_CODE":0,"TOWNNAME":"東山區","LI":"科里里","LIN":"9鄰","STREET":" ","SECT":" ","MAREA":"科里","LANE":" ","ALLEY":" ","HOUSE_NO":"１０２號","E_COORD97":189932.94,"N_COORD97":2578139.7400000002,"ADDRESS":"科里１０２號","OBJECTID":108278},"geometry":{"x":189932.94000000227,"y":2578139.7400000002}},{"attributes":{"ID":108279,"DIS_CODE":0,"TOWNNAME":"安平區","LI":"西門里","LIN":"9鄰","STREET":"安北路","SECT":" ","MAREA":" ","LANE":"２３３巷","ALLEY":"２弄","HOUSE_NO":"１８號之５","E_COORD97":163817.84,"N_COORD97":2544724.0600000001,"ADDRESS":"安北路２３３巷２弄１８號之５","OBJECTID":108279},"geometry":{"x":163817.83999999985,"y":2544724.0600000024}},{"attributes":{"ID":108280,"DIS_CODE":0,"TOWNNAME":"東山區","LI":"科里里","LIN":"9鄰","STREET":" ","SECT":" ","MAREA":"科里","LANE":" ","ALLEY":" ","HOUSE_NO":"１０３號","E_COORD97":189929.20999999999,"N_COORD97":2578142.8399999999,"ADDRESS":"科里１０３號","OBJECTID":108280},"geometry":{"x":189929.21000000089,"y":2578142.8400000017}},{"attributes":{"ID":108281,"DIS_CODE":0,"TOWNNAME":"麻豆區","LI":"巷口里","LIN":"1鄰","STREET":"興國路","SECT":" ","MAREA":" ","LANE":"１５巷","ALLEY":" ","HOUSE_NO":"５號","E_COORD97":173099.51999999999,"N_COORD97":2564704.54,"ADDRESS":"興國路１５巷５號","OBJECTID":108281},"geometry":{"x":173099.51999999955,"y":2564704.5400000028}},{"attributes":{"ID":108282,"DIS_CODE":0,"TOWNNAME":"東山區","LI":"科里里","LIN":"9鄰","STREET":" ","SECT":" ","MAREA":"科里","LANE":" ","ALLEY":" ","HOUSE_NO":"１０４號","E_COORD97":189924.92000000001,"N_COORD97":2578145.7200000002,"ADDRESS":"科里１０４號","OBJECTID":108282},"geometry":{"x":189924.91999999993,"y":2578145.7200000025}},{"attributes":{"ID":108283,"DIS_CODE":0,"TOWNNAME":"東山區","LI":"科里里","LIN":"9鄰","STREET":" ","SECT":" ","MAREA":"科里","LANE":" ","ALLEY":" ","HOUSE_NO":"１０６號","E_COORD97":189915.92999999999,"N_COORD97":2578152.96,"ADDRESS":"科里１０６號","OBJECTID":108283},"geometry":{"x":189915.93000000063,"y":2578152.9600000046}},{"attributes":{"ID":108284,"DIS_CODE":0,"TOWNNAME":"東山區","LI":"科里里","LIN":"9鄰","STREET":" ","SECT":" ","MAREA":"科里","LANE":" ","ALLEY":" ","HOUSE_NO":"１０７號","E_COORD97":189944.29999999999,"N_COORD97":2578155.5600000001,"ADDRESS":"科里１０７號","OBJECTID":108284},"geometry":{"x":189944.29999999981,"y":2578155.5600000042}},{"attributes":{"ID":108285,"DIS_CODE":0,"TOWNNAME":"東山區","LI":"科里里","LIN":"9鄰","STREET":" ","SECT":" ","MAREA":"科里","LANE":" ","ALLEY":" ","HOUSE_NO":"１０８號","E_COORD97":189939.41,"N_COORD97":2578159.6000000001,"ADDRESS":"科里１０８號","OBJECTID":108285},"geometry":{"x":189939.41000000015,"y":2578159.5999999996}},{"attributes":{"ID":108286,"DIS_CODE":0,"TOWNNAME":"東山區","LI":"科里里","LIN":"9鄰","STREET":" ","SECT":" ","MAREA":"科里","LANE":" ","ALLEY":" ","HOUSE_NO":"１０９號","E_COORD97":189934.82000000001,"N_COORD97":2578163.48,"ADDRESS":"科里１０９號","OBJECTID":108286},"geometry":{"x":189934.8200000003,"y":2578163.4800000023}},{"attributes":{"ID":108287,"DIS_CODE":0,"TOWNNAME":"東山區","LI":"科里里","LIN":"9鄰","STREET":" ","SECT":" ","MAREA":"科里","LANE":" ","ALLEY":" ","HOUSE_NO":"１１０號","E_COORD97":189930.14999999999,"N_COORD97":2578167.0499999998,"ADDRESS":"科里１１０號","OBJECTID":108287},"geometry":{"x":189930.1500000013,"y":2578167.0500000026}},{"attributes":{"ID":108288,"DIS_CODE":0,"TOWNNAME":"東山區","LI":"科里里","LIN":"9鄰","STREET":" ","SECT":" ","MAREA":"科里","LANE":" ","ALLEY":" ","HOUSE_NO":"１１１號","E_COORD97":189924.72,"N_COORD97":2578169.8399999999,"ADDRESS":"科里１１１號","OBJECTID":108288},"geometry":{"x":189924.71999999974,"y":2578169.8400000036}},{"attributes":{"ID":108289,"DIS_CODE":0,"TOWNNAME":"東山區","LI":"科里里","LIN":"9鄰","STREET":" ","SECT":" ","MAREA":"科里","LANE":" ","ALLEY":" ","HOUSE_NO":"１１２號","E_COORD97":189919.75,"N_COORD97":2578173.6099999999,"ADDRESS":"科里１１２號","OBJECTID":108289},"geometry":{"x":189919.75,"y":2578173.6099999994}},{"attributes":{"ID":108290,"DIS_CODE":0,"TOWNNAME":"新營區","LI":"南紙里","LIN":"11鄰","STREET":"太子路","SECT":" ","MAREA":" ","LANE":" ","ALLEY":" ","HOUSE_NO":"２２８號","E_COORD97":177822.95999999999,"N_COORD97":2577832.3199999998,"ADDRESS":"太子路２２８號","OBJECTID":108290},"geometry":{"x":177822.95999999996,"y":2577832.3200000022}},{"attributes":{"ID":108291,"DIS_CODE":0,"TOWNNAME":"永康區","LI":"五王里","LIN":" ","STREET":"成功路","SECT":" ","MAREA":" ","LANE":"１７２巷","ALLEY":"７６弄","HOUSE_NO":"３３號","E_COORD97":171652.51999999999,"N_COORD97":2545804.6800000002,"ADDRESS":"成功路１７２巷７６弄３３號","OBJECTID":108291},"geometry":{"x":171652.52000000048,"y":2545804.6799999997}},{"attributes":{"ID":108292,"DIS_CODE":0,"TOWNNAME":"歸仁區","LI":"南興里","LIN":"20鄰","STREET":"文化街","SECT":"三段","MAREA":" ","LANE":"５９２巷","ALLEY":" ","HOUSE_NO":"５６號","E_COORD97":175654.37,"N_COORD97":2541271.2599999998,"ADDRESS":"文化街三段５９２巷５６號","OBJECTID":108292},"geometry":{"x":175654.36999999918,"y":2541271.2599999998}},{"attributes":{"ID":108293,"DIS_CODE":0,"TOWNNAME":"麻豆區","LI":"總榮里","LIN":"1鄰","STREET":" ","SECT":" ","MAREA":"總爺\u25A0","LANE":" ","ALLEY":" ","HOUSE_NO":"１０７號","E_COORD97":174723.72,"N_COORD97":2564701.5699999998,"ADDRESS":"總爺\u25A0１０７號","OBJECTID":108293},"geometry":{"x":174723.71999999974,"y":2564701.5700000003}},{"attributes":{"ID":108294,"DIS_CODE":0,"TOWNNAME":"麻豆區","LI":"總榮里","LIN":"1鄰","STREET":" ","SECT":" ","MAREA":"總爺\u25A0","LANE":" ","ALLEY":" ","HOUSE_NO":"３號之１３","E_COORD97":174970.37,"N_COORD97":2564754.1299999999,"ADDRESS":"總爺\u25A0３號之１３","OBJECTID":108294},"geometry":{"x":174970.37000000104,"y":2564754.129999999}},{"attributes":{"ID":108295,"DIS_CODE":0,"TOWNNAME":"歸仁區","LI":"崙頂里","LIN":"20鄰","STREET":"大成路","SECT":" ","MAREA":" ","LANE":" ","ALLEY":" ","HOUSE_NO":"１７５號","E_COORD97":177778.64999999999,"N_COORD97":2540178.2999999998,"ADDRESS":"大成路１７５號","OBJECTID":108295},"geometry":{"x":177778.65000000224,"y":2540178.3000000045}},{"attributes":{"ID":108296,"DIS_CODE":0,"TOWNNAME":"麻豆區","LI":"總榮里","LIN":"1鄰","STREET":" ","SECT":" ","MAREA":"總爺\u25A0","LANE":" ","ALLEY":" ","HOUSE_NO":"３號之１４","E_COORD97":174965.85999999999,"N_COORD97":2564753.8799999999,"ADDRESS":"總爺\u25A0３號之１４","OBJECTID":108296},"geometry":{"x":174965.86000000034,"y":2564753.8800000008}},{"attributes":{"ID":108297,"DIS_CODE":0,"TOWNNAME":"麻豆區","LI":"總榮里","LIN":"1鄰","STREET":" ","SECT":" ","MAREA":"總爺\u25A0","LANE":" ","ALLEY":" ","HOUSE_NO":"３號之１５０","E_COORD97":174701.76000000001,"N_COORD97":2564432.6899999999,"ADDRESS":"總爺\u25A0３號之１５０","OBJECTID":108297},"geometry":{"x":174701.75999999978,"y":2564432.6900000032}},{"attributes":{"ID":108298,"DIS_CODE":0,"TOWNNAME":"安平區","LI":"港仔里","LIN":"9鄰","STREET":"運河路","SECT":" ","MAREA":" ","LANE":"１３巷","ALLEY":"３１弄","HOUSE_NO":"６號","E_COORD97":164160.35999999999,"N_COORD97":2544505.5299999998,"ADDRESS":"運河路１３巷３１弄６號","OBJECTID":108298},"geometry":{"x":164160.36000000127,"y":2544505.5300000012}},{"attributes":{"ID":108299,"DIS_CODE":0,"TOWNNAME":"麻豆區","LI":"謝安里","LIN":"1鄰","STREET":" ","SECT":" ","MAREA":"謝厝寮","LANE":" ","ALLEY":" ","HOUSE_NO":"３號之５","E_COORD97":172199.16,"N_COORD97":2561378.02,"ADDRESS":"謝厝寮３號之５","OBJECTID":108299},"geometry":{"x":172199.16000000015,"y":2561378.0199999996}},{"attributes":{"ID":108300,"DIS_CODE":0,"TOWNNAME":"安定區","LI":"海寮里","LIN":"1鄰","STREET":" ","SECT":" ","MAREA":"海寮","LANE":" ","ALLEY":" ","HOUSE_NO":"１１號之９","E_COORD97":169099.41,"N_COORD97":2555150.2999999998,"ADDRESS":"海寮１１號之９","OBJECTID":108300},"geometry":{"x":169099.41000000108,"y":2555150.3000000045}},{"attributes":{"ID":108301,"DIS_CODE":0,"TOWNNAME":"安定區","LI":"南安里","LIN":"1鄰","STREET":" ","SECT":" ","MAREA":"油車","LANE":" ","ALLEY":" ","HOUSE_NO":"４之２號","E_COORD97":170956.48999999999,"N_COORD97":2556110.2999999998,"ADDRESS":"油車４之２號","OBJECTID":108301},"geometry":{"x":170956.49000000209,"y":2556110.3000000026}},{"attributes":{"ID":108302,"DIS_CODE":0,"TOWNNAME":"安定區","LI":"南安里","LIN":"1鄰","STREET":" ","SECT":" ","MAREA":"油車","LANE":" ","ALLEY":" ","HOUSE_NO":"４號之６","E_COORD97":170845.63,"N_COORD97":2555887.2999999998,"ADDRESS":"油車４號之６","OBJECTID":108302},"geometry":{"x":170845.63000000082,"y":2555887.3000000026}},{"attributes":{"ID":108303,"DIS_CODE":0,"TOWNNAME":"安定區","LI":"中沙里","LIN":"1鄰","STREET":" ","SECT":" ","MAREA":"中崙","LANE":" ","ALLEY":" ","HOUSE_NO":"８６號","E_COORD97":168920.06,"N_COORD97":2553300.25,"ADDRESS":"中崙８６號","OBJECTID":108303},"geometry":{"x":168920.06000000052,"y":2553300.2500000019}},{"attributes":{"ID":108304,"DIS_CODE":0,"TOWNNAME":"永康區","LI":"\u25A0行里","LIN":"40鄰","STREET":"永安路","SECT":" ","MAREA":" ","LANE":"１０５巷","ALLEY":"４６弄","HOUSE_NO":"１號","E_COORD97":172588.35999999999,"N_COORD97":2549312.1200000001,"ADDRESS":"永安路１０５巷４６弄１號","OBJECTID":108304},"geometry":{"x":172588.36000000127,"y":2549312.120000001}},{"attributes":{"ID":108305,"DIS_CODE":0,"TOWNNAME":"歸仁區","LI":"南興里","LIN":"38鄰","STREET":"中山路","SECT":"三段","MAREA":" ","LANE":" ","ALLEY":" ","HOUSE_NO":"５０６號","E_COORD97":175819.511333,"N_COORD97":2541019.8594599999,"ADDRESS":"中山路三段５０６號","OBJECTID":108305},"geometry":{"x":175819.51133300178,"y":2541019.8594620023}},{"attributes":{"ID":108306,"DIS_CODE":0,"TOWNNAME":"安定區","LI":"南安里","LIN":"1鄰","STREET":" ","SECT":" ","MAREA":"油車","LANE":" ","ALLEY":" ","HOUSE_NO":"６號之３","E_COORD97":170808.72,"N_COORD97":2555953.2999999998,"ADDRESS":"油車６號之３","OBJECTID":108306},"geometry":{"x":170808.72000000067,"y":2555953.3000000007}},{"attributes":{"ID":108307,"DIS_CODE":0,"TOWNNAME":"安平區","LI":"石門里","LIN":"8鄰","STREET":"安北路","SECT":" ","MAREA":" ","LANE":" ","ALLEY":" ","HOUSE_NO":"７６號","E_COORD97":164518.14000000001,"N_COORD97":2544668.6600000001,"ADDRESS":"安北路７６號","OBJECTID":108307},"geometry":{"x":164518.14000000153,"y":2544668.660000002}},{"attributes":{"ID":108308,"DIS_CODE":0,"TOWNNAME":"安定區","LI":"蘇林里","LIN":"1鄰","STREET":" ","SECT":" ","MAREA":"蘇厝","LANE":" ","ALLEY":" ","HOUSE_NO":"２之１９號","E_COORD97":174076.76999999999,"N_COORD97":2558630.2999999998,"ADDRESS":"蘇厝２之１９號","OBJECTID":108308},"geometry":{"x":174076.77000000048,"y":2558630.3000000026}},{"attributes":{"ID":108309,"DIS_CODE":0,"TOWNNAME":"安定區","LI":"港尾里","LIN":"1鄰","STREET":" ","SECT":" ","MAREA":"下洲子","LANE":" ","ALLEY":" ","HOUSE_NO":"１號","E_COORD97":172533.23999999999,"N_COORD97":2556603.25,"ADDRESS":"下洲子１號","OBJECTID":108309},"geometry":{"x":172533.24000000115,"y":2556603.25}},{"attributes":{"ID":108310,"DIS_CODE":0,"TOWNNAME":"安定區","LI":"安加里","LIN":"1鄰","STREET":" ","SECT":" ","MAREA":"安定","LANE":" ","ALLEY":" ","HOUSE_NO":"１５９號之４","E_COORD97":172047.48000000001,"N_COORD97":2557539.3199999998,"ADDRESS":"安定１５９號之４","OBJECTID":108310},"geometry":{"x":172047.48000000138,"y":2557539.3200000003}},{"attributes":{"ID":108311,"DIS_CODE":0,"TOWNNAME":"安定區","LI":"管寮里","LIN":"1鄰","STREET":" ","SECT":" ","MAREA":"管寮","LANE":" ","ALLEY":" ","HOUSE_NO":"７號之２","E_COORD97":169907.26000000001,"N_COORD97":2556080.2999999998,"ADDRESS":"管寮７號之２","OBJECTID":108311},"geometry":{"x":169907.26000000071,"y":2556080.3000000026}},{"attributes":{"ID":108312,"DIS_CODE":0,"TOWNNAME":"東山區","LI":"科里里","LIN":"9鄰","STREET":" ","SECT":" ","MAREA":"科里","LANE":" ","ALLEY":" ","HOUSE_NO":"１１４號","E_COORD97":189948.75,"N_COORD97":2578169.98,"ADDRESS":"科里１１４號","OBJECTID":108312},"geometry":{"x":189948.75,"y":2578169.9800000023}},{"attributes":{"ID":108313,"DIS_CODE":0,"TOWNNAME":"東山區","LI":"科里里","LIN":"9鄰","STREET":" ","SECT":" ","MAREA":"科里","LANE":" ","ALLEY":" ","HOUSE_NO":"１１５號","E_COORD97":189944.04000000001,"N_COORD97":2578173.73,"ADDRESS":"科里１１５號","OBJECTID":108313},"geometry":{"x":189944.04000000097,"y":2578173.7300000004}},{"attributes":{"ID":108314,"DIS_CODE":0,"TOWNNAME":"東山區","LI":"科里里","LIN":"9鄰","STREET":" ","SECT":" ","MAREA":"科里","LANE":" ","ALLEY":" ","HOUSE_NO":"１１６號","E_COORD97":189939.32000000001,"N_COORD97":2578177.48,"ADDRESS":"科里１１６號","OBJECTID":108314},"geometry":{"x":189939.32000000123,"y":2578177.4800000023}},{"attributes":{"ID":108315,"DIS_CODE":0,"TOWNNAME":"東山區","LI":"科里里","LIN":"9鄰","STREET":" ","SECT":" ","MAREA":"科里","LANE":" ","ALLEY":" ","HOUSE_NO":"１１８號","E_COORD97":189929.89000000001,"N_COORD97":2578184.98,"ADDRESS":"科里１１８號","OBJECTID":108315},"geometry":{"x":189929.8900000006,"y":2578184.9800000004}},{"attributes":{"ID":108316,"DIS_CODE":0,"TOWNNAME":"東山區","LI":"科里里","LIN":"9鄰","STREET":" ","SECT":" ","MAREA":"科里","LANE":" ","ALLEY":" ","HOUSE_NO":"１１９號","E_COORD97":189951.28,"N_COORD97":2578181.4900000002,"ADDRESS":"科里１１９號","OBJECTID":108316},"geometry":{"x":189951.28000000119,"y":2578181.4900000002}},{"attributes":{"ID":108317,"DIS_CODE":0,"TOWNNAME":"東山區","LI":"科里里","LIN":"9鄰","STREET":" ","SECT":" ","MAREA":"科里","LANE":" ","ALLEY":" ","HOUSE_NO":"１２０號","E_COORD97":189946.39999999999,"N_COORD97":2578184.8300000001,"ADDRESS":"科里１２０號","OBJECTID":108317},"geometry":{"x":189946.40000000037,"y":2578184.8300000019}},{"attributes":{"ID":108318,"DIS_CODE":0,"TOWNNAME":"永康區","LI":"\u25A0行里","LIN":"34鄰","STREET":"中正北路","SECT":" ","MAREA":" ","LANE":"１７７巷","ALLEY":"２０弄","HOUSE_NO":"１１號","E_COORD97":172362.45999999999,"N_COORD97":2549242.9700000002,"ADDRESS":"中正北路１７７巷２０弄１１號","OBJECTID":108318},"geometry":{"x":172362.46000000089,"y":2549242.9700000044}},{"attributes":{"ID":108319,"DIS_CODE":0,"TOWNNAME":"東山區","LI":"科里里","LIN":"9鄰","STREET":" ","SECT":" ","MAREA":"科里","LANE":" ","ALLEY":" ","HOUSE_NO":"１２１號","E_COORD97":189942,"N_COORD97":2578188.3100000001,"ADDRESS":"科里１２１號","OBJECTID":108319},"geometry":{"x":189942,"y":2578188.3100000024}},{"attributes":{"ID":108320,"DIS_CODE":0,"TOWNNAME":"安平區","LI":"港仔里","LIN":"9鄰","STREET":"安平路","SECT":" ","MAREA":" ","LANE":"１２１巷","ALLEY":"８弄","HOUSE_NO":"２號","E_COORD97":164213.67000000001,"N_COORD97":2544461.5800000001,"ADDRESS":"安平路１２１巷８弄２號","OBJECTID":108320},"geometry":{"x":164213.67000000086,"y":2544461.5800000019}},{"attributes":{"ID":108321,"DIS_CODE":0,"TOWNNAME":"安南區","LI":"淵東里","LIN":"1鄰","STREET":"海佃路","SECT":"四段","MAREA":" ","LANE":" ","ALLEY":" ","HOUSE_NO":"１２６號","E_COORD97":165675.31,"N_COORD97":2550760.5699999998,"ADDRESS":"海佃路四段１２６號","OBJECTID":108321},"geometry":{"x":165675.31000000052,"y":2550760.5699999984}},{"attributes":{"ID":108322,"DIS_CODE":0,"TOWNNAME":"東山區","LI":"科里里","LIN":"9鄰","STREET":" ","SECT":" ","MAREA":"科里","LANE":" ","ALLEY":" ","HOUSE_NO":"１２３號","E_COORD97":189943.72,"N_COORD97":2578199.6699999999,"ADDRESS":"科里１２３號","OBJECTID":108322},"geometry":{"x":189943.71999999974,"y":2578199.6700000018}},{"attributes":{"ID":108323,"DIS_CODE":0,"TOWNNAME":"東山區","LI":"科里里","LIN":"9鄰","STREET":" ","SECT":" ","MAREA":"科里","LANE":" ","ALLEY":" ","HOUSE_NO":"１２４號","E_COORD97":189947.94,"N_COORD97":2578196.46,"ADDRESS":"科里１２４號","OBJECTID":108323},"geometry":{"x":189947.94000000041,"y":2578196.4600000009}},{"attributes":{"ID":108324,"DIS_CODE":0,"TOWNNAME":"安平區","LI":"石門里","LIN":"9鄰","STREET":"安北路","SECT":" ","MAREA":" ","LANE":"１０３巷","ALLEY":"７弄","HOUSE_NO":"１６號之２","E_COORD97":164323.34,"N_COORD97":2544738.9700000002,"ADDRESS":"安北路１０３巷７弄１６號之２","OBJECTID":108324},"geometry":{"x":164323.33999999985,"y":2544738.9700000007}},{"attributes":{"ID":108325,"DIS_CODE":0,"TOWNNAME":"東山區","LI":"科里里","LIN":"9鄰","STREET":" ","SECT":" ","MAREA":"科里","LANE":" ","ALLEY":" ","HOUSE_NO":"１２５號","E_COORD97":189952.16,"N_COORD97":2578193.25,"ADDRESS":"科里１２５號","OBJECTID":108325},"geometry":{"x":189952.16000000108,"y":2578193.25}},{"attributes":{"ID":108326,"DIS_CODE":0,"TOWNNAME":"東山區","LI":"科里里","LIN":"9鄰","STREET":" ","SECT":" ","MAREA":"科里","LANE":" ","ALLEY":" ","HOUSE_NO":"１２６號","E_COORD97":189956.38,"N_COORD97":2578190.04,"ADDRESS":"科里１２６號","OBJECTID":108326},"geometry":{"x":189956.37999999896,"y":2578190.0399999991}},{"attributes":{"ID":108327,"DIS_CODE":0,"TOWNNAME":"東山區","LI":"科里里","LIN":"9鄰","STREET":" ","SECT":" ","MAREA":"科里","LANE":" ","ALLEY":" ","HOUSE_NO":"１２７號","E_COORD97":189953.69,"N_COORD97":2578204.4500000002,"ADDRESS":"科里１２７號","OBJECTID":108327},"geometry":{"x":189953.69000000134,"y":2578204.4499999993}},{"attributes":{"ID":108328,"DIS_CODE":0,"TOWNNAME":"東山區","LI":"科里里","LIN":"9鄰","STREET":" ","SECT":" ","MAREA":"科里","LANE":" ","ALLEY":" ","HOUSE_NO":"１２８號","E_COORD97":189957.69,"N_COORD97":2578201.4500000002,"ADDRESS":"科里１２８號","OBJECTID":108328},"geometry":{"x":189957.69000000041,"y":2578201.4499999993}},{"attributes":{"ID":108329,"DIS_CODE":0,"TOWNNAME":"東山區","LI":"科里里","LIN":"9鄰","STREET":" ","SECT":" ","MAREA":"科里","LANE":" ","ALLEY":" ","HOUSE_NO":"１２９號","E_COORD97":189961.72,"N_COORD97":2578198.21,"ADDRESS":"科里１２９號","OBJECTID":108329},"geometry":{"x":189961.71999999974,"y":2578198.2100000009}},{"attributes":{"ID":108330,"DIS_CODE":0,"TOWNNAME":"東山區","LI":"科里里","LIN":"9鄰","STREET":" ","SECT":" ","MAREA":"科里","LANE":" ","ALLEY":" ","HOUSE_NO":"１３０號","E_COORD97":189966.04999999999,"N_COORD97":2578194.71,"ADDRESS":"科里１３０號","OBJECTID":108330},"geometry":{"x":189966.05000000075,"y":2578194.7100000009}},{"attributes":{"ID":108331,"DIS_CODE":0,"TOWNNAME":"東山區","LI":"科里里","LIN":"9鄰","STREET":" ","SECT":" ","MAREA":"科里","LANE":" ","ALLEY":" ","HOUSE_NO":"１３１號","E_COORD97":189961.04999999999,"N_COORD97":2578186.5099999998,"ADDRESS":"科里１３１號","OBJECTID":108331},"geometry":{"x":189961.05000000075,"y":2578186.5100000016}},{"attributes":{"ID":108332,"DIS_CODE":0,"TOWNNAME":"東山區","LI":"科里里","LIN":"9鄰","STREET":" ","SECT":" ","MAREA":"科里","LANE":" ","ALLEY":" ","HOUSE_NO":"１３２號","E_COORD97":189965.04999999999,"N_COORD97":2578183.3900000001,"ADDRESS":"科里１３２號","OBJECTID":108332},"geometry":{"x":189965.04999999981,"y":2578183.3900000006}},{"attributes":{"ID":108333,"DIS_CODE":0,"TOWNNAME":"東山區","LI":"科里里","LIN":"9鄰","STREET":" ","SECT":" ","MAREA":"科里","LANE":" ","ALLEY":" ","HOUSE_NO":"１３３號","E_COORD97":189968.95999999999,"N_COORD97":2578180.3999999999,"ADDRESS":"科里１３３號","OBJECTID":108333},"geometry":{"x":189968.95999999996,"y":2578180.4000000022}},{"attributes":{"ID":108334,"DIS_CODE":0,"TOWNNAME":"東山區","LI":"科里里","LIN":"9鄰","STREET":" ","SECT":" ","MAREA":"科里","LANE":" ","ALLEY":" ","HOUSE_NO":"１３４號","E_COORD97":189955.89000000001,"N_COORD97":2578178.9700000002,"ADDRESS":"科里１３４號","OBJECTID":108334},"geometry":{"x":189955.88999999966,"y":2578178.9700000007}},{"attributes":{"ID":108335,"DIS_CODE":0,"TOWNNAME":"東山區","LI":"科里里","LIN":"9鄰","STREET":" ","SECT":" ","MAREA":"科里","LANE":" ","ALLEY":" ","HOUSE_NO":"１３５號","E_COORD97":189959.98000000001,"N_COORD97":2578175.6099999999,"ADDRESS":"科里１３５號","OBJECTID":108335},"geometry":{"x":189959.98000000138,"y":2578175.6100000013}},{"attributes":{"ID":108336,"DIS_CODE":0,"TOWNNAME":"東山區","LI":"科里里","LIN":"9鄰","STREET":" ","SECT":" ","MAREA":"科里","LANE":" ","ALLEY":" ","HOUSE_NO":"１３８號","E_COORD97":189978.12,"N_COORD97":2578182,"ADDRESS":"科里１３８號","OBJECTID":108336},"geometry":{"x":189978.12000000011,"y":2578182}},{"attributes":{"ID":108337,"DIS_CODE":0,"TOWNNAME":"東山區","LI":"科里里","LIN":"9鄰","STREET":" ","SECT":" ","MAREA":"科里","LANE":" ","ALLEY":" ","HOUSE_NO":"１３９號","E_COORD97":189976.66,"N_COORD97":2578188.7400000002,"ADDRESS":"科里１３９號","OBJECTID":108337},"geometry":{"x":189976.66000000015,"y":2578188.7400000021}},{"attributes":{"ID":108338,"DIS_CODE":0,"TOWNNAME":"東山區","LI":"科里里","LIN":"9鄰","STREET":" ","SECT":" ","MAREA":"科里","LANE":" ","ALLEY":" ","HOUSE_NO":"１４０號","E_COORD97":189975.20999999999,"N_COORD97":2578195.48,"ADDRESS":"科里１４０號","OBJECTID":108338},"geometry":{"x":189975.21000000089,"y":2578195.4800000004}},{"attributes":{"ID":108339,"DIS_CODE":0,"TOWNNAME":"東山區","LI":"科里里","LIN":"9鄰","STREET":" ","SECT":" ","MAREA":"科里","LANE":" ","ALLEY":" ","HOUSE_NO":"１４１號","E_COORD97":189973.75,"N_COORD97":2578202.23,"ADDRESS":"科里１４１號","OBJECTID":108339},"geometry":{"x":189973.75,"y":2578202.2300000023}},{"attributes":{"ID":108340,"DIS_CODE":0,"TOWNNAME":"東山區","LI":"科里里","LIN":"9鄰","STREET":" ","SECT":" ","MAREA":"科里","LANE":" ","ALLEY":" ","HOUSE_NO":"１４２號","E_COORD97":189963.82999999999,"N_COORD97":2578213.1299999999,"ADDRESS":"科里１４２號","OBJECTID":108340},"geometry":{"x":189963.83000000194,"y":2578213.129999999}},{"attributes":{"ID":108341,"DIS_CODE":0,"TOWNNAME":"東山區","LI":"科里里","LIN":"9鄰","STREET":" ","SECT":" ","MAREA":"科里","LANE":" ","ALLEY":" ","HOUSE_NO":"１４３號","E_COORD97":189970.14000000001,"N_COORD97":2578213.3599999999,"ADDRESS":"科里１４３號","OBJECTID":108341},"geometry":{"x":189970.1400000006,"y":2578213.3600000031}},{"attributes":{"ID":108342,"DIS_CODE":0,"TOWNNAME":"東山區","LI":"科里里","LIN":"9鄰","STREET":" ","SECT":" ","MAREA":"科里","LANE":" ","ALLEY":" ","HOUSE_NO":"１４４號","E_COORD97":189975.35999999999,"N_COORD97":2578214.1600000001,"ADDRESS":"科里１４４號","OBJECTID":108342},"geometry":{"x":189975.36000000034,"y":2578214.1600000001}},{"attributes":{"ID":108343,"DIS_CODE":0,"TOWNNAME":"東山區","LI":"科里里","LIN":"9鄰","STREET":" ","SECT":" ","MAREA":"科里","LANE":" ","ALLEY":" ","HOUSE_NO":"１４５號","E_COORD97":189980.37,"N_COORD97":2578214.8900000001,"ADDRESS":"科里１４５號","OBJECTID":108343},"geometry":{"x":189980.37000000011,"y":2578214.8900000025}},{"attributes":{"ID":108344,"DIS_CODE":0,"TOWNNAME":"東山區","LI":"科里里","LIN":"9鄰","STREET":" ","SECT":" ","MAREA":"科里","LANE":" ","ALLEY":" ","HOUSE_NO":"４５號之２","E_COORD97":189869.82000000001,"N_COORD97":2578120.8500000001,"ADDRESS":"科里４５號之２","OBJECTID":108344},"geometry":{"x":189869.82000000123,"y":2578120.8499999996}},{"attributes":{"ID":108345,"DIS_CODE":0,"TOWNNAME":"東山區","LI":"科里里","LIN":"9鄰","STREET":" ","SECT":" ","MAREA":"科里","LANE":" ","ALLEY":" ","HOUSE_NO":"４５號之３","E_COORD97":189939.41,"N_COORD97":2578101.96,"ADDRESS":"科里４５號之３","OBJECTID":108345},"geometry":{"x":189939.41000000015,"y":2578101.959999999}},{"attributes":{"ID":108346,"DIS_CODE":0,"TOWNNAME":"東山區","LI":"科里里","LIN":"9鄰","STREET":" ","SECT":" ","MAREA":"科里","LANE":" ","ALLEY":" ","HOUSE_NO":"４５號之４","E_COORD97":189894.57999999999,"N_COORD97":2578120.8799999999,"ADDRESS":"科里４５號之４","OBJECTID":108346},"geometry":{"x":189894.58000000101,"y":2578120.8800000027}},{"attributes":{"ID":108347,"DIS_CODE":0,"TOWNNAME":"東山區","LI":"科里里","LIN":"9鄰","STREET":" ","SECT":" ","MAREA":"科里","LANE":" ","ALLEY":" ","HOUSE_NO":"４５號之５","E_COORD97":189937.92999999999,"N_COORD97":2578074.54,"ADDRESS":"科里４５號之５","OBJECTID":108347},"geometry":{"x":189937.93000000063,"y":2578074.5399999991}},{"attributes":{"ID":108348,"DIS_CODE":0,"TOWNNAME":"東山區","LI":"科里里","LIN":"9鄰","STREET":" ","SECT":" ","MAREA":"科里","LANE":" ","ALLEY":" ","HOUSE_NO":"４５號之６","E_COORD97":189859.23999999999,"N_COORD97":2578155.4700000002,"ADDRESS":"科里４５號之６","OBJECTID":108348},"geometry":{"x":189859.24000000022,"y":2578155.4700000007}},{"attributes":{"ID":108349,"DIS_CODE":0,"TOWNNAME":"東山區","LI":"科里里","LIN":"9鄰","STREET":" ","SECT":" ","MAREA":"科里","LANE":" ","ALLEY":" ","HOUSE_NO":"４７號之１","E_COORD97":189981.32999999999,"N_COORD97":2578119.0299999998,"ADDRESS":"科里４７號之１","OBJECTID":108349},"geometry":{"x":189981.33000000101,"y":2578119.0299999993}},{"attributes":{"ID":108350,"DIS_CODE":0,"TOWNNAME":"東山區","LI":"科里里","LIN":"9鄰","STREET":" ","SECT":" ","MAREA":"科里","LANE":" ","ALLEY":" ","HOUSE_NO":"４７號","E_COORD97":189976.95999999999,"N_COORD97":2578120.9100000001,"ADDRESS":"科里４７號","OBJECTID":108350},"geometry":{"x":189976.96000000089,"y":2578120.9100000001}},{"attributes":{"ID":108351,"DIS_CODE":0,"TOWNNAME":"東山區","LI":"科里里","LIN":"9鄰","STREET":" ","SECT":" ","MAREA":"科里","LANE":" ","ALLEY":" ","HOUSE_NO":"４８號之１","E_COORD97":189998.42000000001,"N_COORD97":2578103.0899999999,"ADDRESS":"科里４８號之１","OBJECTID":108351},"geometry":{"x":189998.41999999993,"y":2578103.0899999999}},{"attributes":{"ID":108352,"DIS_CODE":0,"TOWNNAME":"東山區","LI":"科里里","LIN":"9鄰","STREET":" ","SECT":" ","MAREA":"科里","LANE":" ","ALLEY":" ","HOUSE_NO":"４８號之２","E_COORD97":190009.14999999999,"N_COORD97":2578119.6400000001,"ADDRESS":"科里４８號之２","OBJECTID":108352},"geometry":{"x":190009.15000000037,"y":2578119.6400000006}},{"attributes":{"ID":108353,"DIS_CODE":0,"TOWNNAME":"東山區","LI":"科里里","LIN":"9鄰","STREET":" ","SECT":" ","MAREA":"科里","LANE":" ","ALLEY":" ","HOUSE_NO":"４８號之５","E_COORD97":190038.64999999999,"N_COORD97":2578088.3199999998,"ADDRESS":"科里４８號之５","OBJECTID":108353},"geometry":{"x":190038.6500000013,"y":2578088.3200000003}},{"attributes":{"ID":108354,"DIS_CODE":0,"TOWNNAME":"永康區","LI":"\u25A0行里","LIN":"23鄰","STREET":"中正南路","SECT":" ","MAREA":" ","LANE":"５９２巷","ALLEY":"３８弄","HOUSE_NO":"２７號","E_COORD97":171656.23000000001,"N_COORD97":2548616.3900000001,"ADDRESS":"中正南路５９２巷３８弄２７號","OBJECTID":108354},"geometry":{"x":171656.23000000045,"y":2548616.3900000043}},{"attributes":{"ID":108355,"DIS_CODE":0,"TOWNNAME":"東山區","LI":"科里里","LIN":"9鄰","STREET":" ","SECT":" ","MAREA":"科里","LANE":" ","ALLEY":" ","HOUSE_NO":"４８號之６","E_COORD97":190036.23999999999,"N_COORD97":2578092.1699999999,"ADDRESS":"科里４８號之６","OBJECTID":108355},"geometry":{"x":190036.24000000115,"y":2578092.1699999999}},{"attributes":{"ID":108356,"DIS_CODE":0,"TOWNNAME":"永康區","LI":"\u25A0行里","LIN":"35鄰","STREET":"中正北路","SECT":" ","MAREA":" ","LANE":"１７７巷","ALLEY":"１１弄","HOUSE_NO":"４號","E_COORD97":172358.76999999999,"N_COORD97":2549169.79,"ADDRESS":"中正北路１７７巷１１弄４號","OBJECTID":108356},"geometry":{"x":172358.76999999955,"y":2549169.7899999991}},{"attributes":{"ID":108357,"DIS_CODE":0,"TOWNNAME":"永康區","LI":"\u25A0洲里","LIN":"6鄰","STREET":"三村二街","SECT":" ","MAREA":" ","LANE":"１２巷","ALLEY":"１弄","HOUSE_NO":"１２號","E_COORD97":171966.01000000001,"N_COORD97":2549472.7400000002,"ADDRESS":"三村二街１２巷１弄１２號","OBJECTID":108357},"geometry":{"x":171966.00999999978,"y":2549472.7400000021}},{"attributes":{"ID":108358,"DIS_CODE":0,"TOWNNAME":"永康區","LI":"\u25A0行里","LIN":"40鄰","STREET":"永安路","SECT":" ","MAREA":" ","LANE":"１０５巷","ALLEY":"４０弄","HOUSE_NO":"５８號","E_COORD97":172640.85000000001,"N_COORD97":2549350.5699999998,"ADDRESS":"永安路１０５巷４０弄５８號","OBJECTID":108358},"geometry":{"x":172640.85000000056,"y":2549350.570000004}},{"attributes":{"ID":108359,"DIS_CODE":0,"TOWNNAME":"永康區","LI":"\u25A0行里","LIN":"35鄰","STREET":"中正北路","SECT":" ","MAREA":" ","LANE":"１７７巷","ALLEY":"１１弄","HOUSE_NO":"１號","E_COORD97":172371.67000000001,"N_COORD97":2549169.79,"ADDRESS":"中正北路１７７巷１１弄１號","OBJECTID":108359},"geometry":{"x":172371.66999999993,"y":2549169.7899999991}},{"attributes":{"ID":108360,"DIS_CODE":0,"TOWNNAME":"永康區","LI":"建國里","LIN":" ","STREET":"復興路","SECT":" ","MAREA":" ","LANE":"１巷","ALLEY":"３０弄","HOUSE_NO":"２１２號","E_COORD97":173040.01000000001,"N_COORD97":2543527.6699999999,"ADDRESS":"復興路１巷３０弄２１２號","OBJECTID":108360},"geometry":{"x":173040.01000000071,"y":2543527.6699999999}},{"attributes":{"ID":108361,"DIS_CODE":0,"TOWNNAME":"東山區","LI":"科里里","LIN":"9鄰","STREET":" ","SECT":" ","MAREA":"科里","LANE":" ","ALLEY":" ","HOUSE_NO":"４８號之７","E_COORD97":190015.07000000001,"N_COORD97":2578159.7999999998,"ADDRESS":"科里４８號之７","OBJECTID":108361},"geometry":{"x":190015.07000000216,"y":2578159.8000000007}},{"attributes":{"ID":108362,"DIS_CODE":0,"TOWNNAME":"東山區","LI":"科里里","LIN":"9鄰","STREET":" ","SECT":" ","MAREA":"科里","LANE":" ","ALLEY":" ","HOUSE_NO":"５０號之１","E_COORD97":189976.10000000001,"N_COORD97":2578140.1499999999,"ADDRESS":"科里５０號之１","OBJECTID":108362},"geometry":{"x":189976.09999999963,"y":2578140.1500000004}},{"attributes":{"ID":108363,"DIS_CODE":0,"TOWNNAME":"東山區","LI":"科里里","LIN":"9鄰","STREET":" ","SECT":" ","MAREA":"科里","LANE":" ","ALLEY":" ","HOUSE_NO":"５０號","E_COORD97":189980,"N_COORD97":2578161.1600000001,"ADDRESS":"科里５０號","OBJECTID":108363},"geometry":{"x":189980.00000000093,"y":2578161.1600000039}},{"attributes":{"ID":108364,"DIS_CODE":0,"TOWNNAME":"麻豆區","LI":"埤頭里","LIN":"9鄰","STREET":" ","SECT":" ","MAREA":"埤頭","LANE":" ","ALLEY":" ","HOUSE_NO":"７１號","E_COORD97":170742.20000000001,"N_COORD97":2566115.71,"ADDRESS":"埤頭７１號","OBJECTID":108364},"geometry":{"x":170742.20000000112,"y":2566115.7100000046}},{"attributes":{"ID":108365,"DIS_CODE":0,"TOWNNAME":"麻豆區","LI":"埤頭里","LIN":"9鄰","STREET":" ","SECT":" ","MAREA":"埤頭","LANE":" ","ALLEY":" ","HOUSE_NO":"７２號","E_COORD97":170782.79999999999,"N_COORD97":2566099.6499999999,"ADDRESS":"埤頭７２號","OBJECTID":108365},"geometry":{"x":170782.80000000168,"y":2566099.6500000022}},{"attributes":{"ID":108366,"DIS_CODE":0,"TOWNNAME":"麻豆區","LI":"埤頭里","LIN":"9鄰","STREET":" ","SECT":" ","MAREA":"埤頭","LANE":" ","ALLEY":" ","HOUSE_NO":"７３號之２","E_COORD97":170755.95000000001,"N_COORD97":2566083.4900000002,"ADDRESS":"埤頭７３號之２","OBJECTID":108366},"geometry":{"x":170755.95000000019,"y":2566083.4900000021}},{"attributes":{"ID":108367,"DIS_CODE":0,"TOWNNAME":"麻豆區","LI":"埤頭里","LIN":"9鄰","STREET":" ","SECT":" ","MAREA":"埤頭","LANE":" ","ALLEY":" ","HOUSE_NO":"７３號之３","E_COORD97":170740.72,"N_COORD97":2566147.6299999999,"ADDRESS":"埤頭７３號之３","OBJECTID":108367},"geometry":{"x":170740.7200000016,"y":2566147.6299999971}},{"attributes":{"ID":108368,"DIS_CODE":0,"TOWNNAME":"麻豆區","LI":"埤頭里","LIN":"9鄰","STREET":" ","SECT":" ","MAREA":"埤頭","LANE":" ","ALLEY":" ","HOUSE_NO":"７３號","E_COORD97":170748.22,"N_COORD97":2566089.04,"ADDRESS":"埤頭７３號","OBJECTID":108368},"geometry":{"x":170748.22000000067,"y":2566089.040000001}},{"attributes":{"ID":108369,"DIS_CODE":0,"TOWNNAME":"麻豆區","LI":"埤頭里","LIN":"9鄰","STREET":" ","SECT":" ","MAREA":"埤頭","LANE":" ","ALLEY":" ","HOUSE_NO":"７４號之１０","E_COORD97":170687.60000000001,"N_COORD97":2566061.8900000001,"ADDRESS":"埤頭７４號之１０","OBJECTID":108369},"geometry":{"x":170687.60000000056,"y":2566061.8900000006}},{"attributes":{"ID":108370,"DIS_CODE":0,"TOWNNAME":"麻豆區","LI":"埤頭里","LIN":"9鄰","STREET":" ","SECT":" ","MAREA":"埤頭","LANE":" ","ALLEY":" ","HOUSE_NO":"７４號之１１","E_COORD97":170692.10999999999,"N_COORD97":2566062.2999999998,"ADDRESS":"埤頭７４號之１１","OBJECTID":108370},"geometry":{"x":170692.11000000127,"y":2566062.3000000007}},{"attributes":{"ID":108371,"DIS_CODE":0,"TOWNNAME":"麻豆區","LI":"埤頭里","LIN":"9鄰","STREET":" ","SECT":" ","MAREA":"埤頭","LANE":" ","ALLEY":" ","HOUSE_NO":"７４號之１２","E_COORD97":170696.63,"N_COORD97":2566062.71,"ADDRESS":"埤頭７４號之１２","OBJECTID":108371},"geometry":{"x":170696.62999999989,"y":2566062.7100000028}},{"attributes":{"ID":108372,"DIS_CODE":0,"TOWNNAME":"麻豆區","LI":"埤頭里","LIN":"9鄰","STREET":" ","SECT":" ","MAREA":"埤頭","LANE":" ","ALLEY":" ","HOUSE_NO":"７４號之１３","E_COORD97":170701.14999999999,"N_COORD97":2566063.1099999999,"ADDRESS":"埤頭７４號之１３","OBJECTID":108372},"geometry":{"x":170701.15000000224,"y":2566063.1099999994}},{"attributes":{"ID":108373,"DIS_CODE":0,"TOWNNAME":"麻豆區","LI":"埤頭里","LIN":"9鄰","STREET":" ","SECT":" ","MAREA":"埤頭","LANE":" ","ALLEY":" ","HOUSE_NO":"７４號之１４","E_COORD97":170705.66,"N_COORD97":2566063.52,"ADDRESS":"埤頭７４號之１４","OBJECTID":108373},"geometry":{"x":170705.66000000015,"y":2566063.5199999996}},{"attributes":{"ID":108374,"DIS_CODE":0,"TOWNNAME":"麻豆區","LI":"埤頭里","LIN":"9鄰","STREET":" ","SECT":" ","MAREA":"埤頭","LANE":" ","ALLEY":" ","HOUSE_NO":"７４號之１６","E_COORD97":170658.13,"N_COORD97":2566144.9900000002,"ADDRESS":"埤頭７４號之１６","OBJECTID":108374},"geometry":{"x":170658.12999999989,"y":2566144.9900000021}},{"attributes":{"ID":108375,"DIS_CODE":0,"TOWNNAME":"麻豆區","LI":"埤頭里","LIN":"9鄰","STREET":" ","SECT":" ","MAREA":"埤頭","LANE":" ","ALLEY":" ","HOUSE_NO":"７４號之２","E_COORD97":170668.66,"N_COORD97":2566083.98,"ADDRESS":"埤頭７４號之２","OBJECTID":108375},"geometry":{"x":170668.66000000201,"y":2566083.9800000023}},{"attributes":{"ID":108376,"DIS_CODE":0,"TOWNNAME":"麻豆區","LI":"埤頭里","LIN":"9鄰","STREET":" ","SECT":" ","MAREA":"埤頭","LANE":" ","ALLEY":" ","HOUSE_NO":"７４號之５","E_COORD97":170664.62,"N_COORD97":2566059.2799999998,"ADDRESS":"埤頭７４號之５","OBJECTID":108376},"geometry":{"x":170664.62000000104,"y":2566059.2800000031}},{"attributes":{"ID":108377,"DIS_CODE":0,"TOWNNAME":"麻豆區","LI":"埤頭里","LIN":"9鄰","STREET":" ","SECT":" ","MAREA":"埤頭","LANE":" ","ALLEY":" ","HOUSE_NO":"７４號之６","E_COORD97":170669.92000000001,"N_COORD97":2566059.5899999999,"ADDRESS":"埤頭７４號之６","OBJECTID":108377},"geometry":{"x":170669.91999999993,"y":2566059.5899999999}},{"attributes":{"ID":108378,"DIS_CODE":0,"TOWNNAME":"麻豆區","LI":"埤頭里","LIN":"9鄰","STREET":" ","SECT":" ","MAREA":"埤頭","LANE":" ","ALLEY":" ","HOUSE_NO":"７４號之９","E_COORD97":170683.07999999999,"N_COORD97":2566061.3100000001,"ADDRESS":"埤頭７４號之９","OBJECTID":108378},"geometry":{"x":170683.08000000101,"y":2566061.3100000024}},{"attributes":{"ID":108379,"DIS_CODE":0,"TOWNNAME":"麻豆區","LI":"埤頭里","LIN":"9鄰","STREET":" ","SECT":" ","MAREA":"埤頭","LANE":" ","ALLEY":" ","HOUSE_NO":"７４號","E_COORD97":170732.81,"N_COORD97":2566096.8700000001,"ADDRESS":"埤頭７４號","OBJECTID":108379},"geometry":{"x":170732.80999999959,"y":2566096.870000001}},{"attributes":{"ID":108380,"DIS_CODE":0,"TOWNNAME":"麻豆區","LI":"埤頭里","LIN":"9鄰","STREET":" ","SECT":" ","MAREA":"埤頭","LANE":" ","ALLEY":" ","HOUSE_NO":"７６號","E_COORD97":170735.51999999999,"N_COORD97":2566049.98,"ADDRESS":"埤頭７６號","OBJECTID":108380},"geometry":{"x":170735.52000000048,"y":2566049.9800000023}},{"attributes":{"ID":108381,"DIS_CODE":0,"TOWNNAME":"永康區","LI":"\u25A0行里","LIN":"23鄰","STREET":"中正南路","SECT":" ","MAREA":" ","LANE":"５９２巷","ALLEY":"３８弄","HOUSE_NO":"２３號","E_COORD97":171649.70000000001,"N_COORD97":2548610.1400000001,"ADDRESS":"中正南路５９２巷３８弄２３號","OBJECTID":108381},"geometry":{"x":171649.70000000019,"y":2548610.1400000006}},{"attributes":{"ID":108382,"DIS_CODE":0,"TOWNNAME":"鹽水區","LI":"大莊里","LIN":"9鄰","STREET":" ","SECT":" ","MAREA":"大莊","LANE":" ","ALLEY":" ","HOUSE_NO":"１４之３號","E_COORD97":172961.23999999999,"N_COORD97":2576935.4700000002,"ADDRESS":"大莊１４之３號","OBJECTID":108382},"geometry":{"x":172961.24000000022,"y":2576935.4700000044}},{"attributes":{"ID":108383,"DIS_CODE":0,"TOWNNAME":"安定區","LI":"港南里","LIN":"1鄰","STREET":" ","SECT":" ","MAREA":"港口","LANE":" ","ALLEY":" ","HOUSE_NO":"５之８號","E_COORD97":171043.98999999999,"N_COORD97":2554263.2999999998,"ADDRESS":"港口５之８號","OBJECTID":108383},"geometry":{"x":171043.99000000022,"y":2554263.3000000026}},{"attributes":{"ID":108384,"DIS_CODE":0,"TOWNNAME":"安定區","LI":"南安里","LIN":"1鄰","STREET":" ","SECT":" ","MAREA":"油車","LANE":" ","ALLEY":" ","HOUSE_NO":"６之２４號","E_COORD97":170763.73999999999,"N_COORD97":2555963.2999999998,"ADDRESS":"油車６之２４號","OBJECTID":108384},"geometry":{"x":170763.74000000115,"y":2555963.3000000007}},{"attributes":{"ID":108385,"DIS_CODE":0,"TOWNNAME":"安定區","LI":"蘇厝里","LIN":"1鄰","STREET":" ","SECT":" ","MAREA":"蘇厝","LANE":" ","ALLEY":" ","HOUSE_NO":"２８３號","E_COORD97":173334.01999999999,"N_COORD97":2558552.25,"ADDRESS":"蘇厝２８３號","OBJECTID":108385},"geometry":{"x":173334.02000000048,"y":2558552.25}},{"attributes":{"ID":108386,"DIS_CODE":0,"TOWNNAME":"安定區","LI":"蘇林里","LIN":"1鄰","STREET":" ","SECT":" ","MAREA":"蘇厝","LANE":" ","ALLEY":" ","HOUSE_NO":"１０之１０號","E_COORD97":173655.12,"N_COORD97":2558572.2999999998,"ADDRESS":"蘇厝１０之１０號","OBJECTID":108386},"geometry":{"x":173655.12000000011,"y":2558572.3000000026}},{"attributes":{"ID":108387,"DIS_CODE":0,"TOWNNAME":"安定區","LI":"蘇林里","LIN":"1鄰","STREET":" ","SECT":" ","MAREA":"蘇厝","LANE":" ","ALLEY":" ","HOUSE_NO":"８之２１號","E_COORD97":173701.01863999999,"N_COORD97":2558567.2439299999,"ADDRESS":"蘇厝８之２１號","OBJECTID":108387},"geometry":{"x":173701.01864000037,"y":2558567.2439280003}},{"attributes":{"ID":108388,"DIS_CODE":0,"TOWNNAME":"安南區","LI":"安東里","LIN":"1鄰","STREET":"安和路","SECT":"一段","MAREA":" ","LANE":" ","ALLEY":" ","HOUSE_NO":"４１６號","E_COORD97":169352.01000000001,"N_COORD97":2548319.8700000001,"ADDRESS":"安和路一段４１６號","OBJECTID":108388},"geometry":{"x":169352.00999999978,"y":2548319.8700000029}},{"attributes":{"ID":108389,"DIS_CODE":0,"TOWNNAME":"安定區","LI":"新吉里","LIN":"1鄰","STREET":" ","SECT":" ","MAREA":"新吉","LANE":" ","ALLEY":" ","HOUSE_NO":"２之１４號","E_COORD97":169183.87,"N_COORD97":2554121.2999999998,"ADDRESS":"新吉２之１４號","OBJECTID":108389},"geometry":{"x":169183.86999999918,"y":2554121.3000000007}},{"attributes":{"ID":108390,"DIS_CODE":0,"TOWNNAME":"安定區","LI":"港南里","LIN":"1鄰","STREET":" ","SECT":" ","MAREA":"港口","LANE":" ","ALLEY":" ","HOUSE_NO":"５之１６號","E_COORD97":171029.14000000001,"N_COORD97":2554255.2999999998,"ADDRESS":"港口５之１６號","OBJECTID":108390},"geometry":{"x":171029.13999999966,"y":2554255.3000000045}},{"attributes":{"ID":108391,"DIS_CODE":0,"TOWNNAME":"安定區","LI":"新吉里","LIN":"1鄰","STREET":" ","SECT":" ","MAREA":"新吉","LANE":" ","ALLEY":" ","HOUSE_NO":"１號之９","E_COORD97":169119.84,"N_COORD97":2554172.2999999998,"ADDRESS":"新吉１號之９","OBJECTID":108391},"geometry":{"x":169119.84000000078,"y":2554172.3000000007}},{"attributes":{"ID":108392,"DIS_CODE":0,"TOWNNAME":"安定區","LI":"港南里","LIN":"1鄰","STREET":" ","SECT":" ","MAREA":"港口","LANE":" ","ALLEY":" ","HOUSE_NO":"２之１０號","E_COORD97":171154.54000000001,"N_COORD97":2554242.2999999998,"ADDRESS":"港口２之１０號","OBJECTID":108392},"geometry":{"x":171154.54000000097,"y":2554242.3000000026}},{"attributes":{"ID":108393,"DIS_CODE":0,"TOWNNAME":"安定區","LI":"港南里","LIN":"1鄰","STREET":" ","SECT":" ","MAREA":"港口","LANE":" ","ALLEY":" ","HOUSE_NO":"３之１號","E_COORD97":171113.19,"N_COORD97":2554291.2999999998,"ADDRESS":"港口３之１號","OBJECTID":108393},"geometry":{"x":171113.19000000134,"y":2554291.3000000007}},{"attributes":{"ID":108394,"DIS_CODE":0,"TOWNNAME":"安定區","LI":"港南里","LIN":"1鄰","STREET":" ","SECT":" ","MAREA":"港口","LANE":" ","ALLEY":" ","HOUSE_NO":"７之４號","E_COORD97":171175.89000000001,"N_COORD97":2554298.2999999998,"ADDRESS":"港口７之４號","OBJECTID":108394},"geometry":{"x":171175.8900000006,"y":2554298.3000000007}},{"attributes":{"ID":108395,"DIS_CODE":0,"TOWNNAME":"安定區","LI":"港南里","LIN":"1鄰","STREET":" ","SECT":" ","MAREA":"港口","LANE":" ","ALLEY":" ","HOUSE_NO":"５之１２號","E_COORD97":171036.14000000001,"N_COORD97":2554338.2999999998,"ADDRESS":"港口５之１２號","OBJECTID":108395},"geometry":{"x":171036.14000000153,"y":2554338.3000000007}},{"attributes":{"ID":108396,"DIS_CODE":0,"TOWNNAME":"安定區","LI":"港南里","LIN":"1鄰","STREET":" ","SECT":" ","MAREA":"港口","LANE":" ","ALLEY":" ","HOUSE_NO":"９號之５","E_COORD97":171237.69,"N_COORD97":2554309.2999999998,"ADDRESS":"港口９之５號","OBJECTID":108396},"geometry":{"x":171237.69000000041,"y":2554309.3000000045}},{"attributes":{"ID":108397,"DIS_CODE":0,"TOWNNAME":"安定區","LI":"港南里","LIN":"1鄰","STREET":" ","SECT":" ","MAREA":"港口","LANE":" ","ALLEY":" ","HOUSE_NO":"１０之１１號","E_COORD97":171175.69,"N_COORD97":2554175.2999999998,"ADDRESS":"港口１０之１１號","OBJECTID":108397},"geometry":{"x":171175.69000000227,"y":2554175.3000000026}},{"attributes":{"ID":108398,"DIS_CODE":0,"TOWNNAME":"永康區","LI":"\u25A0行里","LIN":"35鄰","STREET":"中正北路","SECT":" ","MAREA":" ","LANE":"１７７巷","ALLEY":"１８弄","HOUSE_NO":"２１號","E_COORD97":172435.88,"N_COORD97":2549215.6299999999,"ADDRESS":"中正北路１７７巷１８弄２１號","OBJECTID":108398},"geometry":{"x":172435.87999999989,"y":2549215.629999999}},{"attributes":{"ID":108399,"DIS_CODE":0,"TOWNNAME":"安定區","LI":"港南里","LIN":"1鄰","STREET":" ","SECT":" ","MAREA":"港口","LANE":" ","ALLEY":" ","HOUSE_NO":"７號之１６","E_COORD97":171144.23999999999,"N_COORD97":2554318.2999999998,"ADDRESS":"港口７之１６號","OBJECTID":108399},"geometry":{"x":171144.24000000022,"y":2554318.3000000007}},{"attributes":{"ID":108400,"DIS_CODE":0,"TOWNNAME":"歸仁區","LI":"辜厝里","LIN":"44鄰","STREET":"中正八街","SECT":" ","MAREA":" ","LANE":" ","ALLEY":" ","HOUSE_NO":"２號","E_COORD97":177159.44,"N_COORD97":2540255.9500000002,"ADDRESS":"中正八街２號","OBJECTID":108400},"geometry":{"x":177159.44000000041,"y":2540255.9499999993}}]}