{"displayFieldName":"TOWNNAME","fieldAliases":{"ID":"ID","DIS_CODE":"DIS_CODE","TOWNNAME":"TOWNNAME","LI":"LI","LIN":"LIN","STREET":"STREET","SECT":"SECT","MAREA":"MAREA","LANE":"LANE","ALLEY":"ALLEY","HOUSE_NO":"HOUSE_NO","E_COORD97":"E_COORD97","N_COORD97":"N_COORD97","ADDRESS":"ADDRESS","OBJECTID":"OBJECTID"},"geometryType":"esriGeometryPoint","spatialReference":{"wkid":102443,"latestWkid":3826},"fields":[{"name":"ID","type":"esriFieldTypeDouble","alias":"ID"},{"name":"DIS_CODE","type":"esriFieldTypeInteger","alias":"DIS_CODE"},{"name":"TOWNNAME","type":"esriFieldTypeString","alias":"TOWNNAME","length":8},{"name":"LI","type":"esriFieldTypeString","alias":"LI","length":8},{"name":"LIN","type":"esriFieldTypeString","alias":"LIN","length":12},{"name":"STREET","type":"esriFieldTypeString","alias":"STREET","length":20},{"name":"SECT","type":"esriFieldTypeString","alias":"SECT","length":8},{"name":"MAREA","type":"esriFieldTypeString","alias":"MAREA","length":12},{"name":"LANE","type":"esriFieldTypeString","alias":"LANE","length":10},{"name":"ALLEY","type":"esriFieldTypeString","alias":"ALLEY","length":10},{"name":"HOUSE_NO","type":"esriFieldTypeString","alias":"HOUSE_NO","length":20},{"name":"E_COORD97","type":"esriFieldTypeDouble","alias":"E_COORD97"},{"name":"N_COORD97","type":"esriFieldTypeDouble","alias":"N_COORD97"},{"name":"ADDRESS","type":"esriFieldTypeString","alias":"ADDRESS","length":50},{"name":"OBJECTID","type":"esriFieldTypeOID","alias":"OBJECTID"}],"features":[{"attributes":{"ID":88601,"DIS_CODE":0,"TOWNNAME":"安南區","LI":"理想里","LIN":"10鄰","STREET":"海佃路","SECT":"二段","MAREA":" ","LANE":"１５０巷","ALLEY":"２８弄","HOUSE_NO":"４９號","E_COORD97":167163.75,"N_COORD97":2548119.0899999999,"ADDRESS":"海佃路二段１５０巷２８弄４９號","OBJECTID":88601},"geometry":{"x":167163.75,"y":2548119.0900000036}},{"attributes":{"ID":88602,"DIS_CODE":0,"TOWNNAME":"安南區","LI":"淵西里","LIN":"10鄰","STREET":"安中路","SECT":"四段","MAREA":" ","LANE":"３２０巷","ALLEY":"１１６弄","HOUSE_NO":"２號","E_COORD97":164624.29999999999,"N_COORD97":2550402.2400000002,"ADDRESS":"安中路四段３２０巷１１６弄２號","OBJECTID":88602},"geometry":{"x":164624.30000000075,"y":2550402.2400000002}},{"attributes":{"ID":88603,"DIS_CODE":0,"TOWNNAME":"安南區","LI":"淵西里","LIN":"10鄰","STREET":"安中路","SECT":"四段","MAREA":" ","LANE":"３２０巷","ALLEY":"１１６弄","HOUSE_NO":"６號","E_COORD97":164612.48999999999,"N_COORD97":2550389.9199999999,"ADDRESS":"安中路四段３２０巷１１６弄６號","OBJECTID":88603},"geometry":{"x":164612.49000000022,"y":2550389.9200000018}},{"attributes":{"ID":88604,"DIS_CODE":0,"TOWNNAME":"安南區","LI":"淵西里","LIN":"10鄰","STREET":"安中路","SECT":"四段","MAREA":" ","LANE":"３２０巷","ALLEY":"１１６弄","HOUSE_NO":"８號","E_COORD97":164584.54999999999,"N_COORD97":2550371.25,"ADDRESS":"安中路四段３２０巷１１６弄８號","OBJECTID":88604},"geometry":{"x":164584.54999999981,"y":2550371.25}},{"attributes":{"ID":88605,"DIS_CODE":0,"TOWNNAME":"玉井區","LI":"層林里","LIN":"15鄰","STREET":" ","SECT":" ","MAREA":"層林","LANE":" ","ALLEY":" ","HOUSE_NO":"３１號之１","E_COORD97":193688.39000000001,"N_COORD97":2553520.29,"ADDRESS":"層林３１號之１","OBJECTID":88605},"geometry":{"x":193688.38999999966,"y":2553520.2899999991}},{"attributes":{"ID":88606,"DIS_CODE":0,"TOWNNAME":"後壁區","LI":"烏樹里","LIN":"12鄰","STREET":" ","SECT":" ","MAREA":"烏樹林","LANE":" ","ALLEY":" ","HOUSE_NO":"１３７號","E_COORD97":186274.64999999999,"N_COORD97":2580960.3900000001,"ADDRESS":"烏樹林１３７號","OBJECTID":88606},"geometry":{"x":186274.65000000037,"y":2580960.3900000043}},{"attributes":{"ID":88607,"DIS_CODE":0,"TOWNNAME":"後壁區","LI":"烏樹里","LIN":"12鄰","STREET":" ","SECT":" ","MAREA":"烏樹林","LANE":" ","ALLEY":" ","HOUSE_NO":"１３９號之９","E_COORD97":186239.54000000001,"N_COORD97":2580933.7799999998,"ADDRESS":"烏樹林１３９號之９","OBJECTID":88607},"geometry":{"x":186239.54000000004,"y":2580933.7800000012}},{"attributes":{"ID":88608,"DIS_CODE":0,"TOWNNAME":"後壁區","LI":"烏樹里","LIN":"12鄰","STREET":" ","SECT":" ","MAREA":"烏樹林","LANE":" ","ALLEY":" ","HOUSE_NO":"１４０號之４","E_COORD97":186055.35999999999,"N_COORD97":2581137.5299999998,"ADDRESS":"烏樹林１４０號之４","OBJECTID":88608},"geometry":{"x":186055.36000000127,"y":2581137.5299999993}},{"attributes":{"ID":88609,"DIS_CODE":0,"TOWNNAME":"後壁區","LI":"烏樹里","LIN":"12鄰","STREET":" ","SECT":" ","MAREA":"烏樹林","LANE":" ","ALLEY":" ","HOUSE_NO":"１４１號之１","E_COORD97":186278.20999999999,"N_COORD97":2580849.8799999999,"ADDRESS":"烏樹林１４１號之１","OBJECTID":88609},"geometry":{"x":186278.21000000089,"y":2580849.879999999}},{"attributes":{"ID":88610,"DIS_CODE":0,"TOWNNAME":"後壁區","LI":"烏樹里","LIN":"12鄰","STREET":" ","SECT":" ","MAREA":"烏樹林","LANE":" ","ALLEY":" ","HOUSE_NO":"１４５號","E_COORD97":186370.82999999999,"N_COORD97":2580881.7200000002,"ADDRESS":"烏樹林１４５號","OBJECTID":88610},"geometry":{"x":186370.83000000101,"y":2580881.7200000025}},{"attributes":{"ID":88611,"DIS_CODE":0,"TOWNNAME":"後壁區","LI":"烏樹里","LIN":"12鄰","STREET":" ","SECT":" ","MAREA":"烏樹林","LANE":" ","ALLEY":" ","HOUSE_NO":"１７２號","E_COORD97":186119.39000000001,"N_COORD97":2580813.3900000001,"ADDRESS":"烏樹林１７２號","OBJECTID":88611},"geometry":{"x":186119.38999999966,"y":2580813.3900000006}},{"attributes":{"ID":88612,"DIS_CODE":0,"TOWNNAME":"後壁區","LI":"烏樹里","LIN":"12鄰","STREET":" ","SECT":" ","MAREA":"烏樹林","LANE":" ","ALLEY":" ","HOUSE_NO":"１７８號之１","E_COORD97":186253.01999999999,"N_COORD97":2580842.8100000001,"ADDRESS":"烏樹林１７８號之１","OBJECTID":88612},"geometry":{"x":186253.02000000142,"y":2580842.8100000024}},{"attributes":{"ID":88613,"DIS_CODE":0,"TOWNNAME":"後壁區","LI":"烏樹里","LIN":"12鄰","STREET":" ","SECT":" ","MAREA":"烏樹林","LANE":" ","ALLEY":" ","HOUSE_NO":"１７８號之２","E_COORD97":186258.73999999999,"N_COORD97":2580845.1899999999,"ADDRESS":"烏樹林１７８號之２","OBJECTID":88613},"geometry":{"x":186258.74000000022,"y":2580845.1900000032}},{"attributes":{"ID":88614,"DIS_CODE":0,"TOWNNAME":"後壁區","LI":"烏樹里","LIN":"12鄰","STREET":" ","SECT":" ","MAREA":"烏樹林","LANE":" ","ALLEY":" ","HOUSE_NO":"１７８號之３","E_COORD97":186264.81,"N_COORD97":2580847.8300000001,"ADDRESS":"烏樹林１７８號之３","OBJECTID":88614},"geometry":{"x":186264.81000000052,"y":2580847.8300000001}},{"attributes":{"ID":88615,"DIS_CODE":0,"TOWNNAME":"後壁區","LI":"烏樹里","LIN":"12鄰","STREET":" ","SECT":" ","MAREA":"烏樹林","LANE":" ","ALLEY":" ","HOUSE_NO":"１８４號之１","E_COORD97":186076.07999999999,"N_COORD97":2580885.02,"ADDRESS":"烏樹林１８４號之１","OBJECTID":88615},"geometry":{"x":186076.08000000007,"y":2580885.0200000014}},{"attributes":{"ID":88616,"DIS_CODE":0,"TOWNNAME":"後壁區","LI":"烏樹里","LIN":"12鄰","STREET":" ","SECT":" ","MAREA":"烏樹林","LANE":" ","ALLEY":" ","HOUSE_NO":"１８４號","E_COORD97":185961.51000000001,"N_COORD97":2580794.1400000001,"ADDRESS":"烏樹林１８４號","OBJECTID":88616},"geometry":{"x":185961.50999999885,"y":2580794.1400000025}},{"attributes":{"ID":88617,"DIS_CODE":0,"TOWNNAME":"山上區","LI":"新莊里","LIN":"7鄰","STREET":" ","SECT":" ","MAREA":"大庄","LANE":" ","ALLEY":" ","HOUSE_NO":"１２號","E_COORD97":183887.56,"N_COORD97":2554840.25,"ADDRESS":"大庄１２號","OBJECTID":88617},"geometry":{"x":183887.55999999959,"y":2554840.25}},{"attributes":{"ID":88618,"DIS_CODE":0,"TOWNNAME":"白河區","LI":"內角里","LIN":"12鄰","STREET":" ","SECT":" ","MAREA":"內角","LANE":" ","ALLEY":" ","HOUSE_NO":"１５之７號","E_COORD97":192748.51000000001,"N_COORD97":2588442.3999999999,"ADDRESS":"內角１５之７號","OBJECTID":88618},"geometry":{"x":192748.50999999978,"y":2588442.3999999985}},{"attributes":{"ID":88619,"DIS_CODE":0,"TOWNNAME":"白河區","LI":"內角里","LIN":"12鄰","STREET":" ","SECT":" ","MAREA":"內角","LANE":" ","ALLEY":" ","HOUSE_NO":"１５之８號","E_COORD97":192745.67999999999,"N_COORD97":2588450.5699999998,"ADDRESS":"內角１５之８號","OBJECTID":88619},"geometry":{"x":192745.6799999997,"y":2588450.5700000003}},{"attributes":{"ID":88620,"DIS_CODE":0,"TOWNNAME":"白河區","LI":"內角里","LIN":"12鄰","STREET":" ","SECT":" ","MAREA":"內角","LANE":" ","ALLEY":" ","HOUSE_NO":"１５之９號","E_COORD97":192743.23999999999,"N_COORD97":2588455.7000000002,"ADDRESS":"內角１５之９號","OBJECTID":88620},"geometry":{"x":192743.24000000115,"y":2588455.6999999993}},{"attributes":{"ID":88621,"DIS_CODE":0,"TOWNNAME":"白河區","LI":"六溪里","LIN":"12鄰","STREET":" ","SECT":" ","MAREA":"六重溪","LANE":" ","ALLEY":" ","HOUSE_NO":"１１３之３號","E_COORD97":196466.10999999999,"N_COORD97":2578450.6000000001,"ADDRESS":"六重溪１１３之３號","OBJECTID":88621},"geometry":{"x":196466.11000000034,"y":2578450.6000000015}},{"attributes":{"ID":88622,"DIS_CODE":0,"TOWNNAME":"白河區","LI":"六溪里","LIN":"12鄰","STREET":" ","SECT":" ","MAREA":"六重溪","LANE":" ","ALLEY":" ","HOUSE_NO":"１１４號","E_COORD97":196256.42000000001,"N_COORD97":2578565.1699999999,"ADDRESS":"六重溪１１４號","OBJECTID":88622},"geometry":{"x":196256.42000000086,"y":2578565.1700000018}},{"attributes":{"ID":88623,"DIS_CODE":0,"TOWNNAME":"白河區","LI":"六溪里","LIN":"12鄰","STREET":" ","SECT":" ","MAREA":"六重溪","LANE":" ","ALLEY":" ","HOUSE_NO":"１１５號","E_COORD97":196247.51999999999,"N_COORD97":2578604.1200000001,"ADDRESS":"六重溪１１５號","OBJECTID":88623},"geometry":{"x":196247.51999999955,"y":2578604.1200000029}},{"attributes":{"ID":88624,"DIS_CODE":0,"TOWNNAME":"白河區","LI":"六溪里","LIN":"12鄰","STREET":" ","SECT":" ","MAREA":"六重溪","LANE":" ","ALLEY":" ","HOUSE_NO":"１１６號","E_COORD97":196219.54000000001,"N_COORD97":2578600.77,"ADDRESS":"六重溪１１６號","OBJECTID":88624},"geometry":{"x":196219.54000000097,"y":2578600.7700000014}},{"attributes":{"ID":88625,"DIS_CODE":0,"TOWNNAME":"白河區","LI":"六溪里","LIN":"12鄰","STREET":" ","SECT":" ","MAREA":"六重溪","LANE":" ","ALLEY":" ","HOUSE_NO":"１１７號","E_COORD97":196213.81,"N_COORD97":2578646.9100000001,"ADDRESS":"六重溪１１７號","OBJECTID":88625},"geometry":{"x":196213.81000000052,"y":2578646.9100000001}},{"attributes":{"ID":88626,"DIS_CODE":0,"TOWNNAME":"白河區","LI":"六溪里","LIN":"12鄰","STREET":" ","SECT":" ","MAREA":"六重溪","LANE":" ","ALLEY":" ","HOUSE_NO":"１１８之１號","E_COORD97":195982.19,"N_COORD97":2578953.8100000001,"ADDRESS":"六重溪１１８之１號","OBJECTID":88626},"geometry":{"x":195982.19000000134,"y":2578953.8100000042}},{"attributes":{"ID":88627,"DIS_CODE":0,"TOWNNAME":"白河區","LI":"六溪里","LIN":"12鄰","STREET":" ","SECT":" ","MAREA":"六重溪","LANE":" ","ALLEY":" ","HOUSE_NO":"１２０號","E_COORD97":196619.64999999999,"N_COORD97":2579089.04,"ADDRESS":"六重溪１２０號","OBJECTID":88627},"geometry":{"x":196619.6500000013,"y":2579089.0399999991}},{"attributes":{"ID":88628,"DIS_CODE":0,"TOWNNAME":"白河區","LI":"六溪里","LIN":"12鄰","STREET":" ","SECT":" ","MAREA":"六重溪","LANE":" ","ALLEY":" ","HOUSE_NO":"１２１號","E_COORD97":195517.89999999999,"N_COORD97":2579021.9399999999,"ADDRESS":"六重溪１２１號","OBJECTID":88628},"geometry":{"x":195517.9000000013,"y":2579021.9399999995}},{"attributes":{"ID":88629,"DIS_CODE":0,"TOWNNAME":"白河區","LI":"六溪里","LIN":"12鄰","STREET":" ","SECT":" ","MAREA":"六重溪","LANE":" ","ALLEY":" ","HOUSE_NO":"１２３號","E_COORD97":196598.39000000001,"N_COORD97":2579007.73,"ADDRESS":"六重溪１２３號","OBJECTID":88629},"geometry":{"x":196598.3900000006,"y":2579007.7300000004}},{"attributes":{"ID":88630,"DIS_CODE":0,"TOWNNAME":"將軍區","LI":"苓和里","LIN":"12鄰","STREET":" ","SECT":" ","MAREA":"苓和","LANE":" ","ALLEY":" ","HOUSE_NO":"１１８之１６號","E_COORD97":164269.89999999999,"N_COORD97":2568772.9100000001,"ADDRESS":"苓和１１８之１６號","OBJECTID":88630},"geometry":{"x":164269.9000000013,"y":2568772.910000002}},{"attributes":{"ID":88631,"DIS_CODE":0,"TOWNNAME":"將軍區","LI":"苓和里","LIN":"12鄰","STREET":" ","SECT":" ","MAREA":"苓和","LANE":" ","ALLEY":" ","HOUSE_NO":"１１８之１號","E_COORD97":164345.91,"N_COORD97":2568805.0899999999,"ADDRESS":"苓和１１８之１號","OBJECTID":88631},"geometry":{"x":164345.91000000108,"y":2568805.0900000017}},{"attributes":{"ID":88632,"DIS_CODE":0,"TOWNNAME":"將軍區","LI":"苓和里","LIN":"12鄰","STREET":" ","SECT":" ","MAREA":"苓和","LANE":" ","ALLEY":" ","HOUSE_NO":"１１８之２號","E_COORD97":164324.20999999999,"N_COORD97":2568825.1800000002,"ADDRESS":"苓和１１８之２號","OBJECTID":88632},"geometry":{"x":164324.20999999996,"y":2568825.1799999997}},{"attributes":{"ID":88633,"DIS_CODE":0,"TOWNNAME":"西港區","LI":"港東里","LIN":"12鄰","STREET":" ","SECT":" ","MAREA":"八份","LANE":" ","ALLEY":" ","HOUSE_NO":"８號","E_COORD97":169973.12,"N_COORD97":2558692.9900000002,"ADDRESS":"八份８號","OBJECTID":88633},"geometry":{"x":169973.12000000011,"y":2558692.9900000021}},{"attributes":{"ID":88634,"DIS_CODE":0,"TOWNNAME":"將軍區","LI":"苓和里","LIN":"12鄰","STREET":" ","SECT":" ","MAREA":"苓和","LANE":" ","ALLEY":" ","HOUSE_NO":"１１８之４號","E_COORD97":164352.92000000001,"N_COORD97":2568772.9100000001,"ADDRESS":"苓和１１８之４號","OBJECTID":88634},"geometry":{"x":164352.92000000086,"y":2568772.910000002}},{"attributes":{"ID":88635,"DIS_CODE":0,"TOWNNAME":"安南區","LI":"淵西里","LIN":"10鄰","STREET":"安中路","SECT":"四段","MAREA":" ","LANE":"３２０巷","ALLEY":"１１６弄","HOUSE_NO":"７號","E_COORD97":164639.92000000001,"N_COORD97":2550364.7799999998,"ADDRESS":"安中路四段３２０巷１１６弄７號","OBJECTID":88635},"geometry":{"x":164639.91999999993,"y":2550364.7799999975}},{"attributes":{"ID":88636,"DIS_CODE":0,"TOWNNAME":"安南區","LI":"淵西里","LIN":"10鄰","STREET":"安中路","SECT":"四段","MAREA":" ","LANE":"３２０巷","ALLEY":"１５弄","HOUSE_NO":"８號","E_COORD97":164413.04000000001,"N_COORD97":2550364.1299999999,"ADDRESS":"安中路四段３２０巷１５弄８號","OBJECTID":88636},"geometry":{"x":164413.04000000097,"y":2550364.129999999}},{"attributes":{"ID":88637,"DIS_CODE":0,"TOWNNAME":"安南區","LI":"淵西里","LIN":"10鄰","STREET":"安中路","SECT":"四段","MAREA":" ","LANE":"３２０巷","ALLEY":"１５弄","HOUSE_NO":"６０號","E_COORD97":164360.34,"N_COORD97":2550491.52,"ADDRESS":"安中路四段３２０巷１５弄６０號","OBJECTID":88637},"geometry":{"x":164360.33999999985,"y":2550491.5199999996}},{"attributes":{"ID":88638,"DIS_CODE":0,"TOWNNAME":"永康區","LI":"永康里","LIN":"26鄰","STREET":"中山北路","SECT":" ","MAREA":" ","LANE":" ","ALLEY":" ","HOUSE_NO":"１２８號","E_COORD97":174188.82000000001,"N_COORD97":2547489.8399999999,"ADDRESS":"中山北路１２８號","OBJECTID":88638},"geometry":{"x":174188.82000000216,"y":2547489.8399999999}},{"attributes":{"ID":88639,"DIS_CODE":0,"TOWNNAME":"永康區","LI":"永康里","LIN":"25鄰","STREET":"埔聖街","SECT":" ","MAREA":" ","LANE":" ","ALLEY":" ","HOUSE_NO":"１２２號","E_COORD97":174029.64999999999,"N_COORD97":2547596.2000000002,"ADDRESS":"埔聖街１２２號","OBJECTID":88639},"geometry":{"x":174029.6500000013,"y":2547596.2000000011}},{"attributes":{"ID":88640,"DIS_CODE":0,"TOWNNAME":"永康區","LI":"永康里","LIN":"25鄰","STREET":"埔聖街","SECT":" ","MAREA":" ","LANE":" ","ALLEY":" ","HOUSE_NO":"１５６號","E_COORD97":174091.13,"N_COORD97":2547621.3900000001,"ADDRESS":"埔聖街１５６號","OBJECTID":88640},"geometry":{"x":174091.12999999896,"y":2547621.3900000006}},{"attributes":{"ID":88641,"DIS_CODE":0,"TOWNNAME":"永康區","LI":"永康里","LIN":"38鄰","STREET":"永大路","SECT":"二段","MAREA":" ","LANE":" ","ALLEY":" ","HOUSE_NO":"１１６０號","E_COORD97":174385.56,"N_COORD97":2546654.0699999998,"ADDRESS":"永大路二段１１６０號","OBJECTID":88641},"geometry":{"x":174385.55999999959,"y":2546654.0700000003}},{"attributes":{"ID":88642,"DIS_CODE":0,"TOWNNAME":"永康區","LI":"永康里","LIN":"39鄰","STREET":"永大二路","SECT":" ","MAREA":" ","LANE":" ","ALLEY":" ","HOUSE_NO":"１號","E_COORD97":174351.01000000001,"N_COORD97":2546567.7400000002,"ADDRESS":"永大二路１號","OBJECTID":88642},"geometry":{"x":174351.00999999978,"y":2546567.7400000002}},{"attributes":{"ID":88643,"DIS_CODE":0,"TOWNNAME":"永康區","LI":"永康里","LIN":"32鄰","STREET":"永大路","SECT":"二段","MAREA":" ","LANE":" ","ALLEY":" ","HOUSE_NO":"１４１６號","E_COORD97":174285.59,"N_COORD97":2547069.8999999999,"ADDRESS":"永大路二段１４１６號","OBJECTID":88643},"geometry":{"x":174285.58999999985,"y":2547069.9000000041}},{"attributes":{"ID":88644,"DIS_CODE":0,"TOWNNAME":"永康區","LI":"永康里","LIN":"36鄰","STREET":"永平街","SECT":" ","MAREA":" ","LANE":" ","ALLEY":" ","HOUSE_NO":"６６號","E_COORD97":174376.06,"N_COORD97":2546860.9300000002,"ADDRESS":"永平街６６號","OBJECTID":88644},"geometry":{"x":174376.05999999866,"y":2546860.9299999997}},{"attributes":{"ID":88645,"DIS_CODE":0,"TOWNNAME":"中西區","LI":"民生里","LIN":" ","STREET":"大仁街","SECT":" ","MAREA":" ","LANE":" ","ALLEY":" ","HOUSE_NO":"９８號","E_COORD97":167191.67000000001,"N_COORD97":2543483.8799999999,"ADDRESS":"大仁街９８號","OBJECTID":88645},"geometry":{"x":167191.67000000179,"y":2543483.879999999}},{"attributes":{"ID":88646,"DIS_CODE":0,"TOWNNAME":"安南區","LI":"淵西里","LIN":"10鄰","STREET":"安中路","SECT":"四段","MAREA":" ","LANE":"３２０巷","ALLEY":"１５弄","HOUSE_NO":"１０８號","E_COORD97":164269.64000000001,"N_COORD97":2550592.0600000001,"ADDRESS":"安中路四段３２０巷１５弄１０８號","OBJECTID":88646},"geometry":{"x":164269.6400000006,"y":2550592.0600000024}},{"attributes":{"ID":88647,"DIS_CODE":0,"TOWNNAME":"安南區","LI":"淵西里","LIN":"10鄰","STREET":"安中路","SECT":"四段","MAREA":" ","LANE":"３２０巷","ALLEY":"１５弄","HOUSE_NO":"１７６號","E_COORD97":164210.10999999999,"N_COORD97":2550612.9900000002,"ADDRESS":"安中路四段３２０巷１５弄１７６號","OBJECTID":88647},"geometry":{"x":164210.11000000034,"y":2550612.9900000021}},{"attributes":{"ID":88648,"DIS_CODE":0,"TOWNNAME":"安南區","LI":"淵西里","LIN":"10鄰","STREET":"安中路","SECT":"四段","MAREA":" ","LANE":"３２０巷","ALLEY":"１５弄","HOUSE_NO":"２３６之２０號","E_COORD97":164122.84,"N_COORD97":2550723.6099999999,"ADDRESS":"安中路四段３２０巷１５弄２３６之２０號","OBJECTID":88648},"geometry":{"x":164122.84000000078,"y":2550723.6100000013}},{"attributes":{"ID":88649,"DIS_CODE":0,"TOWNNAME":"安南區","LI":"安東里","LIN":"10鄰","STREET":"安和路","SECT":"一段","MAREA":" ","LANE":"２２０巷","ALLEY":"２７弄","HOUSE_NO":"１號","E_COORD97":169385.04999999999,"N_COORD97":2547982.46,"ADDRESS":"安和路一段２２０巷２７弄１號","OBJECTID":88649},"geometry":{"x":169385.04999999981,"y":2547982.4600000028}},{"attributes":{"ID":88650,"DIS_CODE":0,"TOWNNAME":"安南區","LI":"城南里","LIN":"10鄰","STREET":"城南路","SECT":" ","MAREA":" ","LANE":"２５２巷","ALLEY":"１９弄","HOUSE_NO":"６７號","E_COORD97":160272.13,"N_COORD97":2550842.71,"ADDRESS":"城南路２５２巷１９弄６７號","OBJECTID":88650},"geometry":{"x":160272.13000000175,"y":2550842.7100000028}},{"attributes":{"ID":88651,"DIS_CODE":0,"TOWNNAME":"安南區","LI":"國安里","LIN":"10鄰","STREET":"郡安路","SECT":"六段","MAREA":" ","LANE":"１１１巷","ALLEY":"４２弄","HOUSE_NO":"３０號","E_COORD97":166467.89000000001,"N_COORD97":2547176.2599999998,"ADDRESS":"郡安路六段１１１巷４２弄３０號","OBJECTID":88651},"geometry":{"x":166467.8900000006,"y":2547176.2600000016}},{"attributes":{"ID":88652,"DIS_CODE":0,"TOWNNAME":"安南區","LI":"國安里","LIN":"10鄰","STREET":"郡安路","SECT":"六段","MAREA":" ","LANE":"１１１巷","ALLEY":"４２弄","HOUSE_NO":"６號","E_COORD97":166516.47,"N_COORD97":2547179.2799999998,"ADDRESS":"郡安路六段１１１巷４２弄６號","OBJECTID":88652},"geometry":{"x":166516.4700000016,"y":2547179.2800000012}},{"attributes":{"ID":88653,"DIS_CODE":0,"TOWNNAME":"安南區","LI":"國安里","LIN":"10鄰","STREET":"郡安路","SECT":"六段","MAREA":" ","LANE":"１１１巷","ALLEY":"４２弄","HOUSE_NO":"１０號","E_COORD97":166508.04999999999,"N_COORD97":2547178.48,"ADDRESS":"郡安路六段１１１巷４２弄１０號","OBJECTID":88653},"geometry":{"x":166508.05000000075,"y":2547178.4800000023}},{"attributes":{"ID":88654,"DIS_CODE":0,"TOWNNAME":"安南區","LI":"國安里","LIN":"10鄰","STREET":"郡安路","SECT":"六段","MAREA":" ","LANE":"１１１巷","ALLEY":"４２弄","HOUSE_NO":"８號","E_COORD97":166512.34,"N_COORD97":2547178.96,"ADDRESS":"郡安路六段１１１巷４２弄８號","OBJECTID":88654},"geometry":{"x":166512.34000000171,"y":2547178.9600000028}},{"attributes":{"ID":88655,"DIS_CODE":0,"TOWNNAME":"安南區","LI":"國安里","LIN":"10鄰","STREET":"郡安路","SECT":"六段","MAREA":" ","LANE":"１１１巷","ALLEY":"４２弄","HOUSE_NO":"１２號","E_COORD97":166503.60999999999,"N_COORD97":2547178.0099999998,"ADDRESS":"郡安路六段１１１巷４２弄１２號","OBJECTID":88655},"geometry":{"x":166503.61000000034,"y":2547178.0100000016}},{"attributes":{"ID":88656,"DIS_CODE":0,"TOWNNAME":"安南區","LI":"國安里","LIN":"10鄰","STREET":"郡安路","SECT":"六段","MAREA":" ","LANE":"１１１巷","ALLEY":"４２弄","HOUSE_NO":"１６號","E_COORD97":166499.48000000001,"N_COORD97":2547177.8500000001,"ADDRESS":"郡安路六段１１１巷４２弄１６號","OBJECTID":88656},"geometry":{"x":166499.48000000045,"y":2547177.8500000034}},{"attributes":{"ID":88657,"DIS_CODE":0,"TOWNNAME":"安南區","LI":"國安里","LIN":"10鄰","STREET":"郡安路","SECT":"六段","MAREA":" ","LANE":"１１１巷","ALLEY":"４２弄","HOUSE_NO":"２８號","E_COORD97":166474.07999999999,"N_COORD97":2547177.0499999998,"ADDRESS":"郡安路六段１１１巷４２弄２８號","OBJECTID":88657},"geometry":{"x":166474.08000000101,"y":2547177.0500000007}},{"attributes":{"ID":88658,"DIS_CODE":0,"TOWNNAME":"北區","LI":"成功里","LIN":"10鄰","STREET":"北成路","SECT":" ","MAREA":" ","LANE":"２０巷","ALLEY":"１弄","HOUSE_NO":"２２號","E_COORD97":169211.95000000001,"N_COORD97":2546638.2200000002,"ADDRESS":"北成路２０巷１弄２２號","OBJECTID":88658},"geometry":{"x":169211.95000000019,"y":2546638.2200000025}},{"attributes":{"ID":88659,"DIS_CODE":0,"TOWNNAME":"安南區","LI":"國安里","LIN":"10鄰","STREET":"郡安路","SECT":"六段","MAREA":" ","LANE":"１１１巷","ALLEY":"４２弄","HOUSE_NO":"２６號","E_COORD97":166479.64000000001,"N_COORD97":2547177.6899999999,"ADDRESS":"郡安路六段１１１巷４２弄２６號","OBJECTID":88659},"geometry":{"x":166479.64000000153,"y":2547177.6899999995}},{"attributes":{"ID":88660,"DIS_CODE":0,"TOWNNAME":"安南區","LI":"海東里","LIN":"10鄰","STREET":"海佃路","SECT":"二段","MAREA":" ","LANE":"４１７巷","ALLEY":"２８弄","HOUSE_NO":"３號","E_COORD97":166615.44,"N_COORD97":2548966.5800000001,"ADDRESS":"海佃路二段４１７巷２８弄３號","OBJECTID":88660},"geometry":{"x":166615.44000000041,"y":2548966.5800000001}},{"attributes":{"ID":88661,"DIS_CODE":0,"TOWNNAME":"安南區","LI":"國安里","LIN":"10鄰","STREET":"郡安路","SECT":"六段","MAREA":" ","LANE":"１１１巷","ALLEY":"４２弄","HOUSE_NO":"２２號","E_COORD97":166484.72,"N_COORD97":2547178.1699999999,"ADDRESS":"郡安路六段１１１巷４２弄２２號","OBJECTID":88661},"geometry":{"x":166484.72000000067,"y":2547178.1699999999}},{"attributes":{"ID":88662,"DIS_CODE":0,"TOWNNAME":"安南區","LI":"國安里","LIN":"10鄰","STREET":"郡安路","SECT":"六段","MAREA":" ","LANE":"１１１巷","ALLEY":"４２弄","HOUSE_NO":"２０號","E_COORD97":166489.79999999999,"N_COORD97":2547178.3199999998,"ADDRESS":"郡安路六段１１１巷４２弄２０號","OBJECTID":88662},"geometry":{"x":166489.79999999981,"y":2547178.3200000003}},{"attributes":{"ID":88663,"DIS_CODE":0,"TOWNNAME":"安南區","LI":"國安里","LIN":"10鄰","STREET":"郡安路","SECT":"六段","MAREA":" ","LANE":"１１１巷","ALLEY":"４２弄","HOUSE_NO":"１８號","E_COORD97":166494.56,"N_COORD97":2547178.6400000001,"ADDRESS":"郡安路六段１１１巷４２弄１８號","OBJECTID":88663},"geometry":{"x":166494.55999999959,"y":2547178.6400000025}},{"attributes":{"ID":88664,"DIS_CODE":0,"TOWNNAME":"將軍區","LI":"苓和里","LIN":"12鄰","STREET":" ","SECT":" ","MAREA":"苓和","LANE":" ","ALLEY":" ","HOUSE_NO":"１１８之５號","E_COORD97":164345.64999999999,"N_COORD97":2568774.6099999999,"ADDRESS":"苓和１１８之５號","OBJECTID":88664},"geometry":{"x":164345.65000000037,"y":2568774.6099999994}},{"attributes":{"ID":88665,"DIS_CODE":0,"TOWNNAME":"將軍區","LI":"苓和里","LIN":"12鄰","STREET":" ","SECT":" ","MAREA":"苓和","LANE":" ","ALLEY":" ","HOUSE_NO":"１１８之６號","E_COORD97":164341.75,"N_COORD97":2568774.3399999999,"ADDRESS":"苓和１１８之６號","OBJECTID":88665},"geometry":{"x":164341.75000000093,"y":2568774.3399999999}},{"attributes":{"ID":88666,"DIS_CODE":0,"TOWNNAME":"將軍區","LI":"苓和里","LIN":"12鄰","STREET":" ","SECT":" ","MAREA":"苓和","LANE":" ","ALLEY":" ","HOUSE_NO":"１１８之７號","E_COORD97":164336.98999999999,"N_COORD97":2568774.2599999998,"ADDRESS":"苓和１１８之７號","OBJECTID":88666},"geometry":{"x":164336.99000000115,"y":2568774.2599999998}},{"attributes":{"ID":88667,"DIS_CODE":0,"TOWNNAME":"將軍區","LI":"苓和里","LIN":"12鄰","STREET":" ","SECT":" ","MAREA":"苓和","LANE":" ","ALLEY":" ","HOUSE_NO":"１１８之８號","E_COORD97":164332.79999999999,"N_COORD97":2568774.4300000002,"ADDRESS":"苓和１１８之８號","OBJECTID":88667},"geometry":{"x":164332.80000000075,"y":2568774.4300000034}},{"attributes":{"ID":88668,"DIS_CODE":0,"TOWNNAME":"將軍區","LI":"苓和里","LIN":"12鄰","STREET":" ","SECT":" ","MAREA":"苓和","LANE":" ","ALLEY":" ","HOUSE_NO":"１１８之９號","E_COORD97":164328.60999999999,"N_COORD97":2568773.5600000001,"ADDRESS":"苓和１１８之９號","OBJECTID":88668},"geometry":{"x":164328.61000000034,"y":2568773.5600000005}},{"attributes":{"ID":88669,"DIS_CODE":0,"TOWNNAME":"將軍區","LI":"苓和里","LIN":"12鄰","STREET":" ","SECT":" ","MAREA":"苓和","LANE":" ","ALLEY":" ","HOUSE_NO":"１１８號","E_COORD97":164313.41,"N_COORD97":2568786.25,"ADDRESS":"苓和１１８號","OBJECTID":88669},"geometry":{"x":164313.41000000201,"y":2568786.2500000019}},{"attributes":{"ID":88670,"DIS_CODE":0,"TOWNNAME":"將軍區","LI":"苓和里","LIN":"12鄰","STREET":" ","SECT":" ","MAREA":"苓和","LANE":" ","ALLEY":" ","HOUSE_NO":"１１９號","E_COORD97":164287.69,"N_COORD97":2568814.9199999999,"ADDRESS":"苓和１１９號","OBJECTID":88670},"geometry":{"x":164287.69000000041,"y":2568814.9199999981}},{"attributes":{"ID":88671,"DIS_CODE":0,"TOWNNAME":"將軍區","LI":"苓和里","LIN":"12鄰","STREET":" ","SECT":" ","MAREA":"苓和","LANE":" ","ALLEY":" ","HOUSE_NO":"１２０之１０號","E_COORD97":164273.37,"N_COORD97":2568853.4199999999,"ADDRESS":"苓和１２０之１０號","OBJECTID":88671},"geometry":{"x":164273.37000000104,"y":2568853.4200000018}},{"attributes":{"ID":88672,"DIS_CODE":0,"TOWNNAME":"將軍區","LI":"苓和里","LIN":"12鄰","STREET":" ","SECT":" ","MAREA":"苓和","LANE":" ","ALLEY":" ","HOUSE_NO":"１２０之１號","E_COORD97":164272.79000000001,"N_COORD97":2568835.29,"ADDRESS":"苓和１２０之１號","OBJECTID":88672},"geometry":{"x":164272.79000000004,"y":2568835.2899999972}},{"attributes":{"ID":88673,"DIS_CODE":0,"TOWNNAME":"將軍區","LI":"苓和里","LIN":"12鄰","STREET":" ","SECT":" ","MAREA":"苓和","LANE":" ","ALLEY":" ","HOUSE_NO":"１２０之２號","E_COORD97":164267.60000000001,"N_COORD97":2568835.48,"ADDRESS":"苓和１２０之２號","OBJECTID":88673},"geometry":{"x":164267.60000000149,"y":2568835.4799999986}},{"attributes":{"ID":88674,"DIS_CODE":0,"TOWNNAME":"將軍區","LI":"苓和里","LIN":"12鄰","STREET":" ","SECT":" ","MAREA":"苓和","LANE":" ","ALLEY":" ","HOUSE_NO":"１２０之３號","E_COORD97":164260.91,"N_COORD97":2568836.1800000002,"ADDRESS":"苓和１２０之３號","OBJECTID":88674},"geometry":{"x":164260.91000000201,"y":2568836.1799999997}},{"attributes":{"ID":88675,"DIS_CODE":0,"TOWNNAME":"將軍區","LI":"苓和里","LIN":"12鄰","STREET":" ","SECT":" ","MAREA":"苓和","LANE":" ","ALLEY":" ","HOUSE_NO":"１２０之４號","E_COORD97":164255.54999999999,"N_COORD97":2568836.3799999999,"ADDRESS":"苓和１２０之４號","OBJECTID":88675},"geometry":{"x":164255.54999999981,"y":2568836.3800000008}},{"attributes":{"ID":88676,"DIS_CODE":0,"TOWNNAME":"將軍區","LI":"苓和里","LIN":"12鄰","STREET":" ","SECT":" ","MAREA":"苓和","LANE":" ","ALLEY":" ","HOUSE_NO":"１２０之５號","E_COORD97":164249.38,"N_COORD97":2568836.8999999999,"ADDRESS":"苓和１２０之５號","OBJECTID":88676},"geometry":{"x":164249.38000000082,"y":2568836.9000000022}},{"attributes":{"ID":88677,"DIS_CODE":0,"TOWNNAME":"將軍區","LI":"苓和里","LIN":"12鄰","STREET":" ","SECT":" ","MAREA":"苓和","LANE":" ","ALLEY":" ","HOUSE_NO":"１２０之６號","E_COORD97":164250.23999999999,"N_COORD97":2568855.73,"ADDRESS":"苓和１２０之６號","OBJECTID":88677},"geometry":{"x":164250.24000000209,"y":2568855.7300000023}},{"attributes":{"ID":88678,"DIS_CODE":0,"TOWNNAME":"將軍區","LI":"苓和里","LIN":"12鄰","STREET":" ","SECT":" ","MAREA":"苓和","LANE":" ","ALLEY":" ","HOUSE_NO":"１２０之７號","E_COORD97":164257.76000000001,"N_COORD97":2568854.7200000002,"ADDRESS":"苓和１２０之７號","OBJECTID":88678},"geometry":{"x":164257.75999999978,"y":2568854.7200000044}},{"attributes":{"ID":88679,"DIS_CODE":0,"TOWNNAME":"將軍區","LI":"苓和里","LIN":"12鄰","STREET":" ","SECT":" ","MAREA":"苓和","LANE":" ","ALLEY":" ","HOUSE_NO":"１２０之８號","E_COORD97":164262.29000000001,"N_COORD97":2568854.2999999998,"ADDRESS":"苓和１２０之８號","OBJECTID":88679},"geometry":{"x":164262.29000000097,"y":2568854.3000000045}},{"attributes":{"ID":88680,"DIS_CODE":0,"TOWNNAME":"安南區","LI":"國安里","LIN":"10鄰","STREET":"郡安路","SECT":"六段","MAREA":" ","LANE":"１１１巷","ALLEY":"４２弄","HOUSE_NO":"３號","E_COORD97":166517.73999999999,"N_COORD97":2547165.1499999999,"ADDRESS":"郡安路六段１１１巷４２弄３號","OBJECTID":88680},"geometry":{"x":166517.74000000022,"y":2547165.1500000004}},{"attributes":{"ID":88681,"DIS_CODE":0,"TOWNNAME":"將軍區","LI":"苓和里","LIN":"12鄰","STREET":" ","SECT":" ","MAREA":"苓和","LANE":" ","ALLEY":" ","HOUSE_NO":"１２０之９號","E_COORD97":164269.01999999999,"N_COORD97":2568853.48,"ADDRESS":"苓和１２０之９號","OBJECTID":88681},"geometry":{"x":164269.01999999955,"y":2568853.4800000023}},{"attributes":{"ID":88682,"DIS_CODE":0,"TOWNNAME":"將軍區","LI":"苓和里","LIN":"12鄰","STREET":" ","SECT":" ","MAREA":"苓和","LANE":" ","ALLEY":" ","HOUSE_NO":"１２０號","E_COORD97":164259.28,"N_COORD97":2568821.7200000002,"ADDRESS":"苓和１２０號","OBJECTID":88682},"geometry":{"x":164259.28000000119,"y":2568821.7200000025}},{"attributes":{"ID":88683,"DIS_CODE":0,"TOWNNAME":"將軍區","LI":"苓和里","LIN":"12鄰","STREET":" ","SECT":" ","MAREA":"苓和","LANE":" ","ALLEY":" ","HOUSE_NO":"１２１號","E_COORD97":164297.29000000001,"N_COORD97":2568835.6200000001,"ADDRESS":"苓和１２１號","OBJECTID":88683},"geometry":{"x":164297.2900000019,"y":2568835.6200000029}},{"attributes":{"ID":88684,"DIS_CODE":0,"TOWNNAME":"將軍區","LI":"苓和里","LIN":"12鄰","STREET":" ","SECT":" ","MAREA":"苓和","LANE":" ","ALLEY":" ","HOUSE_NO":"１２３號","E_COORD97":164327.23999999999,"N_COORD97":2568855.4300000002,"ADDRESS":"苓和１２３號","OBJECTID":88684},"geometry":{"x":164327.24000000115,"y":2568855.4300000034}},{"attributes":{"ID":88685,"DIS_CODE":0,"TOWNNAME":"將軍區","LI":"苓和里","LIN":"12鄰","STREET":" ","SECT":" ","MAREA":"苓和","LANE":" ","ALLEY":" ","HOUSE_NO":"１２４之１號","E_COORD97":164349.20999999999,"N_COORD97":2568887.1899999999,"ADDRESS":"苓和１２４號","OBJECTID":88685},"geometry":{"x":164349.21000000089,"y":2568887.1899999976}},{"attributes":{"ID":88686,"DIS_CODE":0,"TOWNNAME":"將軍區","LI":"苓和里","LIN":"12鄰","STREET":" ","SECT":" ","MAREA":"苓和","LANE":" ","ALLEY":" ","HOUSE_NO":"１２５之１號","E_COORD97":164327.34,"N_COORD97":2568890,"ADDRESS":"苓和１２５之１號","OBJECTID":88686},"geometry":{"x":164327.34000000078,"y":2568890.0000000019}},{"attributes":{"ID":88687,"DIS_CODE":0,"TOWNNAME":"將軍區","LI":"苓和里","LIN":"12鄰","STREET":" ","SECT":" ","MAREA":"苓和","LANE":" ","ALLEY":" ","HOUSE_NO":"１２５號","E_COORD97":164328.48000000001,"N_COORD97":2568875.04,"ADDRESS":"苓和１２５號","OBJECTID":88687},"geometry":{"x":164328.48000000231,"y":2568875.040000001}},{"attributes":{"ID":88688,"DIS_CODE":0,"TOWNNAME":"將軍區","LI":"苓和里","LIN":"12鄰","STREET":" ","SECT":" ","MAREA":"苓和","LANE":" ","ALLEY":" ","HOUSE_NO":"１２６之１號","E_COORD97":164304.28,"N_COORD97":2568871.5099999998,"ADDRESS":"苓和１２６之１號","OBJECTID":88688},"geometry":{"x":164304.28000000212,"y":2568871.5099999998}},{"attributes":{"ID":88689,"DIS_CODE":0,"TOWNNAME":"安南區","LI":"國安里","LIN":"10鄰","STREET":"郡安路","SECT":"六段","MAREA":" ","LANE":"１１１巷","ALLEY":"４２弄","HOUSE_NO":"５號","E_COORD97":166513.92999999999,"N_COORD97":2547165.3100000001,"ADDRESS":"郡安路六段１１１巷４２弄５號","OBJECTID":88689},"geometry":{"x":166513.93000000063,"y":2547165.3099999987}},{"attributes":{"ID":88690,"DIS_CODE":0,"TOWNNAME":"將軍區","LI":"將貴里","LIN":"12鄰","STREET":" ","SECT":" ","MAREA":"將榮","LANE":" ","ALLEY":" ","HOUSE_NO":"１１號","E_COORD97":161820.66,"N_COORD97":2568487.1800000002,"ADDRESS":"將榮１１號","OBJECTID":88690},"geometry":{"x":161820.66000000108,"y":2568487.1799999997}},{"attributes":{"ID":88691,"DIS_CODE":0,"TOWNNAME":"安南區","LI":"國安里","LIN":"10鄰","STREET":"郡安路","SECT":"六段","MAREA":" ","LANE":"１１１巷","ALLEY":"４２弄","HOUSE_NO":"７號","E_COORD97":166509.79999999999,"N_COORD97":2547165.3100000001,"ADDRESS":"郡安路六段１１１巷４２弄７號","OBJECTID":88691},"geometry":{"x":166509.80000000075,"y":2547165.3099999987}},{"attributes":{"ID":88692,"DIS_CODE":0,"TOWNNAME":"安南區","LI":"國安里","LIN":"10鄰","STREET":"郡安路","SECT":"六段","MAREA":" ","LANE":"１１１巷","ALLEY":"４２弄","HOUSE_NO":"９號","E_COORD97":166505.04000000001,"N_COORD97":2547165.1499999999,"ADDRESS":"郡安路六段１１１巷４２弄９號","OBJECTID":88692},"geometry":{"x":166505.04000000097,"y":2547165.1500000004}},{"attributes":{"ID":88693,"DIS_CODE":0,"TOWNNAME":"安南區","LI":"國安里","LIN":"10鄰","STREET":"郡安路","SECT":"六段","MAREA":" ","LANE":"１１１巷","ALLEY":"４２弄","HOUSE_NO":"１１號","E_COORD97":166500.91,"N_COORD97":2547164.9900000002,"ADDRESS":"郡安路六段１１１巷４２弄１１號","OBJECTID":88693},"geometry":{"x":166500.91000000108,"y":2547164.9900000021}},{"attributes":{"ID":88694,"DIS_CODE":0,"TOWNNAME":"安南區","LI":"國安里","LIN":"10鄰","STREET":"郡安路","SECT":"六段","MAREA":" ","LANE":"１１１巷","ALLEY":"４２弄","HOUSE_NO":"１３號","E_COORD97":166495.82999999999,"N_COORD97":2547164.8300000001,"ADDRESS":"郡安路六段１１１巷４２弄１３號","OBJECTID":88694},"geometry":{"x":166495.83000000101,"y":2547164.8299999982}},{"attributes":{"ID":88695,"DIS_CODE":0,"TOWNNAME":"安平區","LI":"華平里","LIN":"15鄰","STREET":"國平路","SECT":" ","MAREA":" ","LANE":" ","ALLEY":" ","HOUSE_NO":"３０６號","E_COORD97":165047.16,"N_COORD97":2543621.6099999999,"ADDRESS":"國平路３０６號","OBJECTID":88695},"geometry":{"x":165047.16000000015,"y":2543621.6099999994}},{"attributes":{"ID":88696,"DIS_CODE":0,"TOWNNAME":"安平區","LI":"華平里","LIN":"15鄰","STREET":"國平路","SECT":" ","MAREA":" ","LANE":" ","ALLEY":" ","HOUSE_NO":"３０８號","E_COORD97":165046.42999999999,"N_COORD97":2543625.8999999999,"ADDRESS":"國平路３０８號","OBJECTID":88696},"geometry":{"x":165046.4299999997,"y":2543625.9000000022}},{"attributes":{"ID":88697,"DIS_CODE":0,"TOWNNAME":"安平區","LI":"華平里","LIN":"15鄰","STREET":"國平路","SECT":" ","MAREA":" ","LANE":" ","ALLEY":" ","HOUSE_NO":"３１０號","E_COORD97":165046.98000000001,"N_COORD97":2543630.4700000002,"ADDRESS":"國平路３１０號","OBJECTID":88697},"geometry":{"x":165046.98000000045,"y":2543630.4700000007}},{"attributes":{"ID":88698,"DIS_CODE":0,"TOWNNAME":"安南區","LI":"國安里","LIN":"10鄰","STREET":"郡安路","SECT":"六段","MAREA":" ","LANE":"１１１巷","ALLEY":"４２弄","HOUSE_NO":"１５號","E_COORD97":166491.38,"N_COORD97":2547165.3100000001,"ADDRESS":"郡安路六段１１１巷４２弄１５號","OBJECTID":88698},"geometry":{"x":166491.37999999989,"y":2547165.3099999987}},{"attributes":{"ID":88699,"DIS_CODE":0,"TOWNNAME":"玉井區","LI":"豐里里","LIN":"15鄰","STREET":" ","SECT":" ","MAREA":"豐里","LANE":" ","ALLEY":" ","HOUSE_NO":"１５１號","E_COORD97":193982.41,"N_COORD97":2562360.25,"ADDRESS":"豐里１５１號","OBJECTID":88699},"geometry":{"x":193982.41000000015,"y":2562360.25}},{"attributes":{"ID":88700,"DIS_CODE":0,"TOWNNAME":"玉井區","LI":"層林里","LIN":"15鄰","STREET":" ","SECT":" ","MAREA":"層林","LANE":" ","ALLEY":" ","HOUSE_NO":"１６號","E_COORD97":193681.26000000001,"N_COORD97":2554106.25,"ADDRESS":"層林１６號","OBJECTID":88700},"geometry":{"x":193681.25999999978,"y":2554106.2500000019}},{"attributes":{"ID":88701,"DIS_CODE":0,"TOWNNAME":"玉井區","LI":"豐里里","LIN":"15鄰","STREET":" ","SECT":" ","MAREA":"豐里","LANE":" ","ALLEY":" ","HOUSE_NO":"１５９之１號","E_COORD97":194794.41,"N_COORD97":2562760.29,"ADDRESS":"豐里１５９之１號","OBJECTID":88701},"geometry":{"x":194794.41000000015,"y":2562760.290000001}},{"attributes":{"ID":88702,"DIS_CODE":0,"TOWNNAME":"玉井區","LI":"豐里里","LIN":"15鄰","STREET":" ","SECT":" ","MAREA":"豐里","LANE":" ","ALLEY":" ","HOUSE_NO":"１５６號","E_COORD97":194512.20999999999,"N_COORD97":2562759.2400000002,"ADDRESS":"豐里１５６號","OBJECTID":88702},"geometry":{"x":194512.20999999996,"y":2562759.2400000021}},{"attributes":{"ID":88703,"DIS_CODE":0,"TOWNNAME":"玉井區","LI":"望明里","LIN":"15鄰","STREET":" ","SECT":" ","MAREA":"望明","LANE":" ","ALLEY":" ","HOUSE_NO":"１５８號","E_COORD97":192166.67999999999,"N_COORD97":2555975.25,"ADDRESS":"望明１５８號","OBJECTID":88703},"geometry":{"x":192166.68000000063,"y":2555975.2500000019}},{"attributes":{"ID":88704,"DIS_CODE":0,"TOWNNAME":"玉井區","LI":"中正里","LIN":"15鄰","STREET":" ","SECT":" ","MAREA":"中正","LANE":" ","ALLEY":" ","HOUSE_NO":"１６９號","E_COORD97":195945.70999999999,"N_COORD97":2560930.25,"ADDRESS":"中正１６９號","OBJECTID":88704},"geometry":{"x":195945.71000000089,"y":2560930.2500000037}},{"attributes":{"ID":88705,"DIS_CODE":0,"TOWNNAME":"將軍區","LI":"苓和里","LIN":"12鄰","STREET":" ","SECT":" ","MAREA":"苓和","LANE":" ","ALLEY":" ","HOUSE_NO":"１２６之２號","E_COORD97":164300.01999999999,"N_COORD97":2568872.1800000002,"ADDRESS":"苓和１２６之２號","OBJECTID":88705},"geometry":{"x":164300.01999999955,"y":2568872.1800000016}},{"attributes":{"ID":88706,"DIS_CODE":0,"TOWNNAME":"安南區","LI":"國安里","LIN":"10鄰","STREET":"郡安路","SECT":"六段","MAREA":" ","LANE":"１１１巷","ALLEY":"４２弄","HOUSE_NO":"１７號","E_COORD97":166486.29999999999,"N_COORD97":2547165.3100000001,"ADDRESS":"郡安路六段１１１巷４２弄１７號","OBJECTID":88706},"geometry":{"x":166486.29999999981,"y":2547165.3099999987}},{"attributes":{"ID":88707,"DIS_CODE":0,"TOWNNAME":"將軍區","LI":"苓和里","LIN":"12鄰","STREET":" ","SECT":" ","MAREA":"苓和","LANE":" ","ALLEY":" ","HOUSE_NO":"１２６之３號","E_COORD97":164302.19,"N_COORD97":2568886.77,"ADDRESS":"苓和１２６之３號","OBJECTID":88707},"geometry":{"x":164302.19000000134,"y":2568886.7699999977}},{"attributes":{"ID":88708,"DIS_CODE":0,"TOWNNAME":"將軍區","LI":"苓和里","LIN":"12鄰","STREET":" ","SECT":" ","MAREA":"苓和","LANE":" ","ALLEY":" ","HOUSE_NO":"１２６之４號","E_COORD97":164302.85999999999,"N_COORD97":2568894.6699999999,"ADDRESS":"苓和１２６之４號","OBJECTID":88708},"geometry":{"x":164302.86000000127,"y":2568894.6699999981}},{"attributes":{"ID":88709,"DIS_CODE":0,"TOWNNAME":"安南區","LI":"淵西里","LIN":"10鄰","STREET":"安中路","SECT":"四段","MAREA":" ","LANE":"３２０巷","ALLEY":"１５弄","HOUSE_NO":"１９６號","E_COORD97":164175.87,"N_COORD97":2550707.3100000001,"ADDRESS":"安中路四段３２０巷１５弄１９６號","OBJECTID":88709},"geometry":{"x":164175.87000000011,"y":2550707.3100000005}},{"attributes":{"ID":88710,"DIS_CODE":0,"TOWNNAME":"將軍區","LI":"苓和里","LIN":"12鄰","STREET":" ","SECT":" ","MAREA":"苓和","LANE":" ","ALLEY":" ","HOUSE_NO":"１２６之５號","E_COORD97":164293,"N_COORD97":2568894.3900000001,"ADDRESS":"苓和１２６之５號","OBJECTID":88710},"geometry":{"x":164293.00000000093,"y":2568894.3900000025}},{"attributes":{"ID":88711,"DIS_CODE":0,"TOWNNAME":"永康區","LI":"正強里","LIN":"10鄰","STREET":"正義街","SECT":" ","MAREA":" ","LANE":"８９巷","ALLEY":"２６弄","HOUSE_NO":"８號","E_COORD97":173441.67999999999,"N_COORD97":2547492.5099999998,"ADDRESS":"正義街８９巷２６弄８號","OBJECTID":88711},"geometry":{"x":173441.68000000063,"y":2547492.5100000035}},{"attributes":{"ID":88712,"DIS_CODE":0,"TOWNNAME":"將軍區","LI":"苓和里","LIN":"12鄰","STREET":" ","SECT":" ","MAREA":"苓和","LANE":" ","ALLEY":" ","HOUSE_NO":"１２６之６號","E_COORD97":164291.53,"N_COORD97":2568887.71,"ADDRESS":"苓和１２６之６號","OBJECTID":88712},"geometry":{"x":164291.53000000119,"y":2568887.7100000009}},{"attributes":{"ID":88713,"DIS_CODE":0,"TOWNNAME":"永康區","LI":"正強里","LIN":"10鄰","STREET":"正義街","SECT":" ","MAREA":" ","LANE":"８９巷","ALLEY":"２６弄","HOUSE_NO":"１０號","E_COORD97":173438.89000000001,"N_COORD97":2547492.0099999998,"ADDRESS":"正義街８９巷２６弄１０號","OBJECTID":88713},"geometry":{"x":173438.8900000006,"y":2547492.0099999998}},{"attributes":{"ID":88714,"DIS_CODE":0,"TOWNNAME":"將軍區","LI":"苓和里","LIN":"12鄰","STREET":" ","SECT":" ","MAREA":"苓和","LANE":" ","ALLEY":" ","HOUSE_NO":"１２６之７號","E_COORD97":164290.35999999999,"N_COORD97":2568873.0600000001,"ADDRESS":"苓和１２６之７號","OBJECTID":88714},"geometry":{"x":164290.3600000022,"y":2568873.0600000024}},{"attributes":{"ID":88715,"DIS_CODE":0,"TOWNNAME":"將軍區","LI":"苓和里","LIN":"12鄰","STREET":" ","SECT":" ","MAREA":"苓和","LANE":" ","ALLEY":" ","HOUSE_NO":"１２６之８號","E_COORD97":164286.92999999999,"N_COORD97":2568873.1699999999,"ADDRESS":"苓和１２６之８號","OBJECTID":88715},"geometry":{"x":164286.9299999997,"y":2568873.1699999999}},{"attributes":{"ID":88716,"DIS_CODE":0,"TOWNNAME":"將軍區","LI":"苓和里","LIN":"12鄰","STREET":" ","SECT":" ","MAREA":"苓和","LANE":" ","ALLEY":" ","HOUSE_NO":"１２６之９號","E_COORD97":164282.17999999999,"N_COORD97":2568873.7400000002,"ADDRESS":"苓和１２６之９號","OBJECTID":88716},"geometry":{"x":164282.1799999997,"y":2568873.7400000002}},{"attributes":{"ID":88717,"DIS_CODE":0,"TOWNNAME":"將軍區","LI":"苓和里","LIN":"12鄰","STREET":" ","SECT":" ","MAREA":"苓和","LANE":" ","ALLEY":" ","HOUSE_NO":"１２６號","E_COORD97":164308.38,"N_COORD97":2568870.8700000001,"ADDRESS":"苓和１２６號","OBJECTID":88717},"geometry":{"x":164308.38000000175,"y":2568870.8700000048}},{"attributes":{"ID":88718,"DIS_CODE":0,"TOWNNAME":"東區","LI":"自強里","LIN":"26鄰","STREET":"中華東路","SECT":"二段","MAREA":" ","LANE":"２０３巷","ALLEY":"１弄","HOUSE_NO":"１０號","E_COORD97":171339.26000000001,"N_COORD97":2542708.0299999998,"ADDRESS":"中華東路二段２０３巷１弄１０號","OBJECTID":88718},"geometry":{"x":171339.26000000071,"y":2542708.0300000031}},{"attributes":{"ID":88719,"DIS_CODE":0,"TOWNNAME":"仁德區","LI":"上崙里","LIN":"10鄰","STREET":"德善路","SECT":" ","MAREA":" ","LANE":"３０５巷","ALLEY":"１３弄","HOUSE_NO":"６９號四樓","E_COORD97":174056.51999999999,"N_COORD97":2538440.2000000002,"ADDRESS":"德善路３０５巷１３弄６９號四樓","OBJECTID":88719},"geometry":{"x":174056.52000000048,"y":2538440.1999999993}},{"attributes":{"ID":88720,"DIS_CODE":0,"TOWNNAME":"將軍區","LI":"苓和里","LIN":"12鄰","STREET":" ","SECT":" ","MAREA":"苓和","LANE":" ","ALLEY":" ","HOUSE_NO":"１３０之１號","E_COORD97":164245.54000000001,"N_COORD97":2568894.8100000001,"ADDRESS":"苓和１３０之１號","OBJECTID":88720},"geometry":{"x":164245.54000000004,"y":2568894.8100000024}},{"attributes":{"ID":88721,"DIS_CODE":0,"TOWNNAME":"將軍區","LI":"苓和里","LIN":"12鄰","STREET":" ","SECT":" ","MAREA":"苓和","LANE":" ","ALLEY":" ","HOUSE_NO":"１３２號","E_COORD97":164168.73999999999,"N_COORD97":2568824.8100000001,"ADDRESS":"苓和１３２號","OBJECTID":88721},"geometry":{"x":164168.74000000022,"y":2568824.8100000024}},{"attributes":{"ID":88722,"DIS_CODE":0,"TOWNNAME":"仁德區","LI":"上崙里","LIN":"10鄰","STREET":"德善路","SECT":" ","MAREA":" ","LANE":"３０５巷","ALLEY":"１３弄","HOUSE_NO":"７３號四樓","E_COORD97":174061.37,"N_COORD97":2538423.4399999999,"ADDRESS":"德善路３０５巷１３弄７３號四樓","OBJECTID":88722},"geometry":{"x":174061.37000000104,"y":2538423.4400000032}},{"attributes":{"ID":88723,"DIS_CODE":0,"TOWNNAME":"仁德區","LI":"上崙里","LIN":"10鄰","STREET":"德善路","SECT":" ","MAREA":" ","LANE":"３０５巷","ALLEY":"１３弄","HOUSE_NO":"７７號二樓","E_COORD97":174066.23999999999,"N_COORD97":2538403.4399999999,"ADDRESS":"德善路３０５巷１３弄７７號二樓","OBJECTID":88723},"geometry":{"x":174066.24000000115,"y":2538403.4400000013}},{"attributes":{"ID":88724,"DIS_CODE":0,"TOWNNAME":"仁德區","LI":"仁義里","LIN":"10鄰","STREET":"中山路","SECT":" ","MAREA":" ","LANE":"５０９巷","ALLEY":"１８弄","HOUSE_NO":"２號十三樓之２","E_COORD97":173521.89000000001,"N_COORD97":2541259.1899999999,"ADDRESS":"中山路５０９巷１８弄２號十三樓之２","OBJECTID":88724},"geometry":{"x":173521.8900000006,"y":2541259.1900000032}},{"attributes":{"ID":88725,"DIS_CODE":0,"TOWNNAME":"仁德區","LI":"仁義里","LIN":"10鄰","STREET":"中山路","SECT":" ","MAREA":" ","LANE":"５０９巷","ALLEY":"１８弄","HOUSE_NO":"２號八樓之６","E_COORD97":173520.60999999999,"N_COORD97":2541259.1899999999,"ADDRESS":"中山路５０９巷１８弄２號八樓之６","OBJECTID":88725},"geometry":{"x":173520.6100000022,"y":2541259.1900000032}},{"attributes":{"ID":88726,"DIS_CODE":0,"TOWNNAME":"玉井區","LI":"豐里里","LIN":"15鄰","STREET":" ","SECT":" ","MAREA":"豐里","LANE":" ","ALLEY":" ","HOUSE_NO":"１６３號","E_COORD97":194823.62,"N_COORD97":2563321.25,"ADDRESS":"豐里１６３號","OBJECTID":88726},"geometry":{"x":194823.61999999918,"y":2563321.2500000019}},{"attributes":{"ID":88727,"DIS_CODE":0,"TOWNNAME":"仁德區","LI":"仁義里","LIN":"10鄰","STREET":"中山路","SECT":" ","MAREA":" ","LANE":"５０９巷","ALLEY":"１８弄","HOUSE_NO":"２號八樓之１","E_COORD97":173520.5,"N_COORD97":2541259.1899999999,"ADDRESS":"中山路５０９巷１８弄２號八樓之１","OBJECTID":88727},"geometry":{"x":173520.5,"y":2541259.1900000032}},{"attributes":{"ID":88728,"DIS_CODE":0,"TOWNNAME":"仁德區","LI":"上崙里","LIN":"10鄰","STREET":"德善路","SECT":" ","MAREA":" ","LANE":"３０５巷","ALLEY":"１３弄","HOUSE_NO":"８９號五樓","E_COORD97":174082.73000000001,"N_COORD97":2538410.6899999999,"ADDRESS":"德善路３０５巷１３弄８９號五樓","OBJECTID":88728},"geometry":{"x":174082.73000000231,"y":2538410.6899999995}},{"attributes":{"ID":88729,"DIS_CODE":0,"TOWNNAME":"玉井區","LI":"豐里里","LIN":"15鄰","STREET":" ","SECT":" ","MAREA":"豐里","LANE":" ","ALLEY":" ","HOUSE_NO":"１６２號","E_COORD97":194678.20999999999,"N_COORD97":2563333.25,"ADDRESS":"豐里１６２號","OBJECTID":88729},"geometry":{"x":194678.20999999996,"y":2563333.25}},{"attributes":{"ID":88730,"DIS_CODE":0,"TOWNNAME":"玉井區","LI":"豐里里","LIN":"15鄰","STREET":" ","SECT":" ","MAREA":"豐里","LANE":" ","ALLEY":" ","HOUSE_NO":"１５３號之１","E_COORD97":194456.84,"N_COORD97":2562639.29,"ADDRESS":"豐里１５３號之１","OBJECTID":88730},"geometry":{"x":194456.83999999985,"y":2562639.290000001}},{"attributes":{"ID":88731,"DIS_CODE":0,"TOWNNAME":"仁德區","LI":"上崙里","LIN":"10鄰","STREET":"德善路","SECT":" ","MAREA":" ","LANE":"３０５巷","ALLEY":"１３弄","HOUSE_NO":"８１號六樓","E_COORD97":174069.73000000001,"N_COORD97":2538424.9399999999,"ADDRESS":"德善路３０５巷１３弄８１號六樓","OBJECTID":88731},"geometry":{"x":174069.73000000138,"y":2538424.9399999995}},{"attributes":{"ID":88732,"DIS_CODE":0,"TOWNNAME":"玉井區","LI":"豐里里","LIN":"15鄰","STREET":" ","SECT":" ","MAREA":"豐里","LANE":" ","ALLEY":" ","HOUSE_NO":"１５５號","E_COORD97":194890.41,"N_COORD97":2562842.2400000002,"ADDRESS":"豐里１５５號","OBJECTID":88732},"geometry":{"x":194890.41000000108,"y":2562842.2400000002}},{"attributes":{"ID":88733,"DIS_CODE":0,"TOWNNAME":"玉井區","LI":"豐里里","LIN":"15鄰","STREET":" ","SECT":" ","MAREA":"豐里","LANE":" ","ALLEY":" ","HOUSE_NO":"１５７號","E_COORD97":194546.12,"N_COORD97":2562753.2400000002,"ADDRESS":"豐里１５７號","OBJECTID":88733},"geometry":{"x":194546.12000000104,"y":2562753.2400000002}},{"attributes":{"ID":88734,"DIS_CODE":0,"TOWNNAME":"玉井區","LI":"豐里里","LIN":"15鄰","STREET":" ","SECT":" ","MAREA":"豐里","LANE":" ","ALLEY":" ","HOUSE_NO":"１７０號","E_COORD97":195129.91,"N_COORD97":2563500.25,"ADDRESS":"豐里１７０號","OBJECTID":88734},"geometry":{"x":195129.91000000015,"y":2563500.2500000037}},{"attributes":{"ID":88735,"DIS_CODE":0,"TOWNNAME":"玉井區","LI":"豐里里","LIN":"15鄰","STREET":" ","SECT":" ","MAREA":"豐里","LANE":" ","ALLEY":" ","HOUSE_NO":"１５２號","E_COORD97":194415.42000000001,"N_COORD97":2562683.25,"ADDRESS":"豐里１５２號","OBJECTID":88735},"geometry":{"x":194415.42000000086,"y":2562683.2500000037}},{"attributes":{"ID":88736,"DIS_CODE":0,"TOWNNAME":"仁德區","LI":"上崙里","LIN":"10鄰","STREET":"德善路","SECT":" ","MAREA":" ","LANE":"３０５巷","ALLEY":"１３弄","HOUSE_NO":"７１號三樓","E_COORD97":174058.28,"N_COORD97":2538432.9500000002,"ADDRESS":"德善路３０５巷１３弄７１號三樓","OBJECTID":88736},"geometry":{"x":174058.27999999933,"y":2538432.950000003}},{"attributes":{"ID":88737,"DIS_CODE":0,"TOWNNAME":"玉井區","LI":"豐里里","LIN":"15鄰","STREET":" ","SECT":" ","MAREA":"豐里","LANE":" ","ALLEY":" ","HOUSE_NO":"１６９號","E_COORD97":195235.62,"N_COORD97":2563337.25,"ADDRESS":"豐里１６９號","OBJECTID":88737},"geometry":{"x":195235.62000000197,"y":2563337.25}},{"attributes":{"ID":88738,"DIS_CODE":0,"TOWNNAME":"仁德區","LI":"上崙里","LIN":"10鄰","STREET":"德善路","SECT":" ","MAREA":" ","LANE":"３０５巷","ALLEY":"１３弄","HOUSE_NO":"７５號三樓","E_COORD97":174063.32999999999,"N_COORD97":2538413.1899999999,"ADDRESS":"德善路３０５巷１３弄７５號三樓","OBJECTID":88738},"geometry":{"x":174063.33000000101,"y":2538413.1899999995}},{"attributes":{"ID":88739,"DIS_CODE":0,"TOWNNAME":"玉井區","LI":"望明里","LIN":"15鄰","STREET":" ","SECT":" ","MAREA":"望明","LANE":" ","ALLEY":" ","HOUSE_NO":"１５６號","E_COORD97":192188.29000000001,"N_COORD97":2555943.25,"ADDRESS":"望明１５６號","OBJECTID":88739},"geometry":{"x":192188.29000000097,"y":2555943.2500000037}},{"attributes":{"ID":88740,"DIS_CODE":0,"TOWNNAME":"將軍區","LI":"將貴里","LIN":"12鄰","STREET":" ","SECT":" ","MAREA":"將榮","LANE":" ","ALLEY":" ","HOUSE_NO":"１３號","E_COORD97":161848.48000000001,"N_COORD97":2568504.7400000002,"ADDRESS":"將榮１３號","OBJECTID":88740},"geometry":{"x":161848.48000000231,"y":2568504.7400000039}},{"attributes":{"ID":88741,"DIS_CODE":0,"TOWNNAME":"將軍區","LI":"將貴里","LIN":"12鄰","STREET":" ","SECT":" ","MAREA":"將榮","LANE":" ","ALLEY":" ","HOUSE_NO":"１４之２號","E_COORD97":161860.12,"N_COORD97":2568487.1400000001,"ADDRESS":"將榮１４之２號","OBJECTID":88741},"geometry":{"x":161860.12000000011,"y":2568487.1400000025}},{"attributes":{"ID":88742,"DIS_CODE":0,"TOWNNAME":"將軍區","LI":"將貴里","LIN":"12鄰","STREET":" ","SECT":" ","MAREA":"將榮","LANE":" ","ALLEY":" ","HOUSE_NO":"１４之３號","E_COORD97":161855.26000000001,"N_COORD97":2568484.8999999999,"ADDRESS":"將榮１４之３號","OBJECTID":88742},"geometry":{"x":161855.25999999978,"y":2568484.9000000022}},{"attributes":{"ID":88743,"DIS_CODE":0,"TOWNNAME":"將軍區","LI":"將貴里","LIN":"12鄰","STREET":" ","SECT":" ","MAREA":"將榮","LANE":" ","ALLEY":" ","HOUSE_NO":"１５之１號","E_COORD97":161860.63,"N_COORD97":2568514.6800000002,"ADDRESS":"將榮１５之１號","OBJECTID":88743},"geometry":{"x":161860.63000000082,"y":2568514.6800000034}},{"attributes":{"ID":88744,"DIS_CODE":0,"TOWNNAME":"將軍區","LI":"將貴里","LIN":"12鄰","STREET":" ","SECT":" ","MAREA":"將榮","LANE":" ","ALLEY":" ","HOUSE_NO":"１５之２號","E_COORD97":161863.60000000001,"N_COORD97":2568516.4700000002,"ADDRESS":"將榮１５之２號","OBJECTID":88744},"geometry":{"x":161863.59999999963,"y":2568516.4700000007}},{"attributes":{"ID":88745,"DIS_CODE":0,"TOWNNAME":"將軍區","LI":"將貴里","LIN":"12鄰","STREET":" ","SECT":" ","MAREA":"將榮","LANE":" ","ALLEY":" ","HOUSE_NO":"１５之３號","E_COORD97":161865.70000000001,"N_COORD97":2568518.0600000001,"ADDRESS":"將榮１５之３號","OBJECTID":88745},"geometry":{"x":161865.70000000112,"y":2568518.0600000024}},{"attributes":{"ID":88746,"DIS_CODE":0,"TOWNNAME":"將軍區","LI":"將貴里","LIN":"12鄰","STREET":" ","SECT":" ","MAREA":"將榮","LANE":" ","ALLEY":" ","HOUSE_NO":"１５之４號","E_COORD97":161869.16,"N_COORD97":2568519.79,"ADDRESS":"將榮１５之４號","OBJECTID":88746},"geometry":{"x":161869.16000000108,"y":2568519.7899999991}},{"attributes":{"ID":88747,"DIS_CODE":0,"TOWNNAME":"將軍區","LI":"將貴里","LIN":"12鄰","STREET":" ","SECT":" ","MAREA":"將榮","LANE":" ","ALLEY":" ","HOUSE_NO":"１５號","E_COORD97":161857.22,"N_COORD97":2568513.02,"ADDRESS":"將榮１５號","OBJECTID":88747},"geometry":{"x":161857.21999999974,"y":2568513.0200000014}},{"attributes":{"ID":88748,"DIS_CODE":0,"TOWNNAME":"將軍區","LI":"將貴里","LIN":"12鄰","STREET":" ","SECT":" ","MAREA":"將榮","LANE":" ","ALLEY":" ","HOUSE_NO":"１之１號","E_COORD97":161786.64999999999,"N_COORD97":2568449.2599999998,"ADDRESS":"將榮１之１號","OBJECTID":88748},"geometry":{"x":161786.6500000013,"y":2568449.2599999998}},{"attributes":{"ID":88749,"DIS_CODE":0,"TOWNNAME":"將軍區","LI":"將貴里","LIN":"12鄰","STREET":" ","SECT":" ","MAREA":"將榮","LANE":" ","ALLEY":" ","HOUSE_NO":"１之２號","E_COORD97":161785.69,"N_COORD97":2568444.2999999998,"ADDRESS":"將榮１之２號","OBJECTID":88749},"geometry":{"x":161785.69000000041,"y":2568444.3000000026}},{"attributes":{"ID":88750,"DIS_CODE":0,"TOWNNAME":"仁德區","LI":"上崙里","LIN":"10鄰","STREET":"德善路","SECT":" ","MAREA":" ","LANE":"３０５巷","ALLEY":"１３弄","HOUSE_NO":"８９號二樓","E_COORD97":174082.73000000001,"N_COORD97":2538410.6899999999,"ADDRESS":"德善路３０５巷１３弄８９號二樓","OBJECTID":88750},"geometry":{"x":174082.73000000231,"y":2538410.6899999995}},{"attributes":{"ID":88751,"DIS_CODE":0,"TOWNNAME":"玉井區","LI":"層林里","LIN":"15鄰","STREET":" ","SECT":" ","MAREA":"層林","LANE":" ","ALLEY":" ","HOUSE_NO":"１５號","E_COORD97":193695.26000000001,"N_COORD97":2554127.2400000002,"ADDRESS":"層林１５號","OBJECTID":88751},"geometry":{"x":193695.26000000071,"y":2554127.2400000021}},{"attributes":{"ID":88752,"DIS_CODE":0,"TOWNNAME":"玉井區","LI":"望明里","LIN":"15鄰","STREET":" ","SECT":" ","MAREA":"望明","LANE":" ","ALLEY":" ","HOUSE_NO":"１５９之１號","E_COORD97":191934.98000000001,"N_COORD97":2555770.29,"ADDRESS":"望明１５９之１號","OBJECTID":88752},"geometry":{"x":191934.98000000138,"y":2555770.290000001}},{"attributes":{"ID":88753,"DIS_CODE":0,"TOWNNAME":"仁德區","LI":"仁義里","LIN":"10鄰","STREET":"中山路","SECT":" ","MAREA":" ","LANE":"５０９巷","ALLEY":"１８弄","HOUSE_NO":"２號三樓之３","E_COORD97":173520.60000000001,"N_COORD97":2541259.1899999999,"ADDRESS":"中山路５０９巷１８弄２號三樓之３","OBJECTID":88753},"geometry":{"x":173520.60000000056,"y":2541259.1900000032}},{"attributes":{"ID":88754,"DIS_CODE":0,"TOWNNAME":"玉井區","LI":"層林里","LIN":"15鄰","STREET":" ","SECT":" ","MAREA":"層林","LANE":" ","ALLEY":" ","HOUSE_NO":"１８號","E_COORD97":193677.67000000001,"N_COORD97":2554089.25,"ADDRESS":"層林１８號","OBJECTID":88754},"geometry":{"x":193677.67000000086,"y":2554089.2500000019}},{"attributes":{"ID":88755,"DIS_CODE":0,"TOWNNAME":"學甲區","LI":"豐和里","LIN":"15鄰","STREET":" ","SECT":" ","MAREA":"美豐","LANE":" ","ALLEY":" ","HOUSE_NO":"１５０號","E_COORD97":167395.56,"N_COORD97":2568074.0800000001,"ADDRESS":"美豐１５０號","OBJECTID":88755},"geometry":{"x":167395.56000000052,"y":2568074.0800000001}},{"attributes":{"ID":88756,"DIS_CODE":0,"TOWNNAME":"學甲區","LI":"三慶里","LIN":"15鄰","STREET":" ","SECT":" ","MAREA":"紅茄","LANE":" ","ALLEY":" ","HOUSE_NO":"１０號之１８","E_COORD97":167615.89999999999,"N_COORD97":2575979.5899999999,"ADDRESS":"紅茄１０號之１８","OBJECTID":88756},"geometry":{"x":167615.89999999944,"y":2575979.5899999999}},{"attributes":{"ID":88757,"DIS_CODE":0,"TOWNNAME":"仁德區","LI":"仁義里","LIN":"10鄰","STREET":"中山路","SECT":" ","MAREA":" ","LANE":"５０９巷","ALLEY":"１８弄","HOUSE_NO":"２號八樓之５","E_COORD97":173520.66,"N_COORD97":2541259.1899999999,"ADDRESS":"中山路５０９巷１８弄２號八樓之５","OBJECTID":88757},"geometry":{"x":173520.66000000108,"y":2541259.1900000032}},{"attributes":{"ID":88758,"DIS_CODE":0,"TOWNNAME":"仁德區","LI":"仁義里","LIN":"10鄰","STREET":"中山路","SECT":" ","MAREA":" ","LANE":"５０９巷","ALLEY":"１８弄","HOUSE_NO":"２號十四樓之１","E_COORD97":173521.75,"N_COORD97":2541259.1899999999,"ADDRESS":"中山路５０９巷１８弄２號十四樓之１","OBJECTID":88758},"geometry":{"x":173521.75000000093,"y":2541259.1900000032}},{"attributes":{"ID":88759,"DIS_CODE":0,"TOWNNAME":"學甲區","LI":"三慶里","LIN":"15鄰","STREET":" ","SECT":" ","MAREA":"紅茄","LANE":" ","ALLEY":" ","HOUSE_NO":"１０號之１９","E_COORD97":167634.07000000001,"N_COORD97":2575975.04,"ADDRESS":"紅茄１０號之１９","OBJECTID":88759},"geometry":{"x":167634.07000000123,"y":2575975.040000001}},{"attributes":{"ID":88760,"DIS_CODE":0,"TOWNNAME":"學甲區","LI":"三慶里","LIN":"15鄰","STREET":" ","SECT":" ","MAREA":"紅茄","LANE":" ","ALLEY":" ","HOUSE_NO":"１０號之１","E_COORD97":167701.78,"N_COORD97":2575838.8900000001,"ADDRESS":"紅茄１０號之１","OBJECTID":88760},"geometry":{"x":167701.78000000119,"y":2575838.8900000025}},{"attributes":{"ID":88761,"DIS_CODE":0,"TOWNNAME":"學甲區","LI":"三慶里","LIN":"15鄰","STREET":" ","SECT":" ","MAREA":"紅茄","LANE":" ","ALLEY":" ","HOUSE_NO":"１０號之２０","E_COORD97":167717.14999999999,"N_COORD97":2575974.1000000001,"ADDRESS":"紅茄１０號之２０","OBJECTID":88761},"geometry":{"x":167717.15000000037,"y":2575974.1000000034}},{"attributes":{"ID":88762,"DIS_CODE":0,"TOWNNAME":"學甲區","LI":"三慶里","LIN":"15鄰","STREET":" ","SECT":" ","MAREA":"紅茄","LANE":" ","ALLEY":" ","HOUSE_NO":"１０號之２９","E_COORD97":167844.69,"N_COORD97":2575962.3599999999,"ADDRESS":"紅茄１０號之２９","OBJECTID":88762},"geometry":{"x":167844.69000000227,"y":2575962.3600000013}},{"attributes":{"ID":88763,"DIS_CODE":0,"TOWNNAME":"學甲區","LI":"三慶里","LIN":"15鄰","STREET":" ","SECT":" ","MAREA":"紅茄","LANE":" ","ALLEY":" ","HOUSE_NO":"１０號之３１","E_COORD97":167840.64999999999,"N_COORD97":2575938.8500000001,"ADDRESS":"紅茄１０號之３１","OBJECTID":88763},"geometry":{"x":167840.65000000037,"y":2575938.8500000015}},{"attributes":{"ID":88764,"DIS_CODE":0,"TOWNNAME":"學甲區","LI":"三慶里","LIN":"15鄰","STREET":" ","SECT":" ","MAREA":"紅茄","LANE":" ","ALLEY":" ","HOUSE_NO":"１０號之３２","E_COORD97":167939.14999999999,"N_COORD97":2575936.1800000002,"ADDRESS":"紅茄１０號之３２","OBJECTID":88764},"geometry":{"x":167939.15000000037,"y":2575936.1799999978}},{"attributes":{"ID":88765,"DIS_CODE":0,"TOWNNAME":"學甲區","LI":"三慶里","LIN":"15鄰","STREET":" ","SECT":" ","MAREA":"紅茄","LANE":" ","ALLEY":" ","HOUSE_NO":"１０號之３３","E_COORD97":167954.17999999999,"N_COORD97":2575977.3199999998,"ADDRESS":"紅茄１０號之３３","OBJECTID":88765},"geometry":{"x":167954.18000000156,"y":2575977.3200000022}},{"attributes":{"ID":88766,"DIS_CODE":0,"TOWNNAME":"學甲區","LI":"三慶里","LIN":"15鄰","STREET":" ","SECT":" ","MAREA":"紅茄","LANE":" ","ALLEY":" ","HOUSE_NO":"１０號之８","E_COORD97":167545.82999999999,"N_COORD97":2575983.8700000001,"ADDRESS":"紅茄１０號之８","OBJECTID":88766},"geometry":{"x":167545.83000000007,"y":2575983.8700000048}},{"attributes":{"ID":88767,"DIS_CODE":0,"TOWNNAME":"學甲區","LI":"三慶里","LIN":"15鄰","STREET":" ","SECT":" ","MAREA":"紅茄","LANE":" ","ALLEY":" ","HOUSE_NO":"９號之８","E_COORD97":168014.22,"N_COORD97":2576026.9300000002,"ADDRESS":"紅茄９號之８","OBJECTID":88767},"geometry":{"x":168014.21999999974,"y":2576026.9300000016}},{"attributes":{"ID":88768,"DIS_CODE":0,"TOWNNAME":"仁德區","LI":"仁義里","LIN":"10鄰","STREET":"中山路","SECT":" ","MAREA":" ","LANE":"５０９巷","ALLEY":"１８弄","HOUSE_NO":"２號五樓之１","E_COORD97":173520.5,"N_COORD97":2541259.1899999999,"ADDRESS":"中山路５０９巷１８弄２號五樓之１","OBJECTID":88768},"geometry":{"x":173520.5,"y":2541259.1900000032}},{"attributes":{"ID":88769,"DIS_CODE":0,"TOWNNAME":"仁德區","LI":"仁義里","LIN":"10鄰","STREET":"中山路","SECT":" ","MAREA":" ","LANE":"５０９巷","ALLEY":"１８弄","HOUSE_NO":"２號十一樓之２","E_COORD97":173521.89000000001,"N_COORD97":2541259.1899999999,"ADDRESS":"中山路５０９巷１８弄２號十一樓之２","OBJECTID":88769},"geometry":{"x":173521.8900000006,"y":2541259.1900000032}},{"attributes":{"ID":88770,"DIS_CODE":0,"TOWNNAME":"仁德區","LI":"仁義里","LIN":"10鄰","STREET":"中山路","SECT":" ","MAREA":" ","LANE":"５０９巷","ALLEY":"１８弄","HOUSE_NO":"２號七樓之３","E_COORD97":173520.60000000001,"N_COORD97":2541259.1899999999,"ADDRESS":"中山路５０９巷１８弄２號七樓之３","OBJECTID":88770},"geometry":{"x":173520.60000000056,"y":2541259.1900000032}},{"attributes":{"ID":88771,"DIS_CODE":0,"TOWNNAME":"仁德區","LI":"仁義里","LIN":"10鄰","STREET":"中山路","SECT":" ","MAREA":" ","LANE":"５０９巷","ALLEY":"１８弄","HOUSE_NO":"２號五樓之３","E_COORD97":173520.60000000001,"N_COORD97":2541259.1899999999,"ADDRESS":"中山路５０９巷１８弄２號五樓之３","OBJECTID":88771},"geometry":{"x":173520.60000000056,"y":2541259.1900000032}},{"attributes":{"ID":88772,"DIS_CODE":0,"TOWNNAME":"學甲區","LI":"新達里","LIN":"15鄰","STREET":" ","SECT":" ","MAREA":"頂山寮","LANE":" ","ALLEY":" ","HOUSE_NO":"３１號","E_COORD97":167713.01999999999,"N_COORD97":2571049.3100000001,"ADDRESS":"頂山寮３１號","OBJECTID":88772},"geometry":{"x":167713.02000000048,"y":2571049.3100000005}},{"attributes":{"ID":88773,"DIS_CODE":0,"TOWNNAME":"學甲區","LI":"新達里","LIN":"15鄰","STREET":" ","SECT":" ","MAREA":"頂山寮","LANE":" ","ALLEY":" ","HOUSE_NO":"３２號","E_COORD97":167713.06,"N_COORD97":2571023.1600000001,"ADDRESS":"頂山寮３２號","OBJECTID":88773},"geometry":{"x":167713.06000000052,"y":2571023.1600000001}},{"attributes":{"ID":88774,"DIS_CODE":0,"TOWNNAME":"仁德區","LI":"上崙里","LIN":"10鄰","STREET":"德善路","SECT":" ","MAREA":" ","LANE":"３０５巷","ALLEY":"１３弄","HOUSE_NO":"７５號四樓","E_COORD97":174063.32999999999,"N_COORD97":2538413.1899999999,"ADDRESS":"德善路３０５巷１３弄７５號四樓","OBJECTID":88774},"geometry":{"x":174063.33000000101,"y":2538413.1899999995}},{"attributes":{"ID":88775,"DIS_CODE":0,"TOWNNAME":"仁德區","LI":"上崙里","LIN":"10鄰","STREET":"德善路","SECT":" ","MAREA":" ","LANE":"３０５巷","ALLEY":"１３弄","HOUSE_NO":"９１號二樓","E_COORD97":174085.35999999999,"N_COORD97":2538401.6899999999,"ADDRESS":"德善路３０５巷１３弄９１號二樓","OBJECTID":88775},"geometry":{"x":174085.36000000127,"y":2538401.6900000013}},{"attributes":{"ID":88776,"DIS_CODE":0,"TOWNNAME":"仁德區","LI":"仁義里","LIN":"10鄰","STREET":"中山路","SECT":" ","MAREA":" ","LANE":"５０９巷","ALLEY":"１８弄","HOUSE_NO":"２號十四樓之６","E_COORD97":173521.85999999999,"N_COORD97":2541259.1899999999,"ADDRESS":"中山路５０９巷１８弄２號十四樓之６","OBJECTID":88776},"geometry":{"x":173521.86000000034,"y":2541259.1900000032}},{"attributes":{"ID":88777,"DIS_CODE":0,"TOWNNAME":"仁德區","LI":"仁義里","LIN":"10鄰","STREET":"中山路","SECT":" ","MAREA":" ","LANE":"５０９巷","ALLEY":"１８弄","HOUSE_NO":"２號九樓之５","E_COORD97":173520.66,"N_COORD97":2541259.1899999999,"ADDRESS":"中山路５０９巷１８弄２號九樓之５","OBJECTID":88777},"geometry":{"x":173520.66000000108,"y":2541259.1900000032}},{"attributes":{"ID":88778,"DIS_CODE":0,"TOWNNAME":"仁德區","LI":"上崙里","LIN":"10鄰","STREET":"德善路","SECT":" ","MAREA":" ","LANE":"３０５巷","ALLEY":"１３弄","HOUSE_NO":"７１號六樓","E_COORD97":174058.28,"N_COORD97":2538432.9500000002,"ADDRESS":"德善路３０５巷１３弄７１號六樓","OBJECTID":88778},"geometry":{"x":174058.27999999933,"y":2538432.950000003}},{"attributes":{"ID":88779,"DIS_CODE":0,"TOWNNAME":"仁德區","LI":"上崙里","LIN":"10鄰","STREET":"德善路","SECT":" ","MAREA":" ","LANE":"３０５巷","ALLEY":"１３弄","HOUSE_NO":"７１號二樓","E_COORD97":174058.28,"N_COORD97":2538432.9500000002,"ADDRESS":"德善路３０５巷１３弄７１號二樓","OBJECTID":88779},"geometry":{"x":174058.27999999933,"y":2538432.950000003}},{"attributes":{"ID":88780,"DIS_CODE":0,"TOWNNAME":"仁德區","LI":"上崙里","LIN":"10鄰","STREET":"德善路","SECT":" ","MAREA":" ","LANE":"３０５巷","ALLEY":"１３弄","HOUSE_NO":"８１號二樓","E_COORD97":174069.73000000001,"N_COORD97":2538424.9399999999,"ADDRESS":"德善路３０５巷１３弄８１號二樓","OBJECTID":88780},"geometry":{"x":174069.73000000138,"y":2538424.9399999995}},{"attributes":{"ID":88781,"DIS_CODE":0,"TOWNNAME":"仁德區","LI":"上崙里","LIN":"10鄰","STREET":"德善路","SECT":" ","MAREA":" ","LANE":"３０５巷","ALLEY":"１３弄","HOUSE_NO":"７３號六樓","E_COORD97":174061.37,"N_COORD97":2538423.4399999999,"ADDRESS":"德善路３０５巷１３弄７３號六樓","OBJECTID":88781},"geometry":{"x":174061.37000000104,"y":2538423.4400000032}},{"attributes":{"ID":88782,"DIS_CODE":0,"TOWNNAME":"仁德區","LI":"上崙里","LIN":"10鄰","STREET":"德善路","SECT":" ","MAREA":" ","LANE":"３０５巷","ALLEY":"１３弄","HOUSE_NO":"７７號三樓","E_COORD97":174066.23999999999,"N_COORD97":2538403.4399999999,"ADDRESS":"德善路３０５巷１３弄７７號三樓","OBJECTID":88782},"geometry":{"x":174066.24000000115,"y":2538403.4400000013}},{"attributes":{"ID":88783,"DIS_CODE":0,"TOWNNAME":"仁德區","LI":"上崙里","LIN":"10鄰","STREET":"德善路","SECT":" ","MAREA":" ","LANE":"３０５巷","ALLEY":"１３弄","HOUSE_NO":"６９號六樓","E_COORD97":174056.51999999999,"N_COORD97":2538440.2000000002,"ADDRESS":"德善路３０５巷１３弄６９號六樓","OBJECTID":88783},"geometry":{"x":174056.52000000048,"y":2538440.1999999993}},{"attributes":{"ID":88784,"DIS_CODE":0,"TOWNNAME":"仁德區","LI":"上崙里","LIN":"10鄰","STREET":"德善路","SECT":" ","MAREA":" ","LANE":"３０５巷","ALLEY":"１３弄","HOUSE_NO":"９１號六樓","E_COORD97":174085.35999999999,"N_COORD97":2538401.6899999999,"ADDRESS":"德善路３０５巷１３弄９１號六樓","OBJECTID":88784},"geometry":{"x":174085.36000000127,"y":2538401.6900000013}},{"attributes":{"ID":88785,"DIS_CODE":0,"TOWNNAME":"仁德區","LI":"上崙里","LIN":"10鄰","STREET":"德善路","SECT":" ","MAREA":" ","LANE":"３０５巷","ALLEY":"１３弄","HOUSE_NO":"７９號二樓","E_COORD97":174068.32999999999,"N_COORD97":2538396.4399999999,"ADDRESS":"德善路３０５巷１３弄７９號二樓","OBJECTID":88785},"geometry":{"x":174068.33000000101,"y":2538396.4400000013}},{"attributes":{"ID":88786,"DIS_CODE":0,"TOWNNAME":"仁德區","LI":"上崙里","LIN":"10鄰","STREET":"德善路","SECT":" ","MAREA":" ","LANE":"３０５巷","ALLEY":"１３弄","HOUSE_NO":"９１號三樓","E_COORD97":174085.35999999999,"N_COORD97":2538401.6899999999,"ADDRESS":"德善路３０５巷１３弄９１號三樓","OBJECTID":88786},"geometry":{"x":174085.36000000127,"y":2538401.6900000013}},{"attributes":{"ID":88787,"DIS_CODE":0,"TOWNNAME":"將軍區","LI":"鯤鯓里","LIN":"12鄰","STREET":" ","SECT":" ","MAREA":"鯤鯓","LANE":" ","ALLEY":" ","HOUSE_NO":"１２７號","E_COORD97":156717.09,"N_COORD97":2565613.9100000001,"ADDRESS":"鯤鯓１２７號","OBJECTID":88787},"geometry":{"x":156717.08999999985,"y":2565613.9100000001}},{"attributes":{"ID":88788,"DIS_CODE":0,"TOWNNAME":"仁德區","LI":"上崙里","LIN":"10鄰","STREET":"德善路","SECT":" ","MAREA":" ","LANE":"３０５巷","ALLEY":"１３弄","HOUSE_NO":"７９號五樓","E_COORD97":174068.32999999999,"N_COORD97":2538396.4399999999,"ADDRESS":"德善路３０５巷１３弄７９號五樓","OBJECTID":88788},"geometry":{"x":174068.33000000101,"y":2538396.4400000013}},{"attributes":{"ID":88789,"DIS_CODE":0,"TOWNNAME":"仁德區","LI":"上崙里","LIN":"10鄰","STREET":"德善路","SECT":" ","MAREA":" ","LANE":"３０５巷","ALLEY":"１３弄","HOUSE_NO":"８３號五樓","E_COORD97":174075.10000000001,"N_COORD97":2538405.4399999999,"ADDRESS":"德善路３０５巷１３弄８３號五樓","OBJECTID":88789},"geometry":{"x":174075.09999999963,"y":2538405.4399999995}},{"attributes":{"ID":88790,"DIS_CODE":0,"TOWNNAME":"仁德區","LI":"上崙里","LIN":"10鄰","STREET":"德善路","SECT":" ","MAREA":" ","LANE":"３０５巷","ALLEY":"１３弄","HOUSE_NO":"９１號四樓","E_COORD97":174085.35999999999,"N_COORD97":2538401.6899999999,"ADDRESS":"德善路３０５巷１３弄９１號四樓","OBJECTID":88790},"geometry":{"x":174085.36000000127,"y":2538401.6900000013}},{"attributes":{"ID":88791,"DIS_CODE":0,"TOWNNAME":"仁德區","LI":"上崙里","LIN":"10鄰","STREET":"德善路","SECT":" ","MAREA":" ","LANE":"３０５巷","ALLEY":"１３弄","HOUSE_NO":"７３號三樓","E_COORD97":174061.37,"N_COORD97":2538423.4399999999,"ADDRESS":"德善路３０５巷１３弄７３號三樓","OBJECTID":88791},"geometry":{"x":174061.37000000104,"y":2538423.4400000032}},{"attributes":{"ID":88792,"DIS_CODE":0,"TOWNNAME":"仁德區","LI":"上崙里","LIN":"10鄰","STREET":"德善路","SECT":" ","MAREA":" ","LANE":"３０５巷","ALLEY":"１３弄","HOUSE_NO":"７７號四樓","E_COORD97":174066.23999999999,"N_COORD97":2538403.4399999999,"ADDRESS":"德善路３０５巷１３弄７７號四樓","OBJECTID":88792},"geometry":{"x":174066.24000000115,"y":2538403.4400000013}},{"attributes":{"ID":88793,"DIS_CODE":0,"TOWNNAME":"仁德區","LI":"上崙里","LIN":"10鄰","STREET":"德善路","SECT":" ","MAREA":" ","LANE":"３０５巷","ALLEY":"１３弄","HOUSE_NO":"８７號六樓","E_COORD97":174080.37,"N_COORD97":2538419.1899999999,"ADDRESS":"德善路３０５巷１３弄８７號六樓","OBJECTID":88793},"geometry":{"x":174080.37000000104,"y":2538419.1900000013}},{"attributes":{"ID":88794,"DIS_CODE":0,"TOWNNAME":"仁德區","LI":"上崙里","LIN":"10鄰","STREET":"德善路","SECT":" ","MAREA":" ","LANE":"３０５巷","ALLEY":"１３弄","HOUSE_NO":"７７號六樓","E_COORD97":174066.23999999999,"N_COORD97":2538403.4399999999,"ADDRESS":"德善路３０５巷１３弄７７號六樓","OBJECTID":88794},"geometry":{"x":174066.24000000115,"y":2538403.4400000013}},{"attributes":{"ID":88795,"DIS_CODE":0,"TOWNNAME":"仁德區","LI":"上崙里","LIN":"10鄰","STREET":"德善路","SECT":" ","MAREA":" ","LANE":"３０５巷","ALLEY":"１３弄","HOUSE_NO":"６９號五樓","E_COORD97":174056.51999999999,"N_COORD97":2538440.2000000002,"ADDRESS":"德善路３０５巷１３弄６９號五樓","OBJECTID":88795},"geometry":{"x":174056.52000000048,"y":2538440.1999999993}},{"attributes":{"ID":88796,"DIS_CODE":0,"TOWNNAME":"仁德區","LI":"上崙里","LIN":"10鄰","STREET":"德善路","SECT":" ","MAREA":" ","LANE":"３０５巷","ALLEY":"１３弄","HOUSE_NO":"８７號二樓","E_COORD97":174080.37,"N_COORD97":2538419.1899999999,"ADDRESS":"德善路３０５巷１３弄８７號二樓","OBJECTID":88796},"geometry":{"x":174080.37000000104,"y":2538419.1900000013}},{"attributes":{"ID":88797,"DIS_CODE":0,"TOWNNAME":"仁德區","LI":"上崙里","LIN":"10鄰","STREET":"德善路","SECT":" ","MAREA":" ","LANE":"３０５巷","ALLEY":"１３弄","HOUSE_NO":"８３號三樓","E_COORD97":174075.10000000001,"N_COORD97":2538405.4399999999,"ADDRESS":"德善路３０５巷１３弄８３號三樓","OBJECTID":88797},"geometry":{"x":174075.09999999963,"y":2538405.4399999995}},{"attributes":{"ID":88798,"DIS_CODE":0,"TOWNNAME":"仁德區","LI":"上崙里","LIN":"10鄰","STREET":"德善路","SECT":" ","MAREA":" ","LANE":"３０５巷","ALLEY":"１３弄","HOUSE_NO":"７１號五樓","E_COORD97":174058.28,"N_COORD97":2538432.9500000002,"ADDRESS":"德善路３０５巷１３弄７１號五樓","OBJECTID":88798},"geometry":{"x":174058.27999999933,"y":2538432.950000003}},{"attributes":{"ID":88799,"DIS_CODE":0,"TOWNNAME":"仁德區","LI":"上崙里","LIN":"10鄰","STREET":"德善路","SECT":" ","MAREA":" ","LANE":"３０５巷","ALLEY":"１３弄","HOUSE_NO":"７５號二樓","E_COORD97":174063.32999999999,"N_COORD97":2538413.1899999999,"ADDRESS":"德善路３０５巷１３弄７５號二樓","OBJECTID":88799},"geometry":{"x":174063.33000000101,"y":2538413.1899999995}},{"attributes":{"ID":88800,"DIS_CODE":0,"TOWNNAME":"仁德區","LI":"上崙里","LIN":"10鄰","STREET":"德善路","SECT":" ","MAREA":" ","LANE":"３０５巷","ALLEY":"１３弄","HOUSE_NO":"７１號四樓","E_COORD97":174058.28,"N_COORD97":2538432.9500000002,"ADDRESS":"德善路３０５巷１３弄７１號四樓","OBJECTID":88800},"geometry":{"x":174058.27999999933,"y":2538432.950000003}}]}