{"displayFieldName":"TOWNNAME","fieldAliases":{"ID":"ID","DIS_CODE":"DIS_CODE","TOWNNAME":"TOWNNAME","LI":"LI","LIN":"LIN","STREET":"STREET","SECT":"SECT","MAREA":"MAREA","LANE":"LANE","ALLEY":"ALLEY","HOUSE_NO":"HOUSE_NO","E_COORD97":"E_COORD97","N_COORD97":"N_COORD97","ADDRESS":"ADDRESS","OBJECTID":"OBJECTID"},"geometryType":"esriGeometryPoint","spatialReference":{"wkid":102443,"latestWkid":3826},"fields":[{"name":"ID","type":"esriFieldTypeDouble","alias":"ID"},{"name":"DIS_CODE","type":"esriFieldTypeInteger","alias":"DIS_CODE"},{"name":"TOWNNAME","type":"esriFieldTypeString","alias":"TOWNNAME","length":8},{"name":"LI","type":"esriFieldTypeString","alias":"LI","length":8},{"name":"LIN","type":"esriFieldTypeString","alias":"LIN","length":12},{"name":"STREET","type":"esriFieldTypeString","alias":"STREET","length":20},{"name":"SECT","type":"esriFieldTypeString","alias":"SECT","length":8},{"name":"MAREA","type":"esriFieldTypeString","alias":"MAREA","length":12},{"name":"LANE","type":"esriFieldTypeString","alias":"LANE","length":10},{"name":"ALLEY","type":"esriFieldTypeString","alias":"ALLEY","length":10},{"name":"HOUSE_NO","type":"esriFieldTypeString","alias":"HOUSE_NO","length":20},{"name":"E_COORD97","type":"esriFieldTypeDouble","alias":"E_COORD97"},{"name":"N_COORD97","type":"esriFieldTypeDouble","alias":"N_COORD97"},{"name":"ADDRESS","type":"esriFieldTypeString","alias":"ADDRESS","length":50},{"name":"OBJECTID","type":"esriFieldTypeOID","alias":"OBJECTID"}],"features":[{"attributes":{"ID":473826,"DIS_CODE":0,"TOWNNAME":"東區","LI":"崇善里","LIN":"18鄰","STREET":"崇善十一街","SECT":" ","MAREA":" ","LANE":" ","ALLEY":" ","HOUSE_NO":"５２號八樓","E_COORD97":171282.66,"N_COORD97":2541215.7200000002,"ADDRESS":"崇善十一街５２號八樓","OBJECTID":473801},"geometry":{"x":171282.66000000108,"y":2541215.7200000007}},{"attributes":{"ID":473827,"DIS_CODE":0,"TOWNNAME":"東區","LI":"崇善里","LIN":"18鄰","STREET":"崇善十一街","SECT":" ","MAREA":" ","LANE":" ","ALLEY":" ","HOUSE_NO":"５２號八樓之１","E_COORD97":171282.66,"N_COORD97":2541215.7200000002,"ADDRESS":"崇善十一街５２號八樓之１","OBJECTID":473802},"geometry":{"x":171282.66000000108,"y":2541215.7200000007}},{"attributes":{"ID":473828,"DIS_CODE":0,"TOWNNAME":"東區","LI":"崇善里","LIN":"18鄰","STREET":"崇善十一街","SECT":" ","MAREA":" ","LANE":" ","ALLEY":" ","HOUSE_NO":"５２號八樓之２","E_COORD97":171282.66,"N_COORD97":2541215.7200000002,"ADDRESS":"崇善十一街５２號八樓之２","OBJECTID":473803},"geometry":{"x":171282.66000000108,"y":2541215.7200000007}},{"attributes":{"ID":473829,"DIS_CODE":0,"TOWNNAME":"東區","LI":"崇善里","LIN":"18鄰","STREET":"崇善十一街","SECT":" ","MAREA":" ","LANE":" ","ALLEY":" ","HOUSE_NO":"５２號八樓之３","E_COORD97":171282.66,"N_COORD97":2541215.7200000002,"ADDRESS":"崇善十一街５２號八樓之３","OBJECTID":473804},"geometry":{"x":171282.66000000108,"y":2541215.7200000007}},{"attributes":{"ID":473830,"DIS_CODE":0,"TOWNNAME":"東區","LI":"崇善里","LIN":"18鄰","STREET":"崇善十一街","SECT":" ","MAREA":" ","LANE":" ","ALLEY":" ","HOUSE_NO":"５２號八樓之５","E_COORD97":171282.66,"N_COORD97":2541215.7200000002,"ADDRESS":"崇善十一街５２號八樓之５","OBJECTID":473805},"geometry":{"x":171282.66000000108,"y":2541215.7200000007}},{"attributes":{"ID":473831,"DIS_CODE":0,"TOWNNAME":"東區","LI":"崇善里","LIN":"18鄰","STREET":"崇善十一街","SECT":" ","MAREA":" ","LANE":" ","ALLEY":" ","HOUSE_NO":"５２號八樓之６","E_COORD97":171282.66,"N_COORD97":2541215.7200000002,"ADDRESS":"崇善十一街５２號八樓之６","OBJECTID":473806},"geometry":{"x":171282.66000000108,"y":2541215.7200000007}},{"attributes":{"ID":473832,"DIS_CODE":0,"TOWNNAME":"東區","LI":"崇善里","LIN":"18鄰","STREET":"崇善十一街","SECT":" ","MAREA":" ","LANE":" ","ALLEY":" ","HOUSE_NO":"５２號八樓之７","E_COORD97":171282.66,"N_COORD97":2541215.7200000002,"ADDRESS":"崇善十一街５２號八樓之７","OBJECTID":473807},"geometry":{"x":171282.66000000108,"y":2541215.7200000007}},{"attributes":{"ID":473833,"DIS_CODE":0,"TOWNNAME":"東區","LI":"崇善里","LIN":"18鄰","STREET":"崇善十一街","SECT":" ","MAREA":" ","LANE":" ","ALLEY":" ","HOUSE_NO":"５２號八樓之８","E_COORD97":171282.66,"N_COORD97":2541215.7200000002,"ADDRESS":"崇善十一街５２號八樓之８","OBJECTID":473808},"geometry":{"x":171282.66000000108,"y":2541215.7200000007}},{"attributes":{"ID":473834,"DIS_CODE":0,"TOWNNAME":"東區","LI":"崇善里","LIN":"18鄰","STREET":"崇善十一街","SECT":" ","MAREA":" ","LANE":" ","ALLEY":" ","HOUSE_NO":"５２號九樓","E_COORD97":171282.66,"N_COORD97":2541215.7200000002,"ADDRESS":"崇善十一街５２號九樓","OBJECTID":473809},"geometry":{"x":171282.66000000108,"y":2541215.7200000007}},{"attributes":{"ID":473835,"DIS_CODE":0,"TOWNNAME":"東區","LI":"崇善里","LIN":"18鄰","STREET":"崇善十一街","SECT":" ","MAREA":" ","LANE":" ","ALLEY":" ","HOUSE_NO":"５２號九樓之１","E_COORD97":171282.66,"N_COORD97":2541215.7200000002,"ADDRESS":"崇善十一街５２號九樓之１","OBJECTID":473810},"geometry":{"x":171282.66000000108,"y":2541215.7200000007}},{"attributes":{"ID":473836,"DIS_CODE":0,"TOWNNAME":"東區","LI":"崇善里","LIN":"18鄰","STREET":"崇善十一街","SECT":" ","MAREA":" ","LANE":" ","ALLEY":" ","HOUSE_NO":"５２號九樓之２","E_COORD97":171282.66,"N_COORD97":2541215.7200000002,"ADDRESS":"崇善十一街５２號九樓之２","OBJECTID":473811},"geometry":{"x":171282.66000000108,"y":2541215.7200000007}},{"attributes":{"ID":473837,"DIS_CODE":0,"TOWNNAME":"東區","LI":"崇善里","LIN":"18鄰","STREET":"崇善十一街","SECT":" ","MAREA":" ","LANE":" ","ALLEY":" ","HOUSE_NO":"５２號九樓之３","E_COORD97":171282.66,"N_COORD97":2541215.7200000002,"ADDRESS":"崇善十一街５２號九樓之３","OBJECTID":473812},"geometry":{"x":171282.66000000108,"y":2541215.7200000007}},{"attributes":{"ID":473838,"DIS_CODE":0,"TOWNNAME":"東區","LI":"崇善里","LIN":"18鄰","STREET":"崇善十一街","SECT":" ","MAREA":" ","LANE":" ","ALLEY":" ","HOUSE_NO":"５２號九樓之５","E_COORD97":171282.66,"N_COORD97":2541215.7200000002,"ADDRESS":"崇善十一街５２號九樓之５","OBJECTID":473813},"geometry":{"x":171282.66000000108,"y":2541215.7200000007}},{"attributes":{"ID":473839,"DIS_CODE":0,"TOWNNAME":"東區","LI":"崇善里","LIN":"18鄰","STREET":"崇善十一街","SECT":" ","MAREA":" ","LANE":" ","ALLEY":" ","HOUSE_NO":"５２號九樓之６","E_COORD97":171282.66,"N_COORD97":2541215.7200000002,"ADDRESS":"崇善十一街５２號九樓之６","OBJECTID":473814},"geometry":{"x":171282.66000000108,"y":2541215.7200000007}},{"attributes":{"ID":473840,"DIS_CODE":0,"TOWNNAME":"東區","LI":"崇善里","LIN":"18鄰","STREET":"崇善十一街","SECT":" ","MAREA":" ","LANE":" ","ALLEY":" ","HOUSE_NO":"５２號九樓之７","E_COORD97":171282.66,"N_COORD97":2541215.7200000002,"ADDRESS":"崇善十一街５２號九樓之７","OBJECTID":473815},"geometry":{"x":171282.66000000108,"y":2541215.7200000007}},{"attributes":{"ID":473841,"DIS_CODE":0,"TOWNNAME":"東區","LI":"崇善里","LIN":"18鄰","STREET":"崇善十一街","SECT":" ","MAREA":" ","LANE":" ","ALLEY":" ","HOUSE_NO":"５２號九樓之８","E_COORD97":171282.66,"N_COORD97":2541215.7200000002,"ADDRESS":"崇善十一街５２號九樓之８","OBJECTID":473816},"geometry":{"x":171282.66000000108,"y":2541215.7200000007}},{"attributes":{"ID":473842,"DIS_CODE":0,"TOWNNAME":"東區","LI":"崇善里","LIN":"18鄰","STREET":"崇善十一街","SECT":" ","MAREA":" ","LANE":" ","ALLEY":" ","HOUSE_NO":"５２號十樓","E_COORD97":171282.66,"N_COORD97":2541215.7200000002,"ADDRESS":"崇善十一街５２號十樓","OBJECTID":473817},"geometry":{"x":171282.66000000108,"y":2541215.7200000007}},{"attributes":{"ID":473843,"DIS_CODE":0,"TOWNNAME":"東區","LI":"崇善里","LIN":"18鄰","STREET":"崇善十一街","SECT":" ","MAREA":" ","LANE":" ","ALLEY":" ","HOUSE_NO":"５２號十樓之１","E_COORD97":171282.66,"N_COORD97":2541215.7200000002,"ADDRESS":"崇善十一街５２號十樓之１","OBJECTID":473818},"geometry":{"x":171282.66000000108,"y":2541215.7200000007}},{"attributes":{"ID":473844,"DIS_CODE":0,"TOWNNAME":"東區","LI":"崇善里","LIN":"18鄰","STREET":"崇善十一街","SECT":" ","MAREA":" ","LANE":" ","ALLEY":" ","HOUSE_NO":"５２號十樓之２","E_COORD97":171282.66,"N_COORD97":2541215.7200000002,"ADDRESS":"崇善十一街５２號十樓之２","OBJECTID":473819},"geometry":{"x":171282.66000000108,"y":2541215.7200000007}},{"attributes":{"ID":473845,"DIS_CODE":0,"TOWNNAME":"東區","LI":"崇善里","LIN":"18鄰","STREET":"崇善十一街","SECT":" ","MAREA":" ","LANE":" ","ALLEY":" ","HOUSE_NO":"５２號十樓之３","E_COORD97":171282.66,"N_COORD97":2541215.7200000002,"ADDRESS":"崇善十一街５２號十樓之３","OBJECTID":473820},"geometry":{"x":171282.66000000108,"y":2541215.7200000007}},{"attributes":{"ID":473846,"DIS_CODE":0,"TOWNNAME":"東區","LI":"崇善里","LIN":"18鄰","STREET":"崇善十一街","SECT":" ","MAREA":" ","LANE":" ","ALLEY":" ","HOUSE_NO":"５２號十樓之５","E_COORD97":171282.66,"N_COORD97":2541215.7200000002,"ADDRESS":"崇善十一街５２號十樓之５","OBJECTID":473821},"geometry":{"x":171282.66000000108,"y":2541215.7200000007}},{"attributes":{"ID":473847,"DIS_CODE":0,"TOWNNAME":"東區","LI":"崇善里","LIN":"18鄰","STREET":"崇善十一街","SECT":" ","MAREA":" ","LANE":" ","ALLEY":" ","HOUSE_NO":"５２號十樓之６","E_COORD97":171282.66,"N_COORD97":2541215.7200000002,"ADDRESS":"崇善十一街５２號十樓之６","OBJECTID":473822},"geometry":{"x":171282.66000000108,"y":2541215.7200000007}},{"attributes":{"ID":473848,"DIS_CODE":0,"TOWNNAME":"東區","LI":"崇善里","LIN":"18鄰","STREET":"崇善十一街","SECT":" ","MAREA":" ","LANE":" ","ALLEY":" ","HOUSE_NO":"５２號十樓之７","E_COORD97":171282.66,"N_COORD97":2541215.7200000002,"ADDRESS":"崇善十一街５２號十樓之７","OBJECTID":473823},"geometry":{"x":171282.66000000108,"y":2541215.7200000007}},{"attributes":{"ID":473849,"DIS_CODE":0,"TOWNNAME":"東區","LI":"崇善里","LIN":"18鄰","STREET":"崇善十一街","SECT":" ","MAREA":" ","LANE":" ","ALLEY":" ","HOUSE_NO":"５２號十樓之８","E_COORD97":171282.66,"N_COORD97":2541215.7200000002,"ADDRESS":"崇善十一街５２號十樓之８","OBJECTID":473824},"geometry":{"x":171282.66000000108,"y":2541215.7200000007}},{"attributes":{"ID":473850,"DIS_CODE":0,"TOWNNAME":"東區","LI":"崇善里","LIN":"18鄰","STREET":"崇善十一街","SECT":" ","MAREA":" ","LANE":" ","ALLEY":" ","HOUSE_NO":"５２號十一樓","E_COORD97":171282.66,"N_COORD97":2541215.7200000002,"ADDRESS":"崇善十一街５２號十一樓","OBJECTID":473825},"geometry":{"x":171282.66000000108,"y":2541215.7200000007}},{"attributes":{"ID":473851,"DIS_CODE":0,"TOWNNAME":"東區","LI":"崇善里","LIN":"18鄰","STREET":"崇善十一街","SECT":" ","MAREA":" ","LANE":" ","ALLEY":" ","HOUSE_NO":"５２號十一樓之１","E_COORD97":171282.66,"N_COORD97":2541215.7200000002,"ADDRESS":"崇善十一街５２號十一樓之１","OBJECTID":473826},"geometry":{"x":171282.66000000108,"y":2541215.7200000007}},{"attributes":{"ID":473852,"DIS_CODE":0,"TOWNNAME":"東區","LI":"崇善里","LIN":"18鄰","STREET":"崇善十一街","SECT":" ","MAREA":" ","LANE":" ","ALLEY":" ","HOUSE_NO":"５２號十一樓之２","E_COORD97":171282.66,"N_COORD97":2541215.7200000002,"ADDRESS":"崇善十一街５２號十一樓之２","OBJECTID":473827},"geometry":{"x":171282.66000000108,"y":2541215.7200000007}},{"attributes":{"ID":473853,"DIS_CODE":0,"TOWNNAME":"東區","LI":"崇善里","LIN":"18鄰","STREET":"崇善十一街","SECT":" ","MAREA":" ","LANE":" ","ALLEY":" ","HOUSE_NO":"５２號十一樓之３","E_COORD97":171282.66,"N_COORD97":2541215.7200000002,"ADDRESS":"崇善十一街５２號十一樓之３","OBJECTID":473828},"geometry":{"x":171282.66000000108,"y":2541215.7200000007}},{"attributes":{"ID":473854,"DIS_CODE":0,"TOWNNAME":"東區","LI":"崇善里","LIN":"18鄰","STREET":"崇善十一街","SECT":" ","MAREA":" ","LANE":" ","ALLEY":" ","HOUSE_NO":"５２號十一樓之５","E_COORD97":171282.66,"N_COORD97":2541215.7200000002,"ADDRESS":"崇善十一街５２號十一樓之５","OBJECTID":473829},"geometry":{"x":171282.66000000108,"y":2541215.7200000007}},{"attributes":{"ID":473855,"DIS_CODE":0,"TOWNNAME":"東區","LI":"崇善里","LIN":"18鄰","STREET":"崇善十一街","SECT":" ","MAREA":" ","LANE":" ","ALLEY":" ","HOUSE_NO":"５２號十一樓之６","E_COORD97":171282.66,"N_COORD97":2541215.7200000002,"ADDRESS":"崇善十一街５２號十一樓之６","OBJECTID":473830},"geometry":{"x":171282.66000000108,"y":2541215.7200000007}},{"attributes":{"ID":473856,"DIS_CODE":0,"TOWNNAME":"東區","LI":"崇善里","LIN":"18鄰","STREET":"崇善十一街","SECT":" ","MAREA":" ","LANE":" ","ALLEY":" ","HOUSE_NO":"５２號十一樓之７","E_COORD97":171282.66,"N_COORD97":2541215.7200000002,"ADDRESS":"崇善十一街５２號十一樓之７","OBJECTID":473831},"geometry":{"x":171282.66000000108,"y":2541215.7200000007}},{"attributes":{"ID":473857,"DIS_CODE":0,"TOWNNAME":"東區","LI":"崇善里","LIN":"18鄰","STREET":"崇善十一街","SECT":" ","MAREA":" ","LANE":" ","ALLEY":" ","HOUSE_NO":"５２號十一樓之８","E_COORD97":171282.66,"N_COORD97":2541215.7200000002,"ADDRESS":"崇善十一街５２號十一樓之８","OBJECTID":473832},"geometry":{"x":171282.66000000108,"y":2541215.7200000007}},{"attributes":{"ID":473858,"DIS_CODE":0,"TOWNNAME":"東區","LI":"崇善里","LIN":"18鄰","STREET":"崇善十一街","SECT":" ","MAREA":" ","LANE":" ","ALLEY":" ","HOUSE_NO":"５２號十二樓","E_COORD97":171282.66,"N_COORD97":2541215.7200000002,"ADDRESS":"崇善十一街５２號十二樓","OBJECTID":473833},"geometry":{"x":171282.66000000108,"y":2541215.7200000007}},{"attributes":{"ID":473859,"DIS_CODE":0,"TOWNNAME":"東區","LI":"崇善里","LIN":"18鄰","STREET":"崇善十一街","SECT":" ","MAREA":" ","LANE":" ","ALLEY":" ","HOUSE_NO":"５２號十二樓之１","E_COORD97":171282.66,"N_COORD97":2541215.7200000002,"ADDRESS":"崇善十一街５２號十二樓之１","OBJECTID":473834},"geometry":{"x":171282.66000000108,"y":2541215.7200000007}},{"attributes":{"ID":473860,"DIS_CODE":0,"TOWNNAME":"東區","LI":"崇善里","LIN":"18鄰","STREET":"崇善十一街","SECT":" ","MAREA":" ","LANE":" ","ALLEY":" ","HOUSE_NO":"５２號十二樓之２","E_COORD97":171282.66,"N_COORD97":2541215.7200000002,"ADDRESS":"崇善十一街５２號十二樓之２","OBJECTID":473835},"geometry":{"x":171282.66000000108,"y":2541215.7200000007}},{"attributes":{"ID":473861,"DIS_CODE":0,"TOWNNAME":"東區","LI":"崇善里","LIN":"18鄰","STREET":"崇善十一街","SECT":" ","MAREA":" ","LANE":" ","ALLEY":" ","HOUSE_NO":"５２號十二樓之３","E_COORD97":171282.66,"N_COORD97":2541215.7200000002,"ADDRESS":"崇善十一街５２號十二樓之３","OBJECTID":473836},"geometry":{"x":171282.66000000108,"y":2541215.7200000007}},{"attributes":{"ID":473862,"DIS_CODE":0,"TOWNNAME":"東區","LI":"崇善里","LIN":"18鄰","STREET":"崇善十一街","SECT":" ","MAREA":" ","LANE":" ","ALLEY":" ","HOUSE_NO":"５２號十二樓之５","E_COORD97":171282.66,"N_COORD97":2541215.7200000002,"ADDRESS":"崇善十一街５２號十二樓之５","OBJECTID":473837},"geometry":{"x":171282.66000000108,"y":2541215.7200000007}},{"attributes":{"ID":473863,"DIS_CODE":0,"TOWNNAME":"東區","LI":"崇善里","LIN":"18鄰","STREET":"崇善十一街","SECT":" ","MAREA":" ","LANE":" ","ALLEY":" ","HOUSE_NO":"５２號十二樓之６","E_COORD97":171282.66,"N_COORD97":2541215.7200000002,"ADDRESS":"崇善十一街５２號十二樓之６","OBJECTID":473838},"geometry":{"x":171282.66000000108,"y":2541215.7200000007}},{"attributes":{"ID":473864,"DIS_CODE":0,"TOWNNAME":"東區","LI":"崇善里","LIN":"18鄰","STREET":"崇善十一街","SECT":" ","MAREA":" ","LANE":" ","ALLEY":" ","HOUSE_NO":"５２號十二樓之７","E_COORD97":171282.66,"N_COORD97":2541215.7200000002,"ADDRESS":"崇善十一街５２號十二樓之７","OBJECTID":473839},"geometry":{"x":171282.66000000108,"y":2541215.7200000007}},{"attributes":{"ID":473865,"DIS_CODE":0,"TOWNNAME":"東區","LI":"崇善里","LIN":"18鄰","STREET":"崇善十一街","SECT":" ","MAREA":" ","LANE":" ","ALLEY":" ","HOUSE_NO":"５２號十二樓之８","E_COORD97":171282.66,"N_COORD97":2541215.7200000002,"ADDRESS":"崇善十一街５２號十二樓之８","OBJECTID":473840},"geometry":{"x":171282.66000000108,"y":2541215.7200000007}},{"attributes":{"ID":473866,"DIS_CODE":0,"TOWNNAME":"東區","LI":"崇善里","LIN":"18鄰","STREET":"崇善十一街","SECT":" ","MAREA":" ","LANE":" ","ALLEY":" ","HOUSE_NO":"５２號十三樓","E_COORD97":171282.66,"N_COORD97":2541215.7200000002,"ADDRESS":"崇善十一街５２號十三樓","OBJECTID":473841},"geometry":{"x":171282.66000000108,"y":2541215.7200000007}},{"attributes":{"ID":473867,"DIS_CODE":0,"TOWNNAME":"東區","LI":"崇善里","LIN":"18鄰","STREET":"崇善十一街","SECT":" ","MAREA":" ","LANE":" ","ALLEY":" ","HOUSE_NO":"５２號十三樓之１","E_COORD97":171282.66,"N_COORD97":2541215.7200000002,"ADDRESS":"崇善十一街５２號十三樓之１","OBJECTID":473842},"geometry":{"x":171282.66000000108,"y":2541215.7200000007}},{"attributes":{"ID":473868,"DIS_CODE":0,"TOWNNAME":"東區","LI":"崇善里","LIN":"18鄰","STREET":"崇善十一街","SECT":" ","MAREA":" ","LANE":" ","ALLEY":" ","HOUSE_NO":"５２號十三樓之２","E_COORD97":171282.66,"N_COORD97":2541215.7200000002,"ADDRESS":"崇善十一街５２號十三樓之２","OBJECTID":473843},"geometry":{"x":171282.66000000108,"y":2541215.7200000007}},{"attributes":{"ID":473869,"DIS_CODE":0,"TOWNNAME":"東區","LI":"崇善里","LIN":"18鄰","STREET":"崇善十一街","SECT":" ","MAREA":" ","LANE":" ","ALLEY":" ","HOUSE_NO":"５２號十三樓之３","E_COORD97":171282.66,"N_COORD97":2541215.7200000002,"ADDRESS":"崇善十一街５２號十三樓之３","OBJECTID":473844},"geometry":{"x":171282.66000000108,"y":2541215.7200000007}},{"attributes":{"ID":473870,"DIS_CODE":0,"TOWNNAME":"東區","LI":"崇成里","LIN":"18鄰","STREET":"崇德路","SECT":" ","MAREA":" ","LANE":" ","ALLEY":" ","HOUSE_NO":"６４０號","E_COORD97":170772.60999999999,"N_COORD97":2541168.6899999999,"ADDRESS":"崇德路６４０號","OBJECTID":473845},"geometry":{"x":170772.6100000022,"y":2541168.6900000013}},{"attributes":{"ID":473871,"DIS_CODE":0,"TOWNNAME":"東區","LI":"崇善里","LIN":"18鄰","STREET":"崇善十一街","SECT":" ","MAREA":" ","LANE":" ","ALLEY":" ","HOUSE_NO":"５２號十三樓之５","E_COORD97":171282.66,"N_COORD97":2541215.7200000002,"ADDRESS":"崇善十一街５２號十三樓之５","OBJECTID":473846},"geometry":{"x":171282.66000000108,"y":2541215.7200000007}},{"attributes":{"ID":473872,"DIS_CODE":0,"TOWNNAME":"東區","LI":"崇善里","LIN":"18鄰","STREET":"崇善十一街","SECT":" ","MAREA":" ","LANE":" ","ALLEY":" ","HOUSE_NO":"５２號十三樓之６","E_COORD97":171282.66,"N_COORD97":2541215.7200000002,"ADDRESS":"崇善十一街５２號十三樓之６","OBJECTID":473847},"geometry":{"x":171282.66000000108,"y":2541215.7200000007}},{"attributes":{"ID":473873,"DIS_CODE":0,"TOWNNAME":"東區","LI":"崇善里","LIN":"18鄰","STREET":"崇善十一街","SECT":" ","MAREA":" ","LANE":" ","ALLEY":" ","HOUSE_NO":"５２號十三樓之７","E_COORD97":171282.66,"N_COORD97":2541215.7200000002,"ADDRESS":"崇善十一街５２號十三樓之７","OBJECTID":473848},"geometry":{"x":171282.66000000108,"y":2541215.7200000007}},{"attributes":{"ID":473874,"DIS_CODE":0,"TOWNNAME":"東區","LI":"崇善里","LIN":"18鄰","STREET":"崇善十一街","SECT":" ","MAREA":" ","LANE":" ","ALLEY":" ","HOUSE_NO":"５２號十三樓之８","E_COORD97":171282.66,"N_COORD97":2541215.7200000002,"ADDRESS":"崇善十一街５２號十三樓之８","OBJECTID":473849},"geometry":{"x":171282.66000000108,"y":2541215.7200000007}},{"attributes":{"ID":473875,"DIS_CODE":0,"TOWNNAME":"東區","LI":"崇善里","LIN":"18鄰","STREET":"崇善十一街","SECT":" ","MAREA":" ","LANE":" ","ALLEY":" ","HOUSE_NO":"５２號十四樓","E_COORD97":171282.66,"N_COORD97":2541215.7200000002,"ADDRESS":"崇善十一街５２號十四樓","OBJECTID":473850},"geometry":{"x":171282.66000000108,"y":2541215.7200000007}},{"attributes":{"ID":473876,"DIS_CODE":0,"TOWNNAME":"東區","LI":"崇善里","LIN":"18鄰","STREET":"崇善十一街","SECT":" ","MAREA":" ","LANE":" ","ALLEY":" ","HOUSE_NO":"５２號十四樓之１","E_COORD97":171282.66,"N_COORD97":2541215.7200000002,"ADDRESS":"崇善十一街５２號十四樓之１","OBJECTID":473851},"geometry":{"x":171282.66000000108,"y":2541215.7200000007}},{"attributes":{"ID":473877,"DIS_CODE":0,"TOWNNAME":"東區","LI":"崇善里","LIN":"18鄰","STREET":"崇善十一街","SECT":" ","MAREA":" ","LANE":" ","ALLEY":" ","HOUSE_NO":"５２號十四樓之２","E_COORD97":171282.66,"N_COORD97":2541215.7200000002,"ADDRESS":"崇善十一街５２號十四樓之２","OBJECTID":473852},"geometry":{"x":171282.66000000108,"y":2541215.7200000007}},{"attributes":{"ID":473878,"DIS_CODE":0,"TOWNNAME":"東區","LI":"崇善里","LIN":"18鄰","STREET":"崇善十一街","SECT":" ","MAREA":" ","LANE":" ","ALLEY":" ","HOUSE_NO":"５２號十四樓之３","E_COORD97":171282.66,"N_COORD97":2541215.7200000002,"ADDRESS":"崇善十一街５２號十四樓之３","OBJECTID":473853},"geometry":{"x":171282.66000000108,"y":2541215.7200000007}},{"attributes":{"ID":473879,"DIS_CODE":0,"TOWNNAME":"中西區","LI":"法華里","LIN":"18鄰","STREET":"五妃街","SECT":" ","MAREA":" ","LANE":" ","ALLEY":" ","HOUSE_NO":"９７號二樓","E_COORD97":168864.85999999999,"N_COORD97":2542563.6200000001,"ADDRESS":"五妃街９７號二樓","OBJECTID":473854},"geometry":{"x":168864.86000000034,"y":2542563.6200000029}},{"attributes":{"ID":473880,"DIS_CODE":0,"TOWNNAME":"中西區","LI":"法華里","LIN":"18鄰","STREET":"五妃街","SECT":" ","MAREA":" ","LANE":" ","ALLEY":" ","HOUSE_NO":"９７號四樓","E_COORD97":168864.85999999999,"N_COORD97":2542563.6200000001,"ADDRESS":"五妃街９７號四樓","OBJECTID":473855},"geometry":{"x":168864.86000000034,"y":2542563.6200000029}},{"attributes":{"ID":473881,"DIS_CODE":0,"TOWNNAME":"中西區","LI":"法華里","LIN":"18鄰","STREET":"五妃街","SECT":" ","MAREA":" ","LANE":" ","ALLEY":" ","HOUSE_NO":"９７號三樓","E_COORD97":168864.85999999999,"N_COORD97":2542563.6200000001,"ADDRESS":"五妃街９７號三樓","OBJECTID":473856},"geometry":{"x":168864.86000000034,"y":2542563.6200000029}},{"attributes":{"ID":473882,"DIS_CODE":0,"TOWNNAME":"佳里區","LI":"鎮山里","LIN":"18鄰","STREET":"佳南路","SECT":" ","MAREA":" ","LANE":" ","ALLEY":" ","HOUSE_NO":"２２８號","E_COORD97":166110.01999999999,"N_COORD97":2561043.1200000001,"ADDRESS":"佳南路２２８號","OBJECTID":473857},"geometry":{"x":166110.01999999955,"y":2561043.120000001}},{"attributes":{"ID":473883,"DIS_CODE":0,"TOWNNAME":"東區","LI":"成大里","LIN":"18鄰","STREET":"大學路","SECT":"西段","MAREA":" ","LANE":" ","ALLEY":" ","HOUSE_NO":"８５號二樓","E_COORD97":169478.29000000001,"N_COORD97":2544125.7599999998,"ADDRESS":"大學路西段８５號二樓","OBJECTID":473858},"geometry":{"x":169478.29000000097,"y":2544125.7599999998}},{"attributes":{"ID":473884,"DIS_CODE":0,"TOWNNAME":"東區","LI":"成大里","LIN":"18鄰","STREET":"大學路","SECT":"西段","MAREA":" ","LANE":" ","ALLEY":" ","HOUSE_NO":"８５號三樓","E_COORD97":169478.29000000001,"N_COORD97":2544125.7599999998,"ADDRESS":"大學路西段８５號三樓","OBJECTID":473859},"geometry":{"x":169478.29000000097,"y":2544125.7599999998}},{"attributes":{"ID":473885,"DIS_CODE":0,"TOWNNAME":"東區","LI":"成大里","LIN":"18鄰","STREET":"大學路","SECT":"西段","MAREA":" ","LANE":" ","ALLEY":" ","HOUSE_NO":"８７號二樓","E_COORD97":169462.85000000001,"N_COORD97":2544126.7799999998,"ADDRESS":"大學路西段８７號二樓","OBJECTID":473860},"geometry":{"x":169462.84999999963,"y":2544126.7800000031}},{"attributes":{"ID":473886,"DIS_CODE":0,"TOWNNAME":"東區","LI":"成大里","LIN":"18鄰","STREET":"大學路","SECT":"西段","MAREA":" ","LANE":" ","ALLEY":" ","HOUSE_NO":"８７號三樓","E_COORD97":169462.85000000001,"N_COORD97":2544126.7799999998,"ADDRESS":"大學路西段８７號三樓","OBJECTID":473861},"geometry":{"x":169462.84999999963,"y":2544126.7800000031}},{"attributes":{"ID":473887,"DIS_CODE":0,"TOWNNAME":"東區","LI":"成大里","LIN":"18鄰","STREET":"大學路","SECT":"西段","MAREA":" ","LANE":" ","ALLEY":" ","HOUSE_NO":"８９號七樓","E_COORD97":169450.44,"N_COORD97":2544092.3900000001,"ADDRESS":"大學路西段８９號七樓","OBJECTID":473862},"geometry":{"x":169450.44000000134,"y":2544092.3900000006}},{"attributes":{"ID":473888,"DIS_CODE":0,"TOWNNAME":"東區","LI":"成大里","LIN":"18鄰","STREET":"大學路","SECT":"西段","MAREA":" ","LANE":" ","ALLEY":" ","HOUSE_NO":"８９號九樓","E_COORD97":169450.44,"N_COORD97":2544092.3900000001,"ADDRESS":"大學路西段８９號九樓","OBJECTID":473863},"geometry":{"x":169450.44000000134,"y":2544092.3900000006}},{"attributes":{"ID":473889,"DIS_CODE":0,"TOWNNAME":"東區","LI":"成大里","LIN":"18鄰","STREET":"大學路","SECT":"西段","MAREA":" ","LANE":" ","ALLEY":" ","HOUSE_NO":"８９號二十一樓","E_COORD97":169450.44,"N_COORD97":2544092.3900000001,"ADDRESS":"大學路西段８９號二十一樓","OBJECTID":473864},"geometry":{"x":169450.44000000134,"y":2544092.3900000006}},{"attributes":{"ID":473890,"DIS_CODE":0,"TOWNNAME":"東區","LI":"成大里","LIN":"18鄰","STREET":"大學路","SECT":"西段","MAREA":" ","LANE":" ","ALLEY":" ","HOUSE_NO":"８９號二十一樓之１","E_COORD97":169450.44,"N_COORD97":2544092.3900000001,"ADDRESS":"大學路西段８９號二十一樓之１","OBJECTID":473865},"geometry":{"x":169450.44000000134,"y":2544092.3900000006}},{"attributes":{"ID":473891,"DIS_CODE":0,"TOWNNAME":"東區","LI":"成大里","LIN":"18鄰","STREET":"大學路","SECT":"西段","MAREA":" ","LANE":" ","ALLEY":" ","HOUSE_NO":"８９號二十一樓之１０","E_COORD97":169450.44,"N_COORD97":2544092.3900000001,"ADDRESS":"大學路西段８９號二十一樓之１０","OBJECTID":473866},"geometry":{"x":169450.44000000134,"y":2544092.3900000006}},{"attributes":{"ID":473892,"DIS_CODE":0,"TOWNNAME":"東區","LI":"成大里","LIN":"18鄰","STREET":"大學路","SECT":"西段","MAREA":" ","LANE":" ","ALLEY":" ","HOUSE_NO":"８９號二十一樓之１１","E_COORD97":169450.44,"N_COORD97":2544092.3900000001,"ADDRESS":"大學路西段８９號二十一樓之１１","OBJECTID":473867},"geometry":{"x":169450.44000000134,"y":2544092.3900000006}},{"attributes":{"ID":473893,"DIS_CODE":0,"TOWNNAME":"東區","LI":"成大里","LIN":"18鄰","STREET":"大學路","SECT":"西段","MAREA":" ","LANE":" ","ALLEY":" ","HOUSE_NO":"８９號二十一樓之１２","E_COORD97":169450.44,"N_COORD97":2544092.3900000001,"ADDRESS":"大學路西段８９號二十一樓之１２","OBJECTID":473868},"geometry":{"x":169450.44000000134,"y":2544092.3900000006}},{"attributes":{"ID":473894,"DIS_CODE":0,"TOWNNAME":"東區","LI":"成大里","LIN":"18鄰","STREET":"大學路","SECT":"西段","MAREA":" ","LANE":" ","ALLEY":" ","HOUSE_NO":"８９號二十一樓之１３","E_COORD97":169450.44,"N_COORD97":2544092.3900000001,"ADDRESS":"大學路西段８９號二十一樓之１３","OBJECTID":473869},"geometry":{"x":169450.44000000134,"y":2544092.3900000006}},{"attributes":{"ID":473895,"DIS_CODE":0,"TOWNNAME":"東區","LI":"成大里","LIN":"18鄰","STREET":"大學路","SECT":"西段","MAREA":" ","LANE":" ","ALLEY":" ","HOUSE_NO":"８９號二十一樓之１４","E_COORD97":169450.44,"N_COORD97":2544092.3900000001,"ADDRESS":"大學路西段８９號二十一樓之１４","OBJECTID":473870},"geometry":{"x":169450.44000000134,"y":2544092.3900000006}},{"attributes":{"ID":473896,"DIS_CODE":0,"TOWNNAME":"東區","LI":"成大里","LIN":"18鄰","STREET":"大學路","SECT":"西段","MAREA":" ","LANE":" ","ALLEY":" ","HOUSE_NO":"８９號二十一樓之１５","E_COORD97":169450.44,"N_COORD97":2544092.3900000001,"ADDRESS":"大學路西段８９號二十一樓之１５","OBJECTID":473871},"geometry":{"x":169450.44000000134,"y":2544092.3900000006}},{"attributes":{"ID":473897,"DIS_CODE":0,"TOWNNAME":"東區","LI":"成大里","LIN":"18鄰","STREET":"大學路","SECT":"西段","MAREA":" ","LANE":" ","ALLEY":" ","HOUSE_NO":"８９號二十一樓之１６","E_COORD97":169450.44,"N_COORD97":2544092.3900000001,"ADDRESS":"大學路西段８９號二十一樓之１６","OBJECTID":473872},"geometry":{"x":169450.44000000134,"y":2544092.3900000006}},{"attributes":{"ID":473898,"DIS_CODE":0,"TOWNNAME":"東區","LI":"成大里","LIN":"18鄰","STREET":"大學路","SECT":"西段","MAREA":" ","LANE":" ","ALLEY":" ","HOUSE_NO":"８９號二十一樓之１７","E_COORD97":169450.44,"N_COORD97":2544092.3900000001,"ADDRESS":"大學路西段８９號二十一樓之１７","OBJECTID":473873},"geometry":{"x":169450.44000000134,"y":2544092.3900000006}},{"attributes":{"ID":473899,"DIS_CODE":0,"TOWNNAME":"東區","LI":"成大里","LIN":"18鄰","STREET":"大學路","SECT":"西段","MAREA":" ","LANE":" ","ALLEY":" ","HOUSE_NO":"８９號二十一樓之１８","E_COORD97":169450.44,"N_COORD97":2544092.3900000001,"ADDRESS":"大學路西段８９號二十一樓之１８","OBJECTID":473874},"geometry":{"x":169450.44000000134,"y":2544092.3900000006}},{"attributes":{"ID":473900,"DIS_CODE":0,"TOWNNAME":"佳里區","LI":"鎮山里","LIN":"18鄰","STREET":"佳南路","SECT":" ","MAREA":" ","LANE":" ","ALLEY":" ","HOUSE_NO":"２１０號","E_COORD97":166132.79000000001,"N_COORD97":2561027.1499999999,"ADDRESS":"佳南路２１０號","OBJECTID":473875},"geometry":{"x":166132.79000000004,"y":2561027.1500000022}},{"attributes":{"ID":473901,"DIS_CODE":0,"TOWNNAME":"東區","LI":"崇成里","LIN":"18鄰","STREET":"崇德路","SECT":" ","MAREA":" ","LANE":" ","ALLEY":" ","HOUSE_NO":"６４２號","E_COORD97":170772.60999999999,"N_COORD97":2541164.1099999999,"ADDRESS":"崇德路６４２號","OBJECTID":473876},"geometry":{"x":170772.6100000022,"y":2541164.1099999994}},{"attributes":{"ID":473902,"DIS_CODE":0,"TOWNNAME":"東區","LI":"成大里","LIN":"18鄰","STREET":"大學路","SECT":"西段","MAREA":" ","LANE":" ","ALLEY":" ","HOUSE_NO":"８９號二十一樓之１９","E_COORD97":169450.44,"N_COORD97":2544092.3900000001,"ADDRESS":"大學路西段８９號二十一樓之１９","OBJECTID":473877},"geometry":{"x":169450.44000000134,"y":2544092.3900000006}},{"attributes":{"ID":473903,"DIS_CODE":0,"TOWNNAME":"東區","LI":"成大里","LIN":"18鄰","STREET":"大學路","SECT":"西段","MAREA":" ","LANE":" ","ALLEY":" ","HOUSE_NO":"８９號二十一樓之２","E_COORD97":169450.44,"N_COORD97":2544092.3900000001,"ADDRESS":"大學路西段８９號二十一樓之２","OBJECTID":473878},"geometry":{"x":169450.44000000134,"y":2544092.3900000006}},{"attributes":{"ID":473904,"DIS_CODE":0,"TOWNNAME":"東區","LI":"成大里","LIN":"18鄰","STREET":"大學路","SECT":"西段","MAREA":" ","LANE":" ","ALLEY":" ","HOUSE_NO":"８９號二十一樓之３","E_COORD97":169450.44,"N_COORD97":2544092.3900000001,"ADDRESS":"大學路西段８９號二十一樓之３","OBJECTID":473879},"geometry":{"x":169450.44000000134,"y":2544092.3900000006}},{"attributes":{"ID":473905,"DIS_CODE":0,"TOWNNAME":"東區","LI":"成大里","LIN":"18鄰","STREET":"大學路","SECT":"西段","MAREA":" ","LANE":" ","ALLEY":" ","HOUSE_NO":"８９號二十一樓之４","E_COORD97":169450.44,"N_COORD97":2544092.3900000001,"ADDRESS":"大學路西段８９號二十一樓之４","OBJECTID":473880},"geometry":{"x":169450.44000000134,"y":2544092.3900000006}},{"attributes":{"ID":473906,"DIS_CODE":0,"TOWNNAME":"東區","LI":"成大里","LIN":"18鄰","STREET":"大學路","SECT":"西段","MAREA":" ","LANE":" ","ALLEY":" ","HOUSE_NO":"８９號二十一樓之５","E_COORD97":169450.44,"N_COORD97":2544092.3900000001,"ADDRESS":"大學路西段８９號二十一樓之５","OBJECTID":473881},"geometry":{"x":169450.44000000134,"y":2544092.3900000006}},{"attributes":{"ID":473907,"DIS_CODE":0,"TOWNNAME":"東區","LI":"成大里","LIN":"18鄰","STREET":"大學路","SECT":"西段","MAREA":" ","LANE":" ","ALLEY":" ","HOUSE_NO":"８９號二十一樓之６","E_COORD97":169450.44,"N_COORD97":2544092.3900000001,"ADDRESS":"大學路西段８９號二十一樓之６","OBJECTID":473882},"geometry":{"x":169450.44000000134,"y":2544092.3900000006}},{"attributes":{"ID":473908,"DIS_CODE":0,"TOWNNAME":"東區","LI":"成大里","LIN":"18鄰","STREET":"大學路","SECT":"西段","MAREA":" ","LANE":" ","ALLEY":" ","HOUSE_NO":"８９號二十一樓之７","E_COORD97":169450.44,"N_COORD97":2544092.3900000001,"ADDRESS":"大學路西段８９號二十一樓之７","OBJECTID":473883},"geometry":{"x":169450.44000000134,"y":2544092.3900000006}},{"attributes":{"ID":473909,"DIS_CODE":0,"TOWNNAME":"東區","LI":"成大里","LIN":"18鄰","STREET":"大學路","SECT":"西段","MAREA":" ","LANE":" ","ALLEY":" ","HOUSE_NO":"８９號二十一樓之８","E_COORD97":169450.44,"N_COORD97":2544092.3900000001,"ADDRESS":"大學路西段８９號二十一樓之８","OBJECTID":473884},"geometry":{"x":169450.44000000134,"y":2544092.3900000006}},{"attributes":{"ID":473910,"DIS_CODE":0,"TOWNNAME":"東區","LI":"成大里","LIN":"18鄰","STREET":"大學路","SECT":"西段","MAREA":" ","LANE":" ","ALLEY":" ","HOUSE_NO":"８９號二十一樓之９","E_COORD97":169450.44,"N_COORD97":2544092.3900000001,"ADDRESS":"大學路西段８９號二十一樓之９","OBJECTID":473885},"geometry":{"x":169450.44000000134,"y":2544092.3900000006}},{"attributes":{"ID":473911,"DIS_CODE":0,"TOWNNAME":"東區","LI":"成大里","LIN":"18鄰","STREET":"大學路","SECT":"西段","MAREA":" ","LANE":" ","ALLEY":" ","HOUSE_NO":"８９號二十七樓","E_COORD97":169450.44,"N_COORD97":2544092.3900000001,"ADDRESS":"大學路西段８９號二十七樓","OBJECTID":473886},"geometry":{"x":169450.44000000134,"y":2544092.3900000006}},{"attributes":{"ID":473912,"DIS_CODE":0,"TOWNNAME":"東區","LI":"成大里","LIN":"18鄰","STREET":"大學路","SECT":"西段","MAREA":" ","LANE":" ","ALLEY":" ","HOUSE_NO":"８９號二十九樓","E_COORD97":169450.44,"N_COORD97":2544092.3900000001,"ADDRESS":"大學路西段８９號二十九樓","OBJECTID":473887},"geometry":{"x":169450.44000000134,"y":2544092.3900000006}},{"attributes":{"ID":473913,"DIS_CODE":0,"TOWNNAME":"東區","LI":"成大里","LIN":"18鄰","STREET":"大學路","SECT":"西段","MAREA":" ","LANE":" ","ALLEY":" ","HOUSE_NO":"８９號二十二樓","E_COORD97":169450.44,"N_COORD97":2544092.3900000001,"ADDRESS":"大學路西段８９號二十二樓","OBJECTID":473888},"geometry":{"x":169450.44000000134,"y":2544092.3900000006}},{"attributes":{"ID":473914,"DIS_CODE":0,"TOWNNAME":"東區","LI":"成大里","LIN":"18鄰","STREET":"大學路","SECT":"西段","MAREA":" ","LANE":" ","ALLEY":" ","HOUSE_NO":"８９號二十二樓之１","E_COORD97":169450.44,"N_COORD97":2544092.3900000001,"ADDRESS":"大學路西段８９號二十二樓之１","OBJECTID":473889},"geometry":{"x":169450.44000000134,"y":2544092.3900000006}},{"attributes":{"ID":473915,"DIS_CODE":0,"TOWNNAME":"東區","LI":"成大里","LIN":"18鄰","STREET":"大學路","SECT":"西段","MAREA":" ","LANE":" ","ALLEY":" ","HOUSE_NO":"８９號二十二樓之１０","E_COORD97":169450.44,"N_COORD97":2544092.3900000001,"ADDRESS":"大學路西段８９號二十二樓之１０","OBJECTID":473890},"geometry":{"x":169450.44000000134,"y":2544092.3900000006}},{"attributes":{"ID":473916,"DIS_CODE":0,"TOWNNAME":"東區","LI":"成大里","LIN":"18鄰","STREET":"大學路","SECT":"西段","MAREA":" ","LANE":" ","ALLEY":" ","HOUSE_NO":"８９號二十二樓之１１","E_COORD97":169450.44,"N_COORD97":2544092.3900000001,"ADDRESS":"大學路西段８９號二十二樓之１１","OBJECTID":473891},"geometry":{"x":169450.44000000134,"y":2544092.3900000006}},{"attributes":{"ID":473917,"DIS_CODE":0,"TOWNNAME":"東區","LI":"成大里","LIN":"18鄰","STREET":"大學路","SECT":"西段","MAREA":" ","LANE":" ","ALLEY":" ","HOUSE_NO":"８９號二十二樓之１２","E_COORD97":169450.44,"N_COORD97":2544092.3900000001,"ADDRESS":"大學路西段８９號二十二樓之１２","OBJECTID":473892},"geometry":{"x":169450.44000000134,"y":2544092.3900000006}},{"attributes":{"ID":473918,"DIS_CODE":0,"TOWNNAME":"東區","LI":"成大里","LIN":"18鄰","STREET":"大學路","SECT":"西段","MAREA":" ","LANE":" ","ALLEY":" ","HOUSE_NO":"８９號二十二樓之１３","E_COORD97":169450.44,"N_COORD97":2544092.3900000001,"ADDRESS":"大學路西段８９號二十二樓之１３","OBJECTID":473893},"geometry":{"x":169450.44000000134,"y":2544092.3900000006}},{"attributes":{"ID":473919,"DIS_CODE":0,"TOWNNAME":"東區","LI":"成大里","LIN":"18鄰","STREET":"大學路","SECT":"西段","MAREA":" ","LANE":" ","ALLEY":" ","HOUSE_NO":"８９號二十二樓之１４","E_COORD97":169450.44,"N_COORD97":2544092.3900000001,"ADDRESS":"大學路西段８９號二十二樓之１４","OBJECTID":473894},"geometry":{"x":169450.44000000134,"y":2544092.3900000006}},{"attributes":{"ID":473920,"DIS_CODE":0,"TOWNNAME":"東區","LI":"成大里","LIN":"18鄰","STREET":"大學路","SECT":"西段","MAREA":" ","LANE":" ","ALLEY":" ","HOUSE_NO":"８９號二十二樓之１５","E_COORD97":169450.44,"N_COORD97":2544092.3900000001,"ADDRESS":"大學路西段８９號二十二樓之１５","OBJECTID":473895},"geometry":{"x":169450.44000000134,"y":2544092.3900000006}},{"attributes":{"ID":473921,"DIS_CODE":0,"TOWNNAME":"東區","LI":"成大里","LIN":"18鄰","STREET":"大學路","SECT":"西段","MAREA":" ","LANE":" ","ALLEY":" ","HOUSE_NO":"８９號二十二樓之１６","E_COORD97":169450.44,"N_COORD97":2544092.3900000001,"ADDRESS":"大學路西段８９號二十二樓之１６","OBJECTID":473896},"geometry":{"x":169450.44000000134,"y":2544092.3900000006}},{"attributes":{"ID":473922,"DIS_CODE":0,"TOWNNAME":"東區","LI":"成大里","LIN":"18鄰","STREET":"大學路","SECT":"西段","MAREA":" ","LANE":" ","ALLEY":" ","HOUSE_NO":"８９號二十二樓之１７","E_COORD97":169450.44,"N_COORD97":2544092.3900000001,"ADDRESS":"大學路西段８９號二十二樓之１７","OBJECTID":473897},"geometry":{"x":169450.44000000134,"y":2544092.3900000006}},{"attributes":{"ID":473923,"DIS_CODE":0,"TOWNNAME":"東區","LI":"成大里","LIN":"18鄰","STREET":"大學路","SECT":"西段","MAREA":" ","LANE":" ","ALLEY":" ","HOUSE_NO":"８９號二十二樓之１８","E_COORD97":169450.44,"N_COORD97":2544092.3900000001,"ADDRESS":"大學路西段８９號二十二樓之１８","OBJECTID":473898},"geometry":{"x":169450.44000000134,"y":2544092.3900000006}},{"attributes":{"ID":473924,"DIS_CODE":0,"TOWNNAME":"東區","LI":"成大里","LIN":"18鄰","STREET":"大學路","SECT":"西段","MAREA":" ","LANE":" ","ALLEY":" ","HOUSE_NO":"８９號二十二樓之１９","E_COORD97":169450.44,"N_COORD97":2544092.3900000001,"ADDRESS":"大學路西段８９號二十二樓之１９","OBJECTID":473899},"geometry":{"x":169450.44000000134,"y":2544092.3900000006}},{"attributes":{"ID":473925,"DIS_CODE":0,"TOWNNAME":"東區","LI":"成大里","LIN":"18鄰","STREET":"大學路","SECT":"西段","MAREA":" ","LANE":" ","ALLEY":" ","HOUSE_NO":"８９號二十二樓之２","E_COORD97":169450.44,"N_COORD97":2544092.3900000001,"ADDRESS":"大學路西段８９號二十二樓之２","OBJECTID":473900},"geometry":{"x":169450.44000000134,"y":2544092.3900000006}},{"attributes":{"ID":473926,"DIS_CODE":0,"TOWNNAME":"東區","LI":"成大里","LIN":"18鄰","STREET":"大學路","SECT":"西段","MAREA":" ","LANE":" ","ALLEY":" ","HOUSE_NO":"８９號二十二樓之３","E_COORD97":169450.44,"N_COORD97":2544092.3900000001,"ADDRESS":"大學路西段８９號二十二樓之３","OBJECTID":473901},"geometry":{"x":169450.44000000134,"y":2544092.3900000006}},{"attributes":{"ID":473927,"DIS_CODE":0,"TOWNNAME":"東區","LI":"成大里","LIN":"18鄰","STREET":"大學路","SECT":"西段","MAREA":" ","LANE":" ","ALLEY":" ","HOUSE_NO":"８９號二十二樓之４","E_COORD97":169450.44,"N_COORD97":2544092.3900000001,"ADDRESS":"大學路西段８９號二十二樓之４","OBJECTID":473902},"geometry":{"x":169450.44000000134,"y":2544092.3900000006}},{"attributes":{"ID":473928,"DIS_CODE":0,"TOWNNAME":"東區","LI":"成大里","LIN":"18鄰","STREET":"大學路","SECT":"西段","MAREA":" ","LANE":" ","ALLEY":" ","HOUSE_NO":"８９號二十二樓之５","E_COORD97":169450.44,"N_COORD97":2544092.3900000001,"ADDRESS":"大學路西段８９號二十二樓之５","OBJECTID":473903},"geometry":{"x":169450.44000000134,"y":2544092.3900000006}},{"attributes":{"ID":473929,"DIS_CODE":0,"TOWNNAME":"東區","LI":"成大里","LIN":"18鄰","STREET":"大學路","SECT":"西段","MAREA":" ","LANE":" ","ALLEY":" ","HOUSE_NO":"８９號二十二樓之６","E_COORD97":169450.44,"N_COORD97":2544092.3900000001,"ADDRESS":"大學路西段８９號二十二樓之６","OBJECTID":473904},"geometry":{"x":169450.44000000134,"y":2544092.3900000006}},{"attributes":{"ID":473930,"DIS_CODE":0,"TOWNNAME":"東區","LI":"成大里","LIN":"18鄰","STREET":"大學路","SECT":"西段","MAREA":" ","LANE":" ","ALLEY":" ","HOUSE_NO":"８９號二十二樓之７","E_COORD97":169450.44,"N_COORD97":2544092.3900000001,"ADDRESS":"大學路西段８９號二十二樓之７","OBJECTID":473905},"geometry":{"x":169450.44000000134,"y":2544092.3900000006}},{"attributes":{"ID":473931,"DIS_CODE":0,"TOWNNAME":"東區","LI":"成大里","LIN":"18鄰","STREET":"大學路","SECT":"西段","MAREA":" ","LANE":" ","ALLEY":" ","HOUSE_NO":"８９號二十二樓之８","E_COORD97":169450.44,"N_COORD97":2544092.3900000001,"ADDRESS":"大學路西段８９號二十二樓之８","OBJECTID":473906},"geometry":{"x":169450.44000000134,"y":2544092.3900000006}},{"attributes":{"ID":473932,"DIS_CODE":0,"TOWNNAME":"東區","LI":"成大里","LIN":"18鄰","STREET":"大學路","SECT":"西段","MAREA":" ","LANE":" ","ALLEY":" ","HOUSE_NO":"８９號二十二樓之９","E_COORD97":169450.44,"N_COORD97":2544092.3900000001,"ADDRESS":"大學路西段８９號二十二樓之９","OBJECTID":473907},"geometry":{"x":169450.44000000134,"y":2544092.3900000006}},{"attributes":{"ID":473933,"DIS_CODE":0,"TOWNNAME":"東區","LI":"成大里","LIN":"18鄰","STREET":"大學路","SECT":"西段","MAREA":" ","LANE":" ","ALLEY":" ","HOUSE_NO":"８９號二十八樓","E_COORD97":169450.44,"N_COORD97":2544092.3900000001,"ADDRESS":"大學路西段８９號二十八樓","OBJECTID":473908},"geometry":{"x":169450.44000000134,"y":2544092.3900000006}},{"attributes":{"ID":473934,"DIS_CODE":0,"TOWNNAME":"東區","LI":"成大里","LIN":"18鄰","STREET":"大學路","SECT":"西段","MAREA":" ","LANE":" ","ALLEY":" ","HOUSE_NO":"８９號二十三樓","E_COORD97":169450.44,"N_COORD97":2544092.3900000001,"ADDRESS":"大學路西段８９號二十三樓","OBJECTID":473909},"geometry":{"x":169450.44000000134,"y":2544092.3900000006}},{"attributes":{"ID":473935,"DIS_CODE":0,"TOWNNAME":"東區","LI":"成大里","LIN":"18鄰","STREET":"大學路","SECT":"西段","MAREA":" ","LANE":" ","ALLEY":" ","HOUSE_NO":"８９號二十三樓之１","E_COORD97":169450.44,"N_COORD97":2544092.3900000001,"ADDRESS":"大學路西段８９號二十三樓之１","OBJECTID":473910},"geometry":{"x":169450.44000000134,"y":2544092.3900000006}},{"attributes":{"ID":473936,"DIS_CODE":0,"TOWNNAME":"東區","LI":"成大里","LIN":"18鄰","STREET":"大學路","SECT":"西段","MAREA":" ","LANE":" ","ALLEY":" ","HOUSE_NO":"８９號二十三樓之１０","E_COORD97":169450.44,"N_COORD97":2544092.3900000001,"ADDRESS":"大學路西段８９號二十三樓之１０","OBJECTID":473911},"geometry":{"x":169450.44000000134,"y":2544092.3900000006}},{"attributes":{"ID":473937,"DIS_CODE":0,"TOWNNAME":"東區","LI":"成大里","LIN":"18鄰","STREET":"大學路","SECT":"西段","MAREA":" ","LANE":" ","ALLEY":" ","HOUSE_NO":"８９號二十三樓之１１","E_COORD97":169450.44,"N_COORD97":2544092.3900000001,"ADDRESS":"大學路西段８９號二十三樓之１１","OBJECTID":473912},"geometry":{"x":169450.44000000134,"y":2544092.3900000006}},{"attributes":{"ID":473938,"DIS_CODE":0,"TOWNNAME":"東區","LI":"成大里","LIN":"18鄰","STREET":"大學路","SECT":"西段","MAREA":" ","LANE":" ","ALLEY":" ","HOUSE_NO":"８９號二十三樓之１２","E_COORD97":169450.44,"N_COORD97":2544092.3900000001,"ADDRESS":"大學路西段８９號二十三樓之１２","OBJECTID":473913},"geometry":{"x":169450.44000000134,"y":2544092.3900000006}},{"attributes":{"ID":473939,"DIS_CODE":0,"TOWNNAME":"東區","LI":"成大里","LIN":"18鄰","STREET":"大學路","SECT":"西段","MAREA":" ","LANE":" ","ALLEY":" ","HOUSE_NO":"８９號二十三樓之１３","E_COORD97":169450.44,"N_COORD97":2544092.3900000001,"ADDRESS":"大學路西段８９號二十三樓之１３","OBJECTID":473914},"geometry":{"x":169450.44000000134,"y":2544092.3900000006}},{"attributes":{"ID":473940,"DIS_CODE":0,"TOWNNAME":"東區","LI":"成大里","LIN":"18鄰","STREET":"大學路","SECT":"西段","MAREA":" ","LANE":" ","ALLEY":" ","HOUSE_NO":"８９號二十三樓之１４","E_COORD97":169450.44,"N_COORD97":2544092.3900000001,"ADDRESS":"大學路西段８９號二十三樓之１４","OBJECTID":473915},"geometry":{"x":169450.44000000134,"y":2544092.3900000006}},{"attributes":{"ID":473941,"DIS_CODE":0,"TOWNNAME":"東區","LI":"成大里","LIN":"18鄰","STREET":"大學路","SECT":"西段","MAREA":" ","LANE":" ","ALLEY":" ","HOUSE_NO":"８９號二十三樓之１５","E_COORD97":169450.44,"N_COORD97":2544092.3900000001,"ADDRESS":"大學路西段８９號二十三樓之１５","OBJECTID":473916},"geometry":{"x":169450.44000000134,"y":2544092.3900000006}},{"attributes":{"ID":473942,"DIS_CODE":0,"TOWNNAME":"東區","LI":"成大里","LIN":"18鄰","STREET":"大學路","SECT":"西段","MAREA":" ","LANE":" ","ALLEY":" ","HOUSE_NO":"８９號二十三樓之１６","E_COORD97":169450.44,"N_COORD97":2544092.3900000001,"ADDRESS":"大學路西段８９號二十三樓之１６","OBJECTID":473917},"geometry":{"x":169450.44000000134,"y":2544092.3900000006}},{"attributes":{"ID":473943,"DIS_CODE":0,"TOWNNAME":"東區","LI":"成大里","LIN":"18鄰","STREET":"大學路","SECT":"西段","MAREA":" ","LANE":" ","ALLEY":" ","HOUSE_NO":"８９號二十三樓之１７","E_COORD97":169450.44,"N_COORD97":2544092.3900000001,"ADDRESS":"大學路西段８９號二十三樓之１７","OBJECTID":473918},"geometry":{"x":169450.44000000134,"y":2544092.3900000006}},{"attributes":{"ID":473944,"DIS_CODE":0,"TOWNNAME":"東區","LI":"成大里","LIN":"18鄰","STREET":"大學路","SECT":"西段","MAREA":" ","LANE":" ","ALLEY":" ","HOUSE_NO":"８９號二十三樓之１８","E_COORD97":169450.44,"N_COORD97":2544092.3900000001,"ADDRESS":"大學路西段８９號二十三樓之１８","OBJECTID":473919},"geometry":{"x":169450.44000000134,"y":2544092.3900000006}},{"attributes":{"ID":473945,"DIS_CODE":0,"TOWNNAME":"東區","LI":"成大里","LIN":"18鄰","STREET":"大學路","SECT":"西段","MAREA":" ","LANE":" ","ALLEY":" ","HOUSE_NO":"８９號二十三樓之１９","E_COORD97":169450.44,"N_COORD97":2544092.3900000001,"ADDRESS":"大學路西段８９號二十三樓之１９","OBJECTID":473920},"geometry":{"x":169450.44000000134,"y":2544092.3900000006}},{"attributes":{"ID":473946,"DIS_CODE":0,"TOWNNAME":"東區","LI":"成大里","LIN":"18鄰","STREET":"大學路","SECT":"西段","MAREA":" ","LANE":" ","ALLEY":" ","HOUSE_NO":"８９號二十三樓之２","E_COORD97":169450.44,"N_COORD97":2544092.3900000001,"ADDRESS":"大學路西段８９號二十三樓之２","OBJECTID":473921},"geometry":{"x":169450.44000000134,"y":2544092.3900000006}},{"attributes":{"ID":473947,"DIS_CODE":0,"TOWNNAME":"東區","LI":"成大里","LIN":"18鄰","STREET":"大學路","SECT":"西段","MAREA":" ","LANE":" ","ALLEY":" ","HOUSE_NO":"８９號二十三樓之３","E_COORD97":169450.44,"N_COORD97":2544092.3900000001,"ADDRESS":"大學路西段８９號二十三樓之３","OBJECTID":473922},"geometry":{"x":169450.44000000134,"y":2544092.3900000006}},{"attributes":{"ID":473948,"DIS_CODE":0,"TOWNNAME":"東區","LI":"成大里","LIN":"18鄰","STREET":"大學路","SECT":"西段","MAREA":" ","LANE":" ","ALLEY":" ","HOUSE_NO":"８９號二十三樓之４","E_COORD97":169450.44,"N_COORD97":2544092.3900000001,"ADDRESS":"大學路西段８９號二十三樓之４","OBJECTID":473923},"geometry":{"x":169450.44000000134,"y":2544092.3900000006}},{"attributes":{"ID":473949,"DIS_CODE":0,"TOWNNAME":"東區","LI":"成大里","LIN":"18鄰","STREET":"大學路","SECT":"西段","MAREA":" ","LANE":" ","ALLEY":" ","HOUSE_NO":"８９號二十三樓之５","E_COORD97":169450.44,"N_COORD97":2544092.3900000001,"ADDRESS":"大學路西段８９號二十三樓之５","OBJECTID":473924},"geometry":{"x":169450.44000000134,"y":2544092.3900000006}},{"attributes":{"ID":473950,"DIS_CODE":0,"TOWNNAME":"東區","LI":"成大里","LIN":"18鄰","STREET":"大學路","SECT":"西段","MAREA":" ","LANE":" ","ALLEY":" ","HOUSE_NO":"８９號二十三樓之６","E_COORD97":169450.44,"N_COORD97":2544092.3900000001,"ADDRESS":"大學路西段８９號二十三樓之６","OBJECTID":473925},"geometry":{"x":169450.44000000134,"y":2544092.3900000006}},{"attributes":{"ID":473951,"DIS_CODE":0,"TOWNNAME":"東區","LI":"成大里","LIN":"18鄰","STREET":"大學路","SECT":"西段","MAREA":" ","LANE":" ","ALLEY":" ","HOUSE_NO":"８９號二十三樓之７","E_COORD97":169450.44,"N_COORD97":2544092.3900000001,"ADDRESS":"大學路西段８９號二十三樓之７","OBJECTID":473926},"geometry":{"x":169450.44000000134,"y":2544092.3900000006}},{"attributes":{"ID":473952,"DIS_CODE":0,"TOWNNAME":"東區","LI":"成大里","LIN":"18鄰","STREET":"大學路","SECT":"西段","MAREA":" ","LANE":" ","ALLEY":" ","HOUSE_NO":"８９號二十三樓之８","E_COORD97":169450.44,"N_COORD97":2544092.3900000001,"ADDRESS":"大學路西段８９號二十三樓之８","OBJECTID":473927},"geometry":{"x":169450.44000000134,"y":2544092.3900000006}},{"attributes":{"ID":473953,"DIS_CODE":0,"TOWNNAME":"東區","LI":"成大里","LIN":"18鄰","STREET":"大學路","SECT":"西段","MAREA":" ","LANE":" ","ALLEY":" ","HOUSE_NO":"８９號二十三樓之９","E_COORD97":169450.44,"N_COORD97":2544092.3900000001,"ADDRESS":"大學路西段８９號二十三樓之９","OBJECTID":473928},"geometry":{"x":169450.44000000134,"y":2544092.3900000006}},{"attributes":{"ID":473954,"DIS_CODE":0,"TOWNNAME":"東區","LI":"成大里","LIN":"18鄰","STREET":"大學路","SECT":"西段","MAREA":" ","LANE":" ","ALLEY":" ","HOUSE_NO":"８９號二十五樓","E_COORD97":169450.44,"N_COORD97":2544092.3900000001,"ADDRESS":"大學路西段８９號二十五樓","OBJECTID":473929},"geometry":{"x":169450.44000000134,"y":2544092.3900000006}},{"attributes":{"ID":473955,"DIS_CODE":0,"TOWNNAME":"東區","LI":"成大里","LIN":"18鄰","STREET":"大學路","SECT":"西段","MAREA":" ","LANE":" ","ALLEY":" ","HOUSE_NO":"８９號二十六樓","E_COORD97":169450.44,"N_COORD97":2544092.3900000001,"ADDRESS":"大學路西段８９號二十六樓","OBJECTID":473930},"geometry":{"x":169450.44000000134,"y":2544092.3900000006}},{"attributes":{"ID":473956,"DIS_CODE":0,"TOWNNAME":"東區","LI":"成大里","LIN":"18鄰","STREET":"大學路","SECT":"西段","MAREA":" ","LANE":" ","ALLEY":" ","HOUSE_NO":"８９號二十四樓","E_COORD97":169450.44,"N_COORD97":2544092.3900000001,"ADDRESS":"大學路西段８９號二十四樓","OBJECTID":473931},"geometry":{"x":169450.44000000134,"y":2544092.3900000006}},{"attributes":{"ID":473957,"DIS_CODE":0,"TOWNNAME":"東區","LI":"成大里","LIN":"18鄰","STREET":"大學路","SECT":"西段","MAREA":" ","LANE":" ","ALLEY":" ","HOUSE_NO":"８９號二十樓","E_COORD97":169450.44,"N_COORD97":2544092.3900000001,"ADDRESS":"大學路西段８９號二十樓","OBJECTID":473932},"geometry":{"x":169450.44000000134,"y":2544092.3900000006}},{"attributes":{"ID":473958,"DIS_CODE":0,"TOWNNAME":"東區","LI":"成大里","LIN":"18鄰","STREET":"大學路","SECT":"西段","MAREA":" ","LANE":" ","ALLEY":" ","HOUSE_NO":"８９號二十樓之１","E_COORD97":169450.44,"N_COORD97":2544092.3900000001,"ADDRESS":"大學路西段８９號二十樓之１","OBJECTID":473933},"geometry":{"x":169450.44000000134,"y":2544092.3900000006}},{"attributes":{"ID":473959,"DIS_CODE":0,"TOWNNAME":"東區","LI":"成大里","LIN":"18鄰","STREET":"大學路","SECT":"西段","MAREA":" ","LANE":" ","ALLEY":" ","HOUSE_NO":"８９號二十樓之１０","E_COORD97":169450.44,"N_COORD97":2544092.3900000001,"ADDRESS":"大學路西段８９號二十樓之１０","OBJECTID":473934},"geometry":{"x":169450.44000000134,"y":2544092.3900000006}},{"attributes":{"ID":473960,"DIS_CODE":0,"TOWNNAME":"東區","LI":"成大里","LIN":"18鄰","STREET":"大學路","SECT":"西段","MAREA":" ","LANE":" ","ALLEY":" ","HOUSE_NO":"８９號二十樓之１１","E_COORD97":169450.44,"N_COORD97":2544092.3900000001,"ADDRESS":"大學路西段８９號二十樓之１１","OBJECTID":473935},"geometry":{"x":169450.44000000134,"y":2544092.3900000006}},{"attributes":{"ID":473961,"DIS_CODE":0,"TOWNNAME":"東區","LI":"成大里","LIN":"18鄰","STREET":"大學路","SECT":"西段","MAREA":" ","LANE":" ","ALLEY":" ","HOUSE_NO":"８９號二十樓之１２","E_COORD97":169450.44,"N_COORD97":2544092.3900000001,"ADDRESS":"大學路西段８９號二十樓之１２","OBJECTID":473936},"geometry":{"x":169450.44000000134,"y":2544092.3900000006}},{"attributes":{"ID":473962,"DIS_CODE":0,"TOWNNAME":"東區","LI":"成大里","LIN":"18鄰","STREET":"大學路","SECT":"西段","MAREA":" ","LANE":" ","ALLEY":" ","HOUSE_NO":"８９號二十樓之１３","E_COORD97":169450.44,"N_COORD97":2544092.3900000001,"ADDRESS":"大學路西段８９號二十樓之１３","OBJECTID":473937},"geometry":{"x":169450.44000000134,"y":2544092.3900000006}},{"attributes":{"ID":473963,"DIS_CODE":0,"TOWNNAME":"東區","LI":"成大里","LIN":"18鄰","STREET":"大學路","SECT":"西段","MAREA":" ","LANE":" ","ALLEY":" ","HOUSE_NO":"８９號二十樓之１４","E_COORD97":169450.44,"N_COORD97":2544092.3900000001,"ADDRESS":"大學路西段８９號二十樓之１４","OBJECTID":473938},"geometry":{"x":169450.44000000134,"y":2544092.3900000006}},{"attributes":{"ID":473964,"DIS_CODE":0,"TOWNNAME":"東區","LI":"成大里","LIN":"18鄰","STREET":"大學路","SECT":"西段","MAREA":" ","LANE":" ","ALLEY":" ","HOUSE_NO":"８９號二十樓之１５","E_COORD97":169450.44,"N_COORD97":2544092.3900000001,"ADDRESS":"大學路西段８９號二十樓之１５","OBJECTID":473939},"geometry":{"x":169450.44000000134,"y":2544092.3900000006}},{"attributes":{"ID":473965,"DIS_CODE":0,"TOWNNAME":"東區","LI":"成大里","LIN":"18鄰","STREET":"大學路","SECT":"西段","MAREA":" ","LANE":" ","ALLEY":" ","HOUSE_NO":"８９號二十樓之１６","E_COORD97":169450.44,"N_COORD97":2544092.3900000001,"ADDRESS":"大學路西段８９號二十樓之１６","OBJECTID":473940},"geometry":{"x":169450.44000000134,"y":2544092.3900000006}},{"attributes":{"ID":473966,"DIS_CODE":0,"TOWNNAME":"東區","LI":"成大里","LIN":"18鄰","STREET":"大學路","SECT":"西段","MAREA":" ","LANE":" ","ALLEY":" ","HOUSE_NO":"８９號二十樓之１７","E_COORD97":169450.44,"N_COORD97":2544092.3900000001,"ADDRESS":"大學路西段８９號二十樓之１７","OBJECTID":473941},"geometry":{"x":169450.44000000134,"y":2544092.3900000006}},{"attributes":{"ID":473967,"DIS_CODE":0,"TOWNNAME":"東區","LI":"成大里","LIN":"18鄰","STREET":"大學路","SECT":"西段","MAREA":" ","LANE":" ","ALLEY":" ","HOUSE_NO":"８９號二十樓之１８","E_COORD97":169450.44,"N_COORD97":2544092.3900000001,"ADDRESS":"大學路西段８９號二十樓之１８","OBJECTID":473942},"geometry":{"x":169450.44000000134,"y":2544092.3900000006}},{"attributes":{"ID":473968,"DIS_CODE":0,"TOWNNAME":"東區","LI":"成大里","LIN":"18鄰","STREET":"大學路","SECT":"西段","MAREA":" ","LANE":" ","ALLEY":" ","HOUSE_NO":"８９號二十樓之１９","E_COORD97":169450.44,"N_COORD97":2544092.3900000001,"ADDRESS":"大學路西段８９號二十樓之１９","OBJECTID":473943},"geometry":{"x":169450.44000000134,"y":2544092.3900000006}},{"attributes":{"ID":473969,"DIS_CODE":0,"TOWNNAME":"東區","LI":"成大里","LIN":"18鄰","STREET":"大學路","SECT":"西段","MAREA":" ","LANE":" ","ALLEY":" ","HOUSE_NO":"８９號二十樓之２","E_COORD97":169450.44,"N_COORD97":2544092.3900000001,"ADDRESS":"大學路西段８９號二十樓之２","OBJECTID":473944},"geometry":{"x":169450.44000000134,"y":2544092.3900000006}},{"attributes":{"ID":473970,"DIS_CODE":0,"TOWNNAME":"東區","LI":"成大里","LIN":"18鄰","STREET":"大學路","SECT":"西段","MAREA":" ","LANE":" ","ALLEY":" ","HOUSE_NO":"８９號二十樓之３","E_COORD97":169450.44,"N_COORD97":2544092.3900000001,"ADDRESS":"大學路西段８９號二十樓之３","OBJECTID":473945},"geometry":{"x":169450.44000000134,"y":2544092.3900000006}},{"attributes":{"ID":473971,"DIS_CODE":0,"TOWNNAME":"東區","LI":"成大里","LIN":"18鄰","STREET":"大學路","SECT":"西段","MAREA":" ","LANE":" ","ALLEY":" ","HOUSE_NO":"８９號二十樓之４","E_COORD97":169450.44,"N_COORD97":2544092.3900000001,"ADDRESS":"大學路西段８９號二十樓之４","OBJECTID":473946},"geometry":{"x":169450.44000000134,"y":2544092.3900000006}},{"attributes":{"ID":473972,"DIS_CODE":0,"TOWNNAME":"東區","LI":"成大里","LIN":"18鄰","STREET":"大學路","SECT":"西段","MAREA":" ","LANE":" ","ALLEY":" ","HOUSE_NO":"８９號二十樓之５","E_COORD97":169450.44,"N_COORD97":2544092.3900000001,"ADDRESS":"大學路西段８９號二十樓之５","OBJECTID":473947},"geometry":{"x":169450.44000000134,"y":2544092.3900000006}},{"attributes":{"ID":473973,"DIS_CODE":0,"TOWNNAME":"東區","LI":"成大里","LIN":"18鄰","STREET":"大學路","SECT":"西段","MAREA":" ","LANE":" ","ALLEY":" ","HOUSE_NO":"８９號二十樓之６","E_COORD97":169450.44,"N_COORD97":2544092.3900000001,"ADDRESS":"大學路西段８９號二十樓之６","OBJECTID":473948},"geometry":{"x":169450.44000000134,"y":2544092.3900000006}},{"attributes":{"ID":473974,"DIS_CODE":0,"TOWNNAME":"東區","LI":"成大里","LIN":"18鄰","STREET":"大學路","SECT":"西段","MAREA":" ","LANE":" ","ALLEY":" ","HOUSE_NO":"８９號二十樓之７","E_COORD97":169450.44,"N_COORD97":2544092.3900000001,"ADDRESS":"大學路西段８９號二十樓之７","OBJECTID":473949},"geometry":{"x":169450.44000000134,"y":2544092.3900000006}},{"attributes":{"ID":473975,"DIS_CODE":0,"TOWNNAME":"東區","LI":"成大里","LIN":"18鄰","STREET":"大學路","SECT":"西段","MAREA":" ","LANE":" ","ALLEY":" ","HOUSE_NO":"８９號二十樓之８","E_COORD97":169450.44,"N_COORD97":2544092.3900000001,"ADDRESS":"大學路西段８９號二十樓之８","OBJECTID":473950},"geometry":{"x":169450.44000000134,"y":2544092.3900000006}},{"attributes":{"ID":473976,"DIS_CODE":0,"TOWNNAME":"東區","LI":"成大里","LIN":"18鄰","STREET":"大學路","SECT":"西段","MAREA":" ","LANE":" ","ALLEY":" ","HOUSE_NO":"８９號二十樓之９","E_COORD97":169450.44,"N_COORD97":2544092.3900000001,"ADDRESS":"大學路西段８９號二十樓之９","OBJECTID":473951},"geometry":{"x":169450.44000000134,"y":2544092.3900000006}},{"attributes":{"ID":473977,"DIS_CODE":0,"TOWNNAME":"東區","LI":"成大里","LIN":"18鄰","STREET":"大學路","SECT":"西段","MAREA":" ","LANE":" ","ALLEY":" ","HOUSE_NO":"８９號八樓","E_COORD97":169450.44,"N_COORD97":2544092.3900000001,"ADDRESS":"大學路西段８９號八樓","OBJECTID":473952},"geometry":{"x":169450.44000000134,"y":2544092.3900000006}},{"attributes":{"ID":473978,"DIS_CODE":0,"TOWNNAME":"東區","LI":"成大里","LIN":"18鄰","STREET":"大學路","SECT":"西段","MAREA":" ","LANE":" ","ALLEY":" ","HOUSE_NO":"８９號十一樓","E_COORD97":169450.44,"N_COORD97":2544092.3900000001,"ADDRESS":"大學路西段８９號十一樓","OBJECTID":473953},"geometry":{"x":169450.44000000134,"y":2544092.3900000006}},{"attributes":{"ID":473979,"DIS_CODE":0,"TOWNNAME":"東區","LI":"成大里","LIN":"18鄰","STREET":"大學路","SECT":"西段","MAREA":" ","LANE":" ","ALLEY":" ","HOUSE_NO":"８９號十七樓","E_COORD97":169450.44,"N_COORD97":2544092.3900000001,"ADDRESS":"大學路西段８９號十七樓","OBJECTID":473954},"geometry":{"x":169450.44000000134,"y":2544092.3900000006}},{"attributes":{"ID":473980,"DIS_CODE":0,"TOWNNAME":"東區","LI":"成大里","LIN":"18鄰","STREET":"大學路","SECT":"西段","MAREA":" ","LANE":" ","ALLEY":" ","HOUSE_NO":"８９號十七樓之１","E_COORD97":169450.44,"N_COORD97":2544092.3900000001,"ADDRESS":"大學路西段８９號十七樓之１","OBJECTID":473955},"geometry":{"x":169450.44000000134,"y":2544092.3900000006}},{"attributes":{"ID":473981,"DIS_CODE":0,"TOWNNAME":"東區","LI":"成大里","LIN":"18鄰","STREET":"大學路","SECT":"西段","MAREA":" ","LANE":" ","ALLEY":" ","HOUSE_NO":"８９號十七樓之１０","E_COORD97":169450.44,"N_COORD97":2544092.3900000001,"ADDRESS":"大學路西段８９號十七樓之１０","OBJECTID":473956},"geometry":{"x":169450.44000000134,"y":2544092.3900000006}},{"attributes":{"ID":473982,"DIS_CODE":0,"TOWNNAME":"東區","LI":"成大里","LIN":"18鄰","STREET":"大學路","SECT":"西段","MAREA":" ","LANE":" ","ALLEY":" ","HOUSE_NO":"８９號十七樓之１１","E_COORD97":169450.44,"N_COORD97":2544092.3900000001,"ADDRESS":"大學路西段８９號十七樓之１１","OBJECTID":473957},"geometry":{"x":169450.44000000134,"y":2544092.3900000006}},{"attributes":{"ID":473983,"DIS_CODE":0,"TOWNNAME":"東區","LI":"成大里","LIN":"18鄰","STREET":"大學路","SECT":"西段","MAREA":" ","LANE":" ","ALLEY":" ","HOUSE_NO":"８９號十七樓之１２","E_COORD97":169450.44,"N_COORD97":2544092.3900000001,"ADDRESS":"大學路西段８９號十七樓之１２","OBJECTID":473958},"geometry":{"x":169450.44000000134,"y":2544092.3900000006}},{"attributes":{"ID":473984,"DIS_CODE":0,"TOWNNAME":"東區","LI":"成大里","LIN":"18鄰","STREET":"大學路","SECT":"西段","MAREA":" ","LANE":" ","ALLEY":" ","HOUSE_NO":"８９號十七樓之１３","E_COORD97":169450.44,"N_COORD97":2544092.3900000001,"ADDRESS":"大學路西段８９號十七樓之１３","OBJECTID":473959},"geometry":{"x":169450.44000000134,"y":2544092.3900000006}},{"attributes":{"ID":473985,"DIS_CODE":0,"TOWNNAME":"東區","LI":"成大里","LIN":"18鄰","STREET":"大學路","SECT":"西段","MAREA":" ","LANE":" ","ALLEY":" ","HOUSE_NO":"８９號十七樓之１４","E_COORD97":169450.44,"N_COORD97":2544092.3900000001,"ADDRESS":"大學路西段８９號十七樓之１４","OBJECTID":473960},"geometry":{"x":169450.44000000134,"y":2544092.3900000006}},{"attributes":{"ID":473986,"DIS_CODE":0,"TOWNNAME":"東區","LI":"成大里","LIN":"18鄰","STREET":"大學路","SECT":"西段","MAREA":" ","LANE":" ","ALLEY":" ","HOUSE_NO":"８９號十七樓之１５","E_COORD97":169450.44,"N_COORD97":2544092.3900000001,"ADDRESS":"大學路西段８９號十七樓之１５","OBJECTID":473961},"geometry":{"x":169450.44000000134,"y":2544092.3900000006}},{"attributes":{"ID":473987,"DIS_CODE":0,"TOWNNAME":"東區","LI":"成大里","LIN":"18鄰","STREET":"大學路","SECT":"西段","MAREA":" ","LANE":" ","ALLEY":" ","HOUSE_NO":"８９號十七樓之１６","E_COORD97":169450.44,"N_COORD97":2544092.3900000001,"ADDRESS":"大學路西段８９號十七樓之１６","OBJECTID":473962},"geometry":{"x":169450.44000000134,"y":2544092.3900000006}},{"attributes":{"ID":473988,"DIS_CODE":0,"TOWNNAME":"東區","LI":"成大里","LIN":"18鄰","STREET":"大學路","SECT":"西段","MAREA":" ","LANE":" ","ALLEY":" ","HOUSE_NO":"８９號十七樓之１７","E_COORD97":169450.44,"N_COORD97":2544092.3900000001,"ADDRESS":"大學路西段８９號十七樓之１７","OBJECTID":473963},"geometry":{"x":169450.44000000134,"y":2544092.3900000006}},{"attributes":{"ID":473989,"DIS_CODE":0,"TOWNNAME":"東區","LI":"成大里","LIN":"18鄰","STREET":"大學路","SECT":"西段","MAREA":" ","LANE":" ","ALLEY":" ","HOUSE_NO":"８９號十七樓之１８","E_COORD97":169450.44,"N_COORD97":2544092.3900000001,"ADDRESS":"大學路西段８９號十七樓之１８","OBJECTID":473964},"geometry":{"x":169450.44000000134,"y":2544092.3900000006}},{"attributes":{"ID":473990,"DIS_CODE":0,"TOWNNAME":"東區","LI":"成大里","LIN":"18鄰","STREET":"大學路","SECT":"西段","MAREA":" ","LANE":" ","ALLEY":" ","HOUSE_NO":"８９號十七樓之１９","E_COORD97":169450.44,"N_COORD97":2544092.3900000001,"ADDRESS":"大學路西段８９號十七樓之１９","OBJECTID":473965},"geometry":{"x":169450.44000000134,"y":2544092.3900000006}},{"attributes":{"ID":473991,"DIS_CODE":0,"TOWNNAME":"東區","LI":"成大里","LIN":"18鄰","STREET":"大學路","SECT":"西段","MAREA":" ","LANE":" ","ALLEY":" ","HOUSE_NO":"８９號十七樓之２","E_COORD97":169450.44,"N_COORD97":2544092.3900000001,"ADDRESS":"大學路西段８９號十七樓之２","OBJECTID":473966},"geometry":{"x":169450.44000000134,"y":2544092.3900000006}},{"attributes":{"ID":473992,"DIS_CODE":0,"TOWNNAME":"東區","LI":"成大里","LIN":"18鄰","STREET":"大學路","SECT":"西段","MAREA":" ","LANE":" ","ALLEY":" ","HOUSE_NO":"８９號十七樓之３","E_COORD97":169450.44,"N_COORD97":2544092.3900000001,"ADDRESS":"大學路西段８９號十七樓之３","OBJECTID":473967},"geometry":{"x":169450.44000000134,"y":2544092.3900000006}},{"attributes":{"ID":473993,"DIS_CODE":0,"TOWNNAME":"東區","LI":"成大里","LIN":"18鄰","STREET":"大學路","SECT":"西段","MAREA":" ","LANE":" ","ALLEY":" ","HOUSE_NO":"８９號十七樓之４","E_COORD97":169450.44,"N_COORD97":2544092.3900000001,"ADDRESS":"大學路西段８９號十七樓之４","OBJECTID":473968},"geometry":{"x":169450.44000000134,"y":2544092.3900000006}},{"attributes":{"ID":473994,"DIS_CODE":0,"TOWNNAME":"東區","LI":"成大里","LIN":"18鄰","STREET":"大學路","SECT":"西段","MAREA":" ","LANE":" ","ALLEY":" ","HOUSE_NO":"８９號十七樓之５","E_COORD97":169450.44,"N_COORD97":2544092.3900000001,"ADDRESS":"大學路西段８９號十七樓之５","OBJECTID":473969},"geometry":{"x":169450.44000000134,"y":2544092.3900000006}},{"attributes":{"ID":473995,"DIS_CODE":0,"TOWNNAME":"東區","LI":"成大里","LIN":"18鄰","STREET":"大學路","SECT":"西段","MAREA":" ","LANE":" ","ALLEY":" ","HOUSE_NO":"８９號十七樓之６","E_COORD97":169450.44,"N_COORD97":2544092.3900000001,"ADDRESS":"大學路西段８９號十七樓之６","OBJECTID":473970},"geometry":{"x":169450.44000000134,"y":2544092.3900000006}},{"attributes":{"ID":473996,"DIS_CODE":0,"TOWNNAME":"東區","LI":"成大里","LIN":"18鄰","STREET":"大學路","SECT":"西段","MAREA":" ","LANE":" ","ALLEY":" ","HOUSE_NO":"８９號十七樓之７","E_COORD97":169450.44,"N_COORD97":2544092.3900000001,"ADDRESS":"大學路西段８９號十七樓之７","OBJECTID":473971},"geometry":{"x":169450.44000000134,"y":2544092.3900000006}},{"attributes":{"ID":473997,"DIS_CODE":0,"TOWNNAME":"東區","LI":"成大里","LIN":"18鄰","STREET":"大學路","SECT":"西段","MAREA":" ","LANE":" ","ALLEY":" ","HOUSE_NO":"８９號十七樓之８","E_COORD97":169450.44,"N_COORD97":2544092.3900000001,"ADDRESS":"大學路西段８９號十七樓之８","OBJECTID":473972},"geometry":{"x":169450.44000000134,"y":2544092.3900000006}},{"attributes":{"ID":473998,"DIS_CODE":0,"TOWNNAME":"東區","LI":"成大里","LIN":"18鄰","STREET":"大學路","SECT":"西段","MAREA":" ","LANE":" ","ALLEY":" ","HOUSE_NO":"８９號十七樓之９","E_COORD97":169450.44,"N_COORD97":2544092.3900000001,"ADDRESS":"大學路西段８９號十七樓之９","OBJECTID":473973},"geometry":{"x":169450.44000000134,"y":2544092.3900000006}},{"attributes":{"ID":473999,"DIS_CODE":0,"TOWNNAME":"東區","LI":"成大里","LIN":"18鄰","STREET":"大學路","SECT":"西段","MAREA":" ","LANE":" ","ALLEY":" ","HOUSE_NO":"８９號十九樓","E_COORD97":169450.44,"N_COORD97":2544092.3900000001,"ADDRESS":"大學路西段８９號十九樓","OBJECTID":473974},"geometry":{"x":169450.44000000134,"y":2544092.3900000006}},{"attributes":{"ID":474000,"DIS_CODE":0,"TOWNNAME":"東區","LI":"成大里","LIN":"18鄰","STREET":"大學路","SECT":"西段","MAREA":" ","LANE":" ","ALLEY":" ","HOUSE_NO":"８９號十九樓之１","E_COORD97":169450.44,"N_COORD97":2544092.3900000001,"ADDRESS":"大學路西段８９號十九樓之１","OBJECTID":473975},"geometry":{"x":169450.44000000134,"y":2544092.3900000006}},{"attributes":{"ID":474001,"DIS_CODE":0,"TOWNNAME":"東區","LI":"成大里","LIN":"18鄰","STREET":"大學路","SECT":"西段","MAREA":" ","LANE":" ","ALLEY":" ","HOUSE_NO":"８９號十九樓之１０","E_COORD97":169450.44,"N_COORD97":2544092.3900000001,"ADDRESS":"大學路西段８９號十九樓之１０","OBJECTID":473976},"geometry":{"x":169450.44000000134,"y":2544092.3900000006}},{"attributes":{"ID":474002,"DIS_CODE":0,"TOWNNAME":"東區","LI":"成大里","LIN":"18鄰","STREET":"大學路","SECT":"西段","MAREA":" ","LANE":" ","ALLEY":" ","HOUSE_NO":"８９號十九樓之１１","E_COORD97":169450.44,"N_COORD97":2544092.3900000001,"ADDRESS":"大學路西段８９號十九樓之１１","OBJECTID":473977},"geometry":{"x":169450.44000000134,"y":2544092.3900000006}},{"attributes":{"ID":474003,"DIS_CODE":0,"TOWNNAME":"東區","LI":"成大里","LIN":"18鄰","STREET":"大學路","SECT":"西段","MAREA":" ","LANE":" ","ALLEY":" ","HOUSE_NO":"８９號十九樓之１２","E_COORD97":169450.44,"N_COORD97":2544092.3900000001,"ADDRESS":"大學路西段８９號十九樓之１２","OBJECTID":473978},"geometry":{"x":169450.44000000134,"y":2544092.3900000006}},{"attributes":{"ID":474004,"DIS_CODE":0,"TOWNNAME":"東區","LI":"成大里","LIN":"18鄰","STREET":"大學路","SECT":"西段","MAREA":" ","LANE":" ","ALLEY":" ","HOUSE_NO":"８９號十九樓之１３","E_COORD97":169450.44,"N_COORD97":2544092.3900000001,"ADDRESS":"大學路西段８９號十九樓之１３","OBJECTID":473979},"geometry":{"x":169450.44000000134,"y":2544092.3900000006}},{"attributes":{"ID":474005,"DIS_CODE":0,"TOWNNAME":"東區","LI":"成大里","LIN":"18鄰","STREET":"大學路","SECT":"西段","MAREA":" ","LANE":" ","ALLEY":" ","HOUSE_NO":"８９號十九樓之１４","E_COORD97":169450.44,"N_COORD97":2544092.3900000001,"ADDRESS":"大學路西段８９號十九樓之１４","OBJECTID":473980},"geometry":{"x":169450.44000000134,"y":2544092.3900000006}},{"attributes":{"ID":474006,"DIS_CODE":0,"TOWNNAME":"東區","LI":"成大里","LIN":"18鄰","STREET":"大學路","SECT":"西段","MAREA":" ","LANE":" ","ALLEY":" ","HOUSE_NO":"８９號十九樓之１５","E_COORD97":169450.44,"N_COORD97":2544092.3900000001,"ADDRESS":"大學路西段８９號十九樓之１５","OBJECTID":473981},"geometry":{"x":169450.44000000134,"y":2544092.3900000006}},{"attributes":{"ID":474007,"DIS_CODE":0,"TOWNNAME":"東區","LI":"成大里","LIN":"18鄰","STREET":"大學路","SECT":"西段","MAREA":" ","LANE":" ","ALLEY":" ","HOUSE_NO":"８９號十九樓之１６","E_COORD97":169450.44,"N_COORD97":2544092.3900000001,"ADDRESS":"大學路西段８９號十九樓之１６","OBJECTID":473982},"geometry":{"x":169450.44000000134,"y":2544092.3900000006}},{"attributes":{"ID":474008,"DIS_CODE":0,"TOWNNAME":"東區","LI":"成大里","LIN":"18鄰","STREET":"大學路","SECT":"西段","MAREA":" ","LANE":" ","ALLEY":" ","HOUSE_NO":"８９號十九樓之２","E_COORD97":169450.44,"N_COORD97":2544092.3900000001,"ADDRESS":"大學路西段８９號十九樓之２","OBJECTID":473983},"geometry":{"x":169450.44000000134,"y":2544092.3900000006}},{"attributes":{"ID":474009,"DIS_CODE":0,"TOWNNAME":"東區","LI":"成大里","LIN":"18鄰","STREET":"大學路","SECT":"西段","MAREA":" ","LANE":" ","ALLEY":" ","HOUSE_NO":"８９號十九樓之３","E_COORD97":169450.44,"N_COORD97":2544092.3900000001,"ADDRESS":"大學路西段８９號十九樓之３","OBJECTID":473984},"geometry":{"x":169450.44000000134,"y":2544092.3900000006}},{"attributes":{"ID":474010,"DIS_CODE":0,"TOWNNAME":"東區","LI":"成大里","LIN":"18鄰","STREET":"大學路","SECT":"西段","MAREA":" ","LANE":" ","ALLEY":" ","HOUSE_NO":"８９號十九樓之４","E_COORD97":169450.44,"N_COORD97":2544092.3900000001,"ADDRESS":"大學路西段８９號十九樓之４","OBJECTID":473985},"geometry":{"x":169450.44000000134,"y":2544092.3900000006}},{"attributes":{"ID":474011,"DIS_CODE":0,"TOWNNAME":"東區","LI":"成大里","LIN":"18鄰","STREET":"大學路","SECT":"西段","MAREA":" ","LANE":" ","ALLEY":" ","HOUSE_NO":"８９號十九樓之５","E_COORD97":169450.44,"N_COORD97":2544092.3900000001,"ADDRESS":"大學路西段８９號十九樓之５","OBJECTID":473986},"geometry":{"x":169450.44000000134,"y":2544092.3900000006}},{"attributes":{"ID":474012,"DIS_CODE":0,"TOWNNAME":"東區","LI":"成大里","LIN":"18鄰","STREET":"大學路","SECT":"西段","MAREA":" ","LANE":" ","ALLEY":" ","HOUSE_NO":"８９號十九樓之６","E_COORD97":169450.44,"N_COORD97":2544092.3900000001,"ADDRESS":"大學路西段８９號十九樓之６","OBJECTID":473987},"geometry":{"x":169450.44000000134,"y":2544092.3900000006}},{"attributes":{"ID":474013,"DIS_CODE":0,"TOWNNAME":"東區","LI":"成大里","LIN":"18鄰","STREET":"大學路","SECT":"西段","MAREA":" ","LANE":" ","ALLEY":" ","HOUSE_NO":"８９號十九樓之７","E_COORD97":169450.44,"N_COORD97":2544092.3900000001,"ADDRESS":"大學路西段８９號十九樓之７","OBJECTID":473988},"geometry":{"x":169450.44000000134,"y":2544092.3900000006}},{"attributes":{"ID":474014,"DIS_CODE":0,"TOWNNAME":"東區","LI":"成大里","LIN":"18鄰","STREET":"大學路","SECT":"西段","MAREA":" ","LANE":" ","ALLEY":" ","HOUSE_NO":"８９號十九樓之８","E_COORD97":169450.44,"N_COORD97":2544092.3900000001,"ADDRESS":"大學路西段８９號十九樓之８","OBJECTID":473989},"geometry":{"x":169450.44000000134,"y":2544092.3900000006}},{"attributes":{"ID":474015,"DIS_CODE":0,"TOWNNAME":"東區","LI":"成大里","LIN":"18鄰","STREET":"大學路","SECT":"西段","MAREA":" ","LANE":" ","ALLEY":" ","HOUSE_NO":"８９號十九樓之９","E_COORD97":169450.44,"N_COORD97":2544092.3900000001,"ADDRESS":"大學路西段８９號十九樓之９","OBJECTID":473990},"geometry":{"x":169450.44000000134,"y":2544092.3900000006}},{"attributes":{"ID":474016,"DIS_CODE":0,"TOWNNAME":"東區","LI":"成大里","LIN":"18鄰","STREET":"大學路","SECT":"西段","MAREA":" ","LANE":" ","ALLEY":" ","HOUSE_NO":"８９號十二樓","E_COORD97":169450.44,"N_COORD97":2544092.3900000001,"ADDRESS":"大學路西段８９號十二樓","OBJECTID":473991},"geometry":{"x":169450.44000000134,"y":2544092.3900000006}},{"attributes":{"ID":474017,"DIS_CODE":0,"TOWNNAME":"東區","LI":"崇成里","LIN":"18鄰","STREET":"崇德路","SECT":" ","MAREA":" ","LANE":" ","ALLEY":" ","HOUSE_NO":"６４８號","E_COORD97":170769.78,"N_COORD97":2541140.0600000001,"ADDRESS":"崇德路６４８號","OBJECTID":473992},"geometry":{"x":170769.78000000212,"y":2541140.0600000024}},{"attributes":{"ID":474018,"DIS_CODE":0,"TOWNNAME":"東區","LI":"成大里","LIN":"18鄰","STREET":"大學路","SECT":"西段","MAREA":" ","LANE":" ","ALLEY":" ","HOUSE_NO":"８９號十二樓之１","E_COORD97":169450.44,"N_COORD97":2544092.3900000001,"ADDRESS":"大學路西段８９號十二樓之１","OBJECTID":473993},"geometry":{"x":169450.44000000134,"y":2544092.3900000006}},{"attributes":{"ID":474019,"DIS_CODE":0,"TOWNNAME":"東區","LI":"成大里","LIN":"18鄰","STREET":"大學路","SECT":"西段","MAREA":" ","LANE":" ","ALLEY":" ","HOUSE_NO":"８９號十二樓之１０","E_COORD97":169450.44,"N_COORD97":2544092.3900000001,"ADDRESS":"大學路西段８９號十二樓之１０","OBJECTID":473994},"geometry":{"x":169450.44000000134,"y":2544092.3900000006}},{"attributes":{"ID":474020,"DIS_CODE":0,"TOWNNAME":"東區","LI":"成大里","LIN":"18鄰","STREET":"大學路","SECT":"西段","MAREA":" ","LANE":" ","ALLEY":" ","HOUSE_NO":"８９號十二樓之１１","E_COORD97":169450.44,"N_COORD97":2544092.3900000001,"ADDRESS":"大學路西段８９號十二樓之１１","OBJECTID":473995},"geometry":{"x":169450.44000000134,"y":2544092.3900000006}},{"attributes":{"ID":474021,"DIS_CODE":0,"TOWNNAME":"東區","LI":"成大里","LIN":"18鄰","STREET":"大學路","SECT":"西段","MAREA":" ","LANE":" ","ALLEY":" ","HOUSE_NO":"８９號十二樓之１２","E_COORD97":169450.44,"N_COORD97":2544092.3900000001,"ADDRESS":"大學路西段８９號十二樓之１２","OBJECTID":473996},"geometry":{"x":169450.44000000134,"y":2544092.3900000006}},{"attributes":{"ID":474022,"DIS_CODE":0,"TOWNNAME":"東區","LI":"成大里","LIN":"18鄰","STREET":"大學路","SECT":"西段","MAREA":" ","LANE":" ","ALLEY":" ","HOUSE_NO":"８９號十二樓之１３","E_COORD97":169450.44,"N_COORD97":2544092.3900000001,"ADDRESS":"大學路西段８９號十二樓之１３","OBJECTID":473997},"geometry":{"x":169450.44000000134,"y":2544092.3900000006}},{"attributes":{"ID":474023,"DIS_CODE":0,"TOWNNAME":"東區","LI":"成大里","LIN":"18鄰","STREET":"大學路","SECT":"西段","MAREA":" ","LANE":" ","ALLEY":" ","HOUSE_NO":"８９號十二樓之１４","E_COORD97":169450.44,"N_COORD97":2544092.3900000001,"ADDRESS":"大學路西段８９號十二樓之１４","OBJECTID":473998},"geometry":{"x":169450.44000000134,"y":2544092.3900000006}},{"attributes":{"ID":474024,"DIS_CODE":0,"TOWNNAME":"東區","LI":"成大里","LIN":"18鄰","STREET":"大學路","SECT":"西段","MAREA":" ","LANE":" ","ALLEY":" ","HOUSE_NO":"８９號十二樓之１５","E_COORD97":169450.44,"N_COORD97":2544092.3900000001,"ADDRESS":"大學路西段８９號十二樓之１５","OBJECTID":473999},"geometry":{"x":169450.44000000134,"y":2544092.3900000006}},{"attributes":{"ID":474025,"DIS_CODE":0,"TOWNNAME":"東區","LI":"成大里","LIN":"18鄰","STREET":"大學路","SECT":"西段","MAREA":" ","LANE":" ","ALLEY":" ","HOUSE_NO":"８９號十二樓之１６","E_COORD97":169450.44,"N_COORD97":2544092.3900000001,"ADDRESS":"大學路西段８９號十二樓之１６","OBJECTID":474000},"geometry":{"x":169450.44000000134,"y":2544092.3900000006}}]}