{"displayFieldName":"TOWNNAME","fieldAliases":{"ID":"ID","DIS_CODE":"DIS_CODE","TOWNNAME":"TOWNNAME","LI":"LI","LIN":"LIN","STREET":"STREET","SECT":"SECT","MAREA":"MAREA","LANE":"LANE","ALLEY":"ALLEY","HOUSE_NO":"HOUSE_NO","E_COORD97":"E_COORD97","N_COORD97":"N_COORD97","ADDRESS":"ADDRESS","OBJECTID":"OBJECTID"},"geometryType":"esriGeometryPoint","spatialReference":{"wkid":102443,"latestWkid":3826},"fields":[{"name":"ID","type":"esriFieldTypeDouble","alias":"ID"},{"name":"DIS_CODE","type":"esriFieldTypeInteger","alias":"DIS_CODE"},{"name":"TOWNNAME","type":"esriFieldTypeString","alias":"TOWNNAME","length":8},{"name":"LI","type":"esriFieldTypeString","alias":"LI","length":8},{"name":"LIN","type":"esriFieldTypeString","alias":"LIN","length":12},{"name":"STREET","type":"esriFieldTypeString","alias":"STREET","length":20},{"name":"SECT","type":"esriFieldTypeString","alias":"SECT","length":8},{"name":"MAREA","type":"esriFieldTypeString","alias":"MAREA","length":12},{"name":"LANE","type":"esriFieldTypeString","alias":"LANE","length":10},{"name":"ALLEY","type":"esriFieldTypeString","alias":"ALLEY","length":10},{"name":"HOUSE_NO","type":"esriFieldTypeString","alias":"HOUSE_NO","length":20},{"name":"E_COORD97","type":"esriFieldTypeDouble","alias":"E_COORD97"},{"name":"N_COORD97","type":"esriFieldTypeDouble","alias":"N_COORD97"},{"name":"ADDRESS","type":"esriFieldTypeString","alias":"ADDRESS","length":50},{"name":"OBJECTID","type":"esriFieldTypeOID","alias":"OBJECTID"}],"features":[{"attributes":{"ID":516628,"DIS_CODE":0,"TOWNNAME":"南區","LI":"佛壇里","LIN":"1鄰","STREET":"興南街","SECT":" ","MAREA":" ","LANE":" ","ALLEY":" ","HOUSE_NO":"４５６號","E_COORD97":166068.98999999999,"N_COORD97":2535493.8199999998,"ADDRESS":"興南街４５６號","OBJECTID":516601},"geometry":{"x":166068.99000000022,"y":2535493.8200000022}},{"attributes":{"ID":516629,"DIS_CODE":0,"TOWNNAME":"南區","LI":"佛壇里","LIN":"1鄰","STREET":"興南街","SECT":" ","MAREA":" ","LANE":" ","ALLEY":" ","HOUSE_NO":"４６０號","E_COORD97":165707.48999999999,"N_COORD97":2535667.3500000001,"ADDRESS":"興南街４６０號","OBJECTID":516602},"geometry":{"x":165707.49000000022,"y":2535667.3499999978}},{"attributes":{"ID":516630,"DIS_CODE":0,"TOWNNAME":"南區","LI":"佛壇里","LIN":"1鄰","STREET":"興南街","SECT":" ","MAREA":" ","LANE":" ","ALLEY":" ","HOUSE_NO":"４６１號","E_COORD97":165707.48999999999,"N_COORD97":2535661.8900000001,"ADDRESS":"興南街４６１號","OBJECTID":516603},"geometry":{"x":165707.49000000022,"y":2535661.8900000025}},{"attributes":{"ID":516631,"DIS_CODE":0,"TOWNNAME":"南區","LI":"佛壇里","LIN":"1鄰","STREET":"興南街","SECT":" ","MAREA":" ","LANE":" ","ALLEY":" ","HOUSE_NO":"４６２號","E_COORD97":165706.88,"N_COORD97":2535657.6400000001,"ADDRESS":"興南街４６２號","OBJECTID":516604},"geometry":{"x":165706.88000000175,"y":2535657.6400000025}},{"attributes":{"ID":516632,"DIS_CODE":0,"TOWNNAME":"南區","LI":"佛壇里","LIN":"1鄰","STREET":"興南街","SECT":" ","MAREA":" ","LANE":" ","ALLEY":" ","HOUSE_NO":"４６３號","E_COORD97":165707.48999999999,"N_COORD97":2535654,"ADDRESS":"興南街４６３號","OBJECTID":516605},"geometry":{"x":165707.49000000022,"y":2535654.0000000019}},{"attributes":{"ID":516633,"DIS_CODE":0,"TOWNNAME":"南區","LI":"佛壇里","LIN":"1鄰","STREET":"興南街","SECT":" ","MAREA":" ","LANE":" ","ALLEY":" ","HOUSE_NO":"４６４號","E_COORD97":165706.95999999999,"N_COORD97":2535650.1699999999,"ADDRESS":"興南街４６４號","OBJECTID":516606},"geometry":{"x":165706.96000000089,"y":2535650.1700000018}},{"attributes":{"ID":516634,"DIS_CODE":0,"TOWNNAME":"南區","LI":"佛壇里","LIN":"1鄰","STREET":"興南街","SECT":" ","MAREA":" ","LANE":" ","ALLEY":" ","HOUSE_NO":"４６５號","E_COORD97":165707.48999999999,"N_COORD97":2535646.7200000002,"ADDRESS":"興南街４６５號","OBJECTID":516607},"geometry":{"x":165707.49000000022,"y":2535646.7200000025}},{"attributes":{"ID":516635,"DIS_CODE":0,"TOWNNAME":"南區","LI":"佛壇里","LIN":"1鄰","STREET":"興南街","SECT":" ","MAREA":" ","LANE":" ","ALLEY":" ","HOUSE_NO":"４６６號","E_COORD97":165706.79000000001,"N_COORD97":2535642.0899999999,"ADDRESS":"興南街４６６號","OBJECTID":516608},"geometry":{"x":165706.79000000004,"y":2535642.0899999999}},{"attributes":{"ID":516636,"DIS_CODE":0,"TOWNNAME":"南區","LI":"佛壇里","LIN":"1鄰","STREET":"興南街","SECT":" ","MAREA":" ","LANE":" ","ALLEY":" ","HOUSE_NO":"４６７號","E_COORD97":165707.97,"N_COORD97":2535637.7799999998,"ADDRESS":"興南街４６７號","OBJECTID":516609},"geometry":{"x":165707.97000000067,"y":2535637.7800000012}},{"attributes":{"ID":516637,"DIS_CODE":0,"TOWNNAME":"南區","LI":"佛壇里","LIN":"1鄰","STREET":"興南街","SECT":" ","MAREA":" ","LANE":" ","ALLEY":" ","HOUSE_NO":"４６８號","E_COORD97":165707.57000000001,"N_COORD97":2535633.46,"ADDRESS":"興南街４６８號","OBJECTID":516610},"geometry":{"x":165707.56999999937,"y":2535633.4600000009}},{"attributes":{"ID":516638,"DIS_CODE":0,"TOWNNAME":"南區","LI":"佛壇里","LIN":"1鄰","STREET":"興南街","SECT":" ","MAREA":" ","LANE":" ","ALLEY":" ","HOUSE_NO":"４６９號","E_COORD97":165707.17999999999,"N_COORD97":2535629.54,"ADDRESS":"興南街４６９號","OBJECTID":516611},"geometry":{"x":165707.1799999997,"y":2535629.540000001}},{"attributes":{"ID":516639,"DIS_CODE":0,"TOWNNAME":"南區","LI":"佛壇里","LIN":"1鄰","STREET":"興南街","SECT":" ","MAREA":" ","LANE":" ","ALLEY":" ","HOUSE_NO":"４７０號","E_COORD97":165707.57000000001,"N_COORD97":2535626.0099999998,"ADDRESS":"興南街４７０號","OBJECTID":516612},"geometry":{"x":165707.56999999937,"y":2535626.0100000035}},{"attributes":{"ID":516640,"DIS_CODE":0,"TOWNNAME":"南區","LI":"佛壇里","LIN":"1鄰","STREET":"興南街","SECT":" ","MAREA":" ","LANE":" ","ALLEY":" ","HOUSE_NO":"４７１號","E_COORD97":165707.17999999999,"N_COORD97":2535621.7000000002,"ADDRESS":"興南街４７１號","OBJECTID":516613},"geometry":{"x":165707.1799999997,"y":2535621.7000000011}},{"attributes":{"ID":516641,"DIS_CODE":0,"TOWNNAME":"南區","LI":"佛壇里","LIN":"1鄰","STREET":"興南街","SECT":" ","MAREA":" ","LANE":" ","ALLEY":" ","HOUSE_NO":"４７２號","E_COORD97":165707.97,"N_COORD97":2535617.3799999999,"ADDRESS":"興南街４７２號","OBJECTID":516614},"geometry":{"x":165707.97000000067,"y":2535617.3800000008}},{"attributes":{"ID":516642,"DIS_CODE":0,"TOWNNAME":"南區","LI":"佛壇里","LIN":"1鄰","STREET":"興南街","SECT":" ","MAREA":" ","LANE":" ","ALLEY":" ","HOUSE_NO":"４７３號","E_COORD97":165707.85999999999,"N_COORD97":2535616.6899999999,"ADDRESS":"興南街４７３號","OBJECTID":516615},"geometry":{"x":165707.86000000127,"y":2535616.6899999995}},{"attributes":{"ID":516643,"DIS_CODE":0,"TOWNNAME":"南區","LI":"佛壇里","LIN":"1鄰","STREET":"興南街","SECT":" ","MAREA":" ","LANE":" ","ALLEY":" ","HOUSE_NO":"４７４號","E_COORD97":165707.57000000001,"N_COORD97":2535609.9300000002,"ADDRESS":"興南街４７４號","OBJECTID":516616},"geometry":{"x":165707.56999999937,"y":2535609.9300000016}},{"attributes":{"ID":516644,"DIS_CODE":0,"TOWNNAME":"南區","LI":"佛壇里","LIN":"1鄰","STREET":"興南街","SECT":" ","MAREA":" ","LANE":" ","ALLEY":" ","HOUSE_NO":"４７５號","E_COORD97":165707.57000000001,"N_COORD97":2535605.6200000001,"ADDRESS":"興南街４７５號","OBJECTID":516617},"geometry":{"x":165707.56999999937,"y":2535605.620000001}},{"attributes":{"ID":516645,"DIS_CODE":0,"TOWNNAME":"南區","LI":"佛壇里","LIN":"1鄰","STREET":"興南街","SECT":" ","MAREA":" ","LANE":" ","ALLEY":" ","HOUSE_NO":"４７６號","E_COORD97":165707.57000000001,"N_COORD97":2535602.0899999999,"ADDRESS":"興南街４７６號","OBJECTID":516618},"geometry":{"x":165707.56999999937,"y":2535602.0900000017}},{"attributes":{"ID":516646,"DIS_CODE":0,"TOWNNAME":"南區","LI":"佛壇里","LIN":"1鄰","STREET":"興南街","SECT":" ","MAREA":" ","LANE":" ","ALLEY":" ","HOUSE_NO":"４７７號","E_COORD97":165707.57000000001,"N_COORD97":2535597.3900000001,"ADDRESS":"興南街４７７號","OBJECTID":516619},"geometry":{"x":165707.56999999937,"y":2535597.3900000043}},{"attributes":{"ID":516647,"DIS_CODE":0,"TOWNNAME":"南區","LI":"佛壇里","LIN":"1鄰","STREET":"興南街","SECT":" ","MAREA":" ","LANE":" ","ALLEY":" ","HOUSE_NO":"４７８號","E_COORD97":165707.97,"N_COORD97":2535594.25,"ADDRESS":"興南街４７８號","OBJECTID":516620},"geometry":{"x":165707.97000000067,"y":2535594.2500000037}},{"attributes":{"ID":516648,"DIS_CODE":0,"TOWNNAME":"南區","LI":"佛壇里","LIN":"1鄰","STREET":"興南街","SECT":" ","MAREA":" ","LANE":" ","ALLEY":" ","HOUSE_NO":"４７９號","E_COORD97":165708.75,"N_COORD97":2535590.3300000001,"ADDRESS":"興南街４７９號","OBJECTID":516621},"geometry":{"x":165708.75,"y":2535590.3300000038}},{"attributes":{"ID":516649,"DIS_CODE":0,"TOWNNAME":"南區","LI":"佛壇里","LIN":"1鄰","STREET":"興南街","SECT":" ","MAREA":" ","LANE":" ","ALLEY":" ","HOUSE_NO":"４８０號","E_COORD97":165707.95999999999,"N_COORD97":2535586.4100000001,"ADDRESS":"興南街４８０號","OBJECTID":516622},"geometry":{"x":165707.95999999903,"y":2535586.4100000039}},{"attributes":{"ID":516650,"DIS_CODE":0,"TOWNNAME":"南區","LI":"佛壇里","LIN":"1鄰","STREET":"興南街","SECT":" ","MAREA":" ","LANE":" ","ALLEY":" ","HOUSE_NO":"４８１號","E_COORD97":165707.95999999999,"N_COORD97":2535581.7000000002,"ADDRESS":"興南街４８１號","OBJECTID":516623},"geometry":{"x":165707.95999999903,"y":2535581.7000000011}},{"attributes":{"ID":516651,"DIS_CODE":0,"TOWNNAME":"南區","LI":"佛壇里","LIN":"1鄰","STREET":"興南街","SECT":" ","MAREA":" ","LANE":" ","ALLEY":" ","HOUSE_NO":"４８２號","E_COORD97":165707.95999999999,"N_COORD97":2535577.3900000001,"ADDRESS":"興南街４８２號","OBJECTID":516624},"geometry":{"x":165707.95999999903,"y":2535577.3900000025}},{"attributes":{"ID":516652,"DIS_CODE":0,"TOWNNAME":"南區","LI":"佛壇里","LIN":"1鄰","STREET":"興南街","SECT":" ","MAREA":" ","LANE":" ","ALLEY":" ","HOUSE_NO":"４８３號","E_COORD97":165707.57000000001,"N_COORD97":2535573.8599999999,"ADDRESS":"興南街４８３號","OBJECTID":516625},"geometry":{"x":165707.56999999937,"y":2535573.8600000013}},{"attributes":{"ID":516653,"DIS_CODE":0,"TOWNNAME":"南區","LI":"佛壇里","LIN":"1鄰","STREET":"興南街","SECT":" ","MAREA":" ","LANE":" ","ALLEY":" ","HOUSE_NO":"４８４號","E_COORD97":165707.95999999999,"N_COORD97":2535570.3300000001,"ADDRESS":"興南街４８４號","OBJECTID":516626},"geometry":{"x":165707.95999999903,"y":2535570.3300000019}},{"attributes":{"ID":516654,"DIS_CODE":0,"TOWNNAME":"南區","LI":"佛壇里","LIN":"1鄰","STREET":"興南街","SECT":" ","MAREA":" ","LANE":" ","ALLEY":" ","HOUSE_NO":"４８５號","E_COORD97":165706.85999999999,"N_COORD97":2535566.2200000002,"ADDRESS":"興南街４８５號","OBJECTID":516627},"geometry":{"x":165706.86000000034,"y":2535566.2200000007}},{"attributes":{"ID":516655,"DIS_CODE":0,"TOWNNAME":"南區","LI":"佛壇里","LIN":"1鄰","STREET":"興南街","SECT":" ","MAREA":" ","LANE":" ","ALLEY":" ","HOUSE_NO":"４８６號","E_COORD97":165707.95999999999,"N_COORD97":2535562.4900000002,"ADDRESS":"興南街４８６號","OBJECTID":516628},"geometry":{"x":165707.95999999903,"y":2535562.4900000021}},{"attributes":{"ID":516656,"DIS_CODE":0,"TOWNNAME":"南區","LI":"佛壇里","LIN":"1鄰","STREET":"興南街","SECT":" ","MAREA":" ","LANE":" ","ALLEY":" ","HOUSE_NO":"５２０號","E_COORD97":165750.76000000001,"N_COORD97":2535401.52,"ADDRESS":"興南街５２０號","OBJECTID":516629},"geometry":{"x":165750.75999999978,"y":2535401.5199999996}},{"attributes":{"ID":516657,"DIS_CODE":0,"TOWNNAME":"南區","LI":"佛壇里","LIN":"1鄰","STREET":"興南街","SECT":" ","MAREA":" ","LANE":" ","ALLEY":" ","HOUSE_NO":"４８７之３號","E_COORD97":165753.38,"N_COORD97":2535348.52,"ADDRESS":"興南街４８７之３號","OBJECTID":516630},"geometry":{"x":165753.38000000082,"y":2535348.5200000014}},{"attributes":{"ID":516658,"DIS_CODE":0,"TOWNNAME":"南區","LI":"佛壇里","LIN":"1鄰","STREET":"興南街","SECT":" ","MAREA":" ","LANE":" ","ALLEY":" ","HOUSE_NO":"４８７號","E_COORD97":165708.35999999999,"N_COORD97":2535538.2799999998,"ADDRESS":"興南街４８７號","OBJECTID":516631},"geometry":{"x":165708.36000000034,"y":2535538.2799999993}},{"attributes":{"ID":516659,"DIS_CODE":0,"TOWNNAME":"南區","LI":"佛壇里","LIN":"1鄰","STREET":"興南街","SECT":" ","MAREA":" ","LANE":" ","ALLEY":" ","HOUSE_NO":"４８７號之２","E_COORD97":165713.07000000001,"N_COORD97":2535528.8700000001,"ADDRESS":"興南街４８７號之２","OBJECTID":516632},"geometry":{"x":165713.07000000123,"y":2535528.870000001}},{"attributes":{"ID":516660,"DIS_CODE":0,"TOWNNAME":"南區","LI":"佛壇里","LIN":"1鄰","STREET":"興南街","SECT":" ","MAREA":" ","LANE":" ","ALLEY":" ","HOUSE_NO":"４８８號","E_COORD97":165713.45999999999,"N_COORD97":2535523.3799999999,"ADDRESS":"興南街４８８號","OBJECTID":516633},"geometry":{"x":165713.46000000089,"y":2535523.379999999}},{"attributes":{"ID":516661,"DIS_CODE":0,"TOWNNAME":"南區","LI":"佛壇里","LIN":"1鄰","STREET":"興南街","SECT":" ","MAREA":" ","LANE":" ","ALLEY":" ","HOUSE_NO":"４８９號","E_COORD97":165715.03,"N_COORD97":2535518.6800000002,"ADDRESS":"興南街４８９號","OBJECTID":516634},"geometry":{"x":165715.03000000119,"y":2535518.6799999997}},{"attributes":{"ID":516662,"DIS_CODE":0,"TOWNNAME":"南區","LI":"佛壇里","LIN":"1鄰","STREET":"興南街","SECT":" ","MAREA":" ","LANE":" ","ALLEY":" ","HOUSE_NO":"４９０號","E_COORD97":165716.20999999999,"N_COORD97":2535514.75,"ADDRESS":"興南街４９０號","OBJECTID":516635},"geometry":{"x":165716.20999999996,"y":2535514.75}},{"attributes":{"ID":516663,"DIS_CODE":0,"TOWNNAME":"南區","LI":"佛壇里","LIN":"1鄰","STREET":"興南街","SECT":" ","MAREA":" ","LANE":" ","ALLEY":" ","HOUSE_NO":"４９２號","E_COORD97":165717.39000000001,"N_COORD97":2535511.6200000001,"ADDRESS":"興南街４９２號","OBJECTID":516636},"geometry":{"x":165717.3900000006,"y":2535511.6200000029}},{"attributes":{"ID":516664,"DIS_CODE":0,"TOWNNAME":"南區","LI":"佛壇里","LIN":"1鄰","STREET":"興南街","SECT":" ","MAREA":" ","LANE":" ","ALLEY":" ","HOUSE_NO":"４９３號","E_COORD97":165720.14000000001,"N_COORD97":2535507.2999999998,"ADDRESS":"興南街４９３號","OBJECTID":516637},"geometry":{"x":165720.14000000153,"y":2535507.3000000026}},{"attributes":{"ID":516665,"DIS_CODE":0,"TOWNNAME":"南區","LI":"佛壇里","LIN":"1鄰","STREET":"興南街","SECT":" ","MAREA":" ","LANE":" ","ALLEY":" ","HOUSE_NO":"４９４號","E_COORD97":165721.85999999999,"N_COORD97":2535503.25,"ADDRESS":"興南街４９４號","OBJECTID":516638},"geometry":{"x":165721.86000000034,"y":2535503.2500000019}},{"attributes":{"ID":516666,"DIS_CODE":0,"TOWNNAME":"南區","LI":"佛壇里","LIN":"1鄰","STREET":"興南街","SECT":" ","MAREA":" ","LANE":" ","ALLEY":" ","HOUSE_NO":"４９５號","E_COORD97":165723.28,"N_COORD97":2535499.0699999998,"ADDRESS":"興南街４９５號","OBJECTID":516639},"geometry":{"x":165723.28000000119,"y":2535499.0700000003}},{"attributes":{"ID":516667,"DIS_CODE":0,"TOWNNAME":"南區","LI":"佛壇里","LIN":"1鄰","STREET":"興南街","SECT":" ","MAREA":" ","LANE":" ","ALLEY":" ","HOUSE_NO":"４９６號","E_COORD97":165724.45999999999,"N_COORD97":2535494.7599999998,"ADDRESS":"興南街４９６號","OBJECTID":516640},"geometry":{"x":165724.45999999996,"y":2535494.7599999998}},{"attributes":{"ID":516668,"DIS_CODE":0,"TOWNNAME":"南區","LI":"佛壇里","LIN":"1鄰","STREET":"興南街","SECT":" ","MAREA":" ","LANE":" ","ALLEY":" ","HOUSE_NO":"４９７號","E_COORD97":165726.42000000001,"N_COORD97":2535490.4399999999,"ADDRESS":"興南街４９７號","OBJECTID":516641},"geometry":{"x":165726.41999999993,"y":2535490.4400000032}},{"attributes":{"ID":516669,"DIS_CODE":0,"TOWNNAME":"南區","LI":"佛壇里","LIN":"1鄰","STREET":"興南街","SECT":" ","MAREA":" ","LANE":" ","ALLEY":" ","HOUSE_NO":"４９８號","E_COORD97":165726.41,"N_COORD97":2535481.5899999999,"ADDRESS":"興南街４９８號","OBJECTID":516642},"geometry":{"x":165726.41000000015,"y":2535481.5899999999}},{"attributes":{"ID":516670,"DIS_CODE":0,"TOWNNAME":"南區","LI":"佛壇里","LIN":"1鄰","STREET":"興南街","SECT":" ","MAREA":" ","LANE":" ","ALLEY":" ","HOUSE_NO":"４９９號","E_COORD97":165728.78,"N_COORD97":2535482.6000000001,"ADDRESS":"興南街４９９號","OBJECTID":516643},"geometry":{"x":165728.78000000119,"y":2535482.5999999978}},{"attributes":{"ID":516671,"DIS_CODE":0,"TOWNNAME":"南區","LI":"佛壇里","LIN":"1鄰","STREET":"興南街","SECT":" ","MAREA":" ","LANE":" ","ALLEY":" ","HOUSE_NO":"５００號","E_COORD97":165731.35999999999,"N_COORD97":2535483.9300000002,"ADDRESS":"興南街５００號","OBJECTID":516644},"geometry":{"x":165731.36000000127,"y":2535483.9300000034}},{"attributes":{"ID":516672,"DIS_CODE":0,"TOWNNAME":"南區","LI":"佛壇里","LIN":"1鄰","STREET":"興南街","SECT":" ","MAREA":" ","LANE":" ","ALLEY":" ","HOUSE_NO":"５０１號","E_COORD97":165733.48999999999,"N_COORD97":2535473.1899999999,"ADDRESS":"興南街５０１號","OBJECTID":516645},"geometry":{"x":165733.49000000209,"y":2535473.1900000013}},{"attributes":{"ID":516673,"DIS_CODE":0,"TOWNNAME":"南區","LI":"佛壇里","LIN":"1鄰","STREET":"興南街","SECT":" ","MAREA":" ","LANE":" ","ALLEY":" ","HOUSE_NO":"５０２號","E_COORD97":165733.88,"N_COORD97":2535468.48,"ADDRESS":"興南街５０２號","OBJECTID":516646},"geometry":{"x":165733.88000000175,"y":2535468.4800000023}},{"attributes":{"ID":516674,"DIS_CODE":0,"TOWNNAME":"南區","LI":"佛壇里","LIN":"1鄰","STREET":"興南街","SECT":" ","MAREA":" ","LANE":" ","ALLEY":" ","HOUSE_NO":"５０３號","E_COORD97":165735.84,"N_COORD97":2535465.3500000001,"ADDRESS":"興南街５０３號","OBJECTID":516647},"geometry":{"x":165735.84000000171,"y":2535465.3500000015}},{"attributes":{"ID":516675,"DIS_CODE":0,"TOWNNAME":"南區","LI":"佛壇里","LIN":"1鄰","STREET":"興南街","SECT":" ","MAREA":" ","LANE":" ","ALLEY":" ","HOUSE_NO":"５０４號","E_COORD97":165737.81,"N_COORD97":2535461.4300000002,"ADDRESS":"興南街５０４號","OBJECTID":516648},"geometry":{"x":165737.81000000052,"y":2535461.4300000016}},{"attributes":{"ID":516676,"DIS_CODE":0,"TOWNNAME":"南區","LI":"佛壇里","LIN":"1鄰","STREET":"興南街","SECT":" ","MAREA":" ","LANE":" ","ALLEY":" ","HOUSE_NO":"５０５號","E_COORD97":165738.98000000001,"N_COORD97":2535456.7200000002,"ADDRESS":"興南街５０５號","OBJECTID":516649},"geometry":{"x":165738.98000000231,"y":2535456.7200000025}},{"attributes":{"ID":516677,"DIS_CODE":0,"TOWNNAME":"南區","LI":"佛壇里","LIN":"1鄰","STREET":"興南街","SECT":" ","MAREA":" ","LANE":" ","ALLEY":" ","HOUSE_NO":"５０６號","E_COORD97":165735.73000000001,"N_COORD97":2535457.2799999998,"ADDRESS":"興南街５０６號","OBJECTID":516650},"geometry":{"x":165735.73000000138,"y":2535457.2799999975}},{"attributes":{"ID":516678,"DIS_CODE":0,"TOWNNAME":"新營區","LI":"嘉芳里","LIN":"4鄰","STREET":"嘉芳街","SECT":" ","MAREA":" ","LANE":" ","ALLEY":" ","HOUSE_NO":"１３６號","E_COORD97":176976.44,"N_COORD97":2578353.6499999999,"ADDRESS":"嘉芳街１３６號","OBJECTID":516651},"geometry":{"x":176976.43999999948,"y":2578353.6500000004}},{"attributes":{"ID":516679,"DIS_CODE":0,"TOWNNAME":"南區","LI":"佛壇里","LIN":"1鄰","STREET":"興南街","SECT":" ","MAREA":" ","LANE":" ","ALLEY":" ","HOUSE_NO":"５０７號","E_COORD97":165742.51999999999,"N_COORD97":2535447.7000000002,"ADDRESS":"興南街５０７號","OBJECTID":516652},"geometry":{"x":165742.51999999955,"y":2535447.700000003}},{"attributes":{"ID":516680,"DIS_CODE":0,"TOWNNAME":"南區","LI":"佛壇里","LIN":"1鄰","STREET":"興南街","SECT":" ","MAREA":" ","LANE":" ","ALLEY":" ","HOUSE_NO":"５０８號","E_COORD97":165745.66,"N_COORD97":2535443.3900000001,"ADDRESS":"興南街５０８號","OBJECTID":516653},"geometry":{"x":165745.66000000015,"y":2535443.3900000006}},{"attributes":{"ID":516681,"DIS_CODE":0,"TOWNNAME":"新營區","LI":"民權里","LIN":"7鄰","STREET":"文化街","SECT":" ","MAREA":" ","LANE":" ","ALLEY":" ","HOUSE_NO":"３０之２號","E_COORD97":179807.87,"N_COORD97":2578094.1600000001,"ADDRESS":"文化街３０之２號","OBJECTID":516654},"geometry":{"x":179807.87000000104,"y":2578094.160000002}},{"attributes":{"ID":516682,"DIS_CODE":0,"TOWNNAME":"南區","LI":"佛壇里","LIN":"1鄰","STREET":"興南街","SECT":" ","MAREA":" ","LANE":" ","ALLEY":" ","HOUSE_NO":"５０９號","E_COORD97":165746.84,"N_COORD97":2535440.25,"ADDRESS":"興南街５０９號","OBJECTID":516655},"geometry":{"x":165746.84000000078,"y":2535440.25}},{"attributes":{"ID":516683,"DIS_CODE":0,"TOWNNAME":"南區","LI":"佛壇里","LIN":"1鄰","STREET":"興南街","SECT":" ","MAREA":" ","LANE":" ","ALLEY":" ","HOUSE_NO":"５１０號","E_COORD97":165745.26999999999,"N_COORD97":2535435.9399999999,"ADDRESS":"興南街５１０號","OBJECTID":516656},"geometry":{"x":165745.27000000048,"y":2535435.9399999995}},{"attributes":{"ID":516684,"DIS_CODE":0,"TOWNNAME":"南區","LI":"佛壇里","LIN":"1鄰","STREET":"興南街","SECT":" ","MAREA":" ","LANE":" ","ALLEY":" ","HOUSE_NO":"５１１號","E_COORD97":165746.44,"N_COORD97":2535431.6200000001,"ADDRESS":"興南街５１１號","OBJECTID":516657},"geometry":{"x":165746.44000000134,"y":2535431.6200000029}},{"attributes":{"ID":516685,"DIS_CODE":0,"TOWNNAME":"南區","LI":"佛壇里","LIN":"1鄰","STREET":"興南街","SECT":" ","MAREA":" ","LANE":" ","ALLEY":" ","HOUSE_NO":"５１２號","E_COORD97":165747.23000000001,"N_COORD97":2535427.7000000002,"ADDRESS":"興南街５１２號","OBJECTID":516658},"geometry":{"x":165747.23000000045,"y":2535427.700000003}},{"attributes":{"ID":516686,"DIS_CODE":0,"TOWNNAME":"南區","LI":"佛壇里","LIN":"1鄰","STREET":"興南街","SECT":" ","MAREA":" ","LANE":" ","ALLEY":" ","HOUSE_NO":"５１３號","E_COORD97":165747.62,"N_COORD97":2535423,"ADDRESS":"興南街５１３號","OBJECTID":516659},"geometry":{"x":165747.62000000011,"y":2535423.0000000037}},{"attributes":{"ID":516687,"DIS_CODE":0,"TOWNNAME":"南區","LI":"佛壇里","LIN":"1鄰","STREET":"興南街","SECT":" ","MAREA":" ","LANE":" ","ALLEY":" ","HOUSE_NO":"５１４號","E_COORD97":165748.41,"N_COORD97":2535421.8199999998,"ADDRESS":"興南街５１４號","OBJECTID":516660},"geometry":{"x":165748.41000000108,"y":2535421.8200000022}},{"attributes":{"ID":516688,"DIS_CODE":0,"TOWNNAME":"南區","LI":"佛壇里","LIN":"1鄰","STREET":"興南街","SECT":" ","MAREA":" ","LANE":" ","ALLEY":" ","HOUSE_NO":"５１５號","E_COORD97":165748.79999999999,"N_COORD97":2535419.0800000001,"ADDRESS":"興南街５１５號","OBJECTID":516661},"geometry":{"x":165748.80000000075,"y":2535419.0800000038}},{"attributes":{"ID":516689,"DIS_CODE":0,"TOWNNAME":"南區","LI":"佛壇里","LIN":"1鄰","STREET":"興南街","SECT":" ","MAREA":" ","LANE":" ","ALLEY":" ","HOUSE_NO":"５１６號","E_COORD97":165749.59,"N_COORD97":2535415.1499999999,"ADDRESS":"興南街５１６號","OBJECTID":516662},"geometry":{"x":165749.59000000078,"y":2535415.1500000004}},{"attributes":{"ID":516690,"DIS_CODE":0,"TOWNNAME":"南區","LI":"佛壇里","LIN":"1鄰","STREET":"興南街","SECT":" ","MAREA":" ","LANE":" ","ALLEY":" ","HOUSE_NO":"５１７號","E_COORD97":165750.76000000001,"N_COORD97":2535412.7999999998,"ADDRESS":"興南街５１７號","OBJECTID":516663},"geometry":{"x":165750.75999999978,"y":2535412.8000000026}},{"attributes":{"ID":516691,"DIS_CODE":0,"TOWNNAME":"南區","LI":"佛壇里","LIN":"1鄰","STREET":"興南街","SECT":" ","MAREA":" ","LANE":" ","ALLEY":" ","HOUSE_NO":"５１８號","E_COORD97":165750.76000000001,"N_COORD97":2535407.7000000002,"ADDRESS":"興南街５１８號","OBJECTID":516664},"geometry":{"x":165750.75999999978,"y":2535407.7000000011}},{"attributes":{"ID":516692,"DIS_CODE":0,"TOWNNAME":"南區","LI":"佛壇里","LIN":"1鄰","STREET":"興南街","SECT":" ","MAREA":" ","LANE":" ","ALLEY":" ","HOUSE_NO":"５１９號","E_COORD97":165750.76000000001,"N_COORD97":2535405.8300000001,"ADDRESS":"興南街５１９號","OBJECTID":516665},"geometry":{"x":165750.75999999978,"y":2535405.8300000001}},{"attributes":{"ID":516693,"DIS_CODE":0,"TOWNNAME":"南區","LI":"佛壇里","LIN":"1鄰","STREET":"興南街","SECT":" ","MAREA":" ","LANE":" ","ALLEY":" ","HOUSE_NO":"５２１號","E_COORD97":165751.16,"N_COORD97":2535398.77,"ADDRESS":"興南街５２１號","OBJECTID":516666},"geometry":{"x":165751.16000000108,"y":2535398.7699999996}},{"attributes":{"ID":516694,"DIS_CODE":0,"TOWNNAME":"南區","LI":"佛壇里","LIN":"1鄰","STREET":"興南街","SECT":" ","MAREA":" ","LANE":" ","ALLEY":" ","HOUSE_NO":"５２２號","E_COORD97":165753.51000000001,"N_COORD97":2535395.6400000001,"ADDRESS":"興南街５２２號","OBJECTID":516667},"geometry":{"x":165753.51000000071,"y":2535395.6400000043}},{"attributes":{"ID":516695,"DIS_CODE":0,"TOWNNAME":"南區","LI":"佛壇里","LIN":"1鄰","STREET":"興南街","SECT":" ","MAREA":" ","LANE":" ","ALLEY":" ","HOUSE_NO":"５２３號","E_COORD97":165753.12,"N_COORD97":2535390.1499999999,"ADDRESS":"興南街５２３號","OBJECTID":516668},"geometry":{"x":165753.12000000104,"y":2535390.1500000004}},{"attributes":{"ID":516696,"DIS_CODE":0,"TOWNNAME":"南區","LI":"佛壇里","LIN":"1鄰","STREET":"興南街","SECT":" ","MAREA":" ","LANE":" ","ALLEY":" ","HOUSE_NO":"５２４號","E_COORD97":165753.51000000001,"N_COORD97":2535388.5800000001,"ADDRESS":"興南街５２４號","OBJECTID":516669},"geometry":{"x":165753.51000000071,"y":2535388.5800000038}},{"attributes":{"ID":516697,"DIS_CODE":0,"TOWNNAME":"南區","LI":"佛壇里","LIN":"1鄰","STREET":"興南街","SECT":" ","MAREA":" ","LANE":" ","ALLEY":" ","HOUSE_NO":"５２５號","E_COORD97":165754.69,"N_COORD97":2535384.6600000001,"ADDRESS":"興南街５２５號","OBJECTID":516670},"geometry":{"x":165754.69000000134,"y":2535384.6600000039}},{"attributes":{"ID":516698,"DIS_CODE":0,"TOWNNAME":"南區","LI":"佛壇里","LIN":"1鄰","STREET":"興南街","SECT":" ","MAREA":" ","LANE":" ","ALLEY":" ","HOUSE_NO":"５２６號","E_COORD97":165754.69,"N_COORD97":2535380.7400000002,"ADDRESS":"興南街５２６號","OBJECTID":516671},"geometry":{"x":165754.69000000134,"y":2535380.7400000039}},{"attributes":{"ID":516699,"DIS_CODE":0,"TOWNNAME":"南區","LI":"佛壇里","LIN":"1鄰","STREET":"興南街","SECT":" ","MAREA":" ","LANE":" ","ALLEY":" ","HOUSE_NO":"５２７號","E_COORD97":165756.26000000001,"N_COORD97":2535375.25,"ADDRESS":"興南街５２７號","OBJECTID":516672},"geometry":{"x":165756.25999999978,"y":2535375.2500000019}},{"attributes":{"ID":516700,"DIS_CODE":0,"TOWNNAME":"南區","LI":"佛壇里","LIN":"1鄰","STREET":"興南街","SECT":" ","MAREA":" ","LANE":" ","ALLEY":" ","HOUSE_NO":"５２８號","E_COORD97":165756.64999999999,"N_COORD97":2535369.3599999999,"ADDRESS":"興南街５２８號","OBJECTID":516673},"geometry":{"x":165756.6500000013,"y":2535369.3600000013}},{"attributes":{"ID":516701,"DIS_CODE":0,"TOWNNAME":"南區","LI":"佛壇里","LIN":"1鄰","STREET":"興南街","SECT":" ","MAREA":" ","LANE":" ","ALLEY":" ","HOUSE_NO":"５２９號","E_COORD97":165757.82999999999,"N_COORD97":2535364.27,"ADDRESS":"興南街５２９號","OBJECTID":516674},"geometry":{"x":165757.83000000007,"y":2535364.2700000014}},{"attributes":{"ID":516702,"DIS_CODE":0,"TOWNNAME":"南區","LI":"佛壇里","LIN":"1鄰","STREET":"興南街","SECT":" ","MAREA":" ","LANE":" ","ALLEY":" ","HOUSE_NO":"５３０號","E_COORD97":165758.22,"N_COORD97":2535356.25,"ADDRESS":"興南街５３０號","OBJECTID":516675},"geometry":{"x":165758.21999999974,"y":2535356.25}},{"attributes":{"ID":516703,"DIS_CODE":0,"TOWNNAME":"南區","LI":"佛壇里","LIN":"1鄰","STREET":"興南街","SECT":" ","MAREA":" ","LANE":" ","ALLEY":" ","HOUSE_NO":"５３１號","E_COORD97":165758.39000000001,"N_COORD97":2535352.9199999999,"ADDRESS":"興南街５３１號","OBJECTID":516676},"geometry":{"x":165758.38999999966,"y":2535352.9200000018}},{"attributes":{"ID":516704,"DIS_CODE":0,"TOWNNAME":"南區","LI":"佛壇里","LIN":"1鄰","STREET":"興南街","SECT":" ","MAREA":" ","LANE":" ","ALLEY":" ","HOUSE_NO":"５３２號","E_COORD97":165759.01000000001,"N_COORD97":2535346.4399999999,"ADDRESS":"興南街５３２號","OBJECTID":516677},"geometry":{"x":165759.01000000071,"y":2535346.4399999995}},{"attributes":{"ID":516705,"DIS_CODE":0,"TOWNNAME":"南區","LI":"佛壇里","LIN":"1鄰","STREET":"興南街","SECT":" ","MAREA":" ","LANE":" ","ALLEY":" ","HOUSE_NO":"５３３號","E_COORD97":165760.57999999999,"N_COORD97":2535339.3900000001,"ADDRESS":"興南街５３３號","OBJECTID":516678},"geometry":{"x":165760.58000000101,"y":2535339.3900000043}},{"attributes":{"ID":516706,"DIS_CODE":0,"TOWNNAME":"南區","LI":"佛壇里","LIN":"1鄰","STREET":"興南街","SECT":" ","MAREA":" ","LANE":" ","ALLEY":" ","HOUSE_NO":"５３４號","E_COORD97":165760.57999999999,"N_COORD97":2535335.0699999998,"ADDRESS":"興南街５３４號","OBJECTID":516679},"geometry":{"x":165760.58000000101,"y":2535335.0700000022}},{"attributes":{"ID":516707,"DIS_CODE":0,"TOWNNAME":"南區","LI":"佛壇里","LIN":"1鄰","STREET":"興南街","SECT":" ","MAREA":" ","LANE":" ","ALLEY":" ","HOUSE_NO":"５３５號","E_COORD97":165761.37,"N_COORD97":2535329.5800000001,"ADDRESS":"興南街５３５號","OBJECTID":516680},"geometry":{"x":165761.37000000197,"y":2535329.5800000001}},{"attributes":{"ID":516708,"DIS_CODE":0,"TOWNNAME":"南區","LI":"佛壇里","LIN":"1鄰","STREET":"興南街","SECT":" ","MAREA":" ","LANE":" ","ALLEY":" ","HOUSE_NO":"６００號","E_COORD97":165976.95999999999,"N_COORD97":2535663.1800000002,"ADDRESS":"興南街６００號","OBJECTID":516681},"geometry":{"x":165976.95999999996,"y":2535663.1800000016}},{"attributes":{"ID":516709,"DIS_CODE":0,"TOWNNAME":"南區","LI":"佛壇里","LIN":"1鄰","STREET":"興南街","SECT":" ","MAREA":" ","LANE":" ","ALLEY":" ","HOUSE_NO":"６００號之１","E_COORD97":165554.39999999999,"N_COORD97":2535523.21,"ADDRESS":"興南街６００號之１","OBJECTID":516682},"geometry":{"x":165554.40000000037,"y":2535523.2100000009}},{"attributes":{"ID":516710,"DIS_CODE":0,"TOWNNAME":"南區","LI":"佛壇里","LIN":"1鄰","STREET":"興南街","SECT":" ","MAREA":" ","LANE":" ","ALLEY":" ","HOUSE_NO":"６００號之２","E_COORD97":165530.87,"N_COORD97":2535507.3799999999,"ADDRESS":"興南街６００號之２","OBJECTID":516683},"geometry":{"x":165530.87000000197,"y":2535507.3800000027}},{"attributes":{"ID":516711,"DIS_CODE":0,"TOWNNAME":"南區","LI":"佛壇里","LIN":"1鄰","STREET":"興南街","SECT":" ","MAREA":" ","LANE":" ","ALLEY":" ","HOUSE_NO":"６００號之３","E_COORD97":165522.39999999999,"N_COORD97":2535522.6600000001,"ADDRESS":"興南街６００號之３","OBJECTID":516684},"geometry":{"x":165522.40000000224,"y":2535522.6600000001}},{"attributes":{"ID":516712,"DIS_CODE":0,"TOWNNAME":"南區","LI":"佛壇里","LIN":"1鄰","STREET":"興南街","SECT":" ","MAREA":" ","LANE":" ","ALLEY":" ","HOUSE_NO":"６０２號","E_COORD97":165668.34,"N_COORD97":2535698.6200000001,"ADDRESS":"興南街６０２號","OBJECTID":516685},"geometry":{"x":165668.34000000078,"y":2535698.6200000029}},{"attributes":{"ID":516713,"DIS_CODE":0,"TOWNNAME":"南區","LI":"佛壇里","LIN":"1鄰","STREET":"興南街","SECT":" ","MAREA":" ","LANE":" ","ALLEY":" ","HOUSE_NO":"６０２號之１","E_COORD97":165669.35999999999,"N_COORD97":2535708.7799999998,"ADDRESS":"興南街６０２號之１","OBJECTID":516686},"geometry":{"x":165669.36000000034,"y":2535708.7800000012}},{"attributes":{"ID":516714,"DIS_CODE":0,"TOWNNAME":"新營區","LI":"興業里","LIN":" ","STREET":"公誠街","SECT":" ","MAREA":" ","LANE":" ","ALLEY":" ","HOUSE_NO":"２之１號","E_COORD97":180262.13,"N_COORD97":2578168.4199999999,"ADDRESS":"公誠街２之１號","OBJECTID":516687},"geometry":{"x":180262.13000000082,"y":2578168.4199999999}},{"attributes":{"ID":516715,"DIS_CODE":0,"TOWNNAME":"南區","LI":"佛壇里","LIN":"1鄰","STREET":"興南街","SECT":" ","MAREA":" ","LANE":" ","ALLEY":" ","HOUSE_NO":"６０４號之１","E_COORD97":165608.45000000001,"N_COORD97":2535540.4399999999,"ADDRESS":"興南街６０４號之１","OBJECTID":516688},"geometry":{"x":165608.45000000205,"y":2535540.4399999995}},{"attributes":{"ID":516716,"DIS_CODE":0,"TOWNNAME":"新營區","LI":"民榮里","LIN":"13鄰","STREET":"新進路","SECT":"二段","MAREA":" ","LANE":" ","ALLEY":" ","HOUSE_NO":"１８３之５號","E_COORD97":179206.81,"N_COORD97":2577721.6000000001,"ADDRESS":"新進路二段１８３之５號","OBJECTID":516689},"geometry":{"x":179206.80999999959,"y":2577721.6000000015}},{"attributes":{"ID":516717,"DIS_CODE":0,"TOWNNAME":"南區","LI":"佛壇里","LIN":"1鄰","STREET":"興南街","SECT":" ","MAREA":" ","LANE":" ","ALLEY":" ","HOUSE_NO":"７００號","E_COORD97":165508.37,"N_COORD97":2535685.9100000001,"ADDRESS":"興南街７００號","OBJECTID":516690},"geometry":{"x":165508.37000000011,"y":2535685.910000002}},{"attributes":{"ID":516718,"DIS_CODE":0,"TOWNNAME":"南區","LI":"佛壇里","LIN":"1鄰","STREET":"興南街","SECT":" ","MAREA":" ","LANE":" ","ALLEY":" ","HOUSE_NO":"７００號之２","E_COORD97":165507.73999999999,"N_COORD97":2535690.79,"ADDRESS":"興南街７００號之２","OBJECTID":516691},"geometry":{"x":165507.74000000022,"y":2535690.7899999991}},{"attributes":{"ID":516719,"DIS_CODE":0,"TOWNNAME":"南區","LI":"佛壇里","LIN":"1鄰","STREET":"興南街","SECT":" ","MAREA":" ","LANE":" ","ALLEY":" ","HOUSE_NO":"７５０號","E_COORD97":165535.94,"N_COORD97":2535784.8700000001,"ADDRESS":"興南街７５０號","OBJECTID":516692},"geometry":{"x":165535.94000000134,"y":2535784.8700000029}},{"attributes":{"ID":516720,"DIS_CODE":0,"TOWNNAME":"南區","LI":"佛壇里","LIN":"1鄰","STREET":"興南街","SECT":" ","MAREA":" ","LANE":" ","ALLEY":" ","HOUSE_NO":"７５０號之１","E_COORD97":165678.66,"N_COORD97":2535719.3199999998,"ADDRESS":"興南街７５０號之１","OBJECTID":516693},"geometry":{"x":165678.66000000108,"y":2535719.320000004}},{"attributes":{"ID":516721,"DIS_CODE":0,"TOWNNAME":"南區","LI":"佛壇里","LIN":"1鄰","STREET":"興南街","SECT":" ","MAREA":" ","LANE":" ","ALLEY":" ","HOUSE_NO":"７５０號之２","E_COORD97":165683.16,"N_COORD97":2535719.2799999998,"ADDRESS":"興南街７５０號之２","OBJECTID":516694},"geometry":{"x":165683.16000000201,"y":2535719.2800000012}},{"attributes":{"ID":516722,"DIS_CODE":0,"TOWNNAME":"南區","LI":"佛壇里","LIN":"1鄰","STREET":"濱南路","SECT":" ","MAREA":" ","LANE":" ","ALLEY":" ","HOUSE_NO":"５２１號","E_COORD97":165702.78,"N_COORD97":2535838.1800000002,"ADDRESS":"濱南路５２１號","OBJECTID":516695},"geometry":{"x":165702.78000000212,"y":2535838.1799999978}},{"attributes":{"ID":516723,"DIS_CODE":0,"TOWNNAME":"南區","LI":"佛壇里","LIN":"1鄰","STREET":"濱南路","SECT":" ","MAREA":" ","LANE":" ","ALLEY":" ","HOUSE_NO":"５３１號","E_COORD97":165551.57999999999,"N_COORD97":2535447.9900000002,"ADDRESS":"濱南路５３１號","OBJECTID":516696},"geometry":{"x":165551.58000000101,"y":2535447.9900000021}},{"attributes":{"ID":516724,"DIS_CODE":0,"TOWNNAME":"南區","LI":"廣州里","LIN":"1鄰","STREET":"福吉路","SECT":" ","MAREA":" ","LANE":" ","ALLEY":" ","HOUSE_NO":"５５號","E_COORD97":167333.64999999999,"N_COORD97":2542553.9199999999,"ADDRESS":"福吉路５５號","OBJECTID":516697},"geometry":{"x":167333.6500000013,"y":2542553.9200000018}},{"attributes":{"ID":516725,"DIS_CODE":0,"TOWNNAME":"南區","LI":"廣州里","LIN":"1鄰","STREET":"福吉路","SECT":" ","MAREA":" ","LANE":" ","ALLEY":" ","HOUSE_NO":"１３號","E_COORD97":167391.85999999999,"N_COORD97":2542631.1000000001,"ADDRESS":"福吉路１３號","OBJECTID":516698},"geometry":{"x":167391.86000000034,"y":2542631.1000000015}},{"attributes":{"ID":516726,"DIS_CODE":0,"TOWNNAME":"南區","LI":"廣州里","LIN":"1鄰","STREET":"福吉路","SECT":" ","MAREA":" ","LANE":" ","ALLEY":" ","HOUSE_NO":"１５號","E_COORD97":167385.94,"N_COORD97":2542624.3599999999,"ADDRESS":"福吉路１５號","OBJECTID":516699},"geometry":{"x":167385.94000000134,"y":2542624.3600000031}},{"attributes":{"ID":516727,"DIS_CODE":0,"TOWNNAME":"南區","LI":"廣州里","LIN":"1鄰","STREET":"福吉路","SECT":" ","MAREA":" ","LANE":" ","ALLEY":" ","HOUSE_NO":"１９號","E_COORD97":167383.41,"N_COORD97":2542620.1400000001,"ADDRESS":"福吉路１９號","OBJECTID":516700},"geometry":{"x":167383.41000000201,"y":2542620.1399999987}},{"attributes":{"ID":516728,"DIS_CODE":0,"TOWNNAME":"南區","LI":"廣州里","LIN":"1鄰","STREET":"福吉路","SECT":" ","MAREA":" ","LANE":" ","ALLEY":" ","HOUSE_NO":"２１號","E_COORD97":167379.60999999999,"N_COORD97":2542615.9199999999,"ADDRESS":"福吉路２１號","OBJECTID":516701},"geometry":{"x":167379.61000000127,"y":2542615.9200000018}},{"attributes":{"ID":516729,"DIS_CODE":0,"TOWNNAME":"南區","LI":"廣州里","LIN":"1鄰","STREET":"福吉路","SECT":" ","MAREA":" ","LANE":" ","ALLEY":" ","HOUSE_NO":"２３號","E_COORD97":167379.19,"N_COORD97":2542610.4399999999,"ADDRESS":"福吉路２３號","OBJECTID":516702},"geometry":{"x":167379.19000000134,"y":2542610.4400000032}},{"attributes":{"ID":516730,"DIS_CODE":0,"TOWNNAME":"南區","LI":"廣州里","LIN":"1鄰","STREET":"福吉路","SECT":" ","MAREA":" ","LANE":" ","ALLEY":" ","HOUSE_NO":"２７號","E_COORD97":167370.73999999999,"N_COORD97":2542603.27,"ADDRESS":"福吉路２７號","OBJECTID":516703},"geometry":{"x":167370.74000000022,"y":2542603.2699999996}},{"attributes":{"ID":516731,"DIS_CODE":0,"TOWNNAME":"南區","LI":"廣州里","LIN":"1鄰","STREET":"福吉路","SECT":" ","MAREA":" ","LANE":" ","ALLEY":" ","HOUSE_NO":"２９號","E_COORD97":167365.67999999999,"N_COORD97":2542596.1099999999,"ADDRESS":"福吉路２９號","OBJECTID":516704},"geometry":{"x":167365.6799999997,"y":2542596.1100000013}},{"attributes":{"ID":516732,"DIS_CODE":0,"TOWNNAME":"南區","LI":"廣州里","LIN":"1鄰","STREET":"福吉路","SECT":" ","MAREA":" ","LANE":" ","ALLEY":" ","HOUSE_NO":"３１號","E_COORD97":167361.35000000001,"N_COORD97":2542593.2200000002,"ADDRESS":"福吉路３１號","OBJECTID":516705},"geometry":{"x":167361.35000000149,"y":2542593.2200000025}},{"attributes":{"ID":516733,"DIS_CODE":0,"TOWNNAME":"南區","LI":"廣州里","LIN":"1鄰","STREET":"福吉路","SECT":" ","MAREA":" ","LANE":" ","ALLEY":" ","HOUSE_NO":"３９號","E_COORD97":167352.23000000001,"N_COORD97":2542580.0600000001,"ADDRESS":"福吉路３９號","OBJECTID":516706},"geometry":{"x":167352.23000000045,"y":2542580.0600000042}},{"attributes":{"ID":516734,"DIS_CODE":0,"TOWNNAME":"南區","LI":"廣州里","LIN":"1鄰","STREET":"福吉路","SECT":" ","MAREA":" ","LANE":" ","ALLEY":" ","HOUSE_NO":"４１號","E_COORD97":167348.85000000001,"N_COORD97":2542576.6899999999,"ADDRESS":"福吉路４１號","OBJECTID":516707},"geometry":{"x":167348.84999999963,"y":2542576.6899999995}},{"attributes":{"ID":516735,"DIS_CODE":0,"TOWNNAME":"南區","LI":"廣州里","LIN":"1鄰","STREET":"福吉路","SECT":" ","MAREA":" ","LANE":" ","ALLEY":" ","HOUSE_NO":"４３號","E_COORD97":167347.59,"N_COORD97":2542572.0499999998,"ADDRESS":"福吉路４３號","OBJECTID":516708},"geometry":{"x":167347.58999999985,"y":2542572.0500000007}},{"attributes":{"ID":516736,"DIS_CODE":0,"TOWNNAME":"南區","LI":"廣州里","LIN":"1鄰","STREET":"福吉路","SECT":" ","MAREA":" ","LANE":" ","ALLEY":" ","HOUSE_NO":"４５號","E_COORD97":167346.32000000001,"N_COORD97":2542569.52,"ADDRESS":"福吉路４５號","OBJECTID":516709},"geometry":{"x":167346.3200000003,"y":2542569.5200000014}},{"attributes":{"ID":516737,"DIS_CODE":0,"TOWNNAME":"南區","LI":"廣州里","LIN":"1鄰","STREET":"福吉路","SECT":" ","MAREA":" ","LANE":" ","ALLEY":" ","HOUSE_NO":"４７號","E_COORD97":167343.37,"N_COORD97":2542566.1400000001,"ADDRESS":"福吉路４７號","OBJECTID":516710},"geometry":{"x":167343.37000000104,"y":2542566.1400000043}},{"attributes":{"ID":516738,"DIS_CODE":0,"TOWNNAME":"新營區","LI":"民榮里","LIN":"17鄰","STREET":"新榮三街","SECT":" ","MAREA":" ","LANE":" ","ALLEY":" ","HOUSE_NO":"２６號","E_COORD97":178488.17999999999,"N_COORD97":2577736.0600000001,"ADDRESS":"新榮三街２６號","OBJECTID":516711},"geometry":{"x":178488.18000000063,"y":2577736.0600000024}},{"attributes":{"ID":516739,"DIS_CODE":0,"TOWNNAME":"南區","LI":"廣州里","LIN":"1鄰","STREET":"福吉路","SECT":" ","MAREA":" ","LANE":" ","ALLEY":" ","HOUSE_NO":"４９號","E_COORD97":167342.10000000001,"N_COORD97":2542561.9300000002,"ADDRESS":"福吉路４９號","OBJECTID":516712},"geometry":{"x":167342.09999999963,"y":2542561.9299999997}},{"attributes":{"ID":516740,"DIS_CODE":0,"TOWNNAME":"南區","LI":"廣州里","LIN":"1鄰","STREET":"福吉路","SECT":" ","MAREA":" ","LANE":" ","ALLEY":" ","HOUSE_NO":"５１號","E_COORD97":167337.88,"N_COORD97":2542560.2400000002,"ADDRESS":"福吉路５１號","OBJECTID":516713},"geometry":{"x":167337.88000000082,"y":2542560.2400000002}},{"attributes":{"ID":516741,"DIS_CODE":0,"TOWNNAME":"南區","LI":"廣州里","LIN":"1鄰","STREET":"福吉路","SECT":" ","MAREA":" ","LANE":" ","ALLEY":" ","HOUSE_NO":"６１號之１","E_COORD97":167340.82999999999,"N_COORD97":2542533.6800000002,"ADDRESS":"福吉路６１號之１","OBJECTID":516714},"geometry":{"x":167340.83000000007,"y":2542533.6799999997}},{"attributes":{"ID":516742,"DIS_CODE":0,"TOWNNAME":"歸仁區","LI":"八甲里","LIN":"1鄰","STREET":"中正北路","SECT":"一段","MAREA":" ","LANE":" ","ALLEY":" ","HOUSE_NO":"１９４號","E_COORD97":177813.73000000001,"N_COORD97":2541594.4900000002,"ADDRESS":"中正北路一段１９４號","OBJECTID":516715},"geometry":{"x":177813.73000000231,"y":2541594.4900000021}},{"attributes":{"ID":516743,"DIS_CODE":0,"TOWNNAME":"歸仁區","LI":"八甲里","LIN":"1鄰","STREET":"忠孝北路","SECT":" ","MAREA":" ","LANE":" ","ALLEY":" ","HOUSE_NO":"２８９號","E_COORD97":177837.76999999999,"N_COORD97":2541550.25,"ADDRESS":"忠孝北路２８９號","OBJECTID":516716},"geometry":{"x":177837.76999999955,"y":2541550.25}},{"attributes":{"ID":516744,"DIS_CODE":0,"TOWNNAME":"歸仁區","LI":"七甲里","LIN":"1鄰","STREET":"七甲五街","SECT":" ","MAREA":" ","LANE":" ","ALLEY":" ","HOUSE_NO":"２７號","E_COORD97":177418.48999999999,"N_COORD97":2542596.6600000001,"ADDRESS":"七甲五街２７號","OBJECTID":516717},"geometry":{"x":177418.49000000209,"y":2542596.660000002}},{"attributes":{"ID":516745,"DIS_CODE":0,"TOWNNAME":"歸仁區","LI":"南興里","LIN":"1鄰","STREET":"文化街","SECT":"三段","MAREA":" ","LANE":" ","ALLEY":" ","HOUSE_NO":"３２０號","E_COORD97":176308.23999999999,"N_COORD97":2541203.3300000001,"ADDRESS":"文化街三段３２０號","OBJECTID":516718},"geometry":{"x":176308.24000000209,"y":2541203.3300000001}},{"attributes":{"ID":516746,"DIS_CODE":0,"TOWNNAME":"歸仁區","LI":"南保里","LIN":"1鄰","STREET":"大德路","SECT":" ","MAREA":" ","LANE":" ","ALLEY":" ","HOUSE_NO":"３３３號","E_COORD97":176938.97,"N_COORD97":2541526.27,"ADDRESS":"大德路３３３號","OBJECTID":516719},"geometry":{"x":176938.97000000067,"y":2541526.2699999996}},{"attributes":{"ID":516747,"DIS_CODE":0,"TOWNNAME":"歸仁區","LI":"南興里","LIN":"1鄰","STREET":"文化街","SECT":"三段","MAREA":" ","LANE":" ","ALLEY":" ","HOUSE_NO":"２４２號","E_COORD97":176466.04000000001,"N_COORD97":2541184.3300000001,"ADDRESS":"文化街三段２４２號","OBJECTID":516720},"geometry":{"x":176466.04000000097,"y":2541184.3300000038}},{"attributes":{"ID":516748,"DIS_CODE":0,"TOWNNAME":"歸仁區","LI":"大廟里","LIN":"1鄰","STREET":"大廟二街","SECT":" ","MAREA":" ","LANE":" ","ALLEY":" ","HOUSE_NO":"１５號","E_COORD97":175982.37,"N_COORD97":2544037.25,"ADDRESS":"大廟二街１５號","OBJECTID":516721},"geometry":{"x":175982.37000000104,"y":2544037.2500000019}},{"attributes":{"ID":516749,"DIS_CODE":0,"TOWNNAME":"新營區","LI":"民生里","LIN":"8鄰","STREET":"民生路","SECT":" ","MAREA":" ","LANE":" ","ALLEY":" ","HOUSE_NO":"３號","E_COORD97":179382.66,"N_COORD97":2578089.46,"ADDRESS":"民生路３號","OBJECTID":516722},"geometry":{"x":179382.66000000108,"y":2578089.4600000028}},{"attributes":{"ID":516750,"DIS_CODE":0,"TOWNNAME":"歸仁區","LI":"七甲里","LIN":"1鄰","STREET":"七甲五街","SECT":" ","MAREA":" ","LANE":" ","ALLEY":" ","HOUSE_NO":"５１號","E_COORD97":177322.98000000001,"N_COORD97":2542555,"ADDRESS":"七甲五街５１號","OBJECTID":516723},"geometry":{"x":177322.98000000138,"y":2542555}},{"attributes":{"ID":516751,"DIS_CODE":0,"TOWNNAME":"歸仁區","LI":"七甲里","LIN":"1鄰","STREET":"七甲五街","SECT":" ","MAREA":" ","LANE":" ","ALLEY":" ","HOUSE_NO":"７１號","E_COORD97":177258.85999999999,"N_COORD97":2542586.3700000001,"ADDRESS":"七甲五街７１號","OBJECTID":516724},"geometry":{"x":177258.86000000127,"y":2542586.3700000029}},{"attributes":{"ID":516752,"DIS_CODE":0,"TOWNNAME":"南區","LI":"喜東里","LIN":"1鄰","STREET":"明興路","SECT":" ","MAREA":" ","LANE":" ","ALLEY":" ","HOUSE_NO":"３３３號","E_COORD97":166384.82000000001,"N_COORD97":2539008.1200000001,"ADDRESS":"明興路３３３號","OBJECTID":516725},"geometry":{"x":166384.82000000123,"y":2539008.1200000029}},{"attributes":{"ID":516753,"DIS_CODE":0,"TOWNNAME":"南區","LI":"喜東里","LIN":"1鄰","STREET":"明興路","SECT":" ","MAREA":" ","LANE":" ","ALLEY":" ","HOUSE_NO":"３３５號","E_COORD97":166383.73999999999,"N_COORD97":2539003.7999999998,"ADDRESS":"明興路３３５號","OBJECTID":516726},"geometry":{"x":166383.74000000022,"y":2539003.8000000007}},{"attributes":{"ID":516754,"DIS_CODE":0,"TOWNNAME":"南區","LI":"喜東里","LIN":"1鄰","STREET":"明興路","SECT":" ","MAREA":" ","LANE":" ","ALLEY":" ","HOUSE_NO":"３３７號","E_COORD97":166381.92999999999,"N_COORD97":2538998.7999999998,"ADDRESS":"明興路３３７號","OBJECTID":516727},"geometry":{"x":166381.9299999997,"y":2538998.8000000026}},{"attributes":{"ID":516755,"DIS_CODE":0,"TOWNNAME":"南區","LI":"喜東里","LIN":"1鄰","STREET":"明興路","SECT":" ","MAREA":" ","LANE":" ","ALLEY":" ","HOUSE_NO":"３３９號","E_COORD97":166380.60999999999,"N_COORD97":2538995.6699999999,"ADDRESS":"明興路３３９號","OBJECTID":516728},"geometry":{"x":166380.61000000127,"y":2538995.6700000018}},{"attributes":{"ID":516756,"DIS_CODE":0,"TOWNNAME":"南區","LI":"喜東里","LIN":"1鄰","STREET":"明興路","SECT":" ","MAREA":" ","LANE":" ","ALLEY":" ","HOUSE_NO":"３４１號","E_COORD97":166378.39000000001,"N_COORD97":2538991.4900000002,"ADDRESS":"明興路３４１號","OBJECTID":516729},"geometry":{"x":166378.3900000006,"y":2538991.4900000021}},{"attributes":{"ID":516757,"DIS_CODE":0,"TOWNNAME":"南區","LI":"喜東里","LIN":"1鄰","STREET":"明興路","SECT":" ","MAREA":" ","LANE":" ","ALLEY":" ","HOUSE_NO":"３４３號","E_COORD97":166375.76999999999,"N_COORD97":2538988.0099999998,"ADDRESS":"明興路３４３號","OBJECTID":516730},"geometry":{"x":166375.77000000048,"y":2538988.0099999998}},{"attributes":{"ID":516758,"DIS_CODE":0,"TOWNNAME":"南區","LI":"喜東里","LIN":"1鄰","STREET":"明興路","SECT":" ","MAREA":" ","LANE":" ","ALLEY":" ","HOUSE_NO":"３４５號","E_COORD97":166375.20999999999,"N_COORD97":2538984.1200000001,"ADDRESS":"明興路３４５號","OBJECTID":516731},"geometry":{"x":166375.20999999996,"y":2538984.1200000029}},{"attributes":{"ID":516759,"DIS_CODE":0,"TOWNNAME":"南區","LI":"喜東里","LIN":"1鄰","STREET":"明興路","SECT":" ","MAREA":" ","LANE":" ","ALLEY":" ","HOUSE_NO":"３４７號","E_COORD97":166374.88,"N_COORD97":2538979.9100000001,"ADDRESS":"明興路３４７號","OBJECTID":516732},"geometry":{"x":166374.88000000082,"y":2538979.9099999983}},{"attributes":{"ID":516760,"DIS_CODE":0,"TOWNNAME":"南區","LI":"喜東里","LIN":"1鄰","STREET":"明興路","SECT":" ","MAREA":" ","LANE":" ","ALLEY":" ","HOUSE_NO":"３５１號","E_COORD97":166370.42999999999,"N_COORD97":2538969.9199999999,"ADDRESS":"明興路３５１號","OBJECTID":516733},"geometry":{"x":166370.4299999997,"y":2538969.9200000037}},{"attributes":{"ID":516761,"DIS_CODE":0,"TOWNNAME":"南區","LI":"喜東里","LIN":"1鄰","STREET":"明興路","SECT":" ","MAREA":" ","LANE":" ","ALLEY":" ","HOUSE_NO":"３５３號","E_COORD97":166369.88,"N_COORD97":2538966.1400000001,"ADDRESS":"明興路３５３號","OBJECTID":516734},"geometry":{"x":166369.88000000082,"y":2538966.1400000025}},{"attributes":{"ID":516762,"DIS_CODE":0,"TOWNNAME":"南區","LI":"喜東里","LIN":"1鄰","STREET":"明興路","SECT":" ","MAREA":" ","LANE":" ","ALLEY":" ","HOUSE_NO":"３５５號","E_COORD97":166369.20999999999,"N_COORD97":2538961.8100000001,"ADDRESS":"明興路３５５號","OBJECTID":516735},"geometry":{"x":166369.21000000183,"y":2538961.8100000024}},{"attributes":{"ID":516763,"DIS_CODE":0,"TOWNNAME":"南區","LI":"喜東里","LIN":"1鄰","STREET":"明興路","SECT":" ","MAREA":" ","LANE":" ","ALLEY":" ","HOUSE_NO":"３５７號","E_COORD97":166368.76999999999,"N_COORD97":2538957.2599999998,"ADDRESS":"明興路３５７號","OBJECTID":516736},"geometry":{"x":166368.77000000048,"y":2538957.2600000035}},{"attributes":{"ID":516764,"DIS_CODE":0,"TOWNNAME":"南區","LI":"喜東里","LIN":"1鄰","STREET":"明興路","SECT":" ","MAREA":" ","LANE":" ","ALLEY":" ","HOUSE_NO":"３５９號","E_COORD97":166367.98999999999,"N_COORD97":2538953.8199999998,"ADDRESS":"明興路３５９號","OBJECTID":516737},"geometry":{"x":166367.99000000115,"y":2538953.820000004}},{"attributes":{"ID":516765,"DIS_CODE":0,"TOWNNAME":"南區","LI":"喜東里","LIN":"1鄰","STREET":"明興路","SECT":" ","MAREA":" ","LANE":" ","ALLEY":" ","HOUSE_NO":"３６１號","E_COORD97":166367.32000000001,"N_COORD97":2538950.71,"ADDRESS":"明興路３６１號","OBJECTID":516738},"geometry":{"x":166367.32000000123,"y":2538950.7100000009}},{"attributes":{"ID":516766,"DIS_CODE":0,"TOWNNAME":"南區","LI":"喜東里","LIN":"1鄰","STREET":"明興路","SECT":" ","MAREA":" ","LANE":" ","ALLEY":" ","HOUSE_NO":"３６３號","E_COORD97":166366.35000000001,"N_COORD97":2538945.9100000001,"ADDRESS":"明興路３６３號","OBJECTID":516739},"geometry":{"x":166366.35000000056,"y":2538945.9100000001}},{"attributes":{"ID":516767,"DIS_CODE":0,"TOWNNAME":"南區","LI":"喜東里","LIN":"1鄰","STREET":"明興路","SECT":" ","MAREA":" ","LANE":" ","ALLEY":" ","HOUSE_NO":"３６５號","E_COORD97":166365.47,"N_COORD97":2538941.8599999999,"ADDRESS":"明興路３６５號","OBJECTID":516740},"geometry":{"x":166365.4700000016,"y":2538941.8599999994}},{"attributes":{"ID":516768,"DIS_CODE":0,"TOWNNAME":"南區","LI":"喜東里","LIN":"1鄰","STREET":"明興路","SECT":" ","MAREA":" ","LANE":" ","ALLEY":" ","HOUSE_NO":"３６７號","E_COORD97":166364.59,"N_COORD97":2538937.3700000001,"ADDRESS":"明興路３６７號","OBJECTID":516741},"geometry":{"x":166364.58999999985,"y":2538937.3700000048}},{"attributes":{"ID":516769,"DIS_CODE":0,"TOWNNAME":"南區","LI":"喜東里","LIN":"1鄰","STREET":"明興路","SECT":" ","MAREA":" ","LANE":" ","ALLEY":" ","HOUSE_NO":"３６９號","E_COORD97":166364.04999999999,"N_COORD97":2538933.21,"ADDRESS":"明興路３６９號","OBJECTID":516742},"geometry":{"x":166364.05000000075,"y":2538933.2100000009}},{"attributes":{"ID":516770,"DIS_CODE":0,"TOWNNAME":"南區","LI":"喜東里","LIN":"1鄰","STREET":"明興路","SECT":" ","MAREA":" ","LANE":" ","ALLEY":" ","HOUSE_NO":"３７３號","E_COORD97":166357.57999999999,"N_COORD97":2538923.6400000001,"ADDRESS":"明興路３７３號","OBJECTID":516743},"geometry":{"x":166357.58000000007,"y":2538923.6400000006}},{"attributes":{"ID":516771,"DIS_CODE":0,"TOWNNAME":"南區","LI":"喜東里","LIN":"1鄰","STREET":"明興路","SECT":" ","MAREA":" ","LANE":" ","ALLEY":" ","HOUSE_NO":"３７５號","E_COORD97":166357.47,"N_COORD97":2538919.8100000001,"ADDRESS":"明興路３７５號","OBJECTID":516744},"geometry":{"x":166357.47000000067,"y":2538919.8100000005}},{"attributes":{"ID":516772,"DIS_CODE":0,"TOWNNAME":"南區","LI":"喜東里","LIN":"1鄰","STREET":"明興路","SECT":" ","MAREA":" ","LANE":" ","ALLEY":" ","HOUSE_NO":"３７７號","E_COORD97":166356.92000000001,"N_COORD97":2538915.98,"ADDRESS":"明興路３７７號","OBJECTID":516745},"geometry":{"x":166356.91999999993,"y":2538915.9800000023}},{"attributes":{"ID":516773,"DIS_CODE":0,"TOWNNAME":"南區","LI":"喜東里","LIN":"1鄰","STREET":"明興路","SECT":" ","MAREA":" ","LANE":" ","ALLEY":" ","HOUSE_NO":"３７９號","E_COORD97":166355.94,"N_COORD97":2538911.8300000001,"ADDRESS":"明興路３７９號","OBJECTID":516746},"geometry":{"x":166355.94000000041,"y":2538911.8300000001}},{"attributes":{"ID":516774,"DIS_CODE":0,"TOWNNAME":"南區","LI":"喜東里","LIN":"1鄰","STREET":"明興路","SECT":" ","MAREA":" ","LANE":" ","ALLEY":" ","HOUSE_NO":"３８１號","E_COORD97":166355.5,"N_COORD97":2538907.0099999998,"ADDRESS":"明興路３８１號","OBJECTID":516747},"geometry":{"x":166355.50000000186,"y":2538907.0099999998}},{"attributes":{"ID":516775,"DIS_CODE":0,"TOWNNAME":"南區","LI":"喜東里","LIN":"1鄰","STREET":"明興路","SECT":" ","MAREA":" ","LANE":" ","ALLEY":" ","HOUSE_NO":"３８３號","E_COORD97":166354.29000000001,"N_COORD97":2538903.29,"ADDRESS":"明興路３８３號","OBJECTID":516748},"geometry":{"x":166354.29000000097,"y":2538903.290000001}},{"attributes":{"ID":516776,"DIS_CODE":0,"TOWNNAME":"南區","LI":"喜東里","LIN":"1鄰","STREET":"明興路","SECT":" ","MAREA":" ","LANE":" ","ALLEY":" ","HOUSE_NO":"３８５號","E_COORD97":166352.88,"N_COORD97":2538898.8500000001,"ADDRESS":"明興路３８５號","OBJECTID":516749},"geometry":{"x":166352.88000000082,"y":2538898.8500000034}},{"attributes":{"ID":516777,"DIS_CODE":0,"TOWNNAME":"南區","LI":"喜東里","LIN":"1鄰","STREET":"明興路","SECT":" ","MAREA":" ","LANE":" ","ALLEY":" ","HOUSE_NO":"３８７號","E_COORD97":166352.42999999999,"N_COORD97":2538895.7400000002,"ADDRESS":"明興路３８７號","OBJECTID":516750},"geometry":{"x":166352.43000000063,"y":2538895.7400000002}},{"attributes":{"ID":516778,"DIS_CODE":0,"TOWNNAME":"南區","LI":"喜東里","LIN":"1鄰","STREET":"明興路","SECT":" ","MAREA":" ","LANE":" ","ALLEY":" ","HOUSE_NO":"３８９號","E_COORD97":166351.98999999999,"N_COORD97":2538890.9300000002,"ADDRESS":"明興路３８９號","OBJECTID":516751},"geometry":{"x":166351.99000000022,"y":2538890.9299999997}},{"attributes":{"ID":516779,"DIS_CODE":0,"TOWNNAME":"南區","LI":"喜東里","LIN":"1鄰","STREET":"明興路","SECT":" ","MAREA":" ","LANE":" ","ALLEY":" ","HOUSE_NO":"３９１號","E_COORD97":166350.89999999999,"N_COORD97":2538886.9900000002,"ADDRESS":"明興路３９１號","OBJECTID":516752},"geometry":{"x":166350.90000000037,"y":2538886.9900000002}},{"attributes":{"ID":516780,"DIS_CODE":0,"TOWNNAME":"南區","LI":"新興里","LIN":"1鄰","STREET":"五妃街","SECT":" ","MAREA":" ","LANE":" ","ALLEY":" ","HOUSE_NO":"３７９號","E_COORD97":167701.13,"N_COORD97":2542572.7200000002,"ADDRESS":"五妃街３７９號","OBJECTID":516753},"geometry":{"x":167701.13000000082,"y":2542572.7200000025}},{"attributes":{"ID":516781,"DIS_CODE":0,"TOWNNAME":"南區","LI":"新興里","LIN":"1鄰","STREET":"五妃街","SECT":" ","MAREA":" ","LANE":" ","ALLEY":" ","HOUSE_NO":"３８１號","E_COORD97":167696.22,"N_COORD97":2542571.4700000002,"ADDRESS":"五妃街３８１號","OBJECTID":516754},"geometry":{"x":167696.2200000016,"y":2542571.4700000025}},{"attributes":{"ID":516782,"DIS_CODE":0,"TOWNNAME":"南區","LI":"新興里","LIN":"1鄰","STREET":"五妃街","SECT":" ","MAREA":" ","LANE":" ","ALLEY":" ","HOUSE_NO":"３８３號","E_COORD97":167692.85000000001,"N_COORD97":2542571.6600000001,"ADDRESS":"五妃街３８３號","OBJECTID":516755},"geometry":{"x":167692.84999999963,"y":2542571.6600000001}},{"attributes":{"ID":516783,"DIS_CODE":0,"TOWNNAME":"南區","LI":"田寮里","LIN":"1鄰","STREET":"新興路","SECT":" ","MAREA":" ","LANE":" ","ALLEY":" ","HOUSE_NO":"３４７號","E_COORD97":167131.72,"N_COORD97":2541821.79,"ADDRESS":"新興路３４７號","OBJECTID":516756},"geometry":{"x":167131.7200000016,"y":2541821.790000001}},{"attributes":{"ID":516784,"DIS_CODE":0,"TOWNNAME":"南區","LI":"田寮里","LIN":"1鄰","STREET":"新興路","SECT":" ","MAREA":" ","LANE":" ","ALLEY":" ","HOUSE_NO":"３４９號","E_COORD97":167127.01999999999,"N_COORD97":2541818.54,"ADDRESS":"新興路３４９號","OBJECTID":516757},"geometry":{"x":167127.01999999955,"y":2541818.5399999991}},{"attributes":{"ID":516785,"DIS_CODE":0,"TOWNNAME":"新營區","LI":"王公里","LIN":"20鄰","STREET":"樂利街","SECT":" ","MAREA":" ","LANE":" ","ALLEY":" ","HOUSE_NO":"１１５號","E_COORD97":180456.5,"N_COORD97":2579277.1299999999,"ADDRESS":"樂利街１１５號","OBJECTID":516758},"geometry":{"x":180456.50000000093,"y":2579277.129999999}},{"attributes":{"ID":516786,"DIS_CODE":0,"TOWNNAME":"南區","LI":"田寮里","LIN":"1鄰","STREET":"新興路","SECT":" ","MAREA":" ","LANE":" ","ALLEY":" ","HOUSE_NO":"３６３號","E_COORD97":167089.29999999999,"N_COORD97":2541791.6200000001,"ADDRESS":"新興路３６３號","OBJECTID":516759},"geometry":{"x":167089.30000000075,"y":2541791.6200000029}},{"attributes":{"ID":516787,"DIS_CODE":0,"TOWNNAME":"南區","LI":"田寮里","LIN":"1鄰","STREET":"新興路","SECT":" ","MAREA":" ","LANE":" ","ALLEY":" ","HOUSE_NO":"３６５號","E_COORD97":167086.23000000001,"N_COORD97":2541789.3700000001,"ADDRESS":"新興路３６５號","OBJECTID":516760},"geometry":{"x":167086.23000000045,"y":2541789.3700000029}},{"attributes":{"ID":516788,"DIS_CODE":0,"TOWNNAME":"南區","LI":"田寮里","LIN":"1鄰","STREET":"新興路","SECT":" ","MAREA":" ","LANE":" ","ALLEY":" ","HOUSE_NO":"３６９號","E_COORD97":167078.85999999999,"N_COORD97":2541783.6400000001,"ADDRESS":"新興路３６９號","OBJECTID":516761},"geometry":{"x":167078.8600000022,"y":2541783.6400000025}},{"attributes":{"ID":516789,"DIS_CODE":0,"TOWNNAME":"南區","LI":"田寮里","LIN":"1鄰","STREET":"新興路","SECT":" ","MAREA":" ","LANE":" ","ALLEY":" ","HOUSE_NO":"３７１號","E_COORD97":167074.76000000001,"N_COORD97":2541780.7799999998,"ADDRESS":"新興路３７１號","OBJECTID":516762},"geometry":{"x":167074.75999999978,"y":2541780.7800000031}},{"attributes":{"ID":516790,"DIS_CODE":0,"TOWNNAME":"南區","LI":"田寮里","LIN":"1鄰","STREET":"新興路","SECT":" ","MAREA":" ","LANE":" ","ALLEY":" ","HOUSE_NO":"３７３號","E_COORD97":167070.87,"N_COORD97":2541777.9199999999,"ADDRESS":"新興路３７３號","OBJECTID":516763},"geometry":{"x":167070.87000000104,"y":2541777.9200000018}},{"attributes":{"ID":516791,"DIS_CODE":0,"TOWNNAME":"南區","LI":"田寮里","LIN":"1鄰","STREET":"新興路","SECT":" ","MAREA":" ","LANE":" ","ALLEY":" ","HOUSE_NO":"３７５號","E_COORD97":167066.16,"N_COORD97":2541775.2599999998,"ADDRESS":"新興路３７５號","OBJECTID":516764},"geometry":{"x":167066.16000000015,"y":2541775.2600000016}},{"attributes":{"ID":516792,"DIS_CODE":0,"TOWNNAME":"南區","LI":"大忠里","LIN":"1鄰","STREET":"大同路","SECT":"二段","MAREA":" ","LANE":" ","ALLEY":" ","HOUSE_NO":"４９０號","E_COORD97":169464.42000000001,"N_COORD97":2541486.6299999999,"ADDRESS":"大同路二段４９０號","OBJECTID":516765},"geometry":{"x":169464.41999999993,"y":2541486.6300000008}},{"attributes":{"ID":516793,"DIS_CODE":0,"TOWNNAME":"南區","LI":"新興里","LIN":"1鄰","STREET":"西門路","SECT":"一段","MAREA":" ","LANE":" ","ALLEY":" ","HOUSE_NO":"４９５號","E_COORD97":167717.64999999999,"N_COORD97":2542568.0099999998,"ADDRESS":"西門路一段４９５號","OBJECTID":516766},"geometry":{"x":167717.65000000224,"y":2542568.0099999998}},{"attributes":{"ID":516794,"DIS_CODE":0,"TOWNNAME":"南區","LI":"新興里","LIN":"1鄰","STREET":"西門路","SECT":"一段","MAREA":" ","LANE":" ","ALLEY":" ","HOUSE_NO":"４９７號","E_COORD97":167714.06,"N_COORD97":2542571.5899999999,"ADDRESS":"西門路一段４９７號","OBJECTID":516767},"geometry":{"x":167714.06000000145,"y":2542571.5899999999}},{"attributes":{"ID":516795,"DIS_CODE":0,"TOWNNAME":"南區","LI":"新興里","LIN":"1鄰","STREET":"西門路","SECT":"一段","MAREA":" ","LANE":" ","ALLEY":" ","HOUSE_NO":"４９９號","E_COORD97":167713.35000000001,"N_COORD97":2542575.8900000001,"ADDRESS":"西門路一段４９９號","OBJECTID":516768},"geometry":{"x":167713.34999999963,"y":2542575.8900000025}},{"attributes":{"ID":516796,"DIS_CODE":0,"TOWNNAME":"新營區","LI":"興業里","LIN":"22鄰","STREET":"中山路","SECT":" ","MAREA":" ","LANE":" ","ALLEY":" ","HOUSE_NO":"１３１號","E_COORD97":180152.42000000001,"N_COORD97":2578127.9199999999,"ADDRESS":"中山路１３１號","OBJECTID":516769},"geometry":{"x":180152.41999999993,"y":2578127.9199999999}},{"attributes":{"ID":516797,"DIS_CODE":0,"TOWNNAME":"新營區","LI":"民生里","LIN":"7鄰","STREET":"民生路","SECT":" ","MAREA":" ","LANE":" ","ALLEY":" ","HOUSE_NO":"３３之２號","E_COORD97":179330.63,"N_COORD97":2578284.6299999999,"ADDRESS":"民生路３３之２號","OBJECTID":516770},"geometry":{"x":179330.62999999989,"y":2578284.629999999}},{"attributes":{"ID":516798,"DIS_CODE":0,"TOWNNAME":"南區","LI":"日新里","LIN":"1鄰","STREET":"金華路","SECT":"一段","MAREA":" ","LANE":" ","ALLEY":" ","HOUSE_NO":"３８１號","E_COORD97":166972.12,"N_COORD97":2541167.21,"ADDRESS":"金華路一段３８１號","OBJECTID":516771},"geometry":{"x":166972.12000000104,"y":2541167.2100000028}},{"attributes":{"ID":516799,"DIS_CODE":0,"TOWNNAME":"南區","LI":"日新里","LIN":"1鄰","STREET":"金華路","SECT":"一段","MAREA":" ","LANE":" ","ALLEY":" ","HOUSE_NO":"３８３號","E_COORD97":166972.82000000001,"N_COORD97":2541175.4500000002,"ADDRESS":"金華路一段３８３號","OBJECTID":516772},"geometry":{"x":166972.82000000123,"y":2541175.4499999993}},{"attributes":{"ID":516800,"DIS_CODE":0,"TOWNNAME":"安平區","LI":"國平里","LIN":"1鄰","STREET":"建平七街","SECT":" ","MAREA":" ","LANE":" ","ALLEY":" ","HOUSE_NO":"４１２號","E_COORD97":165565.87,"N_COORD97":2543332.1299999999,"ADDRESS":"建平七街４１２號","OBJECTID":516773},"geometry":{"x":165565.87000000011,"y":2543332.1300000008}},{"attributes":{"ID":516801,"DIS_CODE":0,"TOWNNAME":"安平區","LI":"國平里","LIN":"1鄰","STREET":"建平七街","SECT":" ","MAREA":" ","LANE":" ","ALLEY":" ","HOUSE_NO":"３８６號","E_COORD97":165599.26999999999,"N_COORD97":2543328.6899999999,"ADDRESS":"建平七街３８６號","OBJECTID":516774},"geometry":{"x":165599.27000000048,"y":2543328.6900000013}},{"attributes":{"ID":516802,"DIS_CODE":0,"TOWNNAME":"新營區","LI":"民榮里","LIN":" ","STREET":"裕民路","SECT":" ","MAREA":" ","LANE":" ","ALLEY":" ","HOUSE_NO":"２５之７號","E_COORD97":179192.59,"N_COORD97":2577774.8199999998,"ADDRESS":"裕民路２５之７號","OBJECTID":516775},"geometry":{"x":179192.59000000078,"y":2577774.8200000022}},{"attributes":{"ID":516803,"DIS_CODE":0,"TOWNNAME":"鹽水區","LI":"福得里","LIN":"1鄰","STREET":"朝琴路","SECT":" ","MAREA":" ","LANE":" ","ALLEY":" ","HOUSE_NO":"１０號","E_COORD97":175182.16,"N_COORD97":2579982.7799999998,"ADDRESS":"朝琴路１０號","OBJECTID":516776},"geometry":{"x":175182.16000000015,"y":2579982.7799999993}},{"attributes":{"ID":516804,"DIS_CODE":0,"TOWNNAME":"鹽水區","LI":"福得里","LIN":"1鄰","STREET":"朝琴路","SECT":" ","MAREA":" ","LANE":" ","ALLEY":" ","HOUSE_NO":"１２號","E_COORD97":175186.54000000001,"N_COORD97":2579985.3199999998,"ADDRESS":"朝琴路１２號","OBJECTID":516777},"geometry":{"x":175186.54000000004,"y":2579985.3200000022}},{"attributes":{"ID":516805,"DIS_CODE":0,"TOWNNAME":"鹽水區","LI":"福得里","LIN":"1鄰","STREET":"朝琴路","SECT":" ","MAREA":" ","LANE":" ","ALLEY":" ","HOUSE_NO":"４號","E_COORD97":175174.45999999999,"N_COORD97":2579978.2599999998,"ADDRESS":"朝琴路４號","OBJECTID":516778},"geometry":{"x":175174.46000000089,"y":2579978.2600000016}},{"attributes":{"ID":516806,"DIS_CODE":0,"TOWNNAME":"鹽水區","LI":"福得里","LIN":"1鄰","STREET":"朝琴路","SECT":" ","MAREA":" ","LANE":" ","ALLEY":" ","HOUSE_NO":"６號","E_COORD97":175177.98000000001,"N_COORD97":2579980.5099999998,"ADDRESS":"朝琴路６號","OBJECTID":516779},"geometry":{"x":175177.98000000138,"y":2579980.5100000016}},{"attributes":{"ID":516807,"DIS_CODE":0,"TOWNNAME":"新營區","LI":"興業里","LIN":"2鄰","STREET":"新進路","SECT":" ","MAREA":" ","LANE":" ","ALLEY":" ","HOUSE_NO":"２２６之６號","E_COORD97":180342.10000000001,"N_COORD97":2577894.52,"ADDRESS":"新進路２２６之６號","OBJECTID":516780},"geometry":{"x":180342.10000000056,"y":2577894.5200000014}},{"attributes":{"ID":516808,"DIS_CODE":0,"TOWNNAME":"鹽水區","LI":"橋南里","LIN":"1鄰","STREET":"橋南街","SECT":" ","MAREA":" ","LANE":" ","ALLEY":" ","HOUSE_NO":"１３號","E_COORD97":175124.41,"N_COORD97":2579547.9100000001,"ADDRESS":"橋南街１３號","OBJECTID":516781},"geometry":{"x":175124.41000000108,"y":2579547.9100000001}},{"attributes":{"ID":516809,"DIS_CODE":0,"TOWNNAME":"鹽水區","LI":"橋南里","LIN":"1鄰","STREET":"橋南街","SECT":" ","MAREA":" ","LANE":" ","ALLEY":" ","HOUSE_NO":"１５號","E_COORD97":175128.29999999999,"N_COORD97":2579540.73,"ADDRESS":"橋南街１５號","OBJECTID":516782},"geometry":{"x":175128.29999999981,"y":2579540.7300000042}},{"attributes":{"ID":516810,"DIS_CODE":0,"TOWNNAME":"鹽水區","LI":"橋南里","LIN":"1鄰","STREET":"橋南街","SECT":" ","MAREA":" ","LANE":" ","ALLEY":" ","HOUSE_NO":"１７號","E_COORD97":175128.75,"N_COORD97":2579536.0899999999,"ADDRESS":"橋南街１７號","OBJECTID":516783},"geometry":{"x":175128.75000000093,"y":2579536.0899999999}},{"attributes":{"ID":516811,"DIS_CODE":0,"TOWNNAME":"鹽水區","LI":"橋南里","LIN":"1鄰","STREET":"橋南街","SECT":" ","MAREA":" ","LANE":" ","ALLEY":" ","HOUSE_NO":"３號","E_COORD97":175091.13,"N_COORD97":2579572.8999999999,"ADDRESS":"橋南街３號","OBJECTID":516784},"geometry":{"x":175091.12999999989,"y":2579572.9000000004}},{"attributes":{"ID":516812,"DIS_CODE":0,"TOWNNAME":"新營區","LI":"民榮里","LIN":"13鄰","STREET":"新進路","SECT":"二段","MAREA":" ","LANE":" ","ALLEY":" ","HOUSE_NO":"１８３之３號","E_COORD97":179214.98999999999,"N_COORD97":2577721.5600000001,"ADDRESS":"新進路二段１８３之３號","OBJECTID":516785},"geometry":{"x":179214.99000000022,"y":2577721.5600000042}},{"attributes":{"ID":516813,"DIS_CODE":0,"TOWNNAME":"新營區","LI":"中營里","LIN":"14鄰","STREET":"東山路","SECT":" ","MAREA":" ","LANE":" ","ALLEY":" ","HOUSE_NO":"１６１號","E_COORD97":181605.60000000001,"N_COORD97":2578720.2599999998,"ADDRESS":"東山路１６１號","OBJECTID":516786},"geometry":{"x":181605.59999999963,"y":2578720.2600000016}},{"attributes":{"ID":516814,"DIS_CODE":0,"TOWNNAME":"新營區","LI":"民權里","LIN":"15鄰","STREET":"三民路","SECT":" ","MAREA":" ","LANE":" ","ALLEY":" ","HOUSE_NO":"１１４號之８","E_COORD97":179836.45000000001,"N_COORD97":2578531.48,"ADDRESS":"三民路１１４號之８","OBJECTID":516787},"geometry":{"x":179836.45000000112,"y":2578531.4800000004}},{"attributes":{"ID":516815,"DIS_CODE":0,"TOWNNAME":"新營區","LI":"民權里","LIN":" ","STREET":"仁愛街","SECT":" ","MAREA":" ","LANE":" ","ALLEY":" ","HOUSE_NO":"２６號","E_COORD97":179822.22,"N_COORD97":2578201.4500000002,"ADDRESS":"仁愛街２６號","OBJECTID":516788},"geometry":{"x":179822.22000000067,"y":2578201.4499999993}},{"attributes":{"ID":516816,"DIS_CODE":0,"TOWNNAME":"新營區","LI":"民權里","LIN":"15鄰","STREET":"三民路","SECT":" ","MAREA":" ","LANE":" ","ALLEY":" ","HOUSE_NO":"１１０號","E_COORD97":179839.98000000001,"N_COORD97":2578462.73,"ADDRESS":"三民路１１０號","OBJECTID":516789},"geometry":{"x":179839.98000000138,"y":2578462.7300000042}},{"attributes":{"ID":516817,"DIS_CODE":0,"TOWNNAME":"安平區","LI":"平安里","LIN":"1鄰","STREET":"中華西路","SECT":"二段","MAREA":" ","LANE":" ","ALLEY":" ","HOUSE_NO":"４９５之２５號","E_COORD97":166602.87,"N_COORD97":2544329.9300000002,"ADDRESS":"中華西路二段４９５之２５號","OBJECTID":516790},"geometry":{"x":166602.87000000104,"y":2544329.9300000016}},{"attributes":{"ID":516818,"DIS_CODE":0,"TOWNNAME":"安平區","LI":"平安里","LIN":"1鄰","STREET":"中華西路","SECT":"二段","MAREA":" ","LANE":" ","ALLEY":" ","HOUSE_NO":"４９５之２８號","E_COORD97":166604.41,"N_COORD97":2544338.02,"ADDRESS":"中華西路二段４９５之２８號","OBJECTID":516791},"geometry":{"x":166604.41000000108,"y":2544338.0199999996}},{"attributes":{"ID":516819,"DIS_CODE":0,"TOWNNAME":"安平區","LI":"平安里","LIN":"1鄰","STREET":"中華西路","SECT":"二段","MAREA":" ","LANE":" ","ALLEY":" ","HOUSE_NO":"４９５之３０號","E_COORD97":166603.64000000001,"N_COORD97":2544342.2599999998,"ADDRESS":"中華西路二段４９５之３０號","OBJECTID":516792},"geometry":{"x":166603.6400000006,"y":2544342.2600000016}},{"attributes":{"ID":516820,"DIS_CODE":0,"TOWNNAME":"安平區","LI":"國平里","LIN":"1鄰","STREET":"文平路","SECT":" ","MAREA":" ","LANE":" ","ALLEY":" ","HOUSE_NO":"２７７號之１","E_COORD97":165734.95000000001,"N_COORD97":2543331.8599999999,"ADDRESS":"文平路２７７號之１","OBJECTID":516793},"geometry":{"x":165734.95000000019,"y":2543331.8599999994}},{"attributes":{"ID":516821,"DIS_CODE":0,"TOWNNAME":"安平區","LI":"國平里","LIN":"1鄰","STREET":"建平七街","SECT":" ","MAREA":" ","LANE":" ","ALLEY":" ","HOUSE_NO":"３８８號","E_COORD97":165591.17000000001,"N_COORD97":2543328.8500000001,"ADDRESS":"建平七街３８８號","OBJECTID":516794},"geometry":{"x":165591.16999999993,"y":2543328.8499999996}},{"attributes":{"ID":516822,"DIS_CODE":0,"TOWNNAME":"安平區","LI":"西門里","LIN":"1鄰","STREET":"國勝路","SECT":" ","MAREA":" ","LANE":" ","ALLEY":" ","HOUSE_NO":"３７號","E_COORD97":163908.17999999999,"N_COORD97":2544634.5699999998,"ADDRESS":"國勝路３７號","OBJECTID":516795},"geometry":{"x":163908.18000000063,"y":2544634.570000004}},{"attributes":{"ID":516823,"DIS_CODE":0,"TOWNNAME":"安平區","LI":"漁光里","LIN":"1鄰","STREET":"漁光路","SECT":" ","MAREA":" ","LANE":" ","ALLEY":" ","HOUSE_NO":"５１號之１","E_COORD97":164074.53,"N_COORD97":2541695.8700000001,"ADDRESS":"漁光路５１號之１","OBJECTID":516796},"geometry":{"x":164074.53000000119,"y":2541695.870000001}},{"attributes":{"ID":516824,"DIS_CODE":0,"TOWNNAME":"安平區","LI":"金城里","LIN":"1鄰","STREET":"安平路","SECT":" ","MAREA":" ","LANE":" ","ALLEY":" ","HOUSE_NO":"１８１號","E_COORD97":163990,"N_COORD97":2544546.5899999999,"ADDRESS":"安平路１８１號","OBJECTID":516797},"geometry":{"x":163990,"y":2544546.5900000017}},{"attributes":{"ID":516825,"DIS_CODE":0,"TOWNNAME":"安平區","LI":"金城里","LIN":"1鄰","STREET":"安平路","SECT":" ","MAREA":" ","LANE":" ","ALLEY":" ","HOUSE_NO":"１８１號之２","E_COORD97":163975.85000000001,"N_COORD97":2544538.3999999999,"ADDRESS":"安平路１８１號之２","OBJECTID":516798},"geometry":{"x":163975.8499999987,"y":2544538.4000000022}},{"attributes":{"ID":516826,"DIS_CODE":0,"TOWNNAME":"安平區","LI":"金城里","LIN":"1鄰","STREET":"安平路","SECT":" ","MAREA":" ","LANE":" ","ALLEY":" ","HOUSE_NO":"１８３號","E_COORD97":163971.17999999999,"N_COORD97":2544539.6699999999,"ADDRESS":"安平路１８３號","OBJECTID":516799},"geometry":{"x":163971.18000000063,"y":2544539.6700000018}},{"attributes":{"ID":516827,"DIS_CODE":0,"TOWNNAME":"安平區","LI":"金城里","LIN":"1鄰","STREET":"國勝路","SECT":" ","MAREA":" ","LANE":" ","ALLEY":" ","HOUSE_NO":"２１號","E_COORD97":164005.42000000001,"N_COORD97":2544529.21,"ADDRESS":"國勝路２１號","OBJECTID":516800},"geometry":{"x":164005.42000000086,"y":2544529.2100000028}}]}