{"displayFieldName":"TOWNNAME","fieldAliases":{"ID":"ID","DIS_CODE":"DIS_CODE","TOWNNAME":"TOWNNAME","LI":"LI","LIN":"LIN","STREET":"STREET","SECT":"SECT","MAREA":"MAREA","LANE":"LANE","ALLEY":"ALLEY","HOUSE_NO":"HOUSE_NO","E_COORD97":"E_COORD97","N_COORD97":"N_COORD97","ADDRESS":"ADDRESS","OBJECTID":"OBJECTID"},"geometryType":"esriGeometryPoint","spatialReference":{"wkid":102443,"latestWkid":3826},"fields":[{"name":"ID","type":"esriFieldTypeDouble","alias":"ID"},{"name":"DIS_CODE","type":"esriFieldTypeInteger","alias":"DIS_CODE"},{"name":"TOWNNAME","type":"esriFieldTypeString","alias":"TOWNNAME","length":8},{"name":"LI","type":"esriFieldTypeString","alias":"LI","length":8},{"name":"LIN","type":"esriFieldTypeString","alias":"LIN","length":12},{"name":"STREET","type":"esriFieldTypeString","alias":"STREET","length":20},{"name":"SECT","type":"esriFieldTypeString","alias":"SECT","length":8},{"name":"MAREA","type":"esriFieldTypeString","alias":"MAREA","length":12},{"name":"LANE","type":"esriFieldTypeString","alias":"LANE","length":10},{"name":"ALLEY","type":"esriFieldTypeString","alias":"ALLEY","length":10},{"name":"HOUSE_NO","type":"esriFieldTypeString","alias":"HOUSE_NO","length":20},{"name":"E_COORD97","type":"esriFieldTypeDouble","alias":"E_COORD97"},{"name":"N_COORD97","type":"esriFieldTypeDouble","alias":"N_COORD97"},{"name":"ADDRESS","type":"esriFieldTypeString","alias":"ADDRESS","length":50},{"name":"OBJECTID","type":"esriFieldTypeOID","alias":"OBJECTID"}],"features":[{"attributes":{"ID":29801,"DIS_CODE":0,"TOWNNAME":"歸仁區","LI":"大廟里","LIN":"17鄰","STREET":"保大路","SECT":"三段","MAREA":" ","LANE":"２９０巷","ALLEY":"３３弄","HOUSE_NO":"５８號","E_COORD97":175708.54999999999,"N_COORD97":2544522.8599999999,"ADDRESS":"保大路三段２９０巷３３弄５８號","OBJECTID":29801},"geometry":{"x":175708.54999999981,"y":2544522.8600000031}},{"attributes":{"ID":29802,"DIS_CODE":0,"TOWNNAME":"歸仁區","LI":"七甲里","LIN":"17鄰","STREET":"南潭三街","SECT":" ","MAREA":" ","LANE":"１６２巷","ALLEY":"１５弄","HOUSE_NO":"１２號","E_COORD97":176468.98000000001,"N_COORD97":2543072.0299999998,"ADDRESS":"南潭三街１６２巷１５弄１２號","OBJECTID":29802},"geometry":{"x":176468.98000000045,"y":2543072.0300000012}},{"attributes":{"ID":29803,"DIS_CODE":0,"TOWNNAME":"歸仁區","LI":"七甲里","LIN":"17鄰","STREET":"南潭三街","SECT":" ","MAREA":" ","LANE":"１６２巷","ALLEY":"１５弄","HOUSE_NO":"２２號","E_COORD97":176489.48000000001,"N_COORD97":2543072.0299999998,"ADDRESS":"南潭三街１６２巷１５弄２２號","OBJECTID":29803},"geometry":{"x":176489.48000000045,"y":2543072.0300000012}},{"attributes":{"ID":29804,"DIS_CODE":0,"TOWNNAME":"歸仁區","LI":"七甲里","LIN":"17鄰","STREET":"南潭三街","SECT":" ","MAREA":" ","LANE":"１６２巷","ALLEY":"１５弄","HOUSE_NO":"６號","E_COORD97":176454.42999999999,"N_COORD97":2543072.0299999998,"ADDRESS":"南潭三街１６２巷１５弄６號","OBJECTID":29804},"geometry":{"x":176454.43000000063,"y":2543072.0300000012}},{"attributes":{"ID":29805,"DIS_CODE":0,"TOWNNAME":"歸仁區","LI":"大潭里","LIN":"17鄰","STREET":"中正南路","SECT":"三段","MAREA":" ","LANE":"２５０巷","ALLEY":"３７弄","HOUSE_NO":"２號","E_COORD97":175085.60000000001,"N_COORD97":2534759.2799999998,"ADDRESS":"中正南路三段２５０巷３７弄２號","OBJECTID":29805},"geometry":{"x":175085.59999999963,"y":2534759.2800000031}},{"attributes":{"ID":29806,"DIS_CODE":0,"TOWNNAME":"北區","LI":"華興里","LIN":"17鄰","STREET":"南園街","SECT":" ","MAREA":" ","LANE":"１２７巷","ALLEY":"１７弄","HOUSE_NO":"１０號","E_COORD97":170702,"N_COORD97":2545308.77,"ADDRESS":"南園街１２７巷１７弄１０號","OBJECTID":29806},"geometry":{"x":170702.00000000093,"y":2545308.7699999996}},{"attributes":{"ID":29807,"DIS_CODE":0,"TOWNNAME":"北區","LI":"華興里","LIN":"17鄰","STREET":"南園街","SECT":" ","MAREA":" ","LANE":"１２７巷","ALLEY":"１７弄","HOUSE_NO":"１２號","E_COORD97":170706.04000000001,"N_COORD97":2545310.5499999998,"ADDRESS":"南園街１２７巷１７弄１２號","OBJECTID":29807},"geometry":{"x":170706.04000000004,"y":2545310.5500000026}},{"attributes":{"ID":29808,"DIS_CODE":0,"TOWNNAME":"北區","LI":"華興里","LIN":"17鄰","STREET":"南園街","SECT":" ","MAREA":" ","LANE":"１２７巷","ALLEY":"１７弄","HOUSE_NO":"１４號","E_COORD97":170709.67999999999,"N_COORD97":2545308.21,"ADDRESS":"南園街１２７巷１７弄１４號","OBJECTID":29808},"geometry":{"x":170709.6799999997,"y":2545308.2100000009}},{"attributes":{"ID":29809,"DIS_CODE":0,"TOWNNAME":"北區","LI":"華興里","LIN":"17鄰","STREET":"南園街","SECT":" ","MAREA":" ","LANE":"１２７巷","ALLEY":"１７弄","HOUSE_NO":"１６號","E_COORD97":170713.64000000001,"N_COORD97":2545309.98,"ADDRESS":"南園街１２７巷１７弄１６號","OBJECTID":29809},"geometry":{"x":170713.63999999966,"y":2545309.9800000042}},{"attributes":{"ID":29810,"DIS_CODE":0,"TOWNNAME":"北區","LI":"華興里","LIN":"17鄰","STREET":"南園街","SECT":" ","MAREA":" ","LANE":"１２７巷","ALLEY":"１７弄","HOUSE_NO":"１８號","E_COORD97":170717.69,"N_COORD97":2545307.0699999998,"ADDRESS":"南園街１２７巷１７弄１８號","OBJECTID":29810},"geometry":{"x":170717.69000000041,"y":2545307.0700000022}},{"attributes":{"ID":29811,"DIS_CODE":0,"TOWNNAME":"北區","LI":"華興里","LIN":"17鄰","STREET":"南園街","SECT":" ","MAREA":" ","LANE":"１２７巷","ALLEY":"１７弄","HOUSE_NO":"２０號","E_COORD97":170721.5,"N_COORD97":2545308.8500000001,"ADDRESS":"南園街１２７巷１７弄２０號","OBJECTID":29811},"geometry":{"x":170721.5,"y":2545308.8499999996}},{"attributes":{"ID":29812,"DIS_CODE":0,"TOWNNAME":"北區","LI":"華興里","LIN":"17鄰","STREET":"南園街","SECT":" ","MAREA":" ","LANE":"１２７巷","ALLEY":"１７弄","HOUSE_NO":"２２號","E_COORD97":170725.39000000001,"N_COORD97":2545307.0600000001,"ADDRESS":"南園街１２７巷１７弄２２號","OBJECTID":29812},"geometry":{"x":170725.38999999966,"y":2545307.0600000024}},{"attributes":{"ID":29813,"DIS_CODE":0,"TOWNNAME":"北區","LI":"華興里","LIN":"17鄰","STREET":"南園街","SECT":" ","MAREA":" ","LANE":"１２７巷","ALLEY":"１７弄","HOUSE_NO":"２４號","E_COORD97":170729.42999999999,"N_COORD97":2545308.52,"ADDRESS":"南園街１２７巷１７弄２４號","OBJECTID":29813},"geometry":{"x":170729.43000000063,"y":2545308.5200000033}},{"attributes":{"ID":29814,"DIS_CODE":0,"TOWNNAME":"北區","LI":"華興里","LIN":"17鄰","STREET":"南園街","SECT":" ","MAREA":" ","LANE":"１２７巷","ALLEY":"１７弄","HOUSE_NO":"２６號","E_COORD97":170732.89999999999,"N_COORD97":2545305.9300000002,"ADDRESS":"南園街１２７巷１７弄２６號","OBJECTID":29814},"geometry":{"x":170732.90000000037,"y":2545305.9300000034}},{"attributes":{"ID":29815,"DIS_CODE":0,"TOWNNAME":"北區","LI":"華興里","LIN":"17鄰","STREET":"南園街","SECT":" ","MAREA":" ","LANE":"１２７巷","ALLEY":"１７弄","HOUSE_NO":"２８號","E_COORD97":170737.10000000001,"N_COORD97":2545307.3799999999,"ADDRESS":"南園街１２７巷１７弄２８號","OBJECTID":29815},"geometry":{"x":170737.10000000056,"y":2545307.379999999}},{"attributes":{"ID":29816,"DIS_CODE":0,"TOWNNAME":"北區","LI":"華興里","LIN":"17鄰","STREET":"南園街","SECT":" ","MAREA":" ","LANE":"１２７巷","ALLEY":"１７弄","HOUSE_NO":"２號","E_COORD97":170685.98999999999,"N_COORD97":2545309.5800000001,"ADDRESS":"南園街１２７巷１７弄２號","OBJECTID":29816},"geometry":{"x":170685.99000000115,"y":2545309.5800000019}},{"attributes":{"ID":29817,"DIS_CODE":0,"TOWNNAME":"北區","LI":"華興里","LIN":"17鄰","STREET":"南園街","SECT":" ","MAREA":" ","LANE":"１２７巷","ALLEY":"１７弄","HOUSE_NO":"３０號","E_COORD97":170740.66,"N_COORD97":2545304.96,"ADDRESS":"南園街１２７巷１７弄３０號","OBJECTID":29817},"geometry":{"x":170740.66000000108,"y":2545304.9600000028}},{"attributes":{"ID":29818,"DIS_CODE":0,"TOWNNAME":"北區","LI":"華興里","LIN":"17鄰","STREET":"南園街","SECT":" ","MAREA":" ","LANE":"１２７巷","ALLEY":"１７弄","HOUSE_NO":"３２號","E_COORD97":170744.78,"N_COORD97":2545306.98,"ADDRESS":"南園街１２７巷１７弄３２號","OBJECTID":29818},"geometry":{"x":170744.78000000119,"y":2545306.9800000023}},{"attributes":{"ID":29819,"DIS_CODE":0,"TOWNNAME":"北區","LI":"華興里","LIN":"17鄰","STREET":"南園街","SECT":" ","MAREA":" ","LANE":"１２７巷","ALLEY":"１７弄","HOUSE_NO":"３４號","E_COORD97":170748.17999999999,"N_COORD97":2545305.04,"ADDRESS":"南園街１２７巷１７弄３４號","OBJECTID":29819},"geometry":{"x":170748.18000000063,"y":2545305.040000001}},{"attributes":{"ID":29820,"DIS_CODE":0,"TOWNNAME":"北區","LI":"華興里","LIN":"17鄰","STREET":"南園街","SECT":" ","MAREA":" ","LANE":"１２７巷","ALLEY":"１７弄","HOUSE_NO":"３６號","E_COORD97":170756.45999999999,"N_COORD97":2545303.6699999999,"ADDRESS":"南園街１２７巷１７弄３６號","OBJECTID":29820},"geometry":{"x":170756.46000000089,"y":2545303.6699999999}},{"attributes":{"ID":29821,"DIS_CODE":0,"TOWNNAME":"北門區","LI":"鯤江里","LIN":"14鄰","STREET":" ","SECT":" ","MAREA":"新圍","LANE":" ","ALLEY":" ","HOUSE_NO":"４９號","E_COORD97":163034.79000000001,"N_COORD97":2576704.4300000002,"ADDRESS":"新圍４９號","OBJECTID":29821},"geometry":{"x":163034.79000000097,"y":2576704.4300000034}},{"attributes":{"ID":29822,"DIS_CODE":0,"TOWNNAME":"北門區","LI":"鯤江里","LIN":"14鄰","STREET":" ","SECT":" ","MAREA":"新圍","LANE":" ","ALLEY":" ","HOUSE_NO":"５０號","E_COORD97":163070.60000000001,"N_COORD97":2576674.54,"ADDRESS":"新圍５０號","OBJECTID":29822},"geometry":{"x":163070.5999999987,"y":2576674.5399999991}},{"attributes":{"ID":29823,"DIS_CODE":0,"TOWNNAME":"北門區","LI":"鯤江里","LIN":"14鄰","STREET":" ","SECT":" ","MAREA":"新圍","LANE":" ","ALLEY":" ","HOUSE_NO":"５１號之１","E_COORD97":163084.89000000001,"N_COORD97":2576702.6200000001,"ADDRESS":"新圍５１號之１","OBJECTID":29823},"geometry":{"x":163084.8900000006,"y":2576702.6200000029}},{"attributes":{"ID":29824,"DIS_CODE":0,"TOWNNAME":"北門區","LI":"鯤江里","LIN":"14鄰","STREET":" ","SECT":" ","MAREA":"新圍","LANE":" ","ALLEY":" ","HOUSE_NO":"５１之１號","E_COORD97":163084.89000000001,"N_COORD97":2576702.6200000001,"ADDRESS":"新圍５１之１號","OBJECTID":29824},"geometry":{"x":163084.8900000006,"y":2576702.6200000029}},{"attributes":{"ID":29825,"DIS_CODE":0,"TOWNNAME":"北門區","LI":"鯤江里","LIN":"14鄰","STREET":" ","SECT":" ","MAREA":"新圍","LANE":" ","ALLEY":" ","HOUSE_NO":"５１號","E_COORD97":163095.39999999999,"N_COORD97":2576684.5499999998,"ADDRESS":"新圍５１號","OBJECTID":29825},"geometry":{"x":163095.4000000013,"y":2576684.5500000026}},{"attributes":{"ID":29826,"DIS_CODE":0,"TOWNNAME":"北門區","LI":"鯤江里","LIN":"14鄰","STREET":" ","SECT":" ","MAREA":"新圍","LANE":" ","ALLEY":" ","HOUSE_NO":"５２號","E_COORD97":163099.62,"N_COORD97":2576671.4900000002,"ADDRESS":"新圍５２號","OBJECTID":29826},"geometry":{"x":163099.62000000011,"y":2576671.4900000021}},{"attributes":{"ID":29827,"DIS_CODE":0,"TOWNNAME":"北門區","LI":"鯤江里","LIN":"14鄰","STREET":" ","SECT":" ","MAREA":"新圍","LANE":" ","ALLEY":" ","HOUSE_NO":"５７號","E_COORD97":163209.31,"N_COORD97":2576555.9199999999,"ADDRESS":"新圍５７號","OBJECTID":29827},"geometry":{"x":163209.30999999959,"y":2576555.9200000018}},{"attributes":{"ID":29828,"DIS_CODE":0,"TOWNNAME":"北門區","LI":"鯤江里","LIN":"14鄰","STREET":" ","SECT":" ","MAREA":"新圍","LANE":" ","ALLEY":" ","HOUSE_NO":"６０號","E_COORD97":163169.14999999999,"N_COORD97":2576610.5600000001,"ADDRESS":"新圍６０號","OBJECTID":29828},"geometry":{"x":163169.15000000037,"y":2576610.5600000024}},{"attributes":{"ID":29829,"DIS_CODE":0,"TOWNNAME":"北門區","LI":"北門里","LIN":"14鄰","STREET":" ","SECT":" ","MAREA":"舊埕","LANE":" ","ALLEY":" ","HOUSE_NO":"１２號","E_COORD97":160496.42999999999,"N_COORD97":2573955.5899999999,"ADDRESS":"舊埕１２號","OBJECTID":29829},"geometry":{"x":160496.4299999997,"y":2573955.5899999999}},{"attributes":{"ID":29830,"DIS_CODE":0,"TOWNNAME":"北門區","LI":"北門里","LIN":"14鄰","STREET":" ","SECT":" ","MAREA":"舊埕","LANE":" ","ALLEY":" ","HOUSE_NO":"１３號","E_COORD97":160491.48000000001,"N_COORD97":2573954.6699999999,"ADDRESS":"舊埕１３號","OBJECTID":29830},"geometry":{"x":160491.48000000045,"y":2573954.6700000018}},{"attributes":{"ID":29831,"DIS_CODE":0,"TOWNNAME":"北區","LI":"華興里","LIN":"17鄰","STREET":"南園街","SECT":" ","MAREA":" ","LANE":"１２７巷","ALLEY":"１７弄","HOUSE_NO":"３８號","E_COORD97":170760.41,"N_COORD97":2545305.04,"ADDRESS":"南園街１２７巷１７弄３８號","OBJECTID":29831},"geometry":{"x":170760.41000000108,"y":2545305.040000001}},{"attributes":{"ID":29832,"DIS_CODE":0,"TOWNNAME":"北區","LI":"華興里","LIN":"17鄰","STREET":"南園街","SECT":" ","MAREA":" ","LANE":"１２７巷","ALLEY":"１７弄","HOUSE_NO":"４０號","E_COORD97":170764.29000000001,"N_COORD97":2545302.9399999999,"ADDRESS":"南園街１２７巷１７弄４０號","OBJECTID":29832},"geometry":{"x":170764.2900000019,"y":2545302.9400000013}},{"attributes":{"ID":29833,"DIS_CODE":0,"TOWNNAME":"下營區","LI":"開化里","LIN":"14鄰","STREET":" ","SECT":" ","MAREA":"中營","LANE":" ","ALLEY":" ","HOUSE_NO":"６２３號","E_COORD97":176245.06,"N_COORD97":2568305.54,"ADDRESS":"中營６２３號","OBJECTID":29833},"geometry":{"x":176245.06000000052,"y":2568305.540000001}},{"attributes":{"ID":29834,"DIS_CODE":0,"TOWNNAME":"下營區","LI":"開化里","LIN":"14鄰","STREET":" ","SECT":" ","MAREA":"中營","LANE":" ","ALLEY":" ","HOUSE_NO":"６２４號","E_COORD97":176255.73000000001,"N_COORD97":2568276.3500000001,"ADDRESS":"中營６２４號","OBJECTID":29834},"geometry":{"x":176255.73000000045,"y":2568276.3500000034}},{"attributes":{"ID":29835,"DIS_CODE":0,"TOWNNAME":"下營區","LI":"開化里","LIN":"14鄰","STREET":" ","SECT":" ","MAREA":"中營","LANE":" ","ALLEY":" ","HOUSE_NO":"６２５號","E_COORD97":176207.45999999999,"N_COORD97":2568318.0600000001,"ADDRESS":"中營６２５號","OBJECTID":29835},"geometry":{"x":176207.45999999996,"y":2568318.0600000024}},{"attributes":{"ID":29836,"DIS_CODE":0,"TOWNNAME":"下營區","LI":"開化里","LIN":"14鄰","STREET":" ","SECT":" ","MAREA":"中營","LANE":" ","ALLEY":" ","HOUSE_NO":"６２６號","E_COORD97":176198.73000000001,"N_COORD97":2568329.5499999998,"ADDRESS":"中營６２６號","OBJECTID":29836},"geometry":{"x":176198.73000000138,"y":2568329.5500000007}},{"attributes":{"ID":29837,"DIS_CODE":0,"TOWNNAME":"下營區","LI":"中營里","LIN":"14鄰","STREET":" ","SECT":" ","MAREA":"中營","LANE":" ","ALLEY":" ","HOUSE_NO":"１２００號","E_COORD97":175936.76999999999,"N_COORD97":2568311.5899999999,"ADDRESS":"中營１２００號","OBJECTID":29837},"geometry":{"x":175936.77000000048,"y":2568311.5899999999}},{"attributes":{"ID":29838,"DIS_CODE":0,"TOWNNAME":"玉井區","LI":"望明里","LIN":"8鄰","STREET":" ","SECT":" ","MAREA":"公\u25A0","LANE":" ","ALLEY":" ","HOUSE_NO":"５６號","E_COORD97":193991.95999999999,"N_COORD97":2556607.2400000002,"ADDRESS":"公\u25A0５６號","OBJECTID":29838},"geometry":{"x":193991.95999999996,"y":2556607.2400000002}},{"attributes":{"ID":29839,"DIS_CODE":0,"TOWNNAME":"下營區","LI":"中營里","LIN":"14鄰","STREET":" ","SECT":" ","MAREA":"中營","LANE":" ","ALLEY":" ","HOUSE_NO":"１２０１號","E_COORD97":175939.17999999999,"N_COORD97":2568296.6400000001,"ADDRESS":"中營１２０１號","OBJECTID":29839},"geometry":{"x":175939.18000000063,"y":2568296.6400000025}},{"attributes":{"ID":29840,"DIS_CODE":0,"TOWNNAME":"下營區","LI":"中營里","LIN":"14鄰","STREET":" ","SECT":" ","MAREA":"中營","LANE":" ","ALLEY":" ","HOUSE_NO":"１２０３號","E_COORD97":175952.81,"N_COORD97":2568278.1499999999,"ADDRESS":"中營１２０３號","OBJECTID":29840},"geometry":{"x":175952.81000000145,"y":2568278.1499999985}},{"attributes":{"ID":29841,"DIS_CODE":0,"TOWNNAME":"下營區","LI":"中營里","LIN":"14鄰","STREET":" ","SECT":" ","MAREA":"中營","LANE":" ","ALLEY":" ","HOUSE_NO":"１２０４號","E_COORD97":175948.78,"N_COORD97":2568277.96,"ADDRESS":"中營１２０４號","OBJECTID":29841},"geometry":{"x":175948.78000000119,"y":2568277.9600000028}},{"attributes":{"ID":29842,"DIS_CODE":0,"TOWNNAME":"北區","LI":"華興里","LIN":"17鄰","STREET":"南園街","SECT":" ","MAREA":" ","LANE":"１２７巷","ALLEY":"１７弄","HOUSE_NO":"４２號","E_COORD97":170767.92999999999,"N_COORD97":2545304.3100000001,"ADDRESS":"南園街１２７巷１７弄４２號","OBJECTID":29842},"geometry":{"x":170767.9299999997,"y":2545304.3100000042}},{"attributes":{"ID":29843,"DIS_CODE":0,"TOWNNAME":"北區","LI":"華興里","LIN":"17鄰","STREET":"南園街","SECT":" ","MAREA":" ","LANE":"１２７巷","ALLEY":"１７弄","HOUSE_NO":"４６號","E_COORD97":170776.09,"N_COORD97":2545303.6699999999,"ADDRESS":"南園街１２７巷１７弄４６號","OBJECTID":29843},"geometry":{"x":170776.09000000078,"y":2545303.6699999999}},{"attributes":{"ID":29844,"DIS_CODE":0,"TOWNNAME":"北區","LI":"華興里","LIN":"17鄰","STREET":"南園街","SECT":" ","MAREA":" ","LANE":"１２７巷","ALLEY":"１７弄","HOUSE_NO":"４號","E_COORD97":170690.28,"N_COORD97":2545311.52,"ADDRESS":"南園街１２７巷１７弄４號","OBJECTID":29844},"geometry":{"x":170690.28000000119,"y":2545311.5199999996}},{"attributes":{"ID":29845,"DIS_CODE":0,"TOWNNAME":"北區","LI":"華興里","LIN":"17鄰","STREET":"南園街","SECT":" ","MAREA":" ","LANE":"１２７巷","ALLEY":"１７弄","HOUSE_NO":"６號","E_COORD97":170694,"N_COORD97":2545308.9399999999,"ADDRESS":"南園街１２７巷１７弄６號","OBJECTID":29845},"geometry":{"x":170694.00000000093,"y":2545308.9400000032}},{"attributes":{"ID":29846,"DIS_CODE":0,"TOWNNAME":"北區","LI":"華興里","LIN":"17鄰","STREET":"南園街","SECT":" ","MAREA":" ","LANE":"１２７巷","ALLEY":"１７弄","HOUSE_NO":"８號","E_COORD97":170697.88,"N_COORD97":2545310.8700000001,"ADDRESS":"南園街１２７巷１７弄８號","OBJECTID":29846},"geometry":{"x":170697.88000000082,"y":2545310.870000001}},{"attributes":{"ID":29847,"DIS_CODE":0,"TOWNNAME":"關廟區","LI":"北勢里","LIN":"17鄰","STREET":"成功路","SECT":" ","MAREA":" ","LANE":"３５３巷","ALLEY":"３弄","HOUSE_NO":"５號","E_COORD97":181260.26999999999,"N_COORD97":2540432.27,"ADDRESS":"成功路３５３巷３弄５號","OBJECTID":29847},"geometry":{"x":181260.26999999955,"y":2540432.2700000014}},{"attributes":{"ID":29848,"DIS_CODE":0,"TOWNNAME":"下營區","LI":"後街里","LIN":"14鄰","STREET":"中正北路","SECT":" ","MAREA":" ","LANE":" ","ALLEY":" ","HOUSE_NO":"９８號","E_COORD97":174487.57000000001,"N_COORD97":2570690.6400000001,"ADDRESS":"中正北路９８號","OBJECTID":29848},"geometry":{"x":174487.57000000123,"y":2570690.6400000025}},{"attributes":{"ID":29849,"DIS_CODE":0,"TOWNNAME":"下營區","LI":"中營里","LIN":"14鄰","STREET":" ","SECT":" ","MAREA":"中營","LANE":" ","ALLEY":" ","HOUSE_NO":"１２０５號","E_COORD97":175943.29000000001,"N_COORD97":2568291.1899999999,"ADDRESS":"中營１２０５號","OBJECTID":29849},"geometry":{"x":175943.29000000097,"y":2568291.1900000013}},{"attributes":{"ID":29850,"DIS_CODE":0,"TOWNNAME":"下營區","LI":"中營里","LIN":"14鄰","STREET":" ","SECT":" ","MAREA":"中營","LANE":" ","ALLEY":" ","HOUSE_NO":"１２０６號","E_COORD97":175936.84,"N_COORD97":2568276.3300000001,"ADDRESS":"中營１２０６號","OBJECTID":29850},"geometry":{"x":175936.83999999985,"y":2568276.3300000001}},{"attributes":{"ID":29851,"DIS_CODE":0,"TOWNNAME":"鹽水區","LI":"歡雅里","LIN":"8鄰","STREET":" ","SECT":" ","MAREA":"歡雅","LANE":" ","ALLEY":" ","HOUSE_NO":"９９之７８號","E_COORD97":172404.26999999999,"N_COORD97":2576423.75,"ADDRESS":"歡雅９９之７８號","OBJECTID":29851},"geometry":{"x":172404.26999999955,"y":2576423.75}},{"attributes":{"ID":29852,"DIS_CODE":0,"TOWNNAME":"鹽水區","LI":"歡雅里","LIN":"8鄰","STREET":" ","SECT":" ","MAREA":"歡雅","LANE":" ","ALLEY":" ","HOUSE_NO":"９９號之７９","E_COORD97":172408,"N_COORD97":2576423.4700000002,"ADDRESS":"歡雅９９號之７９","OBJECTID":29852},"geometry":{"x":172408.00000000093,"y":2576423.4699999988}},{"attributes":{"ID":29853,"DIS_CODE":0,"TOWNNAME":"鹽水區","LI":"汫水里","LIN":"8鄰","STREET":" ","SECT":" ","MAREA":"汫水港","LANE":" ","ALLEY":" ","HOUSE_NO":"１０號","E_COORD97":175464.45999999999,"N_COORD97":2582948.5899999999,"ADDRESS":"汫水港１０號","OBJECTID":29853},"geometry":{"x":175464.46000000089,"y":2582948.5900000036}},{"attributes":{"ID":29854,"DIS_CODE":0,"TOWNNAME":"鹽水區","LI":"汫水里","LIN":"8鄰","STREET":" ","SECT":" ","MAREA":"汫水港","LANE":" ","ALLEY":" ","HOUSE_NO":"１１號","E_COORD97":175451.81,"N_COORD97":2582892.9399999999,"ADDRESS":"汫水港１１號","OBJECTID":29854},"geometry":{"x":175451.80999999959,"y":2582892.9400000013}},{"attributes":{"ID":29855,"DIS_CODE":0,"TOWNNAME":"鹽水區","LI":"汫水里","LIN":"8鄰","STREET":" ","SECT":" ","MAREA":"汫水港","LANE":" ","ALLEY":" ","HOUSE_NO":"１２號","E_COORD97":175438.396866,"N_COORD97":2582871.8705699998,"ADDRESS":"汫水港１２號","OBJECTID":29855},"geometry":{"x":175438.39686600026,"y":2582871.8705670014}},{"attributes":{"ID":29856,"DIS_CODE":0,"TOWNNAME":"鹽水區","LI":"汫水里","LIN":"8鄰","STREET":" ","SECT":" ","MAREA":"汫水港","LANE":" ","ALLEY":" ","HOUSE_NO":"１３號","E_COORD97":175429.98000000001,"N_COORD97":2582901.5299999998,"ADDRESS":"汫水港１３號","OBJECTID":29856},"geometry":{"x":175429.98000000045,"y":2582901.5300000012}},{"attributes":{"ID":29857,"DIS_CODE":0,"TOWNNAME":"鹽水區","LI":"汫水里","LIN":"8鄰","STREET":" ","SECT":" ","MAREA":"汫水港","LANE":" ","ALLEY":" ","HOUSE_NO":"１７號","E_COORD97":175390.67000000001,"N_COORD97":2582881.8799999999,"ADDRESS":"汫水港１７號","OBJECTID":29857},"geometry":{"x":175390.66999999993,"y":2582881.8800000008}},{"attributes":{"ID":29858,"DIS_CODE":0,"TOWNNAME":"關廟區","LI":"北勢里","LIN":"17鄰","STREET":"成功路","SECT":" ","MAREA":" ","LANE":"３５３巷","ALLEY":"１弄","HOUSE_NO":"２０號","E_COORD97":181289.51999999999,"N_COORD97":2540450.27,"ADDRESS":"成功路３５３巷１弄２０號","OBJECTID":29858},"geometry":{"x":181289.52000000142,"y":2540450.2699999996}},{"attributes":{"ID":29859,"DIS_CODE":0,"TOWNNAME":"下營區","LI":"中營里","LIN":"14鄰","STREET":" ","SECT":" ","MAREA":"中營","LANE":" ","ALLEY":" ","HOUSE_NO":"１２０７號","E_COORD97":175934.23000000001,"N_COORD97":2568272.04,"ADDRESS":"中營１２０７號","OBJECTID":29859},"geometry":{"x":175934.23000000138,"y":2568272.040000001}},{"attributes":{"ID":29860,"DIS_CODE":0,"TOWNNAME":"關廟區","LI":"北勢里","LIN":"17鄰","STREET":"成功路","SECT":" ","MAREA":" ","LANE":"３５３巷","ALLEY":"１弄","HOUSE_NO":"１２號","E_COORD97":181278.01999999999,"N_COORD97":2540453.27,"ADDRESS":"成功路３５３巷１弄１２號","OBJECTID":29860},"geometry":{"x":181278.02000000048,"y":2540453.2700000014}},{"attributes":{"ID":29861,"DIS_CODE":0,"TOWNNAME":"下營區","LI":"中營里","LIN":"14鄰","STREET":" ","SECT":" ","MAREA":"中營","LANE":" ","ALLEY":" ","HOUSE_NO":"１２０８號","E_COORD97":175930.75,"N_COORD97":2568271.02,"ADDRESS":"中營１２０８號","OBJECTID":29861},"geometry":{"x":175930.75,"y":2568271.0199999996}},{"attributes":{"ID":29862,"DIS_CODE":0,"TOWNNAME":"關廟區","LI":"北勢里","LIN":"17鄰","STREET":"成功路","SECT":" ","MAREA":" ","LANE":"３５３巷","ALLEY":"１弄","HOUSE_NO":"７號","E_COORD97":181278.26999999999,"N_COORD97":2540468.27,"ADDRESS":"成功路３５３巷１弄７號","OBJECTID":29862},"geometry":{"x":181278.27000000048,"y":2540468.2699999996}},{"attributes":{"ID":29863,"DIS_CODE":0,"TOWNNAME":"下營區","LI":"中營里","LIN":"14鄰","STREET":" ","SECT":" ","MAREA":"中營","LANE":" ","ALLEY":" ","HOUSE_NO":"１２０９號","E_COORD97":175924.5,"N_COORD97":2568271.25,"ADDRESS":"中營１２０９號","OBJECTID":29863},"geometry":{"x":175924.5,"y":2568271.2500000019}},{"attributes":{"ID":29864,"DIS_CODE":0,"TOWNNAME":"關廟區","LI":"香洋里","LIN":"17鄰","STREET":"中央路","SECT":" ","MAREA":" ","LANE":"２２巷","ALLEY":"３１弄","HOUSE_NO":"６號","E_COORD97":181586.39999999999,"N_COORD97":2540116.3799999999,"ADDRESS":"中央路２２巷３１弄６號","OBJECTID":29864},"geometry":{"x":181586.4000000013,"y":2540116.3800000008}},{"attributes":{"ID":29865,"DIS_CODE":0,"TOWNNAME":"永康區","LI":"復華里","LIN":"31鄰","STREET":"復華八街","SECT":" ","MAREA":" ","LANE":"５１巷","ALLEY":"６１弄","HOUSE_NO":"１１號","E_COORD97":172619.91271199999,"N_COORD97":2546409.7322800001,"ADDRESS":"復華八街５１巷６１弄１１號","OBJECTID":29865},"geometry":{"x":172619.91271200217,"y":2546409.7322850004}},{"attributes":{"ID":29866,"DIS_CODE":0,"TOWNNAME":"關廟區","LI":"北勢里","LIN":"17鄰","STREET":"成功路","SECT":" ","MAREA":" ","LANE":"３５３巷","ALLEY":"３弄","HOUSE_NO":"１８號","E_COORD97":181271.82000000001,"N_COORD97":2540414.27,"ADDRESS":"成功路３５３巷３弄１８號","OBJECTID":29866},"geometry":{"x":181271.82000000123,"y":2540414.2699999996}},{"attributes":{"ID":29867,"DIS_CODE":0,"TOWNNAME":"下營區","LI":"中營里","LIN":"14鄰","STREET":" ","SECT":" ","MAREA":"中營","LANE":" ","ALLEY":" ","HOUSE_NO":"１２１０號","E_COORD97":175918.78,"N_COORD97":2568274.4199999999,"ADDRESS":"中營１２１０號","OBJECTID":29867},"geometry":{"x":175918.78000000119,"y":2568274.4199999999}},{"attributes":{"ID":29868,"DIS_CODE":0,"TOWNNAME":"下營區","LI":"中營里","LIN":"14鄰","STREET":" ","SECT":" ","MAREA":"中營","LANE":" ","ALLEY":" ","HOUSE_NO":"１２１１號","E_COORD97":175915.88,"N_COORD97":2568281.4300000002,"ADDRESS":"中營１２１１號","OBJECTID":29868},"geometry":{"x":175915.88000000082,"y":2568281.4299999997}},{"attributes":{"ID":29869,"DIS_CODE":0,"TOWNNAME":"關廟區","LI":"北勢里","LIN":"17鄰","STREET":"成功路","SECT":" ","MAREA":" ","LANE":"３５３巷","ALLEY":"１弄","HOUSE_NO":"５號","E_COORD97":181274.47,"N_COORD97":2540469.27,"ADDRESS":"成功路３５３巷１弄５號","OBJECTID":29869},"geometry":{"x":181274.46999999974,"y":2540469.2700000014}},{"attributes":{"ID":29870,"DIS_CODE":0,"TOWNNAME":"下營區","LI":"中營里","LIN":"14鄰","STREET":" ","SECT":" ","MAREA":"中營","LANE":" ","ALLEY":" ","HOUSE_NO":"１２１４號","E_COORD97":175911.34,"N_COORD97":2568293.8599999999,"ADDRESS":"中營１２１４號","OBJECTID":29870},"geometry":{"x":175911.33999999985,"y":2568293.8600000013}},{"attributes":{"ID":29871,"DIS_CODE":0,"TOWNNAME":"下營區","LI":"中營里","LIN":"14鄰","STREET":" ","SECT":" ","MAREA":"中營","LANE":" ","ALLEY":" ","HOUSE_NO":"１２１６號","E_COORD97":175912.12,"N_COORD97":2568304.8100000001,"ADDRESS":"中營１２１６號","OBJECTID":29871},"geometry":{"x":175912.12000000197,"y":2568304.8100000042}},{"attributes":{"ID":29872,"DIS_CODE":0,"TOWNNAME":"下營區","LI":"中營里","LIN":"14鄰","STREET":" ","SECT":" ","MAREA":"中營","LANE":" ","ALLEY":" ","HOUSE_NO":"１２２５號","E_COORD97":175799.76000000001,"N_COORD97":2568517.8599999999,"ADDRESS":"中營１２２５號","OBJECTID":29872},"geometry":{"x":175799.76000000071,"y":2568517.8600000013}},{"attributes":{"ID":29873,"DIS_CODE":0,"TOWNNAME":"楠西區","LI":"灣丘里","LIN":"7鄰","STREET":" ","SECT":" ","MAREA":"灣丘","LANE":" ","ALLEY":" ","HOUSE_NO":"７４號","E_COORD97":200857.17000000001,"N_COORD97":2564479.25,"ADDRESS":"灣丘７４號","OBJECTID":29873},"geometry":{"x":200857.17000000086,"y":2564479.25}},{"attributes":{"ID":29874,"DIS_CODE":0,"TOWNNAME":"永康區","LI":"東橋里","LIN":"14鄰","STREET":"中山南路","SECT":" ","MAREA":" ","LANE":" ","ALLEY":" ","HOUSE_NO":"２６１號","E_COORD97":171764.31,"N_COORD97":2546287.1499999999,"ADDRESS":"中山南路２６１號","OBJECTID":29874},"geometry":{"x":171764.31000000052,"y":2546287.1500000004}},{"attributes":{"ID":29875,"DIS_CODE":0,"TOWNNAME":"鹽水區","LI":"汫水里","LIN":"8鄰","STREET":" ","SECT":" ","MAREA":"汫水港","LANE":" ","ALLEY":" ","HOUSE_NO":"１９號","E_COORD97":175410.67999999999,"N_COORD97":2582860.5099999998,"ADDRESS":"汫水港１９號","OBJECTID":29875},"geometry":{"x":175410.6799999997,"y":2582860.5099999979}},{"attributes":{"ID":29876,"DIS_CODE":0,"TOWNNAME":"北區","LI":"開元里","LIN":"17鄰","STREET":"北園街","SECT":" ","MAREA":" ","LANE":"８７巷","ALLEY":"１２９弄","HOUSE_NO":"１８號","E_COORD97":170089.72,"N_COORD97":2545878.7000000002,"ADDRESS":"北園街８７巷１２９弄１８號","OBJECTID":29876},"geometry":{"x":170089.71999999881,"y":2545878.6999999993}},{"attributes":{"ID":29877,"DIS_CODE":0,"TOWNNAME":"北區","LI":"開元里","LIN":"17鄰","STREET":"北園街","SECT":" ","MAREA":" ","LANE":"８７巷","ALLEY":"１２９弄","HOUSE_NO":"１９號","E_COORD97":170091.23999999999,"N_COORD97":2545872.6800000002,"ADDRESS":"北園街８７巷１２９弄１９號","OBJECTID":29877},"geometry":{"x":170091.24000000022,"y":2545872.6799999997}},{"attributes":{"ID":29878,"DIS_CODE":0,"TOWNNAME":"北區","LI":"開元里","LIN":"17鄰","STREET":"北園街","SECT":" ","MAREA":" ","LANE":"８７巷","ALLEY":"１２９弄","HOUSE_NO":"２０號","E_COORD97":170082.51999999999,"N_COORD97":2545878.8100000001,"ADDRESS":"北園街８７巷１２９弄２０號","OBJECTID":29878},"geometry":{"x":170082.52000000142,"y":2545878.8100000024}},{"attributes":{"ID":29879,"DIS_CODE":0,"TOWNNAME":"北區","LI":"開元里","LIN":"17鄰","STREET":"北園街","SECT":" ","MAREA":" ","LANE":"８７巷","ALLEY":"１２９弄","HOUSE_NO":"２號","E_COORD97":170143.45000000001,"N_COORD97":2545874.5699999998,"ADDRESS":"北園街８７巷１２９弄２號","OBJECTID":29879},"geometry":{"x":170143.45000000112,"y":2545874.5700000003}},{"attributes":{"ID":29880,"DIS_CODE":0,"TOWNNAME":"北區","LI":"開元里","LIN":"17鄰","STREET":"北園街","SECT":" ","MAREA":" ","LANE":"８７巷","ALLEY":"１２９弄","HOUSE_NO":"３號","E_COORD97":170135.82000000001,"N_COORD97":2545868.4399999999,"ADDRESS":"北園街８７巷１２９弄３號","OBJECTID":29880},"geometry":{"x":170135.82000000123,"y":2545868.4400000032}},{"attributes":{"ID":29881,"DIS_CODE":0,"TOWNNAME":"鹽水區","LI":"汫水里","LIN":"8鄰","STREET":" ","SECT":" ","MAREA":"汫水港","LANE":" ","ALLEY":" ","HOUSE_NO":"２０號之１","E_COORD97":175382.66,"N_COORD97":2582835.1800000002,"ADDRESS":"汫水港２０號之１","OBJECTID":29881},"geometry":{"x":175382.66000000015,"y":2582835.1799999997}},{"attributes":{"ID":29882,"DIS_CODE":0,"TOWNNAME":"北區","LI":"開元里","LIN":"17鄰","STREET":"北園街","SECT":" ","MAREA":" ","LANE":"８７巷","ALLEY":"１２９弄","HOUSE_NO":"４號","E_COORD97":170136.25,"N_COORD97":2545875.1099999999,"ADDRESS":"北園街８７巷１２９弄４號","OBJECTID":29882},"geometry":{"x":170136.25000000093,"y":2545875.1100000013}},{"attributes":{"ID":29883,"DIS_CODE":0,"TOWNNAME":"北區","LI":"開元里","LIN":"17鄰","STREET":"北園街","SECT":" ","MAREA":" ","LANE":"８７巷","ALLEY":"１２９弄","HOUSE_NO":"５號","E_COORD97":170129.70999999999,"N_COORD97":2545868.4399999999,"ADDRESS":"北園街８７巷１２９弄５號","OBJECTID":29883},"geometry":{"x":170129.71000000089,"y":2545868.4400000032}},{"attributes":{"ID":29884,"DIS_CODE":0,"TOWNNAME":"北區","LI":"開元里","LIN":"17鄰","STREET":"北園街","SECT":" ","MAREA":" ","LANE":"８７巷","ALLEY":"１２９弄","HOUSE_NO":"６號","E_COORD97":170130.70000000001,"N_COORD97":2545875.5499999998,"ADDRESS":"北園街８７巷１２９弄６號","OBJECTID":29884},"geometry":{"x":170130.70000000019,"y":2545875.5500000007}},{"attributes":{"ID":29885,"DIS_CODE":0,"TOWNNAME":"北區","LI":"開元里","LIN":"17鄰","STREET":"北園街","SECT":" ","MAREA":" ","LANE":"８７巷","ALLEY":"１２９弄","HOUSE_NO":"７號","E_COORD97":170123.94,"N_COORD97":2545869.0899999999,"ADDRESS":"北園街８７巷１２９弄７號","OBJECTID":29885},"geometry":{"x":170123.94000000041,"y":2545869.0900000017}},{"attributes":{"ID":29886,"DIS_CODE":0,"TOWNNAME":"鹽水區","LI":"汫水里","LIN":"8鄰","STREET":" ","SECT":" ","MAREA":"汫水港","LANE":" ","ALLEY":" ","HOUSE_NO":"２０號之２","E_COORD97":175395.92999999999,"N_COORD97":2582830.1899999999,"ADDRESS":"汫水港２０號之２","OBJECTID":29886},"geometry":{"x":175395.93000000156,"y":2582830.1900000013}},{"attributes":{"ID":29887,"DIS_CODE":0,"TOWNNAME":"鹽水區","LI":"汫水里","LIN":"8鄰","STREET":" ","SECT":" ","MAREA":"汫水港","LANE":" ","ALLEY":" ","HOUSE_NO":"２０號之３","E_COORD97":175412.26000000001,"N_COORD97":2582823.04,"ADDRESS":"汫水港２０號之３","OBJECTID":29887},"geometry":{"x":175412.25999999978,"y":2582823.040000001}},{"attributes":{"ID":29888,"DIS_CODE":0,"TOWNNAME":"鹽水區","LI":"汫水里","LIN":"8鄰","STREET":" ","SECT":" ","MAREA":"汫水港","LANE":" ","ALLEY":" ","HOUSE_NO":"２０號之４","E_COORD97":175402.85999999999,"N_COORD97":2582829.6299999999,"ADDRESS":"汫水港２０號之４","OBJECTID":29888},"geometry":{"x":175402.86000000127,"y":2582829.6300000008}},{"attributes":{"ID":29889,"DIS_CODE":0,"TOWNNAME":"鹽水區","LI":"汫水里","LIN":"8鄰","STREET":" ","SECT":" ","MAREA":"汫水港","LANE":" ","ALLEY":" ","HOUSE_NO":"２０號之６","E_COORD97":175356.04999999999,"N_COORD97":2582845.02,"ADDRESS":"汫水港２０號之６","OBJECTID":29889},"geometry":{"x":175356.04999999981,"y":2582845.0200000014}},{"attributes":{"ID":29890,"DIS_CODE":0,"TOWNNAME":"鹽水區","LI":"汫水里","LIN":"8鄰","STREET":" ","SECT":" ","MAREA":"汫水港","LANE":" ","ALLEY":" ","HOUSE_NO":"２０之７號","E_COORD97":175262.04999999999,"N_COORD97":2582787.21,"ADDRESS":"汫水港２０之７號","OBJECTID":29890},"geometry":{"x":175262.05000000075,"y":2582787.2100000028}},{"attributes":{"ID":29891,"DIS_CODE":0,"TOWNNAME":"鹽水區","LI":"汫水里","LIN":"8鄰","STREET":" ","SECT":" ","MAREA":"汫水港","LANE":" ","ALLEY":" ","HOUSE_NO":"２０號","E_COORD97":175366.78,"N_COORD97":2582867.9900000002,"ADDRESS":"汫水港２０號","OBJECTID":29891},"geometry":{"x":175366.78000000026,"y":2582867.9900000039}},{"attributes":{"ID":29892,"DIS_CODE":0,"TOWNNAME":"鹽水區","LI":"下中里","LIN":"8鄰","STREET":" ","SECT":" ","MAREA":"下中","LANE":" ","ALLEY":" ","HOUSE_NO":"１號","E_COORD97":172380.07000000001,"N_COORD97":2579856.3900000001,"ADDRESS":"下中１號","OBJECTID":29892},"geometry":{"x":172380.07000000123,"y":2579856.3900000025}},{"attributes":{"ID":29893,"DIS_CODE":0,"TOWNNAME":"南化區","LI":"南化里","LIN":"8鄰","STREET":" ","SECT":" ","MAREA":"南化","LANE":" ","ALLEY":" ","HOUSE_NO":"１５１號","E_COORD97":196430.73999999999,"N_COORD97":2549099.75,"ADDRESS":"南化１５１號","OBJECTID":29893},"geometry":{"x":196430.74000000115,"y":2549099.75}},{"attributes":{"ID":29894,"DIS_CODE":0,"TOWNNAME":"南化區","LI":"南化里","LIN":"8鄰","STREET":" ","SECT":" ","MAREA":"南化","LANE":" ","ALLEY":" ","HOUSE_NO":"１５７號","E_COORD97":196446.54000000001,"N_COORD97":2549108.75,"ADDRESS":"南化１５７號","OBJECTID":29894},"geometry":{"x":196446.5400000019,"y":2549108.7500000019}},{"attributes":{"ID":29895,"DIS_CODE":0,"TOWNNAME":"南化區","LI":"南化里","LIN":"8鄰","STREET":" ","SECT":" ","MAREA":"南化","LANE":" ","ALLEY":" ","HOUSE_NO":"１６２號","E_COORD97":196458.14000000001,"N_COORD97":2549114.75,"ADDRESS":"南化１６２號","OBJECTID":29895},"geometry":{"x":196458.13999999966,"y":2549114.7499999981}},{"attributes":{"ID":29896,"DIS_CODE":0,"TOWNNAME":"南化區","LI":"南化里","LIN":"8鄰","STREET":" ","SECT":" ","MAREA":"南化","LANE":" ","ALLEY":" ","HOUSE_NO":"１５２號","E_COORD97":196433.44,"N_COORD97":2549101.75,"ADDRESS":"南化１５２號","OBJECTID":29896},"geometry":{"x":196433.44000000041,"y":2549101.7500000019}},{"attributes":{"ID":29897,"DIS_CODE":0,"TOWNNAME":"北區","LI":"開元里","LIN":"17鄰","STREET":"北園街","SECT":" ","MAREA":" ","LANE":"８７巷","ALLEY":"１２９弄","HOUSE_NO":"８號","E_COORD97":170124.16,"N_COORD97":2545875.98,"ADDRESS":"北園街８７巷１２９弄８號","OBJECTID":29897},"geometry":{"x":170124.16000000015,"y":2545875.9800000042}},{"attributes":{"ID":29898,"DIS_CODE":0,"TOWNNAME":"北區","LI":"開元里","LIN":"17鄰","STREET":"北園街","SECT":" ","MAREA":" ","LANE":"８７巷","ALLEY":"１２９弄","HOUSE_NO":"９號","E_COORD97":170118.92000000001,"N_COORD97":2545870.0699999998,"ADDRESS":"北園街８７巷１２９弄９號","OBJECTID":29898},"geometry":{"x":170118.91999999993,"y":2545870.0700000022}},{"attributes":{"ID":29899,"DIS_CODE":0,"TOWNNAME":"北區","LI":"開元里","LIN":"17鄰","STREET":"北園街","SECT":" ","MAREA":" ","LANE":"８７巷","ALLEY":"１４１弄","HOUSE_NO":"１０號","E_COORD97":170119.32999999999,"N_COORD97":2545901.73,"ADDRESS":"北園街８７巷１４１弄１０號","OBJECTID":29899},"geometry":{"x":170119.33000000007,"y":2545901.7300000023}},{"attributes":{"ID":29900,"DIS_CODE":0,"TOWNNAME":"北區","LI":"開元里","LIN":"17鄰","STREET":"北園街","SECT":" ","MAREA":" ","LANE":"８７巷","ALLEY":"１４１弄","HOUSE_NO":"１１號","E_COORD97":170116.29999999999,"N_COORD97":2545896.3799999999,"ADDRESS":"北園街８７巷１４１弄１１號","OBJECTID":29900},"geometry":{"x":170116.29999999981,"y":2545896.3800000008}},{"attributes":{"ID":29901,"DIS_CODE":0,"TOWNNAME":"永康區","LI":"尚頂里","LIN":"14鄰","STREET":"正南一街","SECT":" ","MAREA":" ","LANE":" ","ALLEY":" ","HOUSE_NO":"２０５號","E_COORD97":170618.66,"N_COORD97":2547452.48,"ADDRESS":"正南一街２０５號","OBJECTID":29901},"geometry":{"x":170618.66000000108,"y":2547452.4800000042}},{"attributes":{"ID":29902,"DIS_CODE":0,"TOWNNAME":"永康區","LI":"東灣里","LIN":"14鄰","STREET":"大灣路","SECT":" ","MAREA":" ","LANE":" ","ALLEY":" ","HOUSE_NO":"３３９號","E_COORD97":174779.12,"N_COORD97":2544939.7000000002,"ADDRESS":"大灣路３３９號","OBJECTID":29902},"geometry":{"x":174779.12000000011,"y":2544939.6999999993}},{"attributes":{"ID":29903,"DIS_CODE":0,"TOWNNAME":"永康區","LI":"王行里","LIN":"14鄰","STREET":"環工路","SECT":" ","MAREA":" ","LANE":" ","ALLEY":" ","HOUSE_NO":"５號","E_COORD97":175715.39000000001,"N_COORD97":2550035.2999999998,"ADDRESS":"環工路５號","OBJECTID":29903},"geometry":{"x":175715.3900000006,"y":2550035.3000000026}},{"attributes":{"ID":29904,"DIS_CODE":0,"TOWNNAME":"永康區","LI":"甲頂里","LIN":"14鄰","STREET":"中華路","SECT":" ","MAREA":" ","LANE":" ","ALLEY":" ","HOUSE_NO":"９０１號","E_COORD97":170245.28,"N_COORD97":2546776.73,"ADDRESS":"中華路９０１號","OBJECTID":29904},"geometry":{"x":170245.28000000026,"y":2546776.7300000023}},{"attributes":{"ID":29905,"DIS_CODE":0,"TOWNNAME":"永康區","LI":"正強里","LIN":"14鄰","STREET":"正強街","SECT":" ","MAREA":" ","LANE":" ","ALLEY":" ","HOUSE_NO":"７５號","E_COORD97":173334.35999999999,"N_COORD97":2547330.9900000002,"ADDRESS":"正強街７５號","OBJECTID":29905},"geometry":{"x":173334.36000000127,"y":2547330.9900000021}},{"attributes":{"ID":29906,"DIS_CODE":0,"TOWNNAME":"安南區","LI":"新順里","LIN":"14鄰","STREET":"永安路","SECT":" ","MAREA":" ","LANE":" ","ALLEY":" ","HOUSE_NO":"６８號","E_COORD97":170150.84,"N_COORD97":2549447.8999999999,"ADDRESS":"永安路６８號","OBJECTID":29906},"geometry":{"x":170150.84000000078,"y":2549447.9000000022}},{"attributes":{"ID":29907,"DIS_CODE":0,"TOWNNAME":"佳里區","LI":"鎮山里","LIN":"14鄰","STREET":"安南路","SECT":" ","MAREA":" ","LANE":" ","ALLEY":" ","HOUSE_NO":"１０號","E_COORD97":166025.95000000001,"N_COORD97":2561384.1099999999,"ADDRESS":"安南路１０號","OBJECTID":29907},"geometry":{"x":166025.95000000112,"y":2561384.1099999994}},{"attributes":{"ID":29908,"DIS_CODE":0,"TOWNNAME":"下營區","LI":"西連里","LIN":"7鄰","STREET":" ","SECT":" ","MAREA":"西寮","LANE":" ","ALLEY":" ","HOUSE_NO":"２６號","E_COORD97":174665.63,"N_COORD97":2567470.5899999999,"ADDRESS":"西寮２６號","OBJECTID":29908},"geometry":{"x":174665.62999999989,"y":2567470.5899999999}},{"attributes":{"ID":29909,"DIS_CODE":0,"TOWNNAME":"佳里區","LI":"鎮山里","LIN":"14鄰","STREET":"安南路","SECT":" ","MAREA":" ","LANE":" ","ALLEY":" ","HOUSE_NO":"１２號","E_COORD97":166024.69,"N_COORD97":2561380.2000000002,"ADDRESS":"安南路１２號","OBJECTID":29909},"geometry":{"x":166024.69000000134,"y":2561380.1999999993}},{"attributes":{"ID":29910,"DIS_CODE":0,"TOWNNAME":"佳里區","LI":"鎮山里","LIN":"14鄰","STREET":"安南路","SECT":" ","MAREA":" ","LANE":" ","ALLEY":" ","HOUSE_NO":"１４號","E_COORD97":166022.89000000001,"N_COORD97":2561377,"ADDRESS":"安南路１４號","OBJECTID":29910},"geometry":{"x":166022.88999999966,"y":2561377.0000000019}},{"attributes":{"ID":29911,"DIS_CODE":0,"TOWNNAME":"左鎮區","LI":"澄山里","LIN":"8鄰","STREET":" ","SECT":" ","MAREA":"澄山","LANE":" ","ALLEY":" ","HOUSE_NO":"８１號之１","E_COORD97":186953.32999999999,"N_COORD97":2547241.2999999998,"ADDRESS":"澄山８１號之１","OBJECTID":29911},"geometry":{"x":186953.33000000101,"y":2547241.3000000026}},{"attributes":{"ID":29912,"DIS_CODE":0,"TOWNNAME":"北區","LI":"開元里","LIN":"17鄰","STREET":"北園街","SECT":" ","MAREA":" ","LANE":"８７巷","ALLEY":"１４１弄","HOUSE_NO":"１２號","E_COORD97":170112.35999999999,"N_COORD97":2545902.46,"ADDRESS":"北園街８７巷１４１弄１２號","OBJECTID":29912},"geometry":{"x":170112.36000000127,"y":2545902.4600000009}},{"attributes":{"ID":29913,"DIS_CODE":0,"TOWNNAME":"北區","LI":"開元里","LIN":"17鄰","STREET":"北園街","SECT":" ","MAREA":" ","LANE":"８７巷","ALLEY":"１４１弄","HOUSE_NO":"１３號","E_COORD97":170109.81,"N_COORD97":2545896.79,"ADDRESS":"北園街８７巷１４１弄１３號","OBJECTID":29913},"geometry":{"x":170109.81000000052,"y":2545896.790000001}},{"attributes":{"ID":29914,"DIS_CODE":0,"TOWNNAME":"北區","LI":"開元里","LIN":"17鄰","STREET":"北園街","SECT":" ","MAREA":" ","LANE":"８７巷","ALLEY":"１４１弄","HOUSE_NO":"１４號","E_COORD97":170105.89000000001,"N_COORD97":2545902.71,"ADDRESS":"北園街８７巷１４１弄１４號","OBJECTID":29914},"geometry":{"x":170105.8900000006,"y":2545902.7100000028}},{"attributes":{"ID":29915,"DIS_CODE":0,"TOWNNAME":"北區","LI":"開元里","LIN":"17鄰","STREET":"北園街","SECT":" ","MAREA":" ","LANE":"８７巷","ALLEY":"１４１弄","HOUSE_NO":"１５號","E_COORD97":170103.23999999999,"N_COORD97":2545897.4399999999,"ADDRESS":"北園街８７巷１４１弄１５號","OBJECTID":29915},"geometry":{"x":170103.24000000022,"y":2545897.4399999995}},{"attributes":{"ID":29916,"DIS_CODE":0,"TOWNNAME":"北區","LI":"開元里","LIN":"17鄰","STREET":"北園街","SECT":" ","MAREA":" ","LANE":"８７巷","ALLEY":"１４１弄","HOUSE_NO":"１６號","E_COORD97":170099.66,"N_COORD97":2545903.1899999999,"ADDRESS":"北園街８７巷１４１弄１６號","OBJECTID":29916},"geometry":{"x":170099.66000000108,"y":2545903.1899999995}},{"attributes":{"ID":29917,"DIS_CODE":0,"TOWNNAME":"北區","LI":"開元里","LIN":"17鄰","STREET":"北園街","SECT":" ","MAREA":" ","LANE":"８７巷","ALLEY":"１４１弄","HOUSE_NO":"１７號","E_COORD97":170098.45999999999,"N_COORD97":2545897.6000000001,"ADDRESS":"北園街８７巷１４１弄１７號","OBJECTID":29917},"geometry":{"x":170098.45999999903,"y":2545897.5999999996}},{"attributes":{"ID":29918,"DIS_CODE":0,"TOWNNAME":"北區","LI":"開元里","LIN":"17鄰","STREET":"北園街","SECT":" ","MAREA":" ","LANE":"８７巷","ALLEY":"１４１弄","HOUSE_NO":"１８號","E_COORD97":170093.10000000001,"N_COORD97":2545903.1899999999,"ADDRESS":"北園街８７巷１４１弄１８號","OBJECTID":29918},"geometry":{"x":170093.09999999963,"y":2545903.1899999995}},{"attributes":{"ID":29919,"DIS_CODE":0,"TOWNNAME":"北區","LI":"開元里","LIN":"17鄰","STREET":"北園街","SECT":" ","MAREA":" ","LANE":"８７巷","ALLEY":"１４１弄","HOUSE_NO":"１９號","E_COORD97":170091.73000000001,"N_COORD97":2545898.0099999998,"ADDRESS":"北園街８７巷１４１弄１９號","OBJECTID":29919},"geometry":{"x":170091.73000000045,"y":2545898.0099999998}},{"attributes":{"ID":29920,"DIS_CODE":0,"TOWNNAME":"北區","LI":"開元里","LIN":"17鄰","STREET":"北園街","SECT":" ","MAREA":" ","LANE":"８７巷","ALLEY":"１４１弄","HOUSE_NO":"１號","E_COORD97":170144.45999999999,"N_COORD97":2545894.2799999998,"ADDRESS":"北園街８７巷１４１弄１號","OBJECTID":29920},"geometry":{"x":170144.46000000183,"y":2545894.2800000012}},{"attributes":{"ID":29921,"DIS_CODE":0,"TOWNNAME":"北區","LI":"開元里","LIN":"17鄰","STREET":"北園街","SECT":" ","MAREA":" ","LANE":"８７巷","ALLEY":"１４１弄","HOUSE_NO":"２０號","E_COORD97":170085.09,"N_COORD97":2545904,"ADDRESS":"北園街８７巷１４１弄２０號","OBJECTID":29921},"geometry":{"x":170085.08999999985,"y":2545904.0000000019}},{"attributes":{"ID":29922,"DIS_CODE":0,"TOWNNAME":"北區","LI":"開元里","LIN":"17鄰","STREET":"北園街","SECT":" ","MAREA":" ","LANE":"８７巷","ALLEY":"１４１弄","HOUSE_NO":"２１號","E_COORD97":170085.57000000001,"N_COORD97":2545898.7400000002,"ADDRESS":"北園街８７巷１４１弄２１號","OBJECTID":29922},"geometry":{"x":170085.5700000003,"y":2545898.7400000021}},{"attributes":{"ID":29923,"DIS_CODE":0,"TOWNNAME":"北區","LI":"開元里","LIN":"17鄰","STREET":"北園街","SECT":" ","MAREA":" ","LANE":"８７巷","ALLEY":"１４１弄","HOUSE_NO":"２號","E_COORD97":170145.66,"N_COORD97":2545899.79,"ADDRESS":"北園街８７巷１４１弄２號","OBJECTID":29923},"geometry":{"x":170145.66000000108,"y":2545899.7900000028}},{"attributes":{"ID":29924,"DIS_CODE":0,"TOWNNAME":"北區","LI":"開元里","LIN":"17鄰","STREET":"北園街","SECT":" ","MAREA":" ","LANE":"８７巷","ALLEY":"１４１弄","HOUSE_NO":"３號","E_COORD97":170138.48999999999,"N_COORD97":2545894.8700000001,"ADDRESS":"北園街８７巷１４１弄３號","OBJECTID":29924},"geometry":{"x":170138.49000000115,"y":2545894.8700000029}},{"attributes":{"ID":29925,"DIS_CODE":0,"TOWNNAME":"北區","LI":"開元里","LIN":"17鄰","STREET":"北園街","SECT":" ","MAREA":" ","LANE":"８７巷","ALLEY":"１４１弄","HOUSE_NO":"４號","E_COORD97":170138.37,"N_COORD97":2545900.2000000002,"ADDRESS":"北園街８７巷１４１弄４號","OBJECTID":29925},"geometry":{"x":170138.37000000197,"y":2545900.1999999974}},{"attributes":{"ID":29926,"DIS_CODE":0,"TOWNNAME":"北區","LI":"開元里","LIN":"17鄰","STREET":"北園街","SECT":" ","MAREA":" ","LANE":"８７巷","ALLEY":"１４１弄","HOUSE_NO":"５號","E_COORD97":170132.48000000001,"N_COORD97":2545895.0099999998,"ADDRESS":"北園街８７巷１４１弄５號","OBJECTID":29926},"geometry":{"x":170132.48000000045,"y":2545895.0099999998}},{"attributes":{"ID":29927,"DIS_CODE":0,"TOWNNAME":"北區","LI":"開元里","LIN":"17鄰","STREET":"北園街","SECT":" ","MAREA":" ","LANE":"８７巷","ALLEY":"１４１弄","HOUSE_NO":"６號","E_COORD97":170132.78,"N_COORD97":2545900.4399999999,"ADDRESS":"北園街８７巷１４１弄６號","OBJECTID":29927},"geometry":{"x":170132.78000000119,"y":2545900.4400000013}},{"attributes":{"ID":29928,"DIS_CODE":0,"TOWNNAME":"北區","LI":"開元里","LIN":"17鄰","STREET":"北園街","SECT":" ","MAREA":" ","LANE":"８７巷","ALLEY":"１４１弄","HOUSE_NO":"７號","E_COORD97":170127.06,"N_COORD97":2545895.8100000001,"ADDRESS":"北園街８７巷１４１弄７號","OBJECTID":29928},"geometry":{"x":170127.06000000052,"y":2545895.8100000024}},{"attributes":{"ID":29929,"DIS_CODE":0,"TOWNNAME":"北區","LI":"開元里","LIN":"17鄰","STREET":"北園街","SECT":" ","MAREA":" ","LANE":"８７巷","ALLEY":"１４１弄","HOUSE_NO":"８號","E_COORD97":170125.32000000001,"N_COORD97":2545901.0899999999,"ADDRESS":"北園街８７巷１４１弄８號","OBJECTID":29929},"geometry":{"x":170125.32000000216,"y":2545901.0899999999}},{"attributes":{"ID":29930,"DIS_CODE":0,"TOWNNAME":"北區","LI":"開元里","LIN":"17鄰","STREET":"北園街","SECT":" ","MAREA":" ","LANE":"８７巷","ALLEY":"１４１弄","HOUSE_NO":"９號","E_COORD97":170121.79999999999,"N_COORD97":2545896.1400000001,"ADDRESS":"北園街８７巷１４１弄９號","OBJECTID":29930},"geometry":{"x":170121.80000000075,"y":2545896.1400000025}},{"attributes":{"ID":29931,"DIS_CODE":0,"TOWNNAME":"北區","LI":"開元里","LIN":"17鄰","STREET":"北園街","SECT":" ","MAREA":" ","LANE":"８７巷","ALLEY":"１５１弄","HOUSE_NO":"１１號","E_COORD97":170114.10000000001,"N_COORD97":2545920.75,"ADDRESS":"北園街８７巷１５１弄１１號","OBJECTID":29931},"geometry":{"x":170114.0999999987,"y":2545920.75}},{"attributes":{"ID":29932,"DIS_CODE":0,"TOWNNAME":"北區","LI":"開元里","LIN":"17鄰","STREET":"北園街","SECT":" ","MAREA":" ","LANE":"８７巷","ALLEY":"１５１弄","HOUSE_NO":"１３號","E_COORD97":170107.70999999999,"N_COORD97":2545920.9100000001,"ADDRESS":"北園街８７巷１５１弄１３號","OBJECTID":29932},"geometry":{"x":170107.71000000089,"y":2545920.910000002}},{"attributes":{"ID":29933,"DIS_CODE":0,"TOWNNAME":"北區","LI":"開元里","LIN":"17鄰","STREET":"北園街","SECT":" ","MAREA":" ","LANE":"８７巷","ALLEY":"１５１弄","HOUSE_NO":"１５號","E_COORD97":170101.63,"N_COORD97":2545921.5600000001,"ADDRESS":"北園街８７巷１５１弄１５號","OBJECTID":29933},"geometry":{"x":170101.62999999989,"y":2545921.5600000005}},{"attributes":{"ID":29934,"DIS_CODE":0,"TOWNNAME":"北區","LI":"開元里","LIN":"17鄰","STREET":"北園街","SECT":" ","MAREA":" ","LANE":"８７巷","ALLEY":"１５１弄","HOUSE_NO":"１７號","E_COORD97":170094.75,"N_COORD97":2545921.6499999999,"ADDRESS":"北園街８７巷１５１弄１７號","OBJECTID":29934},"geometry":{"x":170094.75,"y":2545921.6500000004}},{"attributes":{"ID":29935,"DIS_CODE":0,"TOWNNAME":"北區","LI":"開元里","LIN":"17鄰","STREET":"北園街","SECT":" ","MAREA":" ","LANE":"８７巷","ALLEY":"１５１弄","HOUSE_NO":"１９號","E_COORD97":170088.76000000001,"N_COORD97":2545922.0499999998,"ADDRESS":"北園街８７巷１５１弄１９號","OBJECTID":29935},"geometry":{"x":170088.75999999978,"y":2545922.0500000007}},{"attributes":{"ID":29936,"DIS_CODE":0,"TOWNNAME":"南化區","LI":"中坑里","LIN":"8鄰","STREET":" ","SECT":" ","MAREA":"中坑","LANE":" ","ALLEY":" ","HOUSE_NO":"６１號","E_COORD97":193996.56,"N_COORD97":2550596.7799999998,"ADDRESS":"中坑６１號","OBJECTID":29936},"geometry":{"x":193996.56000000052,"y":2550596.7800000012}},{"attributes":{"ID":29937,"DIS_CODE":0,"TOWNNAME":"南化區","LI":"南化里","LIN":"8鄰","STREET":" ","SECT":" ","MAREA":"南化","LANE":" ","ALLEY":" ","HOUSE_NO":"１５９號","E_COORD97":196450.84,"N_COORD97":2549110.75,"ADDRESS":"南化１５９號","OBJECTID":29937},"geometry":{"x":196450.83999999985,"y":2549110.75}},{"attributes":{"ID":29938,"DIS_CODE":0,"TOWNNAME":"南化區","LI":"南化里","LIN":"8鄰","STREET":" ","SECT":" ","MAREA":"南化","LANE":" ","ALLEY":" ","HOUSE_NO":"１５４號","E_COORD97":196439.14000000001,"N_COORD97":2549103.75,"ADDRESS":"南化１５４號","OBJECTID":29938},"geometry":{"x":196439.1400000006,"y":2549103.75}},{"attributes":{"ID":29939,"DIS_CODE":0,"TOWNNAME":"南化區","LI":"小崙里","LIN":"8鄰","STREET":" ","SECT":" ","MAREA":"小崙","LANE":" ","ALLEY":" ","HOUSE_NO":"８８號","E_COORD97":198792.07000000001,"N_COORD97":2550112.75,"ADDRESS":"小崙８８號","OBJECTID":29939},"geometry":{"x":198792.0700000003,"y":2550112.7500000019}},{"attributes":{"ID":29940,"DIS_CODE":0,"TOWNNAME":"南化區","LI":"西埔里","LIN":"8鄰","STREET":" ","SECT":" ","MAREA":"西埔","LANE":" ","ALLEY":" ","HOUSE_NO":"６７號","E_COORD97":193561.34,"N_COORD97":2548047.75,"ADDRESS":"西埔６７號","OBJECTID":29940},"geometry":{"x":193561.34000000078,"y":2548047.7500000019}},{"attributes":{"ID":29941,"DIS_CODE":0,"TOWNNAME":"南化區","LI":"中坑里","LIN":"8鄰","STREET":" ","SECT":" ","MAREA":"中坑","LANE":" ","ALLEY":" ","HOUSE_NO":"６２之２號","E_COORD97":193984.67000000001,"N_COORD97":2550521.6400000001,"ADDRESS":"中坑６２之２號","OBJECTID":29941},"geometry":{"x":193984.67000000086,"y":2550521.6400000006}},{"attributes":{"ID":29942,"DIS_CODE":0,"TOWNNAME":"左鎮區","LI":"澄山里","LIN":"8鄰","STREET":" ","SECT":" ","MAREA":"澄山","LANE":" ","ALLEY":" ","HOUSE_NO":"７６號之３","E_COORD97":187219.92999999999,"N_COORD97":2547199.2999999998,"ADDRESS":"澄山７６號之３","OBJECTID":29942},"geometry":{"x":187219.93000000156,"y":2547199.3000000007}},{"attributes":{"ID":29943,"DIS_CODE":0,"TOWNNAME":"左鎮區","LI":"澄山里","LIN":"8鄰","STREET":" ","SECT":" ","MAREA":"澄山","LANE":" ","ALLEY":" ","HOUSE_NO":"８７號","E_COORD97":186839.89000000001,"N_COORD97":2546717.25,"ADDRESS":"澄山８７號","OBJECTID":29943},"geometry":{"x":186839.88999999966,"y":2546717.25}},{"attributes":{"ID":29944,"DIS_CODE":0,"TOWNNAME":"左鎮區","LI":"榮和里","LIN":"8鄰","STREET":" ","SECT":" ","MAREA":"菜寮","LANE":" ","ALLEY":" ","HOUSE_NO":"６８號之６","E_COORD97":188151.17999999999,"N_COORD97":2550889.2999999998,"ADDRESS":"菜寮６８號之６","OBJECTID":29944},"geometry":{"x":188151.18000000063,"y":2550889.3000000026}},{"attributes":{"ID":29945,"DIS_CODE":0,"TOWNNAME":"左鎮區","LI":"榮和里","LIN":"8鄰","STREET":" ","SECT":" ","MAREA":"菜寮","LANE":" ","ALLEY":" ","HOUSE_NO":"７７號之１","E_COORD97":188359.78,"N_COORD97":2550719.2999999998,"ADDRESS":"菜寮７７號之１","OBJECTID":29945},"geometry":{"x":188359.78000000119,"y":2550719.3000000026}},{"attributes":{"ID":29946,"DIS_CODE":0,"TOWNNAME":"左鎮區","LI":"岡林里","LIN":"8鄰","STREET":" ","SECT":" ","MAREA":"岡林","LANE":" ","ALLEY":" ","HOUSE_NO":"８２號之１","E_COORD97":189594.89999999999,"N_COORD97":2546287.2999999998,"ADDRESS":"岡林８２號之１","OBJECTID":29946},"geometry":{"x":189594.9000000013,"y":2546287.3000000007}},{"attributes":{"ID":29947,"DIS_CODE":0,"TOWNNAME":"左鎮區","LI":"內庄里","LIN":"8鄰","STREET":" ","SECT":" ","MAREA":"內庄","LANE":" ","ALLEY":" ","HOUSE_NO":"７６號之１","E_COORD97":191710.45999999999,"N_COORD97":2549261.2999999998,"ADDRESS":"內庄７６號之１","OBJECTID":29947},"geometry":{"x":191710.45999999903,"y":2549261.3000000045}},{"attributes":{"ID":29948,"DIS_CODE":0,"TOWNNAME":"左鎮區","LI":"光和里","LIN":"8鄰","STREET":" ","SECT":" ","MAREA":"光和","LANE":" ","ALLEY":" ","HOUSE_NO":"８９號之１","E_COORD97":186255.78,"N_COORD97":2549725.2999999998,"ADDRESS":"光和８９號之１","OBJECTID":29948},"geometry":{"x":186255.78000000119,"y":2549725.3000000007}},{"attributes":{"ID":29949,"DIS_CODE":0,"TOWNNAME":"左鎮區","LI":"澄山里","LIN":"8鄰","STREET":" ","SECT":" ","MAREA":"澄山","LANE":" ","ALLEY":" ","HOUSE_NO":"７６號之１","E_COORD97":187188.03,"N_COORD97":2547277.2999999998,"ADDRESS":"澄山７６號之１","OBJECTID":29949},"geometry":{"x":187188.03000000119,"y":2547277.3000000007}},{"attributes":{"ID":29950,"DIS_CODE":0,"TOWNNAME":"左鎮區","LI":"內庄里","LIN":"8鄰","STREET":" ","SECT":" ","MAREA":"內庄","LANE":" ","ALLEY":" ","HOUSE_NO":"７６號之３","E_COORD97":191682.85999999999,"N_COORD97":2549224.2999999998,"ADDRESS":"內庄７６號之３","OBJECTID":29950},"geometry":{"x":191682.8600000022,"y":2549224.3000000026}},{"attributes":{"ID":29951,"DIS_CODE":0,"TOWNNAME":"左鎮區","LI":"光和里","LIN":"8鄰","STREET":" ","SECT":" ","MAREA":"光和","LANE":" ","ALLEY":" ","HOUSE_NO":"８２號之３","E_COORD97":186659.37,"N_COORD97":2549998.2999999998,"ADDRESS":"光和８２號之３","OBJECTID":29951},"geometry":{"x":186659.37000000011,"y":2549998.3000000026}},{"attributes":{"ID":29952,"DIS_CODE":0,"TOWNNAME":"左鎮區","LI":"光和里","LIN":"8鄰","STREET":" ","SECT":" ","MAREA":"光和","LANE":" ","ALLEY":" ","HOUSE_NO":"８９號之６","E_COORD97":185852.98000000001,"N_COORD97":2549692.2999999998,"ADDRESS":"光和８９號之６","OBJECTID":29952},"geometry":{"x":185852.98000000138,"y":2549692.3000000026}},{"attributes":{"ID":29953,"DIS_CODE":0,"TOWNNAME":"左鎮區","LI":"光和里","LIN":"8鄰","STREET":" ","SECT":" ","MAREA":"光和","LANE":" ","ALLEY":" ","HOUSE_NO":"８５號","E_COORD97":186609.14000000001,"N_COORD97":2550041.25,"ADDRESS":"光和８５號","OBJECTID":29953},"geometry":{"x":186609.13999999966,"y":2550041.2500000019}},{"attributes":{"ID":29954,"DIS_CODE":0,"TOWNNAME":"左鎮區","LI":"內庄里","LIN":"8鄰","STREET":" ","SECT":" ","MAREA":"內庄","LANE":" ","ALLEY":" ","HOUSE_NO":"７６號之４","E_COORD97":191689.48999999999,"N_COORD97":2549225.2999999998,"ADDRESS":"內庄７６號之４","OBJECTID":29954},"geometry":{"x":191689.49000000022,"y":2549225.3000000026}},{"attributes":{"ID":29955,"DIS_CODE":0,"TOWNNAME":"左鎮區","LI":"中正里","LIN":"8鄰","STREET":" ","SECT":" ","MAREA":"中正","LANE":" ","ALLEY":" ","HOUSE_NO":"１１７號之１","E_COORD97":189245.25,"N_COORD97":2550854.2999999998,"ADDRESS":"中正１１７號之１","OBJECTID":29955},"geometry":{"x":189245.25,"y":2550854.3000000007}},{"attributes":{"ID":29956,"DIS_CODE":0,"TOWNNAME":"左鎮區","LI":"榮和里","LIN":"8鄰","STREET":" ","SECT":" ","MAREA":"菜寮","LANE":" ","ALLEY":" ","HOUSE_NO":"６８號之３","E_COORD97":188210.57000000001,"N_COORD97":2550773.2999999998,"ADDRESS":"菜寮６８號之３","OBJECTID":29956},"geometry":{"x":188210.5700000003,"y":2550773.3000000045}},{"attributes":{"ID":29957,"DIS_CODE":0,"TOWNNAME":"北區","LI":"開元里","LIN":"17鄰","STREET":"北園街","SECT":" ","MAREA":" ","LANE":"８７巷","ALLEY":"１５１弄","HOUSE_NO":"１號","E_COORD97":170149.87,"N_COORD97":2545917.8399999999,"ADDRESS":"北園街８７巷１５１弄１號","OBJECTID":29957},"geometry":{"x":170149.87000000011,"y":2545917.8400000017}},{"attributes":{"ID":29958,"DIS_CODE":0,"TOWNNAME":"北區","LI":"開元里","LIN":"17鄰","STREET":"北園街","SECT":" ","MAREA":" ","LANE":"８７巷","ALLEY":"１５１弄","HOUSE_NO":"３號","E_COORD97":170142.10000000001,"N_COORD97":2545918.73,"ADDRESS":"北園街８７巷１５１弄３號","OBJECTID":29958},"geometry":{"x":170142.10000000056,"y":2545918.7300000023}},{"attributes":{"ID":29959,"DIS_CODE":0,"TOWNNAME":"北區","LI":"開元里","LIN":"17鄰","STREET":"北園街","SECT":" ","MAREA":" ","LANE":"８７巷","ALLEY":"１５１弄","HOUSE_NO":"５號","E_COORD97":170134.09,"N_COORD97":2545918.6499999999,"ADDRESS":"北園街８７巷１５１弄５號","OBJECTID":29959},"geometry":{"x":170134.08999999985,"y":2545918.6499999985}},{"attributes":{"ID":29960,"DIS_CODE":0,"TOWNNAME":"北區","LI":"開元里","LIN":"17鄰","STREET":"北園街","SECT":" ","MAREA":" ","LANE":"８７巷","ALLEY":"１５１弄","HOUSE_NO":"７號","E_COORD97":170126.16,"N_COORD97":2545920.2599999998,"ADDRESS":"北園街８７巷１５１弄７號","OBJECTID":29960},"geometry":{"x":170126.15999999922,"y":2545920.2599999998}},{"attributes":{"ID":29961,"DIS_CODE":0,"TOWNNAME":"北區","LI":"開元里","LIN":"17鄰","STREET":"北園街","SECT":" ","MAREA":" ","LANE":"８７巷","ALLEY":"１５１弄","HOUSE_NO":"９號","E_COORD97":170120.17000000001,"N_COORD97":2545920.75,"ADDRESS":"北園街８７巷１５１弄９號","OBJECTID":29961},"geometry":{"x":170120.16999999993,"y":2545920.75}},{"attributes":{"ID":29962,"DIS_CODE":0,"TOWNNAME":"新營區","LI":"新南里","LIN":"17鄰","STREET":"隋唐街","SECT":" ","MAREA":" ","LANE":"３１巷","ALLEY":"６弄","HOUSE_NO":"１９號","E_COORD97":178651.10999999999,"N_COORD97":2578447.3700000001,"ADDRESS":"隋唐街３１巷６弄１９號","OBJECTID":29962},"geometry":{"x":178651.11000000034,"y":2578447.370000001}},{"attributes":{"ID":29963,"DIS_CODE":0,"TOWNNAME":"新營區","LI":"忠政里","LIN":"17鄰","STREET":"府西路","SECT":" ","MAREA":" ","LANE":"２５８巷","ALLEY":"１４弄","HOUSE_NO":"１１號","E_COORD97":179845.63,"N_COORD97":2579704.1600000001,"ADDRESS":"府西路２５８巷１４弄１１號","OBJECTID":29963},"geometry":{"x":179845.62999999989,"y":2579704.160000002}},{"attributes":{"ID":29964,"DIS_CODE":0,"TOWNNAME":"新營區","LI":"新東里","LIN":"17鄰","STREET":"東興四街","SECT":" ","MAREA":" ","LANE":"３２巷","ALLEY":"３１弄","HOUSE_NO":"１５號","E_COORD97":180948.42000000001,"N_COORD97":2579096.52,"ADDRESS":"東興四街３２巷３１弄１５號","OBJECTID":29964},"geometry":{"x":180948.42000000086,"y":2579096.5199999996}},{"attributes":{"ID":29965,"DIS_CODE":0,"TOWNNAME":"北區","LI":"成功里","LIN":"17鄰","STREET":"北成路","SECT":" ","MAREA":" ","LANE":"８０巷","ALLEY":"６１弄","HOUSE_NO":"２０號","E_COORD97":169036.85000000001,"N_COORD97":2546855.3300000001,"ADDRESS":"北成路８０巷６１弄２０號","OBJECTID":29965},"geometry":{"x":169036.85000000056,"y":2546855.3300000001}},{"attributes":{"ID":29966,"DIS_CODE":0,"TOWNNAME":"鹽水區","LI":"岸內里","LIN":"17鄰","STREET":"北門路","SECT":" ","MAREA":" ","LANE":"１巷","ALLEY":"３弄","HOUSE_NO":"３５號","E_COORD97":174993.66,"N_COORD97":2580414.6699999999,"ADDRESS":"北門路１巷３弄３５號","OBJECTID":29966},"geometry":{"x":174993.66000000108,"y":2580414.6699999999}},{"attributes":{"ID":29967,"DIS_CODE":0,"TOWNNAME":"鹽水區","LI":"岸內里","LIN":"17鄰","STREET":"北門路","SECT":" ","MAREA":" ","LANE":"１巷","ALLEY":"３弄","HOUSE_NO":"３６號","E_COORD97":174989.39000000001,"N_COORD97":2580414.2599999998,"ADDRESS":"北門路１巷３弄３６號","OBJECTID":29967},"geometry":{"x":174989.39000000153,"y":2580414.2599999998}},{"attributes":{"ID":29968,"DIS_CODE":0,"TOWNNAME":"佳里區","LI":"鎮山里","LIN":"14鄰","STREET":"安南路","SECT":" ","MAREA":" ","LANE":" ","ALLEY":" ","HOUSE_NO":"５４號","E_COORD97":165945.29999999999,"N_COORD97":2561340.6600000001,"ADDRESS":"安南路５４號","OBJECTID":29968},"geometry":{"x":165945.30000000075,"y":2561340.6600000001}},{"attributes":{"ID":29969,"DIS_CODE":0,"TOWNNAME":"佳里區","LI":"鎮山里","LIN":"14鄰","STREET":"安南路","SECT":" ","MAREA":" ","LANE":" ","ALLEY":" ","HOUSE_NO":"５６號","E_COORD97":165933.20999999999,"N_COORD97":2561340.7999999998,"ADDRESS":"安南路５６號","OBJECTID":29969},"geometry":{"x":165933.20999999996,"y":2561340.7999999989}},{"attributes":{"ID":29970,"DIS_CODE":0,"TOWNNAME":"佳里區","LI":"鎮山里","LIN":"14鄰","STREET":"安南路","SECT":" ","MAREA":" ","LANE":" ","ALLEY":" ","HOUSE_NO":"８號","E_COORD97":166027.85999999999,"N_COORD97":2561387.7799999998,"ADDRESS":"安南路８號","OBJECTID":29970},"geometry":{"x":166027.8600000022,"y":2561387.7800000012}},{"attributes":{"ID":29971,"DIS_CODE":0,"TOWNNAME":"安南區","LI":"州北里","LIN":"14鄰","STREET":"安和路","SECT":"五段","MAREA":" ","LANE":" ","ALLEY":" ","HOUSE_NO":"１６６之１號","E_COORD97":169886.51999999999,"N_COORD97":2551830.3500000001,"ADDRESS":"安和路五段１６６之１號","OBJECTID":29971},"geometry":{"x":169886.52000000048,"y":2551830.3500000015}},{"attributes":{"ID":29972,"DIS_CODE":0,"TOWNNAME":"安南區","LI":"總頭里","LIN":"14鄰","STREET":"長溪路","SECT":"二段","MAREA":" ","LANE":" ","ALLEY":" ","HOUSE_NO":"２８８號之１","E_COORD97":168404.79999999999,"N_COORD97":2549828.9399999999,"ADDRESS":"長溪路二段２８８號之１","OBJECTID":29972},"geometry":{"x":168404.80000000075,"y":2549828.9400000013}},{"attributes":{"ID":29973,"DIS_CODE":0,"TOWNNAME":"安南區","LI":"佃東里","LIN":"14鄰","STREET":"公學路","SECT":"三段","MAREA":" ","LANE":" ","ALLEY":" ","HOUSE_NO":"３５２號","E_COORD97":166277,"N_COORD97":2552116.3799999999,"ADDRESS":"公學路三段３５２號","OBJECTID":29973},"geometry":{"x":166277,"y":2552116.379999999}},{"attributes":{"ID":29974,"DIS_CODE":0,"TOWNNAME":"鹽水區","LI":"岸內里","LIN":"17鄰","STREET":"北門路","SECT":" ","MAREA":" ","LANE":"１巷","ALLEY":"３弄","HOUSE_NO":"３７號","E_COORD97":174984.09,"N_COORD97":2580414.1600000001,"ADDRESS":"北門路１巷３弄３７號","OBJECTID":29974},"geometry":{"x":174984.08999999985,"y":2580414.1600000001}},{"attributes":{"ID":29975,"DIS_CODE":0,"TOWNNAME":"鹽水區","LI":"岸內里","LIN":"17鄰","STREET":"北門路","SECT":" ","MAREA":" ","LANE":"１巷","ALLEY":"３弄","HOUSE_NO":"３８號","E_COORD97":174980.23000000001,"N_COORD97":2580413.6699999999,"ADDRESS":"北門路１巷３弄３８號","OBJECTID":29975},"geometry":{"x":174980.23000000138,"y":2580413.6699999999}},{"attributes":{"ID":29976,"DIS_CODE":0,"TOWNNAME":"鹽水區","LI":"岸內里","LIN":"17鄰","STREET":"北門路","SECT":" ","MAREA":" ","LANE":"１巷","ALLEY":"３弄","HOUSE_NO":"３９號","E_COORD97":174975.88,"N_COORD97":2580413.3599999999,"ADDRESS":"北門路１巷３弄３９號","OBJECTID":29976},"geometry":{"x":174975.87999999989,"y":2580413.3599999975}},{"attributes":{"ID":29977,"DIS_CODE":0,"TOWNNAME":"鹽水區","LI":"岸內里","LIN":"17鄰","STREET":"北門路","SECT":" ","MAREA":" ","LANE":"１巷","ALLEY":"３弄","HOUSE_NO":"４１號","E_COORD97":174967.26999999999,"N_COORD97":2580413.27,"ADDRESS":"北門路１巷３弄４１號","OBJECTID":29977},"geometry":{"x":174967.26999999955,"y":2580413.2699999996}},{"attributes":{"ID":29978,"DIS_CODE":0,"TOWNNAME":"鹽水區","LI":"岸內里","LIN":"17鄰","STREET":"北門路","SECT":" ","MAREA":" ","LANE":"１巷","ALLEY":"３弄","HOUSE_NO":"４２號","E_COORD97":174962.57000000001,"N_COORD97":2580413.0099999998,"ADDRESS":"北門路１巷３弄４２號","OBJECTID":29978},"geometry":{"x":174962.5700000003,"y":2580413.0100000035}},{"attributes":{"ID":29979,"DIS_CODE":0,"TOWNNAME":"鹽水區","LI":"岸內里","LIN":"17鄰","STREET":"北門路","SECT":" ","MAREA":" ","LANE":"１巷","ALLEY":"３弄","HOUSE_NO":"４３號","E_COORD97":174958.23999999999,"N_COORD97":2580412.4500000002,"ADDRESS":"北門路１巷３弄４３號","OBJECTID":29979},"geometry":{"x":174958.24000000022,"y":2580412.4499999993}},{"attributes":{"ID":29980,"DIS_CODE":0,"TOWNNAME":"鹽水區","LI":"岸內里","LIN":"17鄰","STREET":"北門路","SECT":" ","MAREA":" ","LANE":"１巷","ALLEY":"３弄","HOUSE_NO":"４５號","E_COORD97":174954.01000000001,"N_COORD97":2580412.5699999998,"ADDRESS":"北門路１巷３弄４５號","OBJECTID":29980},"geometry":{"x":174954.00999999978,"y":2580412.5700000003}},{"attributes":{"ID":29981,"DIS_CODE":0,"TOWNNAME":"鹽水區","LI":"岸內里","LIN":"17鄰","STREET":"北門路","SECT":" ","MAREA":" ","LANE":"１巷","ALLEY":"４弄","HOUSE_NO":"１０號","E_COORD97":174996.41,"N_COORD97":2580442.6600000001,"ADDRESS":"北門路１巷４弄１０號","OBJECTID":29981},"geometry":{"x":174996.40999999922,"y":2580442.6600000039}},{"attributes":{"ID":29982,"DIS_CODE":0,"TOWNNAME":"鹽水區","LI":"岸內里","LIN":"17鄰","STREET":"北門路","SECT":" ","MAREA":" ","LANE":"１巷","ALLEY":"４弄","HOUSE_NO":"１１號","E_COORD97":174992.19,"N_COORD97":2580442.3700000001,"ADDRESS":"北門路１巷４弄１１號","OBJECTID":29982},"geometry":{"x":174992.19000000134,"y":2580442.3700000048}},{"attributes":{"ID":29983,"DIS_CODE":0,"TOWNNAME":"七股區","LI":"頂山里","LIN":"14鄰","STREET":" ","SECT":" ","MAREA":"頂山","LANE":" ","ALLEY":" ","HOUSE_NO":"１３４號","E_COORD97":158933.37,"N_COORD97":2564618.1800000002,"ADDRESS":"頂山１３４號","OBJECTID":29983},"geometry":{"x":158933.37000000104,"y":2564618.1799999997}},{"attributes":{"ID":29984,"DIS_CODE":0,"TOWNNAME":"七股區","LI":"頂山里","LIN":"14鄰","STREET":" ","SECT":" ","MAREA":"頂山","LANE":" ","ALLEY":" ","HOUSE_NO":"１３５號","E_COORD97":158942.04000000001,"N_COORD97":2564610.9300000002,"ADDRESS":"頂山１３５號","OBJECTID":29984},"geometry":{"x":158942.0400000019,"y":2564610.9300000034}},{"attributes":{"ID":29985,"DIS_CODE":0,"TOWNNAME":"七股區","LI":"頂山里","LIN":"14鄰","STREET":" ","SECT":" ","MAREA":"頂山","LANE":" ","ALLEY":" ","HOUSE_NO":"１３７號","E_COORD97":158955.39000000001,"N_COORD97":2564619.7999999998,"ADDRESS":"頂山１３７號","OBJECTID":29985},"geometry":{"x":158955.3900000006,"y":2564619.8000000045}},{"attributes":{"ID":29986,"DIS_CODE":0,"TOWNNAME":"七股區","LI":"頂山里","LIN":"14鄰","STREET":" ","SECT":" ","MAREA":"頂山","LANE":" ","ALLEY":" ","HOUSE_NO":"１３８號","E_COORD97":158949.54999999999,"N_COORD97":2564635.98,"ADDRESS":"頂山１３８號","OBJECTID":29986},"geometry":{"x":158949.54999999981,"y":2564635.9800000023}},{"attributes":{"ID":29987,"DIS_CODE":0,"TOWNNAME":"左鎮區","LI":"中正里","LIN":"8鄰","STREET":" ","SECT":" ","MAREA":"中正","LANE":" ","ALLEY":" ","HOUSE_NO":"１１３號","E_COORD97":189272.70999999999,"N_COORD97":2550874.25,"ADDRESS":"中正１１３號","OBJECTID":29987},"geometry":{"x":189272.70999999996,"y":2550874.2499999981}},{"attributes":{"ID":29988,"DIS_CODE":0,"TOWNNAME":"左鎮區","LI":"中正里","LIN":"8鄰","STREET":" ","SECT":" ","MAREA":"中正","LANE":" ","ALLEY":" ","HOUSE_NO":"１０５號","E_COORD97":189271.70999999999,"N_COORD97":2550900.25,"ADDRESS":"中正１０５號","OBJECTID":29988},"geometry":{"x":189271.71000000089,"y":2550900.25}},{"attributes":{"ID":29989,"DIS_CODE":0,"TOWNNAME":"左鎮區","LI":"榮和里","LIN":"8鄰","STREET":" ","SECT":" ","MAREA":"菜寮","LANE":" ","ALLEY":" ","HOUSE_NO":"６８號","E_COORD97":188217.14000000001,"N_COORD97":2550806.2400000002,"ADDRESS":"菜寮６８號","OBJECTID":29989},"geometry":{"x":188217.1400000006,"y":2550806.2400000002}},{"attributes":{"ID":29990,"DIS_CODE":0,"TOWNNAME":"左鎮區","LI":"左鎮里","LIN":"8鄰","STREET":" ","SECT":" ","MAREA":"左鎮","LANE":" ","ALLEY":" ","HOUSE_NO":"７８號","E_COORD97":188597.57000000001,"N_COORD97":2549774.25,"ADDRESS":"左鎮７８號","OBJECTID":29990},"geometry":{"x":188597.5700000003,"y":2549774.2500000019}},{"attributes":{"ID":29991,"DIS_CODE":0,"TOWNNAME":"左鎮區","LI":"中正里","LIN":"8鄰","STREET":" ","SECT":" ","MAREA":"中正","LANE":" ","ALLEY":" ","HOUSE_NO":"１０８號","E_COORD97":189265.31,"N_COORD97":2550896.25,"ADDRESS":"中正１０８號","OBJECTID":29991},"geometry":{"x":189265.31000000052,"y":2550896.2500000019}},{"attributes":{"ID":29992,"DIS_CODE":0,"TOWNNAME":"左鎮區","LI":"中正里","LIN":"8鄰","STREET":" ","SECT":" ","MAREA":"中正","LANE":" ","ALLEY":" ","HOUSE_NO":"１０７號","E_COORD97":189263.70999999999,"N_COORD97":2550901.25,"ADDRESS":"中正１０７號","OBJECTID":29992},"geometry":{"x":189263.70999999996,"y":2550901.25}},{"attributes":{"ID":29993,"DIS_CODE":0,"TOWNNAME":"左鎮區","LI":"中正里","LIN":"8鄰","STREET":" ","SECT":" ","MAREA":"中正","LANE":" ","ALLEY":" ","HOUSE_NO":"１０３號","E_COORD97":189272.81,"N_COORD97":2550897.25,"ADDRESS":"中正１０３號","OBJECTID":29993},"geometry":{"x":189272.80999999959,"y":2550897.25}},{"attributes":{"ID":29994,"DIS_CODE":0,"TOWNNAME":"左鎮區","LI":"中正里","LIN":"8鄰","STREET":" ","SECT":" ","MAREA":"中正","LANE":" ","ALLEY":" ","HOUSE_NO":"１１７號","E_COORD97":189257.60999999999,"N_COORD97":2550859.25,"ADDRESS":"中正１１７號","OBJECTID":29994},"geometry":{"x":189257.61000000127,"y":2550859.2500000019}},{"attributes":{"ID":29995,"DIS_CODE":0,"TOWNNAME":"左鎮區","LI":"中正里","LIN":"8鄰","STREET":" ","SECT":" ","MAREA":"中正","LANE":" ","ALLEY":" ","HOUSE_NO":"１１１號","E_COORD97":189270.01000000001,"N_COORD97":2550883.25,"ADDRESS":"中正１１１號","OBJECTID":29995},"geometry":{"x":189270.00999999978,"y":2550883.25}},{"attributes":{"ID":29996,"DIS_CODE":0,"TOWNNAME":"左鎮區","LI":"左鎮里","LIN":"8鄰","STREET":" ","SECT":" ","MAREA":"左鎮","LANE":" ","ALLEY":" ","HOUSE_NO":"８０號之１","E_COORD97":188572,"N_COORD97":2549821.2999999998,"ADDRESS":"左鎮８０號之１","OBJECTID":29996},"geometry":{"x":188572,"y":2549821.3000000026}},{"attributes":{"ID":29997,"DIS_CODE":0,"TOWNNAME":"左鎮區","LI":"左鎮里","LIN":"8鄰","STREET":" ","SECT":" ","MAREA":"左鎮","LANE":" ","ALLEY":" ","HOUSE_NO":"８０號","E_COORD97":188621.07000000001,"N_COORD97":2549824.25,"ADDRESS":"左鎮８０號","OBJECTID":29997},"geometry":{"x":188621.0700000003,"y":2549824.2500000019}},{"attributes":{"ID":29998,"DIS_CODE":0,"TOWNNAME":"左鎮區","LI":"內庄里","LIN":"8鄰","STREET":" ","SECT":" ","MAREA":"內庄","LANE":" ","ALLEY":" ","HOUSE_NO":"７７號之１","E_COORD97":191762.06,"N_COORD97":2549280.2999999998,"ADDRESS":"內庄７７號之１","OBJECTID":29998},"geometry":{"x":191762.06000000145,"y":2549280.3000000007}},{"attributes":{"ID":29999,"DIS_CODE":0,"TOWNNAME":"左鎮區","LI":"左鎮里","LIN":"8鄰","STREET":" ","SECT":" ","MAREA":"左鎮","LANE":" ","ALLEY":" ","HOUSE_NO":"８０號之２","E_COORD97":188586.54000000001,"N_COORD97":2549859.2999999998,"ADDRESS":"左鎮８０號之２","OBJECTID":29999},"geometry":{"x":188586.54000000097,"y":2549859.3000000026}},{"attributes":{"ID":30000,"DIS_CODE":0,"TOWNNAME":"左鎮區","LI":"內庄里","LIN":"8鄰","STREET":" ","SECT":" ","MAREA":"內庄","LANE":" ","ALLEY":" ","HOUSE_NO":"７５號之３","E_COORD97":191891.45999999999,"N_COORD97":2549149.2999999998,"ADDRESS":"內庄７５號之３","OBJECTID":30000},"geometry":{"x":191891.45999999996,"y":2549149.3000000045}}]}