{"displayFieldName":"TOWNNAME","fieldAliases":{"ID":"ID","DIS_CODE":"DIS_CODE","TOWNNAME":"TOWNNAME","LI":"LI","LIN":"LIN","STREET":"STREET","SECT":"SECT","MAREA":"MAREA","LANE":"LANE","ALLEY":"ALLEY","HOUSE_NO":"HOUSE_NO","E_COORD97":"E_COORD97","N_COORD97":"N_COORD97","ADDRESS":"ADDRESS","OBJECTID":"OBJECTID"},"geometryType":"esriGeometryPoint","spatialReference":{"wkid":102443,"latestWkid":3826},"fields":[{"name":"ID","type":"esriFieldTypeDouble","alias":"ID"},{"name":"DIS_CODE","type":"esriFieldTypeInteger","alias":"DIS_CODE"},{"name":"TOWNNAME","type":"esriFieldTypeString","alias":"TOWNNAME","length":8},{"name":"LI","type":"esriFieldTypeString","alias":"LI","length":8},{"name":"LIN","type":"esriFieldTypeString","alias":"LIN","length":12},{"name":"STREET","type":"esriFieldTypeString","alias":"STREET","length":20},{"name":"SECT","type":"esriFieldTypeString","alias":"SECT","length":8},{"name":"MAREA","type":"esriFieldTypeString","alias":"MAREA","length":12},{"name":"LANE","type":"esriFieldTypeString","alias":"LANE","length":10},{"name":"ALLEY","type":"esriFieldTypeString","alias":"ALLEY","length":10},{"name":"HOUSE_NO","type":"esriFieldTypeString","alias":"HOUSE_NO","length":20},{"name":"E_COORD97","type":"esriFieldTypeDouble","alias":"E_COORD97"},{"name":"N_COORD97","type":"esriFieldTypeDouble","alias":"N_COORD97"},{"name":"ADDRESS","type":"esriFieldTypeString","alias":"ADDRESS","length":50},{"name":"OBJECTID","type":"esriFieldTypeOID","alias":"OBJECTID"}],"features":[{"attributes":{"ID":286207,"DIS_CODE":0,"TOWNNAME":"北區","LI":"興南里","LIN":"12鄰","STREET":"西門路","SECT":"四段","MAREA":" ","LANE":"１６巷","ALLEY":" ","HOUSE_NO":"３７號","E_COORD97":168787.76000000001,"N_COORD97":2545139.8500000001,"ADDRESS":"西門路四段１６巷３７號","OBJECTID":286201},"geometry":{"x":168787.76000000164,"y":2545139.8499999996}},{"attributes":{"ID":286208,"DIS_CODE":0,"TOWNNAME":"北區","LI":"興南里","LIN":"12鄰","STREET":"西門路","SECT":"四段","MAREA":" ","LANE":"１６巷","ALLEY":" ","HOUSE_NO":"９號","E_COORD97":168681.72,"N_COORD97":2545170.1099999999,"ADDRESS":"西門路四段１６巷９號","OBJECTID":286202},"geometry":{"x":168681.72000000067,"y":2545170.1100000013}},{"attributes":{"ID":286209,"DIS_CODE":0,"TOWNNAME":"歸仁區","LI":"七甲里","LIN":"12鄰","STREET":"丁厝街","SECT":" ","MAREA":" ","LANE":"４３巷","ALLEY":" ","HOUSE_NO":"１４號","E_COORD97":175921.34,"N_COORD97":2541970.25,"ADDRESS":"丁厝街４３巷１４號","OBJECTID":286203},"geometry":{"x":175921.34000000078,"y":2541970.25}},{"attributes":{"ID":286210,"DIS_CODE":0,"TOWNNAME":"新化區","LI":"北勢里","LIN":"8鄰","STREET":"永新路","SECT":" ","MAREA":" ","LANE":" ","ALLEY":" ","HOUSE_NO":"４７號","E_COORD97":177760.13,"N_COORD97":2550959.77,"ADDRESS":"永新路４７號","OBJECTID":286204},"geometry":{"x":177760.13000000082,"y":2550959.7700000014}},{"attributes":{"ID":286211,"DIS_CODE":0,"TOWNNAME":"新化區","LI":"北勢里","LIN":"7鄰","STREET":"金華街","SECT":"一段","MAREA":" ","LANE":" ","ALLEY":" ","HOUSE_NO":"１０號","E_COORD97":177943.95000000001,"N_COORD97":2550972.3799999999,"ADDRESS":"金華街一段１０號","OBJECTID":286205},"geometry":{"x":177943.95000000019,"y":2550972.3800000008}},{"attributes":{"ID":286212,"DIS_CODE":0,"TOWNNAME":"安南區","LI":"城中里","LIN":"7鄰","STREET":"安中路","SECT":"六段","MAREA":" ","LANE":" ","ALLEY":" ","HOUSE_NO":"６０５號","E_COORD97":160813.39000000001,"N_COORD97":2551453.6400000001,"ADDRESS":"安中路六段６０５號","OBJECTID":286206},"geometry":{"x":160813.38999999966,"y":2551453.6400000025}},{"attributes":{"ID":286213,"DIS_CODE":0,"TOWNNAME":"歸仁區","LI":"七甲里","LIN":"12鄰","STREET":"丁厝街","SECT":" ","MAREA":" ","LANE":"４３巷","ALLEY":" ","HOUSE_NO":"１２號","E_COORD97":175933.64000000001,"N_COORD97":2541970.25,"ADDRESS":"丁厝街４３巷１２號","OBJECTID":286207},"geometry":{"x":175933.64000000153,"y":2541970.25}},{"attributes":{"ID":286214,"DIS_CODE":0,"TOWNNAME":"永康區","LI":"東橋里","LIN":"22鄰","STREET":"自強路","SECT":" ","MAREA":" ","LANE":" ","ALLEY":" ","HOUSE_NO":"１２１號","E_COORD97":172898.03,"N_COORD97":2547335.7400000002,"ADDRESS":"自強路１２１號","OBJECTID":286208},"geometry":{"x":172898.03000000119,"y":2547335.7400000021}},{"attributes":{"ID":286215,"DIS_CODE":0,"TOWNNAME":"安南區","LI":"城中里","LIN":"8鄰","STREET":"青砂街","SECT":"一段","MAREA":" ","LANE":" ","ALLEY":" ","HOUSE_NO":"４８號","E_COORD97":160686.48999999999,"N_COORD97":2551511.1000000001,"ADDRESS":"青砂街一段４８號","OBJECTID":286209},"geometry":{"x":160686.49000000022,"y":2551511.0999999996}},{"attributes":{"ID":286216,"DIS_CODE":0,"TOWNNAME":"仁德區","LI":"上崙里","LIN":"3鄰","STREET":"德崙路","SECT":" ","MAREA":" ","LANE":"２３１巷","ALLEY":" ","HOUSE_NO":"４８號","E_COORD97":173750.98999999999,"N_COORD97":2538260.27,"ADDRESS":"德崙路２３１巷４８號","OBJECTID":286210},"geometry":{"x":173750.99000000022,"y":2538260.2699999996}},{"attributes":{"ID":286217,"DIS_CODE":0,"TOWNNAME":"安南區","LI":"城南里","LIN":"4鄰","STREET":"城西街","SECT":"一段","MAREA":" ","LANE":" ","ALLEY":" ","HOUSE_NO":"１１７號","E_COORD97":160606,"N_COORD97":2551347.0499999998,"ADDRESS":"城西街一段１１７號","OBJECTID":286211},"geometry":{"x":160606.00000000093,"y":2551347.0500000007}},{"attributes":{"ID":286218,"DIS_CODE":0,"TOWNNAME":"安南區","LI":"城南里","LIN":"4鄰","STREET":"城西街","SECT":"一段","MAREA":" ","LANE":" ","ALLEY":" ","HOUSE_NO":"１２１號","E_COORD97":160599.78,"N_COORD97":2551343.0800000001,"ADDRESS":"城西街一段１２１號","OBJECTID":286212},"geometry":{"x":160599.78000000026,"y":2551343.0800000001}},{"attributes":{"ID":286219,"DIS_CODE":0,"TOWNNAME":"安南區","LI":"城南里","LIN":"4鄰","STREET":"城西街","SECT":"一段","MAREA":" ","LANE":" ","ALLEY":" ","HOUSE_NO":"１３１號","E_COORD97":160594.07000000001,"N_COORD97":2551336.3700000001,"ADDRESS":"城西街一段１３１號","OBJECTID":286213},"geometry":{"x":160594.07000000123,"y":2551336.3700000029}},{"attributes":{"ID":286220,"DIS_CODE":0,"TOWNNAME":"仁德區","LI":"一甲里","LIN":"5鄰","STREET":"忠義三街","SECT":" ","MAREA":" ","LANE":"８巷","ALLEY":" ","HOUSE_NO":"６號","E_COORD97":173626.88,"N_COORD97":2541653.02,"ADDRESS":"忠義三街８巷６號","OBJECTID":286214},"geometry":{"x":173626.88000000082,"y":2541653.0199999996}},{"attributes":{"ID":286221,"DIS_CODE":0,"TOWNNAME":"六甲區","LI":"甲東里","LIN":"12鄰","STREET":"裕農街","SECT":" ","MAREA":" ","LANE":"２９２巷","ALLEY":" ","HOUSE_NO":"２號","E_COORD97":184118.31,"N_COORD97":2570028.3399999999,"ADDRESS":"裕農街２９２巷２號","OBJECTID":286215},"geometry":{"x":184118.30999999866,"y":2570028.3399999999}},{"attributes":{"ID":286222,"DIS_CODE":0,"TOWNNAME":"六甲區","LI":"甲東里","LIN":"12鄰","STREET":"裕農街","SECT":" ","MAREA":" ","LANE":"２９６巷","ALLEY":" ","HOUSE_NO":"１１號","E_COORD97":184120.47,"N_COORD97":2570037.1200000001,"ADDRESS":"裕農街２９６巷１１號","OBJECTID":286216},"geometry":{"x":184120.46999999974,"y":2570037.1200000029}},{"attributes":{"ID":286223,"DIS_CODE":0,"TOWNNAME":"六甲區","LI":"甲東里","LIN":"12鄰","STREET":"裕農街","SECT":" ","MAREA":" ","LANE":"２９６巷","ALLEY":" ","HOUSE_NO":"１３號","E_COORD97":184120.95999999999,"N_COORD97":2570041.7000000002,"ADDRESS":"裕農街２９６巷１３號","OBJECTID":286217},"geometry":{"x":184120.95999999996,"y":2570041.6999999993}},{"attributes":{"ID":286224,"DIS_CODE":0,"TOWNNAME":"六甲區","LI":"甲東里","LIN":"12鄰","STREET":"裕農街","SECT":" ","MAREA":" ","LANE":"２９６巷","ALLEY":" ","HOUSE_NO":"１５號","E_COORD97":184121.04000000001,"N_COORD97":2570046.1000000001,"ADDRESS":"裕農街２９６巷１５號","OBJECTID":286218},"geometry":{"x":184121.04000000097,"y":2570046.0999999996}},{"attributes":{"ID":286225,"DIS_CODE":0,"TOWNNAME":"六甲區","LI":"甲東里","LIN":"12鄰","STREET":"裕農街","SECT":" ","MAREA":" ","LANE":"２９６巷","ALLEY":" ","HOUSE_NO":"１７號","E_COORD97":184121.45999999999,"N_COORD97":2570050.9300000002,"ADDRESS":"裕農街２９６巷１７號","OBJECTID":286219},"geometry":{"x":184121.46000000089,"y":2570050.9299999997}},{"attributes":{"ID":286226,"DIS_CODE":0,"TOWNNAME":"六甲區","LI":"甲東里","LIN":"12鄰","STREET":"裕農街","SECT":" ","MAREA":" ","LANE":"２９６巷","ALLEY":" ","HOUSE_NO":"２０號","E_COORD97":184126.78,"N_COORD97":2570064.3599999999,"ADDRESS":"裕農街２９６巷２０號","OBJECTID":286220},"geometry":{"x":184126.78000000119,"y":2570064.3600000013}},{"attributes":{"ID":286227,"DIS_CODE":0,"TOWNNAME":"六甲區","LI":"甲東里","LIN":"12鄰","STREET":"裕農街","SECT":" ","MAREA":" ","LANE":"２９６巷","ALLEY":" ","HOUSE_NO":"２１號","E_COORD97":184122.72,"N_COORD97":2570059.6299999999,"ADDRESS":"裕農街２９６巷２１號","OBJECTID":286221},"geometry":{"x":184122.72000000067,"y":2570059.629999999}},{"attributes":{"ID":286228,"DIS_CODE":0,"TOWNNAME":"安南區","LI":"城南里","LIN":"4鄰","STREET":"城西街","SECT":"一段","MAREA":" ","LANE":" ","ALLEY":" ","HOUSE_NO":"１３３號","E_COORD97":160591.82999999999,"N_COORD97":2551332.8999999999,"ADDRESS":"城西街一段１３３號","OBJECTID":286222},"geometry":{"x":160591.83000000101,"y":2551332.9000000022}},{"attributes":{"ID":286229,"DIS_CODE":0,"TOWNNAME":"大內區","LI":"內郭里","LIN":"2鄰","STREET":" ","SECT":" ","MAREA":"內庄","LANE":" ","ALLEY":" ","HOUSE_NO":"１６８號","E_COORD97":184822.78,"N_COORD97":2557377.25,"ADDRESS":"內庄１６８號","OBJECTID":286223},"geometry":{"x":184822.78000000212,"y":2557377.2500000037}},{"attributes":{"ID":286230,"DIS_CODE":0,"TOWNNAME":"大內區","LI":"二溪里","LIN":"2鄰","STREET":" ","SECT":" ","MAREA":"二重溪","LANE":" ","ALLEY":" ","HOUSE_NO":"１４７號之２","E_COORD97":187616.51000000001,"N_COORD97":2557903.3100000001,"ADDRESS":"二重溪１４７號之２","OBJECTID":286224},"geometry":{"x":187616.51000000071,"y":2557903.3100000024}},{"attributes":{"ID":286231,"DIS_CODE":0,"TOWNNAME":"中西區","LI":"元安里","LIN":"2鄰","STREET":"永華路","SECT":"一段","MAREA":" ","LANE":" ","ALLEY":" ","HOUSE_NO":"４２號","E_COORD97":167580.31,"N_COORD97":2543131.73,"ADDRESS":"永華路一段４２號","OBJECTID":286225},"geometry":{"x":167580.31000000052,"y":2543131.7300000042}},{"attributes":{"ID":286232,"DIS_CODE":0,"TOWNNAME":"六甲區","LI":"甲東里","LIN":"12鄰","STREET":"裕農街","SECT":" ","MAREA":" ","LANE":"２９６巷","ALLEY":" ","HOUSE_NO":"２２號","E_COORD97":184126.82000000001,"N_COORD97":2570068.6699999999,"ADDRESS":"裕農街２９６巷２２號","OBJECTID":286226},"geometry":{"x":184126.8200000003,"y":2570068.6700000018}},{"attributes":{"ID":286233,"DIS_CODE":0,"TOWNNAME":"六甲區","LI":"甲東里","LIN":"12鄰","STREET":"裕農街","SECT":" ","MAREA":" ","LANE":"２９６巷","ALLEY":" ","HOUSE_NO":"２３號","E_COORD97":184135.04999999999,"N_COORD97":2570050.71,"ADDRESS":"裕農街２９６巷２３號","OBJECTID":286227},"geometry":{"x":184135.04999999981,"y":2570050.7100000009}},{"attributes":{"ID":286234,"DIS_CODE":0,"TOWNNAME":"六甲區","LI":"甲東里","LIN":"12鄰","STREET":"裕農街","SECT":" ","MAREA":" ","LANE":"２９６巷","ALLEY":" ","HOUSE_NO":"２４號","E_COORD97":184126.92000000001,"N_COORD97":2570072.8399999999,"ADDRESS":"裕農街２９６巷２４號","OBJECTID":286228},"geometry":{"x":184126.92000000086,"y":2570072.8399999999}},{"attributes":{"ID":286235,"DIS_CODE":0,"TOWNNAME":"大內區","LI":"內江里","LIN":"2鄰","STREET":" ","SECT":" ","MAREA":"內庄","LANE":" ","ALLEY":" ","HOUSE_NO":"２３２號","E_COORD97":184674.38,"N_COORD97":2557331.25,"ADDRESS":"內庄２３２號","OBJECTID":286229},"geometry":{"x":184674.38000000175,"y":2557331.2500000019}},{"attributes":{"ID":286236,"DIS_CODE":0,"TOWNNAME":"六甲區","LI":"甲東里","LIN":"12鄰","STREET":"裕農街","SECT":" ","MAREA":" ","LANE":"２９６巷","ALLEY":" ","HOUSE_NO":"２５號","E_COORD97":184139.39999999999,"N_COORD97":2570051.21,"ADDRESS":"裕農街２９６巷２５號","OBJECTID":286230},"geometry":{"x":184139.4000000013,"y":2570051.2100000009}},{"attributes":{"ID":286237,"DIS_CODE":0,"TOWNNAME":"六甲區","LI":"甲東里","LIN":"12鄰","STREET":"裕農街","SECT":" ","MAREA":" ","LANE":"２９６巷","ALLEY":" ","HOUSE_NO":"２６號","E_COORD97":184127.06,"N_COORD97":2570077.02,"ADDRESS":"裕農街２９６巷２６號","OBJECTID":286231},"geometry":{"x":184127.06000000052,"y":2570077.0199999996}},{"attributes":{"ID":286238,"DIS_CODE":0,"TOWNNAME":"六甲區","LI":"甲東里","LIN":"12鄰","STREET":"裕農街","SECT":" ","MAREA":" ","LANE":"２９６巷","ALLEY":" ","HOUSE_NO":"２７號","E_COORD97":184143.17000000001,"N_COORD97":2570051.7200000002,"ADDRESS":"裕農街２９６巷２７號","OBJECTID":286232},"geometry":{"x":184143.16999999993,"y":2570051.7200000025}},{"attributes":{"ID":286239,"DIS_CODE":0,"TOWNNAME":"六甲區","LI":"甲東里","LIN":"12鄰","STREET":"裕農街","SECT":" ","MAREA":" ","LANE":"２９６巷","ALLEY":" ","HOUSE_NO":"３０號","E_COORD97":184127.22,"N_COORD97":2570086.5699999998,"ADDRESS":"裕農街２９６巷３０號","OBJECTID":286233},"geometry":{"x":184127.21999999974,"y":2570086.5700000022}},{"attributes":{"ID":286240,"DIS_CODE":0,"TOWNNAME":"大內區","LI":"石林里","LIN":"2鄰","STREET":" ","SECT":" ","MAREA":"石子瀨","LANE":" ","ALLEY":" ","HOUSE_NO":"１３９號","E_COORD97":184008.87,"N_COORD97":2558083.25,"ADDRESS":"石子瀨１３９號","OBJECTID":286234},"geometry":{"x":184008.87000000104,"y":2558083.2500000019}},{"attributes":{"ID":286241,"DIS_CODE":0,"TOWNNAME":"大內區","LI":"內江里","LIN":"2鄰","STREET":" ","SECT":" ","MAREA":"內庄","LANE":" ","ALLEY":" ","HOUSE_NO":"２３４號之１","E_COORD97":184706.31,"N_COORD97":2557333.2999999998,"ADDRESS":"內庄２３４號之１","OBJECTID":286235},"geometry":{"x":184706.30999999959,"y":2557333.3000000007}},{"attributes":{"ID":286242,"DIS_CODE":0,"TOWNNAME":"中西區","LI":"協和里","LIN":"2鄰","STREET":"文賢路","SECT":" ","MAREA":" ","LANE":" ","ALLEY":" ","HOUSE_NO":"７５號","E_COORD97":167396.92000000001,"N_COORD97":2544605.3999999999,"ADDRESS":"文賢路７５號","OBJECTID":286236},"geometry":{"x":167396.92000000086,"y":2544605.4000000022}},{"attributes":{"ID":286243,"DIS_CODE":0,"TOWNNAME":"中西區","LI":"協和里","LIN":"2鄰","STREET":"文賢路","SECT":" ","MAREA":" ","LANE":" ","ALLEY":" ","HOUSE_NO":"６９號之１","E_COORD97":167391.92000000001,"N_COORD97":2544591.9100000001,"ADDRESS":"文賢路６９號之１","OBJECTID":286237},"geometry":{"x":167391.92000000086,"y":2544591.910000002}},{"attributes":{"ID":286244,"DIS_CODE":0,"TOWNNAME":"六甲區","LI":"甲東里","LIN":"12鄰","STREET":"裕農街","SECT":" ","MAREA":" ","LANE":"２９６巷","ALLEY":" ","HOUSE_NO":"３１號","E_COORD97":184151.28,"N_COORD97":2570052.1400000001,"ADDRESS":"裕農街２９６巷３１號","OBJECTID":286238},"geometry":{"x":184151.28000000026,"y":2570052.1400000025}},{"attributes":{"ID":286245,"DIS_CODE":0,"TOWNNAME":"中西區","LI":"光賢里","LIN":"2鄰","STREET":"武聖路","SECT":" ","MAREA":" ","LANE":" ","ALLEY":" ","HOUSE_NO":"３１號","E_COORD97":167243.03,"N_COORD97":2545090.1299999999,"ADDRESS":"武聖路３１號","OBJECTID":286239},"geometry":{"x":167243.03000000026,"y":2545090.1300000027}},{"attributes":{"ID":286246,"DIS_CODE":0,"TOWNNAME":"六甲區","LI":"甲東里","LIN":"12鄰","STREET":"裕農街","SECT":" ","MAREA":" ","LANE":"２９６巷","ALLEY":" ","HOUSE_NO":"３３號","E_COORD97":184155.51000000001,"N_COORD97":2570052.7799999998,"ADDRESS":"裕農街２９６巷３３號","OBJECTID":286240},"geometry":{"x":184155.50999999978,"y":2570052.7799999975}},{"attributes":{"ID":286247,"DIS_CODE":0,"TOWNNAME":"六甲區","LI":"甲東里","LIN":"12鄰","STREET":"裕農街","SECT":" ","MAREA":" ","LANE":"２９６巷","ALLEY":" ","HOUSE_NO":"３５號","E_COORD97":184164.19,"N_COORD97":2570063.6000000001,"ADDRESS":"裕農街２９６巷３５號","OBJECTID":286241},"geometry":{"x":184164.19000000227,"y":2570063.5999999996}},{"attributes":{"ID":286248,"DIS_CODE":0,"TOWNNAME":"六甲區","LI":"甲東里","LIN":"12鄰","STREET":"裕農街","SECT":" ","MAREA":" ","LANE":"２９６巷","ALLEY":" ","HOUSE_NO":"３７號","E_COORD97":184164.25,"N_COORD97":2570059.2400000002,"ADDRESS":"裕農街２９６巷３７號","OBJECTID":286242},"geometry":{"x":184164.25,"y":2570059.2400000021}},{"attributes":{"ID":286249,"DIS_CODE":0,"TOWNNAME":"關廟區","LI":"埤頭里","LIN":"12鄰","STREET":"保東二街","SECT":" ","MAREA":" ","LANE":"１３１巷","ALLEY":" ","HOUSE_NO":"６２號","E_COORD97":178579.92000000001,"N_COORD97":2544445.2999999998,"ADDRESS":"保東二街１３１巷６２號","OBJECTID":286243},"geometry":{"x":178579.92000000179,"y":2544445.3000000007}},{"attributes":{"ID":286250,"DIS_CODE":0,"TOWNNAME":"關廟區","LI":"關廟里","LIN":"12鄰","STREET":"民生街","SECT":" ","MAREA":" ","LANE":"１５２巷","ALLEY":" ","HOUSE_NO":"１９號","E_COORD97":180926.54000000001,"N_COORD97":2539836.29,"ADDRESS":"民生街１５２巷１９號","OBJECTID":286244},"geometry":{"x":180926.54000000004,"y":2539836.2899999991}},{"attributes":{"ID":286251,"DIS_CODE":0,"TOWNNAME":"關廟區","LI":"關廟里","LIN":"12鄰","STREET":"民生街","SECT":" ","MAREA":" ","LANE":"１５２巷","ALLEY":" ","HOUSE_NO":"９號","E_COORD97":180906.09,"N_COORD97":2539825.29,"ADDRESS":"民生街１５２巷９號","OBJECTID":286245},"geometry":{"x":180906.09000000171,"y":2539825.290000001}},{"attributes":{"ID":286252,"DIS_CODE":0,"TOWNNAME":"關廟區","LI":"北花里","LIN":"12鄰","STREET":"園中街","SECT":" ","MAREA":" ","LANE":"５巷","ALLEY":" ","HOUSE_NO":"１８號","E_COORD97":181734.35999999999,"N_COORD97":2540230.25,"ADDRESS":"園中街５巷１８號","OBJECTID":286246},"geometry":{"x":181734.36000000127,"y":2540230.2500000019}},{"attributes":{"ID":286253,"DIS_CODE":0,"TOWNNAME":"關廟區","LI":"北花里","LIN":"12鄰","STREET":"中正路","SECT":" ","MAREA":" ","LANE":"８１３巷","ALLEY":" ","HOUSE_NO":"１３號","E_COORD97":181644.60999999999,"N_COORD97":2540245.25,"ADDRESS":"中正路８１３巷１３號","OBJECTID":286247},"geometry":{"x":181644.61000000127,"y":2540245.25}},{"attributes":{"ID":286254,"DIS_CODE":0,"TOWNNAME":"關廟區","LI":"松腳里","LIN":"12鄰","STREET":"東興路","SECT":" ","MAREA":" ","LANE":"２１９巷","ALLEY":" ","HOUSE_NO":"８號","E_COORD97":181759.76999999999,"N_COORD97":2539574.25,"ADDRESS":"東興路２１９巷８號","OBJECTID":286248},"geometry":{"x":181759.77000000048,"y":2539574.2500000037}},{"attributes":{"ID":286255,"DIS_CODE":0,"TOWNNAME":"關廟區","LI":"北勢里","LIN":"12鄰","STREET":"仁愛路","SECT":" ","MAREA":" ","LANE":"２９２巷","ALLEY":" ","HOUSE_NO":"７號","E_COORD97":181528.39000000001,"N_COORD97":2540630.2799999998,"ADDRESS":"仁愛路２９２巷７號","OBJECTID":286249},"geometry":{"x":181528.3900000006,"y":2540630.2799999993}},{"attributes":{"ID":286256,"DIS_CODE":0,"TOWNNAME":"中西區","LI":"光賢里","LIN":"2鄰","STREET":"武聖路","SECT":" ","MAREA":" ","LANE":" ","ALLEY":" ","HOUSE_NO":"３３號","E_COORD97":167238.57999999999,"N_COORD97":2545090.5499999998,"ADDRESS":"武聖路３３號","OBJECTID":286250},"geometry":{"x":167238.58000000101,"y":2545090.5500000026}},{"attributes":{"ID":286257,"DIS_CODE":0,"TOWNNAME":"中西區","LI":"光賢里","LIN":"2鄰","STREET":"武聖路","SECT":" ","MAREA":" ","LANE":" ","ALLEY":" ","HOUSE_NO":"３５號","E_COORD97":167234.14000000001,"N_COORD97":2545091.6099999999,"ADDRESS":"武聖路３５號","OBJECTID":286251},"geometry":{"x":167234.1400000006,"y":2545091.6100000013}},{"attributes":{"ID":286258,"DIS_CODE":0,"TOWNNAME":"中西區","LI":"光賢里","LIN":"2鄰","STREET":"武聖路","SECT":" ","MAREA":" ","LANE":" ","ALLEY":" ","HOUSE_NO":"３７號","E_COORD97":167229.69,"N_COORD97":2545092.25,"ADDRESS":"武聖路３７號","OBJECTID":286252},"geometry":{"x":167229.69000000134,"y":2545092.25}},{"attributes":{"ID":286259,"DIS_CODE":0,"TOWNNAME":"永康區","LI":"尚頂里","LIN":"19鄰","STREET":"南台街","SECT":" ","MAREA":" ","LANE":" ","ALLEY":" ","HOUSE_NO":"１號","E_COORD97":170612.64999999999,"N_COORD97":2547100.7400000002,"ADDRESS":"南台街１號","OBJECTID":286253},"geometry":{"x":170612.65000000037,"y":2547100.7400000002}},{"attributes":{"ID":286260,"DIS_CODE":0,"TOWNNAME":"永康區","LI":"南灣里","LIN":"10鄰","STREET":"南興路","SECT":" ","MAREA":" ","LANE":" ","ALLEY":" ","HOUSE_NO":"７１號","E_COORD97":174237.88,"N_COORD97":2544267.2000000002,"ADDRESS":"南興路７１號","OBJECTID":286254},"geometry":{"x":174237.87999999989,"y":2544267.2000000011}},{"attributes":{"ID":286261,"DIS_CODE":0,"TOWNNAME":"北區","LI":"元寶里","LIN":"12鄰","STREET":"北園街","SECT":" ","MAREA":" ","LANE":"８巷","ALLEY":" ","HOUSE_NO":"８２號","E_COORD97":170431.82999999999,"N_COORD97":2545767.9700000002,"ADDRESS":"北園街８巷８２號","OBJECTID":286255},"geometry":{"x":170431.83000000194,"y":2545767.9700000044}},{"attributes":{"ID":286262,"DIS_CODE":0,"TOWNNAME":"永康區","LI":"南灣里","LIN":"9鄰","STREET":"大灣東路","SECT":" ","MAREA":" ","LANE":" ","ALLEY":" ","HOUSE_NO":"７號","E_COORD97":174067.54000000001,"N_COORD97":2544293.9399999999,"ADDRESS":"大灣東路７號","OBJECTID":286256},"geometry":{"x":174067.54000000004,"y":2544293.9399999995}},{"attributes":{"ID":286263,"DIS_CODE":0,"TOWNNAME":"永康區","LI":"南灣里","LIN":"23鄰","STREET":"大灣一街","SECT":" ","MAREA":" ","LANE":" ","ALLEY":" ","HOUSE_NO":"１０號","E_COORD97":174202.31,"N_COORD97":2544784.8599999999,"ADDRESS":"大灣一街１０號","OBJECTID":286257},"geometry":{"x":174202.31000000052,"y":2544784.8600000013}},{"attributes":{"ID":286264,"DIS_CODE":0,"TOWNNAME":"中西區","LI":"光賢里","LIN":"2鄰","STREET":"武聖路","SECT":" ","MAREA":" ","LANE":" ","ALLEY":" ","HOUSE_NO":"３９號","E_COORD97":167225.25,"N_COORD97":2545093.0899999999,"ADDRESS":"武聖路３９號","OBJECTID":286258},"geometry":{"x":167225.25000000093,"y":2545093.0900000017}},{"attributes":{"ID":286265,"DIS_CODE":0,"TOWNNAME":"北區","LI":"元寶里","LIN":"12鄰","STREET":"北園街","SECT":" ","MAREA":" ","LANE":"８巷","ALLEY":" ","HOUSE_NO":"８０號","E_COORD97":170431.67000000001,"N_COORD97":2545764,"ADDRESS":"北園街８巷８０號","OBJECTID":286259},"geometry":{"x":170431.67000000086,"y":2545764.0000000019}},{"attributes":{"ID":286266,"DIS_CODE":0,"TOWNNAME":"中西區","LI":"光賢里","LIN":"2鄰","STREET":"武聖路","SECT":" ","MAREA":" ","LANE":" ","ALLEY":" ","HOUSE_NO":"４１號","E_COORD97":167220.59,"N_COORD97":2545093.9399999999,"ADDRESS":"武聖路４１號","OBJECTID":286260},"geometry":{"x":167220.58999999985,"y":2545093.9399999995}},{"attributes":{"ID":286267,"DIS_CODE":0,"TOWNNAME":"安平區","LI":"海頭里","LIN":"12鄰","STREET":"安北路","SECT":" ","MAREA":" ","LANE":"１２１巷","ALLEY":" ","HOUSE_NO":"１８號","E_COORD97":164199.89000000001,"N_COORD97":2544738.1299999999,"ADDRESS":"安北路１２１巷１８號","OBJECTID":286261},"geometry":{"x":164199.8900000006,"y":2544738.1300000008}},{"attributes":{"ID":286268,"DIS_CODE":0,"TOWNNAME":"安平區","LI":"海頭里","LIN":"12鄰","STREET":"安北路","SECT":" ","MAREA":" ","LANE":"１２１巷","ALLEY":" ","HOUSE_NO":"２０號","E_COORD97":164197.72,"N_COORD97":2544732.8100000001,"ADDRESS":"安北路１２１巷２０號","OBJECTID":286262},"geometry":{"x":164197.72000000067,"y":2544732.8100000024}},{"attributes":{"ID":286269,"DIS_CODE":0,"TOWNNAME":"安平區","LI":"海頭里","LIN":"12鄰","STREET":"安北路","SECT":" ","MAREA":" ","LANE":"１２１巷","ALLEY":" ","HOUSE_NO":"１２之１號","E_COORD97":164204.09,"N_COORD97":2544761.6299999999,"ADDRESS":"安北路１２１巷１２之１號","OBJECTID":286263},"geometry":{"x":164204.09000000078,"y":2544761.6300000027}},{"attributes":{"ID":286270,"DIS_CODE":0,"TOWNNAME":"安平區","LI":"海頭里","LIN":"12鄰","STREET":"安北路","SECT":" ","MAREA":" ","LANE":"１２１巷","ALLEY":" ","HOUSE_NO":"１２號","E_COORD97":164201.22,"N_COORD97":2544768.2000000002,"ADDRESS":"安北路１２１巷１２號","OBJECTID":286264},"geometry":{"x":164201.22000000067,"y":2544768.200000003}},{"attributes":{"ID":286271,"DIS_CODE":0,"TOWNNAME":"仁德區","LI":"中生里","LIN":"2鄰","STREET":" ","SECT":" ","MAREA":"中洲","LANE":" ","ALLEY":" ","HOUSE_NO":"８６號","E_COORD97":173086.81,"N_COORD97":2534257.9900000002,"ADDRESS":"中洲８６號","OBJECTID":286265},"geometry":{"x":173086.81000000052,"y":2534257.9900000021}},{"attributes":{"ID":286272,"DIS_CODE":0,"TOWNNAME":"仁德區","LI":"中生里","LIN":"2鄰","STREET":" ","SECT":" ","MAREA":"中洲","LANE":" ","ALLEY":" ","HOUSE_NO":"７８之１２號","E_COORD97":173106.76000000001,"N_COORD97":2534369.04,"ADDRESS":"中洲７８之１２號","OBJECTID":286266},"geometry":{"x":173106.75999999978,"y":2534369.0399999991}},{"attributes":{"ID":286273,"DIS_CODE":0,"TOWNNAME":"安平區","LI":"海頭里","LIN":"12鄰","STREET":"安北路","SECT":" ","MAREA":" ","LANE":"１２１巷","ALLEY":" ","HOUSE_NO":"２號","E_COORD97":164209.06,"N_COORD97":2544812.27,"ADDRESS":"安北路１２１巷２號","OBJECTID":286267},"geometry":{"x":164209.06000000052,"y":2544812.2700000014}},{"attributes":{"ID":286274,"DIS_CODE":0,"TOWNNAME":"安平區","LI":"海頭里","LIN":"12鄰","STREET":"安北路","SECT":" ","MAREA":" ","LANE":"１２１巷","ALLEY":" ","HOUSE_NO":"２號之１","E_COORD97":164208.07999999999,"N_COORD97":2544804.4399999999,"ADDRESS":"安北路１２１巷２號之１","OBJECTID":286268},"geometry":{"x":164208.08000000007,"y":2544804.4400000013}},{"attributes":{"ID":286275,"DIS_CODE":0,"TOWNNAME":"安平區","LI":"海頭里","LIN":"12鄰","STREET":"安北路","SECT":" ","MAREA":" ","LANE":"１２１巷","ALLEY":" ","HOUSE_NO":"２號之２","E_COORD97":164204.29999999999,"N_COORD97":2544796.9500000002,"ADDRESS":"安北路１２１巷２號之２","OBJECTID":286269},"geometry":{"x":164204.30000000075,"y":2544796.950000003}},{"attributes":{"ID":286276,"DIS_CODE":0,"TOWNNAME":"安平區","LI":"海頭里","LIN":"12鄰","STREET":"安北路","SECT":" ","MAREA":" ","LANE":"１２１巷","ALLEY":" ","HOUSE_NO":"４號","E_COORD97":164203.53,"N_COORD97":2544792.7599999998,"ADDRESS":"安北路１２１巷４號","OBJECTID":286270},"geometry":{"x":164203.53000000026,"y":2544792.7600000016}},{"attributes":{"ID":286277,"DIS_CODE":0,"TOWNNAME":"南區","LI":"金華里","LIN":"12鄰","STREET":"金華路","SECT":"二段","MAREA":" ","LANE":"１４７巷","ALLEY":" ","HOUSE_NO":"５４號","E_COORD97":166929.54000000001,"N_COORD97":2542388.54,"ADDRESS":"金華路二段１４７巷５４號","OBJECTID":286271},"geometry":{"x":166929.54000000004,"y":2542388.5399999991}},{"attributes":{"ID":286278,"DIS_CODE":0,"TOWNNAME":"南區","LI":"金華里","LIN":"12鄰","STREET":"金華路","SECT":"二段","MAREA":" ","LANE":"１４７巷","ALLEY":" ","HOUSE_NO":"５８號","E_COORD97":166921.38,"N_COORD97":2542387.23,"ADDRESS":"金華路二段１４７巷５８號","OBJECTID":286272},"geometry":{"x":166921.38000000082,"y":2542387.2300000023}},{"attributes":{"ID":286279,"DIS_CODE":0,"TOWNNAME":"南區","LI":"金華里","LIN":"12鄰","STREET":"金華路","SECT":"二段","MAREA":" ","LANE":"１４７巷","ALLEY":" ","HOUSE_NO":"６０號","E_COORD97":166912.42999999999,"N_COORD97":2542387.75,"ADDRESS":"金華路二段１４７巷６０號","OBJECTID":286273},"geometry":{"x":166912.4299999997,"y":2542387.75}},{"attributes":{"ID":286280,"DIS_CODE":0,"TOWNNAME":"南區","LI":"金華里","LIN":"12鄰","STREET":"金華路","SECT":"二段","MAREA":" ","LANE":"１４７巷","ALLEY":" ","HOUSE_NO":"６０號之１","E_COORD97":166900.07000000001,"N_COORD97":2542386.96,"ADDRESS":"金華路二段１４７巷６０號之１","OBJECTID":286274},"geometry":{"x":166900.07000000123,"y":2542386.9600000009}},{"attributes":{"ID":286281,"DIS_CODE":0,"TOWNNAME":"南區","LI":"金華里","LIN":"12鄰","STREET":"金華路","SECT":"二段","MAREA":" ","LANE":"１４７巷","ALLEY":" ","HOUSE_NO":"６２號","E_COORD97":166893.75,"N_COORD97":2542389.5899999999,"ADDRESS":"金華路二段１４７巷６２號","OBJECTID":286275},"geometry":{"x":166893.75,"y":2542389.5900000036}},{"attributes":{"ID":286282,"DIS_CODE":0,"TOWNNAME":"南區","LI":"松安里","LIN":"12鄰","STREET":"灣裡路","SECT":" ","MAREA":" ","LANE":"４４０巷","ALLEY":" ","HOUSE_NO":"３８號","E_COORD97":166079.38,"N_COORD97":2536087.8700000001,"ADDRESS":"灣裡路４４０巷３８號","OBJECTID":286276},"geometry":{"x":166079.37999999989,"y":2536087.870000001}},{"attributes":{"ID":286283,"DIS_CODE":0,"TOWNNAME":"新營區","LI":"南興里","LIN":"12鄰","STREET":"和平路","SECT":" ","MAREA":" ","LANE":"１０４巷","ALLEY":" ","HOUSE_NO":"３５號","E_COORD97":179302.59,"N_COORD97":2577553.8500000001,"ADDRESS":"和平路１０４巷３５號","OBJECTID":286277},"geometry":{"x":179302.59000000171,"y":2577553.8500000015}},{"attributes":{"ID":286284,"DIS_CODE":0,"TOWNNAME":"仁德區","LI":"中生里","LIN":"2鄰","STREET":" ","SECT":" ","MAREA":"中洲","LANE":" ","ALLEY":" ","HOUSE_NO":"７８號之９","E_COORD97":173080.39999999999,"N_COORD97":2534380.04,"ADDRESS":"中洲７８號之９","OBJECTID":286278},"geometry":{"x":173080.4000000013,"y":2534380.0399999991}},{"attributes":{"ID":286285,"DIS_CODE":0,"TOWNNAME":"仁德區","LI":"中生里","LIN":"2鄰","STREET":" ","SECT":" ","MAREA":"中洲","LANE":" ","ALLEY":" ","HOUSE_NO":"７８號之８","E_COORD97":173081.88,"N_COORD97":2534375.29,"ADDRESS":"中洲７８號之８","OBJECTID":286279},"geometry":{"x":173081.87999999989,"y":2534375.2899999991}},{"attributes":{"ID":286286,"DIS_CODE":0,"TOWNNAME":"仁德區","LI":"中生里","LIN":"2鄰","STREET":" ","SECT":" ","MAREA":"中洲","LANE":" ","ALLEY":" ","HOUSE_NO":"８５號之１","E_COORD97":173087.92000000001,"N_COORD97":2534292.7999999998,"ADDRESS":"中洲８５號之１","OBJECTID":286280},"geometry":{"x":173087.92000000086,"y":2534292.8000000045}},{"attributes":{"ID":286287,"DIS_CODE":0,"TOWNNAME":"仁德區","LI":"中生里","LIN":"2鄰","STREET":" ","SECT":" ","MAREA":"中洲","LANE":" ","ALLEY":" ","HOUSE_NO":"８６號之３","E_COORD97":173075.92999999999,"N_COORD97":2534265.54,"ADDRESS":"中洲８６號之３","OBJECTID":286281},"geometry":{"x":173075.93000000063,"y":2534265.5400000028}},{"attributes":{"ID":286288,"DIS_CODE":0,"TOWNNAME":"仁德區","LI":"中生里","LIN":"2鄰","STREET":" ","SECT":" ","MAREA":"中洲","LANE":" ","ALLEY":" ","HOUSE_NO":"８１號","E_COORD97":173097.07999999999,"N_COORD97":2534344.7400000002,"ADDRESS":"中洲８１號","OBJECTID":286282},"geometry":{"x":173097.08000000101,"y":2534344.7400000021}},{"attributes":{"ID":286289,"DIS_CODE":0,"TOWNNAME":"永康區","LI":"建國里","LIN":"29鄰","STREET":" ","SECT":" ","MAREA":"慈光九村","LANE":" ","ALLEY":" ","HOUSE_NO":"４９號","E_COORD97":172826.57000000001,"N_COORD97":2544213.7400000002,"ADDRESS":"慈光九村４９號","OBJECTID":286283},"geometry":{"x":172826.57000000123,"y":2544213.7400000021}},{"attributes":{"ID":286290,"DIS_CODE":0,"TOWNNAME":"仁德區","LI":"中生里","LIN":"2鄰","STREET":" ","SECT":" ","MAREA":"中洲","LANE":" ","ALLEY":" ","HOUSE_NO":"７８之１號","E_COORD97":173101.03,"N_COORD97":2534382.04,"ADDRESS":"中洲７８之１號","OBJECTID":286284},"geometry":{"x":173101.03000000119,"y":2534382.040000001}},{"attributes":{"ID":286291,"DIS_CODE":0,"TOWNNAME":"仁德區","LI":"中生里","LIN":"2鄰","STREET":" ","SECT":" ","MAREA":"中洲","LANE":" ","ALLEY":" ","HOUSE_NO":"７８號之２","E_COORD97":173098.85999999999,"N_COORD97":2534385.54,"ADDRESS":"中洲７８號之２","OBJECTID":286285},"geometry":{"x":173098.86000000127,"y":2534385.540000001}},{"attributes":{"ID":286292,"DIS_CODE":0,"TOWNNAME":"仁德區","LI":"中生里","LIN":"2鄰","STREET":" ","SECT":" ","MAREA":"中洲","LANE":" ","ALLEY":" ","HOUSE_NO":"７７號","E_COORD97":173123.64999999999,"N_COORD97":2534380.9900000002,"ADDRESS":"中洲７７號","OBJECTID":286286},"geometry":{"x":173123.65000000224,"y":2534380.9900000002}},{"attributes":{"ID":286293,"DIS_CODE":0,"TOWNNAME":"仁德區","LI":"仁義里","LIN":"2鄰","STREET":"仁義路","SECT":" ","MAREA":" ","LANE":" ","ALLEY":" ","HOUSE_NO":"２３３號","E_COORD97":174018.17000000001,"N_COORD97":2541014.2599999998,"ADDRESS":"仁義路２３３號","OBJECTID":286287},"geometry":{"x":174018.17000000179,"y":2541014.2599999998}},{"attributes":{"ID":286294,"DIS_CODE":0,"TOWNNAME":"新營區","LI":"嘉芳里","LIN":"12鄰","STREET":"復興路","SECT":" ","MAREA":" ","LANE":"８０３巷","ALLEY":" ","HOUSE_NO":"２０號","E_COORD97":177116.14999999999,"N_COORD97":2578506.8900000001,"ADDRESS":"復興路８０３巷２０號","OBJECTID":286288},"geometry":{"x":177116.1500000013,"y":2578506.8900000025}},{"attributes":{"ID":286295,"DIS_CODE":0,"TOWNNAME":"新營區","LI":"南興里","LIN":"12鄰","STREET":"和平路","SECT":" ","MAREA":" ","LANE":"１０４巷","ALLEY":" ","HOUSE_NO":"２９號","E_COORD97":179313.82999999999,"N_COORD97":2577553.79,"ADDRESS":"和平路１０４巷２９號","OBJECTID":286289},"geometry":{"x":179313.83000000007,"y":2577553.790000001}},{"attributes":{"ID":286296,"DIS_CODE":0,"TOWNNAME":"北區","LI":"正覺里","LIN":"12鄰","STREET":"北安路","SECT":"一段","MAREA":" ","LANE":"５６巷","ALLEY":" ","HOUSE_NO":"１０號","E_COORD97":169215.82000000001,"N_COORD97":2546289.7400000002,"ADDRESS":"北安路一段５６巷１０號","OBJECTID":286290},"geometry":{"x":169215.82000000123,"y":2546289.7400000002}},{"attributes":{"ID":286297,"DIS_CODE":0,"TOWNNAME":"北區","LI":"正覺里","LIN":"12鄰","STREET":"北安路","SECT":"一段","MAREA":" ","LANE":"５６巷","ALLEY":" ","HOUSE_NO":"１２號","E_COORD97":169218.45999999999,"N_COORD97":2546292.7400000002,"ADDRESS":"北安路一段５６巷１２號","OBJECTID":286291},"geometry":{"x":169218.45999999996,"y":2546292.7400000002}},{"attributes":{"ID":286298,"DIS_CODE":0,"TOWNNAME":"北區","LI":"正覺里","LIN":"12鄰","STREET":"北安路","SECT":"一段","MAREA":" ","LANE":"５６巷","ALLEY":" ","HOUSE_NO":"１４號","E_COORD97":169219.64000000001,"N_COORD97":2546297.2000000002,"ADDRESS":"北安路一段５６巷１４號","OBJECTID":286292},"geometry":{"x":169219.6400000006,"y":2546297.200000003}},{"attributes":{"ID":286299,"DIS_CODE":0,"TOWNNAME":"北區","LI":"正覺里","LIN":"12鄰","STREET":"北安路","SECT":"一段","MAREA":" ","LANE":"５６巷","ALLEY":" ","HOUSE_NO":"１６號","E_COORD97":169221.73000000001,"N_COORD97":2546300.2000000002,"ADDRESS":"北安路一段５６巷１６號","OBJECTID":286293},"geometry":{"x":169221.73000000045,"y":2546300.1999999974}},{"attributes":{"ID":286300,"DIS_CODE":0,"TOWNNAME":"關廟區","LI":"北勢里","LIN":"12鄰","STREET":"成功路","SECT":" ","MAREA":" ","LANE":"２６２巷","ALLEY":" ","HOUSE_NO":"１３號","E_COORD97":181498.51999999999,"N_COORD97":2540561.27,"ADDRESS":"成功路２６２巷１３號","OBJECTID":286294},"geometry":{"x":181498.52000000048,"y":2540561.2700000014}},{"attributes":{"ID":286301,"DIS_CODE":0,"TOWNNAME":"關廟區","LI":"北花里","LIN":"12鄰","STREET":"園中街","SECT":" ","MAREA":" ","LANE":"５巷","ALLEY":" ","HOUSE_NO":"１６號","E_COORD97":181738.95999999999,"N_COORD97":2540229.25,"ADDRESS":"園中街５巷１６號","OBJECTID":286295},"geometry":{"x":181738.95999999996,"y":2540229.2500000019}},{"attributes":{"ID":286302,"DIS_CODE":0,"TOWNNAME":"永康區","LI":"埔園里","LIN":"31鄰","STREET":"八德街","SECT":" ","MAREA":" ","LANE":" ","ALLEY":" ","HOUSE_NO":"１６６號","E_COORD97":173941.45999999999,"N_COORD97":2548561.98,"ADDRESS":"八德街１６６號","OBJECTID":286296},"geometry":{"x":173941.45999999903,"y":2548561.9800000023}},{"attributes":{"ID":286303,"DIS_CODE":0,"TOWNNAME":"安南區","LI":"城南里","LIN":"4鄰","STREET":"城西街","SECT":"一段","MAREA":" ","LANE":" ","ALLEY":" ","HOUSE_NO":"１３７號","E_COORD97":160589.29000000001,"N_COORD97":2551321.77,"ADDRESS":"城西街一段１３７號","OBJECTID":286297},"geometry":{"x":160589.29000000004,"y":2551321.7700000014}},{"attributes":{"ID":286304,"DIS_CODE":0,"TOWNNAME":"安南區","LI":"城南里","LIN":"4鄰","STREET":"城西街","SECT":"一段","MAREA":" ","LANE":" ","ALLEY":" ","HOUSE_NO":"１３９號","E_COORD97":160580.84,"N_COORD97":2551321.27,"ADDRESS":"城西街一段１３９號","OBJECTID":286298},"geometry":{"x":160580.84000000171,"y":2551321.2699999977}},{"attributes":{"ID":286305,"DIS_CODE":0,"TOWNNAME":"安南區","LI":"城南里","LIN":"4鄰","STREET":"城西街","SECT":"一段","MAREA":" ","LANE":" ","ALLEY":" ","HOUSE_NO":"１４３號","E_COORD97":160573.38,"N_COORD97":2551319.7799999998,"ADDRESS":"城西街一段１４３號","OBJECTID":286299},"geometry":{"x":160573.37999999989,"y":2551319.7799999993}},{"attributes":{"ID":286306,"DIS_CODE":0,"TOWNNAME":"安南區","LI":"城南里","LIN":"4鄰","STREET":"城西街","SECT":"一段","MAREA":" ","LANE":" ","ALLEY":" ","HOUSE_NO":"１４７號","E_COORD97":160567.62,"N_COORD97":2551313.0800000001,"ADDRESS":"城西街一段１４７號","OBJECTID":286300},"geometry":{"x":160567.62000000104,"y":2551313.0800000038}},{"attributes":{"ID":286307,"DIS_CODE":0,"TOWNNAME":"安南區","LI":"城南里","LIN":"6鄰","STREET":"城西街","SECT":"一段","MAREA":" ","LANE":" ","ALLEY":" ","HOUSE_NO":"１８８號","E_COORD97":160497.22,"N_COORD97":2551290.5800000001,"ADDRESS":"城西街一段１８８號","OBJECTID":286301},"geometry":{"x":160497.22000000067,"y":2551290.5800000019}},{"attributes":{"ID":286308,"DIS_CODE":0,"TOWNNAME":"安南區","LI":"城南里","LIN":"16鄰","STREET":"青砂街","SECT":"一段","MAREA":" ","LANE":" ","ALLEY":" ","HOUSE_NO":"７號","E_COORD97":160690.89999999999,"N_COORD97":2551448.21,"ADDRESS":"青砂街一段７號","OBJECTID":286302},"geometry":{"x":160690.90000000037,"y":2551448.2100000009}},{"attributes":{"ID":286309,"DIS_CODE":0,"TOWNNAME":"安南區","LI":"城西里","LIN":"4鄰","STREET":"城西街","SECT":"三段","MAREA":" ","LANE":" ","ALLEY":" ","HOUSE_NO":"１０５０號","E_COORD97":155665.5,"N_COORD97":2550807.98,"ADDRESS":"城西街三段１０５０號","OBJECTID":286303},"geometry":{"x":155665.50000000186,"y":2550807.9800000004}},{"attributes":{"ID":286310,"DIS_CODE":0,"TOWNNAME":"安南區","LI":"城西里","LIN":"4鄰","STREET":"城西街","SECT":"三段","MAREA":" ","LANE":" ","ALLEY":" ","HOUSE_NO":"１０７０號","E_COORD97":155575.79000000001,"N_COORD97":2550838.21,"ADDRESS":"城西街三段１０７０號","OBJECTID":286304},"geometry":{"x":155575.79000000097,"y":2550838.209999999}},{"attributes":{"ID":286311,"DIS_CODE":0,"TOWNNAME":"仁德區","LI":"仁德里","LIN":"2鄰","STREET":"中正路","SECT":"二段","MAREA":" ","LANE":"７２９巷","ALLEY":" ","HOUSE_NO":"１１號","E_COORD97":173428.18586,"N_COORD97":2540159.8602999998,"ADDRESS":"中正路二段７２９巷１１號","OBJECTID":286305},"geometry":{"x":173428.18586000055,"y":2540159.8603000045}},{"attributes":{"ID":286312,"DIS_CODE":0,"TOWNNAME":"關廟區","LI":"北勢里","LIN":"12鄰","STREET":"仁愛路","SECT":" ","MAREA":" ","LANE":"２９２巷","ALLEY":" ","HOUSE_NO":"３號","E_COORD97":181519.89000000001,"N_COORD97":2540633.2799999998,"ADDRESS":"仁愛路２９２巷３號","OBJECTID":286306},"geometry":{"x":181519.8900000006,"y":2540633.2799999993}},{"attributes":{"ID":286313,"DIS_CODE":0,"TOWNNAME":"關廟區","LI":"北花里","LIN":"12鄰","STREET":"中正路","SECT":" ","MAREA":" ","LANE":"８１３巷","ALLEY":" ","HOUSE_NO":"５號","E_COORD97":181644.16,"N_COORD97":2540272.25,"ADDRESS":"中正路８１３巷５號","OBJECTID":286307},"geometry":{"x":181644.16000000108,"y":2540272.25}},{"attributes":{"ID":286314,"DIS_CODE":0,"TOWNNAME":"關廟區","LI":"關廟里","LIN":"12鄰","STREET":"民生街","SECT":" ","MAREA":" ","LANE":"１５２巷","ALLEY":" ","HOUSE_NO":"２８號","E_COORD97":180921.84,"N_COORD97":2539818.29,"ADDRESS":"民生街１５２巷２８號","OBJECTID":286308},"geometry":{"x":180921.84000000078,"y":2539818.290000001}},{"attributes":{"ID":286315,"DIS_CODE":0,"TOWNNAME":"關廟區","LI":"五甲里","LIN":"12鄰","STREET":"東興路","SECT":" ","MAREA":" ","LANE":"１７巷","ALLEY":" ","HOUSE_NO":"１１號","E_COORD97":181279.97,"N_COORD97":2539586.25,"ADDRESS":"東興路１７巷１１號","OBJECTID":286309},"geometry":{"x":181279.97000000067,"y":2539586.25}},{"attributes":{"ID":286316,"DIS_CODE":0,"TOWNNAME":"關廟區","LI":"關廟里","LIN":"12鄰","STREET":"民生街","SECT":" ","MAREA":" ","LANE":"１５２巷","ALLEY":" ","HOUSE_NO":"２６號","E_COORD97":180918.04000000001,"N_COORD97":2539816.29,"ADDRESS":"民生街１５２巷２６號","OBJECTID":286310},"geometry":{"x":180918.04000000004,"y":2539816.2899999991}},{"attributes":{"ID":286317,"DIS_CODE":0,"TOWNNAME":"關廟區","LI":"香洋里","LIN":"12鄰","STREET":"巡府路","SECT":" ","MAREA":" ","LANE":"２２巷","ALLEY":" ","HOUSE_NO":"１號","E_COORD97":181179.72,"N_COORD97":2540047.25,"ADDRESS":"巡府路２２巷１號","OBJECTID":286311},"geometry":{"x":181179.7200000016,"y":2540047.2500000019}},{"attributes":{"ID":286318,"DIS_CODE":0,"TOWNNAME":"關廟區","LI":"深坑里","LIN":"12鄰","STREET":"深坑二街","SECT":" ","MAREA":" ","LANE":"３２巷","ALLEY":" ","HOUSE_NO":"１２號","E_COORD97":181603.12,"N_COORD97":2537667.2999999998,"ADDRESS":"深坑二街３２巷１２號","OBJECTID":286312},"geometry":{"x":181603.12000000104,"y":2537667.3000000026}},{"attributes":{"ID":286319,"DIS_CODE":0,"TOWNNAME":"關廟區","LI":"南花里","LIN":"12鄰","STREET":"明德街","SECT":" ","MAREA":" ","LANE":"１５巷","ALLEY":" ","HOUSE_NO":"７７號","E_COORD97":181710.59,"N_COORD97":2540011.27,"ADDRESS":"明德街１５巷７７號","OBJECTID":286313},"geometry":{"x":181710.58999999985,"y":2540011.2700000033}},{"attributes":{"ID":286320,"DIS_CODE":0,"TOWNNAME":"關廟區","LI":"深坑里","LIN":"12鄰","STREET":"深坑二街","SECT":" ","MAREA":" ","LANE":"６８巷","ALLEY":" ","HOUSE_NO":"４７號","E_COORD97":181324.82000000001,"N_COORD97":2537384.2999999998,"ADDRESS":"深坑二街６８巷４７號","OBJECTID":286314},"geometry":{"x":181324.8200000003,"y":2537384.3000000007}},{"attributes":{"ID":286321,"DIS_CODE":0,"TOWNNAME":"關廟區","LI":"關廟里","LIN":"12鄰","STREET":"民生街","SECT":" ","MAREA":" ","LANE":"１５２巷","ALLEY":" ","HOUSE_NO":"３２號","E_COORD97":180943.73999999999,"N_COORD97":2539871.29,"ADDRESS":"民生街１５２巷３２號","OBJECTID":286315},"geometry":{"x":180943.74000000022,"y":2539871.2899999972}},{"attributes":{"ID":286322,"DIS_CODE":0,"TOWNNAME":"關廟區","LI":"關廟里","LIN":"12鄰","STREET":"民生街","SECT":" ","MAREA":" ","LANE":"１５２巷","ALLEY":" ","HOUSE_NO":"２５號","E_COORD97":180929.54000000001,"N_COORD97":2539854.29,"ADDRESS":"民生街１５２巷２５號","OBJECTID":286316},"geometry":{"x":180929.54000000004,"y":2539854.2899999972}},{"attributes":{"ID":286323,"DIS_CODE":0,"TOWNNAME":"關廟區","LI":"松腳里","LIN":"12鄰","STREET":"東興路","SECT":" ","MAREA":" ","LANE":"２０９巷","ALLEY":" ","HOUSE_NO":"１２號","E_COORD97":181769.51999999999,"N_COORD97":2539622.25,"ADDRESS":"東興路２０９巷１２號","OBJECTID":286317},"geometry":{"x":181769.52000000048,"y":2539622.2500000019}},{"attributes":{"ID":286324,"DIS_CODE":0,"TOWNNAME":"關廟區","LI":"松腳里","LIN":"12鄰","STREET":"東興路","SECT":" ","MAREA":" ","LANE":"２０９巷","ALLEY":" ","HOUSE_NO":"６號","E_COORD97":181747.17000000001,"N_COORD97":2539597.25,"ADDRESS":"東興路２０９巷６號","OBJECTID":286318},"geometry":{"x":181747.17000000086,"y":2539597.25}},{"attributes":{"ID":286325,"DIS_CODE":0,"TOWNNAME":"關廟區","LI":"北花里","LIN":"12鄰","STREET":"園中街","SECT":" ","MAREA":" ","LANE":"５巷","ALLEY":" ","HOUSE_NO":"２２號","E_COORD97":181719.76000000001,"N_COORD97":2540229.25,"ADDRESS":"園中街５巷２２號","OBJECTID":286319},"geometry":{"x":181719.75999999978,"y":2540229.2500000019}},{"attributes":{"ID":286326,"DIS_CODE":0,"TOWNNAME":"關廟區","LI":"北花里","LIN":"12鄰","STREET":"園中街","SECT":" ","MAREA":" ","LANE":"５巷","ALLEY":" ","HOUSE_NO":"８號","E_COORD97":181749.91,"N_COORD97":2540229.25,"ADDRESS":"園中街５巷８號","OBJECTID":286320},"geometry":{"x":181749.91000000015,"y":2540229.2500000019}},{"attributes":{"ID":286327,"DIS_CODE":0,"TOWNNAME":"北區","LI":"成德里","LIN":"12鄰","STREET":"民德路","SECT":" ","MAREA":" ","LANE":"９０巷","ALLEY":" ","HOUSE_NO":"３６號","E_COORD97":168077.64000000001,"N_COORD97":2545421.1099999999,"ADDRESS":"民德路９０巷３６號","OBJECTID":286321},"geometry":{"x":168077.63999999966,"y":2545421.1100000013}},{"attributes":{"ID":286328,"DIS_CODE":0,"TOWNNAME":"北區","LI":"成德里","LIN":"12鄰","STREET":"育德二路","SECT":" ","MAREA":" ","LANE":"５５巷","ALLEY":" ","HOUSE_NO":"１９號","E_COORD97":168207.03,"N_COORD97":2545441.5299999998,"ADDRESS":"育德二路５５巷１９號","OBJECTID":286322},"geometry":{"x":168207.03000000119,"y":2545441.5300000012}},{"attributes":{"ID":286329,"DIS_CODE":0,"TOWNNAME":"北區","LI":"成德里","LIN":"12鄰","STREET":"育德二路","SECT":" ","MAREA":" ","LANE":"５５巷","ALLEY":" ","HOUSE_NO":"２１號","E_COORD97":168207.03,"N_COORD97":2545447.0899999999,"ADDRESS":"育德二路５５巷２１號","OBJECTID":286323},"geometry":{"x":168207.03000000119,"y":2545447.0899999999}},{"attributes":{"ID":286330,"DIS_CODE":0,"TOWNNAME":"北區","LI":"成德里","LIN":"12鄰","STREET":"育德二路","SECT":" ","MAREA":" ","LANE":"５５巷","ALLEY":" ","HOUSE_NO":"２３號","E_COORD97":168206.70999999999,"N_COORD97":2545452.7999999998,"ADDRESS":"育德二路５５巷２３號","OBJECTID":286324},"geometry":{"x":168206.71000000183,"y":2545452.8000000007}},{"attributes":{"ID":286331,"DIS_CODE":0,"TOWNNAME":"北區","LI":"成德里","LIN":"12鄰","STREET":"育德二路","SECT":" ","MAREA":" ","LANE":"５５巷","ALLEY":" ","HOUSE_NO":"２５號","E_COORD97":168206.39000000001,"N_COORD97":2545459.3100000001,"ADDRESS":"育德二路５５巷２５號","OBJECTID":286325},"geometry":{"x":168206.38999999966,"y":2545459.3100000005}},{"attributes":{"ID":286332,"DIS_CODE":0,"TOWNNAME":"東區","LI":"崇德里","LIN":"2鄰","STREET":"崇善路","SECT":" ","MAREA":" ","LANE":"２３２巷","ALLEY":" ","HOUSE_NO":"１０２號","E_COORD97":170601.95999999999,"N_COORD97":2541807.3999999999,"ADDRESS":"崇善路２３２巷１０２號","OBJECTID":286326},"geometry":{"x":170601.95999999903,"y":2541807.4000000004}},{"attributes":{"ID":286333,"DIS_CODE":0,"TOWNNAME":"安南區","LI":"城西里","LIN":"5鄰","STREET":"城西街","SECT":"三段","MAREA":" ","LANE":" ","ALLEY":" ","HOUSE_NO":"４９５號","E_COORD97":157178.45999999999,"N_COORD97":2550832.04,"ADDRESS":"城西街三段４９５號","OBJECTID":286327},"geometry":{"x":157178.46000000089,"y":2550832.040000001}},{"attributes":{"ID":286334,"DIS_CODE":0,"TOWNNAME":"安南區","LI":"城西里","LIN":"6鄰","STREET":"城西街","SECT":"三段","MAREA":" ","LANE":" ","ALLEY":" ","HOUSE_NO":"４７９號","E_COORD97":157214.560666,"N_COORD97":2550853.7434,"ADDRESS":"城西街三段４７９號","OBJECTID":286328},"geometry":{"x":157214.5606660014,"y":2550853.7434010003}},{"attributes":{"ID":286335,"DIS_CODE":0,"TOWNNAME":"新營區","LI":"大宏里","LIN":"10鄰","STREET":"民治路","SECT":" ","MAREA":" ","LANE":"２９巷","ALLEY":" ","HOUSE_NO":"１０之４號","E_COORD97":180155.88472599999,"N_COORD97":2578814.65392,"ADDRESS":"民治路２９巷１０之４號","OBJECTID":286329},"geometry":{"x":180155.88472600002,"y":2578814.6539179999}},{"attributes":{"ID":286336,"DIS_CODE":0,"TOWNNAME":"北區","LI":"成德里","LIN":"12鄰","STREET":"育德二路","SECT":" ","MAREA":" ","LANE":"５５巷","ALLEY":" ","HOUSE_NO":"２７號","E_COORD97":168206.39000000001,"N_COORD97":2545465.3500000001,"ADDRESS":"育德二路５５巷２７號","OBJECTID":286330},"geometry":{"x":168206.38999999966,"y":2545465.3499999996}},{"attributes":{"ID":286337,"DIS_CODE":0,"TOWNNAME":"北區","LI":"成德里","LIN":"12鄰","STREET":"育德二路","SECT":" ","MAREA":" ","LANE":"５５巷","ALLEY":" ","HOUSE_NO":"２９號","E_COORD97":168206.23000000001,"N_COORD97":2545470.8999999999,"ADDRESS":"育德二路５５巷２９號","OBJECTID":286331},"geometry":{"x":168206.23000000138,"y":2545470.9000000022}},{"attributes":{"ID":286338,"DIS_CODE":0,"TOWNNAME":"北區","LI":"成德里","LIN":"12鄰","STREET":"育德二路","SECT":" ","MAREA":" ","LANE":"５５巷","ALLEY":" ","HOUSE_NO":"３１號","E_COORD97":168205.91,"N_COORD97":2545476.46,"ADDRESS":"育德二路５５巷３１號","OBJECTID":286332},"geometry":{"x":168205.91000000108,"y":2545476.4600000046}},{"attributes":{"ID":286339,"DIS_CODE":0,"TOWNNAME":"北區","LI":"力行里","LIN":"12鄰","STREET":"開南街","SECT":" ","MAREA":" ","LANE":"２７５巷","ALLEY":" ","HOUSE_NO":"８７號","E_COORD97":170990.94,"N_COORD97":2545304.6499999999,"ADDRESS":"開南街２７５巷８７號","OBJECTID":286333},"geometry":{"x":170990.94000000227,"y":2545304.6500000004}},{"attributes":{"ID":286340,"DIS_CODE":0,"TOWNNAME":"北區","LI":"大仁里","LIN":"12鄰","STREET":"北門路","SECT":"二段","MAREA":" ","LANE":"２３７巷","ALLEY":" ","HOUSE_NO":"３６號","E_COORD97":169442.5,"N_COORD97":2545321.0499999998,"ADDRESS":"北門路二段２３７巷３６號","OBJECTID":286334},"geometry":{"x":169442.50000000093,"y":2545321.0500000026}},{"attributes":{"ID":286341,"DIS_CODE":0,"TOWNNAME":"北區","LI":"大仁里","LIN":"12鄰","STREET":"北門路","SECT":"二段","MAREA":" ","LANE":"２３７巷","ALLEY":" ","HOUSE_NO":"３８號","E_COORD97":169438.89999999999,"N_COORD97":2545320.9900000002,"ADDRESS":"北門路二段２３７巷３８號","OBJECTID":286335},"geometry":{"x":169438.9000000013,"y":2545320.9900000021}},{"attributes":{"ID":286342,"DIS_CODE":0,"TOWNNAME":"北區","LI":"大仁里","LIN":"12鄰","STREET":"北門路","SECT":"二段","MAREA":" ","LANE":"２３７巷","ALLEY":" ","HOUSE_NO":"４０號","E_COORD97":169434.76999999999,"N_COORD97":2545321.6899999999,"ADDRESS":"北門路二段２３７巷４０號","OBJECTID":286336},"geometry":{"x":169434.76999999955,"y":2545321.6900000013}},{"attributes":{"ID":286343,"DIS_CODE":0,"TOWNNAME":"北區","LI":"大仁里","LIN":"12鄰","STREET":"北門路","SECT":"二段","MAREA":" ","LANE":"２３７巷","ALLEY":" ","HOUSE_NO":"４２號","E_COORD97":169431.04999999999,"N_COORD97":2545322.21,"ADDRESS":"北門路二段２３７巷４２號","OBJECTID":286337},"geometry":{"x":169431.04999999981,"y":2545322.2100000046}},{"attributes":{"ID":286344,"DIS_CODE":0,"TOWNNAME":"北區","LI":"大仁里","LIN":"12鄰","STREET":"北門路","SECT":"二段","MAREA":" ","LANE":"２３７巷","ALLEY":" ","HOUSE_NO":"４６號","E_COORD97":169426.92000000001,"N_COORD97":2545322.6800000002,"ADDRESS":"北門路二段２３７巷４６號","OBJECTID":286338},"geometry":{"x":169426.91999999993,"y":2545322.6800000016}},{"attributes":{"ID":286345,"DIS_CODE":0,"TOWNNAME":"北區","LI":"大仁里","LIN":"12鄰","STREET":"北門路","SECT":"二段","MAREA":" ","LANE":"２３７巷","ALLEY":" ","HOUSE_NO":"４８號","E_COORD97":169422.79000000001,"N_COORD97":2545324.1299999999,"ADDRESS":"北門路二段２３７巷４８號","OBJECTID":286339},"geometry":{"x":169422.79000000004,"y":2545324.1300000027}},{"attributes":{"ID":286346,"DIS_CODE":0,"TOWNNAME":"北區","LI":"大仁里","LIN":"12鄰","STREET":"北門路","SECT":"二段","MAREA":" ","LANE":"２３７巷","ALLEY":" ","HOUSE_NO":"５０號","E_COORD97":169418.89000000001,"N_COORD97":2545324.25,"ADDRESS":"北門路二段２３７巷５０號","OBJECTID":286340},"geometry":{"x":169418.88999999873,"y":2545324.2499999981}},{"attributes":{"ID":286347,"DIS_CODE":0,"TOWNNAME":"北區","LI":"大仁里","LIN":"12鄰","STREET":"北門路","SECT":"二段","MAREA":" ","LANE":"２３７巷","ALLEY":" ","HOUSE_NO":"５２號","E_COORD97":169416.06,"N_COORD97":2545331.6800000002,"ADDRESS":"北門路二段２３７巷５２號","OBJECTID":286341},"geometry":{"x":169416.06000000145,"y":2545331.6800000016}},{"attributes":{"ID":286348,"DIS_CODE":0,"TOWNNAME":"北區","LI":"大仁里","LIN":"12鄰","STREET":"北門路","SECT":"二段","MAREA":" ","LANE":"２３７巷","ALLEY":" ","HOUSE_NO":"５４號","E_COORD97":169408.03,"N_COORD97":2545337.0499999998,"ADDRESS":"北門路二段２３７巷５４號","OBJECTID":286342},"geometry":{"x":169408.03000000026,"y":2545337.0500000026}},{"attributes":{"ID":286349,"DIS_CODE":0,"TOWNNAME":"北區","LI":"大仁里","LIN":"12鄰","STREET":"北門路","SECT":"二段","MAREA":" ","LANE":"２３７巷","ALLEY":" ","HOUSE_NO":"５６號","E_COORD97":169395.29999999999,"N_COORD97":2545328.8799999999,"ADDRESS":"北門路二段２３７巷５６號","OBJECTID":286343},"geometry":{"x":169395.29999999981,"y":2545328.879999999}},{"attributes":{"ID":286350,"DIS_CODE":0,"TOWNNAME":"北區","LI":"玉皇里","LIN":"12鄰","STREET":"成功路","SECT":" ","MAREA":" ","LANE":"６８巷","ALLEY":" ","HOUSE_NO":"４７號","E_COORD97":168700.64999999999,"N_COORD97":2544394.54,"ADDRESS":"成功路６８巷４７號","OBJECTID":286344},"geometry":{"x":168700.65000000037,"y":2544394.5399999991}},{"attributes":{"ID":286351,"DIS_CODE":0,"TOWNNAME":"北區","LI":"玉皇里","LIN":"12鄰","STREET":"成功路","SECT":" ","MAREA":" ","LANE":"６８巷","ALLEY":" ","HOUSE_NO":"４９號","E_COORD97":168701.89999999999,"N_COORD97":2544397.3599999999,"ADDRESS":"成功路６８巷４９號","OBJECTID":286345},"geometry":{"x":168701.90000000037,"y":2544397.3599999975}},{"attributes":{"ID":286352,"DIS_CODE":0,"TOWNNAME":"北區","LI":"玉皇里","LIN":"12鄰","STREET":"成功路","SECT":" ","MAREA":" ","LANE":"６８巷","ALLEY":" ","HOUSE_NO":"５５號","E_COORD97":168699.31,"N_COORD97":2544410.6699999999,"ADDRESS":"成功路６８巷５５號","OBJECTID":286346},"geometry":{"x":168699.31000000052,"y":2544410.6700000018}},{"attributes":{"ID":286353,"DIS_CODE":0,"TOWNNAME":"北區","LI":"玉皇里","LIN":"12鄰","STREET":"成功路","SECT":" ","MAREA":" ","LANE":"６８巷","ALLEY":" ","HOUSE_NO":"５５號之１","E_COORD97":168704.48000000001,"N_COORD97":2544414.8300000001,"ADDRESS":"成功路６８巷５５號之１","OBJECTID":286347},"geometry":{"x":168704.48000000138,"y":2544414.8300000001}},{"attributes":{"ID":286354,"DIS_CODE":0,"TOWNNAME":"北區","LI":"玉皇里","LIN":"12鄰","STREET":"成功路","SECT":" ","MAREA":" ","LANE":"６８巷","ALLEY":" ","HOUSE_NO":"５７號","E_COORD97":168705.56,"N_COORD97":2544420.4100000001,"ADDRESS":"成功路６８巷５７號","OBJECTID":286348},"geometry":{"x":168705.55999999959,"y":2544420.4100000001}},{"attributes":{"ID":286355,"DIS_CODE":0,"TOWNNAME":"北區","LI":"東興里","LIN":"12鄰","STREET":"小東路","SECT":" ","MAREA":" ","LANE":"３０７巷","ALLEY":" ","HOUSE_NO":"２２號","E_COORD97":171182.89000000001,"N_COORD97":2544521.5499999998,"ADDRESS":"小東路３０７巷２２號","OBJECTID":286349},"geometry":{"x":171182.88999999966,"y":2544521.5500000007}},{"attributes":{"ID":286356,"DIS_CODE":0,"TOWNNAME":"北區","LI":"東興里","LIN":"12鄰","STREET":"小東路","SECT":" ","MAREA":" ","LANE":"３０７巷","ALLEY":" ","HOUSE_NO":"２４號","E_COORD97":171181.04000000001,"N_COORD97":2544525.54,"ADDRESS":"小東路３０７巷２４號","OBJECTID":286350},"geometry":{"x":171181.04000000004,"y":2544525.540000001}},{"attributes":{"ID":286357,"DIS_CODE":0,"TOWNNAME":"北區","LI":"東興里","LIN":"12鄰","STREET":"小東路","SECT":" ","MAREA":" ","LANE":"３０７巷","ALLEY":" ","HOUSE_NO":"２６號","E_COORD97":171181.13,"N_COORD97":2544530.0699999998,"ADDRESS":"小東路３０７巷２６號","OBJECTID":286351},"geometry":{"x":171181.13000000082,"y":2544530.0700000022}},{"attributes":{"ID":286358,"DIS_CODE":0,"TOWNNAME":"北區","LI":"東興里","LIN":"12鄰","STREET":"小東路","SECT":" ","MAREA":" ","LANE":"３０７巷","ALLEY":" ","HOUSE_NO":"２８號","E_COORD97":171180.64999999999,"N_COORD97":2544533.77,"ADDRESS":"小東路３０７巷２８號","OBJECTID":286352},"geometry":{"x":171180.65000000037,"y":2544533.7700000033}},{"attributes":{"ID":286359,"DIS_CODE":0,"TOWNNAME":"北區","LI":"東興里","LIN":"12鄰","STREET":"小東路","SECT":" ","MAREA":" ","LANE":"３０７巷","ALLEY":" ","HOUSE_NO":"３０號","E_COORD97":171179.57999999999,"N_COORD97":2544537.1699999999,"ADDRESS":"小東路３０７巷３０號","OBJECTID":286353},"geometry":{"x":171179.58000000101,"y":2544537.1699999999}},{"attributes":{"ID":286360,"DIS_CODE":0,"TOWNNAME":"北區","LI":"東興里","LIN":"12鄰","STREET":"小東路","SECT":" ","MAREA":" ","LANE":"３０７巷","ALLEY":" ","HOUSE_NO":"３２號","E_COORD97":171178.98999999999,"N_COORD97":2544541.54,"ADDRESS":"小東路３０７巷３２號","OBJECTID":286354},"geometry":{"x":171178.99000000115,"y":2544541.5399999972}},{"attributes":{"ID":286361,"DIS_CODE":0,"TOWNNAME":"北區","LI":"東興里","LIN":"12鄰","STREET":"小東路","SECT":" ","MAREA":" ","LANE":"３０７巷","ALLEY":" ","HOUSE_NO":"３４號","E_COORD97":171177.92000000001,"N_COORD97":2544545.5299999998,"ADDRESS":"小東路３０７巷３４號","OBJECTID":286355},"geometry":{"x":171177.91999999993,"y":2544545.5300000031}},{"attributes":{"ID":286362,"DIS_CODE":0,"TOWNNAME":"北區","LI":"東興里","LIN":"12鄰","STREET":"小東路","SECT":" ","MAREA":" ","LANE":"３０７巷","ALLEY":" ","HOUSE_NO":"３６號","E_COORD97":171177.14999999999,"N_COORD97":2544549.7999999998,"ADDRESS":"小東路３０７巷３６號","OBJECTID":286356},"geometry":{"x":171177.15000000037,"y":2544549.8000000026}},{"attributes":{"ID":286363,"DIS_CODE":0,"TOWNNAME":"安南區","LI":"國安里","LIN":"2鄰","STREET":"國安街","SECT":" ","MAREA":" ","LANE":"１５６巷","ALLEY":" ","HOUSE_NO":"７５號","E_COORD97":166679.47,"N_COORD97":2547188.2599999998,"ADDRESS":"國安街１５６巷７５號","OBJECTID":286357},"geometry":{"x":166679.47000000067,"y":2547188.2599999998}},{"attributes":{"ID":286364,"DIS_CODE":0,"TOWNNAME":"安南區","LI":"城西里","LIN":"6鄰","STREET":"城西街","SECT":"三段","MAREA":" ","LANE":" ","ALLEY":" ","HOUSE_NO":"４９３號","E_COORD97":157186.89000000001,"N_COORD97":2550841.52,"ADDRESS":"城西街三段４９３號","OBJECTID":286358},"geometry":{"x":157186.8900000006,"y":2550841.5199999977}},{"attributes":{"ID":286365,"DIS_CODE":0,"TOWNNAME":"安南區","LI":"青草里","LIN":"7鄰","STREET":"青砂街","SECT":"二段","MAREA":" ","LANE":" ","ALLEY":" ","HOUSE_NO":"４１９號","E_COORD97":158914.60999999999,"N_COORD97":2552967.8199999998,"ADDRESS":"青砂街二段４１９號","OBJECTID":286359},"geometry":{"x":158914.61000000034,"y":2552967.8200000022}},{"attributes":{"ID":286366,"DIS_CODE":0,"TOWNNAME":"麻豆區","LI":"中興里","LIN":"2鄰","STREET":"三民路","SECT":" ","MAREA":" ","LANE":" ","ALLEY":" ","HOUSE_NO":"１７號","E_COORD97":172801.56,"N_COORD97":2564702.0600000001,"ADDRESS":"三民路１７號","OBJECTID":286360},"geometry":{"x":172801.56000000052,"y":2564702.0599999987}},{"attributes":{"ID":286367,"DIS_CODE":0,"TOWNNAME":"麻豆區","LI":"新建里","LIN":"2鄰","STREET":"三民路","SECT":" ","MAREA":" ","LANE":" ","ALLEY":" ","HOUSE_NO":"１０號之１","E_COORD97":172768.79000000001,"N_COORD97":2564867.3999999999,"ADDRESS":"三民路１０號之１","OBJECTID":286361},"geometry":{"x":172768.79000000097,"y":2564867.4000000022}},{"attributes":{"ID":286368,"DIS_CODE":0,"TOWNNAME":"北區","LI":"東興里","LIN":"12鄰","STREET":"小東路","SECT":" ","MAREA":" ","LANE":"３０７巷","ALLEY":" ","HOUSE_NO":"３８號","E_COORD97":171197.87,"N_COORD97":2544527.5600000001,"ADDRESS":"小東路３０７巷３８號","OBJECTID":286362},"geometry":{"x":171197.87000000197,"y":2544527.5600000024}},{"attributes":{"ID":286369,"DIS_CODE":0,"TOWNNAME":"北區","LI":"東興里","LIN":"12鄰","STREET":"小東路","SECT":" ","MAREA":" ","LANE":"３０７巷","ALLEY":" ","HOUSE_NO":"３８號之１","E_COORD97":171196.41,"N_COORD97":2544532.3300000001,"ADDRESS":"小東路３０７巷３８號之１","OBJECTID":286363},"geometry":{"x":171196.41000000108,"y":2544532.3300000019}},{"attributes":{"ID":286370,"DIS_CODE":0,"TOWNNAME":"北區","LI":"東興里","LIN":"12鄰","STREET":"小東路","SECT":" ","MAREA":" ","LANE":"３０７巷","ALLEY":" ","HOUSE_NO":"３８號之２","E_COORD97":171195.63,"N_COORD97":2544537.96,"ADDRESS":"小東路３０７巷３８號之２","OBJECTID":286364},"geometry":{"x":171195.62999999989,"y":2544537.9600000028}},{"attributes":{"ID":286371,"DIS_CODE":0,"TOWNNAME":"北區","LI":"東興里","LIN":"12鄰","STREET":"小東路","SECT":" ","MAREA":" ","LANE":"３０７巷","ALLEY":" ","HOUSE_NO":"３８號之３","E_COORD97":171192.70999999999,"N_COORD97":2544549.9199999999,"ADDRESS":"小東路３０７巷３８號之３","OBJECTID":286365},"geometry":{"x":171192.71000000089,"y":2544549.9199999999}},{"attributes":{"ID":286372,"DIS_CODE":0,"TOWNNAME":"北區","LI":"東興里","LIN":"12鄰","STREET":"小東路","SECT":" ","MAREA":" ","LANE":"３０７巷","ALLEY":" ","HOUSE_NO":"３８號之４","E_COORD97":171196.60000000001,"N_COORD97":2544549.6299999999,"ADDRESS":"小東路３０７巷３８號之４","OBJECTID":286366},"geometry":{"x":171196.60000000056,"y":2544549.629999999}},{"attributes":{"ID":286373,"DIS_CODE":0,"TOWNNAME":"北區","LI":"東興里","LIN":"12鄰","STREET":"小東路","SECT":" ","MAREA":" ","LANE":"３０７巷","ALLEY":" ","HOUSE_NO":"３８號之５","E_COORD97":171201.76000000001,"N_COORD97":2544548.9399999999,"ADDRESS":"小東路３０７巷３８號之５","OBJECTID":286367},"geometry":{"x":171201.76000000071,"y":2544548.9399999995}},{"attributes":{"ID":286374,"DIS_CODE":0,"TOWNNAME":"北區","LI":"玉皇里","LIN":"12鄰","STREET":"佑民街","SECT":" ","MAREA":" ","LANE":"４２巷","ALLEY":" ","HOUSE_NO":"２５號","E_COORD97":168674.17000000001,"N_COORD97":2544430.5600000001,"ADDRESS":"佑民街４２巷２５號","OBJECTID":286368},"geometry":{"x":168674.16999999993,"y":2544430.5600000005}},{"attributes":{"ID":286375,"DIS_CODE":0,"TOWNNAME":"新化區","LI":"東榮里","LIN":"12鄰","STREET":"中興路","SECT":" ","MAREA":" ","LANE":"５３４巷","ALLEY":" ","HOUSE_NO":"３７號之１","E_COORD97":179961.29000000001,"N_COORD97":2547977.2599999998,"ADDRESS":"中興路５３４巷３７號之１","OBJECTID":286369},"geometry":{"x":179961.29000000097,"y":2547977.2599999998}},{"attributes":{"ID":286376,"DIS_CODE":0,"TOWNNAME":"安平區","LI":"平安里","LIN":"12鄰","STREET":"安平路","SECT":" ","MAREA":" ","LANE":"５００巷","ALLEY":" ","HOUSE_NO":"２７號","E_COORD97":165149.29999999999,"N_COORD97":2544456.52,"ADDRESS":"安平路５００巷２７號","OBJECTID":286370},"geometry":{"x":165149.29999999981,"y":2544456.5199999996}},{"attributes":{"ID":286377,"DIS_CODE":0,"TOWNNAME":"新化區","LI":"唪口里","LIN":"5鄰","STREET":"中正路","SECT":" ","MAREA":" ","LANE":"７０７巷","ALLEY":" ","HOUSE_NO":"３０號","E_COORD97":178603.16,"N_COORD97":2549129.25,"ADDRESS":"中正路７０７巷３０號","OBJECTID":286371},"geometry":{"x":178603.16000000015,"y":2549129.2500000019}},{"attributes":{"ID":286378,"DIS_CODE":0,"TOWNNAME":"安平區","LI":"平安里","LIN":"12鄰","STREET":"安平路","SECT":" ","MAREA":" ","LANE":"５００巷","ALLEY":" ","HOUSE_NO":"２９號","E_COORD97":165150.57000000001,"N_COORD97":2544462.23,"ADDRESS":"安平路５００巷２９號","OBJECTID":286372},"geometry":{"x":165150.57000000123,"y":2544462.2300000004}},{"attributes":{"ID":286379,"DIS_CODE":0,"TOWNNAME":"安平區","LI":"平安里","LIN":"12鄰","STREET":"安平路","SECT":" ","MAREA":" ","LANE":"５００巷","ALLEY":" ","HOUSE_NO":"３１號","E_COORD97":165151.35999999999,"N_COORD97":2544468.7400000002,"ADDRESS":"安平路５００巷３１號","OBJECTID":286373},"geometry":{"x":165151.3600000022,"y":2544468.7400000002}},{"attributes":{"ID":286380,"DIS_CODE":0,"TOWNNAME":"安平區","LI":"平安里","LIN":"12鄰","STREET":"安平路","SECT":" ","MAREA":" ","LANE":"５００巷","ALLEY":" ","HOUSE_NO":"３３號","E_COORD97":165152.47,"N_COORD97":2544473.5,"ADDRESS":"安平路５００巷３３號","OBJECTID":286374},"geometry":{"x":165152.47000000067,"y":2544473.5}},{"attributes":{"ID":286381,"DIS_CODE":0,"TOWNNAME":"安平區","LI":"平安里","LIN":"12鄰","STREET":"安平路","SECT":" ","MAREA":" ","LANE":"５００巷","ALLEY":" ","HOUSE_NO":"３５號","E_COORD97":165155.48999999999,"N_COORD97":2544464.9300000002,"ADDRESS":"安平路５００巷３５號","OBJECTID":286375},"geometry":{"x":165155.49000000209,"y":2544464.9299999978}},{"attributes":{"ID":286382,"DIS_CODE":0,"TOWNNAME":"安平區","LI":"平安里","LIN":"12鄰","STREET":"安平路","SECT":" ","MAREA":" ","LANE":"５００巷","ALLEY":" ","HOUSE_NO":"３５號之１","E_COORD97":165123.20000000001,"N_COORD97":2544478.3900000001,"ADDRESS":"安平路５００巷３５號之１","OBJECTID":286376},"geometry":{"x":165123.20000000019,"y":2544478.3900000006}},{"attributes":{"ID":286383,"DIS_CODE":0,"TOWNNAME":"安平區","LI":"平安里","LIN":"12鄰","STREET":"安平路","SECT":" ","MAREA":" ","LANE":"５００巷","ALLEY":" ","HOUSE_NO":"３５號之２","E_COORD97":165120.62,"N_COORD97":2544493.8900000001,"ADDRESS":"安平路５００巷３５號之２","OBJECTID":286377},"geometry":{"x":165120.62000000197,"y":2544493.8900000025}},{"attributes":{"ID":286384,"DIS_CODE":0,"TOWNNAME":"安平區","LI":"平安里","LIN":"12鄰","STREET":"安平路","SECT":" ","MAREA":" ","LANE":"５００巷","ALLEY":" ","HOUSE_NO":"３７號","E_COORD97":165156.10000000001,"N_COORD97":2544468.1499999999,"ADDRESS":"安平路５００巷３７號","OBJECTID":286378},"geometry":{"x":165156.10000000056,"y":2544468.1500000022}},{"attributes":{"ID":286385,"DIS_CODE":0,"TOWNNAME":"北區","LI":"大和里","LIN":"12鄰","STREET":"大港街","SECT":" ","MAREA":" ","LANE":"３８巷","ALLEY":" ","HOUSE_NO":"２８號","E_COORD97":167167.34,"N_COORD97":2546197.4900000002,"ADDRESS":"大港街３８巷２８號","OBJECTID":286379},"geometry":{"x":167167.34000000078,"y":2546197.4900000002}},{"attributes":{"ID":286386,"DIS_CODE":0,"TOWNNAME":"北區","LI":"大和里","LIN":"12鄰","STREET":"大港街","SECT":" ","MAREA":" ","LANE":"３８巷","ALLEY":" ","HOUSE_NO":"３０號","E_COORD97":167167.04000000001,"N_COORD97":2546201.1000000001,"ADDRESS":"大港街３８巷３０號","OBJECTID":286380},"geometry":{"x":167167.03999999911,"y":2546201.1000000015}},{"attributes":{"ID":286387,"DIS_CODE":0,"TOWNNAME":"永康區","LI":"東橋里","LIN":"21鄰","STREET":"自強路","SECT":" ","MAREA":" ","LANE":" ","ALLEY":" ","HOUSE_NO":"１０２號","E_COORD97":172863.28,"N_COORD97":2547271.5,"ADDRESS":"自強路１０２號","OBJECTID":286381},"geometry":{"x":172863.28000000212,"y":2547271.5}},{"attributes":{"ID":286388,"DIS_CODE":0,"TOWNNAME":"北區","LI":"大和里","LIN":"12鄰","STREET":"大港街","SECT":" ","MAREA":" ","LANE":"３８巷","ALLEY":" ","HOUSE_NO":"３２號","E_COORD97":167165.85999999999,"N_COORD97":2546206.1000000001,"ADDRESS":"大港街３８巷３２號","OBJECTID":286382},"geometry":{"x":167165.86000000127,"y":2546206.0999999996}},{"attributes":{"ID":286389,"DIS_CODE":0,"TOWNNAME":"北區","LI":"大和里","LIN":"12鄰","STREET":"大港街","SECT":" ","MAREA":" ","LANE":"３８巷","ALLEY":" ","HOUSE_NO":"３４號","E_COORD97":167165.42000000001,"N_COORD97":2546210.4399999999,"ADDRESS":"大港街３８巷３４號","OBJECTID":286383},"geometry":{"x":167165.41999999993,"y":2546210.4399999995}},{"attributes":{"ID":286390,"DIS_CODE":0,"TOWNNAME":"北區","LI":"大和里","LIN":"12鄰","STREET":"大港街","SECT":" ","MAREA":" ","LANE":"３８巷","ALLEY":" ","HOUSE_NO":"３６號","E_COORD97":167164.01999999999,"N_COORD97":2546221.3700000001,"ADDRESS":"大港街３８巷３６號","OBJECTID":286384},"geometry":{"x":167164.02000000048,"y":2546221.3700000029}},{"attributes":{"ID":286391,"DIS_CODE":0,"TOWNNAME":"北區","LI":"大和里","LIN":"12鄰","STREET":"大港街","SECT":" ","MAREA":" ","LANE":"３８巷","ALLEY":" ","HOUSE_NO":"３８號","E_COORD97":167162.47,"N_COORD97":2546226.3700000001,"ADDRESS":"大港街３８巷３８號","OBJECTID":286385},"geometry":{"x":167162.47000000067,"y":2546226.3699999992}},{"attributes":{"ID":286392,"DIS_CODE":0,"TOWNNAME":"北區","LI":"大和里","LIN":"12鄰","STREET":"大港街","SECT":" ","MAREA":" ","LANE":"３８巷","ALLEY":" ","HOUSE_NO":"４０號","E_COORD97":167161.37,"N_COORD97":2546230.29,"ADDRESS":"大港街３８巷４０號","OBJECTID":286386},"geometry":{"x":167161.37000000011,"y":2546230.2899999991}},{"attributes":{"ID":286393,"DIS_CODE":0,"TOWNNAME":"北區","LI":"大和里","LIN":"12鄰","STREET":"大港街","SECT":" ","MAREA":" ","LANE":"３８巷","ALLEY":" ","HOUSE_NO":"４２號","E_COORD97":167160.70999999999,"N_COORD97":2546235.0699999998,"ADDRESS":"大港街３８巷４２號","OBJECTID":286387},"geometry":{"x":167160.70999999903,"y":2546235.0700000022}},{"attributes":{"ID":286394,"DIS_CODE":0,"TOWNNAME":"歸仁區","LI":"新厝里","LIN":"12鄰","STREET":"中正南路","SECT":"一段","MAREA":" ","LANE":"８５巷","ALLEY":" ","HOUSE_NO":"３號","E_COORD97":177614.5,"N_COORD97":2540521.5899999999,"ADDRESS":"中正南路一段８５巷３號","OBJECTID":286388},"geometry":{"x":177614.5,"y":2540521.5900000017}},{"attributes":{"ID":286395,"DIS_CODE":0,"TOWNNAME":"歸仁區","LI":"歸南里","LIN":"12鄰","STREET":"民生南街","SECT":"二段","MAREA":" ","LANE":"２６９巷","ALLEY":" ","HOUSE_NO":"２９號","E_COORD97":176163.20999999999,"N_COORD97":2540020.25,"ADDRESS":"民生南街二段２６９巷２９號","OBJECTID":286389},"geometry":{"x":176163.20999999996,"y":2540020.25}},{"attributes":{"ID":286396,"DIS_CODE":0,"TOWNNAME":"歸仁區","LI":"新厝里","LIN":"12鄰","STREET":"中正南路","SECT":"一段","MAREA":" ","LANE":"８５巷","ALLEY":" ","HOUSE_NO":"９號","E_COORD97":177641.10000000001,"N_COORD97":2540505.5899999999,"ADDRESS":"中正南路一段８５巷９號","OBJECTID":286390},"geometry":{"x":177641.10000000056,"y":2540505.5900000017}},{"attributes":{"ID":286397,"DIS_CODE":0,"TOWNNAME":"歸仁區","LI":"歸南里","LIN":"12鄰","STREET":"民生南街","SECT":"二段","MAREA":" ","LANE":"２６９巷","ALLEY":" ","HOUSE_NO":"３７號","E_COORD97":176185.81,"N_COORD97":2540022.25,"ADDRESS":"民生南街二段２６９巷３７號","OBJECTID":286391},"geometry":{"x":176185.80999999959,"y":2540022.2500000019}},{"attributes":{"ID":286398,"DIS_CODE":0,"TOWNNAME":"歸仁區","LI":"六甲里","LIN":"12鄰","STREET":"中正南路","SECT":"一段","MAREA":" ","LANE":"２１５０巷","ALLEY":" ","HOUSE_NO":"２號","E_COORD97":175904.48999999999,"N_COORD97":2538724.8300000001,"ADDRESS":"中正南路一段２１５０巷２號","OBJECTID":286392},"geometry":{"x":175904.49000000022,"y":2538724.8300000001}},{"attributes":{"ID":286399,"DIS_CODE":0,"TOWNNAME":"新營區","LI":"忠政里","LIN":"12鄰","STREET":"中正路","SECT":" ","MAREA":" ","LANE":"５９巷","ALLEY":" ","HOUSE_NO":"３５號","E_COORD97":179902.37,"N_COORD97":2579569.8900000001,"ADDRESS":"中正路５９巷３５號","OBJECTID":286393},"geometry":{"x":179902.37000000011,"y":2579569.8900000006}},{"attributes":{"ID":286400,"DIS_CODE":0,"TOWNNAME":"新營區","LI":"忠政里","LIN":"12鄰","STREET":"府西路","SECT":" ","MAREA":" ","LANE":"２０２巷","ALLEY":" ","HOUSE_NO":"３０號","E_COORD97":179872.51999999999,"N_COORD97":2579531.2599999998,"ADDRESS":"府西路２０２巷３０號","OBJECTID":286394},"geometry":{"x":179872.52000000048,"y":2579531.2600000016}},{"attributes":{"ID":286401,"DIS_CODE":0,"TOWNNAME":"新營區","LI":"忠政里","LIN":"12鄰","STREET":"府西路","SECT":" ","MAREA":" ","LANE":"２０２巷","ALLEY":" ","HOUSE_NO":"１５號","E_COORD97":179865.32999999999,"N_COORD97":2579543.48,"ADDRESS":"府西路２０２巷１５號","OBJECTID":286395},"geometry":{"x":179865.33000000007,"y":2579543.4800000023}},{"attributes":{"ID":286402,"DIS_CODE":0,"TOWNNAME":"新營區","LI":"三仙里","LIN":"12鄰","STREET":"民權路","SECT":" ","MAREA":" ","LANE":"４１巷","ALLEY":" ","HOUSE_NO":"４號","E_COORD97":179673,"N_COORD97":2578273.0299999998,"ADDRESS":"民權路４１巷４號","OBJECTID":286396},"geometry":{"x":179673.00000000093,"y":2578273.0300000031}},{"attributes":{"ID":286403,"DIS_CODE":0,"TOWNNAME":"關廟區","LI":"北花里","LIN":"12鄰","STREET":"園中街","SECT":" ","MAREA":" ","LANE":"５巷","ALLEY":" ","HOUSE_NO":"２６號","E_COORD97":181714.76000000001,"N_COORD97":2540228.25,"ADDRESS":"園中街５巷２６號","OBJECTID":286397},"geometry":{"x":181714.75999999978,"y":2540228.25}},{"attributes":{"ID":286404,"DIS_CODE":0,"TOWNNAME":"關廟區","LI":"北花里","LIN":"12鄰","STREET":"園中街","SECT":" ","MAREA":" ","LANE":"５巷","ALLEY":" ","HOUSE_NO":"１０號","E_COORD97":181746.26000000001,"N_COORD97":2540229.25,"ADDRESS":"園中街５巷１０號","OBJECTID":286398},"geometry":{"x":181746.26000000071,"y":2540229.2500000019}},{"attributes":{"ID":286405,"DIS_CODE":0,"TOWNNAME":"關廟區","LI":"五甲里","LIN":"12鄰","STREET":"東興路","SECT":" ","MAREA":" ","LANE":"１７巷","ALLEY":" ","HOUSE_NO":"１７號","E_COORD97":181278.87,"N_COORD97":2539599.25,"ADDRESS":"東興路１７巷１７號","OBJECTID":286399},"geometry":{"x":181278.87000000011,"y":2539599.2500000019}},{"attributes":{"ID":286406,"DIS_CODE":0,"TOWNNAME":"關廟區","LI":"北花里","LIN":"12鄰","STREET":"中正路","SECT":" ","MAREA":" ","LANE":"８１３巷","ALLEY":" ","HOUSE_NO":"１號","E_COORD97":181647.66,"N_COORD97":2540282.25,"ADDRESS":"中正路８１３巷１號","OBJECTID":286400},"geometry":{"x":181647.66000000015,"y":2540282.25}}]}