{"displayFieldName":"TOWNNAME","fieldAliases":{"ID":"ID","DIS_CODE":"DIS_CODE","TOWNNAME":"TOWNNAME","LI":"LI","LIN":"LIN","STREET":"STREET","SECT":"SECT","MAREA":"MAREA","LANE":"LANE","ALLEY":"ALLEY","HOUSE_NO":"HOUSE_NO","E_COORD97":"E_COORD97","N_COORD97":"N_COORD97","ADDRESS":"ADDRESS","OBJECTID":"OBJECTID"},"geometryType":"esriGeometryPoint","spatialReference":{"wkid":102443,"latestWkid":3826},"fields":[{"name":"ID","type":"esriFieldTypeDouble","alias":"ID"},{"name":"DIS_CODE","type":"esriFieldTypeInteger","alias":"DIS_CODE"},{"name":"TOWNNAME","type":"esriFieldTypeString","alias":"TOWNNAME","length":8},{"name":"LI","type":"esriFieldTypeString","alias":"LI","length":8},{"name":"LIN","type":"esriFieldTypeString","alias":"LIN","length":12},{"name":"STREET","type":"esriFieldTypeString","alias":"STREET","length":20},{"name":"SECT","type":"esriFieldTypeString","alias":"SECT","length":8},{"name":"MAREA","type":"esriFieldTypeString","alias":"MAREA","length":12},{"name":"LANE","type":"esriFieldTypeString","alias":"LANE","length":10},{"name":"ALLEY","type":"esriFieldTypeString","alias":"ALLEY","length":10},{"name":"HOUSE_NO","type":"esriFieldTypeString","alias":"HOUSE_NO","length":20},{"name":"E_COORD97","type":"esriFieldTypeDouble","alias":"E_COORD97"},{"name":"N_COORD97","type":"esriFieldTypeDouble","alias":"N_COORD97"},{"name":"ADDRESS","type":"esriFieldTypeString","alias":"ADDRESS","length":50},{"name":"OBJECTID","type":"esriFieldTypeOID","alias":"OBJECTID"}],"features":[{"attributes":{"ID":197802,"DIS_CODE":0,"TOWNNAME":"鹽水區","LI":"岸內里","LIN":"18鄰","STREET":"北門路","SECT":" ","MAREA":" ","LANE":"１巷","ALLEY":"６弄","HOUSE_NO":"１８號","E_COORD97":175077.64000000001,"N_COORD97":2580376.4700000002,"ADDRESS":"北門路１巷６弄１８號","OBJECTID":197801},"geometry":{"x":175077.64000000153,"y":2580376.4700000007}},{"attributes":{"ID":197803,"DIS_CODE":0,"TOWNNAME":"鹽水區","LI":"岸內里","LIN":"18鄰","STREET":"北門路","SECT":" ","MAREA":" ","LANE":"１巷","ALLEY":"６弄","HOUSE_NO":"１９號","E_COORD97":175103.23000000001,"N_COORD97":2580360.6800000002,"ADDRESS":"北門路１巷６弄１９號","OBJECTID":197802},"geometry":{"x":175103.23000000231,"y":2580360.6800000034}},{"attributes":{"ID":197804,"DIS_CODE":0,"TOWNNAME":"鹽水區","LI":"岸內里","LIN":"18鄰","STREET":"北門路","SECT":" ","MAREA":" ","LANE":"１巷","ALLEY":"６弄","HOUSE_NO":"１號","E_COORD97":175100.79000000001,"N_COORD97":2580403.9300000002,"ADDRESS":"北門路１巷６弄１號","OBJECTID":197803},"geometry":{"x":175100.79000000097,"y":2580403.9300000016}},{"attributes":{"ID":197805,"DIS_CODE":0,"TOWNNAME":"鹽水區","LI":"岸內里","LIN":"18鄰","STREET":"北門路","SECT":" ","MAREA":" ","LANE":"１巷","ALLEY":"６弄","HOUSE_NO":"２０號","E_COORD97":175077.76999999999,"N_COORD97":2580372.5499999998,"ADDRESS":"北門路１巷６弄２０號","OBJECTID":197804},"geometry":{"x":175077.76999999955,"y":2580372.5500000007}},{"attributes":{"ID":197806,"DIS_CODE":0,"TOWNNAME":"鹽水區","LI":"岸內里","LIN":"18鄰","STREET":"北門路","SECT":" ","MAREA":" ","LANE":"１巷","ALLEY":"６弄","HOUSE_NO":"２１號","E_COORD97":175145.60999999999,"N_COORD97":2580407.0600000001,"ADDRESS":"北門路１巷６弄２１號","OBJECTID":197805},"geometry":{"x":175145.61000000034,"y":2580407.0600000024}},{"attributes":{"ID":197807,"DIS_CODE":0,"TOWNNAME":"鹽水區","LI":"岸內里","LIN":"18鄰","STREET":"北門路","SECT":" ","MAREA":" ","LANE":"１巷","ALLEY":"６弄","HOUSE_NO":"２２號","E_COORD97":175077.91,"N_COORD97":2580368.6200000001,"ADDRESS":"北門路１巷６弄２２號","OBJECTID":197806},"geometry":{"x":175077.91000000201,"y":2580368.620000001}},{"attributes":{"ID":197808,"DIS_CODE":0,"TOWNNAME":"鹽水區","LI":"岸內里","LIN":"18鄰","STREET":"北門路","SECT":" ","MAREA":" ","LANE":"１巷","ALLEY":"６弄","HOUSE_NO":"２３號","E_COORD97":175145.54000000001,"N_COORD97":2580402.9399999999,"ADDRESS":"北門路１巷６弄２３號","OBJECTID":197807},"geometry":{"x":175145.54000000097,"y":2580402.9400000032}},{"attributes":{"ID":197809,"DIS_CODE":0,"TOWNNAME":"鹽水區","LI":"岸內里","LIN":"18鄰","STREET":"北門路","SECT":" ","MAREA":" ","LANE":"１巷","ALLEY":"６弄","HOUSE_NO":"２４號","E_COORD97":175121.63,"N_COORD97":2580405.2599999998,"ADDRESS":"北門路１巷６弄２４號","OBJECTID":197808},"geometry":{"x":175121.62999999989,"y":2580405.2600000016}},{"attributes":{"ID":197810,"DIS_CODE":0,"TOWNNAME":"鹽水區","LI":"岸內里","LIN":"18鄰","STREET":"北門路","SECT":" ","MAREA":" ","LANE":"１巷","ALLEY":"６弄","HOUSE_NO":"２５號","E_COORD97":175145.79000000001,"N_COORD97":2580398.54,"ADDRESS":"北門路１巷６弄２５號","OBJECTID":197809},"geometry":{"x":175145.79000000004,"y":2580398.5400000028}},{"attributes":{"ID":197811,"DIS_CODE":0,"TOWNNAME":"官田區","LI":"官田里","LIN":"3鄰","STREET":" ","SECT":" ","MAREA":"官田","LANE":" ","ALLEY":" ","HOUSE_NO":"２１號之３","E_COORD97":182582.10000000001,"N_COORD97":2565221.4199999999,"ADDRESS":"官田２１號之３","OBJECTID":197810},"geometry":{"x":182582.09999999963,"y":2565221.4200000037}},{"attributes":{"ID":197812,"DIS_CODE":0,"TOWNNAME":"官田區","LI":"官田里","LIN":"3鄰","STREET":" ","SECT":" ","MAREA":"官田","LANE":" ","ALLEY":" ","HOUSE_NO":"２１號之４","E_COORD97":182579.29000000001,"N_COORD97":2565259.4399999999,"ADDRESS":"官田２１號之４","OBJECTID":197811},"geometry":{"x":182579.29000000004,"y":2565259.4400000013}},{"attributes":{"ID":197813,"DIS_CODE":0,"TOWNNAME":"官田區","LI":"官田里","LIN":"3鄰","STREET":" ","SECT":" ","MAREA":"官田","LANE":" ","ALLEY":" ","HOUSE_NO":"２２號之１","E_COORD97":182554.88,"N_COORD97":2565235.0099999998,"ADDRESS":"官田２２號之１","OBJECTID":197812},"geometry":{"x":182554.87999999989,"y":2565235.0100000016}},{"attributes":{"ID":197814,"DIS_CODE":0,"TOWNNAME":"鹽水區","LI":"岸內里","LIN":"18鄰","STREET":"北門路","SECT":" ","MAREA":" ","LANE":"１巷","ALLEY":"６弄","HOUSE_NO":"２７號","E_COORD97":175145.92999999999,"N_COORD97":2580394.3300000001,"ADDRESS":"北門路１巷６弄２７號","OBJECTID":197813},"geometry":{"x":175145.93000000063,"y":2580394.3300000038}},{"attributes":{"ID":197815,"DIS_CODE":0,"TOWNNAME":"鹽水區","LI":"岸內里","LIN":"18鄰","STREET":"北門路","SECT":" ","MAREA":" ","LANE":"１巷","ALLEY":"６弄","HOUSE_NO":"２８號","E_COORD97":175122.04000000001,"N_COORD97":2580397.25,"ADDRESS":"北門路１巷６弄２８號","OBJECTID":197814},"geometry":{"x":175122.04000000004,"y":2580397.25}},{"attributes":{"ID":197816,"DIS_CODE":0,"TOWNNAME":"鹽水區","LI":"岸內里","LIN":"18鄰","STREET":"北門路","SECT":" ","MAREA":" ","LANE":"１巷","ALLEY":"６弄","HOUSE_NO":"２９號","E_COORD97":175145.69,"N_COORD97":2580390.1000000001,"ADDRESS":"北門路１巷６弄２９號","OBJECTID":197815},"geometry":{"x":175145.68999999948,"y":2580390.0999999996}},{"attributes":{"ID":197817,"DIS_CODE":0,"TOWNNAME":"鹽水區","LI":"岸內里","LIN":"18鄰","STREET":"北門路","SECT":" ","MAREA":" ","LANE":"１巷","ALLEY":"６弄","HOUSE_NO":"２號","E_COORD97":175076.70000000001,"N_COORD97":2580403.96,"ADDRESS":"北門路１巷６弄２號","OBJECTID":197816},"geometry":{"x":175076.70000000112,"y":2580403.959999999}},{"attributes":{"ID":197818,"DIS_CODE":0,"TOWNNAME":"仁德區","LI":"中生里","LIN":"3鄰","STREET":" ","SECT":" ","MAREA":"中洲","LANE":" ","ALLEY":" ","HOUSE_NO":"９３號之１２","E_COORD97":173039.98000000001,"N_COORD97":2534379.79,"ADDRESS":"中洲９３號之１２","OBJECTID":197817},"geometry":{"x":173039.97999999952,"y":2534379.790000001}},{"attributes":{"ID":197819,"DIS_CODE":0,"TOWNNAME":"鹽水區","LI":"岸內里","LIN":"18鄰","STREET":"北門路","SECT":" ","MAREA":" ","LANE":"１巷","ALLEY":"６弄","HOUSE_NO":"３０號","E_COORD97":175122.10999999999,"N_COORD97":2580393.4500000002,"ADDRESS":"北門路１巷６弄３０號","OBJECTID":197818},"geometry":{"x":175122.11000000034,"y":2580393.4500000011}},{"attributes":{"ID":197820,"DIS_CODE":0,"TOWNNAME":"鹽水區","LI":"岸內里","LIN":"18鄰","STREET":"北門路","SECT":" ","MAREA":" ","LANE":"１巷","ALLEY":"６弄","HOUSE_NO":"３１號","E_COORD97":175145.73999999999,"N_COORD97":2580385.9199999999,"ADDRESS":"北門路１巷６弄３１號","OBJECTID":197819},"geometry":{"x":175145.74000000115,"y":2580385.9199999999}},{"attributes":{"ID":197821,"DIS_CODE":0,"TOWNNAME":"鹽水區","LI":"岸內里","LIN":"18鄰","STREET":"北門路","SECT":" ","MAREA":" ","LANE":"１巷","ALLEY":"６弄","HOUSE_NO":"３２號","E_COORD97":175122,"N_COORD97":2580389.0699999998,"ADDRESS":"北門路１巷６弄３２號","OBJECTID":197820},"geometry":{"x":175122.00000000093,"y":2580389.0699999984}},{"attributes":{"ID":197822,"DIS_CODE":0,"TOWNNAME":"鹽水區","LI":"岸內里","LIN":"18鄰","STREET":"北門路","SECT":" ","MAREA":" ","LANE":"１巷","ALLEY":"６弄","HOUSE_NO":"３３號","E_COORD97":175145.73000000001,"N_COORD97":2580381.5299999998,"ADDRESS":"北門路１巷６弄３３號","OBJECTID":197821},"geometry":{"x":175145.73000000138,"y":2580381.5299999975}},{"attributes":{"ID":197823,"DIS_CODE":0,"TOWNNAME":"鹽水區","LI":"岸內里","LIN":"18鄰","STREET":"北門路","SECT":" ","MAREA":" ","LANE":"１巷","ALLEY":"６弄","HOUSE_NO":"３４號","E_COORD97":175121.97,"N_COORD97":2580384.8999999999,"ADDRESS":"北門路１巷６弄３４號","OBJECTID":197822},"geometry":{"x":175121.97000000067,"y":2580384.9000000022}},{"attributes":{"ID":197824,"DIS_CODE":0,"TOWNNAME":"鹽水區","LI":"岸內里","LIN":"18鄰","STREET":"北門路","SECT":" ","MAREA":" ","LANE":"１巷","ALLEY":"６弄","HOUSE_NO":"３５號","E_COORD97":175145.75,"N_COORD97":2580377.2799999998,"ADDRESS":"北門路１巷６弄３５號","OBJECTID":197823},"geometry":{"x":175145.75000000093,"y":2580377.2800000012}},{"attributes":{"ID":197825,"DIS_CODE":0,"TOWNNAME":"鹽水區","LI":"岸內里","LIN":"18鄰","STREET":"北門路","SECT":" ","MAREA":" ","LANE":"１巷","ALLEY":"６弄","HOUSE_NO":"３６號","E_COORD97":175121.95999999999,"N_COORD97":2580380.7000000002,"ADDRESS":"北門路１巷６弄３６號","OBJECTID":197824},"geometry":{"x":175121.96000000089,"y":2580380.700000003}},{"attributes":{"ID":197826,"DIS_CODE":0,"TOWNNAME":"鹽水區","LI":"岸內里","LIN":"18鄰","STREET":"北門路","SECT":" ","MAREA":" ","LANE":"１巷","ALLEY":"６弄","HOUSE_NO":"３８號","E_COORD97":175122.14000000001,"N_COORD97":2580376.6400000001,"ADDRESS":"北門路１巷６弄３８號","OBJECTID":197825},"geometry":{"x":175122.1400000006,"y":2580376.6400000025}},{"attributes":{"ID":197827,"DIS_CODE":0,"TOWNNAME":"鹽水區","LI":"岸內里","LIN":"18鄰","STREET":"北門路","SECT":" ","MAREA":" ","LANE":"１巷","ALLEY":"６弄","HOUSE_NO":"３號","E_COORD97":175101.17000000001,"N_COORD97":2580399.4300000002,"ADDRESS":"北門路１巷６弄３號","OBJECTID":197826},"geometry":{"x":175101.16999999993,"y":2580399.4299999997}},{"attributes":{"ID":197828,"DIS_CODE":0,"TOWNNAME":"鹽水區","LI":"岸內里","LIN":"18鄰","STREET":"北門路","SECT":" ","MAREA":" ","LANE":"１巷","ALLEY":"６弄","HOUSE_NO":"５號","E_COORD97":175101.13,"N_COORD97":2580395.3900000001,"ADDRESS":"北門路１巷６弄５號","OBJECTID":197827},"geometry":{"x":175101.12999999989,"y":2580395.3900000025}},{"attributes":{"ID":197829,"DIS_CODE":0,"TOWNNAME":"東區","LI":"龍山里","LIN":"21鄰","STREET":"富德街","SECT":" ","MAREA":" ","LANE":" ","ALLEY":" ","HOUSE_NO":"３４號","E_COORD97":170464.54000000001,"N_COORD97":2542772.3300000001,"ADDRESS":"富德街３４號","OBJECTID":197828},"geometry":{"x":170464.54000000097,"y":2542772.3300000019}},{"attributes":{"ID":197830,"DIS_CODE":0,"TOWNNAME":"仁德區","LI":"中生里","LIN":"3鄰","STREET":" ","SECT":" ","MAREA":"中洲","LANE":" ","ALLEY":" ","HOUSE_NO":"９３號之１６","E_COORD97":173034.57999999999,"N_COORD97":2534398.2999999998,"ADDRESS":"中洲９３號之１６","OBJECTID":197829},"geometry":{"x":173034.58000000101,"y":2534398.3000000026}},{"attributes":{"ID":197831,"DIS_CODE":0,"TOWNNAME":"仁德區","LI":"中生里","LIN":"3鄰","STREET":" ","SECT":" ","MAREA":"中洲","LANE":" ","ALLEY":" ","HOUSE_NO":"９６號之１","E_COORD97":172984.47,"N_COORD97":2534317.2999999998,"ADDRESS":"中洲９６號之１","OBJECTID":197830},"geometry":{"x":172984.46999999974,"y":2534317.3000000026}},{"attributes":{"ID":197832,"DIS_CODE":0,"TOWNNAME":"仁德區","LI":"中生里","LIN":"3鄰","STREET":" ","SECT":" ","MAREA":"中洲","LANE":" ","ALLEY":" ","HOUSE_NO":"９３號之３２","E_COORD97":173036.82999999999,"N_COORD97":2534441.79,"ADDRESS":"中洲９３號之３２","OBJECTID":197831},"geometry":{"x":173036.83000000007,"y":2534441.790000001}},{"attributes":{"ID":197833,"DIS_CODE":0,"TOWNNAME":"仁德區","LI":"中生里","LIN":"3鄰","STREET":" ","SECT":" ","MAREA":"中洲","LANE":" ","ALLEY":" ","HOUSE_NO":"９３號之２９","E_COORD97":173043.35000000001,"N_COORD97":2534431.2999999998,"ADDRESS":"中洲９３號之２９","OBJECTID":197832},"geometry":{"x":173043.34999999963,"y":2534431.3000000007}},{"attributes":{"ID":197834,"DIS_CODE":0,"TOWNNAME":"仁德區","LI":"中生里","LIN":"3鄰","STREET":" ","SECT":" ","MAREA":"中洲","LANE":" ","ALLEY":" ","HOUSE_NO":"９３號之２８","E_COORD97":173045.69,"N_COORD97":2534427.5499999998,"ADDRESS":"中洲９３號之２８","OBJECTID":197833},"geometry":{"x":173045.69000000134,"y":2534427.5500000026}},{"attributes":{"ID":197835,"DIS_CODE":0,"TOWNNAME":"仁德區","LI":"中生里","LIN":"3鄰","STREET":" ","SECT":" ","MAREA":"中洲","LANE":" ","ALLEY":" ","HOUSE_NO":"１０４號","E_COORD97":173011.13,"N_COORD97":2534335,"ADDRESS":"中洲１０４號","OBJECTID":197834},"geometry":{"x":173011.12999999989,"y":2534335.0000000019}},{"attributes":{"ID":197836,"DIS_CODE":0,"TOWNNAME":"官田區","LI":"官田里","LIN":"3鄰","STREET":" ","SECT":" ","MAREA":"官田","LANE":" ","ALLEY":" ","HOUSE_NO":"２８號","E_COORD97":182525.25,"N_COORD97":2565269.5,"ADDRESS":"官田２８號","OBJECTID":197835},"geometry":{"x":182525.25,"y":2565269.5000000019}},{"attributes":{"ID":197837,"DIS_CODE":0,"TOWNNAME":"仁德區","LI":"中洲里","LIN":"3鄰","STREET":" ","SECT":" ","MAREA":"中洲","LANE":" ","ALLEY":" ","HOUSE_NO":"２７號之２","E_COORD97":173235.89000000001,"N_COORD97":2534403.0499999998,"ADDRESS":"中洲２７號之２","OBJECTID":197836},"geometry":{"x":173235.88999999966,"y":2534403.0500000045}},{"attributes":{"ID":197838,"DIS_CODE":0,"TOWNNAME":"仁德區","LI":"中洲里","LIN":"3鄰","STREET":" ","SECT":" ","MAREA":"中洲","LANE":" ","ALLEY":" ","HOUSE_NO":"２０號之１０","E_COORD97":173372.22,"N_COORD97":2534428.0499999998,"ADDRESS":"中洲２０號之１０","OBJECTID":197837},"geometry":{"x":173372.22000000067,"y":2534428.0500000026}},{"attributes":{"ID":197839,"DIS_CODE":0,"TOWNNAME":"仁德區","LI":"中洲里","LIN":"3鄰","STREET":" ","SECT":" ","MAREA":"中洲","LANE":" ","ALLEY":" ","HOUSE_NO":"２０號之１３","E_COORD97":173390.84,"N_COORD97":2534426.2999999998,"ADDRESS":"中洲２０號之１３","OBJECTID":197838},"geometry":{"x":173390.83999999985,"y":2534426.3000000026}},{"attributes":{"ID":197840,"DIS_CODE":0,"TOWNNAME":"仁德區","LI":"三甲里","LIN":"3鄰","STREET":" ","SECT":" ","MAREA":"三甲子","LANE":" ","ALLEY":" ","HOUSE_NO":"２６之５號","E_COORD97":171836.14999999999,"N_COORD97":2536873.54,"ADDRESS":"三甲子２６之５號","OBJECTID":197839},"geometry":{"x":171836.15000000037,"y":2536873.540000001}},{"attributes":{"ID":197841,"DIS_CODE":0,"TOWNNAME":"仁德區","LI":"中生里","LIN":"3鄰","STREET":" ","SECT":" ","MAREA":"中洲","LANE":" ","ALLEY":" ","HOUSE_NO":"９３號之２７","E_COORD97":173048.17000000001,"N_COORD97":2534423.7999999998,"ADDRESS":"中洲９３號之２７","OBJECTID":197840},"geometry":{"x":173048.16999999993,"y":2534423.8000000007}},{"attributes":{"ID":197842,"DIS_CODE":0,"TOWNNAME":"官田區","LI":"拔林里","LIN":"3鄰","STREET":" ","SECT":" ","MAREA":"拔子林","LANE":" ","ALLEY":" ","HOUSE_NO":"２２號之２","E_COORD97":180613.98000000001,"N_COORD97":2563569.2799999998,"ADDRESS":"拔子林２２號之２","OBJECTID":197841},"geometry":{"x":180613.98000000045,"y":2563569.2799999993}},{"attributes":{"ID":197843,"DIS_CODE":0,"TOWNNAME":"官田區","LI":"拔林里","LIN":"3鄰","STREET":" ","SECT":" ","MAREA":"拔子林","LANE":" ","ALLEY":" ","HOUSE_NO":"２２號","E_COORD97":180628.64999999999,"N_COORD97":2563567.0699999998,"ADDRESS":"拔子林２２號","OBJECTID":197842},"geometry":{"x":180628.6500000013,"y":2563567.0700000022}},{"attributes":{"ID":197844,"DIS_CODE":0,"TOWNNAME":"官田區","LI":"拔林里","LIN":"3鄰","STREET":" ","SECT":" ","MAREA":"拔子林","LANE":" ","ALLEY":" ","HOUSE_NO":"２３號","E_COORD97":180595.98999999999,"N_COORD97":2563564.6800000002,"ADDRESS":"拔子林２３號","OBJECTID":197843},"geometry":{"x":180595.99000000115,"y":2563564.6799999978}},{"attributes":{"ID":197845,"DIS_CODE":0,"TOWNNAME":"官田區","LI":"社子里","LIN":"3鄰","STREET":" ","SECT":" ","MAREA":"社子","LANE":" ","ALLEY":" ","HOUSE_NO":"１８號","E_COORD97":184915.67999999999,"N_COORD97":2564712.8300000001,"ADDRESS":"社子１８號","OBJECTID":197844},"geometry":{"x":184915.6799999997,"y":2564712.8300000001}},{"attributes":{"ID":197846,"DIS_CODE":0,"TOWNNAME":"東區","LI":"東安里","LIN":"21鄰","STREET":"林森路","SECT":"二段","MAREA":" ","LANE":" ","ALLEY":" ","HOUSE_NO":"５１號","E_COORD97":170293.54999999999,"N_COORD97":2543002.5899999999,"ADDRESS":"林森路二段５１號","OBJECTID":197845},"geometry":{"x":170293.55000000075,"y":2543002.5899999999}},{"attributes":{"ID":197847,"DIS_CODE":0,"TOWNNAME":"東區","LI":"東安里","LIN":"21鄰","STREET":"林森路","SECT":"二段","MAREA":" ","LANE":" ","ALLEY":" ","HOUSE_NO":"５３號","E_COORD97":170295.09,"N_COORD97":2543006.8500000001,"ADDRESS":"林森路二段５３號","OBJECTID":197846},"geometry":{"x":170295.08999999985,"y":2543006.8499999996}},{"attributes":{"ID":197848,"DIS_CODE":0,"TOWNNAME":"東區","LI":"東安里","LIN":"21鄰","STREET":"林森路","SECT":"二段","MAREA":" ","LANE":" ","ALLEY":" ","HOUSE_NO":"５７號","E_COORD97":170298,"N_COORD97":2543019.2000000002,"ADDRESS":"林森路二段５７號","OBJECTID":197847},"geometry":{"x":170298,"y":2543019.2000000011}},{"attributes":{"ID":197849,"DIS_CODE":0,"TOWNNAME":"永康區","LI":"西勢里","LIN":"21鄰","STREET":"富強路","SECT":"一段","MAREA":" ","LANE":" ","ALLEY":" ","HOUSE_NO":"２９號","E_COORD97":175400.01000000001,"N_COORD97":2546066.02,"ADDRESS":"富強路一段２９號","OBJECTID":197848},"geometry":{"x":175400.00999999978,"y":2546066.0200000014}},{"attributes":{"ID":197850,"DIS_CODE":0,"TOWNNAME":"鹽水區","LI":"岸內里","LIN":"18鄰","STREET":"北門路","SECT":" ","MAREA":" ","LANE":"１巷","ALLEY":"６弄","HOUSE_NO":"６號","E_COORD97":175076.82999999999,"N_COORD97":2580400.04,"ADDRESS":"北門路１巷６弄６號","OBJECTID":197849},"geometry":{"x":175076.83000000101,"y":2580400.040000001}},{"attributes":{"ID":197851,"DIS_CODE":0,"TOWNNAME":"鹽水區","LI":"岸內里","LIN":"18鄰","STREET":"北門路","SECT":" ","MAREA":" ","LANE":"１巷","ALLEY":"６弄","HOUSE_NO":"７號","E_COORD97":175101.07999999999,"N_COORD97":2580391.0800000001,"ADDRESS":"北門路１巷６弄７號","OBJECTID":197850},"geometry":{"x":175101.08000000101,"y":2580391.0800000001}},{"attributes":{"ID":197852,"DIS_CODE":0,"TOWNNAME":"鹽水區","LI":"岸內里","LIN":"18鄰","STREET":"北門路","SECT":" ","MAREA":" ","LANE":"１巷","ALLEY":"６弄","HOUSE_NO":"８號","E_COORD97":175076.95999999999,"N_COORD97":2580396.1099999999,"ADDRESS":"北門路１巷６弄８號","OBJECTID":197851},"geometry":{"x":175076.95999999996,"y":2580396.1100000013}},{"attributes":{"ID":197853,"DIS_CODE":0,"TOWNNAME":"鹽水區","LI":"岸內里","LIN":"18鄰","STREET":"北門路","SECT":" ","MAREA":" ","LANE":"１巷","ALLEY":"６弄","HOUSE_NO":"９號","E_COORD97":175100.95000000001,"N_COORD97":2580386.8999999999,"ADDRESS":"北門路１巷６弄９號","OBJECTID":197852},"geometry":{"x":175100.95000000019,"y":2580386.8999999985}},{"attributes":{"ID":197854,"DIS_CODE":0,"TOWNNAME":"關廟區","LI":"五甲里","LIN":"18鄰","STREET":"大富街","SECT":" ","MAREA":" ","LANE":"３９巷","ALLEY":"１弄","HOUSE_NO":"７號","E_COORD97":180955.42000000001,"N_COORD97":2539073.25,"ADDRESS":"大富街３９巷１弄７號","OBJECTID":197853},"geometry":{"x":180955.42000000086,"y":2539073.2500000019}},{"attributes":{"ID":197855,"DIS_CODE":0,"TOWNNAME":"永康區","LI":"安康里","LIN":"21鄰","STREET":"中華路","SECT":" ","MAREA":" ","LANE":" ","ALLEY":" ","HOUSE_NO":"６７３號","E_COORD97":170969.76000000001,"N_COORD97":2546247.25,"ADDRESS":"中華路６７３號","OBJECTID":197854},"geometry":{"x":170969.76000000071,"y":2546247.2500000019}},{"attributes":{"ID":197856,"DIS_CODE":0,"TOWNNAME":"關廟區","LI":"五甲里","LIN":"18鄰","STREET":"大富街","SECT":" ","MAREA":" ","LANE":"３９巷","ALLEY":"１弄","HOUSE_NO":"８號","E_COORD97":180974.51999999999,"N_COORD97":2539080.25,"ADDRESS":"大富街３９巷１弄８號","OBJECTID":197855},"geometry":{"x":180974.52000000048,"y":2539080.2500000019}},{"attributes":{"ID":197857,"DIS_CODE":0,"TOWNNAME":"關廟區","LI":"五甲里","LIN":"18鄰","STREET":"大富街","SECT":" ","MAREA":" ","LANE":"３９巷","ALLEY":"１弄","HOUSE_NO":"１號","E_COORD97":180959.22,"N_COORD97":2539063.25,"ADDRESS":"大富街３９巷１弄１號","OBJECTID":197856},"geometry":{"x":180959.21999999974,"y":2539063.2500000019}},{"attributes":{"ID":197858,"DIS_CODE":0,"TOWNNAME":"永康區","LI":"安康里","LIN":"21鄰","STREET":"中華路","SECT":" ","MAREA":" ","LANE":" ","ALLEY":" ","HOUSE_NO":"６７７號","E_COORD97":170956.37,"N_COORD97":2546265.4900000002,"ADDRESS":"中華路６７７號","OBJECTID":197857},"geometry":{"x":170956.37000000011,"y":2546265.4900000039}},{"attributes":{"ID":197859,"DIS_CODE":0,"TOWNNAME":"關廟區","LI":"五甲里","LIN":"18鄰","STREET":"大富街","SECT":" ","MAREA":" ","LANE":"３９巷","ALLEY":"１弄","HOUSE_NO":"３號","E_COORD97":180957.72,"N_COORD97":2539066.25,"ADDRESS":"大富街３９巷１弄３號","OBJECTID":197858},"geometry":{"x":180957.7200000016,"y":2539066.2500000019}},{"attributes":{"ID":197860,"DIS_CODE":0,"TOWNNAME":"永康區","LI":"西勢里","LIN":"21鄰","STREET":"富強路","SECT":"一段","MAREA":" ","LANE":" ","ALLEY":" ","HOUSE_NO":"３５號","E_COORD97":175407.32999999999,"N_COORD97":2546077.77,"ADDRESS":"富強路一段３５號","OBJECTID":197859},"geometry":{"x":175407.33000000194,"y":2546077.7700000014}},{"attributes":{"ID":197861,"DIS_CODE":0,"TOWNNAME":"關廟區","LI":"五甲里","LIN":"18鄰","STREET":"大富街","SECT":" ","MAREA":" ","LANE":"３９巷","ALLEY":"１弄","HOUSE_NO":"１２號","E_COORD97":180972.76999999999,"N_COORD97":2539087.25,"ADDRESS":"大富街３９巷１弄１２號","OBJECTID":197860},"geometry":{"x":180972.77000000048,"y":2539087.2500000019}},{"attributes":{"ID":197862,"DIS_CODE":0,"TOWNNAME":"關廟區","LI":"五甲里","LIN":"18鄰","STREET":"大富街","SECT":" ","MAREA":" ","LANE":"３９巷","ALLEY":"１弄","HOUSE_NO":"６號","E_COORD97":180975.32000000001,"N_COORD97":2539076.25,"ADDRESS":"大富街３９巷１弄６號","OBJECTID":197861},"geometry":{"x":180975.32000000123,"y":2539076.2500000037}},{"attributes":{"ID":197863,"DIS_CODE":0,"TOWNNAME":"永康區","LI":"西勢里","LIN":"21鄰","STREET":"富強路","SECT":"一段","MAREA":" ","LANE":" ","ALLEY":" ","HOUSE_NO":"３４號","E_COORD97":175421.07999999999,"N_COORD97":2546045.8599999999,"ADDRESS":"富強路一段３４號","OBJECTID":197862},"geometry":{"x":175421.08000000101,"y":2546045.8600000013}},{"attributes":{"ID":197864,"DIS_CODE":0,"TOWNNAME":"永康區","LI":"西勢里","LIN":"21鄰","STREET":"富強路","SECT":"一段","MAREA":" ","LANE":" ","ALLEY":" ","HOUSE_NO":"２７號","E_COORD97":175397.73000000001,"N_COORD97":2546062.27,"ADDRESS":"富強路一段２７號","OBJECTID":197863},"geometry":{"x":175397.73000000045,"y":2546062.2699999996}},{"attributes":{"ID":197865,"DIS_CODE":0,"TOWNNAME":"新化區","LI":"崙頂里","LIN":"3鄰","STREET":" ","SECT":" ","MAREA":"崙子頂","LANE":" ","ALLEY":" ","HOUSE_NO":"１１０號之１","E_COORD97":176817.76000000001,"N_COORD97":2546739.2599999998,"ADDRESS":"崙子頂１１０號之１","OBJECTID":197864},"geometry":{"x":176817.76000000164,"y":2546739.2600000016}},{"attributes":{"ID":197866,"DIS_CODE":0,"TOWNNAME":"永康區","LI":"西勢里","LIN":"21鄰","STREET":"富強路","SECT":"一段","MAREA":" ","LANE":" ","ALLEY":" ","HOUSE_NO":"２２號","E_COORD97":175408.34,"N_COORD97":2546023.6200000001,"ADDRESS":"富強路一段２２號","OBJECTID":197865},"geometry":{"x":175408.33999999985,"y":2546023.620000001}},{"attributes":{"ID":197867,"DIS_CODE":0,"TOWNNAME":"永康區","LI":"安康里","LIN":"21鄰","STREET":"中華路","SECT":" ","MAREA":" ","LANE":" ","ALLEY":" ","HOUSE_NO":"６６７號","E_COORD97":170977.76000000001,"N_COORD97":2546237,"ADDRESS":"中華路６６７號","OBJECTID":197866},"geometry":{"x":170977.75999999885,"y":2546237}},{"attributes":{"ID":197868,"DIS_CODE":0,"TOWNNAME":"永康區","LI":"安康里","LIN":"21鄰","STREET":"中華路","SECT":" ","MAREA":" ","LANE":" ","ALLEY":" ","HOUSE_NO":"６７９號","E_COORD97":170954.20999999999,"N_COORD97":2546268.9900000002,"ADDRESS":"中華路６７９號","OBJECTID":197867},"geometry":{"x":170954.20999999996,"y":2546268.9900000039}},{"attributes":{"ID":197869,"DIS_CODE":0,"TOWNNAME":"新化區","LI":"羊林里","LIN":"3鄰","STREET":" ","SECT":" ","MAREA":"\u25A0拔林","LANE":" ","ALLEY":" ","HOUSE_NO":"４２４號","E_COORD97":183740.12,"N_COORD97":2551721.25,"ADDRESS":"\u25A0拔林４２４號","OBJECTID":197868},"geometry":{"x":183740.12000000011,"y":2551721.25}},{"attributes":{"ID":197870,"DIS_CODE":0,"TOWNNAME":"新化區","LI":"羊林里","LIN":"3鄰","STREET":" ","SECT":" ","MAREA":"\u25A0拔林","LANE":" ","ALLEY":" ","HOUSE_NO":"４３４號之１","E_COORD97":184371.64999999999,"N_COORD97":2550951.2599999998,"ADDRESS":"\u25A0拔林４３４號之１","OBJECTID":197869},"geometry":{"x":184371.6500000013,"y":2550951.2599999998}},{"attributes":{"ID":197871,"DIS_CODE":0,"TOWNNAME":"新化區","LI":"羊林里","LIN":"3鄰","STREET":" ","SECT":" ","MAREA":"\u25A0拔林","LANE":" ","ALLEY":" ","HOUSE_NO":"４２５號之２","E_COORD97":183766.28,"N_COORD97":2551703.2599999998,"ADDRESS":"\u25A0拔林４２５號之２","OBJECTID":197870},"geometry":{"x":183766.28000000026,"y":2551703.2599999998}},{"attributes":{"ID":197872,"DIS_CODE":0,"TOWNNAME":"新化區","LI":"崙頂里","LIN":"3鄰","STREET":" ","SECT":" ","MAREA":"崙子頂","LANE":" ","ALLEY":" ","HOUSE_NO":"１３３號","E_COORD97":176789.23000000001,"N_COORD97":2546713.25,"ADDRESS":"崙子頂１３３號","OBJECTID":197871},"geometry":{"x":176789.23000000045,"y":2546713.25}},{"attributes":{"ID":197873,"DIS_CODE":0,"TOWNNAME":"新化區","LI":"羊林里","LIN":"3鄰","STREET":" ","SECT":" ","MAREA":"\u25A0拔林","LANE":" ","ALLEY":" ","HOUSE_NO":"４２６號","E_COORD97":183773.62,"N_COORD97":2551728.25,"ADDRESS":"\u25A0拔林４２６號","OBJECTID":197872},"geometry":{"x":183773.62000000011,"y":2551728.25}},{"attributes":{"ID":197874,"DIS_CODE":0,"TOWNNAME":"新化區","LI":"羊林里","LIN":"3鄰","STREET":" ","SECT":" ","MAREA":"\u25A0拔林","LANE":" ","ALLEY":" ","HOUSE_NO":"４３９號之１０","E_COORD97":183696.97,"N_COORD97":2551735.9100000001,"ADDRESS":"\u25A0拔林４３９號之１０","OBJECTID":197873},"geometry":{"x":183696.96999999881,"y":2551735.910000002}},{"attributes":{"ID":197875,"DIS_CODE":0,"TOWNNAME":"新化區","LI":"羊林里","LIN":"3鄰","STREET":" ","SECT":" ","MAREA":"\u25A0拔林","LANE":" ","ALLEY":" ","HOUSE_NO":"４３９號之１１","E_COORD97":183691.29000000001,"N_COORD97":2551746.79,"ADDRESS":"\u25A0拔林４３９號之１１","OBJECTID":197874},"geometry":{"x":183691.29000000004,"y":2551746.7899999991}},{"attributes":{"ID":197876,"DIS_CODE":0,"TOWNNAME":"新化區","LI":"羊林里","LIN":"3鄰","STREET":" ","SECT":" ","MAREA":"\u25A0拔林","LANE":" ","ALLEY":" ","HOUSE_NO":"４３９號之１２","E_COORD97":183698.17000000001,"N_COORD97":2551749.0899999999,"ADDRESS":"\u25A0拔林４３９號之１２","OBJECTID":197875},"geometry":{"x":183698.17000000086,"y":2551749.0899999999}},{"attributes":{"ID":197877,"DIS_CODE":0,"TOWNNAME":"新化區","LI":"羊林里","LIN":"3鄰","STREET":" ","SECT":" ","MAREA":"\u25A0拔林","LANE":" ","ALLEY":" ","HOUSE_NO":"４３９號之１３","E_COORD97":183704.04000000001,"N_COORD97":2551751.1800000002,"ADDRESS":"\u25A0拔林４３９號之１３","OBJECTID":197876},"geometry":{"x":183704.04000000097,"y":2551751.1799999997}},{"attributes":{"ID":197878,"DIS_CODE":0,"TOWNNAME":"新化區","LI":"羊林里","LIN":"3鄰","STREET":" ","SECT":" ","MAREA":"\u25A0拔林","LANE":" ","ALLEY":" ","HOUSE_NO":"４３９號之１５","E_COORD97":183710.59,"N_COORD97":2551753.9199999999,"ADDRESS":"\u25A0拔林４３９號之１５","OBJECTID":197877},"geometry":{"x":183710.59000000078,"y":2551753.9199999999}},{"attributes":{"ID":197879,"DIS_CODE":0,"TOWNNAME":"新化區","LI":"羊林里","LIN":"3鄰","STREET":" ","SECT":" ","MAREA":"\u25A0拔林","LANE":" ","ALLEY":" ","HOUSE_NO":"４３９號之１６","E_COORD97":183715.70999999999,"N_COORD97":2551755.5899999999,"ADDRESS":"\u25A0拔林４３９號之１６","OBJECTID":197878},"geometry":{"x":183715.70999999996,"y":2551755.5899999999}},{"attributes":{"ID":197880,"DIS_CODE":0,"TOWNNAME":"永康區","LI":"安康里","LIN":"21鄰","STREET":"中華路","SECT":" ","MAREA":" ","LANE":" ","ALLEY":" ","HOUSE_NO":"６６５號","E_COORD97":170979.70999999999,"N_COORD97":2546233,"ADDRESS":"中華路６６５號","OBJECTID":197879},"geometry":{"x":170979.70999999996,"y":2546233.0000000019}},{"attributes":{"ID":197881,"DIS_CODE":0,"TOWNNAME":"永康區","LI":"安康里","LIN":"21鄰","STREET":"中華路","SECT":" ","MAREA":" ","LANE":" ","ALLEY":" ","HOUSE_NO":"６７１號","E_COORD97":170972.85000000001,"N_COORD97":2546244.25,"ADDRESS":"中華路６７１號","OBJECTID":197880},"geometry":{"x":170972.84999999963,"y":2546244.2500000019}},{"attributes":{"ID":197882,"DIS_CODE":0,"TOWNNAME":"關廟區","LI":"北勢里","LIN":"18鄰","STREET":"成功路","SECT":" ","MAREA":" ","LANE":"３５３巷","ALLEY":"６弄","HOUSE_NO":"１６號","E_COORD97":181226.22,"N_COORD97":2540444.27,"ADDRESS":"成功路３５３巷６弄１６號","OBJECTID":197881},"geometry":{"x":181226.22000000067,"y":2540444.2699999996}},{"attributes":{"ID":197883,"DIS_CODE":0,"TOWNNAME":"永康區","LI":"西勢里","LIN":"21鄰","STREET":"富強路","SECT":"一段","MAREA":" ","LANE":" ","ALLEY":" ","HOUSE_NO":"６號","E_COORD97":175390.48000000001,"N_COORD97":2545993.6200000001,"ADDRESS":"富強路一段６號","OBJECTID":197882},"geometry":{"x":175390.48000000138,"y":2545993.620000001}},{"attributes":{"ID":197884,"DIS_CODE":0,"TOWNNAME":"永康區","LI":"西勢里","LIN":"21鄰","STREET":"富強路","SECT":"一段","MAREA":" ","LANE":" ","ALLEY":" ","HOUSE_NO":"４１號","E_COORD97":175412.75,"N_COORD97":2546091.77,"ADDRESS":"富強路一段４１號","OBJECTID":197883},"geometry":{"x":175412.75000000186,"y":2546091.7700000014}},{"attributes":{"ID":197885,"DIS_CODE":0,"TOWNNAME":"關廟區","LI":"北勢里","LIN":"18鄰","STREET":"成功路","SECT":" ","MAREA":" ","LANE":"３５３巷","ALLEY":"６弄","HOUSE_NO":"１號","E_COORD97":181236.87,"N_COORD97":2540426.27,"ADDRESS":"成功路３５３巷６弄１號","OBJECTID":197884},"geometry":{"x":181236.87000000197,"y":2540426.2700000014}},{"attributes":{"ID":197886,"DIS_CODE":0,"TOWNNAME":"關廟區","LI":"松腳里","LIN":"18鄰","STREET":"中山路","SECT":"一段","MAREA":" ","LANE":"８９巷","ALLEY":"３７弄","HOUSE_NO":"２３號","E_COORD97":181977.10999999999,"N_COORD97":2539897.2799999998,"ADDRESS":"中山路一段８９巷３７弄２３號","OBJECTID":197885},"geometry":{"x":181977.11000000034,"y":2539897.2799999993}},{"attributes":{"ID":197887,"DIS_CODE":0,"TOWNNAME":"關廟區","LI":"松腳里","LIN":"18鄰","STREET":"中山路","SECT":"一段","MAREA":" ","LANE":"８９巷","ALLEY":"３７弄","HOUSE_NO":"３３號","E_COORD97":181976.70999999999,"N_COORD97":2539922.2799999998,"ADDRESS":"中山路一段８９巷３７弄３３號","OBJECTID":197886},"geometry":{"x":181976.71000000183,"y":2539922.2799999993}},{"attributes":{"ID":197888,"DIS_CODE":0,"TOWNNAME":"永康區","LI":"西勢里","LIN":"21鄰","STREET":"富強路","SECT":"一段","MAREA":" ","LANE":" ","ALLEY":" ","HOUSE_NO":"５８號","E_COORD97":175452.10000000001,"N_COORD97":2546095.7799999998,"ADDRESS":"富強路一段５８號","OBJECTID":197887},"geometry":{"x":175452.09999999963,"y":2546095.7799999993}},{"attributes":{"ID":197889,"DIS_CODE":0,"TOWNNAME":"永康區","LI":"西勢里","LIN":"21鄰","STREET":"富強路","SECT":"一段","MAREA":" ","LANE":" ","ALLEY":" ","HOUSE_NO":"２５號","E_COORD97":175395.56,"N_COORD97":2546058.02,"ADDRESS":"富強路一段２５號","OBJECTID":197888},"geometry":{"x":175395.56000000052,"y":2546058.0200000033}},{"attributes":{"ID":197890,"DIS_CODE":0,"TOWNNAME":"關廟區","LI":"北勢里","LIN":"18鄰","STREET":"成功路","SECT":" ","MAREA":" ","LANE":"３５３巷","ALLEY":"２弄","HOUSE_NO":"２０號","E_COORD97":181229.22,"N_COORD97":2540484.2599999998,"ADDRESS":"成功路３５３巷２弄２０號","OBJECTID":197889},"geometry":{"x":181229.22000000067,"y":2540484.2600000016}},{"attributes":{"ID":197891,"DIS_CODE":0,"TOWNNAME":"關廟區","LI":"北花里","LIN":"18鄰","STREET":"旺萊路","SECT":" ","MAREA":" ","LANE":"５８１巷","ALLEY":"２８弄","HOUSE_NO":"３２號","E_COORD97":182164.34,"N_COORD97":2540367.25,"ADDRESS":"旺萊路５８１巷２８弄３２號","OBJECTID":197890},"geometry":{"x":182164.34000000078,"y":2540367.25}},{"attributes":{"ID":197892,"DIS_CODE":0,"TOWNNAME":"北區","LI":"成功里","LIN":"18鄰","STREET":"北成路","SECT":" ","MAREA":" ","LANE":"１２８巷","ALLEY":"２３弄","HOUSE_NO":"２０號","E_COORD97":168887.354417,"N_COORD97":2546791.3528499999,"ADDRESS":"北成路１２８巷２３弄２０號","OBJECTID":197891},"geometry":{"x":168887.35441699997,"y":2546791.3528450001}},{"attributes":{"ID":197893,"DIS_CODE":0,"TOWNNAME":"永康區","LI":"西勢里","LIN":"21鄰","STREET":"富強路","SECT":"一段","MAREA":" ","LANE":" ","ALLEY":" ","HOUSE_NO":"１３５號","E_COORD97":175521.39999999999,"N_COORD97":2546275.77,"ADDRESS":"富強路一段１３５號","OBJECTID":197892},"geometry":{"x":175521.4000000013,"y":2546275.7699999996}},{"attributes":{"ID":197894,"DIS_CODE":0,"TOWNNAME":"南區","LI":"新昌里","LIN":"4鄰","STREET":"夏林路","SECT":" ","MAREA":" ","LANE":" ","ALLEY":" ","HOUSE_NO":"１１號","E_COORD97":167483.07999999999,"N_COORD97":2542838.5800000001,"ADDRESS":"夏林路１１號","OBJECTID":197893},"geometry":{"x":167483.08000000007,"y":2542838.5800000019}},{"attributes":{"ID":197895,"DIS_CODE":0,"TOWNNAME":"北區","LI":"成功里","LIN":"18鄰","STREET":"北成路","SECT":" ","MAREA":" ","LANE":"１２８巷","ALLEY":"２３弄","HOUSE_NO":"２５號","E_COORD97":168874.45999999999,"N_COORD97":2546771.7799999998,"ADDRESS":"北成路１２８巷２３弄２５號","OBJECTID":197894},"geometry":{"x":168874.45999999996,"y":2546771.7800000012}},{"attributes":{"ID":197896,"DIS_CODE":0,"TOWNNAME":"北區","LI":"成功里","LIN":"18鄰","STREET":"北成路","SECT":" ","MAREA":" ","LANE":"１２８巷","ALLEY":"２３弄","HOUSE_NO":"２５號之１","E_COORD97":168878.67999999999,"N_COORD97":2546768.9700000002,"ADDRESS":"北成路１２８巷２３弄２５號之１","OBJECTID":197895},"geometry":{"x":168878.68000000063,"y":2546768.9700000025}},{"attributes":{"ID":197897,"DIS_CODE":0,"TOWNNAME":"南區","LI":"新昌里","LIN":"4鄰","STREET":"夏林路","SECT":" ","MAREA":" ","LANE":" ","ALLEY":" ","HOUSE_NO":"１５號之１","E_COORD97":167491.03,"N_COORD97":2542829.3399999999,"ADDRESS":"夏林路１５號之１","OBJECTID":197896},"geometry":{"x":167491.03000000026,"y":2542829.3400000017}},{"attributes":{"ID":197898,"DIS_CODE":0,"TOWNNAME":"北區","LI":"成功里","LIN":"18鄰","STREET":"北成路","SECT":" ","MAREA":" ","LANE":"１２８巷","ALLEY":"２３弄","HOUSE_NO":"２５號之１０","E_COORD97":168883.01000000001,"N_COORD97":2546753.8100000001,"ADDRESS":"北成路１２８巷２３弄２５號之１０","OBJECTID":197897},"geometry":{"x":168883.01000000071,"y":2546753.8100000005}},{"attributes":{"ID":197899,"DIS_CODE":0,"TOWNNAME":"南區","LI":"新昌里","LIN":"4鄰","STREET":"夏林路","SECT":" ","MAREA":" ","LANE":" ","ALLEY":" ","HOUSE_NO":"１５號之２","E_COORD97":167488.60000000001,"N_COORD97":2542822.6899999999,"ADDRESS":"夏林路１５號之２","OBJECTID":197898},"geometry":{"x":167488.60000000056,"y":2542822.6900000013}},{"attributes":{"ID":197900,"DIS_CODE":0,"TOWNNAME":"北區","LI":"成功里","LIN":"18鄰","STREET":"北成路","SECT":" ","MAREA":" ","LANE":"１２８巷","ALLEY":"２３弄","HOUSE_NO":"２５號之１１","E_COORD97":168854.14999999999,"N_COORD97":2546781.6800000002,"ADDRESS":"北成路１２８巷２３弄２５號之１１","OBJECTID":197899},"geometry":{"x":168854.1500000013,"y":2546781.6799999997}},{"attributes":{"ID":197901,"DIS_CODE":0,"TOWNNAME":"南區","LI":"新昌里","LIN":"8鄰","STREET":"五妃街","SECT":" ","MAREA":" ","LANE":" ","ALLEY":" ","HOUSE_NO":"３９２號","E_COORD97":167571.45999999999,"N_COORD97":2542602.4399999999,"ADDRESS":"五妃街３９２號","OBJECTID":197900},"geometry":{"x":167571.46000000089,"y":2542602.4399999995}},{"attributes":{"ID":197902,"DIS_CODE":0,"TOWNNAME":"北區","LI":"成功里","LIN":"18鄰","STREET":"北成路","SECT":" ","MAREA":" ","LANE":"１２８巷","ALLEY":"２３弄","HOUSE_NO":"２５號之１２","E_COORD97":168858,"N_COORD97":2546767.2599999998,"ADDRESS":"北成路１２８巷２３弄２５號之１２","OBJECTID":197901},"geometry":{"x":168858.00000000093,"y":2546767.2599999998}},{"attributes":{"ID":197903,"DIS_CODE":0,"TOWNNAME":"南區","LI":"新昌里","LIN":"8鄰","STREET":"五妃街","SECT":" ","MAREA":" ","LANE":" ","ALLEY":" ","HOUSE_NO":"３９４號","E_COORD97":167563.98999999999,"N_COORD97":2542601.9500000002,"ADDRESS":"五妃街３９４號","OBJECTID":197902},"geometry":{"x":167563.99000000022,"y":2542601.9499999993}},{"attributes":{"ID":197904,"DIS_CODE":0,"TOWNNAME":"南區","LI":"新昌里","LIN":"8鄰","STREET":"五妃街","SECT":" ","MAREA":" ","LANE":" ","ALLEY":" ","HOUSE_NO":"３９６號","E_COORD97":167557.98999999999,"N_COORD97":2542602.9300000002,"ADDRESS":"五妃街３９６號","OBJECTID":197903},"geometry":{"x":167557.99000000115,"y":2542602.9299999997}},{"attributes":{"ID":197905,"DIS_CODE":0,"TOWNNAME":"南區","LI":"新昌里","LIN":"8鄰","STREET":"五妃街","SECT":" ","MAREA":" ","LANE":" ","ALLEY":" ","HOUSE_NO":"４１０號","E_COORD97":167532.35000000001,"N_COORD97":2542603.4100000001,"ADDRESS":"五妃街４１０號","OBJECTID":197904},"geometry":{"x":167532.3499999987,"y":2542603.4100000001}},{"attributes":{"ID":197906,"DIS_CODE":0,"TOWNNAME":"南區","LI":"新昌里","LIN":"8鄰","STREET":"西門路","SECT":"一段","MAREA":" ","LANE":" ","ALLEY":" ","HOUSE_NO":"５５１號","E_COORD97":167707.20000000001,"N_COORD97":2542708.4700000002,"ADDRESS":"西門路一段５５１號","OBJECTID":197905},"geometry":{"x":167707.20000000112,"y":2542708.4700000007}},{"attributes":{"ID":197907,"DIS_CODE":0,"TOWNNAME":"新化區","LI":"羊林里","LIN":"3鄰","STREET":" ","SECT":" ","MAREA":"\u25A0拔林","LANE":" ","ALLEY":" ","HOUSE_NO":"４３９號之１７","E_COORD97":183720.26000000001,"N_COORD97":2551757.3599999999,"ADDRESS":"\u25A0拔林４３９號之１７","OBJECTID":197906},"geometry":{"x":183720.25999999978,"y":2551757.3599999994}},{"attributes":{"ID":197908,"DIS_CODE":0,"TOWNNAME":"新化區","LI":"羊林里","LIN":"3鄰","STREET":" ","SECT":" ","MAREA":"\u25A0拔林","LANE":" ","ALLEY":" ","HOUSE_NO":"４３９號之５","E_COORD97":183721.45999999999,"N_COORD97":2551747.6099999999,"ADDRESS":"\u25A0拔林４３９號之５","OBJECTID":197907},"geometry":{"x":183721.46000000089,"y":2551747.6100000013}},{"attributes":{"ID":197909,"DIS_CODE":0,"TOWNNAME":"新化區","LI":"羊林里","LIN":"3鄰","STREET":" ","SECT":" ","MAREA":"\u25A0拔林","LANE":" ","ALLEY":" ","HOUSE_NO":"４３９號之６","E_COORD97":183718.54999999999,"N_COORD97":2551746.1600000001,"ADDRESS":"\u25A0拔林４３９號之６","OBJECTID":197908},"geometry":{"x":183718.54999999888,"y":2551746.1600000001}},{"attributes":{"ID":197910,"DIS_CODE":0,"TOWNNAME":"大內區","LI":"內江里","LIN":"3鄰","STREET":" ","SECT":" ","MAREA":"內庄","LANE":" ","ALLEY":" ","HOUSE_NO":"２３７號","E_COORD97":184693.38,"N_COORD97":2557412.25,"ADDRESS":"內庄２３７號","OBJECTID":197909},"geometry":{"x":184693.38000000082,"y":2557412.2500000019}},{"attributes":{"ID":197911,"DIS_CODE":0,"TOWNNAME":"善化區","LI":"胡家里","LIN":"3鄰","STREET":" ","SECT":" ","MAREA":"胡厝寮","LANE":" ","ALLEY":" ","HOUSE_NO":"２７號之１","E_COORD97":175585.45000000001,"N_COORD97":2560515.77,"ADDRESS":"胡厝寮２７號之１","OBJECTID":197910},"geometry":{"x":175585.45000000019,"y":2560515.7699999996}},{"attributes":{"ID":197912,"DIS_CODE":0,"TOWNNAME":"善化區","LI":"光文里","LIN":"3鄰","STREET":" ","SECT":" ","MAREA":"北子店","LANE":" ","ALLEY":" ","HOUSE_NO":"１１８號","E_COORD97":179518.76000000001,"N_COORD97":2559646.5,"ADDRESS":"北子店１１８號","OBJECTID":197911},"geometry":{"x":179518.76000000071,"y":2559646.5}},{"attributes":{"ID":197913,"DIS_CODE":0,"TOWNNAME":"永康區","LI":"西勢里","LIN":"21鄰","STREET":"富強路","SECT":"一段","MAREA":" ","LANE":" ","ALLEY":" ","HOUSE_NO":"１５１號","E_COORD97":175553.89000000001,"N_COORD97":2546344,"ADDRESS":"富強路一段１５１號","OBJECTID":197912},"geometry":{"x":175553.89000000153,"y":2546344.0000000019}},{"attributes":{"ID":197914,"DIS_CODE":0,"TOWNNAME":"永康區","LI":"西勢里","LIN":"21鄰","STREET":"富強路","SECT":"一段","MAREA":" ","LANE":" ","ALLEY":" ","HOUSE_NO":"４０號","E_COORD97":175427.45000000001,"N_COORD97":2546057.3599999999,"ADDRESS":"富強路一段４０號","OBJECTID":197913},"geometry":{"x":175427.45000000112,"y":2546057.3599999994}},{"attributes":{"ID":197915,"DIS_CODE":0,"TOWNNAME":"善化區","LI":"小新里","LIN":"21鄰","STREET":" ","SECT":" ","MAREA":"小新營","LANE":" ","ALLEY":" ","HOUSE_NO":"３４１號","E_COORD97":180193.38,"N_COORD97":2558363.25,"ADDRESS":"小新營３４１號","OBJECTID":197914},"geometry":{"x":180193.37999999989,"y":2558363.25}},{"attributes":{"ID":197916,"DIS_CODE":0,"TOWNNAME":"北區","LI":"成功里","LIN":"18鄰","STREET":"北成路","SECT":" ","MAREA":" ","LANE":"１２８巷","ALLEY":"２３弄","HOUSE_NO":"２５號之１３","E_COORD97":168849.01999999999,"N_COORD97":2546785.52,"ADDRESS":"北成路１２８巷２３弄２５號之１３","OBJECTID":197915},"geometry":{"x":168849.02000000048,"y":2546785.5199999996}},{"attributes":{"ID":197917,"DIS_CODE":0,"TOWNNAME":"北區","LI":"成功里","LIN":"18鄰","STREET":"北成路","SECT":" ","MAREA":" ","LANE":"１２８巷","ALLEY":"２３弄","HOUSE_NO":"２５號之１４","E_COORD97":168852.54999999999,"N_COORD97":2546769.5099999998,"ADDRESS":"北成路１２８巷２３弄２５號之１４","OBJECTID":197916},"geometry":{"x":168852.55000000075,"y":2546769.5099999998}},{"attributes":{"ID":197918,"DIS_CODE":0,"TOWNNAME":"北區","LI":"成功里","LIN":"18鄰","STREET":"北成路","SECT":" ","MAREA":" ","LANE":"１２８巷","ALLEY":"２３弄","HOUSE_NO":"２５號之１６","E_COORD97":168848.70000000001,"N_COORD97":2546772.71,"ADDRESS":"北成路１２８巷２３弄２５號之１６","OBJECTID":197917},"geometry":{"x":168848.70000000019,"y":2546772.7100000009}},{"attributes":{"ID":197919,"DIS_CODE":0,"TOWNNAME":"永康區","LI":"西勢里","LIN":"21鄰","STREET":"富強路","SECT":"一段","MAREA":" ","LANE":" ","ALLEY":" ","HOUSE_NO":"８０號","E_COORD97":175469.95999999999,"N_COORD97":2546126.2799999998,"ADDRESS":"富強路一段８０號","OBJECTID":197918},"geometry":{"x":175469.95999999996,"y":2546126.2799999993}},{"attributes":{"ID":197920,"DIS_CODE":0,"TOWNNAME":"北區","LI":"成功里","LIN":"18鄰","STREET":"北成路","SECT":" ","MAREA":" ","LANE":"１２８巷","ALLEY":"２３弄","HOUSE_NO":"２５號之１８","E_COORD97":168843.57000000001,"N_COORD97":2546774.6299999999,"ADDRESS":"北成路１２８巷２３弄２５號之１８","OBJECTID":197919},"geometry":{"x":168843.5700000003,"y":2546774.629999999}},{"attributes":{"ID":197921,"DIS_CODE":0,"TOWNNAME":"北區","LI":"成功里","LIN":"18鄰","STREET":"北成路","SECT":" ","MAREA":" ","LANE":"１２８巷","ALLEY":"２３弄","HOUSE_NO":"２５號之２","E_COORD97":168868.26000000001,"N_COORD97":2546759.5800000001,"ADDRESS":"北成路１２８巷２３弄２５號之２","OBJECTID":197920},"geometry":{"x":168868.25999999978,"y":2546759.5799999982}},{"attributes":{"ID":197922,"DIS_CODE":0,"TOWNNAME":"北區","LI":"成功里","LIN":"18鄰","STREET":"北成路","SECT":" ","MAREA":" ","LANE":"１２８巷","ALLEY":"２３弄","HOUSE_NO":"２５號之３","E_COORD97":168884.29999999999,"N_COORD97":2546765.3399999999,"ADDRESS":"北成路１２８巷２３弄２５號之３","OBJECTID":197921},"geometry":{"x":168884.30000000075,"y":2546765.3400000017}},{"attributes":{"ID":197923,"DIS_CODE":0,"TOWNNAME":"永康區","LI":"西勢里","LIN":"21鄰","STREET":"富強路","SECT":"一段","MAREA":" ","LANE":" ","ALLEY":" ","HOUSE_NO":"８４號","E_COORD97":175474.57999999999,"N_COORD97":2546134.0299999998,"ADDRESS":"富強路一段８４號","OBJECTID":197922},"geometry":{"x":175474.58000000007,"y":2546134.0299999993}},{"attributes":{"ID":197924,"DIS_CODE":0,"TOWNNAME":"北區","LI":"成功里","LIN":"18鄰","STREET":"北成路","SECT":" ","MAREA":" ","LANE":"１２８巷","ALLEY":"２３弄","HOUSE_NO":"２５號之５","E_COORD97":168889.42999999999,"N_COORD97":2546762.7799999998,"ADDRESS":"北成路１２８巷２３弄２５號之５","OBJECTID":197923},"geometry":{"x":168889.4299999997,"y":2546762.7799999993}},{"attributes":{"ID":197925,"DIS_CODE":0,"TOWNNAME":"北區","LI":"成功里","LIN":"18鄰","STREET":"北成路","SECT":" ","MAREA":" ","LANE":"１２８巷","ALLEY":"２３弄","HOUSE_NO":"２５號之６","E_COORD97":168874.03,"N_COORD97":2546758.6200000001,"ADDRESS":"北成路１２８巷２３弄２５號之６","OBJECTID":197924},"geometry":{"x":168874.03000000026,"y":2546758.6200000029}},{"attributes":{"ID":197926,"DIS_CODE":0,"TOWNNAME":"北區","LI":"成功里","LIN":"18鄰","STREET":"北成路","SECT":" ","MAREA":" ","LANE":"１２８巷","ALLEY":"２３弄","HOUSE_NO":"２５號之７","E_COORD97":168863.45000000001,"N_COORD97":2546776.8700000001,"ADDRESS":"北成路１２８巷２３弄２５號之７","OBJECTID":197925},"geometry":{"x":168863.45000000112,"y":2546776.8700000029}},{"attributes":{"ID":197927,"DIS_CODE":0,"TOWNNAME":"北區","LI":"成功里","LIN":"18鄰","STREET":"北成路","SECT":" ","MAREA":" ","LANE":"１２８巷","ALLEY":"２３弄","HOUSE_NO":"２５號之８","E_COORD97":168879.16,"N_COORD97":2546756.3799999999,"ADDRESS":"北成路１２８巷２３弄２５號之８","OBJECTID":197926},"geometry":{"x":168879.16000000108,"y":2546756.3799999971}},{"attributes":{"ID":197928,"DIS_CODE":0,"TOWNNAME":"善化區","LI":"六德里","LIN":"3鄰","STREET":" ","SECT":" ","MAREA":"六分寮","LANE":" ","ALLEY":" ","HOUSE_NO":"２２１號","E_COORD97":178691.54000000001,"N_COORD97":2561669.5,"ADDRESS":"六分寮２２１號","OBJECTID":197927},"geometry":{"x":178691.54000000097,"y":2561669.5}},{"attributes":{"ID":197929,"DIS_CODE":0,"TOWNNAME":"北區","LI":"成功里","LIN":"18鄰","STREET":"北成路","SECT":" ","MAREA":" ","LANE":"１２８巷","ALLEY":"２３弄","HOUSE_NO":"２５號之９","E_COORD97":168858,"N_COORD97":2546780.0699999998,"ADDRESS":"北成路１２８巷２３弄２５號之９","OBJECTID":197928},"geometry":{"x":168858.00000000093,"y":2546780.0700000003}},{"attributes":{"ID":197930,"DIS_CODE":0,"TOWNNAME":"大內區","LI":"石城里","LIN":"3鄰","STREET":" ","SECT":" ","MAREA":"石子瀨","LANE":" ","ALLEY":" ","HOUSE_NO":"２６號","E_COORD97":184354.12,"N_COORD97":2557973.25,"ADDRESS":"石子瀨２６號","OBJECTID":197929},"geometry":{"x":184354.11999999918,"y":2557973.25}},{"attributes":{"ID":197931,"DIS_CODE":0,"TOWNNAME":"北區","LI":"成功里","LIN":"18鄰","STREET":"北成路","SECT":" ","MAREA":" ","LANE":"１２８巷","ALLEY":"２３弄","HOUSE_NO":"３６號","E_COORD97":168855.38,"N_COORD97":2546814.5,"ADDRESS":"北成路１２８巷２３弄３６號","OBJECTID":197930},"geometry":{"x":168855.38000000082,"y":2546814.5000000037}},{"attributes":{"ID":197932,"DIS_CODE":0,"TOWNNAME":"永康區","LI":"西勢里","LIN":"21鄰","STREET":"富強路","SECT":"一段","MAREA":" ","LANE":" ","ALLEY":" ","HOUSE_NO":"９號","E_COORD97":175376.04999999999,"N_COORD97":2546018.0600000001,"ADDRESS":"富強路一段９號","OBJECTID":197931},"geometry":{"x":175376.04999999981,"y":2546018.0600000042}},{"attributes":{"ID":197933,"DIS_CODE":0,"TOWNNAME":"永康區","LI":"西勢里","LIN":"21鄰","STREET":"富強路","SECT":"一段","MAREA":" ","LANE":" ","ALLEY":" ","HOUSE_NO":"１９號","E_COORD97":175388.64000000001,"N_COORD97":2546046.02,"ADDRESS":"富強路一段１９號","OBJECTID":197932},"geometry":{"x":175388.63999999966,"y":2546046.0199999996}},{"attributes":{"ID":197934,"DIS_CODE":0,"TOWNNAME":"善化區","LI":"六德里","LIN":"3鄰","STREET":" ","SECT":" ","MAREA":"六分寮","LANE":" ","ALLEY":" ","HOUSE_NO":"２２２號","E_COORD97":178677.26000000001,"N_COORD97":2561685.75,"ADDRESS":"六分寮２２２號","OBJECTID":197933},"geometry":{"x":178677.25999999978,"y":2561685.75}},{"attributes":{"ID":197935,"DIS_CODE":0,"TOWNNAME":"善化區","LI":"小新里","LIN":"3鄰","STREET":" ","SECT":" ","MAREA":"小新營","LANE":" ","ALLEY":" ","HOUSE_NO":"２２之１０號","E_COORD97":179843.72,"N_COORD97":2558339.27,"ADDRESS":"小新營２２之１０號","OBJECTID":197934},"geometry":{"x":179843.71999999974,"y":2558339.2699999977}},{"attributes":{"ID":197936,"DIS_CODE":0,"TOWNNAME":"北區","LI":"成功里","LIN":"18鄰","STREET":"北成路","SECT":" ","MAREA":" ","LANE":"１２８巷","ALLEY":"２３弄","HOUSE_NO":"６號","E_COORD97":168921.26999999999,"N_COORD97":2546770.6699999999,"ADDRESS":"北成路１２８巷２３弄６號","OBJECTID":197935},"geometry":{"x":168921.27000000142,"y":2546770.6700000018}},{"attributes":{"ID":197937,"DIS_CODE":0,"TOWNNAME":"北區","LI":"成功里","LIN":"18鄰","STREET":"北成路","SECT":" ","MAREA":" ","LANE":"１２８巷","ALLEY":"２３弄","HOUSE_NO":"８號","E_COORD97":168917.01280600001,"N_COORD97":2546773.14952,"ADDRESS":"北成路１２８巷２３弄８號","OBJECTID":197936},"geometry":{"x":168917.01280600019,"y":2546773.1495220009}},{"attributes":{"ID":197938,"DIS_CODE":0,"TOWNNAME":"善化區","LI":"田寮里","LIN":"3鄰","STREET":" ","SECT":" ","MAREA":"六分寮","LANE":" ","ALLEY":" ","HOUSE_NO":"４０之２０號","E_COORD97":178369.39999999999,"N_COORD97":2561121.02,"ADDRESS":"六分寮４０之２０號","OBJECTID":197937},"geometry":{"x":178369.4000000013,"y":2561121.0199999996}},{"attributes":{"ID":197939,"DIS_CODE":0,"TOWNNAME":"永康區","LI":"西勢里","LIN":"21鄰","STREET":"富強路","SECT":"一段","MAREA":" ","LANE":" ","ALLEY":" ","HOUSE_NO":"１４７號","E_COORD97":175540.73999999999,"N_COORD97":2546330.6699999999,"ADDRESS":"富強路一段１４７號","OBJECTID":197938},"geometry":{"x":175540.74000000115,"y":2546330.6699999999}},{"attributes":{"ID":197940,"DIS_CODE":0,"TOWNNAME":"善化區","LI":"田寮里","LIN":"3鄰","STREET":" ","SECT":" ","MAREA":"六分寮","LANE":" ","ALLEY":" ","HOUSE_NO":"４１號","E_COORD97":178394.39999999999,"N_COORD97":2561159,"ADDRESS":"六分寮４１號","OBJECTID":197939},"geometry":{"x":178394.4000000013,"y":2561158.9999999981}},{"attributes":{"ID":197941,"DIS_CODE":0,"TOWNNAME":"善化區","LI":"田寮里","LIN":"3鄰","STREET":" ","SECT":" ","MAREA":"六分寮","LANE":" ","ALLEY":" ","HOUSE_NO":"３９號之４","E_COORD97":178353.67000000001,"N_COORD97":2561040.77,"ADDRESS":"六分寮３９號之４","OBJECTID":197940},"geometry":{"x":178353.66999999993,"y":2561040.7699999996}},{"attributes":{"ID":197942,"DIS_CODE":0,"TOWNNAME":"善化區","LI":"溪美里","LIN":"3鄰","STREET":" ","SECT":" ","MAREA":"溪尾","LANE":" ","ALLEY":" ","HOUSE_NO":"２６號（已半毀）","E_COORD97":176765.12,"N_COORD97":2560997.77,"ADDRESS":"溪尾２６號（已半毀）","OBJECTID":197941},"geometry":{"x":176765.12000000104,"y":2560997.7700000033}},{"attributes":{"ID":197943,"DIS_CODE":0,"TOWNNAME":"善化區","LI":"溪美里","LIN":"3鄰","STREET":" ","SECT":" ","MAREA":"溪尾","LANE":" ","ALLEY":" ","HOUSE_NO":"１８之１號","E_COORD97":176799.35000000001,"N_COORD97":2561035.02,"ADDRESS":"溪尾１８之１號","OBJECTID":197942},"geometry":{"x":176799.34999999963,"y":2561035.0199999996}},{"attributes":{"ID":197944,"DIS_CODE":0,"TOWNNAME":"善化區","LI":"牛庄里","LIN":"3鄰","STREET":" ","SECT":" ","MAREA":"牛庄","LANE":" ","ALLEY":" ","HOUSE_NO":"４６號","E_COORD97":180252.85999999999,"N_COORD97":2559910.75,"ADDRESS":"牛庄４６號","OBJECTID":197943},"geometry":{"x":180252.86000000127,"y":2559910.7500000019}},{"attributes":{"ID":197945,"DIS_CODE":0,"TOWNNAME":"北區","LI":"力行里","LIN":"18鄰","STREET":"南園街","SECT":" ","MAREA":" ","LANE":"１２７巷","ALLEY":"１２７弄","HOUSE_NO":"１０號","E_COORD97":170862.64999999999,"N_COORD97":2545447.1099999999,"ADDRESS":"南園街１２７巷１２７弄１０號","OBJECTID":197944},"geometry":{"x":170862.6500000013,"y":2545447.1100000013}},{"attributes":{"ID":197946,"DIS_CODE":0,"TOWNNAME":"北區","LI":"力行里","LIN":"18鄰","STREET":"南園街","SECT":" ","MAREA":" ","LANE":"１２７巷","ALLEY":"１２７弄","HOUSE_NO":"１２號","E_COORD97":170857.85000000001,"N_COORD97":2545448.9700000002,"ADDRESS":"南園街１２７巷１２７弄１２號","OBJECTID":197945},"geometry":{"x":170857.84999999963,"y":2545448.9699999988}},{"attributes":{"ID":197947,"DIS_CODE":0,"TOWNNAME":"北區","LI":"力行里","LIN":"18鄰","STREET":"南園街","SECT":" ","MAREA":" ","LANE":"１２７巷","ALLEY":"１２７弄","HOUSE_NO":"１號","E_COORD97":170857.23000000001,"N_COORD97":2545437.8300000001,"ADDRESS":"南園街１２７巷１２７弄１號","OBJECTID":197946},"geometry":{"x":170857.23000000138,"y":2545437.8300000001}},{"attributes":{"ID":197948,"DIS_CODE":0,"TOWNNAME":"官田區","LI":"隆本里","LIN":"21鄰","STREET":"忠孝街","SECT":" ","MAREA":" ","LANE":" ","ALLEY":" ","HOUSE_NO":"１５號","E_COORD97":180054.63,"N_COORD97":2566113.1699999999,"ADDRESS":"忠孝街１５號","OBJECTID":197947},"geometry":{"x":180054.62999999989,"y":2566113.1699999999}},{"attributes":{"ID":197949,"DIS_CODE":0,"TOWNNAME":"北區","LI":"力行里","LIN":"18鄰","STREET":"南園街","SECT":" ","MAREA":" ","LANE":"１２７巷","ALLEY":"１２７弄","HOUSE_NO":"２號","E_COORD97":170877.06,"N_COORD97":2545436.5899999999,"ADDRESS":"南園街１２７巷１２７弄２號","OBJECTID":197948},"geometry":{"x":170877.05999999959,"y":2545436.5899999999}},{"attributes":{"ID":197950,"DIS_CODE":0,"TOWNNAME":"北區","LI":"力行里","LIN":"18鄰","STREET":"南園街","SECT":" ","MAREA":" ","LANE":"１２７巷","ALLEY":"１２７弄","HOUSE_NO":"３號","E_COORD97":170855.67999999999,"N_COORD97":2545433.6499999999,"ADDRESS":"南園街１２７巷１２７弄３號","OBJECTID":197949},"geometry":{"x":170855.6799999997,"y":2545433.6500000004}},{"attributes":{"ID":197951,"DIS_CODE":0,"TOWNNAME":"北區","LI":"力行里","LIN":"18鄰","STREET":"南園街","SECT":" ","MAREA":" ","LANE":"１２７巷","ALLEY":"１２７弄","HOUSE_NO":"４號","E_COORD97":170873.5,"N_COORD97":2545439.3799999999,"ADDRESS":"南園街１２７巷１２７弄４號","OBJECTID":197950},"geometry":{"x":170873.50000000093,"y":2545439.3800000008}},{"attributes":{"ID":197952,"DIS_CODE":0,"TOWNNAME":"官田區","LI":"隆本里","LIN":"21鄰","STREET":"忠孝街","SECT":" ","MAREA":" ","LANE":" ","ALLEY":" ","HOUSE_NO":"１７號","E_COORD97":180053.60000000001,"N_COORD97":2566117.5800000001,"ADDRESS":"忠孝街１７號","OBJECTID":197951},"geometry":{"x":180053.60000000056,"y":2566117.5800000001}},{"attributes":{"ID":197953,"DIS_CODE":0,"TOWNNAME":"官田區","LI":"隆本里","LIN":"21鄰","STREET":"忠孝街","SECT":" ","MAREA":" ","LANE":" ","ALLEY":" ","HOUSE_NO":"１９號","E_COORD97":180052.45999999999,"N_COORD97":2566121.79,"ADDRESS":"忠孝街１９號","OBJECTID":197952},"geometry":{"x":180052.45999999996,"y":2566121.7899999991}},{"attributes":{"ID":197954,"DIS_CODE":0,"TOWNNAME":"官田區","LI":"隆本里","LIN":"21鄰","STREET":"忠孝街","SECT":" ","MAREA":" ","LANE":" ","ALLEY":" ","HOUSE_NO":"１號","E_COORD97":180064.88,"N_COORD97":2566077.96,"ADDRESS":"忠孝街１號","OBJECTID":197953},"geometry":{"x":180064.87999999989,"y":2566077.9600000028}},{"attributes":{"ID":197955,"DIS_CODE":0,"TOWNNAME":"仁德區","LI":"仁愛里","LIN":"21鄰","STREET":" ","SECT":" ","MAREA":"仁愛","LANE":" ","ALLEY":" ","HOUSE_NO":"４３０號","E_COORD97":170125.09089399999,"N_COORD97":2540149.4125799998,"ADDRESS":"仁愛４３０號","OBJECTID":197954},"geometry":{"x":170125.09089399967,"y":2540149.4125750009}},{"attributes":{"ID":197956,"DIS_CODE":0,"TOWNNAME":"善化區","LI":"田寮里","LIN":"3鄰","STREET":" ","SECT":" ","MAREA":"六分寮","LANE":" ","ALLEY":" ","HOUSE_NO":"３５號之４","E_COORD97":178343.29000000001,"N_COORD97":2561241.27,"ADDRESS":"六分寮３５號之４","OBJECTID":197955},"geometry":{"x":178343.29000000004,"y":2561241.2699999996}},{"attributes":{"ID":197957,"DIS_CODE":0,"TOWNNAME":"善化區","LI":"溪美里","LIN":"3鄰","STREET":" ","SECT":" ","MAREA":"溪尾","LANE":" ","ALLEY":" ","HOUSE_NO":"１９號（已半毀）","E_COORD97":176814.84,"N_COORD97":2561047.4500000002,"ADDRESS":"溪尾１９號（已半毀）","OBJECTID":197956},"geometry":{"x":176814.83999999985,"y":2561047.4500000011}},{"attributes":{"ID":197958,"DIS_CODE":0,"TOWNNAME":"善化區","LI":"牛庄里","LIN":"3鄰","STREET":" ","SECT":" ","MAREA":"牛庄","LANE":" ","ALLEY":" ","HOUSE_NO":"３８號之１６","E_COORD97":180325.98999999999,"N_COORD97":2560150.77,"ADDRESS":"牛庄３８號之１６","OBJECTID":197957},"geometry":{"x":180325.99000000115,"y":2560150.7700000014}},{"attributes":{"ID":197959,"DIS_CODE":0,"TOWNNAME":"官田區","LI":"隆本里","LIN":"21鄰","STREET":"忠孝街","SECT":" ","MAREA":" ","LANE":" ","ALLEY":" ","HOUSE_NO":"２１號","E_COORD97":180051.48999999999,"N_COORD97":2566125.79,"ADDRESS":"忠孝街２１號","OBJECTID":197958},"geometry":{"x":180051.49000000115,"y":2566125.7899999991}},{"attributes":{"ID":197960,"DIS_CODE":0,"TOWNNAME":"善化區","LI":"牛庄里","LIN":"3鄰","STREET":" ","SECT":" ","MAREA":"牛庄","LANE":" ","ALLEY":" ","HOUSE_NO":"２９之１號","E_COORD97":180414.92999999999,"N_COORD97":2559960.27,"ADDRESS":"牛庄２９之１號","OBJECTID":197959},"geometry":{"x":180414.9299999997,"y":2559960.2700000033}},{"attributes":{"ID":197961,"DIS_CODE":0,"TOWNNAME":"善化區","LI":"田寮里","LIN":"3鄰","STREET":" ","SECT":" ","MAREA":"六分寮","LANE":" ","ALLEY":" ","HOUSE_NO":"３６號之１","E_COORD97":178332.98999999999,"N_COORD97":2561208.27,"ADDRESS":"六分寮３６號之１","OBJECTID":197960},"geometry":{"x":178332.99000000115,"y":2561208.2700000014}},{"attributes":{"ID":197962,"DIS_CODE":0,"TOWNNAME":"官田區","LI":"隆本里","LIN":"21鄰","STREET":"忠孝街","SECT":" ","MAREA":" ","LANE":" ","ALLEY":" ","HOUSE_NO":"２３號","E_COORD97":180050.45999999999,"N_COORD97":2566129.9100000001,"ADDRESS":"忠孝街２３號","OBJECTID":197961},"geometry":{"x":180050.45999999996,"y":2566129.9100000001}},{"attributes":{"ID":197963,"DIS_CODE":0,"TOWNNAME":"官田區","LI":"隆本里","LIN":"21鄰","STREET":"忠孝街","SECT":" ","MAREA":" ","LANE":" ","ALLEY":" ","HOUSE_NO":"２５號","E_COORD97":180049.45000000001,"N_COORD97":2566134.0699999998,"ADDRESS":"忠孝街２５號","OBJECTID":197962},"geometry":{"x":180049.45000000019,"y":2566134.0700000022}},{"attributes":{"ID":197964,"DIS_CODE":0,"TOWNNAME":"北區","LI":"力行里","LIN":"18鄰","STREET":"南園街","SECT":" ","MAREA":" ","LANE":"１２７巷","ALLEY":"１２７弄","HOUSE_NO":"６號","E_COORD97":170869.92999999999,"N_COORD97":2545441.8500000001,"ADDRESS":"南園街１２７巷１２７弄６號","OBJECTID":197963},"geometry":{"x":170869.93000000156,"y":2545441.8499999978}},{"attributes":{"ID":197965,"DIS_CODE":0,"TOWNNAME":"北區","LI":"力行里","LIN":"18鄰","STREET":"南園街","SECT":" ","MAREA":" ","LANE":"１２７巷","ALLEY":"１２７弄","HOUSE_NO":"８號","E_COORD97":170866.22,"N_COORD97":2545444.3300000001,"ADDRESS":"南園街１２７巷１２７弄８號","OBJECTID":197964},"geometry":{"x":170866.2200000016,"y":2545444.3300000019}},{"attributes":{"ID":197966,"DIS_CODE":0,"TOWNNAME":"北區","LI":"力行里","LIN":"18鄰","STREET":"南園街","SECT":" ","MAREA":" ","LANE":"１２７巷","ALLEY":"１３７弄","HOUSE_NO":"１號","E_COORD97":170880.32000000001,"N_COORD97":2545469.1299999999,"ADDRESS":"南園街１２７巷１３７弄１號","OBJECTID":197965},"geometry":{"x":170880.32000000123,"y":2545469.129999999}},{"attributes":{"ID":197967,"DIS_CODE":0,"TOWNNAME":"北區","LI":"力行里","LIN":"18鄰","STREET":"南園街","SECT":" ","MAREA":" ","LANE":"１２７巷","ALLEY":"１３７弄","HOUSE_NO":"２號","E_COORD97":170883.57000000001,"N_COORD97":2545473.46,"ADDRESS":"南園街１２７巷１３７弄２號","OBJECTID":197966},"geometry":{"x":170883.57000000123,"y":2545473.4600000028}},{"attributes":{"ID":197968,"DIS_CODE":0,"TOWNNAME":"北區","LI":"力行里","LIN":"18鄰","STREET":"南園街","SECT":" ","MAREA":" ","LANE":"１２７巷","ALLEY":"１３７弄","HOUSE_NO":"３號","E_COORD97":170888.22,"N_COORD97":2545477.02,"ADDRESS":"南園街１２７巷１３７弄３號","OBJECTID":197967},"geometry":{"x":170888.2200000016,"y":2545477.0199999996}},{"attributes":{"ID":197969,"DIS_CODE":0,"TOWNNAME":"北區","LI":"力行里","LIN":"18鄰","STREET":"南園街","SECT":" ","MAREA":" ","LANE":"１２７巷","ALLEY":"１３７弄","HOUSE_NO":"４號","E_COORD97":170890.38,"N_COORD97":2545480.1099999999,"ADDRESS":"南園街１２７巷１３７弄４號","OBJECTID":197968},"geometry":{"x":170890.37999999989,"y":2545480.1099999994}},{"attributes":{"ID":197970,"DIS_CODE":0,"TOWNNAME":"北區","LI":"力行里","LIN":"18鄰","STREET":"南園街","SECT":" ","MAREA":" ","LANE":"１２７巷","ALLEY":"１３７弄","HOUSE_NO":"５號","E_COORD97":170892.09,"N_COORD97":2545483.0499999998,"ADDRESS":"南園街１２７巷１３７弄５號","OBJECTID":197969},"geometry":{"x":170892.08999999985,"y":2545483.0500000026}},{"attributes":{"ID":197971,"DIS_CODE":0,"TOWNNAME":"官田區","LI":"隆本里","LIN":"21鄰","STREET":"忠孝街","SECT":" ","MAREA":" ","LANE":" ","ALLEY":" ","HOUSE_NO":"２７號","E_COORD97":180048.39999999999,"N_COORD97":2566138.1400000001,"ADDRESS":"忠孝街２７號","OBJECTID":197970},"geometry":{"x":180048.39999999944,"y":2566138.1400000006}},{"attributes":{"ID":197972,"DIS_CODE":0,"TOWNNAME":"善化區","LI":"田寮里","LIN":"3鄰","STREET":" ","SECT":" ","MAREA":"六分寮","LANE":" ","ALLEY":" ","HOUSE_NO":"３９號之１０","E_COORD97":178285.56,"N_COORD97":2561094.52,"ADDRESS":"六分寮３９號之１０","OBJECTID":197971},"geometry":{"x":178285.56000000052,"y":2561094.5200000014}},{"attributes":{"ID":197973,"DIS_CODE":0,"TOWNNAME":"大內區","LI":"環湖里","LIN":"3鄰","STREET":" ","SECT":" ","MAREA":"環湖","LANE":" ","ALLEY":" ","HOUSE_NO":"２３之３號","E_COORD97":190650.04000000001,"N_COORD97":2560573.2999999998,"ADDRESS":"環湖２３之３號","OBJECTID":197972},"geometry":{"x":190650.04000000004,"y":2560573.3000000007}},{"attributes":{"ID":197974,"DIS_CODE":0,"TOWNNAME":"大內區","LI":"頭社里","LIN":"3鄰","STREET":" ","SECT":" ","MAREA":"頭社","LANE":" ","ALLEY":" ","HOUSE_NO":"４１號之３","E_COORD97":187176.76999999999,"N_COORD97":2560399.2999999998,"ADDRESS":"頭社４１號之３","OBJECTID":197973},"geometry":{"x":187176.77000000142,"y":2560399.3000000026}},{"attributes":{"ID":197975,"DIS_CODE":0,"TOWNNAME":"大內區","LI":"石城里","LIN":"3鄰","STREET":" ","SECT":" ","MAREA":"石子瀨","LANE":" ","ALLEY":" ","HOUSE_NO":"２５號之１","E_COORD97":184290.54999999999,"N_COORD97":2557925.2999999998,"ADDRESS":"石子瀨２５號之１","OBJECTID":197974},"geometry":{"x":184290.55000000075,"y":2557925.3000000007}},{"attributes":{"ID":197976,"DIS_CODE":0,"TOWNNAME":"大內區","LI":"石林里","LIN":"3鄰","STREET":" ","SECT":" ","MAREA":"石子瀨","LANE":" ","ALLEY":" ","HOUSE_NO":"１５０號","E_COORD97":184115.97,"N_COORD97":2558089.25,"ADDRESS":"石子瀨１５０號","OBJECTID":197975},"geometry":{"x":184115.97000000067,"y":2558089.2500000037}},{"attributes":{"ID":197977,"DIS_CODE":0,"TOWNNAME":"大內區","LI":"環湖里","LIN":"3鄰","STREET":" ","SECT":" ","MAREA":"環湖","LANE":" ","ALLEY":" ","HOUSE_NO":"３２號之６","E_COORD97":190489.07999999999,"N_COORD97":2560683.2999999998,"ADDRESS":"環湖３２號之６","OBJECTID":197976},"geometry":{"x":190489.08000000007,"y":2560683.3000000045}},{"attributes":{"ID":197978,"DIS_CODE":0,"TOWNNAME":"北區","LI":"力行里","LIN":"18鄰","STREET":"南園街","SECT":" ","MAREA":" ","LANE":"１２７巷","ALLEY":"１３７弄","HOUSE_NO":"６號","E_COORD97":170894.72,"N_COORD97":2545486.1400000001,"ADDRESS":"南園街１２７巷１３７弄６號","OBJECTID":197977},"geometry":{"x":170894.71999999974,"y":2545486.1400000025}},{"attributes":{"ID":197979,"DIS_CODE":0,"TOWNNAME":"北區","LI":"力行里","LIN":"18鄰","STREET":"南園街","SECT":" ","MAREA":" ","LANE":"１２７巷","ALLEY":"１５１弄","HOUSE_NO":"１１號","E_COORD97":170898.60999999999,"N_COORD97":2545500.29,"ADDRESS":"南園街１２７巷１５１弄１１號","OBJECTID":197978},"geometry":{"x":170898.61000000127,"y":2545500.290000001}},{"attributes":{"ID":197980,"DIS_CODE":0,"TOWNNAME":"北區","LI":"力行里","LIN":"18鄰","STREET":"南園街","SECT":" ","MAREA":" ","LANE":"１２７巷","ALLEY":"１５１弄","HOUSE_NO":"１３號","E_COORD97":170895.20000000001,"N_COORD97":2545502.77,"ADDRESS":"南園街１２７巷１５１弄１３號","OBJECTID":197979},"geometry":{"x":170895.20000000019,"y":2545502.7699999996}},{"attributes":{"ID":197981,"DIS_CODE":0,"TOWNNAME":"北區","LI":"力行里","LIN":"18鄰","STREET":"南園街","SECT":" ","MAREA":" ","LANE":"１２７巷","ALLEY":"１５１弄","HOUSE_NO":"１號","E_COORD97":170914.72,"N_COORD97":2545488.5299999998,"ADDRESS":"南園街１２７巷１５１弄１號","OBJECTID":197980},"geometry":{"x":170914.71999999974,"y":2545488.5300000012}},{"attributes":{"ID":197982,"DIS_CODE":0,"TOWNNAME":"北區","LI":"力行里","LIN":"18鄰","STREET":"南園街","SECT":" ","MAREA":" ","LANE":"１２７巷","ALLEY":"１５１弄","HOUSE_NO":"２號","E_COORD97":170918.60000000001,"N_COORD97":2545497.8799999999,"ADDRESS":"南園街１２７巷１５１弄２號","OBJECTID":197981},"geometry":{"x":170918.60000000056,"y":2545497.879999999}},{"attributes":{"ID":197983,"DIS_CODE":0,"TOWNNAME":"北區","LI":"力行里","LIN":"18鄰","STREET":"南園街","SECT":" ","MAREA":" ","LANE":"１２７巷","ALLEY":"１５１弄","HOUSE_NO":"３號","E_COORD97":170911.14999999999,"N_COORD97":2545491.0099999998,"ADDRESS":"南園街１２７巷１５１弄３號","OBJECTID":197982},"geometry":{"x":170911.15000000037,"y":2545491.0099999998}},{"attributes":{"ID":197984,"DIS_CODE":0,"TOWNNAME":"北區","LI":"力行里","LIN":"18鄰","STREET":"南園街","SECT":" ","MAREA":" ","LANE":"１２７巷","ALLEY":"１５１弄","HOUSE_NO":"４號","E_COORD97":170914.88,"N_COORD97":2545502.52,"ADDRESS":"南園街１２７巷１５１弄４號","OBJECTID":197983},"geometry":{"x":170914.88000000082,"y":2545502.5200000014}},{"attributes":{"ID":197985,"DIS_CODE":0,"TOWNNAME":"北區","LI":"力行里","LIN":"18鄰","STREET":"南園街","SECT":" ","MAREA":" ","LANE":"１２７巷","ALLEY":"１５１弄","HOUSE_NO":"５號","E_COORD97":170908.37,"N_COORD97":2545493.1800000002,"ADDRESS":"南園街１２７巷１５１弄５號","OBJECTID":197984},"geometry":{"x":170908.37000000104,"y":2545493.1799999997}},{"attributes":{"ID":197986,"DIS_CODE":0,"TOWNNAME":"北區","LI":"力行里","LIN":"18鄰","STREET":"南園街","SECT":" ","MAREA":" ","LANE":"１２７巷","ALLEY":"１５１弄","HOUSE_NO":"６號","E_COORD97":170910.07999999999,"N_COORD97":2545505.1499999999,"ADDRESS":"南園街１２７巷１５１弄６號","OBJECTID":197985},"geometry":{"x":170910.08000000101,"y":2545505.1500000041}},{"attributes":{"ID":197987,"DIS_CODE":0,"TOWNNAME":"北區","LI":"力行里","LIN":"18鄰","STREET":"南園街","SECT":" ","MAREA":" ","LANE":"１２７巷","ALLEY":"１５１弄","HOUSE_NO":"７號","E_COORD97":170905.26999999999,"N_COORD97":2545495.7999999998,"ADDRESS":"南園街１２７巷１５１弄７號","OBJECTID":197986},"geometry":{"x":170905.27000000048,"y":2545495.8000000026}},{"attributes":{"ID":197988,"DIS_CODE":0,"TOWNNAME":"北區","LI":"力行里","LIN":"18鄰","STREET":"南園街","SECT":" ","MAREA":" ","LANE":"１２７巷","ALLEY":"１５１弄","HOUSE_NO":"８號","E_COORD97":170905.89999999999,"N_COORD97":2545509.1699999999,"ADDRESS":"南園街１２７巷１５１弄８號","OBJECTID":197987},"geometry":{"x":170905.90000000037,"y":2545509.1700000018}},{"attributes":{"ID":197989,"DIS_CODE":0,"TOWNNAME":"北區","LI":"力行里","LIN":"18鄰","STREET":"南園街","SECT":" ","MAREA":" ","LANE":"１２７巷","ALLEY":"１５１弄","HOUSE_NO":"９號","E_COORD97":170902.32999999999,"N_COORD97":2545497.6600000001,"ADDRESS":"南園街１２７巷１５１弄９號","OBJECTID":197988},"geometry":{"x":170902.33000000007,"y":2545497.6600000001}},{"attributes":{"ID":197990,"DIS_CODE":0,"TOWNNAME":"安平區","LI":"平安里","LIN":"18鄰","STREET":"安平路","SECT":" ","MAREA":" ","LANE":"６０６巷","ALLEY":"１７弄","HOUSE_NO":"１０號","E_COORD97":164805.14000000001,"N_COORD97":2544499.98,"ADDRESS":"安平路６０６巷１７弄１０號","OBJECTID":197989},"geometry":{"x":164805.1400000006,"y":2544499.9800000023}},{"attributes":{"ID":197991,"DIS_CODE":0,"TOWNNAME":"安平區","LI":"平安里","LIN":"18鄰","STREET":"安平路","SECT":" ","MAREA":" ","LANE":"６０６巷","ALLEY":"１７弄","HOUSE_NO":"１２號","E_COORD97":164798.57999999999,"N_COORD97":2544501.25,"ADDRESS":"安平路６０６巷１７弄１２號","OBJECTID":197990},"geometry":{"x":164798.58000000007,"y":2544501.2500000019}},{"attributes":{"ID":197992,"DIS_CODE":0,"TOWNNAME":"安平區","LI":"平安里","LIN":"18鄰","STREET":"安平路","SECT":" ","MAREA":" ","LANE":"６０６巷","ALLEY":"１７弄","HOUSE_NO":"１４號","E_COORD97":164791.59,"N_COORD97":2544504,"ADDRESS":"安平路６０６巷１７弄１４號","OBJECTID":197991},"geometry":{"x":164791.59000000171,"y":2544504}},{"attributes":{"ID":197993,"DIS_CODE":0,"TOWNNAME":"安平區","LI":"平安里","LIN":"18鄰","STREET":"安平路","SECT":" ","MAREA":" ","LANE":"６０６巷","ALLEY":"１７弄","HOUSE_NO":"１５號","E_COORD97":164795.70999999999,"N_COORD97":2544485.9399999999,"ADDRESS":"安平路６０６巷１７弄１５號","OBJECTID":197992},"geometry":{"x":164795.70999999996,"y":2544485.9400000013}},{"attributes":{"ID":197994,"DIS_CODE":0,"TOWNNAME":"安平區","LI":"平安里","LIN":"18鄰","STREET":"安平路","SECT":" ","MAREA":" ","LANE":"６０６巷","ALLEY":"１７弄","HOUSE_NO":"１６號","E_COORD97":164784.54000000001,"N_COORD97":2544506.1400000001,"ADDRESS":"安平路６０６巷１７弄１６號","OBJECTID":197993},"geometry":{"x":164784.54000000097,"y":2544506.1400000025}},{"attributes":{"ID":197995,"DIS_CODE":0,"TOWNNAME":"安平區","LI":"平安里","LIN":"18鄰","STREET":"安平路","SECT":" ","MAREA":" ","LANE":"６０６巷","ALLEY":"１７弄","HOUSE_NO":"１７號","E_COORD97":164789.29000000001,"N_COORD97":2544487.7599999998,"ADDRESS":"安平路６０６巷１７弄１７號","OBJECTID":197994},"geometry":{"x":164789.29000000097,"y":2544487.7600000016}},{"attributes":{"ID":197996,"DIS_CODE":0,"TOWNNAME":"安平區","LI":"平安里","LIN":"18鄰","STREET":"安平路","SECT":" ","MAREA":" ","LANE":"６０６巷","ALLEY":"１７弄","HOUSE_NO":"１８號","E_COORD97":164778.67000000001,"N_COORD97":2544508.6600000001,"ADDRESS":"安平路６０６巷１７弄１８號","OBJECTID":197995},"geometry":{"x":164778.66999999993,"y":2544508.660000002}},{"attributes":{"ID":197997,"DIS_CODE":0,"TOWNNAME":"安平區","LI":"平安里","LIN":"18鄰","STREET":"安平路","SECT":" ","MAREA":" ","LANE":"６０６巷","ALLEY":"１７弄","HOUSE_NO":"２０號","E_COORD97":164774.23000000001,"N_COORD97":2544509.9300000002,"ADDRESS":"安平路６０６巷１７弄２０號","OBJECTID":197996},"geometry":{"x":164774.23000000045,"y":2544509.9300000016}},{"attributes":{"ID":197998,"DIS_CODE":0,"TOWNNAME":"安平區","LI":"平安里","LIN":"18鄰","STREET":"安平路","SECT":" ","MAREA":" ","LANE":"６０６巷","ALLEY":"１７弄","HOUSE_NO":"２號","E_COORD97":164842.78,"N_COORD97":2544486.4500000002,"ADDRESS":"安平路６０６巷１７弄２號","OBJECTID":197997},"geometry":{"x":164842.78000000026,"y":2544486.4500000011}},{"attributes":{"ID":197999,"DIS_CODE":0,"TOWNNAME":"南區","LI":"新昌里","LIN":"8鄰","STREET":"西門路","SECT":"一段","MAREA":" ","LANE":" ","ALLEY":" ","HOUSE_NO":"５５３號","E_COORD97":167703.66,"N_COORD97":2542713.6099999999,"ADDRESS":"西門路一段５５３號","OBJECTID":197998},"geometry":{"x":167703.66000000015,"y":2542713.6099999994}},{"attributes":{"ID":198000,"DIS_CODE":0,"TOWNNAME":"南區","LI":"新昌里","LIN":"8鄰","STREET":"國華街","SECT":"一段","MAREA":" ","LANE":" ","ALLEY":" ","HOUSE_NO":"５９號","E_COORD97":167601.79999999999,"N_COORD97":2542702.27,"ADDRESS":"國華街一段５９號","OBJECTID":197999},"geometry":{"x":167601.79999999981,"y":2542702.2699999996}},{"attributes":{"ID":198001,"DIS_CODE":0,"TOWNNAME":"南區","LI":"新昌里","LIN":"8鄰","STREET":"國華街","SECT":"一段","MAREA":" ","LANE":" ","ALLEY":" ","HOUSE_NO":"６１號","E_COORD97":167601.79999999999,"N_COORD97":2542705.8300000001,"ADDRESS":"國華街一段６１號","OBJECTID":198000},"geometry":{"x":167601.79999999981,"y":2542705.8300000001}}]}