{"displayFieldName":"TOWNNAME","fieldAliases":{"ID":"ID","DIS_CODE":"DIS_CODE","TOWNNAME":"TOWNNAME","LI":"LI","LIN":"LIN","STREET":"STREET","SECT":"SECT","MAREA":"MAREA","LANE":"LANE","ALLEY":"ALLEY","HOUSE_NO":"HOUSE_NO","E_COORD97":"E_COORD97","N_COORD97":"N_COORD97","ADDRESS":"ADDRESS","OBJECTID":"OBJECTID"},"geometryType":"esriGeometryPoint","spatialReference":{"wkid":102443,"latestWkid":3826},"fields":[{"name":"ID","type":"esriFieldTypeDouble","alias":"ID"},{"name":"DIS_CODE","type":"esriFieldTypeInteger","alias":"DIS_CODE"},{"name":"TOWNNAME","type":"esriFieldTypeString","alias":"TOWNNAME","length":8},{"name":"LI","type":"esriFieldTypeString","alias":"LI","length":8},{"name":"LIN","type":"esriFieldTypeString","alias":"LIN","length":12},{"name":"STREET","type":"esriFieldTypeString","alias":"STREET","length":20},{"name":"SECT","type":"esriFieldTypeString","alias":"SECT","length":8},{"name":"MAREA","type":"esriFieldTypeString","alias":"MAREA","length":12},{"name":"LANE","type":"esriFieldTypeString","alias":"LANE","length":10},{"name":"ALLEY","type":"esriFieldTypeString","alias":"ALLEY","length":10},{"name":"HOUSE_NO","type":"esriFieldTypeString","alias":"HOUSE_NO","length":20},{"name":"E_COORD97","type":"esriFieldTypeDouble","alias":"E_COORD97"},{"name":"N_COORD97","type":"esriFieldTypeDouble","alias":"N_COORD97"},{"name":"ADDRESS","type":"esriFieldTypeString","alias":"ADDRESS","length":50},{"name":"OBJECTID","type":"esriFieldTypeOID","alias":"OBJECTID"}],"features":[{"attributes":{"ID":352010,"DIS_CODE":0,"TOWNNAME":"楠西區","LI":"楠西里","LIN":"8鄰","STREET":"民權路","SECT":" ","MAREA":" ","LANE":" ","ALLEY":" ","HOUSE_NO":"３２號之１","E_COORD97":197300.57000000001,"N_COORD97":2564255.2999999998,"ADDRESS":"民權路３２號之１","OBJECTID":352001},"geometry":{"x":197300.5700000003,"y":2564255.3000000007}},{"attributes":{"ID":352011,"DIS_CODE":0,"TOWNNAME":"楠西區","LI":"楠西里","LIN":"8鄰","STREET":"民權路","SECT":" ","MAREA":" ","LANE":" ","ALLEY":" ","HOUSE_NO":"１６號","E_COORD97":197252.94,"N_COORD97":2564260.29,"ADDRESS":"民權路１６號","OBJECTID":352002},"geometry":{"x":197252.94000000134,"y":2564260.2899999991}},{"attributes":{"ID":352012,"DIS_CODE":0,"TOWNNAME":"新化區","LI":"東榮里","LIN":"18鄰","STREET":"中興路","SECT":" ","MAREA":" ","LANE":"６８５巷","ALLEY":" ","HOUSE_NO":"２６號之１","E_COORD97":179524.98999999999,"N_COORD97":2548014.2599999998,"ADDRESS":"中興路６８５巷２６號之１","OBJECTID":352003},"geometry":{"x":179524.99000000022,"y":2548014.2600000016}},{"attributes":{"ID":352013,"DIS_CODE":0,"TOWNNAME":"新化區","LI":"東榮里","LIN":"18鄰","STREET":"中興路","SECT":" ","MAREA":" ","LANE":"６８５巷","ALLEY":" ","HOUSE_NO":"３３號","E_COORD97":179577.56,"N_COORD97":2547981.25,"ADDRESS":"中興路６８５巷３３號","OBJECTID":352004},"geometry":{"x":179577.56000000052,"y":2547981.25}},{"attributes":{"ID":352014,"DIS_CODE":0,"TOWNNAME":"北區","LI":"振興里","LIN":"6鄰","STREET":"長榮路","SECT":"四段","MAREA":" ","LANE":"１８３巷","ALLEY":" ","HOUSE_NO":"４６號","E_COORD97":170098.67999999999,"N_COORD97":2545170.5600000001,"ADDRESS":"長榮路四段１８３巷４６號","OBJECTID":352005},"geometry":{"x":170098.68000000063,"y":2545170.5600000042}},{"attributes":{"ID":352015,"DIS_CODE":0,"TOWNNAME":"北區","LI":"振興里","LIN":"6鄰","STREET":"長榮路","SECT":"四段","MAREA":" ","LANE":"１８３巷","ALLEY":" ","HOUSE_NO":"４８號","E_COORD97":170095.62,"N_COORD97":2545167.73,"ADDRESS":"長榮路四段１８３巷４８號","OBJECTID":352006},"geometry":{"x":170095.62000000011,"y":2545167.7300000004}},{"attributes":{"ID":352016,"DIS_CODE":0,"TOWNNAME":"北區","LI":"振興里","LIN":"6鄰","STREET":"長榮路","SECT":"四段","MAREA":" ","LANE":"１８３巷","ALLEY":" ","HOUSE_NO":"４號","E_COORD97":170158.78,"N_COORD97":2545233.6600000001,"ADDRESS":"長榮路四段１８３巷４號","OBJECTID":352007},"geometry":{"x":170158.78000000026,"y":2545233.6600000039}},{"attributes":{"ID":352017,"DIS_CODE":0,"TOWNNAME":"楠西區","LI":"楠西里","LIN":"8鄰","STREET":"民權路","SECT":" ","MAREA":" ","LANE":" ","ALLEY":" ","HOUSE_NO":"１２號之１","E_COORD97":197250.57000000001,"N_COORD97":2564260.2999999998,"ADDRESS":"民權路１２號之１","OBJECTID":352008},"geometry":{"x":197250.57000000123,"y":2564260.3000000045}},{"attributes":{"ID":352018,"DIS_CODE":0,"TOWNNAME":"楠西區","LI":"楠西里","LIN":"8鄰","STREET":"中興路","SECT":" ","MAREA":" ","LANE":" ","ALLEY":" ","HOUSE_NO":"４０號","E_COORD97":197198.01000000001,"N_COORD97":2564199.25,"ADDRESS":"中興路４０號","OBJECTID":352009},"geometry":{"x":197198.01000000071,"y":2564199.2500000019}},{"attributes":{"ID":352019,"DIS_CODE":0,"TOWNNAME":"楠西區","LI":"楠西里","LIN":"8鄰","STREET":"中華路","SECT":" ","MAREA":" ","LANE":" ","ALLEY":" ","HOUSE_NO":"８２號","E_COORD97":197210.91,"N_COORD97":2564155.25,"ADDRESS":"中華路８２號","OBJECTID":352010},"geometry":{"x":197210.91000000108,"y":2564155.2500000019}},{"attributes":{"ID":352020,"DIS_CODE":0,"TOWNNAME":"東區","LI":"東安里","LIN":"18鄰","STREET":"衛國街","SECT":" ","MAREA":" ","LANE":"３３巷","ALLEY":" ","HOUSE_NO":"１８號","E_COORD97":170189.88,"N_COORD97":2543073.73,"ADDRESS":"衛國街３３巷１８號","OBJECTID":352011},"geometry":{"x":170189.87999999989,"y":2543073.7300000042}},{"attributes":{"ID":352021,"DIS_CODE":0,"TOWNNAME":"東區","LI":"東安里","LIN":"18鄰","STREET":"衛國街","SECT":" ","MAREA":" ","LANE":"３３巷","ALLEY":" ","HOUSE_NO":"１號","E_COORD97":170237.73000000001,"N_COORD97":2543051.8399999999,"ADDRESS":"衛國街３３巷１號","OBJECTID":352012},"geometry":{"x":170237.73000000045,"y":2543051.8399999999}},{"attributes":{"ID":352022,"DIS_CODE":0,"TOWNNAME":"東區","LI":"東安里","LIN":"18鄰","STREET":"衛國街","SECT":" ","MAREA":" ","LANE":"３３巷","ALLEY":" ","HOUSE_NO":"３號","E_COORD97":170230.19,"N_COORD97":2543053.02,"ADDRESS":"衛國街３３巷３號","OBJECTID":352013},"geometry":{"x":170230.19000000134,"y":2543053.0199999996}},{"attributes":{"ID":352023,"DIS_CODE":0,"TOWNNAME":"東區","LI":"東安里","LIN":"18鄰","STREET":"衛國街","SECT":" ","MAREA":" ","LANE":"３３巷","ALLEY":" ","HOUSE_NO":"５號","E_COORD97":170218.94,"N_COORD97":2543056.02,"ADDRESS":"衛國街３３巷５號","OBJECTID":352014},"geometry":{"x":170218.94000000041,"y":2543056.0199999996}},{"attributes":{"ID":352024,"DIS_CODE":0,"TOWNNAME":"東區","LI":"東安里","LIN":"18鄰","STREET":"衛國街","SECT":" ","MAREA":" ","LANE":"３３巷","ALLEY":" ","HOUSE_NO":"９號","E_COORD97":170208.85999999999,"N_COORD97":2543058.0099999998,"ADDRESS":"衛國街３３巷９號","OBJECTID":352015},"geometry":{"x":170208.86000000127,"y":2543058.0100000016}},{"attributes":{"ID":352025,"DIS_CODE":0,"TOWNNAME":"東區","LI":"東安里","LIN":"18鄰","STREET":"衛國街","SECT":" ","MAREA":" ","LANE":"３３巷","ALLEY":" ","HOUSE_NO":"１１號","E_COORD97":170204.14000000001,"N_COORD97":2543058.8300000001,"ADDRESS":"衛國街３３巷１１號","OBJECTID":352016},"geometry":{"x":170204.1400000006,"y":2543058.8300000001}},{"attributes":{"ID":352026,"DIS_CODE":0,"TOWNNAME":"東區","LI":"東安里","LIN":"18鄰","STREET":"衛國街","SECT":" ","MAREA":" ","LANE":"３３巷","ALLEY":" ","HOUSE_NO":"１５號","E_COORD97":170193.14999999999,"N_COORD97":2543061.3700000001,"ADDRESS":"衛國街３３巷１５號","OBJECTID":352017},"geometry":{"x":170193.1500000013,"y":2543061.3700000029}},{"attributes":{"ID":352027,"DIS_CODE":0,"TOWNNAME":"東區","LI":"東安里","LIN":"18鄰","STREET":"衛國街","SECT":" ","MAREA":" ","LANE":"３３巷","ALLEY":" ","HOUSE_NO":"１７號","E_COORD97":170188.25,"N_COORD97":2543063,"ADDRESS":"衛國街３３巷１７號","OBJECTID":352018},"geometry":{"x":170188.25000000186,"y":2543063.0000000019}},{"attributes":{"ID":352028,"DIS_CODE":0,"TOWNNAME":"西港區","LI":"南海里","LIN":"18鄰","STREET":" ","SECT":" ","MAREA":"中港","LANE":" ","ALLEY":" ","HOUSE_NO":"８之３號","E_COORD97":167243.26999999999,"N_COORD97":2556498.5600000001,"ADDRESS":"中港８之３號","OBJECTID":352019},"geometry":{"x":167243.27000000048,"y":2556498.5600000024}},{"attributes":{"ID":352029,"DIS_CODE":0,"TOWNNAME":"西港區","LI":"南海里","LIN":"18鄰","STREET":" ","SECT":" ","MAREA":"中港","LANE":" ","ALLEY":" ","HOUSE_NO":"８之５號","E_COORD97":167239.16,"N_COORD97":2556498.96,"ADDRESS":"中港８之５號","OBJECTID":352020},"geometry":{"x":167239.16000000015,"y":2556498.9600000028}},{"attributes":{"ID":352030,"DIS_CODE":0,"TOWNNAME":"西港區","LI":"南海里","LIN":"18鄰","STREET":" ","SECT":" ","MAREA":"中港","LANE":" ","ALLEY":" ","HOUSE_NO":"８之６號","E_COORD97":167234.29000000001,"N_COORD97":2556499.21,"ADDRESS":"中港８之６號","OBJECTID":352021},"geometry":{"x":167234.29000000004,"y":2556499.2100000009}},{"attributes":{"ID":352031,"DIS_CODE":0,"TOWNNAME":"西港區","LI":"南海里","LIN":"18鄰","STREET":" ","SECT":" ","MAREA":"中港","LANE":" ","ALLEY":" ","HOUSE_NO":"８之７號","E_COORD97":167231.06,"N_COORD97":2556499.5299999998,"ADDRESS":"中港８之７號","OBJECTID":352022},"geometry":{"x":167231.06000000145,"y":2556499.5299999993}},{"attributes":{"ID":352032,"DIS_CODE":0,"TOWNNAME":"西港區","LI":"南海里","LIN":"18鄰","STREET":" ","SECT":" ","MAREA":"中港","LANE":" ","ALLEY":" ","HOUSE_NO":"８之８號","E_COORD97":167245.03,"N_COORD97":2556523.7999999998,"ADDRESS":"中港８之８號","OBJECTID":352023},"geometry":{"x":167245.03000000026,"y":2556523.8000000026}},{"attributes":{"ID":352033,"DIS_CODE":0,"TOWNNAME":"西港區","LI":"西港里","LIN":"18鄰","STREET":" ","SECT":" ","MAREA":"西港","LANE":" ","ALLEY":" ","HOUSE_NO":"４０號","E_COORD97":168508.53,"N_COORD97":2557866.5699999998,"ADDRESS":"西港４０號","OBJECTID":352024},"geometry":{"x":168508.53000000119,"y":2557866.5700000003}},{"attributes":{"ID":352034,"DIS_CODE":0,"TOWNNAME":"西港區","LI":"西港里","LIN":"18鄰","STREET":" ","SECT":" ","MAREA":"西港","LANE":" ","ALLEY":" ","HOUSE_NO":"５６號之１","E_COORD97":168531.66,"N_COORD97":2557852.48,"ADDRESS":"西港５６號之１","OBJECTID":352025},"geometry":{"x":168531.66000000108,"y":2557852.4800000023}},{"attributes":{"ID":352035,"DIS_CODE":0,"TOWNNAME":"西港區","LI":"西港里","LIN":"18鄰","STREET":" ","SECT":" ","MAREA":"西港","LANE":" ","ALLEY":" ","HOUSE_NO":"５７號之１","E_COORD97":168484.73999999999,"N_COORD97":2557843.73,"ADDRESS":"西港５７號之１","OBJECTID":352026},"geometry":{"x":168484.73999999929,"y":2557843.7300000023}},{"attributes":{"ID":352036,"DIS_CODE":0,"TOWNNAME":"北區","LI":"振興里","LIN":"6鄰","STREET":"長榮路","SECT":"四段","MAREA":" ","LANE":"１８３巷","ALLEY":" ","HOUSE_NO":"５０號","E_COORD97":170092.89999999999,"N_COORD97":2545164.79,"ADDRESS":"長榮路四段１８３巷５０號","OBJECTID":352027},"geometry":{"x":170092.9000000013,"y":2545164.790000001}},{"attributes":{"ID":352037,"DIS_CODE":0,"TOWNNAME":"北區","LI":"振興里","LIN":"6鄰","STREET":"長榮路","SECT":"四段","MAREA":" ","LANE":"１８３巷","ALLEY":" ","HOUSE_NO":"５２號","E_COORD97":170088.75,"N_COORD97":2545162.7200000002,"ADDRESS":"長榮路四段１８３巷５２號","OBJECTID":352028},"geometry":{"x":170088.75000000093,"y":2545162.7200000044}},{"attributes":{"ID":352038,"DIS_CODE":0,"TOWNNAME":"北區","LI":"振興里","LIN":"6鄰","STREET":"長榮路","SECT":"四段","MAREA":" ","LANE":"１８３巷","ALLEY":" ","HOUSE_NO":"５４號","E_COORD97":170085.37,"N_COORD97":2545159.4500000002,"ADDRESS":"長榮路四段１８３巷５４號","OBJECTID":352029},"geometry":{"x":170085.37000000011,"y":2545159.450000003}},{"attributes":{"ID":352039,"DIS_CODE":0,"TOWNNAME":"楠西區","LI":"楠西里","LIN":"8鄰","STREET":"中華路","SECT":" ","MAREA":" ","LANE":" ","ALLEY":" ","HOUSE_NO":"９２號之１","E_COORD97":197248.87,"N_COORD97":2564165.7000000002,"ADDRESS":"中華路９２號之１","OBJECTID":352030},"geometry":{"x":197248.87000000011,"y":2564165.7000000011}},{"attributes":{"ID":352040,"DIS_CODE":0,"TOWNNAME":"安平區","LI":"平安里","LIN":"4鄰","STREET":"安平路","SECT":" ","MAREA":" ","LANE":" ","ALLEY":" ","HOUSE_NO":"１２４號","E_COORD97":166281.14999999999,"N_COORD97":2544335.3100000001,"ADDRESS":"安平路１２４號","OBJECTID":352031},"geometry":{"x":166281.15000000037,"y":2544335.3100000024}},{"attributes":{"ID":352041,"DIS_CODE":0,"TOWNNAME":"安平區","LI":"平安里","LIN":"4鄰","STREET":"安平路","SECT":" ","MAREA":" ","LANE":" ","ALLEY":" ","HOUSE_NO":"１２６號","E_COORD97":166273.38,"N_COORD97":2544340.25,"ADDRESS":"安平路１２６號","OBJECTID":352032},"geometry":{"x":166273.38000000082,"y":2544340.25}},{"attributes":{"ID":352042,"DIS_CODE":0,"TOWNNAME":"安平區","LI":"海頭里","LIN":"18鄰","STREET":"古堡街","SECT":" ","MAREA":" ","LANE":" ","ALLEY":" ","HOUSE_NO":"１２０號","E_COORD97":163810.14999999999,"N_COORD97":2544901.1000000001,"ADDRESS":"古堡街１２０號","OBJECTID":352033},"geometry":{"x":163810.14999999944,"y":2544901.0999999978}},{"attributes":{"ID":352043,"DIS_CODE":0,"TOWNNAME":"安平區","LI":"海頭里","LIN":"18鄰","STREET":"古堡街","SECT":" ","MAREA":" ","LANE":" ","ALLEY":" ","HOUSE_NO":"１２０號之１","E_COORD97":163804.78,"N_COORD97":2544900.0800000001,"ADDRESS":"古堡街１２０號之１","OBJECTID":352034},"geometry":{"x":163804.78000000119,"y":2544900.0800000019}},{"attributes":{"ID":352044,"DIS_CODE":0,"TOWNNAME":"安平區","LI":"平安里","LIN":"4鄰","STREET":"安平路","SECT":" ","MAREA":" ","LANE":" ","ALLEY":" ","HOUSE_NO":"１４４號","E_COORD97":166220.42000000001,"N_COORD97":2544344.6400000001,"ADDRESS":"安平路１４４號","OBJECTID":352035},"geometry":{"x":166220.42000000086,"y":2544344.6400000006}},{"attributes":{"ID":352045,"DIS_CODE":0,"TOWNNAME":"安平區","LI":"平安里","LIN":"4鄰","STREET":"安平路","SECT":" ","MAREA":" ","LANE":" ","ALLEY":" ","HOUSE_NO":"１４６號","E_COORD97":166212.29999999999,"N_COORD97":2544345.6000000001,"ADDRESS":"安平路１４６號","OBJECTID":352036},"geometry":{"x":166212.29999999981,"y":2544345.6000000015}},{"attributes":{"ID":352046,"DIS_CODE":0,"TOWNNAME":"北區","LI":"振興里","LIN":"6鄰","STREET":"長榮路","SECT":"四段","MAREA":" ","LANE":"１８３巷","ALLEY":" ","HOUSE_NO":"５６號","E_COORD97":170082.85000000001,"N_COORD97":2545156.2000000002,"ADDRESS":"長榮路四段１８３巷５６號","OBJECTID":352037},"geometry":{"x":170082.85000000056,"y":2545156.1999999993}},{"attributes":{"ID":352047,"DIS_CODE":0,"TOWNNAME":"北區","LI":"振興里","LIN":"6鄰","STREET":"長榮路","SECT":"四段","MAREA":" ","LANE":"１８３巷","ALLEY":" ","HOUSE_NO":"５８號","E_COORD97":170079.89999999999,"N_COORD97":2545153.5800000001,"ADDRESS":"長榮路四段１８３巷５８號","OBJECTID":352038},"geometry":{"x":170079.9000000013,"y":2545153.5800000019}},{"attributes":{"ID":352048,"DIS_CODE":0,"TOWNNAME":"北區","LI":"振興里","LIN":"6鄰","STREET":"長榮路","SECT":"四段","MAREA":" ","LANE":"１８３巷","ALLEY":" ","HOUSE_NO":"５號","E_COORD97":170156.13,"N_COORD97":2545195.8700000001,"ADDRESS":"長榮路四段１８３巷５號","OBJECTID":352039},"geometry":{"x":170156.12999999989,"y":2545195.8700000048}},{"attributes":{"ID":352049,"DIS_CODE":0,"TOWNNAME":"北區","LI":"振興里","LIN":"6鄰","STREET":"長榮路","SECT":"四段","MAREA":" ","LANE":"１８３巷","ALLEY":" ","HOUSE_NO":"６０號","E_COORD97":170076.95999999999,"N_COORD97":2545150.21,"ADDRESS":"長榮路四段１８３巷６０號","OBJECTID":352040},"geometry":{"x":170076.96000000089,"y":2545150.2100000028}},{"attributes":{"ID":352050,"DIS_CODE":0,"TOWNNAME":"北區","LI":"振興里","LIN":"6鄰","STREET":"長榮路","SECT":"四段","MAREA":" ","LANE":"１８３巷","ALLEY":" ","HOUSE_NO":"６２號","E_COORD97":170073.03,"N_COORD97":2545147.1499999999,"ADDRESS":"長榮路四段１８３巷６２號","OBJECTID":352041},"geometry":{"x":170073.03000000212,"y":2545147.1500000022}},{"attributes":{"ID":352051,"DIS_CODE":0,"TOWNNAME":"北區","LI":"振興里","LIN":"6鄰","STREET":"長榮路","SECT":"四段","MAREA":" ","LANE":"１８３巷","ALLEY":" ","HOUSE_NO":"６４號","E_COORD97":170069.87,"N_COORD97":2545144.21,"ADDRESS":"長榮路四段１８３巷６４號","OBJECTID":352042},"geometry":{"x":170069.87000000011,"y":2545144.2100000028}},{"attributes":{"ID":352052,"DIS_CODE":0,"TOWNNAME":"西港區","LI":"營西里","LIN":"18鄰","STREET":" ","SECT":" ","MAREA":"後營","LANE":" ","ALLEY":" ","HOUSE_NO":"１４１號","E_COORD97":169798.64999999999,"N_COORD97":2560556.4199999999,"ADDRESS":"後營１４１號","OBJECTID":352043},"geometry":{"x":169798.65000000037,"y":2560556.4200000037}},{"attributes":{"ID":352053,"DIS_CODE":0,"TOWNNAME":"北區","LI":"振興里","LIN":"6鄰","STREET":"長榮路","SECT":"四段","MAREA":" ","LANE":"１８３巷","ALLEY":" ","HOUSE_NO":"７號","E_COORD97":170153.62,"N_COORD97":2545192.71,"ADDRESS":"長榮路四段１８３巷７號","OBJECTID":352044},"geometry":{"x":170153.62000000197,"y":2545192.7100000009}},{"attributes":{"ID":352054,"DIS_CODE":0,"TOWNNAME":"西港區","LI":"營西里","LIN":"18鄰","STREET":" ","SECT":" ","MAREA":"後營","LANE":" ","ALLEY":" ","HOUSE_NO":"１３５號之６","E_COORD97":169683.75,"N_COORD97":2560534.6699999999,"ADDRESS":"後營１３５號之６","OBJECTID":352045},"geometry":{"x":169683.75000000093,"y":2560534.6700000018}},{"attributes":{"ID":352055,"DIS_CODE":0,"TOWNNAME":"西港區","LI":"營西里","LIN":"18鄰","STREET":" ","SECT":" ","MAREA":"後營","LANE":" ","ALLEY":" ","HOUSE_NO":"１３５號之７","E_COORD97":169688.89999999999,"N_COORD97":2560534.8300000001,"ADDRESS":"後營１３５號之７","OBJECTID":352046},"geometry":{"x":169688.90000000037,"y":2560534.8300000019}},{"attributes":{"ID":352056,"DIS_CODE":0,"TOWNNAME":"西港區","LI":"營西里","LIN":"18鄰","STREET":" ","SECT":" ","MAREA":"後營","LANE":" ","ALLEY":" ","HOUSE_NO":"１３５號","E_COORD97":169658.42000000001,"N_COORD97":2560550.0800000001,"ADDRESS":"後營１３５號","OBJECTID":352047},"geometry":{"x":169658.42000000086,"y":2560550.0800000019}},{"attributes":{"ID":352057,"DIS_CODE":0,"TOWNNAME":"北區","LI":"振興里","LIN":"6鄰","STREET":"長榮路","SECT":"四段","MAREA":" ","LANE":"１８３巷","ALLEY":" ","HOUSE_NO":"８號","E_COORD97":170151.89999999999,"N_COORD97":2545228.6499999999,"ADDRESS":"長榮路四段１８３巷８號","OBJECTID":352048},"geometry":{"x":170151.89999999944,"y":2545228.6500000022}},{"attributes":{"ID":352058,"DIS_CODE":0,"TOWNNAME":"新市區","LI":"新市里","LIN":"18鄰","STREET":"和平街","SECT":" ","MAREA":" ","LANE":"１５巷","ALLEY":" ","HOUSE_NO":"７號","E_COORD97":177760.54000000001,"N_COORD97":2553424.25,"ADDRESS":"和平街１５巷７號","OBJECTID":352049},"geometry":{"x":177760.54000000097,"y":2553424.2500000037}},{"attributes":{"ID":352059,"DIS_CODE":0,"TOWNNAME":"新市區","LI":"新市里","LIN":"18鄰","STREET":"和平街","SECT":" ","MAREA":" ","LANE":"１５巷","ALLEY":" ","HOUSE_NO":"１號","E_COORD97":177759.59,"N_COORD97":2553437,"ADDRESS":"和平街１５巷１號","OBJECTID":352050},"geometry":{"x":177759.58999999985,"y":2553437.0000000019}},{"attributes":{"ID":352060,"DIS_CODE":0,"TOWNNAME":"安南區","LI":"幸福里","LIN":"18鄰","STREET":"海佃路","SECT":"一段","MAREA":" ","LANE":"９５巷","ALLEY":" ","HOUSE_NO":"３１號","E_COORD97":167052.63,"N_COORD97":2546902.5899999999,"ADDRESS":"海佃路一段９５巷３１號","OBJECTID":352051},"geometry":{"x":167052.62999999989,"y":2546902.5900000017}},{"attributes":{"ID":352061,"DIS_CODE":0,"TOWNNAME":"安南區","LI":"溪墘里","LIN":"18鄰","STREET":"海佃路","SECT":"一段","MAREA":" ","LANE":"３８８巷","ALLEY":" ","HOUSE_NO":"６號","E_COORD97":167116.42999999999,"N_COORD97":2547627.3100000001,"ADDRESS":"海佃路一段３８８巷６號","OBJECTID":352052},"geometry":{"x":167116.4299999997,"y":2547627.3100000024}},{"attributes":{"ID":352062,"DIS_CODE":0,"TOWNNAME":"安南區","LI":"州南里","LIN":"18鄰","STREET":"安和路","SECT":"四段","MAREA":" ","LANE":"２７４巷","ALLEY":" ","HOUSE_NO":"６２號","E_COORD97":170090.14000000001,"N_COORD97":2550750.1000000001,"ADDRESS":"安和路四段２７４巷６２號","OBJECTID":352053},"geometry":{"x":170090.13999999873,"y":2550750.1000000015}},{"attributes":{"ID":352063,"DIS_CODE":0,"TOWNNAME":"安南區","LI":"州南里","LIN":"18鄰","STREET":"安和路","SECT":"四段","MAREA":" ","LANE":"２７４巷","ALLEY":" ","HOUSE_NO":"４２號","E_COORD97":170041.53,"N_COORD97":2550739.3700000001,"ADDRESS":"安和路四段２７４巷４２號","OBJECTID":352054},"geometry":{"x":170041.53000000119,"y":2550739.3700000048}},{"attributes":{"ID":352064,"DIS_CODE":0,"TOWNNAME":"安南區","LI":"州南里","LIN":"18鄰","STREET":"安和路","SECT":"四段","MAREA":" ","LANE":"２７４巷","ALLEY":" ","HOUSE_NO":"６６號","E_COORD97":170101.59,"N_COORD97":2550750.1000000001,"ADDRESS":"安和路四段２７４巷６６號","OBJECTID":352055},"geometry":{"x":170101.59000000078,"y":2550750.1000000015}},{"attributes":{"ID":352065,"DIS_CODE":0,"TOWNNAME":"安南區","LI":"溪墘里","LIN":"18鄰","STREET":"海佃路","SECT":"一段","MAREA":" ","LANE":"３８８巷","ALLEY":" ","HOUSE_NO":"３４號","E_COORD97":167201.92000000001,"N_COORD97":2547647.1800000002,"ADDRESS":"海佃路一段３８８巷３４號","OBJECTID":352056},"geometry":{"x":167201.92000000086,"y":2547647.1800000034}},{"attributes":{"ID":352066,"DIS_CODE":0,"TOWNNAME":"安南區","LI":"溪墘里","LIN":"18鄰","STREET":"海佃路","SECT":"一段","MAREA":" ","LANE":"３８８巷","ALLEY":" ","HOUSE_NO":"４８號","E_COORD97":167244.34,"N_COORD97":2547656.7200000002,"ADDRESS":"海佃路一段３８８巷４８號","OBJECTID":352057},"geometry":{"x":167244.33999999985,"y":2547656.7200000007}},{"attributes":{"ID":352067,"DIS_CODE":0,"TOWNNAME":"安南區","LI":"理想里","LIN":"18鄰","STREET":"大安街","SECT":" ","MAREA":" ","LANE":"２７１巷","ALLEY":" ","HOUSE_NO":"１號","E_COORD97":167469.10000000001,"N_COORD97":2548476.7999999998,"ADDRESS":"大安街２７１巷１號","OBJECTID":352058},"geometry":{"x":167469.09999999963,"y":2548476.8000000007}},{"attributes":{"ID":352068,"DIS_CODE":0,"TOWNNAME":"北區","LI":"振興里","LIN":"6鄰","STREET":"長榮路","SECT":"四段","MAREA":" ","LANE":"１８３巷","ALLEY":" ","HOUSE_NO":"９號","E_COORD97":170152.09,"N_COORD97":2545188.8999999999,"ADDRESS":"長榮路四段１８３巷９號","OBJECTID":352059},"geometry":{"x":170152.09000000078,"y":2545188.9000000022}},{"attributes":{"ID":352069,"DIS_CODE":0,"TOWNNAME":"新營區","LI":"南興里","LIN":"6鄰","STREET":"和平路","SECT":" ","MAREA":" ","LANE":"９７巷","ALLEY":" ","HOUSE_NO":"１９之１號","E_COORD97":179472.91,"N_COORD97":2577585.2200000002,"ADDRESS":"和平路９７巷１９之１號","OBJECTID":352060},"geometry":{"x":179472.91000000015,"y":2577585.2200000025}},{"attributes":{"ID":352070,"DIS_CODE":0,"TOWNNAME":"新營區","LI":"南興里","LIN":"6鄰","STREET":"和平路","SECT":" ","MAREA":" ","LANE":"９７巷","ALLEY":" ","HOUSE_NO":"７號","E_COORD97":179441.57999999999,"N_COORD97":2577586.4100000001,"ADDRESS":"和平路９７巷７號","OBJECTID":352061},"geometry":{"x":179441.58000000007,"y":2577586.4100000039}},{"attributes":{"ID":352071,"DIS_CODE":0,"TOWNNAME":"安平區","LI":"平安里","LIN":"4鄰","STREET":"安平路","SECT":" ","MAREA":" ","LANE":" ","ALLEY":" ","HOUSE_NO":"１２８號","E_COORD97":166267.48000000001,"N_COORD97":2544340.8399999999,"ADDRESS":"安平路１２８號","OBJECTID":352062},"geometry":{"x":166267.48000000045,"y":2544340.8400000017}},{"attributes":{"ID":352072,"DIS_CODE":0,"TOWNNAME":"安平區","LI":"平安里","LIN":"4鄰","STREET":"安平路","SECT":" ","MAREA":" ","LANE":" ","ALLEY":" ","HOUSE_NO":"１２８號地下室","E_COORD97":166267.48000000001,"N_COORD97":2544340.8399999999,"ADDRESS":"安平路１２８號地下室","OBJECTID":352063},"geometry":{"x":166267.48000000045,"y":2544340.8400000017}},{"attributes":{"ID":352073,"DIS_CODE":0,"TOWNNAME":"安平區","LI":"平安里","LIN":"4鄰","STREET":"安平路","SECT":" ","MAREA":" ","LANE":" ","ALLEY":" ","HOUSE_NO":"１３８號","E_COORD97":166234.97,"N_COORD97":2544346.8500000001,"ADDRESS":"安平路１３８號","OBJECTID":352064},"geometry":{"x":166234.9700000016,"y":2544346.8500000034}},{"attributes":{"ID":352074,"DIS_CODE":0,"TOWNNAME":"安平區","LI":"平安里","LIN":"4鄰","STREET":"安平路","SECT":" ","MAREA":" ","LANE":" ","ALLEY":" ","HOUSE_NO":"１４２號","E_COORD97":166225.67000000001,"N_COORD97":2544345.0099999998,"ADDRESS":"安平路１４２號","OBJECTID":352065},"geometry":{"x":166225.67000000086,"y":2544345.0099999998}},{"attributes":{"ID":352075,"DIS_CODE":0,"TOWNNAME":"新營區","LI":"大宏里","LIN":"8鄰","STREET":"民族路","SECT":" ","MAREA":" ","LANE":" ","ALLEY":" ","HOUSE_NO":"２之３號","E_COORD97":180309.01000000001,"N_COORD97":2578348.71,"ADDRESS":"民族路２之３號","OBJECTID":352066},"geometry":{"x":180309.01000000071,"y":2578348.7100000028}},{"attributes":{"ID":352076,"DIS_CODE":0,"TOWNNAME":"新營區","LI":"新南里","LIN":"8鄰","STREET":"新北五街","SECT":" ","MAREA":" ","LANE":" ","ALLEY":" ","HOUSE_NO":"１４６號","E_COORD97":178583.23000000001,"N_COORD97":2579171.98,"ADDRESS":"新北五街１４６號","OBJECTID":352067},"geometry":{"x":178583.23000000045,"y":2579171.9800000004}},{"attributes":{"ID":352077,"DIS_CODE":0,"TOWNNAME":"新營區","LI":"中營里","LIN":"8鄰","STREET":"新進路","SECT":" ","MAREA":" ","LANE":" ","ALLEY":" ","HOUSE_NO":"６２號","E_COORD97":180554.67000000001,"N_COORD97":2578230.1200000001,"ADDRESS":"新進路６２號","OBJECTID":352068},"geometry":{"x":180554.66999999899,"y":2578230.1200000048}},{"attributes":{"ID":352078,"DIS_CODE":0,"TOWNNAME":"新營區","LI":"三仙里","LIN":"8鄰","STREET":"博愛街","SECT":" ","MAREA":" ","LANE":" ","ALLEY":" ","HOUSE_NO":"９２號","E_COORD97":179678.59,"N_COORD97":2578133.4700000002,"ADDRESS":"博愛街９２號","OBJECTID":352069},"geometry":{"x":179678.58999999985,"y":2578133.4700000025}},{"attributes":{"ID":352079,"DIS_CODE":0,"TOWNNAME":"新營區","LI":"永生里","LIN":"8鄰","STREET":"富源街","SECT":" ","MAREA":" ","LANE":" ","ALLEY":" ","HOUSE_NO":"２９之３號","E_COORD97":179992.32999999999,"N_COORD97":2577954.8500000001,"ADDRESS":"富源街２９之３號","OBJECTID":352070},"geometry":{"x":179992.33000000007,"y":2577954.8499999996}},{"attributes":{"ID":352080,"DIS_CODE":0,"TOWNNAME":"新營區","LI":"新南里","LIN":"8鄰","STREET":"新北五街","SECT":" ","MAREA":" ","LANE":" ","ALLEY":" ","HOUSE_NO":"７４號","E_COORD97":178626.12,"N_COORD97":2578985.71,"ADDRESS":"新北五街７４號","OBJECTID":352071},"geometry":{"x":178626.12000000197,"y":2578985.7100000028}},{"attributes":{"ID":352081,"DIS_CODE":0,"TOWNNAME":"新營區","LI":"新東里","LIN":"8鄰","STREET":"東學路","SECT":" ","MAREA":" ","LANE":" ","ALLEY":" ","HOUSE_NO":"１０７號","E_COORD97":181210.85000000001,"N_COORD97":2579395.4199999999,"ADDRESS":"東學路１０７號","OBJECTID":352072},"geometry":{"x":181210.8499999987,"y":2579395.4199999999}},{"attributes":{"ID":352082,"DIS_CODE":0,"TOWNNAME":"南區","LI":"郡南里","LIN":"18鄰","STREET":"德興路","SECT":" ","MAREA":" ","LANE":"１３９巷","ALLEY":" ","HOUSE_NO":"２號","E_COORD97":167232.87,"N_COORD97":2540444.3199999998,"ADDRESS":"德興路１３９巷２號","OBJECTID":352073},"geometry":{"x":167232.87000000197,"y":2540444.3200000003}},{"attributes":{"ID":352083,"DIS_CODE":0,"TOWNNAME":"南區","LI":"郡南里","LIN":"18鄰","STREET":"德興路","SECT":" ","MAREA":" ","LANE":"１３９巷","ALLEY":" ","HOUSE_NO":"４號","E_COORD97":167236.67999999999,"N_COORD97":2540444.3199999998,"ADDRESS":"德興路１３９巷４號","OBJECTID":352074},"geometry":{"x":167236.6799999997,"y":2540444.3200000003}},{"attributes":{"ID":352084,"DIS_CODE":0,"TOWNNAME":"南區","LI":"郡南里","LIN":"18鄰","STREET":"德興路","SECT":" ","MAREA":" ","LANE":"１３９巷","ALLEY":" ","HOUSE_NO":"６號","E_COORD97":167240.97,"N_COORD97":2540444.48,"ADDRESS":"德興路１３９巷６號","OBJECTID":352075},"geometry":{"x":167240.97000000067,"y":2540444.4800000042}},{"attributes":{"ID":352085,"DIS_CODE":0,"TOWNNAME":"南區","LI":"郡南里","LIN":"18鄰","STREET":"德興路","SECT":" ","MAREA":" ","LANE":"１３９巷","ALLEY":" ","HOUSE_NO":"８號","E_COORD97":167245.09,"N_COORD97":2540444.48,"ADDRESS":"德興路１３９巷８號","OBJECTID":352076},"geometry":{"x":167245.09000000078,"y":2540444.4800000042}},{"attributes":{"ID":352086,"DIS_CODE":0,"TOWNNAME":"南區","LI":"郡南里","LIN":"18鄰","STREET":"德興路","SECT":" ","MAREA":" ","LANE":"１６１巷","ALLEY":" ","HOUSE_NO":"２號","E_COORD97":167241.60000000001,"N_COORD97":2540392.1699999999,"ADDRESS":"德興路１６１巷２號","OBJECTID":352077},"geometry":{"x":167241.60000000056,"y":2540392.1700000037}},{"attributes":{"ID":352087,"DIS_CODE":0,"TOWNNAME":"南區","LI":"郡南里","LIN":"18鄰","STREET":"德興路","SECT":" ","MAREA":" ","LANE":"１６１巷","ALLEY":" ","HOUSE_NO":"４號","E_COORD97":167245.47,"N_COORD97":2540391.4700000002,"ADDRESS":"德興路１６１巷４號","OBJECTID":352078},"geometry":{"x":167245.47000000067,"y":2540391.4700000025}},{"attributes":{"ID":352088,"DIS_CODE":0,"TOWNNAME":"南區","LI":"郡南里","LIN":"18鄰","STREET":"德興路","SECT":" ","MAREA":" ","LANE":"１６１巷","ALLEY":" ","HOUSE_NO":"３２號","E_COORD97":167301.70999999999,"N_COORD97":2540396.3900000001,"ADDRESS":"德興路１６１巷３２號","OBJECTID":352079},"geometry":{"x":167301.71000000089,"y":2540396.3900000006}},{"attributes":{"ID":352089,"DIS_CODE":0,"TOWNNAME":"新營區","LI":"新東里","LIN":"6鄰","STREET":"東大街","SECT":" ","MAREA":" ","LANE":"６６巷","ALLEY":" ","HOUSE_NO":"６０號","E_COORD97":181169.78,"N_COORD97":2579187.3999999999,"ADDRESS":"東大街６６巷６０號","OBJECTID":352080},"geometry":{"x":181169.78000000212,"y":2579187.4000000022}},{"attributes":{"ID":352090,"DIS_CODE":0,"TOWNNAME":"新營區","LI":"興業里","LIN":"6鄰","STREET":"公誠街","SECT":" ","MAREA":" ","LANE":"１１巷","ALLEY":" ","HOUSE_NO":"１１之１號","E_COORD97":180348.31,"N_COORD97":2577974.2200000002,"ADDRESS":"公誠街１１巷１１之１號","OBJECTID":352081},"geometry":{"x":180348.31000000145,"y":2577974.2200000007}},{"attributes":{"ID":352091,"DIS_CODE":0,"TOWNNAME":"安平區","LI":"文平里","LIN":"6鄰","STREET":"建平六街","SECT":" ","MAREA":" ","LANE":"７４巷","ALLEY":" ","HOUSE_NO":"３６號","E_COORD97":166343.48000000001,"N_COORD97":2543196.3500000001,"ADDRESS":"建平六街７４巷３６號","OBJECTID":352082},"geometry":{"x":166343.48000000045,"y":2543196.3499999996}},{"attributes":{"ID":352092,"DIS_CODE":0,"TOWNNAME":"安平區","LI":"文平里","LIN":"6鄰","STREET":"建平六街","SECT":" ","MAREA":" ","LANE":"７４巷","ALLEY":" ","HOUSE_NO":"２４號","E_COORD97":166340.64000000001,"N_COORD97":2543166.0299999998,"ADDRESS":"建平六街７４巷２４號","OBJECTID":352083},"geometry":{"x":166340.64000000153,"y":2543166.0300000012}},{"attributes":{"ID":352093,"DIS_CODE":0,"TOWNNAME":"新營區","LI":"民生里","LIN":"8鄰","STREET":"復興路","SECT":" ","MAREA":" ","LANE":" ","ALLEY":" ","HOUSE_NO":"１３６號","E_COORD97":179342.95000000001,"N_COORD97":2578052.02,"ADDRESS":"復興路１３６號","OBJECTID":352084},"geometry":{"x":179342.95000000112,"y":2578052.0199999996}},{"attributes":{"ID":352094,"DIS_CODE":0,"TOWNNAME":"南區","LI":"國宅里","LIN":"18鄰","STREET":" ","SECT":" ","MAREA":"台南觀光城","LANE":" ","ALLEY":" ","HOUSE_NO":"４７號","E_COORD97":166709.45000000001,"N_COORD97":2541882.6400000001,"ADDRESS":"台南觀光城４７號","OBJECTID":352085},"geometry":{"x":166709.45000000019,"y":2541882.6400000025}},{"attributes":{"ID":352095,"DIS_CODE":0,"TOWNNAME":"南區","LI":"國宅里","LIN":"18鄰","STREET":" ","SECT":" ","MAREA":"台南觀光城","LANE":" ","ALLEY":" ","HOUSE_NO":"４９號","E_COORD97":166709.45000000001,"N_COORD97":2541886.3500000001,"ADDRESS":"台南觀光城４９號","OBJECTID":352086},"geometry":{"x":166709.45000000019,"y":2541886.3500000015}},{"attributes":{"ID":352096,"DIS_CODE":0,"TOWNNAME":"南區","LI":"國宅里","LIN":"18鄰","STREET":" ","SECT":" ","MAREA":"台南觀光城","LANE":" ","ALLEY":" ","HOUSE_NO":"５０號","E_COORD97":166720.37,"N_COORD97":2541887.6600000001,"ADDRESS":"台南觀光城５０號","OBJECTID":352087},"geometry":{"x":166720.37000000011,"y":2541887.660000002}},{"attributes":{"ID":352097,"DIS_CODE":0,"TOWNNAME":"南區","LI":"國宅里","LIN":"18鄰","STREET":" ","SECT":" ","MAREA":"台南觀光城","LANE":" ","ALLEY":" ","HOUSE_NO":"６２號","E_COORD97":166703.01999999999,"N_COORD97":2541983.71,"ADDRESS":"台南觀光城６２號","OBJECTID":352088},"geometry":{"x":166703.02000000048,"y":2541983.7100000028}},{"attributes":{"ID":352098,"DIS_CODE":0,"TOWNNAME":"南區","LI":"國宅里","LIN":"18鄰","STREET":" ","SECT":" ","MAREA":"台南觀光城","LANE":" ","ALLEY":" ","HOUSE_NO":"６６號","E_COORD97":166701.84,"N_COORD97":2541993.71,"ADDRESS":"台南觀光城６６號","OBJECTID":352089},"geometry":{"x":166701.83999999985,"y":2541993.7100000028}},{"attributes":{"ID":352099,"DIS_CODE":0,"TOWNNAME":"南區","LI":"國宅里","LIN":"18鄰","STREET":" ","SECT":" ","MAREA":"台南觀光城","LANE":" ","ALLEY":" ","HOUSE_NO":"６８號","E_COORD97":166700.82999999999,"N_COORD97":2541998.25,"ADDRESS":"台南觀光城６８號","OBJECTID":352090},"geometry":{"x":166700.83000000194,"y":2541998.2499999981}},{"attributes":{"ID":352100,"DIS_CODE":0,"TOWNNAME":"南區","LI":"國宅里","LIN":"18鄰","STREET":" ","SECT":" ","MAREA":"台南觀光城","LANE":" ","ALLEY":" ","HOUSE_NO":"７０號","E_COORD97":166699.82000000001,"N_COORD97":2542002.2799999998,"ADDRESS":"台南觀光城７０號","OBJECTID":352091},"geometry":{"x":166699.82000000123,"y":2542002.2800000012}},{"attributes":{"ID":352101,"DIS_CODE":0,"TOWNNAME":"南區","LI":"國宅里","LIN":"18鄰","STREET":" ","SECT":" ","MAREA":"台南觀光城","LANE":" ","ALLEY":" ","HOUSE_NO":"８０號","E_COORD97":166694.60999999999,"N_COORD97":2542028.8199999998,"ADDRESS":"台南觀光城８０號","OBJECTID":352092},"geometry":{"x":166694.61000000127,"y":2542028.820000004}},{"attributes":{"ID":352102,"DIS_CODE":0,"TOWNNAME":"新營區","LI":"大宏里","LIN":"8鄰","STREET":"民族路","SECT":" ","MAREA":" ","LANE":" ","ALLEY":" ","HOUSE_NO":"６號","E_COORD97":180305.60999999999,"N_COORD97":2578388.54,"ADDRESS":"民族路６號","OBJECTID":352093},"geometry":{"x":180305.61000000034,"y":2578388.540000001}},{"attributes":{"ID":352103,"DIS_CODE":0,"TOWNNAME":"新營區","LI":"新東里","LIN":"8鄰","STREET":"東學路","SECT":" ","MAREA":" ","LANE":" ","ALLEY":" ","HOUSE_NO":"１１９號","E_COORD97":181238.48000000001,"N_COORD97":2579397.5099999998,"ADDRESS":"東學路１１９號","OBJECTID":352094},"geometry":{"x":181238.48000000138,"y":2579397.5099999998}},{"attributes":{"ID":352104,"DIS_CODE":0,"TOWNNAME":"新營區","LI":"中營里","LIN":"8鄰","STREET":"新進路","SECT":" ","MAREA":" ","LANE":" ","ALLEY":" ","HOUSE_NO":"３０號","E_COORD97":180607.22,"N_COORD97":2578294.1000000001,"ADDRESS":"新進路３０號","OBJECTID":352095},"geometry":{"x":180607.22000000067,"y":2578294.1000000015}},{"attributes":{"ID":352105,"DIS_CODE":0,"TOWNNAME":"新營區","LI":"護鎮里","LIN":"8鄰","STREET":"建國路","SECT":" ","MAREA":" ","LANE":" ","ALLEY":" ","HOUSE_NO":"２３１號","E_COORD97":179295.64999999999,"N_COORD97":2580981.46,"ADDRESS":"建國路２３１號","OBJECTID":352096},"geometry":{"x":179295.65000000037,"y":2580981.4600000028}},{"attributes":{"ID":352106,"DIS_CODE":0,"TOWNNAME":"新營區","LI":"新南里","LIN":"8鄰","STREET":"新北五街","SECT":" ","MAREA":" ","LANE":" ","ALLEY":" ","HOUSE_NO":"１１２號","E_COORD97":178600.17999999999,"N_COORD97":2579082.1899999999,"ADDRESS":"新北五街１１２號","OBJECTID":352097},"geometry":{"x":178600.18000000063,"y":2579082.1900000032}},{"attributes":{"ID":352107,"DIS_CODE":0,"TOWNNAME":"新營區","LI":"民權里","LIN":"8鄰","STREET":"博愛街","SECT":" ","MAREA":" ","LANE":" ","ALLEY":" ","HOUSE_NO":"８７號","E_COORD97":179808.60000000001,"N_COORD97":2578132.8599999999,"ADDRESS":"博愛街８７號","OBJECTID":352098},"geometry":{"x":179808.59999999963,"y":2578132.8600000013}},{"attributes":{"ID":352108,"DIS_CODE":0,"TOWNNAME":"安平區","LI":"文平里","LIN":"6鄰","STREET":"建平六街","SECT":" ","MAREA":" ","LANE":"７４巷","ALLEY":" ","HOUSE_NO":"２８號","E_COORD97":166342.17999999999,"N_COORD97":2543176.3700000001,"ADDRESS":"建平六街７４巷２８號","OBJECTID":352099},"geometry":{"x":166342.18000000063,"y":2543176.3700000029}},{"attributes":{"ID":352109,"DIS_CODE":0,"TOWNNAME":"安平區","LI":"文平里","LIN":"6鄰","STREET":"建平六街","SECT":" ","MAREA":" ","LANE":"７４巷","ALLEY":" ","HOUSE_NO":"３０號","E_COORD97":166342.56,"N_COORD97":2543180.4900000002,"ADDRESS":"建平六街７４巷３０號","OBJECTID":352100},"geometry":{"x":166342.55999999866,"y":2543180.4900000039}},{"attributes":{"ID":352110,"DIS_CODE":0,"TOWNNAME":"安平區","LI":"文平里","LIN":"6鄰","STREET":"建平六街","SECT":" ","MAREA":" ","LANE":"７４巷","ALLEY":" ","HOUSE_NO":"３２號","E_COORD97":166342.07999999999,"N_COORD97":2543184.3300000001,"ADDRESS":"建平六街７４巷３２號","OBJECTID":352101},"geometry":{"x":166342.08000000101,"y":2543184.3300000001}},{"attributes":{"ID":352111,"DIS_CODE":0,"TOWNNAME":"安平區","LI":"文平里","LIN":"6鄰","STREET":"建平六街","SECT":" ","MAREA":" ","LANE":"７４巷","ALLEY":" ","HOUSE_NO":"３４號","E_COORD97":166342.66,"N_COORD97":2543188.6400000001,"ADDRESS":"建平六街７４巷３４號","OBJECTID":352102},"geometry":{"x":166342.66000000201,"y":2543188.6400000006}},{"attributes":{"ID":352112,"DIS_CODE":0,"TOWNNAME":"安平區","LI":"文平里","LIN":"6鄰","STREET":"建平六街","SECT":" ","MAREA":" ","LANE":"７４巷","ALLEY":" ","HOUSE_NO":"３８號","E_COORD97":166344.53,"N_COORD97":2543204.1800000002,"ADDRESS":"建平六街７４巷３８號","OBJECTID":352103},"geometry":{"x":166344.53000000026,"y":2543204.1799999997}},{"attributes":{"ID":352113,"DIS_CODE":0,"TOWNNAME":"安平區","LI":"文平里","LIN":"6鄰","STREET":"建平六街","SECT":" ","MAREA":" ","LANE":"９０巷","ALLEY":" ","HOUSE_NO":"１０號","E_COORD97":166299.16,"N_COORD97":2543139.0800000001,"ADDRESS":"建平六街９０巷１０號","OBJECTID":352104},"geometry":{"x":166299.16000000108,"y":2543139.0800000038}},{"attributes":{"ID":352114,"DIS_CODE":0,"TOWNNAME":"安平區","LI":"文平里","LIN":"6鄰","STREET":"建平六街","SECT":" ","MAREA":" ","LANE":"９０巷","ALLEY":" ","HOUSE_NO":"１２號","E_COORD97":166300.98000000001,"N_COORD97":2543157.1200000001,"ADDRESS":"建平六街９０巷１２號","OBJECTID":352105},"geometry":{"x":166300.98000000045,"y":2543157.1200000029}},{"attributes":{"ID":352115,"DIS_CODE":0,"TOWNNAME":"安平區","LI":"文平里","LIN":"6鄰","STREET":"建平六街","SECT":" ","MAREA":" ","LANE":"９０巷","ALLEY":" ","HOUSE_NO":"１４號","E_COORD97":166288.89999999999,"N_COORD97":2543154.2400000002,"ADDRESS":"建平六街９０巷１４號","OBJECTID":352106},"geometry":{"x":166288.9000000013,"y":2543154.2400000002}},{"attributes":{"ID":352116,"DIS_CODE":0,"TOWNNAME":"安平區","LI":"文平里","LIN":"6鄰","STREET":"建平六街","SECT":" ","MAREA":" ","LANE":"９０巷","ALLEY":" ","HOUSE_NO":"１６號","E_COORD97":166289.47,"N_COORD97":2543158.46,"ADDRESS":"建平六街９０巷１６號","OBJECTID":352107},"geometry":{"x":166289.47000000067,"y":2543158.4600000028}},{"attributes":{"ID":352117,"DIS_CODE":0,"TOWNNAME":"安平區","LI":"文平里","LIN":"6鄰","STREET":"建平六街","SECT":" ","MAREA":" ","LANE":"９０巷","ALLEY":" ","HOUSE_NO":"１８號","E_COORD97":166289.76000000001,"N_COORD97":2543162.6699999999,"ADDRESS":"建平六街９０巷１８號","OBJECTID":352108},"geometry":{"x":166289.76000000071,"y":2543162.6700000018}},{"attributes":{"ID":352118,"DIS_CODE":0,"TOWNNAME":"安平區","LI":"文平里","LIN":"6鄰","STREET":"建平六街","SECT":" ","MAREA":" ","LANE":"９０巷","ALLEY":" ","HOUSE_NO":"２０號","E_COORD97":166290.14000000001,"N_COORD97":2543166.8900000001,"ADDRESS":"建平六街９０巷２０號","OBJECTID":352109},"geometry":{"x":166290.1400000006,"y":2543166.8900000006}},{"attributes":{"ID":352119,"DIS_CODE":0,"TOWNNAME":"仁德區","LI":"一甲里","LIN":"18鄰","STREET":"忠義路","SECT":" ","MAREA":" ","LANE":"２５１巷","ALLEY":" ","HOUSE_NO":"６號","E_COORD97":173822.44,"N_COORD97":2541813.3999999999,"ADDRESS":"忠義路２５１巷６號","OBJECTID":352110},"geometry":{"x":173822.44000000134,"y":2541813.4000000004}},{"attributes":{"ID":352120,"DIS_CODE":0,"TOWNNAME":"安平區","LI":"文平里","LIN":"6鄰","STREET":"建平六街","SECT":" ","MAREA":" ","LANE":"９０巷","ALLEY":" ","HOUSE_NO":"２２號","E_COORD97":166290.53,"N_COORD97":2543171.3900000001,"ADDRESS":"建平六街９０巷２２號","OBJECTID":352111},"geometry":{"x":166290.53000000026,"y":2543171.3900000043}},{"attributes":{"ID":352121,"DIS_CODE":0,"TOWNNAME":"安平區","LI":"文平里","LIN":"6鄰","STREET":"建平六街","SECT":" ","MAREA":" ","LANE":"９０巷","ALLEY":" ","HOUSE_NO":"２４號","E_COORD97":166291.10000000001,"N_COORD97":2543175.6099999999,"ADDRESS":"建平六街９０巷２４號","OBJECTID":352112},"geometry":{"x":166291.09999999963,"y":2543175.6100000013}},{"attributes":{"ID":352122,"DIS_CODE":0,"TOWNNAME":"安平區","LI":"文平里","LIN":"6鄰","STREET":"建平六街","SECT":" ","MAREA":" ","LANE":"９０巷","ALLEY":" ","HOUSE_NO":"２６號","E_COORD97":166291.57999999999,"N_COORD97":2543179.6299999999,"ADDRESS":"建平六街９０巷２６號","OBJECTID":352113},"geometry":{"x":166291.58000000007,"y":2543179.6300000008}},{"attributes":{"ID":352123,"DIS_CODE":0,"TOWNNAME":"安平區","LI":"文平里","LIN":"6鄰","STREET":"建平六街","SECT":" ","MAREA":" ","LANE":"９０巷","ALLEY":" ","HOUSE_NO":"２８號","E_COORD97":166291.10000000001,"N_COORD97":2543184.23,"ADDRESS":"建平六街９０巷２８號","OBJECTID":352114},"geometry":{"x":166291.09999999963,"y":2543184.2300000004}},{"attributes":{"ID":352124,"DIS_CODE":0,"TOWNNAME":"安平區","LI":"文平里","LIN":"6鄰","STREET":"建平六街","SECT":" ","MAREA":" ","LANE":"９０巷","ALLEY":" ","HOUSE_NO":"２號","E_COORD97":166286.12,"N_COORD97":2543131.7799999998,"ADDRESS":"建平六街９０巷２號","OBJECTID":352115},"geometry":{"x":166286.12000000011,"y":2543131.7799999993}},{"attributes":{"ID":352125,"DIS_CODE":0,"TOWNNAME":"安平區","LI":"文平里","LIN":"6鄰","STREET":"建平六街","SECT":" ","MAREA":" ","LANE":"９０巷","ALLEY":" ","HOUSE_NO":"２號之１","E_COORD97":166287.54999999999,"N_COORD97":2543126.9900000002,"ADDRESS":"建平六街９０巷２號之１","OBJECTID":352116},"geometry":{"x":166287.55000000075,"y":2543126.9900000021}},{"attributes":{"ID":352126,"DIS_CODE":0,"TOWNNAME":"安平區","LI":"文平里","LIN":"6鄰","STREET":"建平六街","SECT":" ","MAREA":" ","LANE":"９０巷","ALLEY":" ","HOUSE_NO":"２號之２","E_COORD97":166287.35999999999,"N_COORD97":2543122,"ADDRESS":"建平六街９０巷２號之２","OBJECTID":352117},"geometry":{"x":166287.36000000127,"y":2543122}},{"attributes":{"ID":352127,"DIS_CODE":0,"TOWNNAME":"安平區","LI":"文平里","LIN":"6鄰","STREET":"建平六街","SECT":" ","MAREA":" ","LANE":"９０巷","ALLEY":" ","HOUSE_NO":"３０號","E_COORD97":166303.85999999999,"N_COORD97":2543177.9100000001,"ADDRESS":"建平六街９０巷３０號","OBJECTID":352118},"geometry":{"x":166303.86000000034,"y":2543177.910000002}},{"attributes":{"ID":352128,"DIS_CODE":0,"TOWNNAME":"安平區","LI":"文平里","LIN":"6鄰","STREET":"建平六街","SECT":" ","MAREA":" ","LANE":"９０巷","ALLEY":" ","HOUSE_NO":"３２號","E_COORD97":166305.97,"N_COORD97":2543191.23,"ADDRESS":"建平六街９０巷３２號","OBJECTID":352119},"geometry":{"x":166305.96999999974,"y":2543191.2300000004}},{"attributes":{"ID":352129,"DIS_CODE":0,"TOWNNAME":"安平區","LI":"文平里","LIN":"6鄰","STREET":"建平六街","SECT":" ","MAREA":" ","LANE":"９０巷","ALLEY":" ","HOUSE_NO":"３４號","E_COORD97":166293.42000000001,"N_COORD97":2543193.4300000002,"ADDRESS":"建平六街９０巷３４號","OBJECTID":352120},"geometry":{"x":166293.42000000086,"y":2543193.4299999997}},{"attributes":{"ID":352130,"DIS_CODE":0,"TOWNNAME":"安平區","LI":"文平里","LIN":"6鄰","STREET":"建平六街","SECT":" ","MAREA":" ","LANE":"９０巷","ALLEY":" ","HOUSE_NO":"３６號","E_COORD97":166294,"N_COORD97":2543197.7599999998,"ADDRESS":"建平六街９０巷３６號","OBJECTID":352121},"geometry":{"x":166294,"y":2543197.7599999998}},{"attributes":{"ID":352131,"DIS_CODE":0,"TOWNNAME":"安平區","LI":"文平里","LIN":"6鄰","STREET":"建平六街","SECT":" ","MAREA":" ","LANE":"９０巷","ALLEY":" ","HOUSE_NO":"３８號","E_COORD97":166294.70000000001,"N_COORD97":2543202.2000000002,"ADDRESS":"建平六街９０巷３８號","OBJECTID":352122},"geometry":{"x":166294.70000000019,"y":2543202.2000000011}},{"attributes":{"ID":352132,"DIS_CODE":0,"TOWNNAME":"安平區","LI":"文平里","LIN":"6鄰","STREET":"建平六街","SECT":" ","MAREA":" ","LANE":"９０巷","ALLEY":" ","HOUSE_NO":"４０號","E_COORD97":166295.29000000001,"N_COORD97":2543206.29,"ADDRESS":"建平六街９０巷４０號","OBJECTID":352123},"geometry":{"x":166295.29000000004,"y":2543206.2899999991}},{"attributes":{"ID":352133,"DIS_CODE":0,"TOWNNAME":"安平區","LI":"文平里","LIN":"6鄰","STREET":"建平六街","SECT":" ","MAREA":" ","LANE":"９０巷","ALLEY":" ","HOUSE_NO":"４號","E_COORD97":166286.5,"N_COORD97":2543135.6099999999,"ADDRESS":"建平六街９０巷４號","OBJECTID":352124},"geometry":{"x":166286.50000000093,"y":2543135.6100000013}},{"attributes":{"ID":352134,"DIS_CODE":0,"TOWNNAME":"安平區","LI":"文平里","LIN":"6鄰","STREET":"建平六街","SECT":" ","MAREA":" ","LANE":"９０巷","ALLEY":" ","HOUSE_NO":"６號","E_COORD97":166286.88,"N_COORD97":2543140.21,"ADDRESS":"建平六街９０巷６號","OBJECTID":352125},"geometry":{"x":166286.88000000082,"y":2543140.2100000028}},{"attributes":{"ID":352135,"DIS_CODE":0,"TOWNNAME":"安平區","LI":"華平里","LIN":"6鄰","STREET":"怡平路","SECT":" ","MAREA":" ","LANE":"４１０巷","ALLEY":" ","HOUSE_NO":"８９號","E_COORD97":165424.04999999999,"N_COORD97":2544045.2000000002,"ADDRESS":"怡平路４１０巷８９號","OBJECTID":352126},"geometry":{"x":165424.04999999888,"y":2544045.1999999993}},{"attributes":{"ID":352136,"DIS_CODE":0,"TOWNNAME":"安平區","LI":"華平里","LIN":"6鄰","STREET":"怡平路","SECT":" ","MAREA":" ","LANE":"４１０巷","ALLEY":" ","HOUSE_NO":"１２６號","E_COORD97":165415.54999999999,"N_COORD97":2544121.29,"ADDRESS":"怡平路４１０巷１２６號","OBJECTID":352127},"geometry":{"x":165415.54999999981,"y":2544121.290000001}},{"attributes":{"ID":352137,"DIS_CODE":0,"TOWNNAME":"安平區","LI":"華平里","LIN":"6鄰","STREET":"怡平路","SECT":" ","MAREA":" ","LANE":"４１０巷","ALLEY":" ","HOUSE_NO":"１２８號","E_COORD97":165409.57000000001,"N_COORD97":2544121.9900000002,"ADDRESS":"怡平路４１０巷１２８號","OBJECTID":352128},"geometry":{"x":165409.57000000123,"y":2544121.9900000002}},{"attributes":{"ID":352138,"DIS_CODE":0,"TOWNNAME":"安平區","LI":"華平里","LIN":"6鄰","STREET":"怡平路","SECT":" ","MAREA":" ","LANE":"４１０巷","ALLEY":" ","HOUSE_NO":"１２２之１號","E_COORD97":165426.60000000001,"N_COORD97":2544131.3399999999,"ADDRESS":"怡平路４１０巷１２２之１號","OBJECTID":352129},"geometry":{"x":165426.59999999963,"y":2544131.3400000017}},{"attributes":{"ID":352139,"DIS_CODE":0,"TOWNNAME":"安平區","LI":"華平里","LIN":"6鄰","STREET":"怡平路","SECT":" ","MAREA":" ","LANE":"４１０巷","ALLEY":" ","HOUSE_NO":"１２２之２號","E_COORD97":165427,"N_COORD97":2544136.8999999999,"ADDRESS":"怡平路４１０巷１２２之２號","OBJECTID":352130},"geometry":{"x":165427.00000000093,"y":2544136.9000000004}},{"attributes":{"ID":352140,"DIS_CODE":0,"TOWNNAME":"安平區","LI":"華平里","LIN":"6鄰","STREET":"怡平路","SECT":" ","MAREA":" ","LANE":"４１０巷","ALLEY":" ","HOUSE_NO":"１２２之３號","E_COORD97":165427.10000000001,"N_COORD97":2544142.2599999998,"ADDRESS":"怡平路４１０巷１２２之３號","OBJECTID":352131},"geometry":{"x":165427.10000000149,"y":2544142.2600000016}},{"attributes":{"ID":352141,"DIS_CODE":0,"TOWNNAME":"永康區","LI":"神洲里","LIN":"18鄰","STREET":"忠孝路","SECT":" ","MAREA":" ","LANE":"１０６巷","ALLEY":" ","HOUSE_NO":"６號","E_COORD97":172114.23000000001,"N_COORD97":2544973.75,"ADDRESS":"忠孝路１０６巷６號","OBJECTID":352132},"geometry":{"x":172114.23000000045,"y":2544973.75}},{"attributes":{"ID":352142,"DIS_CODE":0,"TOWNNAME":"永康區","LI":"勝利里","LIN":"18鄰","STREET":"中華一路","SECT":" ","MAREA":" ","LANE":"３２４巷","ALLEY":" ","HOUSE_NO":"１４號","E_COORD97":171231.62,"N_COORD97":2545051.6200000001,"ADDRESS":"中華一路３２４巷１４號","OBJECTID":352133},"geometry":{"x":171231.61999999918,"y":2545051.6199999992}},{"attributes":{"ID":352143,"DIS_CODE":0,"TOWNNAME":"永康區","LI":"勝利里","LIN":"18鄰","STREET":"中華一路","SECT":" ","MAREA":" ","LANE":"３２４巷","ALLEY":" ","HOUSE_NO":"３２號","E_COORD97":171235.37,"N_COORD97":2545093.6299999999,"ADDRESS":"中華一路３２４巷３２號","OBJECTID":352134},"geometry":{"x":171235.37000000104,"y":2545093.6300000027}},{"attributes":{"ID":352144,"DIS_CODE":0,"TOWNNAME":"安平區","LI":"華平里","LIN":"6鄰","STREET":"怡平路","SECT":" ","MAREA":" ","LANE":"４１０巷","ALLEY":" ","HOUSE_NO":"１２２之５號","E_COORD97":165428.09,"N_COORD97":2544148.1200000001,"ADDRESS":"怡平路４１０巷１２２之５號","OBJECTID":352135},"geometry":{"x":165428.09000000078,"y":2544148.1200000029}},{"attributes":{"ID":352145,"DIS_CODE":0,"TOWNNAME":"安平區","LI":"華平里","LIN":"6鄰","STREET":"怡平路","SECT":" ","MAREA":" ","LANE":"４１０巷","ALLEY":" ","HOUSE_NO":"１２６之１號","E_COORD97":165416.04000000001,"N_COORD97":2544132.9300000002,"ADDRESS":"怡平路４１０巷１２６之１號","OBJECTID":352136},"geometry":{"x":165416.0400000019,"y":2544132.9300000034}},{"attributes":{"ID":352146,"DIS_CODE":0,"TOWNNAME":"安平區","LI":"華平里","LIN":"6鄰","STREET":"怡平路","SECT":" ","MAREA":" ","LANE":"４１０巷","ALLEY":" ","HOUSE_NO":"１２６之２號","E_COORD97":165416.54000000001,"N_COORD97":2544138.3999999999,"ADDRESS":"怡平路４１０巷１２６之２號","OBJECTID":352137},"geometry":{"x":165416.54000000097,"y":2544138.4000000022}},{"attributes":{"ID":352147,"DIS_CODE":0,"TOWNNAME":"安平區","LI":"華平里","LIN":"6鄰","STREET":"怡平路","SECT":" ","MAREA":" ","LANE":"４１０巷","ALLEY":" ","HOUSE_NO":"１２６之３號","E_COORD97":165417.34,"N_COORD97":2544143.4500000002,"ADDRESS":"怡平路４１０巷１２６之３號","OBJECTID":352138},"geometry":{"x":165417.34000000078,"y":2544143.4500000011}},{"attributes":{"ID":352148,"DIS_CODE":0,"TOWNNAME":"南區","LI":"國宅里","LIN":"18鄰","STREET":" ","SECT":" ","MAREA":"台南觀光城","LANE":" ","ALLEY":" ","HOUSE_NO":"３６號","E_COORD97":166721.67999999999,"N_COORD97":2541853.6099999999,"ADDRESS":"台南觀光城３６號","OBJECTID":352139},"geometry":{"x":166721.68000000156,"y":2541853.6100000013}},{"attributes":{"ID":352149,"DIS_CODE":0,"TOWNNAME":"南區","LI":"國宅里","LIN":"18鄰","STREET":" ","SECT":" ","MAREA":"台南觀光城","LANE":" ","ALLEY":" ","HOUSE_NO":"３８號","E_COORD97":166722.12,"N_COORD97":2541858.8500000001,"ADDRESS":"台南觀光城３８號","OBJECTID":352140},"geometry":{"x":166722.12000000011,"y":2541858.8500000015}},{"attributes":{"ID":352150,"DIS_CODE":0,"TOWNNAME":"安平區","LI":"華平里","LIN":"6鄰","STREET":"怡平路","SECT":" ","MAREA":" ","LANE":"４１０巷","ALLEY":" ","HOUSE_NO":"１２６之５號","E_COORD97":165418.92999999999,"N_COORD97":2544149.1200000001,"ADDRESS":"怡平路４１０巷１２６之５號","OBJECTID":352141},"geometry":{"x":165418.93000000063,"y":2544149.120000001}},{"attributes":{"ID":352151,"DIS_CODE":0,"TOWNNAME":"安平區","LI":"華平里","LIN":"6鄰","STREET":"怡平路","SECT":" ","MAREA":" ","LANE":"４１０巷","ALLEY":" ","HOUSE_NO":"９２號","E_COORD97":165440.79000000001,"N_COORD97":2544056.1699999999,"ADDRESS":"怡平路４１０巷９２號","OBJECTID":352142},"geometry":{"x":165440.79000000004,"y":2544056.1699999999}},{"attributes":{"ID":352152,"DIS_CODE":0,"TOWNNAME":"安平區","LI":"億載里","LIN":"6鄰","STREET":"平豐路","SECT":" ","MAREA":" ","LANE":"２５１巷","ALLEY":" ","HOUSE_NO":"３５號","E_COORD97":164205.87471400001,"N_COORD97":2543685.2392500001,"ADDRESS":"平豐路２５１巷３５號","OBJECTID":352143},"geometry":{"x":164205.87471400015,"y":2543685.2392530013}},{"attributes":{"ID":352153,"DIS_CODE":0,"TOWNNAME":"新營區","LI":"新東里","LIN":"6鄰","STREET":"東大街","SECT":" ","MAREA":" ","LANE":"６６巷","ALLEY":" ","HOUSE_NO":"２２號","E_COORD97":181074.70999999999,"N_COORD97":2579186.7400000002,"ADDRESS":"東大街６６巷２２號","OBJECTID":352144},"geometry":{"x":181074.70999999996,"y":2579186.7400000002}},{"attributes":{"ID":352154,"DIS_CODE":0,"TOWNNAME":"新營區","LI":"新東里","LIN":"6鄰","STREET":"東大街","SECT":" ","MAREA":" ","LANE":"６６巷","ALLEY":" ","HOUSE_NO":"３６號","E_COORD97":181109.5,"N_COORD97":2579183.2599999998,"ADDRESS":"東大街６６巷３６號","OBJECTID":352145},"geometry":{"x":181109.5,"y":2579183.2599999998}},{"attributes":{"ID":352155,"DIS_CODE":0,"TOWNNAME":"新營區","LI":"埤寮里","LIN":"6鄰","STREET":"中正路","SECT":" ","MAREA":" ","LANE":"４８４巷","ALLEY":" ","HOUSE_NO":"４６號","E_COORD97":180315.69,"N_COORD97":2580684.2400000002,"ADDRESS":"中正路４８４巷４６號","OBJECTID":352146},"geometry":{"x":180315.69000000041,"y":2580684.2400000021}},{"attributes":{"ID":352156,"DIS_CODE":0,"TOWNNAME":"安平區","LI":"國平里","LIN":"18鄰","STREET":"永華路","SECT":"二段","MAREA":" ","LANE":" ","ALLEY":" ","HOUSE_NO":"７８５號","E_COORD97":164919.34,"N_COORD97":2543528.3999999999,"ADDRESS":"永華路二段７８５號","OBJECTID":352147},"geometry":{"x":164919.34000000078,"y":2543528.4000000022}},{"attributes":{"ID":352157,"DIS_CODE":0,"TOWNNAME":"安平區","LI":"國平里","LIN":"18鄰","STREET":"永華路","SECT":"二段","MAREA":" ","LANE":" ","ALLEY":" ","HOUSE_NO":"７８７號","E_COORD97":164911.31,"N_COORD97":2543529.5499999998,"ADDRESS":"永華路二段７８７號","OBJECTID":352148},"geometry":{"x":164911.30999999959,"y":2543529.5499999989}},{"attributes":{"ID":352158,"DIS_CODE":0,"TOWNNAME":"安平區","LI":"國平里","LIN":"18鄰","STREET":"永華路","SECT":"二段","MAREA":" ","LANE":" ","ALLEY":" ","HOUSE_NO":"７８７號之１","E_COORD97":164904.37,"N_COORD97":2543530.8100000001,"ADDRESS":"永華路二段７８７號之１","OBJECTID":352149},"geometry":{"x":164904.37000000104,"y":2543530.8100000005}},{"attributes":{"ID":352159,"DIS_CODE":0,"TOWNNAME":"新營區","LI":"新東里","LIN":"6鄰","STREET":"東大街","SECT":" ","MAREA":" ","LANE":"６６巷","ALLEY":" ","HOUSE_NO":"２４號","E_COORD97":181078.79999999999,"N_COORD97":2579186.7200000002,"ADDRESS":"東大街６６巷２４號","OBJECTID":352150},"geometry":{"x":181078.79999999981,"y":2579186.7200000025}},{"attributes":{"ID":352160,"DIS_CODE":0,"TOWNNAME":"新營區","LI":"新東里","LIN":"6鄰","STREET":"東大街","SECT":" ","MAREA":" ","LANE":"６６巷","ALLEY":" ","HOUSE_NO":"３８號","E_COORD97":181113.59,"N_COORD97":2579183.2400000002,"ADDRESS":"東大街６６巷３８號","OBJECTID":352151},"geometry":{"x":181113.59000000078,"y":2579183.2400000002}},{"attributes":{"ID":352161,"DIS_CODE":0,"TOWNNAME":"山上區","LI":"南洲里","LIN":"18鄰","STREET":" ","SECT":" ","MAREA":"南洲","LANE":" ","ALLEY":" ","HOUSE_NO":"３４７號","E_COORD97":183489.34,"N_COORD97":2555717.25,"ADDRESS":"南洲３４７號","OBJECTID":352152},"geometry":{"x":183489.33999999985,"y":2555717.2500000019}},{"attributes":{"ID":352162,"DIS_CODE":0,"TOWNNAME":"新營區","LI":"埤寮里","LIN":"6鄰","STREET":"中正路","SECT":" ","MAREA":" ","LANE":"５００巷","ALLEY":" ","HOUSE_NO":"５９號","E_COORD97":180282.48000000001,"N_COORD97":2580810.6600000001,"ADDRESS":"中正路５００巷５９號","OBJECTID":352153},"geometry":{"x":180282.48000000138,"y":2580810.6600000001}},{"attributes":{"ID":352163,"DIS_CODE":0,"TOWNNAME":"新市區","LI":"社內里","LIN":"18鄰","STREET":" ","SECT":" ","MAREA":"社內","LANE":" ","ALLEY":" ","HOUSE_NO":"１６４號之８","E_COORD97":176173.07000000001,"N_COORD97":2553080.0499999998,"ADDRESS":"社內１６４號之８","OBJECTID":352154},"geometry":{"x":176173.0700000003,"y":2553080.0500000007}},{"attributes":{"ID":352164,"DIS_CODE":0,"TOWNNAME":"新營區","LI":"新東里","LIN":"6鄰","STREET":"東大街","SECT":" ","MAREA":" ","LANE":"６６巷","ALLEY":" ","HOUSE_NO":"５８號","E_COORD97":181162.60999999999,"N_COORD97":2579183.0099999998,"ADDRESS":"東大街６６巷５８號","OBJECTID":352155},"geometry":{"x":181162.61000000127,"y":2579183.0100000016}},{"attributes":{"ID":352165,"DIS_CODE":0,"TOWNNAME":"新營區","LI":"新東里","LIN":"6鄰","STREET":"東大街","SECT":" ","MAREA":" ","LANE":"６６巷","ALLEY":" ","HOUSE_NO":"４７號","E_COORD97":181180.16,"N_COORD97":2579205.0699999998,"ADDRESS":"東大街６６巷４７號","OBJECTID":352156},"geometry":{"x":181180.16000000015,"y":2579205.0700000003}},{"attributes":{"ID":352166,"DIS_CODE":0,"TOWNNAME":"新營區","LI":"新東里","LIN":"6鄰","STREET":"東大街","SECT":" ","MAREA":" ","LANE":"６６巷","ALLEY":" ","HOUSE_NO":"８號","E_COORD97":181038.67999999999,"N_COORD97":2579184.6899999999,"ADDRESS":"東大街６６巷８號","OBJECTID":352157},"geometry":{"x":181038.6799999997,"y":2579184.6900000013}},{"attributes":{"ID":352167,"DIS_CODE":0,"TOWNNAME":"新營區","LI":"新東里","LIN":"6鄰","STREET":"東大街","SECT":" ","MAREA":" ","LANE":"６６巷","ALLEY":" ","HOUSE_NO":"４３號","E_COORD97":181166.85999999999,"N_COORD97":2579204.0299999998,"ADDRESS":"東大街６６巷４３號","OBJECTID":352158},"geometry":{"x":181166.86000000034,"y":2579204.0299999993}},{"attributes":{"ID":352168,"DIS_CODE":0,"TOWNNAME":"新營區","LI":"新東里","LIN":"6鄰","STREET":"東大街","SECT":" ","MAREA":" ","LANE":"６６巷","ALLEY":" ","HOUSE_NO":"５２號","E_COORD97":181147.26000000001,"N_COORD97":2579183.0800000001,"ADDRESS":"東大街６６巷５２號","OBJECTID":352159},"geometry":{"x":181147.26000000164,"y":2579183.0800000019}},{"attributes":{"ID":352169,"DIS_CODE":0,"TOWNNAME":"新市區","LI":"社內里","LIN":"18鄰","STREET":" ","SECT":" ","MAREA":"社內","LANE":" ","ALLEY":" ","HOUSE_NO":"１６４號之７","E_COORD97":176174.76000000001,"N_COORD97":2553075.0499999998,"ADDRESS":"社內１６４號之７","OBJECTID":352160},"geometry":{"x":176174.75999999978,"y":2553075.0500000026}},{"attributes":{"ID":352170,"DIS_CODE":0,"TOWNNAME":"新市區","LI":"社內里","LIN":"18鄰","STREET":" ","SECT":" ","MAREA":"社內","LANE":" ","ALLEY":" ","HOUSE_NO":"１９１之３號","E_COORD97":176139.22864300001,"N_COORD97":2553059.7566499999,"ADDRESS":"社內１９１之３號","OBJECTID":352161},"geometry":{"x":176139.22864300013,"y":2553059.7566540018}},{"attributes":{"ID":352171,"DIS_CODE":0,"TOWNNAME":"山上區","LI":"南洲里","LIN":"18鄰","STREET":" ","SECT":" ","MAREA":"南洲","LANE":" ","ALLEY":" ","HOUSE_NO":"３４７號之１","E_COORD97":183474.26999999999,"N_COORD97":2555697.2999999998,"ADDRESS":"南洲３４７號之１","OBJECTID":352162},"geometry":{"x":183474.26999999955,"y":2555697.3000000026}},{"attributes":{"ID":352172,"DIS_CODE":0,"TOWNNAME":"山上區","LI":"南洲里","LIN":"18鄰","STREET":" ","SECT":" ","MAREA":"南洲","LANE":" ","ALLEY":" ","HOUSE_NO":"３４５之１８號","E_COORD97":183439.56562899999,"N_COORD97":2555803.5893999999,"ADDRESS":"南洲３４５之１８號","OBJECTID":352163},"geometry":{"x":183439.56562900171,"y":2555803.5893980023}},{"attributes":{"ID":352173,"DIS_CODE":0,"TOWNNAME":"山上區","LI":"南洲里","LIN":"18鄰","STREET":" ","SECT":" ","MAREA":"南洲","LANE":" ","ALLEY":" ","HOUSE_NO":"３４５號之１４","E_COORD97":183479.85000000001,"N_COORD97":2555843.2999999998,"ADDRESS":"南洲３４５號之１４","OBJECTID":352164},"geometry":{"x":183479.85000000056,"y":2555843.3000000026}},{"attributes":{"ID":352174,"DIS_CODE":0,"TOWNNAME":"山上區","LI":"南洲里","LIN":"18鄰","STREET":" ","SECT":" ","MAREA":"南洲","LANE":" ","ALLEY":" ","HOUSE_NO":"２９７號","E_COORD97":183684.64000000001,"N_COORD97":2555723.25,"ADDRESS":"南洲２９７號","OBJECTID":352165},"geometry":{"x":183684.6400000006,"y":2555723.2500000019}},{"attributes":{"ID":352175,"DIS_CODE":0,"TOWNNAME":"山上區","LI":"明和里","LIN":"18鄰","STREET":" ","SECT":" ","MAREA":"明和","LANE":" ","ALLEY":" ","HOUSE_NO":"４６號","E_COORD97":183312.69,"N_COORD97":2556034.25,"ADDRESS":"明和４６號","OBJECTID":352166},"geometry":{"x":183312.69000000041,"y":2556034.25}},{"attributes":{"ID":352176,"DIS_CODE":0,"TOWNNAME":"山上區","LI":"南洲里","LIN":"18鄰","STREET":" ","SECT":" ","MAREA":"南洲","LANE":" ","ALLEY":" ","HOUSE_NO":"３４５號之１０","E_COORD97":183501.67999999999,"N_COORD97":2555853.2999999998,"ADDRESS":"南洲３４５號之１０","OBJECTID":352167},"geometry":{"x":183501.6799999997,"y":2555853.3000000026}},{"attributes":{"ID":352177,"DIS_CODE":0,"TOWNNAME":"東區","LI":"崇德里","LIN":"18鄰","STREET":"崇明十三街","SECT":" ","MAREA":" ","LANE":"１１巷","ALLEY":" ","HOUSE_NO":"２６號","E_COORD97":170486.20000000001,"N_COORD97":2541658.7799999998,"ADDRESS":"崇明十三街１１巷２６號","OBJECTID":352168},"geometry":{"x":170486.20000000112,"y":2541658.7800000031}},{"attributes":{"ID":352178,"DIS_CODE":0,"TOWNNAME":"仁德區","LI":"成功里","LIN":"18鄰","STREET":"全福路","SECT":" ","MAREA":" ","LANE":"７５巷","ALLEY":" ","HOUSE_NO":"１２號","E_COORD97":171039.66,"N_COORD97":2539342.9900000002,"ADDRESS":"全福路７５巷１２號","OBJECTID":352169},"geometry":{"x":171039.66000000015,"y":2539342.9900000021}},{"attributes":{"ID":352179,"DIS_CODE":0,"TOWNNAME":"仁德區","LI":"仁義里","LIN":"18鄰","STREET":"正義三街","SECT":" ","MAREA":" ","LANE":"２８６巷","ALLEY":" ","HOUSE_NO":"７號","E_COORD97":174027.98000000001,"N_COORD97":2541511.5099999998,"ADDRESS":"正義三街２８６巷７號","OBJECTID":352170},"geometry":{"x":174027.98000000045,"y":2541511.5099999979}},{"attributes":{"ID":352180,"DIS_CODE":0,"TOWNNAME":"仁德區","LI":"仁德里","LIN":"18鄰","STREET":"文華路","SECT":"三段","MAREA":" ","LANE":"１８９巷","ALLEY":" ","HOUSE_NO":"７７號","E_COORD97":172085.25,"N_COORD97":2540447.2599999998,"ADDRESS":"文華路三段１８９巷７７號","OBJECTID":352171},"geometry":{"x":172085.25000000186,"y":2540447.2599999998}},{"attributes":{"ID":352181,"DIS_CODE":0,"TOWNNAME":"六甲區","LI":"水林里","LIN":"6鄰","STREET":"中山路","SECT":" ","MAREA":" ","LANE":"２８０巷","ALLEY":" ","HOUSE_NO":"１２號","E_COORD97":183029.07000000001,"N_COORD97":2570197.5699999998,"ADDRESS":"中山路２８０巷１２號","OBJECTID":352172},"geometry":{"x":183029.07000000216,"y":2570197.5699999984}},{"attributes":{"ID":352182,"DIS_CODE":0,"TOWNNAME":"六甲區","LI":"水林里","LIN":"6鄰","STREET":"中山路","SECT":" ","MAREA":" ","LANE":"２８０巷","ALLEY":" ","HOUSE_NO":"７號","E_COORD97":182988.82999999999,"N_COORD97":2570198.54,"ADDRESS":"中山路２８０巷７號","OBJECTID":352173},"geometry":{"x":182988.83000000101,"y":2570198.5399999991}},{"attributes":{"ID":352183,"DIS_CODE":0,"TOWNNAME":"六甲區","LI":"水林里","LIN":"6鄰","STREET":"中山路","SECT":" ","MAREA":" ","LANE":"７００巷","ALLEY":" ","HOUSE_NO":"６６號","E_COORD97":181910.64999999999,"N_COORD97":2570900.77,"ADDRESS":"中山路７００巷６６號","OBJECTID":352174},"geometry":{"x":181910.6500000013,"y":2570900.7700000033}},{"attributes":{"ID":352184,"DIS_CODE":0,"TOWNNAME":"六甲區","LI":"六甲里","LIN":"6鄰","STREET":"中正路","SECT":" ","MAREA":" ","LANE":"５１２巷","ALLEY":" ","HOUSE_NO":"１０號","E_COORD97":183660.01000000001,"N_COORD97":2569880.96,"ADDRESS":"中正路５１２巷１０號","OBJECTID":352175},"geometry":{"x":183660.01000000071,"y":2569880.9600000028}},{"attributes":{"ID":352185,"DIS_CODE":0,"TOWNNAME":"六甲區","LI":"六甲里","LIN":"6鄰","STREET":"中正路","SECT":" ","MAREA":" ","LANE":"５１２巷","ALLEY":" ","HOUSE_NO":"１２號","E_COORD97":183663.73999999999,"N_COORD97":2569880.1000000001,"ADDRESS":"中正路５１２巷１２號","OBJECTID":352176},"geometry":{"x":183663.74000000115,"y":2569880.0999999996}},{"attributes":{"ID":352186,"DIS_CODE":0,"TOWNNAME":"六甲區","LI":"六甲里","LIN":"6鄰","STREET":"中正路","SECT":" ","MAREA":" ","LANE":"５１２巷","ALLEY":" ","HOUSE_NO":"１６號","E_COORD97":183667.17999999999,"N_COORD97":2569879.3700000001,"ADDRESS":"中正路５１２巷１６號","OBJECTID":352177},"geometry":{"x":183667.18000000063,"y":2569879.3700000029}},{"attributes":{"ID":352187,"DIS_CODE":0,"TOWNNAME":"安平區","LI":"國平里","LIN":"18鄰","STREET":"永華路","SECT":"二段","MAREA":" ","LANE":" ","ALLEY":" ","HOUSE_NO":"７８９號","E_COORD97":164895.48000000001,"N_COORD97":2543531.3799999999,"ADDRESS":"永華路二段７８９號","OBJECTID":352178},"geometry":{"x":164895.48000000138,"y":2543531.379999999}},{"attributes":{"ID":352188,"DIS_CODE":0,"TOWNNAME":"安平區","LI":"國平里","LIN":"18鄰","STREET":"永華路","SECT":"二段","MAREA":" ","LANE":" ","ALLEY":" ","HOUSE_NO":"７９１號","E_COORD97":164885.39000000001,"N_COORD97":2543532.75,"ADDRESS":"永華路二段７９１號","OBJECTID":352179},"geometry":{"x":164885.38999999966,"y":2543532.75}},{"attributes":{"ID":352189,"DIS_CODE":0,"TOWNNAME":"安平區","LI":"國平里","LIN":"18鄰","STREET":"永華路","SECT":"二段","MAREA":" ","LANE":" ","ALLEY":" ","HOUSE_NO":"７９３號","E_COORD97":164873.92000000001,"N_COORD97":2543534.5899999999,"ADDRESS":"永華路二段７９３號","OBJECTID":352180},"geometry":{"x":164873.91999999993,"y":2543534.5899999999}},{"attributes":{"ID":352190,"DIS_CODE":0,"TOWNNAME":"安平區","LI":"國平里","LIN":"18鄰","STREET":"育平五街","SECT":" ","MAREA":" ","LANE":" ","ALLEY":" ","HOUSE_NO":"１０號","E_COORD97":164880.57999999999,"N_COORD97":2543488.77,"ADDRESS":"育平五街１０號","OBJECTID":352181},"geometry":{"x":164880.58000000101,"y":2543488.7699999996}},{"attributes":{"ID":352191,"DIS_CODE":0,"TOWNNAME":"仁德區","LI":"上崙里","LIN":"18鄰","STREET":"德崙路","SECT":" ","MAREA":" ","LANE":"３１６巷","ALLEY":" ","HOUSE_NO":"１７號","E_COORD97":173902.32000000001,"N_COORD97":2538090.0099999998,"ADDRESS":"德崙路３１６巷１７號","OBJECTID":352182},"geometry":{"x":173902.32000000216,"y":2538090.0099999998}},{"attributes":{"ID":352192,"DIS_CODE":0,"TOWNNAME":"仁德區","LI":"上崙里","LIN":"18鄰","STREET":"德崙路","SECT":" ","MAREA":" ","LANE":"３１６巷","ALLEY":" ","HOUSE_NO":"５５號","E_COORD97":173941.89000000001,"N_COORD97":2537996.0099999998,"ADDRESS":"德崙路３１６巷５５號","OBJECTID":352183},"geometry":{"x":173941.8900000006,"y":2537996.0100000035}},{"attributes":{"ID":352193,"DIS_CODE":0,"TOWNNAME":"仁德區","LI":"一甲里","LIN":"18鄰","STREET":"忠義路","SECT":" ","MAREA":" ","LANE":"２５１巷","ALLEY":" ","HOUSE_NO":"１７號","E_COORD97":173838.97,"N_COORD97":2541781.52,"ADDRESS":"忠義路２５１巷１７號","OBJECTID":352184},"geometry":{"x":173838.96999999974,"y":2541781.5199999996}},{"attributes":{"ID":352194,"DIS_CODE":0,"TOWNNAME":"仁德區","LI":"上崙里","LIN":"18鄰","STREET":"德崙路","SECT":" ","MAREA":" ","LANE":"３１６巷","ALLEY":" ","HOUSE_NO":"４９號","E_COORD97":173930.98999999999,"N_COORD97":2538008.7599999998,"ADDRESS":"德崙路３１６巷４９號","OBJECTID":352185},"geometry":{"x":173930.99000000022,"y":2538008.7600000016}},{"attributes":{"ID":352195,"DIS_CODE":0,"TOWNNAME":"仁德區","LI":"一甲里","LIN":"18鄰","STREET":"忠義路","SECT":" ","MAREA":" ","LANE":"２５１巷","ALLEY":" ","HOUSE_NO":"２８號","E_COORD97":173820.07999999999,"N_COORD97":2541767.4100000001,"ADDRESS":"忠義路２５１巷２８號","OBJECTID":352186},"geometry":{"x":173820.08000000007,"y":2541767.410000002}},{"attributes":{"ID":352196,"DIS_CODE":0,"TOWNNAME":"仁德區","LI":"一甲里","LIN":"18鄰","STREET":"忠義路","SECT":" ","MAREA":" ","LANE":"２５１巷","ALLEY":" ","HOUSE_NO":"４０號","E_COORD97":173816.94,"N_COORD97":2541742.3999999999,"ADDRESS":"忠義路２５１巷４０號","OBJECTID":352187},"geometry":{"x":173816.94000000134,"y":2541742.4000000004}},{"attributes":{"ID":352197,"DIS_CODE":0,"TOWNNAME":"仁德區","LI":"一甲里","LIN":"18鄰","STREET":"忠義路","SECT":" ","MAREA":" ","LANE":"２５１巷","ALLEY":" ","HOUSE_NO":"２３號","E_COORD97":173837.85000000001,"N_COORD97":2541767.52,"ADDRESS":"忠義路２５１巷２３號","OBJECTID":352188},"geometry":{"x":173837.84999999963,"y":2541767.5199999996}},{"attributes":{"ID":352198,"DIS_CODE":0,"TOWNNAME":"仁德區","LI":"一甲里","LIN":"18鄰","STREET":"忠義路","SECT":" ","MAREA":" ","LANE":"２５１巷","ALLEY":" ","HOUSE_NO":"２９號","E_COORD97":173835.67999999999,"N_COORD97":2541754.02,"ADDRESS":"忠義路２５１巷２９號","OBJECTID":352189},"geometry":{"x":173835.6799999997,"y":2541754.0199999996}},{"attributes":{"ID":352199,"DIS_CODE":0,"TOWNNAME":"仁德區","LI":"一甲里","LIN":"18鄰","STREET":"忠義路","SECT":" ","MAREA":" ","LANE":"２５１巷","ALLEY":" ","HOUSE_NO":"２６號","E_COORD97":173820.73999999999,"N_COORD97":2541771.4100000001,"ADDRESS":"忠義路２５１巷２６號","OBJECTID":352190},"geometry":{"x":173820.74000000022,"y":2541771.410000002}},{"attributes":{"ID":352200,"DIS_CODE":0,"TOWNNAME":"六甲區","LI":"六甲里","LIN":"6鄰","STREET":"中正路","SECT":" ","MAREA":" ","LANE":"５１２巷","ALLEY":" ","HOUSE_NO":"１８號","E_COORD97":183671.67999999999,"N_COORD97":2569877.96,"ADDRESS":"中正路５１２巷１８號","OBJECTID":352191},"geometry":{"x":183671.6799999997,"y":2569877.9600000028}},{"attributes":{"ID":352201,"DIS_CODE":0,"TOWNNAME":"六甲區","LI":"六甲里","LIN":"6鄰","STREET":"中正路","SECT":" ","MAREA":" ","LANE":"５１２巷","ALLEY":" ","HOUSE_NO":"２０號","E_COORD97":183674.98000000001,"N_COORD97":2569877.0299999998,"ADDRESS":"中正路５１２巷２０號","OBJECTID":352192},"geometry":{"x":183674.98000000045,"y":2569877.0299999993}},{"attributes":{"ID":352202,"DIS_CODE":0,"TOWNNAME":"六甲區","LI":"六甲里","LIN":"6鄰","STREET":"中正路","SECT":" ","MAREA":" ","LANE":"５１２巷","ALLEY":" ","HOUSE_NO":"２２號","E_COORD97":183679.45999999999,"N_COORD97":2569876.1800000002,"ADDRESS":"中正路５１２巷２２號","OBJECTID":352193},"geometry":{"x":183679.46000000089,"y":2569876.1799999997}},{"attributes":{"ID":352203,"DIS_CODE":0,"TOWNNAME":"六甲區","LI":"六甲里","LIN":"6鄰","STREET":"中正路","SECT":" ","MAREA":" ","LANE":"５１２巷","ALLEY":" ","HOUSE_NO":"２號","E_COORD97":183647.60999999999,"N_COORD97":2569885.04,"ADDRESS":"中正路５１２巷２號","OBJECTID":352194},"geometry":{"x":183647.6100000022,"y":2569885.0400000028}},{"attributes":{"ID":352204,"DIS_CODE":0,"TOWNNAME":"六甲區","LI":"六甲里","LIN":"6鄰","STREET":"中正路","SECT":" ","MAREA":" ","LANE":"５１２巷","ALLEY":" ","HOUSE_NO":"６號","E_COORD97":183651.72,"N_COORD97":2569883.6299999999,"ADDRESS":"中正路５１２巷６號","OBJECTID":352195},"geometry":{"x":183651.72000000067,"y":2569883.629999999}},{"attributes":{"ID":352205,"DIS_CODE":0,"TOWNNAME":"六甲區","LI":"六甲里","LIN":"6鄰","STREET":"中正路","SECT":" ","MAREA":" ","LANE":"５１２巷","ALLEY":" ","HOUSE_NO":"８號","E_COORD97":183656.14999999999,"N_COORD97":2569882.46,"ADDRESS":"中正路５１２巷８號","OBJECTID":352196},"geometry":{"x":183656.1500000013,"y":2569882.4600000009}},{"attributes":{"ID":352206,"DIS_CODE":0,"TOWNNAME":"安平區","LI":"國平里","LIN":"18鄰","STREET":"育平五街","SECT":" ","MAREA":" ","LANE":" ","ALLEY":" ","HOUSE_NO":"１２號","E_COORD97":164873.69,"N_COORD97":2543489.6899999999,"ADDRESS":"育平五街１２號","OBJECTID":352197},"geometry":{"x":164873.69000000134,"y":2543489.6899999995}},{"attributes":{"ID":352207,"DIS_CODE":0,"TOWNNAME":"安平區","LI":"國平里","LIN":"18鄰","STREET":"育平五街","SECT":" ","MAREA":" ","LANE":" ","ALLEY":" ","HOUSE_NO":"１４號","E_COORD97":164867.26999999999,"N_COORD97":2543490.6000000001,"ADDRESS":"育平五街１４號","OBJECTID":352198},"geometry":{"x":164867.26999999955,"y":2543490.5999999996}},{"attributes":{"ID":352208,"DIS_CODE":0,"TOWNNAME":"安平區","LI":"億載里","LIN":"8鄰","STREET":"永華路","SECT":"二段","MAREA":" ","LANE":" ","ALLEY":" ","HOUSE_NO":"１１５３號","E_COORD97":164188.44,"N_COORD97":2543599.3399999999,"ADDRESS":"永華路二段１１５３號","OBJECTID":352199},"geometry":{"x":164188.44000000134,"y":2543599.3400000017}},{"attributes":{"ID":352209,"DIS_CODE":0,"TOWNNAME":"學甲區","LI":"新達里","LIN":"8鄰","STREET":"新生路","SECT":" ","MAREA":" ","LANE":" ","ALLEY":" ","HOUSE_NO":"１７號","E_COORD97":166519.85999999999,"N_COORD97":2570527.9100000001,"ADDRESS":"新生路１７號","OBJECTID":352200},"geometry":{"x":166519.86000000127,"y":2570527.910000002}}]}