{"displayFieldName":"TOWNNAME","fieldAliases":{"ID":"ID","DIS_CODE":"DIS_CODE","TOWNNAME":"TOWNNAME","LI":"LI","LIN":"LIN","STREET":"STREET","SECT":"SECT","MAREA":"MAREA","LANE":"LANE","ALLEY":"ALLEY","HOUSE_NO":"HOUSE_NO","E_COORD97":"E_COORD97","N_COORD97":"N_COORD97","ADDRESS":"ADDRESS","OBJECTID":"OBJECTID"},"geometryType":"esriGeometryPoint","spatialReference":{"wkid":102443,"latestWkid":3826},"fields":[{"name":"ID","type":"esriFieldTypeDouble","alias":"ID"},{"name":"DIS_CODE","type":"esriFieldTypeInteger","alias":"DIS_CODE"},{"name":"TOWNNAME","type":"esriFieldTypeString","alias":"TOWNNAME","length":8},{"name":"LI","type":"esriFieldTypeString","alias":"LI","length":8},{"name":"LIN","type":"esriFieldTypeString","alias":"LIN","length":12},{"name":"STREET","type":"esriFieldTypeString","alias":"STREET","length":20},{"name":"SECT","type":"esriFieldTypeString","alias":"SECT","length":8},{"name":"MAREA","type":"esriFieldTypeString","alias":"MAREA","length":12},{"name":"LANE","type":"esriFieldTypeString","alias":"LANE","length":10},{"name":"ALLEY","type":"esriFieldTypeString","alias":"ALLEY","length":10},{"name":"HOUSE_NO","type":"esriFieldTypeString","alias":"HOUSE_NO","length":20},{"name":"E_COORD97","type":"esriFieldTypeDouble","alias":"E_COORD97"},{"name":"N_COORD97","type":"esriFieldTypeDouble","alias":"N_COORD97"},{"name":"ADDRESS","type":"esriFieldTypeString","alias":"ADDRESS","length":50},{"name":"OBJECTID","type":"esriFieldTypeOID","alias":"OBJECTID"}],"features":[{"attributes":{"ID":455026,"DIS_CODE":0,"TOWNNAME":"北區","LI":"成功里","LIN":"22鄰","STREET":"北安路","SECT":"一段","MAREA":" ","LANE":"十七六巷","ALLEY":" ","HOUSE_NO":"１８號二樓","E_COORD97":168959,"N_COORD97":2546511.2999999998,"ADDRESS":"北安路一段十七六巷１８號二樓","OBJECTID":455001},"geometry":{"x":168959,"y":2546511.2999999989}},{"attributes":{"ID":455027,"DIS_CODE":0,"TOWNNAME":"北區","LI":"成功里","LIN":"22鄰","STREET":"北安路","SECT":"一段","MAREA":" ","LANE":"十七六巷","ALLEY":" ","HOUSE_NO":"１８號八樓","E_COORD97":168959,"N_COORD97":2546511.2999999998,"ADDRESS":"北安路一段十七六巷１８號八樓","OBJECTID":455002},"geometry":{"x":168959,"y":2546511.2999999989}},{"attributes":{"ID":455028,"DIS_CODE":0,"TOWNNAME":"北區","LI":"成功里","LIN":"22鄰","STREET":"北安路","SECT":"一段","MAREA":" ","LANE":"十七六巷","ALLEY":" ","HOUSE_NO":"１８號十一樓","E_COORD97":168959,"N_COORD97":2546511.2999999998,"ADDRESS":"北安路一段十七六巷１８號十一樓","OBJECTID":455003},"geometry":{"x":168959,"y":2546511.2999999989}},{"attributes":{"ID":455029,"DIS_CODE":0,"TOWNNAME":"北區","LI":"成功里","LIN":"22鄰","STREET":"北安路","SECT":"一段","MAREA":" ","LANE":"十七六巷","ALLEY":" ","HOUSE_NO":"１８號十二樓","E_COORD97":168959,"N_COORD97":2546511.2999999998,"ADDRESS":"北安路一段十七六巷１８號十二樓","OBJECTID":455004},"geometry":{"x":168959,"y":2546511.2999999989}},{"attributes":{"ID":455030,"DIS_CODE":0,"TOWNNAME":"北區","LI":"成功里","LIN":"22鄰","STREET":"北安路","SECT":"一段","MAREA":" ","LANE":"十七六巷","ALLEY":" ","HOUSE_NO":"１８號十樓","E_COORD97":168959,"N_COORD97":2546511.2999999998,"ADDRESS":"北安路一段十七六巷１８號十樓","OBJECTID":455005},"geometry":{"x":168959,"y":2546511.2999999989}},{"attributes":{"ID":455031,"DIS_CODE":0,"TOWNNAME":"北區","LI":"成功里","LIN":"22鄰","STREET":"北安路","SECT":"一段","MAREA":" ","LANE":"十七六巷","ALLEY":" ","HOUSE_NO":"１８號三樓","E_COORD97":168959,"N_COORD97":2546511.2999999998,"ADDRESS":"北安路一段十七六巷１８號三樓","OBJECTID":455006},"geometry":{"x":168959,"y":2546511.2999999989}},{"attributes":{"ID":455032,"DIS_CODE":0,"TOWNNAME":"北區","LI":"成功里","LIN":"22鄰","STREET":"北安路","SECT":"一段","MAREA":" ","LANE":"十七六巷","ALLEY":" ","HOUSE_NO":"１８號六樓","E_COORD97":168959,"N_COORD97":2546511.2999999998,"ADDRESS":"北安路一段十七六巷１８號六樓","OBJECTID":455007},"geometry":{"x":168959,"y":2546511.2999999989}},{"attributes":{"ID":455033,"DIS_CODE":0,"TOWNNAME":"北區","LI":"成功里","LIN":"22鄰","STREET":"北安路","SECT":"一段","MAREA":" ","LANE":"十七六巷","ALLEY":" ","HOUSE_NO":"２號七樓","E_COORD97":168983.60999999999,"N_COORD97":2546499.6299999999,"ADDRESS":"北安路一段十七六巷２號七樓","OBJECTID":455008},"geometry":{"x":168983.61000000034,"y":2546499.629999999}},{"attributes":{"ID":455034,"DIS_CODE":0,"TOWNNAME":"北區","LI":"成功里","LIN":"22鄰","STREET":"北安路","SECT":"一段","MAREA":" ","LANE":"十七六巷","ALLEY":" ","HOUSE_NO":"２號九樓","E_COORD97":168983.60999999999,"N_COORD97":2546499.6299999999,"ADDRESS":"北安路一段十七六巷２號九樓","OBJECTID":455009},"geometry":{"x":168983.61000000034,"y":2546499.629999999}},{"attributes":{"ID":455035,"DIS_CODE":0,"TOWNNAME":"北區","LI":"成功里","LIN":"22鄰","STREET":"北安路","SECT":"一段","MAREA":" ","LANE":"十七六巷","ALLEY":" ","HOUSE_NO":"２號二樓","E_COORD97":168983.60999999999,"N_COORD97":2546499.6299999999,"ADDRESS":"北安路一段十七六巷２號二樓","OBJECTID":455010},"geometry":{"x":168983.61000000034,"y":2546499.629999999}},{"attributes":{"ID":455036,"DIS_CODE":0,"TOWNNAME":"北區","LI":"成功里","LIN":"22鄰","STREET":"北安路","SECT":"一段","MAREA":" ","LANE":"十七六巷","ALLEY":" ","HOUSE_NO":"２號八樓","E_COORD97":168983.60999999999,"N_COORD97":2546499.6299999999,"ADDRESS":"北安路一段十七六巷２號八樓","OBJECTID":455011},"geometry":{"x":168983.61000000034,"y":2546499.629999999}},{"attributes":{"ID":455037,"DIS_CODE":0,"TOWNNAME":"北區","LI":"成功里","LIN":"22鄰","STREET":"北安路","SECT":"一段","MAREA":" ","LANE":"十七六巷","ALLEY":" ","HOUSE_NO":"２號十一樓","E_COORD97":168983.60999999999,"N_COORD97":2546499.6299999999,"ADDRESS":"北安路一段十七六巷２號十一樓","OBJECTID":455012},"geometry":{"x":168983.61000000034,"y":2546499.629999999}},{"attributes":{"ID":455038,"DIS_CODE":0,"TOWNNAME":"北區","LI":"成功里","LIN":"22鄰","STREET":"北安路","SECT":"一段","MAREA":" ","LANE":"十七六巷","ALLEY":" ","HOUSE_NO":"２號十二樓","E_COORD97":168983.60999999999,"N_COORD97":2546499.6299999999,"ADDRESS":"北安路一段十七六巷２號十二樓","OBJECTID":455013},"geometry":{"x":168983.61000000034,"y":2546499.629999999}},{"attributes":{"ID":455039,"DIS_CODE":0,"TOWNNAME":"北區","LI":"成功里","LIN":"22鄰","STREET":"北安路","SECT":"一段","MAREA":" ","LANE":"十七六巷","ALLEY":" ","HOUSE_NO":"２號十樓","E_COORD97":168983.60999999999,"N_COORD97":2546499.6299999999,"ADDRESS":"北安路一段十七六巷２號十樓","OBJECTID":455014},"geometry":{"x":168983.61000000034,"y":2546499.629999999}},{"attributes":{"ID":455040,"DIS_CODE":0,"TOWNNAME":"北區","LI":"成功里","LIN":"22鄰","STREET":"北安路","SECT":"一段","MAREA":" ","LANE":"十七六巷","ALLEY":" ","HOUSE_NO":"２號三樓","E_COORD97":168983.60999999999,"N_COORD97":2546499.6299999999,"ADDRESS":"北安路一段十七六巷２號三樓","OBJECTID":455015},"geometry":{"x":168983.61000000034,"y":2546499.629999999}},{"attributes":{"ID":455041,"DIS_CODE":0,"TOWNNAME":"北區","LI":"成功里","LIN":"22鄰","STREET":"北安路","SECT":"一段","MAREA":" ","LANE":"十七六巷","ALLEY":" ","HOUSE_NO":"２號五樓","E_COORD97":168983.60999999999,"N_COORD97":2546499.6299999999,"ADDRESS":"北安路一段十七六巷２號五樓","OBJECTID":455016},"geometry":{"x":168983.61000000034,"y":2546499.629999999}},{"attributes":{"ID":455042,"DIS_CODE":0,"TOWNNAME":"北區","LI":"成功里","LIN":"22鄰","STREET":"北安路","SECT":"一段","MAREA":" ","LANE":"十七六巷","ALLEY":" ","HOUSE_NO":"２號六樓","E_COORD97":168983.60999999999,"N_COORD97":2546499.6299999999,"ADDRESS":"北安路一段十七六巷２號六樓","OBJECTID":455017},"geometry":{"x":168983.61000000034,"y":2546499.629999999}},{"attributes":{"ID":455043,"DIS_CODE":0,"TOWNNAME":"北區","LI":"成功里","LIN":"22鄰","STREET":"北安路","SECT":"一段","MAREA":" ","LANE":"十七六巷","ALLEY":" ","HOUSE_NO":"２號四樓","E_COORD97":168983.60999999999,"N_COORD97":2546499.6299999999,"ADDRESS":"北安路一段十七六巷２號四樓","OBJECTID":455018},"geometry":{"x":168983.61000000034,"y":2546499.629999999}},{"attributes":{"ID":455044,"DIS_CODE":0,"TOWNNAME":"北區","LI":"成功里","LIN":"22鄰","STREET":"北安路","SECT":"一段","MAREA":" ","LANE":"十七六巷","ALLEY":" ","HOUSE_NO":"２０號七樓","E_COORD97":168955.19,"N_COORD97":2546513.52,"ADDRESS":"北安路一段十七六巷２０號七樓","OBJECTID":455019},"geometry":{"x":168955.19000000134,"y":2546513.5200000014}},{"attributes":{"ID":455045,"DIS_CODE":0,"TOWNNAME":"北區","LI":"成功里","LIN":"22鄰","STREET":"北安路","SECT":"一段","MAREA":" ","LANE":"十七六巷","ALLEY":" ","HOUSE_NO":"２０號九樓","E_COORD97":168955.19,"N_COORD97":2546513.52,"ADDRESS":"北安路一段十七六巷２０號九樓","OBJECTID":455020},"geometry":{"x":168955.19000000134,"y":2546513.5200000014}},{"attributes":{"ID":455046,"DIS_CODE":0,"TOWNNAME":"北區","LI":"成功里","LIN":"22鄰","STREET":"北安路","SECT":"一段","MAREA":" ","LANE":"十七六巷","ALLEY":" ","HOUSE_NO":"２０號二樓","E_COORD97":168955.19,"N_COORD97":2546513.52,"ADDRESS":"北安路一段十七六巷２０號二樓","OBJECTID":455021},"geometry":{"x":168955.19000000134,"y":2546513.5200000014}},{"attributes":{"ID":455047,"DIS_CODE":0,"TOWNNAME":"北區","LI":"成功里","LIN":"22鄰","STREET":"北安路","SECT":"一段","MAREA":" ","LANE":"十七六巷","ALLEY":" ","HOUSE_NO":"２０號八樓","E_COORD97":168955.19,"N_COORD97":2546513.52,"ADDRESS":"北安路一段十七六巷２０號八樓","OBJECTID":455022},"geometry":{"x":168955.19000000134,"y":2546513.5200000014}},{"attributes":{"ID":455048,"DIS_CODE":0,"TOWNNAME":"北區","LI":"成功里","LIN":"22鄰","STREET":"北安路","SECT":"一段","MAREA":" ","LANE":"十七六巷","ALLEY":" ","HOUSE_NO":"２０號十一樓","E_COORD97":168955.19,"N_COORD97":2546513.52,"ADDRESS":"北安路一段十七六巷２０號十一樓","OBJECTID":455023},"geometry":{"x":168955.19000000134,"y":2546513.5200000014}},{"attributes":{"ID":455049,"DIS_CODE":0,"TOWNNAME":"北區","LI":"成功里","LIN":"22鄰","STREET":"北安路","SECT":"一段","MAREA":" ","LANE":"十七六巷","ALLEY":" ","HOUSE_NO":"２０號十二樓","E_COORD97":168955.19,"N_COORD97":2546513.52,"ADDRESS":"北安路一段十七六巷２０號十二樓","OBJECTID":455024},"geometry":{"x":168955.19000000134,"y":2546513.5200000014}},{"attributes":{"ID":455050,"DIS_CODE":0,"TOWNNAME":"北區","LI":"成功里","LIN":"22鄰","STREET":"北安路","SECT":"一段","MAREA":" ","LANE":"十七六巷","ALLEY":" ","HOUSE_NO":"２０號十三樓","E_COORD97":168955.19,"N_COORD97":2546513.52,"ADDRESS":"北安路一段十七六巷２０號十三樓","OBJECTID":455025},"geometry":{"x":168955.19000000134,"y":2546513.5200000014}},{"attributes":{"ID":455051,"DIS_CODE":0,"TOWNNAME":"北區","LI":"成功里","LIN":"22鄰","STREET":"北安路","SECT":"一段","MAREA":" ","LANE":"十七六巷","ALLEY":" ","HOUSE_NO":"２０號十樓","E_COORD97":168955.19,"N_COORD97":2546513.52,"ADDRESS":"北安路一段十七六巷２０號十樓","OBJECTID":455026},"geometry":{"x":168955.19000000134,"y":2546513.5200000014}},{"attributes":{"ID":455052,"DIS_CODE":0,"TOWNNAME":"北區","LI":"成功里","LIN":"22鄰","STREET":"北安路","SECT":"一段","MAREA":" ","LANE":"十七六巷","ALLEY":" ","HOUSE_NO":"２０號三樓","E_COORD97":168955.19,"N_COORD97":2546513.52,"ADDRESS":"北安路一段十七六巷２０號三樓","OBJECTID":455027},"geometry":{"x":168955.19000000134,"y":2546513.5200000014}},{"attributes":{"ID":455053,"DIS_CODE":0,"TOWNNAME":"北區","LI":"成功里","LIN":"22鄰","STREET":"北安路","SECT":"一段","MAREA":" ","LANE":"十七六巷","ALLEY":" ","HOUSE_NO":"２０號五樓","E_COORD97":168955.19,"N_COORD97":2546513.52,"ADDRESS":"北安路一段十七六巷２０號五樓","OBJECTID":455028},"geometry":{"x":168955.19000000134,"y":2546513.5200000014}},{"attributes":{"ID":455054,"DIS_CODE":0,"TOWNNAME":"北區","LI":"成功里","LIN":"22鄰","STREET":"北安路","SECT":"一段","MAREA":" ","LANE":"十七六巷","ALLEY":" ","HOUSE_NO":"２０號六樓","E_COORD97":168955.19,"N_COORD97":2546513.52,"ADDRESS":"北安路一段十七六巷２０號六樓","OBJECTID":455029},"geometry":{"x":168955.19000000134,"y":2546513.5200000014}},{"attributes":{"ID":455055,"DIS_CODE":0,"TOWNNAME":"北區","LI":"成功里","LIN":"22鄰","STREET":"北安路","SECT":"一段","MAREA":" ","LANE":"十七六巷","ALLEY":" ","HOUSE_NO":"６號七樓","E_COORD97":168976.94,"N_COORD97":2546502.25,"ADDRESS":"北安路一段十七六巷６號七樓","OBJECTID":455030},"geometry":{"x":168976.94000000227,"y":2546502.2500000019}},{"attributes":{"ID":455056,"DIS_CODE":0,"TOWNNAME":"北區","LI":"成功里","LIN":"22鄰","STREET":"北安路","SECT":"一段","MAREA":" ","LANE":"十七六巷","ALLEY":" ","HOUSE_NO":"６號九樓","E_COORD97":168976.94,"N_COORD97":2546502.25,"ADDRESS":"北安路一段十七六巷６號九樓","OBJECTID":455031},"geometry":{"x":168976.94000000227,"y":2546502.2500000019}},{"attributes":{"ID":455057,"DIS_CODE":0,"TOWNNAME":"北區","LI":"成功里","LIN":"22鄰","STREET":"北安路","SECT":"一段","MAREA":" ","LANE":"十七六巷","ALLEY":" ","HOUSE_NO":"６號二樓","E_COORD97":168976.94,"N_COORD97":2546502.25,"ADDRESS":"北安路一段十七六巷６號二樓","OBJECTID":455032},"geometry":{"x":168976.94000000227,"y":2546502.2500000019}},{"attributes":{"ID":455058,"DIS_CODE":0,"TOWNNAME":"北區","LI":"成功里","LIN":"22鄰","STREET":"北安路","SECT":"一段","MAREA":" ","LANE":"十七六巷","ALLEY":" ","HOUSE_NO":"６號八樓","E_COORD97":168976.94,"N_COORD97":2546502.25,"ADDRESS":"北安路一段十七六巷６號八樓","OBJECTID":455033},"geometry":{"x":168976.94000000227,"y":2546502.2500000019}},{"attributes":{"ID":455059,"DIS_CODE":0,"TOWNNAME":"北區","LI":"成功里","LIN":"22鄰","STREET":"北安路","SECT":"一段","MAREA":" ","LANE":"十七六巷","ALLEY":" ","HOUSE_NO":"６號十一樓","E_COORD97":168976.94,"N_COORD97":2546502.25,"ADDRESS":"北安路一段十七六巷６號十一樓","OBJECTID":455034},"geometry":{"x":168976.94000000227,"y":2546502.2500000019}},{"attributes":{"ID":455060,"DIS_CODE":0,"TOWNNAME":"北區","LI":"成功里","LIN":"22鄰","STREET":"北安路","SECT":"一段","MAREA":" ","LANE":"十七六巷","ALLEY":" ","HOUSE_NO":"６號十二樓","E_COORD97":168976.94,"N_COORD97":2546502.25,"ADDRESS":"北安路一段十七六巷６號十二樓","OBJECTID":455035},"geometry":{"x":168976.94000000227,"y":2546502.2500000019}},{"attributes":{"ID":455061,"DIS_CODE":0,"TOWNNAME":"北區","LI":"成功里","LIN":"22鄰","STREET":"北安路","SECT":"一段","MAREA":" ","LANE":"十七六巷","ALLEY":" ","HOUSE_NO":"６號十三樓","E_COORD97":168976.94,"N_COORD97":2546502.25,"ADDRESS":"北安路一段十七六巷６號十三樓","OBJECTID":455036},"geometry":{"x":168976.94000000227,"y":2546502.2500000019}},{"attributes":{"ID":455062,"DIS_CODE":0,"TOWNNAME":"北區","LI":"成功里","LIN":"22鄰","STREET":"北安路","SECT":"一段","MAREA":" ","LANE":"十七六巷","ALLEY":" ","HOUSE_NO":"６號十樓","E_COORD97":168976.94,"N_COORD97":2546502.25,"ADDRESS":"北安路一段十七六巷６號十樓","OBJECTID":455037},"geometry":{"x":168976.94000000227,"y":2546502.2500000019}},{"attributes":{"ID":455063,"DIS_CODE":0,"TOWNNAME":"北區","LI":"成功里","LIN":"22鄰","STREET":"北安路","SECT":"一段","MAREA":" ","LANE":"十七六巷","ALLEY":" ","HOUSE_NO":"６號三樓","E_COORD97":168976.94,"N_COORD97":2546502.25,"ADDRESS":"北安路一段十七六巷６號三樓","OBJECTID":455038},"geometry":{"x":168976.94000000227,"y":2546502.2500000019}},{"attributes":{"ID":455064,"DIS_CODE":0,"TOWNNAME":"北區","LI":"六甲里","LIN":"3鄰","STREET":"公園路","SECT":" ","MAREA":" ","LANE":"４８７巷","ALLEY":" ","HOUSE_NO":"２２號之２","E_COORD97":168961.26999999999,"N_COORD97":2545519.6899999999,"ADDRESS":"公園路４８７巷２２號之２","OBJECTID":455039},"geometry":{"x":168961.26999999955,"y":2545519.6899999995}},{"attributes":{"ID":455065,"DIS_CODE":0,"TOWNNAME":"北區","LI":"文元里","LIN":"18鄰","STREET":"文賢路","SECT":" ","MAREA":" ","LANE":"１０３０巷","ALLEY":" ","HOUSE_NO":"１２號","E_COORD97":167420.84,"N_COORD97":2546054.3900000001,"ADDRESS":"文賢路１０３０巷１２號","OBJECTID":455040},"geometry":{"x":167420.84000000171,"y":2546054.3900000025}},{"attributes":{"ID":455066,"DIS_CODE":0,"TOWNNAME":"北區","LI":"文元里","LIN":"18鄰","STREET":"文賢路","SECT":" ","MAREA":" ","LANE":"１０３０巷","ALLEY":" ","HOUSE_NO":"１８號","E_COORD97":167433.29999999999,"N_COORD97":2546056.8399999999,"ADDRESS":"文賢路１０３０巷１８號","OBJECTID":455041},"geometry":{"x":167433.30000000075,"y":2546056.8400000017}},{"attributes":{"ID":455067,"DIS_CODE":0,"TOWNNAME":"北區","LI":"成功里","LIN":"22鄰","STREET":"北安路","SECT":"一段","MAREA":" ","LANE":"十七六巷","ALLEY":" ","HOUSE_NO":"６號五樓","E_COORD97":168976.94,"N_COORD97":2546502.25,"ADDRESS":"北安路一段十七六巷６號五樓","OBJECTID":455042},"geometry":{"x":168976.94000000227,"y":2546502.2500000019}},{"attributes":{"ID":455068,"DIS_CODE":0,"TOWNNAME":"北區","LI":"成功里","LIN":"22鄰","STREET":"北安路","SECT":"一段","MAREA":" ","LANE":"十七六巷","ALLEY":" ","HOUSE_NO":"６號六樓","E_COORD97":168976.94,"N_COORD97":2546502.25,"ADDRESS":"北安路一段十七六巷６號六樓","OBJECTID":455043},"geometry":{"x":168976.94000000227,"y":2546502.2500000019}},{"attributes":{"ID":455069,"DIS_CODE":0,"TOWNNAME":"北區","LI":"成功里","LIN":"22鄰","STREET":"北安路","SECT":"一段","MAREA":" ","LANE":"十七六巷","ALLEY":" ","HOUSE_NO":"６號四樓","E_COORD97":168976.94,"N_COORD97":2546502.25,"ADDRESS":"北安路一段十七六巷６號四樓","OBJECTID":455044},"geometry":{"x":168976.94000000227,"y":2546502.2500000019}},{"attributes":{"ID":455070,"DIS_CODE":0,"TOWNNAME":"北區","LI":"成功里","LIN":"22鄰","STREET":"北安路","SECT":"一段","MAREA":" ","LANE":"十七六巷","ALLEY":" ","HOUSE_NO":"８號七樓","E_COORD97":168972.66,"N_COORD97":2546503.9199999999,"ADDRESS":"北安路一段十七六巷８號七樓","OBJECTID":455045},"geometry":{"x":168972.66000000108,"y":2546503.9200000018}},{"attributes":{"ID":455071,"DIS_CODE":0,"TOWNNAME":"北區","LI":"成功里","LIN":"22鄰","STREET":"北安路","SECT":"一段","MAREA":" ","LANE":"十七六巷","ALLEY":" ","HOUSE_NO":"８號九樓","E_COORD97":168972.66,"N_COORD97":2546503.9199999999,"ADDRESS":"北安路一段十七六巷８號九樓","OBJECTID":455046},"geometry":{"x":168972.66000000108,"y":2546503.9200000018}},{"attributes":{"ID":455072,"DIS_CODE":0,"TOWNNAME":"北區","LI":"成功里","LIN":"22鄰","STREET":"北安路","SECT":"一段","MAREA":" ","LANE":"十七六巷","ALLEY":" ","HOUSE_NO":"８號二樓","E_COORD97":168972.66,"N_COORD97":2546503.9199999999,"ADDRESS":"北安路一段十七六巷８號二樓","OBJECTID":455047},"geometry":{"x":168972.66000000108,"y":2546503.9200000018}},{"attributes":{"ID":455073,"DIS_CODE":0,"TOWNNAME":"北區","LI":"成功里","LIN":"22鄰","STREET":"北安路","SECT":"一段","MAREA":" ","LANE":"十七六巷","ALLEY":" ","HOUSE_NO":"８號八樓","E_COORD97":168972.66,"N_COORD97":2546503.9199999999,"ADDRESS":"北安路一段十七六巷８號八樓","OBJECTID":455048},"geometry":{"x":168972.66000000108,"y":2546503.9200000018}},{"attributes":{"ID":455074,"DIS_CODE":0,"TOWNNAME":"北區","LI":"成功里","LIN":"22鄰","STREET":"北安路","SECT":"一段","MAREA":" ","LANE":"十七六巷","ALLEY":" ","HOUSE_NO":"８號十一樓","E_COORD97":168972.66,"N_COORD97":2546503.9199999999,"ADDRESS":"北安路一段十七六巷８號十一樓","OBJECTID":455049},"geometry":{"x":168972.66000000108,"y":2546503.9200000018}},{"attributes":{"ID":455075,"DIS_CODE":0,"TOWNNAME":"北區","LI":"成功里","LIN":"22鄰","STREET":"北安路","SECT":"一段","MAREA":" ","LANE":"十七六巷","ALLEY":" ","HOUSE_NO":"８號十二樓","E_COORD97":168972.66,"N_COORD97":2546503.9199999999,"ADDRESS":"北安路一段十七六巷８號十二樓","OBJECTID":455050},"geometry":{"x":168972.66000000108,"y":2546503.9200000018}},{"attributes":{"ID":455076,"DIS_CODE":0,"TOWNNAME":"北區","LI":"成功里","LIN":"22鄰","STREET":"北安路","SECT":"一段","MAREA":" ","LANE":"十七六巷","ALLEY":" ","HOUSE_NO":"８號十三樓","E_COORD97":168972.66,"N_COORD97":2546503.9199999999,"ADDRESS":"北安路一段十七六巷８號十三樓","OBJECTID":455051},"geometry":{"x":168972.66000000108,"y":2546503.9200000018}},{"attributes":{"ID":455077,"DIS_CODE":0,"TOWNNAME":"北區","LI":"成功里","LIN":"22鄰","STREET":"北安路","SECT":"一段","MAREA":" ","LANE":"十七六巷","ALLEY":" ","HOUSE_NO":"８號十樓","E_COORD97":168972.66,"N_COORD97":2546503.9199999999,"ADDRESS":"北安路一段十七六巷８號十樓","OBJECTID":455052},"geometry":{"x":168972.66000000108,"y":2546503.9200000018}},{"attributes":{"ID":455078,"DIS_CODE":0,"TOWNNAME":"北區","LI":"成功里","LIN":"22鄰","STREET":"北安路","SECT":"一段","MAREA":" ","LANE":"十七六巷","ALLEY":" ","HOUSE_NO":"８號三樓","E_COORD97":168972.66,"N_COORD97":2546503.9199999999,"ADDRESS":"北安路一段十七六巷８號三樓","OBJECTID":455053},"geometry":{"x":168972.66000000108,"y":2546503.9200000018}},{"attributes":{"ID":455079,"DIS_CODE":0,"TOWNNAME":"北區","LI":"成功里","LIN":"22鄰","STREET":"北安路","SECT":"一段","MAREA":" ","LANE":"十七六巷","ALLEY":" ","HOUSE_NO":"８號五樓","E_COORD97":168972.66,"N_COORD97":2546503.9199999999,"ADDRESS":"北安路一段十七六巷８號五樓","OBJECTID":455054},"geometry":{"x":168972.66000000108,"y":2546503.9200000018}},{"attributes":{"ID":455080,"DIS_CODE":0,"TOWNNAME":"北區","LI":"成功里","LIN":"22鄰","STREET":"北安路","SECT":"一段","MAREA":" ","LANE":"十七六巷","ALLEY":" ","HOUSE_NO":"８號六樓","E_COORD97":168972.66,"N_COORD97":2546503.9199999999,"ADDRESS":"北安路一段十七六巷８號六樓","OBJECTID":455055},"geometry":{"x":168972.66000000108,"y":2546503.9200000018}},{"attributes":{"ID":455081,"DIS_CODE":0,"TOWNNAME":"北區","LI":"成功里","LIN":"22鄰","STREET":"北安路","SECT":"一段","MAREA":" ","LANE":"十七六巷","ALLEY":" ","HOUSE_NO":"８號四樓","E_COORD97":168972.66,"N_COORD97":2546503.9199999999,"ADDRESS":"北安路一段十七六巷８號四樓","OBJECTID":455056},"geometry":{"x":168972.66000000108,"y":2546503.9200000018}},{"attributes":{"ID":455082,"DIS_CODE":0,"TOWNNAME":"北區","LI":"文元里","LIN":"18鄰","STREET":"文賢路","SECT":" ","MAREA":" ","LANE":"１０３０巷","ALLEY":" ","HOUSE_NO":"２號","E_COORD97":167394.28,"N_COORD97":2546055.4100000001,"ADDRESS":"文賢路１０３０巷２號","OBJECTID":455057},"geometry":{"x":167394.28000000026,"y":2546055.4100000001}},{"attributes":{"ID":455083,"DIS_CODE":0,"TOWNNAME":"北區","LI":"文元里","LIN":"18鄰","STREET":"文賢路","SECT":" ","MAREA":" ","LANE":"１０３０巷","ALLEY":" ","HOUSE_NO":"８號","E_COORD97":167409.81,"N_COORD97":2546054.1899999999,"ADDRESS":"文賢路１０３０巷８號","OBJECTID":455058},"geometry":{"x":167409.80999999959,"y":2546054.1900000013}},{"attributes":{"ID":455084,"DIS_CODE":0,"TOWNNAME":"東區","LI":"和平里","LIN":"1鄰","STREET":"仁和路","SECT":" ","MAREA":" ","LANE":" ","ALLEY":" ","HOUSE_NO":"３５號十三樓","E_COORD97":171099.45000000001,"N_COORD97":2542097.2200000002,"ADDRESS":"仁和路３５號十三樓","OBJECTID":455059},"geometry":{"x":171099.45000000112,"y":2542097.2200000007}},{"attributes":{"ID":455085,"DIS_CODE":0,"TOWNNAME":"北區","LI":"和順里","LIN":"39鄰","STREET":"公園南路","SECT":" ","MAREA":" ","LANE":"３７０巷","ALLEY":" ","HOUSE_NO":"８６號四樓","E_COORD97":168259.20000000001,"N_COORD97":2544933.71,"ADDRESS":"公園南路３７０巷８６號四樓","OBJECTID":455060},"geometry":{"x":168259.20000000019,"y":2544933.7100000028}},{"attributes":{"ID":455086,"DIS_CODE":0,"TOWNNAME":"北區","LI":"和順里","LIN":"39鄰","STREET":"公園南路","SECT":" ","MAREA":" ","LANE":"３７０巷","ALLEY":" ","HOUSE_NO":"８８號二樓","E_COORD97":168255.20000000001,"N_COORD97":2544930.5600000001,"ADDRESS":"公園南路３７０巷８８號二樓","OBJECTID":455061},"geometry":{"x":168255.20000000112,"y":2544930.5600000024}},{"attributes":{"ID":455087,"DIS_CODE":0,"TOWNNAME":"北區","LI":"和順里","LIN":"39鄰","STREET":"公園南路","SECT":" ","MAREA":" ","LANE":"３７０巷","ALLEY":" ","HOUSE_NO":"８８號八樓","E_COORD97":168255.20000000001,"N_COORD97":2544930.5600000001,"ADDRESS":"公園南路３７０巷８８號八樓","OBJECTID":455062},"geometry":{"x":168255.20000000112,"y":2544930.5600000024}},{"attributes":{"ID":455088,"DIS_CODE":0,"TOWNNAME":"北區","LI":"和順里","LIN":"39鄰","STREET":"公園南路","SECT":" ","MAREA":" ","LANE":"３７０巷","ALLEY":" ","HOUSE_NO":"８８號十二樓","E_COORD97":168255.20000000001,"N_COORD97":2544930.5600000001,"ADDRESS":"公園南路３７０巷８８號十二樓","OBJECTID":455063},"geometry":{"x":168255.20000000112,"y":2544930.5600000024}},{"attributes":{"ID":455089,"DIS_CODE":0,"TOWNNAME":"北區","LI":"和順里","LIN":"39鄰","STREET":"公園南路","SECT":" ","MAREA":" ","LANE":"３７０巷","ALLEY":" ","HOUSE_NO":"８８號十六樓","E_COORD97":168255.20000000001,"N_COORD97":2544930.5600000001,"ADDRESS":"公園南路３７０巷８８號十六樓","OBJECTID":455064},"geometry":{"x":168255.20000000112,"y":2544930.5600000024}},{"attributes":{"ID":455090,"DIS_CODE":0,"TOWNNAME":"北區","LI":"和順里","LIN":"39鄰","STREET":"公園南路","SECT":" ","MAREA":" ","LANE":"３７０巷","ALLEY":" ","HOUSE_NO":"８８號十四樓","E_COORD97":168255.20000000001,"N_COORD97":2544930.5600000001,"ADDRESS":"公園南路３７０巷８８號十四樓","OBJECTID":455065},"geometry":{"x":168255.20000000112,"y":2544930.5600000024}},{"attributes":{"ID":455091,"DIS_CODE":0,"TOWNNAME":"北區","LI":"和順里","LIN":"39鄰","STREET":"公園南路","SECT":" ","MAREA":" ","LANE":"３７０巷","ALLEY":" ","HOUSE_NO":"８８號十樓","E_COORD97":168255.20000000001,"N_COORD97":2544930.5600000001,"ADDRESS":"公園南路３７０巷８８號十樓","OBJECTID":455066},"geometry":{"x":168255.20000000112,"y":2544930.5600000024}},{"attributes":{"ID":455092,"DIS_CODE":0,"TOWNNAME":"北區","LI":"和順里","LIN":"39鄰","STREET":"公園南路","SECT":" ","MAREA":" ","LANE":"３７０巷","ALLEY":" ","HOUSE_NO":"８８號六樓","E_COORD97":168255.20000000001,"N_COORD97":2544930.5600000001,"ADDRESS":"公園南路３７０巷８８號六樓","OBJECTID":455067},"geometry":{"x":168255.20000000112,"y":2544930.5600000024}},{"attributes":{"ID":455093,"DIS_CODE":0,"TOWNNAME":"北區","LI":"和順里","LIN":"39鄰","STREET":"公園南路","SECT":" ","MAREA":" ","LANE":"３７０巷","ALLEY":" ","HOUSE_NO":"８８號四樓","E_COORD97":168255.20000000001,"N_COORD97":2544930.5600000001,"ADDRESS":"公園南路３７０巷８８號四樓","OBJECTID":455068},"geometry":{"x":168255.20000000112,"y":2544930.5600000024}},{"attributes":{"ID":455094,"DIS_CODE":0,"TOWNNAME":"歸仁區","LI":"辜厝里","LIN":"39鄰","STREET":"中正南路","SECT":"一段","MAREA":" ","LANE":"２１８巷","ALLEY":" ","HOUSE_NO":"２５號一樓之１０","E_COORD97":177262.20000000001,"N_COORD97":2540344.2599999998,"ADDRESS":"中正南路一段２１８巷２５號一樓之１０","OBJECTID":455069},"geometry":{"x":177262.20000000019,"y":2540344.2600000016}},{"attributes":{"ID":455095,"DIS_CODE":0,"TOWNNAME":"歸仁區","LI":"辜厝里","LIN":"39鄰","STREET":"中正南路","SECT":"一段","MAREA":" ","LANE":"２１８巷","ALLEY":" ","HOUSE_NO":"２５號二樓之１０","E_COORD97":177262.20000000001,"N_COORD97":2540344.2599999998,"ADDRESS":"中正南路一段２１８巷２５號二樓之１０","OBJECTID":455070},"geometry":{"x":177262.20000000019,"y":2540344.2600000016}},{"attributes":{"ID":455096,"DIS_CODE":0,"TOWNNAME":"歸仁區","LI":"辜厝里","LIN":"39鄰","STREET":"中正南路","SECT":"一段","MAREA":" ","LANE":"２１８巷","ALLEY":" ","HOUSE_NO":"２５號五樓之１３","E_COORD97":177262.20999999999,"N_COORD97":2540344.2599999998,"ADDRESS":"中正南路一段２１８巷２５號五樓之１３","OBJECTID":455071},"geometry":{"x":177262.20999999996,"y":2540344.2600000016}},{"attributes":{"ID":455097,"DIS_CODE":0,"TOWNNAME":"歸仁區","LI":"辜厝里","LIN":"39鄰","STREET":"中正南路","SECT":"一段","MAREA":" ","LANE":"２１８巷","ALLEY":" ","HOUSE_NO":"２５號二樓之１１","E_COORD97":177262.19,"N_COORD97":2540344.2599999998,"ADDRESS":"中正南路一段２１８巷２５號二樓之１１","OBJECTID":455072},"geometry":{"x":177262.19000000134,"y":2540344.2600000016}},{"attributes":{"ID":455098,"DIS_CODE":0,"TOWNNAME":"歸仁區","LI":"辜厝里","LIN":"39鄰","STREET":"中正南路","SECT":"一段","MAREA":" ","LANE":"２１８巷","ALLEY":" ","HOUSE_NO":"２５號六樓之１０","E_COORD97":177262.20000000001,"N_COORD97":2540344.2599999998,"ADDRESS":"中正南路一段２１８巷２５號六樓之１０","OBJECTID":455073},"geometry":{"x":177262.20000000019,"y":2540344.2600000016}},{"attributes":{"ID":455099,"DIS_CODE":0,"TOWNNAME":"歸仁區","LI":"辜厝里","LIN":"39鄰","STREET":"中正南路","SECT":"一段","MAREA":" ","LANE":"２１８巷","ALLEY":" ","HOUSE_NO":"２５號一樓之１３","E_COORD97":177262.20999999999,"N_COORD97":2540344.2599999998,"ADDRESS":"中正南路一段２１８巷２５號一樓之１３","OBJECTID":455074},"geometry":{"x":177262.20999999996,"y":2540344.2600000016}},{"attributes":{"ID":455100,"DIS_CODE":0,"TOWNNAME":"佳里區","LI":"安西里","LIN":"39鄰","STREET":"佳西路","SECT":" ","MAREA":" ","LANE":"２９９巷","ALLEY":" ","HOUSE_NO":"１１號","E_COORD97":164745.92999999999,"N_COORD97":2562659.8399999999,"ADDRESS":"佳西路２９９巷１１號","OBJECTID":455075},"geometry":{"x":164745.93000000063,"y":2562659.8400000017}},{"attributes":{"ID":455101,"DIS_CODE":0,"TOWNNAME":"佳里區","LI":"安西里","LIN":"39鄰","STREET":"佳西路","SECT":" ","MAREA":" ","LANE":"２９９巷","ALLEY":" ","HOUSE_NO":"１３號","E_COORD97":164744.81,"N_COORD97":2562668.3399999999,"ADDRESS":"佳西路２９９巷１３號","OBJECTID":455076},"geometry":{"x":164744.81000000052,"y":2562668.3399999999}},{"attributes":{"ID":455102,"DIS_CODE":0,"TOWNNAME":"佳里區","LI":"安西里","LIN":"39鄰","STREET":"佳西路","SECT":" ","MAREA":" ","LANE":"２９９巷","ALLEY":" ","HOUSE_NO":"１５號","E_COORD97":164743.28,"N_COORD97":2562676.8999999999,"ADDRESS":"佳西路２９９巷１５號","OBJECTID":455077},"geometry":{"x":164743.28000000212,"y":2562676.9000000022}},{"attributes":{"ID":455103,"DIS_CODE":0,"TOWNNAME":"佳里區","LI":"安西里","LIN":"39鄰","STREET":"佳西路","SECT":" ","MAREA":" ","LANE":"２９９巷","ALLEY":" ","HOUSE_NO":"１９號","E_COORD97":164738.53,"N_COORD97":2562690.8100000001,"ADDRESS":"佳西路２９９巷１９號","OBJECTID":455078},"geometry":{"x":164738.53000000119,"y":2562690.8100000024}},{"attributes":{"ID":455104,"DIS_CODE":0,"TOWNNAME":"佳里區","LI":"安西里","LIN":"39鄰","STREET":"佳西路","SECT":" ","MAREA":" ","LANE":"２９９巷","ALLEY":" ","HOUSE_NO":"２１號","E_COORD97":164737.69,"N_COORD97":2562712.8199999998,"ADDRESS":"佳西路２９９巷２１號","OBJECTID":455079},"geometry":{"x":164737.69000000134,"y":2562712.8200000003}},{"attributes":{"ID":455105,"DIS_CODE":0,"TOWNNAME":"佳里區","LI":"安西里","LIN":"39鄰","STREET":"佳西路","SECT":" ","MAREA":" ","LANE":"２９９巷","ALLEY":" ","HOUSE_NO":"２３號","E_COORD97":164731.60999999999,"N_COORD97":2562712.4700000002,"ADDRESS":"佳西路２９９巷２３號","OBJECTID":455080},"geometry":{"x":164731.61000000127,"y":2562712.4700000007}},{"attributes":{"ID":455106,"DIS_CODE":0,"TOWNNAME":"佳里區","LI":"安西里","LIN":"39鄰","STREET":"佳西路","SECT":" ","MAREA":" ","LANE":"２９９巷","ALLEY":" ","HOUSE_NO":"９號","E_COORD97":164747.13,"N_COORD97":2562652.0800000001,"ADDRESS":"佳西路２９９巷９號","OBJECTID":455081},"geometry":{"x":164747.12999999989,"y":2562652.0800000019}},{"attributes":{"ID":455107,"DIS_CODE":0,"TOWNNAME":"佳里區","LI":"安西里","LIN":"39鄰","STREET":"佳西路","SECT":" ","MAREA":" ","LANE":"３１０巷","ALLEY":" ","HOUSE_NO":"１０號","E_COORD97":164827.92999999999,"N_COORD97":2562763.6299999999,"ADDRESS":"佳西路３１０巷１０號","OBJECTID":455082},"geometry":{"x":164827.9299999997,"y":2562763.629999999}},{"attributes":{"ID":455108,"DIS_CODE":0,"TOWNNAME":"佳里區","LI":"安西里","LIN":"39鄰","STREET":"佳西路","SECT":" ","MAREA":" ","LANE":"３１０巷","ALLEY":" ","HOUSE_NO":"３６號","E_COORD97":164875.48999999999,"N_COORD97":2562736.9300000002,"ADDRESS":"佳西路３１０巷３６號","OBJECTID":455083},"geometry":{"x":164875.49000000022,"y":2562736.9300000016}},{"attributes":{"ID":455109,"DIS_CODE":0,"TOWNNAME":"佳里區","LI":"安西里","LIN":"39鄰","STREET":"佳西路","SECT":" ","MAREA":" ","LANE":"３１０巷","ALLEY":" ","HOUSE_NO":"３８號","E_COORD97":164880.95999999999,"N_COORD97":2562735.0499999998,"ADDRESS":"佳西路３１０巷３８號","OBJECTID":455084},"geometry":{"x":164880.96000000089,"y":2562735.0500000007}},{"attributes":{"ID":455110,"DIS_CODE":0,"TOWNNAME":"永康區","LI":"北灣里","LIN":"39鄰","STREET":"大同街","SECT":" ","MAREA":" ","LANE":"４１３巷","ALLEY":" ","HOUSE_NO":"１０號","E_COORD97":174630.70000000001,"N_COORD97":2546285.3399999999,"ADDRESS":"大同街４１３巷１０號","OBJECTID":455085},"geometry":{"x":174630.70000000112,"y":2546285.3399999999}},{"attributes":{"ID":455111,"DIS_CODE":0,"TOWNNAME":"永康區","LI":"龍潭里","LIN":"39鄰","STREET":"永明街","SECT":" ","MAREA":" ","LANE":"２１５巷","ALLEY":" ","HOUSE_NO":"２２號","E_COORD97":174544.23999999999,"N_COORD97":2547256.3100000001,"ADDRESS":"永明街２１５巷２２號","OBJECTID":455086},"geometry":{"x":174544.24000000115,"y":2547256.3100000005}},{"attributes":{"ID":455112,"DIS_CODE":0,"TOWNNAME":"永康區","LI":"埔園里","LIN":"39鄰","STREET":"聖龍街","SECT":" ","MAREA":" ","LANE":"１６５巷","ALLEY":" ","HOUSE_NO":"２２號","E_COORD97":174288.62,"N_COORD97":2547911.6200000001,"ADDRESS":"聖龍街１６５巷２２號","OBJECTID":455087},"geometry":{"x":174288.62000000104,"y":2547911.620000001}},{"attributes":{"ID":455113,"DIS_CODE":0,"TOWNNAME":"永康區","LI":"埔園里","LIN":"39鄰","STREET":"聖龍街","SECT":" ","MAREA":" ","LANE":"１６５巷","ALLEY":" ","HOUSE_NO":"３３號","E_COORD97":174282.85000000001,"N_COORD97":2547954.6800000002,"ADDRESS":"聖龍街１６５巷３３號","OBJECTID":455088},"geometry":{"x":174282.85000000056,"y":2547954.6799999997}},{"attributes":{"ID":455114,"DIS_CODE":0,"TOWNNAME":"永康區","LI":"龍潭里","LIN":"39鄰","STREET":"永明街","SECT":" ","MAREA":" ","LANE":"２７３巷","ALLEY":" ","HOUSE_NO":"２８號","E_COORD97":174670.59,"N_COORD97":2547286.3399999999,"ADDRESS":"永明街２７３巷２８號","OBJECTID":455089},"geometry":{"x":174670.58999999985,"y":2547286.3399999999}},{"attributes":{"ID":455115,"DIS_CODE":0,"TOWNNAME":"歸仁區","LI":"六甲里","LIN":"39鄰","STREET":"六甲八街","SECT":" ","MAREA":" ","LANE":"１４９巷","ALLEY":" ","HOUSE_NO":"１１６號","E_COORD97":175223.5,"N_COORD97":2539870.73,"ADDRESS":"六甲八街１４９巷１１６號","OBJECTID":455090},"geometry":{"x":175223.50000000093,"y":2539870.7300000023}},{"attributes":{"ID":455116,"DIS_CODE":0,"TOWNNAME":"歸仁區","LI":"六甲里","LIN":"39鄰","STREET":"六甲八街","SECT":" ","MAREA":" ","LANE":"１４９巷","ALLEY":" ","HOUSE_NO":"１０８號","E_COORD97":175217.29999999999,"N_COORD97":2539855.73,"ADDRESS":"六甲八街１４９巷１０８號","OBJECTID":455091},"geometry":{"x":175217.30000000168,"y":2539855.7300000004}},{"attributes":{"ID":455117,"DIS_CODE":0,"TOWNNAME":"歸仁區","LI":"六甲里","LIN":"39鄰","STREET":"六甲八街","SECT":" ","MAREA":" ","LANE":"１４９巷","ALLEY":" ","HOUSE_NO":"１３４號","E_COORD97":175260.39999999999,"N_COORD97":2539871.73,"ADDRESS":"六甲八街１４９巷１３４號","OBJECTID":455092},"geometry":{"x":175260.4000000013,"y":2539871.7300000004}},{"attributes":{"ID":455118,"DIS_CODE":0,"TOWNNAME":"歸仁區","LI":"六甲里","LIN":"39鄰","STREET":"六甲八街","SECT":" ","MAREA":" ","LANE":"１４９巷","ALLEY":" ","HOUSE_NO":"１１２號","E_COORD97":175226.5,"N_COORD97":2539857.73,"ADDRESS":"六甲八街１４９巷１１２號","OBJECTID":455093},"geometry":{"x":175226.50000000093,"y":2539857.7300000023}},{"attributes":{"ID":455119,"DIS_CODE":0,"TOWNNAME":"歸仁區","LI":"六甲里","LIN":"39鄰","STREET":"六甲八街","SECT":" ","MAREA":" ","LANE":"１４９巷","ALLEY":" ","HOUSE_NO":"１２０號","E_COORD97":175232.70000000001,"N_COORD97":2539870.73,"ADDRESS":"六甲八街１４９巷１２０號","OBJECTID":455094},"geometry":{"x":175232.70000000112,"y":2539870.7300000023}},{"attributes":{"ID":455120,"DIS_CODE":0,"TOWNNAME":"歸仁區","LI":"六甲里","LIN":"39鄰","STREET":"六甲八街","SECT":" ","MAREA":" ","LANE":"１４９巷","ALLEY":" ","HOUSE_NO":"１６６號","E_COORD97":175264.60000000001,"N_COORD97":2539886.73,"ADDRESS":"六甲八街１４９巷１６６號","OBJECTID":455095},"geometry":{"x":175264.60000000056,"y":2539886.7299999986}},{"attributes":{"ID":455121,"DIS_CODE":0,"TOWNNAME":"歸仁區","LI":"六甲里","LIN":"39鄰","STREET":"六甲八街","SECT":" ","MAREA":" ","LANE":"１４９巷","ALLEY":" ","HOUSE_NO":"１５６號","E_COORD97":175244.10000000001,"N_COORD97":2539886.73,"ADDRESS":"六甲八街１４９巷１５６號","OBJECTID":455096},"geometry":{"x":175244.10000000056,"y":2539886.7299999986}},{"attributes":{"ID":455122,"DIS_CODE":0,"TOWNNAME":"歸仁區","LI":"六甲里","LIN":"39鄰","STREET":"六甲八街","SECT":" ","MAREA":" ","LANE":"１４９巷","ALLEY":" ","HOUSE_NO":"１７０號","E_COORD97":175271.70000000001,"N_COORD97":2539884.73,"ADDRESS":"六甲八街１４９巷１７０號","OBJECTID":455097},"geometry":{"x":175271.70000000112,"y":2539884.7300000023}},{"attributes":{"ID":455123,"DIS_CODE":0,"TOWNNAME":"歸仁區","LI":"後市里","LIN":"39鄰","STREET":"文化街","SECT":"二段","MAREA":" ","LANE":"６３巷","ALLEY":" ","HOUSE_NO":"１２號","E_COORD97":177309.94,"N_COORD97":2541105.7599999998,"ADDRESS":"文化街二段６３巷１２號","OBJECTID":455098},"geometry":{"x":177309.94000000041,"y":2541105.7599999998}},{"attributes":{"ID":455124,"DIS_CODE":0,"TOWNNAME":"玉井區","LI":"玉田里","LIN":"39鄰","STREET":"和平街","SECT":" ","MAREA":" ","LANE":"２２巷","ALLEY":" ","HOUSE_NO":"１６號","E_COORD97":194980.54000000001,"N_COORD97":2557592.25,"ADDRESS":"和平街２２巷１６號","OBJECTID":455099},"geometry":{"x":194980.54000000097,"y":2557592.2500000019}},{"attributes":{"ID":455125,"DIS_CODE":0,"TOWNNAME":"北區","LI":"成德里","LIN":"39鄰","STREET":"育德二路","SECT":" ","MAREA":" ","LANE":"４８６巷","ALLEY":" ","HOUSE_NO":"５號","E_COORD97":168216.54999999999,"N_COORD97":2546545.2999999998,"ADDRESS":"育德二路４８６巷５號","OBJECTID":455100},"geometry":{"x":168216.55000000075,"y":2546545.2999999989}},{"attributes":{"ID":455126,"DIS_CODE":0,"TOWNNAME":"北區","LI":"成德里","LIN":"39鄰","STREET":"育德二路","SECT":" ","MAREA":" ","LANE":"４８６巷","ALLEY":" ","HOUSE_NO":"１５號","E_COORD97":168245.76000000001,"N_COORD97":2546553.5600000001,"ADDRESS":"育德二路４８６巷１５號","OBJECTID":455101},"geometry":{"x":168245.76000000071,"y":2546553.5600000042}},{"attributes":{"ID":455127,"DIS_CODE":0,"TOWNNAME":"北區","LI":"和順里","LIN":"39鄰","STREET":"臨安路","SECT":"二段","MAREA":" ","LANE":"２７２巷","ALLEY":" ","HOUSE_NO":"１１號","E_COORD97":168206.09,"N_COORD97":2544968.4500000002,"ADDRESS":"臨安路二段２７２巷１１號","OBJECTID":455102},"geometry":{"x":168206.09000000078,"y":2544968.4499999993}},{"attributes":{"ID":455128,"DIS_CODE":0,"TOWNNAME":"北區","LI":"和順里","LIN":"39鄰","STREET":"臨安路","SECT":"二段","MAREA":" ","LANE":"２７２巷","ALLEY":" ","HOUSE_NO":"３號","E_COORD97":168196.72,"N_COORD97":2544987.8199999998,"ADDRESS":"臨安路二段２７２巷３號","OBJECTID":455103},"geometry":{"x":168196.72000000067,"y":2544987.8200000003}},{"attributes":{"ID":455129,"DIS_CODE":0,"TOWNNAME":"北區","LI":"和順里","LIN":"39鄰","STREET":"臨安路","SECT":"二段","MAREA":" ","LANE":"２７２巷","ALLEY":" ","HOUSE_NO":"５號","E_COORD97":168200.04999999999,"N_COORD97":2544982.1000000001,"ADDRESS":"臨安路二段２７２巷５號","OBJECTID":455104},"geometry":{"x":168200.05000000075,"y":2544982.0999999996}},{"attributes":{"ID":455130,"DIS_CODE":0,"TOWNNAME":"北區","LI":"和順里","LIN":"39鄰","STREET":"臨安路","SECT":"二段","MAREA":" ","LANE":"２７２巷","ALLEY":" ","HOUSE_NO":"７號","E_COORD97":168202.44,"N_COORD97":2544977.8199999998,"ADDRESS":"臨安路二段２７２巷７號","OBJECTID":455105},"geometry":{"x":168202.44000000134,"y":2544977.8200000003}},{"attributes":{"ID":455131,"DIS_CODE":0,"TOWNNAME":"北區","LI":"和順里","LIN":"39鄰","STREET":"臨安路","SECT":"二段","MAREA":" ","LANE":"２７２巷","ALLEY":" ","HOUSE_NO":"９號","E_COORD97":168204.98000000001,"N_COORD97":2544973.5299999998,"ADDRESS":"臨安路二段２７２巷９號","OBJECTID":455106},"geometry":{"x":168204.98000000045,"y":2544973.5300000012}},{"attributes":{"ID":455132,"DIS_CODE":0,"TOWNNAME":"北區","LI":"和順里","LIN":"39鄰","STREET":"臨安路","SECT":"二段","MAREA":" ","LANE":"２９２巷","ALLEY":" ","HOUSE_NO":"２號","E_COORD97":168220.06,"N_COORD97":2545004.3300000001,"ADDRESS":"臨安路二段２９２巷２號","OBJECTID":455107},"geometry":{"x":168220.06000000052,"y":2545004.3300000001}},{"attributes":{"ID":455133,"DIS_CODE":0,"TOWNNAME":"北區","LI":"和順里","LIN":"39鄰","STREET":"臨安路","SECT":"二段","MAREA":" ","LANE":"２９２巷","ALLEY":" ","HOUSE_NO":"６號","E_COORD97":168221.32999999999,"N_COORD97":2544999.4100000001,"ADDRESS":"臨安路二段２９２巷６號","OBJECTID":455108},"geometry":{"x":168221.33000000194,"y":2544999.410000002}},{"attributes":{"ID":455134,"DIS_CODE":0,"TOWNNAME":"北區","LI":"和順里","LIN":"39鄰","STREET":"臨安路","SECT":"二段","MAREA":" ","LANE":"２９２巷","ALLEY":" ","HOUSE_NO":"８號","E_COORD97":168222.60000000001,"N_COORD97":2544993.6899999999,"ADDRESS":"臨安路二段２９２巷８號","OBJECTID":455109},"geometry":{"x":168222.60000000056,"y":2544993.6900000013}},{"attributes":{"ID":455135,"DIS_CODE":0,"TOWNNAME":"北區","LI":"和順里","LIN":"39鄰","STREET":"臨安路","SECT":"二段","MAREA":" ","LANE":"２９２巷","ALLEY":" ","HOUSE_NO":"１０號","E_COORD97":168224.17999999999,"N_COORD97":2544988.6099999999,"ADDRESS":"臨安路二段２９２巷１０號","OBJECTID":455110},"geometry":{"x":168224.18000000063,"y":2544988.6099999994}},{"attributes":{"ID":455136,"DIS_CODE":0,"TOWNNAME":"北區","LI":"和順里","LIN":"39鄰","STREET":"臨安路","SECT":"二段","MAREA":" ","LANE":"２９２巷","ALLEY":" ","HOUSE_NO":"１２號","E_COORD97":168225.60999999999,"N_COORD97":2544983.5299999998,"ADDRESS":"臨安路二段２９２巷１２號","OBJECTID":455111},"geometry":{"x":168225.61000000127,"y":2544983.5300000012}},{"attributes":{"ID":455137,"DIS_CODE":0,"TOWNNAME":"北區","LI":"和順里","LIN":"39鄰","STREET":"臨安路","SECT":"二段","MAREA":" ","LANE":"２９２巷","ALLEY":" ","HOUSE_NO":"１６號","E_COORD97":168227.67999999999,"N_COORD97":2544978.1299999999,"ADDRESS":"臨安路二段２９２巷１６號","OBJECTID":455112},"geometry":{"x":168227.68000000063,"y":2544978.1299999971}},{"attributes":{"ID":455138,"DIS_CODE":0,"TOWNNAME":"南區","LI":"大忠里","LIN":"39鄰","STREET":"國民路","SECT":" ","MAREA":" ","LANE":"２７０巷","ALLEY":" ","HOUSE_NO":"５５號","E_COORD97":168871.47,"N_COORD97":2541356.3799999999,"ADDRESS":"國民路２７０巷５５號","OBJECTID":455113},"geometry":{"x":168871.47000000067,"y":2541356.3800000008}},{"attributes":{"ID":455139,"DIS_CODE":0,"TOWNNAME":"南區","LI":"大忠里","LIN":"39鄰","STREET":"國民路","SECT":" ","MAREA":" ","LANE":"２７０巷","ALLEY":" ","HOUSE_NO":"５７號","E_COORD97":168875.26999999999,"N_COORD97":2541359.5800000001,"ADDRESS":"國民路２７０巷５７號","OBJECTID":455114},"geometry":{"x":168875.26999999955,"y":2541359.5800000019}},{"attributes":{"ID":455140,"DIS_CODE":0,"TOWNNAME":"南區","LI":"大忠里","LIN":"39鄰","STREET":"國民路","SECT":" ","MAREA":" ","LANE":"２７０巷","ALLEY":" ","HOUSE_NO":"５９號","E_COORD97":168879.07000000001,"N_COORD97":2541362.79,"ADDRESS":"國民路２７０巷５９號","OBJECTID":455115},"geometry":{"x":168879.0700000003,"y":2541362.7899999991}},{"attributes":{"ID":455141,"DIS_CODE":0,"TOWNNAME":"南區","LI":"大忠里","LIN":"39鄰","STREET":"國民路","SECT":" ","MAREA":" ","LANE":"２７０巷","ALLEY":" ","HOUSE_NO":"６１號","E_COORD97":168882.57999999999,"N_COORD97":2541365.7000000002,"ADDRESS":"國民路２７０巷６１號","OBJECTID":455116},"geometry":{"x":168882.58000000101,"y":2541365.7000000011}},{"attributes":{"ID":455142,"DIS_CODE":0,"TOWNNAME":"南區","LI":"大忠里","LIN":"39鄰","STREET":"國民路","SECT":" ","MAREA":" ","LANE":"２７０巷","ALLEY":" ","HOUSE_NO":"６３號","E_COORD97":168886.07999999999,"N_COORD97":2541369.2000000002,"ADDRESS":"國民路２７０巷６３號","OBJECTID":455117},"geometry":{"x":168886.08000000101,"y":2541369.1999999993}},{"attributes":{"ID":455143,"DIS_CODE":0,"TOWNNAME":"南區","LI":"大忠里","LIN":"39鄰","STREET":"國民路","SECT":" ","MAREA":" ","LANE":"２７０巷","ALLEY":" ","HOUSE_NO":"６５號","E_COORD97":168889.59,"N_COORD97":2541372.1099999999,"ADDRESS":"國民路２７０巷６５號","OBJECTID":455118},"geometry":{"x":168889.59000000078,"y":2541372.1100000013}},{"attributes":{"ID":455144,"DIS_CODE":0,"TOWNNAME":"南區","LI":"大忠里","LIN":"39鄰","STREET":"國民路","SECT":" ","MAREA":" ","LANE":"２７０巷","ALLEY":" ","HOUSE_NO":"６７號","E_COORD97":168893.39000000001,"N_COORD97":2541375.6099999999,"ADDRESS":"國民路２７０巷６７號","OBJECTID":455119},"geometry":{"x":168893.38999999873,"y":2541375.6100000013}},{"attributes":{"ID":455145,"DIS_CODE":0,"TOWNNAME":"南區","LI":"大忠里","LIN":"39鄰","STREET":"國民路","SECT":" ","MAREA":" ","LANE":"２７０巷","ALLEY":" ","HOUSE_NO":"６９號","E_COORD97":168896.60999999999,"N_COORD97":2541379.1099999999,"ADDRESS":"國民路２７０巷６９號","OBJECTID":455120},"geometry":{"x":168896.61000000127,"y":2541379.1100000013}},{"attributes":{"ID":455146,"DIS_CODE":0,"TOWNNAME":"南區","LI":"大忠里","LIN":"39鄰","STREET":"國民路","SECT":" ","MAREA":" ","LANE":"２７０巷","ALLEY":" ","HOUSE_NO":"７１號","E_COORD97":168900.41,"N_COORD97":2541382.3100000001,"ADDRESS":"國民路２７０巷７１號","OBJECTID":455121},"geometry":{"x":168900.41000000015,"y":2541382.3100000024}},{"attributes":{"ID":455147,"DIS_CODE":0,"TOWNNAME":"永康區","LI":"埔園里","LIN":"39鄰","STREET":"聖龍街","SECT":" ","MAREA":" ","LANE":"１７９巷","ALLEY":" ","HOUSE_NO":"４７號","E_COORD97":174334.35999999999,"N_COORD97":2547937.8700000001,"ADDRESS":"聖龍街１７９巷４７號","OBJECTID":455122},"geometry":{"x":174334.3600000022,"y":2547937.870000001}},{"attributes":{"ID":455148,"DIS_CODE":0,"TOWNNAME":"永康區","LI":"埔園里","LIN":"39鄰","STREET":"聖龍街","SECT":" ","MAREA":" ","LANE":"１７９巷","ALLEY":" ","HOUSE_NO":"２６號","E_COORD97":174327.44,"N_COORD97":2547886,"ADDRESS":"聖龍街１７９巷２６號","OBJECTID":455123},"geometry":{"x":174327.44000000134,"y":2547886.0000000037}},{"attributes":{"ID":455149,"DIS_CODE":0,"TOWNNAME":"永康區","LI":"埔園里","LIN":"39鄰","STREET":"聖龍街","SECT":" ","MAREA":" ","LANE":"１７９巷","ALLEY":" ","HOUSE_NO":"４５號","E_COORD97":174330.20999999999,"N_COORD97":2547938.1200000001,"ADDRESS":"聖龍街１７９巷４５號","OBJECTID":455124},"geometry":{"x":174330.21000000089,"y":2547938.1200000029}},{"attributes":{"ID":455150,"DIS_CODE":0,"TOWNNAME":"永康區","LI":"埔園里","LIN":"39鄰","STREET":"聖龍街","SECT":" ","MAREA":" ","LANE":"１７９巷","ALLEY":" ","HOUSE_NO":"４２號","E_COORD97":174338.73999999999,"N_COORD97":2547905.6200000001,"ADDRESS":"聖龍街１７９巷４２號","OBJECTID":455125},"geometry":{"x":174338.74000000115,"y":2547905.620000001}},{"attributes":{"ID":455151,"DIS_CODE":0,"TOWNNAME":"永康區","LI":"埔園里","LIN":"39鄰","STREET":"聖龍街","SECT":" ","MAREA":" ","LANE":"１７９巷","ALLEY":" ","HOUSE_NO":"６０號","E_COORD97":174346.26000000001,"N_COORD97":2547925.6200000001,"ADDRESS":"聖龍街１７９巷６０號","OBJECTID":455126},"geometry":{"x":174346.26000000164,"y":2547925.620000001}},{"attributes":{"ID":455152,"DIS_CODE":0,"TOWNNAME":"永康區","LI":"埔園里","LIN":"39鄰","STREET":"聖龍街","SECT":" ","MAREA":" ","LANE":"１７９巷","ALLEY":" ","HOUSE_NO":"３９號","E_COORD97":174315.51000000001,"N_COORD97":2547940.8700000001,"ADDRESS":"聖龍街１７９巷３９號","OBJECTID":455127},"geometry":{"x":174315.50999999978,"y":2547940.870000001}},{"attributes":{"ID":455153,"DIS_CODE":0,"TOWNNAME":"永康區","LI":"埔園里","LIN":"39鄰","STREET":"聖龍街","SECT":" ","MAREA":" ","LANE":"１７９巷","ALLEY":" ","HOUSE_NO":"２１號","E_COORD97":174303.70999999999,"N_COORD97":2547913.6899999999,"ADDRESS":"聖龍街１７９巷２１號","OBJECTID":455128},"geometry":{"x":174303.70999999996,"y":2547913.6899999995}},{"attributes":{"ID":455154,"DIS_CODE":0,"TOWNNAME":"永康區","LI":"埔園里","LIN":"39鄰","STREET":"聖龍街","SECT":" ","MAREA":" ","LANE":"１７９巷","ALLEY":" ","HOUSE_NO":"５６號","E_COORD97":174337.42000000001,"N_COORD97":2547926.1200000001,"ADDRESS":"聖龍街１７９巷５６號","OBJECTID":455129},"geometry":{"x":174337.42000000086,"y":2547926.120000001}},{"attributes":{"ID":455155,"DIS_CODE":0,"TOWNNAME":"永康區","LI":"埔園里","LIN":"39鄰","STREET":"聖龍街","SECT":" ","MAREA":" ","LANE":"１７９巷","ALLEY":" ","HOUSE_NO":"４６號","E_COORD97":174343.54000000001,"N_COORD97":2547904.6200000001,"ADDRESS":"聖龍街１７９巷４６號","OBJECTID":455130},"geometry":{"x":174343.54000000097,"y":2547904.6200000029}},{"attributes":{"ID":455156,"DIS_CODE":0,"TOWNNAME":"永康區","LI":"埔園里","LIN":"39鄰","STREET":"聖龍街","SECT":" ","MAREA":" ","LANE":"１７９巷","ALLEY":" ","HOUSE_NO":"３７號","E_COORD97":174311.26000000001,"N_COORD97":2547940.6200000001,"ADDRESS":"聖龍街１７９巷３７號","OBJECTID":455131},"geometry":{"x":174311.26000000071,"y":2547940.6200000048}},{"attributes":{"ID":455157,"DIS_CODE":0,"TOWNNAME":"永康區","LI":"龍潭里","LIN":"39鄰","STREET":"永明街","SECT":" ","MAREA":" ","LANE":"２１５巷","ALLEY":" ","HOUSE_NO":"１９號","E_COORD97":174509.35999999999,"N_COORD97":2547293.1600000001,"ADDRESS":"永明街２１５巷１９號","OBJECTID":455132},"geometry":{"x":174509.36000000127,"y":2547293.160000002}},{"attributes":{"ID":455158,"DIS_CODE":0,"TOWNNAME":"永康區","LI":"龍潭里","LIN":"39鄰","STREET":"永明街","SECT":" ","MAREA":" ","LANE":"２１５巷","ALLEY":" ","HOUSE_NO":"５０號","E_COORD97":174539.51999999999,"N_COORD97":2547288.96,"ADDRESS":"永明街２１５巷５０號","OBJECTID":455133},"geometry":{"x":174539.52000000048,"y":2547288.9600000009}},{"attributes":{"ID":455159,"DIS_CODE":0,"TOWNNAME":"永康區","LI":"龍潭里","LIN":"39鄰","STREET":"永明街","SECT":" ","MAREA":" ","LANE":"２１５巷","ALLEY":" ","HOUSE_NO":"２號","E_COORD97":174530.85000000001,"N_COORD97":2547227.6699999999,"ADDRESS":"永明街２１５巷２號","OBJECTID":455134},"geometry":{"x":174530.85000000056,"y":2547227.6700000018}},{"attributes":{"ID":455160,"DIS_CODE":0,"TOWNNAME":"仁德區","LI":"仁義里","LIN":"39鄰","STREET":"仁義五街","SECT":" ","MAREA":" ","LANE":"４４巷","ALLEY":" ","HOUSE_NO":"１２號","E_COORD97":173592.17000000001,"N_COORD97":2540402.9300000002,"ADDRESS":"仁義五街４４巷１２號","OBJECTID":455135},"geometry":{"x":173592.16999999993,"y":2540402.9299999997}},{"attributes":{"ID":455161,"DIS_CODE":0,"TOWNNAME":"仁德區","LI":"仁義里","LIN":"39鄰","STREET":"仁義五街","SECT":" ","MAREA":" ","LANE":"２４巷","ALLEY":" ","HOUSE_NO":"５號","E_COORD97":173554.76999999999,"N_COORD97":2540387.5099999998,"ADDRESS":"仁義五街２４巷５號","OBJECTID":455136},"geometry":{"x":173554.77000000048,"y":2540387.5100000016}},{"attributes":{"ID":455162,"DIS_CODE":0,"TOWNNAME":"仁德區","LI":"仁義里","LIN":"39鄰","STREET":"仁義五街","SECT":" ","MAREA":" ","LANE":"４４巷","ALLEY":" ","HOUSE_NO":"２１號","E_COORD97":173605.32000000001,"N_COORD97":2540381.0099999998,"ADDRESS":"仁義五街４４巷２１號","OBJECTID":455137},"geometry":{"x":173605.3200000003,"y":2540381.0099999998}},{"attributes":{"ID":455163,"DIS_CODE":0,"TOWNNAME":"永康區","LI":"北灣里","LIN":"39鄰","STREET":"大同街","SECT":" ","MAREA":" ","LANE":"７４０巷","ALLEY":" ","HOUSE_NO":"２２號","E_COORD97":174605.17999999999,"N_COORD97":2546637.9700000002,"ADDRESS":"大同街７４０巷２２號","OBJECTID":455138},"geometry":{"x":174605.1799999997,"y":2546637.9700000007}},{"attributes":{"ID":455164,"DIS_CODE":0,"TOWNNAME":"永康區","LI":"北灣里","LIN":"39鄰","STREET":"大同街","SECT":" ","MAREA":" ","LANE":"７４０巷","ALLEY":" ","HOUSE_NO":"４６號","E_COORD97":174644.48999999999,"N_COORD97":2546647.7200000002,"ADDRESS":"大同街７４０巷４６號","OBJECTID":455139},"geometry":{"x":174644.49000000022,"y":2546647.7200000044}},{"attributes":{"ID":455165,"DIS_CODE":0,"TOWNNAME":"永康區","LI":"北灣里","LIN":"39鄰","STREET":"大同街","SECT":" ","MAREA":" ","LANE":"７４０巷","ALLEY":" ","HOUSE_NO":"４２號","E_COORD97":174639.97,"N_COORD97":2546646.4700000002,"ADDRESS":"大同街７４０巷４２號","OBJECTID":455140},"geometry":{"x":174639.97000000067,"y":2546646.4700000025}},{"attributes":{"ID":455166,"DIS_CODE":0,"TOWNNAME":"永康區","LI":"北灣里","LIN":"39鄰","STREET":"大同街","SECT":" ","MAREA":" ","LANE":"７４０巷","ALLEY":" ","HOUSE_NO":"４０號","E_COORD97":174635.97,"N_COORD97":2546645.4700000002,"ADDRESS":"大同街７４０巷４０號","OBJECTID":455141},"geometry":{"x":174635.96999999974,"y":2546645.4700000007}},{"attributes":{"ID":455167,"DIS_CODE":0,"TOWNNAME":"永康區","LI":"龍潭里","LIN":"39鄰","STREET":"永明街","SECT":" ","MAREA":" ","LANE":"１７９巷","ALLEY":" ","HOUSE_NO":"３號","E_COORD97":174430.78,"N_COORD97":2547242.4700000002,"ADDRESS":"永明街１７９巷３號","OBJECTID":455142},"geometry":{"x":174430.78000000026,"y":2547242.4699999988}},{"attributes":{"ID":455168,"DIS_CODE":0,"TOWNNAME":"永康區","LI":"北灣里","LIN":"39鄰","STREET":"大同街","SECT":" ","MAREA":" ","LANE":"７４０巷","ALLEY":" ","HOUSE_NO":"６０號","E_COORD97":174671.17000000001,"N_COORD97":2546655.4700000002,"ADDRESS":"大同街７４０巷６０號","OBJECTID":455143},"geometry":{"x":174671.17000000086,"y":2546655.4700000007}},{"attributes":{"ID":455169,"DIS_CODE":0,"TOWNNAME":"永康區","LI":"北灣里","LIN":"39鄰","STREET":"大同街","SECT":" ","MAREA":" ","LANE":"６３６巷","ALLEY":" ","HOUSE_NO":"１號","E_COORD97":174649.88,"N_COORD97":2546346.0499999998,"ADDRESS":"大同街６３６巷１號","OBJECTID":455144},"geometry":{"x":174649.87999999989,"y":2546346.0500000007}},{"attributes":{"ID":455170,"DIS_CODE":0,"TOWNNAME":"永康區","LI":"北灣里","LIN":"39鄰","STREET":"大同街","SECT":" ","MAREA":" ","LANE":"６３６巷","ALLEY":" ","HOUSE_NO":"９２號","E_COORD97":174633.97,"N_COORD97":2546531,"ADDRESS":"大同街６３６巷９２號","OBJECTID":455145},"geometry":{"x":174633.96999999974,"y":2546531.0000000019}},{"attributes":{"ID":455171,"DIS_CODE":0,"TOWNNAME":"永康區","LI":"五王里","LIN":"39鄰","STREET":"中華路","SECT":" ","MAREA":" ","LANE":"５７８巷","ALLEY":" ","HOUSE_NO":"１７號之７５","E_COORD97":171333.72,"N_COORD97":2545989.54,"ADDRESS":"中華路５７８巷１７號之７５","OBJECTID":455146},"geometry":{"x":171333.71999999974,"y":2545989.5400000028}},{"attributes":{"ID":455172,"DIS_CODE":0,"TOWNNAME":"永康區","LI":"北灣里","LIN":"39鄰","STREET":"大同街","SECT":" ","MAREA":" ","LANE":"６２３巷","ALLEY":" ","HOUSE_NO":"１２號","E_COORD97":174555.47,"N_COORD97":2546435.25,"ADDRESS":"大同街６２３巷１２號","OBJECTID":455147},"geometry":{"x":174555.47000000067,"y":2546435.25}},{"attributes":{"ID":455173,"DIS_CODE":0,"TOWNNAME":"永康區","LI":"北灣里","LIN":"39鄰","STREET":"大同街","SECT":" ","MAREA":" ","LANE":"６３９巷","ALLEY":" ","HOUSE_NO":"８號","E_COORD97":174512.72,"N_COORD97":2546474.4700000002,"ADDRESS":"大同街６３９巷８號","OBJECTID":455148},"geometry":{"x":174512.72000000067,"y":2546474.4700000025}},{"attributes":{"ID":455174,"DIS_CODE":0,"TOWNNAME":"永康區","LI":"五王里","LIN":"39鄰","STREET":"中華路","SECT":" ","MAREA":" ","LANE":"５７８巷","ALLEY":" ","HOUSE_NO":"１７號之９３","E_COORD97":171333.67000000001,"N_COORD97":2545989.54,"ADDRESS":"中華路５７８巷１７號之９３","OBJECTID":455149},"geometry":{"x":171333.67000000086,"y":2545989.5400000028}},{"attributes":{"ID":455175,"DIS_CODE":0,"TOWNNAME":"永康區","LI":"五王里","LIN":"39鄰","STREET":"中華路","SECT":" ","MAREA":" ","LANE":"５７８巷","ALLEY":" ","HOUSE_NO":"１７號之６５","E_COORD97":171333.72,"N_COORD97":2545989.54,"ADDRESS":"中華路５７８巷１７號之６５","OBJECTID":455150},"geometry":{"x":171333.71999999974,"y":2545989.5400000028}},{"attributes":{"ID":455176,"DIS_CODE":0,"TOWNNAME":"永康區","LI":"北灣里","LIN":"39鄰","STREET":"大同街","SECT":" ","MAREA":" ","LANE":"７４０巷","ALLEY":" ","HOUSE_NO":"５２號","E_COORD97":174658.45000000001,"N_COORD97":2546651.7200000002,"ADDRESS":"大同街７４０巷５２號","OBJECTID":455151},"geometry":{"x":174658.45000000019,"y":2546651.7200000025}},{"attributes":{"ID":455177,"DIS_CODE":0,"TOWNNAME":"永康區","LI":"北灣里","LIN":"39鄰","STREET":"大同街","SECT":" ","MAREA":" ","LANE":"７４０巷","ALLEY":" ","HOUSE_NO":"６２號","E_COORD97":174675.39999999999,"N_COORD97":2546656.7200000002,"ADDRESS":"大同街７４０巷６２號","OBJECTID":455152},"geometry":{"x":174675.4000000013,"y":2546656.7200000007}},{"attributes":{"ID":455178,"DIS_CODE":0,"TOWNNAME":"永康區","LI":"北灣里","LIN":"39鄰","STREET":"大同街","SECT":" ","MAREA":" ","LANE":"７４０巷","ALLEY":" ","HOUSE_NO":"５８號","E_COORD97":174666.66,"N_COORD97":2546653.9700000002,"ADDRESS":"大同街７４０巷５８號","OBJECTID":455153},"geometry":{"x":174666.66000000108,"y":2546653.9700000025}},{"attributes":{"ID":455179,"DIS_CODE":0,"TOWNNAME":"新市區","LI":"新和里","LIN":"39鄰","STREET":"中正路","SECT":" ","MAREA":" ","LANE":"１９５巷","ALLEY":" ","HOUSE_NO":"７號","E_COORD97":177382.38,"N_COORD97":2552891.75,"ADDRESS":"中正路１９５巷７號","OBJECTID":455154},"geometry":{"x":177382.38000000082,"y":2552891.7500000037}},{"attributes":{"ID":455180,"DIS_CODE":0,"TOWNNAME":"新市區","LI":"新和里","LIN":"39鄰","STREET":"中正路","SECT":" ","MAREA":" ","LANE":"１９５巷","ALLEY":" ","HOUSE_NO":"６號","E_COORD97":177318.09,"N_COORD97":2552899.5,"ADDRESS":"中正路１９５巷６號","OBJECTID":455155},"geometry":{"x":177318.09000000078,"y":2552899.5}},{"attributes":{"ID":455181,"DIS_CODE":0,"TOWNNAME":"永康區","LI":"北灣里","LIN":"39鄰","STREET":"大同街","SECT":" ","MAREA":" ","LANE":"６６０巷","ALLEY":" ","HOUSE_NO":"２號","E_COORD97":174619.66,"N_COORD97":2546376.0600000001,"ADDRESS":"大同街６６０巷２號","OBJECTID":455156},"geometry":{"x":174619.66000000015,"y":2546376.0600000005}},{"attributes":{"ID":455182,"DIS_CODE":0,"TOWNNAME":"永康區","LI":"北灣里","LIN":"39鄰","STREET":"大同街","SECT":" ","MAREA":" ","LANE":"６６０巷","ALLEY":" ","HOUSE_NO":"６號","E_COORD97":174626.42000000001,"N_COORD97":2546381.6000000001,"ADDRESS":"大同街６６０巷６號","OBJECTID":455157},"geometry":{"x":174626.41999999993,"y":2546381.5999999996}},{"attributes":{"ID":455183,"DIS_CODE":0,"TOWNNAME":"永康區","LI":"北灣里","LIN":"39鄰","STREET":"大同街","SECT":" ","MAREA":" ","LANE":"６６０巷","ALLEY":" ","HOUSE_NO":"８號","E_COORD97":174631.44,"N_COORD97":2546386.3599999999,"ADDRESS":"大同街６６０巷８號","OBJECTID":455158},"geometry":{"x":174631.44000000041,"y":2546386.3599999994}},{"attributes":{"ID":455184,"DIS_CODE":0,"TOWNNAME":"永康區","LI":"埔園里","LIN":"39鄰","STREET":"自強路","SECT":" ","MAREA":" ","LANE":"５９８巷","ALLEY":" ","HOUSE_NO":"１６號","E_COORD97":174040.10999999999,"N_COORD97":2548118.3900000001,"ADDRESS":"自強路５９８巷１６號","OBJECTID":455159},"geometry":{"x":174040.11000000127,"y":2548118.3900000025}},{"attributes":{"ID":455185,"DIS_CODE":0,"TOWNNAME":"永康區","LI":"五王里","LIN":"39鄰","STREET":"中華路","SECT":" ","MAREA":" ","LANE":"５７８巷","ALLEY":" ","HOUSE_NO":"１７號之９８","E_COORD97":171333.72,"N_COORD97":2545989.54,"ADDRESS":"中華路５７８巷１７號之９８","OBJECTID":455160},"geometry":{"x":171333.71999999974,"y":2545989.5400000028}},{"attributes":{"ID":455186,"DIS_CODE":0,"TOWNNAME":"永康區","LI":"北灣里","LIN":"39鄰","STREET":"大同街","SECT":" ","MAREA":" ","LANE":"６２３巷","ALLEY":" ","HOUSE_NO":"２２號","E_COORD97":174539.66,"N_COORD97":2546430.25,"ADDRESS":"大同街６２３巷２２號","OBJECTID":455161},"geometry":{"x":174539.66000000108,"y":2546430.2500000019}},{"attributes":{"ID":455187,"DIS_CODE":0,"TOWNNAME":"仁德區","LI":"後壁里","LIN":"39鄰","STREET":"德糖路","SECT":" ","MAREA":" ","LANE":" ","ALLEY":" ","HOUSE_NO":"３９５號","E_COORD97":173422.23000000001,"N_COORD97":2539111.3399999999,"ADDRESS":"德糖路３９５號","OBJECTID":455162},"geometry":{"x":173422.23000000138,"y":2539111.3399999999}},{"attributes":{"ID":455188,"DIS_CODE":0,"TOWNNAME":"仁德區","LI":"後壁里","LIN":"39鄰","STREET":"德糖路","SECT":" ","MAREA":" ","LANE":" ","ALLEY":" ","HOUSE_NO":"３９３號","E_COORD97":173427.48999999999,"N_COORD97":2539112.7000000002,"ADDRESS":"德糖路３９３號","OBJECTID":455163},"geometry":{"x":173427.49000000022,"y":2539112.700000003}},{"attributes":{"ID":455189,"DIS_CODE":0,"TOWNNAME":"仁德區","LI":"後壁里","LIN":"39鄰","STREET":"德糖路","SECT":" ","MAREA":" ","LANE":" ","ALLEY":" ","HOUSE_NO":"３９１號","E_COORD97":173433.20000000001,"N_COORD97":2539114,"ADDRESS":"德糖路３９１號","OBJECTID":455164},"geometry":{"x":173433.19999999925,"y":2539114}},{"attributes":{"ID":455190,"DIS_CODE":0,"TOWNNAME":"仁德區","LI":"後壁里","LIN":"39鄰","STREET":"德糖路","SECT":" ","MAREA":" ","LANE":" ","ALLEY":" ","HOUSE_NO":"３８９號","E_COORD97":173438.64000000001,"N_COORD97":2539115.4700000002,"ADDRESS":"德糖路３８９號","OBJECTID":455165},"geometry":{"x":173438.6400000006,"y":2539115.4700000007}},{"attributes":{"ID":455191,"DIS_CODE":0,"TOWNNAME":"仁德區","LI":"太子里","LIN":"39鄰","STREET":"長興一街","SECT":" ","MAREA":" ","LANE":"６巷","ALLEY":" ","HOUSE_NO":"６號","E_COORD97":174745.907859,"N_COORD97":2543721.6225200002,"ADDRESS":"長興一街６巷６號","OBJECTID":455166},"geometry":{"x":174745.90785900038,"y":2543721.6225199997}},{"attributes":{"ID":455192,"DIS_CODE":0,"TOWNNAME":"仁德區","LI":"後壁里","LIN":"39鄰","STREET":"德糖路","SECT":" ","MAREA":" ","LANE":"４０７巷","ALLEY":" ","HOUSE_NO":"１號","E_COORD97":173411.28,"N_COORD97":2539074.8999999999,"ADDRESS":"德糖路４０７巷１號","OBJECTID":455167},"geometry":{"x":173411.28000000119,"y":2539074.9000000004}},{"attributes":{"ID":455193,"DIS_CODE":0,"TOWNNAME":"仁德區","LI":"後壁里","LIN":"39鄰","STREET":"德糖路","SECT":" ","MAREA":" ","LANE":"４０７巷","ALLEY":" ","HOUSE_NO":"１６號","E_COORD97":173403.60000000001,"N_COORD97":2539067.5,"ADDRESS":"德糖路４０７巷１６號","OBJECTID":455168},"geometry":{"x":173403.60000000056,"y":2539067.5000000037}},{"attributes":{"ID":455194,"DIS_CODE":0,"TOWNNAME":"永康區","LI":"龍潭里","LIN":"39鄰","STREET":"永明街","SECT":" ","MAREA":" ","LANE":"２１５巷","ALLEY":" ","HOUSE_NO":"１號","E_COORD97":174511.98000000001,"N_COORD97":2547229.9500000002,"ADDRESS":"永明街２１５巷１號","OBJECTID":455169},"geometry":{"x":174511.98000000138,"y":2547229.9499999993}},{"attributes":{"ID":455195,"DIS_CODE":0,"TOWNNAME":"永康區","LI":"西灣里","LIN":"39鄰","STREET":"永華路","SECT":" ","MAREA":" ","LANE":"２１２巷","ALLEY":" ","HOUSE_NO":"５號","E_COORD97":174133.04999999999,"N_COORD97":2545492.7799999998,"ADDRESS":"永華路２１２巷５號","OBJECTID":455170},"geometry":{"x":174133.05000000075,"y":2545492.7799999993}},{"attributes":{"ID":455196,"DIS_CODE":0,"TOWNNAME":"永康區","LI":"南灣里","LIN":"39鄰","STREET":"大安街","SECT":" ","MAREA":" ","LANE":"９７巷","ALLEY":" ","HOUSE_NO":"５１號","E_COORD97":174426.98999999999,"N_COORD97":2545070.3399999999,"ADDRESS":"大安街９７巷５１號","OBJECTID":455171},"geometry":{"x":174426.99000000115,"y":2545070.3400000017}},{"attributes":{"ID":455197,"DIS_CODE":0,"TOWNNAME":"永康區","LI":"南灣里","LIN":"39鄰","STREET":"大安街","SECT":" ","MAREA":" ","LANE":"９７巷","ALLEY":" ","HOUSE_NO":"５３號","E_COORD97":174421.75,"N_COORD97":2545073.3399999999,"ADDRESS":"大安街９７巷５３號","OBJECTID":455172},"geometry":{"x":174421.75000000093,"y":2545073.3400000017}},{"attributes":{"ID":455198,"DIS_CODE":0,"TOWNNAME":"新市區","LI":"新和里","LIN":"39鄰","STREET":"中正路","SECT":" ","MAREA":" ","LANE":"１９５巷","ALLEY":" ","HOUSE_NO":"１８號","E_COORD97":177293.70999999999,"N_COORD97":2552879.25,"ADDRESS":"中正路１９５巷１８號","OBJECTID":455173},"geometry":{"x":177293.71000000089,"y":2552879.2500000019}},{"attributes":{"ID":455199,"DIS_CODE":0,"TOWNNAME":"新市區","LI":"新和里","LIN":"39鄰","STREET":"中正路","SECT":" ","MAREA":" ","LANE":"２６８巷","ALLEY":" ","HOUSE_NO":"１８號","E_COORD97":177513.54000000001,"N_COORD97":2553026,"ADDRESS":"中正路２６８巷１８號","OBJECTID":455174},"geometry":{"x":177513.54000000097,"y":2553026.0000000019}},{"attributes":{"ID":455200,"DIS_CODE":0,"TOWNNAME":"永康區","LI":"西灣里","LIN":"39鄰","STREET":"永華路","SECT":" ","MAREA":" ","LANE":"２１２巷","ALLEY":" ","HOUSE_NO":"１號","E_COORD97":174125.47,"N_COORD97":2545494.25,"ADDRESS":"永華路２１２巷１號","OBJECTID":455175},"geometry":{"x":174125.46999999974,"y":2545494.2500000019}},{"attributes":{"ID":455201,"DIS_CODE":0,"TOWNNAME":"永康區","LI":"西灣里","LIN":"39鄰","STREET":"永華路","SECT":" ","MAREA":" ","LANE":"２１２巷","ALLEY":" ","HOUSE_NO":"７號","E_COORD97":174137.17000000001,"N_COORD97":2545491.8900000001,"ADDRESS":"永華路２１２巷７號","OBJECTID":455176},"geometry":{"x":174137.17000000086,"y":2545491.8900000025}},{"attributes":{"ID":455202,"DIS_CODE":0,"TOWNNAME":"永康區","LI":"南灣里","LIN":"39鄰","STREET":"大安街","SECT":" ","MAREA":" ","LANE":"９７巷","ALLEY":" ","HOUSE_NO":"４７號","E_COORD97":174443.32999999999,"N_COORD97":2545069.3599999999,"ADDRESS":"大安街９７巷４７號","OBJECTID":455177},"geometry":{"x":174443.33000000101,"y":2545069.3600000013}},{"attributes":{"ID":455203,"DIS_CODE":0,"TOWNNAME":"永康區","LI":"南灣里","LIN":"39鄰","STREET":"南灣街","SECT":" ","MAREA":" ","LANE":"１００巷","ALLEY":" ","HOUSE_NO":"２１號","E_COORD97":174403.35000000001,"N_COORD97":2545047.9900000002,"ADDRESS":"南灣街１００巷２１號","OBJECTID":455178},"geometry":{"x":174403.35000000056,"y":2545047.9900000002}},{"attributes":{"ID":455204,"DIS_CODE":0,"TOWNNAME":"永康區","LI":"南灣里","LIN":"39鄰","STREET":"南灣街","SECT":" ","MAREA":" ","LANE":"１００巷","ALLEY":" ","HOUSE_NO":"２３號","E_COORD97":174412.26000000001,"N_COORD97":2545043.2400000002,"ADDRESS":"南灣街１００巷２３號","OBJECTID":455179},"geometry":{"x":174412.26000000164,"y":2545043.2400000039}},{"attributes":{"ID":455205,"DIS_CODE":0,"TOWNNAME":"永康區","LI":"西灣里","LIN":"39鄰","STREET":"永華路","SECT":" ","MAREA":" ","LANE":"２１２巷","ALLEY":" ","HOUSE_NO":"３５號","E_COORD97":174194.42999999999,"N_COORD97":2545473.5,"ADDRESS":"永華路２１２巷３５號","OBJECTID":455180},"geometry":{"x":174194.43000000063,"y":2545473.5000000019}},{"attributes":{"ID":455206,"DIS_CODE":0,"TOWNNAME":"佳里區","LI":"安西里","LIN":"39鄰","STREET":"育善街","SECT":" ","MAREA":" ","LANE":"２３３巷","ALLEY":" ","HOUSE_NO":"１１號","E_COORD97":164910.88,"N_COORD97":2562668.6800000002,"ADDRESS":"育善街２３３巷１１號","OBJECTID":455181},"geometry":{"x":164910.88000000082,"y":2562668.6799999997}},{"attributes":{"ID":455207,"DIS_CODE":0,"TOWNNAME":"佳里區","LI":"安西里","LIN":"39鄰","STREET":"育善街","SECT":" ","MAREA":" ","LANE":"２３３巷","ALLEY":" ","HOUSE_NO":"１２號","E_COORD97":164885.92000000001,"N_COORD97":2562705.6400000001,"ADDRESS":"育善街２３３巷１２號","OBJECTID":455182},"geometry":{"x":164885.91999999993,"y":2562705.6400000025}},{"attributes":{"ID":455208,"DIS_CODE":0,"TOWNNAME":"佳里區","LI":"安西里","LIN":"39鄰","STREET":"育善街","SECT":" ","MAREA":" ","LANE":"２３３巷","ALLEY":" ","HOUSE_NO":"１３號","E_COORD97":164910.91,"N_COORD97":2562661.8300000001,"ADDRESS":"育善街２３３巷１３號","OBJECTID":455183},"geometry":{"x":164910.91000000108,"y":2562661.8300000001}},{"attributes":{"ID":455209,"DIS_CODE":0,"TOWNNAME":"佳里區","LI":"安西里","LIN":"39鄰","STREET":"育善街","SECT":" ","MAREA":" ","LANE":"２３３巷","ALLEY":" ","HOUSE_NO":"１５號","E_COORD97":164884.29999999999,"N_COORD97":2562670.79,"ADDRESS":"育善街２３３巷１５號","OBJECTID":455184},"geometry":{"x":164884.29999999981,"y":2562670.7899999991}},{"attributes":{"ID":455210,"DIS_CODE":0,"TOWNNAME":"佳里區","LI":"安西里","LIN":"39鄰","STREET":"育善街","SECT":" ","MAREA":" ","LANE":"２３３巷","ALLEY":" ","HOUSE_NO":"１６號","E_COORD97":164877.92999999999,"N_COORD97":2562705.4700000002,"ADDRESS":"育善街２３３巷１６號","OBJECTID":455185},"geometry":{"x":164877.93000000063,"y":2562705.4700000007}},{"attributes":{"ID":455211,"DIS_CODE":0,"TOWNNAME":"佳里區","LI":"安西里","LIN":"39鄰","STREET":"育善街","SECT":" ","MAREA":" ","LANE":"２３３巷","ALLEY":" ","HOUSE_NO":"１７號","E_COORD97":164884.42999999999,"N_COORD97":2562663.0699999998,"ADDRESS":"育善街２３３巷１７號","OBJECTID":455186},"geometry":{"x":164884.43000000063,"y":2562663.0700000003}},{"attributes":{"ID":455212,"DIS_CODE":0,"TOWNNAME":"佳里區","LI":"安西里","LIN":"39鄰","STREET":"育善街","SECT":" ","MAREA":" ","LANE":"２３３巷","ALLEY":" ","HOUSE_NO":"１９號","E_COORD97":164889.44,"N_COORD97":2562686.2400000002,"ADDRESS":"育善街２３３巷１９號","OBJECTID":455187},"geometry":{"x":164889.44000000041,"y":2562686.2400000002}},{"attributes":{"ID":455213,"DIS_CODE":0,"TOWNNAME":"佳里區","LI":"安西里","LIN":"39鄰","STREET":"育善街","SECT":" ","MAREA":" ","LANE":"２３３巷","ALLEY":" ","HOUSE_NO":"１號","E_COORD97":164919.26999999999,"N_COORD97":2562685.1600000001,"ADDRESS":"育善街２３３巷１號","OBJECTID":455188},"geometry":{"x":164919.27000000048,"y":2562685.160000002}},{"attributes":{"ID":455214,"DIS_CODE":0,"TOWNNAME":"佳里區","LI":"安西里","LIN":"39鄰","STREET":"育善街","SECT":" ","MAREA":" ","LANE":"２３３巷","ALLEY":" ","HOUSE_NO":"２號","E_COORD97":164901.31,"N_COORD97":2562705.4100000001,"ADDRESS":"育善街２３３巷２號","OBJECTID":455189},"geometry":{"x":164901.30999999959,"y":2562705.4100000001}},{"attributes":{"ID":455215,"DIS_CODE":0,"TOWNNAME":"佳里區","LI":"安西里","LIN":"39鄰","STREET":"育善街","SECT":" ","MAREA":" ","LANE":"２３３巷","ALLEY":" ","HOUSE_NO":"３號","E_COORD97":164914.62,"N_COORD97":2562685.5,"ADDRESS":"育善街２３３巷３號","OBJECTID":455190},"geometry":{"x":164914.62000000011,"y":2562685.5000000019}},{"attributes":{"ID":455216,"DIS_CODE":0,"TOWNNAME":"佳里區","LI":"安西里","LIN":"39鄰","STREET":"育善街","SECT":" ","MAREA":" ","LANE":"２３３巷","ALLEY":" ","HOUSE_NO":"５號","E_COORD97":164910.01000000001,"N_COORD97":2562685.71,"ADDRESS":"育善街２３３巷５號","OBJECTID":455191},"geometry":{"x":164910.00999999978,"y":2562685.7100000028}},{"attributes":{"ID":455217,"DIS_CODE":0,"TOWNNAME":"佳里區","LI":"安西里","LIN":"39鄰","STREET":"育善街","SECT":" ","MAREA":" ","LANE":"２３３巷","ALLEY":" ","HOUSE_NO":"６號","E_COORD97":164897.14000000001,"N_COORD97":2562705.4900000002,"ADDRESS":"育善街２３３巷６號","OBJECTID":455192},"geometry":{"x":164897.13999999966,"y":2562705.4900000039}},{"attributes":{"ID":455218,"DIS_CODE":0,"TOWNNAME":"佳里區","LI":"安西里","LIN":"39鄰","STREET":"育善街","SECT":" ","MAREA":" ","LANE":"２３３巷","ALLEY":" ","HOUSE_NO":"７號","E_COORD97":164905.32000000001,"N_COORD97":2562685.9199999999,"ADDRESS":"育善街２３３巷７號","OBJECTID":455193},"geometry":{"x":164905.3200000003,"y":2562685.9200000018}},{"attributes":{"ID":455219,"DIS_CODE":0,"TOWNNAME":"佳里區","LI":"安西里","LIN":"39鄰","STREET":"育善街","SECT":" ","MAREA":" ","LANE":"２３３巷","ALLEY":" ","HOUSE_NO":"８號","E_COORD97":164893.48999999999,"N_COORD97":2562705.75,"ADDRESS":"育善街２３３巷８號","OBJECTID":455194},"geometry":{"x":164893.49000000115,"y":2562705.75}},{"attributes":{"ID":455220,"DIS_CODE":0,"TOWNNAME":"佳里區","LI":"安西里","LIN":"39鄰","STREET":"育善街","SECT":" ","MAREA":" ","LANE":"２３３巷","ALLEY":" ","HOUSE_NO":"９號","E_COORD97":164900.89999999999,"N_COORD97":2562686.1000000001,"ADDRESS":"育善街２３３巷９號","OBJECTID":455195},"geometry":{"x":164900.9000000013,"y":2562686.0999999996}},{"attributes":{"ID":455221,"DIS_CODE":0,"TOWNNAME":"佳里區","LI":"安西里","LIN":"39鄰","STREET":"育善街","SECT":" ","MAREA":" ","LANE":"２７２巷","ALLEY":" ","HOUSE_NO":"１０號","E_COORD97":164971.13,"N_COORD97":2562703.2599999998,"ADDRESS":"育善街２７２巷１０號","OBJECTID":455196},"geometry":{"x":164971.13000000175,"y":2562703.2600000035}},{"attributes":{"ID":455222,"DIS_CODE":0,"TOWNNAME":"佳里區","LI":"安西里","LIN":"39鄰","STREET":"育善街","SECT":" ","MAREA":" ","LANE":"２７２巷","ALLEY":" ","HOUSE_NO":"１２號","E_COORD97":164963.39000000001,"N_COORD97":2562690.75,"ADDRESS":"育善街２７２巷１２號","OBJECTID":455197},"geometry":{"x":164963.38999999966,"y":2562690.7500000019}},{"attributes":{"ID":455223,"DIS_CODE":0,"TOWNNAME":"佳里區","LI":"安西里","LIN":"39鄰","STREET":"育善街","SECT":" ","MAREA":" ","LANE":"２７２巷","ALLEY":" ","HOUSE_NO":"１６號","E_COORD97":164963.04000000001,"N_COORD97":2562686.6000000001,"ADDRESS":"育善街２７２巷１６號","OBJECTID":455198},"geometry":{"x":164963.04000000004,"y":2562686.5999999996}},{"attributes":{"ID":455224,"DIS_CODE":0,"TOWNNAME":"佳里區","LI":"安西里","LIN":"39鄰","STREET":"育善街","SECT":" ","MAREA":" ","LANE":"２７２巷","ALLEY":" ","HOUSE_NO":"１８號","E_COORD97":164962.89000000001,"N_COORD97":2562682.6800000002,"ADDRESS":"育善街２７２巷１８號","OBJECTID":455199},"geometry":{"x":164962.8900000006,"y":2562682.6799999997}},{"attributes":{"ID":455225,"DIS_CODE":0,"TOWNNAME":"佳里區","LI":"安西里","LIN":"39鄰","STREET":"育善街","SECT":" ","MAREA":" ","LANE":"２７２巷","ALLEY":" ","HOUSE_NO":"２０號","E_COORD97":164962.95000000001,"N_COORD97":2562678.6499999999,"ADDRESS":"育善街２７２巷２０號","OBJECTID":455200},"geometry":{"x":164962.95000000112,"y":2562678.6500000022}}]}