{"displayFieldName":"TOWNNAME","fieldAliases":{"ID":"ID","DIS_CODE":"DIS_CODE","TOWNNAME":"TOWNNAME","LI":"LI","LIN":"LIN","STREET":"STREET","SECT":"SECT","MAREA":"MAREA","LANE":"LANE","ALLEY":"ALLEY","HOUSE_NO":"HOUSE_NO","E_COORD97":"E_COORD97","N_COORD97":"N_COORD97","ADDRESS":"ADDRESS","OBJECTID":"OBJECTID"},"geometryType":"esriGeometryPoint","spatialReference":{"wkid":102443,"latestWkid":3826},"fields":[{"name":"ID","type":"esriFieldTypeDouble","alias":"ID"},{"name":"DIS_CODE","type":"esriFieldTypeInteger","alias":"DIS_CODE"},{"name":"TOWNNAME","type":"esriFieldTypeString","alias":"TOWNNAME","length":8},{"name":"LI","type":"esriFieldTypeString","alias":"LI","length":8},{"name":"LIN","type":"esriFieldTypeString","alias":"LIN","length":12},{"name":"STREET","type":"esriFieldTypeString","alias":"STREET","length":20},{"name":"SECT","type":"esriFieldTypeString","alias":"SECT","length":8},{"name":"MAREA","type":"esriFieldTypeString","alias":"MAREA","length":12},{"name":"LANE","type":"esriFieldTypeString","alias":"LANE","length":10},{"name":"ALLEY","type":"esriFieldTypeString","alias":"ALLEY","length":10},{"name":"HOUSE_NO","type":"esriFieldTypeString","alias":"HOUSE_NO","length":20},{"name":"E_COORD97","type":"esriFieldTypeDouble","alias":"E_COORD97"},{"name":"N_COORD97","type":"esriFieldTypeDouble","alias":"N_COORD97"},{"name":"ADDRESS","type":"esriFieldTypeString","alias":"ADDRESS","length":50},{"name":"OBJECTID","type":"esriFieldTypeOID","alias":"OBJECTID"}],"features":[{"attributes":{"ID":188402,"DIS_CODE":0,"TOWNNAME":"東區","LI":"小東里","LIN":"15鄰","STREET":"光明街","SECT":" ","MAREA":" ","LANE":" ","ALLEY":" ","HOUSE_NO":"７４號之１","E_COORD97":170895.45999999999,"N_COORD97":2544193.5899999999,"ADDRESS":"光明街７４號之１","OBJECTID":188401},"geometry":{"x":170895.46000000183,"y":2544193.5900000017}},{"attributes":{"ID":188403,"DIS_CODE":0,"TOWNNAME":"東區","LI":"後甲里","LIN":"5鄰","STREET":"裕農路","SECT":" ","MAREA":" ","LANE":"６２１巷","ALLEY":"３６弄","HOUSE_NO":"８號","E_COORD97":171657.60999999999,"N_COORD97":2543334.7599999998,"ADDRESS":"裕農路６２１巷３６弄８號","OBJECTID":188402},"geometry":{"x":171657.6100000022,"y":2543334.7600000016}},{"attributes":{"ID":188404,"DIS_CODE":0,"TOWNNAME":"安南區","LI":"海西里","LIN":"5鄰","STREET":"海環街","SECT":" ","MAREA":" ","LANE":"３８７巷","ALLEY":"８弄","HOUSE_NO":"５號","E_COORD97":166078.32999999999,"N_COORD97":2548987.8599999999,"ADDRESS":"海環街３８７巷８弄５號","OBJECTID":188403},"geometry":{"x":166078.33000000007,"y":2548987.8599999975}},{"attributes":{"ID":188405,"DIS_CODE":0,"TOWNNAME":"安南區","LI":"海西里","LIN":"5鄰","STREET":"海環街","SECT":" ","MAREA":" ","LANE":"３８７巷","ALLEY":"８弄","HOUSE_NO":"２１號","E_COORD97":166105.14000000001,"N_COORD97":2549006.2599999998,"ADDRESS":"海環街３８７巷８弄２１號","OBJECTID":188404},"geometry":{"x":166105.1400000006,"y":2549006.2600000035}},{"attributes":{"ID":188406,"DIS_CODE":0,"TOWNNAME":"白河區","LI":"昇安里","LIN":"11鄰","STREET":" ","SECT":" ","MAREA":"埤子頭","LANE":" ","ALLEY":" ","HOUSE_NO":"２８號","E_COORD97":192557.89999999999,"N_COORD97":2585210.3999999999,"ADDRESS":"埤子頭２８號","OBJECTID":188405},"geometry":{"x":192557.9000000013,"y":2585210.4000000004}},{"attributes":{"ID":188407,"DIS_CODE":0,"TOWNNAME":"白河區","LI":"昇安里","LIN":"11鄰","STREET":" ","SECT":" ","MAREA":"埤子頭","LANE":" ","ALLEY":" ","HOUSE_NO":"２９號","E_COORD97":192500.82000000001,"N_COORD97":2585172.7799999998,"ADDRESS":"埤子頭２９號","OBJECTID":188406},"geometry":{"x":192500.82000000123,"y":2585172.7799999993}},{"attributes":{"ID":188408,"DIS_CODE":0,"TOWNNAME":"安南區","LI":"海西里","LIN":"5鄰","STREET":"海環街","SECT":" ","MAREA":" ","LANE":"３８７巷","ALLEY":"８弄","HOUSE_NO":"２０號","E_COORD97":166113.92999999999,"N_COORD97":2548982.8399999999,"ADDRESS":"海環街３８７巷８弄２０號","OBJECTID":188407},"geometry":{"x":166113.93000000063,"y":2548982.8400000017}},{"attributes":{"ID":188409,"DIS_CODE":0,"TOWNNAME":"安南區","LI":"海佃里","LIN":"5鄰","STREET":"國安街","SECT":" ","MAREA":" ","LANE":"１５６巷","ALLEY":"７２弄","HOUSE_NO":"２０號","E_COORD97":166784.37,"N_COORD97":2547172.9900000002,"ADDRESS":"國安街１５６巷７２弄２０號","OBJECTID":188408},"geometry":{"x":166784.37000000104,"y":2547172.9900000002}},{"attributes":{"ID":188410,"DIS_CODE":0,"TOWNNAME":"安南區","LI":"海佃里","LIN":"5鄰","STREET":"國安街","SECT":" ","MAREA":" ","LANE":"１５６巷","ALLEY":"７２弄","HOUSE_NO":"２２號","E_COORD97":166789.69,"N_COORD97":2547174.98,"ADDRESS":"國安街１５６巷７２弄２２號","OBJECTID":188409},"geometry":{"x":166789.69000000041,"y":2547174.9800000023}},{"attributes":{"ID":188411,"DIS_CODE":0,"TOWNNAME":"白河區","LI":"昇安里","LIN":"11鄰","STREET":" ","SECT":" ","MAREA":"埤子頭","LANE":" ","ALLEY":" ","HOUSE_NO":"３１號","E_COORD97":192528.59,"N_COORD97":2585153.1400000001,"ADDRESS":"埤子頭３１號","OBJECTID":188410},"geometry":{"x":192528.59000000078,"y":2585153.1400000025}},{"attributes":{"ID":188412,"DIS_CODE":0,"TOWNNAME":"白河區","LI":"昇安里","LIN":"11鄰","STREET":" ","SECT":" ","MAREA":"埤子頭","LANE":" ","ALLEY":" ","HOUSE_NO":"３２號","E_COORD97":192513.29999999999,"N_COORD97":2585150.7799999998,"ADDRESS":"埤子頭３２號","OBJECTID":188411},"geometry":{"x":192513.30000000168,"y":2585150.7800000012}},{"attributes":{"ID":188413,"DIS_CODE":0,"TOWNNAME":"白河區","LI":"昇安里","LIN":"11鄰","STREET":" ","SECT":" ","MAREA":"埤子頭","LANE":" ","ALLEY":" ","HOUSE_NO":"３３之１號","E_COORD97":192510.89999999999,"N_COORD97":2585106.0299999998,"ADDRESS":"埤子頭３３之１號","OBJECTID":188412},"geometry":{"x":192510.90000000037,"y":2585106.0300000012}},{"attributes":{"ID":188414,"DIS_CODE":0,"TOWNNAME":"白河區","LI":"昇安里","LIN":"11鄰","STREET":" ","SECT":" ","MAREA":"埤子頭","LANE":" ","ALLEY":" ","HOUSE_NO":"３３之６號","E_COORD97":192500,"N_COORD97":2585141.8999999999,"ADDRESS":"埤子頭３３之６號","OBJECTID":188413},"geometry":{"x":192500,"y":2585141.9000000022}},{"attributes":{"ID":188415,"DIS_CODE":0,"TOWNNAME":"白河區","LI":"昇安里","LIN":"11鄰","STREET":" ","SECT":" ","MAREA":"埤子頭","LANE":" ","ALLEY":" ","HOUSE_NO":"３３號","E_COORD97":192515.16,"N_COORD97":2585137.79,"ADDRESS":"埤子頭３３號","OBJECTID":188414},"geometry":{"x":192515.16000000108,"y":2585137.790000001}},{"attributes":{"ID":188416,"DIS_CODE":0,"TOWNNAME":"白河區","LI":"昇安里","LIN":"11鄰","STREET":" ","SECT":" ","MAREA":"埤子頭","LANE":" ","ALLEY":" ","HOUSE_NO":"３４號","E_COORD97":192522.04000000001,"N_COORD97":2585125.25,"ADDRESS":"埤子頭３４號","OBJECTID":188415},"geometry":{"x":192522.0400000019,"y":2585125.2500000019}},{"attributes":{"ID":188417,"DIS_CODE":0,"TOWNNAME":"白河區","LI":"昇安里","LIN":"11鄰","STREET":" ","SECT":" ","MAREA":"埤子頭","LANE":" ","ALLEY":" ","HOUSE_NO":"５９號","E_COORD97":192706.07000000001,"N_COORD97":2585336.3700000001,"ADDRESS":"埤子頭５９號","OBJECTID":188416},"geometry":{"x":192706.07000000123,"y":2585336.370000001}},{"attributes":{"ID":188418,"DIS_CODE":0,"TOWNNAME":"安定區","LI":"安加里","LIN":"11鄰","STREET":" ","SECT":" ","MAREA":"安定","LANE":" ","ALLEY":" ","HOUSE_NO":"２６８號之２","E_COORD97":171559.39000000001,"N_COORD97":2557364.3199999998,"ADDRESS":"安定２６８號之２","OBJECTID":188417},"geometry":{"x":171559.38999999966,"y":2557364.3200000022}},{"attributes":{"ID":188419,"DIS_CODE":0,"TOWNNAME":"麻豆區","LI":"港尾里","LIN":"11鄰","STREET":" ","SECT":" ","MAREA":"營後","LANE":" ","ALLEY":" ","HOUSE_NO":"４號","E_COORD97":167930.57999999999,"N_COORD97":2567624.2200000002,"ADDRESS":"營後４號","OBJECTID":188418},"geometry":{"x":167930.58000000101,"y":2567624.2200000025}},{"attributes":{"ID":188420,"DIS_CODE":0,"TOWNNAME":"麻豆區","LI":"港尾里","LIN":"11鄰","STREET":" ","SECT":" ","MAREA":"營後","LANE":" ","ALLEY":" ","HOUSE_NO":"５號","E_COORD97":167914.64999999999,"N_COORD97":2567611.54,"ADDRESS":"營後５號","OBJECTID":188419},"geometry":{"x":167914.6500000013,"y":2567611.540000001}},{"attributes":{"ID":188421,"DIS_CODE":0,"TOWNNAME":"麻豆區","LI":"港尾里","LIN":"11鄰","STREET":" ","SECT":" ","MAREA":"營後","LANE":" ","ALLEY":" ","HOUSE_NO":"６號之２","E_COORD97":167864.67999999999,"N_COORD97":2567482.4700000002,"ADDRESS":"營後６號之２","OBJECTID":188420},"geometry":{"x":167864.68000000063,"y":2567482.4700000007}},{"attributes":{"ID":188422,"DIS_CODE":0,"TOWNNAME":"麻豆區","LI":"港尾里","LIN":"11鄰","STREET":" ","SECT":" ","MAREA":"營後","LANE":" ","ALLEY":" ","HOUSE_NO":"６號之３","E_COORD97":167870.19,"N_COORD97":2567536.96,"ADDRESS":"營後６號之３","OBJECTID":188421},"geometry":{"x":167870.19000000134,"y":2567536.9600000009}},{"attributes":{"ID":188423,"DIS_CODE":0,"TOWNNAME":"麻豆區","LI":"港尾里","LIN":"11鄰","STREET":" ","SECT":" ","MAREA":"營後","LANE":" ","ALLEY":" ","HOUSE_NO":"７號之１","E_COORD97":167735.20999999999,"N_COORD97":2567716.9300000002,"ADDRESS":"營後７號之１","OBJECTID":188422},"geometry":{"x":167735.20999999996,"y":2567716.9300000016}},{"attributes":{"ID":188424,"DIS_CODE":0,"TOWNNAME":"麻豆區","LI":"港尾里","LIN":"11鄰","STREET":" ","SECT":" ","MAREA":"營後","LANE":" ","ALLEY":" ","HOUSE_NO":"７號","E_COORD97":167854.84,"N_COORD97":2567658.5299999998,"ADDRESS":"營後７號","OBJECTID":188423},"geometry":{"x":167854.84000000171,"y":2567658.5300000012}},{"attributes":{"ID":188425,"DIS_CODE":0,"TOWNNAME":"麻豆區","LI":"港尾里","LIN":"11鄰","STREET":" ","SECT":" ","MAREA":"營後","LANE":" ","ALLEY":" ","HOUSE_NO":"８號","E_COORD97":167862.89999999999,"N_COORD97":2567633.5,"ADDRESS":"營後８號","OBJECTID":188424},"geometry":{"x":167862.90000000037,"y":2567633.5}},{"attributes":{"ID":188426,"DIS_CODE":0,"TOWNNAME":"麻豆區","LI":"港尾里","LIN":"11鄰","STREET":" ","SECT":" ","MAREA":"營後","LANE":" ","ALLEY":" ","HOUSE_NO":"９號之１８","E_COORD97":168533.39000000001,"N_COORD97":2568089.8500000001,"ADDRESS":"營後９號之１８","OBJECTID":188425},"geometry":{"x":168533.38999999966,"y":2568089.8500000034}},{"attributes":{"ID":188427,"DIS_CODE":0,"TOWNNAME":"麻豆區","LI":"港尾里","LIN":"11鄰","STREET":" ","SECT":" ","MAREA":"營後","LANE":" ","ALLEY":" ","HOUSE_NO":"９號之２","E_COORD97":168606.62,"N_COORD97":2567884.6299999999,"ADDRESS":"營後９號之２","OBJECTID":188426},"geometry":{"x":168606.62000000104,"y":2567884.6300000008}},{"attributes":{"ID":188428,"DIS_CODE":0,"TOWNNAME":"仁德區","LI":"保安里","LIN":"21鄰","STREET":"文賢路","SECT":"一段","MAREA":" ","LANE":" ","ALLEY":" ","HOUSE_NO":"６５８號","E_COORD97":171165.10000000001,"N_COORD97":2536611.8300000001,"ADDRESS":"文賢路一段６５８號","OBJECTID":188427},"geometry":{"x":171165.09999999963,"y":2536611.8300000019}},{"attributes":{"ID":188429,"DIS_CODE":0,"TOWNNAME":"仁德區","LI":"保安里","LIN":"21鄰","STREET":"文賢一街","SECT":" ","MAREA":" ","LANE":" ","ALLEY":" ","HOUSE_NO":"２０號","E_COORD97":171062.73999999999,"N_COORD97":2536710.0800000001,"ADDRESS":"文賢一街２０號","OBJECTID":188428},"geometry":{"x":171062.74000000022,"y":2536710.0800000001}},{"attributes":{"ID":188430,"DIS_CODE":0,"TOWNNAME":"仁德區","LI":"上崙里","LIN":"4鄰","STREET":"德崙路","SECT":" ","MAREA":" ","LANE":" ","ALLEY":" ","HOUSE_NO":"２９５號","E_COORD97":173866.17000000001,"N_COORD97":2538138.77,"ADDRESS":"德崙路２９５號","OBJECTID":188429},"geometry":{"x":173866.17000000086,"y":2538138.7699999996}},{"attributes":{"ID":188431,"DIS_CODE":0,"TOWNNAME":"安南區","LI":"海南里","LIN":"5鄰","STREET":"府安路","SECT":"六段","MAREA":" ","LANE":"１０３巷","ALLEY":"４１弄","HOUSE_NO":"２２號","E_COORD97":166634.70999999999,"N_COORD97":2546570.77,"ADDRESS":"府安路六段１０３巷４１弄２２號","OBJECTID":188430},"geometry":{"x":166634.70999999996,"y":2546570.7699999996}},{"attributes":{"ID":188432,"DIS_CODE":0,"TOWNNAME":"安南區","LI":"海南里","LIN":"5鄰","STREET":"府安路","SECT":"六段","MAREA":" ","LANE":"１０３巷","ALLEY":"４１弄","HOUSE_NO":"３０號","E_COORD97":166608.28,"N_COORD97":2546564.1699999999,"ADDRESS":"府安路六段１０３巷４１弄３０號","OBJECTID":188431},"geometry":{"x":166608.28000000119,"y":2546564.1699999999}},{"attributes":{"ID":188433,"DIS_CODE":0,"TOWNNAME":"安南區","LI":"海南里","LIN":"5鄰","STREET":"府安路","SECT":"六段","MAREA":" ","LANE":"１０３巷","ALLEY":"４１弄","HOUSE_NO":"３２號","E_COORD97":166602.04000000001,"N_COORD97":2546562,"ADDRESS":"府安路六段１０３巷４１弄３２號","OBJECTID":188432},"geometry":{"x":166602.04000000004,"y":2546562}},{"attributes":{"ID":188434,"DIS_CODE":0,"TOWNNAME":"安南區","LI":"海南里","LIN":"5鄰","STREET":"府安路","SECT":"六段","MAREA":" ","LANE":"１０３巷","ALLEY":"５５弄","HOUSE_NO":"１３號","E_COORD97":166658.89000000001,"N_COORD97":2546595.1499999999,"ADDRESS":"府安路六段１０３巷５５弄１３號","OBJECTID":188433},"geometry":{"x":166658.88999999966,"y":2546595.1500000022}},{"attributes":{"ID":188435,"DIS_CODE":0,"TOWNNAME":"左鎮區","LI":"榮和里","LIN":"3鄰","STREET":" ","SECT":" ","MAREA":"菜寮","LANE":" ","ALLEY":" ","HOUSE_NO":"２９號","E_COORD97":187281.44,"N_COORD97":2551361.25,"ADDRESS":"菜寮２９號","OBJECTID":188434},"geometry":{"x":187281.44000000041,"y":2551361.25}},{"attributes":{"ID":188436,"DIS_CODE":0,"TOWNNAME":"安南區","LI":"海南里","LIN":"5鄰","STREET":"府安路","SECT":"六段","MAREA":" ","LANE":"１０３巷","ALLEY":"５５弄","HOUSE_NO":"１６號","E_COORD97":166649.81,"N_COORD97":2546610.3900000001,"ADDRESS":"府安路六段１０３巷５５弄１６號","OBJECTID":188435},"geometry":{"x":166649.81000000052,"y":2546610.3900000025}},{"attributes":{"ID":188437,"DIS_CODE":0,"TOWNNAME":"安南區","LI":"海南里","LIN":"5鄰","STREET":"府安路","SECT":"六段","MAREA":" ","LANE":"１０３巷","ALLEY":"５５弄","HOUSE_NO":"１８號","E_COORD97":166641.59,"N_COORD97":2546609.1400000001,"ADDRESS":"府安路六段１０３巷５５弄１８號","OBJECTID":188436},"geometry":{"x":166641.59000000078,"y":2546609.1400000006}},{"attributes":{"ID":188438,"DIS_CODE":0,"TOWNNAME":"安南區","LI":"海南里","LIN":"5鄰","STREET":"府安路","SECT":"六段","MAREA":" ","LANE":"１０３巷","ALLEY":"６３弄","HOUSE_NO":"８號","E_COORD97":166667.69,"N_COORD97":2546638.3100000001,"ADDRESS":"府安路六段１０３巷６３弄８號","OBJECTID":188437},"geometry":{"x":166667.69000000041,"y":2546638.3100000024}},{"attributes":{"ID":188439,"DIS_CODE":0,"TOWNNAME":"安南區","LI":"海南里","LIN":"5鄰","STREET":"府安路","SECT":"六段","MAREA":" ","LANE":"１０３巷","ALLEY":"６３弄","HOUSE_NO":"２０號","E_COORD97":166629.42999999999,"N_COORD97":2546624.3399999999,"ADDRESS":"府安路六段１０３巷６３弄２０號","OBJECTID":188438},"geometry":{"x":166629.4299999997,"y":2546624.3399999999}},{"attributes":{"ID":188440,"DIS_CODE":0,"TOWNNAME":"安南區","LI":"海南里","LIN":"5鄰","STREET":"府安路","SECT":"六段","MAREA":" ","LANE":"１０３巷","ALLEY":"６３弄","HOUSE_NO":"２４號","E_COORD97":166616.20000000001,"N_COORD97":2546620.7400000002,"ADDRESS":"府安路六段１０３巷６３弄２４號","OBJECTID":188439},"geometry":{"x":166616.20000000019,"y":2546620.7400000021}},{"attributes":{"ID":188441,"DIS_CODE":0,"TOWNNAME":"安南區","LI":"海南里","LIN":"5鄰","STREET":"府安路","SECT":"六段","MAREA":" ","LANE":"１０３巷","ALLEY":"６３弄","HOUSE_NO":"３２號","E_COORD97":166589.91,"N_COORD97":2546612.4700000002,"ADDRESS":"府安路六段１０３巷６３弄３２號","OBJECTID":188440},"geometry":{"x":166589.91000000015,"y":2546612.4700000025}},{"attributes":{"ID":188442,"DIS_CODE":0,"TOWNNAME":"安南區","LI":"海南里","LIN":"5鄰","STREET":"府安路","SECT":"六段","MAREA":" ","LANE":"１０３巷","ALLEY":"６３弄","HOUSE_NO":"３６號","E_COORD97":166576.98000000001,"N_COORD97":2546610.9100000001,"ADDRESS":"府安路六段１０３巷６３弄３６號","OBJECTID":188441},"geometry":{"x":166576.98000000138,"y":2546610.9100000001}},{"attributes":{"ID":188443,"DIS_CODE":0,"TOWNNAME":"安南區","LI":"國安里","LIN":"5鄰","STREET":"國安街","SECT":" ","MAREA":" ","LANE":"１５６巷","ALLEY":"１７１弄","HOUSE_NO":"１５號","E_COORD97":166605.63,"N_COORD97":2547410.96,"ADDRESS":"國安街１５６巷１７１弄１５號","OBJECTID":188442},"geometry":{"x":166605.63000000082,"y":2547410.9600000009}},{"attributes":{"ID":188444,"DIS_CODE":0,"TOWNNAME":"安南區","LI":"國安里","LIN":"5鄰","STREET":"國安街","SECT":" ","MAREA":" ","LANE":"１５６巷","ALLEY":"１７１弄","HOUSE_NO":"１７號","E_COORD97":166602.04999999999,"N_COORD97":2547407.4500000002,"ADDRESS":"國安街１５６巷１７１弄１７號","OBJECTID":188443},"geometry":{"x":166602.04999999981,"y":2547407.450000003}},{"attributes":{"ID":188445,"DIS_CODE":0,"TOWNNAME":"安南區","LI":"國安里","LIN":"5鄰","STREET":"國安街","SECT":" ","MAREA":" ","LANE":"１５６巷","ALLEY":"１７１弄","HOUSE_NO":"１８號","E_COORD97":166596.78,"N_COORD97":2547436.2999999998,"ADDRESS":"國安街１５６巷１７１弄１８號","OBJECTID":188444},"geometry":{"x":166596.78000000119,"y":2547436.3000000007}},{"attributes":{"ID":188446,"DIS_CODE":0,"TOWNNAME":"安南區","LI":"國安里","LIN":"5鄰","STREET":"國安街","SECT":" ","MAREA":" ","LANE":"１５６巷","ALLEY":"１７１弄","HOUSE_NO":"１９號","E_COORD97":166597.47,"N_COORD97":2547409.04,"ADDRESS":"國安街１５６巷１７１弄１９號","OBJECTID":188445},"geometry":{"x":166597.46999999974,"y":2547409.0399999991}},{"attributes":{"ID":188447,"DIS_CODE":0,"TOWNNAME":"安南區","LI":"國安里","LIN":"5鄰","STREET":"國安街","SECT":" ","MAREA":" ","LANE":"１５６巷","ALLEY":"１７１弄","HOUSE_NO":"２０號","E_COORD97":166593.62,"N_COORD97":2547431.3599999999,"ADDRESS":"國安街１５６巷１７１弄２０號","OBJECTID":188446},"geometry":{"x":166593.61999999918,"y":2547431.3599999994}},{"attributes":{"ID":188448,"DIS_CODE":0,"TOWNNAME":"安南區","LI":"國安里","LIN":"5鄰","STREET":"國安街","SECT":" ","MAREA":" ","LANE":"１５６巷","ALLEY":"１７１弄","HOUSE_NO":"２３號","E_COORD97":166589.23999999999,"N_COORD97":2547408.04,"ADDRESS":"國安街１５６巷１７１弄２３號","OBJECTID":188447},"geometry":{"x":166589.24000000022,"y":2547408.040000001}},{"attributes":{"ID":188449,"DIS_CODE":0,"TOWNNAME":"仁德區","LI":"仁愛里","LIN":"21鄰","STREET":" ","SECT":" ","MAREA":"仁愛","LANE":" ","ALLEY":" ","HOUSE_NO":"４５０號","E_COORD97":170129.26385300001,"N_COORD97":2540111.3273100001,"ADDRESS":"仁愛４５０號","OBJECTID":188448},"geometry":{"x":170129.26385300048,"y":2540111.3273060024}},{"attributes":{"ID":188450,"DIS_CODE":0,"TOWNNAME":"白河區","LI":"仙草里","LIN":"21鄰","STREET":" ","SECT":" ","MAREA":"仙草","LANE":" ","ALLEY":" ","HOUSE_NO":"１７５號","E_COORD97":196773.48999999999,"N_COORD97":2582262.3399999999,"ADDRESS":"仙草１７５號","OBJECTID":188449},"geometry":{"x":196773.49000000022,"y":2582262.3400000017}},{"attributes":{"ID":188451,"DIS_CODE":0,"TOWNNAME":"白河區","LI":"仙草里","LIN":"21鄰","STREET":" ","SECT":" ","MAREA":"仙草","LANE":" ","ALLEY":" ","HOUSE_NO":"１６７號","E_COORD97":196778.07999999999,"N_COORD97":2582278.4700000002,"ADDRESS":"仙草１６７號","OBJECTID":188450},"geometry":{"x":196778.08000000007,"y":2582278.4700000007}},{"attributes":{"ID":188452,"DIS_CODE":0,"TOWNNAME":"白河區","LI":"仙草里","LIN":"21鄰","STREET":" ","SECT":" ","MAREA":"仙草","LANE":" ","ALLEY":" ","HOUSE_NO":"１６８號","E_COORD97":196774.32000000001,"N_COORD97":2582270.1400000001,"ADDRESS":"仙草１６８號","OBJECTID":188451},"geometry":{"x":196774.32000000123,"y":2582270.1400000006}},{"attributes":{"ID":188453,"DIS_CODE":0,"TOWNNAME":"白河區","LI":"仙草里","LIN":"21鄰","STREET":" ","SECT":" ","MAREA":"仙草","LANE":" ","ALLEY":" ","HOUSE_NO":"１６９號","E_COORD97":196785.32999999999,"N_COORD97":2582254.29,"ADDRESS":"仙草１６９號","OBJECTID":188452},"geometry":{"x":196785.33000000194,"y":2582254.2899999991}},{"attributes":{"ID":188454,"DIS_CODE":0,"TOWNNAME":"白河區","LI":"仙草里","LIN":"21鄰","STREET":" ","SECT":" ","MAREA":"仙草","LANE":" ","ALLEY":" ","HOUSE_NO":"１７０號","E_COORD97":196780.37,"N_COORD97":2582261.4199999999,"ADDRESS":"仙草１７０號","OBJECTID":188453},"geometry":{"x":196780.37000000104,"y":2582261.4200000037}},{"attributes":{"ID":188455,"DIS_CODE":0,"TOWNNAME":"白河區","LI":"仙草里","LIN":"21鄰","STREET":" ","SECT":" ","MAREA":"仙草","LANE":" ","ALLEY":" ","HOUSE_NO":"１７２號","E_COORD97":196759.10999999999,"N_COORD97":2582265.8700000001,"ADDRESS":"仙草１７２號","OBJECTID":188454},"geometry":{"x":196759.11000000034,"y":2582265.870000001}},{"attributes":{"ID":188456,"DIS_CODE":0,"TOWNNAME":"白河區","LI":"仙草里","LIN":"21鄰","STREET":" ","SECT":" ","MAREA":"仙草","LANE":" ","ALLEY":" ","HOUSE_NO":"１７３號","E_COORD97":196761.17999999999,"N_COORD97":2582269.8799999999,"ADDRESS":"仙草１７３號","OBJECTID":188455},"geometry":{"x":196761.18000000063,"y":2582269.879999999}},{"attributes":{"ID":188457,"DIS_CODE":0,"TOWNNAME":"白河區","LI":"仙草里","LIN":"21鄰","STREET":" ","SECT":" ","MAREA":"仙草","LANE":" ","ALLEY":" ","HOUSE_NO":"１７９號","E_COORD97":196761.04000000001,"N_COORD97":2582248.1200000001,"ADDRESS":"仙草１７９號","OBJECTID":188456},"geometry":{"x":196761.04000000004,"y":2582248.1200000029}},{"attributes":{"ID":188458,"DIS_CODE":0,"TOWNNAME":"白河區","LI":"仙草里","LIN":"21鄰","STREET":" ","SECT":" ","MAREA":"仙草","LANE":" ","ALLEY":" ","HOUSE_NO":"１８０號","E_COORD97":196766.16,"N_COORD97":2582266.3300000001,"ADDRESS":"仙草１８０號","OBJECTID":188457},"geometry":{"x":196766.16000000201,"y":2582266.3300000019}},{"attributes":{"ID":188459,"DIS_CODE":0,"TOWNNAME":"安南區","LI":"國安里","LIN":"5鄰","STREET":"國安街","SECT":" ","MAREA":" ","LANE":"１５６巷","ALLEY":"１７１弄","HOUSE_NO":"２８號","E_COORD97":166576.92999999999,"N_COORD97":2547429.0499999998,"ADDRESS":"國安街１５６巷１７１弄２８號","OBJECTID":188458},"geometry":{"x":166576.9299999997,"y":2547429.0500000026}},{"attributes":{"ID":188460,"DIS_CODE":0,"TOWNNAME":"白河區","LI":"仙草里","LIN":"21鄰","STREET":" ","SECT":" ","MAREA":"仙草","LANE":" ","ALLEY":" ","HOUSE_NO":"１８２號","E_COORD97":196758.82999999999,"N_COORD97":2582238.04,"ADDRESS":"仙草１８２號","OBJECTID":188459},"geometry":{"x":196758.83000000101,"y":2582238.0399999991}},{"attributes":{"ID":188461,"DIS_CODE":0,"TOWNNAME":"白河區","LI":"仙草里","LIN":"21鄰","STREET":" ","SECT":" ","MAREA":"仙草","LANE":" ","ALLEY":" ","HOUSE_NO":"１８３號","E_COORD97":196749.59,"N_COORD97":2582249.5699999998,"ADDRESS":"仙草１８３號","OBJECTID":188460},"geometry":{"x":196749.59000000078,"y":2582249.5700000003}},{"attributes":{"ID":188462,"DIS_CODE":0,"TOWNNAME":"白河區","LI":"仙草里","LIN":"21鄰","STREET":" ","SECT":" ","MAREA":"仙草","LANE":" ","ALLEY":" ","HOUSE_NO":"１８４號","E_COORD97":196739.59,"N_COORD97":2582241.8500000001,"ADDRESS":"仙草１８４號","OBJECTID":188461},"geometry":{"x":196739.59000000078,"y":2582241.8500000015}},{"attributes":{"ID":188463,"DIS_CODE":0,"TOWNNAME":"白河區","LI":"仙草里","LIN":"21鄰","STREET":" ","SECT":" ","MAREA":"仙草","LANE":" ","ALLEY":" ","HOUSE_NO":"１８５號","E_COORD97":196780.51999999999,"N_COORD97":2582240.3700000001,"ADDRESS":"仙草１８５號","OBJECTID":188462},"geometry":{"x":196780.52000000048,"y":2582240.3700000029}},{"attributes":{"ID":188464,"DIS_CODE":0,"TOWNNAME":"安南區","LI":"國安里","LIN":"5鄰","STREET":"國安街","SECT":" ","MAREA":" ","LANE":"１５６巷","ALLEY":"１７１弄","HOUSE_NO":"３４號","E_COORD97":166563.78,"N_COORD97":2547430.6699999999,"ADDRESS":"國安街１５６巷１７１弄３４號","OBJECTID":188463},"geometry":{"x":166563.78000000026,"y":2547430.6700000018}},{"attributes":{"ID":188465,"DIS_CODE":0,"TOWNNAME":"安南區","LI":"國安里","LIN":"5鄰","STREET":"國安街","SECT":" ","MAREA":" ","LANE":"１５６巷","ALLEY":"１７１弄","HOUSE_NO":"６號","E_COORD97":166623.89000000001,"N_COORD97":2547436.0899999999,"ADDRESS":"國安街１５６巷１７１弄６號","OBJECTID":188464},"geometry":{"x":166623.8900000006,"y":2547436.0899999999}},{"attributes":{"ID":188466,"DIS_CODE":0,"TOWNNAME":"安南區","LI":"淵西里","LIN":"5鄰","STREET":"安中路","SECT":"四段","MAREA":" ","LANE":"３２０巷","ALLEY":"１４１弄","HOUSE_NO":"１１號","E_COORD97":164757.57000000001,"N_COORD97":2550388.4700000002,"ADDRESS":"安中路四段３２０巷１４１弄１１號","OBJECTID":188465},"geometry":{"x":164757.5700000003,"y":2550388.4700000007}},{"attributes":{"ID":188467,"DIS_CODE":0,"TOWNNAME":"安定區","LI":"安加里","LIN":"11鄰","STREET":" ","SECT":" ","MAREA":"安定","LANE":" ","ALLEY":" ","HOUSE_NO":"２８３號","E_COORD97":171624.62,"N_COORD97":2557398.3199999998,"ADDRESS":"安定２８３號","OBJECTID":188466},"geometry":{"x":171624.62000000011,"y":2557398.3200000022}},{"attributes":{"ID":188468,"DIS_CODE":0,"TOWNNAME":"安南區","LI":"淵西里","LIN":"5鄰","STREET":"安中路","SECT":"四段","MAREA":" ","LANE":"３２０巷","ALLEY":"１４１弄","HOUSE_NO":"２５號","E_COORD97":164786.44,"N_COORD97":2550391.6400000001,"ADDRESS":"安中路四段３２０巷１４１弄２５號","OBJECTID":188467},"geometry":{"x":164786.44000000227,"y":2550391.6400000025}},{"attributes":{"ID":188469,"DIS_CODE":0,"TOWNNAME":"新市區","LI":"新和里","LIN":"21鄰","STREET":"中正路","SECT":" ","MAREA":" ","LANE":" ","ALLEY":" ","HOUSE_NO":"１６６號","E_COORD97":177408.37,"N_COORD97":2552702.25,"ADDRESS":"中正路１６６號","OBJECTID":188468},"geometry":{"x":177408.37000000011,"y":2552702.2500000019}},{"attributes":{"ID":188470,"DIS_CODE":0,"TOWNNAME":"麻豆區","LI":"港尾里","LIN":"11鄰","STREET":" ","SECT":" ","MAREA":"營後","LANE":" ","ALLEY":" ","HOUSE_NO":"９號之６","E_COORD97":168177.25,"N_COORD97":2568126.8599999999,"ADDRESS":"營後９號之６","OBJECTID":188469},"geometry":{"x":168177.25,"y":2568126.8600000031}},{"attributes":{"ID":188471,"DIS_CODE":0,"TOWNNAME":"麻豆區","LI":"港尾里","LIN":"11鄰","STREET":" ","SECT":" ","MAREA":"營後","LANE":" ","ALLEY":" ","HOUSE_NO":"９號之７","E_COORD97":167713.20000000001,"N_COORD97":2567879.1400000001,"ADDRESS":"營後９號之７","OBJECTID":188470},"geometry":{"x":167713.20000000019,"y":2567879.1400000025}},{"attributes":{"ID":188472,"DIS_CODE":0,"TOWNNAME":"麻豆區","LI":"港尾里","LIN":"11鄰","STREET":" ","SECT":" ","MAREA":"營後","LANE":" ","ALLEY":" ","HOUSE_NO":"９號之８","E_COORD97":167731.45999999999,"N_COORD97":2567973.3100000001,"ADDRESS":"營後９號之８","OBJECTID":188471},"geometry":{"x":167731.45999999996,"y":2567973.3100000024}},{"attributes":{"ID":188473,"DIS_CODE":0,"TOWNNAME":"南區","LI":"文華里","LIN":"22鄰","STREET":"德南街","SECT":" ","MAREA":" ","LANE":" ","ALLEY":" ","HOUSE_NO":"９８號","E_COORD97":166682.70999999999,"N_COORD97":2542983.4500000002,"ADDRESS":"德南街９８號","OBJECTID":188472},"geometry":{"x":166682.70999999903,"y":2542983.4500000011}},{"attributes":{"ID":188474,"DIS_CODE":0,"TOWNNAME":"永康區","LI":"正強里","LIN":"21鄰","STREET":"中正路","SECT":" ","MAREA":" ","LANE":" ","ALLEY":" ","HOUSE_NO":"１２１號","E_COORD97":173430.20000000001,"N_COORD97":2547851.7400000002,"ADDRESS":"中正路１２１號","OBJECTID":188473},"geometry":{"x":173430.20000000112,"y":2547851.7400000021}},{"attributes":{"ID":188475,"DIS_CODE":0,"TOWNNAME":"新市區","LI":"新和里","LIN":"21鄰","STREET":"中正路","SECT":" ","MAREA":" ","LANE":" ","ALLEY":" ","HOUSE_NO":"８２之９號","E_COORD97":177489.07000000001,"N_COORD97":2552441.2999999998,"ADDRESS":"中正路８２之９號","OBJECTID":188474},"geometry":{"x":177489.0700000003,"y":2552441.3000000045}},{"attributes":{"ID":188476,"DIS_CODE":0,"TOWNNAME":"麻豆區","LI":"港尾里","LIN":"11鄰","STREET":" ","SECT":" ","MAREA":"營後","LANE":" ","ALLEY":" ","HOUSE_NO":"９號之９","E_COORD97":168096.09,"N_COORD97":2568072.1000000001,"ADDRESS":"營後９號之９","OBJECTID":188475},"geometry":{"x":168096.09000000078,"y":2568072.1000000015}},{"attributes":{"ID":188477,"DIS_CODE":0,"TOWNNAME":"麻豆區","LI":"港尾里","LIN":"11鄰","STREET":" ","SECT":" ","MAREA":"營後","LANE":" ","ALLEY":" ","HOUSE_NO":"９號","E_COORD97":167876.34,"N_COORD97":2567645.6000000001,"ADDRESS":"營後９號","OBJECTID":188476},"geometry":{"x":167876.33999999985,"y":2567645.6000000015}},{"attributes":{"ID":188478,"DIS_CODE":0,"TOWNNAME":"麻豆區","LI":"中民里","LIN":"11鄰","STREET":" ","SECT":" ","MAREA":"謝厝寮","LANE":" ","ALLEY":" ","HOUSE_NO":"１８５號","E_COORD97":171669.92999999999,"N_COORD97":2561380.2400000002,"ADDRESS":"謝厝寮１８５號","OBJECTID":188477},"geometry":{"x":171669.93000000156,"y":2561380.2400000002}},{"attributes":{"ID":188479,"DIS_CODE":0,"TOWNNAME":"新市區","LI":"新和里","LIN":"21鄰","STREET":"中正路","SECT":" ","MAREA":" ","LANE":" ","ALLEY":" ","HOUSE_NO":"１４６號","E_COORD97":177401.70999999999,"N_COORD97":2552651,"ADDRESS":"中正路１４６號","OBJECTID":188478},"geometry":{"x":177401.71000000089,"y":2552651.0000000019}},{"attributes":{"ID":188480,"DIS_CODE":0,"TOWNNAME":"麻豆區","LI":"中民里","LIN":"11鄰","STREET":" ","SECT":" ","MAREA":"謝厝寮","LANE":" ","ALLEY":" ","HOUSE_NO":"１８６號","E_COORD97":171693.32999999999,"N_COORD97":2561391.1299999999,"ADDRESS":"謝厝寮１８６號","OBJECTID":188479},"geometry":{"x":171693.33000000101,"y":2561391.1300000027}},{"attributes":{"ID":188481,"DIS_CODE":0,"TOWNNAME":"新市區","LI":"新和里","LIN":"21鄰","STREET":"中正路","SECT":" ","MAREA":" ","LANE":" ","ALLEY":" ","HOUSE_NO":"８２之１１號","E_COORD97":177494.82000000001,"N_COORD97":2552442.5499999998,"ADDRESS":"中正路８２之１１號","OBJECTID":188480},"geometry":{"x":177494.82000000123,"y":2552442.5500000007}},{"attributes":{"ID":188482,"DIS_CODE":0,"TOWNNAME":"新市區","LI":"新和里","LIN":"21鄰","STREET":"中正路","SECT":" ","MAREA":" ","LANE":" ","ALLEY":" ","HOUSE_NO":"１１８號","E_COORD97":177413.48999999999,"N_COORD97":2552574.25,"ADDRESS":"中正路１１８號","OBJECTID":188481},"geometry":{"x":177413.49000000209,"y":2552574.2500000019}},{"attributes":{"ID":188483,"DIS_CODE":0,"TOWNNAME":"麻豆區","LI":"中民里","LIN":"11鄰","STREET":" ","SECT":" ","MAREA":"謝厝寮","LANE":" ","ALLEY":" ","HOUSE_NO":"１８７號","E_COORD97":171659.29999999999,"N_COORD97":2561365.7400000002,"ADDRESS":"謝厝寮１８７號","OBJECTID":188482},"geometry":{"x":171659.30000000075,"y":2561365.7400000021}},{"attributes":{"ID":188484,"DIS_CODE":0,"TOWNNAME":"麻豆區","LI":"中民里","LIN":"11鄰","STREET":" ","SECT":" ","MAREA":"謝厝寮","LANE":" ","ALLEY":" ","HOUSE_NO":"１８８號","E_COORD97":171642.56,"N_COORD97":2561334.3399999999,"ADDRESS":"謝厝寮１８８號","OBJECTID":188483},"geometry":{"x":171642.56000000052,"y":2561334.3400000017}},{"attributes":{"ID":188485,"DIS_CODE":0,"TOWNNAME":"安南區","LI":"淵東里","LIN":"5鄰","STREET":"本原街","SECT":"三段","MAREA":" ","LANE":"２３４巷","ALLEY":"３４弄","HOUSE_NO":"３９號","E_COORD97":165439.32999999999,"N_COORD97":2550433.5899999999,"ADDRESS":"本原街三段２３４巷３４弄３９號","OBJECTID":188484},"geometry":{"x":165439.33000000007,"y":2550433.5899999999}},{"attributes":{"ID":188486,"DIS_CODE":0,"TOWNNAME":"新市區","LI":"新和里","LIN":"21鄰","STREET":"中正路","SECT":" ","MAREA":" ","LANE":" ","ALLEY":" ","HOUSE_NO":"１７６號","E_COORD97":177411.12,"N_COORD97":2552722.5,"ADDRESS":"中正路１７６號","OBJECTID":188485},"geometry":{"x":177411.12000000104,"y":2552722.5}},{"attributes":{"ID":188487,"DIS_CODE":0,"TOWNNAME":"安南區","LI":"頂安里","LIN":"5鄰","STREET":"長溪路","SECT":"一段","MAREA":" ","LANE":"４０６巷","ALLEY":"５５弄","HOUSE_NO":"３２號","E_COORD97":168575.87,"N_COORD97":2549150.2599999998,"ADDRESS":"長溪路一段４０６巷５５弄３２號","OBJECTID":188486},"geometry":{"x":168575.87000000104,"y":2549150.2599999998}},{"attributes":{"ID":188488,"DIS_CODE":0,"TOWNNAME":"安南區","LI":"頂安里","LIN":"5鄰","STREET":"長溪路","SECT":"一段","MAREA":" ","LANE":"４０６巷","ALLEY":"５５弄","HOUSE_NO":"３號","E_COORD97":168645.70000000001,"N_COORD97":2549122.96,"ADDRESS":"長溪路一段４０６巷５５弄３號","OBJECTID":188487},"geometry":{"x":168645.70000000019,"y":2549122.9600000009}},{"attributes":{"ID":188489,"DIS_CODE":0,"TOWNNAME":"麻豆區","LI":"中民里","LIN":"11鄰","STREET":" ","SECT":" ","MAREA":"謝厝寮","LANE":" ","ALLEY":" ","HOUSE_NO":"１８９號之１","E_COORD97":171637.22,"N_COORD97":2561307.8500000001,"ADDRESS":"謝厝寮１８９號之１","OBJECTID":188488},"geometry":{"x":171637.21999999974,"y":2561307.8499999996}},{"attributes":{"ID":188490,"DIS_CODE":0,"TOWNNAME":"麻豆區","LI":"中民里","LIN":"11鄰","STREET":" ","SECT":" ","MAREA":"謝厝寮","LANE":" ","ALLEY":" ","HOUSE_NO":"１８９號","E_COORD97":171637.01999999999,"N_COORD97":2561325.6200000001,"ADDRESS":"謝厝寮１８９號","OBJECTID":188489},"geometry":{"x":171637.02000000142,"y":2561325.6200000048}},{"attributes":{"ID":188491,"DIS_CODE":0,"TOWNNAME":"麻豆區","LI":"中民里","LIN":"11鄰","STREET":" ","SECT":" ","MAREA":"謝厝寮","LANE":" ","ALLEY":" ","HOUSE_NO":"１９０號","E_COORD97":171659.84,"N_COORD97":2561330.8900000001,"ADDRESS":"謝厝寮１９０號","OBJECTID":188490},"geometry":{"x":171659.83999999985,"y":2561330.8900000025}},{"attributes":{"ID":188492,"DIS_CODE":0,"TOWNNAME":"麻豆區","LI":"中民里","LIN":"11鄰","STREET":" ","SECT":" ","MAREA":"謝厝寮","LANE":" ","ALLEY":" ","HOUSE_NO":"１９１號","E_COORD97":171678.54000000001,"N_COORD97":2561366.5699999998,"ADDRESS":"謝厝寮１９１號","OBJECTID":188491},"geometry":{"x":171678.54000000097,"y":2561366.5700000022}},{"attributes":{"ID":188493,"DIS_CODE":0,"TOWNNAME":"麻豆區","LI":"中民里","LIN":"11鄰","STREET":" ","SECT":" ","MAREA":"謝厝寮","LANE":" ","ALLEY":" ","HOUSE_NO":"１９２號之１０","E_COORD97":171701.94,"N_COORD97":2561335.4100000001,"ADDRESS":"謝厝寮１９２號之１０","OBJECTID":188492},"geometry":{"x":171701.94000000134,"y":2561335.4100000001}},{"attributes":{"ID":188494,"DIS_CODE":0,"TOWNNAME":"麻豆區","LI":"中民里","LIN":"11鄰","STREET":" ","SECT":" ","MAREA":"謝厝寮","LANE":" ","ALLEY":" ","HOUSE_NO":"１９２號之１１","E_COORD97":171718.28,"N_COORD97":2561301.1899999999,"ADDRESS":"謝厝寮１９２號之１１","OBJECTID":188493},"geometry":{"x":171718.28000000026,"y":2561301.1900000013}},{"attributes":{"ID":188495,"DIS_CODE":0,"TOWNNAME":"麻豆區","LI":"中民里","LIN":"11鄰","STREET":" ","SECT":" ","MAREA":"謝厝寮","LANE":" ","ALLEY":" ","HOUSE_NO":"１９２號之１２","E_COORD97":171716.20999999999,"N_COORD97":2561308.8399999999,"ADDRESS":"謝厝寮１９２號之１２","OBJECTID":188494},"geometry":{"x":171716.21000000089,"y":2561308.8399999999}},{"attributes":{"ID":188496,"DIS_CODE":0,"TOWNNAME":"麻豆區","LI":"中民里","LIN":"11鄰","STREET":" ","SECT":" ","MAREA":"謝厝寮","LANE":" ","ALLEY":" ","HOUSE_NO":"１９２號之１","E_COORD97":171711.48999999999,"N_COORD97":2561335.5800000001,"ADDRESS":"謝厝寮１９２號之１","OBJECTID":188495},"geometry":{"x":171711.49000000115,"y":2561335.5800000019}},{"attributes":{"ID":188497,"DIS_CODE":0,"TOWNNAME":"麻豆區","LI":"中民里","LIN":"11鄰","STREET":" ","SECT":" ","MAREA":"謝厝寮","LANE":" ","ALLEY":" ","HOUSE_NO":"１９２號之２０","E_COORD97":171742.12,"N_COORD97":2561485.8700000001,"ADDRESS":"謝厝寮１９２號之２０","OBJECTID":188496},"geometry":{"x":171742.12000000197,"y":2561485.870000001}},{"attributes":{"ID":188498,"DIS_CODE":0,"TOWNNAME":"安定區","LI":"管寮里","LIN":"11鄰","STREET":" ","SECT":" ","MAREA":"管寮","LANE":" ","ALLEY":" ","HOUSE_NO":"９９號","E_COORD97":169934.26678400001,"N_COORD97":2556399.57999,"ADDRESS":"管寮９９號","OBJECTID":188497},"geometry":{"x":169934.26678400021,"y":2556399.5799890012}},{"attributes":{"ID":188499,"DIS_CODE":0,"TOWNNAME":"安定區","LI":"管寮里","LIN":"11鄰","STREET":" ","SECT":" ","MAREA":"管寮","LANE":" ","ALLEY":" ","HOUSE_NO":"１０３號","E_COORD97":169979.98999999999,"N_COORD97":2556386.25,"ADDRESS":"管寮１０３號","OBJECTID":188498},"geometry":{"x":169979.99000000209,"y":2556386.25}},{"attributes":{"ID":188500,"DIS_CODE":0,"TOWNNAME":"安定區","LI":"新吉里","LIN":"11鄰","STREET":" ","SECT":" ","MAREA":"新吉","LANE":" ","ALLEY":" ","HOUSE_NO":"９３號之５","E_COORD97":169273.95999999999,"N_COORD97":2553905.2999999998,"ADDRESS":"新吉９３號之５","OBJECTID":188499},"geometry":{"x":169273.95999999996,"y":2553905.3000000007}},{"attributes":{"ID":188501,"DIS_CODE":0,"TOWNNAME":"安定區","LI":"新吉里","LIN":"11鄰","STREET":" ","SECT":" ","MAREA":"新吉","LANE":" ","ALLEY":" ","HOUSE_NO":"９８之４號","E_COORD97":169357.76999999999,"N_COORD97":2553934.2999999998,"ADDRESS":"新吉９８之４號","OBJECTID":188500},"geometry":{"x":169357.77000000048,"y":2553934.3000000026}},{"attributes":{"ID":188502,"DIS_CODE":0,"TOWNNAME":"安南區","LI":"溪心里","LIN":"5鄰","STREET":"本原街","SECT":"二段","MAREA":" ","LANE":"１０６巷","ALLEY":"５９弄","HOUSE_NO":"５號","E_COORD97":166896.47,"N_COORD97":2550919.8599999999,"ADDRESS":"本原街二段１０６巷５９弄５號","OBJECTID":188501},"geometry":{"x":166896.47000000067,"y":2550919.8599999994}},{"attributes":{"ID":188503,"DIS_CODE":0,"TOWNNAME":"安南區","LI":"學東里","LIN":"5鄰","STREET":"公學路","SECT":"六段","MAREA":" ","LANE":"４６９巷","ALLEY":"５０弄","HOUSE_NO":"１１號","E_COORD97":162593.84,"N_COORD97":2553134.6899999999,"ADDRESS":"公學路六段４６９巷５０弄１１號","OBJECTID":188502},"geometry":{"x":162593.83999999985,"y":2553134.6899999995}},{"attributes":{"ID":188504,"DIS_CODE":0,"TOWNNAME":"永康區","LI":"崑山里","LIN":"5鄰","STREET":"崑大路","SECT":" ","MAREA":" ","LANE":"１５５巷","ALLEY":"７９弄","HOUSE_NO":"５號","E_COORD97":173631.76000000001,"N_COORD97":2544060.5899999999,"ADDRESS":"崑大路１５５巷７９弄５號","OBJECTID":188503},"geometry":{"x":173631.75999999978,"y":2544060.589999998}},{"attributes":{"ID":188505,"DIS_CODE":0,"TOWNNAME":"永康區","LI":"崑山里","LIN":"5鄰","STREET":"崑大路","SECT":" ","MAREA":" ","LANE":"１５５巷","ALLEY":"７９弄","HOUSE_NO":"１８號","E_COORD97":173669,"N_COORD97":2544064.5499999998,"ADDRESS":"崑大路１５５巷７９弄１８號","OBJECTID":188504},"geometry":{"x":173669.00000000093,"y":2544064.5500000007}},{"attributes":{"ID":188506,"DIS_CODE":0,"TOWNNAME":"永康區","LI":"中華里","LIN":"5鄰","STREET":"小東路","SECT":" ","MAREA":" ","LANE":"６４７巷","ALLEY":"３６弄","HOUSE_NO":"２２號","E_COORD97":172011.23999999999,"N_COORD97":2544466.3399999999,"ADDRESS":"小東路６４７巷３６弄２２號","OBJECTID":188505},"geometry":{"x":172011.24000000115,"y":2544466.3400000017}},{"attributes":{"ID":188507,"DIS_CODE":0,"TOWNNAME":"永康區","LI":"甲頂里","LIN":"5鄰","STREET":"中正南路","SECT":" ","MAREA":" ","LANE":"１６８巷","ALLEY":"２弄","HOUSE_NO":"６２號","E_COORD97":169871.31,"N_COORD97":2546885.9900000002,"ADDRESS":"中正南路１６８巷２弄６２號","OBJECTID":188506},"geometry":{"x":169871.30999999959,"y":2546885.9900000039}},{"attributes":{"ID":188508,"DIS_CODE":0,"TOWNNAME":"永康區","LI":"崑山里","LIN":"5鄰","STREET":"崑大路","SECT":" ","MAREA":" ","LANE":"１巷","ALLEY":" ","HOUSE_NO":"８８號","E_COORD97":173733.56,"N_COORD97":2544183.8199999998,"ADDRESS":"崑大路１巷８８號","OBJECTID":188507},"geometry":{"x":173733.55999999866,"y":2544183.8200000003}},{"attributes":{"ID":188509,"DIS_CODE":0,"TOWNNAME":"永康區","LI":"崑山里","LIN":"5鄰","STREET":"崑大路","SECT":" ","MAREA":" ","LANE":"１巷","ALLEY":" ","HOUSE_NO":"９５號","E_COORD97":173679.35999999999,"N_COORD97":2544112.96,"ADDRESS":"崑大路１巷９５號","OBJECTID":188508},"geometry":{"x":173679.36000000034,"y":2544112.9600000009}},{"attributes":{"ID":188510,"DIS_CODE":0,"TOWNNAME":"安定區","LI":"新吉里","LIN":"11鄰","STREET":" ","SECT":" ","MAREA":"新吉","LANE":" ","ALLEY":" ","HOUSE_NO":"９８之８號","E_COORD97":169355.47,"N_COORD97":2553954.2999999998,"ADDRESS":"新吉９８之８號","OBJECTID":188509},"geometry":{"x":169355.46999999974,"y":2553954.3000000026}},{"attributes":{"ID":188511,"DIS_CODE":0,"TOWNNAME":"安定區","LI":"新吉里","LIN":"11鄰","STREET":" ","SECT":" ","MAREA":"新吉","LANE":" ","ALLEY":" ","HOUSE_NO":"９８之２號","E_COORD97":169354.97,"N_COORD97":2553914.2999999998,"ADDRESS":"新吉９８之２號","OBJECTID":188510},"geometry":{"x":169354.96999999974,"y":2553914.3000000026}},{"attributes":{"ID":188512,"DIS_CODE":0,"TOWNNAME":"永康區","LI":"崑山里","LIN":"5鄰","STREET":"崑大路","SECT":" ","MAREA":" ","LANE":"１巷","ALLEY":" ","HOUSE_NO":"６１號","E_COORD97":173772.48000000001,"N_COORD97":2544136.3500000001,"ADDRESS":"崑大路１巷６１號","OBJECTID":188511},"geometry":{"x":173772.48000000231,"y":2544136.3499999996}},{"attributes":{"ID":188513,"DIS_CODE":0,"TOWNNAME":"永康區","LI":"崑山里","LIN":"5鄰","STREET":"崑大路","SECT":" ","MAREA":" ","LANE":"１５５巷","ALLEY":"７９弄","HOUSE_NO":"６號","E_COORD97":173636.20999999999,"N_COORD97":2544054.2999999998,"ADDRESS":"崑大路１５５巷７９弄６號","OBJECTID":188512},"geometry":{"x":173636.20999999996,"y":2544054.3000000026}},{"attributes":{"ID":188514,"DIS_CODE":0,"TOWNNAME":"永康區","LI":"崑山里","LIN":"5鄰","STREET":"崑大路","SECT":" ","MAREA":" ","LANE":"１５５巷","ALLEY":"７９弄","HOUSE_NO":"９號","E_COORD97":173644.92000000001,"N_COORD97":2544064.5899999999,"ADDRESS":"崑大路１５５巷７９弄９號","OBJECTID":188513},"geometry":{"x":173644.91999999993,"y":2544064.5900000017}},{"attributes":{"ID":188515,"DIS_CODE":0,"TOWNNAME":"永康區","LI":"崑山里","LIN":"5鄰","STREET":"崑大路","SECT":" ","MAREA":" ","LANE":"１５５巷","ALLEY":"７９弄","HOUSE_NO":"１３號","E_COORD97":173658.32999999999,"N_COORD97":2544068.8399999999,"ADDRESS":"崑大路１５５巷７９弄１３號","OBJECTID":188514},"geometry":{"x":173658.33000000101,"y":2544068.8399999999}},{"attributes":{"ID":188516,"DIS_CODE":0,"TOWNNAME":"永康區","LI":"崑山里","LIN":"5鄰","STREET":"崑大路","SECT":" ","MAREA":" ","LANE":"１巷","ALLEY":" ","HOUSE_NO":"１０６號","E_COORD97":173678.48999999999,"N_COORD97":2544161.6200000001,"ADDRESS":"崑大路１巷１０６號","OBJECTID":188515},"geometry":{"x":173678.49000000022,"y":2544161.6200000029}},{"attributes":{"ID":188517,"DIS_CODE":0,"TOWNNAME":"安南區","LI":"鹿耳里","LIN":"5鄰","STREET":"北汕尾二路","SECT":" ","MAREA":" ","LANE":"６６１巷","ALLEY":"１９弄","HOUSE_NO":"４０號","E_COORD97":160311.53,"N_COORD97":2548536.2599999998,"ADDRESS":"北汕尾二路６６１巷１９弄４０號","OBJECTID":188516},"geometry":{"x":160311.53000000026,"y":2548536.2600000016}},{"attributes":{"ID":188518,"DIS_CODE":0,"TOWNNAME":"安南區","LI":"鹿耳里","LIN":"5鄰","STREET":"北汕尾二路","SECT":" ","MAREA":" ","LANE":"６６１巷","ALLEY":"１９弄","HOUSE_NO":"４４號","E_COORD97":160299.97,"N_COORD97":2548538.4199999999,"ADDRESS":"北汕尾二路６６１巷１９弄４４號","OBJECTID":188517},"geometry":{"x":160299.96999999881,"y":2548538.4200000018}},{"attributes":{"ID":188519,"DIS_CODE":0,"TOWNNAME":"安南區","LI":"鹿耳里","LIN":"5鄰","STREET":"北汕尾二路","SECT":" ","MAREA":" ","LANE":"６６１巷","ALLEY":"１９弄","HOUSE_NO":"４８號","E_COORD97":160285.62,"N_COORD97":2548538.1600000001,"ADDRESS":"北汕尾二路６６１巷１９弄４８號","OBJECTID":188518},"geometry":{"x":160285.62000000011,"y":2548538.1600000001}},{"attributes":{"ID":188520,"DIS_CODE":0,"TOWNNAME":"安南區","LI":"鹿耳里","LIN":"5鄰","STREET":"北汕尾二路","SECT":" ","MAREA":" ","LANE":"６６１巷","ALLEY":"１９弄","HOUSE_NO":"５０號","E_COORD97":160278.38,"N_COORD97":2548537.6499999999,"ADDRESS":"北汕尾二路６６１巷１９弄５０號","OBJECTID":188519},"geometry":{"x":160278.37999999989,"y":2548537.6500000022}},{"attributes":{"ID":188521,"DIS_CODE":0,"TOWNNAME":"安定區","LI":"安定里","LIN":"11鄰","STREET":" ","SECT":" ","MAREA":"安定","LANE":" ","ALLEY":" ","HOUSE_NO":"８６之１號","E_COORD97":171989.17000000001,"N_COORD97":2557774.3199999998,"ADDRESS":"安定８６之１號","OBJECTID":188520},"geometry":{"x":171989.17000000086,"y":2557774.3200000022}},{"attributes":{"ID":188522,"DIS_CODE":0,"TOWNNAME":"安定區","LI":"管寮里","LIN":"11鄰","STREET":" ","SECT":" ","MAREA":"管寮","LANE":" ","ALLEY":" ","HOUSE_NO":"１００號","E_COORD97":169903.59,"N_COORD97":2556437.25,"ADDRESS":"管寮１００號","OBJECTID":188521},"geometry":{"x":169903.58999999985,"y":2556437.25}},{"attributes":{"ID":188523,"DIS_CODE":0,"TOWNNAME":"安定區","LI":"新吉里","LIN":"11鄰","STREET":" ","SECT":" ","MAREA":"新吉","LANE":" ","ALLEY":" ","HOUSE_NO":"９８號之１","E_COORD97":169350.67000000001,"N_COORD97":2553913.2999999998,"ADDRESS":"新吉９８之１號","OBJECTID":188522},"geometry":{"x":169350.66999999993,"y":2553913.3000000026}},{"attributes":{"ID":188524,"DIS_CODE":0,"TOWNNAME":"安定區","LI":"安加里","LIN":"11鄰","STREET":" ","SECT":" ","MAREA":"安定","LANE":" ","ALLEY":" ","HOUSE_NO":"２６７號","E_COORD97":171589.51999999999,"N_COORD97":2557387.3199999998,"ADDRESS":"安定２６７號","OBJECTID":188523},"geometry":{"x":171589.52000000142,"y":2557387.320000004}},{"attributes":{"ID":188525,"DIS_CODE":0,"TOWNNAME":"安定區","LI":"安加里","LIN":"11鄰","STREET":" ","SECT":" ","MAREA":"安定","LANE":" ","ALLEY":" ","HOUSE_NO":"２６８之６號","E_COORD97":171554.85999999999,"N_COORD97":2557382.3199999998,"ADDRESS":"安定２６８號之６","OBJECTID":188524},"geometry":{"x":171554.86000000127,"y":2557382.3200000003}},{"attributes":{"ID":188526,"DIS_CODE":0,"TOWNNAME":"安定區","LI":"管寮里","LIN":"11鄰","STREET":" ","SECT":" ","MAREA":"管寮","LANE":" ","ALLEY":" ","HOUSE_NO":"９８之２號","E_COORD97":169919.73999999999,"N_COORD97":2556369.2999999998,"ADDRESS":"管寮９８之２號","OBJECTID":188525},"geometry":{"x":169919.74000000115,"y":2556369.3000000007}},{"attributes":{"ID":188527,"DIS_CODE":0,"TOWNNAME":"安定區","LI":"六嘉里","LIN":"11鄰","STREET":" ","SECT":" ","MAREA":"六塊寮","LANE":" ","ALLEY":" ","HOUSE_NO":"９１之１號","E_COORD97":170366.01999999999,"N_COORD97":2553313.2999999998,"ADDRESS":"六塊寮９１之１號","OBJECTID":188526},"geometry":{"x":170366.02000000048,"y":2553313.3000000026}},{"attributes":{"ID":188528,"DIS_CODE":0,"TOWNNAME":"安定區","LI":"管寮里","LIN":"11鄰","STREET":" ","SECT":" ","MAREA":"管寮","LANE":" ","ALLEY":" ","HOUSE_NO":"９８號","E_COORD97":169905.44,"N_COORD97":2556378.25,"ADDRESS":"管寮９８號","OBJECTID":188527},"geometry":{"x":169905.44000000041,"y":2556378.2500000019}},{"attributes":{"ID":188529,"DIS_CODE":0,"TOWNNAME":"安定區","LI":"六嘉里","LIN":"11鄰","STREET":" ","SECT":" ","MAREA":"六塊寮","LANE":" ","ALLEY":" ","HOUSE_NO":"９１號","E_COORD97":170371.62,"N_COORD97":2553318.27,"ADDRESS":"六塊寮９１號","OBJECTID":188528},"geometry":{"x":170371.62000000011,"y":2553318.2700000033}},{"attributes":{"ID":188530,"DIS_CODE":0,"TOWNNAME":"安定區","LI":"安加里","LIN":"11鄰","STREET":" ","SECT":" ","MAREA":"安定","LANE":" ","ALLEY":" ","HOUSE_NO":"２６８號","E_COORD97":171553.12,"N_COORD97":2557357.3199999998,"ADDRESS":"安定２６８號","OBJECTID":188529},"geometry":{"x":171553.12000000011,"y":2557357.3200000022}},{"attributes":{"ID":188531,"DIS_CODE":0,"TOWNNAME":"安定區","LI":"新吉里","LIN":"11鄰","STREET":" ","SECT":" ","MAREA":"新吉","LANE":" ","ALLEY":" ","HOUSE_NO":"９７之２號","E_COORD97":169332.76999999999,"N_COORD97":2553911.2999999998,"ADDRESS":"新吉９７之２號","OBJECTID":188530},"geometry":{"x":169332.76999999955,"y":2553911.3000000007}},{"attributes":{"ID":188532,"DIS_CODE":0,"TOWNNAME":"安定區","LI":"港南里","LIN":"11鄰","STREET":" ","SECT":" ","MAREA":"港口","LANE":" ","ALLEY":" ","HOUSE_NO":"８４號之１","E_COORD97":171313.98000000001,"N_COORD97":2554328.2999999998,"ADDRESS":"港口８４號之１","OBJECTID":188531},"geometry":{"x":171313.98000000045,"y":2554328.3000000007}},{"attributes":{"ID":188533,"DIS_CODE":0,"TOWNNAME":"安定區","LI":"六嘉里","LIN":"11鄰","STREET":" ","SECT":" ","MAREA":"六塊寮","LANE":" ","ALLEY":" ","HOUSE_NO":"８６之５號","E_COORD97":170320.51999999999,"N_COORD97":2553257.2999999998,"ADDRESS":"六塊寮８６之５號","OBJECTID":188532},"geometry":{"x":170320.52000000048,"y":2553257.3000000007}},{"attributes":{"ID":188534,"DIS_CODE":0,"TOWNNAME":"安南區","LI":"鹿耳里","LIN":"5鄰","STREET":"北汕尾二路","SECT":" ","MAREA":" ","LANE":"６６１巷","ALLEY":"１９弄","HOUSE_NO":"５４號","E_COORD97":160266.06,"N_COORD97":2548537.02,"ADDRESS":"北汕尾二路６６１巷１９弄５４號","OBJECTID":188533},"geometry":{"x":160266.06000000052,"y":2548537.0200000014}},{"attributes":{"ID":188535,"DIS_CODE":0,"TOWNNAME":"安定區","LI":"管寮里","LIN":"11鄰","STREET":" ","SECT":" ","MAREA":"管寮","LANE":" ","ALLEY":" ","HOUSE_NO":"１０３號之１","E_COORD97":169971.53,"N_COORD97":2556384.2999999998,"ADDRESS":"管寮１０３號之１","OBJECTID":188534},"geometry":{"x":169971.53000000119,"y":2556384.3000000045}},{"attributes":{"ID":188536,"DIS_CODE":0,"TOWNNAME":"安定區","LI":"新吉里","LIN":"11鄰","STREET":" ","SECT":" ","MAREA":"新吉","LANE":" ","ALLEY":" ","HOUSE_NO":"９７號之１","E_COORD97":169326.989049,"N_COORD97":2553910.9309399999,"ADDRESS":"新吉９７號之１","OBJECTID":188535},"geometry":{"x":169326.98904900067,"y":2553910.9309410024}},{"attributes":{"ID":188537,"DIS_CODE":0,"TOWNNAME":"安定區","LI":"新吉里","LIN":"11鄰","STREET":" ","SECT":" ","MAREA":"新吉","LANE":" ","ALLEY":" ","HOUSE_NO":"９３號之１","E_COORD97":169265.47,"N_COORD97":2553904.2999999998,"ADDRESS":"新吉９３之１號","OBJECTID":188536},"geometry":{"x":169265.46999999974,"y":2553904.3000000007}},{"attributes":{"ID":188538,"DIS_CODE":0,"TOWNNAME":"安南區","LI":"鹿耳里","LIN":"5鄰","STREET":"北汕尾二路","SECT":" ","MAREA":" ","LANE":"６６１巷","ALLEY":"１９弄","HOUSE_NO":"５６號","E_COORD97":160258.69,"N_COORD97":2548537.02,"ADDRESS":"北汕尾二路６６１巷１９弄５６號","OBJECTID":188537},"geometry":{"x":160258.69000000227,"y":2548537.0200000014}},{"attributes":{"ID":188539,"DIS_CODE":0,"TOWNNAME":"安南區","LI":"鹿耳里","LIN":"5鄰","STREET":"北汕尾二路","SECT":" ","MAREA":" ","LANE":"６６１巷","ALLEY":"１９弄","HOUSE_NO":"５８號","E_COORD97":160252.98000000001,"N_COORD97":2548536.5099999998,"ADDRESS":"北汕尾二路６６１巷１９弄５８號","OBJECTID":188538},"geometry":{"x":160252.98000000045,"y":2548536.5100000035}},{"attributes":{"ID":188540,"DIS_CODE":0,"TOWNNAME":"安定區","LI":"新吉里","LIN":"11鄰","STREET":" ","SECT":" ","MAREA":"新吉","LANE":" ","ALLEY":" ","HOUSE_NO":"９８之９號","E_COORD97":169354.97,"N_COORD97":2553959.2999999998,"ADDRESS":"新吉９８之９號","OBJECTID":188539},"geometry":{"x":169354.96999999974,"y":2553959.3000000007}},{"attributes":{"ID":188541,"DIS_CODE":0,"TOWNNAME":"安定區","LI":"管寮里","LIN":"11鄰","STREET":" ","SECT":" ","MAREA":"管寮","LANE":" ","ALLEY":" ","HOUSE_NO":"１０１之２號","E_COORD97":169954.89000000001,"N_COORD97":2556400.2999999998,"ADDRESS":"管寮１０１之２號","OBJECTID":188540},"geometry":{"x":169954.8900000006,"y":2556400.3000000007}},{"attributes":{"ID":188542,"DIS_CODE":0,"TOWNNAME":"安定區","LI":"管寮里","LIN":"11鄰","STREET":" ","SECT":" ","MAREA":"管寮","LANE":" ","ALLEY":" ","HOUSE_NO":"１０４號","E_COORD97":169978.39000000001,"N_COORD97":2556367.25,"ADDRESS":"管寮１０４號","OBJECTID":188541},"geometry":{"x":169978.39000000153,"y":2556367.2500000019}},{"attributes":{"ID":188543,"DIS_CODE":0,"TOWNNAME":"仁德區","LI":"仁德里","LIN":"5鄰","STREET":"仁德四街","SECT":" ","MAREA":" ","LANE":"１２巷","ALLEY":"１５弄","HOUSE_NO":"１９號","E_COORD97":173188.53,"N_COORD97":2540872.79,"ADDRESS":"仁德四街１２巷１５弄１９號","OBJECTID":188542},"geometry":{"x":173188.53000000026,"y":2540872.790000001}},{"attributes":{"ID":188544,"DIS_CODE":0,"TOWNNAME":"安定區","LI":"新吉里","LIN":"11鄰","STREET":" ","SECT":" ","MAREA":"新吉","LANE":" ","ALLEY":" ","HOUSE_NO":"９８之６號","E_COORD97":169356.57000000001,"N_COORD97":2553944.2999999998,"ADDRESS":"新吉９８之６號","OBJECTID":188543},"geometry":{"x":169356.5700000003,"y":2553944.3000000026}},{"attributes":{"ID":188545,"DIS_CODE":0,"TOWNNAME":"安定區","LI":"新吉里","LIN":"11鄰","STREET":" ","SECT":" ","MAREA":"新吉","LANE":" ","ALLEY":" ","HOUSE_NO":"９８之３號","E_COORD97":169360.37,"N_COORD97":2553915.2999999998,"ADDRESS":"新吉９８之３號","OBJECTID":188544},"geometry":{"x":169360.37000000197,"y":2553915.3000000007}},{"attributes":{"ID":188546,"DIS_CODE":0,"TOWNNAME":"安定區","LI":"新吉里","LIN":"11鄰","STREET":" ","SECT":" ","MAREA":"新吉","LANE":" ","ALLEY":" ","HOUSE_NO":"９１號","E_COORD97":169261.47,"N_COORD97":2553934.25,"ADDRESS":"新吉９１號","OBJECTID":188545},"geometry":{"x":169261.47000000067,"y":2553934.2500000019}},{"attributes":{"ID":188547,"DIS_CODE":0,"TOWNNAME":"佳里區","LI":"忠仁里","LIN":"11鄰","STREET":" ","SECT":" ","MAREA":"忠仁","LANE":" ","ALLEY":" ","HOUSE_NO":"７５號","E_COORD97":165925.39000000001,"N_COORD97":2562283.2599999998,"ADDRESS":"忠仁７５號","OBJECTID":188546},"geometry":{"x":165925.3900000006,"y":2562283.2600000016}},{"attributes":{"ID":188548,"DIS_CODE":0,"TOWNNAME":"安定區","LI":"蘇厝里","LIN":"11鄰","STREET":" ","SECT":" ","MAREA":"蘇厝","LANE":" ","ALLEY":" ","HOUSE_NO":"３８３號","E_COORD97":173036.92000000001,"N_COORD97":2558886.25,"ADDRESS":"蘇厝３８３號","OBJECTID":188547},"geometry":{"x":173036.92000000086,"y":2558886.2500000019}},{"attributes":{"ID":188549,"DIS_CODE":0,"TOWNNAME":"安定區","LI":"蘇厝里","LIN":"11鄰","STREET":" ","SECT":" ","MAREA":"蘇厝","LANE":" ","ALLEY":" ","HOUSE_NO":"３７８號之１","E_COORD97":173019.04999999999,"N_COORD97":2558950.2999999998,"ADDRESS":"蘇厝３７８號之１","OBJECTID":188548},"geometry":{"x":173019.05000000075,"y":2558950.3000000007}},{"attributes":{"ID":188550,"DIS_CODE":0,"TOWNNAME":"安定區","LI":"蘇厝里","LIN":"11鄰","STREET":" ","SECT":" ","MAREA":"蘇厝","LANE":" ","ALLEY":" ","HOUSE_NO":"３７８之５號","E_COORD97":173022.32000000001,"N_COORD97":2558896.2999999998,"ADDRESS":"蘇厝３７８之５號","OBJECTID":188549},"geometry":{"x":173022.31999999937,"y":2558896.3000000007}},{"attributes":{"ID":188551,"DIS_CODE":0,"TOWNNAME":"仁德區","LI":"仁德里","LIN":"5鄰","STREET":"仁德四街","SECT":" ","MAREA":" ","LANE":"１２巷","ALLEY":"１５弄","HOUSE_NO":"９號","E_COORD97":173210.63,"N_COORD97":2540877.04,"ADDRESS":"仁德四街１２巷１５弄９號","OBJECTID":188550},"geometry":{"x":173210.62999999989,"y":2540877.040000001}},{"attributes":{"ID":188552,"DIS_CODE":0,"TOWNNAME":"安定區","LI":"安定里","LIN":"11鄰","STREET":" ","SECT":" ","MAREA":"安定","LANE":" ","ALLEY":" ","HOUSE_NO":"１０１之４號","E_COORD97":172049.01999999999,"N_COORD97":2557719.3199999998,"ADDRESS":"安定１０１之４號","OBJECTID":188551},"geometry":{"x":172049.02000000142,"y":2557719.3199999984}},{"attributes":{"ID":188553,"DIS_CODE":0,"TOWNNAME":"安定區","LI":"蘇厝里","LIN":"11鄰","STREET":" ","SECT":" ","MAREA":"蘇厝","LANE":" ","ALLEY":" ","HOUSE_NO":"３７９之３號","E_COORD97":173056.01999999999,"N_COORD97":2558921.2999999998,"ADDRESS":"蘇厝３７９之３號","OBJECTID":188552},"geometry":{"x":173056.02000000048,"y":2558921.3000000026}},{"attributes":{"ID":188554,"DIS_CODE":0,"TOWNNAME":"安定區","LI":"蘇厝里","LIN":"11鄰","STREET":" ","SECT":" ","MAREA":"蘇厝","LANE":" ","ALLEY":" ","HOUSE_NO":"３８６之２號","E_COORD97":173057.32000000001,"N_COORD97":2558880.2999999998,"ADDRESS":"蘇厝３８６之２號","OBJECTID":188553},"geometry":{"x":173057.3200000003,"y":2558880.3000000026}},{"attributes":{"ID":188555,"DIS_CODE":0,"TOWNNAME":"安定區","LI":"蘇厝里","LIN":"11鄰","STREET":" ","SECT":" ","MAREA":"蘇厝","LANE":" ","ALLEY":" ","HOUSE_NO":"３８６號","E_COORD97":173055.62,"N_COORD97":2558903.25,"ADDRESS":"蘇厝３８６號","OBJECTID":188554},"geometry":{"x":173055.62000000011,"y":2558903.2500000019}},{"attributes":{"ID":188556,"DIS_CODE":0,"TOWNNAME":"安定區","LI":"安定里","LIN":"11鄰","STREET":" ","SECT":" ","MAREA":"安定","LANE":" ","ALLEY":" ","HOUSE_NO":"８６之３號","E_COORD97":171989.77518500001,"N_COORD97":2557790.0233900002,"ADDRESS":"安定８６之３號","OBJECTID":188555},"geometry":{"x":171989.77518499922,"y":2557790.0233940016}},{"attributes":{"ID":188557,"DIS_CODE":0,"TOWNNAME":"安定區","LI":"海寮里","LIN":"11鄰","STREET":" ","SECT":" ","MAREA":"海寮","LANE":" ","ALLEY":" ","HOUSE_NO":"１１０之２號","E_COORD97":169169.14000000001,"N_COORD97":2555238.4100000001,"ADDRESS":"海寮１１０之２號","OBJECTID":188556},"geometry":{"x":169169.13999999966,"y":2555238.410000002}},{"attributes":{"ID":188558,"DIS_CODE":0,"TOWNNAME":"安定區","LI":"海寮里","LIN":"11鄰","STREET":" ","SECT":" ","MAREA":"海寮","LANE":" ","ALLEY":" ","HOUSE_NO":"１１０號","E_COORD97":169189.44,"N_COORD97":2555255.25,"ADDRESS":"海寮１１０號","OBJECTID":188557},"geometry":{"x":169189.44000000134,"y":2555255.2500000019}},{"attributes":{"ID":188559,"DIS_CODE":0,"TOWNNAME":"安定區","LI":"港尾里","LIN":"11鄰","STREET":" ","SECT":" ","MAREA":"港子尾","LANE":" ","ALLEY":" ","HOUSE_NO":"６４之８號","E_COORD97":171108.76000000001,"N_COORD97":2555727.0099999998,"ADDRESS":"港子尾６４之８號","OBJECTID":188558},"geometry":{"x":171108.76000000071,"y":2555727.0099999998}},{"attributes":{"ID":188560,"DIS_CODE":0,"TOWNNAME":"永康區","LI":"五王里","LIN":"21鄰","STREET":"振興路","SECT":" ","MAREA":" ","LANE":" ","ALLEY":" ","HOUSE_NO":"３７號","E_COORD97":171453.37,"N_COORD97":2545806.3399999999,"ADDRESS":"振興路３７號","OBJECTID":188559},"geometry":{"x":171453.37000000011,"y":2545806.3400000017}},{"attributes":{"ID":188561,"DIS_CODE":0,"TOWNNAME":"安定區","LI":"蘇林里","LIN":"11鄰","STREET":" ","SECT":" ","MAREA":"蘇厝","LANE":" ","ALLEY":" ","HOUSE_NO":"１１７之７號","E_COORD97":173686.01000000001,"N_COORD97":2558852.0699999998,"ADDRESS":"蘇厝１１７之７號","OBJECTID":188560},"geometry":{"x":173686.00999999978,"y":2558852.0700000003}},{"attributes":{"ID":188562,"DIS_CODE":0,"TOWNNAME":"安定區","LI":"大同里","LIN":"11鄰","STREET":" ","SECT":" ","MAREA":"大同","LANE":" ","ALLEY":" ","HOUSE_NO":"１２２之１號","E_COORD97":170284.329983,"N_COORD97":2553789.55528,"ADDRESS":"大同１２２之１號","OBJECTID":188561},"geometry":{"x":170284.32998299971,"y":2553789.5552790016}},{"attributes":{"ID":188563,"DIS_CODE":0,"TOWNNAME":"佳里區","LI":"子龍里","LIN":"21鄰","STREET":" ","SECT":" ","MAREA":"子良廟","LANE":" ","ALLEY":" ","HOUSE_NO":"２１６號之１０","E_COORD97":168753.39000000001,"N_COORD97":2563676.0800000001,"ADDRESS":"子良廟２１６號之１０","OBJECTID":188562},"geometry":{"x":168753.3900000006,"y":2563676.0800000019}},{"attributes":{"ID":188564,"DIS_CODE":0,"TOWNNAME":"佳里區","LI":"子龍里","LIN":"21鄰","STREET":" ","SECT":" ","MAREA":"子良廟","LANE":" ","ALLEY":" ","HOUSE_NO":"２１６號之１１","E_COORD97":168753.45999999999,"N_COORD97":2563670.8999999999,"ADDRESS":"子良廟２１６號之１１","OBJECTID":188563},"geometry":{"x":168753.45999999996,"y":2563670.9000000004}},{"attributes":{"ID":188565,"DIS_CODE":0,"TOWNNAME":"佳里區","LI":"子龍里","LIN":"21鄰","STREET":" ","SECT":" ","MAREA":"子良廟","LANE":" ","ALLEY":" ","HOUSE_NO":"２１６號之１２","E_COORD97":168753.82999999999,"N_COORD97":2563665.9500000002,"ADDRESS":"子良廟２１６號之１２","OBJECTID":188564},"geometry":{"x":168753.83000000101,"y":2563665.9500000011}},{"attributes":{"ID":188566,"DIS_CODE":0,"TOWNNAME":"佳里區","LI":"子龍里","LIN":"21鄰","STREET":" ","SECT":" ","MAREA":"子良廟","LANE":" ","ALLEY":" ","HOUSE_NO":"２１６號之１４","E_COORD97":168731.16,"N_COORD97":2563698.27,"ADDRESS":"子良廟２１６號之１４","OBJECTID":188565},"geometry":{"x":168731.16000000201,"y":2563698.2699999996}},{"attributes":{"ID":188567,"DIS_CODE":0,"TOWNNAME":"永康區","LI":"六合里","LIN":"5鄰","STREET":"新興街","SECT":" ","MAREA":" ","LANE":"３４巷","ALLEY":"１１弄","HOUSE_NO":"１０號","E_COORD97":171074.42999999999,"N_COORD97":2545717.3799999999,"ADDRESS":"新興街３４巷１１弄１０號","OBJECTID":188566},"geometry":{"x":171074.4299999997,"y":2545717.3800000008}},{"attributes":{"ID":188568,"DIS_CODE":0,"TOWNNAME":"佳里區","LI":"子龍里","LIN":"21鄰","STREET":" ","SECT":" ","MAREA":"子良廟","LANE":" ","ALLEY":" ","HOUSE_NO":"２１６號之１５","E_COORD97":168730.69,"N_COORD97":2563703.6499999999,"ADDRESS":"子良廟２１６號之１５","OBJECTID":188567},"geometry":{"x":168730.69000000041,"y":2563703.6500000004}},{"attributes":{"ID":188569,"DIS_CODE":0,"TOWNNAME":"佳里區","LI":"子龍里","LIN":"21鄰","STREET":" ","SECT":" ","MAREA":"子良廟","LANE":" ","ALLEY":" ","HOUSE_NO":"２１６號之１６","E_COORD97":168730.45000000001,"N_COORD97":2563708.7000000002,"ADDRESS":"子良廟２１６號之１６","OBJECTID":188568},"geometry":{"x":168730.45000000019,"y":2563708.6999999993}},{"attributes":{"ID":188570,"DIS_CODE":0,"TOWNNAME":"佳里區","LI":"子龍里","LIN":"21鄰","STREET":" ","SECT":" ","MAREA":"子良廟","LANE":" ","ALLEY":" ","HOUSE_NO":"２１６號之１７","E_COORD97":168729.97,"N_COORD97":2563713.3100000001,"ADDRESS":"子良廟２１６號之１７","OBJECTID":188569},"geometry":{"x":168729.96999999974,"y":2563713.3100000005}},{"attributes":{"ID":188571,"DIS_CODE":0,"TOWNNAME":"佳里區","LI":"子龍里","LIN":"21鄰","STREET":" ","SECT":" ","MAREA":"子良廟","LANE":" ","ALLEY":" ","HOUSE_NO":"２１６號之１８","E_COORD97":168729.94,"N_COORD97":2563717.6899999999,"ADDRESS":"子良廟２１６號之１８","OBJECTID":188570},"geometry":{"x":168729.94000000134,"y":2563717.6900000013}},{"attributes":{"ID":188572,"DIS_CODE":0,"TOWNNAME":"永康區","LI":"六合里","LIN":"5鄰","STREET":"新興街","SECT":" ","MAREA":" ","LANE":"３４巷","ALLEY":"１１弄","HOUSE_NO":"１１號","E_COORD97":171088.79000000001,"N_COORD97":2545758.2400000002,"ADDRESS":"新興街３４巷１１弄１１號","OBJECTID":188571},"geometry":{"x":171088.79000000097,"y":2545758.2400000002}},{"attributes":{"ID":188573,"DIS_CODE":0,"TOWNNAME":"下營區","LI":"宅內里","LIN":"15鄰","STREET":"玄德街","SECT":" ","MAREA":" ","LANE":" ","ALLEY":" ","HOUSE_NO":"３１號","E_COORD97":174333.89999999999,"N_COORD97":2570564.6699999999,"ADDRESS":"玄德街３１號","OBJECTID":188572},"geometry":{"x":174333.89999999944,"y":2570564.6699999999}},{"attributes":{"ID":188574,"DIS_CODE":0,"TOWNNAME":"永康區","LI":"六合里","LIN":"5鄰","STREET":"新興街","SECT":" ","MAREA":" ","LANE":"３４巷","ALLEY":"１１弄","HOUSE_NO":"１２號","E_COORD97":171075.92999999999,"N_COORD97":2545710.8799999999,"ADDRESS":"新興街３４巷１１弄１２號","OBJECTID":188573},"geometry":{"x":171075.9299999997,"y":2545710.879999999}},{"attributes":{"ID":188575,"DIS_CODE":0,"TOWNNAME":"永康區","LI":"六合里","LIN":"5鄰","STREET":"新興街","SECT":" ","MAREA":" ","LANE":"３４巷","ALLEY":"１１弄","HOUSE_NO":"１３號","E_COORD97":171093.35000000001,"N_COORD97":2545759.2400000002,"ADDRESS":"新興街３４巷１１弄１３號","OBJECTID":188574},"geometry":{"x":171093.34999999963,"y":2545759.2400000021}},{"attributes":{"ID":188576,"DIS_CODE":0,"TOWNNAME":"中西區","LI":"安海里","LIN":"11鄰","STREET":"中正路","SECT":" ","MAREA":" ","LANE":" ","ALLEY":" ","HOUSE_NO":"３９８號","E_COORD97":167241.86556800001,"N_COORD97":2543879.68187,"ADDRESS":"中正路３９８號","OBJECTID":188575},"geometry":{"x":167241.86556800082,"y":2543879.6818700023}},{"attributes":{"ID":188577,"DIS_CODE":0,"TOWNNAME":"永康區","LI":"六合里","LIN":"5鄰","STREET":"新興街","SECT":" ","MAREA":" ","LANE":"３４巷","ALLEY":"１１弄","HOUSE_NO":"１４號","E_COORD97":171092.73000000001,"N_COORD97":2545712.75,"ADDRESS":"新興街３４巷１１弄１４號","OBJECTID":188576},"geometry":{"x":171092.73000000138,"y":2545712.75}},{"attributes":{"ID":188578,"DIS_CODE":0,"TOWNNAME":"永康區","LI":"六合里","LIN":"5鄰","STREET":"新興街","SECT":" ","MAREA":" ","LANE":"３４巷","ALLEY":"１１弄","HOUSE_NO":"１５號","E_COORD97":171098.14999999999,"N_COORD97":2545760.2400000002,"ADDRESS":"新興街３４巷１１弄１５號","OBJECTID":188577},"geometry":{"x":171098.1500000013,"y":2545760.2400000021}},{"attributes":{"ID":188579,"DIS_CODE":0,"TOWNNAME":"永康區","LI":"六合里","LIN":"5鄰","STREET":"新興街","SECT":" ","MAREA":" ","LANE":"３４巷","ALLEY":"１１弄","HOUSE_NO":"１６號","E_COORD97":171091.26999999999,"N_COORD97":2545719.25,"ADDRESS":"新興街３４巷１１弄１６號","OBJECTID":188578},"geometry":{"x":171091.27000000048,"y":2545719.2500000019}},{"attributes":{"ID":188580,"DIS_CODE":0,"TOWNNAME":"永康區","LI":"六合里","LIN":"5鄰","STREET":"新興街","SECT":" ","MAREA":" ","LANE":"３４巷","ALLEY":"１１弄","HOUSE_NO":"１７號","E_COORD97":171103.5,"N_COORD97":2545761.2400000002,"ADDRESS":"新興街３４巷１１弄１７號","OBJECTID":188579},"geometry":{"x":171103.49999999907,"y":2545761.2400000002}},{"attributes":{"ID":188581,"DIS_CODE":0,"TOWNNAME":"佳里區","LI":"子龍里","LIN":"21鄰","STREET":" ","SECT":" ","MAREA":"子良廟","LANE":" ","ALLEY":" ","HOUSE_NO":"２１６號之３３","E_COORD97":168770.85000000001,"N_COORD97":2563682.27,"ADDRESS":"子良廟２１６號之３３","OBJECTID":188580},"geometry":{"x":168770.84999999963,"y":2563682.2699999996}},{"attributes":{"ID":188582,"DIS_CODE":0,"TOWNNAME":"永康區","LI":"六合里","LIN":"5鄰","STREET":"新興街","SECT":" ","MAREA":" ","LANE":"３４巷","ALLEY":"１１弄","HOUSE_NO":"１８號","E_COORD97":171089.76999999999,"N_COORD97":2545725.75,"ADDRESS":"新興街３４巷１１弄１８號","OBJECTID":188581},"geometry":{"x":171089.77000000048,"y":2545725.7500000019}},{"attributes":{"ID":188583,"DIS_CODE":0,"TOWNNAME":"永康區","LI":"六合里","LIN":"5鄰","STREET":"新興街","SECT":" ","MAREA":" ","LANE":"３４巷","ALLEY":"１１弄","HOUSE_NO":"１９號","E_COORD97":171108.32000000001,"N_COORD97":2545762.7400000002,"ADDRESS":"新興街３４巷１１弄１９號","OBJECTID":188582},"geometry":{"x":171108.3200000003,"y":2545762.7400000021}},{"attributes":{"ID":188584,"DIS_CODE":0,"TOWNNAME":"永康區","LI":"六合里","LIN":"5鄰","STREET":"新興街","SECT":" ","MAREA":" ","LANE":"３４巷","ALLEY":"１１弄","HOUSE_NO":"１號","E_COORD97":171062.54000000001,"N_COORD97":2545753.2400000002,"ADDRESS":"新興街３４巷１１弄１號","OBJECTID":188583},"geometry":{"x":171062.54000000004,"y":2545753.2400000021}},{"attributes":{"ID":188585,"DIS_CODE":0,"TOWNNAME":"永康區","LI":"六合里","LIN":"5鄰","STREET":"新興街","SECT":" ","MAREA":" ","LANE":"３４巷","ALLEY":"１１弄","HOUSE_NO":"２０號","E_COORD97":171088.38,"N_COORD97":2545732.7400000002,"ADDRESS":"新興街３４巷１１弄２０號","OBJECTID":188584},"geometry":{"x":171088.37999999989,"y":2545732.7400000021}},{"attributes":{"ID":188586,"DIS_CODE":0,"TOWNNAME":"永康區","LI":"六合里","LIN":"5鄰","STREET":"新興街","SECT":" ","MAREA":" ","LANE":"３４巷","ALLEY":"１１弄","HOUSE_NO":"２１號","E_COORD97":171112.98999999999,"N_COORD97":2545763.2400000002,"ADDRESS":"新興街３４巷１１弄２１號","OBJECTID":188585},"geometry":{"x":171112.99000000115,"y":2545763.2400000021}},{"attributes":{"ID":188587,"DIS_CODE":0,"TOWNNAME":"東區","LI":"泉南里","LIN":"12鄰","STREET":"光華街","SECT":" ","MAREA":" ","LANE":" ","ALLEY":" ","HOUSE_NO":"２２１號","E_COORD97":169526.42000000001,"N_COORD97":2543025.6600000001,"ADDRESS":"光華街２２１號","OBJECTID":188586},"geometry":{"x":169526.42000000086,"y":2543025.6600000001}},{"attributes":{"ID":188588,"DIS_CODE":0,"TOWNNAME":"新化區","LI":"東榮里","LIN":"21鄰","STREET":"復興路","SECT":" ","MAREA":" ","LANE":" ","ALLEY":" ","HOUSE_NO":"２０２號","E_COORD97":179406.12,"N_COORD97":2548127.25,"ADDRESS":"復興路２０２號","OBJECTID":188587},"geometry":{"x":179406.12000000104,"y":2548127.25}},{"attributes":{"ID":188589,"DIS_CODE":0,"TOWNNAME":"新化區","LI":"東榮里","LIN":"21鄰","STREET":"復興路","SECT":" ","MAREA":" ","LANE":" ","ALLEY":" ","HOUSE_NO":"１８３號","E_COORD97":179434.72,"N_COORD97":2547925.25,"ADDRESS":"復興路１８３號","OBJECTID":188588},"geometry":{"x":179434.71999999974,"y":2547925.2500000019}},{"attributes":{"ID":188590,"DIS_CODE":0,"TOWNNAME":"新化區","LI":"東榮里","LIN":"21鄰","STREET":"復興路","SECT":" ","MAREA":" ","LANE":" ","ALLEY":" ","HOUSE_NO":"１７９號","E_COORD97":179437.32000000001,"N_COORD97":2547915.25,"ADDRESS":"復興路１７９號","OBJECTID":188589},"geometry":{"x":179437.32000000123,"y":2547915.2500000019}},{"attributes":{"ID":188591,"DIS_CODE":0,"TOWNNAME":"永康區","LI":"六合里","LIN":"5鄰","STREET":"新興街","SECT":" ","MAREA":" ","LANE":"３４巷","ALLEY":"１１弄","HOUSE_NO":"２２號","E_COORD97":171087.23000000001,"N_COORD97":2545739.2400000002,"ADDRESS":"新興街３４巷１１弄２２號","OBJECTID":188590},"geometry":{"x":171087.23000000231,"y":2545739.2400000021}},{"attributes":{"ID":188592,"DIS_CODE":0,"TOWNNAME":"永康區","LI":"六合里","LIN":"5鄰","STREET":"新興街","SECT":" ","MAREA":" ","LANE":"３４巷","ALLEY":"１１弄","HOUSE_NO":"２４號","E_COORD97":171085.98000000001,"N_COORD97":2545745.9900000002,"ADDRESS":"新興街３４巷１１弄２４號","OBJECTID":188591},"geometry":{"x":171085.98000000138,"y":2545745.9900000002}},{"attributes":{"ID":188593,"DIS_CODE":0,"TOWNNAME":"永康區","LI":"六合里","LIN":"5鄰","STREET":"新興街","SECT":" ","MAREA":" ","LANE":"３４巷","ALLEY":"１１弄","HOUSE_NO":"２６號","E_COORD97":171101.45000000001,"N_COORD97":2545748.6200000001,"ADDRESS":"新興街３４巷１１弄２６號","OBJECTID":188592},"geometry":{"x":171101.45000000112,"y":2545748.620000001}},{"attributes":{"ID":188594,"DIS_CODE":0,"TOWNNAME":"永康區","LI":"六合里","LIN":"5鄰","STREET":"新興街","SECT":" ","MAREA":" ","LANE":"３４巷","ALLEY":"１１弄","HOUSE_NO":"２８號","E_COORD97":171102.85999999999,"N_COORD97":2545741.3700000001,"ADDRESS":"新興街３４巷１１弄２８號","OBJECTID":188593},"geometry":{"x":171102.86000000034,"y":2545741.370000001}},{"attributes":{"ID":188595,"DIS_CODE":0,"TOWNNAME":"永康區","LI":"六合里","LIN":"5鄰","STREET":"新興街","SECT":" ","MAREA":" ","LANE":"３４巷","ALLEY":"１１弄","HOUSE_NO":"２號","E_COORD97":171068.32000000001,"N_COORD97":2545742.1200000001,"ADDRESS":"新興街３４巷１１弄２號","OBJECTID":188594},"geometry":{"x":171068.32000000123,"y":2545742.120000001}},{"attributes":{"ID":188596,"DIS_CODE":0,"TOWNNAME":"永康區","LI":"六合里","LIN":"5鄰","STREET":"新興街","SECT":" ","MAREA":" ","LANE":"３４巷","ALLEY":"１１弄","HOUSE_NO":"３０號","E_COORD97":171103.95000000001,"N_COORD97":2545735.8700000001,"ADDRESS":"新興街３４巷１１弄３０號","OBJECTID":188595},"geometry":{"x":171103.95000000019,"y":2545735.8700000029}},{"attributes":{"ID":188597,"DIS_CODE":0,"TOWNNAME":"永康區","LI":"六合里","LIN":"5鄰","STREET":"新興街","SECT":" ","MAREA":" ","LANE":"３４巷","ALLEY":"１１弄","HOUSE_NO":"３２號","E_COORD97":171105.14999999999,"N_COORD97":2545729.3799999999,"ADDRESS":"新興街３４巷１１弄３２號","OBJECTID":188596},"geometry":{"x":171105.1500000013,"y":2545729.3800000027}},{"attributes":{"ID":188598,"DIS_CODE":0,"TOWNNAME":"永康區","LI":"六合里","LIN":"5鄰","STREET":"新興街","SECT":" ","MAREA":" ","LANE":"３４巷","ALLEY":"１１弄","HOUSE_NO":"３４號","E_COORD97":171106.04999999999,"N_COORD97":2545722.3799999999,"ADDRESS":"新興街３４巷１１弄３４號","OBJECTID":188597},"geometry":{"x":171106.04999999981,"y":2545722.3799999971}},{"attributes":{"ID":188599,"DIS_CODE":0,"TOWNNAME":"永康區","LI":"六合里","LIN":"5鄰","STREET":"新興街","SECT":" ","MAREA":" ","LANE":"３４巷","ALLEY":"１１弄","HOUSE_NO":"３６號","E_COORD97":171107.10999999999,"N_COORD97":2545716.3799999999,"ADDRESS":"新興街３４巷１１弄３６號","OBJECTID":188598},"geometry":{"x":171107.11000000127,"y":2545716.3800000008}},{"attributes":{"ID":188600,"DIS_CODE":0,"TOWNNAME":"永康區","LI":"六合里","LIN":"5鄰","STREET":"新興街","SECT":" ","MAREA":" ","LANE":"３４巷","ALLEY":"１１弄","HOUSE_NO":"３８號","E_COORD97":171117.10999999999,"N_COORD97":2545729.1299999999,"ADDRESS":"新興街３４巷１１弄３８號","OBJECTID":188599},"geometry":{"x":171117.11000000127,"y":2545729.1300000008}},{"attributes":{"ID":188601,"DIS_CODE":0,"TOWNNAME":"永康區","LI":"六合里","LIN":"5鄰","STREET":"新興街","SECT":" ","MAREA":" ","LANE":"３４巷","ALLEY":"１１弄","HOUSE_NO":"３號","E_COORD97":171067.69,"N_COORD97":2545753.9900000002,"ADDRESS":"新興街３４巷１１弄３號","OBJECTID":188600},"geometry":{"x":171067.69000000134,"y":2545753.9900000021}}]}