{"displayFieldName":"TOWNNAME","fieldAliases":{"ID":"ID","DIS_CODE":"DIS_CODE","TOWNNAME":"TOWNNAME","LI":"LI","LIN":"LIN","STREET":"STREET","SECT":"SECT","MAREA":"MAREA","LANE":"LANE","ALLEY":"ALLEY","HOUSE_NO":"HOUSE_NO","E_COORD97":"E_COORD97","N_COORD97":"N_COORD97","ADDRESS":"ADDRESS","OBJECTID":"OBJECTID"},"geometryType":"esriGeometryPoint","spatialReference":{"wkid":102443,"latestWkid":3826},"fields":[{"name":"ID","type":"esriFieldTypeDouble","alias":"ID"},{"name":"DIS_CODE","type":"esriFieldTypeInteger","alias":"DIS_CODE"},{"name":"TOWNNAME","type":"esriFieldTypeString","alias":"TOWNNAME","length":8},{"name":"LI","type":"esriFieldTypeString","alias":"LI","length":8},{"name":"LIN","type":"esriFieldTypeString","alias":"LIN","length":12},{"name":"STREET","type":"esriFieldTypeString","alias":"STREET","length":20},{"name":"SECT","type":"esriFieldTypeString","alias":"SECT","length":8},{"name":"MAREA","type":"esriFieldTypeString","alias":"MAREA","length":12},{"name":"LANE","type":"esriFieldTypeString","alias":"LANE","length":10},{"name":"ALLEY","type":"esriFieldTypeString","alias":"ALLEY","length":10},{"name":"HOUSE_NO","type":"esriFieldTypeString","alias":"HOUSE_NO","length":20},{"name":"E_COORD97","type":"esriFieldTypeDouble","alias":"E_COORD97"},{"name":"N_COORD97","type":"esriFieldTypeDouble","alias":"N_COORD97"},{"name":"ADDRESS","type":"esriFieldTypeString","alias":"ADDRESS","length":50},{"name":"OBJECTID","type":"esriFieldTypeOID","alias":"OBJECTID"}],"features":[{"attributes":{"ID":511428,"DIS_CODE":0,"TOWNNAME":"新化區","LI":"豐榮里","LIN":"1鄰","STREET":"中山路","SECT":" ","MAREA":" ","LANE":" ","ALLEY":" ","HOUSE_NO":"５９５號十一樓之５","E_COORD97":178293.51999999999,"N_COORD97":2548440.2599999998,"ADDRESS":"中山路５９５號十一樓之５","OBJECTID":511401},"geometry":{"x":178293.51999999955,"y":2548440.2600000016}},{"attributes":{"ID":511429,"DIS_CODE":0,"TOWNNAME":"新化區","LI":"豐榮里","LIN":"1鄰","STREET":"中山路","SECT":" ","MAREA":" ","LANE":" ","ALLEY":" ","HOUSE_NO":"６１５號六樓之１","E_COORD97":178244.44,"N_COORD97":2548475.2599999998,"ADDRESS":"中山路６１５號六樓之１","OBJECTID":511402},"geometry":{"x":178244.44000000041,"y":2548475.2600000016}},{"attributes":{"ID":511430,"DIS_CODE":0,"TOWNNAME":"新化區","LI":"豐榮里","LIN":"1鄰","STREET":"中山路","SECT":" ","MAREA":" ","LANE":" ","ALLEY":" ","HOUSE_NO":"５９５號十二樓之２","E_COORD97":178293.51000000001,"N_COORD97":2548440.2599999998,"ADDRESS":"中山路５９５號十二樓之２","OBJECTID":511403},"geometry":{"x":178293.50999999978,"y":2548440.2600000016}},{"attributes":{"ID":511431,"DIS_CODE":0,"TOWNNAME":"新化區","LI":"豐榮里","LIN":"1鄰","STREET":"中山路","SECT":" ","MAREA":" ","LANE":" ","ALLEY":" ","HOUSE_NO":"５９５號九樓之６","E_COORD97":178293.26000000001,"N_COORD97":2548440.2599999998,"ADDRESS":"中山路５９５號九樓之６","OBJECTID":511404},"geometry":{"x":178293.26000000071,"y":2548440.2600000016}},{"attributes":{"ID":511432,"DIS_CODE":0,"TOWNNAME":"新化區","LI":"豐榮里","LIN":"1鄰","STREET":"中山路","SECT":" ","MAREA":" ","LANE":" ","ALLEY":" ","HOUSE_NO":"５９５號十樓之４","E_COORD97":178293.23999999999,"N_COORD97":2548440.2599999998,"ADDRESS":"中山路５９５號十樓之４","OBJECTID":511405},"geometry":{"x":178293.24000000209,"y":2548440.2600000016}},{"attributes":{"ID":511433,"DIS_CODE":0,"TOWNNAME":"新化區","LI":"豐榮里","LIN":"1鄰","STREET":"中山路","SECT":" ","MAREA":" ","LANE":" ","ALLEY":" ","HOUSE_NO":"６１５號五樓之１","E_COORD97":178244.44,"N_COORD97":2548475.2599999998,"ADDRESS":"中山路６１５號五樓之１","OBJECTID":511406},"geometry":{"x":178244.44000000041,"y":2548475.2600000016}},{"attributes":{"ID":511434,"DIS_CODE":0,"TOWNNAME":"新化區","LI":"豐榮里","LIN":"1鄰","STREET":"中山路","SECT":" ","MAREA":" ","LANE":" ","ALLEY":" ","HOUSE_NO":"５９５號十一樓之１","E_COORD97":178293.48999999999,"N_COORD97":2548440.2599999998,"ADDRESS":"中山路５９５號十一樓之１","OBJECTID":511407},"geometry":{"x":178293.49000000115,"y":2548440.2600000016}},{"attributes":{"ID":511435,"DIS_CODE":0,"TOWNNAME":"新化區","LI":"豐榮里","LIN":"1鄰","STREET":"中山路","SECT":" ","MAREA":" ","LANE":" ","ALLEY":" ","HOUSE_NO":"５９５號二樓之４","E_COORD97":178293.23999999999,"N_COORD97":2548440.2599999998,"ADDRESS":"中山路５９５號二樓之４","OBJECTID":511408},"geometry":{"x":178293.24000000209,"y":2548440.2600000016}},{"attributes":{"ID":511436,"DIS_CODE":0,"TOWNNAME":"新化區","LI":"豐榮里","LIN":"1鄰","STREET":"中山路","SECT":" ","MAREA":" ","LANE":" ","ALLEY":" ","HOUSE_NO":"５９５號十一樓之２","E_COORD97":178293.51000000001,"N_COORD97":2548440.2599999998,"ADDRESS":"中山路５９５號十一樓之２","OBJECTID":511409},"geometry":{"x":178293.50999999978,"y":2548440.2600000016}},{"attributes":{"ID":511437,"DIS_CODE":0,"TOWNNAME":"新化區","LI":"豐榮里","LIN":"1鄰","STREET":"中山路","SECT":" ","MAREA":" ","LANE":" ","ALLEY":" ","HOUSE_NO":"５９５號十一樓之６","E_COORD97":178293.51000000001,"N_COORD97":2548440.2599999998,"ADDRESS":"中山路５９５號十一樓之６","OBJECTID":511410},"geometry":{"x":178293.50999999978,"y":2548440.2600000016}},{"attributes":{"ID":511438,"DIS_CODE":0,"TOWNNAME":"新化區","LI":"豐榮里","LIN":"1鄰","STREET":"中山路","SECT":" ","MAREA":" ","LANE":" ","ALLEY":" ","HOUSE_NO":"５９５號八樓之６","E_COORD97":178293.26000000001,"N_COORD97":2548440.2599999998,"ADDRESS":"中山路５９５號八樓之６","OBJECTID":511411},"geometry":{"x":178293.26000000071,"y":2548440.2600000016}},{"attributes":{"ID":511439,"DIS_CODE":0,"TOWNNAME":"新化區","LI":"豐榮里","LIN":"1鄰","STREET":"中山路","SECT":" ","MAREA":" ","LANE":" ","ALLEY":" ","HOUSE_NO":"５９５號五樓之５","E_COORD97":178293.26999999999,"N_COORD97":2548440.2599999998,"ADDRESS":"中山路５９５號五樓之５","OBJECTID":511412},"geometry":{"x":178293.26999999955,"y":2548440.2600000016}},{"attributes":{"ID":511440,"DIS_CODE":0,"TOWNNAME":"新化區","LI":"豐榮里","LIN":"1鄰","STREET":"中山路","SECT":" ","MAREA":" ","LANE":" ","ALLEY":" ","HOUSE_NO":"５９５號三樓之４","E_COORD97":178293.23999999999,"N_COORD97":2548440.2599999998,"ADDRESS":"中山路５９５號三樓之４","OBJECTID":511413},"geometry":{"x":178293.24000000209,"y":2548440.2600000016}},{"attributes":{"ID":511441,"DIS_CODE":0,"TOWNNAME":"新化區","LI":"豐榮里","LIN":"1鄰","STREET":"中山路","SECT":" ","MAREA":" ","LANE":" ","ALLEY":" ","HOUSE_NO":"５９５號九樓之７","E_COORD97":178293.25,"N_COORD97":2548440.2599999998,"ADDRESS":"中山路５９５號九樓之７","OBJECTID":511414},"geometry":{"x":178293.25000000093,"y":2548440.2600000016}},{"attributes":{"ID":511442,"DIS_CODE":0,"TOWNNAME":"新化區","LI":"豐榮里","LIN":"1鄰","STREET":"中山路","SECT":" ","MAREA":" ","LANE":" ","ALLEY":" ","HOUSE_NO":"５９５號十樓之６","E_COORD97":178293.26000000001,"N_COORD97":2548440.2599999998,"ADDRESS":"中山路５９５號十樓之６","OBJECTID":511415},"geometry":{"x":178293.26000000071,"y":2548440.2600000016}},{"attributes":{"ID":511443,"DIS_CODE":0,"TOWNNAME":"新化區","LI":"豐榮里","LIN":"1鄰","STREET":"中山路","SECT":" ","MAREA":" ","LANE":" ","ALLEY":" ","HOUSE_NO":"５９５號三樓之１","E_COORD97":178293.23999999999,"N_COORD97":2548440.2599999998,"ADDRESS":"中山路５９５號三樓之１","OBJECTID":511416},"geometry":{"x":178293.24000000209,"y":2548440.2600000016}},{"attributes":{"ID":511444,"DIS_CODE":0,"TOWNNAME":"新化區","LI":"豐榮里","LIN":"1鄰","STREET":"中山路","SECT":" ","MAREA":" ","LANE":" ","ALLEY":" ","HOUSE_NO":"６１５號七樓之１","E_COORD97":178244.44,"N_COORD97":2548475.2599999998,"ADDRESS":"中山路６１５號七樓之１","OBJECTID":511417},"geometry":{"x":178244.44000000041,"y":2548475.2600000016}},{"attributes":{"ID":511445,"DIS_CODE":0,"TOWNNAME":"東區","LI":"和平里","LIN":"1鄰","STREET":"仁和路","SECT":" ","MAREA":" ","LANE":" ","ALLEY":" ","HOUSE_NO":"３３號八樓","E_COORD97":171099.45000000001,"N_COORD97":2542097.2200000002,"ADDRESS":"仁和路３３號八樓","OBJECTID":511418},"geometry":{"x":171099.45000000112,"y":2542097.2200000007}},{"attributes":{"ID":511446,"DIS_CODE":0,"TOWNNAME":"新化區","LI":"豐榮里","LIN":"1鄰","STREET":"中山路","SECT":" ","MAREA":" ","LANE":" ","ALLEY":" ","HOUSE_NO":"５９５號三樓之５","E_COORD97":178293.26999999999,"N_COORD97":2548440.2599999998,"ADDRESS":"中山路５９５號三樓之５","OBJECTID":511419},"geometry":{"x":178293.26999999955,"y":2548440.2600000016}},{"attributes":{"ID":511447,"DIS_CODE":0,"TOWNNAME":"新化區","LI":"豐榮里","LIN":"1鄰","STREET":"中山路","SECT":" ","MAREA":" ","LANE":" ","ALLEY":" ","HOUSE_NO":"５９５號六樓之４","E_COORD97":178293.23999999999,"N_COORD97":2548440.2599999998,"ADDRESS":"中山路５９５號六樓之４","OBJECTID":511420},"geometry":{"x":178293.24000000209,"y":2548440.2600000016}},{"attributes":{"ID":511448,"DIS_CODE":0,"TOWNNAME":"東區","LI":"和平里","LIN":"1鄰","STREET":"仁和路","SECT":" ","MAREA":" ","LANE":" ","ALLEY":" ","HOUSE_NO":"３３號十二樓","E_COORD97":171099.45000000001,"N_COORD97":2542097.2200000002,"ADDRESS":"仁和路３３號十二樓","OBJECTID":511421},"geometry":{"x":171099.45000000112,"y":2542097.2200000007}},{"attributes":{"ID":511449,"DIS_CODE":0,"TOWNNAME":"新化區","LI":"豐榮里","LIN":"1鄰","STREET":"中山路","SECT":" ","MAREA":" ","LANE":" ","ALLEY":" ","HOUSE_NO":"６１５號十二樓之２","E_COORD97":178244.70999999999,"N_COORD97":2548475.2599999998,"ADDRESS":"中山路６１５號十二樓之２","OBJECTID":511422},"geometry":{"x":178244.71000000089,"y":2548475.2600000016}},{"attributes":{"ID":511450,"DIS_CODE":0,"TOWNNAME":"新化區","LI":"豐榮里","LIN":"1鄰","STREET":"中山路","SECT":" ","MAREA":" ","LANE":" ","ALLEY":" ","HOUSE_NO":"５９５號十二樓之５","E_COORD97":178293.51999999999,"N_COORD97":2548440.2599999998,"ADDRESS":"中山路５９５號十二樓之５","OBJECTID":511423},"geometry":{"x":178293.51999999955,"y":2548440.2600000016}},{"attributes":{"ID":511451,"DIS_CODE":0,"TOWNNAME":"新化區","LI":"豐榮里","LIN":"1鄰","STREET":"中山路","SECT":" ","MAREA":" ","LANE":" ","ALLEY":" ","HOUSE_NO":"５９５號十一樓之３","E_COORD97":178293.51000000001,"N_COORD97":2548440.2599999998,"ADDRESS":"中山路５９５號十一樓之３","OBJECTID":511424},"geometry":{"x":178293.50999999978,"y":2548440.2600000016}},{"attributes":{"ID":511452,"DIS_CODE":0,"TOWNNAME":"新化區","LI":"豐榮里","LIN":"1鄰","STREET":"中山路","SECT":" ","MAREA":" ","LANE":" ","ALLEY":" ","HOUSE_NO":"５９５號八樓之４","E_COORD97":178293.23999999999,"N_COORD97":2548440.2599999998,"ADDRESS":"中山路５９５號八樓之４","OBJECTID":511425},"geometry":{"x":178293.24000000209,"y":2548440.2600000016}},{"attributes":{"ID":511453,"DIS_CODE":0,"TOWNNAME":"新化區","LI":"豐榮里","LIN":"1鄰","STREET":"中山路","SECT":" ","MAREA":" ","LANE":" ","ALLEY":" ","HOUSE_NO":"５９５號三樓之２","E_COORD97":178293.26000000001,"N_COORD97":2548440.2599999998,"ADDRESS":"中山路５９５號三樓之２","OBJECTID":511426},"geometry":{"x":178293.26000000071,"y":2548440.2600000016}},{"attributes":{"ID":511454,"DIS_CODE":0,"TOWNNAME":"新化區","LI":"豐榮里","LIN":"1鄰","STREET":"中山路","SECT":" ","MAREA":" ","LANE":" ","ALLEY":" ","HOUSE_NO":"６１５號十樓之２","E_COORD97":178244.45999999999,"N_COORD97":2548475.2599999998,"ADDRESS":"中山路６１５號十樓之２","OBJECTID":511427},"geometry":{"x":178244.46000000089,"y":2548475.2600000016}},{"attributes":{"ID":511455,"DIS_CODE":0,"TOWNNAME":"新化區","LI":"豐榮里","LIN":"1鄰","STREET":"中山路","SECT":" ","MAREA":" ","LANE":" ","ALLEY":" ","HOUSE_NO":"５９５號四樓之２","E_COORD97":178293.26000000001,"N_COORD97":2548440.2599999998,"ADDRESS":"中山路５９５號四樓之２","OBJECTID":511428},"geometry":{"x":178293.26000000071,"y":2548440.2600000016}},{"attributes":{"ID":511456,"DIS_CODE":0,"TOWNNAME":"新化區","LI":"豐榮里","LIN":"1鄰","STREET":"中山路","SECT":" ","MAREA":" ","LANE":" ","ALLEY":" ","HOUSE_NO":"５９５號十樓之１","E_COORD97":178293.23999999999,"N_COORD97":2548440.2599999998,"ADDRESS":"中山路５９５號十樓之１","OBJECTID":511429},"geometry":{"x":178293.24000000209,"y":2548440.2600000016}},{"attributes":{"ID":511457,"DIS_CODE":0,"TOWNNAME":"新化區","LI":"豐榮里","LIN":"1鄰","STREET":"中山路","SECT":" ","MAREA":" ","LANE":" ","ALLEY":" ","HOUSE_NO":"５９５號五樓之２","E_COORD97":178293.26000000001,"N_COORD97":2548440.2599999998,"ADDRESS":"中山路５９５號五樓之２","OBJECTID":511430},"geometry":{"x":178293.26000000071,"y":2548440.2600000016}},{"attributes":{"ID":511458,"DIS_CODE":0,"TOWNNAME":"新化區","LI":"豐榮里","LIN":"1鄰","STREET":"中山路","SECT":" ","MAREA":" ","LANE":" ","ALLEY":" ","HOUSE_NO":"５９５號八樓之７","E_COORD97":178293.25,"N_COORD97":2548440.2599999998,"ADDRESS":"中山路５９５號八樓之７","OBJECTID":511431},"geometry":{"x":178293.25000000093,"y":2548440.2600000016}},{"attributes":{"ID":511459,"DIS_CODE":0,"TOWNNAME":"新化區","LI":"豐榮里","LIN":"1鄰","STREET":"中山路","SECT":" ","MAREA":" ","LANE":" ","ALLEY":" ","HOUSE_NO":"５９５號四樓之５","E_COORD97":178293.26999999999,"N_COORD97":2548440.2599999998,"ADDRESS":"中山路５９５號四樓之５","OBJECTID":511432},"geometry":{"x":178293.26999999955,"y":2548440.2600000016}},{"attributes":{"ID":511460,"DIS_CODE":0,"TOWNNAME":"新化區","LI":"豐榮里","LIN":"1鄰","STREET":"中山路","SECT":" ","MAREA":" ","LANE":" ","ALLEY":" ","HOUSE_NO":"６１５號十樓之１","E_COORD97":178244.44,"N_COORD97":2548475.2599999998,"ADDRESS":"中山路６１５號十樓之１","OBJECTID":511433},"geometry":{"x":178244.44000000041,"y":2548475.2600000016}},{"attributes":{"ID":511461,"DIS_CODE":0,"TOWNNAME":"新化區","LI":"豐榮里","LIN":"1鄰","STREET":"中山路","SECT":" ","MAREA":" ","LANE":" ","ALLEY":" ","HOUSE_NO":"５９５號四樓之６","E_COORD97":178293.26000000001,"N_COORD97":2548440.2599999998,"ADDRESS":"中山路５９５號四樓之６","OBJECTID":511434},"geometry":{"x":178293.26000000071,"y":2548440.2600000016}},{"attributes":{"ID":511462,"DIS_CODE":0,"TOWNNAME":"新化區","LI":"豐榮里","LIN":"1鄰","STREET":"中山路","SECT":" ","MAREA":" ","LANE":" ","ALLEY":" ","HOUSE_NO":"５９５號四樓之３","E_COORD97":178293.26000000001,"N_COORD97":2548440.2599999998,"ADDRESS":"中山路５９５號四樓之３","OBJECTID":511435},"geometry":{"x":178293.26000000071,"y":2548440.2600000016}},{"attributes":{"ID":511463,"DIS_CODE":0,"TOWNNAME":"新化區","LI":"豐榮里","LIN":"1鄰","STREET":"中山路","SECT":" ","MAREA":" ","LANE":" ","ALLEY":" ","HOUSE_NO":"５９５號六樓之７","E_COORD97":178293.25,"N_COORD97":2548440.2599999998,"ADDRESS":"中山路５９５號六樓之７","OBJECTID":511436},"geometry":{"x":178293.25000000093,"y":2548440.2600000016}},{"attributes":{"ID":511464,"DIS_CODE":0,"TOWNNAME":"新化區","LI":"豐榮里","LIN":"1鄰","STREET":"中山路","SECT":" ","MAREA":" ","LANE":" ","ALLEY":" ","HOUSE_NO":"５９５號十二樓之１","E_COORD97":178293.48999999999,"N_COORD97":2548440.2599999998,"ADDRESS":"中山路５９５號十二樓之１","OBJECTID":511437},"geometry":{"x":178293.49000000115,"y":2548440.2600000016}},{"attributes":{"ID":511465,"DIS_CODE":0,"TOWNNAME":"新化區","LI":"豐榮里","LIN":"1鄰","STREET":"中山路","SECT":" ","MAREA":" ","LANE":" ","ALLEY":" ","HOUSE_NO":"６１５號八樓之１","E_COORD97":178244.44,"N_COORD97":2548475.2599999998,"ADDRESS":"中山路６１５號八樓之１","OBJECTID":511438},"geometry":{"x":178244.44000000041,"y":2548475.2600000016}},{"attributes":{"ID":511466,"DIS_CODE":0,"TOWNNAME":"新化區","LI":"豐榮里","LIN":"1鄰","STREET":"中山路","SECT":" ","MAREA":" ","LANE":" ","ALLEY":" ","HOUSE_NO":"５９５號十二樓之３","E_COORD97":178293.51000000001,"N_COORD97":2548440.2599999998,"ADDRESS":"中山路５９５號十二樓之３","OBJECTID":511439},"geometry":{"x":178293.50999999978,"y":2548440.2600000016}},{"attributes":{"ID":511467,"DIS_CODE":0,"TOWNNAME":"新化區","LI":"豐榮里","LIN":"1鄰","STREET":"中山路","SECT":" ","MAREA":" ","LANE":" ","ALLEY":" ","HOUSE_NO":"５９５號十樓之７","E_COORD97":178293.25,"N_COORD97":2548440.2599999998,"ADDRESS":"中山路５９５號十樓之７","OBJECTID":511440},"geometry":{"x":178293.25000000093,"y":2548440.2600000016}},{"attributes":{"ID":511468,"DIS_CODE":0,"TOWNNAME":"新化區","LI":"豐榮里","LIN":"1鄰","STREET":"中山路","SECT":" ","MAREA":" ","LANE":" ","ALLEY":" ","HOUSE_NO":"５９５號四樓之１","E_COORD97":178293.23999999999,"N_COORD97":2548440.2599999998,"ADDRESS":"中山路５９５號四樓之１","OBJECTID":511441},"geometry":{"x":178293.24000000209,"y":2548440.2600000016}},{"attributes":{"ID":511469,"DIS_CODE":0,"TOWNNAME":"新化區","LI":"豐榮里","LIN":"1鄰","STREET":"中山路","SECT":" ","MAREA":" ","LANE":" ","ALLEY":" ","HOUSE_NO":"５９５號十二樓之７","E_COORD97":178293.5,"N_COORD97":2548440.2599999998,"ADDRESS":"中山路５９５號十二樓之７","OBJECTID":511442},"geometry":{"x":178293.50000000093,"y":2548440.2600000016}},{"attributes":{"ID":511470,"DIS_CODE":0,"TOWNNAME":"新化區","LI":"豐榮里","LIN":"1鄰","STREET":"中山路","SECT":" ","MAREA":" ","LANE":" ","ALLEY":" ","HOUSE_NO":"５９５號六樓之２","E_COORD97":178293.26000000001,"N_COORD97":2548440.2599999998,"ADDRESS":"中山路５９５號六樓之２","OBJECTID":511443},"geometry":{"x":178293.26000000071,"y":2548440.2600000016}},{"attributes":{"ID":511471,"DIS_CODE":0,"TOWNNAME":"新化區","LI":"豐榮里","LIN":"1鄰","STREET":"中山路","SECT":" ","MAREA":" ","LANE":" ","ALLEY":" ","HOUSE_NO":"５９５號十一樓之７","E_COORD97":178293.5,"N_COORD97":2548440.2599999998,"ADDRESS":"中山路５９５號十一樓之７","OBJECTID":511444},"geometry":{"x":178293.50000000093,"y":2548440.2600000016}},{"attributes":{"ID":511472,"DIS_CODE":0,"TOWNNAME":"東區","LI":"和平里","LIN":"1鄰","STREET":"仁和路","SECT":" ","MAREA":" ","LANE":" ","ALLEY":" ","HOUSE_NO":"３５號五樓","E_COORD97":171099.45000000001,"N_COORD97":2542097.2200000002,"ADDRESS":"仁和路３５號五樓","OBJECTID":511445},"geometry":{"x":171099.45000000112,"y":2542097.2200000007}},{"attributes":{"ID":511473,"DIS_CODE":0,"TOWNNAME":"新化區","LI":"豐榮里","LIN":"1鄰","STREET":"中山路","SECT":" ","MAREA":" ","LANE":" ","ALLEY":" ","HOUSE_NO":"６１５號十一樓","E_COORD97":178244.26000000001,"N_COORD97":2548475.25,"ADDRESS":"中山路６１５號十一樓","OBJECTID":511446},"geometry":{"x":178244.26000000071,"y":2548475.2500000019}},{"attributes":{"ID":511474,"DIS_CODE":0,"TOWNNAME":"新化區","LI":"豐榮里","LIN":"1鄰","STREET":"中山路","SECT":" ","MAREA":" ","LANE":" ","ALLEY":" ","HOUSE_NO":"５９５號五樓之１","E_COORD97":178293.23999999999,"N_COORD97":2548440.2599999998,"ADDRESS":"中山路５９５號五樓之１","OBJECTID":511447},"geometry":{"x":178293.24000000209,"y":2548440.2600000016}},{"attributes":{"ID":511475,"DIS_CODE":0,"TOWNNAME":"新化區","LI":"豐榮里","LIN":"1鄰","STREET":"中山路","SECT":" ","MAREA":" ","LANE":" ","ALLEY":" ","HOUSE_NO":"６１５號八樓之４","E_COORD97":178244.44,"N_COORD97":2548475.2599999998,"ADDRESS":"中山路６１５號八樓之４","OBJECTID":511448},"geometry":{"x":178244.44000000041,"y":2548475.2600000016}},{"attributes":{"ID":511476,"DIS_CODE":0,"TOWNNAME":"新化區","LI":"豐榮里","LIN":"1鄰","STREET":"中山路","SECT":" ","MAREA":" ","LANE":" ","ALLEY":" ","HOUSE_NO":"５９５號十樓之２","E_COORD97":178293.26000000001,"N_COORD97":2548440.2599999998,"ADDRESS":"中山路５９５號十樓之２","OBJECTID":511449},"geometry":{"x":178293.26000000071,"y":2548440.2600000016}},{"attributes":{"ID":511477,"DIS_CODE":0,"TOWNNAME":"新化區","LI":"豐榮里","LIN":"1鄰","STREET":"中山路","SECT":" ","MAREA":" ","LANE":" ","ALLEY":" ","HOUSE_NO":"５９５號六樓之３","E_COORD97":178293.26000000001,"N_COORD97":2548440.2599999998,"ADDRESS":"中山路５９５號六樓之３","OBJECTID":511450},"geometry":{"x":178293.26000000071,"y":2548440.2600000016}},{"attributes":{"ID":511478,"DIS_CODE":0,"TOWNNAME":"新化區","LI":"豐榮里","LIN":"1鄰","STREET":"中山路","SECT":" ","MAREA":" ","LANE":" ","ALLEY":" ","HOUSE_NO":"５９５號三樓之６","E_COORD97":178293.26000000001,"N_COORD97":2548440.2599999998,"ADDRESS":"中山路５９５號三樓之６","OBJECTID":511451},"geometry":{"x":178293.26000000071,"y":2548440.2600000016}},{"attributes":{"ID":511479,"DIS_CODE":0,"TOWNNAME":"新化區","LI":"豐榮里","LIN":"1鄰","STREET":"中山路","SECT":" ","MAREA":" ","LANE":" ","ALLEY":" ","HOUSE_NO":"５９５號十二樓之６","E_COORD97":178293.51000000001,"N_COORD97":2548440.2599999998,"ADDRESS":"中山路５９５號十二樓之６","OBJECTID":511452},"geometry":{"x":178293.50999999978,"y":2548440.2600000016}},{"attributes":{"ID":511480,"DIS_CODE":0,"TOWNNAME":"新化區","LI":"豐榮里","LIN":"1鄰","STREET":"中山路","SECT":" ","MAREA":" ","LANE":" ","ALLEY":" ","HOUSE_NO":"５９５號五樓之７","E_COORD97":178293.25,"N_COORD97":2548440.2599999998,"ADDRESS":"中山路５９５號五樓之７","OBJECTID":511453},"geometry":{"x":178293.25000000093,"y":2548440.2600000016}},{"attributes":{"ID":511481,"DIS_CODE":0,"TOWNNAME":"新化區","LI":"豐榮里","LIN":"1鄰","STREET":"中山路","SECT":" ","MAREA":" ","LANE":" ","ALLEY":" ","HOUSE_NO":"５９５號九樓之２","E_COORD97":178293.26000000001,"N_COORD97":2548440.2599999998,"ADDRESS":"中山路５９５號九樓之２","OBJECTID":511454},"geometry":{"x":178293.26000000071,"y":2548440.2600000016}},{"attributes":{"ID":511482,"DIS_CODE":0,"TOWNNAME":"新化區","LI":"豐榮里","LIN":"1鄰","STREET":"中山路","SECT":" ","MAREA":" ","LANE":" ","ALLEY":" ","HOUSE_NO":"５９５號七樓之４","E_COORD97":178293.23999999999,"N_COORD97":2548440.2599999998,"ADDRESS":"中山路５９５號七樓之４","OBJECTID":511455},"geometry":{"x":178293.24000000209,"y":2548440.2600000016}},{"attributes":{"ID":511483,"DIS_CODE":0,"TOWNNAME":"新化區","LI":"豐榮里","LIN":"1鄰","STREET":"中山路","SECT":" ","MAREA":" ","LANE":" ","ALLEY":" ","HOUSE_NO":"６１５號七樓之２","E_COORD97":178244.45999999999,"N_COORD97":2548475.2599999998,"ADDRESS":"中山路６１５號七樓之２","OBJECTID":511456},"geometry":{"x":178244.46000000089,"y":2548475.2600000016}},{"attributes":{"ID":511484,"DIS_CODE":0,"TOWNNAME":"新化區","LI":"豐榮里","LIN":"1鄰","STREET":"中山路","SECT":" ","MAREA":" ","LANE":" ","ALLEY":" ","HOUSE_NO":"５９５號二樓之７","E_COORD97":178293.25,"N_COORD97":2548440.2599999998,"ADDRESS":"中山路５９５號二樓之７","OBJECTID":511457},"geometry":{"x":178293.25000000093,"y":2548440.2600000016}},{"attributes":{"ID":511485,"DIS_CODE":0,"TOWNNAME":"新化區","LI":"豐榮里","LIN":"1鄰","STREET":"中山路","SECT":" ","MAREA":" ","LANE":" ","ALLEY":" ","HOUSE_NO":"５９５號七樓之２","E_COORD97":178293.26000000001,"N_COORD97":2548440.2599999998,"ADDRESS":"中山路５９５號七樓之２","OBJECTID":511458},"geometry":{"x":178293.26000000071,"y":2548440.2600000016}},{"attributes":{"ID":511486,"DIS_CODE":0,"TOWNNAME":"新化區","LI":"豐榮里","LIN":"1鄰","STREET":"中山路","SECT":" ","MAREA":" ","LANE":" ","ALLEY":" ","HOUSE_NO":"５９５號四樓之７","E_COORD97":178293.25,"N_COORD97":2548440.2599999998,"ADDRESS":"中山路５９５號四樓之７","OBJECTID":511459},"geometry":{"x":178293.25000000093,"y":2548440.2600000016}},{"attributes":{"ID":511487,"DIS_CODE":0,"TOWNNAME":"新化區","LI":"豐榮里","LIN":"1鄰","STREET":"中山路","SECT":" ","MAREA":" ","LANE":" ","ALLEY":" ","HOUSE_NO":"５９５號七樓之７","E_COORD97":178293.25,"N_COORD97":2548440.2599999998,"ADDRESS":"中山路５９５號七樓之７","OBJECTID":511460},"geometry":{"x":178293.25000000093,"y":2548440.2600000016}},{"attributes":{"ID":511488,"DIS_CODE":0,"TOWNNAME":"新化區","LI":"豐榮里","LIN":"1鄰","STREET":"中山路","SECT":" ","MAREA":" ","LANE":" ","ALLEY":" ","HOUSE_NO":"５９５號五樓之６","E_COORD97":178293.26000000001,"N_COORD97":2548440.2599999998,"ADDRESS":"中山路５９５號五樓之６","OBJECTID":511461},"geometry":{"x":178293.26000000071,"y":2548440.2600000016}},{"attributes":{"ID":511489,"DIS_CODE":0,"TOWNNAME":"新化區","LI":"豐榮里","LIN":"1鄰","STREET":"中山路","SECT":" ","MAREA":" ","LANE":" ","ALLEY":" ","HOUSE_NO":"５９５號二樓之２","E_COORD97":178293.26000000001,"N_COORD97":2548440.2599999998,"ADDRESS":"中山路５９５號二樓之２","OBJECTID":511462},"geometry":{"x":178293.26000000071,"y":2548440.2600000016}},{"attributes":{"ID":511490,"DIS_CODE":0,"TOWNNAME":"新化區","LI":"豐榮里","LIN":"1鄰","STREET":"中山路","SECT":" ","MAREA":" ","LANE":" ","ALLEY":" ","HOUSE_NO":"６１５號六樓之３","E_COORD97":178244.45999999999,"N_COORD97":2548475.2599999998,"ADDRESS":"中山路６１５號六樓之３","OBJECTID":511463},"geometry":{"x":178244.46000000089,"y":2548475.2600000016}},{"attributes":{"ID":511491,"DIS_CODE":0,"TOWNNAME":"東區","LI":"和平里","LIN":"1鄰","STREET":"仁和路","SECT":" ","MAREA":" ","LANE":" ","ALLEY":" ","HOUSE_NO":"２９號六樓","E_COORD97":171099.45000000001,"N_COORD97":2542097.2200000002,"ADDRESS":"仁和路２９號六樓","OBJECTID":511464},"geometry":{"x":171099.45000000112,"y":2542097.2200000007}},{"attributes":{"ID":511492,"DIS_CODE":0,"TOWNNAME":"新化區","LI":"豐榮里","LIN":"1鄰","STREET":"中山路","SECT":" ","MAREA":" ","LANE":" ","ALLEY":" ","HOUSE_NO":"６１５號三樓","E_COORD97":178244.01000000001,"N_COORD97":2548475.25,"ADDRESS":"中山路６１５號三樓","OBJECTID":511465},"geometry":{"x":178244.01000000071,"y":2548475.2500000019}},{"attributes":{"ID":511493,"DIS_CODE":0,"TOWNNAME":"新化區","LI":"豐榮里","LIN":"1鄰","STREET":"中山路","SECT":" ","MAREA":" ","LANE":" ","ALLEY":" ","HOUSE_NO":"５９５號十樓之５","E_COORD97":178293.26999999999,"N_COORD97":2548440.2599999998,"ADDRESS":"中山路５９５號十樓之５","OBJECTID":511466},"geometry":{"x":178293.26999999955,"y":2548440.2600000016}},{"attributes":{"ID":511494,"DIS_CODE":0,"TOWNNAME":"新化區","LI":"豐榮里","LIN":"1鄰","STREET":"中山路","SECT":" ","MAREA":" ","LANE":" ","ALLEY":" ","HOUSE_NO":"６１５號十二樓之１","E_COORD97":178244.69,"N_COORD97":2548475.2599999998,"ADDRESS":"中山路６１５號十二樓之１","OBJECTID":511467},"geometry":{"x":178244.69000000227,"y":2548475.2600000016}},{"attributes":{"ID":511495,"DIS_CODE":0,"TOWNNAME":"新化區","LI":"豐榮里","LIN":"1鄰","STREET":"中山路","SECT":" ","MAREA":" ","LANE":" ","ALLEY":" ","HOUSE_NO":"５９５號八樓之３","E_COORD97":178293.26000000001,"N_COORD97":2548440.2599999998,"ADDRESS":"中山路５９５號八樓之３","OBJECTID":511468},"geometry":{"x":178293.26000000071,"y":2548440.2600000016}},{"attributes":{"ID":511496,"DIS_CODE":0,"TOWNNAME":"東區","LI":"莊敬里","LIN":"1鄰","STREET":"小東路","SECT":" ","MAREA":" ","LANE":" ","ALLEY":" ","HOUSE_NO":"２５０號三樓之２","E_COORD97":171076.17999999999,"N_COORD97":2544370.96,"ADDRESS":"小東路２５０號三樓之２","OBJECTID":511469},"geometry":{"x":171076.1799999997,"y":2544370.9600000009}},{"attributes":{"ID":511497,"DIS_CODE":0,"TOWNNAME":"東區","LI":"莊敬里","LIN":"1鄰","STREET":"小東路","SECT":" ","MAREA":" ","LANE":" ","ALLEY":" ","HOUSE_NO":"２５０號三樓之３","E_COORD97":171076.17999999999,"N_COORD97":2544370.96,"ADDRESS":"小東路２５０號三樓之３","OBJECTID":511470},"geometry":{"x":171076.1799999997,"y":2544370.9600000009}},{"attributes":{"ID":511498,"DIS_CODE":0,"TOWNNAME":"東區","LI":"莊敬里","LIN":"1鄰","STREET":"小東路","SECT":" ","MAREA":" ","LANE":" ","ALLEY":" ","HOUSE_NO":"２５０號四樓之１","E_COORD97":171076.17999999999,"N_COORD97":2544370.96,"ADDRESS":"小東路２５０號四樓之１","OBJECTID":511471},"geometry":{"x":171076.1799999997,"y":2544370.9600000009}},{"attributes":{"ID":511499,"DIS_CODE":0,"TOWNNAME":"東區","LI":"莊敬里","LIN":"1鄰","STREET":"小東路","SECT":" ","MAREA":" ","LANE":" ","ALLEY":" ","HOUSE_NO":"２５０號四樓之２","E_COORD97":171076.17999999999,"N_COORD97":2544370.96,"ADDRESS":"小東路２５０號四樓之２","OBJECTID":511472},"geometry":{"x":171076.1799999997,"y":2544370.9600000009}},{"attributes":{"ID":511500,"DIS_CODE":0,"TOWNNAME":"東區","LI":"莊敬里","LIN":"1鄰","STREET":"小東路","SECT":" ","MAREA":" ","LANE":" ","ALLEY":" ","HOUSE_NO":"２５０號四樓之３","E_COORD97":171076.17999999999,"N_COORD97":2544370.96,"ADDRESS":"小東路２５０號四樓之３","OBJECTID":511473},"geometry":{"x":171076.1799999997,"y":2544370.9600000009}},{"attributes":{"ID":511501,"DIS_CODE":0,"TOWNNAME":"東區","LI":"莊敬里","LIN":"1鄰","STREET":"小東路","SECT":" ","MAREA":" ","LANE":" ","ALLEY":" ","HOUSE_NO":"２５０號三樓之１","E_COORD97":171076.17999999999,"N_COORD97":2544370.96,"ADDRESS":"小東路２５０號三樓之１","OBJECTID":511474},"geometry":{"x":171076.1799999997,"y":2544370.9600000009}},{"attributes":{"ID":511502,"DIS_CODE":0,"TOWNNAME":"東區","LI":"仁和里","LIN":"1鄰","STREET":"仁和路","SECT":" ","MAREA":" ","LANE":" ","ALLEY":" ","HOUSE_NO":"１０５號之６三樓之１","E_COORD97":171357.14000000001,"N_COORD97":2541336.1099999999,"ADDRESS":"仁和路１０５號之６三樓之１","OBJECTID":511475},"geometry":{"x":171357.1400000006,"y":2541336.1099999994}},{"attributes":{"ID":511503,"DIS_CODE":0,"TOWNNAME":"東區","LI":"仁和里","LIN":"1鄰","STREET":"仁和路","SECT":" ","MAREA":" ","LANE":" ","ALLEY":" ","HOUSE_NO":"１０５號之６三樓之２","E_COORD97":171357.14000000001,"N_COORD97":2541336.1099999999,"ADDRESS":"仁和路１０５號之６三樓之２","OBJECTID":511476},"geometry":{"x":171357.1400000006,"y":2541336.1099999994}},{"attributes":{"ID":511504,"DIS_CODE":0,"TOWNNAME":"東區","LI":"仁和里","LIN":"1鄰","STREET":"仁和路","SECT":" ","MAREA":" ","LANE":" ","ALLEY":" ","HOUSE_NO":"１０５號之６三樓之３","E_COORD97":171357.14000000001,"N_COORD97":2541336.1099999999,"ADDRESS":"仁和路１０５號之６三樓之３","OBJECTID":511477},"geometry":{"x":171357.1400000006,"y":2541336.1099999994}},{"attributes":{"ID":511505,"DIS_CODE":0,"TOWNNAME":"東區","LI":"仁和里","LIN":"1鄰","STREET":"仁和路","SECT":" ","MAREA":" ","LANE":" ","ALLEY":" ","HOUSE_NO":"１０５號之６三樓之４","E_COORD97":171357.14000000001,"N_COORD97":2541336.1099999999,"ADDRESS":"仁和路１０５號之６三樓之４","OBJECTID":511478},"geometry":{"x":171357.1400000006,"y":2541336.1099999994}},{"attributes":{"ID":511506,"DIS_CODE":0,"TOWNNAME":"東區","LI":"仁和里","LIN":"1鄰","STREET":"仁和路","SECT":" ","MAREA":" ","LANE":" ","ALLEY":" ","HOUSE_NO":"１０５號之６三樓之５","E_COORD97":171357.14000000001,"N_COORD97":2541336.1099999999,"ADDRESS":"仁和路１０５號之６三樓之５","OBJECTID":511479},"geometry":{"x":171357.1400000006,"y":2541336.1099999994}},{"attributes":{"ID":511507,"DIS_CODE":0,"TOWNNAME":"東區","LI":"和平里","LIN":"1鄰","STREET":"仁和路","SECT":" ","MAREA":" ","LANE":" ","ALLEY":" ","HOUSE_NO":"３３號九樓","E_COORD97":171099.45000000001,"N_COORD97":2542097.2200000002,"ADDRESS":"仁和路３３號九樓","OBJECTID":511480},"geometry":{"x":171099.45000000112,"y":2542097.2200000007}},{"attributes":{"ID":511508,"DIS_CODE":0,"TOWNNAME":"東區","LI":"仁和里","LIN":"1鄰","STREET":"仁和路","SECT":" ","MAREA":" ","LANE":" ","ALLEY":" ","HOUSE_NO":"１０５號之６四樓之１","E_COORD97":171357.14000000001,"N_COORD97":2541336.1099999999,"ADDRESS":"仁和路１０５號之６四樓之１","OBJECTID":511481},"geometry":{"x":171357.1400000006,"y":2541336.1099999994}},{"attributes":{"ID":511509,"DIS_CODE":0,"TOWNNAME":"東區","LI":"仁和里","LIN":"1鄰","STREET":"仁和路","SECT":" ","MAREA":" ","LANE":" ","ALLEY":" ","HOUSE_NO":"１０５號之６四樓之２","E_COORD97":171357.14000000001,"N_COORD97":2541336.1099999999,"ADDRESS":"仁和路１０５號之６四樓之２","OBJECTID":511482},"geometry":{"x":171357.1400000006,"y":2541336.1099999994}},{"attributes":{"ID":511510,"DIS_CODE":0,"TOWNNAME":"東區","LI":"仁和里","LIN":"1鄰","STREET":"仁和路","SECT":" ","MAREA":" ","LANE":" ","ALLEY":" ","HOUSE_NO":"１０５號之６四樓之３","E_COORD97":171357.14000000001,"N_COORD97":2541336.1099999999,"ADDRESS":"仁和路１０５號之６四樓之３","OBJECTID":511483},"geometry":{"x":171357.1400000006,"y":2541336.1099999994}},{"attributes":{"ID":511511,"DIS_CODE":0,"TOWNNAME":"東區","LI":"仁和里","LIN":"1鄰","STREET":"仁和路","SECT":" ","MAREA":" ","LANE":" ","ALLEY":" ","HOUSE_NO":"１０５號之６四樓之４","E_COORD97":171357.14000000001,"N_COORD97":2541336.1099999999,"ADDRESS":"仁和路１０５號之６四樓之４","OBJECTID":511484},"geometry":{"x":171357.1400000006,"y":2541336.1099999994}},{"attributes":{"ID":511512,"DIS_CODE":0,"TOWNNAME":"東區","LI":"仁和里","LIN":"1鄰","STREET":"仁和路","SECT":" ","MAREA":" ","LANE":" ","ALLEY":" ","HOUSE_NO":"１０５號之６五樓之１","E_COORD97":171357.14000000001,"N_COORD97":2541336.1099999999,"ADDRESS":"仁和路１０５號之６五樓之１","OBJECTID":511485},"geometry":{"x":171357.1400000006,"y":2541336.1099999994}},{"attributes":{"ID":511513,"DIS_CODE":0,"TOWNNAME":"東區","LI":"仁和里","LIN":"1鄰","STREET":"仁和路","SECT":" ","MAREA":" ","LANE":" ","ALLEY":" ","HOUSE_NO":"１０５號之６五樓之２","E_COORD97":171357.14000000001,"N_COORD97":2541336.1099999999,"ADDRESS":"仁和路１０５號之６五樓之２","OBJECTID":511486},"geometry":{"x":171357.1400000006,"y":2541336.1099999994}},{"attributes":{"ID":511514,"DIS_CODE":0,"TOWNNAME":"東區","LI":"仁和里","LIN":"1鄰","STREET":"仁和路","SECT":" ","MAREA":" ","LANE":" ","ALLEY":" ","HOUSE_NO":"１０５號之６五樓之３","E_COORD97":171357.14000000001,"N_COORD97":2541336.1099999999,"ADDRESS":"仁和路１０５號之６五樓之３","OBJECTID":511487},"geometry":{"x":171357.1400000006,"y":2541336.1099999994}},{"attributes":{"ID":511515,"DIS_CODE":0,"TOWNNAME":"東區","LI":"仁和里","LIN":"1鄰","STREET":"仁和路","SECT":" ","MAREA":" ","LANE":" ","ALLEY":" ","HOUSE_NO":"１０５號之６五樓之４","E_COORD97":171357.14000000001,"N_COORD97":2541336.1099999999,"ADDRESS":"仁和路１０５號之６五樓之４","OBJECTID":511488},"geometry":{"x":171357.1400000006,"y":2541336.1099999994}},{"attributes":{"ID":511516,"DIS_CODE":0,"TOWNNAME":"東區","LI":"仁和里","LIN":"1鄰","STREET":"仁和路","SECT":" ","MAREA":" ","LANE":" ","ALLEY":" ","HOUSE_NO":"１０５號之６五樓之５","E_COORD97":171357.14000000001,"N_COORD97":2541336.1099999999,"ADDRESS":"仁和路１０５號之６五樓之５","OBJECTID":511489},"geometry":{"x":171357.1400000006,"y":2541336.1099999994}},{"attributes":{"ID":511517,"DIS_CODE":0,"TOWNNAME":"東區","LI":"仁和里","LIN":"1鄰","STREET":"仁和路","SECT":" ","MAREA":" ","LANE":" ","ALLEY":" ","HOUSE_NO":"１０５號之６五樓之６","E_COORD97":171357.14000000001,"N_COORD97":2541336.1099999999,"ADDRESS":"仁和路１０５號之６五樓之６","OBJECTID":511490},"geometry":{"x":171357.1400000006,"y":2541336.1099999994}},{"attributes":{"ID":511518,"DIS_CODE":0,"TOWNNAME":"東區","LI":"和平里","LIN":"1鄰","STREET":"仁和路","SECT":" ","MAREA":" ","LANE":" ","ALLEY":" ","HOUSE_NO":"２７號十二樓","E_COORD97":171099.45000000001,"N_COORD97":2542097.2200000002,"ADDRESS":"仁和路２７號十二樓","OBJECTID":511491},"geometry":{"x":171099.45000000112,"y":2542097.2200000007}},{"attributes":{"ID":511519,"DIS_CODE":0,"TOWNNAME":"東區","LI":"和平里","LIN":"1鄰","STREET":"仁和路","SECT":" ","MAREA":" ","LANE":" ","ALLEY":" ","HOUSE_NO":"２７號十三樓","E_COORD97":171099.45000000001,"N_COORD97":2542097.2200000002,"ADDRESS":"仁和路２７號十三樓","OBJECTID":511492},"geometry":{"x":171099.45000000112,"y":2542097.2200000007}},{"attributes":{"ID":511520,"DIS_CODE":0,"TOWNNAME":"東區","LI":"和平里","LIN":"1鄰","STREET":"仁和路","SECT":" ","MAREA":" ","LANE":" ","ALLEY":" ","HOUSE_NO":"２９號二樓","E_COORD97":171099.45000000001,"N_COORD97":2542097.2200000002,"ADDRESS":"仁和路２９號二樓","OBJECTID":511493},"geometry":{"x":171099.45000000112,"y":2542097.2200000007}},{"attributes":{"ID":511521,"DIS_CODE":0,"TOWNNAME":"東區","LI":"和平里","LIN":"1鄰","STREET":"仁和路","SECT":" ","MAREA":" ","LANE":" ","ALLEY":" ","HOUSE_NO":"２９號三樓","E_COORD97":171099.45000000001,"N_COORD97":2542097.2200000002,"ADDRESS":"仁和路２９號三樓","OBJECTID":511494},"geometry":{"x":171099.45000000112,"y":2542097.2200000007}},{"attributes":{"ID":511522,"DIS_CODE":0,"TOWNNAME":"東區","LI":"和平里","LIN":"1鄰","STREET":"仁和路","SECT":" ","MAREA":" ","LANE":" ","ALLEY":" ","HOUSE_NO":"２９號四樓","E_COORD97":171099.45000000001,"N_COORD97":2542097.2200000002,"ADDRESS":"仁和路２９號四樓","OBJECTID":511495},"geometry":{"x":171099.45000000112,"y":2542097.2200000007}},{"attributes":{"ID":511523,"DIS_CODE":0,"TOWNNAME":"東區","LI":"和平里","LIN":"1鄰","STREET":"仁和路","SECT":" ","MAREA":" ","LANE":" ","ALLEY":" ","HOUSE_NO":"２９號七樓","E_COORD97":171099.45000000001,"N_COORD97":2542097.2200000002,"ADDRESS":"仁和路２９號七樓","OBJECTID":511496},"geometry":{"x":171099.45000000112,"y":2542097.2200000007}},{"attributes":{"ID":511524,"DIS_CODE":0,"TOWNNAME":"東區","LI":"和平里","LIN":"1鄰","STREET":"仁和路","SECT":" ","MAREA":" ","LANE":" ","ALLEY":" ","HOUSE_NO":"２９號八樓","E_COORD97":171099.45000000001,"N_COORD97":2542097.2200000002,"ADDRESS":"仁和路２９號八樓","OBJECTID":511497},"geometry":{"x":171099.45000000112,"y":2542097.2200000007}},{"attributes":{"ID":511525,"DIS_CODE":0,"TOWNNAME":"東區","LI":"和平里","LIN":"1鄰","STREET":"仁和路","SECT":" ","MAREA":" ","LANE":" ","ALLEY":" ","HOUSE_NO":"２９號九樓","E_COORD97":171099.45000000001,"N_COORD97":2542097.2200000002,"ADDRESS":"仁和路２９號九樓","OBJECTID":511498},"geometry":{"x":171099.45000000112,"y":2542097.2200000007}},{"attributes":{"ID":511526,"DIS_CODE":0,"TOWNNAME":"東區","LI":"和平里","LIN":"1鄰","STREET":"仁和路","SECT":" ","MAREA":" ","LANE":" ","ALLEY":" ","HOUSE_NO":"２９號十樓","E_COORD97":171099.45000000001,"N_COORD97":2542097.2200000002,"ADDRESS":"仁和路２９號十樓","OBJECTID":511499},"geometry":{"x":171099.45000000112,"y":2542097.2200000007}},{"attributes":{"ID":511527,"DIS_CODE":0,"TOWNNAME":"東區","LI":"和平里","LIN":"1鄰","STREET":"仁和路","SECT":" ","MAREA":" ","LANE":" ","ALLEY":" ","HOUSE_NO":"２９號十一樓","E_COORD97":171099.45000000001,"N_COORD97":2542097.2200000002,"ADDRESS":"仁和路２９號十一樓","OBJECTID":511500},"geometry":{"x":171099.45000000112,"y":2542097.2200000007}},{"attributes":{"ID":511528,"DIS_CODE":0,"TOWNNAME":"東區","LI":"和平里","LIN":"1鄰","STREET":"仁和路","SECT":" ","MAREA":" ","LANE":" ","ALLEY":" ","HOUSE_NO":"２９號十二樓","E_COORD97":171099.45000000001,"N_COORD97":2542097.2200000002,"ADDRESS":"仁和路２９號十二樓","OBJECTID":511501},"geometry":{"x":171099.45000000112,"y":2542097.2200000007}},{"attributes":{"ID":511529,"DIS_CODE":0,"TOWNNAME":"東區","LI":"和平里","LIN":"1鄰","STREET":"仁和路","SECT":" ","MAREA":" ","LANE":" ","ALLEY":" ","HOUSE_NO":"２９號十三樓","E_COORD97":171099.45000000001,"N_COORD97":2542097.2200000002,"ADDRESS":"仁和路２９號十三樓","OBJECTID":511502},"geometry":{"x":171099.45000000112,"y":2542097.2200000007}},{"attributes":{"ID":511530,"DIS_CODE":0,"TOWNNAME":"東區","LI":"和平里","LIN":"1鄰","STREET":"仁和路","SECT":" ","MAREA":" ","LANE":" ","ALLEY":" ","HOUSE_NO":"３１號二樓","E_COORD97":171099.45000000001,"N_COORD97":2542097.2200000002,"ADDRESS":"仁和路３１號二樓","OBJECTID":511503},"geometry":{"x":171099.45000000112,"y":2542097.2200000007}},{"attributes":{"ID":511531,"DIS_CODE":0,"TOWNNAME":"東區","LI":"和平里","LIN":"1鄰","STREET":"仁和路","SECT":" ","MAREA":" ","LANE":" ","ALLEY":" ","HOUSE_NO":"３１號三樓","E_COORD97":171099.45000000001,"N_COORD97":2542097.2200000002,"ADDRESS":"仁和路３１號三樓","OBJECTID":511504},"geometry":{"x":171099.45000000112,"y":2542097.2200000007}},{"attributes":{"ID":511532,"DIS_CODE":0,"TOWNNAME":"東區","LI":"和平里","LIN":"1鄰","STREET":"仁和路","SECT":" ","MAREA":" ","LANE":" ","ALLEY":" ","HOUSE_NO":"３１號四樓","E_COORD97":171099.45000000001,"N_COORD97":2542097.2200000002,"ADDRESS":"仁和路３１號四樓","OBJECTID":511505},"geometry":{"x":171099.45000000112,"y":2542097.2200000007}},{"attributes":{"ID":511533,"DIS_CODE":0,"TOWNNAME":"東區","LI":"和平里","LIN":"1鄰","STREET":"仁和路","SECT":" ","MAREA":" ","LANE":" ","ALLEY":" ","HOUSE_NO":"３１號十一樓","E_COORD97":171099.45000000001,"N_COORD97":2542097.2200000002,"ADDRESS":"仁和路３１號十一樓","OBJECTID":511506},"geometry":{"x":171099.45000000112,"y":2542097.2200000007}},{"attributes":{"ID":511534,"DIS_CODE":0,"TOWNNAME":"東區","LI":"和平里","LIN":"1鄰","STREET":"仁和路","SECT":" ","MAREA":" ","LANE":" ","ALLEY":" ","HOUSE_NO":"３１號十二樓","E_COORD97":171099.45000000001,"N_COORD97":2542097.2200000002,"ADDRESS":"仁和路３１號十二樓","OBJECTID":511507},"geometry":{"x":171099.45000000112,"y":2542097.2200000007}},{"attributes":{"ID":511535,"DIS_CODE":0,"TOWNNAME":"東區","LI":"和平里","LIN":"1鄰","STREET":"仁和路","SECT":" ","MAREA":" ","LANE":" ","ALLEY":" ","HOUSE_NO":"３３號二樓","E_COORD97":171099.45000000001,"N_COORD97":2542097.2200000002,"ADDRESS":"仁和路３３號二樓","OBJECTID":511508},"geometry":{"x":171099.45000000112,"y":2542097.2200000007}},{"attributes":{"ID":511536,"DIS_CODE":0,"TOWNNAME":"東區","LI":"和平里","LIN":"1鄰","STREET":"仁和路","SECT":" ","MAREA":" ","LANE":" ","ALLEY":" ","HOUSE_NO":"３３號三樓","E_COORD97":171099.45000000001,"N_COORD97":2542097.2200000002,"ADDRESS":"仁和路３３號三樓","OBJECTID":511509},"geometry":{"x":171099.45000000112,"y":2542097.2200000007}},{"attributes":{"ID":511537,"DIS_CODE":0,"TOWNNAME":"東區","LI":"和平里","LIN":"1鄰","STREET":"仁和路","SECT":" ","MAREA":" ","LANE":" ","ALLEY":" ","HOUSE_NO":"３３號四樓","E_COORD97":171099.45000000001,"N_COORD97":2542097.2200000002,"ADDRESS":"仁和路３３號四樓","OBJECTID":511510},"geometry":{"x":171099.45000000112,"y":2542097.2200000007}},{"attributes":{"ID":511538,"DIS_CODE":0,"TOWNNAME":"東區","LI":"和平里","LIN":"1鄰","STREET":"仁和路","SECT":" ","MAREA":" ","LANE":" ","ALLEY":" ","HOUSE_NO":"３３號五樓","E_COORD97":171099.45000000001,"N_COORD97":2542097.2200000002,"ADDRESS":"仁和路３３號五樓","OBJECTID":511511},"geometry":{"x":171099.45000000112,"y":2542097.2200000007}},{"attributes":{"ID":511539,"DIS_CODE":0,"TOWNNAME":"東區","LI":"和平里","LIN":"1鄰","STREET":"仁和路","SECT":" ","MAREA":" ","LANE":" ","ALLEY":" ","HOUSE_NO":"３３號六樓","E_COORD97":171099.45000000001,"N_COORD97":2542097.2200000002,"ADDRESS":"仁和路３３號六樓","OBJECTID":511512},"geometry":{"x":171099.45000000112,"y":2542097.2200000007}},{"attributes":{"ID":511540,"DIS_CODE":0,"TOWNNAME":"東區","LI":"和平里","LIN":"1鄰","STREET":"仁和路","SECT":" ","MAREA":" ","LANE":" ","ALLEY":" ","HOUSE_NO":"３３號七樓","E_COORD97":171099.45000000001,"N_COORD97":2542097.2200000002,"ADDRESS":"仁和路３３號七樓","OBJECTID":511513},"geometry":{"x":171099.45000000112,"y":2542097.2200000007}},{"attributes":{"ID":511541,"DIS_CODE":0,"TOWNNAME":"東區","LI":"和平里","LIN":"1鄰","STREET":"仁和路","SECT":" ","MAREA":" ","LANE":" ","ALLEY":" ","HOUSE_NO":"３３號十樓","E_COORD97":171099.45000000001,"N_COORD97":2542097.2200000002,"ADDRESS":"仁和路３３號十樓","OBJECTID":511514},"geometry":{"x":171099.45000000112,"y":2542097.2200000007}},{"attributes":{"ID":511542,"DIS_CODE":0,"TOWNNAME":"東區","LI":"和平里","LIN":"1鄰","STREET":"仁和路","SECT":" ","MAREA":" ","LANE":" ","ALLEY":" ","HOUSE_NO":"３３號十一樓","E_COORD97":171099.45000000001,"N_COORD97":2542097.2200000002,"ADDRESS":"仁和路３３號十一樓","OBJECTID":511515},"geometry":{"x":171099.45000000112,"y":2542097.2200000007}},{"attributes":{"ID":511543,"DIS_CODE":0,"TOWNNAME":"永康區","LI":"\u25A0行里","LIN":"1鄰","STREET":"中正北路","SECT":" ","MAREA":" ","LANE":" ","ALLEY":" ","HOUSE_NO":"５４號八樓之２","E_COORD97":172007.98000000001,"N_COORD97":2549058.5800000001,"ADDRESS":"中正北路５４號八樓之２","OBJECTID":511516},"geometry":{"x":172007.98000000138,"y":2549058.5800000038}},{"attributes":{"ID":511544,"DIS_CODE":0,"TOWNNAME":"永康區","LI":"\u25A0行里","LIN":"1鄰","STREET":"中正北路","SECT":" ","MAREA":" ","LANE":" ","ALLEY":" ","HOUSE_NO":"５４號七樓之９","E_COORD97":172007.92999999999,"N_COORD97":2549058.5800000001,"ADDRESS":"中正北路５４號七樓之９","OBJECTID":511517},"geometry":{"x":172007.93000000063,"y":2549058.5800000038}},{"attributes":{"ID":511545,"DIS_CODE":0,"TOWNNAME":"永康區","LI":"\u25A0行里","LIN":"1鄰","STREET":"中正北路","SECT":" ","MAREA":" ","LANE":" ","ALLEY":" ","HOUSE_NO":"５４號十樓之１３","E_COORD97":172009.20000000001,"N_COORD97":2549058.5800000001,"ADDRESS":"中正北路５４號十樓之１３","OBJECTID":511518},"geometry":{"x":172009.20000000019,"y":2549058.5800000038}},{"attributes":{"ID":511546,"DIS_CODE":0,"TOWNNAME":"永康區","LI":"\u25A0行里","LIN":"1鄰","STREET":"中正北路","SECT":" ","MAREA":" ","LANE":" ","ALLEY":" ","HOUSE_NO":"５４號十樓之２","E_COORD97":172007.98000000001,"N_COORD97":2549058.5800000001,"ADDRESS":"中正北路５４號十樓之２","OBJECTID":511519},"geometry":{"x":172007.98000000138,"y":2549058.5800000038}},{"attributes":{"ID":511547,"DIS_CODE":0,"TOWNNAME":"永康區","LI":"\u25A0行里","LIN":"1鄰","STREET":"中正北路","SECT":" ","MAREA":" ","LANE":" ","ALLEY":" ","HOUSE_NO":"５４號五樓之２","E_COORD97":172007.98000000001,"N_COORD97":2549058.5800000001,"ADDRESS":"中正北路５４號五樓之２","OBJECTID":511520},"geometry":{"x":172007.98000000138,"y":2549058.5800000038}},{"attributes":{"ID":511548,"DIS_CODE":0,"TOWNNAME":"永康區","LI":"\u25A0行里","LIN":"1鄰","STREET":"中正北路","SECT":" ","MAREA":" ","LANE":" ","ALLEY":" ","HOUSE_NO":"５４號九樓之４","E_COORD97":172007.87,"N_COORD97":2549058.5800000001,"ADDRESS":"中正北路５４號九樓之４","OBJECTID":511521},"geometry":{"x":172007.87000000011,"y":2549058.5800000038}},{"attributes":{"ID":511549,"DIS_CODE":0,"TOWNNAME":"永康區","LI":"\u25A0行里","LIN":"1鄰","STREET":"中正北路","SECT":" ","MAREA":" ","LANE":" ","ALLEY":" ","HOUSE_NO":"５４號八樓之８","E_COORD97":172008,"N_COORD97":2549058.5800000001,"ADDRESS":"中正北路５４號八樓之８","OBJECTID":511522},"geometry":{"x":172008,"y":2549058.5800000038}},{"attributes":{"ID":511550,"DIS_CODE":0,"TOWNNAME":"永康區","LI":"\u25A0行里","LIN":"1鄰","STREET":"中正北路","SECT":" ","MAREA":" ","LANE":" ","ALLEY":" ","HOUSE_NO":"５４號九樓之５","E_COORD97":172008,"N_COORD97":2549058.5800000001,"ADDRESS":"中正北路５４號九樓之５","OBJECTID":511523},"geometry":{"x":172008,"y":2549058.5800000038}},{"attributes":{"ID":511551,"DIS_CODE":0,"TOWNNAME":"永康區","LI":"\u25A0行里","LIN":"1鄰","STREET":"中正北路","SECT":" ","MAREA":" ","LANE":" ","ALLEY":" ","HOUSE_NO":"５４號三樓之４","E_COORD97":172007.87,"N_COORD97":2549058.5800000001,"ADDRESS":"中正北路５４號三樓之４","OBJECTID":511524},"geometry":{"x":172007.87000000011,"y":2549058.5800000038}},{"attributes":{"ID":511552,"DIS_CODE":0,"TOWNNAME":"永康區","LI":"\u25A0行里","LIN":"1鄰","STREET":"中正北路","SECT":" ","MAREA":" ","LANE":" ","ALLEY":" ","HOUSE_NO":"５４號九樓之２","E_COORD97":172007.98000000001,"N_COORD97":2549058.5800000001,"ADDRESS":"中正北路５４號九樓之２","OBJECTID":511525},"geometry":{"x":172007.98000000138,"y":2549058.5800000038}},{"attributes":{"ID":511553,"DIS_CODE":0,"TOWNNAME":"永康區","LI":"\u25A0行里","LIN":"1鄰","STREET":"中正北路","SECT":" ","MAREA":" ","LANE":" ","ALLEY":" ","HOUSE_NO":"５４號十一樓之３","E_COORD97":172009.20000000001,"N_COORD97":2549058.5800000001,"ADDRESS":"中正北路５４號十一樓之３","OBJECTID":511526},"geometry":{"x":172009.20000000019,"y":2549058.5800000038}},{"attributes":{"ID":511554,"DIS_CODE":0,"TOWNNAME":"永康區","LI":"\u25A0行里","LIN":"1鄰","STREET":"中正北路","SECT":" ","MAREA":" ","LANE":" ","ALLEY":" ","HOUSE_NO":"５４號五樓之１３","E_COORD97":172009.20000000001,"N_COORD97":2549058.5800000001,"ADDRESS":"中正北路５４號五樓之１３","OBJECTID":511527},"geometry":{"x":172009.20000000019,"y":2549058.5800000038}},{"attributes":{"ID":511555,"DIS_CODE":0,"TOWNNAME":"永康區","LI":"\u25A0行里","LIN":"1鄰","STREET":"中正北路","SECT":" ","MAREA":" ","LANE":" ","ALLEY":" ","HOUSE_NO":"５４號三樓之３","E_COORD97":172007.95000000001,"N_COORD97":2549058.5800000001,"ADDRESS":"中正北路５４號三樓之３","OBJECTID":511528},"geometry":{"x":172007.95000000112,"y":2549058.5800000038}},{"attributes":{"ID":511556,"DIS_CODE":0,"TOWNNAME":"永康區","LI":"\u25A0行里","LIN":"1鄰","STREET":"中正北路","SECT":" ","MAREA":" ","LANE":" ","ALLEY":" ","HOUSE_NO":"５４號七樓之３","E_COORD97":172007.95000000001,"N_COORD97":2549058.5800000001,"ADDRESS":"中正北路５４號七樓之３","OBJECTID":511529},"geometry":{"x":172007.95000000112,"y":2549058.5800000038}},{"attributes":{"ID":511557,"DIS_CODE":0,"TOWNNAME":"永康區","LI":"\u25A0行里","LIN":"1鄰","STREET":"中正北路","SECT":" ","MAREA":" ","LANE":" ","ALLEY":" ","HOUSE_NO":"５４號七樓之２","E_COORD97":172007.98000000001,"N_COORD97":2549058.5800000001,"ADDRESS":"中正北路５４號七樓之２","OBJECTID":511530},"geometry":{"x":172007.98000000138,"y":2549058.5800000038}},{"attributes":{"ID":511558,"DIS_CODE":0,"TOWNNAME":"永康區","LI":"\u25A0行里","LIN":"1鄰","STREET":"中正北路","SECT":" ","MAREA":" ","LANE":" ","ALLEY":" ","HOUSE_NO":"５４號七樓之４","E_COORD97":172007.87,"N_COORD97":2549058.5800000001,"ADDRESS":"中正北路５４號七樓之４","OBJECTID":511531},"geometry":{"x":172007.87000000011,"y":2549058.5800000038}},{"attributes":{"ID":511559,"DIS_CODE":0,"TOWNNAME":"永康區","LI":"蔦松里","LIN":"1鄰","STREET":"蔦松二街","SECT":" ","MAREA":" ","LANE":" ","ALLEY":" ","HOUSE_NO":"１１４號八樓","E_COORD97":173791.64999999999,"N_COORD97":2549352.29,"ADDRESS":"蔦松二街１１４號八樓","OBJECTID":511532},"geometry":{"x":173791.65000000224,"y":2549352.290000001}},{"attributes":{"ID":511560,"DIS_CODE":0,"TOWNNAME":"永康區","LI":"蔦松里","LIN":"1鄰","STREET":"蔦松二街","SECT":" ","MAREA":" ","LANE":" ","ALLEY":" ","HOUSE_NO":"１１２號七樓之５","E_COORD97":173778.53,"N_COORD97":2549341.8300000001,"ADDRESS":"蔦松二街１１２號七樓之５","OBJECTID":511533},"geometry":{"x":173778.53000000026,"y":2549341.8300000038}},{"attributes":{"ID":511561,"DIS_CODE":0,"TOWNNAME":"永康區","LI":"蔦松里","LIN":"1鄰","STREET":"蔦松二街","SECT":" ","MAREA":" ","LANE":" ","ALLEY":" ","HOUSE_NO":"１１４號四樓之２","E_COORD97":173793.92000000001,"N_COORD97":2549352.3300000001,"ADDRESS":"蔦松二街１１４號四樓之２","OBJECTID":511534},"geometry":{"x":173793.91999999993,"y":2549352.3300000019}},{"attributes":{"ID":511562,"DIS_CODE":0,"TOWNNAME":"永康區","LI":"蔦松里","LIN":"1鄰","STREET":"蔦松二街","SECT":" ","MAREA":" ","LANE":" ","ALLEY":" ","HOUSE_NO":"１１２號八樓之２","E_COORD97":173778.51000000001,"N_COORD97":2549341.8300000001,"ADDRESS":"蔦松二街１１２號八樓之２","OBJECTID":511535},"geometry":{"x":173778.51000000071,"y":2549341.8300000038}},{"attributes":{"ID":511563,"DIS_CODE":0,"TOWNNAME":"南區","LI":"文南里","LIN":"20鄰","STREET":"仁南街","SECT":" ","MAREA":" ","LANE":" ","ALLEY":" ","HOUSE_NO":"６０號","E_COORD97":166392.91,"N_COORD97":2542708.2200000002,"ADDRESS":"仁南街６０號","OBJECTID":511536},"geometry":{"x":166392.91000000015,"y":2542708.2200000044}},{"attributes":{"ID":511564,"DIS_CODE":0,"TOWNNAME":"南區","LI":"文南里","LIN":"20鄰","STREET":"仁南街","SECT":" ","MAREA":" ","LANE":" ","ALLEY":" ","HOUSE_NO":"６２號","E_COORD97":166394.22,"N_COORD97":2542713.6400000001,"ADDRESS":"仁南街６２號","OBJECTID":511537},"geometry":{"x":166394.21999999881,"y":2542713.6400000006}},{"attributes":{"ID":511565,"DIS_CODE":0,"TOWNNAME":"南區","LI":"文南里","LIN":"20鄰","STREET":"仁南街","SECT":" ","MAREA":" ","LANE":" ","ALLEY":" ","HOUSE_NO":"６８號","E_COORD97":166397.47,"N_COORD97":2542738,"ADDRESS":"仁南街６８號","OBJECTID":511538},"geometry":{"x":166397.46999999974,"y":2542738}},{"attributes":{"ID":511566,"DIS_CODE":0,"TOWNNAME":"南區","LI":"文南里","LIN":"20鄰","STREET":"仁南街","SECT":" ","MAREA":" ","LANE":" ","ALLEY":" ","HOUSE_NO":"７０號","E_COORD97":166397.92000000001,"N_COORD97":2542741.8999999999,"ADDRESS":"仁南街７０號","OBJECTID":511539},"geometry":{"x":166397.91999999993,"y":2542741.9000000022}},{"attributes":{"ID":511567,"DIS_CODE":0,"TOWNNAME":"南區","LI":"文南里","LIN":"20鄰","STREET":"仁南街","SECT":" ","MAREA":" ","LANE":" ","ALLEY":" ","HOUSE_NO":"７２號","E_COORD97":166398.98999999999,"N_COORD97":2542746.23,"ADDRESS":"仁南街７２號","OBJECTID":511540},"geometry":{"x":166398.99000000022,"y":2542746.2300000023}},{"attributes":{"ID":511568,"DIS_CODE":0,"TOWNNAME":"南區","LI":"文南里","LIN":"20鄰","STREET":"仁南街","SECT":" ","MAREA":" ","LANE":" ","ALLEY":" ","HOUSE_NO":"７４號","E_COORD97":166399.64999999999,"N_COORD97":2542750.1400000001,"ADDRESS":"仁南街７４號","OBJECTID":511541},"geometry":{"x":166399.6500000013,"y":2542750.1400000025}},{"attributes":{"ID":511569,"DIS_CODE":0,"TOWNNAME":"南區","LI":"文南里","LIN":"20鄰","STREET":"仁南街","SECT":" ","MAREA":" ","LANE":" ","ALLEY":" ","HOUSE_NO":"７６號","E_COORD97":166400.07999999999,"N_COORD97":2542754.4700000002,"ADDRESS":"仁南街７６號","OBJECTID":511542},"geometry":{"x":166400.08000000007,"y":2542754.4700000025}},{"attributes":{"ID":511570,"DIS_CODE":0,"TOWNNAME":"南區","LI":"文南里","LIN":"20鄰","STREET":"仁南街","SECT":" ","MAREA":" ","LANE":" ","ALLEY":" ","HOUSE_NO":"７８號","E_COORD97":166401.17000000001,"N_COORD97":2542758.5899999999,"ADDRESS":"仁南街７８號","OBJECTID":511543},"geometry":{"x":166401.16999999993,"y":2542758.5899999999}},{"attributes":{"ID":511571,"DIS_CODE":0,"TOWNNAME":"南區","LI":"文南里","LIN":"20鄰","STREET":"仁南街","SECT":" ","MAREA":" ","LANE":" ","ALLEY":" ","HOUSE_NO":"８０號","E_COORD97":166401.81,"N_COORD97":2542762.9199999999,"ADDRESS":"仁南街８０號","OBJECTID":511544},"geometry":{"x":166401.80999999959,"y":2542762.9199999999}},{"attributes":{"ID":511572,"DIS_CODE":0,"TOWNNAME":"南區","LI":"文南里","LIN":"20鄰","STREET":"仁南街","SECT":" ","MAREA":" ","LANE":" ","ALLEY":" ","HOUSE_NO":"８２號","E_COORD97":166402.47,"N_COORD97":2542767.2599999998,"ADDRESS":"仁南街８２號","OBJECTID":511545},"geometry":{"x":166402.46999999974,"y":2542767.2599999998}},{"attributes":{"ID":511573,"DIS_CODE":0,"TOWNNAME":"南區","LI":"文南里","LIN":"26鄰","STREET":"仁南街","SECT":" ","MAREA":" ","LANE":" ","ALLEY":" ","HOUSE_NO":"８６號","E_COORD97":166408.39000000001,"N_COORD97":2542793.1499999999,"ADDRESS":"仁南街８６號","OBJECTID":511546},"geometry":{"x":166408.39000000153,"y":2542793.1500000041}},{"attributes":{"ID":511574,"DIS_CODE":0,"TOWNNAME":"南區","LI":"文南里","LIN":"26鄰","STREET":"南功街","SECT":" ","MAREA":" ","LANE":" ","ALLEY":" ","HOUSE_NO":"４７號","E_COORD97":166502.57999999999,"N_COORD97":2542795.3799999999,"ADDRESS":"南功街４７號","OBJECTID":511547},"geometry":{"x":166502.58000000101,"y":2542795.379999999}},{"attributes":{"ID":511575,"DIS_CODE":0,"TOWNNAME":"南區","LI":"文南里","LIN":"26鄰","STREET":"南功街","SECT":" ","MAREA":" ","LANE":" ","ALLEY":" ","HOUSE_NO":"４９號","E_COORD97":166503.45000000001,"N_COORD97":2542808.3799999999,"ADDRESS":"南功街４９號","OBJECTID":511548},"geometry":{"x":166503.45000000205,"y":2542808.3800000008}},{"attributes":{"ID":511576,"DIS_CODE":0,"TOWNNAME":"南區","LI":"文南里","LIN":"26鄰","STREET":"南功街","SECT":" ","MAREA":" ","LANE":" ","ALLEY":" ","HOUSE_NO":"５１號","E_COORD97":166504.98000000001,"N_COORD97":2542817.4900000002,"ADDRESS":"南功街５１號","OBJECTID":511549},"geometry":{"x":166504.98000000045,"y":2542817.4900000039}},{"attributes":{"ID":511577,"DIS_CODE":0,"TOWNNAME":"永康區","LI":"\u25A0行里","LIN":"1鄰","STREET":"中正北路","SECT":" ","MAREA":" ","LANE":" ","ALLEY":" ","HOUSE_NO":"５４號六樓之１１","E_COORD97":172009.10000000001,"N_COORD97":2549058.5800000001,"ADDRESS":"中正北路５４號六樓之１１","OBJECTID":511550},"geometry":{"x":172009.09999999963,"y":2549058.5800000038}},{"attributes":{"ID":511578,"DIS_CODE":0,"TOWNNAME":"永康區","LI":"\u25A0行里","LIN":"1鄰","STREET":"中正北路","SECT":" ","MAREA":" ","LANE":" ","ALLEY":" ","HOUSE_NO":"５４號六樓之１０","E_COORD97":172009.14999999999,"N_COORD97":2549058.5800000001,"ADDRESS":"中正北路５４號六樓之１０","OBJECTID":511551},"geometry":{"x":172009.15000000037,"y":2549058.5800000038}},{"attributes":{"ID":511579,"DIS_CODE":0,"TOWNNAME":"永康區","LI":"\u25A0行里","LIN":"1鄰","STREET":"中正北路","SECT":" ","MAREA":" ","LANE":" ","ALLEY":" ","HOUSE_NO":"５４號四樓之１０","E_COORD97":172009.14999999999,"N_COORD97":2549058.5800000001,"ADDRESS":"中正北路５４號四樓之１０","OBJECTID":511552},"geometry":{"x":172009.15000000037,"y":2549058.5800000038}},{"attributes":{"ID":511580,"DIS_CODE":0,"TOWNNAME":"永康區","LI":"\u25A0行里","LIN":"1鄰","STREET":"中正北路","SECT":" ","MAREA":" ","LANE":" ","ALLEY":" ","HOUSE_NO":"５４號六樓之３","E_COORD97":172007.95000000001,"N_COORD97":2549058.5800000001,"ADDRESS":"中正北路５４號六樓之３","OBJECTID":511553},"geometry":{"x":172007.95000000112,"y":2549058.5800000038}},{"attributes":{"ID":511581,"DIS_CODE":0,"TOWNNAME":"永康區","LI":"\u25A0行里","LIN":"1鄰","STREET":"中正北路","SECT":" ","MAREA":" ","LANE":" ","ALLEY":" ","HOUSE_NO":"５４號六樓之８","E_COORD97":172008,"N_COORD97":2549058.5800000001,"ADDRESS":"中正北路５４號六樓之８","OBJECTID":511554},"geometry":{"x":172008,"y":2549058.5800000038}},{"attributes":{"ID":511582,"DIS_CODE":0,"TOWNNAME":"永康區","LI":"\u25A0行里","LIN":"1鄰","STREET":"中正北路","SECT":" ","MAREA":" ","LANE":" ","ALLEY":" ","HOUSE_NO":"５４號四樓之２","E_COORD97":172007.98000000001,"N_COORD97":2549058.5800000001,"ADDRESS":"中正北路５４號四樓之２","OBJECTID":511555},"geometry":{"x":172007.98000000138,"y":2549058.5800000038}},{"attributes":{"ID":511583,"DIS_CODE":0,"TOWNNAME":"永康區","LI":"\u25A0行里","LIN":"1鄰","STREET":"中正北路","SECT":" ","MAREA":" ","LANE":" ","ALLEY":" ","HOUSE_NO":"５４號六樓之１３","E_COORD97":172009.20000000001,"N_COORD97":2549058.5800000001,"ADDRESS":"中正北路５４號六樓之１３","OBJECTID":511556},"geometry":{"x":172009.20000000019,"y":2549058.5800000038}},{"attributes":{"ID":511584,"DIS_CODE":0,"TOWNNAME":"永康區","LI":"蔦松里","LIN":"1鄰","STREET":"蔦松二街","SECT":" ","MAREA":" ","LANE":" ","ALLEY":" ","HOUSE_NO":"１１２號六樓之２","E_COORD97":173778.51000000001,"N_COORD97":2549341.8300000001,"ADDRESS":"蔦松二街１１２號六樓之２","OBJECTID":511557},"geometry":{"x":173778.51000000071,"y":2549341.8300000038}},{"attributes":{"ID":511585,"DIS_CODE":0,"TOWNNAME":"永康區","LI":"\u25A0行里","LIN":"1鄰","STREET":"中正北路","SECT":" ","MAREA":" ","LANE":" ","ALLEY":" ","HOUSE_NO":"５４號七樓之１３","E_COORD97":172009.20000000001,"N_COORD97":2549058.5800000001,"ADDRESS":"中正北路５４號七樓之１３","OBJECTID":511558},"geometry":{"x":172009.20000000019,"y":2549058.5800000038}},{"attributes":{"ID":511586,"DIS_CODE":0,"TOWNNAME":"中西區","LI":"永福里","LIN":"1鄰","STREET":"忠義路","SECT":"二段","MAREA":" ","LANE":" ","ALLEY":" ","HOUSE_NO":"４７號二樓","E_COORD97":168239.42000000001,"N_COORD97":2543535.9399999999,"ADDRESS":"忠義路二段４７號二樓","OBJECTID":511559},"geometry":{"x":168239.42000000086,"y":2543535.9400000032}},{"attributes":{"ID":511587,"DIS_CODE":0,"TOWNNAME":"中西區","LI":"永福里","LIN":"1鄰","STREET":"忠義路","SECT":"二段","MAREA":" ","LANE":" ","ALLEY":" ","HOUSE_NO":"４７號八樓","E_COORD97":168239.42000000001,"N_COORD97":2543535.9399999999,"ADDRESS":"忠義路二段４７號八樓","OBJECTID":511560},"geometry":{"x":168239.42000000086,"y":2543535.9400000032}},{"attributes":{"ID":511588,"DIS_CODE":0,"TOWNNAME":"中西區","LI":"永福里","LIN":"1鄰","STREET":"忠義路","SECT":"二段","MAREA":" ","LANE":" ","ALLEY":" ","HOUSE_NO":"４７號十一樓","E_COORD97":168239.42000000001,"N_COORD97":2543535.9399999999,"ADDRESS":"忠義路二段４７號十一樓","OBJECTID":511561},"geometry":{"x":168239.42000000086,"y":2543535.9400000032}},{"attributes":{"ID":511589,"DIS_CODE":0,"TOWNNAME":"中西區","LI":"永福里","LIN":"1鄰","STREET":"忠義路","SECT":"二段","MAREA":" ","LANE":" ","ALLEY":" ","HOUSE_NO":"４７號十二樓","E_COORD97":168239.42000000001,"N_COORD97":2543535.9399999999,"ADDRESS":"忠義路二段４７號十二樓","OBJECTID":511562},"geometry":{"x":168239.42000000086,"y":2543535.9400000032}},{"attributes":{"ID":511590,"DIS_CODE":0,"TOWNNAME":"中西區","LI":"永福里","LIN":"1鄰","STREET":"忠義路","SECT":"二段","MAREA":" ","LANE":" ","ALLEY":" ","HOUSE_NO":"４７號十樓","E_COORD97":168239.42000000001,"N_COORD97":2543535.9399999999,"ADDRESS":"忠義路二段４７號十樓","OBJECTID":511563},"geometry":{"x":168239.42000000086,"y":2543535.9400000032}},{"attributes":{"ID":511591,"DIS_CODE":0,"TOWNNAME":"中西區","LI":"永福里","LIN":"1鄰","STREET":"忠義路","SECT":"二段","MAREA":" ","LANE":" ","ALLEY":" ","HOUSE_NO":"４７號三樓","E_COORD97":168239.42000000001,"N_COORD97":2543535.9399999999,"ADDRESS":"忠義路二段４７號三樓","OBJECTID":511564},"geometry":{"x":168239.42000000086,"y":2543535.9400000032}},{"attributes":{"ID":511592,"DIS_CODE":0,"TOWNNAME":"中西區","LI":"永福里","LIN":"1鄰","STREET":"忠義路","SECT":"二段","MAREA":" ","LANE":" ","ALLEY":" ","HOUSE_NO":"４７號五樓","E_COORD97":168239.42000000001,"N_COORD97":2543535.9399999999,"ADDRESS":"忠義路二段４７號五樓","OBJECTID":511565},"geometry":{"x":168239.42000000086,"y":2543535.9400000032}},{"attributes":{"ID":511593,"DIS_CODE":0,"TOWNNAME":"中西區","LI":"永福里","LIN":"1鄰","STREET":"忠義路","SECT":"二段","MAREA":" ","LANE":" ","ALLEY":" ","HOUSE_NO":"４７號六樓","E_COORD97":168239.42000000001,"N_COORD97":2543535.9399999999,"ADDRESS":"忠義路二段４７號六樓","OBJECTID":511566},"geometry":{"x":168239.42000000086,"y":2543535.9400000032}},{"attributes":{"ID":511594,"DIS_CODE":0,"TOWNNAME":"中西區","LI":"永福里","LIN":"1鄰","STREET":"忠義路","SECT":"二段","MAREA":" ","LANE":" ","ALLEY":" ","HOUSE_NO":"４７號四樓","E_COORD97":168239.42000000001,"N_COORD97":2543535.9399999999,"ADDRESS":"忠義路二段４７號四樓","OBJECTID":511567},"geometry":{"x":168239.42000000086,"y":2543535.9400000032}},{"attributes":{"ID":511595,"DIS_CODE":0,"TOWNNAME":"中西區","LI":"永福里","LIN":"1鄰","STREET":"忠義路","SECT":"二段","MAREA":" ","LANE":" ","ALLEY":" ","HOUSE_NO":"４９號七樓","E_COORD97":168242.42999999999,"N_COORD97":2543545.8599999999,"ADDRESS":"忠義路二段４９號七樓","OBJECTID":511568},"geometry":{"x":168242.43000000063,"y":2543545.8599999994}},{"attributes":{"ID":511596,"DIS_CODE":0,"TOWNNAME":"中西區","LI":"永福里","LIN":"1鄰","STREET":"忠義路","SECT":"二段","MAREA":" ","LANE":" ","ALLEY":" ","HOUSE_NO":"４９號九樓","E_COORD97":168242.42999999999,"N_COORD97":2543545.8599999999,"ADDRESS":"忠義路二段４９號九樓","OBJECTID":511569},"geometry":{"x":168242.43000000063,"y":2543545.8599999994}},{"attributes":{"ID":511597,"DIS_CODE":0,"TOWNNAME":"中西區","LI":"永福里","LIN":"1鄰","STREET":"忠義路","SECT":"二段","MAREA":" ","LANE":" ","ALLEY":" ","HOUSE_NO":"４９號八樓","E_COORD97":168242.42999999999,"N_COORD97":2543545.8599999999,"ADDRESS":"忠義路二段４９號八樓","OBJECTID":511570},"geometry":{"x":168242.43000000063,"y":2543545.8599999994}},{"attributes":{"ID":511598,"DIS_CODE":0,"TOWNNAME":"中西區","LI":"永福里","LIN":"1鄰","STREET":"忠義路","SECT":"二段","MAREA":" ","LANE":" ","ALLEY":" ","HOUSE_NO":"４９號十一樓","E_COORD97":168242.42999999999,"N_COORD97":2543545.8599999999,"ADDRESS":"忠義路二段４９號十一樓","OBJECTID":511571},"geometry":{"x":168242.43000000063,"y":2543545.8599999994}},{"attributes":{"ID":511599,"DIS_CODE":0,"TOWNNAME":"中西區","LI":"永福里","LIN":"1鄰","STREET":"忠義路","SECT":"二段","MAREA":" ","LANE":" ","ALLEY":" ","HOUSE_NO":"４９號十二樓","E_COORD97":168242.42999999999,"N_COORD97":2543545.8599999999,"ADDRESS":"忠義路二段４９號十二樓","OBJECTID":511572},"geometry":{"x":168242.43000000063,"y":2543545.8599999994}},{"attributes":{"ID":511600,"DIS_CODE":0,"TOWNNAME":"中西區","LI":"永福里","LIN":"1鄰","STREET":"忠義路","SECT":"二段","MAREA":" ","LANE":" ","ALLEY":" ","HOUSE_NO":"４９號十樓","E_COORD97":168242.42999999999,"N_COORD97":2543545.8599999999,"ADDRESS":"忠義路二段４９號十樓","OBJECTID":511573},"geometry":{"x":168242.43000000063,"y":2543545.8599999994}},{"attributes":{"ID":511601,"DIS_CODE":0,"TOWNNAME":"中西區","LI":"永福里","LIN":"1鄰","STREET":"忠義路","SECT":"二段","MAREA":" ","LANE":" ","ALLEY":" ","HOUSE_NO":"４９號三樓","E_COORD97":168242.42999999999,"N_COORD97":2543545.8599999999,"ADDRESS":"忠義路二段４９號三樓","OBJECTID":511574},"geometry":{"x":168242.43000000063,"y":2543545.8599999994}},{"attributes":{"ID":511602,"DIS_CODE":0,"TOWNNAME":"中西區","LI":"永福里","LIN":"1鄰","STREET":"忠義路","SECT":"二段","MAREA":" ","LANE":" ","ALLEY":" ","HOUSE_NO":"４９號五樓","E_COORD97":168242.42999999999,"N_COORD97":2543545.8599999999,"ADDRESS":"忠義路二段４９號五樓","OBJECTID":511575},"geometry":{"x":168242.43000000063,"y":2543545.8599999994}},{"attributes":{"ID":511603,"DIS_CODE":0,"TOWNNAME":"中西區","LI":"永福里","LIN":"1鄰","STREET":"忠義路","SECT":"二段","MAREA":" ","LANE":" ","ALLEY":" ","HOUSE_NO":"４９號六樓","E_COORD97":168242.42999999999,"N_COORD97":2543545.8599999999,"ADDRESS":"忠義路二段４９號六樓","OBJECTID":511576},"geometry":{"x":168242.43000000063,"y":2543545.8599999994}},{"attributes":{"ID":511604,"DIS_CODE":0,"TOWNNAME":"南區","LI":"文南里","LIN":"26鄰","STREET":"南功街","SECT":" ","MAREA":" ","LANE":" ","ALLEY":" ","HOUSE_NO":"７７號","E_COORD97":166467.88,"N_COORD97":2542801.8799999999,"ADDRESS":"南功街７７號","OBJECTID":511577},"geometry":{"x":166467.87999999896,"y":2542801.879999999}},{"attributes":{"ID":511605,"DIS_CODE":0,"TOWNNAME":"南區","LI":"文南里","LIN":"26鄰","STREET":"南功街","SECT":" ","MAREA":" ","LANE":" ","ALLEY":" ","HOUSE_NO":"７９號","E_COORD97":166474.81,"N_COORD97":2542801.02,"ADDRESS":"南功街７９號","OBJECTID":511578},"geometry":{"x":166474.80999999866,"y":2542801.0200000014}},{"attributes":{"ID":511606,"DIS_CODE":0,"TOWNNAME":"南區","LI":"文南里","LIN":"26鄰","STREET":"南功街","SECT":" ","MAREA":" ","LANE":" ","ALLEY":" ","HOUSE_NO":"８１號","E_COORD97":166482.19,"N_COORD97":2542800.1499999999,"ADDRESS":"南功街８１號","OBJECTID":511579},"geometry":{"x":166482.19000000134,"y":2542800.1500000022}},{"attributes":{"ID":511607,"DIS_CODE":0,"TOWNNAME":"南區","LI":"文南里","LIN":"26鄰","STREET":"南功街","SECT":" ","MAREA":" ","LANE":" ","ALLEY":" ","HOUSE_NO":"８３號","E_COORD97":166490.01000000001,"N_COORD97":2542799.29,"ADDRESS":"南功街８３號","OBJECTID":511580},"geometry":{"x":166490.00999999978,"y":2542799.2899999991}},{"attributes":{"ID":511608,"DIS_CODE":0,"TOWNNAME":"南區","LI":"文南里","LIN":"26鄰","STREET":"建南路","SECT":" ","MAREA":" ","LANE":" ","ALLEY":" ","HOUSE_NO":"２９１號","E_COORD97":166535.38,"N_COORD97":2542876.8399999999,"ADDRESS":"建南路２９１號","OBJECTID":511581},"geometry":{"x":166535.37999999989,"y":2542876.8400000017}},{"attributes":{"ID":511609,"DIS_CODE":0,"TOWNNAME":"中西區","LI":"天后里","LIN":"1鄰","STREET":"永福路","SECT":"二段","MAREA":" ","LANE":" ","ALLEY":" ","HOUSE_NO":"２１１號七樓之１","E_COORD97":168174.48000000001,"N_COORD97":2544058.0699999998,"ADDRESS":"永福路二段２１１號七樓之１","OBJECTID":511582},"geometry":{"x":168174.48000000045,"y":2544058.070000004}},{"attributes":{"ID":511610,"DIS_CODE":0,"TOWNNAME":"中西區","LI":"天后里","LIN":"1鄰","STREET":"永福路","SECT":"二段","MAREA":" ","LANE":" ","ALLEY":" ","HOUSE_NO":"２１１號七樓之２","E_COORD97":168174.48000000001,"N_COORD97":2544058.0699999998,"ADDRESS":"永福路二段２１１號七樓之２","OBJECTID":511583},"geometry":{"x":168174.48000000045,"y":2544058.070000004}},{"attributes":{"ID":511611,"DIS_CODE":0,"TOWNNAME":"中西區","LI":"天后里","LIN":"1鄰","STREET":"永福路","SECT":"二段","MAREA":" ","LANE":" ","ALLEY":" ","HOUSE_NO":"２１１號七樓之３","E_COORD97":168174.48000000001,"N_COORD97":2544058.0699999998,"ADDRESS":"永福路二段２１１號七樓之３","OBJECTID":511584},"geometry":{"x":168174.48000000045,"y":2544058.070000004}},{"attributes":{"ID":511612,"DIS_CODE":0,"TOWNNAME":"中西區","LI":"天后里","LIN":"1鄰","STREET":"永福路","SECT":"二段","MAREA":" ","LANE":" ","ALLEY":" ","HOUSE_NO":"２１１號九樓之１","E_COORD97":168174.48000000001,"N_COORD97":2544058.0699999998,"ADDRESS":"永福路二段２１１號九樓之１","OBJECTID":511585},"geometry":{"x":168174.48000000045,"y":2544058.070000004}},{"attributes":{"ID":511613,"DIS_CODE":0,"TOWNNAME":"中西區","LI":"天后里","LIN":"1鄰","STREET":"永福路","SECT":"二段","MAREA":" ","LANE":" ","ALLEY":" ","HOUSE_NO":"２１１號九樓之２","E_COORD97":168174.48000000001,"N_COORD97":2544058.0699999998,"ADDRESS":"永福路二段２１１號九樓之２","OBJECTID":511586},"geometry":{"x":168174.48000000045,"y":2544058.070000004}},{"attributes":{"ID":511614,"DIS_CODE":0,"TOWNNAME":"中西區","LI":"天后里","LIN":"1鄰","STREET":"永福路","SECT":"二段","MAREA":" ","LANE":" ","ALLEY":" ","HOUSE_NO":"２１１號九樓之３","E_COORD97":168174.48000000001,"N_COORD97":2544058.0699999998,"ADDRESS":"永福路二段２１１號九樓之３","OBJECTID":511587},"geometry":{"x":168174.48000000045,"y":2544058.070000004}},{"attributes":{"ID":511615,"DIS_CODE":0,"TOWNNAME":"中西區","LI":"天后里","LIN":"1鄰","STREET":"永福路","SECT":"二段","MAREA":" ","LANE":" ","ALLEY":" ","HOUSE_NO":"２１１號二樓之１","E_COORD97":168174.48000000001,"N_COORD97":2544058.0699999998,"ADDRESS":"永福路二段２１１號二樓之１","OBJECTID":511588},"geometry":{"x":168174.48000000045,"y":2544058.070000004}},{"attributes":{"ID":511616,"DIS_CODE":0,"TOWNNAME":"中西區","LI":"天后里","LIN":"1鄰","STREET":"永福路","SECT":"二段","MAREA":" ","LANE":" ","ALLEY":" ","HOUSE_NO":"２１１號二樓之２","E_COORD97":168174.48000000001,"N_COORD97":2544058.0699999998,"ADDRESS":"永福路二段２１１號二樓之２","OBJECTID":511589},"geometry":{"x":168174.48000000045,"y":2544058.070000004}},{"attributes":{"ID":511617,"DIS_CODE":0,"TOWNNAME":"中西區","LI":"天后里","LIN":"1鄰","STREET":"永福路","SECT":"二段","MAREA":" ","LANE":" ","ALLEY":" ","HOUSE_NO":"２１１號二樓之３","E_COORD97":168174.48000000001,"N_COORD97":2544058.0699999998,"ADDRESS":"永福路二段２１１號二樓之３","OBJECTID":511590},"geometry":{"x":168174.48000000045,"y":2544058.070000004}},{"attributes":{"ID":511618,"DIS_CODE":0,"TOWNNAME":"中西區","LI":"天后里","LIN":"1鄰","STREET":"永福路","SECT":"二段","MAREA":" ","LANE":" ","ALLEY":" ","HOUSE_NO":"２１１號二樓之４","E_COORD97":168174.48000000001,"N_COORD97":2544058.0699999998,"ADDRESS":"永福路二段２１１號二樓之４","OBJECTID":511591},"geometry":{"x":168174.48000000045,"y":2544058.070000004}},{"attributes":{"ID":511619,"DIS_CODE":0,"TOWNNAME":"中西區","LI":"天后里","LIN":"1鄰","STREET":"永福路","SECT":"二段","MAREA":" ","LANE":" ","ALLEY":" ","HOUSE_NO":"２１１號二樓之５","E_COORD97":168174.48000000001,"N_COORD97":2544058.0699999998,"ADDRESS":"永福路二段２１１號二樓之５","OBJECTID":511592},"geometry":{"x":168174.48000000045,"y":2544058.070000004}},{"attributes":{"ID":511620,"DIS_CODE":0,"TOWNNAME":"中西區","LI":"天后里","LIN":"1鄰","STREET":"永福路","SECT":"二段","MAREA":" ","LANE":" ","ALLEY":" ","HOUSE_NO":"２１１號八樓之１","E_COORD97":168174.48000000001,"N_COORD97":2544058.0699999998,"ADDRESS":"永福路二段２１１號八樓之１","OBJECTID":511593},"geometry":{"x":168174.48000000045,"y":2544058.070000004}},{"attributes":{"ID":511621,"DIS_CODE":0,"TOWNNAME":"中西區","LI":"天后里","LIN":"1鄰","STREET":"永福路","SECT":"二段","MAREA":" ","LANE":" ","ALLEY":" ","HOUSE_NO":"２１１號八樓之２","E_COORD97":168174.48000000001,"N_COORD97":2544058.0699999998,"ADDRESS":"永福路二段２１１號八樓之２","OBJECTID":511594},"geometry":{"x":168174.48000000045,"y":2544058.070000004}},{"attributes":{"ID":511622,"DIS_CODE":0,"TOWNNAME":"中西區","LI":"天后里","LIN":"1鄰","STREET":"永福路","SECT":"二段","MAREA":" ","LANE":" ","ALLEY":" ","HOUSE_NO":"２１１號八樓之３","E_COORD97":168174.48000000001,"N_COORD97":2544058.0699999998,"ADDRESS":"永福路二段２１１號八樓之３","OBJECTID":511595},"geometry":{"x":168174.48000000045,"y":2544058.070000004}},{"attributes":{"ID":511623,"DIS_CODE":0,"TOWNNAME":"中西區","LI":"天后里","LIN":"1鄰","STREET":"永福路","SECT":"二段","MAREA":" ","LANE":" ","ALLEY":" ","HOUSE_NO":"２１１號十樓之１","E_COORD97":168174.48000000001,"N_COORD97":2544058.0699999998,"ADDRESS":"永福路二段２１１號十樓之１","OBJECTID":511596},"geometry":{"x":168174.48000000045,"y":2544058.070000004}},{"attributes":{"ID":511624,"DIS_CODE":0,"TOWNNAME":"中西區","LI":"天后里","LIN":"1鄰","STREET":"永福路","SECT":"二段","MAREA":" ","LANE":" ","ALLEY":" ","HOUSE_NO":"２１１號十樓之２","E_COORD97":168174.48000000001,"N_COORD97":2544058.0699999998,"ADDRESS":"永福路二段２１１號十樓之２","OBJECTID":511597},"geometry":{"x":168174.48000000045,"y":2544058.070000004}},{"attributes":{"ID":511625,"DIS_CODE":0,"TOWNNAME":"中西區","LI":"天后里","LIN":"1鄰","STREET":"永福路","SECT":"二段","MAREA":" ","LANE":" ","ALLEY":" ","HOUSE_NO":"２１１號十樓之３","E_COORD97":168174.48000000001,"N_COORD97":2544058.0699999998,"ADDRESS":"永福路二段２１１號十樓之３","OBJECTID":511598},"geometry":{"x":168174.48000000045,"y":2544058.070000004}},{"attributes":{"ID":511626,"DIS_CODE":0,"TOWNNAME":"中西區","LI":"天后里","LIN":"1鄰","STREET":"永福路","SECT":"二段","MAREA":" ","LANE":" ","ALLEY":" ","HOUSE_NO":"２１１號三樓之１","E_COORD97":168174.48000000001,"N_COORD97":2544058.0699999998,"ADDRESS":"永福路二段２１１號三樓之１","OBJECTID":511599},"geometry":{"x":168174.48000000045,"y":2544058.070000004}},{"attributes":{"ID":511627,"DIS_CODE":0,"TOWNNAME":"中西區","LI":"天后里","LIN":"1鄰","STREET":"永福路","SECT":"二段","MAREA":" ","LANE":" ","ALLEY":" ","HOUSE_NO":"２１１號三樓之２","E_COORD97":168174.48000000001,"N_COORD97":2544058.0699999998,"ADDRESS":"永福路二段２１１號三樓之２","OBJECTID":511600},"geometry":{"x":168174.48000000045,"y":2544058.070000004}}]}