{"displayFieldName":"TOWNNAME","fieldAliases":{"ID":"ID","DIS_CODE":"DIS_CODE","TOWNNAME":"TOWNNAME","LI":"LI","LIN":"LIN","STREET":"STREET","SECT":"SECT","MAREA":"MAREA","LANE":"LANE","ALLEY":"ALLEY","HOUSE_NO":"HOUSE_NO","E_COORD97":"E_COORD97","N_COORD97":"N_COORD97","ADDRESS":"ADDRESS","OBJECTID":"OBJECTID"},"geometryType":"esriGeometryPoint","spatialReference":{"wkid":102443,"latestWkid":3826},"fields":[{"name":"ID","type":"esriFieldTypeDouble","alias":"ID"},{"name":"DIS_CODE","type":"esriFieldTypeInteger","alias":"DIS_CODE"},{"name":"TOWNNAME","type":"esriFieldTypeString","alias":"TOWNNAME","length":8},{"name":"LI","type":"esriFieldTypeString","alias":"LI","length":8},{"name":"LIN","type":"esriFieldTypeString","alias":"LIN","length":12},{"name":"STREET","type":"esriFieldTypeString","alias":"STREET","length":20},{"name":"SECT","type":"esriFieldTypeString","alias":"SECT","length":8},{"name":"MAREA","type":"esriFieldTypeString","alias":"MAREA","length":12},{"name":"LANE","type":"esriFieldTypeString","alias":"LANE","length":10},{"name":"ALLEY","type":"esriFieldTypeString","alias":"ALLEY","length":10},{"name":"HOUSE_NO","type":"esriFieldTypeString","alias":"HOUSE_NO","length":20},{"name":"E_COORD97","type":"esriFieldTypeDouble","alias":"E_COORD97"},{"name":"N_COORD97","type":"esriFieldTypeDouble","alias":"N_COORD97"},{"name":"ADDRESS","type":"esriFieldTypeString","alias":"ADDRESS","length":50},{"name":"OBJECTID","type":"esriFieldTypeOID","alias":"OBJECTID"}],"features":[{"attributes":{"ID":392825,"DIS_CODE":0,"TOWNNAME":"新營區","LI":"南紙里","LIN":"23鄰","STREET":"南紙街","SECT":" ","MAREA":" ","LANE":"１１７巷","ALLEY":" ","HOUSE_NO":"１６號四樓之１０","E_COORD97":177868.60999999999,"N_COORD97":2577436.7999999998,"ADDRESS":"南紙街１１７巷１６號四樓之１０","OBJECTID":392801},"geometry":{"x":177868.6099999994,"y":2577436.8000000026}},{"attributes":{"ID":392826,"DIS_CODE":0,"TOWNNAME":"新營區","LI":"南紙里","LIN":"23鄰","STREET":"南紙街","SECT":" ","MAREA":" ","LANE":"１１７巷","ALLEY":" ","HOUSE_NO":"１６號四樓之１３","E_COORD97":177868.64999999999,"N_COORD97":2577436.7999999998,"ADDRESS":"南紙街１１７巷１６號四樓之１３","OBJECTID":392802},"geometry":{"x":177868.6500000013,"y":2577436.8000000026}},{"attributes":{"ID":392827,"DIS_CODE":0,"TOWNNAME":"永康區","LI":"安康里","LIN":"23鄰","STREET":"中華西街","SECT":" ","MAREA":" ","LANE":"１２２巷","ALLEY":" ","HOUSE_NO":"４５號二樓之２","E_COORD97":170870.17000000001,"N_COORD97":2546233.7999999998,"ADDRESS":"中華西街１２２巷４５號二樓之２","OBJECTID":392803},"geometry":{"x":170870.17000000179,"y":2546233.8000000045}},{"attributes":{"ID":392828,"DIS_CODE":0,"TOWNNAME":"永康區","LI":"安康里","LIN":"23鄰","STREET":"中華西街","SECT":" ","MAREA":" ","LANE":"１２２巷","ALLEY":" ","HOUSE_NO":"３３號二樓","E_COORD97":170837.79000000001,"N_COORD97":2546218.7599999998,"ADDRESS":"中華西街１２２巷３３號二樓","OBJECTID":392804},"geometry":{"x":170837.79000000097,"y":2546218.7599999998}},{"attributes":{"ID":392829,"DIS_CODE":0,"TOWNNAME":"南區","LI":"府南里","LIN":"23鄰","STREET":"大成路","SECT":"二段","MAREA":" ","LANE":"１４３巷","ALLEY":" ","HOUSE_NO":"１９號之１二樓","E_COORD97":167331.98000000001,"N_COORD97":2541629.3399999999,"ADDRESS":"大成路二段１４３巷１９號之１二樓","OBJECTID":392805},"geometry":{"x":167331.98000000045,"y":2541629.3400000017}},{"attributes":{"ID":392830,"DIS_CODE":0,"TOWNNAME":"南區","LI":"府南里","LIN":"23鄰","STREET":"大成路","SECT":"二段","MAREA":" ","LANE":"１４３巷","ALLEY":" ","HOUSE_NO":"１９號之１三樓","E_COORD97":167331.98000000001,"N_COORD97":2541629.3399999999,"ADDRESS":"大成路二段１４３巷１９號之１三樓","OBJECTID":392806},"geometry":{"x":167331.98000000045,"y":2541629.3400000017}},{"attributes":{"ID":392831,"DIS_CODE":0,"TOWNNAME":"南區","LI":"府南里","LIN":"23鄰","STREET":"大成路","SECT":"二段","MAREA":" ","LANE":"１４３巷","ALLEY":" ","HOUSE_NO":"１９號之１五樓","E_COORD97":167331.98000000001,"N_COORD97":2541629.3399999999,"ADDRESS":"大成路二段１４３巷１９號之１五樓","OBJECTID":392807},"geometry":{"x":167331.98000000045,"y":2541629.3400000017}},{"attributes":{"ID":392832,"DIS_CODE":0,"TOWNNAME":"南區","LI":"府南里","LIN":"23鄰","STREET":"大成路","SECT":"二段","MAREA":" ","LANE":"１４３巷","ALLEY":" ","HOUSE_NO":"１９號之１四樓","E_COORD97":167331.98000000001,"N_COORD97":2541629.3399999999,"ADDRESS":"大成路二段１４３巷１９號之１四樓","OBJECTID":392808},"geometry":{"x":167331.98000000045,"y":2541629.3400000017}},{"attributes":{"ID":392833,"DIS_CODE":0,"TOWNNAME":"南區","LI":"府南里","LIN":"23鄰","STREET":"大成路","SECT":"二段","MAREA":" ","LANE":"１４３巷","ALLEY":" ","HOUSE_NO":"２１號二樓","E_COORD97":167306.57999999999,"N_COORD97":2541630.0800000001,"ADDRESS":"大成路二段１４３巷２１號二樓","OBJECTID":392809},"geometry":{"x":167306.58000000101,"y":2541630.0800000038}},{"attributes":{"ID":392834,"DIS_CODE":0,"TOWNNAME":"新營區","LI":"南紙里","LIN":"10鄰","STREET":"南紙街","SECT":" ","MAREA":" ","LANE":"５４巷","ALLEY":" ","HOUSE_NO":"４號","E_COORD97":177778.81,"N_COORD97":2577681.8999999999,"ADDRESS":"南紙街５４巷４號","OBJECTID":392810},"geometry":{"x":177778.81000000052,"y":2577681.9000000022}},{"attributes":{"ID":392835,"DIS_CODE":0,"TOWNNAME":"東區","LI":"崇誨里","LIN":"23鄰","STREET":"東寧路","SECT":" ","MAREA":" ","LANE":"２４８巷","ALLEY":" ","HOUSE_NO":"３號","E_COORD97":170595.23999999999,"N_COORD97":2543436.9300000002,"ADDRESS":"東寧路２４８巷３號","OBJECTID":392811},"geometry":{"x":170595.23999999929,"y":2543436.9299999997}},{"attributes":{"ID":392836,"DIS_CODE":0,"TOWNNAME":"南區","LI":"府南里","LIN":"23鄰","STREET":"大成路","SECT":"二段","MAREA":" ","LANE":"１４３巷","ALLEY":" ","HOUSE_NO":"２１號三樓","E_COORD97":167306.57999999999,"N_COORD97":2541630.0800000001,"ADDRESS":"大成路二段１４３巷２１號三樓","OBJECTID":392812},"geometry":{"x":167306.58000000101,"y":2541630.0800000038}},{"attributes":{"ID":392837,"DIS_CODE":0,"TOWNNAME":"南區","LI":"府南里","LIN":"23鄰","STREET":"大成路","SECT":"二段","MAREA":" ","LANE":"１４３巷","ALLEY":" ","HOUSE_NO":"２１號五樓","E_COORD97":167306.57999999999,"N_COORD97":2541630.0800000001,"ADDRESS":"大成路二段１４３巷２１號五樓","OBJECTID":392813},"geometry":{"x":167306.58000000101,"y":2541630.0800000038}},{"attributes":{"ID":392838,"DIS_CODE":0,"TOWNNAME":"南區","LI":"府南里","LIN":"23鄰","STREET":"大成路","SECT":"二段","MAREA":" ","LANE":"１４３巷","ALLEY":" ","HOUSE_NO":"２１號四樓","E_COORD97":167306.57999999999,"N_COORD97":2541630.0800000001,"ADDRESS":"大成路二段１４３巷２１號四樓","OBJECTID":392814},"geometry":{"x":167306.58000000101,"y":2541630.0800000038}},{"attributes":{"ID":392839,"DIS_CODE":0,"TOWNNAME":"南區","LI":"府南里","LIN":"23鄰","STREET":"大成路","SECT":"二段","MAREA":" ","LANE":"１４３巷","ALLEY":" ","HOUSE_NO":"２１號之１二樓","E_COORD97":167328.98999999999,"N_COORD97":2541622.3700000001,"ADDRESS":"大成路二段１４３巷２１號之１二樓","OBJECTID":392815},"geometry":{"x":167328.99000000115,"y":2541622.3700000048}},{"attributes":{"ID":392840,"DIS_CODE":0,"TOWNNAME":"南區","LI":"府南里","LIN":"23鄰","STREET":"大成路","SECT":"二段","MAREA":" ","LANE":"１４３巷","ALLEY":" ","HOUSE_NO":"２１號之１三樓","E_COORD97":167328.98999999999,"N_COORD97":2541622.3700000001,"ADDRESS":"大成路二段１４３巷２１號之１三樓","OBJECTID":392816},"geometry":{"x":167328.99000000115,"y":2541622.3700000048}},{"attributes":{"ID":392841,"DIS_CODE":0,"TOWNNAME":"南區","LI":"府南里","LIN":"23鄰","STREET":"大成路","SECT":"二段","MAREA":" ","LANE":"１４３巷","ALLEY":" ","HOUSE_NO":"２１號之１五樓","E_COORD97":167328.98999999999,"N_COORD97":2541622.3700000001,"ADDRESS":"大成路二段１４３巷２１號之１五樓","OBJECTID":392817},"geometry":{"x":167328.99000000115,"y":2541622.3700000048}},{"attributes":{"ID":392842,"DIS_CODE":0,"TOWNNAME":"南區","LI":"府南里","LIN":"23鄰","STREET":"大成路","SECT":"二段","MAREA":" ","LANE":"１４３巷","ALLEY":" ","HOUSE_NO":"２１號之１四樓","E_COORD97":167328.98999999999,"N_COORD97":2541622.3700000001,"ADDRESS":"大成路二段１４３巷２１號之１四樓","OBJECTID":392818},"geometry":{"x":167328.99000000115,"y":2541622.3700000048}},{"attributes":{"ID":392843,"DIS_CODE":0,"TOWNNAME":"南區","LI":"府南里","LIN":"23鄰","STREET":"大成路","SECT":"二段","MAREA":" ","LANE":"１４３巷","ALLEY":" ","HOUSE_NO":"２３號二樓","E_COORD97":167304.59,"N_COORD97":2541623.4500000002,"ADDRESS":"大成路二段１４３巷２３號二樓","OBJECTID":392819},"geometry":{"x":167304.59000000078,"y":2541623.450000003}},{"attributes":{"ID":392844,"DIS_CODE":0,"TOWNNAME":"南區","LI":"府南里","LIN":"23鄰","STREET":"大成路","SECT":"二段","MAREA":" ","LANE":"１４３巷","ALLEY":" ","HOUSE_NO":"２３號三樓","E_COORD97":167304.59,"N_COORD97":2541623.4500000002,"ADDRESS":"大成路二段１４３巷２３號三樓","OBJECTID":392820},"geometry":{"x":167304.59000000078,"y":2541623.450000003}},{"attributes":{"ID":392845,"DIS_CODE":0,"TOWNNAME":"南區","LI":"府南里","LIN":"23鄰","STREET":"大成路","SECT":"二段","MAREA":" ","LANE":"１４３巷","ALLEY":" ","HOUSE_NO":"２３號五樓","E_COORD97":167304.59,"N_COORD97":2541623.4500000002,"ADDRESS":"大成路二段１４３巷２３號五樓","OBJECTID":392821},"geometry":{"x":167304.59000000078,"y":2541623.450000003}},{"attributes":{"ID":392846,"DIS_CODE":0,"TOWNNAME":"南區","LI":"府南里","LIN":"23鄰","STREET":"大成路","SECT":"二段","MAREA":" ","LANE":"１４３巷","ALLEY":" ","HOUSE_NO":"２３號四樓","E_COORD97":167304.59,"N_COORD97":2541623.4500000002,"ADDRESS":"大成路二段１４３巷２３號四樓","OBJECTID":392822},"geometry":{"x":167304.59000000078,"y":2541623.450000003}},{"attributes":{"ID":392847,"DIS_CODE":0,"TOWNNAME":"南區","LI":"府南里","LIN":"23鄰","STREET":"大成路","SECT":"二段","MAREA":" ","LANE":"１４３巷","ALLEY":" ","HOUSE_NO":"２３號之１二樓","E_COORD97":167327.16,"N_COORD97":2541617.0600000001,"ADDRESS":"大成路二段１４３巷２３號之１二樓","OBJECTID":392823},"geometry":{"x":167327.16000000015,"y":2541617.0599999987}},{"attributes":{"ID":392848,"DIS_CODE":0,"TOWNNAME":"南區","LI":"府南里","LIN":"23鄰","STREET":"大成路","SECT":"二段","MAREA":" ","LANE":"１４３巷","ALLEY":" ","HOUSE_NO":"２３號之１三樓","E_COORD97":167327.16,"N_COORD97":2541617.0600000001,"ADDRESS":"大成路二段１４３巷２３號之１三樓","OBJECTID":392824},"geometry":{"x":167327.16000000015,"y":2541617.0599999987}},{"attributes":{"ID":392849,"DIS_CODE":0,"TOWNNAME":"南區","LI":"府南里","LIN":"23鄰","STREET":"大成路","SECT":"二段","MAREA":" ","LANE":"１４３巷","ALLEY":" ","HOUSE_NO":"２３號之１五樓","E_COORD97":167327.16,"N_COORD97":2541617.0600000001,"ADDRESS":"大成路二段１４３巷２３號之１五樓","OBJECTID":392825},"geometry":{"x":167327.16000000015,"y":2541617.0599999987}},{"attributes":{"ID":392850,"DIS_CODE":0,"TOWNNAME":"南區","LI":"府南里","LIN":"23鄰","STREET":"大成路","SECT":"二段","MAREA":" ","LANE":"１４３巷","ALLEY":" ","HOUSE_NO":"２３號之１四樓","E_COORD97":167327.16,"N_COORD97":2541617.0600000001,"ADDRESS":"大成路二段１４３巷２３號之１四樓","OBJECTID":392826},"geometry":{"x":167327.16000000015,"y":2541617.0599999987}},{"attributes":{"ID":392851,"DIS_CODE":0,"TOWNNAME":"永康區","LI":"安康里","LIN":"23鄰","STREET":"中華西街","SECT":" ","MAREA":" ","LANE":"１２２巷","ALLEY":" ","HOUSE_NO":"４５號三樓之３","E_COORD97":170870.14000000001,"N_COORD97":2546233.7999999998,"ADDRESS":"中華西街１２２巷４５號三樓之３","OBJECTID":392827},"geometry":{"x":170870.14000000153,"y":2546233.8000000045}},{"attributes":{"ID":392852,"DIS_CODE":0,"TOWNNAME":"永康區","LI":"西灣里","LIN":"23鄰","STREET":"大勇路","SECT":" ","MAREA":" ","LANE":"７６巷","ALLEY":" ","HOUSE_NO":"１７號七樓","E_COORD97":174293.01000000001,"N_COORD97":2545486.0099999998,"ADDRESS":"大勇路７６巷１７號七樓","OBJECTID":392828},"geometry":{"x":174293.00999999978,"y":2545486.0100000016}},{"attributes":{"ID":392853,"DIS_CODE":0,"TOWNNAME":"永康區","LI":"西灣里","LIN":"23鄰","STREET":"大勇路","SECT":" ","MAREA":" ","LANE":"７６巷","ALLEY":" ","HOUSE_NO":"１７號六樓","E_COORD97":174293.01000000001,"N_COORD97":2545486.0099999998,"ADDRESS":"大勇路７６巷１７號六樓","OBJECTID":392829},"geometry":{"x":174293.00999999978,"y":2545486.0100000016}},{"attributes":{"ID":392854,"DIS_CODE":0,"TOWNNAME":"永康區","LI":"西灣里","LIN":"23鄰","STREET":"大勇路","SECT":" ","MAREA":" ","LANE":"７６巷","ALLEY":" ","HOUSE_NO":"２３號九樓","E_COORD97":174304.51000000001,"N_COORD97":2545482.5099999998,"ADDRESS":"大勇路７６巷２３號九樓","OBJECTID":392830},"geometry":{"x":174304.51000000071,"y":2545482.5100000016}},{"attributes":{"ID":392855,"DIS_CODE":0,"TOWNNAME":"永康區","LI":"西灣里","LIN":"23鄰","STREET":"大勇路","SECT":" ","MAREA":" ","LANE":"７６巷","ALLEY":" ","HOUSE_NO":"２３號六樓","E_COORD97":174304.51000000001,"N_COORD97":2545482.5099999998,"ADDRESS":"大勇路７６巷２３號六樓","OBJECTID":392831},"geometry":{"x":174304.51000000071,"y":2545482.5100000016}},{"attributes":{"ID":392856,"DIS_CODE":0,"TOWNNAME":"永康區","LI":"西灣里","LIN":"23鄰","STREET":"大勇路","SECT":" ","MAREA":" ","LANE":"７６巷","ALLEY":" ","HOUSE_NO":"１７號八樓","E_COORD97":174293.01000000001,"N_COORD97":2545486.0099999998,"ADDRESS":"大勇路７６巷１７號八樓","OBJECTID":392832},"geometry":{"x":174293.00999999978,"y":2545486.0100000016}},{"attributes":{"ID":392857,"DIS_CODE":0,"TOWNNAME":"永康區","LI":"安康里","LIN":"23鄰","STREET":"中華西街","SECT":" ","MAREA":" ","LANE":"１２２巷","ALLEY":" ","HOUSE_NO":"４５號四樓之３","E_COORD97":170870.14000000001,"N_COORD97":2546233.7999999998,"ADDRESS":"中華西街１２２巷４５號四樓之３","OBJECTID":392833},"geometry":{"x":170870.14000000153,"y":2546233.8000000045}},{"attributes":{"ID":392858,"DIS_CODE":0,"TOWNNAME":"永康區","LI":"安康里","LIN":"23鄰","STREET":"中華西街","SECT":" ","MAREA":" ","LANE":"１２２巷","ALLEY":" ","HOUSE_NO":"４５號一樓之１","E_COORD97":170870.04000000001,"N_COORD97":2546233.7999999998,"ADDRESS":"中華西街１２２巷４５號一樓之１","OBJECTID":392834},"geometry":{"x":170870.04000000097,"y":2546233.8000000045}},{"attributes":{"ID":392859,"DIS_CODE":0,"TOWNNAME":"永康區","LI":"安康里","LIN":"23鄰","STREET":"中華西街","SECT":" ","MAREA":" ","LANE":"１２２巷","ALLEY":" ","HOUSE_NO":"４５號四樓之５","E_COORD97":170870.06,"N_COORD97":2546233.7999999998,"ADDRESS":"中華西街１２２巷４５號四樓之５","OBJECTID":392835},"geometry":{"x":170870.05999999959,"y":2546233.8000000045}},{"attributes":{"ID":392860,"DIS_CODE":0,"TOWNNAME":"東區","LI":"小東里","LIN":"23鄰","STREET":"光明街","SECT":" ","MAREA":" ","LANE":"２０１巷","ALLEY":" ","HOUSE_NO":"１號二樓","E_COORD97":170939.78,"N_COORD97":2544063.25,"ADDRESS":"光明街２０１巷１號二樓","OBJECTID":392836},"geometry":{"x":170939.78000000119,"y":2544063.2500000037}},{"attributes":{"ID":392861,"DIS_CODE":0,"TOWNNAME":"東區","LI":"小東里","LIN":"23鄰","STREET":"光明街","SECT":" ","MAREA":" ","LANE":"２０１巷","ALLEY":" ","HOUSE_NO":"１號三樓","E_COORD97":170939.78,"N_COORD97":2544063.25,"ADDRESS":"光明街２０１巷１號三樓","OBJECTID":392837},"geometry":{"x":170939.78000000119,"y":2544063.2500000037}},{"attributes":{"ID":392862,"DIS_CODE":0,"TOWNNAME":"東區","LI":"小東里","LIN":"23鄰","STREET":"光明街","SECT":" ","MAREA":" ","LANE":"２０１巷","ALLEY":" ","HOUSE_NO":"１號四樓","E_COORD97":170939.78,"N_COORD97":2544063.25,"ADDRESS":"光明街２０１巷１號四樓","OBJECTID":392838},"geometry":{"x":170939.78000000119,"y":2544063.2500000037}},{"attributes":{"ID":392863,"DIS_CODE":0,"TOWNNAME":"永康區","LI":"網寮里","LIN":"13鄰","STREET":"永勝街","SECT":" ","MAREA":" ","LANE":" ","ALLEY":" ","HOUSE_NO":"１８１號","E_COORD97":173328.64999999999,"N_COORD97":2546551.0099999998,"ADDRESS":"永勝街１８１號","OBJECTID":392839},"geometry":{"x":173328.64999999944,"y":2546551.0100000016}},{"attributes":{"ID":392864,"DIS_CODE":0,"TOWNNAME":"東區","LI":"小東里","LIN":"23鄰","STREET":"光明街","SECT":" ","MAREA":" ","LANE":"２０１巷","ALLEY":" ","HOUSE_NO":"１號五樓","E_COORD97":170939.78,"N_COORD97":2544063.25,"ADDRESS":"光明街２０１巷１號五樓","OBJECTID":392840},"geometry":{"x":170939.78000000119,"y":2544063.2500000037}},{"attributes":{"ID":392865,"DIS_CODE":0,"TOWNNAME":"永康區","LI":"西灣里","LIN":"23鄰","STREET":"大勇路","SECT":" ","MAREA":" ","LANE":"７６巷","ALLEY":" ","HOUSE_NO":"２３號七樓","E_COORD97":174304.51000000001,"N_COORD97":2545482.5099999998,"ADDRESS":"大勇路７６巷２３號七樓","OBJECTID":392841},"geometry":{"x":174304.51000000071,"y":2545482.5100000016}},{"attributes":{"ID":392866,"DIS_CODE":0,"TOWNNAME":"永康區","LI":"西灣里","LIN":"23鄰","STREET":"大勇路","SECT":" ","MAREA":" ","LANE":"７６巷","ALLEY":" ","HOUSE_NO":"１７號九樓","E_COORD97":174293.01000000001,"N_COORD97":2545486.0099999998,"ADDRESS":"大勇路７６巷１７號九樓","OBJECTID":392842},"geometry":{"x":174293.00999999978,"y":2545486.0100000016}},{"attributes":{"ID":392867,"DIS_CODE":0,"TOWNNAME":"永康區","LI":"安康里","LIN":"23鄰","STREET":"中華西街","SECT":" ","MAREA":" ","LANE":"１２２巷","ALLEY":" ","HOUSE_NO":"４５號五樓之２","E_COORD97":170870.17000000001,"N_COORD97":2546233.7999999998,"ADDRESS":"中華西街１２２巷４５號五樓之２","OBJECTID":392843},"geometry":{"x":170870.17000000179,"y":2546233.8000000045}},{"attributes":{"ID":392868,"DIS_CODE":0,"TOWNNAME":"永康區","LI":"西灣里","LIN":"23鄰","STREET":"大勇路","SECT":" ","MAREA":" ","LANE":"７６巷","ALLEY":" ","HOUSE_NO":"１７號四樓","E_COORD97":174293.01000000001,"N_COORD97":2545486.0099999998,"ADDRESS":"大勇路７６巷１７號四樓","OBJECTID":392844},"geometry":{"x":174293.00999999978,"y":2545486.0100000016}},{"attributes":{"ID":392869,"DIS_CODE":0,"TOWNNAME":"永康區","LI":"安康里","LIN":"23鄰","STREET":"中華西街","SECT":" ","MAREA":" ","LANE":"１２２巷","ALLEY":" ","HOUSE_NO":"４５號一樓之３","E_COORD97":170870.14000000001,"N_COORD97":2546233.7999999998,"ADDRESS":"中華西街１２２巷４５號一樓之３","OBJECTID":392845},"geometry":{"x":170870.14000000153,"y":2546233.8000000045}},{"attributes":{"ID":392870,"DIS_CODE":0,"TOWNNAME":"永康區","LI":"安康里","LIN":"23鄰","STREET":"中華西街","SECT":" ","MAREA":" ","LANE":"１２２巷","ALLEY":" ","HOUSE_NO":"４５號二樓之１","E_COORD97":170870.04000000001,"N_COORD97":2546233.7999999998,"ADDRESS":"中華西街１２２巷４５號二樓之１","OBJECTID":392846},"geometry":{"x":170870.04000000097,"y":2546233.8000000045}},{"attributes":{"ID":392871,"DIS_CODE":0,"TOWNNAME":"永康區","LI":"安康里","LIN":"23鄰","STREET":"中華西街","SECT":" ","MAREA":" ","LANE":"１２２巷","ALLEY":" ","HOUSE_NO":"４５號二樓之４","E_COORD97":170870.06,"N_COORD97":2546233.7999999998,"ADDRESS":"中華西街１２２巷４５號二樓之４","OBJECTID":392847},"geometry":{"x":170870.05999999959,"y":2546233.8000000045}},{"attributes":{"ID":392872,"DIS_CODE":0,"TOWNNAME":"永康區","LI":"西灣里","LIN":"23鄰","STREET":"大勇路","SECT":" ","MAREA":" ","LANE":"７６巷","ALLEY":" ","HOUSE_NO":"２３號四樓","E_COORD97":174304.51000000001,"N_COORD97":2545482.5099999998,"ADDRESS":"大勇路７６巷２３號四樓","OBJECTID":392848},"geometry":{"x":174304.51000000071,"y":2545482.5100000016}},{"attributes":{"ID":392873,"DIS_CODE":0,"TOWNNAME":"永康區","LI":"西灣里","LIN":"23鄰","STREET":"大勇路","SECT":" ","MAREA":" ","LANE":"７６巷","ALLEY":" ","HOUSE_NO":"１７號五樓","E_COORD97":174293.01000000001,"N_COORD97":2545486.0099999998,"ADDRESS":"大勇路７６巷１７號五樓","OBJECTID":392849},"geometry":{"x":174293.00999999978,"y":2545486.0100000016}},{"attributes":{"ID":392874,"DIS_CODE":0,"TOWNNAME":"永康區","LI":"西灣里","LIN":"23鄰","STREET":"大勇路","SECT":" ","MAREA":" ","LANE":"７６巷","ALLEY":" ","HOUSE_NO":"２３號八樓","E_COORD97":174304.51000000001,"N_COORD97":2545482.5099999998,"ADDRESS":"大勇路７６巷２３號八樓","OBJECTID":392850},"geometry":{"x":174304.51000000071,"y":2545482.5100000016}},{"attributes":{"ID":392875,"DIS_CODE":0,"TOWNNAME":"永康區","LI":"西灣里","LIN":"23鄰","STREET":"大勇路","SECT":" ","MAREA":" ","LANE":"７６巷","ALLEY":" ","HOUSE_NO":"２３號五樓","E_COORD97":174304.51000000001,"N_COORD97":2545482.5099999998,"ADDRESS":"大勇路７６巷２３號五樓","OBJECTID":392851},"geometry":{"x":174304.51000000071,"y":2545482.5100000016}},{"attributes":{"ID":392876,"DIS_CODE":0,"TOWNNAME":"永康區","LI":"安康里","LIN":"23鄰","STREET":"中華西街","SECT":" ","MAREA":" ","LANE":"１２２巷","ALLEY":" ","HOUSE_NO":"４５號三樓之４","E_COORD97":170870.06,"N_COORD97":2546233.7999999998,"ADDRESS":"中華西街１２２巷４５號三樓之４","OBJECTID":392852},"geometry":{"x":170870.05999999959,"y":2546233.8000000045}},{"attributes":{"ID":392877,"DIS_CODE":0,"TOWNNAME":"永康區","LI":"安康里","LIN":"23鄰","STREET":"中華西街","SECT":" ","MAREA":" ","LANE":"１２２巷","ALLEY":" ","HOUSE_NO":"４５號三樓之２","E_COORD97":170870.17000000001,"N_COORD97":2546233.7999999998,"ADDRESS":"中華西街１２２巷４５號三樓之２","OBJECTID":392853},"geometry":{"x":170870.17000000179,"y":2546233.8000000045}},{"attributes":{"ID":392878,"DIS_CODE":0,"TOWNNAME":"永康區","LI":"西灣里","LIN":"23鄰","STREET":"大勇路","SECT":" ","MAREA":" ","LANE":"７６巷","ALLEY":" ","HOUSE_NO":"２３號三樓","E_COORD97":174304.51000000001,"N_COORD97":2545482.5099999998,"ADDRESS":"大勇路７６巷２３號三樓","OBJECTID":392854},"geometry":{"x":174304.51000000071,"y":2545482.5100000016}},{"attributes":{"ID":392879,"DIS_CODE":0,"TOWNNAME":"永康區","LI":"大灣里","LIN":"23鄰","STREET":"大灣路","SECT":" ","MAREA":" ","LANE":"２４１巷","ALLEY":" ","HOUSE_NO":"１號","E_COORD97":174942.45000000001,"N_COORD97":2545208.5,"ADDRESS":"大灣路２４１巷１號","OBJECTID":392855},"geometry":{"x":174942.45000000112,"y":2545208.5000000019}},{"attributes":{"ID":392880,"DIS_CODE":0,"TOWNNAME":"仁德區","LI":"太子里","LIN":"23鄰","STREET":"中正路","SECT":"三段","MAREA":" ","LANE":"７０４巷","ALLEY":" ","HOUSE_NO":"３７號三樓","E_COORD97":173803.14999999999,"N_COORD97":2543647.7799999998,"ADDRESS":"中正路三段７０４巷３７號三樓","OBJECTID":392856},"geometry":{"x":173803.15000000037,"y":2543647.7799999993}},{"attributes":{"ID":392881,"DIS_CODE":0,"TOWNNAME":"仁德區","LI":"太子里","LIN":"23鄰","STREET":"中正路","SECT":"三段","MAREA":" ","LANE":"７０４巷","ALLEY":" ","HOUSE_NO":"３７號五樓","E_COORD97":173803.14999999999,"N_COORD97":2543647.7799999998,"ADDRESS":"中正路三段７０４巷３７號五樓","OBJECTID":392857},"geometry":{"x":173803.15000000037,"y":2543647.7799999993}},{"attributes":{"ID":392882,"DIS_CODE":0,"TOWNNAME":"東區","LI":"後甲里","LIN":"23鄰","STREET":"中華東路","SECT":"一段","MAREA":" ","LANE":"２１７巷","ALLEY":" ","HOUSE_NO":"１８號五樓","E_COORD97":171479,"N_COORD97":2543328.23,"ADDRESS":"中華東路一段２１７巷１８號五樓","OBJECTID":392858},"geometry":{"x":171479.00000000093,"y":2543328.2300000042}},{"attributes":{"ID":392883,"DIS_CODE":0,"TOWNNAME":"東區","LI":"後甲里","LIN":"23鄰","STREET":"中華東路","SECT":"一段","MAREA":" ","LANE":"２１７巷","ALLEY":" ","HOUSE_NO":"２０號二樓","E_COORD97":171468.38,"N_COORD97":2543327.27,"ADDRESS":"中華東路一段２１７巷２０號二樓","OBJECTID":392859},"geometry":{"x":171468.37999999989,"y":2543327.2700000014}},{"attributes":{"ID":392884,"DIS_CODE":0,"TOWNNAME":"東區","LI":"後甲里","LIN":"23鄰","STREET":"中華東路","SECT":"一段","MAREA":" ","LANE":"２１７巷","ALLEY":" ","HOUSE_NO":"２２號二樓","E_COORD97":171469.10999999999,"N_COORD97":2543321.48,"ADDRESS":"中華東路一段２１７巷２２號二樓","OBJECTID":392860},"geometry":{"x":171469.11000000034,"y":2543321.4800000004}},{"attributes":{"ID":392885,"DIS_CODE":0,"TOWNNAME":"東區","LI":"後甲里","LIN":"23鄰","STREET":"中華東路","SECT":"一段","MAREA":" ","LANE":"２１７巷","ALLEY":" ","HOUSE_NO":"３２號四樓","E_COORD97":171482.85999999999,"N_COORD97":2543307.5099999998,"ADDRESS":"中華東路一段２１７巷３２號四樓","OBJECTID":392861},"geometry":{"x":171482.8599999994,"y":2543307.5099999998}},{"attributes":{"ID":392886,"DIS_CODE":0,"TOWNNAME":"東區","LI":"後甲里","LIN":"23鄰","STREET":"中華東路","SECT":"一段","MAREA":" ","LANE":"２１７巷","ALLEY":" ","HOUSE_NO":"１８號三樓","E_COORD97":171479,"N_COORD97":2543328.23,"ADDRESS":"中華東路一段２１７巷１８號三樓","OBJECTID":392862},"geometry":{"x":171479.00000000093,"y":2543328.2300000042}},{"attributes":{"ID":392887,"DIS_CODE":0,"TOWNNAME":"東區","LI":"後甲里","LIN":"23鄰","STREET":"中華東路","SECT":"一段","MAREA":" ","LANE":"２１７巷","ALLEY":" ","HOUSE_NO":"１８號四樓","E_COORD97":171479,"N_COORD97":2543328.23,"ADDRESS":"中華東路一段２１７巷１８號四樓","OBJECTID":392863},"geometry":{"x":171479.00000000093,"y":2543328.2300000042}},{"attributes":{"ID":392888,"DIS_CODE":0,"TOWNNAME":"東區","LI":"後甲里","LIN":"23鄰","STREET":"中華東路","SECT":"一段","MAREA":" ","LANE":"２１７巷","ALLEY":" ","HOUSE_NO":"２０號三樓","E_COORD97":171468.38,"N_COORD97":2543327.27,"ADDRESS":"中華東路一段２１７巷２０號三樓","OBJECTID":392864},"geometry":{"x":171468.37999999989,"y":2543327.2700000014}},{"attributes":{"ID":392889,"DIS_CODE":0,"TOWNNAME":"東區","LI":"後甲里","LIN":"23鄰","STREET":"中華東路","SECT":"一段","MAREA":" ","LANE":"２１７巷","ALLEY":" ","HOUSE_NO":"２０號五樓","E_COORD97":171468.38,"N_COORD97":2543327.27,"ADDRESS":"中華東路一段２１７巷２０號五樓","OBJECTID":392865},"geometry":{"x":171468.37999999989,"y":2543327.2700000014}},{"attributes":{"ID":392890,"DIS_CODE":0,"TOWNNAME":"東區","LI":"後甲里","LIN":"23鄰","STREET":"中華東路","SECT":"一段","MAREA":" ","LANE":"２１７巷","ALLEY":" ","HOUSE_NO":"２０號四樓","E_COORD97":171468.38,"N_COORD97":2543327.27,"ADDRESS":"中華東路一段２１７巷２０號四樓","OBJECTID":392866},"geometry":{"x":171468.37999999989,"y":2543327.2700000014}},{"attributes":{"ID":392891,"DIS_CODE":0,"TOWNNAME":"東區","LI":"後甲里","LIN":"23鄰","STREET":"中華東路","SECT":"一段","MAREA":" ","LANE":"２１７巷","ALLEY":" ","HOUSE_NO":"２２號五樓","E_COORD97":171469.10999999999,"N_COORD97":2543321.48,"ADDRESS":"中華東路一段２１７巷２２號五樓","OBJECTID":392867},"geometry":{"x":171469.11000000034,"y":2543321.4800000004}},{"attributes":{"ID":392892,"DIS_CODE":0,"TOWNNAME":"東區","LI":"後甲里","LIN":"23鄰","STREET":"中華東路","SECT":"一段","MAREA":" ","LANE":"２１７巷","ALLEY":" ","HOUSE_NO":"２２號四樓","E_COORD97":171469.10999999999,"N_COORD97":2543321.48,"ADDRESS":"中華東路一段２１７巷２２號四樓","OBJECTID":392868},"geometry":{"x":171469.11000000034,"y":2543321.4800000004}},{"attributes":{"ID":392893,"DIS_CODE":0,"TOWNNAME":"東區","LI":"後甲里","LIN":"23鄰","STREET":"中華東路","SECT":"一段","MAREA":" ","LANE":"２１７巷","ALLEY":" ","HOUSE_NO":"２４號三樓","E_COORD97":171480.45000000001,"N_COORD97":2543322.9300000002,"ADDRESS":"中華東路一段２１７巷２４號三樓","OBJECTID":392869},"geometry":{"x":171480.45000000205,"y":2543322.9300000016}},{"attributes":{"ID":392894,"DIS_CODE":0,"TOWNNAME":"東區","LI":"後甲里","LIN":"23鄰","STREET":"中華東路","SECT":"一段","MAREA":" ","LANE":"２１７巷","ALLEY":" ","HOUSE_NO":"２４號五樓","E_COORD97":171480.45000000001,"N_COORD97":2543322.9300000002,"ADDRESS":"中華東路一段２１７巷２４號五樓","OBJECTID":392870},"geometry":{"x":171480.45000000205,"y":2543322.9300000016}},{"attributes":{"ID":392895,"DIS_CODE":0,"TOWNNAME":"永康區","LI":"網寮里","LIN":"23鄰","STREET":"文化路","SECT":" ","MAREA":" ","LANE":"１２８巷","ALLEY":" ","HOUSE_NO":"４號七樓之３","E_COORD97":173903.48999999999,"N_COORD97":2546260,"ADDRESS":"文化路１２８巷４號七樓之３","OBJECTID":392871},"geometry":{"x":173903.49000000115,"y":2546260.0000000019}},{"attributes":{"ID":392896,"DIS_CODE":0,"TOWNNAME":"東區","LI":"後甲里","LIN":"23鄰","STREET":"中華東路","SECT":"一段","MAREA":" ","LANE":"２１７巷","ALLEY":" ","HOUSE_NO":"２４號四樓","E_COORD97":171480.45000000001,"N_COORD97":2543322.9300000002,"ADDRESS":"中華東路一段２１７巷２４號四樓","OBJECTID":392872},"geometry":{"x":171480.45000000205,"y":2543322.9300000016}},{"attributes":{"ID":392897,"DIS_CODE":0,"TOWNNAME":"東區","LI":"後甲里","LIN":"23鄰","STREET":"中華東路","SECT":"一段","MAREA":" ","LANE":"２１７巷","ALLEY":" ","HOUSE_NO":"２６號三樓","E_COORD97":171481.89000000001,"N_COORD97":2543315.7000000002,"ADDRESS":"中華東路一段２１７巷２６號三樓","OBJECTID":392873},"geometry":{"x":171481.88999999873,"y":2543315.6999999993}},{"attributes":{"ID":392898,"DIS_CODE":0,"TOWNNAME":"永康區","LI":"復華里","LIN":"23鄰","STREET":"國華街","SECT":" ","MAREA":" ","LANE":"９７巷","ALLEY":" ","HOUSE_NO":"６號","E_COORD97":172731.48000000001,"N_COORD97":2546097.75,"ADDRESS":"國華街９７巷６號","OBJECTID":392874},"geometry":{"x":172731.47999999952,"y":2546097.7500000019}},{"attributes":{"ID":392899,"DIS_CODE":0,"TOWNNAME":"永康區","LI":"網寮里","LIN":"23鄰","STREET":"文化路","SECT":" ","MAREA":" ","LANE":"１２８巷","ALLEY":" ","HOUSE_NO":"４號四樓之６","E_COORD97":173903.5,"N_COORD97":2546260,"ADDRESS":"文化路１２８巷４號四樓之６","OBJECTID":392875},"geometry":{"x":173903.5,"y":2546260.0000000019}},{"attributes":{"ID":392900,"DIS_CODE":0,"TOWNNAME":"永康區","LI":"網寮里","LIN":"23鄰","STREET":"文化路","SECT":" ","MAREA":" ","LANE":"１２８巷","ALLEY":" ","HOUSE_NO":"４號七樓之５","E_COORD97":173903.54999999999,"N_COORD97":2546260,"ADDRESS":"文化路１２８巷４號七樓之５","OBJECTID":392876},"geometry":{"x":173903.55000000168,"y":2546260.0000000019}},{"attributes":{"ID":392901,"DIS_CODE":0,"TOWNNAME":"永康區","LI":"網寮里","LIN":"23鄰","STREET":"文化路","SECT":" ","MAREA":" ","LANE":"１２８巷","ALLEY":" ","HOUSE_NO":"４號六樓之３","E_COORD97":173903.48999999999,"N_COORD97":2546260,"ADDRESS":"文化路１２８巷４號六樓之３","OBJECTID":392877},"geometry":{"x":173903.49000000115,"y":2546260.0000000019}},{"attributes":{"ID":392902,"DIS_CODE":0,"TOWNNAME":"永康區","LI":"網寮里","LIN":"23鄰","STREET":"文化路","SECT":" ","MAREA":" ","LANE":"１２８巷","ALLEY":" ","HOUSE_NO":"２號二樓之１","E_COORD97":173906.53,"N_COORD97":2546255.75,"ADDRESS":"文化路１２８巷２號二樓之１","OBJECTID":392878},"geometry":{"x":173906.53000000119,"y":2546255.75}},{"attributes":{"ID":392903,"DIS_CODE":0,"TOWNNAME":"永康區","LI":"網寮里","LIN":"23鄰","STREET":"文化路","SECT":" ","MAREA":" ","LANE":"１２８巷","ALLEY":" ","HOUSE_NO":"２號三樓之１１","E_COORD97":173907.78,"N_COORD97":2546255.75,"ADDRESS":"文化路１２８巷２號三樓之１１","OBJECTID":392879},"geometry":{"x":173907.78000000119,"y":2546255.75}},{"attributes":{"ID":392904,"DIS_CODE":0,"TOWNNAME":"永康區","LI":"網寮里","LIN":"23鄰","STREET":"文化路","SECT":" ","MAREA":" ","LANE":"１２８巷","ALLEY":" ","HOUSE_NO":"４號二樓之１","E_COORD97":173903.39999999999,"N_COORD97":2546260,"ADDRESS":"文化路１２８巷４號二樓之１","OBJECTID":392880},"geometry":{"x":173903.40000000224,"y":2546260.0000000019}},{"attributes":{"ID":392905,"DIS_CODE":0,"TOWNNAME":"永康區","LI":"網寮里","LIN":"23鄰","STREET":"文化路","SECT":" ","MAREA":" ","LANE":"１２８巷","ALLEY":" ","HOUSE_NO":"２號三樓之９","E_COORD97":173906.60999999999,"N_COORD97":2546255.75,"ADDRESS":"文化路１２８巷２號三樓之９","OBJECTID":392881},"geometry":{"x":173906.61000000034,"y":2546255.75}},{"attributes":{"ID":392906,"DIS_CODE":0,"TOWNNAME":"永康區","LI":"網寮里","LIN":"23鄰","STREET":"文化路","SECT":" ","MAREA":" ","LANE":"１２８巷","ALLEY":" ","HOUSE_NO":"４號六樓之１","E_COORD97":173903.39999999999,"N_COORD97":2546260,"ADDRESS":"文化路１２８巷４號六樓之１","OBJECTID":392882},"geometry":{"x":173903.40000000224,"y":2546260.0000000019}},{"attributes":{"ID":392907,"DIS_CODE":0,"TOWNNAME":"永康區","LI":"網寮里","LIN":"23鄰","STREET":"文化路","SECT":" ","MAREA":" ","LANE":"１２８巷","ALLEY":" ","HOUSE_NO":"２號三樓之７","E_COORD97":173906.60000000001,"N_COORD97":2546255.75,"ADDRESS":"文化路１２８巷２號三樓之７","OBJECTID":392883},"geometry":{"x":173906.60000000056,"y":2546255.75}},{"attributes":{"ID":392908,"DIS_CODE":0,"TOWNNAME":"永康區","LI":"網寮里","LIN":"23鄰","STREET":"文化路","SECT":" ","MAREA":" ","LANE":"１２８巷","ALLEY":" ","HOUSE_NO":"４號四樓之１","E_COORD97":173903.39999999999,"N_COORD97":2546260,"ADDRESS":"文化路１２８巷４號四樓之１","OBJECTID":392884},"geometry":{"x":173903.40000000224,"y":2546260.0000000019}},{"attributes":{"ID":392909,"DIS_CODE":0,"TOWNNAME":"永康區","LI":"網寮里","LIN":"23鄰","STREET":"文化路","SECT":" ","MAREA":" ","LANE":"１２８巷","ALLEY":" ","HOUSE_NO":"２號三樓之８","E_COORD97":173906.67000000001,"N_COORD97":2546255.75,"ADDRESS":"文化路１２８巷２號三樓之８","OBJECTID":392885},"geometry":{"x":173906.67000000086,"y":2546255.75}},{"attributes":{"ID":392910,"DIS_CODE":0,"TOWNNAME":"永康區","LI":"網寮里","LIN":"23鄰","STREET":"文化路","SECT":" ","MAREA":" ","LANE":"１２８巷","ALLEY":" ","HOUSE_NO":"４號七樓之１","E_COORD97":173903.39999999999,"N_COORD97":2546260,"ADDRESS":"文化路１２８巷４號七樓之１","OBJECTID":392886},"geometry":{"x":173903.40000000224,"y":2546260.0000000019}},{"attributes":{"ID":392911,"DIS_CODE":0,"TOWNNAME":"永康區","LI":"網寮里","LIN":"23鄰","STREET":"文化路","SECT":" ","MAREA":" ","LANE":"１２８巷","ALLEY":" ","HOUSE_NO":"２號三樓之１５","E_COORD97":173906.54999999999,"N_COORD97":2546255.75,"ADDRESS":"文化路１２８巷２號三樓之１５","OBJECTID":392887},"geometry":{"x":173906.54999999981,"y":2546255.75}},{"attributes":{"ID":392912,"DIS_CODE":0,"TOWNNAME":"永康區","LI":"網寮里","LIN":"23鄰","STREET":"文化路","SECT":" ","MAREA":" ","LANE":"１２８巷","ALLEY":" ","HOUSE_NO":"４號八樓","E_COORD97":173901.26000000001,"N_COORD97":2546260,"ADDRESS":"文化路１２８巷４號八樓","OBJECTID":392888},"geometry":{"x":173901.25999999978,"y":2546260.0000000019}},{"attributes":{"ID":392913,"DIS_CODE":0,"TOWNNAME":"永康區","LI":"網寮里","LIN":"23鄰","STREET":"文化路","SECT":" ","MAREA":" ","LANE":"１２８巷","ALLEY":" ","HOUSE_NO":"４號五樓之５","E_COORD97":173903.54999999999,"N_COORD97":2546260,"ADDRESS":"文化路１２８巷４號五樓之５","OBJECTID":392889},"geometry":{"x":173903.55000000168,"y":2546260.0000000019}},{"attributes":{"ID":392914,"DIS_CODE":0,"TOWNNAME":"永康區","LI":"網寮里","LIN":"23鄰","STREET":"文化路","SECT":" ","MAREA":" ","LANE":"１２８巷","ALLEY":" ","HOUSE_NO":"２號六樓之３","E_COORD97":173906.62,"N_COORD97":2546255.75,"ADDRESS":"文化路１２８巷２號六樓之３","OBJECTID":392890},"geometry":{"x":173906.61999999918,"y":2546255.75}},{"attributes":{"ID":392915,"DIS_CODE":0,"TOWNNAME":"永康區","LI":"網寮里","LIN":"23鄰","STREET":"文化路","SECT":" ","MAREA":" ","LANE":"１２８巷","ALLEY":" ","HOUSE_NO":"４號七樓之７","E_COORD97":173903.42000000001,"N_COORD97":2546260,"ADDRESS":"文化路１２８巷４號七樓之７","OBJECTID":392891},"geometry":{"x":173903.42000000086,"y":2546260.0000000019}},{"attributes":{"ID":392916,"DIS_CODE":0,"TOWNNAME":"永康區","LI":"網寮里","LIN":"23鄰","STREET":"文化路","SECT":" ","MAREA":" ","LANE":"１２８巷","ALLEY":" ","HOUSE_NO":"４號四樓之２","E_COORD97":173903.53,"N_COORD97":2546260,"ADDRESS":"文化路１２８巷４號四樓之２","OBJECTID":392892},"geometry":{"x":173903.53000000026,"y":2546260.0000000019}},{"attributes":{"ID":392917,"DIS_CODE":0,"TOWNNAME":"永康區","LI":"網寮里","LIN":"23鄰","STREET":"文化路","SECT":" ","MAREA":" ","LANE":"１２８巷","ALLEY":" ","HOUSE_NO":"２號五樓之３","E_COORD97":173906.62,"N_COORD97":2546255.75,"ADDRESS":"文化路１２８巷２號五樓之３","OBJECTID":392893},"geometry":{"x":173906.61999999918,"y":2546255.75}},{"attributes":{"ID":392918,"DIS_CODE":0,"TOWNNAME":"永康區","LI":"網寮里","LIN":"23鄰","STREET":"文化路","SECT":" ","MAREA":" ","LANE":"１２８巷","ALLEY":" ","HOUSE_NO":"２號八樓之１","E_COORD97":173906.53,"N_COORD97":2546255.75,"ADDRESS":"文化路１２８巷２號八樓之１","OBJECTID":392894},"geometry":{"x":173906.53000000119,"y":2546255.75}},{"attributes":{"ID":392919,"DIS_CODE":0,"TOWNNAME":"永康區","LI":"網寮里","LIN":"23鄰","STREET":"文化路","SECT":" ","MAREA":" ","LANE":"１２８巷","ALLEY":" ","HOUSE_NO":"２號五樓之１","E_COORD97":173906.53,"N_COORD97":2546255.75,"ADDRESS":"文化路１２８巷２號五樓之１","OBJECTID":392895},"geometry":{"x":173906.53000000119,"y":2546255.75}},{"attributes":{"ID":392920,"DIS_CODE":0,"TOWNNAME":"永康區","LI":"網寮里","LIN":"23鄰","STREET":"文化路","SECT":" ","MAREA":" ","LANE":"１２８巷","ALLEY":" ","HOUSE_NO":"２號三樓之３","E_COORD97":173906.62,"N_COORD97":2546255.75,"ADDRESS":"文化路１２８巷２號三樓之３","OBJECTID":392896},"geometry":{"x":173906.61999999918,"y":2546255.75}},{"attributes":{"ID":392921,"DIS_CODE":0,"TOWNNAME":"永康區","LI":"網寮里","LIN":"23鄰","STREET":"文化路","SECT":" ","MAREA":" ","LANE":"１２８巷","ALLEY":" ","HOUSE_NO":"２號二樓之２","E_COORD97":173906.66,"N_COORD97":2546255.75,"ADDRESS":"文化路１２８巷２號二樓之２","OBJECTID":392897},"geometry":{"x":173906.66000000108,"y":2546255.75}},{"attributes":{"ID":392922,"DIS_CODE":0,"TOWNNAME":"東區","LI":"龍山里","LIN":"23鄰","STREET":"東門路","SECT":"二段","MAREA":" ","LANE":"１０４巷","ALLEY":" ","HOUSE_NO":"１８號二樓","E_COORD97":170012.09,"N_COORD97":2542906.1400000001,"ADDRESS":"東門路二段１０４巷１８號二樓","OBJECTID":392898},"geometry":{"x":170012.08999999985,"y":2542906.1400000025}},{"attributes":{"ID":392923,"DIS_CODE":0,"TOWNNAME":"永康區","LI":"網寮里","LIN":"13鄰","STREET":"永勝街","SECT":" ","MAREA":" ","LANE":" ","ALLEY":" ","HOUSE_NO":"１８７號","E_COORD97":173333.10999999999,"N_COORD97":2546566.5,"ADDRESS":"永勝街１８７號","OBJECTID":392899},"geometry":{"x":173333.11000000127,"y":2546566.5}},{"attributes":{"ID":392924,"DIS_CODE":0,"TOWNNAME":"東區","LI":"龍山里","LIN":"23鄰","STREET":"東門路","SECT":"二段","MAREA":" ","LANE":"１０４巷","ALLEY":" ","HOUSE_NO":"１８號三樓","E_COORD97":170012.09,"N_COORD97":2542906.1400000001,"ADDRESS":"東門路二段１０４巷１８號三樓","OBJECTID":392900},"geometry":{"x":170012.08999999985,"y":2542906.1400000025}},{"attributes":{"ID":392925,"DIS_CODE":0,"TOWNNAME":"東區","LI":"龍山里","LIN":"23鄰","STREET":"東門路","SECT":"二段","MAREA":" ","LANE":"１０４巷","ALLEY":" ","HOUSE_NO":"１８號四樓","E_COORD97":170012.09,"N_COORD97":2542906.1400000001,"ADDRESS":"東門路二段１０４巷１８號四樓","OBJECTID":392901},"geometry":{"x":170012.08999999985,"y":2542906.1400000025}},{"attributes":{"ID":392926,"DIS_CODE":0,"TOWNNAME":"東區","LI":"龍山里","LIN":"23鄰","STREET":"東門路","SECT":"二段","MAREA":" ","LANE":"１０４巷","ALLEY":" ","HOUSE_NO":"１８號五樓","E_COORD97":170012.09,"N_COORD97":2542906.1400000001,"ADDRESS":"東門路二段１０４巷１８號五樓","OBJECTID":392902},"geometry":{"x":170012.08999999985,"y":2542906.1400000025}},{"attributes":{"ID":392927,"DIS_CODE":0,"TOWNNAME":"東區","LI":"莊敬里","LIN":"23鄰","STREET":"莊敬路","SECT":" ","MAREA":" ","LANE":"１１６巷","ALLEY":" ","HOUSE_NO":"８號","E_COORD97":171399.35000000001,"N_COORD97":2543968.6400000001,"ADDRESS":"莊敬路１１６巷８號","OBJECTID":392903},"geometry":{"x":171399.35000000056,"y":2543968.6400000006}},{"attributes":{"ID":392928,"DIS_CODE":0,"TOWNNAME":"永康區","LI":"網寮里","LIN":"23鄰","STREET":"永春街","SECT":" ","MAREA":" ","LANE":"２０巷","ALLEY":" ","HOUSE_NO":"２５號","E_COORD97":173825.28,"N_COORD97":2546313.6499999999,"ADDRESS":"永春街２０巷２５號","OBJECTID":392904},"geometry":{"x":173825.28000000119,"y":2546313.6500000022}},{"attributes":{"ID":392929,"DIS_CODE":0,"TOWNNAME":"永康區","LI":"網寮里","LIN":"23鄰","STREET":"永春街","SECT":" ","MAREA":" ","LANE":"２０巷","ALLEY":" ","HOUSE_NO":"２９號","E_COORD97":173833.69,"N_COORD97":2546316.1499999999,"ADDRESS":"永春街２０巷２９號","OBJECTID":392905},"geometry":{"x":173833.69000000227,"y":2546316.1500000022}},{"attributes":{"ID":392930,"DIS_CODE":0,"TOWNNAME":"永康區","LI":"網寮里","LIN":"23鄰","STREET":"永春街","SECT":" ","MAREA":" ","LANE":"２０巷","ALLEY":" ","HOUSE_NO":"２８號","E_COORD97":173839.56,"N_COORD97":2546302.8900000001,"ADDRESS":"永春街２０巷２８號","OBJECTID":392906},"geometry":{"x":173839.56000000052,"y":2546302.8900000006}},{"attributes":{"ID":392931,"DIS_CODE":0,"TOWNNAME":"永康區","LI":"網寮里","LIN":"23鄰","STREET":"永春街","SECT":" ","MAREA":" ","LANE":"２０巷","ALLEY":" ","HOUSE_NO":"３１號","E_COORD97":173837.69,"N_COORD97":2546317.3999999999,"ADDRESS":"永春街２０巷３１號","OBJECTID":392907},"geometry":{"x":173837.69000000134,"y":2546317.4000000041}},{"attributes":{"ID":392932,"DIS_CODE":0,"TOWNNAME":"永康區","LI":"網寮里","LIN":"23鄰","STREET":"永春街","SECT":" ","MAREA":" ","LANE":"２０巷","ALLEY":" ","HOUSE_NO":"４５號","E_COORD97":173867.53,"N_COORD97":2546328.3100000001,"ADDRESS":"永春街２０巷４５號","OBJECTID":392908},"geometry":{"x":173867.53000000119,"y":2546328.3100000042}},{"attributes":{"ID":392933,"DIS_CODE":0,"TOWNNAME":"永康區","LI":"復華里","LIN":"23鄰","STREET":"國華街","SECT":" ","MAREA":" ","LANE":"９７巷","ALLEY":" ","HOUSE_NO":"１０號","E_COORD97":172724.57000000001,"N_COORD97":2546088.9900000002,"ADDRESS":"國華街９７巷１０號","OBJECTID":392909},"geometry":{"x":172724.57000000123,"y":2546088.9900000002}},{"attributes":{"ID":392934,"DIS_CODE":0,"TOWNNAME":"永康區","LI":"網寮里","LIN":"23鄰","STREET":"永春街","SECT":" ","MAREA":" ","LANE":"２０巷","ALLEY":" ","HOUSE_NO":"４１號","E_COORD97":173858.45000000001,"N_COORD97":2546326.4100000001,"ADDRESS":"永春街２０巷４１號","OBJECTID":392910},"geometry":{"x":173858.45000000019,"y":2546326.4100000001}},{"attributes":{"ID":392935,"DIS_CODE":0,"TOWNNAME":"永康區","LI":"網寮里","LIN":"23鄰","STREET":"永春街","SECT":" ","MAREA":" ","LANE":"１２巷","ALLEY":" ","HOUSE_NO":"１０號","E_COORD97":173814.47,"N_COORD97":2546245.4399999999,"ADDRESS":"永春街１２巷１０號","OBJECTID":392911},"geometry":{"x":173814.47000000067,"y":2546245.4400000013}},{"attributes":{"ID":392936,"DIS_CODE":0,"TOWNNAME":"永康區","LI":"復興里","LIN":"23鄰","STREET":"復興路","SECT":" ","MAREA":" ","LANE":"２４６巷","ALLEY":" ","HOUSE_NO":"１９號","E_COORD97":172392.01999999999,"N_COORD97":2544442.3799999999,"ADDRESS":"復興路２４６巷１９號","OBJECTID":392912},"geometry":{"x":172392.02000000048,"y":2544442.3800000008}},{"attributes":{"ID":392937,"DIS_CODE":0,"TOWNNAME":"永康區","LI":"網寮里","LIN":"23鄰","STREET":"永春街","SECT":" ","MAREA":" ","LANE":"２０巷","ALLEY":" ","HOUSE_NO":"４３號","E_COORD97":173862.81,"N_COORD97":2546327.3700000001,"ADDRESS":"永春街２０巷４３號","OBJECTID":392913},"geometry":{"x":173862.81000000052,"y":2546327.370000001}},{"attributes":{"ID":392938,"DIS_CODE":0,"TOWNNAME":"永康區","LI":"網寮里","LIN":"23鄰","STREET":"永春街","SECT":" ","MAREA":" ","LANE":"２０巷","ALLEY":" ","HOUSE_NO":"３８號","E_COORD97":173859.70000000001,"N_COORD97":2546309.3900000001,"ADDRESS":"永春街２０巷３８號","OBJECTID":392914},"geometry":{"x":173859.70000000019,"y":2546309.3900000006}},{"attributes":{"ID":392939,"DIS_CODE":0,"TOWNNAME":"永康區","LI":"網寮里","LIN":"23鄰","STREET":"永春街","SECT":" ","MAREA":" ","LANE":"１２巷","ALLEY":" ","HOUSE_NO":"２３號","E_COORD97":173821.92000000001,"N_COORD97":2546262.6400000001,"ADDRESS":"永春街１２巷２３號","OBJECTID":392915},"geometry":{"x":173821.92000000086,"y":2546262.6400000025}},{"attributes":{"ID":392940,"DIS_CODE":0,"TOWNNAME":"永康區","LI":"復國里","LIN":"23鄰","STREET":"復國一路","SECT":" ","MAREA":" ","LANE":"３１５巷","ALLEY":" ","HOUSE_NO":"１６號","E_COORD97":172696.14999999999,"N_COORD97":2545634.77,"ADDRESS":"復國一路３１５巷１６號","OBJECTID":392916},"geometry":{"x":172696.15000000037,"y":2545634.7699999996}},{"attributes":{"ID":392941,"DIS_CODE":0,"TOWNNAME":"永康區","LI":"復國里","LIN":"23鄰","STREET":"復國一路","SECT":" ","MAREA":" ","LANE":"３２９巷","ALLEY":" ","HOUSE_NO":"１２號","E_COORD97":172709.01000000001,"N_COORD97":2545677.77,"ADDRESS":"復國一路３２９巷１２號","OBJECTID":392917},"geometry":{"x":172709.01000000071,"y":2545677.7700000014}},{"attributes":{"ID":392942,"DIS_CODE":0,"TOWNNAME":"永康區","LI":"復國里","LIN":"23鄰","STREET":"復國一路","SECT":" ","MAREA":" ","LANE":"３１５巷","ALLEY":" ","HOUSE_NO":"１２號","E_COORD97":172706.10000000001,"N_COORD97":2545634.52,"ADDRESS":"復國一路３１５巷１２號","OBJECTID":392918},"geometry":{"x":172706.0999999987,"y":2545634.5200000014}},{"attributes":{"ID":392943,"DIS_CODE":0,"TOWNNAME":"永康區","LI":"復國里","LIN":"23鄰","STREET":"復華三街","SECT":" ","MAREA":" ","LANE":"９０巷","ALLEY":" ","HOUSE_NO":"３號","E_COORD97":172593.53,"N_COORD97":2545598.5299999998,"ADDRESS":"復華三街９０巷３號","OBJECTID":392919},"geometry":{"x":172593.53000000026,"y":2545598.5299999993}},{"attributes":{"ID":392944,"DIS_CODE":0,"TOWNNAME":"永康區","LI":"復國里","LIN":"23鄰","STREET":"復華三街","SECT":" ","MAREA":" ","LANE":"９０巷","ALLEY":" ","HOUSE_NO":"７號","E_COORD97":172583.13,"N_COORD97":2545597.0299999998,"ADDRESS":"復華三街９０巷７號","OBJECTID":392920},"geometry":{"x":172583.13000000082,"y":2545597.0300000012}},{"attributes":{"ID":392945,"DIS_CODE":0,"TOWNNAME":"永康區","LI":"復國里","LIN":"23鄰","STREET":"復國一路","SECT":" ","MAREA":" ","LANE":"３１５巷","ALLEY":" ","HOUSE_NO":"１０號","E_COORD97":172711.76000000001,"N_COORD97":2545634.27,"ADDRESS":"復國一路３１５巷１０號","OBJECTID":392921},"geometry":{"x":172711.75999999978,"y":2545634.2699999996}},{"attributes":{"ID":392946,"DIS_CODE":0,"TOWNNAME":"永康區","LI":"復國里","LIN":"23鄰","STREET":"復國一路","SECT":" ","MAREA":" ","LANE":"３２９巷","ALLEY":" ","HOUSE_NO":"１４號","E_COORD97":172703.87,"N_COORD97":2545677.27,"ADDRESS":"復國一路３２９巷１４號","OBJECTID":392922},"geometry":{"x":172703.87000000104,"y":2545677.2700000014}},{"attributes":{"ID":392947,"DIS_CODE":0,"TOWNNAME":"永康區","LI":"復國里","LIN":"23鄰","STREET":"復華三街","SECT":" ","MAREA":" ","LANE":"９０巷","ALLEY":" ","HOUSE_NO":"１１號","E_COORD97":172579.25,"N_COORD97":2545614.3399999999,"ADDRESS":"復華三街９０巷１１號","OBJECTID":392923},"geometry":{"x":172579.25000000093,"y":2545614.3399999999}},{"attributes":{"ID":392948,"DIS_CODE":0,"TOWNNAME":"永康區","LI":"復國里","LIN":"23鄰","STREET":"復華三街","SECT":" ","MAREA":" ","LANE":"９０巷","ALLEY":" ","HOUSE_NO":"１號","E_COORD97":172598.53,"N_COORD97":2545597.2799999998,"ADDRESS":"復華三街９０巷１號","OBJECTID":392924},"geometry":{"x":172598.53000000026,"y":2545597.2799999993}},{"attributes":{"ID":392949,"DIS_CODE":0,"TOWNNAME":"永康區","LI":"崑山里","LIN":"23鄰","STREET":"崑山街","SECT":" ","MAREA":" ","LANE":"６３巷","ALLEY":" ","HOUSE_NO":"２７號","E_COORD97":173864.91,"N_COORD97":2544673.75,"ADDRESS":"崑山街６３巷２７號","OBJECTID":392925},"geometry":{"x":173864.91000000108,"y":2544673.7500000037}},{"attributes":{"ID":392950,"DIS_CODE":0,"TOWNNAME":"永康區","LI":"復華里","LIN":"23鄰","STREET":"國華街","SECT":" ","MAREA":" ","LANE":"１３４巷","ALLEY":" ","HOUSE_NO":"１０號","E_COORD97":172728.20000000001,"N_COORD97":2546150.9900000002,"ADDRESS":"國華街１３４巷１０號","OBJECTID":392926},"geometry":{"x":172728.20000000205,"y":2546150.9900000021}},{"attributes":{"ID":392951,"DIS_CODE":0,"TOWNNAME":"永康區","LI":"復華里","LIN":"23鄰","STREET":"國華街","SECT":" ","MAREA":" ","LANE":"１３４巷","ALLEY":" ","HOUSE_NO":"１４號","E_COORD97":172734.34,"N_COORD97":2546159.7400000002,"ADDRESS":"國華街１３４巷１４號","OBJECTID":392927},"geometry":{"x":172734.34000000078,"y":2546159.7400000021}},{"attributes":{"ID":392952,"DIS_CODE":0,"TOWNNAME":"永康區","LI":"三合里","LIN":"23鄰","STREET":"南工街","SECT":" ","MAREA":" ","LANE":"３２３巷","ALLEY":" ","HOUSE_NO":"９號","E_COORD97":171790.88,"N_COORD97":2546011.75,"ADDRESS":"南工街３２３巷９號","OBJECTID":392928},"geometry":{"x":171790.88000000175,"y":2546011.75}},{"attributes":{"ID":392953,"DIS_CODE":0,"TOWNNAME":"永康區","LI":"大橋里","LIN":"23鄰","STREET":"大橋一街","SECT":" ","MAREA":" ","LANE":"１８１巷","ALLEY":" ","HOUSE_NO":"２８號","E_COORD97":171121.20000000001,"N_COORD97":2546610.9900000002,"ADDRESS":"大橋一街１８１巷２８號","OBJECTID":392929},"geometry":{"x":171121.20000000205,"y":2546610.9900000002}},{"attributes":{"ID":392954,"DIS_CODE":0,"TOWNNAME":"永康區","LI":"大橋里","LIN":"23鄰","STREET":"大橋一街","SECT":" ","MAREA":" ","LANE":"２２３巷","ALLEY":" ","HOUSE_NO":"５號","E_COORD97":171222.39000000001,"N_COORD97":2546644,"ADDRESS":"大橋一街２２３巷５號","OBJECTID":392930},"geometry":{"x":171222.38999999966,"y":2546644}},{"attributes":{"ID":392955,"DIS_CODE":0,"TOWNNAME":"永康區","LI":"大橋里","LIN":"23鄰","STREET":"大橋一街","SECT":" ","MAREA":" ","LANE":"１８１巷","ALLEY":" ","HOUSE_NO":"３０號","E_COORD97":171119.10999999999,"N_COORD97":2546614.5,"ADDRESS":"大橋一街１８１巷３０號","OBJECTID":392931},"geometry":{"x":171119.11000000127,"y":2546614.5000000037}},{"attributes":{"ID":392956,"DIS_CODE":0,"TOWNNAME":"永康區","LI":"大橋里","LIN":"23鄰","STREET":"大橋一街","SECT":" ","MAREA":" ","LANE":"２２３巷","ALLEY":" ","HOUSE_NO":"３號","E_COORD97":171224.92000000001,"N_COORD97":2546640.5,"ADDRESS":"大橋一街２２３巷３號","OBJECTID":392932},"geometry":{"x":171224.92000000086,"y":2546640.5}},{"attributes":{"ID":392957,"DIS_CODE":0,"TOWNNAME":"永康區","LI":"大橋里","LIN":"23鄰","STREET":"大橋一街","SECT":" ","MAREA":" ","LANE":"１８１巷","ALLEY":" ","HOUSE_NO":"２０號","E_COORD97":171129.89999999999,"N_COORD97":2546597.9900000002,"ADDRESS":"大橋一街１８１巷２０號","OBJECTID":392933},"geometry":{"x":171129.90000000037,"y":2546597.9900000039}},{"attributes":{"ID":392958,"DIS_CODE":0,"TOWNNAME":"永康區","LI":"大橋里","LIN":"23鄰","STREET":"大橋一街","SECT":" ","MAREA":" ","LANE":"２２３巷","ALLEY":" ","HOUSE_NO":"９號","E_COORD97":171217.70999999999,"N_COORD97":2546652.25,"ADDRESS":"大橋一街２２３巷９號","OBJECTID":392934},"geometry":{"x":171217.71000000089,"y":2546652.25}},{"attributes":{"ID":392959,"DIS_CODE":0,"TOWNNAME":"永康區","LI":"大橋里","LIN":"23鄰","STREET":"大橋一街","SECT":" ","MAREA":" ","LANE":"１８１巷","ALLEY":" ","HOUSE_NO":"１４號","E_COORD97":171138.07000000001,"N_COORD97":2546586.9900000002,"ADDRESS":"大橋一街１８１巷１４號","OBJECTID":392935},"geometry":{"x":171138.07000000123,"y":2546586.9900000002}},{"attributes":{"ID":392960,"DIS_CODE":0,"TOWNNAME":"永康區","LI":"大橋里","LIN":"23鄰","STREET":"大橋一街","SECT":" ","MAREA":" ","LANE":"２１１巷","ALLEY":" ","HOUSE_NO":"２號","E_COORD97":171200.92000000001,"N_COORD97":2546628.5,"ADDRESS":"大橋一街２１１巷２號","OBJECTID":392936},"geometry":{"x":171200.92000000086,"y":2546628.5000000019}},{"attributes":{"ID":392961,"DIS_CODE":0,"TOWNNAME":"永康區","LI":"大橋里","LIN":"23鄰","STREET":"大橋一街","SECT":" ","MAREA":" ","LANE":"１９７巷","ALLEY":" ","HOUSE_NO":"２號","E_COORD97":171175.64999999999,"N_COORD97":2546603.4900000002,"ADDRESS":"大橋一街１９７巷２號","OBJECTID":392937},"geometry":{"x":171175.65000000037,"y":2546603.4900000002}},{"attributes":{"ID":392962,"DIS_CODE":0,"TOWNNAME":"永康區","LI":"大橋里","LIN":"23鄰","STREET":"大橋一街","SECT":" ","MAREA":" ","LANE":"２１１巷","ALLEY":" ","HOUSE_NO":"１號","E_COORD97":171191.67999999999,"N_COORD97":2546622.25,"ADDRESS":"大橋一街２１１巷１號","OBJECTID":392938},"geometry":{"x":171191.6799999997,"y":2546622.25}},{"attributes":{"ID":392963,"DIS_CODE":0,"TOWNNAME":"東區","LI":"龍山里","LIN":"23鄰","STREET":"府東街","SECT":" ","MAREA":" ","LANE":"４１巷","ALLEY":" ","HOUSE_NO":"２２號","E_COORD97":169973.42000000001,"N_COORD97":2542822.8599999999,"ADDRESS":"府東街４１巷２２號","OBJECTID":392939},"geometry":{"x":169973.42000000179,"y":2542822.8599999994}},{"attributes":{"ID":392964,"DIS_CODE":0,"TOWNNAME":"東區","LI":"龍山里","LIN":"23鄰","STREET":"府東街","SECT":" ","MAREA":" ","LANE":"４１巷","ALLEY":" ","HOUSE_NO":"２３號","E_COORD97":169989.56,"N_COORD97":2542815.1899999999,"ADDRESS":"府東街４１巷２３號","OBJECTID":392940},"geometry":{"x":169989.56000000052,"y":2542815.1899999976}},{"attributes":{"ID":392965,"DIS_CODE":0,"TOWNNAME":"東區","LI":"龍山里","LIN":"23鄰","STREET":"府東街","SECT":" ","MAREA":" ","LANE":"４１巷","ALLEY":" ","HOUSE_NO":"２４號","E_COORD97":169967.56,"N_COORD97":2542810.5600000001,"ADDRESS":"府東街４１巷２４號","OBJECTID":392941},"geometry":{"x":169967.56000000052,"y":2542810.5600000042}},{"attributes":{"ID":392966,"DIS_CODE":0,"TOWNNAME":"東區","LI":"龍山里","LIN":"23鄰","STREET":"府東街","SECT":" ","MAREA":" ","LANE":"４１巷","ALLEY":" ","HOUSE_NO":"２５號","E_COORD97":169986.32999999999,"N_COORD97":2542812.1699999999,"ADDRESS":"府東街４１巷２５號","OBJECTID":392942},"geometry":{"x":169986.33000000101,"y":2542812.1699999999}},{"attributes":{"ID":392967,"DIS_CODE":0,"TOWNNAME":"東區","LI":"龍山里","LIN":"23鄰","STREET":"府東街","SECT":" ","MAREA":" ","LANE":"４１巷","ALLEY":" ","HOUSE_NO":"２７號","E_COORD97":169983.91,"N_COORD97":2542808.3399999999,"ADDRESS":"府東街４１巷２７號","OBJECTID":392943},"geometry":{"x":169983.91000000201,"y":2542808.3400000017}},{"attributes":{"ID":392968,"DIS_CODE":0,"TOWNNAME":"東區","LI":"龍山里","LIN":"23鄰","STREET":"府東街","SECT":" ","MAREA":" ","LANE":"４１巷","ALLEY":" ","HOUSE_NO":"２９號","E_COORD97":169981.69,"N_COORD97":2542804.1000000001,"ADDRESS":"府東街４１巷２９號","OBJECTID":392944},"geometry":{"x":169981.69000000041,"y":2542804.1000000015}},{"attributes":{"ID":392969,"DIS_CODE":0,"TOWNNAME":"東區","LI":"龍山里","LIN":"23鄰","STREET":"府東街","SECT":" ","MAREA":" ","LANE":"４１巷","ALLEY":" ","HOUSE_NO":"３１號","E_COORD97":169980.07999999999,"N_COORD97":2542800.6699999999,"ADDRESS":"府東街４１巷３１號","OBJECTID":392945},"geometry":{"x":169980.08000000007,"y":2542800.6700000018}},{"attributes":{"ID":392970,"DIS_CODE":0,"TOWNNAME":"東區","LI":"龍山里","LIN":"23鄰","STREET":"府東街","SECT":" ","MAREA":" ","LANE":"４１巷","ALLEY":" ","HOUSE_NO":"３３號","E_COORD97":169978.66,"N_COORD97":2542797.25,"ADDRESS":"府東街４１巷３３號","OBJECTID":392946},"geometry":{"x":169978.65999999922,"y":2542797.25}},{"attributes":{"ID":392971,"DIS_CODE":0,"TOWNNAME":"東區","LI":"龍山里","LIN":"23鄰","STREET":"府東街","SECT":" ","MAREA":" ","LANE":"４１巷","ALLEY":" ","HOUSE_NO":"３５號","E_COORD97":169976.85000000001,"N_COORD97":2542791,"ADDRESS":"府東街４１巷３５號","OBJECTID":392947},"geometry":{"x":169976.8499999987,"y":2542791.0000000019}},{"attributes":{"ID":392972,"DIS_CODE":0,"TOWNNAME":"東區","LI":"龍山里","LIN":"23鄰","STREET":"府東街","SECT":" ","MAREA":" ","LANE":"４１巷","ALLEY":" ","HOUSE_NO":"３７號","E_COORD97":169972.81,"N_COORD97":2542793.0099999998,"ADDRESS":"府東街４１巷３７號","OBJECTID":392948},"geometry":{"x":169972.81000000052,"y":2542793.0099999979}},{"attributes":{"ID":392973,"DIS_CODE":0,"TOWNNAME":"東區","LI":"龍山里","LIN":"23鄰","STREET":"府東街","SECT":" ","MAREA":" ","LANE":"４１巷","ALLEY":" ","HOUSE_NO":"３９號","E_COORD97":169971.44,"N_COORD97":2542794.77,"ADDRESS":"府東街４１巷３９號","OBJECTID":392949},"geometry":{"x":169971.44000000041,"y":2542794.7700000033}},{"attributes":{"ID":392974,"DIS_CODE":0,"TOWNNAME":"東區","LI":"龍山里","LIN":"23鄰","STREET":"府東街","SECT":" ","MAREA":" ","LANE":"４１巷","ALLEY":" ","HOUSE_NO":"４１號","E_COORD97":169968.57000000001,"N_COORD97":2542796.2400000002,"ADDRESS":"府東街４１巷４１號","OBJECTID":392950},"geometry":{"x":169968.5700000003,"y":2542796.2400000021}},{"attributes":{"ID":392975,"DIS_CODE":0,"TOWNNAME":"東區","LI":"龍山里","LIN":"23鄰","STREET":"府東街","SECT":" ","MAREA":" ","LANE":"４１巷","ALLEY":" ","HOUSE_NO":"４３號","E_COORD97":169965.75,"N_COORD97":2542798.6600000001,"ADDRESS":"府東街４１巷４３號","OBJECTID":392951},"geometry":{"x":169965.75,"y":2542798.6600000001}},{"attributes":{"ID":392976,"DIS_CODE":0,"TOWNNAME":"東區","LI":"龍山里","LIN":"23鄰","STREET":"府東街","SECT":" ","MAREA":" ","LANE":"４１巷","ALLEY":" ","HOUSE_NO":"４５號","E_COORD97":169963.53,"N_COORD97":2542801.0800000001,"ADDRESS":"府東街４１巷４５號","OBJECTID":392952},"geometry":{"x":169963.53000000119,"y":2542801.0800000019}},{"attributes":{"ID":392977,"DIS_CODE":0,"TOWNNAME":"東區","LI":"龍山里","LIN":"23鄰","STREET":"府東街","SECT":" ","MAREA":" ","LANE":"４１巷","ALLEY":" ","HOUSE_NO":"４７號","E_COORD97":169958.89000000001,"N_COORD97":2542802.4900000002,"ADDRESS":"府東街４１巷４７號","OBJECTID":392953},"geometry":{"x":169958.8900000006,"y":2542802.4900000002}},{"attributes":{"ID":392978,"DIS_CODE":0,"TOWNNAME":"東區","LI":"龍山里","LIN":"23鄰","STREET":"府東街","SECT":" ","MAREA":" ","LANE":"４１巷","ALLEY":" ","HOUSE_NO":"４９號","E_COORD97":169954.64999999999,"N_COORD97":2542804.5099999998,"ADDRESS":"府東街４１巷４９號","OBJECTID":392954},"geometry":{"x":169954.65000000037,"y":2542804.5100000016}},{"attributes":{"ID":392979,"DIS_CODE":0,"TOWNNAME":"東區","LI":"龍山里","LIN":"23鄰","STREET":"府東街","SECT":" ","MAREA":" ","LANE":"４１巷","ALLEY":" ","HOUSE_NO":"５１號","E_COORD97":169952.12,"N_COORD97":2542805.6600000001,"ADDRESS":"府東街４１巷５１號","OBJECTID":392955},"geometry":{"x":169952.12000000104,"y":2542805.6600000001}},{"attributes":{"ID":392980,"DIS_CODE":0,"TOWNNAME":"東區","LI":"龍山里","LIN":"23鄰","STREET":"府東街","SECT":" ","MAREA":" ","LANE":"４１巷","ALLEY":" ","HOUSE_NO":"５７號","E_COORD97":169942.92999999999,"N_COORD97":2542808.4399999999,"ADDRESS":"府東街４１巷５７號","OBJECTID":392956},"geometry":{"x":169942.93000000063,"y":2542808.4400000013}},{"attributes":{"ID":392981,"DIS_CODE":0,"TOWNNAME":"東區","LI":"龍山里","LIN":"23鄰","STREET":"府東街","SECT":" ","MAREA":" ","LANE":"４１巷","ALLEY":" ","HOUSE_NO":"５９號","E_COORD97":169940.51999999999,"N_COORD97":2542809.9500000002,"ADDRESS":"府東街４１巷５９號","OBJECTID":392957},"geometry":{"x":169940.52000000048,"y":2542809.950000003}},{"attributes":{"ID":392982,"DIS_CODE":0,"TOWNNAME":"東區","LI":"龍山里","LIN":"23鄰","STREET":"府東街","SECT":" ","MAREA":" ","LANE":"４１巷","ALLEY":" ","HOUSE_NO":"６１號","E_COORD97":169944.95999999999,"N_COORD97":2542819.0299999998,"ADDRESS":"府東街４１巷６１號","OBJECTID":392958},"geometry":{"x":169944.96000000089,"y":2542819.0299999993}},{"attributes":{"ID":392983,"DIS_CODE":0,"TOWNNAME":"東區","LI":"龍山里","LIN":"23鄰","STREET":"府東街","SECT":" ","MAREA":" ","LANE":"４１巷","ALLEY":" ","HOUSE_NO":"６３號","E_COORD97":169952.63,"N_COORD97":2542833.2400000002,"ADDRESS":"府東街４１巷６３號","OBJECTID":392959},"geometry":{"x":169952.62999999989,"y":2542833.2400000021}},{"attributes":{"ID":392984,"DIS_CODE":0,"TOWNNAME":"東區","LI":"龍山里","LIN":"23鄰","STREET":"府東街","SECT":" ","MAREA":" ","LANE":"４１巷","ALLEY":" ","HOUSE_NO":"６５號","E_COORD97":169959.20999999999,"N_COORD97":2542821.73,"ADDRESS":"府東街４１巷６５號","OBJECTID":392960},"geometry":{"x":169959.20999999996,"y":2542821.7300000004}},{"attributes":{"ID":392985,"DIS_CODE":0,"TOWNNAME":"東區","LI":"龍山里","LIN":"23鄰","STREET":"府東街","SECT":" ","MAREA":" ","LANE":"４１巷","ALLEY":" ","HOUSE_NO":"６號","E_COORD97":169977.14000000001,"N_COORD97":2542831.3399999999,"ADDRESS":"府東街４１巷６號","OBJECTID":392961},"geometry":{"x":169977.1400000006,"y":2542831.3399999999}},{"attributes":{"ID":392986,"DIS_CODE":0,"TOWNNAME":"東區","LI":"莊敬里","LIN":"23鄰","STREET":"莊敬路","SECT":" ","MAREA":" ","LANE":"１１６巷","ALLEY":" ","HOUSE_NO":"１２號","E_COORD97":171408.04999999999,"N_COORD97":2543966.9500000002,"ADDRESS":"莊敬路１１６巷１２號","OBJECTID":392962},"geometry":{"x":171408.04999999981,"y":2543966.9500000011}},{"attributes":{"ID":392987,"DIS_CODE":0,"TOWNNAME":"安南區","LI":"幸福里","LIN":"7鄰","STREET":"國安街","SECT":" ","MAREA":" ","LANE":"１５５巷","ALLEY":" ","HOUSE_NO":"５４號","E_COORD97":166754.70000000001,"N_COORD97":2546810.9199999999,"ADDRESS":"國安街１５５巷５４號","OBJECTID":392963},"geometry":{"x":166754.70000000112,"y":2546810.9199999999}},{"attributes":{"ID":392988,"DIS_CODE":0,"TOWNNAME":"安南區","LI":"幸福里","LIN":"7鄰","STREET":"國安街","SECT":" ","MAREA":" ","LANE":"１５５巷","ALLEY":" ","HOUSE_NO":"５６號","E_COORD97":166755.69,"N_COORD97":2546805.6299999999,"ADDRESS":"國安街１５５巷５６號","OBJECTID":392964},"geometry":{"x":166755.69000000041,"y":2546805.6300000027}},{"attributes":{"ID":392989,"DIS_CODE":0,"TOWNNAME":"東區","LI":"莊敬里","LIN":"23鄰","STREET":"莊敬路","SECT":" ","MAREA":" ","LANE":"１１６巷","ALLEY":" ","HOUSE_NO":"１４號","E_COORD97":171411.56,"N_COORD97":2543963.7599999998,"ADDRESS":"莊敬路１１６巷１４號","OBJECTID":392965},"geometry":{"x":171411.56000000052,"y":2543963.7599999998}},{"attributes":{"ID":392990,"DIS_CODE":0,"TOWNNAME":"東區","LI":"莊敬里","LIN":"23鄰","STREET":"莊敬路","SECT":" ","MAREA":" ","LANE":"１１６巷","ALLEY":" ","HOUSE_NO":"１６號","E_COORD97":171415.91,"N_COORD97":2543965.04,"ADDRESS":"莊敬路１１６巷１６號","OBJECTID":392966},"geometry":{"x":171415.91000000015,"y":2543965.0399999991}},{"attributes":{"ID":392991,"DIS_CODE":0,"TOWNNAME":"東區","LI":"莊敬里","LIN":"23鄰","STREET":"莊敬路","SECT":" ","MAREA":" ","LANE":"１１６巷","ALLEY":" ","HOUSE_NO":"１８號","E_COORD97":171420.04999999999,"N_COORD97":2543961.96,"ADDRESS":"莊敬路１１６巷１８號","OBJECTID":392967},"geometry":{"x":171420.05000000168,"y":2543961.9600000028}},{"attributes":{"ID":392992,"DIS_CODE":0,"TOWNNAME":"東區","LI":"莊敬里","LIN":"23鄰","STREET":"莊敬路","SECT":" ","MAREA":" ","LANE":"１１６巷","ALLEY":" ","HOUSE_NO":"２０號","E_COORD97":171424.62,"N_COORD97":2543963.6600000001,"ADDRESS":"莊敬路１１６巷２０號","OBJECTID":392968},"geometry":{"x":171424.62000000011,"y":2543963.660000002}},{"attributes":{"ID":392993,"DIS_CODE":0,"TOWNNAME":"東區","LI":"莊敬里","LIN":"23鄰","STREET":"莊敬路","SECT":" ","MAREA":" ","LANE":"１１６巷","ALLEY":" ","HOUSE_NO":"２２號","E_COORD97":171428.97,"N_COORD97":2543960.2599999998,"ADDRESS":"莊敬路１１６巷２２號","OBJECTID":392969},"geometry":{"x":171428.9700000016,"y":2543960.2599999998}},{"attributes":{"ID":392994,"DIS_CODE":0,"TOWNNAME":"東區","LI":"莊敬里","LIN":"23鄰","STREET":"莊敬路","SECT":" ","MAREA":" ","LANE":"１１６巷","ALLEY":" ","HOUSE_NO":"２號","E_COORD97":171386.91,"N_COORD97":2543969.5,"ADDRESS":"莊敬路１１６巷２號","OBJECTID":392970},"geometry":{"x":171386.91000000015,"y":2543969.5}},{"attributes":{"ID":392995,"DIS_CODE":0,"TOWNNAME":"東區","LI":"莊敬里","LIN":"23鄰","STREET":"莊敬路","SECT":" ","MAREA":" ","LANE":"１１６巷","ALLEY":" ","HOUSE_NO":"４號","E_COORD97":171391.16,"N_COORD97":2543970.6699999999,"ADDRESS":"莊敬路１１６巷４號","OBJECTID":392971},"geometry":{"x":171391.16000000108,"y":2543970.6699999999}},{"attributes":{"ID":392996,"DIS_CODE":0,"TOWNNAME":"東區","LI":"莊敬里","LIN":"23鄰","STREET":"莊敬路","SECT":" ","MAREA":" ","LANE":"１１６巷","ALLEY":" ","HOUSE_NO":"６號","E_COORD97":171394.98999999999,"N_COORD97":2543967.48,"ADDRESS":"莊敬路１１６巷６號","OBJECTID":392972},"geometry":{"x":171394.99000000022,"y":2543967.4800000042}},{"attributes":{"ID":392997,"DIS_CODE":0,"TOWNNAME":"東區","LI":"莊敬里","LIN":"23鄰","STREET":"莊敬路","SECT":" ","MAREA":" ","LANE":"１１６巷","ALLEY":" ","HOUSE_NO":"１０號","E_COORD97":171403.70000000001,"N_COORD97":2543966.1000000001,"ADDRESS":"莊敬路１１６巷１０號","OBJECTID":392973},"geometry":{"x":171403.70000000019,"y":2543966.1000000015}},{"attributes":{"ID":392998,"DIS_CODE":0,"TOWNNAME":"中西區","LI":"西湖里","LIN":"23鄰","STREET":"湖美街","SECT":" ","MAREA":" ","LANE":"４６巷","ALLEY":" ","HOUSE_NO":"１２號","E_COORD97":165987.26000000001,"N_COORD97":2544599.54,"ADDRESS":"湖美街４６巷１２號","OBJECTID":392974},"geometry":{"x":165987.26000000164,"y":2544599.5400000028}},{"attributes":{"ID":392999,"DIS_CODE":0,"TOWNNAME":"中西區","LI":"西湖里","LIN":"23鄰","STREET":"湖美街","SECT":" ","MAREA":" ","LANE":"４６巷","ALLEY":" ","HOUSE_NO":"１３號","E_COORD97":165990.45999999999,"N_COORD97":2544627.5800000001,"ADDRESS":"湖美街４６巷１３號","OBJECTID":392975},"geometry":{"x":165990.45999999996,"y":2544627.5800000019}},{"attributes":{"ID":393000,"DIS_CODE":0,"TOWNNAME":"中西區","LI":"西湖里","LIN":"23鄰","STREET":"湖美街","SECT":" ","MAREA":" ","LANE":"４６巷","ALLEY":" ","HOUSE_NO":"１４號","E_COORD97":165991.79999999999,"N_COORD97":2544599.27,"ADDRESS":"湖美街４６巷１４號","OBJECTID":392976},"geometry":{"x":165991.79999999981,"y":2544599.2700000014}},{"attributes":{"ID":393001,"DIS_CODE":0,"TOWNNAME":"中西區","LI":"西湖里","LIN":"23鄰","STREET":"湖美街","SECT":" ","MAREA":" ","LANE":"４６巷","ALLEY":" ","HOUSE_NO":"１７號","E_COORD97":165998.75,"N_COORD97":2544627.8500000001,"ADDRESS":"湖美街４６巷１７號","OBJECTID":392977},"geometry":{"x":165998.75,"y":2544627.8499999996}},{"attributes":{"ID":393002,"DIS_CODE":0,"TOWNNAME":"中西區","LI":"西湖里","LIN":"23鄰","STREET":"湖美街","SECT":" ","MAREA":" ","LANE":"４６巷","ALLEY":" ","HOUSE_NO":"１８號","E_COORD97":165999.56,"N_COORD97":2544599.8100000001,"ADDRESS":"湖美街４６巷１８號","OBJECTID":392978},"geometry":{"x":165999.55999999959,"y":2544599.8100000024}},{"attributes":{"ID":393003,"DIS_CODE":0,"TOWNNAME":"中西區","LI":"西湖里","LIN":"23鄰","STREET":"湖美街","SECT":" ","MAREA":" ","LANE":"４６巷","ALLEY":" ","HOUSE_NO":"１９號","E_COORD97":166003.03,"N_COORD97":2544628.6499999999,"ADDRESS":"湖美街４６巷１９號","OBJECTID":392979},"geometry":{"x":166003.03000000119,"y":2544628.6500000022}},{"attributes":{"ID":393004,"DIS_CODE":0,"TOWNNAME":"中西區","LI":"西湖里","LIN":"23鄰","STREET":"湖美街","SECT":" ","MAREA":" ","LANE":"４６巷","ALLEY":" ","HOUSE_NO":"１號","E_COORD97":165964.26000000001,"N_COORD97":2544626.52,"ADDRESS":"湖美街４６巷１號","OBJECTID":392980},"geometry":{"x":165964.26000000071,"y":2544626.5199999996}},{"attributes":{"ID":393005,"DIS_CODE":0,"TOWNNAME":"中西區","LI":"西湖里","LIN":"23鄰","STREET":"湖美街","SECT":" ","MAREA":" ","LANE":"４６巷","ALLEY":" ","HOUSE_NO":"２０號","E_COORD97":166004.37,"N_COORD97":2544600.6099999999,"ADDRESS":"湖美街４６巷２０號","OBJECTID":392981},"geometry":{"x":166004.37000000104,"y":2544600.6100000013}},{"attributes":{"ID":393006,"DIS_CODE":0,"TOWNNAME":"中西區","LI":"西湖里","LIN":"23鄰","STREET":"湖美街","SECT":" ","MAREA":" ","LANE":"４６巷","ALLEY":" ","HOUSE_NO":"２１號","E_COORD97":166007.31,"N_COORD97":2544627.8500000001,"ADDRESS":"湖美街４６巷２１號","OBJECTID":392982},"geometry":{"x":166007.31000000052,"y":2544627.8499999996}},{"attributes":{"ID":393007,"DIS_CODE":0,"TOWNNAME":"中西區","LI":"西湖里","LIN":"23鄰","STREET":"湖美街","SECT":" ","MAREA":" ","LANE":"４６巷","ALLEY":" ","HOUSE_NO":"２２號","E_COORD97":166008.10999999999,"N_COORD97":2544599.8100000001,"ADDRESS":"湖美街４６巷２２號","OBJECTID":392983},"geometry":{"x":166008.11000000127,"y":2544599.8100000024}},{"attributes":{"ID":393008,"DIS_CODE":0,"TOWNNAME":"中西區","LI":"西湖里","LIN":"23鄰","STREET":"湖美街","SECT":" ","MAREA":" ","LANE":"４６巷","ALLEY":" ","HOUSE_NO":"２３號","E_COORD97":166011.85999999999,"N_COORD97":2544628.6499999999,"ADDRESS":"湖美街４６巷２３號","OBJECTID":392984},"geometry":{"x":166011.86000000034,"y":2544628.6500000022}},{"attributes":{"ID":393009,"DIS_CODE":0,"TOWNNAME":"中西區","LI":"西湖里","LIN":"23鄰","STREET":"湖美街","SECT":" ","MAREA":" ","LANE":"４６巷","ALLEY":" ","HOUSE_NO":"２４號","E_COORD97":166012.39000000001,"N_COORD97":2544600.0800000001,"ADDRESS":"湖美街４６巷２４號","OBJECTID":392985},"geometry":{"x":166012.3900000006,"y":2544600.0800000038}},{"attributes":{"ID":393010,"DIS_CODE":0,"TOWNNAME":"中西區","LI":"西湖里","LIN":"23鄰","STREET":"湖美街","SECT":" ","MAREA":" ","LANE":"４６巷","ALLEY":" ","HOUSE_NO":"２５號","E_COORD97":166016.14000000001,"N_COORD97":2544627.8500000001,"ADDRESS":"湖美街４６巷２５號","OBJECTID":392986},"geometry":{"x":166016.13999999966,"y":2544627.8499999996}},{"attributes":{"ID":393011,"DIS_CODE":0,"TOWNNAME":"中西區","LI":"西湖里","LIN":"23鄰","STREET":"湖美街","SECT":" ","MAREA":" ","LANE":"４６巷","ALLEY":" ","HOUSE_NO":"２６號","E_COORD97":166016.39999999999,"N_COORD97":2544600.6099999999,"ADDRESS":"湖美街４６巷２６號","OBJECTID":392987},"geometry":{"x":166016.4000000013,"y":2544600.6100000013}},{"attributes":{"ID":393012,"DIS_CODE":0,"TOWNNAME":"中西區","LI":"西湖里","LIN":"23鄰","STREET":"湖美街","SECT":" ","MAREA":" ","LANE":"４６巷","ALLEY":" ","HOUSE_NO":"２７號","E_COORD97":166020.14999999999,"N_COORD97":2544629.1899999999,"ADDRESS":"湖美街４６巷２７號","OBJECTID":392988},"geometry":{"x":166020.15000000037,"y":2544629.1900000032}},{"attributes":{"ID":393013,"DIS_CODE":0,"TOWNNAME":"中西區","LI":"西湖里","LIN":"23鄰","STREET":"湖美街","SECT":" ","MAREA":" ","LANE":"４６巷","ALLEY":" ","HOUSE_NO":"２８號","E_COORD97":166020.95000000001,"N_COORD97":2544600.3399999999,"ADDRESS":"湖美街４６巷２８號","OBJECTID":392989},"geometry":{"x":166020.95000000112,"y":2544600.3399999999}},{"attributes":{"ID":393014,"DIS_CODE":0,"TOWNNAME":"中西區","LI":"西湖里","LIN":"23鄰","STREET":"湖美街","SECT":" ","MAREA":" ","LANE":"４６巷","ALLEY":" ","HOUSE_NO":"２９號","E_COORD97":166024.69,"N_COORD97":2544628.3900000001,"ADDRESS":"湖美街４６巷２９號","OBJECTID":392990},"geometry":{"x":166024.69000000134,"y":2544628.3900000006}},{"attributes":{"ID":393015,"DIS_CODE":0,"TOWNNAME":"中西區","LI":"西湖里","LIN":"23鄰","STREET":"湖美街","SECT":" ","MAREA":" ","LANE":"４６巷","ALLEY":" ","HOUSE_NO":"２號","E_COORD97":165965.59,"N_COORD97":2544597.6699999999,"ADDRESS":"湖美街４６巷２號","OBJECTID":392991},"geometry":{"x":165965.58999999985,"y":2544597.6700000018}},{"attributes":{"ID":393016,"DIS_CODE":0,"TOWNNAME":"中西區","LI":"西湖里","LIN":"23鄰","STREET":"湖美街","SECT":" ","MAREA":" ","LANE":"４６巷","ALLEY":" ","HOUSE_NO":"３號","E_COORD97":165968.79999999999,"N_COORD97":2544627.0499999998,"ADDRESS":"湖美街４６巷３號","OBJECTID":392992},"geometry":{"x":165968.80000000075,"y":2544627.0500000007}},{"attributes":{"ID":393017,"DIS_CODE":0,"TOWNNAME":"中西區","LI":"西湖里","LIN":"23鄰","STREET":"湖美街","SECT":" ","MAREA":" ","LANE":"４６巷","ALLEY":" ","HOUSE_NO":"４號","E_COORD97":165969.34,"N_COORD97":2544598.7400000002,"ADDRESS":"湖美街４６巷４號","OBJECTID":392993},"geometry":{"x":165969.33999999985,"y":2544598.7400000002}},{"attributes":{"ID":393018,"DIS_CODE":0,"TOWNNAME":"中西區","LI":"西湖里","LIN":"23鄰","STREET":"湖美街","SECT":" ","MAREA":" ","LANE":"４６巷","ALLEY":" ","HOUSE_NO":"５號","E_COORD97":165973.07999999999,"N_COORD97":2544626.52,"ADDRESS":"湖美街４６巷５號","OBJECTID":392994},"geometry":{"x":165973.08000000007,"y":2544626.5199999996}},{"attributes":{"ID":393019,"DIS_CODE":0,"TOWNNAME":"中西區","LI":"西湖里","LIN":"23鄰","STREET":"湖美街","SECT":" ","MAREA":" ","LANE":"４６巷","ALLEY":" ","HOUSE_NO":"６號","E_COORD97":165973.62,"N_COORD97":2544597.9399999999,"ADDRESS":"湖美街４６巷６號","OBJECTID":392995},"geometry":{"x":165973.62000000104,"y":2544597.9400000013}},{"attributes":{"ID":393020,"DIS_CODE":0,"TOWNNAME":"中西區","LI":"西湖里","LIN":"23鄰","STREET":"湖美街","SECT":" ","MAREA":" ","LANE":"４６巷","ALLEY":" ","HOUSE_NO":"８號","E_COORD97":165978.16,"N_COORD97":2544598.7400000002,"ADDRESS":"湖美街４６巷８號","OBJECTID":392996},"geometry":{"x":165978.16000000201,"y":2544598.7400000002}},{"attributes":{"ID":393021,"DIS_CODE":0,"TOWNNAME":"中西區","LI":"西湖里","LIN":"23鄰","STREET":"湖美街","SECT":" ","MAREA":" ","LANE":"４６巷","ALLEY":" ","HOUSE_NO":"９號","E_COORD97":165981.64000000001,"N_COORD97":2544627.5800000001,"ADDRESS":"湖美街４６巷９號","OBJECTID":392997},"geometry":{"x":165981.6400000006,"y":2544627.5800000019}},{"attributes":{"ID":393022,"DIS_CODE":0,"TOWNNAME":"中西區","LI":"西湖里","LIN":"23鄰","STREET":"湖美街","SECT":" ","MAREA":" ","LANE":"６０巷","ALLEY":" ","HOUSE_NO":"１０號","E_COORD97":165980.84,"N_COORD97":2544645.75,"ADDRESS":"湖美街６０巷１０號","OBJECTID":392998},"geometry":{"x":165980.83999999985,"y":2544645.75}},{"attributes":{"ID":393023,"DIS_CODE":0,"TOWNNAME":"中西區","LI":"西湖里","LIN":"23鄰","STREET":"湖美街","SECT":" ","MAREA":" ","LANE":"６０巷","ALLEY":" ","HOUSE_NO":"１２號","E_COORD97":165985.38,"N_COORD97":2544645.21,"ADDRESS":"湖美街６０巷１２號","OBJECTID":392999},"geometry":{"x":165985.38000000082,"y":2544645.2100000028}},{"attributes":{"ID":393024,"DIS_CODE":0,"TOWNNAME":"中西區","LI":"西湖里","LIN":"23鄰","STREET":"湖美街","SECT":" ","MAREA":" ","LANE":"６０巷","ALLEY":" ","HOUSE_NO":"２４號","E_COORD97":166011.06,"N_COORD97":2544647.3500000001,"ADDRESS":"湖美街６０巷２４號","OBJECTID":393000},"geometry":{"x":166011.06000000052,"y":2544647.3499999996}}]}