{"displayFieldName":"TOWNNAME","fieldAliases":{"ID":"ID","DIS_CODE":"DIS_CODE","TOWNNAME":"TOWNNAME","LI":"LI","LIN":"LIN","STREET":"STREET","SECT":"SECT","MAREA":"MAREA","LANE":"LANE","ALLEY":"ALLEY","HOUSE_NO":"HOUSE_NO","E_COORD97":"E_COORD97","N_COORD97":"N_COORD97","ADDRESS":"ADDRESS","OBJECTID":"OBJECTID"},"geometryType":"esriGeometryPoint","spatialReference":{"wkid":102443,"latestWkid":3826},"fields":[{"name":"ID","type":"esriFieldTypeDouble","alias":"ID"},{"name":"DIS_CODE","type":"esriFieldTypeInteger","alias":"DIS_CODE"},{"name":"TOWNNAME","type":"esriFieldTypeString","alias":"TOWNNAME","length":8},{"name":"LI","type":"esriFieldTypeString","alias":"LI","length":8},{"name":"LIN","type":"esriFieldTypeString","alias":"LIN","length":12},{"name":"STREET","type":"esriFieldTypeString","alias":"STREET","length":20},{"name":"SECT","type":"esriFieldTypeString","alias":"SECT","length":8},{"name":"MAREA","type":"esriFieldTypeString","alias":"MAREA","length":12},{"name":"LANE","type":"esriFieldTypeString","alias":"LANE","length":10},{"name":"ALLEY","type":"esriFieldTypeString","alias":"ALLEY","length":10},{"name":"HOUSE_NO","type":"esriFieldTypeString","alias":"HOUSE_NO","length":20},{"name":"E_COORD97","type":"esriFieldTypeDouble","alias":"E_COORD97"},{"name":"N_COORD97","type":"esriFieldTypeDouble","alias":"N_COORD97"},{"name":"ADDRESS","type":"esriFieldTypeString","alias":"ADDRESS","length":50},{"name":"OBJECTID","type":"esriFieldTypeOID","alias":"OBJECTID"}],"features":[{"attributes":{"ID":391825,"DIS_CODE":0,"TOWNNAME":"永康區","LI":"埔園里","LIN":"23鄰","STREET":"自強路","SECT":" ","MAREA":" ","LANE":"３７９巷","ALLEY":" ","HOUSE_NO":"４７號","E_COORD97":173587.82999999999,"N_COORD97":2547999,"ADDRESS":"自強路３７９巷４７號","OBJECTID":391801},"geometry":{"x":173587.83000000007,"y":2547999.0000000019}},{"attributes":{"ID":391826,"DIS_CODE":0,"TOWNNAME":"永康區","LI":"埔園里","LIN":"23鄰","STREET":"自強路","SECT":" ","MAREA":" ","LANE":"３７９巷","ALLEY":" ","HOUSE_NO":"２７號","E_COORD97":173599,"N_COORD97":2547960.4100000001,"ADDRESS":"自強路３７９巷２７號","OBJECTID":391802},"geometry":{"x":173599.00000000186,"y":2547960.4100000001}},{"attributes":{"ID":391827,"DIS_CODE":0,"TOWNNAME":"安南區","LI":"海東里","LIN":"23鄰","STREET":"同安路","SECT":" ","MAREA":" ","LANE":"１４５巷","ALLEY":" ","HOUSE_NO":"４８號","E_COORD97":166926.95999999999,"N_COORD97":2549165.5800000001,"ADDRESS":"同安路１４５巷４８號","OBJECTID":391803},"geometry":{"x":166926.96000000183,"y":2549165.5800000001}},{"attributes":{"ID":391828,"DIS_CODE":0,"TOWNNAME":"西港區","LI":"慶安里","LIN":"23鄰","STREET":"中山路","SECT":" ","MAREA":" ","LANE":"２４３巷","ALLEY":" ","HOUSE_NO":"１３號","E_COORD97":168362.72,"N_COORD97":2557851.7000000002,"ADDRESS":"中山路２４３巷１３號","OBJECTID":391804},"geometry":{"x":168362.72000000067,"y":2557851.700000003}},{"attributes":{"ID":391829,"DIS_CODE":0,"TOWNNAME":"安南區","LI":"州南里","LIN":"23鄰","STREET":"安和路","SECT":"四段","MAREA":" ","LANE":"５３３巷","ALLEY":" ","HOUSE_NO":"３０號","E_COORD97":169862.26999999999,"N_COORD97":2551301.8199999998,"ADDRESS":"安和路四段５３３巷３０號","OBJECTID":391805},"geometry":{"x":169862.27000000048,"y":2551301.8200000022}},{"attributes":{"ID":391830,"DIS_CODE":0,"TOWNNAME":"安南區","LI":"州南里","LIN":"23鄰","STREET":"安和路","SECT":"四段","MAREA":" ","LANE":"５３３巷","ALLEY":" ","HOUSE_NO":"３２號","E_COORD97":169858.98999999999,"N_COORD97":2551300.2799999998,"ADDRESS":"安和路四段５３３巷３２號","OBJECTID":391806},"geometry":{"x":169858.99000000022,"y":2551300.2799999993}},{"attributes":{"ID":391831,"DIS_CODE":0,"TOWNNAME":"安南區","LI":"\u25A0南里","LIN":"23鄰","STREET":"環福街","SECT":" ","MAREA":" ","LANE":"２１６巷","ALLEY":" ","HOUSE_NO":"１０號","E_COORD97":170318.70999999999,"N_COORD97":2552661.8300000001,"ADDRESS":"環福街２１６巷１０號","OBJECTID":391807},"geometry":{"x":170318.70999999996,"y":2552661.8300000019}},{"attributes":{"ID":391832,"DIS_CODE":0,"TOWNNAME":"南區","LI":"郡南里","LIN":"23鄰","STREET":"德興路","SECT":" ","MAREA":" ","LANE":"１２３巷","ALLEY":" ","HOUSE_NO":"１號","E_COORD97":167233.26000000001,"N_COORD97":2540477.9300000002,"ADDRESS":"德興路１２３巷１號","OBJECTID":391808},"geometry":{"x":167233.26000000164,"y":2540477.9299999978}},{"attributes":{"ID":391833,"DIS_CODE":0,"TOWNNAME":"南區","LI":"郡南里","LIN":"23鄰","STREET":"德興路","SECT":" ","MAREA":" ","LANE":"１２３巷","ALLEY":" ","HOUSE_NO":"２號","E_COORD97":167237.42000000001,"N_COORD97":2540478.2799999998,"ADDRESS":"德興路１２３巷２號","OBJECTID":391809},"geometry":{"x":167237.42000000179,"y":2540478.2799999993}},{"attributes":{"ID":391834,"DIS_CODE":0,"TOWNNAME":"南區","LI":"郡南里","LIN":"23鄰","STREET":"德興路","SECT":" ","MAREA":" ","LANE":"１２３巷","ALLEY":" ","HOUSE_NO":"３號","E_COORD97":167241.23000000001,"N_COORD97":2540478.6200000001,"ADDRESS":"德興路１２３巷３號","OBJECTID":391810},"geometry":{"x":167241.23000000138,"y":2540478.6200000029}},{"attributes":{"ID":391835,"DIS_CODE":0,"TOWNNAME":"南區","LI":"郡南里","LIN":"23鄰","STREET":"德興路","SECT":" ","MAREA":" ","LANE":"１２３巷","ALLEY":" ","HOUSE_NO":"４號","E_COORD97":167247.12,"N_COORD97":2540479.6600000001,"ADDRESS":"德興路１２３巷４號","OBJECTID":391811},"geometry":{"x":167247.12000000104,"y":2540479.6600000001}},{"attributes":{"ID":391836,"DIS_CODE":0,"TOWNNAME":"南區","LI":"郡南里","LIN":"23鄰","STREET":"德興路","SECT":" ","MAREA":" ","LANE":"１２３巷","ALLEY":" ","HOUSE_NO":"５號","E_COORD97":167250.42999999999,"N_COORD97":2540478.8500000001,"ADDRESS":"德興路１２３巷５號","OBJECTID":391812},"geometry":{"x":167250.4299999997,"y":2540478.8500000015}},{"attributes":{"ID":391837,"DIS_CODE":0,"TOWNNAME":"南區","LI":"郡南里","LIN":"23鄰","STREET":"德興路","SECT":" ","MAREA":" ","LANE":"１２３巷","ALLEY":" ","HOUSE_NO":"６號","E_COORD97":167255.75,"N_COORD97":2540479.8599999999,"ADDRESS":"德興路１２３巷６號","OBJECTID":391813},"geometry":{"x":167255.75000000093,"y":2540479.8600000013}},{"attributes":{"ID":391838,"DIS_CODE":0,"TOWNNAME":"南區","LI":"郡南里","LIN":"23鄰","STREET":"德興路","SECT":" ","MAREA":" ","LANE":"１２３巷","ALLEY":" ","HOUSE_NO":"７號","E_COORD97":167260.06,"N_COORD97":2540480.3700000001,"ADDRESS":"德興路１２３巷７號","OBJECTID":391814},"geometry":{"x":167260.06000000052,"y":2540480.3700000029}},{"attributes":{"ID":391839,"DIS_CODE":0,"TOWNNAME":"南區","LI":"郡南里","LIN":"23鄰","STREET":"德興路","SECT":" ","MAREA":" ","LANE":"１２３巷","ALLEY":" ","HOUSE_NO":"８號","E_COORD97":167263.60000000001,"N_COORD97":2540480.6200000001,"ADDRESS":"德興路１２３巷８號","OBJECTID":391815},"geometry":{"x":167263.60000000056,"y":2540480.620000001}},{"attributes":{"ID":391840,"DIS_CODE":0,"TOWNNAME":"南區","LI":"郡南里","LIN":"23鄰","STREET":"德興路","SECT":" ","MAREA":" ","LANE":"１２３巷","ALLEY":" ","HOUSE_NO":"９號","E_COORD97":167268.79000000001,"N_COORD97":2540481.1200000001,"ADDRESS":"德興路１２３巷９號","OBJECTID":391816},"geometry":{"x":167268.7900000019,"y":2540481.120000001}},{"attributes":{"ID":391841,"DIS_CODE":0,"TOWNNAME":"南區","LI":"郡南里","LIN":"23鄰","STREET":"德興路","SECT":" ","MAREA":" ","LANE":"１２３巷","ALLEY":" ","HOUSE_NO":"１０號","E_COORD97":167273.10000000001,"N_COORD97":2540481.7599999998,"ADDRESS":"德興路１２３巷１０號","OBJECTID":391817},"geometry":{"x":167273.10000000149,"y":2540481.7599999998}},{"attributes":{"ID":391842,"DIS_CODE":0,"TOWNNAME":"南區","LI":"郡南里","LIN":"23鄰","STREET":"德興路","SECT":" ","MAREA":" ","LANE":"１２３巷","ALLEY":" ","HOUSE_NO":"１１號","E_COORD97":167276.26000000001,"N_COORD97":2540482.6400000001,"ADDRESS":"德興路１２３巷１１號","OBJECTID":391818},"geometry":{"x":167276.26000000071,"y":2540482.6400000025}},{"attributes":{"ID":391843,"DIS_CODE":0,"TOWNNAME":"南區","LI":"郡南里","LIN":"23鄰","STREET":"德興路","SECT":" ","MAREA":" ","LANE":"１３９巷","ALLEY":" ","HOUSE_NO":"１號","E_COORD97":167234.44,"N_COORD97":2540462.9500000002,"ADDRESS":"德興路１３９巷１號","OBJECTID":391819},"geometry":{"x":167234.44000000227,"y":2540462.9499999993}},{"attributes":{"ID":391844,"DIS_CODE":0,"TOWNNAME":"南區","LI":"郡南里","LIN":"23鄰","STREET":"德興路","SECT":" ","MAREA":" ","LANE":"１３９巷","ALLEY":" ","HOUSE_NO":"３號","E_COORD97":167238.10999999999,"N_COORD97":2540462.6200000001,"ADDRESS":"德興路１３９巷３號","OBJECTID":391820},"geometry":{"x":167238.1100000022,"y":2540462.6200000029}},{"attributes":{"ID":391845,"DIS_CODE":0,"TOWNNAME":"南區","LI":"郡南里","LIN":"23鄰","STREET":"德興路","SECT":" ","MAREA":" ","LANE":"１３９巷","ALLEY":" ","HOUSE_NO":"５號","E_COORD97":167243.12,"N_COORD97":2540463.6200000001,"ADDRESS":"德興路１３９巷５號","OBJECTID":391821},"geometry":{"x":167243.12000000104,"y":2540463.620000001}},{"attributes":{"ID":391846,"DIS_CODE":0,"TOWNNAME":"南區","LI":"郡南里","LIN":"23鄰","STREET":"德興路","SECT":" ","MAREA":" ","LANE":"１３９巷","ALLEY":" ","HOUSE_NO":"９號","E_COORD97":167252.48000000001,"N_COORD97":2540463.9500000002,"ADDRESS":"德興路１３９巷９號","OBJECTID":391822},"geometry":{"x":167252.48000000045,"y":2540463.950000003}},{"attributes":{"ID":391847,"DIS_CODE":0,"TOWNNAME":"南區","LI":"郡南里","LIN":"23鄰","STREET":"德興路","SECT":" ","MAREA":" ","LANE":"１３９巷","ALLEY":" ","HOUSE_NO":"１１號","E_COORD97":167256.48000000001,"N_COORD97":2540463.6200000001,"ADDRESS":"德興路１３９巷１１號","OBJECTID":391823},"geometry":{"x":167256.48000000138,"y":2540463.620000001}},{"attributes":{"ID":391848,"DIS_CODE":0,"TOWNNAME":"南區","LI":"郡南里","LIN":"23鄰","STREET":"德興路","SECT":" ","MAREA":" ","LANE":"１３９巷","ALLEY":" ","HOUSE_NO":"１３號","E_COORD97":167260.82999999999,"N_COORD97":2540464.6200000001,"ADDRESS":"德興路１３９巷１３號","OBJECTID":391824},"geometry":{"x":167260.83000000101,"y":2540464.6200000048}},{"attributes":{"ID":391849,"DIS_CODE":0,"TOWNNAME":"南區","LI":"郡南里","LIN":"23鄰","STREET":"德興路","SECT":" ","MAREA":" ","LANE":"１３９巷","ALLEY":" ","HOUSE_NO":"１５號","E_COORD97":167264.84,"N_COORD97":2540464.9500000002,"ADDRESS":"德興路１３９巷１５號","OBJECTID":391825},"geometry":{"x":167264.83999999892,"y":2540464.9500000011}},{"attributes":{"ID":391850,"DIS_CODE":0,"TOWNNAME":"永康區","LI":"埔園里","LIN":"23鄰","STREET":"自強路","SECT":" ","MAREA":" ","LANE":"３７９巷","ALLEY":" ","HOUSE_NO":"３１號","E_COORD97":173596.35000000001,"N_COORD97":2547967.8599999999,"ADDRESS":"自強路３７９巷３１號","OBJECTID":391826},"geometry":{"x":173596.35000000056,"y":2547967.8600000013}},{"attributes":{"ID":391851,"DIS_CODE":0,"TOWNNAME":"永康區","LI":"埔園里","LIN":"23鄰","STREET":"自強路","SECT":" ","MAREA":" ","LANE":"３７９巷","ALLEY":" ","HOUSE_NO":"３７號","E_COORD97":173592.73000000001,"N_COORD97":2547980.96,"ADDRESS":"自強路３７９巷３７號","OBJECTID":391827},"geometry":{"x":173592.73000000231,"y":2547980.9600000009}},{"attributes":{"ID":391852,"DIS_CODE":0,"TOWNNAME":"永康區","LI":"東灣里","LIN":"23鄰","STREET":"大灣二街","SECT":" ","MAREA":" ","LANE":"３８巷","ALLEY":" ","HOUSE_NO":"２８號","E_COORD97":174930.76999999999,"N_COORD97":2544794.77,"ADDRESS":"大灣二街３８巷２８號","OBJECTID":391828},"geometry":{"x":174930.77000000142,"y":2544794.7699999977}},{"attributes":{"ID":391853,"DIS_CODE":0,"TOWNNAME":"永康區","LI":"南灣里","LIN":"23鄰","STREET":"大灣路","SECT":" ","MAREA":" ","LANE":"７６４巷","ALLEY":" ","HOUSE_NO":"９３號","E_COORD97":174204.98000000001,"N_COORD97":2544749.8300000001,"ADDRESS":"大灣路７６４巷９３號","OBJECTID":391829},"geometry":{"x":174204.98000000138,"y":2544749.8300000001}},{"attributes":{"ID":391854,"DIS_CODE":0,"TOWNNAME":"永康區","LI":"東灣里","LIN":"23鄰","STREET":"大灣二街","SECT":" ","MAREA":" ","LANE":"３８巷","ALLEY":" ","HOUSE_NO":"３０號","E_COORD97":174935.04999999999,"N_COORD97":2544792.8300000001,"ADDRESS":"大灣二街３８巷３０號","OBJECTID":391830},"geometry":{"x":174935.04999999981,"y":2544792.8300000019}},{"attributes":{"ID":391855,"DIS_CODE":0,"TOWNNAME":"永康區","LI":"南灣里","LIN":"23鄰","STREET":"大灣路","SECT":" ","MAREA":" ","LANE":"７６４巷","ALLEY":" ","HOUSE_NO":"９１號","E_COORD97":174200.82000000001,"N_COORD97":2544751.3300000001,"ADDRESS":"大灣路７６４巷９１號","OBJECTID":391831},"geometry":{"x":174200.82000000123,"y":2544751.3300000019}},{"attributes":{"ID":391856,"DIS_CODE":0,"TOWNNAME":"永康區","LI":"東灣里","LIN":"23鄰","STREET":"大灣二街","SECT":" ","MAREA":" ","LANE":"３８巷","ALLEY":" ","HOUSE_NO":"３２號","E_COORD97":174939.17000000001,"N_COORD97":2544790.5800000001,"ADDRESS":"大灣二街３８巷３２號","OBJECTID":391832},"geometry":{"x":174939.17000000086,"y":2544790.5800000019}},{"attributes":{"ID":391857,"DIS_CODE":0,"TOWNNAME":"永康區","LI":"埔園里","LIN":"23鄰","STREET":"自強路","SECT":" ","MAREA":" ","LANE":"３７９巷","ALLEY":" ","HOUSE_NO":"４１號","E_COORD97":173590.60000000001,"N_COORD97":2547988,"ADDRESS":"自強路３７９巷４１號","OBJECTID":391833},"geometry":{"x":173590.59999999963,"y":2547988.0000000019}},{"attributes":{"ID":391858,"DIS_CODE":0,"TOWNNAME":"永康區","LI":"東灣里","LIN":"23鄰","STREET":"大灣二街","SECT":" ","MAREA":" ","LANE":"３８巷","ALLEY":" ","HOUSE_NO":"２０號","E_COORD97":174945.48000000001,"N_COORD97":2544772.3500000001,"ADDRESS":"大灣二街３８巷２０號","OBJECTID":391834},"geometry":{"x":174945.48000000231,"y":2544772.3500000015}},{"attributes":{"ID":391859,"DIS_CODE":0,"TOWNNAME":"新市區","LI":"新市里","LIN":"23鄰","STREET":"和平街","SECT":" ","MAREA":" ","LANE":"１６巷","ALLEY":" ","HOUSE_NO":"１６號","E_COORD97":177755.89999999999,"N_COORD97":2553520,"ADDRESS":"和平街１６巷１６號","OBJECTID":391835},"geometry":{"x":177755.90000000037,"y":2553520}},{"attributes":{"ID":391860,"DIS_CODE":0,"TOWNNAME":"新市區","LI":"新市里","LIN":"23鄰","STREET":"和平街","SECT":" ","MAREA":" ","LANE":"１６巷","ALLEY":" ","HOUSE_NO":"１４號","E_COORD97":177756.14000000001,"N_COORD97":2553516,"ADDRESS":"和平街１６巷１４號","OBJECTID":391836},"geometry":{"x":177756.1400000006,"y":2553516}},{"attributes":{"ID":391861,"DIS_CODE":0,"TOWNNAME":"仁德區","LI":"土庫里","LIN":"23鄰","STREET":"太子路","SECT":" ","MAREA":" ","LANE":"１９３巷","ALLEY":" ","HOUSE_NO":"４號","E_COORD97":174421.23000000001,"N_COORD97":2543483.25,"ADDRESS":"太子路１９３巷４號","OBJECTID":391837},"geometry":{"x":174421.23000000045,"y":2543483.2499999981}},{"attributes":{"ID":391862,"DIS_CODE":0,"TOWNNAME":"仁德區","LI":"仁德里","LIN":"23鄰","STREET":"文心路","SECT":" ","MAREA":" ","LANE":"５８巷","ALLEY":" ","HOUSE_NO":"６８號","E_COORD97":172258.76999999999,"N_COORD97":2541345.0800000001,"ADDRESS":"文心路５８巷６８號","OBJECTID":391838},"geometry":{"x":172258.76999999955,"y":2541345.0800000001}},{"attributes":{"ID":391863,"DIS_CODE":0,"TOWNNAME":"仁德區","LI":"大甲里","LIN":"23鄰","STREET":"二仁路","SECT":"一段","MAREA":" ","LANE":"３１５巷","ALLEY":" ","HOUSE_NO":"３５５之１號","E_COORD97":169555.53,"N_COORD97":2535948.5499999998,"ADDRESS":"二仁路一段３１５巷３５５之１號","OBJECTID":391839},"geometry":{"x":169555.53000000026,"y":2535948.5499999989}},{"attributes":{"ID":391864,"DIS_CODE":0,"TOWNNAME":"仁德區","LI":"上崙里","LIN":"23鄰","STREET":"德崙路","SECT":" ","MAREA":" ","LANE":"１９６巷","ALLEY":" ","HOUSE_NO":"６號","E_COORD97":173623.37,"N_COORD97":2538274.0099999998,"ADDRESS":"德崙路１９６巷６號","OBJECTID":391840},"geometry":{"x":173623.37000000011,"y":2538274.0100000035}},{"attributes":{"ID":391865,"DIS_CODE":0,"TOWNNAME":"仁德區","LI":"大甲里","LIN":"23鄰","STREET":"中正西路","SECT":" ","MAREA":" ","LANE":"６２５巷","ALLEY":" ","HOUSE_NO":"７８號","E_COORD97":168852.76000000001,"N_COORD97":2535552.75,"ADDRESS":"中正西路６２５巷７８號","OBJECTID":391841},"geometry":{"x":168852.76000000071,"y":2535552.75}},{"attributes":{"ID":391866,"DIS_CODE":0,"TOWNNAME":"南區","LI":"新興里","LIN":"23鄰","STREET":"五妃街","SECT":" ","MAREA":" ","LANE":"４４３巷","ALLEY":" ","HOUSE_NO":"２３號","E_COORD97":167534.85999999999,"N_COORD97":2542525.6499999999,"ADDRESS":"五妃街４４３巷２３號","OBJECTID":391842},"geometry":{"x":167534.8600000022,"y":2542525.6500000022}},{"attributes":{"ID":391867,"DIS_CODE":0,"TOWNNAME":"南區","LI":"廣州里","LIN":"23鄰","STREET":"健康路","SECT":"二段","MAREA":" ","LANE":"１９８巷","ALLEY":" ","HOUSE_NO":"８號","E_COORD97":167200.67000000001,"N_COORD97":2542516.6600000001,"ADDRESS":"健康路二段１９８巷８號","OBJECTID":391843},"geometry":{"x":167200.67000000086,"y":2542516.6600000001}},{"attributes":{"ID":391868,"DIS_CODE":0,"TOWNNAME":"南區","LI":"廣州里","LIN":"23鄰","STREET":"健康路","SECT":"二段","MAREA":" ","LANE":"１９８巷","ALLEY":" ","HOUSE_NO":"１０號","E_COORD97":167197.72,"N_COORD97":2542519.6000000001,"ADDRESS":"健康路二段１９８巷１０號","OBJECTID":391844},"geometry":{"x":167197.71999999881,"y":2542519.5999999996}},{"attributes":{"ID":391869,"DIS_CODE":0,"TOWNNAME":"南區","LI":"廣州里","LIN":"23鄰","STREET":"健康路","SECT":"二段","MAREA":" ","LANE":"１９８巷","ALLEY":" ","HOUSE_NO":"１２號","E_COORD97":167194.34,"N_COORD97":2542522.98,"ADDRESS":"健康路二段１９８巷１２號","OBJECTID":391845},"geometry":{"x":167194.34000000078,"y":2542522.9800000042}},{"attributes":{"ID":391870,"DIS_CODE":0,"TOWNNAME":"南區","LI":"廣州里","LIN":"23鄰","STREET":"健康路","SECT":"二段","MAREA":" ","LANE":"１９８巷","ALLEY":" ","HOUSE_NO":"１４號","E_COORD97":167190.12,"N_COORD97":2542526.3599999999,"ADDRESS":"健康路二段１９８巷１４號","OBJECTID":391846},"geometry":{"x":167190.12000000011,"y":2542526.3600000013}},{"attributes":{"ID":391871,"DIS_CODE":0,"TOWNNAME":"南區","LI":"廣州里","LIN":"23鄰","STREET":"健康路","SECT":"二段","MAREA":" ","LANE":"１９８巷","ALLEY":" ","HOUSE_NO":"１６號","E_COORD97":167185.89999999999,"N_COORD97":2542528.4700000002,"ADDRESS":"健康路二段１９８巷１６號","OBJECTID":391847},"geometry":{"x":167185.9000000013,"y":2542528.4700000007}},{"attributes":{"ID":391872,"DIS_CODE":0,"TOWNNAME":"南區","LI":"廣州里","LIN":"23鄰","STREET":"健康路","SECT":"二段","MAREA":" ","LANE":"１９８巷","ALLEY":" ","HOUSE_NO":"１８號","E_COORD97":167182.94,"N_COORD97":2542535.21,"ADDRESS":"健康路二段１９８巷１８號","OBJECTID":391848},"geometry":{"x":167182.94000000041,"y":2542535.209999999}},{"attributes":{"ID":391873,"DIS_CODE":0,"TOWNNAME":"南區","LI":"廣州里","LIN":"23鄰","STREET":"健康路","SECT":"二段","MAREA":" ","LANE":"１９８巷","ALLEY":" ","HOUSE_NO":"２０號","E_COORD97":167179.14000000001,"N_COORD97":2542536.8999999999,"ADDRESS":"健康路二段１９８巷２０號","OBJECTID":391849},"geometry":{"x":167179.13999999966,"y":2542536.9000000041}},{"attributes":{"ID":391874,"DIS_CODE":0,"TOWNNAME":"南區","LI":"廣州里","LIN":"23鄰","STREET":"健康路","SECT":"二段","MAREA":" ","LANE":"１９８巷","ALLEY":" ","HOUSE_NO":"２２號","E_COORD97":167176.60999999999,"N_COORD97":2542539.4300000002,"ADDRESS":"健康路二段１９８巷２２號","OBJECTID":391850},"geometry":{"x":167176.61000000034,"y":2542539.4300000034}},{"attributes":{"ID":391875,"DIS_CODE":0,"TOWNNAME":"南區","LI":"廣州里","LIN":"23鄰","STREET":"健康路","SECT":"二段","MAREA":" ","LANE":"１９８巷","ALLEY":" ","HOUSE_NO":"２４號","E_COORD97":167172.81,"N_COORD97":2542543.2200000002,"ADDRESS":"健康路二段１９８巷２４號","OBJECTID":391851},"geometry":{"x":167172.80999999959,"y":2542543.2200000025}},{"attributes":{"ID":391876,"DIS_CODE":0,"TOWNNAME":"南區","LI":"廣州里","LIN":"23鄰","STREET":"健康路","SECT":"二段","MAREA":" ","LANE":"１９８巷","ALLEY":" ","HOUSE_NO":"２６號","E_COORD97":167169.01000000001,"N_COORD97":2542546.1800000002,"ADDRESS":"健康路二段１９８巷２６號","OBJECTID":391852},"geometry":{"x":167169.01000000071,"y":2542546.1800000016}},{"attributes":{"ID":391877,"DIS_CODE":0,"TOWNNAME":"新市區","LI":"新和里","LIN":"7鄰","STREET":"信義街","SECT":" ","MAREA":" ","LANE":"１１巷","ALLEY":" ","HOUSE_NO":"１號","E_COORD97":177221.39999999999,"N_COORD97":2552537.6400000001,"ADDRESS":"信義街１１巷１號","OBJECTID":391853},"geometry":{"x":177221.4000000013,"y":2552537.6400000025}},{"attributes":{"ID":391878,"DIS_CODE":0,"TOWNNAME":"仁德區","LI":"仁義里","LIN":"23鄰","STREET":"中清路","SECT":" ","MAREA":" ","LANE":"１７２巷","ALLEY":" ","HOUSE_NO":"７號","E_COORD97":173771.53,"N_COORD97":2541519.04,"ADDRESS":"中清路１７２巷７號","OBJECTID":391854},"geometry":{"x":173771.53000000026,"y":2541519.040000001}},{"attributes":{"ID":391879,"DIS_CODE":0,"TOWNNAME":"南區","LI":"廣州里","LIN":"23鄰","STREET":"健康路","SECT":"二段","MAREA":" ","LANE":"１９８巷","ALLEY":" ","HOUSE_NO":"２８號","E_COORD97":167165.63,"N_COORD97":2542553.77,"ADDRESS":"健康路二段１９８巷２８號","OBJECTID":391855},"geometry":{"x":167165.62999999989,"y":2542553.7699999977}},{"attributes":{"ID":391880,"DIS_CODE":0,"TOWNNAME":"永康區","LI":"西灣里","LIN":"23鄰","STREET":"大勇路","SECT":" ","MAREA":" ","LANE":"７６巷","ALLEY":" ","HOUSE_NO":"１２號","E_COORD97":174275.92000000001,"N_COORD97":2545468,"ADDRESS":"大勇路７６巷１２號","OBJECTID":391856},"geometry":{"x":174275.92000000086,"y":2545468}},{"attributes":{"ID":391881,"DIS_CODE":0,"TOWNNAME":"永康區","LI":"西灣里","LIN":"23鄰","STREET":"大勇路","SECT":" ","MAREA":" ","LANE":"７６巷","ALLEY":" ","HOUSE_NO":"１７號","E_COORD97":174290.51000000001,"N_COORD97":2545486.0099999998,"ADDRESS":"大勇路７６巷１７號","OBJECTID":391857},"geometry":{"x":174290.51000000071,"y":2545486.0100000016}},{"attributes":{"ID":391882,"DIS_CODE":0,"TOWNNAME":"永康區","LI":"西勢里","LIN":"23鄰","STREET":"富強路","SECT":"一段","MAREA":" ","LANE":"１９４巷","ALLEY":" ","HOUSE_NO":"９０號","E_COORD97":175681.63,"N_COORD97":2546158.0499999998,"ADDRESS":"富強路一段１９４巷９０號","OBJECTID":391858},"geometry":{"x":175681.63000000082,"y":2546158.0500000026}},{"attributes":{"ID":391883,"DIS_CODE":0,"TOWNNAME":"永康區","LI":"西灣里","LIN":"23鄰","STREET":"大勇路","SECT":" ","MAREA":" ","LANE":"６２巷","ALLEY":" ","HOUSE_NO":"１９號","E_COORD97":174274.38,"N_COORD97":2545435.25,"ADDRESS":"大勇路６２巷１９號","OBJECTID":391859},"geometry":{"x":174274.38000000175,"y":2545435.25}},{"attributes":{"ID":391884,"DIS_CODE":0,"TOWNNAME":"永康區","LI":"西勢里","LIN":"23鄰","STREET":"富強路","SECT":"一段","MAREA":" ","LANE":"９８巷","ALLEY":" ","HOUSE_NO":"１５號","E_COORD97":175552.64000000001,"N_COORD97":2546163.0299999998,"ADDRESS":"富強路一段９８巷１５號","OBJECTID":391860},"geometry":{"x":175552.6400000006,"y":2546163.0300000012}},{"attributes":{"ID":391885,"DIS_CODE":0,"TOWNNAME":"永康區","LI":"西勢里","LIN":"23鄰","STREET":"富強路","SECT":"一段","MAREA":" ","LANE":"１９４巷","ALLEY":" ","HOUSE_NO":"８６號","E_COORD97":175686.14999999999,"N_COORD97":2546166.0499999998,"ADDRESS":"富強路一段１９４巷８６號","OBJECTID":391861},"geometry":{"x":175686.15000000037,"y":2546166.0500000007}},{"attributes":{"ID":391886,"DIS_CODE":0,"TOWNNAME":"永康區","LI":"西勢里","LIN":"23鄰","STREET":"富強路","SECT":"一段","MAREA":" ","LANE":"９８巷","ALLEY":" ","HOUSE_NO":"１７號","E_COORD97":175556.12,"N_COORD97":2546159.5699999998,"ADDRESS":"富強路一段９８巷１７號","OBJECTID":391862},"geometry":{"x":175556.12000000197,"y":2546159.5700000003}},{"attributes":{"ID":391887,"DIS_CODE":0,"TOWNNAME":"永康區","LI":"西勢里","LIN":"23鄰","STREET":"富強路","SECT":"一段","MAREA":" ","LANE":"１９４巷","ALLEY":" ","HOUSE_NO":"１２號","E_COORD97":175642.51999999999,"N_COORD97":2546306.0800000001,"ADDRESS":"富強路一段１９４巷１２號","OBJECTID":391863},"geometry":{"x":175642.51999999955,"y":2546306.0800000019}},{"attributes":{"ID":391888,"DIS_CODE":0,"TOWNNAME":"永康區","LI":"安康里","LIN":"23鄰","STREET":"中華路","SECT":" ","MAREA":" ","LANE":"７０３巷","ALLEY":" ","HOUSE_NO":"６１號","E_COORD97":170760.54000000001,"N_COORD97":2546237.75,"ADDRESS":"中華路７０３巷６１號","OBJECTID":391864},"geometry":{"x":170760.54000000004,"y":2546237.7500000019}},{"attributes":{"ID":391889,"DIS_CODE":0,"TOWNNAME":"東區","LI":"和平里","LIN":"23鄰","STREET":"自由路","SECT":"二段","MAREA":" ","LANE":"１７５巷","ALLEY":" ","HOUSE_NO":"１５號","E_COORD97":171779.10000000001,"N_COORD97":2541593.8799999999,"ADDRESS":"自由路二段１７５巷１５號","OBJECTID":391865},"geometry":{"x":171779.10000000056,"y":2541593.8800000008}},{"attributes":{"ID":391890,"DIS_CODE":0,"TOWNNAME":"東區","LI":"崇德里","LIN":"23鄰","STREET":"崇德路","SECT":" ","MAREA":" ","LANE":"５３０巷","ALLEY":" ","HOUSE_NO":"４２號","E_COORD97":170674.51999999999,"N_COORD97":2541524.0899999999,"ADDRESS":"崇德路５３０巷４２號","OBJECTID":391866},"geometry":{"x":170674.52000000048,"y":2541524.0899999999}},{"attributes":{"ID":391891,"DIS_CODE":0,"TOWNNAME":"西港區","LI":"慶安里","LIN":"23鄰","STREET":"慶安路","SECT":" ","MAREA":" ","LANE":"３３巷","ALLEY":" ","HOUSE_NO":"１３號","E_COORD97":168325.79999999999,"N_COORD97":2557840.5899999999,"ADDRESS":"慶安路３３巷１３號","OBJECTID":391867},"geometry":{"x":168325.79999999981,"y":2557840.5900000017}},{"attributes":{"ID":391892,"DIS_CODE":0,"TOWNNAME":"西港區","LI":"慶安里","LIN":"23鄰","STREET":"慶安路","SECT":" ","MAREA":" ","LANE":"３３巷","ALLEY":" ","HOUSE_NO":"１５號","E_COORD97":168326.17999999999,"N_COORD97":2557836.5299999998,"ADDRESS":"慶安路３３巷１５號","OBJECTID":391868},"geometry":{"x":168326.18000000063,"y":2557836.5300000012}},{"attributes":{"ID":391893,"DIS_CODE":0,"TOWNNAME":"西港區","LI":"慶安里","LIN":"23鄰","STREET":"慶安路","SECT":" ","MAREA":" ","LANE":"３３巷","ALLEY":" ","HOUSE_NO":"１７號","E_COORD97":168325.89000000001,"N_COORD97":2557832.6099999999,"ADDRESS":"慶安路３３巷１７號","OBJECTID":391869},"geometry":{"x":168325.8900000006,"y":2557832.6100000013}},{"attributes":{"ID":391894,"DIS_CODE":0,"TOWNNAME":"西港區","LI":"慶安里","LIN":"23鄰","STREET":"慶安路","SECT":" ","MAREA":" ","LANE":"３３巷","ALLEY":" ","HOUSE_NO":"１９號","E_COORD97":168326.17999999999,"N_COORD97":2557828.52,"ADDRESS":"慶安路３３巷１９號","OBJECTID":391870},"geometry":{"x":168326.18000000063,"y":2557828.5199999996}},{"attributes":{"ID":391895,"DIS_CODE":0,"TOWNNAME":"西港區","LI":"慶安里","LIN":"23鄰","STREET":"慶安路","SECT":" ","MAREA":" ","LANE":"３３巷","ALLEY":" ","HOUSE_NO":"２１號","E_COORD97":168326.37,"N_COORD97":2557824.25,"ADDRESS":"慶安路３３巷２１號","OBJECTID":391871},"geometry":{"x":168326.37000000104,"y":2557824.25}},{"attributes":{"ID":391896,"DIS_CODE":0,"TOWNNAME":"仁德區","LI":"土庫里","LIN":"23鄰","STREET":"太子路","SECT":" ","MAREA":" ","LANE":"１９３巷","ALLEY":" ","HOUSE_NO":"６號","E_COORD97":174422.51000000001,"N_COORD97":2543479,"ADDRESS":"太子路１９３巷６號","OBJECTID":391872},"geometry":{"x":174422.51000000164,"y":2543479.0000000019}},{"attributes":{"ID":391897,"DIS_CODE":0,"TOWNNAME":"安南區","LI":"海東里","LIN":"23鄰","STREET":"同安路","SECT":" ","MAREA":" ","LANE":"１６７巷","ALLEY":" ","HOUSE_NO":"１號","E_COORD97":167066.23999999999,"N_COORD97":2549098.3599999999,"ADDRESS":"同安路１６７巷１號","OBJECTID":391873},"geometry":{"x":167066.24000000115,"y":2549098.3599999994}},{"attributes":{"ID":391898,"DIS_CODE":0,"TOWNNAME":"安南區","LI":"海東里","LIN":"23鄰","STREET":"同安路","SECT":" ","MAREA":" ","LANE":"１６７巷","ALLEY":" ","HOUSE_NO":"２１號","E_COORD97":167023.85999999999,"N_COORD97":2549135.5299999998,"ADDRESS":"同安路１６７巷２１號","OBJECTID":391874},"geometry":{"x":167023.86000000034,"y":2549135.5299999993}},{"attributes":{"ID":391899,"DIS_CODE":0,"TOWNNAME":"安南區","LI":"海東里","LIN":"23鄰","STREET":"同安路","SECT":" ","MAREA":" ","LANE":"１６７巷","ALLEY":" ","HOUSE_NO":"２３號","E_COORD97":167020.16,"N_COORD97":2549138.3500000001,"ADDRESS":"同安路１６７巷２３號","OBJECTID":391875},"geometry":{"x":167020.16000000015,"y":2549138.3500000015}},{"attributes":{"ID":391900,"DIS_CODE":0,"TOWNNAME":"安南區","LI":"海東里","LIN":"23鄰","STREET":"同安路","SECT":" ","MAREA":" ","LANE":"１６７巷","ALLEY":" ","HOUSE_NO":"２５號","E_COORD97":167006.85000000001,"N_COORD97":2549149.54,"ADDRESS":"同安路１６７巷２５號","OBJECTID":391876},"geometry":{"x":167006.8499999987,"y":2549149.5400000028}},{"attributes":{"ID":391901,"DIS_CODE":0,"TOWNNAME":"安南區","LI":"海東里","LIN":"23鄰","STREET":"同安路","SECT":" ","MAREA":" ","LANE":"１６７巷","ALLEY":" ","HOUSE_NO":"２７號","E_COORD97":167002.76999999999,"N_COORD97":2549152.3900000001,"ADDRESS":"同安路１６７巷２７號","OBJECTID":391877},"geometry":{"x":167002.77000000048,"y":2549152.3900000025}},{"attributes":{"ID":391902,"DIS_CODE":0,"TOWNNAME":"安南區","LI":"海東里","LIN":"23鄰","STREET":"同安路","SECT":" ","MAREA":" ","LANE":"１６７巷","ALLEY":" ","HOUSE_NO":"２９號","E_COORD97":166999.60999999999,"N_COORD97":2549155.4700000002,"ADDRESS":"同安路１６７巷２９號","OBJECTID":391878},"geometry":{"x":166999.61000000127,"y":2549155.4700000025}},{"attributes":{"ID":391903,"DIS_CODE":0,"TOWNNAME":"安南區","LI":"海東里","LIN":"23鄰","STREET":"同安路","SECT":" ","MAREA":" ","LANE":"１６７巷","ALLEY":" ","HOUSE_NO":"３１號","E_COORD97":166996.14000000001,"N_COORD97":2549158.7000000002,"ADDRESS":"同安路１６７巷３１號","OBJECTID":391879},"geometry":{"x":166996.13999999966,"y":2549158.700000003}},{"attributes":{"ID":391904,"DIS_CODE":0,"TOWNNAME":"安南區","LI":"海東里","LIN":"23鄰","STREET":"同安路","SECT":" ","MAREA":" ","LANE":"１６７巷","ALLEY":" ","HOUSE_NO":"３５號","E_COORD97":166987.82999999999,"N_COORD97":2549163.3199999998,"ADDRESS":"同安路１６７巷３５號","OBJECTID":391880},"geometry":{"x":166987.83000000101,"y":2549163.3200000022}},{"attributes":{"ID":391905,"DIS_CODE":0,"TOWNNAME":"安南區","LI":"海東里","LIN":"23鄰","STREET":"同安路","SECT":" ","MAREA":" ","LANE":"１６７巷","ALLEY":" ","HOUSE_NO":"３７號","E_COORD97":166984.23000000001,"N_COORD97":2549166.7400000002,"ADDRESS":"同安路１６７巷３７號","OBJECTID":391881},"geometry":{"x":166984.23000000045,"y":2549166.7400000021}},{"attributes":{"ID":391906,"DIS_CODE":0,"TOWNNAME":"安南區","LI":"海東里","LIN":"23鄰","STREET":"同安路","SECT":" ","MAREA":" ","LANE":"１６７巷","ALLEY":" ","HOUSE_NO":"３號","E_COORD97":167063.04999999999,"N_COORD97":2549101.9100000001,"ADDRESS":"同安路１６７巷３號","OBJECTID":391882},"geometry":{"x":167063.04999999981,"y":2549101.910000002}},{"attributes":{"ID":391907,"DIS_CODE":0,"TOWNNAME":"安南區","LI":"海東里","LIN":"23鄰","STREET":"同安路","SECT":" ","MAREA":" ","LANE":"１６７巷","ALLEY":" ","HOUSE_NO":"５號","E_COORD97":167058.04000000001,"N_COORD97":2549104.98,"ADDRESS":"同安路１６７巷５號","OBJECTID":391883},"geometry":{"x":167058.04000000004,"y":2549104.9800000023}},{"attributes":{"ID":391908,"DIS_CODE":0,"TOWNNAME":"安南區","LI":"海東里","LIN":"23鄰","STREET":"同安路","SECT":" ","MAREA":" ","LANE":"１６７巷","ALLEY":" ","HOUSE_NO":"９號","E_COORD97":167046.07000000001,"N_COORD97":2549118.5499999998,"ADDRESS":"同安路１６７巷９號","OBJECTID":391884},"geometry":{"x":167046.0700000003,"y":2549118.5500000026}},{"attributes":{"ID":391909,"DIS_CODE":0,"TOWNNAME":"南區","LI":"新興里","LIN":"23鄰","STREET":"五妃街","SECT":" ","MAREA":" ","LANE":"４４３巷","ALLEY":" ","HOUSE_NO":"３３號","E_COORD97":167539.94,"N_COORD97":2542515.6600000001,"ADDRESS":"五妃街４４３巷３３號","OBJECTID":391885},"geometry":{"x":167539.94000000134,"y":2542515.660000002}},{"attributes":{"ID":391910,"DIS_CODE":0,"TOWNNAME":"善化區","LI":"南關里","LIN":"13鄰","STREET":"自由路","SECT":" ","MAREA":" ","LANE":" ","ALLEY":" ","HOUSE_NO":"２１１號","E_COORD97":176864.78,"N_COORD97":2558951.75,"ADDRESS":"自由路２１１號","OBJECTID":391886},"geometry":{"x":176864.78000000026,"y":2558951.7500000019}},{"attributes":{"ID":391911,"DIS_CODE":0,"TOWNNAME":"南區","LI":"新興里","LIN":"23鄰","STREET":"五妃街","SECT":" ","MAREA":" ","LANE":"４４３巷","ALLEY":" ","HOUSE_NO":"３５號","E_COORD97":167544.23000000001,"N_COORD97":2542512.52,"ADDRESS":"五妃街４４３巷３５號","OBJECTID":391887},"geometry":{"x":167544.22999999952,"y":2542512.5200000014}},{"attributes":{"ID":391912,"DIS_CODE":0,"TOWNNAME":"南區","LI":"新興里","LIN":"23鄰","STREET":"五妃街","SECT":" ","MAREA":" ","LANE":"４４３巷","ALLEY":" ","HOUSE_NO":"３７號","E_COORD97":167548.81,"N_COORD97":2542511.1400000001,"ADDRESS":"五妃街４４３巷３７號","OBJECTID":391888},"geometry":{"x":167548.80999999959,"y":2542511.1400000006}},{"attributes":{"ID":391913,"DIS_CODE":0,"TOWNNAME":"南區","LI":"新興里","LIN":"23鄰","STREET":"五妃街","SECT":" ","MAREA":" ","LANE":"４４３巷","ALLEY":" ","HOUSE_NO":"３９號","E_COORD97":167553.87,"N_COORD97":2542511.5,"ADDRESS":"五妃街４４３巷３９號","OBJECTID":391889},"geometry":{"x":167553.87000000104,"y":2542511.5}},{"attributes":{"ID":391914,"DIS_CODE":0,"TOWNNAME":"南區","LI":"新興里","LIN":"23鄰","STREET":"五妃街","SECT":" ","MAREA":" ","LANE":"４４３巷","ALLEY":" ","HOUSE_NO":"４１號","E_COORD97":167557.76999999999,"N_COORD97":2542509.48,"ADDRESS":"五妃街４４３巷４１號","OBJECTID":391890},"geometry":{"x":167557.76999999955,"y":2542509.4800000042}},{"attributes":{"ID":391915,"DIS_CODE":0,"TOWNNAME":"南區","LI":"新興里","LIN":"23鄰","STREET":"五妃街","SECT":" ","MAREA":" ","LANE":"４４３巷","ALLEY":" ","HOUSE_NO":"４３號","E_COORD97":167562.20000000001,"N_COORD97":2542508.1000000001,"ADDRESS":"五妃街４４３巷４３號","OBJECTID":391891},"geometry":{"x":167562.20000000019,"y":2542508.1000000015}},{"attributes":{"ID":391916,"DIS_CODE":0,"TOWNNAME":"南區","LI":"新興里","LIN":"23鄰","STREET":"五妃街","SECT":" ","MAREA":" ","LANE":"４４３巷","ALLEY":" ","HOUSE_NO":"４５號","E_COORD97":167566.64999999999,"N_COORD97":2542506.71,"ADDRESS":"五妃街４４３巷４５號","OBJECTID":391892},"geometry":{"x":167566.65000000037,"y":2542506.7100000009}},{"attributes":{"ID":391917,"DIS_CODE":0,"TOWNNAME":"南區","LI":"新興里","LIN":"23鄰","STREET":"五妃街","SECT":" ","MAREA":" ","LANE":"４４３巷","ALLEY":" ","HOUSE_NO":"４７號","E_COORD97":167570.45999999999,"N_COORD97":2542503.4199999999,"ADDRESS":"五妃街４４３巷４７號","OBJECTID":391893},"geometry":{"x":167570.45999999996,"y":2542503.4200000018}},{"attributes":{"ID":391918,"DIS_CODE":0,"TOWNNAME":"南區","LI":"新興里","LIN":"23鄰","STREET":"五妃街","SECT":" ","MAREA":" ","LANE":"４４３巷","ALLEY":" ","HOUSE_NO":"４９號","E_COORD97":167577.79999999999,"N_COORD97":2542504.4900000002,"ADDRESS":"五妃街４４３巷４９號","OBJECTID":391894},"geometry":{"x":167577.80000000075,"y":2542504.4900000002}},{"attributes":{"ID":391919,"DIS_CODE":0,"TOWNNAME":"南區","LI":"新興里","LIN":"23鄰","STREET":"五妃街","SECT":" ","MAREA":" ","LANE":"４４３巷","ALLEY":" ","HOUSE_NO":"５１號","E_COORD97":167570.29000000001,"N_COORD97":2542490.8199999998,"ADDRESS":"五妃街４４３巷５１號","OBJECTID":391895},"geometry":{"x":167570.29000000004,"y":2542490.8200000022}},{"attributes":{"ID":391920,"DIS_CODE":0,"TOWNNAME":"南區","LI":"新興里","LIN":"23鄰","STREET":"五妃街","SECT":" ","MAREA":" ","LANE":"４４３巷","ALLEY":" ","HOUSE_NO":"５３號","E_COORD97":167566.01000000001,"N_COORD97":2542491.9300000002,"ADDRESS":"五妃街４４３巷５３號","OBJECTID":391896},"geometry":{"x":167566.01000000071,"y":2542491.9300000034}},{"attributes":{"ID":391921,"DIS_CODE":0,"TOWNNAME":"南區","LI":"新興里","LIN":"23鄰","STREET":"五妃街","SECT":" ","MAREA":" ","LANE":"４４３巷","ALLEY":" ","HOUSE_NO":"５５號","E_COORD97":167561.70000000001,"N_COORD97":2542491.8599999999,"ADDRESS":"五妃街４４３巷５５號","OBJECTID":391897},"geometry":{"x":167561.70000000112,"y":2542491.8599999975}},{"attributes":{"ID":391922,"DIS_CODE":0,"TOWNNAME":"南區","LI":"新興里","LIN":"23鄰","STREET":"五妃街","SECT":" ","MAREA":" ","LANE":"４４３巷","ALLEY":" ","HOUSE_NO":"５７號","E_COORD97":167557.32999999999,"N_COORD97":2542493.5099999998,"ADDRESS":"五妃街４４３巷５７號","OBJECTID":391898},"geometry":{"x":167557.33000000101,"y":2542493.5099999998}},{"attributes":{"ID":391923,"DIS_CODE":0,"TOWNNAME":"南區","LI":"新興里","LIN":"23鄰","STREET":"五妃街","SECT":" ","MAREA":" ","LANE":"４４３巷","ALLEY":" ","HOUSE_NO":"５９號","E_COORD97":167552.97,"N_COORD97":2542495.1499999999,"ADDRESS":"五妃街４４３巷５９號","OBJECTID":391899},"geometry":{"x":167552.96999999974,"y":2542495.1500000022}},{"attributes":{"ID":391924,"DIS_CODE":0,"TOWNNAME":"南區","LI":"新興里","LIN":"23鄰","STREET":"五妃街","SECT":" ","MAREA":" ","LANE":"４４３巷","ALLEY":" ","HOUSE_NO":"６１號","E_COORD97":167548.35999999999,"N_COORD97":2542497.8900000001,"ADDRESS":"五妃街４４３巷６１號","OBJECTID":391900},"geometry":{"x":167548.3600000022,"y":2542497.8900000025}},{"attributes":{"ID":391925,"DIS_CODE":0,"TOWNNAME":"南區","LI":"新興里","LIN":"23鄰","STREET":"五妃街","SECT":" ","MAREA":" ","LANE":"４４３巷","ALLEY":" ","HOUSE_NO":"６３號","E_COORD97":167542.95999999999,"N_COORD97":2542497.5899999999,"ADDRESS":"五妃街４４３巷６３號","OBJECTID":391901},"geometry":{"x":167542.96000000089,"y":2542497.589999998}},{"attributes":{"ID":391926,"DIS_CODE":0,"TOWNNAME":"南區","LI":"新興里","LIN":"23鄰","STREET":"五妃街","SECT":" ","MAREA":" ","LANE":"４４３巷","ALLEY":" ","HOUSE_NO":"６５號","E_COORD97":167537.09,"N_COORD97":2542502.1499999999,"ADDRESS":"五妃街４４３巷６５號","OBJECTID":391902},"geometry":{"x":167537.08999999985,"y":2542502.1500000022}},{"attributes":{"ID":391927,"DIS_CODE":0,"TOWNNAME":"東區","LI":"小東里","LIN":"23鄰","STREET":"光明街","SECT":" ","MAREA":" ","LANE":"２０１巷","ALLEY":" ","HOUSE_NO":"１１號","E_COORD97":170977.91,"N_COORD97":2544063.1499999999,"ADDRESS":"光明街２０１巷１１號","OBJECTID":391903},"geometry":{"x":170977.91000000108,"y":2544063.1500000004}},{"attributes":{"ID":391928,"DIS_CODE":0,"TOWNNAME":"東區","LI":"小東里","LIN":"23鄰","STREET":"光明街","SECT":" ","MAREA":" ","LANE":"２０１巷","ALLEY":" ","HOUSE_NO":"１３號","E_COORD97":170983.35000000001,"N_COORD97":2544062.6299999999,"ADDRESS":"光明街２０１巷１３號","OBJECTID":391904},"geometry":{"x":170983.34999999963,"y":2544062.629999999}},{"attributes":{"ID":391929,"DIS_CODE":0,"TOWNNAME":"東區","LI":"小東里","LIN":"23鄰","STREET":"光明街","SECT":" ","MAREA":" ","LANE":"２０１巷","ALLEY":" ","HOUSE_NO":"１５號","E_COORD97":170988.78,"N_COORD97":2544061.3399999999,"ADDRESS":"光明街２０１巷１５號","OBJECTID":391905},"geometry":{"x":170988.78000000119,"y":2544061.3399999999}},{"attributes":{"ID":391930,"DIS_CODE":0,"TOWNNAME":"東區","LI":"小東里","LIN":"23鄰","STREET":"光明街","SECT":" ","MAREA":" ","LANE":"２０１巷","ALLEY":" ","HOUSE_NO":"１９號","E_COORD97":170999.14000000001,"N_COORD97":2544057.98,"ADDRESS":"光明街２０１巷１９號","OBJECTID":391906},"geometry":{"x":170999.1400000006,"y":2544057.9800000004}},{"attributes":{"ID":391931,"DIS_CODE":0,"TOWNNAME":"東區","LI":"小東里","LIN":"23鄰","STREET":"光明街","SECT":" ","MAREA":" ","LANE":"２０１巷","ALLEY":" ","HOUSE_NO":"２１號","E_COORD97":171004.57999999999,"N_COORD97":2544057.7200000002,"ADDRESS":"光明街２０１巷２１號","OBJECTID":391907},"geometry":{"x":171004.58000000007,"y":2544057.7200000025}},{"attributes":{"ID":391932,"DIS_CODE":0,"TOWNNAME":"安南區","LI":"幸福里","LIN":"23鄰","STREET":"府安路","SECT":"六段","MAREA":" ","LANE":"７巷","ALLEY":" ","HOUSE_NO":"４７號","E_COORD97":167124.73000000001,"N_COORD97":2546839.46,"ADDRESS":"府安路六段７巷４７號","OBJECTID":391908},"geometry":{"x":167124.73000000138,"y":2546839.4600000046}},{"attributes":{"ID":391933,"DIS_CODE":0,"TOWNNAME":"安南區","LI":"幸福里","LIN":"23鄰","STREET":"府安路","SECT":"六段","MAREA":" ","LANE":"７巷","ALLEY":" ","HOUSE_NO":"４８號","E_COORD97":167138.47,"N_COORD97":2546842.8700000001,"ADDRESS":"府安路六段７巷４８號","OBJECTID":391909},"geometry":{"x":167138.4700000016,"y":2546842.870000001}},{"attributes":{"ID":391934,"DIS_CODE":0,"TOWNNAME":"安南區","LI":"幸福里","LIN":"23鄰","STREET":"府安路","SECT":"六段","MAREA":" ","LANE":"７巷","ALLEY":" ","HOUSE_NO":"４９號","E_COORD97":167121.69,"N_COORD97":2546853.0600000001,"ADDRESS":"府安路六段７巷４９號","OBJECTID":391910},"geometry":{"x":167121.69000000041,"y":2546853.0600000024}},{"attributes":{"ID":391935,"DIS_CODE":0,"TOWNNAME":"安南區","LI":"幸福里","LIN":"23鄰","STREET":"府安路","SECT":"六段","MAREA":" ","LANE":"７巷","ALLEY":" ","HOUSE_NO":"５１號","E_COORD97":167115.12,"N_COORD97":2546850.9199999999,"ADDRESS":"府安路六段７巷５１號","OBJECTID":391911},"geometry":{"x":167115.12000000011,"y":2546850.9199999999}},{"attributes":{"ID":391936,"DIS_CODE":0,"TOWNNAME":"安南區","LI":"幸福里","LIN":"23鄰","STREET":"府安路","SECT":"六段","MAREA":" ","LANE":"７巷","ALLEY":" ","HOUSE_NO":"５２號","E_COORD97":167141.97,"N_COORD97":2546859.9100000001,"ADDRESS":"府安路六段７巷５２號","OBJECTID":391912},"geometry":{"x":167141.9700000016,"y":2546859.910000002}},{"attributes":{"ID":391937,"DIS_CODE":0,"TOWNNAME":"安南區","LI":"幸福里","LIN":"23鄰","STREET":"府安路","SECT":"六段","MAREA":" ","LANE":"７巷","ALLEY":" ","HOUSE_NO":"５３號","E_COORD97":167108.70000000001,"N_COORD97":2546852.77,"ADDRESS":"府安路六段７巷５３號","OBJECTID":391913},"geometry":{"x":167108.70000000205,"y":2546852.7699999977}},{"attributes":{"ID":391938,"DIS_CODE":0,"TOWNNAME":"安南區","LI":"幸福里","LIN":"23鄰","STREET":"府安路","SECT":"六段","MAREA":" ","LANE":"７巷","ALLEY":" ","HOUSE_NO":"５４號","E_COORD97":167148.39999999999,"N_COORD97":2546858.9100000001,"ADDRESS":"府安路六段７巷５４號","OBJECTID":391914},"geometry":{"x":167148.4000000013,"y":2546858.9100000001}},{"attributes":{"ID":391939,"DIS_CODE":0,"TOWNNAME":"安南區","LI":"幸福里","LIN":"23鄰","STREET":"府安路","SECT":"六段","MAREA":" ","LANE":"７巷","ALLEY":" ","HOUSE_NO":"５５號","E_COORD97":167102.70000000001,"N_COORD97":2546848.6400000001,"ADDRESS":"府安路六段７巷５５號","OBJECTID":391915},"geometry":{"x":167102.70000000019,"y":2546848.6400000025}},{"attributes":{"ID":391940,"DIS_CODE":0,"TOWNNAME":"安南區","LI":"幸福里","LIN":"23鄰","STREET":"府安路","SECT":"六段","MAREA":" ","LANE":"７巷","ALLEY":" ","HOUSE_NO":"５６號","E_COORD97":167155.26000000001,"N_COORD97":2546859.48,"ADDRESS":"府安路六段７巷５６號","OBJECTID":391916},"geometry":{"x":167155.26000000164,"y":2546859.4800000042}},{"attributes":{"ID":391941,"DIS_CODE":0,"TOWNNAME":"安南區","LI":"幸福里","LIN":"23鄰","STREET":"府安路","SECT":"六段","MAREA":" ","LANE":"７巷","ALLEY":" ","HOUSE_NO":"５７號","E_COORD97":167097.67999999999,"N_COORD97":2546874.2599999998,"ADDRESS":"府安路六段７巷５７號","OBJECTID":391917},"geometry":{"x":167097.6799999997,"y":2546874.2600000016}},{"attributes":{"ID":391942,"DIS_CODE":0,"TOWNNAME":"安南區","LI":"幸福里","LIN":"23鄰","STREET":"府安路","SECT":"六段","MAREA":" ","LANE":"７巷","ALLEY":" ","HOUSE_NO":"５８號","E_COORD97":167150.81,"N_COORD97":2546882.1099999999,"ADDRESS":"府安路六段７巷５８號","OBJECTID":391918},"geometry":{"x":167150.80999999959,"y":2546882.1100000013}},{"attributes":{"ID":391943,"DIS_CODE":0,"TOWNNAME":"安南區","LI":"幸福里","LIN":"23鄰","STREET":"府安路","SECT":"六段","MAREA":" ","LANE":"７巷","ALLEY":" ","HOUSE_NO":"５９號","E_COORD97":167104.54000000001,"N_COORD97":2546872.4100000001,"ADDRESS":"府安路六段７巷５９號","OBJECTID":391919},"geometry":{"x":167104.5400000019,"y":2546872.4100000001}},{"attributes":{"ID":391944,"DIS_CODE":0,"TOWNNAME":"安南區","LI":"幸福里","LIN":"23鄰","STREET":"府安路","SECT":"六段","MAREA":" ","LANE":"７巷","ALLEY":" ","HOUSE_NO":"６０號","E_COORD97":167143.67000000001,"N_COORD97":2546883.25,"ADDRESS":"府安路六段７巷６０號","OBJECTID":391920},"geometry":{"x":167143.66999999993,"y":2546883.25}},{"attributes":{"ID":391945,"DIS_CODE":0,"TOWNNAME":"永康區","LI":"復國里","LIN":"29鄰","STREET":"復華二街","SECT":" ","MAREA":" ","LANE":"３３巷","ALLEY":" ","HOUSE_NO":"１號","E_COORD97":172554.53,"N_COORD97":2545331.52,"ADDRESS":"復華二街３３巷１號","OBJECTID":391921},"geometry":{"x":172554.53000000026,"y":2545331.5199999996}},{"attributes":{"ID":391946,"DIS_CODE":0,"TOWNNAME":"安南區","LI":"幸福里","LIN":"23鄰","STREET":"府安路","SECT":"六段","MAREA":" ","LANE":"７巷","ALLEY":" ","HOUSE_NO":"６１號","E_COORD97":167110.25,"N_COORD97":2546877.1099999999,"ADDRESS":"府安路六段７巷６１號","OBJECTID":391922},"geometry":{"x":167110.25000000093,"y":2546877.1099999994}},{"attributes":{"ID":391947,"DIS_CODE":0,"TOWNNAME":"永康區","LI":"網寮里","LIN":"21鄰","STREET":"文化路","SECT":" ","MAREA":" ","LANE":"２４２巷","ALLEY":" ","HOUSE_NO":"９號","E_COORD97":173557.75,"N_COORD97":2546157.7200000002,"ADDRESS":"文化路２４２巷９號","OBJECTID":391923},"geometry":{"x":173557.75,"y":2546157.7200000007}},{"attributes":{"ID":391948,"DIS_CODE":0,"TOWNNAME":"安南區","LI":"幸福里","LIN":"23鄰","STREET":"府安路","SECT":"六段","MAREA":" ","LANE":"７巷","ALLEY":" ","HOUSE_NO":"６２號","E_COORD97":167137.67000000001,"N_COORD97":2546879.6800000002,"ADDRESS":"府安路六段７巷６２號","OBJECTID":391924},"geometry":{"x":167137.67000000086,"y":2546879.6799999997}},{"attributes":{"ID":391949,"DIS_CODE":0,"TOWNNAME":"安南區","LI":"幸福里","LIN":"23鄰","STREET":"府安路","SECT":"六段","MAREA":" ","LANE":"７巷","ALLEY":" ","HOUSE_NO":"６３號","E_COORD97":167116.67999999999,"N_COORD97":2546875.6899999999,"ADDRESS":"府安路六段７巷６３號","OBJECTID":391925},"geometry":{"x":167116.68000000156,"y":2546875.6899999995}},{"attributes":{"ID":391950,"DIS_CODE":0,"TOWNNAME":"安南區","LI":"幸福里","LIN":"23鄰","STREET":"府安路","SECT":"六段","MAREA":" ","LANE":"７巷","ALLEY":" ","HOUSE_NO":"６４號","E_COORD97":167130.67000000001,"N_COORD97":2546881.6800000002,"ADDRESS":"府安路六段７巷６４號","OBJECTID":391926},"geometry":{"x":167130.67000000179,"y":2546881.6800000016}},{"attributes":{"ID":391951,"DIS_CODE":0,"TOWNNAME":"安南區","LI":"幸福里","LIN":"23鄰","STREET":"府安路","SECT":"六段","MAREA":" ","LANE":"７巷","ALLEY":" ","HOUSE_NO":"６５號","E_COORD97":167113.95999999999,"N_COORD97":2546890.6699999999,"ADDRESS":"府安路六段７巷６５號","OBJECTID":391927},"geometry":{"x":167113.96000000089,"y":2546890.6699999999}},{"attributes":{"ID":391952,"DIS_CODE":0,"TOWNNAME":"安南區","LI":"幸福里","LIN":"23鄰","STREET":"府安路","SECT":"六段","MAREA":" ","LANE":"７巷","ALLEY":" ","HOUSE_NO":"６６號","E_COORD97":167128.23999999999,"N_COORD97":2546892.7999999998,"ADDRESS":"府安路六段７巷６６號","OBJECTID":391928},"geometry":{"x":167128.24000000022,"y":2546892.8000000026}},{"attributes":{"ID":391953,"DIS_CODE":0,"TOWNNAME":"安南區","LI":"幸福里","LIN":"23鄰","STREET":"府安路","SECT":"六段","MAREA":" ","LANE":"７巷","ALLEY":" ","HOUSE_NO":"６７號","E_COORD97":167107.82000000001,"N_COORD97":2546888.1000000001,"ADDRESS":"府安路六段７巷６７號","OBJECTID":391929},"geometry":{"x":167107.82000000216,"y":2546888.1000000034}},{"attributes":{"ID":391954,"DIS_CODE":0,"TOWNNAME":"安南區","LI":"幸福里","LIN":"23鄰","STREET":"府安路","SECT":"六段","MAREA":" ","LANE":"７巷","ALLEY":" ","HOUSE_NO":"６８號","E_COORD97":167135.39000000001,"N_COORD97":2546890.2400000002,"ADDRESS":"府安路六段７巷６８號","OBJECTID":391930},"geometry":{"x":167135.38999999966,"y":2546890.2400000002}},{"attributes":{"ID":391955,"DIS_CODE":0,"TOWNNAME":"安南區","LI":"幸福里","LIN":"23鄰","STREET":"府安路","SECT":"六段","MAREA":" ","LANE":"７巷","ALLEY":" ","HOUSE_NO":"６９號","E_COORD97":167101.82000000001,"N_COORD97":2546885.1000000001,"ADDRESS":"府安路六段７巷６９號","OBJECTID":391931},"geometry":{"x":167101.82000000123,"y":2546885.1000000015}},{"attributes":{"ID":391956,"DIS_CODE":0,"TOWNNAME":"安南區","LI":"幸福里","LIN":"23鄰","STREET":"府安路","SECT":"六段","MAREA":" ","LANE":"７巷","ALLEY":" ","HOUSE_NO":"７０號","E_COORD97":167141.53,"N_COORD97":2546893.7999999998,"ADDRESS":"府安路六段７巷７０號","OBJECTID":391932},"geometry":{"x":167141.53000000026,"y":2546893.8000000007}},{"attributes":{"ID":391957,"DIS_CODE":0,"TOWNNAME":"安南區","LI":"幸福里","LIN":"23鄰","STREET":"府安路","SECT":"六段","MAREA":" ","LANE":"７巷","ALLEY":" ","HOUSE_NO":"７１號","E_COORD97":167094.39999999999,"N_COORD97":2546887.5299999998,"ADDRESS":"府安路六段７巷７１號","OBJECTID":391933},"geometry":{"x":167094.4000000013,"y":2546887.5299999993}},{"attributes":{"ID":391958,"DIS_CODE":0,"TOWNNAME":"安南區","LI":"幸福里","LIN":"23鄰","STREET":"府安路","SECT":"六段","MAREA":" ","LANE":"７巷","ALLEY":" ","HOUSE_NO":"７２號","E_COORD97":167147.95000000001,"N_COORD97":2546897.3700000001,"ADDRESS":"府安路六段７巷７２號","OBJECTID":391934},"geometry":{"x":167147.95000000112,"y":2546897.370000001}},{"attributes":{"ID":391959,"DIS_CODE":0,"TOWNNAME":"安南區","LI":"幸福里","LIN":"23鄰","STREET":"府安路","SECT":"六段","MAREA":" ","LANE":"７巷","ALLEY":" ","HOUSE_NO":"７３號","E_COORD97":167090.79999999999,"N_COORD97":2546906.5800000001,"ADDRESS":"府安路六段７巷７３號","OBJECTID":391935},"geometry":{"x":167090.80000000075,"y":2546906.5800000019}},{"attributes":{"ID":391960,"DIS_CODE":0,"TOWNNAME":"安南區","LI":"幸福里","LIN":"23鄰","STREET":"府安路","SECT":"六段","MAREA":" ","LANE":"７巷","ALLEY":" ","HOUSE_NO":"７４號","E_COORD97":167143.19,"N_COORD97":2546918.9700000002,"ADDRESS":"府安路六段７巷７４號","OBJECTID":391936},"geometry":{"x":167143.19000000134,"y":2546918.9700000007}},{"attributes":{"ID":391961,"DIS_CODE":0,"TOWNNAME":"安南區","LI":"幸福里","LIN":"23鄰","STREET":"府安路","SECT":"六段","MAREA":" ","LANE":"７巷","ALLEY":" ","HOUSE_NO":"７５號","E_COORD97":167097,"N_COORD97":2546909.6299999999,"ADDRESS":"府安路六段７巷７５號","OBJECTID":391937},"geometry":{"x":167097.00000000093,"y":2546909.629999999}},{"attributes":{"ID":391962,"DIS_CODE":0,"TOWNNAME":"安南區","LI":"幸福里","LIN":"23鄰","STREET":"府安路","SECT":"六段","MAREA":" ","LANE":"７巷","ALLEY":" ","HOUSE_NO":"７８號","E_COORD97":167131.17999999999,"N_COORD97":2546913.5699999998,"ADDRESS":"府安路六段７巷７８號","OBJECTID":391938},"geometry":{"x":167131.1799999997,"y":2546913.5700000022}},{"attributes":{"ID":391963,"DIS_CODE":0,"TOWNNAME":"安南區","LI":"幸福里","LIN":"23鄰","STREET":"府安路","SECT":"六段","MAREA":" ","LANE":"７巷","ALLEY":" ","HOUSE_NO":"７９號","E_COORD97":167110.09,"N_COORD97":2546911.1099999999,"ADDRESS":"府安路六段７巷７９號","OBJECTID":391939},"geometry":{"x":167110.08999999985,"y":2546911.1099999994}},{"attributes":{"ID":391964,"DIS_CODE":0,"TOWNNAME":"安南區","LI":"幸福里","LIN":"23鄰","STREET":"府安路","SECT":"六段","MAREA":" ","LANE":"７巷","ALLEY":" ","HOUSE_NO":"８０號","E_COORD97":167123.89999999999,"N_COORD97":2546915.1400000001,"ADDRESS":"府安路六段７巷８０號","OBJECTID":391940},"geometry":{"x":167123.90000000037,"y":2546915.1400000006}},{"attributes":{"ID":391965,"DIS_CODE":0,"TOWNNAME":"安南區","LI":"幸福里","LIN":"23鄰","STREET":"府安路","SECT":"六段","MAREA":" ","LANE":"７巷","ALLEY":" ","HOUSE_NO":"４６號","E_COORD97":167144.12,"N_COORD97":2546847.5299999998,"ADDRESS":"府安路六段７巷４６號","OBJECTID":391941},"geometry":{"x":167144.12000000011,"y":2546847.5300000031}},{"attributes":{"ID":391966,"DIS_CODE":0,"TOWNNAME":"安南區","LI":"溪墘里","LIN":"23鄰","STREET":"安寧街","SECT":" ","MAREA":" ","LANE":"９１巷","ALLEY":" ","HOUSE_NO":"４３號","E_COORD97":167260.14000000001,"N_COORD97":2547074.25,"ADDRESS":"安寧街９１巷４３號","OBJECTID":391942},"geometry":{"x":167260.1400000006,"y":2547074.2500000019}},{"attributes":{"ID":391967,"DIS_CODE":0,"TOWNNAME":"安南區","LI":"溪墘里","LIN":"23鄰","STREET":"安寧街","SECT":" ","MAREA":" ","LANE":"１０３巷","ALLEY":" ","HOUSE_NO":"３７號","E_COORD97":167270.07999999999,"N_COORD97":2547110.6000000001,"ADDRESS":"安寧街１０３巷３７號","OBJECTID":391943},"geometry":{"x":167270.08000000007,"y":2547110.5999999996}},{"attributes":{"ID":391968,"DIS_CODE":0,"TOWNNAME":"仁德區","LI":"大甲里","LIN":"23鄰","STREET":"中正西路","SECT":" ","MAREA":" ","LANE":"８７８巷","ALLEY":" ","HOUSE_NO":"５６０號","E_COORD97":168440.39000000001,"N_COORD97":2535982.5,"ADDRESS":"中正西路８７８巷５６０號","OBJECTID":391944},"geometry":{"x":168440.38999999966,"y":2535982.5000000037}},{"attributes":{"ID":391969,"DIS_CODE":0,"TOWNNAME":"仁德區","LI":"大甲里","LIN":"23鄰","STREET":"二仁路","SECT":"一段","MAREA":" ","LANE":"４９１巷","ALLEY":" ","HOUSE_NO":"２８７之１００號","E_COORD97":168919.91,"N_COORD97":2536188.54,"ADDRESS":"二仁路一段４９１巷２８７之１００號","OBJECTID":391945},"geometry":{"x":168919.91000000108,"y":2536188.540000001}},{"attributes":{"ID":391970,"DIS_CODE":0,"TOWNNAME":"仁德區","LI":"大甲里","LIN":"23鄰","STREET":"中正西路","SECT":" ","MAREA":" ","LANE":"１１９６巷","ALLEY":" ","HOUSE_NO":"１０００號","E_COORD97":169624.45999999999,"N_COORD97":2536372,"ADDRESS":"中正西路１１９６巷１０００號","OBJECTID":391946},"geometry":{"x":169624.46000000089,"y":2536371.9999999981}},{"attributes":{"ID":391971,"DIS_CODE":0,"TOWNNAME":"仁德區","LI":"大甲里","LIN":"23鄰","STREET":"行大街","SECT":" ","MAREA":" ","LANE":"４０２巷","ALLEY":" ","HOUSE_NO":"８３號","E_COORD97":169644.60000000001,"N_COORD97":2535252.5,"ADDRESS":"行大街４０２巷８３號","OBJECTID":391947},"geometry":{"x":169644.60000000149,"y":2535252.5}},{"attributes":{"ID":391972,"DIS_CODE":0,"TOWNNAME":"仁德區","LI":"土庫里","LIN":"23鄰","STREET":"太子二街","SECT":" ","MAREA":" ","LANE":"１２１巷","ALLEY":" ","HOUSE_NO":"１２號","E_COORD97":174478.69,"N_COORD97":2543358.75,"ADDRESS":"太子二街１２１巷１２號","OBJECTID":391948},"geometry":{"x":174478.69000000134,"y":2543358.7500000019}},{"attributes":{"ID":391973,"DIS_CODE":0,"TOWNNAME":"仁德區","LI":"大甲里","LIN":"23鄰","STREET":"二仁路","SECT":"一段","MAREA":" ","LANE":"３１５巷","ALLEY":" ","HOUSE_NO":"５６１號","E_COORD97":169164.45999999999,"N_COORD97":2535897.27,"ADDRESS":"二仁路一段３１５巷５６１號","OBJECTID":391949},"geometry":{"x":169164.45999999903,"y":2535897.2699999996}},{"attributes":{"ID":391974,"DIS_CODE":0,"TOWNNAME":"仁德區","LI":"大甲里","LIN":"23鄰","STREET":"中正西路","SECT":" ","MAREA":" ","LANE":"３６０巷","ALLEY":" ","HOUSE_NO":"１３０號","E_COORD97":169779.01000000001,"N_COORD97":2535743,"ADDRESS":"中正西路３６０巷１３０號","OBJECTID":391950},"geometry":{"x":169779.00999999978,"y":2535743.0000000019}},{"attributes":{"ID":391975,"DIS_CODE":0,"TOWNNAME":"仁德區","LI":"大甲里","LIN":"23鄰","STREET":"中正西路","SECT":" ","MAREA":" ","LANE":"１１９６巷","ALLEY":" ","HOUSE_NO":"８０號","E_COORD97":167947.57000000001,"N_COORD97":2536054.75,"ADDRESS":"中正西路１１９６巷８０號","OBJECTID":391951},"geometry":{"x":167947.57000000123,"y":2536054.75}},{"attributes":{"ID":391976,"DIS_CODE":0,"TOWNNAME":"仁德區","LI":"大甲里","LIN":"23鄰","STREET":"中正西路","SECT":" ","MAREA":" ","LANE":"３６０巷","ALLEY":" ","HOUSE_NO":"３０號","E_COORD97":169704.23000000001,"N_COORD97":2535509.9900000002,"ADDRESS":"中正西路３６０巷３０號","OBJECTID":391952},"geometry":{"x":169704.23000000138,"y":2535509.9900000002}},{"attributes":{"ID":391977,"DIS_CODE":0,"TOWNNAME":"仁德區","LI":"大甲里","LIN":"23鄰","STREET":"中正西路","SECT":" ","MAREA":" ","LANE":"１３９４巷","ALLEY":" ","HOUSE_NO":"５號","E_COORD97":167521.45000000001,"N_COORD97":2536353.2400000002,"ADDRESS":"中正西路１３９４巷５號","OBJECTID":391953},"geometry":{"x":167521.45000000019,"y":2536353.2400000002}},{"attributes":{"ID":391978,"DIS_CODE":0,"TOWNNAME":"仁德區","LI":"大甲里","LIN":"23鄰","STREET":"中正西路","SECT":" ","MAREA":" ","LANE":"６２５巷","ALLEY":" ","HOUSE_NO":"２３號","E_COORD97":169050.29999999999,"N_COORD97":2535549.5,"ADDRESS":"中正西路６２５巷２３號","OBJECTID":391954},"geometry":{"x":169050.30000000168,"y":2535549.5000000019}},{"attributes":{"ID":391979,"DIS_CODE":0,"TOWNNAME":"安南區","LI":"溪墘里","LIN":"23鄰","STREET":"安寧街","SECT":" ","MAREA":" ","LANE":"１０３巷","ALLEY":" ","HOUSE_NO":"１７號","E_COORD97":167323.73000000001,"N_COORD97":2547121.9300000002,"ADDRESS":"安寧街１０３巷１７號","OBJECTID":391955},"geometry":{"x":167323.73000000045,"y":2547121.9299999997}},{"attributes":{"ID":391980,"DIS_CODE":0,"TOWNNAME":"仁德區","LI":"大甲里","LIN":"23鄰","STREET":"二仁路","SECT":"一段","MAREA":" ","LANE":"４９１巷","ALLEY":" ","HOUSE_NO":"２８７之１號","E_COORD97":169182.92000000001,"N_COORD97":2536110.79,"ADDRESS":"二仁路一段４９１巷２８７之１號","OBJECTID":391956},"geometry":{"x":169182.91999999993,"y":2536110.7899999991}},{"attributes":{"ID":391981,"DIS_CODE":0,"TOWNNAME":"仁德區","LI":"大甲里","LIN":"23鄰","STREET":"行大街","SECT":" ","MAREA":" ","LANE":"４０２巷","ALLEY":" ","HOUSE_NO":"３０號","E_COORD97":169573.56,"N_COORD97":2535242.5,"ADDRESS":"行大街４０２巷３０號","OBJECTID":391957},"geometry":{"x":169573.55999999959,"y":2535242.5}},{"attributes":{"ID":391982,"DIS_CODE":0,"TOWNNAME":"東區","LI":"大智里","LIN":"23鄰","STREET":"德東街","SECT":" ","MAREA":" ","LANE":"１６２巷","ALLEY":" ","HOUSE_NO":"５１號","E_COORD97":171265.64999999999,"N_COORD97":2540108.77,"ADDRESS":"德東街１６２巷５１號","OBJECTID":391958},"geometry":{"x":171265.65000000224,"y":2540108.7699999996}},{"attributes":{"ID":391983,"DIS_CODE":0,"TOWNNAME":"東區","LI":"大智里","LIN":"23鄰","STREET":"德東街","SECT":" ","MAREA":" ","LANE":"１６２巷","ALLEY":" ","HOUSE_NO":"４９號","E_COORD97":171265.10999999999,"N_COORD97":2540113.8199999998,"ADDRESS":"德東街１６２巷４９號","OBJECTID":391959},"geometry":{"x":171265.11000000034,"y":2540113.8200000022}},{"attributes":{"ID":391984,"DIS_CODE":0,"TOWNNAME":"東區","LI":"大智里","LIN":"23鄰","STREET":"德東街","SECT":" ","MAREA":" ","LANE":"１６２巷","ALLEY":" ","HOUSE_NO":"４５號","E_COORD97":171264.39000000001,"N_COORD97":2540122.1099999999,"ADDRESS":"德東街１６２巷４５號","OBJECTID":391960},"geometry":{"x":171264.38999999966,"y":2540122.1100000013}},{"attributes":{"ID":391985,"DIS_CODE":0,"TOWNNAME":"東區","LI":"大智里","LIN":"23鄰","STREET":"德東街","SECT":" ","MAREA":" ","LANE":"１６２巷","ALLEY":" ","HOUSE_NO":"５７號","E_COORD97":171265.47,"N_COORD97":2540097.6000000001,"ADDRESS":"德東街１６２巷５７號","OBJECTID":391961},"geometry":{"x":171265.46999999974,"y":2540097.6000000015}},{"attributes":{"ID":391986,"DIS_CODE":0,"TOWNNAME":"東區","LI":"大智里","LIN":"23鄰","STREET":"德東街","SECT":" ","MAREA":" ","LANE":"１６２巷","ALLEY":" ","HOUSE_NO":"４３號","E_COORD97":171264.75,"N_COORD97":2540126.9700000002,"ADDRESS":"德東街１６２巷４３號","OBJECTID":391962},"geometry":{"x":171264.75000000186,"y":2540126.9700000025}},{"attributes":{"ID":391987,"DIS_CODE":0,"TOWNNAME":"東區","LI":"大智里","LIN":"23鄰","STREET":"德東街","SECT":" ","MAREA":" ","LANE":"１６２巷","ALLEY":" ","HOUSE_NO":"４１號","E_COORD97":171264.03,"N_COORD97":2540132.2000000002,"ADDRESS":"德東街１６２巷４１號","OBJECTID":391963},"geometry":{"x":171264.03000000026,"y":2540132.1999999993}},{"attributes":{"ID":391988,"DIS_CODE":0,"TOWNNAME":"東區","LI":"大智里","LIN":"23鄰","STREET":"德東街","SECT":" ","MAREA":" ","LANE":"１６２巷","ALLEY":" ","HOUSE_NO":"３９號","E_COORD97":171264.03,"N_COORD97":2540137.2400000002,"ADDRESS":"德東街１６２巷３９號","OBJECTID":391964},"geometry":{"x":171264.03000000026,"y":2540137.2399999984}},{"attributes":{"ID":391989,"DIS_CODE":0,"TOWNNAME":"東區","LI":"大智里","LIN":"23鄰","STREET":"德東街","SECT":" ","MAREA":" ","LANE":"１６２巷","ALLEY":" ","HOUSE_NO":"３７號","E_COORD97":171263.48999999999,"N_COORD97":2540142.29,"ADDRESS":"德東街１６２巷３７號","OBJECTID":391965},"geometry":{"x":171263.49000000115,"y":2540142.2899999991}},{"attributes":{"ID":391990,"DIS_CODE":0,"TOWNNAME":"東區","LI":"大智里","LIN":"23鄰","STREET":"德東街","SECT":" ","MAREA":" ","LANE":"１６２巷","ALLEY":" ","HOUSE_NO":"３５號","E_COORD97":171263.48999999999,"N_COORD97":2540146.6200000001,"ADDRESS":"德東街１６２巷３５號","OBJECTID":391966},"geometry":{"x":171263.49000000115,"y":2540146.6200000029}},{"attributes":{"ID":391991,"DIS_CODE":0,"TOWNNAME":"東區","LI":"大智里","LIN":"23鄰","STREET":"德東街","SECT":" ","MAREA":" ","LANE":"１６２巷","ALLEY":" ","HOUSE_NO":"３３號","E_COORD97":171263.48999999999,"N_COORD97":2540153.29,"ADDRESS":"德東街１６２巷３３號","OBJECTID":391967},"geometry":{"x":171263.49000000115,"y":2540153.290000001}},{"attributes":{"ID":391992,"DIS_CODE":0,"TOWNNAME":"東區","LI":"大智里","LIN":"23鄰","STREET":"德東街","SECT":" ","MAREA":" ","LANE":"１６２巷","ALLEY":" ","HOUSE_NO":"３１號","E_COORD97":171263.66,"N_COORD97":2540159.23,"ADDRESS":"德東街１６２巷３１號","OBJECTID":391968},"geometry":{"x":171263.66000000201,"y":2540159.2300000023}},{"attributes":{"ID":391993,"DIS_CODE":0,"TOWNNAME":"東區","LI":"大智里","LIN":"23鄰","STREET":"德東街","SECT":" ","MAREA":" ","LANE":"１６２巷","ALLEY":" ","HOUSE_NO":"２９號","E_COORD97":171263.31,"N_COORD97":2540164.2799999998,"ADDRESS":"德東街１６２巷２９號","OBJECTID":391969},"geometry":{"x":171263.30999999959,"y":2540164.2800000012}},{"attributes":{"ID":391994,"DIS_CODE":0,"TOWNNAME":"東區","LI":"大智里","LIN":"23鄰","STREET":"德東街","SECT":" ","MAREA":" ","LANE":"１６２巷","ALLEY":" ","HOUSE_NO":"２７號","E_COORD97":171263.31,"N_COORD97":2540169.5099999998,"ADDRESS":"德東街１６２巷２７號","OBJECTID":391970},"geometry":{"x":171263.30999999959,"y":2540169.5100000016}},{"attributes":{"ID":391995,"DIS_CODE":0,"TOWNNAME":"東區","LI":"大智里","LIN":"23鄰","STREET":"德東街","SECT":" ","MAREA":" ","LANE":"１６２巷","ALLEY":" ","HOUSE_NO":"５５號","E_COORD97":171265.29000000001,"N_COORD97":2540101.9199999999,"ADDRESS":"德東街１６２巷５５號","OBJECTID":391971},"geometry":{"x":171265.29000000004,"y":2540101.9200000037}},{"attributes":{"ID":391996,"DIS_CODE":0,"TOWNNAME":"東區","LI":"大智里","LIN":"23鄰","STREET":"德東街","SECT":" ","MAREA":" ","LANE":"１６２巷","ALLEY":" ","HOUSE_NO":"５３號","E_COORD97":171266.01000000001,"N_COORD97":2540105.8900000001,"ADDRESS":"德東街１６２巷５３號","OBJECTID":391972},"geometry":{"x":171266.01000000164,"y":2540105.8900000006}},{"attributes":{"ID":391997,"DIS_CODE":0,"TOWNNAME":"東區","LI":"大智里","LIN":"23鄰","STREET":"長東街","SECT":" ","MAREA":" ","LANE":"１４５巷","ALLEY":" ","HOUSE_NO":"７９號","E_COORD97":171267.98999999999,"N_COORD97":2540093.27,"ADDRESS":"長東街１４５巷７９號","OBJECTID":391973},"geometry":{"x":171267.99000000022,"y":2540093.2700000014}},{"attributes":{"ID":391998,"DIS_CODE":0,"TOWNNAME":"東區","LI":"大智里","LIN":"23鄰","STREET":"長東街","SECT":" ","MAREA":" ","LANE":"１４５巷","ALLEY":" ","HOUSE_NO":"８１號","E_COORD97":171275.92000000001,"N_COORD97":2540094.3500000001,"ADDRESS":"長東街１４５巷８１號","OBJECTID":391974},"geometry":{"x":171275.92000000086,"y":2540094.3499999996}},{"attributes":{"ID":391999,"DIS_CODE":0,"TOWNNAME":"東區","LI":"小東里","LIN":"23鄰","STREET":"光明街","SECT":" ","MAREA":" ","LANE":"２０１巷","ALLEY":" ","HOUSE_NO":"１７號","E_COORD97":170994.22,"N_COORD97":2544058.4900000002,"ADDRESS":"光明街２０１巷１７號","OBJECTID":391975},"geometry":{"x":170994.21999999974,"y":2544058.4900000039}},{"attributes":{"ID":392000,"DIS_CODE":0,"TOWNNAME":"東區","LI":"小東里","LIN":"23鄰","STREET":"光明街","SECT":" ","MAREA":" ","LANE":"２０１巷","ALLEY":" ","HOUSE_NO":"２號","E_COORD97":170943.98999999999,"N_COORD97":2544049.2599999998,"ADDRESS":"光明街２０１巷２號","OBJECTID":391976},"geometry":{"x":170943.99000000022,"y":2544049.2600000035}},{"attributes":{"ID":392001,"DIS_CODE":0,"TOWNNAME":"東區","LI":"小東里","LIN":"23鄰","STREET":"光明街","SECT":" ","MAREA":" ","LANE":"２０１巷","ALLEY":" ","HOUSE_NO":"１０號","E_COORD97":170963.67000000001,"N_COORD97":2544049.2599999998,"ADDRESS":"光明街２０１巷１０號","OBJECTID":391977},"geometry":{"x":170963.67000000086,"y":2544049.2600000035}},{"attributes":{"ID":392002,"DIS_CODE":0,"TOWNNAME":"東區","LI":"小東里","LIN":"23鄰","STREET":"光明街","SECT":" ","MAREA":" ","LANE":"２０１巷","ALLEY":" ","HOUSE_NO":"１２號","E_COORD97":170968.32999999999,"N_COORD97":2544048.23,"ADDRESS":"光明街２０１巷１２號","OBJECTID":391978},"geometry":{"x":170968.33000000101,"y":2544048.2300000023}},{"attributes":{"ID":392003,"DIS_CODE":0,"TOWNNAME":"東區","LI":"小東里","LIN":"23鄰","STREET":"光明街","SECT":" ","MAREA":" ","LANE":"２０１巷","ALLEY":" ","HOUSE_NO":"１４號","E_COORD97":170973.25,"N_COORD97":2544048.23,"ADDRESS":"光明街２０１巷１４號","OBJECTID":391979},"geometry":{"x":170973.25000000093,"y":2544048.2300000023}},{"attributes":{"ID":392004,"DIS_CODE":0,"TOWNNAME":"東區","LI":"小東里","LIN":"23鄰","STREET":"光明街","SECT":" ","MAREA":" ","LANE":"２０１巷","ALLEY":" ","HOUSE_NO":"１６號","E_COORD97":170978.17000000001,"N_COORD97":2544048.7400000002,"ADDRESS":"光明街２０１巷１６號","OBJECTID":391980},"geometry":{"x":170978.16999999993,"y":2544048.7400000002}},{"attributes":{"ID":392005,"DIS_CODE":0,"TOWNNAME":"東區","LI":"小東里","LIN":"23鄰","STREET":"光明街","SECT":" ","MAREA":" ","LANE":"２０１巷","ALLEY":" ","HOUSE_NO":"１８號","E_COORD97":170983.09,"N_COORD97":2544049,"ADDRESS":"光明街２０１巷１８號","OBJECTID":391981},"geometry":{"x":170983.09000000078,"y":2544049.0000000019}},{"attributes":{"ID":392006,"DIS_CODE":0,"TOWNNAME":"東區","LI":"小東里","LIN":"23鄰","STREET":"光明街","SECT":" ","MAREA":" ","LANE":"２０１巷","ALLEY":" ","HOUSE_NO":"１號","E_COORD97":170939.78,"N_COORD97":2544063.25,"ADDRESS":"光明街２０１巷１號","OBJECTID":391982},"geometry":{"x":170939.78000000119,"y":2544063.2500000037}},{"attributes":{"ID":392007,"DIS_CODE":0,"TOWNNAME":"東區","LI":"小東里","LIN":"23鄰","STREET":"光明街","SECT":" ","MAREA":" ","LANE":"２０１巷","ALLEY":" ","HOUSE_NO":"２０號","E_COORD97":170988.26999999999,"N_COORD97":2544049.2599999998,"ADDRESS":"光明街２０１巷２０號","OBJECTID":391983},"geometry":{"x":170988.27000000048,"y":2544049.2600000035}},{"attributes":{"ID":392008,"DIS_CODE":0,"TOWNNAME":"新化區","LI":"東榮里","LIN":"23鄰","STREET":"和平街","SECT":" ","MAREA":" ","LANE":"３１巷","ALLEY":" ","HOUSE_NO":"４１號","E_COORD97":179337.62,"N_COORD97":2548104.25,"ADDRESS":"和平街３１巷４１號","OBJECTID":391984},"geometry":{"x":179337.62000000011,"y":2548104.25}},{"attributes":{"ID":392009,"DIS_CODE":0,"TOWNNAME":"新化區","LI":"東榮里","LIN":"23鄰","STREET":"復興路","SECT":" ","MAREA":" ","LANE":"２０３巷","ALLEY":" ","HOUSE_NO":"２０號","E_COORD97":179356.45999999999,"N_COORD97":2548035.54,"ADDRESS":"復興路２０３巷２０號","OBJECTID":391985},"geometry":{"x":179356.46000000089,"y":2548035.540000001}},{"attributes":{"ID":392010,"DIS_CODE":0,"TOWNNAME":"安南區","LI":"溪墘里","LIN":"23鄰","STREET":"安寧街","SECT":" ","MAREA":" ","LANE":"９１巷","ALLEY":" ","HOUSE_NO":"５號","E_COORD97":167364,"N_COORD97":2547095.1400000001,"ADDRESS":"安寧街９１巷５號","OBJECTID":391986},"geometry":{"x":167364.00000000186,"y":2547095.1400000006}},{"attributes":{"ID":392011,"DIS_CODE":0,"TOWNNAME":"安南區","LI":"溪墘里","LIN":"23鄰","STREET":"安寧街","SECT":" ","MAREA":" ","LANE":"９１巷","ALLEY":" ","HOUSE_NO":"４５號","E_COORD97":167254.23999999999,"N_COORD97":2547074.25,"ADDRESS":"安寧街９１巷４５號","OBJECTID":391987},"geometry":{"x":167254.24000000209,"y":2547074.2500000019}},{"attributes":{"ID":392012,"DIS_CODE":0,"TOWNNAME":"安南區","LI":"溪墘里","LIN":"23鄰","STREET":"安寧街","SECT":" ","MAREA":" ","LANE":"９１巷","ALLEY":" ","HOUSE_NO":"４９號","E_COORD97":167243.95000000001,"N_COORD97":2547071.7999999998,"ADDRESS":"安寧街９１巷４９號","OBJECTID":391988},"geometry":{"x":167243.95000000019,"y":2547071.8000000026}},{"attributes":{"ID":392013,"DIS_CODE":0,"TOWNNAME":"安南區","LI":"溪墘里","LIN":"23鄰","STREET":"安寧街","SECT":" ","MAREA":" ","LANE":"１０３巷","ALLEY":" ","HOUSE_NO":"１９號","E_COORD97":167319.64999999999,"N_COORD97":2547121.3999999999,"ADDRESS":"安寧街１０３巷１９號","OBJECTID":391989},"geometry":{"x":167319.6500000013,"y":2547121.4000000022}},{"attributes":{"ID":392014,"DIS_CODE":0,"TOWNNAME":"安南區","LI":"溪墘里","LIN":"23鄰","STREET":"安寧街","SECT":" ","MAREA":" ","LANE":"１０３巷","ALLEY":" ","HOUSE_NO":"２１號","E_COORD97":167314.04000000001,"N_COORD97":2547120.2999999998,"ADDRESS":"安寧街１０３巷２１號","OBJECTID":391990},"geometry":{"x":167314.04000000004,"y":2547120.3000000007}},{"attributes":{"ID":392015,"DIS_CODE":0,"TOWNNAME":"安南區","LI":"溪墘里","LIN":"23鄰","STREET":"安寧街","SECT":" ","MAREA":" ","LANE":"１０３巷","ALLEY":" ","HOUSE_NO":"２３號","E_COORD97":167308.63,"N_COORD97":2547119.6299999999,"ADDRESS":"安寧街１０３巷２３號","OBJECTID":391991},"geometry":{"x":167308.62999999989,"y":2547119.629999999}},{"attributes":{"ID":392016,"DIS_CODE":0,"TOWNNAME":"安南區","LI":"溪墘里","LIN":"23鄰","STREET":"安寧街","SECT":" ","MAREA":" ","LANE":"１０３巷","ALLEY":" ","HOUSE_NO":"２５號","E_COORD97":167302.97,"N_COORD97":2547118.1800000002,"ADDRESS":"安寧街１０３巷２５號","OBJECTID":391992},"geometry":{"x":167302.9700000016,"y":2547118.1800000034}},{"attributes":{"ID":392017,"DIS_CODE":0,"TOWNNAME":"安南區","LI":"溪墘里","LIN":"23鄰","STREET":"安寧街","SECT":" ","MAREA":" ","LANE":"１０３巷","ALLEY":" ","HOUSE_NO":"２９號","E_COORD97":167291.64000000001,"N_COORD97":2547114.3300000001,"ADDRESS":"安寧街１０３巷２９號","OBJECTID":391993},"geometry":{"x":167291.64000000153,"y":2547114.3300000038}},{"attributes":{"ID":392018,"DIS_CODE":0,"TOWNNAME":"安南區","LI":"溪墘里","LIN":"23鄰","STREET":"安寧街","SECT":" ","MAREA":" ","LANE":"１０３巷","ALLEY":" ","HOUSE_NO":"３１號","E_COORD97":167285.51000000001,"N_COORD97":2547114.21,"ADDRESS":"安寧街１０３巷３１號","OBJECTID":391994},"geometry":{"x":167285.50999999978,"y":2547114.2100000009}},{"attributes":{"ID":392019,"DIS_CODE":0,"TOWNNAME":"安南區","LI":"溪墘里","LIN":"23鄰","STREET":"安寧街","SECT":" ","MAREA":" ","LANE":"１０３巷","ALLEY":" ","HOUSE_NO":"３９號","E_COORD97":167264.07000000001,"N_COORD97":2547110.6000000001,"ADDRESS":"安寧街１０３巷３９號","OBJECTID":391995},"geometry":{"x":167264.07000000123,"y":2547110.5999999996}},{"attributes":{"ID":392020,"DIS_CODE":0,"TOWNNAME":"安南區","LI":"溪墘里","LIN":"23鄰","STREET":"安寧街","SECT":" ","MAREA":" ","LANE":"１０３巷","ALLEY":" ","HOUSE_NO":"４３號","E_COORD97":167253.20000000001,"N_COORD97":2547107.9500000002,"ADDRESS":"安寧街１０３巷４３號","OBJECTID":391996},"geometry":{"x":167253.20000000112,"y":2547107.9499999993}},{"attributes":{"ID":392021,"DIS_CODE":0,"TOWNNAME":"安南區","LI":"溪墘里","LIN":"23鄰","STREET":"安寧街","SECT":" ","MAREA":" ","LANE":"１０３巷","ALLEY":" ","HOUSE_NO":"４５號","E_COORD97":167247.95000000001,"N_COORD97":2547106.8999999999,"ADDRESS":"安寧街１０３巷４５號","OBJECTID":391997},"geometry":{"x":167247.95000000112,"y":2547106.8999999985}},{"attributes":{"ID":392022,"DIS_CODE":0,"TOWNNAME":"安南區","LI":"溪墘里","LIN":"23鄰","STREET":"安寧街","SECT":" ","MAREA":" ","LANE":"１０３巷","ALLEY":" ","HOUSE_NO":"４７號","E_COORD97":167242.82000000001,"N_COORD97":2547105.1499999999,"ADDRESS":"安寧街１０３巷４７號","OBJECTID":391998},"geometry":{"x":167242.8200000003,"y":2547105.1500000004}},{"attributes":{"ID":392023,"DIS_CODE":0,"TOWNNAME":"安南區","LI":"溪墘里","LIN":"23鄰","STREET":"安寧街","SECT":" ","MAREA":" ","LANE":"１０３巷","ALLEY":" ","HOUSE_NO":"５１號","E_COORD97":167231.67000000001,"N_COORD97":2547103.1699999999,"ADDRESS":"安寧街１０３巷５１號","OBJECTID":391999},"geometry":{"x":167231.66999999993,"y":2547103.1700000018}},{"attributes":{"ID":392024,"DIS_CODE":0,"TOWNNAME":"安南區","LI":"溪墘里","LIN":"23鄰","STREET":"安寧街","SECT":" ","MAREA":" ","LANE":"９１巷","ALLEY":" ","HOUSE_NO":"１６號","E_COORD97":167332.76999999999,"N_COORD97":2547109.3999999999,"ADDRESS":"安寧街９１巷１６號","OBJECTID":392000},"geometry":{"x":167332.76999999862,"y":2547109.4000000004}}]}