{"displayFieldName":"TOWNNAME","fieldAliases":{"ID":"ID","DIS_CODE":"DIS_CODE","TOWNNAME":"TOWNNAME","LI":"LI","LIN":"LIN","STREET":"STREET","SECT":"SECT","MAREA":"MAREA","LANE":"LANE","ALLEY":"ALLEY","HOUSE_NO":"HOUSE_NO","E_COORD97":"E_COORD97","N_COORD97":"N_COORD97","ADDRESS":"ADDRESS","OBJECTID":"OBJECTID"},"geometryType":"esriGeometryPoint","spatialReference":{"wkid":102443,"latestWkid":3826},"fields":[{"name":"ID","type":"esriFieldTypeDouble","alias":"ID"},{"name":"DIS_CODE","type":"esriFieldTypeInteger","alias":"DIS_CODE"},{"name":"TOWNNAME","type":"esriFieldTypeString","alias":"TOWNNAME","length":8},{"name":"LI","type":"esriFieldTypeString","alias":"LI","length":8},{"name":"LIN","type":"esriFieldTypeString","alias":"LIN","length":12},{"name":"STREET","type":"esriFieldTypeString","alias":"STREET","length":20},{"name":"SECT","type":"esriFieldTypeString","alias":"SECT","length":8},{"name":"MAREA","type":"esriFieldTypeString","alias":"MAREA","length":12},{"name":"LANE","type":"esriFieldTypeString","alias":"LANE","length":10},{"name":"ALLEY","type":"esriFieldTypeString","alias":"ALLEY","length":10},{"name":"HOUSE_NO","type":"esriFieldTypeString","alias":"HOUSE_NO","length":20},{"name":"E_COORD97","type":"esriFieldTypeDouble","alias":"E_COORD97"},{"name":"N_COORD97","type":"esriFieldTypeDouble","alias":"N_COORD97"},{"name":"ADDRESS","type":"esriFieldTypeString","alias":"ADDRESS","length":50},{"name":"OBJECTID","type":"esriFieldTypeOID","alias":"OBJECTID"}],"features":[{"attributes":{"ID":75601,"DIS_CODE":0,"TOWNNAME":"左鎮區","LI":"光和里","LIN":"6鄰","STREET":" ","SECT":" ","MAREA":"光和","LANE":" ","ALLEY":" ","HOUSE_NO":"６３號","E_COORD97":187350.84,"N_COORD97":2550956.25,"ADDRESS":"光和６３號","OBJECTID":75601},"geometry":{"x":187350.83999999985,"y":2550956.2500000019}},{"attributes":{"ID":75602,"DIS_CODE":0,"TOWNNAME":"左鎮區","LI":"草山里","LIN":"6鄰","STREET":" ","SECT":" ","MAREA":"草山","LANE":" ","ALLEY":" ","HOUSE_NO":"７２號","E_COORD97":192488.54000000001,"N_COORD97":2542680.25,"ADDRESS":"草山７２號","OBJECTID":75602},"geometry":{"x":192488.54000000097,"y":2542680.2500000019}},{"attributes":{"ID":75603,"DIS_CODE":0,"TOWNNAME":"左鎮區","LI":"榮和里","LIN":"6鄰","STREET":" ","SECT":" ","MAREA":"菜寮","LANE":" ","ALLEY":" ","HOUSE_NO":"６２號之２５","E_COORD97":187356.38,"N_COORD97":2551452.2999999998,"ADDRESS":"菜寮６２號之２５","OBJECTID":75603},"geometry":{"x":187356.38000000082,"y":2551452.3000000026}},{"attributes":{"ID":75604,"DIS_CODE":0,"TOWNNAME":"安平區","LI":"平通里","LIN":"30鄰","STREET":"育平九街","SECT":" ","MAREA":" ","LANE":"３７２巷","ALLEY":"２３弄","HOUSE_NO":"１號","E_COORD97":164573.95999999999,"N_COORD97":2543798.8399999999,"ADDRESS":"育平九街３７２巷２３弄１號","OBJECTID":75604},"geometry":{"x":164573.96000000183,"y":2543798.8400000017}},{"attributes":{"ID":75605,"DIS_CODE":0,"TOWNNAME":"安平區","LI":"平通里","LIN":"30鄰","STREET":"育平九街","SECT":" ","MAREA":" ","LANE":"３７２巷","ALLEY":"２３弄","HOUSE_NO":"２１號","E_COORD97":164532.19,"N_COORD97":2543798.52,"ADDRESS":"育平九街３７２巷２３弄２１號","OBJECTID":75605},"geometry":{"x":164532.19000000227,"y":2543798.5199999996}},{"attributes":{"ID":75606,"DIS_CODE":0,"TOWNNAME":"安平區","LI":"平通里","LIN":"30鄰","STREET":"育平九街","SECT":" ","MAREA":" ","LANE":"３７２巷","ALLEY":"２３弄","HOUSE_NO":"２３號","E_COORD97":164527.91,"N_COORD97":2543798.3500000001,"ADDRESS":"育平九街３７２巷２３弄２３號","OBJECTID":75606},"geometry":{"x":164527.91000000015,"y":2543798.3500000015}},{"attributes":{"ID":75607,"DIS_CODE":0,"TOWNNAME":"安平區","LI":"平通里","LIN":"30鄰","STREET":"育平九街","SECT":" ","MAREA":" ","LANE":"３７２巷","ALLEY":"２３弄","HOUSE_NO":"４２號","E_COORD97":164480.42000000001,"N_COORD97":2543818.29,"ADDRESS":"育平九街３７２巷２３弄４２號","OBJECTID":75607},"geometry":{"x":164480.41999999993,"y":2543818.290000001}},{"attributes":{"ID":75608,"DIS_CODE":0,"TOWNNAME":"安平區","LI":"平通里","LIN":"30鄰","STREET":"育平九街","SECT":" ","MAREA":" ","LANE":"３７２巷","ALLEY":"２３弄","HOUSE_NO":"４３號","E_COORD97":164479.54999999999,"N_COORD97":2543800.7000000002,"ADDRESS":"育平九街３７２巷２３弄４３號","OBJECTID":75608},"geometry":{"x":164479.54999999981,"y":2543800.6999999993}},{"attributes":{"ID":75609,"DIS_CODE":0,"TOWNNAME":"安平區","LI":"平通里","LIN":"30鄰","STREET":"育平九街","SECT":" ","MAREA":" ","LANE":"３７２巷","ALLEY":"２３弄","HOUSE_NO":"５號","E_COORD97":164565.75,"N_COORD97":2543798.54,"ADDRESS":"育平九街３７２巷２３弄５號","OBJECTID":75609},"geometry":{"x":164565.75000000093,"y":2543798.5399999991}},{"attributes":{"ID":75610,"DIS_CODE":0,"TOWNNAME":"安平區","LI":"平通里","LIN":"30鄰","STREET":"育平九街","SECT":" ","MAREA":" ","LANE":"３７２巷","ALLEY":"２３弄","HOUSE_NO":"７號","E_COORD97":164561.44,"N_COORD97":2543798.6400000001,"ADDRESS":"育平九街３７２巷２３弄７號","OBJECTID":75610},"geometry":{"x":164561.44000000134,"y":2543798.6400000006}},{"attributes":{"ID":75611,"DIS_CODE":0,"TOWNNAME":"安平區","LI":"平通里","LIN":"30鄰","STREET":"育平九街","SECT":" ","MAREA":" ","LANE":"３７２巷","ALLEY":"２３弄","HOUSE_NO":"９號","E_COORD97":164557.34,"N_COORD97":2543798.7400000002,"ADDRESS":"育平九街３７２巷２３弄９號","OBJECTID":75611},"geometry":{"x":164557.33999999985,"y":2543798.7400000002}},{"attributes":{"ID":75612,"DIS_CODE":0,"TOWNNAME":"左鎮區","LI":"內庄里","LIN":"6鄰","STREET":" ","SECT":" ","MAREA":"內庄","LANE":" ","ALLEY":" ","HOUSE_NO":"５４號之４","E_COORD97":190746.29000000001,"N_COORD97":2549830.2999999998,"ADDRESS":"內庄５４號之４","OBJECTID":75612},"geometry":{"x":190746.29000000097,"y":2549830.3000000007}},{"attributes":{"ID":75613,"DIS_CODE":0,"TOWNNAME":"左鎮區","LI":"內庄里","LIN":"6鄰","STREET":" ","SECT":" ","MAREA":"內庄","LANE":" ","ALLEY":" ","HOUSE_NO":"５８號","E_COORD97":191123.32999999999,"N_COORD97":2549611.25,"ADDRESS":"內庄５８號","OBJECTID":75613},"geometry":{"x":191123.33000000194,"y":2549611.2500000019}},{"attributes":{"ID":75614,"DIS_CODE":0,"TOWNNAME":"左鎮區","LI":"岡林里","LIN":"6鄰","STREET":" ","SECT":" ","MAREA":"岡林","LANE":" ","ALLEY":" ","HOUSE_NO":"６５號之１","E_COORD97":190184.89999999999,"N_COORD97":2545862.2999999998,"ADDRESS":"岡林６５號之１","OBJECTID":75614},"geometry":{"x":190184.90000000037,"y":2545862.3000000007}},{"attributes":{"ID":75615,"DIS_CODE":0,"TOWNNAME":"新營區","LI":"忠政里","LIN":"30鄰","STREET":"府西路","SECT":" ","MAREA":" ","LANE":"３３巷","ALLEY":"２４弄","HOUSE_NO":"３號","E_COORD97":179712.10999999999,"N_COORD97":2578968.3300000001,"ADDRESS":"府西路３３巷２４弄３號","OBJECTID":75615},"geometry":{"x":179712.11000000127,"y":2578968.3300000019}},{"attributes":{"ID":75616,"DIS_CODE":0,"TOWNNAME":"北區","LI":"成德里","LIN":"30鄰","STREET":"海安路","SECT":"三段","MAREA":" ","LANE":"５００巷","ALLEY":"１１８弄","HOUSE_NO":"７號","E_COORD97":168165.53,"N_COORD97":2545668.48,"ADDRESS":"海安路三段５００巷１１８弄７號","OBJECTID":75616},"geometry":{"x":168165.53000000026,"y":2545668.4800000004}},{"attributes":{"ID":75617,"DIS_CODE":0,"TOWNNAME":"歸仁區","LI":"南保里","LIN":"30鄰","STREET":"民權北路","SECT":" ","MAREA":" ","LANE":"６１巷","ALLEY":"９弄","HOUSE_NO":"３號","E_COORD97":176945.48999999999,"N_COORD97":2541013.29,"ADDRESS":"民權北路６１巷９弄３號","OBJECTID":75617},"geometry":{"x":176945.49000000209,"y":2541013.2899999991}},{"attributes":{"ID":75618,"DIS_CODE":0,"TOWNNAME":"安平區","LI":"西門里","LIN":"19鄰","STREET":"安平路","SECT":" ","MAREA":" ","LANE":"９９０巷","ALLEY":"２１弄","HOUSE_NO":"４號","E_COORD97":163241.39999999999,"N_COORD97":2544504.1600000001,"ADDRESS":"安平路９９０巷２１弄４號","OBJECTID":75618},"geometry":{"x":163241.4000000013,"y":2544504.1600000001}},{"attributes":{"ID":75619,"DIS_CODE":0,"TOWNNAME":"安平區","LI":"西門里","LIN":"19鄰","STREET":"安平路","SECT":" ","MAREA":" ","LANE":"９９０巷","ALLEY":"２１弄","HOUSE_NO":"５號","E_COORD97":163231.03,"N_COORD97":2544486.6800000002,"ADDRESS":"安平路９９０巷２１弄５號","OBJECTID":75619},"geometry":{"x":163231.03000000026,"y":2544486.6799999997}},{"attributes":{"ID":75620,"DIS_CODE":0,"TOWNNAME":"安平區","LI":"西門里","LIN":"19鄰","STREET":"安平路","SECT":" ","MAREA":" ","LANE":"９９０巷","ALLEY":"２１弄","HOUSE_NO":"６號","E_COORD97":163237.07999999999,"N_COORD97":2544503.5099999998,"ADDRESS":"安平路９９０巷２１弄６號","OBJECTID":75620},"geometry":{"x":163237.08000000007,"y":2544503.5100000016}},{"attributes":{"ID":75621,"DIS_CODE":0,"TOWNNAME":"安平區","LI":"西門里","LIN":"19鄰","STREET":"安平路","SECT":" ","MAREA":" ","LANE":"９９０巷","ALLEY":"２１弄","HOUSE_NO":"７號","E_COORD97":163224.62,"N_COORD97":2544484.9199999999,"ADDRESS":"安平路９９０巷２１弄７號","OBJECTID":75621},"geometry":{"x":163224.62000000011,"y":2544484.9199999999}},{"attributes":{"ID":75622,"DIS_CODE":0,"TOWNNAME":"歸仁區","LI":"新厝里","LIN":"25鄰","STREET":"大成六街","SECT":" ","MAREA":" ","LANE":" ","ALLEY":" ","HOUSE_NO":"１１０號","E_COORD97":177595.19,"N_COORD97":2540194.1800000002,"ADDRESS":"大成六街１１０號","OBJECTID":75622},"geometry":{"x":177595.18999999948,"y":2540194.1799999997}},{"attributes":{"ID":75623,"DIS_CODE":0,"TOWNNAME":"六甲區","LI":"二甲里","LIN":"7鄰","STREET":"民權街","SECT":" ","MAREA":" ","LANE":" ","ALLEY":" ","HOUSE_NO":"３０６號","E_COORD97":182896.67999999999,"N_COORD97":2569798.3900000001,"ADDRESS":"民權街３０６號","OBJECTID":75623},"geometry":{"x":182896.6799999997,"y":2569798.3900000006}},{"attributes":{"ID":75624,"DIS_CODE":0,"TOWNNAME":"六甲區","LI":"二甲里","LIN":"7鄰","STREET":"民權街","SECT":" ","MAREA":" ","LANE":" ","ALLEY":" ","HOUSE_NO":"３０８號","E_COORD97":182898.20999999999,"N_COORD97":2569821.2000000002,"ADDRESS":"民權街３０８號","OBJECTID":75624},"geometry":{"x":182898.20999999996,"y":2569821.1999999993}},{"attributes":{"ID":75625,"DIS_CODE":0,"TOWNNAME":"六甲區","LI":"二甲里","LIN":"7鄰","STREET":"民權街","SECT":" ","MAREA":" ","LANE":" ","ALLEY":" ","HOUSE_NO":"３１０號","E_COORD97":182885.82000000001,"N_COORD97":2569800.6000000001,"ADDRESS":"民權街３１０號","OBJECTID":75625},"geometry":{"x":182885.82000000123,"y":2569800.6000000015}},{"attributes":{"ID":75626,"DIS_CODE":0,"TOWNNAME":"左鎮區","LI":"左鎮里","LIN":"6鄰","STREET":" ","SECT":" ","MAREA":"左鎮","LANE":" ","ALLEY":" ","HOUSE_NO":"５６號之１","E_COORD97":189379.20000000001,"N_COORD97":2549629.2999999998,"ADDRESS":"左鎮５６號之１","OBJECTID":75626},"geometry":{"x":189379.20000000019,"y":2549629.3000000007}},{"attributes":{"ID":75627,"DIS_CODE":0,"TOWNNAME":"左鎮區","LI":"榮和里","LIN":"6鄰","STREET":" ","SECT":" ","MAREA":"菜寮","LANE":" ","ALLEY":" ","HOUSE_NO":"５４號","E_COORD97":187153.54000000001,"N_COORD97":2551539.25,"ADDRESS":"菜寮５４號","OBJECTID":75627},"geometry":{"x":187153.5400000019,"y":2551539.2500000037}},{"attributes":{"ID":75628,"DIS_CODE":0,"TOWNNAME":"左鎮區","LI":"內庄里","LIN":"6鄰","STREET":" ","SECT":" ","MAREA":"內庄","LANE":" ","ALLEY":" ","HOUSE_NO":"５４號","E_COORD97":190685.03,"N_COORD97":2549372.25,"ADDRESS":"內庄５４號","OBJECTID":75628},"geometry":{"x":190685.03000000119,"y":2549372.25}},{"attributes":{"ID":75629,"DIS_CODE":0,"TOWNNAME":"六甲區","LI":"大丘里","LIN":"7鄰","STREET":" ","SECT":" ","MAREA":"匏子寮","LANE":" ","ALLEY":" ","HOUSE_NO":"１２號","E_COORD97":192035.13,"N_COORD97":2568541.9399999999,"ADDRESS":"匏子寮１２號","OBJECTID":75629},"geometry":{"x":192035.13000000082,"y":2568541.9399999995}},{"attributes":{"ID":75630,"DIS_CODE":0,"TOWNNAME":"六甲區","LI":"大丘里","LIN":"7鄰","STREET":" ","SECT":" ","MAREA":"匏子寮","LANE":" ","ALLEY":" ","HOUSE_NO":"１３號","E_COORD97":192059.29999999999,"N_COORD97":2568524.25,"ADDRESS":"匏子寮１３號","OBJECTID":75630},"geometry":{"x":192059.30000000075,"y":2568524.25}},{"attributes":{"ID":75631,"DIS_CODE":0,"TOWNNAME":"六甲區","LI":"大丘里","LIN":"7鄰","STREET":" ","SECT":" ","MAREA":"匏子寮","LANE":" ","ALLEY":" ","HOUSE_NO":"１４號","E_COORD97":192061.28,"N_COORD97":2568550.0800000001,"ADDRESS":"匏子寮１４號","OBJECTID":75631},"geometry":{"x":192061.28000000212,"y":2568550.0800000019}},{"attributes":{"ID":75632,"DIS_CODE":0,"TOWNNAME":"安平區","LI":"西門里","LIN":"19鄰","STREET":"安平路","SECT":" ","MAREA":" ","LANE":"９９０巷","ALLEY":"２１弄","HOUSE_NO":"８號","E_COORD97":163232.98000000001,"N_COORD97":2544502.4300000002,"ADDRESS":"安平路９９０巷２１弄８號","OBJECTID":75632},"geometry":{"x":163232.98000000045,"y":2544502.4300000034}},{"attributes":{"ID":75633,"DIS_CODE":0,"TOWNNAME":"鹽水區","LI":"岸內里","LIN":"1鄰","STREET":" ","SECT":" ","MAREA":"蔦松腳","LANE":" ","ALLEY":" ","HOUSE_NO":"７號","E_COORD97":175806.26000000001,"N_COORD97":2581675.7400000002,"ADDRESS":"蔦松腳７號","OBJECTID":75633},"geometry":{"x":175806.26000000071,"y":2581675.7400000002}},{"attributes":{"ID":75634,"DIS_CODE":0,"TOWNNAME":"北區","LI":"大港里","LIN":"19鄰","STREET":"中華北路","SECT":"一段","MAREA":" ","LANE":"３６２巷","ALLEY":"３弄","HOUSE_NO":"１０１號","E_COORD97":166790.38,"N_COORD97":2546106.0499999998,"ADDRESS":"中華北路一段３６２巷３弄１０１號","OBJECTID":75634},"geometry":{"x":166790.38000000082,"y":2546106.0500000007}},{"attributes":{"ID":75635,"DIS_CODE":0,"TOWNNAME":"北區","LI":"大港里","LIN":"19鄰","STREET":"中華北路","SECT":"一段","MAREA":" ","LANE":"３６２巷","ALLEY":"３弄","HOUSE_NO":"１０３號","E_COORD97":166787.04000000001,"N_COORD97":2546103.8799999999,"ADDRESS":"中華北路一段３６２巷３弄１０３號","OBJECTID":75635},"geometry":{"x":166787.04000000004,"y":2546103.8800000008}},{"attributes":{"ID":75636,"DIS_CODE":0,"TOWNNAME":"六甲區","LI":"大丘里","LIN":"7鄰","STREET":" ","SECT":" ","MAREA":"匏子寮","LANE":" ","ALLEY":" ","HOUSE_NO":"１７號","E_COORD97":192042.73000000001,"N_COORD97":2568605.6800000002,"ADDRESS":"匏子寮１７號","OBJECTID":75636},"geometry":{"x":192042.73000000045,"y":2568605.6799999997}},{"attributes":{"ID":75637,"DIS_CODE":0,"TOWNNAME":"六甲區","LI":"大丘里","LIN":"7鄰","STREET":" ","SECT":" ","MAREA":"匏子寮","LANE":" ","ALLEY":" ","HOUSE_NO":"１８號","E_COORD97":192058.53,"N_COORD97":2568584.3399999999,"ADDRESS":"匏子寮１８號","OBJECTID":75637},"geometry":{"x":192058.53000000119,"y":2568584.3399999999}},{"attributes":{"ID":75638,"DIS_CODE":0,"TOWNNAME":"六甲區","LI":"大丘里","LIN":"7鄰","STREET":" ","SECT":" ","MAREA":"匏子寮","LANE":" ","ALLEY":" ","HOUSE_NO":"１９號","E_COORD97":192049.44,"N_COORD97":2568593.48,"ADDRESS":"匏子寮１９號","OBJECTID":75638},"geometry":{"x":192049.44000000041,"y":2568593.4800000004}},{"attributes":{"ID":75639,"DIS_CODE":0,"TOWNNAME":"官田區","LI":"二鎮里","LIN":" ","STREET":"成功街","SECT":" ","MAREA":" ","LANE":" ","ALLEY":" ","HOUSE_NO":"５２號","E_COORD97":181497.59,"N_COORD97":2567640.7599999998,"ADDRESS":"成功街５２號","OBJECTID":75639},"geometry":{"x":181497.58999999985,"y":2567640.7600000016}},{"attributes":{"ID":75640,"DIS_CODE":0,"TOWNNAME":"官田區","LI":"二鎮里","LIN":" ","STREET":"成功街","SECT":" ","MAREA":" ","LANE":" ","ALLEY":" ","HOUSE_NO":"５３號","E_COORD97":181563.45000000001,"N_COORD97":2567644.9900000002,"ADDRESS":"成功街５３號","OBJECTID":75640},"geometry":{"x":181563.45000000205,"y":2567644.9900000002}},{"attributes":{"ID":75641,"DIS_CODE":0,"TOWNNAME":"麻豆區","LI":"安業里","LIN":"7鄰","STREET":" ","SECT":" ","MAREA":"安業","LANE":" ","ALLEY":" ","HOUSE_NO":"１２３號之８","E_COORD97":172711.87,"N_COORD97":2562334.3900000001,"ADDRESS":"安業１２３號之８","OBJECTID":75641},"geometry":{"x":172711.87000000104,"y":2562334.3900000025}},{"attributes":{"ID":75642,"DIS_CODE":0,"TOWNNAME":"麻豆區","LI":"安東里","LIN":"7鄰","STREET":" ","SECT":" ","MAREA":"安業","LANE":" ","ALLEY":" ","HOUSE_NO":"６６號","E_COORD97":173000.69,"N_COORD97":2562423.7400000002,"ADDRESS":"安業６６號","OBJECTID":75642},"geometry":{"x":173000.69000000041,"y":2562423.7400000021}},{"attributes":{"ID":75643,"DIS_CODE":0,"TOWNNAME":"麻豆區","LI":"安東里","LIN":"7鄰","STREET":" ","SECT":" ","MAREA":"安業","LANE":" ","ALLEY":" ","HOUSE_NO":"６８號之１","E_COORD97":172968.5,"N_COORD97":2562371.5899999999,"ADDRESS":"安業６８號之１","OBJECTID":75643},"geometry":{"x":172968.50000000093,"y":2562371.5899999999}},{"attributes":{"ID":75644,"DIS_CODE":0,"TOWNNAME":"麻豆區","LI":"安東里","LIN":"7鄰","STREET":" ","SECT":" ","MAREA":"安業","LANE":" ","ALLEY":" ","HOUSE_NO":"６８號之２","E_COORD97":172975.17999999999,"N_COORD97":2562373.4300000002,"ADDRESS":"安業６８號之２","OBJECTID":75644},"geometry":{"x":172975.17999999877,"y":2562373.4300000016}},{"attributes":{"ID":75645,"DIS_CODE":0,"TOWNNAME":"麻豆區","LI":"安東里","LIN":"7鄰","STREET":" ","SECT":" ","MAREA":"安業","LANE":" ","ALLEY":" ","HOUSE_NO":"６９號","E_COORD97":172952.42000000001,"N_COORD97":2562336.3300000001,"ADDRESS":"安業６９號","OBJECTID":75645},"geometry":{"x":172952.42000000086,"y":2562336.3300000001}},{"attributes":{"ID":75646,"DIS_CODE":0,"TOWNNAME":"麻豆區","LI":"安東里","LIN":"7鄰","STREET":" ","SECT":" ","MAREA":"安業","LANE":" ","ALLEY":" ","HOUSE_NO":"７０號之１","E_COORD97":172989.5,"N_COORD97":2562379.52,"ADDRESS":"安業７０號之１","OBJECTID":75646},"geometry":{"x":172989.5,"y":2562379.5200000014}},{"attributes":{"ID":75647,"DIS_CODE":0,"TOWNNAME":"麻豆區","LI":"安東里","LIN":"7鄰","STREET":" ","SECT":" ","MAREA":"安業","LANE":" ","ALLEY":" ","HOUSE_NO":"７０號之２","E_COORD97":172988.60999999999,"N_COORD97":2562359.0699999998,"ADDRESS":"安業７０號之２","OBJECTID":75647},"geometry":{"x":172988.61000000127,"y":2562359.0699999984}},{"attributes":{"ID":75648,"DIS_CODE":0,"TOWNNAME":"麻豆區","LI":"安東里","LIN":"7鄰","STREET":" ","SECT":" ","MAREA":"安業","LANE":" ","ALLEY":" ","HOUSE_NO":"７０號之３","E_COORD97":172992.35000000001,"N_COORD97":2562359.6400000001,"ADDRESS":"安業７０號之３","OBJECTID":75648},"geometry":{"x":172992.34999999963,"y":2562359.6400000025}},{"attributes":{"ID":75649,"DIS_CODE":0,"TOWNNAME":"麻豆區","LI":"安東里","LIN":"7鄰","STREET":" ","SECT":" ","MAREA":"安業","LANE":" ","ALLEY":" ","HOUSE_NO":"７０號之４","E_COORD97":172996,"N_COORD97":2562360.1600000001,"ADDRESS":"安業７０號之４","OBJECTID":75649},"geometry":{"x":172996.00000000093,"y":2562360.160000002}},{"attributes":{"ID":75650,"DIS_CODE":0,"TOWNNAME":"麻豆區","LI":"安東里","LIN":"7鄰","STREET":" ","SECT":" ","MAREA":"安業","LANE":" ","ALLEY":" ","HOUSE_NO":"７０號之５","E_COORD97":172999.64000000001,"N_COORD97":2562360.8700000001,"ADDRESS":"安業７０號之５","OBJECTID":75650},"geometry":{"x":172999.6400000006,"y":2562360.870000001}},{"attributes":{"ID":75651,"DIS_CODE":0,"TOWNNAME":"麻豆區","LI":"安東里","LIN":"7鄰","STREET":" ","SECT":" ","MAREA":"安業","LANE":" ","ALLEY":" ","HOUSE_NO":"７０號之６","E_COORD97":173003.67000000001,"N_COORD97":2562361.5499999998,"ADDRESS":"安業７０號之６","OBJECTID":75651},"geometry":{"x":173003.66999999993,"y":2562361.5500000026}},{"attributes":{"ID":75652,"DIS_CODE":0,"TOWNNAME":"麻豆區","LI":"安東里","LIN":"7鄰","STREET":" ","SECT":" ","MAREA":"安業","LANE":" ","ALLEY":" ","HOUSE_NO":"７０號之７","E_COORD97":172984.23999999999,"N_COORD97":2562336.27,"ADDRESS":"安業７０號之７","OBJECTID":75652},"geometry":{"x":172984.24000000115,"y":2562336.2699999996}},{"attributes":{"ID":75653,"DIS_CODE":0,"TOWNNAME":"麻豆區","LI":"安東里","LIN":"7鄰","STREET":" ","SECT":" ","MAREA":"安業","LANE":" ","ALLEY":" ","HOUSE_NO":"７０號之８","E_COORD97":172975.32999999999,"N_COORD97":2562335.21,"ADDRESS":"安業７０號之８","OBJECTID":75653},"geometry":{"x":172975.33000000101,"y":2562335.2100000046}},{"attributes":{"ID":75654,"DIS_CODE":0,"TOWNNAME":"麻豆區","LI":"安東里","LIN":"7鄰","STREET":" ","SECT":" ","MAREA":"安業","LANE":" ","ALLEY":" ","HOUSE_NO":"７１號","E_COORD97":173007.64999999999,"N_COORD97":2562381.6899999999,"ADDRESS":"安業７１號","OBJECTID":75654},"geometry":{"x":173007.65000000037,"y":2562381.6900000013}},{"attributes":{"ID":75655,"DIS_CODE":0,"TOWNNAME":"麻豆區","LI":"安東里","LIN":"7鄰","STREET":" ","SECT":" ","MAREA":"安業","LANE":" ","ALLEY":" ","HOUSE_NO":"７２號之１","E_COORD97":173043.09,"N_COORD97":2562428.3799999999,"ADDRESS":"安業７２號之１","OBJECTID":75655},"geometry":{"x":173043.08999999985,"y":2562428.3800000008}},{"attributes":{"ID":75656,"DIS_CODE":0,"TOWNNAME":"麻豆區","LI":"安東里","LIN":"7鄰","STREET":" ","SECT":" ","MAREA":"安業","LANE":" ","ALLEY":" ","HOUSE_NO":"７２號","E_COORD97":173049.79000000001,"N_COORD97":2562429.98,"ADDRESS":"安業７２號","OBJECTID":75656},"geometry":{"x":173049.79000000097,"y":2562429.9800000004}},{"attributes":{"ID":75657,"DIS_CODE":0,"TOWNNAME":"麻豆區","LI":"安東里","LIN":"7鄰","STREET":" ","SECT":" ","MAREA":"安業","LANE":" ","ALLEY":" ","HOUSE_NO":"７３號","E_COORD97":173026.64000000001,"N_COORD97":2562458.1899999999,"ADDRESS":"安業７３號","OBJECTID":75657},"geometry":{"x":173026.6400000006,"y":2562458.1899999995}},{"attributes":{"ID":75658,"DIS_CODE":0,"TOWNNAME":"麻豆區","LI":"安東里","LIN":"7鄰","STREET":" ","SECT":" ","MAREA":"安業","LANE":" ","ALLEY":" ","HOUSE_NO":"７５號","E_COORD97":173067,"N_COORD97":2562469.8199999998,"ADDRESS":"安業７５號","OBJECTID":75658},"geometry":{"x":173067.00000000093,"y":2562469.8200000022}},{"attributes":{"ID":75659,"DIS_CODE":0,"TOWNNAME":"左鎮區","LI":"左鎮里","LIN":"6鄰","STREET":" ","SECT":" ","MAREA":"左鎮","LANE":" ","ALLEY":" ","HOUSE_NO":"４８號","E_COORD97":189363.57000000001,"N_COORD97":2549582.25,"ADDRESS":"左鎮４８號","OBJECTID":75659},"geometry":{"x":189363.5700000003,"y":2549582.25}},{"attributes":{"ID":75660,"DIS_CODE":0,"TOWNNAME":"永康區","LI":"尚頂里","LIN":"19鄰","STREET":"南台街","SECT":" ","MAREA":" ","LANE":"３巷","ALLEY":"１４弄","HOUSE_NO":"２２號","E_COORD97":170458.29000000001,"N_COORD97":2546913.7400000002,"ADDRESS":"南台街３巷１４弄２２號","OBJECTID":75660},"geometry":{"x":170458.29000000097,"y":2546913.7400000002}},{"attributes":{"ID":75661,"DIS_CODE":0,"TOWNNAME":"左鎮區","LI":"榮和里","LIN":"6鄰","STREET":" ","SECT":" ","MAREA":"菜寮","LANE":" ","ALLEY":" ","HOUSE_NO":"６２號之２４","E_COORD97":187352.64999999999,"N_COORD97":2551454.2999999998,"ADDRESS":"菜寮６２號之２４","OBJECTID":75661},"geometry":{"x":187352.65000000037,"y":2551454.3000000007}},{"attributes":{"ID":75662,"DIS_CODE":0,"TOWNNAME":"左鎮區","LI":"榮和里","LIN":"6鄰","STREET":" ","SECT":" ","MAREA":"菜寮","LANE":" ","ALLEY":" ","HOUSE_NO":"６２號之１３","E_COORD97":187454.42000000001,"N_COORD97":2551400.2999999998,"ADDRESS":"菜寮６２號之１３","OBJECTID":75662},"geometry":{"x":187454.42000000086,"y":2551400.2999999989}},{"attributes":{"ID":75663,"DIS_CODE":0,"TOWNNAME":"左鎮區","LI":"左鎮里","LIN":"6鄰","STREET":" ","SECT":" ","MAREA":"左鎮","LANE":" ","ALLEY":" ","HOUSE_NO":"５７號","E_COORD97":189358.76999999999,"N_COORD97":2549619.25,"ADDRESS":"左鎮５７號","OBJECTID":75663},"geometry":{"x":189358.77000000048,"y":2549619.25}},{"attributes":{"ID":75664,"DIS_CODE":0,"TOWNNAME":"麻豆區","LI":"穀興里","LIN":"7鄰","STREET":"自由路","SECT":" ","MAREA":" ","LANE":" ","ALLEY":" ","HOUSE_NO":"３２號之１７","E_COORD97":172612.72,"N_COORD97":2565018.9100000001,"ADDRESS":"自由路３２號之１７","OBJECTID":75664},"geometry":{"x":172612.72000000067,"y":2565018.910000002}},{"attributes":{"ID":75665,"DIS_CODE":0,"TOWNNAME":"北區","LI":"大港里","LIN":"19鄰","STREET":"中華北路","SECT":"一段","MAREA":" ","LANE":"３６２巷","ALLEY":"３弄","HOUSE_NO":"１０５號","E_COORD97":166783.53,"N_COORD97":2546102.04,"ADDRESS":"中華北路一段３６２巷３弄１０５號","OBJECTID":75665},"geometry":{"x":166783.53000000026,"y":2546102.040000001}},{"attributes":{"ID":75666,"DIS_CODE":0,"TOWNNAME":"安平區","LI":"怡平里","LIN":"19鄰","STREET":"文平路","SECT":" ","MAREA":" ","LANE":"４６１巷","ALLEY":"２１弄","HOUSE_NO":"１９之９號","E_COORD97":165766.14000000001,"N_COORD97":2543828.1299999999,"ADDRESS":"文平路４６１巷２１弄１９之９號","OBJECTID":75666},"geometry":{"x":165766.1400000006,"y":2543828.129999999}},{"attributes":{"ID":75667,"DIS_CODE":0,"TOWNNAME":"左鎮區","LI":"榮和里","LIN":"6鄰","STREET":" ","SECT":" ","MAREA":"菜寮","LANE":" ","ALLEY":" ","HOUSE_NO":"６２號之７","E_COORD97":187372.85000000001,"N_COORD97":2551450.2999999998,"ADDRESS":"菜寮６２號之７","OBJECTID":75667},"geometry":{"x":187372.8499999987,"y":2551450.3000000007}},{"attributes":{"ID":75668,"DIS_CODE":0,"TOWNNAME":"左鎮區","LI":"左鎮里","LIN":"6鄰","STREET":" ","SECT":" ","MAREA":"左鎮","LANE":" ","ALLEY":" ","HOUSE_NO":"５８號","E_COORD97":189349.47,"N_COORD97":2549643.25,"ADDRESS":"左鎮５８號","OBJECTID":75668},"geometry":{"x":189349.47000000067,"y":2549643.25}},{"attributes":{"ID":75669,"DIS_CODE":0,"TOWNNAME":"安平區","LI":"怡平里","LIN":"19鄰","STREET":"文平路","SECT":" ","MAREA":" ","LANE":"４６１巷","ALLEY":"２１弄","HOUSE_NO":"１９之１０號","E_COORD97":165760.75,"N_COORD97":2543830.1899999999,"ADDRESS":"文平路４６１巷２１弄１９之１０號","OBJECTID":75669},"geometry":{"x":165760.75000000093,"y":2543830.1900000013}},{"attributes":{"ID":75670,"DIS_CODE":0,"TOWNNAME":"左鎮區","LI":"中正里","LIN":"6鄰","STREET":" ","SECT":" ","MAREA":"中正","LANE":" ","ALLEY":" ","HOUSE_NO":"７３號之４","E_COORD97":189693.12,"N_COORD97":2551112.2999999998,"ADDRESS":"中正７３號之４","OBJECTID":75670},"geometry":{"x":189693.12000000104,"y":2551112.3000000045}},{"attributes":{"ID":75671,"DIS_CODE":0,"TOWNNAME":"左鎮區","LI":"草山里","LIN":"6鄰","STREET":" ","SECT":" ","MAREA":"草山","LANE":" ","ALLEY":" ","HOUSE_NO":"６９號","E_COORD97":191950.14000000001,"N_COORD97":2542782.25,"ADDRESS":"草山６９號","OBJECTID":75671},"geometry":{"x":191950.1400000006,"y":2542782.2500000019}},{"attributes":{"ID":75672,"DIS_CODE":0,"TOWNNAME":"左鎮區","LI":"左鎮里","LIN":"6鄰","STREET":" ","SECT":" ","MAREA":"左鎮","LANE":" ","ALLEY":" ","HOUSE_NO":"５３號","E_COORD97":189422.07000000001,"N_COORD97":2549623.25,"ADDRESS":"左鎮５３號","OBJECTID":75672},"geometry":{"x":189422.07000000123,"y":2549623.2499999981}},{"attributes":{"ID":75673,"DIS_CODE":0,"TOWNNAME":"左鎮區","LI":"榮和里","LIN":"6鄰","STREET":" ","SECT":" ","MAREA":"菜寮","LANE":" ","ALLEY":" ","HOUSE_NO":"６２號之２７","E_COORD97":187278.89999999999,"N_COORD97":2551496.2999999998,"ADDRESS":"菜寮６２號之２７","OBJECTID":75673},"geometry":{"x":187278.9000000013,"y":2551496.3000000026}},{"attributes":{"ID":75674,"DIS_CODE":0,"TOWNNAME":"安平區","LI":"怡平里","LIN":"19鄰","STREET":"文平路","SECT":" ","MAREA":" ","LANE":"４６１巷","ALLEY":"２１弄","HOUSE_NO":"１９號","E_COORD97":165747.89000000001,"N_COORD97":2543818.6000000001,"ADDRESS":"文平路４６１巷２１弄１９號","OBJECTID":75674},"geometry":{"x":165747.8900000006,"y":2543818.5999999996}},{"attributes":{"ID":75675,"DIS_CODE":0,"TOWNNAME":"左鎮區","LI":"左鎮里","LIN":"6鄰","STREET":" ","SECT":" ","MAREA":"左鎮","LANE":" ","ALLEY":" ","HOUSE_NO":"５６號","E_COORD97":189355.26999999999,"N_COORD97":2549599.25,"ADDRESS":"左鎮５６號","OBJECTID":75675},"geometry":{"x":189355.27000000048,"y":2549599.25}},{"attributes":{"ID":75676,"DIS_CODE":0,"TOWNNAME":"左鎮區","LI":"中正里","LIN":"6鄰","STREET":" ","SECT":" ","MAREA":"中正","LANE":" ","ALLEY":" ","HOUSE_NO":"７１號之１","E_COORD97":189818.20000000001,"N_COORD97":2551111.2999999998,"ADDRESS":"中正７１號之１","OBJECTID":75676},"geometry":{"x":189818.20000000019,"y":2551111.3000000007}},{"attributes":{"ID":75677,"DIS_CODE":0,"TOWNNAME":"左鎮區","LI":"草山里","LIN":"6鄰","STREET":" ","SECT":" ","MAREA":"草山","LANE":" ","ALLEY":" ","HOUSE_NO":"７３號","E_COORD97":192119.54000000001,"N_COORD97":2542647.25,"ADDRESS":"草山７３號","OBJECTID":75677},"geometry":{"x":192119.54000000004,"y":2542647.2500000019}},{"attributes":{"ID":75678,"DIS_CODE":0,"TOWNNAME":"左鎮區","LI":"內庄里","LIN":"6鄰","STREET":" ","SECT":" ","MAREA":"內庄","LANE":" ","ALLEY":" ","HOUSE_NO":"５４號之１","E_COORD97":190493.76000000001,"N_COORD97":2549461.2999999998,"ADDRESS":"內庄５４號之１","OBJECTID":75678},"geometry":{"x":190493.75999999978,"y":2549461.3000000045}},{"attributes":{"ID":75679,"DIS_CODE":0,"TOWNNAME":"安平區","LI":"怡平里","LIN":"19鄰","STREET":"文平路","SECT":" ","MAREA":" ","LANE":"４６１巷","ALLEY":"２１弄","HOUSE_NO":"２４號","E_COORD97":165725.29000000001,"N_COORD97":2543841.3399999999,"ADDRESS":"文平路４６１巷２１弄２４號","OBJECTID":75679},"geometry":{"x":165725.29000000097,"y":2543841.3399999999}},{"attributes":{"ID":75680,"DIS_CODE":0,"TOWNNAME":"安平區","LI":"怡平里","LIN":"19鄰","STREET":"文平路","SECT":" ","MAREA":" ","LANE":"４６１巷","ALLEY":"２１弄","HOUSE_NO":"２８號","E_COORD97":165718.29000000001,"N_COORD97":2543842.1400000001,"ADDRESS":"文平路４６１巷２１弄２８號","OBJECTID":75680},"geometry":{"x":165718.29000000097,"y":2543842.1400000025}},{"attributes":{"ID":75681,"DIS_CODE":0,"TOWNNAME":"永康區","LI":"甲頂里","LIN":"19鄰","STREET":"中正南路","SECT":" ","MAREA":" ","LANE":"５２巷","ALLEY":"４６弄","HOUSE_NO":"９４號","E_COORD97":169900.25,"N_COORD97":2546546.5600000001,"ADDRESS":"中正南路５２巷４６弄９４號","OBJECTID":75681},"geometry":{"x":169900.25000000093,"y":2546546.5600000005}},{"attributes":{"ID":75682,"DIS_CODE":0,"TOWNNAME":"永康區","LI":"甲頂里","LIN":"19鄰","STREET":"中正南路","SECT":" ","MAREA":" ","LANE":"５２巷","ALLEY":"４６弄","HOUSE_NO":"６８號","E_COORD97":169906.57999999999,"N_COORD97":2546581.0800000001,"ADDRESS":"中正南路５２巷４６弄６８號","OBJECTID":75682},"geometry":{"x":169906.58000000101,"y":2546581.0800000019}},{"attributes":{"ID":75683,"DIS_CODE":0,"TOWNNAME":"左鎮區","LI":"岡林里","LIN":"6鄰","STREET":" ","SECT":" ","MAREA":"岡林","LANE":" ","ALLEY":" ","HOUSE_NO":"６８號","E_COORD97":190023.16,"N_COORD97":2546056.25,"ADDRESS":"岡林６８號","OBJECTID":75683},"geometry":{"x":190023.16000000108,"y":2546056.25}},{"attributes":{"ID":75684,"DIS_CODE":0,"TOWNNAME":"左鎮區","LI":"左鎮里","LIN":"6鄰","STREET":" ","SECT":" ","MAREA":"左鎮","LANE":" ","ALLEY":" ","HOUSE_NO":"４５號","E_COORD97":189405.76999999999,"N_COORD97":2549577.25,"ADDRESS":"左鎮４５號","OBJECTID":75684},"geometry":{"x":189405.76999999955,"y":2549577.2500000019}},{"attributes":{"ID":75685,"DIS_CODE":0,"TOWNNAME":"左鎮區","LI":"草山里","LIN":"6鄰","STREET":" ","SECT":" ","MAREA":"草山","LANE":" ","ALLEY":" ","HOUSE_NO":"７０號","E_COORD97":191919.94,"N_COORD97":2542937.25,"ADDRESS":"草山７０號","OBJECTID":75685},"geometry":{"x":191919.94000000134,"y":2542937.25}},{"attributes":{"ID":75686,"DIS_CODE":0,"TOWNNAME":"左鎮區","LI":"岡林里","LIN":"6鄰","STREET":" ","SECT":" ","MAREA":"岡林","LANE":" ","ALLEY":" ","HOUSE_NO":"６４號之１","E_COORD97":190311.29999999999,"N_COORD97":2545879.2999999998,"ADDRESS":"岡林６４號之１","OBJECTID":75686},"geometry":{"x":190311.30000000168,"y":2545879.3000000007}},{"attributes":{"ID":75687,"DIS_CODE":0,"TOWNNAME":"新營區","LI":"延平里","LIN":"7鄰","STREET":"復興路","SECT":" ","MAREA":" ","LANE":" ","ALLEY":" ","HOUSE_NO":"１之１２號","E_COORD97":179724.29999999999,"N_COORD97":2577963.8700000001,"ADDRESS":"復興路１之１２號","OBJECTID":75687},"geometry":{"x":179724.29999999981,"y":2577963.8700000048}},{"attributes":{"ID":75688,"DIS_CODE":0,"TOWNNAME":"左鎮區","LI":"睦光里","LIN":"6鄰","STREET":" ","SECT":" ","MAREA":"睦光","LANE":" ","ALLEY":" ","HOUSE_NO":"６４號","E_COORD97":190560.04000000001,"N_COORD97":2550026.25,"ADDRESS":"睦光６４號","OBJECTID":75688},"geometry":{"x":190560.04000000004,"y":2550026.25}},{"attributes":{"ID":75689,"DIS_CODE":0,"TOWNNAME":"左鎮區","LI":"睦光里","LIN":"6鄰","STREET":" ","SECT":" ","MAREA":"睦光","LANE":" ","ALLEY":" ","HOUSE_NO":"５８號","E_COORD97":190417.23999999999,"N_COORD97":2549950.25,"ADDRESS":"睦光５８號","OBJECTID":75689},"geometry":{"x":190417.24000000209,"y":2549950.2500000019}},{"attributes":{"ID":75690,"DIS_CODE":0,"TOWNNAME":"新營區","LI":"延平里","LIN":"7鄰","STREET":"復興路","SECT":" ","MAREA":" ","LANE":" ","ALLEY":" ","HOUSE_NO":"１之１１號","E_COORD97":179727.35999999999,"N_COORD97":2577961.6499999999,"ADDRESS":"復興路１之１１號","OBJECTID":75690},"geometry":{"x":179727.36000000127,"y":2577961.6500000022}},{"attributes":{"ID":75691,"DIS_CODE":0,"TOWNNAME":"新營區","LI":"民生里","LIN":"7鄰","STREET":"民生路","SECT":" ","MAREA":" ","LANE":" ","ALLEY":" ","HOUSE_NO":"１５之５號","E_COORD97":179363.29000000001,"N_COORD97":2578192.6200000001,"ADDRESS":"民生路１５之５號","OBJECTID":75691},"geometry":{"x":179363.29000000004,"y":2578192.6199999992}},{"attributes":{"ID":75692,"DIS_CODE":0,"TOWNNAME":"左鎮區","LI":"睦光里","LIN":"6鄰","STREET":" ","SECT":" ","MAREA":"睦光","LANE":" ","ALLEY":" ","HOUSE_NO":"６１號","E_COORD97":190517.23999999999,"N_COORD97":2550056.25,"ADDRESS":"睦光６１號","OBJECTID":75692},"geometry":{"x":190517.24000000209,"y":2550056.25}},{"attributes":{"ID":75693,"DIS_CODE":0,"TOWNNAME":"左鎮區","LI":"二寮里","LIN":"6鄰","STREET":" ","SECT":" ","MAREA":"二寮","LANE":" ","ALLEY":" ","HOUSE_NO":"５１號","E_COORD97":188883.44,"N_COORD97":2544415.25,"ADDRESS":"二寮５１號","OBJECTID":75693},"geometry":{"x":188883.44000000041,"y":2544415.25}},{"attributes":{"ID":75694,"DIS_CODE":0,"TOWNNAME":"新營區","LI":"民生里","LIN":"7鄰","STREET":"中華路","SECT":" ","MAREA":" ","LANE":" ","ALLEY":" ","HOUSE_NO":"８１之８號","E_COORD97":179331.44,"N_COORD97":2578149.5800000001,"ADDRESS":"中華路８１之８號","OBJECTID":75694},"geometry":{"x":179331.44000000134,"y":2578149.5800000019}},{"attributes":{"ID":75695,"DIS_CODE":0,"TOWNNAME":"左鎮區","LI":"榮和里","LIN":"6鄰","STREET":" ","SECT":" ","MAREA":"菜寮","LANE":" ","ALLEY":" ","HOUSE_NO":"５６號之４","E_COORD97":187229.79999999999,"N_COORD97":2551510.2999999998,"ADDRESS":"菜寮５６號之４","OBJECTID":75695},"geometry":{"x":187229.80000000075,"y":2551510.3000000026}},{"attributes":{"ID":75696,"DIS_CODE":0,"TOWNNAME":"左鎮區","LI":"睦光里","LIN":"6鄰","STREET":" ","SECT":" ","MAREA":"睦光","LANE":" ","ALLEY":" ","HOUSE_NO":"６５號之２","E_COORD97":190448.60999999999,"N_COORD97":2549962.2999999998,"ADDRESS":"睦光６５號之２","OBJECTID":75696},"geometry":{"x":190448.6099999994,"y":2549962.3000000007}},{"attributes":{"ID":75697,"DIS_CODE":0,"TOWNNAME":"新營區","LI":"延平里","LIN":"7鄰","STREET":"復興路","SECT":" ","MAREA":" ","LANE":" ","ALLEY":" ","HOUSE_NO":"１之３８號","E_COORD97":179668.89000000001,"N_COORD97":2577926.4900000002,"ADDRESS":"復興路１之３８號","OBJECTID":75697},"geometry":{"x":179668.8900000006,"y":2577926.4900000021}},{"attributes":{"ID":75698,"DIS_CODE":0,"TOWNNAME":"西港區","LI":"營西里","LIN":"6鄰","STREET":" ","SECT":" ","MAREA":"後營","LANE":" ","ALLEY":" ","HOUSE_NO":"５２號","E_COORD97":169753.66,"N_COORD97":2560321.7999999998,"ADDRESS":"後營５２號","OBJECTID":75698},"geometry":{"x":169753.66000000108,"y":2560321.8000000026}},{"attributes":{"ID":75699,"DIS_CODE":0,"TOWNNAME":"新營區","LI":"新東里","LIN":"7鄰","STREET":"東學路","SECT":" ","MAREA":" ","LANE":" ","ALLEY":" ","HOUSE_NO":"１６６號","E_COORD97":181174.89000000001,"N_COORD97":2579360.1499999999,"ADDRESS":"東學路１６６號","OBJECTID":75699},"geometry":{"x":181174.88999999966,"y":2579360.1500000004}},{"attributes":{"ID":75700,"DIS_CODE":0,"TOWNNAME":"左鎮區","LI":"榮和里","LIN":"6鄰","STREET":" ","SECT":" ","MAREA":"菜寮","LANE":" ","ALLEY":" ","HOUSE_NO":"５６號","E_COORD97":187216.54000000001,"N_COORD97":2551525.25,"ADDRESS":"菜寮５６號","OBJECTID":75700},"geometry":{"x":187216.54000000097,"y":2551525.2499999981}},{"attributes":{"ID":75701,"DIS_CODE":0,"TOWNNAME":"左鎮區","LI":"中正里","LIN":"6鄰","STREET":" ","SECT":" ","MAREA":"中正","LANE":" ","ALLEY":" ","HOUSE_NO":"７６號之１","E_COORD97":189753.20000000001,"N_COORD97":2550985.2999999998,"ADDRESS":"中正７６號之１","OBJECTID":75701},"geometry":{"x":189753.20000000112,"y":2550985.3000000007}},{"attributes":{"ID":75702,"DIS_CODE":0,"TOWNNAME":"左鎮區","LI":"睦光里","LIN":"6鄰","STREET":" ","SECT":" ","MAREA":"睦光","LANE":" ","ALLEY":" ","HOUSE_NO":"６３號之２","E_COORD97":190539.31,"N_COORD97":2550035.2999999998,"ADDRESS":"睦光６３號之２","OBJECTID":75702},"geometry":{"x":190539.30999999959,"y":2550035.3000000026}},{"attributes":{"ID":75703,"DIS_CODE":0,"TOWNNAME":"左鎮區","LI":"中正里","LIN":"6鄰","STREET":" ","SECT":" ","MAREA":"中正","LANE":" ","ALLEY":" ","HOUSE_NO":"７３號之３","E_COORD97":189693.20000000001,"N_COORD97":2551112.2999999998,"ADDRESS":"中正７３號之３","OBJECTID":75703},"geometry":{"x":189693.20000000019,"y":2551112.3000000045}},{"attributes":{"ID":75704,"DIS_CODE":0,"TOWNNAME":"左鎮區","LI":"睦光里","LIN":"6鄰","STREET":" ","SECT":" ","MAREA":"睦光","LANE":" ","ALLEY":" ","HOUSE_NO":"６５號之４","E_COORD97":190616,"N_COORD97":2549964.2999999998,"ADDRESS":"睦光６５號之４","OBJECTID":75704},"geometry":{"x":190616.00000000093,"y":2549964.3000000026}},{"attributes":{"ID":75705,"DIS_CODE":0,"TOWNNAME":"左鎮區","LI":"榮和里","LIN":"6鄰","STREET":" ","SECT":" ","MAREA":"菜寮","LANE":" ","ALLEY":" ","HOUSE_NO":"６２號之２６","E_COORD97":187360.03,"N_COORD97":2551451.2999999998,"ADDRESS":"菜寮６２號之２６","OBJECTID":75705},"geometry":{"x":187360.03000000026,"y":2551451.3000000045}},{"attributes":{"ID":75706,"DIS_CODE":0,"TOWNNAME":"新營區","LI":"太南里","LIN":"6鄰","STREET":" ","SECT":" ","MAREA":"太子宮","LANE":" ","ALLEY":" ","HOUSE_NO":"２１３號","E_COORD97":176158.13,"N_COORD97":2576901.3999999999,"ADDRESS":"太子宮２１３號","OBJECTID":75706},"geometry":{"x":176158.13000000082,"y":2576901.4000000004}},{"attributes":{"ID":75707,"DIS_CODE":0,"TOWNNAME":"東區","LI":"富強里","LIN":"19鄰","STREET":"裕農路","SECT":" ","MAREA":" ","LANE":"２８８巷","ALLEY":"１１０弄","HOUSE_NO":"２３號","E_COORD97":171016.5,"N_COORD97":2542883.8100000001,"ADDRESS":"裕農路２８８巷１１０弄２３號","OBJECTID":75707},"geometry":{"x":171016.5,"y":2542883.8100000024}},{"attributes":{"ID":75708,"DIS_CODE":0,"TOWNNAME":"左鎮區","LI":"榮和里","LIN":"6鄰","STREET":" ","SECT":" ","MAREA":"菜寮","LANE":" ","ALLEY":" ","HOUSE_NO":"６２號之１７","E_COORD97":187330.60000000001,"N_COORD97":2551467.2999999998,"ADDRESS":"菜寮６２號之１７","OBJECTID":75708},"geometry":{"x":187330.60000000149,"y":2551467.3000000007}},{"attributes":{"ID":75709,"DIS_CODE":0,"TOWNNAME":"東區","LI":"富強里","LIN":"19鄰","STREET":"裕農路","SECT":" ","MAREA":" ","LANE":"２８８巷","ALLEY":"１１０弄","HOUSE_NO":"１４號","E_COORD97":170995.94,"N_COORD97":2542886.1600000001,"ADDRESS":"裕農路２８８巷１１０弄１４號","OBJECTID":75709},"geometry":{"x":170995.94000000227,"y":2542886.1600000001}},{"attributes":{"ID":75710,"DIS_CODE":0,"TOWNNAME":"左鎮區","LI":"內庄里","LIN":"6鄰","STREET":" ","SECT":" ","MAREA":"內庄","LANE":" ","ALLEY":" ","HOUSE_NO":"５４號之９","E_COORD97":190701.04999999999,"N_COORD97":2549338.2999999998,"ADDRESS":"內庄５４號之９","OBJECTID":75710},"geometry":{"x":190701.04999999888,"y":2549338.3000000007}},{"attributes":{"ID":75711,"DIS_CODE":0,"TOWNNAME":"左鎮區","LI":"睦光里","LIN":"6鄰","STREET":" ","SECT":" ","MAREA":"睦光","LANE":" ","ALLEY":" ","HOUSE_NO":"６０號之１","E_COORD97":190502.88,"N_COORD97":2550044.2999999998,"ADDRESS":"睦光６０號之１","OBJECTID":75711},"geometry":{"x":190502.88000000082,"y":2550044.3000000045}},{"attributes":{"ID":75712,"DIS_CODE":0,"TOWNNAME":"左鎮區","LI":"睦光里","LIN":"6鄰","STREET":" ","SECT":" ","MAREA":"睦光","LANE":" ","ALLEY":" ","HOUSE_NO":"６５號之３","E_COORD97":190596.07000000001,"N_COORD97":2549907.2999999998,"ADDRESS":"睦光６５號之３","OBJECTID":75712},"geometry":{"x":190596.0700000003,"y":2549907.3000000007}},{"attributes":{"ID":75713,"DIS_CODE":0,"TOWNNAME":"左鎮區","LI":"睦光里","LIN":"6鄰","STREET":" ","SECT":" ","MAREA":"睦光","LANE":" ","ALLEY":" ","HOUSE_NO":"６０號","E_COORD97":190505.44,"N_COORD97":2550015.25,"ADDRESS":"睦光６０號","OBJECTID":75713},"geometry":{"x":190505.44000000041,"y":2550015.25}},{"attributes":{"ID":75714,"DIS_CODE":0,"TOWNNAME":"左鎮區","LI":"榮和里","LIN":"6鄰","STREET":" ","SECT":" ","MAREA":"菜寮","LANE":" ","ALLEY":" ","HOUSE_NO":"６２號之３０","E_COORD97":187371.98000000001,"N_COORD97":2551307.2999999998,"ADDRESS":"菜寮６２號之３０","OBJECTID":75714},"geometry":{"x":187371.98000000138,"y":2551307.3000000007}},{"attributes":{"ID":75715,"DIS_CODE":0,"TOWNNAME":"左鎮區","LI":"榮和里","LIN":"6鄰","STREET":" ","SECT":" ","MAREA":"菜寮","LANE":" ","ALLEY":" ","HOUSE_NO":"６２號之１１","E_COORD97":187425.42999999999,"N_COORD97":2551418.2999999998,"ADDRESS":"菜寮６２號之１１","OBJECTID":75715},"geometry":{"x":187425.43000000063,"y":2551418.3000000026}},{"attributes":{"ID":75716,"DIS_CODE":0,"TOWNNAME":"左鎮區","LI":"內庄里","LIN":"6鄰","STREET":" ","SECT":" ","MAREA":"內庄","LANE":" ","ALLEY":" ","HOUSE_NO":"５７號之５","E_COORD97":190795.82000000001,"N_COORD97":2549934.2999999998,"ADDRESS":"內庄５７號之５","OBJECTID":75716},"geometry":{"x":190795.8200000003,"y":2549934.3000000007}},{"attributes":{"ID":75717,"DIS_CODE":0,"TOWNNAME":"左鎮區","LI":"榮和里","LIN":"6鄰","STREET":" ","SECT":" ","MAREA":"菜寮","LANE":" ","ALLEY":" ","HOUSE_NO":"６２號之１５","E_COORD97":187356.38,"N_COORD97":2551422.2999999998,"ADDRESS":"菜寮６２號之１５","OBJECTID":75717},"geometry":{"x":187356.38000000082,"y":2551422.3000000026}},{"attributes":{"ID":75718,"DIS_CODE":0,"TOWNNAME":"左鎮區","LI":"內庄里","LIN":"6鄰","STREET":" ","SECT":" ","MAREA":"內庄","LANE":" ","ALLEY":" ","HOUSE_NO":"５４號之１１","E_COORD97":190762.70999999999,"N_COORD97":2549366.2999999998,"ADDRESS":"內庄５４號之１１","OBJECTID":75718},"geometry":{"x":190762.70999999996,"y":2549366.3000000045}},{"attributes":{"ID":75719,"DIS_CODE":0,"TOWNNAME":"左鎮區","LI":"榮和里","LIN":"6鄰","STREET":" ","SECT":" ","MAREA":"菜寮","LANE":" ","ALLEY":" ","HOUSE_NO":"６２號之２１","E_COORD97":187340.73000000001,"N_COORD97":2551460.2999999998,"ADDRESS":"菜寮６２號之２１","OBJECTID":75719},"geometry":{"x":187340.73000000231,"y":2551460.3000000007}},{"attributes":{"ID":75720,"DIS_CODE":0,"TOWNNAME":"左鎮區","LI":"睦光里","LIN":"6鄰","STREET":" ","SECT":" ","MAREA":"睦光","LANE":" ","ALLEY":" ","HOUSE_NO":"６５號","E_COORD97":190545.34,"N_COORD97":2549984.25,"ADDRESS":"睦光６５號","OBJECTID":75720},"geometry":{"x":190545.34000000078,"y":2549984.2500000019}},{"attributes":{"ID":75721,"DIS_CODE":0,"TOWNNAME":"左鎮區","LI":"內庄里","LIN":"6鄰","STREET":" ","SECT":" ","MAREA":"內庄","LANE":" ","ALLEY":" ","HOUSE_NO":"５７號之９","E_COORD97":190819.81,"N_COORD97":2549911.3100000001,"ADDRESS":"內庄５７號之９","OBJECTID":75721},"geometry":{"x":190819.81000000052,"y":2549911.3100000005}},{"attributes":{"ID":75722,"DIS_CODE":0,"TOWNNAME":"安南區","LI":"安慶里","LIN":"19鄰","STREET":"安中路","SECT":"一段","MAREA":" ","LANE":"１８９巷","ALLEY":"６３弄","HOUSE_NO":"２３號","E_COORD97":168837.82999999999,"N_COORD97":2548331.7200000002,"ADDRESS":"安中路一段１８９巷６３弄２３號","OBJECTID":75722},"geometry":{"x":168837.83000000007,"y":2548331.7200000007}},{"attributes":{"ID":75723,"DIS_CODE":0,"TOWNNAME":"左鎮區","LI":"睦光里","LIN":"6鄰","STREET":" ","SECT":" ","MAREA":"睦光","LANE":" ","ALLEY":" ","HOUSE_NO":"６５號之５","E_COORD97":190534.73000000001,"N_COORD97":2549926.2200000002,"ADDRESS":"睦光６５號之５","OBJECTID":75723},"geometry":{"x":190534.73000000138,"y":2549926.2200000044}},{"attributes":{"ID":75724,"DIS_CODE":0,"TOWNNAME":"左鎮區","LI":"睦光里","LIN":"6鄰","STREET":" ","SECT":" ","MAREA":"睦光","LANE":" ","ALLEY":" ","HOUSE_NO":"６５號之５","E_COORD97":190544.87,"N_COORD97":2549906.8700000001,"ADDRESS":"睦光６５號之５","OBJECTID":75724},"geometry":{"x":190544.87000000011,"y":2549906.870000001}},{"attributes":{"ID":75725,"DIS_CODE":0,"TOWNNAME":"新營區","LI":"五興里","LIN":"6鄰","STREET":" ","SECT":" ","MAREA":"五間厝","LANE":" ","ALLEY":" ","HOUSE_NO":"６９之１號","E_COORD97":175811,"N_COORD97":2574754.71,"ADDRESS":"五間厝６９之１號","OBJECTID":75725},"geometry":{"x":175811,"y":2574754.7100000028}},{"attributes":{"ID":75726,"DIS_CODE":0,"TOWNNAME":"新營區","LI":"五興里","LIN":"6鄰","STREET":" ","SECT":" ","MAREA":"五間厝","LANE":" ","ALLEY":" ","HOUSE_NO":"７３之８號","E_COORD97":175916.38,"N_COORD97":2574750.8599999999,"ADDRESS":"五間厝７３之８號","OBJECTID":75726},"geometry":{"x":175916.37999999989,"y":2574750.8599999994}},{"attributes":{"ID":75727,"DIS_CODE":0,"TOWNNAME":"新營區","LI":"五興里","LIN":"6鄰","STREET":" ","SECT":" ","MAREA":"五間厝","LANE":" ","ALLEY":" ","HOUSE_NO":"７３之１９號","E_COORD97":175904.29000000001,"N_COORD97":2574744.29,"ADDRESS":"五間厝７３之１９號","OBJECTID":75727},"geometry":{"x":175904.29000000097,"y":2574744.2899999991}},{"attributes":{"ID":75728,"DIS_CODE":0,"TOWNNAME":"新營區","LI":"五興里","LIN":"6鄰","STREET":" ","SECT":" ","MAREA":"五間厝","LANE":" ","ALLEY":" ","HOUSE_NO":"７３之７號","E_COORD97":175921.45000000001,"N_COORD97":2574743.0899999999,"ADDRESS":"五間厝７３之７號","OBJECTID":75728},"geometry":{"x":175921.45000000019,"y":2574743.0899999999}},{"attributes":{"ID":75729,"DIS_CODE":0,"TOWNNAME":"安南區","LI":"佃東里","LIN":"19鄰","STREET":"公學路","SECT":"四段","MAREA":" ","LANE":"１２２巷","ALLEY":"９６弄","HOUSE_NO":"３２號","E_COORD97":165658.51999999999,"N_COORD97":2552299.8999999999,"ADDRESS":"公學路四段１２２巷９６弄３２號","OBJECTID":75729},"geometry":{"x":165658.52000000048,"y":2552299.9000000004}},{"attributes":{"ID":75730,"DIS_CODE":0,"TOWNNAME":"歸仁區","LI":"大廟里","LIN":"7鄰","STREET":"大廟一街","SECT":" ","MAREA":" ","LANE":"１２３巷","ALLEY":" ","HOUSE_NO":"２６號","E_COORD97":175789.57000000001,"N_COORD97":2543851.25,"ADDRESS":"大廟一街１２３巷２６號","OBJECTID":75730},"geometry":{"x":175789.57000000123,"y":2543851.2500000019}},{"attributes":{"ID":75731,"DIS_CODE":0,"TOWNNAME":"新營區","LI":"新南里","LIN":"8鄰","STREET":"新北五街","SECT":" ","MAREA":" ","LANE":" ","ALLEY":" ","HOUSE_NO":"８２號","E_COORD97":178621.13,"N_COORD97":2579004.5600000001,"ADDRESS":"新北五街８２號","OBJECTID":75731},"geometry":{"x":178621.13000000082,"y":2579004.5600000024}},{"attributes":{"ID":75732,"DIS_CODE":0,"TOWNNAME":"新營區","LI":"民生里","LIN":"8鄰","STREET":"復興路","SECT":" ","MAREA":" ","LANE":" ","ALLEY":" ","HOUSE_NO":"１４２號","E_COORD97":179315.31,"N_COORD97":2578046.6099999999,"ADDRESS":"復興路１４２號","OBJECTID":75732},"geometry":{"x":179315.30999999959,"y":2578046.6100000013}},{"attributes":{"ID":75733,"DIS_CODE":0,"TOWNNAME":"新營區","LI":"忠政里","LIN":"25鄰","STREET":"府西路","SECT":" ","MAREA":" ","LANE":" ","ALLEY":" ","HOUSE_NO":"９２之１號","E_COORD97":179814.54000000001,"N_COORD97":2579313.4300000002,"ADDRESS":"府西路９２之１號","OBJECTID":75733},"geometry":{"x":179814.54000000004,"y":2579313.4299999997}},{"attributes":{"ID":75734,"DIS_CODE":0,"TOWNNAME":"新營區","LI":"新東里","LIN":"8鄰","STREET":"東學路","SECT":" ","MAREA":" ","LANE":" ","ALLEY":" ","HOUSE_NO":"１０５號","E_COORD97":181204.72,"N_COORD97":2579395.4500000002,"ADDRESS":"東學路１０５號","OBJECTID":75734},"geometry":{"x":181204.71999999974,"y":2579395.4499999974}},{"attributes":{"ID":75735,"DIS_CODE":0,"TOWNNAME":"柳營區","LI":"果毅里","LIN":"7鄰","STREET":" ","SECT":" ","MAREA":"果毅後","LANE":" ","ALLEY":" ","HOUSE_NO":"８６號","E_COORD97":185711.19,"N_COORD97":2572810,"ADDRESS":"果毅後８６號","OBJECTID":75735},"geometry":{"x":185711.19000000041,"y":2572810.0000000019}},{"attributes":{"ID":75736,"DIS_CODE":0,"TOWNNAME":"柳營區","LI":"果毅里","LIN":"7鄰","STREET":" ","SECT":" ","MAREA":"果毅後","LANE":" ","ALLEY":" ","HOUSE_NO":"８０號","E_COORD97":185770.70000000001,"N_COORD97":2572878.8100000001,"ADDRESS":"果毅後８０號","OBJECTID":75736},"geometry":{"x":185770.70000000019,"y":2572878.8100000024}},{"attributes":{"ID":75737,"DIS_CODE":0,"TOWNNAME":"安南區","LI":"佃東里","LIN":"19鄰","STREET":"公學路","SECT":"四段","MAREA":" ","LANE":"１２２巷","ALLEY":"９６弄","HOUSE_NO":"４０號","E_COORD97":165676.72,"N_COORD97":2552299.46,"ADDRESS":"公學路四段１２２巷９６弄４０號","OBJECTID":75737},"geometry":{"x":165676.71999999974,"y":2552299.4600000028}},{"attributes":{"ID":75738,"DIS_CODE":0,"TOWNNAME":"柳營區","LI":"果毅里","LIN":"7鄰","STREET":" ","SECT":" ","MAREA":"果毅後","LANE":" ","ALLEY":" ","HOUSE_NO":"７７號","E_COORD97":185706.79999999999,"N_COORD97":2572870.3500000001,"ADDRESS":"果毅後７７號","OBJECTID":75738},"geometry":{"x":185706.79999999981,"y":2572870.3500000034}},{"attributes":{"ID":75739,"DIS_CODE":0,"TOWNNAME":"柳營區","LI":"果毅里","LIN":"7鄰","STREET":" ","SECT":" ","MAREA":"果毅後","LANE":" ","ALLEY":" ","HOUSE_NO":"７８號之１","E_COORD97":185714.57000000001,"N_COORD97":2572852.0499999998,"ADDRESS":"果毅後７８號之１","OBJECTID":75739},"geometry":{"x":185714.57000000123,"y":2572852.0500000007}},{"attributes":{"ID":75740,"DIS_CODE":0,"TOWNNAME":"北門區","LI":"永華里","LIN":"1鄰","STREET":" ","SECT":" ","MAREA":"井子\u25A0","LANE":" ","ALLEY":" ","HOUSE_NO":"４號","E_COORD97":160198.91,"N_COORD97":2573135.5600000001,"ADDRESS":"井子\u25A0４號","OBJECTID":75740},"geometry":{"x":160198.91000000015,"y":2573135.5600000024}},{"attributes":{"ID":75741,"DIS_CODE":0,"TOWNNAME":"新營區","LI":"五興里","LIN":"6鄰","STREET":" ","SECT":" ","MAREA":"五間厝","LANE":" ","ALLEY":" ","HOUSE_NO":"７３之１７號","E_COORD97":175902.28,"N_COORD97":2574750.9399999999,"ADDRESS":"五間厝７３之１７號","OBJECTID":75741},"geometry":{"x":175902.28000000026,"y":2574750.9399999976}},{"attributes":{"ID":75742,"DIS_CODE":0,"TOWNNAME":"安南區","LI":"海東里","LIN":"19鄰","STREET":"海佃路","SECT":"二段","MAREA":" ","LANE":"２６５巷","ALLEY":"５８弄","HOUSE_NO":"５號","E_COORD97":166592.48000000001,"N_COORD97":2548574.3700000001,"ADDRESS":"海佃路二段２６５巷５８弄５號","OBJECTID":75742},"geometry":{"x":166592.48000000045,"y":2548574.3700000029}},{"attributes":{"ID":75743,"DIS_CODE":0,"TOWNNAME":"安南區","LI":"溪東里","LIN":"19鄰","STREET":"府安路","SECT":"五段","MAREA":" ","LANE":"１１巷","ALLEY":"９３弄","HOUSE_NO":"１３號","E_COORD97":168378.62,"N_COORD97":2547613.23,"ADDRESS":"府安路五段１１巷９３弄１３號","OBJECTID":75743},"geometry":{"x":168378.61999999918,"y":2547613.2300000004}},{"attributes":{"ID":75744,"DIS_CODE":0,"TOWNNAME":"新營區","LI":"五興里","LIN":"6鄰","STREET":" ","SECT":" ","MAREA":"五間厝","LANE":" ","ALLEY":" ","HOUSE_NO":"７３號","E_COORD97":175871.91,"N_COORD97":2574746.5899999999,"ADDRESS":"五間厝７３號","OBJECTID":75744},"geometry":{"x":175871.91000000108,"y":2574746.5899999999}},{"attributes":{"ID":75745,"DIS_CODE":0,"TOWNNAME":"新營區","LI":"五興里","LIN":"6鄰","STREET":" ","SECT":" ","MAREA":"五間厝","LANE":" ","ALLEY":" ","HOUSE_NO":"７３之１６號","E_COORD97":175901.26999999999,"N_COORD97":2574754.27,"ADDRESS":"五間厝７３之１６號","OBJECTID":75745},"geometry":{"x":175901.26999999955,"y":2574754.2699999996}},{"attributes":{"ID":75746,"DIS_CODE":0,"TOWNNAME":"安南區","LI":"溪東里","LIN":"19鄰","STREET":"府安路","SECT":"五段","MAREA":" ","LANE":"１１巷","ALLEY":"９３弄","HOUSE_NO":"１５號","E_COORD97":168372.75,"N_COORD97":2547612.6400000001,"ADDRESS":"府安路五段１１巷９３弄１５號","OBJECTID":75746},"geometry":{"x":168372.75000000186,"y":2547612.6400000025}},{"attributes":{"ID":75747,"DIS_CODE":0,"TOWNNAME":"安南區","LI":"溪東里","LIN":"19鄰","STREET":"府安路","SECT":"五段","MAREA":" ","LANE":"１１巷","ALLEY":"９３弄","HOUSE_NO":"１７號","E_COORD97":168365.89999999999,"N_COORD97":2547611.8900000001,"ADDRESS":"府安路五段１１巷９３弄１７號","OBJECTID":75747},"geometry":{"x":168365.9000000013,"y":2547611.8900000006}},{"attributes":{"ID":75748,"DIS_CODE":0,"TOWNNAME":"新營區","LI":"五興里","LIN":"6鄰","STREET":" ","SECT":" ","MAREA":"五間厝","LANE":" ","ALLEY":" ","HOUSE_NO":"６６號","E_COORD97":175822.01999999999,"N_COORD97":2574798.8999999999,"ADDRESS":"五間厝６６號","OBJECTID":75748},"geometry":{"x":175822.01999999955,"y":2574798.9000000004}},{"attributes":{"ID":75749,"DIS_CODE":0,"TOWNNAME":"安南區","LI":"溪東里","LIN":"19鄰","STREET":"府安路","SECT":"五段","MAREA":" ","LANE":"１１巷","ALLEY":"９３弄","HOUSE_NO":"１８號","E_COORD97":168363.76200399999,"N_COORD97":2547629.67435,"ADDRESS":"府安路五段１１巷９３弄１８號","OBJECTID":75749},"geometry":{"x":168363.76200400107,"y":2547629.6743490044}},{"attributes":{"ID":75750,"DIS_CODE":0,"TOWNNAME":"永康區","LI":"中華里","LIN":"19鄰","STREET":"小東路","SECT":" ","MAREA":" ","LANE":"４７７巷","ALLEY":"４６弄","HOUSE_NO":"１號之４３","E_COORD97":171658.45999999999,"N_COORD97":2544537.0499999998,"ADDRESS":"小東路４７７巷４６弄１號之４３","OBJECTID":75750},"geometry":{"x":171658.46000000089,"y":2544537.0500000026}},{"attributes":{"ID":75751,"DIS_CODE":0,"TOWNNAME":"新營區","LI":"姑爺里","LIN":"6鄰","STREET":" ","SECT":" ","MAREA":"姑爺","LANE":" ","ALLEY":" ","HOUSE_NO":"４７號","E_COORD97":174281.60999999999,"N_COORD97":2574867.5899999999,"ADDRESS":"姑爺４７號","OBJECTID":75751},"geometry":{"x":174281.6099999994,"y":2574867.5899999999}},{"attributes":{"ID":75752,"DIS_CODE":0,"TOWNNAME":"新營區","LI":"五興里","LIN":"6鄰","STREET":" ","SECT":" ","MAREA":"五間厝","LANE":" ","ALLEY":" ","HOUSE_NO":"７３之２０號","E_COORD97":175905.29999999999,"N_COORD97":2574740.96,"ADDRESS":"五間厝７３之２０號","OBJECTID":75752},"geometry":{"x":175905.29999999981,"y":2574740.9600000009}},{"attributes":{"ID":75753,"DIS_CODE":0,"TOWNNAME":"永康區","LI":"中華里","LIN":"19鄰","STREET":"小東路","SECT":" ","MAREA":" ","LANE":"４７７巷","ALLEY":"４６弄","HOUSE_NO":"１號之４１","E_COORD97":171658.35999999999,"N_COORD97":2544537.0499999998,"ADDRESS":"小東路４７７巷４６弄１號之４１","OBJECTID":75753},"geometry":{"x":171658.36000000127,"y":2544537.0500000026}},{"attributes":{"ID":75754,"DIS_CODE":0,"TOWNNAME":"永康區","LI":"中華里","LIN":"19鄰","STREET":"小東路","SECT":" ","MAREA":" ","LANE":"４７７巷","ALLEY":"４６弄","HOUSE_NO":"１號之２０","E_COORD97":171658.42000000001,"N_COORD97":2544537.0499999998,"ADDRESS":"小東路４７７巷４６弄１號之２０","OBJECTID":75754},"geometry":{"x":171658.42000000179,"y":2544537.0500000026}},{"attributes":{"ID":75755,"DIS_CODE":0,"TOWNNAME":"永康區","LI":"中華里","LIN":"19鄰","STREET":"小東路","SECT":" ","MAREA":" ","LANE":"４７７巷","ALLEY":"４６弄","HOUSE_NO":"１號之２３","E_COORD97":171658.45999999999,"N_COORD97":2544537.0499999998,"ADDRESS":"小東路４７７巷４６弄１號之２３","OBJECTID":75755},"geometry":{"x":171658.46000000089,"y":2544537.0500000026}},{"attributes":{"ID":75756,"DIS_CODE":0,"TOWNNAME":"新營區","LI":"護鎮里","LIN":"6鄰","STREET":" ","SECT":" ","MAREA":"後鎮","LANE":" ","ALLEY":" ","HOUSE_NO":"６２之９號","E_COORD97":179014.59,"N_COORD97":2581199.9199999999,"ADDRESS":"後鎮６２之９號","OBJECTID":75756},"geometry":{"x":179014.59000000078,"y":2581199.9199999999}},{"attributes":{"ID":75757,"DIS_CODE":0,"TOWNNAME":"新營區","LI":"五興里","LIN":"6鄰","STREET":" ","SECT":" ","MAREA":"五間厝","LANE":" ","ALLEY":" ","HOUSE_NO":"７０之３號","E_COORD97":175834.41,"N_COORD97":2574726.9100000001,"ADDRESS":"五間厝７０之３號","OBJECTID":75757},"geometry":{"x":175834.41000000108,"y":2574726.9100000001}},{"attributes":{"ID":75758,"DIS_CODE":0,"TOWNNAME":"永康區","LI":"中華里","LIN":"19鄰","STREET":"小東路","SECT":" ","MAREA":" ","LANE":"４７７巷","ALLEY":"４６弄","HOUSE_NO":"５號之２５","E_COORD97":171654.47,"N_COORD97":2544535.6600000001,"ADDRESS":"小東路４７７巷４６弄５號之２５","OBJECTID":75758},"geometry":{"x":171654.4700000016,"y":2544535.660000002}},{"attributes":{"ID":75759,"DIS_CODE":0,"TOWNNAME":"新營區","LI":"埤寮里","LIN":"6鄰","STREET":" ","SECT":" ","MAREA":"埤寮","LANE":" ","ALLEY":" ","HOUSE_NO":"２５之１３號","E_COORD97":180374.34,"N_COORD97":2580833.5499999998,"ADDRESS":"埤寮２５之１３號","OBJECTID":75759},"geometry":{"x":180374.34000000078,"y":2580833.5500000007}},{"attributes":{"ID":75760,"DIS_CODE":0,"TOWNNAME":"永康區","LI":"中華里","LIN":"19鄰","STREET":"小東路","SECT":" ","MAREA":" ","LANE":"４７７巷","ALLEY":"４６弄","HOUSE_NO":"５號之１７","E_COORD97":171654.39000000001,"N_COORD97":2544535.6600000001,"ADDRESS":"小東路４７７巷４６弄５號之１７","OBJECTID":75760},"geometry":{"x":171654.38999999966,"y":2544535.660000002}},{"attributes":{"ID":75761,"DIS_CODE":0,"TOWNNAME":"永康區","LI":"中華里","LIN":"19鄰","STREET":"小東路","SECT":" ","MAREA":" ","LANE":"４７７巷","ALLEY":"４６弄","HOUSE_NO":"５號之４１","E_COORD97":171654.31,"N_COORD97":2544535.6600000001,"ADDRESS":"小東路４７７巷４６弄５號之４１","OBJECTID":75761},"geometry":{"x":171654.31000000052,"y":2544535.660000002}},{"attributes":{"ID":75762,"DIS_CODE":0,"TOWNNAME":"歸仁區","LI":"文化里","LIN":"8鄰","STREET":"文化三街","SECT":" ","MAREA":" ","LANE":" ","ALLEY":" ","HOUSE_NO":"２１號","E_COORD97":177212.95999999999,"N_COORD97":2541375.3399999999,"ADDRESS":"文化三街２１號","OBJECTID":75762},"geometry":{"x":177212.95999999996,"y":2541375.3400000017}},{"attributes":{"ID":75763,"DIS_CODE":0,"TOWNNAME":"新營區","LI":"護鎮里","LIN":"6鄰","STREET":" ","SECT":" ","MAREA":"後鎮","LANE":" ","ALLEY":" ","HOUSE_NO":"６１號","E_COORD97":179041.51999999999,"N_COORD97":2581149.8999999999,"ADDRESS":"後鎮６１號","OBJECTID":75763},"geometry":{"x":179041.52000000142,"y":2581149.9000000041}},{"attributes":{"ID":75764,"DIS_CODE":0,"TOWNNAME":"柳營區","LI":"果毅里","LIN":"7鄰","STREET":" ","SECT":" ","MAREA":"果毅後","LANE":" ","ALLEY":" ","HOUSE_NO":"７８號之２","E_COORD97":185712.07999999999,"N_COORD97":2572837.4300000002,"ADDRESS":"果毅後７８號之２","OBJECTID":75764},"geometry":{"x":185712.08000000007,"y":2572837.4300000016}},{"attributes":{"ID":75765,"DIS_CODE":0,"TOWNNAME":"柳營區","LI":"果毅里","LIN":"7鄰","STREET":" ","SECT":" ","MAREA":"果毅後","LANE":" ","ALLEY":" ","HOUSE_NO":"８７號之１","E_COORD97":185718.34,"N_COORD97":2572759.3799999999,"ADDRESS":"果毅後８７號之１","OBJECTID":75765},"geometry":{"x":185718.33999999985,"y":2572759.379999999}},{"attributes":{"ID":75766,"DIS_CODE":0,"TOWNNAME":"柳營區","LI":"果毅里","LIN":"7鄰","STREET":" ","SECT":" ","MAREA":"果毅後","LANE":" ","ALLEY":" ","HOUSE_NO":"８７號之２","E_COORD97":185716.98999999999,"N_COORD97":2572728.1499999999,"ADDRESS":"果毅後８７號之２","OBJECTID":75766},"geometry":{"x":185716.99000000115,"y":2572728.1500000022}},{"attributes":{"ID":75767,"DIS_CODE":0,"TOWNNAME":"柳營區","LI":"果毅里","LIN":"7鄰","STREET":" ","SECT":" ","MAREA":"果毅後","LANE":" ","ALLEY":" ","HOUSE_NO":"８７號之４","E_COORD97":185698.69,"N_COORD97":2572772.6499999999,"ADDRESS":"果毅後８７號之４","OBJECTID":75767},"geometry":{"x":185698.69000000134,"y":2572772.6500000004}},{"attributes":{"ID":75768,"DIS_CODE":0,"TOWNNAME":"永康區","LI":"中華里","LIN":"19鄰","STREET":"小東路","SECT":" ","MAREA":" ","LANE":"４７７巷","ALLEY":"４６弄","HOUSE_NO":"５號之３","E_COORD97":171653.16,"N_COORD97":2544535.6600000001,"ADDRESS":"小東路４７７巷４６弄５號之３","OBJECTID":75768},"geometry":{"x":171653.16000000015,"y":2544535.660000002}},{"attributes":{"ID":75769,"DIS_CODE":0,"TOWNNAME":"柳營區","LI":"東昇里","LIN":"7鄰","STREET":" ","SECT":" ","MAREA":"柳營","LANE":" ","ALLEY":" ","HOUSE_NO":"４２５之１號","E_COORD97":180072.94,"N_COORD97":2575251.6200000001,"ADDRESS":"柳營４２５之１號","OBJECTID":75769},"geometry":{"x":180072.94000000041,"y":2575251.620000001}},{"attributes":{"ID":75770,"DIS_CODE":0,"TOWNNAME":"柳營區","LI":"東昇里","LIN":"7鄰","STREET":" ","SECT":" ","MAREA":"柳營","LANE":" ","ALLEY":" ","HOUSE_NO":"４２５號之１","E_COORD97":180072.94,"N_COORD97":2575251.6200000001,"ADDRESS":"柳營４２５號之１","OBJECTID":75770},"geometry":{"x":180072.94000000041,"y":2575251.620000001}},{"attributes":{"ID":75771,"DIS_CODE":0,"TOWNNAME":"柳營區","LI":"東昇里","LIN":"7鄰","STREET":" ","SECT":" ","MAREA":"柳營","LANE":" ","ALLEY":" ","HOUSE_NO":"４２５之２號","E_COORD97":180075.42999999999,"N_COORD97":2575248.2599999998,"ADDRESS":"柳營４２５之２號","OBJECTID":75771},"geometry":{"x":180075.43000000063,"y":2575248.2600000016}},{"attributes":{"ID":75772,"DIS_CODE":0,"TOWNNAME":"柳營區","LI":"東昇里","LIN":"7鄰","STREET":" ","SECT":" ","MAREA":"柳營","LANE":" ","ALLEY":" ","HOUSE_NO":"４２５之３號","E_COORD97":180077.91,"N_COORD97":2575244.8999999999,"ADDRESS":"柳營４２５之３號","OBJECTID":75772},"geometry":{"x":180077.91000000015,"y":2575244.9000000022}},{"attributes":{"ID":75773,"DIS_CODE":0,"TOWNNAME":"永康區","LI":"中華里","LIN":"19鄰","STREET":"小東路","SECT":" ","MAREA":" ","LANE":"４７７巷","ALLEY":"４６弄","HOUSE_NO":"５號之４２","E_COORD97":171654.45000000001,"N_COORD97":2544535.6600000001,"ADDRESS":"小東路４７７巷４６弄５號之４２","OBJECTID":75773},"geometry":{"x":171654.45000000019,"y":2544535.660000002}},{"attributes":{"ID":75774,"DIS_CODE":0,"TOWNNAME":"永康區","LI":"中華里","LIN":"19鄰","STREET":"小東路","SECT":" ","MAREA":" ","LANE":"４７７巷","ALLEY":"４６弄","HOUSE_NO":"５號之１０","E_COORD97":171654.35999999999,"N_COORD97":2544535.6600000001,"ADDRESS":"小東路４７７巷４６弄５號之１０","OBJECTID":75774},"geometry":{"x":171654.36000000127,"y":2544535.660000002}},{"attributes":{"ID":75775,"DIS_CODE":0,"TOWNNAME":"永康區","LI":"中華里","LIN":"19鄰","STREET":"小東路","SECT":" ","MAREA":" ","LANE":"４７７巷","ALLEY":"４６弄","HOUSE_NO":"５號之２３","E_COORD97":171654.41,"N_COORD97":2544535.6600000001,"ADDRESS":"小東路４７７巷４６弄５號之２３","OBJECTID":75775},"geometry":{"x":171654.41000000108,"y":2544535.660000002}},{"attributes":{"ID":75776,"DIS_CODE":0,"TOWNNAME":"柳營區","LI":"中埕里","LIN":"7鄰","STREET":"建安街","SECT":" ","MAREA":" ","LANE":" ","ALLEY":" ","HOUSE_NO":"６９號","E_COORD97":179929.09,"N_COORD97":2575060.3999999999,"ADDRESS":"建安街６９號","OBJECTID":75776},"geometry":{"x":179929.08999999985,"y":2575060.4000000004}},{"attributes":{"ID":75777,"DIS_CODE":0,"TOWNNAME":"柳營區","LI":"東昇里","LIN":"7鄰","STREET":" ","SECT":" ","MAREA":"柳營","LANE":" ","ALLEY":" ","HOUSE_NO":"４２５之４號","E_COORD97":180080.39000000001,"N_COORD97":2575241.5299999998,"ADDRESS":"柳營４２５之４號","OBJECTID":75777},"geometry":{"x":180080.3900000006,"y":2575241.5299999993}},{"attributes":{"ID":75778,"DIS_CODE":0,"TOWNNAME":"柳營區","LI":"旭山里","LIN":"7鄰","STREET":" ","SECT":" ","MAREA":"麻埔","LANE":" ","ALLEY":" ","HOUSE_NO":"１３號","E_COORD97":187080.44,"N_COORD97":2572447.1699999999,"ADDRESS":"麻埔１３號","OBJECTID":75778},"geometry":{"x":187080.44000000134,"y":2572447.1699999999}},{"attributes":{"ID":75779,"DIS_CODE":0,"TOWNNAME":"柳營區","LI":"旭山里","LIN":"7鄰","STREET":" ","SECT":" ","MAREA":"麻埔","LANE":" ","ALLEY":" ","HOUSE_NO":"１８號","E_COORD97":187092.76000000001,"N_COORD97":2572215.1600000001,"ADDRESS":"麻埔１８號","OBJECTID":75779},"geometry":{"x":187092.76000000071,"y":2572215.160000002}},{"attributes":{"ID":75780,"DIS_CODE":0,"TOWNNAME":"柳營區","LI":"旭山里","LIN":"7鄰","STREET":" ","SECT":" ","MAREA":"麻埔","LANE":" ","ALLEY":" ","HOUSE_NO":"２０號","E_COORD97":187349.39000000001,"N_COORD97":2571834.4100000001,"ADDRESS":"麻埔２０號","OBJECTID":75780},"geometry":{"x":187349.3900000006,"y":2571834.410000002}},{"attributes":{"ID":75781,"DIS_CODE":0,"TOWNNAME":"柳營區","LI":"旭山里","LIN":"7鄰","STREET":" ","SECT":" ","MAREA":"麻埔","LANE":" ","ALLEY":" ","HOUSE_NO":"２１之２號","E_COORD97":186845.17000000001,"N_COORD97":2572918.3700000001,"ADDRESS":"麻埔２１之２號","OBJECTID":75781},"geometry":{"x":186845.16999999993,"y":2572918.370000001}},{"attributes":{"ID":75782,"DIS_CODE":0,"TOWNNAME":"柳營區","LI":"旭山里","LIN":"7鄰","STREET":" ","SECT":" ","MAREA":"麻埔","LANE":" ","ALLEY":" ","HOUSE_NO":"４號之１","E_COORD97":187394.29999999999,"N_COORD97":2572376.4500000002,"ADDRESS":"麻埔４號之１","OBJECTID":75782},"geometry":{"x":187394.30000000075,"y":2572376.4499999993}},{"attributes":{"ID":75783,"DIS_CODE":0,"TOWNNAME":"柳營區","LI":"旭山里","LIN":"7鄰","STREET":" ","SECT":" ","MAREA":"麻埔","LANE":" ","ALLEY":" ","HOUSE_NO":"４之２號","E_COORD97":187376.67999999999,"N_COORD97":2572354.4900000002,"ADDRESS":"麻埔４之２號","OBJECTID":75783},"geometry":{"x":187376.68000000063,"y":2572354.4900000039}},{"attributes":{"ID":75784,"DIS_CODE":0,"TOWNNAME":"柳營區","LI":"旭山里","LIN":"7鄰","STREET":" ","SECT":" ","MAREA":"麻埔","LANE":" ","ALLEY":" ","HOUSE_NO":"４號","E_COORD97":187378.10999999999,"N_COORD97":2572142.8799999999,"ADDRESS":"麻埔４號","OBJECTID":75784},"geometry":{"x":187378.11000000034,"y":2572142.879999999}},{"attributes":{"ID":75785,"DIS_CODE":0,"TOWNNAME":"柳營區","LI":"旭山里","LIN":"7鄰","STREET":" ","SECT":" ","MAREA":"麻埔","LANE":" ","ALLEY":" ","HOUSE_NO":"５號","E_COORD97":187410.13,"N_COORD97":2572514.1499999999,"ADDRESS":"麻埔５號","OBJECTID":75785},"geometry":{"x":187410.12999999989,"y":2572514.1500000022}},{"attributes":{"ID":75786,"DIS_CODE":0,"TOWNNAME":"永康區","LI":"中華里","LIN":"19鄰","STREET":"小東路","SECT":" ","MAREA":" ","LANE":"４７７巷","ALLEY":"４６弄","HOUSE_NO":"５號之３１","E_COORD97":171654.31,"N_COORD97":2544535.6600000001,"ADDRESS":"小東路４７７巷４６弄５號之３１","OBJECTID":75786},"geometry":{"x":171654.31000000052,"y":2544535.660000002}},{"attributes":{"ID":75787,"DIS_CODE":0,"TOWNNAME":"永康區","LI":"西橋里","LIN":"19鄰","STREET":"大橋三街","SECT":" ","MAREA":" ","LANE":"５７巷","ALLEY":"７弄","HOUSE_NO":"７３號","E_COORD97":170456.26000000001,"N_COORD97":2546389.8700000001,"ADDRESS":"大橋三街５７巷７弄７３號","OBJECTID":75787},"geometry":{"x":170456.26000000071,"y":2546389.8700000029}},{"attributes":{"ID":75788,"DIS_CODE":0,"TOWNNAME":"柳營區","LI":"旭山里","LIN":"7鄰","STREET":" ","SECT":" ","MAREA":"麻埔","LANE":" ","ALLEY":" ","HOUSE_NO":"７號","E_COORD97":187452.10000000001,"N_COORD97":2572552.02,"ADDRESS":"麻埔７號","OBJECTID":75788},"geometry":{"x":187452.09999999963,"y":2572552.0199999996}},{"attributes":{"ID":75789,"DIS_CODE":0,"TOWNNAME":"新營區","LI":"埤寮里","LIN":"6鄰","STREET":" ","SECT":" ","MAREA":"埤寮","LANE":" ","ALLEY":" ","HOUSE_NO":"２５之８號","E_COORD97":180389.48000000001,"N_COORD97":2580839.0099999998,"ADDRESS":"埤寮２５之８號","OBJECTID":75789},"geometry":{"x":180389.48000000138,"y":2580839.0099999998}},{"attributes":{"ID":75790,"DIS_CODE":0,"TOWNNAME":"永康區","LI":"中華里","LIN":"19鄰","STREET":"小東路","SECT":" ","MAREA":" ","LANE":"４７７巷","ALLEY":"４６弄","HOUSE_NO":"１號之２４","E_COORD97":171658.39000000001,"N_COORD97":2544537.0499999998,"ADDRESS":"小東路４７７巷４６弄１號之２４","OBJECTID":75790},"geometry":{"x":171658.39000000153,"y":2544537.0500000026}},{"attributes":{"ID":75791,"DIS_CODE":0,"TOWNNAME":"永康區","LI":"中華里","LIN":"19鄰","STREET":"小東路","SECT":" ","MAREA":" ","LANE":"４７７巷","ALLEY":"４６弄","HOUSE_NO":"３號之１","E_COORD97":171645.92000000001,"N_COORD97":2544536.3999999999,"ADDRESS":"小東路４７７巷４６弄３號之１","OBJECTID":75791},"geometry":{"x":171645.91999999993,"y":2544536.4000000004}},{"attributes":{"ID":75792,"DIS_CODE":0,"TOWNNAME":"永康區","LI":"中華里","LIN":"19鄰","STREET":"小東路","SECT":" ","MAREA":" ","LANE":"４７７巷","ALLEY":"４６弄","HOUSE_NO":"１號之２８","E_COORD97":171658.51000000001,"N_COORD97":2544537.0499999998,"ADDRESS":"小東路４７７巷４６弄１號之２８","OBJECTID":75792},"geometry":{"x":171658.50999999978,"y":2544537.0500000026}},{"attributes":{"ID":75793,"DIS_CODE":0,"TOWNNAME":"永康區","LI":"中華里","LIN":"19鄰","STREET":"小東路","SECT":" ","MAREA":" ","LANE":"４７７巷","ALLEY":"４６弄","HOUSE_NO":"１號之３３","E_COORD97":171658.45999999999,"N_COORD97":2544537.0499999998,"ADDRESS":"小東路４７７巷４６弄１號之３３","OBJECTID":75793},"geometry":{"x":171658.46000000089,"y":2544537.0500000026}},{"attributes":{"ID":75794,"DIS_CODE":0,"TOWNNAME":"永康區","LI":"中華里","LIN":"19鄰","STREET":"小東路","SECT":" ","MAREA":" ","LANE":"４７７巷","ALLEY":"４６弄","HOUSE_NO":"５號之３３","E_COORD97":171654.41,"N_COORD97":2544535.6600000001,"ADDRESS":"小東路４７７巷４６弄５號之３３","OBJECTID":75794},"geometry":{"x":171654.41000000108,"y":2544535.660000002}},{"attributes":{"ID":75795,"DIS_CODE":0,"TOWNNAME":"永康區","LI":"中華里","LIN":"19鄰","STREET":"小東路","SECT":" ","MAREA":" ","LANE":"４７７巷","ALLEY":"４６弄","HOUSE_NO":"５號之３８","E_COORD97":171654.45999999999,"N_COORD97":2544535.6600000001,"ADDRESS":"小東路４７７巷４６弄５號之３８","OBJECTID":75795},"geometry":{"x":171654.45999999996,"y":2544535.660000002}},{"attributes":{"ID":75796,"DIS_CODE":0,"TOWNNAME":"柳營區","LI":"東昇里","LIN":"7鄰","STREET":"康樂街","SECT":" ","MAREA":" ","LANE":" ","ALLEY":" ","HOUSE_NO":"１９３號","E_COORD97":180102,"N_COORD97":2575280.5499999998,"ADDRESS":"康樂街１９３號","OBJECTID":75796},"geometry":{"x":180102.00000000093,"y":2575280.5500000045}},{"attributes":{"ID":75797,"DIS_CODE":0,"TOWNNAME":"新營區","LI":"埤寮里","LIN":"6鄰","STREET":" ","SECT":" ","MAREA":"埤寮","LANE":" ","ALLEY":" ","HOUSE_NO":"２０號","E_COORD97":180361.69,"N_COORD97":2580897.77,"ADDRESS":"埤寮２０號","OBJECTID":75797},"geometry":{"x":180361.69000000041,"y":2580897.7699999996}},{"attributes":{"ID":75798,"DIS_CODE":0,"TOWNNAME":"柳營區","LI":"東昇里","LIN":"7鄰","STREET":"康樂街","SECT":" ","MAREA":" ","LANE":" ","ALLEY":" ","HOUSE_NO":"１９５號","E_COORD97":180099.14999999999,"N_COORD97":2575287.73,"ADDRESS":"康樂街１９５號","OBJECTID":75798},"geometry":{"x":180099.15000000037,"y":2575287.7300000004}},{"attributes":{"ID":75799,"DIS_CODE":0,"TOWNNAME":"柳營區","LI":"士林里","LIN":"7鄰","STREET":"博愛街","SECT":" ","MAREA":" ","LANE":" ","ALLEY":" ","HOUSE_NO":"５３號","E_COORD97":179489.26000000001,"N_COORD97":2575187.7000000002,"ADDRESS":"博愛街５３號","OBJECTID":75799},"geometry":{"x":179489.25999999978,"y":2575187.7000000011}},{"attributes":{"ID":75800,"DIS_CODE":0,"TOWNNAME":"新營區","LI":"五興里","LIN":"6鄰","STREET":" ","SECT":" ","MAREA":"五間厝","LANE":" ","ALLEY":" ","HOUSE_NO":"６７號","E_COORD97":175827.04000000001,"N_COORD97":2574780.04,"ADDRESS":"五間厝６７號","OBJECTID":75800},"geometry":{"x":175827.04000000004,"y":2574780.0399999991}}]}