{"displayFieldName":"TOWNNAME","fieldAliases":{"ID":"ID","DIS_CODE":"DIS_CODE","TOWNNAME":"TOWNNAME","LI":"LI","LIN":"LIN","STREET":"STREET","SECT":"SECT","MAREA":"MAREA","LANE":"LANE","ALLEY":"ALLEY","HOUSE_NO":"HOUSE_NO","E_COORD97":"E_COORD97","N_COORD97":"N_COORD97","ADDRESS":"ADDRESS","OBJECTID":"OBJECTID"},"geometryType":"esriGeometryPoint","spatialReference":{"wkid":102443,"latestWkid":3826},"fields":[{"name":"ID","type":"esriFieldTypeDouble","alias":"ID"},{"name":"DIS_CODE","type":"esriFieldTypeInteger","alias":"DIS_CODE"},{"name":"TOWNNAME","type":"esriFieldTypeString","alias":"TOWNNAME","length":8},{"name":"LI","type":"esriFieldTypeString","alias":"LI","length":8},{"name":"LIN","type":"esriFieldTypeString","alias":"LIN","length":12},{"name":"STREET","type":"esriFieldTypeString","alias":"STREET","length":20},{"name":"SECT","type":"esriFieldTypeString","alias":"SECT","length":8},{"name":"MAREA","type":"esriFieldTypeString","alias":"MAREA","length":12},{"name":"LANE","type":"esriFieldTypeString","alias":"LANE","length":10},{"name":"ALLEY","type":"esriFieldTypeString","alias":"ALLEY","length":10},{"name":"HOUSE_NO","type":"esriFieldTypeString","alias":"HOUSE_NO","length":20},{"name":"E_COORD97","type":"esriFieldTypeDouble","alias":"E_COORD97"},{"name":"N_COORD97","type":"esriFieldTypeDouble","alias":"N_COORD97"},{"name":"ADDRESS","type":"esriFieldTypeString","alias":"ADDRESS","length":50},{"name":"OBJECTID","type":"esriFieldTypeOID","alias":"OBJECTID"}],"features":[{"attributes":{"ID":29601,"DIS_CODE":0,"TOWNNAME":"安南區","LI":"安東里","LIN":"17鄰","STREET":"安和路","SECT":"一段","MAREA":" ","LANE":"４７８巷","ALLEY":"１２弄","HOUSE_NO":"７號","E_COORD97":169457.23999999999,"N_COORD97":2548392.5600000001,"ADDRESS":"安和路一段４７８巷１２弄７號","OBJECTID":29601},"geometry":{"x":169457.24000000022,"y":2548392.5600000024}},{"attributes":{"ID":29602,"DIS_CODE":0,"TOWNNAME":"安南區","LI":"安東里","LIN":"17鄰","STREET":"安和路","SECT":"一段","MAREA":" ","LANE":"４７８巷","ALLEY":"１２弄","HOUSE_NO":"８號","E_COORD97":169458.07999999999,"N_COORD97":2548388.79,"ADDRESS":"安和路一段４７８巷１２弄８號","OBJECTID":29602},"geometry":{"x":169458.08000000007,"y":2548388.790000001}},{"attributes":{"ID":29603,"DIS_CODE":0,"TOWNNAME":"安南區","LI":"安東里","LIN":"17鄰","STREET":"安和路","SECT":"一段","MAREA":" ","LANE":"４７８巷","ALLEY":"１２弄","HOUSE_NO":"９號","E_COORD97":169457.66,"N_COORD97":2548384.6000000001,"ADDRESS":"安和路一段４７８巷１２弄９號","OBJECTID":29603},"geometry":{"x":169457.66000000015,"y":2548384.6000000015}},{"attributes":{"ID":29604,"DIS_CODE":0,"TOWNNAME":"安南區","LI":"安東里","LIN":"17鄰","STREET":"安和路","SECT":"一段","MAREA":" ","LANE":"４７８巷","ALLEY":"２弄","HOUSE_NO":"５號","E_COORD97":169432.64999999999,"N_COORD97":2548408.4700000002,"ADDRESS":"安和路一段４７８巷２弄５號","OBJECTID":29604},"geometry":{"x":169432.65000000037,"y":2548408.4700000007}},{"attributes":{"ID":29605,"DIS_CODE":0,"TOWNNAME":"安南區","LI":"安東里","LIN":"17鄰","STREET":"安和路","SECT":"一段","MAREA":" ","LANE":"４７８巷","ALLEY":"２弄","HOUSE_NO":"７號","E_COORD97":169432.09,"N_COORD97":2548403.4500000002,"ADDRESS":"安和路一段４７８巷２弄７號","OBJECTID":29605},"geometry":{"x":169432.09000000078,"y":2548403.4499999993}},{"attributes":{"ID":29606,"DIS_CODE":0,"TOWNNAME":"北區","LI":"振興里","LIN":"17鄰","STREET":"開元路","SECT":" ","MAREA":" ","LANE":"２１２巷","ALLEY":"１２４弄","HOUSE_NO":"１０號","E_COORD97":170422.82000000001,"N_COORD97":2545037.1600000001,"ADDRESS":"開元路２１２巷１２４弄１０號","OBJECTID":29606},"geometry":{"x":170422.82000000123,"y":2545037.1600000039}},{"attributes":{"ID":29607,"DIS_CODE":0,"TOWNNAME":"永康區","LI":"東灣里","LIN":"14鄰","STREET":"大灣路","SECT":" ","MAREA":" ","LANE":" ","ALLEY":" ","HOUSE_NO":"３２７號","E_COORD97":174789.16,"N_COORD97":2544962.4700000002,"ADDRESS":"大灣路３２７號","OBJECTID":29607},"geometry":{"x":174789.16000000015,"y":2544962.4700000025}},{"attributes":{"ID":29608,"DIS_CODE":0,"TOWNNAME":"新營區","LI":"新南里","LIN":"17鄰","STREET":"隋唐街","SECT":" ","MAREA":" ","LANE":"３１巷","ALLEY":"６弄","HOUSE_NO":"１７號","E_COORD97":178655.20000000001,"N_COORD97":2578446.2400000002,"ADDRESS":"隋唐街３１巷６弄１７號","OBJECTID":29608},"geometry":{"x":178655.20000000112,"y":2578446.2400000021}},{"attributes":{"ID":29609,"DIS_CODE":0,"TOWNNAME":"安平區","LI":"國平里","LIN":"17鄰","STREET":"華平路","SECT":" ","MAREA":" ","LANE":"２１巷","ALLEY":"３２弄","HOUSE_NO":"４１號","E_COORD97":165226.20000000001,"N_COORD97":2542912.9900000002,"ADDRESS":"華平路２１巷３２弄４１號","OBJECTID":29609},"geometry":{"x":165226.20000000019,"y":2542912.9900000021}},{"attributes":{"ID":29610,"DIS_CODE":0,"TOWNNAME":"安平區","LI":"國平里","LIN":"17鄰","STREET":"華平路","SECT":" ","MAREA":" ","LANE":"２１巷","ALLEY":"３２弄","HOUSE_NO":"４３號","E_COORD97":165227,"N_COORD97":2542917.3599999999,"ADDRESS":"華平路２１巷３２弄４３號","OBJECTID":29610},"geometry":{"x":165227.00000000093,"y":2542917.3600000013}},{"attributes":{"ID":29611,"DIS_CODE":0,"TOWNNAME":"安平區","LI":"國平里","LIN":"17鄰","STREET":"華平路","SECT":" ","MAREA":" ","LANE":"２１巷","ALLEY":"３２弄","HOUSE_NO":"４５號","E_COORD97":165228.78,"N_COORD97":2542923.1099999999,"ADDRESS":"華平路２１巷３２弄４５號","OBJECTID":29611},"geometry":{"x":165228.78000000119,"y":2542923.1099999994}},{"attributes":{"ID":29612,"DIS_CODE":0,"TOWNNAME":"安平區","LI":"國平里","LIN":"17鄰","STREET":"華平路","SECT":" ","MAREA":" ","LANE":"２１巷","ALLEY":"３２弄","HOUSE_NO":"４７號","E_COORD97":165230.37,"N_COORD97":2542929.0600000001,"ADDRESS":"華平路２１巷３２弄４７號","OBJECTID":29612},"geometry":{"x":165230.37000000011,"y":2542929.0599999987}},{"attributes":{"ID":29613,"DIS_CODE":0,"TOWNNAME":"新營區","LI":"新東里","LIN":"17鄰","STREET":"東興四街","SECT":" ","MAREA":" ","LANE":"３２巷","ALLEY":"１３弄","HOUSE_NO":"２號","E_COORD97":180917.69,"N_COORD97":2579119.9100000001,"ADDRESS":"東興四街３２巷１３弄２號","OBJECTID":29613},"geometry":{"x":180917.69000000041,"y":2579119.910000002}},{"attributes":{"ID":29614,"DIS_CODE":0,"TOWNNAME":"新營區","LI":"新東里","LIN":"17鄰","STREET":"東興四街","SECT":" ","MAREA":" ","LANE":"３２巷","ALLEY":"１３弄","HOUSE_NO":"１７號","E_COORD97":180953.76000000001,"N_COORD97":2579144.1200000001,"ADDRESS":"東興四街３２巷１３弄１７號","OBJECTID":29614},"geometry":{"x":180953.75999999978,"y":2579144.120000001}},{"attributes":{"ID":29615,"DIS_CODE":0,"TOWNNAME":"新營區","LI":"新東里","LIN":"17鄰","STREET":"東興四街","SECT":" ","MAREA":" ","LANE":"３２巷","ALLEY":"１３弄","HOUSE_NO":"２２號","E_COORD97":180956.79000000001,"N_COORD97":2579121.9500000002,"ADDRESS":"東興四街３２巷１３弄２２號","OBJECTID":29615},"geometry":{"x":180956.79000000004,"y":2579121.9500000011}},{"attributes":{"ID":29616,"DIS_CODE":0,"TOWNNAME":"新營區","LI":"新東里","LIN":"17鄰","STREET":"東興四街","SECT":" ","MAREA":" ","LANE":"３２巷","ALLEY":"１３弄","HOUSE_NO":"９號","E_COORD97":180936.10000000001,"N_COORD97":2579143.0899999999,"ADDRESS":"東興四街３２巷１３弄９號","OBJECTID":29616},"geometry":{"x":180936.09999999963,"y":2579143.0899999999}},{"attributes":{"ID":29617,"DIS_CODE":0,"TOWNNAME":"新營區","LI":"新南里","LIN":"17鄰","STREET":"隋唐街","SECT":" ","MAREA":" ","LANE":"１１５巷","ALLEY":"７弄","HOUSE_NO":"１３號","E_COORD97":178548.07999999999,"N_COORD97":2578506.5499999998,"ADDRESS":"隋唐街１１５巷７弄１３號","OBJECTID":29617},"geometry":{"x":178548.08000000007,"y":2578506.5500000007}},{"attributes":{"ID":29618,"DIS_CODE":0,"TOWNNAME":"新營區","LI":"新東里","LIN":"17鄰","STREET":"東興四街","SECT":" ","MAREA":" ","LANE":"３２巷","ALLEY":"１３弄","HOUSE_NO":"１４號","E_COORD97":180939.34,"N_COORD97":2579122.0299999998,"ADDRESS":"東興四街３２巷１３弄１４號","OBJECTID":29618},"geometry":{"x":180939.33999999985,"y":2579122.0300000012}},{"attributes":{"ID":29619,"DIS_CODE":0,"TOWNNAME":"新營區","LI":"新東里","LIN":"17鄰","STREET":"東興四街","SECT":" ","MAREA":" ","LANE":"３２巷","ALLEY":"１３弄","HOUSE_NO":"１９號","E_COORD97":180957.85000000001,"N_COORD97":2579144.1000000001,"ADDRESS":"東興四街３２巷１３弄１９號","OBJECTID":29619},"geometry":{"x":180957.84999999963,"y":2579144.1000000034}},{"attributes":{"ID":29620,"DIS_CODE":0,"TOWNNAME":"新營區","LI":"新東里","LIN":"17鄰","STREET":"東興四街","SECT":" ","MAREA":" ","LANE":"３２巷","ALLEY":"１３弄","HOUSE_NO":"１０號","E_COORD97":180931.16,"N_COORD97":2579122.0600000001,"ADDRESS":"東興四街３２巷１３弄１０號","OBJECTID":29620},"geometry":{"x":180931.16000000015,"y":2579122.0600000024}},{"attributes":{"ID":29621,"DIS_CODE":0,"TOWNNAME":"六甲區","LI":"六甲里","LIN":"17鄰","STREET":"仁愛街","SECT":" ","MAREA":" ","LANE":"４９巷","ALLEY":"２３弄","HOUSE_NO":"１號","E_COORD97":183820.10999999999,"N_COORD97":2569991.5899999999,"ADDRESS":"仁愛街４９巷２３弄１號","OBJECTID":29621},"geometry":{"x":183820.11000000034,"y":2569991.5900000017}},{"attributes":{"ID":29622,"DIS_CODE":0,"TOWNNAME":"六甲區","LI":"六甲里","LIN":"17鄰","STREET":"仁愛街","SECT":" ","MAREA":" ","LANE":"４９巷","ALLEY":"２３弄","HOUSE_NO":"２號","E_COORD97":183808.81,"N_COORD97":2569968.2000000002,"ADDRESS":"仁愛街４９巷２３弄２號","OBJECTID":29622},"geometry":{"x":183808.81000000052,"y":2569968.1999999993}},{"attributes":{"ID":29623,"DIS_CODE":0,"TOWNNAME":"六甲區","LI":"六甲里","LIN":"17鄰","STREET":"仁愛街","SECT":" ","MAREA":" ","LANE":"４９巷","ALLEY":"２３弄","HOUSE_NO":"３號","E_COORD97":183834.39000000001,"N_COORD97":2569987.0099999998,"ADDRESS":"仁愛街４９巷２３弄３號","OBJECTID":29623},"geometry":{"x":183834.38999999966,"y":2569987.0099999998}},{"attributes":{"ID":29624,"DIS_CODE":0,"TOWNNAME":"六甲區","LI":"六甲里","LIN":"17鄰","STREET":"仁愛街","SECT":" ","MAREA":" ","LANE":"４９巷","ALLEY":"２３弄","HOUSE_NO":"５號","E_COORD97":183822.62,"N_COORD97":2569979.8700000001,"ADDRESS":"仁愛街４９巷２３弄５號","OBJECTID":29624},"geometry":{"x":183822.62000000104,"y":2569979.8700000029}},{"attributes":{"ID":29625,"DIS_CODE":0,"TOWNNAME":"六甲區","LI":"六甲里","LIN":"17鄰","STREET":"仁愛街","SECT":" ","MAREA":" ","LANE":"４９巷","ALLEY":"２３弄","HOUSE_NO":"７號","E_COORD97":183822.41,"N_COORD97":2569969.7999999998,"ADDRESS":"仁愛街４９巷２３弄７號","OBJECTID":29625},"geometry":{"x":183822.41000000108,"y":2569969.8000000045}},{"attributes":{"ID":29626,"DIS_CODE":0,"TOWNNAME":"六甲區","LI":"六甲里","LIN":"17鄰","STREET":"仁愛街","SECT":" ","MAREA":" ","LANE":"４９巷","ALLEY":"２３弄","HOUSE_NO":"９號","E_COORD97":183838.16,"N_COORD97":2569961.4500000002,"ADDRESS":"仁愛街４９巷２３弄９號","OBJECTID":29626},"geometry":{"x":183838.16000000015,"y":2569961.4500000011}},{"attributes":{"ID":29627,"DIS_CODE":0,"TOWNNAME":"新營區","LI":"新東里","LIN":"17鄰","STREET":"東興四街","SECT":" ","MAREA":" ","LANE":"３２巷","ALLEY":"１３弄","HOUSE_NO":"１６號","E_COORD97":180943.42999999999,"N_COORD97":2579122.0099999998,"ADDRESS":"東興四街３２巷１３弄１６號","OBJECTID":29627},"geometry":{"x":180943.43000000063,"y":2579122.0100000016}},{"attributes":{"ID":29628,"DIS_CODE":0,"TOWNNAME":"新營區","LI":"新南里","LIN":"17鄰","STREET":"隋唐街","SECT":" ","MAREA":" ","LANE":"１１５巷","ALLEY":"７弄","HOUSE_NO":"７號","E_COORD97":178528.47,"N_COORD97":2578509.96,"ADDRESS":"隋唐街１１５巷７弄７號","OBJECTID":29628},"geometry":{"x":178528.4700000016,"y":2578509.9600000028}},{"attributes":{"ID":29629,"DIS_CODE":0,"TOWNNAME":"新營區","LI":"忠政里","LIN":"17鄰","STREET":"府西路","SECT":" ","MAREA":" ","LANE":"２５８巷","ALLEY":"１４弄","HOUSE_NO":"９號","E_COORD97":179844.37,"N_COORD97":2579707.48,"ADDRESS":"府西路２５８巷１４弄９號","OBJECTID":29629},"geometry":{"x":179844.37000000011,"y":2579707.4800000004}},{"attributes":{"ID":29630,"DIS_CODE":0,"TOWNNAME":"新營區","LI":"新南里","LIN":"17鄰","STREET":"隋唐街","SECT":" ","MAREA":" ","LANE":"３１巷","ALLEY":"６弄","HOUSE_NO":"１１號","E_COORD97":178668.48000000001,"N_COORD97":2578443.96,"ADDRESS":"隋唐街３１巷６弄１１號","OBJECTID":29630},"geometry":{"x":178668.48000000138,"y":2578443.9600000009}},{"attributes":{"ID":29631,"DIS_CODE":0,"TOWNNAME":"南區","LI":"明亮里","LIN":"17鄰","STREET":"金華路","SECT":"一段","MAREA":" ","LANE":"３５２巷","ALLEY":"９７弄","HOUSE_NO":"２１號","E_COORD97":167273.32999999999,"N_COORD97":2541151.0800000001,"ADDRESS":"金華路一段３５２巷９７弄２１號","OBJECTID":29631},"geometry":{"x":167273.33000000007,"y":2541151.0800000001}},{"attributes":{"ID":29632,"DIS_CODE":0,"TOWNNAME":"南區","LI":"明亮里","LIN":"17鄰","STREET":"金華路","SECT":"一段","MAREA":" ","LANE":"３５２巷","ALLEY":"９７弄","HOUSE_NO":"２６號","E_COORD97":167292.13,"N_COORD97":2541144.6099999999,"ADDRESS":"金華路一段３５２巷９７弄２６號","OBJECTID":29632},"geometry":{"x":167292.13000000082,"y":2541144.6100000031}},{"attributes":{"ID":29633,"DIS_CODE":0,"TOWNNAME":"南區","LI":"明亮里","LIN":"17鄰","STREET":"金華路","SECT":"一段","MAREA":" ","LANE":"３５２巷","ALLEY":"９７弄","HOUSE_NO":"２８號","E_COORD97":167304.17999999999,"N_COORD97":2541174.3100000001,"ADDRESS":"金華路一段３５２巷９７弄２８號","OBJECTID":29633},"geometry":{"x":167304.1799999997,"y":2541174.3100000005}},{"attributes":{"ID":29634,"DIS_CODE":0,"TOWNNAME":"南區","LI":"明亮里","LIN":"17鄰","STREET":"金華路","SECT":"一段","MAREA":" ","LANE":"３５２巷","ALLEY":"９７弄","HOUSE_NO":"３０號","E_COORD97":167306.19,"N_COORD97":2541170.7000000002,"ADDRESS":"金華路一段３５２巷９７弄３０號","OBJECTID":29634},"geometry":{"x":167306.19000000134,"y":2541170.700000003}},{"attributes":{"ID":29635,"DIS_CODE":0,"TOWNNAME":"南區","LI":"明亮里","LIN":"17鄰","STREET":"金華路","SECT":"一段","MAREA":" ","LANE":"３５２巷","ALLEY":"９７弄","HOUSE_NO":"３２號","E_COORD97":167307.79999999999,"N_COORD97":2541167.8900000001,"ADDRESS":"金華路一段３５２巷９７弄３２號","OBJECTID":29635},"geometry":{"x":167307.80000000075,"y":2541167.8900000025}},{"attributes":{"ID":29636,"DIS_CODE":0,"TOWNNAME":"南區","LI":"明亮里","LIN":"17鄰","STREET":"金華路","SECT":"一段","MAREA":" ","LANE":"３５２巷","ALLEY":"９７弄","HOUSE_NO":"３４號","E_COORD97":167309.81,"N_COORD97":2541164.2799999998,"ADDRESS":"金華路一段３５２巷９７弄３４號","OBJECTID":29636},"geometry":{"x":167309.80999999959,"y":2541164.2800000012}},{"attributes":{"ID":29637,"DIS_CODE":0,"TOWNNAME":"南區","LI":"明亮里","LIN":"17鄰","STREET":"金華路","SECT":"一段","MAREA":" ","LANE":"３５２巷","ALLEY":"９７弄","HOUSE_NO":"３６號","E_COORD97":167310.60999999999,"N_COORD97":2541161.0699999998,"ADDRESS":"金華路一段３５２巷９７弄３６號","OBJECTID":29637},"geometry":{"x":167310.61000000034,"y":2541161.0700000003}},{"attributes":{"ID":29638,"DIS_CODE":0,"TOWNNAME":"玉井區","LI":"望明里","LIN":"8鄰","STREET":" ","SECT":" ","MAREA":"公\u25A0","LANE":" ","ALLEY":" ","HOUSE_NO":"４９號","E_COORD97":193944.45999999999,"N_COORD97":2556611.2400000002,"ADDRESS":"公\u25A0４９號","OBJECTID":29638},"geometry":{"x":193944.45999999996,"y":2556611.2400000039}},{"attributes":{"ID":29639,"DIS_CODE":0,"TOWNNAME":"南區","LI":"明亮里","LIN":"17鄰","STREET":"金華路","SECT":"一段","MAREA":" ","LANE":"３５２巷","ALLEY":"９７弄","HOUSE_NO":"４２號之１","E_COORD97":167319.04999999999,"N_COORD97":2541147.8199999998,"ADDRESS":"金華路一段３５２巷９７弄４２號之１","OBJECTID":29639},"geometry":{"x":167319.04999999981,"y":2541147.8200000022}},{"attributes":{"ID":29640,"DIS_CODE":0,"TOWNNAME":"南區","LI":"明亮里","LIN":"17鄰","STREET":"金華路","SECT":"一段","MAREA":" ","LANE":"３５２巷","ALLEY":"９７弄","HOUSE_NO":"４６號","E_COORD97":167320.25,"N_COORD97":2541144.21,"ADDRESS":"金華路一段３５２巷９７弄４６號","OBJECTID":29640},"geometry":{"x":167320.25000000093,"y":2541144.2100000009}},{"attributes":{"ID":29641,"DIS_CODE":0,"TOWNNAME":"北區","LI":"正覺里","LIN":"17鄰","STREET":"正覺街","SECT":" ","MAREA":" ","LANE":"４４巷","ALLEY":"３弄","HOUSE_NO":"１１號","E_COORD97":169350.09,"N_COORD97":2546328.0899999999,"ADDRESS":"正覺街４４巷３弄１１號","OBJECTID":29641},"geometry":{"x":169350.09000000171,"y":2546328.0899999999}},{"attributes":{"ID":29642,"DIS_CODE":0,"TOWNNAME":"北區","LI":"正覺里","LIN":"17鄰","STREET":"正覺街","SECT":" ","MAREA":" ","LANE":"４４巷","ALLEY":"３弄","HOUSE_NO":"１３號","E_COORD97":169352.51000000001,"N_COORD97":2546330.7799999998,"ADDRESS":"正覺街４４巷３弄１３號","OBJECTID":29642},"geometry":{"x":169352.51000000071,"y":2546330.7800000012}},{"attributes":{"ID":29643,"DIS_CODE":0,"TOWNNAME":"北區","LI":"正覺里","LIN":"17鄰","STREET":"正覺街","SECT":" ","MAREA":" ","LANE":"４４巷","ALLEY":"３弄","HOUSE_NO":"１５號","E_COORD97":169357.17999999999,"N_COORD97":2546332.1200000001,"ADDRESS":"正覺街４４巷３弄１５號","OBJECTID":29643},"geometry":{"x":169357.1799999997,"y":2546332.120000001}},{"attributes":{"ID":29644,"DIS_CODE":0,"TOWNNAME":"北區","LI":"正覺里","LIN":"17鄰","STREET":"正覺街","SECT":" ","MAREA":" ","LANE":"４４巷","ALLEY":"３弄","HOUSE_NO":"１７號","E_COORD97":169359.97,"N_COORD97":2546336.0699999998,"ADDRESS":"正覺街４４巷３弄１７號","OBJECTID":29644},"geometry":{"x":169359.97000000067,"y":2546336.0699999984}},{"attributes":{"ID":29645,"DIS_CODE":0,"TOWNNAME":"北區","LI":"正覺里","LIN":"17鄰","STREET":"正覺街","SECT":" ","MAREA":" ","LANE":"４４巷","ALLEY":"３弄","HOUSE_NO":"１９號","E_COORD97":169362.92999999999,"N_COORD97":2546339.1200000001,"ADDRESS":"正覺街４４巷３弄１９號","OBJECTID":29645},"geometry":{"x":169362.93000000156,"y":2546339.120000001}},{"attributes":{"ID":29646,"DIS_CODE":0,"TOWNNAME":"北區","LI":"正覺里","LIN":"17鄰","STREET":"正覺街","SECT":" ","MAREA":" ","LANE":"４４巷","ALLEY":"３弄","HOUSE_NO":"１號","E_COORD97":169337.75,"N_COORD97":2546307.8500000001,"ADDRESS":"正覺街４４巷３弄１號","OBJECTID":29646},"geometry":{"x":169337.75000000093,"y":2546307.8500000015}},{"attributes":{"ID":29647,"DIS_CODE":0,"TOWNNAME":"北區","LI":"正覺里","LIN":"17鄰","STREET":"正覺街","SECT":" ","MAREA":" ","LANE":"４４巷","ALLEY":"３弄","HOUSE_NO":"２號","E_COORD97":169352.20999999999,"N_COORD97":2546301.0299999998,"ADDRESS":"正覺街４４巷３弄２號","OBJECTID":29647},"geometry":{"x":169352.20999999996,"y":2546301.0299999993}},{"attributes":{"ID":29648,"DIS_CODE":0,"TOWNNAME":"鹽水區","LI":"歡雅里","LIN":"8鄰","STREET":" ","SECT":" ","MAREA":"歡雅","LANE":" ","ALLEY":" ","HOUSE_NO":"９９之３７號","E_COORD97":172338.09,"N_COORD97":2576392.4500000002,"ADDRESS":"歡雅９９之３７號","OBJECTID":29648},"geometry":{"x":172338.08999999985,"y":2576392.4500000011}},{"attributes":{"ID":29649,"DIS_CODE":0,"TOWNNAME":"鹽水區","LI":"歡雅里","LIN":"8鄰","STREET":" ","SECT":" ","MAREA":"歡雅","LANE":" ","ALLEY":" ","HOUSE_NO":"９９號之３８","E_COORD97":172341.94,"N_COORD97":2576391.4900000002,"ADDRESS":"歡雅９９號之３８","OBJECTID":29649},"geometry":{"x":172341.94000000227,"y":2576391.4900000002}},{"attributes":{"ID":29650,"DIS_CODE":0,"TOWNNAME":"鹽水區","LI":"歡雅里","LIN":"8鄰","STREET":" ","SECT":" ","MAREA":"歡雅","LANE":" ","ALLEY":" ","HOUSE_NO":"９９之３９號","E_COORD97":172345.88,"N_COORD97":2576391.0899999999,"ADDRESS":"歡雅９９之３９號","OBJECTID":29650},"geometry":{"x":172345.88000000082,"y":2576391.0899999999}},{"attributes":{"ID":29651,"DIS_CODE":0,"TOWNNAME":"鹽水區","LI":"歡雅里","LIN":"8鄰","STREET":" ","SECT":" ","MAREA":"歡雅","LANE":" ","ALLEY":" ","HOUSE_NO":"９９之４０號","E_COORD97":172350.03,"N_COORD97":2576390.6499999999,"ADDRESS":"歡雅９９之４０號","OBJECTID":29651},"geometry":{"x":172350.03000000119,"y":2576390.6500000004}},{"attributes":{"ID":29652,"DIS_CODE":0,"TOWNNAME":"北區","LI":"正覺里","LIN":"17鄰","STREET":"正覺街","SECT":" ","MAREA":" ","LANE":"４４巷","ALLEY":"３弄","HOUSE_NO":"３號","E_COORD97":169337.51000000001,"N_COORD97":2546320.46,"ADDRESS":"正覺街４４巷３弄３號","OBJECTID":29652},"geometry":{"x":169337.51000000071,"y":2546320.4600000009}},{"attributes":{"ID":29653,"DIS_CODE":0,"TOWNNAME":"北區","LI":"正覺里","LIN":"17鄰","STREET":"正覺街","SECT":" ","MAREA":" ","LANE":"４４巷","ALLEY":"３弄","HOUSE_NO":"４號","E_COORD97":169346.54999999999,"N_COORD97":2546294.3100000001,"ADDRESS":"正覺街４４巷３弄４號","OBJECTID":29653},"geometry":{"x":169346.54999999981,"y":2546294.3100000042}},{"attributes":{"ID":29654,"DIS_CODE":0,"TOWNNAME":"北區","LI":"正覺里","LIN":"17鄰","STREET":"正覺街","SECT":" ","MAREA":" ","LANE":"４４巷","ALLEY":"３弄","HOUSE_NO":"５號","E_COORD97":169346.41,"N_COORD97":2546313.8199999998,"ADDRESS":"正覺街４４巷３弄５號","OBJECTID":29654},"geometry":{"x":169346.41000000201,"y":2546313.8200000003}},{"attributes":{"ID":29655,"DIS_CODE":0,"TOWNNAME":"北區","LI":"正覺里","LIN":"17鄰","STREET":"正覺街","SECT":" ","MAREA":" ","LANE":"４４巷","ALLEY":"３弄","HOUSE_NO":"６號","E_COORD97":169361.26000000001,"N_COORD97":2546313.8700000001,"ADDRESS":"正覺街４４巷３弄６號","OBJECTID":29655},"geometry":{"x":169361.26000000071,"y":2546313.870000001}},{"attributes":{"ID":29656,"DIS_CODE":0,"TOWNNAME":"北區","LI":"正覺里","LIN":"17鄰","STREET":"正覺街","SECT":" ","MAREA":" ","LANE":"４４巷","ALLEY":"３弄","HOUSE_NO":"７號","E_COORD97":169349.82000000001,"N_COORD97":2546317.6800000002,"ADDRESS":"正覺街４４巷３弄７號","OBJECTID":29656},"geometry":{"x":169349.8200000003,"y":2546317.6799999997}},{"attributes":{"ID":29657,"DIS_CODE":0,"TOWNNAME":"鹽水區","LI":"歡雅里","LIN":"8鄰","STREET":" ","SECT":" ","MAREA":"歡雅","LANE":" ","ALLEY":" ","HOUSE_NO":"９９之４１號","E_COORD97":172353.76000000001,"N_COORD97":2576390.3199999998,"ADDRESS":"歡雅９９之４１號","OBJECTID":29657},"geometry":{"x":172353.75999999978,"y":2576390.320000004}},{"attributes":{"ID":29658,"DIS_CODE":0,"TOWNNAME":"鹽水區","LI":"歡雅里","LIN":"8鄰","STREET":" ","SECT":" ","MAREA":"歡雅","LANE":" ","ALLEY":" ","HOUSE_NO":"９９之４２號","E_COORD97":172363.35999999999,"N_COORD97":2576389.73,"ADDRESS":"歡雅９９之４２號","OBJECTID":29658},"geometry":{"x":172363.36000000127,"y":2576389.7300000004}},{"attributes":{"ID":29659,"DIS_CODE":0,"TOWNNAME":"北區","LI":"正覺里","LIN":"17鄰","STREET":"正覺街","SECT":" ","MAREA":" ","LANE":"４４巷","ALLEY":"３弄","HOUSE_NO":"８號","E_COORD97":169379.82999999999,"N_COORD97":2546338.6099999999,"ADDRESS":"正覺街４４巷３弄８號","OBJECTID":29659},"geometry":{"x":169379.83000000101,"y":2546338.6100000031}},{"attributes":{"ID":29660,"DIS_CODE":0,"TOWNNAME":"安平區","LI":"港仔里","LIN":"17鄰","STREET":"運河路","SECT":" ","MAREA":" ","LANE":"１３巷","ALLEY":"１７弄","HOUSE_NO":"４號","E_COORD97":164145.88,"N_COORD97":2544458.8799999999,"ADDRESS":"運河路１３巷１７弄４號","OBJECTID":29660},"geometry":{"x":164145.88000000082,"y":2544458.8800000008}},{"attributes":{"ID":29661,"DIS_CODE":0,"TOWNNAME":"安平區","LI":"港仔里","LIN":"17鄰","STREET":"運河路","SECT":" ","MAREA":" ","LANE":"１３巷","ALLEY":"１７弄","HOUSE_NO":"５號","E_COORD97":164144.07999999999,"N_COORD97":2544468.1200000001,"ADDRESS":"運河路１３巷１７弄５號","OBJECTID":29661},"geometry":{"x":164144.08000000007,"y":2544468.120000001}},{"attributes":{"ID":29662,"DIS_CODE":0,"TOWNNAME":"安平區","LI":"港仔里","LIN":"17鄰","STREET":"運河路","SECT":" ","MAREA":" ","LANE":"１３巷","ALLEY":"３弄","HOUSE_NO":"１０號","E_COORD97":164130.32999999999,"N_COORD97":2544428,"ADDRESS":"運河路１３巷３弄１０號","OBJECTID":29662},"geometry":{"x":164130.33000000007,"y":2544428.0000000019}},{"attributes":{"ID":29663,"DIS_CODE":0,"TOWNNAME":"鹽水區","LI":"歡雅里","LIN":"8鄰","STREET":" ","SECT":" ","MAREA":"歡雅","LANE":" ","ALLEY":" ","HOUSE_NO":"９９號之４３","E_COORD97":172367.28,"N_COORD97":2576389.04,"ADDRESS":"歡雅９９號之４３","OBJECTID":29663},"geometry":{"x":172367.28000000119,"y":2576389.040000001}},{"attributes":{"ID":29664,"DIS_CODE":0,"TOWNNAME":"安平區","LI":"港仔里","LIN":"17鄰","STREET":"運河路","SECT":" ","MAREA":" ","LANE":"１３巷","ALLEY":"３弄","HOUSE_NO":"１２號","E_COORD97":164133.16,"N_COORD97":2544444.4300000002,"ADDRESS":"運河路１３巷３弄１２號","OBJECTID":29664},"geometry":{"x":164133.16000000015,"y":2544444.4299999997}},{"attributes":{"ID":29665,"DIS_CODE":0,"TOWNNAME":"安平區","LI":"港仔里","LIN":"17鄰","STREET":"運河路","SECT":" ","MAREA":" ","LANE":"１３巷","ALLEY":"３弄","HOUSE_NO":"２號","E_COORD97":164162.10000000001,"N_COORD97":2544425.79,"ADDRESS":"運河路１３巷３弄２號","OBJECTID":29665},"geometry":{"x":164162.09999999963,"y":2544425.790000001}},{"attributes":{"ID":29666,"DIS_CODE":0,"TOWNNAME":"安平區","LI":"港仔里","LIN":"17鄰","STREET":"運河路","SECT":" ","MAREA":" ","LANE":"１３巷","ALLEY":"３弄","HOUSE_NO":"４號","E_COORD97":164154.03,"N_COORD97":2544419.9399999999,"ADDRESS":"運河路１３巷３弄４號","OBJECTID":29666},"geometry":{"x":164154.03000000119,"y":2544419.9399999995}},{"attributes":{"ID":29667,"DIS_CODE":0,"TOWNNAME":"安平區","LI":"港仔里","LIN":"17鄰","STREET":"運河路","SECT":" ","MAREA":" ","LANE":"１３巷","ALLEY":"１７弄","HOUSE_NO":"１號","E_COORD97":164173.41,"N_COORD97":2544463.2000000002,"ADDRESS":"運河路１３巷１７弄１號","OBJECTID":29667},"geometry":{"x":164173.41000000108,"y":2544463.2000000011}},{"attributes":{"ID":29668,"DIS_CODE":0,"TOWNNAME":"安平區","LI":"港仔里","LIN":"17鄰","STREET":"運河路","SECT":" ","MAREA":" ","LANE":"１３巷","ALLEY":"１７弄","HOUSE_NO":"３號","E_COORD97":164150.92999999999,"N_COORD97":2544468.6499999999,"ADDRESS":"運河路１３巷１７弄３號","OBJECTID":29668},"geometry":{"x":164150.93000000063,"y":2544468.6500000022}},{"attributes":{"ID":29669,"DIS_CODE":0,"TOWNNAME":"南區","LI":"彰南里","LIN":"18鄰","STREET":"新和路","SECT":" ","MAREA":" ","LANE":" ","ALLEY":" ","HOUSE_NO":"１號之１","E_COORD97":166154.95000000001,"N_COORD97":2540878.21,"ADDRESS":"新和路１號之１","OBJECTID":29669},"geometry":{"x":166154.95000000112,"y":2540878.2100000028}},{"attributes":{"ID":29670,"DIS_CODE":0,"TOWNNAME":"鹽水區","LI":"歡雅里","LIN":"8鄰","STREET":" ","SECT":" ","MAREA":"歡雅","LANE":" ","ALLEY":" ","HOUSE_NO":"９９之４５號","E_COORD97":172371.12,"N_COORD97":2576388.6600000001,"ADDRESS":"歡雅９９之４５號","OBJECTID":29670},"geometry":{"x":172371.12000000104,"y":2576388.660000002}},{"attributes":{"ID":29671,"DIS_CODE":0,"TOWNNAME":"鹽水區","LI":"歡雅里","LIN":"8鄰","STREET":" ","SECT":" ","MAREA":"歡雅","LANE":" ","ALLEY":" ","HOUSE_NO":"９９之４６號","E_COORD97":172375.23000000001,"N_COORD97":2576388.1800000002,"ADDRESS":"歡雅９９之４６號","OBJECTID":29671},"geometry":{"x":172375.23000000045,"y":2576388.1800000016}},{"attributes":{"ID":29672,"DIS_CODE":0,"TOWNNAME":"鹽水區","LI":"歡雅里","LIN":"8鄰","STREET":" ","SECT":" ","MAREA":"歡雅","LANE":" ","ALLEY":" ","HOUSE_NO":"９９號之４７","E_COORD97":172379.45999999999,"N_COORD97":2576388.5099999998,"ADDRESS":"歡雅９９號之４７","OBJECTID":29672},"geometry":{"x":172379.46000000089,"y":2576388.5100000035}},{"attributes":{"ID":29673,"DIS_CODE":0,"TOWNNAME":"鹽水區","LI":"歡雅里","LIN":"8鄰","STREET":" ","SECT":" ","MAREA":"歡雅","LANE":" ","ALLEY":" ","HOUSE_NO":"９９之４８號","E_COORD97":172383.44,"N_COORD97":2576388.23,"ADDRESS":"歡雅９９之４８號","OBJECTID":29673},"geometry":{"x":172383.44000000134,"y":2576388.2300000023}},{"attributes":{"ID":29674,"DIS_CODE":0,"TOWNNAME":"鹽水區","LI":"歡雅里","LIN":"8鄰","STREET":" ","SECT":" ","MAREA":"歡雅","LANE":" ","ALLEY":" ","HOUSE_NO":"９９之４９號","E_COORD97":172387.26000000001,"N_COORD97":2576387.7999999998,"ADDRESS":"歡雅９９之４９號","OBJECTID":29674},"geometry":{"x":172387.26000000071,"y":2576387.8000000045}},{"attributes":{"ID":29675,"DIS_CODE":0,"TOWNNAME":"鹽水區","LI":"歡雅里","LIN":"8鄰","STREET":" ","SECT":" ","MAREA":"歡雅","LANE":" ","ALLEY":" ","HOUSE_NO":"９９號之５０","E_COORD97":172391.04000000001,"N_COORD97":2576387.0600000001,"ADDRESS":"歡雅９９號之５０","OBJECTID":29675},"geometry":{"x":172391.04000000004,"y":2576387.0600000024}},{"attributes":{"ID":29676,"DIS_CODE":0,"TOWNNAME":"鹽水區","LI":"歡雅里","LIN":"8鄰","STREET":" ","SECT":" ","MAREA":"歡雅","LANE":" ","ALLEY":" ","HOUSE_NO":"９９之５１號","E_COORD97":172395.73999999999,"N_COORD97":2576386.04,"ADDRESS":"歡雅９９之５１號","OBJECTID":29676},"geometry":{"x":172395.74000000209,"y":2576386.0399999991}},{"attributes":{"ID":29677,"DIS_CODE":0,"TOWNNAME":"鹽水區","LI":"歡雅里","LIN":"8鄰","STREET":" ","SECT":" ","MAREA":"歡雅","LANE":" ","ALLEY":" ","HOUSE_NO":"９９之５２號","E_COORD97":172399.17000000001,"N_COORD97":2576385.2599999998,"ADDRESS":"歡雅９９之５２號","OBJECTID":29677},"geometry":{"x":172399.17000000179,"y":2576385.2599999998}},{"attributes":{"ID":29678,"DIS_CODE":0,"TOWNNAME":"佳里區","LI":"安西里","LIN":"14鄰","STREET":"文化路","SECT":" ","MAREA":" ","LANE":" ","ALLEY":" ","HOUSE_NO":"３０３號","E_COORD97":165438.34,"N_COORD97":2562572.75,"ADDRESS":"文化路３０３號","OBJECTID":29678},"geometry":{"x":165438.34000000078,"y":2562572.7500000019}},{"attributes":{"ID":29679,"DIS_CODE":0,"TOWNNAME":"佳里區","LI":"忠仁里","LIN":"14鄰","STREET":"平等街","SECT":" ","MAREA":" ","LANE":" ","ALLEY":" ","HOUSE_NO":"１０號","E_COORD97":166293.07999999999,"N_COORD97":2561965.7599999998,"ADDRESS":"平等街１０號","OBJECTID":29679},"geometry":{"x":166293.08000000007,"y":2561965.7600000016}},{"attributes":{"ID":29680,"DIS_CODE":0,"TOWNNAME":"鹽水區","LI":"歡雅里","LIN":"8鄰","STREET":" ","SECT":" ","MAREA":"歡雅","LANE":" ","ALLEY":" ","HOUSE_NO":"９９號之５２","E_COORD97":172399.17000000001,"N_COORD97":2576385.2599999998,"ADDRESS":"歡雅９９號之５２","OBJECTID":29680},"geometry":{"x":172399.17000000179,"y":2576385.2599999998}},{"attributes":{"ID":29681,"DIS_CODE":0,"TOWNNAME":"鹽水區","LI":"歡雅里","LIN":"8鄰","STREET":" ","SECT":" ","MAREA":"歡雅","LANE":" ","ALLEY":" ","HOUSE_NO":"９９號之５３","E_COORD97":172403.10999999999,"N_COORD97":2576385.1299999999,"ADDRESS":"歡雅９９號之５３","OBJECTID":29681},"geometry":{"x":172403.11000000034,"y":2576385.129999999}},{"attributes":{"ID":29682,"DIS_CODE":0,"TOWNNAME":"鹽水區","LI":"歡雅里","LIN":"8鄰","STREET":" ","SECT":" ","MAREA":"歡雅","LANE":" ","ALLEY":" ","HOUSE_NO":"９９號之５４","E_COORD97":172406.91,"N_COORD97":2576384.5800000001,"ADDRESS":"歡雅９９號之５４","OBJECTID":29682},"geometry":{"x":172406.91000000108,"y":2576384.5800000001}},{"attributes":{"ID":29683,"DIS_CODE":0,"TOWNNAME":"新營區","LI":"新南里","LIN":"17鄰","STREET":"隋唐街","SECT":" ","MAREA":" ","LANE":"３１巷","ALLEY":"６弄","HOUSE_NO":"２１號","E_COORD97":178647.09,"N_COORD97":2578448.4900000002,"ADDRESS":"隋唐街３１巷６弄２１號","OBJECTID":29683},"geometry":{"x":178647.09000000078,"y":2578448.4900000021}},{"attributes":{"ID":29684,"DIS_CODE":0,"TOWNNAME":"新營區","LI":"新南里","LIN":"17鄰","STREET":"隋唐街","SECT":" ","MAREA":" ","LANE":"３１巷","ALLEY":"６弄","HOUSE_NO":"２３號","E_COORD97":178643.01000000001,"N_COORD97":2578449.6200000001,"ADDRESS":"隋唐街３１巷６弄２３號","OBJECTID":29684},"geometry":{"x":178643.00999999978,"y":2578449.620000001}},{"attributes":{"ID":29685,"DIS_CODE":0,"TOWNNAME":"鹽水區","LI":"歡雅里","LIN":"8鄰","STREET":" ","SECT":" ","MAREA":"歡雅","LANE":" ","ALLEY":" ","HOUSE_NO":"９９之５５號","E_COORD97":172364.66,"N_COORD97":2576404.5,"ADDRESS":"歡雅９９之５５號","OBJECTID":29685},"geometry":{"x":172364.66000000108,"y":2576404.5}},{"attributes":{"ID":29686,"DIS_CODE":0,"TOWNNAME":"新營區","LI":"新南里","LIN":"17鄰","STREET":"隋唐街","SECT":" ","MAREA":" ","LANE":"３１巷","ALLEY":"６弄","HOUSE_NO":"２５號","E_COORD97":178637.89999999999,"N_COORD97":2578450.75,"ADDRESS":"隋唐街３１巷６弄２５號","OBJECTID":29686},"geometry":{"x":178637.90000000037,"y":2578450.75}},{"attributes":{"ID":29687,"DIS_CODE":0,"TOWNNAME":"鹽水區","LI":"歡雅里","LIN":"8鄰","STREET":" ","SECT":" ","MAREA":"歡雅","LANE":" ","ALLEY":" ","HOUSE_NO":"９９號之５６","E_COORD97":172368.62,"N_COORD97":2576403.7200000002,"ADDRESS":"歡雅９９號之５６","OBJECTID":29687},"geometry":{"x":172368.62000000011,"y":2576403.7200000007}},{"attributes":{"ID":29688,"DIS_CODE":0,"TOWNNAME":"新營區","LI":"延平里","LIN":"17鄰","STREET":"長春街","SECT":" ","MAREA":" ","LANE":"１３４巷","ALLEY":"１６弄","HOUSE_NO":"１５號","E_COORD97":179554.21090000001,"N_COORD97":2577892.7702600001,"ADDRESS":"長春街１３４巷１６弄１５號","OBJECTID":29688},"geometry":{"x":179554.21090000123,"y":2577892.7702560034}},{"attributes":{"ID":29689,"DIS_CODE":0,"TOWNNAME":"鹽水區","LI":"歡雅里","LIN":"8鄰","STREET":" ","SECT":" ","MAREA":"歡雅","LANE":" ","ALLEY":" ","HOUSE_NO":"９９之５７號","E_COORD97":172372.72,"N_COORD97":2576403.5899999999,"ADDRESS":"歡雅９９之５７號","OBJECTID":29689},"geometry":{"x":172372.71999999974,"y":2576403.5899999999}},{"attributes":{"ID":29690,"DIS_CODE":0,"TOWNNAME":"鹽水區","LI":"歡雅里","LIN":"8鄰","STREET":" ","SECT":" ","MAREA":"歡雅","LANE":" ","ALLEY":" ","HOUSE_NO":"９９之５８號","E_COORD97":172376.59,"N_COORD97":2576402.7799999998,"ADDRESS":"歡雅９９之５８號","OBJECTID":29690},"geometry":{"x":172376.59000000078,"y":2576402.7799999993}},{"attributes":{"ID":29691,"DIS_CODE":0,"TOWNNAME":"鹽水區","LI":"歡雅里","LIN":"8鄰","STREET":" ","SECT":" ","MAREA":"歡雅","LANE":" ","ALLEY":" ","HOUSE_NO":"９９號之５９","E_COORD97":172380.92000000001,"N_COORD97":2576402.2400000002,"ADDRESS":"歡雅９９號之５９","OBJECTID":29691},"geometry":{"x":172380.92000000086,"y":2576402.2400000021}},{"attributes":{"ID":29692,"DIS_CODE":0,"TOWNNAME":"鹽水區","LI":"歡雅里","LIN":"8鄰","STREET":" ","SECT":" ","MAREA":"歡雅","LANE":" ","ALLEY":" ","HOUSE_NO":"９９之６０號","E_COORD97":172384.73000000001,"N_COORD97":2576401.8399999999,"ADDRESS":"歡雅９９之６０號","OBJECTID":29692},"geometry":{"x":172384.73000000138,"y":2576401.8399999999}},{"attributes":{"ID":29693,"DIS_CODE":0,"TOWNNAME":"鹽水區","LI":"歡雅里","LIN":"8鄰","STREET":" ","SECT":" ","MAREA":"歡雅","LANE":" ","ALLEY":" ","HOUSE_NO":"９９之６１號","E_COORD97":172388.42000000001,"N_COORD97":2576401.3799999999,"ADDRESS":"歡雅９９之６１號","OBJECTID":29693},"geometry":{"x":172388.41999999993,"y":2576401.379999999}},{"attributes":{"ID":29694,"DIS_CODE":0,"TOWNNAME":"鹽水區","LI":"歡雅里","LIN":"8鄰","STREET":" ","SECT":" ","MAREA":"歡雅","LANE":" ","ALLEY":" ","HOUSE_NO":"９９號之６２","E_COORD97":172392.45999999999,"N_COORD97":2576400.8900000001,"ADDRESS":"歡雅９９號之６２","OBJECTID":29694},"geometry":{"x":172392.46000000089,"y":2576400.8900000025}},{"attributes":{"ID":29695,"DIS_CODE":0,"TOWNNAME":"鹽水區","LI":"歡雅里","LIN":"8鄰","STREET":" ","SECT":" ","MAREA":"歡雅","LANE":" ","ALLEY":" ","HOUSE_NO":"９９之６３號","E_COORD97":172396.28,"N_COORD97":2576400.4500000002,"ADDRESS":"歡雅９９之６３號","OBJECTID":29695},"geometry":{"x":172396.28000000026,"y":2576400.4499999993}},{"attributes":{"ID":29696,"DIS_CODE":0,"TOWNNAME":"鹽水區","LI":"歡雅里","LIN":"8鄰","STREET":" ","SECT":" ","MAREA":"歡雅","LANE":" ","ALLEY":" ","HOUSE_NO":"９９號之６３","E_COORD97":172396.28,"N_COORD97":2576400.4500000002,"ADDRESS":"歡雅９９號之６３","OBJECTID":29696},"geometry":{"x":172396.28000000026,"y":2576400.4499999993}},{"attributes":{"ID":29697,"DIS_CODE":0,"TOWNNAME":"鹽水區","LI":"歡雅里","LIN":"8鄰","STREET":" ","SECT":" ","MAREA":"歡雅","LANE":" ","ALLEY":" ","HOUSE_NO":"９９號之６４","E_COORD97":172400.73000000001,"N_COORD97":2576399.8999999999,"ADDRESS":"歡雅９９號之６４","OBJECTID":29697},"geometry":{"x":172400.73000000045,"y":2576399.8999999985}},{"attributes":{"ID":29698,"DIS_CODE":0,"TOWNNAME":"鹽水區","LI":"歡雅里","LIN":"8鄰","STREET":" ","SECT":" ","MAREA":"歡雅","LANE":" ","ALLEY":" ","HOUSE_NO":"９９之６５號","E_COORD97":172405.44,"N_COORD97":2576399.27,"ADDRESS":"歡雅９９之６５號","OBJECTID":29698},"geometry":{"x":172405.44000000134,"y":2576399.2699999996}},{"attributes":{"ID":29699,"DIS_CODE":0,"TOWNNAME":"新營區","LI":"新南里","LIN":"17鄰","STREET":"隋唐街","SECT":" ","MAREA":" ","LANE":"３１巷","ALLEY":"６弄","HOUSE_NO":"２０號","E_COORD97":178647.23999999999,"N_COORD97":2578479.5,"ADDRESS":"隋唐街３１巷６弄２０號","OBJECTID":29699},"geometry":{"x":178647.24000000022,"y":2578479.5}},{"attributes":{"ID":29700,"DIS_CODE":0,"TOWNNAME":"新營區","LI":"新南里","LIN":"17鄰","STREET":"隋唐街","SECT":" ","MAREA":" ","LANE":"３１巷","ALLEY":"６弄","HOUSE_NO":"２號","E_COORD97":178690.92999999999,"N_COORD97":2578463.7799999998,"ADDRESS":"隋唐街３１巷６弄２號","OBJECTID":29700},"geometry":{"x":178690.9299999997,"y":2578463.7799999993}},{"attributes":{"ID":29701,"DIS_CODE":0,"TOWNNAME":"新營區","LI":"新南里","LIN":"17鄰","STREET":"隋唐街","SECT":" ","MAREA":" ","LANE":"１１５巷","ALLEY":"９弄","HOUSE_NO":"１８號","E_COORD97":178527.38,"N_COORD97":2578454.6099999999,"ADDRESS":"隋唐街１１５巷９弄１８號","OBJECTID":29701},"geometry":{"x":178527.37999999989,"y":2578454.6099999994}},{"attributes":{"ID":29702,"DIS_CODE":0,"TOWNNAME":"新營區","LI":"新南里","LIN":"17鄰","STREET":"隋唐街","SECT":" ","MAREA":" ","LANE":"３１巷","ALLEY":"６弄","HOUSE_NO":"１０號","E_COORD97":178669.64000000001,"N_COORD97":2578471.6400000001,"ADDRESS":"隋唐街３１巷６弄１０號","OBJECTID":29702},"geometry":{"x":178669.64000000153,"y":2578471.6400000025}},{"attributes":{"ID":29703,"DIS_CODE":0,"TOWNNAME":"歸仁區","LI":"七甲里","LIN":"17鄰","STREET":"南潭三街","SECT":" ","MAREA":" ","LANE":"１６２巷","ALLEY":"１９弄","HOUSE_NO":"２３號","E_COORD97":176498.57999999999,"N_COORD97":2543050.0299999998,"ADDRESS":"南潭三街１６２巷１９弄２３號","OBJECTID":29703},"geometry":{"x":176498.58000000007,"y":2543050.0299999975}},{"attributes":{"ID":29704,"DIS_CODE":0,"TOWNNAME":"歸仁區","LI":"七甲里","LIN":"17鄰","STREET":"南潭三街","SECT":" ","MAREA":" ","LANE":"１６２巷","ALLEY":"１９弄","HOUSE_NO":"１６號","E_COORD97":176477.98000000001,"N_COORD97":2543039.0299999998,"ADDRESS":"南潭三街１６２巷１９弄１６號","OBJECTID":29704},"geometry":{"x":176477.98000000231,"y":2543039.0299999993}},{"attributes":{"ID":29705,"DIS_CODE":0,"TOWNNAME":"歸仁區","LI":"七甲里","LIN":"17鄰","STREET":"南潭三街","SECT":" ","MAREA":" ","LANE":"１６２巷","ALLEY":"１９弄","HOUSE_NO":"１０號","E_COORD97":176465.67999999999,"N_COORD97":2543038.0299999998,"ADDRESS":"南潭三街１６２巷１９弄１０號","OBJECTID":29705},"geometry":{"x":176465.68000000156,"y":2543038.0300000012}},{"attributes":{"ID":29706,"DIS_CODE":0,"TOWNNAME":"歸仁區","LI":"七甲里","LIN":"17鄰","STREET":"南潭三街","SECT":" ","MAREA":" ","LANE":"１６２巷","ALLEY":"１１弄","HOUSE_NO":"１８號","E_COORD97":176481.48000000001,"N_COORD97":2543108.0299999998,"ADDRESS":"南潭三街１６２巷１１弄１８號","OBJECTID":29706},"geometry":{"x":176481.48000000231,"y":2543108.0300000031}},{"attributes":{"ID":29707,"DIS_CODE":0,"TOWNNAME":"南區","LI":"文華里","LIN":"25鄰","STREET":"文南一街","SECT":" ","MAREA":" ","LANE":" ","ALLEY":" ","HOUSE_NO":"４２號","E_COORD97":166862.51999999999,"N_COORD97":2542874.4700000002,"ADDRESS":"文南一街４２號","OBJECTID":29707},"geometry":{"x":166862.51999999955,"y":2542874.4700000007}},{"attributes":{"ID":29708,"DIS_CODE":0,"TOWNNAME":"南區","LI":"文華里","LIN":"25鄰","STREET":"文南一街","SECT":" ","MAREA":" ","LANE":" ","ALLEY":" ","HOUSE_NO":"４６號","E_COORD97":166855.51000000001,"N_COORD97":2542869.3799999999,"ADDRESS":"文南一街４６號","OBJECTID":29708},"geometry":{"x":166855.51000000071,"y":2542869.3800000008}},{"attributes":{"ID":29709,"DIS_CODE":0,"TOWNNAME":"鹽水區","LI":"歡雅里","LIN":"8鄰","STREET":" ","SECT":" ","MAREA":"歡雅","LANE":" ","ALLEY":" ","HOUSE_NO":"９９之６６號","E_COORD97":172408.95999999999,"N_COORD97":2576398.77,"ADDRESS":"歡雅９９之６６號","OBJECTID":29709},"geometry":{"x":172408.95999999996,"y":2576398.7699999996}},{"attributes":{"ID":29710,"DIS_CODE":0,"TOWNNAME":"鹽水區","LI":"歡雅里","LIN":"8鄰","STREET":" ","SECT":" ","MAREA":"歡雅","LANE":" ","ALLEY":" ","HOUSE_NO":"９９之６７號","E_COORD97":172359.17000000001,"N_COORD97":2576428.3300000001,"ADDRESS":"歡雅９９之６７號","OBJECTID":29710},"geometry":{"x":172359.17000000086,"y":2576428.3300000019}},{"attributes":{"ID":29711,"DIS_CODE":0,"TOWNNAME":"七股區","LI":"龍山里","LIN":"14鄰","STREET":" ","SECT":" ","MAREA":"龍山","LANE":" ","ALLEY":" ","HOUSE_NO":"５９號","E_COORD97":159409.54999999999,"N_COORD97":2560009.52,"ADDRESS":"龍山５９號","OBJECTID":29711},"geometry":{"x":159409.54999999888,"y":2560009.5200000033}},{"attributes":{"ID":29712,"DIS_CODE":0,"TOWNNAME":"鹽水區","LI":"歡雅里","LIN":"8鄰","STREET":" ","SECT":" ","MAREA":"歡雅","LANE":" ","ALLEY":" ","HOUSE_NO":"９９之６８號","E_COORD97":172363.48000000001,"N_COORD97":2576428.1000000001,"ADDRESS":"歡雅９９之６８號","OBJECTID":29712},"geometry":{"x":172363.48000000045,"y":2576428.0999999996}},{"attributes":{"ID":29713,"DIS_CODE":0,"TOWNNAME":"南區","LI":"文華里","LIN":"25鄰","STREET":"文南二街","SECT":" ","MAREA":" ","LANE":" ","ALLEY":" ","HOUSE_NO":"３７號","E_COORD97":166879.87,"N_COORD97":2542928.1400000001,"ADDRESS":"文南二街３７號","OBJECTID":29713},"geometry":{"x":166879.87000000011,"y":2542928.1400000006}},{"attributes":{"ID":29714,"DIS_CODE":0,"TOWNNAME":"七股區","LI":"中寮里","LIN":"14鄰","STREET":" ","SECT":" ","MAREA":"中寮","LANE":" ","ALLEY":" ","HOUSE_NO":"９５號之１","E_COORD97":158749.45000000001,"N_COORD97":2561832.9100000001,"ADDRESS":"中寮９５號之１","OBJECTID":29714},"geometry":{"x":158749.45000000019,"y":2561832.910000002}},{"attributes":{"ID":29715,"DIS_CODE":0,"TOWNNAME":"七股區","LI":"中寮里","LIN":"14鄰","STREET":" ","SECT":" ","MAREA":"中寮","LANE":" ","ALLEY":" ","HOUSE_NO":"９５號","E_COORD97":158770.76000000001,"N_COORD97":2561802.3799999999,"ADDRESS":"中寮９５號","OBJECTID":29715},"geometry":{"x":158770.76000000164,"y":2561802.379999999}},{"attributes":{"ID":29716,"DIS_CODE":0,"TOWNNAME":"歸仁區","LI":"七甲里","LIN":"17鄰","STREET":"南潭三街","SECT":" ","MAREA":" ","LANE":"１６２巷","ALLEY":"１９弄","HOUSE_NO":"１３號","E_COORD97":176478.07999999999,"N_COORD97":2543050.0299999998,"ADDRESS":"南潭三街１６２巷１９弄１３號","OBJECTID":29716},"geometry":{"x":176478.08000000007,"y":2543050.0299999975}},{"attributes":{"ID":29717,"DIS_CODE":0,"TOWNNAME":"七股區","LI":"中寮里","LIN":"14鄰","STREET":" ","SECT":" ","MAREA":"中寮","LANE":" ","ALLEY":" ","HOUSE_NO":"９６號之１","E_COORD97":158695.94,"N_COORD97":2561826.2599999998,"ADDRESS":"中寮９６號之１","OBJECTID":29717},"geometry":{"x":158695.94000000134,"y":2561826.2600000016}},{"attributes":{"ID":29718,"DIS_CODE":0,"TOWNNAME":"七股區","LI":"中寮里","LIN":"14鄰","STREET":" ","SECT":" ","MAREA":"中寮","LANE":" ","ALLEY":" ","HOUSE_NO":"９６號之２","E_COORD97":158705.91,"N_COORD97":2561852.1699999999,"ADDRESS":"中寮９６號之２","OBJECTID":29718},"geometry":{"x":158705.91000000108,"y":2561852.1699999999}},{"attributes":{"ID":29719,"DIS_CODE":0,"TOWNNAME":"七股區","LI":"中寮里","LIN":"14鄰","STREET":" ","SECT":" ","MAREA":"中寮","LANE":" ","ALLEY":" ","HOUSE_NO":"９６號之３","E_COORD97":158676.94,"N_COORD97":2561850.5499999998,"ADDRESS":"中寮９６號之３","OBJECTID":29719},"geometry":{"x":158676.94000000227,"y":2561850.5500000007}},{"attributes":{"ID":29720,"DIS_CODE":0,"TOWNNAME":"七股區","LI":"大埕里","LIN":"14鄰","STREET":" ","SECT":" ","MAREA":"大埕","LANE":" ","ALLEY":" ","HOUSE_NO":"４２０號","E_COORD97":162068.41,"N_COORD97":2559925.1099999999,"ADDRESS":"大埕４２０號","OBJECTID":29720},"geometry":{"x":162068.41000000015,"y":2559925.1100000013}},{"attributes":{"ID":29721,"DIS_CODE":0,"TOWNNAME":"七股區","LI":"大埕里","LIN":"14鄰","STREET":" ","SECT":" ","MAREA":"大埕","LANE":" ","ALLEY":" ","HOUSE_NO":"４２１號","E_COORD97":162089.35000000001,"N_COORD97":2559924.23,"ADDRESS":"大埕４２１號","OBJECTID":29721},"geometry":{"x":162089.35000000056,"y":2559924.2300000042}},{"attributes":{"ID":29722,"DIS_CODE":0,"TOWNNAME":"歸仁區","LI":"七甲里","LIN":"17鄰","STREET":"南潭三街","SECT":" ","MAREA":" ","LANE":"１６２巷","ALLEY":"１１弄","HOUSE_NO":"１４號","E_COORD97":176472.17999999999,"N_COORD97":2543107.0299999998,"ADDRESS":"南潭三街１６２巷１１弄１４號","OBJECTID":29722},"geometry":{"x":176472.1799999997,"y":2543107.0299999993}},{"attributes":{"ID":29723,"DIS_CODE":0,"TOWNNAME":"七股區","LI":"大埕里","LIN":"14鄰","STREET":" ","SECT":" ","MAREA":"大埕","LANE":" ","ALLEY":" ","HOUSE_NO":"４２２號","E_COORD97":162111.03,"N_COORD97":2559873.1800000002,"ADDRESS":"大埕４２２號","OBJECTID":29723},"geometry":{"x":162111.03000000119,"y":2559873.1800000016}},{"attributes":{"ID":29724,"DIS_CODE":0,"TOWNNAME":"七股區","LI":"大埕里","LIN":"14鄰","STREET":" ","SECT":" ","MAREA":"大埕","LANE":" ","ALLEY":" ","HOUSE_NO":"４２３號","E_COORD97":162078.42999999999,"N_COORD97":2559870.4500000002,"ADDRESS":"大埕４２３號","OBJECTID":29724},"geometry":{"x":162078.4299999997,"y":2559870.450000003}},{"attributes":{"ID":29725,"DIS_CODE":0,"TOWNNAME":"七股區","LI":"大埕里","LIN":"14鄰","STREET":" ","SECT":" ","MAREA":"大埕","LANE":" ","ALLEY":" ","HOUSE_NO":"４２４號","E_COORD97":162107.10000000001,"N_COORD97":2559831.6000000001,"ADDRESS":"大埕４２４號","OBJECTID":29725},"geometry":{"x":162107.09999999963,"y":2559831.5999999996}},{"attributes":{"ID":29726,"DIS_CODE":0,"TOWNNAME":"七股區","LI":"中寮里","LIN":"14鄰","STREET":" ","SECT":" ","MAREA":"中寮","LANE":" ","ALLEY":" ","HOUSE_NO":"１００號","E_COORD97":158596.5,"N_COORD97":2561815.8599999999,"ADDRESS":"中寮１００號","OBJECTID":29726},"geometry":{"x":158596.50000000186,"y":2561815.8599999994}},{"attributes":{"ID":29727,"DIS_CODE":0,"TOWNNAME":"七股區","LI":"中寮里","LIN":"14鄰","STREET":" ","SECT":" ","MAREA":"中寮","LANE":" ","ALLEY":" ","HOUSE_NO":"１０１號","E_COORD97":158537.32999999999,"N_COORD97":2561802.4300000002,"ADDRESS":"中寮１０１號","OBJECTID":29727},"geometry":{"x":158537.33000000101,"y":2561802.4299999997}},{"attributes":{"ID":29728,"DIS_CODE":0,"TOWNNAME":"七股區","LI":"中寮里","LIN":"14鄰","STREET":" ","SECT":" ","MAREA":"中寮","LANE":" ","ALLEY":" ","HOUSE_NO":"９６號","E_COORD97":158729.41,"N_COORD97":2561838.02,"ADDRESS":"中寮９６號","OBJECTID":29728},"geometry":{"x":158729.40999999922,"y":2561838.0200000014}},{"attributes":{"ID":29729,"DIS_CODE":0,"TOWNNAME":"七股區","LI":"中寮里","LIN":"14鄰","STREET":" ","SECT":" ","MAREA":"中寮","LANE":" ","ALLEY":" ","HOUSE_NO":"９７號","E_COORD97":158743.13,"N_COORD97":2561802.7799999998,"ADDRESS":"中寮９７號","OBJECTID":29729},"geometry":{"x":158743.13000000082,"y":2561802.7799999993}},{"attributes":{"ID":29730,"DIS_CODE":0,"TOWNNAME":"七股區","LI":"中寮里","LIN":"14鄰","STREET":" ","SECT":" ","MAREA":"中寮","LANE":" ","ALLEY":" ","HOUSE_NO":"９８號之１","E_COORD97":158645.87,"N_COORD97":2561826.2599999998,"ADDRESS":"中寮９８號之１","OBJECTID":29730},"geometry":{"x":158645.87000000011,"y":2561826.2600000016}},{"attributes":{"ID":29731,"DIS_CODE":0,"TOWNNAME":"七股區","LI":"中寮里","LIN":"14鄰","STREET":" ","SECT":" ","MAREA":"中寮","LANE":" ","ALLEY":" ","HOUSE_NO":"９８號","E_COORD97":158640.26000000001,"N_COORD97":2561804.9199999999,"ADDRESS":"中寮９８號","OBJECTID":29731},"geometry":{"x":158640.26000000164,"y":2561804.9200000018}},{"attributes":{"ID":29732,"DIS_CODE":0,"TOWNNAME":"七股區","LI":"中寮里","LIN":"14鄰","STREET":" ","SECT":" ","MAREA":"中寮","LANE":" ","ALLEY":" ","HOUSE_NO":"９９號之１","E_COORD97":158627.53,"N_COORD97":2561834.7999999998,"ADDRESS":"中寮９９號之１","OBJECTID":29732},"geometry":{"x":158627.53000000119,"y":2561834.8000000007}},{"attributes":{"ID":29733,"DIS_CODE":0,"TOWNNAME":"鹽水區","LI":"歡雅里","LIN":"8鄰","STREET":" ","SECT":" ","MAREA":"歡雅","LANE":" ","ALLEY":" ","HOUSE_NO":"９９之６９號","E_COORD97":172367.44,"N_COORD97":2576427.5800000001,"ADDRESS":"歡雅９９之６９號","OBJECTID":29733},"geometry":{"x":172367.44000000227,"y":2576427.5800000001}},{"attributes":{"ID":29734,"DIS_CODE":0,"TOWNNAME":"鹽水區","LI":"歡雅里","LIN":"8鄰","STREET":" ","SECT":" ","MAREA":"歡雅","LANE":" ","ALLEY":" ","HOUSE_NO":"９９號之７０","E_COORD97":172371.26000000001,"N_COORD97":2576427.1299999999,"ADDRESS":"歡雅９９號之７０","OBJECTID":29734},"geometry":{"x":172371.26000000164,"y":2576427.129999999}},{"attributes":{"ID":29735,"DIS_CODE":0,"TOWNNAME":"鹽水區","LI":"歡雅里","LIN":"8鄰","STREET":" ","SECT":" ","MAREA":"歡雅","LANE":" ","ALLEY":" ","HOUSE_NO":"９９之７１號","E_COORD97":172375.23999999999,"N_COORD97":2576426.52,"ADDRESS":"歡雅９９之７１號","OBJECTID":29735},"geometry":{"x":172375.24000000209,"y":2576426.5200000014}},{"attributes":{"ID":29736,"DIS_CODE":0,"TOWNNAME":"歸仁區","LI":"七甲里","LIN":"17鄰","STREET":"南潭三街","SECT":" ","MAREA":" ","LANE":"１６２巷","ALLEY":"１１弄","HOUSE_NO":"１６號","E_COORD97":176476.28,"N_COORD97":2543108.0299999998,"ADDRESS":"南潭三街１６２巷１１弄１６號","OBJECTID":29736},"geometry":{"x":176476.28000000119,"y":2543108.0300000031}},{"attributes":{"ID":29737,"DIS_CODE":0,"TOWNNAME":"七股區","LI":"中寮里","LIN":"14鄰","STREET":" ","SECT":" ","MAREA":"中寮","LANE":" ","ALLEY":" ","HOUSE_NO":"９９號","E_COORD97":158620.95000000001,"N_COORD97":2561816.1099999999,"ADDRESS":"中寮９９號","OBJECTID":29737},"geometry":{"x":158620.95000000112,"y":2561816.1100000013}},{"attributes":{"ID":29738,"DIS_CODE":0,"TOWNNAME":"新市區","LI":"社內里","LIN":"14鄰","STREET":" ","SECT":" ","MAREA":"社內","LANE":" ","ALLEY":" ","HOUSE_NO":"１４９之８號","E_COORD97":176225.62,"N_COORD97":2553012.5499999998,"ADDRESS":"社內１４９之８號","OBJECTID":29738},"geometry":{"x":176225.62000000011,"y":2553012.5500000045}},{"attributes":{"ID":29739,"DIS_CODE":0,"TOWNNAME":"新市區","LI":"社內里","LIN":"14鄰","STREET":" ","SECT":" ","MAREA":"社內","LANE":" ","ALLEY":" ","HOUSE_NO":"１４７之２號","E_COORD97":176264.82999999999,"N_COORD97":2552931.5499999998,"ADDRESS":"社內１４７之２號","OBJECTID":29739},"geometry":{"x":176264.83000000007,"y":2552931.5500000026}},{"attributes":{"ID":29740,"DIS_CODE":0,"TOWNNAME":"新市區","LI":"社內里","LIN":"14鄰","STREET":" ","SECT":" ","MAREA":"社內","LANE":" ","ALLEY":" ","HOUSE_NO":"１４９之１５號","E_COORD97":176257.37,"N_COORD97":2553015.0499999998,"ADDRESS":"社內１４９之１５號","OBJECTID":29740},"geometry":{"x":176257.37000000011,"y":2553015.0500000007}},{"attributes":{"ID":29741,"DIS_CODE":0,"TOWNNAME":"歸仁區","LI":"七甲里","LIN":"17鄰","STREET":"南潭三街","SECT":" ","MAREA":" ","LANE":"１６２巷","ALLEY":"１９弄","HOUSE_NO":"１５號","E_COORD97":176482.17999999999,"N_COORD97":2543050.0299999998,"ADDRESS":"南潭三街１６２巷１９弄１５號","OBJECTID":29741},"geometry":{"x":176482.1799999997,"y":2543050.0299999975}},{"attributes":{"ID":29742,"DIS_CODE":0,"TOWNNAME":"歸仁區","LI":"七甲里","LIN":"17鄰","STREET":"南潭三街","SECT":" ","MAREA":" ","LANE":"１６２巷","ALLEY":"１５弄","HOUSE_NO":"２３號","E_COORD97":176498.78,"N_COORD97":2543086.0299999998,"ADDRESS":"南潭三街１６２巷１５弄２３號","OBJECTID":29742},"geometry":{"x":176498.78000000026,"y":2543086.0299999993}},{"attributes":{"ID":29743,"DIS_CODE":0,"TOWNNAME":"歸仁區","LI":"七甲里","LIN":"17鄰","STREET":"南潭三街","SECT":" ","MAREA":" ","LANE":"１６２巷","ALLEY":"１９弄","HOUSE_NO":"１８號","E_COORD97":176482.17999999999,"N_COORD97":2543039.0299999998,"ADDRESS":"南潭三街１６２巷１９弄１８號","OBJECTID":29743},"geometry":{"x":176482.1799999997,"y":2543039.0299999993}},{"attributes":{"ID":29744,"DIS_CODE":0,"TOWNNAME":"歸仁區","LI":"七甲里","LIN":"17鄰","STREET":"南潭三街","SECT":" ","MAREA":" ","LANE":"１６２巷","ALLEY":"１１弄","HOUSE_NO":"８號","E_COORD97":176458.63,"N_COORD97":2543107.0299999998,"ADDRESS":"南潭三街１６２巷１１弄８號","OBJECTID":29744},"geometry":{"x":176458.62999999989,"y":2543107.0299999993}},{"attributes":{"ID":29745,"DIS_CODE":0,"TOWNNAME":"新市區","LI":"潭頂里","LIN":"14鄰","STREET":" ","SECT":" ","MAREA":"潭頂","LANE":" ","ALLEY":" ","HOUSE_NO":"５３８之４號","E_COORD97":180160.32999999999,"N_COORD97":2552809.7999999998,"ADDRESS":"潭頂５３８之４號","OBJECTID":29745},"geometry":{"x":180160.33000000007,"y":2552809.8000000007}},{"attributes":{"ID":29746,"DIS_CODE":0,"TOWNNAME":"歸仁區","LI":"七甲里","LIN":"17鄰","STREET":"南潭三街","SECT":" ","MAREA":" ","LANE":"１６２巷","ALLEY":"１５弄","HOUSE_NO":"７號","E_COORD97":176462.63,"N_COORD97":2543085.0299999998,"ADDRESS":"南潭三街１６２巷１５弄７號","OBJECTID":29746},"geometry":{"x":176462.62999999989,"y":2543085.0300000012}},{"attributes":{"ID":29747,"DIS_CODE":0,"TOWNNAME":"新市區","LI":"潭頂里","LIN":"14鄰","STREET":" ","SECT":" ","MAREA":"潭頂","LANE":" ","ALLEY":" ","HOUSE_NO":"５３２號","E_COORD97":180283.57999999999,"N_COORD97":2552910.5,"ADDRESS":"潭頂５３２號","OBJECTID":29747},"geometry":{"x":180283.58000000007,"y":2552910.5000000037}},{"attributes":{"ID":29748,"DIS_CODE":0,"TOWNNAME":"歸仁區","LI":"七甲里","LIN":"17鄰","STREET":"南潭三街","SECT":" ","MAREA":" ","LANE":"１６２巷","ALLEY":"１５弄","HOUSE_NO":"３號","E_COORD97":176454.42999999999,"N_COORD97":2543086.0299999998,"ADDRESS":"南潭三街１６２巷１５弄３號","OBJECTID":29748},"geometry":{"x":176454.43000000063,"y":2543086.0299999993}},{"attributes":{"ID":29749,"DIS_CODE":0,"TOWNNAME":"歸仁區","LI":"七甲里","LIN":"17鄰","STREET":"南潭三街","SECT":" ","MAREA":" ","LANE":"１６２巷","ALLEY":"１９弄","HOUSE_NO":"２號","E_COORD97":176451.13,"N_COORD97":2543038.0299999998,"ADDRESS":"南潭三街１６２巷１９弄２號","OBJECTID":29749},"geometry":{"x":176451.13000000082,"y":2543038.0300000012}},{"attributes":{"ID":29750,"DIS_CODE":0,"TOWNNAME":"歸仁區","LI":"七甲里","LIN":"17鄰","STREET":"南潭三街","SECT":" ","MAREA":" ","LANE":"１６２巷","ALLEY":"１９弄","HOUSE_NO":"２１號","E_COORD97":176494.48000000001,"N_COORD97":2543050.0299999998,"ADDRESS":"南潭三街１６２巷１９弄２１號","OBJECTID":29750},"geometry":{"x":176494.48000000045,"y":2543050.0299999975}},{"attributes":{"ID":29751,"DIS_CODE":0,"TOWNNAME":"鹽水區","LI":"歡雅里","LIN":"8鄰","STREET":" ","SECT":" ","MAREA":"歡雅","LANE":" ","ALLEY":" ","HOUSE_NO":"９９之７２號","E_COORD97":172379.29999999999,"N_COORD97":2576426.4100000001,"ADDRESS":"歡雅９９之７２號","OBJECTID":29751},"geometry":{"x":172379.29999999981,"y":2576426.4100000001}},{"attributes":{"ID":29752,"DIS_CODE":0,"TOWNNAME":"鹽水區","LI":"歡雅里","LIN":"8鄰","STREET":" ","SECT":" ","MAREA":"歡雅","LANE":" ","ALLEY":" ","HOUSE_NO":"９９號之７３","E_COORD97":172383.51999999999,"N_COORD97":2576425.7000000002,"ADDRESS":"歡雅９９號之７３","OBJECTID":29752},"geometry":{"x":172383.52000000048,"y":2576425.6999999993}},{"attributes":{"ID":29753,"DIS_CODE":0,"TOWNNAME":"鹽水區","LI":"歡雅里","LIN":"8鄰","STREET":" ","SECT":" ","MAREA":"歡雅","LANE":" ","ALLEY":" ","HOUSE_NO":"９９號之７４","E_COORD97":172387.20999999999,"N_COORD97":2576425.3799999999,"ADDRESS":"歡雅９９號之７４","OBJECTID":29753},"geometry":{"x":172387.21000000183,"y":2576425.379999999}},{"attributes":{"ID":29754,"DIS_CODE":0,"TOWNNAME":"歸仁區","LI":"七甲里","LIN":"17鄰","STREET":"南潭三街","SECT":" ","MAREA":" ","LANE":"１６２巷","ALLEY":"１９弄","HOUSE_NO":"２７號","E_COORD97":176507.78,"N_COORD97":2543051.0299999998,"ADDRESS":"南潭三街１６２巷１９弄２７號","OBJECTID":29754},"geometry":{"x":176507.78000000026,"y":2543051.0300000012}},{"attributes":{"ID":29755,"DIS_CODE":0,"TOWNNAME":"鹽水區","LI":"歡雅里","LIN":"8鄰","STREET":" ","SECT":" ","MAREA":"歡雅","LANE":" ","ALLEY":" ","HOUSE_NO":"９９號之７５","E_COORD97":172391.87,"N_COORD97":2576424.9199999999,"ADDRESS":"歡雅９９號之７５","OBJECTID":29755},"geometry":{"x":172391.87000000104,"y":2576424.9199999999}},{"attributes":{"ID":29756,"DIS_CODE":0,"TOWNNAME":"歸仁區","LI":"七甲里","LIN":"17鄰","STREET":"南潭三街","SECT":" ","MAREA":" ","LANE":"１６２巷","ALLEY":"１５弄","HOUSE_NO":"１１號","E_COORD97":176473.07999999999,"N_COORD97":2543086.0299999998,"ADDRESS":"南潭三街１６２巷１５弄１１號","OBJECTID":29756},"geometry":{"x":176473.08000000007,"y":2543086.0299999993}},{"attributes":{"ID":29757,"DIS_CODE":0,"TOWNNAME":"歸仁區","LI":"七甲里","LIN":"17鄰","STREET":"南潭三街","SECT":" ","MAREA":" ","LANE":"１６２巷","ALLEY":"１５弄","HOUSE_NO":"１６號","E_COORD97":176477.17999999999,"N_COORD97":2543072.0299999998,"ADDRESS":"南潭三街１６２巷１５弄１６號","OBJECTID":29757},"geometry":{"x":176477.1799999997,"y":2543072.0300000012}},{"attributes":{"ID":29758,"DIS_CODE":0,"TOWNNAME":"歸仁區","LI":"七甲里","LIN":"17鄰","STREET":"南潭三街","SECT":" ","MAREA":" ","LANE":"１６２巷","ALLEY":"１５弄","HOUSE_NO":"２６號","E_COORD97":176498.67999999999,"N_COORD97":2543072.0299999998,"ADDRESS":"南潭三街１６２巷１５弄２６號","OBJECTID":29758},"geometry":{"x":176498.68000000063,"y":2543072.0300000012}},{"attributes":{"ID":29759,"DIS_CODE":0,"TOWNNAME":"安南區","LI":"淵西里","LIN":"14鄰","STREET":"安中路","SECT":"四段","MAREA":" ","LANE":" ","ALLEY":" ","HOUSE_NO":"３３７號","E_COORD97":164368.69,"N_COORD97":2550263.3300000001,"ADDRESS":"安中路四段３３７號","OBJECTID":29759},"geometry":{"x":164368.69000000041,"y":2550263.3300000001}},{"attributes":{"ID":29760,"DIS_CODE":0,"TOWNNAME":"安南區","LI":"淵西里","LIN":"14鄰","STREET":"安中路","SECT":"四段","MAREA":" ","LANE":" ","ALLEY":" ","HOUSE_NO":"３３９號","E_COORD97":164358.97,"N_COORD97":2550270.4500000002,"ADDRESS":"安中路四段３３９號","OBJECTID":29760},"geometry":{"x":164358.97000000067,"y":2550270.4500000011}},{"attributes":{"ID":29761,"DIS_CODE":0,"TOWNNAME":"安南區","LI":"淵東里","LIN":"14鄰","STREET":"仁安一街","SECT":" ","MAREA":" ","LANE":" ","ALLEY":" ","HOUSE_NO":"３２號","E_COORD97":165657.29999999999,"N_COORD97":2550247.54,"ADDRESS":"仁安一街３２號","OBJECTID":29761},"geometry":{"x":165657.29999999981,"y":2550247.5399999972}},{"attributes":{"ID":29762,"DIS_CODE":0,"TOWNNAME":"安南區","LI":"淵東里","LIN":"14鄰","STREET":"仁安一街","SECT":" ","MAREA":" ","LANE":" ","ALLEY":" ","HOUSE_NO":"３６號","E_COORD97":165661.73000000001,"N_COORD97":2550248.7400000002,"ADDRESS":"仁安一街３６號","OBJECTID":29762},"geometry":{"x":165661.73000000138,"y":2550248.7400000021}},{"attributes":{"ID":29763,"DIS_CODE":0,"TOWNNAME":"歸仁區","LI":"大廟里","LIN":"17鄰","STREET":"保大路","SECT":"三段","MAREA":" ","LANE":"２９０巷","ALLEY":"３３弄","HOUSE_NO":"５４號","E_COORD97":175727.04999999999,"N_COORD97":2544528.8599999999,"ADDRESS":"保大路三段２９０巷３３弄５４號","OBJECTID":29763},"geometry":{"x":175727.04999999981,"y":2544528.8599999994}},{"attributes":{"ID":29764,"DIS_CODE":0,"TOWNNAME":"歸仁區","LI":"七甲里","LIN":"17鄰","STREET":"南潭三街","SECT":" ","MAREA":" ","LANE":"１６２巷","ALLEY":"１５弄","HOUSE_NO":"２８號","E_COORD97":176502.78,"N_COORD97":2543072.0299999998,"ADDRESS":"南潭三街１６２巷１５弄２８號","OBJECTID":29764},"geometry":{"x":176502.77999999933,"y":2543072.0300000012}},{"attributes":{"ID":29765,"DIS_CODE":0,"TOWNNAME":"歸仁區","LI":"七甲里","LIN":"17鄰","STREET":"南潭三街","SECT":" ","MAREA":" ","LANE":"１６２巷","ALLEY":"１５弄","HOUSE_NO":"１０號","E_COORD97":176464.88,"N_COORD97":2543072.0299999998,"ADDRESS":"南潭三街１６２巷１５弄１０號","OBJECTID":29765},"geometry":{"x":176464.88000000082,"y":2543072.0300000012}},{"attributes":{"ID":29766,"DIS_CODE":0,"TOWNNAME":"歸仁區","LI":"七甲里","LIN":"17鄰","STREET":"南潭三街","SECT":" ","MAREA":" ","LANE":"１６２巷","ALLEY":"１９弄","HOUSE_NO":"５號","E_COORD97":176459.42999999999,"N_COORD97":2543050.0299999998,"ADDRESS":"南潭三街１６２巷１９弄５號","OBJECTID":29766},"geometry":{"x":176459.43000000063,"y":2543050.0299999975}},{"attributes":{"ID":29767,"DIS_CODE":0,"TOWNNAME":"歸仁區","LI":"七甲里","LIN":"17鄰","STREET":"南潭三街","SECT":" ","MAREA":" ","LANE":"１６２巷","ALLEY":"１９弄","HOUSE_NO":"２２號","E_COORD97":176490.28,"N_COORD97":2543039.0299999998,"ADDRESS":"南潭三街１６２巷１９弄２２號","OBJECTID":29767},"geometry":{"x":176490.28000000026,"y":2543039.0299999993}},{"attributes":{"ID":29768,"DIS_CODE":0,"TOWNNAME":"北區","LI":"文元里","LIN":"17鄰","STREET":"文賢路","SECT":" ","MAREA":" ","LANE":"１０３０巷","ALLEY":"３５弄","HOUSE_NO":"２之１號","E_COORD97":167516.35999999999,"N_COORD97":2546110.7799999998,"ADDRESS":"文賢路１０３０巷３５弄２之１號","OBJECTID":29768},"geometry":{"x":167516.36000000127,"y":2546110.7800000012}},{"attributes":{"ID":29769,"DIS_CODE":0,"TOWNNAME":"柳營區","LI":"光福里","LIN":"17鄰","STREET":"建業路","SECT":" ","MAREA":" ","LANE":"１０１巷","ALLEY":"９９弄","HOUSE_NO":"４３號","E_COORD97":179988.81,"N_COORD97":2575664.4500000002,"ADDRESS":"建業路１０１巷９９弄４３號","OBJECTID":29769},"geometry":{"x":179988.80999999866,"y":2575664.4500000011}},{"attributes":{"ID":29770,"DIS_CODE":0,"TOWNNAME":"北區","LI":"振興里","LIN":"17鄰","STREET":"開元路","SECT":" ","MAREA":" ","LANE":"２１２巷","ALLEY":"１２４弄","HOUSE_NO":"２２號","E_COORD97":170390.85999999999,"N_COORD97":2545020.4399999999,"ADDRESS":"開元路２１２巷１２４弄２２號","OBJECTID":29770},"geometry":{"x":170390.86000000034,"y":2545020.4399999995}},{"attributes":{"ID":29771,"DIS_CODE":0,"TOWNNAME":"北區","LI":"振興里","LIN":"17鄰","STREET":"開元路","SECT":" ","MAREA":" ","LANE":"２１２巷","ALLEY":"１２４弄","HOUSE_NO":"２４號","E_COORD97":170384.10000000001,"N_COORD97":2545017.9399999999,"ADDRESS":"開元路２１２巷１２４弄２４號","OBJECTID":29771},"geometry":{"x":170384.10000000056,"y":2545017.9400000013}},{"attributes":{"ID":29772,"DIS_CODE":0,"TOWNNAME":"歸仁區","LI":"七甲里","LIN":"17鄰","STREET":"南潭三街","SECT":" ","MAREA":" ","LANE":"１６２巷","ALLEY":"１１弄","HOUSE_NO":"１２號","E_COORD97":176468.07999999999,"N_COORD97":2543107.0299999998,"ADDRESS":"南潭三街１６２巷１１弄１２號","OBJECTID":29772},"geometry":{"x":176468.08000000007,"y":2543107.0299999993}},{"attributes":{"ID":29773,"DIS_CODE":0,"TOWNNAME":"麻豆區","LI":"磚井里","LIN":"14鄰","STREET":" ","SECT":" ","MAREA":"磚子井","LANE":" ","ALLEY":" ","HOUSE_NO":"１３９號之１０","E_COORD97":172439.98000000001,"N_COORD97":2563866.0899999999,"ADDRESS":"磚子井１３９號之１０","OBJECTID":29773},"geometry":{"x":172439.98000000231,"y":2563866.0899999999}},{"attributes":{"ID":29774,"DIS_CODE":0,"TOWNNAME":"麻豆區","LI":"磚井里","LIN":"14鄰","STREET":" ","SECT":" ","MAREA":"磚子井","LANE":" ","ALLEY":" ","HOUSE_NO":"１３９號之１","E_COORD97":172840.79999999999,"N_COORD97":2563794.2799999998,"ADDRESS":"磚子井１３９號之１","OBJECTID":29774},"geometry":{"x":172840.80000000075,"y":2563794.2800000031}},{"attributes":{"ID":29775,"DIS_CODE":0,"TOWNNAME":"歸仁區","LI":"七甲里","LIN":"17鄰","STREET":"南潭三街","SECT":" ","MAREA":" ","LANE":"１６２巷","ALLEY":"１５弄","HOUSE_NO":"１５號","E_COORD97":176481.28,"N_COORD97":2543086.0299999998,"ADDRESS":"南潭三街１６２巷１５弄１５號","OBJECTID":29775},"geometry":{"x":176481.28000000119,"y":2543086.0299999993}},{"attributes":{"ID":29776,"DIS_CODE":0,"TOWNNAME":"左鎮區","LI":"澄山里","LIN":"8鄰","STREET":" ","SECT":" ","MAREA":"澄山","LANE":" ","ALLEY":" ","HOUSE_NO":"７７號之６","E_COORD97":186897.53,"N_COORD97":2547313.2999999998,"ADDRESS":"澄山７７號之６","OBJECTID":29776},"geometry":{"x":186897.53000000026,"y":2547313.3000000026}},{"attributes":{"ID":29777,"DIS_CODE":0,"TOWNNAME":"歸仁區","LI":"七甲里","LIN":"17鄰","STREET":"南潭三街","SECT":" ","MAREA":" ","LANE":"１６２巷","ALLEY":"１５弄","HOUSE_NO":"２０號","E_COORD97":176486.38,"N_COORD97":2543071.0299999998,"ADDRESS":"南潭三街１６２巷１５弄２０號","OBJECTID":29777},"geometry":{"x":176486.37999999989,"y":2543071.0300000012}},{"attributes":{"ID":29778,"DIS_CODE":0,"TOWNNAME":"歸仁區","LI":"大廟里","LIN":"17鄰","STREET":"保大路","SECT":"三段","MAREA":" ","LANE":"２９０巷","ALLEY":"３３弄","HOUSE_NO":"１８號","E_COORD97":175767.64999999999,"N_COORD97":2544447.8599999999,"ADDRESS":"保大路三段２９０巷３３弄１８號","OBJECTID":29778},"geometry":{"x":175767.65000000037,"y":2544447.8599999994}},{"attributes":{"ID":29779,"DIS_CODE":0,"TOWNNAME":"歸仁區","LI":"七甲里","LIN":"17鄰","STREET":"南潭三街","SECT":" ","MAREA":" ","LANE":"１６２巷","ALLEY":"１９弄","HOUSE_NO":"８號","E_COORD97":176459.32999999999,"N_COORD97":2543038.0299999998,"ADDRESS":"南潭三街１６２巷１９弄８號","OBJECTID":29779},"geometry":{"x":176459.33000000007,"y":2543038.0300000012}},{"attributes":{"ID":29780,"DIS_CODE":0,"TOWNNAME":"歸仁區","LI":"七甲里","LIN":"17鄰","STREET":"南潭三街","SECT":" ","MAREA":" ","LANE":"１６２巷","ALLEY":"１５弄","HOUSE_NO":"８號","E_COORD97":176458.53,"N_COORD97":2543072.0299999998,"ADDRESS":"南潭三街１６２巷１５弄８號","OBJECTID":29780},"geometry":{"x":176458.53000000026,"y":2543072.0300000012}},{"attributes":{"ID":29781,"DIS_CODE":0,"TOWNNAME":"歸仁區","LI":"七甲里","LIN":"17鄰","STREET":"南潭三街","SECT":" ","MAREA":" ","LANE":"１６２巷","ALLEY":"１５弄","HOUSE_NO":"１９號","E_COORD97":176489.48000000001,"N_COORD97":2543086.0299999998,"ADDRESS":"南潭三街１６２巷１５弄１９號","OBJECTID":29781},"geometry":{"x":176489.48000000045,"y":2543086.0299999993}},{"attributes":{"ID":29782,"DIS_CODE":0,"TOWNNAME":"麻豆區","LI":"磚井里","LIN":"14鄰","STREET":" ","SECT":" ","MAREA":"磚子井","LANE":" ","ALLEY":" ","HOUSE_NO":"１３９號之２","E_COORD97":172854.79999999999,"N_COORD97":2563830.1800000002,"ADDRESS":"磚子井１３９號之２","OBJECTID":29782},"geometry":{"x":172854.80000000075,"y":2563830.1800000016}},{"attributes":{"ID":29783,"DIS_CODE":0,"TOWNNAME":"歸仁區","LI":"七甲里","LIN":"17鄰","STREET":"南潭三街","SECT":" ","MAREA":" ","LANE":"１６２巷","ALLEY":"１５弄","HOUSE_NO":"１８號","E_COORD97":176481.28,"N_COORD97":2543072.0299999998,"ADDRESS":"南潭三街１６２巷１５弄１８號","OBJECTID":29783},"geometry":{"x":176481.28000000119,"y":2543072.0300000012}},{"attributes":{"ID":29784,"DIS_CODE":0,"TOWNNAME":"麻豆區","LI":"磚井里","LIN":"14鄰","STREET":" ","SECT":" ","MAREA":"磚子井","LANE":" ","ALLEY":" ","HOUSE_NO":"１５１號","E_COORD97":173017.23000000001,"N_COORD97":2563826.79,"ADDRESS":"磚子井１５１號","OBJECTID":29784},"geometry":{"x":173017.23000000138,"y":2563826.7899999991}},{"attributes":{"ID":29785,"DIS_CODE":0,"TOWNNAME":"麻豆區","LI":"磚井里","LIN":"14鄰","STREET":" ","SECT":" ","MAREA":"磚子井","LANE":" ","ALLEY":" ","HOUSE_NO":"１５２號","E_COORD97":173016.91,"N_COORD97":2563831.0699999998,"ADDRESS":"磚子井１５２號","OBJECTID":29785},"geometry":{"x":173016.91000000108,"y":2563831.0700000022}},{"attributes":{"ID":29786,"DIS_CODE":0,"TOWNNAME":"麻豆區","LI":"磚井里","LIN":"14鄰","STREET":" ","SECT":" ","MAREA":"磚子井","LANE":" ","ALLEY":" ","HOUSE_NO":"１５３號","E_COORD97":173000.82999999999,"N_COORD97":2563830.0699999998,"ADDRESS":"磚子井１５３號","OBJECTID":29786},"geometry":{"x":173000.83000000101,"y":2563830.0700000003}},{"attributes":{"ID":29787,"DIS_CODE":0,"TOWNNAME":"麻豆區","LI":"磚井里","LIN":"14鄰","STREET":" ","SECT":" ","MAREA":"磚子井","LANE":" ","ALLEY":" ","HOUSE_NO":"１５４號","E_COORD97":173000.64000000001,"N_COORD97":2563826.1899999999,"ADDRESS":"磚子井１５４號","OBJECTID":29787},"geometry":{"x":173000.63999999966,"y":2563826.1900000013}},{"attributes":{"ID":29788,"DIS_CODE":0,"TOWNNAME":"麻豆區","LI":"磚井里","LIN":"14鄰","STREET":" ","SECT":" ","MAREA":"磚子井","LANE":" ","ALLEY":" ","HOUSE_NO":"１５５號","E_COORD97":173000.79999999999,"N_COORD97":2563822.0499999998,"ADDRESS":"磚子井１５５號","OBJECTID":29788},"geometry":{"x":173000.80000000075,"y":2563822.0500000026}},{"attributes":{"ID":29789,"DIS_CODE":0,"TOWNNAME":"麻豆區","LI":"磚井里","LIN":"14鄰","STREET":" ","SECT":" ","MAREA":"磚子井","LANE":" ","ALLEY":" ","HOUSE_NO":"１５６號","E_COORD97":173000.76000000001,"N_COORD97":2563818.04,"ADDRESS":"磚子井１５６號","OBJECTID":29789},"geometry":{"x":173000.76000000071,"y":2563818.0399999991}},{"attributes":{"ID":29790,"DIS_CODE":0,"TOWNNAME":"麻豆區","LI":"磚井里","LIN":"14鄰","STREET":" ","SECT":" ","MAREA":"磚子井","LANE":" ","ALLEY":" ","HOUSE_NO":"１５７號","E_COORD97":173000.75,"N_COORD97":2563814.1200000001,"ADDRESS":"磚子井１５７號","OBJECTID":29790},"geometry":{"x":173000.75000000093,"y":2563814.1200000048}},{"attributes":{"ID":29791,"DIS_CODE":0,"TOWNNAME":"麻豆區","LI":"磚井里","LIN":"14鄰","STREET":" ","SECT":" ","MAREA":"磚子井","LANE":" ","ALLEY":" ","HOUSE_NO":"１５８號","E_COORD97":173000.97,"N_COORD97":2563809.8700000001,"ADDRESS":"磚子井１５８號","OBJECTID":29791},"geometry":{"x":173000.97000000067,"y":2563809.8700000029}},{"attributes":{"ID":29792,"DIS_CODE":0,"TOWNNAME":"麻豆區","LI":"磚井里","LIN":"14鄰","STREET":" ","SECT":" ","MAREA":"磚子井","LANE":" ","ALLEY":" ","HOUSE_NO":"１５９號","E_COORD97":173001.5,"N_COORD97":2563806.1899999999,"ADDRESS":"磚子井１５９號","OBJECTID":29792},"geometry":{"x":173001.5,"y":2563806.1900000013}},{"attributes":{"ID":29793,"DIS_CODE":0,"TOWNNAME":"麻豆區","LI":"磚井里","LIN":"14鄰","STREET":" ","SECT":" ","MAREA":"磚子井","LANE":" ","ALLEY":" ","HOUSE_NO":"１６０號","E_COORD97":173001.70000000001,"N_COORD97":2563802.1200000001,"ADDRESS":"磚子井１６０號","OBJECTID":29793},"geometry":{"x":173001.70000000112,"y":2563802.1200000029}},{"attributes":{"ID":29794,"DIS_CODE":0,"TOWNNAME":"麻豆區","LI":"磚井里","LIN":"14鄰","STREET":" ","SECT":" ","MAREA":"磚子井","LANE":" ","ALLEY":" ","HOUSE_NO":"１６１號","E_COORD97":173001.78,"N_COORD97":2563797.9100000001,"ADDRESS":"磚子井１６１號","OBJECTID":29794},"geometry":{"x":173001.78000000026,"y":2563797.9100000039}},{"attributes":{"ID":29795,"DIS_CODE":0,"TOWNNAME":"麻豆區","LI":"磚井里","LIN":"14鄰","STREET":" ","SECT":" ","MAREA":"磚子井","LANE":" ","ALLEY":" ","HOUSE_NO":"１６２號","E_COORD97":173067.32999999999,"N_COORD97":2563804.5600000001,"ADDRESS":"磚子井１６２號","OBJECTID":29795},"geometry":{"x":173067.33000000007,"y":2563804.5600000024}},{"attributes":{"ID":29796,"DIS_CODE":0,"TOWNNAME":"鹽水區","LI":"歡雅里","LIN":"8鄰","STREET":" ","SECT":" ","MAREA":"歡雅","LANE":" ","ALLEY":" ","HOUSE_NO":"９９之７６號","E_COORD97":172396.34,"N_COORD97":2576424.7999999998,"ADDRESS":"歡雅９９之７６號","OBJECTID":29796},"geometry":{"x":172396.34000000171,"y":2576424.8000000045}},{"attributes":{"ID":29797,"DIS_CODE":0,"TOWNNAME":"鹽水區","LI":"歡雅里","LIN":"8鄰","STREET":" ","SECT":" ","MAREA":"歡雅","LANE":" ","ALLEY":" ","HOUSE_NO":"９９之７７號","E_COORD97":172400.42999999999,"N_COORD97":2576424.1299999999,"ADDRESS":"歡雅９９之７７號","OBJECTID":29797},"geometry":{"x":172400.4299999997,"y":2576424.1300000027}},{"attributes":{"ID":29798,"DIS_CODE":0,"TOWNNAME":"歸仁區","LI":"七甲里","LIN":"17鄰","STREET":"南潭三街","SECT":" ","MAREA":" ","LANE":"１６２巷","ALLEY":"１５弄","HOUSE_NO":"１３號","E_COORD97":176477.28,"N_COORD97":2543086.0299999998,"ADDRESS":"南潭三街１６２巷１５弄１３號","OBJECTID":29798},"geometry":{"x":176477.28000000026,"y":2543086.0299999993}},{"attributes":{"ID":29799,"DIS_CODE":0,"TOWNNAME":"歸仁區","LI":"七甲里","LIN":"17鄰","STREET":"南潭三街","SECT":" ","MAREA":" ","LANE":"１６２巷","ALLEY":"１９弄","HOUSE_NO":"２０號","E_COORD97":176486.28,"N_COORD97":2543039.0299999998,"ADDRESS":"南潭三街１６２巷１９弄２０號","OBJECTID":29799},"geometry":{"x":176486.28000000119,"y":2543039.0299999993}},{"attributes":{"ID":29800,"DIS_CODE":0,"TOWNNAME":"歸仁區","LI":"七甲里","LIN":"17鄰","STREET":"南潭三街","SECT":" ","MAREA":" ","LANE":"１６２巷","ALLEY":"１５弄","HOUSE_NO":"９號","E_COORD97":176466.73000000001,"N_COORD97":2543085.0299999998,"ADDRESS":"南潭三街１６２巷１５弄９號","OBJECTID":29800},"geometry":{"x":176466.73000000138,"y":2543085.0300000012}}]}