{"displayFieldName":"TOWNNAME","fieldAliases":{"ID":"ID","DIS_CODE":"DIS_CODE","TOWNNAME":"TOWNNAME","LI":"LI","LIN":"LIN","STREET":"STREET","SECT":"SECT","MAREA":"MAREA","LANE":"LANE","ALLEY":"ALLEY","HOUSE_NO":"HOUSE_NO","E_COORD97":"E_COORD97","N_COORD97":"N_COORD97","ADDRESS":"ADDRESS","OBJECTID":"OBJECTID"},"geometryType":"esriGeometryPoint","spatialReference":{"wkid":102443,"latestWkid":3826},"fields":[{"name":"ID","type":"esriFieldTypeDouble","alias":"ID"},{"name":"DIS_CODE","type":"esriFieldTypeInteger","alias":"DIS_CODE"},{"name":"TOWNNAME","type":"esriFieldTypeString","alias":"TOWNNAME","length":8},{"name":"LI","type":"esriFieldTypeString","alias":"LI","length":8},{"name":"LIN","type":"esriFieldTypeString","alias":"LIN","length":12},{"name":"STREET","type":"esriFieldTypeString","alias":"STREET","length":20},{"name":"SECT","type":"esriFieldTypeString","alias":"SECT","length":8},{"name":"MAREA","type":"esriFieldTypeString","alias":"MAREA","length":12},{"name":"LANE","type":"esriFieldTypeString","alias":"LANE","length":10},{"name":"ALLEY","type":"esriFieldTypeString","alias":"ALLEY","length":10},{"name":"HOUSE_NO","type":"esriFieldTypeString","alias":"HOUSE_NO","length":20},{"name":"E_COORD97","type":"esriFieldTypeDouble","alias":"E_COORD97"},{"name":"N_COORD97","type":"esriFieldTypeDouble","alias":"N_COORD97"},{"name":"ADDRESS","type":"esriFieldTypeString","alias":"ADDRESS","length":50},{"name":"OBJECTID","type":"esriFieldTypeOID","alias":"OBJECTID"}],"features":[{"attributes":{"ID":581828,"DIS_CODE":0,"TOWNNAME":"善化區","LI":"光文里","LIN":"16鄰","STREET":"中山路","SECT":" ","MAREA":" ","LANE":" ","ALLEY":" ","HOUSE_NO":"２１７號","E_COORD97":178214.26999999999,"N_COORD97":2559112.75,"ADDRESS":"中山路２１７號","OBJECTID":581801},"geometry":{"x":178214.27000000142,"y":2559112.75}},{"attributes":{"ID":581829,"DIS_CODE":0,"TOWNNAME":"善化區","LI":"坐駕里","LIN":"16鄰","STREET":"大成路","SECT":" ","MAREA":" ","LANE":" ","ALLEY":" ","HOUSE_NO":"１１７號之４","E_COORD97":178622.98000000001,"N_COORD97":2558841.02,"ADDRESS":"大成路１１７號之４","OBJECTID":581802},"geometry":{"x":178622.98000000138,"y":2558841.0200000014}},{"attributes":{"ID":581830,"DIS_CODE":0,"TOWNNAME":"善化區","LI":"光文里","LIN":"16鄰","STREET":"中山路","SECT":" ","MAREA":" ","LANE":" ","ALLEY":" ","HOUSE_NO":"１９３號","E_COORD97":178310.85000000001,"N_COORD97":2559129.75,"ADDRESS":"中山路１９３號","OBJECTID":581803},"geometry":{"x":178310.85000000056,"y":2559129.75}},{"attributes":{"ID":581831,"DIS_CODE":0,"TOWNNAME":"善化區","LI":"坐駕里","LIN":"16鄰","STREET":"大成路","SECT":" ","MAREA":" ","LANE":" ","ALLEY":" ","HOUSE_NO":"６１號","E_COORD97":178780.32999999999,"N_COORD97":2558907.5,"ADDRESS":"大成路６１號","OBJECTID":581804},"geometry":{"x":178780.33000000007,"y":2558907.5}},{"attributes":{"ID":581832,"DIS_CODE":0,"TOWNNAME":"善化區","LI":"光文里","LIN":"16鄰","STREET":"民族路","SECT":" ","MAREA":" ","LANE":" ","ALLEY":" ","HOUSE_NO":"１５３號","E_COORD97":178172.23000000001,"N_COORD97":2559075.2599999998,"ADDRESS":"民族路１５３號","OBJECTID":581805},"geometry":{"x":178172.23000000138,"y":2559075.2599999979}},{"attributes":{"ID":581833,"DIS_CODE":0,"TOWNNAME":"善化區","LI":"光文里","LIN":"16鄰","STREET":"民權路","SECT":" ","MAREA":" ","LANE":" ","ALLEY":" ","HOUSE_NO":"２２２號","E_COORD97":178130.07000000001,"N_COORD97":2559004.5099999998,"ADDRESS":"民權路２２２號","OBJECTID":581806},"geometry":{"x":178130.07000000216,"y":2559004.5099999998}},{"attributes":{"ID":581834,"DIS_CODE":0,"TOWNNAME":"善化區","LI":"光文里","LIN":"16鄰","STREET":"中山路","SECT":" ","MAREA":" ","LANE":" ","ALLEY":" ","HOUSE_NO":"２０７號","E_COORD97":178273.85999999999,"N_COORD97":2559124,"ADDRESS":"中山路２０７號","OBJECTID":581807},"geometry":{"x":178273.8600000022,"y":2559124}},{"attributes":{"ID":581835,"DIS_CODE":0,"TOWNNAME":"善化區","LI":"光文里","LIN":"16鄰","STREET":"樹人路","SECT":" ","MAREA":" ","LANE":" ","ALLEY":" ","HOUSE_NO":"７９號","E_COORD97":178354.20000000001,"N_COORD97":2559088.25,"ADDRESS":"樹人路７９號","OBJECTID":581808},"geometry":{"x":178354.20000000019,"y":2559088.25}},{"attributes":{"ID":581836,"DIS_CODE":0,"TOWNNAME":"善化區","LI":"坐駕里","LIN":"16鄰","STREET":"大成路","SECT":" ","MAREA":" ","LANE":" ","ALLEY":" ","HOUSE_NO":"７號","E_COORD97":178911.10000000001,"N_COORD97":2558902.75,"ADDRESS":"大成路７號","OBJECTID":581809},"geometry":{"x":178911.10000000056,"y":2558902.7499999981}},{"attributes":{"ID":581837,"DIS_CODE":0,"TOWNNAME":"善化區","LI":"坐駕里","LIN":"16鄰","STREET":"大成路","SECT":" ","MAREA":" ","LANE":" ","ALLEY":" ","HOUSE_NO":"４９號","E_COORD97":178806.29999999999,"N_COORD97":2558911.75,"ADDRESS":"大成路４９號","OBJECTID":581810},"geometry":{"x":178806.30000000075,"y":2558911.75}},{"attributes":{"ID":581838,"DIS_CODE":0,"TOWNNAME":"善化區","LI":"坐駕里","LIN":"16鄰","STREET":"大成路","SECT":" ","MAREA":" ","LANE":" ","ALLEY":" ","HOUSE_NO":"１１７號之１３","E_COORD97":178607.51999999999,"N_COORD97":2558801.02,"ADDRESS":"大成路１１７號之１３","OBJECTID":581811},"geometry":{"x":178607.51999999862,"y":2558801.0199999996}},{"attributes":{"ID":581839,"DIS_CODE":0,"TOWNNAME":"善化區","LI":"坐駕里","LIN":"16鄰","STREET":"健康街","SECT":" ","MAREA":" ","LANE":" ","ALLEY":" ","HOUSE_NO":"１６號","E_COORD97":178881.10999999999,"N_COORD97":2558877.02,"ADDRESS":"健康街１６號","OBJECTID":581812},"geometry":{"x":178881.11000000127,"y":2558877.0200000033}},{"attributes":{"ID":581840,"DIS_CODE":0,"TOWNNAME":"善化區","LI":"坐駕里","LIN":"16鄰","STREET":"健康街","SECT":" ","MAREA":" ","LANE":" ","ALLEY":" ","HOUSE_NO":"３號","E_COORD97":178902.20999999999,"N_COORD97":2558865.77,"ADDRESS":"健康街３號","OBJECTID":581813},"geometry":{"x":178902.21000000089,"y":2558865.7700000014}},{"attributes":{"ID":581841,"DIS_CODE":0,"TOWNNAME":"善化區","LI":"東關里","LIN":"16鄰","STREET":"大信路","SECT":" ","MAREA":" ","LANE":" ","ALLEY":" ","HOUSE_NO":"１８號","E_COORD97":177491.67000000001,"N_COORD97":2558988.5,"ADDRESS":"大信路１８號","OBJECTID":581814},"geometry":{"x":177491.67000000179,"y":2558988.5}},{"attributes":{"ID":581842,"DIS_CODE":0,"TOWNNAME":"永康區","LI":"復華里","LIN":"16鄰","STREET":"復華七街","SECT":" ","MAREA":" ","LANE":" ","ALLEY":" ","HOUSE_NO":"１０４號","E_COORD97":172856.67000000001,"N_COORD97":2546155.9199999999,"ADDRESS":"復華七街１０４號","OBJECTID":581815},"geometry":{"x":172856.66999999993,"y":2546155.9199999999}},{"attributes":{"ID":581843,"DIS_CODE":0,"TOWNNAME":"永康區","LI":"復華里","LIN":"16鄰","STREET":"復華七街","SECT":" ","MAREA":" ","LANE":" ","ALLEY":" ","HOUSE_NO":"１１４號","E_COORD97":172873.70999999999,"N_COORD97":2546190.2599999998,"ADDRESS":"復華七街１１４號","OBJECTID":581816},"geometry":{"x":172873.71000000183,"y":2546190.2600000016}},{"attributes":{"ID":581844,"DIS_CODE":0,"TOWNNAME":"永康區","LI":"復華里","LIN":"16鄰","STREET":"復華七街","SECT":" ","MAREA":" ","LANE":" ","ALLEY":" ","HOUSE_NO":"８４號","E_COORD97":172827.54999999999,"N_COORD97":2546123.9300000002,"ADDRESS":"復華七街８４號","OBJECTID":581817},"geometry":{"x":172827.55000000075,"y":2546123.9300000016}},{"attributes":{"ID":581845,"DIS_CODE":0,"TOWNNAME":"永康區","LI":"復華里","LIN":"16鄰","STREET":"復華七街","SECT":" ","MAREA":" ","LANE":" ","ALLEY":" ","HOUSE_NO":"６２號","E_COORD97":172759.39000000001,"N_COORD97":2546059.6699999999,"ADDRESS":"復華七街６２號","OBJECTID":581818},"geometry":{"x":172759.38999999966,"y":2546059.6699999999}},{"attributes":{"ID":581846,"DIS_CODE":0,"TOWNNAME":"永康區","LI":"復華里","LIN":"16鄰","STREET":"復華七街","SECT":" ","MAREA":" ","LANE":" ","ALLEY":" ","HOUSE_NO":"６８號","E_COORD97":172769.34,"N_COORD97":2546070.1699999999,"ADDRESS":"復華七街６８號","OBJECTID":581819},"geometry":{"x":172769.34000000171,"y":2546070.1699999999}},{"attributes":{"ID":581847,"DIS_CODE":0,"TOWNNAME":"永康區","LI":"復華里","LIN":"16鄰","STREET":"復華七街","SECT":" ","MAREA":" ","LANE":" ","ALLEY":" ","HOUSE_NO":"５２號","E_COORD97":172741.03,"N_COORD97":2546040.9500000002,"ADDRESS":"復華七街５２號","OBJECTID":581820},"geometry":{"x":172741.03000000026,"y":2546040.950000003}},{"attributes":{"ID":581848,"DIS_CODE":0,"TOWNNAME":"永康區","LI":"復華里","LIN":"16鄰","STREET":"復華七街","SECT":" ","MAREA":" ","LANE":" ","ALLEY":" ","HOUSE_NO":"５４號","E_COORD97":172744.44,"N_COORD97":2546044.4399999999,"ADDRESS":"復華七街５４號","OBJECTID":581821},"geometry":{"x":172744.44000000134,"y":2546044.4399999995}},{"attributes":{"ID":581849,"DIS_CODE":0,"TOWNNAME":"仁德區","LI":"保安里","LIN":"20鄰","STREET":"保安路","SECT":"一段","MAREA":" ","LANE":" ","ALLEY":" ","HOUSE_NO":"１７號之６","E_COORD97":170512.01999999999,"N_COORD97":2536069.8199999998,"ADDRESS":"保安路一段１７號之６","OBJECTID":581822},"geometry":{"x":170512.02000000048,"y":2536069.8200000022}},{"attributes":{"ID":581850,"DIS_CODE":0,"TOWNNAME":"仁德區","LI":"成功里","LIN":"26鄰","STREET":"保華路","SECT":" ","MAREA":" ","LANE":" ","ALLEY":" ","HOUSE_NO":"１００號","E_COORD97":170496.45999999999,"N_COORD97":2539981.7400000002,"ADDRESS":"保華路１００號","OBJECTID":581823},"geometry":{"x":170496.45999999996,"y":2539981.7400000039}},{"attributes":{"ID":581851,"DIS_CODE":0,"TOWNNAME":"仁德區","LI":"太子里","LIN":"37鄰","STREET":"長興一街","SECT":" ","MAREA":" ","LANE":" ","ALLEY":" ","HOUSE_NO":"５０號","E_COORD97":174545.54000000001,"N_COORD97":2543828.7599999998,"ADDRESS":"長興一街５０號","OBJECTID":581824},"geometry":{"x":174545.54000000004,"y":2543828.7599999979}},{"attributes":{"ID":581852,"DIS_CODE":0,"TOWNNAME":"永康區","LI":"復國里","LIN":"16鄰","STREET":"復國二路","SECT":" ","MAREA":" ","LANE":" ","ALLEY":" ","HOUSE_NO":"２００號","E_COORD97":172952.64000000001,"N_COORD97":2545807.0299999998,"ADDRESS":"復國二路２００號","OBJECTID":581825},"geometry":{"x":172952.63999999966,"y":2545807.0300000012}},{"attributes":{"ID":581853,"DIS_CODE":0,"TOWNNAME":"永康區","LI":"復華里","LIN":"16鄰","STREET":"復華七街","SECT":" ","MAREA":" ","LANE":" ","ALLEY":" ","HOUSE_NO":"５８號","E_COORD97":172752.17999999999,"N_COORD97":2546052.4199999999,"ADDRESS":"復華七街５８號","OBJECTID":581826},"geometry":{"x":172752.18000000063,"y":2546052.4200000037}},{"attributes":{"ID":581854,"DIS_CODE":0,"TOWNNAME":"永康區","LI":"網寮里","LIN":"16鄰","STREET":"永勝街","SECT":" ","MAREA":" ","LANE":" ","ALLEY":" ","HOUSE_NO":"２３３號","E_COORD97":173389.09,"N_COORD97":2546689.25,"ADDRESS":"永勝街２３３號","OBJECTID":581827},"geometry":{"x":173389.08999999985,"y":2546689.25}},{"attributes":{"ID":581855,"DIS_CODE":0,"TOWNNAME":"永康區","LI":"復華里","LIN":"16鄰","STREET":"復華七街","SECT":" ","MAREA":" ","LANE":" ","ALLEY":" ","HOUSE_NO":"８０號","E_COORD97":172821.13,"N_COORD97":2546118.1800000002,"ADDRESS":"復華七街８０號","OBJECTID":581828},"geometry":{"x":172821.12999999989,"y":2546118.1800000034}},{"attributes":{"ID":581856,"DIS_CODE":0,"TOWNNAME":"永康區","LI":"龍潭里","LIN":"16鄰","STREET":"龍橋街","SECT":" ","MAREA":" ","LANE":" ","ALLEY":" ","HOUSE_NO":"３２號","E_COORD97":174852.81,"N_COORD97":2548348.6699999999,"ADDRESS":"龍橋街３２號","OBJECTID":581829},"geometry":{"x":174852.81000000052,"y":2548348.6699999999}},{"attributes":{"ID":581857,"DIS_CODE":0,"TOWNNAME":"永康區","LI":"龍潭里","LIN":"16鄰","STREET":"龍橋街","SECT":" ","MAREA":" ","LANE":" ","ALLEY":" ","HOUSE_NO":"２２號","E_COORD97":174865.51000000001,"N_COORD97":2548327.6299999999,"ADDRESS":"龍橋街２２號","OBJECTID":581830},"geometry":{"x":174865.51000000071,"y":2548327.629999999}},{"attributes":{"ID":581858,"DIS_CODE":0,"TOWNNAME":"永康區","LI":"復華里","LIN":"16鄰","STREET":"復華七街","SECT":" ","MAREA":" ","LANE":" ","ALLEY":" ","HOUSE_NO":"８２號","E_COORD97":172824.5,"N_COORD97":2546121.4300000002,"ADDRESS":"復華七街８２號","OBJECTID":581831},"geometry":{"x":172824.50000000093,"y":2546121.4299999997}},{"attributes":{"ID":581859,"DIS_CODE":0,"TOWNNAME":"永康區","LI":"復華里","LIN":"16鄰","STREET":"復華七街","SECT":" ","MAREA":" ","LANE":" ","ALLEY":" ","HOUSE_NO":"９４號","E_COORD97":172841.85000000001,"N_COORD97":2546138.6800000002,"ADDRESS":"復華七街９４號","OBJECTID":581832},"geometry":{"x":172841.85000000149,"y":2546138.6800000016}},{"attributes":{"ID":581860,"DIS_CODE":0,"TOWNNAME":"永康區","LI":"復華里","LIN":"16鄰","STREET":"復華七街","SECT":" ","MAREA":" ","LANE":" ","ALLEY":" ","HOUSE_NO":"１１０號","E_COORD97":172868.84,"N_COORD97":2546180.7599999998,"ADDRESS":"復華七街１１０號","OBJECTID":581833},"geometry":{"x":172868.83999999985,"y":2546180.7599999998}},{"attributes":{"ID":581861,"DIS_CODE":0,"TOWNNAME":"仁德區","LI":"成功里","LIN":"24鄰","STREET":"成功一街","SECT":" ","MAREA":" ","LANE":" ","ALLEY":" ","HOUSE_NO":"１２５號","E_COORD97":170546.54999999999,"N_COORD97":2539908.02,"ADDRESS":"成功一街１２５號","OBJECTID":581834},"geometry":{"x":170546.54999999981,"y":2539908.0200000014}},{"attributes":{"ID":581862,"DIS_CODE":0,"TOWNNAME":"善化區","LI":"東關里","LIN":"16鄰","STREET":"中興路","SECT":" ","MAREA":" ","LANE":" ","ALLEY":" ","HOUSE_NO":"１０１號","E_COORD97":177474.89999999999,"N_COORD97":2559004,"ADDRESS":"中興路１０１號","OBJECTID":581835},"geometry":{"x":177474.90000000037,"y":2559004.0000000019}},{"attributes":{"ID":581863,"DIS_CODE":0,"TOWNNAME":"善化區","LI":"東關里","LIN":"16鄰","STREET":"中興路","SECT":" ","MAREA":" ","LANE":" ","ALLEY":" ","HOUSE_NO":"１０５號","E_COORD97":177467.06,"N_COORD97":2559001.5,"ADDRESS":"中興路１０５號","OBJECTID":581836},"geometry":{"x":177467.06000000052,"y":2559001.5}},{"attributes":{"ID":581864,"DIS_CODE":0,"TOWNNAME":"善化區","LI":"坐駕里","LIN":"16鄰","STREET":"健康街","SECT":" ","MAREA":" ","LANE":" ","ALLEY":" ","HOUSE_NO":"２號","E_COORD97":178916.47,"N_COORD97":2558882.02,"ADDRESS":"健康街２號","OBJECTID":581837},"geometry":{"x":178916.46999999974,"y":2558882.0199999996}},{"attributes":{"ID":581865,"DIS_CODE":0,"TOWNNAME":"善化區","LI":"東關里","LIN":"16鄰","STREET":"大信路","SECT":" ","MAREA":" ","LANE":" ","ALLEY":" ","HOUSE_NO":"２０號之２","E_COORD97":177504.41,"N_COORD97":2558963.27,"ADDRESS":"大信路２０號之２","OBJECTID":581838},"geometry":{"x":177504.41000000108,"y":2558963.2700000033}},{"attributes":{"ID":581866,"DIS_CODE":0,"TOWNNAME":"善化區","LI":"東關里","LIN":"16鄰","STREET":"大信路","SECT":" ","MAREA":" ","LANE":" ","ALLEY":" ","HOUSE_NO":"１８號之１","E_COORD97":177502.87,"N_COORD97":2558967.5099999998,"ADDRESS":"大信路１８號之１","OBJECTID":581839},"geometry":{"x":177502.87000000104,"y":2558967.5099999998}},{"attributes":{"ID":581867,"DIS_CODE":0,"TOWNNAME":"善化區","LI":"坐駕里","LIN":"16鄰","STREET":"健康街","SECT":" ","MAREA":" ","LANE":" ","ALLEY":" ","HOUSE_NO":"９號","E_COORD97":178879.57000000001,"N_COORD97":2558862.77,"ADDRESS":"健康街９號","OBJECTID":581840},"geometry":{"x":178879.57000000123,"y":2558862.7700000014}},{"attributes":{"ID":581868,"DIS_CODE":0,"TOWNNAME":"善化區","LI":"坐駕里","LIN":"16鄰","STREET":"健康街","SECT":" ","MAREA":" ","LANE":" ","ALLEY":" ","HOUSE_NO":"２０號","E_COORD97":178862.64999999999,"N_COORD97":2558874.27,"ADDRESS":"健康街２０號","OBJECTID":581841},"geometry":{"x":178862.6500000013,"y":2558874.2699999996}},{"attributes":{"ID":581869,"DIS_CODE":0,"TOWNNAME":"善化區","LI":"坐駕里","LIN":"16鄰","STREET":"健康街","SECT":" ","MAREA":" ","LANE":" ","ALLEY":" ","HOUSE_NO":"７號","E_COORD97":178887.29000000001,"N_COORD97":2558864.02,"ADDRESS":"健康街７號","OBJECTID":581842},"geometry":{"x":178887.29000000004,"y":2558864.0200000014}},{"attributes":{"ID":581870,"DIS_CODE":0,"TOWNNAME":"善化區","LI":"坐駕里","LIN":"16鄰","STREET":"健康街","SECT":" ","MAREA":" ","LANE":" ","ALLEY":" ","HOUSE_NO":"１２號","E_COORD97":178889.22,"N_COORD97":2558878.02,"ADDRESS":"健康街１２號","OBJECTID":581843},"geometry":{"x":178889.21999999974,"y":2558878.0200000014}},{"attributes":{"ID":581871,"DIS_CODE":0,"TOWNNAME":"善化區","LI":"東關里","LIN":"16鄰","STREET":"中興路","SECT":" ","MAREA":" ","LANE":" ","ALLEY":" ","HOUSE_NO":"１０７號","E_COORD97":177463.28,"N_COORD97":2558999.75,"ADDRESS":"中興路１０７號","OBJECTID":581844},"geometry":{"x":177463.28000000026,"y":2558999.75}},{"attributes":{"ID":581872,"DIS_CODE":0,"TOWNNAME":"善化區","LI":"坐駕里","LIN":"16鄰","STREET":"健康街","SECT":" ","MAREA":" ","LANE":" ","ALLEY":" ","HOUSE_NO":"５號","E_COORD97":178894.73000000001,"N_COORD97":2558865.02,"ADDRESS":"健康街５號","OBJECTID":581845},"geometry":{"x":178894.73000000045,"y":2558865.0200000014}},{"attributes":{"ID":581873,"DIS_CODE":0,"TOWNNAME":"善化區","LI":"坐駕里","LIN":"16鄰","STREET":"健康街","SECT":" ","MAREA":" ","LANE":" ","ALLEY":" ","HOUSE_NO":"１３號","E_COORD97":178864.60999999999,"N_COORD97":2558860.27,"ADDRESS":"健康街１３號","OBJECTID":581846},"geometry":{"x":178864.61000000127,"y":2558860.2699999996}},{"attributes":{"ID":581874,"DIS_CODE":0,"TOWNNAME":"善化區","LI":"坐駕里","LIN":"16鄰","STREET":"健康街","SECT":" ","MAREA":" ","LANE":" ","ALLEY":" ","HOUSE_NO":"８號","E_COORD97":178901.94,"N_COORD97":2558880.27,"ADDRESS":"健康街８號","OBJECTID":581847},"geometry":{"x":178901.94000000041,"y":2558880.2700000014}},{"attributes":{"ID":581875,"DIS_CODE":0,"TOWNNAME":"仁德區","LI":"後壁里","LIN":"26鄰","STREET":"中正路","SECT":"二段","MAREA":" ","LANE":" ","ALLEY":" ","HOUSE_NO":"３０７號","E_COORD97":173244.73000000001,"N_COORD97":2539112.77,"ADDRESS":"中正路二段３０７號","OBJECTID":581848},"geometry":{"x":173244.73000000045,"y":2539112.7700000033}},{"attributes":{"ID":581876,"DIS_CODE":0,"TOWNNAME":"仁德區","LI":"太子里","LIN":"1鄰","STREET":"長興路","SECT":" ","MAREA":" ","LANE":" ","ALLEY":" ","HOUSE_NO":"４號","E_COORD97":174122.88,"N_COORD97":2543528.7599999998,"ADDRESS":"長興路４號","OBJECTID":581849},"geometry":{"x":174122.87999999989,"y":2543528.7600000016}},{"attributes":{"ID":581877,"DIS_CODE":0,"TOWNNAME":"永康區","LI":"二王里","LIN":"16鄰","STREET":"忠孝路","SECT":" ","MAREA":" ","LANE":" ","ALLEY":" ","HOUSE_NO":"４４２號","E_COORD97":172479.17999999999,"N_COORD97":2546593.79,"ADDRESS":"忠孝路４４２號","OBJECTID":581850},"geometry":{"x":172479.18000000063,"y":2546593.7899999991}},{"attributes":{"ID":581878,"DIS_CODE":0,"TOWNNAME":"永康區","LI":"埔園里","LIN":"16鄰","STREET":"中山路","SECT":" ","MAREA":" ","LANE":" ","ALLEY":" ","HOUSE_NO":"４０７號","E_COORD97":173542.56,"N_COORD97":2548601.96,"ADDRESS":"中山路４０７號","OBJECTID":581851},"geometry":{"x":173542.56000000052,"y":2548601.9600000009}},{"attributes":{"ID":581879,"DIS_CODE":0,"TOWNNAME":"永康區","LI":"烏竹里","LIN":"16鄰","STREET":"龍橋街","SECT":" ","MAREA":" ","LANE":" ","ALLEY":" ","HOUSE_NO":"２６２號","E_COORD97":174585.72,"N_COORD97":2548910.7400000002,"ADDRESS":"龍橋街２６２號","OBJECTID":581852},"geometry":{"x":174585.72000000067,"y":2548910.7400000002}},{"attributes":{"ID":581880,"DIS_CODE":0,"TOWNNAME":"永康區","LI":"二王里","LIN":"16鄰","STREET":"忠孝路","SECT":" ","MAREA":" ","LANE":" ","ALLEY":" ","HOUSE_NO":"４３０號","E_COORD97":172480.54999999999,"N_COORD97":2546564.7799999998,"ADDRESS":"忠孝路４３０號","OBJECTID":581853},"geometry":{"x":172480.54999999981,"y":2546564.7800000012}},{"attributes":{"ID":581881,"DIS_CODE":0,"TOWNNAME":"永康區","LI":"二王里","LIN":"16鄰","STREET":"忠孝路","SECT":" ","MAREA":" ","LANE":" ","ALLEY":" ","HOUSE_NO":"４４８號","E_COORD97":172481.13,"N_COORD97":2546607.29,"ADDRESS":"忠孝路４４８號","OBJECTID":581854},"geometry":{"x":172481.13000000082,"y":2546607.2899999991}},{"attributes":{"ID":581882,"DIS_CODE":0,"TOWNNAME":"永康區","LI":"中興里","LIN":"16鄰","STREET":"中華二路","SECT":" ","MAREA":" ","LANE":" ","ALLEY":" ","HOUSE_NO":"１４１號","E_COORD97":171973.60999999999,"N_COORD97":2545425.9900000002,"ADDRESS":"中華二路１４１號","OBJECTID":581855},"geometry":{"x":171973.61000000127,"y":2545425.9900000021}},{"attributes":{"ID":581883,"DIS_CODE":0,"TOWNNAME":"永康區","LI":"三合里","LIN":"16鄰","STREET":"南工街","SECT":" ","MAREA":" ","LANE":" ","ALLEY":" ","HOUSE_NO":"２４９號","E_COORD97":171970.38,"N_COORD97":2545947.4900000002,"ADDRESS":"南工街２４９號","OBJECTID":581856},"geometry":{"x":171970.37999999989,"y":2545947.4900000021}},{"attributes":{"ID":581884,"DIS_CODE":0,"TOWNNAME":"仁德區","LI":"保安里","LIN":"19鄰","STREET":"文賢路","SECT":"二段","MAREA":" ","LANE":" ","ALLEY":" ","HOUSE_NO":"１０２號","E_COORD97":172100.42999999999,"N_COORD97":2535493.8199999998,"ADDRESS":"文賢路二段１０２號","OBJECTID":581857},"geometry":{"x":172100.42999999877,"y":2535493.8200000022}},{"attributes":{"ID":581885,"DIS_CODE":0,"TOWNNAME":"仁德區","LI":"保安里","LIN":"16鄰","STREET":"中正路","SECT":"一段","MAREA":" ","LANE":" ","ALLEY":" ","HOUSE_NO":"１８５號之４","E_COORD97":171606.20000000001,"N_COORD97":2535828.79,"ADDRESS":"中正路一段１８５號之４","OBJECTID":581858},"geometry":{"x":171606.20000000112,"y":2535828.7899999991}},{"attributes":{"ID":581886,"DIS_CODE":0,"TOWNNAME":"永康區","LI":"三合里","LIN":"16鄰","STREET":"南工街","SECT":" ","MAREA":" ","LANE":" ","ALLEY":" ","HOUSE_NO":"２５５號之２","E_COORD97":171951.84,"N_COORD97":2545953.29,"ADDRESS":"南工街２５５號之２","OBJECTID":581859},"geometry":{"x":171951.83999999985,"y":2545953.2899999991}},{"attributes":{"ID":581887,"DIS_CODE":0,"TOWNNAME":"永康區","LI":"三合里","LIN":"16鄰","STREET":"南工街","SECT":" ","MAREA":" ","LANE":" ","ALLEY":" ","HOUSE_NO":"２５５號之３","E_COORD97":171947.87,"N_COORD97":2545954.04,"ADDRESS":"南工街２５５號之３","OBJECTID":581860},"geometry":{"x":171947.87000000104,"y":2545954.0399999991}},{"attributes":{"ID":581888,"DIS_CODE":0,"TOWNNAME":"永康區","LI":"三合里","LIN":"16鄰","STREET":"南工街","SECT":" ","MAREA":" ","LANE":" ","ALLEY":" ","HOUSE_NO":"２５１號","E_COORD97":171965.75,"N_COORD97":2545950.4900000002,"ADDRESS":"南工街２５１號","OBJECTID":581861},"geometry":{"x":171965.75,"y":2545950.4900000039}},{"attributes":{"ID":581889,"DIS_CODE":0,"TOWNNAME":"永康區","LI":"二王里","LIN":"16鄰","STREET":"忠孝路","SECT":" ","MAREA":" ","LANE":" ","ALLEY":" ","HOUSE_NO":"４３８號","E_COORD97":172479.48999999999,"N_COORD97":2546581.0600000001,"ADDRESS":"忠孝路４３８號","OBJECTID":581862},"geometry":{"x":172479.49000000115,"y":2546581.0600000024}},{"attributes":{"ID":581890,"DIS_CODE":0,"TOWNNAME":"永康區","LI":"西橋里","LIN":"16鄰","STREET":"大橋三街","SECT":" ","MAREA":" ","LANE":" ","ALLEY":" ","HOUSE_NO":"２０號","E_COORD97":170531.23000000001,"N_COORD97":2546406.75,"ADDRESS":"大橋三街２０號","OBJECTID":581863},"geometry":{"x":170531.23000000231,"y":2546406.7500000019}},{"attributes":{"ID":581891,"DIS_CODE":0,"TOWNNAME":"永康區","LI":"三合里","LIN":"16鄰","STREET":"南工街","SECT":" ","MAREA":" ","LANE":" ","ALLEY":" ","HOUSE_NO":"２５５號之６","E_COORD97":171936.10999999999,"N_COORD97":2545955.54,"ADDRESS":"南工街２５５號之６","OBJECTID":581864},"geometry":{"x":171936.11000000127,"y":2545955.5400000028}},{"attributes":{"ID":581892,"DIS_CODE":0,"TOWNNAME":"永康區","LI":"三合里","LIN":"16鄰","STREET":"南工街","SECT":" ","MAREA":" ","LANE":" ","ALLEY":" ","HOUSE_NO":"２５３號","E_COORD97":171961.51999999999,"N_COORD97":2545951.2400000002,"ADDRESS":"南工街２５３號","OBJECTID":581865},"geometry":{"x":171961.52000000048,"y":2545951.2400000002}},{"attributes":{"ID":581893,"DIS_CODE":0,"TOWNNAME":"永康區","LI":"南灣里","LIN":"16鄰","STREET":"立興街","SECT":" ","MAREA":" ","LANE":" ","ALLEY":" ","HOUSE_NO":"９３號","E_COORD97":174547.23000000001,"N_COORD97":2544718.9900000002,"ADDRESS":"立興街９３號","OBJECTID":581866},"geometry":{"x":174547.23000000231,"y":2544718.9900000002}},{"attributes":{"ID":581894,"DIS_CODE":0,"TOWNNAME":"永康區","LI":"王行里","LIN":"16鄰","STREET":"中山北路","SECT":" ","MAREA":" ","LANE":" ","ALLEY":" ","HOUSE_NO":"７７９號","E_COORD97":176005.14999999999,"N_COORD97":2547930.04,"ADDRESS":"中山北路７７９號","OBJECTID":581867},"geometry":{"x":176005.15000000037,"y":2547930.040000001}},{"attributes":{"ID":581895,"DIS_CODE":0,"TOWNNAME":"永康區","LI":"王行里","LIN":"16鄰","STREET":"中山北路","SECT":" ","MAREA":" ","LANE":" ","ALLEY":" ","HOUSE_NO":"６０５號","E_COORD97":175500.32000000001,"N_COORD97":2547788.2799999998,"ADDRESS":"中山北路６０５號","OBJECTID":581868},"geometry":{"x":175500.3200000003,"y":2547788.2800000031}},{"attributes":{"ID":581896,"DIS_CODE":0,"TOWNNAME":"永康區","LI":"三合里","LIN":"16鄰","STREET":"南工街","SECT":" ","MAREA":" ","LANE":" ","ALLEY":" ","HOUSE_NO":"２５５號之４","E_COORD97":171943.84,"N_COORD97":2545954.54,"ADDRESS":"南工街２５５號之４","OBJECTID":581869},"geometry":{"x":171943.84000000078,"y":2545954.5399999991}},{"attributes":{"ID":581897,"DIS_CODE":0,"TOWNNAME":"仁德區","LI":"成功里","LIN":"12鄰","STREET":"成功二街","SECT":" ","MAREA":" ","LANE":" ","ALLEY":" ","HOUSE_NO":"５２號","E_COORD97":170898.51999999999,"N_COORD97":2539864.2599999998,"ADDRESS":"成功二街５２號","OBJECTID":581870},"geometry":{"x":170898.52000000048,"y":2539864.2599999998}},{"attributes":{"ID":581898,"DIS_CODE":0,"TOWNNAME":"安南區","LI":"幸福里","LIN":"16鄰","STREET":"府安路","SECT":"六段","MAREA":" ","LANE":" ","ALLEY":" ","HOUSE_NO":"２８號","E_COORD97":167049.87,"N_COORD97":2546677.6299999999,"ADDRESS":"府安路六段２８號","OBJECTID":581871},"geometry":{"x":167049.87000000104,"y":2546677.6300000008}},{"attributes":{"ID":581899,"DIS_CODE":0,"TOWNNAME":"安南區","LI":"幸福里","LIN":"16鄰","STREET":"府安路","SECT":"六段","MAREA":" ","LANE":" ","ALLEY":" ","HOUSE_NO":"３１號","E_COORD97":167034.60999999999,"N_COORD97":2546680.3599999999,"ADDRESS":"府安路六段３１號","OBJECTID":581872},"geometry":{"x":167034.61000000034,"y":2546680.3600000013}},{"attributes":{"ID":581900,"DIS_CODE":0,"TOWNNAME":"安南區","LI":"幸福里","LIN":"16鄰","STREET":"府安路","SECT":"六段","MAREA":" ","LANE":" ","ALLEY":" ","HOUSE_NO":"３２號","E_COORD97":167030.63,"N_COORD97":2546677.52,"ADDRESS":"府安路六段３２號","OBJECTID":581873},"geometry":{"x":167030.62999999896,"y":2546677.5199999996}},{"attributes":{"ID":581901,"DIS_CODE":0,"TOWNNAME":"安南區","LI":"幸福里","LIN":"16鄰","STREET":"府安路","SECT":"六段","MAREA":" ","LANE":" ","ALLEY":" ","HOUSE_NO":"３３號","E_COORD97":167026.07000000001,"N_COORD97":2546672.6299999999,"ADDRESS":"府安路六段３３號","OBJECTID":581874},"geometry":{"x":167026.0700000003,"y":2546672.629999999}},{"attributes":{"ID":581902,"DIS_CODE":0,"TOWNNAME":"安南區","LI":"幸福里","LIN":"16鄰","STREET":"府安路","SECT":"六段","MAREA":" ","LANE":" ","ALLEY":" ","HOUSE_NO":"３４號","E_COORD97":167021.41,"N_COORD97":2546674.5600000001,"ADDRESS":"府安路六段３４號","OBJECTID":581875},"geometry":{"x":167021.41000000108,"y":2546674.5600000005}},{"attributes":{"ID":581903,"DIS_CODE":0,"TOWNNAME":"安南區","LI":"幸福里","LIN":"16鄰","STREET":"府安路","SECT":"六段","MAREA":" ","LANE":" ","ALLEY":" ","HOUSE_NO":"３５號","E_COORD97":167018.45000000001,"N_COORD97":2546669.7799999998,"ADDRESS":"府安路六段３５號","OBJECTID":581876},"geometry":{"x":167018.45000000019,"y":2546669.7800000031}},{"attributes":{"ID":581904,"DIS_CODE":0,"TOWNNAME":"安南區","LI":"幸福里","LIN":"16鄰","STREET":"府安路","SECT":"六段","MAREA":" ","LANE":" ","ALLEY":" ","HOUSE_NO":"３６號","E_COORD97":167012.98000000001,"N_COORD97":2546672.5099999998,"ADDRESS":"府安路六段３６號","OBJECTID":581877},"geometry":{"x":167012.98000000045,"y":2546672.5100000016}},{"attributes":{"ID":581905,"DIS_CODE":0,"TOWNNAME":"仁德區","LI":"保安里","LIN":"2鄰","STREET":"保安路","SECT":"一段","MAREA":" ","LANE":" ","ALLEY":" ","HOUSE_NO":"１１１號","E_COORD97":171093.14999999999,"N_COORD97":2536837.0600000001,"ADDRESS":"保安路一段１１１號","OBJECTID":581878},"geometry":{"x":171093.1500000013,"y":2536837.0600000042}},{"attributes":{"ID":581906,"DIS_CODE":0,"TOWNNAME":"仁德區","LI":"成功里","LIN":"12鄰","STREET":"成功二街","SECT":" ","MAREA":" ","LANE":" ","ALLEY":" ","HOUSE_NO":"２４號","E_COORD97":170902.17999999999,"N_COORD97":2539940.5099999998,"ADDRESS":"成功二街２４號","OBJECTID":581879},"geometry":{"x":170902.18000000063,"y":2539940.5099999998}},{"attributes":{"ID":581907,"DIS_CODE":0,"TOWNNAME":"東區","LI":"東安里","LIN":"16鄰","STREET":"衛國街","SECT":" ","MAREA":" ","LANE":" ","ALLEY":" ","HOUSE_NO":"１號之８","E_COORD97":170216.34,"N_COORD97":2542956.1299999999,"ADDRESS":"衛國街１號之８","OBJECTID":581880},"geometry":{"x":170216.34000000171,"y":2542956.129999999}},{"attributes":{"ID":581908,"DIS_CODE":0,"TOWNNAME":"東區","LI":"東明里","LIN":"16鄰","STREET":"東安路","SECT":" ","MAREA":" ","LANE":" ","ALLEY":" ","HOUSE_NO":"８２號","E_COORD97":170710.17000000001,"N_COORD97":2543691.1400000001,"ADDRESS":"東安路８２號","OBJECTID":581881},"geometry":{"x":170710.16999999993,"y":2543691.1400000006}},{"attributes":{"ID":581909,"DIS_CODE":0,"TOWNNAME":"東區","LI":"東安里","LIN":"16鄰","STREET":"衛國街","SECT":" ","MAREA":" ","LANE":" ","ALLEY":" ","HOUSE_NO":"１號之７","E_COORD97":170214.91,"N_COORD97":2542952.1400000001,"ADDRESS":"衛國街１號之７","OBJECTID":581882},"geometry":{"x":170214.91000000108,"y":2542952.1400000006}},{"attributes":{"ID":581910,"DIS_CODE":0,"TOWNNAME":"仁德區","LI":"成功里","LIN":"35鄰","STREET":"成功一街","SECT":" ","MAREA":" ","LANE":" ","ALLEY":" ","HOUSE_NO":"７７號","E_COORD97":170537.57999999999,"N_COORD97":2540027.02,"ADDRESS":"成功一街７７號","OBJECTID":581883},"geometry":{"x":170537.58000000101,"y":2540027.0200000014}},{"attributes":{"ID":581911,"DIS_CODE":0,"TOWNNAME":"仁德區","LI":"太子里","LIN":"25鄰","STREET":"長興五街","SECT":" ","MAREA":" ","LANE":" ","ALLEY":" ","HOUSE_NO":"２７之２號","E_COORD97":173541.07034499999,"N_COORD97":2543624.3086999999,"ADDRESS":"長興五街２７之２號","OBJECTID":581884},"geometry":{"x":173541.0703450013,"y":2543624.3087019995}},{"attributes":{"ID":581912,"DIS_CODE":0,"TOWNNAME":"新市區","LI":"港墘里","LIN":"16鄰","STREET":"長安街","SECT":" ","MAREA":" ","LANE":" ","ALLEY":" ","HOUSE_NO":"５２號","E_COORD97":178231.76999999999,"N_COORD97":2552669.0699999998,"ADDRESS":"長安街５２號","OBJECTID":581885},"geometry":{"x":178231.77000000048,"y":2552669.0700000003}},{"attributes":{"ID":581913,"DIS_CODE":0,"TOWNNAME":"新市區","LI":"新和里","LIN":"16鄰","STREET":"可口街","SECT":" ","MAREA":" ","LANE":" ","ALLEY":" ","HOUSE_NO":"９８號","E_COORD97":177632.17999999999,"N_COORD97":2552607.5,"ADDRESS":"可口街９８號","OBJECTID":581886},"geometry":{"x":177632.18000000063,"y":2552607.5}},{"attributes":{"ID":581914,"DIS_CODE":0,"TOWNNAME":"中西區","LI":"郡王里","LIN":"16鄰","STREET":"建業街","SECT":" ","MAREA":" ","LANE":" ","ALLEY":" ","HOUSE_NO":"１８號","E_COORD97":168703.39999999999,"N_COORD97":2543185.7799999998,"ADDRESS":"建業街１８號","OBJECTID":581887},"geometry":{"x":168703.4000000013,"y":2543185.7800000012}},{"attributes":{"ID":581915,"DIS_CODE":0,"TOWNNAME":"中西區","LI":"郡王里","LIN":"16鄰","STREET":"建業街","SECT":" ","MAREA":" ","LANE":" ","ALLEY":" ","HOUSE_NO":"２０號","E_COORD97":168700.38,"N_COORD97":2543172.7599999998,"ADDRESS":"建業街２０號","OBJECTID":581888},"geometry":{"x":168700.37999999989,"y":2543172.7600000016}},{"attributes":{"ID":581916,"DIS_CODE":0,"TOWNNAME":"仁德區","LI":"保安里","LIN":"12鄰","STREET":"開發二路","SECT":" ","MAREA":" ","LANE":" ","ALLEY":" ","HOUSE_NO":"１８號","E_COORD97":172756.48000000001,"N_COORD97":2536059.77,"ADDRESS":"開發二路１８號","OBJECTID":581889},"geometry":{"x":172756.48000000045,"y":2536059.7699999996}},{"attributes":{"ID":581917,"DIS_CODE":0,"TOWNNAME":"中西區","LI":"郡王里","LIN":"16鄰","STREET":"建業街","SECT":" ","MAREA":" ","LANE":" ","ALLEY":" ","HOUSE_NO":"２２號之１","E_COORD97":168683.35999999999,"N_COORD97":2543164.1600000001,"ADDRESS":"建業街２２號之１","OBJECTID":581890},"geometry":{"x":168683.36000000034,"y":2543164.1600000001}},{"attributes":{"ID":581918,"DIS_CODE":0,"TOWNNAME":"中西區","LI":"郡王里","LIN":"16鄰","STREET":"建業街","SECT":" ","MAREA":" ","LANE":" ","ALLEY":" ","HOUSE_NO":"２２號之１０","E_COORD97":168677.04999999999,"N_COORD97":2543166.3500000001,"ADDRESS":"建業街２２號之１０","OBJECTID":581891},"geometry":{"x":168677.04999999981,"y":2543166.3499999996}},{"attributes":{"ID":581919,"DIS_CODE":0,"TOWNNAME":"中西區","LI":"郡王里","LIN":"16鄰","STREET":"建業街","SECT":" ","MAREA":" ","LANE":" ","ALLEY":" ","HOUSE_NO":"２２號之９","E_COORD97":168681.98999999999,"N_COORD97":2543184.71,"ADDRESS":"建業街２２號之９","OBJECTID":581892},"geometry":{"x":168681.99000000115,"y":2543184.7100000009}},{"attributes":{"ID":581920,"DIS_CODE":0,"TOWNNAME":"中西區","LI":"郡王里","LIN":"16鄰","STREET":"建業街","SECT":" ","MAREA":" ","LANE":" ","ALLEY":" ","HOUSE_NO":"２４號之１","E_COORD97":168661.41,"N_COORD97":2543170.3199999998,"ADDRESS":"建業街２４號之１","OBJECTID":581893},"geometry":{"x":168661.41000000015,"y":2543170.3200000003}},{"attributes":{"ID":581921,"DIS_CODE":0,"TOWNNAME":"中西區","LI":"郡王里","LIN":"16鄰","STREET":"建業街","SECT":" ","MAREA":" ","LANE":" ","ALLEY":" ","HOUSE_NO":"２４號之１１","E_COORD97":168673.07000000001,"N_COORD97":2543184.0299999998,"ADDRESS":"建業街２４號之１１","OBJECTID":581894},"geometry":{"x":168673.07000000123,"y":2543184.0300000012}},{"attributes":{"ID":581922,"DIS_CODE":0,"TOWNNAME":"中西區","LI":"郡王里","LIN":"16鄰","STREET":"建業街","SECT":" ","MAREA":" ","LANE":" ","ALLEY":" ","HOUSE_NO":"２４號之４","E_COORD97":168668.39999999999,"N_COORD97":2543167.4500000002,"ADDRESS":"建業街２４號之４","OBJECTID":581895},"geometry":{"x":168668.40000000037,"y":2543167.4500000011}},{"attributes":{"ID":581923,"DIS_CODE":0,"TOWNNAME":"中西區","LI":"郡王里","LIN":"16鄰","STREET":"建業街","SECT":" ","MAREA":" ","LANE":" ","ALLEY":" ","HOUSE_NO":"２４號之８","E_COORD97":168668.67999999999,"N_COORD97":2543185.1299999999,"ADDRESS":"建業街２４號之８","OBJECTID":581896},"geometry":{"x":168668.6799999997,"y":2543185.1300000008}},{"attributes":{"ID":581924,"DIS_CODE":0,"TOWNNAME":"中西區","LI":"永華里","LIN":"16鄰","STREET":"友愛街","SECT":" ","MAREA":" ","LANE":" ","ALLEY":" ","HOUSE_NO":"２號","E_COORD97":168594.95999999999,"N_COORD97":2543522.0899999999,"ADDRESS":"友愛街２號","OBJECTID":581897},"geometry":{"x":168594.96000000183,"y":2543522.0900000017}},{"attributes":{"ID":581925,"DIS_CODE":0,"TOWNNAME":"中西區","LI":"永華里","LIN":"16鄰","STREET":"友愛街","SECT":" ","MAREA":" ","LANE":" ","ALLEY":" ","HOUSE_NO":"６號","E_COORD97":168584.48999999999,"N_COORD97":2543517.5699999998,"ADDRESS":"友愛街６號","OBJECTID":581898},"geometry":{"x":168584.49000000022,"y":2543517.5700000003}},{"attributes":{"ID":581926,"DIS_CODE":0,"TOWNNAME":"中西區","LI":"永華里","LIN":"16鄰","STREET":"友愛街","SECT":" ","MAREA":" ","LANE":" ","ALLEY":" ","HOUSE_NO":"６號之１","E_COORD97":168580.72,"N_COORD97":2543517.3999999999,"ADDRESS":"友愛街６號之１","OBJECTID":581899},"geometry":{"x":168580.71999999974,"y":2543517.4000000022}},{"attributes":{"ID":581927,"DIS_CODE":0,"TOWNNAME":"中西區","LI":"永華里","LIN":"16鄰","STREET":"友愛街","SECT":" ","MAREA":" ","LANE":" ","ALLEY":" ","HOUSE_NO":"８號","E_COORD97":168574.35999999999,"N_COORD97":2543516.3999999999,"ADDRESS":"友愛街８號","OBJECTID":581900},"geometry":{"x":168574.36000000127,"y":2543516.4000000004}},{"attributes":{"ID":581928,"DIS_CODE":0,"TOWNNAME":"中西區","LI":"永華里","LIN":"16鄰","STREET":"開山路","SECT":" ","MAREA":" ","LANE":" ","ALLEY":" ","HOUSE_NO":"１６號","E_COORD97":168561.79999999999,"N_COORD97":2543582.9399999999,"ADDRESS":"開山路１６號","OBJECTID":581901},"geometry":{"x":168561.79999999981,"y":2543582.9399999995}},{"attributes":{"ID":581929,"DIS_CODE":0,"TOWNNAME":"中西區","LI":"永華里","LIN":"16鄰","STREET":"開山路","SECT":" ","MAREA":" ","LANE":" ","ALLEY":" ","HOUSE_NO":"１８號","E_COORD97":168563.98000000001,"N_COORD97":2543578.7599999998,"ADDRESS":"開山路１８號","OBJECTID":581902},"geometry":{"x":168563.98000000045,"y":2543578.7600000016}},{"attributes":{"ID":581930,"DIS_CODE":0,"TOWNNAME":"中西區","LI":"永華里","LIN":"16鄰","STREET":"開山路","SECT":" ","MAREA":" ","LANE":" ","ALLEY":" ","HOUSE_NO":"２０號","E_COORD97":168566.16,"N_COORD97":2543575.3300000001,"ADDRESS":"開山路２０號","OBJECTID":581903},"geometry":{"x":168566.16000000015,"y":2543575.3300000019}},{"attributes":{"ID":581931,"DIS_CODE":0,"TOWNNAME":"中西區","LI":"永華里","LIN":"16鄰","STREET":"開山路","SECT":" ","MAREA":" ","LANE":" ","ALLEY":" ","HOUSE_NO":"２２號","E_COORD97":168567.5,"N_COORD97":2543572.0600000001,"ADDRESS":"開山路２２號","OBJECTID":581904},"geometry":{"x":168567.49999999907,"y":2543572.0600000005}},{"attributes":{"ID":581932,"DIS_CODE":0,"TOWNNAME":"中西區","LI":"永華里","LIN":"16鄰","STREET":"開山路","SECT":" ","MAREA":" ","LANE":" ","ALLEY":" ","HOUSE_NO":"２４號","E_COORD97":168570.01000000001,"N_COORD97":2543568.9700000002,"ADDRESS":"開山路２４號","OBJECTID":581905},"geometry":{"x":168570.00999999978,"y":2543568.9700000025}},{"attributes":{"ID":581933,"DIS_CODE":0,"TOWNNAME":"中西區","LI":"永華里","LIN":"16鄰","STREET":"開山路","SECT":" ","MAREA":" ","LANE":" ","ALLEY":" ","HOUSE_NO":"２６號","E_COORD97":168571.76999999999,"N_COORD97":2543566.04,"ADDRESS":"開山路２６號","OBJECTID":581906},"geometry":{"x":168571.76999999955,"y":2543566.040000001}},{"attributes":{"ID":581934,"DIS_CODE":0,"TOWNNAME":"中西區","LI":"永華里","LIN":"16鄰","STREET":"開山路","SECT":" ","MAREA":" ","LANE":" ","ALLEY":" ","HOUSE_NO":"２８號","E_COORD97":168574.45000000001,"N_COORD97":2543561.4300000002,"ADDRESS":"開山路２８號","OBJECTID":581907},"geometry":{"x":168574.45000000019,"y":2543561.4300000016}},{"attributes":{"ID":581935,"DIS_CODE":0,"TOWNNAME":"中西區","LI":"永華里","LIN":"16鄰","STREET":"開山路","SECT":" ","MAREA":" ","LANE":" ","ALLEY":" ","HOUSE_NO":"３０號","E_COORD97":168577.04999999999,"N_COORD97":2543557.3300000001,"ADDRESS":"開山路３０號","OBJECTID":581908},"geometry":{"x":168577.04999999981,"y":2543557.3300000001}},{"attributes":{"ID":581936,"DIS_CODE":0,"TOWNNAME":"中西區","LI":"永華里","LIN":"16鄰","STREET":"開山路","SECT":" ","MAREA":" ","LANE":" ","ALLEY":" ","HOUSE_NO":"３２號","E_COORD97":168579.39000000001,"N_COORD97":2543553.3999999999,"ADDRESS":"開山路３２號","OBJECTID":581909},"geometry":{"x":168579.38999999966,"y":2543553.4000000004}},{"attributes":{"ID":581937,"DIS_CODE":0,"TOWNNAME":"中西區","LI":"永華里","LIN":"16鄰","STREET":"開山路","SECT":" ","MAREA":" ","LANE":" ","ALLEY":" ","HOUSE_NO":"３４號","E_COORD97":168581.07000000001,"N_COORD97":2543551.0600000001,"ADDRESS":"開山路３４號","OBJECTID":581910},"geometry":{"x":168581.07000000216,"y":2543551.0600000024}},{"attributes":{"ID":581938,"DIS_CODE":0,"TOWNNAME":"中西區","LI":"永華里","LIN":"16鄰","STREET":"開山路","SECT":" ","MAREA":" ","LANE":" ","ALLEY":" ","HOUSE_NO":"３６號","E_COORD97":168582.79999999999,"N_COORD97":2543545.4500000002,"ADDRESS":"開山路３６號","OBJECTID":581911},"geometry":{"x":168582.80000000075,"y":2543545.4499999993}},{"attributes":{"ID":581939,"DIS_CODE":0,"TOWNNAME":"中西區","LI":"永華里","LIN":"16鄰","STREET":"開山路","SECT":" ","MAREA":" ","LANE":" ","ALLEY":" ","HOUSE_NO":"３８號","E_COORD97":168586.23000000001,"N_COORD97":2543538.5899999999,"ADDRESS":"開山路３８號","OBJECTID":581912},"geometry":{"x":168586.23000000045,"y":2543538.5900000036}},{"attributes":{"ID":581940,"DIS_CODE":0,"TOWNNAME":"中西區","LI":"永華里","LIN":"16鄰","STREET":"開山路","SECT":" ","MAREA":" ","LANE":" ","ALLEY":" ","HOUSE_NO":"４６號","E_COORD97":168590.70999999999,"N_COORD97":2543529.4500000002,"ADDRESS":"開山路４６號","OBJECTID":581913},"geometry":{"x":168590.71000000089,"y":2543529.4500000011}},{"attributes":{"ID":581941,"DIS_CODE":0,"TOWNNAME":"中西區","LI":"永華里","LIN":"16鄰","STREET":"南門路","SECT":" ","MAREA":" ","LANE":" ","ALLEY":" ","HOUSE_NO":"３３號","E_COORD97":168501.91,"N_COORD97":2543585.02,"ADDRESS":"南門路３３號","OBJECTID":581914},"geometry":{"x":168501.91000000015,"y":2543585.0199999996}},{"attributes":{"ID":581942,"DIS_CODE":0,"TOWNNAME":"中西區","LI":"永華里","LIN":"16鄰","STREET":"南門路","SECT":" ","MAREA":" ","LANE":" ","ALLEY":" ","HOUSE_NO":"３５號","E_COORD97":168507.01999999999,"N_COORD97":2543566.4500000002,"ADDRESS":"南門路３５號","OBJECTID":581915},"geometry":{"x":168507.01999999955,"y":2543566.4500000011}},{"attributes":{"ID":581943,"DIS_CODE":0,"TOWNNAME":"中西區","LI":"永華里","LIN":"16鄰","STREET":"南門路","SECT":" ","MAREA":" ","LANE":" ","ALLEY":" ","HOUSE_NO":"３７號","E_COORD97":168502.5,"N_COORD97":2543510.0600000001,"ADDRESS":"南門路３７號","OBJECTID":581916},"geometry":{"x":168502.5,"y":2543510.0600000024}},{"attributes":{"ID":581944,"DIS_CODE":0,"TOWNNAME":"仁德區","LI":"保安里","LIN":"16鄰","STREET":"中正路","SECT":"一段","MAREA":" ","LANE":" ","ALLEY":" ","HOUSE_NO":"１８５號之３","E_COORD97":171599.03,"N_COORD97":2535821.54,"ADDRESS":"中正路一段１８５號之３","OBJECTID":581917},"geometry":{"x":171599.03000000119,"y":2535821.5399999972}},{"attributes":{"ID":581945,"DIS_CODE":0,"TOWNNAME":"仁德區","LI":"保安里","LIN":"16鄰","STREET":"中正路","SECT":"一段","MAREA":" ","LANE":" ","ALLEY":" ","HOUSE_NO":"１７７號","E_COORD97":171509.26000000001,"N_COORD97":2535722.52,"ADDRESS":"中正路一段１７７號","OBJECTID":581918},"geometry":{"x":171509.26000000071,"y":2535722.5199999996}},{"attributes":{"ID":581946,"DIS_CODE":0,"TOWNNAME":"仁德區","LI":"保安里","LIN":"16鄰","STREET":"中正路","SECT":"一段","MAREA":" ","LANE":" ","ALLEY":" ","HOUSE_NO":"１８５號之５","E_COORD97":171621.22,"N_COORD97":2535842.7999999998,"ADDRESS":"中正路一段１８５號之５","OBJECTID":581919},"geometry":{"x":171621.22000000067,"y":2535842.8000000026}},{"attributes":{"ID":581947,"DIS_CODE":0,"TOWNNAME":"仁德區","LI":"保安里","LIN":"16鄰","STREET":"中正路","SECT":"一段","MAREA":" ","LANE":" ","ALLEY":" ","HOUSE_NO":"１８５號之６","E_COORD97":171637.82000000001,"N_COORD97":2535855.7999999998,"ADDRESS":"中正路一段１８５號之６","OBJECTID":581920},"geometry":{"x":171637.82000000123,"y":2535855.8000000045}},{"attributes":{"ID":581948,"DIS_CODE":0,"TOWNNAME":"東區","LI":"大福里","LIN":"16鄰","STREET":"立德六路","SECT":" ","MAREA":" ","LANE":" ","ALLEY":" ","HOUSE_NO":"４２號","E_COORD97":169629.48999999999,"N_COORD97":2541876.4300000002,"ADDRESS":"立德六路４２號","OBJECTID":581921},"geometry":{"x":169629.49000000115,"y":2541876.4300000016}},{"attributes":{"ID":581949,"DIS_CODE":0,"TOWNNAME":"仁德區","LI":"保安里","LIN":"16鄰","STREET":"中正路","SECT":"一段","MAREA":" ","LANE":" ","ALLEY":" ","HOUSE_NO":"１６９號","E_COORD97":171494.07999999999,"N_COORD97":2535703.52,"ADDRESS":"中正路一段１６９號","OBJECTID":581922},"geometry":{"x":171494.08000000007,"y":2535703.5200000033}},{"attributes":{"ID":581950,"DIS_CODE":0,"TOWNNAME":"仁德區","LI":"保安里","LIN":"16鄰","STREET":"中正路","SECT":"一段","MAREA":" ","LANE":" ","ALLEY":" ","HOUSE_NO":"１７６號","E_COORD97":171549.32000000001,"N_COORD97":2535732.77,"ADDRESS":"中正路一段１７６號","OBJECTID":581923},"geometry":{"x":171549.32000000216,"y":2535732.7700000014}},{"attributes":{"ID":581951,"DIS_CODE":0,"TOWNNAME":"仁德區","LI":"保安里","LIN":"16鄰","STREET":"中正路","SECT":"一段","MAREA":" ","LANE":" ","ALLEY":" ","HOUSE_NO":"１６７號","E_COORD97":171490.42999999999,"N_COORD97":2535699.77,"ADDRESS":"中正路一段１６７號","OBJECTID":581924},"geometry":{"x":171490.43000000063,"y":2535699.7700000014}},{"attributes":{"ID":581952,"DIS_CODE":0,"TOWNNAME":"仁德區","LI":"保安里","LIN":"16鄰","STREET":"中正路","SECT":"一段","MAREA":" ","LANE":" ","ALLEY":" ","HOUSE_NO":"１８０號","E_COORD97":171554.60000000001,"N_COORD97":2535739.2799999998,"ADDRESS":"中正路一段１８０號","OBJECTID":581925},"geometry":{"x":171554.59999999963,"y":2535739.2800000012}},{"attributes":{"ID":581953,"DIS_CODE":0,"TOWNNAME":"仁德區","LI":"保安里","LIN":"16鄰","STREET":"中正路","SECT":"一段","MAREA":" ","LANE":" ","ALLEY":" ","HOUSE_NO":"１７８號","E_COORD97":171552.04999999999,"N_COORD97":2535735.7799999998,"ADDRESS":"中正路一段１７８號","OBJECTID":581926},"geometry":{"x":171552.04999999981,"y":2535735.7800000031}},{"attributes":{"ID":581954,"DIS_CODE":0,"TOWNNAME":"仁德區","LI":"保安里","LIN":"16鄰","STREET":"中正路","SECT":"一段","MAREA":" ","LANE":" ","ALLEY":" ","HOUSE_NO":"１７２號","E_COORD97":171543.76999999999,"N_COORD97":2535726.27,"ADDRESS":"中正路一段１７２號","OBJECTID":581927},"geometry":{"x":171543.77000000142,"y":2535726.2700000014}},{"attributes":{"ID":581955,"DIS_CODE":0,"TOWNNAME":"仁德區","LI":"保安里","LIN":"16鄰","STREET":"中正路","SECT":"一段","MAREA":" ","LANE":" ","ALLEY":" ","HOUSE_NO":"１７９號","E_COORD97":171513.14000000001,"N_COORD97":2535727.27,"ADDRESS":"中正路一段１７９號","OBJECTID":581928},"geometry":{"x":171513.1400000006,"y":2535727.2700000014}},{"attributes":{"ID":581956,"DIS_CODE":0,"TOWNNAME":"仁德區","LI":"新田里","LIN":"16鄰","STREET":"北保東路","SECT":" ","MAREA":" ","LANE":" ","ALLEY":" ","HOUSE_NO":"２６號","E_COORD97":173435.76999999999,"N_COORD97":2539378,"ADDRESS":"北保東路２６號","OBJECTID":581929},"geometry":{"x":173435.77000000048,"y":2539378}},{"attributes":{"ID":581957,"DIS_CODE":0,"TOWNNAME":"仁德區","LI":"保安里","LIN":"16鄰","STREET":"中正路","SECT":"一段","MAREA":" ","LANE":" ","ALLEY":" ","HOUSE_NO":"１８５號之２","E_COORD97":171582.64999999999,"N_COORD97":2535805.29,"ADDRESS":"中正路一段１８５號之２","OBJECTID":581930},"geometry":{"x":171582.65000000224,"y":2535805.2899999991}},{"attributes":{"ID":581958,"DIS_CODE":0,"TOWNNAME":"仁德區","LI":"新田里","LIN":"16鄰","STREET":"北保東路","SECT":" ","MAREA":" ","LANE":" ","ALLEY":" ","HOUSE_NO":"１２之１號","E_COORD97":173394.56,"N_COORD97":2539400.0499999998,"ADDRESS":"北保東路１２之１號","OBJECTID":581931},"geometry":{"x":173394.55999999866,"y":2539400.0499999989}},{"attributes":{"ID":581959,"DIS_CODE":0,"TOWNNAME":"仁德區","LI":"保安里","LIN":"16鄰","STREET":"中正路","SECT":"一段","MAREA":" ","LANE":" ","ALLEY":" ","HOUSE_NO":"１６０號","E_COORD97":171526.12,"N_COORD97":2535704.77,"ADDRESS":"中正路一段１６０號","OBJECTID":581932},"geometry":{"x":171526.12000000011,"y":2535704.7699999996}},{"attributes":{"ID":581960,"DIS_CODE":0,"TOWNNAME":"仁德區","LI":"保安里","LIN":"16鄰","STREET":"中正路","SECT":"一段","MAREA":" ","LANE":" ","ALLEY":" ","HOUSE_NO":"１６５號","E_COORD97":171487.17999999999,"N_COORD97":2535695.77,"ADDRESS":"中正路一段１６５號","OBJECTID":581933},"geometry":{"x":171487.18000000063,"y":2535695.7700000014}},{"attributes":{"ID":581961,"DIS_CODE":0,"TOWNNAME":"仁德區","LI":"保安里","LIN":"16鄰","STREET":"中正路","SECT":"一段","MAREA":" ","LANE":" ","ALLEY":" ","HOUSE_NO":"１６６號","E_COORD97":171535.42999999999,"N_COORD97":2535716.52,"ADDRESS":"中正路一段１６６號","OBJECTID":581934},"geometry":{"x":171535.4299999997,"y":2535716.5199999996}},{"attributes":{"ID":581962,"DIS_CODE":0,"TOWNNAME":"仁德區","LI":"新田里","LIN":"16鄰","STREET":"北保東路","SECT":" ","MAREA":" ","LANE":" ","ALLEY":" ","HOUSE_NO":"２４號","E_COORD97":173432.20000000001,"N_COORD97":2539379.75,"ADDRESS":"北保東路２４號","OBJECTID":581935},"geometry":{"x":173432.20000000112,"y":2539379.75}},{"attributes":{"ID":581963,"DIS_CODE":0,"TOWNNAME":"仁德區","LI":"保安里","LIN":"16鄰","STREET":"中正路","SECT":"一段","MAREA":" ","LANE":" ","ALLEY":" ","HOUSE_NO":"１８５號之１","E_COORD97":171569.13,"N_COORD97":2535789.29,"ADDRESS":"中正路一段１８５號之１","OBJECTID":581936},"geometry":{"x":171569.13000000082,"y":2535789.2899999972}},{"attributes":{"ID":581964,"DIS_CODE":0,"TOWNNAME":"永康區","LI":"東橋里","LIN":"16鄰","STREET":"東橋六街","SECT":" ","MAREA":" ","LANE":" ","ALLEY":" ","HOUSE_NO":"１３２號","E_COORD97":171640.17999999999,"N_COORD97":2546711.2799999998,"ADDRESS":"東橋六街１３２號","OBJECTID":581937},"geometry":{"x":171640.18000000063,"y":2546711.2800000012}},{"attributes":{"ID":581965,"DIS_CODE":0,"TOWNNAME":"仁德區","LI":"新田里","LIN":"16鄰","STREET":"北保東路","SECT":" ","MAREA":" ","LANE":" ","ALLEY":" ","HOUSE_NO":"１２之２號","E_COORD97":173400.06,"N_COORD97":2539398.0499999998,"ADDRESS":"北保東路１２之２號","OBJECTID":581938},"geometry":{"x":173400.06000000052,"y":2539398.0500000026}},{"attributes":{"ID":581966,"DIS_CODE":0,"TOWNNAME":"仁德區","LI":"保安里","LIN":"11鄰","STREET":"文賢二街","SECT":" ","MAREA":" ","LANE":" ","ALLEY":" ","HOUSE_NO":"１２號","E_COORD97":171625.63,"N_COORD97":2536068.3300000001,"ADDRESS":"文賢二街１２號","OBJECTID":581939},"geometry":{"x":171625.62999999989,"y":2536068.3300000038}},{"attributes":{"ID":581967,"DIS_CODE":0,"TOWNNAME":"仁德區","LI":"後壁里","LIN":"16鄰","STREET":"德南路","SECT":" ","MAREA":" ","LANE":" ","ALLEY":" ","HOUSE_NO":"３９號","E_COORD97":173371.34,"N_COORD97":2538778.52,"ADDRESS":"德南路３９號","OBJECTID":581940},"geometry":{"x":173371.34000000078,"y":2538778.5199999977}},{"attributes":{"ID":581968,"DIS_CODE":0,"TOWNNAME":"仁德區","LI":"新田里","LIN":"16鄰","STREET":"北保東路","SECT":" ","MAREA":" ","LANE":" ","ALLEY":" ","HOUSE_NO":"３０號","E_COORD97":173442.54999999999,"N_COORD97":2539373.25,"ADDRESS":"北保東路３０號","OBJECTID":581941},"geometry":{"x":173442.55000000168,"y":2539373.25}},{"attributes":{"ID":581969,"DIS_CODE":0,"TOWNNAME":"仁德區","LI":"保安里","LIN":"16鄰","STREET":"中正路","SECT":"一段","MAREA":" ","LANE":" ","ALLEY":" ","HOUSE_NO":"１７１號","E_COORD97":171498.32000000001,"N_COORD97":2535709.52,"ADDRESS":"中正路一段１７１號","OBJECTID":581942},"geometry":{"x":171498.31999999937,"y":2535709.5199999996}},{"attributes":{"ID":581970,"DIS_CODE":0,"TOWNNAME":"仁德區","LI":"後壁里","LIN":"16鄰","STREET":"德善路","SECT":" ","MAREA":" ","LANE":" ","ALLEY":" ","HOUSE_NO":"５４號","E_COORD97":173358.06,"N_COORD97":2538885.52,"ADDRESS":"德善路５４號","OBJECTID":581943},"geometry":{"x":173358.06000000052,"y":2538885.5200000014}},{"attributes":{"ID":581971,"DIS_CODE":0,"TOWNNAME":"仁德區","LI":"後壁里","LIN":"16鄰","STREET":"德善路","SECT":" ","MAREA":" ","LANE":" ","ALLEY":" ","HOUSE_NO":"６６號","E_COORD97":173380.06,"N_COORD97":2538866.52,"ADDRESS":"德善路６６號","OBJECTID":581944},"geometry":{"x":173380.06000000052,"y":2538866.5199999996}},{"attributes":{"ID":581972,"DIS_CODE":0,"TOWNNAME":"仁德區","LI":"新田里","LIN":"16鄰","STREET":"民安路","SECT":"二段","MAREA":" ","LANE":" ","ALLEY":" ","HOUSE_NO":"２７號","E_COORD97":173364.20999999999,"N_COORD97":2539280.8199999998,"ADDRESS":"民安路二段２７號","OBJECTID":581945},"geometry":{"x":173364.21000000089,"y":2539280.8200000022}},{"attributes":{"ID":581973,"DIS_CODE":0,"TOWNNAME":"白河區","LI":"永安里","LIN":"16鄰","STREET":"四維街","SECT":" ","MAREA":" ","LANE":" ","ALLEY":" ","HOUSE_NO":"１０號","E_COORD97":190044.45000000001,"N_COORD97":2583196.9300000002,"ADDRESS":"四維街１０號","OBJECTID":581946},"geometry":{"x":190044.45000000205,"y":2583196.9300000034}},{"attributes":{"ID":581974,"DIS_CODE":0,"TOWNNAME":"白河區","LI":"永安里","LIN":"16鄰","STREET":"四維街","SECT":" ","MAREA":" ","LANE":" ","ALLEY":" ","HOUSE_NO":"１２號","E_COORD97":190042.04000000001,"N_COORD97":2583199.79,"ADDRESS":"四維街１２號","OBJECTID":581947},"geometry":{"x":190042.0400000019,"y":2583199.7899999991}},{"attributes":{"ID":581975,"DIS_CODE":0,"TOWNNAME":"白河區","LI":"永安里","LIN":"16鄰","STREET":"四維街","SECT":" ","MAREA":" ","LANE":" ","ALLEY":" ","HOUSE_NO":"１５號","E_COORD97":190013.48999999999,"N_COORD97":2583212.1899999999,"ADDRESS":"四維街１５號","OBJECTID":581948},"geometry":{"x":190013.49000000022,"y":2583212.1900000013}},{"attributes":{"ID":581976,"DIS_CODE":0,"TOWNNAME":"白河區","LI":"永安里","LIN":"16鄰","STREET":"四維街","SECT":" ","MAREA":" ","LANE":" ","ALLEY":" ","HOUSE_NO":"１７號","E_COORD97":190008.91,"N_COORD97":2583217.2400000002,"ADDRESS":"四維街１７號","OBJECTID":581949},"geometry":{"x":190008.91000000015,"y":2583217.2400000021}},{"attributes":{"ID":581977,"DIS_CODE":0,"TOWNNAME":"白河區","LI":"永安里","LIN":"16鄰","STREET":"四維街","SECT":" ","MAREA":" ","LANE":" ","ALLEY":" ","HOUSE_NO":"１９號","E_COORD97":190005.06,"N_COORD97":2583222.1600000001,"ADDRESS":"四維街１９號","OBJECTID":581950},"geometry":{"x":190005.05999999959,"y":2583222.1600000001}},{"attributes":{"ID":581978,"DIS_CODE":0,"TOWNNAME":"白河區","LI":"永安里","LIN":"16鄰","STREET":"四維街","SECT":" ","MAREA":" ","LANE":" ","ALLEY":" ","HOUSE_NO":"２號","E_COORD97":190055.35999999999,"N_COORD97":2583183.52,"ADDRESS":"四維街２號","OBJECTID":581951},"geometry":{"x":190055.3600000022,"y":2583183.5200000014}},{"attributes":{"ID":581979,"DIS_CODE":0,"TOWNNAME":"白河區","LI":"永安里","LIN":"16鄰","STREET":"四維街","SECT":" ","MAREA":" ","LANE":" ","ALLEY":" ","HOUSE_NO":"４號","E_COORD97":190052.57999999999,"N_COORD97":2583186.7400000002,"ADDRESS":"四維街４號","OBJECTID":581952},"geometry":{"x":190052.58000000101,"y":2583186.7400000021}},{"attributes":{"ID":581980,"DIS_CODE":0,"TOWNNAME":"白河區","LI":"永安里","LIN":"16鄰","STREET":"四維街","SECT":" ","MAREA":" ","LANE":" ","ALLEY":" ","HOUSE_NO":"６號","E_COORD97":190049.51999999999,"N_COORD97":2583190.27,"ADDRESS":"四維街６號","OBJECTID":581953},"geometry":{"x":190049.51999999955,"y":2583190.2699999996}},{"attributes":{"ID":581981,"DIS_CODE":0,"TOWNNAME":"白河區","LI":"永安里","LIN":"16鄰","STREET":"四維街","SECT":" ","MAREA":" ","LANE":" ","ALLEY":" ","HOUSE_NO":"７８號","E_COORD97":190019.69,"N_COORD97":2583344.9100000001,"ADDRESS":"四維街７８號","OBJECTID":581954},"geometry":{"x":190019.69000000134,"y":2583344.910000002}},{"attributes":{"ID":581982,"DIS_CODE":0,"TOWNNAME":"白河區","LI":"永安里","LIN":"16鄰","STREET":"四維街","SECT":" ","MAREA":" ","LANE":" ","ALLEY":" ","HOUSE_NO":"７號","E_COORD97":190034.78,"N_COORD97":2583186.5600000001,"ADDRESS":"四維街７號","OBJECTID":581955},"geometry":{"x":190034.78000000026,"y":2583186.5600000042}},{"attributes":{"ID":581983,"DIS_CODE":0,"TOWNNAME":"白河區","LI":"永安里","LIN":"16鄰","STREET":"四維街","SECT":" ","MAREA":" ","LANE":" ","ALLEY":" ","HOUSE_NO":"８０號","E_COORD97":190011.06,"N_COORD97":2583361.4300000002,"ADDRESS":"四維街８０號","OBJECTID":581956},"geometry":{"x":190011.06000000052,"y":2583361.4299999997}},{"attributes":{"ID":581984,"DIS_CODE":0,"TOWNNAME":"白河區","LI":"永安里","LIN":"16鄰","STREET":"四維街","SECT":" ","MAREA":" ","LANE":" ","ALLEY":" ","HOUSE_NO":"８１號","E_COORD97":189994.35000000001,"N_COORD97":2583361.6600000001,"ADDRESS":"四維街８１號","OBJECTID":581957},"geometry":{"x":189994.35000000056,"y":2583361.6599999983}},{"attributes":{"ID":581985,"DIS_CODE":0,"TOWNNAME":"白河區","LI":"永安里","LIN":"16鄰","STREET":"四維街","SECT":" ","MAREA":" ","LANE":" ","ALLEY":" ","HOUSE_NO":"８２號","E_COORD97":190010.32999999999,"N_COORD97":2583365.73,"ADDRESS":"四維街８２號","OBJECTID":581958},"geometry":{"x":190010.33000000101,"y":2583365.7300000023}},{"attributes":{"ID":581986,"DIS_CODE":0,"TOWNNAME":"白河區","LI":"永安里","LIN":"16鄰","STREET":"四維街","SECT":" ","MAREA":" ","LANE":" ","ALLEY":" ","HOUSE_NO":"８３號","E_COORD97":189994.91,"N_COORD97":2583366.3900000001,"ADDRESS":"四維街８３號","OBJECTID":581959},"geometry":{"x":189994.91000000015,"y":2583366.3900000006}},{"attributes":{"ID":581987,"DIS_CODE":0,"TOWNNAME":"白河區","LI":"永安里","LIN":"16鄰","STREET":"四維街","SECT":" ","MAREA":" ","LANE":" ","ALLEY":" ","HOUSE_NO":"８４號","E_COORD97":190009.72,"N_COORD97":2583370.3700000001,"ADDRESS":"四維街８４號","OBJECTID":581960},"geometry":{"x":190009.71999999974,"y":2583370.370000001}},{"attributes":{"ID":581988,"DIS_CODE":0,"TOWNNAME":"白河區","LI":"永安里","LIN":"16鄰","STREET":"四維街","SECT":" ","MAREA":" ","LANE":" ","ALLEY":" ","HOUSE_NO":"８５號","E_COORD97":189994.57000000001,"N_COORD97":2583370.1699999999,"ADDRESS":"四維街８５號","OBJECTID":581961},"geometry":{"x":189994.57000000216,"y":2583370.1699999999}},{"attributes":{"ID":581989,"DIS_CODE":0,"TOWNNAME":"白河區","LI":"永安里","LIN":"16鄰","STREET":"四維街","SECT":" ","MAREA":" ","LANE":" ","ALLEY":" ","HOUSE_NO":"８６號","E_COORD97":190009.78,"N_COORD97":2583374.8799999999,"ADDRESS":"四維街８６號","OBJECTID":581962},"geometry":{"x":190009.78000000026,"y":2583374.879999999}},{"attributes":{"ID":581990,"DIS_CODE":0,"TOWNNAME":"白河區","LI":"永安里","LIN":"16鄰","STREET":"四維街","SECT":" ","MAREA":" ","LANE":" ","ALLEY":" ","HOUSE_NO":"８７號","E_COORD97":189995.03,"N_COORD97":2583374.4399999999,"ADDRESS":"四維街８７號","OBJECTID":581963},"geometry":{"x":189995.03000000119,"y":2583374.4400000013}},{"attributes":{"ID":581991,"DIS_CODE":0,"TOWNNAME":"白河區","LI":"永安里","LIN":"16鄰","STREET":"四維街","SECT":" ","MAREA":" ","LANE":" ","ALLEY":" ","HOUSE_NO":"８８號","E_COORD97":190009.63,"N_COORD97":2583379.75,"ADDRESS":"四維街８８號","OBJECTID":581964},"geometry":{"x":190009.63000000082,"y":2583379.7500000019}},{"attributes":{"ID":581992,"DIS_CODE":0,"TOWNNAME":"白河區","LI":"永安里","LIN":"16鄰","STREET":"四維街","SECT":" ","MAREA":" ","LANE":" ","ALLEY":" ","HOUSE_NO":"８９號","E_COORD97":189995.04999999999,"N_COORD97":2583379.2400000002,"ADDRESS":"四維街８９號","OBJECTID":581965},"geometry":{"x":189995.05000000075,"y":2583379.2400000021}},{"attributes":{"ID":581993,"DIS_CODE":0,"TOWNNAME":"白河區","LI":"永安里","LIN":"16鄰","STREET":"四維街","SECT":" ","MAREA":" ","LANE":" ","ALLEY":" ","HOUSE_NO":"８號","E_COORD97":190047.01000000001,"N_COORD97":2583193.4700000002,"ADDRESS":"四維街８號","OBJECTID":581966},"geometry":{"x":190047.01000000164,"y":2583193.4700000007}},{"attributes":{"ID":581994,"DIS_CODE":0,"TOWNNAME":"白河區","LI":"永安里","LIN":"16鄰","STREET":"四維街","SECT":" ","MAREA":" ","LANE":" ","ALLEY":" ","HOUSE_NO":"９０號","E_COORD97":190009.82000000001,"N_COORD97":2583382.8900000001,"ADDRESS":"四維街９０號","OBJECTID":581967},"geometry":{"x":190009.82000000216,"y":2583382.8900000006}},{"attributes":{"ID":581995,"DIS_CODE":0,"TOWNNAME":"官田區","LI":"隆本里","LIN":"16鄰","STREET":"興隆街","SECT":" ","MAREA":" ","LANE":" ","ALLEY":" ","HOUSE_NO":"６５號","E_COORD97":179900.07999999999,"N_COORD97":2566353.5299999998,"ADDRESS":"興隆街６５號","OBJECTID":581968},"geometry":{"x":179900.08000000101,"y":2566353.5300000012}},{"attributes":{"ID":581996,"DIS_CODE":0,"TOWNNAME":"官田區","LI":"隆本里","LIN":"16鄰","STREET":"興隆街","SECT":" ","MAREA":" ","LANE":" ","ALLEY":" ","HOUSE_NO":"６７號","E_COORD97":179895.64000000001,"N_COORD97":2566353.27,"ADDRESS":"興隆街６７號","OBJECTID":581969},"geometry":{"x":179895.6400000006,"y":2566353.2699999996}},{"attributes":{"ID":581997,"DIS_CODE":0,"TOWNNAME":"官田區","LI":"隆本里","LIN":"16鄰","STREET":"興隆街","SECT":" ","MAREA":" ","LANE":" ","ALLEY":" ","HOUSE_NO":"６９號","E_COORD97":179890.98999999999,"N_COORD97":2566353.1099999999,"ADDRESS":"興隆街６９號","OBJECTID":581970},"geometry":{"x":179890.99000000022,"y":2566353.1100000013}},{"attributes":{"ID":581998,"DIS_CODE":0,"TOWNNAME":"官田區","LI":"隆本里","LIN":"16鄰","STREET":"興隆街","SECT":" ","MAREA":" ","LANE":" ","ALLEY":" ","HOUSE_NO":"７１號","E_COORD97":179886.73000000001,"N_COORD97":2566353.1099999999,"ADDRESS":"興隆街７１號","OBJECTID":581971},"geometry":{"x":179886.73000000045,"y":2566353.1100000013}},{"attributes":{"ID":581999,"DIS_CODE":0,"TOWNNAME":"官田區","LI":"隆本里","LIN":"16鄰","STREET":"興隆街","SECT":" ","MAREA":" ","LANE":" ","ALLEY":" ","HOUSE_NO":"７５號","E_COORD97":179878.23999999999,"N_COORD97":2566352.2799999998,"ADDRESS":"興隆街７５號","OBJECTID":581972},"geometry":{"x":179878.24000000209,"y":2566352.2800000012}},{"attributes":{"ID":582000,"DIS_CODE":0,"TOWNNAME":"官田區","LI":"隆本里","LIN":"16鄰","STREET":"興隆街","SECT":" ","MAREA":" ","LANE":" ","ALLEY":" ","HOUSE_NO":"８７號","E_COORD97":179847.54000000001,"N_COORD97":2566348.7400000002,"ADDRESS":"興隆街８７號","OBJECTID":581973},"geometry":{"x":179847.54000000097,"y":2566348.7400000039}},{"attributes":{"ID":582001,"DIS_CODE":0,"TOWNNAME":"官田區","LI":"隆本里","LIN":"16鄰","STREET":"興隆街","SECT":" ","MAREA":" ","LANE":" ","ALLEY":" ","HOUSE_NO":"８９號","E_COORD97":179843.09,"N_COORD97":2566348.1499999999,"ADDRESS":"興隆街８９號","OBJECTID":581974},"geometry":{"x":179843.08999999985,"y":2566348.1500000004}},{"attributes":{"ID":582002,"DIS_CODE":0,"TOWNNAME":"官田區","LI":"隆本里","LIN":"16鄰","STREET":"興隆街","SECT":" ","MAREA":" ","LANE":" ","ALLEY":" ","HOUSE_NO":"９１號","E_COORD97":179838.67000000001,"N_COORD97":2566347.4900000002,"ADDRESS":"興隆街９１號","OBJECTID":581975},"geometry":{"x":179838.66999999993,"y":2566347.4900000021}},{"attributes":{"ID":582003,"DIS_CODE":0,"TOWNNAME":"官田區","LI":"隆本里","LIN":"16鄰","STREET":"興隆街","SECT":" ","MAREA":" ","LANE":" ","ALLEY":" ","HOUSE_NO":"９３號","E_COORD97":179834.20000000001,"N_COORD97":2566346.7799999998,"ADDRESS":"興隆街９３號","OBJECTID":581976},"geometry":{"x":179834.20000000019,"y":2566346.7799999993}},{"attributes":{"ID":582004,"DIS_CODE":0,"TOWNNAME":"仁德區","LI":"太子里","LIN":"23鄰","STREET":"太子路","SECT":" ","MAREA":" ","LANE":" ","ALLEY":" ","HOUSE_NO":"３６６號","E_COORD97":173748.01999999999,"N_COORD97":2543535.7599999998,"ADDRESS":"太子路３６６號","OBJECTID":581977},"geometry":{"x":173748.02000000048,"y":2543535.7599999998}},{"attributes":{"ID":582005,"DIS_CODE":0,"TOWNNAME":"官田區","LI":"隆本里","LIN":"16鄰","STREET":"興隆街","SECT":" ","MAREA":" ","LANE":" ","ALLEY":" ","HOUSE_NO":"９９號","E_COORD97":179819.76999999999,"N_COORD97":2566352.1000000001,"ADDRESS":"興隆街９９號","OBJECTID":581978},"geometry":{"x":179819.77000000142,"y":2566352.1000000034}},{"attributes":{"ID":582006,"DIS_CODE":0,"TOWNNAME":"官田區","LI":"隆田里","LIN":"16鄰","STREET":"文化街","SECT":" ","MAREA":" ","LANE":" ","ALLEY":" ","HOUSE_NO":"６７號","E_COORD97":180229.32999999999,"N_COORD97":2566013.71,"ADDRESS":"文化街６７號","OBJECTID":581979},"geometry":{"x":180229.33000000007,"y":2566013.7100000046}},{"attributes":{"ID":582007,"DIS_CODE":0,"TOWNNAME":"永康區","LI":"北灣里","LIN":"16鄰","STREET":"文賢街","SECT":" ","MAREA":" ","LANE":" ","ALLEY":" ","HOUSE_NO":"３７８之１號","E_COORD97":174849.72,"N_COORD97":2545815.0899999999,"ADDRESS":"文賢街３７８之１號","OBJECTID":581980},"geometry":{"x":174849.71999999974,"y":2545815.0900000017}},{"attributes":{"ID":582008,"DIS_CODE":0,"TOWNNAME":"永康區","LI":"王行里","LIN":"16鄰","STREET":"中山北路","SECT":" ","MAREA":" ","LANE":" ","ALLEY":" ","HOUSE_NO":"７６９之１號","E_COORD97":175966.95999999999,"N_COORD97":2547996.1899999999,"ADDRESS":"中山北路７６９之１號","OBJECTID":581981},"geometry":{"x":175966.95999999996,"y":2547996.1900000032}},{"attributes":{"ID":582009,"DIS_CODE":0,"TOWNNAME":"永康區","LI":"王行里","LIN":"16鄰","STREET":"中山北路","SECT":" ","MAREA":" ","LANE":" ","ALLEY":" ","HOUSE_NO":"１０５１號之１","E_COORD97":176611.06,"N_COORD97":2548188.0600000001,"ADDRESS":"中山北路１０５１號之１","OBJECTID":581982},"geometry":{"x":176611.06000000052,"y":2548188.0600000024}},{"attributes":{"ID":582010,"DIS_CODE":0,"TOWNNAME":"永康區","LI":"王行里","LIN":"16鄰","STREET":"中山北路","SECT":" ","MAREA":" ","LANE":" ","ALLEY":" ","HOUSE_NO":"７６９號","E_COORD97":175967.94,"N_COORD97":2547976.25,"ADDRESS":"中山北路７６９號","OBJECTID":581983},"geometry":{"x":175967.94000000227,"y":2547976.2500000019}},{"attributes":{"ID":582011,"DIS_CODE":0,"TOWNNAME":"永康區","LI":"正強里","LIN":"16鄰","STREET":"自強路","SECT":" ","MAREA":" ","LANE":" ","ALLEY":" ","HOUSE_NO":"２１２號","E_COORD97":173256.22,"N_COORD97":2547555.25,"ADDRESS":"自強路２１２號","OBJECTID":581984},"geometry":{"x":173256.21999999974,"y":2547555.2500000037}},{"attributes":{"ID":582012,"DIS_CODE":0,"TOWNNAME":"永康區","LI":"正強里","LIN":"16鄰","STREET":"自強路","SECT":" ","MAREA":" ","LANE":" ","ALLEY":" ","HOUSE_NO":"２１０號","E_COORD97":173251.5,"N_COORD97":2547557.5,"ADDRESS":"自強路２１０號","OBJECTID":581985},"geometry":{"x":173251.50000000186,"y":2547557.5000000019}},{"attributes":{"ID":582013,"DIS_CODE":0,"TOWNNAME":"永康區","LI":"正強里","LIN":"16鄰","STREET":"自強路","SECT":" ","MAREA":" ","LANE":" ","ALLEY":" ","HOUSE_NO":"１８２號","E_COORD97":173158.75,"N_COORD97":2547498.9900000002,"ADDRESS":"自強路１８２號","OBJECTID":581986},"geometry":{"x":173158.75000000093,"y":2547498.9900000002}},{"attributes":{"ID":582014,"DIS_CODE":0,"TOWNNAME":"永康區","LI":"北灣里","LIN":"16鄰","STREET":"文賢街","SECT":" ","MAREA":" ","LANE":" ","ALLEY":" ","HOUSE_NO":"３６２號","E_COORD97":174879.29000000001,"N_COORD97":2545822.52,"ADDRESS":"文賢街３６２號","OBJECTID":581987},"geometry":{"x":174879.29000000097,"y":2545822.5199999996}},{"attributes":{"ID":582015,"DIS_CODE":0,"TOWNNAME":"永康區","LI":"北灣里","LIN":"16鄰","STREET":"文賢街","SECT":" ","MAREA":" ","LANE":" ","ALLEY":" ","HOUSE_NO":"３８７號","E_COORD97":174862.12,"N_COORD97":2545781.9100000001,"ADDRESS":"文賢街３８７號","OBJECTID":581988},"geometry":{"x":174862.12000000011,"y":2545781.910000002}},{"attributes":{"ID":582016,"DIS_CODE":0,"TOWNNAME":"永康區","LI":"北灣里","LIN":"16鄰","STREET":"文賢街","SECT":" ","MAREA":" ","LANE":" ","ALLEY":" ","HOUSE_NO":"３９０之１號","E_COORD97":174831.54999999999,"N_COORD97":2545811.7999999998,"ADDRESS":"文賢街３９０之１號","OBJECTID":581989},"geometry":{"x":174831.55000000075,"y":2545811.8000000007}},{"attributes":{"ID":582017,"DIS_CODE":0,"TOWNNAME":"永康區","LI":"北灣里","LIN":"16鄰","STREET":"文賢街","SECT":" ","MAREA":" ","LANE":" ","ALLEY":" ","HOUSE_NO":"３８３號","E_COORD97":174880.79999999999,"N_COORD97":2545803.2200000002,"ADDRESS":"文賢街３８３號","OBJECTID":581990},"geometry":{"x":174880.79999999981,"y":2545803.2199999988}},{"attributes":{"ID":582018,"DIS_CODE":0,"TOWNNAME":"永康區","LI":"北灣里","LIN":"16鄰","STREET":"文賢街","SECT":" ","MAREA":" ","LANE":" ","ALLEY":" ","HOUSE_NO":"３９１號","E_COORD97":174848.54999999999,"N_COORD97":2545788.0499999998,"ADDRESS":"文賢街３９１號","OBJECTID":581991},"geometry":{"x":174848.55000000075,"y":2545788.0500000026}},{"attributes":{"ID":582019,"DIS_CODE":0,"TOWNNAME":"新市區","LI":"新和里","LIN":"16鄰","STREET":"可口街","SECT":" ","MAREA":" ","LANE":" ","ALLEY":" ","HOUSE_NO":"６４號","E_COORD97":177618.12,"N_COORD97":2552539,"ADDRESS":"可口街６４號","OBJECTID":581992},"geometry":{"x":177618.12000000104,"y":2552539.0000000019}},{"attributes":{"ID":582020,"DIS_CODE":0,"TOWNNAME":"新市區","LI":"新和里","LIN":"16鄰","STREET":"可口街","SECT":" ","MAREA":" ","LANE":" ","ALLEY":" ","HOUSE_NO":"５６號","E_COORD97":177614.87,"N_COORD97":2552523.25,"ADDRESS":"可口街５６號","OBJECTID":581993},"geometry":{"x":177614.87000000104,"y":2552523.2500000019}},{"attributes":{"ID":582021,"DIS_CODE":0,"TOWNNAME":"新市區","LI":"新和里","LIN":"16鄰","STREET":"可口街","SECT":" ","MAREA":" ","LANE":" ","ALLEY":" ","HOUSE_NO":"５９號","E_COORD97":177607.42000000001,"N_COORD97":2552546,"ADDRESS":"可口街５９號","OBJECTID":581994},"geometry":{"x":177607.42000000086,"y":2552546}},{"attributes":{"ID":582022,"DIS_CODE":0,"TOWNNAME":"新市區","LI":"新和里","LIN":"16鄰","STREET":"可口街","SECT":" ","MAREA":" ","LANE":" ","ALLEY":" ","HOUSE_NO":"６２號","E_COORD97":177617.26000000001,"N_COORD97":2552535,"ADDRESS":"可口街６２號","OBJECTID":581995},"geometry":{"x":177617.25999999978,"y":2552535.0000000019}},{"attributes":{"ID":582023,"DIS_CODE":0,"TOWNNAME":"新市區","LI":"新和里","LIN":"16鄰","STREET":"可口街","SECT":" ","MAREA":" ","LANE":" ","ALLEY":" ","HOUSE_NO":"５１號","E_COORD97":177604.42999999999,"N_COORD97":2552529.75,"ADDRESS":"可口街５１號","OBJECTID":581996},"geometry":{"x":177604.4299999997,"y":2552529.7500000019}},{"attributes":{"ID":582024,"DIS_CODE":0,"TOWNNAME":"新市區","LI":"新和里","LIN":"16鄰","STREET":"可口街","SECT":" ","MAREA":" ","LANE":" ","ALLEY":" ","HOUSE_NO":"５８號","E_COORD97":177615.87,"N_COORD97":2552527.25,"ADDRESS":"可口街５８號","OBJECTID":581997},"geometry":{"x":177615.87000000197,"y":2552527.2500000019}},{"attributes":{"ID":582025,"DIS_CODE":0,"TOWNNAME":"新市區","LI":"新市里","LIN":"16鄰","STREET":"和平街","SECT":" ","MAREA":" ","LANE":" ","ALLEY":" ","HOUSE_NO":"６９號","E_COORD97":177630.56,"N_COORD97":2553417.1299999999,"ADDRESS":"和平街６９號","OBJECTID":581998},"geometry":{"x":177630.55999999959,"y":2553417.1300000027}},{"attributes":{"ID":582026,"DIS_CODE":0,"TOWNNAME":"新市區","LI":"新市里","LIN":"16鄰","STREET":"和平街","SECT":" ","MAREA":" ","LANE":" ","ALLEY":" ","HOUSE_NO":"６５號","E_COORD97":177637.67999999999,"N_COORD97":2553422.5499999998,"ADDRESS":"和平街６５號","OBJECTID":581999},"geometry":{"x":177637.68000000063,"y":2553422.5500000007}},{"attributes":{"ID":582027,"DIS_CODE":0,"TOWNNAME":"新市區","LI":"新市里","LIN":"16鄰","STREET":"和平街","SECT":" ","MAREA":" ","LANE":" ","ALLEY":" ","HOUSE_NO":"６７號","E_COORD97":177633.95999999999,"N_COORD97":2553419.7400000002,"ADDRESS":"和平街６７號","OBJECTID":582000},"geometry":{"x":177633.96000000089,"y":2553419.7400000002}}]}