{"displayFieldName":"TOWNNAME","fieldAliases":{"ID":"ID","DIS_CODE":"DIS_CODE","TOWNNAME":"TOWNNAME","LI":"LI","LIN":"LIN","STREET":"STREET","SECT":"SECT","MAREA":"MAREA","LANE":"LANE","ALLEY":"ALLEY","HOUSE_NO":"HOUSE_NO","E_COORD97":"E_COORD97","N_COORD97":"N_COORD97","ADDRESS":"ADDRESS","OBJECTID":"OBJECTID"},"geometryType":"esriGeometryPoint","spatialReference":{"wkid":102443,"latestWkid":3826},"fields":[{"name":"ID","type":"esriFieldTypeDouble","alias":"ID"},{"name":"DIS_CODE","type":"esriFieldTypeInteger","alias":"DIS_CODE"},{"name":"TOWNNAME","type":"esriFieldTypeString","alias":"TOWNNAME","length":8},{"name":"LI","type":"esriFieldTypeString","alias":"LI","length":8},{"name":"LIN","type":"esriFieldTypeString","alias":"LIN","length":12},{"name":"STREET","type":"esriFieldTypeString","alias":"STREET","length":20},{"name":"SECT","type":"esriFieldTypeString","alias":"SECT","length":8},{"name":"MAREA","type":"esriFieldTypeString","alias":"MAREA","length":12},{"name":"LANE","type":"esriFieldTypeString","alias":"LANE","length":10},{"name":"ALLEY","type":"esriFieldTypeString","alias":"ALLEY","length":10},{"name":"HOUSE_NO","type":"esriFieldTypeString","alias":"HOUSE_NO","length":20},{"name":"E_COORD97","type":"esriFieldTypeDouble","alias":"E_COORD97"},{"name":"N_COORD97","type":"esriFieldTypeDouble","alias":"N_COORD97"},{"name":"ADDRESS","type":"esriFieldTypeString","alias":"ADDRESS","length":50},{"name":"OBJECTID","type":"esriFieldTypeOID","alias":"OBJECTID"}],"features":[{"attributes":{"ID":158202,"DIS_CODE":0,"TOWNNAME":"楠西區","LI":"照興里","LIN":"5鄰","STREET":" ","SECT":" ","MAREA":"興北","LANE":" ","ALLEY":" ","HOUSE_NO":"５７號","E_COORD97":197811.67000000001,"N_COORD97":2566991.25,"ADDRESS":"興北５７號","OBJECTID":158201},"geometry":{"x":197811.66999999899,"y":2566991.25}},{"attributes":{"ID":158203,"DIS_CODE":0,"TOWNNAME":"安南區","LI":"國安里","LIN":"2鄰","STREET":"國安街","SECT":" ","MAREA":" ","LANE":"１５６巷","ALLEY":"１０１弄","HOUSE_NO":"２５號","E_COORD97":166606.84,"N_COORD97":2547218.3300000001,"ADDRESS":"國安街１５６巷１０１弄２５號","OBJECTID":158202},"geometry":{"x":166606.83999999985,"y":2547218.3300000001}},{"attributes":{"ID":158204,"DIS_CODE":0,"TOWNNAME":"安南區","LI":"國安里","LIN":"2鄰","STREET":"國安街","SECT":" ","MAREA":" ","LANE":"１５６巷","ALLEY":"１０１弄","HOUSE_NO":"３號","E_COORD97":166660.63,"N_COORD97":2547228.27,"ADDRESS":"國安街１５６巷１０１弄３號","OBJECTID":158203},"geometry":{"x":166660.62999999989,"y":2547228.2699999996}},{"attributes":{"ID":158205,"DIS_CODE":0,"TOWNNAME":"安南區","LI":"國安里","LIN":"2鄰","STREET":"國安街","SECT":" ","MAREA":" ","LANE":"１５６巷","ALLEY":"１０１弄","HOUSE_NO":"５號","E_COORD97":166654.39999999999,"N_COORD97":2547227.4700000002,"ADDRESS":"國安街１５６巷１０１弄５號","OBJECTID":158204},"geometry":{"x":166654.40000000037,"y":2547227.4700000007}},{"attributes":{"ID":158206,"DIS_CODE":0,"TOWNNAME":"鹽水區","LI":"歡雅里","LIN":"5鄰","STREET":" ","SECT":" ","MAREA":"歡雅","LANE":" ","ALLEY":" ","HOUSE_NO":"８２之１４號","E_COORD97":172566.76000000001,"N_COORD97":2576695.6299999999,"ADDRESS":"歡雅８２之１４號","OBJECTID":158205},"geometry":{"x":172566.76000000071,"y":2576695.6300000008}},{"attributes":{"ID":158207,"DIS_CODE":0,"TOWNNAME":"安南區","LI":"國安里","LIN":"2鄰","STREET":"國安街","SECT":" ","MAREA":" ","LANE":"１５６巷","ALLEY":"１０１弄","HOUSE_NO":"７號","E_COORD97":166651.22,"N_COORD97":2547226.9900000002,"ADDRESS":"國安街１５６巷１０１弄７號","OBJECTID":158206},"geometry":{"x":166651.21999999974,"y":2547226.9900000002}},{"attributes":{"ID":158208,"DIS_CODE":0,"TOWNNAME":"鹽水區","LI":"歡雅里","LIN":"5鄰","STREET":" ","SECT":" ","MAREA":"歡雅","LANE":" ","ALLEY":" ","HOUSE_NO":"８２號之１５","E_COORD97":172576.64000000001,"N_COORD97":2576757.77,"ADDRESS":"歡雅８２號之１５","OBJECTID":158207},"geometry":{"x":172576.63999999966,"y":2576757.7699999996}},{"attributes":{"ID":158209,"DIS_CODE":0,"TOWNNAME":"鹽水區","LI":"歡雅里","LIN":"5鄰","STREET":" ","SECT":" ","MAREA":"歡雅","LANE":" ","ALLEY":" ","HOUSE_NO":"８２號之１６","E_COORD97":172576.5,"N_COORD97":2576752.4300000002,"ADDRESS":"歡雅８２號之１６","OBJECTID":158208},"geometry":{"x":172576.5,"y":2576752.4300000016}},{"attributes":{"ID":158210,"DIS_CODE":0,"TOWNNAME":"鹽水區","LI":"歡雅里","LIN":"5鄰","STREET":" ","SECT":" ","MAREA":"歡雅","LANE":" ","ALLEY":" ","HOUSE_NO":"８２之１７號","E_COORD97":172577.07999999999,"N_COORD97":2576746.7400000002,"ADDRESS":"歡雅８２之１７號","OBJECTID":158209},"geometry":{"x":172577.08000000101,"y":2576746.7400000039}},{"attributes":{"ID":158211,"DIS_CODE":0,"TOWNNAME":"安南區","LI":"國安里","LIN":"2鄰","STREET":"國安街","SECT":" ","MAREA":" ","LANE":"１５６巷","ALLEY":"１０１弄","HOUSE_NO":"９號","E_COORD97":166645.88,"N_COORD97":2547226.1200000001,"ADDRESS":"國安街１５６巷１０１弄９號","OBJECTID":158210},"geometry":{"x":166645.87999999896,"y":2547226.1200000029}},{"attributes":{"ID":158212,"DIS_CODE":0,"TOWNNAME":"安南區","LI":"國安里","LIN":"2鄰","STREET":"國安街","SECT":" ","MAREA":" ","LANE":"１５６巷","ALLEY":"５１弄","HOUSE_NO":"２８號","E_COORD97":166649.39000000001,"N_COORD97":2547124.75,"ADDRESS":"國安街１５６巷５１弄２８號","OBJECTID":158211},"geometry":{"x":166649.3900000006,"y":2547124.7500000037}},{"attributes":{"ID":158213,"DIS_CODE":0,"TOWNNAME":"安南區","LI":"國安里","LIN":"2鄰","STREET":"國安街","SECT":" ","MAREA":" ","LANE":"１５６巷","ALLEY":"８３弄","HOUSE_NO":"１０號","E_COORD97":166645.17999999999,"N_COORD97":2547206.3700000001,"ADDRESS":"國安街１５６巷８３弄１０號","OBJECTID":158212},"geometry":{"x":166645.1799999997,"y":2547206.3700000048}},{"attributes":{"ID":158214,"DIS_CODE":0,"TOWNNAME":"鹽水區","LI":"歡雅里","LIN":"5鄰","STREET":" ","SECT":" ","MAREA":"歡雅","LANE":" ","ALLEY":" ","HOUSE_NO":"８２之１８號","E_COORD97":172577.73000000001,"N_COORD97":2576742.3599999999,"ADDRESS":"歡雅８２之１８號","OBJECTID":158213},"geometry":{"x":172577.73000000138,"y":2576742.3600000013}},{"attributes":{"ID":158215,"DIS_CODE":0,"TOWNNAME":"安南區","LI":"國安里","LIN":"2鄰","STREET":"國安街","SECT":" ","MAREA":" ","LANE":"１５６巷","ALLEY":"８３弄","HOUSE_NO":"１１號","E_COORD97":166641.76000000001,"N_COORD97":2547187.6200000001,"ADDRESS":"國安街１５６巷８３弄１１號","OBJECTID":158214},"geometry":{"x":166641.76000000071,"y":2547187.6199999992}},{"attributes":{"ID":158216,"DIS_CODE":0,"TOWNNAME":"鹽水區","LI":"歡雅里","LIN":"5鄰","STREET":" ","SECT":" ","MAREA":"歡雅","LANE":" ","ALLEY":" ","HOUSE_NO":"８２號之１８","E_COORD97":172577.73000000001,"N_COORD97":2576742.3599999999,"ADDRESS":"歡雅８２號之１８","OBJECTID":158215},"geometry":{"x":172577.73000000138,"y":2576742.3600000013}},{"attributes":{"ID":158217,"DIS_CODE":0,"TOWNNAME":"鹽水區","LI":"歡雅里","LIN":"5鄰","STREET":" ","SECT":" ","MAREA":"歡雅","LANE":" ","ALLEY":" ","HOUSE_NO":"８２之１９號","E_COORD97":172577.59,"N_COORD97":2576737.3399999999,"ADDRESS":"歡雅８２之１９號","OBJECTID":158216},"geometry":{"x":172577.59000000171,"y":2576737.3399999999}},{"attributes":{"ID":158218,"DIS_CODE":0,"TOWNNAME":"鹽水區","LI":"歡雅里","LIN":"5鄰","STREET":" ","SECT":" ","MAREA":"歡雅","LANE":" ","ALLEY":" ","HOUSE_NO":"８２號之１９","E_COORD97":172577.59,"N_COORD97":2576737.3399999999,"ADDRESS":"歡雅８２號之１９","OBJECTID":158217},"geometry":{"x":172577.59000000171,"y":2576737.3399999999}},{"attributes":{"ID":158219,"DIS_CODE":0,"TOWNNAME":"鹽水區","LI":"歡雅里","LIN":"5鄰","STREET":" ","SECT":" ","MAREA":"歡雅","LANE":" ","ALLEY":" ","HOUSE_NO":"８２之１號","E_COORD97":172545.13,"N_COORD97":2576722.1299999999,"ADDRESS":"歡雅８２之１號","OBJECTID":158218},"geometry":{"x":172545.12999999896,"y":2576722.129999999}},{"attributes":{"ID":158220,"DIS_CODE":0,"TOWNNAME":"安南區","LI":"國安里","LIN":"2鄰","STREET":"國安街","SECT":" ","MAREA":" ","LANE":"１５６巷","ALLEY":"８３弄","HOUSE_NO":"１２號","E_COORD97":166639.13,"N_COORD97":2547205.3700000001,"ADDRESS":"國安街１５６巷８３弄１２號","OBJECTID":158219},"geometry":{"x":166639.13000000175,"y":2547205.370000001}},{"attributes":{"ID":158221,"DIS_CODE":0,"TOWNNAME":"鹽水區","LI":"歡雅里","LIN":"5鄰","STREET":" ","SECT":" ","MAREA":"歡雅","LANE":" ","ALLEY":" ","HOUSE_NO":"８２之２０號","E_COORD97":172577.35999999999,"N_COORD97":2576733.5499999998,"ADDRESS":"歡雅８２之２０號","OBJECTID":158220},"geometry":{"x":172577.36000000034,"y":2576733.5500000007}},{"attributes":{"ID":158222,"DIS_CODE":0,"TOWNNAME":"安南區","LI":"國安里","LIN":"2鄰","STREET":"國安街","SECT":" ","MAREA":" ","LANE":"１５６巷","ALLEY":"８３弄","HOUSE_NO":"１３號","E_COORD97":166636.54000000001,"N_COORD97":2547184.2799999998,"ADDRESS":"國安街１５６巷８３弄１３號","OBJECTID":158221},"geometry":{"x":166636.5400000019,"y":2547184.2799999993}},{"attributes":{"ID":158223,"DIS_CODE":0,"TOWNNAME":"鹽水區","LI":"歡雅里","LIN":"5鄰","STREET":" ","SECT":" ","MAREA":"歡雅","LANE":" ","ALLEY":" ","HOUSE_NO":"８２號之２１","E_COORD97":172577.26000000001,"N_COORD97":2576729.4300000002,"ADDRESS":"歡雅８２號之２１","OBJECTID":158222},"geometry":{"x":172577.26000000071,"y":2576729.4300000016}},{"attributes":{"ID":158224,"DIS_CODE":0,"TOWNNAME":"鹽水區","LI":"歡雅里","LIN":"5鄰","STREET":" ","SECT":" ","MAREA":"歡雅","LANE":" ","ALLEY":" ","HOUSE_NO":"８２之２２號","E_COORD97":172577.32999999999,"N_COORD97":2576725.48,"ADDRESS":"歡雅８２之２２號","OBJECTID":158223},"geometry":{"x":172577.33000000007,"y":2576725.4800000023}},{"attributes":{"ID":158225,"DIS_CODE":0,"TOWNNAME":"鹽水區","LI":"歡雅里","LIN":"5鄰","STREET":" ","SECT":" ","MAREA":"歡雅","LANE":" ","ALLEY":" ","HOUSE_NO":"８２號之２２","E_COORD97":172577.32999999999,"N_COORD97":2576725.48,"ADDRESS":"歡雅８２號之２２","OBJECTID":158224},"geometry":{"x":172577.33000000007,"y":2576725.4800000023}},{"attributes":{"ID":158226,"DIS_CODE":0,"TOWNNAME":"鹽水區","LI":"歡雅里","LIN":"5鄰","STREET":" ","SECT":" ","MAREA":"歡雅","LANE":" ","ALLEY":" ","HOUSE_NO":"８２之２３號","E_COORD97":172583.73000000001,"N_COORD97":2576721.3900000001,"ADDRESS":"歡雅８２之２３號","OBJECTID":158225},"geometry":{"x":172583.73000000045,"y":2576721.3900000006}},{"attributes":{"ID":158227,"DIS_CODE":0,"TOWNNAME":"鹽水區","LI":"歡雅里","LIN":"5鄰","STREET":" ","SECT":" ","MAREA":"歡雅","LANE":" ","ALLEY":" ","HOUSE_NO":"８２號之２３","E_COORD97":172583.73000000001,"N_COORD97":2576721.3900000001,"ADDRESS":"歡雅８２號之２３","OBJECTID":158226},"geometry":{"x":172583.73000000045,"y":2576721.3900000006}},{"attributes":{"ID":158228,"DIS_CODE":0,"TOWNNAME":"鹽水區","LI":"歡雅里","LIN":"5鄰","STREET":" ","SECT":" ","MAREA":"歡雅","LANE":" ","ALLEY":" ","HOUSE_NO":"８２之２４號","E_COORD97":172581.85000000001,"N_COORD97":2576716.8799999999,"ADDRESS":"歡雅８２之２４號","OBJECTID":158227},"geometry":{"x":172581.84999999963,"y":2576716.879999999}},{"attributes":{"ID":158229,"DIS_CODE":0,"TOWNNAME":"鹽水區","LI":"歡雅里","LIN":"5鄰","STREET":" ","SECT":" ","MAREA":"歡雅","LANE":" ","ALLEY":" ","HOUSE_NO":"８２之２５號","E_COORD97":172581.73999999999,"N_COORD97":2576711.96,"ADDRESS":"歡雅８２之２５號","OBJECTID":158228},"geometry":{"x":172581.74000000022,"y":2576711.959999999}},{"attributes":{"ID":158230,"DIS_CODE":0,"TOWNNAME":"鹽水區","LI":"歡雅里","LIN":"5鄰","STREET":" ","SECT":" ","MAREA":"歡雅","LANE":" ","ALLEY":" ","HOUSE_NO":"８２之２６號","E_COORD97":172581.48999999999,"N_COORD97":2576708.0600000001,"ADDRESS":"歡雅８２之２６號","OBJECTID":158229},"geometry":{"x":172581.49000000022,"y":2576708.0600000024}},{"attributes":{"ID":158231,"DIS_CODE":0,"TOWNNAME":"鹽水區","LI":"歡雅里","LIN":"5鄰","STREET":" ","SECT":" ","MAREA":"歡雅","LANE":" ","ALLEY":" ","HOUSE_NO":"８２之２７號","E_COORD97":172581.35999999999,"N_COORD97":2576703.9700000002,"ADDRESS":"歡雅８２之２７號","OBJECTID":158230},"geometry":{"x":172581.3600000022,"y":2576703.9700000007}},{"attributes":{"ID":158232,"DIS_CODE":0,"TOWNNAME":"鹽水區","LI":"歡雅里","LIN":"5鄰","STREET":" ","SECT":" ","MAREA":"歡雅","LANE":" ","ALLEY":" ","HOUSE_NO":"８２之２８號","E_COORD97":172581.32000000001,"N_COORD97":2576699.7999999998,"ADDRESS":"歡雅８２之２８號","OBJECTID":158231},"geometry":{"x":172581.3200000003,"y":2576699.8000000026}},{"attributes":{"ID":158233,"DIS_CODE":0,"TOWNNAME":"鹽水區","LI":"歡雅里","LIN":"5鄰","STREET":" ","SECT":" ","MAREA":"歡雅","LANE":" ","ALLEY":" ","HOUSE_NO":"８２之２９號","E_COORD97":172581.17999999999,"N_COORD97":2576695.4500000002,"ADDRESS":"歡雅８２之２９號","OBJECTID":158232},"geometry":{"x":172581.1799999997,"y":2576695.4499999993}},{"attributes":{"ID":158234,"DIS_CODE":0,"TOWNNAME":"永康區","LI":"龍潭里","LIN":"44鄰","STREET":"永平街","SECT":" ","MAREA":" ","LANE":" ","ALLEY":" ","HOUSE_NO":"２８０之８號","E_COORD97":174656.59,"N_COORD97":2547031.5499999998,"ADDRESS":"永平街２８０之８號","OBJECTID":158233},"geometry":{"x":174656.59000000078,"y":2547031.5500000007}},{"attributes":{"ID":158235,"DIS_CODE":0,"TOWNNAME":"南化區","LI":"南化里","LIN":"5鄰","STREET":" ","SECT":" ","MAREA":"南化","LANE":" ","ALLEY":" ","HOUSE_NO":"４７之３號","E_COORD97":196166.39000000001,"N_COORD97":2549285.7999999998,"ADDRESS":"南化４７之３號","OBJECTID":158234},"geometry":{"x":196166.3900000006,"y":2549285.8000000026}},{"attributes":{"ID":158236,"DIS_CODE":0,"TOWNNAME":"安南區","LI":"國安里","LIN":"2鄰","STREET":"國安街","SECT":" ","MAREA":" ","LANE":"１５６巷","ALLEY":"８３弄","HOUSE_NO":"１４號","E_COORD97":166633.95000000001,"N_COORD97":2547204.0800000001,"ADDRESS":"國安街１５６巷８３弄１４號","OBJECTID":158235},"geometry":{"x":166633.95000000205,"y":2547204.0800000038}},{"attributes":{"ID":158237,"DIS_CODE":0,"TOWNNAME":"安南區","LI":"國安里","LIN":"2鄰","STREET":"國安街","SECT":" ","MAREA":" ","LANE":"１５６巷","ALLEY":"８３弄","HOUSE_NO":"１５號","E_COORD97":166630.78,"N_COORD97":2547185.1699999999,"ADDRESS":"國安街１５６巷８３弄１５號","OBJECTID":158236},"geometry":{"x":166630.78000000119,"y":2547185.1699999999}},{"attributes":{"ID":158238,"DIS_CODE":0,"TOWNNAME":"安南區","LI":"國安里","LIN":"2鄰","STREET":"國安街","SECT":" ","MAREA":" ","LANE":"１５６巷","ALLEY":"８３弄","HOUSE_NO":"１６號","E_COORD97":166628.26999999999,"N_COORD97":2547202.8799999999,"ADDRESS":"國安街１５６巷８３弄１６號","OBJECTID":158237},"geometry":{"x":166628.27000000048,"y":2547202.879999999}},{"attributes":{"ID":158239,"DIS_CODE":0,"TOWNNAME":"安南區","LI":"國安里","LIN":"2鄰","STREET":"國安街","SECT":" ","MAREA":" ","LANE":"１５６巷","ALLEY":"８３弄","HOUSE_NO":"１７號","E_COORD97":166625.73000000001,"N_COORD97":2547181.0899999999,"ADDRESS":"國安街１５６巷８３弄１７號","OBJECTID":158238},"geometry":{"x":166625.73000000138,"y":2547181.0900000017}},{"attributes":{"ID":158240,"DIS_CODE":0,"TOWNNAME":"安南區","LI":"國安里","LIN":"2鄰","STREET":"國安街","SECT":" ","MAREA":" ","LANE":"１５６巷","ALLEY":"８３弄","HOUSE_NO":"１９號","E_COORD97":166619.85999999999,"N_COORD97":2547182.3999999999,"ADDRESS":"國安街１５６巷８３弄１９號","OBJECTID":158239},"geometry":{"x":166619.86000000127,"y":2547182.4000000022}},{"attributes":{"ID":158241,"DIS_CODE":0,"TOWNNAME":"鹽水區","LI":"歡雅里","LIN":"5鄰","STREET":" ","SECT":" ","MAREA":"歡雅","LANE":" ","ALLEY":" ","HOUSE_NO":"８２之２號","E_COORD97":172544.66,"N_COORD97":2576718.46,"ADDRESS":"歡雅８２之２號","OBJECTID":158240},"geometry":{"x":172544.66000000015,"y":2576718.4600000009}},{"attributes":{"ID":158242,"DIS_CODE":0,"TOWNNAME":"鹽水區","LI":"歡雅里","LIN":"5鄰","STREET":" ","SECT":" ","MAREA":"歡雅","LANE":" ","ALLEY":" ","HOUSE_NO":"８２號之２","E_COORD97":172544.66,"N_COORD97":2576718.46,"ADDRESS":"歡雅８２號之２","OBJECTID":158241},"geometry":{"x":172544.66000000015,"y":2576718.4600000009}},{"attributes":{"ID":158243,"DIS_CODE":0,"TOWNNAME":"安南區","LI":"國安里","LIN":"2鄰","STREET":"國安街","SECT":" ","MAREA":" ","LANE":"１５６巷","ALLEY":"８３弄","HOUSE_NO":"１號","E_COORD97":166670.12,"N_COORD97":2547189.25,"ADDRESS":"國安街１５６巷８３弄１號","OBJECTID":158242},"geometry":{"x":166670.12000000197,"y":2547189.2500000037}},{"attributes":{"ID":158244,"DIS_CODE":0,"TOWNNAME":"安南區","LI":"國安里","LIN":"2鄰","STREET":"國安街","SECT":" ","MAREA":" ","LANE":"１５６巷","ALLEY":"８３弄","HOUSE_NO":"２０號","E_COORD97":166617.51000000001,"N_COORD97":2547200.79,"ADDRESS":"國安街１５６巷８３弄２０號","OBJECTID":158243},"geometry":{"x":166617.50999999978,"y":2547200.7899999991}},{"attributes":{"ID":158245,"DIS_CODE":0,"TOWNNAME":"安南區","LI":"國安里","LIN":"2鄰","STREET":"國安街","SECT":" ","MAREA":" ","LANE":"１５６巷","ALLEY":"８３弄","HOUSE_NO":"２２號","E_COORD97":166611.73000000001,"N_COORD97":2547200,"ADDRESS":"國安街１５６巷８３弄２２號","OBJECTID":158244},"geometry":{"x":166611.73000000045,"y":2547200}},{"attributes":{"ID":158246,"DIS_CODE":0,"TOWNNAME":"安南區","LI":"國安里","LIN":"2鄰","STREET":"國安街","SECT":" ","MAREA":" ","LANE":"１５６巷","ALLEY":"８３弄","HOUSE_NO":"２３號","E_COORD97":166608.53,"N_COORD97":2547180.5299999998,"ADDRESS":"國安街１５６巷８３弄２３號","OBJECTID":158245},"geometry":{"x":166608.53000000119,"y":2547180.5300000012}},{"attributes":{"ID":158247,"DIS_CODE":0,"TOWNNAME":"安南區","LI":"國安里","LIN":"2鄰","STREET":"國安街","SECT":" ","MAREA":" ","LANE":"１５６巷","ALLEY":"８３弄","HOUSE_NO":"２４號","E_COORD97":166606.25,"N_COORD97":2547198.7999999998,"ADDRESS":"國安街１５６巷８３弄２４號","OBJECTID":158246},"geometry":{"x":166606.25000000186,"y":2547198.8000000007}},{"attributes":{"ID":158248,"DIS_CODE":0,"TOWNNAME":"鹽水區","LI":"歡雅里","LIN":"5鄰","STREET":" ","SECT":" ","MAREA":"歡雅","LANE":" ","ALLEY":" ","HOUSE_NO":"８２之３０號","E_COORD97":172580.95999999999,"N_COORD97":2576691.1099999999,"ADDRESS":"歡雅８２之３０號","OBJECTID":158247},"geometry":{"x":172580.96000000089,"y":2576691.1099999994}},{"attributes":{"ID":158249,"DIS_CODE":0,"TOWNNAME":"鹽水區","LI":"歡雅里","LIN":"5鄰","STREET":" ","SECT":" ","MAREA":"歡雅","LANE":" ","ALLEY":" ","HOUSE_NO":"８２號之３０","E_COORD97":172580.95999999999,"N_COORD97":2576691.1099999999,"ADDRESS":"歡雅８２號之３０","OBJECTID":158248},"geometry":{"x":172580.96000000089,"y":2576691.1099999994}},{"attributes":{"ID":158250,"DIS_CODE":0,"TOWNNAME":"鹽水區","LI":"歡雅里","LIN":"5鄰","STREET":" ","SECT":" ","MAREA":"歡雅","LANE":" ","ALLEY":" ","HOUSE_NO":"８２之３號","E_COORD97":172544.53,"N_COORD97":2576714.1000000001,"ADDRESS":"歡雅８２之３號","OBJECTID":158249},"geometry":{"x":172544.53000000212,"y":2576714.1000000015}},{"attributes":{"ID":158251,"DIS_CODE":0,"TOWNNAME":"安南區","LI":"國安里","LIN":"2鄰","STREET":"國安街","SECT":" ","MAREA":" ","LANE":"１５６巷","ALLEY":"８３弄","HOUSE_NO":"２５號","E_COORD97":166603,"N_COORD97":2547177.5800000001,"ADDRESS":"國安街１５６巷８３弄２５號","OBJECTID":158250},"geometry":{"x":166603.00000000186,"y":2547177.5800000019}},{"attributes":{"ID":158252,"DIS_CODE":0,"TOWNNAME":"鹽水區","LI":"歡雅里","LIN":"5鄰","STREET":" ","SECT":" ","MAREA":"歡雅","LANE":" ","ALLEY":" ","HOUSE_NO":"８２之４號","E_COORD97":172544.39999999999,"N_COORD97":2576709.6800000002,"ADDRESS":"歡雅８２之４號","OBJECTID":158251},"geometry":{"x":172544.4000000013,"y":2576709.6800000016}},{"attributes":{"ID":158253,"DIS_CODE":0,"TOWNNAME":"鹽水區","LI":"歡雅里","LIN":"5鄰","STREET":" ","SECT":" ","MAREA":"歡雅","LANE":" ","ALLEY":" ","HOUSE_NO":"８２號之４","E_COORD97":172544.39999999999,"N_COORD97":2576709.6800000002,"ADDRESS":"歡雅８２號之４","OBJECTID":158252},"geometry":{"x":172544.4000000013,"y":2576709.6800000016}},{"attributes":{"ID":158254,"DIS_CODE":0,"TOWNNAME":"鹽水區","LI":"歡雅里","LIN":"5鄰","STREET":" ","SECT":" ","MAREA":"歡雅","LANE":" ","ALLEY":" ","HOUSE_NO":"８２之５號","E_COORD97":172544.29999999999,"N_COORD97":2576705.5299999998,"ADDRESS":"歡雅８２之５號","OBJECTID":158253},"geometry":{"x":172544.30000000075,"y":2576705.5299999993}},{"attributes":{"ID":158255,"DIS_CODE":0,"TOWNNAME":"安南區","LI":"國安里","LIN":"2鄰","STREET":"國安街","SECT":" ","MAREA":" ","LANE":"１５６巷","ALLEY":"８３弄","HOUSE_NO":"２６號","E_COORD97":166600.37,"N_COORD97":2547197.3100000001,"ADDRESS":"國安街１５６巷８３弄２６號","OBJECTID":158254},"geometry":{"x":166600.36999999918,"y":2547197.3100000024}},{"attributes":{"ID":158256,"DIS_CODE":0,"TOWNNAME":"鹽水區","LI":"歡雅里","LIN":"5鄰","STREET":" ","SECT":" ","MAREA":"歡雅","LANE":" ","ALLEY":" ","HOUSE_NO":"８２號之５","E_COORD97":172544.29999999999,"N_COORD97":2576705.5299999998,"ADDRESS":"歡雅８２號之５","OBJECTID":158255},"geometry":{"x":172544.30000000075,"y":2576705.5299999993}},{"attributes":{"ID":158257,"DIS_CODE":0,"TOWNNAME":"鹽水區","LI":"歡雅里","LIN":"5鄰","STREET":" ","SECT":" ","MAREA":"歡雅","LANE":" ","ALLEY":" ","HOUSE_NO":"８２之６號","E_COORD97":172544.35999999999,"N_COORD97":2576701.5299999998,"ADDRESS":"歡雅８２之６號","OBJECTID":158256},"geometry":{"x":172544.36000000127,"y":2576701.5299999993}},{"attributes":{"ID":158258,"DIS_CODE":0,"TOWNNAME":"鹽水區","LI":"歡雅里","LIN":"5鄰","STREET":" ","SECT":" ","MAREA":"歡雅","LANE":" ","ALLEY":" ","HOUSE_NO":"８２號之６","E_COORD97":172544.35999999999,"N_COORD97":2576701.5299999998,"ADDRESS":"歡雅８２號之６","OBJECTID":158257},"geometry":{"x":172544.36000000127,"y":2576701.5299999993}},{"attributes":{"ID":158259,"DIS_CODE":0,"TOWNNAME":"鹽水區","LI":"歡雅里","LIN":"5鄰","STREET":" ","SECT":" ","MAREA":"歡雅","LANE":" ","ALLEY":" ","HOUSE_NO":"８２之７號","E_COORD97":172544.04999999999,"N_COORD97":2576697.2599999998,"ADDRESS":"歡雅８２之７號","OBJECTID":158258},"geometry":{"x":172544.05000000168,"y":2576697.2599999998}},{"attributes":{"ID":158260,"DIS_CODE":0,"TOWNNAME":"鹽水區","LI":"歡雅里","LIN":"5鄰","STREET":" ","SECT":" ","MAREA":"歡雅","LANE":" ","ALLEY":" ","HOUSE_NO":"８２之８號","E_COORD97":172567.38,"N_COORD97":2576721.7200000002,"ADDRESS":"歡雅８２之８號","OBJECTID":158259},"geometry":{"x":172567.38000000175,"y":2576721.7200000025}},{"attributes":{"ID":158261,"DIS_CODE":0,"TOWNNAME":"鹽水區","LI":"歡雅里","LIN":"5鄰","STREET":" ","SECT":" ","MAREA":"歡雅","LANE":" ","ALLEY":" ","HOUSE_NO":"８２之９號","E_COORD97":172567.98000000001,"N_COORD97":2576717.3300000001,"ADDRESS":"歡雅８２之９號","OBJECTID":158260},"geometry":{"x":172567.98000000138,"y":2576717.3300000001}},{"attributes":{"ID":158262,"DIS_CODE":0,"TOWNNAME":"鹽水區","LI":"歡雅里","LIN":"5鄰","STREET":" ","SECT":" ","MAREA":"歡雅","LANE":" ","ALLEY":" ","HOUSE_NO":"８２號","E_COORD97":172605.95999999999,"N_COORD97":2576615.8700000001,"ADDRESS":"歡雅８２號","OBJECTID":158261},"geometry":{"x":172605.96000000089,"y":2576615.8700000029}},{"attributes":{"ID":158263,"DIS_CODE":0,"TOWNNAME":"鹽水區","LI":"歡雅里","LIN":"5鄰","STREET":" ","SECT":" ","MAREA":"歡雅","LANE":" ","ALLEY":" ","HOUSE_NO":"８３號","E_COORD97":172631.67999999999,"N_COORD97":2576613.3100000001,"ADDRESS":"歡雅８３號","OBJECTID":158262},"geometry":{"x":172631.68000000063,"y":2576613.3100000005}},{"attributes":{"ID":158264,"DIS_CODE":0,"TOWNNAME":"仁德區","LI":"仁義里","LIN":"44鄰","STREET":"仁義路","SECT":" ","MAREA":" ","LANE":" ","ALLEY":" ","HOUSE_NO":"４２號","E_COORD97":173490.64000000001,"N_COORD97":2540942.52,"ADDRESS":"仁義路４２號","OBJECTID":158263},"geometry":{"x":173490.63999999966,"y":2540942.5200000014}},{"attributes":{"ID":158265,"DIS_CODE":0,"TOWNNAME":"仁德區","LI":"仁義里","LIN":"44鄰","STREET":"仁義路","SECT":" ","MAREA":" ","LANE":" ","ALLEY":" ","HOUSE_NO":"６號","E_COORD97":173410.10999999999,"N_COORD97":2540936.52,"ADDRESS":"仁義路６號","OBJECTID":158264},"geometry":{"x":173410.11000000034,"y":2540936.5200000014}},{"attributes":{"ID":158266,"DIS_CODE":0,"TOWNNAME":"仁德區","LI":"仁義里","LIN":"44鄰","STREET":"仁義路","SECT":" ","MAREA":" ","LANE":" ","ALLEY":" ","HOUSE_NO":"２２號","E_COORD97":173445.87,"N_COORD97":2540939.02,"ADDRESS":"仁義路２２號","OBJECTID":158265},"geometry":{"x":173445.87000000104,"y":2540939.0200000014}},{"attributes":{"ID":158267,"DIS_CODE":0,"TOWNNAME":"安南區","LI":"國安里","LIN":"2鄰","STREET":"國安街","SECT":" ","MAREA":" ","LANE":"１５６巷","ALLEY":"８３弄","HOUSE_NO":"２號","E_COORD97":166667.39999999999,"N_COORD97":2547210.8500000001,"ADDRESS":"國安街１５６巷８３弄２號","OBJECTID":158266},"geometry":{"x":166667.4000000013,"y":2547210.8499999996}},{"attributes":{"ID":158268,"DIS_CODE":0,"TOWNNAME":"安南區","LI":"國安里","LIN":"2鄰","STREET":"國安街","SECT":" ","MAREA":" ","LANE":"１５６巷","ALLEY":"８３弄","HOUSE_NO":"４號","E_COORD97":166662.22,"N_COORD97":2547209.8500000001,"ADDRESS":"國安街１５６巷８３弄４號","OBJECTID":158267},"geometry":{"x":166662.2200000016,"y":2547209.8500000015}},{"attributes":{"ID":158269,"DIS_CODE":0,"TOWNNAME":"左鎮區","LI":"澄山里","LIN":"5鄰","STREET":" ","SECT":" ","MAREA":"澄山","LANE":" ","ALLEY":" ","HOUSE_NO":"５２號","E_COORD97":188391.09,"N_COORD97":2545774.25,"ADDRESS":"澄山５２號","OBJECTID":158268},"geometry":{"x":188391.09000000078,"y":2545774.25}},{"attributes":{"ID":158270,"DIS_CODE":0,"TOWNNAME":"安南區","LI":"國安里","LIN":"2鄰","STREET":"國安街","SECT":" ","MAREA":" ","LANE":"１５６巷","ALLEY":"８３弄","HOUSE_NO":"５號","E_COORD97":166659.69,"N_COORD97":2547188.52,"ADDRESS":"國安街１５６巷８３弄５號","OBJECTID":158269},"geometry":{"x":166659.69000000227,"y":2547188.5200000014}},{"attributes":{"ID":158271,"DIS_CODE":0,"TOWNNAME":"安南區","LI":"國安里","LIN":"2鄰","STREET":"國安街","SECT":" ","MAREA":" ","LANE":"１５６巷","ALLEY":"８３弄","HOUSE_NO":"６號","E_COORD97":166656.44,"N_COORD97":2547208.6600000001,"ADDRESS":"國安街１５６巷８３弄６號","OBJECTID":158270},"geometry":{"x":166656.44000000134,"y":2547208.6600000001}},{"attributes":{"ID":158272,"DIS_CODE":0,"TOWNNAME":"安南區","LI":"國安里","LIN":"2鄰","STREET":"國安街","SECT":" ","MAREA":" ","LANE":"１５６巷","ALLEY":"８３弄","HOUSE_NO":"８號","E_COORD97":166650.85999999999,"N_COORD97":2547207.6600000001,"ADDRESS":"國安街１５６巷８３弄８號","OBJECTID":158271},"geometry":{"x":166650.86000000034,"y":2547207.660000002}},{"attributes":{"ID":158273,"DIS_CODE":0,"TOWNNAME":"安南區","LI":"國安里","LIN":"2鄰","STREET":"國安街","SECT":" ","MAREA":" ","LANE":"１５６巷","ALLEY":"８３弄","HOUSE_NO":"９號","E_COORD97":166647.70999999999,"N_COORD97":2547185.8300000001,"ADDRESS":"國安街１５６巷８３弄９號","OBJECTID":158272},"geometry":{"x":166647.71000000089,"y":2547185.8300000019}},{"attributes":{"ID":158274,"DIS_CODE":0,"TOWNNAME":"鹽水區","LI":"歡雅里","LIN":"5鄰","STREET":" ","SECT":" ","MAREA":"歡雅","LANE":" ","ALLEY":" ","HOUSE_NO":"８４號","E_COORD97":172666.10000000001,"N_COORD97":2576628.4700000002,"ADDRESS":"歡雅８４號","OBJECTID":158273},"geometry":{"x":172666.10000000056,"y":2576628.4700000025}},{"attributes":{"ID":158275,"DIS_CODE":0,"TOWNNAME":"永康區","LI":"南灣里","LIN":"5鄰","STREET":"南興路","SECT":" ","MAREA":" ","LANE":"１１２巷","ALLEY":"４０弄","HOUSE_NO":"６號","E_COORD97":174560.35000000001,"N_COORD97":2544500.7999999998,"ADDRESS":"南興路１１２巷４０弄６號","OBJECTID":158274},"geometry":{"x":174560.34999999963,"y":2544500.7999999989}},{"attributes":{"ID":158276,"DIS_CODE":0,"TOWNNAME":"鹽水區","LI":"汫水里","LIN":"5鄰","STREET":" ","SECT":" ","MAREA":"汫水港","LANE":" ","ALLEY":" ","HOUSE_NO":"７２號之１","E_COORD97":175498.62,"N_COORD97":2583025.29,"ADDRESS":"汫水港７２號之１","OBJECTID":158275},"geometry":{"x":175498.62000000197,"y":2583025.290000001}},{"attributes":{"ID":158277,"DIS_CODE":0,"TOWNNAME":"鹽水區","LI":"汫水里","LIN":"5鄰","STREET":" ","SECT":" ","MAREA":"汫水港","LANE":" ","ALLEY":" ","HOUSE_NO":"７２號","E_COORD97":175518.91,"N_COORD97":2583026.3500000001,"ADDRESS":"汫水港７２號","OBJECTID":158276},"geometry":{"x":175518.91000000108,"y":2583026.3499999996}},{"attributes":{"ID":158278,"DIS_CODE":0,"TOWNNAME":"鹽水區","LI":"汫水里","LIN":"5鄰","STREET":" ","SECT":" ","MAREA":"汫水港","LANE":" ","ALLEY":" ","HOUSE_NO":"７３之１號","E_COORD97":175556.26000000001,"N_COORD97":2583021.1200000001,"ADDRESS":"汫水港７３之１號","OBJECTID":158277},"geometry":{"x":175556.25999999978,"y":2583021.1200000029}},{"attributes":{"ID":158279,"DIS_CODE":0,"TOWNNAME":"鹽水區","LI":"汫水里","LIN":"5鄰","STREET":" ","SECT":" ","MAREA":"汫水港","LANE":" ","ALLEY":" ","HOUSE_NO":"７５號","E_COORD97":175590.79000000001,"N_COORD97":2583053.02,"ADDRESS":"汫水港７５號","OBJECTID":158278},"geometry":{"x":175590.79000000097,"y":2583053.0199999996}},{"attributes":{"ID":158280,"DIS_CODE":0,"TOWNNAME":"鹽水區","LI":"汫水里","LIN":"5鄰","STREET":" ","SECT":" ","MAREA":"汫水港","LANE":" ","ALLEY":" ","HOUSE_NO":"７６號","E_COORD97":175588.73000000001,"N_COORD97":2583066.2999999998,"ADDRESS":"汫水港７６號","OBJECTID":158279},"geometry":{"x":175588.73000000138,"y":2583066.3000000007}},{"attributes":{"ID":158281,"DIS_CODE":0,"TOWNNAME":"鹽水區","LI":"汫水里","LIN":"5鄰","STREET":" ","SECT":" ","MAREA":"汫水港","LANE":" ","ALLEY":" ","HOUSE_NO":"７８號","E_COORD97":175568.87,"N_COORD97":2583052.8999999999,"ADDRESS":"汫水港７８號","OBJECTID":158280},"geometry":{"x":175568.87000000104,"y":2583052.9000000022}},{"attributes":{"ID":158282,"DIS_CODE":0,"TOWNNAME":"鹽水區","LI":"汫水里","LIN":"5鄰","STREET":" ","SECT":" ","MAREA":"汫水港","LANE":" ","ALLEY":" ","HOUSE_NO":"７９號之１","E_COORD97":175535.39999999999,"N_COORD97":2583050.5499999998,"ADDRESS":"汫水港７９號之１","OBJECTID":158281},"geometry":{"x":175535.40000000037,"y":2583050.5500000007}},{"attributes":{"ID":158283,"DIS_CODE":0,"TOWNNAME":"鹽水區","LI":"汫水里","LIN":"5鄰","STREET":" ","SECT":" ","MAREA":"汫水港","LANE":" ","ALLEY":" ","HOUSE_NO":"７９號之２","E_COORD97":175540.75,"N_COORD97":2583049.6200000001,"ADDRESS":"汫水港７９號之２","OBJECTID":158282},"geometry":{"x":175540.75000000093,"y":2583049.620000001}},{"attributes":{"ID":158284,"DIS_CODE":0,"TOWNNAME":"永康區","LI":"尚頂里","LIN":"28鄰","STREET":"南台街","SECT":" ","MAREA":" ","LANE":"５４巷","ALLEY":"４１弄","HOUSE_NO":"２號","E_COORD97":170328.81,"N_COORD97":2547091.6899999999,"ADDRESS":"南台街５４巷４１弄２號","OBJECTID":158283},"geometry":{"x":170328.81000000052,"y":2547091.6900000013}},{"attributes":{"ID":158285,"DIS_CODE":0,"TOWNNAME":"鹽水區","LI":"汫水里","LIN":"5鄰","STREET":" ","SECT":" ","MAREA":"汫水港","LANE":" ","ALLEY":" ","HOUSE_NO":"７９號","E_COORD97":175549.17999999999,"N_COORD97":2583054.02,"ADDRESS":"汫水港７９號","OBJECTID":158284},"geometry":{"x":175549.18000000063,"y":2583054.0200000014}},{"attributes":{"ID":158286,"DIS_CODE":0,"TOWNNAME":"永康區","LI":"南灣里","LIN":"41鄰","STREET":"南興路","SECT":" ","MAREA":" ","LANE":"１１２巷","ALLEY":"１０４弄","HOUSE_NO":"１２號","E_COORD97":174687.10000000001,"N_COORD97":2544530.8700000001,"ADDRESS":"南興路１１２巷１０４弄１２號","OBJECTID":158285},"geometry":{"x":174687.09999999963,"y":2544530.870000001}},{"attributes":{"ID":158287,"DIS_CODE":0,"TOWNNAME":"永康區","LI":"蔦松里","LIN":"2鄰","STREET":"中正北路","SECT":" ","MAREA":" ","LANE":"５２１巷","ALLEY":"８弄","HOUSE_NO":"２６號","E_COORD97":173877.57000000001,"N_COORD97":2549215.5,"ADDRESS":"中正北路５２１巷８弄２６號","OBJECTID":158286},"geometry":{"x":173877.57000000123,"y":2549215.5000000019}},{"attributes":{"ID":158288,"DIS_CODE":0,"TOWNNAME":"永康區","LI":"蔦松里","LIN":"2鄰","STREET":"中正北路","SECT":" ","MAREA":" ","LANE":"５２１巷","ALLEY":"８弄","HOUSE_NO":"１８號","E_COORD97":173866.07000000001,"N_COORD97":2549209.5,"ADDRESS":"中正北路５２１巷８弄１８號","OBJECTID":158287},"geometry":{"x":173866.0700000003,"y":2549209.5000000019}},{"attributes":{"ID":158289,"DIS_CODE":0,"TOWNNAME":"鹽水區","LI":"汫水里","LIN":"5鄰","STREET":" ","SECT":" ","MAREA":"汫水港","LANE":" ","ALLEY":" ","HOUSE_NO":"８０號","E_COORD97":175487.85999999999,"N_COORD97":2583049.4300000002,"ADDRESS":"汫水港８０號","OBJECTID":158288},"geometry":{"x":175487.86000000034,"y":2583049.4299999997}},{"attributes":{"ID":158290,"DIS_CODE":0,"TOWNNAME":"鹽水區","LI":"汫水里","LIN":"5鄰","STREET":" ","SECT":" ","MAREA":"汫水港","LANE":" ","ALLEY":" ","HOUSE_NO":"８１號","E_COORD97":175503.39000000001,"N_COORD97":2583065.71,"ADDRESS":"汫水港８１號","OBJECTID":158289},"geometry":{"x":175503.3900000006,"y":2583065.7100000009}},{"attributes":{"ID":158291,"DIS_CODE":0,"TOWNNAME":"永康區","LI":"蔦松里","LIN":"2鄰","STREET":"中正北路","SECT":" ","MAREA":" ","LANE":"５２１巷","ALLEY":"８弄","HOUSE_NO":"１２號","E_COORD97":173858.98000000001,"N_COORD97":2549205.5,"ADDRESS":"中正北路５２１巷８弄１２號","OBJECTID":158290},"geometry":{"x":173858.98000000231,"y":2549205.5000000019}},{"attributes":{"ID":158292,"DIS_CODE":0,"TOWNNAME":"鹽水區","LI":"下中里","LIN":"5鄰","STREET":" ","SECT":" ","MAREA":"下中","LANE":" ","ALLEY":" ","HOUSE_NO":"２４號","E_COORD97":172341.07999999999,"N_COORD97":2580001.7200000002,"ADDRESS":"下中２４號","OBJECTID":158291},"geometry":{"x":172341.08000000101,"y":2580001.7200000007}},{"attributes":{"ID":158293,"DIS_CODE":0,"TOWNNAME":"永康區","LI":"東橋里","LIN":"6鄰","STREET":"中山南路","SECT":" ","MAREA":" ","LANE":"１９５巷","ALLEY":"３０弄","HOUSE_NO":"８號","E_COORD97":171498.82000000001,"N_COORD97":2546365.23,"ADDRESS":"中山南路１９５巷３０弄８號","OBJECTID":158292},"geometry":{"x":171498.82000000123,"y":2546365.2300000004}},{"attributes":{"ID":158294,"DIS_CODE":0,"TOWNNAME":"南化區","LI":"南化里","LIN":"5鄰","STREET":" ","SECT":" ","MAREA":"南化","LANE":" ","ALLEY":" ","HOUSE_NO":"６５號之１","E_COORD97":196347.01999999999,"N_COORD97":2549155.7999999998,"ADDRESS":"南化６５號之１","OBJECTID":158293},"geometry":{"x":196347.01999999955,"y":2549155.7999999989}},{"attributes":{"ID":158295,"DIS_CODE":0,"TOWNNAME":"永康區","LI":"東橋里","LIN":"24鄰","STREET":"中正路","SECT":" ","MAREA":" ","LANE":"２１７巷","ALLEY":"３弄","HOUSE_NO":"５８號","E_COORD97":172837.76000000001,"N_COORD97":2547853.4900000002,"ADDRESS":"中正路２１７巷３弄５８號","OBJECTID":158294},"geometry":{"x":172837.76000000071,"y":2547853.4900000021}},{"attributes":{"ID":158296,"DIS_CODE":0,"TOWNNAME":"永康區","LI":"神洲里","LIN":"2鄰","STREET":"忠孝路","SECT":" ","MAREA":" ","LANE":"６巷","ALLEY":"１１弄","HOUSE_NO":"１４號","E_COORD97":172150.45999999999,"N_COORD97":2544618.7400000002,"ADDRESS":"忠孝路６巷１１弄１４號","OBJECTID":158295},"geometry":{"x":172150.46000000089,"y":2544618.7400000002}},{"attributes":{"ID":158297,"DIS_CODE":0,"TOWNNAME":"南化區","LI":"東和里","LIN":"5鄰","STREET":" ","SECT":" ","MAREA":"東和","LANE":" ","ALLEY":" ","HOUSE_NO":"４２號之２","E_COORD97":195550.84,"N_COORD97":2544934.7999999998,"ADDRESS":"東和４２號之２","OBJECTID":158296},"geometry":{"x":195550.84000000171,"y":2544934.7999999989}},{"attributes":{"ID":158298,"DIS_CODE":0,"TOWNNAME":"南化區","LI":"南化里","LIN":"5鄰","STREET":" ","SECT":" ","MAREA":"南化","LANE":" ","ALLEY":" ","HOUSE_NO":"６８號","E_COORD97":196353.19,"N_COORD97":2549145.75,"ADDRESS":"南化６８號","OBJECTID":158297},"geometry":{"x":196353.19000000134,"y":2549145.7500000019}},{"attributes":{"ID":158299,"DIS_CODE":0,"TOWNNAME":"南化區","LI":"南化里","LIN":"5鄰","STREET":" ","SECT":" ","MAREA":"南化","LANE":" ","ALLEY":" ","HOUSE_NO":"４７號之９","E_COORD97":196190.20999999999,"N_COORD97":2549277.7999999998,"ADDRESS":"南化４７號之９","OBJECTID":158298},"geometry":{"x":196190.20999999996,"y":2549277.8000000007}},{"attributes":{"ID":158300,"DIS_CODE":0,"TOWNNAME":"中西區","LI":"仙草里","LIN":"8鄰","STREET":"永福路","SECT":"一段","MAREA":" ","LANE":" ","ALLEY":" ","HOUSE_NO":"１１５號底一層之２","E_COORD97":167977.14999999999,"N_COORD97":2542776.2999999998,"ADDRESS":"永福路一段１１５號底一層之２","OBJECTID":158299},"geometry":{"x":167977.15000000224,"y":2542776.3000000026}},{"attributes":{"ID":158301,"DIS_CODE":0,"TOWNNAME":"中西區","LI":"仙草里","LIN":"8鄰","STREET":"永福路","SECT":"一段","MAREA":" ","LANE":" ","ALLEY":" ","HOUSE_NO":"７７號","E_COORD97":167976.97,"N_COORD97":2542680.1000000001,"ADDRESS":"永福路一段７７號","OBJECTID":158300},"geometry":{"x":167976.96999999974,"y":2542680.0999999996}},{"attributes":{"ID":158302,"DIS_CODE":0,"TOWNNAME":"永康區","LI":"龍潭里","LIN":"2鄰","STREET":"龍潭街","SECT":" ","MAREA":" ","LANE":"８９巷","ALLEY":"１６弄","HOUSE_NO":"１５號","E_COORD97":174752.16,"N_COORD97":2548114.3399999999,"ADDRESS":"龍潭街８９巷１６弄１５號","OBJECTID":158301},"geometry":{"x":174752.16000000015,"y":2548114.3400000017}},{"attributes":{"ID":158303,"DIS_CODE":0,"TOWNNAME":"中西區","LI":"郡王里","LIN":"1鄰","STREET":"五妃街","SECT":" ","MAREA":" ","LANE":" ","ALLEY":" ","HOUSE_NO":"１４９號","E_COORD97":168722.01999999999,"N_COORD97":2542562.5299999998,"ADDRESS":"五妃街１４９號","OBJECTID":158302},"geometry":{"x":168722.02000000048,"y":2542562.5300000012}},{"attributes":{"ID":158304,"DIS_CODE":0,"TOWNNAME":"南化區","LI":"小崙里","LIN":"5鄰","STREET":" ","SECT":" ","MAREA":"小崙","LANE":" ","ALLEY":" ","HOUSE_NO":"５１之７號","E_COORD97":197148.89000000001,"N_COORD97":2549504.8900000001,"ADDRESS":"小崙５１之７號","OBJECTID":158303},"geometry":{"x":197148.89000000153,"y":2549504.8900000025}},{"attributes":{"ID":158305,"DIS_CODE":0,"TOWNNAME":"安南區","LI":"海南里","LIN":"2鄰","STREET":"府安路","SECT":"六段","MAREA":" ","LANE":"１０３巷","ALLEY":"９９弄","HOUSE_NO":"１７號","E_COORD97":166617.42000000001,"N_COORD97":2546721.8599999999,"ADDRESS":"府安路六段１０３巷９９弄１７號","OBJECTID":158304},"geometry":{"x":166617.42000000086,"y":2546721.8599999994}},{"attributes":{"ID":158306,"DIS_CODE":0,"TOWNNAME":"安南區","LI":"城東里","LIN":"2鄰","STREET":"城北路","SECT":" ","MAREA":" ","LANE":"２３４巷","ALLEY":"２８弄","HOUSE_NO":"１１號","E_COORD97":161068.82999999999,"N_COORD97":2551841.9199999999,"ADDRESS":"城北路２３４巷２８弄１１號","OBJECTID":158305},"geometry":{"x":161068.83000000007,"y":2551841.9199999999}},{"attributes":{"ID":158307,"DIS_CODE":0,"TOWNNAME":"南化區","LI":"北寮里","LIN":"5鄰","STREET":" ","SECT":" ","MAREA":"北寮","LANE":" ","ALLEY":" ","HOUSE_NO":"６０之９號","E_COORD97":197511.73000000001,"N_COORD97":2553662.25,"ADDRESS":"北寮６０之９號","OBJECTID":158306},"geometry":{"x":197511.73000000045,"y":2553662.2500000019}},{"attributes":{"ID":158308,"DIS_CODE":0,"TOWNNAME":"南化區","LI":"南化里","LIN":"5鄰","STREET":" ","SECT":" ","MAREA":"南化","LANE":" ","ALLEY":" ","HOUSE_NO":"４７之６號","E_COORD97":196177.60000000001,"N_COORD97":2549279.8399999999,"ADDRESS":"南化４７之６號","OBJECTID":158307},"geometry":{"x":196177.59999999963,"y":2549279.8399999999}},{"attributes":{"ID":158309,"DIS_CODE":0,"TOWNNAME":"左鎮區","LI":"榮和里","LIN":"5鄰","STREET":" ","SECT":" ","MAREA":"菜寮","LANE":" ","ALLEY":" ","HOUSE_NO":"４５號","E_COORD97":187017.04000000001,"N_COORD97":2550915.25,"ADDRESS":"菜寮４５號","OBJECTID":158308},"geometry":{"x":187017.04000000004,"y":2550915.2500000037}},{"attributes":{"ID":158310,"DIS_CODE":0,"TOWNNAME":"左鎮區","LI":"榮和里","LIN":"5鄰","STREET":" ","SECT":" ","MAREA":"菜寮","LANE":" ","ALLEY":" ","HOUSE_NO":"４７號","E_COORD97":187056.84,"N_COORD97":2550877.25,"ADDRESS":"菜寮４７號","OBJECTID":158309},"geometry":{"x":187056.84000000078,"y":2550877.25}},{"attributes":{"ID":158311,"DIS_CODE":0,"TOWNNAME":"安南區","LI":"城東里","LIN":"2鄰","STREET":"城北路","SECT":" ","MAREA":" ","LANE":"２３４巷","ALLEY":"２８弄","HOUSE_NO":"１３號","E_COORD97":161067.64999999999,"N_COORD97":2551837.3999999999,"ADDRESS":"城北路２３４巷２８弄１３號","OBJECTID":158310},"geometry":{"x":161067.6500000013,"y":2551837.4000000022}},{"attributes":{"ID":158312,"DIS_CODE":0,"TOWNNAME":"安南區","LI":"城東里","LIN":"2鄰","STREET":"城北路","SECT":" ","MAREA":" ","LANE":"２３４巷","ALLEY":"２８弄","HOUSE_NO":"３號","E_COORD97":161064.39999999999,"N_COORD97":2551859.2000000002,"ADDRESS":"城北路２３４巷２８弄３號","OBJECTID":158311},"geometry":{"x":161064.4000000013,"y":2551859.1999999993}},{"attributes":{"ID":158313,"DIS_CODE":0,"TOWNNAME":"左鎮區","LI":"左鎮里","LIN":"5鄰","STREET":" ","SECT":" ","MAREA":"左鎮","LANE":" ","ALLEY":" ","HOUSE_NO":"３８號","E_COORD97":189384.17000000001,"N_COORD97":2549506.25,"ADDRESS":"左鎮３８號","OBJECTID":158312},"geometry":{"x":189384.16999999993,"y":2549506.2500000019}},{"attributes":{"ID":158314,"DIS_CODE":0,"TOWNNAME":"安南區","LI":"城東里","LIN":"2鄰","STREET":"城北路","SECT":" ","MAREA":" ","LANE":"２３４巷","ALLEY":"２８弄","HOUSE_NO":"５號","E_COORD97":161064.5,"N_COORD97":2551854.8199999998,"ADDRESS":"城北路２３４巷２８弄５號","OBJECTID":158313},"geometry":{"x":161064.5,"y":2551854.8200000022}},{"attributes":{"ID":158315,"DIS_CODE":0,"TOWNNAME":"安南區","LI":"城東里","LIN":"2鄰","STREET":"城北路","SECT":" ","MAREA":" ","LANE":"２３４巷","ALLEY":"２８弄","HOUSE_NO":"７號","E_COORD97":161065.28,"N_COORD97":2551850.3900000001,"ADDRESS":"城北路２３４巷２８弄７號","OBJECTID":158314},"geometry":{"x":161065.28000000119,"y":2551850.3899999987}},{"attributes":{"ID":158316,"DIS_CODE":0,"TOWNNAME":"左鎮區","LI":"岡林里","LIN":"5鄰","STREET":" ","SECT":" ","MAREA":"岡林","LANE":" ","ALLEY":" ","HOUSE_NO":"５２號","E_COORD97":190872.45999999999,"N_COORD97":2545153.25,"ADDRESS":"岡林５２號","OBJECTID":158315},"geometry":{"x":190872.45999999996,"y":2545153.25}},{"attributes":{"ID":158317,"DIS_CODE":0,"TOWNNAME":"左鎮區","LI":"左鎮里","LIN":"5鄰","STREET":" ","SECT":" ","MAREA":"左鎮","LANE":" ","ALLEY":" ","HOUSE_NO":"４１號之２","E_COORD97":189428.73999999999,"N_COORD97":2549549.2999999998,"ADDRESS":"左鎮４１號之２","OBJECTID":158316},"geometry":{"x":189428.74000000022,"y":2549549.3000000045}},{"attributes":{"ID":158318,"DIS_CODE":0,"TOWNNAME":"左鎮區","LI":"內庄里","LIN":"5鄰","STREET":" ","SECT":" ","MAREA":"內庄","LANE":" ","ALLEY":" ","HOUSE_NO":"３９號","E_COORD97":190831.32999999999,"N_COORD97":2548801.25,"ADDRESS":"內庄３９號","OBJECTID":158317},"geometry":{"x":190831.33000000007,"y":2548801.2500000019}},{"attributes":{"ID":158319,"DIS_CODE":0,"TOWNNAME":"左鎮區","LI":"光和里","LIN":"5鄰","STREET":" ","SECT":" ","MAREA":"光和","LANE":" ","ALLEY":" ","HOUSE_NO":"５３號","E_COORD97":186558.04000000001,"N_COORD97":2551447.25,"ADDRESS":"光和５３號","OBJECTID":158318},"geometry":{"x":186558.04000000004,"y":2551447.2499999981}},{"attributes":{"ID":158320,"DIS_CODE":0,"TOWNNAME":"左鎮區","LI":"光和里","LIN":"5鄰","STREET":" ","SECT":" ","MAREA":"光和","LANE":" ","ALLEY":" ","HOUSE_NO":"５６號之１","E_COORD97":186603.98000000001,"N_COORD97":2551435.2999999998,"ADDRESS":"光和５６號之１","OBJECTID":158319},"geometry":{"x":186603.98000000138,"y":2551435.3000000026}},{"attributes":{"ID":158321,"DIS_CODE":0,"TOWNNAME":"左鎮區","LI":"草山里","LIN":"5鄰","STREET":" ","SECT":" ","MAREA":"草山","LANE":" ","ALLEY":" ","HOUSE_NO":"６５號","E_COORD97":192154.54000000001,"N_COORD97":2543135.25,"ADDRESS":"草山６５號","OBJECTID":158320},"geometry":{"x":192154.54000000097,"y":2543135.2500000019}},{"attributes":{"ID":158322,"DIS_CODE":0,"TOWNNAME":"安南區","LI":"城東里","LIN":"2鄰","STREET":"城北路","SECT":" ","MAREA":" ","LANE":"２３４巷","ALLEY":"２８弄","HOUSE_NO":"９號","E_COORD97":161066.47,"N_COORD97":2551846.5499999998,"ADDRESS":"城北路２３４巷２８弄９號","OBJECTID":158321},"geometry":{"x":161066.47000000067,"y":2551846.5500000045}},{"attributes":{"ID":158323,"DIS_CODE":0,"TOWNNAME":"永康區","LI":"東橋里","LIN":"26鄰","STREET":"中正路","SECT":" ","MAREA":" ","LANE":"２７９巷","ALLEY":"２弄","HOUSE_NO":"６號","E_COORD97":172707.76999999999,"N_COORD97":2548006.75,"ADDRESS":"中正路２７９巷２弄６號","OBJECTID":158322},"geometry":{"x":172707.76999999955,"y":2548006.7500000019}},{"attributes":{"ID":158324,"DIS_CODE":0,"TOWNNAME":"左鎮區","LI":"左鎮里","LIN":"5鄰","STREET":" ","SECT":" ","MAREA":"左鎮","LANE":" ","ALLEY":" ","HOUSE_NO":"４３號之１","E_COORD97":189404.39999999999,"N_COORD97":2549552.2999999998,"ADDRESS":"左鎮４３號之１","OBJECTID":158323},"geometry":{"x":189404.4000000013,"y":2549552.3000000007}},{"attributes":{"ID":158325,"DIS_CODE":0,"TOWNNAME":"左鎮區","LI":"左鎮里","LIN":"5鄰","STREET":" ","SECT":" ","MAREA":"左鎮","LANE":" ","ALLEY":" ","HOUSE_NO":"４４號","E_COORD97":189375.26999999999,"N_COORD97":2549554.25,"ADDRESS":"左鎮４４號","OBJECTID":158324},"geometry":{"x":189375.26999999955,"y":2549554.25}},{"attributes":{"ID":158326,"DIS_CODE":0,"TOWNNAME":"安南區","LI":"城東里","LIN":"2鄰","STREET":"城北路","SECT":" ","MAREA":" ","LANE":"２３４巷","ALLEY":"２８弄","HOUSE_NO":"１５號","E_COORD97":161065.09,"N_COORD97":2551832.9399999999,"ADDRESS":"城北路２３４巷２８弄１５號","OBJECTID":158325},"geometry":{"x":161065.08999999985,"y":2551832.9400000013}},{"attributes":{"ID":158327,"DIS_CODE":0,"TOWNNAME":"左鎮區","LI":"光和里","LIN":"5鄰","STREET":" ","SECT":" ","MAREA":"光和","LANE":" ","ALLEY":" ","HOUSE_NO":"６０號","E_COORD97":186410.44,"N_COORD97":2551272.25,"ADDRESS":"光和６０號","OBJECTID":158326},"geometry":{"x":186410.44000000227,"y":2551272.2500000019}},{"attributes":{"ID":158328,"DIS_CODE":0,"TOWNNAME":"左鎮區","LI":"睦光里","LIN":"5鄰","STREET":" ","SECT":" ","MAREA":"睦光","LANE":" ","ALLEY":" ","HOUSE_NO":"５７號","E_COORD97":190413.14000000001,"N_COORD97":2550031.25,"ADDRESS":"睦光５７號","OBJECTID":158327},"geometry":{"x":190413.13999999966,"y":2550031.2500000019}},{"attributes":{"ID":158329,"DIS_CODE":0,"TOWNNAME":"安南區","LI":"城東里","LIN":"2鄰","STREET":"城北路","SECT":" ","MAREA":" ","LANE":"２３４巷","ALLEY":"２８弄","HOUSE_NO":"１７號","E_COORD97":161065.75,"N_COORD97":2551826.1499999999,"ADDRESS":"城北路２３４巷２８弄１７號","OBJECTID":158328},"geometry":{"x":161065.75,"y":2551826.1500000022}},{"attributes":{"ID":158330,"DIS_CODE":0,"TOWNNAME":"左鎮區","LI":"睦光里","LIN":"5鄰","STREET":" ","SECT":" ","MAREA":"睦光","LANE":" ","ALLEY":" ","HOUSE_NO":"５０號之８","E_COORD97":190445.92000000001,"N_COORD97":2550140.2999999998,"ADDRESS":"睦光５０號之８","OBJECTID":158329},"geometry":{"x":190445.91999999993,"y":2550140.3000000026}},{"attributes":{"ID":158331,"DIS_CODE":0,"TOWNNAME":"左鎮區","LI":"二寮里","LIN":"5鄰","STREET":" ","SECT":" ","MAREA":"二寮","LANE":" ","ALLEY":" ","HOUSE_NO":"４４號","E_COORD97":188926.84,"N_COORD97":2543717.25,"ADDRESS":"二寮４４號","OBJECTID":158330},"geometry":{"x":188926.84000000078,"y":2543717.2499999981}},{"attributes":{"ID":158332,"DIS_CODE":0,"TOWNNAME":"左鎮區","LI":"睦光里","LIN":"5鄰","STREET":" ","SECT":" ","MAREA":"睦光","LANE":" ","ALLEY":" ","HOUSE_NO":"５３號之１","E_COORD97":190480.17999999999,"N_COORD97":2550086.2999999998,"ADDRESS":"睦光５３號之１","OBJECTID":158331},"geometry":{"x":190480.18000000063,"y":2550086.3000000026}},{"attributes":{"ID":158333,"DIS_CODE":0,"TOWNNAME":"左鎮區","LI":"草山里","LIN":"5鄰","STREET":" ","SECT":" ","MAREA":"草山","LANE":" ","ALLEY":" ","HOUSE_NO":"６３號","E_COORD97":192188.44,"N_COORD97":2543158.25,"ADDRESS":"草山６３號","OBJECTID":158332},"geometry":{"x":192188.44000000041,"y":2543158.2500000037}},{"attributes":{"ID":158334,"DIS_CODE":0,"TOWNNAME":"安南區","LI":"城東里","LIN":"2鄰","STREET":"城北路","SECT":" ","MAREA":" ","LANE":"２３４巷","ALLEY":"２８弄","HOUSE_NO":"１９號","E_COORD97":161064.37,"N_COORD97":2551817.0899999999,"ADDRESS":"城北路２３４巷２８弄１９號","OBJECTID":158333},"geometry":{"x":161064.37000000104,"y":2551817.0899999999}},{"attributes":{"ID":158335,"DIS_CODE":0,"TOWNNAME":"安南區","LI":"州南里","LIN":"2鄰","STREET":"安和路","SECT":"四段","MAREA":" ","LANE":"５３３巷","ALLEY":"６５弄","HOUSE_NO":"５１號","E_COORD97":169822.29999999999,"N_COORD97":2551149.3500000001,"ADDRESS":"安和路四段５３３巷６５弄５１號","OBJECTID":158334},"geometry":{"x":169822.30000000075,"y":2551149.3500000015}},{"attributes":{"ID":158336,"DIS_CODE":0,"TOWNNAME":"安南區","LI":"州南里","LIN":"2鄰","STREET":"安和路","SECT":"四段","MAREA":" ","LANE":"５３３巷","ALLEY":"６５弄","HOUSE_NO":"５３號","E_COORD97":169816.06,"N_COORD97":2551146.2400000002,"ADDRESS":"安和路四段５３３巷６５弄５３號","OBJECTID":158335},"geometry":{"x":169816.06000000145,"y":2551146.2400000039}},{"attributes":{"ID":158337,"DIS_CODE":0,"TOWNNAME":"安南區","LI":"州南里","LIN":"2鄰","STREET":"安和路","SECT":"四段","MAREA":" ","LANE":"５３３巷","ALLEY":"６５弄","HOUSE_NO":"５５號","E_COORD97":169810.31,"N_COORD97":2551146.48,"ADDRESS":"安和路四段５３３巷６５弄５５號","OBJECTID":158336},"geometry":{"x":169810.30999999959,"y":2551146.4800000004}},{"attributes":{"ID":158338,"DIS_CODE":0,"TOWNNAME":"左鎮區","LI":"榮和里","LIN":"5鄰","STREET":" ","SECT":" ","MAREA":"菜寮","LANE":" ","ALLEY":" ","HOUSE_NO":"４３號之１","E_COORD97":186985.38,"N_COORD97":2550937.2999999998,"ADDRESS":"菜寮４３號之１","OBJECTID":158337},"geometry":{"x":186985.38000000082,"y":2550937.3000000026}},{"attributes":{"ID":158339,"DIS_CODE":0,"TOWNNAME":"左鎮區","LI":"左鎮里","LIN":"5鄰","STREET":" ","SECT":" ","MAREA":"左鎮","LANE":" ","ALLEY":" ","HOUSE_NO":"４３號之４","E_COORD97":189381.13,"N_COORD97":2549551.2999999998,"ADDRESS":"左鎮４３號之４","OBJECTID":158338},"geometry":{"x":189381.12999999989,"y":2549551.3000000007}},{"attributes":{"ID":158340,"DIS_CODE":0,"TOWNNAME":"左鎮區","LI":"光和里","LIN":"5鄰","STREET":" ","SECT":" ","MAREA":"光和","LANE":" ","ALLEY":" ","HOUSE_NO":"５７號","E_COORD97":186539.23999999999,"N_COORD97":2551364.25,"ADDRESS":"光和５７號","OBJECTID":158339},"geometry":{"x":186539.24000000115,"y":2551364.2500000019}},{"attributes":{"ID":158341,"DIS_CODE":0,"TOWNNAME":"左鎮區","LI":"二寮里","LIN":"5鄰","STREET":" ","SECT":" ","MAREA":"二寮","LANE":" ","ALLEY":" ","HOUSE_NO":"４５號","E_COORD97":188869.84,"N_COORD97":2544006.25,"ADDRESS":"二寮４５號","OBJECTID":158340},"geometry":{"x":188869.83999999985,"y":2544006.2500000019}},{"attributes":{"ID":158342,"DIS_CODE":0,"TOWNNAME":"左鎮區","LI":"睦光里","LIN":"5鄰","STREET":" ","SECT":" ","MAREA":"睦光","LANE":" ","ALLEY":" ","HOUSE_NO":"５０號之５","E_COORD97":190466.73000000001,"N_COORD97":2550122.2999999998,"ADDRESS":"睦光５０號之５","OBJECTID":158341},"geometry":{"x":190466.73000000231,"y":2550122.3000000045}},{"attributes":{"ID":158343,"DIS_CODE":0,"TOWNNAME":"左鎮區","LI":"睦光里","LIN":"5鄰","STREET":" ","SECT":" ","MAREA":"睦光","LANE":" ","ALLEY":" ","HOUSE_NO":"５５號之２","E_COORD97":190445.70999999999,"N_COORD97":2550019.2999999998,"ADDRESS":"睦光５５號之２","OBJECTID":158342},"geometry":{"x":190445.70999999996,"y":2550019.3000000007}},{"attributes":{"ID":158344,"DIS_CODE":0,"TOWNNAME":"安南區","LI":"州南里","LIN":"2鄰","STREET":"安和路","SECT":"四段","MAREA":" ","LANE":"５３３巷","ALLEY":"６５弄","HOUSE_NO":"５７號","E_COORD97":169805.04000000001,"N_COORD97":2551142.6499999999,"ADDRESS":"安和路四段５３３巷６５弄５７號","OBJECTID":158343},"geometry":{"x":169805.04000000097,"y":2551142.6500000004}},{"attributes":{"ID":158345,"DIS_CODE":0,"TOWNNAME":"左鎮區","LI":"睦光里","LIN":"5鄰","STREET":" ","SECT":" ","MAREA":"睦光","LANE":" ","ALLEY":" ","HOUSE_NO":"５７號之１","E_COORD97":190406.07999999999,"N_COORD97":2550045.2999999998,"ADDRESS":"睦光５７號之１","OBJECTID":158344},"geometry":{"x":190406.08000000007,"y":2550045.3000000026}},{"attributes":{"ID":158346,"DIS_CODE":0,"TOWNNAME":"左鎮區","LI":"睦光里","LIN":"5鄰","STREET":" ","SECT":" ","MAREA":"睦光","LANE":" ","ALLEY":" ","HOUSE_NO":"４６號之２","E_COORD97":190575.91,"N_COORD97":2550104.2999999998,"ADDRESS":"睦光４６號之２","OBJECTID":158345},"geometry":{"x":190575.91000000108,"y":2550104.3000000007}},{"attributes":{"ID":158347,"DIS_CODE":0,"TOWNNAME":"左鎮區","LI":"榮和里","LIN":"5鄰","STREET":" ","SECT":" ","MAREA":"菜寮","LANE":" ","ALLEY":" ","HOUSE_NO":"４６號","E_COORD97":187092.54000000001,"N_COORD97":2550854.25,"ADDRESS":"菜寮４６號","OBJECTID":158346},"geometry":{"x":187092.54000000097,"y":2550854.2500000037}},{"attributes":{"ID":158348,"DIS_CODE":0,"TOWNNAME":"安南區","LI":"州南里","LIN":"2鄰","STREET":"安和路","SECT":"四段","MAREA":" ","LANE":"５３３巷","ALLEY":"６５弄","HOUSE_NO":"５９號","E_COORD97":169804.79999999999,"N_COORD97":2551130.6800000002,"ADDRESS":"安和路四段５３３巷６５弄５９號","OBJECTID":158347},"geometry":{"x":169804.80000000075,"y":2551130.6799999997}},{"attributes":{"ID":158349,"DIS_CODE":0,"TOWNNAME":"安南區","LI":"州南里","LIN":"2鄰","STREET":"安和路","SECT":"四段","MAREA":" ","LANE":"５３３巷","ALLEY":"６５弄","HOUSE_NO":"６１號","E_COORD97":169810.31,"N_COORD97":2551131.8700000001,"ADDRESS":"安和路四段５３３巷６５弄６１號","OBJECTID":158348},"geometry":{"x":169810.30999999959,"y":2551131.870000001}},{"attributes":{"ID":158350,"DIS_CODE":0,"TOWNNAME":"左鎮區","LI":"內庄里","LIN":"5鄰","STREET":" ","SECT":" ","MAREA":"內庄","LANE":" ","ALLEY":" ","HOUSE_NO":"３８號","E_COORD97":190840.03,"N_COORD97":2548821.25,"ADDRESS":"內庄３８號","OBJECTID":158349},"geometry":{"x":190840.03000000026,"y":2548821.2500000019}},{"attributes":{"ID":158351,"DIS_CODE":0,"TOWNNAME":"安南區","LI":"州南里","LIN":"2鄰","STREET":"安和路","SECT":"四段","MAREA":" ","LANE":"５３３巷","ALLEY":"６５弄","HOUSE_NO":"６２號","E_COORD97":169783.45999999999,"N_COORD97":2551131.8700000001,"ADDRESS":"安和路四段５３３巷６５弄６２號","OBJECTID":158350},"geometry":{"x":169783.46000000089,"y":2551131.870000001}},{"attributes":{"ID":158352,"DIS_CODE":0,"TOWNNAME":"左鎮區","LI":"榮和里","LIN":"5鄰","STREET":" ","SECT":" ","MAREA":"菜寮","LANE":" ","ALLEY":" ","HOUSE_NO":"４５號之１","E_COORD97":187014.28,"N_COORD97":2550868.2999999998,"ADDRESS":"菜寮４５號之１","OBJECTID":158351},"geometry":{"x":187014.28000000026,"y":2550868.3000000045}},{"attributes":{"ID":158353,"DIS_CODE":0,"TOWNNAME":"左鎮區","LI":"榮和里","LIN":"5鄰","STREET":" ","SECT":" ","MAREA":"菜寮","LANE":" ","ALLEY":" ","HOUSE_NO":"４９號之２","E_COORD97":187030.20999999999,"N_COORD97":2550964.2999999998,"ADDRESS":"菜寮４９號之２","OBJECTID":158352},"geometry":{"x":187030.21000000183,"y":2550964.3000000026}},{"attributes":{"ID":158354,"DIS_CODE":0,"TOWNNAME":"左鎮區","LI":"內庄里","LIN":"5鄰","STREET":" ","SECT":" ","MAREA":"內庄","LANE":" ","ALLEY":" ","HOUSE_NO":"４０號","E_COORD97":190852.13,"N_COORD97":2548804.25,"ADDRESS":"內庄４０號","OBJECTID":158353},"geometry":{"x":190852.13000000082,"y":2548804.2500000019}},{"attributes":{"ID":158355,"DIS_CODE":0,"TOWNNAME":"左鎮區","LI":"內庄里","LIN":"5鄰","STREET":" ","SECT":" ","MAREA":"內庄","LANE":" ","ALLEY":" ","HOUSE_NO":"４３號之１","E_COORD97":190976.35999999999,"N_COORD97":2548748.2999999998,"ADDRESS":"內庄４３號之１","OBJECTID":158354},"geometry":{"x":190976.36000000127,"y":2548748.3000000007}},{"attributes":{"ID":158356,"DIS_CODE":0,"TOWNNAME":"左鎮區","LI":"榮和里","LIN":"5鄰","STREET":" ","SECT":" ","MAREA":"菜寮","LANE":" ","ALLEY":" ","HOUSE_NO":"４５號之２","E_COORD97":187041.70999999999,"N_COORD97":2550910.2999999998,"ADDRESS":"菜寮４５號之２","OBJECTID":158355},"geometry":{"x":187041.70999999996,"y":2550910.3000000026}},{"attributes":{"ID":158357,"DIS_CODE":0,"TOWNNAME":"左鎮區","LI":"榮和里","LIN":"5鄰","STREET":" ","SECT":" ","MAREA":"菜寮","LANE":" ","ALLEY":" ","HOUSE_NO":"５０號之５","E_COORD97":187110.92999999999,"N_COORD97":2551156.2999999998,"ADDRESS":"菜寮５０號之５","OBJECTID":158356},"geometry":{"x":187110.9299999997,"y":2551156.3000000045}},{"attributes":{"ID":158358,"DIS_CODE":0,"TOWNNAME":"安南區","LI":"州南里","LIN":"2鄰","STREET":"安和路","SECT":"四段","MAREA":" ","LANE":"５３３巷","ALLEY":"６５弄","HOUSE_NO":"６３號","E_COORD97":169815.82000000001,"N_COORD97":2551131.6299999999,"ADDRESS":"安和路四段５３３巷６５弄６３號","OBJECTID":158357},"geometry":{"x":169815.82000000123,"y":2551131.6299999971}},{"attributes":{"ID":158359,"DIS_CODE":0,"TOWNNAME":"左鎮區","LI":"榮和里","LIN":"5鄰","STREET":" ","SECT":" ","MAREA":"菜寮","LANE":" ","ALLEY":" ","HOUSE_NO":"４４號之１","E_COORD97":186990.38,"N_COORD97":2550950.2999999998,"ADDRESS":"菜寮４４號之１","OBJECTID":158358},"geometry":{"x":186990.38000000082,"y":2550950.3000000026}},{"attributes":{"ID":158360,"DIS_CODE":0,"TOWNNAME":"仁德區","LI":"太子里","LIN":"44鄰","STREET":"太子一街","SECT":" ","MAREA":" ","LANE":"３０巷","ALLEY":" ","HOUSE_NO":"５號","E_COORD97":174807.69,"N_COORD97":2543399,"ADDRESS":"太子一街３０巷５號","OBJECTID":158359},"geometry":{"x":174807.69000000041,"y":2543399}},{"attributes":{"ID":158361,"DIS_CODE":0,"TOWNNAME":"東區","LI":"崇信里","LIN":"24鄰","STREET":"崇善一街","SECT":" ","MAREA":" ","LANE":" ","ALLEY":" ","HOUSE_NO":"７８號六樓之２","E_COORD97":170831.85999999999,"N_COORD97":2542290.75,"ADDRESS":"崇善一街７８號六樓之２","OBJECTID":158360},"geometry":{"x":170831.8599999994,"y":2542290.7500000019}},{"attributes":{"ID":158362,"DIS_CODE":0,"TOWNNAME":"左鎮區","LI":"榮和里","LIN":"5鄰","STREET":" ","SECT":" ","MAREA":"菜寮","LANE":" ","ALLEY":" ","HOUSE_NO":"４９號之１","E_COORD97":187038.57999999999,"N_COORD97":2550983.2999999998,"ADDRESS":"菜寮４９號之１","OBJECTID":158361},"geometry":{"x":187038.58000000101,"y":2550983.2999999989}},{"attributes":{"ID":158363,"DIS_CODE":0,"TOWNNAME":"東區","LI":"崇信里","LIN":"24鄰","STREET":"崇善一街","SECT":" ","MAREA":" ","LANE":" ","ALLEY":" ","HOUSE_NO":"７８號四樓","E_COORD97":170831.85999999999,"N_COORD97":2542290.75,"ADDRESS":"崇善一街７８號四樓","OBJECTID":158362},"geometry":{"x":170831.8599999994,"y":2542290.7500000019}},{"attributes":{"ID":158364,"DIS_CODE":0,"TOWNNAME":"左鎮區","LI":"內庄里","LIN":"5鄰","STREET":" ","SECT":" ","MAREA":"內庄","LANE":" ","ALLEY":" ","HOUSE_NO":"４１號","E_COORD97":190869.63,"N_COORD97":2548821.25,"ADDRESS":"內庄４１號","OBJECTID":158363},"geometry":{"x":190869.62999999989,"y":2548821.2500000019}},{"attributes":{"ID":158365,"DIS_CODE":0,"TOWNNAME":"東區","LI":"南聖里","LIN":"15鄰","STREET":"裕和路","SECT":" ","MAREA":" ","LANE":" ","ALLEY":" ","HOUSE_NO":"２８９號","E_COORD97":172545.38,"N_COORD97":2543147.3199999998,"ADDRESS":"裕和路２８９號","OBJECTID":158364},"geometry":{"x":172545.38000000082,"y":2543147.3200000003}},{"attributes":{"ID":158366,"DIS_CODE":0,"TOWNNAME":"左鎮區","LI":"岡林里","LIN":"5鄰","STREET":" ","SECT":" ","MAREA":"岡林","LANE":" ","ALLEY":" ","HOUSE_NO":"５４號","E_COORD97":190774.35999999999,"N_COORD97":2545722.25,"ADDRESS":"岡林５４號","OBJECTID":158365},"geometry":{"x":190774.36000000127,"y":2545722.2500000019}},{"attributes":{"ID":158367,"DIS_CODE":0,"TOWNNAME":"左鎮區","LI":"左鎮里","LIN":"5鄰","STREET":" ","SECT":" ","MAREA":"左鎮","LANE":" ","ALLEY":" ","HOUSE_NO":"４１號之１","E_COORD97":189423.60000000001,"N_COORD97":2549549.2999999998,"ADDRESS":"左鎮４１號之１","OBJECTID":158366},"geometry":{"x":189423.59999999963,"y":2549549.3000000045}},{"attributes":{"ID":158368,"DIS_CODE":0,"TOWNNAME":"永康區","LI":"龍潭里","LIN":"44鄰","STREET":"永平街","SECT":" ","MAREA":" ","LANE":" ","ALLEY":" ","HOUSE_NO":"２８２之１２號","E_COORD97":174658.67000000001,"N_COORD97":2547013.54,"ADDRESS":"永平街２８２之１２號","OBJECTID":158367},"geometry":{"x":174658.66999999993,"y":2547013.5400000028}},{"attributes":{"ID":158369,"DIS_CODE":0,"TOWNNAME":"永康區","LI":"龍潭里","LIN":"44鄰","STREET":"永平街","SECT":" ","MAREA":" ","LANE":" ","ALLEY":" ","HOUSE_NO":"２８８之１號","E_COORD97":174684.87,"N_COORD97":2547050.2999999998,"ADDRESS":"永平街２８８之１號","OBJECTID":158368},"geometry":{"x":174684.87000000197,"y":2547050.3000000007}},{"attributes":{"ID":158370,"DIS_CODE":0,"TOWNNAME":"永康區","LI":"龍潭里","LIN":"44鄰","STREET":"永平街","SECT":" ","MAREA":" ","LANE":" ","ALLEY":" ","HOUSE_NO":"２８６之６號","E_COORD97":174684.25,"N_COORD97":2547069.2999999998,"ADDRESS":"永平街２８６之６號","OBJECTID":158369},"geometry":{"x":174684.25000000093,"y":2547069.3000000007}},{"attributes":{"ID":158371,"DIS_CODE":0,"TOWNNAME":"左鎮區","LI":"光和里","LIN":"5鄰","STREET":" ","SECT":" ","MAREA":"光和","LANE":" ","ALLEY":" ","HOUSE_NO":"５８號","E_COORD97":186522.14000000001,"N_COORD97":2551491.25,"ADDRESS":"光和５８號","OBJECTID":158370},"geometry":{"x":186522.1400000006,"y":2551491.25}},{"attributes":{"ID":158372,"DIS_CODE":0,"TOWNNAME":"左鎮區","LI":"草山里","LIN":"5鄰","STREET":" ","SECT":" ","MAREA":"草山","LANE":" ","ALLEY":" ","HOUSE_NO":"６１號","E_COORD97":192143.64000000001,"N_COORD97":2543173.25,"ADDRESS":"草山６１號","OBJECTID":158371},"geometry":{"x":192143.6400000006,"y":2543173.2500000019}},{"attributes":{"ID":158373,"DIS_CODE":0,"TOWNNAME":"左鎮區","LI":"草山里","LIN":"5鄰","STREET":" ","SECT":" ","MAREA":"草山","LANE":" ","ALLEY":" ","HOUSE_NO":"６６號","E_COORD97":191890.64000000001,"N_COORD97":2543021.25,"ADDRESS":"草山６６號","OBJECTID":158372},"geometry":{"x":191890.6400000006,"y":2543021.25}},{"attributes":{"ID":158374,"DIS_CODE":0,"TOWNNAME":"左鎮區","LI":"草山里","LIN":"5鄰","STREET":" ","SECT":" ","MAREA":"草山","LANE":" ","ALLEY":" ","HOUSE_NO":"６４號","E_COORD97":192210.84,"N_COORD97":2543068.25,"ADDRESS":"草山６４號","OBJECTID":158373},"geometry":{"x":192210.83999999985,"y":2543068.25}},{"attributes":{"ID":158375,"DIS_CODE":0,"TOWNNAME":"左鎮區","LI":"榮和里","LIN":"5鄰","STREET":" ","SECT":" ","MAREA":"菜寮","LANE":" ","ALLEY":" ","HOUSE_NO":"５０號之１","E_COORD97":187057.48000000001,"N_COORD97":2551089.2999999998,"ADDRESS":"菜寮５０號之１","OBJECTID":158374},"geometry":{"x":187057.48000000045,"y":2551089.3000000026}},{"attributes":{"ID":158376,"DIS_CODE":0,"TOWNNAME":"左鎮區","LI":"左鎮里","LIN":"5鄰","STREET":" ","SECT":" ","MAREA":"左鎮","LANE":" ","ALLEY":" ","HOUSE_NO":"４１號之４","E_COORD97":189437.13,"N_COORD97":2549549.2999999998,"ADDRESS":"左鎮４１號之４","OBJECTID":158375},"geometry":{"x":189437.12999999989,"y":2549549.3000000045}},{"attributes":{"ID":158377,"DIS_CODE":0,"TOWNNAME":"左鎮區","LI":"左鎮里","LIN":"5鄰","STREET":" ","SECT":" ","MAREA":"左鎮","LANE":" ","ALLEY":" ","HOUSE_NO":"３７號","E_COORD97":189415.97,"N_COORD97":2549518.25,"ADDRESS":"左鎮３７號","OBJECTID":158376},"geometry":{"x":189415.96999999974,"y":2549518.2500000037}},{"attributes":{"ID":158378,"DIS_CODE":0,"TOWNNAME":"中西區","LI":"法華里","LIN":"7鄰","STREET":"健康路","SECT":"一段","MAREA":" ","LANE":" ","ALLEY":" ","HOUSE_NO":"７０號","E_COORD97":168995.67000000001,"N_COORD97":2542447.4199999999,"ADDRESS":"健康路一段７０號","OBJECTID":158377},"geometry":{"x":168995.67000000086,"y":2542447.4199999999}},{"attributes":{"ID":158379,"DIS_CODE":0,"TOWNNAME":"左鎮區","LI":"光和里","LIN":"5鄰","STREET":" ","SECT":" ","MAREA":"光和","LANE":" ","ALLEY":" ","HOUSE_NO":"５４號","E_COORD97":186582.73999999999,"N_COORD97":2551448.25,"ADDRESS":"光和５４號","OBJECTID":158378},"geometry":{"x":186582.74000000209,"y":2551448.2500000019}},{"attributes":{"ID":158380,"DIS_CODE":0,"TOWNNAME":"安南區","LI":"州南里","LIN":"2鄰","STREET":"安和路","SECT":"四段","MAREA":" ","LANE":"５３３巷","ALLEY":"６５弄","HOUSE_NO":"６５號","E_COORD97":169822.06,"N_COORD97":2551132.1099999999,"ADDRESS":"安和路四段５３３巷６５弄６５號","OBJECTID":158379},"geometry":{"x":169822.05999999959,"y":2551132.1099999994}},{"attributes":{"ID":158381,"DIS_CODE":0,"TOWNNAME":"安南區","LI":"州南里","LIN":"2鄰","STREET":"安和路","SECT":"四段","MAREA":" ","LANE":"５３３巷","ALLEY":"６５弄","HOUSE_NO":"７７號","E_COORD97":169787.29000000001,"N_COORD97":2551100.9100000001,"ADDRESS":"安和路四段５３３巷６５弄７７號","OBJECTID":158380},"geometry":{"x":169787.29000000004,"y":2551100.9100000039}},{"attributes":{"ID":158382,"DIS_CODE":0,"TOWNNAME":"左鎮區","LI":"岡林里","LIN":"5鄰","STREET":" ","SECT":" ","MAREA":"岡林","LANE":" ","ALLEY":" ","HOUSE_NO":"５１號","E_COORD97":190864.26000000001,"N_COORD97":2545198.25,"ADDRESS":"岡林５１號","OBJECTID":158381},"geometry":{"x":190864.26000000071,"y":2545198.25}},{"attributes":{"ID":158383,"DIS_CODE":0,"TOWNNAME":"安南區","LI":"淵西里","LIN":"2鄰","STREET":"安中路","SECT":"四段","MAREA":" ","LANE":"２９０巷","ALLEY":"２９１弄","HOUSE_NO":"１３號","E_COORD97":165086.26000000001,"N_COORD97":2550353.0099999998,"ADDRESS":"安中路四段２９０巷２９１弄１３號","OBJECTID":158382},"geometry":{"x":165086.25999999978,"y":2550353.0099999998}},{"attributes":{"ID":158384,"DIS_CODE":0,"TOWNNAME":"永康區","LI":"南灣里","LIN":"5鄰","STREET":"南興路","SECT":" ","MAREA":" ","LANE":"１１２巷","ALLEY":"４０弄","HOUSE_NO":"２５號","E_COORD97":174619.41,"N_COORD97":2544474.7400000002,"ADDRESS":"南興路１１２巷４０弄２５號","OBJECTID":158383},"geometry":{"x":174619.41000000015,"y":2544474.7400000021}},{"attributes":{"ID":158385,"DIS_CODE":0,"TOWNNAME":"永康區","LI":"東橋里","LIN":"13鄰","STREET":"中山南路","SECT":" ","MAREA":" ","LANE":"２３１巷","ALLEY":"２０弄","HOUSE_NO":"３號","E_COORD97":171632.51000000001,"N_COORD97":2546294.3300000001,"ADDRESS":"中山南路２３１巷２０弄３號","OBJECTID":158384},"geometry":{"x":171632.51000000071,"y":2546294.3300000019}},{"attributes":{"ID":158386,"DIS_CODE":0,"TOWNNAME":"永康區","LI":"南灣里","LIN":"19鄰","STREET":"大灣一街","SECT":" ","MAREA":" ","LANE":"６２巷","ALLEY":"１１弄","HOUSE_NO":"７號","E_COORD97":174369.67999999999,"N_COORD97":2544698.6299999999,"ADDRESS":"大灣一街６２巷１１弄７號","OBJECTID":158385},"geometry":{"x":174369.6799999997,"y":2544698.6300000008}},{"attributes":{"ID":158387,"DIS_CODE":0,"TOWNNAME":"仁德區","LI":"仁德里","LIN":"2鄰","STREET":"中正路","SECT":"二段","MAREA":" ","LANE":"６７９巷","ALLEY":"１４弄","HOUSE_NO":"５號","E_COORD97":173423.20000000001,"N_COORD97":2540131.7799999998,"ADDRESS":"中正路二段６７９巷１４弄５號","OBJECTID":158386},"geometry":{"x":173423.20000000205,"y":2540131.7799999993}},{"attributes":{"ID":158388,"DIS_CODE":0,"TOWNNAME":"仁德區","LI":"保安里","LIN":"2鄰","STREET":"文賢路","SECT":"一段","MAREA":" ","LANE":"５５４巷","ALLEY":"８弄","HOUSE_NO":"１號","E_COORD97":171075.59,"N_COORD97":2536897.5800000001,"ADDRESS":"文賢路一段５５４巷８弄１號","OBJECTID":158387},"geometry":{"x":171075.58999999892,"y":2536897.5800000019}},{"attributes":{"ID":158389,"DIS_CODE":0,"TOWNNAME":"仁德區","LI":"保安里","LIN":"2鄰","STREET":"文賢路","SECT":"一段","MAREA":" ","LANE":"５５４巷","ALLEY":"１０弄","HOUSE_NO":"１１號","E_COORD97":171040,"N_COORD97":2536907.0800000001,"ADDRESS":"文賢路一段５５４巷１０弄１１號","OBJECTID":158388},"geometry":{"x":171040.00000000093,"y":2536907.0800000001}},{"attributes":{"ID":158390,"DIS_CODE":0,"TOWNNAME":"仁德區","LI":"保安里","LIN":"2鄰","STREET":"文賢路","SECT":"一段","MAREA":" ","LANE":"５５４巷","ALLEY":"８弄","HOUSE_NO":"５號","E_COORD97":171073.12,"N_COORD97":2536906.0800000001,"ADDRESS":"文賢路一段５５４巷８弄５號","OBJECTID":158389},"geometry":{"x":171073.12000000104,"y":2536906.0800000001}},{"attributes":{"ID":158391,"DIS_CODE":0,"TOWNNAME":"仁德區","LI":"保安里","LIN":"2鄰","STREET":"文賢路","SECT":"一段","MAREA":" ","LANE":"５５４巷","ALLEY":"８弄","HOUSE_NO":"４號","E_COORD97":171087.98999999999,"N_COORD97":2536906.0800000001,"ADDRESS":"文賢路一段５５４巷８弄４號","OBJECTID":158390},"geometry":{"x":171087.99000000022,"y":2536906.0800000001}},{"attributes":{"ID":158392,"DIS_CODE":0,"TOWNNAME":"仁德區","LI":"保安里","LIN":"2鄰","STREET":"文賢路","SECT":"一段","MAREA":" ","LANE":"５５４巷","ALLEY":"８弄","HOUSE_NO":"１３號","E_COORD97":171068.73999999999,"N_COORD97":2536923.8300000001,"ADDRESS":"文賢路一段５５４巷８弄１３號","OBJECTID":158391},"geometry":{"x":171068.74000000115,"y":2536923.8300000019}},{"attributes":{"ID":158393,"DIS_CODE":0,"TOWNNAME":"仁德區","LI":"保安里","LIN":"2鄰","STREET":"文賢路","SECT":"一段","MAREA":" ","LANE":"５５４巷","ALLEY":"１０弄","HOUSE_NO":"１９號","E_COORD97":171034.10999999999,"N_COORD97":2536924.8300000001,"ADDRESS":"文賢路一段５５４巷１０弄１９號","OBJECTID":158392},"geometry":{"x":171034.11000000127,"y":2536924.8300000001}},{"attributes":{"ID":158394,"DIS_CODE":0,"TOWNNAME":"仁德區","LI":"後壁里","LIN":"2鄰","STREET":"德安路","SECT":" ","MAREA":" ","LANE":"３２巷","ALLEY":"１３弄","HOUSE_NO":"６號","E_COORD97":173304.57999999999,"N_COORD97":2539147.8100000001,"ADDRESS":"德安路３２巷１３弄６號","OBJECTID":158393},"geometry":{"x":173304.58000000007,"y":2539147.8100000024}},{"attributes":{"ID":158395,"DIS_CODE":0,"TOWNNAME":"左鎮區","LI":"左鎮里","LIN":"5鄰","STREET":" ","SECT":" ","MAREA":"左鎮","LANE":" ","ALLEY":" ","HOUSE_NO":"４１號之３","E_COORD97":189433.5,"N_COORD97":2549550.2999999998,"ADDRESS":"左鎮４１號之３","OBJECTID":158394},"geometry":{"x":189433.5,"y":2549550.3000000026}},{"attributes":{"ID":158396,"DIS_CODE":0,"TOWNNAME":"左鎮區","LI":"草山里","LIN":"5鄰","STREET":" ","SECT":" ","MAREA":"草山","LANE":" ","ALLEY":" ","HOUSE_NO":"６２號","E_COORD97":192168.94,"N_COORD97":2543164.25,"ADDRESS":"草山６２號","OBJECTID":158395},"geometry":{"x":192168.94000000227,"y":2543164.25}},{"attributes":{"ID":158397,"DIS_CODE":0,"TOWNNAME":"左鎮區","LI":"光和里","LIN":"5鄰","STREET":" ","SECT":" ","MAREA":"光和","LANE":" ","ALLEY":" ","HOUSE_NO":"５９號","E_COORD97":186427.04000000001,"N_COORD97":2551304.25,"ADDRESS":"光和５９號","OBJECTID":158396},"geometry":{"x":186427.04000000004,"y":2551304.25}},{"attributes":{"ID":158398,"DIS_CODE":0,"TOWNNAME":"左鎮區","LI":"光和里","LIN":"5鄰","STREET":" ","SECT":" ","MAREA":"光和","LANE":" ","ALLEY":" ","HOUSE_NO":"５３號之１","E_COORD97":186557.57999999999,"N_COORD97":2551458.2999999998,"ADDRESS":"光和５３號之１","OBJECTID":158397},"geometry":{"x":186557.58000000007,"y":2551458.3000000045}},{"attributes":{"ID":158399,"DIS_CODE":0,"TOWNNAME":"左鎮區","LI":"左鎮里","LIN":"5鄰","STREET":" ","SECT":" ","MAREA":"左鎮","LANE":" ","ALLEY":" ","HOUSE_NO":"３６號","E_COORD97":189440.37,"N_COORD97":2549490.25,"ADDRESS":"左鎮３６號","OBJECTID":158398},"geometry":{"x":189440.37000000104,"y":2549490.25}},{"attributes":{"ID":158400,"DIS_CODE":0,"TOWNNAME":"左鎮區","LI":"左鎮里","LIN":"5鄰","STREET":" ","SECT":" ","MAREA":"左鎮","LANE":" ","ALLEY":" ","HOUSE_NO":"３４號","E_COORD97":189464.37,"N_COORD97":2549520.25,"ADDRESS":"左鎮３４號","OBJECTID":158399},"geometry":{"x":189464.37000000011,"y":2549520.25}},{"attributes":{"ID":158401,"DIS_CODE":0,"TOWNNAME":"左鎮區","LI":"光和里","LIN":"5鄰","STREET":" ","SECT":" ","MAREA":"光和","LANE":" ","ALLEY":" ","HOUSE_NO":"５６號","E_COORD97":186625.84,"N_COORD97":2551437.25,"ADDRESS":"光和５６號","OBJECTID":158400},"geometry":{"x":186625.84000000078,"y":2551437.2500000037}}]}