{"displayFieldName":"TOWNNAME","fieldAliases":{"ID":"ID","DIS_CODE":"DIS_CODE","TOWNNAME":"TOWNNAME","LI":"LI","LIN":"LIN","STREET":"STREET","SECT":"SECT","MAREA":"MAREA","LANE":"LANE","ALLEY":"ALLEY","HOUSE_NO":"HOUSE_NO","E_COORD97":"E_COORD97","N_COORD97":"N_COORD97","ADDRESS":"ADDRESS","OBJECTID":"OBJECTID"},"geometryType":"esriGeometryPoint","spatialReference":{"wkid":102443,"latestWkid":3826},"fields":[{"name":"ID","type":"esriFieldTypeDouble","alias":"ID"},{"name":"DIS_CODE","type":"esriFieldTypeInteger","alias":"DIS_CODE"},{"name":"TOWNNAME","type":"esriFieldTypeString","alias":"TOWNNAME","length":8},{"name":"LI","type":"esriFieldTypeString","alias":"LI","length":8},{"name":"LIN","type":"esriFieldTypeString","alias":"LIN","length":12},{"name":"STREET","type":"esriFieldTypeString","alias":"STREET","length":20},{"name":"SECT","type":"esriFieldTypeString","alias":"SECT","length":8},{"name":"MAREA","type":"esriFieldTypeString","alias":"MAREA","length":12},{"name":"LANE","type":"esriFieldTypeString","alias":"LANE","length":10},{"name":"ALLEY","type":"esriFieldTypeString","alias":"ALLEY","length":10},{"name":"HOUSE_NO","type":"esriFieldTypeString","alias":"HOUSE_NO","length":20},{"name":"E_COORD97","type":"esriFieldTypeDouble","alias":"E_COORD97"},{"name":"N_COORD97","type":"esriFieldTypeDouble","alias":"N_COORD97"},{"name":"ADDRESS","type":"esriFieldTypeString","alias":"ADDRESS","length":50},{"name":"OBJECTID","type":"esriFieldTypeOID","alias":"OBJECTID"}],"features":[{"attributes":{"ID":467226,"DIS_CODE":0,"TOWNNAME":"安平區","LI":"育平里","LIN":"5鄰","STREET":"育平五街","SECT":" ","MAREA":" ","LANE":" ","ALLEY":" ","HOUSE_NO":"６８號九樓之５","E_COORD97":164678.54000000001,"N_COORD97":2543541.0499999998,"ADDRESS":"育平五街６８號九樓之５","OBJECTID":467201},"geometry":{"x":164678.5400000019,"y":2543541.0500000026}},{"attributes":{"ID":467227,"DIS_CODE":0,"TOWNNAME":"安平區","LI":"育平里","LIN":"5鄰","STREET":"育平五街","SECT":" ","MAREA":" ","LANE":" ","ALLEY":" ","HOUSE_NO":"６８號九樓之６","E_COORD97":164678.54000000001,"N_COORD97":2543541.0499999998,"ADDRESS":"育平五街６８號九樓之６","OBJECTID":467202},"geometry":{"x":164678.5400000019,"y":2543541.0500000026}},{"attributes":{"ID":467228,"DIS_CODE":0,"TOWNNAME":"安平區","LI":"育平里","LIN":"5鄰","STREET":"育平五街","SECT":" ","MAREA":" ","LANE":" ","ALLEY":" ","HOUSE_NO":"６８號十樓之１","E_COORD97":164678.54000000001,"N_COORD97":2543541.0499999998,"ADDRESS":"育平五街６８號十樓之１","OBJECTID":467203},"geometry":{"x":164678.5400000019,"y":2543541.0500000026}},{"attributes":{"ID":467229,"DIS_CODE":0,"TOWNNAME":"安平區","LI":"育平里","LIN":"5鄰","STREET":"育平五街","SECT":" ","MAREA":" ","LANE":" ","ALLEY":" ","HOUSE_NO":"６８號十樓之２","E_COORD97":164678.54000000001,"N_COORD97":2543541.0499999998,"ADDRESS":"育平五街６８號十樓之２","OBJECTID":467204},"geometry":{"x":164678.5400000019,"y":2543541.0500000026}},{"attributes":{"ID":467230,"DIS_CODE":0,"TOWNNAME":"安平區","LI":"育平里","LIN":"5鄰","STREET":"育平五街","SECT":" ","MAREA":" ","LANE":" ","ALLEY":" ","HOUSE_NO":"６８號十樓之３","E_COORD97":164678.54000000001,"N_COORD97":2543541.0499999998,"ADDRESS":"育平五街６８號十樓之３","OBJECTID":467205},"geometry":{"x":164678.5400000019,"y":2543541.0500000026}},{"attributes":{"ID":467231,"DIS_CODE":0,"TOWNNAME":"安平區","LI":"育平里","LIN":"5鄰","STREET":"育平五街","SECT":" ","MAREA":" ","LANE":" ","ALLEY":" ","HOUSE_NO":"６８號十樓之５","E_COORD97":164678.54000000001,"N_COORD97":2543541.0499999998,"ADDRESS":"育平五街６８號十樓之５","OBJECTID":467206},"geometry":{"x":164678.5400000019,"y":2543541.0500000026}},{"attributes":{"ID":467232,"DIS_CODE":0,"TOWNNAME":"安平區","LI":"育平里","LIN":"5鄰","STREET":"育平五街","SECT":" ","MAREA":" ","LANE":" ","ALLEY":" ","HOUSE_NO":"６８號十樓之６","E_COORD97":164678.54000000001,"N_COORD97":2543541.0499999998,"ADDRESS":"育平五街６８號十樓之６","OBJECTID":467207},"geometry":{"x":164678.5400000019,"y":2543541.0500000026}},{"attributes":{"ID":467233,"DIS_CODE":0,"TOWNNAME":"安平區","LI":"育平里","LIN":"5鄰","STREET":"育平五街","SECT":" ","MAREA":" ","LANE":" ","ALLEY":" ","HOUSE_NO":"６８號十一樓之１","E_COORD97":164678.54000000001,"N_COORD97":2543541.0499999998,"ADDRESS":"育平五街６８號十一樓之１","OBJECTID":467208},"geometry":{"x":164678.5400000019,"y":2543541.0500000026}},{"attributes":{"ID":467234,"DIS_CODE":0,"TOWNNAME":"安平區","LI":"育平里","LIN":"5鄰","STREET":"育平五街","SECT":" ","MAREA":" ","LANE":" ","ALLEY":" ","HOUSE_NO":"６８號十一樓之２","E_COORD97":164678.54000000001,"N_COORD97":2543541.0499999998,"ADDRESS":"育平五街６８號十一樓之２","OBJECTID":467209},"geometry":{"x":164678.5400000019,"y":2543541.0500000026}},{"attributes":{"ID":467235,"DIS_CODE":0,"TOWNNAME":"安平區","LI":"育平里","LIN":"5鄰","STREET":"育平五街","SECT":" ","MAREA":" ","LANE":" ","ALLEY":" ","HOUSE_NO":"６８號十一樓之３","E_COORD97":164678.54000000001,"N_COORD97":2543541.0499999998,"ADDRESS":"育平五街６８號十一樓之３","OBJECTID":467210},"geometry":{"x":164678.5400000019,"y":2543541.0500000026}},{"attributes":{"ID":467236,"DIS_CODE":0,"TOWNNAME":"安平區","LI":"育平里","LIN":"5鄰","STREET":"育平五街","SECT":" ","MAREA":" ","LANE":" ","ALLEY":" ","HOUSE_NO":"６８號十一樓之５","E_COORD97":164678.54000000001,"N_COORD97":2543541.0499999998,"ADDRESS":"育平五街６８號十一樓之５","OBJECTID":467211},"geometry":{"x":164678.5400000019,"y":2543541.0500000026}},{"attributes":{"ID":467237,"DIS_CODE":0,"TOWNNAME":"安平區","LI":"育平里","LIN":"5鄰","STREET":"育平五街","SECT":" ","MAREA":" ","LANE":" ","ALLEY":" ","HOUSE_NO":"６８號十一樓之６","E_COORD97":164678.54000000001,"N_COORD97":2543541.0499999998,"ADDRESS":"育平五街６８號十一樓之６","OBJECTID":467212},"geometry":{"x":164678.5400000019,"y":2543541.0500000026}},{"attributes":{"ID":467238,"DIS_CODE":0,"TOWNNAME":"安平區","LI":"育平里","LIN":"5鄰","STREET":"育平五街","SECT":" ","MAREA":" ","LANE":" ","ALLEY":" ","HOUSE_NO":"６８號十二樓之１","E_COORD97":164678.54000000001,"N_COORD97":2543541.0499999998,"ADDRESS":"育平五街６８號十二樓之１","OBJECTID":467213},"geometry":{"x":164678.5400000019,"y":2543541.0500000026}},{"attributes":{"ID":467239,"DIS_CODE":0,"TOWNNAME":"安平區","LI":"育平里","LIN":"5鄰","STREET":"育平五街","SECT":" ","MAREA":" ","LANE":" ","ALLEY":" ","HOUSE_NO":"６８號十二樓之２","E_COORD97":164678.54000000001,"N_COORD97":2543541.0499999998,"ADDRESS":"育平五街６８號十二樓之２","OBJECTID":467214},"geometry":{"x":164678.5400000019,"y":2543541.0500000026}},{"attributes":{"ID":467240,"DIS_CODE":0,"TOWNNAME":"安平區","LI":"育平里","LIN":"5鄰","STREET":"育平五街","SECT":" ","MAREA":" ","LANE":" ","ALLEY":" ","HOUSE_NO":"６８號十二樓之３","E_COORD97":164678.54000000001,"N_COORD97":2543541.0499999998,"ADDRESS":"育平五街６８號十二樓之３","OBJECTID":467215},"geometry":{"x":164678.5400000019,"y":2543541.0500000026}},{"attributes":{"ID":467241,"DIS_CODE":0,"TOWNNAME":"安平區","LI":"育平里","LIN":"5鄰","STREET":"育平五街","SECT":" ","MAREA":" ","LANE":" ","ALLEY":" ","HOUSE_NO":"６８號十二樓之５","E_COORD97":164678.54000000001,"N_COORD97":2543541.0499999998,"ADDRESS":"育平五街６８號十二樓之５","OBJECTID":467216},"geometry":{"x":164678.5400000019,"y":2543541.0500000026}},{"attributes":{"ID":467242,"DIS_CODE":0,"TOWNNAME":"安平區","LI":"育平里","LIN":"5鄰","STREET":"育平五街","SECT":" ","MAREA":" ","LANE":" ","ALLEY":" ","HOUSE_NO":"６８號十二樓之６","E_COORD97":164678.54000000001,"N_COORD97":2543541.0499999998,"ADDRESS":"育平五街６８號十二樓之６","OBJECTID":467217},"geometry":{"x":164678.5400000019,"y":2543541.0500000026}},{"attributes":{"ID":467243,"DIS_CODE":0,"TOWNNAME":"安平區","LI":"育平里","LIN":"5鄰","STREET":"育平五街","SECT":" ","MAREA":" ","LANE":" ","ALLEY":" ","HOUSE_NO":"６８號十三樓之１","E_COORD97":164678.54000000001,"N_COORD97":2543541.0499999998,"ADDRESS":"育平五街６８號十三樓之１","OBJECTID":467218},"geometry":{"x":164678.5400000019,"y":2543541.0500000026}},{"attributes":{"ID":467244,"DIS_CODE":0,"TOWNNAME":"安平區","LI":"育平里","LIN":"5鄰","STREET":"育平五街","SECT":" ","MAREA":" ","LANE":" ","ALLEY":" ","HOUSE_NO":"６８號十三樓之２","E_COORD97":164678.54000000001,"N_COORD97":2543541.0499999998,"ADDRESS":"育平五街６８號十三樓之２","OBJECTID":467219},"geometry":{"x":164678.5400000019,"y":2543541.0500000026}},{"attributes":{"ID":467245,"DIS_CODE":0,"TOWNNAME":"安平區","LI":"育平里","LIN":"5鄰","STREET":"育平五街","SECT":" ","MAREA":" ","LANE":" ","ALLEY":" ","HOUSE_NO":"６８號十三樓之３","E_COORD97":164678.54000000001,"N_COORD97":2543541.0499999998,"ADDRESS":"育平五街６８號十三樓之３","OBJECTID":467220},"geometry":{"x":164678.5400000019,"y":2543541.0500000026}},{"attributes":{"ID":467246,"DIS_CODE":0,"TOWNNAME":"安平區","LI":"育平里","LIN":"5鄰","STREET":"育平五街","SECT":" ","MAREA":" ","LANE":" ","ALLEY":" ","HOUSE_NO":"６８號十三樓之５","E_COORD97":164678.54000000001,"N_COORD97":2543541.0499999998,"ADDRESS":"育平五街６８號十三樓之５","OBJECTID":467221},"geometry":{"x":164678.5400000019,"y":2543541.0500000026}},{"attributes":{"ID":467247,"DIS_CODE":0,"TOWNNAME":"安平區","LI":"育平里","LIN":"5鄰","STREET":"育平五街","SECT":" ","MAREA":" ","LANE":" ","ALLEY":" ","HOUSE_NO":"６８號十三樓之６","E_COORD97":164678.54000000001,"N_COORD97":2543541.0499999998,"ADDRESS":"育平五街６８號十三樓之６","OBJECTID":467222},"geometry":{"x":164678.5400000019,"y":2543541.0500000026}},{"attributes":{"ID":467248,"DIS_CODE":0,"TOWNNAME":"安平區","LI":"育平里","LIN":"5鄰","STREET":"育平五街","SECT":" ","MAREA":" ","LANE":" ","ALLEY":" ","HOUSE_NO":"６８號十四樓之１","E_COORD97":164678.54000000001,"N_COORD97":2543541.0499999998,"ADDRESS":"育平五街６８號十四樓之１","OBJECTID":467223},"geometry":{"x":164678.5400000019,"y":2543541.0500000026}},{"attributes":{"ID":467249,"DIS_CODE":0,"TOWNNAME":"安平區","LI":"育平里","LIN":"5鄰","STREET":"育平五街","SECT":" ","MAREA":" ","LANE":" ","ALLEY":" ","HOUSE_NO":"６８號十四樓之２","E_COORD97":164678.54000000001,"N_COORD97":2543541.0499999998,"ADDRESS":"育平五街６８號十四樓之２","OBJECTID":467224},"geometry":{"x":164678.5400000019,"y":2543541.0500000026}},{"attributes":{"ID":467250,"DIS_CODE":0,"TOWNNAME":"安平區","LI":"育平里","LIN":"5鄰","STREET":"育平五街","SECT":" ","MAREA":" ","LANE":" ","ALLEY":" ","HOUSE_NO":"６８號十四樓之３","E_COORD97":164678.54000000001,"N_COORD97":2543541.0499999998,"ADDRESS":"育平五街６８號十四樓之３","OBJECTID":467225},"geometry":{"x":164678.5400000019,"y":2543541.0500000026}},{"attributes":{"ID":467251,"DIS_CODE":0,"TOWNNAME":"安平區","LI":"育平里","LIN":"5鄰","STREET":"育平五街","SECT":" ","MAREA":" ","LANE":" ","ALLEY":" ","HOUSE_NO":"６８號十四樓之５","E_COORD97":164678.54000000001,"N_COORD97":2543541.0499999998,"ADDRESS":"育平五街６８號十四樓之５","OBJECTID":467226},"geometry":{"x":164678.5400000019,"y":2543541.0500000026}},{"attributes":{"ID":467252,"DIS_CODE":0,"TOWNNAME":"安平區","LI":"育平里","LIN":"5鄰","STREET":"育平五街","SECT":" ","MAREA":" ","LANE":" ","ALLEY":" ","HOUSE_NO":"６８號十四樓之６","E_COORD97":164678.54000000001,"N_COORD97":2543541.0499999998,"ADDRESS":"育平五街６８號十四樓之６","OBJECTID":467227},"geometry":{"x":164678.5400000019,"y":2543541.0500000026}},{"attributes":{"ID":467253,"DIS_CODE":0,"TOWNNAME":"安平區","LI":"育平里","LIN":"5鄰","STREET":"育平五街","SECT":" ","MAREA":" ","LANE":" ","ALLEY":" ","HOUSE_NO":"６８號十五樓之１","E_COORD97":164678.54000000001,"N_COORD97":2543541.0499999998,"ADDRESS":"育平五街６８號十五樓之１","OBJECTID":467228},"geometry":{"x":164678.5400000019,"y":2543541.0500000026}},{"attributes":{"ID":467254,"DIS_CODE":0,"TOWNNAME":"安平區","LI":"育平里","LIN":"5鄰","STREET":"育平五街","SECT":" ","MAREA":" ","LANE":" ","ALLEY":" ","HOUSE_NO":"６８號十五樓之２","E_COORD97":164678.54000000001,"N_COORD97":2543541.0499999998,"ADDRESS":"育平五街６８號十五樓之２","OBJECTID":467229},"geometry":{"x":164678.5400000019,"y":2543541.0500000026}},{"attributes":{"ID":467255,"DIS_CODE":0,"TOWNNAME":"安平區","LI":"育平里","LIN":"5鄰","STREET":"育平五街","SECT":" ","MAREA":" ","LANE":" ","ALLEY":" ","HOUSE_NO":"６８號十五樓之３","E_COORD97":164678.54000000001,"N_COORD97":2543541.0499999998,"ADDRESS":"育平五街６８號十五樓之３","OBJECTID":467230},"geometry":{"x":164678.5400000019,"y":2543541.0500000026}},{"attributes":{"ID":467256,"DIS_CODE":0,"TOWNNAME":"安平區","LI":"育平里","LIN":"5鄰","STREET":"育平五街","SECT":" ","MAREA":" ","LANE":" ","ALLEY":" ","HOUSE_NO":"６８號十五樓之５","E_COORD97":164678.54000000001,"N_COORD97":2543541.0499999998,"ADDRESS":"育平五街６８號十五樓之５","OBJECTID":467231},"geometry":{"x":164678.5400000019,"y":2543541.0500000026}},{"attributes":{"ID":467257,"DIS_CODE":0,"TOWNNAME":"安平區","LI":"育平里","LIN":"5鄰","STREET":"育平五街","SECT":" ","MAREA":" ","LANE":" ","ALLEY":" ","HOUSE_NO":"６８號十五樓之６","E_COORD97":164678.54000000001,"N_COORD97":2543541.0499999998,"ADDRESS":"育平五街６８號十五樓之６","OBJECTID":467232},"geometry":{"x":164678.5400000019,"y":2543541.0500000026}},{"attributes":{"ID":467258,"DIS_CODE":0,"TOWNNAME":"安平區","LI":"育平里","LIN":"5鄰","STREET":"育平五街","SECT":" ","MAREA":" ","LANE":" ","ALLEY":" ","HOUSE_NO":"６８號十六樓之１","E_COORD97":164678.54000000001,"N_COORD97":2543541.0499999998,"ADDRESS":"育平五街６８號十六樓之１","OBJECTID":467233},"geometry":{"x":164678.5400000019,"y":2543541.0500000026}},{"attributes":{"ID":467259,"DIS_CODE":0,"TOWNNAME":"安平區","LI":"育平里","LIN":"5鄰","STREET":"育平五街","SECT":" ","MAREA":" ","LANE":" ","ALLEY":" ","HOUSE_NO":"６８號十六樓之２","E_COORD97":164678.54000000001,"N_COORD97":2543541.0499999998,"ADDRESS":"育平五街６８號十六樓之２","OBJECTID":467234},"geometry":{"x":164678.5400000019,"y":2543541.0500000026}},{"attributes":{"ID":467260,"DIS_CODE":0,"TOWNNAME":"安平區","LI":"育平里","LIN":"5鄰","STREET":"育平五街","SECT":" ","MAREA":" ","LANE":" ","ALLEY":" ","HOUSE_NO":"６８號十六樓之３","E_COORD97":164678.54000000001,"N_COORD97":2543541.0499999998,"ADDRESS":"育平五街６８號十六樓之３","OBJECTID":467235},"geometry":{"x":164678.5400000019,"y":2543541.0500000026}},{"attributes":{"ID":467261,"DIS_CODE":0,"TOWNNAME":"安平區","LI":"育平里","LIN":"5鄰","STREET":"育平五街","SECT":" ","MAREA":" ","LANE":" ","ALLEY":" ","HOUSE_NO":"６８號十六樓之５","E_COORD97":164678.54000000001,"N_COORD97":2543541.0499999998,"ADDRESS":"育平五街６８號十六樓之５","OBJECTID":467236},"geometry":{"x":164678.5400000019,"y":2543541.0500000026}},{"attributes":{"ID":467262,"DIS_CODE":0,"TOWNNAME":"安平區","LI":"育平里","LIN":"5鄰","STREET":"育平五街","SECT":" ","MAREA":" ","LANE":" ","ALLEY":" ","HOUSE_NO":"６８號十六樓之６","E_COORD97":164678.54000000001,"N_COORD97":2543541.0499999998,"ADDRESS":"育平五街６８號十六樓之６","OBJECTID":467237},"geometry":{"x":164678.5400000019,"y":2543541.0500000026}},{"attributes":{"ID":467263,"DIS_CODE":0,"TOWNNAME":"安平區","LI":"育平里","LIN":"5鄰","STREET":"育平五街","SECT":" ","MAREA":" ","LANE":" ","ALLEY":" ","HOUSE_NO":"６８號十七樓之１","E_COORD97":164678.54000000001,"N_COORD97":2543541.0499999998,"ADDRESS":"育平五街６８號十七樓之１","OBJECTID":467238},"geometry":{"x":164678.5400000019,"y":2543541.0500000026}},{"attributes":{"ID":467264,"DIS_CODE":0,"TOWNNAME":"安平區","LI":"育平里","LIN":"5鄰","STREET":"育平五街","SECT":" ","MAREA":" ","LANE":" ","ALLEY":" ","HOUSE_NO":"６８號十七樓之２","E_COORD97":164678.54000000001,"N_COORD97":2543541.0499999998,"ADDRESS":"育平五街６８號十七樓之２","OBJECTID":467239},"geometry":{"x":164678.5400000019,"y":2543541.0500000026}},{"attributes":{"ID":467265,"DIS_CODE":0,"TOWNNAME":"安平區","LI":"育平里","LIN":"5鄰","STREET":"育平五街","SECT":" ","MAREA":" ","LANE":" ","ALLEY":" ","HOUSE_NO":"６８號十七樓之３","E_COORD97":164678.54000000001,"N_COORD97":2543541.0499999998,"ADDRESS":"育平五街６８號十七樓之３","OBJECTID":467240},"geometry":{"x":164678.5400000019,"y":2543541.0500000026}},{"attributes":{"ID":467266,"DIS_CODE":0,"TOWNNAME":"安平區","LI":"育平里","LIN":"5鄰","STREET":"育平五街","SECT":" ","MAREA":" ","LANE":" ","ALLEY":" ","HOUSE_NO":"６８號十七樓之５","E_COORD97":164678.54000000001,"N_COORD97":2543541.0499999998,"ADDRESS":"育平五街６８號十七樓之５","OBJECTID":467241},"geometry":{"x":164678.5400000019,"y":2543541.0500000026}},{"attributes":{"ID":467267,"DIS_CODE":0,"TOWNNAME":"安平區","LI":"育平里","LIN":"5鄰","STREET":"育平五街","SECT":" ","MAREA":" ","LANE":" ","ALLEY":" ","HOUSE_NO":"６８號十七樓之６","E_COORD97":164678.54000000001,"N_COORD97":2543541.0499999998,"ADDRESS":"育平五街６８號十七樓之６","OBJECTID":467242},"geometry":{"x":164678.5400000019,"y":2543541.0500000026}},{"attributes":{"ID":467268,"DIS_CODE":0,"TOWNNAME":"安平區","LI":"育平里","LIN":"5鄰","STREET":"育平五街","SECT":" ","MAREA":" ","LANE":" ","ALLEY":" ","HOUSE_NO":"６８號十八樓之１","E_COORD97":164678.54000000001,"N_COORD97":2543541.0499999998,"ADDRESS":"育平五街６８號十八樓之１","OBJECTID":467243},"geometry":{"x":164678.5400000019,"y":2543541.0500000026}},{"attributes":{"ID":467269,"DIS_CODE":0,"TOWNNAME":"安平區","LI":"育平里","LIN":"5鄰","STREET":"育平五街","SECT":" ","MAREA":" ","LANE":" ","ALLEY":" ","HOUSE_NO":"６８號十八樓之２","E_COORD97":164678.54000000001,"N_COORD97":2543541.0499999998,"ADDRESS":"育平五街６８號十八樓之２","OBJECTID":467244},"geometry":{"x":164678.5400000019,"y":2543541.0500000026}},{"attributes":{"ID":467270,"DIS_CODE":0,"TOWNNAME":"安平區","LI":"育平里","LIN":"5鄰","STREET":"育平五街","SECT":" ","MAREA":" ","LANE":" ","ALLEY":" ","HOUSE_NO":"６８號十八樓之３","E_COORD97":164678.54000000001,"N_COORD97":2543541.0499999998,"ADDRESS":"育平五街６８號十八樓之３","OBJECTID":467245},"geometry":{"x":164678.5400000019,"y":2543541.0500000026}},{"attributes":{"ID":467271,"DIS_CODE":0,"TOWNNAME":"安平區","LI":"育平里","LIN":"5鄰","STREET":"育平五街","SECT":" ","MAREA":" ","LANE":" ","ALLEY":" ","HOUSE_NO":"６８號十八樓之５","E_COORD97":164678.54000000001,"N_COORD97":2543541.0499999998,"ADDRESS":"育平五街６８號十八樓之５","OBJECTID":467246},"geometry":{"x":164678.5400000019,"y":2543541.0500000026}},{"attributes":{"ID":467272,"DIS_CODE":0,"TOWNNAME":"安平區","LI":"育平里","LIN":"5鄰","STREET":"育平五街","SECT":" ","MAREA":" ","LANE":" ","ALLEY":" ","HOUSE_NO":"６８號十八樓之６","E_COORD97":164678.54000000001,"N_COORD97":2543541.0499999998,"ADDRESS":"育平五街６８號十八樓之６","OBJECTID":467247},"geometry":{"x":164678.5400000019,"y":2543541.0500000026}},{"attributes":{"ID":467273,"DIS_CODE":0,"TOWNNAME":"安平區","LI":"育平里","LIN":"5鄰","STREET":"育平五街","SECT":" ","MAREA":" ","LANE":" ","ALLEY":" ","HOUSE_NO":"６８號十九樓之１","E_COORD97":164678.54000000001,"N_COORD97":2543541.0499999998,"ADDRESS":"育平五街６８號十九樓之１","OBJECTID":467248},"geometry":{"x":164678.5400000019,"y":2543541.0500000026}},{"attributes":{"ID":467274,"DIS_CODE":0,"TOWNNAME":"安平區","LI":"育平里","LIN":"5鄰","STREET":"育平五街","SECT":" ","MAREA":" ","LANE":" ","ALLEY":" ","HOUSE_NO":"６８號十九樓之２","E_COORD97":164678.54000000001,"N_COORD97":2543541.0499999998,"ADDRESS":"育平五街６８號十九樓之２","OBJECTID":467249},"geometry":{"x":164678.5400000019,"y":2543541.0500000026}},{"attributes":{"ID":467275,"DIS_CODE":0,"TOWNNAME":"安平區","LI":"育平里","LIN":"5鄰","STREET":"育平五街","SECT":" ","MAREA":" ","LANE":" ","ALLEY":" ","HOUSE_NO":"６８號十九樓之３","E_COORD97":164678.54000000001,"N_COORD97":2543541.0499999998,"ADDRESS":"育平五街６８號十九樓之３","OBJECTID":467250},"geometry":{"x":164678.5400000019,"y":2543541.0500000026}},{"attributes":{"ID":467276,"DIS_CODE":0,"TOWNNAME":"安平區","LI":"育平里","LIN":"5鄰","STREET":"育平五街","SECT":" ","MAREA":" ","LANE":" ","ALLEY":" ","HOUSE_NO":"６８號十九樓之５","E_COORD97":164678.54000000001,"N_COORD97":2543541.0499999998,"ADDRESS":"育平五街６８號十九樓之５","OBJECTID":467251},"geometry":{"x":164678.5400000019,"y":2543541.0500000026}},{"attributes":{"ID":467277,"DIS_CODE":0,"TOWNNAME":"安平區","LI":"育平里","LIN":"5鄰","STREET":"育平五街","SECT":" ","MAREA":" ","LANE":" ","ALLEY":" ","HOUSE_NO":"６８號十九樓之６","E_COORD97":164678.54000000001,"N_COORD97":2543541.0499999998,"ADDRESS":"育平五街６８號十九樓之６","OBJECTID":467252},"geometry":{"x":164678.5400000019,"y":2543541.0500000026}},{"attributes":{"ID":467278,"DIS_CODE":0,"TOWNNAME":"安平區","LI":"育平里","LIN":"5鄰","STREET":"育平五街","SECT":" ","MAREA":" ","LANE":" ","ALLEY":" ","HOUSE_NO":"６８號二十樓之１","E_COORD97":164678.54000000001,"N_COORD97":2543541.0499999998,"ADDRESS":"育平五街６８號二十樓之１","OBJECTID":467253},"geometry":{"x":164678.5400000019,"y":2543541.0500000026}},{"attributes":{"ID":467279,"DIS_CODE":0,"TOWNNAME":"安平區","LI":"育平里","LIN":"5鄰","STREET":"育平五街","SECT":" ","MAREA":" ","LANE":" ","ALLEY":" ","HOUSE_NO":"６８號二十樓之２","E_COORD97":164678.54000000001,"N_COORD97":2543541.0499999998,"ADDRESS":"育平五街６８號二十樓之２","OBJECTID":467254},"geometry":{"x":164678.5400000019,"y":2543541.0500000026}},{"attributes":{"ID":467280,"DIS_CODE":0,"TOWNNAME":"安平區","LI":"育平里","LIN":"5鄰","STREET":"育平五街","SECT":" ","MAREA":" ","LANE":" ","ALLEY":" ","HOUSE_NO":"６８號二十樓之３","E_COORD97":164678.54000000001,"N_COORD97":2543541.0499999998,"ADDRESS":"育平五街６８號二十樓之３","OBJECTID":467255},"geometry":{"x":164678.5400000019,"y":2543541.0500000026}},{"attributes":{"ID":467281,"DIS_CODE":0,"TOWNNAME":"安平區","LI":"育平里","LIN":"5鄰","STREET":"育平五街","SECT":" ","MAREA":" ","LANE":" ","ALLEY":" ","HOUSE_NO":"６８號二十樓之５","E_COORD97":164678.54000000001,"N_COORD97":2543541.0499999998,"ADDRESS":"育平五街６８號二十樓之５","OBJECTID":467256},"geometry":{"x":164678.5400000019,"y":2543541.0500000026}},{"attributes":{"ID":467282,"DIS_CODE":0,"TOWNNAME":"安平區","LI":"育平里","LIN":"5鄰","STREET":"育平五街","SECT":" ","MAREA":" ","LANE":" ","ALLEY":" ","HOUSE_NO":"６８號二十樓之６","E_COORD97":164678.54000000001,"N_COORD97":2543541.0499999998,"ADDRESS":"育平五街６８號二十樓之６","OBJECTID":467257},"geometry":{"x":164678.5400000019,"y":2543541.0500000026}},{"attributes":{"ID":467283,"DIS_CODE":0,"TOWNNAME":"新營區","LI":"好平里","LIN":"5鄰","STREET":"新進路","SECT":"二段","MAREA":" ","LANE":" ","ALLEY":" ","HOUSE_NO":"１０９號三樓","E_COORD97":179427.64999999999,"N_COORD97":2577699.4700000002,"ADDRESS":"新進路二段１０９號三樓","OBJECTID":467258},"geometry":{"x":179427.65000000037,"y":2577699.4700000025}},{"attributes":{"ID":467284,"DIS_CODE":0,"TOWNNAME":"新營區","LI":"好平里","LIN":"5鄰","STREET":"新進路","SECT":"二段","MAREA":" ","LANE":" ","ALLEY":" ","HOUSE_NO":"１０９號六樓","E_COORD97":179427.64999999999,"N_COORD97":2577699.4700000002,"ADDRESS":"新進路二段１０９號六樓","OBJECTID":467259},"geometry":{"x":179427.65000000037,"y":2577699.4700000025}},{"attributes":{"ID":467285,"DIS_CODE":0,"TOWNNAME":"新營區","LI":"民權里","LIN":"5鄰","STREET":"中正路","SECT":" ","MAREA":" ","LANE":" ","ALLEY":" ","HOUSE_NO":"１５號五樓","E_COORD97":180027.76000000001,"N_COORD97":2578540.4900000002,"ADDRESS":"中正路１５號五樓","OBJECTID":467260},"geometry":{"x":180027.75999999978,"y":2578540.4900000002}},{"attributes":{"ID":467286,"DIS_CODE":0,"TOWNNAME":"新營區","LI":"好平里","LIN":"5鄰","STREET":"新進路","SECT":"二段","MAREA":" ","LANE":" ","ALLEY":" ","HOUSE_NO":"１０９號五樓","E_COORD97":179427.64999999999,"N_COORD97":2577699.4700000002,"ADDRESS":"新進路二段１０９號五樓","OBJECTID":467261},"geometry":{"x":179427.65000000037,"y":2577699.4700000025}},{"attributes":{"ID":467287,"DIS_CODE":0,"TOWNNAME":"北區","LI":"玉皇里","LIN":"5鄰","STREET":"崇安街","SECT":" ","MAREA":" ","LANE":" ","ALLEY":" ","HOUSE_NO":"１０１號二樓","E_COORD97":168766.22,"N_COORD97":2544592.5699999998,"ADDRESS":"崇安街１０１號二樓","OBJECTID":467262},"geometry":{"x":168766.22000000067,"y":2544592.5700000003}},{"attributes":{"ID":467288,"DIS_CODE":0,"TOWNNAME":"北區","LI":"玉皇里","LIN":"5鄰","STREET":"崇安街","SECT":" ","MAREA":" ","LANE":" ","ALLEY":" ","HOUSE_NO":"１０１號三樓","E_COORD97":168766.22,"N_COORD97":2544592.5699999998,"ADDRESS":"崇安街１０１號三樓","OBJECTID":467263},"geometry":{"x":168766.22000000067,"y":2544592.5700000003}},{"attributes":{"ID":467289,"DIS_CODE":0,"TOWNNAME":"北區","LI":"玉皇里","LIN":"5鄰","STREET":"崇安街","SECT":" ","MAREA":" ","LANE":" ","ALLEY":" ","HOUSE_NO":"１０１號五樓","E_COORD97":168766.22,"N_COORD97":2544592.5699999998,"ADDRESS":"崇安街１０１號五樓","OBJECTID":467264},"geometry":{"x":168766.22000000067,"y":2544592.5700000003}},{"attributes":{"ID":467290,"DIS_CODE":0,"TOWNNAME":"北區","LI":"玉皇里","LIN":"5鄰","STREET":"崇安街","SECT":" ","MAREA":" ","LANE":" ","ALLEY":" ","HOUSE_NO":"１０１號四樓","E_COORD97":168766.22,"N_COORD97":2544592.5699999998,"ADDRESS":"崇安街１０１號四樓","OBJECTID":467265},"geometry":{"x":168766.22000000067,"y":2544592.5700000003}},{"attributes":{"ID":467291,"DIS_CODE":0,"TOWNNAME":"北區","LI":"勝安里","LIN":"5鄰","STREET":"開元路","SECT":" ","MAREA":" ","LANE":" ","ALLEY":" ","HOUSE_NO":"１４７號七樓","E_COORD97":169896.14000000001,"N_COORD97":2545268.9399999999,"ADDRESS":"開元路１４７號七樓","OBJECTID":467266},"geometry":{"x":169896.1400000006,"y":2545268.9400000013}},{"attributes":{"ID":467292,"DIS_CODE":0,"TOWNNAME":"北區","LI":"勝安里","LIN":"5鄰","STREET":"開元路","SECT":" ","MAREA":" ","LANE":" ","ALLEY":" ","HOUSE_NO":"１４７號二樓","E_COORD97":169896.14000000001,"N_COORD97":2545268.9399999999,"ADDRESS":"開元路１４７號二樓","OBJECTID":467267},"geometry":{"x":169896.1400000006,"y":2545268.9400000013}},{"attributes":{"ID":467293,"DIS_CODE":0,"TOWNNAME":"北區","LI":"勝安里","LIN":"5鄰","STREET":"開元路","SECT":" ","MAREA":" ","LANE":" ","ALLEY":" ","HOUSE_NO":"１４７號三樓之１","E_COORD97":169896.14000000001,"N_COORD97":2545268.9399999999,"ADDRESS":"開元路１４７號三樓之１","OBJECTID":467268},"geometry":{"x":169896.1400000006,"y":2545268.9400000013}},{"attributes":{"ID":467294,"DIS_CODE":0,"TOWNNAME":"北區","LI":"勝安里","LIN":"5鄰","STREET":"開元路","SECT":" ","MAREA":" ","LANE":" ","ALLEY":" ","HOUSE_NO":"１４７號三樓之２","E_COORD97":169896.14000000001,"N_COORD97":2545268.9399999999,"ADDRESS":"開元路１４７號三樓之２","OBJECTID":467269},"geometry":{"x":169896.1400000006,"y":2545268.9400000013}},{"attributes":{"ID":467295,"DIS_CODE":0,"TOWNNAME":"北區","LI":"勝安里","LIN":"5鄰","STREET":"開元路","SECT":" ","MAREA":" ","LANE":" ","ALLEY":" ","HOUSE_NO":"１４７號五樓","E_COORD97":169896.14000000001,"N_COORD97":2545268.9399999999,"ADDRESS":"開元路１４７號五樓","OBJECTID":467270},"geometry":{"x":169896.1400000006,"y":2545268.9400000013}},{"attributes":{"ID":467296,"DIS_CODE":0,"TOWNNAME":"北區","LI":"勝安里","LIN":"5鄰","STREET":"開元路","SECT":" ","MAREA":" ","LANE":" ","ALLEY":" ","HOUSE_NO":"１４７號六樓","E_COORD97":169896.14000000001,"N_COORD97":2545268.9399999999,"ADDRESS":"開元路１４７號六樓","OBJECTID":467271},"geometry":{"x":169896.1400000006,"y":2545268.9400000013}},{"attributes":{"ID":467297,"DIS_CODE":0,"TOWNNAME":"北區","LI":"勝安里","LIN":"5鄰","STREET":"開元路","SECT":" ","MAREA":" ","LANE":" ","ALLEY":" ","HOUSE_NO":"１４７號四樓","E_COORD97":169896.14000000001,"N_COORD97":2545268.9399999999,"ADDRESS":"開元路１４７號四樓","OBJECTID":467272},"geometry":{"x":169896.1400000006,"y":2545268.9400000013}},{"attributes":{"ID":467298,"DIS_CODE":0,"TOWNNAME":"安平區","LI":"平安里","LIN":"5鄰","STREET":"安平路","SECT":" ","MAREA":" ","LANE":" ","ALLEY":" ","HOUSE_NO":"３０４號一樓之１","E_COORD97":165723.59,"N_COORD97":2544371.6400000001,"ADDRESS":"安平路３０４號一樓之１","OBJECTID":467273},"geometry":{"x":165723.58999999985,"y":2544371.6400000006}},{"attributes":{"ID":467299,"DIS_CODE":0,"TOWNNAME":"安平區","LI":"平安里","LIN":"5鄰","STREET":"安平路","SECT":" ","MAREA":" ","LANE":" ","ALLEY":" ","HOUSE_NO":"３０４號一樓之２","E_COORD97":165723.59,"N_COORD97":2544371.6400000001,"ADDRESS":"安平路３０４號一樓之２","OBJECTID":467274},"geometry":{"x":165723.58999999985,"y":2544371.6400000006}},{"attributes":{"ID":467300,"DIS_CODE":0,"TOWNNAME":"安平區","LI":"平安里","LIN":"5鄰","STREET":"安平路","SECT":" ","MAREA":" ","LANE":" ","ALLEY":" ","HOUSE_NO":"３０４號一樓之３","E_COORD97":165723.59,"N_COORD97":2544371.6400000001,"ADDRESS":"安平路３０４號一樓之３","OBJECTID":467275},"geometry":{"x":165723.58999999985,"y":2544371.6400000006}},{"attributes":{"ID":467301,"DIS_CODE":0,"TOWNNAME":"安平區","LI":"平安里","LIN":"5鄰","STREET":"安平路","SECT":" ","MAREA":" ","LANE":" ","ALLEY":" ","HOUSE_NO":"３０４號一樓之４","E_COORD97":165723.59,"N_COORD97":2544371.6400000001,"ADDRESS":"安平路３０４號一樓之４","OBJECTID":467276},"geometry":{"x":165723.58999999985,"y":2544371.6400000006}},{"attributes":{"ID":467302,"DIS_CODE":0,"TOWNNAME":"安平區","LI":"平安里","LIN":"5鄰","STREET":"安平路","SECT":" ","MAREA":" ","LANE":" ","ALLEY":" ","HOUSE_NO":"３０４號一樓之５","E_COORD97":165723.59,"N_COORD97":2544371.6400000001,"ADDRESS":"安平路３０４號一樓之５","OBJECTID":467277},"geometry":{"x":165723.58999999985,"y":2544371.6400000006}},{"attributes":{"ID":467303,"DIS_CODE":0,"TOWNNAME":"安平區","LI":"平安里","LIN":"5鄰","STREET":"安平路","SECT":" ","MAREA":" ","LANE":" ","ALLEY":" ","HOUSE_NO":"３０４號一樓之６","E_COORD97":165723.59,"N_COORD97":2544371.6400000001,"ADDRESS":"安平路３０４號一樓之６","OBJECTID":467278},"geometry":{"x":165723.58999999985,"y":2544371.6400000006}},{"attributes":{"ID":467304,"DIS_CODE":0,"TOWNNAME":"安平區","LI":"平安里","LIN":"5鄰","STREET":"安平路","SECT":" ","MAREA":" ","LANE":" ","ALLEY":" ","HOUSE_NO":"３０４號一樓之７","E_COORD97":165723.59,"N_COORD97":2544371.6400000001,"ADDRESS":"安平路３０４號一樓之７","OBJECTID":467279},"geometry":{"x":165723.58999999985,"y":2544371.6400000006}},{"attributes":{"ID":467305,"DIS_CODE":0,"TOWNNAME":"安平區","LI":"平安里","LIN":"5鄰","STREET":"安平路","SECT":" ","MAREA":" ","LANE":" ","ALLEY":" ","HOUSE_NO":"３０４號一樓之８","E_COORD97":165723.59,"N_COORD97":2544371.6400000001,"ADDRESS":"安平路３０４號一樓之８","OBJECTID":467280},"geometry":{"x":165723.58999999985,"y":2544371.6400000006}},{"attributes":{"ID":467306,"DIS_CODE":0,"TOWNNAME":"安平區","LI":"平安里","LIN":"5鄰","STREET":"安平路","SECT":" ","MAREA":" ","LANE":" ","ALLEY":" ","HOUSE_NO":"３０４號一樓之９","E_COORD97":165723.59,"N_COORD97":2544371.6400000001,"ADDRESS":"安平路３０４號一樓之９","OBJECTID":467281},"geometry":{"x":165723.58999999985,"y":2544371.6400000006}},{"attributes":{"ID":467307,"DIS_CODE":0,"TOWNNAME":"安平區","LI":"平安里","LIN":"5鄰","STREET":"安平路","SECT":" ","MAREA":" ","LANE":" ","ALLEY":" ","HOUSE_NO":"３０４號七樓之１","E_COORD97":165723.59,"N_COORD97":2544371.6400000001,"ADDRESS":"安平路３０４號七樓之１","OBJECTID":467282},"geometry":{"x":165723.58999999985,"y":2544371.6400000006}},{"attributes":{"ID":467308,"DIS_CODE":0,"TOWNNAME":"安平區","LI":"平安里","LIN":"5鄰","STREET":"安平路","SECT":" ","MAREA":" ","LANE":" ","ALLEY":" ","HOUSE_NO":"３０４號七樓之１０","E_COORD97":165723.59,"N_COORD97":2544371.6400000001,"ADDRESS":"安平路３０４號七樓之１０","OBJECTID":467283},"geometry":{"x":165723.58999999985,"y":2544371.6400000006}},{"attributes":{"ID":467309,"DIS_CODE":0,"TOWNNAME":"安平區","LI":"平安里","LIN":"5鄰","STREET":"安平路","SECT":" ","MAREA":" ","LANE":" ","ALLEY":" ","HOUSE_NO":"３０４號七樓之１１","E_COORD97":165723.59,"N_COORD97":2544371.6400000001,"ADDRESS":"安平路３０４號七樓之１１","OBJECTID":467284},"geometry":{"x":165723.58999999985,"y":2544371.6400000006}},{"attributes":{"ID":467310,"DIS_CODE":0,"TOWNNAME":"安平區","LI":"平安里","LIN":"5鄰","STREET":"安平路","SECT":" ","MAREA":" ","LANE":" ","ALLEY":" ","HOUSE_NO":"３０４號七樓之１２","E_COORD97":165723.59,"N_COORD97":2544371.6400000001,"ADDRESS":"安平路３０４號七樓之１２","OBJECTID":467285},"geometry":{"x":165723.58999999985,"y":2544371.6400000006}},{"attributes":{"ID":467311,"DIS_CODE":0,"TOWNNAME":"安平區","LI":"平安里","LIN":"5鄰","STREET":"安平路","SECT":" ","MAREA":" ","LANE":" ","ALLEY":" ","HOUSE_NO":"３０４號七樓之１３","E_COORD97":165723.59,"N_COORD97":2544371.6400000001,"ADDRESS":"安平路３０４號七樓之１３","OBJECTID":467286},"geometry":{"x":165723.58999999985,"y":2544371.6400000006}},{"attributes":{"ID":467312,"DIS_CODE":0,"TOWNNAME":"安平區","LI":"平安里","LIN":"5鄰","STREET":"安平路","SECT":" ","MAREA":" ","LANE":" ","ALLEY":" ","HOUSE_NO":"３０４號七樓之１４","E_COORD97":165723.59,"N_COORD97":2544371.6400000001,"ADDRESS":"安平路３０４號七樓之１４","OBJECTID":467287},"geometry":{"x":165723.58999999985,"y":2544371.6400000006}},{"attributes":{"ID":467313,"DIS_CODE":0,"TOWNNAME":"安平區","LI":"平安里","LIN":"5鄰","STREET":"安平路","SECT":" ","MAREA":" ","LANE":" ","ALLEY":" ","HOUSE_NO":"３０４號七樓之１５","E_COORD97":165723.59,"N_COORD97":2544371.6400000001,"ADDRESS":"安平路３０４號七樓之１５","OBJECTID":467288},"geometry":{"x":165723.58999999985,"y":2544371.6400000006}},{"attributes":{"ID":467314,"DIS_CODE":0,"TOWNNAME":"安平區","LI":"平安里","LIN":"5鄰","STREET":"安平路","SECT":" ","MAREA":" ","LANE":" ","ALLEY":" ","HOUSE_NO":"３０４號七樓之２","E_COORD97":165723.59,"N_COORD97":2544371.6400000001,"ADDRESS":"安平路３０４號七樓之２","OBJECTID":467289},"geometry":{"x":165723.58999999985,"y":2544371.6400000006}},{"attributes":{"ID":467315,"DIS_CODE":0,"TOWNNAME":"安平區","LI":"平安里","LIN":"5鄰","STREET":"安平路","SECT":" ","MAREA":" ","LANE":" ","ALLEY":" ","HOUSE_NO":"３０４號七樓之３","E_COORD97":165723.59,"N_COORD97":2544371.6400000001,"ADDRESS":"安平路３０４號七樓之３","OBJECTID":467290},"geometry":{"x":165723.58999999985,"y":2544371.6400000006}},{"attributes":{"ID":467316,"DIS_CODE":0,"TOWNNAME":"安平區","LI":"平安里","LIN":"5鄰","STREET":"安平路","SECT":" ","MAREA":" ","LANE":" ","ALLEY":" ","HOUSE_NO":"３０４號七樓之４","E_COORD97":165723.59,"N_COORD97":2544371.6400000001,"ADDRESS":"安平路３０４號七樓之４","OBJECTID":467291},"geometry":{"x":165723.58999999985,"y":2544371.6400000006}},{"attributes":{"ID":467317,"DIS_CODE":0,"TOWNNAME":"安平區","LI":"平安里","LIN":"5鄰","STREET":"安平路","SECT":" ","MAREA":" ","LANE":" ","ALLEY":" ","HOUSE_NO":"３０４號五樓之１","E_COORD97":165723.59,"N_COORD97":2544371.6400000001,"ADDRESS":"安平路３０４號五樓之１","OBJECTID":467292},"geometry":{"x":165723.58999999985,"y":2544371.6400000006}},{"attributes":{"ID":467318,"DIS_CODE":0,"TOWNNAME":"安平區","LI":"平安里","LIN":"5鄰","STREET":"安平路","SECT":" ","MAREA":" ","LANE":" ","ALLEY":" ","HOUSE_NO":"３０４號七樓之５","E_COORD97":165723.59,"N_COORD97":2544371.6400000001,"ADDRESS":"安平路３０４號七樓之５","OBJECTID":467293},"geometry":{"x":165723.58999999985,"y":2544371.6400000006}},{"attributes":{"ID":467319,"DIS_CODE":0,"TOWNNAME":"安平區","LI":"平安里","LIN":"5鄰","STREET":"安平路","SECT":" ","MAREA":" ","LANE":" ","ALLEY":" ","HOUSE_NO":"３０４號七樓之６","E_COORD97":165723.59,"N_COORD97":2544371.6400000001,"ADDRESS":"安平路３０４號七樓之６","OBJECTID":467294},"geometry":{"x":165723.58999999985,"y":2544371.6400000006}},{"attributes":{"ID":467320,"DIS_CODE":0,"TOWNNAME":"安平區","LI":"平安里","LIN":"5鄰","STREET":"安平路","SECT":" ","MAREA":" ","LANE":" ","ALLEY":" ","HOUSE_NO":"３０４號七樓之７","E_COORD97":165723.59,"N_COORD97":2544371.6400000001,"ADDRESS":"安平路３０４號七樓之７","OBJECTID":467295},"geometry":{"x":165723.58999999985,"y":2544371.6400000006}},{"attributes":{"ID":467321,"DIS_CODE":0,"TOWNNAME":"安平區","LI":"平安里","LIN":"5鄰","STREET":"安平路","SECT":" ","MAREA":" ","LANE":" ","ALLEY":" ","HOUSE_NO":"３０４號七樓之８","E_COORD97":165723.59,"N_COORD97":2544371.6400000001,"ADDRESS":"安平路３０４號七樓之８","OBJECTID":467296},"geometry":{"x":165723.58999999985,"y":2544371.6400000006}},{"attributes":{"ID":467322,"DIS_CODE":0,"TOWNNAME":"安平區","LI":"平安里","LIN":"5鄰","STREET":"安平路","SECT":" ","MAREA":" ","LANE":" ","ALLEY":" ","HOUSE_NO":"３０４號七樓之９","E_COORD97":165723.59,"N_COORD97":2544371.6400000001,"ADDRESS":"安平路３０４號七樓之９","OBJECTID":467297},"geometry":{"x":165723.58999999985,"y":2544371.6400000006}},{"attributes":{"ID":467323,"DIS_CODE":0,"TOWNNAME":"安平區","LI":"平安里","LIN":"5鄰","STREET":"安平路","SECT":" ","MAREA":" ","LANE":" ","ALLEY":" ","HOUSE_NO":"３０４號二樓之１","E_COORD97":165723.59,"N_COORD97":2544371.6400000001,"ADDRESS":"安平路３０４號二樓之１","OBJECTID":467298},"geometry":{"x":165723.58999999985,"y":2544371.6400000006}},{"attributes":{"ID":467324,"DIS_CODE":0,"TOWNNAME":"安平區","LI":"平安里","LIN":"5鄰","STREET":"安平路","SECT":" ","MAREA":" ","LANE":" ","ALLEY":" ","HOUSE_NO":"３０４號二樓之２","E_COORD97":165723.59,"N_COORD97":2544371.6400000001,"ADDRESS":"安平路３０４號二樓之２","OBJECTID":467299},"geometry":{"x":165723.58999999985,"y":2544371.6400000006}},{"attributes":{"ID":467325,"DIS_CODE":0,"TOWNNAME":"安平區","LI":"平安里","LIN":"5鄰","STREET":"安平路","SECT":" ","MAREA":" ","LANE":" ","ALLEY":" ","HOUSE_NO":"３０４號二樓之３","E_COORD97":165723.59,"N_COORD97":2544371.6400000001,"ADDRESS":"安平路３０４號二樓之３","OBJECTID":467300},"geometry":{"x":165723.58999999985,"y":2544371.6400000006}},{"attributes":{"ID":467326,"DIS_CODE":0,"TOWNNAME":"安平區","LI":"平安里","LIN":"5鄰","STREET":"安平路","SECT":" ","MAREA":" ","LANE":" ","ALLEY":" ","HOUSE_NO":"３０４號三樓之１","E_COORD97":165723.59,"N_COORD97":2544371.6400000001,"ADDRESS":"安平路３０４號三樓之１","OBJECTID":467301},"geometry":{"x":165723.58999999985,"y":2544371.6400000006}},{"attributes":{"ID":467327,"DIS_CODE":0,"TOWNNAME":"安平區","LI":"平安里","LIN":"5鄰","STREET":"安平路","SECT":" ","MAREA":" ","LANE":" ","ALLEY":" ","HOUSE_NO":"３０４號三樓之１０","E_COORD97":165723.59,"N_COORD97":2544371.6400000001,"ADDRESS":"安平路３０４號三樓之１０","OBJECTID":467302},"geometry":{"x":165723.58999999985,"y":2544371.6400000006}},{"attributes":{"ID":467328,"DIS_CODE":0,"TOWNNAME":"安平區","LI":"平安里","LIN":"5鄰","STREET":"安平路","SECT":" ","MAREA":" ","LANE":" ","ALLEY":" ","HOUSE_NO":"３０４號三樓之１１","E_COORD97":165723.59,"N_COORD97":2544371.6400000001,"ADDRESS":"安平路３０４號三樓之１１","OBJECTID":467303},"geometry":{"x":165723.58999999985,"y":2544371.6400000006}},{"attributes":{"ID":467329,"DIS_CODE":0,"TOWNNAME":"安平區","LI":"平安里","LIN":"5鄰","STREET":"安平路","SECT":" ","MAREA":" ","LANE":" ","ALLEY":" ","HOUSE_NO":"３０４號三樓之１２","E_COORD97":165723.59,"N_COORD97":2544371.6400000001,"ADDRESS":"安平路３０４號三樓之１２","OBJECTID":467304},"geometry":{"x":165723.58999999985,"y":2544371.6400000006}},{"attributes":{"ID":467330,"DIS_CODE":0,"TOWNNAME":"安平區","LI":"平安里","LIN":"5鄰","STREET":"安平路","SECT":" ","MAREA":" ","LANE":" ","ALLEY":" ","HOUSE_NO":"３０４號三樓之１３","E_COORD97":165723.59,"N_COORD97":2544371.6400000001,"ADDRESS":"安平路３０４號三樓之１３","OBJECTID":467305},"geometry":{"x":165723.58999999985,"y":2544371.6400000006}},{"attributes":{"ID":467331,"DIS_CODE":0,"TOWNNAME":"安平區","LI":"平安里","LIN":"5鄰","STREET":"安平路","SECT":" ","MAREA":" ","LANE":" ","ALLEY":" ","HOUSE_NO":"３０４號三樓之１４","E_COORD97":165723.59,"N_COORD97":2544371.6400000001,"ADDRESS":"安平路３０４號三樓之１４","OBJECTID":467306},"geometry":{"x":165723.58999999985,"y":2544371.6400000006}},{"attributes":{"ID":467332,"DIS_CODE":0,"TOWNNAME":"安平區","LI":"平安里","LIN":"5鄰","STREET":"安平路","SECT":" ","MAREA":" ","LANE":" ","ALLEY":" ","HOUSE_NO":"３０４號三樓之１５","E_COORD97":165723.59,"N_COORD97":2544371.6400000001,"ADDRESS":"安平路３０４號三樓之１５","OBJECTID":467307},"geometry":{"x":165723.58999999985,"y":2544371.6400000006}},{"attributes":{"ID":467333,"DIS_CODE":0,"TOWNNAME":"安平區","LI":"平安里","LIN":"5鄰","STREET":"安平路","SECT":" ","MAREA":" ","LANE":" ","ALLEY":" ","HOUSE_NO":"３０４號三樓之２","E_COORD97":165723.59,"N_COORD97":2544371.6400000001,"ADDRESS":"安平路３０４號三樓之２","OBJECTID":467308},"geometry":{"x":165723.58999999985,"y":2544371.6400000006}},{"attributes":{"ID":467334,"DIS_CODE":0,"TOWNNAME":"安平區","LI":"平安里","LIN":"5鄰","STREET":"安平路","SECT":" ","MAREA":" ","LANE":" ","ALLEY":" ","HOUSE_NO":"３０４號三樓之３","E_COORD97":165723.59,"N_COORD97":2544371.6400000001,"ADDRESS":"安平路３０４號三樓之３","OBJECTID":467309},"geometry":{"x":165723.58999999985,"y":2544371.6400000006}},{"attributes":{"ID":467335,"DIS_CODE":0,"TOWNNAME":"安平區","LI":"平安里","LIN":"5鄰","STREET":"安平路","SECT":" ","MAREA":" ","LANE":" ","ALLEY":" ","HOUSE_NO":"３０４號三樓之４","E_COORD97":165723.59,"N_COORD97":2544371.6400000001,"ADDRESS":"安平路３０４號三樓之４","OBJECTID":467310},"geometry":{"x":165723.58999999985,"y":2544371.6400000006}},{"attributes":{"ID":467336,"DIS_CODE":0,"TOWNNAME":"安平區","LI":"平安里","LIN":"5鄰","STREET":"安平路","SECT":" ","MAREA":" ","LANE":" ","ALLEY":" ","HOUSE_NO":"３０４號三樓之５","E_COORD97":165723.59,"N_COORD97":2544371.6400000001,"ADDRESS":"安平路３０４號三樓之５","OBJECTID":467311},"geometry":{"x":165723.58999999985,"y":2544371.6400000006}},{"attributes":{"ID":467337,"DIS_CODE":0,"TOWNNAME":"安平區","LI":"平安里","LIN":"5鄰","STREET":"安平路","SECT":" ","MAREA":" ","LANE":" ","ALLEY":" ","HOUSE_NO":"３０４號三樓之６","E_COORD97":165723.59,"N_COORD97":2544371.6400000001,"ADDRESS":"安平路３０４號三樓之６","OBJECTID":467312},"geometry":{"x":165723.58999999985,"y":2544371.6400000006}},{"attributes":{"ID":467338,"DIS_CODE":0,"TOWNNAME":"安平區","LI":"平安里","LIN":"5鄰","STREET":"安平路","SECT":" ","MAREA":" ","LANE":" ","ALLEY":" ","HOUSE_NO":"３０４號三樓之７","E_COORD97":165723.59,"N_COORD97":2544371.6400000001,"ADDRESS":"安平路３０４號三樓之７","OBJECTID":467313},"geometry":{"x":165723.58999999985,"y":2544371.6400000006}},{"attributes":{"ID":467339,"DIS_CODE":0,"TOWNNAME":"安平區","LI":"平安里","LIN":"5鄰","STREET":"安平路","SECT":" ","MAREA":" ","LANE":" ","ALLEY":" ","HOUSE_NO":"３０４號三樓之８","E_COORD97":165723.59,"N_COORD97":2544371.6400000001,"ADDRESS":"安平路３０４號三樓之８","OBJECTID":467314},"geometry":{"x":165723.58999999985,"y":2544371.6400000006}},{"attributes":{"ID":467340,"DIS_CODE":0,"TOWNNAME":"安平區","LI":"平安里","LIN":"5鄰","STREET":"安平路","SECT":" ","MAREA":" ","LANE":" ","ALLEY":" ","HOUSE_NO":"３０４號五樓之１０","E_COORD97":165723.59,"N_COORD97":2544371.6400000001,"ADDRESS":"安平路３０４號五樓之１０","OBJECTID":467315},"geometry":{"x":165723.58999999985,"y":2544371.6400000006}},{"attributes":{"ID":467341,"DIS_CODE":0,"TOWNNAME":"安平區","LI":"平安里","LIN":"5鄰","STREET":"安平路","SECT":" ","MAREA":" ","LANE":" ","ALLEY":" ","HOUSE_NO":"３０４號五樓之１１","E_COORD97":165723.59,"N_COORD97":2544371.6400000001,"ADDRESS":"安平路３０４號五樓之１１","OBJECTID":467316},"geometry":{"x":165723.58999999985,"y":2544371.6400000006}},{"attributes":{"ID":467342,"DIS_CODE":0,"TOWNNAME":"安平區","LI":"平安里","LIN":"5鄰","STREET":"安平路","SECT":" ","MAREA":" ","LANE":" ","ALLEY":" ","HOUSE_NO":"３０４號五樓之１２","E_COORD97":165723.59,"N_COORD97":2544371.6400000001,"ADDRESS":"安平路３０４號五樓之１２","OBJECTID":467317},"geometry":{"x":165723.58999999985,"y":2544371.6400000006}},{"attributes":{"ID":467343,"DIS_CODE":0,"TOWNNAME":"安平區","LI":"平安里","LIN":"5鄰","STREET":"安平路","SECT":" ","MAREA":" ","LANE":" ","ALLEY":" ","HOUSE_NO":"３０４號五樓之１３","E_COORD97":165723.59,"N_COORD97":2544371.6400000001,"ADDRESS":"安平路３０４號五樓之１３","OBJECTID":467318},"geometry":{"x":165723.58999999985,"y":2544371.6400000006}},{"attributes":{"ID":467344,"DIS_CODE":0,"TOWNNAME":"安平區","LI":"平安里","LIN":"5鄰","STREET":"安平路","SECT":" ","MAREA":" ","LANE":" ","ALLEY":" ","HOUSE_NO":"３０４號五樓之１４","E_COORD97":165723.59,"N_COORD97":2544371.6400000001,"ADDRESS":"安平路３０４號五樓之１４","OBJECTID":467319},"geometry":{"x":165723.58999999985,"y":2544371.6400000006}},{"attributes":{"ID":467345,"DIS_CODE":0,"TOWNNAME":"安平區","LI":"平安里","LIN":"5鄰","STREET":"安平路","SECT":" ","MAREA":" ","LANE":" ","ALLEY":" ","HOUSE_NO":"３０４號五樓之２","E_COORD97":165723.59,"N_COORD97":2544371.6400000001,"ADDRESS":"安平路３０４號五樓之２","OBJECTID":467320},"geometry":{"x":165723.58999999985,"y":2544371.6400000006}},{"attributes":{"ID":467346,"DIS_CODE":0,"TOWNNAME":"安平區","LI":"平安里","LIN":"5鄰","STREET":"安平路","SECT":" ","MAREA":" ","LANE":" ","ALLEY":" ","HOUSE_NO":"３０４號五樓之３","E_COORD97":165723.59,"N_COORD97":2544371.6400000001,"ADDRESS":"安平路３０４號五樓之３","OBJECTID":467321},"geometry":{"x":165723.58999999985,"y":2544371.6400000006}},{"attributes":{"ID":467347,"DIS_CODE":0,"TOWNNAME":"安平區","LI":"平安里","LIN":"5鄰","STREET":"安平路","SECT":" ","MAREA":" ","LANE":" ","ALLEY":" ","HOUSE_NO":"３０４號五樓之４","E_COORD97":165723.59,"N_COORD97":2544371.6400000001,"ADDRESS":"安平路３０４號五樓之４","OBJECTID":467322},"geometry":{"x":165723.58999999985,"y":2544371.6400000006}},{"attributes":{"ID":467348,"DIS_CODE":0,"TOWNNAME":"安平區","LI":"平安里","LIN":"5鄰","STREET":"安平路","SECT":" ","MAREA":" ","LANE":" ","ALLEY":" ","HOUSE_NO":"３０４號五樓之５","E_COORD97":165723.59,"N_COORD97":2544371.6400000001,"ADDRESS":"安平路３０４號五樓之５","OBJECTID":467323},"geometry":{"x":165723.58999999985,"y":2544371.6400000006}},{"attributes":{"ID":467349,"DIS_CODE":0,"TOWNNAME":"安平區","LI":"平安里","LIN":"5鄰","STREET":"安平路","SECT":" ","MAREA":" ","LANE":" ","ALLEY":" ","HOUSE_NO":"３０４號五樓之６","E_COORD97":165723.59,"N_COORD97":2544371.6400000001,"ADDRESS":"安平路３０４號五樓之６","OBJECTID":467324},"geometry":{"x":165723.58999999985,"y":2544371.6400000006}},{"attributes":{"ID":467350,"DIS_CODE":0,"TOWNNAME":"安平區","LI":"平安里","LIN":"5鄰","STREET":"安平路","SECT":" ","MAREA":" ","LANE":" ","ALLEY":" ","HOUSE_NO":"３０４號五樓之７","E_COORD97":165723.59,"N_COORD97":2544371.6400000001,"ADDRESS":"安平路３０４號五樓之７","OBJECTID":467325},"geometry":{"x":165723.58999999985,"y":2544371.6400000006}},{"attributes":{"ID":467351,"DIS_CODE":0,"TOWNNAME":"安平區","LI":"平安里","LIN":"5鄰","STREET":"安平路","SECT":" ","MAREA":" ","LANE":" ","ALLEY":" ","HOUSE_NO":"３０４號五樓之８","E_COORD97":165723.59,"N_COORD97":2544371.6400000001,"ADDRESS":"安平路３０４號五樓之８","OBJECTID":467326},"geometry":{"x":165723.58999999985,"y":2544371.6400000006}},{"attributes":{"ID":467352,"DIS_CODE":0,"TOWNNAME":"安平區","LI":"平安里","LIN":"5鄰","STREET":"安平路","SECT":" ","MAREA":" ","LANE":" ","ALLEY":" ","HOUSE_NO":"３０４號五樓之９","E_COORD97":165723.59,"N_COORD97":2544371.6400000001,"ADDRESS":"安平路３０４號五樓之９","OBJECTID":467327},"geometry":{"x":165723.58999999985,"y":2544371.6400000006}},{"attributes":{"ID":467353,"DIS_CODE":0,"TOWNNAME":"安平區","LI":"平安里","LIN":"5鄰","STREET":"安平路","SECT":" ","MAREA":" ","LANE":" ","ALLEY":" ","HOUSE_NO":"３０４號六樓之１","E_COORD97":165723.59,"N_COORD97":2544371.6400000001,"ADDRESS":"安平路３０４號六樓之１","OBJECTID":467328},"geometry":{"x":165723.58999999985,"y":2544371.6400000006}},{"attributes":{"ID":467354,"DIS_CODE":0,"TOWNNAME":"安平區","LI":"平安里","LIN":"5鄰","STREET":"安平路","SECT":" ","MAREA":" ","LANE":" ","ALLEY":" ","HOUSE_NO":"３０４號六樓之１０","E_COORD97":165723.59,"N_COORD97":2544371.6400000001,"ADDRESS":"安平路３０４號六樓之１０","OBJECTID":467329},"geometry":{"x":165723.58999999985,"y":2544371.6400000006}},{"attributes":{"ID":467355,"DIS_CODE":0,"TOWNNAME":"永康區","LI":"南灣里","LIN":"34鄰","STREET":"南灣街","SECT":" ","MAREA":" ","LANE":"９９巷","ALLEY":" ","HOUSE_NO":"７號","E_COORD97":174330.45000000001,"N_COORD97":2544926.5800000001,"ADDRESS":"南灣街９９巷７號","OBJECTID":467330},"geometry":{"x":174330.45000000112,"y":2544926.5800000019}},{"attributes":{"ID":467356,"DIS_CODE":0,"TOWNNAME":"安平區","LI":"平安里","LIN":"5鄰","STREET":"安平路","SECT":" ","MAREA":" ","LANE":" ","ALLEY":" ","HOUSE_NO":"３０４號六樓之１１","E_COORD97":165723.59,"N_COORD97":2544371.6400000001,"ADDRESS":"安平路３０４號六樓之１１","OBJECTID":467331},"geometry":{"x":165723.58999999985,"y":2544371.6400000006}},{"attributes":{"ID":467357,"DIS_CODE":0,"TOWNNAME":"安平區","LI":"平安里","LIN":"5鄰","STREET":"安平路","SECT":" ","MAREA":" ","LANE":" ","ALLEY":" ","HOUSE_NO":"３０４號六樓之１２","E_COORD97":165723.59,"N_COORD97":2544371.6400000001,"ADDRESS":"安平路３０４號六樓之１２","OBJECTID":467332},"geometry":{"x":165723.58999999985,"y":2544371.6400000006}},{"attributes":{"ID":467358,"DIS_CODE":0,"TOWNNAME":"安平區","LI":"平安里","LIN":"5鄰","STREET":"安平路","SECT":" ","MAREA":" ","LANE":" ","ALLEY":" ","HOUSE_NO":"３０４號六樓之１３","E_COORD97":165723.59,"N_COORD97":2544371.6400000001,"ADDRESS":"安平路３０４號六樓之１３","OBJECTID":467333},"geometry":{"x":165723.58999999985,"y":2544371.6400000006}},{"attributes":{"ID":467359,"DIS_CODE":0,"TOWNNAME":"安平區","LI":"平安里","LIN":"5鄰","STREET":"安平路","SECT":" ","MAREA":" ","LANE":" ","ALLEY":" ","HOUSE_NO":"３０４號六樓之１４","E_COORD97":165723.59,"N_COORD97":2544371.6400000001,"ADDRESS":"安平路３０４號六樓之１４","OBJECTID":467334},"geometry":{"x":165723.58999999985,"y":2544371.6400000006}},{"attributes":{"ID":467360,"DIS_CODE":0,"TOWNNAME":"安平區","LI":"平安里","LIN":"5鄰","STREET":"安平路","SECT":" ","MAREA":" ","LANE":" ","ALLEY":" ","HOUSE_NO":"３０４號六樓之２","E_COORD97":165723.59,"N_COORD97":2544371.6400000001,"ADDRESS":"安平路３０４號六樓之２","OBJECTID":467335},"geometry":{"x":165723.58999999985,"y":2544371.6400000006}},{"attributes":{"ID":467361,"DIS_CODE":0,"TOWNNAME":"安平區","LI":"平安里","LIN":"5鄰","STREET":"安平路","SECT":" ","MAREA":" ","LANE":" ","ALLEY":" ","HOUSE_NO":"３０４號六樓之３","E_COORD97":165723.59,"N_COORD97":2544371.6400000001,"ADDRESS":"安平路３０４號六樓之３","OBJECTID":467336},"geometry":{"x":165723.58999999985,"y":2544371.6400000006}},{"attributes":{"ID":467362,"DIS_CODE":0,"TOWNNAME":"安平區","LI":"平安里","LIN":"5鄰","STREET":"安平路","SECT":" ","MAREA":" ","LANE":" ","ALLEY":" ","HOUSE_NO":"３０４號六樓之４","E_COORD97":165723.59,"N_COORD97":2544371.6400000001,"ADDRESS":"安平路３０４號六樓之４","OBJECTID":467337},"geometry":{"x":165723.58999999985,"y":2544371.6400000006}},{"attributes":{"ID":467363,"DIS_CODE":0,"TOWNNAME":"安平區","LI":"平安里","LIN":"5鄰","STREET":"安平路","SECT":" ","MAREA":" ","LANE":" ","ALLEY":" ","HOUSE_NO":"３０４號六樓之５","E_COORD97":165723.59,"N_COORD97":2544371.6400000001,"ADDRESS":"安平路３０４號六樓之５","OBJECTID":467338},"geometry":{"x":165723.58999999985,"y":2544371.6400000006}},{"attributes":{"ID":467364,"DIS_CODE":0,"TOWNNAME":"安平區","LI":"平安里","LIN":"5鄰","STREET":"安平路","SECT":" ","MAREA":" ","LANE":" ","ALLEY":" ","HOUSE_NO":"３０４號六樓之６","E_COORD97":165723.59,"N_COORD97":2544371.6400000001,"ADDRESS":"安平路３０４號六樓之６","OBJECTID":467339},"geometry":{"x":165723.58999999985,"y":2544371.6400000006}},{"attributes":{"ID":467365,"DIS_CODE":0,"TOWNNAME":"安平區","LI":"平安里","LIN":"5鄰","STREET":"安平路","SECT":" ","MAREA":" ","LANE":" ","ALLEY":" ","HOUSE_NO":"３０４號六樓之７","E_COORD97":165723.59,"N_COORD97":2544371.6400000001,"ADDRESS":"安平路３０４號六樓之７","OBJECTID":467340},"geometry":{"x":165723.58999999985,"y":2544371.6400000006}},{"attributes":{"ID":467366,"DIS_CODE":0,"TOWNNAME":"安平區","LI":"平安里","LIN":"5鄰","STREET":"安平路","SECT":" ","MAREA":" ","LANE":" ","ALLEY":" ","HOUSE_NO":"３０４號六樓之８","E_COORD97":165723.59,"N_COORD97":2544371.6400000001,"ADDRESS":"安平路３０４號六樓之８","OBJECTID":467341},"geometry":{"x":165723.58999999985,"y":2544371.6400000006}},{"attributes":{"ID":467367,"DIS_CODE":0,"TOWNNAME":"安平區","LI":"平安里","LIN":"5鄰","STREET":"安平路","SECT":" ","MAREA":" ","LANE":" ","ALLEY":" ","HOUSE_NO":"３０４號六樓之９","E_COORD97":165723.59,"N_COORD97":2544371.6400000001,"ADDRESS":"安平路３０４號六樓之９","OBJECTID":467342},"geometry":{"x":165723.58999999985,"y":2544371.6400000006}},{"attributes":{"ID":467368,"DIS_CODE":0,"TOWNNAME":"南區","LI":"金華里","LIN":"5鄰","STREET":"健康路","SECT":"二段","MAREA":" ","LANE":" ","ALLEY":" ","HOUSE_NO":"２２７號七樓之１","E_COORD97":167064.03,"N_COORD97":2542456.2799999998,"ADDRESS":"健康路二段２２７號七樓之１","OBJECTID":467343},"geometry":{"x":167064.03000000212,"y":2542456.2800000012}},{"attributes":{"ID":467369,"DIS_CODE":0,"TOWNNAME":"南區","LI":"金華里","LIN":"5鄰","STREET":"健康路","SECT":"二段","MAREA":" ","LANE":" ","ALLEY":" ","HOUSE_NO":"２２７號七樓之２","E_COORD97":167064.03,"N_COORD97":2542456.2799999998,"ADDRESS":"健康路二段２２７號七樓之２","OBJECTID":467344},"geometry":{"x":167064.03000000212,"y":2542456.2800000012}},{"attributes":{"ID":467370,"DIS_CODE":0,"TOWNNAME":"南區","LI":"金華里","LIN":"5鄰","STREET":"健康路","SECT":"二段","MAREA":" ","LANE":" ","ALLEY":" ","HOUSE_NO":"２２７號二樓之１","E_COORD97":167064.03,"N_COORD97":2542456.2799999998,"ADDRESS":"健康路二段２２７號二樓之１","OBJECTID":467345},"geometry":{"x":167064.03000000212,"y":2542456.2800000012}},{"attributes":{"ID":467371,"DIS_CODE":0,"TOWNNAME":"南區","LI":"金華里","LIN":"5鄰","STREET":"健康路","SECT":"二段","MAREA":" ","LANE":" ","ALLEY":" ","HOUSE_NO":"２２７號二樓之２","E_COORD97":167064.03,"N_COORD97":2542456.2799999998,"ADDRESS":"健康路二段２２７號二樓之２","OBJECTID":467346},"geometry":{"x":167064.03000000212,"y":2542456.2800000012}},{"attributes":{"ID":467372,"DIS_CODE":0,"TOWNNAME":"南區","LI":"金華里","LIN":"5鄰","STREET":"健康路","SECT":"二段","MAREA":" ","LANE":" ","ALLEY":" ","HOUSE_NO":"２２７號三樓之１","E_COORD97":167064.03,"N_COORD97":2542456.2799999998,"ADDRESS":"健康路二段２２７號三樓之１","OBJECTID":467347},"geometry":{"x":167064.03000000212,"y":2542456.2800000012}},{"attributes":{"ID":467373,"DIS_CODE":0,"TOWNNAME":"南區","LI":"金華里","LIN":"5鄰","STREET":"健康路","SECT":"二段","MAREA":" ","LANE":" ","ALLEY":" ","HOUSE_NO":"２２７號三樓之２","E_COORD97":167064.03,"N_COORD97":2542456.2799999998,"ADDRESS":"健康路二段２２７號三樓之２","OBJECTID":467348},"geometry":{"x":167064.03000000212,"y":2542456.2800000012}},{"attributes":{"ID":467374,"DIS_CODE":0,"TOWNNAME":"南區","LI":"金華里","LIN":"5鄰","STREET":"健康路","SECT":"二段","MAREA":" ","LANE":" ","ALLEY":" ","HOUSE_NO":"２２７號五樓之１","E_COORD97":167064.03,"N_COORD97":2542456.2799999998,"ADDRESS":"健康路二段２２７號五樓之１","OBJECTID":467349},"geometry":{"x":167064.03000000212,"y":2542456.2800000012}},{"attributes":{"ID":467375,"DIS_CODE":0,"TOWNNAME":"南區","LI":"金華里","LIN":"5鄰","STREET":"健康路","SECT":"二段","MAREA":" ","LANE":" ","ALLEY":" ","HOUSE_NO":"２２７號五樓之２","E_COORD97":167064.03,"N_COORD97":2542456.2799999998,"ADDRESS":"健康路二段２２７號五樓之２","OBJECTID":467350},"geometry":{"x":167064.03000000212,"y":2542456.2800000012}},{"attributes":{"ID":467376,"DIS_CODE":0,"TOWNNAME":"南區","LI":"金華里","LIN":"5鄰","STREET":"健康路","SECT":"二段","MAREA":" ","LANE":" ","ALLEY":" ","HOUSE_NO":"２２７號六樓之１","E_COORD97":167064.03,"N_COORD97":2542456.2799999998,"ADDRESS":"健康路二段２２７號六樓之１","OBJECTID":467351},"geometry":{"x":167064.03000000212,"y":2542456.2800000012}},{"attributes":{"ID":467377,"DIS_CODE":0,"TOWNNAME":"南區","LI":"金華里","LIN":"5鄰","STREET":"健康路","SECT":"二段","MAREA":" ","LANE":" ","ALLEY":" ","HOUSE_NO":"２２７號六樓之２","E_COORD97":167064.03,"N_COORD97":2542456.2799999998,"ADDRESS":"健康路二段２２７號六樓之２","OBJECTID":467352},"geometry":{"x":167064.03000000212,"y":2542456.2800000012}},{"attributes":{"ID":467378,"DIS_CODE":0,"TOWNNAME":"南區","LI":"金華里","LIN":"5鄰","STREET":"健康路","SECT":"二段","MAREA":" ","LANE":" ","ALLEY":" ","HOUSE_NO":"２２７號四樓之１","E_COORD97":167064.03,"N_COORD97":2542456.2799999998,"ADDRESS":"健康路二段２２７號四樓之１","OBJECTID":467353},"geometry":{"x":167064.03000000212,"y":2542456.2800000012}},{"attributes":{"ID":467379,"DIS_CODE":0,"TOWNNAME":"南區","LI":"金華里","LIN":"5鄰","STREET":"健康路","SECT":"二段","MAREA":" ","LANE":" ","ALLEY":" ","HOUSE_NO":"２２７號四樓之２","E_COORD97":167064.03,"N_COORD97":2542456.2799999998,"ADDRESS":"健康路二段２２７號四樓之２","OBJECTID":467354},"geometry":{"x":167064.03000000212,"y":2542456.2800000012}},{"attributes":{"ID":467380,"DIS_CODE":0,"TOWNNAME":"南區","LI":"金華里","LIN":"5鄰","STREET":"聖南街","SECT":" ","MAREA":" ","LANE":" ","ALLEY":" ","HOUSE_NO":"７１號二樓之１","E_COORD97":167037.51000000001,"N_COORD97":2542240.1400000001,"ADDRESS":"聖南街７１號二樓之１","OBJECTID":467355},"geometry":{"x":167037.50999999978,"y":2542240.1400000006}},{"attributes":{"ID":467381,"DIS_CODE":0,"TOWNNAME":"南區","LI":"金華里","LIN":"5鄰","STREET":"聖南街","SECT":" ","MAREA":" ","LANE":" ","ALLEY":" ","HOUSE_NO":"７１號三樓之１","E_COORD97":167037.51000000001,"N_COORD97":2542240.1400000001,"ADDRESS":"聖南街７１號三樓之１","OBJECTID":467356},"geometry":{"x":167037.50999999978,"y":2542240.1400000006}},{"attributes":{"ID":467382,"DIS_CODE":0,"TOWNNAME":"南區","LI":"金華里","LIN":"5鄰","STREET":"聖南街","SECT":" ","MAREA":" ","LANE":" ","ALLEY":" ","HOUSE_NO":"７１號三樓之２","E_COORD97":167037.51000000001,"N_COORD97":2542240.1400000001,"ADDRESS":"聖南街７１號三樓之２","OBJECTID":467357},"geometry":{"x":167037.50999999978,"y":2542240.1400000006}},{"attributes":{"ID":467383,"DIS_CODE":0,"TOWNNAME":"南區","LI":"金華里","LIN":"5鄰","STREET":"聖南街","SECT":" ","MAREA":" ","LANE":" ","ALLEY":" ","HOUSE_NO":"７１號五樓","E_COORD97":167037.51000000001,"N_COORD97":2542240.1400000001,"ADDRESS":"聖南街７１號五樓","OBJECTID":467358},"geometry":{"x":167037.50999999978,"y":2542240.1400000006}},{"attributes":{"ID":467384,"DIS_CODE":0,"TOWNNAME":"南區","LI":"金華里","LIN":"5鄰","STREET":"聖南街","SECT":" ","MAREA":" ","LANE":" ","ALLEY":" ","HOUSE_NO":"７１號四樓之１","E_COORD97":167037.51000000001,"N_COORD97":2542240.1400000001,"ADDRESS":"聖南街７１號四樓之１","OBJECTID":467359},"geometry":{"x":167037.50999999978,"y":2542240.1400000006}},{"attributes":{"ID":467385,"DIS_CODE":0,"TOWNNAME":"南區","LI":"金華里","LIN":"5鄰","STREET":"聖南街","SECT":" ","MAREA":" ","LANE":" ","ALLEY":" ","HOUSE_NO":"７１號四樓之２","E_COORD97":167037.51000000001,"N_COORD97":2542240.1400000001,"ADDRESS":"聖南街７１號四樓之２","OBJECTID":467360},"geometry":{"x":167037.50999999978,"y":2542240.1400000006}},{"attributes":{"ID":467386,"DIS_CODE":0,"TOWNNAME":"南區","LI":"金華里","LIN":"5鄰","STREET":"聖南街","SECT":" ","MAREA":" ","LANE":" ","ALLEY":" ","HOUSE_NO":"７３號二樓","E_COORD97":167045.26999999999,"N_COORD97":2542239.6499999999,"ADDRESS":"聖南街７３號二樓","OBJECTID":467361},"geometry":{"x":167045.27000000048,"y":2542239.6500000004}},{"attributes":{"ID":467387,"DIS_CODE":0,"TOWNNAME":"南區","LI":"金華里","LIN":"5鄰","STREET":"聖南街","SECT":" ","MAREA":" ","LANE":" ","ALLEY":" ","HOUSE_NO":"７３號三樓","E_COORD97":167045.26999999999,"N_COORD97":2542239.6499999999,"ADDRESS":"聖南街７３號三樓","OBJECTID":467362},"geometry":{"x":167045.27000000048,"y":2542239.6500000004}},{"attributes":{"ID":467388,"DIS_CODE":0,"TOWNNAME":"南區","LI":"金華里","LIN":"5鄰","STREET":"聖南街","SECT":" ","MAREA":" ","LANE":" ","ALLEY":" ","HOUSE_NO":"７３號五樓","E_COORD97":167045.26999999999,"N_COORD97":2542239.6499999999,"ADDRESS":"聖南街７３號五樓","OBJECTID":467363},"geometry":{"x":167045.27000000048,"y":2542239.6500000004}},{"attributes":{"ID":467389,"DIS_CODE":0,"TOWNNAME":"南區","LI":"金華里","LIN":"5鄰","STREET":"聖南街","SECT":" ","MAREA":" ","LANE":" ","ALLEY":" ","HOUSE_NO":"７３號四樓","E_COORD97":167045.26999999999,"N_COORD97":2542239.6499999999,"ADDRESS":"聖南街７３號四樓","OBJECTID":467364},"geometry":{"x":167045.27000000048,"y":2542239.6500000004}},{"attributes":{"ID":467390,"DIS_CODE":0,"TOWNNAME":"南區","LI":"金華里","LIN":"5鄰","STREET":"聖南街","SECT":" ","MAREA":" ","LANE":" ","ALLEY":" ","HOUSE_NO":"７５號二樓","E_COORD97":167044.14000000001,"N_COORD97":2542230.1299999999,"ADDRESS":"聖南街７５號二樓","OBJECTID":467365},"geometry":{"x":167044.14000000153,"y":2542230.1300000008}},{"attributes":{"ID":467391,"DIS_CODE":0,"TOWNNAME":"南區","LI":"金華里","LIN":"5鄰","STREET":"聖南街","SECT":" ","MAREA":" ","LANE":" ","ALLEY":" ","HOUSE_NO":"７５號三樓","E_COORD97":167044.14000000001,"N_COORD97":2542230.1299999999,"ADDRESS":"聖南街７５號三樓","OBJECTID":467366},"geometry":{"x":167044.14000000153,"y":2542230.1300000008}},{"attributes":{"ID":467392,"DIS_CODE":0,"TOWNNAME":"南區","LI":"金華里","LIN":"5鄰","STREET":"聖南街","SECT":" ","MAREA":" ","LANE":" ","ALLEY":" ","HOUSE_NO":"７５號五樓","E_COORD97":167044.14000000001,"N_COORD97":2542230.1299999999,"ADDRESS":"聖南街７５號五樓","OBJECTID":467367},"geometry":{"x":167044.14000000153,"y":2542230.1300000008}},{"attributes":{"ID":467393,"DIS_CODE":0,"TOWNNAME":"南區","LI":"金華里","LIN":"5鄰","STREET":"聖南街","SECT":" ","MAREA":" ","LANE":" ","ALLEY":" ","HOUSE_NO":"７５號四樓","E_COORD97":167044.14000000001,"N_COORD97":2542230.1299999999,"ADDRESS":"聖南街７５號四樓","OBJECTID":467368},"geometry":{"x":167044.14000000153,"y":2542230.1300000008}},{"attributes":{"ID":467394,"DIS_CODE":0,"TOWNNAME":"南區","LI":"金華里","LIN":"5鄰","STREET":"聖南街","SECT":" ","MAREA":" ","LANE":" ","ALLEY":" ","HOUSE_NO":"７７號三樓之１","E_COORD97":167035.23999999999,"N_COORD97":2542229.8100000001,"ADDRESS":"聖南街７７號三樓之１","OBJECTID":467369},"geometry":{"x":167035.24000000022,"y":2542229.8100000024}},{"attributes":{"ID":467395,"DIS_CODE":0,"TOWNNAME":"南區","LI":"金華里","LIN":"5鄰","STREET":"聖南街","SECT":" ","MAREA":" ","LANE":" ","ALLEY":" ","HOUSE_NO":"７７號三樓之２","E_COORD97":167035.23999999999,"N_COORD97":2542229.8100000001,"ADDRESS":"聖南街７７號三樓之２","OBJECTID":467370},"geometry":{"x":167035.24000000022,"y":2542229.8100000024}},{"attributes":{"ID":467396,"DIS_CODE":0,"TOWNNAME":"南區","LI":"金華里","LIN":"5鄰","STREET":"聖南街","SECT":" ","MAREA":" ","LANE":" ","ALLEY":" ","HOUSE_NO":"７７號五樓之２","E_COORD97":167035.23999999999,"N_COORD97":2542229.8100000001,"ADDRESS":"聖南街７７號五樓之２","OBJECTID":467371},"geometry":{"x":167035.24000000022,"y":2542229.8100000024}},{"attributes":{"ID":467397,"DIS_CODE":0,"TOWNNAME":"南區","LI":"金華里","LIN":"5鄰","STREET":"聖南街","SECT":" ","MAREA":" ","LANE":" ","ALLEY":" ","HOUSE_NO":"７７號四樓之１","E_COORD97":167035.23999999999,"N_COORD97":2542229.8100000001,"ADDRESS":"聖南街７７號四樓之１","OBJECTID":467372},"geometry":{"x":167035.24000000022,"y":2542229.8100000024}},{"attributes":{"ID":467398,"DIS_CODE":0,"TOWNNAME":"南區","LI":"金華里","LIN":"5鄰","STREET":"聖南街","SECT":" ","MAREA":" ","LANE":" ","ALLEY":" ","HOUSE_NO":"７９號二樓","E_COORD97":167027.81,"N_COORD97":2542230.77,"ADDRESS":"聖南街７９號二樓","OBJECTID":467373},"geometry":{"x":167027.81000000052,"y":2542230.7699999996}},{"attributes":{"ID":467399,"DIS_CODE":0,"TOWNNAME":"南區","LI":"金華里","LIN":"5鄰","STREET":"聖南街","SECT":" ","MAREA":" ","LANE":" ","ALLEY":" ","HOUSE_NO":"７９號三樓","E_COORD97":167027.81,"N_COORD97":2542230.77,"ADDRESS":"聖南街７９號三樓","OBJECTID":467374},"geometry":{"x":167027.81000000052,"y":2542230.7699999996}},{"attributes":{"ID":467400,"DIS_CODE":0,"TOWNNAME":"南區","LI":"金華里","LIN":"5鄰","STREET":"聖南街","SECT":" ","MAREA":" ","LANE":" ","ALLEY":" ","HOUSE_NO":"７９號五樓","E_COORD97":167027.81,"N_COORD97":2542230.77,"ADDRESS":"聖南街７９號五樓","OBJECTID":467375},"geometry":{"x":167027.81000000052,"y":2542230.7699999996}},{"attributes":{"ID":467401,"DIS_CODE":0,"TOWNNAME":"南區","LI":"金華里","LIN":"5鄰","STREET":"聖南街","SECT":" ","MAREA":" ","LANE":" ","ALLEY":" ","HOUSE_NO":"７９號四樓","E_COORD97":167027.81,"N_COORD97":2542230.77,"ADDRESS":"聖南街７９號四樓","OBJECTID":467376},"geometry":{"x":167027.81000000052,"y":2542230.7699999996}},{"attributes":{"ID":467402,"DIS_CODE":0,"TOWNNAME":"南區","LI":"南華里","LIN":"5鄰","STREET":"中華南路","SECT":"二段","MAREA":" ","LANE":" ","ALLEY":" ","HOUSE_NO":"３９４號三樓","E_COORD97":166429.17999999999,"N_COORD97":2540304.8300000001,"ADDRESS":"中華南路二段３９４號三樓","OBJECTID":467377},"geometry":{"x":166429.18000000063,"y":2540304.8300000001}},{"attributes":{"ID":467403,"DIS_CODE":0,"TOWNNAME":"南區","LI":"南華里","LIN":"5鄰","STREET":"中華南路","SECT":"二段","MAREA":" ","LANE":" ","ALLEY":" ","HOUSE_NO":"３７０號三樓","E_COORD97":166483.92999999999,"N_COORD97":2540304.48,"ADDRESS":"中華南路二段３７０號三樓","OBJECTID":467378},"geometry":{"x":166483.9299999997,"y":2540304.4800000004}},{"attributes":{"ID":467404,"DIS_CODE":0,"TOWNNAME":"南區","LI":"南華里","LIN":"5鄰","STREET":"中華南路","SECT":"二段","MAREA":" ","LANE":" ","ALLEY":" ","HOUSE_NO":"３７０號五樓","E_COORD97":166483.92999999999,"N_COORD97":2540304.48,"ADDRESS":"中華南路二段３７０號五樓","OBJECTID":467379},"geometry":{"x":166483.9299999997,"y":2540304.4800000004}},{"attributes":{"ID":467405,"DIS_CODE":0,"TOWNNAME":"南區","LI":"南華里","LIN":"5鄰","STREET":"中華南路","SECT":"二段","MAREA":" ","LANE":" ","ALLEY":" ","HOUSE_NO":"３７０號四樓","E_COORD97":166483.92999999999,"N_COORD97":2540304.48,"ADDRESS":"中華南路二段３７０號四樓","OBJECTID":467380},"geometry":{"x":166483.9299999997,"y":2540304.4800000004}},{"attributes":{"ID":467406,"DIS_CODE":0,"TOWNNAME":"南區","LI":"南華里","LIN":"5鄰","STREET":"中華南路","SECT":"二段","MAREA":" ","LANE":" ","ALLEY":" ","HOUSE_NO":"３７４號三樓","E_COORD97":166474.67999999999,"N_COORD97":2540304.48,"ADDRESS":"中華南路二段３７４號三樓","OBJECTID":467381},"geometry":{"x":166474.68000000063,"y":2540304.4800000004}},{"attributes":{"ID":467407,"DIS_CODE":0,"TOWNNAME":"南區","LI":"南華里","LIN":"5鄰","STREET":"中華南路","SECT":"二段","MAREA":" ","LANE":" ","ALLEY":" ","HOUSE_NO":"３７４號五樓","E_COORD97":166474.67999999999,"N_COORD97":2540304.48,"ADDRESS":"中華南路二段３７４號五樓","OBJECTID":467382},"geometry":{"x":166474.68000000063,"y":2540304.4800000004}},{"attributes":{"ID":467408,"DIS_CODE":0,"TOWNNAME":"南區","LI":"南華里","LIN":"5鄰","STREET":"中華南路","SECT":"二段","MAREA":" ","LANE":" ","ALLEY":" ","HOUSE_NO":"３７４號四樓","E_COORD97":166474.67999999999,"N_COORD97":2540304.48,"ADDRESS":"中華南路二段３７４號四樓","OBJECTID":467383},"geometry":{"x":166474.68000000063,"y":2540304.4800000004}},{"attributes":{"ID":467409,"DIS_CODE":0,"TOWNNAME":"南區","LI":"南華里","LIN":"5鄰","STREET":"中華南路","SECT":"二段","MAREA":" ","LANE":" ","ALLEY":" ","HOUSE_NO":"３７８號三樓","E_COORD97":166464.60000000001,"N_COORD97":2540304.1299999999,"ADDRESS":"中華南路二段３７８號三樓","OBJECTID":467384},"geometry":{"x":166464.60000000149,"y":2540304.1300000008}},{"attributes":{"ID":467410,"DIS_CODE":0,"TOWNNAME":"南區","LI":"南華里","LIN":"5鄰","STREET":"中華南路","SECT":"二段","MAREA":" ","LANE":" ","ALLEY":" ","HOUSE_NO":"３７８號五樓","E_COORD97":166464.60000000001,"N_COORD97":2540304.1299999999,"ADDRESS":"中華南路二段３７８號五樓","OBJECTID":467385},"geometry":{"x":166464.60000000149,"y":2540304.1300000008}},{"attributes":{"ID":467411,"DIS_CODE":0,"TOWNNAME":"南區","LI":"南華里","LIN":"5鄰","STREET":"中華南路","SECT":"二段","MAREA":" ","LANE":" ","ALLEY":" ","HOUSE_NO":"３７８號四樓","E_COORD97":166464.60000000001,"N_COORD97":2540304.1299999999,"ADDRESS":"中華南路二段３７８號四樓","OBJECTID":467386},"geometry":{"x":166464.60000000149,"y":2540304.1300000008}},{"attributes":{"ID":467412,"DIS_CODE":0,"TOWNNAME":"南區","LI":"南華里","LIN":"5鄰","STREET":"中華南路","SECT":"二段","MAREA":" ","LANE":" ","ALLEY":" ","HOUSE_NO":"３８２號三樓","E_COORD97":166455.57999999999,"N_COORD97":2540304.2400000002,"ADDRESS":"中華南路二段３８２號三樓","OBJECTID":467387},"geometry":{"x":166455.58000000101,"y":2540304.2400000021}},{"attributes":{"ID":467413,"DIS_CODE":0,"TOWNNAME":"南區","LI":"南華里","LIN":"5鄰","STREET":"中華南路","SECT":"二段","MAREA":" ","LANE":" ","ALLEY":" ","HOUSE_NO":"３８２號五樓","E_COORD97":166455.57999999999,"N_COORD97":2540304.2400000002,"ADDRESS":"中華南路二段３８２號五樓","OBJECTID":467388},"geometry":{"x":166455.58000000101,"y":2540304.2400000021}},{"attributes":{"ID":467414,"DIS_CODE":0,"TOWNNAME":"南區","LI":"南華里","LIN":"5鄰","STREET":"中華南路","SECT":"二段","MAREA":" ","LANE":" ","ALLEY":" ","HOUSE_NO":"３８２號四樓","E_COORD97":166455.57999999999,"N_COORD97":2540304.2400000002,"ADDRESS":"中華南路二段３８２號四樓","OBJECTID":467389},"geometry":{"x":166455.58000000101,"y":2540304.2400000021}},{"attributes":{"ID":467415,"DIS_CODE":0,"TOWNNAME":"南區","LI":"南華里","LIN":"5鄰","STREET":"中華南路","SECT":"二段","MAREA":" ","LANE":" ","ALLEY":" ","HOUSE_NO":"３８６號三樓","E_COORD97":166446.75,"N_COORD97":2540304.2400000002,"ADDRESS":"中華南路二段３８６號三樓","OBJECTID":467390},"geometry":{"x":166446.75,"y":2540304.2400000021}},{"attributes":{"ID":467416,"DIS_CODE":0,"TOWNNAME":"南區","LI":"南華里","LIN":"5鄰","STREET":"中華南路","SECT":"二段","MAREA":" ","LANE":" ","ALLEY":" ","HOUSE_NO":"３８６號五樓","E_COORD97":166446.75,"N_COORD97":2540304.2400000002,"ADDRESS":"中華南路二段３８６號五樓","OBJECTID":467391},"geometry":{"x":166446.75,"y":2540304.2400000021}},{"attributes":{"ID":467417,"DIS_CODE":0,"TOWNNAME":"南區","LI":"南華里","LIN":"5鄰","STREET":"中華南路","SECT":"二段","MAREA":" ","LANE":" ","ALLEY":" ","HOUSE_NO":"３８６號四樓","E_COORD97":166446.75,"N_COORD97":2540304.2400000002,"ADDRESS":"中華南路二段３８６號四樓","OBJECTID":467392},"geometry":{"x":166446.75,"y":2540304.2400000021}},{"attributes":{"ID":467418,"DIS_CODE":0,"TOWNNAME":"南區","LI":"南華里","LIN":"5鄰","STREET":"中華南路","SECT":"二段","MAREA":" ","LANE":" ","ALLEY":" ","HOUSE_NO":"３９０號三樓","E_COORD97":166438.31,"N_COORD97":2540303.8900000001,"ADDRESS":"中華南路二段３９０號三樓","OBJECTID":467393},"geometry":{"x":166438.31000000052,"y":2540303.8900000025}},{"attributes":{"ID":467419,"DIS_CODE":0,"TOWNNAME":"南區","LI":"南華里","LIN":"5鄰","STREET":"中華南路","SECT":"二段","MAREA":" ","LANE":" ","ALLEY":" ","HOUSE_NO":"３９０號五樓","E_COORD97":166438.31,"N_COORD97":2540303.8900000001,"ADDRESS":"中華南路二段３９０號五樓","OBJECTID":467394},"geometry":{"x":166438.31000000052,"y":2540303.8900000025}},{"attributes":{"ID":467420,"DIS_CODE":0,"TOWNNAME":"南區","LI":"南華里","LIN":"5鄰","STREET":"中華南路","SECT":"二段","MAREA":" ","LANE":" ","ALLEY":" ","HOUSE_NO":"３９０號四樓","E_COORD97":166438.31,"N_COORD97":2540303.8900000001,"ADDRESS":"中華南路二段３９０號四樓","OBJECTID":467395},"geometry":{"x":166438.31000000052,"y":2540303.8900000025}},{"attributes":{"ID":467421,"DIS_CODE":0,"TOWNNAME":"南區","LI":"南華里","LIN":"5鄰","STREET":"中華南路","SECT":"二段","MAREA":" ","LANE":" ","ALLEY":" ","HOUSE_NO":"３９４號五樓","E_COORD97":166429.17999999999,"N_COORD97":2540304.8300000001,"ADDRESS":"中華南路二段３９４號五樓","OBJECTID":467396},"geometry":{"x":166429.18000000063,"y":2540304.8300000001}},{"attributes":{"ID":467422,"DIS_CODE":0,"TOWNNAME":"南區","LI":"南華里","LIN":"5鄰","STREET":"中華南路","SECT":"二段","MAREA":" ","LANE":" ","ALLEY":" ","HOUSE_NO":"３９４號四樓","E_COORD97":166429.17999999999,"N_COORD97":2540304.8300000001,"ADDRESS":"中華南路二段３９４號四樓","OBJECTID":467397},"geometry":{"x":166429.18000000063,"y":2540304.8300000001}},{"attributes":{"ID":467423,"DIS_CODE":0,"TOWNNAME":"南區","LI":"南華里","LIN":"5鄰","STREET":"中華南路","SECT":"二段","MAREA":" ","LANE":" ","ALLEY":" ","HOUSE_NO":"３９８號三樓","E_COORD97":166422.03,"N_COORD97":2540304.1299999999,"ADDRESS":"中華南路二段３９８號三樓","OBJECTID":467398},"geometry":{"x":166422.03000000119,"y":2540304.1300000008}},{"attributes":{"ID":467424,"DIS_CODE":0,"TOWNNAME":"南區","LI":"南華里","LIN":"5鄰","STREET":"中華南路","SECT":"二段","MAREA":" ","LANE":" ","ALLEY":" ","HOUSE_NO":"３９８號五樓","E_COORD97":166422.03,"N_COORD97":2540304.1299999999,"ADDRESS":"中華南路二段３９８號五樓","OBJECTID":467399},"geometry":{"x":166422.03000000119,"y":2540304.1300000008}},{"attributes":{"ID":467425,"DIS_CODE":0,"TOWNNAME":"南區","LI":"南華里","LIN":"5鄰","STREET":"中華南路","SECT":"二段","MAREA":" ","LANE":" ","ALLEY":" ","HOUSE_NO":"３９８號四樓","E_COORD97":166422.03,"N_COORD97":2540304.1299999999,"ADDRESS":"中華南路二段３９８號四樓","OBJECTID":467400},"geometry":{"x":166422.03000000119,"y":2540304.1300000008}}]}