{"displayFieldName":"TOWNNAME","fieldAliases":{"ID":"ID","DIS_CODE":"DIS_CODE","TOWNNAME":"TOWNNAME","LI":"LI","LIN":"LIN","STREET":"STREET","SECT":"SECT","MAREA":"MAREA","LANE":"LANE","ALLEY":"ALLEY","HOUSE_NO":"HOUSE_NO","E_COORD97":"E_COORD97","N_COORD97":"N_COORD97","ADDRESS":"ADDRESS","OBJECTID":"OBJECTID"},"geometryType":"esriGeometryPoint","spatialReference":{"wkid":102443,"latestWkid":3826},"fields":[{"name":"ID","type":"esriFieldTypeDouble","alias":"ID"},{"name":"DIS_CODE","type":"esriFieldTypeInteger","alias":"DIS_CODE"},{"name":"TOWNNAME","type":"esriFieldTypeString","alias":"TOWNNAME","length":8},{"name":"LI","type":"esriFieldTypeString","alias":"LI","length":8},{"name":"LIN","type":"esriFieldTypeString","alias":"LIN","length":12},{"name":"STREET","type":"esriFieldTypeString","alias":"STREET","length":20},{"name":"SECT","type":"esriFieldTypeString","alias":"SECT","length":8},{"name":"MAREA","type":"esriFieldTypeString","alias":"MAREA","length":12},{"name":"LANE","type":"esriFieldTypeString","alias":"LANE","length":10},{"name":"ALLEY","type":"esriFieldTypeString","alias":"ALLEY","length":10},{"name":"HOUSE_NO","type":"esriFieldTypeString","alias":"HOUSE_NO","length":20},{"name":"E_COORD97","type":"esriFieldTypeDouble","alias":"E_COORD97"},{"name":"N_COORD97","type":"esriFieldTypeDouble","alias":"N_COORD97"},{"name":"ADDRESS","type":"esriFieldTypeString","alias":"ADDRESS","length":50},{"name":"OBJECTID","type":"esriFieldTypeOID","alias":"OBJECTID"}],"features":[{"attributes":{"ID":257405,"DIS_CODE":0,"TOWNNAME":"南區","LI":"開南里","LIN":"17鄰","STREET":"新建路","SECT":" ","MAREA":" ","LANE":"２４巷","ALLEY":" ","HOUSE_NO":"２號四樓之３","E_COORD97":166424.95999999999,"N_COORD97":2541140.1800000002,"ADDRESS":"新建路２４巷２號四樓之３","OBJECTID":257401},"geometry":{"x":166424.95999999996,"y":2541140.1799999997}},{"attributes":{"ID":257406,"DIS_CODE":0,"TOWNNAME":"南區","LI":"開南里","LIN":"17鄰","STREET":"新建路","SECT":" ","MAREA":" ","LANE":"２４巷","ALLEY":" ","HOUSE_NO":"２號十一樓","E_COORD97":166424.95999999999,"N_COORD97":2541140.1800000002,"ADDRESS":"新建路２４巷２號十一樓","OBJECTID":257402},"geometry":{"x":166424.95999999996,"y":2541140.1799999997}},{"attributes":{"ID":257407,"DIS_CODE":0,"TOWNNAME":"南區","LI":"開南里","LIN":"17鄰","STREET":"新建路","SECT":" ","MAREA":" ","LANE":"２４巷","ALLEY":" ","HOUSE_NO":"２號十一樓之１","E_COORD97":166424.95999999999,"N_COORD97":2541140.1800000002,"ADDRESS":"新建路２４巷２號十一樓之１","OBJECTID":257403},"geometry":{"x":166424.95999999996,"y":2541140.1799999997}},{"attributes":{"ID":257408,"DIS_CODE":0,"TOWNNAME":"南區","LI":"開南里","LIN":"17鄰","STREET":"新建路","SECT":" ","MAREA":" ","LANE":"２４巷","ALLEY":" ","HOUSE_NO":"２號十一樓之２","E_COORD97":166424.95999999999,"N_COORD97":2541140.1800000002,"ADDRESS":"新建路２４巷２號十一樓之２","OBJECTID":257404},"geometry":{"x":166424.95999999996,"y":2541140.1799999997}},{"attributes":{"ID":257409,"DIS_CODE":0,"TOWNNAME":"南區","LI":"開南里","LIN":"17鄰","STREET":"新建路","SECT":" ","MAREA":" ","LANE":"２４巷","ALLEY":" ","HOUSE_NO":"２號十一樓之３","E_COORD97":166424.95999999999,"N_COORD97":2541140.1800000002,"ADDRESS":"新建路２４巷２號十一樓之３","OBJECTID":257405},"geometry":{"x":166424.95999999996,"y":2541140.1799999997}},{"attributes":{"ID":257410,"DIS_CODE":0,"TOWNNAME":"南區","LI":"開南里","LIN":"17鄰","STREET":"新建路","SECT":" ","MAREA":" ","LANE":"２４巷","ALLEY":" ","HOUSE_NO":"２號十二樓","E_COORD97":166424.95999999999,"N_COORD97":2541140.1800000002,"ADDRESS":"新建路２４巷２號十二樓","OBJECTID":257406},"geometry":{"x":166424.95999999996,"y":2541140.1799999997}},{"attributes":{"ID":257411,"DIS_CODE":0,"TOWNNAME":"南區","LI":"開南里","LIN":"17鄰","STREET":"新建路","SECT":" ","MAREA":" ","LANE":"２４巷","ALLEY":" ","HOUSE_NO":"２號十二樓之１","E_COORD97":166424.95999999999,"N_COORD97":2541140.1800000002,"ADDRESS":"新建路２４巷２號十二樓之１","OBJECTID":257407},"geometry":{"x":166424.95999999996,"y":2541140.1799999997}},{"attributes":{"ID":257412,"DIS_CODE":0,"TOWNNAME":"南區","LI":"開南里","LIN":"17鄰","STREET":"新建路","SECT":" ","MAREA":" ","LANE":"２４巷","ALLEY":" ","HOUSE_NO":"２號十二樓之２","E_COORD97":166424.95999999999,"N_COORD97":2541140.1800000002,"ADDRESS":"新建路２４巷２號十二樓之２","OBJECTID":257408},"geometry":{"x":166424.95999999996,"y":2541140.1799999997}},{"attributes":{"ID":257413,"DIS_CODE":0,"TOWNNAME":"南區","LI":"開南里","LIN":"17鄰","STREET":"新建路","SECT":" ","MAREA":" ","LANE":"２４巷","ALLEY":" ","HOUSE_NO":"２號十二樓之３","E_COORD97":166424.95999999999,"N_COORD97":2541140.1800000002,"ADDRESS":"新建路２４巷２號十二樓之３","OBJECTID":257409},"geometry":{"x":166424.95999999996,"y":2541140.1799999997}},{"attributes":{"ID":257414,"DIS_CODE":0,"TOWNNAME":"南區","LI":"開南里","LIN":"17鄰","STREET":"新建路","SECT":" ","MAREA":" ","LANE":"２４巷","ALLEY":" ","HOUSE_NO":"２號十三樓","E_COORD97":166424.95999999999,"N_COORD97":2541140.1800000002,"ADDRESS":"新建路２４巷２號十三樓","OBJECTID":257410},"geometry":{"x":166424.95999999996,"y":2541140.1799999997}},{"attributes":{"ID":257415,"DIS_CODE":0,"TOWNNAME":"南區","LI":"開南里","LIN":"17鄰","STREET":"新建路","SECT":" ","MAREA":" ","LANE":"２４巷","ALLEY":" ","HOUSE_NO":"２號十三樓之１","E_COORD97":166424.95999999999,"N_COORD97":2541140.1800000002,"ADDRESS":"新建路２４巷２號十三樓之１","OBJECTID":257411},"geometry":{"x":166424.95999999996,"y":2541140.1799999997}},{"attributes":{"ID":257416,"DIS_CODE":0,"TOWNNAME":"南區","LI":"開南里","LIN":"17鄰","STREET":"新建路","SECT":" ","MAREA":" ","LANE":"２４巷","ALLEY":" ","HOUSE_NO":"２號十三樓之２","E_COORD97":166424.95999999999,"N_COORD97":2541140.1800000002,"ADDRESS":"新建路２４巷２號十三樓之２","OBJECTID":257412},"geometry":{"x":166424.95999999996,"y":2541140.1799999997}},{"attributes":{"ID":257417,"DIS_CODE":0,"TOWNNAME":"南區","LI":"開南里","LIN":"17鄰","STREET":"新建路","SECT":" ","MAREA":" ","LANE":"２４巷","ALLEY":" ","HOUSE_NO":"２號十三樓之３","E_COORD97":166424.95999999999,"N_COORD97":2541140.1800000002,"ADDRESS":"新建路２４巷２號十三樓之３","OBJECTID":257413},"geometry":{"x":166424.95999999996,"y":2541140.1799999997}},{"attributes":{"ID":257418,"DIS_CODE":0,"TOWNNAME":"南區","LI":"開南里","LIN":"17鄰","STREET":"新建路","SECT":" ","MAREA":" ","LANE":"２４巷","ALLEY":" ","HOUSE_NO":"２號十五樓","E_COORD97":166424.95999999999,"N_COORD97":2541140.1800000002,"ADDRESS":"新建路２４巷２號十五樓","OBJECTID":257414},"geometry":{"x":166424.95999999996,"y":2541140.1799999997}},{"attributes":{"ID":257419,"DIS_CODE":0,"TOWNNAME":"南區","LI":"開南里","LIN":"17鄰","STREET":"新建路","SECT":" ","MAREA":" ","LANE":"２４巷","ALLEY":" ","HOUSE_NO":"２號十五樓之１","E_COORD97":166424.95999999999,"N_COORD97":2541140.1800000002,"ADDRESS":"新建路２４巷２號十五樓之１","OBJECTID":257415},"geometry":{"x":166424.95999999996,"y":2541140.1799999997}},{"attributes":{"ID":257420,"DIS_CODE":0,"TOWNNAME":"南區","LI":"開南里","LIN":"17鄰","STREET":"新建路","SECT":" ","MAREA":" ","LANE":"２４巷","ALLEY":" ","HOUSE_NO":"２號十五樓之２","E_COORD97":166424.95999999999,"N_COORD97":2541140.1800000002,"ADDRESS":"新建路２４巷２號十五樓之２","OBJECTID":257416},"geometry":{"x":166424.95999999996,"y":2541140.1799999997}},{"attributes":{"ID":257421,"DIS_CODE":0,"TOWNNAME":"南區","LI":"開南里","LIN":"17鄰","STREET":"新建路","SECT":" ","MAREA":" ","LANE":"２４巷","ALLEY":" ","HOUSE_NO":"２號十五樓之３","E_COORD97":166424.95999999999,"N_COORD97":2541140.1800000002,"ADDRESS":"新建路２４巷２號十五樓之３","OBJECTID":257417},"geometry":{"x":166424.95999999996,"y":2541140.1799999997}},{"attributes":{"ID":257422,"DIS_CODE":0,"TOWNNAME":"南區","LI":"開南里","LIN":"17鄰","STREET":"新建路","SECT":" ","MAREA":" ","LANE":"２４巷","ALLEY":" ","HOUSE_NO":"２號十六樓","E_COORD97":166424.95999999999,"N_COORD97":2541140.1800000002,"ADDRESS":"新建路２４巷２號十六樓","OBJECTID":257418},"geometry":{"x":166424.95999999996,"y":2541140.1799999997}},{"attributes":{"ID":257423,"DIS_CODE":0,"TOWNNAME":"南區","LI":"開南里","LIN":"17鄰","STREET":"新建路","SECT":" ","MAREA":" ","LANE":"２４巷","ALLEY":" ","HOUSE_NO":"２號十六樓之１","E_COORD97":166424.95999999999,"N_COORD97":2541140.1800000002,"ADDRESS":"新建路２４巷２號十六樓之１","OBJECTID":257419},"geometry":{"x":166424.95999999996,"y":2541140.1799999997}},{"attributes":{"ID":257424,"DIS_CODE":0,"TOWNNAME":"南區","LI":"開南里","LIN":"17鄰","STREET":"新建路","SECT":" ","MAREA":" ","LANE":"２４巷","ALLEY":" ","HOUSE_NO":"２號十六樓之２","E_COORD97":166424.95999999999,"N_COORD97":2541140.1800000002,"ADDRESS":"新建路２４巷２號十六樓之２","OBJECTID":257420},"geometry":{"x":166424.95999999996,"y":2541140.1799999997}},{"attributes":{"ID":257425,"DIS_CODE":0,"TOWNNAME":"南區","LI":"開南里","LIN":"17鄰","STREET":"新建路","SECT":" ","MAREA":" ","LANE":"２４巷","ALLEY":" ","HOUSE_NO":"２號十六樓之３","E_COORD97":166424.95999999999,"N_COORD97":2541140.1800000002,"ADDRESS":"新建路２４巷２號十六樓之３","OBJECTID":257421},"geometry":{"x":166424.95999999996,"y":2541140.1799999997}},{"attributes":{"ID":257426,"DIS_CODE":0,"TOWNNAME":"官田區","LI":"渡頭里","LIN":"27鄰","STREET":" ","SECT":" ","MAREA":"三塊厝","LANE":" ","ALLEY":" ","HOUSE_NO":"３４號","E_COORD97":182571.17999999999,"N_COORD97":2562078.6600000001,"ADDRESS":"三塊厝３４號","OBJECTID":257422},"geometry":{"x":182571.1799999997,"y":2562078.660000002}},{"attributes":{"ID":257427,"DIS_CODE":0,"TOWNNAME":"官田區","LI":"渡頭里","LIN":"27鄰","STREET":" ","SECT":" ","MAREA":"三塊厝","LANE":" ","ALLEY":" ","HOUSE_NO":"１０３號","E_COORD97":182473.76000000001,"N_COORD97":2562016.6400000001,"ADDRESS":"三塊厝１０３號","OBJECTID":257423},"geometry":{"x":182473.76000000071,"y":2562016.6400000043}},{"attributes":{"ID":257428,"DIS_CODE":0,"TOWNNAME":"官田區","LI":"渡頭里","LIN":"27鄰","STREET":" ","SECT":" ","MAREA":"三塊厝","LANE":" ","ALLEY":" ","HOUSE_NO":"１０４號之３","E_COORD97":182480.5,"N_COORD97":2562026.1200000001,"ADDRESS":"三塊厝１０４號之３","OBJECTID":257424},"geometry":{"x":182480.50000000093,"y":2562026.120000001}},{"attributes":{"ID":257429,"DIS_CODE":0,"TOWNNAME":"官田區","LI":"渡頭里","LIN":"27鄰","STREET":" ","SECT":" ","MAREA":"三塊厝","LANE":" ","ALLEY":" ","HOUSE_NO":"１０４號","E_COORD97":182469.39999999999,"N_COORD97":2562040.3100000001,"ADDRESS":"三塊厝１０４號","OBJECTID":257425},"geometry":{"x":182469.4000000013,"y":2562040.3100000024}},{"attributes":{"ID":257430,"DIS_CODE":0,"TOWNNAME":"官田區","LI":"渡頭里","LIN":"27鄰","STREET":" ","SECT":" ","MAREA":"三塊厝","LANE":" ","ALLEY":" ","HOUSE_NO":"１０５號之１","E_COORD97":182483.35999999999,"N_COORD97":2562052.8399999999,"ADDRESS":"三塊厝１０５號之１","OBJECTID":257426},"geometry":{"x":182483.36000000127,"y":2562052.8400000017}},{"attributes":{"ID":257431,"DIS_CODE":0,"TOWNNAME":"官田區","LI":"渡頭里","LIN":"27鄰","STREET":" ","SECT":" ","MAREA":"三塊厝","LANE":" ","ALLEY":" ","HOUSE_NO":"１０６號","E_COORD97":182489.54999999999,"N_COORD97":2562065.0499999998,"ADDRESS":"三塊厝１０６號","OBJECTID":257427},"geometry":{"x":182489.54999999888,"y":2562065.0500000045}},{"attributes":{"ID":257432,"DIS_CODE":0,"TOWNNAME":"南區","LI":"開南里","LIN":"17鄰","STREET":"新建路","SECT":" ","MAREA":" ","LANE":"２４巷","ALLEY":" ","HOUSE_NO":"２號十四樓","E_COORD97":166424.95999999999,"N_COORD97":2541140.1800000002,"ADDRESS":"新建路２４巷２號十四樓","OBJECTID":257428},"geometry":{"x":166424.95999999996,"y":2541140.1799999997}},{"attributes":{"ID":257433,"DIS_CODE":0,"TOWNNAME":"南區","LI":"開南里","LIN":"17鄰","STREET":"新建路","SECT":" ","MAREA":" ","LANE":"２４巷","ALLEY":" ","HOUSE_NO":"２號十四樓之１","E_COORD97":166424.95999999999,"N_COORD97":2541140.1800000002,"ADDRESS":"新建路２４巷２號十四樓之１","OBJECTID":257429},"geometry":{"x":166424.95999999996,"y":2541140.1799999997}},{"attributes":{"ID":257434,"DIS_CODE":0,"TOWNNAME":"永康區","LI":"東灣里","LIN":"27鄰","STREET":"大灣一街","SECT":" ","MAREA":" ","LANE":"３１２巷","ALLEY":" ","HOUSE_NO":"１２號","E_COORD97":175063.89999999999,"N_COORD97":2544672.3900000001,"ADDRESS":"大灣一街３１２巷１２號","OBJECTID":257430},"geometry":{"x":175063.90000000037,"y":2544672.3900000006}},{"attributes":{"ID":257435,"DIS_CODE":0,"TOWNNAME":"官田區","LI":"渡頭里","LIN":"27鄰","STREET":" ","SECT":" ","MAREA":"三塊厝","LANE":" ","ALLEY":" ","HOUSE_NO":"６０號","E_COORD97":182535.92000000001,"N_COORD97":2562136.1499999999,"ADDRESS":"三塊厝６０號","OBJECTID":257431},"geometry":{"x":182535.91999999993,"y":2562136.1500000022}},{"attributes":{"ID":257436,"DIS_CODE":0,"TOWNNAME":"永康區","LI":"西灣里","LIN":"27鄰","STREET":"國光八街","SECT":" ","MAREA":" ","LANE":"１２巷","ALLEY":" ","HOUSE_NO":"２０號","E_COORD97":174448.62,"N_COORD97":2545824.75,"ADDRESS":"國光八街１２巷２０號","OBJECTID":257432},"geometry":{"x":174448.62000000011,"y":2545824.75}},{"attributes":{"ID":257437,"DIS_CODE":0,"TOWNNAME":"官田區","LI":"渡頭里","LIN":"27鄰","STREET":" ","SECT":" ","MAREA":"三塊厝","LANE":" ","ALLEY":" ","HOUSE_NO":"６１號","E_COORD97":182533.76999999999,"N_COORD97":2562152.79,"ADDRESS":"三塊厝６１號","OBJECTID":257433},"geometry":{"x":182533.77000000142,"y":2562152.7899999991}},{"attributes":{"ID":257438,"DIS_CODE":0,"TOWNNAME":"官田區","LI":"渡頭里","LIN":"27鄰","STREET":" ","SECT":" ","MAREA":"三塊厝","LANE":" ","ALLEY":" ","HOUSE_NO":"６２號","E_COORD97":182515.94,"N_COORD97":2562112.0600000001,"ADDRESS":"三塊厝６２號","OBJECTID":257434},"geometry":{"x":182515.94000000041,"y":2562112.0600000042}},{"attributes":{"ID":257439,"DIS_CODE":0,"TOWNNAME":"永康區","LI":"西灣里","LIN":"27鄰","STREET":"公園路","SECT":" ","MAREA":" ","LANE":"６３巷","ALLEY":" ","HOUSE_NO":"５３號","E_COORD97":174371.25,"N_COORD97":2545818.4199999999,"ADDRESS":"公園路６３巷５３號","OBJECTID":257435},"geometry":{"x":174371.25,"y":2545818.4200000037}},{"attributes":{"ID":257440,"DIS_CODE":0,"TOWNNAME":"官田區","LI":"渡頭里","LIN":"27鄰","STREET":" ","SECT":" ","MAREA":"三塊厝","LANE":" ","ALLEY":" ","HOUSE_NO":"６３號","E_COORD97":182504.48000000001,"N_COORD97":2562100.0699999998,"ADDRESS":"三塊厝６３號","OBJECTID":257436},"geometry":{"x":182504.48000000231,"y":2562100.0700000003}},{"attributes":{"ID":257441,"DIS_CODE":0,"TOWNNAME":"永康區","LI":"西灣里","LIN":"27鄰","STREET":"國光八街","SECT":" ","MAREA":" ","LANE":"１２巷","ALLEY":" ","HOUSE_NO":"５號","E_COORD97":174429.82999999999,"N_COORD97":2545816.6899999999,"ADDRESS":"國光八街１２巷５號","OBJECTID":257437},"geometry":{"x":174429.83000000101,"y":2545816.6900000013}},{"attributes":{"ID":257442,"DIS_CODE":0,"TOWNNAME":"永康區","LI":"西灣里","LIN":"27鄰","STREET":"國光八街","SECT":" ","MAREA":" ","LANE":"１２巷","ALLEY":" ","HOUSE_NO":"２８號","E_COORD97":174451.76000000001,"N_COORD97":2545844.9900000002,"ADDRESS":"國光八街１２巷２８號","OBJECTID":257438},"geometry":{"x":174451.76000000071,"y":2545844.9899999984}},{"attributes":{"ID":257443,"DIS_CODE":0,"TOWNNAME":"官田區","LI":"渡頭里","LIN":"27鄰","STREET":" ","SECT":" ","MAREA":"三塊厝","LANE":" ","ALLEY":" ","HOUSE_NO":"６４號","E_COORD97":182507.51000000001,"N_COORD97":2562094.54,"ADDRESS":"三塊厝６４號","OBJECTID":257439},"geometry":{"x":182507.51000000071,"y":2562094.540000001}},{"attributes":{"ID":257444,"DIS_CODE":0,"TOWNNAME":"永康區","LI":"西灣里","LIN":"27鄰","STREET":"國光八街","SECT":" ","MAREA":" ","LANE":"１２巷","ALLEY":" ","HOUSE_NO":"１３號","E_COORD97":174436.84,"N_COORD97":2545839.5299999998,"ADDRESS":"國光八街１２巷１３號","OBJECTID":257440},"geometry":{"x":174436.83999999985,"y":2545839.5299999993}},{"attributes":{"ID":257445,"DIS_CODE":0,"TOWNNAME":"永康區","LI":"西灣里","LIN":"27鄰","STREET":"國光八街","SECT":" ","MAREA":" ","LANE":"１２巷","ALLEY":" ","HOUSE_NO":"２４號","E_COORD97":174448.94,"N_COORD97":2545836.2400000002,"ADDRESS":"國光八街１２巷２４號","OBJECTID":257441},"geometry":{"x":174448.93999999948,"y":2545836.2400000002}},{"attributes":{"ID":257446,"DIS_CODE":0,"TOWNNAME":"南區","LI":"開南里","LIN":"17鄰","STREET":"新建路","SECT":" ","MAREA":" ","LANE":"２４巷","ALLEY":" ","HOUSE_NO":"２號十四樓之２","E_COORD97":166424.95999999999,"N_COORD97":2541140.1800000002,"ADDRESS":"新建路２４巷２號十四樓之２","OBJECTID":257442},"geometry":{"x":166424.95999999996,"y":2541140.1799999997}},{"attributes":{"ID":257447,"DIS_CODE":0,"TOWNNAME":"南區","LI":"開南里","LIN":"17鄰","STREET":"新建路","SECT":" ","MAREA":" ","LANE":"２４巷","ALLEY":" ","HOUSE_NO":"２號十四樓之３","E_COORD97":166424.95999999999,"N_COORD97":2541140.1800000002,"ADDRESS":"新建路２４巷２號十四樓之３","OBJECTID":257443},"geometry":{"x":166424.95999999996,"y":2541140.1799999997}},{"attributes":{"ID":257448,"DIS_CODE":0,"TOWNNAME":"安平區","LI":"文平里","LIN":"17鄰","STREET":"建平三街","SECT":" ","MAREA":" ","LANE":"６５巷","ALLEY":" ","HOUSE_NO":"１８號三樓之３","E_COORD97":165743.35000000001,"N_COORD97":2542877.1400000001,"ADDRESS":"建平三街６５巷１８號三樓之３","OBJECTID":257444},"geometry":{"x":165743.34999999963,"y":2542877.1400000006}},{"attributes":{"ID":257449,"DIS_CODE":0,"TOWNNAME":"安平區","LI":"文平里","LIN":"17鄰","STREET":"建平三街","SECT":" ","MAREA":" ","LANE":"６５巷","ALLEY":" ","HOUSE_NO":"１８號四樓之１","E_COORD97":165743.35000000001,"N_COORD97":2542877.1400000001,"ADDRESS":"建平三街６５巷１８號四樓之１","OBJECTID":257445},"geometry":{"x":165743.34999999963,"y":2542877.1400000006}},{"attributes":{"ID":257450,"DIS_CODE":0,"TOWNNAME":"安平區","LI":"文平里","LIN":"17鄰","STREET":"建平三街","SECT":" ","MAREA":" ","LANE":"６５巷","ALLEY":" ","HOUSE_NO":"１８號四樓之２","E_COORD97":165743.35000000001,"N_COORD97":2542877.1400000001,"ADDRESS":"建平三街６５巷１８號四樓之２","OBJECTID":257446},"geometry":{"x":165743.34999999963,"y":2542877.1400000006}},{"attributes":{"ID":257451,"DIS_CODE":0,"TOWNNAME":"官田區","LI":"渡頭里","LIN":"27鄰","STREET":" ","SECT":" ","MAREA":"三塊厝","LANE":" ","ALLEY":" ","HOUSE_NO":"６５號之１１","E_COORD97":182499.82999999999,"N_COORD97":2562451.0600000001,"ADDRESS":"三塊厝６５號之１１","OBJECTID":257447},"geometry":{"x":182499.83000000194,"y":2562451.0600000042}},{"attributes":{"ID":257452,"DIS_CODE":0,"TOWNNAME":"安平區","LI":"文平里","LIN":"17鄰","STREET":"建平三街","SECT":" ","MAREA":" ","LANE":"６５巷","ALLEY":" ","HOUSE_NO":"１８號四樓之３","E_COORD97":165743.35000000001,"N_COORD97":2542877.1400000001,"ADDRESS":"建平三街６５巷１８號四樓之３","OBJECTID":257448},"geometry":{"x":165743.34999999963,"y":2542877.1400000006}},{"attributes":{"ID":257453,"DIS_CODE":0,"TOWNNAME":"東區","LI":"泉南里","LIN":"24鄰","STREET":"長榮路","SECT":"一段","MAREA":" ","LANE":" ","ALLEY":" ","HOUSE_NO":"５號五樓之５","E_COORD97":169570.17999999999,"N_COORD97":2542608.3700000001,"ADDRESS":"長榮路一段５號五樓之５","OBJECTID":257449},"geometry":{"x":169570.18000000063,"y":2542608.370000001}},{"attributes":{"ID":257454,"DIS_CODE":0,"TOWNNAME":"東區","LI":"泉南里","LIN":"24鄰","STREET":"長榮路","SECT":"一段","MAREA":" ","LANE":" ","ALLEY":" ","HOUSE_NO":"５號六樓之５","E_COORD97":169570.17999999999,"N_COORD97":2542608.3700000001,"ADDRESS":"長榮路一段５號六樓之５","OBJECTID":257450},"geometry":{"x":169570.18000000063,"y":2542608.370000001}},{"attributes":{"ID":257455,"DIS_CODE":0,"TOWNNAME":"東區","LI":"泉南里","LIN":"24鄰","STREET":"長榮路","SECT":"一段","MAREA":" ","LANE":" ","ALLEY":" ","HOUSE_NO":"５號七樓之５","E_COORD97":169570.17999999999,"N_COORD97":2542608.3700000001,"ADDRESS":"長榮路一段５號七樓之５","OBJECTID":257451},"geometry":{"x":169570.18000000063,"y":2542608.370000001}},{"attributes":{"ID":257456,"DIS_CODE":0,"TOWNNAME":"東區","LI":"泉南里","LIN":"24鄰","STREET":"長榮路","SECT":"一段","MAREA":" ","LANE":" ","ALLEY":" ","HOUSE_NO":"５號八樓之５","E_COORD97":169570.17999999999,"N_COORD97":2542608.3700000001,"ADDRESS":"長榮路一段５號八樓之５","OBJECTID":257452},"geometry":{"x":169570.18000000063,"y":2542608.370000001}},{"attributes":{"ID":257457,"DIS_CODE":0,"TOWNNAME":"東區","LI":"泉南里","LIN":"24鄰","STREET":"長榮路","SECT":"一段","MAREA":" ","LANE":" ","ALLEY":" ","HOUSE_NO":"５號九樓之５","E_COORD97":169570.17999999999,"N_COORD97":2542608.3700000001,"ADDRESS":"長榮路一段５號九樓之５","OBJECTID":257453},"geometry":{"x":169570.18000000063,"y":2542608.370000001}},{"attributes":{"ID":257458,"DIS_CODE":0,"TOWNNAME":"東區","LI":"泉南里","LIN":"24鄰","STREET":"長榮路","SECT":"一段","MAREA":" ","LANE":" ","ALLEY":" ","HOUSE_NO":"５號十樓之５","E_COORD97":169570.17999999999,"N_COORD97":2542608.3700000001,"ADDRESS":"長榮路一段５號十樓之５","OBJECTID":257454},"geometry":{"x":169570.18000000063,"y":2542608.370000001}},{"attributes":{"ID":257459,"DIS_CODE":0,"TOWNNAME":"東區","LI":"泉南里","LIN":"24鄰","STREET":"長榮路","SECT":"一段","MAREA":" ","LANE":" ","ALLEY":" ","HOUSE_NO":"５號十一樓之５","E_COORD97":169570.17999999999,"N_COORD97":2542608.3700000001,"ADDRESS":"長榮路一段５號十一樓之５","OBJECTID":257455},"geometry":{"x":169570.18000000063,"y":2542608.370000001}},{"attributes":{"ID":257460,"DIS_CODE":0,"TOWNNAME":"安南區","LI":"鳳凰里","LIN":"27鄰","STREET":"北安路","SECT":"三段","MAREA":" ","LANE":"１４５巷","ALLEY":" ","HOUSE_NO":"１６號","E_COORD97":168236.95999999999,"N_COORD97":2549057.3900000001,"ADDRESS":"北安路三段１４５巷１６號","OBJECTID":257456},"geometry":{"x":168236.95999999996,"y":2549057.3900000025}},{"attributes":{"ID":257461,"DIS_CODE":0,"TOWNNAME":"安南區","LI":"鳳凰里","LIN":"27鄰","STREET":"北安路","SECT":"三段","MAREA":" ","LANE":"１４５巷","ALLEY":" ","HOUSE_NO":"５０號","E_COORD97":168184.38,"N_COORD97":2549091.2999999998,"ADDRESS":"北安路三段１４５巷５０號","OBJECTID":257457},"geometry":{"x":168184.37999999989,"y":2549091.3000000007}},{"attributes":{"ID":257462,"DIS_CODE":0,"TOWNNAME":"歸仁區","LI":"崙頂里","LIN":"14鄰","STREET":"崙頂五街","SECT":" ","MAREA":" ","LANE":"２１巷","ALLEY":" ","HOUSE_NO":"１５號","E_COORD97":177925.610163,"N_COORD97":2539871.27257,"ADDRESS":"崙頂五街２１巷１５號","OBJECTID":257458},"geometry":{"x":177925.61016300134,"y":2539871.2725670021}},{"attributes":{"ID":257463,"DIS_CODE":0,"TOWNNAME":"安南區","LI":"鳳凰里","LIN":"27鄰","STREET":"北安路","SECT":"三段","MAREA":" ","LANE":"１４５巷","ALLEY":" ","HOUSE_NO":"７２號","E_COORD97":168146.41,"N_COORD97":2549115.9399999999,"ADDRESS":"北安路三段１４５巷７２號","OBJECTID":257459},"geometry":{"x":168146.41000000108,"y":2549115.9399999995}},{"attributes":{"ID":257464,"DIS_CODE":0,"TOWNNAME":"安南區","LI":"鳳凰里","LIN":"27鄰","STREET":"北安路","SECT":"三段","MAREA":" ","LANE":"１４５巷","ALLEY":" ","HOUSE_NO":"７５號","E_COORD97":168114.14999999999,"N_COORD97":2549116.4500000002,"ADDRESS":"北安路三段１４５巷７５號","OBJECTID":257460},"geometry":{"x":168114.15000000037,"y":2549116.4500000011}},{"attributes":{"ID":257465,"DIS_CODE":0,"TOWNNAME":"安南區","LI":"鳳凰里","LIN":"27鄰","STREET":"北安路","SECT":"三段","MAREA":" ","LANE":"１４５巷","ALLEY":" ","HOUSE_NO":"７３號","E_COORD97":168117.70999999999,"N_COORD97":2549115.1800000002,"ADDRESS":"北安路三段１４５巷７３號","OBJECTID":257461},"geometry":{"x":168117.71000000089,"y":2549115.1800000034}},{"attributes":{"ID":257466,"DIS_CODE":0,"TOWNNAME":"安南區","LI":"鳳凰里","LIN":"27鄰","STREET":"北安路","SECT":"三段","MAREA":" ","LANE":"１４５巷","ALLEY":" ","HOUSE_NO":"５２號","E_COORD97":168179.69,"N_COORD97":2549093.21,"ADDRESS":"北安路三段１４５巷５２號","OBJECTID":257462},"geometry":{"x":168179.69000000041,"y":2549093.2100000028}},{"attributes":{"ID":257467,"DIS_CODE":0,"TOWNNAME":"安南區","LI":"鳳凰里","LIN":"27鄰","STREET":"北安路","SECT":"三段","MAREA":" ","LANE":"１４５巷","ALLEY":" ","HOUSE_NO":"５６號","E_COORD97":168175.88,"N_COORD97":2549095.75,"ADDRESS":"北安路三段１４５巷５６號","OBJECTID":257463},"geometry":{"x":168175.87999999989,"y":2549095.7500000019}},{"attributes":{"ID":257468,"DIS_CODE":0,"TOWNNAME":"安南區","LI":"鳳凰里","LIN":"27鄰","STREET":"北安路","SECT":"三段","MAREA":" ","LANE":"１４５巷","ALLEY":" ","HOUSE_NO":"５８號","E_COORD97":168172.07000000001,"N_COORD97":2549098.29,"ADDRESS":"北安路三段１４５巷５８號","OBJECTID":257464},"geometry":{"x":168172.0700000003,"y":2549098.290000001}},{"attributes":{"ID":257469,"DIS_CODE":0,"TOWNNAME":"安南區","LI":"鳳凰里","LIN":"27鄰","STREET":"北安路","SECT":"三段","MAREA":" ","LANE":"１４５巷","ALLEY":" ","HOUSE_NO":"６０號","E_COORD97":168168.26000000001,"N_COORD97":2549100.4500000002,"ADDRESS":"北安路三段１４５巷６０號","OBJECTID":257465},"geometry":{"x":168168.25999999978,"y":2549100.4500000011}},{"attributes":{"ID":257470,"DIS_CODE":0,"TOWNNAME":"永康區","LI":"勝利里","LIN":"36鄰","STREET":"勝學路","SECT":" ","MAREA":" ","LANE":"１０８巷","ALLEY":" ","HOUSE_NO":"５號","E_COORD97":171195.16,"N_COORD97":2544850.98,"ADDRESS":"勝學路１０８巷５號","OBJECTID":257466},"geometry":{"x":171195.16000000015,"y":2544850.9800000004}},{"attributes":{"ID":257471,"DIS_CODE":0,"TOWNNAME":"安南區","LI":"鳳凰里","LIN":"27鄰","STREET":"北安路","SECT":"三段","MAREA":" ","LANE":"１４５巷","ALLEY":" ","HOUSE_NO":"６３號","E_COORD97":168161.64999999999,"N_COORD97":2549104.5099999998,"ADDRESS":"北安路三段１４５巷６３號","OBJECTID":257467},"geometry":{"x":168161.65000000037,"y":2549104.5099999998}},{"attributes":{"ID":257472,"DIS_CODE":0,"TOWNNAME":"安南區","LI":"鳳凰里","LIN":"27鄰","STREET":"北安路","SECT":"三段","MAREA":" ","LANE":"１４５巷","ALLEY":" ","HOUSE_NO":"６５號","E_COORD97":168158.35000000001,"N_COORD97":2549107.0499999998,"ADDRESS":"北安路三段１４５巷６５號","OBJECTID":257468},"geometry":{"x":168158.35000000056,"y":2549107.0500000045}},{"attributes":{"ID":257473,"DIS_CODE":0,"TOWNNAME":"安南區","LI":"鳳凰里","LIN":"27鄰","STREET":"北安路","SECT":"三段","MAREA":" ","LANE":"１４５巷","ALLEY":" ","HOUSE_NO":"６８號","E_COORD97":168152.25,"N_COORD97":2549110.6099999999,"ADDRESS":"北安路三段１４５巷６８號","OBJECTID":257469},"geometry":{"x":168152.25000000186,"y":2549110.6099999994}},{"attributes":{"ID":257474,"DIS_CODE":0,"TOWNNAME":"安南區","LI":"鳳凰里","LIN":"27鄰","STREET":"北安路","SECT":"三段","MAREA":" ","LANE":"１４５巷","ALLEY":" ","HOUSE_NO":"７０號","E_COORD97":168148.82000000001,"N_COORD97":2549112.77,"ADDRESS":"北安路三段１４５巷７０號","OBJECTID":257470},"geometry":{"x":168148.82000000216,"y":2549112.7699999996}},{"attributes":{"ID":257475,"DIS_CODE":0,"TOWNNAME":"安平區","LI":"文平里","LIN":"17鄰","STREET":"建平三街","SECT":" ","MAREA":" ","LANE":"６５巷","ALLEY":" ","HOUSE_NO":"１８號四樓之５","E_COORD97":165743.35000000001,"N_COORD97":2542877.1400000001,"ADDRESS":"建平三街６５巷１８號四樓之５","OBJECTID":257471},"geometry":{"x":165743.34999999963,"y":2542877.1400000006}},{"attributes":{"ID":257476,"DIS_CODE":0,"TOWNNAME":"東區","LI":"泉南里","LIN":"24鄰","STREET":"長榮路","SECT":"一段","MAREA":" ","LANE":" ","ALLEY":" ","HOUSE_NO":"５號十二樓之５","E_COORD97":169570.17999999999,"N_COORD97":2542608.3700000001,"ADDRESS":"長榮路一段５號十二樓之５","OBJECTID":257472},"geometry":{"x":169570.18000000063,"y":2542608.370000001}},{"attributes":{"ID":257477,"DIS_CODE":0,"TOWNNAME":"東區","LI":"泉南里","LIN":"24鄰","STREET":"長榮路","SECT":"一段","MAREA":" ","LANE":" ","ALLEY":" ","HOUSE_NO":"５號十三樓之５","E_COORD97":169570.17999999999,"N_COORD97":2542608.3700000001,"ADDRESS":"長榮路一段５號十三樓之５","OBJECTID":257473},"geometry":{"x":169570.18000000063,"y":2542608.370000001}},{"attributes":{"ID":257478,"DIS_CODE":0,"TOWNNAME":"東區","LI":"泉南里","LIN":"24鄰","STREET":"長榮路","SECT":"一段","MAREA":" ","LANE":" ","ALLEY":" ","HOUSE_NO":"５號十四樓之５","E_COORD97":169570.17999999999,"N_COORD97":2542608.3700000001,"ADDRESS":"長榮路一段５號十四樓之５","OBJECTID":257474},"geometry":{"x":169570.18000000063,"y":2542608.370000001}},{"attributes":{"ID":257479,"DIS_CODE":0,"TOWNNAME":"東區","LI":"泉南里","LIN":"24鄰","STREET":"長榮路","SECT":"一段","MAREA":" ","LANE":" ","ALLEY":" ","HOUSE_NO":"７號二樓之１","E_COORD97":169595.51999999999,"N_COORD97":2542609.46,"ADDRESS":"長榮路一段７號二樓之１","OBJECTID":257475},"geometry":{"x":169595.51999999955,"y":2542609.4600000028}},{"attributes":{"ID":257480,"DIS_CODE":0,"TOWNNAME":"東區","LI":"泉南里","LIN":"24鄰","STREET":"長榮路","SECT":"一段","MAREA":" ","LANE":" ","ALLEY":" ","HOUSE_NO":"７號三樓之１","E_COORD97":169595.51999999999,"N_COORD97":2542609.46,"ADDRESS":"長榮路一段７號三樓之１","OBJECTID":257476},"geometry":{"x":169595.51999999955,"y":2542609.4600000028}},{"attributes":{"ID":257481,"DIS_CODE":0,"TOWNNAME":"東區","LI":"泉南里","LIN":"24鄰","STREET":"長榮路","SECT":"一段","MAREA":" ","LANE":" ","ALLEY":" ","HOUSE_NO":"７號四樓之１","E_COORD97":169595.51999999999,"N_COORD97":2542609.46,"ADDRESS":"長榮路一段７號四樓之１","OBJECTID":257477},"geometry":{"x":169595.51999999955,"y":2542609.4600000028}},{"attributes":{"ID":257482,"DIS_CODE":0,"TOWNNAME":"東區","LI":"泉南里","LIN":"24鄰","STREET":"長榮路","SECT":"一段","MAREA":" ","LANE":" ","ALLEY":" ","HOUSE_NO":"７號五樓之１","E_COORD97":169595.51999999999,"N_COORD97":2542609.46,"ADDRESS":"長榮路一段７號五樓之１","OBJECTID":257478},"geometry":{"x":169595.51999999955,"y":2542609.4600000028}},{"attributes":{"ID":257483,"DIS_CODE":0,"TOWNNAME":"東區","LI":"泉南里","LIN":"24鄰","STREET":"長榮路","SECT":"一段","MAREA":" ","LANE":" ","ALLEY":" ","HOUSE_NO":"７號六樓之１","E_COORD97":169595.51999999999,"N_COORD97":2542609.46,"ADDRESS":"長榮路一段７號六樓之１","OBJECTID":257479},"geometry":{"x":169595.51999999955,"y":2542609.4600000028}},{"attributes":{"ID":257484,"DIS_CODE":0,"TOWNNAME":"東區","LI":"泉南里","LIN":"24鄰","STREET":"長榮路","SECT":"一段","MAREA":" ","LANE":" ","ALLEY":" ","HOUSE_NO":"７號七樓之１","E_COORD97":169595.51999999999,"N_COORD97":2542609.46,"ADDRESS":"長榮路一段７號七樓之１","OBJECTID":257480},"geometry":{"x":169595.51999999955,"y":2542609.4600000028}},{"attributes":{"ID":257485,"DIS_CODE":0,"TOWNNAME":"東區","LI":"泉南里","LIN":"24鄰","STREET":"長榮路","SECT":"一段","MAREA":" ","LANE":" ","ALLEY":" ","HOUSE_NO":"７號八樓之１","E_COORD97":169595.51999999999,"N_COORD97":2542609.46,"ADDRESS":"長榮路一段７號八樓之１","OBJECTID":257481},"geometry":{"x":169595.51999999955,"y":2542609.4600000028}},{"attributes":{"ID":257486,"DIS_CODE":0,"TOWNNAME":"東區","LI":"泉南里","LIN":"24鄰","STREET":"長榮路","SECT":"一段","MAREA":" ","LANE":" ","ALLEY":" ","HOUSE_NO":"７號九樓之１","E_COORD97":169595.51999999999,"N_COORD97":2542609.46,"ADDRESS":"長榮路一段７號九樓之１","OBJECTID":257482},"geometry":{"x":169595.51999999955,"y":2542609.4600000028}},{"attributes":{"ID":257487,"DIS_CODE":0,"TOWNNAME":"東區","LI":"泉南里","LIN":"24鄰","STREET":"長榮路","SECT":"一段","MAREA":" ","LANE":" ","ALLEY":" ","HOUSE_NO":"７號十樓之１","E_COORD97":169595.51999999999,"N_COORD97":2542609.46,"ADDRESS":"長榮路一段７號十樓之１","OBJECTID":257483},"geometry":{"x":169595.51999999955,"y":2542609.4600000028}},{"attributes":{"ID":257488,"DIS_CODE":0,"TOWNNAME":"東區","LI":"泉南里","LIN":"24鄰","STREET":"長榮路","SECT":"一段","MAREA":" ","LANE":" ","ALLEY":" ","HOUSE_NO":"７號十一樓之１","E_COORD97":169595.51999999999,"N_COORD97":2542609.46,"ADDRESS":"長榮路一段７號十一樓之１","OBJECTID":257484},"geometry":{"x":169595.51999999955,"y":2542609.4600000028}},{"attributes":{"ID":257489,"DIS_CODE":0,"TOWNNAME":"東區","LI":"泉南里","LIN":"24鄰","STREET":"長榮路","SECT":"一段","MAREA":" ","LANE":" ","ALLEY":" ","HOUSE_NO":"７號十二樓之１","E_COORD97":169595.51999999999,"N_COORD97":2542609.46,"ADDRESS":"長榮路一段７號十二樓之１","OBJECTID":257485},"geometry":{"x":169595.51999999955,"y":2542609.4600000028}},{"attributes":{"ID":257490,"DIS_CODE":0,"TOWNNAME":"東區","LI":"泉南里","LIN":"24鄰","STREET":"長榮路","SECT":"一段","MAREA":" ","LANE":" ","ALLEY":" ","HOUSE_NO":"７號十三樓之１","E_COORD97":169595.51999999999,"N_COORD97":2542609.46,"ADDRESS":"長榮路一段７號十三樓之１","OBJECTID":257486},"geometry":{"x":169595.51999999955,"y":2542609.4600000028}},{"attributes":{"ID":257491,"DIS_CODE":0,"TOWNNAME":"佳里區","LI":"安西里","LIN":"27鄰","STREET":"安西路","SECT":" ","MAREA":" ","LANE":"３３５巷","ALLEY":" ","HOUSE_NO":"２號","E_COORD97":165237.64999999999,"N_COORD97":2563043.4500000002,"ADDRESS":"安西路３３５巷２號","OBJECTID":257487},"geometry":{"x":165237.65000000224,"y":2563043.4499999993}},{"attributes":{"ID":257492,"DIS_CODE":0,"TOWNNAME":"佳里區","LI":"安西里","LIN":"27鄰","STREET":"安西路","SECT":" ","MAREA":" ","LANE":"３３５巷","ALLEY":" ","HOUSE_NO":"６號","E_COORD97":165233.29999999999,"N_COORD97":2563043.5800000001,"ADDRESS":"安西路３３５巷６號","OBJECTID":257488},"geometry":{"x":165233.30000000075,"y":2563043.5799999982}},{"attributes":{"ID":257493,"DIS_CODE":0,"TOWNNAME":"佳里區","LI":"安西里","LIN":"27鄰","STREET":"安西路","SECT":" ","MAREA":" ","LANE":"３３５巷","ALLEY":" ","HOUSE_NO":"８號","E_COORD97":165215.53,"N_COORD97":2563055.7000000002,"ADDRESS":"安西路３３５巷８號","OBJECTID":257489},"geometry":{"x":165215.53000000026,"y":2563055.700000003}},{"attributes":{"ID":257494,"DIS_CODE":0,"TOWNNAME":"佳里區","LI":"安西里","LIN":"27鄰","STREET":"安西路","SECT":" ","MAREA":" ","LANE":"３４９巷","ALLEY":" ","HOUSE_NO":"１１號","E_COORD97":165231.79999999999,"N_COORD97":2563083.3799999999,"ADDRESS":"安西路３４９巷１１號","OBJECTID":257490},"geometry":{"x":165231.79999999981,"y":2563083.379999999}},{"attributes":{"ID":257495,"DIS_CODE":0,"TOWNNAME":"官田區","LI":"渡頭里","LIN":"27鄰","STREET":" ","SECT":" ","MAREA":"三塊厝","LANE":" ","ALLEY":" ","HOUSE_NO":"６８號之２","E_COORD97":182499.39999999999,"N_COORD97":2562267.5099999998,"ADDRESS":"三塊厝６８號之２","OBJECTID":257491},"geometry":{"x":182499.40000000037,"y":2562267.5100000035}},{"attributes":{"ID":257496,"DIS_CODE":0,"TOWNNAME":"佳里區","LI":"安西里","LIN":"27鄰","STREET":"安西路","SECT":" ","MAREA":" ","LANE":"３４９巷","ALLEY":" ","HOUSE_NO":"１３號","E_COORD97":165227.26999999999,"N_COORD97":2563086.6000000001,"ADDRESS":"安西路３４９巷１３號","OBJECTID":257492},"geometry":{"x":165227.26999999955,"y":2563086.5999999996}},{"attributes":{"ID":257497,"DIS_CODE":0,"TOWNNAME":"佳里區","LI":"安西里","LIN":"27鄰","STREET":"安西路","SECT":" ","MAREA":" ","LANE":"３４９巷","ALLEY":" ","HOUSE_NO":"１號","E_COORD97":165248.10999999999,"N_COORD97":2563066.75,"ADDRESS":"安西路３４９巷１號","OBJECTID":257493},"geometry":{"x":165248.1100000022,"y":2563066.7500000019}},{"attributes":{"ID":257498,"DIS_CODE":0,"TOWNNAME":"安平區","LI":"文平里","LIN":"17鄰","STREET":"建平三街","SECT":" ","MAREA":" ","LANE":"６５巷","ALLEY":" ","HOUSE_NO":"１８號四樓之６","E_COORD97":165743.35000000001,"N_COORD97":2542877.1400000001,"ADDRESS":"建平三街６５巷１８號四樓之６","OBJECTID":257494},"geometry":{"x":165743.34999999963,"y":2542877.1400000006}},{"attributes":{"ID":257499,"DIS_CODE":0,"TOWNNAME":"安平區","LI":"文平里","LIN":"17鄰","STREET":"建平三街","SECT":" ","MAREA":" ","LANE":"６５巷","ALLEY":" ","HOUSE_NO":"１８號四樓之７","E_COORD97":165743.35000000001,"N_COORD97":2542877.1400000001,"ADDRESS":"建平三街６５巷１８號四樓之７","OBJECTID":257495},"geometry":{"x":165743.34999999963,"y":2542877.1400000006}},{"attributes":{"ID":257500,"DIS_CODE":0,"TOWNNAME":"安平區","LI":"文平里","LIN":"17鄰","STREET":"建平三街","SECT":" ","MAREA":" ","LANE":"６５巷","ALLEY":" ","HOUSE_NO":"１８號五樓之１","E_COORD97":165743.35000000001,"N_COORD97":2542877.1400000001,"ADDRESS":"建平三街６５巷１８號五樓之１","OBJECTID":257496},"geometry":{"x":165743.34999999963,"y":2542877.1400000006}},{"attributes":{"ID":257501,"DIS_CODE":0,"TOWNNAME":"安平區","LI":"文平里","LIN":"17鄰","STREET":"建平三街","SECT":" ","MAREA":" ","LANE":"６５巷","ALLEY":" ","HOUSE_NO":"１８號六樓之１","E_COORD97":165743.35000000001,"N_COORD97":2542877.1400000001,"ADDRESS":"建平三街６５巷１８號六樓之１","OBJECTID":257497},"geometry":{"x":165743.34999999963,"y":2542877.1400000006}},{"attributes":{"ID":257502,"DIS_CODE":0,"TOWNNAME":"永康區","LI":"勝利里","LIN":"36鄰","STREET":"勝學路","SECT":" ","MAREA":" ","LANE":"１０８巷","ALLEY":" ","HOUSE_NO":"１９號","E_COORD97":171218.10000000001,"N_COORD97":2544820.21,"ADDRESS":"勝學路１０８巷１９號","OBJECTID":257498},"geometry":{"x":171218.10000000056,"y":2544820.2100000009}},{"attributes":{"ID":257503,"DIS_CODE":0,"TOWNNAME":"安平區","LI":"文平里","LIN":"17鄰","STREET":"建平三街","SECT":" ","MAREA":" ","LANE":"６５巷","ALLEY":" ","HOUSE_NO":"１８號六樓之２","E_COORD97":165743.35000000001,"N_COORD97":2542877.1400000001,"ADDRESS":"建平三街６５巷１８號六樓之２","OBJECTID":257499},"geometry":{"x":165743.34999999963,"y":2542877.1400000006}},{"attributes":{"ID":257504,"DIS_CODE":0,"TOWNNAME":"新營區","LI":"興業里","LIN":"14鄰","STREET":"中興路","SECT":" ","MAREA":" ","LANE":"１５巷","ALLEY":" ","HOUSE_NO":"９號","E_COORD97":180185.81,"N_COORD97":2577937.2599999998,"ADDRESS":"中興路１５巷９號","OBJECTID":257500},"geometry":{"x":180185.81000000052,"y":2577937.2600000016}},{"attributes":{"ID":257505,"DIS_CODE":0,"TOWNNAME":"新營區","LI":"興業里","LIN":"14鄰","STREET":"中興路","SECT":" ","MAREA":" ","LANE":"１５巷","ALLEY":" ","HOUSE_NO":"１之３號","E_COORD97":180147.44,"N_COORD97":2577938.6099999999,"ADDRESS":"中興路１５巷１之３號","OBJECTID":257501},"geometry":{"x":180147.44000000041,"y":2577938.6099999994}},{"attributes":{"ID":257506,"DIS_CODE":0,"TOWNNAME":"新營區","LI":"興業里","LIN":" ","STREET":"中興路","SECT":" ","MAREA":" ","LANE":"１３巷","ALLEY":" ","HOUSE_NO":"１３之３號","E_COORD97":180203.09,"N_COORD97":2577979.3300000001,"ADDRESS":"中興路１３巷１３之３號","OBJECTID":257502},"geometry":{"x":180203.09000000078,"y":2577979.3300000001}},{"attributes":{"ID":257507,"DIS_CODE":0,"TOWNNAME":"北區","LI":"光武里","LIN":"17鄰","STREET":"北門路","SECT":"二段","MAREA":" ","LANE":"５７７巷","ALLEY":" ","HOUSE_NO":"８號二樓之１","E_COORD97":169621.23999999999,"N_COORD97":2545782.3399999999,"ADDRESS":"北門路二段５７７巷８號二樓之１","OBJECTID":257503},"geometry":{"x":169621.24000000115,"y":2545782.3400000017}},{"attributes":{"ID":257508,"DIS_CODE":0,"TOWNNAME":"北區","LI":"光武里","LIN":"17鄰","STREET":"北門路","SECT":"二段","MAREA":" ","LANE":"５７７巷","ALLEY":" ","HOUSE_NO":"８號二樓之２","E_COORD97":169621.23999999999,"N_COORD97":2545782.3399999999,"ADDRESS":"北門路二段５７７巷８號二樓之２","OBJECTID":257504},"geometry":{"x":169621.24000000115,"y":2545782.3400000017}},{"attributes":{"ID":257509,"DIS_CODE":0,"TOWNNAME":"北區","LI":"光武里","LIN":"17鄰","STREET":"北門路","SECT":"二段","MAREA":" ","LANE":"５７７巷","ALLEY":" ","HOUSE_NO":"８號二樓之３","E_COORD97":169621.23999999999,"N_COORD97":2545782.3399999999,"ADDRESS":"北門路二段５７７巷８號二樓之３","OBJECTID":257505},"geometry":{"x":169621.24000000115,"y":2545782.3400000017}},{"attributes":{"ID":257510,"DIS_CODE":0,"TOWNNAME":"東區","LI":"泉南里","LIN":"24鄰","STREET":"長榮路","SECT":"一段","MAREA":" ","LANE":" ","ALLEY":" ","HOUSE_NO":"７號十四樓之１","E_COORD97":169595.51999999999,"N_COORD97":2542609.46,"ADDRESS":"長榮路一段７號十四樓之１","OBJECTID":257506},"geometry":{"x":169595.51999999955,"y":2542609.4600000028}},{"attributes":{"ID":257511,"DIS_CODE":0,"TOWNNAME":"東區","LI":"泉南里","LIN":"24鄰","STREET":"長榮路","SECT":"一段","MAREA":" ","LANE":" ","ALLEY":" ","HOUSE_NO":"７號二樓之２","E_COORD97":169595.51999999999,"N_COORD97":2542609.46,"ADDRESS":"長榮路一段７號二樓之２","OBJECTID":257507},"geometry":{"x":169595.51999999955,"y":2542609.4600000028}},{"attributes":{"ID":257512,"DIS_CODE":0,"TOWNNAME":"東區","LI":"泉南里","LIN":"24鄰","STREET":"長榮路","SECT":"一段","MAREA":" ","LANE":" ","ALLEY":" ","HOUSE_NO":"７號三樓之２","E_COORD97":169595.51999999999,"N_COORD97":2542609.46,"ADDRESS":"長榮路一段７號三樓之２","OBJECTID":257508},"geometry":{"x":169595.51999999955,"y":2542609.4600000028}},{"attributes":{"ID":257513,"DIS_CODE":0,"TOWNNAME":"東區","LI":"泉南里","LIN":"24鄰","STREET":"長榮路","SECT":"一段","MAREA":" ","LANE":" ","ALLEY":" ","HOUSE_NO":"７號四樓之２","E_COORD97":169595.51999999999,"N_COORD97":2542609.46,"ADDRESS":"長榮路一段７號四樓之２","OBJECTID":257509},"geometry":{"x":169595.51999999955,"y":2542609.4600000028}},{"attributes":{"ID":257514,"DIS_CODE":0,"TOWNNAME":"東區","LI":"泉南里","LIN":"24鄰","STREET":"長榮路","SECT":"一段","MAREA":" ","LANE":" ","ALLEY":" ","HOUSE_NO":"７號五樓之２","E_COORD97":169595.51999999999,"N_COORD97":2542609.46,"ADDRESS":"長榮路一段７號五樓之２","OBJECTID":257510},"geometry":{"x":169595.51999999955,"y":2542609.4600000028}},{"attributes":{"ID":257515,"DIS_CODE":0,"TOWNNAME":"北區","LI":"光武里","LIN":"17鄰","STREET":"北門路","SECT":"二段","MAREA":" ","LANE":"５７７巷","ALLEY":" ","HOUSE_NO":"８號二樓之５","E_COORD97":169621.23999999999,"N_COORD97":2545782.3399999999,"ADDRESS":"北門路二段５７７巷８號二樓之５","OBJECTID":257511},"geometry":{"x":169621.24000000115,"y":2545782.3400000017}},{"attributes":{"ID":257516,"DIS_CODE":0,"TOWNNAME":"北區","LI":"光武里","LIN":"17鄰","STREET":"北門路","SECT":"二段","MAREA":" ","LANE":"５７７巷","ALLEY":" ","HOUSE_NO":"８號三樓之１","E_COORD97":169621.23999999999,"N_COORD97":2545782.3399999999,"ADDRESS":"北門路二段５７７巷８號三樓之１","OBJECTID":257512},"geometry":{"x":169621.24000000115,"y":2545782.3400000017}},{"attributes":{"ID":257517,"DIS_CODE":0,"TOWNNAME":"北區","LI":"光武里","LIN":"17鄰","STREET":"北門路","SECT":"二段","MAREA":" ","LANE":"５７７巷","ALLEY":" ","HOUSE_NO":"８號四樓之１","E_COORD97":169621.23999999999,"N_COORD97":2545782.3399999999,"ADDRESS":"北門路二段５７７巷８號四樓之１","OBJECTID":257513},"geometry":{"x":169621.24000000115,"y":2545782.3400000017}},{"attributes":{"ID":257518,"DIS_CODE":0,"TOWNNAME":"北區","LI":"光武里","LIN":"17鄰","STREET":"北門路","SECT":"二段","MAREA":" ","LANE":"５７７巷","ALLEY":" ","HOUSE_NO":"８號五樓之１","E_COORD97":169621.23999999999,"N_COORD97":2545782.3399999999,"ADDRESS":"北門路二段５７７巷８號五樓之１","OBJECTID":257514},"geometry":{"x":169621.24000000115,"y":2545782.3400000017}},{"attributes":{"ID":257519,"DIS_CODE":0,"TOWNNAME":"官田區","LI":"渡頭里","LIN":"27鄰","STREET":" ","SECT":" ","MAREA":"三塊厝","LANE":" ","ALLEY":" ","HOUSE_NO":"６７號之５７","E_COORD97":182466.97,"N_COORD97":2562330.2000000002,"ADDRESS":"三塊厝６７號之５７","OBJECTID":257515},"geometry":{"x":182466.97000000067,"y":2562330.200000003}},{"attributes":{"ID":257520,"DIS_CODE":0,"TOWNNAME":"官田區","LI":"渡頭里","LIN":"27鄰","STREET":" ","SECT":" ","MAREA":"三塊厝","LANE":" ","ALLEY":" ","HOUSE_NO":"６７號之５８","E_COORD97":182481.16,"N_COORD97":2562331.3999999999,"ADDRESS":"三塊厝６７號之５８","OBJECTID":257516},"geometry":{"x":182481.16000000108,"y":2562331.4000000022}},{"attributes":{"ID":257521,"DIS_CODE":0,"TOWNNAME":"官田區","LI":"渡頭里","LIN":"27鄰","STREET":" ","SECT":" ","MAREA":"三塊厝","LANE":" ","ALLEY":" ","HOUSE_NO":"６７號之６０","E_COORD97":182453.04000000001,"N_COORD97":2562329.3999999999,"ADDRESS":"三塊厝６７號之６０","OBJECTID":257517},"geometry":{"x":182453.04000000097,"y":2562329.4000000004}},{"attributes":{"ID":257522,"DIS_CODE":0,"TOWNNAME":"官田區","LI":"渡頭里","LIN":"27鄰","STREET":" ","SECT":" ","MAREA":"三塊厝","LANE":" ","ALLEY":" ","HOUSE_NO":"６７號之６","E_COORD97":182481.87,"N_COORD97":2562306.9100000001,"ADDRESS":"三塊厝６７號之６","OBJECTID":257518},"geometry":{"x":182481.87000000011,"y":2562306.910000002}},{"attributes":{"ID":257523,"DIS_CODE":0,"TOWNNAME":"官田區","LI":"渡頭里","LIN":"27鄰","STREET":" ","SECT":" ","MAREA":"三塊厝","LANE":" ","ALLEY":" ","HOUSE_NO":"６７號之９","E_COORD97":182498.85999999999,"N_COORD97":2562295.79,"ADDRESS":"三塊厝６７號之９","OBJECTID":257519},"geometry":{"x":182498.86000000127,"y":2562295.790000001}},{"attributes":{"ID":257524,"DIS_CODE":0,"TOWNNAME":"官田區","LI":"渡頭里","LIN":"27鄰","STREET":" ","SECT":" ","MAREA":"三塊厝","LANE":" ","ALLEY":" ","HOUSE_NO":"６７號","E_COORD97":182511.26999999999,"N_COORD97":2562334.9700000002,"ADDRESS":"三塊厝６７號","OBJECTID":257520},"geometry":{"x":182511.26999999955,"y":2562334.9700000007}},{"attributes":{"ID":257525,"DIS_CODE":0,"TOWNNAME":"官田區","LI":"渡頭里","LIN":"27鄰","STREET":" ","SECT":" ","MAREA":"三塊厝","LANE":" ","ALLEY":" ","HOUSE_NO":"６８號之１０","E_COORD97":182501.69,"N_COORD97":2562251.77,"ADDRESS":"三塊厝６８號之１０","OBJECTID":257521},"geometry":{"x":182501.69000000134,"y":2562251.7699999977}},{"attributes":{"ID":257526,"DIS_CODE":0,"TOWNNAME":"官田區","LI":"渡頭里","LIN":"27鄰","STREET":" ","SECT":" ","MAREA":"三塊厝","LANE":" ","ALLEY":" ","HOUSE_NO":"６８號之１２","E_COORD97":182499.38,"N_COORD97":2562245.3199999998,"ADDRESS":"三塊厝６８號之１２","OBJECTID":257522},"geometry":{"x":182499.38000000175,"y":2562245.3200000003}},{"attributes":{"ID":257527,"DIS_CODE":0,"TOWNNAME":"官田區","LI":"渡頭里","LIN":"27鄰","STREET":" ","SECT":" ","MAREA":"三塊厝","LANE":" ","ALLEY":" ","HOUSE_NO":"６８號之１６","E_COORD97":182503.62,"N_COORD97":2562240.8399999999,"ADDRESS":"三塊厝６８號之１６","OBJECTID":257523},"geometry":{"x":182503.62000000104,"y":2562240.8399999999}},{"attributes":{"ID":257528,"DIS_CODE":0,"TOWNNAME":"官田區","LI":"渡頭里","LIN":"27鄰","STREET":" ","SECT":" ","MAREA":"三塊厝","LANE":" ","ALLEY":" ","HOUSE_NO":"６８號之１８","E_COORD97":182499.59,"N_COORD97":2562235.4100000001,"ADDRESS":"三塊厝６８號之１８","OBJECTID":257524},"geometry":{"x":182499.59000000171,"y":2562235.410000002}},{"attributes":{"ID":257529,"DIS_CODE":0,"TOWNNAME":"官田區","LI":"渡頭里","LIN":"27鄰","STREET":" ","SECT":" ","MAREA":"三塊厝","LANE":" ","ALLEY":" ","HOUSE_NO":"６８號之６","E_COORD97":182500,"N_COORD97":2562261.9199999999,"ADDRESS":"三塊厝６８號之６","OBJECTID":257525},"geometry":{"x":182500,"y":2562261.9200000018}},{"attributes":{"ID":257530,"DIS_CODE":0,"TOWNNAME":"北區","LI":"光武里","LIN":"17鄰","STREET":"北門路","SECT":"二段","MAREA":" ","LANE":"５７７巷","ALLEY":" ","HOUSE_NO":"８號六樓之１","E_COORD97":169621.23999999999,"N_COORD97":2545782.3399999999,"ADDRESS":"北門路二段５７７巷８號六樓之１","OBJECTID":257526},"geometry":{"x":169621.24000000115,"y":2545782.3400000017}},{"attributes":{"ID":257531,"DIS_CODE":0,"TOWNNAME":"北區","LI":"光武里","LIN":"17鄰","STREET":"北門路","SECT":"二段","MAREA":" ","LANE":"５７７巷","ALLEY":" ","HOUSE_NO":"８號七樓之１","E_COORD97":169621.23999999999,"N_COORD97":2545782.3399999999,"ADDRESS":"北門路二段５７７巷８號七樓之１","OBJECTID":257527},"geometry":{"x":169621.24000000115,"y":2545782.3400000017}},{"attributes":{"ID":257532,"DIS_CODE":0,"TOWNNAME":"北區","LI":"光武里","LIN":"17鄰","STREET":"北門路","SECT":"二段","MAREA":" ","LANE":"５７７巷","ALLEY":" ","HOUSE_NO":"８號八樓之１","E_COORD97":169621.23999999999,"N_COORD97":2545782.3399999999,"ADDRESS":"北門路二段５７７巷８號八樓之１","OBJECTID":257528},"geometry":{"x":169621.24000000115,"y":2545782.3400000017}},{"attributes":{"ID":257533,"DIS_CODE":0,"TOWNNAME":"北區","LI":"光武里","LIN":"17鄰","STREET":"北門路","SECT":"二段","MAREA":" ","LANE":"５７７巷","ALLEY":" ","HOUSE_NO":"８號九樓之１","E_COORD97":169621.23999999999,"N_COORD97":2545782.3399999999,"ADDRESS":"北門路二段５７７巷８號九樓之１","OBJECTID":257529},"geometry":{"x":169621.24000000115,"y":2545782.3400000017}},{"attributes":{"ID":257534,"DIS_CODE":0,"TOWNNAME":"安南區","LI":"淵中里","LIN":"16鄰","STREET":"本田路","SECT":"三段","MAREA":" ","LANE":"７２０巷","ALLEY":" ","HOUSE_NO":"１３號","E_COORD97":164996.27272499999,"N_COORD97":2549838.7538899998,"ADDRESS":"本田路三段７２０巷１３號","OBJECTID":257530},"geometry":{"x":164996.27272500005,"y":2549838.7538929991}},{"attributes":{"ID":257535,"DIS_CODE":0,"TOWNNAME":"北區","LI":"光武里","LIN":"17鄰","STREET":"北門路","SECT":"二段","MAREA":" ","LANE":"５７７巷","ALLEY":" ","HOUSE_NO":"８號十樓之１","E_COORD97":169621.23999999999,"N_COORD97":2545782.3399999999,"ADDRESS":"北門路二段５７７巷８號十樓之１","OBJECTID":257531},"geometry":{"x":169621.24000000115,"y":2545782.3400000017}},{"attributes":{"ID":257536,"DIS_CODE":0,"TOWNNAME":"新營區","LI":"興業里","LIN":" ","STREET":"公誠街","SECT":" ","MAREA":" ","LANE":"１１巷","ALLEY":" ","HOUSE_NO":"１０之２號","E_COORD97":180333.92999999999,"N_COORD97":2577959.8900000001,"ADDRESS":"公誠街１１巷１０之２號","OBJECTID":257532},"geometry":{"x":180333.92999999877,"y":2577959.8900000043}},{"attributes":{"ID":257537,"DIS_CODE":0,"TOWNNAME":"北區","LI":"光武里","LIN":"17鄰","STREET":"北門路","SECT":"二段","MAREA":" ","LANE":"５７７巷","ALLEY":" ","HOUSE_NO":"８號四樓之２","E_COORD97":169621.23999999999,"N_COORD97":2545782.3399999999,"ADDRESS":"北門路二段５７７巷８號四樓之２","OBJECTID":257533},"geometry":{"x":169621.24000000115,"y":2545782.3400000017}},{"attributes":{"ID":257538,"DIS_CODE":0,"TOWNNAME":"北區","LI":"光武里","LIN":"17鄰","STREET":"北門路","SECT":"二段","MAREA":" ","LANE":"５７７巷","ALLEY":" ","HOUSE_NO":"８號五樓之２","E_COORD97":169621.23999999999,"N_COORD97":2545782.3399999999,"ADDRESS":"北門路二段５７７巷８號五樓之２","OBJECTID":257534},"geometry":{"x":169621.24000000115,"y":2545782.3400000017}},{"attributes":{"ID":257539,"DIS_CODE":0,"TOWNNAME":"北區","LI":"光武里","LIN":"17鄰","STREET":"北門路","SECT":"二段","MAREA":" ","LANE":"５７７巷","ALLEY":" ","HOUSE_NO":"８號六樓之２","E_COORD97":169621.23999999999,"N_COORD97":2545782.3399999999,"ADDRESS":"北門路二段５７７巷８號六樓之２","OBJECTID":257535},"geometry":{"x":169621.24000000115,"y":2545782.3400000017}},{"attributes":{"ID":257540,"DIS_CODE":0,"TOWNNAME":"北區","LI":"光武里","LIN":"17鄰","STREET":"北門路","SECT":"二段","MAREA":" ","LANE":"５７７巷","ALLEY":" ","HOUSE_NO":"８號七樓之２","E_COORD97":169621.23999999999,"N_COORD97":2545782.3399999999,"ADDRESS":"北門路二段５７７巷８號七樓之２","OBJECTID":257536},"geometry":{"x":169621.24000000115,"y":2545782.3400000017}},{"attributes":{"ID":257541,"DIS_CODE":0,"TOWNNAME":"仁德區","LI":"太子里","LIN":"17鄰","STREET":"太興路","SECT":" ","MAREA":" ","LANE":"１１７巷","ALLEY":" ","HOUSE_NO":"２１號四樓","E_COORD97":174022.04999999999,"N_COORD97":2543574.25,"ADDRESS":"太興路１１７巷２１號四樓","OBJECTID":257537},"geometry":{"x":174022.04999999888,"y":2543574.25}},{"attributes":{"ID":257542,"DIS_CODE":0,"TOWNNAME":"官田區","LI":"隆田里","LIN":"27鄰","STREET":"中山路","SECT":"二段","MAREA":" ","LANE":"５３巷","ALLEY":" ","HOUSE_NO":"３２號","E_COORD97":178948.04999999999,"N_COORD97":2565952.1200000001,"ADDRESS":"中山路二段５３巷３２號","OBJECTID":257538},"geometry":{"x":178948.04999999981,"y":2565952.120000001}},{"attributes":{"ID":257543,"DIS_CODE":0,"TOWNNAME":"官田區","LI":"隆田里","LIN":"27鄰","STREET":"中山路","SECT":"二段","MAREA":" ","LANE":"５３巷","ALLEY":" ","HOUSE_NO":"３３號","E_COORD97":178937.42999999999,"N_COORD97":2565921.02,"ADDRESS":"中山路二段５３巷３３號","OBJECTID":257539},"geometry":{"x":178937.43000000063,"y":2565921.0199999996}},{"attributes":{"ID":257544,"DIS_CODE":0,"TOWNNAME":"官田區","LI":"隆田里","LIN":"27鄰","STREET":"中山路","SECT":"二段","MAREA":" ","LANE":"５３巷","ALLEY":" ","HOUSE_NO":"３４號","E_COORD97":178943.64000000001,"N_COORD97":2565954,"ADDRESS":"中山路二段５３巷３４號","OBJECTID":257540},"geometry":{"x":178943.63999999966,"y":2565954.0000000019}},{"attributes":{"ID":257545,"DIS_CODE":0,"TOWNNAME":"官田區","LI":"隆田里","LIN":"27鄰","STREET":"中山路","SECT":"二段","MAREA":" ","LANE":"５３巷","ALLEY":" ","HOUSE_NO":"３５號","E_COORD97":178932.26000000001,"N_COORD97":2565922.9300000002,"ADDRESS":"中山路二段５３巷３５號","OBJECTID":257541},"geometry":{"x":178932.26000000071,"y":2565922.9300000034}},{"attributes":{"ID":257546,"DIS_CODE":0,"TOWNNAME":"官田區","LI":"隆田里","LIN":"27鄰","STREET":"中山路","SECT":"二段","MAREA":" ","LANE":"５３巷","ALLEY":" ","HOUSE_NO":"３６號","E_COORD97":178939.82000000001,"N_COORD97":2565955.2000000002,"ADDRESS":"中山路二段５３巷３６號","OBJECTID":257542},"geometry":{"x":178939.8200000003,"y":2565955.2000000011}},{"attributes":{"ID":257547,"DIS_CODE":0,"TOWNNAME":"官田區","LI":"隆田里","LIN":"27鄰","STREET":"中山路","SECT":"二段","MAREA":" ","LANE":"５３巷","ALLEY":" ","HOUSE_NO":"３７號","E_COORD97":178927.26000000001,"N_COORD97":2565924.5899999999,"ADDRESS":"中山路二段５３巷３７號","OBJECTID":257543},"geometry":{"x":178927.26000000071,"y":2565924.5899999999}},{"attributes":{"ID":257548,"DIS_CODE":0,"TOWNNAME":"官田區","LI":"隆田里","LIN":"27鄰","STREET":"中山路","SECT":"二段","MAREA":" ","LANE":"５３巷","ALLEY":" ","HOUSE_NO":"３８號之１","E_COORD97":178938.64999999999,"N_COORD97":2565934.9700000002,"ADDRESS":"中山路二段５３巷３８號之１","OBJECTID":257544},"geometry":{"x":178938.6500000013,"y":2565934.9700000025}},{"attributes":{"ID":257549,"DIS_CODE":0,"TOWNNAME":"官田區","LI":"隆田里","LIN":"27鄰","STREET":"中山路","SECT":"二段","MAREA":" ","LANE":"５３巷","ALLEY":" ","HOUSE_NO":"３８號之２","E_COORD97":178933.16,"N_COORD97":2565936.9300000002,"ADDRESS":"中山路二段５３巷３８號之２","OBJECTID":257545},"geometry":{"x":178933.16000000108,"y":2565936.9300000016}},{"attributes":{"ID":257550,"DIS_CODE":0,"TOWNNAME":"官田區","LI":"隆田里","LIN":"27鄰","STREET":"中山路","SECT":"二段","MAREA":" ","LANE":"５３巷","ALLEY":" ","HOUSE_NO":"３８號","E_COORD97":178944.54999999999,"N_COORD97":2565932.75,"ADDRESS":"中山路二段５３巷３８號","OBJECTID":257546},"geometry":{"x":178944.54999999981,"y":2565932.7500000019}},{"attributes":{"ID":257551,"DIS_CODE":0,"TOWNNAME":"新營區","LI":"南興里","LIN":"26鄰","STREET":"和平路","SECT":" ","MAREA":" ","LANE":"１０４巷","ALLEY":" ","HOUSE_NO":"３號","E_COORD97":179388.26000000001,"N_COORD97":2577547.8999999999,"ADDRESS":"和平路１０４巷３號","OBJECTID":257547},"geometry":{"x":179388.26000000071,"y":2577547.9000000004}},{"attributes":{"ID":257552,"DIS_CODE":0,"TOWNNAME":"東區","LI":"泉南里","LIN":"24鄰","STREET":"長榮路","SECT":"一段","MAREA":" ","LANE":" ","ALLEY":" ","HOUSE_NO":"７號六樓之２","E_COORD97":169595.51999999999,"N_COORD97":2542609.46,"ADDRESS":"長榮路一段７號六樓之２","OBJECTID":257548},"geometry":{"x":169595.51999999955,"y":2542609.4600000028}},{"attributes":{"ID":257553,"DIS_CODE":0,"TOWNNAME":"東區","LI":"泉南里","LIN":"24鄰","STREET":"長榮路","SECT":"一段","MAREA":" ","LANE":" ","ALLEY":" ","HOUSE_NO":"７號七樓之２","E_COORD97":169595.51999999999,"N_COORD97":2542609.46,"ADDRESS":"長榮路一段７號七樓之２","OBJECTID":257549},"geometry":{"x":169595.51999999955,"y":2542609.4600000028}},{"attributes":{"ID":257554,"DIS_CODE":0,"TOWNNAME":"東區","LI":"泉南里","LIN":"24鄰","STREET":"長榮路","SECT":"一段","MAREA":" ","LANE":" ","ALLEY":" ","HOUSE_NO":"７號八樓之２","E_COORD97":169595.51999999999,"N_COORD97":2542609.46,"ADDRESS":"長榮路一段７號八樓之２","OBJECTID":257550},"geometry":{"x":169595.51999999955,"y":2542609.4600000028}},{"attributes":{"ID":257555,"DIS_CODE":0,"TOWNNAME":"東區","LI":"泉南里","LIN":"24鄰","STREET":"長榮路","SECT":"一段","MAREA":" ","LANE":" ","ALLEY":" ","HOUSE_NO":"７號九樓之２","E_COORD97":169595.51999999999,"N_COORD97":2542609.46,"ADDRESS":"長榮路一段７號九樓之２","OBJECTID":257551},"geometry":{"x":169595.51999999955,"y":2542609.4600000028}},{"attributes":{"ID":257556,"DIS_CODE":0,"TOWNNAME":"東區","LI":"泉南里","LIN":"24鄰","STREET":"長榮路","SECT":"一段","MAREA":" ","LANE":" ","ALLEY":" ","HOUSE_NO":"７號十樓之２","E_COORD97":169595.51999999999,"N_COORD97":2542609.46,"ADDRESS":"長榮路一段７號十樓之２","OBJECTID":257552},"geometry":{"x":169595.51999999955,"y":2542609.4600000028}},{"attributes":{"ID":257557,"DIS_CODE":0,"TOWNNAME":"東區","LI":"泉南里","LIN":"24鄰","STREET":"長榮路","SECT":"一段","MAREA":" ","LANE":" ","ALLEY":" ","HOUSE_NO":"７號十一樓之２","E_COORD97":169595.51999999999,"N_COORD97":2542609.46,"ADDRESS":"長榮路一段７號十一樓之２","OBJECTID":257553},"geometry":{"x":169595.51999999955,"y":2542609.4600000028}},{"attributes":{"ID":257558,"DIS_CODE":0,"TOWNNAME":"東區","LI":"泉南里","LIN":"24鄰","STREET":"長榮路","SECT":"一段","MAREA":" ","LANE":" ","ALLEY":" ","HOUSE_NO":"７號十二樓之２","E_COORD97":169595.51999999999,"N_COORD97":2542609.46,"ADDRESS":"長榮路一段７號十二樓之２","OBJECTID":257554},"geometry":{"x":169595.51999999955,"y":2542609.4600000028}},{"attributes":{"ID":257559,"DIS_CODE":0,"TOWNNAME":"東區","LI":"泉南里","LIN":"24鄰","STREET":"長榮路","SECT":"一段","MAREA":" ","LANE":" ","ALLEY":" ","HOUSE_NO":"７號十三樓之２","E_COORD97":169595.51999999999,"N_COORD97":2542609.46,"ADDRESS":"長榮路一段７號十三樓之２","OBJECTID":257555},"geometry":{"x":169595.51999999955,"y":2542609.4600000028}},{"attributes":{"ID":257560,"DIS_CODE":0,"TOWNNAME":"東區","LI":"泉南里","LIN":"24鄰","STREET":"長榮路","SECT":"一段","MAREA":" ","LANE":" ","ALLEY":" ","HOUSE_NO":"７號十四樓之２","E_COORD97":169595.51999999999,"N_COORD97":2542609.46,"ADDRESS":"長榮路一段７號十四樓之２","OBJECTID":257556},"geometry":{"x":169595.51999999955,"y":2542609.4600000028}},{"attributes":{"ID":257561,"DIS_CODE":0,"TOWNNAME":"東區","LI":"泉南里","LIN":"24鄰","STREET":"長榮路","SECT":"一段","MAREA":" ","LANE":" ","ALLEY":" ","HOUSE_NO":"７號二樓之３","E_COORD97":169595.51999999999,"N_COORD97":2542609.46,"ADDRESS":"長榮路一段７號二樓之３","OBJECTID":257557},"geometry":{"x":169595.51999999955,"y":2542609.4600000028}},{"attributes":{"ID":257562,"DIS_CODE":0,"TOWNNAME":"新營區","LI":"興業里","LIN":"13鄰","STREET":"中興路","SECT":" ","MAREA":" ","LANE":"１３巷","ALLEY":" ","HOUSE_NO":"２６之２號","E_COORD97":180256.26000000001,"N_COORD97":2577960.25,"ADDRESS":"中興路１３巷２６之２號","OBJECTID":257558},"geometry":{"x":180256.26000000071,"y":2577960.2500000037}},{"attributes":{"ID":257563,"DIS_CODE":0,"TOWNNAME":"安南區","LI":"頂安里","LIN":"17鄰","STREET":"北安路","SECT":"三段","MAREA":" ","LANE":"１２６巷","ALLEY":" ","HOUSE_NO":"３號四樓","E_COORD97":168365.37,"N_COORD97":2549091.2799999998,"ADDRESS":"北安路三段１２６巷３號四樓","OBJECTID":257559},"geometry":{"x":168365.37000000104,"y":2549091.2800000012}},{"attributes":{"ID":257564,"DIS_CODE":0,"TOWNNAME":"安南區","LI":"頂安里","LIN":"17鄰","STREET":"北安路","SECT":"三段","MAREA":" ","LANE":"１２６巷","ALLEY":" ","HOUSE_NO":"４號二樓","E_COORD97":168371.84,"N_COORD97":2549090.3999999999,"ADDRESS":"北安路三段１２６巷４號二樓","OBJECTID":257560},"geometry":{"x":168371.84000000171,"y":2549090.3999999985}},{"attributes":{"ID":257565,"DIS_CODE":0,"TOWNNAME":"安南區","LI":"頂安里","LIN":"17鄰","STREET":"北安路","SECT":"三段","MAREA":" ","LANE":"１２６巷","ALLEY":" ","HOUSE_NO":"４號四樓","E_COORD97":168371.84,"N_COORD97":2549090.3999999999,"ADDRESS":"北安路三段１２６巷４號四樓","OBJECTID":257561},"geometry":{"x":168371.84000000171,"y":2549090.3999999985}},{"attributes":{"ID":257566,"DIS_CODE":0,"TOWNNAME":"安南區","LI":"頂安里","LIN":"17鄰","STREET":"北安路","SECT":"三段","MAREA":" ","LANE":"１２６巷","ALLEY":" ","HOUSE_NO":"５號二樓","E_COORD97":168377.57999999999,"N_COORD97":2549089.8100000001,"ADDRESS":"北安路三段１２６巷５號二樓","OBJECTID":257562},"geometry":{"x":168377.58000000101,"y":2549089.8100000005}},{"attributes":{"ID":257567,"DIS_CODE":0,"TOWNNAME":"安南區","LI":"頂安里","LIN":"17鄰","STREET":"北安路","SECT":"三段","MAREA":" ","LANE":"１２６巷","ALLEY":" ","HOUSE_NO":"５號四樓","E_COORD97":168377.57999999999,"N_COORD97":2549089.8100000001,"ADDRESS":"北安路三段１２６巷５號四樓","OBJECTID":257563},"geometry":{"x":168377.58000000101,"y":2549089.8100000005}},{"attributes":{"ID":257568,"DIS_CODE":0,"TOWNNAME":"安南區","LI":"頂安里","LIN":"17鄰","STREET":"北安路","SECT":"三段","MAREA":" ","LANE":"１２６巷","ALLEY":" ","HOUSE_NO":"６號二樓","E_COORD97":168377.72,"N_COORD97":2549098.1800000002,"ADDRESS":"北安路三段１２６巷６號二樓","OBJECTID":257564},"geometry":{"x":168377.7200000016,"y":2549098.1800000034}},{"attributes":{"ID":257569,"DIS_CODE":0,"TOWNNAME":"安南區","LI":"頂安里","LIN":"17鄰","STREET":"北安路","SECT":"三段","MAREA":" ","LANE":"１２６巷","ALLEY":" ","HOUSE_NO":"６號四樓","E_COORD97":168377.72,"N_COORD97":2549098.1800000002,"ADDRESS":"北安路三段１２６巷６號四樓","OBJECTID":257565},"geometry":{"x":168377.7200000016,"y":2549098.1800000034}},{"attributes":{"ID":257570,"DIS_CODE":0,"TOWNNAME":"安南區","LI":"頂安里","LIN":"17鄰","STREET":"北安路","SECT":"三段","MAREA":" ","LANE":"１２６巷","ALLEY":" ","HOUSE_NO":"７號二樓","E_COORD97":168379.19,"N_COORD97":2549103.3199999998,"ADDRESS":"北安路三段１２６巷７號二樓","OBJECTID":257566},"geometry":{"x":168379.19000000134,"y":2549103.3200000003}},{"attributes":{"ID":257571,"DIS_CODE":0,"TOWNNAME":"關廟區","LI":"新光里","LIN":"6鄰","STREET":"北寮街","SECT":" ","MAREA":" ","LANE":" ","ALLEY":" ","HOUSE_NO":"８１號","E_COORD97":184187.85465299999,"N_COORD97":2541877.4229199998,"ADDRESS":"北寮街８１號","OBJECTID":257567},"geometry":{"x":184187.8546529999,"y":2541877.4229160026}},{"attributes":{"ID":257572,"DIS_CODE":0,"TOWNNAME":"安南區","LI":"頂安里","LIN":"17鄰","STREET":"北安路","SECT":"三段","MAREA":" ","LANE":"１２６巷","ALLEY":" ","HOUSE_NO":"７號四樓","E_COORD97":168379.19,"N_COORD97":2549103.3199999998,"ADDRESS":"北安路三段１２６巷７號四樓","OBJECTID":257568},"geometry":{"x":168379.19000000134,"y":2549103.3200000003}},{"attributes":{"ID":257573,"DIS_CODE":0,"TOWNNAME":"安南區","LI":"頂安里","LIN":"17鄰","STREET":"北安路","SECT":"三段","MAREA":" ","LANE":"１２６巷","ALLEY":" ","HOUSE_NO":"８號二樓","E_COORD97":168380.95999999999,"N_COORD97":2549108.7599999998,"ADDRESS":"北安路三段１２６巷８號二樓","OBJECTID":257569},"geometry":{"x":168380.95999999996,"y":2549108.7600000016}},{"attributes":{"ID":257574,"DIS_CODE":0,"TOWNNAME":"安南區","LI":"頂安里","LIN":"17鄰","STREET":"北安路","SECT":"三段","MAREA":" ","LANE":"１２６巷","ALLEY":" ","HOUSE_NO":"８號四樓","E_COORD97":168380.95999999999,"N_COORD97":2549108.7599999998,"ADDRESS":"北安路三段１２６巷８號四樓","OBJECTID":257570},"geometry":{"x":168380.95999999996,"y":2549108.7600000016}},{"attributes":{"ID":257575,"DIS_CODE":0,"TOWNNAME":"安南區","LI":"頂安里","LIN":"17鄰","STREET":"北安路","SECT":"三段","MAREA":" ","LANE":"１２６巷","ALLEY":" ","HOUSE_NO":"９號二樓","E_COORD97":168373.89999999999,"N_COORD97":2549108.8999999999,"ADDRESS":"北安路三段１２６巷９號二樓","OBJECTID":257571},"geometry":{"x":168373.9000000013,"y":2549108.9000000022}},{"attributes":{"ID":257576,"DIS_CODE":0,"TOWNNAME":"安南區","LI":"頂安里","LIN":"17鄰","STREET":"北安路","SECT":"三段","MAREA":" ","LANE":"１２６巷","ALLEY":" ","HOUSE_NO":"９號四樓","E_COORD97":168373.89999999999,"N_COORD97":2549108.8999999999,"ADDRESS":"北安路三段１２６巷９號四樓","OBJECTID":257572},"geometry":{"x":168373.9000000013,"y":2549108.9000000022}},{"attributes":{"ID":257577,"DIS_CODE":0,"TOWNNAME":"安南區","LI":"頂安里","LIN":"17鄰","STREET":"北安路","SECT":"三段","MAREA":" ","LANE":"１２６巷","ALLEY":" ","HOUSE_NO":"１０號二樓","E_COORD97":168367.73000000001,"N_COORD97":2549109.3399999999,"ADDRESS":"北安路三段１２６巷１０號二樓","OBJECTID":257573},"geometry":{"x":168367.73000000045,"y":2549109.3399999999}},{"attributes":{"ID":257578,"DIS_CODE":0,"TOWNNAME":"安南區","LI":"頂安里","LIN":"17鄰","STREET":"北安路","SECT":"三段","MAREA":" ","LANE":"１２６巷","ALLEY":" ","HOUSE_NO":"１０號四樓","E_COORD97":168367.73000000001,"N_COORD97":2549109.3399999999,"ADDRESS":"北安路三段１２６巷１０號四樓","OBJECTID":257574},"geometry":{"x":168367.73000000045,"y":2549109.3399999999}},{"attributes":{"ID":257579,"DIS_CODE":0,"TOWNNAME":"安南區","LI":"海東里","LIN":"17鄰","STREET":"同安路","SECT":" ","MAREA":" ","LANE":"３８７巷","ALLEY":" ","HOUSE_NO":"５０號三樓","E_COORD97":167232.82000000001,"N_COORD97":2549377.7000000002,"ADDRESS":"同安路３８７巷５０號三樓","OBJECTID":257575},"geometry":{"x":167232.8200000003,"y":2549377.6999999993}},{"attributes":{"ID":257580,"DIS_CODE":0,"TOWNNAME":"新營區","LI":"新北里","LIN":"20鄰","STREET":"民生路","SECT":" ","MAREA":" ","LANE":"３３６巷","ALLEY":" ","HOUSE_NO":"１０號","E_COORD97":178963.70999999999,"N_COORD97":2579216.6499999999,"ADDRESS":"民生路３３６巷１０號","OBJECTID":257576},"geometry":{"x":178963.70999999996,"y":2579216.6500000022}},{"attributes":{"ID":257581,"DIS_CODE":0,"TOWNNAME":"中西區","LI":"五妃里","LIN":"17鄰","STREET":"南門路","SECT":" ","MAREA":" ","LANE":"１８７巷","ALLEY":" ","HOUSE_NO":"１０號二樓","E_COORD97":168485.35000000001,"N_COORD97":2542877.1899999999,"ADDRESS":"南門路１８７巷１０號二樓","OBJECTID":257577},"geometry":{"x":168485.35000000056,"y":2542877.1900000013}},{"attributes":{"ID":257582,"DIS_CODE":0,"TOWNNAME":"中西區","LI":"五妃里","LIN":"17鄰","STREET":"南門路","SECT":" ","MAREA":" ","LANE":"１８７巷","ALLEY":" ","HOUSE_NO":"１０號三樓","E_COORD97":168485.35000000001,"N_COORD97":2542877.1899999999,"ADDRESS":"南門路１８７巷１０號三樓","OBJECTID":257578},"geometry":{"x":168485.35000000056,"y":2542877.1900000013}},{"attributes":{"ID":257583,"DIS_CODE":0,"TOWNNAME":"中西區","LI":"五妃里","LIN":"17鄰","STREET":"南門路","SECT":" ","MAREA":" ","LANE":"１８７巷","ALLEY":" ","HOUSE_NO":"１０號五樓","E_COORD97":168485.35000000001,"N_COORD97":2542877.1899999999,"ADDRESS":"南門路１８７巷１０號五樓","OBJECTID":257579},"geometry":{"x":168485.35000000056,"y":2542877.1900000013}},{"attributes":{"ID":257584,"DIS_CODE":0,"TOWNNAME":"中西區","LI":"五妃里","LIN":"17鄰","STREET":"南門路","SECT":" ","MAREA":" ","LANE":"１８７巷","ALLEY":" ","HOUSE_NO":"１０號四樓","E_COORD97":168485.35000000001,"N_COORD97":2542877.1899999999,"ADDRESS":"南門路１８７巷１０號四樓","OBJECTID":257580},"geometry":{"x":168485.35000000056,"y":2542877.1900000013}},{"attributes":{"ID":257585,"DIS_CODE":0,"TOWNNAME":"中西區","LI":"五妃里","LIN":"17鄰","STREET":"南門路","SECT":" ","MAREA":" ","LANE":"１８７巷","ALLEY":" ","HOUSE_NO":"８號二樓","E_COORD97":168476.41,"N_COORD97":2542878.3399999999,"ADDRESS":"南門路１８７巷８號二樓","OBJECTID":257581},"geometry":{"x":168476.41000000015,"y":2542878.3399999999}},{"attributes":{"ID":257586,"DIS_CODE":0,"TOWNNAME":"中西區","LI":"五妃里","LIN":"17鄰","STREET":"南門路","SECT":" ","MAREA":" ","LANE":"１８７巷","ALLEY":" ","HOUSE_NO":"８號三樓","E_COORD97":168476.41,"N_COORD97":2542878.3399999999,"ADDRESS":"南門路１８７巷８號三樓","OBJECTID":257582},"geometry":{"x":168476.41000000015,"y":2542878.3399999999}},{"attributes":{"ID":257587,"DIS_CODE":0,"TOWNNAME":"中西區","LI":"五妃里","LIN":"17鄰","STREET":"南門路","SECT":" ","MAREA":" ","LANE":"１８７巷","ALLEY":" ","HOUSE_NO":"８號五樓","E_COORD97":168476.41,"N_COORD97":2542878.3399999999,"ADDRESS":"南門路１８７巷８號五樓","OBJECTID":257583},"geometry":{"x":168476.41000000015,"y":2542878.3399999999}},{"attributes":{"ID":257588,"DIS_CODE":0,"TOWNNAME":"中西區","LI":"五妃里","LIN":"17鄰","STREET":"南門路","SECT":" ","MAREA":" ","LANE":"１８７巷","ALLEY":" ","HOUSE_NO":"８號四樓","E_COORD97":168476.41,"N_COORD97":2542878.3399999999,"ADDRESS":"南門路１８７巷８號四樓","OBJECTID":257584},"geometry":{"x":168476.41000000015,"y":2542878.3399999999}},{"attributes":{"ID":257589,"DIS_CODE":0,"TOWNNAME":"東區","LI":"崇誨里","LIN":"17鄰","STREET":"林森路","SECT":"二段","MAREA":" ","LANE":"１９２巷","ALLEY":" ","HOUSE_NO":"４８號二樓之１","E_COORD97":170639.26999999999,"N_COORD97":2543339.2200000002,"ADDRESS":"林森路二段１９２巷４８號二樓之１","OBJECTID":257585},"geometry":{"x":170639.27000000048,"y":2543339.2200000025}},{"attributes":{"ID":257590,"DIS_CODE":0,"TOWNNAME":"東區","LI":"泉南里","LIN":"24鄰","STREET":"長榮路","SECT":"一段","MAREA":" ","LANE":" ","ALLEY":" ","HOUSE_NO":"７號三樓之３","E_COORD97":169595.51999999999,"N_COORD97":2542609.46,"ADDRESS":"長榮路一段７號三樓之３","OBJECTID":257586},"geometry":{"x":169595.51999999955,"y":2542609.4600000028}},{"attributes":{"ID":257591,"DIS_CODE":0,"TOWNNAME":"東區","LI":"崇誨里","LIN":"17鄰","STREET":"林森路","SECT":"二段","MAREA":" ","LANE":"１９２巷","ALLEY":" ","HOUSE_NO":"４８號二樓之２","E_COORD97":170639.26999999999,"N_COORD97":2543339.2200000002,"ADDRESS":"林森路二段１９２巷４８號二樓之２","OBJECTID":257587},"geometry":{"x":170639.27000000048,"y":2543339.2200000025}},{"attributes":{"ID":257592,"DIS_CODE":0,"TOWNNAME":"東區","LI":"崇誨里","LIN":"17鄰","STREET":"林森路","SECT":"二段","MAREA":" ","LANE":"１９２巷","ALLEY":" ","HOUSE_NO":"４８號五樓之１","E_COORD97":170639.26999999999,"N_COORD97":2543339.2200000002,"ADDRESS":"林森路二段１９２巷４８號五樓之１","OBJECTID":257588},"geometry":{"x":170639.27000000048,"y":2543339.2200000025}},{"attributes":{"ID":257593,"DIS_CODE":0,"TOWNNAME":"東區","LI":"崇誨里","LIN":"17鄰","STREET":"林森路","SECT":"二段","MAREA":" ","LANE":"１９２巷","ALLEY":" ","HOUSE_NO":"４８號五樓之２","E_COORD97":170639.26999999999,"N_COORD97":2543339.2200000002,"ADDRESS":"林森路二段１９２巷４８號五樓之２","OBJECTID":257589},"geometry":{"x":170639.27000000048,"y":2543339.2200000025}},{"attributes":{"ID":257594,"DIS_CODE":0,"TOWNNAME":"東區","LI":"崇誨里","LIN":"17鄰","STREET":"林森路","SECT":"二段","MAREA":" ","LANE":"１９２巷","ALLEY":" ","HOUSE_NO":"４８號四樓之１","E_COORD97":170639.26999999999,"N_COORD97":2543339.2200000002,"ADDRESS":"林森路二段１９２巷４８號四樓之１","OBJECTID":257590},"geometry":{"x":170639.27000000048,"y":2543339.2200000025}},{"attributes":{"ID":257595,"DIS_CODE":0,"TOWNNAME":"新營區","LI":"王公里","LIN":"14鄰","STREET":"公正街","SECT":" ","MAREA":" ","LANE":"７０巷","ALLEY":" ","HOUSE_NO":"２號","E_COORD97":180185.62,"N_COORD97":2579394.6699999999,"ADDRESS":"公正街７０巷２號","OBJECTID":257591},"geometry":{"x":180185.61999999918,"y":2579394.6699999981}},{"attributes":{"ID":257596,"DIS_CODE":0,"TOWNNAME":"東區","LI":"崇誨里","LIN":"17鄰","STREET":"林森路","SECT":"二段","MAREA":" ","LANE":"１９２巷","ALLEY":" ","HOUSE_NO":"４８號四樓之２","E_COORD97":170639.26999999999,"N_COORD97":2543339.2200000002,"ADDRESS":"林森路二段１９２巷４８號四樓之２","OBJECTID":257592},"geometry":{"x":170639.27000000048,"y":2543339.2200000025}},{"attributes":{"ID":257597,"DIS_CODE":0,"TOWNNAME":"東區","LI":"崇誨里","LIN":"17鄰","STREET":"林森路","SECT":"二段","MAREA":" ","LANE":"１９２巷","ALLEY":" ","HOUSE_NO":"４８號三樓之１","E_COORD97":170639.26999999999,"N_COORD97":2543339.2200000002,"ADDRESS":"林森路二段１９２巷４８號三樓之１","OBJECTID":257593},"geometry":{"x":170639.27000000048,"y":2543339.2200000025}},{"attributes":{"ID":257598,"DIS_CODE":0,"TOWNNAME":"東區","LI":"崇誨里","LIN":"17鄰","STREET":"林森路","SECT":"二段","MAREA":" ","LANE":"１９２巷","ALLEY":" ","HOUSE_NO":"４８號三樓之２","E_COORD97":170639.26999999999,"N_COORD97":2543339.2200000002,"ADDRESS":"林森路二段１９２巷４８號三樓之２","OBJECTID":257594},"geometry":{"x":170639.27000000048,"y":2543339.2200000025}},{"attributes":{"ID":257599,"DIS_CODE":0,"TOWNNAME":"永康區","LI":"中華里","LIN":"17鄰","STREET":"中華路","SECT":" ","MAREA":" ","LANE":"１０巷","ALLEY":" ","HOUSE_NO":"１６號之５三樓","E_COORD97":171658.29000000001,"N_COORD97":2544438.0099999998,"ADDRESS":"中華路１０巷１６號之５三樓","OBJECTID":257595},"geometry":{"x":171658.29000000097,"y":2544438.0100000016}},{"attributes":{"ID":257600,"DIS_CODE":0,"TOWNNAME":"永康區","LI":"中華里","LIN":"17鄰","STREET":"中華路","SECT":" ","MAREA":" ","LANE":"１０巷","ALLEY":" ","HOUSE_NO":"１６號之１０四樓","E_COORD97":171659.54000000001,"N_COORD97":2544438.0099999998,"ADDRESS":"中華路１０巷１６號之１０四樓","OBJECTID":257596},"geometry":{"x":171659.54000000097,"y":2544438.0100000016}},{"attributes":{"ID":257601,"DIS_CODE":0,"TOWNNAME":"中西區","LI":"藥王里","LIN":"14鄰","STREET":"和真街","SECT":" ","MAREA":" ","LANE":" ","ALLEY":" ","HOUSE_NO":"７號","E_COORD97":166997.31,"N_COORD97":2544453.79,"ADDRESS":"和真街７號","OBJECTID":257597},"geometry":{"x":166997.31000000052,"y":2544453.7899999991}},{"attributes":{"ID":257602,"DIS_CODE":0,"TOWNNAME":"中西區","LI":"藥王里","LIN":"17鄰","STREET":"民權路","SECT":"三段","MAREA":" ","LANE":"４００巷","ALLEY":" ","HOUSE_NO":"１１號","E_COORD97":166892.64999999999,"N_COORD97":2544406.0499999998,"ADDRESS":"民權路三段４００巷１１號","OBJECTID":257598},"geometry":{"x":166892.6500000013,"y":2544406.0500000026}},{"attributes":{"ID":257603,"DIS_CODE":0,"TOWNNAME":"永康區","LI":"復國里","LIN":"8鄰","STREET":"復國二路","SECT":" ","MAREA":" ","LANE":"６１巷","ALLEY":" ","HOUSE_NO":"６號","E_COORD97":172815.84,"N_COORD97":2545108.1800000002,"ADDRESS":"復國二路６１巷６號","OBJECTID":257599},"geometry":{"x":172815.83999999985,"y":2545108.1800000016}},{"attributes":{"ID":257604,"DIS_CODE":0,"TOWNNAME":"永康區","LI":"神洲里","LIN":"7鄰","STREET":"忠孝路","SECT":" ","MAREA":" ","LANE":"５４巷","ALLEY":" ","HOUSE_NO":"１７號","E_COORD97":172159.91,"N_COORD97":2544766.25,"ADDRESS":"忠孝路５４巷１７號","OBJECTID":257600},"geometry":{"x":172159.91000000015,"y":2544766.2500000019}}]}