{"displayFieldName":"TOWNNAME","fieldAliases":{"ID":"ID","DIS_CODE":"DIS_CODE","TOWNNAME":"TOWNNAME","LI":"LI","LIN":"LIN","STREET":"STREET","SECT":"SECT","MAREA":"MAREA","LANE":"LANE","ALLEY":"ALLEY","HOUSE_NO":"HOUSE_NO","E_COORD97":"E_COORD97","N_COORD97":"N_COORD97","ADDRESS":"ADDRESS","OBJECTID":"OBJECTID"},"geometryType":"esriGeometryPoint","spatialReference":{"wkid":102443,"latestWkid":3826},"fields":[{"name":"ID","type":"esriFieldTypeDouble","alias":"ID"},{"name":"DIS_CODE","type":"esriFieldTypeInteger","alias":"DIS_CODE"},{"name":"TOWNNAME","type":"esriFieldTypeString","alias":"TOWNNAME","length":8},{"name":"LI","type":"esriFieldTypeString","alias":"LI","length":8},{"name":"LIN","type":"esriFieldTypeString","alias":"LIN","length":12},{"name":"STREET","type":"esriFieldTypeString","alias":"STREET","length":20},{"name":"SECT","type":"esriFieldTypeString","alias":"SECT","length":8},{"name":"MAREA","type":"esriFieldTypeString","alias":"MAREA","length":12},{"name":"LANE","type":"esriFieldTypeString","alias":"LANE","length":10},{"name":"ALLEY","type":"esriFieldTypeString","alias":"ALLEY","length":10},{"name":"HOUSE_NO","type":"esriFieldTypeString","alias":"HOUSE_NO","length":20},{"name":"E_COORD97","type":"esriFieldTypeDouble","alias":"E_COORD97"},{"name":"N_COORD97","type":"esriFieldTypeDouble","alias":"N_COORD97"},{"name":"ADDRESS","type":"esriFieldTypeString","alias":"ADDRESS","length":50},{"name":"OBJECTID","type":"esriFieldTypeOID","alias":"OBJECTID"}],"features":[{"attributes":{"ID":421426,"DIS_CODE":0,"TOWNNAME":"安平區","LI":"華平里","LIN":"2鄰","STREET":"國平路","SECT":" ","MAREA":" ","LANE":"５５２巷","ALLEY":" ","HOUSE_NO":"９３號","E_COORD97":165300.92000000001,"N_COORD97":2544136.1899999999,"ADDRESS":"國平路５５２巷９３號","OBJECTID":421401},"geometry":{"x":165300.91999999993,"y":2544136.1899999995}},{"attributes":{"ID":421427,"DIS_CODE":0,"TOWNNAME":"安平區","LI":"華平里","LIN":"2鄰","STREET":"國平路","SECT":" ","MAREA":" ","LANE":"５５２巷","ALLEY":" ","HOUSE_NO":"９５號","E_COORD97":165304.82000000001,"N_COORD97":2544135.9399999999,"ADDRESS":"國平路５５２巷９５號","OBJECTID":421402},"geometry":{"x":165304.82000000123,"y":2544135.9400000032}},{"attributes":{"ID":421428,"DIS_CODE":0,"TOWNNAME":"安平區","LI":"億載里","LIN":"2鄰","STREET":"永華十一街","SECT":" ","MAREA":" ","LANE":"１４１巷","ALLEY":" ","HOUSE_NO":"４３號","E_COORD97":163958.06,"N_COORD97":2543772.5600000001,"ADDRESS":"永華十一街１４１巷４３號","OBJECTID":421403},"geometry":{"x":163958.06000000052,"y":2543772.5600000005}},{"attributes":{"ID":421429,"DIS_CODE":0,"TOWNNAME":"安平區","LI":"億載里","LIN":"2鄰","STREET":"永華十一街","SECT":" ","MAREA":" ","LANE":"１４１巷","ALLEY":" ","HOUSE_NO":"４９號","E_COORD97":163944.72,"N_COORD97":2543769.8199999998,"ADDRESS":"永華十一街１４１巷４９號","OBJECTID":421404},"geometry":{"x":163944.7200000016,"y":2543769.8200000003}},{"attributes":{"ID":421430,"DIS_CODE":0,"TOWNNAME":"安平區","LI":"億載里","LIN":"2鄰","STREET":"永華十一街","SECT":" ","MAREA":" ","LANE":"１４１巷","ALLEY":" ","HOUSE_NO":"５１號","E_COORD97":163940.39999999999,"N_COORD97":2543769.0299999998,"ADDRESS":"永華十一街１４１巷５１號","OBJECTID":421405},"geometry":{"x":163940.40000000037,"y":2543769.0300000031}},{"attributes":{"ID":421431,"DIS_CODE":0,"TOWNNAME":"安平區","LI":"億載里","LIN":"2鄰","STREET":"永華十一街","SECT":" ","MAREA":" ","LANE":"１４１巷","ALLEY":" ","HOUSE_NO":"５３號","E_COORD97":163936.85999999999,"N_COORD97":2543767.8500000001,"ADDRESS":"永華十一街１４１巷５３號","OBJECTID":421406},"geometry":{"x":163936.86000000034,"y":2543767.8500000015}},{"attributes":{"ID":421432,"DIS_CODE":0,"TOWNNAME":"玉井區","LI":"玉田里","LIN":"2鄰","STREET":"玉安街","SECT":" ","MAREA":" ","LANE":"２５巷","ALLEY":" ","HOUSE_NO":"３號","E_COORD97":195019.91,"N_COORD97":2558376.3100000001,"ADDRESS":"玉安街２５巷３號","OBJECTID":421407},"geometry":{"x":195019.91000000015,"y":2558376.3100000005}},{"attributes":{"ID":421433,"DIS_CODE":0,"TOWNNAME":"安平區","LI":"億載里","LIN":"2鄰","STREET":"永華十一街","SECT":" ","MAREA":" ","LANE":"１４１巷","ALLEY":" ","HOUSE_NO":"５７號","E_COORD97":163928.23000000001,"N_COORD97":2543767.0699999998,"ADDRESS":"永華十一街１４１巷５７號","OBJECTID":421408},"geometry":{"x":163928.23000000045,"y":2543767.0700000022}},{"attributes":{"ID":421434,"DIS_CODE":0,"TOWNNAME":"安平區","LI":"億載里","LIN":"2鄰","STREET":"永華十一街","SECT":" ","MAREA":" ","LANE":"１４１巷","ALLEY":" ","HOUSE_NO":"５８號","E_COORD97":163910.56,"N_COORD97":2543780.7999999998,"ADDRESS":"永華十一街１４１巷５８號","OBJECTID":421409},"geometry":{"x":163910.56000000052,"y":2543780.8000000007}},{"attributes":{"ID":421435,"DIS_CODE":0,"TOWNNAME":"安平區","LI":"億載里","LIN":"2鄰","STREET":"永華十一街","SECT":" ","MAREA":" ","LANE":"１４１巷","ALLEY":" ","HOUSE_NO":"５９號","E_COORD97":163923.91,"N_COORD97":2543766.29,"ADDRESS":"永華十一街１４１巷５９號","OBJECTID":421410},"geometry":{"x":163923.91000000108,"y":2543766.2899999991}},{"attributes":{"ID":421436,"DIS_CODE":0,"TOWNNAME":"安平區","LI":"億載里","LIN":"2鄰","STREET":"永華十一街","SECT":" ","MAREA":" ","LANE":"１４１巷","ALLEY":" ","HOUSE_NO":"６０號","E_COORD97":163906.23999999999,"N_COORD97":2543781.98,"ADDRESS":"永華十一街１４１巷６０號","OBJECTID":421411},"geometry":{"x":163906.24000000209,"y":2543781.9800000023}},{"attributes":{"ID":421437,"DIS_CODE":0,"TOWNNAME":"北區","LI":"東興里","LIN":"2鄰","STREET":"小東路","SECT":" ","MAREA":" ","LANE":"１８９巷","ALLEY":" ","HOUSE_NO":"２號","E_COORD97":170805.44,"N_COORD97":2544522.73,"ADDRESS":"小東路１８９巷２號","OBJECTID":421412},"geometry":{"x":170805.44000000041,"y":2544522.7300000023}},{"attributes":{"ID":421438,"DIS_CODE":0,"TOWNNAME":"北區","LI":"東興里","LIN":"2鄰","STREET":"小東路","SECT":" ","MAREA":" ","LANE":"１８９巷","ALLEY":" ","HOUSE_NO":"２０號","E_COORD97":170837.73999999999,"N_COORD97":2544512.73,"ADDRESS":"小東路１８９巷２０號","OBJECTID":421413},"geometry":{"x":170837.74000000209,"y":2544512.7300000023}},{"attributes":{"ID":421439,"DIS_CODE":0,"TOWNNAME":"北區","LI":"東興里","LIN":"2鄰","STREET":"小東路","SECT":" ","MAREA":" ","LANE":"１８９巷","ALLEY":" ","HOUSE_NO":"２６號","E_COORD97":170845.72,"N_COORD97":2544514.7799999998,"ADDRESS":"小東路１８９巷２６號","OBJECTID":421414},"geometry":{"x":170845.71999999974,"y":2544514.7800000012}},{"attributes":{"ID":421440,"DIS_CODE":0,"TOWNNAME":"北區","LI":"東興里","LIN":"2鄰","STREET":"小東路","SECT":" ","MAREA":" ","LANE":"１８９巷","ALLEY":" ","HOUSE_NO":"２８號","E_COORD97":170845.04000000001,"N_COORD97":2544518.5699999998,"ADDRESS":"小東路１８９巷２８號","OBJECTID":421415},"geometry":{"x":170845.04000000004,"y":2544518.5700000003}},{"attributes":{"ID":421441,"DIS_CODE":0,"TOWNNAME":"北區","LI":"東興里","LIN":"2鄰","STREET":"小東路","SECT":" ","MAREA":" ","LANE":"１８９巷","ALLEY":" ","HOUSE_NO":"３０號","E_COORD97":170844.06,"N_COORD97":2544522.0699999998,"ADDRESS":"小東路１８９巷３０號","OBJECTID":421416},"geometry":{"x":170844.06000000052,"y":2544522.0700000003}},{"attributes":{"ID":421442,"DIS_CODE":0,"TOWNNAME":"北區","LI":"東興里","LIN":"2鄰","STREET":"小東路","SECT":" ","MAREA":" ","LANE":"１８９巷","ALLEY":" ","HOUSE_NO":"３２號","E_COORD97":170842.98999999999,"N_COORD97":2544525.3700000001,"ADDRESS":"小東路１８９巷３２號","OBJECTID":421417},"geometry":{"x":170842.99000000115,"y":2544525.3700000029}},{"attributes":{"ID":421443,"DIS_CODE":0,"TOWNNAME":"北區","LI":"東興里","LIN":"2鄰","STREET":"小東路","SECT":" ","MAREA":" ","LANE":"１８９巷","ALLEY":" ","HOUSE_NO":"３３號","E_COORD97":170823.34,"N_COORD97":2544543.9900000002,"ADDRESS":"小東路１８９巷３３號","OBJECTID":421418},"geometry":{"x":170823.34000000078,"y":2544543.9900000021}},{"attributes":{"ID":421444,"DIS_CODE":0,"TOWNNAME":"北區","LI":"東興里","LIN":"2鄰","STREET":"小東路","SECT":" ","MAREA":" ","LANE":"１８９巷","ALLEY":" ","HOUSE_NO":"３４號","E_COORD97":170842.41,"N_COORD97":2544529.1600000001,"ADDRESS":"小東路１８９巷３４號","OBJECTID":421419},"geometry":{"x":170842.41000000108,"y":2544529.160000002}},{"attributes":{"ID":421445,"DIS_CODE":0,"TOWNNAME":"北區","LI":"東興里","LIN":"2鄰","STREET":"小東路","SECT":" ","MAREA":" ","LANE":"１８９巷","ALLEY":" ","HOUSE_NO":"３５號","E_COORD97":170824.12,"N_COORD97":2544547.3900000001,"ADDRESS":"小東路１８９巷３５號","OBJECTID":421420},"geometry":{"x":170824.12000000011,"y":2544547.3900000006}},{"attributes":{"ID":421446,"DIS_CODE":0,"TOWNNAME":"北區","LI":"東興里","LIN":"2鄰","STREET":"小東路","SECT":" ","MAREA":" ","LANE":"１８９巷","ALLEY":" ","HOUSE_NO":"３６號","E_COORD97":170839.29999999999,"N_COORD97":2544535.6800000002,"ADDRESS":"小東路１８９巷３６號","OBJECTID":421421},"geometry":{"x":170839.30000000075,"y":2544535.6800000016}},{"attributes":{"ID":421447,"DIS_CODE":0,"TOWNNAME":"北區","LI":"東興里","LIN":"2鄰","STREET":"小東路","SECT":" ","MAREA":" ","LANE":"１８９巷","ALLEY":" ","HOUSE_NO":"３７號","E_COORD97":170824.70000000001,"N_COORD97":2544550.9900000002,"ADDRESS":"小東路１８９巷３７號","OBJECTID":421422},"geometry":{"x":170824.70000000112,"y":2544550.9900000021}},{"attributes":{"ID":421448,"DIS_CODE":0,"TOWNNAME":"北區","LI":"東興里","LIN":"2鄰","STREET":"小東路","SECT":" ","MAREA":" ","LANE":"１８９巷","ALLEY":" ","HOUSE_NO":"３８號","E_COORD97":170838.32000000001,"N_COORD97":2544539.4900000002,"ADDRESS":"小東路１８９巷３８號","OBJECTID":421423},"geometry":{"x":170838.3200000003,"y":2544539.4900000002}},{"attributes":{"ID":421449,"DIS_CODE":0,"TOWNNAME":"北區","LI":"東興里","LIN":"2鄰","STREET":"小東路","SECT":" ","MAREA":" ","LANE":"１８９巷","ALLEY":" ","HOUSE_NO":"３９號","E_COORD97":170808.35999999999,"N_COORD97":2544530.1899999999,"ADDRESS":"小東路１８９巷３９號","OBJECTID":421424},"geometry":{"x":170808.3600000022,"y":2544530.1899999995}},{"attributes":{"ID":421450,"DIS_CODE":0,"TOWNNAME":"北區","LI":"東興里","LIN":"2鄰","STREET":"小東路","SECT":" ","MAREA":" ","LANE":"１８９巷","ALLEY":" ","HOUSE_NO":"４０號","E_COORD97":170831.81,"N_COORD97":2544533.7200000002,"ADDRESS":"小東路１８９巷４０號","OBJECTID":421425},"geometry":{"x":170831.81000000052,"y":2544533.7200000007}},{"attributes":{"ID":421451,"DIS_CODE":0,"TOWNNAME":"北區","LI":"東興里","LIN":"2鄰","STREET":"小東路","SECT":" ","MAREA":" ","LANE":"１８９巷","ALLEY":" ","HOUSE_NO":"４０號之１","E_COORD97":170828.5,"N_COORD97":2544534.3700000001,"ADDRESS":"小東路１８９巷４０號之１","OBJECTID":421426},"geometry":{"x":170828.5,"y":2544534.370000001}},{"attributes":{"ID":421452,"DIS_CODE":0,"TOWNNAME":"北區","LI":"東興里","LIN":"2鄰","STREET":"小東路","SECT":" ","MAREA":" ","LANE":"１８９巷","ALLEY":" ","HOUSE_NO":"４１號","E_COORD97":170811.57000000001,"N_COORD97":2544529.7999999998,"ADDRESS":"小東路１８９巷４１號","OBJECTID":421427},"geometry":{"x":170811.5700000003,"y":2544529.8000000026}},{"attributes":{"ID":421453,"DIS_CODE":0,"TOWNNAME":"北區","LI":"東興里","LIN":"2鄰","STREET":"小東路","SECT":" ","MAREA":" ","LANE":"１８９巷","ALLEY":" ","HOUSE_NO":"４２號","E_COORD97":170821.39999999999,"N_COORD97":2544535.2400000002,"ADDRESS":"小東路１８９巷４２號","OBJECTID":421428},"geometry":{"x":170821.40000000037,"y":2544535.2400000021}},{"attributes":{"ID":421454,"DIS_CODE":0,"TOWNNAME":"北區","LI":"東興里","LIN":"2鄰","STREET":"小東路","SECT":" ","MAREA":" ","LANE":"１８９巷","ALLEY":" ","HOUSE_NO":"４３號","E_COORD97":170815.56,"N_COORD97":2544529.02,"ADDRESS":"小東路１８９巷４３號","OBJECTID":421429},"geometry":{"x":170815.55999999959,"y":2544529.0200000033}},{"attributes":{"ID":421455,"DIS_CODE":0,"TOWNNAME":"北區","LI":"東興里","LIN":"2鄰","STREET":"小東路","SECT":" ","MAREA":" ","LANE":"１８９巷","ALLEY":" ","HOUSE_NO":"４４號","E_COORD97":170818.09,"N_COORD97":2544536.6000000001,"ADDRESS":"小東路１８９巷４４號","OBJECTID":421430},"geometry":{"x":170818.09000000171,"y":2544536.6000000015}},{"attributes":{"ID":421456,"DIS_CODE":0,"TOWNNAME":"北區","LI":"東興里","LIN":"2鄰","STREET":"小東路","SECT":" ","MAREA":" ","LANE":"１８９巷","ALLEY":" ","HOUSE_NO":"４５號","E_COORD97":170819.25,"N_COORD97":2544528.2400000002,"ADDRESS":"小東路１８９巷４５號","OBJECTID":421431},"geometry":{"x":170819.25000000093,"y":2544528.2400000039}},{"attributes":{"ID":421457,"DIS_CODE":0,"TOWNNAME":"新營區","LI":"土庫里","LIN":"1鄰","STREET":" ","SECT":" ","MAREA":"土庫","LANE":" ","ALLEY":" ","HOUSE_NO":"１號","E_COORD97":183048.330632,"N_COORD97":2579978.53938,"ADDRESS":"土庫１號","OBJECTID":421432},"geometry":{"x":183048.33063200023,"y":2579978.539379999}},{"attributes":{"ID":421458,"DIS_CODE":0,"TOWNNAME":"北區","LI":"東興里","LIN":"2鄰","STREET":"小東路","SECT":" ","MAREA":" ","LANE":"１８９巷","ALLEY":" ","HOUSE_NO":"４６號","E_COORD97":170814.39000000001,"N_COORD97":2544537.8700000001,"ADDRESS":"小東路１８９巷４６號","OBJECTID":421433},"geometry":{"x":170814.3900000006,"y":2544537.870000001}},{"attributes":{"ID":421459,"DIS_CODE":0,"TOWNNAME":"北區","LI":"東興里","LIN":"2鄰","STREET":"小東路","SECT":" ","MAREA":" ","LANE":"１８９巷","ALLEY":" ","HOUSE_NO":"４７號","E_COORD97":170825.29000000001,"N_COORD97":2544526.1099999999,"ADDRESS":"小東路１８９巷４７號","OBJECTID":421434},"geometry":{"x":170825.2900000019,"y":2544526.1100000013}},{"attributes":{"ID":421460,"DIS_CODE":0,"TOWNNAME":"北區","LI":"東興里","LIN":"2鄰","STREET":"小東路","SECT":" ","MAREA":" ","LANE":"１８９巷","ALLEY":" ","HOUSE_NO":"４８號","E_COORD97":170811.17999999999,"N_COORD97":2544539.1299999999,"ADDRESS":"小東路１８９巷４８號","OBJECTID":421435},"geometry":{"x":170811.18000000063,"y":2544539.1300000008}},{"attributes":{"ID":421461,"DIS_CODE":0,"TOWNNAME":"北區","LI":"東興里","LIN":"2鄰","STREET":"小東路","SECT":" ","MAREA":" ","LANE":"１８９巷","ALLEY":" ","HOUSE_NO":"４９號","E_COORD97":170829.57000000001,"N_COORD97":2544525.6499999999,"ADDRESS":"小東路１８９巷４９號","OBJECTID":421436},"geometry":{"x":170829.57000000123,"y":2544525.6500000041}},{"attributes":{"ID":421462,"DIS_CODE":0,"TOWNNAME":"北區","LI":"東興里","LIN":"2鄰","STREET":"小東路","SECT":" ","MAREA":" ","LANE":"１８９巷","ALLEY":" ","HOUSE_NO":"４號","E_COORD97":170808.94,"N_COORD97":2544521.4700000002,"ADDRESS":"小東路１８９巷４號","OBJECTID":421437},"geometry":{"x":170808.94000000041,"y":2544521.4700000025}},{"attributes":{"ID":421463,"DIS_CODE":0,"TOWNNAME":"北區","LI":"東興里","LIN":"2鄰","STREET":"小東路","SECT":" ","MAREA":" ","LANE":"１８９巷","ALLEY":" ","HOUSE_NO":"５０號","E_COORD97":170837.06,"N_COORD97":2544542.5,"ADDRESS":"小東路１８９巷５０號","OBJECTID":421438},"geometry":{"x":170837.06000000052,"y":2544542.5}},{"attributes":{"ID":421464,"DIS_CODE":0,"TOWNNAME":"北區","LI":"東興里","LIN":"2鄰","STREET":"小東路","SECT":" ","MAREA":" ","LANE":"１８９巷","ALLEY":" ","HOUSE_NO":"５１號","E_COORD97":170833.95000000001,"N_COORD97":2544523.8100000001,"ADDRESS":"小東路１８９巷５１號","OBJECTID":421439},"geometry":{"x":170833.95000000019,"y":2544523.8100000005}},{"attributes":{"ID":421465,"DIS_CODE":0,"TOWNNAME":"北區","LI":"東興里","LIN":"2鄰","STREET":"小東路","SECT":" ","MAREA":" ","LANE":"１８９巷","ALLEY":" ","HOUSE_NO":"５２號","E_COORD97":170835.98999999999,"N_COORD97":2544546.1000000001,"ADDRESS":"小東路１８９巷５２號","OBJECTID":421440},"geometry":{"x":170835.98999999929,"y":2544546.1000000015}},{"attributes":{"ID":421466,"DIS_CODE":0,"TOWNNAME":"北區","LI":"東興里","LIN":"2鄰","STREET":"小東路","SECT":" ","MAREA":" ","LANE":"１８９巷","ALLEY":" ","HOUSE_NO":"５４號","E_COORD97":170834.42999999999,"N_COORD97":2544549.5,"ADDRESS":"小東路１８９巷５４號","OBJECTID":421441},"geometry":{"x":170834.43000000063,"y":2544549.4999999981}},{"attributes":{"ID":421467,"DIS_CODE":0,"TOWNNAME":"北區","LI":"東興里","LIN":"2鄰","STREET":"小東路","SECT":" ","MAREA":" ","LANE":"１８９巷","ALLEY":" ","HOUSE_NO":"５６號","E_COORD97":170833.75,"N_COORD97":2544553.0899999999,"ADDRESS":"小東路１８９巷５６號","OBJECTID":421442},"geometry":{"x":170833.75,"y":2544553.0900000017}},{"attributes":{"ID":421468,"DIS_CODE":0,"TOWNNAME":"北區","LI":"東興里","LIN":"2鄰","STREET":"小東路","SECT":" ","MAREA":" ","LANE":"１８９巷","ALLEY":" ","HOUSE_NO":"５８號","E_COORD97":170832.57999999999,"N_COORD97":2544556.3999999999,"ADDRESS":"小東路１８９巷５８號","OBJECTID":421443},"geometry":{"x":170832.58000000101,"y":2544556.4000000004}},{"attributes":{"ID":421469,"DIS_CODE":0,"TOWNNAME":"北區","LI":"東興里","LIN":"2鄰","STREET":"小東路","SECT":" ","MAREA":" ","LANE":"１８９巷","ALLEY":" ","HOUSE_NO":"６０號","E_COORD97":170830.14999999999,"N_COORD97":2544563.6899999999,"ADDRESS":"小東路１８９巷６０號","OBJECTID":421444},"geometry":{"x":170830.15000000224,"y":2544563.6899999995}},{"attributes":{"ID":421470,"DIS_CODE":0,"TOWNNAME":"北區","LI":"東興里","LIN":"2鄰","STREET":"小東路","SECT":" ","MAREA":" ","LANE":"１８９巷","ALLEY":" ","HOUSE_NO":"６２號","E_COORD97":170829.28,"N_COORD97":2544567.3799999999,"ADDRESS":"小東路１８９巷６２號","OBJECTID":421445},"geometry":{"x":170829.28000000119,"y":2544567.3800000008}},{"attributes":{"ID":421471,"DIS_CODE":0,"TOWNNAME":"北區","LI":"東興里","LIN":"2鄰","STREET":"小東路","SECT":" ","MAREA":" ","LANE":"１８９巷","ALLEY":" ","HOUSE_NO":"６號","E_COORD97":170812.44,"N_COORD97":2544520.5899999999,"ADDRESS":"小東路１８９巷６號","OBJECTID":421446},"geometry":{"x":170812.44000000041,"y":2544520.5899999999}},{"attributes":{"ID":421472,"DIS_CODE":0,"TOWNNAME":"北區","LI":"東興里","LIN":"2鄰","STREET":"小東路","SECT":" ","MAREA":" ","LANE":"１８９巷","ALLEY":" ","HOUSE_NO":"７０號","E_COORD97":170828.95000000001,"N_COORD97":2544582.7000000002,"ADDRESS":"小東路１８９巷７０號","OBJECTID":421447},"geometry":{"x":170828.95000000019,"y":2544582.7000000011}},{"attributes":{"ID":421473,"DIS_CODE":0,"TOWNNAME":"北區","LI":"東興里","LIN":"2鄰","STREET":"小東路","SECT":" ","MAREA":" ","LANE":"１８９巷","ALLEY":" ","HOUSE_NO":"８號","E_COORD97":170815.95000000001,"N_COORD97":2544519.6200000001,"ADDRESS":"小東路１８９巷８號","OBJECTID":421448},"geometry":{"x":170815.95000000205,"y":2544519.6200000048}},{"attributes":{"ID":421474,"DIS_CODE":0,"TOWNNAME":"北區","LI":"五福里","LIN":"2鄰","STREET":"北華街","SECT":" ","MAREA":" ","LANE":"２５０巷","ALLEY":" ","HOUSE_NO":"１０號","E_COORD97":168336.72,"N_COORD97":2544722.8300000001,"ADDRESS":"北華街２５０巷１０號","OBJECTID":421449},"geometry":{"x":168336.71999999974,"y":2544722.8300000001}},{"attributes":{"ID":421475,"DIS_CODE":0,"TOWNNAME":"北區","LI":"五福里","LIN":"2鄰","STREET":"北華街","SECT":" ","MAREA":" ","LANE":"２５０巷","ALLEY":" ","HOUSE_NO":"２號","E_COORD97":168337.79000000001,"N_COORD97":2544688.9199999999,"ADDRESS":"北華街２５０巷２號","OBJECTID":421450},"geometry":{"x":168337.79000000004,"y":2544688.9199999999}},{"attributes":{"ID":421476,"DIS_CODE":0,"TOWNNAME":"北區","LI":"五福里","LIN":"2鄰","STREET":"北華街","SECT":" ","MAREA":" ","LANE":"２５０巷","ALLEY":" ","HOUSE_NO":"４號","E_COORD97":168335.17999999999,"N_COORD97":2544708.1400000001,"ADDRESS":"北華街２５０巷４號","OBJECTID":421451},"geometry":{"x":168335.1799999997,"y":2544708.1400000006}},{"attributes":{"ID":421477,"DIS_CODE":0,"TOWNNAME":"北區","LI":"五福里","LIN":"2鄰","STREET":"北華街","SECT":" ","MAREA":" ","LANE":"２５０巷","ALLEY":" ","HOUSE_NO":"６號","E_COORD97":168336.25,"N_COORD97":2544712.2799999998,"ADDRESS":"北華街２５０巷６號","OBJECTID":421452},"geometry":{"x":168336.25,"y":2544712.2799999993}},{"attributes":{"ID":421478,"DIS_CODE":0,"TOWNNAME":"北區","LI":"五福里","LIN":"2鄰","STREET":"北華街","SECT":" ","MAREA":" ","LANE":"２５０巷","ALLEY":" ","HOUSE_NO":"８號","E_COORD97":168336.48999999999,"N_COORD97":2544716.5499999998,"ADDRESS":"北華街２５０巷８號","OBJECTID":421453},"geometry":{"x":168336.49000000115,"y":2544716.5500000045}},{"attributes":{"ID":421479,"DIS_CODE":0,"TOWNNAME":"歸仁區","LI":"南興里","LIN":"2鄰","STREET":"文化十二街","SECT":" ","MAREA":" ","LANE":"８２巷","ALLEY":" ","HOUSE_NO":"２３號","E_COORD97":176507.34,"N_COORD97":2541360.3300000001,"ADDRESS":"文化十二街８２巷２３號","OBJECTID":421454},"geometry":{"x":176507.34000000078,"y":2541360.3300000001}},{"attributes":{"ID":421480,"DIS_CODE":0,"TOWNNAME":"歸仁區","LI":"南興里","LIN":"2鄰","STREET":"文化十二街","SECT":" ","MAREA":" ","LANE":"７６巷","ALLEY":" ","HOUSE_NO":"１３號","E_COORD97":176518.54000000001,"N_COORD97":2541347.3300000001,"ADDRESS":"文化十二街７６巷１３號","OBJECTID":421455},"geometry":{"x":176518.54000000097,"y":2541347.3300000038}},{"attributes":{"ID":421481,"DIS_CODE":0,"TOWNNAME":"歸仁區","LI":"六甲里","LIN":"2鄰","STREET":"中正南路","SECT":"一段","MAREA":" ","LANE":"５８７巷","ALLEY":" ","HOUSE_NO":"８號","E_COORD97":176733.752901,"N_COORD97":2539879.63717,"ADDRESS":"中正南路一段５８７巷８號","OBJECTID":421456},"geometry":{"x":176733.75290099997,"y":2539879.6371720005}},{"attributes":{"ID":421482,"DIS_CODE":0,"TOWNNAME":"歸仁區","LI":"看東里","LIN":"2鄰","STREET":"成功六街","SECT":" ","MAREA":" ","LANE":"１１６巷","ALLEY":" ","HOUSE_NO":"５３號","E_COORD97":178477.41,"N_COORD97":2540329.2000000002,"ADDRESS":"成功六街１１６巷５３號","OBJECTID":421457},"geometry":{"x":178477.41000000108,"y":2540329.1999999993}},{"attributes":{"ID":421483,"DIS_CODE":0,"TOWNNAME":"玉井區","LI":"玉田里","LIN":"2鄰","STREET":"中正路","SECT":" ","MAREA":" ","LANE":"１７３巷","ALLEY":" ","HOUSE_NO":"３１號","E_COORD97":194996.01000000001,"N_COORD97":2558294.2400000002,"ADDRESS":"中正路１７３巷３１號","OBJECTID":421458},"geometry":{"x":194996.01000000071,"y":2558294.2400000021}},{"attributes":{"ID":421484,"DIS_CODE":0,"TOWNNAME":"玉井區","LI":"中正里","LIN":"2鄰","STREET":"大成路","SECT":" ","MAREA":" ","LANE":"５４９巷","ALLEY":" ","HOUSE_NO":"５號","E_COORD97":195349.37,"N_COORD97":2558783.2599999998,"ADDRESS":"大成路５４９巷５號","OBJECTID":421459},"geometry":{"x":195349.37000000104,"y":2558783.2599999998}},{"attributes":{"ID":421485,"DIS_CODE":0,"TOWNNAME":"玉井區","LI":"玉田里","LIN":"2鄰","STREET":"樹糖街","SECT":" ","MAREA":" ","LANE":"２６巷","ALLEY":" ","HOUSE_NO":"３７號","E_COORD97":194876.98999999999,"N_COORD97":2558409.2400000002,"ADDRESS":"樹糖街２６巷３７號","OBJECTID":421460},"geometry":{"x":194876.99000000022,"y":2558409.2400000021}},{"attributes":{"ID":421486,"DIS_CODE":0,"TOWNNAME":"玉井區","LI":"玉田里","LIN":"2鄰","STREET":"中正路","SECT":" ","MAREA":" ","LANE":"１７３巷","ALLEY":" ","HOUSE_NO":"２０號","E_COORD97":195036.31,"N_COORD97":2558303.2400000002,"ADDRESS":"中正路１７３巷２０號","OBJECTID":421461},"geometry":{"x":195036.30999999959,"y":2558303.2400000039}},{"attributes":{"ID":421487,"DIS_CODE":0,"TOWNNAME":"玉井區","LI":"玉井里","LIN":"2鄰","STREET":"憲政街","SECT":" ","MAREA":" ","LANE":"６６巷","ALLEY":" ","HOUSE_NO":"２８號","E_COORD97":194527.31,"N_COORD97":2558127.2400000002,"ADDRESS":"憲政街６６巷２８號","OBJECTID":421462},"geometry":{"x":194527.31000000052,"y":2558127.2400000021}},{"attributes":{"ID":421488,"DIS_CODE":0,"TOWNNAME":"玉井區","LI":"玉井里","LIN":"2鄰","STREET":"憲政街","SECT":" ","MAREA":" ","LANE":"６６巷","ALLEY":" ","HOUSE_NO":"２４號","E_COORD97":194547.29999999999,"N_COORD97":2558120.9500000002,"ADDRESS":"憲政街６６巷２４號","OBJECTID":421463},"geometry":{"x":194547.29999999981,"y":2558120.950000003}},{"attributes":{"ID":421489,"DIS_CODE":0,"TOWNNAME":"玉井區","LI":"玉田里","LIN":"2鄰","STREET":"樹糖街","SECT":" ","MAREA":" ","LANE":"２６巷","ALLEY":" ","HOUSE_NO":"２１號","E_COORD97":194919.09,"N_COORD97":2558366.25,"ADDRESS":"樹糖街２６巷２１號","OBJECTID":421464},"geometry":{"x":194919.09000000078,"y":2558366.25}},{"attributes":{"ID":421490,"DIS_CODE":0,"TOWNNAME":"玉井區","LI":"玉田里","LIN":"2鄰","STREET":"樹糖街","SECT":" ","MAREA":" ","LANE":"２６巷","ALLEY":" ","HOUSE_NO":"２７號","E_COORD97":194897.39000000001,"N_COORD97":2558405.2400000002,"ADDRESS":"樹糖街２６巷２７號","OBJECTID":421465},"geometry":{"x":194897.38999999966,"y":2558405.2400000021}},{"attributes":{"ID":421491,"DIS_CODE":0,"TOWNNAME":"玉井區","LI":"中正里","LIN":"2鄰","STREET":"玉安街","SECT":" ","MAREA":" ","LANE":"２０１巷","ALLEY":" ","HOUSE_NO":"６號","E_COORD97":195204.45999999999,"N_COORD97":2558726.3100000001,"ADDRESS":"玉安街２０１巷６號","OBJECTID":421466},"geometry":{"x":195204.46000000183,"y":2558726.3100000005}},{"attributes":{"ID":421492,"DIS_CODE":0,"TOWNNAME":"玉井區","LI":"玉田里","LIN":"2鄰","STREET":"民生路","SECT":" ","MAREA":" ","LANE":"１７５巷","ALLEY":" ","HOUSE_NO":"１號","E_COORD97":195019.38,"N_COORD97":2558338.29,"ADDRESS":"民生路１７５巷１號","OBJECTID":421467},"geometry":{"x":195019.37999999989,"y":2558338.2899999991}},{"attributes":{"ID":421493,"DIS_CODE":0,"TOWNNAME":"玉井區","LI":"玉井里","LIN":"2鄰","STREET":"憲政街","SECT":" ","MAREA":" ","LANE":"４８巷","ALLEY":" ","HOUSE_NO":"３９號","E_COORD97":194547.35000000001,"N_COORD97":2558149.98,"ADDRESS":"憲政街４８巷３９號","OBJECTID":421468},"geometry":{"x":194547.35000000056,"y":2558149.9800000023}},{"attributes":{"ID":421494,"DIS_CODE":0,"TOWNNAME":"玉井區","LI":"玉田里","LIN":"2鄰","STREET":"中正路","SECT":" ","MAREA":" ","LANE":"１７３巷","ALLEY":" ","HOUSE_NO":"６號","E_COORD97":195019.06,"N_COORD97":2558269.2400000002,"ADDRESS":"中正路１７３巷６號","OBJECTID":421469},"geometry":{"x":195019.06000000052,"y":2558269.2400000039}},{"attributes":{"ID":421495,"DIS_CODE":0,"TOWNNAME":"玉井區","LI":"玉田里","LIN":"2鄰","STREET":"玉安街","SECT":" ","MAREA":" ","LANE":"２５巷","ALLEY":" ","HOUSE_NO":"７號","E_COORD97":195011.01000000001,"N_COORD97":2558379.3100000001,"ADDRESS":"玉安街２５巷７號","OBJECTID":421470},"geometry":{"x":195011.01000000071,"y":2558379.3100000005}},{"attributes":{"ID":421496,"DIS_CODE":0,"TOWNNAME":"中西區","LI":"安海里","LIN":"10鄰","STREET":"河中街","SECT":" ","MAREA":" ","LANE":"８巷","ALLEY":" ","HOUSE_NO":"６號","E_COORD97":167297.70000000001,"N_COORD97":2543900.71,"ADDRESS":"河中街８巷６號","OBJECTID":421471},"geometry":{"x":167297.70000000019,"y":2543900.7100000009}},{"attributes":{"ID":421497,"DIS_CODE":0,"TOWNNAME":"玉井區","LI":"玉田里","LIN":"2鄰","STREET":"樹糖街","SECT":" ","MAREA":" ","LANE":"２６巷","ALLEY":" ","HOUSE_NO":"２０號","E_COORD97":194878.89000000001,"N_COORD97":2558351.25,"ADDRESS":"樹糖街２６巷２０號","OBJECTID":421472},"geometry":{"x":194878.88999999873,"y":2558351.2500000019}},{"attributes":{"ID":421498,"DIS_CODE":0,"TOWNNAME":"玉井區","LI":"玉田里","LIN":"2鄰","STREET":"玉安街","SECT":" ","MAREA":" ","LANE":"２５巷","ALLEY":" ","HOUSE_NO":"１２號","E_COORD97":195014.95999999999,"N_COORD97":2558393.3100000001,"ADDRESS":"玉安街２５巷１２號","OBJECTID":421473},"geometry":{"x":195014.96000000089,"y":2558393.3100000005}},{"attributes":{"ID":421499,"DIS_CODE":0,"TOWNNAME":"玉井區","LI":"玉田里","LIN":"2鄰","STREET":"玉安街","SECT":" ","MAREA":" ","LANE":"２５巷","ALLEY":" ","HOUSE_NO":"２號","E_COORD97":195029.12,"N_COORD97":2558390.3100000001,"ADDRESS":"玉安街２５巷２號","OBJECTID":421474},"geometry":{"x":195029.12000000104,"y":2558390.3100000005}},{"attributes":{"ID":421500,"DIS_CODE":0,"TOWNNAME":"玉井區","LI":"玉田里","LIN":"2鄰","STREET":"樹糖街","SECT":" ","MAREA":" ","LANE":"２６巷","ALLEY":" ","HOUSE_NO":"３３號","E_COORD97":194885.17999999999,"N_COORD97":2558407.2400000002,"ADDRESS":"樹糖街２６巷３３號","OBJECTID":421475},"geometry":{"x":194885.1799999997,"y":2558407.2400000002}},{"attributes":{"ID":421501,"DIS_CODE":0,"TOWNNAME":"玉井區","LI":"玉田里","LIN":"2鄰","STREET":"玉安街","SECT":" ","MAREA":" ","LANE":"２５巷","ALLEY":" ","HOUSE_NO":"９號","E_COORD97":195006.20999999999,"N_COORD97":2558380.3100000001,"ADDRESS":"玉安街２５巷９號","OBJECTID":421476},"geometry":{"x":195006.21000000089,"y":2558380.3100000005}},{"attributes":{"ID":421502,"DIS_CODE":0,"TOWNNAME":"玉井區","LI":"玉田里","LIN":"2鄰","STREET":"樹糖街","SECT":" ","MAREA":" ","LANE":"２６巷","ALLEY":" ","HOUSE_NO":"４１號","E_COORD97":194867.28,"N_COORD97":2558410.2400000002,"ADDRESS":"樹糖街２６巷４１號","OBJECTID":421477},"geometry":{"x":194867.28000000119,"y":2558410.2400000002}},{"attributes":{"ID":421503,"DIS_CODE":0,"TOWNNAME":"玉井區","LI":"玉田里","LIN":"2鄰","STREET":"民生路","SECT":" ","MAREA":" ","LANE":"１７５巷","ALLEY":" ","HOUSE_NO":"３號","E_COORD97":195021.79000000001,"N_COORD97":2558344.29,"ADDRESS":"民生路１７５巷３號","OBJECTID":421478},"geometry":{"x":195021.79000000004,"y":2558344.2899999991}},{"attributes":{"ID":421504,"DIS_CODE":0,"TOWNNAME":"北區","LI":"公園里","LIN":"2鄰","STREET":"富北街","SECT":" ","MAREA":" ","LANE":"４８巷","ALLEY":" ","HOUSE_NO":"３之１號","E_COORD97":169203.78,"N_COORD97":2544389.3700000001,"ADDRESS":"富北街４８巷３之１號","OBJECTID":421479},"geometry":{"x":169203.78000000119,"y":2544389.3700000029}},{"attributes":{"ID":421505,"DIS_CODE":0,"TOWNNAME":"北區","LI":"文元里","LIN":"2鄰","STREET":"中華北路","SECT":"二段","MAREA":" ","LANE":"９０巷","ALLEY":" ","HOUSE_NO":"３８之１號","E_COORD97":167771.09,"N_COORD97":2546581.23,"ADDRESS":"中華北路二段９０巷３８之１號","OBJECTID":421480},"geometry":{"x":167771.08999999985,"y":2546581.2300000004}},{"attributes":{"ID":421506,"DIS_CODE":0,"TOWNNAME":"學甲區","LI":"仁得里","LIN":"2鄰","STREET":"成功路","SECT":" ","MAREA":" ","LANE":"８巷","ALLEY":" ","HOUSE_NO":"２號","E_COORD97":166211.98000000001,"N_COORD97":2570159.9500000002,"ADDRESS":"成功路８巷２號","OBJECTID":421481},"geometry":{"x":166211.98000000231,"y":2570159.9499999993}},{"attributes":{"ID":421507,"DIS_CODE":0,"TOWNNAME":"學甲區","LI":"仁得里","LIN":"2鄰","STREET":"成功路","SECT":" ","MAREA":" ","LANE":"８巷","ALLEY":" ","HOUSE_NO":"３號","E_COORD97":166212.19,"N_COORD97":2570177.7400000002,"ADDRESS":"成功路８巷３號","OBJECTID":421482},"geometry":{"x":166212.19000000227,"y":2570177.7400000021}},{"attributes":{"ID":421508,"DIS_CODE":0,"TOWNNAME":"學甲區","LI":"仁得里","LIN":"2鄰","STREET":"成功路","SECT":" ","MAREA":" ","LANE":"８巷","ALLEY":" ","HOUSE_NO":"５號","E_COORD97":166222.32999999999,"N_COORD97":2570177.3199999998,"ADDRESS":"成功路８巷５號","OBJECTID":421483},"geometry":{"x":166222.33000000007,"y":2570177.3200000022}},{"attributes":{"ID":421509,"DIS_CODE":0,"TOWNNAME":"學甲區","LI":"仁得里","LIN":"2鄰","STREET":"成功路","SECT":" ","MAREA":" ","LANE":"８巷","ALLEY":" ","HOUSE_NO":"６號","E_COORD97":166207.32999999999,"N_COORD97":2570159.8799999999,"ADDRESS":"成功路８巷６號","OBJECTID":421484},"geometry":{"x":166207.32999999914,"y":2570159.879999999}},{"attributes":{"ID":421510,"DIS_CODE":0,"TOWNNAME":"學甲區","LI":"明宜里","LIN":"2鄰","STREET":"和平路","SECT":" ","MAREA":" ","LANE":"２７４巷","ALLEY":" ","HOUSE_NO":"２號","E_COORD97":166005.89999999999,"N_COORD97":2570381.2799999998,"ADDRESS":"和平路２７４巷２號","OBJECTID":421485},"geometry":{"x":166005.9000000013,"y":2570381.2799999993}},{"attributes":{"ID":421511,"DIS_CODE":0,"TOWNNAME":"中西區","LI":"安海里","LIN":"7鄰","STREET":"中正路","SECT":" ","MAREA":" ","LANE":"３５０巷","ALLEY":" ","HOUSE_NO":"１０號","E_COORD97":167406.92999999999,"N_COORD97":2543862.46,"ADDRESS":"中正路３５０巷１０號","OBJECTID":421486},"geometry":{"x":167406.93000000063,"y":2543862.459999999}},{"attributes":{"ID":421512,"DIS_CODE":0,"TOWNNAME":"中西區","LI":"安海里","LIN":"7鄰","STREET":"中正路","SECT":" ","MAREA":" ","LANE":"３５０巷","ALLEY":" ","HOUSE_NO":"１２號","E_COORD97":167408.01000000001,"N_COORD97":2543857.9900000002,"ADDRESS":"中正路３５０巷１２號","OBJECTID":421487},"geometry":{"x":167408.01000000071,"y":2543857.9900000002}},{"attributes":{"ID":421513,"DIS_CODE":0,"TOWNNAME":"中西區","LI":"安海里","LIN":"7鄰","STREET":"中正路","SECT":" ","MAREA":" ","LANE":"３５０巷","ALLEY":" ","HOUSE_NO":"６號","E_COORD97":167407.47,"N_COORD97":2543844.8100000001,"ADDRESS":"中正路３５０巷６號","OBJECTID":421488},"geometry":{"x":167407.46999999974,"y":2543844.8100000005}},{"attributes":{"ID":421514,"DIS_CODE":0,"TOWNNAME":"中西區","LI":"安海里","LIN":"7鄰","STREET":"中正路","SECT":" ","MAREA":" ","LANE":"３５０巷","ALLEY":" ","HOUSE_NO":"８號","E_COORD97":167407.82999999999,"N_COORD97":2543848.3900000001,"ADDRESS":"中正路３５０巷８號","OBJECTID":421489},"geometry":{"x":167407.83000000101,"y":2543848.3900000006}},{"attributes":{"ID":421515,"DIS_CODE":0,"TOWNNAME":"學甲區","LI":"明宜里","LIN":"2鄰","STREET":"和平路","SECT":" ","MAREA":" ","LANE":"２７４巷","ALLEY":" ","HOUSE_NO":"８號","E_COORD97":166016.07999999999,"N_COORD97":2570379.2000000002,"ADDRESS":"和平路２７４巷８號","OBJECTID":421490},"geometry":{"x":166016.08000000101,"y":2570379.2000000011}},{"attributes":{"ID":421516,"DIS_CODE":0,"TOWNNAME":"北區","LI":"大豐里","LIN":"2鄰","STREET":"武聖路","SECT":" ","MAREA":" ","LANE":"８巷","ALLEY":" ","HOUSE_NO":"３４號","E_COORD97":167237.82999999999,"N_COORD97":2545162.5699999998,"ADDRESS":"武聖路８巷３４號","OBJECTID":421491},"geometry":{"x":167237.83000000007,"y":2545162.5700000003}},{"attributes":{"ID":421517,"DIS_CODE":0,"TOWNNAME":"北區","LI":"東興里","LIN":"2鄰","STREET":"小東路","SECT":" ","MAREA":" ","LANE":"１８９巷","ALLEY":" ","HOUSE_NO":"１１號","E_COORD97":170797.67000000001,"N_COORD97":2544541.3100000001,"ADDRESS":"小東路１８９巷１１號","OBJECTID":421492},"geometry":{"x":170797.67000000086,"y":2544541.3100000042}},{"attributes":{"ID":421518,"DIS_CODE":0,"TOWNNAME":"北區","LI":"東興里","LIN":"2鄰","STREET":"小東路","SECT":" ","MAREA":" ","LANE":"１８９巷","ALLEY":" ","HOUSE_NO":"１３號","E_COORD97":170798.45000000001,"N_COORD97":2544544.8100000001,"ADDRESS":"小東路１８９巷１３號","OBJECTID":421493},"geometry":{"x":170798.45000000019,"y":2544544.8100000042}},{"attributes":{"ID":421519,"DIS_CODE":0,"TOWNNAME":"北區","LI":"東興里","LIN":"2鄰","STREET":"小東路","SECT":" ","MAREA":" ","LANE":"１８９巷","ALLEY":" ","HOUSE_NO":"９號","E_COORD97":170796.89999999999,"N_COORD97":2544537.4300000002,"ADDRESS":"小東路１８９巷９號","OBJECTID":421494},"geometry":{"x":170796.9000000013,"y":2544537.4300000016}},{"attributes":{"ID":421520,"DIS_CODE":0,"TOWNNAME":"東區","LI":"新東里","LIN":"2鄰","STREET":"東門路","SECT":"二段","MAREA":" ","LANE":"１６１巷","ALLEY":" ","HOUSE_NO":"９號","E_COORD97":170351.35000000001,"N_COORD97":2542923.9199999999,"ADDRESS":"東門路二段１６１巷９號","OBJECTID":421495},"geometry":{"x":170351.34999999963,"y":2542923.9200000018}},{"attributes":{"ID":421521,"DIS_CODE":0,"TOWNNAME":"安平區","LI":"華平里","LIN":"9鄰","STREET":"怡平路","SECT":" ","MAREA":" ","LANE":"４１０巷","ALLEY":" ","HOUSE_NO":"３８－２號","E_COORD97":165423.85000000001,"N_COORD97":2543926.6299999999,"ADDRESS":"怡平路４１０巷３８－２號","OBJECTID":421496},"geometry":{"x":165423.85000000056,"y":2543926.629999999}},{"attributes":{"ID":421522,"DIS_CODE":0,"TOWNNAME":"歸仁區","LI":"後市里","LIN":"48鄰","STREET":"文化街","SECT":"二段","MAREA":" ","LANE":"１３９巷","ALLEY":" ","HOUSE_NO":"６號","E_COORD97":177137.94,"N_COORD97":2541154.7599999998,"ADDRESS":"文化街二段１３９巷６號","OBJECTID":421497},"geometry":{"x":177137.94000000134,"y":2541154.7600000016}},{"attributes":{"ID":421523,"DIS_CODE":0,"TOWNNAME":"永康區","LI":"\u25A0行里","LIN":"48鄰","STREET":"新民街","SECT":" ","MAREA":" ","LANE":"６６巷","ALLEY":" ","HOUSE_NO":"２號七樓之３","E_COORD97":172380.29999999999,"N_COORD97":2548980.0800000001,"ADDRESS":"新民街６６巷２號七樓之３","OBJECTID":421498},"geometry":{"x":172380.30000000075,"y":2548980.0800000001}},{"attributes":{"ID":421524,"DIS_CODE":0,"TOWNNAME":"永康區","LI":"\u25A0行里","LIN":"48鄰","STREET":"新民街","SECT":" ","MAREA":" ","LANE":"４７巷","ALLEY":" ","HOUSE_NO":"１號七樓之２","E_COORD97":172374.29999999999,"N_COORD97":2548932.2999999998,"ADDRESS":"新民街４７巷１號七樓之２","OBJECTID":421499},"geometry":{"x":172374.29999999981,"y":2548932.3000000045}},{"attributes":{"ID":421525,"DIS_CODE":0,"TOWNNAME":"永康區","LI":"西灣里","LIN":"48鄰","STREET":"永華路","SECT":" ","MAREA":" ","LANE":"２３３巷","ALLEY":" ","HOUSE_NO":"２６號八樓之１","E_COORD97":173990.79000000001,"N_COORD97":2545766.9500000002,"ADDRESS":"永華路２３３巷２６號八樓之１","OBJECTID":421500},"geometry":{"x":173990.79000000097,"y":2545766.9500000011}},{"attributes":{"ID":421526,"DIS_CODE":0,"TOWNNAME":"新營區","LI":"土庫里","LIN":"1鄰","STREET":" ","SECT":" ","MAREA":"土庫","LANE":" ","ALLEY":" ","HOUSE_NO":"１號之５","E_COORD97":183019.63888499999,"N_COORD97":2579926.87194,"ADDRESS":"土庫１號之５","OBJECTID":421501},"geometry":{"x":183019.63888500165,"y":2579926.8719430026}},{"attributes":{"ID":421527,"DIS_CODE":0,"TOWNNAME":"永康區","LI":"西灣里","LIN":"48鄰","STREET":"永華路","SECT":" ","MAREA":" ","LANE":"２３３巷","ALLEY":" ","HOUSE_NO":"２６號四樓之２","E_COORD97":173990.92000000001,"N_COORD97":2545766.9500000002,"ADDRESS":"永華路２３３巷２６號四樓之２","OBJECTID":421502},"geometry":{"x":173990.92000000179,"y":2545766.9500000011}},{"attributes":{"ID":421528,"DIS_CODE":0,"TOWNNAME":"永康區","LI":"西灣里","LIN":"48鄰","STREET":"永華路","SECT":" ","MAREA":" ","LANE":"２３３巷","ALLEY":" ","HOUSE_NO":"２６號三樓之１","E_COORD97":173990.79000000001,"N_COORD97":2545766.9500000002,"ADDRESS":"永華路２３３巷２６號三樓之１","OBJECTID":421503},"geometry":{"x":173990.79000000097,"y":2545766.9500000011}},{"attributes":{"ID":421529,"DIS_CODE":0,"TOWNNAME":"永康區","LI":"西灣里","LIN":"48鄰","STREET":"永華路","SECT":" ","MAREA":" ","LANE":"２３３巷","ALLEY":" ","HOUSE_NO":"２６號九樓之２","E_COORD97":173990.92000000001,"N_COORD97":2545766.9500000002,"ADDRESS":"永華路２３３巷２６號九樓之２","OBJECTID":421504},"geometry":{"x":173990.92000000179,"y":2545766.9500000011}},{"attributes":{"ID":421530,"DIS_CODE":0,"TOWNNAME":"永康區","LI":"西灣里","LIN":"48鄰","STREET":"永華路","SECT":" ","MAREA":" ","LANE":"２３３巷","ALLEY":" ","HOUSE_NO":"２６號四樓之１","E_COORD97":173990.79000000001,"N_COORD97":2545766.9500000002,"ADDRESS":"永華路２３３巷２６號四樓之１","OBJECTID":421505},"geometry":{"x":173990.79000000097,"y":2545766.9500000011}},{"attributes":{"ID":421531,"DIS_CODE":0,"TOWNNAME":"永康區","LI":"\u25A0行里","LIN":"48鄰","STREET":"新民街","SECT":" ","MAREA":" ","LANE":"４７巷","ALLEY":" ","HOUSE_NO":"１２號八樓之６","E_COORD97":172348.14000000001,"N_COORD97":2548913.3100000001,"ADDRESS":"新民街４７巷１２號八樓之６","OBJECTID":421506},"geometry":{"x":172348.13999999873,"y":2548913.3100000024}},{"attributes":{"ID":421532,"DIS_CODE":0,"TOWNNAME":"永康區","LI":"\u25A0行里","LIN":"48鄰","STREET":"新民街","SECT":" ","MAREA":" ","LANE":"４７巷","ALLEY":" ","HOUSE_NO":"１２號四樓之８","E_COORD97":172348.06,"N_COORD97":2548913.3100000001,"ADDRESS":"新民街４７巷１２號四樓之８","OBJECTID":421507},"geometry":{"x":172348.05999999959,"y":2548913.3100000024}},{"attributes":{"ID":421533,"DIS_CODE":0,"TOWNNAME":"永康區","LI":"\u25A0行里","LIN":"48鄰","STREET":"新民街","SECT":" ","MAREA":" ","LANE":"４７巷","ALLEY":" ","HOUSE_NO":"１２號四樓之１２","E_COORD97":172349.23000000001,"N_COORD97":2548913.3100000001,"ADDRESS":"新民街４７巷１２號四樓之１２","OBJECTID":421508},"geometry":{"x":172349.23000000138,"y":2548913.3100000024}},{"attributes":{"ID":421534,"DIS_CODE":0,"TOWNNAME":"永康區","LI":"\u25A0行里","LIN":"48鄰","STREET":"新民街","SECT":" ","MAREA":" ","LANE":"６６巷","ALLEY":" ","HOUSE_NO":"１號四樓之８","E_COORD97":172364,"N_COORD97":2548983.5,"ADDRESS":"新民街６６巷１號四樓之８","OBJECTID":421509},"geometry":{"x":172364,"y":2548983.5}},{"attributes":{"ID":421535,"DIS_CODE":0,"TOWNNAME":"永康區","LI":"\u25A0行里","LIN":"48鄰","STREET":"新民街","SECT":" ","MAREA":" ","LANE":"６６巷","ALLEY":" ","HOUSE_NO":"２號六樓之２","E_COORD97":172380.32999999999,"N_COORD97":2548980.0800000001,"ADDRESS":"新民街６６巷２號六樓之２","OBJECTID":421510},"geometry":{"x":172380.33000000101,"y":2548980.0800000001}},{"attributes":{"ID":421536,"DIS_CODE":0,"TOWNNAME":"永康區","LI":"\u25A0行里","LIN":"48鄰","STREET":"新民街","SECT":" ","MAREA":" ","LANE":"６６巷","ALLEY":" ","HOUSE_NO":"１號六樓之８","E_COORD97":172364,"N_COORD97":2548983.5,"ADDRESS":"新民街６６巷１號六樓之８","OBJECTID":421511},"geometry":{"x":172364,"y":2548983.5}},{"attributes":{"ID":421537,"DIS_CODE":0,"TOWNNAME":"永康區","LI":"\u25A0行里","LIN":"48鄰","STREET":"新民街","SECT":" ","MAREA":" ","LANE":"４７巷","ALLEY":" ","HOUSE_NO":"１號六樓之１","E_COORD97":172374.16,"N_COORD97":2548932.2999999998,"ADDRESS":"新民街４７巷１號六樓之１","OBJECTID":421512},"geometry":{"x":172374.16000000201,"y":2548932.3000000045}},{"attributes":{"ID":421538,"DIS_CODE":0,"TOWNNAME":"永康區","LI":"\u25A0行里","LIN":"48鄰","STREET":"新民街","SECT":" ","MAREA":" ","LANE":"６６巷","ALLEY":" ","HOUSE_NO":"２號八樓之１","E_COORD97":172380.20000000001,"N_COORD97":2548980.0800000001,"ADDRESS":"新民街６６巷２號八樓之１","OBJECTID":421513},"geometry":{"x":172380.20000000019,"y":2548980.0800000001}},{"attributes":{"ID":421539,"DIS_CODE":0,"TOWNNAME":"永康區","LI":"\u25A0行里","LIN":"48鄰","STREET":"新民街","SECT":" ","MAREA":" ","LANE":"４７巷","ALLEY":" ","HOUSE_NO":"１２號四樓之５","E_COORD97":172348.01000000001,"N_COORD97":2548913.3100000001,"ADDRESS":"新民街４７巷１２號四樓之５","OBJECTID":421514},"geometry":{"x":172348.01000000071,"y":2548913.3100000024}},{"attributes":{"ID":421540,"DIS_CODE":0,"TOWNNAME":"永康區","LI":"\u25A0行里","LIN":"48鄰","STREET":"新民街","SECT":" ","MAREA":" ","LANE":"４７巷","ALLEY":" ","HOUSE_NO":"１２號四樓之１３","E_COORD97":172349.37,"N_COORD97":2548913.3100000001,"ADDRESS":"新民街４７巷１２號四樓之１３","OBJECTID":421515},"geometry":{"x":172349.37000000104,"y":2548913.3100000024}},{"attributes":{"ID":421541,"DIS_CODE":0,"TOWNNAME":"永康區","LI":"西灣里","LIN":"48鄰","STREET":"永華路","SECT":" ","MAREA":" ","LANE":"２３３巷","ALLEY":" ","HOUSE_NO":"１８號二樓之２","E_COORD97":174000.39999999999,"N_COORD97":2545741.54,"ADDRESS":"永華路２３３巷１８號二樓之２","OBJECTID":421516},"geometry":{"x":174000.4000000013,"y":2545741.5399999991}},{"attributes":{"ID":421542,"DIS_CODE":0,"TOWNNAME":"永康區","LI":"\u25A0行里","LIN":"48鄰","STREET":"新民街","SECT":" ","MAREA":" ","LANE":"６６巷","ALLEY":" ","HOUSE_NO":"２號四樓之５","E_COORD97":172380.23000000001,"N_COORD97":2548980.0800000001,"ADDRESS":"新民街６６巷２號四樓之５","OBJECTID":421517},"geometry":{"x":172380.23000000045,"y":2548980.0800000001}},{"attributes":{"ID":421543,"DIS_CODE":0,"TOWNNAME":"永康區","LI":"西灣里","LIN":"48鄰","STREET":"永華路","SECT":" ","MAREA":" ","LANE":"２３３巷","ALLEY":" ","HOUSE_NO":"２６號七樓之２","E_COORD97":173990.92000000001,"N_COORD97":2545766.9500000002,"ADDRESS":"永華路２３３巷２６號七樓之２","OBJECTID":421518},"geometry":{"x":173990.92000000179,"y":2545766.9500000011}},{"attributes":{"ID":421544,"DIS_CODE":0,"TOWNNAME":"永康區","LI":"西灣里","LIN":"48鄰","STREET":"永華路","SECT":" ","MAREA":" ","LANE":"２３３巷","ALLEY":" ","HOUSE_NO":"２６號五樓之４","E_COORD97":173990.82000000001,"N_COORD97":2545766.9500000002,"ADDRESS":"永華路２３３巷２６號五樓之４","OBJECTID":421519},"geometry":{"x":173990.82000000123,"y":2545766.9500000011}},{"attributes":{"ID":421545,"DIS_CODE":0,"TOWNNAME":"永康區","LI":"\u25A0行里","LIN":"48鄰","STREET":"新民街","SECT":" ","MAREA":" ","LANE":"６６巷","ALLEY":" ","HOUSE_NO":"１號四樓之１２","E_COORD97":172365.17000000001,"N_COORD97":2548983.5,"ADDRESS":"新民街６６巷１號四樓之１２","OBJECTID":421520},"geometry":{"x":172365.16999999899,"y":2548983.5}},{"attributes":{"ID":421546,"DIS_CODE":0,"TOWNNAME":"永康區","LI":"\u25A0行里","LIN":"48鄰","STREET":"新民街","SECT":" ","MAREA":" ","LANE":"４７巷","ALLEY":" ","HOUSE_NO":"１２號九樓之７","E_COORD97":172348.09,"N_COORD97":2548913.3100000001,"ADDRESS":"新民街４７巷１２號九樓之７","OBJECTID":421521},"geometry":{"x":172348.08999999985,"y":2548913.3100000024}},{"attributes":{"ID":421547,"DIS_CODE":0,"TOWNNAME":"永康區","LI":"\u25A0行里","LIN":"48鄰","STREET":"新民街","SECT":" ","MAREA":" ","LANE":"４７巷","ALLEY":" ","HOUSE_NO":"１２號七樓之３","E_COORD97":172348.07999999999,"N_COORD97":2548913.3100000001,"ADDRESS":"新民街４７巷１２號七樓之３","OBJECTID":421522},"geometry":{"x":172348.08000000101,"y":2548913.3100000024}},{"attributes":{"ID":421548,"DIS_CODE":0,"TOWNNAME":"永康區","LI":"西灣里","LIN":"48鄰","STREET":"永華路","SECT":" ","MAREA":" ","LANE":"２３３巷","ALLEY":" ","HOUSE_NO":"２６號八樓之２","E_COORD97":173990.92000000001,"N_COORD97":2545766.9500000002,"ADDRESS":"永華路２３３巷２６號八樓之２","OBJECTID":421523},"geometry":{"x":173990.92000000179,"y":2545766.9500000011}},{"attributes":{"ID":421549,"DIS_CODE":0,"TOWNNAME":"永康區","LI":"\u25A0行里","LIN":"48鄰","STREET":"新民街","SECT":" ","MAREA":" ","LANE":"４７巷","ALLEY":" ","HOUSE_NO":"１２號五樓之１３","E_COORD97":172349.37,"N_COORD97":2548913.3100000001,"ADDRESS":"新民街４７巷１２號五樓之１３","OBJECTID":421524},"geometry":{"x":172349.37000000104,"y":2548913.3100000024}},{"attributes":{"ID":421550,"DIS_CODE":0,"TOWNNAME":"永康區","LI":"\u25A0行里","LIN":"48鄰","STREET":"新民街","SECT":" ","MAREA":" ","LANE":"４７巷","ALLEY":" ","HOUSE_NO":"１２號八樓之１３","E_COORD97":172349.37,"N_COORD97":2548913.3100000001,"ADDRESS":"新民街４７巷１２號八樓之１３","OBJECTID":421525},"geometry":{"x":172349.37000000104,"y":2548913.3100000024}},{"attributes":{"ID":421551,"DIS_CODE":0,"TOWNNAME":"永康區","LI":"\u25A0行里","LIN":"48鄰","STREET":"新民街","SECT":" ","MAREA":" ","LANE":"４７巷","ALLEY":" ","HOUSE_NO":"１２號五樓之９","E_COORD97":172348.13,"N_COORD97":2548913.3100000001,"ADDRESS":"新民街４７巷１２號五樓之９","OBJECTID":421526},"geometry":{"x":172348.12999999989,"y":2548913.3100000024}},{"attributes":{"ID":421552,"DIS_CODE":0,"TOWNNAME":"永康區","LI":"\u25A0行里","LIN":"48鄰","STREET":"新民街","SECT":" ","MAREA":" ","LANE":"６６巷","ALLEY":" ","HOUSE_NO":"１號九樓之６","E_COORD97":172364.07000000001,"N_COORD97":2548983.5,"ADDRESS":"新民街６６巷１號九樓之６","OBJECTID":421527},"geometry":{"x":172364.0700000003,"y":2548983.5}},{"attributes":{"ID":421553,"DIS_CODE":0,"TOWNNAME":"永康區","LI":"\u25A0行里","LIN":"48鄰","STREET":"新民街","SECT":" ","MAREA":" ","LANE":"６６巷","ALLEY":" ","HOUSE_NO":"１號四樓之７","E_COORD97":172364.01999999999,"N_COORD97":2548983.5,"ADDRESS":"新民街６６巷１號四樓之７","OBJECTID":421528},"geometry":{"x":172364.01999999955,"y":2548983.5}},{"attributes":{"ID":421554,"DIS_CODE":0,"TOWNNAME":"永康區","LI":"\u25A0行里","LIN":"48鄰","STREET":"新民街","SECT":" ","MAREA":" ","LANE":"６６巷","ALLEY":" ","HOUSE_NO":"１號五樓之１０","E_COORD97":172364,"N_COORD97":2548983.5,"ADDRESS":"新民街６６巷１號五樓之１０","OBJECTID":421529},"geometry":{"x":172364,"y":2548983.5}},{"attributes":{"ID":421555,"DIS_CODE":0,"TOWNNAME":"永康區","LI":"\u25A0行里","LIN":"48鄰","STREET":"新民街","SECT":" ","MAREA":" ","LANE":"６６巷","ALLEY":" ","HOUSE_NO":"１號九樓之１２","E_COORD97":172365.17000000001,"N_COORD97":2548983.5,"ADDRESS":"新民街６６巷１號九樓之１２","OBJECTID":421530},"geometry":{"x":172365.16999999899,"y":2548983.5}},{"attributes":{"ID":421556,"DIS_CODE":0,"TOWNNAME":"永康區","LI":"\u25A0行里","LIN":"48鄰","STREET":"新民街","SECT":" ","MAREA":" ","LANE":"４７巷","ALLEY":" ","HOUSE_NO":"１２號七樓之１２","E_COORD97":172349.23000000001,"N_COORD97":2548913.3100000001,"ADDRESS":"新民街４７巷１２號七樓之１２","OBJECTID":421531},"geometry":{"x":172349.23000000138,"y":2548913.3100000024}},{"attributes":{"ID":421557,"DIS_CODE":0,"TOWNNAME":"永康區","LI":"\u25A0行里","LIN":"48鄰","STREET":"新民街","SECT":" ","MAREA":" ","LANE":"６６巷","ALLEY":" ","HOUSE_NO":"１號六樓之１","E_COORD97":172363.92000000001,"N_COORD97":2548983.5,"ADDRESS":"新民街６６巷１號六樓之１","OBJECTID":421532},"geometry":{"x":172363.92000000086,"y":2548983.5}},{"attributes":{"ID":421558,"DIS_CODE":0,"TOWNNAME":"永康區","LI":"\u25A0行里","LIN":"48鄰","STREET":"新民街","SECT":" ","MAREA":" ","LANE":"６６巷","ALLEY":" ","HOUSE_NO":"６號四樓之２","E_COORD97":172389.79000000001,"N_COORD97":2548982.6400000001,"ADDRESS":"新民街６６巷６號四樓之２","OBJECTID":421533},"geometry":{"x":172389.79000000004,"y":2548982.6400000006}},{"attributes":{"ID":421559,"DIS_CODE":0,"TOWNNAME":"永康區","LI":"\u25A0行里","LIN":"48鄰","STREET":"新民街","SECT":" ","MAREA":" ","LANE":"４７巷","ALLEY":" ","HOUSE_NO":"１２號七樓之９","E_COORD97":172348.13,"N_COORD97":2548913.3100000001,"ADDRESS":"新民街４７巷１２號七樓之９","OBJECTID":421534},"geometry":{"x":172348.12999999989,"y":2548913.3100000024}},{"attributes":{"ID":421560,"DIS_CODE":0,"TOWNNAME":"永康區","LI":"\u25A0行里","LIN":"48鄰","STREET":"新民街","SECT":" ","MAREA":" ","LANE":"４７巷","ALLEY":" ","HOUSE_NO":"１號五樓之１","E_COORD97":172374.16,"N_COORD97":2548932.2999999998,"ADDRESS":"新民街４７巷１號五樓之１","OBJECTID":421535},"geometry":{"x":172374.16000000201,"y":2548932.3000000045}},{"attributes":{"ID":421561,"DIS_CODE":0,"TOWNNAME":"永康區","LI":"\u25A0行里","LIN":"48鄰","STREET":"新民街","SECT":" ","MAREA":" ","LANE":"６６巷","ALLEY":" ","HOUSE_NO":"１號八樓之６","E_COORD97":172364.07000000001,"N_COORD97":2548983.5,"ADDRESS":"新民街６６巷１號八樓之６","OBJECTID":421536},"geometry":{"x":172364.0700000003,"y":2548983.5}},{"attributes":{"ID":421562,"DIS_CODE":0,"TOWNNAME":"永康區","LI":"\u25A0行里","LIN":"48鄰","STREET":"新民街","SECT":" ","MAREA":" ","LANE":"６６巷","ALLEY":" ","HOUSE_NO":"２號五樓之３","E_COORD97":172380.29999999999,"N_COORD97":2548980.0800000001,"ADDRESS":"新民街６６巷２號五樓之３","OBJECTID":421537},"geometry":{"x":172380.30000000075,"y":2548980.0800000001}},{"attributes":{"ID":421563,"DIS_CODE":0,"TOWNNAME":"永康區","LI":"\u25A0行里","LIN":"48鄰","STREET":"新民街","SECT":" ","MAREA":" ","LANE":"６６巷","ALLEY":" ","HOUSE_NO":"１號七樓之７","E_COORD97":172364.01999999999,"N_COORD97":2548983.5,"ADDRESS":"新民街６６巷１號七樓之７","OBJECTID":421538},"geometry":{"x":172364.01999999955,"y":2548983.5}},{"attributes":{"ID":421564,"DIS_CODE":0,"TOWNNAME":"永康區","LI":"\u25A0行里","LIN":"48鄰","STREET":"新民街","SECT":" ","MAREA":" ","LANE":"６６巷","ALLEY":" ","HOUSE_NO":"１號六樓之２","E_COORD97":172364.04999999999,"N_COORD97":2548983.5,"ADDRESS":"新民街６６巷１號六樓之２","OBJECTID":421539},"geometry":{"x":172364.04999999981,"y":2548983.5}},{"attributes":{"ID":421565,"DIS_CODE":0,"TOWNNAME":"永康區","LI":"崑山里","LIN":"48鄰","STREET":"永華路","SECT":" ","MAREA":" ","LANE":"３２巷","ALLEY":" ","HOUSE_NO":"１號","E_COORD97":174092.32999999999,"N_COORD97":2545222.6400000001,"ADDRESS":"永華路３２巷１號","OBJECTID":421540},"geometry":{"x":174092.33000000101,"y":2545222.6400000006}},{"attributes":{"ID":421566,"DIS_CODE":0,"TOWNNAME":"永康區","LI":"\u25A0行里","LIN":"48鄰","STREET":"新民街","SECT":" ","MAREA":" ","LANE":"６６巷","ALLEY":" ","HOUSE_NO":"１號七樓之５","E_COORD97":172363.94,"N_COORD97":2548983.5,"ADDRESS":"新民街６６巷１號七樓之５","OBJECTID":421541},"geometry":{"x":172363.94000000227,"y":2548983.5}},{"attributes":{"ID":421567,"DIS_CODE":0,"TOWNNAME":"永康區","LI":"\u25A0行里","LIN":"48鄰","STREET":"新民街","SECT":" ","MAREA":" ","LANE":"４７巷","ALLEY":" ","HOUSE_NO":"１２號五樓之８","E_COORD97":172348.06,"N_COORD97":2548913.3100000001,"ADDRESS":"新民街４７巷１２號五樓之８","OBJECTID":421542},"geometry":{"x":172348.05999999959,"y":2548913.3100000024}},{"attributes":{"ID":421568,"DIS_CODE":0,"TOWNNAME":"永康區","LI":"\u25A0行里","LIN":"48鄰","STREET":"新民街","SECT":" ","MAREA":" ","LANE":"６６巷","ALLEY":" ","HOUSE_NO":"６號九樓之２","E_COORD97":172389.79000000001,"N_COORD97":2548982.6400000001,"ADDRESS":"新民街６６巷６號九樓之２","OBJECTID":421543},"geometry":{"x":172389.79000000004,"y":2548982.6400000006}},{"attributes":{"ID":421569,"DIS_CODE":0,"TOWNNAME":"永康區","LI":"\u25A0行里","LIN":"48鄰","STREET":"新民街","SECT":" ","MAREA":" ","LANE":"６６巷","ALLEY":" ","HOUSE_NO":"６號三樓","E_COORD97":172387.51999999999,"N_COORD97":2548982.6099999999,"ADDRESS":"新民街６６巷６號三樓","OBJECTID":421544},"geometry":{"x":172387.51999999955,"y":2548982.6099999994}},{"attributes":{"ID":421570,"DIS_CODE":0,"TOWNNAME":"永康區","LI":"\u25A0行里","LIN":"48鄰","STREET":"新民街","SECT":" ","MAREA":" ","LANE":"６６巷","ALLEY":" ","HOUSE_NO":"６號二樓","E_COORD97":172387.51999999999,"N_COORD97":2548982.6099999999,"ADDRESS":"新民街６６巷６號二樓","OBJECTID":421545},"geometry":{"x":172387.51999999955,"y":2548982.6099999994}},{"attributes":{"ID":421571,"DIS_CODE":0,"TOWNNAME":"永康區","LI":"\u25A0行里","LIN":"48鄰","STREET":"新民街","SECT":" ","MAREA":" ","LANE":"４７巷","ALLEY":" ","HOUSE_NO":"１２號六樓之３","E_COORD97":172348.07999999999,"N_COORD97":2548913.3100000001,"ADDRESS":"新民街４７巷１２號六樓之３","OBJECTID":421546},"geometry":{"x":172348.08000000101,"y":2548913.3100000024}},{"attributes":{"ID":421572,"DIS_CODE":0,"TOWNNAME":"永康區","LI":"\u25A0行里","LIN":"48鄰","STREET":"新民街","SECT":" ","MAREA":" ","LANE":"６６巷","ALLEY":" ","HOUSE_NO":"１號五樓之１","E_COORD97":172363.92000000001,"N_COORD97":2548983.5,"ADDRESS":"新民街６６巷１號五樓之１","OBJECTID":421547},"geometry":{"x":172363.92000000086,"y":2548983.5}},{"attributes":{"ID":421573,"DIS_CODE":0,"TOWNNAME":"永康區","LI":"\u25A0行里","LIN":"48鄰","STREET":"新民街","SECT":" ","MAREA":" ","LANE":"６６巷","ALLEY":" ","HOUSE_NO":"２號六樓之１","E_COORD97":172380.20000000001,"N_COORD97":2548980.0800000001,"ADDRESS":"新民街６６巷２號六樓之１","OBJECTID":421548},"geometry":{"x":172380.20000000019,"y":2548980.0800000001}},{"attributes":{"ID":421574,"DIS_CODE":0,"TOWNNAME":"永康區","LI":"\u25A0行里","LIN":"48鄰","STREET":"新民街","SECT":" ","MAREA":" ","LANE":"６６巷","ALLEY":" ","HOUSE_NO":"２號七樓之１","E_COORD97":172380.20000000001,"N_COORD97":2548980.0800000001,"ADDRESS":"新民街６６巷２號七樓之１","OBJECTID":421549},"geometry":{"x":172380.20000000019,"y":2548980.0800000001}},{"attributes":{"ID":421575,"DIS_CODE":0,"TOWNNAME":"永康區","LI":"\u25A0行里","LIN":"48鄰","STREET":"新民街","SECT":" ","MAREA":" ","LANE":"６６巷","ALLEY":" ","HOUSE_NO":"１號六樓之３","E_COORD97":172364.01999999999,"N_COORD97":2548983.5,"ADDRESS":"新民街６６巷１號六樓之３","OBJECTID":421550},"geometry":{"x":172364.01999999955,"y":2548983.5}},{"attributes":{"ID":421576,"DIS_CODE":0,"TOWNNAME":"永康區","LI":"\u25A0行里","LIN":"48鄰","STREET":"新民街","SECT":" ","MAREA":" ","LANE":"４７巷","ALLEY":" ","HOUSE_NO":"１號五樓之２","E_COORD97":172374.29999999999,"N_COORD97":2548932.2999999998,"ADDRESS":"新民街４７巷１號五樓之２","OBJECTID":421551},"geometry":{"x":172374.29999999981,"y":2548932.3000000045}},{"attributes":{"ID":421577,"DIS_CODE":0,"TOWNNAME":"永康區","LI":"\u25A0行里","LIN":"48鄰","STREET":"新民街","SECT":" ","MAREA":" ","LANE":"６６巷","ALLEY":" ","HOUSE_NO":"１號八樓之８","E_COORD97":172364,"N_COORD97":2548983.5,"ADDRESS":"新民街６６巷１號八樓之８","OBJECTID":421552},"geometry":{"x":172364,"y":2548983.5}},{"attributes":{"ID":421578,"DIS_CODE":0,"TOWNNAME":"永康區","LI":"崑山里","LIN":"48鄰","STREET":"國光六街","SECT":" ","MAREA":" ","LANE":"３７巷","ALLEY":" ","HOUSE_NO":"１８號","E_COORD97":174199.81,"N_COORD97":2545221.9300000002,"ADDRESS":"國光六街３７巷１８號","OBJECTID":421553},"geometry":{"x":174199.81000000145,"y":2545221.9300000016}},{"attributes":{"ID":421579,"DIS_CODE":0,"TOWNNAME":"永康區","LI":"崑山里","LIN":"48鄰","STREET":"永華路","SECT":" ","MAREA":" ","LANE":"３２巷","ALLEY":" ","HOUSE_NO":"１１號","E_COORD97":174115.45000000001,"N_COORD97":2545217.3300000001,"ADDRESS":"永華路３２巷１１號","OBJECTID":421554},"geometry":{"x":174115.45000000112,"y":2545217.3300000001}},{"attributes":{"ID":421580,"DIS_CODE":0,"TOWNNAME":"永康區","LI":"崑山里","LIN":"48鄰","STREET":"永華路","SECT":" ","MAREA":" ","LANE":"３２巷","ALLEY":" ","HOUSE_NO":"１３號","E_COORD97":174119.75,"N_COORD97":2545215.5800000001,"ADDRESS":"永華路３２巷１３號","OBJECTID":421555},"geometry":{"x":174119.75000000093,"y":2545215.5800000001}},{"attributes":{"ID":421581,"DIS_CODE":0,"TOWNNAME":"永康區","LI":"崑山里","LIN":"48鄰","STREET":"永華路","SECT":" ","MAREA":" ","LANE":"５２巷","ALLEY":" ","HOUSE_NO":"３８號","E_COORD97":174185.38,"N_COORD97":2545229.3999999999,"ADDRESS":"永華路５２巷３８號","OBJECTID":421556},"geometry":{"x":174185.37999999989,"y":2545229.4000000022}},{"attributes":{"ID":421582,"DIS_CODE":0,"TOWNNAME":"新市區","LI":"新和里","LIN":"48鄰","STREET":"和平街","SECT":" ","MAREA":" ","LANE":"６２巷","ALLEY":" ","HOUSE_NO":"１號","E_COORD97":177609.42999999999,"N_COORD97":2553455.75,"ADDRESS":"和平街６２巷１號","OBJECTID":421557},"geometry":{"x":177609.4299999997,"y":2553455.7500000019}},{"attributes":{"ID":421583,"DIS_CODE":0,"TOWNNAME":"新市區","LI":"新和里","LIN":"48鄰","STREET":"和平街","SECT":" ","MAREA":" ","LANE":"１３８巷","ALLEY":" ","HOUSE_NO":"７號","E_COORD97":177488.01000000001,"N_COORD97":2553373.25,"ADDRESS":"和平街１３８巷７號","OBJECTID":421558},"geometry":{"x":177488.01000000071,"y":2553373.2500000037}},{"attributes":{"ID":421584,"DIS_CODE":0,"TOWNNAME":"新市區","LI":"新和里","LIN":"48鄰","STREET":"和平街","SECT":" ","MAREA":" ","LANE":"１５４巷","ALLEY":" ","HOUSE_NO":"９號","E_COORD97":177449.48000000001,"N_COORD97":2553358,"ADDRESS":"和平街１５４巷９號","OBJECTID":421559},"geometry":{"x":177449.48000000138,"y":2553358.0000000037}},{"attributes":{"ID":421585,"DIS_CODE":0,"TOWNNAME":"新市區","LI":"新和里","LIN":"48鄰","STREET":"和平街","SECT":" ","MAREA":" ","LANE":"１５４巷","ALLEY":" ","HOUSE_NO":"１５號","E_COORD97":177442.62,"N_COORD97":2553374,"ADDRESS":"和平街１５４巷１５號","OBJECTID":421560},"geometry":{"x":177442.62000000011,"y":2553374}},{"attributes":{"ID":421586,"DIS_CODE":0,"TOWNNAME":"新市區","LI":"新和里","LIN":"48鄰","STREET":"和平街","SECT":" ","MAREA":" ","LANE":"１５４巷","ALLEY":" ","HOUSE_NO":"２１號","E_COORD97":177435.07000000001,"N_COORD97":2553389.25,"ADDRESS":"和平街１５４巷２１號","OBJECTID":421561},"geometry":{"x":177435.07000000216,"y":2553389.25}},{"attributes":{"ID":421587,"DIS_CODE":0,"TOWNNAME":"歸仁區","LI":"南保里","LIN":"48鄰","STREET":"大順街","SECT":" ","MAREA":" ","LANE":"１８１巷","ALLEY":" ","HOUSE_NO":"３號","E_COORD97":176929.67000000001,"N_COORD97":2540574.25,"ADDRESS":"大順街１８１巷３號","OBJECTID":421562},"geometry":{"x":176929.66999999993,"y":2540574.25}},{"attributes":{"ID":421588,"DIS_CODE":0,"TOWNNAME":"歸仁區","LI":"南保里","LIN":"48鄰","STREET":"大順街","SECT":" ","MAREA":" ","LANE":"１８１巷","ALLEY":" ","HOUSE_NO":"５號","E_COORD97":176929.67000000001,"N_COORD97":2540569.25,"ADDRESS":"大順街１８１巷５號","OBJECTID":421563},"geometry":{"x":176929.66999999993,"y":2540569.2500000019}},{"attributes":{"ID":421589,"DIS_CODE":0,"TOWNNAME":"歸仁區","LI":"南保里","LIN":"48鄰","STREET":"大順街","SECT":" ","MAREA":" ","LANE":"１８１巷","ALLEY":" ","HOUSE_NO":"２號","E_COORD97":176916.47,"N_COORD97":2540593.25,"ADDRESS":"大順街１８１巷２號","OBJECTID":421564},"geometry":{"x":176916.47000000067,"y":2540593.25}},{"attributes":{"ID":421590,"DIS_CODE":0,"TOWNNAME":"歸仁區","LI":"南保里","LIN":"48鄰","STREET":"大順街","SECT":" ","MAREA":" ","LANE":"１８１巷","ALLEY":" ","HOUSE_NO":"１號","E_COORD97":176929.67000000001,"N_COORD97":2540578.25,"ADDRESS":"大順街１８１巷１號","OBJECTID":421565},"geometry":{"x":176929.66999999993,"y":2540578.2500000019}},{"attributes":{"ID":421591,"DIS_CODE":0,"TOWNNAME":"歸仁區","LI":"南保里","LIN":"48鄰","STREET":"大順街","SECT":" ","MAREA":" ","LANE":"１８１巷","ALLEY":" ","HOUSE_NO":"１０號","E_COORD97":176917.62,"N_COORD97":2540576.25,"ADDRESS":"大順街１８１巷１０號","OBJECTID":421566},"geometry":{"x":176917.62000000104,"y":2540576.25}},{"attributes":{"ID":421592,"DIS_CODE":0,"TOWNNAME":"歸仁區","LI":"南保里","LIN":"48鄰","STREET":"大順街","SECT":" ","MAREA":" ","LANE":"１８１巷","ALLEY":" ","HOUSE_NO":"６號","E_COORD97":176917.37,"N_COORD97":2540584.2400000002,"ADDRESS":"大順街１８１巷６號","OBJECTID":421567},"geometry":{"x":176917.37000000197,"y":2540584.2400000002}},{"attributes":{"ID":421593,"DIS_CODE":0,"TOWNNAME":"歸仁區","LI":"辜厝里","LIN":"48鄰","STREET":"民權九街","SECT":" ","MAREA":" ","LANE":"５６巷","ALLEY":" ","HOUSE_NO":"８號","E_COORD97":177072.51999999999,"N_COORD97":2540314.0299999998,"ADDRESS":"民權九街５６巷８號","OBJECTID":421568},"geometry":{"x":177072.52000000048,"y":2540314.0299999975}},{"attributes":{"ID":421594,"DIS_CODE":0,"TOWNNAME":"歸仁區","LI":"後市里","LIN":"48鄰","STREET":"文化街","SECT":"二段","MAREA":" ","LANE":"１３９巷","ALLEY":" ","HOUSE_NO":"２號","E_COORD97":177145.04000000001,"N_COORD97":2541153.7599999998,"ADDRESS":"文化街二段１３９巷２號","OBJECTID":421569},"geometry":{"x":177145.0400000019,"y":2541153.7599999979}},{"attributes":{"ID":421595,"DIS_CODE":0,"TOWNNAME":"歸仁區","LI":"辜厝里","LIN":"48鄰","STREET":"民權九街","SECT":" ","MAREA":" ","LANE":"５６巷","ALLEY":" ","HOUSE_NO":"１０號","E_COORD97":177072.76999999999,"N_COORD97":2540311.0299999998,"ADDRESS":"民權九街５６巷１０號","OBJECTID":421570},"geometry":{"x":177072.76999999955,"y":2540311.0300000031}},{"attributes":{"ID":421596,"DIS_CODE":0,"TOWNNAME":"歸仁區","LI":"辜厝里","LIN":"48鄰","STREET":"民權九街","SECT":" ","MAREA":" ","LANE":"５６巷","ALLEY":" ","HOUSE_NO":"２號","E_COORD97":177073.62,"N_COORD97":2540323.0299999998,"ADDRESS":"民權九街５６巷２號","OBJECTID":421571},"geometry":{"x":177073.62000000104,"y":2540323.0299999993}},{"attributes":{"ID":421597,"DIS_CODE":0,"TOWNNAME":"歸仁區","LI":"辜厝里","LIN":"48鄰","STREET":"民權九街","SECT":" ","MAREA":" ","LANE":"５６巷","ALLEY":" ","HOUSE_NO":"６號","E_COORD97":177072.51999999999,"N_COORD97":2540319.0299999998,"ADDRESS":"民權九街５６巷６號","OBJECTID":421572},"geometry":{"x":177072.52000000048,"y":2540319.0300000012}},{"attributes":{"ID":421598,"DIS_CODE":0,"TOWNNAME":"歸仁區","LI":"辜厝里","LIN":"48鄰","STREET":"民權九街","SECT":" ","MAREA":" ","LANE":"５６巷","ALLEY":" ","HOUSE_NO":"１６號","E_COORD97":177071.67000000001,"N_COORD97":2540298.0299999998,"ADDRESS":"民權九街５６巷１６號","OBJECTID":421573},"geometry":{"x":177071.67000000086,"y":2540298.0300000012}},{"attributes":{"ID":421599,"DIS_CODE":0,"TOWNNAME":"永康區","LI":"尚頂里","LIN":"19鄰","STREET":"南台街","SECT":" ","MAREA":" ","LANE":"３巷","ALLEY":" ","HOUSE_NO":"３０號","E_COORD97":170503.88,"N_COORD97":2546825.5,"ADDRESS":"南台街３巷３０號","OBJECTID":421574},"geometry":{"x":170503.87999999989,"y":2546825.5000000019}},{"attributes":{"ID":421600,"DIS_CODE":0,"TOWNNAME":"歸仁區","LI":"辜厝里","LIN":"48鄰","STREET":"民權九街","SECT":" ","MAREA":" ","LANE":"５６巷","ALLEY":" ","HOUSE_NO":"１４號","E_COORD97":177071.67000000001,"N_COORD97":2540301.0299999998,"ADDRESS":"民權九街５６巷１４號","OBJECTID":421575},"geometry":{"x":177071.67000000086,"y":2540301.0300000012}},{"attributes":{"ID":421601,"DIS_CODE":0,"TOWNNAME":"歸仁區","LI":"辜厝里","LIN":"48鄰","STREET":"民權九街","SECT":" ","MAREA":" ","LANE":"５６巷","ALLEY":" ","HOUSE_NO":"１８號","E_COORD97":177071.67000000001,"N_COORD97":2540293.0299999998,"ADDRESS":"民權九街５６巷１８號","OBJECTID":421576},"geometry":{"x":177071.67000000086,"y":2540293.0299999993}},{"attributes":{"ID":421602,"DIS_CODE":0,"TOWNNAME":"鹽水區","LI":"岸內里","LIN":"24鄰","STREET":"北門路","SECT":" ","MAREA":" ","LANE":"９巷","ALLEY":" ","HOUSE_NO":"６３號","E_COORD97":175416.51000000001,"N_COORD97":2580477.3100000001,"ADDRESS":"北門路９巷６３號","OBJECTID":421577},"geometry":{"x":175416.51000000071,"y":2580477.3100000024}},{"attributes":{"ID":421603,"DIS_CODE":0,"TOWNNAME":"歸仁區","LI":"辜厝里","LIN":"48鄰","STREET":"民權九街","SECT":" ","MAREA":" ","LANE":"５６巷","ALLEY":" ","HOUSE_NO":"２２號","E_COORD97":177071.57000000001,"N_COORD97":2540285.0299999998,"ADDRESS":"民權九街５６巷２２號","OBJECTID":421578},"geometry":{"x":177071.5700000003,"y":2540285.0300000012}},{"attributes":{"ID":421604,"DIS_CODE":0,"TOWNNAME":"歸仁區","LI":"辜厝里","LIN":"48鄰","STREET":"民權九街","SECT":" ","MAREA":" ","LANE":"５６巷","ALLEY":" ","HOUSE_NO":"２０號","E_COORD97":177071.67000000001,"N_COORD97":2540290.0299999998,"ADDRESS":"民權九街５６巷２０號","OBJECTID":421579},"geometry":{"x":177071.67000000086,"y":2540290.0299999993}},{"attributes":{"ID":421605,"DIS_CODE":0,"TOWNNAME":"歸仁區","LI":"辜厝里","LIN":"48鄰","STREET":"中正十街","SECT":" ","MAREA":" ","LANE":"３６巷","ALLEY":" ","HOUSE_NO":"７號","E_COORD97":177032.87,"N_COORD97":2540257.8599999999,"ADDRESS":"中正十街３６巷７號","OBJECTID":421580},"geometry":{"x":177032.87000000104,"y":2540257.8600000031}},{"attributes":{"ID":421606,"DIS_CODE":0,"TOWNNAME":"歸仁區","LI":"辜厝里","LIN":"48鄰","STREET":"中正十街","SECT":" ","MAREA":" ","LANE":"３６巷","ALLEY":" ","HOUSE_NO":"１號","E_COORD97":177029.42999999999,"N_COORD97":2540259.8599999999,"ADDRESS":"中正十街３６巷１號","OBJECTID":421581},"geometry":{"x":177029.4299999997,"y":2540259.8599999994}},{"attributes":{"ID":421607,"DIS_CODE":0,"TOWNNAME":"永康區","LI":"\u25A0行里","LIN":"48鄰","STREET":"新行街","SECT":" ","MAREA":" ","LANE":"１２２巷","ALLEY":" ","HOUSE_NO":"３８號","E_COORD97":172450.98999999999,"N_COORD97":2549023.4500000002,"ADDRESS":"新行街１２２巷３８號","OBJECTID":421582},"geometry":{"x":172450.99000000022,"y":2549023.4499999993}},{"attributes":{"ID":421608,"DIS_CODE":0,"TOWNNAME":"永康區","LI":"\u25A0行里","LIN":"48鄰","STREET":"新行街","SECT":" ","MAREA":" ","LANE":"１２２巷","ALLEY":" ","HOUSE_NO":"３２號","E_COORD97":172442.60999999999,"N_COORD97":2549024.1499999999,"ADDRESS":"新行街１２２巷３２號","OBJECTID":421583},"geometry":{"x":172442.61000000127,"y":2549024.1500000004}},{"attributes":{"ID":421609,"DIS_CODE":0,"TOWNNAME":"永康區","LI":"\u25A0行里","LIN":"48鄰","STREET":"新民街","SECT":" ","MAREA":" ","LANE":"１６巷","ALLEY":" ","HOUSE_NO":"３號","E_COORD97":172464.95000000001,"N_COORD97":2549012.9500000002,"ADDRESS":"新民街１６巷３號","OBJECTID":421584},"geometry":{"x":172464.95000000019,"y":2549012.9499999993}},{"attributes":{"ID":421610,"DIS_CODE":0,"TOWNNAME":"永康區","LI":"\u25A0行里","LIN":"48鄰","STREET":"新行街","SECT":" ","MAREA":" ","LANE":"１２２巷","ALLEY":" ","HOUSE_NO":"３０號","E_COORD97":172438.42999999999,"N_COORD97":2549024.5099999998,"ADDRESS":"新行街１２２巷３０號","OBJECTID":421585},"geometry":{"x":172438.43000000063,"y":2549024.5099999979}},{"attributes":{"ID":421611,"DIS_CODE":0,"TOWNNAME":"永康區","LI":"\u25A0行里","LIN":"48鄰","STREET":"新行街","SECT":" ","MAREA":" ","LANE":"１２２巷","ALLEY":" ","HOUSE_NO":"３６號","E_COORD97":172446.42000000001,"N_COORD97":2549025.2400000002,"ADDRESS":"新行街１２２巷３６號","OBJECTID":421586},"geometry":{"x":172446.41999999993,"y":2549025.2400000021}},{"attributes":{"ID":421612,"DIS_CODE":0,"TOWNNAME":"永康區","LI":"\u25A0行里","LIN":"48鄰","STREET":"新民街","SECT":" ","MAREA":" ","LANE":"１６巷","ALLEY":" ","HOUSE_NO":"７號","E_COORD97":172465.89999999999,"N_COORD97":2549022.1000000001,"ADDRESS":"新民街１６巷７號","OBJECTID":421587},"geometry":{"x":172465.90000000224,"y":2549022.1000000015}},{"attributes":{"ID":421613,"DIS_CODE":0,"TOWNNAME":"永康區","LI":"崑山里","LIN":"48鄰","STREET":"永華路","SECT":" ","MAREA":" ","LANE":"５２巷","ALLEY":" ","HOUSE_NO":"２號","E_COORD97":174100.51000000001,"N_COORD97":2545249.7999999998,"ADDRESS":"永華路５２巷２號","OBJECTID":421588},"geometry":{"x":174100.51000000164,"y":2545249.8000000007}},{"attributes":{"ID":421614,"DIS_CODE":0,"TOWNNAME":"永康區","LI":"\u25A0行里","LIN":"48鄰","STREET":"新行街","SECT":" ","MAREA":" ","LANE":"１２２巷","ALLEY":" ","HOUSE_NO":"２６號","E_COORD97":172425.44,"N_COORD97":2549023.4700000002,"ADDRESS":"新行街１２２巷２６號","OBJECTID":421589},"geometry":{"x":172425.44000000134,"y":2549023.4700000025}},{"attributes":{"ID":421615,"DIS_CODE":0,"TOWNNAME":"永康區","LI":"\u25A0行里","LIN":"48鄰","STREET":"新行街","SECT":" ","MAREA":" ","LANE":"１２２巷","ALLEY":" ","HOUSE_NO":"４０號","E_COORD97":172457.01000000001,"N_COORD97":2549021.0600000001,"ADDRESS":"新行街１２２巷４０號","OBJECTID":421590},"geometry":{"x":172457.00999999978,"y":2549021.0600000005}},{"attributes":{"ID":421616,"DIS_CODE":0,"TOWNNAME":"永康區","LI":"\u25A0行里","LIN":"48鄰","STREET":"新行街","SECT":" ","MAREA":" ","LANE":"１２２巷","ALLEY":" ","HOUSE_NO":"２８號","E_COORD97":172434.23999999999,"N_COORD97":2549024.8900000001,"ADDRESS":"新行街１２２巷２８號","OBJECTID":421591},"geometry":{"x":172434.24000000022,"y":2549024.8900000006}},{"attributes":{"ID":421617,"DIS_CODE":0,"TOWNNAME":"仁德區","LI":"仁義里","LIN":"48鄰","STREET":"仁義路","SECT":" ","MAREA":" ","LANE":"９５巷","ALLEY":" ","HOUSE_NO":"３７號","E_COORD97":173623.22,"N_COORD97":2541070.0099999998,"ADDRESS":"仁義路９５巷３７號","OBJECTID":421592},"geometry":{"x":173623.22000000067,"y":2541070.0099999998}},{"attributes":{"ID":421618,"DIS_CODE":0,"TOWNNAME":"仁德區","LI":"仁義里","LIN":"48鄰","STREET":"仁義路","SECT":" ","MAREA":" ","LANE":"９５巷","ALLEY":" ","HOUSE_NO":"２７號","E_COORD97":173621.85999999999,"N_COORD97":2541049.52,"ADDRESS":"仁義路９５巷２７號","OBJECTID":421593},"geometry":{"x":173621.86000000034,"y":2541049.5199999996}},{"attributes":{"ID":421619,"DIS_CODE":0,"TOWNNAME":"仁德區","LI":"仁義里","LIN":"48鄰","STREET":"仁義路","SECT":" ","MAREA":" ","LANE":"９５巷","ALLEY":" ","HOUSE_NO":"１９號","E_COORD97":173620.64000000001,"N_COORD97":2541032.77,"ADDRESS":"仁義路９５巷１９號","OBJECTID":421594},"geometry":{"x":173620.63999999966,"y":2541032.7700000014}},{"attributes":{"ID":421620,"DIS_CODE":0,"TOWNNAME":"永康區","LI":"崑山里","LIN":"48鄰","STREET":"永華路","SECT":" ","MAREA":" ","LANE":"５２巷","ALLEY":" ","HOUSE_NO":"３７號","E_COORD97":174189.07000000001,"N_COORD97":2545245.48,"ADDRESS":"永華路５２巷３７號","OBJECTID":421595},"geometry":{"x":174189.07000000123,"y":2545245.4800000042}},{"attributes":{"ID":421621,"DIS_CODE":0,"TOWNNAME":"永康區","LI":"崑山里","LIN":"48鄰","STREET":"永華路","SECT":" ","MAREA":" ","LANE":"３２巷","ALLEY":" ","HOUSE_NO":"７號","E_COORD97":174104.39999999999,"N_COORD97":2545218.1400000001,"ADDRESS":"永華路３２巷７號","OBJECTID":421596},"geometry":{"x":174104.40000000037,"y":2545218.1400000025}},{"attributes":{"ID":421622,"DIS_CODE":0,"TOWNNAME":"永康區","LI":"正強里","LIN":"48鄰","STREET":"中正路","SECT":" ","MAREA":" ","LANE":"２５６巷","ALLEY":" ","HOUSE_NO":"１３號之５９","E_COORD97":173256.01000000001,"N_COORD97":2548001.6699999999,"ADDRESS":"中正路２５６巷１３號之５９","OBJECTID":421597},"geometry":{"x":173256.00999999978,"y":2548001.6699999999}},{"attributes":{"ID":421623,"DIS_CODE":0,"TOWNNAME":"永康區","LI":"崑山里","LIN":"48鄰","STREET":"國光六街","SECT":" ","MAREA":" ","LANE":"３７巷","ALLEY":" ","HOUSE_NO":"１４號","E_COORD97":174209.13,"N_COORD97":2545239.9900000002,"ADDRESS":"國光六街３７巷１４號","OBJECTID":421598},"geometry":{"x":174209.12999999989,"y":2545239.9900000021}},{"attributes":{"ID":421624,"DIS_CODE":0,"TOWNNAME":"新營區","LI":"土庫里","LIN":"1鄰","STREET":" ","SECT":" ","MAREA":"土庫","LANE":" ","ALLEY":" ","HOUSE_NO":"１號之６","E_COORD97":183000.14572100001,"N_COORD97":2579938.09027,"ADDRESS":"土庫１號之６","OBJECTID":421599},"geometry":{"x":183000.14572099969,"y":2579938.0902710017}},{"attributes":{"ID":421625,"DIS_CODE":0,"TOWNNAME":"永康區","LI":"正強里","LIN":"48鄰","STREET":"中正路","SECT":" ","MAREA":" ","LANE":"２５６巷","ALLEY":" ","HOUSE_NO":"１３號之４","E_COORD97":173254.70000000001,"N_COORD97":2548001.6699999999,"ADDRESS":"中正路２５６巷１３號之４","OBJECTID":421600},"geometry":{"x":173254.70000000019,"y":2548001.6699999999}}]}