{"displayFieldName":"TOWNNAME","fieldAliases":{"ID":"ID","DIS_CODE":"DIS_CODE","TOWNNAME":"TOWNNAME","LI":"LI","LIN":"LIN","STREET":"STREET","SECT":"SECT","MAREA":"MAREA","LANE":"LANE","ALLEY":"ALLEY","HOUSE_NO":"HOUSE_NO","E_COORD97":"E_COORD97","N_COORD97":"N_COORD97","ADDRESS":"ADDRESS","OBJECTID":"OBJECTID"},"geometryType":"esriGeometryPoint","spatialReference":{"wkid":102443,"latestWkid":3826},"fields":[{"name":"ID","type":"esriFieldTypeDouble","alias":"ID"},{"name":"DIS_CODE","type":"esriFieldTypeInteger","alias":"DIS_CODE"},{"name":"TOWNNAME","type":"esriFieldTypeString","alias":"TOWNNAME","length":8},{"name":"LI","type":"esriFieldTypeString","alias":"LI","length":8},{"name":"LIN","type":"esriFieldTypeString","alias":"LIN","length":12},{"name":"STREET","type":"esriFieldTypeString","alias":"STREET","length":20},{"name":"SECT","type":"esriFieldTypeString","alias":"SECT","length":8},{"name":"MAREA","type":"esriFieldTypeString","alias":"MAREA","length":12},{"name":"LANE","type":"esriFieldTypeString","alias":"LANE","length":10},{"name":"ALLEY","type":"esriFieldTypeString","alias":"ALLEY","length":10},{"name":"HOUSE_NO","type":"esriFieldTypeString","alias":"HOUSE_NO","length":20},{"name":"E_COORD97","type":"esriFieldTypeDouble","alias":"E_COORD97"},{"name":"N_COORD97","type":"esriFieldTypeDouble","alias":"N_COORD97"},{"name":"ADDRESS","type":"esriFieldTypeString","alias":"ADDRESS","length":50},{"name":"OBJECTID","type":"esriFieldTypeOID","alias":"OBJECTID"}],"features":[{"attributes":{"ID":175602,"DIS_CODE":0,"TOWNNAME":"南區","LI":"喜北里","LIN":"14鄰","STREET":"喜樹路","SECT":" ","MAREA":" ","LANE":"２２２巷","ALLEY":"８弄","HOUSE_NO":"１０號","E_COORD97":165603.82999999999,"N_COORD97":2538102.3500000001,"ADDRESS":"喜樹路２２２巷８弄１０號","OBJECTID":175601},"geometry":{"x":165603.82999999914,"y":2538102.3500000015}},{"attributes":{"ID":175603,"DIS_CODE":0,"TOWNNAME":"南區","LI":"喜北里","LIN":"14鄰","STREET":"喜樹路","SECT":" ","MAREA":" ","LANE":"２２２巷","ALLEY":"８弄","HOUSE_NO":"１１號","E_COORD97":165619.44,"N_COORD97":2538111.46,"ADDRESS":"喜樹路２２２巷８弄１１號","OBJECTID":175602},"geometry":{"x":165619.44000000134,"y":2538111.4600000009}},{"attributes":{"ID":175604,"DIS_CODE":0,"TOWNNAME":"佳里區","LI":"安西里","LIN":"15鄰","STREET":"和平街","SECT":" ","MAREA":" ","LANE":" ","ALLEY":" ","HOUSE_NO":"２９０號","E_COORD97":165226.57999999999,"N_COORD97":2562485.3500000001,"ADDRESS":"和平街２９０號","OBJECTID":175603},"geometry":{"x":165226.58000000101,"y":2562485.3500000034}},{"attributes":{"ID":175605,"DIS_CODE":0,"TOWNNAME":"南區","LI":"喜北里","LIN":"14鄰","STREET":"喜樹路","SECT":" ","MAREA":" ","LANE":"２２２巷","ALLEY":"８弄","HOUSE_NO":"１２號","E_COORD97":165603.04000000001,"N_COORD97":2538108.9700000002,"ADDRESS":"喜樹路２２２巷８弄１２號","OBJECTID":175604},"geometry":{"x":165603.04000000097,"y":2538108.9700000044}},{"attributes":{"ID":175606,"DIS_CODE":0,"TOWNNAME":"南區","LI":"喜北里","LIN":"14鄰","STREET":"喜樹路","SECT":" ","MAREA":" ","LANE":"２２２巷","ALLEY":"８弄","HOUSE_NO":"１５號","E_COORD97":165577.79000000001,"N_COORD97":2538101.48,"ADDRESS":"喜樹路２２２巷８弄１５號","OBJECTID":175605},"geometry":{"x":165577.79000000097,"y":2538101.4800000004}},{"attributes":{"ID":175607,"DIS_CODE":0,"TOWNNAME":"南區","LI":"田寮里","LIN":"8鄰","STREET":"新興路","SECT":" ","MAREA":" ","LANE":"１８３巷","ALLEY":"１６弄","HOUSE_NO":"２號之１","E_COORD97":167406.79999999999,"N_COORD97":2541973.1800000002,"ADDRESS":"新興路１８３巷１６弄２號之１","OBJECTID":175606},"geometry":{"x":167406.79999999981,"y":2541973.1800000016}},{"attributes":{"ID":175608,"DIS_CODE":0,"TOWNNAME":"七股區","LI":"篤加里","LIN":"10鄰","STREET":" ","SECT":" ","MAREA":" ","LANE":" ","ALLEY":" ","HOUSE_NO":"１００號１樓","E_COORD97":160691.5,"N_COORD97":2562561.9300000002,"ADDRESS":"１００號１樓","OBJECTID":175607},"geometry":{"x":160691.5,"y":2562561.9299999997}},{"attributes":{"ID":175609,"DIS_CODE":0,"TOWNNAME":"南區","LI":"喜東里","LIN":"8鄰","STREET":"喜樹路","SECT":" ","MAREA":" ","LANE":"１５１巷","ALLEY":"５９弄","HOUSE_NO":"２２號","E_COORD97":165992.69,"N_COORD97":2538045.3500000001,"ADDRESS":"喜樹路１５１巷５９弄２２號","OBJECTID":175608},"geometry":{"x":165992.69000000041,"y":2538045.3500000015}},{"attributes":{"ID":175610,"DIS_CODE":0,"TOWNNAME":"南區","LI":"文南里","LIN":"4鄰","STREET":"金華路","SECT":"二段","MAREA":" ","LANE":"２８９巷","ALLEY":"５弄","HOUSE_NO":"３０號","E_COORD97":167060.01000000001,"N_COORD97":2542694.2000000002,"ADDRESS":"金華路二段２８９巷５弄３０號","OBJECTID":175609},"geometry":{"x":167060.00999999978,"y":2542694.2000000011}},{"attributes":{"ID":175611,"DIS_CODE":0,"TOWNNAME":"南區","LI":"光明里","LIN":"13鄰","STREET":"鹽埕路","SECT":" ","MAREA":" ","LANE":"２９１巷","ALLEY":"７８弄","HOUSE_NO":"１１號","E_COORD97":166659.23000000001,"N_COORD97":2541259.6400000001,"ADDRESS":"鹽埕路２９１巷７８弄１１號","OBJECTID":175610},"geometry":{"x":166659.23000000045,"y":2541259.6400000006}},{"attributes":{"ID":175612,"DIS_CODE":0,"TOWNNAME":"南區","LI":"光明里","LIN":"13鄰","STREET":"鹽埕路","SECT":" ","MAREA":" ","LANE":"２９１巷","ALLEY":"７８弄","HOUSE_NO":"９號","E_COORD97":166654.12,"N_COORD97":2541251.2200000002,"ADDRESS":"鹽埕路２９１巷７８弄９號","OBJECTID":175611},"geometry":{"x":166654.12000000011,"y":2541251.2200000025}},{"attributes":{"ID":175613,"DIS_CODE":0,"TOWNNAME":"南區","LI":"日新里","LIN":"12鄰","STREET":"新興路","SECT":" ","MAREA":" ","LANE":"４６１巷","ALLEY":"４弄","HOUSE_NO":"１２號","E_COORD97":166822.13,"N_COORD97":2541711.77,"ADDRESS":"新興路４６１巷４弄１２號","OBJECTID":175612},"geometry":{"x":166822.12999999896,"y":2541711.7699999996}},{"attributes":{"ID":175614,"DIS_CODE":0,"TOWNNAME":"南區","LI":"日新里","LIN":"12鄰","STREET":"新興路","SECT":" ","MAREA":" ","LANE":"４６１巷","ALLEY":"４弄","HOUSE_NO":"１４號","E_COORD97":166816.89999999999,"N_COORD97":2541711.3399999999,"ADDRESS":"新興路４６１巷４弄１４號","OBJECTID":175613},"geometry":{"x":166816.90000000037,"y":2541711.3399999999}},{"attributes":{"ID":175615,"DIS_CODE":0,"TOWNNAME":"南區","LI":"日新里","LIN":"12鄰","STREET":"新興路","SECT":" ","MAREA":" ","LANE":"４８１巷","ALLEY":"１４弄","HOUSE_NO":"１０號","E_COORD97":166795.20000000001,"N_COORD97":2541674.7999999998,"ADDRESS":"新興路４８１巷１４弄１０號","OBJECTID":175614},"geometry":{"x":166795.20000000112,"y":2541674.8000000026}},{"attributes":{"ID":175616,"DIS_CODE":0,"TOWNNAME":"南區","LI":"日新里","LIN":"12鄰","STREET":"新興路","SECT":" ","MAREA":" ","LANE":"４８１巷","ALLEY":"１４弄","HOUSE_NO":"２號","E_COORD97":166807.09,"N_COORD97":2541677.1200000001,"ADDRESS":"新興路４８１巷１４弄２號","OBJECTID":175615},"geometry":{"x":166807.08999999892,"y":2541677.120000001}},{"attributes":{"ID":175617,"DIS_CODE":0,"TOWNNAME":"南區","LI":"大忠里","LIN":"17鄰","STREET":"大同路","SECT":"二段","MAREA":" ","LANE":"６２０巷","ALLEY":"１２弄","HOUSE_NO":"１１號","E_COORD97":169465.39000000001,"N_COORD97":2541104.7599999998,"ADDRESS":"大同路二段６２０巷１２弄１１號","OBJECTID":175616},"geometry":{"x":169465.3900000006,"y":2541104.7600000016}},{"attributes":{"ID":175618,"DIS_CODE":0,"TOWNNAME":"南區","LI":"大忠里","LIN":"17鄰","STREET":"大同路","SECT":"二段","MAREA":" ","LANE":"６２０巷","ALLEY":"１２弄","HOUSE_NO":"１３號","E_COORD97":169463.51000000001,"N_COORD97":2541110.3900000001,"ADDRESS":"大同路二段６２０巷１２弄１３號","OBJECTID":175617},"geometry":{"x":169463.50999999978,"y":2541110.3900000025}},{"attributes":{"ID":175619,"DIS_CODE":0,"TOWNNAME":"南區","LI":"大忠里","LIN":"38鄰","STREET":"國民路","SECT":" ","MAREA":" ","LANE":"２７０巷","ALLEY":"７３弄","HOUSE_NO":"２８號","E_COORD97":168881.60000000001,"N_COORD97":2541434.1600000001,"ADDRESS":"國民路２７０巷７３弄２８號","OBJECTID":175618},"geometry":{"x":168881.59999999963,"y":2541434.160000002}},{"attributes":{"ID":175620,"DIS_CODE":0,"TOWNNAME":"南區","LI":"大忠里","LIN":"38鄰","STREET":"國民路","SECT":" ","MAREA":" ","LANE":"２７０巷","ALLEY":"７３弄","HOUSE_NO":"３０號","E_COORD97":168878.63,"N_COORD97":2541439.1699999999,"ADDRESS":"國民路２７０巷７３弄３０號","OBJECTID":175619},"geometry":{"x":168878.63000000175,"y":2541439.1699999999}},{"attributes":{"ID":175621,"DIS_CODE":0,"TOWNNAME":"南區","LI":"大忠里","LIN":"38鄰","STREET":"國民路","SECT":" ","MAREA":" ","LANE":"２７０巷","ALLEY":"７５弄","HOUSE_NO":"２７號","E_COORD97":168898.41,"N_COORD97":2541448.7000000002,"ADDRESS":"國民路２７０巷７５弄２７號","OBJECTID":175620},"geometry":{"x":168898.41000000015,"y":2541448.700000003}},{"attributes":{"ID":175622,"DIS_CODE":0,"TOWNNAME":"南區","LI":"大忠里","LIN":"38鄰","STREET":"國民路","SECT":" ","MAREA":" ","LANE":"２７０巷","ALLEY":"７５弄","HOUSE_NO":"２９號","E_COORD97":168894.14999999999,"N_COORD97":2541452.48,"ADDRESS":"國民路２７０巷７５弄２９號","OBJECTID":175621},"geometry":{"x":168894.15000000224,"y":2541452.4800000023}},{"attributes":{"ID":175623,"DIS_CODE":0,"TOWNNAME":"南區","LI":"光明里","LIN":"9鄰","STREET":"鹽埕路","SECT":" ","MAREA":" ","LANE":"２９１巷","ALLEY":"３２弄","HOUSE_NO":"３４號","E_COORD97":166656.57999999999,"N_COORD97":2541420.5099999998,"ADDRESS":"鹽埕路２９１巷３２弄３４號","OBJECTID":175622},"geometry":{"x":166656.57999999914,"y":2541420.5100000016}},{"attributes":{"ID":175624,"DIS_CODE":0,"TOWNNAME":"南區","LI":"光明里","LIN":"11鄰","STREET":"鹽埕路","SECT":" ","MAREA":" ","LANE":"２９１巷","ALLEY":"３２弄","HOUSE_NO":"８２號","E_COORD97":166633.92999999999,"N_COORD97":2541401.8500000001,"ADDRESS":"鹽埕路２９１巷３２弄８２號","OBJECTID":175623},"geometry":{"x":166633.93000000063,"y":2541401.8500000015}},{"attributes":{"ID":175625,"DIS_CODE":0,"TOWNNAME":"後壁區","LI":"仕安里","LIN":"10鄰","STREET":" ","SECT":" ","MAREA":"下長","LANE":" ","ALLEY":" ","HOUSE_NO":"７８號之７","E_COORD97":180458.04999999999,"N_COORD97":2583634.1200000001,"ADDRESS":"下長７８號之７","OBJECTID":175624},"geometry":{"x":180458.04999999981,"y":2583634.1199999992}},{"attributes":{"ID":175626,"DIS_CODE":0,"TOWNNAME":"南區","LI":"明亮里","LIN":"25鄰","STREET":"金華路","SECT":"一段","MAREA":" ","LANE":"４８４巷","ALLEY":"５０弄","HOUSE_NO":"５號","E_COORD97":167134.85000000001,"N_COORD97":2541420.1499999999,"ADDRESS":"金華路一段４８４巷５０弄５號","OBJECTID":175625},"geometry":{"x":167134.85000000056,"y":2541420.1500000022}},{"attributes":{"ID":175627,"DIS_CODE":0,"TOWNNAME":"安平區","LI":"平安里","LIN":"18鄰","STREET":"安平路","SECT":" ","MAREA":" ","LANE":"６０６巷","ALLEY":"１７弄","HOUSE_NO":"５號","E_COORD97":164831.82999999999,"N_COORD97":2544476.9100000001,"ADDRESS":"安平路６０６巷１７弄５號","OBJECTID":175626},"geometry":{"x":164831.83000000007,"y":2544476.910000002}},{"attributes":{"ID":175628,"DIS_CODE":0,"TOWNNAME":"安平區","LI":"平安里","LIN":"18鄰","STREET":"安平路","SECT":" ","MAREA":" ","LANE":"６０６巷","ALLEY":"１７弄","HOUSE_NO":"３號","E_COORD97":164836.57000000001,"N_COORD97":2544475.8399999999,"ADDRESS":"安平路６０６巷１７弄３號","OBJECTID":175627},"geometry":{"x":164836.57000000123,"y":2544475.839999998}},{"attributes":{"ID":175629,"DIS_CODE":0,"TOWNNAME":"安平區","LI":"平安里","LIN":"18鄰","STREET":"安平路","SECT":" ","MAREA":" ","LANE":"６０６巷","ALLEY":"１７弄","HOUSE_NO":"２１號","E_COORD97":164783.32000000001,"N_COORD97":2544490.2200000002,"ADDRESS":"安平路６０６巷１７弄２１號","OBJECTID":175628},"geometry":{"x":164783.3200000003,"y":2544490.2200000007}},{"attributes":{"ID":175630,"DIS_CODE":0,"TOWNNAME":"東區","LI":"裕聖里","LIN":"14鄰","STREET":"裕信三街","SECT":" ","MAREA":" ","LANE":" ","ALLEY":" ","HOUSE_NO":"１２６號","E_COORD97":172820.48000000001,"N_COORD97":2542375.5699999998,"ADDRESS":"裕信三街１２６號","OBJECTID":175629},"geometry":{"x":172820.48000000138,"y":2542375.5700000003}},{"attributes":{"ID":175631,"DIS_CODE":0,"TOWNNAME":"安平區","LI":"平安里","LIN":"18鄰","STREET":"安平路","SECT":" ","MAREA":" ","LANE":"６０６巷","ALLEY":"１７弄","HOUSE_NO":"２５號","E_COORD97":164770.45999999999,"N_COORD97":2544494.3500000001,"ADDRESS":"安平路６０６巷１７弄２５號","OBJECTID":175630},"geometry":{"x":164770.45999999996,"y":2544494.3500000015}},{"attributes":{"ID":175632,"DIS_CODE":0,"TOWNNAME":"東區","LI":"和平里","LIN":"20鄰","STREET":"文化路","SECT":" ","MAREA":" ","LANE":" ","ALLEY":" ","HOUSE_NO":"１７號","E_COORD97":171147.57000000001,"N_COORD97":2541938.6000000001,"ADDRESS":"文化路１７號","OBJECTID":175631},"geometry":{"x":171147.57000000216,"y":2541938.6000000015}},{"attributes":{"ID":175633,"DIS_CODE":0,"TOWNNAME":"東區","LI":"文聖里","LIN":"14鄰","STREET":"裕孝路","SECT":" ","MAREA":" ","LANE":" ","ALLEY":" ","HOUSE_NO":"１４６號","E_COORD97":172427.53,"N_COORD97":2542803.1800000002,"ADDRESS":"裕孝路１４６號","OBJECTID":175632},"geometry":{"x":172427.52999999933,"y":2542803.1800000016}},{"attributes":{"ID":175634,"DIS_CODE":0,"TOWNNAME":"安平區","LI":"平安里","LIN":"20鄰","STREET":"安平路","SECT":" ","MAREA":" ","LANE":"６０６巷","ALLEY":"５３弄","HOUSE_NO":"１０號","E_COORD97":164861.20999999999,"N_COORD97":2544580.5899999999,"ADDRESS":"安平路６０６巷５３弄１０號","OBJECTID":175633},"geometry":{"x":164861.21000000089,"y":2544580.5900000017}},{"attributes":{"ID":175635,"DIS_CODE":0,"TOWNNAME":"東區","LI":"文聖里","LIN":"14鄰","STREET":"裕孝路","SECT":" ","MAREA":" ","LANE":" ","ALLEY":" ","HOUSE_NO":"１４８號","E_COORD97":172421.47,"N_COORD97":2542803.4700000002,"ADDRESS":"裕孝路１４８號","OBJECTID":175634},"geometry":{"x":172421.47000000067,"y":2542803.4700000007}},{"attributes":{"ID":175636,"DIS_CODE":0,"TOWNNAME":"東區","LI":"文聖里","LIN":"14鄰","STREET":"裕孝路","SECT":" ","MAREA":" ","LANE":" ","ALLEY":" ","HOUSE_NO":"１５０號","E_COORD97":172415.13,"N_COORD97":2542803.7599999998,"ADDRESS":"裕孝路１５０號","OBJECTID":175635},"geometry":{"x":172415.13000000082,"y":2542803.7599999998}},{"attributes":{"ID":175637,"DIS_CODE":0,"TOWNNAME":"東區","LI":"文聖里","LIN":"14鄰","STREET":"裕孝路","SECT":" ","MAREA":" ","LANE":" ","ALLEY":" ","HOUSE_NO":"１５２號","E_COORD97":172408.78,"N_COORD97":2542803.7599999998,"ADDRESS":"裕孝路１５２號","OBJECTID":175636},"geometry":{"x":172408.78000000026,"y":2542803.7599999998}},{"attributes":{"ID":175638,"DIS_CODE":0,"TOWNNAME":"麻豆區","LI":"保安里","LIN":"8鄰","STREET":"文昌路","SECT":" ","MAREA":" ","LANE":" ","ALLEY":" ","HOUSE_NO":"１７號之５","E_COORD97":173433.98999999999,"N_COORD97":2564941.5,"ADDRESS":"文昌路１７號之５","OBJECTID":175637},"geometry":{"x":173433.99000000022,"y":2564941.5}},{"attributes":{"ID":175639,"DIS_CODE":0,"TOWNNAME":"東區","LI":"和平里","LIN":"15鄰","STREET":"文化一街","SECT":" ","MAREA":" ","LANE":" ","ALLEY":" ","HOUSE_NO":"１２１號","E_COORD97":171281.34,"N_COORD97":2541843.8900000001,"ADDRESS":"文化一街１２１號","OBJECTID":175638},"geometry":{"x":171281.34000000078,"y":2541843.8900000025}},{"attributes":{"ID":175640,"DIS_CODE":0,"TOWNNAME":"安平區","LI":"平安里","LIN":"20鄰","STREET":"安平路","SECT":" ","MAREA":" ","LANE":"６０６巷","ALLEY":"５３弄","HOUSE_NO":"４４號","E_COORD97":164807.95999999999,"N_COORD97":2544600.3300000001,"ADDRESS":"安平路６０６巷５３弄４４號","OBJECTID":175639},"geometry":{"x":164807.96000000183,"y":2544600.3300000001}},{"attributes":{"ID":175641,"DIS_CODE":0,"TOWNNAME":"安平區","LI":"平安里","LIN":"11鄰","STREET":"安平路","SECT":" ","MAREA":" ","LANE":"５００巷","ALLEY":"１７弄","HOUSE_NO":"２５號","E_COORD97":165077.07999999999,"N_COORD97":2544400.1899999999,"ADDRESS":"安平路５００巷１７弄２５號","OBJECTID":175640},"geometry":{"x":165077.08000000101,"y":2544400.1900000013}},{"attributes":{"ID":175642,"DIS_CODE":0,"TOWNNAME":"安平區","LI":"平安里","LIN":"11鄰","STREET":"安平路","SECT":" ","MAREA":" ","LANE":"５００巷","ALLEY":"１７弄","HOUSE_NO":"２７號","E_COORD97":165072.57000000001,"N_COORD97":2544400.6600000001,"ADDRESS":"安平路５００巷１７弄２７號","OBJECTID":175641},"geometry":{"x":165072.57000000123,"y":2544400.660000002}},{"attributes":{"ID":175643,"DIS_CODE":0,"TOWNNAME":"安平區","LI":"平安里","LIN":"11鄰","STREET":"安平路","SECT":" ","MAREA":" ","LANE":"５００巷","ALLEY":"１７弄","HOUSE_NO":"２９號","E_COORD97":165068.54000000001,"N_COORD97":2544402.0899999999,"ADDRESS":"安平路５００巷１７弄２９號","OBJECTID":175642},"geometry":{"x":165068.5400000019,"y":2544402.0899999999}},{"attributes":{"ID":175644,"DIS_CODE":0,"TOWNNAME":"東區","LI":"關聖里","LIN":"19鄰","STREET":"裕孝路","SECT":" ","MAREA":" ","LANE":" ","ALLEY":" ","HOUSE_NO":"１５１號","E_COORD97":172451.17000000001,"N_COORD97":2542970.1400000001,"ADDRESS":"裕孝路１５１號","OBJECTID":175643},"geometry":{"x":172451.16999999993,"y":2542970.1400000025}},{"attributes":{"ID":175645,"DIS_CODE":0,"TOWNNAME":"安平區","LI":"平安里","LIN":"11鄰","STREET":"安平路","SECT":" ","MAREA":" ","LANE":"５００巷","ALLEY":"１７弄","HOUSE_NO":"４７號","E_COORD97":165013.01999999999,"N_COORD97":2544416.23,"ADDRESS":"安平路５００巷１７弄４７號","OBJECTID":175644},"geometry":{"x":165013.02000000048,"y":2544416.2299999986}},{"attributes":{"ID":175646,"DIS_CODE":0,"TOWNNAME":"安平區","LI":"平安里","LIN":"11鄰","STREET":"安平路","SECT":" ","MAREA":" ","LANE":"５００巷","ALLEY":"１７弄","HOUSE_NO":"４１號","E_COORD97":165041.63,"N_COORD97":2544408.8900000001,"ADDRESS":"安平路５００巷１７弄４１號","OBJECTID":175645},"geometry":{"x":165041.62999999989,"y":2544408.8900000043}},{"attributes":{"ID":175647,"DIS_CODE":0,"TOWNNAME":"安平區","LI":"平安里","LIN":"11鄰","STREET":"安平路","SECT":" ","MAREA":" ","LANE":"５００巷","ALLEY":"１７弄","HOUSE_NO":"３９號","E_COORD97":165046.22,"N_COORD97":2544407.6600000001,"ADDRESS":"安平路５００巷１７弄３９號","OBJECTID":175646},"geometry":{"x":165046.21999999974,"y":2544407.660000002}},{"attributes":{"ID":175648,"DIS_CODE":0,"TOWNNAME":"東區","LI":"關聖里","LIN":"19鄰","STREET":"裕孝路","SECT":" ","MAREA":" ","LANE":" ","ALLEY":" ","HOUSE_NO":"１５３號","E_COORD97":172450.31,"N_COORD97":2542955.8700000001,"ADDRESS":"裕孝路１５３號","OBJECTID":175647},"geometry":{"x":172450.30999999866,"y":2542955.8700000029}},{"attributes":{"ID":175649,"DIS_CODE":0,"TOWNNAME":"安平區","LI":"平安里","LIN":"11鄰","STREET":"安平路","SECT":" ","MAREA":" ","LANE":"５００巷","ALLEY":"１７弄","HOUSE_NO":"３１號","E_COORD97":165062.89999999999,"N_COORD97":2544402.9199999999,"ADDRESS":"安平路５００巷１７弄３１號","OBJECTID":175648},"geometry":{"x":165062.89999999944,"y":2544402.9199999999}},{"attributes":{"ID":175650,"DIS_CODE":0,"TOWNNAME":"安平區","LI":"平安里","LIN":"11鄰","STREET":"安平路","SECT":" ","MAREA":" ","LANE":"５００巷","ALLEY":"１７弄","HOUSE_NO":"２８號","E_COORD97":165061.22,"N_COORD97":2544420.6699999999,"ADDRESS":"安平路５００巷１７弄２８號","OBJECTID":175649},"geometry":{"x":165061.21999999974,"y":2544420.6700000018}},{"attributes":{"ID":175651,"DIS_CODE":0,"TOWNNAME":"安平區","LI":"平安里","LIN":"11鄰","STREET":"安平路","SECT":" ","MAREA":" ","LANE":"５００巷","ALLEY":"１７弄","HOUSE_NO":"４６號","E_COORD97":165017.60999999999,"N_COORD97":2544432.4500000002,"ADDRESS":"安平路５００巷１７弄４６號","OBJECTID":175650},"geometry":{"x":165017.6100000022,"y":2544432.4499999993}},{"attributes":{"ID":175652,"DIS_CODE":0,"TOWNNAME":"安平區","LI":"平安里","LIN":"11鄰","STREET":"安平路","SECT":" ","MAREA":" ","LANE":"５００巷","ALLEY":"１７弄","HOUSE_NO":"４號","E_COORD97":165127.48000000001,"N_COORD97":2544405.0600000001,"ADDRESS":"安平路５００巷１７弄４號","OBJECTID":175651},"geometry":{"x":165127.48000000138,"y":2544405.0600000024}},{"attributes":{"ID":175653,"DIS_CODE":0,"TOWNNAME":"安平區","LI":"平安里","LIN":"13鄰","STREET":"安平路","SECT":" ","MAREA":" ","LANE":"５５０巷","ALLEY":"１７弄","HOUSE_NO":"１７號","E_COORD97":164935.89000000001,"N_COORD97":2544439.8700000001,"ADDRESS":"安平路５５０巷１７弄１７號","OBJECTID":175652},"geometry":{"x":164935.8900000006,"y":2544439.8700000048}},{"attributes":{"ID":175654,"DIS_CODE":0,"TOWNNAME":"安平區","LI":"平安里","LIN":"13鄰","STREET":"安平路","SECT":" ","MAREA":" ","LANE":"５５０巷","ALLEY":"１７弄","HOUSE_NO":"１２號","E_COORD97":164977.35999999999,"N_COORD97":2544443.7000000002,"ADDRESS":"安平路５５０巷１７弄１２號","OBJECTID":175653},"geometry":{"x":164977.36000000127,"y":2544443.7000000011}},{"attributes":{"ID":175655,"DIS_CODE":0,"TOWNNAME":"安平區","LI":"平安里","LIN":"13鄰","STREET":"安平路","SECT":" ","MAREA":" ","LANE":"５５０巷","ALLEY":"１７弄","HOUSE_NO":"４３號","E_COORD97":164889.22,"N_COORD97":2544456.3999999999,"ADDRESS":"安平路５５０巷１７弄４３號","OBJECTID":175654},"geometry":{"x":164889.22000000067,"y":2544456.4000000022}},{"attributes":{"ID":175656,"DIS_CODE":0,"TOWNNAME":"安平區","LI":"平安里","LIN":"13鄰","STREET":"安平路","SECT":" ","MAREA":" ","LANE":"５５０巷","ALLEY":"１７弄","HOUSE_NO":"４１號","E_COORD97":164892.42999999999,"N_COORD97":2544455.02,"ADDRESS":"安平路５５０巷１７弄４１號","OBJECTID":175655},"geometry":{"x":164892.4299999997,"y":2544455.0200000014}},{"attributes":{"ID":175657,"DIS_CODE":0,"TOWNNAME":"安平區","LI":"平安里","LIN":"13鄰","STREET":"安平路","SECT":" ","MAREA":" ","LANE":"５５０巷","ALLEY":"１７弄","HOUSE_NO":"３９號","E_COORD97":164895.48999999999,"N_COORD97":2544454.1099999999,"ADDRESS":"安平路５５０巷１７弄３９號","OBJECTID":175656},"geometry":{"x":164895.49000000022,"y":2544454.1100000013}},{"attributes":{"ID":175658,"DIS_CODE":0,"TOWNNAME":"安平區","LI":"平安里","LIN":"13鄰","STREET":"安平路","SECT":" ","MAREA":" ","LANE":"５５０巷","ALLEY":"１７弄","HOUSE_NO":"３７號","E_COORD97":164898.39999999999,"N_COORD97":2544453.04,"ADDRESS":"安平路５５０巷１７弄３７號","OBJECTID":175657},"geometry":{"x":164898.40000000037,"y":2544453.0399999991}},{"attributes":{"ID":175659,"DIS_CODE":0,"TOWNNAME":"安平區","LI":"平安里","LIN":"13鄰","STREET":"安平路","SECT":" ","MAREA":" ","LANE":"５５０巷","ALLEY":"１７弄","HOUSE_NO":"３５號","E_COORD97":164901.14999999999,"N_COORD97":2544451.5099999998,"ADDRESS":"安平路５５０巷１７弄３５號","OBJECTID":175658},"geometry":{"x":164901.15000000037,"y":2544451.5100000016}},{"attributes":{"ID":175660,"DIS_CODE":0,"TOWNNAME":"東區","LI":"關聖里","LIN":"19鄰","STREET":"裕孝路","SECT":" ","MAREA":" ","LANE":" ","ALLEY":" ","HOUSE_NO":"１５１之７號","E_COORD97":172483.17999999999,"N_COORD97":2542970.1400000001,"ADDRESS":"裕孝路１５１之７號","OBJECTID":175659},"geometry":{"x":172483.1799999997,"y":2542970.1400000025}},{"attributes":{"ID":175661,"DIS_CODE":0,"TOWNNAME":"東區","LI":"裕聖里","LIN":"15鄰","STREET":"裕孝路","SECT":" ","MAREA":" ","LANE":" ","ALLEY":" ","HOUSE_NO":"３０５之１號","E_COORD97":172456.97,"N_COORD97":2542384.2000000002,"ADDRESS":"裕孝路３０５之１號","OBJECTID":175660},"geometry":{"x":172456.97000000067,"y":2542384.1999999993}},{"attributes":{"ID":175662,"DIS_CODE":0,"TOWNNAME":"安平區","LI":"平安里","LIN":"11鄰","STREET":"安平路","SECT":" ","MAREA":" ","LANE":"５００巷","ALLEY":"１７弄","HOUSE_NO":"２號","E_COORD97":165132.53,"N_COORD97":2544403.6800000002,"ADDRESS":"安平路５００巷１７弄２號","OBJECTID":175661},"geometry":{"x":165132.53000000026,"y":2544403.6800000016}},{"attributes":{"ID":175663,"DIS_CODE":0,"TOWNNAME":"東區","LI":"東安里","LIN":"1鄰","STREET":"東門路","SECT":"二段","MAREA":" ","LANE":" ","ALLEY":" ","HOUSE_NO":"１０７號","E_COORD97":170192.92999999999,"N_COORD97":2542934.3900000001,"ADDRESS":"東門路二段１０７號","OBJECTID":175662},"geometry":{"x":170192.9299999997,"y":2542934.3900000025}},{"attributes":{"ID":175664,"DIS_CODE":0,"TOWNNAME":"東區","LI":"裕聖里","LIN":"15鄰","STREET":"裕孝路","SECT":" ","MAREA":" ","LANE":" ","ALLEY":" ","HOUSE_NO":"３１７之８號","E_COORD97":172489.19,"N_COORD97":2542349.3500000001,"ADDRESS":"裕孝路３１７之８號","OBJECTID":175663},"geometry":{"x":172489.19000000041,"y":2542349.3499999996}},{"attributes":{"ID":175665,"DIS_CODE":0,"TOWNNAME":"東區","LI":"裕聖里","LIN":"15鄰","STREET":"裕孝路","SECT":" ","MAREA":" ","LANE":" ","ALLEY":" ","HOUSE_NO":"３１７之９號","E_COORD97":172494.23999999999,"N_COORD97":2542349.21,"ADDRESS":"裕孝路３１７之９號","OBJECTID":175664},"geometry":{"x":172494.24000000115,"y":2542349.2100000028}},{"attributes":{"ID":175666,"DIS_CODE":0,"TOWNNAME":"東區","LI":"裕聖里","LIN":"15鄰","STREET":"裕孝路","SECT":" ","MAREA":" ","LANE":" ","ALLEY":" ","HOUSE_NO":"３１９之１０號","E_COORD97":172500.57999999999,"N_COORD97":2542337.6699999999,"ADDRESS":"裕孝路３１９之１０號","OBJECTID":175665},"geometry":{"x":172500.58000000101,"y":2542337.6699999999}},{"attributes":{"ID":175667,"DIS_CODE":0,"TOWNNAME":"安平區","LI":"建平里","LIN":"24鄰","STREET":"建平九街","SECT":" ","MAREA":" ","LANE":"６０巷","ALLEY":"３１弄","HOUSE_NO":"４３號","E_COORD97":165929.13,"N_COORD97":2543634.3799999999,"ADDRESS":"建平九街６０巷３１弄４３號","OBJECTID":175666},"geometry":{"x":165929.13000000082,"y":2543634.3800000008}},{"attributes":{"ID":175668,"DIS_CODE":0,"TOWNNAME":"安平區","LI":"建平里","LIN":"24鄰","STREET":"建平九街","SECT":" ","MAREA":" ","LANE":"６０巷","ALLEY":"３１弄","HOUSE_NO":"４７號","E_COORD97":165919.84,"N_COORD97":2543636.8900000001,"ADDRESS":"建平九街６０巷３１弄４７號","OBJECTID":175667},"geometry":{"x":165919.83999999985,"y":2543636.8900000025}},{"attributes":{"ID":175669,"DIS_CODE":0,"TOWNNAME":"南區","LI":"永寧里","LIN":"21鄰","STREET":"灣裡路","SECT":" ","MAREA":" ","LANE":"２６３巷","ALLEY":"２弄","HOUSE_NO":"１０號","E_COORD97":166144.92000000001,"N_COORD97":2536349.3700000001,"ADDRESS":"灣裡路２６３巷２弄１０號","OBJECTID":175668},"geometry":{"x":166144.91999999993,"y":2536349.370000001}},{"attributes":{"ID":175670,"DIS_CODE":0,"TOWNNAME":"南區","LI":"永寧里","LIN":"21鄰","STREET":"灣裡路","SECT":" ","MAREA":" ","LANE":"２６３巷","ALLEY":"２弄","HOUSE_NO":"１１號","E_COORD97":166177.73999999999,"N_COORD97":2536349.6600000001,"ADDRESS":"灣裡路２６３巷２弄１１號","OBJECTID":175669},"geometry":{"x":166177.74000000209,"y":2536349.6600000001}},{"attributes":{"ID":175671,"DIS_CODE":0,"TOWNNAME":"南區","LI":"永寧里","LIN":"21鄰","STREET":"灣裡路","SECT":" ","MAREA":" ","LANE":"２６３巷","ALLEY":"２弄","HOUSE_NO":"１２號","E_COORD97":166152.98000000001,"N_COORD97":2536343.3700000001,"ADDRESS":"灣裡路２６３巷２弄１２號","OBJECTID":175670},"geometry":{"x":166152.98000000138,"y":2536343.3699999992}},{"attributes":{"ID":175672,"DIS_CODE":0,"TOWNNAME":"南區","LI":"永寧里","LIN":"21鄰","STREET":"灣裡路","SECT":" ","MAREA":" ","LANE":"２６３巷","ALLEY":"２弄","HOUSE_NO":"１４號","E_COORD97":166154.73999999999,"N_COORD97":2536336.0499999998,"ADDRESS":"灣裡路２６３巷２弄１４號","OBJECTID":175671},"geometry":{"x":166154.74000000115,"y":2536336.0500000026}},{"attributes":{"ID":175673,"DIS_CODE":0,"TOWNNAME":"南區","LI":"永寧里","LIN":"21鄰","STREET":"灣裡路","SECT":" ","MAREA":" ","LANE":"２６３巷","ALLEY":"２弄","HOUSE_NO":"１６號","E_COORD97":166148,"N_COORD97":2536334.8799999999,"ADDRESS":"灣裡路２６３巷２弄１６號","OBJECTID":175672},"geometry":{"x":166148,"y":2536334.8800000008}},{"attributes":{"ID":175674,"DIS_CODE":0,"TOWNNAME":"南區","LI":"永寧里","LIN":"21鄰","STREET":"灣裡路","SECT":" ","MAREA":" ","LANE":"２６３巷","ALLEY":"２弄","HOUSE_NO":"８號","E_COORD97":166150.48999999999,"N_COORD97":2536355.8100000001,"ADDRESS":"灣裡路２６３巷２弄８號","OBJECTID":175673},"geometry":{"x":166150.48999999929,"y":2536355.8100000005}},{"attributes":{"ID":175675,"DIS_CODE":0,"TOWNNAME":"南區","LI":"府南里","LIN":"30鄰","STREET":"永成路","SECT":"三段","MAREA":" ","LANE":"４６１巷","ALLEY":"２弄","HOUSE_NO":"１０號","E_COORD97":167457.01999999999,"N_COORD97":2541527.4100000001,"ADDRESS":"永成路三段４６１巷２弄１０號","OBJECTID":175674},"geometry":{"x":167457.02000000048,"y":2541527.410000002}},{"attributes":{"ID":175676,"DIS_CODE":0,"TOWNNAME":"南區","LI":"府南里","LIN":"30鄰","STREET":"永成路","SECT":"三段","MAREA":" ","LANE":"４６１巷","ALLEY":"２弄","HOUSE_NO":"１１號","E_COORD97":167447.72,"N_COORD97":2541534.9100000001,"ADDRESS":"永成路三段４６１巷２弄１１號","OBJECTID":175675},"geometry":{"x":167447.72000000067,"y":2541534.9100000001}},{"attributes":{"ID":175677,"DIS_CODE":0,"TOWNNAME":"南區","LI":"松安里","LIN":"4鄰","STREET":"灣裡路","SECT":" ","MAREA":" ","LANE":"２８２巷","ALLEY":"６８弄","HOUSE_NO":"１１號","E_COORD97":165971.59,"N_COORD97":2536252.2799999998,"ADDRESS":"灣裡路２８２巷６８弄１１號","OBJECTID":175676},"geometry":{"x":165971.59000000171,"y":2536252.2800000012}},{"attributes":{"ID":175678,"DIS_CODE":0,"TOWNNAME":"南區","LI":"松安里","LIN":"4鄰","STREET":"灣裡路","SECT":" ","MAREA":" ","LANE":"２８２巷","ALLEY":"６８弄","HOUSE_NO":"１３號","E_COORD97":165966.95999999999,"N_COORD97":2536252.2799999998,"ADDRESS":"灣裡路２８２巷６８弄１３號","OBJECTID":175677},"geometry":{"x":165966.95999999996,"y":2536252.2800000012}},{"attributes":{"ID":175679,"DIS_CODE":0,"TOWNNAME":"南區","LI":"松安里","LIN":"4鄰","STREET":"灣裡路","SECT":" ","MAREA":" ","LANE":"２８２巷","ALLEY":"６８弄","HOUSE_NO":"３號之１","E_COORD97":165999.73999999999,"N_COORD97":2536240.3399999999,"ADDRESS":"灣裡路２８２巷６８弄３號之１","OBJECTID":175678},"geometry":{"x":165999.74000000209,"y":2536240.3399999999}},{"attributes":{"ID":175680,"DIS_CODE":0,"TOWNNAME":"南區","LI":"松安里","LIN":"4鄰","STREET":"灣裡路","SECT":" ","MAREA":" ","LANE":"２８２巷","ALLEY":"６８弄","HOUSE_NO":"５號","E_COORD97":165985.28,"N_COORD97":2536239.3799999999,"ADDRESS":"灣裡路２８２巷６８弄５號","OBJECTID":175679},"geometry":{"x":165985.28000000026,"y":2536239.3799999971}},{"attributes":{"ID":175681,"DIS_CODE":0,"TOWNNAME":"南區","LI":"松安里","LIN":"4鄰","STREET":"灣裡路","SECT":" ","MAREA":" ","LANE":"２８２巷","ALLEY":"６８弄","HOUSE_NO":"５號之１","E_COORD97":165990.48999999999,"N_COORD97":2536240.3399999999,"ADDRESS":"灣裡路２８２巷６８弄５號之１","OBJECTID":175680},"geometry":{"x":165990.49000000022,"y":2536240.3399999999}},{"attributes":{"ID":175682,"DIS_CODE":0,"TOWNNAME":"南區","LI":"松安里","LIN":"4鄰","STREET":"灣裡路","SECT":" ","MAREA":" ","LANE":"２８２巷","ALLEY":"６８弄","HOUSE_NO":"７號","E_COORD97":165984.70000000001,"N_COORD97":2536254.21,"ADDRESS":"灣裡路２８２巷６８弄７號","OBJECTID":175681},"geometry":{"x":165984.70000000205,"y":2536254.2100000028}},{"attributes":{"ID":175683,"DIS_CODE":0,"TOWNNAME":"南區","LI":"松安里","LIN":"4鄰","STREET":"灣裡路","SECT":" ","MAREA":" ","LANE":"２８２巷","ALLEY":"６８弄","HOUSE_NO":"９號","E_COORD97":165978.53,"N_COORD97":2536252.48,"ADDRESS":"灣裡路２８２巷６８弄９號","OBJECTID":175682},"geometry":{"x":165978.53000000026,"y":2536252.4800000004}},{"attributes":{"ID":175684,"DIS_CODE":0,"TOWNNAME":"南區","LI":"松安里","LIN":"4鄰","STREET":"灣裡路","SECT":" ","MAREA":" ","LANE":"２８２巷","ALLEY":"８８弄","HOUSE_NO":"１０號","E_COORD97":165985.09,"N_COORD97":2536220.1099999999,"ADDRESS":"灣裡路２８２巷８８弄１０號","OBJECTID":175683},"geometry":{"x":165985.09000000171,"y":2536220.1099999994}},{"attributes":{"ID":175685,"DIS_CODE":0,"TOWNNAME":"南區","LI":"松安里","LIN":"4鄰","STREET":"灣裡路","SECT":" ","MAREA":" ","LANE":"２８２巷","ALLEY":"８８弄","HOUSE_NO":"１２號","E_COORD97":165969.28,"N_COORD97":2536229.7400000002,"ADDRESS":"灣裡路２８２巷８８弄１２號","OBJECTID":175684},"geometry":{"x":165969.28000000119,"y":2536229.7400000021}},{"attributes":{"ID":175686,"DIS_CODE":0,"TOWNNAME":"南區","LI":"松安里","LIN":"4鄰","STREET":"灣裡路","SECT":" ","MAREA":" ","LANE":"２８２巷","ALLEY":"６８弄","HOUSE_NO":"１０號","E_COORD97":165992.62,"N_COORD97":2536271.3199999998,"ADDRESS":"灣裡路２８２巷６８弄１０號","OBJECTID":175685},"geometry":{"x":165992.62000000104,"y":2536271.3200000003}},{"attributes":{"ID":175687,"DIS_CODE":0,"TOWNNAME":"南區","LI":"松安里","LIN":"4鄰","STREET":"灣裡路","SECT":" ","MAREA":" ","LANE":"２８２巷","ALLEY":"６８弄","HOUSE_NO":"１２號","E_COORD97":165991.85000000001,"N_COORD97":2536276.7200000002,"ADDRESS":"灣裡路２８２巷６８弄１２號","OBJECTID":175686},"geometry":{"x":165991.85000000056,"y":2536276.7200000044}},{"attributes":{"ID":175688,"DIS_CODE":0,"TOWNNAME":"南區","LI":"松安里","LIN":"4鄰","STREET":"灣裡路","SECT":" ","MAREA":" ","LANE":"２８２巷","ALLEY":"６８弄","HOUSE_NO":"１４號","E_COORD97":165993.20000000001,"N_COORD97":2536281.5299999998,"ADDRESS":"灣裡路２８２巷６８弄１４號","OBJECTID":175687},"geometry":{"x":165993.20000000205,"y":2536281.5299999993}},{"attributes":{"ID":175689,"DIS_CODE":0,"TOWNNAME":"南區","LI":"松安里","LIN":"4鄰","STREET":"灣裡路","SECT":" ","MAREA":" ","LANE":"２８２巷","ALLEY":"６８弄","HOUSE_NO":"１６號","E_COORD97":165992.23999999999,"N_COORD97":2536287.3100000001,"ADDRESS":"灣裡路２８２巷６８弄１６號","OBJECTID":175688},"geometry":{"x":165992.24000000022,"y":2536287.3100000024}},{"attributes":{"ID":175690,"DIS_CODE":0,"TOWNNAME":"南區","LI":"松安里","LIN":"4鄰","STREET":"灣裡路","SECT":" ","MAREA":" ","LANE":"２８２巷","ALLEY":"６８弄","HOUSE_NO":"６號","E_COORD97":165995.89999999999,"N_COORD97":2536255.48,"ADDRESS":"灣裡路２８２巷６８弄６號","OBJECTID":175689},"geometry":{"x":165995.9000000013,"y":2536255.4800000023}},{"attributes":{"ID":175691,"DIS_CODE":0,"TOWNNAME":"七股區","LI":"十份里","LIN":"11鄰","STREET":" ","SECT":" ","MAREA":"十份","LANE":" ","ALLEY":" ","HOUSE_NO":"５１號","E_COORD97":158115.01999999999,"N_COORD97":2554444.6899999999,"ADDRESS":"十份５１號","OBJECTID":175690},"geometry":{"x":158115.02000000048,"y":2554444.6900000032}},{"attributes":{"ID":175692,"DIS_CODE":0,"TOWNNAME":"南區","LI":"松安里","LIN":"4鄰","STREET":"灣裡路","SECT":" ","MAREA":" ","LANE":"２８２巷","ALLEY":"６８弄","HOUSE_NO":"８號","E_COORD97":165993.51000000001,"N_COORD97":2536265.4900000002,"ADDRESS":"灣裡路２８２巷６８弄８號","OBJECTID":175691},"geometry":{"x":165993.50999999978,"y":2536265.4900000021}},{"attributes":{"ID":175693,"DIS_CODE":0,"TOWNNAME":"東區","LI":"裕聖里","LIN":"15鄰","STREET":"裕孝路","SECT":" ","MAREA":" ","LANE":" ","ALLEY":" ","HOUSE_NO":"３１９之１１號","E_COORD97":172505.76999999999,"N_COORD97":2542337.96,"ADDRESS":"裕孝路３１９之１１號","OBJECTID":175692},"geometry":{"x":172505.76999999955,"y":2542337.9600000028}},{"attributes":{"ID":175694,"DIS_CODE":0,"TOWNNAME":"東區","LI":"裕聖里","LIN":"15鄰","STREET":"裕孝路","SECT":" ","MAREA":" ","LANE":" ","ALLEY":" ","HOUSE_NO":"３１９之１２號","E_COORD97":172511.54000000001,"N_COORD97":2542337.96,"ADDRESS":"裕孝路３１９之１２號","OBJECTID":175693},"geometry":{"x":172511.54000000004,"y":2542337.9600000028}},{"attributes":{"ID":175695,"DIS_CODE":0,"TOWNNAME":"南區","LI":"松安里","LIN":"7鄰","STREET":"灣裡路","SECT":" ","MAREA":" ","LANE":"２８２巷","ALLEY":"３０弄","HOUSE_NO":"１１號","E_COORD97":165976.95999999999,"N_COORD97":2536354.9399999999,"ADDRESS":"灣裡路２８２巷３０弄１１號","OBJECTID":175694},"geometry":{"x":165976.95999999996,"y":2536354.9400000032}},{"attributes":{"ID":175696,"DIS_CODE":0,"TOWNNAME":"歸仁區","LI":"看東里","LIN":"11鄰","STREET":"忠孝南路","SECT":" ","MAREA":" ","LANE":"１３９巷","ALLEY":"１１弄","HOUSE_NO":"２０之１號","E_COORD97":178590.57193400001,"N_COORD97":2540362.0080800001,"ADDRESS":"忠孝南路１３９巷１１弄２０之１號","OBJECTID":175695},"geometry":{"x":178590.57193399966,"y":2540362.0080779996}},{"attributes":{"ID":175697,"DIS_CODE":0,"TOWNNAME":"安平區","LI":"文平里","LIN":"4鄰","STREET":"中華西路","SECT":"二段","MAREA":" ","LANE":"１巷","ALLEY":"１７弄","HOUSE_NO":"１號","E_COORD97":166430.07000000001,"N_COORD97":2543019.1699999999,"ADDRESS":"中華西路二段１巷１７弄１號","OBJECTID":175696},"geometry":{"x":166430.07000000123,"y":2543019.1699999999}},{"attributes":{"ID":175698,"DIS_CODE":0,"TOWNNAME":"安平區","LI":"文平里","LIN":"4鄰","STREET":"中華西路","SECT":"二段","MAREA":" ","LANE":"１巷","ALLEY":"１７弄","HOUSE_NO":"１３號","E_COORD97":166453.57000000001,"N_COORD97":2543000.7599999998,"ADDRESS":"中華西路二段１巷１７弄１３號","OBJECTID":175697},"geometry":{"x":166453.57000000216,"y":2543000.7599999998}},{"attributes":{"ID":175699,"DIS_CODE":0,"TOWNNAME":"安平區","LI":"文平里","LIN":"4鄰","STREET":"中華西路","SECT":"二段","MAREA":" ","LANE":"１巷","ALLEY":"１７弄","HOUSE_NO":"３號","E_COORD97":166434.98999999999,"N_COORD97":2543019.0099999998,"ADDRESS":"中華西路二段１巷１７弄３號","OBJECTID":175698},"geometry":{"x":166434.99000000022,"y":2543019.0099999998}},{"attributes":{"ID":175700,"DIS_CODE":0,"TOWNNAME":"安平區","LI":"文平里","LIN":"4鄰","STREET":"中華西路","SECT":"二段","MAREA":" ","LANE":"１巷","ALLEY":"１７弄","HOUSE_NO":"４９號","E_COORD97":166421.66,"N_COORD97":2542952.9700000002,"ADDRESS":"中華西路二段１巷１７弄４９號","OBJECTID":175699},"geometry":{"x":166421.66000000015,"y":2542952.9700000007}},{"attributes":{"ID":175701,"DIS_CODE":0,"TOWNNAME":"安平區","LI":"文平里","LIN":"4鄰","STREET":"中華西路","SECT":"二段","MAREA":" ","LANE":"１巷","ALLEY":"１７弄","HOUSE_NO":"５號","E_COORD97":166440.07000000001,"N_COORD97":2543018.8500000001,"ADDRESS":"中華西路二段１巷１７弄５號","OBJECTID":175700},"geometry":{"x":166440.07000000216,"y":2543018.8500000015}},{"attributes":{"ID":175702,"DIS_CODE":0,"TOWNNAME":"安平區","LI":"文平里","LIN":"4鄰","STREET":"中華西路","SECT":"二段","MAREA":" ","LANE":"１巷","ALLEY":"３弄","HOUSE_NO":"２２號","E_COORD97":166467.85000000001,"N_COORD97":2542991.8700000001,"ADDRESS":"中華西路二段１巷３弄２２號","OBJECTID":175701},"geometry":{"x":166467.85000000149,"y":2542991.870000001}},{"attributes":{"ID":175703,"DIS_CODE":0,"TOWNNAME":"安平區","LI":"文平里","LIN":"4鄰","STREET":"中華西路","SECT":"二段","MAREA":" ","LANE":"１巷","ALLEY":"１７弄","HOUSE_NO":"２７號","E_COORD97":166431.17999999999,"N_COORD97":2542982.98,"ADDRESS":"中華西路二段１巷１７弄２７號","OBJECTID":175702},"geometry":{"x":166431.1799999997,"y":2542982.9800000004}},{"attributes":{"ID":175704,"DIS_CODE":0,"TOWNNAME":"安平區","LI":"文平里","LIN":"4鄰","STREET":"中華西路","SECT":"二段","MAREA":" ","LANE":"１巷","ALLEY":"３弄","HOUSE_NO":"２６號","E_COORD97":166467.06,"N_COORD97":2542987.1000000001,"ADDRESS":"中華西路二段１巷３弄２６號","OBJECTID":175703},"geometry":{"x":166467.06000000052,"y":2542987.1000000015}},{"attributes":{"ID":175705,"DIS_CODE":0,"TOWNNAME":"安平區","LI":"文平里","LIN":"4鄰","STREET":"中華西路","SECT":"二段","MAREA":" ","LANE":"１巷","ALLEY":"３弄","HOUSE_NO":"２８號","E_COORD97":166466.26999999999,"N_COORD97":2542981.0699999998,"ADDRESS":"中華西路二段１巷３弄２８號","OBJECTID":175704},"geometry":{"x":166466.26999999955,"y":2542981.0700000022}},{"attributes":{"ID":175706,"DIS_CODE":0,"TOWNNAME":"安平區","LI":"文平里","LIN":"4鄰","STREET":"中華西路","SECT":"二段","MAREA":" ","LANE":"１巷","ALLEY":"３弄","HOUSE_NO":"２號","E_COORD97":166473.41,"N_COORD97":2543031.0800000001,"ADDRESS":"中華西路二段１巷３弄２號","OBJECTID":175705},"geometry":{"x":166473.41000000108,"y":2543031.0800000019}},{"attributes":{"ID":175707,"DIS_CODE":0,"TOWNNAME":"安平區","LI":"文平里","LIN":"4鄰","STREET":"中華西路","SECT":"二段","MAREA":" ","LANE":"１巷","ALLEY":"３弄","HOUSE_NO":"３０號","E_COORD97":166466.10999999999,"N_COORD97":2542976.1499999999,"ADDRESS":"中華西路二段１巷３弄３０號","OBJECTID":175706},"geometry":{"x":166466.11000000034,"y":2542976.1500000041}},{"attributes":{"ID":175708,"DIS_CODE":0,"TOWNNAME":"安平區","LI":"文平里","LIN":"4鄰","STREET":"中華西路","SECT":"二段","MAREA":" ","LANE":"１巷","ALLEY":"３弄","HOUSE_NO":"３２號","E_COORD97":166465.31,"N_COORD97":2542970.75,"ADDRESS":"中華西路二段１巷３弄３２號","OBJECTID":175707},"geometry":{"x":166465.31000000052,"y":2542970.75}},{"attributes":{"ID":175709,"DIS_CODE":0,"TOWNNAME":"安平區","LI":"文平里","LIN":"4鄰","STREET":"中華西路","SECT":"二段","MAREA":" ","LANE":"１巷","ALLEY":"１７弄","HOUSE_NO":"３９號","E_COORD97":166444.51999999999,"N_COORD97":2542971.0699999998,"ADDRESS":"中華西路二段１巷１７弄３９號","OBJECTID":175708},"geometry":{"x":166444.51999999862,"y":2542971.0700000022}},{"attributes":{"ID":175710,"DIS_CODE":0,"TOWNNAME":"安平區","LI":"文平里","LIN":"4鄰","STREET":"中華西路","SECT":"二段","MAREA":" ","LANE":"１巷","ALLEY":"１７弄","HOUSE_NO":"７號","E_COORD97":166444.51999999999,"N_COORD97":2543018.0600000001,"ADDRESS":"中華西路二段１巷１７弄７號","OBJECTID":175709},"geometry":{"x":166444.51999999862,"y":2543018.0600000024}},{"attributes":{"ID":175711,"DIS_CODE":0,"TOWNNAME":"安平區","LI":"文平里","LIN":"4鄰","STREET":"中華西路","SECT":"二段","MAREA":" ","LANE":"１巷","ALLEY":"１７弄","HOUSE_NO":"４３號","E_COORD97":166434.82999999999,"N_COORD97":2542971.8599999999,"ADDRESS":"中華西路二段１巷１７弄４３號","OBJECTID":175710},"geometry":{"x":166434.83000000101,"y":2542971.8599999994}},{"attributes":{"ID":175712,"DIS_CODE":0,"TOWNNAME":"安平區","LI":"文平里","LIN":"4鄰","STREET":"中華西路","SECT":"二段","MAREA":" ","LANE":"１巷","ALLEY":"１７弄","HOUSE_NO":"３５號","E_COORD97":166451.03,"N_COORD97":2542980.4399999999,"ADDRESS":"中華西路二段１巷１７弄３５號","OBJECTID":175711},"geometry":{"x":166451.03000000119,"y":2542980.4400000013}},{"attributes":{"ID":175713,"DIS_CODE":0,"TOWNNAME":"安平區","LI":"文平里","LIN":"4鄰","STREET":"中華西路","SECT":"二段","MAREA":" ","LANE":"１巷","ALLEY":"１７弄","HOUSE_NO":"３３號","E_COORD97":166446.10999999999,"N_COORD97":2542980.9100000001,"ADDRESS":"中華西路二段１巷１７弄３３號","OBJECTID":175712},"geometry":{"x":166446.11000000034,"y":2542980.9100000039}},{"attributes":{"ID":175714,"DIS_CODE":0,"TOWNNAME":"安平區","LI":"文平里","LIN":"4鄰","STREET":"中華西路","SECT":"二段","MAREA":" ","LANE":"１巷","ALLEY":"１７弄","HOUSE_NO":"２３號","E_COORD97":166428.48000000001,"N_COORD97":2543003.46,"ADDRESS":"中華西路二段１巷１７弄２３號","OBJECTID":175713},"geometry":{"x":166428.48000000045,"y":2543003.4600000009}},{"attributes":{"ID":175715,"DIS_CODE":0,"TOWNNAME":"安平區","LI":"文平里","LIN":"4鄰","STREET":"中華西路","SECT":"二段","MAREA":" ","LANE":"１巷","ALLEY":"１７弄","HOUSE_NO":"１１號","E_COORD97":166455.31,"N_COORD97":2543016.4700000002,"ADDRESS":"中華西路二段１巷１７弄１１號","OBJECTID":175714},"geometry":{"x":166455.31000000052,"y":2543016.4700000025}},{"attributes":{"ID":175716,"DIS_CODE":0,"TOWNNAME":"安平區","LI":"文平里","LIN":"4鄰","STREET":"中華西路","SECT":"二段","MAREA":" ","LANE":"１巷","ALLEY":"１７弄","HOUSE_NO":"３１號","E_COORD97":166440.70999999999,"N_COORD97":2542981.8700000001,"ADDRESS":"中華西路二段１巷１７弄３１號","OBJECTID":175715},"geometry":{"x":166440.71000000089,"y":2542981.8700000048}},{"attributes":{"ID":175717,"DIS_CODE":0,"TOWNNAME":"安平區","LI":"文平里","LIN":"4鄰","STREET":"中華西路","SECT":"二段","MAREA":" ","LANE":"１巷","ALLEY":"１７弄","HOUSE_NO":"１５號","E_COORD97":166448.01000000001,"N_COORD97":2543001.71,"ADDRESS":"中華西路二段１巷１７弄１５號","OBJECTID":175716},"geometry":{"x":166448.00999999978,"y":2543001.7100000009}},{"attributes":{"ID":175718,"DIS_CODE":0,"TOWNNAME":"安平區","LI":"文平里","LIN":"4鄰","STREET":"中華西路","SECT":"二段","MAREA":" ","LANE":"１巷","ALLEY":"１７弄","HOUSE_NO":"２５號","E_COORD97":166426.42000000001,"N_COORD97":2542982.8199999998,"ADDRESS":"中華西路二段１巷１７弄２５號","OBJECTID":175717},"geometry":{"x":166426.41999999993,"y":2542982.8200000022}},{"attributes":{"ID":175719,"DIS_CODE":0,"TOWNNAME":"安平區","LI":"文平里","LIN":"4鄰","STREET":"中華西路","SECT":"二段","MAREA":" ","LANE":"１巷","ALLEY":"１７弄","HOUSE_NO":"２９號","E_COORD97":166435.47,"N_COORD97":2542981.8700000001,"ADDRESS":"中華西路二段１巷１７弄２９號","OBJECTID":175718},"geometry":{"x":166435.47000000067,"y":2542981.8700000048}},{"attributes":{"ID":175720,"DIS_CODE":0,"TOWNNAME":"安平區","LI":"文平里","LIN":"4鄰","STREET":"中華西路","SECT":"二段","MAREA":" ","LANE":"１巷","ALLEY":"１７弄","HOUSE_NO":"３７號","E_COORD97":166449.12,"N_COORD97":2542970.5899999999,"ADDRESS":"中華西路二段１巷１７弄３７號","OBJECTID":175719},"geometry":{"x":166449.12000000011,"y":2542970.5900000017}},{"attributes":{"ID":175721,"DIS_CODE":0,"TOWNNAME":"新化區","LI":"\u25A0拔里","LIN":"10鄰","STREET":" ","SECT":" ","MAREA":"牧場","LANE":" ","ALLEY":" ","HOUSE_NO":"５９號","E_COORD97":181786.13,"N_COORD97":2551245.25,"ADDRESS":"牧場５９號","OBJECTID":175720},"geometry":{"x":181786.13000000082,"y":2551245.2500000019}},{"attributes":{"ID":175722,"DIS_CODE":0,"TOWNNAME":"安平區","LI":"文平里","LIN":"4鄰","STREET":"中華西路","SECT":"二段","MAREA":" ","LANE":"１巷","ALLEY":"１７弄","HOUSE_NO":"１９號","E_COORD97":166438.32999999999,"N_COORD97":2543002.5,"ADDRESS":"中華西路二段１巷１７弄１９號","OBJECTID":175721},"geometry":{"x":166438.33000000101,"y":2543002.5}},{"attributes":{"ID":175723,"DIS_CODE":0,"TOWNNAME":"安平區","LI":"文平里","LIN":"14鄰","STREET":"建平五街","SECT":" ","MAREA":" ","LANE":"２２巷","ALLEY":"１５弄","HOUSE_NO":"１號","E_COORD97":166084.63,"N_COORD97":2543152.52,"ADDRESS":"建平五街２２巷１５弄１號","OBJECTID":175722},"geometry":{"x":166084.62999999989,"y":2543152.5200000033}},{"attributes":{"ID":175724,"DIS_CODE":0,"TOWNNAME":"安平區","LI":"文平里","LIN":"14鄰","STREET":"建平五街","SECT":" ","MAREA":" ","LANE":"２２巷","ALLEY":"１５弄","HOUSE_NO":"３號","E_COORD97":166079.84,"N_COORD97":2543153.3100000001,"ADDRESS":"建平五街２２巷１５弄３號","OBJECTID":175723},"geometry":{"x":166079.83999999985,"y":2543153.3100000005}},{"attributes":{"ID":175725,"DIS_CODE":0,"TOWNNAME":"鹽水區","LI":"橋南里","LIN":" ","STREET":"月津路","SECT":" ","MAREA":" ","LANE":"１２巷","ALLEY":"１９弄","HOUSE_NO":"８號","E_COORD97":174794.03,"N_COORD97":2579562.25,"ADDRESS":"月津路１２巷１９弄８號","OBJECTID":175724},"geometry":{"x":174794.02999999933,"y":2579562.25}},{"attributes":{"ID":175726,"DIS_CODE":0,"TOWNNAME":"鹽水區","LI":"橋南里","LIN":" ","STREET":"月津路","SECT":" ","MAREA":" ","LANE":"１２巷","ALLEY":"２９弄","HOUSE_NO":"１８號","E_COORD97":174730.42000000001,"N_COORD97":2579614.6899999999,"ADDRESS":"月津路１２巷２９弄１８號","OBJECTID":175725},"geometry":{"x":174730.42000000086,"y":2579614.6900000032}},{"attributes":{"ID":175727,"DIS_CODE":0,"TOWNNAME":"鹽水區","LI":"橋南里","LIN":" ","STREET":"月津路","SECT":" ","MAREA":" ","LANE":"１２巷","ALLEY":"２９弄","HOUSE_NO":"３１號","E_COORD97":174702.85000000001,"N_COORD97":2579556.1200000001,"ADDRESS":"月津路１２巷２９弄３１號","OBJECTID":175726},"geometry":{"x":174702.84999999963,"y":2579556.1200000029}},{"attributes":{"ID":175728,"DIS_CODE":0,"TOWNNAME":"鹽水區","LI":"橋南里","LIN":" ","STREET":"月津路","SECT":" ","MAREA":" ","LANE":"１２巷","ALLEY":"２９弄","HOUSE_NO":"５號","E_COORD97":174761.38,"N_COORD97":2579577.0499999998,"ADDRESS":"月津路１２巷２９弄５號","OBJECTID":175727},"geometry":{"x":174761.38000000082,"y":2579577.0500000026}},{"attributes":{"ID":175729,"DIS_CODE":0,"TOWNNAME":"鹽水區","LI":"岸內里","LIN":" ","STREET":"北門路","SECT":" ","MAREA":" ","LANE":"１巷","ALLEY":"３弄","HOUSE_NO":"４０號","E_COORD97":174971.51999999999,"N_COORD97":2580413.23,"ADDRESS":"北門路１巷３弄４０號","OBJECTID":175728},"geometry":{"x":174971.52000000142,"y":2580413.2300000023}},{"attributes":{"ID":175730,"DIS_CODE":0,"TOWNNAME":"鹽水區","LI":"岸內里","LIN":" ","STREET":"北門路","SECT":" ","MAREA":" ","LANE":"１巷","ALLEY":"４弄","HOUSE_NO":"３號","E_COORD97":175023.5,"N_COORD97":2580444.3500000001,"ADDRESS":"北門路１巷４弄３號","OBJECTID":175729},"geometry":{"x":175023.50000000093,"y":2580444.3500000034}},{"attributes":{"ID":175731,"DIS_CODE":0,"TOWNNAME":"鹽水區","LI":"岸內里","LIN":" ","STREET":"北門路","SECT":" ","MAREA":" ","LANE":"１巷","ALLEY":"５弄","HOUSE_NO":"１５號","E_COORD97":174971.72,"N_COORD97":2580482.23,"ADDRESS":"北門路１巷５弄１５號","OBJECTID":175730},"geometry":{"x":174971.71999999974,"y":2580482.2300000004}},{"attributes":{"ID":175732,"DIS_CODE":0,"TOWNNAME":"鹽水區","LI":"岸內里","LIN":" ","STREET":"北門路","SECT":" ","MAREA":" ","LANE":"１巷","ALLEY":"５弄","HOUSE_NO":"３９號","E_COORD97":174960.26000000001,"N_COORD97":2580465.21,"ADDRESS":"北門路１巷５弄３９號","OBJECTID":175731},"geometry":{"x":174960.26000000071,"y":2580465.2100000028}},{"attributes":{"ID":175733,"DIS_CODE":0,"TOWNNAME":"鹽水區","LI":"岸內里","LIN":" ","STREET":"北門路","SECT":" ","MAREA":" ","LANE":"１巷","ALLEY":"６弄","HOUSE_NO":"２６號","E_COORD97":175122.10000000001,"N_COORD97":2580401.3500000001,"ADDRESS":"北門路１巷６弄２６號","OBJECTID":175732},"geometry":{"x":175122.10000000056,"y":2580401.3500000015}},{"attributes":{"ID":175734,"DIS_CODE":0,"TOWNNAME":"鹽水區","LI":"橋南里","LIN":" ","STREET":"行昌路","SECT":" ","MAREA":" ","LANE":"２９巷","ALLEY":"３０弄","HOUSE_NO":"１號","E_COORD97":175059.64999999999,"N_COORD97":2579249.0499999998,"ADDRESS":"行昌路２９巷３０弄１號","OBJECTID":175733},"geometry":{"x":175059.65000000224,"y":2579249.0500000007}},{"attributes":{"ID":175735,"DIS_CODE":0,"TOWNNAME":"仁德區","LI":"仁和里","LIN":"1鄰","STREET":"成功一街","SECT":" ","MAREA":" ","LANE":"２巷","ALLEY":"３９弄","HOUSE_NO":"３號","E_COORD97":170420.78041599999,"N_COORD97":2540244.6166099999,"ADDRESS":"成功一街２巷３９弄３號","OBJECTID":175734},"geometry":{"x":170420.78041600157,"y":2540244.6166050043}},{"attributes":{"ID":175736,"DIS_CODE":0,"TOWNNAME":"鹽水區","LI":"橋南里","LIN":" ","STREET":"南門路","SECT":" ","MAREA":" ","LANE":"２０１巷","ALLEY":"３３弄","HOUSE_NO":"５０號","E_COORD97":175536.92000000001,"N_COORD97":2579037.0299999998,"ADDRESS":"南門路２０１巷３３弄５０號","OBJECTID":175735},"geometry":{"x":175536.92000000179,"y":2579037.0300000012}},{"attributes":{"ID":175737,"DIS_CODE":0,"TOWNNAME":"南區","LI":"大忠里","LIN":"25鄰","STREET":"大同路","SECT":"二段","MAREA":" ","LANE":"６４０巷","ALLEY":"８２弄","HOUSE_NO":"１３號","E_COORD97":169279.20999999999,"N_COORD97":2541073.7200000002,"ADDRESS":"大同路二段６４０巷８２弄１３號","OBJECTID":175736},"geometry":{"x":169279.20999999996,"y":2541073.7200000044}},{"attributes":{"ID":175738,"DIS_CODE":0,"TOWNNAME":"南區","LI":"大忠里","LIN":"25鄰","STREET":"大同路","SECT":"二段","MAREA":" ","LANE":"６４０巷","ALLEY":"８２弄","HOUSE_NO":"１５號","E_COORD97":169280.60999999999,"N_COORD97":2541077.6299999999,"ADDRESS":"大同路二段６４０巷８２弄１５號","OBJECTID":175737},"geometry":{"x":169280.61000000034,"y":2541077.6300000008}},{"attributes":{"ID":175739,"DIS_CODE":0,"TOWNNAME":"南區","LI":"大忠里","LIN":"25鄰","STREET":"大同路","SECT":"二段","MAREA":" ","LANE":"６４０巷","ALLEY":"８２弄","HOUSE_NO":"１７號","E_COORD97":169282.01000000001,"N_COORD97":2541082.1000000001,"ADDRESS":"大同路二段６４０巷８２弄１７號","OBJECTID":175738},"geometry":{"x":169282.00999999978,"y":2541082.0999999996}},{"attributes":{"ID":175740,"DIS_CODE":0,"TOWNNAME":"南區","LI":"大忠里","LIN":"21鄰","STREET":"中華南路","SECT":"一段","MAREA":" ","LANE":"１２５巷","ALLEY":"２２弄","HOUSE_NO":"９號","E_COORD97":169186.69,"N_COORD97":2541154.7999999998,"ADDRESS":"中華南路一段１２５巷２２弄９號","OBJECTID":175739},"geometry":{"x":169186.69000000041,"y":2541154.8000000045}},{"attributes":{"ID":175741,"DIS_CODE":0,"TOWNNAME":"南區","LI":"大忠里","LIN":"21鄰","STREET":"中華南路","SECT":"一段","MAREA":" ","LANE":"１２５巷","ALLEY":"２５弄","HOUSE_NO":"１０號","E_COORD97":169235.26999999999,"N_COORD97":2541161.77,"ADDRESS":"中華南路一段１２５巷２５弄１０號","OBJECTID":175740},"geometry":{"x":169235.27000000048,"y":2541161.7700000014}},{"attributes":{"ID":175742,"DIS_CODE":0,"TOWNNAME":"南區","LI":"大忠里","LIN":"21鄰","STREET":"中華南路","SECT":"一段","MAREA":" ","LANE":"１２５巷","ALLEY":"２５弄","HOUSE_NO":"１１號","E_COORD97":169238.78,"N_COORD97":2541182.9300000002,"ADDRESS":"中華南路一段１２５巷２５弄１１號","OBJECTID":175741},"geometry":{"x":169238.78000000026,"y":2541182.9299999997}},{"attributes":{"ID":175743,"DIS_CODE":0,"TOWNNAME":"南區","LI":"大忠里","LIN":"21鄰","STREET":"中華南路","SECT":"一段","MAREA":" ","LANE":"１２５巷","ALLEY":"２５弄","HOUSE_NO":"１２號","E_COORD97":169240.63,"N_COORD97":2541162.8999999999,"ADDRESS":"中華南路一段１２５巷２５弄１２號","OBJECTID":175742},"geometry":{"x":169240.62999999989,"y":2541162.9000000004}},{"attributes":{"ID":175744,"DIS_CODE":0,"TOWNNAME":"南區","LI":"大忠里","LIN":"21鄰","STREET":"中華南路","SECT":"一段","MAREA":" ","LANE":"１２５巷","ALLEY":"２５弄","HOUSE_NO":"１號","E_COORD97":169213.32999999999,"N_COORD97":2541179.48,"ADDRESS":"中華南路一段１２５巷２５弄１號","OBJECTID":175743},"geometry":{"x":169213.33000000101,"y":2541179.4800000004}},{"attributes":{"ID":175745,"DIS_CODE":0,"TOWNNAME":"南區","LI":"大忠里","LIN":"21鄰","STREET":"中華南路","SECT":"一段","MAREA":" ","LANE":"１２５巷","ALLEY":"２５弄","HOUSE_NO":"２號","E_COORD97":169216.14999999999,"N_COORD97":2541160.1099999999,"ADDRESS":"中華南路一段１２５巷２５弄２號","OBJECTID":175744},"geometry":{"x":169216.14999999944,"y":2541160.1099999994}},{"attributes":{"ID":175746,"DIS_CODE":0,"TOWNNAME":"南區","LI":"大忠里","LIN":"21鄰","STREET":"中華南路","SECT":"一段","MAREA":" ","LANE":"１２５巷","ALLEY":"２５弄","HOUSE_NO":"３號","E_COORD97":169218.34,"N_COORD97":2541179.79,"ADDRESS":"中華南路一段１２５巷２５弄３號","OBJECTID":175745},"geometry":{"x":169218.34000000078,"y":2541179.7899999991}},{"attributes":{"ID":175747,"DIS_CODE":0,"TOWNNAME":"南區","LI":"大忠里","LIN":"21鄰","STREET":"中華南路","SECT":"一段","MAREA":" ","LANE":"１２５巷","ALLEY":"５弄","HOUSE_NO":"１０號","E_COORD97":169227.63,"N_COORD97":2541228.27,"ADDRESS":"中華南路一段１２５巷５弄１０號","OBJECTID":175746},"geometry":{"x":169227.62999999896,"y":2541228.2700000033}},{"attributes":{"ID":175748,"DIS_CODE":0,"TOWNNAME":"南區","LI":"大忠里","LIN":"21鄰","STREET":"中華南路","SECT":"一段","MAREA":" ","LANE":"１２５巷","ALLEY":"５弄","HOUSE_NO":"１１號","E_COORD97":169230.13,"N_COORD97":2541247.6600000001,"ADDRESS":"中華南路一段１２５巷５弄１１號","OBJECTID":175747},"geometry":{"x":169230.13000000082,"y":2541247.660000002}},{"attributes":{"ID":175749,"DIS_CODE":0,"TOWNNAME":"佳里區","LI":"安西里","LIN":"15鄰","STREET":"和平街","SECT":" ","MAREA":" ","LANE":" ","ALLEY":" ","HOUSE_NO":"２９１號","E_COORD97":165203.82999999999,"N_COORD97":2562462.3799999999,"ADDRESS":"和平街２９１號","OBJECTID":175748},"geometry":{"x":165203.83000000194,"y":2562462.3800000008}},{"attributes":{"ID":175750,"DIS_CODE":0,"TOWNNAME":"南區","LI":"大忠里","LIN":"21鄰","STREET":"中華南路","SECT":"一段","MAREA":" ","LANE":"１２５巷","ALLEY":"５弄","HOUSE_NO":"１２號","E_COORD97":169232.20000000001,"N_COORD97":2541229.1200000001,"ADDRESS":"中華南路一段１２５巷５弄１２號","OBJECTID":175749},"geometry":{"x":169232.20000000019,"y":2541229.1200000029}},{"attributes":{"ID":175751,"DIS_CODE":0,"TOWNNAME":"南區","LI":"大忠里","LIN":"21鄰","STREET":"中華南路","SECT":"一段","MAREA":" ","LANE":"１２５巷","ALLEY":"５弄","HOUSE_NO":"２號","E_COORD97":169207.34,"N_COORD97":2541225.1600000001,"ADDRESS":"中華南路一段１２５巷５弄２號","OBJECTID":175750},"geometry":{"x":169207.33999999985,"y":2541225.1600000001}},{"attributes":{"ID":175752,"DIS_CODE":0,"TOWNNAME":"歸仁區","LI":"看東里","LIN":"16鄰","STREET":"中山路","SECT":"一段","MAREA":" ","LANE":"１巷","ALLEY":"３８弄","HOUSE_NO":"９號","E_COORD97":179528.76592999999,"N_COORD97":2540232.46814,"ADDRESS":"中山路一段１巷３８弄９號","OBJECTID":175751},"geometry":{"x":179528.76593000162,"y":2540232.4681400005}},{"attributes":{"ID":175753,"DIS_CODE":0,"TOWNNAME":"南區","LI":"大忠里","LIN":"21鄰","STREET":"中華南路","SECT":"一段","MAREA":" ","LANE":"１２５巷","ALLEY":"５弄","HOUSE_NO":"５號","E_COORD97":169214.51999999999,"N_COORD97":2541246.0099999998,"ADDRESS":"中華南路一段１２５巷５弄５號","OBJECTID":175752},"geometry":{"x":169214.52000000142,"y":2541246.0099999998}},{"attributes":{"ID":175754,"DIS_CODE":0,"TOWNNAME":"南區","LI":"大忠里","LIN":"21鄰","STREET":"中華南路","SECT":"一段","MAREA":" ","LANE":"１２５巷","ALLEY":"５弄","HOUSE_NO":"６號","E_COORD97":169217.01999999999,"N_COORD97":2541226.7200000002,"ADDRESS":"中華南路一段１２５巷５弄６號","OBJECTID":175753},"geometry":{"x":169217.02000000048,"y":2541226.7200000025}},{"attributes":{"ID":175755,"DIS_CODE":0,"TOWNNAME":"南區","LI":"大忠里","LIN":"21鄰","STREET":"中華南路","SECT":"一段","MAREA":" ","LANE":"１２５巷","ALLEY":"５弄","HOUSE_NO":"７號","E_COORD97":169219.82999999999,"N_COORD97":2541246.6299999999,"ADDRESS":"中華南路一段１２５巷５弄７號","OBJECTID":175754},"geometry":{"x":169219.83000000194,"y":2541246.6300000008}},{"attributes":{"ID":175756,"DIS_CODE":0,"TOWNNAME":"南區","LI":"大忠里","LIN":"21鄰","STREET":"中華南路","SECT":"一段","MAREA":" ","LANE":"１２５巷","ALLEY":"５弄","HOUSE_NO":"８號","E_COORD97":169222.01000000001,"N_COORD97":2541227.6499999999,"ADDRESS":"中華南路一段１２５巷５弄８號","OBJECTID":175755},"geometry":{"x":169222.01000000071,"y":2541227.6500000022}},{"attributes":{"ID":175757,"DIS_CODE":0,"TOWNNAME":"南區","LI":"大忠里","LIN":"21鄰","STREET":"中華南路","SECT":"一段","MAREA":" ","LANE":"１２５巷","ALLEY":"５弄","HOUSE_NO":"９號","E_COORD97":169224.82000000001,"N_COORD97":2541246.9399999999,"ADDRESS":"中華南路一段１２５巷５弄９號","OBJECTID":175756},"geometry":{"x":169224.8200000003,"y":2541246.9399999995}},{"attributes":{"ID":175758,"DIS_CODE":0,"TOWNNAME":"仁德區","LI":"仁和里","LIN":"1鄰","STREET":"成功一街","SECT":" ","MAREA":" ","LANE":"２巷","ALLEY":"３５弄","HOUSE_NO":"７號","E_COORD97":170440.27807299999,"N_COORD97":2540226.2016199999,"ADDRESS":"成功一街２巷３５弄７號","OBJECTID":175757},"geometry":{"x":170440.27807300072,"y":2540226.201615002}},{"attributes":{"ID":175759,"DIS_CODE":0,"TOWNNAME":"中西區","LI":"仙草里","LIN":"10鄰","STREET":"府緯街","SECT":" ","MAREA":" ","LANE":" ","ALLEY":" ","HOUSE_NO":"１６號三樓之３","E_COORD97":167921.84,"N_COORD97":2542733.2000000002,"ADDRESS":"府緯街１６號三樓之３","OBJECTID":175758},"geometry":{"x":167921.83999999985,"y":2542733.1999999993}},{"attributes":{"ID":175760,"DIS_CODE":0,"TOWNNAME":"南區","LI":"大忠里","LIN":"22鄰","STREET":"中華南路","SECT":"一段","MAREA":" ","LANE":"１２５巷","ALLEY":"３２弄","HOUSE_NO":"７號","E_COORD97":169174.73000000001,"N_COORD97":2541118.0499999998,"ADDRESS":"中華南路一段１２５巷３２弄７號","OBJECTID":175759},"geometry":{"x":169174.73000000045,"y":2541118.0500000007}},{"attributes":{"ID":175761,"DIS_CODE":0,"TOWNNAME":"南區","LI":"大忠里","LIN":"22鄰","STREET":"中華南路","SECT":"一段","MAREA":" ","LANE":"１２５巷","ALLEY":"３２弄","HOUSE_NO":"９號","E_COORD97":169169.37,"N_COORD97":2541116.4500000002,"ADDRESS":"中華南路一段１２５巷３２弄９號","OBJECTID":175760},"geometry":{"x":169169.37000000104,"y":2541116.4500000011}},{"attributes":{"ID":175762,"DIS_CODE":0,"TOWNNAME":"南區","LI":"大忠里","LIN":"25鄰","STREET":"公英一街","SECT":" ","MAREA":" ","LANE":"７７巷","ALLEY":"１２弄","HOUSE_NO":"１１號","E_COORD97":169258.07000000001,"N_COORD97":2541092.0899999999,"ADDRESS":"公英一街７７巷１２弄１１號","OBJECTID":175761},"geometry":{"x":169258.07000000123,"y":2541092.0900000017}},{"attributes":{"ID":175763,"DIS_CODE":0,"TOWNNAME":"南區","LI":"大忠里","LIN":"25鄰","STREET":"公英一街","SECT":" ","MAREA":" ","LANE":"７７巷","ALLEY":"１２弄","HOUSE_NO":"１３號","E_COORD97":169254.23000000001,"N_COORD97":2541091.8500000001,"ADDRESS":"公英一街７７巷１２弄１３號","OBJECTID":175762},"geometry":{"x":169254.23000000045,"y":2541091.8499999996}},{"attributes":{"ID":175764,"DIS_CODE":0,"TOWNNAME":"南區","LI":"喜南里","LIN":"12鄰","STREET":"喜樹路","SECT":" ","MAREA":" ","LANE":"２２２巷","ALLEY":"２９弄","HOUSE_NO":"２３號","E_COORD97":165520.39999999999,"N_COORD97":2537946.52,"ADDRESS":"喜樹路２２２巷２９弄２３號","OBJECTID":175763},"geometry":{"x":165520.40000000037,"y":2537946.5199999996}},{"attributes":{"ID":175765,"DIS_CODE":0,"TOWNNAME":"南區","LI":"喜南里","LIN":"12鄰","STREET":"喜樹路","SECT":" ","MAREA":" ","LANE":"２２２巷","ALLEY":"２９弄","HOUSE_NO":"２５號","E_COORD97":165508.78,"N_COORD97":2537949.0499999998,"ADDRESS":"喜樹路２２２巷２９弄２５號","OBJECTID":175764},"geometry":{"x":165508.78000000026,"y":2537949.0500000045}},{"attributes":{"ID":175766,"DIS_CODE":0,"TOWNNAME":"南區","LI":"喜南里","LIN":"12鄰","STREET":"喜樹路","SECT":" ","MAREA":" ","LANE":"２２２巷","ALLEY":"２９弄","HOUSE_NO":"２７號","E_COORD97":165502.57000000001,"N_COORD97":2537947.1000000001,"ADDRESS":"喜樹路２２２巷２９弄２７號","OBJECTID":175765},"geometry":{"x":165502.57000000216,"y":2537947.0999999996}},{"attributes":{"ID":175767,"DIS_CODE":0,"TOWNNAME":"南區","LI":"喜南里","LIN":"12鄰","STREET":"喜樹路","SECT":" ","MAREA":" ","LANE":"２５２巷","ALLEY":"７弄","HOUSE_NO":"１９號","E_COORD97":165555.64999999999,"N_COORD97":2537922.4100000001,"ADDRESS":"喜樹路２５２巷７弄１９號","OBJECTID":175766},"geometry":{"x":165555.65000000037,"y":2537922.4100000039}},{"attributes":{"ID":175768,"DIS_CODE":0,"TOWNNAME":"歸仁區","LI":"南保里","LIN":"25鄰","STREET":"文化街","SECT":"三段","MAREA":" ","LANE":"１８５巷","ALLEY":"１弄","HOUSE_NO":"９號","E_COORD97":176581.01999999999,"N_COORD97":2541150.2599999998,"ADDRESS":"文化街三段１８５巷１弄９號","OBJECTID":175767},"geometry":{"x":176581.01999999955,"y":2541150.2599999998}},{"attributes":{"ID":175769,"DIS_CODE":0,"TOWNNAME":"歸仁區","LI":"南保里","LIN":"25鄰","STREET":"文化街","SECT":"三段","MAREA":" ","LANE":"１８５巷","ALLEY":"１弄","HOUSE_NO":"１５號","E_COORD97":176594.57000000001,"N_COORD97":2541149.2599999998,"ADDRESS":"文化街三段１８５巷１弄１５號","OBJECTID":175768},"geometry":{"x":176594.57000000123,"y":2541149.2599999998}},{"attributes":{"ID":175770,"DIS_CODE":0,"TOWNNAME":"歸仁區","LI":"看西里","LIN":"20鄰","STREET":"成功路","SECT":"二段","MAREA":" ","LANE":"６５巷","ALLEY":"５１弄","HOUSE_NO":"２８號","E_COORD97":178210.67999999999,"N_COORD97":2539845.1800000002,"ADDRESS":"成功路二段６５巷５１弄２８號","OBJECTID":175769},"geometry":{"x":178210.68000000063,"y":2539845.1799999997}},{"attributes":{"ID":175771,"DIS_CODE":0,"TOWNNAME":"歸仁區","LI":"崙頂里","LIN":"13鄰","STREET":"成功路","SECT":"二段","MAREA":" ","LANE":"１６８巷","ALLEY":"１３弄","HOUSE_NO":"３號","E_COORD97":177924.79000000001,"N_COORD97":2539755.25,"ADDRESS":"成功路二段１６８巷１３弄３號","OBJECTID":175770},"geometry":{"x":177924.7900000019,"y":2539755.2500000019}},{"attributes":{"ID":175772,"DIS_CODE":0,"TOWNNAME":"歸仁區","LI":"看西里","LIN":"4鄰","STREET":"仁愛南街","SECT":" ","MAREA":" ","LANE":"１０２巷","ALLEY":"９弄","HOUSE_NO":"６號","E_COORD97":178229.45000000001,"N_COORD97":2540347.29,"ADDRESS":"仁愛南街１０２巷９弄６號","OBJECTID":175771},"geometry":{"x":178229.45000000112,"y":2540347.290000001}},{"attributes":{"ID":175773,"DIS_CODE":0,"TOWNNAME":"歸仁區","LI":"看西里","LIN":"20鄰","STREET":"成功路","SECT":"二段","MAREA":" ","LANE":"６５巷","ALLEY":"５１弄","HOUSE_NO":"２６號","E_COORD97":178213.67999999999,"N_COORD97":2539843.1800000002,"ADDRESS":"成功路二段６５巷５１弄２６號","OBJECTID":175772},"geometry":{"x":178213.68000000063,"y":2539843.1800000016}},{"attributes":{"ID":175774,"DIS_CODE":0,"TOWNNAME":"歸仁區","LI":"看東里","LIN":"13鄰","STREET":"忠孝南路","SECT":" ","MAREA":" ","LANE":"２５巷","ALLEY":"２５弄","HOUSE_NO":"２號","E_COORD97":178602.29999999999,"N_COORD97":2540547.48,"ADDRESS":"忠孝南路２５巷２５弄２號","OBJECTID":175773},"geometry":{"x":178602.29999999981,"y":2540547.4800000023}},{"attributes":{"ID":175775,"DIS_CODE":0,"TOWNNAME":"歸仁區","LI":"南保里","LIN":"25鄰","STREET":"文化街","SECT":"三段","MAREA":" ","LANE":"１８５巷","ALLEY":"１弄","HOUSE_NO":"１１號","E_COORD97":176585.37,"N_COORD97":2541149.2599999998,"ADDRESS":"文化街三段１８５巷１弄１１號","OBJECTID":175774},"geometry":{"x":176585.37000000104,"y":2541149.2599999998}},{"attributes":{"ID":175776,"DIS_CODE":0,"TOWNNAME":"歸仁區","LI":"南保里","LIN":"25鄰","STREET":"文化街","SECT":"三段","MAREA":" ","LANE":"１８５巷","ALLEY":"１弄","HOUSE_NO":"７號","E_COORD97":176575.92000000001,"N_COORD97":2541149.2599999998,"ADDRESS":"文化街三段１８５巷１弄７號","OBJECTID":175775},"geometry":{"x":176575.91999999993,"y":2541149.2599999998}},{"attributes":{"ID":175777,"DIS_CODE":0,"TOWNNAME":"歸仁區","LI":"看西里","LIN":"20鄰","STREET":"成功路","SECT":"二段","MAREA":" ","LANE":"６５巷","ALLEY":"５１弄","HOUSE_NO":"３２號","E_COORD97":178202.48000000001,"N_COORD97":2539848.1800000002,"ADDRESS":"成功路二段６５巷５１弄３２號","OBJECTID":175776},"geometry":{"x":178202.48000000138,"y":2539848.1799999997}},{"attributes":{"ID":175778,"DIS_CODE":0,"TOWNNAME":"歸仁區","LI":"南保里","LIN":"25鄰","STREET":"文化街","SECT":"三段","MAREA":" ","LANE":"１８５巷","ALLEY":"１弄","HOUSE_NO":"２１號","E_COORD97":176606.87,"N_COORD97":2541148.2599999998,"ADDRESS":"文化街三段１８５巷１弄２１號","OBJECTID":175777},"geometry":{"x":176606.87000000011,"y":2541148.2600000016}},{"attributes":{"ID":175779,"DIS_CODE":0,"TOWNNAME":"南區","LI":"國宅里","LIN":"10鄰","STREET":"新興路","SECT":" ","MAREA":" ","LANE":" ","ALLEY":" ","HOUSE_NO":"３６８號五樓之１","E_COORD97":166888.51000000001,"N_COORD97":2541791.9500000002,"ADDRESS":"新興路３６８號五樓之１","OBJECTID":175778},"geometry":{"x":166888.50999999978,"y":2541791.9499999993}},{"attributes":{"ID":175780,"DIS_CODE":0,"TOWNNAME":"歸仁區","LI":"南保里","LIN":"13鄰","STREET":"文化十街","SECT":" ","MAREA":" ","LANE":"１０巷","ALLEY":"３弄","HOUSE_NO":"１４號","E_COORD97":176612.26999999999,"N_COORD97":2541309.2599999998,"ADDRESS":"文化十街１０巷３弄１４號","OBJECTID":175779},"geometry":{"x":176612.26999999862,"y":2541309.2599999998}},{"attributes":{"ID":175781,"DIS_CODE":0,"TOWNNAME":"南區","LI":"國宅里","LIN":"10鄰","STREET":"新興路","SECT":" ","MAREA":" ","LANE":" ","ALLEY":" ","HOUSE_NO":"３６８號五樓之４","E_COORD97":166888.51000000001,"N_COORD97":2541791.9500000002,"ADDRESS":"新興路３６８號五樓之４","OBJECTID":175780},"geometry":{"x":166888.50999999978,"y":2541791.9499999993}},{"attributes":{"ID":175782,"DIS_CODE":0,"TOWNNAME":"新化區","LI":"武安里","LIN":"10鄰","STREET":"和平街","SECT":" ","MAREA":" ","LANE":" ","ALLEY":" ","HOUSE_NO":"１３１號三樓之４","E_COORD97":178910.16,"N_COORD97":2548151.2599999998,"ADDRESS":"和平街１３１號三樓之４","OBJECTID":175781},"geometry":{"x":178910.16000000015,"y":2548151.2599999998}},{"attributes":{"ID":175783,"DIS_CODE":0,"TOWNNAME":"歸仁區","LI":"看西里","LIN":"20鄰","STREET":"成功路","SECT":"二段","MAREA":" ","LANE":"６５巷","ALLEY":"３９弄","HOUSE_NO":"２５號","E_COORD97":178177.97,"N_COORD97":2539859.3700000001,"ADDRESS":"成功路二段６５巷３９弄２５號","OBJECTID":175782},"geometry":{"x":178177.97000000067,"y":2539859.3700000048}},{"attributes":{"ID":175784,"DIS_CODE":0,"TOWNNAME":"東區","LI":"龍山里","LIN":"5鄰","STREET":"龍山街","SECT":" ","MAREA":" ","LANE":" ","ALLEY":" ","HOUSE_NO":"７９號","E_COORD97":170288.16,"N_COORD97":2542636.9199999999,"ADDRESS":"龍山街７９號","OBJECTID":175783},"geometry":{"x":170288.16000000015,"y":2542636.9199999999}},{"attributes":{"ID":175785,"DIS_CODE":0,"TOWNNAME":"新化區","LI":"武安里","LIN":"10鄰","STREET":"和平街","SECT":" ","MAREA":" ","LANE":" ","ALLEY":" ","HOUSE_NO":"１３１號七樓之５","E_COORD97":178910.17999999999,"N_COORD97":2548151.2599999998,"ADDRESS":"和平街１３１號七樓之５","OBJECTID":175784},"geometry":{"x":178910.18000000156,"y":2548151.2599999998}},{"attributes":{"ID":175786,"DIS_CODE":0,"TOWNNAME":"歸仁區","LI":"看西里","LIN":"20鄰","STREET":"成功路","SECT":"二段","MAREA":" ","LANE":"６５巷","ALLEY":"３９弄","HOUSE_NO":"７號","E_COORD97":178181.78,"N_COORD97":2539827.1899999999,"ADDRESS":"成功路二段６５巷３９弄７號","OBJECTID":175785},"geometry":{"x":178181.78000000119,"y":2539827.1899999995}},{"attributes":{"ID":175787,"DIS_CODE":0,"TOWNNAME":"歸仁區","LI":"南保里","LIN":"25鄰","STREET":"文化街","SECT":"三段","MAREA":" ","LANE":"１８５巷","ALLEY":"１弄","HOUSE_NO":"５號","E_COORD97":176571.82000000001,"N_COORD97":2541150.2599999998,"ADDRESS":"文化街三段１８５巷１弄５號","OBJECTID":175786},"geometry":{"x":176571.8200000003,"y":2541150.2599999998}},{"attributes":{"ID":175788,"DIS_CODE":0,"TOWNNAME":"歸仁區","LI":"南保里","LIN":"25鄰","STREET":"文化街","SECT":"三段","MAREA":" ","LANE":"１８５巷","ALLEY":"１弄","HOUSE_NO":"３號","E_COORD97":176567.72,"N_COORD97":2541150.2599999998,"ADDRESS":"文化街三段１８５巷１弄３號","OBJECTID":175787},"geometry":{"x":176567.72000000067,"y":2541150.2599999998}},{"attributes":{"ID":175789,"DIS_CODE":0,"TOWNNAME":"歸仁區","LI":"看西里","LIN":"4鄰","STREET":"仁愛南街","SECT":" ","MAREA":" ","LANE":"１０２巷","ALLEY":"９弄","HOUSE_NO":"３號","E_COORD97":178243.85000000001,"N_COORD97":2540357.29,"ADDRESS":"仁愛南街１０２巷９弄３號","OBJECTID":175788},"geometry":{"x":178243.84999999963,"y":2540357.290000001}},{"attributes":{"ID":175790,"DIS_CODE":0,"TOWNNAME":"歸仁區","LI":"南保里","LIN":"25鄰","STREET":"文化街","SECT":"三段","MAREA":" ","LANE":"１８５巷","ALLEY":"１弄","HOUSE_NO":"１號","E_COORD97":176563.62,"N_COORD97":2541150.2599999998,"ADDRESS":"文化街三段１８５巷１弄１號","OBJECTID":175789},"geometry":{"x":176563.62000000104,"y":2541150.2599999998}},{"attributes":{"ID":175791,"DIS_CODE":0,"TOWNNAME":"北區","LI":"力行里","LIN":"4鄰","STREET":"開南街","SECT":" ","MAREA":" ","LANE":"２７５巷","ALLEY":"２弄","HOUSE_NO":"７號","E_COORD97":170944.85000000001,"N_COORD97":2544927.3900000001,"ADDRESS":"開南街２７５巷２弄７號","OBJECTID":175790},"geometry":{"x":170944.85000000149,"y":2544927.3900000043}},{"attributes":{"ID":175792,"DIS_CODE":0,"TOWNNAME":"東區","LI":"裕聖里","LIN":"15鄰","STREET":"裕孝路","SECT":" ","MAREA":" ","LANE":" ","ALLEY":" ","HOUSE_NO":"３１９之１號","E_COORD97":172455.31,"N_COORD97":2542338.8199999998,"ADDRESS":"裕孝路３１９之１號","OBJECTID":175791},"geometry":{"x":172455.30999999959,"y":2542338.8200000022}},{"attributes":{"ID":175793,"DIS_CODE":0,"TOWNNAME":"北區","LI":"力行里","LIN":"4鄰","STREET":"開南街","SECT":" ","MAREA":" ","LANE":"２７５巷","ALLEY":"２弄","HOUSE_NO":"１號","E_COORD97":170935.01000000001,"N_COORD97":2544933.3900000001,"ADDRESS":"開南街２７５巷２弄１號","OBJECTID":175792},"geometry":{"x":170935.00999999978,"y":2544933.3900000006}},{"attributes":{"ID":175794,"DIS_CODE":0,"TOWNNAME":"北區","LI":"力行里","LIN":"4鄰","STREET":"開南街","SECT":" ","MAREA":" ","LANE":"２７５巷","ALLEY":"２弄","HOUSE_NO":"２號","E_COORD97":170929.47,"N_COORD97":2544924.9399999999,"ADDRESS":"開南街２７５巷２弄２號","OBJECTID":175793},"geometry":{"x":170929.47000000067,"y":2544924.9399999995}},{"attributes":{"ID":175795,"DIS_CODE":0,"TOWNNAME":"北區","LI":"力行里","LIN":"4鄰","STREET":"開南街","SECT":" ","MAREA":" ","LANE":"２７５巷","ALLEY":"２弄","HOUSE_NO":"３號","E_COORD97":170938.07999999999,"N_COORD97":2544931.54,"ADDRESS":"開南街２７５巷２弄３號","OBJECTID":175794},"geometry":{"x":170938.08000000007,"y":2544931.5400000028}},{"attributes":{"ID":175796,"DIS_CODE":0,"TOWNNAME":"東區","LI":"裕聖里","LIN":"15鄰","STREET":"裕孝路","SECT":" ","MAREA":" ","LANE":" ","ALLEY":" ","HOUSE_NO":"３１９之２號","E_COORD97":172460.79000000001,"N_COORD97":2542338.54,"ADDRESS":"裕孝路３１９之２號","OBJECTID":175795},"geometry":{"x":172460.79000000004,"y":2542338.540000001}},{"attributes":{"ID":175797,"DIS_CODE":0,"TOWNNAME":"新化區","LI":"\u25A0拔里","LIN":"10鄰","STREET":" ","SECT":" ","MAREA":"牧場","LANE":" ","ALLEY":" ","HOUSE_NO":"７０號之１三樓之５","E_COORD97":182084.79000000001,"N_COORD97":2551276.2599999998,"ADDRESS":"牧場７０號之１三樓之５","OBJECTID":175796},"geometry":{"x":182084.7900000019,"y":2551276.2599999998}},{"attributes":{"ID":175798,"DIS_CODE":0,"TOWNNAME":"新化區","LI":"\u25A0拔里","LIN":"10鄰","STREET":" ","SECT":" ","MAREA":"牧場","LANE":" ","ALLEY":" ","HOUSE_NO":"７０號之１三樓之８","E_COORD97":182084.79000000001,"N_COORD97":2551276.2599999998,"ADDRESS":"牧場７０號之１三樓之８","OBJECTID":175797},"geometry":{"x":182084.7900000019,"y":2551276.2599999998}},{"attributes":{"ID":175799,"DIS_CODE":0,"TOWNNAME":"白河區","LI":"河東里","LIN":"10鄰","STREET":" ","SECT":" ","MAREA":"糞箕湖","LANE":" ","ALLEY":" ","HOUSE_NO":"１３５之２０號一樓","E_COORD97":191054.31,"N_COORD97":2582616.5099999998,"ADDRESS":"糞箕湖１３５之２０號一樓","OBJECTID":175798},"geometry":{"x":191054.30999999959,"y":2582616.5100000035}},{"attributes":{"ID":175800,"DIS_CODE":0,"TOWNNAME":"白河區","LI":"河東里","LIN":"10鄰","STREET":" ","SECT":" ","MAREA":"糞箕湖","LANE":" ","ALLEY":" ","HOUSE_NO":"１３５之２０號二樓","E_COORD97":191054.31,"N_COORD97":2582616.5099999998,"ADDRESS":"糞箕湖１３５之２０號二樓","OBJECTID":175799},"geometry":{"x":191054.30999999959,"y":2582616.5100000035}},{"attributes":{"ID":175801,"DIS_CODE":0,"TOWNNAME":"白河區","LI":"河東里","LIN":"10鄰","STREET":" ","SECT":" ","MAREA":"糞箕湖","LANE":" ","ALLEY":" ","HOUSE_NO":"１３５之２１號三樓","E_COORD97":191056.66,"N_COORD97":2582624.3900000001,"ADDRESS":"糞箕湖１３５之２１號三樓","OBJECTID":175800},"geometry":{"x":191056.65999999922,"y":2582624.3900000006}}]}