{"displayFieldName":"TOWNNAME","fieldAliases":{"ID":"ID","DIS_CODE":"DIS_CODE","TOWNNAME":"TOWNNAME","LI":"LI","LIN":"LIN","STREET":"STREET","SECT":"SECT","MAREA":"MAREA","LANE":"LANE","ALLEY":"ALLEY","HOUSE_NO":"HOUSE_NO","E_COORD97":"E_COORD97","N_COORD97":"N_COORD97","ADDRESS":"ADDRESS","OBJECTID":"OBJECTID"},"geometryType":"esriGeometryPoint","spatialReference":{"wkid":102443,"latestWkid":3826},"fields":[{"name":"ID","type":"esriFieldTypeDouble","alias":"ID"},{"name":"DIS_CODE","type":"esriFieldTypeInteger","alias":"DIS_CODE"},{"name":"TOWNNAME","type":"esriFieldTypeString","alias":"TOWNNAME","length":8},{"name":"LI","type":"esriFieldTypeString","alias":"LI","length":8},{"name":"LIN","type":"esriFieldTypeString","alias":"LIN","length":12},{"name":"STREET","type":"esriFieldTypeString","alias":"STREET","length":20},{"name":"SECT","type":"esriFieldTypeString","alias":"SECT","length":8},{"name":"MAREA","type":"esriFieldTypeString","alias":"MAREA","length":12},{"name":"LANE","type":"esriFieldTypeString","alias":"LANE","length":10},{"name":"ALLEY","type":"esriFieldTypeString","alias":"ALLEY","length":10},{"name":"HOUSE_NO","type":"esriFieldTypeString","alias":"HOUSE_NO","length":20},{"name":"E_COORD97","type":"esriFieldTypeDouble","alias":"E_COORD97"},{"name":"N_COORD97","type":"esriFieldTypeDouble","alias":"N_COORD97"},{"name":"ADDRESS","type":"esriFieldTypeString","alias":"ADDRESS","length":50},{"name":"OBJECTID","type":"esriFieldTypeOID","alias":"OBJECTID"}],"features":[{"attributes":{"ID":63801,"DIS_CODE":0,"TOWNNAME":"永康區","LI":"永康里","LIN":"31鄰","STREET":"埔聖街","SECT":" ","MAREA":" ","LANE":"１７１巷","ALLEY":"１弄","HOUSE_NO":"３號","E_COORD97":174295.64999999999,"N_COORD97":2547684.2599999998,"ADDRESS":"埔聖街１７１巷１弄３號","OBJECTID":63801},"geometry":{"x":174295.6500000013,"y":2547684.2600000016}},{"attributes":{"ID":63802,"DIS_CODE":0,"TOWNNAME":"永康區","LI":"永康里","LIN":"31鄰","STREET":"埔聖街","SECT":" ","MAREA":" ","LANE":"１７１巷","ALLEY":"１弄","HOUSE_NO":"２號","E_COORD97":174302.17000000001,"N_COORD97":2547707.8999999999,"ADDRESS":"埔聖街１７１巷１弄２號","OBJECTID":63802},"geometry":{"x":174302.16999999993,"y":2547707.9000000022}},{"attributes":{"ID":63803,"DIS_CODE":0,"TOWNNAME":"永康區","LI":"西勢里","LIN":"31鄰","STREET":"富強路","SECT":"一段","MAREA":" ","LANE":"９３巷","ALLEY":"１０弄","HOUSE_NO":"６號","E_COORD97":175446.39999999999,"N_COORD97":2546245.0299999998,"ADDRESS":"富強路一段９３巷１０弄６號","OBJECTID":63803},"geometry":{"x":175446.4000000013,"y":2546245.0300000012}},{"attributes":{"ID":63804,"DIS_CODE":0,"TOWNNAME":"永康區","LI":"西勢里","LIN":"31鄰","STREET":"富強路","SECT":"一段","MAREA":" ","LANE":"９３巷","ALLEY":"１０弄","HOUSE_NO":"２２號","E_COORD97":175465.23999999999,"N_COORD97":2546275.77,"ADDRESS":"富強路一段９３巷１０弄２２號","OBJECTID":63804},"geometry":{"x":175465.24000000022,"y":2546275.7699999996}},{"attributes":{"ID":63805,"DIS_CODE":0,"TOWNNAME":"永康區","LI":"永康里","LIN":"31鄰","STREET":"聖龍街","SECT":" ","MAREA":" ","LANE":"１８６巷","ALLEY":"３弄","HOUSE_NO":"２２號","E_COORD97":174281.63,"N_COORD97":2547795.6499999999,"ADDRESS":"聖龍街１８６巷３弄２２號","OBJECTID":63805},"geometry":{"x":174281.63000000082,"y":2547795.6500000004}},{"attributes":{"ID":63806,"DIS_CODE":0,"TOWNNAME":"東山區","LI":"林安里","LIN":"8鄰","STREET":" ","SECT":" ","MAREA":"林安","LANE":" ","ALLEY":" ","HOUSE_NO":"６７號","E_COORD97":190965.07999999999,"N_COORD97":2575322.9199999999,"ADDRESS":"林安６７號","OBJECTID":63806},"geometry":{"x":190965.08000000007,"y":2575322.9200000018}},{"attributes":{"ID":63807,"DIS_CODE":0,"TOWNNAME":"永康區","LI":"永康里","LIN":"31鄰","STREET":"聖龍街","SECT":" ","MAREA":" ","LANE":"１８６巷","ALLEY":"３弄","HOUSE_NO":"５號","E_COORD97":174253.03,"N_COORD97":2547814.4100000001,"ADDRESS":"聖龍街１８６巷３弄５號","OBJECTID":63807},"geometry":{"x":174253.03000000026,"y":2547814.4100000001}},{"attributes":{"ID":63808,"DIS_CODE":0,"TOWNNAME":"永康區","LI":"正強里","LIN":"31鄰","STREET":"自強路","SECT":" ","MAREA":" ","LANE":"２５５巷","ALLEY":"４２弄","HOUSE_NO":"１號之２４","E_COORD97":173120.98999999999,"N_COORD97":2547625.29,"ADDRESS":"自強路２５５巷４２弄１號之２４","OBJECTID":63808},"geometry":{"x":173120.99000000022,"y":2547625.2900000028}},{"attributes":{"ID":63809,"DIS_CODE":0,"TOWNNAME":"永康區","LI":"永康里","LIN":"31鄰","STREET":"埔聖街","SECT":" ","MAREA":" ","LANE":"１７１巷","ALLEY":"１弄","HOUSE_NO":"１１號","E_COORD97":174280.06,"N_COORD97":2547686.7599999998,"ADDRESS":"埔聖街１７１巷１弄１１號","OBJECTID":63809},"geometry":{"x":174280.06000000052,"y":2547686.7599999998}},{"attributes":{"ID":63810,"DIS_CODE":0,"TOWNNAME":"永康區","LI":"正強里","LIN":"31鄰","STREET":"自強路","SECT":" ","MAREA":" ","LANE":"２５５巷","ALLEY":"４２弄","HOUSE_NO":"１號之２６","E_COORD97":173121.07000000001,"N_COORD97":2547625.29,"ADDRESS":"自強路２５５巷４２弄１號之２６","OBJECTID":63810},"geometry":{"x":173121.07000000123,"y":2547625.2900000028}},{"attributes":{"ID":63811,"DIS_CODE":0,"TOWNNAME":"新化區","LI":"清水里","LIN":"8鄰","STREET":"民治路","SECT":" ","MAREA":" ","LANE":" ","ALLEY":" ","HOUSE_NO":"２９６號之８","E_COORD97":178674.97,"N_COORD97":2548601.2599999998,"ADDRESS":"民治路２９６號之８","OBJECTID":63811},"geometry":{"x":178674.97000000067,"y":2548601.2599999998}},{"attributes":{"ID":63812,"DIS_CODE":0,"TOWNNAME":"東山區","LI":"林安里","LIN":"8鄰","STREET":" ","SECT":" ","MAREA":"林安","LANE":" ","ALLEY":" ","HOUSE_NO":"６８號","E_COORD97":190823.57000000001,"N_COORD97":2575522.4100000001,"ADDRESS":"林安６８號","OBJECTID":63812},"geometry":{"x":190823.57000000216,"y":2575522.410000002}},{"attributes":{"ID":63813,"DIS_CODE":0,"TOWNNAME":"東山區","LI":"林安里","LIN":"8鄰","STREET":" ","SECT":" ","MAREA":"林安","LANE":" ","ALLEY":" ","HOUSE_NO":"７０號","E_COORD97":191195.01999999999,"N_COORD97":2576438.5299999998,"ADDRESS":"林安７０號","OBJECTID":63813},"geometry":{"x":191195.02000000048,"y":2576438.5299999975}},{"attributes":{"ID":63814,"DIS_CODE":0,"TOWNNAME":"新化區","LI":"唪口里","LIN":"8鄰","STREET":" ","SECT":" ","MAREA":"唪口","LANE":" ","ALLEY":" ","HOUSE_NO":"９６號","E_COORD97":177964,"N_COORD97":2549077.25,"ADDRESS":"唪口９６號","OBJECTID":63814},"geometry":{"x":177964.00000000186,"y":2549077.25}},{"attributes":{"ID":63815,"DIS_CODE":0,"TOWNNAME":"永康區","LI":"正強里","LIN":"31鄰","STREET":"自強路","SECT":" ","MAREA":" ","LANE":"２５５巷","ALLEY":"２６弄","HOUSE_NO":"７號","E_COORD97":173173.35999999999,"N_COORD97":2547646.4900000002,"ADDRESS":"自強路２５５巷２６弄７號","OBJECTID":63815},"geometry":{"x":173173.36000000127,"y":2547646.4900000021}},{"attributes":{"ID":63816,"DIS_CODE":0,"TOWNNAME":"新化區","LI":"唪口里","LIN":"8鄰","STREET":" ","SECT":" ","MAREA":"唪口","LANE":" ","ALLEY":" ","HOUSE_NO":"９３號之１","E_COORD97":177941.42999999999,"N_COORD97":2549130.2599999998,"ADDRESS":"唪口９３號之１","OBJECTID":63816},"geometry":{"x":177941.4299999997,"y":2549130.2599999998}},{"attributes":{"ID":63817,"DIS_CODE":0,"TOWNNAME":"新化區","LI":"山\u25A0里","LIN":"8鄰","STREET":" ","SECT":" ","MAREA":"頂山\u25A0","LANE":" ","ALLEY":" ","HOUSE_NO":"１６４號","E_COORD97":179814.32999999999,"N_COORD97":2546758.25,"ADDRESS":"頂山\u25A0１６４號","OBJECTID":63817},"geometry":{"x":179814.33000000007,"y":2546758.25}},{"attributes":{"ID":63818,"DIS_CODE":0,"TOWNNAME":"永康區","LI":"西勢里","LIN":"31鄰","STREET":"富強路","SECT":"一段","MAREA":" ","LANE":"９３巷","ALLEY":"１０弄","HOUSE_NO":"２７號","E_COORD97":175456.51000000001,"N_COORD97":2546299.6899999999,"ADDRESS":"富強路一段９３巷１０弄２７號","OBJECTID":63818},"geometry":{"x":175456.51000000164,"y":2546299.6899999995}},{"attributes":{"ID":63819,"DIS_CODE":0,"TOWNNAME":"永康區","LI":"正強里","LIN":"31鄰","STREET":"自強路","SECT":" ","MAREA":" ","LANE":"２５５巷","ALLEY":"２６弄","HOUSE_NO":"１１號","E_COORD97":173173.10999999999,"N_COORD97":2547655.25,"ADDRESS":"自強路２５５巷２６弄１１號","OBJECTID":63819},"geometry":{"x":173173.1100000022,"y":2547655.2500000019}},{"attributes":{"ID":63820,"DIS_CODE":0,"TOWNNAME":"新化區","LI":"唪口里","LIN":"8鄰","STREET":" ","SECT":" ","MAREA":"唪口","LANE":" ","ALLEY":" ","HOUSE_NO":"９２號之６","E_COORD97":177955.04999999999,"N_COORD97":2549158.2599999998,"ADDRESS":"唪口９２號之６","OBJECTID":63820},"geometry":{"x":177955.05000000168,"y":2549158.2599999998}},{"attributes":{"ID":63821,"DIS_CODE":0,"TOWNNAME":"永康區","LI":"西勢里","LIN":"31鄰","STREET":"富強路","SECT":"一段","MAREA":" ","LANE":"９３巷","ALLEY":"１０弄","HOUSE_NO":"２０號","E_COORD97":175463.04999999999,"N_COORD97":2546271.77,"ADDRESS":"富強路一段９３巷１０弄２０號","OBJECTID":63821},"geometry":{"x":175463.05000000168,"y":2546271.7699999996}},{"attributes":{"ID":63822,"DIS_CODE":0,"TOWNNAME":"新化區","LI":"全興里","LIN":"8鄰","STREET":" ","SECT":" ","MAREA":"竹子\u25A0","LANE":" ","ALLEY":" ","HOUSE_NO":"１０１號之３","E_COORD97":177471.78,"N_COORD97":2547756.2599999998,"ADDRESS":"竹子\u25A0１０１號之３","OBJECTID":63822},"geometry":{"x":177471.78000000026,"y":2547756.2600000016}},{"attributes":{"ID":63823,"DIS_CODE":0,"TOWNNAME":"永康區","LI":"西勢里","LIN":"31鄰","STREET":"富強路","SECT":"一段","MAREA":" ","LANE":"９３巷","ALLEY":"１０弄","HOUSE_NO":"３號","E_COORD97":175428.04000000001,"N_COORD97":2546253.1899999999,"ADDRESS":"富強路一段９３巷１０弄３號","OBJECTID":63823},"geometry":{"x":175428.04000000097,"y":2546253.1900000032}},{"attributes":{"ID":63824,"DIS_CODE":0,"TOWNNAME":"仁德區","LI":"仁德里","LIN":"31鄰","STREET":"淨修街","SECT":" ","MAREA":" ","LANE":"１７５巷","ALLEY":"４７弄","HOUSE_NO":"１１號","E_COORD97":172046.39999999999,"N_COORD97":2541261.9399999999,"ADDRESS":"淨修街１７５巷４７弄１１號","OBJECTID":63824},"geometry":{"x":172046.40000000037,"y":2541261.9400000013}},{"attributes":{"ID":63825,"DIS_CODE":0,"TOWNNAME":"新化區","LI":"崙頂里","LIN":"8鄰","STREET":" ","SECT":" ","MAREA":"崙子頂","LANE":" ","ALLEY":" ","HOUSE_NO":"３３１號","E_COORD97":176730.63,"N_COORD97":2546895.25,"ADDRESS":"崙子頂３３１號","OBJECTID":63825},"geometry":{"x":176730.63000000175,"y":2546895.2500000019}},{"attributes":{"ID":63826,"DIS_CODE":0,"TOWNNAME":"新化區","LI":"山\u25A0里","LIN":"8鄰","STREET":" ","SECT":" ","MAREA":"頂山\u25A0","LANE":" ","ALLEY":" ","HOUSE_NO":"１８１號","E_COORD97":179760.42999999999,"N_COORD97":2546820.25,"ADDRESS":"頂山\u25A0１８１號","OBJECTID":63826},"geometry":{"x":179760.4299999997,"y":2546820.2500000019}},{"attributes":{"ID":63827,"DIS_CODE":0,"TOWNNAME":"新化區","LI":"大坑里","LIN":"8鄰","STREET":" ","SECT":" ","MAREA":"大坑尾","LANE":" ","ALLEY":" ","HOUSE_NO":"１８８號","E_COORD97":186426.53,"N_COORD97":2545531.25,"ADDRESS":"大坑尾１８８號","OBJECTID":63827},"geometry":{"x":186426.53000000212,"y":2545531.2500000037}},{"attributes":{"ID":63828,"DIS_CODE":0,"TOWNNAME":"永康區","LI":"西勢里","LIN":"31鄰","STREET":"富強路","SECT":"一段","MAREA":" ","LANE":"９３巷","ALLEY":"１０弄","HOUSE_NO":"９號","E_COORD97":175434.70999999999,"N_COORD97":2546264.6899999999,"ADDRESS":"富強路一段９３巷１０弄９號","OBJECTID":63828},"geometry":{"x":175434.70999999996,"y":2546264.6900000013}},{"attributes":{"ID":63829,"DIS_CODE":0,"TOWNNAME":"新化區","LI":"豐榮里","LIN":"8鄰","STREET":" ","SECT":" ","MAREA":"洋子","LANE":" ","ALLEY":" ","HOUSE_NO":"１１號之１","E_COORD97":178210.95999999999,"N_COORD97":2548316.2599999998,"ADDRESS":"洋子１１號之１","OBJECTID":63829},"geometry":{"x":178210.95999999996,"y":2548316.2599999998}},{"attributes":{"ID":63830,"DIS_CODE":0,"TOWNNAME":"新化區","LI":"全興里","LIN":"8鄰","STREET":" ","SECT":" ","MAREA":"竹子\u25A0","LANE":" ","ALLEY":" ","HOUSE_NO":"１０９號之２","E_COORD97":177499.19,"N_COORD97":2547725.2599999998,"ADDRESS":"竹子\u25A0１０９號之２","OBJECTID":63830},"geometry":{"x":177499.19000000134,"y":2547725.2600000016}},{"attributes":{"ID":63831,"DIS_CODE":0,"TOWNNAME":"新化區","LI":"礁坑里","LIN":"8鄰","STREET":" ","SECT":" ","MAREA":"三十六崙","LANE":" ","ALLEY":" ","HOUSE_NO":"５２號","E_COORD97":185147.92000000001,"N_COORD97":2549124.25,"ADDRESS":"三十六崙５２號","OBJECTID":63831},"geometry":{"x":185147.91999999993,"y":2549124.25}},{"attributes":{"ID":63832,"DIS_CODE":0,"TOWNNAME":"新化區","LI":"\u25A0拔里","LIN":"8鄰","STREET":" ","SECT":" ","MAREA":"\u25A0拔林","LANE":" ","ALLEY":" ","HOUSE_NO":"３１０號之５","E_COORD97":183515.78,"N_COORD97":2551909.2599999998,"ADDRESS":"\u25A0拔林３１０號之５","OBJECTID":63832},"geometry":{"x":183515.77999999933,"y":2551909.2600000016}},{"attributes":{"ID":63833,"DIS_CODE":0,"TOWNNAME":"永康區","LI":"永康里","LIN":"31鄰","STREET":"埔聖街","SECT":" ","MAREA":" ","LANE":"１７１巷","ALLEY":"１弄","HOUSE_NO":"７號","E_COORD97":174287.60999999999,"N_COORD97":2547685.5099999998,"ADDRESS":"埔聖街１７１巷１弄７號","OBJECTID":63833},"geometry":{"x":174287.61000000127,"y":2547685.5100000035}},{"attributes":{"ID":63834,"DIS_CODE":0,"TOWNNAME":"永康區","LI":"永康里","LIN":"31鄰","STREET":"埔聖街","SECT":" ","MAREA":" ","LANE":"１７１巷","ALLEY":"１弄","HOUSE_NO":"１２號","E_COORD97":174286.37,"N_COORD97":2547710.1499999999,"ADDRESS":"埔聖街１７１巷１弄１２號","OBJECTID":63834},"geometry":{"x":174286.36999999918,"y":2547710.1500000022}},{"attributes":{"ID":63835,"DIS_CODE":0,"TOWNNAME":"新化區","LI":"\u25A0拔里","LIN":"8鄰","STREET":" ","SECT":" ","MAREA":"\u25A0拔林","LANE":" ","ALLEY":" ","HOUSE_NO":"３２１號","E_COORD97":183455.12,"N_COORD97":2551840.25,"ADDRESS":"\u25A0拔林３２１號","OBJECTID":63835},"geometry":{"x":183455.12000000011,"y":2551840.25}},{"attributes":{"ID":63836,"DIS_CODE":0,"TOWNNAME":"永康區","LI":"西勢里","LIN":"31鄰","STREET":"富強路","SECT":"一段","MAREA":" ","LANE":"９３巷","ALLEY":"１０弄","HOUSE_NO":"１５號","E_COORD97":175443,"N_COORD97":2546276.6899999999,"ADDRESS":"富強路一段９３巷１０弄１５號","OBJECTID":63836},"geometry":{"x":175443,"y":2546276.6899999995}},{"attributes":{"ID":63837,"DIS_CODE":0,"TOWNNAME":"永康區","LI":"西勢里","LIN":"31鄰","STREET":"富強路","SECT":"一段","MAREA":" ","LANE":"９３巷","ALLEY":"１０弄","HOUSE_NO":"２６號","E_COORD97":175469.64999999999,"N_COORD97":2546283.52,"ADDRESS":"富強路一段９３巷１０弄２６號","OBJECTID":63837},"geometry":{"x":175469.64999999944,"y":2546283.5199999996}},{"attributes":{"ID":63838,"DIS_CODE":0,"TOWNNAME":"新化區","LI":"大坑里","LIN":"8鄰","STREET":" ","SECT":" ","MAREA":"大坑尾","LANE":" ","ALLEY":" ","HOUSE_NO":"１９９號","E_COORD97":186711.63,"N_COORD97":2545328.25,"ADDRESS":"大坑尾１９９號","OBJECTID":63838},"geometry":{"x":186711.62999999989,"y":2545328.2500000019}},{"attributes":{"ID":63839,"DIS_CODE":0,"TOWNNAME":"永康區","LI":"西勢里","LIN":"31鄰","STREET":"富強路","SECT":"一段","MAREA":" ","LANE":"９３巷","ALLEY":"１０弄","HOUSE_NO":"１４號","E_COORD97":175456.29000000001,"N_COORD97":2546260.52,"ADDRESS":"富強路一段９３巷１０弄１４號","OBJECTID":63839},"geometry":{"x":175456.29000000004,"y":2546260.5199999996}},{"attributes":{"ID":63840,"DIS_CODE":0,"TOWNNAME":"新化區","LI":"大坑里","LIN":"8鄰","STREET":" ","SECT":" ","MAREA":"大坑尾","LANE":" ","ALLEY":" ","HOUSE_NO":"１８５號","E_COORD97":186099.32999999999,"N_COORD97":2545418.25,"ADDRESS":"大坑尾１８５號","OBJECTID":63840},"geometry":{"x":186099.33000000101,"y":2545418.25}},{"attributes":{"ID":63841,"DIS_CODE":0,"TOWNNAME":"永康區","LI":"正強里","LIN":"31鄰","STREET":"自強路","SECT":" ","MAREA":" ","LANE":"２５５巷","ALLEY":"４２弄","HOUSE_NO":"１號之２５","E_COORD97":173121.12,"N_COORD97":2547625.29,"ADDRESS":"自強路２５５巷４２弄１號之２５","OBJECTID":63841},"geometry":{"x":173121.12000000011,"y":2547625.2900000028}},{"attributes":{"ID":63842,"DIS_CODE":0,"TOWNNAME":"永康區","LI":"正強里","LIN":"31鄰","STREET":"自強路","SECT":" ","MAREA":" ","LANE":"２５５巷","ALLEY":"４２弄","HOUSE_NO":"１號之２９","E_COORD97":173121.04999999999,"N_COORD97":2547625.29,"ADDRESS":"自強路２５５巷４２弄１號之２９","OBJECTID":63842},"geometry":{"x":173121.05000000075,"y":2547625.2900000028}},{"attributes":{"ID":63843,"DIS_CODE":0,"TOWNNAME":"永康區","LI":"永康里","LIN":"31鄰","STREET":"埔聖街","SECT":" ","MAREA":" ","LANE":"１７１巷","ALLEY":"１弄","HOUSE_NO":"１號","E_COORD97":174299.95000000001,"N_COORD97":2547683.7599999998,"ADDRESS":"埔聖街１７１巷１弄１號","OBJECTID":63843},"geometry":{"x":174299.95000000112,"y":2547683.7600000035}},{"attributes":{"ID":63844,"DIS_CODE":0,"TOWNNAME":"新化區","LI":"大坑里","LIN":"8鄰","STREET":" ","SECT":" ","MAREA":"大坑尾","LANE":" ","ALLEY":" ","HOUSE_NO":"１９９號之１","E_COORD97":186701.56,"N_COORD97":2545297.2599999998,"ADDRESS":"大坑尾１９９號之１","OBJECTID":63844},"geometry":{"x":186701.55999999959,"y":2545297.2600000035}},{"attributes":{"ID":63845,"DIS_CODE":0,"TOWNNAME":"新化區","LI":"\u25A0拔里","LIN":"8鄰","STREET":" ","SECT":" ","MAREA":"\u25A0拔林","LANE":" ","ALLEY":" ","HOUSE_NO":"３１４號","E_COORD97":183502.12,"N_COORD97":2551876.25,"ADDRESS":"\u25A0拔林３１４號","OBJECTID":63845},"geometry":{"x":183502.12000000104,"y":2551876.2500000019}},{"attributes":{"ID":63846,"DIS_CODE":0,"TOWNNAME":"永康區","LI":"永康里","LIN":"31鄰","STREET":"埔聖街","SECT":" ","MAREA":" ","LANE":"１７１巷","ALLEY":"１弄","HOUSE_NO":"６號","E_COORD97":174298.38,"N_COORD97":2547708.1499999999,"ADDRESS":"埔聖街１７１巷１弄６號","OBJECTID":63846},"geometry":{"x":174298.38000000082,"y":2547708.1500000004}},{"attributes":{"ID":63847,"DIS_CODE":0,"TOWNNAME":"永康區","LI":"永康里","LIN":"31鄰","STREET":"埔聖街","SECT":" ","MAREA":" ","LANE":"１７１巷","ALLEY":"１弄","HOUSE_NO":"９號","E_COORD97":174283.29000000001,"N_COORD97":2547686.0099999998,"ADDRESS":"埔聖街１７１巷１弄９號","OBJECTID":63847},"geometry":{"x":174283.29000000004,"y":2547686.0100000016}},{"attributes":{"ID":63848,"DIS_CODE":0,"TOWNNAME":"永康區","LI":"正強里","LIN":"31鄰","STREET":"自強路","SECT":" ","MAREA":" ","LANE":"２５５巷","ALLEY":"２６弄","HOUSE_NO":"９號","E_COORD97":173172.54999999999,"N_COORD97":2547650.75,"ADDRESS":"自強路２５５巷２６弄９號","OBJECTID":63848},"geometry":{"x":173172.54999999981,"y":2547650.7500000019}},{"attributes":{"ID":63849,"DIS_CODE":0,"TOWNNAME":"永康區","LI":"永康里","LIN":"31鄰","STREET":"聖龍街","SECT":" ","MAREA":" ","LANE":"１８６巷","ALLEY":"３弄","HOUSE_NO":"１８號","E_COORD97":174273.34,"N_COORD97":2547796.8999999999,"ADDRESS":"聖龍街１８６巷３弄１８號","OBJECTID":63849},"geometry":{"x":174273.34000000078,"y":2547796.9000000022}},{"attributes":{"ID":63850,"DIS_CODE":0,"TOWNNAME":"永康區","LI":"二王里","LIN":"31鄰","STREET":"中山南路","SECT":" ","MAREA":" ","LANE":"４９０巷","ALLEY":"７弄","HOUSE_NO":"３號","E_COORD97":172122.26999999999,"N_COORD97":2546412.7200000002,"ADDRESS":"中山南路４９０巷７弄３號","OBJECTID":63850},"geometry":{"x":172122.27000000048,"y":2546412.7200000007}},{"attributes":{"ID":63851,"DIS_CODE":0,"TOWNNAME":"新化區","LI":"\u25A0拔里","LIN":"8鄰","STREET":" ","SECT":" ","MAREA":"\u25A0拔林","LANE":" ","ALLEY":" ","HOUSE_NO":"３０４號","E_COORD97":183460.32000000001,"N_COORD97":2551921.25,"ADDRESS":"\u25A0拔林３０４號","OBJECTID":63851},"geometry":{"x":183460.32000000123,"y":2551921.25}},{"attributes":{"ID":63852,"DIS_CODE":0,"TOWNNAME":"新化區","LI":"\u25A0拔里","LIN":"8鄰","STREET":" ","SECT":" ","MAREA":"\u25A0拔林","LANE":" ","ALLEY":" ","HOUSE_NO":"３１０號之７","E_COORD97":183517.37,"N_COORD97":2551919.2599999998,"ADDRESS":"\u25A0拔林３１０號之７","OBJECTID":63852},"geometry":{"x":183517.37000000104,"y":2551919.2600000016}},{"attributes":{"ID":63853,"DIS_CODE":0,"TOWNNAME":"新化區","LI":"\u25A0拔里","LIN":"8鄰","STREET":" ","SECT":" ","MAREA":"\u25A0拔林","LANE":" ","ALLEY":" ","HOUSE_NO":"３１０號之４","E_COORD97":183515.16,"N_COORD97":2551905.2599999998,"ADDRESS":"\u25A0拔林３１０號之４","OBJECTID":63853},"geometry":{"x":183515.16000000108,"y":2551905.2600000016}},{"attributes":{"ID":63854,"DIS_CODE":0,"TOWNNAME":"新化區","LI":"\u25A0拔里","LIN":"8鄰","STREET":" ","SECT":" ","MAREA":"\u25A0拔林","LANE":" ","ALLEY":" ","HOUSE_NO":"２９９號","E_COORD97":183442.92000000001,"N_COORD97":2551947.25,"ADDRESS":"\u25A0拔林２９９號","OBJECTID":63854},"geometry":{"x":183442.91999999993,"y":2551947.2500000019}},{"attributes":{"ID":63855,"DIS_CODE":0,"TOWNNAME":"新化區","LI":"\u25A0拔里","LIN":"8鄰","STREET":" ","SECT":" ","MAREA":"\u25A0拔林","LANE":" ","ALLEY":" ","HOUSE_NO":"３１９號","E_COORD97":183473.51999999999,"N_COORD97":2551846.25,"ADDRESS":"\u25A0拔林３１９號","OBJECTID":63855},"geometry":{"x":183473.52000000048,"y":2551846.25}},{"attributes":{"ID":63856,"DIS_CODE":0,"TOWNNAME":"永康區","LI":"埔園里","LIN":"31鄰","STREET":"永大路","SECT":"三段","MAREA":" ","LANE":"４６９巷","ALLEY":"１６６弄","HOUSE_NO":"２３號","E_COORD97":173706.35999999999,"N_COORD97":2548854.7999999998,"ADDRESS":"永大路三段４６９巷１６６弄２３號","OBJECTID":63856},"geometry":{"x":173706.36000000034,"y":2548854.8000000026}},{"attributes":{"ID":63857,"DIS_CODE":0,"TOWNNAME":"永康區","LI":"西勢里","LIN":"31鄰","STREET":"富強路","SECT":"一段","MAREA":" ","LANE":"９３巷","ALLEY":"６弄","HOUSE_NO":"３０號","E_COORD97":175487.19,"N_COORD97":2546261.52,"ADDRESS":"富強路一段９３巷６弄３０號","OBJECTID":63857},"geometry":{"x":175487.19000000134,"y":2546261.5200000033}},{"attributes":{"ID":63858,"DIS_CODE":0,"TOWNNAME":"新化區","LI":"\u25A0拔里","LIN":"8鄰","STREET":" ","SECT":" ","MAREA":"\u25A0拔林","LANE":" ","ALLEY":" ","HOUSE_NO":"２８８號之１","E_COORD97":183496.35000000001,"N_COORD97":2551930.2599999998,"ADDRESS":"\u25A0拔林２８８號之１","OBJECTID":63858},"geometry":{"x":183496.35000000056,"y":2551930.2600000016}},{"attributes":{"ID":63859,"DIS_CODE":0,"TOWNNAME":"永康區","LI":"西灣里","LIN":"31鄰","STREET":"公園路","SECT":" ","MAREA":" ","LANE":"９３巷","ALLEY":"１２弄","HOUSE_NO":"１４號","E_COORD97":174215.78,"N_COORD97":2545870.71,"ADDRESS":"公園路９３巷１２弄１４號","OBJECTID":63859},"geometry":{"x":174215.78000000026,"y":2545870.7100000009}},{"attributes":{"ID":63860,"DIS_CODE":0,"TOWNNAME":"永康區","LI":"埔園里","LIN":"31鄰","STREET":"永大路","SECT":"三段","MAREA":" ","LANE":"４６９巷","ALLEY":"１６６弄","HOUSE_NO":"４７號","E_COORD97":173722.51999999999,"N_COORD97":2548886.5099999998,"ADDRESS":"永大路三段４６９巷１６６弄４７號","OBJECTID":63860},"geometry":{"x":173722.52000000048,"y":2548886.5100000016}},{"attributes":{"ID":63861,"DIS_CODE":0,"TOWNNAME":"永康區","LI":"西勢里","LIN":"31鄰","STREET":"富強路","SECT":"一段","MAREA":" ","LANE":"９３巷","ALLEY":"１０弄","HOUSE_NO":"２３號","E_COORD97":175451.89999999999,"N_COORD97":2546291.6899999999,"ADDRESS":"富強路一段９３巷１０弄２３號","OBJECTID":63861},"geometry":{"x":175451.9000000013,"y":2546291.6900000013}},{"attributes":{"ID":63862,"DIS_CODE":0,"TOWNNAME":"永康區","LI":"正強里","LIN":"31鄰","STREET":"自強路","SECT":" ","MAREA":" ","LANE":"２５５巷","ALLEY":"４２弄","HOUSE_NO":"１號之２１","E_COORD97":173120.95999999999,"N_COORD97":2547625.29,"ADDRESS":"自強路２５５巷４２弄１號之２１","OBJECTID":63862},"geometry":{"x":173120.95999999996,"y":2547625.2900000028}},{"attributes":{"ID":63863,"DIS_CODE":0,"TOWNNAME":"新化區","LI":"\u25A0拔里","LIN":"8鄰","STREET":" ","SECT":" ","MAREA":"\u25A0拔林","LANE":" ","ALLEY":" ","HOUSE_NO":"２９８號","E_COORD97":183447.42000000001,"N_COORD97":2551948.25,"ADDRESS":"\u25A0拔林２９８號","OBJECTID":63863},"geometry":{"x":183447.42000000086,"y":2551948.25}},{"attributes":{"ID":63864,"DIS_CODE":0,"TOWNNAME":"新化區","LI":"礁坑里","LIN":"8鄰","STREET":" ","SECT":" ","MAREA":"三十六崙","LANE":" ","ALLEY":" ","HOUSE_NO":"５４號","E_COORD97":185114.42000000001,"N_COORD97":2549062.25,"ADDRESS":"三十六崙５４號","OBJECTID":63864},"geometry":{"x":185114.41999999993,"y":2549062.2500000019}},{"attributes":{"ID":63865,"DIS_CODE":0,"TOWNNAME":"新化區","LI":"豐榮里","LIN":"8鄰","STREET":" ","SECT":" ","MAREA":"洋子","LANE":" ","ALLEY":" ","HOUSE_NO":"２４號之１","E_COORD97":178139.85999999999,"N_COORD97":2548244.2599999998,"ADDRESS":"洋子２４號之１","OBJECTID":63865},"geometry":{"x":178139.8599999994,"y":2548244.2600000016}},{"attributes":{"ID":63866,"DIS_CODE":0,"TOWNNAME":"新化區","LI":"\u25A0拔里","LIN":"8鄰","STREET":" ","SECT":" ","MAREA":"\u25A0拔林","LANE":" ","ALLEY":" ","HOUSE_NO":"３１０號之１","E_COORD97":183485.85000000001,"N_COORD97":2551884.2599999998,"ADDRESS":"\u25A0拔林３１０號之１","OBJECTID":63866},"geometry":{"x":183485.85000000149,"y":2551884.2599999998}},{"attributes":{"ID":63867,"DIS_CODE":0,"TOWNNAME":"新化區","LI":"山\u25A0里","LIN":"8鄰","STREET":" ","SECT":" ","MAREA":"頂山\u25A0","LANE":" ","ALLEY":" ","HOUSE_NO":"１６２號","E_COORD97":179819.82999999999,"N_COORD97":2546779.25,"ADDRESS":"頂山\u25A0１６２號","OBJECTID":63867},"geometry":{"x":179819.83000000194,"y":2546779.2500000019}},{"attributes":{"ID":63868,"DIS_CODE":0,"TOWNNAME":"永康區","LI":"建國里","LIN":"31鄰","STREET":"復興路","SECT":" ","MAREA":" ","LANE":"７１巷","ALLEY":"１１２弄","HOUSE_NO":"４０號","E_COORD97":172739.23000000001,"N_COORD97":2543669.0099999998,"ADDRESS":"復興路７１巷１１２弄４０號","OBJECTID":63868},"geometry":{"x":172739.23000000045,"y":2543669.0100000016}},{"attributes":{"ID":63869,"DIS_CODE":0,"TOWNNAME":"西港區","LI":"營西里","LIN":"1鄰","STREET":" ","SECT":" ","MAREA":"後營","LANE":" ","ALLEY":" ","HOUSE_NO":"４６２號之８","E_COORD97":169697.51999999999,"N_COORD97":2559371.6400000001,"ADDRESS":"後營４６２號之８","OBJECTID":63869},"geometry":{"x":169697.51999999955,"y":2559371.6400000006}},{"attributes":{"ID":63870,"DIS_CODE":0,"TOWNNAME":"永康區","LI":"建國里","LIN":"31鄰","STREET":"復興路","SECT":" ","MAREA":" ","LANE":"７１巷","ALLEY":"１１２弄","HOUSE_NO":"１９號","E_COORD97":172781.94,"N_COORD97":2543659.3799999999,"ADDRESS":"復興路７１巷１１２弄１９號","OBJECTID":63870},"geometry":{"x":172781.94000000041,"y":2543659.3800000008}},{"attributes":{"ID":63871,"DIS_CODE":0,"TOWNNAME":"永康區","LI":"建國里","LIN":"31鄰","STREET":"復興路","SECT":" ","MAREA":" ","LANE":"７１巷","ALLEY":"１１２弄","HOUSE_NO":"１７號","E_COORD97":172785.19,"N_COORD97":2543659.1299999999,"ADDRESS":"復興路７１巷１１２弄１７號","OBJECTID":63871},"geometry":{"x":172785.19000000134,"y":2543659.129999999}},{"attributes":{"ID":63872,"DIS_CODE":0,"TOWNNAME":"永康區","LI":"建國里","LIN":"31鄰","STREET":"復興路","SECT":" ","MAREA":" ","LANE":"７１巷","ALLEY":"１１２弄","HOUSE_NO":"２５號","E_COORD97":172771.32000000001,"N_COORD97":2543659.6299999999,"ADDRESS":"復興路７１巷１１２弄２５號","OBJECTID":63872},"geometry":{"x":172771.3200000003,"y":2543659.6300000027}},{"attributes":{"ID":63873,"DIS_CODE":0,"TOWNNAME":"新化區","LI":"全興里","LIN":"8鄰","STREET":" ","SECT":" ","MAREA":"竹子\u25A0","LANE":" ","ALLEY":" ","HOUSE_NO":"１０９號之５","E_COORD97":177524.29000000001,"N_COORD97":2547746.2599999998,"ADDRESS":"竹子\u25A0１０９號之５","OBJECTID":63873},"geometry":{"x":177524.29000000004,"y":2547746.2600000016}},{"attributes":{"ID":63874,"DIS_CODE":0,"TOWNNAME":"新化區","LI":"唪口里","LIN":"8鄰","STREET":"大德路","SECT":" ","MAREA":" ","LANE":" ","ALLEY":" ","HOUSE_NO":"１５３號","E_COORD97":177988.82999999999,"N_COORD97":2549321.25,"ADDRESS":"大德路１５３號","OBJECTID":63874},"geometry":{"x":177988.83000000007,"y":2549321.25}},{"attributes":{"ID":63875,"DIS_CODE":0,"TOWNNAME":"新化區","LI":"崙頂里","LIN":"8鄰","STREET":" ","SECT":" ","MAREA":"崙子頂","LANE":" ","ALLEY":" ","HOUSE_NO":"３１６號","E_COORD97":176703.63,"N_COORD97":2547004.25,"ADDRESS":"崙子頂３１６號","OBJECTID":63875},"geometry":{"x":176703.63000000175,"y":2547004.2500000019}},{"attributes":{"ID":63876,"DIS_CODE":0,"TOWNNAME":"永康區","LI":"建國里","LIN":"31鄰","STREET":"復興路","SECT":" ","MAREA":" ","LANE":"７１巷","ALLEY":"１１２弄","HOUSE_NO":"３８號","E_COORD97":172742.84,"N_COORD97":2543669.7599999998,"ADDRESS":"復興路７１巷１１２弄３８號","OBJECTID":63876},"geometry":{"x":172742.84000000078,"y":2543669.7600000035}},{"attributes":{"ID":63877,"DIS_CODE":0,"TOWNNAME":"永康區","LI":"建國里","LIN":"31鄰","STREET":"復興路","SECT":" ","MAREA":" ","LANE":"７１巷","ALLEY":"１１２弄","HOUSE_NO":"３４號","E_COORD97":172751.01999999999,"N_COORD97":2543671.4900000002,"ADDRESS":"復興路７１巷１１２弄３４號","OBJECTID":63877},"geometry":{"x":172751.02000000048,"y":2543671.4900000002}},{"attributes":{"ID":63878,"DIS_CODE":0,"TOWNNAME":"永康區","LI":"埔園里","LIN":"31鄰","STREET":"永大路","SECT":"三段","MAREA":" ","LANE":"４６９巷","ALLEY":"１６６弄","HOUSE_NO":"５５號","E_COORD97":173742.09,"N_COORD97":2548884.3599999999,"ADDRESS":"永大路三段４６９巷１６６弄５５號","OBJECTID":63878},"geometry":{"x":173742.08999999985,"y":2548884.3600000013}},{"attributes":{"ID":63879,"DIS_CODE":0,"TOWNNAME":"永康區","LI":"建國里","LIN":"31鄰","STREET":"復興路","SECT":" ","MAREA":" ","LANE":"７１巷","ALLEY":"１１２弄","HOUSE_NO":"１５號","E_COORD97":172788.57999999999,"N_COORD97":2543658.8900000001,"ADDRESS":"復興路７１巷１１２弄１５號","OBJECTID":63879},"geometry":{"x":172788.58000000101,"y":2543658.8900000006}},{"attributes":{"ID":63880,"DIS_CODE":0,"TOWNNAME":"永康區","LI":"建國里","LIN":"31鄰","STREET":"復興路","SECT":" ","MAREA":" ","LANE":"７１巷","ALLEY":"１１２弄","HOUSE_NO":"２８號","E_COORD97":172763.10999999999,"N_COORD97":2543669.2400000002,"ADDRESS":"復興路７１巷１１２弄２８號","OBJECTID":63880},"geometry":{"x":172763.11000000127,"y":2543669.2400000002}},{"attributes":{"ID":63881,"DIS_CODE":0,"TOWNNAME":"新化區","LI":"豐榮里","LIN":"8鄰","STREET":" ","SECT":" ","MAREA":"洋子","LANE":" ","ALLEY":" ","HOUSE_NO":"２８號之１","E_COORD97":178108.76000000001,"N_COORD97":2548308.2599999998,"ADDRESS":"洋子２８號之１","OBJECTID":63881},"geometry":{"x":178108.75999999978,"y":2548308.2600000016}},{"attributes":{"ID":63882,"DIS_CODE":0,"TOWNNAME":"永康區","LI":"建國里","LIN":"31鄰","STREET":"復興路","SECT":" ","MAREA":" ","LANE":"７１巷","ALLEY":"１１２弄","HOUSE_NO":"３５號","E_COORD97":172751.89000000001,"N_COORD97":2543660.1299999999,"ADDRESS":"復興路７１巷１１２弄３５號","OBJECTID":63882},"geometry":{"x":172751.8900000006,"y":2543660.1300000008}},{"attributes":{"ID":63883,"DIS_CODE":0,"TOWNNAME":"永康區","LI":"建國里","LIN":"31鄰","STREET":"復興路","SECT":" ","MAREA":" ","LANE":"７１巷","ALLEY":"１１２弄","HOUSE_NO":"１８號","E_COORD97":172781.75,"N_COORD97":2543669.2400000002,"ADDRESS":"復興路７１巷１１２弄１８號","OBJECTID":63883},"geometry":{"x":172781.74999999907,"y":2543669.2400000002}},{"attributes":{"ID":63884,"DIS_CODE":0,"TOWNNAME":"永康區","LI":"建國里","LIN":"31鄰","STREET":"復興路","SECT":" ","MAREA":" ","LANE":"７１巷","ALLEY":"１１２弄","HOUSE_NO":"３３號","E_COORD97":172757.32000000001,"N_COORD97":2543660.3799999999,"ADDRESS":"復興路７１巷１１２弄３３號","OBJECTID":63884},"geometry":{"x":172757.3200000003,"y":2543660.379999999}},{"attributes":{"ID":63885,"DIS_CODE":0,"TOWNNAME":"佳里區","LI":"安西里","LIN":"31鄰","STREET":"光華街","SECT":" ","MAREA":" ","LANE":"１３０巷","ALLEY":"４８弄","HOUSE_NO":"１８號","E_COORD97":165096.56,"N_COORD97":2562982.6600000001,"ADDRESS":"光華街１３０巷４８弄１８號","OBJECTID":63885},"geometry":{"x":165096.55999999959,"y":2562982.660000002}},{"attributes":{"ID":63886,"DIS_CODE":0,"TOWNNAME":"新市區","LI":"永就里","LIN":"8鄰","STREET":" ","SECT":" ","MAREA":"永就","LANE":" ","ALLEY":" ","HOUSE_NO":"８３之２號","E_COORD97":177599.79000000001,"N_COORD97":2551580.2999999998,"ADDRESS":"永就８３之２號","OBJECTID":63886},"geometry":{"x":177599.79000000097,"y":2551580.3000000045}},{"attributes":{"ID":63887,"DIS_CODE":0,"TOWNNAME":"西港區","LI":"慶安里","LIN":"31鄰","STREET":"中山路","SECT":" ","MAREA":" ","LANE":"２２９巷","ALLEY":"６弄","HOUSE_NO":"１０號","E_COORD97":168330.84,"N_COORD97":2557730.6899999999,"ADDRESS":"中山路２２９巷６弄１０號","OBJECTID":63887},"geometry":{"x":168330.83999999985,"y":2557730.6900000013}},{"attributes":{"ID":63888,"DIS_CODE":0,"TOWNNAME":"西港區","LI":"慶安里","LIN":"31鄰","STREET":"中山路","SECT":" ","MAREA":" ","LANE":"２２９巷","ALLEY":"６弄","HOUSE_NO":"１２號","E_COORD97":168331.54000000001,"N_COORD97":2557726.3900000001,"ADDRESS":"中山路２２９巷６弄１２號","OBJECTID":63888},"geometry":{"x":168331.54000000004,"y":2557726.3900000043}},{"attributes":{"ID":63889,"DIS_CODE":0,"TOWNNAME":"西港區","LI":"慶安里","LIN":"31鄰","STREET":"中山路","SECT":" ","MAREA":" ","LANE":"２２９巷","ALLEY":"６弄","HOUSE_NO":"１４號","E_COORD97":168332.37,"N_COORD97":2557722.0099999998,"ADDRESS":"中山路２２９巷６弄１４號","OBJECTID":63889},"geometry":{"x":168332.37000000011,"y":2557722.0100000016}},{"attributes":{"ID":63890,"DIS_CODE":0,"TOWNNAME":"西港區","LI":"慶安里","LIN":"31鄰","STREET":"中山路","SECT":" ","MAREA":" ","LANE":"２２９巷","ALLEY":"６弄","HOUSE_NO":"１６號","E_COORD97":168333.14000000001,"N_COORD97":2557717.6499999999,"ADDRESS":"中山路２２９巷６弄１６號","OBJECTID":63890},"geometry":{"x":168333.1400000006,"y":2557717.6500000022}},{"attributes":{"ID":63891,"DIS_CODE":0,"TOWNNAME":"西港區","LI":"慶安里","LIN":"31鄰","STREET":"中山路","SECT":" ","MAREA":" ","LANE":"２２９巷","ALLEY":"６弄","HOUSE_NO":"１８號","E_COORD97":168334.39999999999,"N_COORD97":2557713.3500000001,"ADDRESS":"中山路２２９巷６弄１８號","OBJECTID":63891},"geometry":{"x":168334.40000000037,"y":2557713.3500000015}},{"attributes":{"ID":63892,"DIS_CODE":0,"TOWNNAME":"西港區","LI":"慶安里","LIN":"31鄰","STREET":"中山路","SECT":" ","MAREA":" ","LANE":"２２９巷","ALLEY":"６弄","HOUSE_NO":"２０號","E_COORD97":168335.20000000001,"N_COORD97":2557708.3999999999,"ADDRESS":"中山路２２９巷６弄２０號","OBJECTID":63892},"geometry":{"x":168335.20000000019,"y":2557708.4000000004}},{"attributes":{"ID":63893,"DIS_CODE":0,"TOWNNAME":"西港區","LI":"慶安里","LIN":"31鄰","STREET":"中山路","SECT":" ","MAREA":" ","LANE":"２２９巷","ALLEY":"６弄","HOUSE_NO":"２號","E_COORD97":168326.97,"N_COORD97":2557748.02,"ADDRESS":"中山路２２９巷６弄２號","OBJECTID":63893},"geometry":{"x":168326.97000000067,"y":2557748.0200000033}},{"attributes":{"ID":63894,"DIS_CODE":0,"TOWNNAME":"西港區","LI":"慶安里","LIN":"31鄰","STREET":"中山路","SECT":" ","MAREA":" ","LANE":"２２９巷","ALLEY":"６弄","HOUSE_NO":"４號","E_COORD97":168327.85999999999,"N_COORD97":2557743.8300000001,"ADDRESS":"中山路２２９巷６弄４號","OBJECTID":63894},"geometry":{"x":168327.86000000034,"y":2557743.8300000019}},{"attributes":{"ID":63895,"DIS_CODE":0,"TOWNNAME":"新化區","LI":"豐榮里","LIN":"8鄰","STREET":" ","SECT":" ","MAREA":"洋子","LANE":" ","ALLEY":" ","HOUSE_NO":"１１號之８","E_COORD97":178179.98999999999,"N_COORD97":2548326.2599999998,"ADDRESS":"洋子１１號之８","OBJECTID":63895},"geometry":{"x":178179.99000000115,"y":2548326.2600000016}},{"attributes":{"ID":63896,"DIS_CODE":0,"TOWNNAME":"新化區","LI":"山\u25A0里","LIN":"8鄰","STREET":" ","SECT":" ","MAREA":"頂山\u25A0","LANE":" ","ALLEY":" ","HOUSE_NO":"１９５號","E_COORD97":179696.23000000001,"N_COORD97":2546936.25,"ADDRESS":"頂山\u25A0１９５號","OBJECTID":63896},"geometry":{"x":179696.23000000138,"y":2546936.2500000019}},{"attributes":{"ID":63897,"DIS_CODE":0,"TOWNNAME":"新化區","LI":"山\u25A0里","LIN":"8鄰","STREET":" ","SECT":" ","MAREA":"頂山\u25A0","LANE":" ","ALLEY":" ","HOUSE_NO":"１９７號","E_COORD97":179695.42999999999,"N_COORD97":2546942.25,"ADDRESS":"頂山\u25A0１９７號","OBJECTID":63897},"geometry":{"x":179695.43000000063,"y":2546942.2500000019}},{"attributes":{"ID":63898,"DIS_CODE":0,"TOWNNAME":"西港區","LI":"慶安里","LIN":"31鄰","STREET":"中山路","SECT":" ","MAREA":" ","LANE":"２２９巷","ALLEY":"６弄","HOUSE_NO":"６號","E_COORD97":168328.79000000001,"N_COORD97":2557739.3599999999,"ADDRESS":"中山路２２９巷６弄６號","OBJECTID":63898},"geometry":{"x":168328.79000000097,"y":2557739.3600000013}},{"attributes":{"ID":63899,"DIS_CODE":0,"TOWNNAME":"西港區","LI":"慶安里","LIN":"31鄰","STREET":"中山路","SECT":" ","MAREA":" ","LANE":"２２９巷","ALLEY":"６弄","HOUSE_NO":"８號","E_COORD97":168329.54000000001,"N_COORD97":2557735.1800000002,"ADDRESS":"中山路２２９巷６弄８號","OBJECTID":63899},"geometry":{"x":168329.54000000004,"y":2557735.1799999997}},{"attributes":{"ID":63900,"DIS_CODE":0,"TOWNNAME":"東區","LI":"忠孝里","LIN":"31鄰","STREET":"中華東路","SECT":"三段","MAREA":" ","LANE":"４５２巷","ALLEY":"８弄","HOUSE_NO":"３０號","E_COORD97":169988.57000000001,"N_COORD97":2541617.6099999999,"ADDRESS":"中華東路三段４５２巷８弄３０號","OBJECTID":63900},"geometry":{"x":169988.57000000123,"y":2541617.6099999994}},{"attributes":{"ID":63901,"DIS_CODE":0,"TOWNNAME":"東區","LI":"忠孝里","LIN":"31鄰","STREET":"中華東路","SECT":"三段","MAREA":" ","LANE":"４５２巷","ALLEY":"８弄","HOUSE_NO":"３２號","E_COORD97":169997.29000000001,"N_COORD97":2541619.4199999999,"ADDRESS":"中華東路三段４５２巷８弄３２號","OBJECTID":63901},"geometry":{"x":169997.29000000004,"y":2541619.4199999999}},{"attributes":{"ID":63902,"DIS_CODE":0,"TOWNNAME":"玉井區","LI":"豐里里","LIN":"8鄰","STREET":" ","SECT":" ","MAREA":"豐里","LANE":" ","ALLEY":" ","HOUSE_NO":"７４之１９號","E_COORD97":193542.63,"N_COORD97":2558829.1800000002,"ADDRESS":"豐里７４之１９號","OBJECTID":63902},"geometry":{"x":193542.63000000082,"y":2558829.1800000016}},{"attributes":{"ID":63903,"DIS_CODE":0,"TOWNNAME":"東區","LI":"忠孝里","LIN":"31鄰","STREET":"中華東路","SECT":"三段","MAREA":" ","LANE":"４５２巷","ALLEY":"８弄","HOUSE_NO":"３４號","E_COORD97":170004.73999999999,"N_COORD97":2541620.3300000001,"ADDRESS":"中華東路三段４５２巷８弄３４號","OBJECTID":63903},"geometry":{"x":170004.74000000022,"y":2541620.3300000001}},{"attributes":{"ID":63904,"DIS_CODE":0,"TOWNNAME":"東區","LI":"忠孝里","LIN":"31鄰","STREET":"中華東路","SECT":"三段","MAREA":" ","LANE":"４５２巷","ALLEY":"８弄","HOUSE_NO":"３６號","E_COORD97":170010.92000000001,"N_COORD97":2541621.6000000001,"ADDRESS":"中華東路三段４５２巷８弄３６號","OBJECTID":63904},"geometry":{"x":170010.92000000086,"y":2541621.5999999996}},{"attributes":{"ID":63905,"DIS_CODE":0,"TOWNNAME":"東區","LI":"忠孝里","LIN":"31鄰","STREET":"中華東路","SECT":"三段","MAREA":" ","LANE":"４５２巷","ALLEY":"８弄","HOUSE_NO":"４２號","E_COORD97":170023.64000000001,"N_COORD97":2541622.5099999998,"ADDRESS":"中華東路三段４５２巷８弄４２號","OBJECTID":63905},"geometry":{"x":170023.63999999966,"y":2541622.5099999998}},{"attributes":{"ID":63906,"DIS_CODE":0,"TOWNNAME":"新化區","LI":"\u25A0拔里","LIN":"8鄰","STREET":" ","SECT":" ","MAREA":"\u25A0拔林","LANE":" ","ALLEY":" ","HOUSE_NO":"３１１號","E_COORD97":183511.51999999999,"N_COORD97":2551886.25,"ADDRESS":"\u25A0拔林３１１號","OBJECTID":63906},"geometry":{"x":183511.51999999955,"y":2551886.2500000019}},{"attributes":{"ID":63907,"DIS_CODE":0,"TOWNNAME":"永康區","LI":"建國里","LIN":"31鄰","STREET":"復興路","SECT":" ","MAREA":" ","LANE":"７１巷","ALLEY":"１１２弄","HOUSE_NO":"２９號","E_COORD97":172764.23000000001,"N_COORD97":2543660.1299999999,"ADDRESS":"復興路７１巷１１２弄２９號","OBJECTID":63907},"geometry":{"x":172764.23000000138,"y":2543660.1300000008}},{"attributes":{"ID":63908,"DIS_CODE":0,"TOWNNAME":"新化區","LI":"山\u25A0里","LIN":"8鄰","STREET":" ","SECT":" ","MAREA":"頂山\u25A0","LANE":" ","ALLEY":" ","HOUSE_NO":"１號","E_COORD97":179670.23000000001,"N_COORD97":2546949.25,"ADDRESS":"頂山\u25A0１號","OBJECTID":63908},"geometry":{"x":179670.23000000138,"y":2546949.2500000019}},{"attributes":{"ID":63909,"DIS_CODE":0,"TOWNNAME":"新化區","LI":"崙頂里","LIN":"8鄰","STREET":" ","SECT":" ","MAREA":"崙子頂","LANE":" ","ALLEY":" ","HOUSE_NO":"３２６號","E_COORD97":176752.73000000001,"N_COORD97":2546907.25,"ADDRESS":"崙子頂３２６號","OBJECTID":63909},"geometry":{"x":176752.73000000138,"y":2546907.25}},{"attributes":{"ID":63910,"DIS_CODE":0,"TOWNNAME":"新化區","LI":"\u25A0拔里","LIN":"8鄰","STREET":" ","SECT":" ","MAREA":"\u25A0拔林","LANE":" ","ALLEY":" ","HOUSE_NO":"２８８號","E_COORD97":183504.42000000001,"N_COORD97":2551931.25,"ADDRESS":"\u25A0拔林２８８號","OBJECTID":63910},"geometry":{"x":183504.42000000179,"y":2551931.25}},{"attributes":{"ID":63911,"DIS_CODE":0,"TOWNNAME":"新化區","LI":"唪口里","LIN":"8鄰","STREET":" ","SECT":" ","MAREA":"唪口","LANE":" ","ALLEY":" ","HOUSE_NO":"９２號之１３","E_COORD97":177957.59,"N_COORD97":2549186.2599999998,"ADDRESS":"唪口９２號之１３","OBJECTID":63911},"geometry":{"x":177957.58999999985,"y":2549186.2600000016}},{"attributes":{"ID":63912,"DIS_CODE":0,"TOWNNAME":"新化區","LI":"唪口里","LIN":"8鄰","STREET":" ","SECT":" ","MAREA":"唪口","LANE":" ","ALLEY":" ","HOUSE_NO":"９２號之１２","E_COORD97":177957.29999999999,"N_COORD97":2549182.2599999998,"ADDRESS":"唪口９２號之１２","OBJECTID":63912},"geometry":{"x":177957.30000000075,"y":2549182.2599999979}},{"attributes":{"ID":63913,"DIS_CODE":0,"TOWNNAME":"永康區","LI":"埔園里","LIN":"31鄰","STREET":"永大路","SECT":"三段","MAREA":" ","LANE":"４６９巷","ALLEY":"１６６弄","HOUSE_NO":"５７號","E_COORD97":173747.85999999999,"N_COORD97":2548883.0099999998,"ADDRESS":"永大路三段４６９巷１６６弄５７號","OBJECTID":63913},"geometry":{"x":173747.86000000127,"y":2548883.0100000016}},{"attributes":{"ID":63914,"DIS_CODE":0,"TOWNNAME":"永康區","LI":"建國里","LIN":"31鄰","STREET":"復興路","SECT":" ","MAREA":" ","LANE":"７１巷","ALLEY":"１１２弄","HOUSE_NO":"４１號","E_COORD97":172732.10999999999,"N_COORD97":2543656.54,"ADDRESS":"復興路７１巷１１２弄４１號","OBJECTID":63914},"geometry":{"x":172732.11000000034,"y":2543656.5399999991}},{"attributes":{"ID":63915,"DIS_CODE":0,"TOWNNAME":"新化區","LI":"\u25A0拔里","LIN":"8鄰","STREET":" ","SECT":" ","MAREA":"\u25A0拔林","LANE":" ","ALLEY":" ","HOUSE_NO":"３２８號","E_COORD97":183455.82000000001,"N_COORD97":2551763.25,"ADDRESS":"\u25A0拔林３２８號","OBJECTID":63915},"geometry":{"x":183455.8200000003,"y":2551763.2500000019}},{"attributes":{"ID":63916,"DIS_CODE":0,"TOWNNAME":"永康區","LI":"建國里","LIN":"31鄰","STREET":"復興路","SECT":" ","MAREA":" ","LANE":"７１巷","ALLEY":"１１２弄","HOUSE_NO":"５５號","E_COORD97":172694.54999999999,"N_COORD97":2543651.04,"ADDRESS":"復興路７１巷１１２弄５５號","OBJECTID":63916},"geometry":{"x":172694.54999999981,"y":2543651.040000001}},{"attributes":{"ID":63917,"DIS_CODE":0,"TOWNNAME":"永康區","LI":"埔園里","LIN":"31鄰","STREET":"永大路","SECT":"三段","MAREA":" ","LANE":"４６９巷","ALLEY":"１６６弄","HOUSE_NO":"５１號","E_COORD97":173732.07999999999,"N_COORD97":2548885.0099999998,"ADDRESS":"永大路三段４６９巷１６６弄５１號","OBJECTID":63917},"geometry":{"x":173732.08000000007,"y":2548885.0099999998}},{"attributes":{"ID":63918,"DIS_CODE":0,"TOWNNAME":"永康區","LI":"建國里","LIN":"31鄰","STREET":"復興路","SECT":" ","MAREA":" ","LANE":"７１巷","ALLEY":"１１２弄","HOUSE_NO":"４７號","E_COORD97":172718.98999999999,"N_COORD97":2543654.54,"ADDRESS":"復興路７１巷１１２弄４７號","OBJECTID":63918},"geometry":{"x":172718.99000000022,"y":2543654.540000001}},{"attributes":{"ID":63919,"DIS_CODE":0,"TOWNNAME":"永康區","LI":"埔園里","LIN":"31鄰","STREET":"永大路","SECT":"三段","MAREA":" ","LANE":"４６９巷","ALLEY":"１６６弄","HOUSE_NO":"５３號","E_COORD97":173737.76999999999,"N_COORD97":2548884.5099999998,"ADDRESS":"永大路三段４６９巷１６６弄５３號","OBJECTID":63919},"geometry":{"x":173737.77000000048,"y":2548884.5099999998}},{"attributes":{"ID":63920,"DIS_CODE":0,"TOWNNAME":"新化區","LI":"山\u25A0里","LIN":"8鄰","STREET":" ","SECT":" ","MAREA":"頂山\u25A0","LANE":" ","ALLEY":" ","HOUSE_NO":"１６０號之１","E_COORD97":179813.56,"N_COORD97":2546801.2599999998,"ADDRESS":"頂山\u25A0１６０號之１","OBJECTID":63920},"geometry":{"x":179813.55999999959,"y":2546801.2599999998}},{"attributes":{"ID":63921,"DIS_CODE":0,"TOWNNAME":"新化區","LI":"全興里","LIN":"8鄰","STREET":" ","SECT":" ","MAREA":"竹子\u25A0","LANE":" ","ALLEY":" ","HOUSE_NO":"１０４號之２","E_COORD97":177482.59,"N_COORD97":2547753.2599999998,"ADDRESS":"竹子\u25A0１０４號之２","OBJECTID":63921},"geometry":{"x":177482.59000000078,"y":2547753.2600000016}},{"attributes":{"ID":63922,"DIS_CODE":0,"TOWNNAME":"新化區","LI":"山\u25A0里","LIN":"8鄰","STREET":" ","SECT":" ","MAREA":"頂山\u25A0","LANE":" ","ALLEY":" ","HOUSE_NO":"１６５號之１","E_COORD97":179815.66,"N_COORD97":2546708.2599999998,"ADDRESS":"頂山\u25A0１６５號之１","OBJECTID":63922},"geometry":{"x":179815.66000000015,"y":2546708.2600000016}},{"attributes":{"ID":63923,"DIS_CODE":0,"TOWNNAME":"新化區","LI":"\u25A0拔里","LIN":"8鄰","STREET":" ","SECT":" ","MAREA":"\u25A0拔林","LANE":" ","ALLEY":" ","HOUSE_NO":"３２４號","E_COORD97":183485.51999999999,"N_COORD97":2551795.25,"ADDRESS":"\u25A0拔林３２４號","OBJECTID":63923},"geometry":{"x":183485.51999999955,"y":2551795.25}},{"attributes":{"ID":63924,"DIS_CODE":0,"TOWNNAME":"新化區","LI":"唪口里","LIN":"8鄰","STREET":" ","SECT":" ","MAREA":"唪口","LANE":" ","ALLEY":" ","HOUSE_NO":"９２號之５","E_COORD97":177954.76000000001,"N_COORD97":2549154.2599999998,"ADDRESS":"唪口９２號之５","OBJECTID":63924},"geometry":{"x":177954.75999999978,"y":2549154.2599999998}},{"attributes":{"ID":63925,"DIS_CODE":0,"TOWNNAME":"新化區","LI":"唪口里","LIN":"8鄰","STREET":" ","SECT":" ","MAREA":"唪口","LANE":" ","ALLEY":" ","HOUSE_NO":"９９號","E_COORD97":177936.89999999999,"N_COORD97":2549022.25,"ADDRESS":"唪口９９號","OBJECTID":63925},"geometry":{"x":177936.9000000013,"y":2549022.25}},{"attributes":{"ID":63926,"DIS_CODE":0,"TOWNNAME":"新化區","LI":"大坑里","LIN":"8鄰","STREET":" ","SECT":" ","MAREA":"大坑尾","LANE":" ","ALLEY":" ","HOUSE_NO":"２０６號","E_COORD97":186081.73000000001,"N_COORD97":2545395.25,"ADDRESS":"大坑尾２０６號","OBJECTID":63926},"geometry":{"x":186081.73000000138,"y":2545395.25}},{"attributes":{"ID":63927,"DIS_CODE":0,"TOWNNAME":"歸仁區","LI":"看西里","LIN":"8鄰","STREET":"仁愛南街","SECT":" ","MAREA":" ","LANE":" ","ALLEY":" ","HOUSE_NO":"２５２號","E_COORD97":178235.07000000001,"N_COORD97":2540192.4900000002,"ADDRESS":"仁愛南街２５２號","OBJECTID":63927},"geometry":{"x":178235.07000000216,"y":2540192.4900000002}},{"attributes":{"ID":63928,"DIS_CODE":0,"TOWNNAME":"新化區","LI":"\u25A0拔里","LIN":"8鄰","STREET":" ","SECT":" ","MAREA":"\u25A0拔林","LANE":" ","ALLEY":" ","HOUSE_NO":"２８７號","E_COORD97":183512.92000000001,"N_COORD97":2551938.25,"ADDRESS":"\u25A0拔林２８７號","OBJECTID":63928},"geometry":{"x":183512.92000000179,"y":2551938.25}},{"attributes":{"ID":63929,"DIS_CODE":0,"TOWNNAME":"新化區","LI":"礁坑里","LIN":"8鄰","STREET":" ","SECT":" ","MAREA":"三十六崙","LANE":" ","ALLEY":" ","HOUSE_NO":"４７號","E_COORD97":185118.22,"N_COORD97":2549001.25,"ADDRESS":"三十六崙４７號","OBJECTID":63929},"geometry":{"x":185118.22000000067,"y":2549001.2500000019}},{"attributes":{"ID":63930,"DIS_CODE":0,"TOWNNAME":"西港區","LI":"營西里","LIN":"1鄰","STREET":" ","SECT":" ","MAREA":"後營","LANE":" ","ALLEY":" ","HOUSE_NO":"４５５號之６","E_COORD97":169575.56,"N_COORD97":2559569.46,"ADDRESS":"後營４５５號之６","OBJECTID":63930},"geometry":{"x":169575.56000000052,"y":2559569.4600000009}},{"attributes":{"ID":63931,"DIS_CODE":0,"TOWNNAME":"新化區","LI":"武安里","LIN":"8鄰","STREET":"信義路","SECT":" ","MAREA":" ","LANE":" ","ALLEY":" ","HOUSE_NO":"３１７號","E_COORD97":178903.32999999999,"N_COORD97":2548299.25,"ADDRESS":"信義路３１７號","OBJECTID":63931},"geometry":{"x":178903.33000000101,"y":2548299.2500000019}},{"attributes":{"ID":63932,"DIS_CODE":0,"TOWNNAME":"西港區","LI":"營西里","LIN":"1鄰","STREET":" ","SECT":" ","MAREA":"後營","LANE":" ","ALLEY":" ","HOUSE_NO":"４５５號","E_COORD97":169629.73000000001,"N_COORD97":2559596.8399999999,"ADDRESS":"後營４５５號","OBJECTID":63932},"geometry":{"x":169629.73000000138,"y":2559596.8399999999}},{"attributes":{"ID":63933,"DIS_CODE":0,"TOWNNAME":"西港區","LI":"營西里","LIN":"1鄰","STREET":" ","SECT":" ","MAREA":"後營","LANE":" ","ALLEY":" ","HOUSE_NO":"４６２號之１","E_COORD97":169643.47,"N_COORD97":2559443.7000000002,"ADDRESS":"後營４６２號之１","OBJECTID":63933},"geometry":{"x":169643.46999999974,"y":2559443.6999999993}},{"attributes":{"ID":63934,"DIS_CODE":0,"TOWNNAME":"西港區","LI":"營西里","LIN":"1鄰","STREET":" ","SECT":" ","MAREA":"後營","LANE":" ","ALLEY":" ","HOUSE_NO":"４６２號之２","E_COORD97":169671.16,"N_COORD97":2559543.6200000001,"ADDRESS":"後營４６２號之２","OBJECTID":63934},"geometry":{"x":169671.16000000015,"y":2559543.6200000029}},{"attributes":{"ID":63935,"DIS_CODE":0,"TOWNNAME":"西港區","LI":"營西里","LIN":"1鄰","STREET":" ","SECT":" ","MAREA":"後營","LANE":" ","ALLEY":" ","HOUSE_NO":"４６２號之３","E_COORD97":169715.70000000001,"N_COORD97":2559545.6099999999,"ADDRESS":"後營４６２號之３","OBJECTID":63935},"geometry":{"x":169715.69999999925,"y":2559545.6100000013}},{"attributes":{"ID":63936,"DIS_CODE":0,"TOWNNAME":"西港區","LI":"營西里","LIN":"1鄰","STREET":" ","SECT":" ","MAREA":"後營","LANE":" ","ALLEY":" ","HOUSE_NO":"４６２號之４","E_COORD97":169722.92999999999,"N_COORD97":2559541.6000000001,"ADDRESS":"後營４６２號之４","OBJECTID":63936},"geometry":{"x":169722.93000000063,"y":2559541.6000000015}},{"attributes":{"ID":63937,"DIS_CODE":0,"TOWNNAME":"善化區","LI":"嘉北里","LIN":"8鄰","STREET":" ","SECT":" ","MAREA":"茄拔","LANE":" ","ALLEY":" ","HOUSE_NO":"１８０號","E_COORD97":181122.42999999999,"N_COORD97":2560023.0099999998,"ADDRESS":"茄拔１８０號","OBJECTID":63937},"geometry":{"x":181122.43000000156,"y":2560023.0100000035}},{"attributes":{"ID":63938,"DIS_CODE":0,"TOWNNAME":"白河區","LI":"庄內里","LIN":"8鄰","STREET":" ","SECT":" ","MAREA":"客庄內","LANE":" ","ALLEY":" ","HOUSE_NO":"３之０號","E_COORD97":196660.5,"N_COORD97":2580580.75,"ADDRESS":"客庄內３之０號","OBJECTID":63938},"geometry":{"x":196660.50000000093,"y":2580580.7499999981}},{"attributes":{"ID":63939,"DIS_CODE":0,"TOWNNAME":"山上區","LI":"明和里","LIN":"8鄰","STREET":" ","SECT":" ","MAREA":"明和","LANE":" ","ALLEY":" ","HOUSE_NO":"１１６號","E_COORD97":183235.91,"N_COORD97":2556292.5099999998,"ADDRESS":"明和１１６號","OBJECTID":63939},"geometry":{"x":183235.91000000108,"y":2556292.5099999998}},{"attributes":{"ID":63940,"DIS_CODE":0,"TOWNNAME":"將軍區","LI":"三吉里","LIN":"8鄰","STREET":" ","SECT":" ","MAREA":"三吉","LANE":" ","ALLEY":" ","HOUSE_NO":"６０之１號","E_COORD97":161213.72,"N_COORD97":2566955.8500000001,"ADDRESS":"三吉６０之１號","OBJECTID":63940},"geometry":{"x":161213.71999999881,"y":2566955.8499999996}},{"attributes":{"ID":63941,"DIS_CODE":0,"TOWNNAME":"將軍區","LI":"三吉里","LIN":"8鄰","STREET":" ","SECT":" ","MAREA":"三吉","LANE":" ","ALLEY":" ","HOUSE_NO":"６０之２號","E_COORD97":161216.26000000001,"N_COORD97":2566963.8900000001,"ADDRESS":"三吉６０之２號","OBJECTID":63941},"geometry":{"x":161216.25999999978,"y":2566963.8900000006}},{"attributes":{"ID":63942,"DIS_CODE":0,"TOWNNAME":"將軍區","LI":"三吉里","LIN":"8鄰","STREET":" ","SECT":" ","MAREA":"三吉","LANE":" ","ALLEY":" ","HOUSE_NO":"６０之４號","E_COORD97":161214.35000000001,"N_COORD97":2566959.6600000001,"ADDRESS":"三吉６０之４號","OBJECTID":63942},"geometry":{"x":161214.34999999963,"y":2566959.660000002}},{"attributes":{"ID":63943,"DIS_CODE":0,"TOWNNAME":"將軍區","LI":"三吉里","LIN":"8鄰","STREET":" ","SECT":" ","MAREA":"三吉","LANE":" ","ALLEY":" ","HOUSE_NO":"６３號","E_COORD97":161149.54000000001,"N_COORD97":2566900.2599999998,"ADDRESS":"三吉６３號","OBJECTID":63943},"geometry":{"x":161149.54000000097,"y":2566900.2599999979}},{"attributes":{"ID":63944,"DIS_CODE":0,"TOWNNAME":"將軍區","LI":"三吉里","LIN":"8鄰","STREET":" ","SECT":" ","MAREA":"三吉","LANE":" ","ALLEY":" ","HOUSE_NO":"６６之１５號","E_COORD97":160916.12,"N_COORD97":2566339.6600000001,"ADDRESS":"三吉６６之１５號","OBJECTID":63944},"geometry":{"x":160916.12000000011,"y":2566339.660000002}},{"attributes":{"ID":63945,"DIS_CODE":0,"TOWNNAME":"將軍區","LI":"三吉里","LIN":"8鄰","STREET":" ","SECT":" ","MAREA":"三吉","LANE":" ","ALLEY":" ","HOUSE_NO":"６６之９號","E_COORD97":160891.35000000001,"N_COORD97":2566439.3199999998,"ADDRESS":"三吉６６之９號","OBJECTID":63945},"geometry":{"x":160891.35000000056,"y":2566439.3199999984}},{"attributes":{"ID":63946,"DIS_CODE":0,"TOWNNAME":"將軍區","LI":"三吉里","LIN":"8鄰","STREET":" ","SECT":" ","MAREA":"三吉","LANE":" ","ALLEY":" ","HOUSE_NO":"６６之３號","E_COORD97":160971.45999999999,"N_COORD97":2566426.2000000002,"ADDRESS":"三吉６６之３號","OBJECTID":63946},"geometry":{"x":160971.45999999996,"y":2566426.2000000011}},{"attributes":{"ID":63947,"DIS_CODE":0,"TOWNNAME":"將軍區","LI":"三吉里","LIN":"8鄰","STREET":" ","SECT":" ","MAREA":"三吉","LANE":" ","ALLEY":" ","HOUSE_NO":"６６之２號","E_COORD97":161001.54999999999,"N_COORD97":2566456.6800000002,"ADDRESS":"三吉６６之２號","OBJECTID":63947},"geometry":{"x":161001.55000000168,"y":2566456.6799999978}},{"attributes":{"ID":63948,"DIS_CODE":0,"TOWNNAME":"西港區","LI":"營西里","LIN":"1鄰","STREET":" ","SECT":" ","MAREA":"後營","LANE":" ","ALLEY":" ","HOUSE_NO":"４６２號","E_COORD97":169668.97,"N_COORD97":2559459.77,"ADDRESS":"後營４６２號","OBJECTID":63948},"geometry":{"x":169668.96999999974,"y":2559459.7700000014}},{"attributes":{"ID":63949,"DIS_CODE":0,"TOWNNAME":"永康區","LI":"埔園里","LIN":"31鄰","STREET":"永大路","SECT":"三段","MAREA":" ","LANE":"４６９巷","ALLEY":"１６６弄","HOUSE_NO":"４１號","E_COORD97":173712.57999999999,"N_COORD97":2548875.3300000001,"ADDRESS":"永大路三段４６９巷１６６弄４１號","OBJECTID":63949},"geometry":{"x":173712.58000000101,"y":2548875.3300000019}},{"attributes":{"ID":63950,"DIS_CODE":0,"TOWNNAME":"永康區","LI":"建國里","LIN":"31鄰","STREET":"復興路","SECT":" ","MAREA":" ","LANE":"７１巷","ALLEY":"１１２弄","HOUSE_NO":"２４號","E_COORD97":172770.25,"N_COORD97":2543668.9900000002,"ADDRESS":"復興路７１巷１１２弄２４號","OBJECTID":63950},"geometry":{"x":172770.25000000093,"y":2543668.9900000021}},{"attributes":{"ID":63951,"DIS_CODE":0,"TOWNNAME":"西港區","LI":"營西里","LIN":"1鄰","STREET":" ","SECT":" ","MAREA":"後營","LANE":" ","ALLEY":" ","HOUSE_NO":"４６９號","E_COORD97":169533,"N_COORD97":2559426.0099999998,"ADDRESS":"後營４６９號","OBJECTID":63951},"geometry":{"x":169533.00000000093,"y":2559426.0099999998}},{"attributes":{"ID":63952,"DIS_CODE":0,"TOWNNAME":"永康區","LI":"建國里","LIN":"31鄰","STREET":"復興路","SECT":" ","MAREA":" ","LANE":"７１巷","ALLEY":"１１２弄","HOUSE_NO":"２０號","E_COORD97":172777.98999999999,"N_COORD97":2543669.4900000002,"ADDRESS":"復興路７１巷１１２弄２０號","OBJECTID":63952},"geometry":{"x":172777.99000000022,"y":2543669.4900000021}},{"attributes":{"ID":63953,"DIS_CODE":0,"TOWNNAME":"西港區","LI":"營西里","LIN":"1鄰","STREET":" ","SECT":" ","MAREA":"後營","LANE":" ","ALLEY":" ","HOUSE_NO":"４７０號","E_COORD97":169592.29999999999,"N_COORD97":2559430.73,"ADDRESS":"後營４７０號","OBJECTID":63953},"geometry":{"x":169592.29999999981,"y":2559430.7300000023}},{"attributes":{"ID":63954,"DIS_CODE":0,"TOWNNAME":"永康區","LI":"建國里","LIN":"31鄰","STREET":"復興路","SECT":" ","MAREA":" ","LANE":"７１巷","ALLEY":"１１２弄","HOUSE_NO":"４２號","E_COORD97":172735.82000000001,"N_COORD97":2543668.5099999998,"ADDRESS":"復興路７１巷１１２弄４２號","OBJECTID":63954},"geometry":{"x":172735.81999999937,"y":2543668.5100000016}},{"attributes":{"ID":63955,"DIS_CODE":0,"TOWNNAME":"永康區","LI":"建國里","LIN":"31鄰","STREET":"復興路","SECT":" ","MAREA":" ","LANE":"７１巷","ALLEY":"１１２弄","HOUSE_NO":"５１號","E_COORD97":172707.14999999999,"N_COORD97":2543652.54,"ADDRESS":"復興路７１巷１１２弄５１號","OBJECTID":63955},"geometry":{"x":172707.1500000013,"y":2543652.5399999991}},{"attributes":{"ID":63956,"DIS_CODE":0,"TOWNNAME":"永康區","LI":"建國里","LIN":"31鄰","STREET":"復興路","SECT":" ","MAREA":" ","LANE":"７１巷","ALLEY":"１１２弄","HOUSE_NO":"２７號","E_COORD97":172767.82000000001,"N_COORD97":2543659.8799999999,"ADDRESS":"復興路７１巷１１２弄２７號","OBJECTID":63956},"geometry":{"x":172767.8200000003,"y":2543659.879999999}},{"attributes":{"ID":63957,"DIS_CODE":0,"TOWNNAME":"新化區","LI":"護國里","LIN":"8鄰","STREET":"信義路","SECT":" ","MAREA":" ","LANE":" ","ALLEY":" ","HOUSE_NO":"２號之９","E_COORD97":181637.98304299999,"N_COORD97":2548753.8811900001,"ADDRESS":"信義路２號之９","OBJECTID":63957},"geometry":{"x":181637.98304300103,"y":2548753.8811879996}},{"attributes":{"ID":63958,"DIS_CODE":0,"TOWNNAME":"西港區","LI":"營西里","LIN":"1鄰","STREET":" ","SECT":" ","MAREA":"後營","LANE":" ","ALLEY":" ","HOUSE_NO":"４７２號","E_COORD97":169580.13,"N_COORD97":2559407.0800000001,"ADDRESS":"後營４７２號","OBJECTID":63958},"geometry":{"x":169580.12999999989,"y":2559407.0800000019}},{"attributes":{"ID":63959,"DIS_CODE":0,"TOWNNAME":"新化區","LI":"護國里","LIN":"8鄰","STREET":"信義路","SECT":" ","MAREA":" ","LANE":" ","ALLEY":" ","HOUSE_NO":"２號之１０","E_COORD97":181649.69,"N_COORD97":2548754.0499999998,"ADDRESS":"信義路２號之１０","OBJECTID":63959},"geometry":{"x":181649.69000000041,"y":2548754.0499999989}},{"attributes":{"ID":63960,"DIS_CODE":0,"TOWNNAME":"永康區","LI":"建國里","LIN":"31鄰","STREET":"復興路","SECT":" ","MAREA":" ","LANE":"７１巷","ALLEY":"１１２弄","HOUSE_NO":"２３號","E_COORD97":172775.28,"N_COORD97":2543659.3799999999,"ADDRESS":"復興路７１巷１１２弄２３號","OBJECTID":63960},"geometry":{"x":172775.28000000119,"y":2543659.3800000008}},{"attributes":{"ID":63961,"DIS_CODE":0,"TOWNNAME":"仁德區","LI":"後壁里","LIN":" ","STREET":"德崙路","SECT":" ","MAREA":" ","LANE":" ","ALLEY":" ","HOUSE_NO":"５８號","E_COORD97":173329.54000000001,"N_COORD97":2538535.27,"ADDRESS":"德崙路５８號","OBJECTID":63961},"geometry":{"x":173329.54000000097,"y":2538535.2699999996}},{"attributes":{"ID":63962,"DIS_CODE":0,"TOWNNAME":"將軍區","LI":"三吉里","LIN":"8鄰","STREET":" ","SECT":" ","MAREA":"三吉","LANE":" ","ALLEY":" ","HOUSE_NO":"６６之４號","E_COORD97":161304.35999999999,"N_COORD97":2566384.71,"ADDRESS":"三吉６６之４號","OBJECTID":63962},"geometry":{"x":161304.36000000034,"y":2566384.7100000028}},{"attributes":{"ID":63963,"DIS_CODE":0,"TOWNNAME":"玉井區","LI":"望明里","LIN":"8鄰","STREET":" ","SECT":" ","MAREA":"公\u25A0","LANE":" ","ALLEY":" ","HOUSE_NO":"１號","E_COORD97":193769.51000000001,"N_COORD97":2556484.25,"ADDRESS":"公\u25A0１號","OBJECTID":63963},"geometry":{"x":193769.50999999978,"y":2556484.25}},{"attributes":{"ID":63964,"DIS_CODE":0,"TOWNNAME":"仁德區","LI":"仁義里","LIN":" ","STREET":"仁義六街","SECT":" ","MAREA":" ","LANE":" ","ALLEY":" ","HOUSE_NO":"１２０號","E_COORD97":173739.85000000001,"N_COORD97":2539912.27,"ADDRESS":"仁義六街１２０號","OBJECTID":63964},"geometry":{"x":173739.84999999963,"y":2539912.2699999996}},{"attributes":{"ID":63965,"DIS_CODE":0,"TOWNNAME":"永康區","LI":"建國里","LIN":"31鄰","STREET":"復興路","SECT":" ","MAREA":" ","LANE":"７１巷","ALLEY":"１１２弄","HOUSE_NO":"２２號","E_COORD97":172774.06,"N_COORD97":2543668.7400000002,"ADDRESS":"復興路７１巷１１２弄２２號","OBJECTID":63965},"geometry":{"x":172774.05999999959,"y":2543668.7400000002}},{"attributes":{"ID":63966,"DIS_CODE":0,"TOWNNAME":"仁德區","LI":"後壁里","LIN":" ","STREET":"德善路","SECT":" ","MAREA":" ","LANE":" ","ALLEY":" ","HOUSE_NO":"２６４號","E_COORD97":173919.10999999999,"N_COORD97":2538601.5099999998,"ADDRESS":"德善路２６４號","OBJECTID":63966},"geometry":{"x":173919.11000000127,"y":2538601.5099999998}},{"attributes":{"ID":63967,"DIS_CODE":0,"TOWNNAME":"仁德區","LI":"仁義里","LIN":" ","STREET":"正義二街","SECT":" ","MAREA":" ","LANE":" ","ALLEY":" ","HOUSE_NO":"８８之６號","E_COORD97":173638.87,"N_COORD97":2541568.2999999998,"ADDRESS":"正義二街８８之６號","OBJECTID":63967},"geometry":{"x":173638.87000000197,"y":2541568.3000000045}},{"attributes":{"ID":63968,"DIS_CODE":0,"TOWNNAME":"仁德區","LI":"仁義里","LIN":" ","STREET":"正義二街","SECT":" ","MAREA":" ","LANE":" ","ALLEY":" ","HOUSE_NO":"１號","E_COORD97":173431.92999999999,"N_COORD97":2541567.52,"ADDRESS":"正義二街１號","OBJECTID":63968},"geometry":{"x":173431.93000000063,"y":2541567.5199999996}},{"attributes":{"ID":63969,"DIS_CODE":0,"TOWNNAME":"仁德區","LI":"仁義里","LIN":" ","STREET":"正義二街","SECT":" ","MAREA":" ","LANE":" ","ALLEY":" ","HOUSE_NO":"９０之７號","E_COORD97":173666.20000000001,"N_COORD97":2541568.5499999998,"ADDRESS":"正義二街９０之７號","OBJECTID":63969},"geometry":{"x":173666.20000000112,"y":2541568.5500000007}},{"attributes":{"ID":63970,"DIS_CODE":0,"TOWNNAME":"西港區","LI":"西港里","LIN":" ","STREET":"中山路","SECT":" ","MAREA":" ","LANE":" ","ALLEY":" ","HOUSE_NO":"１１２號","E_COORD97":168474.29999999999,"N_COORD97":2557549.9900000002,"ADDRESS":"中山路１１２號","OBJECTID":63970},"geometry":{"x":168474.30000000075,"y":2557549.9900000021}},{"attributes":{"ID":63971,"DIS_CODE":0,"TOWNNAME":"永康區","LI":"建國里","LIN":"31鄰","STREET":"復興路","SECT":" ","MAREA":" ","LANE":"７１巷","ALLEY":"１１２弄","HOUSE_NO":"５６號","E_COORD97":172709.42999999999,"N_COORD97":2543660.8399999999,"ADDRESS":"復興路７１巷１１２弄５６號","OBJECTID":63971},"geometry":{"x":172709.43000000063,"y":2543660.8399999999}},{"attributes":{"ID":63972,"DIS_CODE":0,"TOWNNAME":"永康區","LI":"建國里","LIN":"31鄰","STREET":"復興路","SECT":" ","MAREA":" ","LANE":"７１巷","ALLEY":"１１２弄","HOUSE_NO":"３２號","E_COORD97":172754.95999999999,"N_COORD97":2543671.9900000002,"ADDRESS":"復興路７１巷１１２弄３２號","OBJECTID":63972},"geometry":{"x":172754.96000000183,"y":2543671.9900000039}},{"attributes":{"ID":63973,"DIS_CODE":0,"TOWNNAME":"仁德區","LI":"二行里","LIN":" ","STREET":"行大街","SECT":" ","MAREA":" ","LANE":" ","ALLEY":" ","HOUSE_NO":"２８號","E_COORD97":170316.82000000001,"N_COORD97":2535232.5,"ADDRESS":"行大街２８號","OBJECTID":63973},"geometry":{"x":170316.82000000216,"y":2535232.5}},{"attributes":{"ID":63974,"DIS_CODE":0,"TOWNNAME":"仁德區","LI":"大甲里","LIN":" ","STREET":"行大一街","SECT":" ","MAREA":" ","LANE":" ","ALLEY":" ","HOUSE_NO":"３３１號","E_COORD97":169549.79000000001,"N_COORD97":2535033.25,"ADDRESS":"行大一街３３１號","OBJECTID":63974},"geometry":{"x":169549.79000000004,"y":2535033.25}},{"attributes":{"ID":63975,"DIS_CODE":0,"TOWNNAME":"仁德區","LI":"一甲里","LIN":" ","STREET":"中正路","SECT":"三段","MAREA":" ","LANE":" ","ALLEY":" ","HOUSE_NO":"３４３號","E_COORD97":173783.54000000001,"N_COORD97":2542354.52,"ADDRESS":"中正路三段３４３號","OBJECTID":63975},"geometry":{"x":173783.5400000019,"y":2542354.5199999996}},{"attributes":{"ID":63976,"DIS_CODE":0,"TOWNNAME":"關廟區","LI":"田中里","LIN":"8鄰","STREET":"南雄南路","SECT":" ","MAREA":" ","LANE":" ","ALLEY":" ","HOUSE_NO":"６０３號","E_COORD97":183452.64000000001,"N_COORD97":2533749.2999999998,"ADDRESS":"南雄南路６０３號","OBJECTID":63976},"geometry":{"x":183452.63999999966,"y":2533749.3000000007}},{"attributes":{"ID":63977,"DIS_CODE":0,"TOWNNAME":"永康區","LI":"建國里","LIN":"31鄰","STREET":"復興路","SECT":" ","MAREA":" ","LANE":"７１巷","ALLEY":"１１２弄","HOUSE_NO":"３７號","E_COORD97":172742.01999999999,"N_COORD97":2543658.54,"ADDRESS":"復興路７１巷１１２弄３７號","OBJECTID":63977},"geometry":{"x":172742.01999999955,"y":2543658.540000001}},{"attributes":{"ID":63978,"DIS_CODE":0,"TOWNNAME":"新市區","LI":"大營里","LIN":"8鄰","STREET":" ","SECT":" ","MAREA":"大營","LANE":" ","ALLEY":" ","HOUSE_NO":"１７５之２號","E_COORD97":179479.73999999999,"N_COORD97":2555601.7999999998,"ADDRESS":"大營１７５之２號","OBJECTID":63978},"geometry":{"x":179479.73999999929,"y":2555601.8000000026}},{"attributes":{"ID":63979,"DIS_CODE":0,"TOWNNAME":"新市區","LI":"永就里","LIN":"8鄰","STREET":" ","SECT":" ","MAREA":"永就","LANE":" ","ALLEY":" ","HOUSE_NO":"８５之１號","E_COORD97":177556.95000000001,"N_COORD97":2551549.2999999998,"ADDRESS":"永就８５之１號","OBJECTID":63979},"geometry":{"x":177556.95000000019,"y":2551549.3000000007}},{"attributes":{"ID":63980,"DIS_CODE":0,"TOWNNAME":"新市區","LI":"永就里","LIN":"8鄰","STREET":" ","SECT":" ","MAREA":"永就","LANE":" ","ALLEY":" ","HOUSE_NO":"８５之３號","E_COORD97":177550.81,"N_COORD97":2551546.0499999998,"ADDRESS":"永就８５之３號","OBJECTID":63980},"geometry":{"x":177550.80999999959,"y":2551546.0500000026}},{"attributes":{"ID":63981,"DIS_CODE":0,"TOWNNAME":"新市區","LI":"永就里","LIN":"8鄰","STREET":" ","SECT":" ","MAREA":"永就","LANE":" ","ALLEY":" ","HOUSE_NO":"８１之１號","E_COORD97":177649.07000000001,"N_COORD97":2551566.7999999998,"ADDRESS":"永就８１之１號","OBJECTID":63981},"geometry":{"x":177649.07000000123,"y":2551566.8000000045}},{"attributes":{"ID":63982,"DIS_CODE":0,"TOWNNAME":"永康區","LI":"建國里","LIN":"31鄰","STREET":"復興路","SECT":" ","MAREA":" ","LANE":"７１巷","ALLEY":"１１２弄","HOUSE_NO":"４６號","E_COORD97":172729.23000000001,"N_COORD97":2543666.7599999998,"ADDRESS":"復興路７１巷１１２弄４６號","OBJECTID":63982},"geometry":{"x":172729.23000000045,"y":2543666.7600000016}},{"attributes":{"ID":63983,"DIS_CODE":0,"TOWNNAME":"永康區","LI":"建國里","LIN":"31鄰","STREET":"復興路","SECT":" ","MAREA":" ","LANE":"７１巷","ALLEY":"１１２弄","HOUSE_NO":"７１號","E_COORD97":172658.88,"N_COORD97":2543650.9300000002,"ADDRESS":"復興路７１巷１１２弄７１號","OBJECTID":63983},"geometry":{"x":172658.88000000175,"y":2543650.9299999997}},{"attributes":{"ID":63984,"DIS_CODE":0,"TOWNNAME":"永康區","LI":"建國里","LIN":"31鄰","STREET":"復興路","SECT":" ","MAREA":" ","LANE":"７１巷","ALLEY":"１１２弄","HOUSE_NO":"３０號","E_COORD97":172759.45000000001,"N_COORD97":2543669.4900000002,"ADDRESS":"復興路７１巷１１２弄３０號","OBJECTID":63984},"geometry":{"x":172759.45000000112,"y":2543669.4900000021}},{"attributes":{"ID":63985,"DIS_CODE":0,"TOWNNAME":"永康區","LI":"建國里","LIN":"31鄰","STREET":"復興路","SECT":" ","MAREA":" ","LANE":"７１巷","ALLEY":"１１２弄","HOUSE_NO":"５８號","E_COORD97":172619.16,"N_COORD97":2543648.25,"ADDRESS":"復興路７１巷１１２弄５８號","OBJECTID":63985},"geometry":{"x":172619.16000000015,"y":2543648.25}},{"attributes":{"ID":63986,"DIS_CODE":0,"TOWNNAME":"新市區","LI":"永就里","LIN":"8鄰","STREET":" ","SECT":" ","MAREA":"永就","LANE":" ","ALLEY":" ","HOUSE_NO":"８４之１０號","E_COORD97":177504.79000000001,"N_COORD97":2551622.2999999998,"ADDRESS":"永就８４之１０號","OBJECTID":63986},"geometry":{"x":177504.79000000097,"y":2551622.3000000026}},{"attributes":{"ID":63987,"DIS_CODE":0,"TOWNNAME":"新市區","LI":"永就里","LIN":"8鄰","STREET":" ","SECT":" ","MAREA":"永就","LANE":" ","ALLEY":" ","HOUSE_NO":"８７之３號","E_COORD97":177564.70999999999,"N_COORD97":2551522.7999999998,"ADDRESS":"永就８７之３號","OBJECTID":63987},"geometry":{"x":177564.71000000089,"y":2551522.8000000026}},{"attributes":{"ID":63988,"DIS_CODE":0,"TOWNNAME":"新市區","LI":"永就里","LIN":"8鄰","STREET":" ","SECT":" ","MAREA":"永就","LANE":" ","ALLEY":" ","HOUSE_NO":"８７之１號","E_COORD97":177539.10999999999,"N_COORD97":2551529.0499999998,"ADDRESS":"永就８７之１號","OBJECTID":63988},"geometry":{"x":177539.11000000034,"y":2551529.0500000026}},{"attributes":{"ID":63989,"DIS_CODE":0,"TOWNNAME":"南區","LI":"日新里","LIN":"8鄰","STREET":"金華路","SECT":"一段","MAREA":" ","LANE":" ","ALLEY":" ","HOUSE_NO":"４７７號","E_COORD97":167009.76999999999,"N_COORD97":2541612.3799999999,"ADDRESS":"金華路一段４７７號","OBJECTID":63989},"geometry":{"x":167009.77000000048,"y":2541612.379999999}},{"attributes":{"ID":63990,"DIS_CODE":0,"TOWNNAME":"南區","LI":"日新里","LIN":"8鄰","STREET":"金華路","SECT":"一段","MAREA":" ","LANE":" ","ALLEY":" ","HOUSE_NO":"４７９號","E_COORD97":167007.85000000001,"N_COORD97":2541617.8900000001,"ADDRESS":"金華路一段４７９號","OBJECTID":63990},"geometry":{"x":167007.84999999963,"y":2541617.8900000006}},{"attributes":{"ID":63991,"DIS_CODE":0,"TOWNNAME":"南區","LI":"日新里","LIN":"8鄰","STREET":"金華路","SECT":"一段","MAREA":" ","LANE":" ","ALLEY":" ","HOUSE_NO":"４８１號","E_COORD97":167010.23000000001,"N_COORD97":2541622.79,"ADDRESS":"金華路一段４８１號","OBJECTID":63991},"geometry":{"x":167010.22999999952,"y":2541622.7899999991}},{"attributes":{"ID":63992,"DIS_CODE":0,"TOWNNAME":"南區","LI":"日新里","LIN":"8鄰","STREET":"金華路","SECT":"一段","MAREA":" ","LANE":" ","ALLEY":" ","HOUSE_NO":"４８３號","E_COORD97":167010.69,"N_COORD97":2541628.5299999998,"ADDRESS":"金華路一段４８３號","OBJECTID":63992},"geometry":{"x":167010.69000000227,"y":2541628.5299999993}},{"attributes":{"ID":63993,"DIS_CODE":0,"TOWNNAME":"南區","LI":"日新里","LIN":"8鄰","STREET":"金華路","SECT":"一段","MAREA":" ","LANE":" ","ALLEY":" ","HOUSE_NO":"４８５號","E_COORD97":167010.60999999999,"N_COORD97":2541633.6299999999,"ADDRESS":"金華路一段４８５號","OBJECTID":63993},"geometry":{"x":167010.61000000034,"y":2541633.6300000008}},{"attributes":{"ID":63994,"DIS_CODE":0,"TOWNNAME":"南區","LI":"日新里","LIN":"8鄰","STREET":"金華路","SECT":"一段","MAREA":" ","LANE":" ","ALLEY":" ","HOUSE_NO":"４８７號","E_COORD97":167012.39999999999,"N_COORD97":2541641.5899999999,"ADDRESS":"金華路一段４８７號","OBJECTID":63994},"geometry":{"x":167012.39999999944,"y":2541641.5900000017}},{"attributes":{"ID":63995,"DIS_CODE":0,"TOWNNAME":"仁德區","LI":"後壁里","LIN":" ","STREET":"德洋路","SECT":" ","MAREA":" ","LANE":" ","ALLEY":" ","HOUSE_NO":"５９號","E_COORD97":173060.79000000001,"N_COORD97":2539058.77,"ADDRESS":"德洋路５９號","OBJECTID":63995},"geometry":{"x":173060.79000000004,"y":2539058.7700000014}},{"attributes":{"ID":63996,"DIS_CODE":0,"TOWNNAME":"仁德區","LI":"仁義里","LIN":" ","STREET":"正義二街","SECT":" ","MAREA":" ","LANE":" ","ALLEY":" ","HOUSE_NO":"９０之２號","E_COORD97":173687.28,"N_COORD97":2541571.2999999998,"ADDRESS":"正義二街９０之２號","OBJECTID":63996},"geometry":{"x":173687.28000000119,"y":2541571.3000000007}},{"attributes":{"ID":63997,"DIS_CODE":0,"TOWNNAME":"仁德區","LI":"一甲里","LIN":" ","STREET":"太乙五街","SECT":" ","MAREA":" ","LANE":" ","ALLEY":" ","HOUSE_NO":"３８號","E_COORD97":173215.73999999999,"N_COORD97":2542125.75,"ADDRESS":"太乙五街３８號","OBJECTID":63997},"geometry":{"x":173215.74000000022,"y":2542125.75}},{"attributes":{"ID":63998,"DIS_CODE":0,"TOWNNAME":"麻豆區","LI":"海埔里","LIN":"6鄰","STREET":" ","SECT":" ","MAREA":"莊禮寮","LANE":" ","ALLEY":" ","HOUSE_NO":"２號","E_COORD97":169388.85999999999,"N_COORD97":2566435.2400000002,"ADDRESS":"莊禮寮２號","OBJECTID":63998},"geometry":{"x":169388.86000000034,"y":2566435.2400000002}},{"attributes":{"ID":63999,"DIS_CODE":0,"TOWNNAME":"西港區","LI":"營西里","LIN":"1鄰","STREET":" ","SECT":" ","MAREA":"後營","LANE":" ","ALLEY":" ","HOUSE_NO":"４７５號之１","E_COORD97":169546.14999999999,"N_COORD97":2559351.6899999999,"ADDRESS":"後營４７５號之１","OBJECTID":63999},"geometry":{"x":169546.15000000037,"y":2559351.6900000013}},{"attributes":{"ID":64000,"DIS_CODE":0,"TOWNNAME":"西港區","LI":"營西里","LIN":"1鄰","STREET":" ","SECT":" ","MAREA":"後營","LANE":" ","ALLEY":" ","HOUSE_NO":"４７５號","E_COORD97":169561.92000000001,"N_COORD97":2559364.8300000001,"ADDRESS":"後營４７５號","OBJECTID":64000},"geometry":{"x":169561.92000000086,"y":2559364.8300000019}}]}