{"displayFieldName":"TOWNNAME","fieldAliases":{"ID":"ID","DIS_CODE":"DIS_CODE","TOWNNAME":"TOWNNAME","LI":"LI","LIN":"LIN","STREET":"STREET","SECT":"SECT","MAREA":"MAREA","LANE":"LANE","ALLEY":"ALLEY","HOUSE_NO":"HOUSE_NO","E_COORD97":"E_COORD97","N_COORD97":"N_COORD97","ADDRESS":"ADDRESS","OBJECTID":"OBJECTID"},"geometryType":"esriGeometryPoint","spatialReference":{"wkid":102443,"latestWkid":3826},"fields":[{"name":"ID","type":"esriFieldTypeDouble","alias":"ID"},{"name":"DIS_CODE","type":"esriFieldTypeInteger","alias":"DIS_CODE"},{"name":"TOWNNAME","type":"esriFieldTypeString","alias":"TOWNNAME","length":8},{"name":"LI","type":"esriFieldTypeString","alias":"LI","length":8},{"name":"LIN","type":"esriFieldTypeString","alias":"LIN","length":12},{"name":"STREET","type":"esriFieldTypeString","alias":"STREET","length":20},{"name":"SECT","type":"esriFieldTypeString","alias":"SECT","length":8},{"name":"MAREA","type":"esriFieldTypeString","alias":"MAREA","length":12},{"name":"LANE","type":"esriFieldTypeString","alias":"LANE","length":10},{"name":"ALLEY","type":"esriFieldTypeString","alias":"ALLEY","length":10},{"name":"HOUSE_NO","type":"esriFieldTypeString","alias":"HOUSE_NO","length":20},{"name":"E_COORD97","type":"esriFieldTypeDouble","alias":"E_COORD97"},{"name":"N_COORD97","type":"esriFieldTypeDouble","alias":"N_COORD97"},{"name":"ADDRESS","type":"esriFieldTypeString","alias":"ADDRESS","length":50},{"name":"OBJECTID","type":"esriFieldTypeOID","alias":"OBJECTID"}],"features":[{"attributes":{"ID":357410,"DIS_CODE":0,"TOWNNAME":"永康區","LI":"西灣里","LIN":"30鄰","STREET":"公園路","SECT":" ","MAREA":" ","LANE":"９３巷","ALLEY":" ","HOUSE_NO":"１７號五樓之２","E_COORD97":174263.29000000001,"N_COORD97":2545904.4199999999,"ADDRESS":"公園路９３巷１７號五樓之２","OBJECTID":357401},"geometry":{"x":174263.2900000019,"y":2545904.4200000018}},{"attributes":{"ID":357411,"DIS_CODE":0,"TOWNNAME":"西港區","LI":"西港里","LIN":"26鄰","STREET":" ","SECT":" ","MAREA":"堀子頭","LANE":" ","ALLEY":" ","HOUSE_NO":"４２號","E_COORD97":168683.51999999999,"N_COORD97":2557609.6400000001,"ADDRESS":"堀子頭４２號","OBJECTID":357402},"geometry":{"x":168683.51999999955,"y":2557609.6400000025}},{"attributes":{"ID":357412,"DIS_CODE":0,"TOWNNAME":"永康區","LI":"西灣里","LIN":"30鄰","STREET":"公園路","SECT":" ","MAREA":" ","LANE":"９３巷","ALLEY":" ","HOUSE_NO":"１７號四樓之１","E_COORD97":174263.14999999999,"N_COORD97":2545904.4199999999,"ADDRESS":"公園路９３巷１７號四樓之１","OBJECTID":357403},"geometry":{"x":174263.1500000013,"y":2545904.4200000018}},{"attributes":{"ID":357413,"DIS_CODE":0,"TOWNNAME":"永康區","LI":"埔園里","LIN":"24鄰","STREET":"中正路","SECT":" ","MAREA":" ","LANE":"１４８巷","ALLEY":" ","HOUSE_NO":"２號","E_COORD97":173572.12,"N_COORD97":2547936.7400000002,"ADDRESS":"中正路１４８巷２號","OBJECTID":357404},"geometry":{"x":173572.12000000011,"y":2547936.7400000021}},{"attributes":{"ID":357414,"DIS_CODE":0,"TOWNNAME":"永康區","LI":"埔園里","LIN":"30鄰","STREET":"龍埔街","SECT":" ","MAREA":" ","LANE":"４３０巷","ALLEY":" ","HOUSE_NO":"３號","E_COORD97":173949.84,"N_COORD97":2548366.73,"ADDRESS":"龍埔街４３０巷３號","OBJECTID":357405},"geometry":{"x":173949.84000000078,"y":2548366.7300000023}},{"attributes":{"ID":357415,"DIS_CODE":0,"TOWNNAME":"佳里區","LI":"建南里","LIN":"30鄰","STREET":"成功路","SECT":" ","MAREA":" ","LANE":"２１３巷","ALLEY":" ","HOUSE_NO":"９１號之１七樓之１","E_COORD97":165639.89000000001,"N_COORD97":2561082.2000000002,"ADDRESS":"成功路２１３巷９１號之１七樓之１","OBJECTID":357406},"geometry":{"x":165639.88999999966,"y":2561082.1999999993}},{"attributes":{"ID":357416,"DIS_CODE":0,"TOWNNAME":"佳里區","LI":"建南里","LIN":"30鄰","STREET":"成功路","SECT":" ","MAREA":" ","LANE":"２１３巷","ALLEY":" ","HOUSE_NO":"９１號之１七樓之２","E_COORD97":165639.89000000001,"N_COORD97":2561082.2000000002,"ADDRESS":"成功路２１３巷９１號之１七樓之２","OBJECTID":357407},"geometry":{"x":165639.88999999966,"y":2561082.1999999993}},{"attributes":{"ID":357417,"DIS_CODE":0,"TOWNNAME":"佳里區","LI":"建南里","LIN":"30鄰","STREET":"成功路","SECT":" ","MAREA":" ","LANE":"２１３巷","ALLEY":" ","HOUSE_NO":"９１號之１七樓之３","E_COORD97":165639.89000000001,"N_COORD97":2561082.2000000002,"ADDRESS":"成功路２１３巷９１號之１七樓之３","OBJECTID":357408},"geometry":{"x":165639.88999999966,"y":2561082.1999999993}},{"attributes":{"ID":357418,"DIS_CODE":0,"TOWNNAME":"佳里區","LI":"建南里","LIN":"30鄰","STREET":"成功路","SECT":" ","MAREA":" ","LANE":"２１３巷","ALLEY":" ","HOUSE_NO":"９１號之１二樓","E_COORD97":165639.89000000001,"N_COORD97":2561082.2000000002,"ADDRESS":"成功路２１３巷９１號之１二樓","OBJECTID":357409},"geometry":{"x":165639.88999999966,"y":2561082.1999999993}},{"attributes":{"ID":357419,"DIS_CODE":0,"TOWNNAME":"佳里區","LI":"建南里","LIN":"30鄰","STREET":"成功路","SECT":" ","MAREA":" ","LANE":"２１３巷","ALLEY":" ","HOUSE_NO":"９１號之１二樓。","E_COORD97":165639.89000000001,"N_COORD97":2561082.2000000002,"ADDRESS":"成功路２１３巷９１號之１二樓。","OBJECTID":357410},"geometry":{"x":165639.88999999966,"y":2561082.1999999993}},{"attributes":{"ID":357420,"DIS_CODE":0,"TOWNNAME":"佳里區","LI":"建南里","LIN":"30鄰","STREET":"成功路","SECT":" ","MAREA":" ","LANE":"２１３巷","ALLEY":" ","HOUSE_NO":"９１號之１三樓","E_COORD97":165639.89000000001,"N_COORD97":2561082.2000000002,"ADDRESS":"成功路２１３巷９１號之１三樓","OBJECTID":357411},"geometry":{"x":165639.88999999966,"y":2561082.1999999993}},{"attributes":{"ID":357421,"DIS_CODE":0,"TOWNNAME":"佳里區","LI":"建南里","LIN":"30鄰","STREET":"成功路","SECT":" ","MAREA":" ","LANE":"２１３巷","ALLEY":" ","HOUSE_NO":"９１號之１五樓之１","E_COORD97":165639.89000000001,"N_COORD97":2561082.2000000002,"ADDRESS":"成功路２１３巷９１號之１五樓之１","OBJECTID":357412},"geometry":{"x":165639.88999999966,"y":2561082.1999999993}},{"attributes":{"ID":357422,"DIS_CODE":0,"TOWNNAME":"佳里區","LI":"建南里","LIN":"30鄰","STREET":"成功路","SECT":" ","MAREA":" ","LANE":"２１３巷","ALLEY":" ","HOUSE_NO":"９１號之１五樓之２","E_COORD97":165639.89000000001,"N_COORD97":2561082.2000000002,"ADDRESS":"成功路２１３巷９１號之１五樓之２","OBJECTID":357413},"geometry":{"x":165639.88999999966,"y":2561082.1999999993}},{"attributes":{"ID":357423,"DIS_CODE":0,"TOWNNAME":"東區","LI":"自強里","LIN":"8鄰","STREET":"東門路","SECT":"三段","MAREA":" ","LANE":" ","ALLEY":" ","HOUSE_NO":"１５號十四樓","E_COORD97":171070.75,"N_COORD97":2542365.1800000002,"ADDRESS":"東門路三段１５號十四樓","OBJECTID":357414},"geometry":{"x":171070.75,"y":2542365.1800000016}},{"attributes":{"ID":357424,"DIS_CODE":0,"TOWNNAME":"東區","LI":"自強里","LIN":"8鄰","STREET":"東門路","SECT":"三段","MAREA":" ","LANE":" ","ALLEY":" ","HOUSE_NO":"１５號十四樓之１","E_COORD97":171070.75,"N_COORD97":2542365.1800000002,"ADDRESS":"東門路三段１５號十四樓之１","OBJECTID":357415},"geometry":{"x":171070.75,"y":2542365.1800000016}},{"attributes":{"ID":357425,"DIS_CODE":0,"TOWNNAME":"東區","LI":"自強里","LIN":"8鄰","STREET":"東門路","SECT":"三段","MAREA":" ","LANE":" ","ALLEY":" ","HOUSE_NO":"１５號十四樓之２","E_COORD97":171070.75,"N_COORD97":2542365.1800000002,"ADDRESS":"東門路三段１５號十四樓之２","OBJECTID":357416},"geometry":{"x":171070.75,"y":2542365.1800000016}},{"attributes":{"ID":357426,"DIS_CODE":0,"TOWNNAME":"東區","LI":"自強里","LIN":"8鄰","STREET":"東門路","SECT":"三段","MAREA":" ","LANE":" ","ALLEY":" ","HOUSE_NO":"１５號十四樓之３","E_COORD97":171070.75,"N_COORD97":2542365.1800000002,"ADDRESS":"東門路三段１５號十四樓之３","OBJECTID":357417},"geometry":{"x":171070.75,"y":2542365.1800000016}},{"attributes":{"ID":357427,"DIS_CODE":0,"TOWNNAME":"東區","LI":"自強里","LIN":"8鄰","STREET":"東門路","SECT":"三段","MAREA":" ","LANE":" ","ALLEY":" ","HOUSE_NO":"１５號十樓","E_COORD97":171070.75,"N_COORD97":2542365.1800000002,"ADDRESS":"東門路三段１５號十樓","OBJECTID":357418},"geometry":{"x":171070.75,"y":2542365.1800000016}},{"attributes":{"ID":357428,"DIS_CODE":0,"TOWNNAME":"東區","LI":"自強里","LIN":"8鄰","STREET":"東門路","SECT":"三段","MAREA":" ","LANE":" ","ALLEY":" ","HOUSE_NO":"１５號十樓之１","E_COORD97":171070.75,"N_COORD97":2542365.1800000002,"ADDRESS":"東門路三段１５號十樓之１","OBJECTID":357419},"geometry":{"x":171070.75,"y":2542365.1800000016}},{"attributes":{"ID":357429,"DIS_CODE":0,"TOWNNAME":"東區","LI":"自強里","LIN":"8鄰","STREET":"東門路","SECT":"三段","MAREA":" ","LANE":" ","ALLEY":" ","HOUSE_NO":"１５號十樓之２","E_COORD97":171070.75,"N_COORD97":2542365.1800000002,"ADDRESS":"東門路三段１５號十樓之２","OBJECTID":357420},"geometry":{"x":171070.75,"y":2542365.1800000016}},{"attributes":{"ID":357430,"DIS_CODE":0,"TOWNNAME":"東區","LI":"自強里","LIN":"8鄰","STREET":"東門路","SECT":"三段","MAREA":" ","LANE":" ","ALLEY":" ","HOUSE_NO":"１５號十樓之３","E_COORD97":171070.75,"N_COORD97":2542365.1800000002,"ADDRESS":"東門路三段１５號十樓之３","OBJECTID":357421},"geometry":{"x":171070.75,"y":2542365.1800000016}},{"attributes":{"ID":357431,"DIS_CODE":0,"TOWNNAME":"東區","LI":"自強里","LIN":"8鄰","STREET":"東門路","SECT":"三段","MAREA":" ","LANE":" ","ALLEY":" ","HOUSE_NO":"１５號三樓","E_COORD97":171070.75,"N_COORD97":2542365.1800000002,"ADDRESS":"東門路三段１５號三樓","OBJECTID":357422},"geometry":{"x":171070.75,"y":2542365.1800000016}},{"attributes":{"ID":357432,"DIS_CODE":0,"TOWNNAME":"東區","LI":"裕農里","LIN":"26鄰","STREET":"東寧路","SECT":" ","MAREA":" ","LANE":"５１０巷","ALLEY":" ","HOUSE_NO":"８１號","E_COORD97":170992.64999999999,"N_COORD97":2543234,"ADDRESS":"東寧路５１０巷８１號","OBJECTID":357423},"geometry":{"x":170992.65000000037,"y":2543234}},{"attributes":{"ID":357433,"DIS_CODE":0,"TOWNNAME":"東區","LI":"裕農里","LIN":"26鄰","STREET":"東寧路","SECT":" ","MAREA":" ","LANE":"５１０巷","ALLEY":" ","HOUSE_NO":"８３號","E_COORD97":170993.31,"N_COORD97":2543230.3700000001,"ADDRESS":"東寧路５１０巷８３號","OBJECTID":357424},"geometry":{"x":170993.31000000052,"y":2543230.3700000029}},{"attributes":{"ID":357434,"DIS_CODE":0,"TOWNNAME":"東區","LI":"裕農里","LIN":"26鄰","STREET":"東寧路","SECT":" ","MAREA":" ","LANE":"５１０巷","ALLEY":" ","HOUSE_NO":"９１號","E_COORD97":170979.10999999999,"N_COORD97":2543232.3500000001,"ADDRESS":"東寧路５１０巷９１號","OBJECTID":357425},"geometry":{"x":170979.11000000034,"y":2543232.3500000015}},{"attributes":{"ID":357435,"DIS_CODE":0,"TOWNNAME":"東區","LI":"裕農里","LIN":"26鄰","STREET":"東寧路","SECT":" ","MAREA":" ","LANE":"５１０巷","ALLEY":" ","HOUSE_NO":"９３號","E_COORD97":170978.44,"N_COORD97":2543235.98,"ADDRESS":"東寧路５１０巷９３號","OBJECTID":357426},"geometry":{"x":170978.44000000041,"y":2543235.9800000023}},{"attributes":{"ID":357436,"DIS_CODE":0,"TOWNNAME":"東區","LI":"裕農里","LIN":"26鄰","STREET":"東寧路","SECT":" ","MAREA":" ","LANE":"５１０巷","ALLEY":" ","HOUSE_NO":"９５號","E_COORD97":170978.44,"N_COORD97":2543240.6000000001,"ADDRESS":"東寧路５１０巷９５號","OBJECTID":357427},"geometry":{"x":170978.44000000041,"y":2543240.6000000015}},{"attributes":{"ID":357437,"DIS_CODE":0,"TOWNNAME":"東區","LI":"裕農里","LIN":"26鄰","STREET":"東寧路","SECT":" ","MAREA":" ","LANE":"５１０巷","ALLEY":" ","HOUSE_NO":"９９號","E_COORD97":170979.76999999999,"N_COORD97":2543252.4700000002,"ADDRESS":"東寧路５１０巷９９號","OBJECTID":357428},"geometry":{"x":170979.77000000048,"y":2543252.4700000025}},{"attributes":{"ID":357438,"DIS_CODE":0,"TOWNNAME":"佳里區","LI":"建南里","LIN":"30鄰","STREET":"成功路","SECT":" ","MAREA":" ","LANE":"２１３巷","ALLEY":" ","HOUSE_NO":"９１號之１五樓之３","E_COORD97":165639.89000000001,"N_COORD97":2561082.2000000002,"ADDRESS":"成功路２１３巷９１號之１五樓之３","OBJECTID":357429},"geometry":{"x":165639.88999999966,"y":2561082.1999999993}},{"attributes":{"ID":357439,"DIS_CODE":0,"TOWNNAME":"佳里區","LI":"建南里","LIN":"30鄰","STREET":"成功路","SECT":" ","MAREA":" ","LANE":"２１３巷","ALLEY":" ","HOUSE_NO":"９１號之１六樓之１","E_COORD97":165639.89000000001,"N_COORD97":2561082.2000000002,"ADDRESS":"成功路２１３巷９１號之１六樓之１","OBJECTID":357430},"geometry":{"x":165639.88999999966,"y":2561082.1999999993}},{"attributes":{"ID":357440,"DIS_CODE":0,"TOWNNAME":"東區","LI":"自強里","LIN":"8鄰","STREET":"東門路","SECT":"三段","MAREA":" ","LANE":" ","ALLEY":" ","HOUSE_NO":"１５號五樓之１","E_COORD97":171070.75,"N_COORD97":2542365.1800000002,"ADDRESS":"東門路三段１５號五樓之１","OBJECTID":357431},"geometry":{"x":171070.75,"y":2542365.1800000016}},{"attributes":{"ID":357441,"DIS_CODE":0,"TOWNNAME":"東區","LI":"自強里","LIN":"8鄰","STREET":"東門路","SECT":"三段","MAREA":" ","LANE":" ","ALLEY":" ","HOUSE_NO":"１５號六樓之１","E_COORD97":171070.75,"N_COORD97":2542365.1800000002,"ADDRESS":"東門路三段１５號六樓之１","OBJECTID":357432},"geometry":{"x":171070.75,"y":2542365.1800000016}},{"attributes":{"ID":357442,"DIS_CODE":0,"TOWNNAME":"西港區","LI":"西港里","LIN":"26鄰","STREET":" ","SECT":" ","MAREA":"堀子頭","LANE":" ","ALLEY":" ","HOUSE_NO":"４４號","E_COORD97":168669.34,"N_COORD97":2557597.27,"ADDRESS":"堀子頭４４號","OBJECTID":357433},"geometry":{"x":168669.34000000078,"y":2557597.2700000033}},{"attributes":{"ID":357443,"DIS_CODE":0,"TOWNNAME":"西港區","LI":"西港里","LIN":"26鄰","STREET":" ","SECT":" ","MAREA":"堀子頭","LANE":" ","ALLEY":" ","HOUSE_NO":"４５號之１","E_COORD97":168620.60000000001,"N_COORD97":2557581.2999999998,"ADDRESS":"堀子頭４５號之１","OBJECTID":357434},"geometry":{"x":168620.59999999963,"y":2557581.3000000045}},{"attributes":{"ID":357444,"DIS_CODE":0,"TOWNNAME":"西港區","LI":"西港里","LIN":"26鄰","STREET":" ","SECT":" ","MAREA":"堀子頭","LANE":" ","ALLEY":" ","HOUSE_NO":"４５號","E_COORD97":168629.19,"N_COORD97":2557573.5,"ADDRESS":"堀子頭４５號","OBJECTID":357435},"geometry":{"x":168629.19000000041,"y":2557573.5000000019}},{"attributes":{"ID":357445,"DIS_CODE":0,"TOWNNAME":"西港區","LI":"西港里","LIN":"26鄰","STREET":" ","SECT":" ","MAREA":"堀子頭","LANE":" ","ALLEY":" ","HOUSE_NO":"４６號","E_COORD97":168608.01000000001,"N_COORD97":2557562.25,"ADDRESS":"堀子頭４６號","OBJECTID":357436},"geometry":{"x":168608.01000000164,"y":2557562.25}},{"attributes":{"ID":357446,"DIS_CODE":0,"TOWNNAME":"西港區","LI":"西港里","LIN":"26鄰","STREET":" ","SECT":" ","MAREA":"堀子頭","LANE":" ","ALLEY":" ","HOUSE_NO":"４７號","E_COORD97":168630.64999999999,"N_COORD97":2557537.8199999998,"ADDRESS":"堀子頭４７號","OBJECTID":357437},"geometry":{"x":168630.65000000037,"y":2557537.8200000022}},{"attributes":{"ID":357447,"DIS_CODE":0,"TOWNNAME":"西港區","LI":"西港里","LIN":"26鄰","STREET":" ","SECT":" ","MAREA":"堀子頭","LANE":" ","ALLEY":" ","HOUSE_NO":"４８號","E_COORD97":168639.73999999999,"N_COORD97":2557537.9100000001,"ADDRESS":"堀子頭４８號","OBJECTID":357438},"geometry":{"x":168639.74000000115,"y":2557537.9100000001}},{"attributes":{"ID":357448,"DIS_CODE":0,"TOWNNAME":"西港區","LI":"西港里","LIN":"26鄰","STREET":" ","SECT":" ","MAREA":"堀子頭","LANE":" ","ALLEY":" ","HOUSE_NO":"４９號","E_COORD97":168649.13,"N_COORD97":2557540.5600000001,"ADDRESS":"堀子頭４９號","OBJECTID":357439},"geometry":{"x":168649.12999999989,"y":2557540.5600000005}},{"attributes":{"ID":357449,"DIS_CODE":0,"TOWNNAME":"東區","LI":"自強里","LIN":"8鄰","STREET":"東門路","SECT":"三段","MAREA":" ","LANE":" ","ALLEY":" ","HOUSE_NO":"１５號四樓","E_COORD97":171070.75,"N_COORD97":2542365.1800000002,"ADDRESS":"東門路三段１５號四樓","OBJECTID":357440},"geometry":{"x":171070.75,"y":2542365.1800000016}},{"attributes":{"ID":357450,"DIS_CODE":0,"TOWNNAME":"東區","LI":"自強里","LIN":"8鄰","STREET":"東門路","SECT":"三段","MAREA":" ","LANE":" ","ALLEY":" ","HOUSE_NO":"１５號四樓之１","E_COORD97":171070.75,"N_COORD97":2542365.1800000002,"ADDRESS":"東門路三段１５號四樓之１","OBJECTID":357441},"geometry":{"x":171070.75,"y":2542365.1800000016}},{"attributes":{"ID":357451,"DIS_CODE":0,"TOWNNAME":"麻豆區","LI":"南勢里","LIN":"26鄰","STREET":" ","SECT":" ","MAREA":"南勢","LANE":" ","ALLEY":" ","HOUSE_NO":"１０４號之１","E_COORD97":175011.98999999999,"N_COORD97":2564844.4300000002,"ADDRESS":"南勢１０４號之１","OBJECTID":357442},"geometry":{"x":175011.99000000115,"y":2564844.4299999997}},{"attributes":{"ID":357452,"DIS_CODE":0,"TOWNNAME":"東區","LI":"自強里","LIN":"8鄰","STREET":"東門路","SECT":"三段","MAREA":" ","LANE":" ","ALLEY":" ","HOUSE_NO":"１５號四樓之２","E_COORD97":171070.75,"N_COORD97":2542365.1800000002,"ADDRESS":"東門路三段１５號四樓之２","OBJECTID":357443},"geometry":{"x":171070.75,"y":2542365.1800000016}},{"attributes":{"ID":357453,"DIS_CODE":0,"TOWNNAME":"東區","LI":"自強里","LIN":"8鄰","STREET":"東門路","SECT":"三段","MAREA":" ","LANE":" ","ALLEY":" ","HOUSE_NO":"３１號七樓","E_COORD97":171106.04000000001,"N_COORD97":2542333.8300000001,"ADDRESS":"東門路三段３１號七樓","OBJECTID":357444},"geometry":{"x":171106.04000000004,"y":2542333.8300000038}},{"attributes":{"ID":357454,"DIS_CODE":0,"TOWNNAME":"佳里區","LI":"建南里","LIN":"30鄰","STREET":"成功路","SECT":" ","MAREA":" ","LANE":"２１３巷","ALLEY":" ","HOUSE_NO":"９１號之１六樓之２","E_COORD97":165639.89000000001,"N_COORD97":2561082.2000000002,"ADDRESS":"成功路２１３巷９１號之１六樓之２","OBJECTID":357445},"geometry":{"x":165639.88999999966,"y":2561082.1999999993}},{"attributes":{"ID":357455,"DIS_CODE":0,"TOWNNAME":"佳里區","LI":"建南里","LIN":"30鄰","STREET":"成功路","SECT":" ","MAREA":" ","LANE":"２１３巷","ALLEY":" ","HOUSE_NO":"９１號之１六樓之３","E_COORD97":165639.89000000001,"N_COORD97":2561082.2000000002,"ADDRESS":"成功路２１３巷９１號之１六樓之３","OBJECTID":357446},"geometry":{"x":165639.88999999966,"y":2561082.1999999993}},{"attributes":{"ID":357456,"DIS_CODE":0,"TOWNNAME":"佳里區","LI":"建南里","LIN":"30鄰","STREET":"成功路","SECT":" ","MAREA":" ","LANE":"２１３巷","ALLEY":" ","HOUSE_NO":"９１號之１四樓之１","E_COORD97":165639.89000000001,"N_COORD97":2561082.2000000002,"ADDRESS":"成功路２１３巷９１號之１四樓之１","OBJECTID":357447},"geometry":{"x":165639.88999999966,"y":2561082.1999999993}},{"attributes":{"ID":357457,"DIS_CODE":0,"TOWNNAME":"佳里區","LI":"建南里","LIN":"30鄰","STREET":"成功路","SECT":" ","MAREA":" ","LANE":"２１３巷","ALLEY":" ","HOUSE_NO":"９１號之１四樓之２","E_COORD97":165639.89000000001,"N_COORD97":2561082.2000000002,"ADDRESS":"成功路２１３巷９１號之１四樓之２","OBJECTID":357448},"geometry":{"x":165639.88999999966,"y":2561082.1999999993}},{"attributes":{"ID":357458,"DIS_CODE":0,"TOWNNAME":"佳里區","LI":"建南里","LIN":"30鄰","STREET":"成功路","SECT":" ","MAREA":" ","LANE":"２１３巷","ALLEY":" ","HOUSE_NO":"９１號之１四樓之３","E_COORD97":165639.89000000001,"N_COORD97":2561082.2000000002,"ADDRESS":"成功路２１３巷９１號之１四樓之３","OBJECTID":357449},"geometry":{"x":165639.88999999966,"y":2561082.1999999993}},{"attributes":{"ID":357459,"DIS_CODE":0,"TOWNNAME":"佳里區","LI":"建南里","LIN":"30鄰","STREET":"成功路","SECT":" ","MAREA":" ","LANE":"２１３巷","ALLEY":" ","HOUSE_NO":"９１號之２七樓之１","E_COORD97":165646.45999999999,"N_COORD97":2561082.3199999998,"ADDRESS":"成功路２１３巷９１號之２七樓之１","OBJECTID":357450},"geometry":{"x":165646.45999999996,"y":2561082.3200000003}},{"attributes":{"ID":357460,"DIS_CODE":0,"TOWNNAME":"佳里區","LI":"建南里","LIN":"30鄰","STREET":"成功路","SECT":" ","MAREA":" ","LANE":"２１３巷","ALLEY":" ","HOUSE_NO":"９１號之２七樓之２","E_COORD97":165646.45999999999,"N_COORD97":2561082.3199999998,"ADDRESS":"成功路２１３巷９１號之２七樓之２","OBJECTID":357451},"geometry":{"x":165646.45999999996,"y":2561082.3200000003}},{"attributes":{"ID":357461,"DIS_CODE":0,"TOWNNAME":"佳里區","LI":"建南里","LIN":"30鄰","STREET":"成功路","SECT":" ","MAREA":" ","LANE":"２１３巷","ALLEY":" ","HOUSE_NO":"９１號之２七樓之３","E_COORD97":165646.45999999999,"N_COORD97":2561082.3199999998,"ADDRESS":"成功路２１３巷９１號之２七樓之３","OBJECTID":357452},"geometry":{"x":165646.45999999996,"y":2561082.3200000003}},{"attributes":{"ID":357462,"DIS_CODE":0,"TOWNNAME":"佳里區","LI":"建南里","LIN":"30鄰","STREET":"成功路","SECT":" ","MAREA":" ","LANE":"２１３巷","ALLEY":" ","HOUSE_NO":"９１號之２七樓之４","E_COORD97":165646.45999999999,"N_COORD97":2561082.3199999998,"ADDRESS":"成功路２１３巷９１號之２七樓之４","OBJECTID":357453},"geometry":{"x":165646.45999999996,"y":2561082.3200000003}},{"attributes":{"ID":357463,"DIS_CODE":0,"TOWNNAME":"佳里區","LI":"建南里","LIN":"30鄰","STREET":"成功路","SECT":" ","MAREA":" ","LANE":"２１３巷","ALLEY":" ","HOUSE_NO":"９１號之２二樓","E_COORD97":165646.45999999999,"N_COORD97":2561082.3199999998,"ADDRESS":"成功路２１３巷９１號之２二樓","OBJECTID":357454},"geometry":{"x":165646.45999999996,"y":2561082.3200000003}},{"attributes":{"ID":357464,"DIS_CODE":0,"TOWNNAME":"佳里區","LI":"建南里","LIN":"30鄰","STREET":"成功路","SECT":" ","MAREA":" ","LANE":"２１３巷","ALLEY":" ","HOUSE_NO":"９１號之２三樓","E_COORD97":165646.45999999999,"N_COORD97":2561082.3199999998,"ADDRESS":"成功路２１３巷９１號之２三樓","OBJECTID":357455},"geometry":{"x":165646.45999999996,"y":2561082.3200000003}},{"attributes":{"ID":357465,"DIS_CODE":0,"TOWNNAME":"佳里區","LI":"建南里","LIN":"30鄰","STREET":"成功路","SECT":" ","MAREA":" ","LANE":"２１３巷","ALLEY":" ","HOUSE_NO":"９１號之２五樓之１","E_COORD97":165646.45999999999,"N_COORD97":2561082.3199999998,"ADDRESS":"成功路２１３巷９１號之２五樓之１","OBJECTID":357456},"geometry":{"x":165646.45999999996,"y":2561082.3200000003}},{"attributes":{"ID":357466,"DIS_CODE":0,"TOWNNAME":"永康區","LI":"烏竹里","LIN":"7鄰","STREET":"龍橋街","SECT":" ","MAREA":" ","LANE":"４５９巷","ALLEY":" ","HOUSE_NO":"１２號","E_COORD97":174329.34,"N_COORD97":2549327.3300000001,"ADDRESS":"龍橋街４５９巷１２號","OBJECTID":357457},"geometry":{"x":174329.34000000078,"y":2549327.3300000001}},{"attributes":{"ID":357467,"DIS_CODE":0,"TOWNNAME":"佳里區","LI":"建南里","LIN":"30鄰","STREET":"成功路","SECT":" ","MAREA":" ","LANE":"２１３巷","ALLEY":" ","HOUSE_NO":"９１號之２五樓之２","E_COORD97":165646.45999999999,"N_COORD97":2561082.3199999998,"ADDRESS":"成功路２１３巷９１號之２五樓之２","OBJECTID":357458},"geometry":{"x":165646.45999999996,"y":2561082.3200000003}},{"attributes":{"ID":357468,"DIS_CODE":0,"TOWNNAME":"佳里區","LI":"建南里","LIN":"30鄰","STREET":"成功路","SECT":" ","MAREA":" ","LANE":"２１３巷","ALLEY":" ","HOUSE_NO":"９１號之２五樓之３","E_COORD97":165646.45999999999,"N_COORD97":2561082.3199999998,"ADDRESS":"成功路２１３巷９１號之２五樓之３","OBJECTID":357459},"geometry":{"x":165646.45999999996,"y":2561082.3200000003}},{"attributes":{"ID":357469,"DIS_CODE":0,"TOWNNAME":"佳里區","LI":"建南里","LIN":"30鄰","STREET":"成功路","SECT":" ","MAREA":" ","LANE":"２１３巷","ALLEY":" ","HOUSE_NO":"９１號之２五樓之４","E_COORD97":165646.45999999999,"N_COORD97":2561082.3199999998,"ADDRESS":"成功路２１３巷９１號之２五樓之４","OBJECTID":357460},"geometry":{"x":165646.45999999996,"y":2561082.3200000003}},{"attributes":{"ID":357470,"DIS_CODE":0,"TOWNNAME":"佳里區","LI":"建南里","LIN":"30鄰","STREET":"成功路","SECT":" ","MAREA":" ","LANE":"２１３巷","ALLEY":" ","HOUSE_NO":"９１號之２六樓之１","E_COORD97":165646.45999999999,"N_COORD97":2561082.3199999998,"ADDRESS":"成功路２１３巷９１號之２六樓之１","OBJECTID":357461},"geometry":{"x":165646.45999999996,"y":2561082.3200000003}},{"attributes":{"ID":357471,"DIS_CODE":0,"TOWNNAME":"佳里區","LI":"建南里","LIN":"30鄰","STREET":"成功路","SECT":" ","MAREA":" ","LANE":"２１３巷","ALLEY":" ","HOUSE_NO":"９１號之２六樓之２","E_COORD97":165646.45999999999,"N_COORD97":2561082.3199999998,"ADDRESS":"成功路２１３巷９１號之２六樓之２","OBJECTID":357462},"geometry":{"x":165646.45999999996,"y":2561082.3200000003}},{"attributes":{"ID":357472,"DIS_CODE":0,"TOWNNAME":"東區","LI":"自強里","LIN":"8鄰","STREET":"東門路","SECT":"三段","MAREA":" ","LANE":" ","ALLEY":" ","HOUSE_NO":"３１號七樓之１","E_COORD97":171106.04000000001,"N_COORD97":2542333.8300000001,"ADDRESS":"東門路三段３１號七樓之１","OBJECTID":357463},"geometry":{"x":171106.04000000004,"y":2542333.8300000038}},{"attributes":{"ID":357473,"DIS_CODE":0,"TOWNNAME":"麻豆區","LI":"南勢里","LIN":"26鄰","STREET":" ","SECT":" ","MAREA":"南勢","LANE":" ","ALLEY":" ","HOUSE_NO":"１００號","E_COORD97":174446.81,"N_COORD97":2565202.4300000002,"ADDRESS":"南勢１００號","OBJECTID":357464},"geometry":{"x":174446.80999999959,"y":2565202.4299999997}},{"attributes":{"ID":357474,"DIS_CODE":0,"TOWNNAME":"永康區","LI":"西灣里","LIN":"26鄰","STREET":"國光八街","SECT":" ","MAREA":" ","LANE":"４１巷","ALLEY":" ","HOUSE_NO":"１３號","E_COORD97":174357.04000000001,"N_COORD97":2545728.6600000001,"ADDRESS":"國光八街４１巷１３號","OBJECTID":357465},"geometry":{"x":174357.04000000097,"y":2545728.6600000039}},{"attributes":{"ID":357475,"DIS_CODE":0,"TOWNNAME":"永康區","LI":"西灣里","LIN":"26鄰","STREET":"國光八街","SECT":" ","MAREA":" ","LANE":"４１巷","ALLEY":" ","HOUSE_NO":"２６號","E_COORD97":174334.45000000001,"N_COORD97":2545701.75,"ADDRESS":"國光八街４１巷２６號","OBJECTID":357466},"geometry":{"x":174334.45000000019,"y":2545701.7500000019}},{"attributes":{"ID":357476,"DIS_CODE":0,"TOWNNAME":"永康區","LI":"西灣里","LIN":"26鄰","STREET":"國光八街","SECT":" ","MAREA":" ","LANE":"４１巷","ALLEY":" ","HOUSE_NO":"１９號","E_COORD97":174354.64999999999,"N_COORD97":2545713.1600000001,"ADDRESS":"國光八街４１巷１９號","OBJECTID":357467},"geometry":{"x":174354.6500000013,"y":2545713.160000002}},{"attributes":{"ID":357477,"DIS_CODE":0,"TOWNNAME":"永康區","LI":"尚頂里","LIN":"26鄰","STREET":"南台街","SECT":" ","MAREA":" ","LANE":"２６巷","ALLEY":" ","HOUSE_NO":"４號","E_COORD97":170436.14999999999,"N_COORD97":2546981.2400000002,"ADDRESS":"南台街２６巷４號","OBJECTID":357468},"geometry":{"x":170436.15000000037,"y":2546981.2400000002}},{"attributes":{"ID":357478,"DIS_CODE":0,"TOWNNAME":"東區","LI":"自強里","LIN":"8鄰","STREET":"東門路","SECT":"三段","MAREA":" ","LANE":" ","ALLEY":" ","HOUSE_NO":"３１號七樓之２","E_COORD97":171106.04000000001,"N_COORD97":2542333.8300000001,"ADDRESS":"東門路三段３１號七樓之２","OBJECTID":357469},"geometry":{"x":171106.04000000004,"y":2542333.8300000038}},{"attributes":{"ID":357479,"DIS_CODE":0,"TOWNNAME":"東區","LI":"自強里","LIN":"8鄰","STREET":"東門路","SECT":"三段","MAREA":" ","LANE":" ","ALLEY":" ","HOUSE_NO":"３１號九樓","E_COORD97":171106.04000000001,"N_COORD97":2542333.8300000001,"ADDRESS":"東門路三段３１號九樓","OBJECTID":357470},"geometry":{"x":171106.04000000004,"y":2542333.8300000038}},{"attributes":{"ID":357480,"DIS_CODE":0,"TOWNNAME":"麻豆區","LI":"南勢里","LIN":"26鄰","STREET":" ","SECT":" ","MAREA":"南勢","LANE":" ","ALLEY":" ","HOUSE_NO":"１０４號之２","E_COORD97":175015.23000000001,"N_COORD97":2564845.2000000002,"ADDRESS":"南勢１０４號之２","OBJECTID":357471},"geometry":{"x":175015.23000000138,"y":2564845.1999999993}},{"attributes":{"ID":357481,"DIS_CODE":0,"TOWNNAME":"麻豆區","LI":"南勢里","LIN":"26鄰","STREET":" ","SECT":" ","MAREA":"南勢","LANE":" ","ALLEY":" ","HOUSE_NO":"１０４號之３","E_COORD97":174996.76000000001,"N_COORD97":2564841.8599999999,"ADDRESS":"南勢１０４號之３","OBJECTID":357472},"geometry":{"x":174996.75999999978,"y":2564841.8600000013}},{"attributes":{"ID":357482,"DIS_CODE":0,"TOWNNAME":"東區","LI":"自強里","LIN":"8鄰","STREET":"東門路","SECT":"三段","MAREA":" ","LANE":" ","ALLEY":" ","HOUSE_NO":"３１號九樓之１","E_COORD97":171106.04000000001,"N_COORD97":2542333.8300000001,"ADDRESS":"東門路三段３１號九樓之１","OBJECTID":357473},"geometry":{"x":171106.04000000004,"y":2542333.8300000038}},{"attributes":{"ID":357483,"DIS_CODE":0,"TOWNNAME":"東區","LI":"自強里","LIN":"8鄰","STREET":"東門路","SECT":"三段","MAREA":" ","LANE":" ","ALLEY":" ","HOUSE_NO":"３１號九樓之２","E_COORD97":171106.04000000001,"N_COORD97":2542333.8300000001,"ADDRESS":"東門路三段３１號九樓之２","OBJECTID":357474},"geometry":{"x":171106.04000000004,"y":2542333.8300000038}},{"attributes":{"ID":357484,"DIS_CODE":0,"TOWNNAME":"東區","LI":"自強里","LIN":"8鄰","STREET":"東門路","SECT":"三段","MAREA":" ","LANE":" ","ALLEY":" ","HOUSE_NO":"３１號二樓","E_COORD97":171106.04000000001,"N_COORD97":2542333.8300000001,"ADDRESS":"東門路三段３１號二樓","OBJECTID":357475},"geometry":{"x":171106.04000000004,"y":2542333.8300000038}},{"attributes":{"ID":357485,"DIS_CODE":0,"TOWNNAME":"麻豆區","LI":"南勢里","LIN":"26鄰","STREET":" ","SECT":" ","MAREA":"南勢","LANE":" ","ALLEY":" ","HOUSE_NO":"１０５號","E_COORD97":175007.23000000001,"N_COORD97":2564859.2599999998,"ADDRESS":"南勢１０５號","OBJECTID":357476},"geometry":{"x":175007.23000000138,"y":2564859.2599999979}},{"attributes":{"ID":357486,"DIS_CODE":0,"TOWNNAME":"麻豆區","LI":"南勢里","LIN":"26鄰","STREET":" ","SECT":" ","MAREA":"南勢","LANE":" ","ALLEY":" ","HOUSE_NO":"１０６號","E_COORD97":175038.60000000001,"N_COORD97":2564848.6200000001,"ADDRESS":"南勢１０６號","OBJECTID":357477},"geometry":{"x":175038.59999999963,"y":2564848.6200000029}},{"attributes":{"ID":357487,"DIS_CODE":0,"TOWNNAME":"麻豆區","LI":"南勢里","LIN":"26鄰","STREET":" ","SECT":" ","MAREA":"南勢","LANE":" ","ALLEY":" ","HOUSE_NO":"８８號","E_COORD97":174861.79999999999,"N_COORD97":2564946.7000000002,"ADDRESS":"南勢８８號","OBJECTID":357478},"geometry":{"x":174861.80000000075,"y":2564946.6999999993}},{"attributes":{"ID":357488,"DIS_CODE":0,"TOWNNAME":"麻豆區","LI":"南勢里","LIN":"26鄰","STREET":" ","SECT":" ","MAREA":"南勢","LANE":" ","ALLEY":" ","HOUSE_NO":"８９號之１６","E_COORD97":174891.53,"N_COORD97":2564980.2999999998,"ADDRESS":"南勢８９號之１６","OBJECTID":357479},"geometry":{"x":174891.53000000119,"y":2564980.3000000026}},{"attributes":{"ID":357489,"DIS_CODE":0,"TOWNNAME":"麻豆區","LI":"南勢里","LIN":"26鄰","STREET":" ","SECT":" ","MAREA":"南勢","LANE":" ","ALLEY":" ","HOUSE_NO":"８９號之１８","E_COORD97":174847.51000000001,"N_COORD97":2564994.1699999999,"ADDRESS":"南勢８９號之１８","OBJECTID":357480},"geometry":{"x":174847.50999999978,"y":2564994.1700000018}},{"attributes":{"ID":357490,"DIS_CODE":0,"TOWNNAME":"麻豆區","LI":"南勢里","LIN":"26鄰","STREET":" ","SECT":" ","MAREA":"南勢","LANE":" ","ALLEY":" ","HOUSE_NO":"８９號之１","E_COORD97":174840.85000000001,"N_COORD97":2564935,"ADDRESS":"南勢８９號之１","OBJECTID":357481},"geometry":{"x":174840.85000000056,"y":2564935}},{"attributes":{"ID":357491,"DIS_CODE":0,"TOWNNAME":"麻豆區","LI":"南勢里","LIN":"26鄰","STREET":" ","SECT":" ","MAREA":"南勢","LANE":" ","ALLEY":" ","HOUSE_NO":"８９號之２０","E_COORD97":174859.67999999999,"N_COORD97":2564992.8900000001,"ADDRESS":"南勢８９號之２０","OBJECTID":357482},"geometry":{"x":174859.6799999997,"y":2564992.8900000025}},{"attributes":{"ID":357492,"DIS_CODE":0,"TOWNNAME":"麻豆區","LI":"南勢里","LIN":"26鄰","STREET":" ","SECT":" ","MAREA":"南勢","LANE":" ","ALLEY":" ","HOUSE_NO":"８９號之２１","E_COORD97":174857.20000000001,"N_COORD97":2565007.6000000001,"ADDRESS":"南勢８９號之２１","OBJECTID":357483},"geometry":{"x":174857.19999999925,"y":2565007.6000000015}},{"attributes":{"ID":357493,"DIS_CODE":0,"TOWNNAME":"麻豆區","LI":"南勢里","LIN":"26鄰","STREET":" ","SECT":" ","MAREA":"南勢","LANE":" ","ALLEY":" ","HOUSE_NO":"８９號之２４","E_COORD97":174856.38,"N_COORD97":2565045.02,"ADDRESS":"南勢８９號之２４","OBJECTID":357484},"geometry":{"x":174856.38000000082,"y":2565045.0200000014}},{"attributes":{"ID":357494,"DIS_CODE":0,"TOWNNAME":"麻豆區","LI":"南勢里","LIN":"26鄰","STREET":" ","SECT":" ","MAREA":"南勢","LANE":" ","ALLEY":" ","HOUSE_NO":"８９號之２５","E_COORD97":174881.38,"N_COORD97":2564997.6400000001,"ADDRESS":"南勢８９號之２５","OBJECTID":357485},"geometry":{"x":174881.38000000082,"y":2564997.6400000025}},{"attributes":{"ID":357495,"DIS_CODE":0,"TOWNNAME":"麻豆區","LI":"南勢里","LIN":"26鄰","STREET":" ","SECT":" ","MAREA":"南勢","LANE":" ","ALLEY":" ","HOUSE_NO":"８９號之３０","E_COORD97":174881.48999999999,"N_COORD97":2565027.6000000001,"ADDRESS":"南勢８９號之３０","OBJECTID":357486},"geometry":{"x":174881.49000000115,"y":2565027.6000000015}},{"attributes":{"ID":357496,"DIS_CODE":0,"TOWNNAME":"東區","LI":"泉南里","LIN":"26鄰","STREET":"府連路","SECT":" ","MAREA":" ","LANE":"２６０巷","ALLEY":" ","HOUSE_NO":"１號","E_COORD97":169458.60000000001,"N_COORD97":2542849.6699999999,"ADDRESS":"府連路２６０巷１號","OBJECTID":357487},"geometry":{"x":169458.60000000056,"y":2542849.6699999999}},{"attributes":{"ID":357497,"DIS_CODE":0,"TOWNNAME":"東區","LI":"泉南里","LIN":"26鄰","STREET":"府連路","SECT":" ","MAREA":" ","LANE":"２６０巷","ALLEY":" ","HOUSE_NO":"５號","E_COORD97":169469.89000000001,"N_COORD97":2542804.8599999999,"ADDRESS":"府連路２６０巷５號","OBJECTID":357488},"geometry":{"x":169469.89000000153,"y":2542804.8600000013}},{"attributes":{"ID":357498,"DIS_CODE":0,"TOWNNAME":"佳里區","LI":"建南里","LIN":"30鄰","STREET":"成功路","SECT":" ","MAREA":" ","LANE":"２１３巷","ALLEY":" ","HOUSE_NO":"９１號之２六樓之３","E_COORD97":165646.45999999999,"N_COORD97":2561082.3199999998,"ADDRESS":"成功路２１３巷９１號之２六樓之３","OBJECTID":357489},"geometry":{"x":165646.45999999996,"y":2561082.3200000003}},{"attributes":{"ID":357499,"DIS_CODE":0,"TOWNNAME":"佳里區","LI":"建南里","LIN":"30鄰","STREET":"成功路","SECT":" ","MAREA":" ","LANE":"２１３巷","ALLEY":" ","HOUSE_NO":"９１號之２六樓之４","E_COORD97":165646.45999999999,"N_COORD97":2561082.3199999998,"ADDRESS":"成功路２１３巷９１號之２六樓之４","OBJECTID":357490},"geometry":{"x":165646.45999999996,"y":2561082.3200000003}},{"attributes":{"ID":357500,"DIS_CODE":0,"TOWNNAME":"佳里區","LI":"建南里","LIN":"30鄰","STREET":"成功路","SECT":" ","MAREA":" ","LANE":"２１３巷","ALLEY":" ","HOUSE_NO":"９１號之２四樓之１","E_COORD97":165646.45999999999,"N_COORD97":2561082.3199999998,"ADDRESS":"成功路２１３巷９１號之２四樓之１","OBJECTID":357491},"geometry":{"x":165646.45999999996,"y":2561082.3200000003}},{"attributes":{"ID":357501,"DIS_CODE":0,"TOWNNAME":"佳里區","LI":"建南里","LIN":"30鄰","STREET":"成功路","SECT":" ","MAREA":" ","LANE":"２１３巷","ALLEY":" ","HOUSE_NO":"９１號之２四樓之２","E_COORD97":165646.45999999999,"N_COORD97":2561082.3199999998,"ADDRESS":"成功路２１３巷９１號之２四樓之２","OBJECTID":357492},"geometry":{"x":165646.45999999996,"y":2561082.3200000003}},{"attributes":{"ID":357502,"DIS_CODE":0,"TOWNNAME":"佳里區","LI":"建南里","LIN":"30鄰","STREET":"成功路","SECT":" ","MAREA":" ","LANE":"２１３巷","ALLEY":" ","HOUSE_NO":"９１號之２四樓之３","E_COORD97":165646.45999999999,"N_COORD97":2561082.3199999998,"ADDRESS":"成功路２１３巷９１號之２四樓之３","OBJECTID":357493},"geometry":{"x":165646.45999999996,"y":2561082.3200000003}},{"attributes":{"ID":357503,"DIS_CODE":0,"TOWNNAME":"佳里區","LI":"建南里","LIN":"30鄰","STREET":"成功路","SECT":" ","MAREA":" ","LANE":"２１３巷","ALLEY":" ","HOUSE_NO":"９１號之２四樓之４","E_COORD97":165646.45999999999,"N_COORD97":2561082.3199999998,"ADDRESS":"成功路２１３巷９１號之２四樓之４","OBJECTID":357494},"geometry":{"x":165646.45999999996,"y":2561082.3200000003}},{"attributes":{"ID":357504,"DIS_CODE":0,"TOWNNAME":"永康區","LI":"復華里","LIN":"30鄰","STREET":"復華八街","SECT":" ","MAREA":" ","LANE":"４７巷","ALLEY":" ","HOUSE_NO":"４３號六樓之３","E_COORD97":172678.22,"N_COORD97":2546351.2999999998,"ADDRESS":"復華八街４７巷４３號六樓之３","OBJECTID":357495},"geometry":{"x":172678.21999999974,"y":2546351.3000000007}},{"attributes":{"ID":357505,"DIS_CODE":0,"TOWNNAME":"永康區","LI":"復華里","LIN":"30鄰","STREET":"復華八街","SECT":" ","MAREA":" ","LANE":"４７巷","ALLEY":" ","HOUSE_NO":"４３號三樓之６","E_COORD97":172678.23000000001,"N_COORD97":2546351.2999999998,"ADDRESS":"復華八街４７巷４３號三樓之６","OBJECTID":357496},"geometry":{"x":172678.23000000045,"y":2546351.3000000007}},{"attributes":{"ID":357506,"DIS_CODE":0,"TOWNNAME":"永康區","LI":"復華里","LIN":"30鄰","STREET":"復華八街","SECT":" ","MAREA":" ","LANE":"４７巷","ALLEY":" ","HOUSE_NO":"４１號二樓之１","E_COORD97":172690.67000000001,"N_COORD97":2546351.2999999998,"ADDRESS":"復華八街４７巷４１號二樓之１","OBJECTID":357497},"geometry":{"x":172690.66999999899,"y":2546351.3000000007}},{"attributes":{"ID":357507,"DIS_CODE":0,"TOWNNAME":"永康區","LI":"復華里","LIN":"30鄰","STREET":"復華八街","SECT":" ","MAREA":" ","LANE":"４７巷","ALLEY":" ","HOUSE_NO":"４３號五樓之６","E_COORD97":172678.23000000001,"N_COORD97":2546351.2999999998,"ADDRESS":"復華八街４７巷４３號五樓之６","OBJECTID":357498},"geometry":{"x":172678.23000000045,"y":2546351.3000000007}},{"attributes":{"ID":357508,"DIS_CODE":0,"TOWNNAME":"東區","LI":"自強里","LIN":"8鄰","STREET":"東門路","SECT":"三段","MAREA":" ","LANE":" ","ALLEY":" ","HOUSE_NO":"３１號八樓","E_COORD97":171106.04000000001,"N_COORD97":2542333.8300000001,"ADDRESS":"東門路三段３１號八樓","OBJECTID":357499},"geometry":{"x":171106.04000000004,"y":2542333.8300000038}},{"attributes":{"ID":357509,"DIS_CODE":0,"TOWNNAME":"北區","LI":"長榮里","LIN":"5鄰","STREET":"長勝路","SECT":" ","MAREA":" ","LANE":" ","ALLEY":" ","HOUSE_NO":"４７號","E_COORD97":169957.78,"N_COORD97":2545610.29,"ADDRESS":"長勝路４７號","OBJECTID":357500},"geometry":{"x":169957.78000000212,"y":2545610.2899999991}},{"attributes":{"ID":357510,"DIS_CODE":0,"TOWNNAME":"永康區","LI":"東灣里","LIN":"1鄰","STREET":"南灣街","SECT":" ","MAREA":" ","LANE":" ","ALLEY":" ","HOUSE_NO":"１０號","E_COORD97":174622.29999999999,"N_COORD97":2544899.4500000002,"ADDRESS":"南灣街１０號","OBJECTID":357501},"geometry":{"x":174622.30000000168,"y":2544899.4500000011}},{"attributes":{"ID":357511,"DIS_CODE":0,"TOWNNAME":"東區","LI":"中西里","LIN":"26鄰","STREET":"東寧路","SECT":" ","MAREA":" ","LANE":"１２０巷","ALLEY":" ","HOUSE_NO":"５９號之１","E_COORD97":170295.92999999999,"N_COORD97":2543497.9700000002,"ADDRESS":"東寧路１２０巷５９號之１","OBJECTID":357502},"geometry":{"x":170295.93000000063,"y":2543497.9700000007}},{"attributes":{"ID":357512,"DIS_CODE":0,"TOWNNAME":"安南區","LI":"安富里","LIN":" ","STREET":"安富街","SECT":" ","MAREA":" ","LANE":" ","ALLEY":" ","HOUSE_NO":"２３７號","E_COORD97":167615.03,"N_COORD97":2547448.79,"ADDRESS":"安富街２３７號","OBJECTID":357503},"geometry":{"x":167615.03000000212,"y":2547448.7899999972}},{"attributes":{"ID":357513,"DIS_CODE":0,"TOWNNAME":"東區","LI":"中西里","LIN":"26鄰","STREET":"東寧路","SECT":" ","MAREA":" ","LANE":"１２０巷","ALLEY":" ","HOUSE_NO":"６１號","E_COORD97":170291.57000000001,"N_COORD97":2543496.8199999998,"ADDRESS":"東寧路１２０巷６１號","OBJECTID":357504},"geometry":{"x":170291.57000000216,"y":2543496.820000004}},{"attributes":{"ID":357514,"DIS_CODE":0,"TOWNNAME":"東區","LI":"中西里","LIN":"26鄰","STREET":"東寧路","SECT":" ","MAREA":" ","LANE":"１２０巷","ALLEY":" ","HOUSE_NO":"６３號","E_COORD97":170283.07999999999,"N_COORD97":2543494.7599999998,"ADDRESS":"東寧路１２０巷６３號","OBJECTID":357505},"geometry":{"x":170283.08000000101,"y":2543494.7600000016}},{"attributes":{"ID":357515,"DIS_CODE":0,"TOWNNAME":"東區","LI":"泉南里","LIN":"26鄰","STREET":"府連路","SECT":" ","MAREA":" ","LANE":"３１２巷","ALLEY":" ","HOUSE_NO":"２號","E_COORD97":169529.04999999999,"N_COORD97":2542825.2000000002,"ADDRESS":"府連路３１２巷２號","OBJECTID":357506},"geometry":{"x":169529.05000000075,"y":2542825.200000003}},{"attributes":{"ID":357516,"DIS_CODE":0,"TOWNNAME":"永康區","LI":"復華里","LIN":"30鄰","STREET":"復華八街","SECT":" ","MAREA":" ","LANE":"４７巷","ALLEY":" ","HOUSE_NO":"４３號三樓之３","E_COORD97":172678.22,"N_COORD97":2546351.2999999998,"ADDRESS":"復華八街４７巷４３號三樓之３","OBJECTID":357507},"geometry":{"x":172678.21999999974,"y":2546351.3000000007}},{"attributes":{"ID":357517,"DIS_CODE":0,"TOWNNAME":"永康區","LI":"復華里","LIN":"30鄰","STREET":"復華八街","SECT":" ","MAREA":" ","LANE":"４７巷","ALLEY":" ","HOUSE_NO":"４１號三樓之１","E_COORD97":172690.67000000001,"N_COORD97":2546351.2999999998,"ADDRESS":"復華八街４７巷４１號三樓之１","OBJECTID":357508},"geometry":{"x":172690.66999999899,"y":2546351.3000000007}},{"attributes":{"ID":357518,"DIS_CODE":0,"TOWNNAME":"永康區","LI":"復華里","LIN":"30鄰","STREET":"復華八街","SECT":" ","MAREA":" ","LANE":"４７巷","ALLEY":" ","HOUSE_NO":"４３號四樓之１","E_COORD97":172678.13,"N_COORD97":2546351.2999999998,"ADDRESS":"復華八街４７巷４３號四樓之１","OBJECTID":357509},"geometry":{"x":172678.13000000082,"y":2546351.3000000007}},{"attributes":{"ID":357519,"DIS_CODE":0,"TOWNNAME":"永康區","LI":"復華里","LIN":"30鄰","STREET":"復華八街","SECT":" ","MAREA":" ","LANE":"４７巷","ALLEY":" ","HOUSE_NO":"４３號四樓之２","E_COORD97":172678.26000000001,"N_COORD97":2546351.2999999998,"ADDRESS":"復華八街４７巷４３號四樓之２","OBJECTID":357510},"geometry":{"x":172678.26000000164,"y":2546351.3000000007}},{"attributes":{"ID":357520,"DIS_CODE":0,"TOWNNAME":"永康區","LI":"復華里","LIN":"30鄰","STREET":"復華八街","SECT":" ","MAREA":" ","LANE":"４７巷","ALLEY":" ","HOUSE_NO":"４１號六樓之２","E_COORD97":172690.79999999999,"N_COORD97":2546351.2999999998,"ADDRESS":"復華八街４７巷４１號六樓之２","OBJECTID":357511},"geometry":{"x":172690.79999999981,"y":2546351.3000000007}},{"attributes":{"ID":357521,"DIS_CODE":0,"TOWNNAME":"東區","LI":"富強里","LIN":"30鄰","STREET":"裕農路","SECT":" ","MAREA":" ","LANE":"２８８巷","ALLEY":" ","HOUSE_NO":"１１號七樓","E_COORD97":170932.47,"N_COORD97":2542959.4100000001,"ADDRESS":"裕農路２８８巷１１號七樓","OBJECTID":357512},"geometry":{"x":170932.47000000067,"y":2542959.4100000001}},{"attributes":{"ID":357522,"DIS_CODE":0,"TOWNNAME":"東區","LI":"富強里","LIN":"30鄰","STREET":"裕農路","SECT":" ","MAREA":" ","LANE":"２８８巷","ALLEY":" ","HOUSE_NO":"１１號七樓之１","E_COORD97":170932.47,"N_COORD97":2542959.4100000001,"ADDRESS":"裕農路２８８巷１１號七樓之１","OBJECTID":357513},"geometry":{"x":170932.47000000067,"y":2542959.4100000001}},{"attributes":{"ID":357523,"DIS_CODE":0,"TOWNNAME":"東區","LI":"自強里","LIN":"8鄰","STREET":"東門路","SECT":"三段","MAREA":" ","LANE":" ","ALLEY":" ","HOUSE_NO":"３１號八樓之１","E_COORD97":171106.04000000001,"N_COORD97":2542333.8300000001,"ADDRESS":"東門路三段３１號八樓之１","OBJECTID":357514},"geometry":{"x":171106.04000000004,"y":2542333.8300000038}},{"attributes":{"ID":357524,"DIS_CODE":0,"TOWNNAME":"東區","LI":"自強里","LIN":"8鄰","STREET":"東門路","SECT":"三段","MAREA":" ","LANE":" ","ALLEY":" ","HOUSE_NO":"３１號八樓之２","E_COORD97":171106.04000000001,"N_COORD97":2542333.8300000001,"ADDRESS":"東門路三段３１號八樓之２","OBJECTID":357515},"geometry":{"x":171106.04000000004,"y":2542333.8300000038}},{"attributes":{"ID":357525,"DIS_CODE":0,"TOWNNAME":"東區","LI":"自強里","LIN":"8鄰","STREET":"東門路","SECT":"三段","MAREA":" ","LANE":" ","ALLEY":" ","HOUSE_NO":"３１號十一樓","E_COORD97":171106.04000000001,"N_COORD97":2542333.8300000001,"ADDRESS":"東門路三段３１號十一樓","OBJECTID":357516},"geometry":{"x":171106.04000000004,"y":2542333.8300000038}},{"attributes":{"ID":357526,"DIS_CODE":0,"TOWNNAME":"東區","LI":"忠孝里","LIN":"26鄰","STREET":"崇明一街","SECT":" ","MAREA":" ","LANE":" ","ALLEY":" ","HOUSE_NO":"８號","E_COORD97":169538.06,"N_COORD97":2542422.5099999998,"ADDRESS":"崇明一街８號","OBJECTID":357517},"geometry":{"x":169538.06000000145,"y":2542422.5099999998}},{"attributes":{"ID":357527,"DIS_CODE":0,"TOWNNAME":"東區","LI":"富強里","LIN":"30鄰","STREET":"裕農路","SECT":" ","MAREA":" ","LANE":"２８８巷","ALLEY":" ","HOUSE_NO":"１１號九樓","E_COORD97":170932.47,"N_COORD97":2542959.4100000001,"ADDRESS":"裕農路２８８巷１１號九樓","OBJECTID":357518},"geometry":{"x":170932.47000000067,"y":2542959.4100000001}},{"attributes":{"ID":357528,"DIS_CODE":0,"TOWNNAME":"東區","LI":"富強里","LIN":"30鄰","STREET":"裕農路","SECT":" ","MAREA":" ","LANE":"２８８巷","ALLEY":" ","HOUSE_NO":"１１號九樓之１","E_COORD97":170932.47,"N_COORD97":2542959.4100000001,"ADDRESS":"裕農路２８８巷１１號九樓之１","OBJECTID":357519},"geometry":{"x":170932.47000000067,"y":2542959.4100000001}},{"attributes":{"ID":357529,"DIS_CODE":0,"TOWNNAME":"東區","LI":"富強里","LIN":"30鄰","STREET":"裕農路","SECT":" ","MAREA":" ","LANE":"２８８巷","ALLEY":" ","HOUSE_NO":"１１號二樓","E_COORD97":170932.47,"N_COORD97":2542959.4100000001,"ADDRESS":"裕農路２８８巷１１號二樓","OBJECTID":357520},"geometry":{"x":170932.47000000067,"y":2542959.4100000001}},{"attributes":{"ID":357530,"DIS_CODE":0,"TOWNNAME":"永康區","LI":"神洲里","LIN":"18鄰","STREET":"忠孝路","SECT":" ","MAREA":" ","LANE":"１５２巷","ALLEY":" ","HOUSE_NO":"８號","E_COORD97":172131.70999999999,"N_COORD97":2545076,"ADDRESS":"忠孝路１５２巷８號","OBJECTID":357521},"geometry":{"x":172131.71000000089,"y":2545076.0000000019}},{"attributes":{"ID":357531,"DIS_CODE":0,"TOWNNAME":"永康區","LI":"埔園里","LIN":"26鄰","STREET":"自強路","SECT":" ","MAREA":" ","LANE":"４１７巷","ALLEY":" ","HOUSE_NO":"３５號","E_COORD97":173737.10000000001,"N_COORD97":2548060.96,"ADDRESS":"自強路４１７巷３５號","OBJECTID":357522},"geometry":{"x":173737.10000000056,"y":2548060.9600000028}},{"attributes":{"ID":357532,"DIS_CODE":0,"TOWNNAME":"東區","LI":"富強里","LIN":"30鄰","STREET":"裕農路","SECT":" ","MAREA":" ","LANE":"２８８巷","ALLEY":" ","HOUSE_NO":"１１號八樓","E_COORD97":170932.47,"N_COORD97":2542959.4100000001,"ADDRESS":"裕農路２８８巷１１號八樓","OBJECTID":357523},"geometry":{"x":170932.47000000067,"y":2542959.4100000001}},{"attributes":{"ID":357533,"DIS_CODE":0,"TOWNNAME":"東區","LI":"富強里","LIN":"30鄰","STREET":"裕農路","SECT":" ","MAREA":" ","LANE":"２８８巷","ALLEY":" ","HOUSE_NO":"１１號八樓之１","E_COORD97":170932.47,"N_COORD97":2542959.4100000001,"ADDRESS":"裕農路２８８巷１１號八樓之１","OBJECTID":357524},"geometry":{"x":170932.47000000067,"y":2542959.4100000001}},{"attributes":{"ID":357534,"DIS_CODE":0,"TOWNNAME":"東區","LI":"富強里","LIN":"30鄰","STREET":"裕農路","SECT":" ","MAREA":" ","LANE":"２８８巷","ALLEY":" ","HOUSE_NO":"１１號十一樓","E_COORD97":170932.47,"N_COORD97":2542959.4100000001,"ADDRESS":"裕農路２８８巷１１號十一樓","OBJECTID":357525},"geometry":{"x":170932.47000000067,"y":2542959.4100000001}},{"attributes":{"ID":357535,"DIS_CODE":0,"TOWNNAME":"東區","LI":"富強里","LIN":"30鄰","STREET":"裕農路","SECT":" ","MAREA":" ","LANE":"２８８巷","ALLEY":" ","HOUSE_NO":"１１號十一樓之１","E_COORD97":170932.47,"N_COORD97":2542959.4100000001,"ADDRESS":"裕農路２８８巷１１號十一樓之１","OBJECTID":357526},"geometry":{"x":170932.47000000067,"y":2542959.4100000001}},{"attributes":{"ID":357536,"DIS_CODE":0,"TOWNNAME":"東區","LI":"富強里","LIN":"30鄰","STREET":"裕農路","SECT":" ","MAREA":" ","LANE":"２８８巷","ALLEY":" ","HOUSE_NO":"１１號十二樓","E_COORD97":170932.47,"N_COORD97":2542959.4100000001,"ADDRESS":"裕農路２８８巷１１號十二樓","OBJECTID":357527},"geometry":{"x":170932.47000000067,"y":2542959.4100000001}},{"attributes":{"ID":357537,"DIS_CODE":0,"TOWNNAME":"東區","LI":"富強里","LIN":"30鄰","STREET":"裕農路","SECT":" ","MAREA":" ","LANE":"２８８巷","ALLEY":" ","HOUSE_NO":"１１號十二樓之１","E_COORD97":170932.47,"N_COORD97":2542959.4100000001,"ADDRESS":"裕農路２８８巷１１號十二樓之１","OBJECTID":357528},"geometry":{"x":170932.47000000067,"y":2542959.4100000001}},{"attributes":{"ID":357538,"DIS_CODE":0,"TOWNNAME":"東區","LI":"富強里","LIN":"30鄰","STREET":"裕農路","SECT":" ","MAREA":" ","LANE":"２８８巷","ALLEY":" ","HOUSE_NO":"１１號十樓","E_COORD97":170932.47,"N_COORD97":2542959.4100000001,"ADDRESS":"裕農路２８８巷１１號十樓","OBJECTID":357529},"geometry":{"x":170932.47000000067,"y":2542959.4100000001}},{"attributes":{"ID":357539,"DIS_CODE":0,"TOWNNAME":"東區","LI":"富強里","LIN":"30鄰","STREET":"裕農路","SECT":" ","MAREA":" ","LANE":"２８８巷","ALLEY":" ","HOUSE_NO":"１１號十樓之１","E_COORD97":170932.47,"N_COORD97":2542959.4100000001,"ADDRESS":"裕農路２８８巷１１號十樓之１","OBJECTID":357530},"geometry":{"x":170932.47000000067,"y":2542959.4100000001}},{"attributes":{"ID":357540,"DIS_CODE":0,"TOWNNAME":"東區","LI":"富強里","LIN":"30鄰","STREET":"裕農路","SECT":" ","MAREA":" ","LANE":"２８８巷","ALLEY":" ","HOUSE_NO":"１１號三樓","E_COORD97":170932.47,"N_COORD97":2542959.4100000001,"ADDRESS":"裕農路２８８巷１１號三樓","OBJECTID":357531},"geometry":{"x":170932.47000000067,"y":2542959.4100000001}},{"attributes":{"ID":357541,"DIS_CODE":0,"TOWNNAME":"東區","LI":"富強里","LIN":"30鄰","STREET":"裕農路","SECT":" ","MAREA":" ","LANE":"２８８巷","ALLEY":" ","HOUSE_NO":"１１號三樓之１","E_COORD97":170932.47,"N_COORD97":2542959.4100000001,"ADDRESS":"裕農路２８８巷１１號三樓之１","OBJECTID":357532},"geometry":{"x":170932.47000000067,"y":2542959.4100000001}},{"attributes":{"ID":357542,"DIS_CODE":0,"TOWNNAME":"東區","LI":"富強里","LIN":"30鄰","STREET":"裕農路","SECT":" ","MAREA":" ","LANE":"２８８巷","ALLEY":" ","HOUSE_NO":"１１號五樓","E_COORD97":170932.47,"N_COORD97":2542959.4100000001,"ADDRESS":"裕農路２８８巷１１號五樓","OBJECTID":357533},"geometry":{"x":170932.47000000067,"y":2542959.4100000001}},{"attributes":{"ID":357543,"DIS_CODE":0,"TOWNNAME":"安南區","LI":"大安里","LIN":"18鄰","STREET":"義安街","SECT":" ","MAREA":" ","LANE":" ","ALLEY":" ","HOUSE_NO":"１６６號","E_COORD97":167566.60999999999,"N_COORD97":2548238.9700000002,"ADDRESS":"義安街１６６號","OBJECTID":357534},"geometry":{"x":167566.61000000034,"y":2548238.9700000007}},{"attributes":{"ID":357544,"DIS_CODE":0,"TOWNNAME":"東區","LI":"富強里","LIN":"30鄰","STREET":"裕農路","SECT":" ","MAREA":" ","LANE":"２８８巷","ALLEY":" ","HOUSE_NO":"１１號五樓之１","E_COORD97":170932.47,"N_COORD97":2542959.4100000001,"ADDRESS":"裕農路２８８巷１１號五樓之１","OBJECTID":357535},"geometry":{"x":170932.47000000067,"y":2542959.4100000001}},{"attributes":{"ID":357545,"DIS_CODE":0,"TOWNNAME":"東區","LI":"富強里","LIN":"30鄰","STREET":"裕農路","SECT":" ","MAREA":" ","LANE":"２８８巷","ALLEY":" ","HOUSE_NO":"１１號六樓","E_COORD97":170932.47,"N_COORD97":2542959.4100000001,"ADDRESS":"裕農路２８８巷１１號六樓","OBJECTID":357536},"geometry":{"x":170932.47000000067,"y":2542959.4100000001}},{"attributes":{"ID":357546,"DIS_CODE":0,"TOWNNAME":"東區","LI":"富強里","LIN":"30鄰","STREET":"裕農路","SECT":" ","MAREA":" ","LANE":"２８８巷","ALLEY":" ","HOUSE_NO":"１１號六樓之１","E_COORD97":170932.47,"N_COORD97":2542959.4100000001,"ADDRESS":"裕農路２８８巷１１號六樓之１","OBJECTID":357537},"geometry":{"x":170932.47000000067,"y":2542959.4100000001}},{"attributes":{"ID":357547,"DIS_CODE":0,"TOWNNAME":"東區","LI":"富強里","LIN":"30鄰","STREET":"裕農路","SECT":" ","MAREA":" ","LANE":"２８８巷","ALLEY":" ","HOUSE_NO":"１１號四樓","E_COORD97":170932.47,"N_COORD97":2542959.4100000001,"ADDRESS":"裕農路２８８巷１１號四樓","OBJECTID":357538},"geometry":{"x":170932.47000000067,"y":2542959.4100000001}},{"attributes":{"ID":357548,"DIS_CODE":0,"TOWNNAME":"東區","LI":"富強里","LIN":"30鄰","STREET":"裕農路","SECT":" ","MAREA":" ","LANE":"２８８巷","ALLEY":" ","HOUSE_NO":"１１號四樓之１","E_COORD97":170932.47,"N_COORD97":2542959.4100000001,"ADDRESS":"裕農路２８８巷１１號四樓之１","OBJECTID":357539},"geometry":{"x":170932.47000000067,"y":2542959.4100000001}},{"attributes":{"ID":357549,"DIS_CODE":0,"TOWNNAME":"東區","LI":"富強里","LIN":"30鄰","STREET":"裕農路","SECT":" ","MAREA":" ","LANE":"２８８巷","ALLEY":" ","HOUSE_NO":"１７號七樓","E_COORD97":170962.04999999999,"N_COORD97":2542975.3199999998,"ADDRESS":"裕農路２８８巷１７號七樓","OBJECTID":357540},"geometry":{"x":170962.04999999981,"y":2542975.3200000022}},{"attributes":{"ID":357550,"DIS_CODE":0,"TOWNNAME":"仁德區","LI":"仁愛里","LIN":"26鄰","STREET":"機場路","SECT":" ","MAREA":" ","LANE":" ","ALLEY":" ","HOUSE_NO":"１５１８號","E_COORD97":169689.289846,"N_COORD97":2539686.9279299998,"ADDRESS":"機場路１５１８號","OBJECTID":357541},"geometry":{"x":169689.28984600119,"y":2539686.9279300012}},{"attributes":{"ID":357551,"DIS_CODE":0,"TOWNNAME":"仁德區","LI":"仁愛里","LIN":"26鄰","STREET":"大同路","SECT":"三段","MAREA":" ","LANE":" ","ALLEY":" ","HOUSE_NO":"２３８號","E_COORD97":169737.807485,"N_COORD97":2539680.4720999999,"ADDRESS":"大同路三段２３８號","OBJECTID":357542},"geometry":{"x":169737.80748500116,"y":2539680.4721000008}},{"attributes":{"ID":357552,"DIS_CODE":0,"TOWNNAME":"仁德區","LI":"仁愛里","LIN":"26鄰","STREET":"機場路","SECT":" ","MAREA":" ","LANE":" ","ALLEY":" ","HOUSE_NO":"１５５８號","E_COORD97":169693.10345,"N_COORD97":2539732.75373,"ADDRESS":"機場路１５５８號","OBJECTID":357543},"geometry":{"x":169693.10345000029,"y":2539732.7537300009}},{"attributes":{"ID":357553,"DIS_CODE":0,"TOWNNAME":"仁德區","LI":"仁愛里","LIN":"26鄰","STREET":"大同路","SECT":"三段","MAREA":" ","LANE":" ","ALLEY":" ","HOUSE_NO":"２０２號","E_COORD97":169725.30730700001,"N_COORD97":2539746.0357400002,"ADDRESS":"大同路三段２０２號","OBJECTID":357544},"geometry":{"x":169725.30730700027,"y":2539746.0357390009}},{"attributes":{"ID":357554,"DIS_CODE":0,"TOWNNAME":"仁德區","LI":"仁愛里","LIN":"26鄰","STREET":"大同路","SECT":"三段","MAREA":" ","LANE":" ","ALLEY":" ","HOUSE_NO":"２０８號","E_COORD97":169730.18025800001,"N_COORD97":2539737.7807399998,"ADDRESS":"大同路三段２０８號","OBJECTID":357545},"geometry":{"x":169730.18025800213,"y":2539737.7807440031}},{"attributes":{"ID":357555,"DIS_CODE":0,"TOWNNAME":"仁德區","LI":"仁愛里","LIN":"26鄰","STREET":"大同路","SECT":"三段","MAREA":" ","LANE":" ","ALLEY":" ","HOUSE_NO":"３４２號","E_COORD97":169752.161578,"N_COORD97":2539506.4818899999,"ADDRESS":"大同路三段３４２號","OBJECTID":357546},"geometry":{"x":169752.16157799866,"y":2539506.4818929993}},{"attributes":{"ID":357556,"DIS_CODE":0,"TOWNNAME":"仁德區","LI":"仁愛里","LIN":"26鄰","STREET":"大同路","SECT":"三段","MAREA":" ","LANE":" ","ALLEY":" ","HOUSE_NO":"３４６號","E_COORD97":169753.00904800001,"N_COORD97":2539500.6610599998,"ADDRESS":"大同路三段３４６號","OBJECTID":357547},"geometry":{"x":169753.00904800184,"y":2539500.6610620003}},{"attributes":{"ID":357557,"DIS_CODE":0,"TOWNNAME":"仁德區","LI":"仁愛里","LIN":"26鄰","STREET":"大同路","SECT":"三段","MAREA":" ","LANE":" ","ALLEY":" ","HOUSE_NO":"３５６號","E_COORD97":169754.70397999999,"N_COORD97":2539482.36357,"ADDRESS":"大同路三段３５６號","OBJECTID":357548},"geometry":{"x":169754.70398000069,"y":2539482.363570001}},{"attributes":{"ID":357558,"DIS_CODE":0,"TOWNNAME":"仁德區","LI":"仁愛里","LIN":"26鄰","STREET":"機場路","SECT":" ","MAREA":" ","LANE":" ","ALLEY":" ","HOUSE_NO":"１４００號","E_COORD97":169693.38,"N_COORD97":2539507.0499999998,"ADDRESS":"機場路１４００號","OBJECTID":357549},"geometry":{"x":169693.37999999989,"y":2539507.0500000007}},{"attributes":{"ID":357559,"DIS_CODE":0,"TOWNNAME":"仁德區","LI":"仁愛里","LIN":"26鄰","STREET":"機場路","SECT":" ","MAREA":" ","LANE":" ","ALLEY":" ","HOUSE_NO":"１３９２號","E_COORD97":169693.38,"N_COORD97":2539491.8500000001,"ADDRESS":"機場路１３９２號","OBJECTID":357550},"geometry":{"x":169693.37999999989,"y":2539491.8500000034}},{"attributes":{"ID":357560,"DIS_CODE":0,"TOWNNAME":"仁德區","LI":"仁愛里","LIN":"26鄰","STREET":"機場路","SECT":" ","MAREA":" ","LANE":" ","ALLEY":" ","HOUSE_NO":"１３９０號","E_COORD97":169693.38,"N_COORD97":2539486.6499999999,"ADDRESS":"機場路１３９０號","OBJECTID":357551},"geometry":{"x":169693.37999999989,"y":2539486.6500000004}},{"attributes":{"ID":357561,"DIS_CODE":0,"TOWNNAME":"安南區","LI":"新順里","LIN":"25鄰","STREET":"慶安路","SECT":" ","MAREA":" ","LANE":" ","ALLEY":" ","HOUSE_NO":"６１號","E_COORD97":169471.85999999999,"N_COORD97":2549136.73,"ADDRESS":"慶安路６１號","OBJECTID":357552},"geometry":{"x":169471.86000000034,"y":2549136.7300000023}},{"attributes":{"ID":357562,"DIS_CODE":0,"TOWNNAME":"安南區","LI":"新順里","LIN":"25鄰","STREET":"慶安路","SECT":" ","MAREA":" ","LANE":" ","ALLEY":" ","HOUSE_NO":"６３號","E_COORD97":169473.19,"N_COORD97":2549141.5099999998,"ADDRESS":"慶安路６３號","OBJECTID":357553},"geometry":{"x":169473.19000000041,"y":2549141.5100000016}},{"attributes":{"ID":357563,"DIS_CODE":0,"TOWNNAME":"安南區","LI":"州北里","LIN":"26鄰","STREET":"北安路","SECT":"四段","MAREA":" ","LANE":"５４８巷","ALLEY":" ","HOUSE_NO":"１００號","E_COORD97":169751.51000000001,"N_COORD97":2551846.6699999999,"ADDRESS":"北安路四段５４８巷１００號","OBJECTID":357554},"geometry":{"x":169751.50999999978,"y":2551846.6699999999}},{"attributes":{"ID":357564,"DIS_CODE":0,"TOWNNAME":"安南區","LI":"大安里","LIN":"6鄰","STREET":"理安街","SECT":" ","MAREA":" ","LANE":" ","ALLEY":" ","HOUSE_NO":"７６號","E_COORD97":167371.82999999999,"N_COORD97":2548022.4399999999,"ADDRESS":"理安街７６號","OBJECTID":357555},"geometry":{"x":167371.83000000007,"y":2548022.4400000013}},{"attributes":{"ID":357565,"DIS_CODE":0,"TOWNNAME":"安南區","LI":"\u25A0南里","LIN":"4鄰","STREET":"環福街","SECT":" ","MAREA":" ","LANE":" ","ALLEY":" ","HOUSE_NO":"５１號","E_COORD97":170242.60999999999,"N_COORD97":2552473.2400000002,"ADDRESS":"環福街５１號","OBJECTID":357556},"geometry":{"x":170242.61000000127,"y":2552473.2400000021}},{"attributes":{"ID":357566,"DIS_CODE":0,"TOWNNAME":"安南區","LI":"州北里","LIN":"26鄰","STREET":"北安路","SECT":"四段","MAREA":" ","LANE":"５４８巷","ALLEY":" ","HOUSE_NO":"１０４號","E_COORD97":169755.45999999999,"N_COORD97":2551838.9700000002,"ADDRESS":"北安路四段５４８巷１０４號","OBJECTID":357557},"geometry":{"x":169755.45999999996,"y":2551838.9700000007}},{"attributes":{"ID":357567,"DIS_CODE":0,"TOWNNAME":"安南區","LI":"州北里","LIN":"26鄰","STREET":"北安路","SECT":"四段","MAREA":" ","LANE":"５４８巷","ALLEY":" ","HOUSE_NO":"９６號","E_COORD97":169748.28,"N_COORD97":2551854.5600000001,"ADDRESS":"北安路四段５４８巷９６號","OBJECTID":357558},"geometry":{"x":169748.28000000119,"y":2551854.5600000005}},{"attributes":{"ID":357568,"DIS_CODE":0,"TOWNNAME":"東區","LI":"富強里","LIN":"30鄰","STREET":"裕農路","SECT":" ","MAREA":" ","LANE":"２８８巷","ALLEY":" ","HOUSE_NO":"１７號七樓之１","E_COORD97":170962.04999999999,"N_COORD97":2542975.3199999998,"ADDRESS":"裕農路２８８巷１７號七樓之１","OBJECTID":357559},"geometry":{"x":170962.04999999981,"y":2542975.3200000022}},{"attributes":{"ID":357569,"DIS_CODE":0,"TOWNNAME":"東區","LI":"富強里","LIN":"30鄰","STREET":"裕農路","SECT":" ","MAREA":" ","LANE":"２８８巷","ALLEY":" ","HOUSE_NO":"１７號七樓之２","E_COORD97":170962.04999999999,"N_COORD97":2542975.3199999998,"ADDRESS":"裕農路２８８巷１７號七樓之２","OBJECTID":357560},"geometry":{"x":170962.04999999981,"y":2542975.3200000022}},{"attributes":{"ID":357570,"DIS_CODE":0,"TOWNNAME":"東區","LI":"富強里","LIN":"30鄰","STREET":"裕農路","SECT":" ","MAREA":" ","LANE":"２８８巷","ALLEY":" ","HOUSE_NO":"１７號七樓之３","E_COORD97":170962.04999999999,"N_COORD97":2542975.3199999998,"ADDRESS":"裕農路２８８巷１７號七樓之３","OBJECTID":357561},"geometry":{"x":170962.04999999981,"y":2542975.3200000022}},{"attributes":{"ID":357571,"DIS_CODE":0,"TOWNNAME":"東區","LI":"富強里","LIN":"30鄰","STREET":"裕農路","SECT":" ","MAREA":" ","LANE":"２８８巷","ALLEY":" ","HOUSE_NO":"１７號九樓","E_COORD97":170962.04999999999,"N_COORD97":2542975.3199999998,"ADDRESS":"裕農路２８８巷１７號九樓","OBJECTID":357562},"geometry":{"x":170962.04999999981,"y":2542975.3200000022}},{"attributes":{"ID":357572,"DIS_CODE":0,"TOWNNAME":"東區","LI":"富強里","LIN":"30鄰","STREET":"裕農路","SECT":" ","MAREA":" ","LANE":"２８８巷","ALLEY":" ","HOUSE_NO":"１７號九樓之１","E_COORD97":170962.04999999999,"N_COORD97":2542975.3199999998,"ADDRESS":"裕農路２８８巷１７號九樓之１","OBJECTID":357563},"geometry":{"x":170962.04999999981,"y":2542975.3200000022}},{"attributes":{"ID":357573,"DIS_CODE":0,"TOWNNAME":"東區","LI":"富強里","LIN":"30鄰","STREET":"裕農路","SECT":" ","MAREA":" ","LANE":"２８８巷","ALLEY":" ","HOUSE_NO":"１７號九樓之２","E_COORD97":170962.04999999999,"N_COORD97":2542975.3199999998,"ADDRESS":"裕農路２８８巷１７號九樓之２","OBJECTID":357564},"geometry":{"x":170962.04999999981,"y":2542975.3200000022}},{"attributes":{"ID":357574,"DIS_CODE":0,"TOWNNAME":"東區","LI":"富強里","LIN":"30鄰","STREET":"裕農路","SECT":" ","MAREA":" ","LANE":"２８８巷","ALLEY":" ","HOUSE_NO":"１７號九樓之３","E_COORD97":170962.04999999999,"N_COORD97":2542975.3199999998,"ADDRESS":"裕農路２８８巷１７號九樓之３","OBJECTID":357565},"geometry":{"x":170962.04999999981,"y":2542975.3200000022}},{"attributes":{"ID":357575,"DIS_CODE":0,"TOWNNAME":"東區","LI":"富強里","LIN":"30鄰","STREET":"裕農路","SECT":" ","MAREA":" ","LANE":"２８８巷","ALLEY":" ","HOUSE_NO":"１７號二樓","E_COORD97":170962.04999999999,"N_COORD97":2542975.3199999998,"ADDRESS":"裕農路２８８巷１７號二樓","OBJECTID":357566},"geometry":{"x":170962.04999999981,"y":2542975.3200000022}},{"attributes":{"ID":357576,"DIS_CODE":0,"TOWNNAME":"東區","LI":"富強里","LIN":"30鄰","STREET":"裕農路","SECT":" ","MAREA":" ","LANE":"２８８巷","ALLEY":" ","HOUSE_NO":"１７號二樓之１","E_COORD97":170962.04999999999,"N_COORD97":2542975.3199999998,"ADDRESS":"裕農路２８８巷１７號二樓之１","OBJECTID":357567},"geometry":{"x":170962.04999999981,"y":2542975.3200000022}},{"attributes":{"ID":357577,"DIS_CODE":0,"TOWNNAME":"永康區","LI":"烏竹里","LIN":"7鄰","STREET":"龍橋街","SECT":" ","MAREA":" ","LANE":"４５９巷","ALLEY":" ","HOUSE_NO":"１４號","E_COORD97":174325.14999999999,"N_COORD97":2549326.0800000001,"ADDRESS":"龍橋街４５９巷１４號","OBJECTID":357568},"geometry":{"x":174325.15000000037,"y":2549326.0799999982}},{"attributes":{"ID":357578,"DIS_CODE":0,"TOWNNAME":"仁德區","LI":"仁愛里","LIN":"26鄰","STREET":"大同路","SECT":"三段","MAREA":" ","LANE":"３５８巷","ALLEY":" ","HOUSE_NO":"３號","E_COORD97":169733.52499999999,"N_COORD97":2539457.77,"ADDRESS":"大同路三段３５８巷３號","OBJECTID":357569},"geometry":{"x":169733.52500000037,"y":2539457.7699999996}},{"attributes":{"ID":357579,"DIS_CODE":0,"TOWNNAME":"仁德區","LI":"仁愛里","LIN":"26鄰","STREET":"大同路","SECT":"三段","MAREA":" ","LANE":" ","ALLEY":" ","HOUSE_NO":"３７８號","E_COORD97":169760.04500000001,"N_COORD97":2539438.0342999999,"ADDRESS":"大同路三段３７８號","OBJECTID":357570},"geometry":{"x":169760.04499999993,"y":2539438.0342960004}},{"attributes":{"ID":357580,"DIS_CODE":0,"TOWNNAME":"仁德區","LI":"仁愛里","LIN":"26鄰","STREET":"大同路","SECT":"三段","MAREA":" ","LANE":" ","ALLEY":" ","HOUSE_NO":"３６８號","E_COORD97":169758.122,"N_COORD97":2539456.3640700001,"ADDRESS":"大同路三段３６８號","OBJECTID":357571},"geometry":{"x":169758.12200000044,"y":2539456.364070002}},{"attributes":{"ID":357581,"DIS_CODE":0,"TOWNNAME":"仁德區","LI":"仁愛里","LIN":"26鄰","STREET":"大同路","SECT":"三段","MAREA":" ","LANE":" ","ALLEY":" ","HOUSE_NO":"３８６號","E_COORD97":169761.48699999999,"N_COORD97":2539424.5934700002,"ADDRESS":"大同路三段３８６號","OBJECTID":357572},"geometry":{"x":169761.48699999973,"y":2539424.5934700016}},{"attributes":{"ID":357582,"DIS_CODE":0,"TOWNNAME":"仁德區","LI":"仁愛里","LIN":"26鄰","STREET":"大同路","SECT":"三段","MAREA":" ","LANE":" ","ALLEY":" ","HOUSE_NO":"３９２號","E_COORD97":169762.927,"N_COORD97":2539410.3059800002,"ADDRESS":"大同路三段３９２號","OBJECTID":357573},"geometry":{"x":169762.92699999921,"y":2539410.305978002}},{"attributes":{"ID":357583,"DIS_CODE":0,"TOWNNAME":"仁德區","LI":"仁愛里","LIN":"26鄰","STREET":"大同路","SECT":"三段","MAREA":" ","LANE":" ","ALLEY":" ","HOUSE_NO":"４２２號","E_COORD97":169774.67000000001,"N_COORD97":2539348.3405200001,"ADDRESS":"大同路三段４２２號","OBJECTID":357574},"geometry":{"x":169774.66999999993,"y":2539348.3405200019}},{"attributes":{"ID":357584,"DIS_CODE":0,"TOWNNAME":"仁德區","LI":"仁愛里","LIN":"26鄰","STREET":"大同路","SECT":"三段","MAREA":" ","LANE":" ","ALLEY":" ","HOUSE_NO":"４２６號","E_COORD97":169775.07000000001,"N_COORD97":2539342.2021900001,"ADDRESS":"大同路三段４２６號","OBJECTID":357575},"geometry":{"x":169775.07000000123,"y":2539342.2021920029}},{"attributes":{"ID":357585,"DIS_CODE":0,"TOWNNAME":"仁德區","LI":"仁愛里","LIN":"26鄰","STREET":"大同路","SECT":"三段","MAREA":" ","LANE":" ","ALLEY":" ","HOUSE_NO":"４２８號","E_COORD97":169775.57000000001,"N_COORD97":2539337.9688599999,"ADDRESS":"大同路三段４２８號","OBJECTID":357576},"geometry":{"x":169775.5700000003,"y":2539337.9688610006}},{"attributes":{"ID":357586,"DIS_CODE":0,"TOWNNAME":"仁德區","LI":"仁愛里","LIN":"26鄰","STREET":"大同路","SECT":"三段","MAREA":" ","LANE":" ","ALLEY":" ","HOUSE_NO":"４３８號","E_COORD97":169777.57000000001,"N_COORD97":2539322.6005299999,"ADDRESS":"大同路三段４３８號","OBJECTID":357577},"geometry":{"x":169777.5700000003,"y":2539322.6005300041}},{"attributes":{"ID":357587,"DIS_CODE":0,"TOWNNAME":"永康區","LI":"永康里","LIN":"26鄰","STREET":"永明街","SECT":" ","MAREA":" ","LANE":"５３巷","ALLEY":" ","HOUSE_NO":"１５號","E_COORD97":174125.79000000001,"N_COORD97":2547357.6200000001,"ADDRESS":"永明街５３巷１５號","OBJECTID":357578},"geometry":{"x":174125.78999999911,"y":2547357.6200000029}},{"attributes":{"ID":357588,"DIS_CODE":0,"TOWNNAME":"永康區","LI":"烏竹里","LIN":"1鄰","STREET":"烏竹北街","SECT":" ","MAREA":" ","LANE":"９８巷","ALLEY":" ","HOUSE_NO":"５７號","E_COORD97":174508.41,"N_COORD97":2549616.5299999998,"ADDRESS":"烏竹北街９８巷５７號","OBJECTID":357579},"geometry":{"x":174508.41000000201,"y":2549616.5299999993}},{"attributes":{"ID":357589,"DIS_CODE":0,"TOWNNAME":"東區","LI":"富強里","LIN":"30鄰","STREET":"裕農路","SECT":" ","MAREA":" ","LANE":"２８８巷","ALLEY":" ","HOUSE_NO":"１７號二樓之２","E_COORD97":170962.04999999999,"N_COORD97":2542975.3199999998,"ADDRESS":"裕農路２８８巷１７號二樓之２","OBJECTID":357580},"geometry":{"x":170962.04999999981,"y":2542975.3200000022}},{"attributes":{"ID":357590,"DIS_CODE":0,"TOWNNAME":"東區","LI":"富強里","LIN":"30鄰","STREET":"裕農路","SECT":" ","MAREA":" ","LANE":"２８８巷","ALLEY":" ","HOUSE_NO":"１７號八樓","E_COORD97":170962.04999999999,"N_COORD97":2542975.3199999998,"ADDRESS":"裕農路２８８巷１７號八樓","OBJECTID":357581},"geometry":{"x":170962.04999999981,"y":2542975.3200000022}},{"attributes":{"ID":357591,"DIS_CODE":0,"TOWNNAME":"東區","LI":"自強里","LIN":"8鄰","STREET":"東門路","SECT":"三段","MAREA":" ","LANE":" ","ALLEY":" ","HOUSE_NO":"３１號十一樓之１","E_COORD97":171106.04000000001,"N_COORD97":2542333.8300000001,"ADDRESS":"東門路三段３１號十一樓之１","OBJECTID":357582},"geometry":{"x":171106.04000000004,"y":2542333.8300000038}},{"attributes":{"ID":357592,"DIS_CODE":0,"TOWNNAME":"中西區","LI":"民主里","LIN":"8鄰","STREET":"康樂街","SECT":" ","MAREA":" ","LANE":" ","ALLEY":" ","HOUSE_NO":"４７號三樓之１","E_COORD97":167374.76000000001,"N_COORD97":2543568.9399999999,"ADDRESS":"康樂街４７號三樓之１","OBJECTID":357583},"geometry":{"x":167374.75999999978,"y":2543568.9399999995}},{"attributes":{"ID":357593,"DIS_CODE":0,"TOWNNAME":"中西區","LI":"民主里","LIN":"8鄰","STREET":"康樂街","SECT":" ","MAREA":" ","LANE":" ","ALLEY":" ","HOUSE_NO":"４７號五樓之１","E_COORD97":167374.76000000001,"N_COORD97":2543568.9399999999,"ADDRESS":"康樂街４７號五樓之１","OBJECTID":357584},"geometry":{"x":167374.75999999978,"y":2543568.9399999995}},{"attributes":{"ID":357594,"DIS_CODE":0,"TOWNNAME":"中西區","LI":"民主里","LIN":"8鄰","STREET":"康樂街","SECT":" ","MAREA":" ","LANE":" ","ALLEY":" ","HOUSE_NO":"４７號五樓之２","E_COORD97":167374.76000000001,"N_COORD97":2543568.9399999999,"ADDRESS":"康樂街４７號五樓之２","OBJECTID":357585},"geometry":{"x":167374.75999999978,"y":2543568.9399999995}},{"attributes":{"ID":357595,"DIS_CODE":0,"TOWNNAME":"中西區","LI":"民主里","LIN":"8鄰","STREET":"康樂街","SECT":" ","MAREA":" ","LANE":" ","ALLEY":" ","HOUSE_NO":"４７號四樓之１","E_COORD97":167374.76000000001,"N_COORD97":2543568.9399999999,"ADDRESS":"康樂街４７號四樓之１","OBJECTID":357586},"geometry":{"x":167374.75999999978,"y":2543568.9399999995}},{"attributes":{"ID":357596,"DIS_CODE":0,"TOWNNAME":"中西區","LI":"民主里","LIN":"8鄰","STREET":"康樂街","SECT":" ","MAREA":" ","LANE":" ","ALLEY":" ","HOUSE_NO":"４７號四樓之２","E_COORD97":167374.76000000001,"N_COORD97":2543568.9399999999,"ADDRESS":"康樂街４７號四樓之２","OBJECTID":357587},"geometry":{"x":167374.75999999978,"y":2543568.9399999995}},{"attributes":{"ID":357597,"DIS_CODE":0,"TOWNNAME":"中西區","LI":"安海里","LIN":"8鄰","STREET":"金華路","SECT":"三段","MAREA":" ","LANE":" ","ALLEY":" ","HOUSE_NO":"２１８號七樓之１","E_COORD97":167349.89999999999,"N_COORD97":2543920.5099999998,"ADDRESS":"金華路三段２１８號七樓之１","OBJECTID":357588},"geometry":{"x":167349.90000000224,"y":2543920.5100000016}},{"attributes":{"ID":357598,"DIS_CODE":0,"TOWNNAME":"中西區","LI":"安海里","LIN":"8鄰","STREET":"金華路","SECT":"三段","MAREA":" ","LANE":" ","ALLEY":" ","HOUSE_NO":"２１８號七樓之１０","E_COORD97":167349.89999999999,"N_COORD97":2543920.5099999998,"ADDRESS":"金華路三段２１８號七樓之１０","OBJECTID":357589},"geometry":{"x":167349.90000000224,"y":2543920.5100000016}},{"attributes":{"ID":357599,"DIS_CODE":0,"TOWNNAME":"新營區","LI":"新南里","LIN":"24鄰","STREET":"金華路","SECT":"二段","MAREA":" ","LANE":" ","ALLEY":" ","HOUSE_NO":"１８０號","E_COORD97":178382.87,"N_COORD97":2578561.6299999999,"ADDRESS":"金華路二段１８０號","OBJECTID":357590},"geometry":{"x":178382.87000000104,"y":2578561.6300000008}},{"attributes":{"ID":357600,"DIS_CODE":0,"TOWNNAME":"中西區","LI":"大涼里","LIN":"26鄰","STREET":"永華一街","SECT":" ","MAREA":" ","LANE":"４４巷","ALLEY":" ","HOUSE_NO":"１３號","E_COORD97":166900.72,"N_COORD97":2543368.5699999998,"ADDRESS":"永華一街４４巷１３號","OBJECTID":357591},"geometry":{"x":166900.71999999974,"y":2543368.5700000003}},{"attributes":{"ID":357601,"DIS_CODE":0,"TOWNNAME":"中西區","LI":"大涼里","LIN":"26鄰","STREET":"永華一街","SECT":" ","MAREA":" ","LANE":"４４巷","ALLEY":" ","HOUSE_NO":"１５號","E_COORD97":166905.60000000001,"N_COORD97":2543368.7200000002,"ADDRESS":"永華一街４４巷１５號","OBJECTID":357592},"geometry":{"x":166905.60000000056,"y":2543368.7200000007}},{"attributes":{"ID":357602,"DIS_CODE":0,"TOWNNAME":"東區","LI":"富強里","LIN":"30鄰","STREET":"裕農路","SECT":" ","MAREA":" ","LANE":"２８８巷","ALLEY":" ","HOUSE_NO":"１７號八樓之１","E_COORD97":170962.04999999999,"N_COORD97":2542975.3199999998,"ADDRESS":"裕農路２８８巷１７號八樓之１","OBJECTID":357593},"geometry":{"x":170962.04999999981,"y":2542975.3200000022}},{"attributes":{"ID":357603,"DIS_CODE":0,"TOWNNAME":"東區","LI":"富強里","LIN":"30鄰","STREET":"裕農路","SECT":" ","MAREA":" ","LANE":"２８８巷","ALLEY":" ","HOUSE_NO":"１７號八樓之２","E_COORD97":170962.04999999999,"N_COORD97":2542975.3199999998,"ADDRESS":"裕農路２８８巷１７號八樓之２","OBJECTID":357594},"geometry":{"x":170962.04999999981,"y":2542975.3200000022}},{"attributes":{"ID":357604,"DIS_CODE":0,"TOWNNAME":"東區","LI":"富強里","LIN":"30鄰","STREET":"裕農路","SECT":" ","MAREA":" ","LANE":"２８８巷","ALLEY":" ","HOUSE_NO":"１７號八樓之３","E_COORD97":170962.04999999999,"N_COORD97":2542975.3199999998,"ADDRESS":"裕農路２８８巷１７號八樓之３","OBJECTID":357595},"geometry":{"x":170962.04999999981,"y":2542975.3200000022}},{"attributes":{"ID":357605,"DIS_CODE":0,"TOWNNAME":"東區","LI":"富強里","LIN":"30鄰","STREET":"裕農路","SECT":" ","MAREA":" ","LANE":"２８８巷","ALLEY":" ","HOUSE_NO":"１７號十一樓","E_COORD97":170962.04999999999,"N_COORD97":2542975.3199999998,"ADDRESS":"裕農路２８８巷１７號十一樓","OBJECTID":357596},"geometry":{"x":170962.04999999981,"y":2542975.3200000022}},{"attributes":{"ID":357606,"DIS_CODE":0,"TOWNNAME":"東區","LI":"富強里","LIN":"30鄰","STREET":"裕農路","SECT":" ","MAREA":" ","LANE":"２８８巷","ALLEY":" ","HOUSE_NO":"１７號十一樓之１","E_COORD97":170962.04999999999,"N_COORD97":2542975.3199999998,"ADDRESS":"裕農路２８８巷１７號十一樓之１","OBJECTID":357597},"geometry":{"x":170962.04999999981,"y":2542975.3200000022}},{"attributes":{"ID":357607,"DIS_CODE":0,"TOWNNAME":"東區","LI":"富強里","LIN":"30鄰","STREET":"裕農路","SECT":" ","MAREA":" ","LANE":"２８８巷","ALLEY":" ","HOUSE_NO":"１７號十一樓之２","E_COORD97":170962.04999999999,"N_COORD97":2542975.3199999998,"ADDRESS":"裕農路２８８巷１７號十一樓之２","OBJECTID":357598},"geometry":{"x":170962.04999999981,"y":2542975.3200000022}},{"attributes":{"ID":357608,"DIS_CODE":0,"TOWNNAME":"東區","LI":"富強里","LIN":"30鄰","STREET":"裕農路","SECT":" ","MAREA":" ","LANE":"２８８巷","ALLEY":" ","HOUSE_NO":"１７號十一樓之３","E_COORD97":170962.04999999999,"N_COORD97":2542975.3199999998,"ADDRESS":"裕農路２８８巷１７號十一樓之３","OBJECTID":357599},"geometry":{"x":170962.04999999981,"y":2542975.3200000022}},{"attributes":{"ID":357609,"DIS_CODE":0,"TOWNNAME":"東區","LI":"富強里","LIN":"30鄰","STREET":"裕農路","SECT":" ","MAREA":" ","LANE":"２８８巷","ALLEY":" ","HOUSE_NO":"１７號十樓","E_COORD97":170962.04999999999,"N_COORD97":2542975.3199999998,"ADDRESS":"裕農路２８８巷１７號十樓","OBJECTID":357600},"geometry":{"x":170962.04999999981,"y":2542975.3200000022}}]}