{"displayFieldName":"TOWNNAME","fieldAliases":{"ID":"ID","DIS_CODE":"DIS_CODE","TOWNNAME":"TOWNNAME","LI":"LI","LIN":"LIN","STREET":"STREET","SECT":"SECT","MAREA":"MAREA","LANE":"LANE","ALLEY":"ALLEY","HOUSE_NO":"HOUSE_NO","E_COORD97":"E_COORD97","N_COORD97":"N_COORD97","ADDRESS":"ADDRESS","OBJECTID":"OBJECTID"},"geometryType":"esriGeometryPoint","spatialReference":{"wkid":102443,"latestWkid":3826},"fields":[{"name":"ID","type":"esriFieldTypeDouble","alias":"ID"},{"name":"DIS_CODE","type":"esriFieldTypeInteger","alias":"DIS_CODE"},{"name":"TOWNNAME","type":"esriFieldTypeString","alias":"TOWNNAME","length":8},{"name":"LI","type":"esriFieldTypeString","alias":"LI","length":8},{"name":"LIN","type":"esriFieldTypeString","alias":"LIN","length":12},{"name":"STREET","type":"esriFieldTypeString","alias":"STREET","length":20},{"name":"SECT","type":"esriFieldTypeString","alias":"SECT","length":8},{"name":"MAREA","type":"esriFieldTypeString","alias":"MAREA","length":12},{"name":"LANE","type":"esriFieldTypeString","alias":"LANE","length":10},{"name":"ALLEY","type":"esriFieldTypeString","alias":"ALLEY","length":10},{"name":"HOUSE_NO","type":"esriFieldTypeString","alias":"HOUSE_NO","length":20},{"name":"E_COORD97","type":"esriFieldTypeDouble","alias":"E_COORD97"},{"name":"N_COORD97","type":"esriFieldTypeDouble","alias":"N_COORD97"},{"name":"ADDRESS","type":"esriFieldTypeString","alias":"ADDRESS","length":50},{"name":"OBJECTID","type":"esriFieldTypeOID","alias":"OBJECTID"}],"features":[{"attributes":{"ID":88401,"DIS_CODE":0,"TOWNNAME":"永康區","LI":"東橋里","LIN":"10鄰","STREET":"中山南路","SECT":" ","MAREA":" ","LANE":"２３１巷","ALLEY":"２６弄","HOUSE_NO":"１６號","E_COORD97":171572.76000000001,"N_COORD97":2546323.8399999999,"ADDRESS":"中山南路２３１巷２６弄１６號","OBJECTID":88401},"geometry":{"x":171572.75999999885,"y":2546323.8400000036}},{"attributes":{"ID":88402,"DIS_CODE":0,"TOWNNAME":"永康區","LI":"西灣里","LIN":"32鄰","STREET":"國光八街","SECT":" ","MAREA":" ","LANE":"６０巷","ALLEY":"３弄","HOUSE_NO":"１號","E_COORD97":174254.17999999999,"N_COORD97":2545808.5,"ADDRESS":"國光八街６０巷３弄１號","OBJECTID":88402},"geometry":{"x":174254.18000000063,"y":2545808.5000000019}},{"attributes":{"ID":88403,"DIS_CODE":0,"TOWNNAME":"永康區","LI":"西灣里","LIN":"44鄰","STREET":"大灣路","SECT":" ","MAREA":" ","LANE":"９４２巷","ALLEY":"４１８弄","HOUSE_NO":"４號","E_COORD97":173985.95000000001,"N_COORD97":2545555.23,"ADDRESS":"大灣路９４２巷４１８弄４號","OBJECTID":88403},"geometry":{"x":173985.95000000205,"y":2545555.2300000004}},{"attributes":{"ID":88404,"DIS_CODE":0,"TOWNNAME":"永康區","LI":"東橋里","LIN":"10鄰","STREET":"中山南路","SECT":" ","MAREA":" ","LANE":"２３１巷","ALLEY":"２６弄","HOUSE_NO":"２０號","E_COORD97":171567.70999999999,"N_COORD97":2546330.0899999999,"ADDRESS":"中山南路２３１巷２６弄２０號","OBJECTID":88404},"geometry":{"x":171567.70999999996,"y":2546330.0900000017}},{"attributes":{"ID":88405,"DIS_CODE":0,"TOWNNAME":"永康區","LI":"東橋里","LIN":"10鄰","STREET":"中山南路","SECT":" ","MAREA":" ","LANE":"２３１巷","ALLEY":"２６弄","HOUSE_NO":"２號","E_COORD97":171589.82000000001,"N_COORD97":2546298.5800000001,"ADDRESS":"中山南路２３１巷２６弄２號","OBJECTID":88405},"geometry":{"x":171589.8200000003,"y":2546298.5799999982}},{"attributes":{"ID":88406,"DIS_CODE":0,"TOWNNAME":"永康區","LI":"西勢里","LIN":"7鄰","STREET":"富強路","SECT":"一段","MAREA":" ","LANE":"２７９巷","ALLEY":"１３弄","HOUSE_NO":"１４號","E_COORD97":175610.70999999999,"N_COORD97":2546582.2799999998,"ADDRESS":"富強路一段２７９巷１３弄１４號","OBJECTID":88406},"geometry":{"x":175610.70999999996,"y":2546582.2800000012}},{"attributes":{"ID":88407,"DIS_CODE":0,"TOWNNAME":"永康區","LI":"西勢里","LIN":"30鄰","STREET":"富強路","SECT":"一段","MAREA":" ","LANE":"２巷","ALLEY":"３１弄","HOUSE_NO":"１５號底一層之１","E_COORD97":175505.45999999999,"N_COORD97":2545921.2200000002,"ADDRESS":"富強路一段２巷３１弄１５號底一層之１","OBJECTID":88407},"geometry":{"x":175505.45999999996,"y":2545921.2200000007}},{"attributes":{"ID":88408,"DIS_CODE":0,"TOWNNAME":"永康區","LI":"西橋里","LIN":"19鄰","STREET":"大橋三街","SECT":" ","MAREA":" ","LANE":"５７巷","ALLEY":"７弄","HOUSE_NO":"６３號","E_COORD97":170467.73000000001,"N_COORD97":2546406.8799999999,"ADDRESS":"大橋三街５７巷７弄６３號","OBJECTID":88408},"geometry":{"x":170467.73000000045,"y":2546406.879999999}},{"attributes":{"ID":88409,"DIS_CODE":0,"TOWNNAME":"後壁區","LI":"後壁里","LIN":"12鄰","STREET":" ","SECT":" ","MAREA":"後壁","LANE":" ","ALLEY":" ","HOUSE_NO":"２２４號","E_COORD97":185291,"N_COORD97":2584741.3300000001,"ADDRESS":"後壁２２４號","OBJECTID":88409},"geometry":{"x":185291.00000000093,"y":2584741.3300000019}},{"attributes":{"ID":88410,"DIS_CODE":0,"TOWNNAME":"後壁區","LI":"後壁里","LIN":"12鄰","STREET":" ","SECT":" ","MAREA":"後壁","LANE":" ","ALLEY":" ","HOUSE_NO":"２２５號","E_COORD97":185298.97,"N_COORD97":2584741.79,"ADDRESS":"後壁２２５號","OBJECTID":88410},"geometry":{"x":185298.96999999881,"y":2584741.7899999991}},{"attributes":{"ID":88411,"DIS_CODE":0,"TOWNNAME":"後壁區","LI":"後壁里","LIN":"12鄰","STREET":" ","SECT":" ","MAREA":"後壁","LANE":" ","ALLEY":" ","HOUSE_NO":"２２６號","E_COORD97":185306.29000000001,"N_COORD97":2584742.1699999999,"ADDRESS":"後壁２２６號","OBJECTID":88411},"geometry":{"x":185306.29000000097,"y":2584742.1700000018}},{"attributes":{"ID":88412,"DIS_CODE":0,"TOWNNAME":"永康區","LI":"安康里","LIN":"18鄰","STREET":"中華西街","SECT":" ","MAREA":" ","LANE":" ","ALLEY":" ","HOUSE_NO":"７０號","E_COORD97":170768.42999999999,"N_COORD97":2546045.4900000002,"ADDRESS":"中華西街７０號","OBJECTID":88412},"geometry":{"x":170768.43000000063,"y":2546045.4900000039}},{"attributes":{"ID":88413,"DIS_CODE":0,"TOWNNAME":"永康區","LI":"永康里","LIN":"25鄰","STREET":"聖龍街","SECT":" ","MAREA":" ","LANE":" ","ALLEY":" ","HOUSE_NO":"１４６號","E_COORD97":174110.38,"N_COORD97":2547848.0600000001,"ADDRESS":"聖龍街１４６號","OBJECTID":88413},"geometry":{"x":174110.38000000082,"y":2547848.0600000005}},{"attributes":{"ID":88414,"DIS_CODE":0,"TOWNNAME":"永康區","LI":"安康里","LIN":"25鄰","STREET":"中華路","SECT":" ","MAREA":" ","LANE":" ","ALLEY":" ","HOUSE_NO":"７１３號","E_COORD97":170882.39999999999,"N_COORD97":2546360.2400000002,"ADDRESS":"中華路７１３號","OBJECTID":88414},"geometry":{"x":170882.40000000037,"y":2546360.2400000021}},{"attributes":{"ID":88415,"DIS_CODE":0,"TOWNNAME":"永康區","LI":"永康里","LIN":"39鄰","STREET":"永大一路","SECT":" ","MAREA":" ","LANE":" ","ALLEY":" ","HOUSE_NO":"２８號","E_COORD97":174300.72,"N_COORD97":2546495.4399999999,"ADDRESS":"永大一路２８號","OBJECTID":88415},"geometry":{"x":174300.7200000016,"y":2546495.4399999976}},{"attributes":{"ID":88416,"DIS_CODE":0,"TOWNNAME":"後壁區","LI":"後壁里","LIN":"12鄰","STREET":" ","SECT":" ","MAREA":"後壁","LANE":" ","ALLEY":" ","HOUSE_NO":"２２７號","E_COORD97":185312.79999999999,"N_COORD97":2584742.5600000001,"ADDRESS":"後壁２２７號","OBJECTID":88416},"geometry":{"x":185312.80000000075,"y":2584742.5600000005}},{"attributes":{"ID":88417,"DIS_CODE":0,"TOWNNAME":"後壁區","LI":"後壁里","LIN":"12鄰","STREET":" ","SECT":" ","MAREA":"後壁","LANE":" ","ALLEY":" ","HOUSE_NO":"２２８號","E_COORD97":185312.85999999999,"N_COORD97":2584723.6899999999,"ADDRESS":"後壁２２８號","OBJECTID":88417},"geometry":{"x":185312.86000000127,"y":2584723.6899999976}},{"attributes":{"ID":88418,"DIS_CODE":0,"TOWNNAME":"後壁區","LI":"後壁里","LIN":"12鄰","STREET":" ","SECT":" ","MAREA":"後壁","LANE":" ","ALLEY":" ","HOUSE_NO":"２５５號","E_COORD97":185568.19,"N_COORD97":2584676.6400000001,"ADDRESS":"後壁２５５號","OBJECTID":88418},"geometry":{"x":185568.19000000134,"y":2584676.6400000006}},{"attributes":{"ID":88419,"DIS_CODE":0,"TOWNNAME":"後壁區","LI":"後壁里","LIN":"12鄰","STREET":" ","SECT":" ","MAREA":"後壁","LANE":" ","ALLEY":" ","HOUSE_NO":"２６０號","E_COORD97":185684.59,"N_COORD97":2584636.6499999999,"ADDRESS":"後壁２６０號","OBJECTID":88419},"geometry":{"x":185684.58999999985,"y":2584636.6500000004}},{"attributes":{"ID":88420,"DIS_CODE":0,"TOWNNAME":"後壁區","LI":"後壁里","LIN":"12鄰","STREET":" ","SECT":" ","MAREA":"後壁","LANE":" ","ALLEY":" ","HOUSE_NO":"３００號","E_COORD97":185907.59,"N_COORD97":2584628.2599999998,"ADDRESS":"後壁３００號","OBJECTID":88420},"geometry":{"x":185907.59000000078,"y":2584628.2599999998}},{"attributes":{"ID":88421,"DIS_CODE":0,"TOWNNAME":"後壁區","LI":"後壁里","LIN":"12鄰","STREET":" ","SECT":" ","MAREA":"後壁","LANE":" ","ALLEY":" ","HOUSE_NO":"３０３號","E_COORD97":185920.41,"N_COORD97":2584625.4199999999,"ADDRESS":"後壁３０３號","OBJECTID":88421},"geometry":{"x":185920.41000000201,"y":2584625.4200000018}},{"attributes":{"ID":88422,"DIS_CODE":0,"TOWNNAME":"永康區","LI":"西橋里","LIN":"10鄰","STREET":"中華西街","SECT":" ","MAREA":" ","LANE":"８５巷","ALLEY":"１２弄","HOUSE_NO":"２６號","E_COORD97":170659.31,"N_COORD97":2546116.25,"ADDRESS":"中華西街８５巷１２弄２６號","OBJECTID":88422},"geometry":{"x":170659.31000000052,"y":2546116.25}},{"attributes":{"ID":88423,"DIS_CODE":0,"TOWNNAME":"永康區","LI":"西灣里","LIN":"18鄰","STREET":"大安街","SECT":" ","MAREA":" ","LANE":"２９３巷","ALLEY":"９弄","HOUSE_NO":"２之２號","E_COORD97":174624.13,"N_COORD97":2545563.1200000001,"ADDRESS":"大安街２９３巷９弄２之２號","OBJECTID":88423},"geometry":{"x":174624.13000000082,"y":2545563.120000001}},{"attributes":{"ID":88424,"DIS_CODE":0,"TOWNNAME":"永康區","LI":"西勢里","LIN":"7鄰","STREET":"富強路","SECT":"一段","MAREA":" ","LANE":"２７９巷","ALLEY":"３１弄","HOUSE_NO":"７號","E_COORD97":175583.20000000001,"N_COORD97":2546605.1299999999,"ADDRESS":"富強路一段２７９巷３１弄７號","OBJECTID":88424},"geometry":{"x":175583.20000000112,"y":2546605.129999999}},{"attributes":{"ID":88425,"DIS_CODE":0,"TOWNNAME":"永康區","LI":"西橋里","LIN":"21鄰","STREET":"大橋三街","SECT":" ","MAREA":" ","LANE":"５７巷","ALLEY":"１９弄","HOUSE_NO":"５５號","E_COORD97":170446.64000000001,"N_COORD97":2546483.2000000002,"ADDRESS":"大橋三街５７巷１９弄５５號","OBJECTID":88425},"geometry":{"x":170446.6400000006,"y":2546483.1999999993}},{"attributes":{"ID":88426,"DIS_CODE":0,"TOWNNAME":"永康區","LI":"西灣里","LIN":"18鄰","STREET":"大安街","SECT":" ","MAREA":" ","LANE":"２９３巷","ALLEY":"９弄","HOUSE_NO":"３號","E_COORD97":174630.23999999999,"N_COORD97":2545550.3700000001,"ADDRESS":"大安街２９３巷９弄３號","OBJECTID":88426},"geometry":{"x":174630.24000000115,"y":2545550.370000001}},{"attributes":{"ID":88427,"DIS_CODE":0,"TOWNNAME":"永康區","LI":"西勢里","LIN":"7鄰","STREET":"富強路","SECT":"一段","MAREA":" ","LANE":"２７９巷","ALLEY":"７弄","HOUSE_NO":"６號","E_COORD97":175647.89000000001,"N_COORD97":2546585.6200000001,"ADDRESS":"富強路一段２７９巷７弄６號","OBJECTID":88427},"geometry":{"x":175647.8900000006,"y":2546585.6200000029}},{"attributes":{"ID":88428,"DIS_CODE":0,"TOWNNAME":"永康區","LI":"西勢里","LIN":"7鄰","STREET":"富強路","SECT":"一段","MAREA":" ","LANE":"２７９巷","ALLEY":"３１弄","HOUSE_NO":"２０號","E_COORD97":175542.72,"N_COORD97":2546582.8799999999,"ADDRESS":"富強路一段２７９巷３１弄２０號","OBJECTID":88428},"geometry":{"x":175542.71999999974,"y":2546582.879999999}},{"attributes":{"ID":88429,"DIS_CODE":0,"TOWNNAME":"安南區","LI":"國安里","LIN":"10鄰","STREET":"郡安路","SECT":"六段","MAREA":" ","LANE":"１１１巷","ALLEY":"３８弄","HOUSE_NO":"２號","E_COORD97":166499.23000000001,"N_COORD97":2547270.3500000001,"ADDRESS":"郡安路六段１１１巷３８弄２號","OBJECTID":88429},"geometry":{"x":166499.23000000045,"y":2547270.3500000015}},{"attributes":{"ID":88430,"DIS_CODE":0,"TOWNNAME":"安南區","LI":"國安里","LIN":"10鄰","STREET":"郡安路","SECT":"六段","MAREA":" ","LANE":"１１１巷","ALLEY":"３８弄","HOUSE_NO":"６號","E_COORD97":166490.32999999999,"N_COORD97":2547268.6899999999,"ADDRESS":"郡安路六段１１１巷３８弄６號","OBJECTID":88430},"geometry":{"x":166490.33000000007,"y":2547268.6900000013}},{"attributes":{"ID":88431,"DIS_CODE":0,"TOWNNAME":"永康區","LI":"西灣里","LIN":"44鄰","STREET":"大灣路","SECT":" ","MAREA":" ","LANE":"９４２巷","ALLEY":"４１８弄","HOUSE_NO":"１號","E_COORD97":173986.89999999999,"N_COORD97":2545572.4500000002,"ADDRESS":"大灣路９４２巷４１８弄１號","OBJECTID":88431},"geometry":{"x":173986.9000000013,"y":2545572.4499999993}},{"attributes":{"ID":88432,"DIS_CODE":0,"TOWNNAME":"安南區","LI":"國安里","LIN":"10鄰","STREET":"郡安路","SECT":"六段","MAREA":" ","LANE":"１１１巷","ALLEY":"３８弄","HOUSE_NO":"８號","E_COORD97":166480.81,"N_COORD97":2547270.7599999998,"ADDRESS":"郡安路六段１１１巷３８弄８號","OBJECTID":88432},"geometry":{"x":166480.81000000052,"y":2547270.7600000016}},{"attributes":{"ID":88433,"DIS_CODE":0,"TOWNNAME":"後壁區","LI":"後壁里","LIN":"12鄰","STREET":" ","SECT":" ","MAREA":"後壁","LANE":" ","ALLEY":" ","HOUSE_NO":"３３６號","E_COORD97":185928.54000000001,"N_COORD97":2584746.29,"ADDRESS":"後壁３３６號","OBJECTID":88433},"geometry":{"x":185928.54000000097,"y":2584746.2899999991}},{"attributes":{"ID":88434,"DIS_CODE":0,"TOWNNAME":"安南區","LI":"國安里","LIN":"10鄰","STREET":"郡安路","SECT":"六段","MAREA":" ","LANE":"１１１巷","ALLEY":"３８弄","HOUSE_NO":"１０號","E_COORD97":166473.14999999999,"N_COORD97":2547264.77,"ADDRESS":"郡安路六段１１１巷３８弄１０號","OBJECTID":88434},"geometry":{"x":166473.15000000037,"y":2547264.7700000014}},{"attributes":{"ID":88435,"DIS_CODE":0,"TOWNNAME":"安南區","LI":"國安里","LIN":"10鄰","STREET":"郡安路","SECT":"六段","MAREA":" ","LANE":"１１１巷","ALLEY":"３８弄","HOUSE_NO":"１２號","E_COORD97":166463.42000000001,"N_COORD97":2547266.4199999999,"ADDRESS":"郡安路六段１１１巷３８弄１２號","OBJECTID":88435},"geometry":{"x":166463.42000000086,"y":2547266.4200000018}},{"attributes":{"ID":88436,"DIS_CODE":0,"TOWNNAME":"北區","LI":"賢北里","LIN":"15鄰","STREET":"大興街","SECT":" ","MAREA":" ","LANE":" ","ALLEY":" ","HOUSE_NO":"５６９號","E_COORD97":166001.47,"N_COORD97":2545425.1899999999,"ADDRESS":"大興街５６９號","OBJECTID":88436},"geometry":{"x":166001.47000000067,"y":2545425.1899999995}},{"attributes":{"ID":88437,"DIS_CODE":0,"TOWNNAME":"北區","LI":"賢北里","LIN":"15鄰","STREET":"大興街","SECT":" ","MAREA":" ","LANE":" ","ALLEY":" ","HOUSE_NO":"５７１號","E_COORD97":165997.64999999999,"N_COORD97":2545423.1699999999,"ADDRESS":"大興街５７１號","OBJECTID":88437},"geometry":{"x":165997.6500000013,"y":2545423.1700000037}},{"attributes":{"ID":88438,"DIS_CODE":0,"TOWNNAME":"北區","LI":"賢北里","LIN":"15鄰","STREET":"大興街","SECT":" ","MAREA":" ","LANE":" ","ALLEY":" ","HOUSE_NO":"５７３號","E_COORD97":165993.60999999999,"N_COORD97":2545421.6000000001,"ADDRESS":"大興街５７３號","OBJECTID":88438},"geometry":{"x":165993.61000000034,"y":2545421.6000000015}},{"attributes":{"ID":88439,"DIS_CODE":0,"TOWNNAME":"北區","LI":"賢北里","LIN":"15鄰","STREET":"大興街","SECT":" ","MAREA":" ","LANE":" ","ALLEY":" ","HOUSE_NO":"５７５號","E_COORD97":165990.23999999999,"N_COORD97":2545419.7999999998,"ADDRESS":"大興街５７５號","OBJECTID":88439},"geometry":{"x":165990.24000000115,"y":2545419.8000000045}},{"attributes":{"ID":88440,"DIS_CODE":0,"TOWNNAME":"北區","LI":"賢北里","LIN":"15鄰","STREET":"大興街","SECT":" ","MAREA":" ","LANE":" ","ALLEY":" ","HOUSE_NO":"５７７號","E_COORD97":165985.73999999999,"N_COORD97":2545418.6899999999,"ADDRESS":"大興街５７７號","OBJECTID":88440},"geometry":{"x":165985.74000000022,"y":2545418.6899999995}},{"attributes":{"ID":88441,"DIS_CODE":0,"TOWNNAME":"北區","LI":"賢北里","LIN":"15鄰","STREET":"大興街","SECT":" ","MAREA":" ","LANE":" ","ALLEY":" ","HOUSE_NO":"５７９號","E_COORD97":165981.01999999999,"N_COORD97":2545416.2200000002,"ADDRESS":"大興街５７９號","OBJECTID":88441},"geometry":{"x":165981.01999999955,"y":2545416.2200000007}},{"attributes":{"ID":88442,"DIS_CODE":0,"TOWNNAME":"後壁區","LI":"後壁里","LIN":"12鄰","STREET":" ","SECT":" ","MAREA":"後壁","LANE":" ","ALLEY":" ","HOUSE_NO":"３０４號","E_COORD97":185913.26999999999,"N_COORD97":2584640.7400000002,"ADDRESS":"後壁３０４號","OBJECTID":88442},"geometry":{"x":185913.26999999955,"y":2584640.7400000021}},{"attributes":{"ID":88443,"DIS_CODE":0,"TOWNNAME":"北區","LI":"賢北里","LIN":"15鄰","STREET":"大興街","SECT":" ","MAREA":" ","LANE":" ","ALLEY":" ","HOUSE_NO":"５８１號","E_COORD97":165978.10000000001,"N_COORD97":2545415.0899999999,"ADDRESS":"大興街５８１號","OBJECTID":88443},"geometry":{"x":165978.10000000149,"y":2545415.0900000017}},{"attributes":{"ID":88444,"DIS_CODE":0,"TOWNNAME":"北區","LI":"賢北里","LIN":"15鄰","STREET":"大興街","SECT":" ","MAREA":" ","LANE":" ","ALLEY":" ","HOUSE_NO":"５８３號","E_COORD97":165973.60000000001,"N_COORD97":2545412.6200000001,"ADDRESS":"大興街５８３號","OBJECTID":88444},"geometry":{"x":165973.60000000056,"y":2545412.6200000029}},{"attributes":{"ID":88445,"DIS_CODE":0,"TOWNNAME":"後壁區","LI":"後壁里","LIN":"12鄰","STREET":" ","SECT":" ","MAREA":"後壁","LANE":" ","ALLEY":" ","HOUSE_NO":"３０５號","E_COORD97":185913.10000000001,"N_COORD97":2584645.3199999998,"ADDRESS":"後壁３０５號","OBJECTID":88445},"geometry":{"x":185913.09999999963,"y":2584645.3200000003}},{"attributes":{"ID":88446,"DIS_CODE":0,"TOWNNAME":"後壁區","LI":"後壁里","LIN":"12鄰","STREET":" ","SECT":" ","MAREA":"後壁","LANE":" ","ALLEY":" ","HOUSE_NO":"３０６號","E_COORD97":185912.85999999999,"N_COORD97":2584649.9199999999,"ADDRESS":"後壁３０６號","OBJECTID":88446},"geometry":{"x":185912.86000000127,"y":2584649.9200000018}},{"attributes":{"ID":88447,"DIS_CODE":0,"TOWNNAME":"後壁區","LI":"後壁里","LIN":"12鄰","STREET":" ","SECT":" ","MAREA":"後壁","LANE":" ","ALLEY":" ","HOUSE_NO":"３０７號","E_COORD97":185912.69,"N_COORD97":2584654.4900000002,"ADDRESS":"後壁３０７號","OBJECTID":88447},"geometry":{"x":185912.69000000134,"y":2584654.4900000002}},{"attributes":{"ID":88448,"DIS_CODE":0,"TOWNNAME":"安南區","LI":"國安里","LIN":"10鄰","STREET":"郡安路","SECT":"六段","MAREA":" ","LANE":"１１１巷","ALLEY":"３８弄","HOUSE_NO":"１６號","E_COORD97":166454.31,"N_COORD97":2547262.0800000001,"ADDRESS":"郡安路六段１１１巷３８弄１６號","OBJECTID":88448},"geometry":{"x":166454.30999999959,"y":2547262.0800000019}},{"attributes":{"ID":88449,"DIS_CODE":0,"TOWNNAME":"安南區","LI":"國安里","LIN":"10鄰","STREET":"郡安路","SECT":"六段","MAREA":" ","LANE":"１１１巷","ALLEY":"３８弄","HOUSE_NO":"１號","E_COORD97":166503.01999999999,"N_COORD97":2547249.48,"ADDRESS":"郡安路六段１１１巷３８弄１號","OBJECTID":88449},"geometry":{"x":166503.02000000048,"y":2547249.4800000023}},{"attributes":{"ID":88450,"DIS_CODE":0,"TOWNNAME":"安南區","LI":"國安里","LIN":"10鄰","STREET":"郡安路","SECT":"六段","MAREA":" ","LANE":"１１１巷","ALLEY":"３８弄","HOUSE_NO":"３號","E_COORD97":166494.14000000001,"N_COORD97":2547249.2000000002,"ADDRESS":"郡安路六段１１１巷３８弄３號","OBJECTID":88450},"geometry":{"x":166494.13999999966,"y":2547249.1999999993}},{"attributes":{"ID":88451,"DIS_CODE":0,"TOWNNAME":"安南區","LI":"國安里","LIN":"10鄰","STREET":"郡安路","SECT":"六段","MAREA":" ","LANE":"１１１巷","ALLEY":"３８弄","HOUSE_NO":"５號","E_COORD97":166485.26000000001,"N_COORD97":2547246.29,"ADDRESS":"郡安路六段１１１巷３８弄５號","OBJECTID":88451},"geometry":{"x":166485.25999999978,"y":2547246.290000001}},{"attributes":{"ID":88452,"DIS_CODE":0,"TOWNNAME":"安南區","LI":"國安里","LIN":"10鄰","STREET":"郡安路","SECT":"六段","MAREA":" ","LANE":"１１１巷","ALLEY":"３８弄","HOUSE_NO":"７號","E_COORD97":166476.79999999999,"N_COORD97":2547242.8300000001,"ADDRESS":"郡安路六段１１１巷３８弄７號","OBJECTID":88452},"geometry":{"x":166476.79999999888,"y":2547242.8300000038}},{"attributes":{"ID":88453,"DIS_CODE":0,"TOWNNAME":"後壁區","LI":"後壁里","LIN":"12鄰","STREET":" ","SECT":" ","MAREA":"後壁","LANE":" ","ALLEY":" ","HOUSE_NO":"３０８號","E_COORD97":185912.35000000001,"N_COORD97":2584659.0299999998,"ADDRESS":"後壁３０８號","OBJECTID":88453},"geometry":{"x":185912.35000000056,"y":2584659.0299999993}},{"attributes":{"ID":88454,"DIS_CODE":0,"TOWNNAME":"後壁區","LI":"後壁里","LIN":"12鄰","STREET":" ","SECT":" ","MAREA":"後壁","LANE":" ","ALLEY":" ","HOUSE_NO":"３０９號","E_COORD97":185912.01000000001,"N_COORD97":2584663.4100000001,"ADDRESS":"後壁３０９號","OBJECTID":88454},"geometry":{"x":185912.00999999978,"y":2584663.410000002}},{"attributes":{"ID":88455,"DIS_CODE":0,"TOWNNAME":"後壁區","LI":"後壁里","LIN":"12鄰","STREET":" ","SECT":" ","MAREA":"後壁","LANE":" ","ALLEY":" ","HOUSE_NO":"３１０號","E_COORD97":185911.88,"N_COORD97":2584668.02,"ADDRESS":"後壁３１０號","OBJECTID":88455},"geometry":{"x":185911.88000000175,"y":2584668.0200000014}},{"attributes":{"ID":88456,"DIS_CODE":0,"TOWNNAME":"後壁區","LI":"後壁里","LIN":"12鄰","STREET":" ","SECT":" ","MAREA":"後壁","LANE":" ","ALLEY":" ","HOUSE_NO":"３１１號","E_COORD97":185911.73999999999,"N_COORD97":2584672.52,"ADDRESS":"後壁３１１號","OBJECTID":88456},"geometry":{"x":185911.74000000115,"y":2584672.5200000014}},{"attributes":{"ID":88457,"DIS_CODE":0,"TOWNNAME":"後壁區","LI":"後壁里","LIN":"12鄰","STREET":" ","SECT":" ","MAREA":"後壁","LANE":" ","ALLEY":" ","HOUSE_NO":"３１２號","E_COORD97":185911.32000000001,"N_COORD97":2584677.02,"ADDRESS":"後壁３１２號","OBJECTID":88457},"geometry":{"x":185911.32000000123,"y":2584677.0199999996}},{"attributes":{"ID":88458,"DIS_CODE":0,"TOWNNAME":"後壁區","LI":"後壁里","LIN":"12鄰","STREET":" ","SECT":" ","MAREA":"後壁","LANE":" ","ALLEY":" ","HOUSE_NO":"３１３號","E_COORD97":185911.17999999999,"N_COORD97":2584681.3999999999,"ADDRESS":"後壁３１３號","OBJECTID":88458},"geometry":{"x":185911.18000000156,"y":2584681.4000000004}},{"attributes":{"ID":88459,"DIS_CODE":0,"TOWNNAME":"後壁區","LI":"後壁里","LIN":"12鄰","STREET":" ","SECT":" ","MAREA":"後壁","LANE":" ","ALLEY":" ","HOUSE_NO":"３１４號","E_COORD97":185910.92999999999,"N_COORD97":2584686.1299999999,"ADDRESS":"後壁３１４號","OBJECTID":88459},"geometry":{"x":185910.9299999997,"y":2584686.129999999}},{"attributes":{"ID":88460,"DIS_CODE":0,"TOWNNAME":"後壁區","LI":"後壁里","LIN":"12鄰","STREET":" ","SECT":" ","MAREA":"後壁","LANE":" ","ALLEY":" ","HOUSE_NO":"３１５號","E_COORD97":185910.57999999999,"N_COORD97":2584690.6099999999,"ADDRESS":"後壁３１５號","OBJECTID":88460},"geometry":{"x":185910.58000000194,"y":2584690.6100000031}},{"attributes":{"ID":88461,"DIS_CODE":0,"TOWNNAME":"後壁區","LI":"後壁里","LIN":"12鄰","STREET":" ","SECT":" ","MAREA":"後壁","LANE":" ","ALLEY":" ","HOUSE_NO":"３１６號","E_COORD97":185910.29999999999,"N_COORD97":2584695.1600000001,"ADDRESS":"後壁３１６號","OBJECTID":88461},"geometry":{"x":185910.29999999981,"y":2584695.160000002}},{"attributes":{"ID":88462,"DIS_CODE":0,"TOWNNAME":"後壁區","LI":"後壁里","LIN":"12鄰","STREET":" ","SECT":" ","MAREA":"後壁","LANE":" ","ALLEY":" ","HOUSE_NO":"３１７號","E_COORD97":185910.14000000001,"N_COORD97":2584699.7799999998,"ADDRESS":"後壁３１７號","OBJECTID":88462},"geometry":{"x":185910.1400000006,"y":2584699.7800000012}},{"attributes":{"ID":88463,"DIS_CODE":0,"TOWNNAME":"後壁區","LI":"後壁里","LIN":"12鄰","STREET":" ","SECT":" ","MAREA":"後壁","LANE":" ","ALLEY":" ","HOUSE_NO":"３１８號","E_COORD97":185909.89999999999,"N_COORD97":2584704.2200000002,"ADDRESS":"後壁３１８號","OBJECTID":88463},"geometry":{"x":185909.90000000037,"y":2584704.2200000007}},{"attributes":{"ID":88464,"DIS_CODE":0,"TOWNNAME":"後壁區","LI":"後壁里","LIN":"12鄰","STREET":" ","SECT":" ","MAREA":"後壁","LANE":" ","ALLEY":" ","HOUSE_NO":"３１９號","E_COORD97":185909.60000000001,"N_COORD97":2584708.7000000002,"ADDRESS":"後壁３１９號","OBJECTID":88464},"geometry":{"x":185909.59999999963,"y":2584708.6999999993}},{"attributes":{"ID":88465,"DIS_CODE":0,"TOWNNAME":"後壁區","LI":"後壁里","LIN":"12鄰","STREET":" ","SECT":" ","MAREA":"後壁","LANE":" ","ALLEY":" ","HOUSE_NO":"３２０號","E_COORD97":185909.39999999999,"N_COORD97":2584713.21,"ADDRESS":"後壁３２０號","OBJECTID":88465},"geometry":{"x":185909.4000000013,"y":2584713.2100000028}},{"attributes":{"ID":88466,"DIS_CODE":0,"TOWNNAME":"後壁區","LI":"後壁里","LIN":"12鄰","STREET":" ","SECT":" ","MAREA":"後壁","LANE":" ","ALLEY":" ","HOUSE_NO":"３２１號","E_COORD97":185909.03,"N_COORD97":2584717.8100000001,"ADDRESS":"後壁３２１號","OBJECTID":88466},"geometry":{"x":185909.03000000026,"y":2584717.8100000024}},{"attributes":{"ID":88467,"DIS_CODE":0,"TOWNNAME":"後壁區","LI":"後壁里","LIN":"12鄰","STREET":" ","SECT":" ","MAREA":"後壁","LANE":" ","ALLEY":" ","HOUSE_NO":"３３５號","E_COORD97":185928.22,"N_COORD97":2584750.5600000001,"ADDRESS":"後壁３３５號","OBJECTID":88467},"geometry":{"x":185928.22000000067,"y":2584750.5600000024}},{"attributes":{"ID":88468,"DIS_CODE":0,"TOWNNAME":"將軍區","LI":"將貴里","LIN":"12鄰","STREET":" ","SECT":" ","MAREA":"將榮","LANE":" ","ALLEY":" ","HOUSE_NO":"１０號","E_COORD97":161831.54999999999,"N_COORD97":2568478.2799999998,"ADDRESS":"將榮１０號","OBJECTID":88468},"geometry":{"x":161831.54999999981,"y":2568478.2799999993}},{"attributes":{"ID":88469,"DIS_CODE":0,"TOWNNAME":"後壁區","LI":"後壁里","LIN":"12鄰","STREET":" ","SECT":" ","MAREA":"後壁","LANE":" ","ALLEY":" ","HOUSE_NO":"３３７號","E_COORD97":185928.84,"N_COORD97":2584741.6299999999,"ADDRESS":"後壁３３７號","OBJECTID":88469},"geometry":{"x":185928.83999999892,"y":2584741.6300000008}},{"attributes":{"ID":88470,"DIS_CODE":0,"TOWNNAME":"後壁區","LI":"後壁里","LIN":"12鄰","STREET":" ","SECT":" ","MAREA":"後壁","LANE":" ","ALLEY":" ","HOUSE_NO":"３３８號","E_COORD97":185929.29000000001,"N_COORD97":2584737.1899999999,"ADDRESS":"後壁３３８號","OBJECTID":88470},"geometry":{"x":185929.29000000004,"y":2584737.1899999995}},{"attributes":{"ID":88471,"DIS_CODE":0,"TOWNNAME":"後壁區","LI":"後壁里","LIN":"12鄰","STREET":" ","SECT":" ","MAREA":"後壁","LANE":" ","ALLEY":" ","HOUSE_NO":"３３９號","E_COORD97":185929.42000000001,"N_COORD97":2584732.46,"ADDRESS":"後壁３３９號","OBJECTID":88471},"geometry":{"x":185929.41999999993,"y":2584732.4600000009}},{"attributes":{"ID":88472,"DIS_CODE":0,"TOWNNAME":"安南區","LI":"國安里","LIN":"10鄰","STREET":"郡安路","SECT":"六段","MAREA":" ","LANE":"１１１巷","ALLEY":"３８弄","HOUSE_NO":"９號","E_COORD97":166467.64000000001,"N_COORD97":2547242.4100000001,"ADDRESS":"郡安路六段１１１巷３８弄９號","OBJECTID":88472},"geometry":{"x":166467.64000000153,"y":2547242.4100000039}},{"attributes":{"ID":88473,"DIS_CODE":0,"TOWNNAME":"後壁區","LI":"後壁里","LIN":"12鄰","STREET":" ","SECT":" ","MAREA":"後壁","LANE":" ","ALLEY":" ","HOUSE_NO":"３４０號","E_COORD97":185929.82000000001,"N_COORD97":2584728.2200000002,"ADDRESS":"後壁３４０號","OBJECTID":88473},"geometry":{"x":185929.82000000123,"y":2584728.2200000044}},{"attributes":{"ID":88474,"DIS_CODE":0,"TOWNNAME":"安南區","LI":"國安里","LIN":"10鄰","STREET":"郡安路","SECT":"六段","MAREA":" ","LANE":"１１１巷","ALLEY":"３８弄","HOUSE_NO":"１１號","E_COORD97":166459.17999999999,"N_COORD97":2547238.3900000001,"ADDRESS":"郡安路六段１１１巷３８弄１１號","OBJECTID":88474},"geometry":{"x":166459.18000000063,"y":2547238.3900000006}},{"attributes":{"ID":88475,"DIS_CODE":0,"TOWNNAME":"安平區","LI":"文平里","LIN":"15鄰","STREET":"建平五街","SECT":" ","MAREA":" ","LANE":" ","ALLEY":" ","HOUSE_NO":"９號","E_COORD97":166100.19,"N_COORD97":2543109.6699999999,"ADDRESS":"建平五街９號","OBJECTID":88475},"geometry":{"x":166100.19000000227,"y":2543109.6699999999}},{"attributes":{"ID":88476,"DIS_CODE":0,"TOWNNAME":"安平區","LI":"金城里","LIN":"15鄰","STREET":"世平路","SECT":" ","MAREA":" ","LANE":" ","ALLEY":" ","HOUSE_NO":"２５０號","E_COORD97":162608.39999999999,"N_COORD97":2544413.54,"ADDRESS":"世平路２５０號","OBJECTID":88476},"geometry":{"x":162608.40000000224,"y":2544413.540000001}},{"attributes":{"ID":88477,"DIS_CODE":0,"TOWNNAME":"後壁區","LI":"後壁里","LIN":"12鄰","STREET":" ","SECT":" ","MAREA":"後壁","LANE":" ","ALLEY":" ","HOUSE_NO":"３４１號","E_COORD97":185930.26000000001,"N_COORD97":2584723.6699999999,"ADDRESS":"後壁３４１號","OBJECTID":88477},"geometry":{"x":185930.26000000071,"y":2584723.6699999999}},{"attributes":{"ID":88478,"DIS_CODE":0,"TOWNNAME":"後壁區","LI":"後壁里","LIN":"12鄰","STREET":" ","SECT":" ","MAREA":"後壁","LANE":" ","ALLEY":" ","HOUSE_NO":"３４２號","E_COORD97":185930.51999999999,"N_COORD97":2584719.3799999999,"ADDRESS":"後壁３４２號","OBJECTID":88478},"geometry":{"x":185930.51999999955,"y":2584719.3800000008}},{"attributes":{"ID":88479,"DIS_CODE":0,"TOWNNAME":"安平區","LI":"金城里","LIN":"15鄰","STREET":"世平路","SECT":" ","MAREA":" ","LANE":" ","ALLEY":" ","HOUSE_NO":"２５２號","E_COORD97":162621.5,"N_COORD97":2544416.71,"ADDRESS":"世平路２５２號","OBJECTID":88479},"geometry":{"x":162621.50000000093,"y":2544416.7100000009}},{"attributes":{"ID":88480,"DIS_CODE":0,"TOWNNAME":"後壁區","LI":"後壁里","LIN":"12鄰","STREET":" ","SECT":" ","MAREA":"後壁","LANE":" ","ALLEY":" ","HOUSE_NO":"３４３號","E_COORD97":185930.72,"N_COORD97":2584714.4100000001,"ADDRESS":"後壁３４３號","OBJECTID":88480},"geometry":{"x":185930.71999999974,"y":2584714.410000002}},{"attributes":{"ID":88481,"DIS_CODE":0,"TOWNNAME":"後壁區","LI":"後壁里","LIN":"12鄰","STREET":" ","SECT":" ","MAREA":"後壁","LANE":" ","ALLEY":" ","HOUSE_NO":"３４４號","E_COORD97":185931.07000000001,"N_COORD97":2584710.0600000001,"ADDRESS":"後壁３４４號","OBJECTID":88481},"geometry":{"x":185931.0700000003,"y":2584710.0600000024}},{"attributes":{"ID":88482,"DIS_CODE":0,"TOWNNAME":"後壁區","LI":"後壁里","LIN":"12鄰","STREET":" ","SECT":" ","MAREA":"後壁","LANE":" ","ALLEY":" ","HOUSE_NO":"３４５號","E_COORD97":185931.23000000001,"N_COORD97":2584705.6000000001,"ADDRESS":"後壁３４５號","OBJECTID":88482},"geometry":{"x":185931.23000000045,"y":2584705.6000000015}},{"attributes":{"ID":88483,"DIS_CODE":0,"TOWNNAME":"後壁區","LI":"後壁里","LIN":"12鄰","STREET":" ","SECT":" ","MAREA":"後壁","LANE":" ","ALLEY":" ","HOUSE_NO":"３４６號","E_COORD97":185931.53,"N_COORD97":2584700.9300000002,"ADDRESS":"後壁３４６號","OBJECTID":88483},"geometry":{"x":185931.53000000212,"y":2584700.9299999997}},{"attributes":{"ID":88484,"DIS_CODE":0,"TOWNNAME":"後壁區","LI":"後壁里","LIN":"12鄰","STREET":" ","SECT":" ","MAREA":"後壁","LANE":" ","ALLEY":" ","HOUSE_NO":"３４７號","E_COORD97":185931.70999999999,"N_COORD97":2584696.4100000001,"ADDRESS":"後壁３４７號","OBJECTID":88484},"geometry":{"x":185931.71000000183,"y":2584696.410000002}},{"attributes":{"ID":88485,"DIS_CODE":0,"TOWNNAME":"後壁區","LI":"後壁里","LIN":"12鄰","STREET":" ","SECT":" ","MAREA":"後壁","LANE":" ","ALLEY":" ","HOUSE_NO":"３４８號","E_COORD97":185931.92999999999,"N_COORD97":2584691.9300000002,"ADDRESS":"後壁３４８號","OBJECTID":88485},"geometry":{"x":185931.93000000063,"y":2584691.9300000034}},{"attributes":{"ID":88486,"DIS_CODE":0,"TOWNNAME":"永康區","LI":"西勢里","LIN":"11鄰","STREET":"西勢路","SECT":" ","MAREA":" ","LANE":"１９９巷","ALLEY":"４９弄","HOUSE_NO":"１１號","E_COORD97":175871.73000000001,"N_COORD97":2546671.9700000002,"ADDRESS":"西勢路１９９巷４９弄１１號","OBJECTID":88486},"geometry":{"x":175871.73000000138,"y":2546671.9700000007}},{"attributes":{"ID":88487,"DIS_CODE":0,"TOWNNAME":"後壁區","LI":"後壁里","LIN":"12鄰","STREET":" ","SECT":" ","MAREA":"後壁","LANE":" ","ALLEY":" ","HOUSE_NO":"３４９號","E_COORD97":185932.23000000001,"N_COORD97":2584687.3100000001,"ADDRESS":"後壁３４９號","OBJECTID":88487},"geometry":{"x":185932.23000000138,"y":2584687.3100000024}},{"attributes":{"ID":88488,"DIS_CODE":0,"TOWNNAME":"安南區","LI":"國安里","LIN":"10鄰","STREET":"郡安路","SECT":"六段","MAREA":" ","LANE":"１１１巷","ALLEY":"３６弄","HOUSE_NO":"２號","E_COORD97":166473.26000000001,"N_COORD97":2547312.1600000001,"ADDRESS":"郡安路六段１１１巷３６弄２號","OBJECTID":88488},"geometry":{"x":166473.25999999978,"y":2547312.1600000039}},{"attributes":{"ID":88489,"DIS_CODE":0,"TOWNNAME":"後壁區","LI":"後壁里","LIN":"12鄰","STREET":" ","SECT":" ","MAREA":"後壁","LANE":" ","ALLEY":" ","HOUSE_NO":"３５０號","E_COORD97":185932.54000000001,"N_COORD97":2584682.6800000002,"ADDRESS":"後壁３５０號","OBJECTID":88489},"geometry":{"x":185932.54000000004,"y":2584682.6799999997}},{"attributes":{"ID":88490,"DIS_CODE":0,"TOWNNAME":"安南區","LI":"國安里","LIN":"10鄰","STREET":"郡安路","SECT":"六段","MAREA":" ","LANE":"１１１巷","ALLEY":"３６弄","HOUSE_NO":"１號","E_COORD97":166497.32999999999,"N_COORD97":2547285.52,"ADDRESS":"郡安路六段１１１巷３６弄１號","OBJECTID":88490},"geometry":{"x":166497.33000000194,"y":2547285.5200000014}},{"attributes":{"ID":88491,"DIS_CODE":0,"TOWNNAME":"後壁區","LI":"後壁里","LIN":"12鄰","STREET":" ","SECT":" ","MAREA":"後壁","LANE":" ","ALLEY":" ","HOUSE_NO":"３５１號","E_COORD97":185932.75,"N_COORD97":2584678.1499999999,"ADDRESS":"後壁３５１號","OBJECTID":88491},"geometry":{"x":185932.75,"y":2584678.1500000022}},{"attributes":{"ID":88492,"DIS_CODE":0,"TOWNNAME":"後壁區","LI":"後壁里","LIN":"12鄰","STREET":" ","SECT":" ","MAREA":"後壁","LANE":" ","ALLEY":" ","HOUSE_NO":"３５２號","E_COORD97":185933.14999999999,"N_COORD97":2584673.5699999998,"ADDRESS":"後壁３５２號","OBJECTID":88492},"geometry":{"x":185933.1500000013,"y":2584673.5700000003}},{"attributes":{"ID":88493,"DIS_CODE":0,"TOWNNAME":"後壁區","LI":"後壁里","LIN":"12鄰","STREET":" ","SECT":" ","MAREA":"後壁","LANE":" ","ALLEY":" ","HOUSE_NO":"３５３號","E_COORD97":185933.23000000001,"N_COORD97":2584669.0499999998,"ADDRESS":"後壁３５３號","OBJECTID":88493},"geometry":{"x":185933.23000000045,"y":2584669.0500000026}},{"attributes":{"ID":88494,"DIS_CODE":0,"TOWNNAME":"後壁區","LI":"後壁里","LIN":"12鄰","STREET":" ","SECT":" ","MAREA":"後壁","LANE":" ","ALLEY":" ","HOUSE_NO":"３５４號","E_COORD97":185933.59,"N_COORD97":2584664.5099999998,"ADDRESS":"後壁３５４號","OBJECTID":88494},"geometry":{"x":185933.58999999985,"y":2584664.5100000035}},{"attributes":{"ID":88495,"DIS_CODE":0,"TOWNNAME":"後壁區","LI":"後壁里","LIN":"12鄰","STREET":" ","SECT":" ","MAREA":"後壁","LANE":" ","ALLEY":" ","HOUSE_NO":"３５５號","E_COORD97":185933.92000000001,"N_COORD97":2584660.02,"ADDRESS":"後壁３５５號","OBJECTID":88495},"geometry":{"x":185933.92000000086,"y":2584660.0199999996}},{"attributes":{"ID":88496,"DIS_CODE":0,"TOWNNAME":"後壁區","LI":"後壁里","LIN":"12鄰","STREET":" ","SECT":" ","MAREA":"後壁","LANE":" ","ALLEY":" ","HOUSE_NO":"３５６號","E_COORD97":185934.25,"N_COORD97":2584655.5099999998,"ADDRESS":"後壁３５６號","OBJECTID":88496},"geometry":{"x":185934.25,"y":2584655.5100000016}},{"attributes":{"ID":88497,"DIS_CODE":0,"TOWNNAME":"後壁區","LI":"後壁里","LIN":"12鄰","STREET":" ","SECT":" ","MAREA":"後壁","LANE":" ","ALLEY":" ","HOUSE_NO":"３５７號","E_COORD97":185934.48999999999,"N_COORD97":2584651.1299999999,"ADDRESS":"後壁３５７號","OBJECTID":88497},"geometry":{"x":185934.49000000022,"y":2584651.129999999}},{"attributes":{"ID":88498,"DIS_CODE":0,"TOWNNAME":"後壁區","LI":"後壁里","LIN":"12鄰","STREET":" ","SECT":" ","MAREA":"後壁","LANE":" ","ALLEY":" ","HOUSE_NO":"３５８號","E_COORD97":185934.67000000001,"N_COORD97":2584646.4100000001,"ADDRESS":"後壁３５８號","OBJECTID":88498},"geometry":{"x":185934.66999999993,"y":2584646.410000002}},{"attributes":{"ID":88499,"DIS_CODE":0,"TOWNNAME":"後壁區","LI":"後壁里","LIN":"12鄰","STREET":" ","SECT":" ","MAREA":"後壁","LANE":" ","ALLEY":" ","HOUSE_NO":"３５９號","E_COORD97":185934.98000000001,"N_COORD97":2584641.8700000001,"ADDRESS":"後壁３５９號","OBJECTID":88499},"geometry":{"x":185934.98000000045,"y":2584641.870000001}},{"attributes":{"ID":88500,"DIS_CODE":0,"TOWNNAME":"安南區","LI":"國安里","LIN":"10鄰","STREET":"郡安路","SECT":"六段","MAREA":" ","LANE":"１１１巷","ALLEY":"３６弄","HOUSE_NO":"７號","E_COORD97":166470.20999999999,"N_COORD97":2547280.5600000001,"ADDRESS":"郡安路六段１１１巷３６弄７號","OBJECTID":88500},"geometry":{"x":166470.20999999996,"y":2547280.5600000024}},{"attributes":{"ID":88501,"DIS_CODE":0,"TOWNNAME":"後壁區","LI":"後壁里","LIN":"12鄰","STREET":" ","SECT":" ","MAREA":"後壁","LANE":" ","ALLEY":" ","HOUSE_NO":"３６０號","E_COORD97":185935.39000000001,"N_COORD97":2584637.29,"ADDRESS":"後壁３６０號","OBJECTID":88501},"geometry":{"x":185935.3900000006,"y":2584637.2899999991}},{"attributes":{"ID":88502,"DIS_CODE":0,"TOWNNAME":"安南區","LI":"國安里","LIN":"10鄰","STREET":"郡安路","SECT":"六段","MAREA":" ","LANE":"１１１巷","ALLEY":"３６弄","HOUSE_NO":"９號","E_COORD97":166461.31,"N_COORD97":2547279.73,"ADDRESS":"郡安路六段１１１巷３６弄９號","OBJECTID":88502},"geometry":{"x":166461.31000000145,"y":2547279.7300000004}},{"attributes":{"ID":88503,"DIS_CODE":0,"TOWNNAME":"安南區","LI":"國安里","LIN":"10鄰","STREET":"郡安路","SECT":"六段","MAREA":" ","LANE":"１１１巷","ALLEY":"３６弄","HOUSE_NO":"１１號","E_COORD97":166452,"N_COORD97":2547279.1099999999,"ADDRESS":"郡安路六段１１１巷３６弄１１號","OBJECTID":88503},"geometry":{"x":166452.00000000186,"y":2547279.1100000013}},{"attributes":{"ID":88504,"DIS_CODE":0,"TOWNNAME":"後壁區","LI":"後壁里","LIN":"12鄰","STREET":" ","SECT":" ","MAREA":"後壁","LANE":" ","ALLEY":" ","HOUSE_NO":"３６１號","E_COORD97":185935.79000000001,"N_COORD97":2584632.6800000002,"ADDRESS":"後壁３６１號","OBJECTID":88504},"geometry":{"x":185935.79000000004,"y":2584632.6800000034}},{"attributes":{"ID":88505,"DIS_CODE":0,"TOWNNAME":"後壁區","LI":"後壁里","LIN":"12鄰","STREET":" ","SECT":" ","MAREA":"後壁","LANE":" ","ALLEY":" ","HOUSE_NO":"３６２號","E_COORD97":185932.84,"N_COORD97":2584620.4399999999,"ADDRESS":"後壁３６２號","OBJECTID":88505},"geometry":{"x":185932.84000000078,"y":2584620.4400000032}},{"attributes":{"ID":88506,"DIS_CODE":0,"TOWNNAME":"後壁區","LI":"後壁里","LIN":"12鄰","STREET":" ","SECT":" ","MAREA":"後壁","LANE":" ","ALLEY":" ","HOUSE_NO":"３６３號","E_COORD97":185937.17999999999,"N_COORD97":2584619.3799999999,"ADDRESS":"後壁３６３號","OBJECTID":88506},"geometry":{"x":185937.18000000063,"y":2584619.379999999}},{"attributes":{"ID":88507,"DIS_CODE":0,"TOWNNAME":"後壁區","LI":"後壁里","LIN":"12鄰","STREET":" ","SECT":" ","MAREA":"後壁","LANE":" ","ALLEY":" ","HOUSE_NO":"３６４號","E_COORD97":185941.70000000001,"N_COORD97":2584618.48,"ADDRESS":"後壁３６４號","OBJECTID":88507},"geometry":{"x":185941.70000000019,"y":2584618.4800000023}},{"attributes":{"ID":88508,"DIS_CODE":0,"TOWNNAME":"後壁區","LI":"後壁里","LIN":"12鄰","STREET":" ","SECT":" ","MAREA":"後壁","LANE":" ","ALLEY":" ","HOUSE_NO":"３６５號","E_COORD97":185946.06,"N_COORD97":2584617.7000000002,"ADDRESS":"後壁３６５號","OBJECTID":88508},"geometry":{"x":185946.06000000052,"y":2584617.6999999993}},{"attributes":{"ID":88509,"DIS_CODE":0,"TOWNNAME":"後壁區","LI":"後壁里","LIN":"12鄰","STREET":" ","SECT":" ","MAREA":"後壁","LANE":" ","ALLEY":" ","HOUSE_NO":"３７０號","E_COORD97":185955.38,"N_COORD97":2584640.3799999999,"ADDRESS":"後壁３７０號","OBJECTID":88509},"geometry":{"x":185955.37999999989,"y":2584640.379999999}},{"attributes":{"ID":88510,"DIS_CODE":0,"TOWNNAME":"後壁區","LI":"後壁里","LIN":"12鄰","STREET":" ","SECT":" ","MAREA":"後壁","LANE":" ","ALLEY":" ","HOUSE_NO":"４２６號","E_COORD97":186156.62,"N_COORD97":2584239.9100000001,"ADDRESS":"後壁４２６號","OBJECTID":88510},"geometry":{"x":186156.62000000104,"y":2584239.910000002}},{"attributes":{"ID":88511,"DIS_CODE":0,"TOWNNAME":"後壁區","LI":"後壁里","LIN":"12鄰","STREET":" ","SECT":" ","MAREA":"後壁","LANE":" ","ALLEY":" ","HOUSE_NO":"４２７號","E_COORD97":186108.20000000001,"N_COORD97":2584224.4700000002,"ADDRESS":"後壁４２７號","OBJECTID":88511},"geometry":{"x":186108.20000000205,"y":2584224.4700000007}},{"attributes":{"ID":88512,"DIS_CODE":0,"TOWNNAME":"永康區","LI":"西灣里","LIN":"36鄰","STREET":"國光八街","SECT":" ","MAREA":" ","LANE":"８７巷","ALLEY":"２２弄","HOUSE_NO":"１５號","E_COORD97":174207.17999999999,"N_COORD97":2545695.4700000002,"ADDRESS":"國光八街８７巷２２弄１５號","OBJECTID":88512},"geometry":{"x":174207.1799999997,"y":2545695.4700000007}},{"attributes":{"ID":88513,"DIS_CODE":0,"TOWNNAME":"永康區","LI":"西橋里","LIN":"19鄰","STREET":"大橋三街","SECT":" ","MAREA":" ","LANE":"５７巷","ALLEY":"７弄","HOUSE_NO":"７１號","E_COORD97":170458.88,"N_COORD97":2546393.1200000001,"ADDRESS":"大橋三街５７巷７弄７１號","OBJECTID":88513},"geometry":{"x":170458.88000000082,"y":2546393.120000001}},{"attributes":{"ID":88514,"DIS_CODE":0,"TOWNNAME":"安平區","LI":"金城里","LIN":"15鄰","STREET":"安北路","SECT":" ","MAREA":" ","LANE":" ","ALLEY":" ","HOUSE_NO":"５９８號","E_COORD97":162741.67999999999,"N_COORD97":2544341.5899999999,"ADDRESS":"安北路５９８號","OBJECTID":88514},"geometry":{"x":162741.68000000063,"y":2544341.5899999999}},{"attributes":{"ID":88515,"DIS_CODE":0,"TOWNNAME":"安南區","LI":"海東里","LIN":"10鄰","STREET":"海佃路","SECT":"二段","MAREA":" ","LANE":"４１７巷","ALLEY":"２８弄","HOUSE_NO":"２之１號","E_COORD97":166630.60000000001,"N_COORD97":2548975.5099999998,"ADDRESS":"海佃路二段４１７巷２８弄２之１號","OBJECTID":88515},"geometry":{"x":166630.60000000149,"y":2548975.5100000016}},{"attributes":{"ID":88516,"DIS_CODE":0,"TOWNNAME":"永康區","LI":"西橋里","LIN":"23鄰","STREET":"大橋三街","SECT":" ","MAREA":" ","LANE":"５７巷","ALLEY":"１９弄","HOUSE_NO":"１６號","E_COORD97":170454.35000000001,"N_COORD97":2546556.71,"ADDRESS":"大橋三街５７巷１９弄１６號","OBJECTID":88516},"geometry":{"x":170454.34999999963,"y":2546556.7100000028}},{"attributes":{"ID":88517,"DIS_CODE":0,"TOWNNAME":"永康區","LI":"西灣里","LIN":"50鄰","STREET":"大灣路","SECT":" ","MAREA":" ","LANE":"９４２巷","ALLEY":"５００弄","HOUSE_NO":"１２號","E_COORD97":173929.03,"N_COORD97":2545828.79,"ADDRESS":"大灣路９４２巷５００弄１２號","OBJECTID":88517},"geometry":{"x":173929.03000000026,"y":2545828.790000001}},{"attributes":{"ID":88518,"DIS_CODE":0,"TOWNNAME":"永康區","LI":"尚頂里","LIN":"24鄰","STREET":"南台街","SECT":" ","MAREA":" ","LANE":"５４巷","ALLEY":"４５弄","HOUSE_NO":"３號","E_COORD97":170300.70000000001,"N_COORD97":2547127.4900000002,"ADDRESS":"南台街５４巷４５弄３號","OBJECTID":88518},"geometry":{"x":170300.70000000205,"y":2547127.4900000021}},{"attributes":{"ID":88519,"DIS_CODE":0,"TOWNNAME":"永康區","LI":"尚頂里","LIN":"1鄰","STREET":"中正南路","SECT":" ","MAREA":" ","LANE":"３０６巷","ALLEY":"３３弄","HOUSE_NO":"２號","E_COORD97":170835.53,"N_COORD97":2547700.1699999999,"ADDRESS":"中正南路３０６巷３３弄２號","OBJECTID":88519},"geometry":{"x":170835.53000000026,"y":2547700.1699999999}},{"attributes":{"ID":88520,"DIS_CODE":0,"TOWNNAME":"永康區","LI":"西灣里","LIN":"44鄰","STREET":"大灣路","SECT":" ","MAREA":" ","LANE":"９４２巷","ALLEY":"４１８弄","HOUSE_NO":"１７號","E_COORD97":174021.20000000001,"N_COORD97":2545580.5299999998,"ADDRESS":"大灣路９４２巷４１８弄１７號","OBJECTID":88520},"geometry":{"x":174021.20000000019,"y":2545580.5300000012}},{"attributes":{"ID":88521,"DIS_CODE":0,"TOWNNAME":"永康區","LI":"西勢里","LIN":"18鄰","STREET":"富強路","SECT":"一段","MAREA":" ","LANE":"２巷","ALLEY":"８弄","HOUSE_NO":"７號","E_COORD97":175425.17000000001,"N_COORD97":2545984.1200000001,"ADDRESS":"富強路一段２巷８弄７號","OBJECTID":88521},"geometry":{"x":175425.17000000179,"y":2545984.1200000048}},{"attributes":{"ID":88522,"DIS_CODE":0,"TOWNNAME":"永康區","LI":"西勢里","LIN":"24鄰","STREET":"廣興街","SECT":" ","MAREA":" ","LANE":"３８巷","ALLEY":"２５弄","HOUSE_NO":"２３號","E_COORD97":176039.34,"N_COORD97":2546531,"ADDRESS":"廣興街３８巷２５弄２３號","OBJECTID":88522},"geometry":{"x":176039.34000000171,"y":2546531.0000000019}},{"attributes":{"ID":88523,"DIS_CODE":0,"TOWNNAME":"永康區","LI":"西勢里","LIN":"7鄰","STREET":"富強路","SECT":"一段","MAREA":" ","LANE":"２７９巷","ALLEY":"７弄","HOUSE_NO":"１號","E_COORD97":175667.60999999999,"N_COORD97":2546595.0699999998,"ADDRESS":"富強路一段２７９巷７弄１號","OBJECTID":88523},"geometry":{"x":175667.61000000034,"y":2546595.0700000022}},{"attributes":{"ID":88524,"DIS_CODE":0,"TOWNNAME":"永康區","LI":"西灣里","LIN":"50鄰","STREET":"大灣路","SECT":" ","MAREA":" ","LANE":"９４２巷","ALLEY":"５００弄","HOUSE_NO":"１５號","E_COORD97":173931.57999999999,"N_COORD97":2545844.2400000002,"ADDRESS":"大灣路９４２巷５００弄１５號","OBJECTID":88524},"geometry":{"x":173931.58000000007,"y":2545844.2400000021}},{"attributes":{"ID":88525,"DIS_CODE":0,"TOWNNAME":"永康區","LI":"西勢里","LIN":"30鄰","STREET":"富強路","SECT":"一段","MAREA":" ","LANE":"２巷","ALLEY":"３１弄","HOUSE_NO":"１１號","E_COORD97":175502.54000000001,"N_COORD97":2545933.8799999999,"ADDRESS":"富強路一段２巷３１弄１１號","OBJECTID":88525},"geometry":{"x":175502.54000000097,"y":2545933.8800000008}},{"attributes":{"ID":88526,"DIS_CODE":0,"TOWNNAME":"永康區","LI":"西灣里","LIN":"50鄰","STREET":"大灣路","SECT":" ","MAREA":" ","LANE":"９４２巷","ALLEY":"５００弄","HOUSE_NO":"２５號","E_COORD97":173951.72,"N_COORD97":2545849.9900000002,"ADDRESS":"大灣路９４２巷５００弄２５號","OBJECTID":88526},"geometry":{"x":173951.72000000067,"y":2545849.9900000021}},{"attributes":{"ID":88527,"DIS_CODE":0,"TOWNNAME":"永康區","LI":"西灣里","LIN":"50鄰","STREET":"大灣路","SECT":" ","MAREA":" ","LANE":"９４２巷","ALLEY":"５００弄","HOUSE_NO":"４１號","E_COORD97":173984.89999999999,"N_COORD97":2545858.7400000002,"ADDRESS":"大灣路９４２巷５００弄４１號","OBJECTID":88527},"geometry":{"x":173984.90000000224,"y":2545858.7400000021}},{"attributes":{"ID":88528,"DIS_CODE":0,"TOWNNAME":"永康區","LI":"西勢里","LIN":"24鄰","STREET":"廣興街","SECT":" ","MAREA":" ","LANE":"３８巷","ALLEY":"２５弄","HOUSE_NO":"２１號之１","E_COORD97":176032.07000000001,"N_COORD97":2546538.5499999998,"ADDRESS":"廣興街３８巷２５弄２１號之１","OBJECTID":88528},"geometry":{"x":176032.07000000123,"y":2546538.5500000026}},{"attributes":{"ID":88529,"DIS_CODE":0,"TOWNNAME":"永康區","LI":"尚頂里","LIN":"9鄰","STREET":"正南一街","SECT":" ","MAREA":" ","LANE":"１２９巷","ALLEY":"３８弄","HOUSE_NO":"５號","E_COORD97":170744.75,"N_COORD97":2547174.8999999999,"ADDRESS":"正南一街１２９巷３８弄５號","OBJECTID":88529},"geometry":{"x":170744.75000000093,"y":2547174.9000000041}},{"attributes":{"ID":88530,"DIS_CODE":0,"TOWNNAME":"學甲區","LI":"三慶里","LIN":"15鄰","STREET":" ","SECT":" ","MAREA":"紅茄","LANE":" ","ALLEY":" ","HOUSE_NO":"３號","E_COORD97":167684.04999999999,"N_COORD97":2575723.27,"ADDRESS":"紅茄３號","OBJECTID":88530},"geometry":{"x":167684.05000000075,"y":2575723.2700000014}},{"attributes":{"ID":88531,"DIS_CODE":0,"TOWNNAME":"後壁區","LI":"後壁里","LIN":"12鄰","STREET":" ","SECT":" ","MAREA":"後壁","LANE":" ","ALLEY":" ","HOUSE_NO":"４２８號","E_COORD97":186110.29000000001,"N_COORD97":2584178.3700000001,"ADDRESS":"後壁４２８號","OBJECTID":88531},"geometry":{"x":186110.29000000004,"y":2584178.3700000048}},{"attributes":{"ID":88532,"DIS_CODE":0,"TOWNNAME":"後壁區","LI":"侯伯里","LIN":"12鄰","STREET":" ","SECT":" ","MAREA":"後壁寮","LANE":" ","ALLEY":" ","HOUSE_NO":"１００號","E_COORD97":185310.85000000001,"N_COORD97":2585395.29,"ADDRESS":"後壁寮１００號","OBJECTID":88532},"geometry":{"x":185310.84999999963,"y":2585395.290000001}},{"attributes":{"ID":88533,"DIS_CODE":0,"TOWNNAME":"後壁區","LI":"侯伯里","LIN":"12鄰","STREET":" ","SECT":" ","MAREA":"後壁寮","LANE":" ","ALLEY":" ","HOUSE_NO":"９４號","E_COORD97":185346.45000000001,"N_COORD97":2585420.7799999998,"ADDRESS":"後壁寮９４號","OBJECTID":88533},"geometry":{"x":185346.45000000019,"y":2585420.7799999993}},{"attributes":{"ID":88534,"DIS_CODE":0,"TOWNNAME":"後壁區","LI":"侯伯里","LIN":"12鄰","STREET":" ","SECT":" ","MAREA":"後壁寮","LANE":" ","ALLEY":" ","HOUSE_NO":"９６號","E_COORD97":185355.87,"N_COORD97":2585403.9399999999,"ADDRESS":"後壁寮９６號","OBJECTID":88534},"geometry":{"x":185355.87000000011,"y":2585403.9400000032}},{"attributes":{"ID":88535,"DIS_CODE":0,"TOWNNAME":"永康區","LI":"西勢里","LIN":"7鄰","STREET":"富強路","SECT":"一段","MAREA":" ","LANE":"２７９巷","ALLEY":"１３弄","HOUSE_NO":"１號","E_COORD97":175640.48999999999,"N_COORD97":2546600.8700000001,"ADDRESS":"富強路一段２７９巷１３弄１號","OBJECTID":88535},"geometry":{"x":175640.49000000115,"y":2546600.8700000029}},{"attributes":{"ID":88536,"DIS_CODE":0,"TOWNNAME":"後壁區","LI":"侯伯里","LIN":"12鄰","STREET":" ","SECT":" ","MAREA":"後壁寮","LANE":" ","ALLEY":" ","HOUSE_NO":"９８號","E_COORD97":185317.31,"N_COORD97":2585378.1200000001,"ADDRESS":"後壁寮９８號","OBJECTID":88536},"geometry":{"x":185317.31000000052,"y":2585378.1200000029}},{"attributes":{"ID":88537,"DIS_CODE":0,"TOWNNAME":"永康區","LI":"甲頂里","LIN":"10鄰","STREET":"中正南路","SECT":" ","MAREA":" ","LANE":"５２巷","ALLEY":"６４弄","HOUSE_NO":"１號","E_COORD97":169964.17000000001,"N_COORD97":2546787.1200000001,"ADDRESS":"中正南路５２巷６４弄１號","OBJECTID":88537},"geometry":{"x":169964.16999999993,"y":2546787.120000001}},{"attributes":{"ID":88538,"DIS_CODE":0,"TOWNNAME":"永康區","LI":"西橋里","LIN":"21鄰","STREET":"大橋三街","SECT":" ","MAREA":" ","LANE":"５７巷","ALLEY":"１９弄","HOUSE_NO":"７３號","E_COORD97":170424.76999999999,"N_COORD97":2546452.21,"ADDRESS":"大橋三街５７巷１９弄７３號","OBJECTID":88538},"geometry":{"x":170424.76999999955,"y":2546452.2100000028}},{"attributes":{"ID":88539,"DIS_CODE":0,"TOWNNAME":"永康區","LI":"甲頂里","LIN":"7鄰","STREET":"中正南路","SECT":" ","MAREA":" ","LANE":"５２巷","ALLEY":"７１弄","HOUSE_NO":"１０號","E_COORD97":169925.66,"N_COORD97":2546812.9900000002,"ADDRESS":"中正南路５２巷７１弄１０號","OBJECTID":88539},"geometry":{"x":169925.66000000015,"y":2546812.9900000021}},{"attributes":{"ID":88540,"DIS_CODE":0,"TOWNNAME":"永康區","LI":"西勢里","LIN":"26鄰","STREET":"廣興街","SECT":" ","MAREA":" ","LANE":"３８巷","ALLEY":"２６弄","HOUSE_NO":"１０號","E_COORD97":175986.09,"N_COORD97":2546446,"ADDRESS":"廣興街３８巷２６弄１０號","OBJECTID":88540},"geometry":{"x":175986.08999999985,"y":2546446.0000000019}},{"attributes":{"ID":88541,"DIS_CODE":0,"TOWNNAME":"北區","LI":"文元里","LIN":"15鄰","STREET":"和緯路","SECT":"三段","MAREA":" ","LANE":" ","ALLEY":" ","HOUSE_NO":"３０６號","E_COORD97":167596.51000000001,"N_COORD97":2545651.8199999998,"ADDRESS":"和緯路三段３０６號","OBJECTID":88541},"geometry":{"x":167596.51000000071,"y":2545651.8200000003}},{"attributes":{"ID":88542,"DIS_CODE":0,"TOWNNAME":"北區","LI":"文元里","LIN":"15鄰","STREET":"和緯路","SECT":"三段","MAREA":" ","LANE":" ","ALLEY":" ","HOUSE_NO":"３０８號","E_COORD97":167591.75,"N_COORD97":2545649.7599999998,"ADDRESS":"和緯路三段３０８號","OBJECTID":88542},"geometry":{"x":167591.75000000093,"y":2545649.7600000035}},{"attributes":{"ID":88543,"DIS_CODE":0,"TOWNNAME":"北區","LI":"文元里","LIN":"15鄰","STREET":"和緯路","SECT":"三段","MAREA":" ","LANE":" ","ALLEY":" ","HOUSE_NO":"３１０號","E_COORD97":167586.82999999999,"N_COORD97":2545648.1699999999,"ADDRESS":"和緯路三段３１０號","OBJECTID":88543},"geometry":{"x":167586.83000000007,"y":2545648.1700000018}},{"attributes":{"ID":88544,"DIS_CODE":0,"TOWNNAME":"北區","LI":"文元里","LIN":"15鄰","STREET":"和緯路","SECT":"三段","MAREA":" ","LANE":" ","ALLEY":" ","HOUSE_NO":"３１２號","E_COORD97":167583.5,"N_COORD97":2545647.54,"ADDRESS":"和緯路三段３１２號","OBJECTID":88544},"geometry":{"x":167583.50000000093,"y":2545647.540000001}},{"attributes":{"ID":88545,"DIS_CODE":0,"TOWNNAME":"北區","LI":"文元里","LIN":"15鄰","STREET":"文成路","SECT":" ","MAREA":" ","LANE":" ","ALLEY":" ","HOUSE_NO":"７７９號","E_COORD97":167444.12,"N_COORD97":2545850.4100000001,"ADDRESS":"文成路７７９號","OBJECTID":88545},"geometry":{"x":167444.12000000011,"y":2545850.410000002}},{"attributes":{"ID":88546,"DIS_CODE":0,"TOWNNAME":"永康區","LI":"西橋里","LIN":"13鄰","STREET":"大橋三街","SECT":" ","MAREA":" ","LANE":"１０巷","ALLEY":"６弄","HOUSE_NO":"１６號","E_COORD97":170497.48000000001,"N_COORD97":2546319.5,"ADDRESS":"大橋三街１０巷６弄１６號","OBJECTID":88546},"geometry":{"x":170497.48000000138,"y":2546319.5000000037}},{"attributes":{"ID":88547,"DIS_CODE":0,"TOWNNAME":"永康區","LI":"甲頂里","LIN":"1鄰","STREET":"南台街","SECT":" ","MAREA":" ","LANE":"１３５巷","ALLEY":"３弄","HOUSE_NO":"２９號","E_COORD97":170127.19,"N_COORD97":2546961.54,"ADDRESS":"南台街１３５巷３弄２９號","OBJECTID":88547},"geometry":{"x":170127.19000000041,"y":2546961.5399999991}},{"attributes":{"ID":88548,"DIS_CODE":0,"TOWNNAME":"永康區","LI":"西勢里","LIN":"21鄰","STREET":"富強路","SECT":"一段","MAREA":" ","LANE":"９８巷","ALLEY":"６２弄","HOUSE_NO":"６號","E_COORD97":175615.32000000001,"N_COORD97":2546034.1499999999,"ADDRESS":"富強路一段９８巷６２弄６號","OBJECTID":88548},"geometry":{"x":175615.3200000003,"y":2546034.1500000041}},{"attributes":{"ID":88549,"DIS_CODE":0,"TOWNNAME":"永康區","LI":"東橋里","LIN":"10鄰","STREET":"中山南路","SECT":" ","MAREA":" ","LANE":"１９５巷","ALLEY":"２４弄","HOUSE_NO":"４２號","E_COORD97":171590.29999999999,"N_COORD97":2546337.5899999999,"ADDRESS":"中山南路１９５巷２４弄４２號","OBJECTID":88549},"geometry":{"x":171590.30000000075,"y":2546337.5899999999}},{"attributes":{"ID":88550,"DIS_CODE":0,"TOWNNAME":"永康區","LI":"東橋里","LIN":"10鄰","STREET":"中山南路","SECT":" ","MAREA":" ","LANE":"１９５巷","ALLEY":"２４弄","HOUSE_NO":"４０號","E_COORD97":171587.26999999999,"N_COORD97":2546341.3399999999,"ADDRESS":"中山南路１９５巷２４弄４０號","OBJECTID":88550},"geometry":{"x":171587.26999999955,"y":2546341.3400000017}},{"attributes":{"ID":88551,"DIS_CODE":0,"TOWNNAME":"永康區","LI":"正強里","LIN":"10鄰","STREET":"正義街","SECT":" ","MAREA":" ","LANE":"１０１巷","ALLEY":"２０弄","HOUSE_NO":"１０號","E_COORD97":173418.22,"N_COORD97":2547487.8999999999,"ADDRESS":"正義街１０１巷２０弄１０號","OBJECTID":88551},"geometry":{"x":173418.22000000067,"y":2547487.9000000022}},{"attributes":{"ID":88552,"DIS_CODE":0,"TOWNNAME":"安南區","LI":"州南里","LIN":"10鄰","STREET":"長和路","SECT":"三段","MAREA":" ","LANE":"３８巷","ALLEY":"２弄","HOUSE_NO":"１號","E_COORD97":169852.92000000001,"N_COORD97":2551543.02,"ADDRESS":"長和路三段３８巷２弄１號","OBJECTID":88552},"geometry":{"x":169852.91999999899,"y":2551543.0199999996}},{"attributes":{"ID":88553,"DIS_CODE":0,"TOWNNAME":"安南區","LI":"理想里","LIN":"10鄰","STREET":"海佃路","SECT":"二段","MAREA":" ","LANE":"１５０巷","ALLEY":"２８弄","HOUSE_NO":"５３號","E_COORD97":167179.67999999999,"N_COORD97":2548125.9500000002,"ADDRESS":"海佃路二段１５０巷２８弄５３號","OBJECTID":88553},"geometry":{"x":167179.68000000063,"y":2548125.9499999974}},{"attributes":{"ID":88554,"DIS_CODE":0,"TOWNNAME":"安南區","LI":"理想里","LIN":"10鄰","STREET":"海佃路","SECT":"二段","MAREA":" ","LANE":"１５０巷","ALLEY":"２８弄","HOUSE_NO":"１號","E_COORD97":167073.10999999999,"N_COORD97":2548169.8999999999,"ADDRESS":"海佃路二段１５０巷２８弄１號","OBJECTID":88554},"geometry":{"x":167073.11000000034,"y":2548169.9000000022}},{"attributes":{"ID":88555,"DIS_CODE":0,"TOWNNAME":"安南區","LI":"理想里","LIN":"10鄰","STREET":"海佃路","SECT":"二段","MAREA":" ","LANE":"１５０巷","ALLEY":"２８弄","HOUSE_NO":"３號","E_COORD97":167077.70999999999,"N_COORD97":2548167.3599999999,"ADDRESS":"海佃路二段１５０巷２８弄３號","OBJECTID":88555},"geometry":{"x":167077.71000000183,"y":2548167.3599999975}},{"attributes":{"ID":88556,"DIS_CODE":0,"TOWNNAME":"永康區","LI":"永康里","LIN":"4鄰","STREET":"永中街","SECT":" ","MAREA":" ","LANE":" ","ALLEY":" ","HOUSE_NO":"１０７號","E_COORD97":173983.54000000001,"N_COORD97":2547311.7400000002,"ADDRESS":"永中街１０７號","OBJECTID":88556},"geometry":{"x":173983.5400000019,"y":2547311.7400000039}},{"attributes":{"ID":88557,"DIS_CODE":0,"TOWNNAME":"永康區","LI":"永康里","LIN":"42鄰","STREET":"文化路","SECT":" ","MAREA":" ","LANE":" ","ALLEY":" ","HOUSE_NO":"８６號","E_COORD97":174138.57999999999,"N_COORD97":2546313.96,"ADDRESS":"文化路８６號","OBJECTID":88557},"geometry":{"x":174138.58000000007,"y":2546313.9600000046}},{"attributes":{"ID":88558,"DIS_CODE":0,"TOWNNAME":"永康區","LI":"永康里","LIN":"4鄰","STREET":"永中街","SECT":" ","MAREA":" ","LANE":" ","ALLEY":" ","HOUSE_NO":"１０９號","E_COORD97":173987.13,"N_COORD97":2547315.9900000002,"ADDRESS":"永中街１０９號","OBJECTID":88558},"geometry":{"x":173987.12999999989,"y":2547315.9900000002}},{"attributes":{"ID":88559,"DIS_CODE":0,"TOWNNAME":"永康區","LI":"永康里","LIN":"32鄰","STREET":"永康街","SECT":" ","MAREA":" ","LANE":" ","ALLEY":" ","HOUSE_NO":"３６６號","E_COORD97":174369.87,"N_COORD97":2547057.52,"ADDRESS":"永康街３６６號","OBJECTID":88559},"geometry":{"x":174369.87000000104,"y":2547057.5199999996}},{"attributes":{"ID":88560,"DIS_CODE":0,"TOWNNAME":"安南區","LI":"理想里","LIN":"10鄰","STREET":"海佃路","SECT":"二段","MAREA":" ","LANE":"１５０巷","ALLEY":"２８弄","HOUSE_NO":"５號","E_COORD97":167081.51999999999,"N_COORD97":2548164.8199999998,"ADDRESS":"海佃路二段１５０巷２８弄５號","OBJECTID":88560},"geometry":{"x":167081.51999999955,"y":2548164.8200000003}},{"attributes":{"ID":88561,"DIS_CODE":0,"TOWNNAME":"安南區","LI":"理想里","LIN":"10鄰","STREET":"海佃路","SECT":"二段","MAREA":" ","LANE":"１５０巷","ALLEY":"２８弄","HOUSE_NO":"７號","E_COORD97":167085.17000000001,"N_COORD97":2548162.5899999999,"ADDRESS":"海佃路二段１５０巷２８弄７號","OBJECTID":88561},"geometry":{"x":167085.17000000086,"y":2548162.5899999999}},{"attributes":{"ID":88562,"DIS_CODE":0,"TOWNNAME":"安南區","LI":"理想里","LIN":"10鄰","STREET":"海佃路","SECT":"二段","MAREA":" ","LANE":"１５０巷","ALLEY":"２８弄","HOUSE_NO":"１１號","E_COORD97":167093.75,"N_COORD97":2548158.3100000001,"ADDRESS":"海佃路二段１５０巷２８弄１１號","OBJECTID":88562},"geometry":{"x":167093.75,"y":2548158.3100000005}},{"attributes":{"ID":88563,"DIS_CODE":0,"TOWNNAME":"安南區","LI":"理想里","LIN":"10鄰","STREET":"海佃路","SECT":"二段","MAREA":" ","LANE":"１５０巷","ALLEY":"２８弄","HOUSE_NO":"９號","E_COORD97":167089.29999999999,"N_COORD97":2548160.5299999998,"ADDRESS":"海佃路二段１５０巷２８弄９號","OBJECTID":88563},"geometry":{"x":167089.30000000075,"y":2548160.5300000012}},{"attributes":{"ID":88564,"DIS_CODE":0,"TOWNNAME":"安南區","LI":"理想里","LIN":"10鄰","STREET":"海佃路","SECT":"二段","MAREA":" ","LANE":"１５０巷","ALLEY":"２８弄","HOUSE_NO":"１３號","E_COORD97":167098.19,"N_COORD97":2548155.77,"ADDRESS":"海佃路二段１５０巷２８弄１３號","OBJECTID":88564},"geometry":{"x":167098.19000000041,"y":2548155.7700000014}},{"attributes":{"ID":88565,"DIS_CODE":0,"TOWNNAME":"安南區","LI":"理想里","LIN":"10鄰","STREET":"海佃路","SECT":"二段","MAREA":" ","LANE":"１５０巷","ALLEY":"２８弄","HOUSE_NO":"１５號","E_COORD97":167101.67999999999,"N_COORD97":2548153.7000000002,"ADDRESS":"海佃路二段１５０巷２８弄１５號","OBJECTID":88565},"geometry":{"x":167101.68000000063,"y":2548153.6999999993}},{"attributes":{"ID":88566,"DIS_CODE":0,"TOWNNAME":"安南區","LI":"理想里","LIN":"10鄰","STREET":"海佃路","SECT":"二段","MAREA":" ","LANE":"１５０巷","ALLEY":"２８弄","HOUSE_NO":"１７號","E_COORD97":167105.01999999999,"N_COORD97":2548151.7999999998,"ADDRESS":"海佃路二段１５０巷２８弄１７號","OBJECTID":88566},"geometry":{"x":167105.01999999955,"y":2548151.8000000007}},{"attributes":{"ID":88567,"DIS_CODE":0,"TOWNNAME":"安南區","LI":"理想里","LIN":"10鄰","STREET":"海佃路","SECT":"二段","MAREA":" ","LANE":"１５０巷","ALLEY":"２８弄","HOUSE_NO":"１９號","E_COORD97":167108.19,"N_COORD97":2548150.3700000001,"ADDRESS":"海佃路二段１５０巷２８弄１９號","OBJECTID":88567},"geometry":{"x":167108.19000000041,"y":2548150.3700000029}},{"attributes":{"ID":88568,"DIS_CODE":0,"TOWNNAME":"安南區","LI":"理想里","LIN":"10鄰","STREET":"海佃路","SECT":"二段","MAREA":" ","LANE":"１５０巷","ALLEY":"２８弄","HOUSE_NO":"２１號","E_COORD97":167111.53,"N_COORD97":2548148.6200000001,"ADDRESS":"海佃路二段１５０巷２８弄２１號","OBJECTID":88568},"geometry":{"x":167111.53000000212,"y":2548148.6200000029}},{"attributes":{"ID":88569,"DIS_CODE":0,"TOWNNAME":"安南區","LI":"理想里","LIN":"10鄰","STREET":"海佃路","SECT":"二段","MAREA":" ","LANE":"１５０巷","ALLEY":"２８弄","HOUSE_NO":"２３號","E_COORD97":167115.17999999999,"N_COORD97":2548146.3999999999,"ADDRESS":"海佃路二段１５０巷２８弄２３號","OBJECTID":88569},"geometry":{"x":167115.18000000063,"y":2548146.4000000004}},{"attributes":{"ID":88570,"DIS_CODE":0,"TOWNNAME":"安南區","LI":"理想里","LIN":"10鄰","STREET":"海佃路","SECT":"二段","MAREA":" ","LANE":"１５０巷","ALLEY":"２８弄","HOUSE_NO":"２５號","E_COORD97":167118.98999999999,"N_COORD97":2548144.3399999999,"ADDRESS":"海佃路二段１５０巷２８弄２５號","OBJECTID":88570},"geometry":{"x":167118.99000000115,"y":2548144.339999998}},{"attributes":{"ID":88571,"DIS_CODE":0,"TOWNNAME":"永康區","LI":"永康里","LIN":"14鄰","STREET":"永康街","SECT":" ","MAREA":" ","LANE":" ","ALLEY":" ","HOUSE_NO":"１４５號","E_COORD97":173997.16,"N_COORD97":2547058.1600000001,"ADDRESS":"永康街１４５號","OBJECTID":88571},"geometry":{"x":173997.16000000108,"y":2547058.160000002}},{"attributes":{"ID":88572,"DIS_CODE":0,"TOWNNAME":"永康區","LI":"永康里","LIN":"20鄰","STREET":"永中街","SECT":" ","MAREA":" ","LANE":" ","ALLEY":" ","HOUSE_NO":"１６８號","E_COORD97":174015.67999999999,"N_COORD97":2547322.0499999998,"ADDRESS":"永中街１６８號","OBJECTID":88572},"geometry":{"x":174015.6799999997,"y":2547322.0500000007}},{"attributes":{"ID":88573,"DIS_CODE":0,"TOWNNAME":"永康區","LI":"永康里","LIN":"26鄰","STREET":"永大路","SECT":"二段","MAREA":" ","LANE":" ","ALLEY":" ","HOUSE_NO":"１４６６號","E_COORD97":174284.97,"N_COORD97":2547153.3100000001,"ADDRESS":"永大路二段１４６６號","OBJECTID":88573},"geometry":{"x":174284.96999999974,"y":2547153.3100000024}},{"attributes":{"ID":88574,"DIS_CODE":0,"TOWNNAME":"後壁區","LI":"烏樹里","LIN":"12鄰","STREET":" ","SECT":" ","MAREA":"烏樹林","LANE":" ","ALLEY":" ","HOUSE_NO":"１３３號之１","E_COORD97":186289.03,"N_COORD97":2580954.3900000001,"ADDRESS":"烏樹林１３３號之１","OBJECTID":88574},"geometry":{"x":186289.03000000026,"y":2580954.3900000025}},{"attributes":{"ID":88575,"DIS_CODE":0,"TOWNNAME":"後壁區","LI":"烏樹里","LIN":"12鄰","STREET":" ","SECT":" ","MAREA":"烏樹林","LANE":" ","ALLEY":" ","HOUSE_NO":"１３３號之２","E_COORD97":186289.29999999999,"N_COORD97":2580948.9100000001,"ADDRESS":"烏樹林１３３號之２","OBJECTID":88575},"geometry":{"x":186289.30000000075,"y":2580948.9100000001}},{"attributes":{"ID":88576,"DIS_CODE":0,"TOWNNAME":"後壁區","LI":"烏樹里","LIN":"12鄰","STREET":" ","SECT":" ","MAREA":"烏樹林","LANE":" ","ALLEY":" ","HOUSE_NO":"１３３號之３","E_COORD97":186306.84,"N_COORD97":2580980.8599999999,"ADDRESS":"烏樹林１３３號之３","OBJECTID":88576},"geometry":{"x":186306.83999999985,"y":2580980.8600000013}},{"attributes":{"ID":88577,"DIS_CODE":0,"TOWNNAME":"後壁區","LI":"烏樹里","LIN":"12鄰","STREET":" ","SECT":" ","MAREA":"烏樹林","LANE":" ","ALLEY":" ","HOUSE_NO":"１３３號","E_COORD97":186288.95999999999,"N_COORD97":2580959.8700000001,"ADDRESS":"烏樹林１３３號","OBJECTID":88577},"geometry":{"x":186288.95999999996,"y":2580959.870000001}},{"attributes":{"ID":88578,"DIS_CODE":0,"TOWNNAME":"後壁區","LI":"烏樹里","LIN":"12鄰","STREET":" ","SECT":" ","MAREA":"烏樹林","LANE":" ","ALLEY":" ","HOUSE_NO":"１３４號之２","E_COORD97":186294.57999999999,"N_COORD97":2580921.27,"ADDRESS":"烏樹林１３４號之２","OBJECTID":88578},"geometry":{"x":186294.58000000007,"y":2580921.2699999996}},{"attributes":{"ID":88579,"DIS_CODE":0,"TOWNNAME":"後壁區","LI":"烏樹里","LIN":"12鄰","STREET":" ","SECT":" ","MAREA":"烏樹林","LANE":" ","ALLEY":" ","HOUSE_NO":"１３４號之３","E_COORD97":186295.85999999999,"N_COORD97":2580914.5600000001,"ADDRESS":"烏樹林１３４號之３","OBJECTID":88579},"geometry":{"x":186295.86000000127,"y":2580914.5600000005}},{"attributes":{"ID":88580,"DIS_CODE":0,"TOWNNAME":"後壁區","LI":"烏樹里","LIN":"12鄰","STREET":" ","SECT":" ","MAREA":"烏樹林","LANE":" ","ALLEY":" ","HOUSE_NO":"１３５號","E_COORD97":186294.73000000001,"N_COORD97":2580933.9199999999,"ADDRESS":"烏樹林１３５號","OBJECTID":88580},"geometry":{"x":186294.72999999952,"y":2580933.9200000018}},{"attributes":{"ID":88581,"DIS_CODE":0,"TOWNNAME":"安南區","LI":"理想里","LIN":"10鄰","STREET":"海佃路","SECT":"二段","MAREA":" ","LANE":"１５０巷","ALLEY":"２８弄","HOUSE_NO":"２７號","E_COORD97":167122.79999999999,"N_COORD97":2548141.96,"ADDRESS":"海佃路二段１５０巷２８弄２７號","OBJECTID":88581},"geometry":{"x":167122.80000000168,"y":2548141.9600000028}},{"attributes":{"ID":88582,"DIS_CODE":0,"TOWNNAME":"安南區","LI":"理想里","LIN":"10鄰","STREET":"海佃路","SECT":"二段","MAREA":" ","LANE":"１５０巷","ALLEY":"２８弄","HOUSE_NO":"２９號","E_COORD97":167126.13,"N_COORD97":2548139.73,"ADDRESS":"海佃路二段１５０巷２８弄２９號","OBJECTID":88582},"geometry":{"x":167126.13000000082,"y":2548139.7300000023}},{"attributes":{"ID":88583,"DIS_CODE":0,"TOWNNAME":"安南區","LI":"理想里","LIN":"10鄰","STREET":"海佃路","SECT":"二段","MAREA":" ","LANE":"１５０巷","ALLEY":"２８弄","HOUSE_NO":"５１號","E_COORD97":167169.14999999999,"N_COORD97":2548116.2400000002,"ADDRESS":"海佃路二段１５０巷２８弄５１號","OBJECTID":88583},"geometry":{"x":167169.1500000013,"y":2548116.2400000021}},{"attributes":{"ID":88584,"DIS_CODE":0,"TOWNNAME":"安南區","LI":"理想里","LIN":"10鄰","STREET":"海佃路","SECT":"二段","MAREA":" ","LANE":"１５０巷","ALLEY":"２８弄","HOUSE_NO":"３１號","E_COORD97":167130.26000000001,"N_COORD97":2548137.9900000002,"ADDRESS":"海佃路二段１５０巷２８弄３１號","OBJECTID":88584},"geometry":{"x":167130.26000000071,"y":2548137.9900000021}},{"attributes":{"ID":88585,"DIS_CODE":0,"TOWNNAME":"安南區","LI":"理想里","LIN":"10鄰","STREET":"海佃路","SECT":"二段","MAREA":" ","LANE":"１５０巷","ALLEY":"２８弄","HOUSE_NO":"３３號","E_COORD97":167133.42999999999,"N_COORD97":2548136.0800000001,"ADDRESS":"海佃路二段１５０巷２８弄３３號","OBJECTID":88585},"geometry":{"x":167133.4299999997,"y":2548136.0799999982}},{"attributes":{"ID":88586,"DIS_CODE":0,"TOWNNAME":"安南區","LI":"理想里","LIN":"10鄰","STREET":"海佃路","SECT":"二段","MAREA":" ","LANE":"１５０巷","ALLEY":"２８弄","HOUSE_NO":"３５號","E_COORD97":167137.23999999999,"N_COORD97":2548134.02,"ADDRESS":"海佃路二段１５０巷２８弄３５號","OBJECTID":88586},"geometry":{"x":167137.24000000209,"y":2548134.0200000014}},{"attributes":{"ID":88587,"DIS_CODE":0,"TOWNNAME":"後壁區","LI":"烏樹里","LIN":"12鄰","STREET":" ","SECT":" ","MAREA":"烏樹林","LANE":" ","ALLEY":" ","HOUSE_NO":"１３７號之１","E_COORD97":186274.79000000001,"N_COORD97":2580953.04,"ADDRESS":"烏樹林１３７號之１","OBJECTID":88587},"geometry":{"x":186274.79000000004,"y":2580953.0399999991}},{"attributes":{"ID":88588,"DIS_CODE":0,"TOWNNAME":"後壁區","LI":"烏樹里","LIN":"12鄰","STREET":" ","SECT":" ","MAREA":"烏樹林","LANE":" ","ALLEY":" ","HOUSE_NO":"１３７號之２","E_COORD97":186275.17999999999,"N_COORD97":2580944.6000000001,"ADDRESS":"烏樹林１３７號之２","OBJECTID":88588},"geometry":{"x":186275.1799999997,"y":2580944.6000000034}},{"attributes":{"ID":88589,"DIS_CODE":0,"TOWNNAME":"後壁區","LI":"菁豊里","LIN":"12鄰","STREET":" ","SECT":" ","MAREA":"崩埤","LANE":" ","ALLEY":" ","HOUSE_NO":"１０號","E_COORD97":185026.54000000001,"N_COORD97":2587037.0800000001,"ADDRESS":"崩埤１０號","OBJECTID":88589},"geometry":{"x":185026.54000000097,"y":2587037.0800000001}},{"attributes":{"ID":88590,"DIS_CODE":0,"TOWNNAME":"後壁區","LI":"菁豊里","LIN":"12鄰","STREET":" ","SECT":" ","MAREA":"崩埤","LANE":" ","ALLEY":" ","HOUSE_NO":"１１號","E_COORD97":185002.81,"N_COORD97":2587017.8700000001,"ADDRESS":"崩埤１１號","OBJECTID":88590},"geometry":{"x":185002.80999999959,"y":2587017.8700000029}},{"attributes":{"ID":88591,"DIS_CODE":0,"TOWNNAME":"後壁區","LI":"菁豊里","LIN":"12鄰","STREET":" ","SECT":" ","MAREA":"崩埤","LANE":" ","ALLEY":" ","HOUSE_NO":"１３號","E_COORD97":185038.94,"N_COORD97":2586999.0699999998,"ADDRESS":"崩埤１３號","OBJECTID":88591},"geometry":{"x":185038.94000000227,"y":2586999.0700000003}},{"attributes":{"ID":88592,"DIS_CODE":0,"TOWNNAME":"後壁區","LI":"菁豊里","LIN":"12鄰","STREET":" ","SECT":" ","MAREA":"崩埤","LANE":" ","ALLEY":" ","HOUSE_NO":"１７號","E_COORD97":185062.60999999999,"N_COORD97":2587098.6000000001,"ADDRESS":"崩埤１７號","OBJECTID":88592},"geometry":{"x":185062.61000000034,"y":2587098.6000000015}},{"attributes":{"ID":88593,"DIS_CODE":0,"TOWNNAME":"後壁區","LI":"菁豊里","LIN":"12鄰","STREET":" ","SECT":" ","MAREA":"崩埤","LANE":" ","ALLEY":" ","HOUSE_NO":"５０號","E_COORD97":185230.39000000001,"N_COORD97":2587425.9100000001,"ADDRESS":"崩埤５０號","OBJECTID":88593},"geometry":{"x":185230.3900000006,"y":2587425.910000002}},{"attributes":{"ID":88594,"DIS_CODE":0,"TOWNNAME":"後壁區","LI":"烏樹里","LIN":"12鄰","STREET":" ","SECT":" ","MAREA":"烏樹林","LANE":" ","ALLEY":" ","HOUSE_NO":"１３７號之３","E_COORD97":186275.31,"N_COORD97":2580938.5099999998,"ADDRESS":"烏樹林１３７號之３","OBJECTID":88594},"geometry":{"x":186275.31000000052,"y":2580938.5100000035}},{"attributes":{"ID":88595,"DIS_CODE":0,"TOWNNAME":"安南區","LI":"理想里","LIN":"10鄰","STREET":"海佃路","SECT":"二段","MAREA":" ","LANE":"１５０巷","ALLEY":"２８弄","HOUSE_NO":"３７號","E_COORD97":167140.73999999999,"N_COORD97":2548132.1099999999,"ADDRESS":"海佃路二段１５０巷２８弄３７號","OBJECTID":88595},"geometry":{"x":167140.74000000115,"y":2548132.1100000031}},{"attributes":{"ID":88596,"DIS_CODE":0,"TOWNNAME":"安南區","LI":"理想里","LIN":"10鄰","STREET":"海佃路","SECT":"二段","MAREA":" ","LANE":"１５０巷","ALLEY":"２８弄","HOUSE_NO":"３９號","E_COORD97":167144.39000000001,"N_COORD97":2548130.21,"ADDRESS":"海佃路二段１５０巷２８弄３９號","OBJECTID":88596},"geometry":{"x":167144.3900000006,"y":2548130.2100000028}},{"attributes":{"ID":88597,"DIS_CODE":0,"TOWNNAME":"安南區","LI":"理想里","LIN":"10鄰","STREET":"海佃路","SECT":"二段","MAREA":" ","LANE":"１５０巷","ALLEY":"２８弄","HOUSE_NO":"４１號","E_COORD97":167148.20000000001,"N_COORD97":2548127.6699999999,"ADDRESS":"海佃路二段１５０巷２８弄４１號","OBJECTID":88597},"geometry":{"x":167148.20000000112,"y":2548127.6699999999}},{"attributes":{"ID":88598,"DIS_CODE":0,"TOWNNAME":"安南區","LI":"理想里","LIN":"10鄰","STREET":"海佃路","SECT":"二段","MAREA":" ","LANE":"１５０巷","ALLEY":"２８弄","HOUSE_NO":"４３號","E_COORD97":167151.69,"N_COORD97":2548125.9199999999,"ADDRESS":"海佃路二段１５０巷２８弄４３號","OBJECTID":88598},"geometry":{"x":167151.69000000134,"y":2548125.9199999999}},{"attributes":{"ID":88599,"DIS_CODE":0,"TOWNNAME":"安南區","LI":"理想里","LIN":"10鄰","STREET":"海佃路","SECT":"二段","MAREA":" ","LANE":"１５０巷","ALLEY":"２８弄","HOUSE_NO":"４５號","E_COORD97":167155.66,"N_COORD97":2548123.3799999999,"ADDRESS":"海佃路二段１５０巷２８弄４５號","OBJECTID":88599},"geometry":{"x":167155.66000000015,"y":2548123.3800000008}},{"attributes":{"ID":88600,"DIS_CODE":0,"TOWNNAME":"安南區","LI":"理想里","LIN":"10鄰","STREET":"海佃路","SECT":"二段","MAREA":" ","LANE":"１５０巷","ALLEY":"２８弄","HOUSE_NO":"４７號","E_COORD97":167159.79000000001,"N_COORD97":2548121,"ADDRESS":"海佃路二段１５０巷２８弄４７號","OBJECTID":88600},"geometry":{"x":167159.79000000004,"y":2548121.0000000019}}]}