{"displayFieldName":"TOWNNAME","fieldAliases":{"ID":"ID","DIS_CODE":"DIS_CODE","TOWNNAME":"TOWNNAME","LI":"LI","LIN":"LIN","STREET":"STREET","SECT":"SECT","MAREA":"MAREA","LANE":"LANE","ALLEY":"ALLEY","HOUSE_NO":"HOUSE_NO","E_COORD97":"E_COORD97","N_COORD97":"N_COORD97","ADDRESS":"ADDRESS","OBJECTID":"OBJECTID"},"geometryType":"esriGeometryPoint","spatialReference":{"wkid":102443,"latestWkid":3826},"fields":[{"name":"ID","type":"esriFieldTypeDouble","alias":"ID"},{"name":"DIS_CODE","type":"esriFieldTypeInteger","alias":"DIS_CODE"},{"name":"TOWNNAME","type":"esriFieldTypeString","alias":"TOWNNAME","length":8},{"name":"LI","type":"esriFieldTypeString","alias":"LI","length":8},{"name":"LIN","type":"esriFieldTypeString","alias":"LIN","length":12},{"name":"STREET","type":"esriFieldTypeString","alias":"STREET","length":20},{"name":"SECT","type":"esriFieldTypeString","alias":"SECT","length":8},{"name":"MAREA","type":"esriFieldTypeString","alias":"MAREA","length":12},{"name":"LANE","type":"esriFieldTypeString","alias":"LANE","length":10},{"name":"ALLEY","type":"esriFieldTypeString","alias":"ALLEY","length":10},{"name":"HOUSE_NO","type":"esriFieldTypeString","alias":"HOUSE_NO","length":20},{"name":"E_COORD97","type":"esriFieldTypeDouble","alias":"E_COORD97"},{"name":"N_COORD97","type":"esriFieldTypeDouble","alias":"N_COORD97"},{"name":"ADDRESS","type":"esriFieldTypeString","alias":"ADDRESS","length":50},{"name":"OBJECTID","type":"esriFieldTypeOID","alias":"OBJECTID"}],"features":[{"attributes":{"ID":240005,"DIS_CODE":0,"TOWNNAME":"永康區","LI":"安康里","LIN":"13鄰","STREET":"中華路","SECT":" ","MAREA":" ","LANE":"６１９巷","ALLEY":" ","HOUSE_NO":"１０２號","E_COORD97":170841.88,"N_COORD97":2545990.5,"ADDRESS":"中華路６１９巷１０２號","OBJECTID":240001},"geometry":{"x":170841.88000000082,"y":2545990.4999999981}},{"attributes":{"ID":240006,"DIS_CODE":0,"TOWNNAME":"永康區","LI":"甲頂里","LIN":"13鄰","STREET":"正新街","SECT":" ","MAREA":" ","LANE":"１７巷","ALLEY":" ","HOUSE_NO":"７號","E_COORD97":170373.66,"N_COORD97":2546574.2400000002,"ADDRESS":"正新街１７巷７號","OBJECTID":240002},"geometry":{"x":170373.65999999922,"y":2546574.2400000002}},{"attributes":{"ID":240007,"DIS_CODE":0,"TOWNNAME":"永康區","LI":"大橋里","LIN":"14鄰","STREET":"大橋一街","SECT":" ","MAREA":" ","LANE":" ","ALLEY":" ","HOUSE_NO":"６１號九樓之１","E_COORD97":170895.70000000001,"N_COORD97":2546426.5499999998,"ADDRESS":"大橋一街６１號九樓之１","OBJECTID":240003},"geometry":{"x":170895.70000000205,"y":2546426.5500000026}},{"attributes":{"ID":240008,"DIS_CODE":0,"TOWNNAME":"永康區","LI":"大橋里","LIN":"14鄰","STREET":"大橋二街","SECT":" ","MAREA":" ","LANE":" ","ALLEY":" ","HOUSE_NO":"２４號三樓","E_COORD97":170775.35000000001,"N_COORD97":2546535.9700000002,"ADDRESS":"大橋二街２４號三樓","OBJECTID":240004},"geometry":{"x":170775.35000000149,"y":2546535.9700000007}},{"attributes":{"ID":240009,"DIS_CODE":0,"TOWNNAME":"永康區","LI":"大橋里","LIN":"14鄰","STREET":"大橋一街","SECT":" ","MAREA":" ","LANE":" ","ALLEY":" ","HOUSE_NO":"６３號十一樓之２","E_COORD97":170900.17000000001,"N_COORD97":2546429.5499999998,"ADDRESS":"大橋一街６３號十一樓之２","OBJECTID":240005},"geometry":{"x":170900.16999999993,"y":2546429.5500000026}},{"attributes":{"ID":240010,"DIS_CODE":0,"TOWNNAME":"永康區","LI":"大橋里","LIN":"14鄰","STREET":"大橋一街","SECT":" ","MAREA":" ","LANE":" ","ALLEY":" ","HOUSE_NO":"６３號六樓之３","E_COORD97":170898.88,"N_COORD97":2546429.5499999998,"ADDRESS":"大橋一街６３號六樓之３","OBJECTID":240006},"geometry":{"x":170898.87999999989,"y":2546429.5500000026}},{"attributes":{"ID":240011,"DIS_CODE":0,"TOWNNAME":"永康區","LI":"大橋里","LIN":"14鄰","STREET":"大橋一街","SECT":" ","MAREA":" ","LANE":" ","ALLEY":" ","HOUSE_NO":"６３號十三樓","E_COORD97":170897.89999999999,"N_COORD97":2546429.5099999998,"ADDRESS":"大橋一街６３號十三樓","OBJECTID":240007},"geometry":{"x":170897.90000000224,"y":2546429.5099999998}},{"attributes":{"ID":240012,"DIS_CODE":0,"TOWNNAME":"永康區","LI":"大橋里","LIN":"14鄰","STREET":"大橋一街","SECT":" ","MAREA":" ","LANE":" ","ALLEY":" ","HOUSE_NO":"６３號十一樓之１","E_COORD97":170900.03,"N_COORD97":2546429.5499999998,"ADDRESS":"大橋一街６３號十一樓之１","OBJECTID":240008},"geometry":{"x":170900.03000000026,"y":2546429.5500000026}},{"attributes":{"ID":240013,"DIS_CODE":0,"TOWNNAME":"永康區","LI":"大橋里","LIN":"14鄰","STREET":"大橋一街","SECT":" ","MAREA":" ","LANE":" ","ALLEY":" ","HOUSE_NO":"６３號十樓","E_COORD97":170896.64999999999,"N_COORD97":2546429.5099999998,"ADDRESS":"大橋一街６３號十樓","OBJECTID":240009},"geometry":{"x":170896.6500000013,"y":2546429.5099999998}},{"attributes":{"ID":240014,"DIS_CODE":0,"TOWNNAME":"永康區","LI":"大橋里","LIN":"14鄰","STREET":"大橋一街","SECT":" ","MAREA":" ","LANE":" ","ALLEY":" ","HOUSE_NO":"６３號十一樓之３","E_COORD97":170900.13,"N_COORD97":2546429.5499999998,"ADDRESS":"大橋一街６３號十一樓之３","OBJECTID":240010},"geometry":{"x":170900.12999999989,"y":2546429.5500000026}},{"attributes":{"ID":240015,"DIS_CODE":0,"TOWNNAME":"永康區","LI":"五王里","LIN":"30鄰","STREET":"五福街","SECT":" ","MAREA":" ","LANE":"１８８巷","ALLEY":" ","HOUSE_NO":"１號","E_COORD97":171680.64999999999,"N_COORD97":2546021.75,"ADDRESS":"五福街１８８巷１號","OBJECTID":240011},"geometry":{"x":171680.65000000037,"y":2546021.75}},{"attributes":{"ID":240016,"DIS_CODE":0,"TOWNNAME":"永康區","LI":"大灣里","LIN":"30鄰","STREET":"民族路","SECT":" ","MAREA":" ","LANE":"１２６巷","ALLEY":" ","HOUSE_NO":"３６號","E_COORD97":175393.51000000001,"N_COORD97":2544867.04,"ADDRESS":"民族路１２６巷３６號","OBJECTID":240012},"geometry":{"x":175393.50999999978,"y":2544867.0399999972}},{"attributes":{"ID":240017,"DIS_CODE":0,"TOWNNAME":"善化區","LI":"溪美里","LIN":"1鄰","STREET":" ","SECT":" ","MAREA":"溪尾","LANE":" ","ALLEY":" ","HOUSE_NO":"７０６號","E_COORD97":176865.14000000001,"N_COORD97":2560522.9100000001,"ADDRESS":"溪尾７０６號","OBJECTID":240013},"geometry":{"x":176865.13999999966,"y":2560522.910000002}},{"attributes":{"ID":240018,"DIS_CODE":0,"TOWNNAME":"善化區","LI":"溪美里","LIN":"1鄰","STREET":" ","SECT":" ","MAREA":"溪尾","LANE":" ","ALLEY":" ","HOUSE_NO":"７４０號","E_COORD97":176860.10000000001,"N_COORD97":2560505.2200000002,"ADDRESS":"溪尾７４０號","OBJECTID":240014},"geometry":{"x":176860.10000000056,"y":2560505.2200000025}},{"attributes":{"ID":240019,"DIS_CODE":0,"TOWNNAME":"安南區","LI":"安富里","LIN":"16鄰","STREET":"安富街","SECT":" ","MAREA":" ","LANE":"２４５巷","ALLEY":" ","HOUSE_NO":"５１號","E_COORD97":167613.34,"N_COORD97":2547323.5899999999,"ADDRESS":"安富街２４５巷５１號","OBJECTID":240015},"geometry":{"x":167613.33999999985,"y":2547323.5900000017}},{"attributes":{"ID":240020,"DIS_CODE":0,"TOWNNAME":"安南區","LI":"安富里","LIN":"16鄰","STREET":"安富街","SECT":" ","MAREA":" ","LANE":"２４５巷","ALLEY":" ","HOUSE_NO":"５７號","E_COORD97":167616.35000000001,"N_COORD97":2547308.5800000001,"ADDRESS":"安富街２４５巷５７號","OBJECTID":240016},"geometry":{"x":167616.35000000056,"y":2547308.5800000001}},{"attributes":{"ID":240021,"DIS_CODE":0,"TOWNNAME":"永康區","LI":"甲頂里","LIN":"13鄰","STREET":"正新街","SECT":" ","MAREA":" ","LANE":"１７巷","ALLEY":" ","HOUSE_NO":"３號","E_COORD97":170378.64999999999,"N_COORD97":2546581.9900000002,"ADDRESS":"正新街１７巷３號","OBJECTID":240017},"geometry":{"x":170378.65000000037,"y":2546581.9900000021}},{"attributes":{"ID":240022,"DIS_CODE":0,"TOWNNAME":"永康區","LI":"安康里","LIN":"13鄰","STREET":"中華路","SECT":" ","MAREA":" ","LANE":"６１９巷","ALLEY":" ","HOUSE_NO":"１０６號","E_COORD97":170838.44,"N_COORD97":2545988.2400000002,"ADDRESS":"中華路６１９巷１０６號","OBJECTID":240018},"geometry":{"x":170838.44000000134,"y":2545988.2400000002}},{"attributes":{"ID":240023,"DIS_CODE":0,"TOWNNAME":"東區","LI":"虎尾里","LIN":"13鄰","STREET":"東成街","SECT":" ","MAREA":" ","LANE":"１２１巷","ALLEY":" ","HOUSE_NO":"４號","E_COORD97":171652.12,"N_COORD97":2542316.4399999999,"ADDRESS":"東成街１２１巷４號","OBJECTID":240019},"geometry":{"x":171652.12000000197,"y":2542316.4400000013}},{"attributes":{"ID":240024,"DIS_CODE":0,"TOWNNAME":"永康區","LI":"成功里","LIN":"13鄰","STREET":"忠孝路","SECT":" ","MAREA":" ","LANE":"２０７巷","ALLEY":" ","HOUSE_NO":"２５號","E_COORD97":172016.25,"N_COORD97":2544919.2400000002,"ADDRESS":"忠孝路２０７巷２５號","OBJECTID":240020},"geometry":{"x":172016.25000000093,"y":2544919.2400000021}},{"attributes":{"ID":240025,"DIS_CODE":0,"TOWNNAME":"永康區","LI":"甲頂里","LIN":"13鄰","STREET":"大武街","SECT":" ","MAREA":" ","LANE":"１８巷","ALLEY":" ","HOUSE_NO":"２０號","E_COORD97":170344.48000000001,"N_COORD97":2546631.3399999999,"ADDRESS":"大武街１８巷２０號","OBJECTID":240021},"geometry":{"x":170344.48000000045,"y":2546631.3399999999}},{"attributes":{"ID":240026,"DIS_CODE":0,"TOWNNAME":"新營區","LI":"王公里","LIN":"33鄰","STREET":"長榮路","SECT":"一段","MAREA":" ","LANE":"５１５巷","ALLEY":" ","HOUSE_NO":"２３號","E_COORD97":180307.75443500001,"N_COORD97":2579774.2335299999,"ADDRESS":"長榮路一段５１５巷２３號","OBJECTID":240022},"geometry":{"x":180307.75443500094,"y":2579774.2335340027}},{"attributes":{"ID":240027,"DIS_CODE":0,"TOWNNAME":"永康區","LI":"甲頂里","LIN":"13鄰","STREET":"正新街","SECT":" ","MAREA":" ","LANE":"１７巷","ALLEY":" ","HOUSE_NO":"１５號","E_COORD97":170359.89000000001,"N_COORD97":2546553.2599999998,"ADDRESS":"正新街１７巷１５號","OBJECTID":240023},"geometry":{"x":170359.89000000153,"y":2546553.2599999998}},{"attributes":{"ID":240028,"DIS_CODE":0,"TOWNNAME":"永康區","LI":"安康里","LIN":"13鄰","STREET":"中華路","SECT":" ","MAREA":" ","LANE":"６１９巷","ALLEY":" ","HOUSE_NO":"１００號","E_COORD97":170846.94,"N_COORD97":2545992.75,"ADDRESS":"中華路６１９巷１００號","OBJECTID":240024},"geometry":{"x":170846.94000000134,"y":2545992.7500000019}},{"attributes":{"ID":240029,"DIS_CODE":0,"TOWNNAME":"新化區","LI":"豐榮里","LIN":"13鄰","STREET":"民治路","SECT":" ","MAREA":" ","LANE":"４３巷","ALLEY":" ","HOUSE_NO":"１１號","E_COORD97":178691.81,"N_COORD97":2548085.25,"ADDRESS":"民治路４３巷１１號","OBJECTID":240025},"geometry":{"x":178691.80999999959,"y":2548085.2500000019}},{"attributes":{"ID":240030,"DIS_CODE":0,"TOWNNAME":"新化區","LI":"豐榮里","LIN":"13鄰","STREET":"民治路","SECT":" ","MAREA":" ","LANE":"３３巷","ALLEY":" ","HOUSE_NO":"１８號","E_COORD97":178678.41,"N_COORD97":2548052.25,"ADDRESS":"民治路３３巷１８號","OBJECTID":240026},"geometry":{"x":178678.41000000201,"y":2548052.25}},{"attributes":{"ID":240031,"DIS_CODE":0,"TOWNNAME":"安南區","LI":"城南里","LIN":"13鄰","STREET":"城西街","SECT":"二段","MAREA":" ","LANE":"２３３巷","ALLEY":" ","HOUSE_NO":"４３號","E_COORD97":159758.89000000001,"N_COORD97":2550867.6200000001,"ADDRESS":"城西街二段２３３巷４３號","OBJECTID":240027},"geometry":{"x":159758.8900000006,"y":2550867.6200000029}},{"attributes":{"ID":240032,"DIS_CODE":0,"TOWNNAME":"安南區","LI":"城南里","LIN":"13鄰","STREET":"城西街","SECT":"二段","MAREA":" ","LANE":"２６３巷","ALLEY":" ","HOUSE_NO":"１２號","E_COORD97":159675.5,"N_COORD97":2550938.3399999999,"ADDRESS":"城西街二段２６３巷１２號","OBJECTID":240028},"geometry":{"x":159675.5,"y":2550938.3400000036}},{"attributes":{"ID":240033,"DIS_CODE":0,"TOWNNAME":"安南區","LI":"城南里","LIN":"13鄰","STREET":"城西街","SECT":"二段","MAREA":" ","LANE":"２６３巷","ALLEY":" ","HOUSE_NO":"２１號","E_COORD97":159698.98000000001,"N_COORD97":2550926.9900000002,"ADDRESS":"城西街二段２６３巷２１號","OBJECTID":240029},"geometry":{"x":159698.98000000231,"y":2550926.9900000002}},{"attributes":{"ID":240034,"DIS_CODE":0,"TOWNNAME":"安南區","LI":"城南里","LIN":"13鄰","STREET":"城西街","SECT":"二段","MAREA":" ","LANE":"２６３巷","ALLEY":" ","HOUSE_NO":"２２號","E_COORD97":159697.14999999999,"N_COORD97":2550898.4300000002,"ADDRESS":"城西街二段２６３巷２２號","OBJECTID":240030},"geometry":{"x":159697.15000000037,"y":2550898.4299999997}},{"attributes":{"ID":240035,"DIS_CODE":0,"TOWNNAME":"安南區","LI":"城南里","LIN":"13鄰","STREET":"城西街","SECT":"二段","MAREA":" ","LANE":"２６３巷","ALLEY":" ","HOUSE_NO":"３１號","E_COORD97":159718.79999999999,"N_COORD97":2550897.7599999998,"ADDRESS":"城西街二段２６３巷３１號","OBJECTID":240031},"geometry":{"x":159718.80000000075,"y":2550897.7599999979}},{"attributes":{"ID":240036,"DIS_CODE":0,"TOWNNAME":"安南區","LI":"城南里","LIN":"13鄰","STREET":"城西街","SECT":"二段","MAREA":" ","LANE":"２６３巷","ALLEY":" ","HOUSE_NO":"３６號","E_COORD97":159664.57999999999,"N_COORD97":2550883.75,"ADDRESS":"城西街二段２６３巷３６號","OBJECTID":240032},"geometry":{"x":159664.58000000101,"y":2550883.75}},{"attributes":{"ID":240037,"DIS_CODE":0,"TOWNNAME":"安南區","LI":"城南里","LIN":"13鄰","STREET":"城西街","SECT":"二段","MAREA":" ","LANE":"２６３巷","ALLEY":" ","HOUSE_NO":"６號","E_COORD97":159677.32999999999,"N_COORD97":2550956.9199999999,"ADDRESS":"城西街二段２６３巷６號","OBJECTID":240033},"geometry":{"x":159677.33000000007,"y":2550956.9199999999}},{"attributes":{"ID":240038,"DIS_CODE":0,"TOWNNAME":"安南區","LI":"城南里","LIN":"13鄰","STREET":"城西街","SECT":"二段","MAREA":" ","LANE":"２６３巷","ALLEY":" ","HOUSE_NO":"７號","E_COORD97":159713.92000000001,"N_COORD97":2550955.0899999999,"ADDRESS":"城西街二段２６３巷７號","OBJECTID":240034},"geometry":{"x":159713.91999999993,"y":2550955.0900000017}},{"attributes":{"ID":240039,"DIS_CODE":0,"TOWNNAME":"安南區","LI":"城南里","LIN":"13鄰","STREET":"城西街","SECT":"二段","MAREA":" ","LANE":"２９１巷","ALLEY":" ","HOUSE_NO":"１號","E_COORD97":159650.79000000001,"N_COORD97":2550974.27,"ADDRESS":"城西街二段２９１巷１號","OBJECTID":240035},"geometry":{"x":159650.7900000019,"y":2550974.2699999996}},{"attributes":{"ID":240040,"DIS_CODE":0,"TOWNNAME":"安南區","LI":"城南里","LIN":"13鄰","STREET":"城西街","SECT":"二段","MAREA":" ","LANE":"２９１巷","ALLEY":" ","HOUSE_NO":"３號","E_COORD97":159651.70999999999,"N_COORD97":2550963.0099999998,"ADDRESS":"城西街二段２９１巷３號","OBJECTID":240036},"geometry":{"x":159651.71000000089,"y":2550963.0099999998}},{"attributes":{"ID":240041,"DIS_CODE":0,"TOWNNAME":"安南區","LI":"城南里","LIN":"13鄰","STREET":"城西街","SECT":"二段","MAREA":" ","LANE":"２９１巷","ALLEY":" ","HOUSE_NO":"６號","E_COORD97":159631.26999999999,"N_COORD97":2550968.79,"ADDRESS":"城西街二段２９１巷６號","OBJECTID":240037},"geometry":{"x":159631.26999999955,"y":2550968.790000001}},{"attributes":{"ID":240042,"DIS_CODE":0,"TOWNNAME":"永康區","LI":"大橋里","LIN":"14鄰","STREET":"大橋一街","SECT":" ","MAREA":" ","LANE":" ","ALLEY":" ","HOUSE_NO":"６３號四樓之１","E_COORD97":170898.78,"N_COORD97":2546429.5499999998,"ADDRESS":"大橋一街６３號四樓之１","OBJECTID":240038},"geometry":{"x":170898.78000000119,"y":2546429.5500000026}},{"attributes":{"ID":240043,"DIS_CODE":0,"TOWNNAME":"永康區","LI":"大橋里","LIN":"14鄰","STREET":"大橋一街","SECT":" ","MAREA":" ","LANE":" ","ALLEY":" ","HOUSE_NO":"６１號十樓之１","E_COORD97":170895.70000000001,"N_COORD97":2546426.5499999998,"ADDRESS":"大橋一街６１號十樓之１","OBJECTID":240039},"geometry":{"x":170895.70000000205,"y":2546426.5500000026}},{"attributes":{"ID":240044,"DIS_CODE":0,"TOWNNAME":"永康區","LI":"大橋里","LIN":"14鄰","STREET":"大橋一街","SECT":" ","MAREA":" ","LANE":" ","ALLEY":" ","HOUSE_NO":"６３號四樓之２","E_COORD97":170898.92000000001,"N_COORD97":2546429.5499999998,"ADDRESS":"大橋一街６３號四樓之２","OBJECTID":240040},"geometry":{"x":170898.92000000179,"y":2546429.5500000026}},{"attributes":{"ID":240045,"DIS_CODE":0,"TOWNNAME":"永康區","LI":"大橋里","LIN":"14鄰","STREET":"大橋一街","SECT":" ","MAREA":" ","LANE":" ","ALLEY":" ","HOUSE_NO":"６３號三樓","E_COORD97":170896.64999999999,"N_COORD97":2546429.5099999998,"ADDRESS":"大橋一街６３號三樓","OBJECTID":240041},"geometry":{"x":170896.6500000013,"y":2546429.5099999998}},{"attributes":{"ID":240046,"DIS_CODE":0,"TOWNNAME":"永康區","LI":"大灣里","LIN":"4鄰","STREET":"大民街","SECT":" ","MAREA":" ","LANE":"１５７巷","ALLEY":" ","HOUSE_NO":"２號","E_COORD97":174899.35999999999,"N_COORD97":2545685.1600000001,"ADDRESS":"大民街１５７巷２號","OBJECTID":240042},"geometry":{"x":174899.36000000127,"y":2545685.160000002}},{"attributes":{"ID":240047,"DIS_CODE":0,"TOWNNAME":"安南區","LI":"城南里","LIN":"13鄰","STREET":"城西街","SECT":"二段","MAREA":" ","LANE":"３４１巷","ALLEY":" ","HOUSE_NO":"５號","E_COORD97":159518.66,"N_COORD97":2550980.7000000002,"ADDRESS":"城西街二段３４１巷５號","OBJECTID":240043},"geometry":{"x":159518.66000000015,"y":2550980.7000000011}},{"attributes":{"ID":240048,"DIS_CODE":0,"TOWNNAME":"安南區","LI":"安西里","LIN":"13鄰","STREET":"安和路","SECT":"一段","MAREA":" ","LANE":"１５９巷","ALLEY":" ","HOUSE_NO":"２９號","E_COORD97":169291.82000000001,"N_COORD97":2547779.0600000001,"ADDRESS":"安和路一段１５９巷２９號","OBJECTID":240044},"geometry":{"x":169291.82000000123,"y":2547779.0600000024}},{"attributes":{"ID":240049,"DIS_CODE":0,"TOWNNAME":"安南區","LI":"城南里","LIN":"13鄰","STREET":"城西街","SECT":"二段","MAREA":" ","LANE":"３４１巷","ALLEY":" ","HOUSE_NO":"１７號","E_COORD97":159508.89999999999,"N_COORD97":2550929.3900000001,"ADDRESS":"城西街二段３４１巷１７號","OBJECTID":240045},"geometry":{"x":159508.90000000037,"y":2550929.3900000025}},{"attributes":{"ID":240050,"DIS_CODE":0,"TOWNNAME":"安南區","LI":"安西里","LIN":"13鄰","STREET":"安和路","SECT":"一段","MAREA":" ","LANE":"１５９巷","ALLEY":" ","HOUSE_NO":"１２號","E_COORD97":169323.51999999999,"N_COORD97":2547818.9199999999,"ADDRESS":"安和路一段１５９巷１２號","OBJECTID":240046},"geometry":{"x":169323.52000000048,"y":2547818.9200000018}},{"attributes":{"ID":240051,"DIS_CODE":0,"TOWNNAME":"安南區","LI":"安慶里","LIN":"13鄰","STREET":"安和路","SECT":"二段","MAREA":" ","LANE":"１１１巷","ALLEY":" ","HOUSE_NO":"１８號","E_COORD97":169452.07000000001,"N_COORD97":2548754.52,"ADDRESS":"安和路二段１１１巷１８號","OBJECTID":240047},"geometry":{"x":169452.0700000003,"y":2548754.5200000014}},{"attributes":{"ID":240052,"DIS_CODE":0,"TOWNNAME":"善化區","LI":"溪美里","LIN":"1鄰","STREET":" ","SECT":" ","MAREA":"溪尾","LANE":" ","ALLEY":" ","HOUSE_NO":"７４２號","E_COORD97":176879.06,"N_COORD97":2560457.9700000002,"ADDRESS":"溪尾７４２號","OBJECTID":240048},"geometry":{"x":176879.06000000052,"y":2560457.9700000007}},{"attributes":{"ID":240053,"DIS_CODE":0,"TOWNNAME":"安南區","LI":"幸福里","LIN":"13鄰","STREET":"府安路","SECT":"六段","MAREA":" ","LANE":"７１巷","ALLEY":" ","HOUSE_NO":"３號","E_COORD97":166842.17000000001,"N_COORD97":2546590.6899999999,"ADDRESS":"府安路六段７１巷３號","OBJECTID":240049},"geometry":{"x":166842.16999999993,"y":2546590.6899999995}},{"attributes":{"ID":240054,"DIS_CODE":0,"TOWNNAME":"安南區","LI":"海南里","LIN":"13鄰","STREET":"府安路","SECT":"七段","MAREA":" ","LANE":"４８巷","ALLEY":" ","HOUSE_NO":"１０號","E_COORD97":165972.73000000001,"N_COORD97":2545981.5800000001,"ADDRESS":"府安路七段４８巷１０號","OBJECTID":240050},"geometry":{"x":165972.73000000045,"y":2545981.5800000019}},{"attributes":{"ID":240055,"DIS_CODE":0,"TOWNNAME":"安南區","LI":"海南里","LIN":"13鄰","STREET":"府安路","SECT":"七段","MAREA":" ","LANE":"４８巷","ALLEY":" ","HOUSE_NO":"１２號","E_COORD97":165967.44,"N_COORD97":2545989.21,"ADDRESS":"府安路七段４８巷１２號","OBJECTID":240051},"geometry":{"x":165967.44000000041,"y":2545989.2100000009}},{"attributes":{"ID":240056,"DIS_CODE":0,"TOWNNAME":"安南區","LI":"海南里","LIN":"13鄰","STREET":"府安路","SECT":"七段","MAREA":" ","LANE":"４８巷","ALLEY":" ","HOUSE_NO":"１３號","E_COORD97":165941.14000000001,"N_COORD97":2545980.75,"ADDRESS":"府安路七段４８巷１３號","OBJECTID":240052},"geometry":{"x":165941.1400000006,"y":2545980.75}},{"attributes":{"ID":240057,"DIS_CODE":0,"TOWNNAME":"安南區","LI":"海南里","LIN":"13鄰","STREET":"府安路","SECT":"七段","MAREA":" ","LANE":"４８巷","ALLEY":" ","HOUSE_NO":"１４號","E_COORD97":165962.23000000001,"N_COORD97":2545995.8199999998,"ADDRESS":"府安路七段４８巷１４號","OBJECTID":240053},"geometry":{"x":165962.23000000045,"y":2545995.820000004}},{"attributes":{"ID":240058,"DIS_CODE":0,"TOWNNAME":"安南區","LI":"海南里","LIN":"13鄰","STREET":"府安路","SECT":"七段","MAREA":" ","LANE":"４８巷","ALLEY":" ","HOUSE_NO":"１６號","E_COORD97":165958,"N_COORD97":2546002.9300000002,"ADDRESS":"府安路七段４８巷１６號","OBJECTID":240054},"geometry":{"x":165958,"y":2546002.9299999997}},{"attributes":{"ID":240059,"DIS_CODE":0,"TOWNNAME":"安南區","LI":"海南里","LIN":"13鄰","STREET":"府安路","SECT":"七段","MAREA":" ","LANE":"４８巷","ALLEY":" ","HOUSE_NO":"１７號","E_COORD97":165931.06,"N_COORD97":2545994.3100000001,"ADDRESS":"府安路七段４８巷１７號","OBJECTID":240055},"geometry":{"x":165931.06000000052,"y":2545994.3100000005}},{"attributes":{"ID":240060,"DIS_CODE":0,"TOWNNAME":"安南區","LI":"海南里","LIN":"13鄰","STREET":"府安路","SECT":"七段","MAREA":" ","LANE":"４８巷","ALLEY":" ","HOUSE_NO":"１８號","E_COORD97":165952.23000000001,"N_COORD97":2546009.4700000002,"ADDRESS":"府安路七段４８巷１８號","OBJECTID":240056},"geometry":{"x":165952.23000000045,"y":2546009.4700000025}},{"attributes":{"ID":240061,"DIS_CODE":0,"TOWNNAME":"安南區","LI":"海南里","LIN":"13鄰","STREET":"府安路","SECT":"七段","MAREA":" ","LANE":"４８巷","ALLEY":" ","HOUSE_NO":"１９號","E_COORD97":165927.22,"N_COORD97":2546000.8599999999,"ADDRESS":"府安路七段４８巷１９號","OBJECTID":240057},"geometry":{"x":165927.22000000067,"y":2546000.8599999994}},{"attributes":{"ID":240062,"DIS_CODE":0,"TOWNNAME":"安南區","LI":"海南里","LIN":"13鄰","STREET":"府安路","SECT":"七段","MAREA":" ","LANE":"４８巷","ALLEY":" ","HOUSE_NO":"２０號","E_COORD97":165947.07999999999,"N_COORD97":2546016.27,"ADDRESS":"府安路七段４８巷２０號","OBJECTID":240058},"geometry":{"x":165947.08000000101,"y":2546016.2700000014}},{"attributes":{"ID":240063,"DIS_CODE":0,"TOWNNAME":"安南區","LI":"海南里","LIN":"13鄰","STREET":"府安路","SECT":"七段","MAREA":" ","LANE":"４８巷","ALLEY":" ","HOUSE_NO":"２２號","E_COORD97":165942.35999999999,"N_COORD97":2546023.5800000001,"ADDRESS":"府安路七段４８巷２２號","OBJECTID":240059},"geometry":{"x":165942.36000000034,"y":2546023.5800000001}},{"attributes":{"ID":240064,"DIS_CODE":0,"TOWNNAME":"安南區","LI":"海南里","LIN":"13鄰","STREET":"府安路","SECT":"七段","MAREA":" ","LANE":"４８巷","ALLEY":" ","HOUSE_NO":"２４號","E_COORD97":165936.09,"N_COORD97":2546029.77,"ADDRESS":"府安路七段４８巷２４號","OBJECTID":240060},"geometry":{"x":165936.09000000078,"y":2546029.7700000014}},{"attributes":{"ID":240065,"DIS_CODE":0,"TOWNNAME":"安南區","LI":"海南里","LIN":"13鄰","STREET":"府安路","SECT":"七段","MAREA":" ","LANE":"４８巷","ALLEY":" ","HOUSE_NO":"２６號","E_COORD97":165931.78,"N_COORD97":2546036.1400000001,"ADDRESS":"府安路七段４８巷２６號","OBJECTID":240061},"geometry":{"x":165931.78000000212,"y":2546036.1400000006}},{"attributes":{"ID":240066,"DIS_CODE":0,"TOWNNAME":"安南區","LI":"海南里","LIN":"13鄰","STREET":"府安路","SECT":"七段","MAREA":" ","LANE":"４８巷","ALLEY":" ","HOUSE_NO":"２８號","E_COORD97":165925.10000000001,"N_COORD97":2546042.8900000001,"ADDRESS":"府安路七段４８巷２８號","OBJECTID":240062},"geometry":{"x":165925.09999999963,"y":2546042.8900000043}},{"attributes":{"ID":240067,"DIS_CODE":0,"TOWNNAME":"安南區","LI":"海南里","LIN":"13鄰","STREET":"府安路","SECT":"七段","MAREA":" ","LANE":"４８巷","ALLEY":" ","HOUSE_NO":"３號","E_COORD97":165967.23999999999,"N_COORD97":2545947.1699999999,"ADDRESS":"府安路七段４８巷３號","OBJECTID":240063},"geometry":{"x":165967.24000000022,"y":2545947.1699999999}},{"attributes":{"ID":240068,"DIS_CODE":0,"TOWNNAME":"安南區","LI":"海南里","LIN":"13鄰","STREET":"府安路","SECT":"七段","MAREA":" ","LANE":"４８巷","ALLEY":" ","HOUSE_NO":"４號","E_COORD97":165987.85999999999,"N_COORD97":2545961.1200000001,"ADDRESS":"府安路七段４８巷４號","OBJECTID":240064},"geometry":{"x":165987.86000000127,"y":2545961.1200000029}},{"attributes":{"ID":240069,"DIS_CODE":0,"TOWNNAME":"安南區","LI":"海南里","LIN":"13鄰","STREET":"府安路","SECT":"七段","MAREA":" ","LANE":"４８巷","ALLEY":" ","HOUSE_NO":"７號","E_COORD97":165957.07999999999,"N_COORD97":2545959.6800000002,"ADDRESS":"府安路七段４８巷７號","OBJECTID":240065},"geometry":{"x":165957.08000000101,"y":2545959.6800000016}},{"attributes":{"ID":240070,"DIS_CODE":0,"TOWNNAME":"永康區","LI":"大橋里","LIN":"14鄰","STREET":"大橋一街","SECT":" ","MAREA":" ","LANE":" ","ALLEY":" ","HOUSE_NO":"６３號八樓之２","E_COORD97":170898.92000000001,"N_COORD97":2546429.5499999998,"ADDRESS":"大橋一街６３號八樓之２","OBJECTID":240066},"geometry":{"x":170898.92000000179,"y":2546429.5500000026}},{"attributes":{"ID":240071,"DIS_CODE":0,"TOWNNAME":"安南區","LI":"溪東里","LIN":"16鄰","STREET":"北安路","SECT":"二段","MAREA":" ","LANE":"１２３巷","ALLEY":" ","HOUSE_NO":"４６號","E_COORD97":168317.75,"N_COORD97":2547517.23,"ADDRESS":"北安路二段１２３巷４６號","OBJECTID":240067},"geometry":{"x":168317.75,"y":2547517.2300000004}},{"attributes":{"ID":240072,"DIS_CODE":0,"TOWNNAME":"安南區","LI":"溪東里","LIN":"16鄰","STREET":"北安路","SECT":"二段","MAREA":" ","LANE":"１２３巷","ALLEY":" ","HOUSE_NO":"４７號","E_COORD97":168314.51000000001,"N_COORD97":2547492.3100000001,"ADDRESS":"北安路二段１２３巷４７號","OBJECTID":240068},"geometry":{"x":168314.50999999978,"y":2547492.3100000024}},{"attributes":{"ID":240073,"DIS_CODE":0,"TOWNNAME":"安南區","LI":"溪東里","LIN":"16鄰","STREET":"北安路","SECT":"二段","MAREA":" ","LANE":"１２３巷","ALLEY":" ","HOUSE_NO":"４８號","E_COORD97":168309.98999999999,"N_COORD97":2547517.02,"ADDRESS":"北安路二段１２３巷４８號","OBJECTID":240069},"geometry":{"x":168309.99000000022,"y":2547517.0200000014}},{"attributes":{"ID":240074,"DIS_CODE":0,"TOWNNAME":"安南區","LI":"溪東里","LIN":"16鄰","STREET":"北安路","SECT":"二段","MAREA":" ","LANE":"１２３巷","ALLEY":" ","HOUSE_NO":"２之１號","E_COORD97":168458.26999999999,"N_COORD97":2547534.2000000002,"ADDRESS":"北安路二段１２３巷２之１號","OBJECTID":240070},"geometry":{"x":168458.26999999955,"y":2547534.1999999993}},{"attributes":{"ID":240075,"DIS_CODE":0,"TOWNNAME":"安南區","LI":"溪東里","LIN":"16鄰","STREET":"北安路","SECT":"二段","MAREA":" ","LANE":"１２３巷","ALLEY":" ","HOUSE_NO":"５１號","E_COORD97":168291.92999999999,"N_COORD97":2547490.8799999999,"ADDRESS":"北安路二段１２３巷５１號","OBJECTID":240071},"geometry":{"x":168291.93000000063,"y":2547490.879999999}},{"attributes":{"ID":240076,"DIS_CODE":0,"TOWNNAME":"安南區","LI":"溪東里","LIN":"16鄰","STREET":"北安路","SECT":"二段","MAREA":" ","LANE":"１２３巷","ALLEY":" ","HOUSE_NO":"５２號","E_COORD97":168287.56,"N_COORD97":2547518.3799999999,"ADDRESS":"北安路二段１２３巷５２號","OBJECTID":240072},"geometry":{"x":168287.56000000052,"y":2547518.379999999}},{"attributes":{"ID":240077,"DIS_CODE":0,"TOWNNAME":"安南區","LI":"溪東里","LIN":"16鄰","STREET":"北安路","SECT":"二段","MAREA":" ","LANE":"１２３巷","ALLEY":" ","HOUSE_NO":"５４號","E_COORD97":168281.81,"N_COORD97":2547515.9700000002,"ADDRESS":"北安路二段１２３巷５４號","OBJECTID":240073},"geometry":{"x":168281.80999999959,"y":2547515.9700000007}},{"attributes":{"ID":240078,"DIS_CODE":0,"TOWNNAME":"安南區","LI":"溪東里","LIN":"16鄰","STREET":"北安路","SECT":"二段","MAREA":" ","LANE":"１２３巷","ALLEY":" ","HOUSE_NO":"５６號","E_COORD97":168272.48999999999,"N_COORD97":2547514.6099999999,"ADDRESS":"北安路二段１２３巷５６號","OBJECTID":240074},"geometry":{"x":168272.49000000022,"y":2547514.6099999994}},{"attributes":{"ID":240079,"DIS_CODE":0,"TOWNNAME":"安南區","LI":"溪東里","LIN":"16鄰","STREET":"北安路","SECT":"二段","MAREA":" ","LANE":"１２３巷","ALLEY":" ","HOUSE_NO":"５７號","E_COORD97":168270.95999999999,"N_COORD97":2547487.1400000001,"ADDRESS":"北安路二段１２３巷５７號","OBJECTID":240075},"geometry":{"x":168270.95999999996,"y":2547487.1400000025}},{"attributes":{"ID":240080,"DIS_CODE":0,"TOWNNAME":"永康區","LI":"大灣里","LIN":"5鄰","STREET":"大民街","SECT":" ","MAREA":" ","LANE":"１２９巷","ALLEY":" ","HOUSE_NO":"７號","E_COORD97":174901.07000000001,"N_COORD97":2545616.21,"ADDRESS":"大民街１２９巷７號","OBJECTID":240076},"geometry":{"x":174901.07000000123,"y":2545616.2100000009}},{"attributes":{"ID":240081,"DIS_CODE":0,"TOWNNAME":"安南區","LI":"海南里","LIN":"13鄰","STREET":"府安路","SECT":"七段","MAREA":" ","LANE":"４８巷","ALLEY":" ","HOUSE_NO":"８號","E_COORD97":165977.64999999999,"N_COORD97":2545974.8999999999,"ADDRESS":"府安路七段４８巷８號","OBJECTID":240077},"geometry":{"x":165977.65000000037,"y":2545974.9000000041}},{"attributes":{"ID":240082,"DIS_CODE":0,"TOWNNAME":"安南區","LI":"海南里","LIN":"13鄰","STREET":"府安路","SECT":"七段","MAREA":" ","LANE":"４８巷","ALLEY":" ","HOUSE_NO":"９號","E_COORD97":165951.72,"N_COORD97":2545966.9900000002,"ADDRESS":"府安路七段４８巷９號","OBJECTID":240078},"geometry":{"x":165951.71999999881,"y":2545966.9899999984}},{"attributes":{"ID":240083,"DIS_CODE":0,"TOWNNAME":"安南區","LI":"海南里","LIN":"13鄰","STREET":"府安路","SECT":"七段","MAREA":" ","LANE":"５７巷","ALLEY":" ","HOUSE_NO":"１０號","E_COORD97":165940.47,"N_COORD97":2545956.6899999999,"ADDRESS":"府安路七段５７巷１０號","OBJECTID":240079},"geometry":{"x":165940.47000000067,"y":2545956.6899999995}},{"attributes":{"ID":240084,"DIS_CODE":0,"TOWNNAME":"安南區","LI":"海南里","LIN":"13鄰","STREET":"府安路","SECT":"七段","MAREA":" ","LANE":"５７巷","ALLEY":" ","HOUSE_NO":"１１號","E_COORD97":165915.09,"N_COORD97":2545949.5800000001,"ADDRESS":"府安路七段５７巷１１號","OBJECTID":240080},"geometry":{"x":165915.08999999985,"y":2545949.5800000038}},{"attributes":{"ID":240085,"DIS_CODE":0,"TOWNNAME":"安南區","LI":"海南里","LIN":"13鄰","STREET":"府安路","SECT":"七段","MAREA":" ","LANE":"５７巷","ALLEY":" ","HOUSE_NO":"１２號","E_COORD97":165934.73999999999,"N_COORD97":2545964.4399999999,"ADDRESS":"府安路七段５７巷１２號","OBJECTID":240081},"geometry":{"x":165934.74000000022,"y":2545964.4400000013}},{"attributes":{"ID":240086,"DIS_CODE":0,"TOWNNAME":"安南區","LI":"海南里","LIN":"13鄰","STREET":"府安路","SECT":"七段","MAREA":" ","LANE":"５７巷","ALLEY":" ","HOUSE_NO":"１３號","E_COORD97":165911.06,"N_COORD97":2545954.54,"ADDRESS":"府安路七段５７巷１３號","OBJECTID":240082},"geometry":{"x":165911.06000000052,"y":2545954.5399999991}},{"attributes":{"ID":240087,"DIS_CODE":0,"TOWNNAME":"南區","LI":"府南里","LIN":"11鄰","STREET":"永成路","SECT":"三段","MAREA":" ","LANE":"４３２巷","ALLEY":" ","HOUSE_NO":"８號","E_COORD97":167538.672418,"N_COORD97":2541095.2443599999,"ADDRESS":"永成路三段４３２巷８號","OBJECTID":240083},"geometry":{"x":167538.67241800111,"y":2541095.2443579994}},{"attributes":{"ID":240088,"DIS_CODE":0,"TOWNNAME":"安南區","LI":"海南里","LIN":"13鄰","STREET":"府安路","SECT":"七段","MAREA":" ","LANE":"５７巷","ALLEY":" ","HOUSE_NO":"１５號","E_COORD97":165906.17000000001,"N_COORD97":2545962,"ADDRESS":"府安路七段５７巷１５號","OBJECTID":240084},"geometry":{"x":165906.16999999993,"y":2545962}},{"attributes":{"ID":240089,"DIS_CODE":0,"TOWNNAME":"東區","LI":"大德里","LIN":"14鄰","STREET":"立德十路","SECT":" ","MAREA":" ","LANE":" ","ALLEY":" ","HOUSE_NO":"２１號之１三樓","E_COORD97":169458.51999999999,"N_COORD97":2542056.79,"ADDRESS":"立德十路２１號之１三樓","OBJECTID":240085},"geometry":{"x":169458.51999999955,"y":2542056.7899999991}},{"attributes":{"ID":240090,"DIS_CODE":0,"TOWNNAME":"東區","LI":"大德里","LIN":"14鄰","STREET":"立德十路","SECT":" ","MAREA":" ","LANE":" ","ALLEY":" ","HOUSE_NO":"３號四樓","E_COORD97":169421.59,"N_COORD97":2542056.4399999999,"ADDRESS":"立德十路３號四樓","OBJECTID":240086},"geometry":{"x":169421.59000000078,"y":2542056.4399999995}},{"attributes":{"ID":240091,"DIS_CODE":0,"TOWNNAME":"東區","LI":"大德里","LIN":"14鄰","STREET":"立德十路","SECT":" ","MAREA":" ","LANE":" ","ALLEY":" ","HOUSE_NO":"３號四樓之１","E_COORD97":169421.59,"N_COORD97":2542056.4399999999,"ADDRESS":"立德十路３號四樓之１","OBJECTID":240087},"geometry":{"x":169421.59000000078,"y":2542056.4399999995}},{"attributes":{"ID":240092,"DIS_CODE":0,"TOWNNAME":"東區","LI":"大德里","LIN":"14鄰","STREET":"立德十路","SECT":" ","MAREA":" ","LANE":" ","ALLEY":" ","HOUSE_NO":"３號四樓之２","E_COORD97":169421.59,"N_COORD97":2542056.4399999999,"ADDRESS":"立德十路３號四樓之２","OBJECTID":240088},"geometry":{"x":169421.59000000078,"y":2542056.4399999995}},{"attributes":{"ID":240093,"DIS_CODE":0,"TOWNNAME":"東區","LI":"大德里","LIN":"14鄰","STREET":"立德十路","SECT":" ","MAREA":" ","LANE":" ","ALLEY":" ","HOUSE_NO":"３號四樓之３","E_COORD97":169421.59,"N_COORD97":2542056.4399999999,"ADDRESS":"立德十路３號四樓之３","OBJECTID":240089},"geometry":{"x":169421.59000000078,"y":2542056.4399999995}},{"attributes":{"ID":240094,"DIS_CODE":0,"TOWNNAME":"東區","LI":"大德里","LIN":"14鄰","STREET":"立德十路","SECT":" ","MAREA":" ","LANE":" ","ALLEY":" ","HOUSE_NO":"３號四樓之１１","E_COORD97":169421.59,"N_COORD97":2542056.4399999999,"ADDRESS":"立德十路３號四樓之１１","OBJECTID":240090},"geometry":{"x":169421.59000000078,"y":2542056.4399999995}},{"attributes":{"ID":240095,"DIS_CODE":0,"TOWNNAME":"東區","LI":"大德里","LIN":"14鄰","STREET":"立德十路","SECT":" ","MAREA":" ","LANE":" ","ALLEY":" ","HOUSE_NO":"３號四樓之５","E_COORD97":169421.59,"N_COORD97":2542056.4399999999,"ADDRESS":"立德十路３號四樓之５","OBJECTID":240091},"geometry":{"x":169421.59000000078,"y":2542056.4399999995}},{"attributes":{"ID":240096,"DIS_CODE":0,"TOWNNAME":"東區","LI":"大德里","LIN":"14鄰","STREET":"立德十路","SECT":" ","MAREA":" ","LANE":" ","ALLEY":" ","HOUSE_NO":"３號四樓之６","E_COORD97":169421.59,"N_COORD97":2542056.4399999999,"ADDRESS":"立德十路３號四樓之６","OBJECTID":240092},"geometry":{"x":169421.59000000078,"y":2542056.4399999995}},{"attributes":{"ID":240097,"DIS_CODE":0,"TOWNNAME":"東區","LI":"大德里","LIN":"14鄰","STREET":"立德十路","SECT":" ","MAREA":" ","LANE":" ","ALLEY":" ","HOUSE_NO":"３號四樓之７","E_COORD97":169421.59,"N_COORD97":2542056.4399999999,"ADDRESS":"立德十路３號四樓之７","OBJECTID":240093},"geometry":{"x":169421.59000000078,"y":2542056.4399999995}},{"attributes":{"ID":240098,"DIS_CODE":0,"TOWNNAME":"東區","LI":"大德里","LIN":"14鄰","STREET":"立德十路","SECT":" ","MAREA":" ","LANE":" ","ALLEY":" ","HOUSE_NO":"３號四樓之８","E_COORD97":169421.59,"N_COORD97":2542056.4399999999,"ADDRESS":"立德十路３號四樓之８","OBJECTID":240094},"geometry":{"x":169421.59000000078,"y":2542056.4399999995}},{"attributes":{"ID":240099,"DIS_CODE":0,"TOWNNAME":"東區","LI":"大德里","LIN":"14鄰","STREET":"立德十路","SECT":" ","MAREA":" ","LANE":" ","ALLEY":" ","HOUSE_NO":"３號四樓之９","E_COORD97":169421.59,"N_COORD97":2542056.4399999999,"ADDRESS":"立德十路３號四樓之９","OBJECTID":240095},"geometry":{"x":169421.59000000078,"y":2542056.4399999995}},{"attributes":{"ID":240100,"DIS_CODE":0,"TOWNNAME":"安南區","LI":"溪東里","LIN":"16鄰","STREET":"北安路","SECT":"二段","MAREA":" ","LANE":"１２３巷","ALLEY":" ","HOUSE_NO":"６號","E_COORD97":168453.47,"N_COORD97":2547533.9199999999,"ADDRESS":"北安路二段１２３巷６號","OBJECTID":240096},"geometry":{"x":168453.46999999974,"y":2547533.9200000037}},{"attributes":{"ID":240101,"DIS_CODE":0,"TOWNNAME":"安南區","LI":"溪東里","LIN":"16鄰","STREET":"北安路","SECT":"二段","MAREA":" ","LANE":"１２３巷","ALLEY":" ","HOUSE_NO":"７０號","E_COORD97":168237.26999999999,"N_COORD97":2547506.77,"ADDRESS":"北安路二段１２３巷７０號","OBJECTID":240097},"geometry":{"x":168237.27000000048,"y":2547506.7699999996}},{"attributes":{"ID":240102,"DIS_CODE":0,"TOWNNAME":"安南區","LI":"溪東里","LIN":"16鄰","STREET":"北安路","SECT":"二段","MAREA":" ","LANE":"１２３巷","ALLEY":" ","HOUSE_NO":"７１號","E_COORD97":168238.01999999999,"N_COORD97":2547483.46,"ADDRESS":"北安路二段１２３巷７１號","OBJECTID":240098},"geometry":{"x":168238.01999999862,"y":2547483.459999999}},{"attributes":{"ID":240103,"DIS_CODE":0,"TOWNNAME":"永康區","LI":"中興里","LIN":"2鄰","STREET":"忠孝路","SECT":" ","MAREA":" ","LANE":"２３９巷","ALLEY":" ","HOUSE_NO":"３３號","E_COORD97":171989.09,"N_COORD97":2545021.6400000001,"ADDRESS":"忠孝路２３９巷３３號","OBJECTID":240099},"geometry":{"x":171989.08999999985,"y":2545021.6400000025}},{"attributes":{"ID":240104,"DIS_CODE":0,"TOWNNAME":"永康區","LI":"中興里","LIN":"5鄰","STREET":"中華路","SECT":" ","MAREA":" ","LANE":"２１４巷","ALLEY":" ","HOUSE_NO":"２６號","E_COORD97":171761.88,"N_COORD97":2545051.7400000002,"ADDRESS":"中華路２１４巷２６號","OBJECTID":240100},"geometry":{"x":171761.87999999989,"y":2545051.7400000021}},{"attributes":{"ID":240105,"DIS_CODE":0,"TOWNNAME":"永康區","LI":"中興里","LIN":"18鄰","STREET":"中華路","SECT":" ","MAREA":" ","LANE":"２８６巷","ALLEY":" ","HOUSE_NO":"７０號","E_COORD97":171720.70999999999,"N_COORD97":2545277.25,"ADDRESS":"中華路２８６巷７０號","OBJECTID":240101},"geometry":{"x":171720.70999999996,"y":2545277.2500000037}},{"attributes":{"ID":240106,"DIS_CODE":0,"TOWNNAME":"永康區","LI":"三民里","LIN":"6鄰","STREET":"三民街","SECT":" ","MAREA":" ","LANE":"１１２巷","ALLEY":" ","HOUSE_NO":"５０號","E_COORD97":172922.64999999999,"N_COORD97":2550469.54,"ADDRESS":"三民街１１２巷５０號","OBJECTID":240102},"geometry":{"x":172922.6500000013,"y":2550469.540000001}},{"attributes":{"ID":240107,"DIS_CODE":0,"TOWNNAME":"永康區","LI":"五王里","LIN":"37鄰","STREET":"中華路","SECT":" ","MAREA":" ","LANE":"５７８巷","ALLEY":" ","HOUSE_NO":"１５號之５１","E_COORD97":171275.95000000001,"N_COORD97":2545965.79,"ADDRESS":"中華路５７８巷１５號之５１","OBJECTID":240103},"geometry":{"x":171275.95000000112,"y":2545965.7899999991}},{"attributes":{"ID":240108,"DIS_CODE":0,"TOWNNAME":"安南區","LI":"溪東里","LIN":"16鄰","STREET":"北安路","SECT":"二段","MAREA":" ","LANE":"１２３巷","ALLEY":" ","HOUSE_NO":"７３號","E_COORD97":168232.60999999999,"N_COORD97":2547483.0600000001,"ADDRESS":"北安路二段１２３巷７３號","OBJECTID":240104},"geometry":{"x":168232.61000000034,"y":2547483.0600000024}},{"attributes":{"ID":240109,"DIS_CODE":0,"TOWNNAME":"安南區","LI":"溪東里","LIN":"16鄰","STREET":"北安路","SECT":"二段","MAREA":" ","LANE":"１２３巷","ALLEY":" ","HOUSE_NO":"７４號","E_COORD97":168225.67999999999,"N_COORD97":2547506.1200000001,"ADDRESS":"北安路二段１２３巷７４號","OBJECTID":240105},"geometry":{"x":168225.68000000063,"y":2547506.120000001}},{"attributes":{"ID":240110,"DIS_CODE":0,"TOWNNAME":"安南區","LI":"溪東里","LIN":"16鄰","STREET":"北安路","SECT":"二段","MAREA":" ","LANE":"１２３巷","ALLEY":" ","HOUSE_NO":"７５號","E_COORD97":168228.60999999999,"N_COORD97":2547482,"ADDRESS":"北安路二段１２３巷７５號","OBJECTID":240106},"geometry":{"x":168228.61000000127,"y":2547482}},{"attributes":{"ID":240111,"DIS_CODE":0,"TOWNNAME":"安南區","LI":"溪東里","LIN":"16鄰","STREET":"北安路","SECT":"二段","MAREA":" ","LANE":"１２３巷","ALLEY":" ","HOUSE_NO":"７６號","E_COORD97":168219.03,"N_COORD97":2547503.6899999999,"ADDRESS":"北安路二段１２３巷７６號","OBJECTID":240107},"geometry":{"x":168219.03000000119,"y":2547503.6899999995}},{"attributes":{"ID":240112,"DIS_CODE":0,"TOWNNAME":"安南區","LI":"海南里","LIN":"13鄰","STREET":"府安路","SECT":"七段","MAREA":" ","LANE":"５７巷","ALLEY":" ","HOUSE_NO":"１６號","E_COORD97":165921.79999999999,"N_COORD97":2545976.1400000001,"ADDRESS":"府安路七段５７巷１６號","OBJECTID":240108},"geometry":{"x":165921.79999999981,"y":2545976.1400000006}},{"attributes":{"ID":240113,"DIS_CODE":0,"TOWNNAME":"安南區","LI":"海南里","LIN":"13鄰","STREET":"府安路","SECT":"七段","MAREA":" ","LANE":"５７巷","ALLEY":" ","HOUSE_NO":"１８號","E_COORD97":165919.44,"N_COORD97":2545982.6499999999,"ADDRESS":"府安路七段５７巷１８號","OBJECTID":240109},"geometry":{"x":165919.44000000134,"y":2545982.6500000004}},{"attributes":{"ID":240114,"DIS_CODE":0,"TOWNNAME":"安南區","LI":"海南里","LIN":"13鄰","STREET":"府安路","SECT":"七段","MAREA":" ","LANE":"５７巷","ALLEY":" ","HOUSE_NO":"１９號","E_COORD97":165895.17999999999,"N_COORD97":2545977.2200000002,"ADDRESS":"府安路七段５７巷１９號","OBJECTID":240110},"geometry":{"x":165895.18000000063,"y":2545977.2200000025}},{"attributes":{"ID":240115,"DIS_CODE":0,"TOWNNAME":"安南區","LI":"海南里","LIN":"13鄰","STREET":"府安路","SECT":"七段","MAREA":" ","LANE":"５７巷","ALLEY":" ","HOUSE_NO":"２０號","E_COORD97":165911.39000000001,"N_COORD97":2545989.3999999999,"ADDRESS":"府安路七段５７巷２０號","OBJECTID":240111},"geometry":{"x":165911.38999999966,"y":2545989.4000000022}},{"attributes":{"ID":240116,"DIS_CODE":0,"TOWNNAME":"東區","LI":"大德里","LIN":"14鄰","STREET":"立德十路","SECT":" ","MAREA":" ","LANE":" ","ALLEY":" ","HOUSE_NO":"３號五樓","E_COORD97":169421.59,"N_COORD97":2542056.4399999999,"ADDRESS":"立德十路３號五樓","OBJECTID":240112},"geometry":{"x":169421.59000000078,"y":2542056.4399999995}},{"attributes":{"ID":240117,"DIS_CODE":0,"TOWNNAME":"東區","LI":"大德里","LIN":"14鄰","STREET":"立德十路","SECT":" ","MAREA":" ","LANE":" ","ALLEY":" ","HOUSE_NO":"３號五樓之１","E_COORD97":169421.59,"N_COORD97":2542056.4399999999,"ADDRESS":"立德十路３號五樓之１","OBJECTID":240113},"geometry":{"x":169421.59000000078,"y":2542056.4399999995}},{"attributes":{"ID":240118,"DIS_CODE":0,"TOWNNAME":"東區","LI":"大德里","LIN":"14鄰","STREET":"立德十路","SECT":" ","MAREA":" ","LANE":" ","ALLEY":" ","HOUSE_NO":"３號五樓之２","E_COORD97":169421.59,"N_COORD97":2542056.4399999999,"ADDRESS":"立德十路３號五樓之２","OBJECTID":240114},"geometry":{"x":169421.59000000078,"y":2542056.4399999995}},{"attributes":{"ID":240119,"DIS_CODE":0,"TOWNNAME":"東區","LI":"大德里","LIN":"14鄰","STREET":"立德十路","SECT":" ","MAREA":" ","LANE":" ","ALLEY":" ","HOUSE_NO":"３號五樓之３","E_COORD97":169421.59,"N_COORD97":2542056.4399999999,"ADDRESS":"立德十路３號五樓之３","OBJECTID":240115},"geometry":{"x":169421.59000000078,"y":2542056.4399999995}},{"attributes":{"ID":240120,"DIS_CODE":0,"TOWNNAME":"東區","LI":"大德里","LIN":"14鄰","STREET":"立德十路","SECT":" ","MAREA":" ","LANE":" ","ALLEY":" ","HOUSE_NO":"３號五樓之４","E_COORD97":169421.59,"N_COORD97":2542056.4399999999,"ADDRESS":"立德十路３號五樓之４","OBJECTID":240116},"geometry":{"x":169421.59000000078,"y":2542056.4399999995}},{"attributes":{"ID":240121,"DIS_CODE":0,"TOWNNAME":"東區","LI":"大德里","LIN":"14鄰","STREET":"立德十路","SECT":" ","MAREA":" ","LANE":" ","ALLEY":" ","HOUSE_NO":"３號五樓之５","E_COORD97":169421.59,"N_COORD97":2542056.4399999999,"ADDRESS":"立德十路３號五樓之５","OBJECTID":240117},"geometry":{"x":169421.59000000078,"y":2542056.4399999995}},{"attributes":{"ID":240122,"DIS_CODE":0,"TOWNNAME":"東區","LI":"大德里","LIN":"14鄰","STREET":"立德十路","SECT":" ","MAREA":" ","LANE":" ","ALLEY":" ","HOUSE_NO":"３號五樓之６","E_COORD97":169421.59,"N_COORD97":2542056.4399999999,"ADDRESS":"立德十路３號五樓之６","OBJECTID":240118},"geometry":{"x":169421.59000000078,"y":2542056.4399999995}},{"attributes":{"ID":240123,"DIS_CODE":0,"TOWNNAME":"東區","LI":"大德里","LIN":"14鄰","STREET":"立德十路","SECT":" ","MAREA":" ","LANE":" ","ALLEY":" ","HOUSE_NO":"３號五樓之７","E_COORD97":169421.59,"N_COORD97":2542056.4399999999,"ADDRESS":"立德十路３號五樓之７","OBJECTID":240119},"geometry":{"x":169421.59000000078,"y":2542056.4399999995}},{"attributes":{"ID":240124,"DIS_CODE":0,"TOWNNAME":"東區","LI":"大德里","LIN":"14鄰","STREET":"立德十路","SECT":" ","MAREA":" ","LANE":" ","ALLEY":" ","HOUSE_NO":"３號六樓","E_COORD97":169421.59,"N_COORD97":2542056.4399999999,"ADDRESS":"立德十路３號六樓","OBJECTID":240120},"geometry":{"x":169421.59000000078,"y":2542056.4399999995}},{"attributes":{"ID":240125,"DIS_CODE":0,"TOWNNAME":"東區","LI":"大德里","LIN":"14鄰","STREET":"立德十路","SECT":" ","MAREA":" ","LANE":" ","ALLEY":" ","HOUSE_NO":"３號六樓之１","E_COORD97":169421.59,"N_COORD97":2542056.4399999999,"ADDRESS":"立德十路３號六樓之１","OBJECTID":240121},"geometry":{"x":169421.59000000078,"y":2542056.4399999995}},{"attributes":{"ID":240126,"DIS_CODE":0,"TOWNNAME":"東區","LI":"大德里","LIN":"14鄰","STREET":"立德十路","SECT":" ","MAREA":" ","LANE":" ","ALLEY":" ","HOUSE_NO":"３號六樓之２","E_COORD97":169421.59,"N_COORD97":2542056.4399999999,"ADDRESS":"立德十路３號六樓之２","OBJECTID":240122},"geometry":{"x":169421.59000000078,"y":2542056.4399999995}},{"attributes":{"ID":240127,"DIS_CODE":0,"TOWNNAME":"東區","LI":"大德里","LIN":"14鄰","STREET":"立德十路","SECT":" ","MAREA":" ","LANE":" ","ALLEY":" ","HOUSE_NO":"３號六樓之３","E_COORD97":169421.59,"N_COORD97":2542056.4399999999,"ADDRESS":"立德十路３號六樓之３","OBJECTID":240123},"geometry":{"x":169421.59000000078,"y":2542056.4399999995}},{"attributes":{"ID":240128,"DIS_CODE":0,"TOWNNAME":"東區","LI":"大德里","LIN":"14鄰","STREET":"立德十路","SECT":" ","MAREA":" ","LANE":" ","ALLEY":" ","HOUSE_NO":"３號六樓之４","E_COORD97":169421.59,"N_COORD97":2542056.4399999999,"ADDRESS":"立德十路３號六樓之４","OBJECTID":240124},"geometry":{"x":169421.59000000078,"y":2542056.4399999995}},{"attributes":{"ID":240129,"DIS_CODE":0,"TOWNNAME":"永康區","LI":"五王里","LIN":"37鄰","STREET":"中華路","SECT":" ","MAREA":" ","LANE":"５７８巷","ALLEY":" ","HOUSE_NO":"１５號之４２","E_COORD97":171276.07999999999,"N_COORD97":2545965.79,"ADDRESS":"中華路５７８巷１５號之４２","OBJECTID":240125},"geometry":{"x":171276.08000000194,"y":2545965.7899999991}},{"attributes":{"ID":240130,"DIS_CODE":0,"TOWNNAME":"永康區","LI":"五王里","LIN":"37鄰","STREET":"中華路","SECT":" ","MAREA":" ","LANE":"５７８巷","ALLEY":" ","HOUSE_NO":"１５號之７８","E_COORD97":171276.10000000001,"N_COORD97":2545965.79,"ADDRESS":"中華路５７８巷１５號之７８","OBJECTID":240126},"geometry":{"x":171276.10000000056,"y":2545965.7899999991}},{"attributes":{"ID":240131,"DIS_CODE":0,"TOWNNAME":"永康區","LI":"五王里","LIN":"16鄰","STREET":"成功路","SECT":" ","MAREA":" ","LANE":"１７２巷","ALLEY":" ","HOUSE_NO":"６４號","E_COORD97":171570.04000000001,"N_COORD97":2545745.79,"ADDRESS":"成功路１７２巷６４號","OBJECTID":240127},"geometry":{"x":171570.04000000097,"y":2545745.7899999991}},{"attributes":{"ID":240132,"DIS_CODE":0,"TOWNNAME":"永康區","LI":"復華里","LIN":"16鄰","STREET":"國華街","SECT":" ","MAREA":" ","LANE":"１０２巷","ALLEY":" ","HOUSE_NO":"３７號","E_COORD97":172872.26000000001,"N_COORD97":2546081.2200000002,"ADDRESS":"國華街１０２巷３７號","OBJECTID":240128},"geometry":{"x":172872.25999999978,"y":2546081.2199999988}},{"attributes":{"ID":240133,"DIS_CODE":0,"TOWNNAME":"永康區","LI":"大灣里","LIN":"5鄰","STREET":"大民街","SECT":" ","MAREA":" ","LANE":"１２９巷","ALLEY":" ","HOUSE_NO":"２號","E_COORD97":174912.75,"N_COORD97":2545630.4700000002,"ADDRESS":"大民街１２９巷２號","OBJECTID":240129},"geometry":{"x":174912.75000000186,"y":2545630.4700000025}},{"attributes":{"ID":240134,"DIS_CODE":0,"TOWNNAME":"永康區","LI":"大灣里","LIN":"5鄰","STREET":"大民街","SECT":" ","MAREA":" ","LANE":"１２９巷","ALLEY":" ","HOUSE_NO":"２０號","E_COORD97":174885.29999999999,"N_COORD97":2545625.79,"ADDRESS":"大民街１２９巷２０號","OBJECTID":240130},"geometry":{"x":174885.30000000075,"y":2545625.790000001}},{"attributes":{"ID":240135,"DIS_CODE":0,"TOWNNAME":"永康區","LI":"五王里","LIN":"37鄰","STREET":"中華路","SECT":" ","MAREA":" ","LANE":"５７８巷","ALLEY":" ","HOUSE_NO":"１５號之８５","E_COORD97":171276.10000000001,"N_COORD97":2545965.79,"ADDRESS":"中華路５７８巷１５號之８５","OBJECTID":240131},"geometry":{"x":171276.10000000056,"y":2545965.7899999991}},{"attributes":{"ID":240136,"DIS_CODE":0,"TOWNNAME":"永康區","LI":"埔園里","LIN":"16鄰","STREET":"八德街","SECT":" ","MAREA":" ","LANE":"３６６巷","ALLEY":" ","HOUSE_NO":"７號","E_COORD97":173475.51999999999,"N_COORD97":2548593.6699999999,"ADDRESS":"八德街３６６巷７號","OBJECTID":240132},"geometry":{"x":173475.51999999955,"y":2548593.6700000018}},{"attributes":{"ID":240137,"DIS_CODE":0,"TOWNNAME":"永康區","LI":"埔園里","LIN":"16鄰","STREET":"八德街","SECT":" ","MAREA":" ","LANE":"３６６巷","ALLEY":" ","HOUSE_NO":"５號","E_COORD97":173476.44,"N_COORD97":2548589.48,"ADDRESS":"八德街３６６巷５號","OBJECTID":240133},"geometry":{"x":173476.44000000134,"y":2548589.4800000023}},{"attributes":{"ID":240138,"DIS_CODE":0,"TOWNNAME":"永康區","LI":"埔園里","LIN":"16鄰","STREET":"八德街","SECT":" ","MAREA":" ","LANE":"３６６巷","ALLEY":" ","HOUSE_NO":"３號","E_COORD97":173477.35999999999,"N_COORD97":2548585.5299999998,"ADDRESS":"八德街３６６巷３號","OBJECTID":240134},"geometry":{"x":173477.36000000034,"y":2548585.5299999993}},{"attributes":{"ID":240139,"DIS_CODE":0,"TOWNNAME":"安南區","LI":"海南里","LIN":"13鄰","STREET":"府安路","SECT":"七段","MAREA":" ","LANE":"５７巷","ALLEY":" ","HOUSE_NO":"２２號","E_COORD97":165909.98999999999,"N_COORD97":2545998.7200000002,"ADDRESS":"府安路七段５７巷２２號","OBJECTID":240135},"geometry":{"x":165909.99000000115,"y":2545998.7200000007}},{"attributes":{"ID":240140,"DIS_CODE":0,"TOWNNAME":"安南區","LI":"海南里","LIN":"13鄰","STREET":"府安路","SECT":"七段","MAREA":" ","LANE":"５７巷","ALLEY":" ","HOUSE_NO":"２３號","E_COORD97":165886,"N_COORD97":2545989.5600000001,"ADDRESS":"府安路七段５７巷２３號","OBJECTID":240136},"geometry":{"x":165886.00000000093,"y":2545989.5600000005}},{"attributes":{"ID":240141,"DIS_CODE":0,"TOWNNAME":"安南區","LI":"海南里","LIN":"13鄰","STREET":"府安路","SECT":"七段","MAREA":" ","LANE":"５７巷","ALLEY":" ","HOUSE_NO":"２５號","E_COORD97":165882.39999999999,"N_COORD97":2545996.1499999999,"ADDRESS":"府安路七段５７巷２５號","OBJECTID":240137},"geometry":{"x":165882.4000000013,"y":2545996.1500000004}},{"attributes":{"ID":240142,"DIS_CODE":0,"TOWNNAME":"安南區","LI":"海南里","LIN":"13鄰","STREET":"府安路","SECT":"七段","MAREA":" ","LANE":"５７巷","ALLEY":" ","HOUSE_NO":"２６號","E_COORD97":165898.88,"N_COORD97":2546012.7799999998,"ADDRESS":"府安路七段５７巷２６號","OBJECTID":240138},"geometry":{"x":165898.88000000082,"y":2546012.7800000012}},{"attributes":{"ID":240143,"DIS_CODE":0,"TOWNNAME":"東區","LI":"大德里","LIN":"14鄰","STREET":"立德十路","SECT":" ","MAREA":" ","LANE":" ","ALLEY":" ","HOUSE_NO":"３號六樓之５","E_COORD97":169421.59,"N_COORD97":2542056.4399999999,"ADDRESS":"立德十路３號六樓之５","OBJECTID":240139},"geometry":{"x":169421.59000000078,"y":2542056.4399999995}},{"attributes":{"ID":240144,"DIS_CODE":0,"TOWNNAME":"東區","LI":"大德里","LIN":"14鄰","STREET":"立德十路","SECT":" ","MAREA":" ","LANE":" ","ALLEY":" ","HOUSE_NO":"３號六樓之６","E_COORD97":169421.59,"N_COORD97":2542056.4399999999,"ADDRESS":"立德十路３號六樓之６","OBJECTID":240140},"geometry":{"x":169421.59000000078,"y":2542056.4399999995}},{"attributes":{"ID":240145,"DIS_CODE":0,"TOWNNAME":"東區","LI":"大德里","LIN":"14鄰","STREET":"立德十路","SECT":" ","MAREA":" ","LANE":" ","ALLEY":" ","HOUSE_NO":"３號六樓之７","E_COORD97":169421.59,"N_COORD97":2542056.4399999999,"ADDRESS":"立德十路３號六樓之７","OBJECTID":240141},"geometry":{"x":169421.59000000078,"y":2542056.4399999995}},{"attributes":{"ID":240146,"DIS_CODE":0,"TOWNNAME":"東區","LI":"大德里","LIN":"14鄰","STREET":"立德十路","SECT":" ","MAREA":" ","LANE":" ","ALLEY":" ","HOUSE_NO":"３號六樓之８","E_COORD97":169421.59,"N_COORD97":2542056.4399999999,"ADDRESS":"立德十路３號六樓之８","OBJECTID":240142},"geometry":{"x":169421.59000000078,"y":2542056.4399999995}},{"attributes":{"ID":240147,"DIS_CODE":0,"TOWNNAME":"東區","LI":"大德里","LIN":"14鄰","STREET":"立德十路","SECT":" ","MAREA":" ","LANE":" ","ALLEY":" ","HOUSE_NO":"３號六樓之９","E_COORD97":169421.59,"N_COORD97":2542056.4399999999,"ADDRESS":"立德十路３號六樓之９","OBJECTID":240143},"geometry":{"x":169421.59000000078,"y":2542056.4399999995}},{"attributes":{"ID":240148,"DIS_CODE":0,"TOWNNAME":"東區","LI":"大德里","LIN":"14鄰","STREET":"立德十路","SECT":" ","MAREA":" ","LANE":" ","ALLEY":" ","HOUSE_NO":"３號七樓","E_COORD97":169421.59,"N_COORD97":2542056.4399999999,"ADDRESS":"立德十路３號七樓","OBJECTID":240144},"geometry":{"x":169421.59000000078,"y":2542056.4399999995}},{"attributes":{"ID":240149,"DIS_CODE":0,"TOWNNAME":"東區","LI":"大德里","LIN":"14鄰","STREET":"立德十路","SECT":" ","MAREA":" ","LANE":" ","ALLEY":" ","HOUSE_NO":"３號七樓之１","E_COORD97":169421.59,"N_COORD97":2542056.4399999999,"ADDRESS":"立德十路３號七樓之１","OBJECTID":240145},"geometry":{"x":169421.59000000078,"y":2542056.4399999995}},{"attributes":{"ID":240150,"DIS_CODE":0,"TOWNNAME":"東區","LI":"大德里","LIN":"14鄰","STREET":"立德十路","SECT":" ","MAREA":" ","LANE":" ","ALLEY":" ","HOUSE_NO":"３號七樓之４","E_COORD97":169421.59,"N_COORD97":2542056.4399999999,"ADDRESS":"立德十路３號七樓之４","OBJECTID":240146},"geometry":{"x":169421.59000000078,"y":2542056.4399999995}},{"attributes":{"ID":240151,"DIS_CODE":0,"TOWNNAME":"東區","LI":"大德里","LIN":"14鄰","STREET":"立德十路","SECT":" ","MAREA":" ","LANE":" ","ALLEY":" ","HOUSE_NO":"３號七樓之５","E_COORD97":169421.59,"N_COORD97":2542056.4399999999,"ADDRESS":"立德十路３號七樓之５","OBJECTID":240147},"geometry":{"x":169421.59000000078,"y":2542056.4399999995}},{"attributes":{"ID":240152,"DIS_CODE":0,"TOWNNAME":"東區","LI":"虎尾里","LIN":"13鄰","STREET":"東成街","SECT":" ","MAREA":" ","LANE":"１２７巷","ALLEY":" ","HOUSE_NO":"５號","E_COORD97":171665.29000000001,"N_COORD97":2542321.7599999998,"ADDRESS":"東成街１２７巷５號","OBJECTID":240148},"geometry":{"x":171665.29000000097,"y":2542321.7600000016}},{"attributes":{"ID":240153,"DIS_CODE":0,"TOWNNAME":"東區","LI":"大德里","LIN":"14鄰","STREET":"立德十路","SECT":" ","MAREA":" ","LANE":" ","ALLEY":" ","HOUSE_NO":"３號七樓之６","E_COORD97":169421.59,"N_COORD97":2542056.4399999999,"ADDRESS":"立德十路３號七樓之６","OBJECTID":240149},"geometry":{"x":169421.59000000078,"y":2542056.4399999995}},{"attributes":{"ID":240154,"DIS_CODE":0,"TOWNNAME":"東區","LI":"大德里","LIN":"14鄰","STREET":"立德十路","SECT":" ","MAREA":" ","LANE":" ","ALLEY":" ","HOUSE_NO":"３號七樓之７","E_COORD97":169421.59,"N_COORD97":2542056.4399999999,"ADDRESS":"立德十路３號七樓之７","OBJECTID":240150},"geometry":{"x":169421.59000000078,"y":2542056.4399999995}},{"attributes":{"ID":240155,"DIS_CODE":0,"TOWNNAME":"永康區","LI":"埔園里","LIN":"16鄰","STREET":"八德街","SECT":" ","MAREA":" ","LANE":"３６６巷","ALLEY":" ","HOUSE_NO":"１號","E_COORD97":173478.56,"N_COORD97":2548580.9700000002,"ADDRESS":"八德街３６６巷１號","OBJECTID":240151},"geometry":{"x":173478.56000000052,"y":2548580.9700000007}},{"attributes":{"ID":240156,"DIS_CODE":0,"TOWNNAME":"永康區","LI":"埔園里","LIN":"16鄰","STREET":"八德街","SECT":" ","MAREA":" ","LANE":"３８８巷","ALLEY":" ","HOUSE_NO":"２號","E_COORD97":173462.73000000001,"N_COORD97":2548577.77,"ADDRESS":"八德街３８８巷２號","OBJECTID":240152},"geometry":{"x":173462.73000000138,"y":2548577.7699999996}},{"attributes":{"ID":240157,"DIS_CODE":0,"TOWNNAME":"永康區","LI":"埔園里","LIN":"16鄰","STREET":"八德街","SECT":" ","MAREA":" ","LANE":"３８８巷","ALLEY":" ","HOUSE_NO":"６號","E_COORD97":173461.84,"N_COORD97":2548582.0699999998,"ADDRESS":"八德街３８８巷６號","OBJECTID":240153},"geometry":{"x":173461.83999999985,"y":2548582.0700000022}},{"attributes":{"ID":240158,"DIS_CODE":0,"TOWNNAME":"永康區","LI":"中興里","LIN":"2鄰","STREET":"忠孝路","SECT":" ","MAREA":" ","LANE":"２３９巷","ALLEY":" ","HOUSE_NO":"２１號","E_COORD97":172008.79000000001,"N_COORD97":2545026.1299999999,"ADDRESS":"忠孝路２３９巷２１號","OBJECTID":240154},"geometry":{"x":172008.79000000097,"y":2545026.1300000008}},{"attributes":{"ID":240159,"DIS_CODE":0,"TOWNNAME":"永康區","LI":"埔園里","LIN":"16鄰","STREET":"八德街","SECT":" ","MAREA":" ","LANE":"３８８巷","ALLEY":" ","HOUSE_NO":"８號","E_COORD97":173461.03,"N_COORD97":2548586.0499999998,"ADDRESS":"八德街３８８巷８號","OBJECTID":240155},"geometry":{"x":173461.03000000026,"y":2548586.0500000026}},{"attributes":{"ID":240160,"DIS_CODE":0,"TOWNNAME":"永康區","LI":"大橋里","LIN":"4鄰","STREET":"大橋一街","SECT":" ","MAREA":" ","LANE":"１０３巷","ALLEY":" ","HOUSE_NO":"２３０號","E_COORD97":170750.35000000001,"N_COORD97":2546860.2599999998,"ADDRESS":"大橋一街１０３巷２３０號","OBJECTID":240156},"geometry":{"x":170750.35000000056,"y":2546860.2600000035}},{"attributes":{"ID":240161,"DIS_CODE":0,"TOWNNAME":"永康區","LI":"五王里","LIN":"37鄰","STREET":"中華路","SECT":" ","MAREA":" ","LANE":"５７８巷","ALLEY":" ","HOUSE_NO":"１５號之６８","E_COORD97":171276.10000000001,"N_COORD97":2545965.79,"ADDRESS":"中華路５７８巷１５號之６８","OBJECTID":240157},"geometry":{"x":171276.10000000056,"y":2545965.7899999991}},{"attributes":{"ID":240162,"DIS_CODE":0,"TOWNNAME":"永康區","LI":"埔園里","LIN":"16鄰","STREET":"八德街","SECT":" ","MAREA":" ","LANE":"３８８巷","ALLEY":" ","HOUSE_NO":"１０號","E_COORD97":173461.38,"N_COORD97":2548590.6800000002,"ADDRESS":"八德街３８８巷１０號","OBJECTID":240158},"geometry":{"x":173461.38000000082,"y":2548590.6800000016}},{"attributes":{"ID":240163,"DIS_CODE":0,"TOWNNAME":"永康區","LI":"王行里","LIN":"16鄰","STREET":"王行路","SECT":" ","MAREA":" ","LANE":"６８巷","ALLEY":" ","HOUSE_NO":"４２號","E_COORD97":175996.10999999999,"N_COORD97":2548065.8999999999,"ADDRESS":"王行路６８巷４２號","OBJECTID":240159},"geometry":{"x":175996.11000000127,"y":2548065.9000000004}},{"attributes":{"ID":240164,"DIS_CODE":0,"TOWNNAME":"安南區","LI":"海南里","LIN":"13鄰","STREET":"府安路","SECT":"七段","MAREA":" ","LANE":"５７巷","ALLEY":" ","HOUSE_NO":"２７號","E_COORD97":165875.67000000001,"N_COORD97":2546003.5699999998,"ADDRESS":"府安路七段５７巷２７號","OBJECTID":240160},"geometry":{"x":165875.66999999993,"y":2546003.5700000003}},{"attributes":{"ID":240165,"DIS_CODE":0,"TOWNNAME":"安南區","LI":"海南里","LIN":"13鄰","STREET":"府安路","SECT":"七段","MAREA":" ","LANE":"５７巷","ALLEY":" ","HOUSE_NO":"２８號","E_COORD97":165892.88,"N_COORD97":2546018.0299999998,"ADDRESS":"府安路七段５７巷２８號","OBJECTID":240161},"geometry":{"x":165892.87999999989,"y":2546018.0300000012}},{"attributes":{"ID":240166,"DIS_CODE":0,"TOWNNAME":"安南區","LI":"海南里","LIN":"13鄰","STREET":"府安路","SECT":"七段","MAREA":" ","LANE":"５７巷","ALLEY":" ","HOUSE_NO":"３號","E_COORD97":165935.82000000001,"N_COORD97":2545921.7200000002,"ADDRESS":"府安路七段５７巷３號","OBJECTID":240162},"geometry":{"x":165935.8200000003,"y":2545921.7200000007}},{"attributes":{"ID":240167,"DIS_CODE":0,"TOWNNAME":"東區","LI":"大德里","LIN":"14鄰","STREET":"立德十路","SECT":" ","MAREA":" ","LANE":" ","ALLEY":" ","HOUSE_NO":"３號七樓之８","E_COORD97":169421.59,"N_COORD97":2542056.4399999999,"ADDRESS":"立德十路３號七樓之８","OBJECTID":240163},"geometry":{"x":169421.59000000078,"y":2542056.4399999995}},{"attributes":{"ID":240168,"DIS_CODE":0,"TOWNNAME":"東區","LI":"大德里","LIN":"14鄰","STREET":"立德十路","SECT":" ","MAREA":" ","LANE":" ","ALLEY":" ","HOUSE_NO":"３號八樓","E_COORD97":169421.59,"N_COORD97":2542056.4399999999,"ADDRESS":"立德十路３號八樓","OBJECTID":240164},"geometry":{"x":169421.59000000078,"y":2542056.4399999995}},{"attributes":{"ID":240169,"DIS_CODE":0,"TOWNNAME":"東區","LI":"大德里","LIN":"14鄰","STREET":"立德十路","SECT":" ","MAREA":" ","LANE":" ","ALLEY":" ","HOUSE_NO":"３號八樓之１","E_COORD97":169421.59,"N_COORD97":2542056.4399999999,"ADDRESS":"立德十路３號八樓之１","OBJECTID":240165},"geometry":{"x":169421.59000000078,"y":2542056.4399999995}},{"attributes":{"ID":240170,"DIS_CODE":0,"TOWNNAME":"東區","LI":"大德里","LIN":"14鄰","STREET":"立德十路","SECT":" ","MAREA":" ","LANE":" ","ALLEY":" ","HOUSE_NO":"３號八樓之２","E_COORD97":169421.59,"N_COORD97":2542056.4399999999,"ADDRESS":"立德十路３號八樓之２","OBJECTID":240166},"geometry":{"x":169421.59000000078,"y":2542056.4399999995}},{"attributes":{"ID":240171,"DIS_CODE":0,"TOWNNAME":"東區","LI":"大德里","LIN":"14鄰","STREET":"立德十路","SECT":" ","MAREA":" ","LANE":" ","ALLEY":" ","HOUSE_NO":"３號八樓之３","E_COORD97":169421.59,"N_COORD97":2542056.4399999999,"ADDRESS":"立德十路３號八樓之３","OBJECTID":240167},"geometry":{"x":169421.59000000078,"y":2542056.4399999995}},{"attributes":{"ID":240172,"DIS_CODE":0,"TOWNNAME":"東區","LI":"大德里","LIN":"14鄰","STREET":"立德十路","SECT":" ","MAREA":" ","LANE":" ","ALLEY":" ","HOUSE_NO":"３號八樓之４","E_COORD97":169421.59,"N_COORD97":2542056.4399999999,"ADDRESS":"立德十路３號八樓之４","OBJECTID":240168},"geometry":{"x":169421.59000000078,"y":2542056.4399999995}},{"attributes":{"ID":240173,"DIS_CODE":0,"TOWNNAME":"東區","LI":"大德里","LIN":"14鄰","STREET":"立德十路","SECT":" ","MAREA":" ","LANE":" ","ALLEY":" ","HOUSE_NO":"３號八樓之５","E_COORD97":169421.59,"N_COORD97":2542056.4399999999,"ADDRESS":"立德十路３號八樓之５","OBJECTID":240169},"geometry":{"x":169421.59000000078,"y":2542056.4399999995}},{"attributes":{"ID":240174,"DIS_CODE":0,"TOWNNAME":"東區","LI":"大德里","LIN":"14鄰","STREET":"立德十路","SECT":" ","MAREA":" ","LANE":" ","ALLEY":" ","HOUSE_NO":"３號八樓之６","E_COORD97":169421.59,"N_COORD97":2542056.4399999999,"ADDRESS":"立德十路３號八樓之６","OBJECTID":240170},"geometry":{"x":169421.59000000078,"y":2542056.4399999995}},{"attributes":{"ID":240175,"DIS_CODE":0,"TOWNNAME":"東區","LI":"大德里","LIN":"14鄰","STREET":"立德十路","SECT":" ","MAREA":" ","LANE":" ","ALLEY":" ","HOUSE_NO":"３號八樓之７","E_COORD97":169421.59,"N_COORD97":2542056.4399999999,"ADDRESS":"立德十路３號八樓之７","OBJECTID":240171},"geometry":{"x":169421.59000000078,"y":2542056.4399999995}},{"attributes":{"ID":240176,"DIS_CODE":0,"TOWNNAME":"永康區","LI":"五王里","LIN":"27鄰","STREET":"五福街","SECT":" ","MAREA":" ","LANE":"１１０巷","ALLEY":" ","HOUSE_NO":"３６號","E_COORD97":171560.20000000001,"N_COORD97":2545937.21,"ADDRESS":"五福街１１０巷３６號","OBJECTID":240172},"geometry":{"x":171560.20000000205,"y":2545937.2100000028}},{"attributes":{"ID":240177,"DIS_CODE":0,"TOWNNAME":"永康區","LI":"二王里","LIN":"36鄰","STREET":"中山南路","SECT":" ","MAREA":" ","LANE":"４９０巷","ALLEY":" ","HOUSE_NO":"５９號","E_COORD97":172273.31,"N_COORD97":2546355.75,"ADDRESS":"中山南路４９０巷５９號","OBJECTID":240173},"geometry":{"x":172273.30999999959,"y":2546355.7500000019}},{"attributes":{"ID":240178,"DIS_CODE":0,"TOWNNAME":"永康區","LI":"中興里","LIN":"18鄰","STREET":"中華路","SECT":" ","MAREA":" ","LANE":"２８６巷","ALLEY":" ","HOUSE_NO":"５１號","E_COORD97":171671.07000000001,"N_COORD97":2545336.9900000002,"ADDRESS":"中華路２８６巷５１號","OBJECTID":240174},"geometry":{"x":171671.0700000003,"y":2545336.9900000021}},{"attributes":{"ID":240179,"DIS_CODE":0,"TOWNNAME":"永康區","LI":"大橋里","LIN":"14鄰","STREET":"大橋一街","SECT":" ","MAREA":" ","LANE":"７３巷","ALLEY":" ","HOUSE_NO":"２１號","E_COORD97":170878.26999999999,"N_COORD97":2546478.9900000002,"ADDRESS":"大橋一街７３巷２１號","OBJECTID":240175},"geometry":{"x":170878.27000000048,"y":2546478.9899999984}},{"attributes":{"ID":240180,"DIS_CODE":0,"TOWNNAME":"永康區","LI":"大橋里","LIN":"8鄰","STREET":"大橋三街","SECT":" ","MAREA":" ","LANE":"１９９巷","ALLEY":" ","HOUSE_NO":"１１０號","E_COORD97":171009.38,"N_COORD97":2546923.3500000001,"ADDRESS":"大橋三街１９９巷１１０號","OBJECTID":240176},"geometry":{"x":171009.38000000175,"y":2546923.3499999996}},{"attributes":{"ID":240181,"DIS_CODE":0,"TOWNNAME":"永康區","LI":"五王里","LIN":"37鄰","STREET":"中華路","SECT":" ","MAREA":" ","LANE":"５７８巷","ALLEY":" ","HOUSE_NO":"１５號之８２","E_COORD97":171276.07999999999,"N_COORD97":2545965.79,"ADDRESS":"中華路５７８巷１５號之８２","OBJECTID":240177},"geometry":{"x":171276.08000000194,"y":2545965.7899999991}},{"attributes":{"ID":240182,"DIS_CODE":0,"TOWNNAME":"永康區","LI":"西勢里","LIN":"16鄰","STREET":"西勢路","SECT":" ","MAREA":" ","LANE":"８２巷","ALLEY":" ","HOUSE_NO":"３７號","E_COORD97":176081.14999999999,"N_COORD97":2546842.6000000001,"ADDRESS":"西勢路８２巷３７號","OBJECTID":240178},"geometry":{"x":176081.15000000037,"y":2546842.5999999996}},{"attributes":{"ID":240183,"DIS_CODE":0,"TOWNNAME":"永康區","LI":"西勢里","LIN":"16鄰","STREET":"西勢路","SECT":" ","MAREA":" ","LANE":"８２巷","ALLEY":" ","HOUSE_NO":"３９號","E_COORD97":176080.76000000001,"N_COORD97":2546846.73,"ADDRESS":"西勢路８２巷３９號","OBJECTID":240179},"geometry":{"x":176080.76000000071,"y":2546846.7300000004}},{"attributes":{"ID":240184,"DIS_CODE":0,"TOWNNAME":"永康區","LI":"西勢里","LIN":"16鄰","STREET":"西勢路","SECT":" ","MAREA":" ","LANE":"８２巷","ALLEY":" ","HOUSE_NO":"４１號","E_COORD97":176080.95999999999,"N_COORD97":2546851.1299999999,"ADDRESS":"西勢路８２巷４１號","OBJECTID":240180},"geometry":{"x":176080.96000000183,"y":2546851.1300000008}},{"attributes":{"ID":240185,"DIS_CODE":0,"TOWNNAME":"永康區","LI":"西勢里","LIN":"16鄰","STREET":"西勢路","SECT":" ","MAREA":" ","LANE":"８２巷","ALLEY":" ","HOUSE_NO":"４３號","E_COORD97":176080.76000000001,"N_COORD97":2546855.9300000002,"ADDRESS":"西勢路８２巷４３號","OBJECTID":240181},"geometry":{"x":176080.76000000071,"y":2546855.9300000016}},{"attributes":{"ID":240186,"DIS_CODE":0,"TOWNNAME":"永康區","LI":"烏竹里","LIN":"16鄰","STREET":"自強路","SECT":" ","MAREA":" ","LANE":"９２５巷","ALLEY":" ","HOUSE_NO":"４３號","E_COORD97":174729.20000000001,"N_COORD97":2548884.4399999999,"ADDRESS":"自強路９２５巷４３號","OBJECTID":240182},"geometry":{"x":174729.20000000112,"y":2548884.4399999995}},{"attributes":{"ID":240187,"DIS_CODE":0,"TOWNNAME":"永康區","LI":"烏竹里","LIN":"16鄰","STREET":"自強路","SECT":" ","MAREA":" ","LANE":"９２５巷","ALLEY":" ","HOUSE_NO":"４５號","E_COORD97":174724.85999999999,"N_COORD97":2548891.2799999998,"ADDRESS":"自強路９２５巷４５號","OBJECTID":240183},"geometry":{"x":174724.86000000127,"y":2548891.2800000012}},{"attributes":{"ID":240188,"DIS_CODE":0,"TOWNNAME":"永康區","LI":"烏竹里","LIN":"16鄰","STREET":"自強路","SECT":" ","MAREA":" ","LANE":"９２５巷","ALLEY":" ","HOUSE_NO":"４７號","E_COORD97":174719.85000000001,"N_COORD97":2548897.96,"ADDRESS":"自強路９２５巷４７號","OBJECTID":240184},"geometry":{"x":174719.84999999963,"y":2548897.9600000028}},{"attributes":{"ID":240189,"DIS_CODE":0,"TOWNNAME":"安南區","LI":"海南里","LIN":"13鄰","STREET":"府安路","SECT":"七段","MAREA":" ","LANE":"５７巷","ALLEY":" ","HOUSE_NO":"４號","E_COORD97":165955.04000000001,"N_COORD97":2545936.6400000001,"ADDRESS":"府安路七段５７巷４號","OBJECTID":240185},"geometry":{"x":165955.0400000019,"y":2545936.6400000025}},{"attributes":{"ID":240190,"DIS_CODE":0,"TOWNNAME":"東區","LI":"大德里","LIN":"14鄰","STREET":"立德十路","SECT":" ","MAREA":" ","LANE":" ","ALLEY":" ","HOUSE_NO":"３號八樓之８","E_COORD97":169421.59,"N_COORD97":2542056.4399999999,"ADDRESS":"立德十路３號八樓之８","OBJECTID":240186},"geometry":{"x":169421.59000000078,"y":2542056.4399999995}},{"attributes":{"ID":240191,"DIS_CODE":0,"TOWNNAME":"東區","LI":"大德里","LIN":"14鄰","STREET":"立德十路","SECT":" ","MAREA":" ","LANE":" ","ALLEY":" ","HOUSE_NO":"３號八樓之９","E_COORD97":169421.59,"N_COORD97":2542056.4399999999,"ADDRESS":"立德十路３號八樓之９","OBJECTID":240187},"geometry":{"x":169421.59000000078,"y":2542056.4399999995}},{"attributes":{"ID":240192,"DIS_CODE":0,"TOWNNAME":"東區","LI":"大德里","LIN":"14鄰","STREET":"立德十路","SECT":" ","MAREA":" ","LANE":" ","ALLEY":" ","HOUSE_NO":"３號九樓","E_COORD97":169421.59,"N_COORD97":2542056.4399999999,"ADDRESS":"立德十路３號九樓","OBJECTID":240188},"geometry":{"x":169421.59000000078,"y":2542056.4399999995}},{"attributes":{"ID":240193,"DIS_CODE":0,"TOWNNAME":"東區","LI":"大德里","LIN":"14鄰","STREET":"立德十路","SECT":" ","MAREA":" ","LANE":" ","ALLEY":" ","HOUSE_NO":"３號九樓之１","E_COORD97":169421.59,"N_COORD97":2542056.4399999999,"ADDRESS":"立德十路３號九樓之１","OBJECTID":240189},"geometry":{"x":169421.59000000078,"y":2542056.4399999995}},{"attributes":{"ID":240194,"DIS_CODE":0,"TOWNNAME":"東區","LI":"大德里","LIN":"14鄰","STREET":"立德十路","SECT":" ","MAREA":" ","LANE":" ","ALLEY":" ","HOUSE_NO":"３號九樓之２","E_COORD97":169421.59,"N_COORD97":2542056.4399999999,"ADDRESS":"立德十路３號九樓之２","OBJECTID":240190},"geometry":{"x":169421.59000000078,"y":2542056.4399999995}},{"attributes":{"ID":240195,"DIS_CODE":0,"TOWNNAME":"東區","LI":"大德里","LIN":"14鄰","STREET":"立德十路","SECT":" ","MAREA":" ","LANE":" ","ALLEY":" ","HOUSE_NO":"３號九樓之３","E_COORD97":169421.59,"N_COORD97":2542056.4399999999,"ADDRESS":"立德十路３號九樓之３","OBJECTID":240191},"geometry":{"x":169421.59000000078,"y":2542056.4399999995}},{"attributes":{"ID":240196,"DIS_CODE":0,"TOWNNAME":"東區","LI":"大德里","LIN":"14鄰","STREET":"立德十路","SECT":" ","MAREA":" ","LANE":" ","ALLEY":" ","HOUSE_NO":"３號九樓之４","E_COORD97":169421.59,"N_COORD97":2542056.4399999999,"ADDRESS":"立德十路３號九樓之４","OBJECTID":240192},"geometry":{"x":169421.59000000078,"y":2542056.4399999995}},{"attributes":{"ID":240197,"DIS_CODE":0,"TOWNNAME":"東區","LI":"大德里","LIN":"14鄰","STREET":"立德十路","SECT":" ","MAREA":" ","LANE":" ","ALLEY":" ","HOUSE_NO":"３號九樓之５","E_COORD97":169421.59,"N_COORD97":2542056.4399999999,"ADDRESS":"立德十路３號九樓之５","OBJECTID":240193},"geometry":{"x":169421.59000000078,"y":2542056.4399999995}},{"attributes":{"ID":240198,"DIS_CODE":0,"TOWNNAME":"永康區","LI":"大橋里","LIN":"14鄰","STREET":"大橋一街","SECT":" ","MAREA":" ","LANE":" ","ALLEY":" ","HOUSE_NO":"６３號四樓之３","E_COORD97":170898.88,"N_COORD97":2546429.5499999998,"ADDRESS":"大橋一街６３號四樓之３","OBJECTID":240194},"geometry":{"x":170898.87999999989,"y":2546429.5500000026}},{"attributes":{"ID":240199,"DIS_CODE":0,"TOWNNAME":"永康區","LI":"大橋里","LIN":"14鄰","STREET":"大橋一街","SECT":" ","MAREA":" ","LANE":" ","ALLEY":" ","HOUSE_NO":"６１號三樓之２","E_COORD97":170895.84,"N_COORD97":2546426.5499999998,"ADDRESS":"大橋一街６１號三樓之２","OBJECTID":240195},"geometry":{"x":170895.83999999985,"y":2546426.5500000026}},{"attributes":{"ID":240200,"DIS_CODE":0,"TOWNNAME":"永康區","LI":"大橋里","LIN":"14鄰","STREET":"大橋一街","SECT":" ","MAREA":" ","LANE":" ","ALLEY":" ","HOUSE_NO":"６１號十三樓之２","E_COORD97":170897.09,"N_COORD97":2546426.5499999998,"ADDRESS":"大橋一街６１號十三樓之２","OBJECTID":240196},"geometry":{"x":170897.08999999985,"y":2546426.5500000026}},{"attributes":{"ID":240201,"DIS_CODE":0,"TOWNNAME":"永康區","LI":"大橋里","LIN":"14鄰","STREET":"大橋一街","SECT":" ","MAREA":" ","LANE":" ","ALLEY":" ","HOUSE_NO":"６１號四樓之１","E_COORD97":170895.70000000001,"N_COORD97":2546426.5499999998,"ADDRESS":"大橋一街６１號四樓之１","OBJECTID":240197},"geometry":{"x":170895.70000000205,"y":2546426.5500000026}},{"attributes":{"ID":240202,"DIS_CODE":0,"TOWNNAME":"永康區","LI":"大橋里","LIN":"14鄰","STREET":"大橋一街","SECT":" ","MAREA":" ","LANE":" ","ALLEY":" ","HOUSE_NO":"６３號五樓之１","E_COORD97":170898.78,"N_COORD97":2546429.5499999998,"ADDRESS":"大橋一街６３號五樓之１","OBJECTID":240198},"geometry":{"x":170898.78000000119,"y":2546429.5500000026}},{"attributes":{"ID":240203,"DIS_CODE":0,"TOWNNAME":"永康區","LI":"中興里","LIN":"9鄰","STREET":"忠孝路","SECT":" ","MAREA":" ","LANE":"２３９巷","ALLEY":" ","HOUSE_NO":"２２號","E_COORD97":172025.84,"N_COORD97":2545051.2400000002,"ADDRESS":"忠孝路２３９巷２２號","OBJECTID":240199},"geometry":{"x":172025.84000000078,"y":2545051.2400000021}},{"attributes":{"ID":240204,"DIS_CODE":0,"TOWNNAME":"永康區","LI":"烏竹里","LIN":"16鄰","STREET":"自強路","SECT":" ","MAREA":" ","LANE":"９２５巷","ALLEY":" ","HOUSE_NO":"５３號","E_COORD97":174705.23999999999,"N_COORD97":2548917.7999999998,"ADDRESS":"自強路９２５巷５３號","OBJECTID":240200},"geometry":{"x":174705.24000000115,"y":2548917.8000000007}}]}