{"displayFieldName":"TOWNNAME","fieldAliases":{"ID":"ID","DIS_CODE":"DIS_CODE","TOWNNAME":"TOWNNAME","LI":"LI","LIN":"LIN","STREET":"STREET","SECT":"SECT","MAREA":"MAREA","LANE":"LANE","ALLEY":"ALLEY","HOUSE_NO":"HOUSE_NO","E_COORD97":"E_COORD97","N_COORD97":"N_COORD97","ADDRESS":"ADDRESS","OBJECTID":"OBJECTID"},"geometryType":"esriGeometryPoint","spatialReference":{"wkid":102443,"latestWkid":3826},"fields":[{"name":"ID","type":"esriFieldTypeDouble","alias":"ID"},{"name":"DIS_CODE","type":"esriFieldTypeInteger","alias":"DIS_CODE"},{"name":"TOWNNAME","type":"esriFieldTypeString","alias":"TOWNNAME","length":8},{"name":"LI","type":"esriFieldTypeString","alias":"LI","length":8},{"name":"LIN","type":"esriFieldTypeString","alias":"LIN","length":12},{"name":"STREET","type":"esriFieldTypeString","alias":"STREET","length":20},{"name":"SECT","type":"esriFieldTypeString","alias":"SECT","length":8},{"name":"MAREA","type":"esriFieldTypeString","alias":"MAREA","length":12},{"name":"LANE","type":"esriFieldTypeString","alias":"LANE","length":10},{"name":"ALLEY","type":"esriFieldTypeString","alias":"ALLEY","length":10},{"name":"HOUSE_NO","type":"esriFieldTypeString","alias":"HOUSE_NO","length":20},{"name":"E_COORD97","type":"esriFieldTypeDouble","alias":"E_COORD97"},{"name":"N_COORD97","type":"esriFieldTypeDouble","alias":"N_COORD97"},{"name":"ADDRESS","type":"esriFieldTypeString","alias":"ADDRESS","length":50},{"name":"OBJECTID","type":"esriFieldTypeOID","alias":"OBJECTID"}],"features":[{"attributes":{"ID":592228,"DIS_CODE":0,"TOWNNAME":"善化區","LI":"小新里","LIN":"11鄰","STREET":"蓮潭北三街","SECT":" ","MAREA":" ","LANE":" ","ALLEY":" ","HOUSE_NO":"２３６號","E_COORD97":178945.40522799999,"N_COORD97":2557571.5151999998,"ADDRESS":"蓮潭北三街２３６號","OBJECTID":592201},"geometry":{"x":178945.40522800107,"y":2557571.515203001}},{"attributes":{"ID":592229,"DIS_CODE":0,"TOWNNAME":"善化區","LI":"小新里","LIN":"11鄰","STREET":"蓮潭北三街","SECT":" ","MAREA":" ","LANE":" ","ALLEY":" ","HOUSE_NO":"２３８號","E_COORD97":178939.050843,"N_COORD97":2557571.8327000001,"ADDRESS":"蓮潭北三街２３８號","OBJECTID":592202},"geometry":{"x":178939.05084300134,"y":2557571.8327019997}},{"attributes":{"ID":592230,"DIS_CODE":0,"TOWNNAME":"新化區","LI":"東榮里","LIN":"22鄰","STREET":"復興路","SECT":" ","MAREA":" ","LANE":" ","ALLEY":" ","HOUSE_NO":"２２５號之５","E_COORD97":179372.78,"N_COORD97":2548134.2599999998,"ADDRESS":"復興路２２５號之５","OBJECTID":592203},"geometry":{"x":179372.78000000212,"y":2548134.2599999998}},{"attributes":{"ID":592231,"DIS_CODE":0,"TOWNNAME":"新化區","LI":"東榮里","LIN":"22鄰","STREET":"復興路","SECT":" ","MAREA":" ","LANE":" ","ALLEY":" ","HOUSE_NO":"２２５號","E_COORD97":179372.32000000001,"N_COORD97":2548134.25,"ADDRESS":"復興路２２５號","OBJECTID":592204},"geometry":{"x":179372.3200000003,"y":2548134.25}},{"attributes":{"ID":592232,"DIS_CODE":0,"TOWNNAME":"新化區","LI":"東榮里","LIN":"22鄰","STREET":"復興路","SECT":" ","MAREA":" ","LANE":" ","ALLEY":" ","HOUSE_NO":"２２３號","E_COORD97":179372.32000000001,"N_COORD97":2548134.25,"ADDRESS":"復興路２２３號","OBJECTID":592205},"geometry":{"x":179372.3200000003,"y":2548134.25}},{"attributes":{"ID":592233,"DIS_CODE":0,"TOWNNAME":"新化區","LI":"東榮里","LIN":"22鄰","STREET":"復興路","SECT":" ","MAREA":" ","LANE":" ","ALLEY":" ","HOUSE_NO":"２２１號之３","E_COORD97":179372.76999999999,"N_COORD97":2548134.2599999998,"ADDRESS":"復興路２２１號之３","OBJECTID":592206},"geometry":{"x":179372.77000000048,"y":2548134.2599999998}},{"attributes":{"ID":592234,"DIS_CODE":0,"TOWNNAME":"新化區","LI":"東榮里","LIN":"22鄰","STREET":"復興路","SECT":" ","MAREA":" ","LANE":" ","ALLEY":" ","HOUSE_NO":"２２１號","E_COORD97":179372.32000000001,"N_COORD97":2548134.25,"ADDRESS":"復興路２２１號","OBJECTID":592207},"geometry":{"x":179372.3200000003,"y":2548134.25}},{"attributes":{"ID":592235,"DIS_CODE":0,"TOWNNAME":"新化區","LI":"東榮里","LIN":"22鄰","STREET":"復興路","SECT":" ","MAREA":" ","LANE":" ","ALLEY":" ","HOUSE_NO":"２２７號之５","E_COORD97":179372.78,"N_COORD97":2548134.2599999998,"ADDRESS":"復興路２２７號之５","OBJECTID":592208},"geometry":{"x":179372.78000000212,"y":2548134.2599999998}},{"attributes":{"ID":592236,"DIS_CODE":0,"TOWNNAME":"玉井區","LI":"玉田里","LIN":"22鄰","STREET":"中華路","SECT":" ","MAREA":" ","LANE":" ","ALLEY":" ","HOUSE_NO":"１０６號","E_COORD97":195010.04000000001,"N_COORD97":2557976.5099999998,"ADDRESS":"中華路１０６號","OBJECTID":592209},"geometry":{"x":195010.04000000004,"y":2557976.5100000016}},{"attributes":{"ID":592237,"DIS_CODE":0,"TOWNNAME":"北區","LI":"文元里","LIN":"22鄰","STREET":"文成路","SECT":" ","MAREA":" ","LANE":" ","ALLEY":" ","HOUSE_NO":"６０１號","E_COORD97":167919.84,"N_COORD97":2545879.3100000001,"ADDRESS":"文成路６０１號","OBJECTID":592210},"geometry":{"x":167919.84000000078,"y":2545879.3100000005}},{"attributes":{"ID":592238,"DIS_CODE":0,"TOWNNAME":"北區","LI":"文元里","LIN":"22鄰","STREET":"文成路","SECT":" ","MAREA":" ","LANE":" ","ALLEY":" ","HOUSE_NO":"５９５號","E_COORD97":167940.82000000001,"N_COORD97":2545887.0299999998,"ADDRESS":"文成路５９５號","OBJECTID":592211},"geometry":{"x":167940.82000000123,"y":2545887.0299999993}},{"attributes":{"ID":592239,"DIS_CODE":0,"TOWNNAME":"北區","LI":"文元里","LIN":"22鄰","STREET":"文成路","SECT":" ","MAREA":" ","LANE":" ","ALLEY":" ","HOUSE_NO":"６１５號","E_COORD97":167892.20000000001,"N_COORD97":2545876.02,"ADDRESS":"文成路６１５號","OBJECTID":592212},"geometry":{"x":167892.20000000112,"y":2545876.0200000014}},{"attributes":{"ID":592240,"DIS_CODE":0,"TOWNNAME":"北區","LI":"文元里","LIN":"22鄰","STREET":"文成路","SECT":" ","MAREA":" ","LANE":" ","ALLEY":" ","HOUSE_NO":"５６９號","E_COORD97":167993.42157400001,"N_COORD97":2545889.7591200001,"ADDRESS":"文成路５６９號","OBJECTID":592213},"geometry":{"x":167993.42157400027,"y":2545889.7591190021}},{"attributes":{"ID":592241,"DIS_CODE":0,"TOWNNAME":"安平區","LI":"建平里","LIN":"22鄰","STREET":"永華三街","SECT":" ","MAREA":" ","LANE":" ","ALLEY":" ","HOUSE_NO":"５０號","E_COORD97":166103.73999999999,"N_COORD97":2543551.3599999999,"ADDRESS":"永華三街５０號","OBJECTID":592214},"geometry":{"x":166103.74000000115,"y":2543551.3600000013}},{"attributes":{"ID":592242,"DIS_CODE":0,"TOWNNAME":"安平區","LI":"建平里","LIN":"22鄰","STREET":"永華三街","SECT":" ","MAREA":" ","LANE":" ","ALLEY":" ","HOUSE_NO":"５０之１號","E_COORD97":166104.42000000001,"N_COORD97":2543556.6899999999,"ADDRESS":"永華三街５０之１號","OBJECTID":592215},"geometry":{"x":166104.41999999993,"y":2543556.6899999995}},{"attributes":{"ID":592243,"DIS_CODE":0,"TOWNNAME":"安平區","LI":"建平里","LIN":"22鄰","STREET":"永華三街","SECT":" ","MAREA":" ","LANE":" ","ALLEY":" ","HOUSE_NO":"５０之２號","E_COORD97":166104.85999999999,"N_COORD97":2543560.2200000002,"ADDRESS":"永華三街５０之２號","OBJECTID":592216},"geometry":{"x":166104.86000000127,"y":2543560.2200000025}},{"attributes":{"ID":592244,"DIS_CODE":0,"TOWNNAME":"安平區","LI":"建平里","LIN":"22鄰","STREET":"永華三街","SECT":" ","MAREA":" ","LANE":" ","ALLEY":" ","HOUSE_NO":"５０之３號","E_COORD97":166108.31,"N_COORD97":2543565.1299999999,"ADDRESS":"永華三街５０之３號","OBJECTID":592217},"geometry":{"x":166108.30999999959,"y":2543565.1300000008}},{"attributes":{"ID":592245,"DIS_CODE":0,"TOWNNAME":"楠西區","LI":"東勢里","LIN":"22鄰","STREET":"忠孝路","SECT":" ","MAREA":" ","LANE":" ","ALLEY":" ","HOUSE_NO":"１５６號","E_COORD97":197562.73000000001,"N_COORD97":2564334.2000000002,"ADDRESS":"忠孝路１５６號","OBJECTID":592218},"geometry":{"x":197562.73000000231,"y":2564334.2000000011}},{"attributes":{"ID":592246,"DIS_CODE":0,"TOWNNAME":"楠西區","LI":"東勢里","LIN":"22鄰","STREET":"忠孝路","SECT":" ","MAREA":" ","LANE":" ","ALLEY":" ","HOUSE_NO":"１５８號","E_COORD97":197562.73000000001,"N_COORD97":2564334.2000000002,"ADDRESS":"忠孝路１５８號","OBJECTID":592219},"geometry":{"x":197562.73000000231,"y":2564334.2000000011}},{"attributes":{"ID":592247,"DIS_CODE":0,"TOWNNAME":"永康區","LI":"\u25A0洲里","LIN":"22鄰","STREET":"正南八街","SECT":" ","MAREA":" ","LANE":" ","ALLEY":" ","HOUSE_NO":"３６號","E_COORD97":171363.64000000001,"N_COORD97":2548825.7799999998,"ADDRESS":"正南八街３６號","OBJECTID":592220},"geometry":{"x":171363.6400000006,"y":2548825.7800000031}},{"attributes":{"ID":592248,"DIS_CODE":0,"TOWNNAME":"善化區","LI":"小新里","LIN":"11鄰","STREET":"蓮潭北三街","SECT":" ","MAREA":" ","LANE":" ","ALLEY":" ","HOUSE_NO":"２４０號","E_COORD97":178933.22599000001,"N_COORD97":2557571.8327000001,"ADDRESS":"蓮潭北三街２４０號","OBJECTID":592221},"geometry":{"x":178933.22599000111,"y":2557571.8327019997}},{"attributes":{"ID":592249,"DIS_CODE":0,"TOWNNAME":"善化區","LI":"小新里","LIN":"11鄰","STREET":"蓮潭北三街","SECT":" ","MAREA":" ","LANE":" ","ALLEY":" ","HOUSE_NO":"２４２號","E_COORD97":178926.87160400001,"N_COORD97":2557572.1502,"ADDRESS":"蓮潭北三街２４２號","OBJECTID":592222},"geometry":{"x":178926.87160400115,"y":2557572.1502020005}},{"attributes":{"ID":592250,"DIS_CODE":0,"TOWNNAME":"善化區","LI":"小新里","LIN":"11鄰","STREET":"蓮潭北三街","SECT":" ","MAREA":" ","LANE":" ","ALLEY":" ","HOUSE_NO":"２４６號","E_COORD97":178920.62312599999,"N_COORD97":2557572.4676999999,"ADDRESS":"蓮潭北三街２４６號","OBJECTID":592223},"geometry":{"x":178920.6231260011,"y":2557572.4677019995}},{"attributes":{"ID":592251,"DIS_CODE":0,"TOWNNAME":"善化區","LI":"小新里","LIN":"11鄰","STREET":"蓮潭北三街","SECT":" ","MAREA":" ","LANE":" ","ALLEY":" ","HOUSE_NO":"２４８號","E_COORD97":178914.16283399999,"N_COORD97":2557572.7851999998,"ADDRESS":"蓮潭北三街２４８號","OBJECTID":592224},"geometry":{"x":178914.16283399984,"y":2557572.7852020003}},{"attributes":{"ID":592252,"DIS_CODE":0,"TOWNNAME":"善化區","LI":"小新里","LIN":"11鄰","STREET":"蓮潭北三街","SECT":" ","MAREA":" ","LANE":" ","ALLEY":" ","HOUSE_NO":"２５０號","E_COORD97":178908.020261,"N_COORD97":2557572.9968699999,"ADDRESS":"蓮潭北三街２５０號","OBJECTID":592225},"geometry":{"x":178908.02026100084,"y":2557572.9968680032}},{"attributes":{"ID":592253,"DIS_CODE":0,"TOWNNAME":"善化區","LI":"小新里","LIN":"11鄰","STREET":"蓮潭北三街","SECT":" ","MAREA":" ","LANE":" ","ALLEY":" ","HOUSE_NO":"２５２號","E_COORD97":178901.983595,"N_COORD97":2557573.20854,"ADDRESS":"蓮潭北三街２５２號","OBJECTID":592226},"geometry":{"x":178901.98359499965,"y":2557573.2085350044}},{"attributes":{"ID":592254,"DIS_CODE":0,"TOWNNAME":"善化區","LI":"小新里","LIN":"11鄰","STREET":"蓮潭北三街","SECT":" ","MAREA":" ","LANE":" ","ALLEY":" ","HOUSE_NO":"２５６號","E_COORD97":178895.735117,"N_COORD97":2557573.3143699998,"ADDRESS":"蓮潭北三街２５６號","OBJECTID":592227},"geometry":{"x":178895.73511700053,"y":2557573.3143680003}},{"attributes":{"ID":592255,"DIS_CODE":0,"TOWNNAME":"善化區","LI":"小新里","LIN":"11鄰","STREET":"蓮潭北三街","SECT":" ","MAREA":" ","LANE":" ","ALLEY":" ","HOUSE_NO":"２５８號","E_COORD97":178889.59254400001,"N_COORD97":2557573.7376999999,"ADDRESS":"蓮潭北三街２５８號","OBJECTID":592228},"geometry":{"x":178889.5925440006,"y":2557573.7377010025}},{"attributes":{"ID":592256,"DIS_CODE":0,"TOWNNAME":"善化區","LI":"小新里","LIN":"11鄰","STREET":"蓮潭北三街","SECT":" ","MAREA":" ","LANE":" ","ALLEY":" ","HOUSE_NO":"２６０號","E_COORD97":178883.026346,"N_COORD97":2557573.8435399998,"ADDRESS":"蓮潭北三街２６０號","OBJECTID":592229},"geometry":{"x":178883.02634599991,"y":2557573.8435350042}},{"attributes":{"ID":592257,"DIS_CODE":0,"TOWNNAME":"善化區","LI":"小新里","LIN":"11鄰","STREET":"蓮潭北三街","SECT":" ","MAREA":" ","LANE":" ","ALLEY":" ","HOUSE_NO":"２６２號","E_COORD97":178877.09558600001,"N_COORD97":2557574.3727000002,"ADDRESS":"蓮潭北三街２６２號","OBJECTID":592230},"geometry":{"x":178877.09558600094,"y":2557574.3727010023}},{"attributes":{"ID":592258,"DIS_CODE":0,"TOWNNAME":"善化區","LI":"小新里","LIN":"11鄰","STREET":"蓮潭北三街","SECT":" ","MAREA":" ","LANE":" ","ALLEY":" ","HOUSE_NO":"２６６號","E_COORD97":178867.88172800001,"N_COORD97":2557574.0551999998,"ADDRESS":"蓮潭北三街２６６號","OBJECTID":592231},"geometry":{"x":178867.88172800094,"y":2557574.0552010015}},{"attributes":{"ID":592259,"DIS_CODE":0,"TOWNNAME":"中西區","LI":"文賢里","LIN":"11鄰","STREET":"和真街","SECT":" ","MAREA":" ","LANE":" ","ALLEY":" ","HOUSE_NO":"８５號","E_COORD97":166840.54000000001,"N_COORD97":2544638.0800000001,"ADDRESS":"和真街８５號","OBJECTID":592232},"geometry":{"x":166840.54000000097,"y":2544638.0800000019}},{"attributes":{"ID":592260,"DIS_CODE":0,"TOWNNAME":"中西區","LI":"保安里","LIN":"11鄰","STREET":"中正路","SECT":" ","MAREA":" ","LANE":" ","ALLEY":" ","HOUSE_NO":"２１１號","E_COORD97":167745.72,"N_COORD97":2543708.7599999998,"ADDRESS":"中正路２１１號","OBJECTID":592233},"geometry":{"x":167745.72000000067,"y":2543708.7599999998}},{"attributes":{"ID":592261,"DIS_CODE":0,"TOWNNAME":"中西區","LI":"保安里","LIN":"11鄰","STREET":"中正路","SECT":" ","MAREA":" ","LANE":" ","ALLEY":" ","HOUSE_NO":"２１３號","E_COORD97":167742.91,"N_COORD97":2543709.1299999999,"ADDRESS":"中正路２１３號","OBJECTID":592234},"geometry":{"x":167742.91000000201,"y":2543709.129999999}},{"attributes":{"ID":592262,"DIS_CODE":0,"TOWNNAME":"中西區","LI":"保安里","LIN":"11鄰","STREET":"中正路","SECT":" ","MAREA":" ","LANE":" ","ALLEY":" ","HOUSE_NO":"２１５號","E_COORD97":167738.60000000001,"N_COORD97":2543710.0699999998,"ADDRESS":"中正路２１５號","OBJECTID":592235},"geometry":{"x":167738.59999999963,"y":2543710.0700000022}},{"attributes":{"ID":592263,"DIS_CODE":0,"TOWNNAME":"中西區","LI":"保安里","LIN":"11鄰","STREET":"中正路","SECT":" ","MAREA":" ","LANE":" ","ALLEY":" ","HOUSE_NO":"２１９號","E_COORD97":167735.04999999999,"N_COORD97":2543711.5600000001,"ADDRESS":"中正路２１９號","OBJECTID":592236},"geometry":{"x":167735.05000000075,"y":2543711.5600000005}},{"attributes":{"ID":592264,"DIS_CODE":0,"TOWNNAME":"中西區","LI":"保安里","LIN":"11鄰","STREET":"中正路","SECT":" ","MAREA":" ","LANE":" ","ALLEY":" ","HOUSE_NO":"２２１號","E_COORD97":167730.37,"N_COORD97":2543711.3799999999,"ADDRESS":"中正路２２１號","OBJECTID":592237},"geometry":{"x":167730.37000000011,"y":2543711.379999999}},{"attributes":{"ID":592265,"DIS_CODE":0,"TOWNNAME":"中西區","LI":"保安里","LIN":"11鄰","STREET":"中正路","SECT":" ","MAREA":" ","LANE":" ","ALLEY":" ","HOUSE_NO":"２２３號","E_COORD97":167727.17999999999,"N_COORD97":2543711.9399999999,"ADDRESS":"中正路２２３號","OBJECTID":592238},"geometry":{"x":167727.18000000063,"y":2543711.9399999976}},{"attributes":{"ID":592266,"DIS_CODE":0,"TOWNNAME":"中西區","LI":"保安里","LIN":"11鄰","STREET":"中正路","SECT":" ","MAREA":" ","LANE":" ","ALLEY":" ","HOUSE_NO":"２３１號","E_COORD97":167723.63,"N_COORD97":2543712.3100000001,"ADDRESS":"中正路２３１號","OBJECTID":592239},"geometry":{"x":167723.62999999989,"y":2543712.3100000024}},{"attributes":{"ID":592267,"DIS_CODE":0,"TOWNNAME":"中西區","LI":"保安里","LIN":"11鄰","STREET":"中正路","SECT":" ","MAREA":" ","LANE":" ","ALLEY":" ","HOUSE_NO":"２３３號","E_COORD97":167721.01000000001,"N_COORD97":2543713.8100000001,"ADDRESS":"中正路２３３號","OBJECTID":592240},"geometry":{"x":167721.00999999978,"y":2543713.8100000005}},{"attributes":{"ID":592268,"DIS_CODE":0,"TOWNNAME":"中西區","LI":"保安里","LIN":"11鄰","STREET":"中正路","SECT":" ","MAREA":" ","LANE":" ","ALLEY":" ","HOUSE_NO":"２３５號","E_COORD97":167718.76000000001,"N_COORD97":2543714,"ADDRESS":"中正路２３５號","OBJECTID":592241},"geometry":{"x":167718.76000000071,"y":2543714.0000000019}},{"attributes":{"ID":592269,"DIS_CODE":0,"TOWNNAME":"中西區","LI":"保安里","LIN":"11鄰","STREET":"國華街","SECT":"二段","MAREA":" ","LANE":" ","ALLEY":" ","HOUSE_NO":"２０６號","E_COORD97":167716.79000000001,"N_COORD97":2543694.3700000001,"ADDRESS":"國華街二段２０６號","OBJECTID":592242},"geometry":{"x":167716.79000000097,"y":2543694.3700000029}},{"attributes":{"ID":592270,"DIS_CODE":0,"TOWNNAME":"中西區","LI":"保安里","LIN":"11鄰","STREET":"國華街","SECT":"二段","MAREA":" ","LANE":" ","ALLEY":" ","HOUSE_NO":"２０８號","E_COORD97":167713.17999999999,"N_COORD97":2543695.3799999999,"ADDRESS":"國華街二段２０８號","OBJECTID":592243},"geometry":{"x":167713.1799999997,"y":2543695.3800000008}},{"attributes":{"ID":592271,"DIS_CODE":0,"TOWNNAME":"中西區","LI":"保安里","LIN":"11鄰","STREET":"國華街","SECT":"二段","MAREA":" ","LANE":" ","ALLEY":" ","HOUSE_NO":"２１０號","E_COORD97":167715.92999999999,"N_COORD97":2543697.5499999998,"ADDRESS":"國華街二段２１０號","OBJECTID":592244},"geometry":{"x":167715.9299999997,"y":2543697.5500000007}},{"attributes":{"ID":592272,"DIS_CODE":0,"TOWNNAME":"中西區","LI":"保安里","LIN":"11鄰","STREET":"國華街","SECT":"二段","MAREA":" ","LANE":" ","ALLEY":" ","HOUSE_NO":"２１２號","E_COORD97":167717.66,"N_COORD97":2543700.5899999999,"ADDRESS":"國華街二段２１２號","OBJECTID":592245},"geometry":{"x":167717.66000000108,"y":2543700.5899999999}},{"attributes":{"ID":592273,"DIS_CODE":0,"TOWNNAME":"中西區","LI":"保安里","LIN":"11鄰","STREET":"國華街","SECT":"二段","MAREA":" ","LANE":" ","ALLEY":" ","HOUSE_NO":"２１４號","E_COORD97":167718.39000000001,"N_COORD97":2543704.0600000001,"ADDRESS":"國華街二段２１４號","OBJECTID":592246},"geometry":{"x":167718.38999999966,"y":2543704.0600000005}},{"attributes":{"ID":592274,"DIS_CODE":0,"TOWNNAME":"中西區","LI":"保安里","LIN":"11鄰","STREET":"中正路","SECT":" ","MAREA":" ","LANE":" ","ALLEY":" ","HOUSE_NO":"１９５號","E_COORD97":167765,"N_COORD97":2543702.7400000002,"ADDRESS":"中正路１９５號","OBJECTID":592247},"geometry":{"x":167765,"y":2543702.7400000002}},{"attributes":{"ID":592275,"DIS_CODE":0,"TOWNNAME":"中西區","LI":"保安里","LIN":"11鄰","STREET":"中正路","SECT":" ","MAREA":" ","LANE":" ","ALLEY":" ","HOUSE_NO":"１９７號","E_COORD97":167760.51000000001,"N_COORD97":2543705.73,"ADDRESS":"中正路１９７號","OBJECTID":592248},"geometry":{"x":167760.51000000164,"y":2543705.7300000023}},{"attributes":{"ID":592276,"DIS_CODE":0,"TOWNNAME":"中西區","LI":"保安里","LIN":"11鄰","STREET":"中正路","SECT":" ","MAREA":" ","LANE":" ","ALLEY":" ","HOUSE_NO":"２０１號","E_COORD97":167754.70999999999,"N_COORD97":2543705.73,"ADDRESS":"中正路２０１號","OBJECTID":592249},"geometry":{"x":167754.71000000089,"y":2543705.7300000023}},{"attributes":{"ID":592277,"DIS_CODE":0,"TOWNNAME":"中西區","LI":"保安里","LIN":"11鄰","STREET":"中正路","SECT":" ","MAREA":" ","LANE":" ","ALLEY":" ","HOUSE_NO":"２０３號","E_COORD97":167753.20999999999,"N_COORD97":2543706.48,"ADDRESS":"中正路２０３號","OBJECTID":592250},"geometry":{"x":167753.21000000089,"y":2543706.4800000023}},{"attributes":{"ID":592278,"DIS_CODE":0,"TOWNNAME":"中西區","LI":"文賢里","LIN":"11鄰","STREET":"文和街","SECT":" ","MAREA":" ","LANE":" ","ALLEY":" ","HOUSE_NO":"２０３號","E_COORD97":166848.81,"N_COORD97":2544609.98,"ADDRESS":"文和街２０３號","OBJECTID":592251},"geometry":{"x":166848.80999999959,"y":2544609.9800000004}},{"attributes":{"ID":592279,"DIS_CODE":0,"TOWNNAME":"中西區","LI":"文賢里","LIN":"11鄰","STREET":"文和街","SECT":" ","MAREA":" ","LANE":" ","ALLEY":" ","HOUSE_NO":"２１６號之２","E_COORD97":166834.23000000001,"N_COORD97":2544620.6099999999,"ADDRESS":"文和街２１６號之２","OBJECTID":592252},"geometry":{"x":166834.23000000138,"y":2544620.6100000013}},{"attributes":{"ID":592280,"DIS_CODE":0,"TOWNNAME":"中西區","LI":"文賢里","LIN":"11鄰","STREET":"文和街","SECT":" ","MAREA":" ","LANE":" ","ALLEY":" ","HOUSE_NO":"２１６號之３","E_COORD97":166829.23999999999,"N_COORD97":2544617.75,"ADDRESS":"文和街２１６號之３","OBJECTID":592253},"geometry":{"x":166829.24000000115,"y":2544617.75}},{"attributes":{"ID":592281,"DIS_CODE":0,"TOWNNAME":"中西區","LI":"文賢里","LIN":"11鄰","STREET":"文和街","SECT":" ","MAREA":" ","LANE":" ","ALLEY":" ","HOUSE_NO":"２１８號","E_COORD97":166826.07000000001,"N_COORD97":2544615.3100000001,"ADDRESS":"文和街２１８號","OBJECTID":592254},"geometry":{"x":166826.0700000003,"y":2544615.3100000005}},{"attributes":{"ID":592282,"DIS_CODE":0,"TOWNNAME":"中西區","LI":"文賢里","LIN":"11鄰","STREET":"文和街","SECT":" ","MAREA":" ","LANE":" ","ALLEY":" ","HOUSE_NO":"２２０號","E_COORD97":166822.26999999999,"N_COORD97":2544613.27,"ADDRESS":"文和街２２０號","OBJECTID":592255},"geometry":{"x":166822.26999999955,"y":2544613.2700000014}},{"attributes":{"ID":592283,"DIS_CODE":0,"TOWNNAME":"中西區","LI":"文賢里","LIN":"11鄰","STREET":"文和街","SECT":" ","MAREA":" ","LANE":" ","ALLEY":" ","HOUSE_NO":"２２２號","E_COORD97":166818.78,"N_COORD97":2544610.1200000001,"ADDRESS":"文和街２２２號","OBJECTID":592256},"geometry":{"x":166818.78000000119,"y":2544610.120000001}},{"attributes":{"ID":592284,"DIS_CODE":0,"TOWNNAME":"中西區","LI":"文賢里","LIN":"11鄰","STREET":"文和街","SECT":" ","MAREA":" ","LANE":" ","ALLEY":" ","HOUSE_NO":"２２４號","E_COORD97":166813.79000000001,"N_COORD97":2544607.46,"ADDRESS":"文和街２２４號","OBJECTID":592257},"geometry":{"x":166813.79000000004,"y":2544607.4600000009}},{"attributes":{"ID":592285,"DIS_CODE":0,"TOWNNAME":"中西區","LI":"文賢里","LIN":"11鄰","STREET":"文和街","SECT":" ","MAREA":" ","LANE":" ","ALLEY":" ","HOUSE_NO":"２２６號","E_COORD97":166811.29999999999,"N_COORD97":2544605.4700000002,"ADDRESS":"文和街２２６號","OBJECTID":592258},"geometry":{"x":166811.30000000075,"y":2544605.4700000025}},{"attributes":{"ID":592286,"DIS_CODE":0,"TOWNNAME":"中西區","LI":"文賢里","LIN":"11鄰","STREET":"文和街","SECT":" ","MAREA":" ","LANE":" ","ALLEY":" ","HOUSE_NO":"２２８號","E_COORD97":166807.14999999999,"N_COORD97":2544602.98,"ADDRESS":"文和街２２８號","OBJECTID":592259},"geometry":{"x":166807.15000000037,"y":2544602.9800000004}},{"attributes":{"ID":592287,"DIS_CODE":0,"TOWNNAME":"中西區","LI":"文賢里","LIN":"11鄰","STREET":"文和街","SECT":" ","MAREA":" ","LANE":" ","ALLEY":" ","HOUSE_NO":"２３０號","E_COORD97":166802.82999999999,"N_COORD97":2544599.8300000001,"ADDRESS":"文和街２３０號","OBJECTID":592260},"geometry":{"x":166802.83000000101,"y":2544599.8300000019}},{"attributes":{"ID":592288,"DIS_CODE":0,"TOWNNAME":"中西區","LI":"文賢里","LIN":"11鄰","STREET":"文和街","SECT":" ","MAREA":" ","LANE":" ","ALLEY":" ","HOUSE_NO":"２３２號","E_COORD97":166799.84,"N_COORD97":2544597.6800000002,"ADDRESS":"文和街２３２號","OBJECTID":592261},"geometry":{"x":166799.83999999985,"y":2544597.6799999997}},{"attributes":{"ID":592289,"DIS_CODE":0,"TOWNNAME":"中西區","LI":"文賢里","LIN":"11鄰","STREET":"文和街","SECT":" ","MAREA":" ","LANE":" ","ALLEY":" ","HOUSE_NO":"２３３號","E_COORD97":166794.41,"N_COORD97":2544572.8500000001,"ADDRESS":"文和街２３３號","OBJECTID":592262},"geometry":{"x":166794.41000000015,"y":2544572.8499999996}},{"attributes":{"ID":592290,"DIS_CODE":0,"TOWNNAME":"中西區","LI":"文賢里","LIN":"11鄰","STREET":"文和街","SECT":" ","MAREA":" ","LANE":" ","ALLEY":" ","HOUSE_NO":"２３４號","E_COORD97":166795.67999999999,"N_COORD97":2544595.8500000001,"ADDRESS":"文和街２３４號","OBJECTID":592263},"geometry":{"x":166795.6799999997,"y":2544595.8500000015}},{"attributes":{"ID":592291,"DIS_CODE":0,"TOWNNAME":"中西區","LI":"文賢里","LIN":"11鄰","STREET":"文和街","SECT":" ","MAREA":" ","LANE":" ","ALLEY":" ","HOUSE_NO":"２３５號","E_COORD97":166790.85000000001,"N_COORD97":2544569.8300000001,"ADDRESS":"文和街２３５號","OBJECTID":592264},"geometry":{"x":166790.84999999963,"y":2544569.8300000001}},{"attributes":{"ID":592292,"DIS_CODE":0,"TOWNNAME":"中西區","LI":"文賢里","LIN":"11鄰","STREET":"文和街","SECT":" ","MAREA":" ","LANE":" ","ALLEY":" ","HOUSE_NO":"２４０號","E_COORD97":166788.32000000001,"N_COORD97":2544590.04,"ADDRESS":"文和街２４０號","OBJECTID":592265},"geometry":{"x":166788.32000000123,"y":2544590.040000001}},{"attributes":{"ID":592293,"DIS_CODE":0,"TOWNNAME":"中西區","LI":"文賢里","LIN":"11鄰","STREET":"文和街","SECT":" ","MAREA":" ","LANE":" ","ALLEY":" ","HOUSE_NO":"２４２號","E_COORD97":166784.17000000001,"N_COORD97":2544585.8900000001,"ADDRESS":"文和街２４２號","OBJECTID":592266},"geometry":{"x":166784.16999999993,"y":2544585.8900000025}},{"attributes":{"ID":592294,"DIS_CODE":0,"TOWNNAME":"中西區","LI":"文賢里","LIN":"11鄰","STREET":"文和街","SECT":" ","MAREA":" ","LANE":" ","ALLEY":" ","HOUSE_NO":"２４４號","E_COORD97":166781.01000000001,"N_COORD97":2544583.8999999999,"ADDRESS":"文和街２４４號","OBJECTID":592267},"geometry":{"x":166781.01000000071,"y":2544583.9000000004}},{"attributes":{"ID":592295,"DIS_CODE":0,"TOWNNAME":"中西區","LI":"文賢里","LIN":"11鄰","STREET":"文和街","SECT":" ","MAREA":" ","LANE":" ","ALLEY":" ","HOUSE_NO":"２４６號","E_COORD97":166777.85999999999,"N_COORD97":2544581.7400000002,"ADDRESS":"文和街２４６號","OBJECTID":592268},"geometry":{"x":166777.86000000127,"y":2544581.7400000002}},{"attributes":{"ID":592296,"DIS_CODE":0,"TOWNNAME":"中西區","LI":"文賢里","LIN":"11鄰","STREET":"文和街","SECT":" ","MAREA":" ","LANE":" ","ALLEY":" ","HOUSE_NO":"２４６號之１","E_COORD97":166772.37,"N_COORD97":2544578.9199999999,"ADDRESS":"文和街２４６號之１","OBJECTID":592269},"geometry":{"x":166772.37000000104,"y":2544578.9200000018}},{"attributes":{"ID":592297,"DIS_CODE":0,"TOWNNAME":"中西區","LI":"文賢里","LIN":"11鄰","STREET":"西和路","SECT":" ","MAREA":" ","LANE":" ","ALLEY":" ","HOUSE_NO":"１０１號","E_COORD97":166847.14999999999,"N_COORD97":2544590.5699999998,"ADDRESS":"西和路１０１號","OBJECTID":592270},"geometry":{"x":166847.1500000013,"y":2544590.5700000022}},{"attributes":{"ID":592298,"DIS_CODE":0,"TOWNNAME":"中西區","LI":"文賢里","LIN":"11鄰","STREET":"西和路","SECT":" ","MAREA":" ","LANE":" ","ALLEY":" ","HOUSE_NO":"１０３號","E_COORD97":166850.67999999999,"N_COORD97":2544593.3500000001,"ADDRESS":"西和路１０３號","OBJECTID":592271},"geometry":{"x":166850.68000000063,"y":2544593.3499999996}},{"attributes":{"ID":592299,"DIS_CODE":0,"TOWNNAME":"中西區","LI":"文賢里","LIN":"11鄰","STREET":"西和路","SECT":" ","MAREA":" ","LANE":" ","ALLEY":" ","HOUSE_NO":"１０５號","E_COORD97":166863.34,"N_COORD97":2544603.04,"ADDRESS":"西和路１０５號","OBJECTID":592272},"geometry":{"x":166863.34000000078,"y":2544603.0400000028}},{"attributes":{"ID":592300,"DIS_CODE":0,"TOWNNAME":"中西區","LI":"文賢里","LIN":"11鄰","STREET":"西和路","SECT":" ","MAREA":" ","LANE":" ","ALLEY":" ","HOUSE_NO":"７３號","E_COORD97":166798.56,"N_COORD97":2544548.5,"ADDRESS":"西和路７３號","OBJECTID":592273},"geometry":{"x":166798.55999999866,"y":2544548.5}},{"attributes":{"ID":592301,"DIS_CODE":0,"TOWNNAME":"中西區","LI":"文賢里","LIN":"11鄰","STREET":"西和路","SECT":" ","MAREA":" ","LANE":" ","ALLEY":" ","HOUSE_NO":"７９號","E_COORD97":166808.32999999999,"N_COORD97":2544557.73,"ADDRESS":"西和路７９號","OBJECTID":592274},"geometry":{"x":166808.33000000101,"y":2544557.7300000004}},{"attributes":{"ID":592302,"DIS_CODE":0,"TOWNNAME":"中西區","LI":"文賢里","LIN":"11鄰","STREET":"西和路","SECT":" ","MAREA":" ","LANE":" ","ALLEY":" ","HOUSE_NO":"８１號","E_COORD97":166811.89000000001,"N_COORD97":2544561.2799999998,"ADDRESS":"西和路８１號","OBJECTID":592275},"geometry":{"x":166811.89000000153,"y":2544561.2800000012}},{"attributes":{"ID":592303,"DIS_CODE":0,"TOWNNAME":"中西區","LI":"文賢里","LIN":"11鄰","STREET":"西和路","SECT":" ","MAREA":" ","LANE":" ","ALLEY":" ","HOUSE_NO":"８３號","E_COORD97":166817.04000000001,"N_COORD97":2544563.0499999998,"ADDRESS":"西和路８３號","OBJECTID":592276},"geometry":{"x":166817.04000000097,"y":2544563.0500000007}},{"attributes":{"ID":592304,"DIS_CODE":0,"TOWNNAME":"中西區","LI":"文賢里","LIN":"11鄰","STREET":"西和路","SECT":" ","MAREA":" ","LANE":" ","ALLEY":" ","HOUSE_NO":"８７號","E_COORD97":166823.26000000001,"N_COORD97":2544569.4399999999,"ADDRESS":"西和路８７號","OBJECTID":592277},"geometry":{"x":166823.26000000071,"y":2544569.4399999995}},{"attributes":{"ID":592305,"DIS_CODE":0,"TOWNNAME":"中西區","LI":"文賢里","LIN":"11鄰","STREET":"西和路","SECT":" ","MAREA":" ","LANE":" ","ALLEY":" ","HOUSE_NO":"８９號","E_COORD97":166827.04000000001,"N_COORD97":2544572.0899999999,"ADDRESS":"西和路８９號","OBJECTID":592278},"geometry":{"x":166827.04000000097,"y":2544572.0899999999}},{"attributes":{"ID":592306,"DIS_CODE":0,"TOWNNAME":"中西區","LI":"文賢里","LIN":"11鄰","STREET":"西和路","SECT":" ","MAREA":" ","LANE":" ","ALLEY":" ","HOUSE_NO":"９３號","E_COORD97":166833,"N_COORD97":2544578.3300000001,"ADDRESS":"西和路９３號","OBJECTID":592279},"geometry":{"x":166833,"y":2544578.3300000038}},{"attributes":{"ID":592307,"DIS_CODE":0,"TOWNNAME":"中西區","LI":"文賢里","LIN":"11鄰","STREET":"西和路","SECT":" ","MAREA":" ","LANE":" ","ALLEY":" ","HOUSE_NO":"９５號","E_COORD97":166836.91,"N_COORD97":2544580.98,"ADDRESS":"西和路９５號","OBJECTID":592280},"geometry":{"x":166836.91000000015,"y":2544580.9800000042}},{"attributes":{"ID":592308,"DIS_CODE":0,"TOWNNAME":"中西區","LI":"文賢里","LIN":"11鄰","STREET":"西和路","SECT":" ","MAREA":" ","LANE":" ","ALLEY":" ","HOUSE_NO":"９７號","E_COORD97":166840.20000000001,"N_COORD97":2544584.1400000001,"ADDRESS":"西和路９７號","OBJECTID":592281},"geometry":{"x":166840.20000000019,"y":2544584.1400000025}},{"attributes":{"ID":592309,"DIS_CODE":0,"TOWNNAME":"中西區","LI":"文賢里","LIN":"11鄰","STREET":"西和路","SECT":" ","MAREA":" ","LANE":" ","ALLEY":" ","HOUSE_NO":"９９號","E_COORD97":166843.23000000001,"N_COORD97":2544587.29,"ADDRESS":"西和路９９號","OBJECTID":592282},"geometry":{"x":166843.23000000138,"y":2544587.2899999972}},{"attributes":{"ID":592310,"DIS_CODE":0,"TOWNNAME":"中西區","LI":"文賢里","LIN":"11鄰","STREET":"和真街","SECT":" ","MAREA":" ","LANE":" ","ALLEY":" ","HOUSE_NO":"７３號","E_COORD97":166861.63,"N_COORD97":2544606.8100000001,"ADDRESS":"和真街７３號","OBJECTID":592283},"geometry":{"x":166861.63000000082,"y":2544606.8100000024}},{"attributes":{"ID":592311,"DIS_CODE":0,"TOWNNAME":"中西區","LI":"文賢里","LIN":"11鄰","STREET":"和真街","SECT":" ","MAREA":" ","LANE":" ","ALLEY":" ","HOUSE_NO":"７７號","E_COORD97":166859.57000000001,"N_COORD97":2544612.98,"ADDRESS":"和真街７７號","OBJECTID":592284},"geometry":{"x":166859.5700000003,"y":2544612.9800000023}},{"attributes":{"ID":592312,"DIS_CODE":0,"TOWNNAME":"中西區","LI":"文賢里","LIN":"11鄰","STREET":"和真街","SECT":" ","MAREA":" ","LANE":" ","ALLEY":" ","HOUSE_NO":"７９號","E_COORD97":166845.39000000001,"N_COORD97":2544626.4199999999,"ADDRESS":"和真街７９號","OBJECTID":592285},"geometry":{"x":166845.38999999966,"y":2544626.4200000018}},{"attributes":{"ID":592313,"DIS_CODE":0,"TOWNNAME":"中西區","LI":"文賢里","LIN":"11鄰","STREET":"和真街","SECT":" ","MAREA":" ","LANE":" ","ALLEY":" ","HOUSE_NO":"９１號","E_COORD97":166831.72,"N_COORD97":2544650.0899999999,"ADDRESS":"和真街９１號","OBJECTID":592286},"geometry":{"x":166831.7200000016,"y":2544650.0899999999}},{"attributes":{"ID":592314,"DIS_CODE":0,"TOWNNAME":"中西區","LI":"文賢里","LIN":"11鄰","STREET":"和真街","SECT":" ","MAREA":" ","LANE":" ","ALLEY":" ","HOUSE_NO":"９３號","E_COORD97":166827.87,"N_COORD97":2544653.9300000002,"ADDRESS":"和真街９３號","OBJECTID":592287},"geometry":{"x":166827.87000000104,"y":2544653.9299999997}},{"attributes":{"ID":592315,"DIS_CODE":0,"TOWNNAME":"中西區","LI":"西賢里","LIN":"11鄰","STREET":"西賢街","SECT":" ","MAREA":" ","LANE":" ","ALLEY":" ","HOUSE_NO":"１１１號","E_COORD97":165814.32999999999,"N_COORD97":2544762.21,"ADDRESS":"西賢街１１１號","OBJECTID":592288},"geometry":{"x":165814.33000000101,"y":2544762.2100000009}},{"attributes":{"ID":592316,"DIS_CODE":0,"TOWNNAME":"中西區","LI":"西賢里","LIN":"11鄰","STREET":"西賢街","SECT":" ","MAREA":" ","LANE":" ","ALLEY":" ","HOUSE_NO":"１１３號","E_COORD97":165813.95000000001,"N_COORD97":2544768.3100000001,"ADDRESS":"西賢街１１３號","OBJECTID":592289},"geometry":{"x":165813.95000000112,"y":2544768.3099999987}},{"attributes":{"ID":592317,"DIS_CODE":0,"TOWNNAME":"中西區","LI":"西賢里","LIN":"11鄰","STREET":"西賢街","SECT":" ","MAREA":" ","LANE":" ","ALLEY":" ","HOUSE_NO":"１１５號","E_COORD97":165813.57000000001,"N_COORD97":2544773.6400000001,"ADDRESS":"西賢街１１５號","OBJECTID":592290},"geometry":{"x":165813.57000000123,"y":2544773.6400000025}},{"attributes":{"ID":592318,"DIS_CODE":0,"TOWNNAME":"中西區","LI":"西賢里","LIN":"11鄰","STREET":"西賢街","SECT":" ","MAREA":" ","LANE":" ","ALLEY":" ","HOUSE_NO":"１１７號","E_COORD97":165813.82000000001,"N_COORD97":2544778.8500000001,"ADDRESS":"西賢街１１７號","OBJECTID":592291},"geometry":{"x":165813.8200000003,"y":2544778.8500000015}},{"attributes":{"ID":592319,"DIS_CODE":0,"TOWNNAME":"中西區","LI":"西賢里","LIN":"11鄰","STREET":"西賢街","SECT":" ","MAREA":" ","LANE":" ","ALLEY":" ","HOUSE_NO":"１１９號","E_COORD97":165801.95999999999,"N_COORD97":2544784.02,"ADDRESS":"西賢街１１９號","OBJECTID":592292},"geometry":{"x":165801.96000000089,"y":2544784.0200000014}},{"attributes":{"ID":592320,"DIS_CODE":0,"TOWNNAME":"中西區","LI":"西賢里","LIN":"11鄰","STREET":"西賢街","SECT":" ","MAREA":" ","LANE":" ","ALLEY":" ","HOUSE_NO":"１２１號","E_COORD97":165810.45000000001,"N_COORD97":2544784.1699999999,"ADDRESS":"西賢街１２１號","OBJECTID":592293},"geometry":{"x":165810.45000000112,"y":2544784.1699999999}},{"attributes":{"ID":592321,"DIS_CODE":0,"TOWNNAME":"中西區","LI":"西賢里","LIN":"11鄰","STREET":"西賢街","SECT":" ","MAREA":" ","LANE":" ","ALLEY":" ","HOUSE_NO":"１３３號","E_COORD97":165803.32999999999,"N_COORD97":2544804.25,"ADDRESS":"西賢街１３３號","OBJECTID":592294},"geometry":{"x":165803.33000000007,"y":2544804.25}},{"attributes":{"ID":592322,"DIS_CODE":0,"TOWNNAME":"新市區","LI":"新市里","LIN":"11鄰","STREET":"中正路","SECT":" ","MAREA":" ","LANE":" ","ALLEY":" ","HOUSE_NO":"３２６號","E_COORD97":177536.62,"N_COORD97":2553195.5,"ADDRESS":"中正路３２６號","OBJECTID":592295},"geometry":{"x":177536.62000000104,"y":2553195.5000000019}},{"attributes":{"ID":592323,"DIS_CODE":0,"TOWNNAME":"新市區","LI":"新市里","LIN":"11鄰","STREET":"中正路","SECT":" ","MAREA":" ","LANE":" ","ALLEY":" ","HOUSE_NO":"３５８號","E_COORD97":177604.51000000001,"N_COORD97":2553224.25,"ADDRESS":"中正路３５８號","OBJECTID":592296},"geometry":{"x":177604.51000000071,"y":2553224.2500000037}},{"attributes":{"ID":592324,"DIS_CODE":0,"TOWNNAME":"東區","LI":"崇善里","LIN":"11鄰","STREET":"崇善八街","SECT":" ","MAREA":" ","LANE":" ","ALLEY":" ","HOUSE_NO":"５６號","E_COORD97":171198.04000000001,"N_COORD97":2541416.54,"ADDRESS":"崇善八街５６號","OBJECTID":592297},"geometry":{"x":171198.04000000004,"y":2541416.540000001}},{"attributes":{"ID":592325,"DIS_CODE":0,"TOWNNAME":"東區","LI":"崇善里","LIN":"11鄰","STREET":"崇善八街","SECT":" ","MAREA":" ","LANE":" ","ALLEY":" ","HOUSE_NO":"１０號","E_COORD97":171095.34,"N_COORD97":2541364.6600000001,"ADDRESS":"崇善八街１０號","OBJECTID":592298},"geometry":{"x":171095.33999999985,"y":2541364.6600000001}},{"attributes":{"ID":592326,"DIS_CODE":0,"TOWNNAME":"東區","LI":"崇善里","LIN":"11鄰","STREET":"崇善八街","SECT":" ","MAREA":" ","LANE":" ","ALLEY":" ","HOUSE_NO":"２６號","E_COORD97":171130.29000000001,"N_COORD97":2541382.5,"ADDRESS":"崇善八街２６號","OBJECTID":592299},"geometry":{"x":171130.29000000004,"y":2541382.5}},{"attributes":{"ID":592327,"DIS_CODE":0,"TOWNNAME":"東區","LI":"崇善里","LIN":"11鄰","STREET":"崇善八街","SECT":" ","MAREA":" ","LANE":" ","ALLEY":" ","HOUSE_NO":"２８號","E_COORD97":171134.76999999999,"N_COORD97":2541385.4500000002,"ADDRESS":"崇善八街２８號","OBJECTID":592300},"geometry":{"x":171134.76999999955,"y":2541385.4499999993}},{"attributes":{"ID":592328,"DIS_CODE":0,"TOWNNAME":"東區","LI":"崇善里","LIN":"11鄰","STREET":"崇善八街","SECT":" ","MAREA":" ","LANE":" ","ALLEY":" ","HOUSE_NO":"２號","E_COORD97":171078.35000000001,"N_COORD97":2541357.1099999999,"ADDRESS":"崇善八街２號","OBJECTID":592301},"geometry":{"x":171078.34999999963,"y":2541357.1099999994}},{"attributes":{"ID":592329,"DIS_CODE":0,"TOWNNAME":"東區","LI":"崇善里","LIN":"11鄰","STREET":"崇善八街","SECT":" ","MAREA":" ","LANE":" ","ALLEY":" ","HOUSE_NO":"３２號","E_COORD97":171142.41,"N_COORD97":2541390.1299999999,"ADDRESS":"崇善八街３２號","OBJECTID":592302},"geometry":{"x":171142.41000000108,"y":2541390.129999999}},{"attributes":{"ID":592330,"DIS_CODE":0,"TOWNNAME":"東區","LI":"崇善里","LIN":"11鄰","STREET":"崇善八街","SECT":" ","MAREA":" ","LANE":" ","ALLEY":" ","HOUSE_NO":"５２號","E_COORD97":171189.51000000001,"N_COORD97":2541410.46,"ADDRESS":"崇善八街５２號","OBJECTID":592303},"geometry":{"x":171189.50999999978,"y":2541410.4600000009}},{"attributes":{"ID":592331,"DIS_CODE":0,"TOWNNAME":"東區","LI":"崇善里","LIN":"11鄰","STREET":"崇善八街","SECT":" ","MAREA":" ","LANE":" ","ALLEY":" ","HOUSE_NO":"５４號","E_COORD97":171193.47,"N_COORD97":2541415.02,"ADDRESS":"崇善八街５４號","OBJECTID":592304},"geometry":{"x":171193.4700000016,"y":2541415.0199999996}},{"attributes":{"ID":592332,"DIS_CODE":0,"TOWNNAME":"東區","LI":"崇善里","LIN":"11鄰","STREET":"崇善八街","SECT":" ","MAREA":" ","LANE":" ","ALLEY":" ","HOUSE_NO":"８號","E_COORD97":171091.75,"N_COORD97":2541363.3399999999,"ADDRESS":"崇善八街８號","OBJECTID":592305},"geometry":{"x":171091.75000000186,"y":2541363.3399999999}},{"attributes":{"ID":592333,"DIS_CODE":0,"TOWNNAME":"新市區","LI":"新和里","LIN":"11鄰","STREET":"仁愛街","SECT":" ","MAREA":" ","LANE":" ","ALLEY":" ","HOUSE_NO":"１３２號","E_COORD97":177562.09,"N_COORD97":2552554.7799999998,"ADDRESS":"仁愛街１３２號","OBJECTID":592306},"geometry":{"x":177562.09000000078,"y":2552554.7799999993}},{"attributes":{"ID":592334,"DIS_CODE":0,"TOWNNAME":"永康區","LI":"大橋里","LIN":"11鄰","STREET":"大橋二街","SECT":" ","MAREA":" ","LANE":" ","ALLEY":" ","HOUSE_NO":"１４５號","E_COORD97":170913.48999999999,"N_COORD97":2546676.9900000002,"ADDRESS":"大橋二街１４５號","OBJECTID":592307},"geometry":{"x":170913.49000000022,"y":2546676.9900000021}},{"attributes":{"ID":592335,"DIS_CODE":0,"TOWNNAME":"永康區","LI":"大灣里","LIN":"11鄰","STREET":"大灣路","SECT":" ","MAREA":" ","LANE":" ","ALLEY":" ","HOUSE_NO":"２５４號","E_COORD97":174959.95999999999,"N_COORD97":2545342.9300000002,"ADDRESS":"大灣路２５４號","OBJECTID":592308},"geometry":{"x":174959.95999999996,"y":2545342.9299999997}},{"attributes":{"ID":592336,"DIS_CODE":0,"TOWNNAME":"永康區","LI":"大橋里","LIN":"11鄰","STREET":"大橋二街","SECT":" ","MAREA":" ","LANE":" ","ALLEY":" ","HOUSE_NO":"１５７號","E_COORD97":170934.81,"N_COORD97":2546690.4900000002,"ADDRESS":"大橋二街１５７號","OBJECTID":592309},"geometry":{"x":170934.80999999866,"y":2546690.4900000021}},{"attributes":{"ID":592337,"DIS_CODE":0,"TOWNNAME":"永康區","LI":"大橋里","LIN":"11鄰","STREET":"大橋二街","SECT":" ","MAREA":" ","LANE":" ","ALLEY":" ","HOUSE_NO":"１４３號","E_COORD97":170906.54000000001,"N_COORD97":2546672.2400000002,"ADDRESS":"大橋二街１４３號","OBJECTID":592310},"geometry":{"x":170906.54000000004,"y":2546672.2400000021}},{"attributes":{"ID":592338,"DIS_CODE":0,"TOWNNAME":"永康區","LI":"大橋里","LIN":"11鄰","STREET":"大橋二街","SECT":" ","MAREA":" ","LANE":" ","ALLEY":" ","HOUSE_NO":"１６５號","E_COORD97":170948.81,"N_COORD97":2546699.4900000002,"ADDRESS":"大橋二街１６５號","OBJECTID":592311},"geometry":{"x":170948.81000000052,"y":2546699.4900000039}},{"attributes":{"ID":592339,"DIS_CODE":0,"TOWNNAME":"永康區","LI":"大橋里","LIN":"11鄰","STREET":"大橋二街","SECT":" ","MAREA":" ","LANE":" ","ALLEY":" ","HOUSE_NO":"１５５號","E_COORD97":170931.39999999999,"N_COORD97":2546688.2400000002,"ADDRESS":"大橋二街１５５號","OBJECTID":592312},"geometry":{"x":170931.40000000037,"y":2546688.2400000021}},{"attributes":{"ID":592340,"DIS_CODE":0,"TOWNNAME":"永康區","LI":"大橋里","LIN":"11鄰","STREET":"大橋二街","SECT":" ","MAREA":" ","LANE":" ","ALLEY":" ","HOUSE_NO":"１８３號","E_COORD97":170980.41,"N_COORD97":2546720,"ADDRESS":"大橋二街１８３號","OBJECTID":592313},"geometry":{"x":170980.41000000015,"y":2546720.0000000019}},{"attributes":{"ID":592341,"DIS_CODE":0,"TOWNNAME":"永康區","LI":"大橋里","LIN":"11鄰","STREET":"大橋二街","SECT":" ","MAREA":" ","LANE":" ","ALLEY":" ","HOUSE_NO":"１３９號之４","E_COORD97":170886.95000000001,"N_COORD97":2546658.2999999998,"ADDRESS":"大橋二街１３９號之４","OBJECTID":592314},"geometry":{"x":170886.95000000019,"y":2546658.3000000026}},{"attributes":{"ID":592342,"DIS_CODE":0,"TOWNNAME":"永康區","LI":"三民里","LIN":"11鄰","STREET":"和平路","SECT":" ","MAREA":" ","LANE":" ","ALLEY":" ","HOUSE_NO":"２６４號","E_COORD97":174757.23999999999,"N_COORD97":2550840.2400000002,"ADDRESS":"和平路２６４號","OBJECTID":592315},"geometry":{"x":174757.24000000115,"y":2550840.2400000002}},{"attributes":{"ID":592343,"DIS_CODE":0,"TOWNNAME":"永康區","LI":"大橋里","LIN":"11鄰","STREET":"大橋二街","SECT":" ","MAREA":" ","LANE":" ","ALLEY":" ","HOUSE_NO":"１７１號","E_COORD97":170959.54999999999,"N_COORD97":2546706.4900000002,"ADDRESS":"大橋二街１７１號","OBJECTID":592316},"geometry":{"x":170959.55000000075,"y":2546706.4900000039}},{"attributes":{"ID":592344,"DIS_CODE":0,"TOWNNAME":"永康區","LI":"大橋里","LIN":"11鄰","STREET":"大橋二街","SECT":" ","MAREA":" ","LANE":" ","ALLEY":" ","HOUSE_NO":"１８１號","E_COORD97":170976.89999999999,"N_COORD97":2546717.5,"ADDRESS":"大橋二街１８１號","OBJECTID":592317},"geometry":{"x":170976.90000000037,"y":2546717.5000000019}},{"attributes":{"ID":592345,"DIS_CODE":0,"TOWNNAME":"永康區","LI":"大灣里","LIN":"11鄰","STREET":"大灣路","SECT":" ","MAREA":" ","LANE":" ","ALLEY":" ","HOUSE_NO":"２６４號","E_COORD97":174954.56,"N_COORD97":2545333.1299999999,"ADDRESS":"大灣路２６４號","OBJECTID":592318},"geometry":{"x":174954.56000000052,"y":2545333.129999999}},{"attributes":{"ID":592346,"DIS_CODE":0,"TOWNNAME":"永康區","LI":"大橋里","LIN":"11鄰","STREET":"大橋二街","SECT":" ","MAREA":" ","LANE":" ","ALLEY":" ","HOUSE_NO":"１５１號","E_COORD97":170925.79000000001,"N_COORD97":2546685.7400000002,"ADDRESS":"大橋二街１５１號","OBJECTID":592319},"geometry":{"x":170925.79000000097,"y":2546685.7400000021}},{"attributes":{"ID":592347,"DIS_CODE":0,"TOWNNAME":"永康區","LI":"大橋里","LIN":"11鄰","STREET":"大橋二街","SECT":" ","MAREA":" ","LANE":" ","ALLEY":" ","HOUSE_NO":"１４１號之１","E_COORD97":170905.20999999999,"N_COORD97":2546670.04,"ADDRESS":"大橋二街１４１號之１","OBJECTID":592320},"geometry":{"x":170905.20999999996,"y":2546670.0399999991}},{"attributes":{"ID":592348,"DIS_CODE":0,"TOWNNAME":"永康區","LI":"大橋里","LIN":"11鄰","STREET":"大橋二街","SECT":" ","MAREA":" ","LANE":" ","ALLEY":" ","HOUSE_NO":"１８５號","E_COORD97":170983.87,"N_COORD97":2546722.25,"ADDRESS":"大橋二街１８５號","OBJECTID":592321},"geometry":{"x":170983.87000000011,"y":2546722.2500000019}},{"attributes":{"ID":592349,"DIS_CODE":0,"TOWNNAME":"永康區","LI":"五王里","LIN":"11鄰","STREET":"中山東路","SECT":" ","MAREA":" ","LANE":" ","ALLEY":" ","HOUSE_NO":"２６８號","E_COORD97":171797.92999999999,"N_COORD97":2545659.8900000001,"ADDRESS":"中山東路２６８號","OBJECTID":592322},"geometry":{"x":171797.93000000063,"y":2545659.8900000043}},{"attributes":{"ID":592350,"DIS_CODE":0,"TOWNNAME":"永康區","LI":"五王里","LIN":"11鄰","STREET":"中山東路","SECT":" ","MAREA":" ","LANE":" ","ALLEY":" ","HOUSE_NO":"２４６號","E_COORD97":171788.70000000001,"N_COORD97":2545696.3999999999,"ADDRESS":"中山東路２４６號","OBJECTID":592323},"geometry":{"x":171788.70000000019,"y":2545696.4000000004}},{"attributes":{"ID":592351,"DIS_CODE":0,"TOWNNAME":"永康區","LI":"五王里","LIN":"11鄰","STREET":"中山東路","SECT":" ","MAREA":" ","LANE":" ","ALLEY":" ","HOUSE_NO":"２２０號","E_COORD97":171778.70999999999,"N_COORD97":2545737.3900000001,"ADDRESS":"中山東路２２０號","OBJECTID":592324},"geometry":{"x":171778.71000000089,"y":2545737.3900000006}},{"attributes":{"ID":592352,"DIS_CODE":0,"TOWNNAME":"永康區","LI":"五王里","LIN":"11鄰","STREET":"中山東路","SECT":" ","MAREA":" ","LANE":" ","ALLEY":" ","HOUSE_NO":"２５８號","E_COORD97":171793.82999999999,"N_COORD97":2545676.1400000001,"ADDRESS":"中山東路２５８號","OBJECTID":592325},"geometry":{"x":171793.83000000101,"y":2545676.1400000025}},{"attributes":{"ID":592353,"DIS_CODE":0,"TOWNNAME":"永康區","LI":"中興里","LIN":"11鄰","STREET":"中興街","SECT":" ","MAREA":" ","LANE":" ","ALLEY":" ","HOUSE_NO":"１５號","E_COORD97":172084.26999999999,"N_COORD97":2545136.4900000002,"ADDRESS":"中興街１５號","OBJECTID":592326},"geometry":{"x":172084.26999999955,"y":2545136.4900000039}},{"attributes":{"ID":592354,"DIS_CODE":0,"TOWNNAME":"永康區","LI":"中興里","LIN":"11鄰","STREET":"中興街","SECT":" ","MAREA":" ","LANE":" ","ALLEY":" ","HOUSE_NO":"２２號","E_COORD97":172100.92000000001,"N_COORD97":2545156.8999999999,"ADDRESS":"中興街２２號","OBJECTID":592327},"geometry":{"x":172100.92000000179,"y":2545156.9000000004}},{"attributes":{"ID":592355,"DIS_CODE":0,"TOWNNAME":"永康區","LI":"中興里","LIN":"11鄰","STREET":"中興街","SECT":" ","MAREA":" ","LANE":" ","ALLEY":" ","HOUSE_NO":"３０號","E_COORD97":172097.94,"N_COORD97":2545176.04,"ADDRESS":"中興街３０號","OBJECTID":592328},"geometry":{"x":172097.94000000227,"y":2545176.040000001}},{"attributes":{"ID":592356,"DIS_CODE":0,"TOWNNAME":"永康區","LI":"復國里","LIN":"11鄰","STREET":"復國二路","SECT":" ","MAREA":" ","LANE":" ","ALLEY":" ","HOUSE_NO":"９３號","E_COORD97":172852.42000000001,"N_COORD97":2545452.4500000002,"ADDRESS":"復國二路９３號","OBJECTID":592329},"geometry":{"x":172852.42000000086,"y":2545452.4500000011}},{"attributes":{"ID":592357,"DIS_CODE":0,"TOWNNAME":"永康區","LI":"復國里","LIN":"11鄰","STREET":"復國二路","SECT":" ","MAREA":" ","LANE":" ","ALLEY":" ","HOUSE_NO":"９５號","E_COORD97":172853.04000000001,"N_COORD97":2545457.2000000002,"ADDRESS":"復國二路９５號","OBJECTID":592330},"geometry":{"x":172853.04000000097,"y":2545457.2000000011}},{"attributes":{"ID":592358,"DIS_CODE":0,"TOWNNAME":"永康區","LI":"復興里","LIN":"11鄰","STREET":"復興路","SECT":" ","MAREA":" ","LANE":" ","ALLEY":" ","HOUSE_NO":"３７６號","E_COORD97":172173.29999999999,"N_COORD97":2544345.0499999998,"ADDRESS":"復興路３７６號","OBJECTID":592331},"geometry":{"x":172173.30000000075,"y":2544345.0500000026}},{"attributes":{"ID":592359,"DIS_CODE":0,"TOWNNAME":"永康區","LI":"復興里","LIN":"11鄰","STREET":"復興路","SECT":" ","MAREA":" ","LANE":" ","ALLEY":" ","HOUSE_NO":"３６０號","E_COORD97":172206.98999999999,"N_COORD97":2544348.2999999998,"ADDRESS":"復興路３６０號","OBJECTID":592332},"geometry":{"x":172206.99000000022,"y":2544348.2999999989}},{"attributes":{"ID":592360,"DIS_CODE":0,"TOWNNAME":"永康區","LI":"復興里","LIN":"11鄰","STREET":"復興路","SECT":" ","MAREA":" ","LANE":" ","ALLEY":" ","HOUSE_NO":"３５８號","E_COORD97":172211.51000000001,"N_COORD97":2544348.5499999998,"ADDRESS":"復興路３５８號","OBJECTID":592333},"geometry":{"x":172211.50999999978,"y":2544348.5500000007}},{"attributes":{"ID":592361,"DIS_CODE":0,"TOWNNAME":"永康區","LI":"復興里","LIN":"11鄰","STREET":"復興路","SECT":" ","MAREA":" ","LANE":" ","ALLEY":" ","HOUSE_NO":"３６２號","E_COORD97":172203.48999999999,"N_COORD97":2544347.5499999998,"ADDRESS":"復興路３６２號","OBJECTID":592334},"geometry":{"x":172203.49000000022,"y":2544347.5500000026}},{"attributes":{"ID":592362,"DIS_CODE":0,"TOWNNAME":"永康區","LI":"復興里","LIN":"11鄰","STREET":"復興路","SECT":" ","MAREA":" ","LANE":" ","ALLEY":" ","HOUSE_NO":"３８２號","E_COORD97":172161.32999999999,"N_COORD97":2544343.5499999998,"ADDRESS":"復興路３８２號","OBJECTID":592335},"geometry":{"x":172161.33000000101,"y":2544343.5500000045}},{"attributes":{"ID":592363,"DIS_CODE":0,"TOWNNAME":"永康區","LI":"復興里","LIN":"11鄰","STREET":"復興路","SECT":" ","MAREA":" ","LANE":" ","ALLEY":" ","HOUSE_NO":"３７２號","E_COORD97":172181.60999999999,"N_COORD97":2544345.5499999998,"ADDRESS":"復興路３７２號","OBJECTID":592336},"geometry":{"x":172181.61000000127,"y":2544345.5500000007}},{"attributes":{"ID":592364,"DIS_CODE":0,"TOWNNAME":"白河區","LI":"永安里","LIN":"11鄰","STREET":"中山路","SECT":" ","MAREA":" ","LANE":" ","ALLEY":" ","HOUSE_NO":"１０１號","E_COORD97":190247.79000000001,"N_COORD97":2583239.29,"ADDRESS":"中山路１０１號","OBJECTID":592337},"geometry":{"x":190247.79000000097,"y":2583239.290000001}},{"attributes":{"ID":592365,"DIS_CODE":0,"TOWNNAME":"白河區","LI":"永安里","LIN":"11鄰","STREET":"中山路","SECT":" ","MAREA":" ","LANE":" ","ALLEY":" ","HOUSE_NO":"１０３號","E_COORD97":190250.14999999999,"N_COORD97":2583242.9300000002,"ADDRESS":"中山路１０３號","OBJECTID":592338},"geometry":{"x":190250.15000000224,"y":2583242.9299999997}},{"attributes":{"ID":592366,"DIS_CODE":0,"TOWNNAME":"白河區","LI":"永安里","LIN":"11鄰","STREET":"中山路","SECT":" ","MAREA":" ","LANE":" ","ALLEY":" ","HOUSE_NO":"１０５號","E_COORD97":190252.57999999999,"N_COORD97":2583246.9300000002,"ADDRESS":"中山路１０５號","OBJECTID":592339},"geometry":{"x":190252.58000000101,"y":2583246.9299999997}},{"attributes":{"ID":592367,"DIS_CODE":0,"TOWNNAME":"白河區","LI":"永安里","LIN":"11鄰","STREET":"中山路","SECT":" ","MAREA":" ","LANE":" ","ALLEY":" ","HOUSE_NO":"１０７號","E_COORD97":190255.29000000001,"N_COORD97":2583251.5499999998,"ADDRESS":"中山路１０７號","OBJECTID":592340},"geometry":{"x":190255.29000000004,"y":2583251.5500000045}},{"attributes":{"ID":592368,"DIS_CODE":0,"TOWNNAME":"白河區","LI":"永安里","LIN":"11鄰","STREET":"中山路","SECT":" ","MAREA":" ","LANE":" ","ALLEY":" ","HOUSE_NO":"１０９號","E_COORD97":190257.73999999999,"N_COORD97":2583256.73,"ADDRESS":"中山路１０９號","OBJECTID":592341},"geometry":{"x":190257.73999999929,"y":2583256.7300000042}},{"attributes":{"ID":592369,"DIS_CODE":0,"TOWNNAME":"白河區","LI":"永安里","LIN":"11鄰","STREET":"中山路","SECT":" ","MAREA":" ","LANE":" ","ALLEY":" ","HOUSE_NO":"１１３號","E_COORD97":190280.54999999999,"N_COORD97":2583295.3999999999,"ADDRESS":"中山路１１３號","OBJECTID":592342},"geometry":{"x":190280.54999999981,"y":2583295.4000000004}},{"attributes":{"ID":592370,"DIS_CODE":0,"TOWNNAME":"白河區","LI":"永安里","LIN":"11鄰","STREET":"中山路","SECT":" ","MAREA":" ","LANE":" ","ALLEY":" ","HOUSE_NO":"９１號","E_COORD97":190234.17000000001,"N_COORD97":2583216.5600000001,"ADDRESS":"中山路９１號","OBJECTID":592343},"geometry":{"x":190234.16999999899,"y":2583216.5600000005}},{"attributes":{"ID":592371,"DIS_CODE":0,"TOWNNAME":"白河區","LI":"永安里","LIN":"11鄰","STREET":"中山路","SECT":" ","MAREA":" ","LANE":" ","ALLEY":" ","HOUSE_NO":"８３號","E_COORD97":190221.67000000001,"N_COORD97":2583194.6299999999,"ADDRESS":"中山路８３號","OBJECTID":592344},"geometry":{"x":190221.66999999993,"y":2583194.6300000027}},{"attributes":{"ID":592372,"DIS_CODE":0,"TOWNNAME":"白河區","LI":"永安里","LIN":"11鄰","STREET":"中山路","SECT":" ","MAREA":" ","LANE":" ","ALLEY":" ","HOUSE_NO":"８５之１號","E_COORD97":190226.34,"N_COORD97":2583202.7000000002,"ADDRESS":"中山路８５之１號","OBJECTID":592345},"geometry":{"x":190226.34000000171,"y":2583202.7000000011}},{"attributes":{"ID":592373,"DIS_CODE":0,"TOWNNAME":"白河區","LI":"永安里","LIN":"11鄰","STREET":"中山路","SECT":" ","MAREA":" ","LANE":" ","ALLEY":" ","HOUSE_NO":"８５號","E_COORD97":190223.48999999999,"N_COORD97":2583199.25,"ADDRESS":"中山路８５號","OBJECTID":592346},"geometry":{"x":190223.49000000022,"y":2583199.2500000019}},{"attributes":{"ID":592374,"DIS_CODE":0,"TOWNNAME":"白河區","LI":"永安里","LIN":"11鄰","STREET":"中山路","SECT":" ","MAREA":" ","LANE":" ","ALLEY":" ","HOUSE_NO":"８７號","E_COORD97":190230.48999999999,"N_COORD97":2583208.6800000002,"ADDRESS":"中山路８７號","OBJECTID":592347},"geometry":{"x":190230.49000000022,"y":2583208.6800000034}},{"attributes":{"ID":592375,"DIS_CODE":0,"TOWNNAME":"白河區","LI":"永安里","LIN":"11鄰","STREET":"中山路","SECT":" ","MAREA":" ","LANE":" ","ALLEY":" ","HOUSE_NO":"８９號","E_COORD97":190231.85000000001,"N_COORD97":2583212.7799999998,"ADDRESS":"中山路８９號","OBJECTID":592348},"geometry":{"x":190231.85000000056,"y":2583212.7799999993}},{"attributes":{"ID":592376,"DIS_CODE":0,"TOWNNAME":"白河區","LI":"永安里","LIN":"11鄰","STREET":"中山路","SECT":" ","MAREA":" ","LANE":" ","ALLEY":" ","HOUSE_NO":"９３號","E_COORD97":190236.64000000001,"N_COORD97":2583220.71,"ADDRESS":"中山路９３號","OBJECTID":592349},"geometry":{"x":190236.6400000006,"y":2583220.7100000028}},{"attributes":{"ID":592377,"DIS_CODE":0,"TOWNNAME":"白河區","LI":"永安里","LIN":"11鄰","STREET":"中山路","SECT":" ","MAREA":" ","LANE":" ","ALLEY":" ","HOUSE_NO":"９５號","E_COORD97":190239.28,"N_COORD97":2583225.3999999999,"ADDRESS":"中山路９５號","OBJECTID":592350},"geometry":{"x":190239.28000000119,"y":2583225.4000000022}},{"attributes":{"ID":592378,"DIS_CODE":0,"TOWNNAME":"白河區","LI":"永安里","LIN":"11鄰","STREET":"中山路","SECT":" ","MAREA":" ","LANE":" ","ALLEY":" ","HOUSE_NO":"９７號","E_COORD97":190242.03,"N_COORD97":2583229.3599999999,"ADDRESS":"中山路９７號","OBJECTID":592351},"geometry":{"x":190242.03000000026,"y":2583229.3599999994}},{"attributes":{"ID":592379,"DIS_CODE":0,"TOWNNAME":"白河區","LI":"永安里","LIN":"11鄰","STREET":"中山路","SECT":" ","MAREA":" ","LANE":" ","ALLEY":" ","HOUSE_NO":"９９號","E_COORD97":190244.95999999999,"N_COORD97":2583234.2799999998,"ADDRESS":"中山路９９號","OBJECTID":592352},"geometry":{"x":190244.96000000089,"y":2583234.2799999993}},{"attributes":{"ID":592380,"DIS_CODE":0,"TOWNNAME":"仁德區","LI":"仁義里","LIN":"11鄰","STREET":"中山路","SECT":" ","MAREA":" ","LANE":" ","ALLEY":" ","HOUSE_NO":"５８３號","E_COORD97":173365.14999999999,"N_COORD97":2541309.9900000002,"ADDRESS":"中山路５８３號","OBJECTID":592353},"geometry":{"x":173365.1500000013,"y":2541309.9900000021}},{"attributes":{"ID":592381,"DIS_CODE":0,"TOWNNAME":"仁德區","LI":"仁德里","LIN":"11鄰","STREET":"中正路","SECT":"二段","MAREA":" ","LANE":" ","ALLEY":" ","HOUSE_NO":"１２５１號","E_COORD97":173256.64000000001,"N_COORD97":2541301.77,"ADDRESS":"中正路二段１２５１號","OBJECTID":592354},"geometry":{"x":173256.63999999966,"y":2541301.7699999996}},{"attributes":{"ID":592382,"DIS_CODE":0,"TOWNNAME":"仁德區","LI":"仁義里","LIN":"11鄰","STREET":"中山路","SECT":" ","MAREA":" ","LANE":" ","ALLEY":" ","HOUSE_NO":"５８５號","E_COORD97":173361.16,"N_COORD97":2541310.2400000002,"ADDRESS":"中山路５８５號","OBJECTID":592355},"geometry":{"x":173361.16000000108,"y":2541310.2400000002}},{"attributes":{"ID":592383,"DIS_CODE":0,"TOWNNAME":"仁德區","LI":"仁德里","LIN":"11鄰","STREET":"中正路","SECT":"二段","MAREA":" ","LANE":" ","ALLEY":" ","HOUSE_NO":"１２４７號","E_COORD97":173216.57000000001,"N_COORD97":2541300.02,"ADDRESS":"中正路二段１２４７號","OBJECTID":592356},"geometry":{"x":173216.5700000003,"y":2541300.0199999996}},{"attributes":{"ID":592384,"DIS_CODE":0,"TOWNNAME":"仁德區","LI":"太子里","LIN":"11鄰","STREET":"長興二街","SECT":" ","MAREA":" ","LANE":" ","ALLEY":" ","HOUSE_NO":"８６號","E_COORD97":174224.39000000001,"N_COORD97":2543698.25,"ADDRESS":"長興二街８６號","OBJECTID":592357},"geometry":{"x":174224.38999999966,"y":2543698.2500000019}},{"attributes":{"ID":592385,"DIS_CODE":0,"TOWNNAME":"仁德區","LI":"仁義里","LIN":"11鄰","STREET":"中山路","SECT":" ","MAREA":" ","LANE":" ","ALLEY":" ","HOUSE_NO":"５７３號","E_COORD97":173384.70999999999,"N_COORD97":2541307.7400000002,"ADDRESS":"中山路５７３號","OBJECTID":592358},"geometry":{"x":173384.70999999996,"y":2541307.7400000021}},{"attributes":{"ID":592386,"DIS_CODE":0,"TOWNNAME":"東區","LI":"龍山里","LIN":"11鄰","STREET":"光華街","SECT":" ","MAREA":" ","LANE":" ","ALLEY":" ","HOUSE_NO":"１８號","E_COORD97":169930.64999999999,"N_COORD97":2542794.48,"ADDRESS":"光華街１８號","OBJECTID":592359},"geometry":{"x":169930.6500000013,"y":2542794.4800000023}},{"attributes":{"ID":592387,"DIS_CODE":0,"TOWNNAME":"東區","LI":"崇善里","LIN":"11鄰","STREET":"崇善八街","SECT":" ","MAREA":" ","LANE":" ","ALLEY":" ","HOUSE_NO":"１４號","E_COORD97":171104.03,"N_COORD97":2541370.3199999998,"ADDRESS":"崇善八街１４號","OBJECTID":592360},"geometry":{"x":171104.03000000119,"y":2541370.3200000003}},{"attributes":{"ID":592388,"DIS_CODE":0,"TOWNNAME":"東區","LI":"崇善里","LIN":"11鄰","STREET":"崇善八街","SECT":" ","MAREA":" ","LANE":" ","ALLEY":" ","HOUSE_NO":"１６號","E_COORD97":171108.81,"N_COORD97":2541371.2000000002,"ADDRESS":"崇善八街１６號","OBJECTID":592361},"geometry":{"x":171108.80999999959,"y":2541371.2000000011}},{"attributes":{"ID":592389,"DIS_CODE":0,"TOWNNAME":"東區","LI":"崇善里","LIN":"11鄰","STREET":"崇善八街","SECT":" ","MAREA":" ","LANE":" ","ALLEY":" ","HOUSE_NO":"３０號","E_COORD97":171139.04999999999,"N_COORD97":2541388.2999999998,"ADDRESS":"崇善八街３０號","OBJECTID":592362},"geometry":{"x":171139.05000000075,"y":2541388.3000000007}},{"attributes":{"ID":592390,"DIS_CODE":0,"TOWNNAME":"東區","LI":"崇善里","LIN":"11鄰","STREET":"崇善八街","SECT":" ","MAREA":" ","LANE":" ","ALLEY":" ","HOUSE_NO":"４８號","E_COORD97":171176.42000000001,"N_COORD97":2541410.46,"ADDRESS":"崇善八街４８號","OBJECTID":592363},"geometry":{"x":171176.41999999993,"y":2541410.4600000009}},{"attributes":{"ID":592391,"DIS_CODE":0,"TOWNNAME":"東區","LI":"崇善里","LIN":"11鄰","STREET":"崇善八街","SECT":" ","MAREA":" ","LANE":" ","ALLEY":" ","HOUSE_NO":"１８號","E_COORD97":171113.28,"N_COORD97":2541372.96,"ADDRESS":"崇善八街１８號","OBJECTID":592364},"geometry":{"x":171113.28000000026,"y":2541372.9600000009}},{"attributes":{"ID":592392,"DIS_CODE":0,"TOWNNAME":"東區","LI":"裕農里","LIN":"11鄰","STREET":"東寧路","SECT":" ","MAREA":" ","LANE":" ","ALLEY":" ","HOUSE_NO":"５０８號","E_COORD97":171122.14000000001,"N_COORD97":2543277.4500000002,"ADDRESS":"東寧路５０８號","OBJECTID":592365},"geometry":{"x":171122.13999999966,"y":2543277.4499999993}},{"attributes":{"ID":592393,"DIS_CODE":0,"TOWNNAME":"東區","LI":"崇德里","LIN":"11鄰","STREET":"崇德路","SECT":" ","MAREA":" ","LANE":" ","ALLEY":" ","HOUSE_NO":"５７９號","E_COORD97":170805.51000000001,"N_COORD97":2541466.1800000002,"ADDRESS":"崇德路５７９號","OBJECTID":592366},"geometry":{"x":170805.51000000071,"y":2541466.1799999978}},{"attributes":{"ID":592394,"DIS_CODE":0,"TOWNNAME":"仁德區","LI":"太子里","LIN":"11鄰","STREET":"長興二街","SECT":" ","MAREA":" ","LANE":" ","ALLEY":" ","HOUSE_NO":"８０號","E_COORD97":174241.26000000001,"N_COORD97":2543700,"ADDRESS":"長興二街８０號","OBJECTID":592367},"geometry":{"x":174241.26000000071,"y":2543700.0000000019}},{"attributes":{"ID":592395,"DIS_CODE":0,"TOWNNAME":"仁德區","LI":"成功里","LIN":"11鄰","STREET":"成功二街","SECT":" ","MAREA":" ","LANE":" ","ALLEY":" ","HOUSE_NO":"３５號","E_COORD97":170918.19,"N_COORD97":2539839.0099999998,"ADDRESS":"成功二街３５號","OBJECTID":592368},"geometry":{"x":170918.19000000134,"y":2539839.0099999998}},{"attributes":{"ID":592396,"DIS_CODE":0,"TOWNNAME":"仁德區","LI":"仁義里","LIN":"11鄰","STREET":"中山路","SECT":" ","MAREA":" ","LANE":" ","ALLEY":" ","HOUSE_NO":"５７５號","E_COORD97":173380.84,"N_COORD97":2541308.2400000002,"ADDRESS":"中山路５７５號","OBJECTID":592369},"geometry":{"x":173380.83999999985,"y":2541308.2400000021}},{"attributes":{"ID":592397,"DIS_CODE":0,"TOWNNAME":"仁德區","LI":"成功里","LIN":"11鄰","STREET":"保生東路","SECT":" ","MAREA":" ","LANE":" ","ALLEY":" ","HOUSE_NO":"２８６號","E_COORD97":171035.35000000001,"N_COORD97":2539792.77,"ADDRESS":"保生東路２８６號","OBJECTID":592370},"geometry":{"x":171035.35000000056,"y":2539792.7699999996}},{"attributes":{"ID":592398,"DIS_CODE":0,"TOWNNAME":"仁德區","LI":"成功里","LIN":"11鄰","STREET":"保生東路","SECT":" ","MAREA":" ","LANE":" ","ALLEY":" ","HOUSE_NO":"３２８號","E_COORD97":170962.09,"N_COORD97":2539791.5600000001,"ADDRESS":"保生東路３２８號","OBJECTID":592371},"geometry":{"x":170962.09000000171,"y":2539791.5600000005}},{"attributes":{"ID":592399,"DIS_CODE":0,"TOWNNAME":"仁德區","LI":"新田里","LIN":"11鄰","STREET":"北保一街","SECT":" ","MAREA":" ","LANE":" ","ALLEY":" ","HOUSE_NO":"１２６號","E_COORD97":173154.64999999999,"N_COORD97":2539600.5,"ADDRESS":"北保一街１２６號","OBJECTID":592372},"geometry":{"x":173154.6500000013,"y":2539600.5000000019}},{"attributes":{"ID":592400,"DIS_CODE":0,"TOWNNAME":"仁德區","LI":"成功里","LIN":"11鄰","STREET":"保生東路","SECT":" ","MAREA":" ","LANE":" ","ALLEY":" ","HOUSE_NO":"３０８號","E_COORD97":170998.82000000001,"N_COORD97":2539791.77,"ADDRESS":"保生東路３０８號","OBJECTID":592373},"geometry":{"x":170998.82000000123,"y":2539791.7700000014}},{"attributes":{"ID":592401,"DIS_CODE":0,"TOWNNAME":"仁德區","LI":"成功里","LIN":"11鄰","STREET":"保生東路","SECT":" ","MAREA":" ","LANE":" ","ALLEY":" ","HOUSE_NO":"２９６號","E_COORD97":171019.48000000001,"N_COORD97":2539792.52,"ADDRESS":"保生東路２９６號","OBJECTID":592374},"geometry":{"x":171019.48000000231,"y":2539792.5200000033}},{"attributes":{"ID":592402,"DIS_CODE":0,"TOWNNAME":"仁德區","LI":"成功里","LIN":"11鄰","STREET":"保生東路","SECT":" ","MAREA":" ","LANE":" ","ALLEY":" ","HOUSE_NO":"３２０號","E_COORD97":170979.20999999999,"N_COORD97":2539792.27,"ADDRESS":"保生東路３２０號","OBJECTID":592375},"geometry":{"x":170979.21000000089,"y":2539792.2700000014}},{"attributes":{"ID":592403,"DIS_CODE":0,"TOWNNAME":"仁德區","LI":"保安里","LIN":"11鄰","STREET":"中正路","SECT":"一段","MAREA":" ","LANE":" ","ALLEY":" ","HOUSE_NO":"２２９號之５","E_COORD97":171785.29000000001,"N_COORD97":2535970.0499999998,"ADDRESS":"中正路一段２２９號之５","OBJECTID":592376},"geometry":{"x":171785.29000000097,"y":2535970.0500000026}},{"attributes":{"ID":592404,"DIS_CODE":0,"TOWNNAME":"仁德區","LI":"成功里","LIN":"11鄰","STREET":"保生東路","SECT":" ","MAREA":" ","LANE":" ","ALLEY":" ","HOUSE_NO":"３４０號","E_COORD97":170938.26999999999,"N_COORD97":2539791.02,"ADDRESS":"保生東路３４０號","OBJECTID":592377},"geometry":{"x":170938.26999999955,"y":2539791.0199999996}},{"attributes":{"ID":592405,"DIS_CODE":0,"TOWNNAME":"仁德區","LI":"成功里","LIN":"11鄰","STREET":"保生東路","SECT":" ","MAREA":" ","LANE":" ","ALLEY":" ","HOUSE_NO":"３１６號","E_COORD97":170987.20999999999,"N_COORD97":2539792.02,"ADDRESS":"保生東路３１６號","OBJECTID":592378},"geometry":{"x":170987.21000000089,"y":2539792.0199999996}},{"attributes":{"ID":592406,"DIS_CODE":0,"TOWNNAME":"仁德區","LI":"保安里","LIN":"11鄰","STREET":"中正路","SECT":"一段","MAREA":" ","LANE":" ","ALLEY":" ","HOUSE_NO":"２２９號之６","E_COORD97":171788.84,"N_COORD97":2535973.2999999998,"ADDRESS":"中正路一段２２９號之６","OBJECTID":592379},"geometry":{"x":171788.83999999985,"y":2535973.3000000007}},{"attributes":{"ID":592407,"DIS_CODE":0,"TOWNNAME":"仁德區","LI":"成功里","LIN":"11鄰","STREET":"保生東路","SECT":" ","MAREA":" ","LANE":" ","ALLEY":" ","HOUSE_NO":"３３８號","E_COORD97":170942.67000000001,"N_COORD97":2539791.27,"ADDRESS":"保生東路３３８號","OBJECTID":592380},"geometry":{"x":170942.66999999993,"y":2539791.2700000014}},{"attributes":{"ID":592408,"DIS_CODE":0,"TOWNNAME":"仁德區","LI":"成功里","LIN":"11鄰","STREET":"保生東路","SECT":" ","MAREA":" ","LANE":" ","ALLEY":" ","HOUSE_NO":"３３６號","E_COORD97":170946.73000000001,"N_COORD97":2539791.27,"ADDRESS":"保生東路３３６號","OBJECTID":592381},"geometry":{"x":170946.73000000138,"y":2539791.2700000014}},{"attributes":{"ID":592409,"DIS_CODE":0,"TOWNNAME":"仁德區","LI":"成功里","LIN":"11鄰","STREET":"保生東路","SECT":" ","MAREA":" ","LANE":" ","ALLEY":" ","HOUSE_NO":"３０６號","E_COORD97":171002.89000000001,"N_COORD97":2539791.77,"ADDRESS":"保生東路３０６號","OBJECTID":592382},"geometry":{"x":171002.8900000006,"y":2539791.7700000014}},{"attributes":{"ID":592410,"DIS_CODE":0,"TOWNNAME":"仁德區","LI":"成功里","LIN":"11鄰","STREET":"保生東路","SECT":" ","MAREA":" ","LANE":" ","ALLEY":" ","HOUSE_NO":"３０２號","E_COORD97":171007.48000000001,"N_COORD97":2539792.02,"ADDRESS":"保生東路３０２號","OBJECTID":592383},"geometry":{"x":171007.47999999952,"y":2539792.0199999996}},{"attributes":{"ID":592411,"DIS_CODE":0,"TOWNNAME":"仁德區","LI":"成功里","LIN":"11鄰","STREET":"保生東路","SECT":" ","MAREA":" ","LANE":" ","ALLEY":" ","HOUSE_NO":"２８８號","E_COORD97":171031.28,"N_COORD97":2539793.02,"ADDRESS":"保生東路２８８號","OBJECTID":592384},"geometry":{"x":171031.28000000119,"y":2539793.0200000014}},{"attributes":{"ID":592412,"DIS_CODE":0,"TOWNNAME":"仁德區","LI":"新田里","LIN":"11鄰","STREET":"北保一街","SECT":" ","MAREA":" ","LANE":" ","ALLEY":" ","HOUSE_NO":"１２２號","E_COORD97":173133.06,"N_COORD97":2539609,"ADDRESS":"北保一街１２２號","OBJECTID":592385},"geometry":{"x":173133.05999999959,"y":2539609}},{"attributes":{"ID":592413,"DIS_CODE":0,"TOWNNAME":"仁德區","LI":"成功里","LIN":"11鄰","STREET":"保生東路","SECT":" ","MAREA":" ","LANE":" ","ALLEY":" ","HOUSE_NO":"３１８號","E_COORD97":170983.10999999999,"N_COORD97":2539792.27,"ADDRESS":"保生東路３１８號","OBJECTID":592386},"geometry":{"x":170983.11000000127,"y":2539792.2700000014}},{"attributes":{"ID":592414,"DIS_CODE":0,"TOWNNAME":"仁德區","LI":"成功里","LIN":"11鄰","STREET":"保生東路","SECT":" ","MAREA":" ","LANE":" ","ALLEY":" ","HOUSE_NO":"３００號","E_COORD97":171011.22,"N_COORD97":2539792.02,"ADDRESS":"保生東路３００號","OBJECTID":592387},"geometry":{"x":171011.21999999974,"y":2539792.0199999996}},{"attributes":{"ID":592415,"DIS_CODE":0,"TOWNNAME":"仁德區","LI":"新田里","LIN":"11鄰","STREET":"北保三街","SECT":" ","MAREA":" ","LANE":" ","ALLEY":" ","HOUSE_NO":"３３號","E_COORD97":173181.78,"N_COORD97":2539460.2400000002,"ADDRESS":"北保三街３３號","OBJECTID":592388},"geometry":{"x":173181.78000000026,"y":2539460.2400000021}},{"attributes":{"ID":592416,"DIS_CODE":0,"TOWNNAME":"仁德區","LI":"新田里","LIN":"11鄰","STREET":"北保三街","SECT":" ","MAREA":" ","LANE":" ","ALLEY":" ","HOUSE_NO":"３０號","E_COORD97":173207.07000000001,"N_COORD97":2539440.2400000002,"ADDRESS":"北保三街３０號","OBJECTID":592389},"geometry":{"x":173207.06999999937,"y":2539440.2400000021}},{"attributes":{"ID":592417,"DIS_CODE":0,"TOWNNAME":"仁德區","LI":"成功里","LIN":"11鄰","STREET":"保生東路","SECT":" ","MAREA":" ","LANE":" ","ALLEY":" ","HOUSE_NO":"３１０號","E_COORD97":170995.07000000001,"N_COORD97":2539792.02,"ADDRESS":"保生東路３１０號","OBJECTID":592390},"geometry":{"x":170995.07000000216,"y":2539792.0199999996}},{"attributes":{"ID":592418,"DIS_CODE":0,"TOWNNAME":"仁德區","LI":"保安里","LIN":"11鄰","STREET":"中正路","SECT":"一段","MAREA":" ","LANE":" ","ALLEY":" ","HOUSE_NO":"２２９號之７","E_COORD97":171792.32999999999,"N_COORD97":2535975.7999999998,"ADDRESS":"中正路一段２２９號之７","OBJECTID":592391},"geometry":{"x":171792.33000000007,"y":2535975.8000000026}},{"attributes":{"ID":592419,"DIS_CODE":0,"TOWNNAME":"仁德區","LI":"新田里","LIN":"11鄰","STREET":"北保一街","SECT":" ","MAREA":" ","LANE":" ","ALLEY":" ","HOUSE_NO":"１１２號","E_COORD97":173123.73000000001,"N_COORD97":2539598.25,"ADDRESS":"北保一街１１２號","OBJECTID":592392},"geometry":{"x":173123.73000000138,"y":2539598.2500000037}},{"attributes":{"ID":592420,"DIS_CODE":0,"TOWNNAME":"仁德區","LI":"後壁里","LIN":"11鄰","STREET":"德善路","SECT":" ","MAREA":" ","LANE":" ","ALLEY":" ","HOUSE_NO":"２４３號","E_COORD97":173830.81,"N_COORD97":2538751.52,"ADDRESS":"德善路２４３號","OBJECTID":592393},"geometry":{"x":173830.81000000052,"y":2538751.5200000033}},{"attributes":{"ID":592421,"DIS_CODE":0,"TOWNNAME":"仁德區","LI":"新田里","LIN":"11鄰","STREET":"北保一街","SECT":" ","MAREA":" ","LANE":" ","ALLEY":" ","HOUSE_NO":"１２４號","E_COORD97":173160.10000000001,"N_COORD97":2539598.5,"ADDRESS":"北保一街１２４號","OBJECTID":592394},"geometry":{"x":173160.09999999963,"y":2539598.5}},{"attributes":{"ID":592422,"DIS_CODE":0,"TOWNNAME":"仁德區","LI":"新田里","LIN":"11鄰","STREET":"北保一街","SECT":" ","MAREA":" ","LANE":" ","ALLEY":" ","HOUSE_NO":"１３０號","E_COORD97":173144.89999999999,"N_COORD97":2539604.5,"ADDRESS":"北保一街１３０號","OBJECTID":592395},"geometry":{"x":173144.90000000037,"y":2539604.5000000019}},{"attributes":{"ID":592423,"DIS_CODE":0,"TOWNNAME":"安南區","LI":"理想里","LIN":"11鄰","STREET":"海佃路","SECT":"二段","MAREA":" ","LANE":" ","ALLEY":" ","HOUSE_NO":"１２８號","E_COORD97":167005.39000000001,"N_COORD97":2548097.54,"ADDRESS":"海佃路二段１２８號","OBJECTID":592396},"geometry":{"x":167005.3900000006,"y":2548097.5399999991}},{"attributes":{"ID":592424,"DIS_CODE":0,"TOWNNAME":"永康區","LI":"五王里","LIN":"11鄰","STREET":"中山東路","SECT":" ","MAREA":" ","LANE":" ","ALLEY":" ","HOUSE_NO":"２７０號","E_COORD97":171798.82999999999,"N_COORD97":2545655.6400000001,"ADDRESS":"中山東路２７０號","OBJECTID":592397},"geometry":{"x":171798.83000000101,"y":2545655.6400000025}},{"attributes":{"ID":592425,"DIS_CODE":0,"TOWNNAME":"永康區","LI":"大灣里","LIN":"11鄰","STREET":"大灣六街","SECT":" ","MAREA":" ","LANE":" ","ALLEY":" ","HOUSE_NO":"１３６號","E_COORD97":174957.09,"N_COORD97":2545409.3999999999,"ADDRESS":"大灣六街１３６號","OBJECTID":592398},"geometry":{"x":174957.08999999985,"y":2545409.4000000022}},{"attributes":{"ID":592426,"DIS_CODE":0,"TOWNNAME":"永康區","LI":"五王里","LIN":"11鄰","STREET":"中山東路","SECT":" ","MAREA":" ","LANE":" ","ALLEY":" ","HOUSE_NO":"２３６號","E_COORD97":171784.82000000001,"N_COORD97":2545712.8999999999,"ADDRESS":"中山東路２３６號","OBJECTID":592399},"geometry":{"x":171784.81999999937,"y":2545712.9000000004}},{"attributes":{"ID":592427,"DIS_CODE":0,"TOWNNAME":"永康區","LI":"五王里","LIN":"11鄰","STREET":"中山東路","SECT":" ","MAREA":" ","LANE":" ","ALLEY":" ","HOUSE_NO":"２８０號","E_COORD97":171803.37,"N_COORD97":2545639.1400000001,"ADDRESS":"中山東路２８０號","OBJECTID":592400},"geometry":{"x":171803.37000000104,"y":2545639.1400000025}}]}