{"displayFieldName":"TOWNNAME","fieldAliases":{"ID":"ID","DIS_CODE":"DIS_CODE","TOWNNAME":"TOWNNAME","LI":"LI","LIN":"LIN","STREET":"STREET","SECT":"SECT","MAREA":"MAREA","LANE":"LANE","ALLEY":"ALLEY","HOUSE_NO":"HOUSE_NO","E_COORD97":"E_COORD97","N_COORD97":"N_COORD97","ADDRESS":"ADDRESS","OBJECTID":"OBJECTID"},"geometryType":"esriGeometryPoint","spatialReference":{"wkid":102443,"latestWkid":3826},"fields":[{"name":"ID","type":"esriFieldTypeDouble","alias":"ID"},{"name":"DIS_CODE","type":"esriFieldTypeInteger","alias":"DIS_CODE"},{"name":"TOWNNAME","type":"esriFieldTypeString","alias":"TOWNNAME","length":8},{"name":"LI","type":"esriFieldTypeString","alias":"LI","length":8},{"name":"LIN","type":"esriFieldTypeString","alias":"LIN","length":12},{"name":"STREET","type":"esriFieldTypeString","alias":"STREET","length":20},{"name":"SECT","type":"esriFieldTypeString","alias":"SECT","length":8},{"name":"MAREA","type":"esriFieldTypeString","alias":"MAREA","length":12},{"name":"LANE","type":"esriFieldTypeString","alias":"LANE","length":10},{"name":"ALLEY","type":"esriFieldTypeString","alias":"ALLEY","length":10},{"name":"HOUSE_NO","type":"esriFieldTypeString","alias":"HOUSE_NO","length":20},{"name":"E_COORD97","type":"esriFieldTypeDouble","alias":"E_COORD97"},{"name":"N_COORD97","type":"esriFieldTypeDouble","alias":"N_COORD97"},{"name":"ADDRESS","type":"esriFieldTypeString","alias":"ADDRESS","length":50},{"name":"OBJECTID","type":"esriFieldTypeOID","alias":"OBJECTID"}],"features":[{"attributes":{"ID":329610,"DIS_CODE":0,"TOWNNAME":"新營區","LI":"南紙里","LIN":"15鄰","STREET":"南紙街","SECT":" ","MAREA":" ","LANE":"１５６巷","ALLEY":" ","HOUSE_NO":"１０號","E_COORD97":177780.38,"N_COORD97":2577343.02,"ADDRESS":"南紙街１５６巷１０號","OBJECTID":329601},"geometry":{"x":177780.38000000082,"y":2577343.0199999996}},{"attributes":{"ID":329611,"DIS_CODE":0,"TOWNNAME":"新營區","LI":"嘉芳里","LIN":"15鄰","STREET":"復興路","SECT":" ","MAREA":" ","LANE":"１０７０巷","ALLEY":" ","HOUSE_NO":"１６號","E_COORD97":176158.59,"N_COORD97":2578900.3500000001,"ADDRESS":"復興路１０７０巷１６號","OBJECTID":329602},"geometry":{"x":176158.59000000078,"y":2578900.3499999996}},{"attributes":{"ID":329612,"DIS_CODE":0,"TOWNNAME":"新營區","LI":"嘉芳里","LIN":"15鄰","STREET":"復興路","SECT":" ","MAREA":" ","LANE":"１０７０巷","ALLEY":" ","HOUSE_NO":"２０號","E_COORD97":176159.73000000001,"N_COORD97":2578910.3100000001,"ADDRESS":"復興路１０７０巷２０號","OBJECTID":329603},"geometry":{"x":176159.73000000138,"y":2578910.3100000024}},{"attributes":{"ID":329613,"DIS_CODE":0,"TOWNNAME":"東區","LI":"文聖里","LIN":"17鄰","STREET":"裕信路","SECT":" ","MAREA":" ","LANE":" ","ALLEY":" ","HOUSE_NO":"２７８之３號","E_COORD97":172571.42999999999,"N_COORD97":2542733.0800000001,"ADDRESS":"裕信路２７８之３號","OBJECTID":329604},"geometry":{"x":172571.4299999997,"y":2542733.0800000019}},{"attributes":{"ID":329614,"DIS_CODE":0,"TOWNNAME":"東區","LI":"文聖里","LIN":"17鄰","STREET":"裕信路","SECT":" ","MAREA":" ","LANE":" ","ALLEY":" ","HOUSE_NO":"２７８之２號","E_COORD97":172576.79999999999,"N_COORD97":2542732.8100000001,"ADDRESS":"裕信路２７８之２號","OBJECTID":329605},"geometry":{"x":172576.80000000075,"y":2542732.8100000005}},{"attributes":{"ID":329615,"DIS_CODE":0,"TOWNNAME":"安南區","LI":"溪心里","LIN":"17鄰","STREET":"仁安四街","SECT":" ","MAREA":" ","LANE":" ","ALLEY":" ","HOUSE_NO":"６７號","E_COORD97":166157.04000000001,"N_COORD97":2550155.46,"ADDRESS":"仁安四街６７號","OBJECTID":329606},"geometry":{"x":166157.04000000097,"y":2550155.4600000046}},{"attributes":{"ID":329616,"DIS_CODE":0,"TOWNNAME":"東區","LI":"文聖里","LIN":"17鄰","STREET":"裕信路","SECT":" ","MAREA":" ","LANE":" ","ALLEY":" ","HOUSE_NO":"２７８之１號","E_COORD97":172581.63,"N_COORD97":2542732.9399999999,"ADDRESS":"裕信路２７８之１號","OBJECTID":329607},"geometry":{"x":172581.63000000082,"y":2542732.9400000013}},{"attributes":{"ID":329617,"DIS_CODE":0,"TOWNNAME":"仁德區","LI":"三甲里","LIN":"5鄰","STREET":" ","SECT":" ","MAREA":"三甲子","LANE":" ","ALLEY":" ","HOUSE_NO":"４７號之１０","E_COORD97":171891.51000000001,"N_COORD97":2536697.0499999998,"ADDRESS":"三甲子４７號之１０","OBJECTID":329608},"geometry":{"x":171891.51000000164,"y":2536697.0500000007}},{"attributes":{"ID":329618,"DIS_CODE":0,"TOWNNAME":"仁德區","LI":"三甲里","LIN":"5鄰","STREET":" ","SECT":" ","MAREA":"三甲子","LANE":" ","ALLEY":" ","HOUSE_NO":"４８號之１５","E_COORD97":171930.03,"N_COORD97":2536477.7999999998,"ADDRESS":"三甲子４８號之１５","OBJECTID":329609},"geometry":{"x":171930.03000000119,"y":2536477.8000000007}},{"attributes":{"ID":329619,"DIS_CODE":0,"TOWNNAME":"仁德區","LI":"中洲里","LIN":"4鄰","STREET":" ","SECT":" ","MAREA":"中洲","LANE":" ","ALLEY":" ","HOUSE_NO":"３３號","E_COORD97":173229.53,"N_COORD97":2534375.2400000002,"ADDRESS":"中洲３３號","OBJECTID":329610},"geometry":{"x":173229.53000000212,"y":2534375.2400000021}},{"attributes":{"ID":329620,"DIS_CODE":0,"TOWNNAME":"仁德區","LI":"中洲里","LIN":"4鄰","STREET":" ","SECT":" ","MAREA":"中洲","LANE":" ","ALLEY":" ","HOUSE_NO":"４１之５號","E_COORD97":173250.12,"N_COORD97":2534341.04,"ADDRESS":"中洲４１之５號","OBJECTID":329611},"geometry":{"x":173250.12000000011,"y":2534341.040000001}},{"attributes":{"ID":329621,"DIS_CODE":0,"TOWNNAME":"仁德區","LI":"仁愛里","LIN":"26鄰","STREET":"機場路","SECT":" ","MAREA":" ","LANE":" ","ALLEY":" ","HOUSE_NO":"１３９６號","E_COORD97":169693.38,"N_COORD97":2539496.3500000001,"ADDRESS":"機場路１３９６號","OBJECTID":329612},"geometry":{"x":169693.37999999989,"y":2539496.3500000015}},{"attributes":{"ID":329622,"DIS_CODE":0,"TOWNNAME":"仁德區","LI":"土庫里","LIN":"20鄰","STREET":"太子二街","SECT":" ","MAREA":" ","LANE":"１３８巷","ALLEY":" ","HOUSE_NO":"１９號","E_COORD97":174422.03,"N_COORD97":2543230.2599999998,"ADDRESS":"太子二街１３８巷１９號","OBJECTID":329613},"geometry":{"x":174422.03000000026,"y":2543230.2600000016}},{"attributes":{"ID":329623,"DIS_CODE":0,"TOWNNAME":"仁德區","LI":"仁德里","LIN":"18鄰","STREET":"文華路","SECT":"三段","MAREA":" ","LANE":"１８９巷","ALLEY":" ","HOUSE_NO":"９３號","E_COORD97":172068.70999999999,"N_COORD97":2540469.8199999998,"ADDRESS":"文華路三段１８９巷９３號","OBJECTID":329614},"geometry":{"x":172068.71000000089,"y":2540469.8200000022}},{"attributes":{"ID":329624,"DIS_CODE":0,"TOWNNAME":"仁德區","LI":"二行里","LIN":"20鄰","STREET":"行大街","SECT":" ","MAREA":" ","LANE":"１７２巷","ALLEY":" ","HOUSE_NO":"１９之１號","E_COORD97":169856.91,"N_COORD97":2535180.29,"ADDRESS":"行大街１７２巷１９之１號","OBJECTID":329615},"geometry":{"x":169856.91000000108,"y":2535180.290000001}},{"attributes":{"ID":329625,"DIS_CODE":0,"TOWNNAME":"新營區","LI":"南紙里","LIN":"15鄰","STREET":"南紙街","SECT":" ","MAREA":" ","LANE":"１５６巷","ALLEY":" ","HOUSE_NO":"１２號","E_COORD97":177785.48999999999,"N_COORD97":2577342.9900000002,"ADDRESS":"南紙街１５６巷１２號","OBJECTID":329616},"geometry":{"x":177785.49000000115,"y":2577342.9900000021}},{"attributes":{"ID":329626,"DIS_CODE":0,"TOWNNAME":"新營區","LI":"嘉芳里","LIN":"15鄰","STREET":"復興路","SECT":" ","MAREA":" ","LANE":"１１１２巷","ALLEY":" ","HOUSE_NO":"４號","E_COORD97":176062.23999999999,"N_COORD97":2578889.75,"ADDRESS":"復興路１１１２巷４號","OBJECTID":329617},"geometry":{"x":176062.23999999929,"y":2578889.7500000019}},{"attributes":{"ID":329627,"DIS_CODE":0,"TOWNNAME":"新營區","LI":"南紙里","LIN":"15鄰","STREET":"南紙街","SECT":" ","MAREA":" ","LANE":"１５６巷","ALLEY":" ","HOUSE_NO":"１１號","E_COORD97":177784.39000000001,"N_COORD97":2577326.3900000001,"ADDRESS":"南紙街１５６巷１１號","OBJECTID":329618},"geometry":{"x":177784.38999999966,"y":2577326.3900000025}},{"attributes":{"ID":329628,"DIS_CODE":0,"TOWNNAME":"新營區","LI":"南紙里","LIN":"15鄰","STREET":"南紙街","SECT":" ","MAREA":" ","LANE":"１５６巷","ALLEY":" ","HOUSE_NO":"１５號","E_COORD97":177798.70999999999,"N_COORD97":2577325.21,"ADDRESS":"南紙街１５６巷１５號","OBJECTID":329619},"geometry":{"x":177798.71000000089,"y":2577325.2100000028}},{"attributes":{"ID":329629,"DIS_CODE":0,"TOWNNAME":"新營區","LI":"忠政里","LIN":"15鄰","STREET":"府西路","SECT":" ","MAREA":" ","LANE":"２３０巷","ALLEY":" ","HOUSE_NO":"３４號","E_COORD97":179909.67000000001,"N_COORD97":2579599.75,"ADDRESS":"府西路２３０巷３４號","OBJECTID":329620},"geometry":{"x":179909.67000000086,"y":2579599.75}},{"attributes":{"ID":329630,"DIS_CODE":0,"TOWNNAME":"新營區","LI":"新南里","LIN":"15鄰","STREET":"民治路","SECT":" ","MAREA":" ","LANE":"３００巷","ALLEY":" ","HOUSE_NO":"１１號","E_COORD97":178770.17000000001,"N_COORD97":2578532.0699999998,"ADDRESS":"民治路３００巷１１號","OBJECTID":329621},"geometry":{"x":178770.17000000086,"y":2578532.0700000022}},{"attributes":{"ID":329631,"DIS_CODE":0,"TOWNNAME":"新營區","LI":"忠政里","LIN":"15鄰","STREET":"府西路","SECT":" ","MAREA":" ","LANE":"２３０巷","ALLEY":" ","HOUSE_NO":"４３號","E_COORD97":179926.07999999999,"N_COORD97":2579611.8599999999,"ADDRESS":"府西路２３０巷４３號","OBJECTID":329622},"geometry":{"x":179926.08000000007,"y":2579611.8599999994}},{"attributes":{"ID":329632,"DIS_CODE":0,"TOWNNAME":"新營區","LI":"忠政里","LIN":"15鄰","STREET":"府西路","SECT":" ","MAREA":" ","LANE":"２３０巷","ALLEY":" ","HOUSE_NO":"３３號","E_COORD97":179904.60999999999,"N_COORD97":2579611.96,"ADDRESS":"府西路２３０巷３３號","OBJECTID":329623},"geometry":{"x":179904.6100000022,"y":2579611.9600000028}},{"attributes":{"ID":329633,"DIS_CODE":0,"TOWNNAME":"新營區","LI":"忠政里","LIN":"15鄰","STREET":"府西路","SECT":" ","MAREA":" ","LANE":"２３０巷","ALLEY":" ","HOUSE_NO":"４０號","E_COORD97":179925,"N_COORD97":2579599.6800000002,"ADDRESS":"府西路２３０巷４０號","OBJECTID":329624},"geometry":{"x":179925,"y":2579599.6799999997}},{"attributes":{"ID":329634,"DIS_CODE":0,"TOWNNAME":"新營區","LI":"嘉芳里","LIN":"15鄰","STREET":"復興路","SECT":" ","MAREA":" ","LANE":"１１２８巷","ALLEY":" ","HOUSE_NO":"４號","E_COORD97":176022.42000000001,"N_COORD97":2578902.1299999999,"ADDRESS":"復興路１１２８巷４號","OBJECTID":329625},"geometry":{"x":176022.42000000086,"y":2578902.129999999}},{"attributes":{"ID":329635,"DIS_CODE":0,"TOWNNAME":"東區","LI":"文聖里","LIN":"17鄰","STREET":"裕信路","SECT":" ","MAREA":" ","LANE":" ","ALLEY":" ","HOUSE_NO":"２７８號","E_COORD97":172587.39000000001,"N_COORD97":2542732.9399999999,"ADDRESS":"裕信路２７８號","OBJECTID":329626},"geometry":{"x":172587.39000000153,"y":2542732.9400000013}},{"attributes":{"ID":329636,"DIS_CODE":0,"TOWNNAME":"東區","LI":"文聖里","LIN":"17鄰","STREET":"裕信路","SECT":" ","MAREA":" ","LANE":" ","ALLEY":" ","HOUSE_NO":"２８０之１０號","E_COORD97":172533.19,"N_COORD97":2542716.71,"ADDRESS":"裕信路２８０之１０號","OBJECTID":329627},"geometry":{"x":172533.19000000041,"y":2542716.7100000028}},{"attributes":{"ID":329637,"DIS_CODE":0,"TOWNNAME":"東區","LI":"文聖里","LIN":"17鄰","STREET":"裕信路","SECT":" ","MAREA":" ","LANE":" ","ALLEY":" ","HOUSE_NO":"２８０之１１號","E_COORD97":172526.35000000001,"N_COORD97":2542716.98,"ADDRESS":"裕信路２８０之１１號","OBJECTID":329628},"geometry":{"x":172526.34999999963,"y":2542716.9800000023}},{"attributes":{"ID":329638,"DIS_CODE":0,"TOWNNAME":"永康區","LI":"正強里","LIN":"8鄰","STREET":"永正路","SECT":" ","MAREA":" ","LANE":" ","ALLEY":" ","HOUSE_NO":"６７號","E_COORD97":173531.64000000001,"N_COORD97":2547450.5,"ADDRESS":"永正路６７號","OBJECTID":329629},"geometry":{"x":173531.64000000153,"y":2547450.5}},{"attributes":{"ID":329639,"DIS_CODE":0,"TOWNNAME":"仁德區","LI":"中洲里","LIN":"4鄰","STREET":" ","SECT":" ","MAREA":"中洲","LANE":" ","ALLEY":" ","HOUSE_NO":"４８號之３","E_COORD97":173191.5,"N_COORD97":2534264.54,"ADDRESS":"中洲４８號之３","OBJECTID":329630},"geometry":{"x":173191.5,"y":2534264.5399999991}},{"attributes":{"ID":329640,"DIS_CODE":0,"TOWNNAME":"仁德區","LI":"仁愛里","LIN":"26鄰","STREET":"大同路","SECT":"三段","MAREA":" ","LANE":" ","ALLEY":" ","HOUSE_NO":"３５２號","E_COORD97":169754.280252,"N_COORD97":2539487.1143999998,"ADDRESS":"大同路三段３５２號","OBJECTID":329631},"geometry":{"x":169754.28025200125,"y":2539487.1144030001}},{"attributes":{"ID":329641,"DIS_CODE":0,"TOWNNAME":"仁德區","LI":"仁愛里","LIN":"26鄰","STREET":"大同路","SECT":"三段","MAREA":" ","LANE":" ","ALLEY":" ","HOUSE_NO":"３８０號","E_COORD97":169760.527,"N_COORD97":2539433.4834699999,"ADDRESS":"大同路三段３８０號","OBJECTID":329632},"geometry":{"x":169760.5270000007,"y":2539433.4834660012}},{"attributes":{"ID":329642,"DIS_CODE":0,"TOWNNAME":"仁德區","LI":"中洲里","LIN":"5鄰","STREET":" ","SECT":" ","MAREA":"中洲","LANE":" ","ALLEY":" ","HOUSE_NO":"２５２號","E_COORD97":173211.13,"N_COORD97":2534063.9900000002,"ADDRESS":"中洲２５２號","OBJECTID":329633},"geometry":{"x":173211.12999999989,"y":2534063.9900000021}},{"attributes":{"ID":329643,"DIS_CODE":0,"TOWNNAME":"仁德區","LI":"仁愛里","LIN":"26鄰","STREET":"大同路","SECT":"三段","MAREA":" ","LANE":" ","ALLEY":" ","HOUSE_NO":"１８８號","E_COORD97":169697.764543,"N_COORD97":2539786.7287099999,"ADDRESS":"大同路三段１８８號","OBJECTID":329634},"geometry":{"x":169697.76454300061,"y":2539786.728709003}},{"attributes":{"ID":329644,"DIS_CODE":0,"TOWNNAME":"仁德區","LI":"仁義里","LIN":"4鄰","STREET":"仁義三街","SECT":" ","MAREA":" ","LANE":"１７０巷","ALLEY":" ","HOUSE_NO":"１號","E_COORD97":173781.73000000001,"N_COORD97":2541093.0099999998,"ADDRESS":"仁義三街１７０巷１號","OBJECTID":329635},"geometry":{"x":173781.73000000138,"y":2541093.0099999998}},{"attributes":{"ID":329645,"DIS_CODE":0,"TOWNNAME":"仁德區","LI":"仁義里","LIN":"50鄰","STREET":"中清路","SECT":" ","MAREA":" ","LANE":"２３巷","ALLEY":" ","HOUSE_NO":"７號","E_COORD97":173658.26999999999,"N_COORD97":2541044.5499999998,"ADDRESS":"中清路２３巷７號","OBJECTID":329636},"geometry":{"x":173658.27000000048,"y":2541044.5500000045}},{"attributes":{"ID":329646,"DIS_CODE":0,"TOWNNAME":"仁德區","LI":"仁義里","LIN":"50鄰","STREET":"仁義路","SECT":" ","MAREA":" ","LANE":"９５巷","ALLEY":" ","HOUSE_NO":"５４號","E_COORD97":173638.39000000001,"N_COORD97":2541118.2599999998,"ADDRESS":"仁義路９５巷５４號","OBJECTID":329637},"geometry":{"x":173638.39000000153,"y":2541118.2600000016}},{"attributes":{"ID":329647,"DIS_CODE":0,"TOWNNAME":"新營區","LI":"嘉芳里","LIN":"15鄰","STREET":"復興路","SECT":" ","MAREA":" ","LANE":"１０７４巷","ALLEY":" ","HOUSE_NO":"１０號","E_COORD97":176137.20999999999,"N_COORD97":2578918.1800000002,"ADDRESS":"復興路１０７４巷１０號","OBJECTID":329638},"geometry":{"x":176137.21000000089,"y":2578918.1800000016}},{"attributes":{"ID":329648,"DIS_CODE":0,"TOWNNAME":"東區","LI":"文聖里","LIN":"17鄰","STREET":"裕信路","SECT":" ","MAREA":" ","LANE":" ","ALLEY":" ","HOUSE_NO":"２８０之１２號","E_COORD97":172519.5,"N_COORD97":2542717.1099999999,"ADDRESS":"裕信路２８０之１２號","OBJECTID":329639},"geometry":{"x":172519.50000000093,"y":2542717.1099999994}},{"attributes":{"ID":329649,"DIS_CODE":0,"TOWNNAME":"東區","LI":"文聖里","LIN":"17鄰","STREET":"裕信路","SECT":" ","MAREA":" ","LANE":" ","ALLEY":" ","HOUSE_NO":"２８０之１號","E_COORD97":172580.28,"N_COORD97":2542716.71,"ADDRESS":"裕信路２８０之１號","OBJECTID":329640},"geometry":{"x":172580.28000000212,"y":2542716.7100000028}},{"attributes":{"ID":329650,"DIS_CODE":0,"TOWNNAME":"東區","LI":"文聖里","LIN":"17鄰","STREET":"裕信路","SECT":" ","MAREA":" ","LANE":" ","ALLEY":" ","HOUSE_NO":"２８０之２號","E_COORD97":172574.38,"N_COORD97":2542716.5699999998,"ADDRESS":"裕信路２８０之２號","OBJECTID":329641},"geometry":{"x":172574.38000000082,"y":2542716.5700000022}},{"attributes":{"ID":329651,"DIS_CODE":0,"TOWNNAME":"東區","LI":"文聖里","LIN":"17鄰","STREET":"裕信路","SECT":" ","MAREA":" ","LANE":" ","ALLEY":" ","HOUSE_NO":"２８０之３號","E_COORD97":172568.75,"N_COORD97":2542716.4399999999,"ADDRESS":"裕信路２８０之３號","OBJECTID":329642},"geometry":{"x":172568.75000000093,"y":2542716.4400000013}},{"attributes":{"ID":329652,"DIS_CODE":0,"TOWNNAME":"東區","LI":"文聖里","LIN":"17鄰","STREET":"裕信路","SECT":" ","MAREA":" ","LANE":" ","ALLEY":" ","HOUSE_NO":"２８０之５號","E_COORD97":172563.38,"N_COORD97":2542716.5699999998,"ADDRESS":"裕信路２８０之５號","OBJECTID":329643},"geometry":{"x":172563.37999999989,"y":2542716.5700000022}},{"attributes":{"ID":329653,"DIS_CODE":0,"TOWNNAME":"仁德區","LI":"中洲里","LIN":"4鄰","STREET":" ","SECT":" ","MAREA":"中洲","LANE":" ","ALLEY":" ","HOUSE_NO":"３９號之２","E_COORD97":173228.41,"N_COORD97":2534343.54,"ADDRESS":"中洲３９號之２","OBJECTID":329644},"geometry":{"x":173228.41000000201,"y":2534343.5400000028}},{"attributes":{"ID":329654,"DIS_CODE":0,"TOWNNAME":"仁德區","LI":"中洲里","LIN":"5鄰","STREET":" ","SECT":" ","MAREA":"中洲","LANE":" ","ALLEY":" ","HOUSE_NO":"２５４號","E_COORD97":173219.04000000001,"N_COORD97":2534073.9900000002,"ADDRESS":"中洲２５４號","OBJECTID":329645},"geometry":{"x":173219.0400000019,"y":2534073.9900000039}},{"attributes":{"ID":329655,"DIS_CODE":0,"TOWNNAME":"仁德區","LI":"仁德里","LIN":"38鄰","STREET":"中山路","SECT":" ","MAREA":" ","LANE":"８４０巷","ALLEY":" ","HOUSE_NO":"２號","E_COORD97":172423.64999999999,"N_COORD97":2541641.5,"ADDRESS":"中山路８４０巷２號","OBJECTID":329646},"geometry":{"x":172423.65000000224,"y":2541641.5000000019}},{"attributes":{"ID":329656,"DIS_CODE":0,"TOWNNAME":"仁德區","LI":"仁義里","LIN":"46鄰","STREET":"仁義路","SECT":" ","MAREA":" ","LANE":"９８巷","ALLEY":" ","HOUSE_NO":"１號","E_COORD97":173629.31,"N_COORD97":2540942.27,"ADDRESS":"仁義路９８巷１號","OBJECTID":329647},"geometry":{"x":173629.31000000052,"y":2540942.2699999996}},{"attributes":{"ID":329657,"DIS_CODE":0,"TOWNNAME":"新營區","LI":"嘉芳里","LIN":"15鄰","STREET":"復興路","SECT":" ","MAREA":" ","LANE":"１０７４巷","ALLEY":" ","HOUSE_NO":"１６號","E_COORD97":176137.20999999999,"N_COORD97":2578918.1800000002,"ADDRESS":"復興路１０７４巷１６號","OBJECTID":329648},"geometry":{"x":176137.21000000089,"y":2578918.1800000016}},{"attributes":{"ID":329658,"DIS_CODE":0,"TOWNNAME":"新營區","LI":"嘉芳里","LIN":"15鄰","STREET":"復興路","SECT":" ","MAREA":" ","LANE":"１０７０巷","ALLEY":" ","HOUSE_NO":"２２號","E_COORD97":176160.78,"N_COORD97":2578914.73,"ADDRESS":"復興路１０７０巷２２號","OBJECTID":329649},"geometry":{"x":176160.78000000119,"y":2578914.7300000023}},{"attributes":{"ID":329659,"DIS_CODE":0,"TOWNNAME":"新營區","LI":"嘉芳里","LIN":"15鄰","STREET":"復興路","SECT":" ","MAREA":" ","LANE":"１１１２巷","ALLEY":" ","HOUSE_NO":"１２號","E_COORD97":176065.54999999999,"N_COORD97":2578908.5600000001,"ADDRESS":"復興路１１１２巷１２號","OBJECTID":329650},"geometry":{"x":176065.55000000075,"y":2578908.5600000024}},{"attributes":{"ID":329660,"DIS_CODE":0,"TOWNNAME":"新營區","LI":"南紙里","LIN":"15鄰","STREET":"南紙街","SECT":" ","MAREA":" ","LANE":"１５６巷","ALLEY":" ","HOUSE_NO":"８號","E_COORD97":177775.10999999999,"N_COORD97":2577343.04,"ADDRESS":"南紙街１５６巷８號","OBJECTID":329651},"geometry":{"x":177775.11000000034,"y":2577343.0399999991}},{"attributes":{"ID":329661,"DIS_CODE":0,"TOWNNAME":"東區","LI":"文聖里","LIN":"17鄰","STREET":"裕信路","SECT":" ","MAREA":" ","LANE":" ","ALLEY":" ","HOUSE_NO":"２８０之６號","E_COORD97":172557.73999999999,"N_COORD97":2542716.3100000001,"ADDRESS":"裕信路２８０之６號","OBJECTID":329652},"geometry":{"x":172557.74000000022,"y":2542716.3100000005}},{"attributes":{"ID":329662,"DIS_CODE":0,"TOWNNAME":"東區","LI":"文聖里","LIN":"17鄰","STREET":"裕信路","SECT":" ","MAREA":" ","LANE":" ","ALLEY":" ","HOUSE_NO":"２８０之７號","E_COORD97":172551.57000000001,"N_COORD97":2542716.3100000001,"ADDRESS":"裕信路２８０之７號","OBJECTID":329653},"geometry":{"x":172551.57000000123,"y":2542716.3100000005}},{"attributes":{"ID":329663,"DIS_CODE":0,"TOWNNAME":"山上區","LI":"明和里","LIN":"20鄰","STREET":" ","SECT":" ","MAREA":"明和","LANE":" ","ALLEY":" ","HOUSE_NO":"７１之３號","E_COORD97":183108.58985700001,"N_COORD97":2555999.9957099999,"ADDRESS":"明和７１之３號","OBJECTID":329654},"geometry":{"x":183108.58985699993,"y":2555999.9957100023}},{"attributes":{"ID":329664,"DIS_CODE":0,"TOWNNAME":"仁德區","LI":"仁愛里","LIN":"26鄰","STREET":"大同路","SECT":"三段","MAREA":" ","LANE":"３５８巷","ALLEY":" ","HOUSE_NO":"１３號","E_COORD97":169733.52499999999,"N_COORD97":2539428.5093,"ADDRESS":"大同路三段３５８巷１３號","OBJECTID":329655},"geometry":{"x":169733.52500000037,"y":2539428.5093020014}},{"attributes":{"ID":329665,"DIS_CODE":0,"TOWNNAME":"仁德區","LI":"仁德里","LIN":"4鄰","STREET":"仁中二街","SECT":" ","MAREA":" ","LANE":"７６巷","ALLEY":" ","HOUSE_NO":"１０號","E_COORD97":173277.70000000001,"N_COORD97":2540569.9900000002,"ADDRESS":"仁中二街７６巷１０號","OBJECTID":329656},"geometry":{"x":173277.70000000112,"y":2540569.9900000039}},{"attributes":{"ID":329666,"DIS_CODE":0,"TOWNNAME":"仁德區","LI":"仁德里","LIN":"20鄰","STREET":"中山路","SECT":" ","MAREA":" ","LANE":"８７５巷","ALLEY":" ","HOUSE_NO":"２５號","E_COORD97":172410.57999999999,"N_COORD97":2541479.75,"ADDRESS":"中山路８７５巷２５號","OBJECTID":329657},"geometry":{"x":172410.58000000101,"y":2541479.7500000037}},{"attributes":{"ID":329667,"DIS_CODE":0,"TOWNNAME":"北區","LI":"成功里","LIN":"15鄰","STREET":"西門路","SECT":"四段","MAREA":" ","LANE":"５３３巷","ALLEY":" ","HOUSE_NO":"１０號","E_COORD97":169185.04000000001,"N_COORD97":2546808.4900000002,"ADDRESS":"西門路四段５３３巷１０號","OBJECTID":329658},"geometry":{"x":169185.04000000097,"y":2546808.4900000021}},{"attributes":{"ID":329668,"DIS_CODE":0,"TOWNNAME":"北區","LI":"成功里","LIN":"15鄰","STREET":"西門路","SECT":"四段","MAREA":" ","LANE":"５３３巷","ALLEY":" ","HOUSE_NO":"１１號","E_COORD97":169169.81,"N_COORD97":2546814.9300000002,"ADDRESS":"西門路四段５３３巷１１號","OBJECTID":329659},"geometry":{"x":169169.80999999959,"y":2546814.9300000034}},{"attributes":{"ID":329669,"DIS_CODE":0,"TOWNNAME":"北區","LI":"成功里","LIN":"15鄰","STREET":"西門路","SECT":"四段","MAREA":" ","LANE":"５３３巷","ALLEY":" ","HOUSE_NO":"９之７號","E_COORD97":169157.22,"N_COORD97":2546778.9500000002,"ADDRESS":"西門路四段５３３巷９之７號","OBJECTID":329660},"geometry":{"x":169157.21999999974,"y":2546778.9499999993}},{"attributes":{"ID":329670,"DIS_CODE":0,"TOWNNAME":"北區","LI":"成功里","LIN":"15鄰","STREET":"西門路","SECT":"四段","MAREA":" ","LANE":"５３３巷","ALLEY":" ","HOUSE_NO":"９號","E_COORD97":169194.70999999999,"N_COORD97":2546802.6400000001,"ADDRESS":"西門路四段５３３巷９號","OBJECTID":329661},"geometry":{"x":169194.70999999996,"y":2546802.6400000006}},{"attributes":{"ID":329671,"DIS_CODE":0,"TOWNNAME":"北區","LI":"成功里","LIN":"15鄰","STREET":"西門路","SECT":"四段","MAREA":" ","LANE":"５３３巷","ALLEY":" ","HOUSE_NO":"９號之８","E_COORD97":169152.23999999999,"N_COORD97":2546780.7000000002,"ADDRESS":"西門路四段５３３巷９號之８","OBJECTID":329662},"geometry":{"x":169152.24000000022,"y":2546780.6999999993}},{"attributes":{"ID":329672,"DIS_CODE":0,"TOWNNAME":"鹽水區","LI":"橋南里","LIN":"15鄰","STREET":"月津路","SECT":" ","MAREA":" ","LANE":"１２巷","ALLEY":" ","HOUSE_NO":"１０號","E_COORD97":174972.35999999999,"N_COORD97":2579531.0800000001,"ADDRESS":"月津路１２巷１０號","OBJECTID":329663},"geometry":{"x":174972.36000000127,"y":2579531.0799999982}},{"attributes":{"ID":329673,"DIS_CODE":0,"TOWNNAME":"東區","LI":"文聖里","LIN":"17鄰","STREET":"裕信路","SECT":" ","MAREA":" ","LANE":" ","ALLEY":" ","HOUSE_NO":"２８０之８號","E_COORD97":172545.53,"N_COORD97":2542716.5699999998,"ADDRESS":"裕信路２８０之８號","OBJECTID":329664},"geometry":{"x":172545.53000000026,"y":2542716.5700000022}},{"attributes":{"ID":329674,"DIS_CODE":0,"TOWNNAME":"東區","LI":"文聖里","LIN":"17鄰","STREET":"裕信路","SECT":" ","MAREA":" ","LANE":" ","ALLEY":" ","HOUSE_NO":"２８０之９號","E_COORD97":172539.5,"N_COORD97":2542716.71,"ADDRESS":"裕信路２８０之９號","OBJECTID":329665},"geometry":{"x":172539.50000000186,"y":2542716.7100000028}},{"attributes":{"ID":329675,"DIS_CODE":0,"TOWNNAME":"東區","LI":"文聖里","LIN":"17鄰","STREET":"裕信路","SECT":" ","MAREA":" ","LANE":" ","ALLEY":" ","HOUSE_NO":"２８０號","E_COORD97":172586.04999999999,"N_COORD97":2542716.4399999999,"ADDRESS":"裕信路２８０號","OBJECTID":329666},"geometry":{"x":172586.04999999981,"y":2542716.4400000013}},{"attributes":{"ID":329676,"DIS_CODE":0,"TOWNNAME":"仁德區","LI":"仁德里","LIN":"4鄰","STREET":"仁中二街","SECT":" ","MAREA":" ","LANE":"７６巷","ALLEY":" ","HOUSE_NO":"２０號","E_COORD97":173283,"N_COORD97":2540578.7400000002,"ADDRESS":"仁中二街７６巷２０號","OBJECTID":329667},"geometry":{"x":173283,"y":2540578.7400000021}},{"attributes":{"ID":329677,"DIS_CODE":0,"TOWNNAME":"仁德區","LI":"仁德里","LIN":"18鄰","STREET":"文華路","SECT":"三段","MAREA":" ","LANE":"１８９巷","ALLEY":" ","HOUSE_NO":"７５號","E_COORD97":172084.82999999999,"N_COORD97":2540443.0099999998,"ADDRESS":"文華路三段１８９巷７５號","OBJECTID":329668},"geometry":{"x":172084.83000000101,"y":2540443.0099999998}},{"attributes":{"ID":329678,"DIS_CODE":0,"TOWNNAME":"仁德區","LI":"仁義里","LIN":"4鄰","STREET":"仁義三街","SECT":" ","MAREA":" ","LANE":"２０５巷","ALLEY":" ","HOUSE_NO":"１號","E_COORD97":173869.72,"N_COORD97":2541149.52,"ADDRESS":"仁義三街２０５巷１號","OBJECTID":329669},"geometry":{"x":173869.71999999974,"y":2541149.5200000014}},{"attributes":{"ID":329679,"DIS_CODE":0,"TOWNNAME":"仁德區","LI":"太子里","LIN":"38鄰","STREET":"長興一街","SECT":" ","MAREA":" ","LANE":"９７巷","ALLEY":" ","HOUSE_NO":"５號","E_COORD97":174260.98999999999,"N_COORD97":2543813.5,"ADDRESS":"長興一街９７巷５號","OBJECTID":329670},"geometry":{"x":174260.99000000115,"y":2543813.5}},{"attributes":{"ID":329680,"DIS_CODE":0,"TOWNNAME":"仁德區","LI":"太子里","LIN":"32鄰","STREET":"太子路","SECT":" ","MAREA":" ","LANE":"４９５巷","ALLEY":" ","HOUSE_NO":"２號","E_COORD97":174014.72,"N_COORD97":2543476,"ADDRESS":"太子路４９５巷２號","OBJECTID":329671},"geometry":{"x":174014.72000000067,"y":2543476.0000000019}},{"attributes":{"ID":329681,"DIS_CODE":0,"TOWNNAME":"仁德區","LI":"太子里","LIN":"18鄰","STREET":"太興路","SECT":" ","MAREA":" ","LANE":"１１７巷","ALLEY":" ","HOUSE_NO":"１９號","E_COORD97":174047.09,"N_COORD97":2543569,"ADDRESS":"太興路１１７巷１９號","OBJECTID":329672},"geometry":{"x":174047.08999999985,"y":2543569}},{"attributes":{"ID":329682,"DIS_CODE":0,"TOWNNAME":"仁德區","LI":"太子里","LIN":"47鄰","STREET":"太子路","SECT":" ","MAREA":" ","LANE":"９巷","ALLEY":" ","HOUSE_NO":"２５號","E_COORD97":175485.45999999999,"N_COORD97":2543480.25,"ADDRESS":"太子路９巷２５號","OBJECTID":329673},"geometry":{"x":175485.45999999996,"y":2543480.2500000037}},{"attributes":{"ID":329683,"DIS_CODE":0,"TOWNNAME":"仁德區","LI":"太子里","LIN":"38鄰","STREET":"長興一街","SECT":" ","MAREA":" ","LANE":"９７巷","ALLEY":" ","HOUSE_NO":"４號","E_COORD97":174251.70999999999,"N_COORD97":2543830.2599999998,"ADDRESS":"長興一街９７巷４號","OBJECTID":329674},"geometry":{"x":174251.70999999903,"y":2543830.2600000016}},{"attributes":{"ID":329684,"DIS_CODE":0,"TOWNNAME":"東區","LI":"文聖里","LIN":"17鄰","STREET":"裕信路","SECT":" ","MAREA":" ","LANE":" ","ALLEY":" ","HOUSE_NO":"２８２號","E_COORD97":172585.92000000001,"N_COORD97":2542705.04,"ADDRESS":"裕信路２８２號","OBJECTID":329675},"geometry":{"x":172585.92000000086,"y":2542705.040000001}},{"attributes":{"ID":329685,"DIS_CODE":0,"TOWNNAME":"東區","LI":"文聖里","LIN":"17鄰","STREET":"裕信路","SECT":" ","MAREA":" ","LANE":" ","ALLEY":" ","HOUSE_NO":"２８２之１０號","E_COORD97":172533.06,"N_COORD97":2542707.1800000002,"ADDRESS":"裕信路２８２之１０號","OBJECTID":329676},"geometry":{"x":172533.05999999959,"y":2542707.1800000034}},{"attributes":{"ID":329686,"DIS_CODE":0,"TOWNNAME":"東區","LI":"文聖里","LIN":"17鄰","STREET":"裕信路","SECT":" ","MAREA":" ","LANE":" ","ALLEY":" ","HOUSE_NO":"２８２之１１號","E_COORD97":172526.07999999999,"N_COORD97":2542707.3199999998,"ADDRESS":"裕信路２８２之１１號","OBJECTID":329677},"geometry":{"x":172526.08000000101,"y":2542707.3200000022}},{"attributes":{"ID":329687,"DIS_CODE":0,"TOWNNAME":"東區","LI":"文聖里","LIN":"17鄰","STREET":"裕信路","SECT":" ","MAREA":" ","LANE":" ","ALLEY":" ","HOUSE_NO":"２８２之１２號","E_COORD97":172519.10000000001,"N_COORD97":2542707.5899999999,"ADDRESS":"裕信路２８２之１２號","OBJECTID":329678},"geometry":{"x":172519.09999999963,"y":2542707.5899999999}},{"attributes":{"ID":329688,"DIS_CODE":0,"TOWNNAME":"東區","LI":"文聖里","LIN":"17鄰","STREET":"裕信路","SECT":" ","MAREA":" ","LANE":" ","ALLEY":" ","HOUSE_NO":"２８２之１號","E_COORD97":172581.09,"N_COORD97":2542705.04,"ADDRESS":"裕信路２８２之１號","OBJECTID":329679},"geometry":{"x":172581.09000000171,"y":2542705.040000001}},{"attributes":{"ID":329689,"DIS_CODE":0,"TOWNNAME":"東區","LI":"文聖里","LIN":"17鄰","STREET":"裕信路","SECT":" ","MAREA":" ","LANE":" ","ALLEY":" ","HOUSE_NO":"２８２之２號","E_COORD97":172575.32000000001,"N_COORD97":2542705.2999999998,"ADDRESS":"裕信路２８２之２號","OBJECTID":329680},"geometry":{"x":172575.32000000123,"y":2542705.3000000026}},{"attributes":{"ID":329690,"DIS_CODE":0,"TOWNNAME":"東區","LI":"文聖里","LIN":"17鄰","STREET":"裕信路","SECT":" ","MAREA":" ","LANE":" ","ALLEY":" ","HOUSE_NO":"２８２之３號","E_COORD97":172569.42000000001,"N_COORD97":2542705.5699999998,"ADDRESS":"裕信路２８２之３號","OBJECTID":329681},"geometry":{"x":172569.42000000086,"y":2542705.5700000022}},{"attributes":{"ID":329691,"DIS_CODE":0,"TOWNNAME":"仁德區","LI":"仁德里","LIN":"4鄰","STREET":"仁中二街","SECT":" ","MAREA":" ","LANE":"７６巷","ALLEY":" ","HOUSE_NO":"１２號","E_COORD97":173282.67999999999,"N_COORD97":2540570.2400000002,"ADDRESS":"仁中二街７６巷１２號","OBJECTID":329682},"geometry":{"x":173282.68000000063,"y":2540570.2400000002}},{"attributes":{"ID":329692,"DIS_CODE":0,"TOWNNAME":"仁德區","LI":"太子里","LIN":"4鄰","STREET":"太子路","SECT":" ","MAREA":" ","LANE":"１９０巷","ALLEY":" ","HOUSE_NO":"２９號","E_COORD97":174308.38,"N_COORD97":2543617.23,"ADDRESS":"太子路１９０巷２９號","OBJECTID":329683},"geometry":{"x":174308.38000000082,"y":2543617.2300000023}},{"attributes":{"ID":329693,"DIS_CODE":0,"TOWNNAME":"歸仁區","LI":"武東里","LIN":"6鄰","STREET":"高鐵七路","SECT":" ","MAREA":" ","LANE":"１１０巷","ALLEY":" ","HOUSE_NO":"７６號","E_COORD97":175827.63227999999,"N_COORD97":2535708.2710199999,"ADDRESS":"高鐵七路１１０巷７６號","OBJECTID":329684},"geometry":{"x":175827.63227999862,"y":2535708.2710159998}},{"attributes":{"ID":329694,"DIS_CODE":0,"TOWNNAME":"仁德區","LI":"仁德里","LIN":"5鄰","STREET":"仁德四街","SECT":" ","MAREA":" ","LANE":"７巷","ALLEY":" ","HOUSE_NO":"１６號","E_COORD97":173348.42999999999,"N_COORD97":2540789.5099999998,"ADDRESS":"仁德四街７巷１６號","OBJECTID":329685},"geometry":{"x":173348.43000000063,"y":2540789.5100000035}},{"attributes":{"ID":329695,"DIS_CODE":0,"TOWNNAME":"仁德區","LI":"仁德里","LIN":"18鄰","STREET":"文華路","SECT":"三段","MAREA":" ","LANE":"１８９巷","ALLEY":" ","HOUSE_NO":"７１號","E_COORD97":172082.13,"N_COORD97":2540434.0099999998,"ADDRESS":"文華路三段１８９巷７１號","OBJECTID":329686},"geometry":{"x":172082.12999999989,"y":2540434.0100000016}},{"attributes":{"ID":329696,"DIS_CODE":0,"TOWNNAME":"仁德區","LI":"仁德里","LIN":"4鄰","STREET":"仁中二街","SECT":" ","MAREA":" ","LANE":"７６巷","ALLEY":" ","HOUSE_NO":"８號","E_COORD97":173270.06,"N_COORD97":2540566.4900000002,"ADDRESS":"仁中二街７６巷８號","OBJECTID":329687},"geometry":{"x":173270.06000000052,"y":2540566.4900000039}},{"attributes":{"ID":329697,"DIS_CODE":0,"TOWNNAME":"仁德區","LI":"仁德里","LIN":"20鄰","STREET":"中山路","SECT":" ","MAREA":" ","LANE":"８７５巷","ALLEY":" ","HOUSE_NO":"３７號","E_COORD97":172395.34,"N_COORD97":2541430.7400000002,"ADDRESS":"中山路８７５巷３７號","OBJECTID":329688},"geometry":{"x":172395.34000000078,"y":2541430.7400000021}},{"attributes":{"ID":329698,"DIS_CODE":0,"TOWNNAME":"鹽水區","LI":"橋南里","LIN":"15鄰","STREET":"月津路","SECT":" ","MAREA":" ","LANE":"１２巷","ALLEY":" ","HOUSE_NO":"１１號","E_COORD97":174838.14999999999,"N_COORD97":2579555,"ADDRESS":"月津路１２巷１１號","OBJECTID":329689},"geometry":{"x":174838.1500000013,"y":2579555}},{"attributes":{"ID":329699,"DIS_CODE":0,"TOWNNAME":"鹽水區","LI":"橋南里","LIN":"15鄰","STREET":"月津路","SECT":" ","MAREA":" ","LANE":"１２巷","ALLEY":" ","HOUSE_NO":"１３號","E_COORD97":174833.95999999999,"N_COORD97":2579556.4100000001,"ADDRESS":"月津路１２巷１３號","OBJECTID":329690},"geometry":{"x":174833.96000000089,"y":2579556.4100000039}},{"attributes":{"ID":329700,"DIS_CODE":0,"TOWNNAME":"麻豆區","LI":"海埔里","LIN":"1鄰","STREET":" ","SECT":" ","MAREA":"埤子尾","LANE":" ","ALLEY":" ","HOUSE_NO":"１２號之６","E_COORD97":169753.97,"N_COORD97":2566410.4700000002,"ADDRESS":"埤子尾１２號之６","OBJECTID":329691},"geometry":{"x":169753.96999999974,"y":2566410.4700000007}},{"attributes":{"ID":329701,"DIS_CODE":0,"TOWNNAME":"鹽水區","LI":"橋南里","LIN":"15鄰","STREET":"月津路","SECT":" ","MAREA":" ","LANE":"１２巷","ALLEY":" ","HOUSE_NO":"１５號","E_COORD97":174830.01000000001,"N_COORD97":2579557.9399999999,"ADDRESS":"月津路１２巷１５號","OBJECTID":329692},"geometry":{"x":174830.01000000071,"y":2579557.9399999995}},{"attributes":{"ID":329702,"DIS_CODE":0,"TOWNNAME":"東區","LI":"文聖里","LIN":"17鄰","STREET":"裕信路","SECT":" ","MAREA":" ","LANE":" ","ALLEY":" ","HOUSE_NO":"２８２之５號","E_COORD97":172563.64999999999,"N_COORD97":2542705.71,"ADDRESS":"裕信路２８２之５號","OBJECTID":329693},"geometry":{"x":172563.65000000037,"y":2542705.7100000028}},{"attributes":{"ID":329703,"DIS_CODE":0,"TOWNNAME":"東區","LI":"文聖里","LIN":"17鄰","STREET":"裕信路","SECT":" ","MAREA":" ","LANE":" ","ALLEY":" ","HOUSE_NO":"２８２之６號","E_COORD97":172557.73999999999,"N_COORD97":2542705.5699999998,"ADDRESS":"裕信路２８２之６號","OBJECTID":329694},"geometry":{"x":172557.74000000022,"y":2542705.5700000022}},{"attributes":{"ID":329704,"DIS_CODE":0,"TOWNNAME":"東區","LI":"文聖里","LIN":"17鄰","STREET":"裕信路","SECT":" ","MAREA":" ","LANE":" ","ALLEY":" ","HOUSE_NO":"２８２之７號","E_COORD97":172552.23999999999,"N_COORD97":2542705.5699999998,"ADDRESS":"裕信路２８２之７號","OBJECTID":329695},"geometry":{"x":172552.24000000115,"y":2542705.5700000022}},{"attributes":{"ID":329705,"DIS_CODE":0,"TOWNNAME":"東區","LI":"文聖里","LIN":"17鄰","STREET":"裕信路","SECT":" ","MAREA":" ","LANE":" ","ALLEY":" ","HOUSE_NO":"２８２之８號","E_COORD97":172545.53,"N_COORD97":2542705.8399999999,"ADDRESS":"裕信路２８２之８號","OBJECTID":329696},"geometry":{"x":172545.53000000026,"y":2542705.8399999999}},{"attributes":{"ID":329706,"DIS_CODE":0,"TOWNNAME":"東區","LI":"文聖里","LIN":"17鄰","STREET":"裕信路","SECT":" ","MAREA":" ","LANE":" ","ALLEY":" ","HOUSE_NO":"２８２之９號","E_COORD97":172538.95999999999,"N_COORD97":2542706.5099999998,"ADDRESS":"裕信路２８２之９號","OBJECTID":329697},"geometry":{"x":172538.95999999996,"y":2542706.5100000016}},{"attributes":{"ID":329707,"DIS_CODE":0,"TOWNNAME":"麻豆區","LI":"北勢里","LIN":"3鄰","STREET":" ","SECT":" ","MAREA":"加輦邦","LANE":" ","ALLEY":" ","HOUSE_NO":"２５號之３","E_COORD97":173247.39000000001,"N_COORD97":2566244.29,"ADDRESS":"加輦邦２５號之３","OBJECTID":329698},"geometry":{"x":173247.3900000006,"y":2566244.2899999991}},{"attributes":{"ID":329708,"DIS_CODE":0,"TOWNNAME":"仁德區","LI":"仁義里","LIN":"18鄰","STREET":"正義三街","SECT":" ","MAREA":" ","LANE":"２８６巷","ALLEY":" ","HOUSE_NO":"４６號","E_COORD97":173989.62,"N_COORD97":2541452.5,"ADDRESS":"正義三街２８６巷４６號","OBJECTID":329699},"geometry":{"x":173989.62000000011,"y":2541452.5000000019}},{"attributes":{"ID":329709,"DIS_CODE":0,"TOWNNAME":"安南區","LI":"安東里","LIN":"4鄰","STREET":"安和路","SECT":"一段","MAREA":" ","LANE":"２８８巷","ALLEY":" ","HOUSE_NO":"１９１號","E_COORD97":169880.17000000001,"N_COORD97":2548335.7599999998,"ADDRESS":"安和路一段２８８巷１９１號","OBJECTID":329700},"geometry":{"x":169880.17000000179,"y":2548335.7600000016}},{"attributes":{"ID":329710,"DIS_CODE":0,"TOWNNAME":"東區","LI":"新東里","LIN":"19鄰","STREET":"裕豐街","SECT":" ","MAREA":" ","LANE":"１８５巷","ALLEY":" ","HOUSE_NO":"１９號","E_COORD97":170726.07999999999,"N_COORD97":2543184.4900000002,"ADDRESS":"裕豐街１８５巷１９號","OBJECTID":329701},"geometry":{"x":170726.08000000007,"y":2543184.4900000021}},{"attributes":{"ID":329711,"DIS_CODE":0,"TOWNNAME":"東區","LI":"新東里","LIN":"19鄰","STREET":"裕豐街","SECT":" ","MAREA":" ","LANE":"１８５巷","ALLEY":" ","HOUSE_NO":"２１號","E_COORD97":170721.14999999999,"N_COORD97":2543183.6499999999,"ADDRESS":"裕豐街１８５巷２１號","OBJECTID":329702},"geometry":{"x":170721.15000000037,"y":2543183.6500000022}},{"attributes":{"ID":329712,"DIS_CODE":0,"TOWNNAME":"東區","LI":"新東里","LIN":"19鄰","STREET":"裕豐街","SECT":" ","MAREA":" ","LANE":"１８５巷","ALLEY":" ","HOUSE_NO":"２３號","E_COORD97":170717.26999999999,"N_COORD97":2543178.2000000002,"ADDRESS":"裕豐街１８５巷２３號","OBJECTID":329703},"geometry":{"x":170717.27000000048,"y":2543178.2000000011}},{"attributes":{"ID":329713,"DIS_CODE":0,"TOWNNAME":"東區","LI":"新東里","LIN":"19鄰","STREET":"裕豐街","SECT":" ","MAREA":" ","LANE":"１８５巷","ALLEY":" ","HOUSE_NO":"２５號","E_COORD97":170713.28,"N_COORD97":2543178.0899999999,"ADDRESS":"裕豐街１８５巷２５號","OBJECTID":329704},"geometry":{"x":170713.28000000026,"y":2543178.0899999999}},{"attributes":{"ID":329714,"DIS_CODE":0,"TOWNNAME":"東區","LI":"新東里","LIN":"19鄰","STREET":"裕豐街","SECT":" ","MAREA":" ","LANE":"１８５巷","ALLEY":" ","HOUSE_NO":"２７號","E_COORD97":170708.98000000001,"N_COORD97":2543179.3500000001,"ADDRESS":"裕豐街１８５巷２７號","OBJECTID":329705},"geometry":{"x":170708.98000000045,"y":2543179.3499999996}},{"attributes":{"ID":329715,"DIS_CODE":0,"TOWNNAME":"安南區","LI":"梅花里","LIN":"2鄰","STREET":"安中路","SECT":"一段","MAREA":" ","LANE":"６３９巷","ALLEY":" ","HOUSE_NO":"７２號","E_COORD97":167709.53,"N_COORD97":2549022.1200000001,"ADDRESS":"安中路一段６３９巷７２號","OBJECTID":329706},"geometry":{"x":167709.53000000026,"y":2549022.1200000048}},{"attributes":{"ID":329716,"DIS_CODE":0,"TOWNNAME":"安南區","LI":"學東里","LIN":"14鄰","STREET":"公學路","SECT":"七段","MAREA":" ","LANE":"９７巷","ALLEY":" ","HOUSE_NO":"９８號","E_COORD97":161461.64999999999,"N_COORD97":2553033.9500000002,"ADDRESS":"公學路七段９７巷９８號","OBJECTID":329707},"geometry":{"x":161461.65000000037,"y":2553033.9499999993}},{"attributes":{"ID":329717,"DIS_CODE":0,"TOWNNAME":"鹽水區","LI":"橋南里","LIN":"15鄰","STREET":"月津路","SECT":" ","MAREA":" ","LANE":"１２巷","ALLEY":" ","HOUSE_NO":"４７號","E_COORD97":174758.72,"N_COORD97":2579638.3599999999,"ADDRESS":"月津路１２巷４７號","OBJECTID":329708},"geometry":{"x":174758.72000000067,"y":2579638.3600000013}},{"attributes":{"ID":329718,"DIS_CODE":0,"TOWNNAME":"鹽水區","LI":"橋南里","LIN":"15鄰","STREET":"月津路","SECT":" ","MAREA":" ","LANE":"１２巷","ALLEY":" ","HOUSE_NO":"４８號","E_COORD97":174889.03,"N_COORD97":2579561.1899999999,"ADDRESS":"月津路１２巷４８號","OBJECTID":329709},"geometry":{"x":174889.03000000212,"y":2579561.1900000013}},{"attributes":{"ID":329719,"DIS_CODE":0,"TOWNNAME":"鹽水區","LI":"橋南里","LIN":"15鄰","STREET":"月津路","SECT":" ","MAREA":" ","LANE":"１２巷","ALLEY":" ","HOUSE_NO":"４９號","E_COORD97":174759.35000000001,"N_COORD97":2579642.6400000001,"ADDRESS":"月津路１２巷４９號","OBJECTID":329710},"geometry":{"x":174759.35000000056,"y":2579642.6400000006}},{"attributes":{"ID":329720,"DIS_CODE":0,"TOWNNAME":"善化區","LI":"坐駕里","LIN":"17鄰","STREET":"興華路","SECT":" ","MAREA":" ","LANE":" ","ALLEY":" ","HOUSE_NO":"２３７之２號","E_COORD97":177985.26000000001,"N_COORD97":2558500.77,"ADDRESS":"興華路２３７之２號","OBJECTID":329711},"geometry":{"x":177985.25999999978,"y":2558500.7699999996}},{"attributes":{"ID":329721,"DIS_CODE":0,"TOWNNAME":"善化區","LI":"坐駕里","LIN":"17鄰","STREET":"興華路","SECT":" ","MAREA":" ","LANE":" ","ALLEY":" ","HOUSE_NO":"２７１之４號","E_COORD97":177866.44,"N_COORD97":2558479.27,"ADDRESS":"興華路２７１之４號","OBJECTID":329712},"geometry":{"x":177866.43999999948,"y":2558479.2700000014}},{"attributes":{"ID":329722,"DIS_CODE":0,"TOWNNAME":"善化區","LI":"坐駕里","LIN":"17鄰","STREET":"興華路","SECT":" ","MAREA":" ","LANE":" ","ALLEY":" ","HOUSE_NO":"２８８號","E_COORD97":177804.47,"N_COORD97":2558526.75,"ADDRESS":"興華路２８８號","OBJECTID":329713},"geometry":{"x":177804.46999999974,"y":2558526.7500000037}},{"attributes":{"ID":329723,"DIS_CODE":0,"TOWNNAME":"善化區","LI":"坐駕里","LIN":"17鄰","STREET":"興華路","SECT":" ","MAREA":" ","LANE":" ","ALLEY":" ","HOUSE_NO":"３００號","E_COORD97":177787.95999999999,"N_COORD97":2558522.75,"ADDRESS":"興華路３００號","OBJECTID":329714},"geometry":{"x":177787.96000000183,"y":2558522.75}},{"attributes":{"ID":329724,"DIS_CODE":0,"TOWNNAME":"善化區","LI":"光文里","LIN":"17鄰","STREET":"民權路","SECT":" ","MAREA":" ","LANE":" ","ALLEY":" ","HOUSE_NO":"２０５號","E_COORD97":178173.95999999999,"N_COORD97":2558990.0099999998,"ADDRESS":"民權路２０５號","OBJECTID":329715},"geometry":{"x":178173.95999999996,"y":2558990.0100000016}},{"attributes":{"ID":329725,"DIS_CODE":0,"TOWNNAME":"善化區","LI":"坐駕里","LIN":"17鄰","STREET":"興華路","SECT":" ","MAREA":" ","LANE":" ","ALLEY":" ","HOUSE_NO":"２７５號","E_COORD97":177850.57000000001,"N_COORD97":2558505.5,"ADDRESS":"興華路２７５號","OBJECTID":329716},"geometry":{"x":177850.57000000123,"y":2558505.5000000019}},{"attributes":{"ID":329726,"DIS_CODE":0,"TOWNNAME":"善化區","LI":"坐駕里","LIN":"17鄰","STREET":"興華路","SECT":" ","MAREA":" ","LANE":" ","ALLEY":" ","HOUSE_NO":"２３７之３號","E_COORD97":177988.91,"N_COORD97":2558496.52,"ADDRESS":"興華路２３７之３號","OBJECTID":329717},"geometry":{"x":177988.91000000108,"y":2558496.5199999996}},{"attributes":{"ID":329727,"DIS_CODE":0,"TOWNNAME":"善化區","LI":"坐駕里","LIN":"17鄰","STREET":"建國路","SECT":" ","MAREA":" ","LANE":" ","ALLEY":" ","HOUSE_NO":"２０號","E_COORD97":178020.26000000001,"N_COORD97":2558416.5299999998,"ADDRESS":"建國路２０號","OBJECTID":329718},"geometry":{"x":178020.26000000071,"y":2558416.5300000012}},{"attributes":{"ID":329728,"DIS_CODE":0,"TOWNNAME":"仁德區","LI":"上崙里","LIN":"17鄰","STREET":"德崙路","SECT":" ","MAREA":" ","LANE":" ","ALLEY":" ","HOUSE_NO":"３５６號","E_COORD97":173972.42999999999,"N_COORD97":2538111.0099999998,"ADDRESS":"德崙路３５６號","OBJECTID":329719},"geometry":{"x":173972.43000000063,"y":2538111.0100000035}},{"attributes":{"ID":329729,"DIS_CODE":0,"TOWNNAME":"仁德區","LI":"太子里","LIN":"17鄰","STREET":"太子路","SECT":" ","MAREA":" ","LANE":" ","ALLEY":" ","HOUSE_NO":"２６６號","E_COORD97":174099.29000000001,"N_COORD97":2543516.7599999998,"ADDRESS":"太子路２６６號","OBJECTID":329720},"geometry":{"x":174099.29000000097,"y":2543516.7599999998}},{"attributes":{"ID":329730,"DIS_CODE":0,"TOWNNAME":"安南區","LI":"安順里","LIN":"10鄰","STREET":"開安路","SECT":" ","MAREA":" ","LANE":"６３巷","ALLEY":" ","HOUSE_NO":"７８號","E_COORD97":170129.64999999999,"N_COORD97":2549888.7999999998,"ADDRESS":"開安路６３巷７８號","OBJECTID":329721},"geometry":{"x":170129.65000000037,"y":2549888.8000000026}},{"attributes":{"ID":329731,"DIS_CODE":0,"TOWNNAME":"安南區","LI":"東和里","LIN":"4鄰","STREET":"長和路","SECT":"一段","MAREA":" ","LANE":"８２３巷","ALLEY":" ","HOUSE_NO":"３９８號","E_COORD97":170832.09015599999,"N_COORD97":2550554.3803699999,"ADDRESS":"長和路一段８２３巷３９８號","OBJECTID":329722},"geometry":{"x":170832.09015600011,"y":2550554.3803660031}},{"attributes":{"ID":329732,"DIS_CODE":0,"TOWNNAME":"安南區","LI":"\u25A0南里","LIN":"20鄰","STREET":"環福街","SECT":" ","MAREA":" ","LANE":"１５２巷","ALLEY":" ","HOUSE_NO":"３９號","E_COORD97":170481.70999999999,"N_COORD97":2552573.4199999999,"ADDRESS":"環福街１５２巷３９號","OBJECTID":329723},"geometry":{"x":170481.71000000183,"y":2552573.4200000018}},{"attributes":{"ID":329733,"DIS_CODE":0,"TOWNNAME":"安南區","LI":"州北里","LIN":"25鄰","STREET":"安和路","SECT":"五段","MAREA":" ","LANE":"１７１巷","ALLEY":" ","HOUSE_NO":"２３號","E_COORD97":169782.25,"N_COORD97":2551802.7799999998,"ADDRESS":"安和路五段１７１巷２３號","OBJECTID":329724},"geometry":{"x":169782.25,"y":2551802.7800000031}},{"attributes":{"ID":329734,"DIS_CODE":0,"TOWNNAME":"安南區","LI":"安慶里","LIN":"13鄰","STREET":"培安路","SECT":" ","MAREA":" ","LANE":"２６７巷","ALLEY":" ","HOUSE_NO":"１２號","E_COORD97":169338.66,"N_COORD97":2548921.02,"ADDRESS":"培安路２６７巷１２號","OBJECTID":329725},"geometry":{"x":169338.66000000108,"y":2548921.0200000014}},{"attributes":{"ID":329735,"DIS_CODE":0,"TOWNNAME":"安南區","LI":"安慶里","LIN":"13鄰","STREET":"怡安路","SECT":"一段","MAREA":" ","LANE":"１３巷","ALLEY":" ","HOUSE_NO":"１號","E_COORD97":169520.84,"N_COORD97":2548922.4700000002,"ADDRESS":"怡安路一段１３巷１號","OBJECTID":329726},"geometry":{"x":169520.83999999985,"y":2548922.4700000025}},{"attributes":{"ID":329736,"DIS_CODE":0,"TOWNNAME":"安南區","LI":"安慶里","LIN":"13鄰","STREET":"怡安路","SECT":"一段","MAREA":" ","LANE":"１３巷","ALLEY":" ","HOUSE_NO":"３號","E_COORD97":169518.79999999999,"N_COORD97":2548917.6099999999,"ADDRESS":"怡安路一段１３巷３號","OBJECTID":329727},"geometry":{"x":169518.80000000075,"y":2548917.6099999994}},{"attributes":{"ID":329737,"DIS_CODE":0,"TOWNNAME":"安南區","LI":"安慶里","LIN":"13鄰","STREET":"怡安路","SECT":"一段","MAREA":" ","LANE":"１３巷","ALLEY":" ","HOUSE_NO":"５號","E_COORD97":169515.39999999999,"N_COORD97":2548914.2599999998,"ADDRESS":"怡安路一段１３巷５號","OBJECTID":329728},"geometry":{"x":169515.4000000013,"y":2548914.2599999998}},{"attributes":{"ID":329738,"DIS_CODE":0,"TOWNNAME":"鹽水區","LI":"橋南里","LIN":"15鄰","STREET":"月津路","SECT":" ","MAREA":" ","LANE":"１２巷","ALLEY":" ","HOUSE_NO":"５０號","E_COORD97":174885.26999999999,"N_COORD97":2579562.5099999998,"ADDRESS":"月津路１２巷５０號","OBJECTID":329729},"geometry":{"x":174885.27000000048,"y":2579562.5100000016}},{"attributes":{"ID":329739,"DIS_CODE":0,"TOWNNAME":"鹽水區","LI":"橋南里","LIN":"15鄰","STREET":"月津路","SECT":" ","MAREA":" ","LANE":"１２巷","ALLEY":" ","HOUSE_NO":"５１號","E_COORD97":174759.98000000001,"N_COORD97":2579646.9199999999,"ADDRESS":"月津路１２巷５１號","OBJECTID":329730},"geometry":{"x":174759.98000000045,"y":2579646.9199999999}},{"attributes":{"ID":329740,"DIS_CODE":0,"TOWNNAME":"鹽水區","LI":"橋南里","LIN":"15鄰","STREET":"月津路","SECT":" ","MAREA":" ","LANE":"１２巷","ALLEY":" ","HOUSE_NO":"５２號","E_COORD97":174881.04999999999,"N_COORD97":2579563.96,"ADDRESS":"月津路１２巷５２號","OBJECTID":329731},"geometry":{"x":174881.04999999981,"y":2579563.9600000028}},{"attributes":{"ID":329741,"DIS_CODE":0,"TOWNNAME":"鹽水區","LI":"橋南里","LIN":"15鄰","STREET":"月津路","SECT":" ","MAREA":" ","LANE":"１２巷","ALLEY":" ","HOUSE_NO":"５３號","E_COORD97":174760.60999999999,"N_COORD97":2579651.2000000002,"ADDRESS":"月津路１２巷５３號","OBJECTID":329732},"geometry":{"x":174760.61000000034,"y":2579651.1999999993}},{"attributes":{"ID":329742,"DIS_CODE":0,"TOWNNAME":"鹽水區","LI":"橋南里","LIN":"15鄰","STREET":"月津路","SECT":" ","MAREA":" ","LANE":"１２巷","ALLEY":" ","HOUSE_NO":"５５號","E_COORD97":174761.23999999999,"N_COORD97":2579655.48,"ADDRESS":"月津路１２巷５５號","OBJECTID":329733},"geometry":{"x":174761.24000000115,"y":2579655.4800000023}},{"attributes":{"ID":329743,"DIS_CODE":0,"TOWNNAME":"鹽水區","LI":"橋南里","LIN":"15鄰","STREET":"月津路","SECT":" ","MAREA":" ","LANE":"１２巷","ALLEY":" ","HOUSE_NO":"５７號","E_COORD97":174761.88,"N_COORD97":2579659.7599999998,"ADDRESS":"月津路１２巷５７號","OBJECTID":329734},"geometry":{"x":174761.87999999989,"y":2579659.7600000016}},{"attributes":{"ID":329744,"DIS_CODE":0,"TOWNNAME":"鹽水區","LI":"橋南里","LIN":"15鄰","STREET":"月津路","SECT":" ","MAREA":" ","LANE":"１２巷","ALLEY":" ","HOUSE_NO":"５９號","E_COORD97":174762.51000000001,"N_COORD97":2579664.04,"ADDRESS":"月津路１２巷５９號","OBJECTID":329735},"geometry":{"x":174762.50999999978,"y":2579664.040000001}},{"attributes":{"ID":329745,"DIS_CODE":0,"TOWNNAME":"鹽水區","LI":"橋南里","LIN":"15鄰","STREET":"月津路","SECT":" ","MAREA":" ","LANE":"１２巷","ALLEY":" ","HOUSE_NO":"５號","E_COORD97":174849.87,"N_COORD97":2579550.9399999999,"ADDRESS":"月津路１２巷５號","OBJECTID":329736},"geometry":{"x":174849.87000000104,"y":2579550.9399999995}},{"attributes":{"ID":329746,"DIS_CODE":0,"TOWNNAME":"鹽水區","LI":"橋南里","LIN":"15鄰","STREET":"月津路","SECT":" ","MAREA":" ","LANE":"１２巷","ALLEY":" ","HOUSE_NO":"６１號","E_COORD97":174763.14000000001,"N_COORD97":2579668.3199999998,"ADDRESS":"月津路１２巷６１號","OBJECTID":329737},"geometry":{"x":174763.13999999966,"y":2579668.3200000003}},{"attributes":{"ID":329747,"DIS_CODE":0,"TOWNNAME":"仁德區","LI":"仁義里","LIN":"17鄰","STREET":"義林八街","SECT":" ","MAREA":" ","LANE":" ","ALLEY":" ","HOUSE_NO":"１２７號","E_COORD97":174179.23999999999,"N_COORD97":2541274.27,"ADDRESS":"義林八街１２７號","OBJECTID":329738},"geometry":{"x":174179.24000000115,"y":2541274.2699999996}},{"attributes":{"ID":329748,"DIS_CODE":0,"TOWNNAME":"仁德區","LI":"一甲里","LIN":"17鄰","STREET":"中清路","SECT":" ","MAREA":" ","LANE":" ","ALLEY":" ","HOUSE_NO":"２４６號","E_COORD97":173751.98000000001,"N_COORD97":2541734.79,"ADDRESS":"中清路２４６號","OBJECTID":329739},"geometry":{"x":173751.97999999952,"y":2541734.7899999991}},{"attributes":{"ID":329749,"DIS_CODE":0,"TOWNNAME":"仁德區","LI":"一甲里","LIN":"17鄰","STREET":"中清路","SECT":" ","MAREA":" ","LANE":" ","ALLEY":" ","HOUSE_NO":"２２２號","E_COORD97":173752.87,"N_COORD97":2541674.0499999998,"ADDRESS":"中清路２２２號","OBJECTID":329740},"geometry":{"x":173752.87000000104,"y":2541674.0500000007}},{"attributes":{"ID":329750,"DIS_CODE":0,"TOWNNAME":"仁德區","LI":"上崙里","LIN":"17鄰","STREET":"德崙路","SECT":" ","MAREA":" ","LANE":" ","ALLEY":" ","HOUSE_NO":"３５０號","E_COORD97":173961.26000000001,"N_COORD97":2538111.2599999998,"ADDRESS":"德崙路３５０號","OBJECTID":329741},"geometry":{"x":173961.25999999885,"y":2538111.2599999998}},{"attributes":{"ID":329751,"DIS_CODE":0,"TOWNNAME":"仁德區","LI":"一甲里","LIN":"17鄰","STREET":"中清路","SECT":" ","MAREA":" ","LANE":" ","ALLEY":" ","HOUSE_NO":"２５６號","E_COORD97":173754.09,"N_COORD97":2541757.7999999998,"ADDRESS":"中清路２５６號","OBJECTID":329742},"geometry":{"x":173754.09000000171,"y":2541757.8000000007}},{"attributes":{"ID":329752,"DIS_CODE":0,"TOWNNAME":"仁德區","LI":"一甲里","LIN":"17鄰","STREET":"中清路","SECT":" ","MAREA":" ","LANE":" ","ALLEY":" ","HOUSE_NO":"２４２號","E_COORD97":173751.45000000001,"N_COORD97":2541724.04,"ADDRESS":"中清路２４２號","OBJECTID":329743},"geometry":{"x":173751.45000000019,"y":2541724.0399999991}},{"attributes":{"ID":329753,"DIS_CODE":0,"TOWNNAME":"仁德區","LI":"一甲里","LIN":"17鄰","STREET":"正義三街","SECT":" ","MAREA":" ","LANE":" ","ALLEY":" ","HOUSE_NO":"３０９號","E_COORD97":174197.20000000001,"N_COORD97":2541460.02,"ADDRESS":"正義三街３０９號","OBJECTID":329744},"geometry":{"x":174197.20000000019,"y":2541460.0199999996}},{"attributes":{"ID":329754,"DIS_CODE":0,"TOWNNAME":"仁德區","LI":"一甲里","LIN":"17鄰","STREET":"中清路","SECT":" ","MAREA":" ","LANE":" ","ALLEY":" ","HOUSE_NO":"２４０號","E_COORD97":173751.23000000001,"N_COORD97":2541719.29,"ADDRESS":"中清路２４０號","OBJECTID":329745},"geometry":{"x":173751.23000000138,"y":2541719.2900000028}},{"attributes":{"ID":329755,"DIS_CODE":0,"TOWNNAME":"仁德區","LI":"一甲里","LIN":"17鄰","STREET":"正義三街","SECT":" ","MAREA":" ","LANE":" ","ALLEY":" ","HOUSE_NO":"３１７號","E_COORD97":174177.35999999999,"N_COORD97":2541455.77,"ADDRESS":"正義三街３１７號","OBJECTID":329746},"geometry":{"x":174177.36000000127,"y":2541455.7700000014}},{"attributes":{"ID":329756,"DIS_CODE":0,"TOWNNAME":"安南區","LI":"溪心里","LIN":"12鄰","STREET":"海佃路","SECT":"二段","MAREA":" ","LANE":"７００巷","ALLEY":" ","HOUSE_NO":"２７號","E_COORD97":166619.07999999999,"N_COORD97":2549554.46,"ADDRESS":"海佃路二段７００巷２７號","OBJECTID":329747},"geometry":{"x":166619.08000000007,"y":2549554.4600000009}},{"attributes":{"ID":329757,"DIS_CODE":0,"TOWNNAME":"安南區","LI":"溪心里","LIN":"12鄰","STREET":"海佃路","SECT":"二段","MAREA":" ","LANE":"７００巷","ALLEY":" ","HOUSE_NO":"２９號","E_COORD97":166622.72,"N_COORD97":2549556.8500000001,"ADDRESS":"海佃路二段７００巷２９號","OBJECTID":329748},"geometry":{"x":166622.71999999974,"y":2549556.8499999996}},{"attributes":{"ID":329758,"DIS_CODE":0,"TOWNNAME":"安南區","LI":"溪心里","LIN":"12鄰","STREET":"海佃路","SECT":"二段","MAREA":" ","LANE":"７００巷","ALLEY":" ","HOUSE_NO":"３１號","E_COORD97":166630.32000000001,"N_COORD97":2549555.1000000001,"ADDRESS":"海佃路二段７００巷３１號","OBJECTID":329749},"geometry":{"x":166630.32000000123,"y":2549555.0999999996}},{"attributes":{"ID":329759,"DIS_CODE":0,"TOWNNAME":"鹽水區","LI":"橋南里","LIN":"15鄰","STREET":"月津路","SECT":" ","MAREA":" ","LANE":"１２巷","ALLEY":" ","HOUSE_NO":"７號","E_COORD97":174845.67000000001,"N_COORD97":2579552.0899999999,"ADDRESS":"月津路１２巷７號","OBJECTID":329750},"geometry":{"x":174845.67000000086,"y":2579552.0900000017}},{"attributes":{"ID":329760,"DIS_CODE":0,"TOWNNAME":"鹽水區","LI":"橋南里","LIN":"15鄰","STREET":"月津路","SECT":" ","MAREA":" ","LANE":"１２巷","ALLEY":" ","HOUSE_NO":"８號","E_COORD97":174976.92999999999,"N_COORD97":2579529.6299999999,"ADDRESS":"月津路１２巷８號","OBJECTID":329751},"geometry":{"x":174976.9299999997,"y":2579529.6300000027}},{"attributes":{"ID":329761,"DIS_CODE":0,"TOWNNAME":"鹽水區","LI":"橋南里","LIN":"15鄰","STREET":"月津路","SECT":" ","MAREA":" ","LANE":"５５巷","ALLEY":" ","HOUSE_NO":"１號","E_COORD97":174977.85000000001,"N_COORD97":2579293,"ADDRESS":"月津路５５巷１號","OBJECTID":329752},"geometry":{"x":174977.85000000149,"y":2579293}},{"attributes":{"ID":329762,"DIS_CODE":0,"TOWNNAME":"關廟區","LI":"東勢里","LIN":"15鄰","STREET":"東興路","SECT":" ","MAREA":" ","LANE":"１６９巷","ALLEY":" ","HOUSE_NO":"１６號","E_COORD97":181614.42000000001,"N_COORD97":2539618.25,"ADDRESS":"東興路１６９巷１６號","OBJECTID":329753},"geometry":{"x":181614.42000000086,"y":2539618.2499999981}},{"attributes":{"ID":329763,"DIS_CODE":0,"TOWNNAME":"關廟區","LI":"東勢里","LIN":"15鄰","STREET":"東興路","SECT":" ","MAREA":" ","LANE":"１４５巷","ALLEY":" ","HOUSE_NO":"３０號","E_COORD97":181593.32000000001,"N_COORD97":2539619.25,"ADDRESS":"東興路１４５巷３０號","OBJECTID":329754},"geometry":{"x":181593.32000000216,"y":2539619.2500000019}},{"attributes":{"ID":329764,"DIS_CODE":0,"TOWNNAME":"關廟區","LI":"山西里","LIN":"15鄰","STREET":"忠孝街","SECT":" ","MAREA":" ","LANE":"１５１巷","ALLEY":" ","HOUSE_NO":"１號","E_COORD97":181057.34,"N_COORD97":2540454.25,"ADDRESS":"忠孝街１５１巷１號","OBJECTID":329755},"geometry":{"x":181057.34000000078,"y":2540454.25}},{"attributes":{"ID":329765,"DIS_CODE":0,"TOWNNAME":"關廟區","LI":"山西里","LIN":"15鄰","STREET":"忠孝街","SECT":" ","MAREA":" ","LANE":"１５１巷","ALLEY":" ","HOUSE_NO":"３號","E_COORD97":181052.73999999999,"N_COORD97":2540456.25,"ADDRESS":"忠孝街１５１巷３號","OBJECTID":329756},"geometry":{"x":181052.74000000022,"y":2540456.2500000019}},{"attributes":{"ID":329766,"DIS_CODE":0,"TOWNNAME":"關廟區","LI":"東勢里","LIN":"15鄰","STREET":"東興路","SECT":" ","MAREA":" ","LANE":"１７９巷","ALLEY":" ","HOUSE_NO":"８號","E_COORD97":181628.17000000001,"N_COORD97":2539602.25,"ADDRESS":"東興路１７９巷８號","OBJECTID":329757},"geometry":{"x":181628.17000000086,"y":2539602.2500000019}},{"attributes":{"ID":329767,"DIS_CODE":0,"TOWNNAME":"關廟區","LI":"東勢里","LIN":"15鄰","STREET":"東興路","SECT":" ","MAREA":" ","LANE":"１７９巷","ALLEY":" ","HOUSE_NO":"２０號","E_COORD97":181631.32000000001,"N_COORD97":2539637.25,"ADDRESS":"東興路１７９巷２０號","OBJECTID":329758},"geometry":{"x":181631.32000000123,"y":2539637.25}},{"attributes":{"ID":329768,"DIS_CODE":0,"TOWNNAME":"關廟區","LI":"東勢里","LIN":"15鄰","STREET":"東興路","SECT":" ","MAREA":" ","LANE":"１７９巷","ALLEY":" ","HOUSE_NO":"６號","E_COORD97":181628.57000000001,"N_COORD97":2539597.25,"ADDRESS":"東興路１７９巷６號","OBJECTID":329759},"geometry":{"x":181628.5700000003,"y":2539597.25}},{"attributes":{"ID":329769,"DIS_CODE":0,"TOWNNAME":"關廟區","LI":"東勢里","LIN":"15鄰","STREET":"東興路","SECT":" ","MAREA":" ","LANE":"１７９巷","ALLEY":" ","HOUSE_NO":"２８號","E_COORD97":181630.51999999999,"N_COORD97":2539650.25,"ADDRESS":"東興路１７９巷２８號","OBJECTID":329760},"geometry":{"x":181630.52000000048,"y":2539650.2500000019}},{"attributes":{"ID":329770,"DIS_CODE":0,"TOWNNAME":"關廟區","LI":"松腳里","LIN":"15鄰","STREET":"民權街","SECT":" ","MAREA":" ","LANE":"４７巷","ALLEY":" ","HOUSE_NO":"８號","E_COORD97":181558.84,"N_COORD97":2539699.29,"ADDRESS":"民權街４７巷８號","OBJECTID":329761},"geometry":{"x":181558.84000000171,"y":2539699.290000001}},{"attributes":{"ID":329771,"DIS_CODE":0,"TOWNNAME":"關廟區","LI":"五甲里","LIN":"15鄰","STREET":"東興二街","SECT":" ","MAREA":" ","LANE":"７８巷","ALLEY":" ","HOUSE_NO":"１號","E_COORD97":181305.37,"N_COORD97":2539466.25,"ADDRESS":"東興二街７８巷１號","OBJECTID":329762},"geometry":{"x":181305.37000000104,"y":2539466.2500000019}},{"attributes":{"ID":329772,"DIS_CODE":0,"TOWNNAME":"關廟區","LI":"北勢里","LIN":"15鄰","STREET":"成功路","SECT":" ","MAREA":" ","LANE":"３２８巷","ALLEY":" ","HOUSE_NO":"６號","E_COORD97":181317.67000000001,"N_COORD97":2540539.27,"ADDRESS":"成功路３２８巷６號","OBJECTID":329763},"geometry":{"x":181317.67000000179,"y":2540539.2699999996}},{"attributes":{"ID":329773,"DIS_CODE":0,"TOWNNAME":"安平區","LI":"平安里","LIN":"15鄰","STREET":"安平路","SECT":" ","MAREA":" ","LANE":"５５０巷","ALLEY":" ","HOUSE_NO":"４１號","E_COORD97":165021.70999999999,"N_COORD97":2544504.8300000001,"ADDRESS":"安平路５５０巷４１號","OBJECTID":329764},"geometry":{"x":165021.71000000089,"y":2544504.8300000019}},{"attributes":{"ID":329774,"DIS_CODE":0,"TOWNNAME":"仁德區","LI":"一甲里","LIN":"17鄰","STREET":"中清路","SECT":" ","MAREA":" ","LANE":" ","ALLEY":" ","HOUSE_NO":"２３０號","E_COORD97":173754.17999999999,"N_COORD97":2541691.29,"ADDRESS":"中清路２３０號","OBJECTID":329765},"geometry":{"x":173754.18000000063,"y":2541691.2899999991}},{"attributes":{"ID":329775,"DIS_CODE":0,"TOWNNAME":"仁德區","LI":"一甲里","LIN":"17鄰","STREET":"中清路","SECT":" ","MAREA":" ","LANE":" ","ALLEY":" ","HOUSE_NO":"２２０號","E_COORD97":173752.79000000001,"N_COORD97":2541668.0499999998,"ADDRESS":"中清路２２０號","OBJECTID":329766},"geometry":{"x":173752.79000000004,"y":2541668.0500000007}},{"attributes":{"ID":329776,"DIS_CODE":0,"TOWNNAME":"麻豆區","LI":"大埕里","LIN":"5鄰","STREET":"忠孝路","SECT":" ","MAREA":" ","LANE":" ","ALLEY":" ","HOUSE_NO":"２５號之３７","E_COORD97":173425.87,"N_COORD97":2565047.48,"ADDRESS":"忠孝路２５號之３７","OBJECTID":329767},"geometry":{"x":173425.87000000104,"y":2565047.4800000004}},{"attributes":{"ID":329777,"DIS_CODE":0,"TOWNNAME":"永康區","LI":"正強里","LIN":"8鄰","STREET":"正義街","SECT":" ","MAREA":" ","LANE":" ","ALLEY":" ","HOUSE_NO":"６１號","E_COORD97":173538.34,"N_COORD97":2547619.4500000002,"ADDRESS":"正義街６１號","OBJECTID":329768},"geometry":{"x":173538.33999999985,"y":2547619.4499999993}},{"attributes":{"ID":329778,"DIS_CODE":0,"TOWNNAME":"東區","LI":"新東里","LIN":"21鄰","STREET":"裕豐街","SECT":" ","MAREA":" ","LANE":"１６３巷","ALLEY":" ","HOUSE_NO":"６５號","E_COORD97":170620.04000000001,"N_COORD97":2543088.9900000002,"ADDRESS":"裕豐街１６３巷６５號","OBJECTID":329769},"geometry":{"x":170620.04000000004,"y":2543088.9900000039}},{"attributes":{"ID":329779,"DIS_CODE":0,"TOWNNAME":"安平區","LI":"平安里","LIN":"15鄰","STREET":"安平路","SECT":" ","MAREA":" ","LANE":"５５０巷","ALLEY":" ","HOUSE_NO":"３７號","E_COORD97":165014.54999999999,"N_COORD97":2544485.6299999999,"ADDRESS":"安平路５５０巷３７號","OBJECTID":329770},"geometry":{"x":165014.55000000075,"y":2544485.629999999}},{"attributes":{"ID":329780,"DIS_CODE":0,"TOWNNAME":"安平區","LI":"平安里","LIN":"15鄰","STREET":"安平路","SECT":" ","MAREA":" ","LANE":"５５０巷","ALLEY":" ","HOUSE_NO":"３８號","E_COORD97":165033.22,"N_COORD97":2544492.8199999998,"ADDRESS":"安平路５５０巷３８號","OBJECTID":329771},"geometry":{"x":165033.22000000067,"y":2544492.8200000003}},{"attributes":{"ID":329781,"DIS_CODE":0,"TOWNNAME":"安平區","LI":"平安里","LIN":"15鄰","STREET":"安平路","SECT":" ","MAREA":" ","LANE":"５５０巷","ALLEY":" ","HOUSE_NO":"３９號","E_COORD97":165016.38,"N_COORD97":2544490.5299999998,"ADDRESS":"安平路５５０巷３９號","OBJECTID":329772},"geometry":{"x":165016.37999999989,"y":2544490.5299999993}},{"attributes":{"ID":329782,"DIS_CODE":0,"TOWNNAME":"安平區","LI":"平安里","LIN":"15鄰","STREET":"安平路","SECT":" ","MAREA":" ","LANE":"５５０巷","ALLEY":" ","HOUSE_NO":"３９號之１","E_COORD97":165018.07000000001,"N_COORD97":2544495.27,"ADDRESS":"安平路５５０巷３９號之１","OBJECTID":329773},"geometry":{"x":165018.07000000123,"y":2544495.2699999996}},{"attributes":{"ID":329783,"DIS_CODE":0,"TOWNNAME":"安平區","LI":"平安里","LIN":"15鄰","STREET":"安平路","SECT":" ","MAREA":" ","LANE":"５５０巷","ALLEY":" ","HOUSE_NO":"３９號之２","E_COORD97":165019.44,"N_COORD97":2544499.5600000001,"ADDRESS":"安平路５５０巷３９號之２","OBJECTID":329774},"geometry":{"x":165019.44000000134,"y":2544499.5600000024}},{"attributes":{"ID":329784,"DIS_CODE":0,"TOWNNAME":"安平區","LI":"平安里","LIN":"15鄰","STREET":"安平路","SECT":" ","MAREA":" ","LANE":"５５０巷","ALLEY":" ","HOUSE_NO":"４２號","E_COORD97":165036.89000000001,"N_COORD97":2544504.4500000002,"ADDRESS":"安平路５５０巷４２號","OBJECTID":329775},"geometry":{"x":165036.89000000153,"y":2544504.4499999993}},{"attributes":{"ID":329785,"DIS_CODE":0,"TOWNNAME":"安平區","LI":"平安里","LIN":"15鄰","STREET":"安平路","SECT":" ","MAREA":" ","LANE":"５５０巷","ALLEY":" ","HOUSE_NO":"４３號","E_COORD97":165022.5,"N_COORD97":2544508.8900000001,"ADDRESS":"安平路５５０巷４３號","OBJECTID":329776},"geometry":{"x":165022.5,"y":2544508.8900000006}},{"attributes":{"ID":329786,"DIS_CODE":0,"TOWNNAME":"麻豆區","LI":"油車里","LIN":"15鄰","STREET":"新生北路","SECT":" ","MAREA":" ","LANE":"２９７巷","ALLEY":" ","HOUSE_NO":"１０號","E_COORD97":172417.95999999999,"N_COORD97":2565607.7599999998,"ADDRESS":"新生北路２９７巷１０號","OBJECTID":329777},"geometry":{"x":172417.96000000089,"y":2565607.7599999998}},{"attributes":{"ID":329787,"DIS_CODE":0,"TOWNNAME":"麻豆區","LI":"油車里","LIN":"15鄰","STREET":"新生北路","SECT":" ","MAREA":" ","LANE":"２９７巷","ALLEY":" ","HOUSE_NO":"１１號","E_COORD97":172404.57999999999,"N_COORD97":2565620.7200000002,"ADDRESS":"新生北路２９７巷１１號","OBJECTID":329778},"geometry":{"x":172404.58000000007,"y":2565620.7200000025}},{"attributes":{"ID":329788,"DIS_CODE":0,"TOWNNAME":"麻豆區","LI":"油車里","LIN":"15鄰","STREET":"新生北路","SECT":" ","MAREA":" ","LANE":"２９７巷","ALLEY":" ","HOUSE_NO":"１２號","E_COORD97":172418.06,"N_COORD97":2565611.6899999999,"ADDRESS":"新生北路２９７巷１２號","OBJECTID":329779},"geometry":{"x":172418.05999999959,"y":2565611.6899999995}},{"attributes":{"ID":329789,"DIS_CODE":0,"TOWNNAME":"麻豆區","LI":"油車里","LIN":"15鄰","STREET":"新生北路","SECT":" ","MAREA":" ","LANE":"２９７巷","ALLEY":" ","HOUSE_NO":"１３號","E_COORD97":172404.75,"N_COORD97":2565624.7799999998,"ADDRESS":"新生北路２９７巷１３號","OBJECTID":329780},"geometry":{"x":172404.75,"y":2565624.7799999993}},{"attributes":{"ID":329790,"DIS_CODE":0,"TOWNNAME":"麻豆區","LI":"油車里","LIN":"15鄰","STREET":"新生北路","SECT":" ","MAREA":" ","LANE":"２９７巷","ALLEY":" ","HOUSE_NO":"１４號","E_COORD97":172418.17999999999,"N_COORD97":2565615.8399999999,"ADDRESS":"新生北路２９７巷１４號","OBJECTID":329781},"geometry":{"x":172418.18000000063,"y":2565615.8400000017}},{"attributes":{"ID":329791,"DIS_CODE":0,"TOWNNAME":"麻豆區","LI":"大埕里","LIN":"5鄰","STREET":"忠孝路","SECT":" ","MAREA":" ","LANE":" ","ALLEY":" ","HOUSE_NO":"２５號之３８","E_COORD97":173430.37,"N_COORD97":2565049.9199999999,"ADDRESS":"忠孝路２５號之３８","OBJECTID":329782},"geometry":{"x":173430.37000000197,"y":2565049.9200000018}},{"attributes":{"ID":329792,"DIS_CODE":0,"TOWNNAME":"麻豆區","LI":"北勢里","LIN":"4鄰","STREET":" ","SECT":" ","MAREA":"加輦邦","LANE":" ","ALLEY":" ","HOUSE_NO":"３０號","E_COORD97":173000.82999999999,"N_COORD97":2566380.4900000002,"ADDRESS":"加輦邦３０號","OBJECTID":329783},"geometry":{"x":173000.83000000101,"y":2566380.4899999984}},{"attributes":{"ID":329793,"DIS_CODE":0,"TOWNNAME":"東區","LI":"大學里","LIN":"8鄰","STREET":"大學路","SECT":" ","MAREA":" ","LANE":"１８巷","ALLEY":" ","HOUSE_NO":"２７號","E_COORD97":170140.12,"N_COORD97":2543814.9300000002,"ADDRESS":"大學路１８巷２７號","OBJECTID":329784},"geometry":{"x":170140.12000000197,"y":2543814.9300000016}},{"attributes":{"ID":329794,"DIS_CODE":0,"TOWNNAME":"麻豆區","LI":"油車里","LIN":"15鄰","STREET":"新生北路","SECT":" ","MAREA":" ","LANE":"２９７巷","ALLEY":" ","HOUSE_NO":"１５號","E_COORD97":172404.87,"N_COORD97":2565628.8100000001,"ADDRESS":"新生北路２９７巷１５號","OBJECTID":329785},"geometry":{"x":172404.87000000197,"y":2565628.8100000005}},{"attributes":{"ID":329795,"DIS_CODE":0,"TOWNNAME":"麻豆區","LI":"油車里","LIN":"15鄰","STREET":"新生北路","SECT":" ","MAREA":" ","LANE":"２９７巷","ALLEY":" ","HOUSE_NO":"１６號","E_COORD97":172418.20000000001,"N_COORD97":2565619.5499999998,"ADDRESS":"新生北路２９７巷１６號","OBJECTID":329786},"geometry":{"x":172418.20000000112,"y":2565619.5500000026}},{"attributes":{"ID":329796,"DIS_CODE":0,"TOWNNAME":"麻豆區","LI":"油車里","LIN":"15鄰","STREET":"新生北路","SECT":" ","MAREA":" ","LANE":"２９７巷","ALLEY":" ","HOUSE_NO":"１７號","E_COORD97":172405.04999999999,"N_COORD97":2565633.29,"ADDRESS":"新生北路２９７巷１７號","OBJECTID":329787},"geometry":{"x":172405.05000000168,"y":2565633.290000001}},{"attributes":{"ID":329797,"DIS_CODE":0,"TOWNNAME":"麻豆區","LI":"油車里","LIN":"15鄰","STREET":"新生北路","SECT":" ","MAREA":" ","LANE":"２９７巷","ALLEY":" ","HOUSE_NO":"１８號","E_COORD97":172418.04999999999,"N_COORD97":2565623.6499999999,"ADDRESS":"新生北路２９７巷１８號","OBJECTID":329788},"geometry":{"x":172418.04999999981,"y":2565623.6500000041}},{"attributes":{"ID":329798,"DIS_CODE":0,"TOWNNAME":"麻豆區","LI":"油車里","LIN":"15鄰","STREET":"新生北路","SECT":" ","MAREA":" ","LANE":"２９７巷","ALLEY":" ","HOUSE_NO":"１號","E_COORD97":172404.85999999999,"N_COORD97":2565600.3799999999,"ADDRESS":"新生北路２９７巷１號","OBJECTID":329789},"geometry":{"x":172404.86000000034,"y":2565600.3800000027}},{"attributes":{"ID":329799,"DIS_CODE":0,"TOWNNAME":"麻豆區","LI":"油車里","LIN":"15鄰","STREET":"新生北路","SECT":" ","MAREA":" ","LANE":"２９７巷","ALLEY":" ","HOUSE_NO":"２０號","E_COORD97":172418.34,"N_COORD97":2565627.73,"ADDRESS":"新生北路２９７巷２０號","OBJECTID":329790},"geometry":{"x":172418.34000000171,"y":2565627.7300000023}},{"attributes":{"ID":329800,"DIS_CODE":0,"TOWNNAME":"善化區","LI":"坐駕里","LIN":"20鄰","STREET":" ","SECT":" ","MAREA":"坐駕","LANE":" ","ALLEY":" ","HOUSE_NO":"８９號","E_COORD97":178310.12,"N_COORD97":2558367.2400000002,"ADDRESS":"坐駕８９號","OBJECTID":329791},"geometry":{"x":178310.12000000011,"y":2558367.2400000002}},{"attributes":{"ID":329801,"DIS_CODE":0,"TOWNNAME":"麻豆區","LI":"油車里","LIN":"15鄰","STREET":"新生北路","SECT":" ","MAREA":" ","LANE":"２９７巷","ALLEY":" ","HOUSE_NO":"２號","E_COORD97":172418.10999999999,"N_COORD97":2565595.1600000001,"ADDRESS":"新生北路２９７巷２號","OBJECTID":329792},"geometry":{"x":172418.11000000034,"y":2565595.1600000001}},{"attributes":{"ID":329802,"DIS_CODE":0,"TOWNNAME":"麻豆區","LI":"油車里","LIN":"15鄰","STREET":"新生北路","SECT":" ","MAREA":" ","LANE":"２９７巷","ALLEY":" ","HOUSE_NO":"３號","E_COORD97":172404.84,"N_COORD97":2565604.4700000002,"ADDRESS":"新生北路２９７巷３號","OBJECTID":329793},"geometry":{"x":172404.84000000171,"y":2565604.4700000007}},{"attributes":{"ID":329803,"DIS_CODE":0,"TOWNNAME":"麻豆區","LI":"油車里","LIN":"15鄰","STREET":"新生北路","SECT":" ","MAREA":" ","LANE":"２９７巷","ALLEY":" ","HOUSE_NO":"５號","E_COORD97":172404.79999999999,"N_COORD97":2565608.6099999999,"ADDRESS":"新生北路２９７巷５號","OBJECTID":329794},"geometry":{"x":172404.79999999981,"y":2565608.6099999994}},{"attributes":{"ID":329804,"DIS_CODE":0,"TOWNNAME":"麻豆區","LI":"油車里","LIN":"15鄰","STREET":"新生北路","SECT":" ","MAREA":" ","LANE":"２９７巷","ALLEY":" ","HOUSE_NO":"６號","E_COORD97":172418.26999999999,"N_COORD97":2565599.2000000002,"ADDRESS":"新生北路２９７巷６號","OBJECTID":329795},"geometry":{"x":172418.26999999955,"y":2565599.2000000011}},{"attributes":{"ID":329805,"DIS_CODE":0,"TOWNNAME":"麻豆區","LI":"油車里","LIN":"15鄰","STREET":"新生北路","SECT":" ","MAREA":" ","LANE":"２９７巷","ALLEY":" ","HOUSE_NO":"７號","E_COORD97":172404.98999999999,"N_COORD97":2565612.5299999998,"ADDRESS":"新生北路２９７巷７號","OBJECTID":329796},"geometry":{"x":172404.99000000022,"y":2565612.5299999993}},{"attributes":{"ID":329806,"DIS_CODE":0,"TOWNNAME":"麻豆區","LI":"大埕里","LIN":"5鄰","STREET":"忠孝路","SECT":" ","MAREA":" ","LANE":" ","ALLEY":" ","HOUSE_NO":"２５號之３９","E_COORD97":173434.09,"N_COORD97":2565051.6400000001,"ADDRESS":"忠孝路２５號之３９","OBJECTID":329797},"geometry":{"x":173434.09000000078,"y":2565051.6400000025}},{"attributes":{"ID":329807,"DIS_CODE":0,"TOWNNAME":"東區","LI":"泉南里","LIN":"24鄰","STREET":"府連路","SECT":" ","MAREA":" ","LANE":"３４４巷","ALLEY":" ","HOUSE_NO":"１０號","E_COORD97":169597.75,"N_COORD97":2542755.4300000002,"ADDRESS":"府連路３４４巷１０號","OBJECTID":329798},"geometry":{"x":169597.75,"y":2542755.4299999997}},{"attributes":{"ID":329808,"DIS_CODE":0,"TOWNNAME":"東區","LI":"泉南里","LIN":"24鄰","STREET":"府連路","SECT":" ","MAREA":" ","LANE":"３４４巷","ALLEY":" ","HOUSE_NO":"１１號","E_COORD97":169614.78,"N_COORD97":2542746.2200000002,"ADDRESS":"府連路３４４巷１１號","OBJECTID":329799},"geometry":{"x":169614.78000000026,"y":2542746.2200000025}},{"attributes":{"ID":329809,"DIS_CODE":0,"TOWNNAME":"歸仁區","LI":"南興里","LIN":"15鄰","STREET":"文化街","SECT":"三段","MAREA":" ","LANE":"５５０巷","ALLEY":" ","HOUSE_NO":"２號","E_COORD97":175759.14000000001,"N_COORD97":2541231.3300000001,"ADDRESS":"文化街三段５５０巷２號","OBJECTID":329800},"geometry":{"x":175759.1400000006,"y":2541231.3300000001}}]}