{"displayFieldName":"TOWNNAME","fieldAliases":{"ID":"ID","DIS_CODE":"DIS_CODE","TOWNNAME":"TOWNNAME","LI":"LI","LIN":"LIN","STREET":"STREET","SECT":"SECT","MAREA":"MAREA","LANE":"LANE","ALLEY":"ALLEY","HOUSE_NO":"HOUSE_NO","E_COORD97":"E_COORD97","N_COORD97":"N_COORD97","ADDRESS":"ADDRESS","OBJECTID":"OBJECTID"},"geometryType":"esriGeometryPoint","spatialReference":{"wkid":102443,"latestWkid":3826},"fields":[{"name":"ID","type":"esriFieldTypeDouble","alias":"ID"},{"name":"DIS_CODE","type":"esriFieldTypeInteger","alias":"DIS_CODE"},{"name":"TOWNNAME","type":"esriFieldTypeString","alias":"TOWNNAME","length":8},{"name":"LI","type":"esriFieldTypeString","alias":"LI","length":8},{"name":"LIN","type":"esriFieldTypeString","alias":"LIN","length":12},{"name":"STREET","type":"esriFieldTypeString","alias":"STREET","length":20},{"name":"SECT","type":"esriFieldTypeString","alias":"SECT","length":8},{"name":"MAREA","type":"esriFieldTypeString","alias":"MAREA","length":12},{"name":"LANE","type":"esriFieldTypeString","alias":"LANE","length":10},{"name":"ALLEY","type":"esriFieldTypeString","alias":"ALLEY","length":10},{"name":"HOUSE_NO","type":"esriFieldTypeString","alias":"HOUSE_NO","length":20},{"name":"E_COORD97","type":"esriFieldTypeDouble","alias":"E_COORD97"},{"name":"N_COORD97","type":"esriFieldTypeDouble","alias":"N_COORD97"},{"name":"ADDRESS","type":"esriFieldTypeString","alias":"ADDRESS","length":50},{"name":"OBJECTID","type":"esriFieldTypeOID","alias":"OBJECTID"}],"features":[{"attributes":{"ID":76001,"DIS_CODE":0,"TOWNNAME":"新化區","LI":"羊林里","LIN":"6鄰","STREET":" ","SECT":" ","MAREA":"\u25A0拔林","LANE":" ","ALLEY":" ","HOUSE_NO":"５０２號","E_COORD97":183543.72,"N_COORD97":2551604.25,"ADDRESS":"\u25A0拔林５０２號","OBJECTID":76001},"geometry":{"x":183543.71999999974,"y":2551604.2500000019}},{"attributes":{"ID":76002,"DIS_CODE":0,"TOWNNAME":"新化區","LI":"羊林里","LIN":"6鄰","STREET":" ","SECT":" ","MAREA":"\u25A0拔林","LANE":" ","ALLEY":" ","HOUSE_NO":"４７７號","E_COORD97":183536.92000000001,"N_COORD97":2551732.25,"ADDRESS":"\u25A0拔林４７７號","OBJECTID":76002},"geometry":{"x":183536.92000000086,"y":2551732.2500000037}},{"attributes":{"ID":76003,"DIS_CODE":0,"TOWNNAME":"西港區","LI":"營西里","LIN":"6鄰","STREET":" ","SECT":" ","MAREA":"後營","LANE":" ","ALLEY":" ","HOUSE_NO":"５６號","E_COORD97":169710.70999999999,"N_COORD97":2560345.3799999999,"ADDRESS":"後營５６號","OBJECTID":76003},"geometry":{"x":169710.71000000089,"y":2560345.3800000027}},{"attributes":{"ID":76004,"DIS_CODE":0,"TOWNNAME":"新化區","LI":"羊林里","LIN":"6鄰","STREET":" ","SECT":" ","MAREA":"\u25A0拔林","LANE":" ","ALLEY":" ","HOUSE_NO":"５０１號","E_COORD97":183500.77549500001,"N_COORD97":2551651.4258900001,"ADDRESS":"\u25A0拔林５０１號","OBJECTID":76004},"geometry":{"x":183500.77549500018,"y":2551651.4258930031}},{"attributes":{"ID":76005,"DIS_CODE":0,"TOWNNAME":"新化區","LI":"豐榮里","LIN":"6鄰","STREET":" ","SECT":" ","MAREA":"洋子","LANE":" ","ALLEY":" ","HOUSE_NO":"１３４號之１","E_COORD97":177865.70999999999,"N_COORD97":2548131.2599999998,"ADDRESS":"洋子１３４號之１","OBJECTID":76005},"geometry":{"x":177865.70999999996,"y":2548131.2600000035}},{"attributes":{"ID":76006,"DIS_CODE":0,"TOWNNAME":"新化區","LI":"羊林里","LIN":"6鄰","STREET":" ","SECT":" ","MAREA":"\u25A0拔林","LANE":" ","ALLEY":" ","HOUSE_NO":"４８４號之７","E_COORD97":183474.76999999999,"N_COORD97":2551724.2599999998,"ADDRESS":"\u25A0拔林４８４號之７","OBJECTID":76006},"geometry":{"x":183474.77000000048,"y":2551724.2599999998}},{"attributes":{"ID":76007,"DIS_CODE":0,"TOWNNAME":"新化區","LI":"豐榮里","LIN":"6鄰","STREET":" ","SECT":" ","MAREA":"洋子","LANE":" ","ALLEY":" ","HOUSE_NO":"１３３號之５","E_COORD97":177893.23999999999,"N_COORD97":2548169.2599999998,"ADDRESS":"洋子１３３號之５","OBJECTID":76007},"geometry":{"x":177893.24000000209,"y":2548169.2600000016}},{"attributes":{"ID":76008,"DIS_CODE":0,"TOWNNAME":"新化區","LI":"羊林里","LIN":"6鄰","STREET":" ","SECT":" ","MAREA":"\u25A0拔林","LANE":" ","ALLEY":" ","HOUSE_NO":"４８７號之２５","E_COORD97":183382.73000000001,"N_COORD97":2551756.2599999998,"ADDRESS":"\u25A0拔林４８７號之２５","OBJECTID":76008},"geometry":{"x":183382.73000000138,"y":2551756.2600000016}},{"attributes":{"ID":76009,"DIS_CODE":0,"TOWNNAME":"新化區","LI":"羊林里","LIN":"6鄰","STREET":" ","SECT":" ","MAREA":"\u25A0拔林","LANE":" ","ALLEY":" ","HOUSE_NO":"４８７號之２１","E_COORD97":183388.20000000001,"N_COORD97":2551748.2599999998,"ADDRESS":"\u25A0拔林４８７號之２１","OBJECTID":76009},"geometry":{"x":183388.20000000112,"y":2551748.2599999998}},{"attributes":{"ID":76010,"DIS_CODE":0,"TOWNNAME":"新化區","LI":"羊林里","LIN":"6鄰","STREET":" ","SECT":" ","MAREA":"\u25A0拔林","LANE":" ","ALLEY":" ","HOUSE_NO":"４８４號之５","E_COORD97":183476.07999999999,"N_COORD97":2551713.2599999998,"ADDRESS":"\u25A0拔林４８４號之５","OBJECTID":76010},"geometry":{"x":183476.08000000007,"y":2551713.2600000016}},{"attributes":{"ID":76011,"DIS_CODE":0,"TOWNNAME":"新化區","LI":"羊林里","LIN":"6鄰","STREET":" ","SECT":" ","MAREA":"\u25A0拔林","LANE":" ","ALLEY":" ","HOUSE_NO":"４９２號","E_COORD97":183431.62,"N_COORD97":2551664.25,"ADDRESS":"\u25A0拔林４９２號","OBJECTID":76011},"geometry":{"x":183431.62000000011,"y":2551664.2499999981}},{"attributes":{"ID":76012,"DIS_CODE":0,"TOWNNAME":"新化區","LI":"\u25A0拔里","LIN":"6鄰","STREET":" ","SECT":" ","MAREA":"\u25A0拔林","LANE":" ","ALLEY":" ","HOUSE_NO":"２６２號","E_COORD97":183596.51999999999,"N_COORD97":2551887.25,"ADDRESS":"\u25A0拔林２６２號","OBJECTID":76012},"geometry":{"x":183596.52000000142,"y":2551887.25}},{"attributes":{"ID":76013,"DIS_CODE":0,"TOWNNAME":"新化區","LI":"北勢里","LIN":"6鄰","STREET":" ","SECT":" ","MAREA":"北勢","LANE":" ","ALLEY":" ","HOUSE_NO":"１０９號之１","E_COORD97":177181.31,"N_COORD97":2549727.2599999998,"ADDRESS":"北勢１０９號之１","OBJECTID":76013},"geometry":{"x":177181.30999999959,"y":2549727.2599999998}},{"attributes":{"ID":76014,"DIS_CODE":0,"TOWNNAME":"新化區","LI":"礁坑里","LIN":"6鄰","STREET":" ","SECT":" ","MAREA":"三十六崙","LANE":" ","ALLEY":" ","HOUSE_NO":"２３號","E_COORD97":184942.72,"N_COORD97":2549213.25,"ADDRESS":"三十六崙２３號","OBJECTID":76014},"geometry":{"x":184942.71999999974,"y":2549213.2500000037}},{"attributes":{"ID":76015,"DIS_CODE":0,"TOWNNAME":"新化區","LI":"全興里","LIN":"6鄰","STREET":" ","SECT":" ","MAREA":"竹子\u25A0","LANE":" ","ALLEY":" ","HOUSE_NO":"７８號之７","E_COORD97":177557.73000000001,"N_COORD97":2547741.2599999998,"ADDRESS":"竹子\u25A0７８號之７","OBJECTID":76015},"geometry":{"x":177557.73000000231,"y":2547741.2599999979}},{"attributes":{"ID":76016,"DIS_CODE":0,"TOWNNAME":"永康區","LI":"正強里","LIN":"19鄰","STREET":"中山南路","SECT":" ","MAREA":" ","LANE":"４７１巷","ALLEY":"６３弄","HOUSE_NO":"３號","E_COORD97":173218.45999999999,"N_COORD97":2547200.9900000002,"ADDRESS":"中山南路４７１巷６３弄３號","OBJECTID":76016},"geometry":{"x":173218.46000000089,"y":2547200.9900000002}},{"attributes":{"ID":76017,"DIS_CODE":0,"TOWNNAME":"永康區","LI":"正強里","LIN":"19鄰","STREET":"中山南路","SECT":" ","MAREA":" ","LANE":"４７１巷","ALLEY":"５１弄","HOUSE_NO":"２號","E_COORD97":173202.16,"N_COORD97":2547189.9900000002,"ADDRESS":"中山南路４７１巷５１弄２號","OBJECTID":76017},"geometry":{"x":173202.16000000108,"y":2547189.9900000002}},{"attributes":{"ID":76018,"DIS_CODE":0,"TOWNNAME":"永康區","LI":"正強里","LIN":"19鄰","STREET":"中山南路","SECT":" ","MAREA":" ","LANE":"４７１巷","ALLEY":"６３弄","HOUSE_NO":"４號","E_COORD97":173234.54000000001,"N_COORD97":2547204.7400000002,"ADDRESS":"中山南路４７１巷６３弄４號","OBJECTID":76018},"geometry":{"x":173234.54000000097,"y":2547204.7400000002}},{"attributes":{"ID":76019,"DIS_CODE":0,"TOWNNAME":"永康區","LI":"正強里","LIN":"19鄰","STREET":"中山南路","SECT":" ","MAREA":" ","LANE":"４７１巷","ALLEY":"５１弄","HOUSE_NO":"１１號","E_COORD97":173187.92000000001,"N_COORD97":2547225.2400000002,"ADDRESS":"中山南路４７１巷５１弄１１號","OBJECTID":76019},"geometry":{"x":173187.92000000086,"y":2547225.2400000002}},{"attributes":{"ID":76020,"DIS_CODE":0,"TOWNNAME":"永康區","LI":"正強里","LIN":"19鄰","STREET":"中山南路","SECT":" ","MAREA":" ","LANE":"４７１巷","ALLEY":"５１弄","HOUSE_NO":"９號","E_COORD97":173188.41,"N_COORD97":2547217.2400000002,"ADDRESS":"中山南路４７１巷５１弄９號","OBJECTID":76020},"geometry":{"x":173188.41000000108,"y":2547217.2400000021}},{"attributes":{"ID":76021,"DIS_CODE":0,"TOWNNAME":"永康區","LI":"正強里","LIN":"19鄰","STREET":"中山南路","SECT":" ","MAREA":" ","LANE":"４７１巷","ALLEY":"５１弄","HOUSE_NO":"１０號","E_COORD97":173197.53,"N_COORD97":2547217.9900000002,"ADDRESS":"中山南路４７１巷５１弄１０號","OBJECTID":76021},"geometry":{"x":173197.53000000119,"y":2547217.9900000002}},{"attributes":{"ID":76022,"DIS_CODE":0,"TOWNNAME":"永康區","LI":"正強里","LIN":"19鄰","STREET":"中山南路","SECT":" ","MAREA":" ","LANE":"４７１巷","ALLEY":"６３弄","HOUSE_NO":"１０號","E_COORD97":173231.62,"N_COORD97":2547226.2400000002,"ADDRESS":"中山南路４７１巷６３弄１０號","OBJECTID":76022},"geometry":{"x":173231.62000000011,"y":2547226.2400000002}},{"attributes":{"ID":76023,"DIS_CODE":0,"TOWNNAME":"永康區","LI":"正強里","LIN":"19鄰","STREET":"中山南路","SECT":" ","MAREA":" ","LANE":"４７１巷","ALLEY":"６３弄","HOUSE_NO":"８號","E_COORD97":173231.92999999999,"N_COORD97":2547218.7400000002,"ADDRESS":"中山南路４７１巷６３弄８號","OBJECTID":76023},"geometry":{"x":173231.93000000063,"y":2547218.7400000002}},{"attributes":{"ID":76024,"DIS_CODE":0,"TOWNNAME":"永康區","LI":"正強里","LIN":"19鄰","STREET":"中山南路","SECT":" ","MAREA":" ","LANE":"４７１巷","ALLEY":"５１弄","HOUSE_NO":"３號","E_COORD97":173192.64999999999,"N_COORD97":2547195.9900000002,"ADDRESS":"中山南路４７１巷５１弄３號","OBJECTID":76024},"geometry":{"x":173192.65000000037,"y":2547195.9900000021}},{"attributes":{"ID":76025,"DIS_CODE":0,"TOWNNAME":"永康區","LI":"正強里","LIN":"19鄰","STREET":"中山南路","SECT":" ","MAREA":" ","LANE":"４７１巷","ALLEY":"５１弄","HOUSE_NO":"１號","E_COORD97":173194.14999999999,"N_COORD97":2547188.7400000002,"ADDRESS":"中山南路４７１巷５１弄１號","OBJECTID":76025},"geometry":{"x":173194.15000000037,"y":2547188.7400000002}},{"attributes":{"ID":76026,"DIS_CODE":0,"TOWNNAME":"永康區","LI":"正強里","LIN":"19鄰","STREET":"中山南路","SECT":" ","MAREA":" ","LANE":"４７１巷","ALLEY":"５１弄","HOUSE_NO":"４號","E_COORD97":173200.48999999999,"N_COORD97":2547197.4900000002,"ADDRESS":"中山南路４７１巷５１弄４號","OBJECTID":76026},"geometry":{"x":173200.49000000022,"y":2547197.4900000002}},{"attributes":{"ID":76027,"DIS_CODE":0,"TOWNNAME":"北區","LI":"國興里","LIN":"7鄰","STREET":"南園街","SECT":" ","MAREA":" ","LANE":" ","ALLEY":" ","HOUSE_NO":"５１號","E_COORD97":170527.73999999999,"N_COORD97":2545436.6200000001,"ADDRESS":"南園街５１號","OBJECTID":76027},"geometry":{"x":170527.74000000115,"y":2545436.6200000029}},{"attributes":{"ID":76028,"DIS_CODE":0,"TOWNNAME":"六甲區","LI":"龜港里","LIN":"7鄰","STREET":" ","SECT":" ","MAREA":"龜子港","LANE":"２８１巷","ALLEY":"１２６弄","HOUSE_NO":"２０之１號","E_COORD97":179257.19,"N_COORD97":2572294.5699999998,"ADDRESS":"龜子港２８１巷１２６弄２０之１號","OBJECTID":76028},"geometry":{"x":179257.19000000134,"y":2572294.5700000022}},{"attributes":{"ID":76029,"DIS_CODE":0,"TOWNNAME":"六甲區","LI":"龜港里","LIN":"7鄰","STREET":" ","SECT":" ","MAREA":"龜子港","LANE":"２８１巷","ALLEY":"１２６弄","HOUSE_NO":"２１號","E_COORD97":179203.78,"N_COORD97":2572273.46,"ADDRESS":"龜子港２８１巷１２６弄２１號","OBJECTID":76029},"geometry":{"x":179203.78000000119,"y":2572273.4600000009}},{"attributes":{"ID":76030,"DIS_CODE":0,"TOWNNAME":"六甲區","LI":"龜港里","LIN":"7鄰","STREET":" ","SECT":" ","MAREA":"龜子港","LANE":"２８１巷","ALLEY":"１２６弄","HOUSE_NO":"２３號","E_COORD97":179191.70999999999,"N_COORD97":2572285.6499999999,"ADDRESS":"龜子港２８１巷１２６弄２３號","OBJECTID":76030},"geometry":{"x":179191.71000000183,"y":2572285.6499999985}},{"attributes":{"ID":76031,"DIS_CODE":0,"TOWNNAME":"六甲區","LI":"龜港里","LIN":"7鄰","STREET":" ","SECT":" ","MAREA":"龜子港","LANE":"２８１巷","ALLEY":"１２６弄","HOUSE_NO":"２４號","E_COORD97":179241.16,"N_COORD97":2572282.8100000001,"ADDRESS":"龜子港２８１巷１２６弄２４號","OBJECTID":76031},"geometry":{"x":179241.15999999922,"y":2572282.8100000024}},{"attributes":{"ID":76032,"DIS_CODE":0,"TOWNNAME":"六甲區","LI":"龜港里","LIN":"7鄰","STREET":" ","SECT":" ","MAREA":"龜子港","LANE":"２８１巷","ALLEY":"１２６弄","HOUSE_NO":"２６號","E_COORD97":179226.85000000001,"N_COORD97":2572292.2000000002,"ADDRESS":"龜子港２８１巷１２６弄２６號","OBJECTID":76032},"geometry":{"x":179226.84999999963,"y":2572292.2000000011}},{"attributes":{"ID":76033,"DIS_CODE":0,"TOWNNAME":"永康區","LI":"正強里","LIN":"19鄰","STREET":"中山南路","SECT":" ","MAREA":" ","LANE":"４７１巷","ALLEY":"５１弄","HOUSE_NO":"５號","E_COORD97":173191.12,"N_COORD97":2547202.7400000002,"ADDRESS":"中山南路４７１巷５１弄５號","OBJECTID":76033},"geometry":{"x":173191.12000000011,"y":2547202.7400000002}},{"attributes":{"ID":76034,"DIS_CODE":0,"TOWNNAME":"永康區","LI":"正強里","LIN":"19鄰","STREET":"中山南路","SECT":" ","MAREA":" ","LANE":"４７１巷","ALLEY":"６３弄","HOUSE_NO":"６號","E_COORD97":173232.88,"N_COORD97":2547211.4900000002,"ADDRESS":"中山南路４７１巷６３弄６號","OBJECTID":76034},"geometry":{"x":173232.87999999989,"y":2547211.4900000039}},{"attributes":{"ID":76035,"DIS_CODE":0,"TOWNNAME":"永康區","LI":"正強里","LIN":"19鄰","STREET":"中山南路","SECT":" ","MAREA":" ","LANE":"４７１巷","ALLEY":"６３弄","HOUSE_NO":"１號","E_COORD97":173220.20999999999,"N_COORD97":2547193.7400000002,"ADDRESS":"中山南路４７１巷６３弄１號","OBJECTID":76035},"geometry":{"x":173220.21000000089,"y":2547193.7400000021}},{"attributes":{"ID":76036,"DIS_CODE":0,"TOWNNAME":"永康區","LI":"正強里","LIN":"19鄰","STREET":"中山南路","SECT":" ","MAREA":" ","LANE":"４７１巷","ALLEY":"５１弄","HOUSE_NO":"６號","E_COORD97":173199.07000000001,"N_COORD97":2547203.9900000002,"ADDRESS":"中山南路４７１巷５１弄６號","OBJECTID":76036},"geometry":{"x":173199.07000000123,"y":2547203.9900000002}},{"attributes":{"ID":76037,"DIS_CODE":0,"TOWNNAME":"永康區","LI":"正強里","LIN":"19鄰","STREET":"中山南路","SECT":" ","MAREA":" ","LANE":"４７１巷","ALLEY":"６３弄","HOUSE_NO":"７號","E_COORD97":173215.29000000001,"N_COORD97":2547215.4900000002,"ADDRESS":"中山南路４７１巷６３弄７號","OBJECTID":76037},"geometry":{"x":173215.29000000004,"y":2547215.4900000021}},{"attributes":{"ID":76038,"DIS_CODE":0,"TOWNNAME":"永康區","LI":"正強里","LIN":"19鄰","STREET":"中山南路","SECT":" ","MAREA":" ","LANE":"４７１巷","ALLEY":"６３弄","HOUSE_NO":"５號","E_COORD97":173216.70999999999,"N_COORD97":2547207.9900000002,"ADDRESS":"中山南路４７１巷６３弄５號","OBJECTID":76038},"geometry":{"x":173216.71000000089,"y":2547207.9900000039}},{"attributes":{"ID":76039,"DIS_CODE":0,"TOWNNAME":"永康區","LI":"正強里","LIN":"19鄰","STREET":"中山南路","SECT":" ","MAREA":" ","LANE":"４７１巷","ALLEY":"５１弄","HOUSE_NO":"８號","E_COORD97":173197.10000000001,"N_COORD97":2547211.4900000002,"ADDRESS":"中山南路４７１巷５１弄８號","OBJECTID":76039},"geometry":{"x":173197.09999999963,"y":2547211.4900000039}},{"attributes":{"ID":76040,"DIS_CODE":0,"TOWNNAME":"永康區","LI":"北灣里","LIN":"19鄰","STREET":"文賢街","SECT":" ","MAREA":" ","LANE":"４２２巷","ALLEY":"３０弄","HOUSE_NO":"３號","E_COORD97":174694.06,"N_COORD97":2545912.0800000001,"ADDRESS":"文賢街４２２巷３０弄３號","OBJECTID":76040},"geometry":{"x":174694.05999999959,"y":2545912.0799999982}},{"attributes":{"ID":76041,"DIS_CODE":0,"TOWNNAME":"永康區","LI":"\u25A0行里","LIN":"19鄰","STREET":"正南五街","SECT":" ","MAREA":" ","LANE":"５２０巷","ALLEY":"５５弄","HOUSE_NO":"１號","E_COORD97":171694.44,"N_COORD97":2548803,"ADDRESS":"正南五街５２０巷５５弄１號","OBJECTID":76041},"geometry":{"x":171694.44000000227,"y":2548803}},{"attributes":{"ID":76042,"DIS_CODE":0,"TOWNNAME":"關廟區","LI":"五甲里","LIN":"7鄰","STREET":"五慧街","SECT":" ","MAREA":" ","LANE":" ","ALLEY":" ","HOUSE_NO":"１２號","E_COORD97":181241.32000000001,"N_COORD97":2539263.25,"ADDRESS":"五慧街１２號","OBJECTID":76042},"geometry":{"x":181241.32000000123,"y":2539263.2500000019}},{"attributes":{"ID":76043,"DIS_CODE":0,"TOWNNAME":"關廟區","LI":"香洋里","LIN":"7鄰","STREET":"忠孝街","SECT":" ","MAREA":" ","LANE":" ","ALLEY":" ","HOUSE_NO":"８０號","E_COORD97":181005.59,"N_COORD97":2540210.25,"ADDRESS":"忠孝街８０號","OBJECTID":76043},"geometry":{"x":181005.58999999985,"y":2540210.25}},{"attributes":{"ID":76044,"DIS_CODE":0,"TOWNNAME":"關廟區","LI":"新埔里","LIN":"7鄰","STREET":"新埔三街","SECT":" ","MAREA":" ","LANE":" ","ALLEY":" ","HOUSE_NO":"８５號","E_COORD97":181119.37,"N_COORD97":2541081.25,"ADDRESS":"新埔三街８５號","OBJECTID":76044},"geometry":{"x":181119.37000000011,"y":2541081.2500000019}},{"attributes":{"ID":76045,"DIS_CODE":0,"TOWNNAME":"關廟區","LI":"香洋里","LIN":"7鄰","STREET":"忠孝街","SECT":" ","MAREA":" ","LANE":" ","ALLEY":" ","HOUSE_NO":"５８號","E_COORD97":180991.79000000001,"N_COORD97":2540164.25,"ADDRESS":"忠孝街５８號","OBJECTID":76045},"geometry":{"x":180991.79000000097,"y":2540164.2500000037}},{"attributes":{"ID":76046,"DIS_CODE":0,"TOWNNAME":"關廟區","LI":"深坑里","LIN":"7鄰","STREET":"南雄路","SECT":"一段","MAREA":" ","LANE":" ","ALLEY":" ","HOUSE_NO":"４４０號","E_COORD97":181709.67000000001,"N_COORD97":2537712.2999999998,"ADDRESS":"南雄路一段４４０號","OBJECTID":76046},"geometry":{"x":181709.67000000086,"y":2537712.3000000007}},{"attributes":{"ID":76047,"DIS_CODE":0,"TOWNNAME":"六甲區","LI":"龜港里","LIN":"7鄰","STREET":" ","SECT":" ","MAREA":"龜子港","LANE":"２８１巷","ALLEY":"１２６弄","HOUSE_NO":"３０號","E_COORD97":179254.79000000001,"N_COORD97":2572312.6499999999,"ADDRESS":"龜子港２８１巷１２６弄３０號","OBJECTID":76047},"geometry":{"x":179254.79000000004,"y":2572312.6500000004}},{"attributes":{"ID":76048,"DIS_CODE":0,"TOWNNAME":"六甲區","LI":"龜港里","LIN":"7鄰","STREET":" ","SECT":" ","MAREA":"龜子港","LANE":"１６１巷","ALLEY":"８５弄","HOUSE_NO":"２７號","E_COORD97":179252.14999999999,"N_COORD97":2572346.4399999999,"ADDRESS":"龜子港１６１巷８５弄２７號","OBJECTID":76048},"geometry":{"x":179252.1500000013,"y":2572346.4399999995}},{"attributes":{"ID":76049,"DIS_CODE":0,"TOWNNAME":"六甲區","LI":"龜港里","LIN":"7鄰","STREET":" ","SECT":" ","MAREA":"龜子港","LANE":"２８１巷","ALLEY":"１２６弄","HOUSE_NO":"３２號","E_COORD97":179273.95000000001,"N_COORD97":2572320.4700000002,"ADDRESS":"龜子港２８１巷１２６弄３２號","OBJECTID":76049},"geometry":{"x":179273.95000000112,"y":2572320.4700000007}},{"attributes":{"ID":76050,"DIS_CODE":0,"TOWNNAME":"新化區","LI":"\u25A0拔里","LIN":"6鄰","STREET":" ","SECT":" ","MAREA":"\u25A0拔林","LANE":" ","ALLEY":" ","HOUSE_NO":"２６１號之４","E_COORD97":183572.45999999999,"N_COORD97":2551933.2599999998,"ADDRESS":"\u25A0拔林２６１號之４","OBJECTID":76050},"geometry":{"x":183572.46000000089,"y":2551933.2600000016}},{"attributes":{"ID":76051,"DIS_CODE":0,"TOWNNAME":"新化區","LI":"\u25A0拔里","LIN":"6鄰","STREET":" ","SECT":" ","MAREA":"\u25A0拔林","LANE":" ","ALLEY":" ","HOUSE_NO":"２６１號之３","E_COORD97":183598.17000000001,"N_COORD97":2551921.2599999998,"ADDRESS":"\u25A0拔林２６１號之３","OBJECTID":76051},"geometry":{"x":183598.17000000086,"y":2551921.2599999998}},{"attributes":{"ID":76052,"DIS_CODE":0,"TOWNNAME":"新化區","LI":"北勢里","LIN":"6鄰","STREET":" ","SECT":" ","MAREA":"北勢","LANE":" ","ALLEY":" ","HOUSE_NO":"１００號之１２","E_COORD97":177295.98999999999,"N_COORD97":2549762.2599999998,"ADDRESS":"北勢１００號之１２","OBJECTID":76052},"geometry":{"x":177295.99000000022,"y":2549762.2600000035}},{"attributes":{"ID":76053,"DIS_CODE":0,"TOWNNAME":"新化區","LI":"山\u25A0里","LIN":"6鄰","STREET":" ","SECT":" ","MAREA":"頂山\u25A0","LANE":" ","ALLEY":" ","HOUSE_NO":"１３１號之１","E_COORD97":179633.06,"N_COORD97":2546740.2599999998,"ADDRESS":"頂山\u25A0１３１號之１","OBJECTID":76053},"geometry":{"x":179633.06000000145,"y":2546740.2599999998}},{"attributes":{"ID":76054,"DIS_CODE":0,"TOWNNAME":"新化區","LI":"羊林里","LIN":"6鄰","STREET":" ","SECT":" ","MAREA":"\u25A0拔林","LANE":" ","ALLEY":" ","HOUSE_NO":"４９０號之１","E_COORD97":183447.35000000001,"N_COORD97":2551632.2599999998,"ADDRESS":"\u25A0拔林４９０號之１","OBJECTID":76054},"geometry":{"x":183447.35000000056,"y":2551632.2599999998}},{"attributes":{"ID":76055,"DIS_CODE":0,"TOWNNAME":"新化區","LI":"羊林里","LIN":"6鄰","STREET":" ","SECT":" ","MAREA":"\u25A0拔林","LANE":" ","ALLEY":" ","HOUSE_NO":"４８１號之３","E_COORD97":183482.26999999999,"N_COORD97":2551690.2599999998,"ADDRESS":"\u25A0拔林４８１號之３","OBJECTID":76055},"geometry":{"x":183482.26999999955,"y":2551690.2599999998}},{"attributes":{"ID":76056,"DIS_CODE":0,"TOWNNAME":"新化區","LI":"羊林里","LIN":"6鄰","STREET":" ","SECT":" ","MAREA":"\u25A0拔林","LANE":" ","ALLEY":" ","HOUSE_NO":"４８４號之４","E_COORD97":183476.06,"N_COORD97":2551710.2599999998,"ADDRESS":"\u25A0拔林４８４號之４","OBJECTID":76056},"geometry":{"x":183476.06000000145,"y":2551710.2599999998}},{"attributes":{"ID":76057,"DIS_CODE":0,"TOWNNAME":"新化區","LI":"豐榮里","LIN":"6鄰","STREET":" ","SECT":" ","MAREA":"洋子","LANE":" ","ALLEY":" ","HOUSE_NO":"１５１號","E_COORD97":177792.07999999999,"N_COORD97":2548056.25,"ADDRESS":"洋子１５１號","OBJECTID":76057},"geometry":{"x":177792.08000000007,"y":2548056.25}},{"attributes":{"ID":76058,"DIS_CODE":0,"TOWNNAME":"新化區","LI":"豐榮里","LIN":"6鄰","STREET":" ","SECT":" ","MAREA":"洋子","LANE":" ","ALLEY":" ","HOUSE_NO":"１５１號之１１","E_COORD97":177698.06,"N_COORD97":2548214.2599999998,"ADDRESS":"洋子１５１號之１１","OBJECTID":76058},"geometry":{"x":177698.05999999959,"y":2548214.2600000016}},{"attributes":{"ID":76059,"DIS_CODE":0,"TOWNNAME":"新化區","LI":"全興里","LIN":"6鄰","STREET":" ","SECT":" ","MAREA":"竹子\u25A0","LANE":" ","ALLEY":" ","HOUSE_NO":"７８號之５","E_COORD97":177566.73999999999,"N_COORD97":2547746.2599999998,"ADDRESS":"竹子\u25A0７８號之５","OBJECTID":76059},"geometry":{"x":177566.74000000115,"y":2547746.2600000016}},{"attributes":{"ID":76060,"DIS_CODE":0,"TOWNNAME":"新化區","LI":"\u25A0拔里","LIN":"6鄰","STREET":" ","SECT":" ","MAREA":"\u25A0拔林","LANE":" ","ALLEY":" ","HOUSE_NO":"２６７號","E_COORD97":183528.62,"N_COORD97":2551912.25,"ADDRESS":"\u25A0拔林２６７號","OBJECTID":76060},"geometry":{"x":183528.62000000197,"y":2551912.2500000019}},{"attributes":{"ID":76061,"DIS_CODE":0,"TOWNNAME":"新化區","LI":"唪口里","LIN":"6鄰","STREET":" ","SECT":" ","MAREA":"唪口","LANE":" ","ALLEY":" ","HOUSE_NO":"６１號","E_COORD97":178073.10000000001,"N_COORD97":2549054.25,"ADDRESS":"唪口６１號","OBJECTID":76061},"geometry":{"x":178073.10000000149,"y":2549054.2500000019}},{"attributes":{"ID":76062,"DIS_CODE":0,"TOWNNAME":"永康區","LI":"\u25A0行里","LIN":"19鄰","STREET":"正南五街","SECT":" ","MAREA":" ","LANE":"５２０巷","ALLEY":"５５弄","HOUSE_NO":"３號","E_COORD97":171691.13,"N_COORD97":2548806.0499999998,"ADDRESS":"正南五街５２０巷５５弄３號","OBJECTID":76062},"geometry":{"x":171691.13000000082,"y":2548806.0500000026}},{"attributes":{"ID":76063,"DIS_CODE":0,"TOWNNAME":"新化區","LI":"唪口里","LIN":"6鄰","STREET":" ","SECT":" ","MAREA":"唪口","LANE":" ","ALLEY":" ","HOUSE_NO":"５９號之１","E_COORD97":178073.63,"N_COORD97":2549100.2599999998,"ADDRESS":"唪口５９號之１","OBJECTID":76063},"geometry":{"x":178073.63000000082,"y":2549100.2599999998}},{"attributes":{"ID":76064,"DIS_CODE":0,"TOWNNAME":"永康區","LI":"\u25A0行里","LIN":"19鄰","STREET":"正南五街","SECT":" ","MAREA":" ","LANE":"５２０巷","ALLEY":"５５弄","HOUSE_NO":"５號","E_COORD97":171687.82000000001,"N_COORD97":2548809.0899999999,"ADDRESS":"正南五街５２０巷５５弄５號","OBJECTID":76064},"geometry":{"x":171687.8200000003,"y":2548809.0899999999}},{"attributes":{"ID":76065,"DIS_CODE":0,"TOWNNAME":"新化區","LI":"礁坑里","LIN":"6鄰","STREET":" ","SECT":" ","MAREA":"三十六崙","LANE":" ","ALLEY":" ","HOUSE_NO":"２８號","E_COORD97":184980.82000000001,"N_COORD97":2549189.25,"ADDRESS":"三十六崙２８號","OBJECTID":76065},"geometry":{"x":184980.82000000123,"y":2549189.2499999981}},{"attributes":{"ID":76066,"DIS_CODE":0,"TOWNNAME":"新化區","LI":"\u25A0拔里","LIN":"6鄰","STREET":" ","SECT":" ","MAREA":"\u25A0拔林","LANE":" ","ALLEY":" ","HOUSE_NO":"２４０號之５","E_COORD97":183550.78,"N_COORD97":2551946.2599999998,"ADDRESS":"\u25A0拔林２４０號之５","OBJECTID":76066},"geometry":{"x":183550.78000000026,"y":2551946.2600000016}},{"attributes":{"ID":76067,"DIS_CODE":0,"TOWNNAME":"永康區","LI":"\u25A0行里","LIN":"19鄰","STREET":"正南五街","SECT":" ","MAREA":" ","LANE":"５２０巷","ALLEY":"５５弄","HOUSE_NO":"７號","E_COORD97":171684.5,"N_COORD97":2548812.1400000001,"ADDRESS":"正南五街５２０巷５５弄７號","OBJECTID":76067},"geometry":{"x":171684.5,"y":2548812.1400000025}},{"attributes":{"ID":76068,"DIS_CODE":0,"TOWNNAME":"新化區","LI":"礁坑里","LIN":"6鄰","STREET":" ","SECT":" ","MAREA":"三十六崙","LANE":" ","ALLEY":" ","HOUSE_NO":"１４３號之１","E_COORD97":184869,"N_COORD97":2549208.2599999998,"ADDRESS":"三十六崙１４３號之１","OBJECTID":76068},"geometry":{"x":184869.00000000093,"y":2549208.2599999998}},{"attributes":{"ID":76069,"DIS_CODE":0,"TOWNNAME":"新化區","LI":"北勢里","LIN":"6鄰","STREET":" ","SECT":" ","MAREA":"北勢","LANE":" ","ALLEY":" ","HOUSE_NO":"１００號之２４","E_COORD97":177284.97,"N_COORD97":2549744.2599999998,"ADDRESS":"北勢１００號之２４","OBJECTID":76069},"geometry":{"x":177284.97000000067,"y":2549744.2599999998}},{"attributes":{"ID":76070,"DIS_CODE":0,"TOWNNAME":"新化區","LI":"\u25A0拔里","LIN":"6鄰","STREET":" ","SECT":" ","MAREA":"\u25A0拔林","LANE":" ","ALLEY":" ","HOUSE_NO":"２３４號之６","E_COORD97":183593.97,"N_COORD97":2551934.2599999998,"ADDRESS":"\u25A0拔林２３４號之６","OBJECTID":76070},"geometry":{"x":183593.97000000067,"y":2551934.2599999998}},{"attributes":{"ID":76071,"DIS_CODE":0,"TOWNNAME":"安定區","LI":"蘇林里","LIN":"6鄰","STREET":" ","SECT":" ","MAREA":"蘇厝","LANE":" ","ALLEY":" ","HOUSE_NO":"７３號","E_COORD97":173729.67000000001,"N_COORD97":2558609.25,"ADDRESS":"蘇厝７３號","OBJECTID":76071},"geometry":{"x":173729.66999999993,"y":2558609.2500000019}},{"attributes":{"ID":76072,"DIS_CODE":0,"TOWNNAME":"新化區","LI":"北勢里","LIN":"6鄰","STREET":" ","SECT":" ","MAREA":"北勢","LANE":" ","ALLEY":" ","HOUSE_NO":"１００號之９","E_COORD97":177283.73000000001,"N_COORD97":2549766.2599999998,"ADDRESS":"北勢１００號之９","OBJECTID":76072},"geometry":{"x":177283.73000000138,"y":2549766.2600000016}},{"attributes":{"ID":76073,"DIS_CODE":0,"TOWNNAME":"永康區","LI":"\u25A0行里","LIN":"19鄰","STREET":"正南五街","SECT":" ","MAREA":" ","LANE":"５２０巷","ALLEY":"５５弄","HOUSE_NO":"９號","E_COORD97":171679.54000000001,"N_COORD97":2548813.6600000001,"ADDRESS":"正南五街５２０巷５５弄９號","OBJECTID":76073},"geometry":{"x":171679.54000000004,"y":2548813.6599999983}},{"attributes":{"ID":76074,"DIS_CODE":0,"TOWNNAME":"新化區","LI":"\u25A0拔里","LIN":"6鄰","STREET":" ","SECT":" ","MAREA":"\u25A0拔林","LANE":" ","ALLEY":" ","HOUSE_NO":"２６６號","E_COORD97":183552.01999999999,"N_COORD97":2551938.25,"ADDRESS":"\u25A0拔林２６６號","OBJECTID":76074},"geometry":{"x":183552.01999999955,"y":2551938.25}},{"attributes":{"ID":76075,"DIS_CODE":0,"TOWNNAME":"永康區","LI":"\u25A0行里","LIN":"19鄰","STREET":"正南五街","SECT":" ","MAREA":" ","LANE":"５２０巷","ALLEY":"５５弄","HOUSE_NO":"１１號","E_COORD97":171677.87,"N_COORD97":2548818.2200000002,"ADDRESS":"正南五街５２０巷５５弄１１號","OBJECTID":76075},"geometry":{"x":171677.87000000104,"y":2548818.2200000025}},{"attributes":{"ID":76076,"DIS_CODE":0,"TOWNNAME":"北門區","LI":"仁里里","LIN":"6鄰","STREET":" ","SECT":" ","MAREA":"二重港","LANE":" ","ALLEY":" ","HOUSE_NO":"１２２之４號","E_COORD97":161150.81,"N_COORD97":2571850.6200000001,"ADDRESS":"二重港１２２之４號","OBJECTID":76076},"geometry":{"x":161150.81000000052,"y":2571850.6200000029}},{"attributes":{"ID":76077,"DIS_CODE":0,"TOWNNAME":"永康區","LI":"\u25A0行里","LIN":"19鄰","STREET":"正南五街","SECT":" ","MAREA":" ","LANE":"５２０巷","ALLEY":"５５弄","HOUSE_NO":"１３號","E_COORD97":171674.53,"N_COORD97":2548821.2400000002,"ADDRESS":"正南五街５２０巷５５弄１３號","OBJECTID":76077},"geometry":{"x":171674.53000000026,"y":2548821.2400000021}},{"attributes":{"ID":76078,"DIS_CODE":0,"TOWNNAME":"北門區","LI":"仁里里","LIN":"6鄰","STREET":" ","SECT":" ","MAREA":"二重港","LANE":" ","ALLEY":" ","HOUSE_NO":"１２４之５號","E_COORD97":161397.42999999999,"N_COORD97":2570943.9500000002,"ADDRESS":"二重港１２４之５號","OBJECTID":76078},"geometry":{"x":161397.43000000063,"y":2570943.9500000011}},{"attributes":{"ID":76079,"DIS_CODE":0,"TOWNNAME":"北門區","LI":"仁里里","LIN":"6鄰","STREET":" ","SECT":" ","MAREA":"二重港","LANE":" ","ALLEY":" ","HOUSE_NO":"１２４號","E_COORD97":161369.25,"N_COORD97":2571037.7200000002,"ADDRESS":"二重港１２４號","OBJECTID":76079},"geometry":{"x":161369.25,"y":2571037.7200000007}},{"attributes":{"ID":76080,"DIS_CODE":0,"TOWNNAME":"佳里區","LI":"海澄里","LIN":"6鄰","STREET":" ","SECT":" ","MAREA":"番子寮","LANE":" ","ALLEY":" ","HOUSE_NO":"３０號之１","E_COORD97":164167.41,"N_COORD97":2564585.0600000001,"ADDRESS":"番子寮３０號之１","OBJECTID":76080},"geometry":{"x":164167.41000000015,"y":2564585.0600000024}},{"attributes":{"ID":76081,"DIS_CODE":0,"TOWNNAME":"新市區","LI":"大營里","LIN":"6鄰","STREET":" ","SECT":" ","MAREA":"大營","LANE":" ","ALLEY":" ","HOUSE_NO":"８６之１８號","E_COORD97":179701.35000000001,"N_COORD97":2555315.7999999998,"ADDRESS":"大營８６之１８號","OBJECTID":76081},"geometry":{"x":179701.35000000056,"y":2555315.8000000007}},{"attributes":{"ID":76082,"DIS_CODE":0,"TOWNNAME":"新市區","LI":"大營里","LIN":"6鄰","STREET":" ","SECT":" ","MAREA":"大營","LANE":" ","ALLEY":" ","HOUSE_NO":"８６之１７號","E_COORD97":179652.42000000001,"N_COORD97":2555267.7999999998,"ADDRESS":"大營８６之１７號","OBJECTID":76082},"geometry":{"x":179652.41999999993,"y":2555267.8000000007}},{"attributes":{"ID":76083,"DIS_CODE":0,"TOWNNAME":"新市區","LI":"永就里","LIN":"6鄰","STREET":" ","SECT":" ","MAREA":"永就","LANE":" ","ALLEY":" ","HOUSE_NO":"６４之２號","E_COORD97":177665.39999999999,"N_COORD97":2551443.2999999998,"ADDRESS":"永就６４之２號","OBJECTID":76083},"geometry":{"x":177665.4000000013,"y":2551443.3000000007}},{"attributes":{"ID":76084,"DIS_CODE":0,"TOWNNAME":"永康區","LI":"\u25A0行里","LIN":"19鄰","STREET":"正南五街","SECT":" ","MAREA":" ","LANE":"５２０巷","ALLEY":"５５弄","HOUSE_NO":"１５號","E_COORD97":171671.19,"N_COORD97":2548824.25,"ADDRESS":"正南五街５２０巷５５弄１５號","OBJECTID":76084},"geometry":{"x":171671.19000000134,"y":2548824.2500000019}},{"attributes":{"ID":76085,"DIS_CODE":0,"TOWNNAME":"新市區","LI":"永就里","LIN":"6鄰","STREET":" ","SECT":" ","MAREA":"永就","LANE":" ","ALLEY":" ","HOUSE_NO":"６３之５號","E_COORD97":177740.67999999999,"N_COORD97":2551438.0499999998,"ADDRESS":"永就６３之５號","OBJECTID":76085},"geometry":{"x":177740.68000000063,"y":2551438.0500000007}},{"attributes":{"ID":76086,"DIS_CODE":0,"TOWNNAME":"龍崎區","LI":"石嘈里","LIN":"6鄰","STREET":" ","SECT":" ","MAREA":"石嘈","LANE":" ","ALLEY":" ","HOUSE_NO":"１２號","E_COORD97":190788.87,"N_COORD97":2540432.25,"ADDRESS":"石嘈１２號","OBJECTID":76086},"geometry":{"x":190788.87000000011,"y":2540432.2500000037}},{"attributes":{"ID":76087,"DIS_CODE":0,"TOWNNAME":"龍崎區","LI":"石嘈里","LIN":"6鄰","STREET":" ","SECT":" ","MAREA":"石嘈","LANE":" ","ALLEY":" ","HOUSE_NO":"１３之１號","E_COORD97":190528.76999999999,"N_COORD97":2540570.2999999998,"ADDRESS":"石嘈１３之１號","OBJECTID":76087},"geometry":{"x":190528.77000000048,"y":2540570.3000000007}},{"attributes":{"ID":76088,"DIS_CODE":0,"TOWNNAME":"龍崎區","LI":"石嘈里","LIN":"6鄰","STREET":" ","SECT":" ","MAREA":"石嘈","LANE":" ","ALLEY":" ","HOUSE_NO":"２０號","E_COORD97":190062.67000000001,"N_COORD97":2540928.25,"ADDRESS":"石嘈２０號","OBJECTID":76088},"geometry":{"x":190062.66999999993,"y":2540928.2500000019}},{"attributes":{"ID":76089,"DIS_CODE":0,"TOWNNAME":"龍崎區","LI":"石嘈里","LIN":"6鄰","STREET":" ","SECT":" ","MAREA":"石嘈","LANE":" ","ALLEY":" ","HOUSE_NO":"１４號","E_COORD97":190501.97,"N_COORD97":2540589.25,"ADDRESS":"石嘈１４號","OBJECTID":76089},"geometry":{"x":190501.97000000067,"y":2540589.2500000019}},{"attributes":{"ID":76090,"DIS_CODE":0,"TOWNNAME":"龍崎區","LI":"石嘈里","LIN":"6鄰","STREET":" ","SECT":" ","MAREA":"石嘈","LANE":" ","ALLEY":" ","HOUSE_NO":"１３號","E_COORD97":190554.57000000001,"N_COORD97":2540512.25,"ADDRESS":"石嘈１３號","OBJECTID":76090},"geometry":{"x":190554.57000000123,"y":2540512.25}},{"attributes":{"ID":76091,"DIS_CODE":0,"TOWNNAME":"楠西區","LI":"龜丹里","LIN":"6鄰","STREET":" ","SECT":" ","MAREA":"龜丹","LANE":" ","ALLEY":" ","HOUSE_NO":"６５號","E_COORD97":199467.44,"N_COORD97":2559837.25,"ADDRESS":"龜丹６５號","OBJECTID":76091},"geometry":{"x":199467.44000000134,"y":2559837.25}},{"attributes":{"ID":76092,"DIS_CODE":0,"TOWNNAME":"關廟區","LI":"深坑里","LIN":"6鄰","STREET":"深坑一街","SECT":" ","MAREA":" ","LANE":"１３巷","ALLEY":" ","HOUSE_NO":"６５號","E_COORD97":181770.37,"N_COORD97":2537710.2999999998,"ADDRESS":"深坑一街１３巷６５號","OBJECTID":76092},"geometry":{"x":181770.37000000011,"y":2537710.3000000045}},{"attributes":{"ID":76093,"DIS_CODE":0,"TOWNNAME":"永康區","LI":"\u25A0行里","LIN":"19鄰","STREET":"正南五街","SECT":" ","MAREA":" ","LANE":"５２０巷","ALLEY":"５５弄","HOUSE_NO":"１７號","E_COORD97":171666.48999999999,"N_COORD97":2548827.6499999999,"ADDRESS":"正南五街５２０巷５５弄１７號","OBJECTID":76093},"geometry":{"x":171666.49000000022,"y":2548827.6499999985}},{"attributes":{"ID":76094,"DIS_CODE":0,"TOWNNAME":"關廟區","LI":"深坑里","LIN":"6鄰","STREET":"南雄路","SECT":"一段","MAREA":" ","LANE":"４２２巷","ALLEY":" ","HOUSE_NO":"８號","E_COORD97":181753.07000000001,"N_COORD97":2537682.2999999998,"ADDRESS":"南雄路一段４２２巷８號","OBJECTID":76094},"geometry":{"x":181753.07000000123,"y":2537682.3000000007}},{"attributes":{"ID":76095,"DIS_CODE":0,"TOWNNAME":"永康區","LI":"\u25A0行里","LIN":"19鄰","STREET":"正南五街","SECT":" ","MAREA":" ","LANE":"５２０巷","ALLEY":"５５弄","HOUSE_NO":"２號","E_COORD97":171704.60999999999,"N_COORD97":2548820.6499999999,"ADDRESS":"正南五街５２０巷５５弄２號","OBJECTID":76095},"geometry":{"x":171704.61000000034,"y":2548820.6500000004}},{"attributes":{"ID":76096,"DIS_CODE":0,"TOWNNAME":"永康區","LI":"\u25A0行里","LIN":"19鄰","STREET":"正南五街","SECT":" ","MAREA":" ","LANE":"５２０巷","ALLEY":"５５弄","HOUSE_NO":"６號","E_COORD97":171700.67999999999,"N_COORD97":2548823.1800000002,"ADDRESS":"正南五街５２０巷５５弄６號","OBJECTID":76096},"geometry":{"x":171700.68000000063,"y":2548823.1799999997}},{"attributes":{"ID":76097,"DIS_CODE":0,"TOWNNAME":"關廟區","LI":"深坑里","LIN":"6鄰","STREET":"南雄路","SECT":"一段","MAREA":" ","LANE":" ","ALLEY":" ","HOUSE_NO":"４０６號","E_COORD97":181742.37,"N_COORD97":2537642.2999999998,"ADDRESS":"南雄路一段４０６號","OBJECTID":76097},"geometry":{"x":181742.37000000104,"y":2537642.3000000045}},{"attributes":{"ID":76098,"DIS_CODE":0,"TOWNNAME":"永康區","LI":"\u25A0行里","LIN":"19鄰","STREET":"正南五街","SECT":" ","MAREA":" ","LANE":"５２０巷","ALLEY":"５５弄","HOUSE_NO":"８號","E_COORD97":171697.39999999999,"N_COORD97":2548826.27,"ADDRESS":"正南五街５２０巷５５弄８號","OBJECTID":76098},"geometry":{"x":171697.40000000037,"y":2548826.2700000033}},{"attributes":{"ID":76099,"DIS_CODE":0,"TOWNNAME":"關廟區","LI":"布袋里","LIN":"6鄰","STREET":"南雄南路","SECT":" ","MAREA":" ","LANE":"３３８巷","ALLEY":" ","HOUSE_NO":"８號","E_COORD97":183494.54000000001,"N_COORD97":2534934.2999999998,"ADDRESS":"南雄南路３３８巷８號","OBJECTID":76099},"geometry":{"x":183494.54000000004,"y":2534934.3000000026}},{"attributes":{"ID":76100,"DIS_CODE":0,"TOWNNAME":"永康區","LI":"\u25A0行里","LIN":"19鄰","STREET":"正南五街","SECT":" ","MAREA":" ","LANE":"５２０巷","ALLEY":"５５弄","HOUSE_NO":"１０號","E_COORD97":171694.13,"N_COORD97":2548829.3599999999,"ADDRESS":"正南五街５２０巷５５弄１０號","OBJECTID":76100},"geometry":{"x":171694.12999999896,"y":2548829.3600000013}},{"attributes":{"ID":76101,"DIS_CODE":0,"TOWNNAME":"永康區","LI":"\u25A0行里","LIN":"19鄰","STREET":"正南五街","SECT":" ","MAREA":" ","LANE":"５２０巷","ALLEY":"５５弄","HOUSE_NO":"１２號","E_COORD97":171690.85999999999,"N_COORD97":2548832.4500000002,"ADDRESS":"正南五街５２０巷５５弄１２號","OBJECTID":76101},"geometry":{"x":171690.86000000034,"y":2548832.4500000011}},{"attributes":{"ID":76102,"DIS_CODE":0,"TOWNNAME":"安定區","LI":"蘇林里","LIN":"6鄰","STREET":" ","SECT":" ","MAREA":"蘇厝","LANE":" ","ALLEY":" ","HOUSE_NO":"６６號之１","E_COORD97":173644.89999999999,"N_COORD97":2558637.2999999998,"ADDRESS":"蘇厝６６號之１","OBJECTID":76102},"geometry":{"x":173644.9000000013,"y":2558637.3000000007}},{"attributes":{"ID":76103,"DIS_CODE":0,"TOWNNAME":"關廟區","LI":"埤頭里","LIN":"6鄰","STREET":"關新路","SECT":"二段","MAREA":" ","LANE":" ","ALLEY":" ","HOUSE_NO":"２１號","E_COORD97":179072.26999999999,"N_COORD97":2544095.2999999998,"ADDRESS":"關新路二段２１號","OBJECTID":76103},"geometry":{"x":179072.27000000048,"y":2544095.3000000026}},{"attributes":{"ID":76104,"DIS_CODE":0,"TOWNNAME":"永康區","LI":"\u25A0行里","LIN":"19鄰","STREET":"正南五街","SECT":" ","MAREA":" ","LANE":"５２０巷","ALLEY":"５５弄","HOUSE_NO":"１６號","E_COORD97":171688.39000000001,"N_COORD97":2548836.0099999998,"ADDRESS":"正南五街５２０巷５５弄１６號","OBJECTID":76104},"geometry":{"x":171688.38999999966,"y":2548836.0100000016}},{"attributes":{"ID":76105,"DIS_CODE":0,"TOWNNAME":"南化區","LI":"南化里","LIN":"6鄰","STREET":" ","SECT":" ","MAREA":"南化","LANE":" ","ALLEY":" ","HOUSE_NO":"１１５之４號","E_COORD97":196315.54000000001,"N_COORD97":2549126.7999999998,"ADDRESS":"南化１１５之４號","OBJECTID":76105},"geometry":{"x":196315.54000000004,"y":2549126.8000000026}},{"attributes":{"ID":76106,"DIS_CODE":0,"TOWNNAME":"新市區","LI":"大營里","LIN":"6鄰","STREET":" ","SECT":" ","MAREA":"大營","LANE":" ","ALLEY":" ","HOUSE_NO":"８６之２２號","E_COORD97":179719.67999999999,"N_COORD97":2555366.0499999998,"ADDRESS":"大營８６之２２號","OBJECTID":76106},"geometry":{"x":179719.6799999997,"y":2555366.0500000026}},{"attributes":{"ID":76107,"DIS_CODE":0,"TOWNNAME":"新市區","LI":"三舍里","LIN":"6鄰","STREET":" ","SECT":" ","MAREA":"三舍","LANE":" ","ALLEY":" ","HOUSE_NO":"１５１之２０號","E_COORD97":177772.48000000001,"N_COORD97":2554731.2999999998,"ADDRESS":"三舍１５１之２０號","OBJECTID":76107},"geometry":{"x":177772.48000000045,"y":2554731.3000000026}},{"attributes":{"ID":76108,"DIS_CODE":0,"TOWNNAME":"永康區","LI":"\u25A0行里","LIN":"19鄰","STREET":"正南五街","SECT":" ","MAREA":" ","LANE":"５２０巷","ALLEY":"５５弄","HOUSE_NO":"１８號","E_COORD97":171684.31,"N_COORD97":2548838.6299999999,"ADDRESS":"正南五街５２０巷５５弄１８號","OBJECTID":76108},"geometry":{"x":171684.31000000145,"y":2548838.629999999}},{"attributes":{"ID":76109,"DIS_CODE":0,"TOWNNAME":"永康區","LI":"\u25A0行里","LIN":"19鄰","STREET":"正南五街","SECT":" ","MAREA":" ","LANE":"５２０巷","ALLEY":"５５弄","HOUSE_NO":"２０號","E_COORD97":171679.78,"N_COORD97":2548841.1299999999,"ADDRESS":"正南五街５２０巷５５弄２０號","OBJECTID":76109},"geometry":{"x":171679.78000000026,"y":2548841.1300000008}},{"attributes":{"ID":76110,"DIS_CODE":0,"TOWNNAME":"安南區","LI":"州北里","LIN":"19鄰","STREET":"安昌街","SECT":" ","MAREA":" ","LANE":"８５巷","ALLEY":"７５弄","HOUSE_NO":"３０號","E_COORD97":169832.48000000001,"N_COORD97":2552357.9900000002,"ADDRESS":"安昌街８５巷７５弄３０號","OBJECTID":76110},"geometry":{"x":169832.48000000045,"y":2552357.9900000039}},{"attributes":{"ID":76111,"DIS_CODE":0,"TOWNNAME":"安南區","LI":"州北里","LIN":"19鄰","STREET":"安昌街","SECT":" ","MAREA":" ","LANE":"８５巷","ALLEY":"７５弄","HOUSE_NO":"３２號","E_COORD97":169827.16,"N_COORD97":2552357.8700000001,"ADDRESS":"安昌街８５巷７５弄３２號","OBJECTID":76111},"geometry":{"x":169827.16000000015,"y":2552357.8700000029}},{"attributes":{"ID":76112,"DIS_CODE":0,"TOWNNAME":"安南區","LI":"梅花里","LIN":"19鄰","STREET":"安中路","SECT":"一段","MAREA":" ","LANE":"７０５巷","ALLEY":"３弄","HOUSE_NO":"１８號","E_COORD97":167418.51000000001,"N_COORD97":2549236.6099999999,"ADDRESS":"安中路一段７０５巷３弄１８號","OBJECTID":76112},"geometry":{"x":167418.51000000071,"y":2549236.6099999994}},{"attributes":{"ID":76113,"DIS_CODE":0,"TOWNNAME":"關廟區","LI":"下湖里","LIN":"7鄰","STREET":"關新路","SECT":"一段","MAREA":" ","LANE":"５１５巷","ALLEY":" ","HOUSE_NO":"７號","E_COORD97":179120.23999999999,"N_COORD97":2543215.2999999998,"ADDRESS":"關新路一段５１５巷７號","OBJECTID":76113},"geometry":{"x":179120.24000000022,"y":2543215.3000000007}},{"attributes":{"ID":76114,"DIS_CODE":0,"TOWNNAME":"歸仁區","LI":"大潭里","LIN":"8鄰","STREET":"長榮路","SECT":"一段","MAREA":" ","LANE":" ","ALLEY":" ","HOUSE_NO":"２２６號","E_COORD97":175055.67000000001,"N_COORD97":2534550.9700000002,"ADDRESS":"長榮路一段２２６號","OBJECTID":76114},"geometry":{"x":175055.67000000179,"y":2534550.9700000007}},{"attributes":{"ID":76115,"DIS_CODE":0,"TOWNNAME":"歸仁區","LI":"文化里","LIN":"8鄰","STREET":"文化北街","SECT":" ","MAREA":" ","LANE":" ","ALLEY":" ","HOUSE_NO":"１３１號","E_COORD97":177147.70999999999,"N_COORD97":2541404.3399999999,"ADDRESS":"文化北街１３１號","OBJECTID":76115},"geometry":{"x":177147.71000000089,"y":2541404.3400000036}},{"attributes":{"ID":76116,"DIS_CODE":0,"TOWNNAME":"新市區","LI":"大營里","LIN":"6鄰","STREET":" ","SECT":" ","MAREA":"大營","LANE":" ","ALLEY":" ","HOUSE_NO":"１００之７號","E_COORD97":179846.23000000001,"N_COORD97":2555263.5499999998,"ADDRESS":"大營１００之７號","OBJECTID":76116},"geometry":{"x":179846.22999999952,"y":2555263.5499999989}},{"attributes":{"ID":76117,"DIS_CODE":0,"TOWNNAME":"山上區","LI":"新莊里","LIN":"6鄰","STREET":" ","SECT":" ","MAREA":"大庄","LANE":" ","ALLEY":" ","HOUSE_NO":"２號","E_COORD97":183980.51000000001,"N_COORD97":2554954.25,"ADDRESS":"大庄２號","OBJECTID":76117},"geometry":{"x":183980.51000000071,"y":2554954.2500000019}},{"attributes":{"ID":76118,"DIS_CODE":0,"TOWNNAME":"新市區","LI":"大營里","LIN":"6鄰","STREET":" ","SECT":" ","MAREA":"大營","LANE":" ","ALLEY":" ","HOUSE_NO":"１５５之５號","E_COORD97":179504.09,"N_COORD97":2555390.2999999998,"ADDRESS":"大營１５５之５號","OBJECTID":76118},"geometry":{"x":179504.08999999892,"y":2555390.3000000007}},{"attributes":{"ID":76119,"DIS_CODE":0,"TOWNNAME":"新市區","LI":"三舍里","LIN":"6鄰","STREET":" ","SECT":" ","MAREA":"三舍","LANE":" ","ALLEY":" ","HOUSE_NO":"１５１之５號","E_COORD97":177771.62,"N_COORD97":2554615.7999999998,"ADDRESS":"三舍１５１之５號","OBJECTID":76119},"geometry":{"x":177771.62000000011,"y":2554615.8000000026}},{"attributes":{"ID":76120,"DIS_CODE":0,"TOWNNAME":"安南區","LI":"梅花里","LIN":"19鄰","STREET":"安中路","SECT":"一段","MAREA":" ","LANE":"７０５巷","ALLEY":"３弄","HOUSE_NO":"２２號","E_COORD97":167412.98000000001,"N_COORD97":2549225.77,"ADDRESS":"安中路一段７０５巷３弄２２號","OBJECTID":76120},"geometry":{"x":167412.98000000045,"y":2549225.7699999996}},{"attributes":{"ID":76121,"DIS_CODE":0,"TOWNNAME":"安南區","LI":"梅花里","LIN":"19鄰","STREET":"安中路","SECT":"一段","MAREA":" ","LANE":"７０５巷","ALLEY":"３弄","HOUSE_NO":"２４號","E_COORD97":167409.57999999999,"N_COORD97":2549221.73,"ADDRESS":"安中路一段７０５巷３弄２４號","OBJECTID":76121},"geometry":{"x":167409.58000000101,"y":2549221.7300000023}},{"attributes":{"ID":76122,"DIS_CODE":0,"TOWNNAME":"新市區","LI":"三舍里","LIN":"6鄰","STREET":" ","SECT":" ","MAREA":"三舍","LANE":" ","ALLEY":" ","HOUSE_NO":"１５１之７號","E_COORD97":177770.51000000001,"N_COORD97":2554626.5499999998,"ADDRESS":"三舍１５１之７號","OBJECTID":76122},"geometry":{"x":177770.51000000164,"y":2554626.5500000045}},{"attributes":{"ID":76123,"DIS_CODE":0,"TOWNNAME":"安定區","LI":"新吉里","LIN":"6鄰","STREET":" ","SECT":" ","MAREA":"新吉","LANE":" ","ALLEY":" ","HOUSE_NO":"４７號之５","E_COORD97":169192.26000000001,"N_COORD97":2554105.2999999998,"ADDRESS":"新吉４７號之５","OBJECTID":76123},"geometry":{"x":169192.25999999978,"y":2554105.3000000007}},{"attributes":{"ID":76124,"DIS_CODE":0,"TOWNNAME":"安定區","LI":"蘇厝里","LIN":"6鄰","STREET":" ","SECT":" ","MAREA":"蘇厝","LANE":" ","ALLEY":" ","HOUSE_NO":"３３３之５號","E_COORD97":172971.92000000001,"N_COORD97":2558630.2999999998,"ADDRESS":"蘇厝３３３之５號","OBJECTID":76124},"geometry":{"x":172971.91999999993,"y":2558630.3000000026}},{"attributes":{"ID":76125,"DIS_CODE":0,"TOWNNAME":"安定區","LI":"蘇厝里","LIN":"6鄰","STREET":" ","SECT":" ","MAREA":"蘇厝","LANE":" ","ALLEY":" ","HOUSE_NO":"３３３之１４號","E_COORD97":172958.97,"N_COORD97":2558641.2999999998,"ADDRESS":"蘇厝３３３之１４號","OBJECTID":76125},"geometry":{"x":172958.96999999974,"y":2558641.3000000007}},{"attributes":{"ID":76126,"DIS_CODE":0,"TOWNNAME":"安定區","LI":"蘇厝里","LIN":"6鄰","STREET":" ","SECT":" ","MAREA":"蘇厝","LANE":" ","ALLEY":" ","HOUSE_NO":"３３３之９號","E_COORD97":172992.92000000001,"N_COORD97":2558628.2999999998,"ADDRESS":"蘇厝３３３之９號","OBJECTID":76126},"geometry":{"x":172992.92000000086,"y":2558628.3000000007}},{"attributes":{"ID":76127,"DIS_CODE":0,"TOWNNAME":"安定區","LI":"蘇厝里","LIN":"6鄰","STREET":" ","SECT":" ","MAREA":"蘇厝","LANE":" ","ALLEY":" ","HOUSE_NO":"３３２號","E_COORD97":172975.01999999999,"N_COORD97":2558609.25,"ADDRESS":"蘇厝３３２號","OBJECTID":76127},"geometry":{"x":172975.02000000048,"y":2558609.2500000019}},{"attributes":{"ID":76128,"DIS_CODE":0,"TOWNNAME":"安定區","LI":"新吉里","LIN":"6鄰","STREET":" ","SECT":" ","MAREA":"新吉","LANE":" ","ALLEY":" ","HOUSE_NO":"４６號之１","E_COORD97":169236.10000000001,"N_COORD97":2554109.2999999998,"ADDRESS":"新吉４６號之１","OBJECTID":76128},"geometry":{"x":169236.10000000149,"y":2554109.3000000045}},{"attributes":{"ID":76129,"DIS_CODE":0,"TOWNNAME":"安定區","LI":"蘇厝里","LIN":"6鄰","STREET":" ","SECT":" ","MAREA":"蘇厝","LANE":" ","ALLEY":" ","HOUSE_NO":"３２８之６號","E_COORD97":173034.62,"N_COORD97":2558524.2999999998,"ADDRESS":"蘇厝３２８之６號","OBJECTID":76129},"geometry":{"x":173034.62000000011,"y":2558524.3000000026}},{"attributes":{"ID":76130,"DIS_CODE":0,"TOWNNAME":"安定區","LI":"蘇厝里","LIN":"6鄰","STREET":" ","SECT":" ","MAREA":"蘇厝","LANE":" ","ALLEY":" ","HOUSE_NO":"３２８號","E_COORD97":173031.01999999999,"N_COORD97":2558555.25,"ADDRESS":"蘇厝３２８號","OBJECTID":76130},"geometry":{"x":173031.02000000048,"y":2558555.2500000019}},{"attributes":{"ID":76131,"DIS_CODE":0,"TOWNNAME":"安定區","LI":"蘇厝里","LIN":"6鄰","STREET":" ","SECT":" ","MAREA":"蘇厝","LANE":" ","ALLEY":" ","HOUSE_NO":"３２７之２２號","E_COORD97":173073.26999999999,"N_COORD97":2558554.2999999998,"ADDRESS":"蘇厝３２７之２２號","OBJECTID":76131},"geometry":{"x":173073.27000000048,"y":2558554.3000000045}},{"attributes":{"ID":76132,"DIS_CODE":0,"TOWNNAME":"安定區","LI":"新吉里","LIN":"6鄰","STREET":" ","SECT":" ","MAREA":"新吉","LANE":" ","ALLEY":" ","HOUSE_NO":"４９號","E_COORD97":169097.86275500001,"N_COORD97":2553989.47725,"ADDRESS":"新吉４９號","OBJECTID":76132},"geometry":{"x":169097.86275500152,"y":2553989.477248}},{"attributes":{"ID":76133,"DIS_CODE":0,"TOWNNAME":"安定區","LI":"蘇厝里","LIN":"6鄰","STREET":" ","SECT":" ","MAREA":"蘇厝","LANE":" ","ALLEY":" ","HOUSE_NO":"３３３之２１號","E_COORD97":172994.76999999999,"N_COORD97":2558639.2999999998,"ADDRESS":"蘇厝３３３之２１號","OBJECTID":76133},"geometry":{"x":172994.77000000142,"y":2558639.3000000026}},{"attributes":{"ID":76134,"DIS_CODE":0,"TOWNNAME":"安定區","LI":"保西里","LIN":"6鄰","STREET":" ","SECT":" ","MAREA":"安定","LANE":" ","ALLEY":" ","HOUSE_NO":"３７９號之１","E_COORD97":171529.14999999999,"N_COORD97":2557681.3199999998,"ADDRESS":"安定３７９號之１","OBJECTID":76134},"geometry":{"x":171529.1500000013,"y":2557681.3200000003}},{"attributes":{"ID":76135,"DIS_CODE":0,"TOWNNAME":"安定區","LI":"安加里","LIN":"6鄰","STREET":" ","SECT":" ","MAREA":"安定","LANE":" ","ALLEY":" ","HOUSE_NO":"２１０之６號","E_COORD97":171792.30434900001,"N_COORD97":2557599.6755599999,"ADDRESS":"安定２１０之６號","OBJECTID":76135},"geometry":{"x":171792.30434899963,"y":2557599.6755550001}},{"attributes":{"ID":76136,"DIS_CODE":0,"TOWNNAME":"安定區","LI":"保西里","LIN":"6鄰","STREET":" ","SECT":" ","MAREA":"安定","LANE":" ","ALLEY":" ","HOUSE_NO":"３８６之１１號","E_COORD97":171531.97,"N_COORD97":2557793.3199999998,"ADDRESS":"安定３８６之１１號","OBJECTID":76136},"geometry":{"x":171531.96999999974,"y":2557793.3200000003}},{"attributes":{"ID":76137,"DIS_CODE":0,"TOWNNAME":"安定區","LI":"蘇厝里","LIN":"6鄰","STREET":" ","SECT":" ","MAREA":"蘇厝","LANE":" ","ALLEY":" ","HOUSE_NO":"３２５號","E_COORD97":173075.22,"N_COORD97":2558631.25,"ADDRESS":"蘇厝３２５號","OBJECTID":76137},"geometry":{"x":173075.22000000067,"y":2558631.25}},{"attributes":{"ID":76138,"DIS_CODE":0,"TOWNNAME":"安定區","LI":"港尾里","LIN":"6鄰","STREET":" ","SECT":" ","MAREA":"港子尾","LANE":" ","ALLEY":" ","HOUSE_NO":"２４號之１","E_COORD97":171495.42999999999,"N_COORD97":2556059.2999999998,"ADDRESS":"港子尾２４號之１","OBJECTID":76138},"geometry":{"x":171495.43000000156,"y":2556059.3000000026}},{"attributes":{"ID":76139,"DIS_CODE":0,"TOWNNAME":"安定區","LI":"中榮里","LIN":"6鄰","STREET":" ","SECT":" ","MAREA":"許中營","LANE":" ","ALLEY":" ","HOUSE_NO":"１５號","E_COORD97":172346.54000000001,"N_COORD97":2554921.25,"ADDRESS":"許中營１５號","OBJECTID":76139},"geometry":{"x":172346.54000000097,"y":2554921.25}},{"attributes":{"ID":76140,"DIS_CODE":0,"TOWNNAME":"安定區","LI":"安定里","LIN":"6鄰","STREET":" ","SECT":" ","MAREA":"安定","LANE":" ","ALLEY":" ","HOUSE_NO":"４６號之６","E_COORD97":171985.10999999999,"N_COORD97":2557854.3199999998,"ADDRESS":"安定４６號之６","OBJECTID":76140},"geometry":{"x":171985.11000000127,"y":2557854.3200000003}},{"attributes":{"ID":76141,"DIS_CODE":0,"TOWNNAME":"安定區","LI":"蘇厝里","LIN":"6鄰","STREET":" ","SECT":" ","MAREA":"蘇厝","LANE":" ","ALLEY":" ","HOUSE_NO":"３２７之１９號","E_COORD97":173093.87,"N_COORD97":2558556.2999999998,"ADDRESS":"蘇厝３２７之１９號","OBJECTID":76141},"geometry":{"x":173093.87000000104,"y":2558556.3000000007}},{"attributes":{"ID":76142,"DIS_CODE":0,"TOWNNAME":"安南區","LI":"梅花里","LIN":"19鄰","STREET":"安中路","SECT":"一段","MAREA":" ","LANE":"７０５巷","ALLEY":"３弄","HOUSE_NO":"８號","E_COORD97":167433.62,"N_COORD97":2549261.0600000001,"ADDRESS":"安中路一段７０５巷３弄８號","OBJECTID":76142},"geometry":{"x":167433.62000000104,"y":2549261.0600000005}},{"attributes":{"ID":76143,"DIS_CODE":0,"TOWNNAME":"永康區","LI":"西灣里","LIN":"19鄰","STREET":"大安街","SECT":" ","MAREA":" ","LANE":"２９３巷","ALLEY":"５２弄","HOUSE_NO":"５８號","E_COORD97":174574.42999999999,"N_COORD97":2545690.6299999999,"ADDRESS":"大安街２９３巷５２弄５８號","OBJECTID":76143},"geometry":{"x":174574.43000000063,"y":2545690.6300000008}},{"attributes":{"ID":76144,"DIS_CODE":0,"TOWNNAME":"永康區","LI":"勝利里","LIN":"19鄰","STREET":"勝利街","SECT":" ","MAREA":" ","LANE":"１９７巷","ALLEY":"２５弄","HOUSE_NO":"２０號","E_COORD97":171257.62,"N_COORD97":2545067.04,"ADDRESS":"勝利街１９７巷２５弄２０號","OBJECTID":76144},"geometry":{"x":171257.62000000104,"y":2545067.0399999972}},{"attributes":{"ID":76145,"DIS_CODE":0,"TOWNNAME":"安定區","LI":"六嘉里","LIN":"6鄰","STREET":" ","SECT":" ","MAREA":"六塊寮","LANE":" ","ALLEY":" ","HOUSE_NO":"４９號","E_COORD97":170228.22,"N_COORD97":2553363.27,"ADDRESS":"六塊寮４９號","OBJECTID":76145},"geometry":{"x":170228.21999999974,"y":2553363.2700000014}},{"attributes":{"ID":76146,"DIS_CODE":0,"TOWNNAME":"永康區","LI":"尚頂里","LIN":"19鄰","STREET":"南台街","SECT":" ","MAREA":" ","LANE":"３巷","ALLEY":"１４弄","HOUSE_NO":"６２號","E_COORD97":170485.22,"N_COORD97":2546807.7400000002,"ADDRESS":"南台街３巷１４弄６２號","OBJECTID":76146},"geometry":{"x":170485.22000000067,"y":2546807.7400000021}},{"attributes":{"ID":76147,"DIS_CODE":0,"TOWNNAME":"永康區","LI":"尚頂里","LIN":"19鄰","STREET":"南台街","SECT":" ","MAREA":" ","LANE":"３巷","ALLEY":"１４弄","HOUSE_NO":"４２號","E_COORD97":170472.89999999999,"N_COORD97":2546855.75,"ADDRESS":"南台街３巷１４弄４２號","OBJECTID":76147},"geometry":{"x":170472.9000000013,"y":2546855.75}},{"attributes":{"ID":76148,"DIS_CODE":0,"TOWNNAME":"永康區","LI":"甲頂里","LIN":"19鄰","STREET":"中正南路","SECT":" ","MAREA":" ","LANE":"５２巷","ALLEY":"４６弄","HOUSE_NO":"９５號","E_COORD97":169900.20999999999,"N_COORD97":2546540.5,"ADDRESS":"中正南路５２巷４６弄９５號","OBJECTID":76148},"geometry":{"x":169900.21000000183,"y":2546540.5000000019}},{"attributes":{"ID":76149,"DIS_CODE":0,"TOWNNAME":"永康區","LI":"甲頂里","LIN":"19鄰","STREET":"中正南路","SECT":" ","MAREA":" ","LANE":"５２巷","ALLEY":"４６弄","HOUSE_NO":"１００號","E_COORD97":169919.53,"N_COORD97":2546548.5699999998,"ADDRESS":"中正南路５２巷４６弄１００號","OBJECTID":76149},"geometry":{"x":169919.53000000119,"y":2546548.5700000003}},{"attributes":{"ID":76150,"DIS_CODE":0,"TOWNNAME":"永康區","LI":"甲頂里","LIN":"19鄰","STREET":"中正南路","SECT":" ","MAREA":" ","LANE":"５２巷","ALLEY":"４６弄","HOUSE_NO":"８２號","E_COORD97":169875.79999999999,"N_COORD97":2546564.9399999999,"ADDRESS":"中正南路５２巷４６弄８２號","OBJECTID":76150},"geometry":{"x":169875.80000000168,"y":2546564.9400000013}},{"attributes":{"ID":76151,"DIS_CODE":0,"TOWNNAME":"東山區","LI":"大客里","LIN":"7鄰","STREET":" ","SECT":" ","MAREA":"大庄","LANE":" ","ALLEY":" ","HOUSE_NO":"４２號之３","E_COORD97":189648.56,"N_COORD97":2578963.1800000002,"ADDRESS":"大庄４２號之３","OBJECTID":76151},"geometry":{"x":189648.56000000052,"y":2578963.1799999997}},{"attributes":{"ID":76152,"DIS_CODE":0,"TOWNNAME":"東山區","LI":"大客里","LIN":"7鄰","STREET":" ","SECT":" ","MAREA":"大庄","LANE":" ","ALLEY":" ","HOUSE_NO":"４２號之５","E_COORD97":189654.59,"N_COORD97":2578973.52,"ADDRESS":"大庄４２號之５","OBJECTID":76152},"geometry":{"x":189654.58999999985,"y":2578973.5199999996}},{"attributes":{"ID":76153,"DIS_CODE":0,"TOWNNAME":"東山區","LI":"大客里","LIN":"7鄰","STREET":" ","SECT":" ","MAREA":"大庄","LANE":" ","ALLEY":" ","HOUSE_NO":"４２號","E_COORD97":189668.48000000001,"N_COORD97":2578996.6800000002,"ADDRESS":"大庄４２號","OBJECTID":76153},"geometry":{"x":189668.48000000138,"y":2578996.6799999997}},{"attributes":{"ID":76154,"DIS_CODE":0,"TOWNNAME":"東山區","LI":"大客里","LIN":"7鄰","STREET":" ","SECT":" ","MAREA":"大庄","LANE":" ","ALLEY":" ","HOUSE_NO":"４３號","E_COORD97":189624.85999999999,"N_COORD97":2578977.6600000001,"ADDRESS":"大庄４３號","OBJECTID":76154},"geometry":{"x":189624.8600000022,"y":2578977.6600000001}},{"attributes":{"ID":76155,"DIS_CODE":0,"TOWNNAME":"東山區","LI":"大客里","LIN":"7鄰","STREET":" ","SECT":" ","MAREA":"大庄","LANE":" ","ALLEY":" ","HOUSE_NO":"４４號之１","E_COORD97":189608.56,"N_COORD97":2578971.5299999998,"ADDRESS":"大庄４４號之１","OBJECTID":76155},"geometry":{"x":189608.55999999959,"y":2578971.5300000031}},{"attributes":{"ID":76156,"DIS_CODE":0,"TOWNNAME":"東山區","LI":"大客里","LIN":"7鄰","STREET":" ","SECT":" ","MAREA":"大庄","LANE":" ","ALLEY":" ","HOUSE_NO":"４４號之２","E_COORD97":189603.57000000001,"N_COORD97":2578972.9100000001,"ADDRESS":"大庄４４號之２","OBJECTID":76156},"geometry":{"x":189603.57000000123,"y":2578972.9100000039}},{"attributes":{"ID":76157,"DIS_CODE":0,"TOWNNAME":"東山區","LI":"大客里","LIN":"7鄰","STREET":" ","SECT":" ","MAREA":"大庄","LANE":" ","ALLEY":" ","HOUSE_NO":"４４號之３","E_COORD97":189595.45000000001,"N_COORD97":2578975.3500000001,"ADDRESS":"大庄４４號之３","OBJECTID":76157},"geometry":{"x":189595.45000000112,"y":2578975.3499999996}},{"attributes":{"ID":76158,"DIS_CODE":0,"TOWNNAME":"東山區","LI":"大客里","LIN":"7鄰","STREET":" ","SECT":" ","MAREA":"大庄","LANE":" ","ALLEY":" ","HOUSE_NO":"４４號","E_COORD97":189596.70999999999,"N_COORD97":2578994.71,"ADDRESS":"大庄４４號","OBJECTID":76158},"geometry":{"x":189596.71000000183,"y":2578994.7100000009}},{"attributes":{"ID":76159,"DIS_CODE":0,"TOWNNAME":"東山區","LI":"大客里","LIN":"7鄰","STREET":" ","SECT":" ","MAREA":"大庄","LANE":" ","ALLEY":" ","HOUSE_NO":"４５號","E_COORD97":189611.66,"N_COORD97":2579024.6699999999,"ADDRESS":"大庄４５號","OBJECTID":76159},"geometry":{"x":189611.66000000015,"y":2579024.6699999999}},{"attributes":{"ID":76160,"DIS_CODE":0,"TOWNNAME":"東山區","LI":"大客里","LIN":"7鄰","STREET":" ","SECT":" ","MAREA":"大庄","LANE":" ","ALLEY":" ","HOUSE_NO":"４６號之１","E_COORD97":189651.76999999999,"N_COORD97":2579064.6699999999,"ADDRESS":"大庄４６號之１","OBJECTID":76160},"geometry":{"x":189651.77000000142,"y":2579064.6699999999}},{"attributes":{"ID":76161,"DIS_CODE":0,"TOWNNAME":"東山區","LI":"大客里","LIN":"7鄰","STREET":" ","SECT":" ","MAREA":"大庄","LANE":" ","ALLEY":" ","HOUSE_NO":"４６號","E_COORD97":189619.97,"N_COORD97":2579040.1299999999,"ADDRESS":"大庄４６號","OBJECTID":76161},"geometry":{"x":189619.96999999881,"y":2579040.129999999}},{"attributes":{"ID":76162,"DIS_CODE":0,"TOWNNAME":"東山區","LI":"三榮里","LIN":"7鄰","STREET":" ","SECT":" ","MAREA":"木柵","LANE":" ","ALLEY":" ","HOUSE_NO":"３１號之１","E_COORD97":187529.79999999999,"N_COORD97":2579805.0499999998,"ADDRESS":"木柵３１號之１","OBJECTID":76162},"geometry":{"x":187529.80000000075,"y":2579805.0500000026}},{"attributes":{"ID":76163,"DIS_CODE":0,"TOWNNAME":"東山區","LI":"三榮里","LIN":"7鄰","STREET":" ","SECT":" ","MAREA":"木柵","LANE":" ","ALLEY":" ","HOUSE_NO":"３１號之２","E_COORD97":187527.42999999999,"N_COORD97":2579822.7599999998,"ADDRESS":"木柵３１號之２","OBJECTID":76163},"geometry":{"x":187527.43000000063,"y":2579822.7600000016}},{"attributes":{"ID":76164,"DIS_CODE":0,"TOWNNAME":"東山區","LI":"三榮里","LIN":"7鄰","STREET":" ","SECT":" ","MAREA":"木柵","LANE":" ","ALLEY":" ","HOUSE_NO":"３１號","E_COORD97":187532.92999999999,"N_COORD97":2579786.29,"ADDRESS":"木柵３１號","OBJECTID":76164},"geometry":{"x":187532.9299999997,"y":2579786.2899999972}},{"attributes":{"ID":76165,"DIS_CODE":0,"TOWNNAME":"東山區","LI":"三榮里","LIN":"7鄰","STREET":" ","SECT":" ","MAREA":"木柵","LANE":" ","ALLEY":" ","HOUSE_NO":"３２號","E_COORD97":187547.85000000001,"N_COORD97":2579796.5,"ADDRESS":"木柵３２號","OBJECTID":76165},"geometry":{"x":187547.85000000056,"y":2579796.5000000019}},{"attributes":{"ID":76166,"DIS_CODE":0,"TOWNNAME":"東山區","LI":"三榮里","LIN":"7鄰","STREET":" ","SECT":" ","MAREA":"木柵","LANE":" ","ALLEY":" ","HOUSE_NO":"３３號","E_COORD97":187565.87,"N_COORD97":2579799.9199999999,"ADDRESS":"木柵３３號","OBJECTID":76166},"geometry":{"x":187565.87000000011,"y":2579799.9200000037}},{"attributes":{"ID":76167,"DIS_CODE":0,"TOWNNAME":"東山區","LI":"三榮里","LIN":"7鄰","STREET":" ","SECT":" ","MAREA":"木柵","LANE":" ","ALLEY":" ","HOUSE_NO":"３４號","E_COORD97":187585.51999999999,"N_COORD97":2579800.9700000002,"ADDRESS":"木柵３４號","OBJECTID":76167},"geometry":{"x":187585.52000000048,"y":2579800.9700000025}},{"attributes":{"ID":76168,"DIS_CODE":0,"TOWNNAME":"東山區","LI":"三榮里","LIN":"7鄰","STREET":" ","SECT":" ","MAREA":"木柵","LANE":" ","ALLEY":" ","HOUSE_NO":"３５號之１","E_COORD97":187559.95999999999,"N_COORD97":2579842.1899999999,"ADDRESS":"木柵３５號之１","OBJECTID":76168},"geometry":{"x":187559.95999999996,"y":2579842.1900000013}},{"attributes":{"ID":76169,"DIS_CODE":0,"TOWNNAME":"東山區","LI":"三榮里","LIN":"7鄰","STREET":" ","SECT":" ","MAREA":"木柵","LANE":" ","ALLEY":" ","HOUSE_NO":"３５號","E_COORD97":187547.60000000001,"N_COORD97":2579826.23,"ADDRESS":"木柵３５號","OBJECTID":76169},"geometry":{"x":187547.60000000149,"y":2579826.2300000023}},{"attributes":{"ID":76170,"DIS_CODE":0,"TOWNNAME":"東山區","LI":"大客里","LIN":"7鄰","STREET":" ","SECT":" ","MAREA":"大庄","LANE":" ","ALLEY":" ","HOUSE_NO":"４７號","E_COORD97":189631.88,"N_COORD97":2579036.52,"ADDRESS":"大庄４７號","OBJECTID":76170},"geometry":{"x":189631.87999999989,"y":2579036.5200000014}},{"attributes":{"ID":76171,"DIS_CODE":0,"TOWNNAME":"東山區","LI":"大客里","LIN":"7鄰","STREET":" ","SECT":" ","MAREA":"大庄","LANE":" ","ALLEY":" ","HOUSE_NO":"４８號","E_COORD97":189633.57000000001,"N_COORD97":2578992.9199999999,"ADDRESS":"大庄４８號","OBJECTID":76171},"geometry":{"x":189633.57000000216,"y":2578992.9199999981}},{"attributes":{"ID":76172,"DIS_CODE":0,"TOWNNAME":"東山區","LI":"大客里","LIN":"7鄰","STREET":" ","SECT":" ","MAREA":"大庄","LANE":" ","ALLEY":" ","HOUSE_NO":"４９號之１","E_COORD97":189678.63,"N_COORD97":2579006.6699999999,"ADDRESS":"大庄４９號之１","OBJECTID":76172},"geometry":{"x":189678.63000000082,"y":2579006.6699999999}},{"attributes":{"ID":76173,"DIS_CODE":0,"TOWNNAME":"東山區","LI":"大客里","LIN":"7鄰","STREET":" ","SECT":" ","MAREA":"大庄","LANE":" ","ALLEY":" ","HOUSE_NO":"４９號之２","E_COORD97":189676.63,"N_COORD97":2579002.54,"ADDRESS":"大庄４９號之２","OBJECTID":76173},"geometry":{"x":189676.62999999989,"y":2579002.540000001}},{"attributes":{"ID":76174,"DIS_CODE":0,"TOWNNAME":"東山區","LI":"大客里","LIN":"7鄰","STREET":" ","SECT":" ","MAREA":"大庄","LANE":" ","ALLEY":" ","HOUSE_NO":"４９號之３","E_COORD97":189681.03,"N_COORD97":2579010.6299999999,"ADDRESS":"大庄４９號之３","OBJECTID":76174},"geometry":{"x":189681.03000000026,"y":2579010.629999999}},{"attributes":{"ID":76175,"DIS_CODE":0,"TOWNNAME":"東山區","LI":"大客里","LIN":"7鄰","STREET":" ","SECT":" ","MAREA":"大庄","LANE":" ","ALLEY":" ","HOUSE_NO":"４９號","E_COORD97":189683.23999999999,"N_COORD97":2579014.52,"ADDRESS":"大庄４９號","OBJECTID":76175},"geometry":{"x":189683.24000000209,"y":2579014.5199999996}},{"attributes":{"ID":76176,"DIS_CODE":0,"TOWNNAME":"東山區","LI":"大客里","LIN":"7鄰","STREET":" ","SECT":" ","MAREA":"大庄","LANE":" ","ALLEY":" ","HOUSE_NO":"５１號","E_COORD97":189665.29999999999,"N_COORD97":2579045.2200000002,"ADDRESS":"大庄５１號","OBJECTID":76176},"geometry":{"x":189665.29999999888,"y":2579045.2200000007}},{"attributes":{"ID":76177,"DIS_CODE":0,"TOWNNAME":"東山區","LI":"三榮里","LIN":"7鄰","STREET":" ","SECT":" ","MAREA":"木柵","LANE":" ","ALLEY":" ","HOUSE_NO":"２０號","E_COORD97":187576.67000000001,"N_COORD97":2579766.1200000001,"ADDRESS":"木柵２０號","OBJECTID":76177},"geometry":{"x":187576.67000000086,"y":2579766.1200000048}},{"attributes":{"ID":76178,"DIS_CODE":0,"TOWNNAME":"東山區","LI":"三榮里","LIN":"7鄰","STREET":" ","SECT":" ","MAREA":"木柵","LANE":" ","ALLEY":" ","HOUSE_NO":"２２號","E_COORD97":187537.32999999999,"N_COORD97":2579770.4199999999,"ADDRESS":"木柵２２號","OBJECTID":76178},"geometry":{"x":187537.33000000007,"y":2579770.4200000018}},{"attributes":{"ID":76179,"DIS_CODE":0,"TOWNNAME":"東山區","LI":"三榮里","LIN":"7鄰","STREET":" ","SECT":" ","MAREA":"木柵","LANE":" ","ALLEY":" ","HOUSE_NO":"２３號","E_COORD97":187540.26000000001,"N_COORD97":2579753.8999999999,"ADDRESS":"木柵２３號","OBJECTID":76179},"geometry":{"x":187540.26000000071,"y":2579753.9000000022}},{"attributes":{"ID":76180,"DIS_CODE":0,"TOWNNAME":"新營區","LI":"土庫里","LIN":"7鄰","STREET":" ","SECT":" ","MAREA":"土庫","LANE":" ","ALLEY":" ","HOUSE_NO":"６０號","E_COORD97":183202.95999999999,"N_COORD97":2579831.48,"ADDRESS":"土庫６０號","OBJECTID":76180},"geometry":{"x":183202.96000000089,"y":2579831.4800000023}},{"attributes":{"ID":76181,"DIS_CODE":0,"TOWNNAME":"新營區","LI":"嘉芳里","LIN":"7鄰","STREET":" ","SECT":" ","MAREA":"茄苳腳","LANE":" ","ALLEY":" ","HOUSE_NO":"６８號","E_COORD97":176744.57999999999,"N_COORD97":2578465.5299999998,"ADDRESS":"茄苳腳６８號","OBJECTID":76181},"geometry":{"x":176744.58000000007,"y":2578465.5299999993}},{"attributes":{"ID":76182,"DIS_CODE":0,"TOWNNAME":"新營區","LI":"護鎮里","LIN":"7鄰","STREET":" ","SECT":" ","MAREA":"後鎮","LANE":" ","ALLEY":" ","HOUSE_NO":"８０號","E_COORD97":179196.60000000001,"N_COORD97":2581062.77,"ADDRESS":"後鎮８０號","OBJECTID":76182},"geometry":{"x":179196.59999999963,"y":2581062.7700000014}},{"attributes":{"ID":76183,"DIS_CODE":0,"TOWNNAME":"安定區","LI":"海寮里","LIN":"6鄰","STREET":" ","SECT":" ","MAREA":"海寮","LANE":" ","ALLEY":" ","HOUSE_NO":"６３之１號","E_COORD97":169390.59,"N_COORD97":2555383.2999999998,"ADDRESS":"海寮６３之１號","OBJECTID":76183},"geometry":{"x":169390.58999999892,"y":2555383.3000000007}},{"attributes":{"ID":76184,"DIS_CODE":0,"TOWNNAME":"安定區","LI":"蘇厝里","LIN":"6鄰","STREET":" ","SECT":" ","MAREA":"蘇厝","LANE":" ","ALLEY":" ","HOUSE_NO":"３３３之７號","E_COORD97":172982.42000000001,"N_COORD97":2558629.2999999998,"ADDRESS":"蘇厝３３３之７號","OBJECTID":76184},"geometry":{"x":172982.42000000179,"y":2558629.3000000026}},{"attributes":{"ID":76185,"DIS_CODE":0,"TOWNNAME":"永康區","LI":"尚頂里","LIN":"19鄰","STREET":"南台街","SECT":" ","MAREA":" ","LANE":"３巷","ALLEY":"１４弄","HOUSE_NO":"５２號","E_COORD97":170478.97,"N_COORD97":2546831.5,"ADDRESS":"南台街３巷１４弄５２號","OBJECTID":76185},"geometry":{"x":170478.96999999974,"y":2546831.5000000037}},{"attributes":{"ID":76186,"DIS_CODE":0,"TOWNNAME":"安定區","LI":"新吉里","LIN":"6鄰","STREET":" ","SECT":" ","MAREA":"新吉","LANE":" ","ALLEY":" ","HOUSE_NO":"５１之５號","E_COORD97":169068.87,"N_COORD97":2554011.2999999998,"ADDRESS":"新吉５１之５號","OBJECTID":76186},"geometry":{"x":169068.87000000104,"y":2554011.3000000045}},{"attributes":{"ID":76187,"DIS_CODE":0,"TOWNNAME":"安南區","LI":"梅花里","LIN":"19鄰","STREET":"安中路","SECT":"一段","MAREA":" ","LANE":"７０５巷","ALLEY":"３弄","HOUSE_NO":"１９號","E_COORD97":167422.94,"N_COORD97":2549187.9500000002,"ADDRESS":"安中路一段７０５巷３弄１９號","OBJECTID":76187},"geometry":{"x":167422.94000000134,"y":2549187.9500000011}},{"attributes":{"ID":76188,"DIS_CODE":0,"TOWNNAME":"安南區","LI":"梅花里","LIN":"19鄰","STREET":"安中路","SECT":"一段","MAREA":" ","LANE":"７０５巷","ALLEY":"３弄","HOUSE_NO":"２１號","E_COORD97":167413.57999999999,"N_COORD97":2549174.3399999999,"ADDRESS":"安中路一段７０５巷３弄２１號","OBJECTID":76188},"geometry":{"x":167413.58000000007,"y":2549174.3399999999}},{"attributes":{"ID":76189,"DIS_CODE":0,"TOWNNAME":"仁德區","LI":"後壁里","LIN":"19鄰","STREET":"德崙路","SECT":" ","MAREA":" ","LANE":"２１巷","ALLEY":"９弄","HOUSE_NO":"９號","E_COORD97":173244.62,"N_COORD97":2538655.52,"ADDRESS":"德崙路２１巷９弄９號","OBJECTID":76189},"geometry":{"x":173244.62000000104,"y":2538655.5199999996}},{"attributes":{"ID":76190,"DIS_CODE":0,"TOWNNAME":"安定區","LI":"大同里","LIN":"6鄰","STREET":" ","SECT":" ","MAREA":"大同","LANE":" ","ALLEY":" ","HOUSE_NO":"６０號","E_COORD97":170384.07000000001,"N_COORD97":2553883.25,"ADDRESS":"大同６０號","OBJECTID":76190},"geometry":{"x":170384.0700000003,"y":2553883.2500000019}},{"attributes":{"ID":76191,"DIS_CODE":0,"TOWNNAME":"仁德區","LI":"後壁里","LIN":"19鄰","STREET":"德崙路","SECT":" ","MAREA":" ","LANE":"２１巷","ALLEY":"９弄","HOUSE_NO":"１６號","E_COORD97":173247.94,"N_COORD97":2538670.52,"ADDRESS":"德崙路２１巷９弄１６號","OBJECTID":76191},"geometry":{"x":173247.94000000134,"y":2538670.5200000014}},{"attributes":{"ID":76192,"DIS_CODE":0,"TOWNNAME":"新營區","LI":"興業里","LIN":"7鄰","STREET":"公誠街","SECT":" ","MAREA":" ","LANE":"９巷","ALLEY":" ","HOUSE_NO":"８之３號","E_COORD97":180330.91,"N_COORD97":2578003.0899999999,"ADDRESS":"公誠街９巷８之３號","OBJECTID":76192},"geometry":{"x":180330.91000000015,"y":2578003.0900000017}},{"attributes":{"ID":76193,"DIS_CODE":0,"TOWNNAME":"歸仁區","LI":"西埔里","LIN":"8鄰","STREET":"保大路","SECT":"二段","MAREA":" ","LANE":" ","ALLEY":" ","HOUSE_NO":"２７２號","E_COORD97":176597.37,"N_COORD97":2544130.2799999998,"ADDRESS":"保大路二段２７２號","OBJECTID":76193},"geometry":{"x":176597.37000000104,"y":2544130.2800000031}},{"attributes":{"ID":76194,"DIS_CODE":0,"TOWNNAME":"新營區","LI":"護鎮里","LIN":"7鄰","STREET":" ","SECT":" ","MAREA":"後鎮","LANE":" ","ALLEY":" ","HOUSE_NO":"８１號","E_COORD97":179196.78,"N_COORD97":2581100.4199999999,"ADDRESS":"後鎮８１號","OBJECTID":76194},"geometry":{"x":179196.78000000119,"y":2581100.4199999999}},{"attributes":{"ID":76195,"DIS_CODE":0,"TOWNNAME":"安南區","LI":"海東里","LIN":"19鄰","STREET":"海佃路","SECT":"二段","MAREA":" ","LANE":"２６５巷","ALLEY":"３０弄","HOUSE_NO":"２之３號","E_COORD97":166670.84,"N_COORD97":2548613.29,"ADDRESS":"海佃路二段２６５巷３０弄２之３號","OBJECTID":76195},"geometry":{"x":166670.83999999985,"y":2548613.290000001}},{"attributes":{"ID":76196,"DIS_CODE":0,"TOWNNAME":"永康區","LI":"南灣里","LIN":"19鄰","STREET":"大灣一街","SECT":" ","MAREA":" ","LANE":"６２巷","ALLEY":"１１弄","HOUSE_NO":"９號","E_COORD97":174374.29000000001,"N_COORD97":2544696.3799999999,"ADDRESS":"大灣一街６２巷１１弄９號","OBJECTID":76196},"geometry":{"x":174374.29000000004,"y":2544696.3800000008}},{"attributes":{"ID":76197,"DIS_CODE":0,"TOWNNAME":"安南區","LI":"海東里","LIN":"19鄰","STREET":"海佃路","SECT":"二段","MAREA":" ","LANE":"２６５巷","ALLEY":"３０弄","HOUSE_NO":"２之５號","E_COORD97":166664.89000000001,"N_COORD97":2548623.7000000002,"ADDRESS":"海佃路二段２６５巷３０弄２之５號","OBJECTID":76197},"geometry":{"x":166664.8900000006,"y":2548623.7000000011}},{"attributes":{"ID":76198,"DIS_CODE":0,"TOWNNAME":"安南區","LI":"海東里","LIN":"19鄰","STREET":"海佃路","SECT":"二段","MAREA":" ","LANE":"２６５巷","ALLEY":"３０弄","HOUSE_NO":"２之１號","E_COORD97":166684.03,"N_COORD97":2548592.3599999999,"ADDRESS":"海佃路二段２６５巷３０弄２之１號","OBJECTID":76198},"geometry":{"x":166684.03000000026,"y":2548592.3600000013}},{"attributes":{"ID":76199,"DIS_CODE":0,"TOWNNAME":"新營區","LI":"護鎮里","LIN":"7鄰","STREET":" ","SECT":" ","MAREA":"後鎮","LANE":" ","ALLEY":" ","HOUSE_NO":"７９號","E_COORD97":179177.32999999999,"N_COORD97":2581102.73,"ADDRESS":"後鎮７９號","OBJECTID":76199},"geometry":{"x":179177.33000000194,"y":2581102.7300000004}},{"attributes":{"ID":76200,"DIS_CODE":0,"TOWNNAME":"安南區","LI":"海東里","LIN":"19鄰","STREET":"海佃路","SECT":"二段","MAREA":" ","LANE":"２６５巷","ALLEY":"３０弄","HOUSE_NO":"２之２號","E_COORD97":166677.44,"N_COORD97":2548601.5099999998,"ADDRESS":"海佃路二段２６５巷３０弄２之２號","OBJECTID":76200},"geometry":{"x":166677.44000000134,"y":2548601.5100000016}}]}