{"displayFieldName":"TOWNNAME","fieldAliases":{"ID":"ID","DIS_CODE":"DIS_CODE","TOWNNAME":"TOWNNAME","LI":"LI","LIN":"LIN","STREET":"STREET","SECT":"SECT","MAREA":"MAREA","LANE":"LANE","ALLEY":"ALLEY","HOUSE_NO":"HOUSE_NO","E_COORD97":"E_COORD97","N_COORD97":"N_COORD97","ADDRESS":"ADDRESS","OBJECTID":"OBJECTID"},"geometryType":"esriGeometryPoint","spatialReference":{"wkid":102443,"latestWkid":3826},"fields":[{"name":"ID","type":"esriFieldTypeDouble","alias":"ID"},{"name":"DIS_CODE","type":"esriFieldTypeInteger","alias":"DIS_CODE"},{"name":"TOWNNAME","type":"esriFieldTypeString","alias":"TOWNNAME","length":8},{"name":"LI","type":"esriFieldTypeString","alias":"LI","length":8},{"name":"LIN","type":"esriFieldTypeString","alias":"LIN","length":12},{"name":"STREET","type":"esriFieldTypeString","alias":"STREET","length":20},{"name":"SECT","type":"esriFieldTypeString","alias":"SECT","length":8},{"name":"MAREA","type":"esriFieldTypeString","alias":"MAREA","length":12},{"name":"LANE","type":"esriFieldTypeString","alias":"LANE","length":10},{"name":"ALLEY","type":"esriFieldTypeString","alias":"ALLEY","length":10},{"name":"HOUSE_NO","type":"esriFieldTypeString","alias":"HOUSE_NO","length":20},{"name":"E_COORD97","type":"esriFieldTypeDouble","alias":"E_COORD97"},{"name":"N_COORD97","type":"esriFieldTypeDouble","alias":"N_COORD97"},{"name":"ADDRESS","type":"esriFieldTypeString","alias":"ADDRESS","length":50},{"name":"OBJECTID","type":"esriFieldTypeOID","alias":"OBJECTID"}],"features":[{"attributes":{"ID":146801,"DIS_CODE":0,"TOWNNAME":"東山區","LI":"東原里","LIN":"30鄰","STREET":" ","SECT":" ","MAREA":"班芝花坑","LANE":" ","ALLEY":" ","HOUSE_NO":"５號","E_COORD97":192611.89000000001,"N_COORD97":2575164.7999999998,"ADDRESS":"班芝花坑５號","OBJECTID":146801},"geometry":{"x":192611.88999999966,"y":2575164.8000000026}},{"attributes":{"ID":146802,"DIS_CODE":0,"TOWNNAME":"白河區","LI":"大竹里","LIN":" ","STREET":" ","SECT":" ","MAREA":"大排竹","LANE":" ","ALLEY":" ","HOUSE_NO":"１９２之１２號","E_COORD97":189510.81,"N_COORD97":2584556.6400000001,"ADDRESS":"大排竹１９２之１２號","OBJECTID":146802},"geometry":{"x":189510.81000000145,"y":2584556.6400000025}},{"attributes":{"ID":146803,"DIS_CODE":0,"TOWNNAME":"北區","LI":"文元里","LIN":"3鄰","STREET":"文賢三街","SECT":" ","MAREA":" ","LANE":"３３７巷","ALLEY":"６９弄","HOUSE_NO":"５號","E_COORD97":167641.60000000001,"N_COORD97":2546282.3500000001,"ADDRESS":"文賢三街３３７巷６９弄５號","OBJECTID":146803},"geometry":{"x":167641.60000000056,"y":2546282.3499999996}},{"attributes":{"ID":146804,"DIS_CODE":0,"TOWNNAME":"白河區","LI":"大竹里","LIN":" ","STREET":" ","SECT":" ","MAREA":"大排竹","LANE":" ","ALLEY":" ","HOUSE_NO":"１９４之１號","E_COORD97":189038.37,"N_COORD97":2584922.5899999999,"ADDRESS":"大排竹１９４之１號","OBJECTID":146804},"geometry":{"x":189038.37000000104,"y":2584922.5900000017}},{"attributes":{"ID":146805,"DIS_CODE":0,"TOWNNAME":"白河區","LI":"大竹里","LIN":" ","STREET":" ","SECT":" ","MAREA":"大排竹","LANE":" ","ALLEY":" ","HOUSE_NO":"１號","E_COORD97":191012,"N_COORD97":2585159.3900000001,"ADDRESS":"大排竹１號","OBJECTID":146805},"geometry":{"x":191012.00000000186,"y":2585159.3900000025}},{"attributes":{"ID":146806,"DIS_CODE":0,"TOWNNAME":"白河區","LI":"大竹里","LIN":" ","STREET":" ","SECT":" ","MAREA":"大排竹","LANE":" ","ALLEY":" ","HOUSE_NO":"３５０號","E_COORD97":187231.70000000001,"N_COORD97":2584354,"ADDRESS":"大排竹３５０號","OBJECTID":146806},"geometry":{"x":187231.70000000019,"y":2584354.0000000019}},{"attributes":{"ID":146807,"DIS_CODE":0,"TOWNNAME":"白河區","LI":"大竹里","LIN":" ","STREET":" ","SECT":" ","MAREA":"大排竹","LANE":" ","ALLEY":" ","HOUSE_NO":"３號","E_COORD97":189956.56,"N_COORD97":2585121.1000000001,"ADDRESS":"大排竹３號","OBJECTID":146807},"geometry":{"x":189956.55999999866,"y":2585121.0999999978}},{"attributes":{"ID":146808,"DIS_CODE":0,"TOWNNAME":"北區","LI":"文元里","LIN":"3鄰","STREET":"文賢三街","SECT":" ","MAREA":" ","LANE":"３３７巷","ALLEY":"６９弄","HOUSE_NO":"６號","E_COORD97":167631.59,"N_COORD97":2546285.3700000001,"ADDRESS":"文賢三街３３７巷６９弄６號","OBJECTID":146808},"geometry":{"x":167631.59000000078,"y":2546285.3700000029}},{"attributes":{"ID":146809,"DIS_CODE":0,"TOWNNAME":"白河區","LI":"大竹里","LIN":" ","STREET":" ","SECT":" ","MAREA":"大排竹","LANE":" ","ALLEY":" ","HOUSE_NO":"６０號","E_COORD97":189772.22,"N_COORD97":2585269.9900000002,"ADDRESS":"大排竹６０號","OBJECTID":146809},"geometry":{"x":189772.21999999974,"y":2585269.9900000021}},{"attributes":{"ID":146810,"DIS_CODE":0,"TOWNNAME":"北區","LI":"文元里","LIN":"3鄰","STREET":"文賢三街","SECT":" ","MAREA":" ","LANE":"３３７巷","ALLEY":"６９弄","HOUSE_NO":"７號","E_COORD97":167642.54999999999,"N_COORD97":2546277.1099999999,"ADDRESS":"文賢三街３３７巷６９弄７號","OBJECTID":146810},"geometry":{"x":167642.54999999981,"y":2546277.1099999994}},{"attributes":{"ID":146811,"DIS_CODE":0,"TOWNNAME":"北區","LI":"文元里","LIN":"3鄰","STREET":"文賢三街","SECT":" ","MAREA":" ","LANE":"３３７巷","ALLEY":"６９弄","HOUSE_NO":"８號","E_COORD97":167632.54999999999,"N_COORD97":2546280.29,"ADDRESS":"文賢三街３３７巷６９弄８號","OBJECTID":146811},"geometry":{"x":167632.54999999981,"y":2546280.290000001}},{"attributes":{"ID":146812,"DIS_CODE":0,"TOWNNAME":"白河區","LI":"大竹里","LIN":" ","STREET":" ","SECT":" ","MAREA":"大排竹","LANE":" ","ALLEY":" ","HOUSE_NO":"６３號","E_COORD97":189798.79999999999,"N_COORD97":2585305.0899999999,"ADDRESS":"大排竹６３號","OBJECTID":146812},"geometry":{"x":189798.79999999981,"y":2585305.0900000017}},{"attributes":{"ID":146813,"DIS_CODE":0,"TOWNNAME":"北區","LI":"文元里","LIN":"3鄰","STREET":"文賢路","SECT":" ","MAREA":" ","LANE":"１１２２巷","ALLEY":"９４弄","HOUSE_NO":"１７號","E_COORD97":167604.17999999999,"N_COORD97":2546342.1800000002,"ADDRESS":"文賢路１１２２巷９４弄１７號","OBJECTID":146813},"geometry":{"x":167604.1799999997,"y":2546342.1800000016}},{"attributes":{"ID":146814,"DIS_CODE":0,"TOWNNAME":"白河區","LI":"大竹里","LIN":" ","STREET":" ","SECT":" ","MAREA":"大排竹","LANE":" ","ALLEY":" ","HOUSE_NO":"７９號","E_COORD97":189708.66,"N_COORD97":2585375.52,"ADDRESS":"大排竹７９號","OBJECTID":146814},"geometry":{"x":189708.66000000015,"y":2585375.5199999996}},{"attributes":{"ID":146815,"DIS_CODE":0,"TOWNNAME":"關廟區","LI":"香洋里","LIN":"30鄰","STREET":"大仁街","SECT":" ","MAREA":" ","LANE":" ","ALLEY":" ","HOUSE_NO":"４００號","E_COORD97":180949.67000000001,"N_COORD97":2539772.25,"ADDRESS":"大仁街４００號","OBJECTID":146815},"geometry":{"x":180949.67000000179,"y":2539772.2500000019}},{"attributes":{"ID":146816,"DIS_CODE":0,"TOWNNAME":"關廟區","LI":"香洋里","LIN":"30鄰","STREET":"大富街","SECT":" ","MAREA":" ","LANE":" ","ALLEY":" ","HOUSE_NO":"３１１號","E_COORD97":181027.97,"N_COORD97":2539752.25,"ADDRESS":"大富街３１１號","OBJECTID":146816},"geometry":{"x":181027.97000000067,"y":2539752.2500000019}},{"attributes":{"ID":146817,"DIS_CODE":0,"TOWNNAME":"關廟區","LI":"香洋里","LIN":"30鄰","STREET":"大富街","SECT":" ","MAREA":" ","LANE":" ","ALLEY":" ","HOUSE_NO":"３０９號","E_COORD97":181029.17000000001,"N_COORD97":2539748.25,"ADDRESS":"大富街３０９號","OBJECTID":146817},"geometry":{"x":181029.16999999993,"y":2539748.2500000019}},{"attributes":{"ID":146818,"DIS_CODE":0,"TOWNNAME":"關廟區","LI":"香洋里","LIN":"30鄰","STREET":"大富街","SECT":" ","MAREA":" ","LANE":" ","ALLEY":" ","HOUSE_NO":"３０５號","E_COORD97":181032.26999999999,"N_COORD97":2539740.25,"ADDRESS":"大富街３０５號","OBJECTID":146818},"geometry":{"x":181032.27000000048,"y":2539740.2499999981}},{"attributes":{"ID":146819,"DIS_CODE":0,"TOWNNAME":"關廟區","LI":"香洋里","LIN":"30鄰","STREET":"大仁街","SECT":" ","MAREA":" ","LANE":" ","ALLEY":" ","HOUSE_NO":"４０２號","E_COORD97":180953.97,"N_COORD97":2539775.25,"ADDRESS":"大仁街４０２號","OBJECTID":146819},"geometry":{"x":180953.96999999974,"y":2539775.2500000019}},{"attributes":{"ID":146820,"DIS_CODE":0,"TOWNNAME":"北區","LI":"文元里","LIN":"3鄰","STREET":"文賢路","SECT":" ","MAREA":" ","LANE":"１１２２巷","ALLEY":"９４弄","HOUSE_NO":"１９號","E_COORD97":167604.5,"N_COORD97":2546339.1600000001,"ADDRESS":"文賢路１１２２巷９４弄１９號","OBJECTID":146820},"geometry":{"x":167604.5,"y":2546339.1600000039}},{"attributes":{"ID":146821,"DIS_CODE":0,"TOWNNAME":"北區","LI":"文元里","LIN":"3鄰","STREET":"文賢路","SECT":" ","MAREA":" ","LANE":"１１２２巷","ALLEY":"９４弄","HOUSE_NO":"２１號","E_COORD97":167604.66,"N_COORD97":2546335.3500000001,"ADDRESS":"文賢路１１２２巷９４弄２１號","OBJECTID":146821},"geometry":{"x":167604.66000000015,"y":2546335.3500000015}},{"attributes":{"ID":146822,"DIS_CODE":0,"TOWNNAME":"北區","LI":"文元里","LIN":"3鄰","STREET":"文賢路","SECT":" ","MAREA":" ","LANE":"１１２２巷","ALLEY":"９４弄","HOUSE_NO":"２３號","E_COORD97":167605.13,"N_COORD97":2546331.0600000001,"ADDRESS":"文賢路１１２２巷９４弄２３號","OBJECTID":146822},"geometry":{"x":167605.12999999989,"y":2546331.0600000024}},{"attributes":{"ID":146823,"DIS_CODE":0,"TOWNNAME":"北區","LI":"重興里","LIN":"3鄰","STREET":"東豐路","SECT":" ","MAREA":" ","LANE":"３０５巷","ALLEY":"８６弄","HOUSE_NO":"１２號","E_COORD97":170500.14000000001,"N_COORD97":2545007.8799999999,"ADDRESS":"東豐路３０５巷８６弄１２號","OBJECTID":146823},"geometry":{"x":170500.13999999966,"y":2545007.8800000008}},{"attributes":{"ID":146824,"DIS_CODE":0,"TOWNNAME":"北區","LI":"重興里","LIN":"3鄰","STREET":"開元路","SECT":" ","MAREA":" ","LANE":"２１２巷","ALLEY":"１４８弄","HOUSE_NO":"１９之１號","E_COORD97":170500.76999999999,"N_COORD97":2544943.4500000002,"ADDRESS":"開元路２１２巷１４８弄１９之１號","OBJECTID":146824},"geometry":{"x":170500.76999999955,"y":2544943.4500000011}},{"attributes":{"ID":146825,"DIS_CODE":0,"TOWNNAME":"南區","LI":"興農里","LIN":"3鄰","STREET":"灣裡路","SECT":" ","MAREA":" ","LANE":"２６３巷","ALLEY":"６７弄","HOUSE_NO":"３號","E_COORD97":166338.01000000001,"N_COORD97":2536441.21,"ADDRESS":"灣裡路２６３巷６７弄３號","OBJECTID":146825},"geometry":{"x":166338.00999999885,"y":2536441.2100000009}},{"attributes":{"ID":146826,"DIS_CODE":0,"TOWNNAME":"南區","LI":"興農里","LIN":"3鄰","STREET":"灣裡路","SECT":" ","MAREA":" ","LANE":"２６３巷","ALLEY":"６７弄","HOUSE_NO":"３號之１","E_COORD97":166337.01999999999,"N_COORD97":2536447.4100000001,"ADDRESS":"灣裡路２６３巷６７弄３號之１","OBJECTID":146826},"geometry":{"x":166337.01999999955,"y":2536447.4100000039}},{"attributes":{"ID":146827,"DIS_CODE":0,"TOWNNAME":"南區","LI":"明亮里","LIN":"3鄰","STREET":"新都路","SECT":" ","MAREA":" ","LANE":"５２０巷","ALLEY":"１弄","HOUSE_NO":"１號","E_COORD97":167137.70000000001,"N_COORD97":2540912.9199999999,"ADDRESS":"新都路５２０巷１弄１號","OBJECTID":146827},"geometry":{"x":167137.70000000112,"y":2540912.9200000018}},{"attributes":{"ID":146828,"DIS_CODE":0,"TOWNNAME":"安南區","LI":"淵中里","LIN":"3鄰","STREET":"本淵路","SECT":" ","MAREA":" ","LANE":"５７巷","ALLEY":"４８弄","HOUSE_NO":"１６號","E_COORD97":165149.45513799999,"N_COORD97":2549902.0804400002,"ADDRESS":"本淵路５７巷４８弄１６號","OBJECTID":146828},"geometry":{"x":165149.45513800159,"y":2549902.0804389995}},{"attributes":{"ID":146829,"DIS_CODE":0,"TOWNNAME":"佳里區","LI":"鎮山里","LIN":"1鄰","STREET":"中山路","SECT":" ","MAREA":" ","LANE":" ","ALLEY":" ","HOUSE_NO":"１０６號","E_COORD97":165800.04009299999,"N_COORD97":2561858.8154199999,"ADDRESS":"中山路１０６號","OBJECTID":146829},"geometry":{"x":165800.04009300098,"y":2561858.815417001}},{"attributes":{"ID":146830,"DIS_CODE":0,"TOWNNAME":"南區","LI":"明亮里","LIN":"3鄰","STREET":"新都路","SECT":" ","MAREA":" ","LANE":"５２０巷","ALLEY":"１弄","HOUSE_NO":"２號","E_COORD97":167132.47,"N_COORD97":2540912.9199999999,"ADDRESS":"新都路５２０巷１弄２號","OBJECTID":146830},"geometry":{"x":167132.47000000067,"y":2540912.9200000018}},{"attributes":{"ID":146831,"DIS_CODE":0,"TOWNNAME":"南區","LI":"明亮里","LIN":"3鄰","STREET":"新都路","SECT":" ","MAREA":" ","LANE":"５２０巷","ALLEY":"１弄","HOUSE_NO":"５號","E_COORD97":167119.67000000001,"N_COORD97":2540914.0800000001,"ADDRESS":"新都路５２０巷１弄５號","OBJECTID":146831},"geometry":{"x":167119.66999999993,"y":2540914.0800000001}},{"attributes":{"ID":146832,"DIS_CODE":0,"TOWNNAME":"南區","LI":"明亮里","LIN":"3鄰","STREET":"新都路","SECT":" ","MAREA":" ","LANE":"５２０巷","ALLEY":"１弄","HOUSE_NO":"６號","E_COORD97":167115.01999999999,"N_COORD97":2540914.0800000001,"ADDRESS":"新都路５２０巷１弄６號","OBJECTID":146832},"geometry":{"x":167115.02000000048,"y":2540914.0800000001}},{"attributes":{"ID":146833,"DIS_CODE":0,"TOWNNAME":"南區","LI":"明亮里","LIN":"3鄰","STREET":"新都路","SECT":" ","MAREA":" ","LANE":"５２０巷","ALLEY":"１弄","HOUSE_NO":"３號","E_COORD97":167128.10000000001,"N_COORD97":2540913.5,"ADDRESS":"新都路５２０巷１弄３號","OBJECTID":146833},"geometry":{"x":167128.10000000056,"y":2540913.5000000019}},{"attributes":{"ID":146834,"DIS_CODE":0,"TOWNNAME":"白河區","LI":"大竹里","LIN":" ","STREET":" ","SECT":" ","MAREA":"大排竹","LANE":" ","ALLEY":" ","HOUSE_NO":"９０號","E_COORD97":189704.12,"N_COORD97":2585294.5800000001,"ADDRESS":"大排竹９０號","OBJECTID":146834},"geometry":{"x":189704.11999999918,"y":2585294.5800000001}},{"attributes":{"ID":146835,"DIS_CODE":0,"TOWNNAME":"南區","LI":"明亮里","LIN":"3鄰","STREET":"新都路","SECT":" ","MAREA":" ","LANE":"５２０巷","ALLEY":"１弄","HOUSE_NO":"３號之１","E_COORD97":167124.03,"N_COORD97":2540913.79,"ADDRESS":"新都路５２０巷１弄３號之１","OBJECTID":146835},"geometry":{"x":167124.03000000119,"y":2540913.790000001}},{"attributes":{"ID":146836,"DIS_CODE":0,"TOWNNAME":"南區","LI":"興農里","LIN":"3鄰","STREET":"灣裡路","SECT":" ","MAREA":" ","LANE":"２６３巷","ALLEY":"６１弄","HOUSE_NO":"２號之１","E_COORD97":166301.45000000001,"N_COORD97":2536446.5699999998,"ADDRESS":"灣裡路２６３巷６１弄２號之１","OBJECTID":146836},"geometry":{"x":166301.45000000019,"y":2536446.570000004}},{"attributes":{"ID":146837,"DIS_CODE":0,"TOWNNAME":"安南區","LI":"淵中里","LIN":"3鄰","STREET":"本淵路","SECT":" ","MAREA":" ","LANE":"５７巷","ALLEY":"４８弄","HOUSE_NO":"１８號","E_COORD97":165151.148931,"N_COORD97":2549906.1020999998,"ADDRESS":"本淵路５７巷４８弄１８號","OBJECTID":146837},"geometry":{"x":165151.14893100131,"y":2549906.1021030005}},{"attributes":{"ID":146838,"DIS_CODE":0,"TOWNNAME":"北區","LI":"成功里","LIN":"3鄰","STREET":"北安路","SECT":"一段","MAREA":" ","LANE":"９４巷","ALLEY":"３弄","HOUSE_NO":"１０號","E_COORD97":169085.79000000001,"N_COORD97":2546430.04,"ADDRESS":"北安路一段９４巷３弄１０號","OBJECTID":146838},"geometry":{"x":169085.79000000004,"y":2546430.0399999972}},{"attributes":{"ID":146839,"DIS_CODE":0,"TOWNNAME":"北區","LI":"成功里","LIN":"3鄰","STREET":"北安路","SECT":"一段","MAREA":" ","LANE":"９４巷","ALLEY":"３弄","HOUSE_NO":"１２號","E_COORD97":169081.92999999999,"N_COORD97":2546433.4100000001,"ADDRESS":"北安路一段９４巷３弄１２號","OBJECTID":146839},"geometry":{"x":169081.93000000063,"y":2546433.410000002}},{"attributes":{"ID":146840,"DIS_CODE":0,"TOWNNAME":"北區","LI":"成功里","LIN":"3鄰","STREET":"北安路","SECT":"一段","MAREA":" ","LANE":"９４巷","ALLEY":"３弄","HOUSE_NO":"１４號","E_COORD97":169074.70999999999,"N_COORD97":2546436.7799999998,"ADDRESS":"北安路一段９４巷３弄１４號","OBJECTID":146840},"geometry":{"x":169074.71000000183,"y":2546436.7800000012}},{"attributes":{"ID":146841,"DIS_CODE":0,"TOWNNAME":"關廟區","LI":"香洋里","LIN":"30鄰","STREET":"大富街","SECT":" ","MAREA":" ","LANE":"３０１巷","ALLEY":" ","HOUSE_NO":"２６號","E_COORD97":180988.01999999999,"N_COORD97":2539716.25,"ADDRESS":"大富街３０１巷２６號","OBJECTID":146841},"geometry":{"x":180988.02000000048,"y":2539716.25}},{"attributes":{"ID":146842,"DIS_CODE":0,"TOWNNAME":"關廟區","LI":"香洋里","LIN":"30鄰","STREET":"大富街","SECT":" ","MAREA":" ","LANE":" ","ALLEY":" ","HOUSE_NO":"３１９號","E_COORD97":181021.87,"N_COORD97":2539768.25,"ADDRESS":"大富街３１９號","OBJECTID":146842},"geometry":{"x":181021.87000000104,"y":2539768.2500000019}},{"attributes":{"ID":146843,"DIS_CODE":0,"TOWNNAME":"西港區","LI":"慶安里","LIN":"6鄰","STREET":"中山路","SECT":" ","MAREA":" ","LANE":" ","ALLEY":" ","HOUSE_NO":"４０５號","E_COORD97":168305.78,"N_COORD97":2558392.21,"ADDRESS":"中山路４０５號","OBJECTID":146843},"geometry":{"x":168305.78000000026,"y":2558392.2100000046}},{"attributes":{"ID":146844,"DIS_CODE":0,"TOWNNAME":"白河區","LI":"大竹里","LIN":" ","STREET":" ","SECT":" ","MAREA":"大排竹","LANE":" ","ALLEY":" ","HOUSE_NO":"９６之１號","E_COORD97":189698.81,"N_COORD97":2585268.1400000001,"ADDRESS":"大排竹９６之１號","OBJECTID":146844},"geometry":{"x":189698.80999999959,"y":2585268.1400000043}},{"attributes":{"ID":146845,"DIS_CODE":0,"TOWNNAME":"白河區","LI":"大竹里","LIN":" ","STREET":" ","SECT":" ","MAREA":"大排竹","LANE":" ","ALLEY":" ","HOUSE_NO":"９９之１號","E_COORD97":189648.57000000001,"N_COORD97":2585292.9100000001,"ADDRESS":"大排竹９９之１號","OBJECTID":146845},"geometry":{"x":189648.5700000003,"y":2585292.9100000039}},{"attributes":{"ID":146846,"DIS_CODE":0,"TOWNNAME":"白河區","LI":"大竹里","LIN":" ","STREET":" ","SECT":" ","MAREA":"大排竹","LANE":" ","ALLEY":" ","HOUSE_NO":"９之１號","E_COORD97":189956.76999999999,"N_COORD97":2585268.3500000001,"ADDRESS":"大排竹９之１號","OBJECTID":146846},"geometry":{"x":189956.76999999862,"y":2585268.3499999996}},{"attributes":{"ID":146847,"DIS_CODE":0,"TOWNNAME":"白河區","LI":"大竹里","LIN":" ","STREET":" ","SECT":" ","MAREA":"大排竹","LANE":" ","ALLEY":" ","HOUSE_NO":"９之２號","E_COORD97":189960.45000000001,"N_COORD97":2585277.3700000001,"ADDRESS":"大排竹９之２號","OBJECTID":146847},"geometry":{"x":189960.45000000112,"y":2585277.3700000029}},{"attributes":{"ID":146848,"DIS_CODE":0,"TOWNNAME":"白河區","LI":"蓮潭里","LIN":" ","STREET":" ","SECT":" ","MAREA":"山子腳","LANE":" ","ALLEY":" ","HOUSE_NO":"１３號","E_COORD97":189298.34,"N_COORD97":2588396.2799999998,"ADDRESS":"山子腳１３號","OBJECTID":146848},"geometry":{"x":189298.33999999985,"y":2588396.2800000012}},{"attributes":{"ID":146849,"DIS_CODE":0,"TOWNNAME":"北區","LI":"大豐里","LIN":"30鄰","STREET":"文賢路","SECT":" ","MAREA":" ","LANE":" ","ALLEY":" ","HOUSE_NO":"４０９號","E_COORD97":167350.26000000001,"N_COORD97":2545544.6099999999,"ADDRESS":"文賢路４０９號","OBJECTID":146849},"geometry":{"x":167350.26000000164,"y":2545544.6099999994}},{"attributes":{"ID":146850,"DIS_CODE":0,"TOWNNAME":"新化區","LI":"東榮里","LIN":"30鄰","STREET":"信義路","SECT":" ","MAREA":" ","LANE":" ","ALLEY":" ","HOUSE_NO":"１５７號之２７","E_COORD97":179289.22,"N_COORD97":2548368.2599999998,"ADDRESS":"信義路１５７號之２７","OBJECTID":146850},"geometry":{"x":179289.21999999974,"y":2548368.2599999998}},{"attributes":{"ID":146851,"DIS_CODE":0,"TOWNNAME":"北區","LI":"成功里","LIN":"3鄰","STREET":"北安路","SECT":"一段","MAREA":" ","LANE":"９４巷","ALLEY":"３弄","HOUSE_NO":"１６號","E_COORD97":169069.89000000001,"N_COORD97":2546440.6200000001,"ADDRESS":"北安路一段９４巷３弄１６號","OBJECTID":146851},"geometry":{"x":169069.89000000153,"y":2546440.620000001}},{"attributes":{"ID":146852,"DIS_CODE":0,"TOWNNAME":"北區","LI":"成功里","LIN":"3鄰","STREET":"北安路","SECT":"一段","MAREA":" ","LANE":"９４巷","ALLEY":"３弄","HOUSE_NO":"１８號","E_COORD97":169065.07000000001,"N_COORD97":2546444.9500000002,"ADDRESS":"北安路一段９４巷３弄１８號","OBJECTID":146852},"geometry":{"x":169065.0700000003,"y":2546444.9500000011}},{"attributes":{"ID":146853,"DIS_CODE":0,"TOWNNAME":"北區","LI":"成功里","LIN":"3鄰","STREET":"北安路","SECT":"一段","MAREA":" ","LANE":"９４巷","ALLEY":"３弄","HOUSE_NO":"２０號","E_COORD97":169060.26000000001,"N_COORD97":2546449.7599999998,"ADDRESS":"北安路一段９４巷３弄２０號","OBJECTID":146853},"geometry":{"x":169060.25999999978,"y":2546449.7600000035}},{"attributes":{"ID":146854,"DIS_CODE":0,"TOWNNAME":"北區","LI":"成功里","LIN":"3鄰","STREET":"北安路","SECT":"一段","MAREA":" ","LANE":"９４巷","ALLEY":"３弄","HOUSE_NO":"２２號","E_COORD97":169054.95999999999,"N_COORD97":2546452.1699999999,"ADDRESS":"北安路一段９４巷３弄２２號","OBJECTID":146854},"geometry":{"x":169054.96000000089,"y":2546452.1700000018}},{"attributes":{"ID":146855,"DIS_CODE":0,"TOWNNAME":"北區","LI":"成功里","LIN":"3鄰","STREET":"北安路","SECT":"一段","MAREA":" ","LANE":"９４巷","ALLEY":"３弄","HOUSE_NO":"２４號","E_COORD97":169052.54999999999,"N_COORD97":2546456.5,"ADDRESS":"北安路一段９４巷３弄２４號","OBJECTID":146855},"geometry":{"x":169052.55000000075,"y":2546456.5000000019}},{"attributes":{"ID":146856,"DIS_CODE":0,"TOWNNAME":"北區","LI":"成功里","LIN":"3鄰","STREET":"北安路","SECT":"一段","MAREA":" ","LANE":"９４巷","ALLEY":"３弄","HOUSE_NO":"２６號","E_COORD97":169046.29000000001,"N_COORD97":2546461.3100000001,"ADDRESS":"北安路一段９４巷３弄２６號","OBJECTID":146856},"geometry":{"x":169046.29000000004,"y":2546461.3100000024}},{"attributes":{"ID":146857,"DIS_CODE":0,"TOWNNAME":"北區","LI":"成功里","LIN":"3鄰","STREET":"北安路","SECT":"一段","MAREA":" ","LANE":"９４巷","ALLEY":"３弄","HOUSE_NO":"２８號","E_COORD97":169041.95000000001,"N_COORD97":2546465.1600000001,"ADDRESS":"北安路一段９４巷３弄２８號","OBJECTID":146857},"geometry":{"x":169041.95000000019,"y":2546465.160000002}},{"attributes":{"ID":146858,"DIS_CODE":0,"TOWNNAME":"北區","LI":"成功里","LIN":"3鄰","STREET":"北安路","SECT":"一段","MAREA":" ","LANE":"９４巷","ALLEY":"３弄","HOUSE_NO":"２號","E_COORD97":169105.04999999999,"N_COORD97":2546415.6099999999,"ADDRESS":"北安路一段９４巷３弄２號","OBJECTID":146858},"geometry":{"x":169105.05000000075,"y":2546415.6099999994}},{"attributes":{"ID":146859,"DIS_CODE":0,"TOWNNAME":"北區","LI":"成功里","LIN":"3鄰","STREET":"北安路","SECT":"一段","MAREA":" ","LANE":"９４巷","ALLEY":"３弄","HOUSE_NO":"３０號","E_COORD97":169036.17000000001,"N_COORD97":2546469.0099999998,"ADDRESS":"北安路一段９４巷３弄３０號","OBJECTID":146859},"geometry":{"x":169036.17000000086,"y":2546469.0100000016}},{"attributes":{"ID":146860,"DIS_CODE":0,"TOWNNAME":"北區","LI":"成功里","LIN":"3鄰","STREET":"北安路","SECT":"一段","MAREA":" ","LANE":"９４巷","ALLEY":"３弄","HOUSE_NO":"３２號","E_COORD97":169032.79999999999,"N_COORD97":2546473.3399999999,"ADDRESS":"北安路一段９４巷３弄３２號","OBJECTID":146860},"geometry":{"x":169032.79999999981,"y":2546473.3400000017}},{"attributes":{"ID":146861,"DIS_CODE":0,"TOWNNAME":"北區","LI":"成功里","LIN":"3鄰","STREET":"北安路","SECT":"一段","MAREA":" ","LANE":"９４巷","ALLEY":"３弄","HOUSE_NO":"４號","E_COORD97":169100.72,"N_COORD97":2546419.46,"ADDRESS":"北安路一段９４巷３弄４號","OBJECTID":146861},"geometry":{"x":169100.71999999974,"y":2546419.4600000028}},{"attributes":{"ID":146862,"DIS_CODE":0,"TOWNNAME":"北區","LI":"成功里","LIN":"3鄰","STREET":"北安路","SECT":"一段","MAREA":" ","LANE":"９４巷","ALLEY":"３弄","HOUSE_NO":"６號","E_COORD97":169094.94,"N_COORD97":2546421.3799999999,"ADDRESS":"北安路一段９４巷３弄６號","OBJECTID":146862},"geometry":{"x":169094.94000000041,"y":2546421.3800000008}},{"attributes":{"ID":146863,"DIS_CODE":0,"TOWNNAME":"北區","LI":"成功里","LIN":"3鄰","STREET":"北安路","SECT":"一段","MAREA":" ","LANE":"９４巷","ALLEY":"３弄","HOUSE_NO":"８號","E_COORD97":169091.57000000001,"N_COORD97":2546426.1899999999,"ADDRESS":"北安路一段９４巷３弄８號","OBJECTID":146863},"geometry":{"x":169091.57000000123,"y":2546426.1900000032}},{"attributes":{"ID":146864,"DIS_CODE":0,"TOWNNAME":"北區","LI":"成功里","LIN":"3鄰","STREET":"北安路","SECT":"一段","MAREA":" ","LANE":"９４巷","ALLEY":"５弄","HOUSE_NO":"１０號","E_COORD97":169105.53,"N_COORD97":2546456.0099999998,"ADDRESS":"北安路一段９４巷５弄１０號","OBJECTID":146864},"geometry":{"x":169105.53000000119,"y":2546456.0100000016}},{"attributes":{"ID":146865,"DIS_CODE":0,"TOWNNAME":"北區","LI":"成功里","LIN":"3鄰","STREET":"北安路","SECT":"一段","MAREA":" ","LANE":"９４巷","ALLEY":"５弄","HOUSE_NO":"１１號","E_COORD97":169089.16,"N_COORD97":2546444.9500000002,"ADDRESS":"北安路一段９４巷５弄１１號","OBJECTID":146865},"geometry":{"x":169089.16000000108,"y":2546444.9500000011}},{"attributes":{"ID":146866,"DIS_CODE":0,"TOWNNAME":"北區","LI":"成功里","LIN":"3鄰","STREET":"北安路","SECT":"一段","MAREA":" ","LANE":"９４巷","ALLEY":"５弄","HOUSE_NO":"１２號","E_COORD97":169102.16,"N_COORD97":2546459.8700000001,"ADDRESS":"北安路一段９４巷５弄１２號","OBJECTID":146866},"geometry":{"x":169102.16000000015,"y":2546459.870000001}},{"attributes":{"ID":146867,"DIS_CODE":0,"TOWNNAME":"新化區","LI":"東榮里","LIN":"30鄰","STREET":"護安街","SECT":" ","MAREA":" ","LANE":" ","ALLEY":" ","HOUSE_NO":"２０號","E_COORD97":179243.67999999999,"N_COORD97":2548283.2599999998,"ADDRESS":"護安街２０號","OBJECTID":146867},"geometry":{"x":179243.6799999997,"y":2548283.2599999998}},{"attributes":{"ID":146868,"DIS_CODE":0,"TOWNNAME":"北區","LI":"成功里","LIN":"3鄰","STREET":"北安路","SECT":"一段","MAREA":" ","LANE":"９４巷","ALLEY":"５弄","HOUSE_NO":"１３號","E_COORD97":169083.85999999999,"N_COORD97":2546447.8399999999,"ADDRESS":"北安路一段９４巷５弄１３號","OBJECTID":146868},"geometry":{"x":169083.86000000034,"y":2546447.8399999999}},{"attributes":{"ID":146869,"DIS_CODE":0,"TOWNNAME":"北區","LI":"成功里","LIN":"3鄰","STREET":"北安路","SECT":"一段","MAREA":" ","LANE":"９４巷","ALLEY":"５弄","HOUSE_NO":"１４號","E_COORD97":169096.38,"N_COORD97":2546464.6800000002,"ADDRESS":"北安路一段９４巷５弄１４號","OBJECTID":146869},"geometry":{"x":169096.37999999989,"y":2546464.6800000016}},{"attributes":{"ID":146870,"DIS_CODE":0,"TOWNNAME":"北區","LI":"成功里","LIN":"3鄰","STREET":"北安路","SECT":"一段","MAREA":" ","LANE":"９４巷","ALLEY":"５弄","HOUSE_NO":"１５號","E_COORD97":169080.48999999999,"N_COORD97":2546453.6099999999,"ADDRESS":"北安路一段９４巷５弄１５號","OBJECTID":146870},"geometry":{"x":169080.49000000115,"y":2546453.6099999975}},{"attributes":{"ID":146871,"DIS_CODE":0,"TOWNNAME":"北區","LI":"成功里","LIN":"3鄰","STREET":"北安路","SECT":"一段","MAREA":" ","LANE":"９４巷","ALLEY":"５弄","HOUSE_NO":"１６號","E_COORD97":169092.04999999999,"N_COORD97":2546468.5299999998,"ADDRESS":"北安路一段９４巷５弄１６號","OBJECTID":146871},"geometry":{"x":169092.04999999981,"y":2546468.5300000012}},{"attributes":{"ID":146872,"DIS_CODE":0,"TOWNNAME":"西港區","LI":"慶安里","LIN":"5鄰","STREET":"中山路","SECT":" ","MAREA":" ","LANE":" ","ALLEY":" ","HOUSE_NO":"４４３之３號","E_COORD97":168150.98999999999,"N_COORD97":2558625.7400000002,"ADDRESS":"中山路４４３之３號","OBJECTID":146872},"geometry":{"x":168150.99000000209,"y":2558625.7400000021}},{"attributes":{"ID":146873,"DIS_CODE":0,"TOWNNAME":"西港區","LI":"慶安里","LIN":"5鄰","STREET":"中山路","SECT":" ","MAREA":" ","LANE":" ","ALLEY":" ","HOUSE_NO":"４４７號","E_COORD97":168235.48999999999,"N_COORD97":2558667.8700000001,"ADDRESS":"中山路４４７號","OBJECTID":146873},"geometry":{"x":168235.49000000022,"y":2558667.870000001}},{"attributes":{"ID":146874,"DIS_CODE":0,"TOWNNAME":"西港區","LI":"慶安里","LIN":"6鄰","STREET":"中山路","SECT":" ","MAREA":" ","LANE":" ","ALLEY":" ","HOUSE_NO":"４４１號之１","E_COORD97":168268.45000000001,"N_COORD97":2558578.98,"ADDRESS":"中山路４４１號之１","OBJECTID":146874},"geometry":{"x":168268.45000000112,"y":2558578.9800000004}},{"attributes":{"ID":146875,"DIS_CODE":0,"TOWNNAME":"西港區","LI":"慶安里","LIN":"6鄰","STREET":"中山路","SECT":" ","MAREA":" ","LANE":" ","ALLEY":" ","HOUSE_NO":"４４１號","E_COORD97":168269.25,"N_COORD97":2558570.29,"ADDRESS":"中山路４４１號","OBJECTID":146875},"geometry":{"x":168269.25000000186,"y":2558570.290000001}},{"attributes":{"ID":146876,"DIS_CODE":0,"TOWNNAME":"西港區","LI":"西港里","LIN":"2鄰","STREET":"中山路","SECT":" ","MAREA":" ","LANE":" ","ALLEY":" ","HOUSE_NO":"４３４號","E_COORD97":168372.54999999999,"N_COORD97":2558343.6200000001,"ADDRESS":"中山路４３４號","OBJECTID":146876},"geometry":{"x":168372.55000000075,"y":2558343.6200000029}},{"attributes":{"ID":146877,"DIS_CODE":0,"TOWNNAME":"西港區","LI":"西港里","LIN":"2鄰","STREET":"中山路","SECT":" ","MAREA":" ","LANE":" ","ALLEY":" ","HOUSE_NO":"４３６號","E_COORD97":168371.38,"N_COORD97":2558347.2400000002,"ADDRESS":"中山路４３６號","OBJECTID":146877},"geometry":{"x":168371.37999999989,"y":2558347.2400000039}},{"attributes":{"ID":146878,"DIS_CODE":0,"TOWNNAME":"白河區","LI":"蓮潭里","LIN":" ","STREET":" ","SECT":" ","MAREA":"山子腳","LANE":" ","ALLEY":" ","HOUSE_NO":"２５號","E_COORD97":189186.59,"N_COORD97":2588398.79,"ADDRESS":"山子腳２５號","OBJECTID":146878},"geometry":{"x":189186.58999999985,"y":2588398.790000001}},{"attributes":{"ID":146879,"DIS_CODE":0,"TOWNNAME":"白河區","LI":"蓮潭里","LIN":" ","STREET":" ","SECT":" ","MAREA":"山子腳","LANE":" ","ALLEY":" ","HOUSE_NO":"２６號","E_COORD97":189196.45000000001,"N_COORD97":2588386.9100000001,"ADDRESS":"山子腳２６號","OBJECTID":146879},"geometry":{"x":189196.45000000019,"y":2588386.9100000001}},{"attributes":{"ID":146880,"DIS_CODE":0,"TOWNNAME":"白河區","LI":"蓮潭里","LIN":" ","STREET":" ","SECT":" ","MAREA":"山子腳","LANE":" ","ALLEY":" ","HOUSE_NO":"２７號","E_COORD97":189204.23000000001,"N_COORD97":2588381.7200000002,"ADDRESS":"山子腳２７號","OBJECTID":146880},"geometry":{"x":189204.23000000138,"y":2588381.7200000007}},{"attributes":{"ID":146881,"DIS_CODE":0,"TOWNNAME":"北區","LI":"成功里","LIN":"3鄰","STREET":"北安路","SECT":"一段","MAREA":" ","LANE":"９４巷","ALLEY":"５弄","HOUSE_NO":"１７號","E_COORD97":169073.91,"N_COORD97":2546456.1699999999,"ADDRESS":"北安路一段９４巷５弄１７號","OBJECTID":146881},"geometry":{"x":169073.91000000108,"y":2546456.1699999999}},{"attributes":{"ID":146882,"DIS_CODE":0,"TOWNNAME":"北區","LI":"成功里","LIN":"3鄰","STREET":"北安路","SECT":"一段","MAREA":" ","LANE":"９４巷","ALLEY":"５弄","HOUSE_NO":"１８號","E_COORD97":169086.75,"N_COORD97":2546472.8599999999,"ADDRESS":"北安路一段９４巷５弄１８號","OBJECTID":146882},"geometry":{"x":169086.75000000093,"y":2546472.8600000013}},{"attributes":{"ID":146883,"DIS_CODE":0,"TOWNNAME":"北區","LI":"成功里","LIN":"3鄰","STREET":"北安路","SECT":"一段","MAREA":" ","LANE":"９４巷","ALLEY":"５弄","HOUSE_NO":"１９號","E_COORD97":169070.35999999999,"N_COORD97":2546460.1800000002,"ADDRESS":"北安路一段９４巷５弄１９號","OBJECTID":146883},"geometry":{"x":169070.36000000034,"y":2546460.1799999978}},{"attributes":{"ID":146884,"DIS_CODE":0,"TOWNNAME":"北區","LI":"成功里","LIN":"3鄰","STREET":"北安路","SECT":"一段","MAREA":" ","LANE":"９４巷","ALLEY":"５弄","HOUSE_NO":"２０號","E_COORD97":169083.38,"N_COORD97":2546476.2200000002,"ADDRESS":"北安路一段９４巷５弄２０號","OBJECTID":146884},"geometry":{"x":169083.37999999989,"y":2546476.2200000025}},{"attributes":{"ID":146885,"DIS_CODE":0,"TOWNNAME":"北區","LI":"成功里","LIN":"3鄰","STREET":"北安路","SECT":"一段","MAREA":" ","LANE":"９４巷","ALLEY":"５弄","HOUSE_NO":"２１號","E_COORD97":169064.10999999999,"N_COORD97":2546465.1600000001,"ADDRESS":"北安路一段９４巷５弄２１號","OBJECTID":146885},"geometry":{"x":169064.11000000127,"y":2546465.160000002}},{"attributes":{"ID":146886,"DIS_CODE":0,"TOWNNAME":"北區","LI":"成功里","LIN":"3鄰","STREET":"北安路","SECT":"一段","MAREA":" ","LANE":"９４巷","ALLEY":"５弄","HOUSE_NO":"２２號","E_COORD97":169077.12,"N_COORD97":2546479.5899999999,"ADDRESS":"北安路一段９４巷５弄２２號","OBJECTID":146886},"geometry":{"x":169077.12000000197,"y":2546479.5900000017}},{"attributes":{"ID":146887,"DIS_CODE":0,"TOWNNAME":"北區","LI":"成功里","LIN":"3鄰","STREET":"北安路","SECT":"一段","MAREA":" ","LANE":"９４巷","ALLEY":"５弄","HOUSE_NO":"２３號","E_COORD97":169059.78,"N_COORD97":2546468.0499999998,"ADDRESS":"北安路一段９４巷５弄２３號","OBJECTID":146887},"geometry":{"x":169059.78000000119,"y":2546468.0500000007}},{"attributes":{"ID":146888,"DIS_CODE":0,"TOWNNAME":"西港區","LI":"西港里","LIN":"2鄰","STREET":"中山路","SECT":" ","MAREA":" ","LANE":" ","ALLEY":" ","HOUSE_NO":"４３８號","E_COORD97":168370.48000000001,"N_COORD97":2558350.7599999998,"ADDRESS":"中山路４３８號","OBJECTID":146888},"geometry":{"x":168370.48000000138,"y":2558350.7600000016}},{"attributes":{"ID":146889,"DIS_CODE":0,"TOWNNAME":"西港區","LI":"慶安里","LIN":"5鄰","STREET":"中山路","SECT":" ","MAREA":" ","LANE":" ","ALLEY":" ","HOUSE_NO":"４６９之６號","E_COORD97":168077.51000000001,"N_COORD97":2558765.5699999998,"ADDRESS":"中山路４６９之６號","OBJECTID":146889},"geometry":{"x":168077.51000000164,"y":2558765.570000004}},{"attributes":{"ID":146890,"DIS_CODE":0,"TOWNNAME":"西港區","LI":"西港里","LIN":"21鄰","STREET":"中山路","SECT":" ","MAREA":" ","LANE":" ","ALLEY":" ","HOUSE_NO":"４８號","E_COORD97":168498.57000000001,"N_COORD97":2557349.3500000001,"ADDRESS":"中山路４８號","OBJECTID":146890},"geometry":{"x":168498.57000000123,"y":2557349.3500000015}},{"attributes":{"ID":146891,"DIS_CODE":0,"TOWNNAME":"西港區","LI":"西港里","LIN":"2鄰","STREET":"中山路","SECT":" ","MAREA":" ","LANE":" ","ALLEY":" ","HOUSE_NO":"４７０號","E_COORD97":168303.03,"N_COORD97":2558632.0299999998,"ADDRESS":"中山路４７０號","OBJECTID":146891},"geometry":{"x":168303.03000000026,"y":2558632.0299999993}},{"attributes":{"ID":146892,"DIS_CODE":0,"TOWNNAME":"西港區","LI":"西港里","LIN":"2鄰","STREET":"中山路","SECT":" ","MAREA":" ","LANE":" ","ALLEY":" ","HOUSE_NO":"４７４號之３","E_COORD97":168266.84,"N_COORD97":2558689.71,"ADDRESS":"中山路４７４號之３","OBJECTID":146892},"geometry":{"x":168266.84000000171,"y":2558689.7100000009}},{"attributes":{"ID":146893,"DIS_CODE":0,"TOWNNAME":"西港區","LI":"西港里","LIN":"2鄰","STREET":"中山路","SECT":" ","MAREA":" ","LANE":" ","ALLEY":" ","HOUSE_NO":"４７４號","E_COORD97":168272.26999999999,"N_COORD97":2558678.46,"ADDRESS":"中山路４７４號","OBJECTID":146893},"geometry":{"x":168272.27000000048,"y":2558678.459999999}},{"attributes":{"ID":146894,"DIS_CODE":0,"TOWNNAME":"西港區","LI":"西港里","LIN":"2鄰","STREET":"中山路","SECT":" ","MAREA":" ","LANE":" ","ALLEY":" ","HOUSE_NO":"４８０號之１０","E_COORD97":168229.92000000001,"N_COORD97":2558808.4199999999,"ADDRESS":"中山路４８０號之１０","OBJECTID":146894},"geometry":{"x":168229.91999999993,"y":2558808.4200000018}},{"attributes":{"ID":146895,"DIS_CODE":0,"TOWNNAME":"西港區","LI":"西港里","LIN":"2鄰","STREET":"中山路","SECT":" ","MAREA":" ","LANE":" ","ALLEY":" ","HOUSE_NO":"４８０號","E_COORD97":168257.51000000001,"N_COORD97":2558753.0600000001,"ADDRESS":"中山路４８０號","OBJECTID":146895},"geometry":{"x":168257.51000000071,"y":2558753.0600000024}},{"attributes":{"ID":146896,"DIS_CODE":0,"TOWNNAME":"西港區","LI":"西港里","LIN":"2鄰","STREET":"中山路","SECT":" ","MAREA":" ","LANE":" ","ALLEY":" ","HOUSE_NO":"４８２號之１","E_COORD97":168274.64000000001,"N_COORD97":2558863.8900000001,"ADDRESS":"中山路４８２號之１","OBJECTID":146896},"geometry":{"x":168274.63999999873,"y":2558863.8900000006}},{"attributes":{"ID":146897,"DIS_CODE":0,"TOWNNAME":"西港區","LI":"西港里","LIN":"2鄰","STREET":"中山路","SECT":" ","MAREA":" ","LANE":" ","ALLEY":" ","HOUSE_NO":"４８２號","E_COORD97":168228.20000000001,"N_COORD97":2558849.2400000002,"ADDRESS":"中山路４８２號","OBJECTID":146897},"geometry":{"x":168228.20000000112,"y":2558849.2400000039}},{"attributes":{"ID":146898,"DIS_CODE":0,"TOWNNAME":"西港區","LI":"西港里","LIN":"2鄰","STREET":"中山路","SECT":" ","MAREA":" ","LANE":" ","ALLEY":" ","HOUSE_NO":"４８８之２號","E_COORD97":168213.64999999999,"N_COORD97":2558874.21,"ADDRESS":"中山路４８８之２號","OBJECTID":146898},"geometry":{"x":168213.65000000037,"y":2558874.2100000028}},{"attributes":{"ID":146899,"DIS_CODE":0,"TOWNNAME":"西港區","LI":"西港里","LIN":"2鄰","STREET":"中山路","SECT":" ","MAREA":" ","LANE":" ","ALLEY":" ","HOUSE_NO":"４８８號","E_COORD97":168225.79000000001,"N_COORD97":2558867.3700000001,"ADDRESS":"中山路４８８號","OBJECTID":146899},"geometry":{"x":168225.79000000004,"y":2558867.3700000029}},{"attributes":{"ID":146900,"DIS_CODE":0,"TOWNNAME":"西港區","LI":"西港里","LIN":"21鄰","STREET":"中山路","SECT":" ","MAREA":" ","LANE":" ","ALLEY":" ","HOUSE_NO":"４號","E_COORD97":168499.13,"N_COORD97":2556873.1200000001,"ADDRESS":"中山路４號","OBJECTID":146900},"geometry":{"x":168499.13000000082,"y":2556873.120000001}},{"attributes":{"ID":146901,"DIS_CODE":0,"TOWNNAME":"西港區","LI":"慶安里","LIN":"5鄰","STREET":"中山路","SECT":" ","MAREA":" ","LANE":" ","ALLEY":" ","HOUSE_NO":"５２１號","E_COORD97":167969.88365900001,"N_COORD97":2559255.18377,"ADDRESS":"中山路５２１號","OBJECTID":146901},"geometry":{"x":167969.88365899958,"y":2559255.1837690044}},{"attributes":{"ID":146902,"DIS_CODE":0,"TOWNNAME":"北區","LI":"成功里","LIN":"3鄰","STREET":"北安路","SECT":"一段","MAREA":" ","LANE":"９４巷","ALLEY":"５弄","HOUSE_NO":"２４號","E_COORD97":169073.26000000001,"N_COORD97":2546483.9199999999,"ADDRESS":"北安路一段９４巷５弄２４號","OBJECTID":146902},"geometry":{"x":169073.26000000071,"y":2546483.9200000018}},{"attributes":{"ID":146903,"DIS_CODE":0,"TOWNNAME":"北區","LI":"成功里","LIN":"3鄰","STREET":"北安路","SECT":"一段","MAREA":" ","LANE":"９４巷","ALLEY":"５弄","HOUSE_NO":"２５號","E_COORD97":169054.95999999999,"N_COORD97":2546472.3799999999,"ADDRESS":"北安路一段９４巷５弄２５號","OBJECTID":146903},"geometry":{"x":169054.96000000089,"y":2546472.3800000008}},{"attributes":{"ID":146904,"DIS_CODE":0,"TOWNNAME":"北區","LI":"成功里","LIN":"3鄰","STREET":"北安路","SECT":"一段","MAREA":" ","LANE":"９４巷","ALLEY":"５弄","HOUSE_NO":"２６號","E_COORD97":169067.48000000001,"N_COORD97":2546487.77,"ADDRESS":"北安路一段９４巷５弄２６號","OBJECTID":146904},"geometry":{"x":169067.48000000045,"y":2546487.7700000014}},{"attributes":{"ID":146905,"DIS_CODE":0,"TOWNNAME":"北區","LI":"成功里","LIN":"3鄰","STREET":"北安路","SECT":"一段","MAREA":" ","LANE":"９４巷","ALLEY":"５弄","HOUSE_NO":"２７號","E_COORD97":169052.07000000001,"N_COORD97":2546476.2200000002,"ADDRESS":"北安路一段９４巷５弄２７號","OBJECTID":146905},"geometry":{"x":169052.0700000003,"y":2546476.2200000025}},{"attributes":{"ID":146906,"DIS_CODE":0,"TOWNNAME":"北區","LI":"成功里","LIN":"3鄰","STREET":"北安路","SECT":"一段","MAREA":" ","LANE":"９４巷","ALLEY":"５弄","HOUSE_NO":"２８號","E_COORD97":169063.63,"N_COORD97":2546492.1000000001,"ADDRESS":"北安路一段９４巷５弄２８號","OBJECTID":146906},"geometry":{"x":169063.63000000082,"y":2546492.1000000015}},{"attributes":{"ID":146907,"DIS_CODE":0,"TOWNNAME":"北區","LI":"成功里","LIN":"3鄰","STREET":"北安路","SECT":"一段","MAREA":" ","LANE":"９４巷","ALLEY":"５弄","HOUSE_NO":"２９號","E_COORD97":169045.32999999999,"N_COORD97":2546480.0699999998,"ADDRESS":"北安路一段９４巷５弄２９號","OBJECTID":146907},"geometry":{"x":169045.33000000101,"y":2546480.0700000022}},{"attributes":{"ID":146908,"DIS_CODE":0,"TOWNNAME":"北區","LI":"成功里","LIN":"3鄰","STREET":"北安路","SECT":"一段","MAREA":" ","LANE":"９４巷","ALLEY":"５弄","HOUSE_NO":"２號","E_COORD97":169124.79999999999,"N_COORD97":2546439.6600000001,"ADDRESS":"北安路一段９４巷５弄２號","OBJECTID":146908},"geometry":{"x":169124.80000000168,"y":2546439.6600000001}},{"attributes":{"ID":146909,"DIS_CODE":0,"TOWNNAME":"北區","LI":"成功里","LIN":"3鄰","STREET":"北安路","SECT":"一段","MAREA":" ","LANE":"９４巷","ALLEY":"５弄","HOUSE_NO":"３０號","E_COORD97":169058.32999999999,"N_COORD97":2546496.4300000002,"ADDRESS":"北安路一段９４巷５弄３０號","OBJECTID":146909},"geometry":{"x":169058.33000000007,"y":2546496.4300000016}},{"attributes":{"ID":146910,"DIS_CODE":0,"TOWNNAME":"北區","LI":"成功里","LIN":"3鄰","STREET":"北安路","SECT":"一段","MAREA":" ","LANE":"９４巷","ALLEY":"５弄","HOUSE_NO":"３１號","E_COORD97":169042.92000000001,"N_COORD97":2546485.3599999999,"ADDRESS":"北安路一段９４巷５弄３１號","OBJECTID":146910},"geometry":{"x":169042.92000000086,"y":2546485.3599999994}},{"attributes":{"ID":146911,"DIS_CODE":0,"TOWNNAME":"西港區","LI":"慶安里","LIN":"34鄰","STREET":"中山路","SECT":" ","MAREA":" ","LANE":" ","ALLEY":" ","HOUSE_NO":"８９號","E_COORD97":168459.70999999999,"N_COORD97":2557365.4700000002,"ADDRESS":"中山路８９號","OBJECTID":146911},"geometry":{"x":168459.71000000089,"y":2557365.4700000007}},{"attributes":{"ID":146912,"DIS_CODE":0,"TOWNNAME":"西港區","LI":"西港里","LIN":"4鄰","STREET":"文化路","SECT":" ","MAREA":" ","LANE":" ","ALLEY":" ","HOUSE_NO":"１５號","E_COORD97":168498.01000000001,"N_COORD97":2558164.2599999998,"ADDRESS":"文化路１５號","OBJECTID":146912},"geometry":{"x":168498.01000000071,"y":2558164.2600000016}},{"attributes":{"ID":146913,"DIS_CODE":0,"TOWNNAME":"白河區","LI":"內角里","LIN":" ","STREET":" ","SECT":" ","MAREA":"內角","LANE":" ","ALLEY":" ","HOUSE_NO":"６９號","E_COORD97":192516.64000000001,"N_COORD97":2588568.8500000001,"ADDRESS":"內角６９號","OBJECTID":146913},"geometry":{"x":192516.6400000006,"y":2588568.8500000015}},{"attributes":{"ID":146914,"DIS_CODE":0,"TOWNNAME":"北區","LI":"成功里","LIN":"3鄰","STREET":"北安路","SECT":"一段","MAREA":" ","LANE":"９４巷","ALLEY":"５弄","HOUSE_NO":"３２號","E_COORD97":169053.51000000001,"N_COORD97":2546499.7999999998,"ADDRESS":"北安路一段９４巷５弄３２號","OBJECTID":146914},"geometry":{"x":169053.50999999978,"y":2546499.8000000007}},{"attributes":{"ID":146915,"DIS_CODE":0,"TOWNNAME":"北區","LI":"成功里","LIN":"3鄰","STREET":"北安路","SECT":"一段","MAREA":" ","LANE":"９４巷","ALLEY":"５弄","HOUSE_NO":"３號","E_COORD97":169109.87,"N_COORD97":2546429.0800000001,"ADDRESS":"北安路一段９４巷５弄３號","OBJECTID":146915},"geometry":{"x":169109.87000000104,"y":2546429.0800000019}},{"attributes":{"ID":146916,"DIS_CODE":0,"TOWNNAME":"北區","LI":"成功里","LIN":"3鄰","STREET":"北安路","SECT":"一段","MAREA":" ","LANE":"９４巷","ALLEY":"５弄","HOUSE_NO":"４號","E_COORD97":169121.91,"N_COORD97":2546444.4700000002,"ADDRESS":"北安路一段９４巷５弄４號","OBJECTID":146916},"geometry":{"x":169121.91000000015,"y":2546444.4700000007}},{"attributes":{"ID":146917,"DIS_CODE":0,"TOWNNAME":"北區","LI":"成功里","LIN":"3鄰","STREET":"北安路","SECT":"一段","MAREA":" ","LANE":"９４巷","ALLEY":"５弄","HOUSE_NO":"５號","E_COORD97":169102.64000000001,"N_COORD97":2546432.4500000002,"ADDRESS":"北安路一段９４巷５弄５號","OBJECTID":146917},"geometry":{"x":169102.6400000006,"y":2546432.4500000011}},{"attributes":{"ID":146918,"DIS_CODE":0,"TOWNNAME":"北區","LI":"成功里","LIN":"3鄰","STREET":"北安路","SECT":"一段","MAREA":" ","LANE":"９４巷","ALLEY":"５弄","HOUSE_NO":"６號","E_COORD97":169116.13,"N_COORD97":2546448.7999999998,"ADDRESS":"北安路一段９４巷５弄６號","OBJECTID":146918},"geometry":{"x":169116.13000000082,"y":2546448.8000000026}},{"attributes":{"ID":146919,"DIS_CODE":0,"TOWNNAME":"北區","LI":"成功里","LIN":"3鄰","STREET":"北安路","SECT":"一段","MAREA":" ","LANE":"９４巷","ALLEY":"５弄","HOUSE_NO":"７號","E_COORD97":169099.75,"N_COORD97":2546438.2200000002,"ADDRESS":"北安路一段９４巷５弄７號","OBJECTID":146919},"geometry":{"x":169099.75,"y":2546438.2200000025}},{"attributes":{"ID":146920,"DIS_CODE":0,"TOWNNAME":"北區","LI":"成功里","LIN":"3鄰","STREET":"北安路","SECT":"一段","MAREA":" ","LANE":"９４巷","ALLEY":"５弄","HOUSE_NO":"８號","E_COORD97":169111.31,"N_COORD97":2546453.1299999999,"ADDRESS":"北安路一段９４巷５弄８號","OBJECTID":146920},"geometry":{"x":169111.31000000052,"y":2546453.1300000027}},{"attributes":{"ID":146921,"DIS_CODE":0,"TOWNNAME":"北區","LI":"成功里","LIN":"3鄰","STREET":"北安路","SECT":"一段","MAREA":" ","LANE":"９４巷","ALLEY":"５弄","HOUSE_NO":"９號","E_COORD97":169093.01000000001,"N_COORD97":2546440.6200000001,"ADDRESS":"北安路一段９４巷５弄９號","OBJECTID":146921},"geometry":{"x":169093.01000000071,"y":2546440.620000001}},{"attributes":{"ID":146922,"DIS_CODE":0,"TOWNNAME":"北區","LI":"成功里","LIN":"3鄰","STREET":"北安路","SECT":"一段","MAREA":" ","LANE":"９４巷","ALLEY":"７弄","HOUSE_NO":"１１號","E_COORD97":169110.82999999999,"N_COORD97":2546472.8599999999,"ADDRESS":"北安路一段９４巷７弄１１號","OBJECTID":146922},"geometry":{"x":169110.83000000007,"y":2546472.8600000013}},{"attributes":{"ID":146923,"DIS_CODE":0,"TOWNNAME":"北區","LI":"成功里","LIN":"3鄰","STREET":"北安路","SECT":"一段","MAREA":" ","LANE":"９４巷","ALLEY":"７弄","HOUSE_NO":"１３號","E_COORD97":169106.01999999999,"N_COORD97":2546474.7799999998,"ADDRESS":"北安路一段９４巷７弄１３號","OBJECTID":146923},"geometry":{"x":169106.02000000142,"y":2546474.7799999993}},{"attributes":{"ID":146924,"DIS_CODE":0,"TOWNNAME":"北區","LI":"成功里","LIN":"3鄰","STREET":"北安路","SECT":"一段","MAREA":" ","LANE":"９４巷","ALLEY":"７弄","HOUSE_NO":"１５號","E_COORD97":169102.16,"N_COORD97":2546481.0299999998,"ADDRESS":"北安路一段９４巷７弄１５號","OBJECTID":146924},"geometry":{"x":169102.16000000015,"y":2546481.0299999993}},{"attributes":{"ID":146925,"DIS_CODE":0,"TOWNNAME":"北區","LI":"成功里","LIN":"3鄰","STREET":"北安路","SECT":"一段","MAREA":" ","LANE":"９４巷","ALLEY":"７弄","HOUSE_NO":"１７號","E_COORD97":169096.38,"N_COORD97":2546483.4399999999,"ADDRESS":"北安路一段９４巷７弄１７號","OBJECTID":146925},"geometry":{"x":169096.37999999989,"y":2546483.4400000013}},{"attributes":{"ID":146926,"DIS_CODE":0,"TOWNNAME":"北區","LI":"成功里","LIN":"3鄰","STREET":"北安路","SECT":"一段","MAREA":" ","LANE":"９４巷","ALLEY":"７弄","HOUSE_NO":"１９號","E_COORD97":169091.57000000001,"N_COORD97":2546487.29,"ADDRESS":"北安路一段９４巷７弄１９號","OBJECTID":146926},"geometry":{"x":169091.57000000123,"y":2546487.290000001}},{"attributes":{"ID":146927,"DIS_CODE":0,"TOWNNAME":"北區","LI":"成功里","LIN":"3鄰","STREET":"北安路","SECT":"一段","MAREA":" ","LANE":"９４巷","ALLEY":"７弄","HOUSE_NO":"１號","E_COORD97":169133.95000000001,"N_COORD97":2546451.6899999999,"ADDRESS":"北安路一段９４巷７弄１號","OBJECTID":146927},"geometry":{"x":169133.95000000019,"y":2546451.6899999995}},{"attributes":{"ID":146928,"DIS_CODE":0,"TOWNNAME":"中西區","LI":"郡西里","LIN":"14鄰","STREET":"郡西路","SECT":" ","MAREA":" ","LANE":" ","ALLEY":" ","HOUSE_NO":"１１６號","E_COORD97":167439.315317,"N_COORD97":2543453.1829499998,"ADDRESS":"郡西路１１６號","OBJECTID":146928},"geometry":{"x":167439.31531700026,"y":2543453.1829540003}},{"attributes":{"ID":146929,"DIS_CODE":0,"TOWNNAME":"北區","LI":"成功里","LIN":"3鄰","STREET":"北安路","SECT":"一段","MAREA":" ","LANE":"９４巷","ALLEY":"７弄","HOUSE_NO":"２１號","E_COORD97":169086.26999999999,"N_COORD97":2546491.1400000001,"ADDRESS":"北安路一段９４巷７弄２１號","OBJECTID":146929},"geometry":{"x":169086.27000000048,"y":2546491.1400000006}},{"attributes":{"ID":146930,"DIS_CODE":0,"TOWNNAME":"北區","LI":"成功里","LIN":"3鄰","STREET":"北安路","SECT":"一段","MAREA":" ","LANE":"９４巷","ALLEY":"７弄","HOUSE_NO":"２３號","E_COORD97":169081.92999999999,"N_COORD97":2546494.9900000002,"ADDRESS":"北安路一段９４巷７弄２３號","OBJECTID":146930},"geometry":{"x":169081.93000000063,"y":2546494.9900000002}},{"attributes":{"ID":146931,"DIS_CODE":0,"TOWNNAME":"北區","LI":"成功里","LIN":"3鄰","STREET":"北安路","SECT":"一段","MAREA":" ","LANE":"９４巷","ALLEY":"７弄","HOUSE_NO":"２５號","E_COORD97":169075.57000000001,"N_COORD97":2546498.5699999998,"ADDRESS":"北安路一段９４巷７弄２５號","OBJECTID":146931},"geometry":{"x":169075.5700000003,"y":2546498.5700000003}},{"attributes":{"ID":146932,"DIS_CODE":0,"TOWNNAME":"北區","LI":"成功里","LIN":"3鄰","STREET":"北安路","SECT":"一段","MAREA":" ","LANE":"９４巷","ALLEY":"７弄","HOUSE_NO":"２７號","E_COORD97":169072.23999999999,"N_COORD97":2546502.8500000001,"ADDRESS":"北安路一段９４巷７弄２７號","OBJECTID":146932},"geometry":{"x":169072.24000000022,"y":2546502.8499999996}},{"attributes":{"ID":146933,"DIS_CODE":0,"TOWNNAME":"北區","LI":"大港里","LIN":"30鄰","STREET":"賢北街","SECT":" ","MAREA":" ","LANE":" ","ALLEY":" ","HOUSE_NO":"１９７號","E_COORD97":166198.79999999999,"N_COORD97":2545598.3700000001,"ADDRESS":"賢北街１９７號","OBJECTID":146933},"geometry":{"x":166198.79999999888,"y":2545598.370000001}},{"attributes":{"ID":146934,"DIS_CODE":0,"TOWNNAME":"北區","LI":"大港里","LIN":"30鄰","STREET":"賢北街","SECT":" ","MAREA":" ","LANE":" ","ALLEY":" ","HOUSE_NO":"２１７號","E_COORD97":166183.23000000001,"N_COORD97":2545641.9100000001,"ADDRESS":"賢北街２１７號","OBJECTID":146934},"geometry":{"x":166183.23000000138,"y":2545641.9100000001}},{"attributes":{"ID":146935,"DIS_CODE":0,"TOWNNAME":"北區","LI":"大港里","LIN":"30鄰","STREET":"賢北街","SECT":" ","MAREA":" ","LANE":" ","ALLEY":" ","HOUSE_NO":"２１９號","E_COORD97":166181.42000000001,"N_COORD97":2545646.5600000001,"ADDRESS":"賢北街２１９號","OBJECTID":146935},"geometry":{"x":166181.42000000086,"y":2545646.5600000024}},{"attributes":{"ID":146936,"DIS_CODE":0,"TOWNNAME":"北區","LI":"大港里","LIN":"30鄰","STREET":"賢北街","SECT":" ","MAREA":" ","LANE":" ","ALLEY":" ","HOUSE_NO":"２２１號","E_COORD97":166180.04000000001,"N_COORD97":2545651.21,"ADDRESS":"賢北街２２１號","OBJECTID":146936},"geometry":{"x":166180.04000000004,"y":2545651.2100000046}},{"attributes":{"ID":146937,"DIS_CODE":0,"TOWNNAME":"北區","LI":"大港里","LIN":"30鄰","STREET":"賢北街","SECT":" ","MAREA":" ","LANE":" ","ALLEY":" ","HOUSE_NO":"２２３號","E_COORD97":166177.95000000001,"N_COORD97":2545656.4199999999,"ADDRESS":"賢北街２２３號","OBJECTID":146937},"geometry":{"x":166177.95000000205,"y":2545656.4200000018}},{"attributes":{"ID":146938,"DIS_CODE":0,"TOWNNAME":"西港區","LI":"西港里","LIN":"4鄰","STREET":"文化路","SECT":" ","MAREA":" ","LANE":" ","ALLEY":" ","HOUSE_NO":"１７號","E_COORD97":168503.57000000001,"N_COORD97":2558166.8300000001,"ADDRESS":"文化路１７號","OBJECTID":146938},"geometry":{"x":168503.57000000123,"y":2558166.8300000038}},{"attributes":{"ID":146939,"DIS_CODE":0,"TOWNNAME":"北區","LI":"成功里","LIN":"3鄰","STREET":"北安路","SECT":"一段","MAREA":" ","LANE":"９４巷","ALLEY":"７弄","HOUSE_NO":"２９號","E_COORD97":169067.01000000001,"N_COORD97":2546507.6000000001,"ADDRESS":"北安路一段９４巷７弄２９號","OBJECTID":146939},"geometry":{"x":169067.00999999978,"y":2546507.5999999996}},{"attributes":{"ID":146940,"DIS_CODE":0,"TOWNNAME":"北區","LI":"成功里","LIN":"3鄰","STREET":"北安路","SECT":"一段","MAREA":" ","LANE":"９４巷","ALLEY":"７弄","HOUSE_NO":"３１號","E_COORD97":169062.72,"N_COORD97":2546509.98,"ADDRESS":"北安路一段９４巷７弄３１號","OBJECTID":146940},"geometry":{"x":169062.72000000067,"y":2546509.9800000042}},{"attributes":{"ID":146941,"DIS_CODE":0,"TOWNNAME":"北區","LI":"成功里","LIN":"3鄰","STREET":"北安路","SECT":"一段","MAREA":" ","LANE":"９４巷","ALLEY":"７弄","HOUSE_NO":"３號","E_COORD97":169130.10000000001,"N_COORD97":2546455.54,"ADDRESS":"北安路一段９４巷７弄３號","OBJECTID":146941},"geometry":{"x":169130.10000000056,"y":2546455.540000001}},{"attributes":{"ID":146942,"DIS_CODE":0,"TOWNNAME":"西港區","LI":"西港里","LIN":"4鄰","STREET":"文化路","SECT":" ","MAREA":" ","LANE":" ","ALLEY":" ","HOUSE_NO":"１９號","E_COORD97":168507.45000000001,"N_COORD97":2558169.0099999998,"ADDRESS":"文化路１９號","OBJECTID":146942},"geometry":{"x":168507.45000000112,"y":2558169.0100000016}},{"attributes":{"ID":146943,"DIS_CODE":0,"TOWNNAME":"白河區","LI":"內角里","LIN":" ","STREET":" ","SECT":" ","MAREA":"內角","LANE":" ","ALLEY":" ","HOUSE_NO":"７０號","E_COORD97":192517.60999999999,"N_COORD97":2588535.1000000001,"ADDRESS":"內角７０號","OBJECTID":146943},"geometry":{"x":192517.61000000127,"y":2588535.0999999996}},{"attributes":{"ID":146944,"DIS_CODE":0,"TOWNNAME":"白河區","LI":"內角里","LIN":" ","STREET":" ","SECT":" ","MAREA":"內角","LANE":" ","ALLEY":" ","HOUSE_NO":"７７號","E_COORD97":192438.84,"N_COORD97":2588546.1400000001,"ADDRESS":"內角７７號","OBJECTID":146944},"geometry":{"x":192438.84000000078,"y":2588546.1399999987}},{"attributes":{"ID":146945,"DIS_CODE":0,"TOWNNAME":"白河區","LI":"內角里","LIN":" ","STREET":" ","SECT":" ","MAREA":"內角","LANE":" ","ALLEY":" ","HOUSE_NO":"８１號","E_COORD97":192410.13,"N_COORD97":2588566.6499999999,"ADDRESS":"內角８１號","OBJECTID":146945},"geometry":{"x":192410.13000000082,"y":2588566.6500000041}},{"attributes":{"ID":146946,"DIS_CODE":0,"TOWNNAME":"白河區","LI":"內角里","LIN":" ","STREET":" ","SECT":" ","MAREA":"內角","LANE":" ","ALLEY":" ","HOUSE_NO":"８２號","E_COORD97":192405.01999999999,"N_COORD97":2588575.5699999998,"ADDRESS":"內角８２號","OBJECTID":146946},"geometry":{"x":192405.02000000048,"y":2588575.5700000003}},{"attributes":{"ID":146947,"DIS_CODE":0,"TOWNNAME":"白河區","LI":"內角里","LIN":" ","STREET":" ","SECT":" ","MAREA":"內角","LANE":" ","ALLEY":" ","HOUSE_NO":"８４之２０號","E_COORD97":192581.82000000001,"N_COORD97":2588639.1699999999,"ADDRESS":"內角８４之２０號","OBJECTID":146947},"geometry":{"x":192581.82000000123,"y":2588639.1699999999}},{"attributes":{"ID":146948,"DIS_CODE":0,"TOWNNAME":"北區","LI":"成功里","LIN":"3鄰","STREET":"北安路","SECT":"一段","MAREA":" ","LANE":"９４巷","ALLEY":"７弄","HOUSE_NO":"５號","E_COORD97":169123.84,"N_COORD97":2546459.3900000001,"ADDRESS":"北安路一段９４巷７弄５號","OBJECTID":146948},"geometry":{"x":169123.83999999985,"y":2546459.3900000006}},{"attributes":{"ID":146949,"DIS_CODE":0,"TOWNNAME":"北區","LI":"成功里","LIN":"3鄰","STREET":"北安路","SECT":"一段","MAREA":" ","LANE":"９４巷","ALLEY":"７弄","HOUSE_NO":"７號","E_COORD97":169119.01999999999,"N_COORD97":2546463.23,"ADDRESS":"北安路一段９４巷７弄７號","OBJECTID":146949},"geometry":{"x":169119.01999999955,"y":2546463.2300000004}},{"attributes":{"ID":146950,"DIS_CODE":0,"TOWNNAME":"北區","LI":"成功里","LIN":"3鄰","STREET":"北安路","SECT":"一段","MAREA":" ","LANE":"９４巷","ALLEY":"７弄","HOUSE_NO":"９號","E_COORD97":169114.69,"N_COORD97":2546467.0800000001,"ADDRESS":"北安路一段９４巷７弄９號","OBJECTID":146950},"geometry":{"x":169114.69000000134,"y":2546467.0800000001}},{"attributes":{"ID":146951,"DIS_CODE":0,"TOWNNAME":"安南區","LI":"淵中里","LIN":"3鄰","STREET":"本淵路","SECT":" ","MAREA":" ","LANE":"５７巷","ALLEY":"４８弄","HOUSE_NO":"２０號","E_COORD97":165149.87858700001,"N_COORD97":2549910.5471000001,"ADDRESS":"本淵路５７巷４８弄２０號","OBJECTID":146951},"geometry":{"x":165149.87858700007,"y":2549910.547101004}},{"attributes":{"ID":146952,"DIS_CODE":0,"TOWNNAME":"安南區","LI":"淵中里","LIN":"3鄰","STREET":"本淵路","SECT":" ","MAREA":" ","LANE":"５７巷","ALLEY":"４８弄","HOUSE_NO":"２２號","E_COORD97":165143.52686400001,"N_COORD97":2549913.0871000001,"ADDRESS":"本淵路５７巷４８弄２２號","OBJECTID":146952},"geometry":{"x":165143.5268640006,"y":2549913.0870999992}},{"attributes":{"ID":146953,"DIS_CODE":0,"TOWNNAME":"安南區","LI":"淵中里","LIN":"3鄰","STREET":"本淵路","SECT":" ","MAREA":" ","LANE":"５７巷","ALLEY":"４８弄","HOUSE_NO":"２６號","E_COORD97":165138.44548600001,"N_COORD97":2549909.7004399998,"ADDRESS":"本淵路５７巷４８弄２６號","OBJECTID":146953},"geometry":{"x":165138.44548600074,"y":2549909.7004350014}},{"attributes":{"ID":146954,"DIS_CODE":0,"TOWNNAME":"安南區","LI":"淵中里","LIN":"3鄰","STREET":"本淵路","SECT":" ","MAREA":" ","LANE":"５７巷","ALLEY":"４８弄","HOUSE_NO":"２８號","E_COORD97":165136.32824500001,"N_COORD97":2549906.1020999998,"ADDRESS":"本淵路５７巷４８弄２８號","OBJECTID":146954},"geometry":{"x":165136.32824500091,"y":2549906.1021030005}},{"attributes":{"ID":146955,"DIS_CODE":0,"TOWNNAME":"安南區","LI":"淵中里","LIN":"3鄰","STREET":"本淵路","SECT":" ","MAREA":" ","LANE":"５７巷","ALLEY":"４８弄","HOUSE_NO":"３０號","E_COORD97":165132.30548700001,"N_COORD97":2549903.7737699999,"ADDRESS":"本淵路５７巷４８弄３０號","OBJECTID":146955},"geometry":{"x":165132.30548700131,"y":2549903.773771001}},{"attributes":{"ID":146956,"DIS_CODE":0,"TOWNNAME":"新營區","LI":"新北里","LIN":"30鄰","STREET":"新北四街","SECT":" ","MAREA":" ","LANE":" ","ALLEY":" ","HOUSE_NO":"５５號","E_COORD97":178769.17999999999,"N_COORD97":2578958.4399999999,"ADDRESS":"新北四街５５號","OBJECTID":146956},"geometry":{"x":178769.1799999997,"y":2578958.4400000032}},{"attributes":{"ID":146957,"DIS_CODE":0,"TOWNNAME":"新營區","LI":"新北里","LIN":"30鄰","STREET":"新北四街","SECT":" ","MAREA":" ","LANE":" ","ALLEY":" ","HOUSE_NO":"２５號","E_COORD97":178714.92999999999,"N_COORD97":2578942.0899999999,"ADDRESS":"新北四街２５號","OBJECTID":146957},"geometry":{"x":178714.9299999997,"y":2578942.0900000017}},{"attributes":{"ID":146958,"DIS_CODE":0,"TOWNNAME":"新營區","LI":"新北里","LIN":"30鄰","STREET":"新北四街","SECT":" ","MAREA":" ","LANE":" ","ALLEY":" ","HOUSE_NO":"４３號","E_COORD97":178741.63,"N_COORD97":2578960.79,"ADDRESS":"新北四街４３號","OBJECTID":146958},"geometry":{"x":178741.63000000082,"y":2578960.790000001}},{"attributes":{"ID":146959,"DIS_CODE":0,"TOWNNAME":"新營區","LI":"大宏里","LIN":"30鄰","STREET":"開元路","SECT":" ","MAREA":" ","LANE":" ","ALLEY":" ","HOUSE_NO":"２７號之１","E_COORD97":180816.29999999999,"N_COORD97":2578588.8700000001,"ADDRESS":"開元路２７號之１","OBJECTID":146959},"geometry":{"x":180816.29999999981,"y":2578588.8700000029}},{"attributes":{"ID":146960,"DIS_CODE":0,"TOWNNAME":"新營區","LI":"民榮里","LIN":"30鄰","STREET":"太子路","SECT":" ","MAREA":" ","LANE":" ","ALLEY":" ","HOUSE_NO":"１３４號","E_COORD97":178073.14000000001,"N_COORD97":2577969.5299999998,"ADDRESS":"太子路１３４號","OBJECTID":146960},"geometry":{"x":178073.1400000006,"y":2577969.5299999993}},{"attributes":{"ID":146961,"DIS_CODE":0,"TOWNNAME":"新營區","LI":"大宏里","LIN":"30鄰","STREET":"開元路","SECT":" ","MAREA":" ","LANE":" ","ALLEY":" ","HOUSE_NO":"２９號之１","E_COORD97":180822.48000000001,"N_COORD97":2578597.7000000002,"ADDRESS":"開元路２９號之１","OBJECTID":146961},"geometry":{"x":180822.48000000045,"y":2578597.7000000011}},{"attributes":{"ID":146962,"DIS_CODE":0,"TOWNNAME":"新營區","LI":"大宏里","LIN":"30鄰","STREET":"開元路","SECT":" ","MAREA":" ","LANE":" ","ALLEY":" ","HOUSE_NO":"２５號","E_COORD97":180806.95999999999,"N_COORD97":2578575.5699999998,"ADDRESS":"開元路２５號","OBJECTID":146962},"geometry":{"x":180806.95999999903,"y":2578575.570000004}},{"attributes":{"ID":146963,"DIS_CODE":0,"TOWNNAME":"安南區","LI":"淵中里","LIN":"3鄰","STREET":"本淵路","SECT":" ","MAREA":" ","LANE":"５７巷","ALLEY":"４８弄","HOUSE_NO":"３２號","E_COORD97":165126.80066099999,"N_COORD97":2549903.7737699999,"ADDRESS":"本淵路５７巷４８弄３２號","OBJECTID":146963},"geometry":{"x":165126.80066100229,"y":2549903.773771001}},{"attributes":{"ID":146964,"DIS_CODE":0,"TOWNNAME":"安南區","LI":"淵中里","LIN":"3鄰","STREET":"本淵路","SECT":" ","MAREA":" ","LANE":"５７巷","ALLEY":"４８弄","HOUSE_NO":"３６號","E_COORD97":165120.87238700001,"N_COORD97":2549904.6204400002,"ADDRESS":"本淵路５７巷４８弄３６號","OBJECTID":146964},"geometry":{"x":165120.87238700129,"y":2549904.620438002}},{"attributes":{"ID":146965,"DIS_CODE":0,"TOWNNAME":"關廟區","LI":"布袋里","LIN":"3鄰","STREET":"長文街","SECT":" ","MAREA":" ","LANE":"１３０巷","ALLEY":"５０弄","HOUSE_NO":"１６號","E_COORD97":182817.44,"N_COORD97":2535654.2999999998,"ADDRESS":"長文街１３０巷５０弄１６號","OBJECTID":146965},"geometry":{"x":182817.44000000041,"y":2535654.3000000007}},{"attributes":{"ID":146966,"DIS_CODE":0,"TOWNNAME":"關廟區","LI":"東勢里","LIN":"3鄰","STREET":"東安街","SECT":" ","MAREA":" ","LANE":"２４５巷","ALLEY":"６７弄","HOUSE_NO":"６號","E_COORD97":181639.22,"N_COORD97":2539512.3199999998,"ADDRESS":"東安街２４５巷６７弄６號","OBJECTID":146966},"geometry":{"x":181639.2200000016,"y":2539512.3200000003}},{"attributes":{"ID":146967,"DIS_CODE":0,"TOWNNAME":"關廟區","LI":"布袋里","LIN":"3鄰","STREET":"長文街","SECT":" ","MAREA":" ","LANE":"１３０巷","ALLEY":"５０弄","HOUSE_NO":"１８號","E_COORD97":182813.44,"N_COORD97":2535670.25,"ADDRESS":"長文街１３０巷５０弄１８號","OBJECTID":146967},"geometry":{"x":182813.44000000134,"y":2535670.2500000019}},{"attributes":{"ID":146968,"DIS_CODE":0,"TOWNNAME":"新營區","LI":"南紙里","LIN":"3鄰","STREET":"太子路","SECT":" ","MAREA":" ","LANE":"１５３巷","ALLEY":"１０弄","HOUSE_NO":"４號","E_COORD97":177928.76000000001,"N_COORD97":2577804.1099999999,"ADDRESS":"太子路１５３巷１０弄４號","OBJECTID":146968},"geometry":{"x":177928.76000000071,"y":2577804.1099999994}},{"attributes":{"ID":146969,"DIS_CODE":0,"TOWNNAME":"新營區","LI":"南紙里","LIN":"3鄰","STREET":"太子路","SECT":" ","MAREA":" ","LANE":"１５３巷","ALLEY":"１０弄","HOUSE_NO":"２號","E_COORD97":177931.82999999999,"N_COORD97":2577806.3100000001,"ADDRESS":"太子路１５３巷１０弄２號","OBJECTID":146969},"geometry":{"x":177931.83000000101,"y":2577806.3100000005}},{"attributes":{"ID":146970,"DIS_CODE":0,"TOWNNAME":"新營區","LI":"大宏里","LIN":"30鄰","STREET":"開元路","SECT":" ","MAREA":" ","LANE":" ","ALLEY":" ","HOUSE_NO":"２１號","E_COORD97":180801.79999999999,"N_COORD97":2578567.8399999999,"ADDRESS":"開元路２１號","OBJECTID":146970},"geometry":{"x":180801.80000000075,"y":2578567.8400000017}},{"attributes":{"ID":146971,"DIS_CODE":0,"TOWNNAME":"白河區","LI":"內角里","LIN":" ","STREET":" ","SECT":" ","MAREA":"內角","LANE":" ","ALLEY":" ","HOUSE_NO":"９５號","E_COORD97":192083.26999999999,"N_COORD97":2588579.1499999999,"ADDRESS":"內角９５號","OBJECTID":146971},"geometry":{"x":192083.27000000048,"y":2588579.1500000004}},{"attributes":{"ID":146972,"DIS_CODE":0,"TOWNNAME":"白河區","LI":"內角里","LIN":" ","STREET":" ","SECT":" ","MAREA":"內角","LANE":" ","ALLEY":" ","HOUSE_NO":"９７號","E_COORD97":192215.20999999999,"N_COORD97":2588788.3500000001,"ADDRESS":"內角９７號","OBJECTID":146972},"geometry":{"x":192215.20999999996,"y":2588788.3500000015}},{"attributes":{"ID":146973,"DIS_CODE":0,"TOWNNAME":"白河區","LI":"汴頭里","LIN":" ","STREET":" ","SECT":" ","MAREA":"內枋林","LANE":" ","ALLEY":" ","HOUSE_NO":"１９號","E_COORD97":193979.87,"N_COORD97":2585066.4399999999,"ADDRESS":"內枋林１９號","OBJECTID":146973},"geometry":{"x":193979.87000000104,"y":2585066.4399999995}},{"attributes":{"ID":146974,"DIS_CODE":0,"TOWNNAME":"白河區","LI":"汴頭里","LIN":" ","STREET":" ","SECT":" ","MAREA":"內枋林","LANE":" ","ALLEY":" ","HOUSE_NO":"２０號","E_COORD97":193923.54000000001,"N_COORD97":2585066.1600000001,"ADDRESS":"內枋林２０號","OBJECTID":146974},"geometry":{"x":193923.54000000004,"y":2585066.1600000001}},{"attributes":{"ID":146975,"DIS_CODE":0,"TOWNNAME":"白河區","LI":"汴頭里","LIN":" ","STREET":" ","SECT":" ","MAREA":"內枋林","LANE":" ","ALLEY":" ","HOUSE_NO":"５之１號","E_COORD97":194273.82000000001,"N_COORD97":2584960.4500000002,"ADDRESS":"內枋林５之１號","OBJECTID":146975},"geometry":{"x":194273.82000000123,"y":2584960.4500000011}},{"attributes":{"ID":146976,"DIS_CODE":0,"TOWNNAME":"白河區","LI":"崎內里","LIN":" ","STREET":" ","SECT":" ","MAREA":"內崎內","LANE":" ","ALLEY":" ","HOUSE_NO":"１７號","E_COORD97":195326.57999999999,"N_COORD97":2586415.9700000002,"ADDRESS":"內崎內１７號","OBJECTID":146976},"geometry":{"x":195326.58000000007,"y":2586415.9700000025}},{"attributes":{"ID":146977,"DIS_CODE":0,"TOWNNAME":"白河區","LI":"崎內里","LIN":" ","STREET":" ","SECT":" ","MAREA":"內崎內","LANE":" ","ALLEY":" ","HOUSE_NO":"２３之３號","E_COORD97":195223.10999999999,"N_COORD97":2587654.0800000001,"ADDRESS":"內崎內２３之３號","OBJECTID":146977},"geometry":{"x":195223.11000000127,"y":2587654.0800000001}},{"attributes":{"ID":146978,"DIS_CODE":0,"TOWNNAME":"白河區","LI":"崎內里","LIN":" ","STREET":" ","SECT":" ","MAREA":"內崎內","LANE":" ","ALLEY":" ","HOUSE_NO":"２５之１號","E_COORD97":194843.34,"N_COORD97":2587323.77,"ADDRESS":"內崎內２５之１號","OBJECTID":146978},"geometry":{"x":194843.33999999985,"y":2587323.7700000033}},{"attributes":{"ID":146979,"DIS_CODE":0,"TOWNNAME":"白河區","LI":"崎內里","LIN":" ","STREET":" ","SECT":" ","MAREA":"內崎內","LANE":" ","ALLEY":" ","HOUSE_NO":"２８之１號","E_COORD97":195314.29999999999,"N_COORD97":2587373.5699999998,"ADDRESS":"內崎內２８之１號","OBJECTID":146979},"geometry":{"x":195314.30000000075,"y":2587373.570000004}},{"attributes":{"ID":146980,"DIS_CODE":0,"TOWNNAME":"白河區","LI":"崎內里","LIN":" ","STREET":" ","SECT":" ","MAREA":"內崎內","LANE":" ","ALLEY":" ","HOUSE_NO":"３１號","E_COORD97":195369.64999999999,"N_COORD97":2587317.5699999998,"ADDRESS":"內崎內３１號","OBJECTID":146980},"geometry":{"x":195369.65000000224,"y":2587317.5700000003}},{"attributes":{"ID":146981,"DIS_CODE":0,"TOWNNAME":"白河區","LI":"崎內里","LIN":" ","STREET":" ","SECT":" ","MAREA":"內崎內","LANE":" ","ALLEY":" ","HOUSE_NO":"３３號","E_COORD97":195388.48999999999,"N_COORD97":2587180.73,"ADDRESS":"內崎內３３號","OBJECTID":146981},"geometry":{"x":195388.49000000022,"y":2587180.7300000023}},{"attributes":{"ID":146982,"DIS_CODE":0,"TOWNNAME":"白河區","LI":"崎內里","LIN":" ","STREET":" ","SECT":" ","MAREA":"內崎內","LANE":" ","ALLEY":" ","HOUSE_NO":"３８之３號","E_COORD97":195611.73000000001,"N_COORD97":2587008.1699999999,"ADDRESS":"內崎內３８之３號","OBJECTID":146982},"geometry":{"x":195611.73000000138,"y":2587008.1699999999}},{"attributes":{"ID":146983,"DIS_CODE":0,"TOWNNAME":"白河區","LI":"崎內里","LIN":" ","STREET":" ","SECT":" ","MAREA":"內崎內","LANE":" ","ALLEY":" ","HOUSE_NO":"４０之１號","E_COORD97":195606.23000000001,"N_COORD97":2587110.0299999998,"ADDRESS":"內崎內４０之１號","OBJECTID":146983},"geometry":{"x":195606.23000000045,"y":2587110.0299999993}},{"attributes":{"ID":146984,"DIS_CODE":0,"TOWNNAME":"佳里區","LI":"頂\u25A0里","LIN":"5鄰","STREET":" ","SECT":" ","MAREA":"頂\u25A0","LANE":" ","ALLEY":" ","HOUSE_NO":"５５號之１","E_COORD97":163217.88,"N_COORD97":2563818.4199999999,"ADDRESS":"頂\u25A0５５號之１","OBJECTID":146984},"geometry":{"x":163217.87999999989,"y":2563818.4200000018}},{"attributes":{"ID":146985,"DIS_CODE":0,"TOWNNAME":"新營區","LI":"新北里","LIN":"30鄰","STREET":"新北四街","SECT":" ","MAREA":" ","LANE":" ","ALLEY":" ","HOUSE_NO":"３１號","E_COORD97":178742.51999999999,"N_COORD97":2578932,"ADDRESS":"新北四街３１號","OBJECTID":146985},"geometry":{"x":178742.51999999955,"y":2578932.0000000019}},{"attributes":{"ID":146986,"DIS_CODE":0,"TOWNNAME":"新營區","LI":"新北里","LIN":"30鄰","STREET":"新北四街","SECT":" ","MAREA":" ","LANE":" ","ALLEY":" ","HOUSE_NO":"６６號","E_COORD97":178817.53,"N_COORD97":2579018.0099999998,"ADDRESS":"新北四街６６號","OBJECTID":146986},"geometry":{"x":178817.53000000119,"y":2579018.0099999998}},{"attributes":{"ID":146987,"DIS_CODE":0,"TOWNNAME":"新營區","LI":"王公里","LIN":"30鄰","STREET":"大德街","SECT":" ","MAREA":" ","LANE":" ","ALLEY":" ","HOUSE_NO":"９５號","E_COORD97":180476.78,"N_COORD97":2579514.02,"ADDRESS":"大德街９５號","OBJECTID":146987},"geometry":{"x":180476.78000000119,"y":2579514.0200000033}},{"attributes":{"ID":146988,"DIS_CODE":0,"TOWNNAME":"新營區","LI":"王公里","LIN":"30鄰","STREET":"大德街","SECT":" ","MAREA":" ","LANE":" ","ALLEY":" ","HOUSE_NO":"７１號","E_COORD97":180422.67999999999,"N_COORD97":2579523.1299999999,"ADDRESS":"大德街７１號","OBJECTID":146988},"geometry":{"x":180422.68000000063,"y":2579523.1300000027}},{"attributes":{"ID":146989,"DIS_CODE":0,"TOWNNAME":"新營區","LI":"大宏里","LIN":"30鄰","STREET":"大同路","SECT":" ","MAREA":" ","LANE":" ","ALLEY":" ","HOUSE_NO":"１４之６號","E_COORD97":180728.53,"N_COORD97":2578564.9199999999,"ADDRESS":"大同路１４之６號","OBJECTID":146989},"geometry":{"x":180728.53000000026,"y":2578564.9199999999}},{"attributes":{"ID":146990,"DIS_CODE":0,"TOWNNAME":"新營區","LI":"三仙里","LIN":"30鄰","STREET":"育德九街","SECT":" ","MAREA":" ","LANE":" ","ALLEY":" ","HOUSE_NO":"３１號","E_COORD97":179506.67999999999,"N_COORD97":2579167.5499999998,"ADDRESS":"育德九街３１號","OBJECTID":146990},"geometry":{"x":179506.67999999877,"y":2579167.5500000026}},{"attributes":{"ID":146991,"DIS_CODE":0,"TOWNNAME":"新營區","LI":"南紙里","LIN":"3鄰","STREET":"太子路","SECT":" ","MAREA":" ","LANE":"１５３巷","ALLEY":"１０弄","HOUSE_NO":"６號","E_COORD97":177924.59,"N_COORD97":2577803.02,"ADDRESS":"太子路１５３巷１０弄６號","OBJECTID":146991},"geometry":{"x":177924.59000000078,"y":2577803.0200000014}},{"attributes":{"ID":146992,"DIS_CODE":0,"TOWNNAME":"南區","LI":"廣州里","LIN":"3鄰","STREET":"健康路","SECT":"二段","MAREA":" ","LANE":"１１６巷","ALLEY":"７弄","HOUSE_NO":"１１號","E_COORD97":167360.25,"N_COORD97":2542506.27,"ADDRESS":"健康路二段１１６巷７弄１１號","OBJECTID":146992},"geometry":{"x":167360.25,"y":2542506.2699999977}},{"attributes":{"ID":146993,"DIS_CODE":0,"TOWNNAME":"南區","LI":"廣州里","LIN":"3鄰","STREET":"健康路","SECT":"二段","MAREA":" ","LANE":"１１６巷","ALLEY":"７弄","HOUSE_NO":"１３號","E_COORD97":167355.60999999999,"N_COORD97":2542508.3799999999,"ADDRESS":"健康路二段１１６巷７弄１３號","OBJECTID":146993},"geometry":{"x":167355.61000000127,"y":2542508.3800000027}},{"attributes":{"ID":146994,"DIS_CODE":0,"TOWNNAME":"南區","LI":"廣州里","LIN":"3鄰","STREET":"健康路","SECT":"二段","MAREA":" ","LANE":"１１６巷","ALLEY":"７弄","HOUSE_NO":"１號","E_COORD97":167384.32000000001,"N_COORD97":2542506.27,"ADDRESS":"健康路二段１１６巷７弄１號","OBJECTID":146994},"geometry":{"x":167384.32000000216,"y":2542506.2699999977}},{"attributes":{"ID":146995,"DIS_CODE":0,"TOWNNAME":"南區","LI":"廣州里","LIN":"3鄰","STREET":"健康路","SECT":"二段","MAREA":" ","LANE":"１１６巷","ALLEY":"７弄","HOUSE_NO":"３號","E_COORD97":167378.82999999999,"N_COORD97":2542507.1099999999,"ADDRESS":"健康路二段１１６巷７弄３號","OBJECTID":146995},"geometry":{"x":167378.83000000194,"y":2542507.1099999975}},{"attributes":{"ID":146996,"DIS_CODE":0,"TOWNNAME":"南區","LI":"廣州里","LIN":"3鄰","STREET":"健康路","SECT":"二段","MAREA":" ","LANE":"１１６巷","ALLEY":"７弄","HOUSE_NO":"５號","E_COORD97":167374.19,"N_COORD97":2542506.6899999999,"ADDRESS":"健康路二段１１６巷７弄５號","OBJECTID":146996},"geometry":{"x":167374.19000000041,"y":2542506.6899999976}},{"attributes":{"ID":146997,"DIS_CODE":0,"TOWNNAME":"南區","LI":"廣州里","LIN":"3鄰","STREET":"健康路","SECT":"二段","MAREA":" ","LANE":"１１６巷","ALLEY":"７弄","HOUSE_NO":"７號","E_COORD97":167370.39000000001,"N_COORD97":2542505.4300000002,"ADDRESS":"健康路二段１１６巷７弄７號","OBJECTID":146997},"geometry":{"x":167370.38999999966,"y":2542505.4300000034}},{"attributes":{"ID":146998,"DIS_CODE":0,"TOWNNAME":"新營區","LI":"大宏里","LIN":"30鄰","STREET":"大同路","SECT":" ","MAREA":" ","LANE":" ","ALLEY":" ","HOUSE_NO":"１４之９號","E_COORD97":180756.23000000001,"N_COORD97":2578583.6200000001,"ADDRESS":"大同路１４之９號","OBJECTID":146998},"geometry":{"x":180756.23000000045,"y":2578583.6200000029}},{"attributes":{"ID":146999,"DIS_CODE":0,"TOWNNAME":"南區","LI":"廣州里","LIN":"3鄰","STREET":"健康路","SECT":"二段","MAREA":" ","LANE":"１１６巷","ALLEY":"７弄","HOUSE_NO":"９號","E_COORD97":167364.89999999999,"N_COORD97":2542506.6899999999,"ADDRESS":"健康路二段１１６巷７弄９號","OBJECTID":146999},"geometry":{"x":167364.90000000037,"y":2542506.6899999976}},{"attributes":{"ID":147000,"DIS_CODE":0,"TOWNNAME":"歸仁區","LI":"武東里","LIN":"3鄰","STREET":"武東二街","SECT":" ","MAREA":" ","LANE":"２０巷","ALLEY":"２７弄","HOUSE_NO":"１６號","E_COORD97":175501.34,"N_COORD97":2535244.25,"ADDRESS":"武東二街２０巷２７弄１６號","OBJECTID":147000},"geometry":{"x":175501.33999999985,"y":2535244.25}}]}