{"displayFieldName":"TOWNNAME","fieldAliases":{"ID":"ID","DIS_CODE":"DIS_CODE","TOWNNAME":"TOWNNAME","LI":"LI","LIN":"LIN","STREET":"STREET","SECT":"SECT","MAREA":"MAREA","LANE":"LANE","ALLEY":"ALLEY","HOUSE_NO":"HOUSE_NO","E_COORD97":"E_COORD97","N_COORD97":"N_COORD97","ADDRESS":"ADDRESS","OBJECTID":"OBJECTID"},"geometryType":"esriGeometryPoint","spatialReference":{"wkid":102443,"latestWkid":3826},"fields":[{"name":"ID","type":"esriFieldTypeDouble","alias":"ID"},{"name":"DIS_CODE","type":"esriFieldTypeInteger","alias":"DIS_CODE"},{"name":"TOWNNAME","type":"esriFieldTypeString","alias":"TOWNNAME","length":8},{"name":"LI","type":"esriFieldTypeString","alias":"LI","length":8},{"name":"LIN","type":"esriFieldTypeString","alias":"LIN","length":12},{"name":"STREET","type":"esriFieldTypeString","alias":"STREET","length":20},{"name":"SECT","type":"esriFieldTypeString","alias":"SECT","length":8},{"name":"MAREA","type":"esriFieldTypeString","alias":"MAREA","length":12},{"name":"LANE","type":"esriFieldTypeString","alias":"LANE","length":10},{"name":"ALLEY","type":"esriFieldTypeString","alias":"ALLEY","length":10},{"name":"HOUSE_NO","type":"esriFieldTypeString","alias":"HOUSE_NO","length":20},{"name":"E_COORD97","type":"esriFieldTypeDouble","alias":"E_COORD97"},{"name":"N_COORD97","type":"esriFieldTypeDouble","alias":"N_COORD97"},{"name":"ADDRESS","type":"esriFieldTypeString","alias":"ADDRESS","length":50},{"name":"OBJECTID","type":"esriFieldTypeOID","alias":"OBJECTID"}],"features":[{"attributes":{"ID":521628,"DIS_CODE":0,"TOWNNAME":"歸仁區","LI":"六甲里","LIN":"31鄰","STREET":"民生十二街","SECT":" ","MAREA":" ","LANE":" ","ALLEY":" ","HOUSE_NO":"１６１號","E_COORD97":175641.92003400001,"N_COORD97":2539440.4419999998,"ADDRESS":"民生十二街１６１號","OBJECTID":521601},"geometry":{"x":175641.92003400065,"y":2539440.442003997}},{"attributes":{"ID":521629,"DIS_CODE":0,"TOWNNAME":"歸仁區","LI":"六甲里","LIN":"31鄰","STREET":"民生十二街","SECT":" ","MAREA":" ","LANE":" ","ALLEY":" ","HOUSE_NO":"１６９號","E_COORD97":175625.60624299999,"N_COORD97":2539441.3944999999,"ADDRESS":"民生十二街１６９號","OBJECTID":521602},"geometry":{"x":175625.60624300037,"y":2539441.3945030011}},{"attributes":{"ID":521630,"DIS_CODE":0,"TOWNNAME":"歸仁區","LI":"六甲里","LIN":"31鄰","STREET":"六甲六街","SECT":" ","MAREA":" ","LANE":" ","ALLEY":" ","HOUSE_NO":"７０號","E_COORD97":175625.92404400001,"N_COORD97":2539422.3974299999,"ADDRESS":"六甲六街７０號","OBJECTID":521603},"geometry":{"x":175625.92404399998,"y":2539422.3974300008}},{"attributes":{"ID":521631,"DIS_CODE":0,"TOWNNAME":"安平區","LI":"平通里","LIN":"31鄰","STREET":"育平路","SECT":" ","MAREA":" ","LANE":" ","ALLEY":" ","HOUSE_NO":"３３７號","E_COORD97":164639.63,"N_COORD97":2543769.0099999998,"ADDRESS":"育平路３３７號","OBJECTID":521604},"geometry":{"x":164639.63000000082,"y":2543769.0099999998}},{"attributes":{"ID":521632,"DIS_CODE":0,"TOWNNAME":"安平區","LI":"平通里","LIN":"31鄰","STREET":"育平路","SECT":" ","MAREA":" ","LANE":" ","ALLEY":" ","HOUSE_NO":"３３９號","E_COORD97":164640.26000000001,"N_COORD97":2543775.4100000001,"ADDRESS":"育平路３３９號","OBJECTID":521605},"geometry":{"x":164640.26000000071,"y":2543775.410000002}},{"attributes":{"ID":521633,"DIS_CODE":0,"TOWNNAME":"安平區","LI":"平通里","LIN":"31鄰","STREET":"育平路","SECT":" ","MAREA":" ","LANE":" ","ALLEY":" ","HOUSE_NO":"３４１號","E_COORD97":164639.91,"N_COORD97":2543780.6699999999,"ADDRESS":"育平路３４１號","OBJECTID":521606},"geometry":{"x":164639.91000000015,"y":2543780.6699999999}},{"attributes":{"ID":521634,"DIS_CODE":0,"TOWNNAME":"安平區","LI":"平通里","LIN":"31鄰","STREET":"育平路","SECT":" ","MAREA":" ","LANE":" ","ALLEY":" ","HOUSE_NO":"３４３號","E_COORD97":164640.14000000001,"N_COORD97":2543785.6899999999,"ADDRESS":"育平路３４３號","OBJECTID":521607},"geometry":{"x":164640.13999999873,"y":2543785.6900000013}},{"attributes":{"ID":521635,"DIS_CODE":0,"TOWNNAME":"安平區","LI":"平通里","LIN":"31鄰","STREET":"育平路","SECT":" ","MAREA":" ","LANE":" ","ALLEY":" ","HOUSE_NO":"３４５號","E_COORD97":164640.14000000001,"N_COORD97":2543789.6899999999,"ADDRESS":"育平路３４５號","OBJECTID":521608},"geometry":{"x":164640.13999999873,"y":2543789.6900000013}},{"attributes":{"ID":521636,"DIS_CODE":0,"TOWNNAME":"安平區","LI":"平通里","LIN":"31鄰","STREET":"育平路","SECT":" ","MAREA":" ","LANE":" ","ALLEY":" ","HOUSE_NO":"３４７號","E_COORD97":164641.39999999999,"N_COORD97":2543797.79,"ADDRESS":"育平路３４７號","OBJECTID":521609},"geometry":{"x":164641.4000000013,"y":2543797.7900000028}},{"attributes":{"ID":521637,"DIS_CODE":0,"TOWNNAME":"安平區","LI":"平通里","LIN":"31鄰","STREET":"育平路","SECT":" ","MAREA":" ","LANE":" ","ALLEY":" ","HOUSE_NO":"３４９號","E_COORD97":164641.75,"N_COORD97":2543803.1699999999,"ADDRESS":"育平路３４９號","OBJECTID":521610},"geometry":{"x":164641.75000000093,"y":2543803.1700000018}},{"attributes":{"ID":521638,"DIS_CODE":0,"TOWNNAME":"安平區","LI":"平通里","LIN":"31鄰","STREET":"育平路","SECT":" ","MAREA":" ","LANE":" ","ALLEY":" ","HOUSE_NO":"３５１號","E_COORD97":164641.75,"N_COORD97":2543808.0800000001,"ADDRESS":"育平路３５１號","OBJECTID":521611},"geometry":{"x":164641.75000000093,"y":2543808.0800000019}},{"attributes":{"ID":521639,"DIS_CODE":0,"TOWNNAME":"安平區","LI":"平通里","LIN":"31鄰","STREET":"育平路","SECT":" ","MAREA":" ","LANE":" ","ALLEY":" ","HOUSE_NO":"３５３號","E_COORD97":164641.85999999999,"N_COORD97":2543812.4199999999,"ADDRESS":"育平路３５３號","OBJECTID":521612},"geometry":{"x":164641.86000000127,"y":2543812.4200000018}},{"attributes":{"ID":521640,"DIS_CODE":0,"TOWNNAME":"安平區","LI":"平通里","LIN":"31鄰","STREET":"育平路","SECT":" ","MAREA":" ","LANE":" ","ALLEY":" ","HOUSE_NO":"３５５號","E_COORD97":164641.63,"N_COORD97":2543815.96,"ADDRESS":"育平路３５５號","OBJECTID":521613},"geometry":{"x":164641.62999999989,"y":2543815.9600000028}},{"attributes":{"ID":521641,"DIS_CODE":0,"TOWNNAME":"安平區","LI":"平通里","LIN":"31鄰","STREET":"育平路","SECT":" ","MAREA":" ","LANE":" ","ALLEY":" ","HOUSE_NO":"３５７號","E_COORD97":164641.17000000001,"N_COORD97":2543823.8799999999,"ADDRESS":"育平路３５７號","OBJECTID":521614},"geometry":{"x":164641.16999999993,"y":2543823.8800000027}},{"attributes":{"ID":521642,"DIS_CODE":0,"TOWNNAME":"新營區","LI":"王公里","LIN":"31鄰","STREET":"民族路","SECT":" ","MAREA":" ","LANE":" ","ALLEY":" ","HOUSE_NO":"２１７號","E_COORD97":180370.63,"N_COORD97":2579491.27,"ADDRESS":"民族路２１７號","OBJECTID":521615},"geometry":{"x":180370.63000000082,"y":2579491.2699999996}},{"attributes":{"ID":521643,"DIS_CODE":0,"TOWNNAME":"新營區","LI":"新北里","LIN":"31鄰","STREET":"新北六街","SECT":" ","MAREA":" ","LANE":" ","ALLEY":" ","HOUSE_NO":"１７號","E_COORD97":178712.29000000001,"N_COORD97":2579045.1000000001,"ADDRESS":"新北六街１７號","OBJECTID":521616},"geometry":{"x":178712.29000000004,"y":2579045.0999999996}},{"attributes":{"ID":521644,"DIS_CODE":0,"TOWNNAME":"歸仁區","LI":"南興里","LIN":"31鄰","STREET":"民生一街","SECT":" ","MAREA":" ","LANE":" ","ALLEY":" ","HOUSE_NO":"５３號","E_COORD97":176441.19,"N_COORD97":2541034.29,"ADDRESS":"民生一街５３號","OBJECTID":521617},"geometry":{"x":176441.19000000134,"y":2541034.2900000028}},{"attributes":{"ID":521645,"DIS_CODE":0,"TOWNNAME":"歸仁區","LI":"南保里","LIN":"31鄰","STREET":"民權八街","SECT":" ","MAREA":" ","LANE":" ","ALLEY":" ","HOUSE_NO":"４３號","E_COORD97":176872.48999999999,"N_COORD97":2540947.29,"ADDRESS":"民權八街４３號","OBJECTID":521618},"geometry":{"x":176872.49000000022,"y":2540947.290000001}},{"attributes":{"ID":521646,"DIS_CODE":0,"TOWNNAME":"歸仁區","LI":"南興里","LIN":"31鄰","STREET":"民生一街","SECT":" ","MAREA":" ","LANE":" ","ALLEY":" ","HOUSE_NO":"５９號","E_COORD97":176454.59,"N_COORD97":2541032.29,"ADDRESS":"民生一街５９號","OBJECTID":521619},"geometry":{"x":176454.59000000171,"y":2541032.290000001}},{"attributes":{"ID":521647,"DIS_CODE":0,"TOWNNAME":"歸仁區","LI":"南興里","LIN":"31鄰","STREET":"保興街","SECT":" ","MAREA":" ","LANE":" ","ALLEY":" ","HOUSE_NO":"３９號","E_COORD97":176491.32000000001,"N_COORD97":2541024.25,"ADDRESS":"保興街３９號","OBJECTID":521620},"geometry":{"x":176491.32000000123,"y":2541024.25}},{"attributes":{"ID":521648,"DIS_CODE":0,"TOWNNAME":"歸仁區","LI":"南興里","LIN":"31鄰","STREET":"民生一街","SECT":" ","MAREA":" ","LANE":" ","ALLEY":" ","HOUSE_NO":"７６號","E_COORD97":176451.39000000001,"N_COORD97":2541018.29,"ADDRESS":"民生一街７６號","OBJECTID":521621},"geometry":{"x":176451.3900000006,"y":2541018.290000001}},{"attributes":{"ID":521649,"DIS_CODE":0,"TOWNNAME":"歸仁區","LI":"南興里","LIN":"31鄰","STREET":"民生一街","SECT":" ","MAREA":" ","LANE":" ","ALLEY":" ","HOUSE_NO":"５５號","E_COORD97":176446.39000000001,"N_COORD97":2541032.29,"ADDRESS":"民生一街５５號","OBJECTID":521622},"geometry":{"x":176446.38999999966,"y":2541032.290000001}},{"attributes":{"ID":521650,"DIS_CODE":0,"TOWNNAME":"歸仁區","LI":"許厝里","LIN":"31鄰","STREET":"中山路","SECT":"一段","MAREA":" ","LANE":" ","ALLEY":" ","HOUSE_NO":"５５５號","E_COORD97":177860.81,"N_COORD97":2540730.25,"ADDRESS":"中山路一段５５５號","OBJECTID":521623},"geometry":{"x":177860.80999999959,"y":2540730.2499999981}},{"attributes":{"ID":521651,"DIS_CODE":0,"TOWNNAME":"歸仁區","LI":"許厝里","LIN":"31鄰","STREET":"和平南街","SECT":" ","MAREA":" ","LANE":" ","ALLEY":" ","HOUSE_NO":"１５號","E_COORD97":177833.91,"N_COORD97":2540687.5299999998,"ADDRESS":"和平南街１５號","OBJECTID":521624},"geometry":{"x":177833.91000000015,"y":2540687.5300000012}},{"attributes":{"ID":521652,"DIS_CODE":0,"TOWNNAME":"歸仁區","LI":"南興里","LIN":"31鄰","STREET":"保興街","SECT":" ","MAREA":" ","LANE":" ","ALLEY":" ","HOUSE_NO":"４５號","E_COORD97":176492.32000000001,"N_COORD97":2541037.25,"ADDRESS":"保興街４５號","OBJECTID":521625},"geometry":{"x":176492.31999999937,"y":2541037.2500000019}},{"attributes":{"ID":521653,"DIS_CODE":0,"TOWNNAME":"歸仁區","LI":"南興里","LIN":"31鄰","STREET":"保興街","SECT":" ","MAREA":" ","LANE":" ","ALLEY":" ","HOUSE_NO":"１９號","E_COORD97":176488.01999999999,"N_COORD97":2540982.25,"ADDRESS":"保興街１９號","OBJECTID":521626},"geometry":{"x":176488.01999999955,"y":2540982.2500000019}},{"attributes":{"ID":521654,"DIS_CODE":0,"TOWNNAME":"歸仁區","LI":"南興里","LIN":"31鄰","STREET":"保興街","SECT":" ","MAREA":" ","LANE":" ","ALLEY":" ","HOUSE_NO":"３５號","E_COORD97":176490.22,"N_COORD97":2541016.25,"ADDRESS":"保興街３５號","OBJECTID":521627},"geometry":{"x":176490.21999999974,"y":2541016.2500000019}},{"attributes":{"ID":521655,"DIS_CODE":0,"TOWNNAME":"歸仁區","LI":"後市里","LIN":"31鄰","STREET":"民族北街","SECT":" ","MAREA":" ","LANE":" ","ALLEY":" ","HOUSE_NO":"３７之１號","E_COORD97":177429.63,"N_COORD97":2540937.75,"ADDRESS":"民族北街３７之１號","OBJECTID":521628},"geometry":{"x":177429.63000000082,"y":2540937.7500000019}},{"attributes":{"ID":521656,"DIS_CODE":0,"TOWNNAME":"歸仁區","LI":"南興里","LIN":"31鄰","STREET":"保興街","SECT":" ","MAREA":" ","LANE":" ","ALLEY":" ","HOUSE_NO":"２３號","E_COORD97":176487.01999999999,"N_COORD97":2540991.25,"ADDRESS":"保興街２３號","OBJECTID":521629},"geometry":{"x":176487.02000000142,"y":2540991.25}},{"attributes":{"ID":521657,"DIS_CODE":0,"TOWNNAME":"歸仁區","LI":"南興里","LIN":"31鄰","STREET":"保興街","SECT":" ","MAREA":" ","LANE":" ","ALLEY":" ","HOUSE_NO":"４１號","E_COORD97":176492.32000000001,"N_COORD97":2541028.25,"ADDRESS":"保興街４１號","OBJECTID":521630},"geometry":{"x":176492.31999999937,"y":2541028.25}},{"attributes":{"ID":521658,"DIS_CODE":0,"TOWNNAME":"歸仁區","LI":"南興里","LIN":"31鄰","STREET":"保興街","SECT":" ","MAREA":" ","LANE":" ","ALLEY":" ","HOUSE_NO":"２１號","E_COORD97":176488.01999999999,"N_COORD97":2540987.25,"ADDRESS":"保興街２１號","OBJECTID":521631},"geometry":{"x":176488.01999999955,"y":2540987.25}},{"attributes":{"ID":521659,"DIS_CODE":0,"TOWNNAME":"歸仁區","LI":"南興里","LIN":"31鄰","STREET":"保興街","SECT":" ","MAREA":" ","LANE":" ","ALLEY":" ","HOUSE_NO":"３１號","E_COORD97":176490.22,"N_COORD97":2541009.25,"ADDRESS":"保興街３１號","OBJECTID":521632},"geometry":{"x":176490.21999999974,"y":2541009.2500000019}},{"attributes":{"ID":521660,"DIS_CODE":0,"TOWNNAME":"歸仁區","LI":"南興里","LIN":"31鄰","STREET":"保興街","SECT":" ","MAREA":" ","LANE":" ","ALLEY":" ","HOUSE_NO":"５１號","E_COORD97":176492.42000000001,"N_COORD97":2541048.25,"ADDRESS":"保興街５１號","OBJECTID":521633},"geometry":{"x":176492.41999999993,"y":2541048.25}},{"attributes":{"ID":521661,"DIS_CODE":0,"TOWNNAME":"歸仁區","LI":"南興里","LIN":"31鄰","STREET":"保興街","SECT":" ","MAREA":" ","LANE":" ","ALLEY":" ","HOUSE_NO":"３７號","E_COORD97":176491.22,"N_COORD97":2541020.25,"ADDRESS":"保興街３７號","OBJECTID":521634},"geometry":{"x":176491.22000000067,"y":2541020.2500000019}},{"attributes":{"ID":521662,"DIS_CODE":0,"TOWNNAME":"歸仁區","LI":"後市里","LIN":"31鄰","STREET":"民族北街","SECT":" ","MAREA":" ","LANE":" ","ALLEY":" ","HOUSE_NO":"６７號","E_COORD97":177424.23000000001,"N_COORD97":2540985.75,"ADDRESS":"民族北街６７號","OBJECTID":521635},"geometry":{"x":177424.23000000138,"y":2540985.7500000019}},{"attributes":{"ID":521663,"DIS_CODE":0,"TOWNNAME":"歸仁區","LI":"六甲里","LIN":"31鄰","STREET":"民生十二街","SECT":" ","MAREA":" ","LANE":" ","ALLEY":" ","HOUSE_NO":"１６７號","E_COORD97":175629.84359100001,"N_COORD97":2539440.86534,"ADDRESS":"民生十二街１６７號","OBJECTID":521636},"geometry":{"x":175629.84359100088,"y":2539440.8653370012}},{"attributes":{"ID":521664,"DIS_CODE":0,"TOWNNAME":"歸仁區","LI":"六甲里","LIN":"31鄰","STREET":"民生十二街","SECT":" ","MAREA":" ","LANE":" ","ALLEY":" ","HOUSE_NO":"１６５號","E_COORD97":175634.08094000001,"N_COORD97":2539440.86534,"ADDRESS":"民生十二街１６５號","OBJECTID":521637},"geometry":{"x":175634.08094000071,"y":2539440.8653370012}},{"attributes":{"ID":521665,"DIS_CODE":0,"TOWNNAME":"新營區","LI":"新北里","LIN":"31鄰","STREET":"新北六街","SECT":" ","MAREA":" ","LANE":" ","ALLEY":" ","HOUSE_NO":"８９號","E_COORD97":178841.25,"N_COORD97":2579047.7999999998,"ADDRESS":"新北六街８９號","OBJECTID":521638},"geometry":{"x":178841.25000000093,"y":2579047.8000000007}},{"attributes":{"ID":521666,"DIS_CODE":0,"TOWNNAME":"新營區","LI":"民榮里","LIN":"31鄰","STREET":"太子路","SECT":" ","MAREA":" ","LANE":" ","ALLEY":" ","HOUSE_NO":"４７號","E_COORD97":178326.20000000001,"N_COORD97":2578082.3599999999,"ADDRESS":"太子路４７號","OBJECTID":521639},"geometry":{"x":178326.20000000112,"y":2578082.3600000013}},{"attributes":{"ID":521667,"DIS_CODE":0,"TOWNNAME":"新營區","LI":"王公里","LIN":"31鄰","STREET":"大勇街","SECT":" ","MAREA":" ","LANE":" ","ALLEY":" ","HOUSE_NO":"７號","E_COORD97":180193.95999999999,"N_COORD97":2579435.6000000001,"ADDRESS":"大勇街７號","OBJECTID":521640},"geometry":{"x":180193.96000000089,"y":2579435.6000000034}},{"attributes":{"ID":521668,"DIS_CODE":0,"TOWNNAME":"新營區","LI":"新北里","LIN":"31鄰","STREET":"新北六街","SECT":" ","MAREA":" ","LANE":" ","ALLEY":" ","HOUSE_NO":"７３號","E_COORD97":178804.39999999999,"N_COORD97":2579050.1899999999,"ADDRESS":"新北六街７３號","OBJECTID":521641},"geometry":{"x":178804.4000000013,"y":2579050.1899999995}},{"attributes":{"ID":521669,"DIS_CODE":0,"TOWNNAME":"新營區","LI":"新北里","LIN":"31鄰","STREET":"新北六街","SECT":" ","MAREA":" ","LANE":" ","ALLEY":" ","HOUSE_NO":"８７號","E_COORD97":178836.14000000001,"N_COORD97":2579047.8300000001,"ADDRESS":"新北六街８７號","OBJECTID":521642},"geometry":{"x":178836.1400000006,"y":2579047.8299999982}},{"attributes":{"ID":521670,"DIS_CODE":0,"TOWNNAME":"北區","LI":"成德里","LIN":"31鄰","STREET":"和緯路","SECT":"二段","MAREA":" ","LANE":" ","ALLEY":" ","HOUSE_NO":"１５６號","E_COORD97":168832.85999999999,"N_COORD97":2545822.5,"ADDRESS":"和緯路二段１５６號","OBJECTID":521643},"geometry":{"x":168832.86000000034,"y":2545822.5000000019}},{"attributes":{"ID":521671,"DIS_CODE":0,"TOWNNAME":"北區","LI":"成德里","LIN":"31鄰","STREET":"和緯路","SECT":"二段","MAREA":" ","LANE":" ","ALLEY":" ","HOUSE_NO":"１５２號","E_COORD97":168837.45999999999,"N_COORD97":2545821.3799999999,"ADDRESS":"和緯路二段１５２號","OBJECTID":521644},"geometry":{"x":168837.46000000183,"y":2545821.3800000008}},{"attributes":{"ID":521672,"DIS_CODE":0,"TOWNNAME":"北區","LI":"成德里","LIN":"31鄰","STREET":"和緯路","SECT":"二段","MAREA":" ","LANE":" ","ALLEY":" ","HOUSE_NO":"１５０號","E_COORD97":168841.75,"N_COORD97":2545819.96,"ADDRESS":"和緯路二段１５０號","OBJECTID":521645},"geometry":{"x":168841.75,"y":2545819.9600000028}},{"attributes":{"ID":521673,"DIS_CODE":0,"TOWNNAME":"北區","LI":"成德里","LIN":"31鄰","STREET":"和緯路","SECT":"二段","MAREA":" ","LANE":" ","ALLEY":" ","HOUSE_NO":"１４８號","E_COORD97":168845.70999999999,"N_COORD97":2545818.3700000001,"ADDRESS":"和緯路二段１４８號","OBJECTID":521646},"geometry":{"x":168845.70999999903,"y":2545818.370000001}},{"attributes":{"ID":521674,"DIS_CODE":0,"TOWNNAME":"北區","LI":"成德里","LIN":"31鄰","STREET":"和緯路","SECT":"二段","MAREA":" ","LANE":" ","ALLEY":" ","HOUSE_NO":"１４６號","E_COORD97":168849.37,"N_COORD97":2545816.9399999999,"ADDRESS":"和緯路二段１４６號","OBJECTID":521647},"geometry":{"x":168849.37000000011,"y":2545816.9399999995}},{"attributes":{"ID":521675,"DIS_CODE":0,"TOWNNAME":"北區","LI":"成德里","LIN":"31鄰","STREET":"和緯路","SECT":"二段","MAREA":" ","LANE":" ","ALLEY":" ","HOUSE_NO":"１４２號","E_COORD97":168852.85999999999,"N_COORD97":2545815.8300000001,"ADDRESS":"和緯路二段１４２號","OBJECTID":521648},"geometry":{"x":168852.86000000034,"y":2545815.8300000038}},{"attributes":{"ID":521676,"DIS_CODE":0,"TOWNNAME":"北區","LI":"成德里","LIN":"31鄰","STREET":"和緯路","SECT":"二段","MAREA":" ","LANE":" ","ALLEY":" ","HOUSE_NO":"２３８號","E_COORD97":168682.92000000001,"N_COORD97":2545866.0699999998,"ADDRESS":"和緯路二段２３８號","OBJECTID":521649},"geometry":{"x":168682.91999999993,"y":2545866.0700000022}},{"attributes":{"ID":521677,"DIS_CODE":0,"TOWNNAME":"北區","LI":"大港里","LIN":"31鄰","STREET":"賢北街","SECT":" ","MAREA":" ","LANE":" ","ALLEY":" ","HOUSE_NO":"２３９號","E_COORD97":166159.14000000001,"N_COORD97":2545680.3500000001,"ADDRESS":"賢北街２３９號","OBJECTID":521650},"geometry":{"x":166159.14000000153,"y":2545680.3500000015}},{"attributes":{"ID":521678,"DIS_CODE":0,"TOWNNAME":"北區","LI":"大港里","LIN":"31鄰","STREET":"賢北街","SECT":" ","MAREA":" ","LANE":" ","ALLEY":" ","HOUSE_NO":"２４１號","E_COORD97":166161.84,"N_COORD97":2545682.9900000002,"ADDRESS":"賢北街２４１號","OBJECTID":521651},"geometry":{"x":166161.84000000078,"y":2545682.9900000021}},{"attributes":{"ID":521679,"DIS_CODE":0,"TOWNNAME":"北區","LI":"大港里","LIN":"31鄰","STREET":"賢北街","SECT":" ","MAREA":" ","LANE":" ","ALLEY":" ","HOUSE_NO":"２４５號","E_COORD97":166135.07000000001,"N_COORD97":2545684.9399999999,"ADDRESS":"賢北街２４５號","OBJECTID":521652},"geometry":{"x":166135.07000000123,"y":2545684.9399999995}},{"attributes":{"ID":521680,"DIS_CODE":0,"TOWNNAME":"新營區","LI":"三仙里","LIN":"31鄰","STREET":"育德街","SECT":" ","MAREA":" ","LANE":" ","ALLEY":" ","HOUSE_NO":"１２３號","E_COORD97":179590.09,"N_COORD97":2579257.9700000002,"ADDRESS":"育德街１２３號","OBJECTID":521653},"geometry":{"x":179590.08999999985,"y":2579257.9700000044}},{"attributes":{"ID":521681,"DIS_CODE":0,"TOWNNAME":"新營區","LI":"三仙里","LIN":"31鄰","STREET":"育德街","SECT":" ","MAREA":" ","LANE":" ","ALLEY":" ","HOUSE_NO":"１３１號","E_COORD97":179589.16,"N_COORD97":2579276.7999999998,"ADDRESS":"育德街１３１號","OBJECTID":521654},"geometry":{"x":179589.16000000108,"y":2579276.8000000026}},{"attributes":{"ID":521682,"DIS_CODE":0,"TOWNNAME":"新營區","LI":"三仙里","LIN":"31鄰","STREET":"育德街","SECT":" ","MAREA":" ","LANE":" ","ALLEY":" ","HOUSE_NO":"１２１號","E_COORD97":179590.07000000001,"N_COORD97":2579253.54,"ADDRESS":"育德街１２１號","OBJECTID":521655},"geometry":{"x":179590.07000000123,"y":2579253.540000001}},{"attributes":{"ID":521683,"DIS_CODE":0,"TOWNNAME":"新營區","LI":"三仙里","LIN":"31鄰","STREET":"育德街","SECT":" ","MAREA":" ","LANE":" ","ALLEY":" ","HOUSE_NO":"１２５號","E_COORD97":179590.10999999999,"N_COORD97":2579261.29,"ADDRESS":"育德街１２５號","OBJECTID":521656},"geometry":{"x":179590.11000000127,"y":2579261.290000001}},{"attributes":{"ID":521684,"DIS_CODE":0,"TOWNNAME":"新營區","LI":"三仙里","LIN":"31鄰","STREET":"育德街","SECT":" ","MAREA":" ","LANE":" ","ALLEY":" ","HOUSE_NO":"１３５號","E_COORD97":179589.20999999999,"N_COORD97":2579286.7599999998,"ADDRESS":"育德街１３５號","OBJECTID":521657},"geometry":{"x":179589.20999999996,"y":2579286.7600000016}},{"attributes":{"ID":521685,"DIS_CODE":0,"TOWNNAME":"歸仁區","LI":"六甲里","LIN":"31鄰","STREET":"民生十二街","SECT":" ","MAREA":" ","LANE":" ","ALLEY":" ","HOUSE_NO":"１５７號","E_COORD97":175650.39473100001,"N_COORD97":2539440.2303399998,"ADDRESS":"民生十二街１５７號","OBJECTID":521658},"geometry":{"x":175650.39473100007,"y":2539440.2303370014}},{"attributes":{"ID":521686,"DIS_CODE":0,"TOWNNAME":"安平區","LI":"平通里","LIN":"31鄰","STREET":"育平七街","SECT":" ","MAREA":" ","LANE":" ","ALLEY":" ","HOUSE_NO":"１３９號","E_COORD97":164345.13,"N_COORD97":2543763.7200000002,"ADDRESS":"育平七街１３９號","OBJECTID":521659},"geometry":{"x":164345.12999999989,"y":2543763.7200000025}},{"attributes":{"ID":521687,"DIS_CODE":0,"TOWNNAME":"安平區","LI":"平通里","LIN":"31鄰","STREET":"育平七街","SECT":" ","MAREA":" ","LANE":" ","ALLEY":" ","HOUSE_NO":"３６號","E_COORD97":164576.23999999999,"N_COORD97":2543779.8900000001,"ADDRESS":"育平七街３６號","OBJECTID":521660},"geometry":{"x":164576.24000000115,"y":2543779.8900000006}},{"attributes":{"ID":521688,"DIS_CODE":0,"TOWNNAME":"安平區","LI":"平通里","LIN":"31鄰","STREET":"育平七街","SECT":" ","MAREA":" ","LANE":" ","ALLEY":" ","HOUSE_NO":"３８號","E_COORD97":164570.53,"N_COORD97":2543780.21,"ADDRESS":"育平七街３８號","OBJECTID":521661},"geometry":{"x":164570.53000000212,"y":2543780.2100000028}},{"attributes":{"ID":521689,"DIS_CODE":0,"TOWNNAME":"安平區","LI":"平通里","LIN":"31鄰","STREET":"育平七街","SECT":" ","MAREA":" ","LANE":" ","ALLEY":" ","HOUSE_NO":"４０號","E_COORD97":164564.97,"N_COORD97":2543779.5800000001,"ADDRESS":"育平七街４０號","OBJECTID":521662},"geometry":{"x":164564.96999999974,"y":2543779.5800000038}},{"attributes":{"ID":521690,"DIS_CODE":0,"TOWNNAME":"安平區","LI":"平通里","LIN":"31鄰","STREET":"育平七街","SECT":" ","MAREA":" ","LANE":" ","ALLEY":" ","HOUSE_NO":"４２號","E_COORD97":164559.89000000001,"N_COORD97":2543780.3700000001,"ADDRESS":"育平七街４２號","OBJECTID":521663},"geometry":{"x":164559.88999999966,"y":2543780.3700000029}},{"attributes":{"ID":521691,"DIS_CODE":0,"TOWNNAME":"安平區","LI":"平通里","LIN":"31鄰","STREET":"育平七街","SECT":" ","MAREA":" ","LANE":" ","ALLEY":" ","HOUSE_NO":"４６號","E_COORD97":164553.54000000001,"N_COORD97":2543771.96,"ADDRESS":"育平七街４６號","OBJECTID":521664},"geometry":{"x":164553.54000000097,"y":2543771.9600000028}},{"attributes":{"ID":521692,"DIS_CODE":0,"TOWNNAME":"安平區","LI":"平通里","LIN":"31鄰","STREET":"育平路","SECT":" ","MAREA":" ","LANE":" ","ALLEY":" ","HOUSE_NO":"３２１號","E_COORD97":164634.53,"N_COORD97":2543681.2400000002,"ADDRESS":"育平路３２１號","OBJECTID":521665},"geometry":{"x":164634.53000000026,"y":2543681.2400000021}},{"attributes":{"ID":521693,"DIS_CODE":0,"TOWNNAME":"安平區","LI":"平通里","LIN":"31鄰","STREET":"育平七街","SECT":" ","MAREA":" ","LANE":" ","ALLEY":" ","HOUSE_NO":"５０號","E_COORD97":164508.89999999999,"N_COORD97":2543780.0499999998,"ADDRESS":"育平七街５０號","OBJECTID":521666},"geometry":{"x":164508.9000000013,"y":2543780.0500000007}},{"attributes":{"ID":521694,"DIS_CODE":0,"TOWNNAME":"永康區","LI":"永康里","LIN":"31鄰","STREET":"聖龍街","SECT":" ","MAREA":" ","LANE":" ","ALLEY":" ","HOUSE_NO":"２０８號","E_COORD97":174268.04999999999,"N_COORD97":2547841.0299999998,"ADDRESS":"聖龍街２０８號","OBJECTID":521667},"geometry":{"x":174268.05000000168,"y":2547841.0300000031}},{"attributes":{"ID":521695,"DIS_CODE":0,"TOWNNAME":"歸仁區","LI":"許厝里","LIN":"31鄰","STREET":"和平南街","SECT":" ","MAREA":" ","LANE":" ","ALLEY":" ","HOUSE_NO":"１９號","E_COORD97":177832.91,"N_COORD97":2540680.5299999998,"ADDRESS":"和平南街１９號","OBJECTID":521668},"geometry":{"x":177832.91000000108,"y":2540680.5300000031}},{"attributes":{"ID":521696,"DIS_CODE":0,"TOWNNAME":"歸仁區","LI":"許厝里","LIN":"31鄰","STREET":"和平南街","SECT":" ","MAREA":" ","LANE":" ","ALLEY":" ","HOUSE_NO":"１７號","E_COORD97":177832.91,"N_COORD97":2540684.5299999998,"ADDRESS":"和平南街１７號","OBJECTID":521669},"geometry":{"x":177832.91000000108,"y":2540684.5300000012}},{"attributes":{"ID":521697,"DIS_CODE":0,"TOWNNAME":"歸仁區","LI":"南保里","LIN":"31鄰","STREET":"民權八街","SECT":" ","MAREA":" ","LANE":" ","ALLEY":" ","HOUSE_NO":"２９號","E_COORD97":176904.70999999999,"N_COORD97":2540965.25,"ADDRESS":"民權八街２９號","OBJECTID":521670},"geometry":{"x":176904.71000000183,"y":2540965.2500000019}},{"attributes":{"ID":521698,"DIS_CODE":0,"TOWNNAME":"歸仁區","LI":"辜厝里","LIN":"31鄰","STREET":"中正南路","SECT":"一段","MAREA":" ","LANE":" ","ALLEY":" ","HOUSE_NO":"１９０號","E_COORD97":177374.16,"N_COORD97":2540406.9500000002,"ADDRESS":"中正南路一段１９０號","OBJECTID":521671},"geometry":{"x":177374.16000000015,"y":2540406.9500000011}},{"attributes":{"ID":521699,"DIS_CODE":0,"TOWNNAME":"歸仁區","LI":"辜厝里","LIN":"31鄰","STREET":"大順三街","SECT":" ","MAREA":" ","LANE":" ","ALLEY":" ","HOUSE_NO":"８８號","E_COORD97":177402.32999999999,"N_COORD97":2540439.9500000002,"ADDRESS":"大順三街８８號","OBJECTID":521672},"geometry":{"x":177402.32999999914,"y":2540439.9499999974}},{"attributes":{"ID":521700,"DIS_CODE":0,"TOWNNAME":"歸仁區","LI":"辜厝里","LIN":"31鄰","STREET":"中正南路","SECT":"一段","MAREA":" ","LANE":" ","ALLEY":" ","HOUSE_NO":"１７２號","E_COORD97":177402.85999999999,"N_COORD97":2540395.9500000002,"ADDRESS":"中正南路一段１７２號","OBJECTID":521673},"geometry":{"x":177402.86000000127,"y":2540395.9499999974}},{"attributes":{"ID":521701,"DIS_CODE":0,"TOWNNAME":"歸仁區","LI":"許厝里","LIN":"31鄰","STREET":"和平南街","SECT":" ","MAREA":" ","LANE":" ","ALLEY":" ","HOUSE_NO":"２３號","E_COORD97":177832.91,"N_COORD97":2540674.5299999998,"ADDRESS":"和平南街２３號","OBJECTID":521674},"geometry":{"x":177832.91000000108,"y":2540674.5300000012}},{"attributes":{"ID":521702,"DIS_CODE":0,"TOWNNAME":"歸仁區","LI":"許厝里","LIN":"31鄰","STREET":"和平南街","SECT":" ","MAREA":" ","LANE":" ","ALLEY":" ","HOUSE_NO":"１３號","E_COORD97":177834.01000000001,"N_COORD97":2540691.5299999998,"ADDRESS":"和平南街１３號","OBJECTID":521675},"geometry":{"x":177834.01000000071,"y":2540691.5300000012}},{"attributes":{"ID":521703,"DIS_CODE":0,"TOWNNAME":"歸仁區","LI":"許厝里","LIN":"31鄰","STREET":"和平南街","SECT":" ","MAREA":" ","LANE":" ","ALLEY":" ","HOUSE_NO":"３５號","E_COORD97":177829.70999999999,"N_COORD97":2540652.5299999998,"ADDRESS":"和平南街３５號","OBJECTID":521676},"geometry":{"x":177829.70999999996,"y":2540652.5299999993}},{"attributes":{"ID":521704,"DIS_CODE":0,"TOWNNAME":"歸仁區","LI":"南保里","LIN":"31鄰","STREET":"民權八街","SECT":" ","MAREA":" ","LANE":" ","ALLEY":" ","HOUSE_NO":"３７號","E_COORD97":176889.31,"N_COORD97":2540967.25,"ADDRESS":"民權八街３７號","OBJECTID":521677},"geometry":{"x":176889.30999999959,"y":2540967.25}},{"attributes":{"ID":521705,"DIS_CODE":0,"TOWNNAME":"歸仁區","LI":"許厝里","LIN":"31鄰","STREET":"和平南街","SECT":" ","MAREA":" ","LANE":" ","ALLEY":" ","HOUSE_NO":"２７號","E_COORD97":177830.81,"N_COORD97":2540666.5299999998,"ADDRESS":"和平南街２７號","OBJECTID":521678},"geometry":{"x":177830.80999999959,"y":2540666.5299999993}},{"attributes":{"ID":521706,"DIS_CODE":0,"TOWNNAME":"歸仁區","LI":"許厝里","LIN":"31鄰","STREET":"和平南街","SECT":" ","MAREA":" ","LANE":" ","ALLEY":" ","HOUSE_NO":"２１號","E_COORD97":177832.91,"N_COORD97":2540677.5299999998,"ADDRESS":"和平南街２１號","OBJECTID":521679},"geometry":{"x":177832.91000000108,"y":2540677.5300000012}},{"attributes":{"ID":521707,"DIS_CODE":0,"TOWNNAME":"歸仁區","LI":"後市里","LIN":"31鄰","STREET":"民族北街","SECT":" ","MAREA":" ","LANE":" ","ALLEY":" ","HOUSE_NO":"３７號","E_COORD97":177429.13,"N_COORD97":2540932.75,"ADDRESS":"民族北街３７號","OBJECTID":521680},"geometry":{"x":177429.13000000175,"y":2540932.75}},{"attributes":{"ID":521708,"DIS_CODE":0,"TOWNNAME":"歸仁區","LI":"南保里","LIN":"31鄰","STREET":"民權八街","SECT":" ","MAREA":" ","LANE":" ","ALLEY":" ","HOUSE_NO":"３１號","E_COORD97":176901.60999999999,"N_COORD97":2540965.25,"ADDRESS":"民權八街３１號","OBJECTID":521681},"geometry":{"x":176901.61000000034,"y":2540965.2500000019}},{"attributes":{"ID":521709,"DIS_CODE":0,"TOWNNAME":"歸仁區","LI":"南保里","LIN":"31鄰","STREET":"民權八街","SECT":" ","MAREA":" ","LANE":" ","ALLEY":" ","HOUSE_NO":"５１號","E_COORD97":176819.60999999999,"N_COORD97":2540973.25,"ADDRESS":"民權八街５１號","OBJECTID":521682},"geometry":{"x":176819.61000000127,"y":2540973.25}},{"attributes":{"ID":521710,"DIS_CODE":0,"TOWNNAME":"歸仁區","LI":"南保里","LIN":"31鄰","STREET":"民權八街","SECT":" ","MAREA":" ","LANE":" ","ALLEY":" ","HOUSE_NO":"４１號","E_COORD97":176853.31,"N_COORD97":2540947.25,"ADDRESS":"民權八街４１號","OBJECTID":521683},"geometry":{"x":176853.31000000052,"y":2540947.2499999981}},{"attributes":{"ID":521711,"DIS_CODE":0,"TOWNNAME":"歸仁區","LI":"南保里","LIN":"31鄰","STREET":"民權八街","SECT":" ","MAREA":" ","LANE":" ","ALLEY":" ","HOUSE_NO":"４９號","E_COORD97":176824.51000000001,"N_COORD97":2540937.25,"ADDRESS":"民權八街４９號","OBJECTID":521684},"geometry":{"x":176824.51000000164,"y":2540937.2500000037}},{"attributes":{"ID":521712,"DIS_CODE":0,"TOWNNAME":"歸仁區","LI":"南保里","LIN":"31鄰","STREET":"民權八街","SECT":" ","MAREA":" ","LANE":" ","ALLEY":" ","HOUSE_NO":"２７號","E_COORD97":176908.81,"N_COORD97":2540965.25,"ADDRESS":"民權八街２７號","OBJECTID":521685},"geometry":{"x":176908.81000000145,"y":2540965.2500000019}},{"attributes":{"ID":521713,"DIS_CODE":0,"TOWNNAME":"歸仁區","LI":"許厝里","LIN":"31鄰","STREET":"和平南街","SECT":" ","MAREA":" ","LANE":" ","ALLEY":" ","HOUSE_NO":"３７號","E_COORD97":177828.60999999999,"N_COORD97":2540648.5299999998,"ADDRESS":"和平南街３７號","OBJECTID":521686},"geometry":{"x":177828.61000000127,"y":2540648.5299999993}},{"attributes":{"ID":521714,"DIS_CODE":0,"TOWNNAME":"歸仁區","LI":"南保里","LIN":"31鄰","STREET":"民權八街","SECT":" ","MAREA":" ","LANE":" ","ALLEY":" ","HOUSE_NO":"２５號","E_COORD97":176911.81,"N_COORD97":2540964.25,"ADDRESS":"民權八街２５號","OBJECTID":521687},"geometry":{"x":176911.80999999959,"y":2540964.2499999981}},{"attributes":{"ID":521715,"DIS_CODE":0,"TOWNNAME":"新營區","LI":"大宏里","LIN":"31鄰","STREET":"三民路","SECT":" ","MAREA":" ","LANE":" ","ALLEY":" ","HOUSE_NO":"４４之５號","E_COORD97":180405.60000000001,"N_COORD97":2578611.8399999999,"ADDRESS":"三民路４４之５號","OBJECTID":521688},"geometry":{"x":180405.5999999987,"y":2578611.8400000017}},{"attributes":{"ID":521716,"DIS_CODE":0,"TOWNNAME":"新營區","LI":"大宏里","LIN":"31鄰","STREET":"同濟街","SECT":" ","MAREA":" ","LANE":" ","ALLEY":" ","HOUSE_NO":"１０５號","E_COORD97":180449.42999999999,"N_COORD97":2578643.7000000002,"ADDRESS":"同濟街１０５號","OBJECTID":521689},"geometry":{"x":180449.43000000156,"y":2578643.6999999993}},{"attributes":{"ID":521717,"DIS_CODE":0,"TOWNNAME":"新營區","LI":"大宏里","LIN":"31鄰","STREET":"三民路","SECT":" ","MAREA":" ","LANE":" ","ALLEY":" ","HOUSE_NO":"４４號之１７","E_COORD97":180415.73999999999,"N_COORD97":2578605.1499999999,"ADDRESS":"三民路４４號之１７","OBJECTID":521690},"geometry":{"x":180415.74000000115,"y":2578605.1500000004}},{"attributes":{"ID":521718,"DIS_CODE":0,"TOWNNAME":"新營區","LI":"大宏里","LIN":"31鄰","STREET":"三民路","SECT":" ","MAREA":" ","LANE":" ","ALLEY":" ","HOUSE_NO":"４４之４號","E_COORD97":180391.23999999999,"N_COORD97":2578603.0499999998,"ADDRESS":"三民路４４之４號","OBJECTID":521691},"geometry":{"x":180391.24000000022,"y":2578603.0500000045}},{"attributes":{"ID":521719,"DIS_CODE":0,"TOWNNAME":"新營區","LI":"大宏里","LIN":"31鄰","STREET":"三民路","SECT":" ","MAREA":" ","LANE":" ","ALLEY":" ","HOUSE_NO":"３８號之８","E_COORD97":180395.95999999999,"N_COORD97":2578562.0499999998,"ADDRESS":"三民路３８號之８","OBJECTID":521692},"geometry":{"x":180395.96000000089,"y":2578562.0500000007}},{"attributes":{"ID":521720,"DIS_CODE":0,"TOWNNAME":"新營區","LI":"大宏里","LIN":"31鄰","STREET":"三民路","SECT":" ","MAREA":" ","LANE":" ","ALLEY":" ","HOUSE_NO":"４４號","E_COORD97":180379.45999999999,"N_COORD97":2578587.54,"ADDRESS":"三民路４４號","OBJECTID":521693},"geometry":{"x":180379.45999999996,"y":2578587.5399999991}},{"attributes":{"ID":521721,"DIS_CODE":0,"TOWNNAME":"新營區","LI":"大宏里","LIN":"31鄰","STREET":"三民路","SECT":" ","MAREA":" ","LANE":" ","ALLEY":" ","HOUSE_NO":"４４號之１１","E_COORD97":180420.67999999999,"N_COORD97":2578584.0899999999,"ADDRESS":"三民路４４號之１１","OBJECTID":521694},"geometry":{"x":180420.68000000063,"y":2578584.0899999999}},{"attributes":{"ID":521722,"DIS_CODE":0,"TOWNNAME":"新營區","LI":"大宏里","LIN":"31鄰","STREET":"同濟街","SECT":" ","MAREA":" ","LANE":" ","ALLEY":" ","HOUSE_NO":"１０７號","E_COORD97":180449.45999999999,"N_COORD97":2578649.23,"ADDRESS":"同濟街１０７號","OBJECTID":521695},"geometry":{"x":180449.46000000183,"y":2578649.2300000042}},{"attributes":{"ID":521723,"DIS_CODE":0,"TOWNNAME":"新化區","LI":"東榮里","LIN":"31鄰","STREET":"中正路","SECT":" ","MAREA":" ","LANE":" ","ALLEY":" ","HOUSE_NO":"３５２號","E_COORD97":179117.70999999999,"N_COORD97":2548315.25,"ADDRESS":"中正路３５２號","OBJECTID":521696},"geometry":{"x":179117.71000000089,"y":2548315.2500000019}},{"attributes":{"ID":521724,"DIS_CODE":0,"TOWNNAME":"新化區","LI":"東榮里","LIN":"31鄰","STREET":"信義路","SECT":" ","MAREA":" ","LANE":" ","ALLEY":" ","HOUSE_NO":"１９９號","E_COORD97":179177.63,"N_COORD97":2548295.25,"ADDRESS":"信義路１９９號","OBJECTID":521697},"geometry":{"x":179177.63000000082,"y":2548295.2500000019}},{"attributes":{"ID":521725,"DIS_CODE":0,"TOWNNAME":"新化區","LI":"東榮里","LIN":"31鄰","STREET":"信義路","SECT":" ","MAREA":" ","LANE":" ","ALLEY":" ","HOUSE_NO":"１９７號","E_COORD97":179171.13,"N_COORD97":2548302.25,"ADDRESS":"信義路１９７號","OBJECTID":521698},"geometry":{"x":179171.12999999989,"y":2548302.2500000019}},{"attributes":{"ID":521726,"DIS_CODE":0,"TOWNNAME":"新化區","LI":"東榮里","LIN":"31鄰","STREET":"信義路","SECT":" ","MAREA":" ","LANE":" ","ALLEY":" ","HOUSE_NO":"２０５號","E_COORD97":179155.63,"N_COORD97":2548325.25,"ADDRESS":"信義路２０５號","OBJECTID":521699},"geometry":{"x":179155.62999999989,"y":2548325.2500000019}},{"attributes":{"ID":521727,"DIS_CODE":0,"TOWNNAME":"新化區","LI":"東榮里","LIN":"31鄰","STREET":"信義路","SECT":" ","MAREA":" ","LANE":" ","ALLEY":" ","HOUSE_NO":"２２５號","E_COORD97":179126.92999999999,"N_COORD97":2548321.25,"ADDRESS":"信義路２２５號","OBJECTID":521700},"geometry":{"x":179126.9299999997,"y":2548321.25}},{"attributes":{"ID":521728,"DIS_CODE":0,"TOWNNAME":"新化區","LI":"東榮里","LIN":"31鄰","STREET":"中正路","SECT":" ","MAREA":" ","LANE":" ","ALLEY":" ","HOUSE_NO":"３４６號之１","E_COORD97":179117.54000000001,"N_COORD97":2548306.2599999998,"ADDRESS":"中正路３４６號之１","OBJECTID":521701},"geometry":{"x":179117.54000000004,"y":2548306.2599999998}},{"attributes":{"ID":521729,"DIS_CODE":0,"TOWNNAME":"新化區","LI":"東榮里","LIN":"31鄰","STREET":"中興路","SECT":" ","MAREA":" ","LANE":" ","ALLEY":" ","HOUSE_NO":"８５０號","E_COORD97":179143.91,"N_COORD97":2548259.25,"ADDRESS":"中興路８５０號","OBJECTID":521702},"geometry":{"x":179143.91000000015,"y":2548259.25}},{"attributes":{"ID":521730,"DIS_CODE":0,"TOWNNAME":"北區","LI":"成德里","LIN":"31鄰","STREET":"和緯路","SECT":"二段","MAREA":" ","LANE":" ","ALLEY":" ","HOUSE_NO":"１６２號","E_COORD97":168794.84,"N_COORD97":2545832.0099999998,"ADDRESS":"和緯路二段１６２號","OBJECTID":521703},"geometry":{"x":168794.83999999985,"y":2545832.0100000016}},{"attributes":{"ID":521731,"DIS_CODE":0,"TOWNNAME":"安平區","LI":"國平里","LIN":"31鄰","STREET":"健康三街","SECT":" ","MAREA":" ","LANE":" ","ALLEY":" ","HOUSE_NO":"１０號","E_COORD97":164703.12,"N_COORD97":2542891.6899999999,"ADDRESS":"健康三街１０號","OBJECTID":521704},"geometry":{"x":164703.12000000011,"y":2542891.6900000013}},{"attributes":{"ID":521732,"DIS_CODE":0,"TOWNNAME":"永康區","LI":"埔園里","LIN":"31鄰","STREET":"八德街","SECT":" ","MAREA":" ","LANE":" ","ALLEY":" ","HOUSE_NO":"１２８號","E_COORD97":174012.04000000001,"N_COORD97":2548553.23,"ADDRESS":"八德街１２８號","OBJECTID":521705},"geometry":{"x":174012.04000000004,"y":2548553.2300000023}},{"attributes":{"ID":521733,"DIS_CODE":0,"TOWNNAME":"永康區","LI":"埔園里","LIN":"31鄰","STREET":"八德街","SECT":" ","MAREA":" ","LANE":" ","ALLEY":" ","HOUSE_NO":"１３０號","E_COORD97":174008.54000000001,"N_COORD97":2548553.71,"ADDRESS":"八德街１３０號","OBJECTID":521706},"geometry":{"x":174008.54000000004,"y":2548553.7100000028}},{"attributes":{"ID":521734,"DIS_CODE":0,"TOWNNAME":"永康區","LI":"埔園里","LIN":"31鄰","STREET":"八德街","SECT":" ","MAREA":" ","LANE":" ","ALLEY":" ","HOUSE_NO":"１３８號","E_COORD97":173993.28,"N_COORD97":2548552.0800000001,"ADDRESS":"八德街１３８號","OBJECTID":521707},"geometry":{"x":173993.28000000026,"y":2548552.0800000001}},{"attributes":{"ID":521735,"DIS_CODE":0,"TOWNNAME":"永康區","LI":"埔園里","LIN":"31鄰","STREET":"八德街","SECT":" ","MAREA":" ","LANE":" ","ALLEY":" ","HOUSE_NO":"１２６號","E_COORD97":174016.64000000001,"N_COORD97":2548550.7200000002,"ADDRESS":"八德街１２６號","OBJECTID":521708},"geometry":{"x":174016.6400000006,"y":2548550.7200000025}},{"attributes":{"ID":521736,"DIS_CODE":0,"TOWNNAME":"永康區","LI":"埔園里","LIN":"31鄰","STREET":"永大路","SECT":"三段","MAREA":" ","LANE":" ","ALLEY":" ","HOUSE_NO":"５１９號","E_COORD97":173941.82999999999,"N_COORD97":2548927.8399999999,"ADDRESS":"永大路三段５１９號","OBJECTID":521709},"geometry":{"x":173941.83000000007,"y":2548927.8400000036}},{"attributes":{"ID":521737,"DIS_CODE":0,"TOWNNAME":"永康區","LI":"復華里","LIN":"31鄰","STREET":"復國一路","SECT":" ","MAREA":" ","LANE":" ","ALLEY":" ","HOUSE_NO":"５８８號","E_COORD97":172471.76000000001,"N_COORD97":2546353.0899999999,"ADDRESS":"復國一路５８８號","OBJECTID":521710},"geometry":{"x":172471.76000000071,"y":2546353.0900000017}},{"attributes":{"ID":521738,"DIS_CODE":0,"TOWNNAME":"永康區","LI":"復華里","LIN":"31鄰","STREET":"復國一路","SECT":" ","MAREA":" ","LANE":" ","ALLEY":" ","HOUSE_NO":"５９０號","E_COORD97":172469.35999999999,"N_COORD97":2546358.4100000001,"ADDRESS":"復國一路５９０號","OBJECTID":521711},"geometry":{"x":172469.36000000034,"y":2546358.410000002}},{"attributes":{"ID":521739,"DIS_CODE":0,"TOWNNAME":"永康區","LI":"復華里","LIN":"31鄰","STREET":"復國一路","SECT":" ","MAREA":" ","LANE":" ","ALLEY":" ","HOUSE_NO":"５９２號","E_COORD97":172467.76999999999,"N_COORD97":2546363.73,"ADDRESS":"復國一路５９２號","OBJECTID":521712},"geometry":{"x":172467.77000000048,"y":2546363.7300000023}},{"attributes":{"ID":521740,"DIS_CODE":0,"TOWNNAME":"永康區","LI":"復華里","LIN":"31鄰","STREET":"復國一路","SECT":" ","MAREA":" ","LANE":" ","ALLEY":" ","HOUSE_NO":"５９６號","E_COORD97":172466.97,"N_COORD97":2546369.3100000001,"ADDRESS":"復國一路５９６號","OBJECTID":521713},"geometry":{"x":172466.97000000067,"y":2546369.3100000024}},{"attributes":{"ID":521741,"DIS_CODE":0,"TOWNNAME":"永康區","LI":"復華里","LIN":"31鄰","STREET":"復國一路","SECT":" ","MAREA":" ","LANE":" ","ALLEY":" ","HOUSE_NO":"５９８號","E_COORD97":172465.26999999999,"N_COORD97":2546374.3900000001,"ADDRESS":"復國一路５９８號","OBJECTID":521714},"geometry":{"x":172465.26999999955,"y":2546374.3900000006}},{"attributes":{"ID":521742,"DIS_CODE":0,"TOWNNAME":"永康區","LI":"復華里","LIN":"31鄰","STREET":"復國一路","SECT":" ","MAREA":" ","LANE":" ","ALLEY":" ","HOUSE_NO":"６００號","E_COORD97":172464.64000000001,"N_COORD97":2546379.0499999998,"ADDRESS":"復國一路６００號","OBJECTID":521715},"geometry":{"x":172464.63999999966,"y":2546379.0500000026}},{"attributes":{"ID":521743,"DIS_CODE":0,"TOWNNAME":"永康區","LI":"永康里","LIN":"31鄰","STREET":"聖龍街","SECT":" ","MAREA":" ","LANE":" ","ALLEY":" ","HOUSE_NO":"２９６號","E_COORD97":174357.17000000001,"N_COORD97":2547834.1499999999,"ADDRESS":"聖龍街２９６號","OBJECTID":521716},"geometry":{"x":174357.17000000179,"y":2547834.1499999985}},{"attributes":{"ID":521744,"DIS_CODE":0,"TOWNNAME":"永康區","LI":"永康里","LIN":"31鄰","STREET":"聖龍街","SECT":" ","MAREA":" ","LANE":" ","ALLEY":" ","HOUSE_NO":"１９８號","E_COORD97":174251.17000000001,"N_COORD97":2547843.5299999998,"ADDRESS":"聖龍街１９８號","OBJECTID":521717},"geometry":{"x":174251.17000000086,"y":2547843.5299999993}},{"attributes":{"ID":521745,"DIS_CODE":0,"TOWNNAME":"永康區","LI":"永康里","LIN":"31鄰","STREET":"聖龍街","SECT":" ","MAREA":" ","LANE":" ","ALLEY":" ","HOUSE_NO":"２１０號","E_COORD97":174272.37,"N_COORD97":2547840.7799999998,"ADDRESS":"聖龍街２１０號","OBJECTID":521718},"geometry":{"x":174272.37000000011,"y":2547840.7800000012}},{"attributes":{"ID":521746,"DIS_CODE":0,"TOWNNAME":"永康區","LI":"永康里","LIN":"31鄰","STREET":"聖龍街","SECT":" ","MAREA":" ","LANE":" ","ALLEY":" ","HOUSE_NO":"２０２號","E_COORD97":174259.66,"N_COORD97":2547842.2799999998,"ADDRESS":"聖龍街２０２號","OBJECTID":521719},"geometry":{"x":174259.66000000108,"y":2547842.2799999993}},{"attributes":{"ID":521747,"DIS_CODE":0,"TOWNNAME":"永康區","LI":"永康里","LIN":"31鄰","STREET":"龍中街","SECT":" ","MAREA":" ","LANE":" ","ALLEY":" ","HOUSE_NO":"６９號","E_COORD97":174348.82000000001,"N_COORD97":2547757.0899999999,"ADDRESS":"龍中街６９號","OBJECTID":521720},"geometry":{"x":174348.82000000123,"y":2547757.0900000017}},{"attributes":{"ID":521748,"DIS_CODE":0,"TOWNNAME":"永康區","LI":"永康里","LIN":"31鄰","STREET":"龍中街","SECT":" ","MAREA":" ","LANE":" ","ALLEY":" ","HOUSE_NO":"７５號","E_COORD97":174355.85999999999,"N_COORD97":2547772.3399999999,"ADDRESS":"龍中街７５號","OBJECTID":521721},"geometry":{"x":174355.86000000034,"y":2547772.3400000017}},{"attributes":{"ID":521749,"DIS_CODE":0,"TOWNNAME":"永康區","LI":"永康里","LIN":"31鄰","STREET":"龍中街","SECT":" ","MAREA":" ","LANE":" ","ALLEY":" ","HOUSE_NO":"８５號","E_COORD97":174364.32000000001,"N_COORD97":2547793.3399999999,"ADDRESS":"龍中街８５號","OBJECTID":521722},"geometry":{"x":174364.3200000003,"y":2547793.3400000017}},{"attributes":{"ID":521750,"DIS_CODE":0,"TOWNNAME":"永康區","LI":"永康里","LIN":"31鄰","STREET":"聖龍街","SECT":" ","MAREA":" ","LANE":" ","ALLEY":" ","HOUSE_NO":"１９０號","E_COORD97":174238.76999999999,"N_COORD97":2547845.5299999998,"ADDRESS":"聖龍街１９０號","OBJECTID":521723},"geometry":{"x":174238.76999999955,"y":2547845.5300000012}},{"attributes":{"ID":521751,"DIS_CODE":0,"TOWNNAME":"永康區","LI":"永康里","LIN":"31鄰","STREET":"龍中街","SECT":" ","MAREA":" ","LANE":" ","ALLEY":" ","HOUSE_NO":"６７號","E_COORD97":174346.06,"N_COORD97":2547750.5800000001,"ADDRESS":"龍中街６７號","OBJECTID":521724},"geometry":{"x":174346.06000000052,"y":2547750.5800000019}},{"attributes":{"ID":521752,"DIS_CODE":0,"TOWNNAME":"永康區","LI":"永康里","LIN":"31鄰","STREET":"龍中街","SECT":" ","MAREA":" ","LANE":" ","ALLEY":" ","HOUSE_NO":"１０１號","E_COORD97":174379.60999999999,"N_COORD97":2547826.5800000001,"ADDRESS":"龍中街１０１號","OBJECTID":521725},"geometry":{"x":174379.61000000034,"y":2547826.5800000001}},{"attributes":{"ID":521753,"DIS_CODE":0,"TOWNNAME":"永康區","LI":"永康里","LIN":"31鄰","STREET":"埔聖街","SECT":" ","MAREA":" ","LANE":" ","ALLEY":" ","HOUSE_NO":"８５號","E_COORD97":174119.64000000001,"N_COORD97":2547654.8300000001,"ADDRESS":"埔聖街８５號","OBJECTID":521726},"geometry":{"x":174119.63999999873,"y":2547654.8300000019}},{"attributes":{"ID":521754,"DIS_CODE":0,"TOWNNAME":"永康區","LI":"永康里","LIN":"31鄰","STREET":"埔聖街","SECT":" ","MAREA":" ","LANE":" ","ALLEY":" ","HOUSE_NO":"１６５號","E_COORD97":174283.31,"N_COORD97":2547656.9700000002,"ADDRESS":"埔聖街１６５號","OBJECTID":521727},"geometry":{"x":174283.31000000052,"y":2547656.9700000025}},{"attributes":{"ID":521755,"DIS_CODE":0,"TOWNNAME":"永康區","LI":"永康里","LIN":"31鄰","STREET":"聖龍街","SECT":" ","MAREA":" ","LANE":" ","ALLEY":" ","HOUSE_NO":"１８２號","E_COORD97":174216.07000000001,"N_COORD97":2547846,"ADDRESS":"聖龍街１８２號","OBJECTID":521728},"geometry":{"x":174216.07000000123,"y":2547846.0000000019}},{"attributes":{"ID":521756,"DIS_CODE":0,"TOWNNAME":"永康區","LI":"永康里","LIN":"31鄰","STREET":"埔聖街","SECT":" ","MAREA":" ","LANE":" ","ALLEY":" ","HOUSE_NO":"１６９號","E_COORD97":174291.45999999999,"N_COORD97":2547655.7200000002,"ADDRESS":"埔聖街１６９號","OBJECTID":521729},"geometry":{"x":174291.46000000089,"y":2547655.7200000025}},{"attributes":{"ID":521757,"DIS_CODE":0,"TOWNNAME":"永康區","LI":"永康里","LIN":"31鄰","STREET":"埔聖街","SECT":" ","MAREA":" ","LANE":" ","ALLEY":" ","HOUSE_NO":"１６１號","E_COORD97":174274.35000000001,"N_COORD97":2547652.4700000002,"ADDRESS":"埔聖街１６１號","OBJECTID":521730},"geometry":{"x":174274.35000000149,"y":2547652.4700000007}},{"attributes":{"ID":521758,"DIS_CODE":0,"TOWNNAME":"永康區","LI":"永康里","LIN":"31鄰","STREET":"埔聖街","SECT":" ","MAREA":" ","LANE":" ","ALLEY":" ","HOUSE_NO":"１５９號","E_COORD97":174269.94,"N_COORD97":2547653.2200000002,"ADDRESS":"埔聖街１５９號","OBJECTID":521731},"geometry":{"x":174269.94000000134,"y":2547653.2200000007}},{"attributes":{"ID":521759,"DIS_CODE":0,"TOWNNAME":"永康區","LI":"永康里","LIN":"31鄰","STREET":"聖龍街","SECT":" ","MAREA":" ","LANE":" ","ALLEY":" ","HOUSE_NO":"１８０號","E_COORD97":174211.66,"N_COORD97":2547846.75,"ADDRESS":"聖龍街１８０號","OBJECTID":521732},"geometry":{"x":174211.66000000201,"y":2547846.7499999981}},{"attributes":{"ID":521760,"DIS_CODE":0,"TOWNNAME":"永康區","LI":"永康里","LIN":"31鄰","STREET":"聖龍街","SECT":" ","MAREA":" ","LANE":" ","ALLEY":" ","HOUSE_NO":"１７６號","E_COORD97":174202.53,"N_COORD97":2547847.75,"ADDRESS":"聖龍街１７６號","OBJECTID":521733},"geometry":{"x":174202.53000000212,"y":2547847.7500000019}},{"attributes":{"ID":521761,"DIS_CODE":0,"TOWNNAME":"新化區","LI":"東榮里","LIN":"31鄰","STREET":"護安街","SECT":" ","MAREA":" ","LANE":" ","ALLEY":" ","HOUSE_NO":"４１號","E_COORD97":179220.48000000001,"N_COORD97":2548297.2599999998,"ADDRESS":"護安街４１號","OBJECTID":521734},"geometry":{"x":179220.48000000045,"y":2548297.2599999979}},{"attributes":{"ID":521762,"DIS_CODE":0,"TOWNNAME":"新化區","LI":"東榮里","LIN":"31鄰","STREET":"中興路","SECT":" ","MAREA":" ","LANE":" ","ALLEY":" ","HOUSE_NO":"８５４號","E_COORD97":179137.70999999999,"N_COORD97":2548257.25,"ADDRESS":"中興路８５４號","OBJECTID":521735},"geometry":{"x":179137.71000000089,"y":2548257.2500000037}},{"attributes":{"ID":521763,"DIS_CODE":0,"TOWNNAME":"新化區","LI":"東榮里","LIN":"31鄰","STREET":"信義路","SECT":" ","MAREA":" ","LANE":" ","ALLEY":" ","HOUSE_NO":"２０９號","E_COORD97":179150.03,"N_COORD97":2548324.25,"ADDRESS":"信義路２０９號","OBJECTID":521736},"geometry":{"x":179150.03000000026,"y":2548324.25}},{"attributes":{"ID":521764,"DIS_CODE":0,"TOWNNAME":"新化區","LI":"東榮里","LIN":"31鄰","STREET":"護安街","SECT":" ","MAREA":" ","LANE":" ","ALLEY":" ","HOUSE_NO":"５７號","E_COORD97":179205.98000000001,"N_COORD97":2548347.2599999998,"ADDRESS":"護安街５７號","OBJECTID":521737},"geometry":{"x":179205.98000000138,"y":2548347.2599999998}},{"attributes":{"ID":521765,"DIS_CODE":0,"TOWNNAME":"新化區","LI":"東榮里","LIN":"31鄰","STREET":"信義路","SECT":" ","MAREA":" ","LANE":" ","ALLEY":" ","HOUSE_NO":"１９３號","E_COORD97":179163.73000000001,"N_COORD97":2548325.25,"ADDRESS":"信義路１９３號","OBJECTID":521738},"geometry":{"x":179163.73000000138,"y":2548325.2500000019}},{"attributes":{"ID":521766,"DIS_CODE":0,"TOWNNAME":"新化區","LI":"東榮里","LIN":"31鄰","STREET":"中興路","SECT":" ","MAREA":" ","LANE":" ","ALLEY":" ","HOUSE_NO":"８２２號","E_COORD97":179193.60999999999,"N_COORD97":2548271.25,"ADDRESS":"中興路８２２號","OBJECTID":521739},"geometry":{"x":179193.61000000034,"y":2548271.2500000019}},{"attributes":{"ID":521767,"DIS_CODE":0,"TOWNNAME":"新化區","LI":"東榮里","LIN":"31鄰","STREET":"中正路","SECT":" ","MAREA":" ","LANE":" ","ALLEY":" ","HOUSE_NO":"３４４號","E_COORD97":179118.91,"N_COORD97":2548302.25,"ADDRESS":"中正路３４４號","OBJECTID":521740},"geometry":{"x":179118.91000000015,"y":2548302.2500000019}},{"attributes":{"ID":521768,"DIS_CODE":0,"TOWNNAME":"新化區","LI":"東榮里","LIN":"31鄰","STREET":"中正路","SECT":" ","MAREA":" ","LANE":" ","ALLEY":" ","HOUSE_NO":"３４０號","E_COORD97":179119.51000000001,"N_COORD97":2548294.25,"ADDRESS":"中正路３４０號","OBJECTID":521741},"geometry":{"x":179119.50999999978,"y":2548294.2499999981}},{"attributes":{"ID":521769,"DIS_CODE":0,"TOWNNAME":"新化區","LI":"東榮里","LIN":"31鄰","STREET":"中正路","SECT":" ","MAREA":" ","LANE":" ","ALLEY":" ","HOUSE_NO":"３３６號","E_COORD97":179121.01000000001,"N_COORD97":2548284.25,"ADDRESS":"中正路３３６號","OBJECTID":521742},"geometry":{"x":179121.00999999978,"y":2548284.2500000037}},{"attributes":{"ID":521770,"DIS_CODE":0,"TOWNNAME":"新化區","LI":"東榮里","LIN":"31鄰","STREET":"中興路","SECT":" ","MAREA":" ","LANE":" ","ALLEY":" ","HOUSE_NO":"８１２號","E_COORD97":179225.51000000001,"N_COORD97":2548284.25,"ADDRESS":"中興路８１２號","OBJECTID":521743},"geometry":{"x":179225.51000000071,"y":2548284.2500000037}},{"attributes":{"ID":521771,"DIS_CODE":0,"TOWNNAME":"新化區","LI":"東榮里","LIN":"31鄰","STREET":"信義路","SECT":" ","MAREA":" ","LANE":" ","ALLEY":" ","HOUSE_NO":"１８９號","E_COORD97":179173.03,"N_COORD97":2548326.25,"ADDRESS":"信義路１８９號","OBJECTID":521744},"geometry":{"x":179173.03000000119,"y":2548326.2500000019}},{"attributes":{"ID":521772,"DIS_CODE":0,"TOWNNAME":"新化區","LI":"東榮里","LIN":"31鄰","STREET":"中興路","SECT":" ","MAREA":" ","LANE":" ","ALLEY":" ","HOUSE_NO":"８５６號","E_COORD97":179131.20999999999,"N_COORD97":2548258.25,"ADDRESS":"中興路８５６號","OBJECTID":521745},"geometry":{"x":179131.21000000089,"y":2548258.2500000019}},{"attributes":{"ID":521773,"DIS_CODE":0,"TOWNNAME":"新化區","LI":"東榮里","LIN":"31鄰","STREET":"中興路","SECT":" ","MAREA":" ","LANE":" ","ALLEY":" ","HOUSE_NO":"８４６號","E_COORD97":179154.51000000001,"N_COORD97":2548261.25,"ADDRESS":"中興路８４６號","OBJECTID":521746},"geometry":{"x":179154.51000000071,"y":2548261.2500000019}},{"attributes":{"ID":521774,"DIS_CODE":0,"TOWNNAME":"新化區","LI":"東榮里","LIN":"31鄰","STREET":"信義路","SECT":" ","MAREA":" ","LANE":" ","ALLEY":" ","HOUSE_NO":"２０７號","E_COORD97":179152.53,"N_COORD97":2548324.25,"ADDRESS":"信義路２０７號","OBJECTID":521747},"geometry":{"x":179152.53000000212,"y":2548324.25}},{"attributes":{"ID":521775,"DIS_CODE":0,"TOWNNAME":"新化區","LI":"東榮里","LIN":"31鄰","STREET":"信義路","SECT":" ","MAREA":" ","LANE":" ","ALLEY":" ","HOUSE_NO":"１９５號","E_COORD97":179160.63,"N_COORD97":2548325.25,"ADDRESS":"信義路１９５號","OBJECTID":521748},"geometry":{"x":179160.63000000082,"y":2548325.2500000019}},{"attributes":{"ID":521776,"DIS_CODE":0,"TOWNNAME":"東區","LI":"富強里","LIN":"31鄰","STREET":"裕農路","SECT":" ","MAREA":" ","LANE":" ","ALLEY":" ","HOUSE_NO":"４０２號","E_COORD97":171214.64999999999,"N_COORD97":2543128.8199999998,"ADDRESS":"裕農路４０２號","OBJECTID":521749},"geometry":{"x":171214.65000000037,"y":2543128.8200000022}},{"attributes":{"ID":521777,"DIS_CODE":0,"TOWNNAME":"仁德區","LI":"太子里","LIN":"31鄰","STREET":"土庫五街","SECT":" ","MAREA":" ","LANE":" ","ALLEY":" ","HOUSE_NO":"１３號","E_COORD97":174010.62,"N_COORD97":2543112.25,"ADDRESS":"土庫五街１３號","OBJECTID":521750},"geometry":{"x":174010.62000000104,"y":2543112.25}},{"attributes":{"ID":521778,"DIS_CODE":0,"TOWNNAME":"仁德區","LI":"後壁里","LIN":"31鄰","STREET":"德洋路","SECT":" ","MAREA":" ","LANE":" ","ALLEY":" ","HOUSE_NO":"１２２號","E_COORD97":172772.23999999999,"N_COORD97":2539256.2599999998,"ADDRESS":"德洋路１２２號","OBJECTID":521751},"geometry":{"x":172772.24000000115,"y":2539256.2600000016}},{"attributes":{"ID":521779,"DIS_CODE":0,"TOWNNAME":"仁德區","LI":"太子里","LIN":"31鄰","STREET":"太子路","SECT":" ","MAREA":" ","LANE":" ","ALLEY":" ","HOUSE_NO":"５３７號","E_COORD97":173925.16,"N_COORD97":2543498.5,"ADDRESS":"太子路５３７號","OBJECTID":521752},"geometry":{"x":173925.16000000201,"y":2543498.4999999981}},{"attributes":{"ID":521780,"DIS_CODE":0,"TOWNNAME":"仁德區","LI":"太子里","LIN":"31鄰","STREET":"太子路","SECT":" ","MAREA":" ","LANE":" ","ALLEY":" ","HOUSE_NO":"５３９號","E_COORD97":173922.17999999999,"N_COORD97":2543491.25,"ADDRESS":"太子路５３９號","OBJECTID":521753},"geometry":{"x":173922.1799999997,"y":2543491.2500000019}},{"attributes":{"ID":521781,"DIS_CODE":0,"TOWNNAME":"永康區","LI":"正強里","LIN":"31鄰","STREET":"自強路","SECT":" ","MAREA":" ","LANE":" ","ALLEY":" ","HOUSE_NO":"２０７號","E_COORD97":173193.78,"N_COORD97":2547557.25,"ADDRESS":"自強路２０７號","OBJECTID":521754},"geometry":{"x":173193.78000000212,"y":2547557.25}},{"attributes":{"ID":521782,"DIS_CODE":0,"TOWNNAME":"永康區","LI":"南灣里","LIN":"31鄰","STREET":"大安街","SECT":" ","MAREA":" ","LANE":" ","ALLEY":" ","HOUSE_NO":"２３號","E_COORD97":174422.82000000001,"N_COORD97":2544798.3900000001,"ADDRESS":"大安街２３號","OBJECTID":521755},"geometry":{"x":174422.82000000123,"y":2544798.3899999987}},{"attributes":{"ID":521783,"DIS_CODE":0,"TOWNNAME":"永康區","LI":"南灣里","LIN":"31鄰","STREET":"大安街","SECT":" ","MAREA":" ","LANE":" ","ALLEY":" ","HOUSE_NO":"１７號","E_COORD97":174415.04000000001,"N_COORD97":2544788.1000000001,"ADDRESS":"大安街１７號","OBJECTID":521756},"geometry":{"x":174415.04000000004,"y":2544788.0999999996}},{"attributes":{"ID":521784,"DIS_CODE":0,"TOWNNAME":"永康區","LI":"埔園里","LIN":"31鄰","STREET":"中山路","SECT":" ","MAREA":" ","LANE":" ","ALLEY":" ","HOUSE_NO":"５２８號","E_COORD97":173519.09,"N_COORD97":2548702.25,"ADDRESS":"中山路５２８號","OBJECTID":521757},"geometry":{"x":173519.09000000078,"y":2548702.2500000019}},{"attributes":{"ID":521785,"DIS_CODE":0,"TOWNNAME":"永康區","LI":"南灣里","LIN":"31鄰","STREET":"大灣一街","SECT":" ","MAREA":" ","LANE":" ","ALLEY":" ","HOUSE_NO":"７５號","E_COORD97":174385.31,"N_COORD97":2544762.5,"ADDRESS":"大灣一街７５號","OBJECTID":521758},"geometry":{"x":174385.31000000052,"y":2544762.5}},{"attributes":{"ID":521786,"DIS_CODE":0,"TOWNNAME":"永康區","LI":"南灣里","LIN":"31鄰","STREET":"大安街","SECT":" ","MAREA":" ","LANE":" ","ALLEY":" ","HOUSE_NO":"１３號","E_COORD97":174401.48000000001,"N_COORD97":2544797.0499999998,"ADDRESS":"大安街１３號","OBJECTID":521759},"geometry":{"x":174401.48000000231,"y":2544797.0500000007}},{"attributes":{"ID":521787,"DIS_CODE":0,"TOWNNAME":"東區","LI":"中西里","LIN":"31鄰","STREET":"林森路","SECT":"二段","MAREA":" ","LANE":" ","ALLEY":" ","HOUSE_NO":"１２１號","E_COORD97":170440.67000000001,"N_COORD97":2543434.6299999999,"ADDRESS":"林森路二段１２１號","OBJECTID":521760},"geometry":{"x":170440.66999999993,"y":2543434.629999999}},{"attributes":{"ID":521788,"DIS_CODE":0,"TOWNNAME":"東區","LI":"中西里","LIN":"31鄰","STREET":"林森路","SECT":"二段","MAREA":" ","LANE":" ","ALLEY":" ","HOUSE_NO":"１２７號","E_COORD97":170443.20000000001,"N_COORD97":2543442.23,"ADDRESS":"林森路二段１２７號","OBJECTID":521761},"geometry":{"x":170443.20000000112,"y":2543442.2300000004}},{"attributes":{"ID":521789,"DIS_CODE":0,"TOWNNAME":"永康區","LI":"埔園里","LIN":"31鄰","STREET":"中山路","SECT":" ","MAREA":" ","LANE":" ","ALLEY":" ","HOUSE_NO":"５０４號","E_COORD97":173553.53,"N_COORD97":2548654.4900000002,"ADDRESS":"中山路５０４號","OBJECTID":521762},"geometry":{"x":173553.53000000119,"y":2548654.4900000002}},{"attributes":{"ID":521790,"DIS_CODE":0,"TOWNNAME":"東區","LI":"成大里","LIN":"31鄰","STREET":"北門路","SECT":"二段","MAREA":" ","LANE":" ","ALLEY":" ","HOUSE_NO":"２２號","E_COORD97":169312.29999999999,"N_COORD97":2544519.4199999999,"ADDRESS":"北門路二段２２號","OBJECTID":521763},"geometry":{"x":169312.29999999981,"y":2544519.4199999999}},{"attributes":{"ID":521791,"DIS_CODE":0,"TOWNNAME":"仁德區","LI":"仁義里","LIN":"31鄰","STREET":"正義二街","SECT":" ","MAREA":" ","LANE":" ","ALLEY":" ","HOUSE_NO":"８４號","E_COORD97":173608.14999999999,"N_COORD97":2541566.02,"ADDRESS":"正義二街８４號","OBJECTID":521764},"geometry":{"x":173608.15000000037,"y":2541566.0200000014}},{"attributes":{"ID":521792,"DIS_CODE":0,"TOWNNAME":"仁德區","LI":"太子里","LIN":"31鄰","STREET":"太子路","SECT":" ","MAREA":" ","LANE":" ","ALLEY":" ","HOUSE_NO":"５６７號","E_COORD97":173860.42999999999,"N_COORD97":2543507.7599999998,"ADDRESS":"太子路５６７號","OBJECTID":521765},"geometry":{"x":173860.43000000063,"y":2543507.7600000016}},{"attributes":{"ID":521793,"DIS_CODE":0,"TOWNNAME":"仁德區","LI":"太子里","LIN":"31鄰","STREET":"太子三街","SECT":" ","MAREA":" ","LANE":" ","ALLEY":" ","HOUSE_NO":"５８號","E_COORD97":173864.45000000001,"N_COORD97":2543440.2599999998,"ADDRESS":"太子三街５８號","OBJECTID":521766},"geometry":{"x":173864.45000000112,"y":2543440.2600000016}},{"attributes":{"ID":521794,"DIS_CODE":0,"TOWNNAME":"仁德區","LI":"太子里","LIN":"31鄰","STREET":"太子路","SECT":" ","MAREA":" ","LANE":" ","ALLEY":" ","HOUSE_NO":"５５１號","E_COORD97":173894.12,"N_COORD97":2543506.7599999998,"ADDRESS":"太子路５５１號","OBJECTID":521767},"geometry":{"x":173894.12000000011,"y":2543506.7599999979}},{"attributes":{"ID":521795,"DIS_CODE":0,"TOWNNAME":"仁德區","LI":"太子里","LIN":"31鄰","STREET":"太子三街","SECT":" ","MAREA":" ","LANE":" ","ALLEY":" ","HOUSE_NO":"６８號","E_COORD97":173834.51000000001,"N_COORD97":2543439.2599999998,"ADDRESS":"太子三街６８號","OBJECTID":521768},"geometry":{"x":173834.51000000071,"y":2543439.2600000035}},{"attributes":{"ID":521796,"DIS_CODE":0,"TOWNNAME":"西港區","LI":"慶安里","LIN":"31鄰","STREET":"新興街","SECT":" ","MAREA":" ","LANE":" ","ALLEY":" ","HOUSE_NO":"８號之１２１","E_COORD97":168259.84,"N_COORD97":2557650.8700000001,"ADDRESS":"新興街８號之１２１","OBJECTID":521769},"geometry":{"x":168259.83999999985,"y":2557650.870000001}},{"attributes":{"ID":521797,"DIS_CODE":0,"TOWNNAME":"西港區","LI":"慶安里","LIN":"31鄰","STREET":"新興街","SECT":" ","MAREA":" ","LANE":" ","ALLEY":" ","HOUSE_NO":"８號之１２２","E_COORD97":168258.95999999999,"N_COORD97":2557654.6600000001,"ADDRESS":"新興街８號之１２２","OBJECTID":521770},"geometry":{"x":168258.95999999996,"y":2557654.6600000001}},{"attributes":{"ID":521798,"DIS_CODE":0,"TOWNNAME":"西港區","LI":"慶安里","LIN":"31鄰","STREET":"新興街","SECT":" ","MAREA":" ","LANE":" ","ALLEY":" ","HOUSE_NO":"８號之１２３","E_COORD97":168257.76999999999,"N_COORD97":2557660.4199999999,"ADDRESS":"新興街８號之１２３","OBJECTID":521771},"geometry":{"x":168257.76999999955,"y":2557660.4199999999}},{"attributes":{"ID":521799,"DIS_CODE":0,"TOWNNAME":"西港區","LI":"慶安里","LIN":"31鄰","STREET":"新興街","SECT":" ","MAREA":" ","LANE":" ","ALLEY":" ","HOUSE_NO":"８號之１２４","E_COORD97":168276.64999999999,"N_COORD97":2557667,"ADDRESS":"新興街８號之１２４","OBJECTID":521772},"geometry":{"x":168276.65000000037,"y":2557667.0000000037}},{"attributes":{"ID":521800,"DIS_CODE":0,"TOWNNAME":"西港區","LI":"慶安里","LIN":"31鄰","STREET":"新興街","SECT":" ","MAREA":" ","LANE":" ","ALLEY":" ","HOUSE_NO":"８號之１２５","E_COORD97":168280.48000000001,"N_COORD97":2557667.7599999998,"ADDRESS":"新興街８號之１２５","OBJECTID":521773},"geometry":{"x":168280.48000000138,"y":2557667.7599999998}},{"attributes":{"ID":521801,"DIS_CODE":0,"TOWNNAME":"西港區","LI":"慶安里","LIN":"31鄰","STREET":"新興街","SECT":" ","MAREA":" ","LANE":" ","ALLEY":" ","HOUSE_NO":"８號之１２６","E_COORD97":168284.5,"N_COORD97":2557668.6200000001,"ADDRESS":"新興街８號之１２６","OBJECTID":521774},"geometry":{"x":168284.50000000186,"y":2557668.6200000029}},{"attributes":{"ID":521802,"DIS_CODE":0,"TOWNNAME":"西港區","LI":"慶安里","LIN":"31鄰","STREET":"新興街","SECT":" ","MAREA":" ","LANE":" ","ALLEY":" ","HOUSE_NO":"８號之１２７","E_COORD97":168288.14999999999,"N_COORD97":2557669.3900000001,"ADDRESS":"新興街８號之１２７","OBJECTID":521775},"geometry":{"x":168288.15000000037,"y":2557669.3900000025}},{"attributes":{"ID":521803,"DIS_CODE":0,"TOWNNAME":"西港區","LI":"慶安里","LIN":"31鄰","STREET":"新興街","SECT":" ","MAREA":" ","LANE":" ","ALLEY":" ","HOUSE_NO":"８號之１２８","E_COORD97":168292.16,"N_COORD97":2557670.29,"ADDRESS":"新興街８號之１２８","OBJECTID":521776},"geometry":{"x":168292.16000000201,"y":2557670.2899999991}},{"attributes":{"ID":521804,"DIS_CODE":0,"TOWNNAME":"西港區","LI":"慶安里","LIN":"31鄰","STREET":"新興街","SECT":" ","MAREA":" ","LANE":" ","ALLEY":" ","HOUSE_NO":"８號之１２９","E_COORD97":168296.16,"N_COORD97":2557671.04,"ADDRESS":"新興街８號之１２９","OBJECTID":521777},"geometry":{"x":168296.16000000108,"y":2557671.0399999991}},{"attributes":{"ID":521805,"DIS_CODE":0,"TOWNNAME":"西港區","LI":"慶安里","LIN":"31鄰","STREET":"新興街","SECT":" ","MAREA":" ","LANE":" ","ALLEY":" ","HOUSE_NO":"８號之１３０","E_COORD97":168299.95000000001,"N_COORD97":2557672.1800000002,"ADDRESS":"新興街８號之１３０","OBJECTID":521778},"geometry":{"x":168299.95000000019,"y":2557672.1799999978}},{"attributes":{"ID":521806,"DIS_CODE":0,"TOWNNAME":"西港區","LI":"慶安里","LIN":"31鄰","STREET":"新興街","SECT":" ","MAREA":" ","LANE":" ","ALLEY":" ","HOUSE_NO":"８號之１３１","E_COORD97":168303.87,"N_COORD97":2557672.9300000002,"ADDRESS":"新興街８號之１３１","OBJECTID":521779},"geometry":{"x":168303.87000000011,"y":2557672.9299999997}},{"attributes":{"ID":521807,"DIS_CODE":0,"TOWNNAME":"西港區","LI":"慶安里","LIN":"31鄰","STREET":"新興街","SECT":" ","MAREA":" ","LANE":" ","ALLEY":" ","HOUSE_NO":"８號之１３２","E_COORD97":168308.10000000001,"N_COORD97":2557673.6000000001,"ADDRESS":"新興街８號之１３２","OBJECTID":521780},"geometry":{"x":168308.09999999963,"y":2557673.6000000015}},{"attributes":{"ID":521808,"DIS_CODE":0,"TOWNNAME":"西港區","LI":"慶安里","LIN":"31鄰","STREET":"新興街","SECT":" ","MAREA":" ","LANE":" ","ALLEY":" ","HOUSE_NO":"８號之１３３","E_COORD97":168311.92000000001,"N_COORD97":2557674.5499999998,"ADDRESS":"新興街８號之１３３","OBJECTID":521781},"geometry":{"x":168311.91999999993,"y":2557674.5500000045}},{"attributes":{"ID":521809,"DIS_CODE":0,"TOWNNAME":"西港區","LI":"慶安里","LIN":"31鄰","STREET":"新興街","SECT":" ","MAREA":" ","LANE":" ","ALLEY":" ","HOUSE_NO":"８號之１３４","E_COORD97":168315.78,"N_COORD97":2557675.3300000001,"ADDRESS":"新興街８號之１３４","OBJECTID":521782},"geometry":{"x":168315.78000000119,"y":2557675.3300000038}},{"attributes":{"ID":521810,"DIS_CODE":0,"TOWNNAME":"西港區","LI":"慶安里","LIN":"31鄰","STREET":"新興街","SECT":" ","MAREA":" ","LANE":" ","ALLEY":" ","HOUSE_NO":"８號之１３５","E_COORD97":168319.48000000001,"N_COORD97":2557676.27,"ADDRESS":"新興街８號之１３５","OBJECTID":521783},"geometry":{"x":168319.48000000138,"y":2557676.2700000014}},{"attributes":{"ID":521811,"DIS_CODE":0,"TOWNNAME":"西港區","LI":"慶安里","LIN":"31鄰","STREET":"新興街","SECT":" ","MAREA":" ","LANE":" ","ALLEY":" ","HOUSE_NO":"８號之１３６","E_COORD97":168323.42000000001,"N_COORD97":2557677.1200000001,"ADDRESS":"新興街８號之１３６","OBJECTID":521784},"geometry":{"x":168323.41999999993,"y":2557677.120000001}},{"attributes":{"ID":521812,"DIS_CODE":0,"TOWNNAME":"西港區","LI":"慶安里","LIN":"31鄰","STREET":"新興街","SECT":" ","MAREA":" ","LANE":" ","ALLEY":" ","HOUSE_NO":"８號之１３７","E_COORD97":168327.25,"N_COORD97":2557677.9399999999,"ADDRESS":"新興街８號之１３７","OBJECTID":521785},"geometry":{"x":168327.25000000093,"y":2557677.9400000013}},{"attributes":{"ID":521813,"DIS_CODE":0,"TOWNNAME":"西港區","LI":"慶安里","LIN":"31鄰","STREET":"新興街","SECT":" ","MAREA":" ","LANE":" ","ALLEY":" ","HOUSE_NO":"８號之１３８","E_COORD97":168331.48999999999,"N_COORD97":2557678.7999999998,"ADDRESS":"新興街８號之１３８","OBJECTID":521786},"geometry":{"x":168331.49000000022,"y":2557678.8000000007}},{"attributes":{"ID":521814,"DIS_CODE":0,"TOWNNAME":"西港區","LI":"慶安里","LIN":"31鄰","STREET":"新興街","SECT":" ","MAREA":" ","LANE":" ","ALLEY":" ","HOUSE_NO":"８號之１３９","E_COORD97":168335.91,"N_COORD97":2557679.4700000002,"ADDRESS":"新興街８號之１３９","OBJECTID":521787},"geometry":{"x":168335.91000000015,"y":2557679.4700000025}},{"attributes":{"ID":521815,"DIS_CODE":0,"TOWNNAME":"西港區","LI":"慶安里","LIN":"31鄰","STREET":"新興街","SECT":" ","MAREA":" ","LANE":" ","ALLEY":" ","HOUSE_NO":"８號之１４０","E_COORD97":168339.73999999999,"N_COORD97":2557680.2400000002,"ADDRESS":"新興街８號之１４０","OBJECTID":521788},"geometry":{"x":168339.74000000115,"y":2557680.2400000021}},{"attributes":{"ID":521816,"DIS_CODE":0,"TOWNNAME":"西港區","LI":"慶安里","LIN":"31鄰","STREET":"新興街","SECT":" ","MAREA":" ","LANE":" ","ALLEY":" ","HOUSE_NO":"８號之１４１","E_COORD97":168337.56,"N_COORD97":2557700.04,"ADDRESS":"新興街８號之１４１","OBJECTID":521789},"geometry":{"x":168337.55999999959,"y":2557700.0400000028}},{"attributes":{"ID":521817,"DIS_CODE":0,"TOWNNAME":"西港區","LI":"慶安里","LIN":"31鄰","STREET":"新興街","SECT":" ","MAREA":" ","LANE":" ","ALLEY":" ","HOUSE_NO":"８號之１４２","E_COORD97":168331.78,"N_COORD97":2557699.0800000001,"ADDRESS":"新興街８號之１４２","OBJECTID":521790},"geometry":{"x":168331.78000000026,"y":2557699.0800000001}},{"attributes":{"ID":521818,"DIS_CODE":0,"TOWNNAME":"西港區","LI":"慶安里","LIN":"31鄰","STREET":"新興街","SECT":" ","MAREA":" ","LANE":" ","ALLEY":" ","HOUSE_NO":"８號之１４３","E_COORD97":168327.89999999999,"N_COORD97":2557698.25,"ADDRESS":"新興街８號之１４３","OBJECTID":521791},"geometry":{"x":168327.90000000224,"y":2557698.25}},{"attributes":{"ID":521819,"DIS_CODE":0,"TOWNNAME":"西港區","LI":"慶安里","LIN":"31鄰","STREET":"新興街","SECT":" ","MAREA":" ","LANE":" ","ALLEY":" ","HOUSE_NO":"８號之１４４","E_COORD97":168324.04000000001,"N_COORD97":2557697.3999999999,"ADDRESS":"新興街８號之１４４","OBJECTID":521792},"geometry":{"x":168324.04000000097,"y":2557697.4000000004}},{"attributes":{"ID":521820,"DIS_CODE":0,"TOWNNAME":"西港區","LI":"慶安里","LIN":"31鄰","STREET":"新興街","SECT":" ","MAREA":" ","LANE":" ","ALLEY":" ","HOUSE_NO":"８號之１４５","E_COORD97":168320.14000000001,"N_COORD97":2557696.79,"ADDRESS":"新興街８號之１４５","OBJECTID":521793},"geometry":{"x":168320.13999999966,"y":2557696.7899999991}},{"attributes":{"ID":521821,"DIS_CODE":0,"TOWNNAME":"西港區","LI":"慶安里","LIN":"31鄰","STREET":"新興街","SECT":" ","MAREA":" ","LANE":" ","ALLEY":" ","HOUSE_NO":"８號之１４６","E_COORD97":168315.98000000001,"N_COORD97":2557695.6899999999,"ADDRESS":"新興街８號之１４６","OBJECTID":521794},"geometry":{"x":168315.98000000138,"y":2557695.6900000032}},{"attributes":{"ID":521822,"DIS_CODE":0,"TOWNNAME":"西港區","LI":"慶安里","LIN":"31鄰","STREET":"新興街","SECT":" ","MAREA":" ","LANE":" ","ALLEY":" ","HOUSE_NO":"８號之１４７","E_COORD97":168311.78,"N_COORD97":2557695,"ADDRESS":"新興街８號之１４７","OBJECTID":521795},"geometry":{"x":168311.78000000212,"y":2557695.0000000019}},{"attributes":{"ID":521823,"DIS_CODE":0,"TOWNNAME":"西港區","LI":"慶安里","LIN":"31鄰","STREET":"新興街","SECT":" ","MAREA":" ","LANE":" ","ALLEY":" ","HOUSE_NO":"８號之１４８","E_COORD97":168307.57000000001,"N_COORD97":2557694.0499999998,"ADDRESS":"新興街８號之１４８","OBJECTID":521796},"geometry":{"x":168307.5700000003,"y":2557694.0500000007}},{"attributes":{"ID":521824,"DIS_CODE":0,"TOWNNAME":"西港區","LI":"慶安里","LIN":"31鄰","STREET":"新興街","SECT":" ","MAREA":" ","LANE":" ","ALLEY":" ","HOUSE_NO":"８號之１４９","E_COORD97":168303.57000000001,"N_COORD97":2557693.4300000002,"ADDRESS":"新興街８號之１４９","OBJECTID":521797},"geometry":{"x":168303.57000000123,"y":2557693.4299999997}},{"attributes":{"ID":521825,"DIS_CODE":0,"TOWNNAME":"西港區","LI":"慶安里","LIN":"31鄰","STREET":"新興街","SECT":" ","MAREA":" ","LANE":" ","ALLEY":" ","HOUSE_NO":"８號之１５０","E_COORD97":168299.85000000001,"N_COORD97":2557692.3199999998,"ADDRESS":"新興街８號之１５０","OBJECTID":521798},"geometry":{"x":168299.84999999963,"y":2557692.320000004}},{"attributes":{"ID":521826,"DIS_CODE":0,"TOWNNAME":"西港區","LI":"慶安里","LIN":"31鄰","STREET":"新興街","SECT":" ","MAREA":" ","LANE":" ","ALLEY":" ","HOUSE_NO":"８號之１５１","E_COORD97":168295.79000000001,"N_COORD97":2557691.48,"ADDRESS":"新興街８號之１５１","OBJECTID":521799},"geometry":{"x":168295.79000000004,"y":2557691.4800000042}},{"attributes":{"ID":521827,"DIS_CODE":0,"TOWNNAME":"西港區","LI":"慶安里","LIN":"31鄰","STREET":"新興街","SECT":" ","MAREA":" ","LANE":" ","ALLEY":" ","HOUSE_NO":"８號之１５２","E_COORD97":168291.57000000001,"N_COORD97":2557690.98,"ADDRESS":"新興街８號之１５２","OBJECTID":521800},"geometry":{"x":168291.57000000123,"y":2557690.9800000004}}]}