{"displayFieldName":"TOWNNAME","fieldAliases":{"ID":"ID","DIS_CODE":"DIS_CODE","TOWNNAME":"TOWNNAME","LI":"LI","LIN":"LIN","STREET":"STREET","SECT":"SECT","MAREA":"MAREA","LANE":"LANE","ALLEY":"ALLEY","HOUSE_NO":"HOUSE_NO","E_COORD97":"E_COORD97","N_COORD97":"N_COORD97","ADDRESS":"ADDRESS","OBJECTID":"OBJECTID"},"geometryType":"esriGeometryPoint","spatialReference":{"wkid":102443,"latestWkid":3826},"fields":[{"name":"ID","type":"esriFieldTypeDouble","alias":"ID"},{"name":"DIS_CODE","type":"esriFieldTypeInteger","alias":"DIS_CODE"},{"name":"TOWNNAME","type":"esriFieldTypeString","alias":"TOWNNAME","length":8},{"name":"LI","type":"esriFieldTypeString","alias":"LI","length":8},{"name":"LIN","type":"esriFieldTypeString","alias":"LIN","length":12},{"name":"STREET","type":"esriFieldTypeString","alias":"STREET","length":20},{"name":"SECT","type":"esriFieldTypeString","alias":"SECT","length":8},{"name":"MAREA","type":"esriFieldTypeString","alias":"MAREA","length":12},{"name":"LANE","type":"esriFieldTypeString","alias":"LANE","length":10},{"name":"ALLEY","type":"esriFieldTypeString","alias":"ALLEY","length":10},{"name":"HOUSE_NO","type":"esriFieldTypeString","alias":"HOUSE_NO","length":20},{"name":"E_COORD97","type":"esriFieldTypeDouble","alias":"E_COORD97"},{"name":"N_COORD97","type":"esriFieldTypeDouble","alias":"N_COORD97"},{"name":"ADDRESS","type":"esriFieldTypeString","alias":"ADDRESS","length":50},{"name":"OBJECTID","type":"esriFieldTypeOID","alias":"OBJECTID"}],"features":[{"attributes":{"ID":512428,"DIS_CODE":0,"TOWNNAME":"南區","LI":"鯤鯓里","LIN":"1鄰","STREET":"鯤鯓路","SECT":" ","MAREA":" ","LANE":" ","ALLEY":" ","HOUSE_NO":"７７號之１１","E_COORD97":165166.42000000001,"N_COORD97":2539917.1200000001,"ADDRESS":"鯤鯓路７７號之１１","OBJECTID":512401},"geometry":{"x":165166.42000000086,"y":2539917.120000001}},{"attributes":{"ID":512429,"DIS_CODE":0,"TOWNNAME":"南區","LI":"鯤鯓里","LIN":"1鄰","STREET":"鯤鯓路","SECT":" ","MAREA":" ","LANE":" ","ALLEY":" ","HOUSE_NO":"７７號之１２","E_COORD97":165167.98999999999,"N_COORD97":2539911.6899999999,"ADDRESS":"鯤鯓路７７號之１２","OBJECTID":512402},"geometry":{"x":165167.99000000115,"y":2539911.6899999995}},{"attributes":{"ID":512430,"DIS_CODE":0,"TOWNNAME":"南區","LI":"鯤鯓里","LIN":"1鄰","STREET":"鯤鯓路","SECT":" ","MAREA":" ","LANE":" ","ALLEY":" ","HOUSE_NO":"７７號之１３","E_COORD97":165168.23000000001,"N_COORD97":2539898.98,"ADDRESS":"鯤鯓路７７號之１３","OBJECTID":512403},"geometry":{"x":165168.23000000138,"y":2539898.9800000042}},{"attributes":{"ID":512431,"DIS_CODE":0,"TOWNNAME":"南區","LI":"鯤鯓里","LIN":"1鄰","STREET":"鯤鯓路","SECT":" ","MAREA":" ","LANE":" ","ALLEY":" ","HOUSE_NO":"７７號之１４","E_COORD97":165150.60000000001,"N_COORD97":2539961.9900000002,"ADDRESS":"鯤鯓路７７號之１４","OBJECTID":512404},"geometry":{"x":165150.5999999987,"y":2539961.9900000002}},{"attributes":{"ID":512432,"DIS_CODE":0,"TOWNNAME":"南區","LI":"鯤鯓里","LIN":"1鄰","STREET":"鯤鯓路","SECT":" ","MAREA":" ","LANE":" ","ALLEY":" ","HOUSE_NO":"７７號之１６","E_COORD97":165145.41,"N_COORD97":2539961.02,"ADDRESS":"鯤鯓路７７號之１６","OBJECTID":512405},"geometry":{"x":165145.41000000015,"y":2539961.0199999996}},{"attributes":{"ID":512433,"DIS_CODE":0,"TOWNNAME":"南區","LI":"鯤鯓里","LIN":"1鄰","STREET":"鯤鯓路","SECT":" ","MAREA":" ","LANE":" ","ALLEY":" ","HOUSE_NO":"７７號之２","E_COORD97":165163.04000000001,"N_COORD97":2539962.71,"ADDRESS":"鯤鯓路７７號之２","OBJECTID":512406},"geometry":{"x":165163.04000000004,"y":2539962.7100000028}},{"attributes":{"ID":512434,"DIS_CODE":0,"TOWNNAME":"南區","LI":"鯤鯓里","LIN":"1鄰","STREET":"鯤鯓路","SECT":" ","MAREA":" ","LANE":" ","ALLEY":" ","HOUSE_NO":"７７號之３","E_COORD97":165163.64000000001,"N_COORD97":2539958.6099999999,"ADDRESS":"鯤鯓路７７號之３","OBJECTID":512407},"geometry":{"x":165163.63999999966,"y":2539958.6100000013}},{"attributes":{"ID":512435,"DIS_CODE":0,"TOWNNAME":"南區","LI":"鯤鯓里","LIN":"1鄰","STREET":"鯤鯓路","SECT":" ","MAREA":" ","LANE":" ","ALLEY":" ","HOUSE_NO":"７７號之４","E_COORD97":165163.28,"N_COORD97":2539954.27,"ADDRESS":"鯤鯓路７７號之４","OBJECTID":512408},"geometry":{"x":165163.28000000026,"y":2539954.2700000014}},{"attributes":{"ID":512436,"DIS_CODE":0,"TOWNNAME":"南區","LI":"鯤鯓里","LIN":"1鄰","STREET":"鯤鯓路","SECT":" ","MAREA":" ","LANE":" ","ALLEY":" ","HOUSE_NO":"７７號之５","E_COORD97":165163.39999999999,"N_COORD97":2539944.3900000001,"ADDRESS":"鯤鯓路７７號之５","OBJECTID":512409},"geometry":{"x":165163.4000000013,"y":2539944.3900000025}},{"attributes":{"ID":512437,"DIS_CODE":0,"TOWNNAME":"南區","LI":"鯤鯓里","LIN":"1鄰","STREET":"鯤鯓路","SECT":" ","MAREA":" ","LANE":" ","ALLEY":" ","HOUSE_NO":"７７號之６","E_COORD97":165163.39999999999,"N_COORD97":2539940.0499999998,"ADDRESS":"鯤鯓路７７號之６","OBJECTID":512410},"geometry":{"x":165163.4000000013,"y":2539940.0500000026}},{"attributes":{"ID":512438,"DIS_CODE":0,"TOWNNAME":"南區","LI":"鯤鯓里","LIN":"1鄰","STREET":"鯤鯓路","SECT":" ","MAREA":" ","LANE":" ","ALLEY":" ","HOUSE_NO":"７７號之７","E_COORD97":165163.28,"N_COORD97":2539936.0699999998,"ADDRESS":"鯤鯓路７７號之７","OBJECTID":512411},"geometry":{"x":165163.28000000026,"y":2539936.0700000022}},{"attributes":{"ID":512439,"DIS_CODE":0,"TOWNNAME":"南區","LI":"鯤鯓里","LIN":"1鄰","STREET":"鯤鯓路","SECT":" ","MAREA":" ","LANE":" ","ALLEY":" ","HOUSE_NO":"７７號之８","E_COORD97":165163.39999999999,"N_COORD97":2539931.7200000002,"ADDRESS":"鯤鯓路７７號之８","OBJECTID":512412},"geometry":{"x":165163.4000000013,"y":2539931.7200000025}},{"attributes":{"ID":512440,"DIS_CODE":0,"TOWNNAME":"南區","LI":"鯤鯓里","LIN":"1鄰","STREET":"鯤鯓路","SECT":" ","MAREA":" ","LANE":" ","ALLEY":" ","HOUSE_NO":"７７號之９","E_COORD97":165163.28,"N_COORD97":2539927.6200000001,"ADDRESS":"鯤鯓路７７號之９","OBJECTID":512413},"geometry":{"x":165163.28000000026,"y":2539927.620000001}},{"attributes":{"ID":512441,"DIS_CODE":0,"TOWNNAME":"南區","LI":"鯤鯓里","LIN":"1鄰","STREET":"鯤鯓路","SECT":" ","MAREA":" ","LANE":" ","ALLEY":" ","HOUSE_NO":"７９號","E_COORD97":165160.73999999999,"N_COORD97":2539981.7200000002,"ADDRESS":"鯤鯓路７９號","OBJECTID":512414},"geometry":{"x":165160.74000000115,"y":2539981.7200000007}},{"attributes":{"ID":512442,"DIS_CODE":0,"TOWNNAME":"南區","LI":"鯤鯓里","LIN":"1鄰","STREET":"鯤鯓路","SECT":" ","MAREA":" ","LANE":" ","ALLEY":" ","HOUSE_NO":"８１號","E_COORD97":165156.51999999999,"N_COORD97":2539981.1400000001,"ADDRESS":"鯤鯓路８１號","OBJECTID":512415},"geometry":{"x":165156.52000000048,"y":2539981.1400000006}},{"attributes":{"ID":512443,"DIS_CODE":0,"TOWNNAME":"南區","LI":"鯤鯓里","LIN":"1鄰","STREET":"鯤鯓路","SECT":" ","MAREA":" ","LANE":" ","ALLEY":" ","HOUSE_NO":"８３號","E_COORD97":165152.60000000001,"N_COORD97":2539981.2799999998,"ADDRESS":"鯤鯓路８３號","OBJECTID":512416},"geometry":{"x":165152.60000000056,"y":2539981.2800000012}},{"attributes":{"ID":512444,"DIS_CODE":0,"TOWNNAME":"南區","LI":"鯤鯓里","LIN":"1鄰","STREET":"鯤鯓路","SECT":" ","MAREA":" ","LANE":" ","ALLEY":" ","HOUSE_NO":"８４號","E_COORD97":165119.48000000001,"N_COORD97":2540016.3100000001,"ADDRESS":"鯤鯓路８４號","OBJECTID":512417},"geometry":{"x":165119.48000000045,"y":2540016.3100000024}},{"attributes":{"ID":512445,"DIS_CODE":0,"TOWNNAME":"南區","LI":"鯤鯓里","LIN":"1鄰","STREET":"鯤鯓路","SECT":" ","MAREA":" ","LANE":" ","ALLEY":" ","HOUSE_NO":"８５號","E_COORD97":165148.51999999999,"N_COORD97":2539980.8500000001,"ADDRESS":"鯤鯓路８５號","OBJECTID":512418},"geometry":{"x":165148.52000000048,"y":2539980.8500000015}},{"attributes":{"ID":512446,"DIS_CODE":0,"TOWNNAME":"南區","LI":"大恩里","LIN":"1鄰","STREET":"國民路","SECT":" ","MAREA":" ","LANE":" ","ALLEY":" ","HOUSE_NO":"８０號","E_COORD97":169362.79999999999,"N_COORD97":2540909.1899999999,"ADDRESS":"國民路８０號","OBJECTID":512419},"geometry":{"x":169362.80000000075,"y":2540909.1899999995}},{"attributes":{"ID":512447,"DIS_CODE":0,"TOWNNAME":"南區","LI":"文南里","LIN":"1鄰","STREET":"金華路","SECT":"二段","MAREA":" ","LANE":" ","ALLEY":" ","HOUSE_NO":"３０１號","E_COORD97":167112.10000000001,"N_COORD97":2542802.71,"ADDRESS":"金華路二段３０１號","OBJECTID":512420},"geometry":{"x":167112.10000000149,"y":2542802.7100000009}},{"attributes":{"ID":512448,"DIS_CODE":0,"TOWNNAME":"南區","LI":"文南里","LIN":"1鄰","STREET":"建南路","SECT":" ","MAREA":" ","LANE":" ","ALLEY":" ","HOUSE_NO":"９１號","E_COORD97":167098.85000000001,"N_COORD97":2542829.8900000001,"ADDRESS":"建南路９１號","OBJECTID":512421},"geometry":{"x":167098.85000000056,"y":2542829.8900000025}},{"attributes":{"ID":512449,"DIS_CODE":0,"TOWNNAME":"南區","LI":"文南里","LIN":"1鄰","STREET":"建南路","SECT":" ","MAREA":" ","LANE":" ","ALLEY":" ","HOUSE_NO":"９３號","E_COORD97":167094.79999999999,"N_COORD97":2542830.4399999999,"ADDRESS":"建南路９３號","OBJECTID":512422},"geometry":{"x":167094.79999999981,"y":2542830.4399999976}},{"attributes":{"ID":512450,"DIS_CODE":0,"TOWNNAME":"南區","LI":"文南里","LIN":"1鄰","STREET":"建南路","SECT":" ","MAREA":" ","LANE":" ","ALLEY":" ","HOUSE_NO":"９５號","E_COORD97":167090.48000000001,"N_COORD97":2542830.7200000002,"ADDRESS":"建南路９５號","OBJECTID":512423},"geometry":{"x":167090.48000000138,"y":2542830.7200000025}},{"attributes":{"ID":512451,"DIS_CODE":0,"TOWNNAME":"南區","LI":"文南里","LIN":"1鄰","STREET":"建南路","SECT":" ","MAREA":" ","LANE":" ","ALLEY":" ","HOUSE_NO":"９７號","E_COORD97":167085.59,"N_COORD97":2542829.8900000001,"ADDRESS":"建南路９７號","OBJECTID":512424},"geometry":{"x":167085.59000000078,"y":2542829.8900000025}},{"attributes":{"ID":512452,"DIS_CODE":0,"TOWNNAME":"學甲區","LI":"新榮里","LIN":"1鄰","STREET":"華宗路","SECT":" ","MAREA":" ","LANE":" ","ALLEY":" ","HOUSE_NO":"１５８號之１","E_COORD97":166423.84,"N_COORD97":2569641.3599999999,"ADDRESS":"華宗路１５８號之１","OBJECTID":512425},"geometry":{"x":166423.83999999985,"y":2569641.3599999994}},{"attributes":{"ID":512453,"DIS_CODE":0,"TOWNNAME":"學甲區","LI":"仁得里","LIN":"1鄰","STREET":"華宗路","SECT":" ","MAREA":" ","LANE":" ","ALLEY":" ","HOUSE_NO":"２６７號","E_COORD97":166366.92000000001,"N_COORD97":2569806.3599999999,"ADDRESS":"華宗路２６７號","OBJECTID":512426},"geometry":{"x":166366.91999999993,"y":2569806.3600000013}},{"attributes":{"ID":512454,"DIS_CODE":0,"TOWNNAME":"學甲區","LI":"仁得里","LIN":"1鄰","STREET":"華宗路","SECT":" ","MAREA":" ","LANE":" ","ALLEY":" ","HOUSE_NO":"２１９號","E_COORD97":166391.51999999999,"N_COORD97":2569643.4500000002,"ADDRESS":"華宗路２１９號","OBJECTID":512427},"geometry":{"x":166391.51999999955,"y":2569643.4499999993}},{"attributes":{"ID":512455,"DIS_CODE":0,"TOWNNAME":"學甲區","LI":"仁得里","LIN":"1鄰","STREET":"華宗路","SECT":" ","MAREA":" ","LANE":" ","ALLEY":" ","HOUSE_NO":"２２１號","E_COORD97":166388.54000000001,"N_COORD97":2569655.3599999999,"ADDRESS":"華宗路２２１號","OBJECTID":512428},"geometry":{"x":166388.54000000004,"y":2569655.3599999994}},{"attributes":{"ID":512456,"DIS_CODE":0,"TOWNNAME":"學甲區","LI":"新榮里","LIN":"1鄰","STREET":"華宗路","SECT":" ","MAREA":" ","LANE":" ","ALLEY":" ","HOUSE_NO":"２２４號","E_COORD97":166436.56,"N_COORD97":2569551.3900000001,"ADDRESS":"華宗路２２４號","OBJECTID":512429},"geometry":{"x":166436.56000000052,"y":2569551.3900000006}},{"attributes":{"ID":512457,"DIS_CODE":0,"TOWNNAME":"學甲區","LI":"仁得里","LIN":"1鄰","STREET":"華宗路","SECT":" ","MAREA":" ","LANE":" ","ALLEY":" ","HOUSE_NO":"２２５號","E_COORD97":166387.04999999999,"N_COORD97":2569672.0099999998,"ADDRESS":"華宗路２２５號","OBJECTID":512430},"geometry":{"x":166387.05000000168,"y":2569672.0099999979}},{"attributes":{"ID":512458,"DIS_CODE":0,"TOWNNAME":"學甲區","LI":"新榮里","LIN":"1鄰","STREET":"華宗路","SECT":" ","MAREA":" ","LANE":" ","ALLEY":" ","HOUSE_NO":"２２６號","E_COORD97":166436.04999999999,"N_COORD97":2569556.02,"ADDRESS":"華宗路２２６號","OBJECTID":512431},"geometry":{"x":166436.04999999981,"y":2569556.0199999996}},{"attributes":{"ID":512459,"DIS_CODE":0,"TOWNNAME":"學甲區","LI":"新榮里","LIN":"1鄰","STREET":"華宗路","SECT":" ","MAREA":" ","LANE":" ","ALLEY":" ","HOUSE_NO":"２３２號","E_COORD97":166431.89000000001,"N_COORD97":2569591.75,"ADDRESS":"華宗路２３２號","OBJECTID":512432},"geometry":{"x":166431.88999999966,"y":2569591.75}},{"attributes":{"ID":512460,"DIS_CODE":0,"TOWNNAME":"學甲區","LI":"新榮里","LIN":"1鄰","STREET":"華宗路","SECT":" ","MAREA":" ","LANE":" ","ALLEY":" ","HOUSE_NO":"２３４號","E_COORD97":166431.22,"N_COORD97":2569595.75,"ADDRESS":"華宗路２３４號","OBJECTID":512433},"geometry":{"x":166431.21999999974,"y":2569595.75}},{"attributes":{"ID":512461,"DIS_CODE":0,"TOWNNAME":"學甲區","LI":"仁得里","LIN":"1鄰","STREET":"華宗路","SECT":" ","MAREA":" ","LANE":" ","ALLEY":" ","HOUSE_NO":"２３５號","E_COORD97":166379.98999999999,"N_COORD97":2569710.5499999998,"ADDRESS":"華宗路２３５號","OBJECTID":512434},"geometry":{"x":166379.99000000115,"y":2569710.5500000026}},{"attributes":{"ID":512462,"DIS_CODE":0,"TOWNNAME":"學甲區","LI":"新榮里","LIN":"1鄰","STREET":"華宗路","SECT":" ","MAREA":" ","LANE":" ","ALLEY":" ","HOUSE_NO":"２４０號","E_COORD97":166429.31,"N_COORD97":2569607.4399999999,"ADDRESS":"華宗路２４０號","OBJECTID":512435},"geometry":{"x":166429.31000000052,"y":2569607.4399999995}},{"attributes":{"ID":512463,"DIS_CODE":0,"TOWNNAME":"學甲區","LI":"仁得里","LIN":"1鄰","STREET":"華宗路","SECT":" ","MAREA":" ","LANE":" ","ALLEY":" ","HOUSE_NO":"２４３號","E_COORD97":166377.14999999999,"N_COORD97":2569731.6699999999,"ADDRESS":"華宗路２４３號","OBJECTID":512436},"geometry":{"x":166377.1500000013,"y":2569731.6699999999}},{"attributes":{"ID":512464,"DIS_CODE":0,"TOWNNAME":"學甲區","LI":"仁得里","LIN":"1鄰","STREET":"華宗路","SECT":" ","MAREA":" ","LANE":" ","ALLEY":" ","HOUSE_NO":"２４７號","E_COORD97":166375.48000000001,"N_COORD97":2569744.23,"ADDRESS":"華宗路２４７號","OBJECTID":512437},"geometry":{"x":166375.48000000045,"y":2569744.2300000023}},{"attributes":{"ID":512465,"DIS_CODE":0,"TOWNNAME":"學甲區","LI":"仁得里","LIN":"1鄰","STREET":"華宗路","SECT":" ","MAREA":" ","LANE":" ","ALLEY":" ","HOUSE_NO":"２４９號","E_COORD97":166370.70000000001,"N_COORD97":2569764.6099999999,"ADDRESS":"華宗路２４９號","OBJECTID":512438},"geometry":{"x":166370.70000000019,"y":2569764.6099999994}},{"attributes":{"ID":512466,"DIS_CODE":0,"TOWNNAME":"學甲區","LI":"仁得里","LIN":"1鄰","STREET":"華宗路","SECT":" ","MAREA":" ","LANE":" ","ALLEY":" ","HOUSE_NO":"２５１號","E_COORD97":166369.76999999999,"N_COORD97":2569769.3199999998,"ADDRESS":"華宗路２５１號","OBJECTID":512439},"geometry":{"x":166369.76999999955,"y":2569769.3200000022}},{"attributes":{"ID":512467,"DIS_CODE":0,"TOWNNAME":"學甲區","LI":"仁得里","LIN":"1鄰","STREET":"華宗路","SECT":" ","MAREA":" ","LANE":" ","ALLEY":" ","HOUSE_NO":"２５３號","E_COORD97":166368.78,"N_COORD97":2569774,"ADDRESS":"華宗路２５３號","OBJECTID":512440},"geometry":{"x":166368.78000000026,"y":2569773.9999999981}},{"attributes":{"ID":512468,"DIS_CODE":0,"TOWNNAME":"學甲區","LI":"仁得里","LIN":"1鄰","STREET":"華宗路","SECT":" ","MAREA":" ","LANE":" ","ALLEY":" ","HOUSE_NO":"２５５號","E_COORD97":166368.16,"N_COORD97":2569778.6699999999,"ADDRESS":"華宗路２５５號","OBJECTID":512441},"geometry":{"x":166368.16000000108,"y":2569778.6699999999}},{"attributes":{"ID":512469,"DIS_CODE":0,"TOWNNAME":"學甲區","LI":"新榮里","LIN":"1鄰","STREET":"華宗路","SECT":" ","MAREA":" ","LANE":" ","ALLEY":" ","HOUSE_NO":"２５８號","E_COORD97":166420.85000000001,"N_COORD97":2569714.02,"ADDRESS":"華宗路２５８號","OBJECTID":512442},"geometry":{"x":166420.85000000056,"y":2569714.0200000014}},{"attributes":{"ID":512470,"DIS_CODE":0,"TOWNNAME":"學甲區","LI":"慈福里","LIN":"1鄰","STREET":"華宗路","SECT":" ","MAREA":" ","LANE":" ","ALLEY":" ","HOUSE_NO":"２６０號","E_COORD97":166436.48999999999,"N_COORD97":2569791.0699999998,"ADDRESS":"華宗路２６０號","OBJECTID":512443},"geometry":{"x":166436.49000000022,"y":2569791.070000004}},{"attributes":{"ID":512471,"DIS_CODE":0,"TOWNNAME":"學甲區","LI":"仁得里","LIN":"1鄰","STREET":"華宗路","SECT":" ","MAREA":" ","LANE":" ","ALLEY":" ","HOUSE_NO":"２６１號","E_COORD97":166367.64000000001,"N_COORD97":2569792.3599999999,"ADDRESS":"華宗路２６１號","OBJECTID":512444},"geometry":{"x":166367.64000000153,"y":2569792.3600000013}},{"attributes":{"ID":512472,"DIS_CODE":0,"TOWNNAME":"學甲區","LI":"仁得里","LIN":"1鄰","STREET":"華宗路","SECT":" ","MAREA":" ","LANE":" ","ALLEY":" ","HOUSE_NO":"２６９號","E_COORD97":166366.34,"N_COORD97":2569810.6000000001,"ADDRESS":"華宗路２６９號","OBJECTID":512445},"geometry":{"x":166366.33999999892,"y":2569810.6000000034}},{"attributes":{"ID":512473,"DIS_CODE":0,"TOWNNAME":"學甲區","LI":"仁得里","LIN":"1鄰","STREET":"華宗路","SECT":" ","MAREA":" ","LANE":" ","ALLEY":" ","HOUSE_NO":"２７１號","E_COORD97":166365.60999999999,"N_COORD97":2569815.0499999998,"ADDRESS":"華宗路２７１號","OBJECTID":512446},"geometry":{"x":166365.61000000127,"y":2569815.0499999989}},{"attributes":{"ID":512474,"DIS_CODE":0,"TOWNNAME":"學甲區","LI":"仁得里","LIN":"1鄰","STREET":"華宗路","SECT":" ","MAREA":" ","LANE":" ","ALLEY":" ","HOUSE_NO":"２７３號","E_COORD97":166364.67999999999,"N_COORD97":2569820.29,"ADDRESS":"華宗路２７３號","OBJECTID":512447},"geometry":{"x":166364.68000000063,"y":2569820.290000001}},{"attributes":{"ID":512475,"DIS_CODE":0,"TOWNNAME":"學甲區","LI":"仁得里","LIN":"1鄰","STREET":"華宗路","SECT":" ","MAREA":" ","LANE":" ","ALLEY":" ","HOUSE_NO":"２７５號","E_COORD97":166360.12,"N_COORD97":2569845.6099999999,"ADDRESS":"華宗路２７５號","OBJECTID":512448},"geometry":{"x":166360.12000000104,"y":2569845.6100000013}},{"attributes":{"ID":512476,"DIS_CODE":0,"TOWNNAME":"學甲區","LI":"仁得里","LIN":"1鄰","STREET":"華宗路","SECT":" ","MAREA":" ","LANE":" ","ALLEY":" ","HOUSE_NO":"２７７號","E_COORD97":166356.87,"N_COORD97":2569861.71,"ADDRESS":"華宗路２７７號","OBJECTID":512449},"geometry":{"x":166356.87000000104,"y":2569861.7100000046}},{"attributes":{"ID":512477,"DIS_CODE":0,"TOWNNAME":"學甲區","LI":"仁得里","LIN":"1鄰","STREET":"華宗路","SECT":" ","MAREA":" ","LANE":" ","ALLEY":" ","HOUSE_NO":"２７９號","E_COORD97":166357.79999999999,"N_COORD97":2569867.1099999999,"ADDRESS":"華宗路２７９號","OBJECTID":512450},"geometry":{"x":166357.79999999981,"y":2569867.1099999994}},{"attributes":{"ID":512478,"DIS_CODE":0,"TOWNNAME":"學甲區","LI":"仁得里","LIN":"1鄰","STREET":"華宗路","SECT":" ","MAREA":" ","LANE":" ","ALLEY":" ","HOUSE_NO":"２８１號之１","E_COORD97":166328.82000000001,"N_COORD97":2569874.0699999998,"ADDRESS":"華宗路２８１號之１","OBJECTID":512451},"geometry":{"x":166328.82000000123,"y":2569874.0700000003}},{"attributes":{"ID":512479,"DIS_CODE":0,"TOWNNAME":"學甲區","LI":"仁得里","LIN":"1鄰","STREET":"華宗路","SECT":" ","MAREA":" ","LANE":" ","ALLEY":" ","HOUSE_NO":"２８１號","E_COORD97":166329.81,"N_COORD97":2569869,"ADDRESS":"華宗路２８１號","OBJECTID":512452},"geometry":{"x":166329.81000000052,"y":2569869.0000000037}},{"attributes":{"ID":512480,"DIS_CODE":0,"TOWNNAME":"學甲區","LI":"慈福里","LIN":"1鄰","STREET":"華宗路","SECT":" ","MAREA":" ","LANE":" ","ALLEY":" ","HOUSE_NO":"２８８號之１","E_COORD97":166377.35999999999,"N_COORD97":2569955.1800000002,"ADDRESS":"華宗路２８８號之１","OBJECTID":512453},"geometry":{"x":166377.36000000127,"y":2569955.1799999997}},{"attributes":{"ID":512481,"DIS_CODE":0,"TOWNNAME":"學甲區","LI":"慈福里","LIN":"1鄰","STREET":"華宗路","SECT":" ","MAREA":" ","LANE":" ","ALLEY":" ","HOUSE_NO":"２８８號","E_COORD97":166379.42999999999,"N_COORD97":2569942.27,"ADDRESS":"華宗路２８８號","OBJECTID":512454},"geometry":{"x":166379.43000000063,"y":2569942.2700000014}},{"attributes":{"ID":512482,"DIS_CODE":0,"TOWNNAME":"學甲區","LI":"慈福里","LIN":"1鄰","STREET":"華宗路","SECT":" ","MAREA":" ","LANE":" ","ALLEY":" ","HOUSE_NO":"２９４號","E_COORD97":166381.16,"N_COORD97":2569999.2200000002,"ADDRESS":"華宗路２９４號","OBJECTID":512455},"geometry":{"x":166381.16000000015,"y":2569999.2200000007}},{"attributes":{"ID":512483,"DIS_CODE":0,"TOWNNAME":"學甲區","LI":"仁得里","LIN":"1鄰","STREET":"華宗路","SECT":" ","MAREA":" ","LANE":" ","ALLEY":" ","HOUSE_NO":"２９５號","E_COORD97":166341.95999999999,"N_COORD97":2569891.3799999999,"ADDRESS":"華宗路２９５號","OBJECTID":512456},"geometry":{"x":166341.95999999903,"y":2569891.379999999}},{"attributes":{"ID":512484,"DIS_CODE":0,"TOWNNAME":"學甲區","LI":"慈福里","LIN":"1鄰","STREET":"華宗路","SECT":" ","MAREA":" ","LANE":" ","ALLEY":" ","HOUSE_NO":"２９６號","E_COORD97":166362.54999999999,"N_COORD97":2570048.3599999999,"ADDRESS":"華宗路２９６號","OBJECTID":512457},"geometry":{"x":166362.54999999981,"y":2570048.3599999994}},{"attributes":{"ID":512485,"DIS_CODE":0,"TOWNNAME":"學甲區","LI":"仁得里","LIN":"1鄰","STREET":"華宗路","SECT":" ","MAREA":" ","LANE":" ","ALLEY":" ","HOUSE_NO":"２９７號","E_COORD97":166343.56,"N_COORD97":2569903.3900000001,"ADDRESS":"華宗路２９７號","OBJECTID":512458},"geometry":{"x":166343.55999999959,"y":2569903.3900000006}},{"attributes":{"ID":512486,"DIS_CODE":0,"TOWNNAME":"學甲區","LI":"慈福里","LIN":"1鄰","STREET":"華宗路","SECT":" ","MAREA":" ","LANE":" ","ALLEY":" ","HOUSE_NO":"３００號","E_COORD97":166358.66,"N_COORD97":2570062.3500000001,"ADDRESS":"華宗路３００號","OBJECTID":512459},"geometry":{"x":166358.66000000108,"y":2570062.3499999996}},{"attributes":{"ID":512487,"DIS_CODE":0,"TOWNNAME":"學甲區","LI":"仁得里","LIN":"1鄰","STREET":"華宗路","SECT":" ","MAREA":" ","LANE":" ","ALLEY":" ","HOUSE_NO":"３０１號","E_COORD97":166349.45999999999,"N_COORD97":2569910.02,"ADDRESS":"華宗路３０１號","OBJECTID":512460},"geometry":{"x":166349.46000000089,"y":2569910.0200000014}},{"attributes":{"ID":512488,"DIS_CODE":0,"TOWNNAME":"學甲區","LI":"仁得里","LIN":"1鄰","STREET":"華宗路","SECT":" ","MAREA":" ","LANE":" ","ALLEY":" ","HOUSE_NO":"３０３號","E_COORD97":166349.70999999999,"N_COORD97":2569916.0800000001,"ADDRESS":"華宗路３０３號","OBJECTID":512461},"geometry":{"x":166349.70999999996,"y":2569916.0800000038}},{"attributes":{"ID":512489,"DIS_CODE":0,"TOWNNAME":"學甲區","LI":"仁得里","LIN":"1鄰","STREET":"華宗路","SECT":" ","MAREA":" ","LANE":" ","ALLEY":" ","HOUSE_NO":"３０５號","E_COORD97":166339.72,"N_COORD97":2569923.73,"ADDRESS":"華宗路３０５號","OBJECTID":512462},"geometry":{"x":166339.71999999974,"y":2569923.7300000023}},{"attributes":{"ID":512490,"DIS_CODE":0,"TOWNNAME":"學甲區","LI":"仁得里","LIN":"1鄰","STREET":"華宗路","SECT":" ","MAREA":" ","LANE":" ","ALLEY":" ","HOUSE_NO":"３０７號","E_COORD97":166339.98999999999,"N_COORD97":2569928.1400000001,"ADDRESS":"華宗路３０７號","OBJECTID":512463},"geometry":{"x":166339.99000000022,"y":2569928.1400000006}},{"attributes":{"ID":512491,"DIS_CODE":0,"TOWNNAME":"學甲區","LI":"慈福里","LIN":"1鄰","STREET":"華宗路","SECT":" ","MAREA":" ","LANE":" ","ALLEY":" ","HOUSE_NO":"３０８號","E_COORD97":166358.38,"N_COORD97":2570074.9300000002,"ADDRESS":"華宗路３０８號","OBJECTID":512464},"geometry":{"x":166358.38000000082,"y":2570074.9299999997}},{"attributes":{"ID":512492,"DIS_CODE":0,"TOWNNAME":"學甲區","LI":"仁得里","LIN":"1鄰","STREET":"華宗路","SECT":" ","MAREA":" ","LANE":" ","ALLEY":" ","HOUSE_NO":"３０９號","E_COORD97":166340.01000000001,"N_COORD97":2569932.0099999998,"ADDRESS":"華宗路３０９號","OBJECTID":512465},"geometry":{"x":166340.01000000071,"y":2569932.0099999998}},{"attributes":{"ID":512493,"DIS_CODE":0,"TOWNNAME":"學甲區","LI":"仁得里","LIN":"1鄰","STREET":"華宗路","SECT":" ","MAREA":" ","LANE":" ","ALLEY":" ","HOUSE_NO":"３１１號","E_COORD97":166338.48000000001,"N_COORD97":2569968.5699999998,"ADDRESS":"華宗路３１１號","OBJECTID":512466},"geometry":{"x":166338.48000000045,"y":2569968.5700000022}},{"attributes":{"ID":512494,"DIS_CODE":0,"TOWNNAME":"學甲區","LI":"仁得里","LIN":"1鄰","STREET":"華宗路","SECT":" ","MAREA":" ","LANE":" ","ALLEY":" ","HOUSE_NO":"３１３號","E_COORD97":166306.73999999999,"N_COORD97":2570034.3799999999,"ADDRESS":"華宗路３１３號","OBJECTID":512467},"geometry":{"x":166306.74000000115,"y":2570034.379999999}},{"attributes":{"ID":512495,"DIS_CODE":0,"TOWNNAME":"學甲區","LI":"仁得里","LIN":"1鄰","STREET":"華宗路","SECT":" ","MAREA":" ","LANE":" ","ALLEY":" ","HOUSE_NO":"３１５號","E_COORD97":166305.64999999999,"N_COORD97":2570067,"ADDRESS":"華宗路３１５號","OBJECTID":512468},"geometry":{"x":166305.65000000224,"y":2570067.0000000019}},{"attributes":{"ID":512496,"DIS_CODE":0,"TOWNNAME":"學甲區","LI":"明宜里","LIN":"1鄰","STREET":"濟生路","SECT":" ","MAREA":" ","LANE":" ","ALLEY":" ","HOUSE_NO":"１８０號","E_COORD97":166064.29000000001,"N_COORD97":2570337.5299999998,"ADDRESS":"濟生路１８０號","OBJECTID":512469},"geometry":{"x":166064.29000000097,"y":2570337.5300000012}},{"attributes":{"ID":512497,"DIS_CODE":0,"TOWNNAME":"學甲區","LI":"明宜里","LIN":"1鄰","STREET":"濟生路","SECT":" ","MAREA":" ","LANE":" ","ALLEY":" ","HOUSE_NO":"１８４號","E_COORD97":166060.04999999999,"N_COORD97":2570338.75,"ADDRESS":"濟生路１８４號","OBJECTID":512470},"geometry":{"x":166060.05000000075,"y":2570338.7500000037}},{"attributes":{"ID":512498,"DIS_CODE":0,"TOWNNAME":"學甲區","LI":"明宜里","LIN":"1鄰","STREET":"濟生路","SECT":" ","MAREA":" ","LANE":" ","ALLEY":" ","HOUSE_NO":"１８６號","E_COORD97":166054.64000000001,"N_COORD97":2570340.0699999998,"ADDRESS":"濟生路１８６號","OBJECTID":512471},"geometry":{"x":166054.6400000006,"y":2570340.0699999984}},{"attributes":{"ID":512499,"DIS_CODE":0,"TOWNNAME":"學甲區","LI":"明宜里","LIN":"1鄰","STREET":"濟生路","SECT":" ","MAREA":" ","LANE":" ","ALLEY":" ","HOUSE_NO":"１８８號之１","E_COORD97":166042.19,"N_COORD97":2570342.98,"ADDRESS":"濟生路１８８號之１","OBJECTID":512472},"geometry":{"x":166042.19000000041,"y":2570342.9800000004}},{"attributes":{"ID":512500,"DIS_CODE":0,"TOWNNAME":"學甲區","LI":"明宜里","LIN":"1鄰","STREET":"濟生路","SECT":" ","MAREA":" ","LANE":" ","ALLEY":" ","HOUSE_NO":"１８８號","E_COORD97":166048,"N_COORD97":2570341.96,"ADDRESS":"濟生路１８８號","OBJECTID":512473},"geometry":{"x":166048,"y":2570341.9600000028}},{"attributes":{"ID":512501,"DIS_CODE":0,"TOWNNAME":"學甲區","LI":"明宜里","LIN":"1鄰","STREET":"濟生路","SECT":" ","MAREA":" ","LANE":" ","ALLEY":" ","HOUSE_NO":"１９０號之１","E_COORD97":166035.39999999999,"N_COORD97":2570343.9199999999,"ADDRESS":"濟生路１９０號之１","OBJECTID":512474},"geometry":{"x":166035.40000000037,"y":2570343.9199999999}},{"attributes":{"ID":512502,"DIS_CODE":0,"TOWNNAME":"學甲區","LI":"明宜里","LIN":"1鄰","STREET":"濟生路","SECT":" ","MAREA":" ","LANE":" ","ALLEY":" ","HOUSE_NO":"１９０號","E_COORD97":166029.32000000001,"N_COORD97":2570345.54,"ADDRESS":"濟生路１９０號","OBJECTID":512475},"geometry":{"x":166029.3200000003,"y":2570345.5399999991}},{"attributes":{"ID":512503,"DIS_CODE":0,"TOWNNAME":"學甲區","LI":"明宜里","LIN":"1鄰","STREET":"濟生路","SECT":" ","MAREA":" ","LANE":" ","ALLEY":" ","HOUSE_NO":"１９４號","E_COORD97":166024.26999999999,"N_COORD97":2570346.54,"ADDRESS":"濟生路１９４號","OBJECTID":512476},"geometry":{"x":166024.27000000142,"y":2570346.540000001}},{"attributes":{"ID":512504,"DIS_CODE":0,"TOWNNAME":"學甲區","LI":"新榮里","LIN":"1鄰","STREET":"寶發路","SECT":" ","MAREA":" ","LANE":" ","ALLEY":" ","HOUSE_NO":"１０５號","E_COORD97":166722.79000000001,"N_COORD97":2569652.5699999998,"ADDRESS":"寶發路１０５號","OBJECTID":512477},"geometry":{"x":166722.79000000004,"y":2569652.5700000022}},{"attributes":{"ID":512505,"DIS_CODE":0,"TOWNNAME":"學甲區","LI":"新榮里","LIN":"1鄰","STREET":"寶發路","SECT":" ","MAREA":" ","LANE":" ","ALLEY":" ","HOUSE_NO":"１０６號","E_COORD97":166720.45999999999,"N_COORD97":2569690.1299999999,"ADDRESS":"寶發路１０６號","OBJECTID":512478},"geometry":{"x":166720.46000000089,"y":2569690.129999999}},{"attributes":{"ID":512506,"DIS_CODE":0,"TOWNNAME":"學甲區","LI":"新榮里","LIN":"1鄰","STREET":"寶發路","SECT":" ","MAREA":" ","LANE":" ","ALLEY":" ","HOUSE_NO":"１５６號之５","E_COORD97":166598.67000000001,"N_COORD97":2569695.8900000001,"ADDRESS":"寶發路１５６號之５","OBJECTID":512479},"geometry":{"x":166598.67000000086,"y":2569695.8900000006}},{"attributes":{"ID":512507,"DIS_CODE":0,"TOWNNAME":"學甲區","LI":"新榮里","LIN":"1鄰","STREET":"寶發路","SECT":" ","MAREA":" ","LANE":" ","ALLEY":" ","HOUSE_NO":"１５６號之６","E_COORD97":166575.91,"N_COORD97":2569696.1600000001,"ADDRESS":"寶發路１５６號之６","OBJECTID":512480},"geometry":{"x":166575.91000000015,"y":2569696.160000002}},{"attributes":{"ID":512508,"DIS_CODE":0,"TOWNNAME":"學甲區","LI":"新榮里","LIN":"1鄰","STREET":"寶發路","SECT":" ","MAREA":" ","LANE":" ","ALLEY":" ","HOUSE_NO":"１５６號之７","E_COORD97":166598.67000000001,"N_COORD97":2569700.2799999998,"ADDRESS":"寶發路１５６號之７","OBJECTID":512481},"geometry":{"x":166598.67000000086,"y":2569700.2800000031}},{"attributes":{"ID":512509,"DIS_CODE":0,"TOWNNAME":"學甲區","LI":"新榮里","LIN":"1鄰","STREET":"寶發路","SECT":" ","MAREA":" ","LANE":" ","ALLEY":" ","HOUSE_NO":"１５６號之８","E_COORD97":166576.41,"N_COORD97":2569700.4500000002,"ADDRESS":"寶發路１５６號之８","OBJECTID":512482},"geometry":{"x":166576.40999999922,"y":2569700.4500000011}},{"attributes":{"ID":512510,"DIS_CODE":0,"TOWNNAME":"學甲區","LI":"新榮里","LIN":"1鄰","STREET":"寶發路","SECT":" ","MAREA":" ","LANE":" ","ALLEY":" ","HOUSE_NO":"１５６號","E_COORD97":166577.03,"N_COORD97":2569682.4199999999,"ADDRESS":"寶發路１５６號","OBJECTID":512483},"geometry":{"x":166577.03000000026,"y":2569682.4199999999}},{"attributes":{"ID":512511,"DIS_CODE":0,"TOWNNAME":"學甲區","LI":"新榮里","LIN":"1鄰","STREET":"寶發路","SECT":" ","MAREA":" ","LANE":" ","ALLEY":" ","HOUSE_NO":"１５６號２","E_COORD97":166577.03,"N_COORD97":2569682.4199999999,"ADDRESS":"寶發路１５６號２","OBJECTID":512484},"geometry":{"x":166577.03000000026,"y":2569682.4199999999}},{"attributes":{"ID":512512,"DIS_CODE":0,"TOWNNAME":"學甲區","LI":"新榮里","LIN":"1鄰","STREET":"寶發路","SECT":" ","MAREA":" ","LANE":" ","ALLEY":" ","HOUSE_NO":"１５８號","E_COORD97":166586.94,"N_COORD97":2569670.1600000001,"ADDRESS":"寶發路１５８號","OBJECTID":512485},"geometry":{"x":166586.94000000134,"y":2569670.1600000001}},{"attributes":{"ID":512513,"DIS_CODE":0,"TOWNNAME":"學甲區","LI":"新榮里","LIN":"1鄰","STREET":"寶發路","SECT":" ","MAREA":" ","LANE":" ","ALLEY":" ","HOUSE_NO":"１６０號","E_COORD97":166582.69,"N_COORD97":2569669.5499999998,"ADDRESS":"寶發路１６０號","OBJECTID":512486},"geometry":{"x":166582.69000000041,"y":2569669.5500000045}},{"attributes":{"ID":512514,"DIS_CODE":0,"TOWNNAME":"學甲區","LI":"新榮里","LIN":"1鄰","STREET":"寶發路","SECT":" ","MAREA":" ","LANE":" ","ALLEY":" ","HOUSE_NO":"１６２號","E_COORD97":166577.95000000001,"N_COORD97":2569669.3399999999,"ADDRESS":"寶發路１６２號","OBJECTID":512487},"geometry":{"x":166577.95000000205,"y":2569669.3399999999}},{"attributes":{"ID":512515,"DIS_CODE":0,"TOWNNAME":"學甲區","LI":"新榮里","LIN":"1鄰","STREET":"寶發路","SECT":" ","MAREA":" ","LANE":" ","ALLEY":" ","HOUSE_NO":"１６４號","E_COORD97":166573.59,"N_COORD97":2569668.7799999998,"ADDRESS":"寶發路１６４號","OBJECTID":512488},"geometry":{"x":166573.59000000078,"y":2569668.7799999993}},{"attributes":{"ID":512516,"DIS_CODE":0,"TOWNNAME":"學甲區","LI":"新榮里","LIN":"1鄰","STREET":"寶發路","SECT":" ","MAREA":" ","LANE":" ","ALLEY":" ","HOUSE_NO":"１６６號","E_COORD97":166569.38,"N_COORD97":2569667.6600000001,"ADDRESS":"寶發路１６６號","OBJECTID":512489},"geometry":{"x":166569.37999999989,"y":2569667.6600000001}},{"attributes":{"ID":512517,"DIS_CODE":0,"TOWNNAME":"學甲區","LI":"新榮里","LIN":"1鄰","STREET":"寶發路","SECT":" ","MAREA":" ","LANE":" ","ALLEY":" ","HOUSE_NO":"２０２號","E_COORD97":166491.56,"N_COORD97":2569653.6800000002,"ADDRESS":"寶發路２０２號","OBJECTID":512490},"geometry":{"x":166491.55999999959,"y":2569653.6799999997}},{"attributes":{"ID":512518,"DIS_CODE":0,"TOWNNAME":"學甲區","LI":"新榮里","LIN":"1鄰","STREET":"寶發路","SECT":" ","MAREA":" ","LANE":" ","ALLEY":" ","HOUSE_NO":"２０４號","E_COORD97":166486.57999999999,"N_COORD97":2569654.2200000002,"ADDRESS":"寶發路２０４號","OBJECTID":512491},"geometry":{"x":166486.58000000007,"y":2569654.2200000007}},{"attributes":{"ID":512519,"DIS_CODE":0,"TOWNNAME":"學甲區","LI":"新榮里","LIN":"1鄰","STREET":"寶發路","SECT":" ","MAREA":" ","LANE":" ","ALLEY":" ","HOUSE_NO":"２０６號","E_COORD97":166481.59,"N_COORD97":2569654.75,"ADDRESS":"寶發路２０６號","OBJECTID":512492},"geometry":{"x":166481.58999999985,"y":2569654.7500000019}},{"attributes":{"ID":512520,"DIS_CODE":0,"TOWNNAME":"學甲區","LI":"新榮里","LIN":"1鄰","STREET":"寶發路","SECT":" ","MAREA":" ","LANE":" ","ALLEY":" ","HOUSE_NO":"２０８號","E_COORD97":166476.22,"N_COORD97":2569655.29,"ADDRESS":"寶發路２０８號","OBJECTID":512493},"geometry":{"x":166476.22000000067,"y":2569655.2899999991}},{"attributes":{"ID":512521,"DIS_CODE":0,"TOWNNAME":"學甲區","LI":"仁得里","LIN":"1鄰","STREET":"寶發路","SECT":" ","MAREA":" ","LANE":" ","ALLEY":" ","HOUSE_NO":"２１２號","E_COORD97":166377.98000000001,"N_COORD97":2569639.5099999998,"ADDRESS":"寶發路２１２號","OBJECTID":512494},"geometry":{"x":166377.98000000231,"y":2569639.5100000016}},{"attributes":{"ID":512522,"DIS_CODE":0,"TOWNNAME":"學甲區","LI":"仁得里","LIN":"1鄰","STREET":"寶發路","SECT":" ","MAREA":" ","LANE":" ","ALLEY":" ","HOUSE_NO":"２１４號","E_COORD97":166370.44,"N_COORD97":2569638.8500000001,"ADDRESS":"寶發路２１４號","OBJECTID":512495},"geometry":{"x":166370.44000000134,"y":2569638.8499999996}},{"attributes":{"ID":512523,"DIS_CODE":0,"TOWNNAME":"學甲區","LI":"仁得里","LIN":"1鄰","STREET":"寶發路","SECT":" ","MAREA":" ","LANE":" ","ALLEY":" ","HOUSE_NO":"２２４號","E_COORD97":166341.54999999999,"N_COORD97":2569632.6200000001,"ADDRESS":"寶發路２２４號","OBJECTID":512496},"geometry":{"x":166341.55000000075,"y":2569632.6200000029}},{"attributes":{"ID":512524,"DIS_CODE":0,"TOWNNAME":"學甲區","LI":"仁得里","LIN":"1鄰","STREET":"寶發路","SECT":" ","MAREA":" ","LANE":" ","ALLEY":" ","HOUSE_NO":"２２６號","E_COORD97":166336.45999999999,"N_COORD97":2569631.9300000002,"ADDRESS":"寶發路２２６號","OBJECTID":512497},"geometry":{"x":166336.45999999996,"y":2569631.9300000034}},{"attributes":{"ID":512525,"DIS_CODE":0,"TOWNNAME":"學甲區","LI":"仁得里","LIN":"1鄰","STREET":"寶發路","SECT":" ","MAREA":" ","LANE":" ","ALLEY":" ","HOUSE_NO":"２２８號","E_COORD97":166331.37,"N_COORD97":2569631.25,"ADDRESS":"寶發路２２８號","OBJECTID":512498},"geometry":{"x":166331.37000000104,"y":2569631.2500000019}},{"attributes":{"ID":512526,"DIS_CODE":0,"TOWNNAME":"學甲區","LI":"仁得里","LIN":"1鄰","STREET":"寶發路","SECT":" ","MAREA":" ","LANE":" ","ALLEY":" ","HOUSE_NO":"２３０號","E_COORD97":166326.28,"N_COORD97":2569630.5600000001,"ADDRESS":"寶發路２３０號","OBJECTID":512499},"geometry":{"x":166326.28000000026,"y":2569630.5600000005}},{"attributes":{"ID":512527,"DIS_CODE":0,"TOWNNAME":"學甲區","LI":"仁得里","LIN":"1鄰","STREET":"寶發路","SECT":" ","MAREA":" ","LANE":" ","ALLEY":" ","HOUSE_NO":"２３４號","E_COORD97":166307.34,"N_COORD97":2569628.0099999998,"ADDRESS":"寶發路２３４號","OBJECTID":512500},"geometry":{"x":166307.34000000078,"y":2569628.0100000035}},{"attributes":{"ID":512528,"DIS_CODE":0,"TOWNNAME":"學甲區","LI":"仁得里","LIN":"1鄰","STREET":"寶發路","SECT":" ","MAREA":" ","LANE":" ","ALLEY":" ","HOUSE_NO":"２３６號","E_COORD97":166300.19,"N_COORD97":2569627.6600000001,"ADDRESS":"寶發路２３６號","OBJECTID":512501},"geometry":{"x":166300.18999999948,"y":2569627.6600000039}},{"attributes":{"ID":512529,"DIS_CODE":0,"TOWNNAME":"學甲區","LI":"仁得里","LIN":"1鄰","STREET":"寶發路","SECT":" ","MAREA":" ","LANE":" ","ALLEY":" ","HOUSE_NO":"２４８號","E_COORD97":166270.66,"N_COORD97":2569633.4900000002,"ADDRESS":"寶發路２４８號","OBJECTID":512502},"geometry":{"x":166270.66000000015,"y":2569633.4900000021}},{"attributes":{"ID":512530,"DIS_CODE":0,"TOWNNAME":"學甲區","LI":"新榮里","LIN":"1鄰","STREET":"寶發路","SECT":" ","MAREA":" ","LANE":" ","ALLEY":" ","HOUSE_NO":"２號","E_COORD97":167099.32000000001,"N_COORD97":2569559.9500000002,"ADDRESS":"寶發路２號","OBJECTID":512503},"geometry":{"x":167099.31999999937,"y":2569559.9499999974}},{"attributes":{"ID":512531,"DIS_CODE":0,"TOWNNAME":"學甲區","LI":"新榮里","LIN":"1鄰","STREET":"寶發路","SECT":" ","MAREA":" ","LANE":" ","ALLEY":" ","HOUSE_NO":"６號之２０","E_COORD97":166942.51999999999,"N_COORD97":2569609.7599999998,"ADDRESS":"寶發路６號之２０","OBJECTID":512504},"geometry":{"x":166942.51999999955,"y":2569609.7600000016}},{"attributes":{"ID":512532,"DIS_CODE":0,"TOWNNAME":"學甲區","LI":"新榮里","LIN":"1鄰","STREET":"寶發路","SECT":" ","MAREA":" ","LANE":" ","ALLEY":" ","HOUSE_NO":"６號","E_COORD97":167083.94,"N_COORD97":2569555.1699999999,"ADDRESS":"寶發路６號","OBJECTID":512505},"geometry":{"x":167083.94000000134,"y":2569555.1699999999}},{"attributes":{"ID":512533,"DIS_CODE":0,"TOWNNAME":"學甲區","LI":"新榮里","LIN":"1鄰","STREET":"寶發路","SECT":" ","MAREA":" ","LANE":" ","ALLEY":" ","HOUSE_NO":"８９號","E_COORD97":166784.51999999999,"N_COORD97":2569642.9199999999,"ADDRESS":"寶發路８９號","OBJECTID":512506},"geometry":{"x":166784.51999999955,"y":2569642.9200000018}},{"attributes":{"ID":512534,"DIS_CODE":0,"TOWNNAME":"學甲區","LI":"新榮里","LIN":"1鄰","STREET":"寶發路","SECT":" ","MAREA":" ","LANE":" ","ALLEY":" ","HOUSE_NO":"９７號","E_COORD97":166741.10000000001,"N_COORD97":2569655.6499999999,"ADDRESS":"寶發路９７號","OBJECTID":512507},"geometry":{"x":166741.10000000056,"y":2569655.6500000022}},{"attributes":{"ID":512535,"DIS_CODE":0,"TOWNNAME":"學甲區","LI":"新榮里","LIN":"1鄰","STREET":"寶發路","SECT":" ","MAREA":" ","LANE":" ","ALLEY":" ","HOUSE_NO":"９９號","E_COORD97":166734.70000000001,"N_COORD97":2569654.8300000001,"ADDRESS":"寶發路９９號","OBJECTID":512508},"geometry":{"x":166734.70000000112,"y":2569654.8300000019}},{"attributes":{"ID":512536,"DIS_CODE":0,"TOWNNAME":"學甲區","LI":"新榮里","LIN":"1鄰","STREET":"華宗路","SECT":" ","MAREA":" ","LANE":" ","ALLEY":" ","HOUSE_NO":"２３０號","E_COORD97":166437.98999999999,"N_COORD97":2569585.5800000001,"ADDRESS":"華宗路２３０號","OBJECTID":512509},"geometry":{"x":166437.99000000022,"y":2569585.5800000001}},{"attributes":{"ID":512537,"DIS_CODE":0,"TOWNNAME":"六甲區","LI":"龍湖里","LIN":"1鄰","STREET":"七甲街","SECT":" ","MAREA":" ","LANE":" ","ALLEY":" ","HOUSE_NO":"２６號","E_COORD97":183337.56,"N_COORD97":2569011.2000000002,"ADDRESS":"七甲街２６號","OBJECTID":512510},"geometry":{"x":183337.56000000052,"y":2569011.1999999993}},{"attributes":{"ID":512538,"DIS_CODE":0,"TOWNNAME":"六甲區","LI":"龍湖里","LIN":"1鄰","STREET":"七甲街","SECT":" ","MAREA":" ","LANE":" ","ALLEY":" ","HOUSE_NO":"２８號","E_COORD97":183335.14999999999,"N_COORD97":2569018.3100000001,"ADDRESS":"七甲街２８號","OBJECTID":512511},"geometry":{"x":183335.15000000037,"y":2569018.3100000005}},{"attributes":{"ID":512539,"DIS_CODE":0,"TOWNNAME":"六甲區","LI":"龍湖里","LIN":"1鄰","STREET":"七甲街","SECT":" ","MAREA":" ","LANE":" ","ALLEY":" ","HOUSE_NO":"３２號","E_COORD97":183313.22,"N_COORD97":2569026.8599999999,"ADDRESS":"七甲街３２號","OBJECTID":512512},"geometry":{"x":183313.21999999974,"y":2569026.8600000013}},{"attributes":{"ID":512540,"DIS_CODE":0,"TOWNNAME":"六甲區","LI":"龍湖里","LIN":"1鄰","STREET":"七甲街","SECT":" ","MAREA":" ","LANE":" ","ALLEY":" ","HOUSE_NO":"３４號","E_COORD97":183304.41,"N_COORD97":2569013.71,"ADDRESS":"七甲街３４號","OBJECTID":512513},"geometry":{"x":183304.41000000015,"y":2569013.7100000009}},{"attributes":{"ID":512541,"DIS_CODE":0,"TOWNNAME":"六甲區","LI":"龍湖里","LIN":"1鄰","STREET":"七甲街","SECT":" ","MAREA":" ","LANE":" ","ALLEY":" ","HOUSE_NO":"３６號","E_COORD97":183299.70999999999,"N_COORD97":2569021.7400000002,"ADDRESS":"七甲街３６號","OBJECTID":512514},"geometry":{"x":183299.71000000089,"y":2569021.7400000021}},{"attributes":{"ID":512542,"DIS_CODE":0,"TOWNNAME":"六甲區","LI":"龍湖里","LIN":"1鄰","STREET":"七甲街","SECT":" ","MAREA":" ","LANE":" ","ALLEY":" ","HOUSE_NO":"４４號","E_COORD97":183277.67000000001,"N_COORD97":2569015.8300000001,"ADDRESS":"七甲街４４號","OBJECTID":512515},"geometry":{"x":183277.67000000086,"y":2569015.8300000038}},{"attributes":{"ID":512543,"DIS_CODE":0,"TOWNNAME":"六甲區","LI":"龍湖里","LIN":"1鄰","STREET":"七甲街","SECT":" ","MAREA":" ","LANE":" ","ALLEY":" ","HOUSE_NO":"４６號","E_COORD97":183274.17999999999,"N_COORD97":2569015.7599999998,"ADDRESS":"七甲街４６號","OBJECTID":512516},"geometry":{"x":183274.18000000063,"y":2569015.7599999998}},{"attributes":{"ID":512544,"DIS_CODE":0,"TOWNNAME":"六甲區","LI":"龍湖里","LIN":"1鄰","STREET":"七甲街","SECT":" ","MAREA":" ","LANE":" ","ALLEY":" ","HOUSE_NO":"４８號","E_COORD97":183268.04999999999,"N_COORD97":2569011.2799999998,"ADDRESS":"七甲街４８號","OBJECTID":512517},"geometry":{"x":183268.05000000075,"y":2569011.2799999993}},{"attributes":{"ID":512545,"DIS_CODE":0,"TOWNNAME":"六甲區","LI":"龍湖里","LIN":"1鄰","STREET":"七甲街","SECT":" ","MAREA":" ","LANE":" ","ALLEY":" ","HOUSE_NO":"６號","E_COORD97":183389.82999999999,"N_COORD97":2569003.73,"ADDRESS":"七甲街６號","OBJECTID":512518},"geometry":{"x":183389.83000000194,"y":2569003.7300000042}},{"attributes":{"ID":512546,"DIS_CODE":0,"TOWNNAME":"六甲區","LI":"七甲里","LIN":"1鄰","STREET":"七甲街","SECT":" ","MAREA":" ","LANE":" ","ALLEY":" ","HOUSE_NO":"７７號","E_COORD97":183057.89999999999,"N_COORD97":2569000.1499999999,"ADDRESS":"七甲街７７號","OBJECTID":512519},"geometry":{"x":183057.9000000013,"y":2569000.1500000004}},{"attributes":{"ID":512547,"DIS_CODE":0,"TOWNNAME":"六甲區","LI":"七甲里","LIN":"1鄰","STREET":"七甲街","SECT":" ","MAREA":" ","LANE":" ","ALLEY":" ","HOUSE_NO":"７９號","E_COORD97":183052.98999999999,"N_COORD97":2569000.5,"ADDRESS":"七甲街７９號","OBJECTID":512520},"geometry":{"x":183052.99000000022,"y":2569000.5}},{"attributes":{"ID":512548,"DIS_CODE":0,"TOWNNAME":"六甲區","LI":"七甲里","LIN":"1鄰","STREET":"七甲街","SECT":" ","MAREA":" ","LANE":" ","ALLEY":" ","HOUSE_NO":"８１號","E_COORD97":183048.39999999999,"N_COORD97":2569001.6600000001,"ADDRESS":"七甲街８１號","OBJECTID":512521},"geometry":{"x":183048.40000000037,"y":2569001.660000002}},{"attributes":{"ID":512549,"DIS_CODE":0,"TOWNNAME":"六甲區","LI":"七甲里","LIN":"1鄰","STREET":"七甲街","SECT":" ","MAREA":" ","LANE":" ","ALLEY":" ","HOUSE_NO":"８３號","E_COORD97":183043.73999999999,"N_COORD97":2569002.3300000001,"ADDRESS":"七甲街８３號","OBJECTID":512522},"geometry":{"x":183043.74000000115,"y":2569002.3300000038}},{"attributes":{"ID":512550,"DIS_CODE":0,"TOWNNAME":"六甲區","LI":"七甲里","LIN":"1鄰","STREET":"七甲街","SECT":" ","MAREA":" ","LANE":" ","ALLEY":" ","HOUSE_NO":"８５號","E_COORD97":183038.51000000001,"N_COORD97":2569002.6699999999,"ADDRESS":"七甲街８５號","OBJECTID":512523},"geometry":{"x":183038.50999999978,"y":2569002.6699999999}},{"attributes":{"ID":512551,"DIS_CODE":0,"TOWNNAME":"六甲區","LI":"七甲里","LIN":"1鄰","STREET":"七甲街","SECT":" ","MAREA":" ","LANE":" ","ALLEY":" ","HOUSE_NO":"８７號","E_COORD97":183032.85000000001,"N_COORD97":2569003.25,"ADDRESS":"七甲街８７號","OBJECTID":512524},"geometry":{"x":183032.84999999963,"y":2569003.2500000019}},{"attributes":{"ID":512552,"DIS_CODE":0,"TOWNNAME":"六甲區","LI":"七甲里","LIN":"1鄰","STREET":"七甲街","SECT":" ","MAREA":" ","LANE":"８９","ALLEY":" ","HOUSE_NO":"４號","E_COORD97":182980.97,"N_COORD97":2569008.9300000002,"ADDRESS":"七甲街９１號","OBJECTID":512525},"geometry":{"x":182980.96999999974,"y":2569008.9300000016}},{"attributes":{"ID":512553,"DIS_CODE":0,"TOWNNAME":"六甲區","LI":"水林里","LIN":"1鄰","STREET":"中山路","SECT":" ","MAREA":" ","LANE":" ","ALLEY":" ","HOUSE_NO":"１３８號","E_COORD97":183341.07000000001,"N_COORD97":2570065.5,"ADDRESS":"中山路１３８號","OBJECTID":512526},"geometry":{"x":183341.07000000216,"y":2570065.4999999981}},{"attributes":{"ID":512554,"DIS_CODE":0,"TOWNNAME":"六甲區","LI":"水林里","LIN":"1鄰","STREET":"中山路","SECT":" ","MAREA":" ","LANE":" ","ALLEY":" ","HOUSE_NO":"１４０號","E_COORD97":183329.12,"N_COORD97":2570068.6200000001,"ADDRESS":"中山路１４０號","OBJECTID":512527},"geometry":{"x":183329.12000000104,"y":2570068.620000001}},{"attributes":{"ID":512555,"DIS_CODE":0,"TOWNNAME":"南區","LI":"喜北里","LIN":"1鄰","STREET":"濱南路","SECT":" ","MAREA":" ","LANE":" ","ALLEY":" ","HOUSE_NO":"２３９號","E_COORD97":165875.06,"N_COORD97":2539156.96,"ADDRESS":"濱南路２３９號","OBJECTID":512528},"geometry":{"x":165875.06000000052,"y":2539156.9600000046}},{"attributes":{"ID":512556,"DIS_CODE":0,"TOWNNAME":"南區","LI":"喜北里","LIN":"1鄰","STREET":"喜樹路","SECT":" ","MAREA":" ","LANE":" ","ALLEY":" ","HOUSE_NO":"２２號","E_COORD97":165867.59,"N_COORD97":2538683.6800000002,"ADDRESS":"喜樹路２２號","OBJECTID":512529},"geometry":{"x":165867.58999999985,"y":2538683.6800000016}},{"attributes":{"ID":512557,"DIS_CODE":0,"TOWNNAME":"南區","LI":"喜北里","LIN":"1鄰","STREET":"喜樹路","SECT":" ","MAREA":" ","LANE":" ","ALLEY":" ","HOUSE_NO":"２２號之１","E_COORD97":165867.59,"N_COORD97":2538678.6099999999,"ADDRESS":"喜樹路２２號之１","OBJECTID":512530},"geometry":{"x":165867.58999999985,"y":2538678.6099999994}},{"attributes":{"ID":512558,"DIS_CODE":0,"TOWNNAME":"南區","LI":"喜北里","LIN":"1鄰","STREET":"喜樹路","SECT":" ","MAREA":" ","LANE":" ","ALLEY":" ","HOUSE_NO":"２２號之２","E_COORD97":165867.54000000001,"N_COORD97":2538674.3500000001,"ADDRESS":"喜樹路２２號之２","OBJECTID":512531},"geometry":{"x":165867.54000000097,"y":2538674.3499999996}},{"attributes":{"ID":512559,"DIS_CODE":0,"TOWNNAME":"南區","LI":"喜北里","LIN":"1鄰","STREET":"喜樹路","SECT":" ","MAREA":" ","LANE":" ","ALLEY":" ","HOUSE_NO":"２２號之３","E_COORD97":165867.79999999999,"N_COORD97":2538669.9300000002,"ADDRESS":"喜樹路２２號之３","OBJECTID":512532},"geometry":{"x":165867.79999999981,"y":2538669.9299999997}},{"attributes":{"ID":512560,"DIS_CODE":0,"TOWNNAME":"南區","LI":"喜北里","LIN":"1鄰","STREET":"喜樹路","SECT":" ","MAREA":" ","LANE":" ","ALLEY":" ","HOUSE_NO":"２２號之４","E_COORD97":165867.85000000001,"N_COORD97":2538665.8799999999,"ADDRESS":"喜樹路２２號之４","OBJECTID":512533},"geometry":{"x":165867.85000000149,"y":2538665.879999999}},{"attributes":{"ID":512561,"DIS_CODE":0,"TOWNNAME":"南區","LI":"喜北里","LIN":"1鄰","STREET":"喜樹路","SECT":" ","MAREA":" ","LANE":" ","ALLEY":" ","HOUSE_NO":"２２號之５","E_COORD97":165868.10999999999,"N_COORD97":2538661.8599999999,"ADDRESS":"喜樹路２２號之５","OBJECTID":512534},"geometry":{"x":165868.11000000034,"y":2538661.8600000013}},{"attributes":{"ID":512562,"DIS_CODE":0,"TOWNNAME":"南區","LI":"喜北里","LIN":"1鄰","STREET":"喜樹路","SECT":" ","MAREA":" ","LANE":" ","ALLEY":" ","HOUSE_NO":"２２號之６","E_COORD97":165868.04999999999,"N_COORD97":2538657.5499999998,"ADDRESS":"喜樹路２２號之６","OBJECTID":512535},"geometry":{"x":165868.04999999981,"y":2538657.5499999989}},{"attributes":{"ID":512563,"DIS_CODE":0,"TOWNNAME":"南區","LI":"喜北里","LIN":"1鄰","STREET":"喜樹路","SECT":" ","MAREA":" ","LANE":" ","ALLEY":" ","HOUSE_NO":"２２號之７","E_COORD97":165868.10999999999,"N_COORD97":2538653.6099999999,"ADDRESS":"喜樹路２２號之７","OBJECTID":512536},"geometry":{"x":165868.11000000034,"y":2538653.6100000013}},{"attributes":{"ID":512564,"DIS_CODE":0,"TOWNNAME":"南區","LI":"喜北里","LIN":"1鄰","STREET":"喜樹路","SECT":" ","MAREA":" ","LANE":" ","ALLEY":" ","HOUSE_NO":"２２號之８","E_COORD97":165867.95000000001,"N_COORD97":2538648.9700000002,"ADDRESS":"喜樹路２２號之８","OBJECTID":512537},"geometry":{"x":165867.95000000112,"y":2538648.9700000025}},{"attributes":{"ID":512565,"DIS_CODE":0,"TOWNNAME":"南區","LI":"喜北里","LIN":"1鄰","STREET":"喜樹路","SECT":" ","MAREA":" ","LANE":" ","ALLEY":" ","HOUSE_NO":"２２號之９","E_COORD97":165868.20999999999,"N_COORD97":2538644.7200000002,"ADDRESS":"喜樹路２２號之９","OBJECTID":512538},"geometry":{"x":165868.21000000089,"y":2538644.7200000007}},{"attributes":{"ID":512566,"DIS_CODE":0,"TOWNNAME":"南區","LI":"喜北里","LIN":"1鄰","STREET":"喜樹路","SECT":" ","MAREA":" ","LANE":" ","ALLEY":" ","HOUSE_NO":"２２號之１０","E_COORD97":165868.20999999999,"N_COORD97":2538641.0299999998,"ADDRESS":"喜樹路２２號之１０","OBJECTID":512539},"geometry":{"x":165868.21000000089,"y":2538641.0300000012}},{"attributes":{"ID":512567,"DIS_CODE":0,"TOWNNAME":"南區","LI":"喜北里","LIN":"1鄰","STREET":"喜樹路","SECT":" ","MAREA":" ","LANE":" ","ALLEY":" ","HOUSE_NO":"２２號之１１","E_COORD97":165868.31,"N_COORD97":2538636.6499999999,"ADDRESS":"喜樹路２２號之１１","OBJECTID":512540},"geometry":{"x":165868.31000000052,"y":2538636.6500000022}},{"attributes":{"ID":512568,"DIS_CODE":0,"TOWNNAME":"南區","LI":"大林里","LIN":"1鄰","STREET":"大林路","SECT":" ","MAREA":" ","LANE":" ","ALLEY":" ","HOUSE_NO":"４５號","E_COORD97":169286.64000000001,"N_COORD97":2541809.2400000002,"ADDRESS":"大林路４５號","OBJECTID":512541},"geometry":{"x":169286.63999999873,"y":2541809.2400000021}},{"attributes":{"ID":512569,"DIS_CODE":0,"TOWNNAME":"南區","LI":"大林里","LIN":"1鄰","STREET":"大林路","SECT":" ","MAREA":" ","LANE":" ","ALLEY":" ","HOUSE_NO":"４３號","E_COORD97":169295.23000000001,"N_COORD97":2541811.4100000001,"ADDRESS":"大林路４３號","OBJECTID":512542},"geometry":{"x":169295.23000000045,"y":2541811.410000002}},{"attributes":{"ID":512570,"DIS_CODE":0,"TOWNNAME":"南區","LI":"大林里","LIN":"1鄰","STREET":"大林路","SECT":" ","MAREA":" ","LANE":" ","ALLEY":" ","HOUSE_NO":"４９號","E_COORD97":169278.04999999999,"N_COORD97":2541808,"ADDRESS":"大林路４９號","OBJECTID":512543},"geometry":{"x":169278.05000000075,"y":2541808.0000000019}},{"attributes":{"ID":512571,"DIS_CODE":0,"TOWNNAME":"南區","LI":"大林里","LIN":"1鄰","STREET":"大林路","SECT":" ","MAREA":" ","LANE":" ","ALLEY":" ","HOUSE_NO":"５１號","E_COORD97":169274.64000000001,"N_COORD97":2541806.4500000002,"ADDRESS":"大林路５１號","OBJECTID":512544},"geometry":{"x":169274.63999999966,"y":2541806.450000003}},{"attributes":{"ID":512572,"DIS_CODE":0,"TOWNNAME":"南區","LI":"大林里","LIN":"1鄰","STREET":"大林路","SECT":" ","MAREA":" ","LANE":" ","ALLEY":" ","HOUSE_NO":"４７號","E_COORD97":169280.95000000001,"N_COORD97":2541808.4100000001,"ADDRESS":"大林路４７號","OBJECTID":512545},"geometry":{"x":169280.95000000112,"y":2541808.410000002}},{"attributes":{"ID":512573,"DIS_CODE":0,"TOWNNAME":"南區","LI":"大林里","LIN":"1鄰","STREET":"大林路","SECT":" ","MAREA":" ","LANE":" ","ALLEY":" ","HOUSE_NO":"７號","E_COORD97":169367.92999999999,"N_COORD97":2541832.9700000002,"ADDRESS":"大林路７號","OBJECTID":512546},"geometry":{"x":169367.93000000156,"y":2541832.9700000025}},{"attributes":{"ID":512574,"DIS_CODE":0,"TOWNNAME":"南區","LI":"大林里","LIN":"1鄰","STREET":"大林路","SECT":" ","MAREA":" ","LANE":" ","ALLEY":" ","HOUSE_NO":"９號","E_COORD97":169363.79000000001,"N_COORD97":2541832.3500000001,"ADDRESS":"大林路９號","OBJECTID":512547},"geometry":{"x":169363.79000000004,"y":2541832.3500000015}},{"attributes":{"ID":512575,"DIS_CODE":0,"TOWNNAME":"南區","LI":"大林里","LIN":"1鄰","STREET":"大林路","SECT":" ","MAREA":" ","LANE":" ","ALLEY":" ","HOUSE_NO":"１１號","E_COORD97":169359.85000000001,"N_COORD97":2541831.4199999999,"ADDRESS":"大林路１１號","OBJECTID":512548},"geometry":{"x":169359.85000000149,"y":2541831.4200000018}},{"attributes":{"ID":512576,"DIS_CODE":0,"TOWNNAME":"南區","LI":"大林里","LIN":"1鄰","STREET":"大林路","SECT":" ","MAREA":" ","LANE":" ","ALLEY":" ","HOUSE_NO":"１３號","E_COORD97":169355.09,"N_COORD97":2541829.46,"ADDRESS":"大林路１３號","OBJECTID":512549},"geometry":{"x":169355.09000000171,"y":2541829.4600000028}},{"attributes":{"ID":512577,"DIS_CODE":0,"TOWNNAME":"南區","LI":"大林里","LIN":"1鄰","STREET":"大林路","SECT":" ","MAREA":" ","LANE":" ","ALLEY":" ","HOUSE_NO":"１號","E_COORD97":169379.31,"N_COORD97":2541835.2400000002,"ADDRESS":"大林路１號","OBJECTID":512550},"geometry":{"x":169379.31000000052,"y":2541835.2400000002}},{"attributes":{"ID":512578,"DIS_CODE":0,"TOWNNAME":"南區","LI":"大林里","LIN":"1鄰","STREET":"大林路","SECT":" ","MAREA":" ","LANE":" ","ALLEY":" ","HOUSE_NO":"３號","E_COORD97":169376.10000000001,"N_COORD97":2541834.4199999999,"ADDRESS":"大林路３號","OBJECTID":512551},"geometry":{"x":169376.09999999963,"y":2541834.4200000037}},{"attributes":{"ID":512579,"DIS_CODE":0,"TOWNNAME":"南區","LI":"大林里","LIN":"1鄰","STREET":"大林路","SECT":" ","MAREA":" ","LANE":" ","ALLEY":" ","HOUSE_NO":"５號","E_COORD97":169372.26999999999,"N_COORD97":2541834,"ADDRESS":"大林路５號","OBJECTID":512552},"geometry":{"x":169372.27000000142,"y":2541834.0000000037}},{"attributes":{"ID":512580,"DIS_CODE":0,"TOWNNAME":"北區","LI":"文成里","LIN":"1鄰","STREET":"和緯路","SECT":"三段","MAREA":" ","LANE":" ","ALLEY":" ","HOUSE_NO":"２５１號","E_COORD97":167733.32999999999,"N_COORD97":2545654.3999999999,"ADDRESS":"和緯路三段２５１號","OBJECTID":512553},"geometry":{"x":167733.33000000101,"y":2545654.4000000004}},{"attributes":{"ID":512581,"DIS_CODE":0,"TOWNNAME":"北區","LI":"文成里","LIN":"1鄰","STREET":"和緯路","SECT":"三段","MAREA":" ","LANE":" ","ALLEY":" ","HOUSE_NO":"２５３號","E_COORD97":167729.26999999999,"N_COORD97":2545653.3900000001,"ADDRESS":"和緯路三段２５３號","OBJECTID":512554},"geometry":{"x":167729.26999999955,"y":2545653.3900000025}},{"attributes":{"ID":512582,"DIS_CODE":0,"TOWNNAME":"北區","LI":"文成里","LIN":"1鄰","STREET":"和緯路","SECT":"三段","MAREA":" ","LANE":" ","ALLEY":" ","HOUSE_NO":"２５５號","E_COORD97":167725.04000000001,"N_COORD97":2545652.04,"ADDRESS":"和緯路三段２５５號","OBJECTID":512555},"geometry":{"x":167725.04000000097,"y":2545652.040000001}},{"attributes":{"ID":512583,"DIS_CODE":0,"TOWNNAME":"北區","LI":"文成里","LIN":"1鄰","STREET":"和緯路","SECT":"三段","MAREA":" ","LANE":" ","ALLEY":" ","HOUSE_NO":"２５７號","E_COORD97":167721.32000000001,"N_COORD97":2545650.3500000001,"ADDRESS":"和緯路三段２５７號","OBJECTID":512556},"geometry":{"x":167721.3200000003,"y":2545650.3500000015}},{"attributes":{"ID":512584,"DIS_CODE":0,"TOWNNAME":"北區","LI":"文成里","LIN":"1鄰","STREET":"和緯路","SECT":"三段","MAREA":" ","LANE":" ","ALLEY":" ","HOUSE_NO":"２５９號","E_COORD97":167717.25,"N_COORD97":2545648.8300000001,"ADDRESS":"和緯路三段２５９號","OBJECTID":512557},"geometry":{"x":167717.25000000093,"y":2545648.8300000001}},{"attributes":{"ID":512585,"DIS_CODE":0,"TOWNNAME":"北區","LI":"文成里","LIN":"1鄰","STREET":"和緯路","SECT":"三段","MAREA":" ","LANE":" ","ALLEY":" ","HOUSE_NO":"２６１號","E_COORD97":167713.01999999999,"N_COORD97":2545647.2999999998,"ADDRESS":"和緯路三段２６１號","OBJECTID":512558},"geometry":{"x":167713.02000000048,"y":2545647.3000000026}},{"attributes":{"ID":512586,"DIS_CODE":0,"TOWNNAME":"北區","LI":"文成里","LIN":"1鄰","STREET":"和緯路","SECT":"三段","MAREA":" ","LANE":" ","ALLEY":" ","HOUSE_NO":"２６３號","E_COORD97":167708.45000000001,"N_COORD97":2545645.9500000002,"ADDRESS":"和緯路三段２６３號","OBJECTID":512559},"geometry":{"x":167708.45000000019,"y":2545645.9500000011}},{"attributes":{"ID":512587,"DIS_CODE":0,"TOWNNAME":"北區","LI":"文成里","LIN":"1鄰","STREET":"和緯路","SECT":"三段","MAREA":" ","LANE":" ","ALLEY":" ","HOUSE_NO":"２６５號","E_COORD97":167704.56,"N_COORD97":2545644.6000000001,"ADDRESS":"和緯路三段２６５號","OBJECTID":512560},"geometry":{"x":167704.56000000052,"y":2545644.6000000015}},{"attributes":{"ID":512588,"DIS_CODE":0,"TOWNNAME":"北區","LI":"文成里","LIN":"1鄰","STREET":"和緯路","SECT":"三段","MAREA":" ","LANE":" ","ALLEY":" ","HOUSE_NO":"２６７號","E_COORD97":167700.5,"N_COORD97":2545643.25,"ADDRESS":"和緯路三段２６７號","OBJECTID":512561},"geometry":{"x":167700.50000000093,"y":2545643.2500000037}},{"attributes":{"ID":512589,"DIS_CODE":0,"TOWNNAME":"北區","LI":"文成里","LIN":"1鄰","STREET":"和緯路","SECT":"三段","MAREA":" ","LANE":" ","ALLEY":" ","HOUSE_NO":"２６９號","E_COORD97":167695.92999999999,"N_COORD97":2545641.73,"ADDRESS":"和緯路三段２６９號","OBJECTID":512562},"geometry":{"x":167695.9299999997,"y":2545641.7300000023}},{"attributes":{"ID":512590,"DIS_CODE":0,"TOWNNAME":"北區","LI":"文成里","LIN":"1鄰","STREET":"和緯路","SECT":"三段","MAREA":" ","LANE":" ","ALLEY":" ","HOUSE_NO":"２７１號","E_COORD97":167692.04000000001,"N_COORD97":2545640.3799999999,"ADDRESS":"和緯路三段２７１號","OBJECTID":512563},"geometry":{"x":167692.04000000004,"y":2545640.379999999}},{"attributes":{"ID":512591,"DIS_CODE":0,"TOWNNAME":"北區","LI":"文成里","LIN":"1鄰","STREET":"和緯路","SECT":"三段","MAREA":" ","LANE":" ","ALLEY":" ","HOUSE_NO":"２７３號","E_COORD97":167687.81,"N_COORD97":2545639.1899999999,"ADDRESS":"和緯路三段２７３號","OBJECTID":512564},"geometry":{"x":167687.80999999959,"y":2545639.1899999995}},{"attributes":{"ID":512592,"DIS_CODE":0,"TOWNNAME":"北區","LI":"文成里","LIN":"1鄰","STREET":"和緯路","SECT":"三段","MAREA":" ","LANE":" ","ALLEY":" ","HOUSE_NO":"２７５號","E_COORD97":167684.25,"N_COORD97":2545637.5,"ADDRESS":"和緯路三段２７５號","OBJECTID":512565},"geometry":{"x":167684.25,"y":2545637.5}},{"attributes":{"ID":512593,"DIS_CODE":0,"TOWNNAME":"北區","LI":"文成里","LIN":"1鄰","STREET":"和緯路","SECT":"三段","MAREA":" ","LANE":" ","ALLEY":" ","HOUSE_NO":"２７７號","E_COORD97":167679.67999999999,"N_COORD97":2545635.98,"ADDRESS":"和緯路三段２７７號","OBJECTID":512566},"geometry":{"x":167679.68000000063,"y":2545635.9800000023}},{"attributes":{"ID":512594,"DIS_CODE":0,"TOWNNAME":"北區","LI":"文成里","LIN":"1鄰","STREET":"和緯路","SECT":"三段","MAREA":" ","LANE":" ","ALLEY":" ","HOUSE_NO":"２７９號","E_COORD97":167675.79000000001,"N_COORD97":2545634.7999999998,"ADDRESS":"和緯路三段２７９號","OBJECTID":512567},"geometry":{"x":167675.7900000019,"y":2545634.8000000026}},{"attributes":{"ID":512595,"DIS_CODE":0,"TOWNNAME":"北區","LI":"文成里","LIN":"1鄰","STREET":"和緯路","SECT":"三段","MAREA":" ","LANE":" ","ALLEY":" ","HOUSE_NO":"２８１號","E_COORD97":167672.07000000001,"N_COORD97":2545632.6000000001,"ADDRESS":"和緯路三段２８１號","OBJECTID":512568},"geometry":{"x":167672.0700000003,"y":2545632.5999999996}},{"attributes":{"ID":512596,"DIS_CODE":0,"TOWNNAME":"北區","LI":"文成里","LIN":"1鄰","STREET":"和緯路","SECT":"三段","MAREA":" ","LANE":" ","ALLEY":" ","HOUSE_NO":"３２７號","E_COORD97":167632.39999999999,"N_COORD97":2545581.4100000001,"ADDRESS":"和緯路三段３２７號","OBJECTID":512569},"geometry":{"x":167632.40000000037,"y":2545581.4100000039}},{"attributes":{"ID":512597,"DIS_CODE":0,"TOWNNAME":"北區","LI":"文成里","LIN":"1鄰","STREET":"和緯路","SECT":"三段","MAREA":" ","LANE":" ","ALLEY":" ","HOUSE_NO":"３５１號","E_COORD97":167501.53,"N_COORD97":2545568.8700000001,"ADDRESS":"和緯路三段３５１號","OBJECTID":512570},"geometry":{"x":167501.53000000212,"y":2545568.8700000048}},{"attributes":{"ID":512598,"DIS_CODE":0,"TOWNNAME":"北區","LI":"文成里","LIN":"1鄰","STREET":"和緯路","SECT":"三段","MAREA":" ","LANE":" ","ALLEY":" ","HOUSE_NO":"３５７號","E_COORD97":167487.56,"N_COORD97":2545568.8700000001,"ADDRESS":"和緯路三段３５７號","OBJECTID":512571},"geometry":{"x":167487.56000000052,"y":2545568.8700000048}},{"attributes":{"ID":512599,"DIS_CODE":0,"TOWNNAME":"北區","LI":"文成里","LIN":"1鄰","STREET":"和緯路","SECT":"三段","MAREA":" ","LANE":" ","ALLEY":" ","HOUSE_NO":"３６３號","E_COORD97":167478.01999999999,"N_COORD97":2545568.8700000001,"ADDRESS":"和緯路三段３６３號","OBJECTID":512572},"geometry":{"x":167478.01999999955,"y":2545568.8700000048}},{"attributes":{"ID":512600,"DIS_CODE":0,"TOWNNAME":"北區","LI":"文成里","LIN":"1鄰","STREET":"和緯路","SECT":"三段","MAREA":" ","LANE":" ","ALLEY":" ","HOUSE_NO":"３７１號","E_COORD97":167468.98000000001,"N_COORD97":2545568.8700000001,"ADDRESS":"和緯路三段３７１號","OBJECTID":512573},"geometry":{"x":167468.98000000045,"y":2545568.8700000048}},{"attributes":{"ID":512601,"DIS_CODE":0,"TOWNNAME":"北區","LI":"文成里","LIN":"1鄰","STREET":"和緯路","SECT":"三段","MAREA":" ","LANE":" ","ALLEY":" ","HOUSE_NO":"３７３號","E_COORD97":167461.60000000001,"N_COORD97":2545571.6299999999,"ADDRESS":"和緯路三段３７３號","OBJECTID":512574},"geometry":{"x":167461.60000000056,"y":2545571.6300000027}},{"attributes":{"ID":512602,"DIS_CODE":0,"TOWNNAME":"北區","LI":"大道里","LIN":"1鄰","STREET":"北門路","SECT":"二段","MAREA":" ","LANE":" ","ALLEY":" ","HOUSE_NO":"６０８號","E_COORD97":169696.48999999999,"N_COORD97":2545747.73,"ADDRESS":"北門路二段６０８號","OBJECTID":512575},"geometry":{"x":169696.49000000022,"y":2545747.7300000004}},{"attributes":{"ID":512603,"DIS_CODE":0,"TOWNNAME":"北區","LI":"大道里","LIN":"1鄰","STREET":"北門路","SECT":"二段","MAREA":" ","LANE":" ","ALLEY":" ","HOUSE_NO":"６１０號","E_COORD97":169697.76000000001,"N_COORD97":2545752.8100000001,"ADDRESS":"北門路二段６１０號","OBJECTID":512576},"geometry":{"x":169697.75999999978,"y":2545752.8100000024}},{"attributes":{"ID":512604,"DIS_CODE":0,"TOWNNAME":"北區","LI":"大道里","LIN":"1鄰","STREET":"北門路","SECT":"二段","MAREA":" ","LANE":" ","ALLEY":" ","HOUSE_NO":"６１２號","E_COORD97":169699.35000000001,"N_COORD97":2545757.5699999998,"ADDRESS":"北門路二段６１２號","OBJECTID":512577},"geometry":{"x":169699.35000000056,"y":2545757.5700000022}},{"attributes":{"ID":512605,"DIS_CODE":0,"TOWNNAME":"北區","LI":"大道里","LIN":"1鄰","STREET":"北門路","SECT":"二段","MAREA":" ","LANE":" ","ALLEY":" ","HOUSE_NO":"６１６號","E_COORD97":169700.62,"N_COORD97":2545762.6499999999,"ADDRESS":"北門路二段６１６號","OBJECTID":512578},"geometry":{"x":169700.62000000011,"y":2545762.6499999985}},{"attributes":{"ID":512606,"DIS_CODE":0,"TOWNNAME":"北區","LI":"大道里","LIN":"1鄰","STREET":"北門路","SECT":"二段","MAREA":" ","LANE":" ","ALLEY":" ","HOUSE_NO":"６１８號","E_COORD97":169702.20999999999,"N_COORD97":2545767.4100000001,"ADDRESS":"北門路二段６１８號","OBJECTID":512579},"geometry":{"x":169702.21000000089,"y":2545767.4099999983}},{"attributes":{"ID":512607,"DIS_CODE":0,"TOWNNAME":"北區","LI":"大道里","LIN":"1鄰","STREET":"北門路","SECT":"二段","MAREA":" ","LANE":" ","ALLEY":" ","HOUSE_NO":"６２０號","E_COORD97":169704.10999999999,"N_COORD97":2545772.1699999999,"ADDRESS":"北門路二段６２０號","OBJECTID":512580},"geometry":{"x":169704.11000000034,"y":2545772.1699999999}},{"attributes":{"ID":512608,"DIS_CODE":0,"TOWNNAME":"北區","LI":"大道里","LIN":"1鄰","STREET":"北門路","SECT":"二段","MAREA":" ","LANE":" ","ALLEY":" ","HOUSE_NO":"６２２號","E_COORD97":169705.38,"N_COORD97":2545776.9399999999,"ADDRESS":"北門路二段６２２號","OBJECTID":512581},"geometry":{"x":169705.37999999989,"y":2545776.9400000032}},{"attributes":{"ID":512609,"DIS_CODE":0,"TOWNNAME":"北區","LI":"大道里","LIN":"1鄰","STREET":"北門路","SECT":"二段","MAREA":" ","LANE":" ","ALLEY":" ","HOUSE_NO":"５１８號","E_COORD97":169639.34,"N_COORD97":2545557.7799999998,"ADDRESS":"北門路二段５１８號","OBJECTID":512582},"geometry":{"x":169639.33999999985,"y":2545557.7800000012}},{"attributes":{"ID":512610,"DIS_CODE":0,"TOWNNAME":"北區","LI":"公園里","LIN":"1鄰","STREET":"北門路","SECT":"二段","MAREA":" ","LANE":" ","ALLEY":" ","HOUSE_NO":"３１號","E_COORD97":169242.31,"N_COORD97":2544285.0499999998,"ADDRESS":"北門路二段３１號","OBJECTID":512583},"geometry":{"x":169242.30999999959,"y":2544285.0500000007}},{"attributes":{"ID":512611,"DIS_CODE":0,"TOWNNAME":"北區","LI":"大道里","LIN":"1鄰","STREET":"北門路","SECT":"二段","MAREA":" ","LANE":" ","ALLEY":" ","HOUSE_NO":"５００號","E_COORD97":169630.14000000001,"N_COORD97":2545527.9399999999,"ADDRESS":"北門路二段５００號","OBJECTID":512584},"geometry":{"x":169630.13999999966,"y":2545527.9399999995}},{"attributes":{"ID":512612,"DIS_CODE":0,"TOWNNAME":"北區","LI":"大道里","LIN":"1鄰","STREET":"北門路","SECT":"二段","MAREA":" ","LANE":" ","ALLEY":" ","HOUSE_NO":"５０２號","E_COORD97":169631.41,"N_COORD97":2545532.7000000002,"ADDRESS":"北門路二段５０２號","OBJECTID":512585},"geometry":{"x":169631.41000000108,"y":2545532.6999999993}},{"attributes":{"ID":512613,"DIS_CODE":0,"TOWNNAME":"北區","LI":"大道里","LIN":"1鄰","STREET":"北門路","SECT":"二段","MAREA":" ","LANE":" ","ALLEY":" ","HOUSE_NO":"５０６號","E_COORD97":169632.35999999999,"N_COORD97":2545537.1400000001,"ADDRESS":"北門路二段５０６號","OBJECTID":512586},"geometry":{"x":169632.36000000127,"y":2545537.1400000025}},{"attributes":{"ID":512614,"DIS_CODE":0,"TOWNNAME":"北區","LI":"大道里","LIN":"1鄰","STREET":"北門路","SECT":"二段","MAREA":" ","LANE":" ","ALLEY":" ","HOUSE_NO":"５０８號","E_COORD97":169633.95000000001,"N_COORD97":2545541.27,"ADDRESS":"北門路二段５０８號","OBJECTID":512587},"geometry":{"x":169633.95000000019,"y":2545541.2700000014}},{"attributes":{"ID":512615,"DIS_CODE":0,"TOWNNAME":"北區","LI":"大道里","LIN":"1鄰","STREET":"北門路","SECT":"二段","MAREA":" ","LANE":" ","ALLEY":" ","HOUSE_NO":"５１０號","E_COORD97":169635.22,"N_COORD97":2545545.3999999999,"ADDRESS":"北門路二段５１０號","OBJECTID":512588},"geometry":{"x":169635.21999999974,"y":2545545.4000000022}},{"attributes":{"ID":512616,"DIS_CODE":0,"TOWNNAME":"北區","LI":"玉皇里","LIN":"1鄰","STREET":"公園南路","SECT":" ","MAREA":" ","LANE":" ","ALLEY":" ","HOUSE_NO":"１６９號","E_COORD97":168637.17000000001,"N_COORD97":2544675,"ADDRESS":"公園南路１６９號","OBJECTID":512589},"geometry":{"x":168637.16999999993,"y":2544674.9999999981}},{"attributes":{"ID":512617,"DIS_CODE":0,"TOWNNAME":"北區","LI":"賢北里","LIN":"1鄰","STREET":"中華北路","SECT":"一段","MAREA":" ","LANE":" ","ALLEY":" ","HOUSE_NO":"１號","E_COORD97":166554.29000000001,"N_COORD97":2545291.8799999999,"ADDRESS":"中華北路一段１號","OBJECTID":512590},"geometry":{"x":166554.29000000097,"y":2545291.8800000027}},{"attributes":{"ID":512618,"DIS_CODE":0,"TOWNNAME":"北區","LI":"文元里","LIN":"1鄰","STREET":"文賢三街","SECT":" ","MAREA":" ","LANE":" ","ALLEY":" ","HOUSE_NO":"３５０號","E_COORD97":167805.56,"N_COORD97":2546391.2400000002,"ADDRESS":"文賢三街３５０號","OBJECTID":512591},"geometry":{"x":167805.56000000145,"y":2546391.2400000002}},{"attributes":{"ID":512619,"DIS_CODE":0,"TOWNNAME":"北區","LI":"文元里","LIN":"1鄰","STREET":"文賢三街","SECT":" ","MAREA":" ","LANE":" ","ALLEY":" ","HOUSE_NO":"３４２號","E_COORD97":167806.45000000001,"N_COORD97":2546373.46,"ADDRESS":"文賢三街３４２號","OBJECTID":512592},"geometry":{"x":167806.45000000019,"y":2546373.4600000009}},{"attributes":{"ID":512620,"DIS_CODE":0,"TOWNNAME":"北區","LI":"文元里","LIN":"1鄰","STREET":"文賢三街","SECT":" ","MAREA":" ","LANE":" ","ALLEY":" ","HOUSE_NO":"３４６號","E_COORD97":167806.07000000001,"N_COORD97":2546379.4300000002,"ADDRESS":"文賢三街３４６號","OBJECTID":512593},"geometry":{"x":167806.0700000003,"y":2546379.4299999997}},{"attributes":{"ID":512621,"DIS_CODE":0,"TOWNNAME":"北區","LI":"文元里","LIN":"1鄰","STREET":"文賢三街","SECT":" ","MAREA":" ","LANE":" ","ALLEY":" ","HOUSE_NO":"３４８號","E_COORD97":167805.81,"N_COORD97":2546385.27,"ADDRESS":"文賢三街３４８號","OBJECTID":512594},"geometry":{"x":167805.81000000052,"y":2546385.2700000033}},{"attributes":{"ID":512622,"DIS_CODE":0,"TOWNNAME":"北區","LI":"文元里","LIN":"1鄰","STREET":"文賢三街","SECT":" ","MAREA":" ","LANE":" ","ALLEY":" ","HOUSE_NO":"３５６號","E_COORD97":167805.17999999999,"N_COORD97":2546397.3399999999,"ADDRESS":"文賢三街３５６號","OBJECTID":512595},"geometry":{"x":167805.18000000063,"y":2546397.3399999999}},{"attributes":{"ID":512623,"DIS_CODE":0,"TOWNNAME":"北區","LI":"文元里","LIN":"1鄰","STREET":"文賢三街","SECT":" ","MAREA":" ","LANE":" ","ALLEY":" ","HOUSE_NO":"３５８號","E_COORD97":167804.92000000001,"N_COORD97":2546402.9300000002,"ADDRESS":"文賢三街３５８號","OBJECTID":512596},"geometry":{"x":167804.91999999993,"y":2546402.9299999997}},{"attributes":{"ID":512624,"DIS_CODE":0,"TOWNNAME":"北區","LI":"文元里","LIN":"1鄰","STREET":"文賢三街","SECT":" ","MAREA":" ","LANE":" ","ALLEY":" ","HOUSE_NO":"３６０號","E_COORD97":167804.29000000001,"N_COORD97":2546409.2799999998,"ADDRESS":"文賢三街３６０號","OBJECTID":512597},"geometry":{"x":167804.29000000004,"y":2546409.2800000012}},{"attributes":{"ID":512625,"DIS_CODE":0,"TOWNNAME":"北區","LI":"文元里","LIN":"1鄰","STREET":"文賢三街","SECT":" ","MAREA":" ","LANE":" ","ALLEY":" ","HOUSE_NO":"３６２號","E_COORD97":167803.91,"N_COORD97":2546414.04,"ADDRESS":"文賢三街３６２號","OBJECTID":512598},"geometry":{"x":167803.91000000201,"y":2546414.040000001}},{"attributes":{"ID":512626,"DIS_CODE":0,"TOWNNAME":"北區","LI":"文元里","LIN":"1鄰","STREET":"文賢三街","SECT":" ","MAREA":" ","LANE":" ","ALLEY":" ","HOUSE_NO":"３６６號","E_COORD97":167804.16,"N_COORD97":2546417.4700000002,"ADDRESS":"文賢三街３６６號","OBJECTID":512599},"geometry":{"x":167804.16000000108,"y":2546417.4700000007}},{"attributes":{"ID":512627,"DIS_CODE":0,"TOWNNAME":"北區","LI":"大和里","LIN":"1鄰","STREET":"文賢路","SECT":" ","MAREA":" ","LANE":" ","ALLEY":" ","HOUSE_NO":"６１９號","E_COORD97":167347.26000000001,"N_COORD97":2545955.0499999998,"ADDRESS":"文賢路６１９號","OBJECTID":512600},"geometry":{"x":167347.26000000071,"y":2545955.0500000026}}]}