{"displayFieldName":"TOWNNAME","fieldAliases":{"ID":"ID","DIS_CODE":"DIS_CODE","TOWNNAME":"TOWNNAME","LI":"LI","LIN":"LIN","STREET":"STREET","SECT":"SECT","MAREA":"MAREA","LANE":"LANE","ALLEY":"ALLEY","HOUSE_NO":"HOUSE_NO","E_COORD97":"E_COORD97","N_COORD97":"N_COORD97","ADDRESS":"ADDRESS","OBJECTID":"OBJECTID"},"geometryType":"esriGeometryPoint","spatialReference":{"wkid":102443,"latestWkid":3826},"fields":[{"name":"ID","type":"esriFieldTypeDouble","alias":"ID"},{"name":"DIS_CODE","type":"esriFieldTypeInteger","alias":"DIS_CODE"},{"name":"TOWNNAME","type":"esriFieldTypeString","alias":"TOWNNAME","length":8},{"name":"LI","type":"esriFieldTypeString","alias":"LI","length":8},{"name":"LIN","type":"esriFieldTypeString","alias":"LIN","length":12},{"name":"STREET","type":"esriFieldTypeString","alias":"STREET","length":20},{"name":"SECT","type":"esriFieldTypeString","alias":"SECT","length":8},{"name":"MAREA","type":"esriFieldTypeString","alias":"MAREA","length":12},{"name":"LANE","type":"esriFieldTypeString","alias":"LANE","length":10},{"name":"ALLEY","type":"esriFieldTypeString","alias":"ALLEY","length":10},{"name":"HOUSE_NO","type":"esriFieldTypeString","alias":"HOUSE_NO","length":20},{"name":"E_COORD97","type":"esriFieldTypeDouble","alias":"E_COORD97"},{"name":"N_COORD97","type":"esriFieldTypeDouble","alias":"N_COORD97"},{"name":"ADDRESS","type":"esriFieldTypeString","alias":"ADDRESS","length":50},{"name":"OBJECTID","type":"esriFieldTypeOID","alias":"OBJECTID"}],"features":[{"attributes":{"ID":639428,"DIS_CODE":0,"TOWNNAME":"柳營區","LI":"東昇里","LIN":"29鄰","STREET":"中山東路","SECT":"二段","MAREA":" ","LANE":" ","ALLEY":" ","HOUSE_NO":"７８３號","E_COORD97":181475.22,"N_COORD97":2575343.7000000002,"ADDRESS":"中山東路二段７８３號","OBJECTID":639401},"geometry":{"x":181475.22000000067,"y":2575343.7000000011}},{"attributes":{"ID":639429,"DIS_CODE":0,"TOWNNAME":"柳營區","LI":"東昇里","LIN":"29鄰","STREET":"中山東路","SECT":"二段","MAREA":" ","LANE":" ","ALLEY":" ","HOUSE_NO":"８０９號","E_COORD97":181396.45999999999,"N_COORD97":2575332.9199999999,"ADDRESS":"中山東路二段８０９號","OBJECTID":639402},"geometry":{"x":181396.45999999996,"y":2575332.9200000018}},{"attributes":{"ID":639430,"DIS_CODE":0,"TOWNNAME":"柳營區","LI":"東昇里","LIN":"29鄰","STREET":"中山東路","SECT":"二段","MAREA":" ","LANE":" ","ALLEY":" ","HOUSE_NO":"８１７號","E_COORD97":181377.01000000001,"N_COORD97":2575320.3500000001,"ADDRESS":"中山東路二段８１７號","OBJECTID":639403},"geometry":{"x":181377.00999999978,"y":2575320.3499999996}},{"attributes":{"ID":639431,"DIS_CODE":0,"TOWNNAME":"柳營區","LI":"東昇里","LIN":"29鄰","STREET":"中山東路","SECT":"二段","MAREA":" ","LANE":" ","ALLEY":" ","HOUSE_NO":"８６３號","E_COORD97":181277.41,"N_COORD97":2575342.1000000001,"ADDRESS":"中山東路二段８６３號","OBJECTID":639404},"geometry":{"x":181277.41000000108,"y":2575342.0999999996}},{"attributes":{"ID":639432,"DIS_CODE":0,"TOWNNAME":"柳營區","LI":"東昇里","LIN":"29鄰","STREET":"中山東路","SECT":"二段","MAREA":" ","LANE":" ","ALLEY":" ","HOUSE_NO":"９４５號","E_COORD97":181109.87,"N_COORD97":2575316.1200000001,"ADDRESS":"中山東路二段９４５號","OBJECTID":639405},"geometry":{"x":181109.87000000104,"y":2575316.120000001}},{"attributes":{"ID":639433,"DIS_CODE":0,"TOWNNAME":"柳營區","LI":"東昇里","LIN":"29鄰","STREET":"中山東路","SECT":"二段","MAREA":" ","LANE":" ","ALLEY":" ","HOUSE_NO":"９４７號","E_COORD97":181105.38,"N_COORD97":2575316.3199999998,"ADDRESS":"中山東路二段９４７號","OBJECTID":639406},"geometry":{"x":181105.37999999989,"y":2575316.3200000022}},{"attributes":{"ID":639434,"DIS_CODE":0,"TOWNNAME":"柳營區","LI":"東昇里","LIN":"29鄰","STREET":"中山東路","SECT":"二段","MAREA":" ","LANE":" ","ALLEY":" ","HOUSE_NO":"９５５號","E_COORD97":181081.98000000001,"N_COORD97":2575321.1899999999,"ADDRESS":"中山東路二段９５５號","OBJECTID":639407},"geometry":{"x":181081.97999999952,"y":2575321.1899999995}},{"attributes":{"ID":639435,"DIS_CODE":0,"TOWNNAME":"柳營區","LI":"東昇里","LIN":"29鄰","STREET":"中山東路","SECT":"二段","MAREA":" ","LANE":" ","ALLEY":" ","HOUSE_NO":"９５９號","E_COORD97":181071.82000000001,"N_COORD97":2575344.48,"ADDRESS":"中山東路二段９５９號","OBJECTID":639408},"geometry":{"x":181071.82000000123,"y":2575344.4800000004}},{"attributes":{"ID":639436,"DIS_CODE":0,"TOWNNAME":"柳營區","LI":"東昇里","LIN":"29鄰","STREET":"中山東路","SECT":"二段","MAREA":" ","LANE":" ","ALLEY":" ","HOUSE_NO":"９６１號","E_COORD97":181066.45999999999,"N_COORD97":2575344.9700000002,"ADDRESS":"中山東路二段９６１號","OBJECTID":639409},"geometry":{"x":181066.46000000183,"y":2575344.9700000007}},{"attributes":{"ID":639437,"DIS_CODE":0,"TOWNNAME":"柳營區","LI":"東昇里","LIN":"29鄰","STREET":"中山東路","SECT":"二段","MAREA":" ","LANE":" ","ALLEY":" ","HOUSE_NO":"９７３號","E_COORD97":181041.60999999999,"N_COORD97":2575346.9300000002,"ADDRESS":"中山東路二段９７３號","OBJECTID":639410},"geometry":{"x":181041.61000000034,"y":2575346.9299999997}},{"attributes":{"ID":639438,"DIS_CODE":0,"TOWNNAME":"柳營區","LI":"東昇里","LIN":"29鄰","STREET":"中山東路","SECT":"二段","MAREA":" ","LANE":" ","ALLEY":" ","HOUSE_NO":"９７５號","E_COORD97":181037.67999999999,"N_COORD97":2575347.0099999998,"ADDRESS":"中山東路二段９７５號","OBJECTID":639411},"geometry":{"x":181037.68000000156,"y":2575347.0099999998}},{"attributes":{"ID":639439,"DIS_CODE":0,"TOWNNAME":"柳營區","LI":"東昇里","LIN":"29鄰","STREET":"中山東路","SECT":"二段","MAREA":" ","LANE":" ","ALLEY":" ","HOUSE_NO":"９７７號","E_COORD97":181033.39999999999,"N_COORD97":2575346.79,"ADDRESS":"中山東路二段９７７號","OBJECTID":639412},"geometry":{"x":181033.40000000224,"y":2575346.7899999991}},{"attributes":{"ID":639440,"DIS_CODE":0,"TOWNNAME":"柳營區","LI":"東昇里","LIN":"29鄰","STREET":"中山東路","SECT":"二段","MAREA":" ","LANE":" ","ALLEY":" ","HOUSE_NO":"９７９號","E_COORD97":181029.20000000001,"N_COORD97":2575346.6099999999,"ADDRESS":"中山東路二段９７９號","OBJECTID":639413},"geometry":{"x":181029.20000000019,"y":2575346.6100000031}},{"attributes":{"ID":639441,"DIS_CODE":0,"TOWNNAME":"柳營區","LI":"中埕里","LIN":"4鄰","STREET":"中興南街","SECT":" ","MAREA":" ","LANE":" ","ALLEY":" ","HOUSE_NO":"３９號","E_COORD97":180008.62,"N_COORD97":2575089.8700000001,"ADDRESS":"中興南街３９號","OBJECTID":639414},"geometry":{"x":180008.62000000011,"y":2575089.8700000029}},{"attributes":{"ID":639442,"DIS_CODE":0,"TOWNNAME":"柳營區","LI":"中埕里","LIN":"4鄰","STREET":"中興街","SECT":" ","MAREA":" ","LANE":" ","ALLEY":" ","HOUSE_NO":"１９號","E_COORD97":179976.97,"N_COORD97":2575181.46,"ADDRESS":"中興街１９號","OBJECTID":639415},"geometry":{"x":179976.97000000067,"y":2575181.4600000009}},{"attributes":{"ID":639443,"DIS_CODE":0,"TOWNNAME":"柳營區","LI":"中埕里","LIN":"4鄰","STREET":"中興街","SECT":" ","MAREA":" ","LANE":" ","ALLEY":" ","HOUSE_NO":"３１號","E_COORD97":179955.98000000001,"N_COORD97":2575218.1899999999,"ADDRESS":"中興街３１號","OBJECTID":639416},"geometry":{"x":179955.98000000045,"y":2575218.1900000013}},{"attributes":{"ID":639444,"DIS_CODE":0,"TOWNNAME":"柳營區","LI":"中埕里","LIN":"4鄰","STREET":"中興街","SECT":" ","MAREA":" ","LANE":" ","ALLEY":" ","HOUSE_NO":"３７號","E_COORD97":179945.79999999999,"N_COORD97":2575235.5699999998,"ADDRESS":"中興街３７號","OBJECTID":639417},"geometry":{"x":179945.80000000075,"y":2575235.5700000003}},{"attributes":{"ID":639445,"DIS_CODE":0,"TOWNNAME":"柳營區","LI":"光福里","LIN":"17鄰","STREET":"光福七街","SECT":" ","MAREA":" ","LANE":" ","ALLEY":" ","HOUSE_NO":"１２６號","E_COORD97":179739.45999999999,"N_COORD97":2575739.98,"ADDRESS":"光福七街１２６號","OBJECTID":639418},"geometry":{"x":179739.46000000089,"y":2575739.9800000023}},{"attributes":{"ID":639446,"DIS_CODE":0,"TOWNNAME":"柳營區","LI":"光福里","LIN":"17鄰","STREET":"光福七街","SECT":" ","MAREA":" ","LANE":" ","ALLEY":" ","HOUSE_NO":"１２８號","E_COORD97":179739.89999999999,"N_COORD97":2575751.23,"ADDRESS":"光福七街１２８號","OBJECTID":639419},"geometry":{"x":179739.90000000224,"y":2575751.2300000023}},{"attributes":{"ID":639447,"DIS_CODE":0,"TOWNNAME":"柳營區","LI":"光福里","LIN":"17鄰","STREET":"光福七街","SECT":" ","MAREA":" ","LANE":" ","ALLEY":" ","HOUSE_NO":"２６號","E_COORD97":179718.28,"N_COORD97":2575530.52,"ADDRESS":"光福七街２６號","OBJECTID":639420},"geometry":{"x":179718.28000000026,"y":2575530.5200000033}},{"attributes":{"ID":639448,"DIS_CODE":0,"TOWNNAME":"柳營區","LI":"光福里","LIN":"17鄰","STREET":"光福七街","SECT":" ","MAREA":" ","LANE":" ","ALLEY":" ","HOUSE_NO":"３６號","E_COORD97":179715.01000000001,"N_COORD97":2575557.2599999998,"ADDRESS":"光福七街３６號","OBJECTID":639421},"geometry":{"x":179715.01000000071,"y":2575557.2600000016}},{"attributes":{"ID":639449,"DIS_CODE":0,"TOWNNAME":"柳營區","LI":"光福里","LIN":"17鄰","STREET":"光福七街","SECT":" ","MAREA":" ","LANE":" ","ALLEY":" ","HOUSE_NO":"３８號","E_COORD97":179716.62,"N_COORD97":2575565.71,"ADDRESS":"光福七街３８號","OBJECTID":639422},"geometry":{"x":179716.62000000104,"y":2575565.7100000028}},{"attributes":{"ID":639450,"DIS_CODE":0,"TOWNNAME":"柳營區","LI":"光福里","LIN":"17鄰","STREET":"光福七街","SECT":" ","MAREA":" ","LANE":" ","ALLEY":" ","HOUSE_NO":"４６號","E_COORD97":179718.92000000001,"N_COORD97":2575577.4399999999,"ADDRESS":"光福七街４６號","OBJECTID":639423},"geometry":{"x":179718.91999999899,"y":2575577.4399999995}},{"attributes":{"ID":639451,"DIS_CODE":0,"TOWNNAME":"柳營區","LI":"光福里","LIN":"17鄰","STREET":"光福五街","SECT":" ","MAREA":" ","LANE":" ","ALLEY":" ","HOUSE_NO":"１３號","E_COORD97":179755.82999999999,"N_COORD97":2575560.6400000001,"ADDRESS":"光福五街１３號","OBJECTID":639424},"geometry":{"x":179755.83000000101,"y":2575560.6400000006}},{"attributes":{"ID":639452,"DIS_CODE":0,"TOWNNAME":"柳營區","LI":"光福里","LIN":"17鄰","STREET":"光福五街","SECT":" ","MAREA":" ","LANE":" ","ALLEY":" ","HOUSE_NO":"１５號","E_COORD97":179756.13,"N_COORD97":2575566.1400000001,"ADDRESS":"光福五街１５號","OBJECTID":639425},"geometry":{"x":179756.12999999989,"y":2575566.1400000025}},{"attributes":{"ID":639453,"DIS_CODE":0,"TOWNNAME":"柳營區","LI":"光福里","LIN":"17鄰","STREET":"光福五街","SECT":" ","MAREA":" ","LANE":" ","ALLEY":" ","HOUSE_NO":"１６號","E_COORD97":179775.38,"N_COORD97":2575585.3100000001,"ADDRESS":"光福五街１６號","OBJECTID":639426},"geometry":{"x":179775.38000000082,"y":2575585.3100000024}},{"attributes":{"ID":639454,"DIS_CODE":0,"TOWNNAME":"柳營區","LI":"光福里","LIN":"17鄰","STREET":"光福五街","SECT":" ","MAREA":" ","LANE":" ","ALLEY":" ","HOUSE_NO":"１７號","E_COORD97":179756.44,"N_COORD97":2575571.6499999999,"ADDRESS":"光福五街１７號","OBJECTID":639427},"geometry":{"x":179756.44000000041,"y":2575571.6500000022}},{"attributes":{"ID":639455,"DIS_CODE":0,"TOWNNAME":"柳營區","LI":"士林里","LIN":"20鄰","STREET":"育英街","SECT":" ","MAREA":" ","LANE":" ","ALLEY":" ","HOUSE_NO":"１０１號","E_COORD97":179399.70000000001,"N_COORD97":2574886.1099999999,"ADDRESS":"育英街１０１號","OBJECTID":639428},"geometry":{"x":179399.70000000019,"y":2574886.1100000013}},{"attributes":{"ID":639456,"DIS_CODE":0,"TOWNNAME":"柳營區","LI":"士林里","LIN":"20鄰","STREET":"育英街","SECT":" ","MAREA":" ","LANE":" ","ALLEY":" ","HOUSE_NO":"１０３號","E_COORD97":179395.47,"N_COORD97":2574886.4100000001,"ADDRESS":"育英街１０３號","OBJECTID":639429},"geometry":{"x":179395.47000000067,"y":2574886.4100000001}},{"attributes":{"ID":639457,"DIS_CODE":0,"TOWNNAME":"柳營區","LI":"東昇里","LIN":"8鄰","STREET":"成功街","SECT":" ","MAREA":" ","LANE":" ","ALLEY":" ","HOUSE_NO":"６２號","E_COORD97":180061.98999999999,"N_COORD97":2575339.1899999999,"ADDRESS":"成功街６２號","OBJECTID":639430},"geometry":{"x":180061.99000000115,"y":2575339.1899999976}},{"attributes":{"ID":639458,"DIS_CODE":0,"TOWNNAME":"柳營區","LI":"東昇里","LIN":"8鄰","STREET":"成功街","SECT":" ","MAREA":" ","LANE":" ","ALLEY":" ","HOUSE_NO":"７２號","E_COORD97":180045.48000000001,"N_COORD97":2575330.2799999998,"ADDRESS":"成功街７２號","OBJECTID":639431},"geometry":{"x":180045.48000000138,"y":2575330.2799999993}},{"attributes":{"ID":639459,"DIS_CODE":0,"TOWNNAME":"柳營區","LI":"中埕里","LIN":"12鄰","STREET":"成功街","SECT":" ","MAREA":" ","LANE":" ","ALLEY":" ","HOUSE_NO":"６３號","E_COORD97":179953.91,"N_COORD97":2575334.98,"ADDRESS":"成功街６３號","OBJECTID":639432},"geometry":{"x":179953.91000000108,"y":2575334.9800000042}},{"attributes":{"ID":639460,"DIS_CODE":0,"TOWNNAME":"柳營區","LI":"中埕里","LIN":"12鄰","STREET":"成功街","SECT":" ","MAREA":" ","LANE":" ","ALLEY":" ","HOUSE_NO":"６５號","E_COORD97":179949.26999999999,"N_COORD97":2575333.3599999999,"ADDRESS":"成功街６５號","OBJECTID":639433},"geometry":{"x":179949.27000000048,"y":2575333.3599999994}},{"attributes":{"ID":639461,"DIS_CODE":0,"TOWNNAME":"柳營區","LI":"中埕里","LIN":"12鄰","STREET":"成功街","SECT":" ","MAREA":" ","LANE":" ","ALLEY":" ","HOUSE_NO":"６７號","E_COORD97":179942.20999999999,"N_COORD97":2575330.4300000002,"ADDRESS":"成功街６７號","OBJECTID":639434},"geometry":{"x":179942.20999999996,"y":2575330.4299999997}},{"attributes":{"ID":639462,"DIS_CODE":0,"TOWNNAME":"柳營區","LI":"士林里","LIN":"4鄰","STREET":"育英街","SECT":" ","MAREA":" ","LANE":" ","ALLEY":" ","HOUSE_NO":"１８８號","E_COORD97":179379.97,"N_COORD97":2574917.6600000001,"ADDRESS":"育英街１８８號","OBJECTID":639435},"geometry":{"x":179379.97000000067,"y":2574917.660000002}},{"attributes":{"ID":639463,"DIS_CODE":0,"TOWNNAME":"柳營區","LI":"士林里","LIN":"4鄰","STREET":"育英街","SECT":" ","MAREA":" ","LANE":" ","ALLEY":" ","HOUSE_NO":"１９０號","E_COORD97":179375.81,"N_COORD97":2574917.1699999999,"ADDRESS":"育英街１９０號","OBJECTID":639436},"geometry":{"x":179375.81000000052,"y":2574917.1700000018}},{"attributes":{"ID":639464,"DIS_CODE":0,"TOWNNAME":"柳營區","LI":"士林里","LIN":"4鄰","STREET":"育英街","SECT":" ","MAREA":" ","LANE":" ","ALLEY":" ","HOUSE_NO":"１９２號","E_COORD97":179371.64999999999,"N_COORD97":2574916.6899999999,"ADDRESS":"育英街１９２號","OBJECTID":639437},"geometry":{"x":179371.65000000037,"y":2574916.6900000013}},{"attributes":{"ID":639465,"DIS_CODE":0,"TOWNNAME":"柳營區","LI":"士林里","LIN":"4鄰","STREET":"育英街","SECT":" ","MAREA":" ","LANE":" ","ALLEY":" ","HOUSE_NO":"１９６號","E_COORD97":179367.48999999999,"N_COORD97":2574916.21,"ADDRESS":"育英街１９６號","OBJECTID":639438},"geometry":{"x":179367.49000000022,"y":2574916.2100000009}},{"attributes":{"ID":639466,"DIS_CODE":0,"TOWNNAME":"柳營區","LI":"士林里","LIN":"4鄰","STREET":"育英街","SECT":" ","MAREA":" ","LANE":" ","ALLEY":" ","HOUSE_NO":"１９８號","E_COORD97":179363.32999999999,"N_COORD97":2574915.7200000002,"ADDRESS":"育英街１９８號","OBJECTID":639439},"geometry":{"x":179363.33000000007,"y":2574915.7200000007}},{"attributes":{"ID":639467,"DIS_CODE":0,"TOWNNAME":"柳營區","LI":"士林里","LIN":"4鄰","STREET":"育英街","SECT":" ","MAREA":" ","LANE":" ","ALLEY":" ","HOUSE_NO":"２００號","E_COORD97":179359.17999999999,"N_COORD97":2574915.2400000002,"ADDRESS":"育英街２００號","OBJECTID":639440},"geometry":{"x":179359.1799999997,"y":2574915.2400000002}},{"attributes":{"ID":639468,"DIS_CODE":0,"TOWNNAME":"柳營區","LI":"士林里","LIN":"4鄰","STREET":"育英街","SECT":" ","MAREA":" ","LANE":" ","ALLEY":" ","HOUSE_NO":"２０２號","E_COORD97":179355.01999999999,"N_COORD97":2574914.7599999998,"ADDRESS":"育英街２０２號","OBJECTID":639441},"geometry":{"x":179355.01999999955,"y":2574914.7599999998}},{"attributes":{"ID":639469,"DIS_CODE":0,"TOWNNAME":"柳營區","LI":"士林里","LIN":"4鄰","STREET":"育英街","SECT":" ","MAREA":" ","LANE":" ","ALLEY":" ","HOUSE_NO":"２０６號","E_COORD97":179350.85999999999,"N_COORD97":2574914.27,"ADDRESS":"育英街２０６號","OBJECTID":639442},"geometry":{"x":179350.86000000127,"y":2574914.2699999996}},{"attributes":{"ID":639470,"DIS_CODE":0,"TOWNNAME":"柳營區","LI":"士林里","LIN":"4鄰","STREET":"育英街","SECT":" ","MAREA":" ","LANE":" ","ALLEY":" ","HOUSE_NO":"２０８號","E_COORD97":179345.57999999999,"N_COORD97":2574917.2000000002,"ADDRESS":"育英街２０８號","OBJECTID":639443},"geometry":{"x":179345.58000000101,"y":2574917.1999999993}},{"attributes":{"ID":639471,"DIS_CODE":0,"TOWNNAME":"柳營區","LI":"士林里","LIN":"4鄰","STREET":"育英街","SECT":" ","MAREA":" ","LANE":" ","ALLEY":" ","HOUSE_NO":"２１０號","E_COORD97":179341.70000000001,"N_COORD97":2574917.02,"ADDRESS":"育英街２１０號","OBJECTID":639444},"geometry":{"x":179341.70000000112,"y":2574917.0200000033}},{"attributes":{"ID":639472,"DIS_CODE":0,"TOWNNAME":"柳營區","LI":"士林里","LIN":"4鄰","STREET":"育英街","SECT":" ","MAREA":" ","LANE":" ","ALLEY":" ","HOUSE_NO":"２１２號","E_COORD97":179337.20999999999,"N_COORD97":2574919.9500000002,"ADDRESS":"育英街２１２號","OBJECTID":639445},"geometry":{"x":179337.20999999996,"y":2574919.9499999993}},{"attributes":{"ID":639473,"DIS_CODE":0,"TOWNNAME":"柳營區","LI":"士林里","LIN":"4鄰","STREET":"育英街","SECT":" ","MAREA":" ","LANE":" ","ALLEY":" ","HOUSE_NO":"２１６號","E_COORD97":179333.10000000001,"N_COORD97":2574919.3100000001,"ADDRESS":"育英街２１６號","OBJECTID":639446},"geometry":{"x":179333.10000000056,"y":2574919.3100000042}},{"attributes":{"ID":639474,"DIS_CODE":0,"TOWNNAME":"柳營區","LI":"八翁里","LIN":"4鄰","STREET":"和平路","SECT":" ","MAREA":" ","LANE":" ","ALLEY":" ","HOUSE_NO":"１６０號","E_COORD97":178174.87,"N_COORD97":2575321.8399999999,"ADDRESS":"和平路１６０號","OBJECTID":639447},"geometry":{"x":178174.87000000011,"y":2575321.8400000036}},{"attributes":{"ID":639475,"DIS_CODE":0,"TOWNNAME":"柳營區","LI":"士林里","LIN":"14鄰","STREET":"育英街","SECT":" ","MAREA":" ","LANE":" ","ALLEY":" ","HOUSE_NO":"５３號","E_COORD97":179523.59,"N_COORD97":2574886.6299999999,"ADDRESS":"育英街５３號","OBJECTID":639448},"geometry":{"x":179523.59000000078,"y":2574886.629999999}},{"attributes":{"ID":639476,"DIS_CODE":0,"TOWNNAME":"柳營區","LI":"八翁里","LIN":"4鄰","STREET":"和平路","SECT":" ","MAREA":" ","LANE":" ","ALLEY":" ","HOUSE_NO":"１８號","E_COORD97":178436.25,"N_COORD97":2575635.6200000001,"ADDRESS":"和平路１８號","OBJECTID":639449},"geometry":{"x":178436.25,"y":2575635.620000001}},{"attributes":{"ID":639477,"DIS_CODE":0,"TOWNNAME":"柳營區","LI":"東昇里","LIN":"25鄰","STREET":"東昇一街","SECT":" ","MAREA":" ","LANE":" ","ALLEY":" ","HOUSE_NO":"２１號","E_COORD97":180478.82000000001,"N_COORD97":2575421.9100000001,"ADDRESS":"東昇一街２１號","OBJECTID":639450},"geometry":{"x":180478.8200000003,"y":2575421.9100000001}},{"attributes":{"ID":639478,"DIS_CODE":0,"TOWNNAME":"柳營區","LI":"東昇里","LIN":"25鄰","STREET":"東昇一街","SECT":" ","MAREA":" ","LANE":" ","ALLEY":" ","HOUSE_NO":"２３號","E_COORD97":180469.92000000001,"N_COORD97":2575428.1600000001,"ADDRESS":"東昇一街２３號","OBJECTID":639451},"geometry":{"x":180469.92000000179,"y":2575428.1599999983}},{"attributes":{"ID":639479,"DIS_CODE":0,"TOWNNAME":"柳營區","LI":"東昇里","LIN":"25鄰","STREET":"東昇一街","SECT":" ","MAREA":" ","LANE":" ","ALLEY":" ","HOUSE_NO":"２５號","E_COORD97":180470.14000000001,"N_COORD97":2575432.2400000002,"ADDRESS":"東昇一街２５號","OBJECTID":639452},"geometry":{"x":180470.1400000006,"y":2575432.2400000021}},{"attributes":{"ID":639480,"DIS_CODE":0,"TOWNNAME":"柳營區","LI":"東昇里","LIN":"25鄰","STREET":"東昇一街","SECT":" ","MAREA":" ","LANE":" ","ALLEY":" ","HOUSE_NO":"２７號","E_COORD97":180470.37,"N_COORD97":2575436.3300000001,"ADDRESS":"東昇一街２７號","OBJECTID":639453},"geometry":{"x":180470.37000000011,"y":2575436.3300000001}},{"attributes":{"ID":639481,"DIS_CODE":0,"TOWNNAME":"柳營區","LI":"東昇里","LIN":"25鄰","STREET":"東昇一街","SECT":" ","MAREA":" ","LANE":" ","ALLEY":" ","HOUSE_NO":"４１號","E_COORD97":180471.94,"N_COORD97":2575464.9199999999,"ADDRESS":"東昇一街４１號","OBJECTID":639454},"geometry":{"x":180471.93999999948,"y":2575464.9200000018}},{"attributes":{"ID":639482,"DIS_CODE":0,"TOWNNAME":"南區","LI":"白雪里","LIN":"4鄰","STREET":"利南街","SECT":" ","MAREA":" ","LANE":" ","ALLEY":" ","HOUSE_NO":"６３號","E_COORD97":166791.19,"N_COORD97":2541151.46,"ADDRESS":"利南街６３號","OBJECTID":639455},"geometry":{"x":166791.19000000041,"y":2541151.4600000028}},{"attributes":{"ID":639483,"DIS_CODE":0,"TOWNNAME":"北區","LI":"國姓里","LIN":"13鄰","STREET":"西門路","SECT":"四段","MAREA":" ","LANE":" ","ALLEY":" ","HOUSE_NO":"１００號","E_COORD97":168734.44,"N_COORD97":2545402.0699999998,"ADDRESS":"西門路四段１００號","OBJECTID":639456},"geometry":{"x":168734.43999999948,"y":2545402.0700000022}},{"attributes":{"ID":639484,"DIS_CODE":0,"TOWNNAME":"北區","LI":"國姓里","LIN":"6鄰","STREET":"西門路","SECT":"四段","MAREA":" ","LANE":" ","ALLEY":" ","HOUSE_NO":"１２０號","E_COORD97":168759.23000000001,"N_COORD97":2545450.2000000002,"ADDRESS":"西門路四段１２０號","OBJECTID":639457},"geometry":{"x":168759.23000000045,"y":2545450.2000000011}},{"attributes":{"ID":639485,"DIS_CODE":0,"TOWNNAME":"北區","LI":"國姓里","LIN":"6鄰","STREET":"西門路","SECT":"四段","MAREA":" ","LANE":" ","ALLEY":" ","HOUSE_NO":"１２２號","E_COORD97":168761.67000000001,"N_COORD97":2545454.73,"ADDRESS":"西門路四段１２２號","OBJECTID":639458},"geometry":{"x":168761.67000000086,"y":2545454.7300000023}},{"attributes":{"ID":639486,"DIS_CODE":0,"TOWNNAME":"北區","LI":"國姓里","LIN":"6鄰","STREET":"西門路","SECT":"四段","MAREA":" ","LANE":" ","ALLEY":" ","HOUSE_NO":"１２４號","E_COORD97":168763.76999999999,"N_COORD97":2545459.6200000001,"ADDRESS":"西門路四段１２４號","OBJECTID":639459},"geometry":{"x":168763.77000000048,"y":2545459.6200000029}},{"attributes":{"ID":639487,"DIS_CODE":0,"TOWNNAME":"北區","LI":"國姓里","LIN":"4鄰","STREET":"公園路","SECT":" ","MAREA":" ","LANE":" ","ALLEY":" ","HOUSE_NO":"４４５號之１","E_COORD97":168997.26999999999,"N_COORD97":2545423.25,"ADDRESS":"公園路４４５號之１","OBJECTID":639460},"geometry":{"x":168997.26999999955,"y":2545423.2500000019}},{"attributes":{"ID":639488,"DIS_CODE":0,"TOWNNAME":"北區","LI":"國姓里","LIN":"4鄰","STREET":"公園路","SECT":" ","MAREA":" ","LANE":" ","ALLEY":" ","HOUSE_NO":"４４５號之２","E_COORD97":168994.22,"N_COORD97":2545422.98,"ADDRESS":"公園路４４５號之２","OBJECTID":639461},"geometry":{"x":168994.21999999974,"y":2545422.9800000023}},{"attributes":{"ID":639489,"DIS_CODE":0,"TOWNNAME":"北區","LI":"國姓里","LIN":"4鄰","STREET":"公園路","SECT":" ","MAREA":" ","LANE":" ","ALLEY":" ","HOUSE_NO":"４４５號之３","E_COORD97":168992.82999999999,"N_COORD97":2545423.8100000001,"ADDRESS":"公園路４４５號之３","OBJECTID":639462},"geometry":{"x":168992.83000000101,"y":2545423.8100000024}},{"attributes":{"ID":639490,"DIS_CODE":0,"TOWNNAME":"北區","LI":"國姓里","LIN":"4鄰","STREET":"公園路","SECT":" ","MAREA":" ","LANE":" ","ALLEY":" ","HOUSE_NO":"４４５號之４","E_COORD97":168991.16,"N_COORD97":2545424.0800000001,"ADDRESS":"公園路４４５號之４","OBJECTID":639463},"geometry":{"x":168991.16000000108,"y":2545424.0800000038}},{"attributes":{"ID":639491,"DIS_CODE":0,"TOWNNAME":"北區","LI":"國姓里","LIN":"4鄰","STREET":"公園路","SECT":" ","MAREA":" ","LANE":" ","ALLEY":" ","HOUSE_NO":"４４５號之５","E_COORD97":168988.10999999999,"N_COORD97":2545424.3599999999,"ADDRESS":"公園路４４５號之５","OBJECTID":639464},"geometry":{"x":168988.11000000127,"y":2545424.3599999994}},{"attributes":{"ID":639492,"DIS_CODE":0,"TOWNNAME":"北區","LI":"國姓里","LIN":"4鄰","STREET":"公園路","SECT":" ","MAREA":" ","LANE":" ","ALLEY":" ","HOUSE_NO":"４４５號之８","E_COORD97":168986.42000000001,"N_COORD97":2545432.52,"ADDRESS":"公園路４４５號之８","OBJECTID":639465},"geometry":{"x":168986.41999999993,"y":2545432.5199999996}},{"attributes":{"ID":639493,"DIS_CODE":0,"TOWNNAME":"北區","LI":"國姓里","LIN":"4鄰","STREET":"公園路","SECT":" ","MAREA":" ","LANE":" ","ALLEY":" ","HOUSE_NO":"４４７號之１","E_COORD97":168997.26999999999,"N_COORD97":2545430.46,"ADDRESS":"公園路４４７號之１","OBJECTID":639466},"geometry":{"x":168997.26999999955,"y":2545430.4600000028}},{"attributes":{"ID":639494,"DIS_CODE":0,"TOWNNAME":"北區","LI":"國姓里","LIN":"4鄰","STREET":"公園路","SECT":" ","MAREA":" ","LANE":" ","ALLEY":" ","HOUSE_NO":"４４７號之２","E_COORD97":168995.04999999999,"N_COORD97":2545430.7400000002,"ADDRESS":"公園路４４７號之２","OBJECTID":639467},"geometry":{"x":168995.05000000075,"y":2545430.7400000021}},{"attributes":{"ID":639495,"DIS_CODE":0,"TOWNNAME":"北區","LI":"國姓里","LIN":"4鄰","STREET":"公園路","SECT":" ","MAREA":" ","LANE":" ","ALLEY":" ","HOUSE_NO":"４４７號之３","E_COORD97":168993.10999999999,"N_COORD97":2545430.7400000002,"ADDRESS":"公園路４４７號之３","OBJECTID":639468},"geometry":{"x":168993.11000000127,"y":2545430.7400000021}},{"attributes":{"ID":639496,"DIS_CODE":0,"TOWNNAME":"北區","LI":"國姓里","LIN":"4鄰","STREET":"公園路","SECT":" ","MAREA":" ","LANE":" ","ALLEY":" ","HOUSE_NO":"４４７號之４","E_COORD97":168991.16,"N_COORD97":2545431.29,"ADDRESS":"公園路４４７號之４","OBJECTID":639469},"geometry":{"x":168991.16000000108,"y":2545431.2899999991}},{"attributes":{"ID":639497,"DIS_CODE":0,"TOWNNAME":"北區","LI":"國姓里","LIN":"4鄰","STREET":"公園路","SECT":" ","MAREA":" ","LANE":" ","ALLEY":" ","HOUSE_NO":"４４７號之５","E_COORD97":168988.39000000001,"N_COORD97":2545432.1200000001,"ADDRESS":"公園路４４７號之５","OBJECTID":639470},"geometry":{"x":168988.39000000153,"y":2545432.1200000029}},{"attributes":{"ID":639498,"DIS_CODE":0,"TOWNNAME":"北區","LI":"國姓里","LIN":"4鄰","STREET":"公園路","SECT":" ","MAREA":" ","LANE":" ","ALLEY":" ","HOUSE_NO":"４４９號之１０","E_COORD97":168963.97,"N_COORD97":2545429.3500000001,"ADDRESS":"公園路４４９號之１０","OBJECTID":639471},"geometry":{"x":168963.96999999974,"y":2545429.3500000015}},{"attributes":{"ID":639499,"DIS_CODE":0,"TOWNNAME":"北區","LI":"國姓里","LIN":"4鄰","STREET":"公園路","SECT":" ","MAREA":" ","LANE":" ","ALLEY":" ","HOUSE_NO":"４４９號之１１","E_COORD97":168960.64000000001,"N_COORD97":2545429.6299999999,"ADDRESS":"公園路４４９號之１１","OBJECTID":639472},"geometry":{"x":168960.63999999966,"y":2545429.6300000008}},{"attributes":{"ID":639500,"DIS_CODE":0,"TOWNNAME":"北區","LI":"國姓里","LIN":"4鄰","STREET":"公園路","SECT":" ","MAREA":" ","LANE":" ","ALLEY":" ","HOUSE_NO":"４４９號之１２","E_COORD97":168955.64999999999,"N_COORD97":2545430.7400000002,"ADDRESS":"公園路４４９號之１２","OBJECTID":639473},"geometry":{"x":168955.6500000013,"y":2545430.7400000021}},{"attributes":{"ID":639501,"DIS_CODE":0,"TOWNNAME":"北區","LI":"國姓里","LIN":"4鄰","STREET":"公園路","SECT":" ","MAREA":" ","LANE":" ","ALLEY":" ","HOUSE_NO":"４４９號之１６","E_COORD97":168969.51999999999,"N_COORD97":2545437.3900000001,"ADDRESS":"公園路４４９號之１６","OBJECTID":639474},"geometry":{"x":168969.52000000048,"y":2545437.3900000025}},{"attributes":{"ID":639502,"DIS_CODE":0,"TOWNNAME":"南區","LI":"白雪里","LIN":"4鄰","STREET":"利南街","SECT":" ","MAREA":" ","LANE":" ","ALLEY":" ","HOUSE_NO":"６７號","E_COORD97":166784.78,"N_COORD97":2541168.7599999998,"ADDRESS":"利南街６７號","OBJECTID":639475},"geometry":{"x":166784.78000000119,"y":2541168.7600000016}},{"attributes":{"ID":639503,"DIS_CODE":0,"TOWNNAME":"南區","LI":"郡南里","LIN":"20鄰","STREET":"中華南路","SECT":"二段","MAREA":" ","LANE":" ","ALLEY":" ","HOUSE_NO":"４０號","E_COORD97":167409.98000000001,"N_COORD97":2540339.6800000002,"ADDRESS":"中華南路二段４０號","OBJECTID":639476},"geometry":{"x":167409.98000000045,"y":2540339.6799999997}},{"attributes":{"ID":639504,"DIS_CODE":0,"TOWNNAME":"南區","LI":"郡南里","LIN":"20鄰","STREET":"中華南路","SECT":"二段","MAREA":" ","LANE":" ","ALLEY":" ","HOUSE_NO":"５８號","E_COORD97":167360.54000000001,"N_COORD97":2540332.46,"ADDRESS":"中華南路二段５８號","OBJECTID":639477},"geometry":{"x":167360.54000000097,"y":2540332.4600000009}},{"attributes":{"ID":639505,"DIS_CODE":0,"TOWNNAME":"南區","LI":"郡南里","LIN":"20鄰","STREET":"中華南路","SECT":"二段","MAREA":" ","LANE":" ","ALLEY":" ","HOUSE_NO":"６０號","E_COORD97":167356.60999999999,"N_COORD97":2540331.3100000001,"ADDRESS":"中華南路二段６０號","OBJECTID":639478},"geometry":{"x":167356.61000000034,"y":2540331.3100000024}},{"attributes":{"ID":639506,"DIS_CODE":0,"TOWNNAME":"南區","LI":"郡南里","LIN":"20鄰","STREET":"中華南路","SECT":"二段","MAREA":" ","LANE":" ","ALLEY":" ","HOUSE_NO":"６４號","E_COORD97":167347.60000000001,"N_COORD97":2540330.1600000001,"ADDRESS":"中華南路二段６４號","OBJECTID":639479},"geometry":{"x":167347.5999999987,"y":2540330.1600000001}},{"attributes":{"ID":639507,"DIS_CODE":0,"TOWNNAME":"南區","LI":"郡南里","LIN":"20鄰","STREET":"中華南路","SECT":"二段","MAREA":" ","LANE":" ","ALLEY":" ","HOUSE_NO":"６８號","E_COORD97":167340.42999999999,"N_COORD97":2540325.0800000001,"ADDRESS":"中華南路二段６８號","OBJECTID":639480},"geometry":{"x":167340.43000000156,"y":2540325.0800000038}},{"attributes":{"ID":639508,"DIS_CODE":0,"TOWNNAME":"南區","LI":"建南里","LIN":"8鄰","STREET":"德興路","SECT":" ","MAREA":" ","LANE":" ","ALLEY":" ","HOUSE_NO":"１９２號","E_COORD97":167198.26999999999,"N_COORD97":2540205.7599999998,"ADDRESS":"德興路１９２號","OBJECTID":639481},"geometry":{"x":167198.26999999955,"y":2540205.7600000016}},{"attributes":{"ID":639509,"DIS_CODE":0,"TOWNNAME":"南區","LI":"佛壇里","LIN":"4鄰","STREET":"興南街","SECT":" ","MAREA":" ","LANE":" ","ALLEY":" ","HOUSE_NO":"１６０號","E_COORD97":166120.62,"N_COORD97":2535865.1800000002,"ADDRESS":"興南街１６０號","OBJECTID":639482},"geometry":{"x":166120.61999999918,"y":2535865.1799999997}},{"attributes":{"ID":639510,"DIS_CODE":0,"TOWNNAME":"南區","LI":"佛壇里","LIN":"4鄰","STREET":"興南街","SECT":" ","MAREA":" ","LANE":" ","ALLEY":" ","HOUSE_NO":"１６０號之１","E_COORD97":166123.75,"N_COORD97":2535872.3500000001,"ADDRESS":"興南街１６０號之１","OBJECTID":639483},"geometry":{"x":166123.75000000093,"y":2535872.3500000015}},{"attributes":{"ID":639511,"DIS_CODE":0,"TOWNNAME":"南區","LI":"建南里","LIN":"13鄰","STREET":"中華南路","SECT":"二段","MAREA":" ","LANE":" ","ALLEY":" ","HOUSE_NO":"１７９號","E_COORD97":167040.04000000001,"N_COORD97":2540227.5,"ADDRESS":"中華南路二段１７９號","OBJECTID":639484},"geometry":{"x":167040.0400000019,"y":2540227.5000000019}},{"attributes":{"ID":639512,"DIS_CODE":0,"TOWNNAME":"南區","LI":"文南里","LIN":"13鄰","STREET":"育南街","SECT":" ","MAREA":" ","LANE":" ","ALLEY":" ","HOUSE_NO":"１２號","E_COORD97":166872.14000000001,"N_COORD97":2542590.3799999999,"ADDRESS":"育南街１２號","OBJECTID":639485},"geometry":{"x":166872.13999999966,"y":2542590.3800000008}},{"attributes":{"ID":639513,"DIS_CODE":0,"TOWNNAME":"南區","LI":"白雪里","LIN":"4鄰","STREET":"利南街","SECT":" ","MAREA":" ","LANE":" ","ALLEY":" ","HOUSE_NO":"５５號","E_COORD97":166810.32000000001,"N_COORD97":2541160.5499999998,"ADDRESS":"利南街５５號","OBJECTID":639486},"geometry":{"x":166810.32000000123,"y":2541160.5500000026}},{"attributes":{"ID":639514,"DIS_CODE":0,"TOWNNAME":"南區","LI":"白雪里","LIN":"4鄰","STREET":"利南街","SECT":" ","MAREA":" ","LANE":" ","ALLEY":" ","HOUSE_NO":"５７號","E_COORD97":166805.81,"N_COORD97":2541159.3999999999,"ADDRESS":"利南街５７號","OBJECTID":639487},"geometry":{"x":166805.81000000052,"y":2541159.4000000004}},{"attributes":{"ID":639515,"DIS_CODE":0,"TOWNNAME":"南區","LI":"白雪里","LIN":"4鄰","STREET":"利南街","SECT":" ","MAREA":" ","LANE":" ","ALLEY":" ","HOUSE_NO":"５９號","E_COORD97":166798.48000000001,"N_COORD97":2541163.3399999999,"ADDRESS":"利南街５９號","OBJECTID":639488},"geometry":{"x":166798.48000000231,"y":2541163.3399999999}},{"attributes":{"ID":639516,"DIS_CODE":0,"TOWNNAME":"南區","LI":"白雪里","LIN":"4鄰","STREET":"利南街","SECT":" ","MAREA":" ","LANE":" ","ALLEY":" ","HOUSE_NO":"６１號","E_COORD97":166804.14999999999,"N_COORD97":2541150.5299999998,"ADDRESS":"利南街６１號","OBJECTID":639489},"geometry":{"x":166804.1500000013,"y":2541150.5299999993}},{"attributes":{"ID":639517,"DIS_CODE":0,"TOWNNAME":"南區","LI":"大林里","LIN":"13鄰","STREET":"國民路","SECT":" ","MAREA":" ","LANE":" ","ALLEY":" ","HOUSE_NO":"５１５號之３","E_COORD97":168589.41,"N_COORD97":2541479.29,"ADDRESS":"國民路５１５號之３","OBJECTID":639490},"geometry":{"x":168589.41000000108,"y":2541479.290000001}},{"attributes":{"ID":639518,"DIS_CODE":0,"TOWNNAME":"南區","LI":"再興里","LIN":"17鄰","STREET":"金華路","SECT":"二段","MAREA":" ","LANE":" ","ALLEY":" ","HOUSE_NO":"１６８號","E_COORD97":167101.67999999999,"N_COORD97":2542254.4900000002,"ADDRESS":"金華路二段１６８號","OBJECTID":639491},"geometry":{"x":167101.68000000063,"y":2542254.4900000002}},{"attributes":{"ID":639519,"DIS_CODE":0,"TOWNNAME":"南區","LI":"日新里","LIN":"1鄰","STREET":"金華路","SECT":"一段","MAREA":" ","LANE":" ","ALLEY":" ","HOUSE_NO":"３７９號","E_COORD97":166971.85999999999,"N_COORD97":2541160.5099999998,"ADDRESS":"金華路一段３７９號","OBJECTID":639492},"geometry":{"x":166971.86000000034,"y":2541160.5100000016}},{"attributes":{"ID":639520,"DIS_CODE":0,"TOWNNAME":"南區","LI":"郡南里","LIN":"18鄰","STREET":"德興路","SECT":" ","MAREA":" ","LANE":" ","ALLEY":" ","HOUSE_NO":"１８３號","E_COORD97":167222.14000000001,"N_COORD97":2540343.1499999999,"ADDRESS":"德興路１８３號","OBJECTID":639493},"geometry":{"x":167222.14000000153,"y":2540343.1500000022}},{"attributes":{"ID":639521,"DIS_CODE":0,"TOWNNAME":"南區","LI":"郡南里","LIN":"18鄰","STREET":"德興路","SECT":" ","MAREA":" ","LANE":" ","ALLEY":" ","HOUSE_NO":"１８１號","E_COORD97":167220.26999999999,"N_COORD97":2540347.9500000002,"ADDRESS":"德興路１８１號","OBJECTID":639494},"geometry":{"x":167220.26999999955,"y":2540347.9499999993}},{"attributes":{"ID":639522,"DIS_CODE":0,"TOWNNAME":"南區","LI":"郡南里","LIN":"18鄰","STREET":"德興路","SECT":" ","MAREA":" ","LANE":" ","ALLEY":" ","HOUSE_NO":"１７９號","E_COORD97":167220,"N_COORD97":2540351.6899999999,"ADDRESS":"德興路１７９號","OBJECTID":639495},"geometry":{"x":167220.00000000186,"y":2540351.6900000013}},{"attributes":{"ID":639523,"DIS_CODE":0,"TOWNNAME":"南區","LI":"文南里","LIN":"14鄰","STREET":"永南街","SECT":" ","MAREA":" ","LANE":" ","ALLEY":" ","HOUSE_NO":"４７號","E_COORD97":166810.79999999999,"N_COORD97":2542707.2400000002,"ADDRESS":"永南街４７號","OBJECTID":639496},"geometry":{"x":166810.80000000168,"y":2542707.2399999984}},{"attributes":{"ID":639524,"DIS_CODE":0,"TOWNNAME":"南區","LI":"文南里","LIN":"14鄰","STREET":"永南三街","SECT":" ","MAREA":" ","LANE":" ","ALLEY":" ","HOUSE_NO":"１９號","E_COORD97":166789.12,"N_COORD97":2542658.1200000001,"ADDRESS":"永南三街１９號","OBJECTID":639497},"geometry":{"x":166789.12000000104,"y":2542658.1200000048}},{"attributes":{"ID":639525,"DIS_CODE":0,"TOWNNAME":"南區","LI":"彰南里","LIN":"13鄰","STREET":"新愛路","SECT":" ","MAREA":" ","LANE":" ","ALLEY":" ","HOUSE_NO":"４２號之２","E_COORD97":165727.41,"N_COORD97":2541750.0800000001,"ADDRESS":"新愛路４２號之２","OBJECTID":639498},"geometry":{"x":165727.41000000108,"y":2541750.0800000019}},{"attributes":{"ID":639526,"DIS_CODE":0,"TOWNNAME":"南區","LI":"明亮里","LIN":"23鄰","STREET":"金華路","SECT":"一段","MAREA":" ","LANE":" ","ALLEY":" ","HOUSE_NO":"４７６號","E_COORD97":167034.42999999999,"N_COORD97":2541496.52,"ADDRESS":"金華路一段４７６號","OBJECTID":639499},"geometry":{"x":167034.43000000063,"y":2541496.5199999996}},{"attributes":{"ID":639527,"DIS_CODE":0,"TOWNNAME":"南區","LI":"明亮里","LIN":"23鄰","STREET":"金華路","SECT":"一段","MAREA":" ","LANE":" ","ALLEY":" ","HOUSE_NO":"４１２號","E_COORD97":167026.44,"N_COORD97":2541314.4900000002,"ADDRESS":"金華路一段４１２號","OBJECTID":639500},"geometry":{"x":167026.44000000134,"y":2541314.4900000002}},{"attributes":{"ID":639528,"DIS_CODE":0,"TOWNNAME":"南區","LI":"明亮里","LIN":"23鄰","STREET":"金華路","SECT":"一段","MAREA":" ","LANE":" ","ALLEY":" ","HOUSE_NO":"４２２號","E_COORD97":167022.03,"N_COORD97":2541374.98,"ADDRESS":"金華路一段４２２號","OBJECTID":639501},"geometry":{"x":167022.03000000119,"y":2541374.9800000023}},{"attributes":{"ID":639529,"DIS_CODE":0,"TOWNNAME":"南區","LI":"明亮里","LIN":"23鄰","STREET":"金華路","SECT":"一段","MAREA":" ","LANE":" ","ALLEY":" ","HOUSE_NO":"４４６號","E_COORD97":167028.17999999999,"N_COORD97":2541428.8900000001,"ADDRESS":"金華路一段４４６號","OBJECTID":639502},"geometry":{"x":167028.1799999997,"y":2541428.8900000025}},{"attributes":{"ID":639530,"DIS_CODE":0,"TOWNNAME":"南區","LI":"文華里","LIN":"25鄰","STREET":"建南路","SECT":" ","MAREA":" ","LANE":" ","ALLEY":" ","HOUSE_NO":"１５６號","E_COORD97":166849.35999999999,"N_COORD97":2542868.5299999998,"ADDRESS":"建南路１５６號","OBJECTID":639503},"geometry":{"x":166849.36000000034,"y":2542868.5300000012}},{"attributes":{"ID":639531,"DIS_CODE":0,"TOWNNAME":"南區","LI":"文南里","LIN":"13鄰","STREET":"長南街","SECT":" ","MAREA":" ","LANE":" ","ALLEY":" ","HOUSE_NO":"６７號","E_COORD97":166874.25,"N_COORD97":2542617.2400000002,"ADDRESS":"長南街６７號","OBJECTID":639504},"geometry":{"x":166874.25000000093,"y":2542617.2400000021}},{"attributes":{"ID":639532,"DIS_CODE":0,"TOWNNAME":"南區","LI":"彰南里","LIN":"13鄰","STREET":"新愛路","SECT":" ","MAREA":" ","LANE":" ","ALLEY":" ","HOUSE_NO":"４２號之１","E_COORD97":165736.54999999999,"N_COORD97":2541753.7799999998,"ADDRESS":"新愛路４２號之１","OBJECTID":639505},"geometry":{"x":165736.55000000075,"y":2541753.7800000012}},{"attributes":{"ID":639533,"DIS_CODE":0,"TOWNNAME":"南區","LI":"興農里","LIN":"14鄰","STREET":"萬年一街","SECT":" ","MAREA":" ","LANE":" ","ALLEY":" ","HOUSE_NO":"２８０號","E_COORD97":166376.10000000001,"N_COORD97":2536892.25,"ADDRESS":"萬年一街２８０號","OBJECTID":639506},"geometry":{"x":166376.09999999963,"y":2536892.25}},{"attributes":{"ID":639534,"DIS_CODE":0,"TOWNNAME":"南區","LI":"彰南里","LIN":"16鄰","STREET":"新義南路","SECT":" ","MAREA":" ","LANE":" ","ALLEY":" ","HOUSE_NO":"２號","E_COORD97":166106.39000000001,"N_COORD97":2541106.0499999998,"ADDRESS":"新義南路２號","OBJECTID":639507},"geometry":{"x":166106.38999999966,"y":2541106.0500000026}},{"attributes":{"ID":639535,"DIS_CODE":0,"TOWNNAME":"南區","LI":"文華里","LIN":"25鄰","STREET":"文南二街","SECT":" ","MAREA":" ","LANE":" ","ALLEY":" ","HOUSE_NO":"３９號","E_COORD97":166873.41,"N_COORD97":2542929.75,"ADDRESS":"文南二街３９號","OBJECTID":639508},"geometry":{"x":166873.41000000108,"y":2542929.75}},{"attributes":{"ID":639536,"DIS_CODE":0,"TOWNNAME":"南區","LI":"文華里","LIN":"25鄰","STREET":"文南二街","SECT":" ","MAREA":" ","LANE":" ","ALLEY":" ","HOUSE_NO":"４１號","E_COORD97":166870.07999999999,"N_COORD97":2542927.7799999998,"ADDRESS":"文南二街４１號","OBJECTID":639509},"geometry":{"x":166870.08000000007,"y":2542927.7800000012}},{"attributes":{"ID":639537,"DIS_CODE":0,"TOWNNAME":"南區","LI":"文華里","LIN":"25鄰","STREET":"文南二街","SECT":" ","MAREA":" ","LANE":" ","ALLEY":" ","HOUSE_NO":"４３號","E_COORD97":166866.57999999999,"N_COORD97":2542924.02,"ADDRESS":"文南二街４３號","OBJECTID":639510},"geometry":{"x":166866.58000000007,"y":2542924.0199999996}},{"attributes":{"ID":639538,"DIS_CODE":0,"TOWNNAME":"南區","LI":"文華里","LIN":"25鄰","STREET":"文南二街","SECT":" ","MAREA":" ","LANE":" ","ALLEY":" ","HOUSE_NO":"４５號","E_COORD97":166862.54000000001,"N_COORD97":2542920.8599999999,"ADDRESS":"文南二街４５號","OBJECTID":639511},"geometry":{"x":166862.54000000097,"y":2542920.8600000013}},{"attributes":{"ID":639539,"DIS_CODE":0,"TOWNNAME":"南區","LI":"文華里","LIN":"25鄰","STREET":"文南二街","SECT":" ","MAREA":" ","LANE":" ","ALLEY":" ","HOUSE_NO":"４７號","E_COORD97":166858.76999999999,"N_COORD97":2542917.8100000001,"ADDRESS":"文南二街４７號","OBJECTID":639512},"geometry":{"x":166858.77000000048,"y":2542917.8100000024}},{"attributes":{"ID":639540,"DIS_CODE":0,"TOWNNAME":"南區","LI":"文華里","LIN":"25鄰","STREET":"文南二街","SECT":" ","MAREA":" ","LANE":" ","ALLEY":" ","HOUSE_NO":"４９號","E_COORD97":166855.09,"N_COORD97":2542915.2999999998,"ADDRESS":"文南二街４９號","OBJECTID":639513},"geometry":{"x":166855.09000000078,"y":2542915.3000000026}},{"attributes":{"ID":639541,"DIS_CODE":0,"TOWNNAME":"南區","LI":"文華里","LIN":"25鄰","STREET":"文南二街","SECT":" ","MAREA":" ","LANE":" ","ALLEY":" ","HOUSE_NO":"５１號","E_COORD97":166851.67999999999,"N_COORD97":2542911.98,"ADDRESS":"文南二街５１號","OBJECTID":639514},"geometry":{"x":166851.6799999997,"y":2542911.9800000004}},{"attributes":{"ID":639542,"DIS_CODE":0,"TOWNNAME":"南區","LI":"文華里","LIN":"25鄰","STREET":"文南二街","SECT":" ","MAREA":" ","LANE":" ","ALLEY":" ","HOUSE_NO":"５３號","E_COORD97":166848,"N_COORD97":2542909.1099999999,"ADDRESS":"文南二街５３號","OBJECTID":639515},"geometry":{"x":166848,"y":2542909.1100000013}},{"attributes":{"ID":639543,"DIS_CODE":0,"TOWNNAME":"南區","LI":"文華里","LIN":"25鄰","STREET":"文南二街","SECT":" ","MAREA":" ","LANE":" ","ALLEY":" ","HOUSE_NO":"５５號","E_COORD97":166844.5,"N_COORD97":2542905.79,"ADDRESS":"文南二街５５號","OBJECTID":639516},"geometry":{"x":166844.5,"y":2542905.7900000028}},{"attributes":{"ID":639544,"DIS_CODE":0,"TOWNNAME":"南區","LI":"文華里","LIN":"25鄰","STREET":"文南二街","SECT":" ","MAREA":" ","LANE":" ","ALLEY":" ","HOUSE_NO":"５７號","E_COORD97":166839.29000000001,"N_COORD97":2542902.0299999998,"ADDRESS":"文南二街５７號","OBJECTID":639517},"geometry":{"x":166839.29000000004,"y":2542902.0300000012}},{"attributes":{"ID":639545,"DIS_CODE":0,"TOWNNAME":"南區","LI":"彰南里","LIN":"19鄰","STREET":"新樂路","SECT":" ","MAREA":" ","LANE":" ","ALLEY":" ","HOUSE_NO":"１６號","E_COORD97":165684.13,"N_COORD97":2542094.73,"ADDRESS":"新樂路１６號","OBJECTID":639518},"geometry":{"x":165684.12999999989,"y":2542094.7300000023}},{"attributes":{"ID":639546,"DIS_CODE":0,"TOWNNAME":"南區","LI":"彰南里","LIN":"19鄰","STREET":"新樂路","SECT":" ","MAREA":" ","LANE":" ","ALLEY":" ","HOUSE_NO":"２０號","E_COORD97":165673.94,"N_COORD97":2542069.5800000001,"ADDRESS":"新樂路２０號","OBJECTID":639519},"geometry":{"x":165673.94000000041,"y":2542069.5800000001}},{"attributes":{"ID":639547,"DIS_CODE":0,"TOWNNAME":"南區","LI":"彰南里","LIN":"19鄰","STREET":"新樂路","SECT":" ","MAREA":" ","LANE":" ","ALLEY":" ","HOUSE_NO":"２４號","E_COORD97":165655.97,"N_COORD97":2542007.9300000002,"ADDRESS":"新樂路２４號","OBJECTID":639520},"geometry":{"x":165655.97000000067,"y":2542007.9300000016}},{"attributes":{"ID":639548,"DIS_CODE":0,"TOWNNAME":"南區","LI":"彰南里","LIN":"19鄰","STREET":"新樂路","SECT":" ","MAREA":" ","LANE":" ","ALLEY":" ","HOUSE_NO":"２６號","E_COORD97":165618.85000000001,"N_COORD97":2541879.9399999999,"ADDRESS":"新樂路２６號","OBJECTID":639521},"geometry":{"x":165618.85000000056,"y":2541879.9399999995}},{"attributes":{"ID":639549,"DIS_CODE":0,"TOWNNAME":"南區","LI":"彰南里","LIN":"19鄰","STREET":"新樂路","SECT":" ","MAREA":" ","LANE":" ","ALLEY":" ","HOUSE_NO":"２號之１","E_COORD97":165722.38,"N_COORD97":2542268.5499999998,"ADDRESS":"新樂路２號之１","OBJECTID":639522},"geometry":{"x":165722.38000000082,"y":2542268.5500000045}},{"attributes":{"ID":639550,"DIS_CODE":0,"TOWNNAME":"南區","LI":"彰南里","LIN":"19鄰","STREET":"新樂路","SECT":" ","MAREA":" ","LANE":" ","ALLEY":" ","HOUSE_NO":"３２號","E_COORD97":165607.23999999999,"N_COORD97":2541780.0800000001,"ADDRESS":"新樂路３２號","OBJECTID":639523},"geometry":{"x":165607.24000000115,"y":2541780.0800000019}},{"attributes":{"ID":639551,"DIS_CODE":0,"TOWNNAME":"南區","LI":"彰南里","LIN":"19鄰","STREET":"新樂路","SECT":" ","MAREA":" ","LANE":" ","ALLEY":" ","HOUSE_NO":"３４號","E_COORD97":165596.28,"N_COORD97":2541752.3799999999,"ADDRESS":"新樂路３４號","OBJECTID":639524},"geometry":{"x":165596.28000000119,"y":2541752.3800000027}},{"attributes":{"ID":639552,"DIS_CODE":0,"TOWNNAME":"南區","LI":"文南里","LIN":"13鄰","STREET":"永南一街","SECT":" ","MAREA":" ","LANE":" ","ALLEY":" ","HOUSE_NO":"７號","E_COORD97":166841.17000000001,"N_COORD97":2542554.6200000001,"ADDRESS":"永南一街７號","OBJECTID":639525},"geometry":{"x":166841.17000000086,"y":2542554.6200000029}},{"attributes":{"ID":639553,"DIS_CODE":0,"TOWNNAME":"南區","LI":"文南里","LIN":"8鄰","STREET":"長南街","SECT":" ","MAREA":" ","LANE":" ","ALLEY":" ","HOUSE_NO":"２７號","E_COORD97":166994.16,"N_COORD97":2542607.7400000002,"ADDRESS":"長南街２７號","OBJECTID":639526},"geometry":{"x":166994.16000000108,"y":2542607.7400000002}},{"attributes":{"ID":639554,"DIS_CODE":0,"TOWNNAME":"南區","LI":"文南里","LIN":"13鄰","STREET":"永南四街","SECT":" ","MAREA":" ","LANE":" ","ALLEY":" ","HOUSE_NO":"１號","E_COORD97":166844.39000000001,"N_COORD97":2542736.0099999998,"ADDRESS":"永南四街１號","OBJECTID":639527},"geometry":{"x":166844.3900000006,"y":2542736.0100000016}},{"attributes":{"ID":639555,"DIS_CODE":0,"TOWNNAME":"南區","LI":"文南里","LIN":"13鄰","STREET":"長南街","SECT":" ","MAREA":" ","LANE":" ","ALLEY":" ","HOUSE_NO":"６５號","E_COORD97":166879.57999999999,"N_COORD97":2542617.0499999998,"ADDRESS":"長南街６５號","OBJECTID":639528},"geometry":{"x":166879.58000000007,"y":2542617.0500000007}},{"attributes":{"ID":639556,"DIS_CODE":0,"TOWNNAME":"南區","LI":"文南里","LIN":"8鄰","STREET":"長南街","SECT":" ","MAREA":" ","LANE":" ","ALLEY":" ","HOUSE_NO":"２５號","E_COORD97":167000.64000000001,"N_COORD97":2542607.1699999999,"ADDRESS":"長南街２５號","OBJECTID":639529},"geometry":{"x":167000.6400000006,"y":2542607.1700000018}},{"attributes":{"ID":639557,"DIS_CODE":0,"TOWNNAME":"南區","LI":"文南里","LIN":"6鄰","STREET":"金華路","SECT":"二段","MAREA":" ","LANE":" ","ALLEY":" ","HOUSE_NO":"２１５號","E_COORD97":167097.29000000001,"N_COORD97":2542579.1400000001,"ADDRESS":"金華路二段２１５號","OBJECTID":639530},"geometry":{"x":167097.29000000004,"y":2542579.1400000006}},{"attributes":{"ID":639558,"DIS_CODE":0,"TOWNNAME":"南區","LI":"文南里","LIN":"6鄰","STREET":"長南街","SECT":" ","MAREA":" ","LANE":" ","ALLEY":" ","HOUSE_NO":"１號","E_COORD97":167075.39000000001,"N_COORD97":2542601.6600000001,"ADDRESS":"長南街１號","OBJECTID":639531},"geometry":{"x":167075.38999999966,"y":2542601.6600000001}},{"attributes":{"ID":639559,"DIS_CODE":0,"TOWNNAME":"南區","LI":"文南里","LIN":"6鄰","STREET":"長南街","SECT":" ","MAREA":" ","LANE":" ","ALLEY":" ","HOUSE_NO":"３號","E_COORD97":167068.54000000001,"N_COORD97":2542601.0899999999,"ADDRESS":"長南街３號","OBJECTID":639532},"geometry":{"x":167068.54000000004,"y":2542601.0900000017}},{"attributes":{"ID":639560,"DIS_CODE":0,"TOWNNAME":"南區","LI":"文南里","LIN":"20鄰","STREET":"仁南街","SECT":" ","MAREA":" ","LANE":" ","ALLEY":" ","HOUSE_NO":"３０號","E_COORD97":166384.76000000001,"N_COORD97":2542633.9100000001,"ADDRESS":"仁南街３０號","OBJECTID":639533},"geometry":{"x":166384.75999999978,"y":2542633.9100000001}},{"attributes":{"ID":639561,"DIS_CODE":0,"TOWNNAME":"南區","LI":"文南里","LIN":"20鄰","STREET":"仁南街","SECT":" ","MAREA":" ","LANE":" ","ALLEY":" ","HOUSE_NO":"３２號","E_COORD97":166385.29999999999,"N_COORD97":2542638.8399999999,"ADDRESS":"仁南街３２號","OBJECTID":639534},"geometry":{"x":166385.30000000168,"y":2542638.8400000017}},{"attributes":{"ID":639562,"DIS_CODE":0,"TOWNNAME":"南區","LI":"文南里","LIN":"13鄰","STREET":"長南街","SECT":" ","MAREA":" ","LANE":" ","ALLEY":" ","HOUSE_NO":"５７號","E_COORD97":166901.26000000001,"N_COORD97":2542615.71,"ADDRESS":"長南街５７號","OBJECTID":639535},"geometry":{"x":166901.26000000071,"y":2542615.7100000009}},{"attributes":{"ID":639563,"DIS_CODE":0,"TOWNNAME":"南區","LI":"文南里","LIN":"14鄰","STREET":"永南四街","SECT":" ","MAREA":" ","LANE":" ","ALLEY":" ","HOUSE_NO":"１１號","E_COORD97":166801.10000000001,"N_COORD97":2542738.9300000002,"ADDRESS":"永南四街１１號","OBJECTID":639536},"geometry":{"x":166801.09999999963,"y":2542738.9299999997}},{"attributes":{"ID":639564,"DIS_CODE":0,"TOWNNAME":"南區","LI":"文南里","LIN":"14鄰","STREET":"永南四街","SECT":" ","MAREA":" ","LANE":" ","ALLEY":" ","HOUSE_NO":"１３號","E_COORD97":166794.82000000001,"N_COORD97":2542738.54,"ADDRESS":"永南四街１３號","OBJECTID":639537},"geometry":{"x":166794.82000000123,"y":2542738.540000001}},{"attributes":{"ID":639565,"DIS_CODE":0,"TOWNNAME":"南區","LI":"興農里","LIN":"13鄰","STREET":"明興路","SECT":" ","MAREA":" ","LANE":" ","ALLEY":" ","HOUSE_NO":"１０８１號","E_COORD97":166444.14000000001,"N_COORD97":2536715.1899999999,"ADDRESS":"明興路１０８１號","OBJECTID":639538},"geometry":{"x":166444.1400000006,"y":2536715.1899999995}},{"attributes":{"ID":639566,"DIS_CODE":0,"TOWNNAME":"南區","LI":"同安里","LIN":"4鄰","STREET":"興南街","SECT":" ","MAREA":" ","LANE":" ","ALLEY":" ","HOUSE_NO":"５號","E_COORD97":166414,"N_COORD97":2536191.3199999998,"ADDRESS":"興南街５號","OBJECTID":639539},"geometry":{"x":166414,"y":2536191.3200000022}},{"attributes":{"ID":639567,"DIS_CODE":0,"TOWNNAME":"南區","LI":"郡南里","LIN":"20鄰","STREET":"中華南路","SECT":"二段","MAREA":" ","LANE":" ","ALLEY":" ","HOUSE_NO":"２８號","E_COORD97":167439.19,"N_COORD97":2540344.0499999998,"ADDRESS":"中華南路二段２８號","OBJECTID":639540},"geometry":{"x":167439.19000000041,"y":2540344.0500000026}},{"attributes":{"ID":639568,"DIS_CODE":0,"TOWNNAME":"南區","LI":"文南里","LIN":"14鄰","STREET":"南豐街","SECT":" ","MAREA":" ","LANE":" ","ALLEY":" ","HOUSE_NO":"８號","E_COORD97":166783.22,"N_COORD97":2542701.9199999999,"ADDRESS":"南豐街８號","OBJECTID":639541},"geometry":{"x":166783.22000000067,"y":2542701.9199999999}},{"attributes":{"ID":639569,"DIS_CODE":0,"TOWNNAME":"南區","LI":"田寮里","LIN":"1鄰","STREET":"新興路","SECT":" ","MAREA":" ","LANE":" ","ALLEY":" ","HOUSE_NO":"３６７號","E_COORD97":167081.51999999999,"N_COORD97":2541786.2999999998,"ADDRESS":"新興路３６７號","OBJECTID":639542},"geometry":{"x":167081.51999999955,"y":2541786.3000000026}},{"attributes":{"ID":639570,"DIS_CODE":0,"TOWNNAME":"南區","LI":"明興里","LIN":"6鄰","STREET":"永仁街","SECT":" ","MAREA":" ","LANE":" ","ALLEY":" ","HOUSE_NO":"１０號","E_COORD97":167075.26000000001,"N_COORD97":2540696.75,"ADDRESS":"永仁街１０號","OBJECTID":639543},"geometry":{"x":167075.25999999978,"y":2540696.7500000037}},{"attributes":{"ID":639571,"DIS_CODE":0,"TOWNNAME":"南區","LI":"明興里","LIN":"11鄰","STREET":"永興四街","SECT":" ","MAREA":" ","LANE":" ","ALLEY":" ","HOUSE_NO":"５５號","E_COORD97":167117.10000000001,"N_COORD97":2540560.7400000002,"ADDRESS":"永興四街５５號","OBJECTID":639544},"geometry":{"x":167117.10000000149,"y":2540560.7400000002}},{"attributes":{"ID":639572,"DIS_CODE":0,"TOWNNAME":"南區","LI":"興農里","LIN":"4鄰","STREET":"明興路","SECT":" ","MAREA":" ","LANE":" ","ALLEY":" ","HOUSE_NO":"１１５２號","E_COORD97":166521.82000000001,"N_COORD97":2536578.77,"ADDRESS":"明興路１１５２號","OBJECTID":639545},"geometry":{"x":166521.82000000123,"y":2536578.7699999996}},{"attributes":{"ID":639573,"DIS_CODE":0,"TOWNNAME":"南區","LI":"建南里","LIN":"14鄰","STREET":"中華南路","SECT":"二段","MAREA":" ","LANE":" ","ALLEY":" ","HOUSE_NO":"１９５號之１","E_COORD97":166987.59,"N_COORD97":2540214.8300000001,"ADDRESS":"中華南路二段１９５號之１","OBJECTID":639546},"geometry":{"x":166987.59000000078,"y":2540214.8300000038}},{"attributes":{"ID":639574,"DIS_CODE":0,"TOWNNAME":"南區","LI":"建南里","LIN":"14鄰","STREET":"中華南路","SECT":"二段","MAREA":" ","LANE":" ","ALLEY":" ","HOUSE_NO":"２１３號","E_COORD97":166926.42999999999,"N_COORD97":2540202.7400000002,"ADDRESS":"中華南路二段２１３號","OBJECTID":639547},"geometry":{"x":166926.4299999997,"y":2540202.7400000021}},{"attributes":{"ID":639575,"DIS_CODE":0,"TOWNNAME":"南區","LI":"竹溪里","LIN":"7鄰","STREET":"健康路","SECT":"一段","MAREA":" ","LANE":" ","ALLEY":" ","HOUSE_NO":"１７３號","E_COORD97":168805.5,"N_COORD97":2542407.54,"ADDRESS":"健康路一段１７３號","OBJECTID":639548},"geometry":{"x":168805.50000000093,"y":2542407.5399999991}},{"attributes":{"ID":639576,"DIS_CODE":0,"TOWNNAME":"南區","LI":"文南里","LIN":"13鄰","STREET":"文南路","SECT":" ","MAREA":" ","LANE":" ","ALLEY":" ","HOUSE_NO":"６７號","E_COORD97":166920.29000000001,"N_COORD97":2542691,"ADDRESS":"文南路６７號","OBJECTID":639549},"geometry":{"x":166920.29000000097,"y":2542691}},{"attributes":{"ID":639577,"DIS_CODE":0,"TOWNNAME":"南區","LI":"文南里","LIN":"13鄰","STREET":"文南路","SECT":" ","MAREA":" ","LANE":" ","ALLEY":" ","HOUSE_NO":"１號","E_COORD97":166910.76999999999,"N_COORD97":2542532.1299999999,"ADDRESS":"文南路１號","OBJECTID":639550},"geometry":{"x":166910.77000000142,"y":2542532.1300000008}},{"attributes":{"ID":639578,"DIS_CODE":0,"TOWNNAME":"南區","LI":"新昌里","LIN":"8鄰","STREET":"五妃街","SECT":" ","MAREA":" ","LANE":" ","ALLEY":" ","HOUSE_NO":"４１２號","E_COORD97":167526.17999999999,"N_COORD97":2542602.9300000002,"ADDRESS":"五妃街４１２號","OBJECTID":639551},"geometry":{"x":167526.1799999997,"y":2542602.9299999997}},{"attributes":{"ID":639579,"DIS_CODE":0,"TOWNNAME":"南區","LI":"大忠里","LIN":"1鄰","STREET":"大同路","SECT":"二段","MAREA":" ","LANE":" ","ALLEY":" ","HOUSE_NO":"５１２號","E_COORD97":169478.87,"N_COORD97":2541381.27,"ADDRESS":"大同路二段５１２號","OBJECTID":639552},"geometry":{"x":169478.87000000197,"y":2541381.2700000014}},{"attributes":{"ID":639580,"DIS_CODE":0,"TOWNNAME":"南區","LI":"大忠里","LIN":"4鄰","STREET":"公英一街","SECT":" ","MAREA":" ","LANE":" ","ALLEY":" ","HOUSE_NO":"２６號","E_COORD97":169414.95000000001,"N_COORD97":2541281.48,"ADDRESS":"公英一街２６號","OBJECTID":639553},"geometry":{"x":169414.95000000019,"y":2541281.4800000004}},{"attributes":{"ID":639581,"DIS_CODE":0,"TOWNNAME":"南區","LI":"文華里","LIN":"17鄰","STREET":"文南路","SECT":" ","MAREA":" ","LANE":" ","ALLEY":" ","HOUSE_NO":"３３９號","E_COORD97":166961.82000000001,"N_COORD97":2543181.2200000002,"ADDRESS":"文南路３３９號","OBJECTID":639554},"geometry":{"x":166961.8200000003,"y":2543181.2200000007}},{"attributes":{"ID":639582,"DIS_CODE":0,"TOWNNAME":"南區","LI":"佛壇里","LIN":"18鄰","STREET":"灣裡路","SECT":" ","MAREA":" ","LANE":" ","ALLEY":" ","HOUSE_NO":"６５０號","E_COORD97":166167.70000000001,"N_COORD97":2535565.04,"ADDRESS":"灣裡路６５０號","OBJECTID":639555},"geometry":{"x":166167.70000000205,"y":2535565.040000001}},{"attributes":{"ID":639583,"DIS_CODE":0,"TOWNNAME":"南區","LI":"佛壇里","LIN":"18鄰","STREET":"灣裡路","SECT":" ","MAREA":" ","LANE":" ","ALLEY":" ","HOUSE_NO":"６５２號","E_COORD97":166163.76999999999,"N_COORD97":2535560.3399999999,"ADDRESS":"灣裡路６５２號","OBJECTID":639556},"geometry":{"x":166163.77000000048,"y":2535560.3400000017}},{"attributes":{"ID":639584,"DIS_CODE":0,"TOWNNAME":"南區","LI":"郡南里","LIN":"20鄰","STREET":"中華南路","SECT":"一段","MAREA":" ","LANE":" ","ALLEY":" ","HOUSE_NO":"１１００號","E_COORD97":167510.57000000001,"N_COORD97":2540364.9500000002,"ADDRESS":"中華南路一段１１００號","OBJECTID":639557},"geometry":{"x":167510.5700000003,"y":2540364.9499999993}},{"attributes":{"ID":639585,"DIS_CODE":0,"TOWNNAME":"南區","LI":"喜東里","LIN":"1鄰","STREET":"明興路","SECT":" ","MAREA":" ","LANE":" ","ALLEY":" ","HOUSE_NO":"３２３號之１","E_COORD97":166391.07999999999,"N_COORD97":2539045,"ADDRESS":"明興路３２３號之１","OBJECTID":639558},"geometry":{"x":166391.08000000101,"y":2539045.0000000019}},{"attributes":{"ID":639586,"DIS_CODE":0,"TOWNNAME":"歸仁區","LI":"南興里","LIN":"26鄰","STREET":"文化二十街","SECT":" ","MAREA":" ","LANE":" ","ALLEY":" ","HOUSE_NO":"８１號","E_COORD97":175435.26999999999,"N_COORD97":2541342.2599999998,"ADDRESS":"文化二十街８１號","OBJECTID":639559},"geometry":{"x":175435.26999999955,"y":2541342.2599999998}},{"attributes":{"ID":639587,"DIS_CODE":0,"TOWNNAME":"南區","LI":"文南里","LIN":"13鄰","STREET":"文南路","SECT":" ","MAREA":" ","LANE":" ","ALLEY":" ","HOUSE_NO":"６１號","E_COORD97":166918.95999999999,"N_COORD97":2542667.5499999998,"ADDRESS":"文南路６１號","OBJECTID":639560},"geometry":{"x":166918.96000000089,"y":2542667.5500000007}},{"attributes":{"ID":639588,"DIS_CODE":0,"TOWNNAME":"南區","LI":"文南里","LIN":"13鄰","STREET":"文南路","SECT":" ","MAREA":" ","LANE":" ","ALLEY":" ","HOUSE_NO":"５９號","E_COORD97":166918.19,"N_COORD97":2542659.9399999999,"ADDRESS":"文南路５９號","OBJECTID":639561},"geometry":{"x":166918.19000000041,"y":2542659.9399999995}},{"attributes":{"ID":639589,"DIS_CODE":0,"TOWNNAME":"南區","LI":"同安里","LIN":"17鄰","STREET":"明興路","SECT":" ","MAREA":" ","LANE":" ","ALLEY":" ","HOUSE_NO":"１４２７號","E_COORD97":166357.32000000001,"N_COORD97":2535761.4900000002,"ADDRESS":"明興路１４２７號","OBJECTID":639562},"geometry":{"x":166357.32000000123,"y":2535761.4900000002}},{"attributes":{"ID":639590,"DIS_CODE":0,"TOWNNAME":"歸仁區","LI":"看西里","LIN":"4鄰","STREET":"仁愛南街","SECT":" ","MAREA":" ","LANE":" ","ALLEY":" ","HOUSE_NO":"１２０號","E_COORD97":178272.54999999999,"N_COORD97":2540358.29,"ADDRESS":"仁愛南街１２０號","OBJECTID":639563},"geometry":{"x":178272.55000000075,"y":2540358.2899999991}},{"attributes":{"ID":639591,"DIS_CODE":0,"TOWNNAME":"歸仁區","LI":"後市里","LIN":"42鄰","STREET":"民權北路","SECT":" ","MAREA":" ","LANE":" ","ALLEY":" ","HOUSE_NO":"３０號","E_COORD97":176995.32999999999,"N_COORD97":2540932.75,"ADDRESS":"民權北路３０號","OBJECTID":639564},"geometry":{"x":176995.33000000007,"y":2540932.75}},{"attributes":{"ID":639592,"DIS_CODE":0,"TOWNNAME":"歸仁區","LI":"崙頂里","LIN":"13鄰","STREET":"崙頂五街","SECT":" ","MAREA":" ","LANE":" ","ALLEY":" ","HOUSE_NO":"１４號","E_COORD97":177917.14000000001,"N_COORD97":2539815.25,"ADDRESS":"崙頂五街１４號","OBJECTID":639565},"geometry":{"x":177917.1400000006,"y":2539815.2500000037}},{"attributes":{"ID":639593,"DIS_CODE":0,"TOWNNAME":"歸仁區","LI":"看西里","LIN":"4鄰","STREET":"仁愛南街","SECT":" ","MAREA":" ","LANE":" ","ALLEY":" ","HOUSE_NO":"１３４號","E_COORD97":178271.45000000001,"N_COORD97":2540328.29,"ADDRESS":"仁愛南街１３４號","OBJECTID":639566},"geometry":{"x":178271.45000000205,"y":2540328.2899999991}},{"attributes":{"ID":639594,"DIS_CODE":0,"TOWNNAME":"歸仁區","LI":"許厝里","LIN":"26鄰","STREET":"信義北路","SECT":" ","MAREA":" ","LANE":" ","ALLEY":" ","HOUSE_NO":"４６號地下一層","E_COORD97":178001.82000000001,"N_COORD97":2540839.23,"ADDRESS":"信義北路４６號地下一層","OBJECTID":639567},"geometry":{"x":178001.82000000123,"y":2540839.2300000004}},{"attributes":{"ID":639595,"DIS_CODE":0,"TOWNNAME":"歸仁區","LI":"崙頂里","LIN":"26鄰","STREET":"成功十街","SECT":" ","MAREA":" ","LANE":" ","ALLEY":" ","HOUSE_NO":"１５３號","E_COORD97":177724.38,"N_COORD97":2539921.25,"ADDRESS":"成功十街１５３號","OBJECTID":639568},"geometry":{"x":177724.38000000082,"y":2539921.2500000019}},{"attributes":{"ID":639596,"DIS_CODE":0,"TOWNNAME":"歸仁區","LI":"許厝里","LIN":"32鄰","STREET":"復興路","SECT":" ","MAREA":" ","LANE":" ","ALLEY":" ","HOUSE_NO":"７２號","E_COORD97":177847.76000000001,"N_COORD97":2540625.54,"ADDRESS":"復興路７２號","OBJECTID":639569},"geometry":{"x":177847.75999999978,"y":2540625.5399999991}},{"attributes":{"ID":639597,"DIS_CODE":0,"TOWNNAME":"歸仁區","LI":"許厝里","LIN":"32鄰","STREET":"復興路","SECT":" ","MAREA":" ","LANE":" ","ALLEY":" ","HOUSE_NO":"７５號","E_COORD97":177824,"N_COORD97":2540607.6699999999,"ADDRESS":"復興路７５號","OBJECTID":639570},"geometry":{"x":177824.00000000093,"y":2540607.6699999999}},{"attributes":{"ID":639598,"DIS_CODE":0,"TOWNNAME":"歸仁區","LI":"南興里","LIN":"36鄰","STREET":"中山路","SECT":"三段","MAREA":" ","LANE":" ","ALLEY":" ","HOUSE_NO":"４３２號","E_COORD97":175929.20999999999,"N_COORD97":2541007.25,"ADDRESS":"中山路三段４３２號","OBJECTID":639571},"geometry":{"x":175929.20999999996,"y":2541007.25}},{"attributes":{"ID":639599,"DIS_CODE":0,"TOWNNAME":"歸仁區","LI":"崙頂里","LIN":"18鄰","STREET":"大成一街","SECT":" ","MAREA":" ","LANE":" ","ALLEY":" ","HOUSE_NO":"１０５號","E_COORD97":177911.32999999999,"N_COORD97":2540199.9100000001,"ADDRESS":"大成一街１０５號","OBJECTID":639572},"geometry":{"x":177911.33000000101,"y":2540199.9100000001}},{"attributes":{"ID":639600,"DIS_CODE":0,"TOWNNAME":"歸仁區","LI":"歸仁里","LIN":"20鄰","STREET":"忠孝北路","SECT":" ","MAREA":" ","LANE":" ","ALLEY":" ","HOUSE_NO":"１８９號","E_COORD97":178104.67000000001,"N_COORD97":2541174.25,"ADDRESS":"忠孝北路１８９號","OBJECTID":639573},"geometry":{"x":178104.66999999993,"y":2541174.25}},{"attributes":{"ID":639601,"DIS_CODE":0,"TOWNNAME":"歸仁區","LI":"辜厝里","LIN":"26鄰","STREET":"大順三街","SECT":" ","MAREA":" ","LANE":" ","ALLEY":" ","HOUSE_NO":"７號","E_COORD97":177371.17999999999,"N_COORD97":2540572.1499999999,"ADDRESS":"大順三街７號","OBJECTID":639574},"geometry":{"x":177371.18000000063,"y":2540572.1500000041}},{"attributes":{"ID":639602,"DIS_CODE":0,"TOWNNAME":"歸仁區","LI":"許厝里","LIN":"26鄰","STREET":"信義北路","SECT":" ","MAREA":" ","LANE":" ","ALLEY":" ","HOUSE_NO":"１０號","E_COORD97":178001.29999999999,"N_COORD97":2540760.9300000002,"ADDRESS":"信義北路１０號","OBJECTID":639575},"geometry":{"x":178001.30000000075,"y":2540760.9300000016}},{"attributes":{"ID":639603,"DIS_CODE":0,"TOWNNAME":"歸仁區","LI":"許厝里","LIN":"32鄰","STREET":"復興路","SECT":" ","MAREA":" ","LANE":" ","ALLEY":" ","HOUSE_NO":"７３號","E_COORD97":177828.10000000001,"N_COORD97":2540609.6699999999,"ADDRESS":"復興路７３號","OBJECTID":639576},"geometry":{"x":177828.10000000056,"y":2540609.6700000018}},{"attributes":{"ID":639604,"DIS_CODE":0,"TOWNNAME":"歸仁區","LI":"後市里","LIN":"42鄰","STREET":"國光街","SECT":" ","MAREA":" ","LANE":" ","ALLEY":" ","HOUSE_NO":"１４號","E_COORD97":177029.98999999999,"N_COORD97":2540951.7400000002,"ADDRESS":"國光街１４號","OBJECTID":639577},"geometry":{"x":177029.99000000022,"y":2540951.7400000021}},{"attributes":{"ID":639605,"DIS_CODE":0,"TOWNNAME":"歸仁區","LI":"看東里","LIN":"4鄰","STREET":"忠孝南路","SECT":" ","MAREA":" ","LANE":" ","ALLEY":" ","HOUSE_NO":"２１０號","E_COORD97":178529.97,"N_COORD97":2540196.8300000001,"ADDRESS":"忠孝南路２１０號","OBJECTID":639578},"geometry":{"x":178529.96999999974,"y":2540196.8300000001}},{"attributes":{"ID":639606,"DIS_CODE":0,"TOWNNAME":"歸仁區","LI":"文化里","LIN":"20鄰","STREET":"大德路","SECT":" ","MAREA":" ","LANE":" ","ALLEY":" ","HOUSE_NO":"２２３號","E_COORD97":177182.07000000001,"N_COORD97":2541518.3300000001,"ADDRESS":"大德路２２３號","OBJECTID":639579},"geometry":{"x":177182.0700000003,"y":2541518.3300000001}},{"attributes":{"ID":639607,"DIS_CODE":0,"TOWNNAME":"歸仁區","LI":"看西里","LIN":"20鄰","STREET":"成功路","SECT":"二段","MAREA":" ","LANE":" ","ALLEY":" ","HOUSE_NO":"３１號","E_COORD97":178167.20000000001,"N_COORD97":2539855.8900000001,"ADDRESS":"成功路二段３１號","OBJECTID":639580},"geometry":{"x":178167.20000000019,"y":2539855.8900000025}},{"attributes":{"ID":639608,"DIS_CODE":0,"TOWNNAME":"歸仁區","LI":"崙頂里","LIN":"4鄰","STREET":"信義南路","SECT":" ","MAREA":" ","LANE":" ","ALLEY":" ","HOUSE_NO":"１００號","E_COORD97":178070.48000000001,"N_COORD97":2540246.25,"ADDRESS":"信義南路１００號","OBJECTID":639581},"geometry":{"x":178070.48000000138,"y":2540246.2500000019}},{"attributes":{"ID":639609,"DIS_CODE":0,"TOWNNAME":"歸仁區","LI":"看西里","LIN":"4鄰","STREET":"仁愛南街","SECT":" ","MAREA":" ","LANE":" ","ALLEY":" ","HOUSE_NO":"１０６號","E_COORD97":178271.64999999999,"N_COORD97":2540386.29,"ADDRESS":"仁愛南街１０６號","OBJECTID":639582},"geometry":{"x":178271.65000000037,"y":2540386.2899999991}},{"attributes":{"ID":639610,"DIS_CODE":0,"TOWNNAME":"歸仁區","LI":"辜厝里","LIN":"5鄰","STREET":"大順街","SECT":" ","MAREA":" ","LANE":" ","ALLEY":" ","HOUSE_NO":"８０號","E_COORD97":177296.95999999999,"N_COORD97":2540636.54,"ADDRESS":"大順街８０號","OBJECTID":639583},"geometry":{"x":177296.96000000089,"y":2540636.540000001}},{"attributes":{"ID":639611,"DIS_CODE":0,"TOWNNAME":"歸仁區","LI":"歸仁里","LIN":"26鄰","STREET":"文化一街","SECT":" ","MAREA":" ","LANE":" ","ALLEY":" ","HOUSE_NO":"１３之１號","E_COORD97":178211.37,"N_COORD97":2541193.1299999999,"ADDRESS":"文化一街１３之１號","OBJECTID":639584},"geometry":{"x":178211.37000000104,"y":2541193.129999999}},{"attributes":{"ID":639612,"DIS_CODE":0,"TOWNNAME":"歸仁區","LI":"許厝里","LIN":"32鄰","STREET":"復興路","SECT":" ","MAREA":" ","LANE":" ","ALLEY":" ","HOUSE_NO":"６４號","E_COORD97":177864.16,"N_COORD97":2540624.54,"ADDRESS":"復興路６４號","OBJECTID":639585},"geometry":{"x":177864.16000000015,"y":2540624.5399999991}},{"attributes":{"ID":639613,"DIS_CODE":0,"TOWNNAME":"歸仁區","LI":"崙頂里","LIN":"5鄰","STREET":"大成路","SECT":" ","MAREA":" ","LANE":" ","ALLEY":" ","HOUSE_NO":"３８６號","E_COORD97":178033.87,"N_COORD97":2540108.6800000002,"ADDRESS":"大成路３８６號","OBJECTID":639586},"geometry":{"x":178033.87000000011,"y":2540108.6799999997}},{"attributes":{"ID":639614,"DIS_CODE":0,"TOWNNAME":"歸仁區","LI":"許厝里","LIN":"20鄰","STREET":"仁愛北街","SECT":" ","MAREA":" ","LANE":" ","ALLEY":" ","HOUSE_NO":"７４號","E_COORD97":178299.92999999999,"N_COORD97":2540875.25,"ADDRESS":"仁愛北街７４號","OBJECTID":639587},"geometry":{"x":178299.93000000156,"y":2540875.25}},{"attributes":{"ID":639615,"DIS_CODE":0,"TOWNNAME":"歸仁區","LI":"歸仁里","LIN":"13鄰","STREET":"和平二街","SECT":" ","MAREA":" ","LANE":" ","ALLEY":" ","HOUSE_NO":"１１號","E_COORD97":177900.89000000001,"N_COORD97":2541072.04,"ADDRESS":"和平二街１１號","OBJECTID":639588},"geometry":{"x":177900.88999999966,"y":2541072.0399999991}},{"attributes":{"ID":639616,"DIS_CODE":0,"TOWNNAME":"歸仁區","LI":"崙頂里","LIN":"24鄰","STREET":"崙頂二街","SECT":" ","MAREA":" ","LANE":" ","ALLEY":" ","HOUSE_NO":"１９號","E_COORD97":177778.63,"N_COORD97":2539955.25,"ADDRESS":"崙頂二街１９號","OBJECTID":639589},"geometry":{"x":177778.63000000082,"y":2539955.2500000019}},{"attributes":{"ID":639617,"DIS_CODE":0,"TOWNNAME":"歸仁區","LI":"看東里","LIN":"14鄰","STREET":"忠孝南路","SECT":" ","MAREA":" ","LANE":" ","ALLEY":" ","HOUSE_NO":"１９號","E_COORD97":178524.95999999999,"N_COORD97":2540583.6299999999,"ADDRESS":"忠孝南路１９號","OBJECTID":639590},"geometry":{"x":178524.95999999996,"y":2540583.629999999}},{"attributes":{"ID":639618,"DIS_CODE":0,"TOWNNAME":"歸仁區","LI":"看東里","LIN":"14鄰","STREET":"忠孝南路","SECT":" ","MAREA":" ","LANE":" ","ALLEY":" ","HOUSE_NO":"１３號","E_COORD97":178524.95999999999,"N_COORD97":2540595.6400000001,"ADDRESS":"忠孝南路１３號","OBJECTID":639591},"geometry":{"x":178524.95999999996,"y":2540595.6400000006}},{"attributes":{"ID":639619,"DIS_CODE":0,"TOWNNAME":"歸仁區","LI":"看西里","LIN":"4鄰","STREET":"仁愛南街","SECT":" ","MAREA":" ","LANE":" ","ALLEY":" ","HOUSE_NO":"１３０號","E_COORD97":178272.45000000001,"N_COORD97":2540337.29,"ADDRESS":"仁愛南街１３０號","OBJECTID":639592},"geometry":{"x":178272.45000000019,"y":2540337.290000001}},{"attributes":{"ID":639620,"DIS_CODE":0,"TOWNNAME":"歸仁區","LI":"看東里","LIN":"4鄰","STREET":"成功路","SECT":"一段","MAREA":" ","LANE":" ","ALLEY":" ","HOUSE_NO":"１９４號","E_COORD97":178482.20999999999,"N_COORD97":2540167.1200000001,"ADDRESS":"成功路一段１９４號","OBJECTID":639593},"geometry":{"x":178482.20999999996,"y":2540167.1200000029}},{"attributes":{"ID":639621,"DIS_CODE":0,"TOWNNAME":"歸仁區","LI":"崙頂里","LIN":"26鄰","STREET":"成功十街","SECT":" ","MAREA":" ","LANE":" ","ALLEY":" ","HOUSE_NO":"１３５號","E_COORD97":177741.67999999999,"N_COORD97":2539881.25,"ADDRESS":"成功十街１３５號","OBJECTID":639594},"geometry":{"x":177741.6799999997,"y":2539881.25}},{"attributes":{"ID":639622,"DIS_CODE":0,"TOWNNAME":"歸仁區","LI":"許厝里","LIN":"26鄰","STREET":"信義北路","SECT":" ","MAREA":" ","LANE":" ","ALLEY":" ","HOUSE_NO":"１２號","E_COORD97":178001.29999999999,"N_COORD97":2540765.9300000002,"ADDRESS":"信義北路１２號","OBJECTID":639595},"geometry":{"x":178001.30000000075,"y":2540765.9299999997}},{"attributes":{"ID":639623,"DIS_CODE":0,"TOWNNAME":"歸仁區","LI":"辜厝里","LIN":"46鄰","STREET":"中正南路","SECT":"一段","MAREA":" ","LANE":" ","ALLEY":" ","HOUSE_NO":"３３８號","E_COORD97":177128.44,"N_COORD97":2540209.9500000002,"ADDRESS":"中正南路一段３３８號","OBJECTID":639596},"geometry":{"x":177128.44000000041,"y":2540209.9500000011}},{"attributes":{"ID":639624,"DIS_CODE":0,"TOWNNAME":"歸仁區","LI":"看西里","LIN":"4鄰","STREET":"仁愛南街","SECT":" ","MAREA":" ","LANE":" ","ALLEY":" ","HOUSE_NO":"１２２號","E_COORD97":178272.54999999999,"N_COORD97":2540354.29,"ADDRESS":"仁愛南街１２２號","OBJECTID":639597},"geometry":{"x":178272.55000000075,"y":2540354.290000001}},{"attributes":{"ID":639625,"DIS_CODE":0,"TOWNNAME":"歸仁區","LI":"看東里","LIN":"4鄰","STREET":"成功六街","SECT":" ","MAREA":" ","LANE":" ","ALLEY":" ","HOUSE_NO":"２２號","E_COORD97":178401.60999999999,"N_COORD97":2540151.1099999999,"ADDRESS":"成功六街２２號","OBJECTID":639598},"geometry":{"x":178401.61000000127,"y":2540151.1100000031}},{"attributes":{"ID":639626,"DIS_CODE":0,"TOWNNAME":"歸仁區","LI":"看西里","LIN":"5鄰","STREET":"信義南路","SECT":" ","MAREA":" ","LANE":" ","ALLEY":" ","HOUSE_NO":"１５１號","E_COORD97":178139.5,"N_COORD97":2540323.4900000002,"ADDRESS":"信義南路１５１號","OBJECTID":639599},"geometry":{"x":178139.5,"y":2540323.4900000021}},{"attributes":{"ID":639627,"DIS_CODE":0,"TOWNNAME":"歸仁區","LI":"崙頂里","LIN":"18鄰","STREET":"大成一街","SECT":" ","MAREA":" ","LANE":" ","ALLEY":" ","HOUSE_NO":"８５號","E_COORD97":177887.57999999999,"N_COORD97":2540213.9100000001,"ADDRESS":"大成一街８５號","OBJECTID":639600},"geometry":{"x":177887.58000000101,"y":2540213.9100000001}}]}