{"displayFieldName":"TOWNNAME","fieldAliases":{"ID":"ID","DIS_CODE":"DIS_CODE","TOWNNAME":"TOWNNAME","LI":"LI","LIN":"LIN","STREET":"STREET","SECT":"SECT","MAREA":"MAREA","LANE":"LANE","ALLEY":"ALLEY","HOUSE_NO":"HOUSE_NO","E_COORD97":"E_COORD97","N_COORD97":"N_COORD97","ADDRESS":"ADDRESS","OBJECTID":"OBJECTID"},"geometryType":"esriGeometryPoint","spatialReference":{"wkid":102443,"latestWkid":3826},"fields":[{"name":"ID","type":"esriFieldTypeDouble","alias":"ID"},{"name":"DIS_CODE","type":"esriFieldTypeInteger","alias":"DIS_CODE"},{"name":"TOWNNAME","type":"esriFieldTypeString","alias":"TOWNNAME","length":8},{"name":"LI","type":"esriFieldTypeString","alias":"LI","length":8},{"name":"LIN","type":"esriFieldTypeString","alias":"LIN","length":12},{"name":"STREET","type":"esriFieldTypeString","alias":"STREET","length":20},{"name":"SECT","type":"esriFieldTypeString","alias":"SECT","length":8},{"name":"MAREA","type":"esriFieldTypeString","alias":"MAREA","length":12},{"name":"LANE","type":"esriFieldTypeString","alias":"LANE","length":10},{"name":"ALLEY","type":"esriFieldTypeString","alias":"ALLEY","length":10},{"name":"HOUSE_NO","type":"esriFieldTypeString","alias":"HOUSE_NO","length":20},{"name":"E_COORD97","type":"esriFieldTypeDouble","alias":"E_COORD97"},{"name":"N_COORD97","type":"esriFieldTypeDouble","alias":"N_COORD97"},{"name":"ADDRESS","type":"esriFieldTypeString","alias":"ADDRESS","length":50},{"name":"OBJECTID","type":"esriFieldTypeOID","alias":"OBJECTID"}],"features":[{"attributes":{"ID":409825,"DIS_CODE":0,"TOWNNAME":"永康區","LI":"神洲里","LIN":"22鄰","STREET":"忠孝路","SECT":" ","MAREA":" ","LANE":"７６巷","ALLEY":" ","HOUSE_NO":"３９號四樓","E_COORD97":172227.64999999999,"N_COORD97":2544925.21,"ADDRESS":"忠孝路７６巷３９號四樓","OBJECTID":409801},"geometry":{"x":172227.6500000013,"y":2544925.2100000009}},{"attributes":{"ID":409826,"DIS_CODE":0,"TOWNNAME":"永康區","LI":"神洲里","LIN":"22鄰","STREET":"忠孝路","SECT":" ","MAREA":" ","LANE":"７６巷","ALLEY":" ","HOUSE_NO":"４５號二樓","E_COORD97":172268.69,"N_COORD97":2544926.8900000001,"ADDRESS":"忠孝路７６巷４５號二樓","OBJECTID":409802},"geometry":{"x":172268.69000000041,"y":2544926.8900000006}},{"attributes":{"ID":409827,"DIS_CODE":0,"TOWNNAME":"永康區","LI":"神洲里","LIN":"22鄰","STREET":"忠孝路","SECT":" ","MAREA":" ","LANE":"７６巷","ALLEY":" ","HOUSE_NO":"４１號三樓","E_COORD97":172243.22,"N_COORD97":2544924.46,"ADDRESS":"忠孝路７６巷４１號三樓","OBJECTID":409803},"geometry":{"x":172243.22000000067,"y":2544924.4600000028}},{"attributes":{"ID":409828,"DIS_CODE":0,"TOWNNAME":"永康區","LI":"神洲里","LIN":"22鄰","STREET":"忠孝路","SECT":" ","MAREA":" ","LANE":"７６巷","ALLEY":" ","HOUSE_NO":"３１號四樓","E_COORD97":172178.76000000001,"N_COORD97":2544926.0699999998,"ADDRESS":"忠孝路７６巷３１號四樓","OBJECTID":409804},"geometry":{"x":172178.76000000071,"y":2544926.070000004}},{"attributes":{"ID":409829,"DIS_CODE":0,"TOWNNAME":"善化區","LI":"光文里","LIN":"22鄰","STREET":"光華路","SECT":" ","MAREA":" ","LANE":"１２８巷","ALLEY":" ","HOUSE_NO":"１５號五樓之１","E_COORD97":178681.26000000001,"N_COORD97":2559500.52,"ADDRESS":"光華路１２８巷１５號五樓之１","OBJECTID":409805},"geometry":{"x":178681.26000000071,"y":2559500.5199999977}},{"attributes":{"ID":409830,"DIS_CODE":0,"TOWNNAME":"善化區","LI":"光文里","LIN":"22鄰","STREET":"光華路","SECT":" ","MAREA":" ","LANE":"３５巷","ALLEY":" ","HOUSE_NO":"１９號三樓之１","E_COORD97":178564.54000000001,"N_COORD97":2559258.27,"ADDRESS":"光華路３５巷１９號三樓之１","OBJECTID":409806},"geometry":{"x":178564.54000000097,"y":2559258.2700000033}},{"attributes":{"ID":409831,"DIS_CODE":0,"TOWNNAME":"善化區","LI":"光文里","LIN":"22鄰","STREET":"光華路","SECT":" ","MAREA":" ","LANE":"１２８巷","ALLEY":" ","HOUSE_NO":"１１號三樓","E_COORD97":178679.44,"N_COORD97":2559485,"ADDRESS":"光華路１２８巷１１號三樓","OBJECTID":409807},"geometry":{"x":178679.44000000041,"y":2559485.0000000019}},{"attributes":{"ID":409832,"DIS_CODE":0,"TOWNNAME":"善化區","LI":"光文里","LIN":"22鄰","STREET":"光華路","SECT":" ","MAREA":" ","LANE":"３５巷","ALLEY":" ","HOUSE_NO":"１９號三樓之３","E_COORD97":178564.57999999999,"N_COORD97":2559258.27,"ADDRESS":"光華路３５巷１９號三樓之３","OBJECTID":409808},"geometry":{"x":178564.58000000007,"y":2559258.2700000033}},{"attributes":{"ID":409833,"DIS_CODE":0,"TOWNNAME":"善化區","LI":"光文里","LIN":"22鄰","STREET":"光華路","SECT":" ","MAREA":" ","LANE":"１２８巷","ALLEY":" ","HOUSE_NO":"９號二樓","E_COORD97":178670.98000000001,"N_COORD97":2559486.75,"ADDRESS":"光華路１２８巷９號二樓","OBJECTID":409809},"geometry":{"x":178670.98000000045,"y":2559486.7500000019}},{"attributes":{"ID":409834,"DIS_CODE":0,"TOWNNAME":"善化區","LI":"光文里","LIN":"22鄰","STREET":"光華路","SECT":" ","MAREA":" ","LANE":"１２８巷","ALLEY":" ","HOUSE_NO":"１０號二樓","E_COORD97":178667.45000000001,"N_COORD97":2559510,"ADDRESS":"光華路１２８巷１０號二樓","OBJECTID":409810},"geometry":{"x":178667.45000000019,"y":2559510}},{"attributes":{"ID":409835,"DIS_CODE":0,"TOWNNAME":"永康區","LI":"\u25A0行里","LIN":"22鄰","STREET":"正南五街","SECT":" ","MAREA":" ","LANE":"５２０巷","ALLEY":" ","HOUSE_NO":"５０號二樓","E_COORD97":171691.53,"N_COORD97":2548779.75,"ADDRESS":"正南五街５２０巷５０號二樓","OBJECTID":409811},"geometry":{"x":171691.53000000026,"y":2548779.7500000019}},{"attributes":{"ID":409836,"DIS_CODE":0,"TOWNNAME":"永康區","LI":"\u25A0行里","LIN":"22鄰","STREET":"正南五街","SECT":" ","MAREA":" ","LANE":"５２０巷","ALLEY":" ","HOUSE_NO":"５０號三樓","E_COORD97":171691.53,"N_COORD97":2548779.75,"ADDRESS":"正南五街５２０巷５０號三樓","OBJECTID":409812},"geometry":{"x":171691.53000000026,"y":2548779.7500000019}},{"attributes":{"ID":409837,"DIS_CODE":0,"TOWNNAME":"永康區","LI":"\u25A0行里","LIN":"22鄰","STREET":"正南五街","SECT":" ","MAREA":" ","LANE":"５２０巷","ALLEY":" ","HOUSE_NO":"５０號四樓","E_COORD97":171691.53,"N_COORD97":2548779.75,"ADDRESS":"正南五街５２０巷５０號四樓","OBJECTID":409813},"geometry":{"x":171691.53000000026,"y":2548779.7500000019}},{"attributes":{"ID":409838,"DIS_CODE":0,"TOWNNAME":"中西區","LI":"永華里","LIN":"22鄰","STREET":"忠義路","SECT":"二段","MAREA":" ","LANE":"３８巷","ALLEY":" ","HOUSE_NO":"１號一樓","E_COORD97":168343.42000000001,"N_COORD97":2543712.3999999999,"ADDRESS":"忠義路二段３８巷１號一樓","OBJECTID":409814},"geometry":{"x":168343.42000000086,"y":2543712.4000000004}},{"attributes":{"ID":409839,"DIS_CODE":0,"TOWNNAME":"中西區","LI":"永華里","LIN":"22鄰","STREET":"忠義路","SECT":"二段","MAREA":" ","LANE":"３８巷","ALLEY":" ","HOUSE_NO":"１號二樓","E_COORD97":168343.42000000001,"N_COORD97":2543712.3999999999,"ADDRESS":"忠義路二段３８巷１號二樓","OBJECTID":409815},"geometry":{"x":168343.42000000086,"y":2543712.4000000004}},{"attributes":{"ID":409840,"DIS_CODE":0,"TOWNNAME":"中西區","LI":"永華里","LIN":"22鄰","STREET":"忠義路","SECT":"二段","MAREA":" ","LANE":"３８巷","ALLEY":" ","HOUSE_NO":"１號三樓","E_COORD97":168343.42000000001,"N_COORD97":2543712.3999999999,"ADDRESS":"忠義路二段３８巷１號三樓","OBJECTID":409816},"geometry":{"x":168343.42000000086,"y":2543712.4000000004}},{"attributes":{"ID":409841,"DIS_CODE":0,"TOWNNAME":"中西區","LI":"永華里","LIN":"22鄰","STREET":"忠義路","SECT":"二段","MAREA":" ","LANE":"３８巷","ALLEY":" ","HOUSE_NO":"１號四樓","E_COORD97":168343.42000000001,"N_COORD97":2543712.3999999999,"ADDRESS":"忠義路二段３８巷１號四樓","OBJECTID":409817},"geometry":{"x":168343.42000000086,"y":2543712.4000000004}},{"attributes":{"ID":409842,"DIS_CODE":0,"TOWNNAME":"中西區","LI":"永華里","LIN":"22鄰","STREET":"忠義路","SECT":"二段","MAREA":" ","LANE":"３８巷","ALLEY":" ","HOUSE_NO":"５號一樓","E_COORD97":168343.42000000001,"N_COORD97":2543722.6299999999,"ADDRESS":"忠義路二段３８巷５號一樓","OBJECTID":409818},"geometry":{"x":168343.42000000086,"y":2543722.629999999}},{"attributes":{"ID":409843,"DIS_CODE":0,"TOWNNAME":"中西區","LI":"永華里","LIN":"22鄰","STREET":"忠義路","SECT":"二段","MAREA":" ","LANE":"３８巷","ALLEY":" ","HOUSE_NO":"５號二樓","E_COORD97":168343.42000000001,"N_COORD97":2543722.6299999999,"ADDRESS":"忠義路二段３８巷５號二樓","OBJECTID":409819},"geometry":{"x":168343.42000000086,"y":2543722.629999999}},{"attributes":{"ID":409844,"DIS_CODE":0,"TOWNNAME":"中西區","LI":"永華里","LIN":"22鄰","STREET":"忠義路","SECT":"二段","MAREA":" ","LANE":"３８巷","ALLEY":" ","HOUSE_NO":"５號三樓","E_COORD97":168343.42000000001,"N_COORD97":2543722.6299999999,"ADDRESS":"忠義路二段３８巷５號三樓","OBJECTID":409820},"geometry":{"x":168343.42000000086,"y":2543722.629999999}},{"attributes":{"ID":409845,"DIS_CODE":0,"TOWNNAME":"中西區","LI":"永華里","LIN":"22鄰","STREET":"忠義路","SECT":"二段","MAREA":" ","LANE":"３８巷","ALLEY":" ","HOUSE_NO":"５號四樓","E_COORD97":168343.42000000001,"N_COORD97":2543722.6299999999,"ADDRESS":"忠義路二段３８巷５號四樓","OBJECTID":409821},"geometry":{"x":168343.42000000086,"y":2543722.629999999}},{"attributes":{"ID":409846,"DIS_CODE":0,"TOWNNAME":"中西區","LI":"赤嵌里","LIN":"22鄰","STREET":"忠義路","SECT":"二段","MAREA":" ","LANE":"２３３巷","ALLEY":" ","HOUSE_NO":"２４號二樓","E_COORD97":168386.51999999999,"N_COORD97":2544268.3500000001,"ADDRESS":"忠義路二段２３３巷２４號二樓","OBJECTID":409822},"geometry":{"x":168386.51999999955,"y":2544268.3499999996}},{"attributes":{"ID":409847,"DIS_CODE":0,"TOWNNAME":"安南區","LI":"鹿耳里","LIN":"8鄰","STREET":"北汕尾二路","SECT":" ","MAREA":" ","LANE":"５５０巷","ALLEY":" ","HOUSE_NO":"１１之１號","E_COORD97":160562.72,"N_COORD97":2548040.8900000001,"ADDRESS":"北汕尾二路５５０巷１１之１號","OBJECTID":409823},"geometry":{"x":160562.71999999881,"y":2548040.8900000025}},{"attributes":{"ID":409848,"DIS_CODE":0,"TOWNNAME":"東區","LI":"新東里","LIN":"22鄰","STREET":"裕農路","SECT":" ","MAREA":" ","LANE":"４３巷","ALLEY":" ","HOUSE_NO":"１號二樓","E_COORD97":170636.29000000001,"N_COORD97":2542923.79,"ADDRESS":"裕農路４３巷１號二樓","OBJECTID":409824},"geometry":{"x":170636.29000000097,"y":2542923.790000001}},{"attributes":{"ID":409849,"DIS_CODE":0,"TOWNNAME":"東區","LI":"新東里","LIN":"22鄰","STREET":"裕農路","SECT":" ","MAREA":" ","LANE":"４３巷","ALLEY":" ","HOUSE_NO":"１號三樓","E_COORD97":170636.29000000001,"N_COORD97":2542923.79,"ADDRESS":"裕農路４３巷１號三樓","OBJECTID":409825},"geometry":{"x":170636.29000000097,"y":2542923.790000001}},{"attributes":{"ID":409850,"DIS_CODE":0,"TOWNNAME":"東區","LI":"新東里","LIN":"22鄰","STREET":"裕農路","SECT":" ","MAREA":" ","LANE":"４３巷","ALLEY":" ","HOUSE_NO":"１號五樓","E_COORD97":170636.29000000001,"N_COORD97":2542923.79,"ADDRESS":"裕農路４３巷１號五樓","OBJECTID":409826},"geometry":{"x":170636.29000000097,"y":2542923.790000001}},{"attributes":{"ID":409851,"DIS_CODE":0,"TOWNNAME":"東區","LI":"新東里","LIN":"22鄰","STREET":"裕農路","SECT":" ","MAREA":" ","LANE":"４３巷","ALLEY":" ","HOUSE_NO":"１號四樓","E_COORD97":170636.29000000001,"N_COORD97":2542923.79,"ADDRESS":"裕農路４３巷１號四樓","OBJECTID":409827},"geometry":{"x":170636.29000000097,"y":2542923.790000001}},{"attributes":{"ID":409852,"DIS_CODE":0,"TOWNNAME":"東區","LI":"新東里","LIN":"22鄰","STREET":"裕農路","SECT":" ","MAREA":" ","LANE":"４３巷","ALLEY":" ","HOUSE_NO":"３號五樓","E_COORD97":170643.39999999999,"N_COORD97":2542920.8599999999,"ADDRESS":"裕農路４３巷３號五樓","OBJECTID":409828},"geometry":{"x":170643.40000000037,"y":2542920.8600000013}},{"attributes":{"ID":409853,"DIS_CODE":0,"TOWNNAME":"東區","LI":"新東里","LIN":"22鄰","STREET":"裕農路","SECT":" ","MAREA":" ","LANE":"４３巷","ALLEY":" ","HOUSE_NO":"３號四樓","E_COORD97":170643.39999999999,"N_COORD97":2542920.8599999999,"ADDRESS":"裕農路４３巷３號四樓","OBJECTID":409829},"geometry":{"x":170643.40000000037,"y":2542920.8600000013}},{"attributes":{"ID":409854,"DIS_CODE":0,"TOWNNAME":"善化區","LI":"光文里","LIN":"22鄰","STREET":"光華路","SECT":" ","MAREA":" ","LANE":"１２８巷","ALLEY":" ","HOUSE_NO":"１０號三樓","E_COORD97":178667.45000000001,"N_COORD97":2559510,"ADDRESS":"光華路１２８巷１０號三樓","OBJECTID":409830},"geometry":{"x":178667.45000000019,"y":2559510}},{"attributes":{"ID":409855,"DIS_CODE":0,"TOWNNAME":"永康區","LI":"網寮里","LIN":"22鄰","STREET":"永春街","SECT":" ","MAREA":" ","LANE":"１３巷","ALLEY":" ","HOUSE_NO":"３３號四樓","E_COORD97":173695.63,"N_COORD97":2546210.7000000002,"ADDRESS":"永春街１３巷３３號四樓","OBJECTID":409831},"geometry":{"x":173695.62999999989,"y":2546210.6999999993}},{"attributes":{"ID":409856,"DIS_CODE":0,"TOWNNAME":"永康區","LI":"網寮里","LIN":"22鄰","STREET":"永春街","SECT":" ","MAREA":" ","LANE":"１３巷","ALLEY":" ","HOUSE_NO":"３９號三樓","E_COORD97":173682,"N_COORD97":2546207.2000000002,"ADDRESS":"永春街１３巷３９號三樓","OBJECTID":409832},"geometry":{"x":173682.00000000186,"y":2546207.2000000011}},{"attributes":{"ID":409857,"DIS_CODE":0,"TOWNNAME":"永康區","LI":"網寮里","LIN":"22鄰","STREET":"永春街","SECT":" ","MAREA":" ","LANE":"１３巷","ALLEY":" ","HOUSE_NO":"３５號五樓","E_COORD97":173698.67999999999,"N_COORD97":2546199.2000000002,"ADDRESS":"永春街１３巷３５號五樓","OBJECTID":409833},"geometry":{"x":173698.6799999997,"y":2546199.2000000011}},{"attributes":{"ID":409858,"DIS_CODE":0,"TOWNNAME":"永康區","LI":"網寮里","LIN":"22鄰","STREET":"永春街","SECT":" ","MAREA":" ","LANE":"１３巷","ALLEY":" ","HOUSE_NO":"３９號五樓","E_COORD97":173682,"N_COORD97":2546207.2000000002,"ADDRESS":"永春街１３巷３９號五樓","OBJECTID":409834},"geometry":{"x":173682.00000000186,"y":2546207.2000000011}},{"attributes":{"ID":409859,"DIS_CODE":0,"TOWNNAME":"永康區","LI":"網寮里","LIN":"22鄰","STREET":"永春街","SECT":" ","MAREA":" ","LANE":"１３巷","ALLEY":" ","HOUSE_NO":"３７號二樓","E_COORD97":173686.28,"N_COORD97":2546195.9399999999,"ADDRESS":"永春街１３巷３７號二樓","OBJECTID":409835},"geometry":{"x":173686.28000000119,"y":2546195.9399999995}},{"attributes":{"ID":409860,"DIS_CODE":0,"TOWNNAME":"永康區","LI":"網寮里","LIN":"22鄰","STREET":"永春街","SECT":" ","MAREA":" ","LANE":"１３巷","ALLEY":" ","HOUSE_NO":"３５號三樓","E_COORD97":173698.67999999999,"N_COORD97":2546199.2000000002,"ADDRESS":"永春街１３巷３５號三樓","OBJECTID":409836},"geometry":{"x":173698.6799999997,"y":2546199.2000000011}},{"attributes":{"ID":409861,"DIS_CODE":0,"TOWNNAME":"永康區","LI":"網寮里","LIN":"22鄰","STREET":"永春街","SECT":" ","MAREA":" ","LANE":"１３巷","ALLEY":" ","HOUSE_NO":"３３號五樓","E_COORD97":173695.63,"N_COORD97":2546210.7000000002,"ADDRESS":"永春街１３巷３３號五樓","OBJECTID":409837},"geometry":{"x":173695.62999999989,"y":2546210.6999999993}},{"attributes":{"ID":409862,"DIS_CODE":0,"TOWNNAME":"永康區","LI":"網寮里","LIN":"22鄰","STREET":"永春街","SECT":" ","MAREA":" ","LANE":"１３巷","ALLEY":" ","HOUSE_NO":"３５號四樓","E_COORD97":173698.67999999999,"N_COORD97":2546199.2000000002,"ADDRESS":"永春街１３巷３５號四樓","OBJECTID":409838},"geometry":{"x":173698.6799999997,"y":2546199.2000000011}},{"attributes":{"ID":409863,"DIS_CODE":0,"TOWNNAME":"永康區","LI":"網寮里","LIN":"22鄰","STREET":"永春街","SECT":" ","MAREA":" ","LANE":"１３巷","ALLEY":" ","HOUSE_NO":"３３號六樓","E_COORD97":173695.63,"N_COORD97":2546210.7000000002,"ADDRESS":"永春街１３巷３３號六樓","OBJECTID":409839},"geometry":{"x":173695.62999999989,"y":2546210.6999999993}},{"attributes":{"ID":409864,"DIS_CODE":0,"TOWNNAME":"永康區","LI":"網寮里","LIN":"22鄰","STREET":"永春街","SECT":" ","MAREA":" ","LANE":"１３巷","ALLEY":" ","HOUSE_NO":"３７號三樓","E_COORD97":173686.28,"N_COORD97":2546195.9399999999,"ADDRESS":"永春街１３巷３７號三樓","OBJECTID":409840},"geometry":{"x":173686.28000000119,"y":2546195.9399999995}},{"attributes":{"ID":409865,"DIS_CODE":0,"TOWNNAME":"永康區","LI":"網寮里","LIN":"22鄰","STREET":"永春街","SECT":" ","MAREA":" ","LANE":"１３巷","ALLEY":" ","HOUSE_NO":"３５號六樓","E_COORD97":173698.67999999999,"N_COORD97":2546199.2000000002,"ADDRESS":"永春街１３巷３５號六樓","OBJECTID":409841},"geometry":{"x":173698.6799999997,"y":2546199.2000000011}},{"attributes":{"ID":409866,"DIS_CODE":0,"TOWNNAME":"永康區","LI":"網寮里","LIN":"22鄰","STREET":"永春街","SECT":" ","MAREA":" ","LANE":"１３巷","ALLEY":" ","HOUSE_NO":"３９號四樓","E_COORD97":173682,"N_COORD97":2546207.2000000002,"ADDRESS":"永春街１３巷３９號四樓","OBJECTID":409842},"geometry":{"x":173682.00000000186,"y":2546207.2000000011}},{"attributes":{"ID":409867,"DIS_CODE":0,"TOWNNAME":"永康區","LI":"網寮里","LIN":"22鄰","STREET":"永春街","SECT":" ","MAREA":" ","LANE":"１３巷","ALLEY":" ","HOUSE_NO":"３３號三樓","E_COORD97":173695.63,"N_COORD97":2546210.7000000002,"ADDRESS":"永春街１３巷３３號三樓","OBJECTID":409843},"geometry":{"x":173695.62999999989,"y":2546210.6999999993}},{"attributes":{"ID":409868,"DIS_CODE":0,"TOWNNAME":"永康區","LI":"網寮里","LIN":"22鄰","STREET":"永春街","SECT":" ","MAREA":" ","LANE":"１３巷","ALLEY":" ","HOUSE_NO":"３７號六樓","E_COORD97":173686.28,"N_COORD97":2546195.9399999999,"ADDRESS":"永春街１３巷３７號六樓","OBJECTID":409844},"geometry":{"x":173686.28000000119,"y":2546195.9399999995}},{"attributes":{"ID":409869,"DIS_CODE":0,"TOWNNAME":"善化區","LI":"光文里","LIN":"22鄰","STREET":"光華路","SECT":" ","MAREA":" ","LANE":"１２８巷","ALLEY":" ","HOUSE_NO":"１１號五樓","E_COORD97":178679.44,"N_COORD97":2559485,"ADDRESS":"光華路１２８巷１１號五樓","OBJECTID":409845},"geometry":{"x":178679.44000000041,"y":2559485.0000000019}},{"attributes":{"ID":409870,"DIS_CODE":0,"TOWNNAME":"善化區","LI":"光文里","LIN":"22鄰","STREET":"光華路","SECT":" ","MAREA":" ","LANE":"１２８巷","ALLEY":" ","HOUSE_NO":"１１號四樓","E_COORD97":178679.44,"N_COORD97":2559485,"ADDRESS":"光華路１２８巷１１號四樓","OBJECTID":409846},"geometry":{"x":178679.44000000041,"y":2559485.0000000019}},{"attributes":{"ID":409871,"DIS_CODE":0,"TOWNNAME":"善化區","LI":"光文里","LIN":"22鄰","STREET":"光華路","SECT":" ","MAREA":" ","LANE":"１２８巷","ALLEY":" ","HOUSE_NO":"１０號七樓之１","E_COORD97":178668.31,"N_COORD97":2559510.02,"ADDRESS":"光華路１２８巷１０號七樓之１","OBJECTID":409847},"geometry":{"x":178668.30999999866,"y":2559510.0199999996}},{"attributes":{"ID":409872,"DIS_CODE":0,"TOWNNAME":"善化區","LI":"光文里","LIN":"22鄰","STREET":"光華路","SECT":" ","MAREA":" ","LANE":"１２８巷","ALLEY":" ","HOUSE_NO":"１３號二樓","E_COORD97":178683.76000000001,"N_COORD97":2559488.25,"ADDRESS":"光華路１２８巷１３號二樓","OBJECTID":409848},"geometry":{"x":178683.75999999978,"y":2559488.25}},{"attributes":{"ID":409873,"DIS_CODE":0,"TOWNNAME":"善化區","LI":"光文里","LIN":"22鄰","STREET":"光華路","SECT":" ","MAREA":" ","LANE":"１２８巷","ALLEY":" ","HOUSE_NO":"１３號七樓","E_COORD97":178683.76000000001,"N_COORD97":2559488.25,"ADDRESS":"光華路１２８巷１３號七樓","OBJECTID":409849},"geometry":{"x":178683.75999999978,"y":2559488.25}},{"attributes":{"ID":409874,"DIS_CODE":0,"TOWNNAME":"善化區","LI":"光文里","LIN":"22鄰","STREET":"光華路","SECT":" ","MAREA":" ","LANE":"１２８巷","ALLEY":" ","HOUSE_NO":"１１號六樓","E_COORD97":178679.44,"N_COORD97":2559485,"ADDRESS":"光華路１２８巷１１號六樓","OBJECTID":409850},"geometry":{"x":178679.44000000041,"y":2559485.0000000019}},{"attributes":{"ID":409875,"DIS_CODE":0,"TOWNNAME":"善化區","LI":"光文里","LIN":"22鄰","STREET":"光華路","SECT":" ","MAREA":" ","LANE":"１２８巷","ALLEY":" ","HOUSE_NO":"１３號五樓","E_COORD97":178683.76000000001,"N_COORD97":2559488.25,"ADDRESS":"光華路１２８巷１３號五樓","OBJECTID":409851},"geometry":{"x":178683.75999999978,"y":2559488.25}},{"attributes":{"ID":409876,"DIS_CODE":0,"TOWNNAME":"善化區","LI":"光文里","LIN":"22鄰","STREET":"光華路","SECT":" ","MAREA":" ","LANE":"１２８巷","ALLEY":" ","HOUSE_NO":"１１號七樓","E_COORD97":178679.44,"N_COORD97":2559485,"ADDRESS":"光華路１２８巷１１號七樓","OBJECTID":409852},"geometry":{"x":178679.44000000041,"y":2559485.0000000019}},{"attributes":{"ID":409877,"DIS_CODE":0,"TOWNNAME":"善化區","LI":"光文里","LIN":"22鄰","STREET":"光華路","SECT":" ","MAREA":" ","LANE":"１２８巷","ALLEY":" ","HOUSE_NO":"１０號六樓","E_COORD97":178667.45000000001,"N_COORD97":2559510,"ADDRESS":"光華路１２８巷１０號六樓","OBJECTID":409853},"geometry":{"x":178667.45000000019,"y":2559510}},{"attributes":{"ID":409878,"DIS_CODE":0,"TOWNNAME":"善化區","LI":"光文里","LIN":"22鄰","STREET":"光華路","SECT":" ","MAREA":" ","LANE":"３５巷","ALLEY":" ","HOUSE_NO":"１９號二樓之２","E_COORD97":178564.59,"N_COORD97":2559258.27,"ADDRESS":"光華路３５巷１９號二樓之２","OBJECTID":409854},"geometry":{"x":178564.58999999985,"y":2559258.2700000033}},{"attributes":{"ID":409879,"DIS_CODE":0,"TOWNNAME":"善化區","LI":"光文里","LIN":"22鄰","STREET":"光華路","SECT":" ","MAREA":" ","LANE":"１２８巷","ALLEY":" ","HOUSE_NO":"１９號二樓","E_COORD97":178681.67000000001,"N_COORD97":2559507.4900000002,"ADDRESS":"光華路１２８巷１９號二樓","OBJECTID":409855},"geometry":{"x":178681.67000000179,"y":2559507.4900000002}},{"attributes":{"ID":409880,"DIS_CODE":0,"TOWNNAME":"善化區","LI":"光文里","LIN":"22鄰","STREET":"光華路","SECT":" ","MAREA":" ","LANE":"１２８巷","ALLEY":" ","HOUSE_NO":"１０號七樓","E_COORD97":178667.45000000001,"N_COORD97":2559510,"ADDRESS":"光華路１２８巷１０號七樓","OBJECTID":409856},"geometry":{"x":178667.45000000019,"y":2559510}},{"attributes":{"ID":409881,"DIS_CODE":0,"TOWNNAME":"善化區","LI":"光文里","LIN":"22鄰","STREET":"光華路","SECT":" ","MAREA":" ","LANE":"１２８巷","ALLEY":" ","HOUSE_NO":"１０號五樓之１","E_COORD97":178668.31,"N_COORD97":2559510.02,"ADDRESS":"光華路１２８巷１０號五樓之１","OBJECTID":409857},"geometry":{"x":178668.30999999866,"y":2559510.0199999996}},{"attributes":{"ID":409882,"DIS_CODE":0,"TOWNNAME":"善化區","LI":"光文里","LIN":"22鄰","STREET":"光華路","SECT":" ","MAREA":" ","LANE":"１２８巷","ALLEY":" ","HOUSE_NO":"１９號五樓","E_COORD97":178681.67000000001,"N_COORD97":2559507.4900000002,"ADDRESS":"光華路１２８巷１９號五樓","OBJECTID":409858},"geometry":{"x":178681.67000000179,"y":2559507.4900000002}},{"attributes":{"ID":409883,"DIS_CODE":0,"TOWNNAME":"善化區","LI":"光文里","LIN":"22鄰","STREET":"光華路","SECT":" ","MAREA":" ","LANE":"１２８巷","ALLEY":" ","HOUSE_NO":"９號七樓","E_COORD97":178670.98000000001,"N_COORD97":2559486.75,"ADDRESS":"光華路１２８巷９號七樓","OBJECTID":409859},"geometry":{"x":178670.98000000045,"y":2559486.7500000019}},{"attributes":{"ID":409884,"DIS_CODE":0,"TOWNNAME":"善化區","LI":"光文里","LIN":"22鄰","STREET":"光華路","SECT":" ","MAREA":" ","LANE":"１２８巷","ALLEY":" ","HOUSE_NO":"１０號三樓之１","E_COORD97":178668.31,"N_COORD97":2559510.02,"ADDRESS":"光華路１２８巷１０號三樓之１","OBJECTID":409860},"geometry":{"x":178668.30999999866,"y":2559510.0199999996}},{"attributes":{"ID":409885,"DIS_CODE":0,"TOWNNAME":"善化區","LI":"光文里","LIN":"22鄰","STREET":"光華路","SECT":" ","MAREA":" ","LANE":"１２８巷","ALLEY":" ","HOUSE_NO":"９號五樓","E_COORD97":178670.98000000001,"N_COORD97":2559486.75,"ADDRESS":"光華路１２８巷９號五樓","OBJECTID":409861},"geometry":{"x":178670.98000000045,"y":2559486.7500000019}},{"attributes":{"ID":409886,"DIS_CODE":0,"TOWNNAME":"善化區","LI":"光文里","LIN":"22鄰","STREET":"光華路","SECT":" ","MAREA":" ","LANE":"１２８巷","ALLEY":" ","HOUSE_NO":"１５號四樓","E_COORD97":178680.39999999999,"N_COORD97":2559500.5,"ADDRESS":"光華路１２８巷１５號四樓","OBJECTID":409862},"geometry":{"x":178680.39999999944,"y":2559500.5}},{"attributes":{"ID":409887,"DIS_CODE":0,"TOWNNAME":"善化區","LI":"光文里","LIN":"22鄰","STREET":"光華路","SECT":" ","MAREA":" ","LANE":"１２８巷","ALLEY":" ","HOUSE_NO":"１０號二樓之１","E_COORD97":178668.31,"N_COORD97":2559510.02,"ADDRESS":"光華路１２８巷１０號二樓之１","OBJECTID":409863},"geometry":{"x":178668.30999999866,"y":2559510.0199999996}},{"attributes":{"ID":409888,"DIS_CODE":0,"TOWNNAME":"善化區","LI":"光文里","LIN":"22鄰","STREET":"光華路","SECT":" ","MAREA":" ","LANE":"１２８巷","ALLEY":" ","HOUSE_NO":"１７號五樓","E_COORD97":178683.04000000001,"N_COORD97":2559513.25,"ADDRESS":"光華路１２８巷１７號五樓","OBJECTID":409864},"geometry":{"x":178683.04000000097,"y":2559513.2500000037}},{"attributes":{"ID":409889,"DIS_CODE":0,"TOWNNAME":"善化區","LI":"光文里","LIN":"22鄰","STREET":"光華路","SECT":" ","MAREA":" ","LANE":"１２８巷","ALLEY":" ","HOUSE_NO":"９號六樓","E_COORD97":178670.98000000001,"N_COORD97":2559486.75,"ADDRESS":"光華路１２８巷９號六樓","OBJECTID":409865},"geometry":{"x":178670.98000000045,"y":2559486.7500000019}},{"attributes":{"ID":409890,"DIS_CODE":0,"TOWNNAME":"善化區","LI":"光文里","LIN":"22鄰","STREET":"光華路","SECT":" ","MAREA":" ","LANE":"１２８巷","ALLEY":" ","HOUSE_NO":"１５號三樓之１","E_COORD97":178681.26000000001,"N_COORD97":2559500.52,"ADDRESS":"光華路１２８巷１５號三樓之１","OBJECTID":409866},"geometry":{"x":178681.26000000071,"y":2559500.5199999977}},{"attributes":{"ID":409891,"DIS_CODE":0,"TOWNNAME":"善化區","LI":"光文里","LIN":"22鄰","STREET":"光華路","SECT":" ","MAREA":" ","LANE":"１２８巷","ALLEY":" ","HOUSE_NO":"１３號四樓","E_COORD97":178683.76000000001,"N_COORD97":2559488.25,"ADDRESS":"光華路１２８巷１３號四樓","OBJECTID":409867},"geometry":{"x":178683.75999999978,"y":2559488.25}},{"attributes":{"ID":409892,"DIS_CODE":0,"TOWNNAME":"善化區","LI":"光文里","LIN":"22鄰","STREET":"光華路","SECT":" ","MAREA":" ","LANE":"１２８巷","ALLEY":" ","HOUSE_NO":"１３號六樓","E_COORD97":178683.76000000001,"N_COORD97":2559488.25,"ADDRESS":"光華路１２８巷１３號六樓","OBJECTID":409868},"geometry":{"x":178683.75999999978,"y":2559488.25}},{"attributes":{"ID":409893,"DIS_CODE":0,"TOWNNAME":"善化區","LI":"光文里","LIN":"22鄰","STREET":"光華路","SECT":" ","MAREA":" ","LANE":"１２８巷","ALLEY":" ","HOUSE_NO":"１０號四樓之１","E_COORD97":178668.31,"N_COORD97":2559510.02,"ADDRESS":"光華路１２８巷１０號四樓之１","OBJECTID":409869},"geometry":{"x":178668.30999999866,"y":2559510.0199999996}},{"attributes":{"ID":409894,"DIS_CODE":0,"TOWNNAME":"善化區","LI":"光文里","LIN":"22鄰","STREET":"光華路","SECT":" ","MAREA":" ","LANE":"１２８巷","ALLEY":" ","HOUSE_NO":"１５號五樓","E_COORD97":178680.39999999999,"N_COORD97":2559500.5,"ADDRESS":"光華路１２８巷１５號五樓","OBJECTID":409870},"geometry":{"x":178680.39999999944,"y":2559500.5}},{"attributes":{"ID":409895,"DIS_CODE":0,"TOWNNAME":"善化區","LI":"光文里","LIN":"22鄰","STREET":"光華路","SECT":" ","MAREA":" ","LANE":"１２８巷","ALLEY":" ","HOUSE_NO":"１５號四樓之１","E_COORD97":178681.26000000001,"N_COORD97":2559500.52,"ADDRESS":"光華路１２８巷１５號四樓之１","OBJECTID":409871},"geometry":{"x":178681.26000000071,"y":2559500.5199999977}},{"attributes":{"ID":409896,"DIS_CODE":0,"TOWNNAME":"善化區","LI":"光文里","LIN":"22鄰","STREET":"光華路","SECT":" ","MAREA":" ","LANE":"１２８巷","ALLEY":" ","HOUSE_NO":"１５號六樓","E_COORD97":178680.39999999999,"N_COORD97":2559500.5,"ADDRESS":"光華路１２８巷１５號六樓","OBJECTID":409872},"geometry":{"x":178680.39999999944,"y":2559500.5}},{"attributes":{"ID":409897,"DIS_CODE":0,"TOWNNAME":"善化區","LI":"光文里","LIN":"22鄰","STREET":"光華路","SECT":" ","MAREA":" ","LANE":"３５巷","ALLEY":" ","HOUSE_NO":"１９號三樓之６","E_COORD97":178564.57999999999,"N_COORD97":2559258.27,"ADDRESS":"光華路３５巷１９號三樓之６","OBJECTID":409873},"geometry":{"x":178564.58000000007,"y":2559258.2700000033}},{"attributes":{"ID":409898,"DIS_CODE":0,"TOWNNAME":"善化區","LI":"光文里","LIN":"22鄰","STREET":"光華路","SECT":" ","MAREA":" ","LANE":"１２８巷","ALLEY":" ","HOUSE_NO":"１０號六樓之１","E_COORD97":178668.31,"N_COORD97":2559510.02,"ADDRESS":"光華路１２８巷１０號六樓之１","OBJECTID":409874},"geometry":{"x":178668.30999999866,"y":2559510.0199999996}},{"attributes":{"ID":409899,"DIS_CODE":0,"TOWNNAME":"善化區","LI":"光文里","LIN":"22鄰","STREET":"光華路","SECT":" ","MAREA":" ","LANE":"１２８巷","ALLEY":" ","HOUSE_NO":"１５號七樓","E_COORD97":178680.39999999999,"N_COORD97":2559500.5,"ADDRESS":"光華路１２８巷１５號七樓","OBJECTID":409875},"geometry":{"x":178680.39999999944,"y":2559500.5}},{"attributes":{"ID":409900,"DIS_CODE":0,"TOWNNAME":"善化區","LI":"光文里","LIN":"22鄰","STREET":"光華路","SECT":" ","MAREA":" ","LANE":"１２８巷","ALLEY":" ","HOUSE_NO":"９號三樓","E_COORD97":178670.98000000001,"N_COORD97":2559486.75,"ADDRESS":"光華路１２８巷９號三樓","OBJECTID":409876},"geometry":{"x":178670.98000000045,"y":2559486.7500000019}},{"attributes":{"ID":409901,"DIS_CODE":0,"TOWNNAME":"善化區","LI":"光文里","LIN":"22鄰","STREET":"光華路","SECT":" ","MAREA":" ","LANE":"１２８巷","ALLEY":" ","HOUSE_NO":"１９號三樓","E_COORD97":178681.67000000001,"N_COORD97":2559507.4900000002,"ADDRESS":"光華路１２８巷１９號三樓","OBJECTID":409877},"geometry":{"x":178681.67000000179,"y":2559507.4900000002}},{"attributes":{"ID":409902,"DIS_CODE":0,"TOWNNAME":"善化區","LI":"光文里","LIN":"22鄰","STREET":"光華路","SECT":" ","MAREA":" ","LANE":"１２８巷","ALLEY":" ","HOUSE_NO":"１１號二樓","E_COORD97":178679.44,"N_COORD97":2559485,"ADDRESS":"光華路１２８巷１１號二樓","OBJECTID":409878},"geometry":{"x":178679.44000000041,"y":2559485.0000000019}},{"attributes":{"ID":409903,"DIS_CODE":0,"TOWNNAME":"善化區","LI":"光文里","LIN":"22鄰","STREET":"光華路","SECT":" ","MAREA":" ","LANE":"１２８巷","ALLEY":" ","HOUSE_NO":"１５號二樓之１","E_COORD97":178681.26000000001,"N_COORD97":2559500.52,"ADDRESS":"光華路１２８巷１５號二樓之１","OBJECTID":409879},"geometry":{"x":178681.26000000071,"y":2559500.5199999977}},{"attributes":{"ID":409904,"DIS_CODE":0,"TOWNNAME":"善化區","LI":"光文里","LIN":"22鄰","STREET":"光華路","SECT":" ","MAREA":" ","LANE":"１２８巷","ALLEY":" ","HOUSE_NO":"１７號六樓","E_COORD97":178683.04000000001,"N_COORD97":2559513.25,"ADDRESS":"光華路１２８巷１７號六樓","OBJECTID":409880},"geometry":{"x":178683.04000000097,"y":2559513.2500000037}},{"attributes":{"ID":409905,"DIS_CODE":0,"TOWNNAME":"善化區","LI":"光文里","LIN":"22鄰","STREET":"光華路","SECT":" ","MAREA":" ","LANE":"１２８巷","ALLEY":" ","HOUSE_NO":"１０號五樓","E_COORD97":178667.45000000001,"N_COORD97":2559510,"ADDRESS":"光華路１２８巷１０號五樓","OBJECTID":409881},"geometry":{"x":178667.45000000019,"y":2559510}},{"attributes":{"ID":409906,"DIS_CODE":0,"TOWNNAME":"善化區","LI":"光文里","LIN":"22鄰","STREET":"光華路","SECT":" ","MAREA":" ","LANE":"３５巷","ALLEY":" ","HOUSE_NO":"１９號二樓之３","E_COORD97":178564.57999999999,"N_COORD97":2559258.27,"ADDRESS":"光華路３５巷１９號二樓之３","OBJECTID":409882},"geometry":{"x":178564.58000000007,"y":2559258.2700000033}},{"attributes":{"ID":409907,"DIS_CODE":0,"TOWNNAME":"安南區","LI":"新順里","LIN":"20鄰","STREET":"興安路","SECT":" ","MAREA":" ","LANE":"１５２巷","ALLEY":" ","HOUSE_NO":"１５號","E_COORD97":169304.26999999999,"N_COORD97":2549276.0099999998,"ADDRESS":"興安路１５２巷１５號","OBJECTID":409883},"geometry":{"x":169304.26999999862,"y":2549276.0100000016}},{"attributes":{"ID":409908,"DIS_CODE":0,"TOWNNAME":"永康區","LI":"勝利里","LIN":"22鄰","STREET":"勝華街","SECT":" ","MAREA":" ","LANE":"３７巷","ALLEY":" ","HOUSE_NO":"１７號","E_COORD97":171460.51000000001,"N_COORD97":2545165.7599999998,"ADDRESS":"勝華街３７巷１７號","OBJECTID":409884},"geometry":{"x":171460.50999999978,"y":2545165.7600000016}},{"attributes":{"ID":409909,"DIS_CODE":0,"TOWNNAME":"永康區","LI":"復華里","LIN":"22鄰","STREET":"復華七街","SECT":" ","MAREA":" ","LANE":"１１７巷","ALLEY":" ","HOUSE_NO":"９號","E_COORD97":172796.89000000001,"N_COORD97":2546160.27,"ADDRESS":"復華七街１１７巷９號","OBJECTID":409885},"geometry":{"x":172796.88999999966,"y":2546160.2699999996}},{"attributes":{"ID":409910,"DIS_CODE":0,"TOWNNAME":"永康區","LI":"復華里","LIN":"22鄰","STREET":"復華七街","SECT":" ","MAREA":" ","LANE":"１１７巷","ALLEY":" ","HOUSE_NO":"１５號","E_COORD97":172787.41,"N_COORD97":2546147.52,"ADDRESS":"復華七街１１７巷１５號","OBJECTID":409886},"geometry":{"x":172787.41000000015,"y":2546147.5200000014}},{"attributes":{"ID":409911,"DIS_CODE":0,"TOWNNAME":"永康區","LI":"復華里","LIN":"22鄰","STREET":"復華七街","SECT":" ","MAREA":" ","LANE":"１１７巷","ALLEY":" ","HOUSE_NO":"１７號","E_COORD97":172783.62,"N_COORD97":2546143.5299999998,"ADDRESS":"復華七街１１７巷１７號","OBJECTID":409887},"geometry":{"x":172783.62000000104,"y":2546143.5300000012}},{"attributes":{"ID":409912,"DIS_CODE":0,"TOWNNAME":"永康區","LI":"復華里","LIN":"22鄰","STREET":"復華七街","SECT":" ","MAREA":" ","LANE":"１１７巷","ALLEY":" ","HOUSE_NO":"２８號","E_COORD97":172804.48999999999,"N_COORD97":2546215.2599999998,"ADDRESS":"復華七街１１７巷２８號","OBJECTID":409888},"geometry":{"x":172804.49000000115,"y":2546215.2599999998}},{"attributes":{"ID":409913,"DIS_CODE":0,"TOWNNAME":"永康區","LI":"復華里","LIN":"22鄰","STREET":"復華七街","SECT":" ","MAREA":" ","LANE":"１１７巷","ALLEY":" ","HOUSE_NO":"２９號","E_COORD97":172789.10000000001,"N_COORD97":2546174.7200000002,"ADDRESS":"復華七街１１７巷２９號","OBJECTID":409889},"geometry":{"x":172789.09999999963,"y":2546174.7200000007}},{"attributes":{"ID":409914,"DIS_CODE":0,"TOWNNAME":"永康區","LI":"勝利里","LIN":"22鄰","STREET":"中華一路","SECT":" ","MAREA":" ","LANE":"１８２巷","ALLEY":" ","HOUSE_NO":"２０號","E_COORD97":171522.41,"N_COORD97":2545094.5,"ADDRESS":"中華一路１８２巷２０號","OBJECTID":409890},"geometry":{"x":171522.41000000015,"y":2545094.5}},{"attributes":{"ID":409915,"DIS_CODE":0,"TOWNNAME":"永康區","LI":"崑山里","LIN":"22鄰","STREET":"大灣路","SECT":" ","MAREA":" ","LANE":"７９８巷","ALLEY":" ","HOUSE_NO":"４２號之１","E_COORD97":174046.72,"N_COORD97":2544630.8100000001,"ADDRESS":"大灣路７９８巷４２號之１","OBJECTID":409891},"geometry":{"x":174046.72000000067,"y":2544630.8100000024}},{"attributes":{"ID":409916,"DIS_CODE":0,"TOWNNAME":"永康區","LI":"勝利里","LIN":"22鄰","STREET":"中華一路","SECT":" ","MAREA":" ","LANE":"１８２巷","ALLEY":" ","HOUSE_NO":"２５號","E_COORD97":171503.85000000001,"N_COORD97":2545116.7400000002,"ADDRESS":"中華一路１８２巷２５號","OBJECTID":409892},"geometry":{"x":171503.84999999963,"y":2545116.7400000002}},{"attributes":{"ID":409917,"DIS_CODE":0,"TOWNNAME":"永康區","LI":"崑山里","LIN":"22鄰","STREET":"大灣路","SECT":" ","MAREA":" ","LANE":"７９８巷","ALLEY":" ","HOUSE_NO":"４３號","E_COORD97":174041.95999999999,"N_COORD97":2544657.8999999999,"ADDRESS":"大灣路７９８巷４３號","OBJECTID":409893},"geometry":{"x":174041.96000000089,"y":2544657.9000000004}},{"attributes":{"ID":409918,"DIS_CODE":0,"TOWNNAME":"永康區","LI":"崑山里","LIN":"22鄰","STREET":"大灣路","SECT":" ","MAREA":" ","LANE":"７９８巷","ALLEY":" ","HOUSE_NO":"３６號","E_COORD97":174037.88,"N_COORD97":2544615.2599999998,"ADDRESS":"大灣路７９８巷３６號","OBJECTID":409894},"geometry":{"x":174037.87999999989,"y":2544615.2599999998}},{"attributes":{"ID":409919,"DIS_CODE":0,"TOWNNAME":"永康區","LI":"勝利里","LIN":"22鄰","STREET":"中華一路","SECT":" ","MAREA":" ","LANE":"１８２巷","ALLEY":" ","HOUSE_NO":"２２號","E_COORD97":171522.54000000001,"N_COORD97":2545098.75,"ADDRESS":"中華一路１８２巷２２號","OBJECTID":409895},"geometry":{"x":171522.54000000097,"y":2545098.7500000019}},{"attributes":{"ID":409920,"DIS_CODE":0,"TOWNNAME":"東區","LI":"莊敬里","LIN":"22鄰","STREET":"莊敬路","SECT":" ","MAREA":" ","LANE":"１１６巷","ALLEY":" ","HOUSE_NO":"１１號","E_COORD97":171427.38,"N_COORD97":2543978.6000000001,"ADDRESS":"莊敬路１１６巷１１號","OBJECTID":409896},"geometry":{"x":171427.37999999989,"y":2543978.5999999996}},{"attributes":{"ID":409921,"DIS_CODE":0,"TOWNNAME":"東區","LI":"莊敬里","LIN":"22鄰","STREET":"莊敬路","SECT":" ","MAREA":" ","LANE":"１１６巷","ALLEY":" ","HOUSE_NO":"１３號","E_COORD97":171431.73000000001,"N_COORD97":2543979.8700000001,"ADDRESS":"莊敬路１１６巷１３號","OBJECTID":409897},"geometry":{"x":171431.73000000138,"y":2543979.8700000029}},{"attributes":{"ID":409922,"DIS_CODE":0,"TOWNNAME":"東區","LI":"莊敬里","LIN":"22鄰","STREET":"莊敬路","SECT":" ","MAREA":" ","LANE":"１１６巷","ALLEY":" ","HOUSE_NO":"３號","E_COORD97":171411.45000000001,"N_COORD97":2543980.9300000002,"ADDRESS":"莊敬路１１６巷３號","OBJECTID":409898},"geometry":{"x":171411.45000000112,"y":2543980.9300000016}},{"attributes":{"ID":409923,"DIS_CODE":0,"TOWNNAME":"東區","LI":"莊敬里","LIN":"22鄰","STREET":"莊敬路","SECT":" ","MAREA":" ","LANE":"１１６巷","ALLEY":" ","HOUSE_NO":"５號","E_COORD97":171415.70000000001,"N_COORD97":2543982.2000000002,"ADDRESS":"莊敬路１１６巷５號","OBJECTID":409899},"geometry":{"x":171415.70000000019,"y":2543982.2000000011}},{"attributes":{"ID":409924,"DIS_CODE":0,"TOWNNAME":"東區","LI":"莊敬里","LIN":"22鄰","STREET":"莊敬路","SECT":" ","MAREA":" ","LANE":"１１６巷","ALLEY":" ","HOUSE_NO":"７號","E_COORD97":171419.31,"N_COORD97":2543979.6600000001,"ADDRESS":"莊敬路１１６巷７號","OBJECTID":409900},"geometry":{"x":171419.30999999959,"y":2543979.660000002}},{"attributes":{"ID":409925,"DIS_CODE":0,"TOWNNAME":"東區","LI":"莊敬里","LIN":"22鄰","STREET":"莊敬路","SECT":" ","MAREA":" ","LANE":"１１６巷","ALLEY":" ","HOUSE_NO":"９號","E_COORD97":171423.88,"N_COORD97":2543981.04,"ADDRESS":"莊敬路１１６巷９號","OBJECTID":409901},"geometry":{"x":171423.87999999989,"y":2543981.0399999991}},{"attributes":{"ID":409926,"DIS_CODE":0,"TOWNNAME":"永康區","LI":"崑山里","LIN":"22鄰","STREET":"大灣路","SECT":" ","MAREA":" ","LANE":"７９８巷","ALLEY":" ","HOUSE_NO":"２９號","E_COORD97":174022.06,"N_COORD97":2544614.4199999999,"ADDRESS":"大灣路７９８巷２９號","OBJECTID":409902},"geometry":{"x":174022.06000000052,"y":2544614.4199999981}},{"attributes":{"ID":409927,"DIS_CODE":0,"TOWNNAME":"永康區","LI":"崑山里","LIN":"22鄰","STREET":"大灣路","SECT":" ","MAREA":" ","LANE":"７９８巷","ALLEY":" ","HOUSE_NO":"３３號","E_COORD97":174029.73999999999,"N_COORD97":2544633.9399999999,"ADDRESS":"大灣路７９８巷３３號","OBJECTID":409903},"geometry":{"x":174029.74000000209,"y":2544633.9399999995}},{"attributes":{"ID":409928,"DIS_CODE":0,"TOWNNAME":"仁德區","LI":"仁義里","LIN":"22鄰","STREET":"正義路","SECT":" ","MAREA":" ","LANE":"１１４巷","ALLEY":" ","HOUSE_NO":"８號","E_COORD97":173673.10999999999,"N_COORD97":2541377.52,"ADDRESS":"正義路１１４巷８號","OBJECTID":409904},"geometry":{"x":173673.1100000022,"y":2541377.5199999996}},{"attributes":{"ID":409929,"DIS_CODE":0,"TOWNNAME":"中西區","LI":"西湖里","LIN":"22鄰","STREET":"湖美街","SECT":" ","MAREA":" ","LANE":"３２巷","ALLEY":" ","HOUSE_NO":"２２號","E_COORD97":166009.98999999999,"N_COORD97":2544554.3999999999,"ADDRESS":"湖美街３２巷２２號","OBJECTID":409905},"geometry":{"x":166009.99000000209,"y":2544554.4000000041}},{"attributes":{"ID":409930,"DIS_CODE":0,"TOWNNAME":"中西區","LI":"西湖里","LIN":"22鄰","STREET":"湖美街","SECT":" ","MAREA":" ","LANE":"３２巷","ALLEY":" ","HOUSE_NO":"１０號","E_COORD97":165984.31,"N_COORD97":2544552.54,"ADDRESS":"湖美街３２巷１０號","OBJECTID":409906},"geometry":{"x":165984.30999999959,"y":2544552.540000001}},{"attributes":{"ID":409931,"DIS_CODE":0,"TOWNNAME":"中西區","LI":"西湖里","LIN":"22鄰","STREET":"湖美街","SECT":" ","MAREA":" ","LANE":"３２巷","ALLEY":" ","HOUSE_NO":"１１號","E_COORD97":165987.51999999999,"N_COORD97":2544582.1800000002,"ADDRESS":"湖美街３２巷１１號","OBJECTID":409907},"geometry":{"x":165987.52000000048,"y":2544582.1800000034}},{"attributes":{"ID":409932,"DIS_CODE":0,"TOWNNAME":"中西區","LI":"西湖里","LIN":"22鄰","STREET":"湖美街","SECT":" ","MAREA":" ","LANE":"３２巷","ALLEY":" ","HOUSE_NO":"１２號","E_COORD97":165988.59,"N_COORD97":2544552.7999999998,"ADDRESS":"湖美街３２巷１２號","OBJECTID":409908},"geometry":{"x":165988.59000000078,"y":2544552.8000000026}},{"attributes":{"ID":409933,"DIS_CODE":0,"TOWNNAME":"中西區","LI":"西湖里","LIN":"22鄰","STREET":"湖美街","SECT":" ","MAREA":" ","LANE":"３２巷","ALLEY":" ","HOUSE_NO":"１３號","E_COORD97":165992.34,"N_COORD97":2544582.1800000002,"ADDRESS":"湖美街３２巷１３號","OBJECTID":409909},"geometry":{"x":165992.34000000078,"y":2544582.1800000034}},{"attributes":{"ID":409934,"DIS_CODE":0,"TOWNNAME":"中西區","LI":"西湖里","LIN":"22鄰","STREET":"湖美街","SECT":" ","MAREA":" ","LANE":"３２巷","ALLEY":" ","HOUSE_NO":"１４號","E_COORD97":165993.41,"N_COORD97":2544553.3399999999,"ADDRESS":"湖美街３２巷１４號","OBJECTID":409910},"geometry":{"x":165993.41000000201,"y":2544553.3399999999}},{"attributes":{"ID":409935,"DIS_CODE":0,"TOWNNAME":"中西區","LI":"西湖里","LIN":"22鄰","STREET":"湖美街","SECT":" ","MAREA":" ","LANE":"３２巷","ALLEY":" ","HOUSE_NO":"２０號","E_COORD97":166005.70999999999,"N_COORD97":2544553.3399999999,"ADDRESS":"湖美街３２巷２０號","OBJECTID":409911},"geometry":{"x":166005.70999999996,"y":2544553.3399999999}},{"attributes":{"ID":409936,"DIS_CODE":0,"TOWNNAME":"中西區","LI":"西湖里","LIN":"22鄰","STREET":"湖美街","SECT":" ","MAREA":" ","LANE":"３２巷","ALLEY":" ","HOUSE_NO":"２１號","E_COORD97":166009.17999999999,"N_COORD97":2544583.25,"ADDRESS":"湖美街３２巷２１號","OBJECTID":409912},"geometry":{"x":166009.1799999997,"y":2544583.2500000019}},{"attributes":{"ID":409937,"DIS_CODE":0,"TOWNNAME":"中西區","LI":"西湖里","LIN":"22鄰","STREET":"湖美街","SECT":" ","MAREA":" ","LANE":"３２巷","ALLEY":" ","HOUSE_NO":"２３號","E_COORD97":166012.66,"N_COORD97":2544582.98,"ADDRESS":"湖美街３２巷２３號","OBJECTID":409913},"geometry":{"x":166012.66000000108,"y":2544582.9800000004}},{"attributes":{"ID":409938,"DIS_CODE":0,"TOWNNAME":"中西區","LI":"西湖里","LIN":"22鄰","STREET":"湖美街","SECT":" ","MAREA":" ","LANE":"３２巷","ALLEY":" ","HOUSE_NO":"２４號","E_COORD97":166013.73000000001,"N_COORD97":2544554.9399999999,"ADDRESS":"湖美街３２巷２４號","OBJECTID":409914},"geometry":{"x":166013.73000000138,"y":2544554.9399999995}},{"attributes":{"ID":409939,"DIS_CODE":0,"TOWNNAME":"中西區","LI":"西湖里","LIN":"22鄰","STREET":"湖美街","SECT":" ","MAREA":" ","LANE":"３２巷","ALLEY":" ","HOUSE_NO":"２５號","E_COORD97":166017.47,"N_COORD97":2544582.4500000002,"ADDRESS":"湖美街３２巷２５號","OBJECTID":409915},"geometry":{"x":166017.46999999974,"y":2544582.4499999993}},{"attributes":{"ID":409940,"DIS_CODE":0,"TOWNNAME":"中西區","LI":"西湖里","LIN":"22鄰","STREET":"湖美街","SECT":" ","MAREA":" ","LANE":"３２巷","ALLEY":" ","HOUSE_NO":"２６號","E_COORD97":166018.54000000001,"N_COORD97":2544554.6699999999,"ADDRESS":"湖美街３２巷２６號","OBJECTID":409916},"geometry":{"x":166018.54000000097,"y":2544554.6699999999}},{"attributes":{"ID":409941,"DIS_CODE":0,"TOWNNAME":"中西區","LI":"西湖里","LIN":"22鄰","STREET":"湖美街","SECT":" ","MAREA":" ","LANE":"３２巷","ALLEY":" ","HOUSE_NO":"２７號","E_COORD97":166021.22,"N_COORD97":2544583.7799999998,"ADDRESS":"湖美街３２巷２７號","OBJECTID":409917},"geometry":{"x":166021.21999999881,"y":2544583.7799999993}},{"attributes":{"ID":409942,"DIS_CODE":0,"TOWNNAME":"中西區","LI":"西湖里","LIN":"22鄰","STREET":"湖美街","SECT":" ","MAREA":" ","LANE":"３２巷","ALLEY":" ","HOUSE_NO":"２８號","E_COORD97":166022.82000000001,"N_COORD97":2544555.21,"ADDRESS":"湖美街３２巷２８號","OBJECTID":409918},"geometry":{"x":166022.8200000003,"y":2544555.2100000009}},{"attributes":{"ID":409943,"DIS_CODE":0,"TOWNNAME":"中西區","LI":"西湖里","LIN":"22鄰","STREET":"湖美街","SECT":" ","MAREA":" ","LANE":"３２巷","ALLEY":" ","HOUSE_NO":"２號","E_COORD97":165966.66,"N_COORD97":2544551.73,"ADDRESS":"湖美街３２巷２號","OBJECTID":409919},"geometry":{"x":165966.66000000108,"y":2544551.7300000004}},{"attributes":{"ID":409944,"DIS_CODE":0,"TOWNNAME":"中西區","LI":"西湖里","LIN":"22鄰","STREET":"湖美街","SECT":" ","MAREA":" ","LANE":"３２巷","ALLEY":" ","HOUSE_NO":"３０號","E_COORD97":166026.57000000001,"N_COORD97":2544554.3999999999,"ADDRESS":"湖美街３２巷３０號","OBJECTID":409920},"geometry":{"x":166026.57000000123,"y":2544554.4000000041}},{"attributes":{"ID":409945,"DIS_CODE":0,"TOWNNAME":"中西區","LI":"西湖里","LIN":"22鄰","STREET":"湖美街","SECT":" ","MAREA":" ","LANE":"３２巷","ALLEY":" ","HOUSE_NO":"３號","E_COORD97":165969.87,"N_COORD97":2544581.6499999999,"ADDRESS":"湖美街３２巷３號","OBJECTID":409921},"geometry":{"x":165969.87000000197,"y":2544581.6500000004}},{"attributes":{"ID":409946,"DIS_CODE":0,"TOWNNAME":"中西區","LI":"西湖里","LIN":"22鄰","STREET":"湖美街","SECT":" ","MAREA":" ","LANE":"３２巷","ALLEY":" ","HOUSE_NO":"４號","E_COORD97":165971.48000000001,"N_COORD97":2544551.73,"ADDRESS":"湖美街３２巷４號","OBJECTID":409922},"geometry":{"x":165971.48000000138,"y":2544551.7300000004}},{"attributes":{"ID":409947,"DIS_CODE":0,"TOWNNAME":"中西區","LI":"西湖里","LIN":"22鄰","STREET":"湖美街","SECT":" ","MAREA":" ","LANE":"３２巷","ALLEY":" ","HOUSE_NO":"５號","E_COORD97":165974.69,"N_COORD97":2544582.1800000002,"ADDRESS":"湖美街３２巷５號","OBJECTID":409923},"geometry":{"x":165974.68999999948,"y":2544582.1800000034}},{"attributes":{"ID":409948,"DIS_CODE":0,"TOWNNAME":"中西區","LI":"西湖里","LIN":"22鄰","STREET":"湖美街","SECT":" ","MAREA":" ","LANE":"３２巷","ALLEY":" ","HOUSE_NO":"６號","E_COORD97":165975.48999999999,"N_COORD97":2544551.73,"ADDRESS":"湖美街３２巷６號","OBJECTID":409924},"geometry":{"x":165975.49000000022,"y":2544551.7300000004}},{"attributes":{"ID":409949,"DIS_CODE":0,"TOWNNAME":"中西區","LI":"西湖里","LIN":"22鄰","STREET":"湖美街","SECT":" ","MAREA":" ","LANE":"３２巷","ALLEY":" ","HOUSE_NO":"７號","E_COORD97":165978.70000000001,"N_COORD97":2544581.3799999999,"ADDRESS":"湖美街３２巷７號","OBJECTID":409925},"geometry":{"x":165978.70000000112,"y":2544581.3800000008}},{"attributes":{"ID":409950,"DIS_CODE":0,"TOWNNAME":"中西區","LI":"西湖里","LIN":"22鄰","STREET":"湖美街","SECT":" ","MAREA":" ","LANE":"３２巷","ALLEY":" ","HOUSE_NO":"８號","E_COORD97":165980.03,"N_COORD97":2544552,"ADDRESS":"湖美街３２巷８號","OBJECTID":409926},"geometry":{"x":165980.03000000026,"y":2544552}},{"attributes":{"ID":409951,"DIS_CODE":0,"TOWNNAME":"中西區","LI":"西湖里","LIN":"22鄰","STREET":"湖美街","SECT":" ","MAREA":" ","LANE":"３２巷","ALLEY":" ","HOUSE_NO":"９號","E_COORD97":165982.98000000001,"N_COORD97":2544582.1800000002,"ADDRESS":"湖美街３２巷９號","OBJECTID":409927},"geometry":{"x":165982.98000000231,"y":2544582.1800000034}},{"attributes":{"ID":409952,"DIS_CODE":0,"TOWNNAME":"善化區","LI":"光文里","LIN":"22鄰","STREET":"光華路","SECT":" ","MAREA":" ","LANE":"３５巷","ALLEY":" ","HOUSE_NO":"３２號","E_COORD97":178555.89000000001,"N_COORD97":2559274.6099999999,"ADDRESS":"光華路３５巷３２號","OBJECTID":409928},"geometry":{"x":178555.88999999966,"y":2559274.6099999994}},{"attributes":{"ID":409953,"DIS_CODE":0,"TOWNNAME":"善化區","LI":"光文里","LIN":"22鄰","STREET":"光華路","SECT":" ","MAREA":" ","LANE":"３５巷","ALLEY":" ","HOUSE_NO":"３２號之１","E_COORD97":178552.14999999999,"N_COORD97":2559274.0600000001,"ADDRESS":"光華路３５巷３２號之１","OBJECTID":409929},"geometry":{"x":178552.1500000013,"y":2559274.0599999987}},{"attributes":{"ID":409954,"DIS_CODE":0,"TOWNNAME":"善化區","LI":"光文里","LIN":"22鄰","STREET":"光華路","SECT":" ","MAREA":" ","LANE":"３５巷","ALLEY":" ","HOUSE_NO":"３６號","E_COORD97":178547.01999999999,"N_COORD97":2559273.4700000002,"ADDRESS":"光華路３５巷３６號","OBJECTID":409930},"geometry":{"x":178547.02000000048,"y":2559273.4700000007}},{"attributes":{"ID":409955,"DIS_CODE":0,"TOWNNAME":"善化區","LI":"光文里","LIN":"22鄰","STREET":"光華路","SECT":" ","MAREA":" ","LANE":"３５巷","ALLEY":" ","HOUSE_NO":"３６號之１","E_COORD97":178543.66,"N_COORD97":2559272.9900000002,"ADDRESS":"光華路３５巷３６號之１","OBJECTID":409931},"geometry":{"x":178543.66000000108,"y":2559272.9900000002}},{"attributes":{"ID":409956,"DIS_CODE":0,"TOWNNAME":"善化區","LI":"光文里","LIN":"22鄰","STREET":"光華路","SECT":" ","MAREA":" ","LANE":"３５巷","ALLEY":" ","HOUSE_NO":"３８號","E_COORD97":178538.45000000001,"N_COORD97":2559272.3300000001,"ADDRESS":"光華路３５巷３８號","OBJECTID":409932},"geometry":{"x":178538.45000000019,"y":2559272.3300000019}},{"attributes":{"ID":409957,"DIS_CODE":0,"TOWNNAME":"善化區","LI":"光文里","LIN":"22鄰","STREET":"光華路","SECT":" ","MAREA":" ","LANE":"３５巷","ALLEY":" ","HOUSE_NO":"３８號之１","E_COORD97":178535.23999999999,"N_COORD97":2559271.7999999998,"ADDRESS":"光華路３５巷３８號之１","OBJECTID":409933},"geometry":{"x":178535.24000000022,"y":2559271.8000000007}},{"attributes":{"ID":409958,"DIS_CODE":0,"TOWNNAME":"善化區","LI":"光文里","LIN":"22鄰","STREET":"光華路","SECT":" ","MAREA":" ","LANE":"５３巷","ALLEY":" ","HOUSE_NO":"２９號","E_COORD97":178549.88,"N_COORD97":2559312.1899999999,"ADDRESS":"光華路５３巷２９號","OBJECTID":409934},"geometry":{"x":178549.88000000082,"y":2559312.1899999995}},{"attributes":{"ID":409959,"DIS_CODE":0,"TOWNNAME":"善化區","LI":"光文里","LIN":"22鄰","STREET":"光華路","SECT":" ","MAREA":" ","LANE":"５３巷","ALLEY":" ","HOUSE_NO":"３１號","E_COORD97":178545.73000000001,"N_COORD97":2559311.3700000001,"ADDRESS":"光華路５３巷３１號","OBJECTID":409935},"geometry":{"x":178545.73000000045,"y":2559311.3700000029}},{"attributes":{"ID":409960,"DIS_CODE":0,"TOWNNAME":"善化區","LI":"光文里","LIN":"22鄰","STREET":"光華路","SECT":" ","MAREA":" ","LANE":"５３巷","ALLEY":" ","HOUSE_NO":"３３號","E_COORD97":178541.76999999999,"N_COORD97":2559310.7599999998,"ADDRESS":"光華路５３巷３３號","OBJECTID":409936},"geometry":{"x":178541.77000000048,"y":2559310.7600000016}},{"attributes":{"ID":409961,"DIS_CODE":0,"TOWNNAME":"善化區","LI":"光文里","LIN":"22鄰","STREET":"光華路","SECT":" ","MAREA":" ","LANE":"５３巷","ALLEY":" ","HOUSE_NO":"３５號","E_COORD97":178537.53,"N_COORD97":2559309.9399999999,"ADDRESS":"光華路５３巷３５號","OBJECTID":409937},"geometry":{"x":178537.53000000119,"y":2559309.9399999995}},{"attributes":{"ID":409962,"DIS_CODE":0,"TOWNNAME":"善化區","LI":"光文里","LIN":"22鄰","STREET":"光華路","SECT":" ","MAREA":" ","LANE":"５３巷","ALLEY":" ","HOUSE_NO":"３７號","E_COORD97":178533.47,"N_COORD97":2559309.3399999999,"ADDRESS":"光華路５３巷３７號","OBJECTID":409938},"geometry":{"x":178533.46999999881,"y":2559309.3400000017}},{"attributes":{"ID":409963,"DIS_CODE":0,"TOWNNAME":"善化區","LI":"光文里","LIN":"22鄰","STREET":"光華路","SECT":" ","MAREA":" ","LANE":"５３巷","ALLEY":" ","HOUSE_NO":"３７號之１","E_COORD97":178530.20999999999,"N_COORD97":2559308.5,"ADDRESS":"光華路５３巷３７號之１","OBJECTID":409939},"geometry":{"x":178530.20999999996,"y":2559308.5000000019}},{"attributes":{"ID":409964,"DIS_CODE":0,"TOWNNAME":"東區","LI":"崇善里","LIN":"22鄰","STREET":"崇善十一街","SECT":" ","MAREA":" ","LANE":"１２巷","ALLEY":" ","HOUSE_NO":"２５號之１","E_COORD97":171212.54000000001,"N_COORD97":2541111.6099999999,"ADDRESS":"崇善十一街１２巷２５號之１","OBJECTID":409940},"geometry":{"x":171212.54000000097,"y":2541111.6100000013}},{"attributes":{"ID":409965,"DIS_CODE":0,"TOWNNAME":"東區","LI":"崇善里","LIN":"22鄰","STREET":"崇善十一街","SECT":" ","MAREA":" ","LANE":"１２巷","ALLEY":" ","HOUSE_NO":"２７號之１","E_COORD97":171214.76999999999,"N_COORD97":2541102.73,"ADDRESS":"崇善十一街１２巷２７號之１","OBJECTID":409941},"geometry":{"x":171214.76999999862,"y":2541102.7300000004}},{"attributes":{"ID":409966,"DIS_CODE":0,"TOWNNAME":"永康區","LI":"大橋里","LIN":"22鄰","STREET":"大橋一街","SECT":" ","MAREA":" ","LANE":"１８１巷","ALLEY":" ","HOUSE_NO":"２９號","E_COORD97":171109.57000000001,"N_COORD97":2546608.4900000002,"ADDRESS":"大橋一街１８１巷２９號","OBJECTID":409942},"geometry":{"x":171109.5700000003,"y":2546608.4900000021}},{"attributes":{"ID":409967,"DIS_CODE":0,"TOWNNAME":"永康區","LI":"大橋里","LIN":"22鄰","STREET":"大橋一街","SECT":" ","MAREA":" ","LANE":"１８１巷","ALLEY":" ","HOUSE_NO":"１９號","E_COORD97":171120.28,"N_COORD97":2546591.9900000002,"ADDRESS":"大橋一街１８１巷１９號","OBJECTID":409943},"geometry":{"x":171120.28000000026,"y":2546591.9900000021}},{"attributes":{"ID":409968,"DIS_CODE":0,"TOWNNAME":"永康區","LI":"大橋里","LIN":"22鄰","STREET":"大橋一街","SECT":" ","MAREA":" ","LANE":"１８１巷","ALLEY":" ","HOUSE_NO":"３１號","E_COORD97":171105.78,"N_COORD97":2546610.7400000002,"ADDRESS":"大橋一街１８１巷３１號","OBJECTID":409944},"geometry":{"x":171105.78000000119,"y":2546610.7400000021}},{"attributes":{"ID":409969,"DIS_CODE":0,"TOWNNAME":"永康區","LI":"大橋里","LIN":"22鄰","STREET":"大橋一街","SECT":" ","MAREA":" ","LANE":"１８１巷","ALLEY":" ","HOUSE_NO":"２３號","E_COORD97":171115.92999999999,"N_COORD97":2546598.4900000002,"ADDRESS":"大橋一街１８１巷２３號","OBJECTID":409945},"geometry":{"x":171115.93000000063,"y":2546598.4900000021}},{"attributes":{"ID":409970,"DIS_CODE":0,"TOWNNAME":"永康區","LI":"三合里","LIN":"22鄰","STREET":"南工街","SECT":" ","MAREA":" ","LANE":"３１１巷","ALLEY":" ","HOUSE_NO":"１１號","E_COORD97":171834.22,"N_COORD97":2546017.5,"ADDRESS":"南工街３１１巷１１號","OBJECTID":409946},"geometry":{"x":171834.2200000016,"y":2546017.5}},{"attributes":{"ID":409971,"DIS_CODE":0,"TOWNNAME":"永康區","LI":"中興里","LIN":"22鄰","STREET":"中華路","SECT":" ","MAREA":" ","LANE":"２１２巷","ALLEY":" ","HOUSE_NO":"１５號","E_COORD97":171745.29000000001,"N_COORD97":2545019.4900000002,"ADDRESS":"中華路２１２巷１５號","OBJECTID":409947},"geometry":{"x":171745.29000000004,"y":2545019.4900000021}},{"attributes":{"ID":409972,"DIS_CODE":0,"TOWNNAME":"永康區","LI":"中興里","LIN":"22鄰","STREET":"中華路","SECT":" ","MAREA":" ","LANE":"２１２巷","ALLEY":" ","HOUSE_NO":"２１號","E_COORD97":171758.06,"N_COORD97":2545020.7999999998,"ADDRESS":"中華路２１２巷２１號","OBJECTID":409948},"geometry":{"x":171758.05999999959,"y":2545020.8000000026}},{"attributes":{"ID":409973,"DIS_CODE":0,"TOWNNAME":"永康區","LI":"五王里","LIN":"22鄰","STREET":"成功路","SECT":" ","MAREA":" ","LANE":"２２８巷","ALLEY":" ","HOUSE_NO":"２７號","E_COORD97":171415.26000000001,"N_COORD97":2545824.27,"ADDRESS":"成功路２２８巷２７號","OBJECTID":409949},"geometry":{"x":171415.26000000164,"y":2545824.2699999996}},{"attributes":{"ID":409974,"DIS_CODE":0,"TOWNNAME":"永康區","LI":"中興里","LIN":"22鄰","STREET":"中華路","SECT":" ","MAREA":" ","LANE":"２１２巷","ALLEY":" ","HOUSE_NO":"１４號","E_COORD97":171733.60999999999,"N_COORD97":2545005.5,"ADDRESS":"中華路２１２巷１４號","OBJECTID":409950},"geometry":{"x":171733.61000000034,"y":2545005.5000000019}},{"attributes":{"ID":409975,"DIS_CODE":0,"TOWNNAME":"永康區","LI":"中興里","LIN":"22鄰","STREET":"中華路","SECT":" ","MAREA":" ","LANE":"２１２巷","ALLEY":" ","HOUSE_NO":"７號","E_COORD97":171704.29999999999,"N_COORD97":2545015.4900000002,"ADDRESS":"中華路２１２巷７號","OBJECTID":409951},"geometry":{"x":171704.29999999981,"y":2545015.4900000021}},{"attributes":{"ID":409976,"DIS_CODE":0,"TOWNNAME":"永康區","LI":"中興里","LIN":"22鄰","STREET":"中華路","SECT":" ","MAREA":" ","LANE":"２１２巷","ALLEY":" ","HOUSE_NO":"４１號","E_COORD97":171806.10999999999,"N_COORD97":2545024.6400000001,"ADDRESS":"中華路２１２巷４１號","OBJECTID":409952},"geometry":{"x":171806.11000000034,"y":2545024.6400000025}},{"attributes":{"ID":409977,"DIS_CODE":0,"TOWNNAME":"永康區","LI":"中興里","LIN":"22鄰","STREET":"中華路","SECT":" ","MAREA":" ","LANE":"２１２巷","ALLEY":" ","HOUSE_NO":"８號","E_COORD97":171702.85000000001,"N_COORD97":2545004.75,"ADDRESS":"中華路２１２巷８號","OBJECTID":409953},"geometry":{"x":171702.85000000056,"y":2545004.75}},{"attributes":{"ID":409978,"DIS_CODE":0,"TOWNNAME":"永康區","LI":"中興里","LIN":"22鄰","STREET":"中華路","SECT":" ","MAREA":" ","LANE":"２１２巷","ALLEY":" ","HOUSE_NO":"４６號","E_COORD97":171807.63,"N_COORD97":2545012.0099999998,"ADDRESS":"中華路２１２巷４６號","OBJECTID":409954},"geometry":{"x":171807.62999999989,"y":2545012.0100000016}},{"attributes":{"ID":409979,"DIS_CODE":0,"TOWNNAME":"永康區","LI":"中興里","LIN":"22鄰","STREET":"中華路","SECT":" ","MAREA":" ","LANE":"２１２巷","ALLEY":" ","HOUSE_NO":"１２號","E_COORD97":171729.25,"N_COORD97":2545005.2599999998,"ADDRESS":"中華路２１２巷１２號","OBJECTID":409955},"geometry":{"x":171729.25000000186,"y":2545005.2599999979}},{"attributes":{"ID":409980,"DIS_CODE":0,"TOWNNAME":"永康區","LI":"五王里","LIN":"22鄰","STREET":"成功路","SECT":" ","MAREA":" ","LANE":"２２８巷","ALLEY":" ","HOUSE_NO":"１６號","E_COORD97":171399.54999999999,"N_COORD97":2545795.27,"ADDRESS":"成功路２２８巷１６號","OBJECTID":409956},"geometry":{"x":171399.54999999981,"y":2545795.2700000033}},{"attributes":{"ID":409981,"DIS_CODE":0,"TOWNNAME":"永康區","LI":"中興里","LIN":"22鄰","STREET":"中華路","SECT":" ","MAREA":" ","LANE":"２１２巷","ALLEY":" ","HOUSE_NO":"２４號","E_COORD97":171755.26999999999,"N_COORD97":2545007.5099999998,"ADDRESS":"中華路２１２巷２４號","OBJECTID":409957},"geometry":{"x":171755.26999999955,"y":2545007.5100000016}},{"attributes":{"ID":409982,"DIS_CODE":0,"TOWNNAME":"永康區","LI":"中興里","LIN":"22鄰","STREET":"中華路","SECT":" ","MAREA":" ","LANE":"２１２巷","ALLEY":" ","HOUSE_NO":"３８號","E_COORD97":171785.85999999999,"N_COORD97":2545010.0099999998,"ADDRESS":"中華路２１２巷３８號","OBJECTID":409958},"geometry":{"x":171785.86000000034,"y":2545010.0099999998}},{"attributes":{"ID":409983,"DIS_CODE":0,"TOWNNAME":"永康區","LI":"五王里","LIN":"22鄰","STREET":"成功路","SECT":" ","MAREA":" ","LANE":"２２８巷","ALLEY":" ","HOUSE_NO":"２２號","E_COORD97":171410.64000000001,"N_COORD97":2545806.02,"ADDRESS":"成功路２２８巷２２號","OBJECTID":409959},"geometry":{"x":171410.63999999966,"y":2545806.0199999996}},{"attributes":{"ID":409984,"DIS_CODE":0,"TOWNNAME":"永康區","LI":"五王里","LIN":"22鄰","STREET":"成功路","SECT":" ","MAREA":" ","LANE":"２２８巷","ALLEY":" ","HOUSE_NO":"１８號","E_COORD97":171402.51000000001,"N_COORD97":2545800.52,"ADDRESS":"成功路２２８巷１８號","OBJECTID":409960},"geometry":{"x":171402.50999999978,"y":2545800.5200000014}},{"attributes":{"ID":409985,"DIS_CODE":0,"TOWNNAME":"永康區","LI":"五王里","LIN":"22鄰","STREET":"成功路","SECT":" ","MAREA":" ","LANE":"２２８巷","ALLEY":" ","HOUSE_NO":"５號","E_COORD97":171373.51000000001,"N_COORD97":2545794.77,"ADDRESS":"成功路２２８巷５號","OBJECTID":409961},"geometry":{"x":171373.51000000071,"y":2545794.7699999996}},{"attributes":{"ID":409986,"DIS_CODE":0,"TOWNNAME":"永康區","LI":"中興里","LIN":"22鄰","STREET":"中華路","SECT":" ","MAREA":" ","LANE":"２１２巷","ALLEY":" ","HOUSE_NO":"１９號","E_COORD97":171753.70999999999,"N_COORD97":2545020.5499999998,"ADDRESS":"中華路２１２巷１９號","OBJECTID":409962},"geometry":{"x":171753.71000000089,"y":2545020.5500000007}},{"attributes":{"ID":409987,"DIS_CODE":0,"TOWNNAME":"永康區","LI":"五王里","LIN":"22鄰","STREET":"成功路","SECT":" ","MAREA":" ","LANE":"２２８巷","ALLEY":" ","HOUSE_NO":"２號","E_COORD97":171372.98000000001,"N_COORD97":2545779.25,"ADDRESS":"成功路２２８巷２號","OBJECTID":409963},"geometry":{"x":171372.98000000045,"y":2545779.2500000019}},{"attributes":{"ID":409988,"DIS_CODE":0,"TOWNNAME":"永康區","LI":"五王里","LIN":"22鄰","STREET":"成功路","SECT":" ","MAREA":" ","LANE":"２２８巷","ALLEY":" ","HOUSE_NO":"５５號","E_COORD97":171473.79999999999,"N_COORD97":2545867.0099999998,"ADDRESS":"成功路２２８巷５５號","OBJECTID":409964},"geometry":{"x":171473.79999999981,"y":2545867.0099999998}},{"attributes":{"ID":409989,"DIS_CODE":0,"TOWNNAME":"永康區","LI":"五王里","LIN":"22鄰","STREET":"成功路","SECT":" ","MAREA":" ","LANE":"２２８巷","ALLEY":" ","HOUSE_NO":"２４號","E_COORD97":171414.92000000001,"N_COORD97":2545808.77,"ADDRESS":"成功路２２８巷２４號","OBJECTID":409965},"geometry":{"x":171414.92000000086,"y":2545808.7700000033}},{"attributes":{"ID":409990,"DIS_CODE":0,"TOWNNAME":"永康區","LI":"中興里","LIN":"22鄰","STREET":"中華路","SECT":" ","MAREA":" ","LANE":"２１２巷","ALLEY":" ","HOUSE_NO":"３２號","E_COORD97":171772.39000000001,"N_COORD97":2545008.5099999998,"ADDRESS":"中華路２１２巷３２號","OBJECTID":409966},"geometry":{"x":171772.3900000006,"y":2545008.5100000016}},{"attributes":{"ID":409991,"DIS_CODE":0,"TOWNNAME":"永康區","LI":"中興里","LIN":"22鄰","STREET":"中華路","SECT":" ","MAREA":" ","LANE":"２１２巷","ALLEY":" ","HOUSE_NO":"４２號","E_COORD97":171797.69,"N_COORD97":2545011.0099999998,"ADDRESS":"中華路２１２巷４２號","OBJECTID":409967},"geometry":{"x":171797.68999999948,"y":2545011.0100000016}},{"attributes":{"ID":409992,"DIS_CODE":0,"TOWNNAME":"永康區","LI":"勝利里","LIN":"22鄰","STREET":"勝華街","SECT":" ","MAREA":" ","LANE":"３７巷","ALLEY":" ","HOUSE_NO":"２７號","E_COORD97":171459.95999999999,"N_COORD97":2545143,"ADDRESS":"勝華街３７巷２７號","OBJECTID":409968},"geometry":{"x":171459.96000000089,"y":2545143.0000000037}},{"attributes":{"ID":409993,"DIS_CODE":0,"TOWNNAME":"永康區","LI":"復國里","LIN":"22鄰","STREET":"復華六街","SECT":" ","MAREA":" ","LANE":"９３巷","ALLEY":" ","HOUSE_NO":"２６號","E_COORD97":172606.98000000001,"N_COORD97":2545766.5299999998,"ADDRESS":"復華六街９３巷２６號","OBJECTID":409969},"geometry":{"x":172606.98000000138,"y":2545766.5300000012}},{"attributes":{"ID":409994,"DIS_CODE":0,"TOWNNAME":"永康區","LI":"復華里","LIN":"22鄰","STREET":"復華七街","SECT":" ","MAREA":" ","LANE":"１１７巷","ALLEY":" ","HOUSE_NO":"３１號","E_COORD97":172792.67000000001,"N_COORD97":2546178.96,"ADDRESS":"復華七街１１７巷３１號","OBJECTID":409970},"geometry":{"x":172792.67000000086,"y":2546178.9600000028}},{"attributes":{"ID":409995,"DIS_CODE":0,"TOWNNAME":"永康區","LI":"復華里","LIN":"22鄰","STREET":"復華七街","SECT":" ","MAREA":" ","LANE":"１１７巷","ALLEY":" ","HOUSE_NO":"６號","E_COORD97":172823.45000000001,"N_COORD97":2546200.79,"ADDRESS":"復華七街１１７巷６號","OBJECTID":409971},"geometry":{"x":172823.45000000112,"y":2546200.7899999991}},{"attributes":{"ID":409996,"DIS_CODE":0,"TOWNNAME":"永康區","LI":"崑山里","LIN":"22鄰","STREET":"崑山街","SECT":" ","MAREA":" ","LANE":"５６巷","ALLEY":" ","HOUSE_NO":"２４號","E_COORD97":174004.14999999999,"N_COORD97":2544626.9399999999,"ADDRESS":"崑山街５６巷２４號","OBJECTID":409972},"geometry":{"x":174004.1500000013,"y":2544626.9399999995}},{"attributes":{"ID":409997,"DIS_CODE":0,"TOWNNAME":"官田區","LI":"隆本里","LIN":"22鄰","STREET":"勝利路","SECT":" ","MAREA":" ","LANE":"１２６巷","ALLEY":" ","HOUSE_NO":"１６號","E_COORD97":180007.23999999999,"N_COORD97":2566109.0099999998,"ADDRESS":"勝利路１２６巷１６號","OBJECTID":409973},"geometry":{"x":180007.24000000115,"y":2566109.0100000035}},{"attributes":{"ID":409998,"DIS_CODE":0,"TOWNNAME":"官田區","LI":"隆本里","LIN":"22鄰","STREET":"勝利路","SECT":" ","MAREA":" ","LANE":"１２６巷","ALLEY":" ","HOUSE_NO":"６號","E_COORD97":180040.47,"N_COORD97":2566063.8599999999,"ADDRESS":"勝利路１２６巷６號","OBJECTID":409974},"geometry":{"x":180040.46999999881,"y":2566063.8599999994}},{"attributes":{"ID":409999,"DIS_CODE":0,"TOWNNAME":"官田區","LI":"隆本里","LIN":"22鄰","STREET":"勝利路","SECT":" ","MAREA":" ","LANE":"１２６巷","ALLEY":" ","HOUSE_NO":"８號","E_COORD97":180038.35999999999,"N_COORD97":2566067.9900000002,"ADDRESS":"勝利路１２６巷８號","OBJECTID":409975},"geometry":{"x":180038.36000000034,"y":2566067.9900000002}},{"attributes":{"ID":410000,"DIS_CODE":0,"TOWNNAME":"安南區","LI":"州北里","LIN":"22鄰","STREET":"安和路","SECT":"五段","MAREA":" ","LANE":"３２５巷","ALLEY":" ","HOUSE_NO":"１５號","E_COORD97":169645.87,"N_COORD97":2552117.0899999999,"ADDRESS":"安和路五段３２５巷１５號","OBJECTID":409976},"geometry":{"x":169645.87000000104,"y":2552117.0900000017}},{"attributes":{"ID":410001,"DIS_CODE":0,"TOWNNAME":"安南區","LI":"州北里","LIN":"22鄰","STREET":"安和路","SECT":"五段","MAREA":" ","LANE":"３２５巷","ALLEY":" ","HOUSE_NO":"１７號","E_COORD97":169648.04999999999,"N_COORD97":2552111.96,"ADDRESS":"安和路五段３２５巷１７號","OBJECTID":409977},"geometry":{"x":169648.04999999981,"y":2552111.9600000028}},{"attributes":{"ID":410002,"DIS_CODE":0,"TOWNNAME":"安南區","LI":"州北里","LIN":"22鄰","STREET":"安和路","SECT":"五段","MAREA":" ","LANE":"３２５巷","ALLEY":" ","HOUSE_NO":"１９號","E_COORD97":169650.39000000001,"N_COORD97":2552106.5099999998,"ADDRESS":"安和路五段３２５巷１９號","OBJECTID":409978},"geometry":{"x":169650.38999999966,"y":2552106.5100000035}},{"attributes":{"ID":410003,"DIS_CODE":0,"TOWNNAME":"安南區","LI":"州北里","LIN":"22鄰","STREET":"安和路","SECT":"五段","MAREA":" ","LANE":"３２５巷","ALLEY":" ","HOUSE_NO":"３３號","E_COORD97":169666.91,"N_COORD97":2552068.5499999998,"ADDRESS":"安和路五段３２５巷３３號","OBJECTID":409979},"geometry":{"x":169666.91000000201,"y":2552068.5500000007}},{"attributes":{"ID":410004,"DIS_CODE":0,"TOWNNAME":"安南區","LI":"州北里","LIN":"22鄰","STREET":"安和路","SECT":"五段","MAREA":" ","LANE":"３２５巷","ALLEY":" ","HOUSE_NO":"３５號","E_COORD97":169668.94,"N_COORD97":2552062.79,"ADDRESS":"安和路五段３２５巷３５號","OBJECTID":409980},"geometry":{"x":169668.94000000134,"y":2552062.7899999991}},{"attributes":{"ID":410005,"DIS_CODE":0,"TOWNNAME":"安南區","LI":"州北里","LIN":"22鄰","STREET":"安和路","SECT":"五段","MAREA":" ","LANE":"３２５巷","ALLEY":" ","HOUSE_NO":"３７號","E_COORD97":169670.97,"N_COORD97":2552056.7200000002,"ADDRESS":"安和路五段３２５巷３７號","OBJECTID":409981},"geometry":{"x":169670.96999999881,"y":2552056.7200000025}},{"attributes":{"ID":410006,"DIS_CODE":0,"TOWNNAME":"安南區","LI":"州北里","LIN":"22鄰","STREET":"安和路","SECT":"五段","MAREA":" ","LANE":"３２５巷","ALLEY":" ","HOUSE_NO":"３９號","E_COORD97":169673.92999999999,"N_COORD97":2552050.96,"ADDRESS":"安和路五段３２５巷３９號","OBJECTID":409982},"geometry":{"x":169673.9299999997,"y":2552050.9600000028}},{"attributes":{"ID":410007,"DIS_CODE":0,"TOWNNAME":"安南區","LI":"州北里","LIN":"22鄰","STREET":"安和路","SECT":"五段","MAREA":" ","LANE":"３２５巷","ALLEY":" ","HOUSE_NO":"４１號","E_COORD97":169676.26999999999,"N_COORD97":2552044.7400000002,"ADDRESS":"安和路五段３２５巷４１號","OBJECTID":409983},"geometry":{"x":169676.27000000048,"y":2552044.7400000039}},{"attributes":{"ID":410008,"DIS_CODE":0,"TOWNNAME":"安南區","LI":"州北里","LIN":"22鄰","STREET":"安和路","SECT":"五段","MAREA":" ","LANE":"３２５巷","ALLEY":" ","HOUSE_NO":"４３號","E_COORD97":169678.76000000001,"N_COORD97":2552038.98,"ADDRESS":"安和路五段３２５巷４３號","OBJECTID":409984},"geometry":{"x":169678.75999999978,"y":2552038.9800000004}},{"attributes":{"ID":410009,"DIS_CODE":0,"TOWNNAME":"安南區","LI":"州北里","LIN":"22鄰","STREET":"安和路","SECT":"五段","MAREA":" ","LANE":"３２５巷","ALLEY":" ","HOUSE_NO":"４５號","E_COORD97":169681.88,"N_COORD97":2552032.6699999999,"ADDRESS":"安和路五段３２５巷４５號","OBJECTID":409985},"geometry":{"x":169681.87999999989,"y":2552032.6700000018}},{"attributes":{"ID":410010,"DIS_CODE":0,"TOWNNAME":"仁德區","LI":"仁義里","LIN":"22鄰","STREET":"正義路","SECT":" ","MAREA":" ","LANE":"１１４巷","ALLEY":" ","HOUSE_NO":"１０號","E_COORD97":173673.70000000001,"N_COORD97":2541373.77,"ADDRESS":"正義路１１４巷１０號","OBJECTID":409986},"geometry":{"x":173673.70000000019,"y":2541373.7699999996}},{"attributes":{"ID":410011,"DIS_CODE":0,"TOWNNAME":"仁德區","LI":"太子里","LIN":"22鄰","STREET":"中正路","SECT":"三段","MAREA":" ","LANE":"７０４巷","ALLEY":" ","HOUSE_NO":"２號","E_COORD97":173766.12,"N_COORD97":2543587.27,"ADDRESS":"中正路三段７０４巷２號","OBJECTID":409987},"geometry":{"x":173766.12000000197,"y":2543587.2699999996}},{"attributes":{"ID":410012,"DIS_CODE":0,"TOWNNAME":"仁德區","LI":"太子里","LIN":"22鄰","STREET":"長興四街","SECT":" ","MAREA":" ","LANE":"９０巷","ALLEY":" ","HOUSE_NO":"６號","E_COORD97":173859.5,"N_COORD97":2543599,"ADDRESS":"長興四街９０巷６號","OBJECTID":409988},"geometry":{"x":173859.5,"y":2543599}},{"attributes":{"ID":410013,"DIS_CODE":0,"TOWNNAME":"仁德區","LI":"太子里","LIN":"22鄰","STREET":"長興四街","SECT":" ","MAREA":" ","LANE":"９０巷","ALLEY":" ","HOUSE_NO":"１３號","E_COORD97":173837.20000000001,"N_COORD97":2543614.5099999998,"ADDRESS":"長興四街９０巷１３號","OBJECTID":409989},"geometry":{"x":173837.20000000112,"y":2543614.5100000016}},{"attributes":{"ID":410014,"DIS_CODE":0,"TOWNNAME":"仁德區","LI":"太子里","LIN":"22鄰","STREET":"長興四街","SECT":" ","MAREA":" ","LANE":"８２巷","ALLEY":" ","HOUSE_NO":"４號","E_COORD97":173867.861187,"N_COORD97":2543604.5312000001,"ADDRESS":"長興四街８２巷４號","OBJECTID":409990},"geometry":{"x":173867.86118700076,"y":2543604.5311990008}},{"attributes":{"ID":410015,"DIS_CODE":0,"TOWNNAME":"仁德區","LI":"仁義里","LIN":"22鄰","STREET":"正義路","SECT":" ","MAREA":" ","LANE":"１１４巷","ALLEY":" ","HOUSE_NO":"２號","E_COORD97":173675.79999999999,"N_COORD97":2541397.0099999998,"ADDRESS":"正義路１１４巷２號","OBJECTID":409991},"geometry":{"x":173675.79999999981,"y":2541397.0100000016}},{"attributes":{"ID":410016,"DIS_CODE":0,"TOWNNAME":"東區","LI":"大智里","LIN":"22鄰","STREET":"崇善十五街","SECT":" ","MAREA":" ","LANE":"３３巷","ALLEY":" ","HOUSE_NO":"８１號","E_COORD97":171360.47,"N_COORD97":2540447.3900000001,"ADDRESS":"崇善十五街３３巷８１號","OBJECTID":409992},"geometry":{"x":171360.46999999974,"y":2540447.3900000006}},{"attributes":{"ID":410017,"DIS_CODE":0,"TOWNNAME":"永康區","LI":"勝利里","LIN":"22鄰","STREET":"中華路","SECT":" ","MAREA":" ","LANE":"２３１巷","ALLEY":" ","HOUSE_NO":"８號","E_COORD97":171568.73000000001,"N_COORD97":2545096.5,"ADDRESS":"中華路２３１巷８號","OBJECTID":409993},"geometry":{"x":171568.73000000231,"y":2545096.5000000019}},{"attributes":{"ID":410018,"DIS_CODE":0,"TOWNNAME":"東區","LI":"大智里","LIN":"22鄰","STREET":"崇善十五街","SECT":" ","MAREA":" ","LANE":"３３巷","ALLEY":" ","HOUSE_NO":"７７號","E_COORD97":171369.69,"N_COORD97":2540446.4900000002,"ADDRESS":"崇善十五街３３巷７７號","OBJECTID":409994},"geometry":{"x":171369.69000000134,"y":2540446.4900000002}},{"attributes":{"ID":410019,"DIS_CODE":0,"TOWNNAME":"東區","LI":"大智里","LIN":"22鄰","STREET":"崇善十五街","SECT":" ","MAREA":" ","LANE":"３３巷","ALLEY":" ","HOUSE_NO":"７９號","E_COORD97":171364.63,"N_COORD97":2540444.1200000001,"ADDRESS":"崇善十五街３３巷７９號","OBJECTID":409995},"geometry":{"x":171364.62999999989,"y":2540444.1199999992}},{"attributes":{"ID":410020,"DIS_CODE":0,"TOWNNAME":"東區","LI":"大智里","LIN":"22鄰","STREET":"崇善十五街","SECT":" ","MAREA":" ","LANE":"３３巷","ALLEY":" ","HOUSE_NO":"８３號","E_COORD97":171356,"N_COORD97":2540444.4100000001,"ADDRESS":"崇善十五街３３巷８３號","OBJECTID":409996},"geometry":{"x":171356,"y":2540444.4100000001}},{"attributes":{"ID":410021,"DIS_CODE":0,"TOWNNAME":"東區","LI":"大智里","LIN":"22鄰","STREET":"崇善十五街","SECT":" ","MAREA":" ","LANE":"３３巷","ALLEY":" ","HOUSE_NO":"８５號","E_COORD97":171351.23999999999,"N_COORD97":2540446.2000000002,"ADDRESS":"崇善十五街３３巷８５號","OBJECTID":409997},"geometry":{"x":171351.24000000022,"y":2540446.2000000011}},{"attributes":{"ID":410022,"DIS_CODE":0,"TOWNNAME":"東區","LI":"大智里","LIN":"22鄰","STREET":"崇善十五街","SECT":" ","MAREA":" ","LANE":"３３巷","ALLEY":" ","HOUSE_NO":"８７號","E_COORD97":171346.76999999999,"N_COORD97":2540443.8199999998,"ADDRESS":"崇善十五街３３巷８７號","OBJECTID":409998},"geometry":{"x":171346.76999999955,"y":2540443.8200000022}},{"attributes":{"ID":410023,"DIS_CODE":0,"TOWNNAME":"東區","LI":"大智里","LIN":"22鄰","STREET":"崇善十五街","SECT":" ","MAREA":" ","LANE":"３３巷","ALLEY":" ","HOUSE_NO":"８９號","E_COORD97":171338.73999999999,"N_COORD97":2540438.4700000002,"ADDRESS":"崇善十五街３３巷８９號","OBJECTID":409999},"geometry":{"x":171338.74000000022,"y":2540438.4700000025}},{"attributes":{"ID":410024,"DIS_CODE":0,"TOWNNAME":"仁德區","LI":"後壁里","LIN":"22鄰","STREET":"中正路","SECT":"二段","MAREA":" ","LANE":"１８７巷","ALLEY":" ","HOUSE_NO":"２號","E_COORD97":173166.87,"N_COORD97":2538697.02,"ADDRESS":"中正路二段１８７巷２號","OBJECTID":410000},"geometry":{"x":173166.87000000011,"y":2538697.0199999996}}]}