{"displayFieldName":"TOWNNAME","fieldAliases":{"ID":"ID","DIS_CODE":"DIS_CODE","TOWNNAME":"TOWNNAME","LI":"LI","LIN":"LIN","STREET":"STREET","SECT":"SECT","MAREA":"MAREA","LANE":"LANE","ALLEY":"ALLEY","HOUSE_NO":"HOUSE_NO","E_COORD97":"E_COORD97","N_COORD97":"N_COORD97","ADDRESS":"ADDRESS","OBJECTID":"OBJECTID"},"geometryType":"esriGeometryPoint","spatialReference":{"wkid":102443,"latestWkid":3826},"fields":[{"name":"ID","type":"esriFieldTypeDouble","alias":"ID"},{"name":"DIS_CODE","type":"esriFieldTypeInteger","alias":"DIS_CODE"},{"name":"TOWNNAME","type":"esriFieldTypeString","alias":"TOWNNAME","length":8},{"name":"LI","type":"esriFieldTypeString","alias":"LI","length":8},{"name":"LIN","type":"esriFieldTypeString","alias":"LIN","length":12},{"name":"STREET","type":"esriFieldTypeString","alias":"STREET","length":20},{"name":"SECT","type":"esriFieldTypeString","alias":"SECT","length":8},{"name":"MAREA","type":"esriFieldTypeString","alias":"MAREA","length":12},{"name":"LANE","type":"esriFieldTypeString","alias":"LANE","length":10},{"name":"ALLEY","type":"esriFieldTypeString","alias":"ALLEY","length":10},{"name":"HOUSE_NO","type":"esriFieldTypeString","alias":"HOUSE_NO","length":20},{"name":"E_COORD97","type":"esriFieldTypeDouble","alias":"E_COORD97"},{"name":"N_COORD97","type":"esriFieldTypeDouble","alias":"N_COORD97"},{"name":"ADDRESS","type":"esriFieldTypeString","alias":"ADDRESS","length":50},{"name":"OBJECTID","type":"esriFieldTypeOID","alias":"OBJECTID"}],"features":[{"attributes":{"ID":616828,"DIS_CODE":0,"TOWNNAME":"新化區","LI":"東榮里","LIN":"2鄰","STREET":"中興路","SECT":" ","MAREA":" ","LANE":" ","ALLEY":" ","HOUSE_NO":"５６號","E_COORD97":181953.35999999999,"N_COORD97":2547368.25,"ADDRESS":"中興路５６號","OBJECTID":616801},"geometry":{"x":181953.36000000034,"y":2547368.25}},{"attributes":{"ID":616829,"DIS_CODE":0,"TOWNNAME":"新化區","LI":"護國里","LIN":"2鄰","STREET":"中正路","SECT":" ","MAREA":" ","LANE":" ","ALLEY":" ","HOUSE_NO":"４３６號","E_COORD97":179060.20999999999,"N_COORD97":2548514.25,"ADDRESS":"中正路４３６號","OBJECTID":616802},"geometry":{"x":179060.20999999996,"y":2548514.25}},{"attributes":{"ID":616830,"DIS_CODE":0,"TOWNNAME":"新化區","LI":"中央里","LIN":"2鄰","STREET":"信義路","SECT":" ","MAREA":" ","LANE":" ","ALLEY":" ","HOUSE_NO":"２９０號","E_COORD97":178995.23000000001,"N_COORD97":2548310.25,"ADDRESS":"信義路２９０號","OBJECTID":616803},"geometry":{"x":178995.22999999952,"y":2548310.25}},{"attributes":{"ID":616831,"DIS_CODE":0,"TOWNNAME":"新化區","LI":"唪口里","LIN":"2鄰","STREET":"大德路","SECT":" ","MAREA":" ","LANE":" ","ALLEY":" ","HOUSE_NO":"８０號之１２","E_COORD97":178253.48000000001,"N_COORD97":2549406.2599999998,"ADDRESS":"大德路８０號之１２","OBJECTID":616804},"geometry":{"x":178253.48000000138,"y":2549406.2600000035}},{"attributes":{"ID":616832,"DIS_CODE":0,"TOWNNAME":"新化區","LI":"東榮里","LIN":"2鄰","STREET":"中興路","SECT":" ","MAREA":" ","LANE":" ","ALLEY":" ","HOUSE_NO":"３７號","E_COORD97":181925.66,"N_COORD97":2547308.25,"ADDRESS":"中興路３７號","OBJECTID":616805},"geometry":{"x":181925.66000000015,"y":2547308.2500000019}},{"attributes":{"ID":616833,"DIS_CODE":0,"TOWNNAME":"新化區","LI":"太平里","LIN":"2鄰","STREET":"忠孝路","SECT":" ","MAREA":" ","LANE":" ","ALLEY":" ","HOUSE_NO":"４２號之３","E_COORD97":179065.72,"N_COORD97":2548732.2599999998,"ADDRESS":"忠孝路４２號之３","OBJECTID":616806},"geometry":{"x":179065.71999999881,"y":2548732.2600000016}},{"attributes":{"ID":616834,"DIS_CODE":0,"TOWNNAME":"南區","LI":"新昌里","LIN":"2鄰","STREET":"大德街","SECT":" ","MAREA":" ","LANE":" ","ALLEY":" ","HOUSE_NO":"１４５號","E_COORD97":167540.88,"N_COORD97":2543022.6699999999,"ADDRESS":"大德街１４５號","OBJECTID":616807},"geometry":{"x":167540.87999999896,"y":2543022.6699999981}},{"attributes":{"ID":616835,"DIS_CODE":0,"TOWNNAME":"南區","LI":"新昌里","LIN":"2鄰","STREET":"大德街","SECT":" ","MAREA":" ","LANE":" ","ALLEY":" ","HOUSE_NO":"１４７號","E_COORD97":167540.88,"N_COORD97":2543018.8700000001,"ADDRESS":"大德街１４７號","OBJECTID":616808},"geometry":{"x":167540.87999999896,"y":2543018.870000001}},{"attributes":{"ID":616836,"DIS_CODE":0,"TOWNNAME":"南區","LI":"新昌里","LIN":"2鄰","STREET":"大德街","SECT":" ","MAREA":" ","LANE":" ","ALLEY":" ","HOUSE_NO":"１４９號","E_COORD97":167537.70000000001,"N_COORD97":2543011.5699999998,"ADDRESS":"大德街１４９號","OBJECTID":616809},"geometry":{"x":167537.70000000112,"y":2543011.5700000022}},{"attributes":{"ID":616837,"DIS_CODE":0,"TOWNNAME":"南區","LI":"新昌里","LIN":"2鄰","STREET":"大德街","SECT":" ","MAREA":" ","LANE":" ","ALLEY":" ","HOUSE_NO":"１５１號","E_COORD97":167542.45999999999,"N_COORD97":2543010.3100000001,"ADDRESS":"大德街１５１號","OBJECTID":616810},"geometry":{"x":167542.46000000089,"y":2543010.3100000024}},{"attributes":{"ID":616838,"DIS_CODE":0,"TOWNNAME":"南區","LI":"新昌里","LIN":"2鄰","STREET":"大德街","SECT":" ","MAREA":" ","LANE":" ","ALLEY":" ","HOUSE_NO":"１６３號","E_COORD97":167518.01999999999,"N_COORD97":2542942.1299999999,"ADDRESS":"大德街１６３號","OBJECTID":616811},"geometry":{"x":167518.02000000048,"y":2542942.1300000008}},{"attributes":{"ID":616839,"DIS_CODE":0,"TOWNNAME":"南區","LI":"新昌里","LIN":"2鄰","STREET":"大德街","SECT":" ","MAREA":" ","LANE":" ","ALLEY":" ","HOUSE_NO":"１６５號","E_COORD97":167517.07000000001,"N_COORD97":2542938,"ADDRESS":"大德街１６５號","OBJECTID":616812},"geometry":{"x":167517.07000000123,"y":2542938}},{"attributes":{"ID":616840,"DIS_CODE":0,"TOWNNAME":"南區","LI":"新昌里","LIN":"2鄰","STREET":"大德街","SECT":" ","MAREA":" ","LANE":" ","ALLEY":" ","HOUSE_NO":"１６７號","E_COORD97":167514.84,"N_COORD97":2542934.52,"ADDRESS":"大德街１６７號","OBJECTID":616813},"geometry":{"x":167514.84000000078,"y":2542934.5199999996}},{"attributes":{"ID":616841,"DIS_CODE":0,"TOWNNAME":"南區","LI":"新昌里","LIN":"2鄰","STREET":"大德街","SECT":" ","MAREA":" ","LANE":" ","ALLEY":" ","HOUSE_NO":"１７１號","E_COORD97":167512.94,"N_COORD97":2542924.6800000002,"ADDRESS":"大德街１７１號","OBJECTID":616814},"geometry":{"x":167512.94000000134,"y":2542924.6800000016}},{"attributes":{"ID":616842,"DIS_CODE":0,"TOWNNAME":"南區","LI":"新昌里","LIN":"2鄰","STREET":"大德街","SECT":" ","MAREA":" ","LANE":" ","ALLEY":" ","HOUSE_NO":"１７３號","E_COORD97":167507.22,"N_COORD97":2542918.6600000001,"ADDRESS":"大德街１７３號","OBJECTID":616815},"geometry":{"x":167507.21999999974,"y":2542918.660000002}},{"attributes":{"ID":616843,"DIS_CODE":0,"TOWNNAME":"南區","LI":"新昌里","LIN":"2鄰","STREET":"大德街","SECT":" ","MAREA":" ","LANE":" ","ALLEY":" ","HOUSE_NO":"１７５號","E_COORD97":167505.32000000001,"N_COORD97":2542912.9500000002,"ADDRESS":"大德街１７５號","OBJECTID":616816},"geometry":{"x":167505.32000000123,"y":2542912.9500000011}},{"attributes":{"ID":616844,"DIS_CODE":0,"TOWNNAME":"南區","LI":"新興里","LIN":"2鄰","STREET":"國華街","SECT":"一段","MAREA":" ","LANE":" ","ALLEY":" ","HOUSE_NO":"１０號","E_COORD97":167623.20999999999,"N_COORD97":2542517.2400000002,"ADDRESS":"國華街一段１０號","OBJECTID":616817},"geometry":{"x":167623.20999999996,"y":2542517.2400000002}},{"attributes":{"ID":616845,"DIS_CODE":0,"TOWNNAME":"南區","LI":"新興里","LIN":"2鄰","STREET":"國華街","SECT":"一段","MAREA":" ","LANE":" ","ALLEY":" ","HOUSE_NO":"１１號","E_COORD97":167606.44,"N_COORD97":2542506.5499999998,"ADDRESS":"國華街一段１１號","OBJECTID":616818},"geometry":{"x":167606.44000000041,"y":2542506.5500000026}},{"attributes":{"ID":616846,"DIS_CODE":0,"TOWNNAME":"南區","LI":"新興里","LIN":"2鄰","STREET":"國華街","SECT":"一段","MAREA":" ","LANE":" ","ALLEY":" ","HOUSE_NO":"１２之１號","E_COORD97":167622.70999999999,"N_COORD97":2542523.1400000001,"ADDRESS":"國華街一段１２之１號","OBJECTID":616819},"geometry":{"x":167622.71000000089,"y":2542523.1400000025}},{"attributes":{"ID":616847,"DIS_CODE":0,"TOWNNAME":"南區","LI":"新興里","LIN":"2鄰","STREET":"國華街","SECT":"一段","MAREA":" ","LANE":" ","ALLEY":" ","HOUSE_NO":"１３號","E_COORD97":167607.20000000001,"N_COORD97":2542514.7999999998,"ADDRESS":"國華街一段１３號","OBJECTID":616820},"geometry":{"x":167607.20000000112,"y":2542514.8000000026}},{"attributes":{"ID":616848,"DIS_CODE":0,"TOWNNAME":"南區","LI":"新興里","LIN":"2鄰","STREET":"國華街","SECT":"一段","MAREA":" ","LANE":" ","ALLEY":" ","HOUSE_NO":"１４號","E_COORD97":167623.97,"N_COORD97":2542528.1499999999,"ADDRESS":"國華街一段１４號","OBJECTID":616821},"geometry":{"x":167623.97000000067,"y":2542528.1500000004}},{"attributes":{"ID":616849,"DIS_CODE":0,"TOWNNAME":"南區","LI":"新興里","LIN":"2鄰","STREET":"國華街","SECT":"一段","MAREA":" ","LANE":" ","ALLEY":" ","HOUSE_NO":"１５號","E_COORD97":167607.28,"N_COORD97":2542523.8799999999,"ADDRESS":"國華街一段１５號","OBJECTID":616822},"geometry":{"x":167607.28000000119,"y":2542523.879999999}},{"attributes":{"ID":616850,"DIS_CODE":0,"TOWNNAME":"南區","LI":"新興里","LIN":"2鄰","STREET":"國華街","SECT":"一段","MAREA":" ","LANE":" ","ALLEY":" ","HOUSE_NO":"１６號","E_COORD97":167621.95000000001,"N_COORD97":2542532.6600000001,"ADDRESS":"國華街一段１６號","OBJECTID":616823},"geometry":{"x":167621.95000000019,"y":2542532.660000002}},{"attributes":{"ID":616851,"DIS_CODE":0,"TOWNNAME":"南區","LI":"新興里","LIN":"2鄰","STREET":"國華街","SECT":"一段","MAREA":" ","LANE":" ","ALLEY":" ","HOUSE_NO":"１７號","E_COORD97":167600.03,"N_COORD97":2542533.6400000001,"ADDRESS":"國華街一段１７號","OBJECTID":616824},"geometry":{"x":167600.03000000119,"y":2542533.6400000025}},{"attributes":{"ID":616852,"DIS_CODE":0,"TOWNNAME":"南區","LI":"新興里","LIN":"2鄰","STREET":"國華街","SECT":"一段","MAREA":" ","LANE":" ","ALLEY":" ","HOUSE_NO":"１８號","E_COORD97":167622.60000000001,"N_COORD97":2542537.2000000002,"ADDRESS":"國華街一段１８號","OBJECTID":616825},"geometry":{"x":167622.60000000056,"y":2542537.200000003}},{"attributes":{"ID":616853,"DIS_CODE":0,"TOWNNAME":"南區","LI":"新興里","LIN":"2鄰","STREET":"國華街","SECT":"一段","MAREA":" ","LANE":" ","ALLEY":" ","HOUSE_NO":"１９號","E_COORD97":167597.07999999999,"N_COORD97":2542537.8500000001,"ADDRESS":"國華街一段１９號","OBJECTID":616826},"geometry":{"x":167597.08000000007,"y":2542537.8500000015}},{"attributes":{"ID":616854,"DIS_CODE":0,"TOWNNAME":"南區","LI":"新興里","LIN":"2鄰","STREET":"國華街","SECT":"一段","MAREA":" ","LANE":" ","ALLEY":" ","HOUSE_NO":"１號","E_COORD97":167604.69,"N_COORD97":2542478.6099999999,"ADDRESS":"國華街一段１號","OBJECTID":616827},"geometry":{"x":167604.69000000134,"y":2542478.6099999994}},{"attributes":{"ID":616855,"DIS_CODE":0,"TOWNNAME":"南區","LI":"新興里","LIN":"2鄰","STREET":"國華街","SECT":"一段","MAREA":" ","LANE":" ","ALLEY":" ","HOUSE_NO":"２０號","E_COORD97":167623.26000000001,"N_COORD97":2542540.8500000001,"ADDRESS":"國華街一段２０號","OBJECTID":616828},"geometry":{"x":167623.26000000071,"y":2542540.8500000015}},{"attributes":{"ID":616856,"DIS_CODE":0,"TOWNNAME":"南區","LI":"新興里","LIN":"2鄰","STREET":"國華街","SECT":"一段","MAREA":" ","LANE":" ","ALLEY":" ","HOUSE_NO":"２１號","E_COORD97":167597.07999999999,"N_COORD97":2542542.23,"ADDRESS":"國華街一段２１號","OBJECTID":616829},"geometry":{"x":167597.08000000007,"y":2542542.2300000023}},{"attributes":{"ID":616857,"DIS_CODE":0,"TOWNNAME":"南區","LI":"新興里","LIN":"2鄰","STREET":"國華街","SECT":"一段","MAREA":" ","LANE":" ","ALLEY":" ","HOUSE_NO":"２３號","E_COORD97":167599.01999999999,"N_COORD97":2542547.0299999998,"ADDRESS":"國華街一段２３號","OBJECTID":616830},"geometry":{"x":167599.02000000142,"y":2542547.0299999993}},{"attributes":{"ID":616858,"DIS_CODE":0,"TOWNNAME":"南區","LI":"新興里","LIN":"2鄰","STREET":"國華街","SECT":"一段","MAREA":" ","LANE":" ","ALLEY":" ","HOUSE_NO":"２５號","E_COORD97":167599.60999999999,"N_COORD97":2542552.04,"ADDRESS":"國華街一段２５號","OBJECTID":616831},"geometry":{"x":167599.61000000127,"y":2542552.040000001}},{"attributes":{"ID":616859,"DIS_CODE":0,"TOWNNAME":"官田區","LI":"隆本里","LIN":"2鄰","STREET":"中華路","SECT":"一段","MAREA":" ","LANE":" ","ALLEY":" ","HOUSE_NO":"３２５號","E_COORD97":180676.88,"N_COORD97":2566125.9199999999,"ADDRESS":"中華路一段３２５號","OBJECTID":616832},"geometry":{"x":180676.87999999989,"y":2566125.9199999999}},{"attributes":{"ID":616860,"DIS_CODE":0,"TOWNNAME":"官田區","LI":"隆本里","LIN":"2鄰","STREET":"中華路","SECT":"一段","MAREA":" ","LANE":" ","ALLEY":" ","HOUSE_NO":"３３５號","E_COORD97":180599.26000000001,"N_COORD97":2566230.1400000001,"ADDRESS":"中華路一段３３５號","OBJECTID":616833},"geometry":{"x":180599.25999999978,"y":2566230.1400000006}},{"attributes":{"ID":616861,"DIS_CODE":0,"TOWNNAME":"官田區","LI":"隆本里","LIN":"2鄰","STREET":"中華路","SECT":"一段","MAREA":" ","LANE":" ","ALLEY":" ","HOUSE_NO":"３３７號","E_COORD97":180325.76000000001,"N_COORD97":2566613.5699999998,"ADDRESS":"中華路一段３３７號","OBJECTID":616834},"geometry":{"x":180325.76000000071,"y":2566613.5700000003}},{"attributes":{"ID":616862,"DIS_CODE":0,"TOWNNAME":"官田區","LI":"隆本里","LIN":"2鄰","STREET":"中華路","SECT":"一段","MAREA":" ","LANE":" ","ALLEY":" ","HOUSE_NO":"３３９號","E_COORD97":180472.32000000001,"N_COORD97":2566161.7599999998,"ADDRESS":"中華路一段３３９號","OBJECTID":616835},"geometry":{"x":180472.3200000003,"y":2566161.7600000016}},{"attributes":{"ID":616863,"DIS_CODE":0,"TOWNNAME":"佳里區","LI":"鎮山里","LIN":"1鄰","STREET":"四安街","SECT":" ","MAREA":" ","LANE":" ","ALLEY":" ","HOUSE_NO":"２７號","E_COORD97":165879.42000000001,"N_COORD97":2561849.4199999999,"ADDRESS":"四安街２７號","OBJECTID":616836},"geometry":{"x":165879.41999999899,"y":2561849.4200000018}},{"attributes":{"ID":616864,"DIS_CODE":0,"TOWNNAME":"佳里區","LI":"鎮山里","LIN":"1鄰","STREET":"四安街","SECT":" ","MAREA":" ","LANE":" ","ALLEY":" ","HOUSE_NO":"１７號","E_COORD97":165882.51999999999,"N_COORD97":2561820.3199999998,"ADDRESS":"四安街１７號","OBJECTID":616837},"geometry":{"x":165882.52000000048,"y":2561820.3200000003}},{"attributes":{"ID":616865,"DIS_CODE":0,"TOWNNAME":"東區","LI":"自強里","LIN":"19鄰","STREET":"中華東路","SECT":"二段","MAREA":" ","LANE":" ","ALLEY":" ","HOUSE_NO":"２３３號","E_COORD97":171237.70999999999,"N_COORD97":2542673.0299999998,"ADDRESS":"中華東路二段２３３號","OBJECTID":616838},"geometry":{"x":171237.71000000183,"y":2542673.0299999993}},{"attributes":{"ID":616866,"DIS_CODE":0,"TOWNNAME":"白河區","LI":"庄內里","LIN":"2鄰","STREET":"裕農路","SECT":" ","MAREA":" ","LANE":" ","ALLEY":" ","HOUSE_NO":"１３號","E_COORD97":191145.22,"N_COORD97":2583423.6899999999,"ADDRESS":"裕農路１３號","OBJECTID":616839},"geometry":{"x":191145.21999999974,"y":2583423.6900000013}},{"attributes":{"ID":616867,"DIS_CODE":0,"TOWNNAME":"白河區","LI":"庄內里","LIN":"2鄰","STREET":"裕農路","SECT":" ","MAREA":" ","LANE":" ","ALLEY":" ","HOUSE_NO":"７號","E_COORD97":191155.23000000001,"N_COORD97":2583414.3399999999,"ADDRESS":"裕農路７號","OBJECTID":616840},"geometry":{"x":191155.23000000138,"y":2583414.339999998}},{"attributes":{"ID":616868,"DIS_CODE":0,"TOWNNAME":"佳里區","LI":"六安里","LIN":"4鄰","STREET":"六安街","SECT":" ","MAREA":" ","LANE":" ","ALLEY":" ","HOUSE_NO":"７８號","E_COORD97":166161.5,"N_COORD97":2563042.98,"ADDRESS":"六安街７８號","OBJECTID":616841},"geometry":{"x":166161.5,"y":2563042.9800000023}},{"attributes":{"ID":616869,"DIS_CODE":0,"TOWNNAME":"東區","LI":"裕聖里","LIN":"2鄰","STREET":"裕信路","SECT":" ","MAREA":" ","LANE":" ","ALLEY":" ","HOUSE_NO":"３２０之３號","E_COORD97":172572.35000000001,"N_COORD97":2542474.5899999999,"ADDRESS":"裕信路３２０之３號","OBJECTID":616842},"geometry":{"x":172572.35000000149,"y":2542474.5900000017}},{"attributes":{"ID":616870,"DIS_CODE":0,"TOWNNAME":"東區","LI":"裕聖里","LIN":"2鄰","STREET":"裕信路","SECT":" ","MAREA":" ","LANE":" ","ALLEY":" ","HOUSE_NO":"３２０之２號","E_COORD97":172577.14000000001,"N_COORD97":2542474.73,"ADDRESS":"裕信路３２０之２號","OBJECTID":616843},"geometry":{"x":172577.14000000153,"y":2542474.7300000023}},{"attributes":{"ID":616871,"DIS_CODE":0,"TOWNNAME":"東區","LI":"裕聖里","LIN":"2鄰","STREET":"裕信路","SECT":" ","MAREA":" ","LANE":" ","ALLEY":" ","HOUSE_NO":"３２０之１號","E_COORD97":172582.04999999999,"N_COORD97":2542474.73,"ADDRESS":"裕信路３２０之１號","OBJECTID":616844},"geometry":{"x":172582.05000000075,"y":2542474.7300000023}},{"attributes":{"ID":616872,"DIS_CODE":0,"TOWNNAME":"東區","LI":"裕聖里","LIN":"2鄰","STREET":"裕信路","SECT":" ","MAREA":" ","LANE":" ","ALLEY":" ","HOUSE_NO":"３２０號","E_COORD97":172587.5,"N_COORD97":2542474.46,"ADDRESS":"裕信路３２０號","OBJECTID":616845},"geometry":{"x":172587.50000000093,"y":2542474.4600000009}},{"attributes":{"ID":616873,"DIS_CODE":0,"TOWNNAME":"東區","LI":"裕聖里","LIN":"2鄰","STREET":"裕信路","SECT":" ","MAREA":" ","LANE":" ","ALLEY":" ","HOUSE_NO":"３２２之１０號","E_COORD97":172541.13,"N_COORD97":2542465.4300000002,"ADDRESS":"裕信路３２２之１０號","OBJECTID":616846},"geometry":{"x":172541.12999999989,"y":2542465.4300000016}},{"attributes":{"ID":616874,"DIS_CODE":0,"TOWNNAME":"東區","LI":"裕聖里","LIN":"2鄰","STREET":"裕信路","SECT":" ","MAREA":" ","LANE":" ","ALLEY":" ","HOUSE_NO":"３２２之１５號","E_COORD97":172518,"N_COORD97":2542466.0899999999,"ADDRESS":"裕信路３２２之１５號","OBJECTID":616847},"geometry":{"x":172518.00000000093,"y":2542466.0899999999}},{"attributes":{"ID":616875,"DIS_CODE":0,"TOWNNAME":"東區","LI":"裕聖里","LIN":"2鄰","STREET":"裕信路","SECT":" ","MAREA":" ","LANE":" ","ALLEY":" ","HOUSE_NO":"３２２之１１號","E_COORD97":172535.28,"N_COORD97":2542465.5600000001,"ADDRESS":"裕信路３２２之１１號","OBJECTID":616848},"geometry":{"x":172535.28000000026,"y":2542465.5600000024}},{"attributes":{"ID":616876,"DIS_CODE":0,"TOWNNAME":"東區","LI":"裕聖里","LIN":"2鄰","STREET":"裕信路","SECT":" ","MAREA":" ","LANE":" ","ALLEY":" ","HOUSE_NO":"３２２之１２號","E_COORD97":172529.03,"N_COORD97":2542465.6899999999,"ADDRESS":"裕信路３２２之１２號","OBJECTID":616849},"geometry":{"x":172529.03000000026,"y":2542465.6899999995}},{"attributes":{"ID":616877,"DIS_CODE":0,"TOWNNAME":"東區","LI":"裕聖里","LIN":"2鄰","STREET":"裕信路","SECT":" ","MAREA":" ","LANE":" ","ALLEY":" ","HOUSE_NO":"３２２之１３號","E_COORD97":172523.04999999999,"N_COORD97":2542465.8199999998,"ADDRESS":"裕信路３２２之１３號","OBJECTID":616850},"geometry":{"x":172523.04999999981,"y":2542465.8200000003}},{"attributes":{"ID":616878,"DIS_CODE":0,"TOWNNAME":"東區","LI":"裕聖里","LIN":"2鄰","STREET":"裕信路","SECT":" ","MAREA":" ","LANE":" ","ALLEY":" ","HOUSE_NO":"３２２之１號","E_COORD97":172582.04999999999,"N_COORD97":2542464.8900000001,"ADDRESS":"裕信路３２２之１號","OBJECTID":616851},"geometry":{"x":172582.05000000075,"y":2542464.8900000006}},{"attributes":{"ID":616879,"DIS_CODE":0,"TOWNNAME":"東區","LI":"裕聖里","LIN":"2鄰","STREET":"裕信路","SECT":" ","MAREA":" ","LANE":" ","ALLEY":" ","HOUSE_NO":"３２２之２號","E_COORD97":172577.79999999999,"N_COORD97":2542464.7599999998,"ADDRESS":"裕信路３２２之２號","OBJECTID":616852},"geometry":{"x":172577.79999999888,"y":2542464.7599999998}},{"attributes":{"ID":616880,"DIS_CODE":0,"TOWNNAME":"東區","LI":"裕聖里","LIN":"2鄰","STREET":"裕信路","SECT":" ","MAREA":" ","LANE":" ","ALLEY":" ","HOUSE_NO":"３２２之３號","E_COORD97":172572.09,"N_COORD97":2542465.0299999998,"ADDRESS":"裕信路３２２之３號","OBJECTID":616853},"geometry":{"x":172572.08999999985,"y":2542465.0300000012}},{"attributes":{"ID":616881,"DIS_CODE":0,"TOWNNAME":"東區","LI":"裕聖里","LIN":"2鄰","STREET":"裕信路","SECT":" ","MAREA":" ","LANE":" ","ALLEY":" ","HOUSE_NO":"３２２之９號","E_COORD97":172546.31,"N_COORD97":2542465.4300000002,"ADDRESS":"裕信路３２２之９號","OBJECTID":616854},"geometry":{"x":172546.30999999959,"y":2542465.4300000016}},{"attributes":{"ID":616882,"DIS_CODE":0,"TOWNNAME":"東區","LI":"裕聖里","LIN":"2鄰","STREET":"裕信路","SECT":" ","MAREA":" ","LANE":" ","ALLEY":" ","HOUSE_NO":"３２０之１１號","E_COORD97":172534.57000000001,"N_COORD97":2542474.9100000001,"ADDRESS":"裕信路３２０之１１號","OBJECTID":616855},"geometry":{"x":172534.57000000123,"y":2542474.9100000001}},{"attributes":{"ID":616883,"DIS_CODE":0,"TOWNNAME":"東區","LI":"裕聖里","LIN":"2鄰","STREET":"裕信路","SECT":" ","MAREA":" ","LANE":" ","ALLEY":" ","HOUSE_NO":"３２０之１０號","E_COORD97":172540.91,"N_COORD97":2542474.9100000001,"ADDRESS":"裕信路３２０之１０號","OBJECTID":616856},"geometry":{"x":172540.91000000108,"y":2542474.9100000001}},{"attributes":{"ID":616884,"DIS_CODE":0,"TOWNNAME":"東區","LI":"裕聖里","LIN":"2鄰","STREET":"裕信路","SECT":" ","MAREA":" ","LANE":" ","ALLEY":" ","HOUSE_NO":"３２０之９號","E_COORD97":172546.39000000001,"N_COORD97":2542474.6299999999,"ADDRESS":"裕信路３２０之９號","OBJECTID":616857},"geometry":{"x":172546.38999999966,"y":2542474.629999999}},{"attributes":{"ID":616885,"DIS_CODE":0,"TOWNNAME":"東區","LI":"裕聖里","LIN":"2鄰","STREET":"裕信路","SECT":" ","MAREA":" ","LANE":" ","ALLEY":" ","HOUSE_NO":"３２０之８號","E_COORD97":172552.01999999999,"N_COORD97":2542474.6299999999,"ADDRESS":"裕信路３２０之８號","OBJECTID":616858},"geometry":{"x":172552.01999999955,"y":2542474.629999999}},{"attributes":{"ID":616886,"DIS_CODE":0,"TOWNNAME":"東區","LI":"裕聖里","LIN":"2鄰","STREET":"裕信路","SECT":" ","MAREA":" ","LANE":" ","ALLEY":" ","HOUSE_NO":"３２０之７號","E_COORD97":172557.78,"N_COORD97":2542474.48,"ADDRESS":"裕信路３２０之７號","OBJECTID":616859},"geometry":{"x":172557.78000000026,"y":2542474.4800000004}},{"attributes":{"ID":616887,"DIS_CODE":0,"TOWNNAME":"東區","LI":"裕聖里","LIN":"2鄰","STREET":"裕信路","SECT":" ","MAREA":" ","LANE":" ","ALLEY":" ","HOUSE_NO":"３２０之６號","E_COORD97":172562.97,"N_COORD97":2542474.48,"ADDRESS":"裕信路３２０之６號","OBJECTID":616860},"geometry":{"x":172562.96999999881,"y":2542474.4800000004}},{"attributes":{"ID":616888,"DIS_CODE":0,"TOWNNAME":"東區","LI":"裕聖里","LIN":"2鄰","STREET":"裕信路","SECT":" ","MAREA":" ","LANE":" ","ALLEY":" ","HOUSE_NO":"３２０之５號","E_COORD97":172567.29999999999,"N_COORD97":2542474.73,"ADDRESS":"裕信路３２０之５號","OBJECTID":616861},"geometry":{"x":172567.29999999981,"y":2542474.7300000023}},{"attributes":{"ID":616889,"DIS_CODE":0,"TOWNNAME":"東區","LI":"裕聖里","LIN":"2鄰","STREET":"裕信路","SECT":" ","MAREA":" ","LANE":" ","ALLEY":" ","HOUSE_NO":"３２２之８號","E_COORD97":172551.62,"N_COORD97":2542465.5600000001,"ADDRESS":"裕信路３２２之８號","OBJECTID":616862},"geometry":{"x":172551.62000000011,"y":2542465.5600000024}},{"attributes":{"ID":616890,"DIS_CODE":0,"TOWNNAME":"東區","LI":"裕聖里","LIN":"2鄰","STREET":"裕信路","SECT":" ","MAREA":" ","LANE":" ","ALLEY":" ","HOUSE_NO":"３２２之７號","E_COORD97":172556.81,"N_COORD97":2542465.5600000001,"ADDRESS":"裕信路３２２之７號","OBJECTID":616863},"geometry":{"x":172556.80999999959,"y":2542465.5600000024}},{"attributes":{"ID":616891,"DIS_CODE":0,"TOWNNAME":"東區","LI":"裕聖里","LIN":"2鄰","STREET":"裕信路","SECT":" ","MAREA":" ","LANE":" ","ALLEY":" ","HOUSE_NO":"３２２之６號","E_COORD97":172561.98999999999,"N_COORD97":2542465.4300000002,"ADDRESS":"裕信路３２２之６號","OBJECTID":616864},"geometry":{"x":172561.99000000115,"y":2542465.4300000016}},{"attributes":{"ID":616892,"DIS_CODE":0,"TOWNNAME":"東區","LI":"裕聖里","LIN":"2鄰","STREET":"裕信路","SECT":" ","MAREA":" ","LANE":" ","ALLEY":" ","HOUSE_NO":"３２２號","E_COORD97":172587.37,"N_COORD97":2542464.8900000001,"ADDRESS":"裕信路３２２號","OBJECTID":616865},"geometry":{"x":172587.37000000011,"y":2542464.8900000006}},{"attributes":{"ID":616893,"DIS_CODE":0,"TOWNNAME":"東區","LI":"和平里","LIN":"2鄰","STREET":"文化路","SECT":" ","MAREA":" ","LANE":" ","ALLEY":" ","HOUSE_NO":"１１２號","E_COORD97":171317.87,"N_COORD97":2541954.5499999998,"ADDRESS":"文化路１１２號","OBJECTID":616866},"geometry":{"x":171317.87000000011,"y":2541954.5500000026}},{"attributes":{"ID":616894,"DIS_CODE":0,"TOWNNAME":"東區","LI":"東安里","LIN":"2鄰","STREET":"東門路","SECT":"二段","MAREA":" ","LANE":" ","ALLEY":" ","HOUSE_NO":"７３號","E_COORD97":170128.82999999999,"N_COORD97":2542958.3500000001,"ADDRESS":"東門路二段７３號","OBJECTID":616867},"geometry":{"x":170128.83000000101,"y":2542958.3500000015}},{"attributes":{"ID":616895,"DIS_CODE":0,"TOWNNAME":"東區","LI":"和平里","LIN":"2鄰","STREET":"文化一街","SECT":" ","MAREA":" ","LANE":" ","ALLEY":" ","HOUSE_NO":"７９號","E_COORD97":171254.43904900001,"N_COORD97":2542000.3932500002,"ADDRESS":"文化一街７９號","OBJECTID":616868},"geometry":{"x":171254.43904900178,"y":2542000.3932530005}},{"attributes":{"ID":616896,"DIS_CODE":0,"TOWNNAME":"東區","LI":"和平里","LIN":"2鄰","STREET":"文化一街","SECT":" ","MAREA":" ","LANE":" ","ALLEY":" ","HOUSE_NO":"８１號","E_COORD97":171262.27945100001,"N_COORD97":2542000.6049199998,"ADDRESS":"文化一街８１號","OBJECTID":616869},"geometry":{"x":171262.27945099957,"y":2542000.6049200017}},{"attributes":{"ID":616897,"DIS_CODE":0,"TOWNNAME":"東區","LI":"和平里","LIN":"2鄰","STREET":"文化一街","SECT":" ","MAREA":" ","LANE":" ","ALLEY":" ","HOUSE_NO":"８３號","E_COORD97":171268.63653399999,"N_COORD97":2542001.8749199999,"ADDRESS":"文化一街８３號","OBJECTID":616870},"geometry":{"x":171268.63653400075,"y":2542001.8749190029}},{"attributes":{"ID":616898,"DIS_CODE":0,"TOWNNAME":"東區","LI":"和平里","LIN":"2鄰","STREET":"文化一街","SECT":" ","MAREA":" ","LANE":" ","ALLEY":" ","HOUSE_NO":"８９號","E_COORD97":171257.405688,"N_COORD97":2541985.5765900002,"ADDRESS":"文化一街８９號","OBJECTID":616871},"geometry":{"x":171257.40568799991,"y":2541985.5765940025}},{"attributes":{"ID":616899,"DIS_CODE":0,"TOWNNAME":"東區","LI":"和平里","LIN":"2鄰","STREET":"文化一街","SECT":" ","MAREA":" ","LANE":" ","ALLEY":" ","HOUSE_NO":"８５號","E_COORD97":171270.54365899999,"N_COORD97":2541987.48159,"ADDRESS":"文化一街８５號","OBJECTID":616872},"geometry":{"x":171270.54365900066,"y":2541987.4815930016}},{"attributes":{"ID":616900,"DIS_CODE":0,"TOWNNAME":"東區","LI":"和平里","LIN":"2鄰","STREET":"文化一街","SECT":" ","MAREA":" ","LANE":" ","ALLEY":" ","HOUSE_NO":"８７號","E_COORD97":171263.55086799999,"N_COORD97":2541987.0582599998,"ADDRESS":"文化一街８７號","OBJECTID":616873},"geometry":{"x":171263.55086800084,"y":2541987.0582599994}},{"attributes":{"ID":616901,"DIS_CODE":0,"TOWNNAME":"東區","LI":"和平里","LIN":"2鄰","STREET":"文化一街","SECT":" ","MAREA":" ","LANE":" ","ALLEY":" ","HOUSE_NO":"９１號","E_COORD97":171249.77718800001,"N_COORD97":2541985.1532600001,"ADDRESS":"文化一街９１號","OBJECTID":616874},"geometry":{"x":171249.7771880012,"y":2541985.1532610003}},{"attributes":{"ID":616902,"DIS_CODE":0,"TOWNNAME":"東區","LI":"和平里","LIN":"2鄰","STREET":"文化路","SECT":" ","MAREA":" ","LANE":" ","ALLEY":" ","HOUSE_NO":"６５號","E_COORD97":171255.47,"N_COORD97":2541958.29,"ADDRESS":"文化路６５號","OBJECTID":616875},"geometry":{"x":171255.46999999974,"y":2541958.290000001}},{"attributes":{"ID":616903,"DIS_CODE":0,"TOWNNAME":"東區","LI":"和平里","LIN":"2鄰","STREET":"文化路","SECT":" ","MAREA":" ","LANE":" ","ALLEY":" ","HOUSE_NO":"６７號","E_COORD97":171261.53,"N_COORD97":2541959.27,"ADDRESS":"文化路６７號","OBJECTID":616876},"geometry":{"x":171261.53000000119,"y":2541959.2699999996}},{"attributes":{"ID":616904,"DIS_CODE":0,"TOWNNAME":"東區","LI":"和平里","LIN":"2鄰","STREET":"文化路","SECT":" ","MAREA":" ","LANE":" ","ALLEY":" ","HOUSE_NO":"６９號","E_COORD97":171266.26999999999,"N_COORD97":2541960.5800000001,"ADDRESS":"文化路６９號","OBJECTID":616877},"geometry":{"x":171266.27000000048,"y":2541960.5800000019}},{"attributes":{"ID":616905,"DIS_CODE":0,"TOWNNAME":"東區","LI":"和平里","LIN":"2鄰","STREET":"文化路","SECT":" ","MAREA":" ","LANE":" ","ALLEY":" ","HOUSE_NO":"７３號","E_COORD97":171276.26000000001,"N_COORD97":2541963.04,"ADDRESS":"文化路７３號","OBJECTID":616878},"geometry":{"x":171276.26000000164,"y":2541963.040000001}},{"attributes":{"ID":616906,"DIS_CODE":0,"TOWNNAME":"東區","LI":"東聖里","LIN":"2鄰","STREET":"中華東路","SECT":"二段","MAREA":" ","LANE":" ","ALLEY":" ","HOUSE_NO":"３之１號","E_COORD97":171469.44,"N_COORD97":2543178.1000000001,"ADDRESS":"中華東路二段３之１號","OBJECTID":616879},"geometry":{"x":171469.44000000134,"y":2543178.0999999996}},{"attributes":{"ID":616907,"DIS_CODE":0,"TOWNNAME":"白河區","LI":"秀祐里","LIN":"2鄰","STREET":"舉人街","SECT":" ","MAREA":" ","LANE":" ","ALLEY":" ","HOUSE_NO":"１２０號","E_COORD97":188884.14000000001,"N_COORD97":2583340.9900000002,"ADDRESS":"舉人街１２０號","OBJECTID":616880},"geometry":{"x":188884.13999999966,"y":2583340.9900000021}},{"attributes":{"ID":616908,"DIS_CODE":0,"TOWNNAME":"白河區","LI":"秀祐里","LIN":"2鄰","STREET":"舉人街","SECT":" ","MAREA":" ","LANE":" ","ALLEY":" ","HOUSE_NO":"１２２號","E_COORD97":188882.89999999999,"N_COORD97":2583352.3700000001,"ADDRESS":"舉人街１２２號","OBJECTID":616881},"geometry":{"x":188882.9000000013,"y":2583352.3700000029}},{"attributes":{"ID":616909,"DIS_CODE":0,"TOWNNAME":"安南區","LI":"海佃里","LIN":"2鄰","STREET":"國安街","SECT":" ","MAREA":" ","LANE":" ","ALLEY":" ","HOUSE_NO":"８８號","E_COORD97":166920.26999999999,"N_COORD97":2547008.0800000001,"ADDRESS":"國安街８８號","OBJECTID":616882},"geometry":{"x":166920.26999999955,"y":2547008.0800000019}},{"attributes":{"ID":616910,"DIS_CODE":0,"TOWNNAME":"安南區","LI":"海佃里","LIN":"2鄰","STREET":"國安街","SECT":" ","MAREA":" ","LANE":" ","ALLEY":" ","HOUSE_NO":"９０號","E_COORD97":166914.29000000001,"N_COORD97":2547006.75,"ADDRESS":"國安街９０號","OBJECTID":616883},"geometry":{"x":166914.29000000004,"y":2547006.7500000019}},{"attributes":{"ID":616911,"DIS_CODE":0,"TOWNNAME":"善化區","LI":"小新里","LIN":"2鄰","STREET":"成功路","SECT":" ","MAREA":" ","LANE":" ","ALLEY":" ","HOUSE_NO":"１２１號","E_COORD97":179840.26000000001,"N_COORD97":2558624.25,"ADDRESS":"成功路１２１號","OBJECTID":616884},"geometry":{"x":179840.26000000164,"y":2558624.25}},{"attributes":{"ID":616912,"DIS_CODE":0,"TOWNNAME":"善化區","LI":"東關里","LIN":"2鄰","STREET":"中山路","SECT":" ","MAREA":" ","LANE":" ","ALLEY":" ","HOUSE_NO":"３７０號","E_COORD97":177532.26000000001,"N_COORD97":2559110.5,"ADDRESS":"中山路３７０號","OBJECTID":616885},"geometry":{"x":177532.26000000071,"y":2559110.5}},{"attributes":{"ID":616913,"DIS_CODE":0,"TOWNNAME":"佳里區","LI":"鎮山里","LIN":"1鄰","STREET":"四安街","SECT":" ","MAREA":" ","LANE":" ","ALLEY":" ","HOUSE_NO":"１９號","E_COORD97":165881.42000000001,"N_COORD97":2561823.8500000001,"ADDRESS":"四安街１９號","OBJECTID":616886},"geometry":{"x":165881.42000000086,"y":2561823.8499999996}},{"attributes":{"ID":616914,"DIS_CODE":0,"TOWNNAME":"佳里區","LI":"鎮山里","LIN":"1鄰","STREET":"四安街","SECT":" ","MAREA":" ","LANE":" ","ALLEY":" ","HOUSE_NO":"３０號","E_COORD97":165851.10999999999,"N_COORD97":2561855.9300000002,"ADDRESS":"四安街３０號","OBJECTID":616887},"geometry":{"x":165851.11000000034,"y":2561855.9300000016}},{"attributes":{"ID":616915,"DIS_CODE":0,"TOWNNAME":"佳里區","LI":"鎮山里","LIN":"1鄰","STREET":"四安街","SECT":" ","MAREA":" ","LANE":" ","ALLEY":" ","HOUSE_NO":"４２號","E_COORD97":165823.45000000001,"N_COORD97":2561862.9300000002,"ADDRESS":"四安街４２號","OBJECTID":616888},"geometry":{"x":165823.45000000019,"y":2561862.9299999997}},{"attributes":{"ID":616916,"DIS_CODE":0,"TOWNNAME":"善化區","LI":"坐駕里","LIN":"2鄰","STREET":"中山路","SECT":" ","MAREA":" ","LANE":" ","ALLEY":" ","HOUSE_NO":"３１９號","E_COORD97":177786.09,"N_COORD97":2559070.25,"ADDRESS":"中山路３１９號","OBJECTID":616889},"geometry":{"x":177786.09000000078,"y":2559070.2500000019}},{"attributes":{"ID":616917,"DIS_CODE":0,"TOWNNAME":"東區","LI":"自強里","LIN":"24鄰","STREET":"富農街","SECT":"一段","MAREA":" ","LANE":" ","ALLEY":" ","HOUSE_NO":"２０１號","E_COORD97":171571.78,"N_COORD97":2542631.75,"ADDRESS":"富農街一段２０１號","OBJECTID":616890},"geometry":{"x":171571.78000000119,"y":2542631.75}},{"attributes":{"ID":616918,"DIS_CODE":0,"TOWNNAME":"東區","LI":"自強里","LIN":"24鄰","STREET":"富農街","SECT":"一段","MAREA":" ","LANE":" ","ALLEY":" ","HOUSE_NO":"２０３號","E_COORD97":171574.29999999999,"N_COORD97":2542639.29,"ADDRESS":"富農街一段２０３號","OBJECTID":616891},"geometry":{"x":171574.30000000168,"y":2542639.290000001}},{"attributes":{"ID":616919,"DIS_CODE":0,"TOWNNAME":"東區","LI":"自強里","LIN":"24鄰","STREET":"富農街","SECT":"一段","MAREA":" ","LANE":" ","ALLEY":" ","HOUSE_NO":"２０５號","E_COORD97":171576.23999999999,"N_COORD97":2542644.7000000002,"ADDRESS":"富農街一段２０５號","OBJECTID":616892},"geometry":{"x":171576.24000000022,"y":2542644.6999999993}},{"attributes":{"ID":616920,"DIS_CODE":0,"TOWNNAME":"東區","LI":"自強里","LIN":"24鄰","STREET":"富農街","SECT":"一段","MAREA":" ","LANE":" ","ALLEY":" ","HOUSE_NO":"２０７號","E_COORD97":171579.14000000001,"N_COORD97":2542652.04,"ADDRESS":"富農街一段２０７號","OBJECTID":616893},"geometry":{"x":171579.1400000006,"y":2542652.0399999991}},{"attributes":{"ID":616921,"DIS_CODE":0,"TOWNNAME":"東區","LI":"自強里","LIN":"24鄰","STREET":"富農街","SECT":"一段","MAREA":" ","LANE":" ","ALLEY":" ","HOUSE_NO":"２０９號","E_COORD97":171586.48999999999,"N_COORD97":2542680.54,"ADDRESS":"富農街一段２０９號","OBJECTID":616894},"geometry":{"x":171586.49000000022,"y":2542680.5400000028}},{"attributes":{"ID":616922,"DIS_CODE":0,"TOWNNAME":"東區","LI":"復興里","LIN":"16鄰","STREET":"裕學路","SECT":" ","MAREA":" ","LANE":" ","ALLEY":" ","HOUSE_NO":"１８１號","E_COORD97":171710.34,"N_COORD97":2542792.29,"ADDRESS":"裕學路１８１號","OBJECTID":616895},"geometry":{"x":171710.34000000078,"y":2542792.290000001}},{"attributes":{"ID":616923,"DIS_CODE":0,"TOWNNAME":"善化區","LI":"小新里","LIN":"2鄰","STREET":"成功路","SECT":" ","MAREA":" ","LANE":" ","ALLEY":" ","HOUSE_NO":"１１７號","E_COORD97":179849.98999999999,"N_COORD97":2558625.75,"ADDRESS":"成功路１１７號","OBJECTID":616896},"geometry":{"x":179849.99000000115,"y":2558625.7500000019}},{"attributes":{"ID":616924,"DIS_CODE":0,"TOWNNAME":"善化區","LI":"北關里","LIN":"2鄰","STREET":"三民路","SECT":" ","MAREA":" ","LANE":" ","ALLEY":" ","HOUSE_NO":"８７號","E_COORD97":177120.14000000001,"N_COORD97":2559206.7599999998,"ADDRESS":"三民路８７號","OBJECTID":616897},"geometry":{"x":177120.13999999873,"y":2559206.7599999998}},{"attributes":{"ID":616925,"DIS_CODE":0,"TOWNNAME":"善化區","LI":"南關里","LIN":"2鄰","STREET":"中華路","SECT":" ","MAREA":" ","LANE":" ","ALLEY":" ","HOUSE_NO":"１２１號","E_COORD97":177197.34,"N_COORD97":2558946.5,"ADDRESS":"中華路１２１號","OBJECTID":616898},"geometry":{"x":177197.34000000078,"y":2558946.5000000019}},{"attributes":{"ID":616926,"DIS_CODE":0,"TOWNNAME":"東區","LI":"復興里","LIN":"16鄰","STREET":"裕學路","SECT":" ","MAREA":" ","LANE":" ","ALLEY":" ","HOUSE_NO":"１４３號","E_COORD97":171713.75,"N_COORD97":2542752.1200000001,"ADDRESS":"裕學路１４３號","OBJECTID":616899},"geometry":{"x":171713.74999999907,"y":2542752.120000001}},{"attributes":{"ID":616927,"DIS_CODE":0,"TOWNNAME":"東區","LI":"復興里","LIN":"16鄰","STREET":"裕學路","SECT":" ","MAREA":" ","LANE":" ","ALLEY":" ","HOUSE_NO":"１４１號","E_COORD97":171716.47,"N_COORD97":2542738.9700000002,"ADDRESS":"裕學路１４１號","OBJECTID":616900},"geometry":{"x":171716.46999999974,"y":2542738.9700000007}},{"attributes":{"ID":616928,"DIS_CODE":0,"TOWNNAME":"東區","LI":"復興里","LIN":"16鄰","STREET":"裕學路","SECT":" ","MAREA":" ","LANE":" ","ALLEY":" ","HOUSE_NO":"１３９號","E_COORD97":171717.84,"N_COORD97":2542734.21,"ADDRESS":"裕學路１３９號","OBJECTID":616901},"geometry":{"x":171717.83999999985,"y":2542734.2100000009}},{"attributes":{"ID":616929,"DIS_CODE":0,"TOWNNAME":"東區","LI":"復興里","LIN":"16鄰","STREET":"裕學路","SECT":" ","MAREA":" ","LANE":" ","ALLEY":" ","HOUSE_NO":"１３７號","E_COORD97":171718.85999999999,"N_COORD97":2542728.0800000001,"ADDRESS":"裕學路１３７號","OBJECTID":616902},"geometry":{"x":171718.86000000127,"y":2542728.0800000001}},{"attributes":{"ID":616930,"DIS_CODE":0,"TOWNNAME":"東區","LI":"復興里","LIN":"16鄰","STREET":"裕學路","SECT":" ","MAREA":" ","LANE":" ","ALLEY":" ","HOUSE_NO":"１３５號","E_COORD97":171719.54000000001,"N_COORD97":2542722.9700000002,"ADDRESS":"裕學路１３５號","OBJECTID":616903},"geometry":{"x":171719.54000000097,"y":2542722.9700000007}},{"attributes":{"ID":616931,"DIS_CODE":0,"TOWNNAME":"東區","LI":"復興里","LIN":"16鄰","STREET":"裕學路","SECT":" ","MAREA":" ","LANE":" ","ALLEY":" ","HOUSE_NO":"１３３號","E_COORD97":171735.89999999999,"N_COORD97":2542725.3599999999,"ADDRESS":"裕學路１３３號","OBJECTID":616904},"geometry":{"x":171735.9000000013,"y":2542725.3599999994}},{"attributes":{"ID":616932,"DIS_CODE":0,"TOWNNAME":"善化區","LI":"坐駕里","LIN":"2鄰","STREET":"中山路","SECT":" ","MAREA":" ","LANE":" ","ALLEY":" ","HOUSE_NO":"３０９號","E_COORD97":177038.76999999999,"N_COORD97":2559270.5,"ADDRESS":"中山路３０９號","OBJECTID":616905},"geometry":{"x":177038.76999999955,"y":2559270.5}},{"attributes":{"ID":616933,"DIS_CODE":0,"TOWNNAME":"善化區","LI":"南關里","LIN":"2鄰","STREET":"平等路","SECT":" ","MAREA":" ","LANE":" ","ALLEY":" ","HOUSE_NO":"６２號","E_COORD97":177167.85999999999,"N_COORD97":2558973.75,"ADDRESS":"平等路６２號","OBJECTID":616906},"geometry":{"x":177167.86000000034,"y":2558973.75}},{"attributes":{"ID":616934,"DIS_CODE":0,"TOWNNAME":"東區","LI":"復興里","LIN":"15鄰","STREET":"裕學路","SECT":" ","MAREA":" ","LANE":" ","ALLEY":" ","HOUSE_NO":"８１號","E_COORD97":171758.06,"N_COORD97":2542771.1800000002,"ADDRESS":"裕學路８１號","OBJECTID":616907},"geometry":{"x":171758.05999999959,"y":2542771.1799999997}},{"attributes":{"ID":616935,"DIS_CODE":0,"TOWNNAME":"東區","LI":"復興里","LIN":"15鄰","STREET":"裕學路","SECT":" ","MAREA":" ","LANE":" ","ALLEY":" ","HOUSE_NO":"７９號","E_COORD97":171769.31,"N_COORD97":2542772.8799999999,"ADDRESS":"裕學路７９號","OBJECTID":616908},"geometry":{"x":171769.31000000052,"y":2542772.8800000027}},{"attributes":{"ID":616936,"DIS_CODE":0,"TOWNNAME":"東區","LI":"復興里","LIN":"15鄰","STREET":"裕學路","SECT":" ","MAREA":" ","LANE":" ","ALLEY":" ","HOUSE_NO":"７７號","E_COORD97":171777.82999999999,"N_COORD97":2542773.5600000001,"ADDRESS":"裕學路７７號","OBJECTID":616909},"geometry":{"x":171777.83000000194,"y":2542773.5600000042}},{"attributes":{"ID":616937,"DIS_CODE":0,"TOWNNAME":"東區","LI":"復興里","LIN":"15鄰","STREET":"裕學路","SECT":" ","MAREA":" ","LANE":" ","ALLEY":" ","HOUSE_NO":"７５號","E_COORD97":171784.64999999999,"N_COORD97":2542774.9199999999,"ADDRESS":"裕學路７５號","OBJECTID":616910},"geometry":{"x":171784.6500000013,"y":2542774.9200000018}},{"attributes":{"ID":616938,"DIS_CODE":0,"TOWNNAME":"東區","LI":"復興里","LIN":"15鄰","STREET":"裕學路","SECT":" ","MAREA":" ","LANE":" ","ALLEY":" ","HOUSE_NO":"７３號","E_COORD97":171780.56,"N_COORD97":2542781.0499999998,"ADDRESS":"裕學路７３號","OBJECTID":616911},"geometry":{"x":171780.55999999959,"y":2542781.0500000026}},{"attributes":{"ID":616939,"DIS_CODE":0,"TOWNNAME":"東區","LI":"復興里","LIN":"15鄰","STREET":"裕學路","SECT":" ","MAREA":" ","LANE":" ","ALLEY":" ","HOUSE_NO":"７１號","E_COORD97":171780.56,"N_COORD97":2542791.9500000002,"ADDRESS":"裕學路７１號","OBJECTID":616912},"geometry":{"x":171780.55999999959,"y":2542791.9499999993}},{"attributes":{"ID":616940,"DIS_CODE":0,"TOWNNAME":"善化區","LI":"坐駕里","LIN":"2鄰","STREET":"光明路","SECT":" ","MAREA":" ","LANE":" ","ALLEY":" ","HOUSE_NO":"３２號","E_COORD97":177821.76000000001,"N_COORD97":2558994,"ADDRESS":"光明路３２號","OBJECTID":616913},"geometry":{"x":177821.76000000071,"y":2558994.0000000019}},{"attributes":{"ID":616941,"DIS_CODE":0,"TOWNNAME":"佳里區","LI":"六安里","LIN":"4鄰","STREET":"六安街","SECT":" ","MAREA":" ","LANE":" ","ALLEY":" ","HOUSE_NO":"８２號","E_COORD97":166160.10999999999,"N_COORD97":2563051.9700000002,"ADDRESS":"六安街８２號","OBJECTID":616914},"geometry":{"x":166160.1100000022,"y":2563051.9700000044}},{"attributes":{"ID":616942,"DIS_CODE":0,"TOWNNAME":"善化區","LI":"文昌里","LIN":"2鄰","STREET":"中興路","SECT":" ","MAREA":" ","LANE":" ","ALLEY":" ","HOUSE_NO":"１８３號","E_COORD97":177235.14999999999,"N_COORD97":2559041.1499999999,"ADDRESS":"中興路１８３號","OBJECTID":616915},"geometry":{"x":177235.1500000013,"y":2559041.1500000022}},{"attributes":{"ID":616943,"DIS_CODE":0,"TOWNNAME":"東區","LI":"復興里","LIN":"15鄰","STREET":"裕學路","SECT":" ","MAREA":" ","LANE":" ","ALLEY":" ","HOUSE_NO":"６９號","E_COORD97":171777.14999999999,"N_COORD97":2542802.8399999999,"ADDRESS":"裕學路６９號","OBJECTID":616916},"geometry":{"x":171777.15000000037,"y":2542802.8400000017}},{"attributes":{"ID":616944,"DIS_CODE":0,"TOWNNAME":"東區","LI":"復興里","LIN":"15鄰","STREET":"裕學路","SECT":" ","MAREA":" ","LANE":" ","ALLEY":" ","HOUSE_NO":"６７號","E_COORD97":171765.56,"N_COORD97":2542801.8199999998,"ADDRESS":"裕學路６７號","OBJECTID":616917},"geometry":{"x":171765.56000000145,"y":2542801.820000004}},{"attributes":{"ID":616945,"DIS_CODE":0,"TOWNNAME":"東區","LI":"復興里","LIN":"15鄰","STREET":"裕學路","SECT":" ","MAREA":" ","LANE":" ","ALLEY":" ","HOUSE_NO":"６５號","E_COORD97":171757.72,"N_COORD97":2542800.7999999998,"ADDRESS":"裕學路６５號","OBJECTID":616918},"geometry":{"x":171757.71999999974,"y":2542800.8000000007}},{"attributes":{"ID":616946,"DIS_CODE":0,"TOWNNAME":"東區","LI":"復興里","LIN":"15鄰","STREET":"裕學路","SECT":" ","MAREA":" ","LANE":" ","ALLEY":" ","HOUSE_NO":"６３號","E_COORD97":171750.56,"N_COORD97":2542800.7999999998,"ADDRESS":"裕學路６３號","OBJECTID":616919},"geometry":{"x":171750.56000000052,"y":2542800.8000000007}},{"attributes":{"ID":616947,"DIS_CODE":0,"TOWNNAME":"東區","LI":"復興里","LIN":"16鄰","STREET":"裕學路","SECT":" ","MAREA":" ","LANE":" ","ALLEY":" ","HOUSE_NO":"６１號","E_COORD97":171740.67999999999,"N_COORD97":2542801.8199999998,"ADDRESS":"裕學路６１號","OBJECTID":616920},"geometry":{"x":171740.6799999997,"y":2542801.820000004}},{"attributes":{"ID":616948,"DIS_CODE":0,"TOWNNAME":"東區","LI":"復興里","LIN":"16鄰","STREET":"裕學路","SECT":" ","MAREA":" ","LANE":" ","ALLEY":" ","HOUSE_NO":"５９號","E_COORD97":171735.22,"N_COORD97":2542800.7999999998,"ADDRESS":"裕學路５９號","OBJECTID":616921},"geometry":{"x":171735.21999999974,"y":2542800.8000000007}},{"attributes":{"ID":616949,"DIS_CODE":0,"TOWNNAME":"東區","LI":"復興里","LIN":"16鄰","STREET":"裕學路","SECT":" ","MAREA":" ","LANE":" ","ALLEY":" ","HOUSE_NO":"５７號","E_COORD97":171730.45000000001,"N_COORD97":2542801.48,"ADDRESS":"裕學路５７號","OBJECTID":616922},"geometry":{"x":171730.45000000112,"y":2542801.4800000023}},{"attributes":{"ID":616950,"DIS_CODE":0,"TOWNNAME":"東區","LI":"自強里","LIN":"8鄰","STREET":"中華東路","SECT":"二段","MAREA":" ","LANE":" ","ALLEY":" ","HOUSE_NO":"３３３號","E_COORD97":171051.62,"N_COORD97":2542446.1699999999,"ADDRESS":"中華東路二段３３３號","OBJECTID":616923},"geometry":{"x":171051.62000000011,"y":2542446.1699999999}},{"attributes":{"ID":616951,"DIS_CODE":0,"TOWNNAME":"東區","LI":"自強里","LIN":"8鄰","STREET":"中華東路","SECT":"二段","MAREA":" ","LANE":" ","ALLEY":" ","HOUSE_NO":"３３５號","E_COORD97":171049.04999999999,"N_COORD97":2542443.0099999998,"ADDRESS":"中華東路二段３３５號","OBJECTID":616924},"geometry":{"x":171049.05000000075,"y":2542443.0099999998}},{"attributes":{"ID":616952,"DIS_CODE":0,"TOWNNAME":"東區","LI":"自強里","LIN":"8鄰","STREET":"中華東路","SECT":"二段","MAREA":" ","LANE":" ","ALLEY":" ","HOUSE_NO":"３３７號","E_COORD97":171046.87,"N_COORD97":2542439.8399999999,"ADDRESS":"中華東路二段３３７號","OBJECTID":616925},"geometry":{"x":171046.86999999918,"y":2542439.8400000017}},{"attributes":{"ID":616953,"DIS_CODE":0,"TOWNNAME":"東區","LI":"自強里","LIN":"8鄰","STREET":"中華東路","SECT":"二段","MAREA":" ","LANE":" ","ALLEY":" ","HOUSE_NO":"３３９號","E_COORD97":171044.48999999999,"N_COORD97":2542436.2799999998,"ADDRESS":"中華東路二段３３９號","OBJECTID":616926},"geometry":{"x":171044.48999999929,"y":2542436.2800000012}},{"attributes":{"ID":616954,"DIS_CODE":0,"TOWNNAME":"東區","LI":"自強里","LIN":"8鄰","STREET":"中華東路","SECT":"二段","MAREA":" ","LANE":" ","ALLEY":" ","HOUSE_NO":"３４１號","E_COORD97":171041.92000000001,"N_COORD97":2542432.52,"ADDRESS":"中華東路二段３４１號","OBJECTID":616927},"geometry":{"x":171041.92000000086,"y":2542432.5199999996}},{"attributes":{"ID":616955,"DIS_CODE":0,"TOWNNAME":"東區","LI":"自強里","LIN":"8鄰","STREET":"中華東路","SECT":"二段","MAREA":" ","LANE":" ","ALLEY":" ","HOUSE_NO":"３４３號","E_COORD97":171038.95000000001,"N_COORD97":2542429.3599999999,"ADDRESS":"中華東路二段３４３號","OBJECTID":616928},"geometry":{"x":171038.95000000019,"y":2542429.3600000013}},{"attributes":{"ID":616956,"DIS_CODE":0,"TOWNNAME":"東區","LI":"自強里","LIN":"8鄰","STREET":"中華東路","SECT":"二段","MAREA":" ","LANE":" ","ALLEY":" ","HOUSE_NO":"３４５號","E_COORD97":171036.57000000001,"N_COORD97":2542426.5899999999,"ADDRESS":"中華東路二段３４５號","OBJECTID":616929},"geometry":{"x":171036.5700000003,"y":2542426.5900000036}},{"attributes":{"ID":616957,"DIS_CODE":0,"TOWNNAME":"東區","LI":"自強里","LIN":"8鄰","STREET":"中華東路","SECT":"二段","MAREA":" ","LANE":" ","ALLEY":" ","HOUSE_NO":"３４７號","E_COORD97":171034,"N_COORD97":2542422.8300000001,"ADDRESS":"中華東路二段３４７號","OBJECTID":616930},"geometry":{"x":171033.99999999907,"y":2542422.8300000019}},{"attributes":{"ID":616958,"DIS_CODE":0,"TOWNNAME":"東區","LI":"自強里","LIN":"8鄰","STREET":"中華東路","SECT":"二段","MAREA":" ","LANE":" ","ALLEY":" ","HOUSE_NO":"３４９號","E_COORD97":171032.01999999999,"N_COORD97":2542420.0699999998,"ADDRESS":"中華東路二段３４９號","OBJECTID":616931},"geometry":{"x":171032.02000000048,"y":2542420.0700000003}},{"attributes":{"ID":616959,"DIS_CODE":0,"TOWNNAME":"東區","LI":"自強里","LIN":"8鄰","STREET":"中華東路","SECT":"二段","MAREA":" ","LANE":" ","ALLEY":" ","HOUSE_NO":"３５１號","E_COORD97":171028.64999999999,"N_COORD97":2542416.2999999998,"ADDRESS":"中華東路二段３５１號","OBJECTID":616932},"geometry":{"x":171028.6500000013,"y":2542416.3000000026}},{"attributes":{"ID":616960,"DIS_CODE":0,"TOWNNAME":"東區","LI":"自強里","LIN":"8鄰","STREET":"中華東路","SECT":"二段","MAREA":" ","LANE":" ","ALLEY":" ","HOUSE_NO":"３５３號","E_COORD97":171026.26999999999,"N_COORD97":2542413.1400000001,"ADDRESS":"中華東路二段３５３號","OBJECTID":616933},"geometry":{"x":171026.26999999955,"y":2542413.1400000006}},{"attributes":{"ID":616961,"DIS_CODE":0,"TOWNNAME":"東區","LI":"自強里","LIN":"8鄰","STREET":"中華東路","SECT":"二段","MAREA":" ","LANE":" ","ALLEY":" ","HOUSE_NO":"３５５號","E_COORD97":171021.72,"N_COORD97":2542408.3999999999,"ADDRESS":"中華東路二段３５５號","OBJECTID":616934},"geometry":{"x":171021.71999999974,"y":2542408.4000000022}},{"attributes":{"ID":616962,"DIS_CODE":0,"TOWNNAME":"東區","LI":"自強里","LIN":"8鄰","STREET":"東門路","SECT":"三段","MAREA":" ","LANE":" ","ALLEY":" ","HOUSE_NO":"１３號","E_COORD97":171098.26000000001,"N_COORD97":2542396.1299999999,"ADDRESS":"東門路三段１３號","OBJECTID":616935},"geometry":{"x":171098.26000000164,"y":2542396.1300000008}},{"attributes":{"ID":616963,"DIS_CODE":0,"TOWNNAME":"東區","LI":"復興里","LIN":"16鄰","STREET":"裕學路","SECT":" ","MAREA":" ","LANE":" ","ALLEY":" ","HOUSE_NO":"５５號","E_COORD97":171726.01999999999,"N_COORD97":2542800.7999999998,"ADDRESS":"裕學路５５號","OBJECTID":616936},"geometry":{"x":171726.01999999955,"y":2542800.8000000007}},{"attributes":{"ID":616964,"DIS_CODE":0,"TOWNNAME":"善化區","LI":"小新里","LIN":"2鄰","STREET":"成功路","SECT":" ","MAREA":" ","LANE":" ","ALLEY":" ","HOUSE_NO":"１３９號","E_COORD97":179794.20999999999,"N_COORD97":2558640.25,"ADDRESS":"成功路１３９號","OBJECTID":616937},"geometry":{"x":179794.21000000089,"y":2558640.25}},{"attributes":{"ID":616965,"DIS_CODE":0,"TOWNNAME":"東區","LI":"自強里","LIN":"8鄰","STREET":"東門路","SECT":"三段","MAREA":" ","LANE":" ","ALLEY":" ","HOUSE_NO":"１３號地下一層","E_COORD97":171098.26000000001,"N_COORD97":2542396.1299999999,"ADDRESS":"東門路三段１３號地下一層","OBJECTID":616938},"geometry":{"x":171098.26000000164,"y":2542396.1300000008}},{"attributes":{"ID":616966,"DIS_CODE":0,"TOWNNAME":"東區","LI":"自強里","LIN":"8鄰","STREET":"東門路","SECT":"三段","MAREA":" ","LANE":" ","ALLEY":" ","HOUSE_NO":"１３號地下一層之１","E_COORD97":171098.26000000001,"N_COORD97":2542396.1299999999,"ADDRESS":"東門路三段１３號地下一層之１","OBJECTID":616939},"geometry":{"x":171098.26000000164,"y":2542396.1300000008}},{"attributes":{"ID":616967,"DIS_CODE":0,"TOWNNAME":"東區","LI":"自強里","LIN":"8鄰","STREET":"東門路","SECT":"三段","MAREA":" ","LANE":" ","ALLEY":" ","HOUSE_NO":"１３號地下二層","E_COORD97":171098.26000000001,"N_COORD97":2542396.1299999999,"ADDRESS":"東門路三段１３號地下二層","OBJECTID":616940},"geometry":{"x":171098.26000000164,"y":2542396.1300000008}},{"attributes":{"ID":616968,"DIS_CODE":0,"TOWNNAME":"東區","LI":"自強里","LIN":"8鄰","STREET":"東門路","SECT":"三段","MAREA":" ","LANE":" ","ALLEY":" ","HOUSE_NO":"１３號地下三層","E_COORD97":171098.26000000001,"N_COORD97":2542396.1299999999,"ADDRESS":"東門路三段１３號地下三層","OBJECTID":616941},"geometry":{"x":171098.26000000164,"y":2542396.1300000008}},{"attributes":{"ID":616969,"DIS_CODE":0,"TOWNNAME":"東區","LI":"自強里","LIN":"8鄰","STREET":"東門路","SECT":"三段","MAREA":" ","LANE":" ","ALLEY":" ","HOUSE_NO":"１５號","E_COORD97":171070.75,"N_COORD97":2542365.1800000002,"ADDRESS":"東門路三段１５號","OBJECTID":616942},"geometry":{"x":171070.75,"y":2542365.1800000016}},{"attributes":{"ID":616970,"DIS_CODE":0,"TOWNNAME":"善化區","LI":"小新里","LIN":"2鄰","STREET":"成功路","SECT":" ","MAREA":" ","LANE":" ","ALLEY":" ","HOUSE_NO":"１０９號","E_COORD97":179870.60000000001,"N_COORD97":2558619.5,"ADDRESS":"成功路１０９號","OBJECTID":616943},"geometry":{"x":179870.60000000056,"y":2558619.5}},{"attributes":{"ID":616971,"DIS_CODE":0,"TOWNNAME":"東區","LI":"自強里","LIN":"8鄰","STREET":"東門路","SECT":"三段","MAREA":" ","LANE":" ","ALLEY":" ","HOUSE_NO":"３１號地下一層","E_COORD97":171106.04000000001,"N_COORD97":2542333.8300000001,"ADDRESS":"東門路三段３１號地下一層","OBJECTID":616944},"geometry":{"x":171106.04000000004,"y":2542333.8300000038}},{"attributes":{"ID":616972,"DIS_CODE":0,"TOWNNAME":"東區","LI":"自強里","LIN":"8鄰","STREET":"東門路","SECT":"三段","MAREA":" ","LANE":" ","ALLEY":" ","HOUSE_NO":"３１號地下一層之１","E_COORD97":171106.04000000001,"N_COORD97":2542333.8300000001,"ADDRESS":"東門路三段３１號地下一層之１","OBJECTID":616945},"geometry":{"x":171106.04000000004,"y":2542333.8300000038}},{"attributes":{"ID":616973,"DIS_CODE":0,"TOWNNAME":"東區","LI":"自強里","LIN":"8鄰","STREET":"東門路","SECT":"三段","MAREA":" ","LANE":" ","ALLEY":" ","HOUSE_NO":"３１號地下一層之２","E_COORD97":171106.04000000001,"N_COORD97":2542333.8300000001,"ADDRESS":"東門路三段３１號地下一層之２","OBJECTID":616946},"geometry":{"x":171106.04000000004,"y":2542333.8300000038}},{"attributes":{"ID":616974,"DIS_CODE":0,"TOWNNAME":"東區","LI":"自強里","LIN":"8鄰","STREET":"東門路","SECT":"三段","MAREA":" ","LANE":" ","ALLEY":" ","HOUSE_NO":"３３號","E_COORD97":171118.23999999999,"N_COORD97":2542319.3999999999,"ADDRESS":"東門路三段３３號","OBJECTID":616947},"geometry":{"x":171118.24000000115,"y":2542319.4000000004}},{"attributes":{"ID":616975,"DIS_CODE":0,"TOWNNAME":"東區","LI":"自強里","LIN":"8鄰","STREET":"東門路","SECT":"三段","MAREA":" ","LANE":" ","ALLEY":" ","HOUSE_NO":"３號","E_COORD97":171032.20999999999,"N_COORD97":2542391.3900000001,"ADDRESS":"東門路三段３號","OBJECTID":616948},"geometry":{"x":171032.20999999996,"y":2542391.3900000043}},{"attributes":{"ID":616976,"DIS_CODE":0,"TOWNNAME":"東區","LI":"自強里","LIN":"8鄰","STREET":"東門路","SECT":"三段","MAREA":" ","LANE":" ","ALLEY":" ","HOUSE_NO":"３號之１","E_COORD97":171035.98000000001,"N_COORD97":2542388.4199999999,"ADDRESS":"東門路三段３號之１","OBJECTID":616949},"geometry":{"x":171035.98000000045,"y":2542388.4200000018}},{"attributes":{"ID":616977,"DIS_CODE":0,"TOWNNAME":"東區","LI":"自強里","LIN":"8鄰","STREET":"東門路","SECT":"三段","MAREA":" ","LANE":" ","ALLEY":" ","HOUSE_NO":"５號","E_COORD97":171039.34,"N_COORD97":2542385.8500000001,"ADDRESS":"東門路三段５號","OBJECTID":616950},"geometry":{"x":171039.33999999985,"y":2542385.8499999996}},{"attributes":{"ID":616978,"DIS_CODE":0,"TOWNNAME":"東區","LI":"自強里","LIN":"8鄰","STREET":"東門路","SECT":"三段","MAREA":" ","LANE":" ","ALLEY":" ","HOUSE_NO":"７號","E_COORD97":171043.10999999999,"N_COORD97":2542382.4900000002,"ADDRESS":"東門路三段７號","OBJECTID":616951},"geometry":{"x":171043.11000000034,"y":2542382.4900000002}},{"attributes":{"ID":616979,"DIS_CODE":0,"TOWNNAME":"東區","LI":"自強里","LIN":"8鄰","STREET":"東門路","SECT":"三段","MAREA":" ","LANE":" ","ALLEY":" ","HOUSE_NO":"９號","E_COORD97":171046.67000000001,"N_COORD97":2542379.7200000002,"ADDRESS":"東門路三段９號","OBJECTID":616952},"geometry":{"x":171046.67000000086,"y":2542379.7200000025}},{"attributes":{"ID":616980,"DIS_CODE":0,"TOWNNAME":"善化區","LI":"小新里","LIN":"2鄰","STREET":"成功路","SECT":" ","MAREA":" ","LANE":" ","ALLEY":" ","HOUSE_NO":"１１５號","E_COORD97":179854.10999999999,"N_COORD97":2558624.5,"ADDRESS":"成功路１１５號","OBJECTID":616953},"geometry":{"x":179854.11000000127,"y":2558624.5000000019}},{"attributes":{"ID":616981,"DIS_CODE":0,"TOWNNAME":"善化區","LI":"小新里","LIN":"2鄰","STREET":"成功路","SECT":" ","MAREA":" ","LANE":" ","ALLEY":" ","HOUSE_NO":"１１３號","E_COORD97":179860.79999999999,"N_COORD97":2558622.25,"ADDRESS":"成功路１１３號","OBJECTID":616954},"geometry":{"x":179860.80000000075,"y":2558622.2500000019}},{"attributes":{"ID":616982,"DIS_CODE":0,"TOWNNAME":"安南區","LI":"總頭里","LIN":"2鄰","STREET":"總安街","SECT":"二段","MAREA":" ","LANE":" ","ALLEY":" ","HOUSE_NO":"３４１號","E_COORD97":168347.95000000001,"N_COORD97":2550483.3399999999,"ADDRESS":"總安街二段３４１號","OBJECTID":616955},"geometry":{"x":168347.95000000112,"y":2550483.3399999999}},{"attributes":{"ID":616983,"DIS_CODE":0,"TOWNNAME":"東區","LI":"自強里","LIN":"8鄰","STREET":"東門路","SECT":"三段","MAREA":" ","LANE":" ","ALLEY":" ","HOUSE_NO":"１號","E_COORD97":171023.5,"N_COORD97":2542398.3100000001,"ADDRESS":"東門路三段１號","OBJECTID":616956},"geometry":{"x":171023.5,"y":2542398.3100000005}},{"attributes":{"ID":616984,"DIS_CODE":0,"TOWNNAME":"東區","LI":"自強里","LIN":"8鄰","STREET":"東門路","SECT":"三段","MAREA":" ","LANE":" ","ALLEY":" ","HOUSE_NO":"２７號","E_COORD97":171092.60000000001,"N_COORD97":2542348.8300000001,"ADDRESS":"東門路三段２７號","OBJECTID":616957},"geometry":{"x":171092.60000000056,"y":2542348.8300000019}},{"attributes":{"ID":616985,"DIS_CODE":0,"TOWNNAME":"東區","LI":"自強里","LIN":"8鄰","STREET":"東門路","SECT":"三段","MAREA":" ","LANE":" ","ALLEY":" ","HOUSE_NO":"３１號","E_COORD97":171106.04000000001,"N_COORD97":2542333.8300000001,"ADDRESS":"東門路三段３１號","OBJECTID":616958},"geometry":{"x":171106.04000000004,"y":2542333.8300000038}},{"attributes":{"ID":616986,"DIS_CODE":0,"TOWNNAME":"安南區","LI":"總頭里","LIN":"2鄰","STREET":"總安街","SECT":"二段","MAREA":" ","LANE":" ","ALLEY":" ","HOUSE_NO":"３０９號","E_COORD97":168433.79999999999,"N_COORD97":2550472.9300000002,"ADDRESS":"總安街二段３０９號","OBJECTID":616959},"geometry":{"x":168433.80000000075,"y":2550472.9300000034}},{"attributes":{"ID":616987,"DIS_CODE":0,"TOWNNAME":"麻豆區","LI":"東角里","LIN":"2鄰","STREET":"文昌路","SECT":" ","MAREA":" ","LANE":" ","ALLEY":" ","HOUSE_NO":"４號之１","E_COORD97":173437.29000000001,"N_COORD97":2564872.1200000001,"ADDRESS":"文昌路４號之１","OBJECTID":616960},"geometry":{"x":173437.29000000004,"y":2564872.1200000048}},{"attributes":{"ID":616988,"DIS_CODE":0,"TOWNNAME":"東區","LI":"成大里","LIN":"31鄰","STREET":"北門路","SECT":"二段","MAREA":" ","LANE":" ","ALLEY":" ","HOUSE_NO":"４號","E_COORD97":169258.76000000001,"N_COORD97":2544190.21,"ADDRESS":"北門路二段４號","OBJECTID":616961},"geometry":{"x":169258.75999999978,"y":2544190.2100000028}},{"attributes":{"ID":616989,"DIS_CODE":0,"TOWNNAME":"仁德區","LI":"土庫里","LIN":"2鄰","STREET":"太乙路","SECT":" ","MAREA":" ","LANE":" ","ALLEY":" ","HOUSE_NO":"５６號","E_COORD97":173325.34,"N_COORD97":2542554,"ADDRESS":"太乙路５６號","OBJECTID":616962},"geometry":{"x":173325.34000000171,"y":2542554.0000000019}},{"attributes":{"ID":616990,"DIS_CODE":0,"TOWNNAME":"仁德區","LI":"大甲里","LIN":"2鄰","STREET":"行大一街","SECT":" ","MAREA":" ","LANE":" ","ALLEY":" ","HOUSE_NO":"１７９號","E_COORD97":169950.45000000001,"N_COORD97":2534969.7400000002,"ADDRESS":"行大一街１７９號","OBJECTID":616963},"geometry":{"x":169950.45000000112,"y":2534969.7400000002}},{"attributes":{"ID":616991,"DIS_CODE":0,"TOWNNAME":"仁德區","LI":"土庫里","LIN":"2鄰","STREET":"大順路","SECT":" ","MAREA":" ","LANE":" ","ALLEY":" ","HOUSE_NO":"５０號","E_COORD97":173383.85000000001,"N_COORD97":2543001.25,"ADDRESS":"大順路５０號","OBJECTID":616964},"geometry":{"x":173383.84999999963,"y":2543001.25}},{"attributes":{"ID":616992,"DIS_CODE":0,"TOWNNAME":"仁德區","LI":"土庫里","LIN":"2鄰","STREET":"太乙九街","SECT":" ","MAREA":" ","LANE":" ","ALLEY":" ","HOUSE_NO":"１６號","E_COORD97":173342.04000000001,"N_COORD97":2542658.75,"ADDRESS":"太乙九街１６號","OBJECTID":616965},"geometry":{"x":173342.04000000004,"y":2542658.75}},{"attributes":{"ID":616993,"DIS_CODE":0,"TOWNNAME":"仁德區","LI":"土庫里","LIN":"2鄰","STREET":"大順路","SECT":" ","MAREA":" ","LANE":" ","ALLEY":" ","HOUSE_NO":"１３１號","E_COORD97":173282.57000000001,"N_COORD97":2542957.9900000002,"ADDRESS":"大順路１３１號","OBJECTID":616966},"geometry":{"x":173282.57000000123,"y":2542957.9900000021}},{"attributes":{"ID":616994,"DIS_CODE":0,"TOWNNAME":"仁德區","LI":"土庫里","LIN":"2鄰","STREET":"大順路","SECT":" ","MAREA":" ","LANE":" ","ALLEY":" ","HOUSE_NO":"２２號","E_COORD97":173720.04999999999,"N_COORD97":2542983.7400000002,"ADDRESS":"大順路２２號","OBJECTID":616967},"geometry":{"x":173720.04999999981,"y":2542983.7400000002}},{"attributes":{"ID":616995,"DIS_CODE":0,"TOWNNAME":"仁德區","LI":"土庫里","LIN":"2鄰","STREET":"大順路","SECT":" ","MAREA":" ","LANE":" ","ALLEY":" ","HOUSE_NO":"５７號","E_COORD97":173698.87,"N_COORD97":2542954.9900000002,"ADDRESS":"大順路５７號","OBJECTID":616968},"geometry":{"x":173698.87000000104,"y":2542954.9900000002}},{"attributes":{"ID":616996,"DIS_CODE":0,"TOWNNAME":"仁德區","LI":"土庫里","LIN":"2鄰","STREET":"太乙八街","SECT":" ","MAREA":" ","LANE":" ","ALLEY":" ","HOUSE_NO":"８之１號","E_COORD97":173509.25,"N_COORD97":2542581.2999999998,"ADDRESS":"太乙八街８之１號","OBJECTID":616969},"geometry":{"x":173509.25000000093,"y":2542581.3000000007}},{"attributes":{"ID":616997,"DIS_CODE":0,"TOWNNAME":"仁德區","LI":"土庫里","LIN":"2鄰","STREET":"大順路","SECT":" ","MAREA":" ","LANE":" ","ALLEY":" ","HOUSE_NO":"７８號","E_COORD97":173266.67999999999,"N_COORD97":2542993.25,"ADDRESS":"大順路７８號","OBJECTID":616970},"geometry":{"x":173266.6799999997,"y":2542993.2500000019}},{"attributes":{"ID":616998,"DIS_CODE":0,"TOWNNAME":"仁德區","LI":"大甲里","LIN":"2鄰","STREET":"行大一街","SECT":" ","MAREA":" ","LANE":" ","ALLEY":" ","HOUSE_NO":"２２５號","E_COORD97":169831.56,"N_COORD97":2534997.7400000002,"ADDRESS":"行大一街２２５號","OBJECTID":616971},"geometry":{"x":169831.56000000052,"y":2534997.7400000039}},{"attributes":{"ID":616999,"DIS_CODE":0,"TOWNNAME":"仁德區","LI":"土庫里","LIN":"2鄰","STREET":"太乙八街","SECT":" ","MAREA":" ","LANE":" ","ALLEY":" ","HOUSE_NO":"７號","E_COORD97":173491.79000000001,"N_COORD97":2542611.2599999998,"ADDRESS":"太乙八街７號","OBJECTID":616972},"geometry":{"x":173491.78999999911,"y":2542611.2599999998}},{"attributes":{"ID":617000,"DIS_CODE":0,"TOWNNAME":"仁德區","LI":"土庫里","LIN":"2鄰","STREET":"大順路","SECT":" ","MAREA":" ","LANE":" ","ALLEY":" ","HOUSE_NO":"５９號","E_COORD97":173666.89000000001,"N_COORD97":2542949.7400000002,"ADDRESS":"大順路５９號","OBJECTID":616973},"geometry":{"x":173666.88999999966,"y":2542949.7400000021}},{"attributes":{"ID":617001,"DIS_CODE":0,"TOWNNAME":"仁德區","LI":"土庫里","LIN":"2鄰","STREET":"大發路","SECT":" ","MAREA":" ","LANE":" ","ALLEY":" ","HOUSE_NO":"１２８號","E_COORD97":173257.42000000001,"N_COORD97":2542967.2599999998,"ADDRESS":"大發路１２８號","OBJECTID":616974},"geometry":{"x":173257.42000000086,"y":2542967.2599999998}},{"attributes":{"ID":617002,"DIS_CODE":0,"TOWNNAME":"仁德區","LI":"土庫里","LIN":"2鄰","STREET":"大順路","SECT":" ","MAREA":" ","LANE":" ","ALLEY":" ","HOUSE_NO":"７１號","E_COORD97":173609.76000000001,"N_COORD97":2542957.7400000002,"ADDRESS":"大順路７１號","OBJECTID":616975},"geometry":{"x":173609.75999999978,"y":2542957.7400000002}},{"attributes":{"ID":617003,"DIS_CODE":0,"TOWNNAME":"仁德區","LI":"一甲里","LIN":"2鄰","STREET":"中正路","SECT":"三段","MAREA":" ","LANE":" ","ALLEY":" ","HOUSE_NO":"１９３號","E_COORD97":173494.17999999999,"N_COORD97":2541879.0299999998,"ADDRESS":"中正路三段１９３號","OBJECTID":616976},"geometry":{"x":173494.18000000063,"y":2541879.0299999993}},{"attributes":{"ID":617004,"DIS_CODE":0,"TOWNNAME":"仁德區","LI":"土庫里","LIN":"2鄰","STREET":"大順路","SECT":" ","MAREA":" ","LANE":" ","ALLEY":" ","HOUSE_NO":"３６號","E_COORD97":173625.67999999999,"N_COORD97":2542982.4900000002,"ADDRESS":"大順路３６號","OBJECTID":616977},"geometry":{"x":173625.6799999997,"y":2542982.4900000002}},{"attributes":{"ID":617005,"DIS_CODE":0,"TOWNNAME":"仁德區","LI":"土庫里","LIN":"2鄰","STREET":"太乙九街","SECT":" ","MAREA":" ","LANE":" ","ALLEY":" ","HOUSE_NO":"１５號","E_COORD97":173328.12,"N_COORD97":2542664,"ADDRESS":"太乙九街１５號","OBJECTID":616978},"geometry":{"x":173328.12000000011,"y":2542664}},{"attributes":{"ID":617006,"DIS_CODE":0,"TOWNNAME":"仁德區","LI":"一甲里","LIN":"2鄰","STREET":"中正路","SECT":"三段","MAREA":" ","LANE":" ","ALLEY":" ","HOUSE_NO":"１９１號","E_COORD97":173492.23000000001,"N_COORD97":2541875.0299999998,"ADDRESS":"中正路三段１９１號","OBJECTID":616979},"geometry":{"x":173492.23000000045,"y":2541875.0300000012}},{"attributes":{"ID":617007,"DIS_CODE":0,"TOWNNAME":"仁德區","LI":"一甲里","LIN":"2鄰","STREET":"中正路","SECT":"三段","MAREA":" ","LANE":" ","ALLEY":" ","HOUSE_NO":"１８９號","E_COORD97":173490.54000000001,"N_COORD97":2541870.2799999998,"ADDRESS":"中正路三段１８９號","OBJECTID":616980},"geometry":{"x":173490.54000000097,"y":2541870.2800000012}},{"attributes":{"ID":617008,"DIS_CODE":0,"TOWNNAME":"仁德區","LI":"土庫里","LIN":"2鄰","STREET":"太乙八街","SECT":" ","MAREA":" ","LANE":" ","ALLEY":" ","HOUSE_NO":"１７號","E_COORD97":173495.04000000001,"N_COORD97":2542641.5,"ADDRESS":"太乙八街１７號","OBJECTID":616981},"geometry":{"x":173495.04000000004,"y":2542641.5000000019}},{"attributes":{"ID":617009,"DIS_CODE":0,"TOWNNAME":"仁德區","LI":"土庫里","LIN":"2鄰","STREET":"太乙九街","SECT":" ","MAREA":" ","LANE":" ","ALLEY":" ","HOUSE_NO":"６號","E_COORD97":173331.23000000001,"N_COORD97":2542590.7599999998,"ADDRESS":"太乙九街６號","OBJECTID":616982},"geometry":{"x":173331.23000000045,"y":2542590.7599999998}},{"attributes":{"ID":617010,"DIS_CODE":0,"TOWNNAME":"仁德區","LI":"土庫里","LIN":"2鄰","STREET":"太乙九街","SECT":" ","MAREA":" ","LANE":" ","ALLEY":" ","HOUSE_NO":"１４號","E_COORD97":173340.51000000001,"N_COORD97":2542647.25,"ADDRESS":"太乙九街１４號","OBJECTID":616983},"geometry":{"x":173340.50999999978,"y":2542647.2500000019}},{"attributes":{"ID":617011,"DIS_CODE":0,"TOWNNAME":"仁德區","LI":"大甲里","LIN":"2鄰","STREET":"行大一街","SECT":" ","MAREA":" ","LANE":" ","ALLEY":" ","HOUSE_NO":"１９１號","E_COORD97":169927.13,"N_COORD97":2534976.7400000002,"ADDRESS":"行大一街１９１號","OBJECTID":616984},"geometry":{"x":169927.12999999989,"y":2534976.7400000002}},{"attributes":{"ID":617012,"DIS_CODE":0,"TOWNNAME":"仁德區","LI":"土庫里","LIN":"2鄰","STREET":"大順路","SECT":" ","MAREA":" ","LANE":" ","ALLEY":" ","HOUSE_NO":"７７號","E_COORD97":173590.17121100001,"N_COORD97":2542938.3942999998,"ADDRESS":"大順路７７號","OBJECTID":616985},"geometry":{"x":173590.17121100053,"y":2542938.3943019994}},{"attributes":{"ID":617013,"DIS_CODE":0,"TOWNNAME":"東區","LI":"成大里","LIN":"31鄰","STREET":"北門路","SECT":"二段","MAREA":" ","LANE":" ","ALLEY":" ","HOUSE_NO":"８號","E_COORD97":169277.26000000001,"N_COORD97":2544239.29,"ADDRESS":"北門路二段８號","OBJECTID":616986},"geometry":{"x":169277.25999999978,"y":2544239.290000001}},{"attributes":{"ID":617014,"DIS_CODE":0,"TOWNNAME":"仁德區","LI":"土庫里","LIN":"2鄰","STREET":"太乙八街","SECT":" ","MAREA":" ","LANE":" ","ALLEY":" ","HOUSE_NO":"１６號","E_COORD97":173512.89999999999,"N_COORD97":2542623.0099999998,"ADDRESS":"太乙八街１６號","OBJECTID":616987},"geometry":{"x":173512.90000000037,"y":2542623.0099999998}},{"attributes":{"ID":617015,"DIS_CODE":0,"TOWNNAME":"仁德區","LI":"土庫里","LIN":"2鄰","STREET":"太乙八街","SECT":" ","MAREA":" ","LANE":" ","ALLEY":" ","HOUSE_NO":"５號","E_COORD97":173491.39000000001,"N_COORD97":2542603.5099999998,"ADDRESS":"太乙八街５號","OBJECTID":616988},"geometry":{"x":173491.3900000006,"y":2542603.5100000035}},{"attributes":{"ID":617016,"DIS_CODE":0,"TOWNNAME":"仁德區","LI":"土庫里","LIN":"2鄰","STREET":"太乙九街","SECT":" ","MAREA":" ","LANE":" ","ALLEY":" ","HOUSE_NO":"１０號","E_COORD97":173337.34,"N_COORD97":2542628,"ADDRESS":"太乙九街１０號","OBJECTID":616989},"geometry":{"x":173337.34000000078,"y":2542628.0000000019}},{"attributes":{"ID":617017,"DIS_CODE":0,"TOWNNAME":"仁德區","LI":"一甲里","LIN":"2鄰","STREET":"中正路","SECT":"三段","MAREA":" ","LANE":" ","ALLEY":" ","HOUSE_NO":"１８７號","E_COORD97":173488.51000000001,"N_COORD97":2541865.5299999998,"ADDRESS":"中正路三段１８７號","OBJECTID":616990},"geometry":{"x":173488.51000000164,"y":2541865.5299999993}},{"attributes":{"ID":617018,"DIS_CODE":0,"TOWNNAME":"仁德區","LI":"土庫里","LIN":"2鄰","STREET":"大順路","SECT":" ","MAREA":" ","LANE":" ","ALLEY":" ","HOUSE_NO":"５６號","E_COORD97":173355.73999999999,"N_COORD97":2542991.25,"ADDRESS":"大順路５６號","OBJECTID":616991},"geometry":{"x":173355.74000000115,"y":2542991.25}},{"attributes":{"ID":617019,"DIS_CODE":0,"TOWNNAME":"仁德區","LI":"土庫里","LIN":"2鄰","STREET":"太乙八街","SECT":" ","MAREA":" ","LANE":" ","ALLEY":" ","HOUSE_NO":"１０號","E_COORD97":173508.57000000001,"N_COORD97":2542590.7599999998,"ADDRESS":"太乙八街１０號","OBJECTID":616992},"geometry":{"x":173508.5700000003,"y":2542590.7599999998}},{"attributes":{"ID":617020,"DIS_CODE":0,"TOWNNAME":"仁德區","LI":"土庫里","LIN":"2鄰","STREET":"太乙八街","SECT":" ","MAREA":" ","LANE":" ","ALLEY":" ","HOUSE_NO":"９號","E_COORD97":173492.04000000001,"N_COORD97":2542618.0099999998,"ADDRESS":"太乙八街９號","OBJECTID":616993},"geometry":{"x":173492.04000000097,"y":2542618.0100000016}},{"attributes":{"ID":617021,"DIS_CODE":0,"TOWNNAME":"仁德區","LI":"土庫里","LIN":"2鄰","STREET":"太乙八街","SECT":" ","MAREA":" ","LANE":" ","ALLEY":" ","HOUSE_NO":"１２號","E_COORD97":173508.23000000001,"N_COORD97":2542602.7599999998,"ADDRESS":"太乙八街１２號","OBJECTID":616994},"geometry":{"x":173508.23000000138,"y":2542602.7600000016}},{"attributes":{"ID":617022,"DIS_CODE":0,"TOWNNAME":"仁德區","LI":"土庫里","LIN":"2鄰","STREET":"太乙十街","SECT":" ","MAREA":" ","LANE":" ","ALLEY":" ","HOUSE_NO":"８號","E_COORD97":173266.64999999999,"N_COORD97":2542603.5099999998,"ADDRESS":"太乙十街８號","OBJECTID":616995},"geometry":{"x":173266.6500000013,"y":2542603.5100000035}},{"attributes":{"ID":617023,"DIS_CODE":0,"TOWNNAME":"仁德區","LI":"仁義里","LIN":"2鄰","STREET":"中山路","SECT":" ","MAREA":" ","LANE":" ","ALLEY":" ","HOUSE_NO":"３２５號","E_COORD97":174033.54000000001,"N_COORD97":2541224.2400000002,"ADDRESS":"中山路３２５號","OBJECTID":616996},"geometry":{"x":174033.54000000004,"y":2541224.2400000002}},{"attributes":{"ID":617024,"DIS_CODE":0,"TOWNNAME":"仁德區","LI":"土庫里","LIN":"2鄰","STREET":"太乙八街","SECT":" ","MAREA":" ","LANE":" ","ALLEY":" ","HOUSE_NO":"１１號","E_COORD97":173493.64000000001,"N_COORD97":2542623.0099999998,"ADDRESS":"太乙八街１１號","OBJECTID":616997},"geometry":{"x":173493.63999999966,"y":2542623.0099999998}},{"attributes":{"ID":617025,"DIS_CODE":0,"TOWNNAME":"佳里區","LI":"六安里","LIN":"6鄰","STREET":"六安街","SECT":" ","MAREA":" ","LANE":" ","ALLEY":" ","HOUSE_NO":"４９號","E_COORD97":166143.01000000001,"N_COORD97":2562935.3199999998,"ADDRESS":"六安街４９號","OBJECTID":616998},"geometry":{"x":166143.00999999978,"y":2562935.3200000022}},{"attributes":{"ID":617026,"DIS_CODE":0,"TOWNNAME":"東區","LI":"成大里","LIN":"29鄰","STREET":"大學路","SECT":"西段","MAREA":" ","LANE":" ","ALLEY":" ","HOUSE_NO":"３５號","E_COORD97":169771.47,"N_COORD97":2544084.2799999998,"ADDRESS":"大學路西段３５號","OBJECTID":616999},"geometry":{"x":169771.47000000067,"y":2544084.2800000012}},{"attributes":{"ID":617027,"DIS_CODE":0,"TOWNNAME":"仁德區","LI":"仁義里","LIN":"2鄰","STREET":"中山路","SECT":" ","MAREA":" ","LANE":" ","ALLEY":" ","HOUSE_NO":"３１９號","E_COORD97":174046.45999999999,"N_COORD97":2541222.7400000002,"ADDRESS":"中山路３１９號","OBJECTID":617000},"geometry":{"x":174046.45999999996,"y":2541222.7400000021}}]}