{"displayFieldName":"TOWNNAME","fieldAliases":{"ID":"ID","DIS_CODE":"DIS_CODE","TOWNNAME":"TOWNNAME","LI":"LI","LIN":"LIN","STREET":"STREET","SECT":"SECT","MAREA":"MAREA","LANE":"LANE","ALLEY":"ALLEY","HOUSE_NO":"HOUSE_NO","E_COORD97":"E_COORD97","N_COORD97":"N_COORD97","ADDRESS":"ADDRESS","OBJECTID":"OBJECTID"},"geometryType":"esriGeometryPoint","spatialReference":{"wkid":102443,"latestWkid":3826},"fields":[{"name":"ID","type":"esriFieldTypeDouble","alias":"ID"},{"name":"DIS_CODE","type":"esriFieldTypeInteger","alias":"DIS_CODE"},{"name":"TOWNNAME","type":"esriFieldTypeString","alias":"TOWNNAME","length":8},{"name":"LI","type":"esriFieldTypeString","alias":"LI","length":8},{"name":"LIN","type":"esriFieldTypeString","alias":"LIN","length":12},{"name":"STREET","type":"esriFieldTypeString","alias":"STREET","length":20},{"name":"SECT","type":"esriFieldTypeString","alias":"SECT","length":8},{"name":"MAREA","type":"esriFieldTypeString","alias":"MAREA","length":12},{"name":"LANE","type":"esriFieldTypeString","alias":"LANE","length":10},{"name":"ALLEY","type":"esriFieldTypeString","alias":"ALLEY","length":10},{"name":"HOUSE_NO","type":"esriFieldTypeString","alias":"HOUSE_NO","length":20},{"name":"E_COORD97","type":"esriFieldTypeDouble","alias":"E_COORD97"},{"name":"N_COORD97","type":"esriFieldTypeDouble","alias":"N_COORD97"},{"name":"ADDRESS","type":"esriFieldTypeString","alias":"ADDRESS","length":50},{"name":"OBJECTID","type":"esriFieldTypeOID","alias":"OBJECTID"}],"features":[{"attributes":{"ID":625828,"DIS_CODE":0,"TOWNNAME":"新化區","LI":"太平里","LIN":"4鄰","STREET":"中正路","SECT":" ","MAREA":" ","LANE":" ","ALLEY":" ","HOUSE_NO":"５７８號四樓之８","E_COORD97":178895.87,"N_COORD97":2549000.2599999998,"ADDRESS":"中正路５７８號四樓之８","OBJECTID":625801},"geometry":{"x":178895.87000000104,"y":2549000.2600000016}},{"attributes":{"ID":625829,"DIS_CODE":0,"TOWNNAME":"新化區","LI":"北勢里","LIN":"8鄰","STREET":"永新路","SECT":" ","MAREA":" ","LANE":" ","ALLEY":" ","HOUSE_NO":"１３號三樓之１","E_COORD97":177802.29999999999,"N_COORD97":2550963.2999999998,"ADDRESS":"永新路１３號三樓之１","OBJECTID":625802},"geometry":{"x":177802.29999999981,"y":2550963.3000000045}},{"attributes":{"ID":625830,"DIS_CODE":0,"TOWNNAME":"新化區","LI":"太平里","LIN":"4鄰","STREET":"中正路","SECT":" ","MAREA":" ","LANE":" ","ALLEY":" ","HOUSE_NO":"５７８號九樓之１","E_COORD97":178895.84,"N_COORD97":2549000.2599999998,"ADDRESS":"中正路５７８號九樓之１","OBJECTID":625803},"geometry":{"x":178895.84000000078,"y":2549000.2600000016}},{"attributes":{"ID":625831,"DIS_CODE":0,"TOWNNAME":"新化區","LI":"太平里","LIN":"4鄰","STREET":"中正路","SECT":" ","MAREA":" ","LANE":" ","ALLEY":" ","HOUSE_NO":"５７８號十二樓之９","E_COORD97":178896.10000000001,"N_COORD97":2549000.2599999998,"ADDRESS":"中正路５７８號十二樓之９","OBJECTID":625804},"geometry":{"x":178896.10000000056,"y":2549000.2600000016}},{"attributes":{"ID":625832,"DIS_CODE":0,"TOWNNAME":"新化區","LI":"太平里","LIN":"4鄰","STREET":"中正路","SECT":" ","MAREA":" ","LANE":" ","ALLEY":" ","HOUSE_NO":"５７８號十一樓之９","E_COORD97":178896.10000000001,"N_COORD97":2549000.2599999998,"ADDRESS":"中正路５７８號十一樓之９","OBJECTID":625805},"geometry":{"x":178896.10000000056,"y":2549000.2600000016}},{"attributes":{"ID":625833,"DIS_CODE":0,"TOWNNAME":"新化區","LI":"太平里","LIN":"4鄰","STREET":"中正路","SECT":" ","MAREA":" ","LANE":" ","ALLEY":" ","HOUSE_NO":"５７８號三樓之１","E_COORD97":178895.84,"N_COORD97":2549000.2599999998,"ADDRESS":"中正路５７８號三樓之１","OBJECTID":625806},"geometry":{"x":178895.84000000078,"y":2549000.2600000016}},{"attributes":{"ID":625834,"DIS_CODE":0,"TOWNNAME":"新化區","LI":"太平里","LIN":"4鄰","STREET":"中正路","SECT":" ","MAREA":" ","LANE":" ","ALLEY":" ","HOUSE_NO":"５７８號七樓之２","E_COORD97":178895.85999999999,"N_COORD97":2549000.2599999998,"ADDRESS":"中正路５７８號七樓之２","OBJECTID":625807},"geometry":{"x":178895.8599999994,"y":2549000.2600000016}},{"attributes":{"ID":625835,"DIS_CODE":0,"TOWNNAME":"新化區","LI":"太平里","LIN":"4鄰","STREET":"中正路","SECT":" ","MAREA":" ","LANE":" ","ALLEY":" ","HOUSE_NO":"５７８號十樓之３","E_COORD97":178895.85999999999,"N_COORD97":2549000.2599999998,"ADDRESS":"中正路５７８號十樓之３","OBJECTID":625808},"geometry":{"x":178895.8599999994,"y":2549000.2600000016}},{"attributes":{"ID":625836,"DIS_CODE":0,"TOWNNAME":"新化區","LI":"太平里","LIN":"4鄰","STREET":"中正路","SECT":" ","MAREA":" ","LANE":" ","ALLEY":" ","HOUSE_NO":"５７８號九樓之８","E_COORD97":178895.87,"N_COORD97":2549000.2599999998,"ADDRESS":"中正路５７８號九樓之８","OBJECTID":625809},"geometry":{"x":178895.87000000104,"y":2549000.2600000016}},{"attributes":{"ID":625837,"DIS_CODE":0,"TOWNNAME":"新化區","LI":"太平里","LIN":"4鄰","STREET":"中正路","SECT":" ","MAREA":" ","LANE":" ","ALLEY":" ","HOUSE_NO":"５７８號八樓之８","E_COORD97":178895.87,"N_COORD97":2549000.2599999998,"ADDRESS":"中正路５７８號八樓之８","OBJECTID":625810},"geometry":{"x":178895.87000000104,"y":2549000.2600000016}},{"attributes":{"ID":625838,"DIS_CODE":0,"TOWNNAME":"新化區","LI":"太平里","LIN":"4鄰","STREET":"中正路","SECT":" ","MAREA":" ","LANE":" ","ALLEY":" ","HOUSE_NO":"５７８號六樓之３","E_COORD97":178895.85999999999,"N_COORD97":2549000.2599999998,"ADDRESS":"中正路５７８號六樓之３","OBJECTID":625811},"geometry":{"x":178895.8599999994,"y":2549000.2600000016}},{"attributes":{"ID":625839,"DIS_CODE":0,"TOWNNAME":"新化區","LI":"太平里","LIN":"4鄰","STREET":"中正路","SECT":" ","MAREA":" ","LANE":" ","ALLEY":" ","HOUSE_NO":"５７８號五樓之５","E_COORD97":178895.87,"N_COORD97":2549000.2599999998,"ADDRESS":"中正路５７８號五樓之５","OBJECTID":625812},"geometry":{"x":178895.87000000104,"y":2549000.2600000016}},{"attributes":{"ID":625840,"DIS_CODE":0,"TOWNNAME":"新化區","LI":"太平里","LIN":"4鄰","STREET":"中正路","SECT":" ","MAREA":" ","LANE":" ","ALLEY":" ","HOUSE_NO":"５７８號四樓之１","E_COORD97":178895.84,"N_COORD97":2549000.2599999998,"ADDRESS":"中正路５７８號四樓之１","OBJECTID":625813},"geometry":{"x":178895.84000000078,"y":2549000.2600000016}},{"attributes":{"ID":625841,"DIS_CODE":0,"TOWNNAME":"新化區","LI":"太平里","LIN":"4鄰","STREET":"中正路","SECT":" ","MAREA":" ","LANE":" ","ALLEY":" ","HOUSE_NO":"５７８號十一樓之２","E_COORD97":178896.10999999999,"N_COORD97":2549000.2599999998,"ADDRESS":"中正路５７８號十一樓之２","OBJECTID":625814},"geometry":{"x":178896.1100000022,"y":2549000.2600000016}},{"attributes":{"ID":625842,"DIS_CODE":0,"TOWNNAME":"新化區","LI":"太平里","LIN":"4鄰","STREET":"中正路","SECT":" ","MAREA":" ","LANE":" ","ALLEY":" ","HOUSE_NO":"５７８號十二樓之６","E_COORD97":178896.10999999999,"N_COORD97":2549000.2599999998,"ADDRESS":"中正路５７８號十二樓之６","OBJECTID":625815},"geometry":{"x":178896.1100000022,"y":2549000.2600000016}},{"attributes":{"ID":625843,"DIS_CODE":0,"TOWNNAME":"新化區","LI":"太平里","LIN":"4鄰","STREET":"中正路","SECT":" ","MAREA":" ","LANE":" ","ALLEY":" ","HOUSE_NO":"５７８號九樓之９","E_COORD97":178895.85000000001,"N_COORD97":2549000.2599999998,"ADDRESS":"中正路５７８號九樓之９","OBJECTID":625816},"geometry":{"x":178895.85000000056,"y":2549000.2600000016}},{"attributes":{"ID":625844,"DIS_CODE":0,"TOWNNAME":"新化區","LI":"太平里","LIN":"4鄰","STREET":"中正路","SECT":" ","MAREA":" ","LANE":" ","ALLEY":" ","HOUSE_NO":"５７８號七樓之８","E_COORD97":178895.87,"N_COORD97":2549000.2599999998,"ADDRESS":"中正路５７８號七樓之８","OBJECTID":625817},"geometry":{"x":178895.87000000104,"y":2549000.2600000016}},{"attributes":{"ID":625845,"DIS_CODE":0,"TOWNNAME":"新化區","LI":"太平里","LIN":"4鄰","STREET":"中正路","SECT":" ","MAREA":" ","LANE":" ","ALLEY":" ","HOUSE_NO":"５７８號十一樓之７","E_COORD97":178896.10000000001,"N_COORD97":2549000.2599999998,"ADDRESS":"中正路５７８號十一樓之７","OBJECTID":625818},"geometry":{"x":178896.10000000056,"y":2549000.2600000016}},{"attributes":{"ID":625846,"DIS_CODE":0,"TOWNNAME":"新化區","LI":"太平里","LIN":"4鄰","STREET":"中正路","SECT":" ","MAREA":" ","LANE":" ","ALLEY":" ","HOUSE_NO":"５７８號八樓之７","E_COORD97":178895.85000000001,"N_COORD97":2549000.2599999998,"ADDRESS":"中正路５７８號八樓之７","OBJECTID":625819},"geometry":{"x":178895.85000000056,"y":2549000.2600000016}},{"attributes":{"ID":625847,"DIS_CODE":0,"TOWNNAME":"新化區","LI":"太平里","LIN":"4鄰","STREET":"中正路","SECT":" ","MAREA":" ","LANE":" ","ALLEY":" ","HOUSE_NO":"５７８號四樓之６","E_COORD97":178895.85999999999,"N_COORD97":2549000.2599999998,"ADDRESS":"中正路５７８號四樓之６","OBJECTID":625820},"geometry":{"x":178895.8599999994,"y":2549000.2600000016}},{"attributes":{"ID":625848,"DIS_CODE":0,"TOWNNAME":"新化區","LI":"太平里","LIN":"4鄰","STREET":"中正路","SECT":" ","MAREA":" ","LANE":" ","ALLEY":" ","HOUSE_NO":"５７８號七樓之９","E_COORD97":178895.85000000001,"N_COORD97":2549000.2599999998,"ADDRESS":"中正路５７８號七樓之９","OBJECTID":625821},"geometry":{"x":178895.85000000056,"y":2549000.2600000016}},{"attributes":{"ID":625849,"DIS_CODE":0,"TOWNNAME":"新化區","LI":"太平里","LIN":"4鄰","STREET":"中正路","SECT":" ","MAREA":" ","LANE":" ","ALLEY":" ","HOUSE_NO":"５７８號十二樓之５","E_COORD97":178896.12,"N_COORD97":2549000.2599999998,"ADDRESS":"中正路５７８號十二樓之５","OBJECTID":625822},"geometry":{"x":178896.12000000104,"y":2549000.2600000016}},{"attributes":{"ID":625850,"DIS_CODE":0,"TOWNNAME":"新化區","LI":"太平里","LIN":"4鄰","STREET":"中正路","SECT":" ","MAREA":" ","LANE":" ","ALLEY":" ","HOUSE_NO":"５７８號九樓之３","E_COORD97":178895.85999999999,"N_COORD97":2549000.2599999998,"ADDRESS":"中正路５７８號九樓之３","OBJECTID":625823},"geometry":{"x":178895.8599999994,"y":2549000.2600000016}},{"attributes":{"ID":625851,"DIS_CODE":0,"TOWNNAME":"新化區","LI":"北勢里","LIN":"8鄰","STREET":"永新路","SECT":" ","MAREA":" ","LANE":" ","ALLEY":" ","HOUSE_NO":"２３號五樓之１","E_COORD97":177802.29999999999,"N_COORD97":2550963.2999999998,"ADDRESS":"永新路２３號五樓之１","OBJECTID":625824},"geometry":{"x":177802.29999999981,"y":2550963.3000000045}},{"attributes":{"ID":625852,"DIS_CODE":0,"TOWNNAME":"新化區","LI":"太平里","LIN":"4鄰","STREET":"中正路","SECT":" ","MAREA":" ","LANE":" ","ALLEY":" ","HOUSE_NO":"５７８號六樓之９","E_COORD97":178895.85000000001,"N_COORD97":2549000.2599999998,"ADDRESS":"中正路５７８號六樓之９","OBJECTID":625825},"geometry":{"x":178895.85000000056,"y":2549000.2600000016}},{"attributes":{"ID":625853,"DIS_CODE":0,"TOWNNAME":"新化區","LI":"太平里","LIN":"4鄰","STREET":"中正路","SECT":" ","MAREA":" ","LANE":" ","ALLEY":" ","HOUSE_NO":"５７８號十二樓之７","E_COORD97":178896.10000000001,"N_COORD97":2549000.2599999998,"ADDRESS":"中正路５７８號十二樓之７","OBJECTID":625826},"geometry":{"x":178896.10000000056,"y":2549000.2600000016}},{"attributes":{"ID":625854,"DIS_CODE":0,"TOWNNAME":"新化區","LI":"太平里","LIN":"4鄰","STREET":"中正路","SECT":" ","MAREA":" ","LANE":" ","ALLEY":" ","HOUSE_NO":"５７８號七樓之１","E_COORD97":178895.84,"N_COORD97":2549000.2599999998,"ADDRESS":"中正路５７８號七樓之１","OBJECTID":625827},"geometry":{"x":178895.84000000078,"y":2549000.2600000016}},{"attributes":{"ID":625855,"DIS_CODE":0,"TOWNNAME":"新化區","LI":"太平里","LIN":"4鄰","STREET":"中正路","SECT":" ","MAREA":" ","LANE":" ","ALLEY":" ","HOUSE_NO":"５７８號八樓之３","E_COORD97":178895.85999999999,"N_COORD97":2549000.2599999998,"ADDRESS":"中正路５７８號八樓之３","OBJECTID":625828},"geometry":{"x":178895.8599999994,"y":2549000.2600000016}},{"attributes":{"ID":625856,"DIS_CODE":0,"TOWNNAME":"新化區","LI":"太平里","LIN":"4鄰","STREET":"中正路","SECT":" ","MAREA":" ","LANE":" ","ALLEY":" ","HOUSE_NO":"５７８號四樓之５","E_COORD97":178895.87,"N_COORD97":2549000.2599999998,"ADDRESS":"中正路５７８號四樓之５","OBJECTID":625829},"geometry":{"x":178895.87000000104,"y":2549000.2600000016}},{"attributes":{"ID":625857,"DIS_CODE":0,"TOWNNAME":"新化區","LI":"太平里","LIN":"4鄰","STREET":"中正路","SECT":" ","MAREA":" ","LANE":" ","ALLEY":" ","HOUSE_NO":"５７８號十二樓之８","E_COORD97":178896.12,"N_COORD97":2549000.2599999998,"ADDRESS":"中正路５７８號十二樓之８","OBJECTID":625830},"geometry":{"x":178896.12000000104,"y":2549000.2600000016}},{"attributes":{"ID":625858,"DIS_CODE":0,"TOWNNAME":"新化區","LI":"太平里","LIN":"4鄰","STREET":"中正路","SECT":" ","MAREA":" ","LANE":" ","ALLEY":" ","HOUSE_NO":"５７８號八樓之６","E_COORD97":178895.85999999999,"N_COORD97":2549000.2599999998,"ADDRESS":"中正路５７８號八樓之６","OBJECTID":625831},"geometry":{"x":178895.8599999994,"y":2549000.2600000016}},{"attributes":{"ID":625859,"DIS_CODE":0,"TOWNNAME":"新化區","LI":"太平里","LIN":"4鄰","STREET":"中正路","SECT":" ","MAREA":" ","LANE":" ","ALLEY":" ","HOUSE_NO":"５７８號八樓之１","E_COORD97":178895.84,"N_COORD97":2549000.2599999998,"ADDRESS":"中正路５７８號八樓之１","OBJECTID":625832},"geometry":{"x":178895.84000000078,"y":2549000.2600000016}},{"attributes":{"ID":625860,"DIS_CODE":0,"TOWNNAME":"新化區","LI":"太平里","LIN":"4鄰","STREET":"中正路","SECT":" ","MAREA":" ","LANE":" ","ALLEY":" ","HOUSE_NO":"５７８號九樓之２","E_COORD97":178895.85999999999,"N_COORD97":2549000.2599999998,"ADDRESS":"中正路５７８號九樓之２","OBJECTID":625833},"geometry":{"x":178895.8599999994,"y":2549000.2600000016}},{"attributes":{"ID":625861,"DIS_CODE":0,"TOWNNAME":"新化區","LI":"北勢里","LIN":"8鄰","STREET":"永新路","SECT":" ","MAREA":" ","LANE":" ","ALLEY":" ","HOUSE_NO":"２５號四樓之１","E_COORD97":177802.29999999999,"N_COORD97":2550963.2999999998,"ADDRESS":"永新路２５號四樓之１","OBJECTID":625834},"geometry":{"x":177802.29999999981,"y":2550963.3000000045}},{"attributes":{"ID":625862,"DIS_CODE":0,"TOWNNAME":"新化區","LI":"北勢里","LIN":"8鄰","STREET":"永新路","SECT":" ","MAREA":" ","LANE":" ","ALLEY":" ","HOUSE_NO":"３５號四樓之２","E_COORD97":177802.42999999999,"N_COORD97":2550963.2999999998,"ADDRESS":"永新路３５號四樓之２","OBJECTID":625835},"geometry":{"x":177802.4299999997,"y":2550963.3000000045}},{"attributes":{"ID":625863,"DIS_CODE":0,"TOWNNAME":"新化區","LI":"太平里","LIN":"4鄰","STREET":"中正路","SECT":" ","MAREA":" ","LANE":" ","ALLEY":" ","HOUSE_NO":"５７８號七樓之７","E_COORD97":178895.85000000001,"N_COORD97":2549000.2599999998,"ADDRESS":"中正路５７８號七樓之７","OBJECTID":625836},"geometry":{"x":178895.85000000056,"y":2549000.2600000016}},{"attributes":{"ID":625864,"DIS_CODE":0,"TOWNNAME":"新化區","LI":"太平里","LIN":"4鄰","STREET":"中正路","SECT":" ","MAREA":" ","LANE":" ","ALLEY":" ","HOUSE_NO":"５７８號十二樓之３","E_COORD97":178896.10999999999,"N_COORD97":2549000.2599999998,"ADDRESS":"中正路５７８號十二樓之３","OBJECTID":625837},"geometry":{"x":178896.1100000022,"y":2549000.2600000016}},{"attributes":{"ID":625865,"DIS_CODE":0,"TOWNNAME":"新化區","LI":"太平里","LIN":"4鄰","STREET":"中正路","SECT":" ","MAREA":" ","LANE":" ","ALLEY":" ","HOUSE_NO":"５７８號九樓之７","E_COORD97":178895.85000000001,"N_COORD97":2549000.2599999998,"ADDRESS":"中正路５７８號九樓之７","OBJECTID":625838},"geometry":{"x":178895.85000000056,"y":2549000.2600000016}},{"attributes":{"ID":625866,"DIS_CODE":0,"TOWNNAME":"新化區","LI":"太平里","LIN":"4鄰","STREET":"中正路","SECT":" ","MAREA":" ","LANE":" ","ALLEY":" ","HOUSE_NO":"５７８號九樓之６","E_COORD97":178895.85999999999,"N_COORD97":2549000.2599999998,"ADDRESS":"中正路５７８號九樓之６","OBJECTID":625839},"geometry":{"x":178895.8599999994,"y":2549000.2600000016}},{"attributes":{"ID":625867,"DIS_CODE":0,"TOWNNAME":"新化區","LI":"北勢里","LIN":"8鄰","STREET":"永新路","SECT":" ","MAREA":" ","LANE":" ","ALLEY":" ","HOUSE_NO":"２３號六樓之２","E_COORD97":177802.42999999999,"N_COORD97":2550963.2999999998,"ADDRESS":"永新路２３號六樓之２","OBJECTID":625840},"geometry":{"x":177802.4299999997,"y":2550963.3000000045}},{"attributes":{"ID":625868,"DIS_CODE":0,"TOWNNAME":"新化區","LI":"北勢里","LIN":"8鄰","STREET":"永新路","SECT":" ","MAREA":" ","LANE":" ","ALLEY":" ","HOUSE_NO":"２３號六樓之３","E_COORD97":177802.39999999999,"N_COORD97":2550963.2999999998,"ADDRESS":"永新路２３號六樓之３","OBJECTID":625841},"geometry":{"x":177802.40000000224,"y":2550963.3000000045}},{"attributes":{"ID":625869,"DIS_CODE":0,"TOWNNAME":"新化區","LI":"太平里","LIN":"4鄰","STREET":"中正路","SECT":" ","MAREA":" ","LANE":" ","ALLEY":" ","HOUSE_NO":"５７８號十二樓之１","E_COORD97":178896.09,"N_COORD97":2549000.2599999998,"ADDRESS":"中正路５７８號十二樓之１","OBJECTID":625842},"geometry":{"x":178896.09000000078,"y":2549000.2600000016}},{"attributes":{"ID":625870,"DIS_CODE":0,"TOWNNAME":"新化區","LI":"太平里","LIN":"4鄰","STREET":"中正路","SECT":" ","MAREA":" ","LANE":" ","ALLEY":" ","HOUSE_NO":"５７８號十一樓之６","E_COORD97":178896.10999999999,"N_COORD97":2549000.2599999998,"ADDRESS":"中正路５７８號十一樓之６","OBJECTID":625843},"geometry":{"x":178896.1100000022,"y":2549000.2600000016}},{"attributes":{"ID":625871,"DIS_CODE":0,"TOWNNAME":"新化區","LI":"東榮里","LIN":"34鄰","STREET":"中山路","SECT":" ","MAREA":" ","LANE":" ","ALLEY":" ","HOUSE_NO":"２４３號之１四樓","E_COORD97":179091.01000000001,"N_COORD97":2548419.2599999998,"ADDRESS":"中山路２４３號之１四樓","OBJECTID":625844},"geometry":{"x":179091.01000000164,"y":2548419.2599999998}},{"attributes":{"ID":625872,"DIS_CODE":0,"TOWNNAME":"新化區","LI":"東榮里","LIN":"34鄰","STREET":"中山路","SECT":" ","MAREA":" ","LANE":" ","ALLEY":" ","HOUSE_NO":"２４３號之１二樓","E_COORD97":179091.01000000001,"N_COORD97":2548419.2599999998,"ADDRESS":"中山路２４３號之１二樓","OBJECTID":625845},"geometry":{"x":179091.01000000164,"y":2548419.2599999998}},{"attributes":{"ID":625873,"DIS_CODE":0,"TOWNNAME":"新化區","LI":"太平里","LIN":"4鄰","STREET":"中正路","SECT":" ","MAREA":" ","LANE":" ","ALLEY":" ","HOUSE_NO":"５７８號十一樓之１","E_COORD97":178896.09,"N_COORD97":2549000.2599999998,"ADDRESS":"中正路５７８號十一樓之１","OBJECTID":625846},"geometry":{"x":178896.09000000078,"y":2549000.2600000016}},{"attributes":{"ID":625874,"DIS_CODE":0,"TOWNNAME":"新化區","LI":"太平里","LIN":"4鄰","STREET":"中正路","SECT":" ","MAREA":" ","LANE":" ","ALLEY":" ","HOUSE_NO":"５７８號七樓之３","E_COORD97":178895.85999999999,"N_COORD97":2549000.2599999998,"ADDRESS":"中正路５７８號七樓之３","OBJECTID":625847},"geometry":{"x":178895.8599999994,"y":2549000.2600000016}},{"attributes":{"ID":625875,"DIS_CODE":0,"TOWNNAME":"新化區","LI":"太平里","LIN":"4鄰","STREET":"中正路","SECT":" ","MAREA":" ","LANE":" ","ALLEY":" ","HOUSE_NO":"５７８號十二樓之２","E_COORD97":178896.10999999999,"N_COORD97":2549000.2599999998,"ADDRESS":"中正路５７８號十二樓之２","OBJECTID":625848},"geometry":{"x":178896.1100000022,"y":2549000.2600000016}},{"attributes":{"ID":625876,"DIS_CODE":0,"TOWNNAME":"新化區","LI":"北勢里","LIN":"8鄰","STREET":"永新路","SECT":" ","MAREA":" ","LANE":" ","ALLEY":" ","HOUSE_NO":"３５號六樓之２","E_COORD97":177802.42999999999,"N_COORD97":2550963.2999999998,"ADDRESS":"永新路３５號六樓之２","OBJECTID":625849},"geometry":{"x":177802.4299999997,"y":2550963.3000000045}},{"attributes":{"ID":625877,"DIS_CODE":0,"TOWNNAME":"新化區","LI":"太平里","LIN":"4鄰","STREET":"中正路","SECT":" ","MAREA":" ","LANE":" ","ALLEY":" ","HOUSE_NO":"５７８號七樓之５","E_COORD97":178895.87,"N_COORD97":2549000.2599999998,"ADDRESS":"中正路５７８號七樓之５","OBJECTID":625850},"geometry":{"x":178895.87000000104,"y":2549000.2600000016}},{"attributes":{"ID":625878,"DIS_CODE":0,"TOWNNAME":"新化區","LI":"北勢里","LIN":"8鄰","STREET":"永新路","SECT":" ","MAREA":" ","LANE":" ","ALLEY":" ","HOUSE_NO":"１３號八樓之３","E_COORD97":177802.39999999999,"N_COORD97":2550963.2999999998,"ADDRESS":"永新路１３號八樓之３","OBJECTID":625851},"geometry":{"x":177802.40000000224,"y":2550963.3000000045}},{"attributes":{"ID":625879,"DIS_CODE":0,"TOWNNAME":"新化區","LI":"北勢里","LIN":"8鄰","STREET":"永新路","SECT":" ","MAREA":" ","LANE":" ","ALLEY":" ","HOUSE_NO":"３７號八樓之２","E_COORD97":177802.42999999999,"N_COORD97":2550963.2999999998,"ADDRESS":"永新路３７號八樓之２","OBJECTID":625852},"geometry":{"x":177802.4299999997,"y":2550963.3000000045}},{"attributes":{"ID":625880,"DIS_CODE":0,"TOWNNAME":"新化區","LI":"東榮里","LIN":"34鄰","STREET":"中山路","SECT":" ","MAREA":" ","LANE":" ","ALLEY":" ","HOUSE_NO":"２４３號之１三樓","E_COORD97":179091.01000000001,"N_COORD97":2548419.2599999998,"ADDRESS":"中山路２４３號之１三樓","OBJECTID":625853},"geometry":{"x":179091.01000000164,"y":2548419.2599999998}},{"attributes":{"ID":625881,"DIS_CODE":0,"TOWNNAME":"新化區","LI":"太平里","LIN":"4鄰","STREET":"中正路","SECT":" ","MAREA":" ","LANE":" ","ALLEY":" ","HOUSE_NO":"５７８號十三樓之３","E_COORD97":178896.10999999999,"N_COORD97":2549000.2599999998,"ADDRESS":"中正路５７８號十三樓之３","OBJECTID":625854},"geometry":{"x":178896.1100000022,"y":2549000.2600000016}},{"attributes":{"ID":625882,"DIS_CODE":0,"TOWNNAME":"新化區","LI":"北勢里","LIN":"8鄰","STREET":"永新路","SECT":" ","MAREA":" ","LANE":" ","ALLEY":" ","HOUSE_NO":"３５號七樓之１","E_COORD97":177802.29999999999,"N_COORD97":2550963.2999999998,"ADDRESS":"永新路３５號七樓之１","OBJECTID":625855},"geometry":{"x":177802.29999999981,"y":2550963.3000000045}},{"attributes":{"ID":625883,"DIS_CODE":0,"TOWNNAME":"新化區","LI":"太平里","LIN":"4鄰","STREET":"中正路","SECT":" ","MAREA":" ","LANE":" ","ALLEY":" ","HOUSE_NO":"５７８號二樓之１","E_COORD97":178895.84,"N_COORD97":2549000.2599999998,"ADDRESS":"中正路５７８號二樓之１","OBJECTID":625856},"geometry":{"x":178895.84000000078,"y":2549000.2600000016}},{"attributes":{"ID":625884,"DIS_CODE":0,"TOWNNAME":"新化區","LI":"北勢里","LIN":"7鄰","STREET":"中正路","SECT":" ","MAREA":" ","LANE":" ","ALLEY":" ","HOUSE_NO":"１２１１號八樓之２","E_COORD97":177942.07999999999,"N_COORD97":2551050.2999999998,"ADDRESS":"中正路１２１１號八樓之２","OBJECTID":625857},"geometry":{"x":177942.08000000101,"y":2551050.3000000007}},{"attributes":{"ID":625885,"DIS_CODE":0,"TOWNNAME":"新化區","LI":"太平里","LIN":"4鄰","STREET":"中正路","SECT":" ","MAREA":" ","LANE":" ","ALLEY":" ","HOUSE_NO":"５７８號十三樓之２","E_COORD97":178896.10999999999,"N_COORD97":2549000.2599999998,"ADDRESS":"中正路５７８號十三樓之２","OBJECTID":625858},"geometry":{"x":178896.1100000022,"y":2549000.2600000016}},{"attributes":{"ID":625886,"DIS_CODE":0,"TOWNNAME":"新化區","LI":"太平里","LIN":"4鄰","STREET":"中正路","SECT":" ","MAREA":" ","LANE":" ","ALLEY":" ","HOUSE_NO":"５７８號十樓之５","E_COORD97":178895.87,"N_COORD97":2549000.2599999998,"ADDRESS":"中正路５７８號十樓之５","OBJECTID":625859},"geometry":{"x":178895.87000000104,"y":2549000.2600000016}},{"attributes":{"ID":625887,"DIS_CODE":0,"TOWNNAME":"新化區","LI":"太平里","LIN":"4鄰","STREET":"中正路","SECT":" ","MAREA":" ","LANE":" ","ALLEY":" ","HOUSE_NO":"５７８號五樓之２","E_COORD97":178895.85999999999,"N_COORD97":2549000.2599999998,"ADDRESS":"中正路５７８號五樓之２","OBJECTID":625860},"geometry":{"x":178895.8599999994,"y":2549000.2600000016}},{"attributes":{"ID":625888,"DIS_CODE":0,"TOWNNAME":"新化區","LI":"太平里","LIN":"4鄰","STREET":"中正路","SECT":" ","MAREA":" ","LANE":" ","ALLEY":" ","HOUSE_NO":"５７８號四樓之２","E_COORD97":178895.85999999999,"N_COORD97":2549000.2599999998,"ADDRESS":"中正路５７８號四樓之２","OBJECTID":625861},"geometry":{"x":178895.8599999994,"y":2549000.2600000016}},{"attributes":{"ID":625889,"DIS_CODE":0,"TOWNNAME":"新化區","LI":"太平里","LIN":"4鄰","STREET":"中正路","SECT":" ","MAREA":" ","LANE":" ","ALLEY":" ","HOUSE_NO":"５７８號四樓之９","E_COORD97":178895.85000000001,"N_COORD97":2549000.2599999998,"ADDRESS":"中正路５７８號四樓之９","OBJECTID":625862},"geometry":{"x":178895.85000000056,"y":2549000.2600000016}},{"attributes":{"ID":625890,"DIS_CODE":0,"TOWNNAME":"新化區","LI":"豐榮里","LIN":"1鄰","STREET":"中山路","SECT":" ","MAREA":" ","LANE":" ","ALLEY":" ","HOUSE_NO":"６１５號四樓之２","E_COORD97":178238.75,"N_COORD97":2548474.6400000001,"ADDRESS":"中山路６１５號四樓之２","OBJECTID":625863},"geometry":{"x":178238.75000000186,"y":2548474.6400000006}},{"attributes":{"ID":625891,"DIS_CODE":0,"TOWNNAME":"新化區","LI":"豐榮里","LIN":"1鄰","STREET":"中山路","SECT":" ","MAREA":" ","LANE":" ","ALLEY":" ","HOUSE_NO":"６１５號四樓之３","E_COORD97":178238.75,"N_COORD97":2548474.6400000001,"ADDRESS":"中山路６１５號四樓之３","OBJECTID":625864},"geometry":{"x":178238.75000000186,"y":2548474.6400000006}},{"attributes":{"ID":625892,"DIS_CODE":0,"TOWNNAME":"新化區","LI":"豐榮里","LIN":"1鄰","STREET":"中山路","SECT":" ","MAREA":" ","LANE":" ","ALLEY":" ","HOUSE_NO":"６１５號四樓之５","E_COORD97":178238.75,"N_COORD97":2548474.6400000001,"ADDRESS":"中山路６１５號四樓之５","OBJECTID":625865},"geometry":{"x":178238.75000000186,"y":2548474.6400000006}},{"attributes":{"ID":625893,"DIS_CODE":0,"TOWNNAME":"北區","LI":"成德里","LIN":"20鄰","STREET":"文成二路","SECT":" ","MAREA":" ","LANE":" ","ALLEY":" ","HOUSE_NO":"１５９號二樓之１","E_COORD97":168456.48000000001,"N_COORD97":2546133.6899999999,"ADDRESS":"文成二路１５９號二樓之１","OBJECTID":625866},"geometry":{"x":168456.48000000138,"y":2546133.6899999995}},{"attributes":{"ID":625894,"DIS_CODE":0,"TOWNNAME":"北區","LI":"成德里","LIN":"20鄰","STREET":"文成二路","SECT":" ","MAREA":" ","LANE":" ","ALLEY":" ","HOUSE_NO":"１５７號二樓之１","E_COORD97":168456.48000000001,"N_COORD97":2546133.6899999999,"ADDRESS":"文成二路１５７號二樓之１","OBJECTID":625867},"geometry":{"x":168456.48000000138,"y":2546133.6899999995}},{"attributes":{"ID":625895,"DIS_CODE":0,"TOWNNAME":"安平區","LI":"國平里","LIN":"6鄰","STREET":"文平路","SECT":" ","MAREA":" ","LANE":" ","ALLEY":" ","HOUSE_NO":"２０７號二樓之３","E_COORD97":165689.62,"N_COORD97":2543104.4700000002,"ADDRESS":"文平路２０７號二樓之３","OBJECTID":625868},"geometry":{"x":165689.62000000011,"y":2543104.4700000025}},{"attributes":{"ID":625896,"DIS_CODE":0,"TOWNNAME":"新營區","LI":"民榮里","LIN":"24鄰","STREET":"裕民路","SECT":" ","MAREA":" ","LANE":" ","ALLEY":" ","HOUSE_NO":"１４號四樓","E_COORD97":179126.82000000001,"N_COORD97":2577939.0699999998,"ADDRESS":"裕民路１４號四樓","OBJECTID":625869},"geometry":{"x":179126.82000000216,"y":2577939.0700000022}},{"attributes":{"ID":625897,"DIS_CODE":0,"TOWNNAME":"東區","LI":"龍山里","LIN":"6鄰","STREET":"林森路","SECT":"一段","MAREA":" ","LANE":" ","ALLEY":" ","HOUSE_NO":"３９５號六樓之７","E_COORD97":170196.82999999999,"N_COORD97":2542891.3300000001,"ADDRESS":"林森路一段３９５號六樓之７","OBJECTID":625870},"geometry":{"x":170196.83000000101,"y":2542891.3300000019}},{"attributes":{"ID":625898,"DIS_CODE":0,"TOWNNAME":"東區","LI":"龍山里","LIN":"6鄰","STREET":"林森路","SECT":"一段","MAREA":" ","LANE":" ","ALLEY":" ","HOUSE_NO":"３９５號六樓之８","E_COORD97":170196.82999999999,"N_COORD97":2542891.3300000001,"ADDRESS":"林森路一段３９５號六樓之８","OBJECTID":625871},"geometry":{"x":170196.83000000101,"y":2542891.3300000019}},{"attributes":{"ID":625899,"DIS_CODE":0,"TOWNNAME":"東區","LI":"龍山里","LIN":"6鄰","STREET":"林森路","SECT":"一段","MAREA":" ","LANE":" ","ALLEY":" ","HOUSE_NO":"３９５號六樓之９","E_COORD97":170196.82999999999,"N_COORD97":2542891.3300000001,"ADDRESS":"林森路一段３９５號六樓之９","OBJECTID":625872},"geometry":{"x":170196.83000000101,"y":2542891.3300000019}},{"attributes":{"ID":625900,"DIS_CODE":0,"TOWNNAME":"東區","LI":"龍山里","LIN":"6鄰","STREET":"林森路","SECT":"一段","MAREA":" ","LANE":" ","ALLEY":" ","HOUSE_NO":"３９５號四樓","E_COORD97":170196.82999999999,"N_COORD97":2542891.3300000001,"ADDRESS":"林森路一段３９５號四樓","OBJECTID":625873},"geometry":{"x":170196.83000000101,"y":2542891.3300000019}},{"attributes":{"ID":625901,"DIS_CODE":0,"TOWNNAME":"東區","LI":"富強里","LIN":"22鄰","STREET":"富強二街","SECT":" ","MAREA":" ","LANE":" ","ALLEY":" ","HOUSE_NO":"５號九樓","E_COORD97":170993.70000000001,"N_COORD97":2542516.21,"ADDRESS":"富強二街５號九樓","OBJECTID":625874},"geometry":{"x":170993.70000000019,"y":2542516.2100000028}},{"attributes":{"ID":625902,"DIS_CODE":0,"TOWNNAME":"東區","LI":"富強里","LIN":"22鄰","STREET":"富強二街","SECT":" ","MAREA":" ","LANE":" ","ALLEY":" ","HOUSE_NO":"５號十樓","E_COORD97":170993.70000000001,"N_COORD97":2542516.21,"ADDRESS":"富強二街５號十樓","OBJECTID":625875},"geometry":{"x":170993.70000000019,"y":2542516.2100000028}},{"attributes":{"ID":625903,"DIS_CODE":0,"TOWNNAME":"東區","LI":"德光里","LIN":"6鄰","STREET":"崇明路","SECT":" ","MAREA":" ","LANE":" ","ALLEY":" ","HOUSE_NO":"１３９號七樓","E_COORD97":169868.14999999999,"N_COORD97":2542224.8999999999,"ADDRESS":"崇明路１３９號七樓","OBJECTID":625876},"geometry":{"x":169868.15000000037,"y":2542224.9000000041}},{"attributes":{"ID":625904,"DIS_CODE":0,"TOWNNAME":"東區","LI":"德光里","LIN":"6鄰","STREET":"崇明路","SECT":" ","MAREA":" ","LANE":" ","ALLEY":" ","HOUSE_NO":"１３９號七樓之１","E_COORD97":169868.14999999999,"N_COORD97":2542224.8999999999,"ADDRESS":"崇明路１３９號七樓之１","OBJECTID":625877},"geometry":{"x":169868.15000000037,"y":2542224.9000000041}},{"attributes":{"ID":625905,"DIS_CODE":0,"TOWNNAME":"東區","LI":"德光里","LIN":"6鄰","STREET":"崇明路","SECT":" ","MAREA":" ","LANE":" ","ALLEY":" ","HOUSE_NO":"１３９號七樓之２","E_COORD97":169868.14999999999,"N_COORD97":2542224.8999999999,"ADDRESS":"崇明路１３９號七樓之２","OBJECTID":625878},"geometry":{"x":169868.15000000037,"y":2542224.9000000041}},{"attributes":{"ID":625906,"DIS_CODE":0,"TOWNNAME":"東區","LI":"德光里","LIN":"6鄰","STREET":"崇明路","SECT":" ","MAREA":" ","LANE":" ","ALLEY":" ","HOUSE_NO":"１３９號七樓之３","E_COORD97":169868.14999999999,"N_COORD97":2542224.8999999999,"ADDRESS":"崇明路１３９號七樓之３","OBJECTID":625879},"geometry":{"x":169868.15000000037,"y":2542224.9000000041}},{"attributes":{"ID":625907,"DIS_CODE":0,"TOWNNAME":"東區","LI":"德光里","LIN":"6鄰","STREET":"崇明路","SECT":" ","MAREA":" ","LANE":" ","ALLEY":" ","HOUSE_NO":"１３９號七樓之５","E_COORD97":169868.14999999999,"N_COORD97":2542224.8999999999,"ADDRESS":"崇明路１３９號七樓之５","OBJECTID":625880},"geometry":{"x":169868.15000000037,"y":2542224.9000000041}},{"attributes":{"ID":625908,"DIS_CODE":0,"TOWNNAME":"東區","LI":"德光里","LIN":"6鄰","STREET":"崇明路","SECT":" ","MAREA":" ","LANE":" ","ALLEY":" ","HOUSE_NO":"１３９號七樓之６","E_COORD97":169868.14999999999,"N_COORD97":2542224.8999999999,"ADDRESS":"崇明路１３９號七樓之６","OBJECTID":625881},"geometry":{"x":169868.15000000037,"y":2542224.9000000041}},{"attributes":{"ID":625909,"DIS_CODE":0,"TOWNNAME":"東區","LI":"德光里","LIN":"6鄰","STREET":"崇明路","SECT":" ","MAREA":" ","LANE":" ","ALLEY":" ","HOUSE_NO":"１３９號九樓","E_COORD97":169868.14999999999,"N_COORD97":2542224.8999999999,"ADDRESS":"崇明路１３９號九樓","OBJECTID":625882},"geometry":{"x":169868.15000000037,"y":2542224.9000000041}},{"attributes":{"ID":625910,"DIS_CODE":0,"TOWNNAME":"東區","LI":"德光里","LIN":"6鄰","STREET":"崇明路","SECT":" ","MAREA":" ","LANE":" ","ALLEY":" ","HOUSE_NO":"１３９號九樓之１","E_COORD97":169868.14999999999,"N_COORD97":2542224.8999999999,"ADDRESS":"崇明路１３９號九樓之１","OBJECTID":625883},"geometry":{"x":169868.15000000037,"y":2542224.9000000041}},{"attributes":{"ID":625911,"DIS_CODE":0,"TOWNNAME":"東區","LI":"德光里","LIN":"6鄰","STREET":"崇明路","SECT":" ","MAREA":" ","LANE":" ","ALLEY":" ","HOUSE_NO":"１３９號九樓之２","E_COORD97":169868.14999999999,"N_COORD97":2542224.8999999999,"ADDRESS":"崇明路１３９號九樓之２","OBJECTID":625884},"geometry":{"x":169868.15000000037,"y":2542224.9000000041}},{"attributes":{"ID":625912,"DIS_CODE":0,"TOWNNAME":"東區","LI":"德光里","LIN":"6鄰","STREET":"崇明路","SECT":" ","MAREA":" ","LANE":" ","ALLEY":" ","HOUSE_NO":"１３９號九樓之３","E_COORD97":169868.14999999999,"N_COORD97":2542224.8999999999,"ADDRESS":"崇明路１３９號九樓之３","OBJECTID":625885},"geometry":{"x":169868.15000000037,"y":2542224.9000000041}},{"attributes":{"ID":625913,"DIS_CODE":0,"TOWNNAME":"東區","LI":"德光里","LIN":"6鄰","STREET":"崇明路","SECT":" ","MAREA":" ","LANE":" ","ALLEY":" ","HOUSE_NO":"１３９號九樓之５","E_COORD97":169868.14999999999,"N_COORD97":2542224.8999999999,"ADDRESS":"崇明路１３９號九樓之５","OBJECTID":625886},"geometry":{"x":169868.15000000037,"y":2542224.9000000041}},{"attributes":{"ID":625914,"DIS_CODE":0,"TOWNNAME":"東區","LI":"德光里","LIN":"6鄰","STREET":"崇明路","SECT":" ","MAREA":" ","LANE":" ","ALLEY":" ","HOUSE_NO":"１３９號九樓之６","E_COORD97":169868.14999999999,"N_COORD97":2542224.8999999999,"ADDRESS":"崇明路１３９號九樓之６","OBJECTID":625887},"geometry":{"x":169868.15000000037,"y":2542224.9000000041}},{"attributes":{"ID":625915,"DIS_CODE":0,"TOWNNAME":"東區","LI":"龍山里","LIN":"13鄰","STREET":"府東街","SECT":" ","MAREA":" ","LANE":" ","ALLEY":" ","HOUSE_NO":"１０５號十樓","E_COORD97":169796.81,"N_COORD97":2542944.2999999998,"ADDRESS":"府東街１０５號十樓","OBJECTID":625888},"geometry":{"x":169796.80999999959,"y":2542944.3000000007}},{"attributes":{"ID":625916,"DIS_CODE":0,"TOWNNAME":"東區","LI":"龍山里","LIN":"13鄰","STREET":"長榮路","SECT":"一段","MAREA":" ","LANE":" ","ALLEY":" ","HOUSE_NO":"２２７號六樓之１７","E_COORD97":169863.01000000001,"N_COORD97":2542920.02,"ADDRESS":"長榮路一段２２７號六樓之１７","OBJECTID":625889},"geometry":{"x":169863.01000000071,"y":2542920.0200000014}},{"attributes":{"ID":625917,"DIS_CODE":0,"TOWNNAME":"東區","LI":"德光里","LIN":"13鄰","STREET":"德光街","SECT":" ","MAREA":" ","LANE":" ","ALLEY":" ","HOUSE_NO":"９７號二樓","E_COORD97":170216.56,"N_COORD97":2542297,"ADDRESS":"德光街９７號二樓","OBJECTID":625890},"geometry":{"x":170216.56000000052,"y":2542297}},{"attributes":{"ID":625918,"DIS_CODE":0,"TOWNNAME":"東區","LI":"德光里","LIN":"13鄰","STREET":"德光街","SECT":" ","MAREA":" ","LANE":" ","ALLEY":" ","HOUSE_NO":"９７號三樓","E_COORD97":170216.56,"N_COORD97":2542297,"ADDRESS":"德光街９７號三樓","OBJECTID":625891},"geometry":{"x":170216.56000000052,"y":2542297}},{"attributes":{"ID":625919,"DIS_CODE":0,"TOWNNAME":"東區","LI":"德光里","LIN":"13鄰","STREET":"德光街","SECT":" ","MAREA":" ","LANE":" ","ALLEY":" ","HOUSE_NO":"９７號五樓","E_COORD97":170216.56,"N_COORD97":2542297,"ADDRESS":"德光街９７號五樓","OBJECTID":625892},"geometry":{"x":170216.56000000052,"y":2542297}},{"attributes":{"ID":625920,"DIS_CODE":0,"TOWNNAME":"東區","LI":"德光里","LIN":"13鄰","STREET":"德光街","SECT":" ","MAREA":" ","LANE":" ","ALLEY":" ","HOUSE_NO":"９７號四樓","E_COORD97":170216.56,"N_COORD97":2542297,"ADDRESS":"德光街９７號四樓","OBJECTID":625893},"geometry":{"x":170216.56000000052,"y":2542297}},{"attributes":{"ID":625921,"DIS_CODE":0,"TOWNNAME":"東區","LI":"德光里","LIN":"11鄰","STREET":"崇德三街","SECT":" ","MAREA":" ","LANE":" ","ALLEY":" ","HOUSE_NO":"１０８號七樓","E_COORD97":170327.42000000001,"N_COORD97":2542328.1600000001,"ADDRESS":"崇德三街１０８號七樓","OBJECTID":625894},"geometry":{"x":170327.41999999993,"y":2542328.1600000039}},{"attributes":{"ID":625922,"DIS_CODE":0,"TOWNNAME":"東區","LI":"德光里","LIN":"11鄰","STREET":"崇德三街","SECT":" ","MAREA":" ","LANE":" ","ALLEY":" ","HOUSE_NO":"１０８號七樓之１","E_COORD97":170327.42000000001,"N_COORD97":2542328.1600000001,"ADDRESS":"崇德三街１０８號七樓之１","OBJECTID":625895},"geometry":{"x":170327.41999999993,"y":2542328.1600000039}},{"attributes":{"ID":625923,"DIS_CODE":0,"TOWNNAME":"南區","LI":"田寮里","LIN":"1鄰","STREET":"新興路","SECT":" ","MAREA":" ","LANE":" ","ALLEY":" ","HOUSE_NO":"３６１號五樓之４","E_COORD97":167096.06,"N_COORD97":2541796.52,"ADDRESS":"新興路３６１號五樓之４","OBJECTID":625896},"geometry":{"x":167096.06000000052,"y":2541796.5200000014}},{"attributes":{"ID":625924,"DIS_CODE":0,"TOWNNAME":"南區","LI":"田寮里","LIN":"1鄰","STREET":"新興路","SECT":" ","MAREA":" ","LANE":" ","ALLEY":" ","HOUSE_NO":"３６１號五樓之５","E_COORD97":167096.06,"N_COORD97":2541796.52,"ADDRESS":"新興路３６１號五樓之５","OBJECTID":625897},"geometry":{"x":167096.06000000052,"y":2541796.5200000014}},{"attributes":{"ID":625925,"DIS_CODE":0,"TOWNNAME":"南區","LI":"田寮里","LIN":"1鄰","STREET":"新興路","SECT":" ","MAREA":" ","LANE":" ","ALLEY":" ","HOUSE_NO":"３６１號五樓之６","E_COORD97":167096.06,"N_COORD97":2541796.52,"ADDRESS":"新興路３６１號五樓之６","OBJECTID":625898},"geometry":{"x":167096.06000000052,"y":2541796.5200000014}},{"attributes":{"ID":625926,"DIS_CODE":0,"TOWNNAME":"南區","LI":"田寮里","LIN":"1鄰","STREET":"新興路","SECT":" ","MAREA":" ","LANE":" ","ALLEY":" ","HOUSE_NO":"３６１號五樓之７","E_COORD97":167096.06,"N_COORD97":2541796.52,"ADDRESS":"新興路３６１號五樓之７","OBJECTID":625899},"geometry":{"x":167096.06000000052,"y":2541796.5200000014}},{"attributes":{"ID":625927,"DIS_CODE":0,"TOWNNAME":"南區","LI":"田寮里","LIN":"1鄰","STREET":"新興路","SECT":" ","MAREA":" ","LANE":" ","ALLEY":" ","HOUSE_NO":"３６１號五樓之８","E_COORD97":167096.06,"N_COORD97":2541796.52,"ADDRESS":"新興路３６１號五樓之８","OBJECTID":625900},"geometry":{"x":167096.06000000052,"y":2541796.5200000014}},{"attributes":{"ID":625928,"DIS_CODE":0,"TOWNNAME":"中西區","LI":"中正里","LIN":"4鄰","STREET":"正興街","SECT":" ","MAREA":" ","LANE":" ","ALLEY":" ","HOUSE_NO":"１０號七樓","E_COORD97":167851.95999999999,"N_COORD97":2543862.8399999999,"ADDRESS":"正興街１０號七樓","OBJECTID":625901},"geometry":{"x":167851.95999999996,"y":2543862.8400000017}},{"attributes":{"ID":625929,"DIS_CODE":0,"TOWNNAME":"中西區","LI":"中正里","LIN":"4鄰","STREET":"正興街","SECT":" ","MAREA":" ","LANE":" ","ALLEY":" ","HOUSE_NO":"１０號二樓","E_COORD97":167851.95999999999,"N_COORD97":2543862.8399999999,"ADDRESS":"正興街１０號二樓","OBJECTID":625902},"geometry":{"x":167851.95999999996,"y":2543862.8400000017}},{"attributes":{"ID":625930,"DIS_CODE":0,"TOWNNAME":"中西區","LI":"中正里","LIN":"4鄰","STREET":"正興街","SECT":" ","MAREA":" ","LANE":" ","ALLEY":" ","HOUSE_NO":"１０號三樓","E_COORD97":167851.95999999999,"N_COORD97":2543862.8399999999,"ADDRESS":"正興街１０號三樓","OBJECTID":625903},"geometry":{"x":167851.95999999996,"y":2543862.8400000017}},{"attributes":{"ID":625931,"DIS_CODE":0,"TOWNNAME":"中西區","LI":"中正里","LIN":"4鄰","STREET":"正興街","SECT":" ","MAREA":" ","LANE":" ","ALLEY":" ","HOUSE_NO":"１０號五樓","E_COORD97":167851.95999999999,"N_COORD97":2543862.8399999999,"ADDRESS":"正興街１０號五樓","OBJECTID":625904},"geometry":{"x":167851.95999999996,"y":2543862.8400000017}},{"attributes":{"ID":625932,"DIS_CODE":0,"TOWNNAME":"中西區","LI":"中正里","LIN":"4鄰","STREET":"正興街","SECT":" ","MAREA":" ","LANE":" ","ALLEY":" ","HOUSE_NO":"１０號六樓","E_COORD97":167851.95999999999,"N_COORD97":2543862.8399999999,"ADDRESS":"正興街１０號六樓","OBJECTID":625905},"geometry":{"x":167851.95999999996,"y":2543862.8400000017}},{"attributes":{"ID":625933,"DIS_CODE":0,"TOWNNAME":"中西區","LI":"中正里","LIN":"4鄰","STREET":"正興街","SECT":" ","MAREA":" ","LANE":" ","ALLEY":" ","HOUSE_NO":"１０號四樓","E_COORD97":167851.95999999999,"N_COORD97":2543862.8399999999,"ADDRESS":"正興街１０號四樓","OBJECTID":625906},"geometry":{"x":167851.95999999996,"y":2543862.8400000017}},{"attributes":{"ID":625934,"DIS_CODE":0,"TOWNNAME":"中西區","LI":"中正里","LIN":"4鄰","STREET":"正興街","SECT":" ","MAREA":" ","LANE":" ","ALLEY":" ","HOUSE_NO":"１８號七樓之１","E_COORD97":167831.39999999999,"N_COORD97":2543862.5899999999,"ADDRESS":"正興街１８號七樓之１","OBJECTID":625907},"geometry":{"x":167831.4000000013,"y":2543862.5899999999}},{"attributes":{"ID":625935,"DIS_CODE":0,"TOWNNAME":"中西區","LI":"中正里","LIN":"4鄰","STREET":"正興街","SECT":" ","MAREA":" ","LANE":" ","ALLEY":" ","HOUSE_NO":"１８號七樓之１０","E_COORD97":167831.39999999999,"N_COORD97":2543862.5899999999,"ADDRESS":"正興街１８號七樓之１０","OBJECTID":625908},"geometry":{"x":167831.4000000013,"y":2543862.5899999999}},{"attributes":{"ID":625936,"DIS_CODE":0,"TOWNNAME":"中西區","LI":"中正里","LIN":"4鄰","STREET":"正興街","SECT":" ","MAREA":" ","LANE":" ","ALLEY":" ","HOUSE_NO":"１８號七樓之１１","E_COORD97":167831.39999999999,"N_COORD97":2543862.5899999999,"ADDRESS":"正興街１８號七樓之１１","OBJECTID":625909},"geometry":{"x":167831.4000000013,"y":2543862.5899999999}},{"attributes":{"ID":625937,"DIS_CODE":0,"TOWNNAME":"中西區","LI":"中正里","LIN":"4鄰","STREET":"正興街","SECT":" ","MAREA":" ","LANE":" ","ALLEY":" ","HOUSE_NO":"１８號七樓之１２","E_COORD97":167831.39999999999,"N_COORD97":2543862.5899999999,"ADDRESS":"正興街１８號七樓之１２","OBJECTID":625910},"geometry":{"x":167831.4000000013,"y":2543862.5899999999}},{"attributes":{"ID":625938,"DIS_CODE":0,"TOWNNAME":"中西區","LI":"中正里","LIN":"4鄰","STREET":"正興街","SECT":" ","MAREA":" ","LANE":" ","ALLEY":" ","HOUSE_NO":"１８號七樓之１３","E_COORD97":167831.39999999999,"N_COORD97":2543862.5899999999,"ADDRESS":"正興街１８號七樓之１３","OBJECTID":625911},"geometry":{"x":167831.4000000013,"y":2543862.5899999999}},{"attributes":{"ID":625939,"DIS_CODE":0,"TOWNNAME":"中西區","LI":"中正里","LIN":"4鄰","STREET":"正興街","SECT":" ","MAREA":" ","LANE":" ","ALLEY":" ","HOUSE_NO":"１８號七樓之２","E_COORD97":167831.39999999999,"N_COORD97":2543862.5899999999,"ADDRESS":"正興街１８號七樓之２","OBJECTID":625912},"geometry":{"x":167831.4000000013,"y":2543862.5899999999}},{"attributes":{"ID":625940,"DIS_CODE":0,"TOWNNAME":"中西區","LI":"中正里","LIN":"4鄰","STREET":"正興街","SECT":" ","MAREA":" ","LANE":" ","ALLEY":" ","HOUSE_NO":"１８號七樓之３","E_COORD97":167831.39999999999,"N_COORD97":2543862.5899999999,"ADDRESS":"正興街１８號七樓之３","OBJECTID":625913},"geometry":{"x":167831.4000000013,"y":2543862.5899999999}},{"attributes":{"ID":625941,"DIS_CODE":0,"TOWNNAME":"中西區","LI":"中正里","LIN":"4鄰","STREET":"正興街","SECT":" ","MAREA":" ","LANE":" ","ALLEY":" ","HOUSE_NO":"１８號七樓之４","E_COORD97":167831.39999999999,"N_COORD97":2543862.5899999999,"ADDRESS":"正興街１８號七樓之４","OBJECTID":625914},"geometry":{"x":167831.4000000013,"y":2543862.5899999999}},{"attributes":{"ID":625942,"DIS_CODE":0,"TOWNNAME":"中西區","LI":"中正里","LIN":"4鄰","STREET":"正興街","SECT":" ","MAREA":" ","LANE":" ","ALLEY":" ","HOUSE_NO":"１８號七樓之５","E_COORD97":167831.39999999999,"N_COORD97":2543862.5899999999,"ADDRESS":"正興街１８號七樓之５","OBJECTID":625915},"geometry":{"x":167831.4000000013,"y":2543862.5899999999}},{"attributes":{"ID":625943,"DIS_CODE":0,"TOWNNAME":"中西區","LI":"中正里","LIN":"4鄰","STREET":"正興街","SECT":" ","MAREA":" ","LANE":" ","ALLEY":" ","HOUSE_NO":"１８號七樓之６","E_COORD97":167831.39999999999,"N_COORD97":2543862.5899999999,"ADDRESS":"正興街１８號七樓之６","OBJECTID":625916},"geometry":{"x":167831.4000000013,"y":2543862.5899999999}},{"attributes":{"ID":625944,"DIS_CODE":0,"TOWNNAME":"中西區","LI":"中正里","LIN":"4鄰","STREET":"正興街","SECT":" ","MAREA":" ","LANE":" ","ALLEY":" ","HOUSE_NO":"１８號四樓之５","E_COORD97":167831.39999999999,"N_COORD97":2543862.5899999999,"ADDRESS":"正興街１８號四樓之５","OBJECTID":625917},"geometry":{"x":167831.4000000013,"y":2543862.5899999999}},{"attributes":{"ID":625945,"DIS_CODE":0,"TOWNNAME":"中西區","LI":"中正里","LIN":"4鄰","STREET":"正興街","SECT":" ","MAREA":" ","LANE":" ","ALLEY":" ","HOUSE_NO":"１８號四樓之６","E_COORD97":167831.39999999999,"N_COORD97":2543862.5899999999,"ADDRESS":"正興街１８號四樓之６","OBJECTID":625918},"geometry":{"x":167831.4000000013,"y":2543862.5899999999}},{"attributes":{"ID":625946,"DIS_CODE":0,"TOWNNAME":"中西區","LI":"中正里","LIN":"4鄰","STREET":"正興街","SECT":" ","MAREA":" ","LANE":" ","ALLEY":" ","HOUSE_NO":"１８號四樓之７","E_COORD97":167831.39999999999,"N_COORD97":2543862.5899999999,"ADDRESS":"正興街１８號四樓之７","OBJECTID":625919},"geometry":{"x":167831.4000000013,"y":2543862.5899999999}},{"attributes":{"ID":625947,"DIS_CODE":0,"TOWNNAME":"中西區","LI":"中正里","LIN":"4鄰","STREET":"正興街","SECT":" ","MAREA":" ","LANE":" ","ALLEY":" ","HOUSE_NO":"１８號四樓之８","E_COORD97":167831.39999999999,"N_COORD97":2543862.5899999999,"ADDRESS":"正興街１８號四樓之８","OBJECTID":625920},"geometry":{"x":167831.4000000013,"y":2543862.5899999999}},{"attributes":{"ID":625948,"DIS_CODE":0,"TOWNNAME":"中西區","LI":"民生里","LIN":"13鄰","STREET":"金華路","SECT":"三段","MAREA":" ","LANE":" ","ALLEY":" ","HOUSE_NO":"７８號五樓之１０","E_COORD97":167229.34,"N_COORD97":2543438.3700000001,"ADDRESS":"金華路三段７８號五樓之１０","OBJECTID":625921},"geometry":{"x":167229.34000000171,"y":2543438.370000001}},{"attributes":{"ID":625949,"DIS_CODE":0,"TOWNNAME":"中西區","LI":"民生里","LIN":"13鄰","STREET":"金華路","SECT":"三段","MAREA":" ","LANE":" ","ALLEY":" ","HOUSE_NO":"７８號五樓之１１","E_COORD97":167229.34,"N_COORD97":2543438.3700000001,"ADDRESS":"金華路三段７８號五樓之１１","OBJECTID":625922},"geometry":{"x":167229.34000000171,"y":2543438.370000001}},{"attributes":{"ID":625950,"DIS_CODE":0,"TOWNNAME":"中西區","LI":"民生里","LIN":"13鄰","STREET":"金華路","SECT":"三段","MAREA":" ","LANE":" ","ALLEY":" ","HOUSE_NO":"７８號五樓之１２","E_COORD97":167229.34,"N_COORD97":2543438.3700000001,"ADDRESS":"金華路三段７８號五樓之１２","OBJECTID":625923},"geometry":{"x":167229.34000000171,"y":2543438.370000001}},{"attributes":{"ID":625951,"DIS_CODE":0,"TOWNNAME":"中西區","LI":"民生里","LIN":"19鄰","STREET":"保安路","SECT":" ","MAREA":" ","LANE":" ","ALLEY":" ","HOUSE_NO":"２０１號之１二樓","E_COORD97":167087.04999999999,"N_COORD97":2543540.1099999999,"ADDRESS":"保安路２０１號之１二樓","OBJECTID":625924},"geometry":{"x":167087.04999999888,"y":2543540.1099999994}},{"attributes":{"ID":625952,"DIS_CODE":0,"TOWNNAME":"中西區","LI":"民生里","LIN":"19鄰","STREET":"南華街","SECT":" ","MAREA":" ","LANE":" ","ALLEY":" ","HOUSE_NO":"８１號七樓之１","E_COORD97":167104.14000000001,"N_COORD97":2543491.1699999999,"ADDRESS":"南華街８１號七樓之１","OBJECTID":625925},"geometry":{"x":167104.1400000006,"y":2543491.1700000018}},{"attributes":{"ID":625953,"DIS_CODE":0,"TOWNNAME":"中西區","LI":"民生里","LIN":"19鄰","STREET":"南華街","SECT":" ","MAREA":" ","LANE":" ","ALLEY":" ","HOUSE_NO":"８１號七樓之１０","E_COORD97":167104.14000000001,"N_COORD97":2543491.1699999999,"ADDRESS":"南華街８１號七樓之１０","OBJECTID":625926},"geometry":{"x":167104.1400000006,"y":2543491.1700000018}},{"attributes":{"ID":625954,"DIS_CODE":0,"TOWNNAME":"中西區","LI":"民生里","LIN":"19鄰","STREET":"南華街","SECT":" ","MAREA":" ","LANE":" ","ALLEY":" ","HOUSE_NO":"８１號七樓之２","E_COORD97":167104.14000000001,"N_COORD97":2543491.1699999999,"ADDRESS":"南華街８１號七樓之２","OBJECTID":625927},"geometry":{"x":167104.1400000006,"y":2543491.1700000018}},{"attributes":{"ID":625955,"DIS_CODE":0,"TOWNNAME":"中西區","LI":"民生里","LIN":"19鄰","STREET":"南華街","SECT":" ","MAREA":" ","LANE":" ","ALLEY":" ","HOUSE_NO":"８１號七樓之３","E_COORD97":167104.14000000001,"N_COORD97":2543491.1699999999,"ADDRESS":"南華街８１號七樓之３","OBJECTID":625928},"geometry":{"x":167104.1400000006,"y":2543491.1700000018}},{"attributes":{"ID":625956,"DIS_CODE":0,"TOWNNAME":"中西區","LI":"民生里","LIN":"19鄰","STREET":"南華街","SECT":" ","MAREA":" ","LANE":" ","ALLEY":" ","HOUSE_NO":"８１號七樓之４","E_COORD97":167104.14000000001,"N_COORD97":2543491.1699999999,"ADDRESS":"南華街８１號七樓之４","OBJECTID":625929},"geometry":{"x":167104.1400000006,"y":2543491.1700000018}},{"attributes":{"ID":625957,"DIS_CODE":0,"TOWNNAME":"中西區","LI":"民生里","LIN":"19鄰","STREET":"南華街","SECT":" ","MAREA":" ","LANE":" ","ALLEY":" ","HOUSE_NO":"８１號七樓之５","E_COORD97":167104.14000000001,"N_COORD97":2543491.1699999999,"ADDRESS":"南華街８１號七樓之５","OBJECTID":625930},"geometry":{"x":167104.1400000006,"y":2543491.1700000018}},{"attributes":{"ID":625958,"DIS_CODE":0,"TOWNNAME":"中西區","LI":"民生里","LIN":"19鄰","STREET":"南華街","SECT":" ","MAREA":" ","LANE":" ","ALLEY":" ","HOUSE_NO":"８１號七樓之６","E_COORD97":167104.14000000001,"N_COORD97":2543491.1699999999,"ADDRESS":"南華街８１號七樓之６","OBJECTID":625931},"geometry":{"x":167104.1400000006,"y":2543491.1700000018}},{"attributes":{"ID":625959,"DIS_CODE":0,"TOWNNAME":"中西區","LI":"民生里","LIN":"19鄰","STREET":"南華街","SECT":" ","MAREA":" ","LANE":" ","ALLEY":" ","HOUSE_NO":"８１號七樓之７","E_COORD97":167104.14000000001,"N_COORD97":2543491.1699999999,"ADDRESS":"南華街８１號七樓之７","OBJECTID":625932},"geometry":{"x":167104.1400000006,"y":2543491.1700000018}},{"attributes":{"ID":625960,"DIS_CODE":0,"TOWNNAME":"中西區","LI":"民生里","LIN":"19鄰","STREET":"南華街","SECT":" ","MAREA":" ","LANE":" ","ALLEY":" ","HOUSE_NO":"８１號七樓之８","E_COORD97":167104.14000000001,"N_COORD97":2543491.1699999999,"ADDRESS":"南華街８１號七樓之８","OBJECTID":625933},"geometry":{"x":167104.1400000006,"y":2543491.1700000018}},{"attributes":{"ID":625961,"DIS_CODE":0,"TOWNNAME":"中西區","LI":"民生里","LIN":"19鄰","STREET":"南華街","SECT":" ","MAREA":" ","LANE":" ","ALLEY":" ","HOUSE_NO":"８１號七樓之９","E_COORD97":167104.14000000001,"N_COORD97":2543491.1699999999,"ADDRESS":"南華街８１號七樓之９","OBJECTID":625934},"geometry":{"x":167104.1400000006,"y":2543491.1700000018}},{"attributes":{"ID":625962,"DIS_CODE":0,"TOWNNAME":"中西區","LI":"民生里","LIN":"19鄰","STREET":"南華街","SECT":" ","MAREA":" ","LANE":" ","ALLEY":" ","HOUSE_NO":"８１號二樓之１","E_COORD97":167104.14000000001,"N_COORD97":2543491.1699999999,"ADDRESS":"南華街８１號二樓之１","OBJECTID":625935},"geometry":{"x":167104.1400000006,"y":2543491.1700000018}},{"attributes":{"ID":625963,"DIS_CODE":0,"TOWNNAME":"永康區","LI":"永康里","LIN":"39鄰","STREET":"永大一路","SECT":" ","MAREA":" ","LANE":" ","ALLEY":" ","HOUSE_NO":"６２號十一樓之２","E_COORD97":174181.92000000001,"N_COORD97":2546456.7200000002,"ADDRESS":"永大一路６２號十一樓之２","OBJECTID":625936},"geometry":{"x":174181.91999999993,"y":2546456.7200000007}},{"attributes":{"ID":625964,"DIS_CODE":0,"TOWNNAME":"永康區","LI":"安康里","LIN":"4鄰","STREET":"大橋一街","SECT":" ","MAREA":" ","LANE":" ","ALLEY":" ","HOUSE_NO":"４７號十樓之１","E_COORD97":170696.14999999999,"N_COORD97":2546297.9199999999,"ADDRESS":"大橋一街４７號十樓之１","OBJECTID":625937},"geometry":{"x":170696.15000000224,"y":2546297.9200000018}},{"attributes":{"ID":625965,"DIS_CODE":0,"TOWNNAME":"永康區","LI":"安康里","LIN":"4鄰","STREET":"大橋一街","SECT":" ","MAREA":" ","LANE":" ","ALLEY":" ","HOUSE_NO":"４７號二樓之１","E_COORD97":170696.14999999999,"N_COORD97":2546297.9199999999,"ADDRESS":"大橋一街４７號二樓之１","OBJECTID":625938},"geometry":{"x":170696.15000000224,"y":2546297.9200000018}},{"attributes":{"ID":625966,"DIS_CODE":0,"TOWNNAME":"永康區","LI":"安康里","LIN":"4鄰","STREET":"大橋一街","SECT":" ","MAREA":" ","LANE":" ","ALLEY":" ","HOUSE_NO":"４７號六樓之２","E_COORD97":170696.29000000001,"N_COORD97":2546297.9199999999,"ADDRESS":"大橋一街４７號六樓之２","OBJECTID":625939},"geometry":{"x":170696.29000000004,"y":2546297.9200000018}},{"attributes":{"ID":625967,"DIS_CODE":0,"TOWNNAME":"永康區","LI":"永康里","LIN":"39鄰","STREET":"永大一路","SECT":" ","MAREA":" ","LANE":" ","ALLEY":" ","HOUSE_NO":"６２號九樓之２","E_COORD97":174180.67000000001,"N_COORD97":2546456.7200000002,"ADDRESS":"永大一路６２號九樓之２","OBJECTID":625940},"geometry":{"x":174180.66999999993,"y":2546456.7200000007}},{"attributes":{"ID":625968,"DIS_CODE":0,"TOWNNAME":"永康區","LI":"永康里","LIN":"26鄰","STREET":"中山北路","SECT":" ","MAREA":" ","LANE":" ","ALLEY":" ","HOUSE_NO":"１１４號二樓之２","E_COORD97":174163.87,"N_COORD97":2547447.25,"ADDRESS":"中山北路１１４號二樓之２","OBJECTID":625941},"geometry":{"x":174163.87000000011,"y":2547447.2500000019}},{"attributes":{"ID":625969,"DIS_CODE":0,"TOWNNAME":"永康區","LI":"永康里","LIN":"40鄰","STREET":"永大二路","SECT":" ","MAREA":" ","LANE":" ","ALLEY":" ","HOUSE_NO":"４６號二樓之２","E_COORD97":174255.57000000001,"N_COORD97":2546582.0899999999,"ADDRESS":"永大二路４６號二樓之２","OBJECTID":625942},"geometry":{"x":174255.57000000123,"y":2546582.0899999999}},{"attributes":{"ID":625970,"DIS_CODE":0,"TOWNNAME":"永康區","LI":"安康里","LIN":"4鄰","STREET":"大橋一街","SECT":" ","MAREA":" ","LANE":" ","ALLEY":" ","HOUSE_NO":"４７號九樓之１","E_COORD97":170696.14999999999,"N_COORD97":2546297.9199999999,"ADDRESS":"大橋一街４７號九樓之１","OBJECTID":625943},"geometry":{"x":170696.15000000224,"y":2546297.9200000018}},{"attributes":{"ID":625971,"DIS_CODE":0,"TOWNNAME":"永康區","LI":"永康里","LIN":"26鄰","STREET":"中山北路","SECT":" ","MAREA":" ","LANE":" ","ALLEY":" ","HOUSE_NO":"１１４號十樓之２","E_COORD97":174163.87,"N_COORD97":2547447.25,"ADDRESS":"中山北路１１４號十樓之２","OBJECTID":625944},"geometry":{"x":174163.87000000011,"y":2547447.2500000019}},{"attributes":{"ID":625972,"DIS_CODE":0,"TOWNNAME":"永康區","LI":"永康里","LIN":"26鄰","STREET":"永大路","SECT":"二段","MAREA":" ","LANE":" ","ALLEY":" ","HOUSE_NO":"１１２９號十五樓之２","E_COORD97":174199.82000000001,"N_COORD97":2547482.3599999999,"ADDRESS":"永大路二段１１２９號十五樓之２","OBJECTID":625945},"geometry":{"x":174199.8200000003,"y":2547482.3599999994}},{"attributes":{"ID":625973,"DIS_CODE":0,"TOWNNAME":"永康區","LI":"永康里","LIN":"26鄰","STREET":"中山北路","SECT":" ","MAREA":" ","LANE":" ","ALLEY":" ","HOUSE_NO":"１１４號十六樓之２","E_COORD97":174165.12,"N_COORD97":2547447.25,"ADDRESS":"中山北路１１４號十六樓之２","OBJECTID":625946},"geometry":{"x":174165.12000000104,"y":2547447.2500000019}},{"attributes":{"ID":625974,"DIS_CODE":0,"TOWNNAME":"永康區","LI":"永康里","LIN":"39鄰","STREET":"永大一路","SECT":" ","MAREA":" ","LANE":" ","ALLEY":" ","HOUSE_NO":"６２號十樓之８","E_COORD97":174180.69,"N_COORD97":2546456.7200000002,"ADDRESS":"永大一路６２號十樓之８","OBJECTID":625947},"geometry":{"x":174180.69000000041,"y":2546456.7200000007}},{"attributes":{"ID":625975,"DIS_CODE":0,"TOWNNAME":"永康區","LI":"永康里","LIN":"39鄰","STREET":"永大一路","SECT":" ","MAREA":" ","LANE":" ","ALLEY":" ","HOUSE_NO":"６２號九樓之８","E_COORD97":174180.69,"N_COORD97":2546456.7200000002,"ADDRESS":"永大一路６２號九樓之８","OBJECTID":625948},"geometry":{"x":174180.69000000041,"y":2546456.7200000007}},{"attributes":{"ID":625976,"DIS_CODE":0,"TOWNNAME":"永康區","LI":"永康里","LIN":"39鄰","STREET":"永大一路","SECT":" ","MAREA":" ","LANE":" ","ALLEY":" ","HOUSE_NO":"６２號七樓之６","E_COORD97":174180.64000000001,"N_COORD97":2546456.7200000002,"ADDRESS":"永大一路６２號七樓之６","OBJECTID":625949},"geometry":{"x":174180.63999999873,"y":2546456.7200000007}},{"attributes":{"ID":625977,"DIS_CODE":0,"TOWNNAME":"永康區","LI":"永康里","LIN":"39鄰","STREET":"永大一路","SECT":" ","MAREA":" ","LANE":" ","ALLEY":" ","HOUSE_NO":"６２號十樓之１","E_COORD97":174180.54000000001,"N_COORD97":2546456.7200000002,"ADDRESS":"永大一路６２號十樓之１","OBJECTID":625950},"geometry":{"x":174180.54000000097,"y":2546456.7200000007}},{"attributes":{"ID":625978,"DIS_CODE":0,"TOWNNAME":"永康區","LI":"安康里","LIN":"4鄰","STREET":"大橋一街","SECT":" ","MAREA":" ","LANE":" ","ALLEY":" ","HOUSE_NO":"４７號五樓之１","E_COORD97":170696.14999999999,"N_COORD97":2546297.9199999999,"ADDRESS":"大橋一街４７號五樓之１","OBJECTID":625951},"geometry":{"x":170696.15000000224,"y":2546297.9200000018}},{"attributes":{"ID":625979,"DIS_CODE":0,"TOWNNAME":"永康區","LI":"永康里","LIN":"26鄰","STREET":"中山北路","SECT":" ","MAREA":" ","LANE":" ","ALLEY":" ","HOUSE_NO":"１１４號七樓之２","E_COORD97":174163.87,"N_COORD97":2547447.25,"ADDRESS":"中山北路１１４號七樓之２","OBJECTID":625952},"geometry":{"x":174163.87000000011,"y":2547447.2500000019}},{"attributes":{"ID":625980,"DIS_CODE":0,"TOWNNAME":"永康區","LI":"永康里","LIN":"39鄰","STREET":"永大一路","SECT":" ","MAREA":" ","LANE":" ","ALLEY":" ","HOUSE_NO":"６２號四樓之２","E_COORD97":174180.67000000001,"N_COORD97":2546456.7200000002,"ADDRESS":"永大一路６２號四樓之２","OBJECTID":625953},"geometry":{"x":174180.66999999993,"y":2546456.7200000007}},{"attributes":{"ID":625981,"DIS_CODE":0,"TOWNNAME":"永康區","LI":"永康里","LIN":"39鄰","STREET":"永大一路","SECT":" ","MAREA":" ","LANE":" ","ALLEY":" ","HOUSE_NO":"６２號十樓之２","E_COORD97":174180.67000000001,"N_COORD97":2546456.7200000002,"ADDRESS":"永大一路６２號十樓之２","OBJECTID":625954},"geometry":{"x":174180.66999999993,"y":2546456.7200000007}},{"attributes":{"ID":625982,"DIS_CODE":0,"TOWNNAME":"永康區","LI":"永康里","LIN":"12鄰","STREET":"永中街","SECT":" ","MAREA":" ","LANE":" ","ALLEY":" ","HOUSE_NO":"２０號四樓","E_COORD97":173886.73999999999,"N_COORD97":2547066.5699999998,"ADDRESS":"永中街２０號四樓","OBJECTID":625955},"geometry":{"x":173886.74000000022,"y":2547066.5700000022}},{"attributes":{"ID":625983,"DIS_CODE":0,"TOWNNAME":"永康區","LI":"安康里","LIN":"4鄰","STREET":"大橋一街","SECT":" ","MAREA":" ","LANE":" ","ALLEY":" ","HOUSE_NO":"４７號十四樓之２","E_COORD97":170697.54000000001,"N_COORD97":2546297.9199999999,"ADDRESS":"大橋一街４７號十四樓之２","OBJECTID":625956},"geometry":{"x":170697.54000000004,"y":2546297.9200000018}},{"attributes":{"ID":625984,"DIS_CODE":0,"TOWNNAME":"永康區","LI":"永康里","LIN":"26鄰","STREET":"中山北路","SECT":" ","MAREA":" ","LANE":" ","ALLEY":" ","HOUSE_NO":"１１４號九樓之２","E_COORD97":174163.87,"N_COORD97":2547447.25,"ADDRESS":"中山北路１１４號九樓之２","OBJECTID":625957},"geometry":{"x":174163.87000000011,"y":2547447.2500000019}},{"attributes":{"ID":625985,"DIS_CODE":0,"TOWNNAME":"永康區","LI":"永康里","LIN":"39鄰","STREET":"永大一路","SECT":" ","MAREA":" ","LANE":" ","ALLEY":" ","HOUSE_NO":"６２號八樓之８","E_COORD97":174180.69,"N_COORD97":2546456.7200000002,"ADDRESS":"永大一路６２號八樓之８","OBJECTID":625958},"geometry":{"x":174180.69000000041,"y":2546456.7200000007}},{"attributes":{"ID":625986,"DIS_CODE":0,"TOWNNAME":"永康區","LI":"安康里","LIN":"4鄰","STREET":"大橋一街","SECT":" ","MAREA":" ","LANE":" ","ALLEY":" ","HOUSE_NO":"４７號十三樓之１","E_COORD97":170697.39999999999,"N_COORD97":2546297.9199999999,"ADDRESS":"大橋一街４７號十三樓之１","OBJECTID":625959},"geometry":{"x":170697.40000000037,"y":2546297.9200000018}},{"attributes":{"ID":625987,"DIS_CODE":0,"TOWNNAME":"永康區","LI":"安康里","LIN":"26鄰","STREET":"大橋一街","SECT":" ","MAREA":" ","LANE":" ","ALLEY":" ","HOUSE_NO":"５３號九樓之２","E_COORD97":170778.87,"N_COORD97":2546346.7999999998,"ADDRESS":"大橋一街５３號九樓之２","OBJECTID":625960},"geometry":{"x":170778.87000000011,"y":2546346.8000000026}},{"attributes":{"ID":625988,"DIS_CODE":0,"TOWNNAME":"永康區","LI":"安康里","LIN":"26鄰","STREET":"大橋一街","SECT":" ","MAREA":" ","LANE":" ","ALLEY":" ","HOUSE_NO":"５３號七樓之１","E_COORD97":170778.73000000001,"N_COORD97":2546346.7999999998,"ADDRESS":"大橋一街５３號七樓之１","OBJECTID":625961},"geometry":{"x":170778.73000000231,"y":2546346.8000000026}},{"attributes":{"ID":625989,"DIS_CODE":0,"TOWNNAME":"永康區","LI":"永康里","LIN":"39鄰","STREET":"永大一路","SECT":" ","MAREA":" ","LANE":" ","ALLEY":" ","HOUSE_NO":"６２號十樓之７","E_COORD97":174180.62,"N_COORD97":2546456.7200000002,"ADDRESS":"永大一路６２號十樓之７","OBJECTID":625962},"geometry":{"x":174180.62000000011,"y":2546456.7200000007}},{"attributes":{"ID":625990,"DIS_CODE":0,"TOWNNAME":"永康區","LI":"永康里","LIN":"39鄰","STREET":"文化路","SECT":" ","MAREA":" ","LANE":" ","ALLEY":" ","HOUSE_NO":"４２號四樓","E_COORD97":174286.92000000001,"N_COORD97":2546356.3199999998,"ADDRESS":"文化路４２號四樓","OBJECTID":625963},"geometry":{"x":174286.91999999993,"y":2546356.3200000022}},{"attributes":{"ID":625991,"DIS_CODE":0,"TOWNNAME":"永康區","LI":"永康里","LIN":"39鄰","STREET":"永大一路","SECT":" ","MAREA":" ","LANE":" ","ALLEY":" ","HOUSE_NO":"６２號十樓之５","E_COORD97":174180.70000000001,"N_COORD97":2546456.7200000002,"ADDRESS":"永大一路６２號十樓之５","OBJECTID":625964},"geometry":{"x":174180.70000000019,"y":2546456.7200000007}},{"attributes":{"ID":625992,"DIS_CODE":0,"TOWNNAME":"永康區","LI":"永康里","LIN":"39鄰","STREET":"永大一路","SECT":" ","MAREA":" ","LANE":" ","ALLEY":" ","HOUSE_NO":"６２號九樓之７","E_COORD97":174180.62,"N_COORD97":2546456.7200000002,"ADDRESS":"永大一路６２號九樓之７","OBJECTID":625965},"geometry":{"x":174180.62000000011,"y":2546456.7200000007}},{"attributes":{"ID":625993,"DIS_CODE":0,"TOWNNAME":"永康區","LI":"安康里","LIN":"4鄰","STREET":"大橋一街","SECT":" ","MAREA":" ","LANE":" ","ALLEY":" ","HOUSE_NO":"４７號十樓之２","E_COORD97":170696.29000000001,"N_COORD97":2546297.9199999999,"ADDRESS":"大橋一街４７號十樓之２","OBJECTID":625966},"geometry":{"x":170696.29000000004,"y":2546297.9200000018}},{"attributes":{"ID":625994,"DIS_CODE":0,"TOWNNAME":"永康區","LI":"安康里","LIN":"4鄰","STREET":"大橋一街","SECT":" ","MAREA":" ","LANE":" ","ALLEY":" ","HOUSE_NO":"４７號十二樓之１","E_COORD97":170697.39999999999,"N_COORD97":2546297.9199999999,"ADDRESS":"大橋一街４７號十二樓之１","OBJECTID":625967},"geometry":{"x":170697.40000000037,"y":2546297.9200000018}},{"attributes":{"ID":625995,"DIS_CODE":0,"TOWNNAME":"永康區","LI":"永康里","LIN":"26鄰","STREET":"永大路","SECT":"二段","MAREA":" ","LANE":" ","ALLEY":" ","HOUSE_NO":"１１２９號十五樓之３","E_COORD97":174199.79000000001,"N_COORD97":2547482.3599999999,"ADDRESS":"永大路二段１１２９號十五樓之３","OBJECTID":625968},"geometry":{"x":174199.79000000004,"y":2547482.3599999994}},{"attributes":{"ID":625996,"DIS_CODE":0,"TOWNNAME":"永康區","LI":"安康里","LIN":"25鄰","STREET":"中華路","SECT":" ","MAREA":" ","LANE":" ","ALLEY":" ","HOUSE_NO":"７２３號五樓","E_COORD97":170870.10000000001,"N_COORD97":2546378,"ADDRESS":"中華路７２３號五樓","OBJECTID":625969},"geometry":{"x":170870.09999999963,"y":2546378.0000000019}},{"attributes":{"ID":625997,"DIS_CODE":0,"TOWNNAME":"永康區","LI":"安康里","LIN":"25鄰","STREET":"大橋一街","SECT":" ","MAREA":" ","LANE":" ","ALLEY":" ","HOUSE_NO":"１４２號三樓","E_COORD97":170858.92000000001,"N_COORD97":2546359.25,"ADDRESS":"大橋一街１４２號三樓","OBJECTID":625970},"geometry":{"x":170858.92000000086,"y":2546359.2500000019}},{"attributes":{"ID":625998,"DIS_CODE":0,"TOWNNAME":"永康區","LI":"安康里","LIN":"4鄰","STREET":"大橋一街","SECT":" ","MAREA":" ","LANE":" ","ALLEY":" ","HOUSE_NO":"４７號八樓之２","E_COORD97":170696.29000000001,"N_COORD97":2546297.9199999999,"ADDRESS":"大橋一街４７號八樓之２","OBJECTID":625971},"geometry":{"x":170696.29000000004,"y":2546297.9200000018}},{"attributes":{"ID":625999,"DIS_CODE":0,"TOWNNAME":"永康區","LI":"安康里","LIN":"4鄰","STREET":"大橋一街","SECT":" ","MAREA":" ","LANE":" ","ALLEY":" ","HOUSE_NO":"４７號八樓之１","E_COORD97":170696.14999999999,"N_COORD97":2546297.9199999999,"ADDRESS":"大橋一街４７號八樓之１","OBJECTID":625972},"geometry":{"x":170696.15000000224,"y":2546297.9200000018}},{"attributes":{"ID":626000,"DIS_CODE":0,"TOWNNAME":"永康區","LI":"安康里","LIN":"26鄰","STREET":"大橋一街","SECT":" ","MAREA":" ","LANE":" ","ALLEY":" ","HOUSE_NO":"５３號二樓之２","E_COORD97":170778.87,"N_COORD97":2546346.7999999998,"ADDRESS":"大橋一街５３號二樓之２","OBJECTID":625973},"geometry":{"x":170778.87000000011,"y":2546346.8000000026}},{"attributes":{"ID":626001,"DIS_CODE":0,"TOWNNAME":"永康區","LI":"永康里","LIN":"26鄰","STREET":"中山北路","SECT":" ","MAREA":" ","LANE":" ","ALLEY":" ","HOUSE_NO":"１１４號十一樓之２","E_COORD97":174165.12,"N_COORD97":2547447.25,"ADDRESS":"中山北路１１４號十一樓之２","OBJECTID":625974},"geometry":{"x":174165.12000000104,"y":2547447.2500000019}},{"attributes":{"ID":626002,"DIS_CODE":0,"TOWNNAME":"永康區","LI":"永康里","LIN":"26鄰","STREET":"中山北路","SECT":" ","MAREA":" ","LANE":" ","ALLEY":" ","HOUSE_NO":"１１４號十一樓之１","E_COORD97":174164.98999999999,"N_COORD97":2547447.25,"ADDRESS":"中山北路１１４號十一樓之１","OBJECTID":625975},"geometry":{"x":174164.99000000022,"y":2547447.2500000019}},{"attributes":{"ID":626003,"DIS_CODE":0,"TOWNNAME":"永康區","LI":"永康里","LIN":"39鄰","STREET":"永大一路","SECT":" ","MAREA":" ","LANE":" ","ALLEY":" ","HOUSE_NO":"６２號十二樓之５","E_COORD97":174181.95000000001,"N_COORD97":2546456.7200000002,"ADDRESS":"永大一路６２號十二樓之５","OBJECTID":625976},"geometry":{"x":174181.95000000019,"y":2546456.7200000007}},{"attributes":{"ID":626004,"DIS_CODE":0,"TOWNNAME":"永康區","LI":"永康里","LIN":"39鄰","STREET":"永大一路","SECT":" ","MAREA":" ","LANE":" ","ALLEY":" ","HOUSE_NO":"６２號九樓之９","E_COORD97":174180.62,"N_COORD97":2546456.7200000002,"ADDRESS":"永大一路６２號九樓之９","OBJECTID":625977},"geometry":{"x":174180.62000000011,"y":2546456.7200000007}},{"attributes":{"ID":626005,"DIS_CODE":0,"TOWNNAME":"永康區","LI":"永康里","LIN":"39鄰","STREET":"永大一路","SECT":" ","MAREA":" ","LANE":" ","ALLEY":" ","HOUSE_NO":"６２號七樓之８","E_COORD97":174180.69,"N_COORD97":2546456.7200000002,"ADDRESS":"永大一路６２號七樓之８","OBJECTID":625978},"geometry":{"x":174180.69000000041,"y":2546456.7200000007}},{"attributes":{"ID":626006,"DIS_CODE":0,"TOWNNAME":"永康區","LI":"永康里","LIN":"39鄰","STREET":"永大一路","SECT":" ","MAREA":" ","LANE":" ","ALLEY":" ","HOUSE_NO":"６２號十二樓之１","E_COORD97":174181.79000000001,"N_COORD97":2546456.7200000002,"ADDRESS":"永大一路６２號十二樓之１","OBJECTID":625979},"geometry":{"x":174181.7900000019,"y":2546456.7200000007}},{"attributes":{"ID":626007,"DIS_CODE":0,"TOWNNAME":"永康區","LI":"永康里","LIN":"39鄰","STREET":"永大一路","SECT":" ","MAREA":" ","LANE":" ","ALLEY":" ","HOUSE_NO":"６２號八樓之９","E_COORD97":174180.62,"N_COORD97":2546456.7200000002,"ADDRESS":"永大一路６２號八樓之９","OBJECTID":625980},"geometry":{"x":174180.62000000011,"y":2546456.7200000007}},{"attributes":{"ID":626008,"DIS_CODE":0,"TOWNNAME":"永康區","LI":"安康里","LIN":"4鄰","STREET":"大橋一街","SECT":" ","MAREA":" ","LANE":" ","ALLEY":" ","HOUSE_NO":"４７號十一樓之２","E_COORD97":170697.54000000001,"N_COORD97":2546297.9199999999,"ADDRESS":"大橋一街４７號十一樓之２","OBJECTID":625981},"geometry":{"x":170697.54000000004,"y":2546297.9200000018}},{"attributes":{"ID":626009,"DIS_CODE":0,"TOWNNAME":"永康區","LI":"安康里","LIN":"4鄰","STREET":"大橋一街","SECT":" ","MAREA":" ","LANE":" ","ALLEY":" ","HOUSE_NO":"４７號七樓之１","E_COORD97":170696.14999999999,"N_COORD97":2546297.9199999999,"ADDRESS":"大橋一街４７號七樓之１","OBJECTID":625982},"geometry":{"x":170696.15000000224,"y":2546297.9200000018}},{"attributes":{"ID":626010,"DIS_CODE":0,"TOWNNAME":"中西區","LI":"元安里","LIN":"4鄰","STREET":"西門路","SECT":"一段","MAREA":" ","LANE":" ","ALLEY":" ","HOUSE_NO":"７１３號二樓之１","E_COORD97":167693.98000000001,"N_COORD97":2543272.4300000002,"ADDRESS":"西門路一段７１３號二樓之１","OBJECTID":625983},"geometry":{"x":167693.98000000138,"y":2543272.4300000016}},{"attributes":{"ID":626011,"DIS_CODE":0,"TOWNNAME":"中西區","LI":"元安里","LIN":"4鄰","STREET":"西門路","SECT":"一段","MAREA":" ","LANE":" ","ALLEY":" ","HOUSE_NO":"７１３號二樓之２","E_COORD97":167693.98000000001,"N_COORD97":2543272.4300000002,"ADDRESS":"西門路一段７１３號二樓之２","OBJECTID":625984},"geometry":{"x":167693.98000000138,"y":2543272.4300000016}},{"attributes":{"ID":626012,"DIS_CODE":0,"TOWNNAME":"中西區","LI":"元安里","LIN":"4鄰","STREET":"西門路","SECT":"一段","MAREA":" ","LANE":" ","ALLEY":" ","HOUSE_NO":"７１３號二樓之３","E_COORD97":167693.98000000001,"N_COORD97":2543272.4300000002,"ADDRESS":"西門路一段７１３號二樓之３","OBJECTID":625985},"geometry":{"x":167693.98000000138,"y":2543272.4300000016}},{"attributes":{"ID":626013,"DIS_CODE":0,"TOWNNAME":"中西區","LI":"元安里","LIN":"4鄰","STREET":"西門路","SECT":"一段","MAREA":" ","LANE":" ","ALLEY":" ","HOUSE_NO":"７１３號三樓之１","E_COORD97":167693.98000000001,"N_COORD97":2543272.4300000002,"ADDRESS":"西門路一段７１３號三樓之１","OBJECTID":625986},"geometry":{"x":167693.98000000138,"y":2543272.4300000016}},{"attributes":{"ID":626014,"DIS_CODE":0,"TOWNNAME":"中西區","LI":"元安里","LIN":"4鄰","STREET":"西門路","SECT":"一段","MAREA":" ","LANE":" ","ALLEY":" ","HOUSE_NO":"７１３號三樓之２","E_COORD97":167693.98000000001,"N_COORD97":2543272.4300000002,"ADDRESS":"西門路一段７１３號三樓之２","OBJECTID":625987},"geometry":{"x":167693.98000000138,"y":2543272.4300000016}},{"attributes":{"ID":626015,"DIS_CODE":0,"TOWNNAME":"中西區","LI":"元安里","LIN":"4鄰","STREET":"西門路","SECT":"一段","MAREA":" ","LANE":" ","ALLEY":" ","HOUSE_NO":"７１３號三樓之３","E_COORD97":167693.98000000001,"N_COORD97":2543272.4300000002,"ADDRESS":"西門路一段７１３號三樓之３","OBJECTID":625988},"geometry":{"x":167693.98000000138,"y":2543272.4300000016}},{"attributes":{"ID":626016,"DIS_CODE":0,"TOWNNAME":"中西區","LI":"元安里","LIN":"4鄰","STREET":"西門路","SECT":"一段","MAREA":" ","LANE":" ","ALLEY":" ","HOUSE_NO":"７１３號五樓之１","E_COORD97":167693.98000000001,"N_COORD97":2543272.4300000002,"ADDRESS":"西門路一段７１３號五樓之１","OBJECTID":625989},"geometry":{"x":167693.98000000138,"y":2543272.4300000016}},{"attributes":{"ID":626017,"DIS_CODE":0,"TOWNNAME":"中西區","LI":"元安里","LIN":"4鄰","STREET":"西門路","SECT":"一段","MAREA":" ","LANE":" ","ALLEY":" ","HOUSE_NO":"７１３號五樓之２","E_COORD97":167693.98000000001,"N_COORD97":2543272.4300000002,"ADDRESS":"西門路一段７１３號五樓之２","OBJECTID":625990},"geometry":{"x":167693.98000000138,"y":2543272.4300000016}},{"attributes":{"ID":626018,"DIS_CODE":0,"TOWNNAME":"中西區","LI":"元安里","LIN":"4鄰","STREET":"西門路","SECT":"一段","MAREA":" ","LANE":" ","ALLEY":" ","HOUSE_NO":"７１３號五樓之３","E_COORD97":167693.98000000001,"N_COORD97":2543272.4300000002,"ADDRESS":"西門路一段７１３號五樓之３","OBJECTID":625991},"geometry":{"x":167693.98000000138,"y":2543272.4300000016}},{"attributes":{"ID":626019,"DIS_CODE":0,"TOWNNAME":"中西區","LI":"元安里","LIN":"4鄰","STREET":"西門路","SECT":"一段","MAREA":" ","LANE":" ","ALLEY":" ","HOUSE_NO":"７１３號四樓之１","E_COORD97":167693.98000000001,"N_COORD97":2543272.4300000002,"ADDRESS":"西門路一段７１３號四樓之１","OBJECTID":625992},"geometry":{"x":167693.98000000138,"y":2543272.4300000016}},{"attributes":{"ID":626020,"DIS_CODE":0,"TOWNNAME":"中西區","LI":"元安里","LIN":"4鄰","STREET":"西門路","SECT":"一段","MAREA":" ","LANE":" ","ALLEY":" ","HOUSE_NO":"７１３號四樓之２","E_COORD97":167693.98000000001,"N_COORD97":2543272.4300000002,"ADDRESS":"西門路一段７１３號四樓之２","OBJECTID":625993},"geometry":{"x":167693.98000000138,"y":2543272.4300000016}},{"attributes":{"ID":626021,"DIS_CODE":0,"TOWNNAME":"中西區","LI":"元安里","LIN":"4鄰","STREET":"西門路","SECT":"一段","MAREA":" ","LANE":" ","ALLEY":" ","HOUSE_NO":"７１３號四樓之３","E_COORD97":167693.98000000001,"N_COORD97":2543272.4300000002,"ADDRESS":"西門路一段７１３號四樓之３","OBJECTID":625994},"geometry":{"x":167693.98000000138,"y":2543272.4300000016}},{"attributes":{"ID":626022,"DIS_CODE":0,"TOWNNAME":"中西區","LI":"中正里","LIN":" ","STREET":"民生路","SECT":"二段","MAREA":" ","LANE":" ","ALLEY":" ","HOUSE_NO":"５１號二樓","E_COORD97":167753.19,"N_COORD97":2543931.4500000002,"ADDRESS":"民生路二段５１號二樓","OBJECTID":625995},"geometry":{"x":167753.19000000134,"y":2543931.4499999993}},{"attributes":{"ID":626023,"DIS_CODE":0,"TOWNNAME":"中西區","LI":"民主里","LIN":" ","STREET":"府前路","SECT":"二段","MAREA":" ","LANE":" ","ALLEY":" ","HOUSE_NO":"１４７號四樓之１","E_COORD97":167354.54999999999,"N_COORD97":2543530.46,"ADDRESS":"府前路二段１４７號四樓之１","OBJECTID":625996},"geometry":{"x":167354.54999999981,"y":2543530.4600000046}},{"attributes":{"ID":626024,"DIS_CODE":0,"TOWNNAME":"中西區","LI":"安海里","LIN":" ","STREET":"金華路","SECT":"三段","MAREA":" ","LANE":" ","ALLEY":" ","HOUSE_NO":"２３０號二樓","E_COORD97":167356.13,"N_COORD97":2543956.71,"ADDRESS":"金華路三段２３０號二樓","OBJECTID":625997},"geometry":{"x":167356.12999999896,"y":2543956.7100000028}},{"attributes":{"ID":626025,"DIS_CODE":0,"TOWNNAME":"中西區","LI":"西湖里","LIN":" ","STREET":"頂美一街","SECT":" ","MAREA":" ","LANE":" ","ALLEY":" ","HOUSE_NO":"７號二樓","E_COORD97":166289.89999999999,"N_COORD97":2544480.1099999999,"ADDRESS":"頂美一街７號二樓","OBJECTID":625998},"geometry":{"x":166289.90000000037,"y":2544480.1099999994}},{"attributes":{"ID":626026,"DIS_CODE":0,"TOWNNAME":"南區","LI":"再興里","LIN":"12鄰","STREET":"三官路","SECT":" ","MAREA":" ","LANE":" ","ALLEY":" ","HOUSE_NO":"２３２號二樓之１","E_COORD97":167100.01000000001,"N_COORD97":2541983.4900000002,"ADDRESS":"三官路２３２號二樓之１","OBJECTID":625999},"geometry":{"x":167100.01000000071,"y":2541983.4900000039}},{"attributes":{"ID":626027,"DIS_CODE":0,"TOWNNAME":"南區","LI":"再興里","LIN":"12鄰","STREET":"三官路","SECT":" ","MAREA":" ","LANE":" ","ALLEY":" ","HOUSE_NO":"２３２號二樓之２","E_COORD97":167100.01000000001,"N_COORD97":2541983.4900000002,"ADDRESS":"三官路２３２號二樓之２","OBJECTID":626000},"geometry":{"x":167100.01000000071,"y":2541983.4900000039}}]}