{"displayFieldName":"TOWNNAME","fieldAliases":{"ID":"ID","DIS_CODE":"DIS_CODE","TOWNNAME":"TOWNNAME","LI":"LI","LIN":"LIN","STREET":"STREET","SECT":"SECT","MAREA":"MAREA","LANE":"LANE","ALLEY":"ALLEY","HOUSE_NO":"HOUSE_NO","E_COORD97":"E_COORD97","N_COORD97":"N_COORD97","ADDRESS":"ADDRESS","OBJECTID":"OBJECTID"},"geometryType":"esriGeometryPoint","spatialReference":{"wkid":102443,"latestWkid":3826},"fields":[{"name":"ID","type":"esriFieldTypeDouble","alias":"ID"},{"name":"DIS_CODE","type":"esriFieldTypeInteger","alias":"DIS_CODE"},{"name":"TOWNNAME","type":"esriFieldTypeString","alias":"TOWNNAME","length":8},{"name":"LI","type":"esriFieldTypeString","alias":"LI","length":8},{"name":"LIN","type":"esriFieldTypeString","alias":"LIN","length":12},{"name":"STREET","type":"esriFieldTypeString","alias":"STREET","length":20},{"name":"SECT","type":"esriFieldTypeString","alias":"SECT","length":8},{"name":"MAREA","type":"esriFieldTypeString","alias":"MAREA","length":12},{"name":"LANE","type":"esriFieldTypeString","alias":"LANE","length":10},{"name":"ALLEY","type":"esriFieldTypeString","alias":"ALLEY","length":10},{"name":"HOUSE_NO","type":"esriFieldTypeString","alias":"HOUSE_NO","length":20},{"name":"E_COORD97","type":"esriFieldTypeDouble","alias":"E_COORD97"},{"name":"N_COORD97","type":"esriFieldTypeDouble","alias":"N_COORD97"},{"name":"ADDRESS","type":"esriFieldTypeString","alias":"ADDRESS","length":50},{"name":"OBJECTID","type":"esriFieldTypeOID","alias":"OBJECTID"}],"features":[{"attributes":{"ID":411025,"DIS_CODE":0,"TOWNNAME":"北區","LI":"大道里","LIN":"3鄰","STREET":"北門路","SECT":"二段","MAREA":" ","LANE":"５７６巷","ALLEY":" ","HOUSE_NO":"１９號四樓之３","E_COORD97":169715.70000000001,"N_COORD97":2545713.6000000001,"ADDRESS":"北門路二段５７６巷１９號四樓之３","OBJECTID":411001},"geometry":{"x":169715.69999999925,"y":2545713.5999999996}},{"attributes":{"ID":411026,"DIS_CODE":0,"TOWNNAME":"北區","LI":"大道里","LIN":"3鄰","STREET":"北門路","SECT":"二段","MAREA":" ","LANE":"５７６巷","ALLEY":" ","HOUSE_NO":"１９號五樓之２","E_COORD97":169715.70000000001,"N_COORD97":2545713.6000000001,"ADDRESS":"北門路二段５７６巷１９號五樓之２","OBJECTID":411002},"geometry":{"x":169715.69999999925,"y":2545713.5999999996}},{"attributes":{"ID":411027,"DIS_CODE":0,"TOWNNAME":"北區","LI":"大道里","LIN":"3鄰","STREET":"北門路","SECT":"二段","MAREA":" ","LANE":"５７６巷","ALLEY":" ","HOUSE_NO":"１９號五樓之１","E_COORD97":169715.70000000001,"N_COORD97":2545713.6000000001,"ADDRESS":"北門路二段５７６巷１９號五樓之１","OBJECTID":411003},"geometry":{"x":169715.69999999925,"y":2545713.5999999996}},{"attributes":{"ID":411028,"DIS_CODE":0,"TOWNNAME":"北區","LI":"大道里","LIN":"3鄰","STREET":"北門路","SECT":"二段","MAREA":" ","LANE":"５７６巷","ALLEY":" ","HOUSE_NO":"１９號五樓之５","E_COORD97":169715.70000000001,"N_COORD97":2545713.6000000001,"ADDRESS":"北門路二段５７６巷１９號五樓之５","OBJECTID":411004},"geometry":{"x":169715.69999999925,"y":2545713.5999999996}},{"attributes":{"ID":411029,"DIS_CODE":0,"TOWNNAME":"北區","LI":"大道里","LIN":"3鄰","STREET":"北門路","SECT":"二段","MAREA":" ","LANE":"５７６巷","ALLEY":" ","HOUSE_NO":"１９號五樓之３","E_COORD97":169715.70000000001,"N_COORD97":2545713.6000000001,"ADDRESS":"北門路二段５７６巷１９號五樓之３","OBJECTID":411005},"geometry":{"x":169715.69999999925,"y":2545713.5999999996}},{"attributes":{"ID":411030,"DIS_CODE":0,"TOWNNAME":"北區","LI":"大道里","LIN":"3鄰","STREET":"北門路","SECT":"二段","MAREA":" ","LANE":"５７６巷","ALLEY":" ","HOUSE_NO":"１９號六樓之２","E_COORD97":169715.70000000001,"N_COORD97":2545713.6000000001,"ADDRESS":"北門路二段５７６巷１９號六樓之２","OBJECTID":411006},"geometry":{"x":169715.69999999925,"y":2545713.5999999996}},{"attributes":{"ID":411031,"DIS_CODE":0,"TOWNNAME":"北區","LI":"大道里","LIN":"3鄰","STREET":"北門路","SECT":"二段","MAREA":" ","LANE":"５７６巷","ALLEY":" ","HOUSE_NO":"１９號六樓之１","E_COORD97":169715.70000000001,"N_COORD97":2545713.6000000001,"ADDRESS":"北門路二段５７６巷１９號六樓之１","OBJECTID":411007},"geometry":{"x":169715.69999999925,"y":2545713.5999999996}},{"attributes":{"ID":411032,"DIS_CODE":0,"TOWNNAME":"北區","LI":"大道里","LIN":"3鄰","STREET":"北門路","SECT":"二段","MAREA":" ","LANE":"５７６巷","ALLEY":" ","HOUSE_NO":"１９號六樓之５","E_COORD97":169715.70000000001,"N_COORD97":2545713.6000000001,"ADDRESS":"北門路二段５７６巷１９號六樓之５","OBJECTID":411008},"geometry":{"x":169715.69999999925,"y":2545713.5999999996}},{"attributes":{"ID":411033,"DIS_CODE":0,"TOWNNAME":"北區","LI":"大道里","LIN":"3鄰","STREET":"北門路","SECT":"二段","MAREA":" ","LANE":"５７６巷","ALLEY":" ","HOUSE_NO":"１９號六樓之３","E_COORD97":169715.70000000001,"N_COORD97":2545713.6000000001,"ADDRESS":"北門路二段５７６巷１９號六樓之３","OBJECTID":411009},"geometry":{"x":169715.69999999925,"y":2545713.5999999996}},{"attributes":{"ID":411034,"DIS_CODE":0,"TOWNNAME":"北區","LI":"大道里","LIN":"3鄰","STREET":"北門路","SECT":"二段","MAREA":" ","LANE":"５７６巷","ALLEY":" ","HOUSE_NO":"１９號七樓之２","E_COORD97":169715.70000000001,"N_COORD97":2545713.6000000001,"ADDRESS":"北門路二段５７６巷１９號七樓之２","OBJECTID":411010},"geometry":{"x":169715.69999999925,"y":2545713.5999999996}},{"attributes":{"ID":411035,"DIS_CODE":0,"TOWNNAME":"北區","LI":"大道里","LIN":"3鄰","STREET":"北門路","SECT":"二段","MAREA":" ","LANE":"５７６巷","ALLEY":" ","HOUSE_NO":"１９號七樓之１","E_COORD97":169715.70000000001,"N_COORD97":2545713.6000000001,"ADDRESS":"北門路二段５７６巷１９號七樓之１","OBJECTID":411011},"geometry":{"x":169715.69999999925,"y":2545713.5999999996}},{"attributes":{"ID":411036,"DIS_CODE":0,"TOWNNAME":"中西區","LI":"保安里","LIN":"3鄰","STREET":"保安路","SECT":" ","MAREA":" ","LANE":"５８巷","ALLEY":" ","HOUSE_NO":"３號","E_COORD97":167609.53,"N_COORD97":2543460.5699999998,"ADDRESS":"保安路５８巷３號","OBJECTID":411012},"geometry":{"x":167609.53000000026,"y":2543460.5700000003}},{"attributes":{"ID":411037,"DIS_CODE":0,"TOWNNAME":"北區","LI":"大道里","LIN":"3鄰","STREET":"北門路","SECT":"二段","MAREA":" ","LANE":"５７６巷","ALLEY":" ","HOUSE_NO":"１９號七樓之５","E_COORD97":169715.70000000001,"N_COORD97":2545713.6000000001,"ADDRESS":"北門路二段５７６巷１９號七樓之５","OBJECTID":411013},"geometry":{"x":169715.69999999925,"y":2545713.5999999996}},{"attributes":{"ID":411038,"DIS_CODE":0,"TOWNNAME":"北區","LI":"大道里","LIN":"3鄰","STREET":"北門路","SECT":"二段","MAREA":" ","LANE":"５７６巷","ALLEY":" ","HOUSE_NO":"１９號七樓之３","E_COORD97":169715.70000000001,"N_COORD97":2545713.6000000001,"ADDRESS":"北門路二段５７６巷１９號七樓之３","OBJECTID":411014},"geometry":{"x":169715.69999999925,"y":2545713.5999999996}},{"attributes":{"ID":411039,"DIS_CODE":0,"TOWNNAME":"北區","LI":"大道里","LIN":"3鄰","STREET":"北門路","SECT":"二段","MAREA":" ","LANE":"５７６巷","ALLEY":" ","HOUSE_NO":"１９號八樓之２","E_COORD97":169715.70000000001,"N_COORD97":2545713.6000000001,"ADDRESS":"北門路二段５７６巷１９號八樓之２","OBJECTID":411015},"geometry":{"x":169715.69999999925,"y":2545713.5999999996}},{"attributes":{"ID":411040,"DIS_CODE":0,"TOWNNAME":"北區","LI":"大道里","LIN":"3鄰","STREET":"北門路","SECT":"二段","MAREA":" ","LANE":"５７６巷","ALLEY":" ","HOUSE_NO":"１９號八樓之１","E_COORD97":169715.70000000001,"N_COORD97":2545713.6000000001,"ADDRESS":"北門路二段５７６巷１９號八樓之１","OBJECTID":411016},"geometry":{"x":169715.69999999925,"y":2545713.5999999996}},{"attributes":{"ID":411041,"DIS_CODE":0,"TOWNNAME":"北區","LI":"大道里","LIN":"3鄰","STREET":"北門路","SECT":"二段","MAREA":" ","LANE":"５７６巷","ALLEY":" ","HOUSE_NO":"１９號八樓之５","E_COORD97":169715.70000000001,"N_COORD97":2545713.6000000001,"ADDRESS":"北門路二段５７６巷１９號八樓之５","OBJECTID":411017},"geometry":{"x":169715.69999999925,"y":2545713.5999999996}},{"attributes":{"ID":411042,"DIS_CODE":0,"TOWNNAME":"北區","LI":"大道里","LIN":"3鄰","STREET":"北門路","SECT":"二段","MAREA":" ","LANE":"５７６巷","ALLEY":" ","HOUSE_NO":"１９號八樓之３","E_COORD97":169715.70000000001,"N_COORD97":2545713.6000000001,"ADDRESS":"北門路二段５７６巷１９號八樓之３","OBJECTID":411018},"geometry":{"x":169715.69999999925,"y":2545713.5999999996}},{"attributes":{"ID":411043,"DIS_CODE":0,"TOWNNAME":"北區","LI":"大道里","LIN":"3鄰","STREET":"北門路","SECT":"二段","MAREA":" ","LANE":"５７６巷","ALLEY":" ","HOUSE_NO":"１９號九樓之２","E_COORD97":169715.70000000001,"N_COORD97":2545713.6000000001,"ADDRESS":"北門路二段５７６巷１９號九樓之２","OBJECTID":411019},"geometry":{"x":169715.69999999925,"y":2545713.5999999996}},{"attributes":{"ID":411044,"DIS_CODE":0,"TOWNNAME":"北區","LI":"大道里","LIN":"3鄰","STREET":"北門路","SECT":"二段","MAREA":" ","LANE":"５７６巷","ALLEY":" ","HOUSE_NO":"１９號九樓之１","E_COORD97":169715.70000000001,"N_COORD97":2545713.6000000001,"ADDRESS":"北門路二段５７６巷１９號九樓之１","OBJECTID":411020},"geometry":{"x":169715.69999999925,"y":2545713.5999999996}},{"attributes":{"ID":411045,"DIS_CODE":0,"TOWNNAME":"北區","LI":"大道里","LIN":"3鄰","STREET":"北門路","SECT":"二段","MAREA":" ","LANE":"５７６巷","ALLEY":" ","HOUSE_NO":"１９號九樓之５","E_COORD97":169715.70000000001,"N_COORD97":2545713.6000000001,"ADDRESS":"北門路二段５７６巷１９號九樓之５","OBJECTID":411021},"geometry":{"x":169715.69999999925,"y":2545713.5999999996}},{"attributes":{"ID":411046,"DIS_CODE":0,"TOWNNAME":"北區","LI":"大道里","LIN":"3鄰","STREET":"北門路","SECT":"二段","MAREA":" ","LANE":"５７６巷","ALLEY":" ","HOUSE_NO":"１９號九樓之３","E_COORD97":169715.70000000001,"N_COORD97":2545713.6000000001,"ADDRESS":"北門路二段５７６巷１９號九樓之３","OBJECTID":411022},"geometry":{"x":169715.69999999925,"y":2545713.5999999996}},{"attributes":{"ID":411047,"DIS_CODE":0,"TOWNNAME":"北區","LI":"大道里","LIN":"3鄰","STREET":"北門路","SECT":"二段","MAREA":" ","LANE":"５７６巷","ALLEY":" ","HOUSE_NO":"１９號十樓之２","E_COORD97":169715.70000000001,"N_COORD97":2545713.6000000001,"ADDRESS":"北門路二段５７６巷１９號十樓之２","OBJECTID":411023},"geometry":{"x":169715.69999999925,"y":2545713.5999999996}},{"attributes":{"ID":411048,"DIS_CODE":0,"TOWNNAME":"北區","LI":"大道里","LIN":"3鄰","STREET":"北門路","SECT":"二段","MAREA":" ","LANE":"５７６巷","ALLEY":" ","HOUSE_NO":"１９號十樓之１","E_COORD97":169715.70000000001,"N_COORD97":2545713.6000000001,"ADDRESS":"北門路二段５７６巷１９號十樓之１","OBJECTID":411024},"geometry":{"x":169715.69999999925,"y":2545713.5999999996}},{"attributes":{"ID":411049,"DIS_CODE":0,"TOWNNAME":"北區","LI":"大道里","LIN":"3鄰","STREET":"北門路","SECT":"二段","MAREA":" ","LANE":"５７６巷","ALLEY":" ","HOUSE_NO":"１９號十樓之５","E_COORD97":169715.70000000001,"N_COORD97":2545713.6000000001,"ADDRESS":"北門路二段５７６巷１９號十樓之５","OBJECTID":411025},"geometry":{"x":169715.69999999925,"y":2545713.5999999996}},{"attributes":{"ID":411050,"DIS_CODE":0,"TOWNNAME":"北區","LI":"大道里","LIN":"3鄰","STREET":"北門路","SECT":"二段","MAREA":" ","LANE":"５７６巷","ALLEY":" ","HOUSE_NO":"１９號十樓之３","E_COORD97":169715.70000000001,"N_COORD97":2545713.6000000001,"ADDRESS":"北門路二段５７６巷１９號十樓之３","OBJECTID":411026},"geometry":{"x":169715.69999999925,"y":2545713.5999999996}},{"attributes":{"ID":411051,"DIS_CODE":0,"TOWNNAME":"仁德區","LI":"太子里","LIN":"24鄰","STREET":"長興五街","SECT":" ","MAREA":" ","LANE":"３６巷","ALLEY":" ","HOUSE_NO":"６號","E_COORD97":173609.70000000001,"N_COORD97":2543653.0099999998,"ADDRESS":"長興五街３６巷６號","OBJECTID":411027},"geometry":{"x":173609.70000000205,"y":2543653.0099999998}},{"attributes":{"ID":411052,"DIS_CODE":0,"TOWNNAME":"仁德區","LI":"後壁里","LIN":"34鄰","STREET":"德洋路","SECT":" ","MAREA":" ","LANE":"１８３巷","ALLEY":" ","HOUSE_NO":"５號","E_COORD97":172465.78,"N_COORD97":2539402.02,"ADDRESS":"德洋路１８３巷５號","OBJECTID":411028},"geometry":{"x":172465.78000000026,"y":2539402.0199999996}},{"attributes":{"ID":411053,"DIS_CODE":0,"TOWNNAME":"仁德區","LI":"保安里","LIN":"6鄰","STREET":"文賢路","SECT":"一段","MAREA":" ","LANE":"７６３巷","ALLEY":" ","HOUSE_NO":"３號之４","E_COORD97":171551.42000000001,"N_COORD97":2536213.3199999998,"ADDRESS":"文賢路一段７６３巷３號之４","OBJECTID":411029},"geometry":{"x":171551.41999999993,"y":2536213.3200000003}},{"attributes":{"ID":411054,"DIS_CODE":0,"TOWNNAME":"仁德區","LI":"後壁里","LIN":"21鄰","STREET":"中正路","SECT":"二段","MAREA":" ","LANE":"９７巷","ALLEY":" ","HOUSE_NO":"１０號","E_COORD97":173126.76000000001,"N_COORD97":2538520.27,"ADDRESS":"中正路二段９７巷１０號","OBJECTID":411030},"geometry":{"x":173126.75999999978,"y":2538520.2700000014}},{"attributes":{"ID":411055,"DIS_CODE":0,"TOWNNAME":"仁德區","LI":"成功里","LIN":"13鄰","STREET":"全福路","SECT":" ","MAREA":" ","LANE":"３巷","ALLEY":" ","HOUSE_NO":"７號","E_COORD97":170813.72,"N_COORD97":2539370.5,"ADDRESS":"全福路３巷７號","OBJECTID":411031},"geometry":{"x":170813.7200000016,"y":2539370.5000000019}},{"attributes":{"ID":411056,"DIS_CODE":0,"TOWNNAME":"仁德區","LI":"後壁里","LIN":"14鄰","STREET":"德善路","SECT":" ","MAREA":" ","LANE":"１９８巷","ALLEY":" ","HOUSE_NO":"２之２號","E_COORD97":173710.73999999999,"N_COORD97":2538727.04,"ADDRESS":"德善路１９８巷２之２號","OBJECTID":411032},"geometry":{"x":173710.74000000022,"y":2538727.0399999972}},{"attributes":{"ID":411057,"DIS_CODE":0,"TOWNNAME":"仁德區","LI":"成功里","LIN":"1鄰","STREET":"保生東路","SECT":" ","MAREA":" ","LANE":"１３８巷","ALLEY":" ","HOUSE_NO":"３２號","E_COORD97":171261.76000000001,"N_COORD97":2539571.5600000001,"ADDRESS":"保生東路１３８巷３２號","OBJECTID":411033},"geometry":{"x":171261.76000000071,"y":2539571.5600000005}},{"attributes":{"ID":411058,"DIS_CODE":0,"TOWNNAME":"安平區","LI":"華平里","LIN":"3鄰","STREET":"怡平路","SECT":" ","MAREA":" ","LANE":"４６８巷","ALLEY":" ","HOUSE_NO":"８１號二樓之２","E_COORD97":165245.92000000001,"N_COORD97":2544012.4399999999,"ADDRESS":"怡平路４６８巷８１號二樓之２","OBJECTID":411034},"geometry":{"x":165245.92000000086,"y":2544012.4399999995}},{"attributes":{"ID":411059,"DIS_CODE":0,"TOWNNAME":"安平區","LI":"華平里","LIN":"3鄰","STREET":"怡平路","SECT":" ","MAREA":" ","LANE":"４６８巷","ALLEY":" ","HOUSE_NO":"８１號二樓之３","E_COORD97":165245.92000000001,"N_COORD97":2544012.4399999999,"ADDRESS":"怡平路４６８巷８１號二樓之３","OBJECTID":411035},"geometry":{"x":165245.92000000086,"y":2544012.4399999995}},{"attributes":{"ID":411060,"DIS_CODE":0,"TOWNNAME":"安平區","LI":"華平里","LIN":"3鄰","STREET":"怡平路","SECT":" ","MAREA":" ","LANE":"４６８巷","ALLEY":" ","HOUSE_NO":"８１號三樓之１","E_COORD97":165245.92000000001,"N_COORD97":2544012.4399999999,"ADDRESS":"怡平路４６８巷８１號三樓之１","OBJECTID":411036},"geometry":{"x":165245.92000000086,"y":2544012.4399999995}},{"attributes":{"ID":411061,"DIS_CODE":0,"TOWNNAME":"安平區","LI":"華平里","LIN":"3鄰","STREET":"怡平路","SECT":" ","MAREA":" ","LANE":"４６８巷","ALLEY":" ","HOUSE_NO":"８１號三樓之２","E_COORD97":165245.92000000001,"N_COORD97":2544012.4399999999,"ADDRESS":"怡平路４６８巷８１號三樓之２","OBJECTID":411037},"geometry":{"x":165245.92000000086,"y":2544012.4399999995}},{"attributes":{"ID":411062,"DIS_CODE":0,"TOWNNAME":"安平區","LI":"華平里","LIN":"3鄰","STREET":"怡平路","SECT":" ","MAREA":" ","LANE":"４６８巷","ALLEY":" ","HOUSE_NO":"８１號三樓之３","E_COORD97":165245.92000000001,"N_COORD97":2544012.4399999999,"ADDRESS":"怡平路４６８巷８１號三樓之３","OBJECTID":411038},"geometry":{"x":165245.92000000086,"y":2544012.4399999995}},{"attributes":{"ID":411063,"DIS_CODE":0,"TOWNNAME":"安平區","LI":"華平里","LIN":"3鄰","STREET":"怡平路","SECT":" ","MAREA":" ","LANE":"４６８巷","ALLEY":" ","HOUSE_NO":"８１號四樓之１","E_COORD97":165245.92000000001,"N_COORD97":2544012.4399999999,"ADDRESS":"怡平路４６８巷８１號四樓之１","OBJECTID":411039},"geometry":{"x":165245.92000000086,"y":2544012.4399999995}},{"attributes":{"ID":411064,"DIS_CODE":0,"TOWNNAME":"安平區","LI":"華平里","LIN":"3鄰","STREET":"怡平路","SECT":" ","MAREA":" ","LANE":"４６８巷","ALLEY":" ","HOUSE_NO":"８１號四樓之３","E_COORD97":165245.92000000001,"N_COORD97":2544012.4399999999,"ADDRESS":"怡平路４６８巷８１號四樓之３","OBJECTID":411040},"geometry":{"x":165245.92000000086,"y":2544012.4399999995}},{"attributes":{"ID":411065,"DIS_CODE":0,"TOWNNAME":"安平區","LI":"華平里","LIN":"3鄰","STREET":"怡平路","SECT":" ","MAREA":" ","LANE":"４６８巷","ALLEY":" ","HOUSE_NO":"８１號五樓之１","E_COORD97":165245.92000000001,"N_COORD97":2544012.4399999999,"ADDRESS":"怡平路４６８巷８１號五樓之１","OBJECTID":411041},"geometry":{"x":165245.92000000086,"y":2544012.4399999995}},{"attributes":{"ID":411066,"DIS_CODE":0,"TOWNNAME":"安平區","LI":"華平里","LIN":"3鄰","STREET":"怡平路","SECT":" ","MAREA":" ","LANE":"４６８巷","ALLEY":" ","HOUSE_NO":"８１號五樓之２","E_COORD97":165245.92000000001,"N_COORD97":2544012.4399999999,"ADDRESS":"怡平路４６８巷８１號五樓之２","OBJECTID":411042},"geometry":{"x":165245.92000000086,"y":2544012.4399999995}},{"attributes":{"ID":411067,"DIS_CODE":0,"TOWNNAME":"仁德區","LI":"保安里","LIN":"4鄰","STREET":"文賢路","SECT":"一段","MAREA":" ","LANE":"８３４巷","ALLEY":" ","HOUSE_NO":"８號","E_COORD97":171455.60000000001,"N_COORD97":2536174.0800000001,"ADDRESS":"文賢路一段８３４巷８號","OBJECTID":411043},"geometry":{"x":171455.60000000056,"y":2536174.0800000001}},{"attributes":{"ID":411068,"DIS_CODE":0,"TOWNNAME":"安平區","LI":"華平里","LIN":"3鄰","STREET":"怡平路","SECT":" ","MAREA":" ","LANE":"４６８巷","ALLEY":" ","HOUSE_NO":"８１號五樓之３","E_COORD97":165245.92000000001,"N_COORD97":2544012.4399999999,"ADDRESS":"怡平路４６８巷８１號五樓之３","OBJECTID":411044},"geometry":{"x":165245.92000000086,"y":2544012.4399999995}},{"attributes":{"ID":411069,"DIS_CODE":0,"TOWNNAME":"安平區","LI":"華平里","LIN":"3鄰","STREET":"怡平路","SECT":" ","MAREA":" ","LANE":"４６８巷","ALLEY":" ","HOUSE_NO":"８１號六樓之１","E_COORD97":165245.92000000001,"N_COORD97":2544012.4399999999,"ADDRESS":"怡平路４６８巷８１號六樓之１","OBJECTID":411045},"geometry":{"x":165245.92000000086,"y":2544012.4399999995}},{"attributes":{"ID":411070,"DIS_CODE":0,"TOWNNAME":"安平區","LI":"華平里","LIN":"3鄰","STREET":"怡平路","SECT":" ","MAREA":" ","LANE":"４６８巷","ALLEY":" ","HOUSE_NO":"８１號六樓之２","E_COORD97":165245.92000000001,"N_COORD97":2544012.4399999999,"ADDRESS":"怡平路４６８巷８１號六樓之２","OBJECTID":411046},"geometry":{"x":165245.92000000086,"y":2544012.4399999995}},{"attributes":{"ID":411071,"DIS_CODE":0,"TOWNNAME":"安平區","LI":"華平里","LIN":"3鄰","STREET":"怡平路","SECT":" ","MAREA":" ","LANE":"４６８巷","ALLEY":" ","HOUSE_NO":"８１號六樓之３","E_COORD97":165245.92000000001,"N_COORD97":2544012.4399999999,"ADDRESS":"怡平路４６８巷８１號六樓之３","OBJECTID":411047},"geometry":{"x":165245.92000000086,"y":2544012.4399999995}},{"attributes":{"ID":411072,"DIS_CODE":0,"TOWNNAME":"安平區","LI":"華平里","LIN":"3鄰","STREET":"怡平路","SECT":" ","MAREA":" ","LANE":"４６８巷","ALLEY":" ","HOUSE_NO":"８１號七樓之１","E_COORD97":165245.92000000001,"N_COORD97":2544012.4399999999,"ADDRESS":"怡平路４６８巷８１號七樓之１","OBJECTID":411048},"geometry":{"x":165245.92000000086,"y":2544012.4399999995}},{"attributes":{"ID":411073,"DIS_CODE":0,"TOWNNAME":"安平區","LI":"華平里","LIN":"3鄰","STREET":"怡平路","SECT":" ","MAREA":" ","LANE":"４６８巷","ALLEY":" ","HOUSE_NO":"８１號七樓之２","E_COORD97":165245.92000000001,"N_COORD97":2544012.4399999999,"ADDRESS":"怡平路４６８巷８１號七樓之２","OBJECTID":411049},"geometry":{"x":165245.92000000086,"y":2544012.4399999995}},{"attributes":{"ID":411074,"DIS_CODE":0,"TOWNNAME":"安平區","LI":"華平里","LIN":"3鄰","STREET":"怡平路","SECT":" ","MAREA":" ","LANE":"４６８巷","ALLEY":" ","HOUSE_NO":"８１號七樓之３","E_COORD97":165245.92000000001,"N_COORD97":2544012.4399999999,"ADDRESS":"怡平路４６８巷８１號七樓之３","OBJECTID":411050},"geometry":{"x":165245.92000000086,"y":2544012.4399999995}},{"attributes":{"ID":411075,"DIS_CODE":0,"TOWNNAME":"北區","LI":"公園里","LIN":"3鄰","STREET":"北忠街","SECT":" ","MAREA":" ","LANE":"１６巷","ALLEY":" ","HOUSE_NO":"３９號二樓之１","E_COORD97":169241.60000000001,"N_COORD97":2544428.8700000001,"ADDRESS":"北忠街１６巷３９號二樓之１","OBJECTID":411051},"geometry":{"x":169241.60000000056,"y":2544428.870000001}},{"attributes":{"ID":411076,"DIS_CODE":0,"TOWNNAME":"北區","LI":"公園里","LIN":"3鄰","STREET":"北忠街","SECT":" ","MAREA":" ","LANE":"１６巷","ALLEY":" ","HOUSE_NO":"３９號二樓之２","E_COORD97":169241.60000000001,"N_COORD97":2544428.8700000001,"ADDRESS":"北忠街１６巷３９號二樓之２","OBJECTID":411052},"geometry":{"x":169241.60000000056,"y":2544428.870000001}},{"attributes":{"ID":411077,"DIS_CODE":0,"TOWNNAME":"北區","LI":"公園里","LIN":"3鄰","STREET":"北忠街","SECT":" ","MAREA":" ","LANE":"１６巷","ALLEY":" ","HOUSE_NO":"３９號三樓之１","E_COORD97":169241.60000000001,"N_COORD97":2544428.8700000001,"ADDRESS":"北忠街１６巷３９號三樓之１","OBJECTID":411053},"geometry":{"x":169241.60000000056,"y":2544428.870000001}},{"attributes":{"ID":411078,"DIS_CODE":0,"TOWNNAME":"北區","LI":"公園里","LIN":"3鄰","STREET":"北忠街","SECT":" ","MAREA":" ","LANE":"１６巷","ALLEY":" ","HOUSE_NO":"３９號三樓之２","E_COORD97":169241.60000000001,"N_COORD97":2544428.8700000001,"ADDRESS":"北忠街１６巷３９號三樓之２","OBJECTID":411054},"geometry":{"x":169241.60000000056,"y":2544428.870000001}},{"attributes":{"ID":411079,"DIS_CODE":0,"TOWNNAME":"北區","LI":"公園里","LIN":"3鄰","STREET":"北忠街","SECT":" ","MAREA":" ","LANE":"１６巷","ALLEY":" ","HOUSE_NO":"３９號五樓之１","E_COORD97":169241.60000000001,"N_COORD97":2544428.8700000001,"ADDRESS":"北忠街１６巷３９號五樓之１","OBJECTID":411055},"geometry":{"x":169241.60000000056,"y":2544428.870000001}},{"attributes":{"ID":411080,"DIS_CODE":0,"TOWNNAME":"北區","LI":"公園里","LIN":"3鄰","STREET":"北忠街","SECT":" ","MAREA":" ","LANE":"１６巷","ALLEY":" ","HOUSE_NO":"３９號五樓之２","E_COORD97":169241.60000000001,"N_COORD97":2544428.8700000001,"ADDRESS":"北忠街１６巷３９號五樓之２","OBJECTID":411056},"geometry":{"x":169241.60000000056,"y":2544428.870000001}},{"attributes":{"ID":411081,"DIS_CODE":0,"TOWNNAME":"北區","LI":"公園里","LIN":"3鄰","STREET":"北忠街","SECT":" ","MAREA":" ","LANE":"１６巷","ALLEY":" ","HOUSE_NO":"３９號四樓之１","E_COORD97":169241.60000000001,"N_COORD97":2544428.8700000001,"ADDRESS":"北忠街１６巷３９號四樓之１","OBJECTID":411057},"geometry":{"x":169241.60000000056,"y":2544428.870000001}},{"attributes":{"ID":411082,"DIS_CODE":0,"TOWNNAME":"北區","LI":"公園里","LIN":"3鄰","STREET":"北忠街","SECT":" ","MAREA":" ","LANE":"１６巷","ALLEY":" ","HOUSE_NO":"３９號四樓之２","E_COORD97":169241.60000000001,"N_COORD97":2544428.8700000001,"ADDRESS":"北忠街１６巷３９號四樓之２","OBJECTID":411058},"geometry":{"x":169241.60000000056,"y":2544428.870000001}},{"attributes":{"ID":411083,"DIS_CODE":0,"TOWNNAME":"仁德區","LI":"成功里","LIN":"12鄰","STREET":"成功二街","SECT":" ","MAREA":" ","LANE":"６巷","ALLEY":" ","HOUSE_NO":"１７號","E_COORD97":170856.79999999999,"N_COORD97":2539978.5099999998,"ADDRESS":"成功二街６巷１７號","OBJECTID":411059},"geometry":{"x":170856.79999999981,"y":2539978.5099999998}},{"attributes":{"ID":411084,"DIS_CODE":0,"TOWNNAME":"仁德區","LI":"後壁里","LIN":"27鄰","STREET":"中正路","SECT":"二段","MAREA":" ","LANE":"３０１巷","ALLEY":" ","HOUSE_NO":"１４號","E_COORD97":173217.42000000001,"N_COORD97":2539108.8900000001,"ADDRESS":"中正路二段３０１巷１４號","OBJECTID":411060},"geometry":{"x":173217.41999999993,"y":2539108.8900000006}},{"attributes":{"ID":411085,"DIS_CODE":0,"TOWNNAME":"仁德區","LI":"成功里","LIN":"18鄰","STREET":"全福路","SECT":" ","MAREA":" ","LANE":"７５巷","ALLEY":" ","HOUSE_NO":"１０號","E_COORD97":171039.26000000001,"N_COORD97":2539337.4900000002,"ADDRESS":"全福路７５巷１０號","OBJECTID":411061},"geometry":{"x":171039.26000000071,"y":2539337.4900000002}},{"attributes":{"ID":411086,"DIS_CODE":0,"TOWNNAME":"仁德區","LI":"保安里","LIN":"17鄰","STREET":"中正路","SECT":"一段","MAREA":" ","LANE":"７０巷","ALLEY":" ","HOUSE_NO":"２４號","E_COORD97":170943.47,"N_COORD97":2535461.7799999998,"ADDRESS":"中正路一段７０巷２４號","OBJECTID":411062},"geometry":{"x":170943.46999999974,"y":2535461.7800000012}},{"attributes":{"ID":411087,"DIS_CODE":0,"TOWNNAME":"仁德區","LI":"成功里","LIN":"7鄰","STREET":"保華路","SECT":" ","MAREA":" ","LANE":"１１７巷","ALLEY":" ","HOUSE_NO":"４４號","E_COORD97":171140.98999999999,"N_COORD97":2539930.7400000002,"ADDRESS":"保華路１１７巷４４號","OBJECTID":411063},"geometry":{"x":171140.99000000022,"y":2539930.7400000039}},{"attributes":{"ID":411088,"DIS_CODE":0,"TOWNNAME":"仁德區","LI":"成功里","LIN":"1鄰","STREET":"保生東路","SECT":" ","MAREA":" ","LANE":"１３８巷","ALLEY":" ","HOUSE_NO":"３號","E_COORD97":171208.64999999999,"N_COORD97":2539588.4399999999,"ADDRESS":"保生東路１３８巷３號","OBJECTID":411064},"geometry":{"x":171208.6500000013,"y":2539588.4399999995}},{"attributes":{"ID":411089,"DIS_CODE":0,"TOWNNAME":"仁德區","LI":"太子里","LIN":"21鄰","STREET":"長興四街","SECT":" ","MAREA":" ","LANE":"７４巷","ALLEY":" ","HOUSE_NO":"３號","E_COORD97":173900,"N_COORD97":2543579.5,"ADDRESS":"長興四街７４巷３號","OBJECTID":411065},"geometry":{"x":173900,"y":2543579.5}},{"attributes":{"ID":411090,"DIS_CODE":0,"TOWNNAME":"仁德區","LI":"保安里","LIN":"5鄰","STREET":"中正路","SECT":"一段","MAREA":" ","LANE":"１８２巷","ALLEY":" ","HOUSE_NO":"１５號","E_COORD97":171598.26999999999,"N_COORD97":2535718.52,"ADDRESS":"中正路一段１８２巷１５號","OBJECTID":411066},"geometry":{"x":171598.27000000048,"y":2535718.5200000014}},{"attributes":{"ID":411091,"DIS_CODE":0,"TOWNNAME":"北區","LI":"元寶里","LIN":"3鄰","STREET":"北園街","SECT":" ","MAREA":" ","LANE":"８０巷","ALLEY":" ","HOUSE_NO":"６８號二樓之１０","E_COORD97":170404.51999999999,"N_COORD97":2545885.3300000001,"ADDRESS":"北園街８０巷６８號二樓之１０","OBJECTID":411067},"geometry":{"x":170404.52000000142,"y":2545885.3300000001}},{"attributes":{"ID":411092,"DIS_CODE":0,"TOWNNAME":"北區","LI":"元寶里","LIN":"3鄰","STREET":"北園街","SECT":" ","MAREA":" ","LANE":"８０巷","ALLEY":" ","HOUSE_NO":"６８號二樓之１１","E_COORD97":170404.51999999999,"N_COORD97":2545885.3300000001,"ADDRESS":"北園街８０巷６８號二樓之１１","OBJECTID":411068},"geometry":{"x":170404.52000000142,"y":2545885.3300000001}},{"attributes":{"ID":411093,"DIS_CODE":0,"TOWNNAME":"北區","LI":"元寶里","LIN":"3鄰","STREET":"北園街","SECT":" ","MAREA":" ","LANE":"８０巷","ALLEY":" ","HOUSE_NO":"６８號二樓之１２","E_COORD97":170404.51999999999,"N_COORD97":2545885.3300000001,"ADDRESS":"北園街８０巷６８號二樓之１２","OBJECTID":411069},"geometry":{"x":170404.52000000142,"y":2545885.3300000001}},{"attributes":{"ID":411094,"DIS_CODE":0,"TOWNNAME":"北區","LI":"元寶里","LIN":"3鄰","STREET":"北園街","SECT":" ","MAREA":" ","LANE":"８０巷","ALLEY":" ","HOUSE_NO":"６８號二樓之１３","E_COORD97":170404.51999999999,"N_COORD97":2545885.3300000001,"ADDRESS":"北園街８０巷６８號二樓之１３","OBJECTID":411070},"geometry":{"x":170404.52000000142,"y":2545885.3300000001}},{"attributes":{"ID":411095,"DIS_CODE":0,"TOWNNAME":"北區","LI":"長榮里","LIN":"3鄰","STREET":"長榮路","SECT":"五段","MAREA":" ","LANE":"４１巷","ALLEY":" ","HOUSE_NO":"３６號五樓之５","E_COORD97":169917.45000000001,"N_COORD97":2545629.1800000002,"ADDRESS":"長榮路五段４１巷３６號五樓之５","OBJECTID":411071},"geometry":{"x":169917.45000000205,"y":2545629.1799999997}},{"attributes":{"ID":411096,"DIS_CODE":0,"TOWNNAME":"北區","LI":"長榮里","LIN":"3鄰","STREET":"長榮路","SECT":"五段","MAREA":" ","LANE":"４１巷","ALLEY":" ","HOUSE_NO":"３６號六樓之１","E_COORD97":169917.45000000001,"N_COORD97":2545629.1800000002,"ADDRESS":"長榮路五段４１巷３６號六樓之１","OBJECTID":411072},"geometry":{"x":169917.45000000205,"y":2545629.1799999997}},{"attributes":{"ID":411097,"DIS_CODE":0,"TOWNNAME":"北區","LI":"長榮里","LIN":"3鄰","STREET":"長榮路","SECT":"五段","MAREA":" ","LANE":"４１巷","ALLEY":" ","HOUSE_NO":"３６號六樓之２","E_COORD97":169917.45000000001,"N_COORD97":2545629.1800000002,"ADDRESS":"長榮路五段４１巷３６號六樓之２","OBJECTID":411073},"geometry":{"x":169917.45000000205,"y":2545629.1799999997}},{"attributes":{"ID":411098,"DIS_CODE":0,"TOWNNAME":"北區","LI":"長榮里","LIN":"3鄰","STREET":"長榮路","SECT":"五段","MAREA":" ","LANE":"４１巷","ALLEY":" ","HOUSE_NO":"３６號六樓之３","E_COORD97":169917.45000000001,"N_COORD97":2545629.1800000002,"ADDRESS":"長榮路五段４１巷３６號六樓之３","OBJECTID":411074},"geometry":{"x":169917.45000000205,"y":2545629.1799999997}},{"attributes":{"ID":411099,"DIS_CODE":0,"TOWNNAME":"北區","LI":"長榮里","LIN":"3鄰","STREET":"長榮路","SECT":"五段","MAREA":" ","LANE":"４１巷","ALLEY":" ","HOUSE_NO":"３６號六樓之５","E_COORD97":169917.45000000001,"N_COORD97":2545629.1800000002,"ADDRESS":"長榮路五段４１巷３６號六樓之５","OBJECTID":411075},"geometry":{"x":169917.45000000205,"y":2545629.1799999997}},{"attributes":{"ID":411100,"DIS_CODE":0,"TOWNNAME":"北區","LI":"長榮里","LIN":"3鄰","STREET":"長榮路","SECT":"五段","MAREA":" ","LANE":"４１巷","ALLEY":" ","HOUSE_NO":"３６號七樓之１","E_COORD97":169917.45000000001,"N_COORD97":2545629.1800000002,"ADDRESS":"長榮路五段４１巷３６號七樓之１","OBJECTID":411076},"geometry":{"x":169917.45000000205,"y":2545629.1799999997}},{"attributes":{"ID":411101,"DIS_CODE":0,"TOWNNAME":"北區","LI":"長榮里","LIN":"3鄰","STREET":"長榮路","SECT":"五段","MAREA":" ","LANE":"４１巷","ALLEY":" ","HOUSE_NO":"３６號七樓之２","E_COORD97":169917.45000000001,"N_COORD97":2545629.1800000002,"ADDRESS":"長榮路五段４１巷３６號七樓之２","OBJECTID":411077},"geometry":{"x":169917.45000000205,"y":2545629.1799999997}},{"attributes":{"ID":411102,"DIS_CODE":0,"TOWNNAME":"北區","LI":"長榮里","LIN":"3鄰","STREET":"長榮路","SECT":"五段","MAREA":" ","LANE":"４１巷","ALLEY":" ","HOUSE_NO":"３６號八樓之１","E_COORD97":169917.45000000001,"N_COORD97":2545629.1800000002,"ADDRESS":"長榮路五段４１巷３６號八樓之１","OBJECTID":411078},"geometry":{"x":169917.45000000205,"y":2545629.1799999997}},{"attributes":{"ID":411103,"DIS_CODE":0,"TOWNNAME":"佳里區","LI":"鎮山里","LIN":"3鄰","STREET":"延平路","SECT":" ","MAREA":" ","LANE":"５９巷","ALLEY":" ","HOUSE_NO":"７號","E_COORD97":165924.13,"N_COORD97":2561690.1099999999,"ADDRESS":"延平路５９巷７號","OBJECTID":411079},"geometry":{"x":165924.13000000082,"y":2561690.1100000031}},{"attributes":{"ID":411104,"DIS_CODE":0,"TOWNNAME":"北區","LI":"長榮里","LIN":"3鄰","STREET":"長榮路","SECT":"五段","MAREA":" ","LANE":"４１巷","ALLEY":" ","HOUSE_NO":"３６號八樓之２","E_COORD97":169917.45000000001,"N_COORD97":2545629.1800000002,"ADDRESS":"長榮路五段４１巷３６號八樓之２","OBJECTID":411080},"geometry":{"x":169917.45000000205,"y":2545629.1799999997}},{"attributes":{"ID":411105,"DIS_CODE":0,"TOWNNAME":"北區","LI":"長榮里","LIN":"3鄰","STREET":"長榮路","SECT":"五段","MAREA":" ","LANE":"４１巷","ALLEY":" ","HOUSE_NO":"３６號八樓之３","E_COORD97":169917.45000000001,"N_COORD97":2545629.1800000002,"ADDRESS":"長榮路五段４１巷３６號八樓之３","OBJECTID":411081},"geometry":{"x":169917.45000000205,"y":2545629.1799999997}},{"attributes":{"ID":411106,"DIS_CODE":0,"TOWNNAME":"北區","LI":"長榮里","LIN":"3鄰","STREET":"長榮路","SECT":"五段","MAREA":" ","LANE":"４１巷","ALLEY":" ","HOUSE_NO":"３６號八樓之５","E_COORD97":169917.45000000001,"N_COORD97":2545629.1800000002,"ADDRESS":"長榮路五段４１巷３６號八樓之５","OBJECTID":411082},"geometry":{"x":169917.45000000205,"y":2545629.1799999997}},{"attributes":{"ID":411107,"DIS_CODE":0,"TOWNNAME":"北區","LI":"長榮里","LIN":"3鄰","STREET":"長榮路","SECT":"五段","MAREA":" ","LANE":"４１巷","ALLEY":" ","HOUSE_NO":"３６號九樓之１","E_COORD97":169917.45000000001,"N_COORD97":2545629.1800000002,"ADDRESS":"長榮路五段４１巷３６號九樓之１","OBJECTID":411083},"geometry":{"x":169917.45000000205,"y":2545629.1799999997}},{"attributes":{"ID":411108,"DIS_CODE":0,"TOWNNAME":"北區","LI":"長榮里","LIN":"3鄰","STREET":"長榮路","SECT":"五段","MAREA":" ","LANE":"４１巷","ALLEY":" ","HOUSE_NO":"３６號九樓之２","E_COORD97":169917.45000000001,"N_COORD97":2545629.1800000002,"ADDRESS":"長榮路五段４１巷３６號九樓之２","OBJECTID":411084},"geometry":{"x":169917.45000000205,"y":2545629.1799999997}},{"attributes":{"ID":411109,"DIS_CODE":0,"TOWNNAME":"北區","LI":"長榮里","LIN":"3鄰","STREET":"長榮路","SECT":"五段","MAREA":" ","LANE":"４１巷","ALLEY":" ","HOUSE_NO":"３６號九樓之３","E_COORD97":169917.45000000001,"N_COORD97":2545629.1800000002,"ADDRESS":"長榮路五段４１巷３６號九樓之３","OBJECTID":411085},"geometry":{"x":169917.45000000205,"y":2545629.1799999997}},{"attributes":{"ID":411110,"DIS_CODE":0,"TOWNNAME":"北區","LI":"長榮里","LIN":"3鄰","STREET":"長榮路","SECT":"五段","MAREA":" ","LANE":"４１巷","ALLEY":" ","HOUSE_NO":"３６號九樓之５","E_COORD97":169917.45000000001,"N_COORD97":2545629.1800000002,"ADDRESS":"長榮路五段４１巷３６號九樓之５","OBJECTID":411086},"geometry":{"x":169917.45000000205,"y":2545629.1799999997}},{"attributes":{"ID":411111,"DIS_CODE":0,"TOWNNAME":"北區","LI":"長榮里","LIN":"3鄰","STREET":"長榮路","SECT":"五段","MAREA":" ","LANE":"４１巷","ALLEY":" ","HOUSE_NO":"３６號十樓之１","E_COORD97":169917.45000000001,"N_COORD97":2545629.1800000002,"ADDRESS":"長榮路五段４１巷３６號十樓之１","OBJECTID":411087},"geometry":{"x":169917.45000000205,"y":2545629.1799999997}},{"attributes":{"ID":411112,"DIS_CODE":0,"TOWNNAME":"北區","LI":"長榮里","LIN":"3鄰","STREET":"長榮路","SECT":"五段","MAREA":" ","LANE":"４１巷","ALLEY":" ","HOUSE_NO":"３６號十樓之２","E_COORD97":169917.45000000001,"N_COORD97":2545629.1800000002,"ADDRESS":"長榮路五段４１巷３６號十樓之２","OBJECTID":411088},"geometry":{"x":169917.45000000205,"y":2545629.1799999997}},{"attributes":{"ID":411113,"DIS_CODE":0,"TOWNNAME":"北區","LI":"長榮里","LIN":"3鄰","STREET":"長榮路","SECT":"五段","MAREA":" ","LANE":"４１巷","ALLEY":" ","HOUSE_NO":"３６號十樓之３","E_COORD97":169917.45000000001,"N_COORD97":2545629.1800000002,"ADDRESS":"長榮路五段４１巷３６號十樓之３","OBJECTID":411089},"geometry":{"x":169917.45000000205,"y":2545629.1799999997}},{"attributes":{"ID":411114,"DIS_CODE":0,"TOWNNAME":"北區","LI":"長榮里","LIN":"3鄰","STREET":"長榮路","SECT":"五段","MAREA":" ","LANE":"４１巷","ALLEY":" ","HOUSE_NO":"３６號十樓之５","E_COORD97":169917.45000000001,"N_COORD97":2545629.1800000002,"ADDRESS":"長榮路五段４１巷３６號十樓之５","OBJECTID":411090},"geometry":{"x":169917.45000000205,"y":2545629.1799999997}},{"attributes":{"ID":411115,"DIS_CODE":0,"TOWNNAME":"北區","LI":"長榮里","LIN":"3鄰","STREET":"長榮路","SECT":"五段","MAREA":" ","LANE":"４１巷","ALLEY":" ","HOUSE_NO":"３６號十一樓之１","E_COORD97":169917.45000000001,"N_COORD97":2545629.1800000002,"ADDRESS":"長榮路五段４１巷３６號十一樓之１","OBJECTID":411091},"geometry":{"x":169917.45000000205,"y":2545629.1799999997}},{"attributes":{"ID":411116,"DIS_CODE":0,"TOWNNAME":"北區","LI":"長榮里","LIN":"3鄰","STREET":"長榮路","SECT":"五段","MAREA":" ","LANE":"４１巷","ALLEY":" ","HOUSE_NO":"３６號十一樓之２","E_COORD97":169917.45000000001,"N_COORD97":2545629.1800000002,"ADDRESS":"長榮路五段４１巷３６號十一樓之２","OBJECTID":411092},"geometry":{"x":169917.45000000205,"y":2545629.1799999997}},{"attributes":{"ID":411117,"DIS_CODE":0,"TOWNNAME":"北區","LI":"長榮里","LIN":"3鄰","STREET":"長榮路","SECT":"五段","MAREA":" ","LANE":"４１巷","ALLEY":" ","HOUSE_NO":"３６號十一樓之３","E_COORD97":169917.45000000001,"N_COORD97":2545629.1800000002,"ADDRESS":"長榮路五段４１巷３６號十一樓之３","OBJECTID":411093},"geometry":{"x":169917.45000000205,"y":2545629.1799999997}},{"attributes":{"ID":411118,"DIS_CODE":0,"TOWNNAME":"北區","LI":"長榮里","LIN":"3鄰","STREET":"長榮路","SECT":"五段","MAREA":" ","LANE":"４１巷","ALLEY":" ","HOUSE_NO":"３６號十一樓之５","E_COORD97":169917.45000000001,"N_COORD97":2545629.1800000002,"ADDRESS":"長榮路五段４１巷３６號十一樓之５","OBJECTID":411094},"geometry":{"x":169917.45000000205,"y":2545629.1799999997}},{"attributes":{"ID":411119,"DIS_CODE":0,"TOWNNAME":"北區","LI":"長榮里","LIN":"3鄰","STREET":"長榮路","SECT":"五段","MAREA":" ","LANE":"４１巷","ALLEY":" ","HOUSE_NO":"３６號十二樓之１","E_COORD97":169917.45000000001,"N_COORD97":2545629.1800000002,"ADDRESS":"長榮路五段４１巷３６號十二樓之１","OBJECTID":411095},"geometry":{"x":169917.45000000205,"y":2545629.1799999997}},{"attributes":{"ID":411120,"DIS_CODE":0,"TOWNNAME":"北區","LI":"長榮里","LIN":"3鄰","STREET":"長榮路","SECT":"五段","MAREA":" ","LANE":"４１巷","ALLEY":" ","HOUSE_NO":"３６號十二樓之２","E_COORD97":169917.45000000001,"N_COORD97":2545629.1800000002,"ADDRESS":"長榮路五段４１巷３６號十二樓之２","OBJECTID":411096},"geometry":{"x":169917.45000000205,"y":2545629.1799999997}},{"attributes":{"ID":411121,"DIS_CODE":0,"TOWNNAME":"北區","LI":"長榮里","LIN":"3鄰","STREET":"長榮路","SECT":"五段","MAREA":" ","LANE":"４１巷","ALLEY":" ","HOUSE_NO":"３６號十二樓之３","E_COORD97":169917.45000000001,"N_COORD97":2545629.1800000002,"ADDRESS":"長榮路五段４１巷３６號十二樓之３","OBJECTID":411097},"geometry":{"x":169917.45000000205,"y":2545629.1799999997}},{"attributes":{"ID":411122,"DIS_CODE":0,"TOWNNAME":"北區","LI":"長榮里","LIN":"3鄰","STREET":"長榮路","SECT":"五段","MAREA":" ","LANE":"４１巷","ALLEY":" ","HOUSE_NO":"３６號十二樓之５","E_COORD97":169917.45000000001,"N_COORD97":2545629.1800000002,"ADDRESS":"長榮路五段４１巷３６號十二樓之５","OBJECTID":411098},"geometry":{"x":169917.45000000205,"y":2545629.1799999997}},{"attributes":{"ID":411123,"DIS_CODE":0,"TOWNNAME":"北區","LI":"長榮里","LIN":"3鄰","STREET":"長榮路","SECT":"五段","MAREA":" ","LANE":"４１巷","ALLEY":" ","HOUSE_NO":"３６號十三樓之１","E_COORD97":169917.45000000001,"N_COORD97":2545629.1800000002,"ADDRESS":"長榮路五段４１巷３６號十三樓之１","OBJECTID":411099},"geometry":{"x":169917.45000000205,"y":2545629.1799999997}},{"attributes":{"ID":411124,"DIS_CODE":0,"TOWNNAME":"東山區","LI":"東中里","LIN":"20鄰","STREET":"龍山一街","SECT":" ","MAREA":" ","LANE":" ","ALLEY":" ","HOUSE_NO":"９號","E_COORD97":188901.29999999999,"N_COORD97":2580181.71,"ADDRESS":"龍山一街９號","OBJECTID":411100},"geometry":{"x":188901.30000000075,"y":2580181.7100000009}},{"attributes":{"ID":411125,"DIS_CODE":0,"TOWNNAME":"北區","LI":"長榮里","LIN":"3鄰","STREET":"長榮路","SECT":"五段","MAREA":" ","LANE":"４１巷","ALLEY":" ","HOUSE_NO":"３６號十三樓之２","E_COORD97":169917.45000000001,"N_COORD97":2545629.1800000002,"ADDRESS":"長榮路五段４１巷３６號十三樓之２","OBJECTID":411101},"geometry":{"x":169917.45000000205,"y":2545629.1799999997}},{"attributes":{"ID":411126,"DIS_CODE":0,"TOWNNAME":"北區","LI":"長榮里","LIN":"3鄰","STREET":"長榮路","SECT":"五段","MAREA":" ","LANE":"４１巷","ALLEY":" ","HOUSE_NO":"３６號十三樓之３","E_COORD97":169917.45000000001,"N_COORD97":2545629.1800000002,"ADDRESS":"長榮路五段４１巷３６號十三樓之３","OBJECTID":411102},"geometry":{"x":169917.45000000205,"y":2545629.1799999997}},{"attributes":{"ID":411127,"DIS_CODE":0,"TOWNNAME":"北區","LI":"長榮里","LIN":"3鄰","STREET":"長榮路","SECT":"五段","MAREA":" ","LANE":"４１巷","ALLEY":" ","HOUSE_NO":"３６號十三樓之５","E_COORD97":169917.45000000001,"N_COORD97":2545629.1800000002,"ADDRESS":"長榮路五段４１巷３６號十三樓之５","OBJECTID":411103},"geometry":{"x":169917.45000000205,"y":2545629.1799999997}},{"attributes":{"ID":411128,"DIS_CODE":0,"TOWNNAME":"北區","LI":"長榮里","LIN":"3鄰","STREET":"長榮路","SECT":"五段","MAREA":" ","LANE":"４１巷","ALLEY":" ","HOUSE_NO":"３６號十四樓之１","E_COORD97":169917.45000000001,"N_COORD97":2545629.1800000002,"ADDRESS":"長榮路五段４１巷３６號十四樓之１","OBJECTID":411104},"geometry":{"x":169917.45000000205,"y":2545629.1799999997}},{"attributes":{"ID":411129,"DIS_CODE":0,"TOWNNAME":"北區","LI":"長榮里","LIN":"3鄰","STREET":"長榮路","SECT":"五段","MAREA":" ","LANE":"４１巷","ALLEY":" ","HOUSE_NO":"３６號十四樓之２","E_COORD97":169917.45000000001,"N_COORD97":2545629.1800000002,"ADDRESS":"長榮路五段４１巷３６號十四樓之２","OBJECTID":411105},"geometry":{"x":169917.45000000205,"y":2545629.1799999997}},{"attributes":{"ID":411130,"DIS_CODE":0,"TOWNNAME":"北區","LI":"長榮里","LIN":"3鄰","STREET":"長榮路","SECT":"五段","MAREA":" ","LANE":"４１巷","ALLEY":" ","HOUSE_NO":"３６號十四樓之３","E_COORD97":169917.45000000001,"N_COORD97":2545629.1800000002,"ADDRESS":"長榮路五段４１巷３６號十四樓之３","OBJECTID":411106},"geometry":{"x":169917.45000000205,"y":2545629.1799999997}},{"attributes":{"ID":411131,"DIS_CODE":0,"TOWNNAME":"佳里區","LI":"鎮山里","LIN":"3鄰","STREET":"延平路","SECT":" ","MAREA":" ","LANE":"５９巷","ALLEY":" ","HOUSE_NO":"８號","E_COORD97":165915.23000000001,"N_COORD97":2561710.25,"ADDRESS":"延平路５９巷８號","OBJECTID":411107},"geometry":{"x":165915.23000000231,"y":2561710.2500000037}},{"attributes":{"ID":411132,"DIS_CODE":0,"TOWNNAME":"北區","LI":"長榮里","LIN":"3鄰","STREET":"長榮路","SECT":"五段","MAREA":" ","LANE":"４１巷","ALLEY":" ","HOUSE_NO":"３６號十四樓之５","E_COORD97":169917.45000000001,"N_COORD97":2545629.1800000002,"ADDRESS":"長榮路五段４１巷３６號十四樓之５","OBJECTID":411108},"geometry":{"x":169917.45000000205,"y":2545629.1799999997}},{"attributes":{"ID":411133,"DIS_CODE":0,"TOWNNAME":"新營區","LI":"忠政里","LIN":"3鄰","STREET":"中正路","SECT":" ","MAREA":" ","LANE":"３５巷","ALLEY":" ","HOUSE_NO":"１３號三樓","E_COORD97":180035.5,"N_COORD97":2579096.3900000001,"ADDRESS":"中正路３５巷１３號三樓","OBJECTID":411109},"geometry":{"x":180035.50000000186,"y":2579096.3900000025}},{"attributes":{"ID":411134,"DIS_CODE":0,"TOWNNAME":"新營區","LI":"忠政里","LIN":"3鄰","STREET":"中正路","SECT":" ","MAREA":" ","LANE":"３５巷","ALLEY":" ","HOUSE_NO":"１１號三樓","E_COORD97":180040.62,"N_COORD97":2579097.48,"ADDRESS":"中正路３５巷１１號三樓","OBJECTID":411110},"geometry":{"x":180040.62000000104,"y":2579097.4800000004}},{"attributes":{"ID":411135,"DIS_CODE":0,"TOWNNAME":"安平區","LI":"平通里","LIN":"3鄰","STREET":"育平九街","SECT":" ","MAREA":" ","LANE":"１９２巷","ALLEY":" ","HOUSE_NO":"７１號七樓之１０","E_COORD97":164998.38,"N_COORD97":2544160.48,"ADDRESS":"育平九街１９２巷７１號七樓之１０","OBJECTID":411111},"geometry":{"x":164998.38000000082,"y":2544160.4800000042}},{"attributes":{"ID":411136,"DIS_CODE":0,"TOWNNAME":"安平區","LI":"平通里","LIN":"3鄰","STREET":"育平九街","SECT":" ","MAREA":" ","LANE":"１９２巷","ALLEY":" ","HOUSE_NO":"７１號七樓之１１","E_COORD97":164998.38,"N_COORD97":2544160.48,"ADDRESS":"育平九街１９２巷７１號七樓之１１","OBJECTID":411112},"geometry":{"x":164998.38000000082,"y":2544160.4800000042}},{"attributes":{"ID":411137,"DIS_CODE":0,"TOWNNAME":"安平區","LI":"平通里","LIN":"3鄰","STREET":"育平九街","SECT":" ","MAREA":" ","LANE":"１９２巷","ALLEY":" ","HOUSE_NO":"７１號七樓之２","E_COORD97":164998.38,"N_COORD97":2544160.48,"ADDRESS":"育平九街１９２巷７１號七樓之２","OBJECTID":411113},"geometry":{"x":164998.38000000082,"y":2544160.4800000042}},{"attributes":{"ID":411138,"DIS_CODE":0,"TOWNNAME":"安平區","LI":"平通里","LIN":"3鄰","STREET":"育平九街","SECT":" ","MAREA":" ","LANE":"１９２巷","ALLEY":" ","HOUSE_NO":"７１號七樓之３","E_COORD97":164998.38,"N_COORD97":2544160.48,"ADDRESS":"育平九街１９２巷７１號七樓之３","OBJECTID":411114},"geometry":{"x":164998.38000000082,"y":2544160.4800000042}},{"attributes":{"ID":411139,"DIS_CODE":0,"TOWNNAME":"安平區","LI":"平通里","LIN":"3鄰","STREET":"育平九街","SECT":" ","MAREA":" ","LANE":"１９２巷","ALLEY":" ","HOUSE_NO":"７１號七樓之４","E_COORD97":164998.38,"N_COORD97":2544160.48,"ADDRESS":"育平九街１９２巷７１號七樓之４","OBJECTID":411115},"geometry":{"x":164998.38000000082,"y":2544160.4800000042}},{"attributes":{"ID":411140,"DIS_CODE":0,"TOWNNAME":"安平區","LI":"平通里","LIN":"3鄰","STREET":"育平九街","SECT":" ","MAREA":" ","LANE":"１９２巷","ALLEY":" ","HOUSE_NO":"７１號七樓之５","E_COORD97":164998.38,"N_COORD97":2544160.48,"ADDRESS":"育平九街１９２巷７１號七樓之５","OBJECTID":411116},"geometry":{"x":164998.38000000082,"y":2544160.4800000042}},{"attributes":{"ID":411141,"DIS_CODE":0,"TOWNNAME":"安平區","LI":"平通里","LIN":"3鄰","STREET":"育平九街","SECT":" ","MAREA":" ","LANE":"１９２巷","ALLEY":" ","HOUSE_NO":"７１號七樓之６","E_COORD97":164998.38,"N_COORD97":2544160.48,"ADDRESS":"育平九街１９２巷７１號七樓之６","OBJECTID":411117},"geometry":{"x":164998.38000000082,"y":2544160.4800000042}},{"attributes":{"ID":411142,"DIS_CODE":0,"TOWNNAME":"安平區","LI":"平通里","LIN":"3鄰","STREET":"育平九街","SECT":" ","MAREA":" ","LANE":"１９２巷","ALLEY":" ","HOUSE_NO":"７１號七樓之７","E_COORD97":164998.38,"N_COORD97":2544160.48,"ADDRESS":"育平九街１９２巷７１號七樓之７","OBJECTID":411118},"geometry":{"x":164998.38000000082,"y":2544160.4800000042}},{"attributes":{"ID":411143,"DIS_CODE":0,"TOWNNAME":"安平區","LI":"平通里","LIN":"3鄰","STREET":"育平九街","SECT":" ","MAREA":" ","LANE":"１９２巷","ALLEY":" ","HOUSE_NO":"７１號七樓之８","E_COORD97":164998.38,"N_COORD97":2544160.48,"ADDRESS":"育平九街１９２巷７１號七樓之８","OBJECTID":411119},"geometry":{"x":164998.38000000082,"y":2544160.4800000042}},{"attributes":{"ID":411144,"DIS_CODE":0,"TOWNNAME":"安平區","LI":"平通里","LIN":"3鄰","STREET":"育平九街","SECT":" ","MAREA":" ","LANE":"１９２巷","ALLEY":" ","HOUSE_NO":"７１號七樓之９","E_COORD97":164998.38,"N_COORD97":2544160.48,"ADDRESS":"育平九街１９２巷７１號七樓之９","OBJECTID":411120},"geometry":{"x":164998.38000000082,"y":2544160.4800000042}},{"attributes":{"ID":411145,"DIS_CODE":0,"TOWNNAME":"安平區","LI":"平通里","LIN":"3鄰","STREET":"育平九街","SECT":" ","MAREA":" ","LANE":"１９２巷","ALLEY":" ","HOUSE_NO":"７１號九樓之１","E_COORD97":164998.38,"N_COORD97":2544160.48,"ADDRESS":"育平九街１９２巷７１號九樓之１","OBJECTID":411121},"geometry":{"x":164998.38000000082,"y":2544160.4800000042}},{"attributes":{"ID":411146,"DIS_CODE":0,"TOWNNAME":"安平區","LI":"平通里","LIN":"3鄰","STREET":"育平九街","SECT":" ","MAREA":" ","LANE":"１９２巷","ALLEY":" ","HOUSE_NO":"７１號九樓之２","E_COORD97":164998.38,"N_COORD97":2544160.48,"ADDRESS":"育平九街１９２巷７１號九樓之２","OBJECTID":411122},"geometry":{"x":164998.38000000082,"y":2544160.4800000042}},{"attributes":{"ID":411147,"DIS_CODE":0,"TOWNNAME":"安平區","LI":"平通里","LIN":"3鄰","STREET":"育平九街","SECT":" ","MAREA":" ","LANE":"１９２巷","ALLEY":" ","HOUSE_NO":"７１號九樓之３","E_COORD97":164998.38,"N_COORD97":2544160.48,"ADDRESS":"育平九街１９２巷７１號九樓之３","OBJECTID":411123},"geometry":{"x":164998.38000000082,"y":2544160.4800000042}},{"attributes":{"ID":411148,"DIS_CODE":0,"TOWNNAME":"安平區","LI":"平通里","LIN":"3鄰","STREET":"育平九街","SECT":" ","MAREA":" ","LANE":"１９２巷","ALLEY":" ","HOUSE_NO":"７１號九樓之４","E_COORD97":164998.38,"N_COORD97":2544160.48,"ADDRESS":"育平九街１９２巷７１號九樓之４","OBJECTID":411124},"geometry":{"x":164998.38000000082,"y":2544160.4800000042}},{"attributes":{"ID":411149,"DIS_CODE":0,"TOWNNAME":"安平區","LI":"平通里","LIN":"3鄰","STREET":"育平九街","SECT":" ","MAREA":" ","LANE":"１９２巷","ALLEY":" ","HOUSE_NO":"７１號九樓之５","E_COORD97":164998.38,"N_COORD97":2544160.48,"ADDRESS":"育平九街１９２巷７１號九樓之５","OBJECTID":411125},"geometry":{"x":164998.38000000082,"y":2544160.4800000042}},{"attributes":{"ID":411150,"DIS_CODE":0,"TOWNNAME":"安平區","LI":"平通里","LIN":"3鄰","STREET":"育平九街","SECT":" ","MAREA":" ","LANE":"１９２巷","ALLEY":" ","HOUSE_NO":"７１號九樓之６","E_COORD97":164998.38,"N_COORD97":2544160.48,"ADDRESS":"育平九街１９２巷７１號九樓之６","OBJECTID":411126},"geometry":{"x":164998.38000000082,"y":2544160.4800000042}},{"attributes":{"ID":411151,"DIS_CODE":0,"TOWNNAME":"安平區","LI":"平通里","LIN":"3鄰","STREET":"育平九街","SECT":" ","MAREA":" ","LANE":"１９２巷","ALLEY":" ","HOUSE_NO":"７１號九樓之７","E_COORD97":164998.38,"N_COORD97":2544160.48,"ADDRESS":"育平九街１９２巷７１號九樓之７","OBJECTID":411127},"geometry":{"x":164998.38000000082,"y":2544160.4800000042}},{"attributes":{"ID":411152,"DIS_CODE":0,"TOWNNAME":"中西區","LI":"保安里","LIN":"3鄰","STREET":"保安路","SECT":" ","MAREA":" ","LANE":"８８巷","ALLEY":" ","HOUSE_NO":"１號","E_COORD97":167558.66,"N_COORD97":2543474.1699999999,"ADDRESS":"保安路８８巷１號","OBJECTID":411128},"geometry":{"x":167558.66000000108,"y":2543474.1700000018}},{"attributes":{"ID":411153,"DIS_CODE":0,"TOWNNAME":"安平區","LI":"平通里","LIN":"3鄰","STREET":"育平九街","SECT":" ","MAREA":" ","LANE":"１９２巷","ALLEY":" ","HOUSE_NO":"７１號八樓之１","E_COORD97":164998.38,"N_COORD97":2544160.48,"ADDRESS":"育平九街１９２巷７１號八樓之１","OBJECTID":411129},"geometry":{"x":164998.38000000082,"y":2544160.4800000042}},{"attributes":{"ID":411154,"DIS_CODE":0,"TOWNNAME":"安平區","LI":"平通里","LIN":"3鄰","STREET":"育平九街","SECT":" ","MAREA":" ","LANE":"１９２巷","ALLEY":" ","HOUSE_NO":"７１號八樓之１０","E_COORD97":164998.38,"N_COORD97":2544160.48,"ADDRESS":"育平九街１９２巷７１號八樓之１０","OBJECTID":411130},"geometry":{"x":164998.38000000082,"y":2544160.4800000042}},{"attributes":{"ID":411155,"DIS_CODE":0,"TOWNNAME":"安平區","LI":"平通里","LIN":"3鄰","STREET":"育平九街","SECT":" ","MAREA":" ","LANE":"１９２巷","ALLEY":" ","HOUSE_NO":"７１號八樓之１１","E_COORD97":164998.38,"N_COORD97":2544160.48,"ADDRESS":"育平九街１９２巷７１號八樓之１１","OBJECTID":411131},"geometry":{"x":164998.38000000082,"y":2544160.4800000042}},{"attributes":{"ID":411156,"DIS_CODE":0,"TOWNNAME":"安平區","LI":"平通里","LIN":"3鄰","STREET":"育平九街","SECT":" ","MAREA":" ","LANE":"１９２巷","ALLEY":" ","HOUSE_NO":"７１號八樓之２","E_COORD97":164998.38,"N_COORD97":2544160.48,"ADDRESS":"育平九街１９２巷７１號八樓之２","OBJECTID":411132},"geometry":{"x":164998.38000000082,"y":2544160.4800000042}},{"attributes":{"ID":411157,"DIS_CODE":0,"TOWNNAME":"安平區","LI":"平通里","LIN":"3鄰","STREET":"育平九街","SECT":" ","MAREA":" ","LANE":"１９２巷","ALLEY":" ","HOUSE_NO":"７１號八樓之３","E_COORD97":164998.38,"N_COORD97":2544160.48,"ADDRESS":"育平九街１９２巷７１號八樓之３","OBJECTID":411133},"geometry":{"x":164998.38000000082,"y":2544160.4800000042}},{"attributes":{"ID":411158,"DIS_CODE":0,"TOWNNAME":"安平區","LI":"平通里","LIN":"3鄰","STREET":"育平九街","SECT":" ","MAREA":" ","LANE":"１９２巷","ALLEY":" ","HOUSE_NO":"７１號八樓之４","E_COORD97":164998.38,"N_COORD97":2544160.48,"ADDRESS":"育平九街１９２巷７１號八樓之４","OBJECTID":411134},"geometry":{"x":164998.38000000082,"y":2544160.4800000042}},{"attributes":{"ID":411159,"DIS_CODE":0,"TOWNNAME":"安平區","LI":"平通里","LIN":"3鄰","STREET":"育平九街","SECT":" ","MAREA":" ","LANE":"１９２巷","ALLEY":" ","HOUSE_NO":"７１號八樓之５","E_COORD97":164998.38,"N_COORD97":2544160.48,"ADDRESS":"育平九街１９２巷７１號八樓之５","OBJECTID":411135},"geometry":{"x":164998.38000000082,"y":2544160.4800000042}},{"attributes":{"ID":411160,"DIS_CODE":0,"TOWNNAME":"安平區","LI":"平通里","LIN":"3鄰","STREET":"育平九街","SECT":" ","MAREA":" ","LANE":"１９２巷","ALLEY":" ","HOUSE_NO":"７１號八樓之６","E_COORD97":164998.38,"N_COORD97":2544160.48,"ADDRESS":"育平九街１９２巷７１號八樓之６","OBJECTID":411136},"geometry":{"x":164998.38000000082,"y":2544160.4800000042}},{"attributes":{"ID":411161,"DIS_CODE":0,"TOWNNAME":"安平區","LI":"平通里","LIN":"3鄰","STREET":"育平九街","SECT":" ","MAREA":" ","LANE":"１９２巷","ALLEY":" ","HOUSE_NO":"７１號八樓之７","E_COORD97":164998.38,"N_COORD97":2544160.48,"ADDRESS":"育平九街１９２巷７１號八樓之７","OBJECTID":411137},"geometry":{"x":164998.38000000082,"y":2544160.4800000042}},{"attributes":{"ID":411162,"DIS_CODE":0,"TOWNNAME":"安平區","LI":"平通里","LIN":"3鄰","STREET":"育平九街","SECT":" ","MAREA":" ","LANE":"１９２巷","ALLEY":" ","HOUSE_NO":"７１號八樓之８","E_COORD97":164998.38,"N_COORD97":2544160.48,"ADDRESS":"育平九街１９２巷７１號八樓之８","OBJECTID":411138},"geometry":{"x":164998.38000000082,"y":2544160.4800000042}},{"attributes":{"ID":411163,"DIS_CODE":0,"TOWNNAME":"安平區","LI":"平通里","LIN":"3鄰","STREET":"育平九街","SECT":" ","MAREA":" ","LANE":"１９２巷","ALLEY":" ","HOUSE_NO":"７１號八樓之９","E_COORD97":164998.38,"N_COORD97":2544160.48,"ADDRESS":"育平九街１９２巷７１號八樓之９","OBJECTID":411139},"geometry":{"x":164998.38000000082,"y":2544160.4800000042}},{"attributes":{"ID":411164,"DIS_CODE":0,"TOWNNAME":"安平區","LI":"平通里","LIN":"3鄰","STREET":"育平九街","SECT":" ","MAREA":" ","LANE":"１９２巷","ALLEY":" ","HOUSE_NO":"７１號十一樓之１","E_COORD97":164998.38,"N_COORD97":2544160.48,"ADDRESS":"育平九街１９２巷７１號十一樓之１","OBJECTID":411140},"geometry":{"x":164998.38000000082,"y":2544160.4800000042}},{"attributes":{"ID":411165,"DIS_CODE":0,"TOWNNAME":"永康區","LI":"\u25A0行里","LIN":"13鄰","STREET":"中正南路","SECT":" ","MAREA":" ","LANE":" ","ALLEY":" ","HOUSE_NO":"７８４號","E_COORD97":171809.39999999999,"N_COORD97":2549010.25,"ADDRESS":"中正南路７８４號","OBJECTID":411141},"geometry":{"x":171809.40000000037,"y":2549010.2500000019}},{"attributes":{"ID":411166,"DIS_CODE":0,"TOWNNAME":"安平區","LI":"平通里","LIN":"3鄰","STREET":"育平九街","SECT":" ","MAREA":" ","LANE":"１９２巷","ALLEY":" ","HOUSE_NO":"７１號十一樓之２","E_COORD97":164998.38,"N_COORD97":2544160.48,"ADDRESS":"育平九街１９２巷７１號十一樓之２","OBJECTID":411142},"geometry":{"x":164998.38000000082,"y":2544160.4800000042}},{"attributes":{"ID":411167,"DIS_CODE":0,"TOWNNAME":"安平區","LI":"平通里","LIN":"3鄰","STREET":"育平九街","SECT":" ","MAREA":" ","LANE":"１９２巷","ALLEY":" ","HOUSE_NO":"７１號十一樓之３","E_COORD97":164998.38,"N_COORD97":2544160.48,"ADDRESS":"育平九街１９２巷７１號十一樓之３","OBJECTID":411143},"geometry":{"x":164998.38000000082,"y":2544160.4800000042}},{"attributes":{"ID":411168,"DIS_CODE":0,"TOWNNAME":"安平區","LI":"平通里","LIN":"3鄰","STREET":"育平九街","SECT":" ","MAREA":" ","LANE":"１９２巷","ALLEY":" ","HOUSE_NO":"７１號十一樓之４","E_COORD97":164998.38,"N_COORD97":2544160.48,"ADDRESS":"育平九街１９２巷７１號十一樓之４","OBJECTID":411144},"geometry":{"x":164998.38000000082,"y":2544160.4800000042}},{"attributes":{"ID":411169,"DIS_CODE":0,"TOWNNAME":"安平區","LI":"平通里","LIN":"3鄰","STREET":"育平九街","SECT":" ","MAREA":" ","LANE":"１９２巷","ALLEY":" ","HOUSE_NO":"７１號十一樓之６","E_COORD97":164998.38,"N_COORD97":2544160.48,"ADDRESS":"育平九街１９２巷７１號十一樓之６","OBJECTID":411145},"geometry":{"x":164998.38000000082,"y":2544160.4800000042}},{"attributes":{"ID":411170,"DIS_CODE":0,"TOWNNAME":"安平區","LI":"平通里","LIN":"3鄰","STREET":"育平九街","SECT":" ","MAREA":" ","LANE":"１９２巷","ALLEY":" ","HOUSE_NO":"７１號十樓之１","E_COORD97":164998.38,"N_COORD97":2544160.48,"ADDRESS":"育平九街１９２巷７１號十樓之１","OBJECTID":411146},"geometry":{"x":164998.38000000082,"y":2544160.4800000042}},{"attributes":{"ID":411171,"DIS_CODE":0,"TOWNNAME":"安平區","LI":"平通里","LIN":"3鄰","STREET":"育平九街","SECT":" ","MAREA":" ","LANE":"１９２巷","ALLEY":" ","HOUSE_NO":"７１號十樓之２","E_COORD97":164998.38,"N_COORD97":2544160.48,"ADDRESS":"育平九街１９２巷７１號十樓之２","OBJECTID":411147},"geometry":{"x":164998.38000000082,"y":2544160.4800000042}},{"attributes":{"ID":411172,"DIS_CODE":0,"TOWNNAME":"安平區","LI":"平通里","LIN":"3鄰","STREET":"育平九街","SECT":" ","MAREA":" ","LANE":"１９２巷","ALLEY":" ","HOUSE_NO":"７１號十樓之３","E_COORD97":164998.38,"N_COORD97":2544160.48,"ADDRESS":"育平九街１９２巷７１號十樓之３","OBJECTID":411148},"geometry":{"x":164998.38000000082,"y":2544160.4800000042}},{"attributes":{"ID":411173,"DIS_CODE":0,"TOWNNAME":"安平區","LI":"平通里","LIN":"3鄰","STREET":"育平九街","SECT":" ","MAREA":" ","LANE":"１９２巷","ALLEY":" ","HOUSE_NO":"７１號十樓之４","E_COORD97":164998.38,"N_COORD97":2544160.48,"ADDRESS":"育平九街１９２巷７１號十樓之４","OBJECTID":411149},"geometry":{"x":164998.38000000082,"y":2544160.4800000042}},{"attributes":{"ID":411174,"DIS_CODE":0,"TOWNNAME":"安平區","LI":"平通里","LIN":"3鄰","STREET":"育平九街","SECT":" ","MAREA":" ","LANE":"１９２巷","ALLEY":" ","HOUSE_NO":"７１號十樓之５","E_COORD97":164998.38,"N_COORD97":2544160.48,"ADDRESS":"育平九街１９２巷７１號十樓之５","OBJECTID":411150},"geometry":{"x":164998.38000000082,"y":2544160.4800000042}},{"attributes":{"ID":411175,"DIS_CODE":0,"TOWNNAME":"安平區","LI":"平通里","LIN":"3鄰","STREET":"育平九街","SECT":" ","MAREA":" ","LANE":"１９２巷","ALLEY":" ","HOUSE_NO":"７１號十樓之６","E_COORD97":164998.38,"N_COORD97":2544160.48,"ADDRESS":"育平九街１９２巷７１號十樓之６","OBJECTID":411151},"geometry":{"x":164998.38000000082,"y":2544160.4800000042}},{"attributes":{"ID":411176,"DIS_CODE":0,"TOWNNAME":"安平區","LI":"平通里","LIN":"3鄰","STREET":"育平九街","SECT":" ","MAREA":" ","LANE":"１９２巷","ALLEY":" ","HOUSE_NO":"７１號三樓之１","E_COORD97":164998.38,"N_COORD97":2544160.48,"ADDRESS":"育平九街１９２巷７１號三樓之１","OBJECTID":411152},"geometry":{"x":164998.38000000082,"y":2544160.4800000042}},{"attributes":{"ID":411177,"DIS_CODE":0,"TOWNNAME":"安平區","LI":"平通里","LIN":"3鄰","STREET":"育平九街","SECT":" ","MAREA":" ","LANE":"１９２巷","ALLEY":" ","HOUSE_NO":"７１號三樓之１０","E_COORD97":164998.38,"N_COORD97":2544160.48,"ADDRESS":"育平九街１９２巷７１號三樓之１０","OBJECTID":411153},"geometry":{"x":164998.38000000082,"y":2544160.4800000042}},{"attributes":{"ID":411178,"DIS_CODE":0,"TOWNNAME":"安平區","LI":"平通里","LIN":"3鄰","STREET":"育平九街","SECT":" ","MAREA":" ","LANE":"１９２巷","ALLEY":" ","HOUSE_NO":"７１號三樓之１１","E_COORD97":164998.38,"N_COORD97":2544160.48,"ADDRESS":"育平九街１９２巷７１號三樓之１１","OBJECTID":411154},"geometry":{"x":164998.38000000082,"y":2544160.4800000042}},{"attributes":{"ID":411179,"DIS_CODE":0,"TOWNNAME":"安平區","LI":"平通里","LIN":"3鄰","STREET":"育平九街","SECT":" ","MAREA":" ","LANE":"１９２巷","ALLEY":" ","HOUSE_NO":"７１號三樓之２","E_COORD97":164998.38,"N_COORD97":2544160.48,"ADDRESS":"育平九街１９２巷７１號三樓之２","OBJECTID":411155},"geometry":{"x":164998.38000000082,"y":2544160.4800000042}},{"attributes":{"ID":411180,"DIS_CODE":0,"TOWNNAME":"安平區","LI":"平通里","LIN":"3鄰","STREET":"育平九街","SECT":" ","MAREA":" ","LANE":"１９２巷","ALLEY":" ","HOUSE_NO":"７１號三樓之３","E_COORD97":164998.38,"N_COORD97":2544160.48,"ADDRESS":"育平九街１９２巷７１號三樓之３","OBJECTID":411156},"geometry":{"x":164998.38000000082,"y":2544160.4800000042}},{"attributes":{"ID":411181,"DIS_CODE":0,"TOWNNAME":"東區","LI":"崇善里","LIN":"5鄰","STREET":"崇善四街","SECT":" ","MAREA":" ","LANE":" ","ALLEY":" ","HOUSE_NO":"８號","E_COORD97":170993.34,"N_COORD97":2541663.7400000002,"ADDRESS":"崇善四街８號","OBJECTID":411157},"geometry":{"x":170993.34000000078,"y":2541663.7400000021}},{"attributes":{"ID":411182,"DIS_CODE":0,"TOWNNAME":"安平區","LI":"平通里","LIN":"3鄰","STREET":"育平九街","SECT":" ","MAREA":" ","LANE":"１９２巷","ALLEY":" ","HOUSE_NO":"７１號三樓之４","E_COORD97":164998.38,"N_COORD97":2544160.48,"ADDRESS":"育平九街１９２巷７１號三樓之４","OBJECTID":411158},"geometry":{"x":164998.38000000082,"y":2544160.4800000042}},{"attributes":{"ID":411183,"DIS_CODE":0,"TOWNNAME":"安平區","LI":"平通里","LIN":"3鄰","STREET":"育平九街","SECT":" ","MAREA":" ","LANE":"１９２巷","ALLEY":" ","HOUSE_NO":"７１號三樓之５","E_COORD97":164998.38,"N_COORD97":2544160.48,"ADDRESS":"育平九街１９２巷７１號三樓之５","OBJECTID":411159},"geometry":{"x":164998.38000000082,"y":2544160.4800000042}},{"attributes":{"ID":411184,"DIS_CODE":0,"TOWNNAME":"安平區","LI":"平通里","LIN":"3鄰","STREET":"育平九街","SECT":" ","MAREA":" ","LANE":"１９２巷","ALLEY":" ","HOUSE_NO":"７１號三樓之６","E_COORD97":164998.38,"N_COORD97":2544160.48,"ADDRESS":"育平九街１９２巷７１號三樓之６","OBJECTID":411160},"geometry":{"x":164998.38000000082,"y":2544160.4800000042}},{"attributes":{"ID":411185,"DIS_CODE":0,"TOWNNAME":"安平區","LI":"平通里","LIN":"3鄰","STREET":"育平九街","SECT":" ","MAREA":" ","LANE":"１９２巷","ALLEY":" ","HOUSE_NO":"７１號三樓之７","E_COORD97":164998.38,"N_COORD97":2544160.48,"ADDRESS":"育平九街１９２巷７１號三樓之７","OBJECTID":411161},"geometry":{"x":164998.38000000082,"y":2544160.4800000042}},{"attributes":{"ID":411186,"DIS_CODE":0,"TOWNNAME":"安平區","LI":"平通里","LIN":"3鄰","STREET":"育平九街","SECT":" ","MAREA":" ","LANE":"１９２巷","ALLEY":" ","HOUSE_NO":"７１號三樓之８","E_COORD97":164998.38,"N_COORD97":2544160.48,"ADDRESS":"育平九街１９２巷７１號三樓之８","OBJECTID":411162},"geometry":{"x":164998.38000000082,"y":2544160.4800000042}},{"attributes":{"ID":411187,"DIS_CODE":0,"TOWNNAME":"安平區","LI":"平通里","LIN":"3鄰","STREET":"育平九街","SECT":" ","MAREA":" ","LANE":"１９２巷","ALLEY":" ","HOUSE_NO":"７１號三樓之９","E_COORD97":164998.38,"N_COORD97":2544160.48,"ADDRESS":"育平九街１９２巷７１號三樓之９","OBJECTID":411163},"geometry":{"x":164998.38000000082,"y":2544160.4800000042}},{"attributes":{"ID":411188,"DIS_CODE":0,"TOWNNAME":"安平區","LI":"平通里","LIN":"3鄰","STREET":"育平九街","SECT":" ","MAREA":" ","LANE":"１９２巷","ALLEY":" ","HOUSE_NO":"７１號五樓之１","E_COORD97":164998.38,"N_COORD97":2544160.48,"ADDRESS":"育平九街１９２巷７１號五樓之１","OBJECTID":411164},"geometry":{"x":164998.38000000082,"y":2544160.4800000042}},{"attributes":{"ID":411189,"DIS_CODE":0,"TOWNNAME":"安平區","LI":"平通里","LIN":"3鄰","STREET":"育平九街","SECT":" ","MAREA":" ","LANE":"１９２巷","ALLEY":" ","HOUSE_NO":"７１號五樓之１０","E_COORD97":164998.38,"N_COORD97":2544160.48,"ADDRESS":"育平九街１９２巷７１號五樓之１０","OBJECTID":411165},"geometry":{"x":164998.38000000082,"y":2544160.4800000042}},{"attributes":{"ID":411190,"DIS_CODE":0,"TOWNNAME":"安平區","LI":"平通里","LIN":"3鄰","STREET":"育平九街","SECT":" ","MAREA":" ","LANE":"１９２巷","ALLEY":" ","HOUSE_NO":"７１號五樓之１１","E_COORD97":164998.38,"N_COORD97":2544160.48,"ADDRESS":"育平九街１９２巷７１號五樓之１１","OBJECTID":411166},"geometry":{"x":164998.38000000082,"y":2544160.4800000042}},{"attributes":{"ID":411191,"DIS_CODE":0,"TOWNNAME":"安平區","LI":"平通里","LIN":"3鄰","STREET":"育平九街","SECT":" ","MAREA":" ","LANE":"１９２巷","ALLEY":" ","HOUSE_NO":"７１號五樓之２","E_COORD97":164998.38,"N_COORD97":2544160.48,"ADDRESS":"育平九街１９２巷７１號五樓之２","OBJECTID":411167},"geometry":{"x":164998.38000000082,"y":2544160.4800000042}},{"attributes":{"ID":411192,"DIS_CODE":0,"TOWNNAME":"安平區","LI":"平通里","LIN":"3鄰","STREET":"育平九街","SECT":" ","MAREA":" ","LANE":"１９２巷","ALLEY":" ","HOUSE_NO":"７１號五樓之３","E_COORD97":164998.38,"N_COORD97":2544160.48,"ADDRESS":"育平九街１９２巷７１號五樓之３","OBJECTID":411168},"geometry":{"x":164998.38000000082,"y":2544160.4800000042}},{"attributes":{"ID":411193,"DIS_CODE":0,"TOWNNAME":"安平區","LI":"平通里","LIN":"3鄰","STREET":"育平九街","SECT":" ","MAREA":" ","LANE":"１９２巷","ALLEY":" ","HOUSE_NO":"７１號五樓之４","E_COORD97":164998.38,"N_COORD97":2544160.48,"ADDRESS":"育平九街１９２巷７１號五樓之４","OBJECTID":411169},"geometry":{"x":164998.38000000082,"y":2544160.4800000042}},{"attributes":{"ID":411194,"DIS_CODE":0,"TOWNNAME":"安平區","LI":"平通里","LIN":"3鄰","STREET":"育平九街","SECT":" ","MAREA":" ","LANE":"１９２巷","ALLEY":" ","HOUSE_NO":"７１號五樓之５","E_COORD97":164998.38,"N_COORD97":2544160.48,"ADDRESS":"育平九街１９２巷７１號五樓之５","OBJECTID":411170},"geometry":{"x":164998.38000000082,"y":2544160.4800000042}},{"attributes":{"ID":411195,"DIS_CODE":0,"TOWNNAME":"安平區","LI":"平通里","LIN":"3鄰","STREET":"育平九街","SECT":" ","MAREA":" ","LANE":"１９２巷","ALLEY":" ","HOUSE_NO":"７１號五樓之６","E_COORD97":164998.38,"N_COORD97":2544160.48,"ADDRESS":"育平九街１９２巷７１號五樓之６","OBJECTID":411171},"geometry":{"x":164998.38000000082,"y":2544160.4800000042}},{"attributes":{"ID":411196,"DIS_CODE":0,"TOWNNAME":"安平區","LI":"平通里","LIN":"3鄰","STREET":"育平九街","SECT":" ","MAREA":" ","LANE":"１９２巷","ALLEY":" ","HOUSE_NO":"７１號五樓之７","E_COORD97":164998.38,"N_COORD97":2544160.48,"ADDRESS":"育平九街１９２巷７１號五樓之７","OBJECTID":411172},"geometry":{"x":164998.38000000082,"y":2544160.4800000042}},{"attributes":{"ID":411197,"DIS_CODE":0,"TOWNNAME":"安平區","LI":"平通里","LIN":"3鄰","STREET":"育平九街","SECT":" ","MAREA":" ","LANE":"１９２巷","ALLEY":" ","HOUSE_NO":"７１號五樓之８","E_COORD97":164998.38,"N_COORD97":2544160.48,"ADDRESS":"育平九街１９２巷７１號五樓之８","OBJECTID":411173},"geometry":{"x":164998.38000000082,"y":2544160.4800000042}},{"attributes":{"ID":411198,"DIS_CODE":0,"TOWNNAME":"安平區","LI":"平通里","LIN":"3鄰","STREET":"育平九街","SECT":" ","MAREA":" ","LANE":"１９２巷","ALLEY":" ","HOUSE_NO":"７１號五樓之９","E_COORD97":164998.38,"N_COORD97":2544160.48,"ADDRESS":"育平九街１９２巷７１號五樓之９","OBJECTID":411174},"geometry":{"x":164998.38000000082,"y":2544160.4800000042}},{"attributes":{"ID":411199,"DIS_CODE":0,"TOWNNAME":"安平區","LI":"平通里","LIN":"3鄰","STREET":"育平九街","SECT":" ","MAREA":" ","LANE":"１９２巷","ALLEY":" ","HOUSE_NO":"７１號六樓之１","E_COORD97":164998.38,"N_COORD97":2544160.48,"ADDRESS":"育平九街１９２巷７１號六樓之１","OBJECTID":411175},"geometry":{"x":164998.38000000082,"y":2544160.4800000042}},{"attributes":{"ID":411200,"DIS_CODE":0,"TOWNNAME":"安平區","LI":"平通里","LIN":"3鄰","STREET":"育平九街","SECT":" ","MAREA":" ","LANE":"１９２巷","ALLEY":" ","HOUSE_NO":"７１號六樓之１０","E_COORD97":164998.38,"N_COORD97":2544160.48,"ADDRESS":"育平九街１９２巷７１號六樓之１０","OBJECTID":411176},"geometry":{"x":164998.38000000082,"y":2544160.4800000042}},{"attributes":{"ID":411201,"DIS_CODE":0,"TOWNNAME":"安平區","LI":"平通里","LIN":"3鄰","STREET":"育平九街","SECT":" ","MAREA":" ","LANE":"１９２巷","ALLEY":" ","HOUSE_NO":"７１號六樓之１１","E_COORD97":164998.38,"N_COORD97":2544160.48,"ADDRESS":"育平九街１９２巷７１號六樓之１１","OBJECTID":411177},"geometry":{"x":164998.38000000082,"y":2544160.4800000042}},{"attributes":{"ID":411202,"DIS_CODE":0,"TOWNNAME":"安平區","LI":"平通里","LIN":"3鄰","STREET":"育平九街","SECT":" ","MAREA":" ","LANE":"１９２巷","ALLEY":" ","HOUSE_NO":"７１號六樓之２","E_COORD97":164998.38,"N_COORD97":2544160.48,"ADDRESS":"育平九街１９２巷７１號六樓之２","OBJECTID":411178},"geometry":{"x":164998.38000000082,"y":2544160.4800000042}},{"attributes":{"ID":411203,"DIS_CODE":0,"TOWNNAME":"安平區","LI":"平通里","LIN":"3鄰","STREET":"育平九街","SECT":" ","MAREA":" ","LANE":"１９２巷","ALLEY":" ","HOUSE_NO":"７１號六樓之３","E_COORD97":164998.38,"N_COORD97":2544160.48,"ADDRESS":"育平九街１９２巷７１號六樓之３","OBJECTID":411179},"geometry":{"x":164998.38000000082,"y":2544160.4800000042}},{"attributes":{"ID":411204,"DIS_CODE":0,"TOWNNAME":"安平區","LI":"平通里","LIN":"3鄰","STREET":"育平九街","SECT":" ","MAREA":" ","LANE":"１９２巷","ALLEY":" ","HOUSE_NO":"７１號六樓之４","E_COORD97":164998.38,"N_COORD97":2544160.48,"ADDRESS":"育平九街１９２巷７１號六樓之４","OBJECTID":411180},"geometry":{"x":164998.38000000082,"y":2544160.4800000042}},{"attributes":{"ID":411205,"DIS_CODE":0,"TOWNNAME":"安平區","LI":"平通里","LIN":"3鄰","STREET":"育平九街","SECT":" ","MAREA":" ","LANE":"１９２巷","ALLEY":" ","HOUSE_NO":"７１號六樓之５","E_COORD97":164998.38,"N_COORD97":2544160.48,"ADDRESS":"育平九街１９２巷７１號六樓之５","OBJECTID":411181},"geometry":{"x":164998.38000000082,"y":2544160.4800000042}},{"attributes":{"ID":411206,"DIS_CODE":0,"TOWNNAME":"安平區","LI":"平通里","LIN":"3鄰","STREET":"育平九街","SECT":" ","MAREA":" ","LANE":"１９２巷","ALLEY":" ","HOUSE_NO":"７１號六樓之６","E_COORD97":164998.38,"N_COORD97":2544160.48,"ADDRESS":"育平九街１９２巷７１號六樓之６","OBJECTID":411182},"geometry":{"x":164998.38000000082,"y":2544160.4800000042}},{"attributes":{"ID":411207,"DIS_CODE":0,"TOWNNAME":"安平區","LI":"平通里","LIN":"3鄰","STREET":"育平九街","SECT":" ","MAREA":" ","LANE":"１９２巷","ALLEY":" ","HOUSE_NO":"７１號六樓之７","E_COORD97":164998.38,"N_COORD97":2544160.48,"ADDRESS":"育平九街１９２巷７１號六樓之７","OBJECTID":411183},"geometry":{"x":164998.38000000082,"y":2544160.4800000042}},{"attributes":{"ID":411208,"DIS_CODE":0,"TOWNNAME":"安平區","LI":"平通里","LIN":"3鄰","STREET":"育平九街","SECT":" ","MAREA":" ","LANE":"１９２巷","ALLEY":" ","HOUSE_NO":"７１號六樓之８","E_COORD97":164998.38,"N_COORD97":2544160.48,"ADDRESS":"育平九街１９２巷７１號六樓之８","OBJECTID":411184},"geometry":{"x":164998.38000000082,"y":2544160.4800000042}},{"attributes":{"ID":411209,"DIS_CODE":0,"TOWNNAME":"中西區","LI":"永華里","LIN":"20鄰","STREET":"中正路","SECT":" ","MAREA":" ","LANE":" ","ALLEY":" ","HOUSE_NO":"２號","E_COORD97":168438.23000000001,"N_COORD97":2543676.5899999999,"ADDRESS":"中正路２號","OBJECTID":411185},"geometry":{"x":168438.23000000138,"y":2543676.5899999999}},{"attributes":{"ID":411210,"DIS_CODE":0,"TOWNNAME":"安平區","LI":"平通里","LIN":"3鄰","STREET":"育平九街","SECT":" ","MAREA":" ","LANE":"１９２巷","ALLEY":" ","HOUSE_NO":"７１號六樓之９","E_COORD97":164998.38,"N_COORD97":2544160.48,"ADDRESS":"育平九街１９２巷７１號六樓之９","OBJECTID":411186},"geometry":{"x":164998.38000000082,"y":2544160.4800000042}},{"attributes":{"ID":411211,"DIS_CODE":0,"TOWNNAME":"安平區","LI":"平通里","LIN":"3鄰","STREET":"育平九街","SECT":" ","MAREA":" ","LANE":"１９２巷","ALLEY":" ","HOUSE_NO":"７１號四樓之１","E_COORD97":164998.38,"N_COORD97":2544160.48,"ADDRESS":"育平九街１９２巷７１號四樓之１","OBJECTID":411187},"geometry":{"x":164998.38000000082,"y":2544160.4800000042}},{"attributes":{"ID":411212,"DIS_CODE":0,"TOWNNAME":"安平區","LI":"平通里","LIN":"3鄰","STREET":"育平九街","SECT":" ","MAREA":" ","LANE":"１９２巷","ALLEY":" ","HOUSE_NO":"７１號四樓之１０","E_COORD97":164998.38,"N_COORD97":2544160.48,"ADDRESS":"育平九街１９２巷７１號四樓之１０","OBJECTID":411188},"geometry":{"x":164998.38000000082,"y":2544160.4800000042}},{"attributes":{"ID":411213,"DIS_CODE":0,"TOWNNAME":"安平區","LI":"平通里","LIN":"3鄰","STREET":"育平九街","SECT":" ","MAREA":" ","LANE":"１９２巷","ALLEY":" ","HOUSE_NO":"７１號四樓之１１","E_COORD97":164998.38,"N_COORD97":2544160.48,"ADDRESS":"育平九街１９２巷７１號四樓之１１","OBJECTID":411189},"geometry":{"x":164998.38000000082,"y":2544160.4800000042}},{"attributes":{"ID":411214,"DIS_CODE":0,"TOWNNAME":"安平區","LI":"平通里","LIN":"3鄰","STREET":"育平九街","SECT":" ","MAREA":" ","LANE":"１９２巷","ALLEY":" ","HOUSE_NO":"７１號四樓之２","E_COORD97":164998.38,"N_COORD97":2544160.48,"ADDRESS":"育平九街１９２巷７１號四樓之２","OBJECTID":411190},"geometry":{"x":164998.38000000082,"y":2544160.4800000042}},{"attributes":{"ID":411215,"DIS_CODE":0,"TOWNNAME":"安平區","LI":"平通里","LIN":"3鄰","STREET":"育平九街","SECT":" ","MAREA":" ","LANE":"１９２巷","ALLEY":" ","HOUSE_NO":"７１號四樓之３","E_COORD97":164998.38,"N_COORD97":2544160.48,"ADDRESS":"育平九街１９２巷７１號四樓之３","OBJECTID":411191},"geometry":{"x":164998.38000000082,"y":2544160.4800000042}},{"attributes":{"ID":411216,"DIS_CODE":0,"TOWNNAME":"安平區","LI":"平通里","LIN":"3鄰","STREET":"育平九街","SECT":" ","MAREA":" ","LANE":"１９２巷","ALLEY":" ","HOUSE_NO":"７１號四樓之５","E_COORD97":164998.38,"N_COORD97":2544160.48,"ADDRESS":"育平九街１９２巷７１號四樓之５","OBJECTID":411192},"geometry":{"x":164998.38000000082,"y":2544160.4800000042}},{"attributes":{"ID":411217,"DIS_CODE":0,"TOWNNAME":"安平區","LI":"平通里","LIN":"3鄰","STREET":"育平九街","SECT":" ","MAREA":" ","LANE":"１９２巷","ALLEY":" ","HOUSE_NO":"７１號四樓之６","E_COORD97":164998.38,"N_COORD97":2544160.48,"ADDRESS":"育平九街１９２巷７１號四樓之６","OBJECTID":411193},"geometry":{"x":164998.38000000082,"y":2544160.4800000042}},{"attributes":{"ID":411218,"DIS_CODE":0,"TOWNNAME":"安平區","LI":"平通里","LIN":"3鄰","STREET":"育平九街","SECT":" ","MAREA":" ","LANE":"１９２巷","ALLEY":" ","HOUSE_NO":"７１號四樓之７","E_COORD97":164998.38,"N_COORD97":2544160.48,"ADDRESS":"育平九街１９２巷７１號四樓之７","OBJECTID":411194},"geometry":{"x":164998.38000000082,"y":2544160.4800000042}},{"attributes":{"ID":411219,"DIS_CODE":0,"TOWNNAME":"安平區","LI":"平通里","LIN":"3鄰","STREET":"育平九街","SECT":" ","MAREA":" ","LANE":"１９２巷","ALLEY":" ","HOUSE_NO":"７１號四樓之８","E_COORD97":164998.38,"N_COORD97":2544160.48,"ADDRESS":"育平九街１９２巷７１號四樓之８","OBJECTID":411195},"geometry":{"x":164998.38000000082,"y":2544160.4800000042}},{"attributes":{"ID":411220,"DIS_CODE":0,"TOWNNAME":"安平區","LI":"平通里","LIN":"3鄰","STREET":"育平九街","SECT":" ","MAREA":" ","LANE":"１９２巷","ALLEY":" ","HOUSE_NO":"７１號四樓之９","E_COORD97":164998.38,"N_COORD97":2544160.48,"ADDRESS":"育平九街１９２巷７１號四樓之９","OBJECTID":411196},"geometry":{"x":164998.38000000082,"y":2544160.4800000042}},{"attributes":{"ID":411221,"DIS_CODE":0,"TOWNNAME":"新營區","LI":"忠政里","LIN":"3鄰","STREET":"中正路","SECT":" ","MAREA":" ","LANE":"３７巷","ALLEY":" ","HOUSE_NO":"３之１號三樓","E_COORD97":180079.95000000001,"N_COORD97":2579128.3399999999,"ADDRESS":"中正路３７巷３之１號三樓","OBJECTID":411197},"geometry":{"x":180079.95000000019,"y":2579128.3399999999}},{"attributes":{"ID":411222,"DIS_CODE":0,"TOWNNAME":"北區","LI":"賢北里","LIN":"13鄰","STREET":"賢北街","SECT":" ","MAREA":" ","LANE":" ","ALLEY":" ","HOUSE_NO":"４３號","E_COORD97":166253.48000000001,"N_COORD97":2545433.9700000002,"ADDRESS":"賢北街４３號","OBJECTID":411198},"geometry":{"x":166253.48000000045,"y":2545433.9700000007}},{"attributes":{"ID":411223,"DIS_CODE":0,"TOWNNAME":"新營區","LI":"忠政里","LIN":"3鄰","STREET":"中正路","SECT":" ","MAREA":" ","LANE":"３７巷","ALLEY":" ","HOUSE_NO":"１３號三樓","E_COORD97":180034.60999999999,"N_COORD97":2579126.2999999998,"ADDRESS":"中正路３７巷１３號三樓","OBJECTID":411199},"geometry":{"x":180034.61000000034,"y":2579126.3000000007}},{"attributes":{"ID":411224,"DIS_CODE":0,"TOWNNAME":"永康區","LI":"正強里","LIN":"3鄰","STREET":"中正路","SECT":" ","MAREA":" ","LANE":"１巷","ALLEY":" ","HOUSE_NO":"６４號","E_COORD97":173570.67999999999,"N_COORD97":2547588,"ADDRESS":"中正路１巷６４號","OBJECTID":411200},"geometry":{"x":173570.68000000063,"y":2547588.0000000019}}]}