{"displayFieldName":"TOWNNAME","fieldAliases":{"ID":"ID","DIS_CODE":"DIS_CODE","TOWNNAME":"TOWNNAME","LI":"LI","LIN":"LIN","STREET":"STREET","SECT":"SECT","MAREA":"MAREA","LANE":"LANE","ALLEY":"ALLEY","HOUSE_NO":"HOUSE_NO","E_COORD97":"E_COORD97","N_COORD97":"N_COORD97","ADDRESS":"ADDRESS","OBJECTID":"OBJECTID"},"geometryType":"esriGeometryPoint","spatialReference":{"wkid":102443,"latestWkid":3826},"fields":[{"name":"ID","type":"esriFieldTypeDouble","alias":"ID"},{"name":"DIS_CODE","type":"esriFieldTypeInteger","alias":"DIS_CODE"},{"name":"TOWNNAME","type":"esriFieldTypeString","alias":"TOWNNAME","length":8},{"name":"LI","type":"esriFieldTypeString","alias":"LI","length":8},{"name":"LIN","type":"esriFieldTypeString","alias":"LIN","length":12},{"name":"STREET","type":"esriFieldTypeString","alias":"STREET","length":20},{"name":"SECT","type":"esriFieldTypeString","alias":"SECT","length":8},{"name":"MAREA","type":"esriFieldTypeString","alias":"MAREA","length":12},{"name":"LANE","type":"esriFieldTypeString","alias":"LANE","length":10},{"name":"ALLEY","type":"esriFieldTypeString","alias":"ALLEY","length":10},{"name":"HOUSE_NO","type":"esriFieldTypeString","alias":"HOUSE_NO","length":20},{"name":"E_COORD97","type":"esriFieldTypeDouble","alias":"E_COORD97"},{"name":"N_COORD97","type":"esriFieldTypeDouble","alias":"N_COORD97"},{"name":"ADDRESS","type":"esriFieldTypeString","alias":"ADDRESS","length":50},{"name":"OBJECTID","type":"esriFieldTypeOID","alias":"OBJECTID"}],"features":[{"attributes":{"ID":341810,"DIS_CODE":0,"TOWNNAME":"安南區","LI":"總頭里","LIN":"1鄰","STREET":"長溪路","SECT":"二段","MAREA":" ","LANE":"４７０巷","ALLEY":" ","HOUSE_NO":"６號","E_COORD97":168299.98000000001,"N_COORD97":2550360.0899999999,"ADDRESS":"長溪路二段４７０巷６號","OBJECTID":341801},"geometry":{"x":168299.98000000045,"y":2550360.0900000036}},{"attributes":{"ID":341811,"DIS_CODE":0,"TOWNNAME":"安南區","LI":"總頭里","LIN":"1鄰","STREET":"長溪路","SECT":"二段","MAREA":" ","LANE":"４７０巷","ALLEY":" ","HOUSE_NO":"７號","E_COORD97":168300.53,"N_COORD97":2550377.71,"ADDRESS":"長溪路二段４７０巷７號","OBJECTID":341802},"geometry":{"x":168300.53000000119,"y":2550377.7100000028}},{"attributes":{"ID":341812,"DIS_CODE":0,"TOWNNAME":"安南區","LI":"總頭里","LIN":"1鄰","STREET":"長溪路","SECT":"二段","MAREA":" ","LANE":"４７０巷","ALLEY":" ","HOUSE_NO":"８號","E_COORD97":168308.25,"N_COORD97":2550359.54,"ADDRESS":"長溪路二段４７０巷８號","OBJECTID":341803},"geometry":{"x":168308.25000000186,"y":2550359.5400000028}},{"attributes":{"ID":341813,"DIS_CODE":0,"TOWNNAME":"安南區","LI":"總頭里","LIN":"1鄰","STREET":"長溪路","SECT":"二段","MAREA":" ","LANE":"４７０巷","ALLEY":" ","HOUSE_NO":"９號","E_COORD97":168304.39000000001,"N_COORD97":2550379.9100000001,"ADDRESS":"長溪路二段４７０巷９號","OBJECTID":341804},"geometry":{"x":168304.38999999966,"y":2550379.910000002}},{"attributes":{"ID":341814,"DIS_CODE":0,"TOWNNAME":"安南區","LI":"安西里","LIN":"1鄰","STREET":"安和路","SECT":"一段","MAREA":" ","LANE":"１８５巷","ALLEY":" ","HOUSE_NO":"３號","E_COORD97":169291.04000000001,"N_COORD97":2547847.0600000001,"ADDRESS":"安和路一段１８５巷３號","OBJECTID":341805},"geometry":{"x":169291.04000000004,"y":2547847.0600000005}},{"attributes":{"ID":341815,"DIS_CODE":0,"TOWNNAME":"安南區","LI":"安西里","LIN":"1鄰","STREET":"安和路","SECT":"一段","MAREA":" ","LANE":"１８５巷","ALLEY":" ","HOUSE_NO":"３號之１","E_COORD97":169287.51000000001,"N_COORD97":2547845.8900000001,"ADDRESS":"安和路一段１８５巷３號之１","OBJECTID":341806},"geometry":{"x":169287.50999999978,"y":2547845.8900000006}},{"attributes":{"ID":341816,"DIS_CODE":0,"TOWNNAME":"安南區","LI":"淵中里","LIN":"1鄰","STREET":"安中路","SECT":"三段","MAREA":" ","LANE":"３２９巷","ALLEY":" ","HOUSE_NO":"３２號","E_COORD97":165614.72,"N_COORD97":2549814.75,"ADDRESS":"安中路三段３２９巷３２號","OBJECTID":341807},"geometry":{"x":165614.72000000067,"y":2549814.7500000019}},{"attributes":{"ID":341817,"DIS_CODE":0,"TOWNNAME":"安南區","LI":"淵中里","LIN":"1鄰","STREET":"安中路","SECT":"三段","MAREA":" ","LANE":"３２９巷","ALLEY":" ","HOUSE_NO":"３６號","E_COORD97":165614.48999999999,"N_COORD97":2549810.8300000001,"ADDRESS":"安中路三段３２９巷３６號","OBJECTID":341808},"geometry":{"x":165614.49000000022,"y":2549810.8300000019}},{"attributes":{"ID":341818,"DIS_CODE":0,"TOWNNAME":"安南區","LI":"淵中里","LIN":"1鄰","STREET":"安中路","SECT":"三段","MAREA":" ","LANE":"３２９巷","ALLEY":" ","HOUSE_NO":"３８號","E_COORD97":165617.19,"N_COORD97":2549805.4399999999,"ADDRESS":"安中路三段３２９巷３８號","OBJECTID":341809},"geometry":{"x":165617.19000000227,"y":2549805.4400000013}},{"attributes":{"ID":341819,"DIS_CODE":0,"TOWNNAME":"安南區","LI":"淵中里","LIN":"1鄰","STREET":"安中路","SECT":"三段","MAREA":" ","LANE":"３２９巷","ALLEY":" ","HOUSE_NO":"４０號","E_COORD97":165615.42000000001,"N_COORD97":2549801.1400000001,"ADDRESS":"安中路三段３２９巷４０號","OBJECTID":341810},"geometry":{"x":165615.42000000086,"y":2549801.1400000043}},{"attributes":{"ID":341820,"DIS_CODE":0,"TOWNNAME":"安南區","LI":"淵中里","LIN":"1鄰","STREET":"安中路","SECT":"三段","MAREA":" ","LANE":"３２９巷","ALLEY":" ","HOUSE_NO":"４２號","E_COORD97":165614.42000000001,"N_COORD97":2549796.96,"ADDRESS":"安中路三段３２９巷４２號","OBJECTID":341811},"geometry":{"x":165614.41999999993,"y":2549796.9600000028}},{"attributes":{"ID":341821,"DIS_CODE":0,"TOWNNAME":"善化區","LI":"小新里","LIN":"1鄰","STREET":"成功路","SECT":" ","MAREA":" ","LANE":"５３巷","ALLEY":" ","HOUSE_NO":"９２號","E_COORD97":179937.67999999999,"N_COORD97":2558471.5,"ADDRESS":"成功路５３巷９２號","OBJECTID":341812},"geometry":{"x":179937.68000000063,"y":2558471.5000000019}},{"attributes":{"ID":341822,"DIS_CODE":0,"TOWNNAME":"善化區","LI":"小新里","LIN":"1鄰","STREET":"成功路","SECT":" ","MAREA":" ","LANE":"５３巷","ALLEY":" ","HOUSE_NO":"５９號","E_COORD97":179960.67000000001,"N_COORD97":2558547.25,"ADDRESS":"成功路５３巷５９號","OBJECTID":341813},"geometry":{"x":179960.66999999993,"y":2558547.2500000019}},{"attributes":{"ID":341823,"DIS_CODE":0,"TOWNNAME":"善化區","LI":"小新里","LIN":"1鄰","STREET":"成功路","SECT":" ","MAREA":" ","LANE":"５３巷","ALLEY":" ","HOUSE_NO":"４３號","E_COORD97":179993.5,"N_COORD97":2558483.75,"ADDRESS":"成功路５３巷４３號","OBJECTID":341814},"geometry":{"x":179993.50000000093,"y":2558483.7500000019}},{"attributes":{"ID":341824,"DIS_CODE":0,"TOWNNAME":"善化區","LI":"文正里","LIN":"1鄰","STREET":"進學路","SECT":" ","MAREA":" ","LANE":"７１巷","ALLEY":" ","HOUSE_NO":"１９號","E_COORD97":177106.48000000001,"N_COORD97":2559552,"ADDRESS":"進學路７１巷１９號","OBJECTID":341815},"geometry":{"x":177106.48000000045,"y":2559551.9999999981}},{"attributes":{"ID":341825,"DIS_CODE":0,"TOWNNAME":"善化區","LI":"文正里","LIN":"1鄰","STREET":"進學路","SECT":" ","MAREA":" ","LANE":"國小巷","ALLEY":" ","HOUSE_NO":"１１號","E_COORD97":177158.14000000001,"N_COORD97":2559373,"ADDRESS":"進學路國小巷１１號","OBJECTID":341816},"geometry":{"x":177158.1400000006,"y":2559373.0000000019}},{"attributes":{"ID":341826,"DIS_CODE":0,"TOWNNAME":"善化區","LI":"文正里","LIN":"1鄰","STREET":"進學路","SECT":" ","MAREA":" ","LANE":"國小巷","ALLEY":" ","HOUSE_NO":"２號","E_COORD97":177180.51999999999,"N_COORD97":2559399.25,"ADDRESS":"進學路國小巷２號","OBJECTID":341817},"geometry":{"x":177180.52000000048,"y":2559399.2500000019}},{"attributes":{"ID":341827,"DIS_CODE":0,"TOWNNAME":"善化區","LI":"小新里","LIN":"1鄰","STREET":"成功路","SECT":" ","MAREA":" ","LANE":"５３巷","ALLEY":" ","HOUSE_NO":"６３號","E_COORD97":179976.54999999999,"N_COORD97":2558504.75,"ADDRESS":"成功路５３巷６３號","OBJECTID":341818},"geometry":{"x":179976.54999999981,"y":2558504.75}},{"attributes":{"ID":341828,"DIS_CODE":0,"TOWNNAME":"善化區","LI":"小新里","LIN":"1鄰","STREET":"成功路","SECT":" ","MAREA":" ","LANE":"５３巷","ALLEY":" ","HOUSE_NO":"５３號","E_COORD97":179983.28,"N_COORD97":2558540.25,"ADDRESS":"成功路５３巷５３號","OBJECTID":341819},"geometry":{"x":179983.28000000119,"y":2558540.2500000037}},{"attributes":{"ID":341829,"DIS_CODE":0,"TOWNNAME":"善化區","LI":"小新里","LIN":"1鄰","STREET":"成功路","SECT":" ","MAREA":" ","LANE":"５３巷","ALLEY":" ","HOUSE_NO":"４８號","E_COORD97":179983.51000000001,"N_COORD97":2558450.25,"ADDRESS":"成功路５３巷４８號","OBJECTID":341820},"geometry":{"x":179983.51000000071,"y":2558450.2500000019}},{"attributes":{"ID":341830,"DIS_CODE":0,"TOWNNAME":"善化區","LI":"小新里","LIN":"1鄰","STREET":"成功路","SECT":" ","MAREA":" ","LANE":"５３巷","ALLEY":" ","HOUSE_NO":"７２號","E_COORD97":179940.95999999999,"N_COORD97":2558515.25,"ADDRESS":"成功路５３巷７２號","OBJECTID":341821},"geometry":{"x":179940.96000000183,"y":2558515.25}},{"attributes":{"ID":341831,"DIS_CODE":0,"TOWNNAME":"善化區","LI":"小新里","LIN":"1鄰","STREET":"成功路","SECT":" ","MAREA":" ","LANE":"５３巷","ALLEY":" ","HOUSE_NO":"６７號","E_COORD97":179962.42999999999,"N_COORD97":2558509,"ADDRESS":"成功路５３巷６７號","OBJECTID":341822},"geometry":{"x":179962.4299999997,"y":2558509.0000000019}},{"attributes":{"ID":341832,"DIS_CODE":0,"TOWNNAME":"善化區","LI":"小新里","LIN":"1鄰","STREET":"成功路","SECT":" ","MAREA":" ","LANE":"３巷","ALLEY":" ","HOUSE_NO":"５２號","E_COORD97":180074.66,"N_COORD97":2558372,"ADDRESS":"成功路３巷５２號","OBJECTID":341823},"geometry":{"x":180074.66000000015,"y":2558372}},{"attributes":{"ID":341833,"DIS_CODE":0,"TOWNNAME":"善化區","LI":"文正里","LIN":"1鄰","STREET":"進學路","SECT":" ","MAREA":" ","LANE":"９３巷","ALLEY":" ","HOUSE_NO":"３號","E_COORD97":177123.42999999999,"N_COORD97":2559619,"ADDRESS":"進學路９３巷３號","OBJECTID":341824},"geometry":{"x":177123.43000000156,"y":2559619}},{"attributes":{"ID":341834,"DIS_CODE":0,"TOWNNAME":"善化區","LI":"小新里","LIN":"1鄰","STREET":"成功路","SECT":" ","MAREA":" ","LANE":"３巷","ALLEY":" ","HOUSE_NO":"４０號","E_COORD97":180088.60000000001,"N_COORD97":2558393,"ADDRESS":"成功路３巷４０號","OBJECTID":341825},"geometry":{"x":180088.5999999987,"y":2558393.0000000019}},{"attributes":{"ID":341835,"DIS_CODE":0,"TOWNNAME":"善化區","LI":"文正里","LIN":"1鄰","STREET":"進學路","SECT":" ","MAREA":" ","LANE":"９３巷","ALLEY":" ","HOUSE_NO":"２１號","E_COORD97":177080.95999999999,"N_COORD97":2559613.25,"ADDRESS":"進學路９３巷２１號","OBJECTID":341826},"geometry":{"x":177080.95999999903,"y":2559613.25}},{"attributes":{"ID":341836,"DIS_CODE":0,"TOWNNAME":"善化區","LI":"文正里","LIN":"1鄰","STREET":"進學路","SECT":" ","MAREA":" ","LANE":"國小巷","ALLEY":" ","HOUSE_NO":"９號","E_COORD97":177162.06,"N_COORD97":2559372.5,"ADDRESS":"進學路國小巷９號","OBJECTID":341827},"geometry":{"x":177162.06000000052,"y":2559372.5000000037}},{"attributes":{"ID":341837,"DIS_CODE":0,"TOWNNAME":"善化區","LI":"文正里","LIN":"1鄰","STREET":"進學路","SECT":" ","MAREA":" ","LANE":"９９巷","ALLEY":" ","HOUSE_NO":"２３號","E_COORD97":177078.14000000001,"N_COORD97":2559620.5,"ADDRESS":"進學路９９巷２３號","OBJECTID":341828},"geometry":{"x":177078.1400000006,"y":2559620.5000000019}},{"attributes":{"ID":341838,"DIS_CODE":0,"TOWNNAME":"善化區","LI":"小新里","LIN":"1鄰","STREET":"成功路","SECT":" ","MAREA":" ","LANE":"３巷","ALLEY":" ","HOUSE_NO":"２４號","E_COORD97":180109.73999999999,"N_COORD97":2558446.25,"ADDRESS":"成功路３巷２４號","OBJECTID":341829},"geometry":{"x":180109.74000000022,"y":2558446.2500000019}},{"attributes":{"ID":341839,"DIS_CODE":0,"TOWNNAME":"善化區","LI":"文正里","LIN":"1鄰","STREET":"進學路","SECT":" ","MAREA":" ","LANE":"９９巷","ALLEY":" ","HOUSE_NO":"３號","E_COORD97":177124.98999999999,"N_COORD97":2559626.75,"ADDRESS":"進學路９９巷３號","OBJECTID":341830},"geometry":{"x":177124.99000000022,"y":2559626.7500000019}},{"attributes":{"ID":341840,"DIS_CODE":0,"TOWNNAME":"善化區","LI":"文正里","LIN":"1鄰","STREET":"進學路","SECT":" ","MAREA":" ","LANE":"９９巷","ALLEY":" ","HOUSE_NO":"１５號","E_COORD97":177097.01000000001,"N_COORD97":2559623,"ADDRESS":"進學路９９巷１５號","OBJECTID":341831},"geometry":{"x":177097.00999999978,"y":2559623}},{"attributes":{"ID":341841,"DIS_CODE":0,"TOWNNAME":"善化區","LI":"小新里","LIN":"1鄰","STREET":"成功路","SECT":" ","MAREA":" ","LANE":"３巷","ALLEY":" ","HOUSE_NO":"３０號","E_COORD97":180105.57000000001,"N_COORD97":2558432.25,"ADDRESS":"成功路３巷３０號","OBJECTID":341832},"geometry":{"x":180105.57000000123,"y":2558432.2500000019}},{"attributes":{"ID":341842,"DIS_CODE":0,"TOWNNAME":"善化區","LI":"文正里","LIN":"1鄰","STREET":"進學路","SECT":" ","MAREA":" ","LANE":"９９巷","ALLEY":" ","HOUSE_NO":"７號","E_COORD97":177114.89999999999,"N_COORD97":2559625.5,"ADDRESS":"進學路９９巷７號","OBJECTID":341833},"geometry":{"x":177114.9000000013,"y":2559625.5}},{"attributes":{"ID":341843,"DIS_CODE":0,"TOWNNAME":"善化區","LI":"文正里","LIN":"1鄰","STREET":"進學路","SECT":" ","MAREA":" ","LANE":"７９巷","ALLEY":" ","HOUSE_NO":"１８號","E_COORD97":177062.38,"N_COORD97":2559582.5,"ADDRESS":"進學路７９巷１８號","OBJECTID":341834},"geometry":{"x":177062.37999999989,"y":2559582.4999999981}},{"attributes":{"ID":341844,"DIS_CODE":0,"TOWNNAME":"善化區","LI":"文正里","LIN":"1鄰","STREET":"進學路","SECT":" ","MAREA":" ","LANE":"９９巷","ALLEY":" ","HOUSE_NO":"１９號","E_COORD97":177088.20999999999,"N_COORD97":2559621.75,"ADDRESS":"進學路９９巷１９號","OBJECTID":341835},"geometry":{"x":177088.21000000089,"y":2559621.7500000037}},{"attributes":{"ID":341845,"DIS_CODE":0,"TOWNNAME":"善化區","LI":"文正里","LIN":"1鄰","STREET":"進學路","SECT":" ","MAREA":" ","LANE":"國小巷","ALLEY":" ","HOUSE_NO":"５號","E_COORD97":177171.37,"N_COORD97":2559372.75,"ADDRESS":"進學路國小巷５號","OBJECTID":341836},"geometry":{"x":177171.37000000011,"y":2559372.75}},{"attributes":{"ID":341846,"DIS_CODE":0,"TOWNNAME":"麻豆區","LI":"港尾里","LIN":"5鄰","STREET":" ","SECT":" ","MAREA":"港子尾","LANE":" ","ALLEY":" ","HOUSE_NO":"９號之２二樓","E_COORD97":168837.67000000001,"N_COORD97":2567357.98,"ADDRESS":"港子尾９號之２二樓","OBJECTID":341837},"geometry":{"x":168837.67000000179,"y":2567357.9800000023}},{"attributes":{"ID":341847,"DIS_CODE":0,"TOWNNAME":"善化區","LI":"小新里","LIN":"1鄰","STREET":"成功路","SECT":" ","MAREA":" ","LANE":"３巷","ALLEY":" ","HOUSE_NO":"５４號","E_COORD97":180072.29999999999,"N_COORD97":2558368.4900000002,"ADDRESS":"成功路３巷５４號","OBJECTID":341838},"geometry":{"x":180072.30000000168,"y":2558368.4900000002}},{"attributes":{"ID":341848,"DIS_CODE":0,"TOWNNAME":"善化區","LI":"文正里","LIN":"1鄰","STREET":"進學路","SECT":" ","MAREA":" ","LANE":"９３巷","ALLEY":" ","HOUSE_NO":"５號","E_COORD97":177119.42999999999,"N_COORD97":2559618.5,"ADDRESS":"進學路９３巷５號","OBJECTID":341839},"geometry":{"x":177119.4299999997,"y":2559618.5}},{"attributes":{"ID":341849,"DIS_CODE":0,"TOWNNAME":"善化區","LI":"文正里","LIN":"1鄰","STREET":"進學路","SECT":" ","MAREA":" ","LANE":"國小巷","ALLEY":" ","HOUSE_NO":"８號","E_COORD97":177166.92999999999,"N_COORD97":2559398.25,"ADDRESS":"進學路國小巷８號","OBJECTID":341840},"geometry":{"x":177166.9299999997,"y":2559398.2500000019}},{"attributes":{"ID":341850,"DIS_CODE":0,"TOWNNAME":"善化區","LI":"文正里","LIN":"1鄰","STREET":"進學路","SECT":" ","MAREA":" ","LANE":"９９巷","ALLEY":" ","HOUSE_NO":"２２號","E_COORD97":177091.29000000001,"N_COORD97":2559644.25,"ADDRESS":"進學路９９巷２２號","OBJECTID":341841},"geometry":{"x":177091.29000000097,"y":2559644.25}},{"attributes":{"ID":341851,"DIS_CODE":0,"TOWNNAME":"善化區","LI":"文正里","LIN":"1鄰","STREET":"進學路","SECT":" ","MAREA":" ","LANE":"９３巷","ALLEY":" ","HOUSE_NO":"２９號","E_COORD97":177060.20999999999,"N_COORD97":2559599.5,"ADDRESS":"進學路９３巷２９號","OBJECTID":341842},"geometry":{"x":177060.20999999996,"y":2559599.4999999981}},{"attributes":{"ID":341852,"DIS_CODE":0,"TOWNNAME":"善化區","LI":"文正里","LIN":"1鄰","STREET":"進學路","SECT":" ","MAREA":" ","LANE":"９３巷","ALLEY":" ","HOUSE_NO":"１５號","E_COORD97":177095.64999999999,"N_COORD97":2559615.5,"ADDRESS":"進學路９３巷１５號","OBJECTID":341843},"geometry":{"x":177095.6500000013,"y":2559615.5}},{"attributes":{"ID":341853,"DIS_CODE":0,"TOWNNAME":"安南區","LI":"總頭里","LIN":"5鄰","STREET":"長溪路","SECT":"二段","MAREA":" ","LANE":"５７０巷","ALLEY":" ","HOUSE_NO":"５０號","E_COORD97":168390.10999999999,"N_COORD97":2550574.4500000002,"ADDRESS":"長溪路二段５７０巷５０號","OBJECTID":341844},"geometry":{"x":168390.11000000034,"y":2550574.4500000011}},{"attributes":{"ID":341854,"DIS_CODE":0,"TOWNNAME":"安南區","LI":"總頭里","LIN":"5鄰","STREET":"長溪路","SECT":"二段","MAREA":" ","LANE":"５７０巷","ALLEY":" ","HOUSE_NO":"５４號","E_COORD97":168401.89000000001,"N_COORD97":2550572.54,"ADDRESS":"長溪路二段５７０巷５４號","OBJECTID":341845},"geometry":{"x":168401.89000000153,"y":2550572.5399999991}},{"attributes":{"ID":341855,"DIS_CODE":0,"TOWNNAME":"安南區","LI":"總頭里","LIN":"5鄰","STREET":"長溪路","SECT":"二段","MAREA":" ","LANE":"５７０巷","ALLEY":" ","HOUSE_NO":"５８號","E_COORD97":168410.17000000001,"N_COORD97":2550569.6800000002,"ADDRESS":"長溪路二段５７０巷５８號","OBJECTID":341846},"geometry":{"x":168410.16999999993,"y":2550569.6800000034}},{"attributes":{"ID":341856,"DIS_CODE":0,"TOWNNAME":"安南區","LI":"總頭里","LIN":"5鄰","STREET":"長溪路","SECT":"二段","MAREA":" ","LANE":"５７０巷","ALLEY":" ","HOUSE_NO":"６０號","E_COORD97":168413.98999999999,"N_COORD97":2550570.6400000001,"ADDRESS":"長溪路二段５７０巷６０號","OBJECTID":341847},"geometry":{"x":168413.99000000115,"y":2550570.6400000043}},{"attributes":{"ID":341857,"DIS_CODE":0,"TOWNNAME":"安南區","LI":"總頭里","LIN":"5鄰","STREET":"長溪路","SECT":"二段","MAREA":" ","LANE":"５７０巷","ALLEY":" ","HOUSE_NO":"６２號","E_COORD97":168418.13,"N_COORD97":2550568.4100000001,"ADDRESS":"長溪路二段５７０巷６２號","OBJECTID":341848},"geometry":{"x":168418.13000000082,"y":2550568.4100000039}},{"attributes":{"ID":341858,"DIS_CODE":0,"TOWNNAME":"善化區","LI":"文正里","LIN":"1鄰","STREET":"進學路","SECT":" ","MAREA":" ","LANE":"國小巷","ALLEY":" ","HOUSE_NO":"１７號","E_COORD97":177156.63,"N_COORD97":2559362.5,"ADDRESS":"進學路國小巷１７號","OBJECTID":341849},"geometry":{"x":177156.63000000082,"y":2559362.5000000037}},{"attributes":{"ID":341859,"DIS_CODE":0,"TOWNNAME":"安南區","LI":"總頭里","LIN":"5鄰","STREET":"長溪路","SECT":"二段","MAREA":" ","LANE":"５７０巷","ALLEY":" ","HOUSE_NO":"６８號","E_COORD97":168405.70999999999,"N_COORD97":2550549.3300000001,"ADDRESS":"長溪路二段５７０巷６８號","OBJECTID":341850},"geometry":{"x":168405.71000000089,"y":2550549.3300000019}},{"attributes":{"ID":341860,"DIS_CODE":0,"TOWNNAME":"安南區","LI":"總頭里","LIN":"5鄰","STREET":"長溪路","SECT":"二段","MAREA":" ","LANE":"５７０巷","ALLEY":" ","HOUSE_NO":"７０號","E_COORD97":168424.82000000001,"N_COORD97":2550572.8599999999,"ADDRESS":"長溪路二段５７０巷７０號","OBJECTID":341851},"geometry":{"x":168424.8200000003,"y":2550572.8600000013}},{"attributes":{"ID":341861,"DIS_CODE":0,"TOWNNAME":"安南區","LI":"安慶里","LIN":"5鄰","STREET":"長溪路","SECT":"一段","MAREA":" ","LANE":"１６８巷","ALLEY":" ","HOUSE_NO":"１８２號","E_COORD97":169094.60999999999,"N_COORD97":2548965.23,"ADDRESS":"長溪路一段１６８巷１８２號","OBJECTID":341852},"geometry":{"x":169094.61000000127,"y":2548965.2300000004}},{"attributes":{"ID":341862,"DIS_CODE":0,"TOWNNAME":"安南區","LI":"總頭里","LIN":"5鄰","STREET":"長溪路","SECT":"二段","MAREA":" ","LANE":"５７０巷","ALLEY":" ","HOUSE_NO":"５６號","E_COORD97":168406.35000000001,"N_COORD97":2550571.5899999999,"ADDRESS":"長溪路二段５７０巷５６號","OBJECTID":341853},"geometry":{"x":168406.34999999963,"y":2550571.5900000017}},{"attributes":{"ID":341863,"DIS_CODE":0,"TOWNNAME":"安南區","LI":"總頭里","LIN":"5鄰","STREET":"長溪路","SECT":"二段","MAREA":" ","LANE":"５７０巷","ALLEY":" ","HOUSE_NO":"２８號","E_COORD97":168328.5,"N_COORD97":2550586.4100000001,"ADDRESS":"長溪路二段５７０巷２８號","OBJECTID":341854},"geometry":{"x":168328.49999999907,"y":2550586.410000002}},{"attributes":{"ID":341864,"DIS_CODE":0,"TOWNNAME":"安南區","LI":"淵中里","LIN":"5鄰","STREET":"安中路","SECT":"四段","MAREA":" ","LANE":"４巷","ALLEY":" ","HOUSE_NO":"４１號之１","E_COORD97":165192.85999999999,"N_COORD97":2550163.1699999999,"ADDRESS":"安中路四段４巷４１號之１","OBJECTID":341855},"geometry":{"x":165192.86000000127,"y":2550163.1700000037}},{"attributes":{"ID":341865,"DIS_CODE":0,"TOWNNAME":"善化區","LI":"文正里","LIN":"1鄰","STREET":"進學路","SECT":" ","MAREA":" ","LANE":"９３巷","ALLEY":" ","HOUSE_NO":"２７號","E_COORD97":177058.41,"N_COORD97":2559606,"ADDRESS":"進學路９３巷２７號","OBJECTID":341856},"geometry":{"x":177058.41000000108,"y":2559606}},{"attributes":{"ID":341866,"DIS_CODE":0,"TOWNNAME":"善化區","LI":"文正里","LIN":"1鄰","STREET":"進學路","SECT":" ","MAREA":" ","LANE":"９９巷","ALLEY":" ","HOUSE_NO":"３２號","E_COORD97":177071.60000000001,"N_COORD97":2559642.25,"ADDRESS":"進學路９９巷３２號","OBJECTID":341857},"geometry":{"x":177071.60000000056,"y":2559642.2500000037}},{"attributes":{"ID":341867,"DIS_CODE":0,"TOWNNAME":"善化區","LI":"文正里","LIN":"1鄰","STREET":"進學路","SECT":" ","MAREA":" ","LANE":"９３巷","ALLEY":" ","HOUSE_NO":"２３號","E_COORD97":177076.13,"N_COORD97":2559612.25,"ADDRESS":"進學路９３巷２３號","OBJECTID":341858},"geometry":{"x":177076.12999999989,"y":2559612.2500000019}},{"attributes":{"ID":341868,"DIS_CODE":0,"TOWNNAME":"善化區","LI":"小新里","LIN":"1鄰","STREET":"成功路","SECT":" ","MAREA":" ","LANE":"３巷","ALLEY":" ","HOUSE_NO":"２６號","E_COORD97":180108.48999999999,"N_COORD97":2558441.25,"ADDRESS":"成功路３巷２６號","OBJECTID":341859},"geometry":{"x":180108.49000000022,"y":2558441.25}},{"attributes":{"ID":341869,"DIS_CODE":0,"TOWNNAME":"新營區","LI":"大宏里","LIN":"8鄰","STREET":"文昌街","SECT":" ","MAREA":" ","LANE":" ","ALLEY":" ","HOUSE_NO":"１６號二樓之２","E_COORD97":180442.67000000001,"N_COORD97":2578413.4500000002,"ADDRESS":"文昌街１６號二樓之２","OBJECTID":341860},"geometry":{"x":180442.66999999993,"y":2578413.4500000011}},{"attributes":{"ID":341870,"DIS_CODE":0,"TOWNNAME":"新營區","LI":"大宏里","LIN":"8鄰","STREET":"文昌街","SECT":" ","MAREA":" ","LANE":" ","ALLEY":" ","HOUSE_NO":"１６號四樓之６","E_COORD97":180442.64000000001,"N_COORD97":2578413.4500000002,"ADDRESS":"文昌街１６號四樓之６","OBJECTID":341861},"geometry":{"x":180442.63999999966,"y":2578413.4500000011}},{"attributes":{"ID":341871,"DIS_CODE":0,"TOWNNAME":"新營區","LI":"大宏里","LIN":"8鄰","STREET":"文昌街","SECT":" ","MAREA":" ","LANE":" ","ALLEY":" ","HOUSE_NO":"１６號四樓之７","E_COORD97":180442.60999999999,"N_COORD97":2578413.4500000002,"ADDRESS":"文昌街１６號四樓之７","OBJECTID":341862},"geometry":{"x":180442.61000000127,"y":2578413.4500000011}},{"attributes":{"ID":341872,"DIS_CODE":0,"TOWNNAME":"新營區","LI":"大宏里","LIN":"8鄰","STREET":"文昌街","SECT":" ","MAREA":" ","LANE":" ","ALLEY":" ","HOUSE_NO":"１６號四樓之８","E_COORD97":180442.67999999999,"N_COORD97":2578413.4500000002,"ADDRESS":"文昌街１６號四樓之８","OBJECTID":341863},"geometry":{"x":180442.68000000156,"y":2578413.4500000011}},{"attributes":{"ID":341873,"DIS_CODE":0,"TOWNNAME":"安平區","LI":"建平里","LIN":"8鄰","STREET":"府前三街","SECT":" ","MAREA":" ","LANE":" ","ALLEY":" ","HOUSE_NO":"１２９號七樓之１０","E_COORD97":166494.16,"N_COORD97":2543982.3300000001,"ADDRESS":"府前三街１２９號七樓之１０","OBJECTID":341864},"geometry":{"x":166494.16000000108,"y":2543982.3300000019}},{"attributes":{"ID":341874,"DIS_CODE":0,"TOWNNAME":"安平區","LI":"建平里","LIN":"8鄰","STREET":"府前三街","SECT":" ","MAREA":" ","LANE":" ","ALLEY":" ","HOUSE_NO":"１２９號七樓之１１","E_COORD97":166494.16,"N_COORD97":2543982.3300000001,"ADDRESS":"府前三街１２９號七樓之１１","OBJECTID":341865},"geometry":{"x":166494.16000000108,"y":2543982.3300000019}},{"attributes":{"ID":341875,"DIS_CODE":0,"TOWNNAME":"安平區","LI":"建平里","LIN":"8鄰","STREET":"府前三街","SECT":" ","MAREA":" ","LANE":" ","ALLEY":" ","HOUSE_NO":"１２９號七樓之１２","E_COORD97":166494.16,"N_COORD97":2543982.3300000001,"ADDRESS":"府前三街１２９號七樓之１２","OBJECTID":341866},"geometry":{"x":166494.16000000108,"y":2543982.3300000019}},{"attributes":{"ID":341876,"DIS_CODE":0,"TOWNNAME":"安平區","LI":"建平里","LIN":"8鄰","STREET":"府前三街","SECT":" ","MAREA":" ","LANE":" ","ALLEY":" ","HOUSE_NO":"１２９號七樓之１３","E_COORD97":166494.16,"N_COORD97":2543982.3300000001,"ADDRESS":"府前三街１２９號七樓之１３","OBJECTID":341867},"geometry":{"x":166494.16000000108,"y":2543982.3300000019}},{"attributes":{"ID":341877,"DIS_CODE":0,"TOWNNAME":"安平區","LI":"建平里","LIN":"8鄰","STREET":"府前三街","SECT":" ","MAREA":" ","LANE":" ","ALLEY":" ","HOUSE_NO":"１２９號七樓之１４","E_COORD97":166494.16,"N_COORD97":2543982.3300000001,"ADDRESS":"府前三街１２９號七樓之１４","OBJECTID":341868},"geometry":{"x":166494.16000000108,"y":2543982.3300000019}},{"attributes":{"ID":341878,"DIS_CODE":0,"TOWNNAME":"善化區","LI":"北關里","LIN":"8鄰","STREET":"裕民街","SECT":" ","MAREA":" ","LANE":" ","ALLEY":" ","HOUSE_NO":"１２７號","E_COORD97":177332.34,"N_COORD97":2559328.96,"ADDRESS":"裕民街１２７號","OBJECTID":341869},"geometry":{"x":177332.33999999985,"y":2559328.9600000009}},{"attributes":{"ID":341879,"DIS_CODE":0,"TOWNNAME":"安平區","LI":"建平里","LIN":"8鄰","STREET":"府前三街","SECT":" ","MAREA":" ","LANE":" ","ALLEY":" ","HOUSE_NO":"１２９號七樓之２","E_COORD97":166494.16,"N_COORD97":2543982.3300000001,"ADDRESS":"府前三街１２９號七樓之２","OBJECTID":341870},"geometry":{"x":166494.16000000108,"y":2543982.3300000019}},{"attributes":{"ID":341880,"DIS_CODE":0,"TOWNNAME":"安南區","LI":"城北里","LIN":"5鄰","STREET":"安中路","SECT":"六段","MAREA":" ","LANE":"５５４巷","ALLEY":" ","HOUSE_NO":"７５號","E_COORD97":161074.35000000001,"N_COORD97":2551473.9399999999,"ADDRESS":"安中路六段５５４巷７５號","OBJECTID":341871},"geometry":{"x":161074.35000000056,"y":2551473.9400000013}},{"attributes":{"ID":341881,"DIS_CODE":0,"TOWNNAME":"安南區","LI":"城北里","LIN":"5鄰","STREET":"安中路","SECT":"六段","MAREA":" ","LANE":"５５４巷","ALLEY":" ","HOUSE_NO":"７７號","E_COORD97":161075.54999999999,"N_COORD97":2551478.75,"ADDRESS":"安中路六段５５４巷７７號","OBJECTID":341872},"geometry":{"x":161075.54999999981,"y":2551478.7500000019}},{"attributes":{"ID":341882,"DIS_CODE":0,"TOWNNAME":"安南區","LI":"城北里","LIN":"5鄰","STREET":"安中路","SECT":"六段","MAREA":" ","LANE":"５５４巷","ALLEY":" ","HOUSE_NO":"７９號","E_COORD97":161076.16,"N_COORD97":2551484.3199999998,"ADDRESS":"安中路六段５５４巷７９號","OBJECTID":341873},"geometry":{"x":161076.16000000108,"y":2551484.3200000003}},{"attributes":{"ID":341883,"DIS_CODE":0,"TOWNNAME":"安南區","LI":"城北里","LIN":"5鄰","STREET":"安中路","SECT":"六段","MAREA":" ","LANE":"５５４巷","ALLEY":" ","HOUSE_NO":"８１號","E_COORD97":161080.34,"N_COORD97":2551488.7400000002,"ADDRESS":"安中路六段５５４巷８１號","OBJECTID":341874},"geometry":{"x":161080.33999999985,"y":2551488.7400000039}},{"attributes":{"ID":341884,"DIS_CODE":0,"TOWNNAME":"善化區","LI":"文正里","LIN":"1鄰","STREET":"進學路","SECT":" ","MAREA":" ","LANE":"７９巷","ALLEY":" ","HOUSE_NO":"１７號","E_COORD97":177069.04999999999,"N_COORD97":2559583,"ADDRESS":"進學路７９巷１７號","OBJECTID":341875},"geometry":{"x":177069.05000000075,"y":2559583.0000000019}},{"attributes":{"ID":341885,"DIS_CODE":0,"TOWNNAME":"善化區","LI":"文正里","LIN":"1鄰","STREET":"進學路","SECT":" ","MAREA":" ","LANE":"９３巷","ALLEY":" ","HOUSE_NO":"１９號","E_COORD97":177086.28,"N_COORD97":2559613.75,"ADDRESS":"進學路９３巷１９號","OBJECTID":341876},"geometry":{"x":177086.28000000119,"y":2559613.75}},{"attributes":{"ID":341886,"DIS_CODE":0,"TOWNNAME":"善化區","LI":"文正里","LIN":"1鄰","STREET":"進學路","SECT":" ","MAREA":" ","LANE":"７１巷","ALLEY":" ","HOUSE_NO":"２７號","E_COORD97":177087.01999999999,"N_COORD97":2559549.75,"ADDRESS":"進學路７１巷２７號","OBJECTID":341877},"geometry":{"x":177087.02000000142,"y":2559549.75}},{"attributes":{"ID":341887,"DIS_CODE":0,"TOWNNAME":"善化區","LI":"文正里","LIN":"1鄰","STREET":"進學路","SECT":" ","MAREA":" ","LANE":"國小巷","ALLEY":" ","HOUSE_NO":"３號","E_COORD97":177175.95999999999,"N_COORD97":2559372.75,"ADDRESS":"進學路國小巷３號","OBJECTID":341878},"geometry":{"x":177175.96000000183,"y":2559372.75}},{"attributes":{"ID":341888,"DIS_CODE":0,"TOWNNAME":"善化區","LI":"文正里","LIN":"1鄰","STREET":"進學路","SECT":" ","MAREA":" ","LANE":"９９巷","ALLEY":" ","HOUSE_NO":"８號","E_COORD97":177118.12,"N_COORD97":2559647.75,"ADDRESS":"進學路９９巷８號","OBJECTID":341879},"geometry":{"x":177118.12000000104,"y":2559647.75}},{"attributes":{"ID":341889,"DIS_CODE":0,"TOWNNAME":"善化區","LI":"文正里","LIN":"1鄰","STREET":"進學路","SECT":" ","MAREA":" ","LANE":"７９巷","ALLEY":" ","HOUSE_NO":"１５號","E_COORD97":177077.32000000001,"N_COORD97":2559584,"ADDRESS":"進學路７９巷１５號","OBJECTID":341880},"geometry":{"x":177077.32000000216,"y":2559584.0000000019}},{"attributes":{"ID":341890,"DIS_CODE":0,"TOWNNAME":"善化區","LI":"文正里","LIN":"1鄰","STREET":"進學路","SECT":" ","MAREA":" ","LANE":"９９巷","ALLEY":" ","HOUSE_NO":"１號","E_COORD97":177138.29999999999,"N_COORD97":2559629,"ADDRESS":"進學路９９巷１號","OBJECTID":341881},"geometry":{"x":177138.30000000075,"y":2559629}},{"attributes":{"ID":341891,"DIS_CODE":0,"TOWNNAME":"善化區","LI":"文正里","LIN":"1鄰","STREET":"進學路","SECT":" ","MAREA":" ","LANE":"９９巷","ALLEY":" ","HOUSE_NO":"５號","E_COORD97":177119.62,"N_COORD97":2559626.25,"ADDRESS":"進學路９９巷５號","OBJECTID":341882},"geometry":{"x":177119.62000000104,"y":2559626.2500000019}},{"attributes":{"ID":341892,"DIS_CODE":0,"TOWNNAME":"善化區","LI":"文正里","LIN":"1鄰","STREET":"進學路","SECT":" ","MAREA":" ","LANE":"９９巷","ALLEY":" ","HOUSE_NO":"２５號","E_COORD97":177072.48000000001,"N_COORD97":2559619.75,"ADDRESS":"進學路９９巷２５號","OBJECTID":341883},"geometry":{"x":177072.48000000045,"y":2559619.7500000019}},{"attributes":{"ID":341893,"DIS_CODE":0,"TOWNNAME":"善化區","LI":"文正里","LIN":"1鄰","STREET":"進學路","SECT":" ","MAREA":" ","LANE":"９９巷","ALLEY":" ","HOUSE_NO":"１０號","E_COORD97":177113.29000000001,"N_COORD97":2559646.75,"ADDRESS":"進學路９９巷１０號","OBJECTID":341884},"geometry":{"x":177113.29000000097,"y":2559646.7500000019}},{"attributes":{"ID":341894,"DIS_CODE":0,"TOWNNAME":"善化區","LI":"文正里","LIN":"1鄰","STREET":"進學路","SECT":" ","MAREA":" ","LANE":"９３巷","ALLEY":" ","HOUSE_NO":"９號","E_COORD97":177109.23000000001,"N_COORD97":2559617.25,"ADDRESS":"進學路９３巷９號","OBJECTID":341885},"geometry":{"x":177109.23000000138,"y":2559617.25}},{"attributes":{"ID":341895,"DIS_CODE":0,"TOWNNAME":"安平區","LI":"建平里","LIN":"8鄰","STREET":"府前三街","SECT":" ","MAREA":" ","LANE":" ","ALLEY":" ","HOUSE_NO":"１２９號七樓之３","E_COORD97":166494.16,"N_COORD97":2543982.3300000001,"ADDRESS":"府前三街１２９號七樓之３","OBJECTID":341886},"geometry":{"x":166494.16000000108,"y":2543982.3300000019}},{"attributes":{"ID":341896,"DIS_CODE":0,"TOWNNAME":"安平區","LI":"建平里","LIN":"8鄰","STREET":"府前三街","SECT":" ","MAREA":" ","LANE":" ","ALLEY":" ","HOUSE_NO":"１２９號七樓之４","E_COORD97":166494.16,"N_COORD97":2543982.3300000001,"ADDRESS":"府前三街１２９號七樓之４","OBJECTID":341887},"geometry":{"x":166494.16000000108,"y":2543982.3300000019}},{"attributes":{"ID":341897,"DIS_CODE":0,"TOWNNAME":"安平區","LI":"建平里","LIN":"8鄰","STREET":"府前三街","SECT":" ","MAREA":" ","LANE":" ","ALLEY":" ","HOUSE_NO":"１２９號七樓之５","E_COORD97":166494.16,"N_COORD97":2543982.3300000001,"ADDRESS":"府前三街１２９號七樓之５","OBJECTID":341888},"geometry":{"x":166494.16000000108,"y":2543982.3300000019}},{"attributes":{"ID":341898,"DIS_CODE":0,"TOWNNAME":"安平區","LI":"建平里","LIN":"8鄰","STREET":"府前三街","SECT":" ","MAREA":" ","LANE":" ","ALLEY":" ","HOUSE_NO":"１２９號七樓之６","E_COORD97":166494.16,"N_COORD97":2543982.3300000001,"ADDRESS":"府前三街１２９號七樓之６","OBJECTID":341889},"geometry":{"x":166494.16000000108,"y":2543982.3300000019}},{"attributes":{"ID":341899,"DIS_CODE":0,"TOWNNAME":"安南區","LI":"原佃里","LIN":"5鄰","STREET":"本原街","SECT":"一段","MAREA":" ","LANE":"２８７巷","ALLEY":" ","HOUSE_NO":"１３號","E_COORD97":167697.23000000001,"N_COORD97":2550398.73,"ADDRESS":"本原街一段２８７巷１３號","OBJECTID":341890},"geometry":{"x":167697.23000000138,"y":2550398.7300000023}},{"attributes":{"ID":341900,"DIS_CODE":0,"TOWNNAME":"安南區","LI":"原佃里","LIN":"5鄰","STREET":"本原街","SECT":"一段","MAREA":" ","LANE":"２８７巷","ALLEY":" ","HOUSE_NO":"１５號","E_COORD97":167697.62,"N_COORD97":2550393.9500000002,"ADDRESS":"本原街一段２８７巷１５號","OBJECTID":341891},"geometry":{"x":167697.62000000104,"y":2550393.9499999993}},{"attributes":{"ID":341901,"DIS_CODE":0,"TOWNNAME":"安南區","LI":"原佃里","LIN":"5鄰","STREET":"本原街","SECT":"一段","MAREA":" ","LANE":"２８７巷","ALLEY":" ","HOUSE_NO":"１７號","E_COORD97":167699.56,"N_COORD97":2550390.0299999998,"ADDRESS":"本原街一段２８７巷１７號","OBJECTID":341892},"geometry":{"x":167699.56000000052,"y":2550390.0299999993}},{"attributes":{"ID":341902,"DIS_CODE":0,"TOWNNAME":"安南區","LI":"原佃里","LIN":"5鄰","STREET":"本原街","SECT":"一段","MAREA":" ","LANE":"２８７巷","ALLEY":" ","HOUSE_NO":"１９號","E_COORD97":167700.41,"N_COORD97":2550385.6499999999,"ADDRESS":"本原街一段２８７巷１９號","OBJECTID":341893},"geometry":{"x":167700.41000000201,"y":2550385.6500000022}},{"attributes":{"ID":341903,"DIS_CODE":0,"TOWNNAME":"安南區","LI":"原佃里","LIN":"5鄰","STREET":"本原街","SECT":"一段","MAREA":" ","LANE":"２８７巷","ALLEY":" ","HOUSE_NO":"１號","E_COORD97":167691.25,"N_COORD97":2550424.1499999999,"ADDRESS":"本原街一段２８７巷１號","OBJECTID":341894},"geometry":{"x":167691.25000000186,"y":2550424.1500000004}},{"attributes":{"ID":341904,"DIS_CODE":0,"TOWNNAME":"安南區","LI":"原佃里","LIN":"5鄰","STREET":"本原街","SECT":"一段","MAREA":" ","LANE":"２８７巷","ALLEY":" ","HOUSE_NO":"３號","E_COORD97":167692.62,"N_COORD97":2550419.96,"ADDRESS":"本原街一段２８７巷３號","OBJECTID":341895},"geometry":{"x":167692.62000000104,"y":2550419.9600000046}},{"attributes":{"ID":341905,"DIS_CODE":0,"TOWNNAME":"安南區","LI":"原佃里","LIN":"5鄰","STREET":"本原街","SECT":"一段","MAREA":" ","LANE":"２８７巷","ALLEY":" ","HOUSE_NO":"５號","E_COORD97":167693.42000000001,"N_COORD97":2550415.7200000002,"ADDRESS":"本原街一段２８７巷５號","OBJECTID":341896},"geometry":{"x":167693.42000000179,"y":2550415.7200000025}},{"attributes":{"ID":341906,"DIS_CODE":0,"TOWNNAME":"安南區","LI":"原佃里","LIN":"5鄰","STREET":"本原街","SECT":"一段","MAREA":" ","LANE":"２８７巷","ALLEY":" ","HOUSE_NO":"７號","E_COORD97":167694.59,"N_COORD97":2550411.6200000001,"ADDRESS":"本原街一段２８７巷７號","OBJECTID":341897},"geometry":{"x":167694.59000000078,"y":2550411.620000001}},{"attributes":{"ID":341907,"DIS_CODE":0,"TOWNNAME":"安南區","LI":"原佃里","LIN":"5鄰","STREET":"本原街","SECT":"一段","MAREA":" ","LANE":"２８７巷","ALLEY":" ","HOUSE_NO":"９號","E_COORD97":167695.37,"N_COORD97":2550407.0299999998,"ADDRESS":"本原街一段２８７巷９號","OBJECTID":341898},"geometry":{"x":167695.37000000011,"y":2550407.0299999993}},{"attributes":{"ID":341908,"DIS_CODE":0,"TOWNNAME":"安南區","LI":"公\u25A0里","LIN":"5鄰","STREET":"安興街","SECT":" ","MAREA":" ","LANE":"１２０巷","ALLEY":" ","HOUSE_NO":"１２號","E_COORD97":164129.35999999999,"N_COORD97":2552167.54,"ADDRESS":"安興街１２０巷１２號","OBJECTID":341899},"geometry":{"x":164129.36000000127,"y":2552167.540000001}},{"attributes":{"ID":341909,"DIS_CODE":0,"TOWNNAME":"安南區","LI":"安慶里","LIN":"5鄰","STREET":"怡安路","SECT":"一段","MAREA":" ","LANE":"２４９巷","ALLEY":" ","HOUSE_NO":"１２號","E_COORD97":169009.51000000001,"N_COORD97":2549044.7400000002,"ADDRESS":"怡安路一段２４９巷１２號","OBJECTID":341900},"geometry":{"x":169009.50999999978,"y":2549044.7400000021}},{"attributes":{"ID":341910,"DIS_CODE":0,"TOWNNAME":"安南區","LI":"城北里","LIN":"5鄰","STREET":"安中路","SECT":"六段","MAREA":" ","LANE":"５５４巷","ALLEY":" ","HOUSE_NO":"１７號之１","E_COORD97":160914.92000000001,"N_COORD97":2551432.8799999999,"ADDRESS":"安中路六段５５４巷１７號之１","OBJECTID":341901},"geometry":{"x":160914.92000000086,"y":2551432.8800000008}},{"attributes":{"ID":341911,"DIS_CODE":0,"TOWNNAME":"安南區","LI":"海東里","LIN":"5鄰","STREET":"海中街","SECT":" ","MAREA":" ","LANE":"１３０巷","ALLEY":" ","HOUSE_NO":"７４號","E_COORD97":166553.06,"N_COORD97":2549180.9399999999,"ADDRESS":"海中街１３０巷７４號","OBJECTID":341902},"geometry":{"x":166553.06000000052,"y":2549180.9400000032}},{"attributes":{"ID":341912,"DIS_CODE":0,"TOWNNAME":"善化區","LI":"文正里","LIN":"1鄰","STREET":"進學路","SECT":" ","MAREA":" ","LANE":"９９巷","ALLEY":" ","HOUSE_NO":"２８號","E_COORD97":177081.25,"N_COORD97":2559642.75,"ADDRESS":"進學路９９巷２８號","OBJECTID":341903},"geometry":{"x":177081.25000000093,"y":2559642.7500000019}},{"attributes":{"ID":341913,"DIS_CODE":0,"TOWNNAME":"善化區","LI":"文正里","LIN":"1鄰","STREET":"進學路","SECT":" ","MAREA":" ","LANE":"７９巷","ALLEY":" ","HOUSE_NO":"１２號","E_COORD97":177090.16,"N_COORD97":2559585,"ADDRESS":"進學路７９巷１２號","OBJECTID":341904},"geometry":{"x":177090.16000000201,"y":2559585}},{"attributes":{"ID":341914,"DIS_CODE":0,"TOWNNAME":"善化區","LI":"文正里","LIN":"1鄰","STREET":"進學路","SECT":" ","MAREA":" ","LANE":"９９巷","ALLEY":" ","HOUSE_NO":"１２號","E_COORD97":177108.26999999999,"N_COORD97":2559646.5,"ADDRESS":"進學路９９巷１２號","OBJECTID":341905},"geometry":{"x":177108.26999999955,"y":2559646.5}},{"attributes":{"ID":341915,"DIS_CODE":0,"TOWNNAME":"安平區","LI":"建平里","LIN":"8鄰","STREET":"府前三街","SECT":" ","MAREA":" ","LANE":" ","ALLEY":" ","HOUSE_NO":"１２９號七樓之７","E_COORD97":166494.16,"N_COORD97":2543982.3300000001,"ADDRESS":"府前三街１２９號七樓之７","OBJECTID":341906},"geometry":{"x":166494.16000000108,"y":2543982.3300000019}},{"attributes":{"ID":341916,"DIS_CODE":0,"TOWNNAME":"安平區","LI":"建平里","LIN":"8鄰","STREET":"府前三街","SECT":" ","MAREA":" ","LANE":" ","ALLEY":" ","HOUSE_NO":"１２９號七樓之８","E_COORD97":166494.16,"N_COORD97":2543982.3300000001,"ADDRESS":"府前三街１２９號七樓之８","OBJECTID":341907},"geometry":{"x":166494.16000000108,"y":2543982.3300000019}},{"attributes":{"ID":341917,"DIS_CODE":0,"TOWNNAME":"安平區","LI":"建平里","LIN":"8鄰","STREET":"府前三街","SECT":" ","MAREA":" ","LANE":" ","ALLEY":" ","HOUSE_NO":"１２９號七樓之９","E_COORD97":166494.16,"N_COORD97":2543982.3300000001,"ADDRESS":"府前三街１２９號七樓之９","OBJECTID":341908},"geometry":{"x":166494.16000000108,"y":2543982.3300000019}},{"attributes":{"ID":341918,"DIS_CODE":0,"TOWNNAME":"安平區","LI":"建平里","LIN":"8鄰","STREET":"府前三街","SECT":" ","MAREA":" ","LANE":" ","ALLEY":" ","HOUSE_NO":"１２９號三樓之１","E_COORD97":166494.16,"N_COORD97":2543982.3300000001,"ADDRESS":"府前三街１２９號三樓之１","OBJECTID":341909},"geometry":{"x":166494.16000000108,"y":2543982.3300000019}},{"attributes":{"ID":341919,"DIS_CODE":0,"TOWNNAME":"安平區","LI":"建平里","LIN":"8鄰","STREET":"府前三街","SECT":" ","MAREA":" ","LANE":" ","ALLEY":" ","HOUSE_NO":"１２９號三樓之１０","E_COORD97":166494.16,"N_COORD97":2543982.3300000001,"ADDRESS":"府前三街１２９號三樓之１０","OBJECTID":341910},"geometry":{"x":166494.16000000108,"y":2543982.3300000019}},{"attributes":{"ID":341920,"DIS_CODE":0,"TOWNNAME":"安平區","LI":"建平里","LIN":"8鄰","STREET":"府前三街","SECT":" ","MAREA":" ","LANE":" ","ALLEY":" ","HOUSE_NO":"１２９號三樓之１１","E_COORD97":166494.16,"N_COORD97":2543982.3300000001,"ADDRESS":"府前三街１２９號三樓之１１","OBJECTID":341911},"geometry":{"x":166494.16000000108,"y":2543982.3300000019}},{"attributes":{"ID":341921,"DIS_CODE":0,"TOWNNAME":"安平區","LI":"建平里","LIN":"8鄰","STREET":"府前三街","SECT":" ","MAREA":" ","LANE":" ","ALLEY":" ","HOUSE_NO":"１２９號三樓之１２","E_COORD97":166494.16,"N_COORD97":2543982.3300000001,"ADDRESS":"府前三街１２９號三樓之１２","OBJECTID":341912},"geometry":{"x":166494.16000000108,"y":2543982.3300000019}},{"attributes":{"ID":341922,"DIS_CODE":0,"TOWNNAME":"安平區","LI":"建平里","LIN":"8鄰","STREET":"府前三街","SECT":" ","MAREA":" ","LANE":" ","ALLEY":" ","HOUSE_NO":"１２９號三樓之１３","E_COORD97":166494.16,"N_COORD97":2543982.3300000001,"ADDRESS":"府前三街１２９號三樓之１３","OBJECTID":341913},"geometry":{"x":166494.16000000108,"y":2543982.3300000019}},{"attributes":{"ID":341923,"DIS_CODE":0,"TOWNNAME":"安平區","LI":"建平里","LIN":"8鄰","STREET":"府前三街","SECT":" ","MAREA":" ","LANE":" ","ALLEY":" ","HOUSE_NO":"１２９號三樓之１４","E_COORD97":166494.16,"N_COORD97":2543982.3300000001,"ADDRESS":"府前三街１２９號三樓之１４","OBJECTID":341914},"geometry":{"x":166494.16000000108,"y":2543982.3300000019}},{"attributes":{"ID":341924,"DIS_CODE":0,"TOWNNAME":"安平區","LI":"建平里","LIN":"8鄰","STREET":"府前三街","SECT":" ","MAREA":" ","LANE":" ","ALLEY":" ","HOUSE_NO":"１２９號三樓之２","E_COORD97":166494.16,"N_COORD97":2543982.3300000001,"ADDRESS":"府前三街１２９號三樓之２","OBJECTID":341915},"geometry":{"x":166494.16000000108,"y":2543982.3300000019}},{"attributes":{"ID":341925,"DIS_CODE":0,"TOWNNAME":"安平區","LI":"建平里","LIN":"8鄰","STREET":"府前三街","SECT":" ","MAREA":" ","LANE":" ","ALLEY":" ","HOUSE_NO":"１２９號三樓之３","E_COORD97":166494.16,"N_COORD97":2543982.3300000001,"ADDRESS":"府前三街１２９號三樓之３","OBJECTID":341916},"geometry":{"x":166494.16000000108,"y":2543982.3300000019}},{"attributes":{"ID":341926,"DIS_CODE":0,"TOWNNAME":"安平區","LI":"建平里","LIN":"8鄰","STREET":"府前三街","SECT":" ","MAREA":" ","LANE":" ","ALLEY":" ","HOUSE_NO":"１２９號三樓之４","E_COORD97":166494.16,"N_COORD97":2543982.3300000001,"ADDRESS":"府前三街１２９號三樓之４","OBJECTID":341917},"geometry":{"x":166494.16000000108,"y":2543982.3300000019}},{"attributes":{"ID":341927,"DIS_CODE":0,"TOWNNAME":"中西區","LI":"保安里","LIN":"5鄰","STREET":"友愛街","SECT":" ","MAREA":" ","LANE":"２０１巷","ALLEY":" ","HOUSE_NO":"４號","E_COORD97":167701.89999999999,"N_COORD97":2543597.3900000001,"ADDRESS":"友愛街２０１巷４號","OBJECTID":341918},"geometry":{"x":167701.90000000037,"y":2543597.3900000006}},{"attributes":{"ID":341928,"DIS_CODE":0,"TOWNNAME":"中西區","LI":"保安里","LIN":"5鄰","STREET":"友愛街","SECT":" ","MAREA":" ","LANE":"２５１巷","ALLEY":" ","HOUSE_NO":"１號","E_COORD97":167648.29000000001,"N_COORD97":2543602.4300000002,"ADDRESS":"友愛街２５１巷１號","OBJECTID":341919},"geometry":{"x":167648.29000000004,"y":2543602.4299999997}},{"attributes":{"ID":341929,"DIS_CODE":0,"TOWNNAME":"中西區","LI":"保安里","LIN":"5鄰","STREET":"國華街","SECT":"二段","MAREA":" ","LANE":"１５３巷","ALLEY":" ","HOUSE_NO":"２號","E_COORD97":167668.97,"N_COORD97":2543600.2999999998,"ADDRESS":"國華街二段１５３巷２號","OBJECTID":341920},"geometry":{"x":167668.96999999881,"y":2543600.3000000026}},{"attributes":{"ID":341930,"DIS_CODE":0,"TOWNNAME":"中西區","LI":"保安里","LIN":"5鄰","STREET":"國華街","SECT":"二段","MAREA":" ","LANE":"１５３巷","ALLEY":" ","HOUSE_NO":"６號","E_COORD97":167666.25,"N_COORD97":2543601.0600000001,"ADDRESS":"國華街二段１５３巷６號","OBJECTID":341921},"geometry":{"x":167666.25000000093,"y":2543601.0600000024}},{"attributes":{"ID":341931,"DIS_CODE":0,"TOWNNAME":"中西區","LI":"保安里","LIN":"5鄰","STREET":"國華街","SECT":"二段","MAREA":" ","LANE":"１５３巷","ALLEY":" ","HOUSE_NO":"８號","E_COORD97":167662.88,"N_COORD97":2543602.0600000001,"ADDRESS":"國華街二段１５３巷８號","OBJECTID":341922},"geometry":{"x":167662.87999999989,"y":2543602.0600000024}},{"attributes":{"ID":341932,"DIS_CODE":0,"TOWNNAME":"善化區","LI":"文正里","LIN":"1鄰","STREET":"進學路","SECT":" ","MAREA":" ","LANE":"１０５巷","ALLEY":" ","HOUSE_NO":"９號","E_COORD97":177107.04999999999,"N_COORD97":2559672.5,"ADDRESS":"進學路１０５巷９號","OBJECTID":341923},"geometry":{"x":177107.04999999981,"y":2559672.5000000019}},{"attributes":{"ID":341933,"DIS_CODE":0,"TOWNNAME":"安平區","LI":"建平里","LIN":"8鄰","STREET":"府前三街","SECT":" ","MAREA":" ","LANE":" ","ALLEY":" ","HOUSE_NO":"１２９號三樓之５","E_COORD97":166494.16,"N_COORD97":2543982.3300000001,"ADDRESS":"府前三街１２９號三樓之５","OBJECTID":341924},"geometry":{"x":166494.16000000108,"y":2543982.3300000019}},{"attributes":{"ID":341934,"DIS_CODE":0,"TOWNNAME":"安平區","LI":"建平里","LIN":"8鄰","STREET":"府前三街","SECT":" ","MAREA":" ","LANE":" ","ALLEY":" ","HOUSE_NO":"１２９號三樓之６","E_COORD97":166494.16,"N_COORD97":2543982.3300000001,"ADDRESS":"府前三街１２９號三樓之６","OBJECTID":341925},"geometry":{"x":166494.16000000108,"y":2543982.3300000019}},{"attributes":{"ID":341935,"DIS_CODE":0,"TOWNNAME":"安平區","LI":"建平里","LIN":"8鄰","STREET":"府前三街","SECT":" ","MAREA":" ","LANE":" ","ALLEY":" ","HOUSE_NO":"１２９號三樓之７","E_COORD97":166494.16,"N_COORD97":2543982.3300000001,"ADDRESS":"府前三街１２９號三樓之７","OBJECTID":341926},"geometry":{"x":166494.16000000108,"y":2543982.3300000019}},{"attributes":{"ID":341936,"DIS_CODE":0,"TOWNNAME":"安平區","LI":"建平里","LIN":"8鄰","STREET":"府前三街","SECT":" ","MAREA":" ","LANE":" ","ALLEY":" ","HOUSE_NO":"１２９號三樓之８","E_COORD97":166494.16,"N_COORD97":2543982.3300000001,"ADDRESS":"府前三街１２９號三樓之８","OBJECTID":341927},"geometry":{"x":166494.16000000108,"y":2543982.3300000019}},{"attributes":{"ID":341937,"DIS_CODE":0,"TOWNNAME":"安南區","LI":"長安里","LIN":"8鄰","STREET":"長溪路","SECT":"三段","MAREA":" ","LANE":" ","ALLEY":" ","HOUSE_NO":"４０７號","E_COORD97":167631.01000000001,"N_COORD97":2552055.5299999998,"ADDRESS":"長溪路三段４０７號","OBJECTID":341928},"geometry":{"x":167631.00999999978,"y":2552055.5300000012}},{"attributes":{"ID":341938,"DIS_CODE":0,"TOWNNAME":"佳里區","LI":"禮化里","LIN":"5鄰","STREET":" ","SECT":" ","MAREA":"佳里興","LANE":" ","ALLEY":" ","HOUSE_NO":"２６７號之１０","E_COORD97":166841.01000000001,"N_COORD97":2565973.52,"ADDRESS":"佳里興２６７號之１０","OBJECTID":341929},"geometry":{"x":166841.00999999978,"y":2565973.5200000014}},{"attributes":{"ID":341939,"DIS_CODE":0,"TOWNNAME":"佳里區","LI":"禮化里","LIN":"5鄰","STREET":" ","SECT":" ","MAREA":"佳里興","LANE":" ","ALLEY":" ","HOUSE_NO":"２６７號之１１","E_COORD97":166840.09,"N_COORD97":2565969.3900000001,"ADDRESS":"佳里興２６７號之１１","OBJECTID":341930},"geometry":{"x":166840.09000000078,"y":2565969.3900000025}},{"attributes":{"ID":341940,"DIS_CODE":0,"TOWNNAME":"佳里區","LI":"禮化里","LIN":"5鄰","STREET":" ","SECT":" ","MAREA":"佳里興","LANE":" ","ALLEY":" ","HOUSE_NO":"２６７號之１２","E_COORD97":166839.78,"N_COORD97":2565964.7599999998,"ADDRESS":"佳里興２６７號之１２","OBJECTID":341931},"geometry":{"x":166839.78000000026,"y":2565964.7600000035}},{"attributes":{"ID":341941,"DIS_CODE":0,"TOWNNAME":"佳里區","LI":"禮化里","LIN":"5鄰","STREET":" ","SECT":" ","MAREA":"佳里興","LANE":" ","ALLEY":" ","HOUSE_NO":"２６７號之１３","E_COORD97":166839.23000000001,"N_COORD97":2565960.54,"ADDRESS":"佳里興２６７號之１３","OBJECTID":341932},"geometry":{"x":166839.23000000231,"y":2565960.5399999991}},{"attributes":{"ID":341942,"DIS_CODE":0,"TOWNNAME":"佳里區","LI":"禮化里","LIN":"5鄰","STREET":" ","SECT":" ","MAREA":"佳里興","LANE":" ","ALLEY":" ","HOUSE_NO":"２６７號之１４","E_COORD97":166835.97,"N_COORD97":2565954.6499999999,"ADDRESS":"佳里興２６７號之１４","OBJECTID":341933},"geometry":{"x":166835.96999999974,"y":2565954.6500000004}},{"attributes":{"ID":341943,"DIS_CODE":0,"TOWNNAME":"佳里區","LI":"禮化里","LIN":"5鄰","STREET":" ","SECT":" ","MAREA":"佳里興","LANE":" ","ALLEY":" ","HOUSE_NO":"２６７號之１５","E_COORD97":166858.94,"N_COORD97":2565970.1600000001,"ADDRESS":"佳里興２６７號之１５","OBJECTID":341934},"geometry":{"x":166858.94000000041,"y":2565970.160000002}},{"attributes":{"ID":341944,"DIS_CODE":0,"TOWNNAME":"佳里區","LI":"禮化里","LIN":"5鄰","STREET":" ","SECT":" ","MAREA":"佳里興","LANE":" ","ALLEY":" ","HOUSE_NO":"２６７號之１６","E_COORD97":166828.19,"N_COORD97":2565947.6200000001,"ADDRESS":"佳里興２６７號之１６","OBJECTID":341935},"geometry":{"x":166828.19000000134,"y":2565947.6200000029}},{"attributes":{"ID":341945,"DIS_CODE":0,"TOWNNAME":"佳里區","LI":"禮化里","LIN":"5鄰","STREET":" ","SECT":" ","MAREA":"佳里興","LANE":" ","ALLEY":" ","HOUSE_NO":"２６７號之１７","E_COORD97":166826.85999999999,"N_COORD97":2565942.1299999999,"ADDRESS":"佳里興２６７號之１７","OBJECTID":341936},"geometry":{"x":166826.86000000127,"y":2565942.1300000008}},{"attributes":{"ID":341946,"DIS_CODE":0,"TOWNNAME":"佳里區","LI":"禮化里","LIN":"5鄰","STREET":" ","SECT":" ","MAREA":"佳里興","LANE":" ","ALLEY":" ","HOUSE_NO":"２６７號之２","E_COORD97":166871.16,"N_COORD97":2565983.54,"ADDRESS":"佳里興２６７號之２","OBJECTID":341937},"geometry":{"x":166871.16000000015,"y":2565983.540000001}},{"attributes":{"ID":341947,"DIS_CODE":0,"TOWNNAME":"佳里區","LI":"禮化里","LIN":"5鄰","STREET":" ","SECT":" ","MAREA":"佳里興","LANE":" ","ALLEY":" ","HOUSE_NO":"２６７號之３","E_COORD97":166866.91,"N_COORD97":2565983.79,"ADDRESS":"佳里興２６７號之３","OBJECTID":341938},"geometry":{"x":166866.91000000108,"y":2565983.7899999991}},{"attributes":{"ID":341948,"DIS_CODE":0,"TOWNNAME":"佳里區","LI":"禮化里","LIN":"5鄰","STREET":" ","SECT":" ","MAREA":"佳里興","LANE":" ","ALLEY":" ","HOUSE_NO":"２６７號之４","E_COORD97":166863.04999999999,"N_COORD97":2565984.6099999999,"ADDRESS":"佳里興２６７號之４","OBJECTID":341939},"geometry":{"x":166863.04999999981,"y":2565984.6099999994}},{"attributes":{"ID":341949,"DIS_CODE":0,"TOWNNAME":"佳里區","LI":"興化里","LIN":"5鄰","STREET":" ","SECT":" ","MAREA":"佳里興","LANE":" ","ALLEY":" ","HOUSE_NO":"４２５號之１","E_COORD97":166705.26000000001,"N_COORD97":2565499.0299999998,"ADDRESS":"佳里興４２５號之１","OBJECTID":341940},"geometry":{"x":166705.25999999978,"y":2565499.0300000012}},{"attributes":{"ID":341950,"DIS_CODE":0,"TOWNNAME":"善化區","LI":"文正里","LIN":"1鄰","STREET":"進學路","SECT":" ","MAREA":" ","LANE":"９９巷","ALLEY":" ","HOUSE_NO":"９號","E_COORD97":177109.87,"N_COORD97":2559624.75,"ADDRESS":"進學路９９巷９號","OBJECTID":341941},"geometry":{"x":177109.87000000011,"y":2559624.75}},{"attributes":{"ID":341951,"DIS_CODE":0,"TOWNNAME":"善化區","LI":"文正里","LIN":"1鄰","STREET":"進學路","SECT":" ","MAREA":" ","LANE":"１０５巷","ALLEY":" ","HOUSE_NO":"１３號","E_COORD97":177096.95000000001,"N_COORD97":2559670.25,"ADDRESS":"進學路１０５巷１３號","OBJECTID":341942},"geometry":{"x":177096.95000000112,"y":2559670.2500000019}},{"attributes":{"ID":341952,"DIS_CODE":0,"TOWNNAME":"善化區","LI":"文正里","LIN":"1鄰","STREET":"進學路","SECT":" ","MAREA":" ","LANE":"１０５巷","ALLEY":" ","HOUSE_NO":"１號","E_COORD97":177127.64999999999,"N_COORD97":2559675.25,"ADDRESS":"進學路１０５巷１號","OBJECTID":341943},"geometry":{"x":177127.65000000224,"y":2559675.25}},{"attributes":{"ID":341953,"DIS_CODE":0,"TOWNNAME":"善化區","LI":"文正里","LIN":"1鄰","STREET":"進學路","SECT":" ","MAREA":" ","LANE":"國小巷","ALLEY":" ","HOUSE_NO":"１４號","E_COORD97":177153.82000000001,"N_COORD97":2559397.5,"ADDRESS":"進學路國小巷１４號","OBJECTID":341944},"geometry":{"x":177153.82000000123,"y":2559397.5000000019}},{"attributes":{"ID":341954,"DIS_CODE":0,"TOWNNAME":"善化區","LI":"文正里","LIN":"1鄰","STREET":"進學路","SECT":" ","MAREA":" ","LANE":"７１巷","ALLEY":" ","HOUSE_NO":"３５號","E_COORD97":177067.79000000001,"N_COORD97":2559548.25,"ADDRESS":"進學路７１巷３５號","OBJECTID":341945},"geometry":{"x":177067.79000000097,"y":2559548.2500000019}},{"attributes":{"ID":341955,"DIS_CODE":0,"TOWNNAME":"善化區","LI":"文正里","LIN":"1鄰","STREET":"進學路","SECT":" ","MAREA":" ","LANE":"９３巷","ALLEY":" ","HOUSE_NO":"１７號","E_COORD97":177091.42000000001,"N_COORD97":2559614.5,"ADDRESS":"進學路９３巷１７號","OBJECTID":341946},"geometry":{"x":177091.42000000179,"y":2559614.5000000019}},{"attributes":{"ID":341956,"DIS_CODE":0,"TOWNNAME":"善化區","LI":"文正里","LIN":"1鄰","STREET":"進學路","SECT":" ","MAREA":" ","LANE":"７１巷","ALLEY":" ","HOUSE_NO":"２６號","E_COORD97":177087.07000000001,"N_COORD97":2559561.5,"ADDRESS":"進學路７１巷２６號","OBJECTID":341947},"geometry":{"x":177087.0700000003,"y":2559561.5}},{"attributes":{"ID":341957,"DIS_CODE":0,"TOWNNAME":"佳里區","LI":"興化里","LIN":"5鄰","STREET":" ","SECT":" ","MAREA":"佳里興","LANE":" ","ALLEY":" ","HOUSE_NO":"４２５號之２","E_COORD97":166662.04999999999,"N_COORD97":2565493.8599999999,"ADDRESS":"佳里興４２５號之２","OBJECTID":341948},"geometry":{"x":166662.05000000075,"y":2565493.8600000013}},{"attributes":{"ID":341958,"DIS_CODE":0,"TOWNNAME":"佳里區","LI":"興化里","LIN":"5鄰","STREET":" ","SECT":" ","MAREA":"佳里興","LANE":" ","ALLEY":" ","HOUSE_NO":"４２５號之３","E_COORD97":166714.44,"N_COORD97":2565493.3399999999,"ADDRESS":"佳里興４２５號之３","OBJECTID":341949},"geometry":{"x":166714.44000000134,"y":2565493.3400000017}},{"attributes":{"ID":341959,"DIS_CODE":0,"TOWNNAME":"佳里區","LI":"興化里","LIN":"5鄰","STREET":" ","SECT":" ","MAREA":"佳里興","LANE":" ","ALLEY":" ","HOUSE_NO":"４２５號之４","E_COORD97":166742.73999999999,"N_COORD97":2565500.1200000001,"ADDRESS":"佳里興４２５號之４","OBJECTID":341950},"geometry":{"x":166742.74000000115,"y":2565500.1200000029}},{"attributes":{"ID":341960,"DIS_CODE":0,"TOWNNAME":"佳里區","LI":"興化里","LIN":"5鄰","STREET":" ","SECT":" ","MAREA":"佳里興","LANE":" ","ALLEY":" ","HOUSE_NO":"４２５號","E_COORD97":166727.64999999999,"N_COORD97":2565494.8100000001,"ADDRESS":"佳里興４２５號","OBJECTID":341951},"geometry":{"x":166727.65000000224,"y":2565494.8100000024}},{"attributes":{"ID":341961,"DIS_CODE":0,"TOWNNAME":"佳里區","LI":"興化里","LIN":"5鄰","STREET":" ","SECT":" ","MAREA":"佳里興","LANE":" ","ALLEY":" ","HOUSE_NO":"４２６號之１","E_COORD97":166748.10999999999,"N_COORD97":2565521.0699999998,"ADDRESS":"佳里興４２６號之１","OBJECTID":341952},"geometry":{"x":166748.11000000034,"y":2565521.0700000003}},{"attributes":{"ID":341962,"DIS_CODE":0,"TOWNNAME":"佳里區","LI":"興化里","LIN":"5鄰","STREET":" ","SECT":" ","MAREA":"佳里興","LANE":" ","ALLEY":" ","HOUSE_NO":"４２６號","E_COORD97":166722.13,"N_COORD97":2565524.98,"ADDRESS":"佳里興４２６號","OBJECTID":341953},"geometry":{"x":166722.12999999896,"y":2565524.9800000004}},{"attributes":{"ID":341963,"DIS_CODE":0,"TOWNNAME":"佳里區","LI":"興化里","LIN":"5鄰","STREET":" ","SECT":" ","MAREA":"佳里興","LANE":" ","ALLEY":" ","HOUSE_NO":"４２８號","E_COORD97":166748.47,"N_COORD97":2565595.6200000001,"ADDRESS":"佳里興４２８號","OBJECTID":341954},"geometry":{"x":166748.46999999881,"y":2565595.6200000029}},{"attributes":{"ID":341964,"DIS_CODE":0,"TOWNNAME":"佳里區","LI":"興化里","LIN":"5鄰","STREET":" ","SECT":" ","MAREA":"佳里興","LANE":" ","ALLEY":" ","HOUSE_NO":"４２９號","E_COORD97":166767.78,"N_COORD97":2565599.96,"ADDRESS":"佳里興４２９號","OBJECTID":341955},"geometry":{"x":166767.78000000119,"y":2565599.9600000028}},{"attributes":{"ID":341965,"DIS_CODE":0,"TOWNNAME":"善化區","LI":"文正里","LIN":"1鄰","STREET":"進學路","SECT":" ","MAREA":" ","LANE":"７１巷","ALLEY":" ","HOUSE_NO":"１１號","E_COORD97":177125.51000000001,"N_COORD97":2559554,"ADDRESS":"進學路７１巷１１號","OBJECTID":341956},"geometry":{"x":177125.50999999978,"y":2559554}},{"attributes":{"ID":341966,"DIS_CODE":0,"TOWNNAME":"善化區","LI":"文正里","LIN":"1鄰","STREET":"進學路","SECT":" ","MAREA":" ","LANE":"７１巷","ALLEY":" ","HOUSE_NO":"１３號","E_COORD97":177120.88,"N_COORD97":2559553.25,"ADDRESS":"進學路７１巷１３號","OBJECTID":341957},"geometry":{"x":177120.88000000082,"y":2559553.25}},{"attributes":{"ID":341967,"DIS_CODE":0,"TOWNNAME":"善化區","LI":"文正里","LIN":"1鄰","STREET":"進學路","SECT":" ","MAREA":" ","LANE":"７９巷","ALLEY":" ","HOUSE_NO":"２號","E_COORD97":177129.57999999999,"N_COORD97":2559590.25,"ADDRESS":"進學路７９巷２號","OBJECTID":341958},"geometry":{"x":177129.58000000194,"y":2559590.25}},{"attributes":{"ID":341968,"DIS_CODE":0,"TOWNNAME":"善化區","LI":"文正里","LIN":"1鄰","STREET":"進學路","SECT":" ","MAREA":" ","LANE":"９３巷","ALLEY":" ","HOUSE_NO":"１１號","E_COORD97":177104.45999999999,"N_COORD97":2559616,"ADDRESS":"進學路９３巷１１號","OBJECTID":341959},"geometry":{"x":177104.45999999996,"y":2559616}},{"attributes":{"ID":341969,"DIS_CODE":0,"TOWNNAME":"善化區","LI":"文正里","LIN":"1鄰","STREET":"進學路","SECT":" ","MAREA":" ","LANE":"７１巷","ALLEY":" ","HOUSE_NO":"２９號","E_COORD97":177082.38,"N_COORD97":2559549.25,"ADDRESS":"進學路７１巷２９號","OBJECTID":341960},"geometry":{"x":177082.38000000082,"y":2559549.25}},{"attributes":{"ID":341970,"DIS_CODE":0,"TOWNNAME":"善化區","LI":"文正里","LIN":"1鄰","STREET":"進學路","SECT":" ","MAREA":" ","LANE":"７９巷","ALLEY":" ","HOUSE_NO":"１號","E_COORD97":177133.64999999999,"N_COORD97":2559590.75,"ADDRESS":"進學路７９巷１號","OBJECTID":341961},"geometry":{"x":177133.65000000037,"y":2559590.75}},{"attributes":{"ID":341971,"DIS_CODE":0,"TOWNNAME":"善化區","LI":"文正里","LIN":"1鄰","STREET":"進學路","SECT":" ","MAREA":" ","LANE":"國小巷","ALLEY":" ","HOUSE_NO":"１９號","E_COORD97":177156.26999999999,"N_COORD97":2559358.25,"ADDRESS":"進學路國小巷１９號","OBJECTID":341962},"geometry":{"x":177156.26999999955,"y":2559358.2500000019}},{"attributes":{"ID":341972,"DIS_CODE":0,"TOWNNAME":"善化區","LI":"小新里","LIN":"1鄰","STREET":"成功路","SECT":" ","MAREA":" ","LANE":"３巷","ALLEY":" ","HOUSE_NO":"４６號","E_COORD97":180081.70000000001,"N_COORD97":2558382.5,"ADDRESS":"成功路３巷４６號","OBJECTID":341963},"geometry":{"x":180081.70000000019,"y":2558382.5000000037}},{"attributes":{"ID":341973,"DIS_CODE":0,"TOWNNAME":"善化區","LI":"小新里","LIN":"1鄰","STREET":"成功路","SECT":" ","MAREA":" ","LANE":"３巷","ALLEY":" ","HOUSE_NO":"２８號","E_COORD97":180106.84,"N_COORD97":2558437,"ADDRESS":"成功路３巷２８號","OBJECTID":341964},"geometry":{"x":180106.83999999985,"y":2558437.0000000037}},{"attributes":{"ID":341974,"DIS_CODE":0,"TOWNNAME":"善化區","LI":"小新里","LIN":"1鄰","STREET":"成功路","SECT":" ","MAREA":" ","LANE":"３巷","ALLEY":" ","HOUSE_NO":"４２之１號","E_COORD97":180085.06,"N_COORD97":2558386.02,"ADDRESS":"成功路３巷４２之１號","OBJECTID":341965},"geometry":{"x":180085.05999999959,"y":2558386.0200000014}},{"attributes":{"ID":341975,"DIS_CODE":0,"TOWNNAME":"善化區","LI":"小新里","LIN":"1鄰","STREET":"成功路","SECT":" ","MAREA":" ","LANE":"３巷","ALLEY":" ","HOUSE_NO":"５６號","E_COORD97":180069.84,"N_COORD97":2558364.75,"ADDRESS":"成功路３巷５６號","OBJECTID":341966},"geometry":{"x":180069.83999999985,"y":2558364.7500000019}},{"attributes":{"ID":341976,"DIS_CODE":0,"TOWNNAME":"善化區","LI":"文正里","LIN":"1鄰","STREET":"進學路","SECT":" ","MAREA":" ","LANE":"７１巷","ALLEY":" ","HOUSE_NO":"２１號","E_COORD97":177101.41,"N_COORD97":2559551.5,"ADDRESS":"進學路７１巷２１號","OBJECTID":341967},"geometry":{"x":177101.41000000015,"y":2559551.5}},{"attributes":{"ID":341977,"DIS_CODE":0,"TOWNNAME":"善化區","LI":"文正里","LIN":"1鄰","STREET":"進學路","SECT":" ","MAREA":" ","LANE":"７９巷","ALLEY":" ","HOUSE_NO":"８號","E_COORD97":177106.57000000001,"N_COORD97":2559587.25,"ADDRESS":"進學路７９巷８號","OBJECTID":341968},"geometry":{"x":177106.57000000123,"y":2559587.25}},{"attributes":{"ID":341978,"DIS_CODE":0,"TOWNNAME":"善化區","LI":"小新里","LIN":"1鄰","STREET":"成功路","SECT":" ","MAREA":" ","LANE":"５３巷","ALLEY":" ","HOUSE_NO":"３６號","E_COORD97":180006.45000000001,"N_COORD97":2558522.5,"ADDRESS":"成功路５３巷３６號","OBJECTID":341969},"geometry":{"x":180006.45000000019,"y":2558522.5000000019}},{"attributes":{"ID":341979,"DIS_CODE":0,"TOWNNAME":"善化區","LI":"小新里","LIN":"1鄰","STREET":"成功路","SECT":" ","MAREA":" ","LANE":"５３巷","ALLEY":" ","HOUSE_NO":"５１號","E_COORD97":179969.44,"N_COORD97":2558452.25,"ADDRESS":"成功路５３巷５１號","OBJECTID":341970},"geometry":{"x":179969.44000000041,"y":2558452.2500000037}},{"attributes":{"ID":341980,"DIS_CODE":0,"TOWNNAME":"善化區","LI":"小新里","LIN":"1鄰","STREET":"成功路","SECT":" ","MAREA":" ","LANE":"５３巷","ALLEY":" ","HOUSE_NO":"３３號","E_COORD97":179996.57000000001,"N_COORD97":2558446.5,"ADDRESS":"成功路５３巷３３號","OBJECTID":341971},"geometry":{"x":179996.57000000123,"y":2558446.5}},{"attributes":{"ID":341981,"DIS_CODE":0,"TOWNNAME":"善化區","LI":"小新里","LIN":"1鄰","STREET":"成功路","SECT":" ","MAREA":" ","LANE":"５３巷","ALLEY":" ","HOUSE_NO":"２６號","E_COORD97":180010.39999999999,"N_COORD97":2558477.75,"ADDRESS":"成功路５３巷２６號","OBJECTID":341972},"geometry":{"x":180010.40000000037,"y":2558477.75}},{"attributes":{"ID":341982,"DIS_CODE":0,"TOWNNAME":"善化區","LI":"小新里","LIN":"1鄰","STREET":"成功路","SECT":" ","MAREA":" ","LANE":"５３巷","ALLEY":" ","HOUSE_NO":"４１號","E_COORD97":179999.70999999999,"N_COORD97":2558501,"ADDRESS":"成功路５３巷４１號","OBJECTID":341973},"geometry":{"x":179999.70999999996,"y":2558500.9999999981}},{"attributes":{"ID":341983,"DIS_CODE":0,"TOWNNAME":"善化區","LI":"小新里","LIN":"1鄰","STREET":"成功路","SECT":" ","MAREA":" ","LANE":"５３巷","ALLEY":" ","HOUSE_NO":"３０號","E_COORD97":180008.04999999999,"N_COORD97":2558440.75,"ADDRESS":"成功路５３巷３０號","OBJECTID":341974},"geometry":{"x":180008.05000000075,"y":2558440.75}},{"attributes":{"ID":341984,"DIS_CODE":0,"TOWNNAME":"善化區","LI":"小新里","LIN":"1鄰","STREET":"成功路","SECT":" ","MAREA":" ","LANE":"５３巷","ALLEY":" ","HOUSE_NO":"５５號","E_COORD97":179978.57000000001,"N_COORD97":2558541.75,"ADDRESS":"成功路５３巷５５號","OBJECTID":341975},"geometry":{"x":179978.57000000123,"y":2558541.7500000019}},{"attributes":{"ID":341985,"DIS_CODE":0,"TOWNNAME":"善化區","LI":"小新里","LIN":"1鄰","STREET":"成功路","SECT":" ","MAREA":" ","LANE":"５３巷","ALLEY":" ","HOUSE_NO":"１３號","E_COORD97":180036.70999999999,"N_COORD97":2558523.25,"ADDRESS":"成功路５３巷１３號","OBJECTID":341976},"geometry":{"x":180036.70999999996,"y":2558523.2500000037}},{"attributes":{"ID":341986,"DIS_CODE":0,"TOWNNAME":"下營區","LI":"仁里里","LIN":"5鄰","STREET":"仁南街","SECT":" ","MAREA":" ","LANE":"４１巷","ALLEY":" ","HOUSE_NO":"１０號","E_COORD97":174521.54999999999,"N_COORD97":2569664.6299999999,"ADDRESS":"仁南街４１巷１０號","OBJECTID":341977},"geometry":{"x":174521.54999999981,"y":2569664.6300000008}},{"attributes":{"ID":341987,"DIS_CODE":0,"TOWNNAME":"下營區","LI":"仁里里","LIN":"5鄰","STREET":"仁南街","SECT":" ","MAREA":" ","LANE":"４１巷","ALLEY":" ","HOUSE_NO":"１２號","E_COORD97":174520.73000000001,"N_COORD97":2569658.8599999999,"ADDRESS":"仁南街４１巷１２號","OBJECTID":341978},"geometry":{"x":174520.73000000138,"y":2569658.8599999994}},{"attributes":{"ID":341988,"DIS_CODE":0,"TOWNNAME":"下營區","LI":"仁里里","LIN":"5鄰","STREET":"仁南街","SECT":" ","MAREA":" ","LANE":"４１巷","ALLEY":" ","HOUSE_NO":"１６號","E_COORD97":174519.78,"N_COORD97":2569653.1499999999,"ADDRESS":"仁南街４１巷１６號","OBJECTID":341979},"geometry":{"x":174519.78000000119,"y":2569653.1500000022}},{"attributes":{"ID":341989,"DIS_CODE":0,"TOWNNAME":"下營區","LI":"仁里里","LIN":"5鄰","STREET":"仁南街","SECT":" ","MAREA":" ","LANE":"４１巷","ALLEY":" ","HOUSE_NO":"２號","E_COORD97":174524.37,"N_COORD97":2569681.6600000001,"ADDRESS":"仁南街４１巷２號","OBJECTID":341980},"geometry":{"x":174524.37000000104,"y":2569681.6600000039}},{"attributes":{"ID":341990,"DIS_CODE":0,"TOWNNAME":"下營區","LI":"西連里","LIN":"5鄰","STREET":" ","SECT":" ","MAREA":"西寮","LANE":" ","ALLEY":" ","HOUSE_NO":"１０號之１","E_COORD97":174512.97,"N_COORD97":2567495.9500000002,"ADDRESS":"西寮１０號之１","OBJECTID":341981},"geometry":{"x":174512.97000000067,"y":2567495.9500000011}},{"attributes":{"ID":341991,"DIS_CODE":0,"TOWNNAME":"下營區","LI":"仁里里","LIN":"5鄰","STREET":"仁南街","SECT":" ","MAREA":" ","LANE":"４１巷","ALLEY":" ","HOUSE_NO":"６號","E_COORD97":174523.54999999999,"N_COORD97":2569675.77,"ADDRESS":"仁南街４１巷６號","OBJECTID":341982},"geometry":{"x":174523.54999999981,"y":2569675.7699999996}},{"attributes":{"ID":341992,"DIS_CODE":0,"TOWNNAME":"下營區","LI":"仁里里","LIN":"5鄰","STREET":"仁南街","SECT":" ","MAREA":" ","LANE":"４１巷","ALLEY":" ","HOUSE_NO":"８號","E_COORD97":174522.42000000001,"N_COORD97":2569670.6299999999,"ADDRESS":"仁南街４１巷８號","OBJECTID":341983},"geometry":{"x":174522.41999999993,"y":2569670.6300000027}},{"attributes":{"ID":341993,"DIS_CODE":0,"TOWNNAME":"下營區","LI":"仁里里","LIN":"5鄰","STREET":"仁南街","SECT":" ","MAREA":" ","LANE":"６巷","ALLEY":" ","HOUSE_NO":"３７號","E_COORD97":174402.73999999999,"N_COORD97":2569730.6699999999,"ADDRESS":"仁南街６巷３７號","OBJECTID":341984},"geometry":{"x":174402.74000000209,"y":2569730.6699999999}},{"attributes":{"ID":341994,"DIS_CODE":0,"TOWNNAME":"下營區","LI":"仁里里","LIN":"5鄰","STREET":"仁南街","SECT":" ","MAREA":" ","LANE":"６巷","ALLEY":" ","HOUSE_NO":"３９號","E_COORD97":174398.79999999999,"N_COORD97":2569731.4300000002,"ADDRESS":"仁南街６巷３９號","OBJECTID":341985},"geometry":{"x":174398.80000000075,"y":2569731.4300000016}},{"attributes":{"ID":341995,"DIS_CODE":0,"TOWNNAME":"下營區","LI":"仁里里","LIN":"5鄰","STREET":"仁南街","SECT":" ","MAREA":" ","LANE":"６巷","ALLEY":" ","HOUSE_NO":"６２號","E_COORD97":174427.03,"N_COORD97":2569745.9900000002,"ADDRESS":"仁南街６巷６２號","OBJECTID":341986},"geometry":{"x":174427.03000000119,"y":2569745.9900000002}},{"attributes":{"ID":341996,"DIS_CODE":0,"TOWNNAME":"善化區","LI":"小新里","LIN":"1鄰","STREET":"成功路","SECT":" ","MAREA":" ","LANE":"５３巷","ALLEY":" ","HOUSE_NO":"８號","E_COORD97":180033.89999999999,"N_COORD97":2558538.75,"ADDRESS":"成功路５３巷８號","OBJECTID":341987},"geometry":{"x":180033.9000000013,"y":2558538.75}},{"attributes":{"ID":341997,"DIS_CODE":0,"TOWNNAME":"善化區","LI":"小新里","LIN":"1鄰","STREET":"成功路","SECT":" ","MAREA":" ","LANE":"５３巷","ALLEY":" ","HOUSE_NO":"６５號","E_COORD97":179972.26000000001,"N_COORD97":2558506.25,"ADDRESS":"成功路５３巷６５號","OBJECTID":341988},"geometry":{"x":179972.25999999978,"y":2558506.2500000037}},{"attributes":{"ID":341998,"DIS_CODE":0,"TOWNNAME":"善化區","LI":"小新里","LIN":"1鄰","STREET":"成功路","SECT":" ","MAREA":" ","LANE":"５３巷","ALLEY":" ","HOUSE_NO":"９６號","E_COORD97":179924.70000000001,"N_COORD97":2558475.25,"ADDRESS":"成功路５３巷９６號","OBJECTID":341989},"geometry":{"x":179924.70000000112,"y":2558475.25}},{"attributes":{"ID":341999,"DIS_CODE":0,"TOWNNAME":"安平區","LI":"建平里","LIN":"8鄰","STREET":"府前三街","SECT":" ","MAREA":" ","LANE":" ","ALLEY":" ","HOUSE_NO":"１２９號三樓之９","E_COORD97":166494.16,"N_COORD97":2543982.3300000001,"ADDRESS":"府前三街１２９號三樓之９","OBJECTID":341990},"geometry":{"x":166494.16000000108,"y":2543982.3300000019}},{"attributes":{"ID":342000,"DIS_CODE":0,"TOWNNAME":"安平區","LI":"建平里","LIN":"8鄰","STREET":"府前三街","SECT":" ","MAREA":" ","LANE":" ","ALLEY":" ","HOUSE_NO":"１２９號五樓之１","E_COORD97":166494.16,"N_COORD97":2543982.3300000001,"ADDRESS":"府前三街１２９號五樓之１","OBJECTID":341991},"geometry":{"x":166494.16000000108,"y":2543982.3300000019}},{"attributes":{"ID":342001,"DIS_CODE":0,"TOWNNAME":"安平區","LI":"建平里","LIN":"8鄰","STREET":"府前三街","SECT":" ","MAREA":" ","LANE":" ","ALLEY":" ","HOUSE_NO":"１２９號五樓之１０","E_COORD97":166494.16,"N_COORD97":2543982.3300000001,"ADDRESS":"府前三街１２９號五樓之１０","OBJECTID":341992},"geometry":{"x":166494.16000000108,"y":2543982.3300000019}},{"attributes":{"ID":342002,"DIS_CODE":0,"TOWNNAME":"安平區","LI":"建平里","LIN":"8鄰","STREET":"府前三街","SECT":" ","MAREA":" ","LANE":" ","ALLEY":" ","HOUSE_NO":"１２９號五樓之１１","E_COORD97":166494.16,"N_COORD97":2543982.3300000001,"ADDRESS":"府前三街１２９號五樓之１１","OBJECTID":341993},"geometry":{"x":166494.16000000108,"y":2543982.3300000019}},{"attributes":{"ID":342003,"DIS_CODE":0,"TOWNNAME":"安平區","LI":"建平里","LIN":"8鄰","STREET":"府前三街","SECT":" ","MAREA":" ","LANE":" ","ALLEY":" ","HOUSE_NO":"１２９號五樓之１２","E_COORD97":166494.16,"N_COORD97":2543982.3300000001,"ADDRESS":"府前三街１２９號五樓之１２","OBJECTID":341994},"geometry":{"x":166494.16000000108,"y":2543982.3300000019}},{"attributes":{"ID":342004,"DIS_CODE":0,"TOWNNAME":"安平區","LI":"建平里","LIN":"8鄰","STREET":"府前三街","SECT":" ","MAREA":" ","LANE":" ","ALLEY":" ","HOUSE_NO":"１２９號五樓之１３","E_COORD97":166494.16,"N_COORD97":2543982.3300000001,"ADDRESS":"府前三街１２９號五樓之１３","OBJECTID":341995},"geometry":{"x":166494.16000000108,"y":2543982.3300000019}},{"attributes":{"ID":342005,"DIS_CODE":0,"TOWNNAME":"安平區","LI":"建平里","LIN":"8鄰","STREET":"府前三街","SECT":" ","MAREA":" ","LANE":" ","ALLEY":" ","HOUSE_NO":"１２９號五樓之１４","E_COORD97":166494.16,"N_COORD97":2543982.3300000001,"ADDRESS":"府前三街１２９號五樓之１４","OBJECTID":341996},"geometry":{"x":166494.16000000108,"y":2543982.3300000019}},{"attributes":{"ID":342006,"DIS_CODE":0,"TOWNNAME":"下營區","LI":"西連里","LIN":"5鄰","STREET":" ","SECT":" ","MAREA":"西寮","LANE":" ","ALLEY":" ","HOUSE_NO":"５號之１","E_COORD97":174475.70999999999,"N_COORD97":2567440.8300000001,"ADDRESS":"西寮５號之１","OBJECTID":341997},"geometry":{"x":174475.71000000089,"y":2567440.8300000019}},{"attributes":{"ID":342007,"DIS_CODE":0,"TOWNNAME":"下營區","LI":"西連里","LIN":"5鄰","STREET":" ","SECT":" ","MAREA":"西寮","LANE":" ","ALLEY":" ","HOUSE_NO":"６號之２","E_COORD97":174465.34,"N_COORD97":2567457.5499999998,"ADDRESS":"西寮６號之２","OBJECTID":341998},"geometry":{"x":174465.33999999985,"y":2567457.5500000007}},{"attributes":{"ID":342008,"DIS_CODE":0,"TOWNNAME":"下營區","LI":"西連里","LIN":"5鄰","STREET":" ","SECT":" ","MAREA":"西寮","LANE":" ","ALLEY":" ","HOUSE_NO":"６號之３","E_COORD97":174466.31,"N_COORD97":2567461.79,"ADDRESS":"西寮６號之３","OBJECTID":341999},"geometry":{"x":174466.31000000052,"y":2567461.7899999991}},{"attributes":{"ID":342009,"DIS_CODE":0,"TOWNNAME":"下營區","LI":"西連里","LIN":"5鄰","STREET":" ","SECT":" ","MAREA":"西寮","LANE":" ","ALLEY":" ","HOUSE_NO":"６號之４","E_COORD97":174444.60000000001,"N_COORD97":2567463.1200000001,"ADDRESS":"西寮６號之４","OBJECTID":342000},"geometry":{"x":174444.59999999963,"y":2567463.1200000029}}]}