{"displayFieldName":"TOWNNAME","fieldAliases":{"ID":"ID","DIS_CODE":"DIS_CODE","TOWNNAME":"TOWNNAME","LI":"LI","LIN":"LIN","STREET":"STREET","SECT":"SECT","MAREA":"MAREA","LANE":"LANE","ALLEY":"ALLEY","HOUSE_NO":"HOUSE_NO","E_COORD97":"E_COORD97","N_COORD97":"N_COORD97","ADDRESS":"ADDRESS","OBJECTID":"OBJECTID"},"geometryType":"esriGeometryPoint","spatialReference":{"wkid":102443,"latestWkid":3826},"fields":[{"name":"ID","type":"esriFieldTypeDouble","alias":"ID"},{"name":"DIS_CODE","type":"esriFieldTypeInteger","alias":"DIS_CODE"},{"name":"TOWNNAME","type":"esriFieldTypeString","alias":"TOWNNAME","length":8},{"name":"LI","type":"esriFieldTypeString","alias":"LI","length":8},{"name":"LIN","type":"esriFieldTypeString","alias":"LIN","length":12},{"name":"STREET","type":"esriFieldTypeString","alias":"STREET","length":20},{"name":"SECT","type":"esriFieldTypeString","alias":"SECT","length":8},{"name":"MAREA","type":"esriFieldTypeString","alias":"MAREA","length":12},{"name":"LANE","type":"esriFieldTypeString","alias":"LANE","length":10},{"name":"ALLEY","type":"esriFieldTypeString","alias":"ALLEY","length":10},{"name":"HOUSE_NO","type":"esriFieldTypeString","alias":"HOUSE_NO","length":20},{"name":"E_COORD97","type":"esriFieldTypeDouble","alias":"E_COORD97"},{"name":"N_COORD97","type":"esriFieldTypeDouble","alias":"N_COORD97"},{"name":"ADDRESS","type":"esriFieldTypeString","alias":"ADDRESS","length":50},{"name":"OBJECTID","type":"esriFieldTypeOID","alias":"OBJECTID"}],"features":[{"attributes":{"ID":478426,"DIS_CODE":0,"TOWNNAME":"安南區","LI":"州北里","LIN":"20鄰","STREET":"安和路","SECT":"五段","MAREA":" ","LANE":" ","ALLEY":" ","HOUSE_NO":"２８４號","E_COORD97":169754.53,"N_COORD97":2552063.5,"ADDRESS":"安和路五段２８４號","OBJECTID":478401},"geometry":{"x":169754.53000000119,"y":2552063.5000000019}},{"attributes":{"ID":478427,"DIS_CODE":0,"TOWNNAME":"安南區","LI":"州北里","LIN":"20鄰","STREET":"安和路","SECT":"五段","MAREA":" ","LANE":" ","ALLEY":" ","HOUSE_NO":"２８６號","E_COORD97":169752.60999999999,"N_COORD97":2552067.5,"ADDRESS":"安和路五段２８６號","OBJECTID":478402},"geometry":{"x":169752.61000000127,"y":2552067.5000000019}},{"attributes":{"ID":478428,"DIS_CODE":0,"TOWNNAME":"安南區","LI":"州北里","LIN":"20鄰","STREET":"安和路","SECT":"五段","MAREA":" ","LANE":" ","ALLEY":" ","HOUSE_NO":"２８８號","E_COORD97":169750.87,"N_COORD97":2552071.1499999999,"ADDRESS":"安和路五段２８８號","OBJECTID":478403},"geometry":{"x":169750.87000000104,"y":2552071.1500000004}},{"attributes":{"ID":478429,"DIS_CODE":0,"TOWNNAME":"安南區","LI":"州北里","LIN":"20鄰","STREET":"安和路","SECT":"五段","MAREA":" ","LANE":" ","ALLEY":" ","HOUSE_NO":"２９０號","E_COORD97":169749.31,"N_COORD97":2552074.79,"ADDRESS":"安和路五段２９０號","OBJECTID":478404},"geometry":{"x":169749.30999999959,"y":2552074.790000001}},{"attributes":{"ID":478430,"DIS_CODE":0,"TOWNNAME":"安南區","LI":"州北里","LIN":"20鄰","STREET":"安和路","SECT":"五段","MAREA":" ","LANE":" ","ALLEY":" ","HOUSE_NO":"３００號","E_COORD97":169733.84,"N_COORD97":2552118.48,"ADDRESS":"安和路五段３００號","OBJECTID":478405},"geometry":{"x":169733.84000000078,"y":2552118.4800000023}},{"attributes":{"ID":478431,"DIS_CODE":0,"TOWNNAME":"安南區","LI":"州北里","LIN":"20鄰","STREET":"安昌街","SECT":" ","MAREA":" ","LANE":" ","ALLEY":" ","HOUSE_NO":"７１號","E_COORD97":169879.51000000001,"N_COORD97":2552088,"ADDRESS":"安昌街７１號","OBJECTID":478406},"geometry":{"x":169879.51000000071,"y":2552088.0000000019}},{"attributes":{"ID":478432,"DIS_CODE":0,"TOWNNAME":"安南區","LI":"州北里","LIN":"20鄰","STREET":"安昌街","SECT":" ","MAREA":" ","LANE":" ","ALLEY":" ","HOUSE_NO":"８１號之２","E_COORD97":169908.03,"N_COORD97":2552135.1899999999,"ADDRESS":"安昌街８１號之２","OBJECTID":478407},"geometry":{"x":169908.03000000026,"y":2552135.1899999995}},{"attributes":{"ID":478433,"DIS_CODE":0,"TOWNNAME":"安南區","LI":"州北里","LIN":"20鄰","STREET":"安昌街","SECT":" ","MAREA":" ","LANE":" ","ALLEY":" ","HOUSE_NO":"８３號","E_COORD97":169914.81,"N_COORD97":2552155.4300000002,"ADDRESS":"安昌街８３號","OBJECTID":478408},"geometry":{"x":169914.81000000052,"y":2552155.4300000016}},{"attributes":{"ID":478434,"DIS_CODE":0,"TOWNNAME":"安南區","LI":"州北里","LIN":"20鄰","STREET":"安和路","SECT":"五段","MAREA":" ","LANE":" ","ALLEY":" ","HOUSE_NO":"３３０號","E_COORD97":169704.26000000001,"N_COORD97":2552169.5299999998,"ADDRESS":"安和路五段３３０號","OBJECTID":478409},"geometry":{"x":169704.25999999978,"y":2552169.5299999993}},{"attributes":{"ID":478435,"DIS_CODE":0,"TOWNNAME":"安南區","LI":"鳳凰里","LIN":"20鄰","STREET":"怡安路","SECT":"二段","MAREA":" ","LANE":" ","ALLEY":" ","HOUSE_NO":"５０９號","E_COORD97":167632.04999999999,"N_COORD97":2549423.3500000001,"ADDRESS":"怡安路二段５０９號","OBJECTID":478410},"geometry":{"x":167632.05000000075,"y":2549423.3500000015}},{"attributes":{"ID":478436,"DIS_CODE":0,"TOWNNAME":"安南區","LI":"鳳凰里","LIN":"20鄰","STREET":"怡安路","SECT":"二段","MAREA":" ","LANE":" ","ALLEY":" ","HOUSE_NO":"５１１號","E_COORD97":167627.82000000001,"N_COORD97":2549423.9399999999,"ADDRESS":"怡安路二段５１１號","OBJECTID":478411},"geometry":{"x":167627.8200000003,"y":2549423.9399999995}},{"attributes":{"ID":478437,"DIS_CODE":0,"TOWNNAME":"安南區","LI":"鳳凰里","LIN":"20鄰","STREET":"怡安路","SECT":"二段","MAREA":" ","LANE":" ","ALLEY":" ","HOUSE_NO":"５１３號","E_COORD97":167624.04000000001,"N_COORD97":2549424.96,"ADDRESS":"怡安路二段５１３號","OBJECTID":478412},"geometry":{"x":167624.04000000004,"y":2549424.9600000009}},{"attributes":{"ID":478438,"DIS_CODE":0,"TOWNNAME":"安南區","LI":"鳳凰里","LIN":"20鄰","STREET":"怡安路","SECT":"二段","MAREA":" ","LANE":" ","ALLEY":" ","HOUSE_NO":"５１５號","E_COORD97":167619.63,"N_COORD97":2549425.7999999998,"ADDRESS":"怡安路二段５１５號","OBJECTID":478413},"geometry":{"x":167619.63000000082,"y":2549425.8000000007}},{"attributes":{"ID":478439,"DIS_CODE":0,"TOWNNAME":"安南區","LI":"鳳凰里","LIN":"20鄰","STREET":"怡安路","SECT":"二段","MAREA":" ","LANE":" ","ALLEY":" ","HOUSE_NO":"５１７號","E_COORD97":167616.42000000001,"N_COORD97":2549426.6499999999,"ADDRESS":"怡安路二段５１７號","OBJECTID":478414},"geometry":{"x":167616.41999999993,"y":2549426.6500000004}},{"attributes":{"ID":478440,"DIS_CODE":0,"TOWNNAME":"安南區","LI":"鳳凰里","LIN":"20鄰","STREET":"怡安路","SECT":"二段","MAREA":" ","LANE":" ","ALLEY":" ","HOUSE_NO":"５１９號","E_COORD97":167611.42999999999,"N_COORD97":2549428,"ADDRESS":"怡安路二段５１９號","OBJECTID":478415},"geometry":{"x":167611.4299999997,"y":2549428}},{"attributes":{"ID":478441,"DIS_CODE":0,"TOWNNAME":"安南區","LI":"鳳凰里","LIN":"20鄰","STREET":"怡安路","SECT":"二段","MAREA":" ","LANE":" ","ALLEY":" ","HOUSE_NO":"５２３號","E_COORD97":167603.13,"N_COORD97":2549430.54,"ADDRESS":"怡安路二段５２３號","OBJECTID":478416},"geometry":{"x":167603.12999999989,"y":2549430.5399999972}},{"attributes":{"ID":478442,"DIS_CODE":0,"TOWNNAME":"安南區","LI":"鳳凰里","LIN":"20鄰","STREET":"怡安路","SECT":"二段","MAREA":" ","LANE":" ","ALLEY":" ","HOUSE_NO":"５２７號","E_COORD97":167594.57999999999,"N_COORD97":2549432.6499999999,"ADDRESS":"怡安路二段５２７號","OBJECTID":478417},"geometry":{"x":167594.58000000101,"y":2549432.6500000022}},{"attributes":{"ID":478443,"DIS_CODE":0,"TOWNNAME":"安南區","LI":"鳳凰里","LIN":"20鄰","STREET":"怡安路","SECT":"二段","MAREA":" ","LANE":" ","ALLEY":" ","HOUSE_NO":"５２９號","E_COORD97":167590.60999999999,"N_COORD97":2549433.4100000001,"ADDRESS":"怡安路二段５２９號","OBJECTID":478418},"geometry":{"x":167590.61000000034,"y":2549433.410000002}},{"attributes":{"ID":478444,"DIS_CODE":0,"TOWNNAME":"安南區","LI":"鳳凰里","LIN":"20鄰","STREET":"怡安路","SECT":"二段","MAREA":" ","LANE":" ","ALLEY":" ","HOUSE_NO":"５３７號","E_COORD97":167571.35000000001,"N_COORD97":2549436.6200000001,"ADDRESS":"怡安路二段５３７號","OBJECTID":478419},"geometry":{"x":167571.3499999987,"y":2549436.6200000029}},{"attributes":{"ID":478445,"DIS_CODE":0,"TOWNNAME":"安南區","LI":"鳳凰里","LIN":"20鄰","STREET":"怡安路","SECT":"二段","MAREA":" ","LANE":" ","ALLEY":" ","HOUSE_NO":"５３９號","E_COORD97":167566.95000000001,"N_COORD97":2549437.8100000001,"ADDRESS":"怡安路二段５３９號","OBJECTID":478420},"geometry":{"x":167566.95000000112,"y":2549437.8100000024}},{"attributes":{"ID":478446,"DIS_CODE":0,"TOWNNAME":"安南區","LI":"鳳凰里","LIN":"20鄰","STREET":"怡安路","SECT":"二段","MAREA":" ","LANE":" ","ALLEY":" ","HOUSE_NO":"５４１號","E_COORD97":167562.98000000001,"N_COORD97":2549438.9100000001,"ADDRESS":"怡安路二段５４１號","OBJECTID":478421},"geometry":{"x":167562.98000000231,"y":2549438.9100000001}},{"attributes":{"ID":478447,"DIS_CODE":0,"TOWNNAME":"仁德區","LI":"保安里","LIN":"20鄰","STREET":"保安路","SECT":"一段","MAREA":" ","LANE":" ","ALLEY":" ","HOUSE_NO":"１７號","E_COORD97":170479.35999999999,"N_COORD97":2536040.8100000001,"ADDRESS":"保安路一段１７號","OBJECTID":478422},"geometry":{"x":170479.3600000022,"y":2536040.8100000005}},{"attributes":{"ID":478448,"DIS_CODE":0,"TOWNNAME":"仁德區","LI":"保安里","LIN":"20鄰","STREET":"文賢路","SECT":"一段","MAREA":" ","LANE":" ","ALLEY":" ","HOUSE_NO":"５６０號","E_COORD97":171118.26000000001,"N_COORD97":2536887.0800000001,"ADDRESS":"文賢路一段５６０號","OBJECTID":478423},"geometry":{"x":171118.25999999978,"y":2536887.0800000038}},{"attributes":{"ID":478449,"DIS_CODE":0,"TOWNNAME":"東區","LI":"後甲里","LIN":"20鄰","STREET":"建東街","SECT":" ","MAREA":" ","LANE":" ","ALLEY":" ","HOUSE_NO":"１０號","E_COORD97":171799.82000000001,"N_COORD97":2543302.4399999999,"ADDRESS":"建東街１０號","OBJECTID":478424},"geometry":{"x":171799.8200000003,"y":2543302.4400000013}},{"attributes":{"ID":478450,"DIS_CODE":0,"TOWNNAME":"東區","LI":"後甲里","LIN":"20鄰","STREET":"建東街","SECT":" ","MAREA":" ","LANE":" ","ALLEY":" ","HOUSE_NO":"１４號","E_COORD97":171797.17000000001,"N_COORD97":2543322.8700000001,"ADDRESS":"建東街１４號","OBJECTID":478425},"geometry":{"x":171797.16999999993,"y":2543322.870000001}},{"attributes":{"ID":478451,"DIS_CODE":0,"TOWNNAME":"東區","LI":"大智里","LIN":"20鄰","STREET":"崇善十五街","SECT":" ","MAREA":" ","LANE":" ","ALLEY":" ","HOUSE_NO":"１１號","E_COORD97":171404.92000000001,"N_COORD97":2540544.3799999999,"ADDRESS":"崇善十五街１１號","OBJECTID":478426},"geometry":{"x":171404.92000000086,"y":2540544.379999999}},{"attributes":{"ID":478452,"DIS_CODE":0,"TOWNNAME":"東區","LI":"大智里","LIN":"20鄰","STREET":"崇善十五街","SECT":" ","MAREA":" ","LANE":" ","ALLEY":" ","HOUSE_NO":"１３號","E_COORD97":171398.12,"N_COORD97":2540540.71,"ADDRESS":"崇善十五街１３號","OBJECTID":478427},"geometry":{"x":171398.12000000104,"y":2540540.7100000009}},{"attributes":{"ID":478453,"DIS_CODE":0,"TOWNNAME":"東區","LI":"大智里","LIN":"20鄰","STREET":"崇善十五街","SECT":" ","MAREA":" ","LANE":" ","ALLEY":" ","HOUSE_NO":"１５號","E_COORD97":171400.51000000001,"N_COORD97":2540533.5600000001,"ADDRESS":"崇善十五街１５號","OBJECTID":478428},"geometry":{"x":171400.51000000071,"y":2540533.5600000024}},{"attributes":{"ID":478454,"DIS_CODE":0,"TOWNNAME":"東區","LI":"大智里","LIN":"20鄰","STREET":"崇善十五街","SECT":" ","MAREA":" ","LANE":" ","ALLEY":" ","HOUSE_NO":"１７號","E_COORD97":171401.98000000001,"N_COORD97":2540526.3999999999,"ADDRESS":"崇善十五街１７號","OBJECTID":478429},"geometry":{"x":171401.98000000045,"y":2540526.4000000041}},{"attributes":{"ID":478455,"DIS_CODE":0,"TOWNNAME":"東區","LI":"大智里","LIN":"20鄰","STREET":"崇善十五街","SECT":" ","MAREA":" ","LANE":" ","ALLEY":" ","HOUSE_NO":"１７號之１","E_COORD97":171380.87,"N_COORD97":2540529.8900000001,"ADDRESS":"崇善十五街１７號之１","OBJECTID":478430},"geometry":{"x":171380.87000000197,"y":2540529.8899999987}},{"attributes":{"ID":478456,"DIS_CODE":0,"TOWNNAME":"東區","LI":"大智里","LIN":"20鄰","STREET":"崇善十五街","SECT":" ","MAREA":" ","LANE":" ","ALLEY":" ","HOUSE_NO":"１９號","E_COORD97":171385.28,"N_COORD97":2540537.04,"ADDRESS":"崇善十五街１９號","OBJECTID":478431},"geometry":{"x":171385.28000000119,"y":2540537.0399999991}},{"attributes":{"ID":478457,"DIS_CODE":0,"TOWNNAME":"東區","LI":"大智里","LIN":"20鄰","STREET":"崇善十五街","SECT":" ","MAREA":" ","LANE":" ","ALLEY":" ","HOUSE_NO":"２１號","E_COORD97":171379.03,"N_COORD97":2540538.1400000001,"ADDRESS":"崇善十五街２１號","OBJECTID":478432},"geometry":{"x":171379.03000000119,"y":2540538.1400000006}},{"attributes":{"ID":478458,"DIS_CODE":0,"TOWNNAME":"東區","LI":"大智里","LIN":"20鄰","STREET":"崇善十五街","SECT":" ","MAREA":" ","LANE":" ","ALLEY":" ","HOUSE_NO":"２３號","E_COORD97":171371.14000000001,"N_COORD97":2540537.77,"ADDRESS":"崇善十五街２３號","OBJECTID":478433},"geometry":{"x":171371.13999999966,"y":2540537.7700000014}},{"attributes":{"ID":478459,"DIS_CODE":0,"TOWNNAME":"東區","LI":"大智里","LIN":"20鄰","STREET":"崇善十五街","SECT":" ","MAREA":" ","LANE":" ","ALLEY":" ","HOUSE_NO":"２５號","E_COORD97":171363.07000000001,"N_COORD97":2540537.2200000002,"ADDRESS":"崇善十五街２５號","OBJECTID":478434},"geometry":{"x":171363.07000000123,"y":2540537.2200000007}},{"attributes":{"ID":478460,"DIS_CODE":0,"TOWNNAME":"東區","LI":"大智里","LIN":"20鄰","STREET":"崇善十五街","SECT":" ","MAREA":" ","LANE":" ","ALLEY":" ","HOUSE_NO":"２７號","E_COORD97":171366.73999999999,"N_COORD97":2540531.1699999999,"ADDRESS":"崇善十五街２７號","OBJECTID":478435},"geometry":{"x":171366.74000000209,"y":2540531.1700000037}},{"attributes":{"ID":478461,"DIS_CODE":0,"TOWNNAME":"東區","LI":"大智里","LIN":"20鄰","STREET":"崇善十五街","SECT":" ","MAREA":" ","LANE":" ","ALLEY":" ","HOUSE_NO":"２９號","E_COORD97":171364.89999999999,"N_COORD97":2540523.4700000002,"ADDRESS":"崇善十五街２９號","OBJECTID":478436},"geometry":{"x":171364.90000000037,"y":2540523.4700000025}},{"attributes":{"ID":478462,"DIS_CODE":0,"TOWNNAME":"東區","LI":"大智里","LIN":"20鄰","STREET":"崇善十五街","SECT":" ","MAREA":" ","LANE":" ","ALLEY":" ","HOUSE_NO":"３５號之１","E_COORD97":171330.19,"N_COORD97":2540547.1800000002,"ADDRESS":"崇善十五街３５號之１","OBJECTID":478437},"geometry":{"x":171330.19000000134,"y":2540547.1799999997}},{"attributes":{"ID":478463,"DIS_CODE":0,"TOWNNAME":"東區","LI":"大智里","LIN":"20鄰","STREET":"崇善十五街","SECT":" ","MAREA":" ","LANE":" ","ALLEY":" ","HOUSE_NO":"３９號","E_COORD97":171316.17999999999,"N_COORD97":2540548.04,"ADDRESS":"崇善十五街３９號","OBJECTID":478438},"geometry":{"x":171316.18000000063,"y":2540548.0400000028}},{"attributes":{"ID":478464,"DIS_CODE":0,"TOWNNAME":"東區","LI":"大智里","LIN":"20鄰","STREET":"崇善十五街","SECT":" ","MAREA":" ","LANE":" ","ALLEY":" ","HOUSE_NO":"６號","E_COORD97":171421.79999999999,"N_COORD97":2540577.6499999999,"ADDRESS":"崇善十五街６號","OBJECTID":478439},"geometry":{"x":171421.80000000168,"y":2540577.6500000004}},{"attributes":{"ID":478465,"DIS_CODE":0,"TOWNNAME":"東區","LI":"大智里","LIN":"20鄰","STREET":"崇善十五街","SECT":" ","MAREA":" ","LANE":" ","ALLEY":" ","HOUSE_NO":"８號","E_COORD97":171417.57999999999,"N_COORD97":2540574.3500000001,"ADDRESS":"崇善十五街８號","OBJECTID":478440},"geometry":{"x":171417.58000000101,"y":2540574.3500000015}},{"attributes":{"ID":478466,"DIS_CODE":0,"TOWNNAME":"東區","LI":"大智里","LIN":"20鄰","STREET":"崇善十五街","SECT":" ","MAREA":" ","LANE":" ","ALLEY":" ","HOUSE_NO":"９號","E_COORD97":171411.89000000001,"N_COORD97":2540545.8399999999,"ADDRESS":"崇善十五街９號","OBJECTID":478441},"geometry":{"x":171411.88999999966,"y":2540545.8399999999}},{"attributes":{"ID":478467,"DIS_CODE":0,"TOWNNAME":"仁德區","LI":"成功里","LIN":"20鄰","STREET":"保生路","SECT":" ","MAREA":" ","LANE":" ","ALLEY":" ","HOUSE_NO":"７９號","E_COORD97":170682.70000000001,"N_COORD97":2539797.3300000001,"ADDRESS":"保生路７９號","OBJECTID":478442},"geometry":{"x":170682.70000000112,"y":2539797.3300000001}},{"attributes":{"ID":478468,"DIS_CODE":0,"TOWNNAME":"仁德區","LI":"成功里","LIN":"20鄰","STREET":"保生路","SECT":" ","MAREA":" ","LANE":" ","ALLEY":" ","HOUSE_NO":"７５號","E_COORD97":170691.29000000001,"N_COORD97":2539795.5800000001,"ADDRESS":"保生路７５號","OBJECTID":478443},"geometry":{"x":170691.29000000004,"y":2539795.5800000001}},{"attributes":{"ID":478469,"DIS_CODE":0,"TOWNNAME":"永康區","LI":"五王里","LIN":"20鄰","STREET":"中華路","SECT":" ","MAREA":" ","LANE":" ","ALLEY":" ","HOUSE_NO":"４６４號","E_COORD97":171342.31,"N_COORD97":2545690.8199999998,"ADDRESS":"中華路４６４號","OBJECTID":478444},"geometry":{"x":171342.31000000052,"y":2545690.8200000022}},{"attributes":{"ID":478470,"DIS_CODE":0,"TOWNNAME":"永康區","LI":"五王里","LIN":"20鄰","STREET":"成功路","SECT":" ","MAREA":" ","LANE":" ","ALLEY":" ","HOUSE_NO":"１８１號","E_COORD97":171306.89999999999,"N_COORD97":2545810.52,"ADDRESS":"成功路１８１號","OBJECTID":478445},"geometry":{"x":171306.9000000013,"y":2545810.5200000033}},{"attributes":{"ID":478471,"DIS_CODE":0,"TOWNNAME":"永康區","LI":"中華里","LIN":"20鄰","STREET":"小東路","SECT":" ","MAREA":" ","LANE":" ","ALLEY":" ","HOUSE_NO":"４７３號之４","E_COORD97":171589.01999999999,"N_COORD97":2544367.3500000001,"ADDRESS":"小東路４７３號之４","OBJECTID":478446},"geometry":{"x":171589.01999999955,"y":2544367.3500000034}},{"attributes":{"ID":478472,"DIS_CODE":0,"TOWNNAME":"永康區","LI":"五王里","LIN":"20鄰","STREET":"成功路","SECT":" ","MAREA":" ","LANE":" ","ALLEY":" ","HOUSE_NO":"１４５號","E_COORD97":171371.45999999999,"N_COORD97":2545697.02,"ADDRESS":"成功路１４５號","OBJECTID":478447},"geometry":{"x":171371.45999999996,"y":2545697.0199999996}},{"attributes":{"ID":478473,"DIS_CODE":0,"TOWNNAME":"永康區","LI":"勝利里","LIN":"20鄰","STREET":"中華一路","SECT":" ","MAREA":" ","LANE":" ","ALLEY":" ","HOUSE_NO":"２４０號","E_COORD97":171395.07000000001,"N_COORD97":2544986.75,"ADDRESS":"中華一路２４０號","OBJECTID":478448},"geometry":{"x":171395.07000000216,"y":2544986.7500000019}},{"attributes":{"ID":478474,"DIS_CODE":0,"TOWNNAME":"安南區","LI":"安富里","LIN":"20鄰","STREET":"安富街","SECT":" ","MAREA":" ","LANE":" ","ALLEY":" ","HOUSE_NO":"１９６號","E_COORD97":167700.98999999999,"N_COORD97":2547494.9700000002,"ADDRESS":"安富街１９６號","OBJECTID":478449},"geometry":{"x":167700.99000000022,"y":2547494.9700000025}},{"attributes":{"ID":478475,"DIS_CODE":0,"TOWNNAME":"安南區","LI":"安富里","LIN":"20鄰","STREET":"安富街","SECT":" ","MAREA":" ","LANE":" ","ALLEY":" ","HOUSE_NO":"１９８號","E_COORD97":167695.94,"N_COORD97":2547493.8199999998,"ADDRESS":"安富街１９８號","OBJECTID":478450},"geometry":{"x":167695.94000000134,"y":2547493.8200000003}},{"attributes":{"ID":478476,"DIS_CODE":0,"TOWNNAME":"安南區","LI":"安富里","LIN":"20鄰","STREET":"安富街","SECT":" ","MAREA":" ","LANE":" ","ALLEY":" ","HOUSE_NO":"１７２號","E_COORD97":167758.32999999999,"N_COORD97":2547506.4199999999,"ADDRESS":"安富街１７２號","OBJECTID":478451},"geometry":{"x":167758.33000000007,"y":2547506.4199999981}},{"attributes":{"ID":478477,"DIS_CODE":0,"TOWNNAME":"安南區","LI":"安富里","LIN":"20鄰","STREET":"安富街","SECT":" ","MAREA":" ","LANE":" ","ALLEY":" ","HOUSE_NO":"１７４號","E_COORD97":167753.29000000001,"N_COORD97":2547504.3599999999,"ADDRESS":"安富街１７４號","OBJECTID":478452},"geometry":{"x":167753.29000000004,"y":2547504.3600000013}},{"attributes":{"ID":478478,"DIS_CODE":0,"TOWNNAME":"安南區","LI":"安富里","LIN":"20鄰","STREET":"安富街","SECT":" ","MAREA":" ","LANE":" ","ALLEY":" ","HOUSE_NO":"１７６號","E_COORD97":167748.70000000001,"N_COORD97":2547502.52,"ADDRESS":"安富街１７６號","OBJECTID":478453},"geometry":{"x":167748.70000000019,"y":2547502.5200000014}},{"attributes":{"ID":478479,"DIS_CODE":0,"TOWNNAME":"安南區","LI":"安富里","LIN":"20鄰","STREET":"安富街","SECT":" ","MAREA":" ","LANE":" ","ALLEY":" ","HOUSE_NO":"１７８號","E_COORD97":167743.42000000001,"N_COORD97":2547504.5899999999,"ADDRESS":"安富街１７８號","OBJECTID":478454},"geometry":{"x":167743.41999999993,"y":2547504.5899999999}},{"attributes":{"ID":478480,"DIS_CODE":0,"TOWNNAME":"安南區","LI":"安富里","LIN":"20鄰","STREET":"安富街","SECT":" ","MAREA":" ","LANE":" ","ALLEY":" ","HOUSE_NO":"１８０號","E_COORD97":167739.06,"N_COORD97":2547502.2999999998,"ADDRESS":"安富街１８０號","OBJECTID":478455},"geometry":{"x":167739.05999999959,"y":2547502.3000000026}},{"attributes":{"ID":478481,"DIS_CODE":0,"TOWNNAME":"安南區","LI":"安富里","LIN":"20鄰","STREET":"安富街","SECT":" ","MAREA":" ","LANE":" ","ALLEY":" ","HOUSE_NO":"１８２號","E_COORD97":167734.01999999999,"N_COORD97":2547503.8999999999,"ADDRESS":"安富街１８２號","OBJECTID":478456},"geometry":{"x":167734.01999999955,"y":2547503.9000000041}},{"attributes":{"ID":478482,"DIS_CODE":0,"TOWNNAME":"安南區","LI":"安富里","LIN":"20鄰","STREET":"安富街","SECT":" ","MAREA":" ","LANE":" ","ALLEY":" ","HOUSE_NO":"１８４號","E_COORD97":167729.89000000001,"N_COORD97":2547502.0699999998,"ADDRESS":"安富街１８４號","OBJECTID":478457},"geometry":{"x":167729.88999999966,"y":2547502.0700000003}},{"attributes":{"ID":478483,"DIS_CODE":0,"TOWNNAME":"安南區","LI":"安富里","LIN":"20鄰","STREET":"安富街","SECT":" ","MAREA":" ","LANE":" ","ALLEY":" ","HOUSE_NO":"１８６號","E_COORD97":167724.38,"N_COORD97":2547500.23,"ADDRESS":"安富街１８６號","OBJECTID":478458},"geometry":{"x":167724.38000000082,"y":2547500.2300000004}},{"attributes":{"ID":478484,"DIS_CODE":0,"TOWNNAME":"安南區","LI":"安富里","LIN":"20鄰","STREET":"安富街","SECT":" ","MAREA":" ","LANE":" ","ALLEY":" ","HOUSE_NO":"１８８號","E_COORD97":167719.79999999999,"N_COORD97":2547498.6299999999,"ADDRESS":"安富街１８８號","OBJECTID":478459},"geometry":{"x":167719.80000000075,"y":2547498.6300000008}},{"attributes":{"ID":478485,"DIS_CODE":0,"TOWNNAME":"安南區","LI":"安富里","LIN":"20鄰","STREET":"安富街","SECT":" ","MAREA":" ","LANE":" ","ALLEY":" ","HOUSE_NO":"１９０號","E_COORD97":167715.44,"N_COORD97":2547496.7999999998,"ADDRESS":"安富街１９０號","OBJECTID":478460},"geometry":{"x":167715.44000000041,"y":2547496.8000000007}},{"attributes":{"ID":478486,"DIS_CODE":0,"TOWNNAME":"安南區","LI":"安富里","LIN":"20鄰","STREET":"安富街","SECT":" ","MAREA":" ","LANE":" ","ALLEY":" ","HOUSE_NO":"１９２號","E_COORD97":167710.39000000001,"N_COORD97":2547497.7200000002,"ADDRESS":"安富街１９２號","OBJECTID":478461},"geometry":{"x":167710.3900000006,"y":2547497.7200000007}},{"attributes":{"ID":478487,"DIS_CODE":0,"TOWNNAME":"安南區","LI":"安富里","LIN":"20鄰","STREET":"安富街","SECT":" ","MAREA":" ","LANE":" ","ALLEY":" ","HOUSE_NO":"１９４號","E_COORD97":167705.79999999999,"N_COORD97":2547496.7999999998,"ADDRESS":"安富街１９４號","OBJECTID":478462},"geometry":{"x":167705.79999999888,"y":2547496.8000000007}},{"attributes":{"ID":478488,"DIS_CODE":0,"TOWNNAME":"安南區","LI":"安富里","LIN":"20鄰","STREET":"安富街","SECT":" ","MAREA":" ","LANE":" ","ALLEY":" ","HOUSE_NO":"２０２號","E_COORD97":167680.14000000001,"N_COORD97":2547489.6899999999,"ADDRESS":"安富街２０２號","OBJECTID":478463},"geometry":{"x":167680.1400000006,"y":2547489.6899999995}},{"attributes":{"ID":478489,"DIS_CODE":0,"TOWNNAME":"安南區","LI":"安富里","LIN":"20鄰","STREET":"安富街","SECT":" ","MAREA":" ","LANE":" ","ALLEY":" ","HOUSE_NO":"２０８號","E_COORD97":167665.69,"N_COORD97":2547485.3399999999,"ADDRESS":"安富街２０８號","OBJECTID":478464},"geometry":{"x":167665.69000000134,"y":2547485.3399999999}},{"attributes":{"ID":478490,"DIS_CODE":0,"TOWNNAME":"安南區","LI":"安富里","LIN":"20鄰","STREET":"安富街","SECT":" ","MAREA":" ","LANE":" ","ALLEY":" ","HOUSE_NO":"２１０號","E_COORD97":167661.79000000001,"N_COORD97":2547482.3599999999,"ADDRESS":"安富街２１０號","OBJECTID":478465},"geometry":{"x":167661.79000000004,"y":2547482.3599999994}},{"attributes":{"ID":478491,"DIS_CODE":0,"TOWNNAME":"安南區","LI":"安富里","LIN":"20鄰","STREET":"安富街","SECT":" ","MAREA":" ","LANE":" ","ALLEY":" ","HOUSE_NO":"２１２號","E_COORD97":167656.29000000001,"N_COORD97":2547484.8799999999,"ADDRESS":"安富街２１２號","OBJECTID":478466},"geometry":{"x":167656.29000000004,"y":2547484.879999999}},{"attributes":{"ID":478492,"DIS_CODE":0,"TOWNNAME":"安南區","LI":"安富里","LIN":"20鄰","STREET":"安富街","SECT":" ","MAREA":" ","LANE":" ","ALLEY":" ","HOUSE_NO":"２２２號","E_COORD97":167634.75,"N_COORD97":2547478.6000000001,"ADDRESS":"安富街２２２號","OBJECTID":478467},"geometry":{"x":167634.75,"y":2547478.6000000015}},{"attributes":{"ID":478493,"DIS_CODE":0,"TOWNNAME":"安南區","LI":"安富里","LIN":"20鄰","STREET":"安富街","SECT":" ","MAREA":" ","LANE":" ","ALLEY":" ","HOUSE_NO":"２２６號","E_COORD97":167628.53,"N_COORD97":2547476.5699999998,"ADDRESS":"安富街２２６號","OBJECTID":478468},"geometry":{"x":167628.53000000212,"y":2547476.5700000022}},{"attributes":{"ID":478494,"DIS_CODE":0,"TOWNNAME":"安南區","LI":"安富里","LIN":"20鄰","STREET":"安富街","SECT":" ","MAREA":" ","LANE":" ","ALLEY":" ","HOUSE_NO":"２３４號","E_COORD97":167614.95000000001,"N_COORD97":2547470.5099999998,"ADDRESS":"安富街２３４號","OBJECTID":478469},"geometry":{"x":167614.95000000019,"y":2547470.5099999998}},{"attributes":{"ID":478495,"DIS_CODE":0,"TOWNNAME":"安南區","LI":"安富里","LIN":"20鄰","STREET":"安富街","SECT":" ","MAREA":" ","LANE":" ","ALLEY":" ","HOUSE_NO":"２３８號","E_COORD97":167608.39999999999,"N_COORD97":2547470.2599999998,"ADDRESS":"安富街２３８號","OBJECTID":478470},"geometry":{"x":167608.40000000037,"y":2547470.2600000035}},{"attributes":{"ID":478496,"DIS_CODE":0,"TOWNNAME":"永康區","LI":"勝利里","LIN":"20鄰","STREET":"勝學路","SECT":" ","MAREA":" ","LANE":" ","ALLEY":" ","HOUSE_NO":"２５７號","E_COORD97":171180.5,"N_COORD97":2545280.5099999998,"ADDRESS":"勝學路２５７號","OBJECTID":478471},"geometry":{"x":171180.50000000093,"y":2545280.5099999998}},{"attributes":{"ID":478497,"DIS_CODE":0,"TOWNNAME":"中西區","LI":"萬昌里","LIN":"20鄰","STREET":"萬昌街","SECT":" ","MAREA":" ","LANE":" ","ALLEY":" ","HOUSE_NO":"７９號","E_COORD97":169040.95999999999,"N_COORD97":2543526.79,"ADDRESS":"萬昌街７９號","OBJECTID":478472},"geometry":{"x":169040.96000000089,"y":2543526.790000001}},{"attributes":{"ID":478498,"DIS_CODE":0,"TOWNNAME":"永康區","LI":"勝利里","LIN":"20鄰","STREET":"勝華街","SECT":" ","MAREA":" ","LANE":" ","ALLEY":" ","HOUSE_NO":"８１號","E_COORD97":171287.26999999999,"N_COORD97":2545205.7599999998,"ADDRESS":"勝華街８１號","OBJECTID":478473},"geometry":{"x":171287.26999999955,"y":2545205.7600000035}},{"attributes":{"ID":478499,"DIS_CODE":0,"TOWNNAME":"永康區","LI":"烏竹里","LIN":"20鄰","STREET":"自強路","SECT":" ","MAREA":" ","LANE":" ","ALLEY":" ","HOUSE_NO":"８０３號","E_COORD97":174537.04999999999,"N_COORD97":2548612.0699999998,"ADDRESS":"自強路８０３號","OBJECTID":478474},"geometry":{"x":174537.04999999981,"y":2548612.0700000022}},{"attributes":{"ID":478500,"DIS_CODE":0,"TOWNNAME":"永康區","LI":"勝利里","LIN":"20鄰","STREET":"勝華街","SECT":" ","MAREA":" ","LANE":" ","ALLEY":" ","HOUSE_NO":"１３６號","E_COORD97":171237.56,"N_COORD97":2545220,"ADDRESS":"勝華街１３６號","OBJECTID":478475},"geometry":{"x":171237.55999999959,"y":2545220}},{"attributes":{"ID":478501,"DIS_CODE":0,"TOWNNAME":"永康區","LI":"勝利里","LIN":"20鄰","STREET":"勝華街","SECT":" ","MAREA":" ","LANE":" ","ALLEY":" ","HOUSE_NO":"７５號","E_COORD97":171300.17999999999,"N_COORD97":2545205.5099999998,"ADDRESS":"勝華街７５號","OBJECTID":478476},"geometry":{"x":171300.1799999997,"y":2545205.5099999998}},{"attributes":{"ID":478502,"DIS_CODE":0,"TOWNNAME":"永康區","LI":"勝利里","LIN":"20鄰","STREET":"勝學路","SECT":" ","MAREA":" ","LANE":" ","ALLEY":" ","HOUSE_NO":"２５９號","E_COORD97":171180.5,"N_COORD97":2545285.0099999998,"ADDRESS":"勝學路２５９號","OBJECTID":478477},"geometry":{"x":171180.50000000093,"y":2545285.0099999979}},{"attributes":{"ID":478503,"DIS_CODE":0,"TOWNNAME":"永康區","LI":"烏竹里","LIN":"20鄰","STREET":"自強路","SECT":" ","MAREA":" ","LANE":" ","ALLEY":" ","HOUSE_NO":"７９１號","E_COORD97":174518.17000000001,"N_COORD97":2548596.5699999998,"ADDRESS":"自強路７９１號","OBJECTID":478478},"geometry":{"x":174518.17000000179,"y":2548596.5700000003}},{"attributes":{"ID":478504,"DIS_CODE":0,"TOWNNAME":"永康區","LI":"勝利里","LIN":"20鄰","STREET":"勝華街","SECT":" ","MAREA":" ","LANE":" ","ALLEY":" ","HOUSE_NO":"６９號","E_COORD97":171333.32000000001,"N_COORD97":2545205.2999999998,"ADDRESS":"勝華街６９號","OBJECTID":478479},"geometry":{"x":171333.3200000003,"y":2545205.3000000007}},{"attributes":{"ID":478505,"DIS_CODE":0,"TOWNNAME":"永康區","LI":"勝利里","LIN":"20鄰","STREET":"勝華街","SECT":" ","MAREA":" ","LANE":" ","ALLEY":" ","HOUSE_NO":"９７號","E_COORD97":171253.26999999999,"N_COORD97":2545205.0099999998,"ADDRESS":"勝華街９７號","OBJECTID":478480},"geometry":{"x":171253.26999999955,"y":2545205.0100000016}},{"attributes":{"ID":478506,"DIS_CODE":0,"TOWNNAME":"永康區","LI":"勝利里","LIN":"20鄰","STREET":"勝學路","SECT":" ","MAREA":" ","LANE":" ","ALLEY":" ","HOUSE_NO":"２５２號","E_COORD97":171201.89999999999,"N_COORD97":2545260.75,"ADDRESS":"勝學路２５２號","OBJECTID":478481},"geometry":{"x":171201.9000000013,"y":2545260.7500000019}},{"attributes":{"ID":478507,"DIS_CODE":0,"TOWNNAME":"永康區","LI":"勝利里","LIN":"20鄰","STREET":"勝華街","SECT":" ","MAREA":" ","LANE":" ","ALLEY":" ","HOUSE_NO":"９３號","E_COORD97":171261.14000000001,"N_COORD97":2545205.5099999998,"ADDRESS":"勝華街９３號","OBJECTID":478482},"geometry":{"x":171261.13999999966,"y":2545205.5099999998}},{"attributes":{"ID":478508,"DIS_CODE":0,"TOWNNAME":"永康區","LI":"網寮里","LIN":"20鄰","STREET":"文化路","SECT":" ","MAREA":" ","LANE":" ","ALLEY":" ","HOUSE_NO":"３４３號","E_COORD97":173383.87,"N_COORD97":2546178.5899999999,"ADDRESS":"文化路３４３號","OBJECTID":478483},"geometry":{"x":173383.87000000011,"y":2546178.5899999999}},{"attributes":{"ID":478509,"DIS_CODE":0,"TOWNNAME":"永康區","LI":"網寮里","LIN":"20鄰","STREET":"文化路","SECT":" ","MAREA":" ","LANE":" ","ALLEY":" ","HOUSE_NO":"３４５號","E_COORD97":173380.01000000001,"N_COORD97":2546181.1899999999,"ADDRESS":"文化路３４５號","OBJECTID":478484},"geometry":{"x":173380.01000000164,"y":2546181.1899999995}},{"attributes":{"ID":478510,"DIS_CODE":0,"TOWNNAME":"永康區","LI":"網寮里","LIN":"20鄰","STREET":"文化路","SECT":" ","MAREA":" ","LANE":" ","ALLEY":" ","HOUSE_NO":"３４７號","E_COORD97":173376.57000000001,"N_COORD97":2546184.04,"ADDRESS":"文化路３４７號","OBJECTID":478485},"geometry":{"x":173376.56999999937,"y":2546184.040000001}},{"attributes":{"ID":478511,"DIS_CODE":0,"TOWNNAME":"永康區","LI":"網寮里","LIN":"20鄰","STREET":"文化路","SECT":" ","MAREA":" ","LANE":" ","ALLEY":" ","HOUSE_NO":"３４９號","E_COORD97":173372.79000000001,"N_COORD97":2546186.8900000001,"ADDRESS":"文化路３４９號","OBJECTID":478486},"geometry":{"x":173372.79000000004,"y":2546186.8900000025}},{"attributes":{"ID":478512,"DIS_CODE":0,"TOWNNAME":"中西區","LI":"西賢里","LIN":"20鄰","STREET":"西賢一街","SECT":" ","MAREA":" ","LANE":" ","ALLEY":" ","HOUSE_NO":"１３９之１號","E_COORD97":165658.98000000001,"N_COORD97":2544826.4500000002,"ADDRESS":"西賢一街１３９之１號","OBJECTID":478487},"geometry":{"x":165658.98000000045,"y":2544826.4499999993}},{"attributes":{"ID":478513,"DIS_CODE":0,"TOWNNAME":"中西區","LI":"西賢里","LIN":"20鄰","STREET":"西賢一街","SECT":" ","MAREA":" ","LANE":" ","ALLEY":" ","HOUSE_NO":"１４１號","E_COORD97":165678.28,"N_COORD97":2544839.1499999999,"ADDRESS":"西賢一街１４１號","OBJECTID":478488},"geometry":{"x":165678.28000000026,"y":2544839.1500000004}},{"attributes":{"ID":478514,"DIS_CODE":0,"TOWNNAME":"中西區","LI":"西賢里","LIN":"20鄰","STREET":"西賢一街","SECT":" ","MAREA":" ","LANE":" ","ALLEY":" ","HOUSE_NO":"１４３號","E_COORD97":165677.64000000001,"N_COORD97":2544843.46,"ADDRESS":"西賢一街１４３號","OBJECTID":478489},"geometry":{"x":165677.64000000153,"y":2544843.4600000028}},{"attributes":{"ID":478515,"DIS_CODE":0,"TOWNNAME":"中西區","LI":"西賢里","LIN":"20鄰","STREET":"西賢一街","SECT":" ","MAREA":" ","LANE":" ","ALLEY":" ","HOUSE_NO":"１４５號","E_COORD97":165676.98999999999,"N_COORD97":2544847.5600000001,"ADDRESS":"西賢一街１４５號","OBJECTID":478490},"geometry":{"x":165676.99000000022,"y":2544847.5600000005}},{"attributes":{"ID":478516,"DIS_CODE":0,"TOWNNAME":"中西區","LI":"西賢里","LIN":"20鄰","STREET":"西賢一街","SECT":" ","MAREA":" ","LANE":" ","ALLEY":" ","HOUSE_NO":"１４７號","E_COORD97":165676.56,"N_COORD97":2544851.8799999999,"ADDRESS":"西賢一街１４７號","OBJECTID":478491},"geometry":{"x":165676.56000000145,"y":2544851.8800000008}},{"attributes":{"ID":478517,"DIS_CODE":0,"TOWNNAME":"中西區","LI":"西賢里","LIN":"20鄰","STREET":"西賢一街","SECT":" ","MAREA":" ","LANE":" ","ALLEY":" ","HOUSE_NO":"１４９號","E_COORD97":165676.76999999999,"N_COORD97":2544856.4100000001,"ADDRESS":"西賢一街１４９號","OBJECTID":478492},"geometry":{"x":165676.77000000142,"y":2544856.410000002}},{"attributes":{"ID":478518,"DIS_CODE":0,"TOWNNAME":"中西區","LI":"西賢里","LIN":"20鄰","STREET":"西賢一街","SECT":" ","MAREA":" ","LANE":" ","ALLEY":" ","HOUSE_NO":"１５１號","E_COORD97":165676.98999999999,"N_COORD97":2544860.9399999999,"ADDRESS":"西賢一街１５１號","OBJECTID":478493},"geometry":{"x":165676.99000000022,"y":2544860.9399999995}},{"attributes":{"ID":478519,"DIS_CODE":0,"TOWNNAME":"中西區","LI":"西賢里","LIN":"20鄰","STREET":"西賢一街","SECT":" ","MAREA":" ","LANE":" ","ALLEY":" ","HOUSE_NO":"１５３號","E_COORD97":165678.92999999999,"N_COORD97":2544865.2599999998,"ADDRESS":"西賢一街１５３號","OBJECTID":478494},"geometry":{"x":165678.9299999997,"y":2544865.2599999998}},{"attributes":{"ID":478520,"DIS_CODE":0,"TOWNNAME":"中西區","LI":"西賢里","LIN":"20鄰","STREET":"西賢一街","SECT":" ","MAREA":" ","LANE":" ","ALLEY":" ","HOUSE_NO":"１５５號","E_COORD97":165676.98999999999,"N_COORD97":2544870.0099999998,"ADDRESS":"西賢一街１５５號","OBJECTID":478495},"geometry":{"x":165676.99000000022,"y":2544870.0099999998}},{"attributes":{"ID":478521,"DIS_CODE":0,"TOWNNAME":"中西區","LI":"西賢里","LIN":"20鄰","STREET":"西賢一街","SECT":" ","MAREA":" ","LANE":" ","ALLEY":" ","HOUSE_NO":"１５７號","E_COORD97":165677.42000000001,"N_COORD97":2544874.3199999998,"ADDRESS":"西賢一街１５７號","OBJECTID":478496},"geometry":{"x":165677.41999999993,"y":2544874.3200000022}},{"attributes":{"ID":478522,"DIS_CODE":0,"TOWNNAME":"中西區","LI":"西賢里","LIN":"20鄰","STREET":"西賢一街","SECT":" ","MAREA":" ","LANE":" ","ALLEY":" ","HOUSE_NO":"１６１號","E_COORD97":165676.01999999999,"N_COORD97":2544887.3700000001,"ADDRESS":"西賢一街１６１號","OBJECTID":478497},"geometry":{"x":165676.01999999955,"y":2544887.3700000048}},{"attributes":{"ID":478523,"DIS_CODE":0,"TOWNNAME":"中西區","LI":"西賢里","LIN":"20鄰","STREET":"西賢一街","SECT":" ","MAREA":" ","LANE":" ","ALLEY":" ","HOUSE_NO":"１６３號","E_COORD97":165675.75,"N_COORD97":2544890.6000000001,"ADDRESS":"西賢一街１６３號","OBJECTID":478498},"geometry":{"x":165675.75000000093,"y":2544890.5999999996}},{"attributes":{"ID":478524,"DIS_CODE":0,"TOWNNAME":"中西區","LI":"西賢里","LIN":"20鄰","STREET":"西賢一街","SECT":" ","MAREA":" ","LANE":" ","ALLEY":" ","HOUSE_NO":"１６５號","E_COORD97":165676.56,"N_COORD97":2544896.5099999998,"ADDRESS":"西賢一街１６５號","OBJECTID":478499},"geometry":{"x":165676.56000000145,"y":2544896.5100000016}},{"attributes":{"ID":478525,"DIS_CODE":0,"TOWNNAME":"中西區","LI":"西賢里","LIN":"20鄰","STREET":"西賢一街","SECT":" ","MAREA":" ","LANE":" ","ALLEY":" ","HOUSE_NO":"１６７號","E_COORD97":165676.56,"N_COORD97":2544901.0800000001,"ADDRESS":"西賢一街１６７號","OBJECTID":478500},"geometry":{"x":165676.56000000145,"y":2544901.0800000001}},{"attributes":{"ID":478526,"DIS_CODE":0,"TOWNNAME":"中西區","LI":"西賢里","LIN":"20鄰","STREET":"西賢一街","SECT":" ","MAREA":" ","LANE":" ","ALLEY":" ","HOUSE_NO":"１６９號","E_COORD97":165676.29000000001,"N_COORD97":2544905.3799999999,"ADDRESS":"西賢一街１６９號","OBJECTID":478501},"geometry":{"x":165676.29000000004,"y":2544905.3800000027}},{"attributes":{"ID":478527,"DIS_CODE":0,"TOWNNAME":"中西區","LI":"西賢里","LIN":"20鄰","STREET":"西賢一街","SECT":" ","MAREA":" ","LANE":" ","ALLEY":" ","HOUSE_NO":"１７１號","E_COORD97":165676.01999999999,"N_COORD97":2544908.6099999999,"ADDRESS":"西賢一街１７１號","OBJECTID":478502},"geometry":{"x":165676.01999999955,"y":2544908.6100000013}},{"attributes":{"ID":478528,"DIS_CODE":0,"TOWNNAME":"中西區","LI":"西賢里","LIN":"20鄰","STREET":"西賢一街","SECT":" ","MAREA":" ","LANE":" ","ALLEY":" ","HOUSE_NO":"１７３號","E_COORD97":165675.48000000001,"N_COORD97":2544913.1800000002,"ADDRESS":"西賢一街１７３號","OBJECTID":478503},"geometry":{"x":165675.48000000045,"y":2544913.1799999997}},{"attributes":{"ID":478529,"DIS_CODE":0,"TOWNNAME":"中西區","LI":"西賢里","LIN":"20鄰","STREET":"西賢一街","SECT":" ","MAREA":" ","LANE":" ","ALLEY":" ","HOUSE_NO":"１７５號","E_COORD97":165674.95999999999,"N_COORD97":2544918.1499999999,"ADDRESS":"西賢一街１７５號","OBJECTID":478504},"geometry":{"x":165674.96000000089,"y":2544918.1500000004}},{"attributes":{"ID":478530,"DIS_CODE":0,"TOWNNAME":"中西區","LI":"西賢里","LIN":"20鄰","STREET":"西賢一街","SECT":" ","MAREA":" ","LANE":" ","ALLEY":" ","HOUSE_NO":"１７７號","E_COORD97":165675.35000000001,"N_COORD97":2544921.79,"ADDRESS":"西賢一街１７７號","OBJECTID":478505},"geometry":{"x":165675.35000000056,"y":2544921.7899999991}},{"attributes":{"ID":478531,"DIS_CODE":0,"TOWNNAME":"中西區","LI":"西賢里","LIN":"20鄰","STREET":"西賢一街","SECT":" ","MAREA":" ","LANE":" ","ALLEY":" ","HOUSE_NO":"１７９號","E_COORD97":165675.35000000001,"N_COORD97":2544926.79,"ADDRESS":"西賢一街１７９號","OBJECTID":478506},"geometry":{"x":165675.35000000056,"y":2544926.7900000028}},{"attributes":{"ID":478532,"DIS_CODE":0,"TOWNNAME":"中西區","LI":"西賢里","LIN":"20鄰","STREET":"西賢一街","SECT":" ","MAREA":" ","LANE":" ","ALLEY":" ","HOUSE_NO":"１８１號","E_COORD97":165674.39000000001,"N_COORD97":2544930.8199999998,"ADDRESS":"西賢一街１８１號","OBJECTID":478507},"geometry":{"x":165674.39000000153,"y":2544930.8199999984}},{"attributes":{"ID":478533,"DIS_CODE":0,"TOWNNAME":"中西區","LI":"西賢里","LIN":"20鄰","STREET":"西賢一街","SECT":" ","MAREA":" ","LANE":" ","ALLEY":" ","HOUSE_NO":"１８３號","E_COORD97":165674.57999999999,"N_COORD97":2544934.8500000001,"ADDRESS":"西賢一街１８３號","OBJECTID":478508},"geometry":{"x":165674.58000000007,"y":2544934.8500000015}},{"attributes":{"ID":478534,"DIS_CODE":0,"TOWNNAME":"中西區","LI":"西賢里","LIN":"20鄰","STREET":"西賢一街","SECT":" ","MAREA":" ","LANE":" ","ALLEY":" ","HOUSE_NO":"１８５號","E_COORD97":165673.42999999999,"N_COORD97":2544938.8900000001,"ADDRESS":"西賢一街１８５號","OBJECTID":478509},"geometry":{"x":165673.4299999997,"y":2544938.8900000025}},{"attributes":{"ID":478535,"DIS_CODE":0,"TOWNNAME":"東區","LI":"大智里","LIN":"20鄰","STREET":"崇善十五街","SECT":" ","MAREA":" ","LANE":" ","ALLEY":" ","HOUSE_NO":"４３號","E_COORD97":171307.07999999999,"N_COORD97":2540547.9199999999,"ADDRESS":"崇善十五街４３號","OBJECTID":478510},"geometry":{"x":171307.08000000101,"y":2540547.9199999999}},{"attributes":{"ID":478536,"DIS_CODE":0,"TOWNNAME":"東區","LI":"大智里","LIN":"20鄰","STREET":"崇善十五街","SECT":" ","MAREA":" ","LANE":" ","ALLEY":" ","HOUSE_NO":"４５號","E_COORD97":171301.67999999999,"N_COORD97":2540547.9199999999,"ADDRESS":"崇善十五街４５號","OBJECTID":478511},"geometry":{"x":171301.6799999997,"y":2540547.9199999999}},{"attributes":{"ID":478537,"DIS_CODE":0,"TOWNNAME":"東區","LI":"崇德里","LIN":"20鄰","STREET":"崇明十四街","SECT":" ","MAREA":" ","LANE":" ","ALLEY":" ","HOUSE_NO":"２號","E_COORD97":170546.07999999999,"N_COORD97":2541497.7200000002,"ADDRESS":"崇明十四街２號","OBJECTID":478512},"geometry":{"x":170546.08000000101,"y":2541497.7200000044}},{"attributes":{"ID":478538,"DIS_CODE":0,"TOWNNAME":"東區","LI":"衛國里","LIN":"20鄰","STREET":"林森路","SECT":"二段","MAREA":" ","LANE":" ","ALLEY":" ","HOUSE_NO":"１７８號","E_COORD97":170458.45999999999,"N_COORD97":2543264.2799999998,"ADDRESS":"林森路二段１７８號","OBJECTID":478513},"geometry":{"x":170458.46000000089,"y":2543264.2799999993}},{"attributes":{"ID":478539,"DIS_CODE":0,"TOWNNAME":"東區","LI":"衛國里","LIN":"20鄰","STREET":"林森路","SECT":"二段","MAREA":" ","LANE":" ","ALLEY":" ","HOUSE_NO":"１７６號","E_COORD97":170455.19,"N_COORD97":2543263.8900000001,"ADDRESS":"林森路二段１７６號","OBJECTID":478514},"geometry":{"x":170455.19000000227,"y":2543263.8900000025}},{"attributes":{"ID":478540,"DIS_CODE":0,"TOWNNAME":"東區","LI":"衛國里","LIN":"20鄰","STREET":"林森路","SECT":"二段","MAREA":" ","LANE":" ","ALLEY":" ","HOUSE_NO":"１７４號","E_COORD97":170451.17000000001,"N_COORD97":2543263.5099999998,"ADDRESS":"林森路二段１７４號","OBJECTID":478515},"geometry":{"x":170451.16999999993,"y":2543263.5099999998}},{"attributes":{"ID":478541,"DIS_CODE":0,"TOWNNAME":"東區","LI":"泉南里","LIN":"20鄰","STREET":"府連東路","SECT":" ","MAREA":" ","LANE":" ","ALLEY":" ","HOUSE_NO":"１４號","E_COORD97":169717.76000000001,"N_COORD97":2542782.0800000001,"ADDRESS":"府連東路１４號","OBJECTID":478516},"geometry":{"x":169717.75999999978,"y":2542782.0800000001}},{"attributes":{"ID":478542,"DIS_CODE":0,"TOWNNAME":"中西區","LI":"萬昌里","LIN":"20鄰","STREET":"萬昌街","SECT":" ","MAREA":" ","LANE":" ","ALLEY":" ","HOUSE_NO":"７３號","E_COORD97":169040.01999999999,"N_COORD97":2543515.5099999998,"ADDRESS":"萬昌街７３號","OBJECTID":478517},"geometry":{"x":169040.02000000142,"y":2543515.5100000035}},{"attributes":{"ID":478543,"DIS_CODE":0,"TOWNNAME":"中西區","LI":"萬昌里","LIN":"20鄰","STREET":"萬昌街","SECT":" ","MAREA":" ","LANE":" ","ALLEY":" ","HOUSE_NO":"８１號","E_COORD97":169041.17000000001,"N_COORD97":2543529.9300000002,"ADDRESS":"萬昌街８１號","OBJECTID":478518},"geometry":{"x":169041.17000000086,"y":2543529.9300000016}},{"attributes":{"ID":478544,"DIS_CODE":0,"TOWNNAME":"中西區","LI":"萬昌里","LIN":"20鄰","STREET":"萬昌街","SECT":" ","MAREA":" ","LANE":" ","ALLEY":" ","HOUSE_NO":"８３號","E_COORD97":169044.20000000001,"N_COORD97":2543536.98,"ADDRESS":"萬昌街８３號","OBJECTID":478519},"geometry":{"x":169044.20000000019,"y":2543536.9800000023}},{"attributes":{"ID":478545,"DIS_CODE":0,"TOWNNAME":"中西區","LI":"萬昌里","LIN":"20鄰","STREET":"萬昌街","SECT":" ","MAREA":" ","LANE":" ","ALLEY":" ","HOUSE_NO":"８５號","E_COORD97":169044.92999999999,"N_COORD97":2543540.6299999999,"ADDRESS":"萬昌街８５號","OBJECTID":478520},"geometry":{"x":169044.93000000063,"y":2543540.6299999971}},{"attributes":{"ID":478546,"DIS_CODE":0,"TOWNNAME":"中西區","LI":"萬昌里","LIN":"20鄰","STREET":"萬昌街","SECT":" ","MAREA":" ","LANE":" ","ALLEY":" ","HOUSE_NO":"８７號","E_COORD97":169045.14000000001,"N_COORD97":2543543.8700000001,"ADDRESS":"萬昌街８７號","OBJECTID":478521},"geometry":{"x":169045.1400000006,"y":2543543.870000001}},{"attributes":{"ID":478547,"DIS_CODE":0,"TOWNNAME":"中西區","LI":"公正里","LIN":"20鄰","STREET":"中山路","SECT":" ","MAREA":" ","LANE":" ","ALLEY":" ","HOUSE_NO":"７０號","E_COORD97":168723.89000000001,"N_COORD97":2543811.3399999999,"ADDRESS":"中山路７０號","OBJECTID":478522},"geometry":{"x":168723.89000000153,"y":2543811.339999998}},{"attributes":{"ID":478548,"DIS_CODE":0,"TOWNNAME":"中西區","LI":"公正里","LIN":"20鄰","STREET":"中山路","SECT":" ","MAREA":" ","LANE":" ","ALLEY":" ","HOUSE_NO":"５６號","E_COORD97":168701.92999999999,"N_COORD97":2543799.8900000001,"ADDRESS":"中山路５６號","OBJECTID":478523},"geometry":{"x":168701.93000000063,"y":2543799.8900000025}},{"attributes":{"ID":478549,"DIS_CODE":0,"TOWNNAME":"中西區","LI":"公正里","LIN":"20鄰","STREET":"中山路","SECT":" ","MAREA":" ","LANE":" ","ALLEY":" ","HOUSE_NO":"５８號","E_COORD97":168707.57999999999,"N_COORD97":2543803.4300000002,"ADDRESS":"中山路５８號","OBJECTID":478524},"geometry":{"x":168707.58000000007,"y":2543803.4299999997}},{"attributes":{"ID":478550,"DIS_CODE":0,"TOWNNAME":"中西區","LI":"公正里","LIN":"20鄰","STREET":"中山路","SECT":" ","MAREA":" ","LANE":" ","ALLEY":" ","HOUSE_NO":"６６號","E_COORD97":168730.82999999999,"N_COORD97":2543793.9199999999,"ADDRESS":"中山路６６號","OBJECTID":478525},"geometry":{"x":168730.83000000007,"y":2543793.9199999981}},{"attributes":{"ID":478551,"DIS_CODE":0,"TOWNNAME":"中西區","LI":"公正里","LIN":"20鄰","STREET":"中山路","SECT":" ","MAREA":" ","LANE":" ","ALLEY":" ","HOUSE_NO":"６８號","E_COORD97":168729.22,"N_COORD97":2543797.6299999999,"ADDRESS":"中山路６８號","OBJECTID":478526},"geometry":{"x":168729.22000000067,"y":2543797.629999999}},{"attributes":{"ID":478552,"DIS_CODE":0,"TOWNNAME":"中西區","LI":"公正里","LIN":"20鄰","STREET":"中山路","SECT":" ","MAREA":" ","LANE":" ","ALLEY":" ","HOUSE_NO":"７４號","E_COORD97":168730.35000000001,"N_COORD97":2543815.3700000001,"ADDRESS":"中山路７４號","OBJECTID":478527},"geometry":{"x":168730.34999999963,"y":2543815.370000001}},{"attributes":{"ID":478553,"DIS_CODE":0,"TOWNNAME":"中西區","LI":"公正里","LIN":"20鄰","STREET":"中山路","SECT":" ","MAREA":" ","LANE":" ","ALLEY":" ","HOUSE_NO":"７６號","E_COORD97":168734.35000000001,"N_COORD97":2543817.3700000001,"ADDRESS":"中山路７６號","OBJECTID":478528},"geometry":{"x":168734.35000000149,"y":2543817.3700000029}},{"attributes":{"ID":478554,"DIS_CODE":0,"TOWNNAME":"中西區","LI":"公正里","LIN":"20鄰","STREET":"中山路","SECT":" ","MAREA":" ","LANE":" ","ALLEY":" ","HOUSE_NO":"７８號","E_COORD97":168740.23000000001,"N_COORD97":2543822.46,"ADDRESS":"中山路７８號","OBJECTID":478529},"geometry":{"x":168740.23000000138,"y":2543822.4600000028}},{"attributes":{"ID":478555,"DIS_CODE":0,"TOWNNAME":"中西區","LI":"公正里","LIN":"20鄰","STREET":"衛民街","SECT":" ","MAREA":" ","LANE":" ","ALLEY":" ","HOUSE_NO":"１４６號","E_COORD97":168754.57000000001,"N_COORD97":2543781.7400000002,"ADDRESS":"衛民街１４６號","OBJECTID":478530},"geometry":{"x":168754.57000000123,"y":2543781.7400000002}},{"attributes":{"ID":478556,"DIS_CODE":0,"TOWNNAME":"中西區","LI":"公正里","LIN":"20鄰","STREET":"衛民街","SECT":" ","MAREA":" ","LANE":" ","ALLEY":" ","HOUSE_NO":"１４８號","E_COORD97":168748.10999999999,"N_COORD97":2543783.6800000002,"ADDRESS":"衛民街１４８號","OBJECTID":478531},"geometry":{"x":168748.11000000034,"y":2543783.6800000016}},{"attributes":{"ID":478557,"DIS_CODE":0,"TOWNNAME":"中西區","LI":"公正里","LIN":"20鄰","STREET":"衛民街","SECT":" ","MAREA":" ","LANE":" ","ALLEY":" ","HOUSE_NO":"１５４號","E_COORD97":168722.10999999999,"N_COORD97":2543789.8100000001,"ADDRESS":"衛民街１５４號","OBJECTID":478532},"geometry":{"x":168722.11000000127,"y":2543789.8100000024}},{"attributes":{"ID":478558,"DIS_CODE":0,"TOWNNAME":"中西區","LI":"公正里","LIN":"20鄰","STREET":"衛民街","SECT":" ","MAREA":" ","LANE":" ","ALLEY":" ","HOUSE_NO":"１５６號","E_COORD97":168717.75,"N_COORD97":2543791.8999999999,"ADDRESS":"衛民街１５６號","OBJECTID":478533},"geometry":{"x":168717.75,"y":2543791.9000000022}},{"attributes":{"ID":478559,"DIS_CODE":0,"TOWNNAME":"中西區","LI":"公正里","LIN":"20鄰","STREET":"衛民街","SECT":" ","MAREA":" ","LANE":" ","ALLEY":" ","HOUSE_NO":"１５８號","E_COORD97":168712.10000000001,"N_COORD97":2543793.1899999999,"ADDRESS":"衛民街１５８號","OBJECTID":478534},"geometry":{"x":168712.09999999963,"y":2543793.1900000013}},{"attributes":{"ID":478560,"DIS_CODE":0,"TOWNNAME":"白河區","LI":"永安里","LIN":"20鄰","STREET":"中正路","SECT":" ","MAREA":" ","LANE":" ","ALLEY":" ","HOUSE_NO":"１３０之１號","E_COORD97":189841.32000000001,"N_COORD97":2583140.2799999998,"ADDRESS":"中正路１３０之１號","OBJECTID":478535},"geometry":{"x":189841.3200000003,"y":2583140.2800000012}},{"attributes":{"ID":478561,"DIS_CODE":0,"TOWNNAME":"安南區","LI":"海東里","LIN":"20鄰","STREET":"海佃路","SECT":"二段","MAREA":" ","LANE":" ","ALLEY":" ","HOUSE_NO":"１９７號","E_COORD97":166884.48000000001,"N_COORD97":2548377.3300000001,"ADDRESS":"海佃路二段１９７號","OBJECTID":478536},"geometry":{"x":166884.48000000045,"y":2548377.3300000001}},{"attributes":{"ID":478562,"DIS_CODE":0,"TOWNNAME":"安南區","LI":"海東里","LIN":"20鄰","STREET":"海佃路","SECT":"二段","MAREA":" ","LANE":" ","ALLEY":" ","HOUSE_NO":"１６３號","E_COORD97":166887.28,"N_COORD97":2548334.7799999998,"ADDRESS":"海佃路二段１６３號","OBJECTID":478537},"geometry":{"x":166887.28000000026,"y":2548334.7800000012}},{"attributes":{"ID":478563,"DIS_CODE":0,"TOWNNAME":"安南區","LI":"溪頂里","LIN":"20鄰","STREET":"聖安街","SECT":" ","MAREA":" ","LANE":" ","ALLEY":" ","HOUSE_NO":"２９號","E_COORD97":168650.04000000001,"N_COORD97":2547459.48,"ADDRESS":"聖安街２９號","OBJECTID":478538},"geometry":{"x":168650.04000000004,"y":2547459.4800000042}},{"attributes":{"ID":478564,"DIS_CODE":0,"TOWNNAME":"安南區","LI":"溪頂里","LIN":"20鄰","STREET":"聖安街","SECT":" ","MAREA":" ","LANE":" ","ALLEY":" ","HOUSE_NO":"４５號","E_COORD97":168610.85000000001,"N_COORD97":2547456.4500000002,"ADDRESS":"聖安街４５號","OBJECTID":478539},"geometry":{"x":168610.85000000056,"y":2547456.4500000011}},{"attributes":{"ID":478565,"DIS_CODE":0,"TOWNNAME":"安南區","LI":"溪墘里","LIN":"20鄰","STREET":"郡安路","SECT":"五段","MAREA":" ","LANE":" ","ALLEY":" ","HOUSE_NO":"２２１號","E_COORD97":167217.266267,"N_COORD97":2547731.8676800001,"ADDRESS":"郡安路五段２２１號","OBJECTID":478540},"geometry":{"x":167217.26626700163,"y":2547731.8676850013}},{"attributes":{"ID":478566,"DIS_CODE":0,"TOWNNAME":"永康區","LI":"勝利里","LIN":"20鄰","STREET":"勝華街","SECT":" ","MAREA":" ","LANE":" ","ALLEY":" ","HOUSE_NO":"１０８號","E_COORD97":171297.01000000001,"N_COORD97":2545221.75,"ADDRESS":"勝華街１０８號","OBJECTID":478541},"geometry":{"x":171297.01000000071,"y":2545221.75}},{"attributes":{"ID":478567,"DIS_CODE":0,"TOWNNAME":"永康區","LI":"崑山里","LIN":"20鄰","STREET":"國光一街","SECT":" ","MAREA":" ","LANE":" ","ALLEY":" ","HOUSE_NO":"５１號","E_COORD97":173858.44,"N_COORD97":2544618.2599999998,"ADDRESS":"國光一街５１號","OBJECTID":478542},"geometry":{"x":173858.44000000041,"y":2544618.2599999998}},{"attributes":{"ID":478568,"DIS_CODE":0,"TOWNNAME":"永康區","LI":"崑山里","LIN":"20鄰","STREET":"國光一街","SECT":" ","MAREA":" ","LANE":" ","ALLEY":" ","HOUSE_NO":"６１號","E_COORD97":173839.79999999999,"N_COORD97":2544624.0099999998,"ADDRESS":"國光一街６１號","OBJECTID":478543},"geometry":{"x":173839.80000000075,"y":2544624.0100000035}},{"attributes":{"ID":478569,"DIS_CODE":0,"TOWNNAME":"安南區","LI":"新順里","LIN":"20鄰","STREET":"慶安路","SECT":" ","MAREA":" ","LANE":" ","ALLEY":" ","HOUSE_NO":"１１７號","E_COORD97":169443.81,"N_COORD97":2549270.7000000002,"ADDRESS":"慶安路１１７號","OBJECTID":478544},"geometry":{"x":169443.81000000052,"y":2549270.7000000011}},{"attributes":{"ID":478570,"DIS_CODE":0,"TOWNNAME":"安南區","LI":"海佃里","LIN":"20鄰","STREET":"海佃路","SECT":"一段","MAREA":" ","LANE":" ","ALLEY":" ","HOUSE_NO":"２３９之１號","E_COORD97":167077.14000000001,"N_COORD97":2547352.3999999999,"ADDRESS":"海佃路一段２３９之１號","OBJECTID":478545},"geometry":{"x":167077.13999999966,"y":2547352.4000000022}},{"attributes":{"ID":478571,"DIS_CODE":0,"TOWNNAME":"東區","LI":"泉南里","LIN":"20鄰","STREET":"府連東路","SECT":" ","MAREA":" ","LANE":" ","ALLEY":" ","HOUSE_NO":"８號","E_COORD97":169706.51999999999,"N_COORD97":2542786.8700000001,"ADDRESS":"府連東路８號","OBJECTID":478546},"geometry":{"x":169706.52000000048,"y":2542786.8700000029}},{"attributes":{"ID":478572,"DIS_CODE":0,"TOWNNAME":"仁德區","LI":"太子里","LIN":"20鄰","STREET":"長興四街","SECT":" ","MAREA":" ","LANE":" ","ALLEY":" ","HOUSE_NO":"４４號","E_COORD97":173966.76000000001,"N_COORD97":2543594.5,"ADDRESS":"長興四街４４號","OBJECTID":478547},"geometry":{"x":173966.76000000071,"y":2543594.5000000019}},{"attributes":{"ID":478573,"DIS_CODE":0,"TOWNNAME":"仁德區","LI":"後壁里","LIN":"20鄰","STREET":"中正路","SECT":"二段","MAREA":" ","LANE":" ","ALLEY":" ","HOUSE_NO":"１４０號","E_COORD97":173209.95999999999,"N_COORD97":2538575.0299999998,"ADDRESS":"中正路二段１４０號","OBJECTID":478548},"geometry":{"x":173209.96000000089,"y":2538575.0300000031}},{"attributes":{"ID":478574,"DIS_CODE":0,"TOWNNAME":"仁德區","LI":"後壁里","LIN":"20鄰","STREET":"中正路","SECT":"二段","MAREA":" ","LANE":" ","ALLEY":" ","HOUSE_NO":"１４２號","E_COORD97":173211.47,"N_COORD97":2538579.0299999998,"ADDRESS":"中正路二段１４２號","OBJECTID":478549},"geometry":{"x":173211.47000000067,"y":2538579.0300000012}},{"attributes":{"ID":478575,"DIS_CODE":0,"TOWNNAME":"仁德區","LI":"保安里","LIN":"20鄰","STREET":"保安路","SECT":"一段","MAREA":" ","LANE":" ","ALLEY":" ","HOUSE_NO":"２５號","E_COORD97":170581.95999999999,"N_COORD97":2536216.3100000001,"ADDRESS":"保安路一段２５號","OBJECTID":478550},"geometry":{"x":170581.96000000089,"y":2536216.3100000024}},{"attributes":{"ID":478576,"DIS_CODE":0,"TOWNNAME":"佳里區","LI":"鎮山里","LIN":"20鄰","STREET":"勝利路","SECT":" ","MAREA":" ","LANE":" ","ALLEY":" ","HOUSE_NO":"２８１號","E_COORD97":166111.04000000001,"N_COORD97":2560766.6699999999,"ADDRESS":"勝利路２８１號","OBJECTID":478551},"geometry":{"x":166111.0400000019,"y":2560766.6699999999}},{"attributes":{"ID":478577,"DIS_CODE":0,"TOWNNAME":"佳里區","LI":"鎮山里","LIN":"20鄰","STREET":"勝利路","SECT":" ","MAREA":" ","LANE":" ","ALLEY":" ","HOUSE_NO":"２８３號","E_COORD97":166111.82000000001,"N_COORD97":2560762.7000000002,"ADDRESS":"勝利路２８３號","OBJECTID":478552},"geometry":{"x":166111.82000000123,"y":2560762.6999999993}},{"attributes":{"ID":478578,"DIS_CODE":0,"TOWNNAME":"佳里區","LI":"鎮山里","LIN":"20鄰","STREET":"勝利路","SECT":" ","MAREA":" ","LANE":" ","ALLEY":" ","HOUSE_NO":"２８５號","E_COORD97":166112.89999999999,"N_COORD97":2560758.98,"ADDRESS":"勝利路２８５號","OBJECTID":478553},"geometry":{"x":166112.9000000013,"y":2560758.9800000004}},{"attributes":{"ID":478579,"DIS_CODE":0,"TOWNNAME":"佳里區","LI":"鎮山里","LIN":"20鄰","STREET":"勝利路","SECT":" ","MAREA":" ","LANE":" ","ALLEY":" ","HOUSE_NO":"２８７號","E_COORD97":166114.04000000001,"N_COORD97":2560755.0699999998,"ADDRESS":"勝利路２８７號","OBJECTID":478554},"geometry":{"x":166114.04000000004,"y":2560755.0700000003}},{"attributes":{"ID":478580,"DIS_CODE":0,"TOWNNAME":"佳里區","LI":"鎮山里","LIN":"20鄰","STREET":"勝利路","SECT":" ","MAREA":" ","LANE":" ","ALLEY":" ","HOUSE_NO":"２８９號","E_COORD97":166115.54000000001,"N_COORD97":2560750.8799999999,"ADDRESS":"勝利路２８９號","OBJECTID":478555},"geometry":{"x":166115.54000000004,"y":2560750.879999999}},{"attributes":{"ID":478581,"DIS_CODE":0,"TOWNNAME":"佳里區","LI":"鎮山里","LIN":"20鄰","STREET":"勝利路","SECT":" ","MAREA":" ","LANE":" ","ALLEY":" ","HOUSE_NO":"２５３號","E_COORD97":166091.29999999999,"N_COORD97":2560833.5600000001,"ADDRESS":"勝利路２５３號","OBJECTID":478556},"geometry":{"x":166091.29999999981,"y":2560833.5600000005}},{"attributes":{"ID":478582,"DIS_CODE":0,"TOWNNAME":"佳里區","LI":"鎮山里","LIN":"20鄰","STREET":"勝利路","SECT":" ","MAREA":" ","LANE":" ","ALLEY":" ","HOUSE_NO":"２５５號","E_COORD97":166092.39000000001,"N_COORD97":2560829.3799999999,"ADDRESS":"勝利路２５５號","OBJECTID":478557},"geometry":{"x":166092.38999999966,"y":2560829.379999999}},{"attributes":{"ID":478583,"DIS_CODE":0,"TOWNNAME":"佳里區","LI":"鎮山里","LIN":"20鄰","STREET":"勝利路","SECT":" ","MAREA":" ","LANE":" ","ALLEY":" ","HOUSE_NO":"２５７號","E_COORD97":166107.85999999999,"N_COORD97":2560823.29,"ADDRESS":"勝利路２５７號","OBJECTID":478558},"geometry":{"x":166107.86000000127,"y":2560823.2899999991}},{"attributes":{"ID":478584,"DIS_CODE":0,"TOWNNAME":"學甲區","LI":"明宜里","LIN":"20鄰","STREET":"中山路","SECT":" ","MAREA":" ","LANE":" ","ALLEY":" ","HOUSE_NO":"１６６號之１","E_COORD97":165979.51000000001,"N_COORD97":2570547.6499999999,"ADDRESS":"中山路１６６號之１","OBJECTID":478559},"geometry":{"x":165979.51000000071,"y":2570547.6500000022}},{"attributes":{"ID":478585,"DIS_CODE":0,"TOWNNAME":"學甲區","LI":"明宜里","LIN":"20鄰","STREET":"中山路","SECT":" ","MAREA":" ","LANE":" ","ALLEY":" ","HOUSE_NO":"１６８號之１","E_COORD97":165972.01999999999,"N_COORD97":2570549.7200000002,"ADDRESS":"中山路１６８號之１","OBJECTID":478560},"geometry":{"x":165972.02000000048,"y":2570549.7200000044}},{"attributes":{"ID":478586,"DIS_CODE":0,"TOWNNAME":"學甲區","LI":"明宜里","LIN":"20鄰","STREET":"中山路","SECT":" ","MAREA":" ","LANE":" ","ALLEY":" ","HOUSE_NO":"１６８號之２","E_COORD97":165968.45999999999,"N_COORD97":2570550.7799999998,"ADDRESS":"中山路１６８號之２","OBJECTID":478561},"geometry":{"x":165968.45999999996,"y":2570550.7799999993}},{"attributes":{"ID":478587,"DIS_CODE":0,"TOWNNAME":"學甲區","LI":"明宜里","LIN":"20鄰","STREET":"中山路","SECT":" ","MAREA":" ","LANE":" ","ALLEY":" ","HOUSE_NO":"１７０號之１","E_COORD97":165961.54999999999,"N_COORD97":2570552.3999999999,"ADDRESS":"中山路１７０號之１","OBJECTID":478562},"geometry":{"x":165961.55000000168,"y":2570552.4000000022}},{"attributes":{"ID":478588,"DIS_CODE":0,"TOWNNAME":"學甲區","LI":"明宜里","LIN":"20鄰","STREET":"中山路","SECT":" ","MAREA":" ","LANE":" ","ALLEY":" ","HOUSE_NO":"１７０號之２","E_COORD97":165958.07000000001,"N_COORD97":2570553.1200000001,"ADDRESS":"中山路１７０號之２","OBJECTID":478563},"geometry":{"x":165958.0700000003,"y":2570553.120000001}},{"attributes":{"ID":478589,"DIS_CODE":0,"TOWNNAME":"學甲區","LI":"明宜里","LIN":"20鄰","STREET":"中山路","SECT":" ","MAREA":" ","LANE":" ","ALLEY":" ","HOUSE_NO":"１７０號之３","E_COORD97":165954.23999999999,"N_COORD97":2570553.6600000001,"ADDRESS":"中山路１７０號之３","OBJECTID":478564},"geometry":{"x":165954.24000000115,"y":2570553.660000002}},{"attributes":{"ID":478590,"DIS_CODE":0,"TOWNNAME":"學甲區","LI":"明宜里","LIN":"20鄰","STREET":"中山路","SECT":" ","MAREA":" ","LANE":" ","ALLEY":" ","HOUSE_NO":"１７０號之４","E_COORD97":165950.98000000001,"N_COORD97":2570554.54,"ADDRESS":"中山路１７０號之４","OBJECTID":478565},"geometry":{"x":165950.98000000138,"y":2570554.5399999991}},{"attributes":{"ID":478591,"DIS_CODE":0,"TOWNNAME":"學甲區","LI":"明宜里","LIN":"20鄰","STREET":"中山路","SECT":" ","MAREA":" ","LANE":" ","ALLEY":" ","HOUSE_NO":"１７０號","E_COORD97":165965.13,"N_COORD97":2570551.4700000002,"ADDRESS":"中山路１７０號","OBJECTID":478566},"geometry":{"x":165965.13000000082,"y":2570551.4700000044}},{"attributes":{"ID":478592,"DIS_CODE":0,"TOWNNAME":"學甲區","LI":"明宜里","LIN":"20鄰","STREET":"中山路","SECT":" ","MAREA":" ","LANE":" ","ALLEY":" ","HOUSE_NO":"１７２號之１","E_COORD97":165943.92999999999,"N_COORD97":2570555.9900000002,"ADDRESS":"中山路１７２號之１","OBJECTID":478567},"geometry":{"x":165943.93000000063,"y":2570555.9900000002}},{"attributes":{"ID":478593,"DIS_CODE":0,"TOWNNAME":"學甲區","LI":"明宜里","LIN":"20鄰","STREET":"中山路","SECT":" ","MAREA":" ","LANE":" ","ALLEY":" ","HOUSE_NO":"１７２號之２","E_COORD97":165939.63,"N_COORD97":2570557.21,"ADDRESS":"中山路１７２號之２","OBJECTID":478568},"geometry":{"x":165939.63000000082,"y":2570557.2100000028}},{"attributes":{"ID":478594,"DIS_CODE":0,"TOWNNAME":"學甲區","LI":"明宜里","LIN":"20鄰","STREET":"中山路","SECT":" ","MAREA":" ","LANE":" ","ALLEY":" ","HOUSE_NO":"１７２號","E_COORD97":165947.5,"N_COORD97":2570555.6000000001,"ADDRESS":"中山路１７２號","OBJECTID":478569},"geometry":{"x":165947.50000000093,"y":2570555.5999999996}},{"attributes":{"ID":478595,"DIS_CODE":0,"TOWNNAME":"學甲區","LI":"明宜里","LIN":"20鄰","STREET":"中山路","SECT":" ","MAREA":" ","LANE":" ","ALLEY":" ","HOUSE_NO":"１７６號","E_COORD97":165926.85000000001,"N_COORD97":2570556.8300000001,"ADDRESS":"中山路１７６號","OBJECTID":478570},"geometry":{"x":165926.84999999963,"y":2570556.8300000019}},{"attributes":{"ID":478596,"DIS_CODE":0,"TOWNNAME":"學甲區","LI":"明宜里","LIN":"20鄰","STREET":"中山路","SECT":" ","MAREA":" ","LANE":" ","ALLEY":" ","HOUSE_NO":"１７８號","E_COORD97":165921.95000000001,"N_COORD97":2570558.54,"ADDRESS":"中山路１７８號","OBJECTID":478571},"geometry":{"x":165921.95000000205,"y":2570558.5399999991}},{"attributes":{"ID":478597,"DIS_CODE":0,"TOWNNAME":"學甲區","LI":"慈福里","LIN":"20鄰","STREET":"中正路","SECT":" ","MAREA":" ","LANE":" ","ALLEY":" ","HOUSE_NO":"２４６號","E_COORD97":166108.79000000001,"N_COORD97":2570361.4900000002,"ADDRESS":"中正路２４６號","OBJECTID":478572},"geometry":{"x":166108.79000000004,"y":2570361.4900000021}},{"attributes":{"ID":478598,"DIS_CODE":0,"TOWNNAME":"學甲區","LI":"慈福里","LIN":"20鄰","STREET":"中正路","SECT":" ","MAREA":" ","LANE":" ","ALLEY":" ","HOUSE_NO":"２４８號","E_COORD97":166109.54000000001,"N_COORD97":2570364.5699999998,"ADDRESS":"中正路２４８號","OBJECTID":478573},"geometry":{"x":166109.54000000097,"y":2570364.5700000022}},{"attributes":{"ID":478599,"DIS_CODE":0,"TOWNNAME":"歸仁區","LI":"後市里","LIN":"20鄰","STREET":"民族北街","SECT":" ","MAREA":" ","LANE":" ","ALLEY":" ","HOUSE_NO":"２２號","E_COORD97":177443.98000000001,"N_COORD97":2540896.25,"ADDRESS":"民族北街２２號","OBJECTID":478574},"geometry":{"x":177443.98000000045,"y":2540896.25}},{"attributes":{"ID":478600,"DIS_CODE":0,"TOWNNAME":"歸仁區","LI":"歸仁里","LIN":"20鄰","STREET":"忠孝北路","SECT":" ","MAREA":" ","LANE":" ","ALLEY":" ","HOUSE_NO":"１８５號","E_COORD97":178121.07000000001,"N_COORD97":2541172.25,"ADDRESS":"忠孝北路１８５號","OBJECTID":478575},"geometry":{"x":178121.0700000003,"y":2541172.2500000019}},{"attributes":{"ID":478601,"DIS_CODE":0,"TOWNNAME":"歸仁區","LI":"文化里","LIN":"20鄰","STREET":"大德路","SECT":" ","MAREA":" ","LANE":" ","ALLEY":" ","HOUSE_NO":"２２１號","E_COORD97":177187.17000000001,"N_COORD97":2541517.3300000001,"ADDRESS":"大德路２２１號","OBJECTID":478576},"geometry":{"x":177187.17000000086,"y":2541517.3300000019}},{"attributes":{"ID":478602,"DIS_CODE":0,"TOWNNAME":"北區","LI":"賢北里","LIN":"20鄰","STREET":"和緯路","SECT":"五段","MAREA":" ","LANE":" ","ALLEY":" ","HOUSE_NO":"２８６號","E_COORD97":165937.48999999999,"N_COORD97":2545109.9100000001,"ADDRESS":"和緯路五段２８６號","OBJECTID":478577},"geometry":{"x":165937.49000000115,"y":2545109.9100000039}},{"attributes":{"ID":478603,"DIS_CODE":0,"TOWNNAME":"北區","LI":"賢北里","LIN":"20鄰","STREET":"和緯路","SECT":"五段","MAREA":" ","LANE":" ","ALLEY":" ","HOUSE_NO":"２８８號","E_COORD97":165932.85000000001,"N_COORD97":2545110.4900000002,"ADDRESS":"和緯路五段２８８號","OBJECTID":478578},"geometry":{"x":165932.85000000056,"y":2545110.4900000021}},{"attributes":{"ID":478604,"DIS_CODE":0,"TOWNNAME":"北區","LI":"賢北里","LIN":"20鄰","STREET":"和緯路","SECT":"五段","MAREA":" ","LANE":" ","ALLEY":" ","HOUSE_NO":"２９０號","E_COORD97":165926.85000000001,"N_COORD97":2545110.29,"ADDRESS":"和緯路五段２９０號","OBJECTID":478579},"geometry":{"x":165926.84999999963,"y":2545110.290000001}},{"attributes":{"ID":478605,"DIS_CODE":0,"TOWNNAME":"北區","LI":"賢北里","LIN":"20鄰","STREET":"和緯路","SECT":"五段","MAREA":" ","LANE":" ","ALLEY":" ","HOUSE_NO":"２９２號","E_COORD97":165922.78,"N_COORD97":2545109.5099999998,"ADDRESS":"和緯路五段２９２號","OBJECTID":478580},"geometry":{"x":165922.78000000026,"y":2545109.5100000016}},{"attributes":{"ID":478606,"DIS_CODE":0,"TOWNNAME":"北區","LI":"賢北里","LIN":"20鄰","STREET":"和緯路","SECT":"五段","MAREA":" ","LANE":" ","ALLEY":" ","HOUSE_NO":"２９６號","E_COORD97":165918.14000000001,"N_COORD97":2545109.9100000001,"ADDRESS":"和緯路五段２９６號","OBJECTID":478581},"geometry":{"x":165918.13999999966,"y":2545109.9100000039}},{"attributes":{"ID":478607,"DIS_CODE":0,"TOWNNAME":"北區","LI":"賢北里","LIN":"20鄰","STREET":"和緯路","SECT":"五段","MAREA":" ","LANE":" ","ALLEY":" ","HOUSE_NO":"２９８號","E_COORD97":165913.10999999999,"N_COORD97":2545109.1200000001,"ADDRESS":"和緯路五段２９８號","OBJECTID":478582},"geometry":{"x":165913.11000000127,"y":2545109.120000001}},{"attributes":{"ID":478608,"DIS_CODE":0,"TOWNNAME":"新營區","LI":"三仙里","LIN":"20鄰","STREET":"三民路","SECT":" ","MAREA":" ","LANE":" ","ALLEY":" ","HOUSE_NO":"１４０號之３９","E_COORD97":179546.76999999999,"N_COORD97":2578452.0099999998,"ADDRESS":"三民路１４０號之３９","OBJECTID":478583},"geometry":{"x":179546.77000000142,"y":2578452.0099999998}},{"attributes":{"ID":478609,"DIS_CODE":0,"TOWNNAME":"新營區","LI":"三仙里","LIN":"20鄰","STREET":"三民路","SECT":" ","MAREA":" ","LANE":" ","ALLEY":" ","HOUSE_NO":"１４０號之２１","E_COORD97":179509.84,"N_COORD97":2578447.7599999998,"ADDRESS":"三民路１４０號之２１","OBJECTID":478584},"geometry":{"x":179509.84000000078,"y":2578447.7599999998}},{"attributes":{"ID":478610,"DIS_CODE":0,"TOWNNAME":"新營區","LI":"新東里","LIN":"20鄰","STREET":"東明街","SECT":" ","MAREA":" ","LANE":" ","ALLEY":" ","HOUSE_NO":"４０號","E_COORD97":180809.88,"N_COORD97":2579637.6000000001,"ADDRESS":"東明街４０號","OBJECTID":478585},"geometry":{"x":180809.88000000082,"y":2579637.5999999996}},{"attributes":{"ID":478611,"DIS_CODE":0,"TOWNNAME":"新營區","LI":"新南里","LIN":"20鄰","STREET":"復興路","SECT":" ","MAREA":" ","LANE":" ","ALLEY":" ","HOUSE_NO":"３１２號","E_COORD97":178660.37,"N_COORD97":2578181.5299999998,"ADDRESS":"復興路３１２號","OBJECTID":478586},"geometry":{"x":178660.37000000104,"y":2578181.5300000031}},{"attributes":{"ID":478612,"DIS_CODE":0,"TOWNNAME":"新營區","LI":"三仙里","LIN":"20鄰","STREET":"三民路","SECT":" ","MAREA":" ","LANE":" ","ALLEY":" ","HOUSE_NO":"１４０號之２６","E_COORD97":179554.03,"N_COORD97":2578469.6899999999,"ADDRESS":"三民路１４０號之２６","OBJECTID":478587},"geometry":{"x":179554.03000000026,"y":2578469.6900000013}},{"attributes":{"ID":478613,"DIS_CODE":0,"TOWNNAME":"新營區","LI":"忠政里","LIN":"20鄰","STREET":"府西路","SECT":" ","MAREA":" ","LANE":" ","ALLEY":" ","HOUSE_NO":"２５７號","E_COORD97":179796.66,"N_COORD97":2579667.8500000001,"ADDRESS":"府西路２５７號","OBJECTID":478588},"geometry":{"x":179796.66000000015,"y":2579667.8500000034}},{"attributes":{"ID":478614,"DIS_CODE":0,"TOWNNAME":"北區","LI":"永祥里","LIN":"20鄰","STREET":"大武街","SECT":" ","MAREA":" ","LANE":" ","ALLEY":" ","HOUSE_NO":"５４４號","E_COORD97":170234.67999999999,"N_COORD97":2546413.79,"ADDRESS":"大武街５４４號","OBJECTID":478589},"geometry":{"x":170234.68000000063,"y":2546413.7899999991}},{"attributes":{"ID":478615,"DIS_CODE":0,"TOWNNAME":"北區","LI":"永祥里","LIN":"20鄰","STREET":"大武街","SECT":" ","MAREA":" ","LANE":" ","ALLEY":" ","HOUSE_NO":"５４６號","E_COORD97":170238.56,"N_COORD97":2546413.0600000001,"ADDRESS":"大武街５４６號","OBJECTID":478590},"geometry":{"x":170238.56000000052,"y":2546413.0600000005}},{"attributes":{"ID":478616,"DIS_CODE":0,"TOWNNAME":"北區","LI":"永祥里","LIN":"20鄰","STREET":"大武街","SECT":" ","MAREA":" ","LANE":" ","ALLEY":" ","HOUSE_NO":"５４８號","E_COORD97":170242.25,"N_COORD97":2546413.3900000001,"ADDRESS":"大武街５４８號","OBJECTID":478591},"geometry":{"x":170242.25,"y":2546413.3900000025}},{"attributes":{"ID":478617,"DIS_CODE":0,"TOWNNAME":"北區","LI":"永祥里","LIN":"20鄰","STREET":"大武街","SECT":" ","MAREA":" ","LANE":" ","ALLEY":" ","HOUSE_NO":"５５０號","E_COORD97":170246.01000000001,"N_COORD97":2546413.0600000001,"ADDRESS":"大武街５５０號","OBJECTID":478592},"geometry":{"x":170246.01000000071,"y":2546413.0600000005}},{"attributes":{"ID":478618,"DIS_CODE":0,"TOWNNAME":"北區","LI":"永祥里","LIN":"20鄰","STREET":"大武街","SECT":" ","MAREA":" ","LANE":" ","ALLEY":" ","HOUSE_NO":"５５２號","E_COORD97":170249.95999999999,"N_COORD97":2546412.6000000001,"ADDRESS":"大武街５５２號","OBJECTID":478593},"geometry":{"x":170249.96000000089,"y":2546412.5999999996}},{"attributes":{"ID":478619,"DIS_CODE":0,"TOWNNAME":"北區","LI":"永祥里","LIN":"20鄰","STREET":"大武街","SECT":" ","MAREA":" ","LANE":" ","ALLEY":" ","HOUSE_NO":"５５４號","E_COORD97":170253.64999999999,"N_COORD97":2546413,"ADDRESS":"大武街５５４號","OBJECTID":478594},"geometry":{"x":170253.65000000224,"y":2546413}},{"attributes":{"ID":478620,"DIS_CODE":0,"TOWNNAME":"北區","LI":"永祥里","LIN":"20鄰","STREET":"大武街","SECT":" ","MAREA":" ","LANE":" ","ALLEY":" ","HOUSE_NO":"５５６號","E_COORD97":170257.34,"N_COORD97":2546412.0099999998,"ADDRESS":"大武街５５６號","OBJECTID":478595},"geometry":{"x":170257.34000000078,"y":2546412.0100000016}},{"attributes":{"ID":478621,"DIS_CODE":0,"TOWNNAME":"北區","LI":"永祥里","LIN":"20鄰","STREET":"大武街","SECT":" ","MAREA":" ","LANE":" ","ALLEY":" ","HOUSE_NO":"５５８號","E_COORD97":170261.29999999999,"N_COORD97":2546412.6699999999,"ADDRESS":"大武街５５８號","OBJECTID":478596},"geometry":{"x":170261.30000000075,"y":2546412.6699999999}},{"attributes":{"ID":478622,"DIS_CODE":0,"TOWNNAME":"北區","LI":"永祥里","LIN":"20鄰","STREET":"大武街","SECT":" ","MAREA":" ","LANE":" ","ALLEY":" ","HOUSE_NO":"５６０號","E_COORD97":170264.98000000001,"N_COORD97":2546411.6200000001,"ADDRESS":"大武街５６０號","OBJECTID":478597},"geometry":{"x":170264.97999999952,"y":2546411.6200000048}},{"attributes":{"ID":478623,"DIS_CODE":0,"TOWNNAME":"北區","LI":"永祥里","LIN":"20鄰","STREET":"大武街","SECT":" ","MAREA":" ","LANE":" ","ALLEY":" ","HOUSE_NO":"５６２號","E_COORD97":170269.07000000001,"N_COORD97":2546413,"ADDRESS":"大武街５６２號","OBJECTID":478598},"geometry":{"x":170269.0700000003,"y":2546413}},{"attributes":{"ID":478624,"DIS_CODE":0,"TOWNNAME":"北區","LI":"永祥里","LIN":"20鄰","STREET":"大武街","SECT":" ","MAREA":" ","LANE":" ","ALLEY":" ","HOUSE_NO":"５６４號","E_COORD97":170272.45999999999,"N_COORD97":2546416.2200000002,"ADDRESS":"大武街５６４號","OBJECTID":478599},"geometry":{"x":170272.45999999996,"y":2546416.2200000007}},{"attributes":{"ID":478625,"DIS_CODE":0,"TOWNNAME":"北區","LI":"永祥里","LIN":"20鄰","STREET":"大武街","SECT":" ","MAREA":" ","LANE":" ","ALLEY":" ","HOUSE_NO":"５６６號","E_COORD97":170276.14999999999,"N_COORD97":2546416.3500000001,"ADDRESS":"大武街５６６號","OBJECTID":478600},"geometry":{"x":170276.1500000013,"y":2546416.3500000015}}]}