{"displayFieldName":"TOWNNAME","fieldAliases":{"ID":"ID","DIS_CODE":"DIS_CODE","TOWNNAME":"TOWNNAME","LI":"LI","LIN":"LIN","STREET":"STREET","SECT":"SECT","MAREA":"MAREA","LANE":"LANE","ALLEY":"ALLEY","HOUSE_NO":"HOUSE_NO","E_COORD97":"E_COORD97","N_COORD97":"N_COORD97","ADDRESS":"ADDRESS","OBJECTID":"OBJECTID"},"geometryType":"esriGeometryPoint","spatialReference":{"wkid":102443,"latestWkid":3826},"fields":[{"name":"ID","type":"esriFieldTypeDouble","alias":"ID"},{"name":"DIS_CODE","type":"esriFieldTypeInteger","alias":"DIS_CODE"},{"name":"TOWNNAME","type":"esriFieldTypeString","alias":"TOWNNAME","length":8},{"name":"LI","type":"esriFieldTypeString","alias":"LI","length":8},{"name":"LIN","type":"esriFieldTypeString","alias":"LIN","length":12},{"name":"STREET","type":"esriFieldTypeString","alias":"STREET","length":20},{"name":"SECT","type":"esriFieldTypeString","alias":"SECT","length":8},{"name":"MAREA","type":"esriFieldTypeString","alias":"MAREA","length":12},{"name":"LANE","type":"esriFieldTypeString","alias":"LANE","length":10},{"name":"ALLEY","type":"esriFieldTypeString","alias":"ALLEY","length":10},{"name":"HOUSE_NO","type":"esriFieldTypeString","alias":"HOUSE_NO","length":20},{"name":"E_COORD97","type":"esriFieldTypeDouble","alias":"E_COORD97"},{"name":"N_COORD97","type":"esriFieldTypeDouble","alias":"N_COORD97"},{"name":"ADDRESS","type":"esriFieldTypeString","alias":"ADDRESS","length":50},{"name":"OBJECTID","type":"esriFieldTypeOID","alias":"OBJECTID"}],"features":[{"attributes":{"ID":445026,"DIS_CODE":0,"TOWNNAME":"東區","LI":"路東里","LIN":"5鄰","STREET":"大同路","SECT":"二段","MAREA":" ","LANE":"９７巷","ALLEY":" ","HOUSE_NO":"７號四樓","E_COORD97":169382.48999999999,"N_COORD97":2542194.7799999998,"ADDRESS":"大同路二段９７巷７號四樓","OBJECTID":445001},"geometry":{"x":169382.49000000022,"y":2542194.7800000012}},{"attributes":{"ID":445027,"DIS_CODE":0,"TOWNNAME":"歸仁區","LI":"武東里","LIN":"5鄰","STREET":"武東一街","SECT":" ","MAREA":" ","LANE":"２８巷","ALLEY":" ","HOUSE_NO":"２號","E_COORD97":175555.94,"N_COORD97":2535460.25,"ADDRESS":"武東一街２８巷２號","OBJECTID":445002},"geometry":{"x":175555.94000000227,"y":2535460.25}},{"attributes":{"ID":445028,"DIS_CODE":0,"TOWNNAME":"北區","LI":"賢北里","LIN":"5鄰","STREET":"中華北路","SECT":"一段","MAREA":" ","LANE":"１０５巷","ALLEY":" ","HOUSE_NO":"４８號七樓之１","E_COORD97":166353.69,"N_COORD97":2545523.9900000002,"ADDRESS":"中華北路一段１０５巷４８號七樓之１","OBJECTID":445003},"geometry":{"x":166353.69000000041,"y":2545523.9900000021}},{"attributes":{"ID":445029,"DIS_CODE":0,"TOWNNAME":"北區","LI":"賢北里","LIN":"5鄰","STREET":"中華北路","SECT":"一段","MAREA":" ","LANE":"１０５巷","ALLEY":" ","HOUSE_NO":"４８號七樓之１０","E_COORD97":166353.69,"N_COORD97":2545523.9900000002,"ADDRESS":"中華北路一段１０５巷４８號七樓之１０","OBJECTID":445004},"geometry":{"x":166353.69000000041,"y":2545523.9900000021}},{"attributes":{"ID":445030,"DIS_CODE":0,"TOWNNAME":"北區","LI":"賢北里","LIN":"5鄰","STREET":"中華北路","SECT":"一段","MAREA":" ","LANE":"１０５巷","ALLEY":" ","HOUSE_NO":"４８號七樓之１１","E_COORD97":166353.69,"N_COORD97":2545523.9900000002,"ADDRESS":"中華北路一段１０５巷４８號七樓之１１","OBJECTID":445005},"geometry":{"x":166353.69000000041,"y":2545523.9900000021}},{"attributes":{"ID":445031,"DIS_CODE":0,"TOWNNAME":"六甲區","LI":"龍湖里","LIN":"5鄰","STREET":"中華路","SECT":" ","MAREA":" ","LANE":"２３１巷","ALLEY":" ","HOUSE_NO":"３號","E_COORD97":183050.23000000001,"N_COORD97":2569180.9300000002,"ADDRESS":"中華路２３１巷３號","OBJECTID":445006},"geometry":{"x":183050.23000000231,"y":2569180.9300000034}},{"attributes":{"ID":445032,"DIS_CODE":0,"TOWNNAME":"北區","LI":"賢北里","LIN":"5鄰","STREET":"中華北路","SECT":"一段","MAREA":" ","LANE":"１０５巷","ALLEY":" ","HOUSE_NO":"４８號七樓之２","E_COORD97":166353.69,"N_COORD97":2545523.9900000002,"ADDRESS":"中華北路一段１０５巷４８號七樓之２","OBJECTID":445007},"geometry":{"x":166353.69000000041,"y":2545523.9900000021}},{"attributes":{"ID":445033,"DIS_CODE":0,"TOWNNAME":"北區","LI":"賢北里","LIN":"5鄰","STREET":"中華北路","SECT":"一段","MAREA":" ","LANE":"１０５巷","ALLEY":" ","HOUSE_NO":"４８號七樓之３","E_COORD97":166353.69,"N_COORD97":2545523.9900000002,"ADDRESS":"中華北路一段１０５巷４８號七樓之３","OBJECTID":445008},"geometry":{"x":166353.69000000041,"y":2545523.9900000021}},{"attributes":{"ID":445034,"DIS_CODE":0,"TOWNNAME":"北區","LI":"賢北里","LIN":"5鄰","STREET":"中華北路","SECT":"一段","MAREA":" ","LANE":"１０５巷","ALLEY":" ","HOUSE_NO":"４８號七樓之４","E_COORD97":166353.69,"N_COORD97":2545523.9900000002,"ADDRESS":"中華北路一段１０５巷４８號七樓之４","OBJECTID":445009},"geometry":{"x":166353.69000000041,"y":2545523.9900000021}},{"attributes":{"ID":445035,"DIS_CODE":0,"TOWNNAME":"北區","LI":"賢北里","LIN":"5鄰","STREET":"中華北路","SECT":"一段","MAREA":" ","LANE":"１０５巷","ALLEY":" ","HOUSE_NO":"４８號七樓之５","E_COORD97":166353.69,"N_COORD97":2545523.9900000002,"ADDRESS":"中華北路一段１０５巷４８號七樓之５","OBJECTID":445010},"geometry":{"x":166353.69000000041,"y":2545523.9900000021}},{"attributes":{"ID":445036,"DIS_CODE":0,"TOWNNAME":"北區","LI":"賢北里","LIN":"5鄰","STREET":"中華北路","SECT":"一段","MAREA":" ","LANE":"１０５巷","ALLEY":" ","HOUSE_NO":"４８號七樓之６","E_COORD97":166353.69,"N_COORD97":2545523.9900000002,"ADDRESS":"中華北路一段１０５巷４８號七樓之６","OBJECTID":445011},"geometry":{"x":166353.69000000041,"y":2545523.9900000021}},{"attributes":{"ID":445037,"DIS_CODE":0,"TOWNNAME":"北區","LI":"賢北里","LIN":"5鄰","STREET":"中華北路","SECT":"一段","MAREA":" ","LANE":"１０５巷","ALLEY":" ","HOUSE_NO":"４８號七樓之７","E_COORD97":166353.69,"N_COORD97":2545523.9900000002,"ADDRESS":"中華北路一段１０５巷４８號七樓之７","OBJECTID":445012},"geometry":{"x":166353.69000000041,"y":2545523.9900000021}},{"attributes":{"ID":445038,"DIS_CODE":0,"TOWNNAME":"北區","LI":"賢北里","LIN":"5鄰","STREET":"中華北路","SECT":"一段","MAREA":" ","LANE":"１０５巷","ALLEY":" ","HOUSE_NO":"４８號七樓之８","E_COORD97":166353.69,"N_COORD97":2545523.9900000002,"ADDRESS":"中華北路一段１０５巷４８號七樓之８","OBJECTID":445013},"geometry":{"x":166353.69000000041,"y":2545523.9900000021}},{"attributes":{"ID":445039,"DIS_CODE":0,"TOWNNAME":"北區","LI":"賢北里","LIN":"5鄰","STREET":"中華北路","SECT":"一段","MAREA":" ","LANE":"１０５巷","ALLEY":" ","HOUSE_NO":"４８號七樓之９","E_COORD97":166353.69,"N_COORD97":2545523.9900000002,"ADDRESS":"中華北路一段１０５巷４８號七樓之９","OBJECTID":445014},"geometry":{"x":166353.69000000041,"y":2545523.9900000021}},{"attributes":{"ID":445040,"DIS_CODE":0,"TOWNNAME":"北區","LI":"賢北里","LIN":"5鄰","STREET":"中華北路","SECT":"一段","MAREA":" ","LANE":"１０５巷","ALLEY":" ","HOUSE_NO":"４８號二樓之１","E_COORD97":166353.69,"N_COORD97":2545523.9900000002,"ADDRESS":"中華北路一段１０５巷４８號二樓之１","OBJECTID":445015},"geometry":{"x":166353.69000000041,"y":2545523.9900000021}},{"attributes":{"ID":445041,"DIS_CODE":0,"TOWNNAME":"北區","LI":"賢北里","LIN":"5鄰","STREET":"中華北路","SECT":"一段","MAREA":" ","LANE":"１０５巷","ALLEY":" ","HOUSE_NO":"４８號二樓之１０","E_COORD97":166353.69,"N_COORD97":2545523.9900000002,"ADDRESS":"中華北路一段１０５巷４８號二樓之１０","OBJECTID":445016},"geometry":{"x":166353.69000000041,"y":2545523.9900000021}},{"attributes":{"ID":445042,"DIS_CODE":0,"TOWNNAME":"北區","LI":"賢北里","LIN":"5鄰","STREET":"中華北路","SECT":"一段","MAREA":" ","LANE":"１０５巷","ALLEY":" ","HOUSE_NO":"４８號二樓之１１","E_COORD97":166353.69,"N_COORD97":2545523.9900000002,"ADDRESS":"中華北路一段１０５巷４８號二樓之１１","OBJECTID":445017},"geometry":{"x":166353.69000000041,"y":2545523.9900000021}},{"attributes":{"ID":445043,"DIS_CODE":0,"TOWNNAME":"北區","LI":"賢北里","LIN":"5鄰","STREET":"中華北路","SECT":"一段","MAREA":" ","LANE":"１０５巷","ALLEY":" ","HOUSE_NO":"４８號二樓之２","E_COORD97":166353.69,"N_COORD97":2545523.9900000002,"ADDRESS":"中華北路一段１０５巷４８號二樓之２","OBJECTID":445018},"geometry":{"x":166353.69000000041,"y":2545523.9900000021}},{"attributes":{"ID":445044,"DIS_CODE":0,"TOWNNAME":"北區","LI":"賢北里","LIN":"5鄰","STREET":"中華北路","SECT":"一段","MAREA":" ","LANE":"１０５巷","ALLEY":" ","HOUSE_NO":"４８號二樓之３","E_COORD97":166353.69,"N_COORD97":2545523.9900000002,"ADDRESS":"中華北路一段１０５巷４８號二樓之３","OBJECTID":445019},"geometry":{"x":166353.69000000041,"y":2545523.9900000021}},{"attributes":{"ID":445045,"DIS_CODE":0,"TOWNNAME":"北區","LI":"賢北里","LIN":"5鄰","STREET":"中華北路","SECT":"一段","MAREA":" ","LANE":"１０５巷","ALLEY":" ","HOUSE_NO":"４８號二樓之４","E_COORD97":166353.69,"N_COORD97":2545523.9900000002,"ADDRESS":"中華北路一段１０５巷４８號二樓之４","OBJECTID":445020},"geometry":{"x":166353.69000000041,"y":2545523.9900000021}},{"attributes":{"ID":445046,"DIS_CODE":0,"TOWNNAME":"北區","LI":"賢北里","LIN":"5鄰","STREET":"中華北路","SECT":"一段","MAREA":" ","LANE":"１０５巷","ALLEY":" ","HOUSE_NO":"４８號二樓之５","E_COORD97":166353.69,"N_COORD97":2545523.9900000002,"ADDRESS":"中華北路一段１０５巷４８號二樓之５","OBJECTID":445021},"geometry":{"x":166353.69000000041,"y":2545523.9900000021}},{"attributes":{"ID":445047,"DIS_CODE":0,"TOWNNAME":"北區","LI":"賢北里","LIN":"5鄰","STREET":"中華北路","SECT":"一段","MAREA":" ","LANE":"１０５巷","ALLEY":" ","HOUSE_NO":"４８號二樓之６","E_COORD97":166353.69,"N_COORD97":2545523.9900000002,"ADDRESS":"中華北路一段１０５巷４８號二樓之６","OBJECTID":445022},"geometry":{"x":166353.69000000041,"y":2545523.9900000021}},{"attributes":{"ID":445048,"DIS_CODE":0,"TOWNNAME":"北區","LI":"賢北里","LIN":"5鄰","STREET":"中華北路","SECT":"一段","MAREA":" ","LANE":"１０５巷","ALLEY":" ","HOUSE_NO":"４８號二樓之７","E_COORD97":166353.69,"N_COORD97":2545523.9900000002,"ADDRESS":"中華北路一段１０５巷４８號二樓之７","OBJECTID":445023},"geometry":{"x":166353.69000000041,"y":2545523.9900000021}},{"attributes":{"ID":445049,"DIS_CODE":0,"TOWNNAME":"北區","LI":"賢北里","LIN":"5鄰","STREET":"中華北路","SECT":"一段","MAREA":" ","LANE":"１０５巷","ALLEY":" ","HOUSE_NO":"４８號二樓之８","E_COORD97":166353.69,"N_COORD97":2545523.9900000002,"ADDRESS":"中華北路一段１０５巷４８號二樓之８","OBJECTID":445024},"geometry":{"x":166353.69000000041,"y":2545523.9900000021}},{"attributes":{"ID":445050,"DIS_CODE":0,"TOWNNAME":"北區","LI":"賢北里","LIN":"5鄰","STREET":"中華北路","SECT":"一段","MAREA":" ","LANE":"１０５巷","ALLEY":" ","HOUSE_NO":"４８號二樓之９","E_COORD97":166353.69,"N_COORD97":2545523.9900000002,"ADDRESS":"中華北路一段１０５巷４８號二樓之９","OBJECTID":445025},"geometry":{"x":166353.69000000041,"y":2545523.9900000021}},{"attributes":{"ID":445051,"DIS_CODE":0,"TOWNNAME":"北區","LI":"賢北里","LIN":"5鄰","STREET":"中華北路","SECT":"一段","MAREA":" ","LANE":"１０５巷","ALLEY":" ","HOUSE_NO":"４８號八樓之１","E_COORD97":166353.69,"N_COORD97":2545523.9900000002,"ADDRESS":"中華北路一段１０５巷４８號八樓之１","OBJECTID":445026},"geometry":{"x":166353.69000000041,"y":2545523.9900000021}},{"attributes":{"ID":445052,"DIS_CODE":0,"TOWNNAME":"北區","LI":"賢北里","LIN":"5鄰","STREET":"中華北路","SECT":"一段","MAREA":" ","LANE":"１０５巷","ALLEY":" ","HOUSE_NO":"４８號八樓之２","E_COORD97":166353.69,"N_COORD97":2545523.9900000002,"ADDRESS":"中華北路一段１０５巷４８號八樓之２","OBJECTID":445027},"geometry":{"x":166353.69000000041,"y":2545523.9900000021}},{"attributes":{"ID":445053,"DIS_CODE":0,"TOWNNAME":"北區","LI":"賢北里","LIN":"5鄰","STREET":"中華北路","SECT":"一段","MAREA":" ","LANE":"１０５巷","ALLEY":" ","HOUSE_NO":"４８號八樓之３","E_COORD97":166353.69,"N_COORD97":2545523.9900000002,"ADDRESS":"中華北路一段１０５巷４８號八樓之３","OBJECTID":445028},"geometry":{"x":166353.69000000041,"y":2545523.9900000021}},{"attributes":{"ID":445054,"DIS_CODE":0,"TOWNNAME":"北區","LI":"賢北里","LIN":"5鄰","STREET":"中華北路","SECT":"一段","MAREA":" ","LANE":"１０５巷","ALLEY":" ","HOUSE_NO":"４８號八樓之４","E_COORD97":166353.69,"N_COORD97":2545523.9900000002,"ADDRESS":"中華北路一段１０５巷４８號八樓之４","OBJECTID":445029},"geometry":{"x":166353.69000000041,"y":2545523.9900000021}},{"attributes":{"ID":445055,"DIS_CODE":0,"TOWNNAME":"北區","LI":"賢北里","LIN":"5鄰","STREET":"中華北路","SECT":"一段","MAREA":" ","LANE":"１０５巷","ALLEY":" ","HOUSE_NO":"４８號八樓之５","E_COORD97":166353.69,"N_COORD97":2545523.9900000002,"ADDRESS":"中華北路一段１０５巷４８號八樓之５","OBJECTID":445030},"geometry":{"x":166353.69000000041,"y":2545523.9900000021}},{"attributes":{"ID":445056,"DIS_CODE":0,"TOWNNAME":"北區","LI":"賢北里","LIN":"5鄰","STREET":"中華北路","SECT":"一段","MAREA":" ","LANE":"１０５巷","ALLEY":" ","HOUSE_NO":"４８號三樓之１","E_COORD97":166353.69,"N_COORD97":2545523.9900000002,"ADDRESS":"中華北路一段１０５巷４８號三樓之１","OBJECTID":445031},"geometry":{"x":166353.69000000041,"y":2545523.9900000021}},{"attributes":{"ID":445057,"DIS_CODE":0,"TOWNNAME":"北區","LI":"賢北里","LIN":"5鄰","STREET":"中華北路","SECT":"一段","MAREA":" ","LANE":"１０５巷","ALLEY":" ","HOUSE_NO":"４８號三樓之１０","E_COORD97":166353.69,"N_COORD97":2545523.9900000002,"ADDRESS":"中華北路一段１０５巷４８號三樓之１０","OBJECTID":445032},"geometry":{"x":166353.69000000041,"y":2545523.9900000021}},{"attributes":{"ID":445058,"DIS_CODE":0,"TOWNNAME":"北區","LI":"賢北里","LIN":"5鄰","STREET":"中華北路","SECT":"一段","MAREA":" ","LANE":"１０５巷","ALLEY":" ","HOUSE_NO":"４８號三樓之１１","E_COORD97":166353.69,"N_COORD97":2545523.9900000002,"ADDRESS":"中華北路一段１０５巷４８號三樓之１１","OBJECTID":445033},"geometry":{"x":166353.69000000041,"y":2545523.9900000021}},{"attributes":{"ID":445059,"DIS_CODE":0,"TOWNNAME":"北區","LI":"賢北里","LIN":"5鄰","STREET":"中華北路","SECT":"一段","MAREA":" ","LANE":"１０５巷","ALLEY":" ","HOUSE_NO":"４８號三樓之２","E_COORD97":166353.69,"N_COORD97":2545523.9900000002,"ADDRESS":"中華北路一段１０５巷４８號三樓之２","OBJECTID":445034},"geometry":{"x":166353.69000000041,"y":2545523.9900000021}},{"attributes":{"ID":445060,"DIS_CODE":0,"TOWNNAME":"北區","LI":"賢北里","LIN":"5鄰","STREET":"中華北路","SECT":"一段","MAREA":" ","LANE":"１０５巷","ALLEY":" ","HOUSE_NO":"４８號三樓之３","E_COORD97":166353.69,"N_COORD97":2545523.9900000002,"ADDRESS":"中華北路一段１０５巷４８號三樓之３","OBJECTID":445035},"geometry":{"x":166353.69000000041,"y":2545523.9900000021}},{"attributes":{"ID":445061,"DIS_CODE":0,"TOWNNAME":"東區","LI":"新東里","LIN":"14鄰","STREET":"裕豐街","SECT":" ","MAREA":" ","LANE":"１１５巷","ALLEY":" ","HOUSE_NO":"９號","E_COORD97":170717.42999999999,"N_COORD97":2543002.96,"ADDRESS":"裕豐街１１５巷９號","OBJECTID":445036},"geometry":{"x":170717.43000000063,"y":2543002.9600000028}},{"attributes":{"ID":445062,"DIS_CODE":0,"TOWNNAME":"北區","LI":"賢北里","LIN":"5鄰","STREET":"中華北路","SECT":"一段","MAREA":" ","LANE":"１０５巷","ALLEY":" ","HOUSE_NO":"４８號三樓之４","E_COORD97":166353.69,"N_COORD97":2545523.9900000002,"ADDRESS":"中華北路一段１０５巷４８號三樓之４","OBJECTID":445037},"geometry":{"x":166353.69000000041,"y":2545523.9900000021}},{"attributes":{"ID":445063,"DIS_CODE":0,"TOWNNAME":"北區","LI":"賢北里","LIN":"5鄰","STREET":"中華北路","SECT":"一段","MAREA":" ","LANE":"１０５巷","ALLEY":" ","HOUSE_NO":"４８號三樓之５","E_COORD97":166353.69,"N_COORD97":2545523.9900000002,"ADDRESS":"中華北路一段１０５巷４８號三樓之５","OBJECTID":445038},"geometry":{"x":166353.69000000041,"y":2545523.9900000021}},{"attributes":{"ID":445064,"DIS_CODE":0,"TOWNNAME":"北區","LI":"賢北里","LIN":"5鄰","STREET":"中華北路","SECT":"一段","MAREA":" ","LANE":"１０５巷","ALLEY":" ","HOUSE_NO":"４８號三樓之６","E_COORD97":166353.69,"N_COORD97":2545523.9900000002,"ADDRESS":"中華北路一段１０５巷４８號三樓之６","OBJECTID":445039},"geometry":{"x":166353.69000000041,"y":2545523.9900000021}},{"attributes":{"ID":445065,"DIS_CODE":0,"TOWNNAME":"北區","LI":"賢北里","LIN":"5鄰","STREET":"中華北路","SECT":"一段","MAREA":" ","LANE":"１０５巷","ALLEY":" ","HOUSE_NO":"４８號三樓之７","E_COORD97":166353.69,"N_COORD97":2545523.9900000002,"ADDRESS":"中華北路一段１０５巷４８號三樓之７","OBJECTID":445040},"geometry":{"x":166353.69000000041,"y":2545523.9900000021}},{"attributes":{"ID":445066,"DIS_CODE":0,"TOWNNAME":"北區","LI":"賢北里","LIN":"5鄰","STREET":"中華北路","SECT":"一段","MAREA":" ","LANE":"１０５巷","ALLEY":" ","HOUSE_NO":"４８號三樓之８","E_COORD97":166353.69,"N_COORD97":2545523.9900000002,"ADDRESS":"中華北路一段１０５巷４８號三樓之８","OBJECTID":445041},"geometry":{"x":166353.69000000041,"y":2545523.9900000021}},{"attributes":{"ID":445067,"DIS_CODE":0,"TOWNNAME":"北區","LI":"賢北里","LIN":"5鄰","STREET":"中華北路","SECT":"一段","MAREA":" ","LANE":"１０５巷","ALLEY":" ","HOUSE_NO":"４８號三樓之９","E_COORD97":166353.69,"N_COORD97":2545523.9900000002,"ADDRESS":"中華北路一段１０５巷４８號三樓之９","OBJECTID":445042},"geometry":{"x":166353.69000000041,"y":2545523.9900000021}},{"attributes":{"ID":445068,"DIS_CODE":0,"TOWNNAME":"北區","LI":"賢北里","LIN":"5鄰","STREET":"中華北路","SECT":"一段","MAREA":" ","LANE":"１０５巷","ALLEY":" ","HOUSE_NO":"４８號五樓之１","E_COORD97":166353.69,"N_COORD97":2545523.9900000002,"ADDRESS":"中華北路一段１０５巷４８號五樓之１","OBJECTID":445043},"geometry":{"x":166353.69000000041,"y":2545523.9900000021}},{"attributes":{"ID":445069,"DIS_CODE":0,"TOWNNAME":"六甲區","LI":"甲東里","LIN":"1鄰","STREET":"復興街","SECT":" ","MAREA":" ","LANE":" ","ALLEY":" ","HOUSE_NO":"８號","E_COORD97":183963.5,"N_COORD97":2569923.7999999998,"ADDRESS":"復興街８號","OBJECTID":445044},"geometry":{"x":183963.50000000093,"y":2569923.8000000007}},{"attributes":{"ID":445070,"DIS_CODE":0,"TOWNNAME":"北區","LI":"賢北里","LIN":"5鄰","STREET":"中華北路","SECT":"一段","MAREA":" ","LANE":"１０５巷","ALLEY":" ","HOUSE_NO":"４８號五樓之１０","E_COORD97":166353.69,"N_COORD97":2545523.9900000002,"ADDRESS":"中華北路一段１０５巷４８號五樓之１０","OBJECTID":445045},"geometry":{"x":166353.69000000041,"y":2545523.9900000021}},{"attributes":{"ID":445071,"DIS_CODE":0,"TOWNNAME":"北區","LI":"賢北里","LIN":"5鄰","STREET":"中華北路","SECT":"一段","MAREA":" ","LANE":"１０５巷","ALLEY":" ","HOUSE_NO":"４８號五樓之１１","E_COORD97":166353.69,"N_COORD97":2545523.9900000002,"ADDRESS":"中華北路一段１０５巷４８號五樓之１１","OBJECTID":445046},"geometry":{"x":166353.69000000041,"y":2545523.9900000021}},{"attributes":{"ID":445072,"DIS_CODE":0,"TOWNNAME":"北區","LI":"賢北里","LIN":"5鄰","STREET":"中華北路","SECT":"一段","MAREA":" ","LANE":"１０５巷","ALLEY":" ","HOUSE_NO":"４８號五樓之２","E_COORD97":166353.69,"N_COORD97":2545523.9900000002,"ADDRESS":"中華北路一段１０５巷４８號五樓之２","OBJECTID":445047},"geometry":{"x":166353.69000000041,"y":2545523.9900000021}},{"attributes":{"ID":445073,"DIS_CODE":0,"TOWNNAME":"北區","LI":"賢北里","LIN":"5鄰","STREET":"中華北路","SECT":"一段","MAREA":" ","LANE":"１０５巷","ALLEY":" ","HOUSE_NO":"４８號五樓之３","E_COORD97":166353.69,"N_COORD97":2545523.9900000002,"ADDRESS":"中華北路一段１０５巷４８號五樓之３","OBJECTID":445048},"geometry":{"x":166353.69000000041,"y":2545523.9900000021}},{"attributes":{"ID":445074,"DIS_CODE":0,"TOWNNAME":"北區","LI":"賢北里","LIN":"5鄰","STREET":"中華北路","SECT":"一段","MAREA":" ","LANE":"１０５巷","ALLEY":" ","HOUSE_NO":"４８號五樓之４","E_COORD97":166353.69,"N_COORD97":2545523.9900000002,"ADDRESS":"中華北路一段１０５巷４８號五樓之４","OBJECTID":445049},"geometry":{"x":166353.69000000041,"y":2545523.9900000021}},{"attributes":{"ID":445075,"DIS_CODE":0,"TOWNNAME":"北區","LI":"賢北里","LIN":"5鄰","STREET":"中華北路","SECT":"一段","MAREA":" ","LANE":"１０５巷","ALLEY":" ","HOUSE_NO":"４８號五樓之５","E_COORD97":166353.69,"N_COORD97":2545523.9900000002,"ADDRESS":"中華北路一段１０５巷４８號五樓之５","OBJECTID":445050},"geometry":{"x":166353.69000000041,"y":2545523.9900000021}},{"attributes":{"ID":445076,"DIS_CODE":0,"TOWNNAME":"北區","LI":"賢北里","LIN":"5鄰","STREET":"中華北路","SECT":"一段","MAREA":" ","LANE":"１０５巷","ALLEY":" ","HOUSE_NO":"４８號五樓之６","E_COORD97":166353.69,"N_COORD97":2545523.9900000002,"ADDRESS":"中華北路一段１０５巷４８號五樓之６","OBJECTID":445051},"geometry":{"x":166353.69000000041,"y":2545523.9900000021}},{"attributes":{"ID":445077,"DIS_CODE":0,"TOWNNAME":"北區","LI":"賢北里","LIN":"5鄰","STREET":"中華北路","SECT":"一段","MAREA":" ","LANE":"１０５巷","ALLEY":" ","HOUSE_NO":"４８號五樓之７","E_COORD97":166353.69,"N_COORD97":2545523.9900000002,"ADDRESS":"中華北路一段１０５巷４８號五樓之７","OBJECTID":445052},"geometry":{"x":166353.69000000041,"y":2545523.9900000021}},{"attributes":{"ID":445078,"DIS_CODE":0,"TOWNNAME":"北區","LI":"賢北里","LIN":"5鄰","STREET":"中華北路","SECT":"一段","MAREA":" ","LANE":"１０５巷","ALLEY":" ","HOUSE_NO":"４８號五樓之８","E_COORD97":166353.69,"N_COORD97":2545523.9900000002,"ADDRESS":"中華北路一段１０５巷４８號五樓之８","OBJECTID":445053},"geometry":{"x":166353.69000000041,"y":2545523.9900000021}},{"attributes":{"ID":445079,"DIS_CODE":0,"TOWNNAME":"北區","LI":"賢北里","LIN":"5鄰","STREET":"中華北路","SECT":"一段","MAREA":" ","LANE":"１０５巷","ALLEY":" ","HOUSE_NO":"４８號五樓之９","E_COORD97":166353.69,"N_COORD97":2545523.9900000002,"ADDRESS":"中華北路一段１０５巷４８號五樓之９","OBJECTID":445054},"geometry":{"x":166353.69000000041,"y":2545523.9900000021}},{"attributes":{"ID":445080,"DIS_CODE":0,"TOWNNAME":"北區","LI":"賢北里","LIN":"5鄰","STREET":"中華北路","SECT":"一段","MAREA":" ","LANE":"１０５巷","ALLEY":" ","HOUSE_NO":"４８號六樓之１","E_COORD97":166353.69,"N_COORD97":2545523.9900000002,"ADDRESS":"中華北路一段１０５巷４８號六樓之１","OBJECTID":445055},"geometry":{"x":166353.69000000041,"y":2545523.9900000021}},{"attributes":{"ID":445081,"DIS_CODE":0,"TOWNNAME":"北區","LI":"賢北里","LIN":"5鄰","STREET":"中華北路","SECT":"一段","MAREA":" ","LANE":"１０５巷","ALLEY":" ","HOUSE_NO":"４８號六樓之１０","E_COORD97":166353.69,"N_COORD97":2545523.9900000002,"ADDRESS":"中華北路一段１０５巷４８號六樓之１０","OBJECTID":445056},"geometry":{"x":166353.69000000041,"y":2545523.9900000021}},{"attributes":{"ID":445082,"DIS_CODE":0,"TOWNNAME":"北區","LI":"賢北里","LIN":"5鄰","STREET":"中華北路","SECT":"一段","MAREA":" ","LANE":"１０５巷","ALLEY":" ","HOUSE_NO":"４８號六樓之１１","E_COORD97":166353.69,"N_COORD97":2545523.9900000002,"ADDRESS":"中華北路一段１０５巷４８號六樓之１１","OBJECTID":445057},"geometry":{"x":166353.69000000041,"y":2545523.9900000021}},{"attributes":{"ID":445083,"DIS_CODE":0,"TOWNNAME":"北區","LI":"賢北里","LIN":"5鄰","STREET":"中華北路","SECT":"一段","MAREA":" ","LANE":"１０５巷","ALLEY":" ","HOUSE_NO":"４８號六樓之２","E_COORD97":166353.69,"N_COORD97":2545523.9900000002,"ADDRESS":"中華北路一段１０５巷４８號六樓之２","OBJECTID":445058},"geometry":{"x":166353.69000000041,"y":2545523.9900000021}},{"attributes":{"ID":445084,"DIS_CODE":0,"TOWNNAME":"東區","LI":"崇德里","LIN":"5鄰","STREET":"崇善路","SECT":" ","MAREA":" ","LANE":"２３２巷","ALLEY":" ","HOUSE_NO":"２２號","E_COORD97":170693.92999999999,"N_COORD97":2541944.8500000001,"ADDRESS":"崇善路２３２巷２２號","OBJECTID":445059},"geometry":{"x":170693.93000000063,"y":2541944.8500000015}},{"attributes":{"ID":445085,"DIS_CODE":0,"TOWNNAME":"北區","LI":"賢北里","LIN":"5鄰","STREET":"中華北路","SECT":"一段","MAREA":" ","LANE":"１０５巷","ALLEY":" ","HOUSE_NO":"４８號六樓之３","E_COORD97":166353.69,"N_COORD97":2545523.9900000002,"ADDRESS":"中華北路一段１０５巷４８號六樓之３","OBJECTID":445060},"geometry":{"x":166353.69000000041,"y":2545523.9900000021}},{"attributes":{"ID":445086,"DIS_CODE":0,"TOWNNAME":"北區","LI":"賢北里","LIN":"5鄰","STREET":"中華北路","SECT":"一段","MAREA":" ","LANE":"１０５巷","ALLEY":" ","HOUSE_NO":"４８號六樓之４","E_COORD97":166353.69,"N_COORD97":2545523.9900000002,"ADDRESS":"中華北路一段１０５巷４８號六樓之４","OBJECTID":445061},"geometry":{"x":166353.69000000041,"y":2545523.9900000021}},{"attributes":{"ID":445087,"DIS_CODE":0,"TOWNNAME":"北區","LI":"賢北里","LIN":"5鄰","STREET":"中華北路","SECT":"一段","MAREA":" ","LANE":"１０５巷","ALLEY":" ","HOUSE_NO":"４８號六樓之５","E_COORD97":166353.69,"N_COORD97":2545523.9900000002,"ADDRESS":"中華北路一段１０５巷４８號六樓之５","OBJECTID":445062},"geometry":{"x":166353.69000000041,"y":2545523.9900000021}},{"attributes":{"ID":445088,"DIS_CODE":0,"TOWNNAME":"東區","LI":"崇文里","LIN":"40鄰","STREET":"生產路","SECT":" ","MAREA":" ","LANE":" ","ALLEY":" ","HOUSE_NO":"２６９號六樓","E_COORD97":170885.10999999999,"N_COORD97":2540617.8100000001,"ADDRESS":"生產路２６９號六樓","OBJECTID":445063},"geometry":{"x":170885.11000000127,"y":2540617.8100000005}},{"attributes":{"ID":445089,"DIS_CODE":0,"TOWNNAME":"東區","LI":"崇文里","LIN":"40鄰","STREET":"生產路","SECT":" ","MAREA":" ","LANE":" ","ALLEY":" ","HOUSE_NO":"２６９號四樓","E_COORD97":170885.10999999999,"N_COORD97":2540617.8100000001,"ADDRESS":"生產路２６９號四樓","OBJECTID":445064},"geometry":{"x":170885.11000000127,"y":2540617.8100000005}},{"attributes":{"ID":445090,"DIS_CODE":0,"TOWNNAME":"北區","LI":"賢北里","LIN":"5鄰","STREET":"中華北路","SECT":"一段","MAREA":" ","LANE":"１０５巷","ALLEY":" ","HOUSE_NO":"４８號六樓之６","E_COORD97":166353.69,"N_COORD97":2545523.9900000002,"ADDRESS":"中華北路一段１０５巷４８號六樓之６","OBJECTID":445065},"geometry":{"x":166353.69000000041,"y":2545523.9900000021}},{"attributes":{"ID":445091,"DIS_CODE":0,"TOWNNAME":"北區","LI":"賢北里","LIN":"5鄰","STREET":"中華北路","SECT":"一段","MAREA":" ","LANE":"１０５巷","ALLEY":" ","HOUSE_NO":"４８號六樓之７","E_COORD97":166353.69,"N_COORD97":2545523.9900000002,"ADDRESS":"中華北路一段１０５巷４８號六樓之７","OBJECTID":445066},"geometry":{"x":166353.69000000041,"y":2545523.9900000021}},{"attributes":{"ID":445092,"DIS_CODE":0,"TOWNNAME":"北區","LI":"賢北里","LIN":"5鄰","STREET":"中華北路","SECT":"一段","MAREA":" ","LANE":"１０５巷","ALLEY":" ","HOUSE_NO":"４８號六樓之８","E_COORD97":166353.69,"N_COORD97":2545523.9900000002,"ADDRESS":"中華北路一段１０５巷４８號六樓之８","OBJECTID":445067},"geometry":{"x":166353.69000000041,"y":2545523.9900000021}},{"attributes":{"ID":445093,"DIS_CODE":0,"TOWNNAME":"北區","LI":"賢北里","LIN":"5鄰","STREET":"中華北路","SECT":"一段","MAREA":" ","LANE":"１０５巷","ALLEY":" ","HOUSE_NO":"４８號六樓之９","E_COORD97":166353.69,"N_COORD97":2545523.9900000002,"ADDRESS":"中華北路一段１０５巷４８號六樓之９","OBJECTID":445068},"geometry":{"x":166353.69000000041,"y":2545523.9900000021}},{"attributes":{"ID":445094,"DIS_CODE":0,"TOWNNAME":"北區","LI":"賢北里","LIN":"5鄰","STREET":"中華北路","SECT":"一段","MAREA":" ","LANE":"１０５巷","ALLEY":" ","HOUSE_NO":"４８號四樓之１","E_COORD97":166353.69,"N_COORD97":2545523.9900000002,"ADDRESS":"中華北路一段１０５巷４８號四樓之１","OBJECTID":445069},"geometry":{"x":166353.69000000041,"y":2545523.9900000021}},{"attributes":{"ID":445095,"DIS_CODE":0,"TOWNNAME":"北區","LI":"賢北里","LIN":"5鄰","STREET":"中華北路","SECT":"一段","MAREA":" ","LANE":"１０５巷","ALLEY":" ","HOUSE_NO":"４８號四樓之１０","E_COORD97":166353.69,"N_COORD97":2545523.9900000002,"ADDRESS":"中華北路一段１０５巷４８號四樓之１０","OBJECTID":445070},"geometry":{"x":166353.69000000041,"y":2545523.9900000021}},{"attributes":{"ID":445096,"DIS_CODE":0,"TOWNNAME":"北區","LI":"賢北里","LIN":"5鄰","STREET":"中華北路","SECT":"一段","MAREA":" ","LANE":"１０５巷","ALLEY":" ","HOUSE_NO":"４８號四樓之１１","E_COORD97":166353.69,"N_COORD97":2545523.9900000002,"ADDRESS":"中華北路一段１０５巷４８號四樓之１１","OBJECTID":445071},"geometry":{"x":166353.69000000041,"y":2545523.9900000021}},{"attributes":{"ID":445097,"DIS_CODE":0,"TOWNNAME":"南區","LI":"白雪里","LIN":"5鄰","STREET":"利南街","SECT":" ","MAREA":" ","LANE":"４７巷","ALLEY":" ","HOUSE_NO":"３號","E_COORD97":166832.91,"N_COORD97":2541140.1600000001,"ADDRESS":"利南街４７巷３號","OBJECTID":445072},"geometry":{"x":166832.91000000108,"y":2541140.1600000001}},{"attributes":{"ID":445098,"DIS_CODE":0,"TOWNNAME":"北區","LI":"賢北里","LIN":"5鄰","STREET":"中華北路","SECT":"一段","MAREA":" ","LANE":"１０５巷","ALLEY":" ","HOUSE_NO":"４８號四樓之２","E_COORD97":166353.69,"N_COORD97":2545523.9900000002,"ADDRESS":"中華北路一段１０５巷４８號四樓之２","OBJECTID":445073},"geometry":{"x":166353.69000000041,"y":2545523.9900000021}},{"attributes":{"ID":445099,"DIS_CODE":0,"TOWNNAME":"北區","LI":"賢北里","LIN":"5鄰","STREET":"中華北路","SECT":"一段","MAREA":" ","LANE":"１０５巷","ALLEY":" ","HOUSE_NO":"４８號四樓之３","E_COORD97":166353.69,"N_COORD97":2545523.9900000002,"ADDRESS":"中華北路一段１０５巷４８號四樓之３","OBJECTID":445074},"geometry":{"x":166353.69000000041,"y":2545523.9900000021}},{"attributes":{"ID":445100,"DIS_CODE":0,"TOWNNAME":"北區","LI":"賢北里","LIN":"5鄰","STREET":"中華北路","SECT":"一段","MAREA":" ","LANE":"１０５巷","ALLEY":" ","HOUSE_NO":"４８號四樓之５","E_COORD97":166353.69,"N_COORD97":2545523.9900000002,"ADDRESS":"中華北路一段１０５巷４８號四樓之５","OBJECTID":445075},"geometry":{"x":166353.69000000041,"y":2545523.9900000021}},{"attributes":{"ID":445101,"DIS_CODE":0,"TOWNNAME":"北區","LI":"賢北里","LIN":"5鄰","STREET":"中華北路","SECT":"一段","MAREA":" ","LANE":"１０５巷","ALLEY":" ","HOUSE_NO":"４８號四樓之６","E_COORD97":166353.69,"N_COORD97":2545523.9900000002,"ADDRESS":"中華北路一段１０５巷４８號四樓之６","OBJECTID":445076},"geometry":{"x":166353.69000000041,"y":2545523.9900000021}},{"attributes":{"ID":445102,"DIS_CODE":0,"TOWNNAME":"北區","LI":"賢北里","LIN":"5鄰","STREET":"中華北路","SECT":"一段","MAREA":" ","LANE":"１０５巷","ALLEY":" ","HOUSE_NO":"４８號四樓之７","E_COORD97":166353.69,"N_COORD97":2545523.9900000002,"ADDRESS":"中華北路一段１０５巷４８號四樓之７","OBJECTID":445077},"geometry":{"x":166353.69000000041,"y":2545523.9900000021}},{"attributes":{"ID":445103,"DIS_CODE":0,"TOWNNAME":"北區","LI":"賢北里","LIN":"5鄰","STREET":"中華北路","SECT":"一段","MAREA":" ","LANE":"１０５巷","ALLEY":" ","HOUSE_NO":"４８號四樓之８","E_COORD97":166353.69,"N_COORD97":2545523.9900000002,"ADDRESS":"中華北路一段１０５巷４８號四樓之８","OBJECTID":445078},"geometry":{"x":166353.69000000041,"y":2545523.9900000021}},{"attributes":{"ID":445104,"DIS_CODE":0,"TOWNNAME":"北區","LI":"賢北里","LIN":"5鄰","STREET":"中華北路","SECT":"一段","MAREA":" ","LANE":"１０５巷","ALLEY":" ","HOUSE_NO":"４８號四樓之９","E_COORD97":166353.69,"N_COORD97":2545523.9900000002,"ADDRESS":"中華北路一段１０５巷４８號四樓之９","OBJECTID":445079},"geometry":{"x":166353.69000000041,"y":2545523.9900000021}},{"attributes":{"ID":445105,"DIS_CODE":0,"TOWNNAME":"新營區","LI":"民權里","LIN":"5鄰","STREET":"信義街","SECT":" ","MAREA":" ","LANE":"７２巷","ALLEY":" ","HOUSE_NO":"１０號二樓","E_COORD97":180000.04999999999,"N_COORD97":2578521.7999999998,"ADDRESS":"信義街７２巷１０號二樓","OBJECTID":445080},"geometry":{"x":180000.05000000075,"y":2578521.8000000007}},{"attributes":{"ID":445106,"DIS_CODE":0,"TOWNNAME":"新營區","LI":"民權里","LIN":"5鄰","STREET":"信義街","SECT":" ","MAREA":" ","LANE":"７２巷","ALLEY":" ","HOUSE_NO":"１０號三樓之２","E_COORD97":180002.32000000001,"N_COORD97":2578521.8399999999,"ADDRESS":"信義街７２巷１０號三樓之２","OBJECTID":445081},"geometry":{"x":180002.32000000123,"y":2578521.8399999999}},{"attributes":{"ID":445107,"DIS_CODE":0,"TOWNNAME":"新營區","LI":"民權里","LIN":"5鄰","STREET":"信義街","SECT":" ","MAREA":" ","LANE":"７２巷","ALLEY":" ","HOUSE_NO":"１０號十一樓之１","E_COORD97":180003.44,"N_COORD97":2578521.8399999999,"ADDRESS":"信義街７２巷１０號十一樓之１","OBJECTID":445082},"geometry":{"x":180003.44000000041,"y":2578521.8399999999}},{"attributes":{"ID":445108,"DIS_CODE":0,"TOWNNAME":"南區","LI":"大成里","LIN":"5鄰","STREET":"健康路","SECT":"一段","MAREA":" ","LANE":"３３３巷","ALLEY":" ","HOUSE_NO":"１１號二樓","E_COORD97":168061.34,"N_COORD97":2542330.1299999999,"ADDRESS":"健康路一段３３３巷１１號二樓","OBJECTID":445083},"geometry":{"x":168061.33999999985,"y":2542330.129999999}},{"attributes":{"ID":445109,"DIS_CODE":0,"TOWNNAME":"南區","LI":"大成里","LIN":"5鄰","STREET":"健康路","SECT":"一段","MAREA":" ","LANE":"３３３巷","ALLEY":" ","HOUSE_NO":"１１號三樓","E_COORD97":168061.34,"N_COORD97":2542330.1299999999,"ADDRESS":"健康路一段３３３巷１１號三樓","OBJECTID":445084},"geometry":{"x":168061.33999999985,"y":2542330.129999999}},{"attributes":{"ID":445110,"DIS_CODE":0,"TOWNNAME":"南區","LI":"大成里","LIN":"5鄰","STREET":"健康路","SECT":"一段","MAREA":" ","LANE":"３３３巷","ALLEY":" ","HOUSE_NO":"１１號五樓","E_COORD97":168061.34,"N_COORD97":2542330.1299999999,"ADDRESS":"健康路一段３３３巷１１號五樓","OBJECTID":445085},"geometry":{"x":168061.33999999985,"y":2542330.129999999}},{"attributes":{"ID":445111,"DIS_CODE":0,"TOWNNAME":"南區","LI":"大成里","LIN":"5鄰","STREET":"健康路","SECT":"一段","MAREA":" ","LANE":"３３３巷","ALLEY":" ","HOUSE_NO":"１１號四樓","E_COORD97":168061.34,"N_COORD97":2542330.1299999999,"ADDRESS":"健康路一段３３３巷１１號四樓","OBJECTID":445086},"geometry":{"x":168061.33999999985,"y":2542330.129999999}},{"attributes":{"ID":445112,"DIS_CODE":0,"TOWNNAME":"六甲區","LI":"龍湖里","LIN":"5鄰","STREET":"中華路","SECT":" ","MAREA":" ","LANE":"２１５巷","ALLEY":" ","HOUSE_NO":"８號","E_COORD97":183123.92000000001,"N_COORD97":2569230.9199999999,"ADDRESS":"中華路２１５巷８號","OBJECTID":445087},"geometry":{"x":183123.91999999993,"y":2569230.9199999999}},{"attributes":{"ID":445113,"DIS_CODE":0,"TOWNNAME":"南區","LI":"大成里","LIN":"5鄰","STREET":"健康路","SECT":"一段","MAREA":" ","LANE":"３３３巷","ALLEY":" ","HOUSE_NO":"７號二樓","E_COORD97":168061.57000000001,"N_COORD97":2542305.5600000001,"ADDRESS":"健康路一段３３３巷７號二樓","OBJECTID":445088},"geometry":{"x":168061.5700000003,"y":2542305.5600000042}},{"attributes":{"ID":445114,"DIS_CODE":0,"TOWNNAME":"南區","LI":"大成里","LIN":"5鄰","STREET":"健康路","SECT":"一段","MAREA":" ","LANE":"３３３巷","ALLEY":" ","HOUSE_NO":"７號三樓","E_COORD97":168061.57000000001,"N_COORD97":2542305.5600000001,"ADDRESS":"健康路一段３３３巷７號三樓","OBJECTID":445089},"geometry":{"x":168061.5700000003,"y":2542305.5600000042}},{"attributes":{"ID":445115,"DIS_CODE":0,"TOWNNAME":"東區","LI":"和平里","LIN":"5鄰","STREET":"東門路","SECT":"三段","MAREA":" ","LANE":"２８０巷","ALLEY":" ","HOUSE_NO":"１６號","E_COORD97":171719.41073900001,"N_COORD97":2541772.17839,"ADDRESS":"東門路三段２８０巷１６號","OBJECTID":445090},"geometry":{"x":171719.41073900089,"y":2541772.178387003}},{"attributes":{"ID":445116,"DIS_CODE":0,"TOWNNAME":"南區","LI":"新生里","LIN":"5鄰","STREET":"大同路","SECT":"二段","MAREA":" ","LANE":"１８６巷","ALLEY":" ","HOUSE_NO":"６號七樓之１","E_COORD97":169323.48000000001,"N_COORD97":2541941.9900000002,"ADDRESS":"大同路二段１８６巷６號七樓之１","OBJECTID":445091},"geometry":{"x":169323.48000000045,"y":2541941.9900000002}},{"attributes":{"ID":445117,"DIS_CODE":0,"TOWNNAME":"南區","LI":"新生里","LIN":"5鄰","STREET":"大同路","SECT":"二段","MAREA":" ","LANE":"１８６巷","ALLEY":" ","HOUSE_NO":"６號七樓之２","E_COORD97":169323.48000000001,"N_COORD97":2541941.9900000002,"ADDRESS":"大同路二段１８６巷６號七樓之２","OBJECTID":445092},"geometry":{"x":169323.48000000045,"y":2541941.9900000002}},{"attributes":{"ID":445118,"DIS_CODE":0,"TOWNNAME":"南區","LI":"新生里","LIN":"5鄰","STREET":"大同路","SECT":"二段","MAREA":" ","LANE":"１８６巷","ALLEY":" ","HOUSE_NO":"６號七樓之３","E_COORD97":169323.48000000001,"N_COORD97":2541941.9900000002,"ADDRESS":"大同路二段１８６巷６號七樓之３","OBJECTID":445093},"geometry":{"x":169323.48000000045,"y":2541941.9900000002}},{"attributes":{"ID":445119,"DIS_CODE":0,"TOWNNAME":"東區","LI":"崇文里","LIN":"40鄰","STREET":"生產路","SECT":" ","MAREA":" ","LANE":" ","ALLEY":" ","HOUSE_NO":"２７１號七樓","E_COORD97":170892.67999999999,"N_COORD97":2540617.9100000001,"ADDRESS":"生產路２７１號七樓","OBJECTID":445094},"geometry":{"x":170892.68000000063,"y":2540617.9100000039}},{"attributes":{"ID":445120,"DIS_CODE":0,"TOWNNAME":"南區","LI":"新生里","LIN":"5鄰","STREET":"大同路","SECT":"二段","MAREA":" ","LANE":"１８６巷","ALLEY":" ","HOUSE_NO":"６號七樓之５","E_COORD97":169323.48000000001,"N_COORD97":2541941.9900000002,"ADDRESS":"大同路二段１８６巷６號七樓之５","OBJECTID":445095},"geometry":{"x":169323.48000000045,"y":2541941.9900000002}},{"attributes":{"ID":445121,"DIS_CODE":0,"TOWNNAME":"南區","LI":"新生里","LIN":"5鄰","STREET":"大同路","SECT":"二段","MAREA":" ","LANE":"１８６巷","ALLEY":" ","HOUSE_NO":"６號八樓之１","E_COORD97":169323.48000000001,"N_COORD97":2541941.9900000002,"ADDRESS":"大同路二段１８６巷６號八樓之１","OBJECTID":445096},"geometry":{"x":169323.48000000045,"y":2541941.9900000002}},{"attributes":{"ID":445122,"DIS_CODE":0,"TOWNNAME":"南區","LI":"新生里","LIN":"5鄰","STREET":"大同路","SECT":"二段","MAREA":" ","LANE":"１８６巷","ALLEY":" ","HOUSE_NO":"６號八樓之２","E_COORD97":169323.48000000001,"N_COORD97":2541941.9900000002,"ADDRESS":"大同路二段１８６巷６號八樓之２","OBJECTID":445097},"geometry":{"x":169323.48000000045,"y":2541941.9900000002}},{"attributes":{"ID":445123,"DIS_CODE":0,"TOWNNAME":"南區","LI":"新生里","LIN":"5鄰","STREET":"大同路","SECT":"二段","MAREA":" ","LANE":"１８６巷","ALLEY":" ","HOUSE_NO":"６號八樓之３","E_COORD97":169323.48000000001,"N_COORD97":2541941.9900000002,"ADDRESS":"大同路二段１８６巷６號八樓之３","OBJECTID":445098},"geometry":{"x":169323.48000000045,"y":2541941.9900000002}},{"attributes":{"ID":445124,"DIS_CODE":0,"TOWNNAME":"南區","LI":"新生里","LIN":"5鄰","STREET":"大同路","SECT":"二段","MAREA":" ","LANE":"１８６巷","ALLEY":" ","HOUSE_NO":"６號八樓之５","E_COORD97":169323.48000000001,"N_COORD97":2541941.9900000002,"ADDRESS":"大同路二段１８６巷６號八樓之５","OBJECTID":445099},"geometry":{"x":169323.48000000045,"y":2541941.9900000002}},{"attributes":{"ID":445125,"DIS_CODE":0,"TOWNNAME":"南區","LI":"新生里","LIN":"5鄰","STREET":"大同路","SECT":"二段","MAREA":" ","LANE":"１８６巷","ALLEY":" ","HOUSE_NO":"６號九樓之１","E_COORD97":169323.48000000001,"N_COORD97":2541941.9900000002,"ADDRESS":"大同路二段１８６巷６號九樓之１","OBJECTID":445100},"geometry":{"x":169323.48000000045,"y":2541941.9900000002}},{"attributes":{"ID":445126,"DIS_CODE":0,"TOWNNAME":"南區","LI":"新生里","LIN":"5鄰","STREET":"大同路","SECT":"二段","MAREA":" ","LANE":"１８６巷","ALLEY":" ","HOUSE_NO":"６號九樓之２","E_COORD97":169323.48000000001,"N_COORD97":2541941.9900000002,"ADDRESS":"大同路二段１８６巷６號九樓之２","OBJECTID":445101},"geometry":{"x":169323.48000000045,"y":2541941.9900000002}},{"attributes":{"ID":445127,"DIS_CODE":0,"TOWNNAME":"麻豆區","LI":"油車里","LIN":"1鄰","STREET":"自強街","SECT":" ","MAREA":" ","LANE":" ","ALLEY":" ","HOUSE_NO":"３號","E_COORD97":172613.70999999999,"N_COORD97":2565123.5699999998,"ADDRESS":"自強街３號","OBJECTID":445102},"geometry":{"x":172613.70999999996,"y":2565123.5700000022}},{"attributes":{"ID":445128,"DIS_CODE":0,"TOWNNAME":"南區","LI":"新生里","LIN":"5鄰","STREET":"大同路","SECT":"二段","MAREA":" ","LANE":"１８６巷","ALLEY":" ","HOUSE_NO":"６號九樓之３","E_COORD97":169323.48000000001,"N_COORD97":2541941.9900000002,"ADDRESS":"大同路二段１８６巷６號九樓之３","OBJECTID":445103},"geometry":{"x":169323.48000000045,"y":2541941.9900000002}},{"attributes":{"ID":445129,"DIS_CODE":0,"TOWNNAME":"南區","LI":"新生里","LIN":"5鄰","STREET":"大同路","SECT":"二段","MAREA":" ","LANE":"１８６巷","ALLEY":" ","HOUSE_NO":"６號九樓之５","E_COORD97":169323.48000000001,"N_COORD97":2541941.9900000002,"ADDRESS":"大同路二段１８６巷６號九樓之５","OBJECTID":445104},"geometry":{"x":169323.48000000045,"y":2541941.9900000002}},{"attributes":{"ID":445130,"DIS_CODE":0,"TOWNNAME":"南區","LI":"新生里","LIN":"5鄰","STREET":"大同路","SECT":"二段","MAREA":" ","LANE":"１８６巷","ALLEY":" ","HOUSE_NO":"６號十樓之１","E_COORD97":169323.48000000001,"N_COORD97":2541941.9900000002,"ADDRESS":"大同路二段１８６巷６號十樓之１","OBJECTID":445105},"geometry":{"x":169323.48000000045,"y":2541941.9900000002}},{"attributes":{"ID":445131,"DIS_CODE":0,"TOWNNAME":"南區","LI":"新生里","LIN":"5鄰","STREET":"大同路","SECT":"二段","MAREA":" ","LANE":"１８６巷","ALLEY":" ","HOUSE_NO":"６號十樓之２","E_COORD97":169323.48000000001,"N_COORD97":2541941.9900000002,"ADDRESS":"大同路二段１８６巷６號十樓之２","OBJECTID":445106},"geometry":{"x":169323.48000000045,"y":2541941.9900000002}},{"attributes":{"ID":445132,"DIS_CODE":0,"TOWNNAME":"南區","LI":"新生里","LIN":"5鄰","STREET":"大同路","SECT":"二段","MAREA":" ","LANE":"１８６巷","ALLEY":" ","HOUSE_NO":"６號十樓之３","E_COORD97":169323.48000000001,"N_COORD97":2541941.9900000002,"ADDRESS":"大同路二段１８６巷６號十樓之３","OBJECTID":445107},"geometry":{"x":169323.48000000045,"y":2541941.9900000002}},{"attributes":{"ID":445133,"DIS_CODE":0,"TOWNNAME":"南區","LI":"新生里","LIN":"5鄰","STREET":"大同路","SECT":"二段","MAREA":" ","LANE":"１８６巷","ALLEY":" ","HOUSE_NO":"６號十樓之５","E_COORD97":169323.48000000001,"N_COORD97":2541941.9900000002,"ADDRESS":"大同路二段１８６巷６號十樓之５","OBJECTID":445108},"geometry":{"x":169323.48000000045,"y":2541941.9900000002}},{"attributes":{"ID":445134,"DIS_CODE":0,"TOWNNAME":"南區","LI":"新生里","LIN":"5鄰","STREET":"大同路","SECT":"二段","MAREA":" ","LANE":"１８６巷","ALLEY":" ","HOUSE_NO":"６號十一樓之１","E_COORD97":169323.48000000001,"N_COORD97":2541941.9900000002,"ADDRESS":"大同路二段１８６巷６號十一樓之１","OBJECTID":445109},"geometry":{"x":169323.48000000045,"y":2541941.9900000002}},{"attributes":{"ID":445135,"DIS_CODE":0,"TOWNNAME":"南區","LI":"新生里","LIN":"5鄰","STREET":"大同路","SECT":"二段","MAREA":" ","LANE":"１８６巷","ALLEY":" ","HOUSE_NO":"６號十一樓之２","E_COORD97":169323.48000000001,"N_COORD97":2541941.9900000002,"ADDRESS":"大同路二段１８６巷６號十一樓之２","OBJECTID":445110},"geometry":{"x":169323.48000000045,"y":2541941.9900000002}},{"attributes":{"ID":445136,"DIS_CODE":0,"TOWNNAME":"北區","LI":"三德里","LIN":"5鄰","STREET":"忠義路","SECT":"三段","MAREA":" ","LANE":"３９巷","ALLEY":" ","HOUSE_NO":"２號二樓之１","E_COORD97":168514.54999999999,"N_COORD97":2544467.3999999999,"ADDRESS":"忠義路三段３９巷２號二樓之１","OBJECTID":445111},"geometry":{"x":168514.55000000168,"y":2544467.4000000022}},{"attributes":{"ID":445137,"DIS_CODE":0,"TOWNNAME":"南區","LI":"新生里","LIN":"5鄰","STREET":"大同路","SECT":"二段","MAREA":" ","LANE":"１８６巷","ALLEY":" ","HOUSE_NO":"６號二樓之１","E_COORD97":169323.48000000001,"N_COORD97":2541941.9900000002,"ADDRESS":"大同路二段１８６巷６號二樓之１","OBJECTID":445112},"geometry":{"x":169323.48000000045,"y":2541941.9900000002}},{"attributes":{"ID":445138,"DIS_CODE":0,"TOWNNAME":"南區","LI":"新生里","LIN":"5鄰","STREET":"大同路","SECT":"二段","MAREA":" ","LANE":"１８６巷","ALLEY":" ","HOUSE_NO":"６號二樓之２","E_COORD97":169323.48000000001,"N_COORD97":2541941.9900000002,"ADDRESS":"大同路二段１８６巷６號二樓之２","OBJECTID":445113},"geometry":{"x":169323.48000000045,"y":2541941.9900000002}},{"attributes":{"ID":445139,"DIS_CODE":0,"TOWNNAME":"南區","LI":"新生里","LIN":"5鄰","STREET":"大同路","SECT":"二段","MAREA":" ","LANE":"１８６巷","ALLEY":" ","HOUSE_NO":"６號三樓之１","E_COORD97":169323.48000000001,"N_COORD97":2541941.9900000002,"ADDRESS":"大同路二段１８６巷６號三樓之１","OBJECTID":445114},"geometry":{"x":169323.48000000045,"y":2541941.9900000002}},{"attributes":{"ID":445140,"DIS_CODE":0,"TOWNNAME":"南區","LI":"新生里","LIN":"5鄰","STREET":"大同路","SECT":"二段","MAREA":" ","LANE":"１８６巷","ALLEY":" ","HOUSE_NO":"６號三樓之２","E_COORD97":169323.48000000001,"N_COORD97":2541941.9900000002,"ADDRESS":"大同路二段１８６巷６號三樓之２","OBJECTID":445115},"geometry":{"x":169323.48000000045,"y":2541941.9900000002}},{"attributes":{"ID":445141,"DIS_CODE":0,"TOWNNAME":"南區","LI":"新生里","LIN":"5鄰","STREET":"大同路","SECT":"二段","MAREA":" ","LANE":"１８６巷","ALLEY":" ","HOUSE_NO":"６號三樓之３","E_COORD97":169323.48000000001,"N_COORD97":2541941.9900000002,"ADDRESS":"大同路二段１８６巷６號三樓之３","OBJECTID":445116},"geometry":{"x":169323.48000000045,"y":2541941.9900000002}},{"attributes":{"ID":445142,"DIS_CODE":0,"TOWNNAME":"南區","LI":"新生里","LIN":"5鄰","STREET":"大同路","SECT":"二段","MAREA":" ","LANE":"１８６巷","ALLEY":" ","HOUSE_NO":"６號三樓之５","E_COORD97":169323.48000000001,"N_COORD97":2541941.9900000002,"ADDRESS":"大同路二段１８６巷６號三樓之５","OBJECTID":445117},"geometry":{"x":169323.48000000045,"y":2541941.9900000002}},{"attributes":{"ID":445143,"DIS_CODE":0,"TOWNNAME":"南區","LI":"新生里","LIN":"5鄰","STREET":"大同路","SECT":"二段","MAREA":" ","LANE":"１８６巷","ALLEY":" ","HOUSE_NO":"６號四樓之１","E_COORD97":169323.48000000001,"N_COORD97":2541941.9900000002,"ADDRESS":"大同路二段１８６巷６號四樓之１","OBJECTID":445118},"geometry":{"x":169323.48000000045,"y":2541941.9900000002}},{"attributes":{"ID":445144,"DIS_CODE":0,"TOWNNAME":"南區","LI":"新生里","LIN":"5鄰","STREET":"大同路","SECT":"二段","MAREA":" ","LANE":"１８６巷","ALLEY":" ","HOUSE_NO":"６號四樓之２","E_COORD97":169323.48000000001,"N_COORD97":2541941.9900000002,"ADDRESS":"大同路二段１８６巷６號四樓之２","OBJECTID":445119},"geometry":{"x":169323.48000000045,"y":2541941.9900000002}},{"attributes":{"ID":445145,"DIS_CODE":0,"TOWNNAME":"玉井區","LI":"玉井里","LIN":"5鄰","STREET":"憲政街","SECT":" ","MAREA":" ","LANE":"３５巷","ALLEY":" ","HOUSE_NO":"５號","E_COORD97":194439.20999999999,"N_COORD97":2557955.2599999998,"ADDRESS":"憲政街３５巷５號","OBJECTID":445120},"geometry":{"x":194439.20999999996,"y":2557955.2599999998}},{"attributes":{"ID":445146,"DIS_CODE":0,"TOWNNAME":"南區","LI":"新生里","LIN":"5鄰","STREET":"大同路","SECT":"二段","MAREA":" ","LANE":"１８６巷","ALLEY":" ","HOUSE_NO":"６號四樓之３","E_COORD97":169323.48000000001,"N_COORD97":2541941.9900000002,"ADDRESS":"大同路二段１８６巷６號四樓之３","OBJECTID":445121},"geometry":{"x":169323.48000000045,"y":2541941.9900000002}},{"attributes":{"ID":445147,"DIS_CODE":0,"TOWNNAME":"南區","LI":"新生里","LIN":"5鄰","STREET":"大同路","SECT":"二段","MAREA":" ","LANE":"１８６巷","ALLEY":" ","HOUSE_NO":"６號四樓之５","E_COORD97":169323.48000000001,"N_COORD97":2541941.9900000002,"ADDRESS":"大同路二段１８６巷６號四樓之５","OBJECTID":445122},"geometry":{"x":169323.48000000045,"y":2541941.9900000002}},{"attributes":{"ID":445148,"DIS_CODE":0,"TOWNNAME":"南區","LI":"新生里","LIN":"5鄰","STREET":"大同路","SECT":"二段","MAREA":" ","LANE":"１８６巷","ALLEY":" ","HOUSE_NO":"６號五樓之１","E_COORD97":169323.48000000001,"N_COORD97":2541941.9900000002,"ADDRESS":"大同路二段１８６巷６號五樓之１","OBJECTID":445123},"geometry":{"x":169323.48000000045,"y":2541941.9900000002}},{"attributes":{"ID":445149,"DIS_CODE":0,"TOWNNAME":"南區","LI":"新生里","LIN":"5鄰","STREET":"大同路","SECT":"二段","MAREA":" ","LANE":"１８６巷","ALLEY":" ","HOUSE_NO":"６號五樓之２","E_COORD97":169323.48000000001,"N_COORD97":2541941.9900000002,"ADDRESS":"大同路二段１８６巷６號五樓之２","OBJECTID":445124},"geometry":{"x":169323.48000000045,"y":2541941.9900000002}},{"attributes":{"ID":445150,"DIS_CODE":0,"TOWNNAME":"南區","LI":"新生里","LIN":"5鄰","STREET":"大同路","SECT":"二段","MAREA":" ","LANE":"１８６巷","ALLEY":" ","HOUSE_NO":"６號五樓之３","E_COORD97":169323.48000000001,"N_COORD97":2541941.9900000002,"ADDRESS":"大同路二段１８６巷６號五樓之３","OBJECTID":445125},"geometry":{"x":169323.48000000045,"y":2541941.9900000002}},{"attributes":{"ID":445151,"DIS_CODE":0,"TOWNNAME":"南區","LI":"新生里","LIN":"5鄰","STREET":"大同路","SECT":"二段","MAREA":" ","LANE":"１８６巷","ALLEY":" ","HOUSE_NO":"６號五樓之５","E_COORD97":169323.48000000001,"N_COORD97":2541941.9900000002,"ADDRESS":"大同路二段１８６巷６號五樓之５","OBJECTID":445126},"geometry":{"x":169323.48000000045,"y":2541941.9900000002}},{"attributes":{"ID":445152,"DIS_CODE":0,"TOWNNAME":"南區","LI":"新生里","LIN":"5鄰","STREET":"大同路","SECT":"二段","MAREA":" ","LANE":"１８６巷","ALLEY":" ","HOUSE_NO":"６號六樓之１","E_COORD97":169323.48000000001,"N_COORD97":2541941.9900000002,"ADDRESS":"大同路二段１８６巷６號六樓之１","OBJECTID":445127},"geometry":{"x":169323.48000000045,"y":2541941.9900000002}},{"attributes":{"ID":445153,"DIS_CODE":0,"TOWNNAME":"南區","LI":"新生里","LIN":"5鄰","STREET":"大同路","SECT":"二段","MAREA":" ","LANE":"１８６巷","ALLEY":" ","HOUSE_NO":"６號六樓之２","E_COORD97":169323.48000000001,"N_COORD97":2541941.9900000002,"ADDRESS":"大同路二段１８６巷６號六樓之２","OBJECTID":445128},"geometry":{"x":169323.48000000045,"y":2541941.9900000002}},{"attributes":{"ID":445154,"DIS_CODE":0,"TOWNNAME":"南區","LI":"新生里","LIN":"5鄰","STREET":"大同路","SECT":"二段","MAREA":" ","LANE":"１８６巷","ALLEY":" ","HOUSE_NO":"６號六樓之３","E_COORD97":169323.48000000001,"N_COORD97":2541941.9900000002,"ADDRESS":"大同路二段１８６巷６號六樓之３","OBJECTID":445129},"geometry":{"x":169323.48000000045,"y":2541941.9900000002}},{"attributes":{"ID":445155,"DIS_CODE":0,"TOWNNAME":"南區","LI":"新生里","LIN":"5鄰","STREET":"大同路","SECT":"二段","MAREA":" ","LANE":"１８６巷","ALLEY":" ","HOUSE_NO":"６號六樓之５","E_COORD97":169323.48000000001,"N_COORD97":2541941.9900000002,"ADDRESS":"大同路二段１８６巷６號六樓之５","OBJECTID":445130},"geometry":{"x":169323.48000000045,"y":2541941.9900000002}},{"attributes":{"ID":445156,"DIS_CODE":0,"TOWNNAME":"北區","LI":"大道里","LIN":"5鄰","STREET":"北門路","SECT":"二段","MAREA":" ","LANE":"５７６巷","ALLEY":" ","HOUSE_NO":"５號三樓之２","E_COORD97":169702.04999999999,"N_COORD97":2545737.6499999999,"ADDRESS":"北門路二段５７６巷５號三樓之２","OBJECTID":445131},"geometry":{"x":169702.04999999981,"y":2545737.6500000004}},{"attributes":{"ID":445157,"DIS_CODE":0,"TOWNNAME":"北區","LI":"大道里","LIN":"5鄰","STREET":"北門路","SECT":"二段","MAREA":" ","LANE":"５７６巷","ALLEY":" ","HOUSE_NO":"５號三樓之１","E_COORD97":169702.04999999999,"N_COORD97":2545737.6499999999,"ADDRESS":"北門路二段５７６巷５號三樓之１","OBJECTID":445132},"geometry":{"x":169702.04999999981,"y":2545737.6500000004}},{"attributes":{"ID":445158,"DIS_CODE":0,"TOWNNAME":"北區","LI":"大道里","LIN":"5鄰","STREET":"北門路","SECT":"二段","MAREA":" ","LANE":"５７６巷","ALLEY":" ","HOUSE_NO":"５號四樓之２","E_COORD97":169702.04999999999,"N_COORD97":2545737.6499999999,"ADDRESS":"北門路二段５７６巷５號四樓之２","OBJECTID":445133},"geometry":{"x":169702.04999999981,"y":2545737.6500000004}},{"attributes":{"ID":445159,"DIS_CODE":0,"TOWNNAME":"北區","LI":"大道里","LIN":"5鄰","STREET":"北門路","SECT":"二段","MAREA":" ","LANE":"５７６巷","ALLEY":" ","HOUSE_NO":"５號四樓之１","E_COORD97":169702.04999999999,"N_COORD97":2545737.6499999999,"ADDRESS":"北門路二段５７６巷５號四樓之１","OBJECTID":445134},"geometry":{"x":169702.04999999981,"y":2545737.6500000004}},{"attributes":{"ID":445160,"DIS_CODE":0,"TOWNNAME":"北區","LI":"大道里","LIN":"5鄰","STREET":"北門路","SECT":"二段","MAREA":" ","LANE":"５７６巷","ALLEY":" ","HOUSE_NO":"５號五樓之２","E_COORD97":169702.04999999999,"N_COORD97":2545737.6499999999,"ADDRESS":"北門路二段５７６巷５號五樓之２","OBJECTID":445135},"geometry":{"x":169702.04999999981,"y":2545737.6500000004}},{"attributes":{"ID":445161,"DIS_CODE":0,"TOWNNAME":"北區","LI":"大道里","LIN":"5鄰","STREET":"北門路","SECT":"二段","MAREA":" ","LANE":"５７６巷","ALLEY":" ","HOUSE_NO":"５號五樓之１","E_COORD97":169702.04999999999,"N_COORD97":2545737.6499999999,"ADDRESS":"北門路二段５７６巷５號五樓之１","OBJECTID":445136},"geometry":{"x":169702.04999999981,"y":2545737.6500000004}},{"attributes":{"ID":445162,"DIS_CODE":0,"TOWNNAME":"北區","LI":"大道里","LIN":"5鄰","STREET":"北門路","SECT":"二段","MAREA":" ","LANE":"５７６巷","ALLEY":" ","HOUSE_NO":"５號六樓之２","E_COORD97":169702.04999999999,"N_COORD97":2545737.6499999999,"ADDRESS":"北門路二段５７６巷５號六樓之２","OBJECTID":445137},"geometry":{"x":169702.04999999981,"y":2545737.6500000004}},{"attributes":{"ID":445163,"DIS_CODE":0,"TOWNNAME":"北區","LI":"大道里","LIN":"5鄰","STREET":"北門路","SECT":"二段","MAREA":" ","LANE":"５７６巷","ALLEY":" ","HOUSE_NO":"５號六樓之１","E_COORD97":169702.04999999999,"N_COORD97":2545737.6499999999,"ADDRESS":"北門路二段５７６巷５號六樓之１","OBJECTID":445138},"geometry":{"x":169702.04999999981,"y":2545737.6500000004}},{"attributes":{"ID":445164,"DIS_CODE":0,"TOWNNAME":"北區","LI":"大道里","LIN":"5鄰","STREET":"北門路","SECT":"二段","MAREA":" ","LANE":"５７６巷","ALLEY":" ","HOUSE_NO":"５號七樓之２","E_COORD97":169702.04999999999,"N_COORD97":2545737.6499999999,"ADDRESS":"北門路二段５７６巷５號七樓之２","OBJECTID":445139},"geometry":{"x":169702.04999999981,"y":2545737.6500000004}},{"attributes":{"ID":445165,"DIS_CODE":0,"TOWNNAME":"北區","LI":"大道里","LIN":"5鄰","STREET":"北門路","SECT":"二段","MAREA":" ","LANE":"５７６巷","ALLEY":" ","HOUSE_NO":"５號七樓之１","E_COORD97":169702.04999999999,"N_COORD97":2545737.6499999999,"ADDRESS":"北門路二段５７６巷５號七樓之１","OBJECTID":445140},"geometry":{"x":169702.04999999981,"y":2545737.6500000004}},{"attributes":{"ID":445166,"DIS_CODE":0,"TOWNNAME":"北區","LI":"大道里","LIN":"5鄰","STREET":"北門路","SECT":"二段","MAREA":" ","LANE":"５７６巷","ALLEY":" ","HOUSE_NO":"５號八樓之２","E_COORD97":169702.04999999999,"N_COORD97":2545737.6499999999,"ADDRESS":"北門路二段５７６巷５號八樓之２","OBJECTID":445141},"geometry":{"x":169702.04999999981,"y":2545737.6500000004}},{"attributes":{"ID":445167,"DIS_CODE":0,"TOWNNAME":"北區","LI":"大道里","LIN":"5鄰","STREET":"北門路","SECT":"二段","MAREA":" ","LANE":"５７６巷","ALLEY":" ","HOUSE_NO":"５號八樓之１","E_COORD97":169702.04999999999,"N_COORD97":2545737.6499999999,"ADDRESS":"北門路二段５７６巷５號八樓之１","OBJECTID":445142},"geometry":{"x":169702.04999999981,"y":2545737.6500000004}},{"attributes":{"ID":445168,"DIS_CODE":0,"TOWNNAME":"北區","LI":"大道里","LIN":"5鄰","STREET":"北門路","SECT":"二段","MAREA":" ","LANE":"５７６巷","ALLEY":" ","HOUSE_NO":"５號九樓之２","E_COORD97":169702.04999999999,"N_COORD97":2545737.6499999999,"ADDRESS":"北門路二段５７６巷５號九樓之２","OBJECTID":445143},"geometry":{"x":169702.04999999981,"y":2545737.6500000004}},{"attributes":{"ID":445169,"DIS_CODE":0,"TOWNNAME":"北區","LI":"大道里","LIN":"5鄰","STREET":"北門路","SECT":"二段","MAREA":" ","LANE":"５７６巷","ALLEY":" ","HOUSE_NO":"５號九樓之１","E_COORD97":169702.04999999999,"N_COORD97":2545737.6499999999,"ADDRESS":"北門路二段５７６巷５號九樓之１","OBJECTID":445144},"geometry":{"x":169702.04999999981,"y":2545737.6500000004}},{"attributes":{"ID":445170,"DIS_CODE":0,"TOWNNAME":"北區","LI":"大道里","LIN":"5鄰","STREET":"北門路","SECT":"二段","MAREA":" ","LANE":"５７６巷","ALLEY":" ","HOUSE_NO":"５號十樓之２","E_COORD97":169702.04999999999,"N_COORD97":2545737.6499999999,"ADDRESS":"北門路二段５７６巷５號十樓之２","OBJECTID":445145},"geometry":{"x":169702.04999999981,"y":2545737.6500000004}},{"attributes":{"ID":445171,"DIS_CODE":0,"TOWNNAME":"北區","LI":"大道里","LIN":"5鄰","STREET":"北門路","SECT":"二段","MAREA":" ","LANE":"５７６巷","ALLEY":" ","HOUSE_NO":"５號十樓之１","E_COORD97":169702.04999999999,"N_COORD97":2545737.6499999999,"ADDRESS":"北門路二段５７６巷５號十樓之１","OBJECTID":445146},"geometry":{"x":169702.04999999981,"y":2545737.6500000004}},{"attributes":{"ID":445172,"DIS_CODE":0,"TOWNNAME":"北區","LI":"大道里","LIN":"5鄰","STREET":"北門路","SECT":"二段","MAREA":" ","LANE":"５７６巷","ALLEY":" ","HOUSE_NO":"７號三樓之２","E_COORD97":169709.67000000001,"N_COORD97":2545762.0899999999,"ADDRESS":"北門路二段５７６巷７號三樓之２","OBJECTID":445147},"geometry":{"x":169709.67000000086,"y":2545762.0899999999}},{"attributes":{"ID":445173,"DIS_CODE":0,"TOWNNAME":"北區","LI":"大道里","LIN":"5鄰","STREET":"北門路","SECT":"二段","MAREA":" ","LANE":"５７６巷","ALLEY":" ","HOUSE_NO":"７號三樓之１","E_COORD97":169709.67000000001,"N_COORD97":2545762.0899999999,"ADDRESS":"北門路二段５７６巷７號三樓之１","OBJECTID":445148},"geometry":{"x":169709.67000000086,"y":2545762.0899999999}},{"attributes":{"ID":445174,"DIS_CODE":0,"TOWNNAME":"北區","LI":"大道里","LIN":"5鄰","STREET":"北門路","SECT":"二段","MAREA":" ","LANE":"５７６巷","ALLEY":" ","HOUSE_NO":"７號四樓之２","E_COORD97":169709.67000000001,"N_COORD97":2545762.0899999999,"ADDRESS":"北門路二段５７６巷７號四樓之２","OBJECTID":445149},"geometry":{"x":169709.67000000086,"y":2545762.0899999999}},{"attributes":{"ID":445175,"DIS_CODE":0,"TOWNNAME":"北區","LI":"大道里","LIN":"5鄰","STREET":"北門路","SECT":"二段","MAREA":" ","LANE":"５７６巷","ALLEY":" ","HOUSE_NO":"７號四樓之１","E_COORD97":169709.67000000001,"N_COORD97":2545762.0899999999,"ADDRESS":"北門路二段５７６巷７號四樓之１","OBJECTID":445150},"geometry":{"x":169709.67000000086,"y":2545762.0899999999}},{"attributes":{"ID":445176,"DIS_CODE":0,"TOWNNAME":"北區","LI":"大道里","LIN":"5鄰","STREET":"北門路","SECT":"二段","MAREA":" ","LANE":"５７６巷","ALLEY":" ","HOUSE_NO":"７號五樓之２","E_COORD97":169709.67000000001,"N_COORD97":2545762.0899999999,"ADDRESS":"北門路二段５７６巷７號五樓之２","OBJECTID":445151},"geometry":{"x":169709.67000000086,"y":2545762.0899999999}},{"attributes":{"ID":445177,"DIS_CODE":0,"TOWNNAME":"北區","LI":"大道里","LIN":"5鄰","STREET":"北門路","SECT":"二段","MAREA":" ","LANE":"５７６巷","ALLEY":" ","HOUSE_NO":"７號五樓之１","E_COORD97":169709.67000000001,"N_COORD97":2545762.0899999999,"ADDRESS":"北門路二段５７６巷７號五樓之１","OBJECTID":445152},"geometry":{"x":169709.67000000086,"y":2545762.0899999999}},{"attributes":{"ID":445178,"DIS_CODE":0,"TOWNNAME":"永康區","LI":"東灣里","LIN":"1鄰","STREET":"南灣街","SECT":" ","MAREA":" ","LANE":" ","ALLEY":" ","HOUSE_NO":"４號","E_COORD97":174626.98999999999,"N_COORD97":2544890.04,"ADDRESS":"南灣街４號","OBJECTID":445153},"geometry":{"x":174626.99000000115,"y":2544890.0399999991}},{"attributes":{"ID":445179,"DIS_CODE":0,"TOWNNAME":"北區","LI":"大道里","LIN":"5鄰","STREET":"北門路","SECT":"二段","MAREA":" ","LANE":"５７６巷","ALLEY":" ","HOUSE_NO":"７號六樓之２","E_COORD97":169709.67000000001,"N_COORD97":2545762.0899999999,"ADDRESS":"北門路二段５７６巷７號六樓之２","OBJECTID":445154},"geometry":{"x":169709.67000000086,"y":2545762.0899999999}},{"attributes":{"ID":445180,"DIS_CODE":0,"TOWNNAME":"北區","LI":"大道里","LIN":"5鄰","STREET":"北門路","SECT":"二段","MAREA":" ","LANE":"５７６巷","ALLEY":" ","HOUSE_NO":"７號六樓之１","E_COORD97":169709.67000000001,"N_COORD97":2545762.0899999999,"ADDRESS":"北門路二段５７６巷７號六樓之１","OBJECTID":445155},"geometry":{"x":169709.67000000086,"y":2545762.0899999999}},{"attributes":{"ID":445181,"DIS_CODE":0,"TOWNNAME":"北區","LI":"大道里","LIN":"5鄰","STREET":"北門路","SECT":"二段","MAREA":" ","LANE":"５７６巷","ALLEY":" ","HOUSE_NO":"７號七樓之２","E_COORD97":169709.67000000001,"N_COORD97":2545762.0899999999,"ADDRESS":"北門路二段５７６巷７號七樓之２","OBJECTID":445156},"geometry":{"x":169709.67000000086,"y":2545762.0899999999}},{"attributes":{"ID":445182,"DIS_CODE":0,"TOWNNAME":"北區","LI":"大道里","LIN":"5鄰","STREET":"北門路","SECT":"二段","MAREA":" ","LANE":"５７６巷","ALLEY":" ","HOUSE_NO":"７號七樓之１","E_COORD97":169709.67000000001,"N_COORD97":2545762.0899999999,"ADDRESS":"北門路二段５７６巷７號七樓之１","OBJECTID":445157},"geometry":{"x":169709.67000000086,"y":2545762.0899999999}},{"attributes":{"ID":445183,"DIS_CODE":0,"TOWNNAME":"北區","LI":"大道里","LIN":"5鄰","STREET":"北門路","SECT":"二段","MAREA":" ","LANE":"５７６巷","ALLEY":" ","HOUSE_NO":"７號八樓之２","E_COORD97":169709.67000000001,"N_COORD97":2545762.0899999999,"ADDRESS":"北門路二段５７６巷７號八樓之２","OBJECTID":445158},"geometry":{"x":169709.67000000086,"y":2545762.0899999999}},{"attributes":{"ID":445184,"DIS_CODE":0,"TOWNNAME":"北區","LI":"大道里","LIN":"5鄰","STREET":"北門路","SECT":"二段","MAREA":" ","LANE":"５７６巷","ALLEY":" ","HOUSE_NO":"７號八樓之１","E_COORD97":169709.67000000001,"N_COORD97":2545762.0899999999,"ADDRESS":"北門路二段５７６巷７號八樓之１","OBJECTID":445159},"geometry":{"x":169709.67000000086,"y":2545762.0899999999}},{"attributes":{"ID":445185,"DIS_CODE":0,"TOWNNAME":"北區","LI":"大道里","LIN":"5鄰","STREET":"北門路","SECT":"二段","MAREA":" ","LANE":"５７６巷","ALLEY":" ","HOUSE_NO":"７號九樓之２","E_COORD97":169709.67000000001,"N_COORD97":2545762.0899999999,"ADDRESS":"北門路二段５７６巷７號九樓之２","OBJECTID":445160},"geometry":{"x":169709.67000000086,"y":2545762.0899999999}},{"attributes":{"ID":445186,"DIS_CODE":0,"TOWNNAME":"北區","LI":"大道里","LIN":"5鄰","STREET":"北門路","SECT":"二段","MAREA":" ","LANE":"５７６巷","ALLEY":" ","HOUSE_NO":"７號九樓之１","E_COORD97":169709.67000000001,"N_COORD97":2545762.0899999999,"ADDRESS":"北門路二段５７６巷７號九樓之１","OBJECTID":445161},"geometry":{"x":169709.67000000086,"y":2545762.0899999999}},{"attributes":{"ID":445187,"DIS_CODE":0,"TOWNNAME":"北區","LI":"大道里","LIN":"5鄰","STREET":"北門路","SECT":"二段","MAREA":" ","LANE":"５７６巷","ALLEY":" ","HOUSE_NO":"７號十樓之２","E_COORD97":169709.67000000001,"N_COORD97":2545762.0899999999,"ADDRESS":"北門路二段５７６巷７號十樓之２","OBJECTID":445162},"geometry":{"x":169709.67000000086,"y":2545762.0899999999}},{"attributes":{"ID":445188,"DIS_CODE":0,"TOWNNAME":"北區","LI":"大道里","LIN":"5鄰","STREET":"北門路","SECT":"二段","MAREA":" ","LANE":"５７６巷","ALLEY":" ","HOUSE_NO":"７號十樓之１","E_COORD97":169709.67000000001,"N_COORD97":2545762.0899999999,"ADDRESS":"北門路二段５７６巷７號十樓之１","OBJECTID":445163},"geometry":{"x":169709.67000000086,"y":2545762.0899999999}},{"attributes":{"ID":445189,"DIS_CODE":0,"TOWNNAME":"北區","LI":"大道里","LIN":"5鄰","STREET":"北門路","SECT":"二段","MAREA":" ","LANE":"５７６巷","ALLEY":" ","HOUSE_NO":"９號三樓之２","E_COORD97":169715.23000000001,"N_COORD97":2545779.3999999999,"ADDRESS":"北門路二段５７６巷９號三樓之２","OBJECTID":445164},"geometry":{"x":169715.23000000045,"y":2545779.4000000022}},{"attributes":{"ID":445190,"DIS_CODE":0,"TOWNNAME":"北區","LI":"大道里","LIN":"5鄰","STREET":"北門路","SECT":"二段","MAREA":" ","LANE":"５７６巷","ALLEY":" ","HOUSE_NO":"９號三樓之１","E_COORD97":169715.23000000001,"N_COORD97":2545779.3999999999,"ADDRESS":"北門路二段５７６巷９號三樓之１","OBJECTID":445165},"geometry":{"x":169715.23000000045,"y":2545779.4000000022}},{"attributes":{"ID":445191,"DIS_CODE":0,"TOWNNAME":"北區","LI":"大道里","LIN":"5鄰","STREET":"北門路","SECT":"二段","MAREA":" ","LANE":"５７６巷","ALLEY":" ","HOUSE_NO":"９號四樓之２","E_COORD97":169715.23000000001,"N_COORD97":2545779.3999999999,"ADDRESS":"北門路二段５７６巷９號四樓之２","OBJECTID":445166},"geometry":{"x":169715.23000000045,"y":2545779.4000000022}},{"attributes":{"ID":445192,"DIS_CODE":0,"TOWNNAME":"北區","LI":"大道里","LIN":"5鄰","STREET":"北門路","SECT":"二段","MAREA":" ","LANE":"５７６巷","ALLEY":" ","HOUSE_NO":"９號四樓之１","E_COORD97":169715.23000000001,"N_COORD97":2545779.3999999999,"ADDRESS":"北門路二段５７６巷９號四樓之１","OBJECTID":445167},"geometry":{"x":169715.23000000045,"y":2545779.4000000022}},{"attributes":{"ID":445193,"DIS_CODE":0,"TOWNNAME":"北區","LI":"大道里","LIN":"5鄰","STREET":"北門路","SECT":"二段","MAREA":" ","LANE":"５７６巷","ALLEY":" ","HOUSE_NO":"９號五樓之２","E_COORD97":169715.23000000001,"N_COORD97":2545779.3999999999,"ADDRESS":"北門路二段５７６巷９號五樓之２","OBJECTID":445168},"geometry":{"x":169715.23000000045,"y":2545779.4000000022}},{"attributes":{"ID":445194,"DIS_CODE":0,"TOWNNAME":"北區","LI":"大道里","LIN":"5鄰","STREET":"北門路","SECT":"二段","MAREA":" ","LANE":"５７６巷","ALLEY":" ","HOUSE_NO":"９號五樓之１","E_COORD97":169715.23000000001,"N_COORD97":2545779.3999999999,"ADDRESS":"北門路二段５７６巷９號五樓之１","OBJECTID":445169},"geometry":{"x":169715.23000000045,"y":2545779.4000000022}},{"attributes":{"ID":445195,"DIS_CODE":0,"TOWNNAME":"北區","LI":"大道里","LIN":"5鄰","STREET":"北門路","SECT":"二段","MAREA":" ","LANE":"５７６巷","ALLEY":" ","HOUSE_NO":"９號六樓之２","E_COORD97":169715.23000000001,"N_COORD97":2545779.3999999999,"ADDRESS":"北門路二段５７６巷９號六樓之２","OBJECTID":445170},"geometry":{"x":169715.23000000045,"y":2545779.4000000022}},{"attributes":{"ID":445196,"DIS_CODE":0,"TOWNNAME":"北區","LI":"大道里","LIN":"5鄰","STREET":"北門路","SECT":"二段","MAREA":" ","LANE":"５７６巷","ALLEY":" ","HOUSE_NO":"９號六樓之１","E_COORD97":169715.23000000001,"N_COORD97":2545779.3999999999,"ADDRESS":"北門路二段５７６巷９號六樓之１","OBJECTID":445171},"geometry":{"x":169715.23000000045,"y":2545779.4000000022}},{"attributes":{"ID":445197,"DIS_CODE":0,"TOWNNAME":"北區","LI":"大道里","LIN":"5鄰","STREET":"北門路","SECT":"二段","MAREA":" ","LANE":"５７６巷","ALLEY":" ","HOUSE_NO":"９號七樓之２","E_COORD97":169715.23000000001,"N_COORD97":2545779.3999999999,"ADDRESS":"北門路二段５７６巷９號七樓之２","OBJECTID":445172},"geometry":{"x":169715.23000000045,"y":2545779.4000000022}},{"attributes":{"ID":445198,"DIS_CODE":0,"TOWNNAME":"北區","LI":"大道里","LIN":"5鄰","STREET":"北門路","SECT":"二段","MAREA":" ","LANE":"５７６巷","ALLEY":" ","HOUSE_NO":"９號七樓之１","E_COORD97":169715.23000000001,"N_COORD97":2545779.3999999999,"ADDRESS":"北門路二段５７６巷９號七樓之１","OBJECTID":445173},"geometry":{"x":169715.23000000045,"y":2545779.4000000022}},{"attributes":{"ID":445199,"DIS_CODE":0,"TOWNNAME":"北區","LI":"大道里","LIN":"5鄰","STREET":"北門路","SECT":"二段","MAREA":" ","LANE":"５７６巷","ALLEY":" ","HOUSE_NO":"９號八樓之２","E_COORD97":169715.23000000001,"N_COORD97":2545779.3999999999,"ADDRESS":"北門路二段５７６巷９號八樓之２","OBJECTID":445174},"geometry":{"x":169715.23000000045,"y":2545779.4000000022}},{"attributes":{"ID":445200,"DIS_CODE":0,"TOWNNAME":"北區","LI":"大道里","LIN":"5鄰","STREET":"北門路","SECT":"二段","MAREA":" ","LANE":"５７６巷","ALLEY":" ","HOUSE_NO":"９號八樓之１","E_COORD97":169715.23000000001,"N_COORD97":2545779.3999999999,"ADDRESS":"北門路二段５７６巷９號八樓之１","OBJECTID":445175},"geometry":{"x":169715.23000000045,"y":2545779.4000000022}},{"attributes":{"ID":445201,"DIS_CODE":0,"TOWNNAME":"北區","LI":"大道里","LIN":"5鄰","STREET":"北門路","SECT":"二段","MAREA":" ","LANE":"５７６巷","ALLEY":" ","HOUSE_NO":"９號九樓之２","E_COORD97":169715.23000000001,"N_COORD97":2545779.3999999999,"ADDRESS":"北門路二段５７６巷９號九樓之２","OBJECTID":445176},"geometry":{"x":169715.23000000045,"y":2545779.4000000022}},{"attributes":{"ID":445202,"DIS_CODE":0,"TOWNNAME":"北區","LI":"大道里","LIN":"5鄰","STREET":"北門路","SECT":"二段","MAREA":" ","LANE":"５７６巷","ALLEY":" ","HOUSE_NO":"９號九樓之１","E_COORD97":169715.23000000001,"N_COORD97":2545779.3999999999,"ADDRESS":"北門路二段５７６巷９號九樓之１","OBJECTID":445177},"geometry":{"x":169715.23000000045,"y":2545779.4000000022}},{"attributes":{"ID":445203,"DIS_CODE":0,"TOWNNAME":"北區","LI":"大道里","LIN":"5鄰","STREET":"北門路","SECT":"二段","MAREA":" ","LANE":"５７６巷","ALLEY":" ","HOUSE_NO":"９號十樓之２","E_COORD97":169715.23000000001,"N_COORD97":2545779.3999999999,"ADDRESS":"北門路二段５７６巷９號十樓之２","OBJECTID":445178},"geometry":{"x":169715.23000000045,"y":2545779.4000000022}},{"attributes":{"ID":445204,"DIS_CODE":0,"TOWNNAME":"北區","LI":"大道里","LIN":"5鄰","STREET":"北門路","SECT":"二段","MAREA":" ","LANE":"５７６巷","ALLEY":" ","HOUSE_NO":"９號十樓之１","E_COORD97":169715.23000000001,"N_COORD97":2545779.3999999999,"ADDRESS":"北門路二段５７６巷９號十樓之１","OBJECTID":445179},"geometry":{"x":169715.23000000045,"y":2545779.4000000022}},{"attributes":{"ID":445205,"DIS_CODE":0,"TOWNNAME":"北區","LI":"三德里","LIN":"5鄰","STREET":"忠義路","SECT":"三段","MAREA":" ","LANE":"３９巷","ALLEY":" ","HOUSE_NO":"１２號二樓","E_COORD97":168491.64000000001,"N_COORD97":2544454.3300000001,"ADDRESS":"忠義路三段３９巷１２號二樓","OBJECTID":445180},"geometry":{"x":168491.64000000153,"y":2544454.3300000019}},{"attributes":{"ID":445206,"DIS_CODE":0,"TOWNNAME":"北區","LI":"三德里","LIN":"5鄰","STREET":"忠義路","SECT":"三段","MAREA":" ","LANE":"３９巷","ALLEY":" ","HOUSE_NO":"１２號三樓","E_COORD97":168491.64000000001,"N_COORD97":2544454.3300000001,"ADDRESS":"忠義路三段３９巷１２號三樓","OBJECTID":445181},"geometry":{"x":168491.64000000153,"y":2544454.3300000019}},{"attributes":{"ID":445207,"DIS_CODE":0,"TOWNNAME":"永康區","LI":"東灣里","LIN":"1鄰","STREET":"南灣街","SECT":" ","MAREA":" ","LANE":" ","ALLEY":" ","HOUSE_NO":"１８號","E_COORD97":174620.16,"N_COORD97":2544887.8500000001,"ADDRESS":"南灣街１８號","OBJECTID":445182},"geometry":{"x":174620.16000000201,"y":2544887.8499999996}},{"attributes":{"ID":445208,"DIS_CODE":0,"TOWNNAME":"北區","LI":"三德里","LIN":"5鄰","STREET":"忠義路","SECT":"三段","MAREA":" ","LANE":"３９巷","ALLEY":" ","HOUSE_NO":"１２號五樓","E_COORD97":168491.64000000001,"N_COORD97":2544454.3300000001,"ADDRESS":"忠義路三段３９巷１２號五樓","OBJECTID":445183},"geometry":{"x":168491.64000000153,"y":2544454.3300000019}},{"attributes":{"ID":445209,"DIS_CODE":0,"TOWNNAME":"北區","LI":"三德里","LIN":"5鄰","STREET":"忠義路","SECT":"三段","MAREA":" ","LANE":"３９巷","ALLEY":" ","HOUSE_NO":"１２號四樓","E_COORD97":168491.64000000001,"N_COORD97":2544454.3300000001,"ADDRESS":"忠義路三段３９巷１２號四樓","OBJECTID":445184},"geometry":{"x":168491.64000000153,"y":2544454.3300000019}},{"attributes":{"ID":445210,"DIS_CODE":0,"TOWNNAME":"北區","LI":"三德里","LIN":"5鄰","STREET":"忠義路","SECT":"三段","MAREA":" ","LANE":"３９巷","ALLEY":" ","HOUSE_NO":"１４號二樓之１","E_COORD97":168485.23000000001,"N_COORD97":2544457.5899999999,"ADDRESS":"忠義路三段３９巷１４號二樓之１","OBJECTID":445185},"geometry":{"x":168485.23000000231,"y":2544457.5900000036}},{"attributes":{"ID":445211,"DIS_CODE":0,"TOWNNAME":"北區","LI":"三德里","LIN":"5鄰","STREET":"忠義路","SECT":"三段","MAREA":" ","LANE":"３９巷","ALLEY":" ","HOUSE_NO":"１４號二樓之２","E_COORD97":168485.23000000001,"N_COORD97":2544457.5899999999,"ADDRESS":"忠義路三段３９巷１４號二樓之２","OBJECTID":445186},"geometry":{"x":168485.23000000231,"y":2544457.5900000036}},{"attributes":{"ID":445212,"DIS_CODE":0,"TOWNNAME":"北區","LI":"三德里","LIN":"5鄰","STREET":"忠義路","SECT":"三段","MAREA":" ","LANE":"３９巷","ALLEY":" ","HOUSE_NO":"１４號三樓之１","E_COORD97":168485.23000000001,"N_COORD97":2544457.5899999999,"ADDRESS":"忠義路三段３９巷１４號三樓之１","OBJECTID":445187},"geometry":{"x":168485.23000000231,"y":2544457.5900000036}},{"attributes":{"ID":445213,"DIS_CODE":0,"TOWNNAME":"北區","LI":"三德里","LIN":"5鄰","STREET":"忠義路","SECT":"三段","MAREA":" ","LANE":"３９巷","ALLEY":" ","HOUSE_NO":"１４號三樓之２","E_COORD97":168485.23000000001,"N_COORD97":2544457.5899999999,"ADDRESS":"忠義路三段３９巷１４號三樓之２","OBJECTID":445188},"geometry":{"x":168485.23000000231,"y":2544457.5900000036}},{"attributes":{"ID":445214,"DIS_CODE":0,"TOWNNAME":"北區","LI":"三德里","LIN":"5鄰","STREET":"忠義路","SECT":"三段","MAREA":" ","LANE":"３９巷","ALLEY":" ","HOUSE_NO":"１４號五樓之１","E_COORD97":168485.23000000001,"N_COORD97":2544457.5899999999,"ADDRESS":"忠義路三段３９巷１４號五樓之１","OBJECTID":445189},"geometry":{"x":168485.23000000231,"y":2544457.5900000036}},{"attributes":{"ID":445215,"DIS_CODE":0,"TOWNNAME":"北區","LI":"三德里","LIN":"5鄰","STREET":"忠義路","SECT":"三段","MAREA":" ","LANE":"３９巷","ALLEY":" ","HOUSE_NO":"１４號五樓之２","E_COORD97":168485.23000000001,"N_COORD97":2544457.5899999999,"ADDRESS":"忠義路三段３９巷１４號五樓之２","OBJECTID":445190},"geometry":{"x":168485.23000000231,"y":2544457.5900000036}},{"attributes":{"ID":445216,"DIS_CODE":0,"TOWNNAME":"北區","LI":"三德里","LIN":"5鄰","STREET":"忠義路","SECT":"三段","MAREA":" ","LANE":"３９巷","ALLEY":" ","HOUSE_NO":"１４號四樓之１","E_COORD97":168485.23000000001,"N_COORD97":2544457.5899999999,"ADDRESS":"忠義路三段３９巷１４號四樓之１","OBJECTID":445191},"geometry":{"x":168485.23000000231,"y":2544457.5900000036}},{"attributes":{"ID":445217,"DIS_CODE":0,"TOWNNAME":"北區","LI":"三德里","LIN":"5鄰","STREET":"忠義路","SECT":"三段","MAREA":" ","LANE":"３９巷","ALLEY":" ","HOUSE_NO":"１４號四樓之２","E_COORD97":168485.23000000001,"N_COORD97":2544457.5899999999,"ADDRESS":"忠義路三段３９巷１４號四樓之２","OBJECTID":445192},"geometry":{"x":168485.23000000231,"y":2544457.5900000036}},{"attributes":{"ID":445218,"DIS_CODE":0,"TOWNNAME":"安平區","LI":"文平里","LIN":"5鄰","STREET":"建平六街","SECT":" ","MAREA":" ","LANE":"８０巷","ALLEY":" ","HOUSE_NO":"１１５號二樓之３","E_COORD97":166417.20999999999,"N_COORD97":2543138.25,"ADDRESS":"建平六街８０巷１１５號二樓之３","OBJECTID":445193},"geometry":{"x":166417.21000000089,"y":2543138.2500000019}},{"attributes":{"ID":445219,"DIS_CODE":0,"TOWNNAME":"安平區","LI":"文平里","LIN":"5鄰","STREET":"建平六街","SECT":" ","MAREA":" ","LANE":"８０巷","ALLEY":" ","HOUSE_NO":"１１５號三樓之１","E_COORD97":166417.20999999999,"N_COORD97":2543138.25,"ADDRESS":"建平六街８０巷１１５號三樓之１","OBJECTID":445194},"geometry":{"x":166417.21000000089,"y":2543138.2500000019}},{"attributes":{"ID":445220,"DIS_CODE":0,"TOWNNAME":"安平區","LI":"文平里","LIN":"5鄰","STREET":"建平六街","SECT":" ","MAREA":" ","LANE":"８０巷","ALLEY":" ","HOUSE_NO":"１１５號三樓之２","E_COORD97":166417.20999999999,"N_COORD97":2543138.25,"ADDRESS":"建平六街８０巷１１５號三樓之２","OBJECTID":445195},"geometry":{"x":166417.21000000089,"y":2543138.2500000019}},{"attributes":{"ID":445221,"DIS_CODE":0,"TOWNNAME":"安平區","LI":"文平里","LIN":"5鄰","STREET":"建平六街","SECT":" ","MAREA":" ","LANE":"８０巷","ALLEY":" ","HOUSE_NO":"１１５號三樓之３","E_COORD97":166417.20999999999,"N_COORD97":2543138.25,"ADDRESS":"建平六街８０巷１１５號三樓之３","OBJECTID":445196},"geometry":{"x":166417.21000000089,"y":2543138.2500000019}},{"attributes":{"ID":445222,"DIS_CODE":0,"TOWNNAME":"安平區","LI":"文平里","LIN":"5鄰","STREET":"建平六街","SECT":" ","MAREA":" ","LANE":"８０巷","ALLEY":" ","HOUSE_NO":"１１５號三樓之４","E_COORD97":166417.20999999999,"N_COORD97":2543138.25,"ADDRESS":"建平六街８０巷１１５號三樓之４","OBJECTID":445197},"geometry":{"x":166417.21000000089,"y":2543138.2500000019}},{"attributes":{"ID":445223,"DIS_CODE":0,"TOWNNAME":"安平區","LI":"文平里","LIN":"5鄰","STREET":"建平六街","SECT":" ","MAREA":" ","LANE":"８０巷","ALLEY":" ","HOUSE_NO":"１１５號三樓之５","E_COORD97":166417.20999999999,"N_COORD97":2543138.25,"ADDRESS":"建平六街８０巷１１５號三樓之５","OBJECTID":445198},"geometry":{"x":166417.21000000089,"y":2543138.2500000019}},{"attributes":{"ID":445224,"DIS_CODE":0,"TOWNNAME":"安平區","LI":"文平里","LIN":"5鄰","STREET":"建平六街","SECT":" ","MAREA":" ","LANE":"８０巷","ALLEY":" ","HOUSE_NO":"１１５號五樓之１","E_COORD97":166417.20999999999,"N_COORD97":2543138.25,"ADDRESS":"建平六街８０巷１１５號五樓之１","OBJECTID":445199},"geometry":{"x":166417.21000000089,"y":2543138.2500000019}},{"attributes":{"ID":445225,"DIS_CODE":0,"TOWNNAME":"安平區","LI":"文平里","LIN":"5鄰","STREET":"建平六街","SECT":" ","MAREA":" ","LANE":"８０巷","ALLEY":" ","HOUSE_NO":"１１５號五樓之１０","E_COORD97":166417.20999999999,"N_COORD97":2543138.25,"ADDRESS":"建平六街８０巷１１５號五樓之１０","OBJECTID":445200},"geometry":{"x":166417.21000000089,"y":2543138.2500000019}}]}