{"displayFieldName":"TOWNNAME","fieldAliases":{"ID":"ID","DIS_CODE":"DIS_CODE","TOWNNAME":"TOWNNAME","LI":"LI","LIN":"LIN","STREET":"STREET","SECT":"SECT","MAREA":"MAREA","LANE":"LANE","ALLEY":"ALLEY","HOUSE_NO":"HOUSE_NO","E_COORD97":"E_COORD97","N_COORD97":"N_COORD97","ADDRESS":"ADDRESS","OBJECTID":"OBJECTID"},"geometryType":"esriGeometryPoint","spatialReference":{"wkid":102443,"latestWkid":3826},"fields":[{"name":"ID","type":"esriFieldTypeDouble","alias":"ID"},{"name":"DIS_CODE","type":"esriFieldTypeInteger","alias":"DIS_CODE"},{"name":"TOWNNAME","type":"esriFieldTypeString","alias":"TOWNNAME","length":8},{"name":"LI","type":"esriFieldTypeString","alias":"LI","length":8},{"name":"LIN","type":"esriFieldTypeString","alias":"LIN","length":12},{"name":"STREET","type":"esriFieldTypeString","alias":"STREET","length":20},{"name":"SECT","type":"esriFieldTypeString","alias":"SECT","length":8},{"name":"MAREA","type":"esriFieldTypeString","alias":"MAREA","length":12},{"name":"LANE","type":"esriFieldTypeString","alias":"LANE","length":10},{"name":"ALLEY","type":"esriFieldTypeString","alias":"ALLEY","length":10},{"name":"HOUSE_NO","type":"esriFieldTypeString","alias":"HOUSE_NO","length":20},{"name":"E_COORD97","type":"esriFieldTypeDouble","alias":"E_COORD97"},{"name":"N_COORD97","type":"esriFieldTypeDouble","alias":"N_COORD97"},{"name":"ADDRESS","type":"esriFieldTypeString","alias":"ADDRESS","length":50},{"name":"OBJECTID","type":"esriFieldTypeOID","alias":"OBJECTID"}],"features":[{"attributes":{"ID":37401,"DIS_CODE":0,"TOWNNAME":"佳里區","LI":"佳化里","LIN":"7鄰","STREET":" ","SECT":" ","MAREA":"佳里興","LANE":" ","ALLEY":" ","HOUSE_NO":"６５號之１","E_COORD97":167501.95000000001,"N_COORD97":2565090.1400000001,"ADDRESS":"佳里興６５號之１","OBJECTID":37401},"geometry":{"x":167501.95000000205,"y":2565090.1400000006}},{"attributes":{"ID":37402,"DIS_CODE":0,"TOWNNAME":"佳里區","LI":"佳化里","LIN":"7鄰","STREET":" ","SECT":" ","MAREA":"佳里興","LANE":" ","ALLEY":" ","HOUSE_NO":"６５號之３","E_COORD97":167501.48999999999,"N_COORD97":2565098.2400000002,"ADDRESS":"佳里興６５號之３","OBJECTID":37402},"geometry":{"x":167501.49000000022,"y":2565098.2400000021}},{"attributes":{"ID":37403,"DIS_CODE":0,"TOWNNAME":"佳里區","LI":"佳化里","LIN":"7鄰","STREET":" ","SECT":" ","MAREA":"佳里興","LANE":" ","ALLEY":" ","HOUSE_NO":"６５號之８","E_COORD97":167497.09,"N_COORD97":2565062.21,"ADDRESS":"佳里興６５號之８","OBJECTID":37403},"geometry":{"x":167497.08999999892,"y":2565062.2100000028}},{"attributes":{"ID":37404,"DIS_CODE":0,"TOWNNAME":"安南區","LI":"\u25A0南里","LIN":"8鄰","STREET":"安昌街","SECT":" ","MAREA":" ","LANE":"２１９巷","ALLEY":"１２弄","HOUSE_NO":"５號","E_COORD97":170047.16,"N_COORD97":2552528.3999999999,"ADDRESS":"安昌街２１９巷１２弄５號","OBJECTID":37404},"geometry":{"x":170047.16000000108,"y":2552528.4000000041}},{"attributes":{"ID":37405,"DIS_CODE":0,"TOWNNAME":"安南區","LI":"\u25A0南里","LIN":"8鄰","STREET":"安昌街","SECT":" ","MAREA":" ","LANE":"２１９巷","ALLEY":"１２弄","HOUSE_NO":"６號","E_COORD97":170063.22,"N_COORD97":2552528.25,"ADDRESS":"安昌街２１９巷１２弄６號","OBJECTID":37405},"geometry":{"x":170063.22000000067,"y":2552528.25}},{"attributes":{"ID":37406,"DIS_CODE":0,"TOWNNAME":"安南區","LI":"\u25A0南里","LIN":"8鄰","STREET":"安昌街","SECT":" ","MAREA":" ","LANE":"２１９巷","ALLEY":"１２弄","HOUSE_NO":"７號","E_COORD97":170048.06,"N_COORD97":2552533.7999999998,"ADDRESS":"安昌街２１９巷１２弄７號","OBJECTID":37406},"geometry":{"x":170048.05999999959,"y":2552533.8000000026}},{"attributes":{"ID":37407,"DIS_CODE":0,"TOWNNAME":"安南區","LI":"\u25A0南里","LIN":"8鄰","STREET":"安昌街","SECT":" ","MAREA":" ","LANE":"２１９巷","ALLEY":"１２弄","HOUSE_NO":"９號","E_COORD97":170048.06,"N_COORD97":2552539.9100000001,"ADDRESS":"安昌街２１９巷１２弄９號","OBJECTID":37407},"geometry":{"x":170048.05999999959,"y":2552539.910000002}},{"attributes":{"ID":37408,"DIS_CODE":0,"TOWNNAME":"安南區","LI":"\u25A0南里","LIN":"8鄰","STREET":"安昌街","SECT":" ","MAREA":" ","LANE":"２７５巷","ALLEY":"５５弄","HOUSE_NO":"１０號","E_COORD97":170061.01999999999,"N_COORD97":2552594.48,"ADDRESS":"安昌街２７５巷５５弄１０號","OBJECTID":37408},"geometry":{"x":170061.02000000048,"y":2552594.4800000004}},{"attributes":{"ID":37409,"DIS_CODE":0,"TOWNNAME":"安南區","LI":"\u25A0南里","LIN":"8鄰","STREET":"安昌街","SECT":" ","MAREA":" ","LANE":"２７５巷","ALLEY":"５５弄","HOUSE_NO":"１１號","E_COORD97":170054.72,"N_COORD97":2552576.3199999998,"ADDRESS":"安昌街２７５巷５５弄１１號","OBJECTID":37409},"geometry":{"x":170054.72000000067,"y":2552576.320000004}},{"attributes":{"ID":37410,"DIS_CODE":0,"TOWNNAME":"安南區","LI":"\u25A0南里","LIN":"8鄰","STREET":"安昌街","SECT":" ","MAREA":" ","LANE":"２７５巷","ALLEY":"５５弄","HOUSE_NO":"１２號","E_COORD97":170056.16,"N_COORD97":2552594.48,"ADDRESS":"安昌街２７５巷５５弄１２號","OBJECTID":37410},"geometry":{"x":170056.16000000015,"y":2552594.4800000004}},{"attributes":{"ID":37411,"DIS_CODE":0,"TOWNNAME":"安南區","LI":"\u25A0南里","LIN":"8鄰","STREET":"安昌街","SECT":" ","MAREA":" ","LANE":"２７５巷","ALLEY":"５５弄","HOUSE_NO":"１３號","E_COORD97":170050.04000000001,"N_COORD97":2552576.3199999998,"ADDRESS":"安昌街２７５巷５５弄１３號","OBJECTID":37411},"geometry":{"x":170050.04000000004,"y":2552576.320000004}},{"attributes":{"ID":37412,"DIS_CODE":0,"TOWNNAME":"安南區","LI":"\u25A0南里","LIN":"8鄰","STREET":"安昌街","SECT":" ","MAREA":" ","LANE":"２７５巷","ALLEY":"５５弄","HOUSE_NO":"１４號","E_COORD97":170051.12,"N_COORD97":2552594.48,"ADDRESS":"安昌街２７５巷５５弄１４號","OBJECTID":37412},"geometry":{"x":170051.12000000011,"y":2552594.4800000004}},{"attributes":{"ID":37413,"DIS_CODE":0,"TOWNNAME":"佳里區","LI":"佳化里","LIN":"7鄰","STREET":" ","SECT":" ","MAREA":"佳里興","LANE":" ","ALLEY":" ","HOUSE_NO":"６６號之１","E_COORD97":167580.04000000001,"N_COORD97":2565110.0099999998,"ADDRESS":"佳里興６６號之１","OBJECTID":37413},"geometry":{"x":167580.04000000004,"y":2565110.0100000016}},{"attributes":{"ID":37414,"DIS_CODE":0,"TOWNNAME":"安南區","LI":"\u25A0南里","LIN":"8鄰","STREET":"安昌街","SECT":" ","MAREA":" ","LANE":"２７５巷","ALLEY":"５５弄","HOUSE_NO":"１５號","E_COORD97":170045.35999999999,"N_COORD97":2552576.1400000001,"ADDRESS":"安昌街２７５巷５５弄１５號","OBJECTID":37414},"geometry":{"x":170045.3600000022,"y":2552576.1400000025}},{"attributes":{"ID":37415,"DIS_CODE":0,"TOWNNAME":"安南區","LI":"\u25A0南里","LIN":"8鄰","STREET":"安昌街","SECT":" ","MAREA":" ","LANE":"２７５巷","ALLEY":"５５弄","HOUSE_NO":"１６號","E_COORD97":170045.89999999999,"N_COORD97":2552594.8300000001,"ADDRESS":"安昌街２７５巷５５弄１６號","OBJECTID":37415},"geometry":{"x":170045.9000000013,"y":2552594.8300000001}},{"attributes":{"ID":37416,"DIS_CODE":0,"TOWNNAME":"安南區","LI":"\u25A0南里","LIN":"8鄰","STREET":"安昌街","SECT":" ","MAREA":" ","LANE":"２７５巷","ALLEY":"５５弄","HOUSE_NO":"３１號","E_COORD97":170014.82000000001,"N_COORD97":2552581.9399999999,"ADDRESS":"安昌街２７５巷５５弄３１號","OBJECTID":37416},"geometry":{"x":170014.8200000003,"y":2552581.9400000013}},{"attributes":{"ID":37417,"DIS_CODE":0,"TOWNNAME":"安南區","LI":"\u25A0南里","LIN":"8鄰","STREET":"安昌街","SECT":" ","MAREA":" ","LANE":"２７５巷","ALLEY":"５５弄","HOUSE_NO":"３３號","E_COORD97":170009.67000000001,"N_COORD97":2552570.5299999998,"ADDRESS":"安昌街２７５巷５５弄３３號","OBJECTID":37417},"geometry":{"x":170009.67000000086,"y":2552570.5300000031}},{"attributes":{"ID":37418,"DIS_CODE":0,"TOWNNAME":"安南區","LI":"\u25A0南里","LIN":"8鄰","STREET":"安昌街","SECT":" ","MAREA":" ","LANE":"２７５巷","ALLEY":"５５弄","HOUSE_NO":"３５號","E_COORD97":169994.94,"N_COORD97":2552570.77,"ADDRESS":"安昌街２７５巷５５弄３５號","OBJECTID":37418},"geometry":{"x":169994.94000000041,"y":2552570.7700000014}},{"attributes":{"ID":37419,"DIS_CODE":0,"TOWNNAME":"安南區","LI":"\u25A0南里","LIN":"8鄰","STREET":"安昌街","SECT":" ","MAREA":" ","LANE":"２７５巷","ALLEY":"５５弄","HOUSE_NO":"３７號","E_COORD97":169985.94,"N_COORD97":2552570.77,"ADDRESS":"安昌街２７５巷５５弄３７號","OBJECTID":37419},"geometry":{"x":169985.94000000134,"y":2552570.7700000014}},{"attributes":{"ID":37420,"DIS_CODE":0,"TOWNNAME":"安南區","LI":"\u25A0南里","LIN":"8鄰","STREET":"安昌街","SECT":" ","MAREA":" ","LANE":"２７５巷","ALLEY":"５５弄","HOUSE_NO":"９號","E_COORD97":170059.22,"N_COORD97":2552576.5,"ADDRESS":"安昌街２７５巷５５弄９號","OBJECTID":37420},"geometry":{"x":170059.21999999881,"y":2552576.5}},{"attributes":{"ID":37421,"DIS_CODE":0,"TOWNNAME":"安南區","LI":"公\u25A0里","LIN":"8鄰","STREET":"安興街","SECT":" ","MAREA":" ","LANE":"１８１巷","ALLEY":"６１弄","HOUSE_NO":"２９號","E_COORD97":164068.12,"N_COORD97":2551967.6000000001,"ADDRESS":"安興街１８１巷６１弄２９號","OBJECTID":37421},"geometry":{"x":164068.12000000104,"y":2551967.6000000015}},{"attributes":{"ID":37422,"DIS_CODE":0,"TOWNNAME":"安南區","LI":"公\u25A0里","LIN":"8鄰","STREET":"安興街","SECT":" ","MAREA":" ","LANE":"１８１巷","ALLEY":"６１弄","HOUSE_NO":"３１號","E_COORD97":164073.32000000001,"N_COORD97":2551965.5299999998,"ADDRESS":"安興街１８１巷６１弄３１號","OBJECTID":37422},"geometry":{"x":164073.3200000003,"y":2551965.5299999993}},{"attributes":{"ID":37423,"DIS_CODE":0,"TOWNNAME":"永康區","LI":"\u25A0行里","LIN":"8鄰","STREET":"中正一街","SECT":" ","MAREA":" ","LANE":"３２巷","ALLEY":"６弄","HOUSE_NO":"１３號","E_COORD97":172903.67000000001,"N_COORD97":2548316.5600000001,"ADDRESS":"中正一街３２巷６弄１３號","OBJECTID":37423},"geometry":{"x":172903.66999999993,"y":2548316.5600000042}},{"attributes":{"ID":37424,"DIS_CODE":0,"TOWNNAME":"永康區","LI":"網寮里","LIN":"8鄰","STREET":"永二街","SECT":" ","MAREA":" ","LANE":"２４４巷","ALLEY":"６弄","HOUSE_NO":"２０號","E_COORD97":173313.82000000001,"N_COORD97":2546356.0800000001,"ADDRESS":"永二街２４４巷６弄２０號","OBJECTID":37424},"geometry":{"x":173313.8200000003,"y":2546356.0800000001}},{"attributes":{"ID":37425,"DIS_CODE":0,"TOWNNAME":"永康區","LI":"網寮里","LIN":"8鄰","STREET":"永二街","SECT":" ","MAREA":" ","LANE":"２４４巷","ALLEY":"４弄","HOUSE_NO":"３號","E_COORD97":173271.92999999999,"N_COORD97":2546361.8900000001,"ADDRESS":"永二街２４４巷４弄３號","OBJECTID":37425},"geometry":{"x":173271.93000000156,"y":2546361.8900000025}},{"attributes":{"ID":37426,"DIS_CODE":0,"TOWNNAME":"永康區","LI":"龍潭里","LIN":"8鄰","STREET":"龍橋街","SECT":" ","MAREA":" ","LANE":"５３巷","ALLEY":"２１弄","HOUSE_NO":"１１號","E_COORD97":174778.38,"N_COORD97":2548296.3300000001,"ADDRESS":"龍橋街５３巷２１弄１１號","OBJECTID":37426},"geometry":{"x":174778.38000000082,"y":2548296.3300000001}},{"attributes":{"ID":37427,"DIS_CODE":0,"TOWNNAME":"永康區","LI":"網寮里","LIN":"8鄰","STREET":"永二街","SECT":" ","MAREA":" ","LANE":"２４４巷","ALLEY":"６弄","HOUSE_NO":"２２號","E_COORD97":173318.35999999999,"N_COORD97":2546353.0800000001,"ADDRESS":"永二街２４４巷６弄２２號","OBJECTID":37427},"geometry":{"x":173318.36000000034,"y":2546353.0800000038}},{"attributes":{"ID":37428,"DIS_CODE":0,"TOWNNAME":"東區","LI":"虎尾里","LIN":"8鄰","STREET":"東成街","SECT":" ","MAREA":" ","LANE":"１４２巷","ALLEY":"８弄","HOUSE_NO":"１號","E_COORD97":171640.75,"N_COORD97":2542260.6899999999,"ADDRESS":"東成街１４２巷８弄１號","OBJECTID":37428},"geometry":{"x":171640.75,"y":2542260.6900000013}},{"attributes":{"ID":37429,"DIS_CODE":0,"TOWNNAME":"東區","LI":"虎尾里","LIN":"8鄰","STREET":"東成街","SECT":" ","MAREA":" ","LANE":"１４２巷","ALLEY":"８弄","HOUSE_NO":"２號","E_COORD97":171637.85000000001,"N_COORD97":2542278.8999999999,"ADDRESS":"東成街１４２巷８弄２號","OBJECTID":37429},"geometry":{"x":171637.84999999963,"y":2542278.9000000004}},{"attributes":{"ID":37430,"DIS_CODE":0,"TOWNNAME":"東區","LI":"虎尾里","LIN":"8鄰","STREET":"東成街","SECT":" ","MAREA":" ","LANE":"１４２巷","ALLEY":"８弄","HOUSE_NO":"３號","E_COORD97":171637.29999999999,"N_COORD97":2542260.1299999999,"ADDRESS":"東成街１４２巷８弄３號","OBJECTID":37430},"geometry":{"x":171637.30000000075,"y":2542260.1300000008}},{"attributes":{"ID":37431,"DIS_CODE":0,"TOWNNAME":"東區","LI":"虎尾里","LIN":"8鄰","STREET":"東成街","SECT":" ","MAREA":" ","LANE":"１４２巷","ALLEY":"８弄","HOUSE_NO":"４號","E_COORD97":171633.42999999999,"N_COORD97":2542278.21,"ADDRESS":"東成街１４２巷８弄４號","OBJECTID":37431},"geometry":{"x":171633.43000000063,"y":2542278.2100000028}},{"attributes":{"ID":37432,"DIS_CODE":0,"TOWNNAME":"南區","LI":"文華里","LIN":"14鄰","STREET":"美南街","SECT":" ","MAREA":" ","LANE":" ","ALLEY":" ","HOUSE_NO":"２５號","E_COORD97":167047.75,"N_COORD97":2543091.0699999998,"ADDRESS":"美南街２５號","OBJECTID":37432},"geometry":{"x":167047.75000000093,"y":2543091.0700000003}},{"attributes":{"ID":37433,"DIS_CODE":0,"TOWNNAME":"南區","LI":"文南里","LIN":"14鄰","STREET":"永南街","SECT":" ","MAREA":" ","LANE":" ","ALLEY":" ","HOUSE_NO":"３３號","E_COORD97":166808.73999999999,"N_COORD97":2542672.5899999999,"ADDRESS":"永南街３３號","OBJECTID":37433},"geometry":{"x":166808.74000000115,"y":2542672.5899999999}},{"attributes":{"ID":37434,"DIS_CODE":0,"TOWNNAME":"佳里區","LI":"佳化里","LIN":"7鄰","STREET":" ","SECT":" ","MAREA":"佳里興","LANE":" ","ALLEY":" ","HOUSE_NO":"６６號","E_COORD97":167560.79999999999,"N_COORD97":2565112.4900000002,"ADDRESS":"佳里興６６號","OBJECTID":37434},"geometry":{"x":167560.80000000075,"y":2565112.4899999984}},{"attributes":{"ID":37435,"DIS_CODE":0,"TOWNNAME":"佳里區","LI":"佳化里","LIN":"7鄰","STREET":" ","SECT":" ","MAREA":"佳里興","LANE":" ","ALLEY":" ","HOUSE_NO":"６７號","E_COORD97":167565.23999999999,"N_COORD97":2565137.3300000001,"ADDRESS":"佳里興６７號","OBJECTID":37435},"geometry":{"x":167565.24000000022,"y":2565137.3300000038}},{"attributes":{"ID":37436,"DIS_CODE":0,"TOWNNAME":"佳里區","LI":"佳化里","LIN":"7鄰","STREET":" ","SECT":" ","MAREA":"佳里興","LANE":" ","ALLEY":" ","HOUSE_NO":"６８號之１","E_COORD97":167624.63,"N_COORD97":2565138.71,"ADDRESS":"佳里興６８號之１","OBJECTID":37436},"geometry":{"x":167624.63000000082,"y":2565138.7100000009}},{"attributes":{"ID":37437,"DIS_CODE":0,"TOWNNAME":"佳里區","LI":"佳化里","LIN":"7鄰","STREET":" ","SECT":" ","MAREA":"佳里興","LANE":" ","ALLEY":" ","HOUSE_NO":"６８號之６","E_COORD97":167668.45999999999,"N_COORD97":2565106.6400000001,"ADDRESS":"佳里興６８號之６","OBJECTID":37437},"geometry":{"x":167668.46000000089,"y":2565106.6400000025}},{"attributes":{"ID":37438,"DIS_CODE":0,"TOWNNAME":"佳里區","LI":"佳化里","LIN":"7鄰","STREET":" ","SECT":" ","MAREA":"佳里興","LANE":" ","ALLEY":" ","HOUSE_NO":"６８號","E_COORD97":167599.51999999999,"N_COORD97":2565128.4399999999,"ADDRESS":"佳里興６８號","OBJECTID":37438},"geometry":{"x":167599.52000000048,"y":2565128.4399999995}},{"attributes":{"ID":37439,"DIS_CODE":0,"TOWNNAME":"佳里區","LI":"佳化里","LIN":"7鄰","STREET":" ","SECT":" ","MAREA":"佳里興","LANE":" ","ALLEY":" ","HOUSE_NO":"６９號之１０","E_COORD97":167569.95999999999,"N_COORD97":2565173.6899999999,"ADDRESS":"佳里興６９號之１０","OBJECTID":37439},"geometry":{"x":167569.96000000089,"y":2565173.6899999995}},{"attributes":{"ID":37440,"DIS_CODE":0,"TOWNNAME":"佳里區","LI":"佳化里","LIN":"7鄰","STREET":" ","SECT":" ","MAREA":"佳里興","LANE":" ","ALLEY":" ","HOUSE_NO":"６９號之１１","E_COORD97":167569.60999999999,"N_COORD97":2565169.25,"ADDRESS":"佳里興６９號之１１","OBJECTID":37440},"geometry":{"x":167569.61000000034,"y":2565169.2500000019}},{"attributes":{"ID":37441,"DIS_CODE":0,"TOWNNAME":"佳里區","LI":"佳化里","LIN":"7鄰","STREET":" ","SECT":" ","MAREA":"佳里興","LANE":" ","ALLEY":" ","HOUSE_NO":"６９號之１２","E_COORD97":167570.10999999999,"N_COORD97":2565164.73,"ADDRESS":"佳里興６９號之１２","OBJECTID":37441},"geometry":{"x":167570.11000000034,"y":2565164.7300000004}},{"attributes":{"ID":37442,"DIS_CODE":0,"TOWNNAME":"佳里區","LI":"佳化里","LIN":"7鄰","STREET":" ","SECT":" ","MAREA":"佳里興","LANE":" ","ALLEY":" ","HOUSE_NO":"６９號之１３","E_COORD97":167570.25,"N_COORD97":2565160.6699999999,"ADDRESS":"佳里興６９號之１３","OBJECTID":37442},"geometry":{"x":167570.25,"y":2565160.6699999999}},{"attributes":{"ID":37443,"DIS_CODE":0,"TOWNNAME":"佳里區","LI":"佳化里","LIN":"7鄰","STREET":" ","SECT":" ","MAREA":"佳里興","LANE":" ","ALLEY":" ","HOUSE_NO":"６９號之１４","E_COORD97":167570.16,"N_COORD97":2565156.6699999999,"ADDRESS":"佳里興６９號之１４","OBJECTID":37443},"geometry":{"x":167570.16000000108,"y":2565156.6700000018}},{"attributes":{"ID":37444,"DIS_CODE":0,"TOWNNAME":"佳里區","LI":"佳化里","LIN":"7鄰","STREET":" ","SECT":" ","MAREA":"佳里興","LANE":" ","ALLEY":" ","HOUSE_NO":"６９號之１５","E_COORD97":167570.25,"N_COORD97":2565152.6800000002,"ADDRESS":"佳里興６９號之１５","OBJECTID":37444},"geometry":{"x":167570.25,"y":2565152.6800000016}},{"attributes":{"ID":37445,"DIS_CODE":0,"TOWNNAME":"佳里區","LI":"佳化里","LIN":"7鄰","STREET":" ","SECT":" ","MAREA":"佳里興","LANE":" ","ALLEY":" ","HOUSE_NO":"６９號之３","E_COORD97":167555.64999999999,"N_COORD97":2565194,"ADDRESS":"佳里興６９號之３","OBJECTID":37445},"geometry":{"x":167555.6500000013,"y":2565194.0000000037}},{"attributes":{"ID":37446,"DIS_CODE":0,"TOWNNAME":"佳里區","LI":"佳化里","LIN":"7鄰","STREET":" ","SECT":" ","MAREA":"佳里興","LANE":" ","ALLEY":" ","HOUSE_NO":"６９號之５","E_COORD97":167541.92999999999,"N_COORD97":2565181.2400000002,"ADDRESS":"佳里興６９號之５","OBJECTID":37446},"geometry":{"x":167541.9299999997,"y":2565181.2400000002}},{"attributes":{"ID":37447,"DIS_CODE":0,"TOWNNAME":"佳里區","LI":"佳化里","LIN":"7鄰","STREET":" ","SECT":" ","MAREA":"佳里興","LANE":" ","ALLEY":" ","HOUSE_NO":"６９號之６","E_COORD97":167565.35000000001,"N_COORD97":2565191.75,"ADDRESS":"佳里興６９號之６","OBJECTID":37447},"geometry":{"x":167565.35000000056,"y":2565191.75}},{"attributes":{"ID":37448,"DIS_CODE":0,"TOWNNAME":"佳里區","LI":"佳化里","LIN":"7鄰","STREET":" ","SECT":" ","MAREA":"佳里興","LANE":" ","ALLEY":" ","HOUSE_NO":"６９號之７","E_COORD97":167570.14000000001,"N_COORD97":2565191.7999999998,"ADDRESS":"佳里興６９號之７","OBJECTID":37448},"geometry":{"x":167570.1400000006,"y":2565191.8000000007}},{"attributes":{"ID":37449,"DIS_CODE":0,"TOWNNAME":"下營區","LI":"西連里","LIN":"7鄰","STREET":" ","SECT":" ","MAREA":"西寮","LANE":" ","ALLEY":" ","HOUSE_NO":"２５號之４","E_COORD97":174741.67999999999,"N_COORD97":2567487.1400000001,"ADDRESS":"西寮２５號之４","OBJECTID":37449},"geometry":{"x":174741.68000000156,"y":2567487.1400000006}},{"attributes":{"ID":37450,"DIS_CODE":0,"TOWNNAME":"下營區","LI":"西連里","LIN":"7鄰","STREET":" ","SECT":" ","MAREA":"西寮","LANE":" ","ALLEY":" ","HOUSE_NO":"２５號之５","E_COORD97":174699.31,"N_COORD97":2567594.5299999998,"ADDRESS":"西寮２５號之５","OBJECTID":37450},"geometry":{"x":174699.30999999959,"y":2567594.5300000012}},{"attributes":{"ID":37451,"DIS_CODE":0,"TOWNNAME":"下營區","LI":"西連里","LIN":"7鄰","STREET":" ","SECT":" ","MAREA":"西寮","LANE":" ","ALLEY":" ","HOUSE_NO":"２５號之６","E_COORD97":174744.01000000001,"N_COORD97":2567630.2999999998,"ADDRESS":"西寮２５號之６","OBJECTID":37451},"geometry":{"x":174744.00999999978,"y":2567630.3000000045}},{"attributes":{"ID":37452,"DIS_CODE":0,"TOWNNAME":"東區","LI":"虎尾里","LIN":"8鄰","STREET":"東成街","SECT":" ","MAREA":" ","LANE":"１４２巷","ALLEY":"８弄","HOUSE_NO":"５號","E_COORD97":171633.70999999999,"N_COORD97":2542259.3100000001,"ADDRESS":"東成街１４２巷８弄５號","OBJECTID":37452},"geometry":{"x":171633.70999999996,"y":2542259.3100000005}},{"attributes":{"ID":37453,"DIS_CODE":0,"TOWNNAME":"東區","LI":"虎尾里","LIN":"8鄰","STREET":"東成街","SECT":" ","MAREA":" ","LANE":"１４２巷","ALLEY":"８弄","HOUSE_NO":"６號","E_COORD97":171629.29000000001,"N_COORD97":2542277.52,"ADDRESS":"東成街１４２巷８弄６號","OBJECTID":37453},"geometry":{"x":171629.29000000097,"y":2542277.5200000033}},{"attributes":{"ID":37454,"DIS_CODE":0,"TOWNNAME":"東區","LI":"虎尾里","LIN":"8鄰","STREET":"東成街","SECT":" ","MAREA":" ","LANE":"１４２巷","ALLEY":"８弄","HOUSE_NO":"７號","E_COORD97":171629.56,"N_COORD97":2542258.3399999999,"ADDRESS":"東成街１４２巷８弄７號","OBJECTID":37454},"geometry":{"x":171629.55999999959,"y":2542258.3399999999}},{"attributes":{"ID":37455,"DIS_CODE":0,"TOWNNAME":"東區","LI":"虎尾里","LIN":"8鄰","STREET":"東成街","SECT":" ","MAREA":" ","LANE":"１４２巷","ALLEY":"８弄","HOUSE_NO":"８號","E_COORD97":171625.70999999999,"N_COORD97":2542276.7200000002,"ADDRESS":"東成街１４２巷８弄８號","OBJECTID":37455},"geometry":{"x":171625.70999999996,"y":2542276.7200000007}},{"attributes":{"ID":37456,"DIS_CODE":0,"TOWNNAME":"東區","LI":"虎尾里","LIN":"8鄰","STREET":"東成街","SECT":" ","MAREA":" ","LANE":"１４２巷","ALLEY":"８弄","HOUSE_NO":"９號","E_COORD97":171625.57000000001,"N_COORD97":2542257.3500000001,"ADDRESS":"東成街１４２巷８弄９號","OBJECTID":37456},"geometry":{"x":171625.57000000216,"y":2542257.3499999996}},{"attributes":{"ID":37457,"DIS_CODE":0,"TOWNNAME":"東區","LI":"虎尾里","LIN":"8鄰","STREET":"東成街","SECT":" ","MAREA":" ","LANE":"１４２巷","ALLEY":"８弄","HOUSE_NO":"１０號","E_COORD97":171620.81,"N_COORD97":2542276.25,"ADDRESS":"東成街１４２巷８弄１０號","OBJECTID":37457},"geometry":{"x":171620.80999999959,"y":2542276.2499999981}},{"attributes":{"ID":37458,"DIS_CODE":0,"TOWNNAME":"下營區","LI":"西連里","LIN":"7鄰","STREET":" ","SECT":" ","MAREA":"西寮","LANE":" ","ALLEY":" ","HOUSE_NO":"２５號之７","E_COORD97":174697.98999999999,"N_COORD97":2567607.5,"ADDRESS":"西寮２５號之７","OBJECTID":37458},"geometry":{"x":174697.99000000115,"y":2567607.4999999981}},{"attributes":{"ID":37459,"DIS_CODE":0,"TOWNNAME":"東區","LI":"虎尾里","LIN":"8鄰","STREET":"東成街","SECT":" ","MAREA":" ","LANE":"１４２巷","ALLEY":"８弄","HOUSE_NO":"１１號","E_COORD97":171621.17000000001,"N_COORD97":2542256.9399999999,"ADDRESS":"東成街１４２巷８弄１１號","OBJECTID":37459},"geometry":{"x":171621.17000000179,"y":2542256.9399999995}},{"attributes":{"ID":37460,"DIS_CODE":0,"TOWNNAME":"東區","LI":"虎尾里","LIN":"8鄰","STREET":"東成街","SECT":" ","MAREA":" ","LANE":"１４２巷","ALLEY":"８弄","HOUSE_NO":"１２號","E_COORD97":171617.48000000001,"N_COORD97":2542275.2999999998,"ADDRESS":"東成街１４２巷８弄１２號","OBJECTID":37460},"geometry":{"x":171617.48000000045,"y":2542275.3000000007}},{"attributes":{"ID":37461,"DIS_CODE":0,"TOWNNAME":"東區","LI":"虎尾里","LIN":"8鄰","STREET":"東成街","SECT":" ","MAREA":" ","LANE":"１４２巷","ALLEY":"２２弄","HOUSE_NO":"１號","E_COORD97":171657.60000000001,"N_COORD97":2542232.0299999998,"ADDRESS":"東成街１４２巷２２弄１號","OBJECTID":37461},"geometry":{"x":171657.60000000056,"y":2542232.0299999993}},{"attributes":{"ID":37462,"DIS_CODE":0,"TOWNNAME":"東區","LI":"虎尾里","LIN":"8鄰","STREET":"東成街","SECT":" ","MAREA":" ","LANE":"１４２巷","ALLEY":"２２弄","HOUSE_NO":"３號","E_COORD97":171653.60000000001,"N_COORD97":2542231.75,"ADDRESS":"東成街１４２巷２２弄３號","OBJECTID":37462},"geometry":{"x":171653.60000000149,"y":2542231.75}},{"attributes":{"ID":37463,"DIS_CODE":0,"TOWNNAME":"東區","LI":"虎尾里","LIN":"8鄰","STREET":"東成街","SECT":" ","MAREA":" ","LANE":"１４２巷","ALLEY":"２２弄","HOUSE_NO":"５號","E_COORD97":171649.59,"N_COORD97":2542230.7799999998,"ADDRESS":"東成街１４２巷２２弄５號","OBJECTID":37463},"geometry":{"x":171649.58999999985,"y":2542230.7799999993}},{"attributes":{"ID":37464,"DIS_CODE":0,"TOWNNAME":"東區","LI":"虎尾里","LIN":"8鄰","STREET":"東成街","SECT":" ","MAREA":" ","LANE":"１４２巷","ALLEY":"２２弄","HOUSE_NO":"６號","E_COORD97":171635.23000000001,"N_COORD97":2542247.1400000001,"ADDRESS":"東成街１４２巷２２弄６號","OBJECTID":37464},"geometry":{"x":171635.23000000138,"y":2542247.1399999987}},{"attributes":{"ID":37465,"DIS_CODE":0,"TOWNNAME":"東區","LI":"虎尾里","LIN":"8鄰","STREET":"東成街","SECT":" ","MAREA":" ","LANE":"１４２巷","ALLEY":"２２弄","HOUSE_NO":"７號","E_COORD97":171645.85999999999,"N_COORD97":2542229.96,"ADDRESS":"東成街１４２巷２２弄７號","OBJECTID":37465},"geometry":{"x":171645.86000000127,"y":2542229.9600000028}},{"attributes":{"ID":37466,"DIS_CODE":0,"TOWNNAME":"東區","LI":"虎尾里","LIN":"8鄰","STREET":"東成街","SECT":" ","MAREA":" ","LANE":"１４２巷","ALLEY":"２２弄","HOUSE_NO":"８號","E_COORD97":171630.67000000001,"N_COORD97":2542246.3100000001,"ADDRESS":"東成街１４２巷２２弄８號","OBJECTID":37466},"geometry":{"x":171630.66999999993,"y":2542246.3100000042}},{"attributes":{"ID":37467,"DIS_CODE":0,"TOWNNAME":"東區","LI":"虎尾里","LIN":"8鄰","STREET":"東成街","SECT":" ","MAREA":" ","LANE":"１４２巷","ALLEY":"２２弄","HOUSE_NO":"９號","E_COORD97":171641.72,"N_COORD97":2542229.27,"ADDRESS":"東成街１４２巷２２弄９號","OBJECTID":37467},"geometry":{"x":171641.72000000067,"y":2542229.2700000014}},{"attributes":{"ID":37468,"DIS_CODE":0,"TOWNNAME":"鹽水區","LI":"水秀里","LIN":"14鄰","STREET":"忠義路","SECT":" ","MAREA":" ","LANE":" ","ALLEY":" ","HOUSE_NO":"９之２號","E_COORD97":175247.48999999999,"N_COORD97":2580121.23,"ADDRESS":"忠義路９之２號","OBJECTID":37468},"geometry":{"x":175247.49000000115,"y":2580121.2300000023}},{"attributes":{"ID":37469,"DIS_CODE":0,"TOWNNAME":"下營區","LI":"西連里","LIN":"7鄰","STREET":" ","SECT":" ","MAREA":"西寮","LANE":" ","ALLEY":" ","HOUSE_NO":"２５號之８","E_COORD97":174648.51000000001,"N_COORD97":2567588.3599999999,"ADDRESS":"西寮２５號之８","OBJECTID":37469},"geometry":{"x":174648.51000000071,"y":2567588.3600000013}},{"attributes":{"ID":37470,"DIS_CODE":0,"TOWNNAME":"下營區","LI":"西連里","LIN":"7鄰","STREET":" ","SECT":" ","MAREA":"西寮","LANE":" ","ALLEY":" ","HOUSE_NO":"２５號之９","E_COORD97":174644.14000000001,"N_COORD97":2567587.6699999999,"ADDRESS":"西寮２５號之９","OBJECTID":37470},"geometry":{"x":174644.1400000006,"y":2567587.6700000018}},{"attributes":{"ID":37471,"DIS_CODE":0,"TOWNNAME":"下營區","LI":"西連里","LIN":"7鄰","STREET":" ","SECT":" ","MAREA":"西寮","LANE":" ","ALLEY":" ","HOUSE_NO":"２９號之１","E_COORD97":174746.63,"N_COORD97":2567403.48,"ADDRESS":"西寮２９號之１","OBJECTID":37471},"geometry":{"x":174746.62999999989,"y":2567403.4800000004}},{"attributes":{"ID":37472,"DIS_CODE":0,"TOWNNAME":"下營區","LI":"西連里","LIN":"7鄰","STREET":" ","SECT":" ","MAREA":"西寮","LANE":" ","ALLEY":" ","HOUSE_NO":"２９號之２","E_COORD97":174753.73000000001,"N_COORD97":2567375.0299999998,"ADDRESS":"西寮２９號之２","OBJECTID":37472},"geometry":{"x":174753.73000000045,"y":2567375.0299999993}},{"attributes":{"ID":37473,"DIS_CODE":0,"TOWNNAME":"下營區","LI":"西連里","LIN":"7鄰","STREET":" ","SECT":" ","MAREA":"西寮","LANE":" ","ALLEY":" ","HOUSE_NO":"２９號之８","E_COORD97":174741.60999999999,"N_COORD97":2567433.8999999999,"ADDRESS":"西寮２９號之８","OBJECTID":37473},"geometry":{"x":174741.61000000127,"y":2567433.9000000022}},{"attributes":{"ID":37474,"DIS_CODE":0,"TOWNNAME":"下營區","LI":"西連里","LIN":"7鄰","STREET":" ","SECT":" ","MAREA":"西寮","LANE":" ","ALLEY":" ","HOUSE_NO":"２９號","E_COORD97":174696.98000000001,"N_COORD97":2567408.3399999999,"ADDRESS":"西寮２９號","OBJECTID":37474},"geometry":{"x":174696.98000000138,"y":2567408.3399999999}},{"attributes":{"ID":37475,"DIS_CODE":0,"TOWNNAME":"下營區","LI":"西連里","LIN":"7鄰","STREET":" ","SECT":" ","MAREA":"西寮","LANE":" ","ALLEY":" ","HOUSE_NO":"３０號","E_COORD97":174680.44,"N_COORD97":2567392.71,"ADDRESS":"西寮３０號","OBJECTID":37475},"geometry":{"x":174680.44000000134,"y":2567392.7100000009}},{"attributes":{"ID":37476,"DIS_CODE":0,"TOWNNAME":"下營區","LI":"紅厝里","LIN":"7鄰","STREET":" ","SECT":" ","MAREA":"紅毛厝","LANE":" ","ALLEY":" ","HOUSE_NO":"４２號","E_COORD97":174877.98000000001,"N_COORD97":2571753.7999999998,"ADDRESS":"紅毛厝４２號","OBJECTID":37476},"geometry":{"x":174877.98000000138,"y":2571753.8000000026}},{"attributes":{"ID":37477,"DIS_CODE":0,"TOWNNAME":"下營區","LI":"紅厝里","LIN":"7鄰","STREET":" ","SECT":" ","MAREA":"紅毛厝","LANE":" ","ALLEY":" ","HOUSE_NO":"４３號","E_COORD97":174900.01999999999,"N_COORD97":2571762.1600000001,"ADDRESS":"紅毛厝４３號","OBJECTID":37477},"geometry":{"x":174900.01999999955,"y":2571762.1600000001}},{"attributes":{"ID":37478,"DIS_CODE":0,"TOWNNAME":"下營區","LI":"紅厝里","LIN":"7鄰","STREET":" ","SECT":" ","MAREA":"紅毛厝","LANE":" ","ALLEY":" ","HOUSE_NO":"４５號之１","E_COORD97":174924.89000000001,"N_COORD97":2571784.8500000001,"ADDRESS":"紅毛厝４５號之１","OBJECTID":37478},"geometry":{"x":174924.89000000153,"y":2571784.8499999996}},{"attributes":{"ID":37479,"DIS_CODE":0,"TOWNNAME":"東區","LI":"虎尾里","LIN":"8鄰","STREET":"東成街","SECT":" ","MAREA":" ","LANE":"１４２巷","ALLEY":"２２弄","HOUSE_NO":"１０號","E_COORD97":171627.07999999999,"N_COORD97":2542245.6200000001,"ADDRESS":"東成街１４２巷２２弄１０號","OBJECTID":37479},"geometry":{"x":171627.08000000194,"y":2542245.6200000029}},{"attributes":{"ID":37480,"DIS_CODE":0,"TOWNNAME":"東區","LI":"虎尾里","LIN":"8鄰","STREET":"東成街","SECT":" ","MAREA":" ","LANE":"１４２巷","ALLEY":"２２弄","HOUSE_NO":"１１號","E_COORD97":171637.85000000001,"N_COORD97":2542228.2999999998,"ADDRESS":"東成街１４２巷２２弄１１號","OBJECTID":37480},"geometry":{"x":171637.84999999963,"y":2542228.3000000007}},{"attributes":{"ID":37481,"DIS_CODE":0,"TOWNNAME":"東區","LI":"虎尾里","LIN":"8鄰","STREET":"東成街","SECT":" ","MAREA":" ","LANE":"１４２巷","ALLEY":"２２弄","HOUSE_NO":"１２號","E_COORD97":171622.67999999999,"N_COORD97":2542244.9900000002,"ADDRESS":"東成街１４２巷２２弄１２號","OBJECTID":37481},"geometry":{"x":171622.68000000063,"y":2542244.9900000021}},{"attributes":{"ID":37482,"DIS_CODE":0,"TOWNNAME":"東區","LI":"虎尾里","LIN":"8鄰","STREET":"東成街","SECT":" ","MAREA":" ","LANE":"１４２巷","ALLEY":"２２弄","HOUSE_NO":"１３號","E_COORD97":171634.12,"N_COORD97":2542227.6099999999,"ADDRESS":"東成街１４２巷２２弄１３號","OBJECTID":37482},"geometry":{"x":171634.12000000104,"y":2542227.6100000013}},{"attributes":{"ID":37483,"DIS_CODE":0,"TOWNNAME":"東區","LI":"虎尾里","LIN":"8鄰","STREET":"東成街","SECT":" ","MAREA":" ","LANE":"１４２巷","ALLEY":"２２弄","HOUSE_NO":"１５號","E_COORD97":171629.98000000001,"N_COORD97":2542226.9199999999,"ADDRESS":"東成街１４２巷２２弄１５號","OBJECTID":37483},"geometry":{"x":171629.98000000138,"y":2542226.9199999999}},{"attributes":{"ID":37484,"DIS_CODE":0,"TOWNNAME":"鹽水區","LI":"橋南里","LIN":"14鄰","STREET":"南門路","SECT":" ","MAREA":" ","LANE":"３巷","ALLEY":" ","HOUSE_NO":"３號","E_COORD97":175076.95999999999,"N_COORD97":2579507.9199999999,"ADDRESS":"南門路３巷３號","OBJECTID":37484},"geometry":{"x":175076.95999999996,"y":2579507.9199999999}},{"attributes":{"ID":37485,"DIS_CODE":0,"TOWNNAME":"下營區","LI":"紅厝里","LIN":"7鄰","STREET":" ","SECT":" ","MAREA":"紅毛厝","LANE":" ","ALLEY":" ","HOUSE_NO":"４５號","E_COORD97":174942.60000000001,"N_COORD97":2571748,"ADDRESS":"紅毛厝４５號","OBJECTID":37485},"geometry":{"x":174942.60000000056,"y":2571748.0000000019}},{"attributes":{"ID":37486,"DIS_CODE":0,"TOWNNAME":"下營區","LI":"紅厝里","LIN":"7鄰","STREET":" ","SECT":" ","MAREA":"紅毛厝","LANE":" ","ALLEY":" ","HOUSE_NO":"４６號","E_COORD97":174913.44,"N_COORD97":2571738.3199999998,"ADDRESS":"紅毛厝４６號","OBJECTID":37486},"geometry":{"x":174913.43999999948,"y":2571738.3200000003}},{"attributes":{"ID":37487,"DIS_CODE":0,"TOWNNAME":"下營區","LI":"紅厝里","LIN":"7鄰","STREET":" ","SECT":" ","MAREA":"紅毛厝","LANE":" ","ALLEY":" ","HOUSE_NO":"４７號之１０","E_COORD97":174900.04000000001,"N_COORD97":2571712.8500000001,"ADDRESS":"紅毛厝４７號之１０","OBJECTID":37487},"geometry":{"x":174900.04000000004,"y":2571712.8499999996}},{"attributes":{"ID":37488,"DIS_CODE":0,"TOWNNAME":"下營區","LI":"紅厝里","LIN":"7鄰","STREET":" ","SECT":" ","MAREA":"紅毛厝","LANE":" ","ALLEY":" ","HOUSE_NO":"４７號之１","E_COORD97":174883.73999999999,"N_COORD97":2571721.1800000002,"ADDRESS":"紅毛厝４７號之１","OBJECTID":37488},"geometry":{"x":174883.74000000022,"y":2571721.1799999997}},{"attributes":{"ID":37489,"DIS_CODE":0,"TOWNNAME":"下營區","LI":"紅厝里","LIN":"7鄰","STREET":" ","SECT":" ","MAREA":"紅毛厝","LANE":" ","ALLEY":" ","HOUSE_NO":"４７號之３","E_COORD97":174887.70000000001,"N_COORD97":2571716,"ADDRESS":"紅毛厝４７號之３","OBJECTID":37489},"geometry":{"x":174887.69999999925,"y":2571716}},{"attributes":{"ID":37490,"DIS_CODE":0,"TOWNNAME":"下營區","LI":"紅厝里","LIN":"7鄰","STREET":" ","SECT":" ","MAREA":"紅毛厝","LANE":" ","ALLEY":" ","HOUSE_NO":"４７號之４","E_COORD97":174891.84,"N_COORD97":2571714.98,"ADDRESS":"紅毛厝４７號之４","OBJECTID":37490},"geometry":{"x":174891.84000000078,"y":2571714.9800000023}},{"attributes":{"ID":37491,"DIS_CODE":0,"TOWNNAME":"下營區","LI":"紅厝里","LIN":"7鄰","STREET":" ","SECT":" ","MAREA":"紅毛厝","LANE":" ","ALLEY":" ","HOUSE_NO":"４７號之６","E_COORD97":174896.29000000001,"N_COORD97":2571736.7200000002,"ADDRESS":"紅毛厝４７號之６","OBJECTID":37491},"geometry":{"x":174896.29000000097,"y":2571736.7200000025}},{"attributes":{"ID":37492,"DIS_CODE":0,"TOWNNAME":"下營區","LI":"紅厝里","LIN":"7鄰","STREET":" ","SECT":" ","MAREA":"紅毛厝","LANE":" ","ALLEY":" ","HOUSE_NO":"４７號之７","E_COORD97":174891.82999999999,"N_COORD97":2571737.8799999999,"ADDRESS":"紅毛厝４７號之７","OBJECTID":37492},"geometry":{"x":174891.83000000194,"y":2571737.8800000008}},{"attributes":{"ID":37493,"DIS_CODE":0,"TOWNNAME":"下營區","LI":"紅厝里","LIN":"7鄰","STREET":" ","SECT":" ","MAREA":"紅毛厝","LANE":" ","ALLEY":" ","HOUSE_NO":"４７號","E_COORD97":174887.95000000001,"N_COORD97":2571739.3900000001,"ADDRESS":"紅毛厝４７號","OBJECTID":37493},"geometry":{"x":174887.95000000112,"y":2571739.3900000025}},{"attributes":{"ID":37494,"DIS_CODE":0,"TOWNNAME":"下營區","LI":"紅厝里","LIN":"7鄰","STREET":" ","SECT":" ","MAREA":"紅毛厝","LANE":" ","ALLEY":" ","HOUSE_NO":"４８號之１","E_COORD97":174910.48000000001,"N_COORD97":2571704.8799999999,"ADDRESS":"紅毛厝４８號之１","OBJECTID":37494},"geometry":{"x":174910.48000000138,"y":2571704.879999999}},{"attributes":{"ID":37495,"DIS_CODE":0,"TOWNNAME":"下營區","LI":"茅港里","LIN":"7鄰","STREET":" ","SECT":" ","MAREA":"茅港尾","LANE":" ","ALLEY":" ","HOUSE_NO":"１６１號","E_COORD97":176620.95999999999,"N_COORD97":2568477.3399999999,"ADDRESS":"茅港尾１６１號","OBJECTID":37495},"geometry":{"x":176620.95999999996,"y":2568477.3400000017}},{"attributes":{"ID":37496,"DIS_CODE":0,"TOWNNAME":"安平區","LI":"億載里","LIN":"14鄰","STREET":"光州三街","SECT":" ","MAREA":" ","LANE":" ","ALLEY":" ","HOUSE_NO":"７４號","E_COORD97":164239.76000000001,"N_COORD97":2543150.4199999999,"ADDRESS":"光州三街７４號","OBJECTID":37496},"geometry":{"x":164239.76000000071,"y":2543150.4200000018}},{"attributes":{"ID":37497,"DIS_CODE":0,"TOWNNAME":"下營區","LI":"茅港里","LIN":"7鄰","STREET":" ","SECT":" ","MAREA":"茅港尾","LANE":" ","ALLEY":" ","HOUSE_NO":"１６３號","E_COORD97":176614.59,"N_COORD97":2568459.4900000002,"ADDRESS":"茅港尾１６３號","OBJECTID":37497},"geometry":{"x":176614.59000000078,"y":2568459.4900000021}},{"attributes":{"ID":37498,"DIS_CODE":0,"TOWNNAME":"下營區","LI":"茅港里","LIN":"7鄰","STREET":" ","SECT":" ","MAREA":"茅港尾","LANE":" ","ALLEY":" ","HOUSE_NO":"１６４號","E_COORD97":176594.10000000001,"N_COORD97":2568442.2000000002,"ADDRESS":"茅港尾１６４號","OBJECTID":37498},"geometry":{"x":176594.09999999963,"y":2568442.1999999993}},{"attributes":{"ID":37499,"DIS_CODE":0,"TOWNNAME":"下營區","LI":"茅港里","LIN":"7鄰","STREET":" ","SECT":" ","MAREA":"茅港尾","LANE":" ","ALLEY":" ","HOUSE_NO":"１６９號","E_COORD97":176587.39999999999,"N_COORD97":2568416.73,"ADDRESS":"茅港尾１６９號","OBJECTID":37499},"geometry":{"x":176587.4000000013,"y":2568416.7299999986}},{"attributes":{"ID":37500,"DIS_CODE":0,"TOWNNAME":"下營區","LI":"茅港里","LIN":"7鄰","STREET":" ","SECT":" ","MAREA":"茅港尾","LANE":" ","ALLEY":" ","HOUSE_NO":"１７０號之１","E_COORD97":176585.04000000001,"N_COORD97":2568412.8399999999,"ADDRESS":"茅港尾１７０號之１","OBJECTID":37500},"geometry":{"x":176585.04000000004,"y":2568412.8400000017}},{"attributes":{"ID":37501,"DIS_CODE":0,"TOWNNAME":"下營區","LI":"茅港里","LIN":"7鄰","STREET":" ","SECT":" ","MAREA":"茅港尾","LANE":" ","ALLEY":" ","HOUSE_NO":"１７１號之１","E_COORD97":176580.63,"N_COORD97":2568391.21,"ADDRESS":"茅港尾１７１號之１","OBJECTID":37501},"geometry":{"x":176580.62999999989,"y":2568391.2100000028}},{"attributes":{"ID":37502,"DIS_CODE":0,"TOWNNAME":"下營區","LI":"茅港里","LIN":"7鄰","STREET":" ","SECT":" ","MAREA":"茅港尾","LANE":" ","ALLEY":" ","HOUSE_NO":"１７１號","E_COORD97":176582.5,"N_COORD97":2568402.1099999999,"ADDRESS":"茅港尾１７１號","OBJECTID":37502},"geometry":{"x":176582.50000000186,"y":2568402.1099999994}},{"attributes":{"ID":37503,"DIS_CODE":0,"TOWNNAME":"下營區","LI":"茅港里","LIN":"7鄰","STREET":" ","SECT":" ","MAREA":"茅港尾","LANE":" ","ALLEY":" ","HOUSE_NO":"１７２號之２","E_COORD97":176565.95000000001,"N_COORD97":2568238.27,"ADDRESS":"茅港尾１７２號之２","OBJECTID":37503},"geometry":{"x":176565.94999999925,"y":2568238.2699999996}},{"attributes":{"ID":37504,"DIS_CODE":0,"TOWNNAME":"下營區","LI":"茅港里","LIN":"7鄰","STREET":" ","SECT":" ","MAREA":"茅港尾","LANE":" ","ALLEY":" ","HOUSE_NO":"１７２號之３","E_COORD97":176631.94,"N_COORD97":2568381.8300000001,"ADDRESS":"茅港尾１７２號之３","OBJECTID":37504},"geometry":{"x":176631.94000000041,"y":2568381.8300000038}},{"attributes":{"ID":37505,"DIS_CODE":0,"TOWNNAME":"安平區","LI":"億載里","LIN":"14鄰","STREET":"光州三街","SECT":" ","MAREA":" ","LANE":" ","ALLEY":" ","HOUSE_NO":"８０號","E_COORD97":164251.59,"N_COORD97":2543151.6400000001,"ADDRESS":"光州三街８０號","OBJECTID":37505},"geometry":{"x":164251.59000000078,"y":2543151.6400000006}},{"attributes":{"ID":37506,"DIS_CODE":0,"TOWNNAME":"安平區","LI":"億載里","LIN":"14鄰","STREET":"健康四街","SECT":" ","MAREA":" ","LANE":" ","ALLEY":" ","HOUSE_NO":"１００號","E_COORD97":164187.38,"N_COORD97":2543219.2000000002,"ADDRESS":"健康四街１００號","OBJECTID":37506},"geometry":{"x":164187.37999999989,"y":2543219.2000000011}},{"attributes":{"ID":37507,"DIS_CODE":0,"TOWNNAME":"安平區","LI":"億載里","LIN":"14鄰","STREET":"健康四街","SECT":" ","MAREA":" ","LANE":" ","ALLEY":" ","HOUSE_NO":"１０２號","E_COORD97":164186.17999999999,"N_COORD97":2543224.3199999998,"ADDRESS":"健康四街１０２號","OBJECTID":37507},"geometry":{"x":164186.18000000063,"y":2543224.3200000003}},{"attributes":{"ID":37508,"DIS_CODE":0,"TOWNNAME":"安平區","LI":"石門里","LIN":"14鄰","STREET":"延平街","SECT":" ","MAREA":" ","LANE":" ","ALLEY":" ","HOUSE_NO":"４０號","E_COORD97":164275.85000000001,"N_COORD97":2544579.04,"ADDRESS":"延平街４０號","OBJECTID":37508},"geometry":{"x":164275.84999999963,"y":2544579.0400000028}},{"attributes":{"ID":37509,"DIS_CODE":0,"TOWNNAME":"下營區","LI":"茅港里","LIN":"7鄰","STREET":" ","SECT":" ","MAREA":"茅港尾","LANE":" ","ALLEY":" ","HOUSE_NO":"１７２號之５","E_COORD97":176596.20999999999,"N_COORD97":2568184.7000000002,"ADDRESS":"茅港尾１７２號之５","OBJECTID":37509},"geometry":{"x":176596.21000000183,"y":2568184.6999999993}},{"attributes":{"ID":37510,"DIS_CODE":0,"TOWNNAME":"下營區","LI":"茅港里","LIN":"7鄰","STREET":" ","SECT":" ","MAREA":"茅港尾","LANE":" ","ALLEY":" ","HOUSE_NO":"１７２號","E_COORD97":176588.17999999999,"N_COORD97":2568379.6600000001,"ADDRESS":"茅港尾１７２號","OBJECTID":37510},"geometry":{"x":176588.18000000063,"y":2568379.6599999983}},{"attributes":{"ID":37511,"DIS_CODE":0,"TOWNNAME":"下營區","LI":"茅港里","LIN":"7鄰","STREET":" ","SECT":" ","MAREA":"茅港尾","LANE":" ","ALLEY":" ","HOUSE_NO":"１８８號","E_COORD97":176500.60000000001,"N_COORD97":2567989.75,"ADDRESS":"茅港尾１８８號","OBJECTID":37511},"geometry":{"x":176500.60000000056,"y":2567989.7500000019}},{"attributes":{"ID":37512,"DIS_CODE":0,"TOWNNAME":"下營區","LI":"茅港里","LIN":"7鄰","STREET":" ","SECT":" ","MAREA":"茅港尾","LANE":" ","ALLEY":" ","HOUSE_NO":"１９０號","E_COORD97":176631.76999999999,"N_COORD97":2567982.4300000002,"ADDRESS":"茅港尾１９０號","OBJECTID":37512},"geometry":{"x":176631.77000000048,"y":2567982.4300000016}},{"attributes":{"ID":37513,"DIS_CODE":0,"TOWNNAME":"下營區","LI":"茅港里","LIN":"7鄰","STREET":" ","SECT":" ","MAREA":"茅港尾","LANE":" ","ALLEY":" ","HOUSE_NO":"２０４號","E_COORD97":177317.89999999999,"N_COORD97":2567262.21,"ADDRESS":"茅港尾２０４號","OBJECTID":37513},"geometry":{"x":177317.9000000013,"y":2567262.2100000028}},{"attributes":{"ID":37514,"DIS_CODE":0,"TOWNNAME":"下營區","LI":"茅港里","LIN":"7鄰","STREET":" ","SECT":" ","MAREA":"茅港尾","LANE":" ","ALLEY":" ","HOUSE_NO":"２０５之１０號","E_COORD97":177399.04999999999,"N_COORD97":2566967.25,"ADDRESS":"茅港尾２０５之１０號","OBJECTID":37514},"geometry":{"x":177399.05000000168,"y":2566967.25}},{"attributes":{"ID":37515,"DIS_CODE":0,"TOWNNAME":"東區","LI":"虎尾里","LIN":"8鄰","STREET":"東成街","SECT":" ","MAREA":" ","LANE":"１４２巷","ALLEY":"２２弄","HOUSE_NO":"１７號","E_COORD97":171626.23000000001,"N_COORD97":2542226.2200000002,"ADDRESS":"東成街１４２巷２２弄１７號","OBJECTID":37515},"geometry":{"x":171626.22999999952,"y":2542226.2200000007}},{"attributes":{"ID":37516,"DIS_CODE":0,"TOWNNAME":"北區","LI":"振興里","LIN":"8鄰","STREET":"開元路","SECT":" ","MAREA":" ","LANE":"１４８巷","ALLEY":"４３弄","HOUSE_NO":"２７號","E_COORD97":170149.47,"N_COORD97":2545123.3799999999,"ADDRESS":"開元路１４８巷４３弄２７號","OBJECTID":37516},"geometry":{"x":170149.47000000067,"y":2545123.3800000008}},{"attributes":{"ID":37517,"DIS_CODE":0,"TOWNNAME":"安南區","LI":"理想里","LIN":"8鄰","STREET":"海佃路","SECT":"二段","MAREA":" ","LANE":"１５０巷","ALLEY":"９４弄","HOUSE_NO":"１號之３００","E_COORD97":167323.34,"N_COORD97":2548635.3900000001,"ADDRESS":"海佃路二段１５０巷９４弄１號之３００","OBJECTID":37517},"geometry":{"x":167323.34000000078,"y":2548635.3900000006}},{"attributes":{"ID":37518,"DIS_CODE":0,"TOWNNAME":"安南區","LI":"理想里","LIN":"8鄰","STREET":"海佃路","SECT":"二段","MAREA":" ","LANE":"１５０巷","ALLEY":"９４弄","HOUSE_NO":"１號之３０１","E_COORD97":167162.85501,"N_COORD97":2548460.5306000002,"ADDRESS":"海佃路二段１５０巷９４弄１號之３０１","OBJECTID":37518},"geometry":{"x":167162.85501000099,"y":2548460.5306000039}},{"attributes":{"ID":37519,"DIS_CODE":0,"TOWNNAME":"安南區","LI":"理想里","LIN":"8鄰","STREET":"海佃路","SECT":"二段","MAREA":" ","LANE":"１５０巷","ALLEY":"１１２弄","HOUSE_NO":"１之３０號","E_COORD97":167274.726995,"N_COORD97":2548485.28633,"ADDRESS":"海佃路二段１５０巷１１２弄１之３０號","OBJECTID":37519},"geometry":{"x":167274.72699499968,"y":2548485.286332}},{"attributes":{"ID":37520,"DIS_CODE":0,"TOWNNAME":"安南區","LI":"理想里","LIN":"8鄰","STREET":"海佃路","SECT":"二段","MAREA":" ","LANE":"１５０巷","ALLEY":"１１２弄","HOUSE_NO":"１之２７號","E_COORD97":167268.58149300001,"N_COORD97":2548474.068,"ADDRESS":"海佃路二段１５０巷１１２弄１之２７號","OBJECTID":37520},"geometry":{"x":167268.5814930005,"y":2548474.0680049993}},{"attributes":{"ID":37521,"DIS_CODE":0,"TOWNNAME":"安南區","LI":"理想里","LIN":"8鄰","STREET":"海佃路","SECT":"二段","MAREA":" ","LANE":"１５０巷","ALLEY":"１１２弄","HOUSE_NO":"１之１５號","E_COORD97":167244.423316,"N_COORD97":2548434.2746899999,"ADDRESS":"海佃路二段１５０巷１１２弄１之１５號","OBJECTID":37521},"geometry":{"x":167244.42331600003,"y":2548434.2746930029}},{"attributes":{"ID":37522,"DIS_CODE":0,"TOWNNAME":"安南區","LI":"理想里","LIN":"8鄰","STREET":"海佃路","SECT":"二段","MAREA":" ","LANE":"１５０巷","ALLEY":"１１２弄","HOUSE_NO":"１號之５","E_COORD97":167229.165519,"N_COORD97":2548404.0063800002,"ADDRESS":"海佃路二段１５０巷１１２弄１號之５","OBJECTID":37522},"geometry":{"x":167229.16551900096,"y":2548404.006376002}},{"attributes":{"ID":37523,"DIS_CODE":0,"TOWNNAME":"安南區","LI":"理想里","LIN":"8鄰","STREET":"海佃路","SECT":"二段","MAREA":" ","LANE":"１５０巷","ALLEY":"１１２弄","HOUSE_NO":"１號之１","E_COORD97":167221.32470699999,"N_COORD97":2548392.36472,"ADDRESS":"海佃路二段１５０巷１１２弄１號之１","OBJECTID":37523},"geometry":{"x":167221.32470699959,"y":2548392.3647160009}},{"attributes":{"ID":37524,"DIS_CODE":0,"TOWNNAME":"安南區","LI":"理想里","LIN":"8鄰","STREET":"海佃路","SECT":"二段","MAREA":" ","LANE":"１５０巷","ALLEY":"１１２弄","HOUSE_NO":"１之３７號","E_COORD97":167280.10000000001,"N_COORD97":2548425.8700000001,"ADDRESS":"海佃路二段１５０巷１１２弄１之３７號","OBJECTID":37524},"geometry":{"x":167280.10000000056,"y":2548425.870000001}},{"attributes":{"ID":37525,"DIS_CODE":0,"TOWNNAME":"安南區","LI":"新順里","LIN":"8鄰","STREET":"總安街","SECT":"一段","MAREA":" ","LANE":"３６２巷","ALLEY":"２８弄","HOUSE_NO":"７號","E_COORD97":169268.18116400001,"N_COORD97":2550480.1770799998,"ADDRESS":"總安街一段３６２巷２８弄７號","OBJECTID":37525},"geometry":{"x":169268.18116400018,"y":2550480.1770750005}},{"attributes":{"ID":37526,"DIS_CODE":0,"TOWNNAME":"永康區","LI":"網寮里","LIN":"8鄰","STREET":"永二街","SECT":" ","MAREA":" ","LANE":"２４４巷","ALLEY":"４弄","HOUSE_NO":"１１號","E_COORD97":173291.28,"N_COORD97":2546350.8999999999,"ADDRESS":"永二街２４４巷４弄１１號","OBJECTID":37526},"geometry":{"x":173291.28000000119,"y":2546350.8999999985}},{"attributes":{"ID":37527,"DIS_CODE":0,"TOWNNAME":"永康區","LI":"成功里","LIN":"8鄰","STREET":"忠孝路","SECT":" ","MAREA":" ","LANE":"２０７巷","ALLEY":"３０弄","HOUSE_NO":"１４號","E_COORD97":171993.64999999999,"N_COORD97":2544928.46,"ADDRESS":"忠孝路２０７巷３０弄１４號","OBJECTID":37527},"geometry":{"x":171993.6500000013,"y":2544928.4600000028}},{"attributes":{"ID":37528,"DIS_CODE":0,"TOWNNAME":"北區","LI":"國興里","LIN":"8鄰","STREET":"南園街","SECT":" ","MAREA":" ","LANE":"１０１巷","ALLEY":"７１弄","HOUSE_NO":"１１號","E_COORD97":170705.14999999999,"N_COORD97":2545511.6299999999,"ADDRESS":"南園街１０１巷７１弄１１號","OBJECTID":37528},"geometry":{"x":170705.1500000013,"y":2545511.6300000008}},{"attributes":{"ID":37529,"DIS_CODE":0,"TOWNNAME":"北區","LI":"文元里","LIN":"8鄰","STREET":"中華北路","SECT":"二段","MAREA":" ","LANE":"５３巷","ALLEY":"２０弄","HOUSE_NO":"９號","E_COORD97":167555.19,"N_COORD97":2546496.1000000001,"ADDRESS":"中華北路二段５３巷２０弄９號","OBJECTID":37529},"geometry":{"x":167555.19000000134,"y":2546496.1000000015}},{"attributes":{"ID":37530,"DIS_CODE":0,"TOWNNAME":"北區","LI":"成德里","LIN":"14鄰","STREET":"海安路","SECT":"三段","MAREA":" ","LANE":"５２０巷","ALLEY":" ","HOUSE_NO":"４３號","E_COORD97":168181.70000000001,"N_COORD97":2545773.6800000002,"ADDRESS":"海安路三段５２０巷４３號","OBJECTID":37530},"geometry":{"x":168181.70000000205,"y":2545773.6800000016}},{"attributes":{"ID":37531,"DIS_CODE":0,"TOWNNAME":"下營區","LI":"茅港里","LIN":"7鄰","STREET":" ","SECT":" ","MAREA":"茅港尾","LANE":" ","ALLEY":" ","HOUSE_NO":"２０５號之７","E_COORD97":177394.09,"N_COORD97":2567154.6299999999,"ADDRESS":"茅港尾２０５號之７","OBJECTID":37531},"geometry":{"x":177394.09000000078,"y":2567154.6299999971}},{"attributes":{"ID":37532,"DIS_CODE":0,"TOWNNAME":"下營區","LI":"茅港里","LIN":"7鄰","STREET":" ","SECT":" ","MAREA":"茅港尾","LANE":" ","ALLEY":" ","HOUSE_NO":"２０５號","E_COORD97":177341.53,"N_COORD97":2567258.0600000001,"ADDRESS":"茅港尾２０５號","OBJECTID":37532},"geometry":{"x":177341.53000000026,"y":2567258.0600000005}},{"attributes":{"ID":37533,"DIS_CODE":0,"TOWNNAME":"北區","LI":"成德里","LIN":"14鄰","STREET":"海安路","SECT":"三段","MAREA":" ","LANE":" ","ALLEY":" ","HOUSE_NO":"５３２號","E_COORD97":168094.23000000001,"N_COORD97":2545756.8500000001,"ADDRESS":"海安路三段５３２號","OBJECTID":37533},"geometry":{"x":168094.23000000138,"y":2545756.8499999996}},{"attributes":{"ID":37534,"DIS_CODE":0,"TOWNNAME":"北區","LI":"成德里","LIN":"14鄰","STREET":"海安路","SECT":"三段","MAREA":" ","LANE":" ","ALLEY":" ","HOUSE_NO":"５３０號","E_COORD97":168095.01999999999,"N_COORD97":2545752.25,"ADDRESS":"海安路三段５３０號","OBJECTID":37534},"geometry":{"x":168095.01999999955,"y":2545752.2500000019}},{"attributes":{"ID":37535,"DIS_CODE":0,"TOWNNAME":"北區","LI":"成德里","LIN":"14鄰","STREET":"海安路","SECT":"三段","MAREA":" ","LANE":" ","ALLEY":" ","HOUSE_NO":"５２８號","E_COORD97":168095.5,"N_COORD97":2545748.1200000001,"ADDRESS":"海安路三段５２８號","OBJECTID":37535},"geometry":{"x":168095.5,"y":2545748.1200000029}},{"attributes":{"ID":37536,"DIS_CODE":0,"TOWNNAME":"北區","LI":"成德里","LIN":"14鄰","STREET":"海安路","SECT":"三段","MAREA":" ","LANE":" ","ALLEY":" ","HOUSE_NO":"５２６號","E_COORD97":168095.17999999999,"N_COORD97":2545742.8799999999,"ADDRESS":"海安路三段５２６號","OBJECTID":37536},"geometry":{"x":168095.18000000063,"y":2545742.8800000027}},{"attributes":{"ID":37537,"DIS_CODE":0,"TOWNNAME":"北區","LI":"成德里","LIN":"14鄰","STREET":"海安路","SECT":"三段","MAREA":" ","LANE":" ","ALLEY":" ","HOUSE_NO":"５２２號","E_COORD97":168096.60999999999,"N_COORD97":2545737.3199999998,"ADDRESS":"海安路三段５２２號","OBJECTID":37537},"geometry":{"x":168096.61000000127,"y":2545737.3200000003}},{"attributes":{"ID":37538,"DIS_CODE":0,"TOWNNAME":"北區","LI":"成德里","LIN":"14鄰","STREET":"海安路","SECT":"三段","MAREA":" ","LANE":" ","ALLEY":" ","HOUSE_NO":"５１２號","E_COORD97":168096.13,"N_COORD97":2545719.3799999999,"ADDRESS":"海安路三段５１２號","OBJECTID":37538},"geometry":{"x":168096.13000000082,"y":2545719.3800000027}},{"attributes":{"ID":37539,"DIS_CODE":0,"TOWNNAME":"北區","LI":"成德里","LIN":"14鄰","STREET":"海安路","SECT":"三段","MAREA":" ","LANE":" ","ALLEY":" ","HOUSE_NO":"５１０號","E_COORD97":168095.98000000001,"N_COORD97":2545713.6699999999,"ADDRESS":"海安路三段５１０號","OBJECTID":37539},"geometry":{"x":168095.98000000138,"y":2545713.6699999999}},{"attributes":{"ID":37540,"DIS_CODE":0,"TOWNNAME":"新化區","LI":"全興里","LIN":"14鄰","STREET":" ","SECT":" ","MAREA":"竹子\u25A0","LANE":" ","ALLEY":" ","HOUSE_NO":"２４７號之３８９","E_COORD97":178156.48000000001,"N_COORD97":2546708.2599999998,"ADDRESS":"竹子\u25A0２４７號之３８９","OBJECTID":37540},"geometry":{"x":178156.48000000138,"y":2546708.2600000016}},{"attributes":{"ID":37541,"DIS_CODE":0,"TOWNNAME":"北區","LI":"文元里","LIN":"8鄰","STREET":"中華北路","SECT":"二段","MAREA":" ","LANE":"５３巷","ALLEY":"２０弄","HOUSE_NO":"３號","E_COORD97":167572.72,"N_COORD97":2546498.1299999999,"ADDRESS":"中華北路二段５３巷２０弄３號","OBJECTID":37541},"geometry":{"x":167572.72000000067,"y":2546498.1300000008}},{"attributes":{"ID":37542,"DIS_CODE":0,"TOWNNAME":"北區","LI":"文元里","LIN":"8鄰","STREET":"中華北路","SECT":"二段","MAREA":" ","LANE":"５３巷","ALLEY":"２０弄","HOUSE_NO":"７號","E_COORD97":167561.16,"N_COORD97":2546496.8599999999,"ADDRESS":"中華北路二段５３巷２０弄７號","OBJECTID":37542},"geometry":{"x":167561.16000000015,"y":2546496.8600000013}},{"attributes":{"ID":37543,"DIS_CODE":0,"TOWNNAME":"北區","LI":"振興里","LIN":"8鄰","STREET":"開元路","SECT":" ","MAREA":" ","LANE":"１４８巷","ALLEY":"４３弄","HOUSE_NO":"２１號","E_COORD97":170138.67000000001,"N_COORD97":2545116.0800000001,"ADDRESS":"開元路１４８巷４３弄２１號","OBJECTID":37543},"geometry":{"x":170138.66999999993,"y":2545116.0800000019}},{"attributes":{"ID":37544,"DIS_CODE":0,"TOWNNAME":"北區","LI":"振興里","LIN":"8鄰","STREET":"開元路","SECT":" ","MAREA":" ","LANE":"１４８巷","ALLEY":"４３弄","HOUSE_NO":"２３號","E_COORD97":170142.04999999999,"N_COORD97":2545118.04,"ADDRESS":"開元路１４８巷４３弄２３號","OBJECTID":37544},"geometry":{"x":170142.05000000075,"y":2545118.0400000028}},{"attributes":{"ID":37545,"DIS_CODE":0,"TOWNNAME":"北區","LI":"振興里","LIN":"8鄰","STREET":"開元路","SECT":" ","MAREA":" ","LANE":"１４８巷","ALLEY":"４３弄","HOUSE_NO":"２５號","E_COORD97":170146.20000000001,"N_COORD97":2545119.8900000001,"ADDRESS":"開元路１４８巷４３弄２５號","OBJECTID":37545},"geometry":{"x":170146.20000000019,"y":2545119.8900000006}},{"attributes":{"ID":37546,"DIS_CODE":0,"TOWNNAME":"南化區","LI":"南化里","LIN":"14鄰","STREET":" ","SECT":" ","MAREA":"南化","LANE":" ","ALLEY":" ","HOUSE_NO":"２９２號","E_COORD97":198695.94,"N_COORD97":2548279.75,"ADDRESS":"南化２９２號","OBJECTID":37546},"geometry":{"x":198695.94000000134,"y":2548279.75}},{"attributes":{"ID":37547,"DIS_CODE":0,"TOWNNAME":"新化區","LI":"全興里","LIN":"14鄰","STREET":" ","SECT":" ","MAREA":"竹子\u25A0","LANE":" ","ALLEY":" ","HOUSE_NO":"２４７號之２６８","E_COORD97":178195.48999999999,"N_COORD97":2546722.2599999998,"ADDRESS":"竹子\u25A0２４７號之２６８","OBJECTID":37547},"geometry":{"x":178195.49000000115,"y":2546722.2600000016}},{"attributes":{"ID":37548,"DIS_CODE":0,"TOWNNAME":"新化區","LI":"全興里","LIN":"14鄰","STREET":" ","SECT":" ","MAREA":"竹子\u25A0","LANE":" ","ALLEY":" ","HOUSE_NO":"２４７號之３６９","E_COORD97":178216.28,"N_COORD97":2546702.2599999998,"ADDRESS":"竹子\u25A0２４７號之３６９","OBJECTID":37548},"geometry":{"x":178216.28000000026,"y":2546702.2600000016}},{"attributes":{"ID":37549,"DIS_CODE":0,"TOWNNAME":"新化區","LI":"全興里","LIN":"14鄰","STREET":" ","SECT":" ","MAREA":"竹子\u25A0","LANE":" ","ALLEY":" ","HOUSE_NO":"２４７號之２９０","E_COORD97":178144.26999999999,"N_COORD97":2546724.2599999998,"ADDRESS":"竹子\u25A0２４７號之２９０","OBJECTID":37549},"geometry":{"x":178144.26999999955,"y":2546724.2600000035}},{"attributes":{"ID":37550,"DIS_CODE":0,"TOWNNAME":"下營區","LI":"茅港里","LIN":"7鄰","STREET":" ","SECT":" ","MAREA":"茅港尾","LANE":" ","ALLEY":" ","HOUSE_NO":"２０６號","E_COORD97":177445.97,"N_COORD97":2567317.0899999999,"ADDRESS":"茅港尾２０６號","OBJECTID":37550},"geometry":{"x":177445.97000000067,"y":2567317.0899999999}},{"attributes":{"ID":37551,"DIS_CODE":0,"TOWNNAME":"北區","LI":"振興里","LIN":"8鄰","STREET":"開元路","SECT":" ","MAREA":" ","LANE":"１４８巷","ALLEY":"４３弄","HOUSE_NO":"３１號","E_COORD97":170158.85000000001,"N_COORD97":2545127.7400000002,"ADDRESS":"開元路１４８巷４３弄３１號","OBJECTID":37551},"geometry":{"x":170158.85000000056,"y":2545127.7400000002}},{"attributes":{"ID":37552,"DIS_CODE":0,"TOWNNAME":"北區","LI":"大豐里","LIN":"8鄰","STREET":"文賢路","SECT":" ","MAREA":" ","LANE":"３１３巷","ALLEY":"１２弄","HOUSE_NO":"２１號","E_COORD97":167273.88,"N_COORD97":2545328.0699999998,"ADDRESS":"文賢路３１３巷１２弄２１號","OBJECTID":37552},"geometry":{"x":167273.88000000082,"y":2545328.0700000003}},{"attributes":{"ID":37553,"DIS_CODE":0,"TOWNNAME":"北區","LI":"大豐里","LIN":"8鄰","STREET":"文賢路","SECT":" ","MAREA":" ","LANE":"３１３巷","ALLEY":"１２弄","HOUSE_NO":"２３號","E_COORD97":167271.89000000001,"N_COORD97":2545334.5499999998,"ADDRESS":"文賢路３１３巷１２弄２３號","OBJECTID":37553},"geometry":{"x":167271.8900000006,"y":2545334.5500000026}},{"attributes":{"ID":37554,"DIS_CODE":0,"TOWNNAME":"南區","LI":"文南里","LIN":"14鄰","STREET":"永南三街","SECT":" ","MAREA":" ","LANE":" ","ALLEY":" ","HOUSE_NO":"１７號","E_COORD97":166795.39999999999,"N_COORD97":2542657.3599999999,"ADDRESS":"永南三街１７號","OBJECTID":37554},"geometry":{"x":166795.39999999944,"y":2542657.3599999994}},{"attributes":{"ID":37555,"DIS_CODE":0,"TOWNNAME":"南區","LI":"建南里","LIN":"14鄰","STREET":"中華南路","SECT":"二段","MAREA":" ","LANE":" ","ALLEY":" ","HOUSE_NO":"１９１號","E_COORD97":167003.70000000001,"N_COORD97":2540220.8599999999,"ADDRESS":"中華南路二段１９１號","OBJECTID":37555},"geometry":{"x":167003.70000000112,"y":2540220.8600000013}},{"attributes":{"ID":37556,"DIS_CODE":0,"TOWNNAME":"南區","LI":"建南里","LIN":"14鄰","STREET":"中華南路","SECT":"二段","MAREA":" ","LANE":" ","ALLEY":" ","HOUSE_NO":"１９３號","E_COORD97":166999.17000000001,"N_COORD97":2540219.6099999999,"ADDRESS":"中華南路二段１９３號","OBJECTID":37556},"geometry":{"x":166999.16999999993,"y":2540219.6100000013}},{"attributes":{"ID":37557,"DIS_CODE":0,"TOWNNAME":"下營區","LI":"茅港里","LIN":"7鄰","STREET":" ","SECT":" ","MAREA":"茅港尾","LANE":" ","ALLEY":" ","HOUSE_NO":"２０７號","E_COORD97":177265.73999999999,"N_COORD97":2567199.3700000001,"ADDRESS":"茅港尾２０７號","OBJECTID":37557},"geometry":{"x":177265.74000000022,"y":2567199.3700000048}},{"attributes":{"ID":37558,"DIS_CODE":0,"TOWNNAME":"下營區","LI":"茅港里","LIN":"7鄰","STREET":" ","SECT":" ","MAREA":"茅港尾","LANE":" ","ALLEY":" ","HOUSE_NO":"２０９號","E_COORD97":177431.48999999999,"N_COORD97":2566930.8199999998,"ADDRESS":"茅港尾２０９號","OBJECTID":37558},"geometry":{"x":177431.49000000022,"y":2566930.8200000003}},{"attributes":{"ID":37559,"DIS_CODE":0,"TOWNNAME":"下營區","LI":"茅港里","LIN":"7鄰","STREET":" ","SECT":" ","MAREA":"茅港尾","LANE":" ","ALLEY":" ","HOUSE_NO":"２１１號","E_COORD97":176479.97,"N_COORD97":2567841.6299999999,"ADDRESS":"茅港尾２１１號","OBJECTID":37559},"geometry":{"x":176479.96999999974,"y":2567841.629999999}},{"attributes":{"ID":37560,"DIS_CODE":0,"TOWNNAME":"下營區","LI":"茅港里","LIN":"7鄰","STREET":" ","SECT":" ","MAREA":"茅港尾","LANE":" ","ALLEY":" ","HOUSE_NO":"２１２號","E_COORD97":176503.42000000001,"N_COORD97":2567849.5,"ADDRESS":"茅港尾２１２號","OBJECTID":37560},"geometry":{"x":176503.42000000086,"y":2567849.5000000019}},{"attributes":{"ID":37561,"DIS_CODE":0,"TOWNNAME":"下營區","LI":"茅港里","LIN":"7鄰","STREET":" ","SECT":" ","MAREA":"茅港尾","LANE":" ","ALLEY":" ","HOUSE_NO":"２１４號","E_COORD97":176453.62,"N_COORD97":2567809.1400000001,"ADDRESS":"茅港尾２１４號","OBJECTID":37561},"geometry":{"x":176453.62000000104,"y":2567809.1400000006}},{"attributes":{"ID":37562,"DIS_CODE":0,"TOWNNAME":"下營區","LI":"茅港里","LIN":"7鄰","STREET":" ","SECT":" ","MAREA":"茅港尾","LANE":" ","ALLEY":" ","HOUSE_NO":"２１５號","E_COORD97":176648.89000000001,"N_COORD97":2567902.6600000001,"ADDRESS":"茅港尾２１５號","OBJECTID":37562},"geometry":{"x":176648.89000000153,"y":2567902.660000002}},{"attributes":{"ID":37563,"DIS_CODE":0,"TOWNNAME":"南區","LI":"建南里","LIN":"14鄰","STREET":"中華南路","SECT":"二段","MAREA":" ","LANE":" ","ALLEY":" ","HOUSE_NO":"１９９號","E_COORD97":166974.94,"N_COORD97":2540214.5499999998,"ADDRESS":"中華南路二段１９９號","OBJECTID":37563},"geometry":{"x":166974.94000000227,"y":2540214.5500000026}},{"attributes":{"ID":37564,"DIS_CODE":0,"TOWNNAME":"南區","LI":"建南里","LIN":"14鄰","STREET":"中華南路","SECT":"二段","MAREA":" ","LANE":" ","ALLEY":" ","HOUSE_NO":"１９９號之１","E_COORD97":166968.78,"N_COORD97":2540213.04,"ADDRESS":"中華南路二段１９９號之１","OBJECTID":37564},"geometry":{"x":166968.78000000026,"y":2540213.040000001}},{"attributes":{"ID":37565,"DIS_CODE":0,"TOWNNAME":"南區","LI":"建南里","LIN":"14鄰","STREET":"中華南路","SECT":"二段","MAREA":" ","LANE":" ","ALLEY":" ","HOUSE_NO":"１９９號之２","E_COORD97":166964.75,"N_COORD97":2540212.4100000001,"ADDRESS":"中華南路二段１９９號之２","OBJECTID":37565},"geometry":{"x":166964.75000000093,"y":2540212.410000002}},{"attributes":{"ID":37566,"DIS_CODE":0,"TOWNNAME":"南區","LI":"彰南里","LIN":"14鄰","STREET":"新信路","SECT":" ","MAREA":" ","LANE":" ","ALLEY":" ","HOUSE_NO":"３４號","E_COORD97":165674.07000000001,"N_COORD97":2541613.6699999999,"ADDRESS":"新信路３４號","OBJECTID":37566},"geometry":{"x":165674.07000000123,"y":2541613.6700000018}},{"attributes":{"ID":37567,"DIS_CODE":0,"TOWNNAME":"新化區","LI":"知義里","LIN":"14鄰","STREET":"復興路","SECT":" ","MAREA":" ","LANE":" ","ALLEY":" ","HOUSE_NO":"１３０號","E_COORD97":179482.22,"N_COORD97":2547810.25,"ADDRESS":"復興路１３０號","OBJECTID":37567},"geometry":{"x":179482.21999999974,"y":2547810.2500000019}},{"attributes":{"ID":37568,"DIS_CODE":0,"TOWNNAME":"新化區","LI":"知義里","LIN":"14鄰","STREET":"復興路","SECT":" ","MAREA":" ","LANE":" ","ALLEY":" ","HOUSE_NO":"１１２號","E_COORD97":179509.42000000001,"N_COORD97":2547701.25,"ADDRESS":"復興路１１２號","OBJECTID":37568},"geometry":{"x":179509.42000000086,"y":2547701.2500000037}},{"attributes":{"ID":37569,"DIS_CODE":0,"TOWNNAME":"新化區","LI":"協興里","LIN":"8鄰","STREET":"太平街","SECT":" ","MAREA":" ","LANE":" ","ALLEY":" ","HOUSE_NO":"１１８號之７","E_COORD97":178471.17000000001,"N_COORD97":2548716.2599999998,"ADDRESS":"太平街１１８號之７","OBJECTID":37569},"geometry":{"x":178471.16999999993,"y":2548716.2599999998}},{"attributes":{"ID":37570,"DIS_CODE":0,"TOWNNAME":"新化區","LI":"東榮里","LIN":"20鄰","STREET":"信義路","SECT":" ","MAREA":" ","LANE":" ","ALLEY":" ","HOUSE_NO":"１３９號","E_COORD97":179388.42999999999,"N_COORD97":2548412.25,"ADDRESS":"信義路１３９號","OBJECTID":37570},"geometry":{"x":179388.43000000063,"y":2548412.25}},{"attributes":{"ID":37571,"DIS_CODE":0,"TOWNNAME":"新化區","LI":"太平里","LIN":"14鄰","STREET":"民權街","SECT":" ","MAREA":" ","LANE":" ","ALLEY":" ","HOUSE_NO":"１２８號","E_COORD97":178739.81,"N_COORD97":2548839.25,"ADDRESS":"民權街１２８號","OBJECTID":37571},"geometry":{"x":178739.81000000052,"y":2548839.25}},{"attributes":{"ID":37572,"DIS_CODE":0,"TOWNNAME":"新化區","LI":"太平里","LIN":"17鄰","STREET":"太平街","SECT":" ","MAREA":" ","LANE":" ","ALLEY":" ","HOUSE_NO":"９５號之４","E_COORD97":178627.81,"N_COORD97":2548735.2599999998,"ADDRESS":"太平街９５號之４","OBJECTID":37572},"geometry":{"x":178627.81000000145,"y":2548735.2600000016}},{"attributes":{"ID":37573,"DIS_CODE":0,"TOWNNAME":"北區","LI":"大豐里","LIN":"8鄰","STREET":"文賢路","SECT":" ","MAREA":" ","LANE":"３１３巷","ALLEY":"１２弄","HOUSE_NO":"２５號","E_COORD97":167260.97,"N_COORD97":2545337.3999999999,"ADDRESS":"文賢路３１３巷１２弄２５號","OBJECTID":37573},"geometry":{"x":167260.97000000067,"y":2545337.4000000041}},{"attributes":{"ID":37574,"DIS_CODE":0,"TOWNNAME":"北區","LI":"大豐里","LIN":"8鄰","STREET":"文賢路","SECT":" ","MAREA":" ","LANE":"３１３巷","ALLEY":"１２弄","HOUSE_NO":"２６號","E_COORD97":167304.95000000001,"N_COORD97":2545330.4199999999,"ADDRESS":"文賢路３１３巷１２弄２６號","OBJECTID":37574},"geometry":{"x":167304.95000000019,"y":2545330.4200000018}},{"attributes":{"ID":37575,"DIS_CODE":0,"TOWNNAME":"安平區","LI":"國平里","LIN":"8鄰","STREET":"建平一街","SECT":" ","MAREA":" ","LANE":"２２４巷","ALLEY":"２１弄","HOUSE_NO":"２號","E_COORD97":165429.29999999999,"N_COORD97":2542918.9199999999,"ADDRESS":"建平一街２２４巷２１弄２號","OBJECTID":37575},"geometry":{"x":165429.30000000168,"y":2542918.9199999999}},{"attributes":{"ID":37576,"DIS_CODE":0,"TOWNNAME":"安平區","LI":"國平里","LIN":"8鄰","STREET":"建平一街","SECT":" ","MAREA":" ","LANE":"２２４巷","ALLEY":"２１弄","HOUSE_NO":"４號","E_COORD97":165425.45000000001,"N_COORD97":2542919.3399999999,"ADDRESS":"建平一街２２４巷２１弄４號","OBJECTID":37576},"geometry":{"x":165425.45000000112,"y":2542919.3399999999}},{"attributes":{"ID":37577,"DIS_CODE":0,"TOWNNAME":"安平區","LI":"國平里","LIN":"8鄰","STREET":"建平一街","SECT":" ","MAREA":" ","LANE":"２２４巷","ALLEY":"２１弄","HOUSE_NO":"６號","E_COORD97":165422.01999999999,"N_COORD97":2542919.5600000001,"ADDRESS":"建平一街２２４巷２１弄６號","OBJECTID":37577},"geometry":{"x":165422.01999999955,"y":2542919.5600000024}},{"attributes":{"ID":37578,"DIS_CODE":0,"TOWNNAME":"安平區","LI":"國平里","LIN":"8鄰","STREET":"建平一街","SECT":" ","MAREA":" ","LANE":"２２４巷","ALLEY":"２１弄","HOUSE_NO":"８號","E_COORD97":165417.31,"N_COORD97":2542920.6299999999,"ADDRESS":"建平一街２２４巷２１弄８號","OBJECTID":37578},"geometry":{"x":165417.31000000052,"y":2542920.6300000027}},{"attributes":{"ID":37579,"DIS_CODE":0,"TOWNNAME":"南區","LI":"新生里","LIN":"8鄰","STREET":"大同路","SECT":"二段","MAREA":" ","LANE":"１６４巷","ALLEY":"５弄","HOUSE_NO":"２號","E_COORD97":169275.32999999999,"N_COORD97":2542009.4399999999,"ADDRESS":"大同路二段１６４巷５弄２號","OBJECTID":37579},"geometry":{"x":169275.33000000007,"y":2542009.4399999995}},{"attributes":{"ID":37580,"DIS_CODE":0,"TOWNNAME":"南區","LI":"新生里","LIN":"8鄰","STREET":"大同路","SECT":"二段","MAREA":" ","LANE":"１６４巷","ALLEY":"５弄","HOUSE_NO":"６號","E_COORD97":169276.51999999999,"N_COORD97":2542005.3300000001,"ADDRESS":"大同路二段１６４巷５弄６號","OBJECTID":37580},"geometry":{"x":169276.51999999955,"y":2542005.3300000019}},{"attributes":{"ID":37581,"DIS_CODE":0,"TOWNNAME":"南區","LI":"新生里","LIN":"8鄰","STREET":"大同路","SECT":"二段","MAREA":" ","LANE":"１６４巷","ALLEY":"５弄","HOUSE_NO":"８號","E_COORD97":169277.60999999999,"N_COORD97":2541999.2200000002,"ADDRESS":"大同路二段１６４巷５弄８號","OBJECTID":37581},"geometry":{"x":169277.6100000022,"y":2541999.2199999988}},{"attributes":{"ID":37582,"DIS_CODE":0,"TOWNNAME":"南區","LI":"新生里","LIN":"8鄰","STREET":"大同路","SECT":"二段","MAREA":" ","LANE":"１６４巷","ALLEY":"５弄","HOUSE_NO":"１０號","E_COORD97":169278.98000000001,"N_COORD97":2541995.02,"ADDRESS":"大同路二段１６４巷５弄１０號","OBJECTID":37582},"geometry":{"x":169278.98000000138,"y":2541995.0199999996}},{"attributes":{"ID":37583,"DIS_CODE":0,"TOWNNAME":"北區","LI":"文元里","LIN":"8鄰","STREET":"中華北路","SECT":"二段","MAREA":" ","LANE":"５３巷","ALLEY":"２０弄","HOUSE_NO":"１２號","E_COORD97":167553.79000000001,"N_COORD97":2546509.4300000002,"ADDRESS":"中華北路二段５３巷２０弄１２號","OBJECTID":37583},"geometry":{"x":167553.79000000097,"y":2546509.4300000034}},{"attributes":{"ID":37584,"DIS_CODE":0,"TOWNNAME":"北區","LI":"文元里","LIN":"8鄰","STREET":"中華北路","SECT":"二段","MAREA":" ","LANE":"５３巷","ALLEY":"２０弄","HOUSE_NO":"１０號","E_COORD97":167559.89000000001,"N_COORD97":2546509.9399999999,"ADDRESS":"中華北路二段５３巷２０弄１０號","OBJECTID":37584},"geometry":{"x":167559.8900000006,"y":2546509.9400000013}},{"attributes":{"ID":37585,"DIS_CODE":0,"TOWNNAME":"北區","LI":"文元里","LIN":"8鄰","STREET":"中華北路","SECT":"二段","MAREA":" ","LANE":"５３巷","ALLEY":"２０弄","HOUSE_NO":"６號","E_COORD97":167570.42999999999,"N_COORD97":2546510.7000000002,"ADDRESS":"中華北路二段５３巷２０弄６號","OBJECTID":37585},"geometry":{"x":167570.4299999997,"y":2546510.700000003}},{"attributes":{"ID":37586,"DIS_CODE":0,"TOWNNAME":"北區","LI":"大豐里","LIN":"8鄰","STREET":"文賢路","SECT":" ","MAREA":" ","LANE":"３１３巷","ALLEY":"３４弄","HOUSE_NO":"１８號","E_COORD97":167234.34,"N_COORD97":2545321.5099999998,"ADDRESS":"文賢路３１３巷３４弄１８號","OBJECTID":37586},"geometry":{"x":167234.33999999892,"y":2545321.5099999998}},{"attributes":{"ID":37587,"DIS_CODE":0,"TOWNNAME":"北區","LI":"大豐里","LIN":"8鄰","STREET":"文賢路","SECT":" ","MAREA":" ","LANE":"３１３巷","ALLEY":"１２弄","HOUSE_NO":"１６號","E_COORD97":167292.29999999999,"N_COORD97":2545312.5800000001,"ADDRESS":"文賢路３１３巷１２弄１６號","OBJECTID":37587},"geometry":{"x":167292.30000000168,"y":2545312.5800000019}},{"attributes":{"ID":37588,"DIS_CODE":0,"TOWNNAME":"新化區","LI":"協興里","LIN":"14鄰","STREET":"太平街","SECT":" ","MAREA":" ","LANE":" ","ALLEY":" ","HOUSE_NO":"１５６號之２","E_COORD97":178322.28,"N_COORD97":2548684.2599999998,"ADDRESS":"太平街１５６號之２","OBJECTID":37588},"geometry":{"x":178322.28000000119,"y":2548684.2600000035}},{"attributes":{"ID":37589,"DIS_CODE":0,"TOWNNAME":"新化區","LI":"武安里","LIN":"4鄰","STREET":"大同街","SECT":" ","MAREA":" ","LANE":" ","ALLEY":" ","HOUSE_NO":"４２號之１","E_COORD97":179033.10999999999,"N_COORD97":2548192.2599999998,"ADDRESS":"大同街４２號之１","OBJECTID":37589},"geometry":{"x":179033.11000000034,"y":2548192.2599999979}},{"attributes":{"ID":37590,"DIS_CODE":0,"TOWNNAME":"新化區","LI":"中央里","LIN":"4鄰","STREET":"中山路","SECT":" ","MAREA":" ","LANE":" ","ALLEY":" ","HOUSE_NO":"２９３號","E_COORD97":178981.70999999999,"N_COORD97":2548413.25,"ADDRESS":"中山路２９３號","OBJECTID":37590},"geometry":{"x":178981.71000000089,"y":2548413.2500000037}},{"attributes":{"ID":37591,"DIS_CODE":0,"TOWNNAME":"新化區","LI":"豐榮里","LIN":"13鄰","STREET":"正新南路","SECT":" ","MAREA":" ","LANE":" ","ALLEY":" ","HOUSE_NO":"１８２號","E_COORD97":178756.37,"N_COORD97":2547958.25,"ADDRESS":"正新南路１８２號","OBJECTID":37591},"geometry":{"x":178756.37000000011,"y":2547958.25}},{"attributes":{"ID":37592,"DIS_CODE":0,"TOWNNAME":"新化區","LI":"護國里","LIN":"7鄰","STREET":"中山路","SECT":" ","MAREA":" ","LANE":" ","ALLEY":" ","HOUSE_NO":"１７５號","E_COORD97":179333.01000000001,"N_COORD97":2548570.25,"ADDRESS":"中山路１７５號","OBJECTID":37592},"geometry":{"x":179333.00999999978,"y":2548570.2500000019}},{"attributes":{"ID":37593,"DIS_CODE":0,"TOWNNAME":"新化區","LI":"太平里","LIN":"13鄰","STREET":"中正路","SECT":" ","MAREA":" ","LANE":" ","ALLEY":" ","HOUSE_NO":"６１９號","E_COORD97":178932.41,"N_COORD97":2548881.25,"ADDRESS":"中正路６１９號","OBJECTID":37593},"geometry":{"x":178932.41000000015,"y":2548881.2500000019}},{"attributes":{"ID":37594,"DIS_CODE":0,"TOWNNAME":"新化區","LI":"東榮里","LIN":"4鄰","STREET":"信義路","SECT":" ","MAREA":" ","LANE":" ","ALLEY":" ","HOUSE_NO":"５９號","E_COORD97":179930.17999999999,"N_COORD97":2548686.25,"ADDRESS":"信義路５９號","OBJECTID":37594},"geometry":{"x":179930.1799999997,"y":2548686.25}},{"attributes":{"ID":37595,"DIS_CODE":0,"TOWNNAME":"新化區","LI":"太平里","LIN":"4鄰","STREET":"民生路","SECT":" ","MAREA":" ","LANE":" ","ALLEY":" ","HOUSE_NO":"２９３號","E_COORD97":178933.81,"N_COORD97":2549160.25,"ADDRESS":"民生路２９３號","OBJECTID":37595},"geometry":{"x":178933.80999999959,"y":2549160.2500000019}},{"attributes":{"ID":37596,"DIS_CODE":0,"TOWNNAME":"新化區","LI":"東榮里","LIN":"4鄰","STREET":"信義路","SECT":" ","MAREA":" ","LANE":" ","ALLEY":" ","HOUSE_NO":"８５號之２","E_COORD97":179841.63,"N_COORD97":2548691.2599999998,"ADDRESS":"信義路８５號之２","OBJECTID":37596},"geometry":{"x":179841.63000000082,"y":2548691.2600000016}},{"attributes":{"ID":37597,"DIS_CODE":0,"TOWNNAME":"新化區","LI":"東榮里","LIN":"4鄰","STREET":"信義路","SECT":" ","MAREA":" ","LANE":" ","ALLEY":" ","HOUSE_NO":"８５號之７","E_COORD97":179842.01999999999,"N_COORD97":2548707.2599999998,"ADDRESS":"信義路８５號之７","OBJECTID":37597},"geometry":{"x":179842.02000000048,"y":2548707.2599999998}},{"attributes":{"ID":37598,"DIS_CODE":0,"TOWNNAME":"新化區","LI":"全興里","LIN":"14鄰","STREET":" ","SECT":" ","MAREA":"竹子\u25A0","LANE":" ","ALLEY":" ","HOUSE_NO":"２４７號之２７０","E_COORD97":178190.76999999999,"N_COORD97":2546722.2599999998,"ADDRESS":"竹子\u25A0２４７號之２７０","OBJECTID":37598},"geometry":{"x":178190.77000000048,"y":2546722.2600000016}},{"attributes":{"ID":37599,"DIS_CODE":0,"TOWNNAME":"新化區","LI":"太平里","LIN":"14鄰","STREET":"太平街","SECT":" ","MAREA":" ","LANE":" ","ALLEY":" ","HOUSE_NO":"５６號","E_COORD97":178783.87,"N_COORD97":2548784.25,"ADDRESS":"太平街５６號","OBJECTID":37599},"geometry":{"x":178783.87000000197,"y":2548784.2500000019}},{"attributes":{"ID":37600,"DIS_CODE":0,"TOWNNAME":"歸仁區","LI":"大潭里","LIN":"8鄰","STREET":"長榮路","SECT":"一段","MAREA":" ","LANE":"２００巷","ALLEY":"６５弄","HOUSE_NO":"５號","E_COORD97":175146.62,"N_COORD97":2534466.9700000002,"ADDRESS":"長榮路一段２００巷６５弄５號","OBJECTID":37600},"geometry":{"x":175146.62000000104,"y":2534466.9700000007}}]}