{"displayFieldName":"TOWNNAME","fieldAliases":{"ID":"ID","DIS_CODE":"DIS_CODE","TOWNNAME":"TOWNNAME","LI":"LI","LIN":"LIN","STREET":"STREET","SECT":"SECT","MAREA":"MAREA","LANE":"LANE","ALLEY":"ALLEY","HOUSE_NO":"HOUSE_NO","E_COORD97":"E_COORD97","N_COORD97":"N_COORD97","ADDRESS":"ADDRESS","OBJECTID":"OBJECTID"},"geometryType":"esriGeometryPoint","spatialReference":{"wkid":102443,"latestWkid":3826},"fields":[{"name":"ID","type":"esriFieldTypeDouble","alias":"ID"},{"name":"DIS_CODE","type":"esriFieldTypeInteger","alias":"DIS_CODE"},{"name":"TOWNNAME","type":"esriFieldTypeString","alias":"TOWNNAME","length":8},{"name":"LI","type":"esriFieldTypeString","alias":"LI","length":8},{"name":"LIN","type":"esriFieldTypeString","alias":"LIN","length":12},{"name":"STREET","type":"esriFieldTypeString","alias":"STREET","length":20},{"name":"SECT","type":"esriFieldTypeString","alias":"SECT","length":8},{"name":"MAREA","type":"esriFieldTypeString","alias":"MAREA","length":12},{"name":"LANE","type":"esriFieldTypeString","alias":"LANE","length":10},{"name":"ALLEY","type":"esriFieldTypeString","alias":"ALLEY","length":10},{"name":"HOUSE_NO","type":"esriFieldTypeString","alias":"HOUSE_NO","length":20},{"name":"E_COORD97","type":"esriFieldTypeDouble","alias":"E_COORD97"},{"name":"N_COORD97","type":"esriFieldTypeDouble","alias":"N_COORD97"},{"name":"ADDRESS","type":"esriFieldTypeString","alias":"ADDRESS","length":50},{"name":"OBJECTID","type":"esriFieldTypeOID","alias":"OBJECTID"}],"features":[{"attributes":{"ID":375611,"DIS_CODE":0,"TOWNNAME":"北區","LI":"正風里","LIN":"10鄰","STREET":"公園路","SECT":" ","MAREA":" ","LANE":"１０６２巷","ALLEY":" ","HOUSE_NO":"６號之１","E_COORD97":169643.35000000001,"N_COORD97":2546448.7799999998,"ADDRESS":"公園路１０６２巷６號之１","OBJECTID":375601},"geometry":{"x":169643.35000000056,"y":2546448.7799999993}},{"attributes":{"ID":375612,"DIS_CODE":0,"TOWNNAME":"北區","LI":"正風里","LIN":"10鄰","STREET":"公園路","SECT":" ","MAREA":" ","LANE":"１０６２巷","ALLEY":" ","HOUSE_NO":"７號","E_COORD97":169662.92000000001,"N_COORD97":2546460.3599999999,"ADDRESS":"公園路１０６２巷７號","OBJECTID":375602},"geometry":{"x":169662.91999999993,"y":2546460.3600000013}},{"attributes":{"ID":375613,"DIS_CODE":0,"TOWNNAME":"北區","LI":"正風里","LIN":"10鄰","STREET":"公園路","SECT":" ","MAREA":" ","LANE":"１０６２巷","ALLEY":" ","HOUSE_NO":"８號","E_COORD97":169648.14999999999,"N_COORD97":2546440.3399999999,"ADDRESS":"公園路１０６２巷８號","OBJECTID":375603},"geometry":{"x":169648.15000000037,"y":2546440.3400000017}},{"attributes":{"ID":375614,"DIS_CODE":0,"TOWNNAME":"六甲區","LI":"二甲里","LIN":"10鄰","STREET":"民權街","SECT":" ","MAREA":" ","LANE":"２８２巷","ALLEY":" ","HOUSE_NO":"１８號","E_COORD97":182976.45000000001,"N_COORD97":2569840.04,"ADDRESS":"民權街２８２巷１８號","OBJECTID":375604},"geometry":{"x":182976.45000000019,"y":2569840.0399999991}},{"attributes":{"ID":375615,"DIS_CODE":0,"TOWNNAME":"六甲區","LI":"二甲里","LIN":"10鄰","STREET":"民權街","SECT":" ","MAREA":" ","LANE":"２８２巷","ALLEY":" ","HOUSE_NO":"２４號","E_COORD97":182979.88,"N_COORD97":2569846.3500000001,"ADDRESS":"民權街２８２巷２４號","OBJECTID":375605},"geometry":{"x":182979.88000000082,"y":2569846.3500000015}},{"attributes":{"ID":375616,"DIS_CODE":0,"TOWNNAME":"六甲區","LI":"二甲里","LIN":"10鄰","STREET":"民權街","SECT":" ","MAREA":" ","LANE":"２８２巷","ALLEY":" ","HOUSE_NO":"２６號","E_COORD97":182984.35000000001,"N_COORD97":2569864.4399999999,"ADDRESS":"民權街２８２巷２６號","OBJECTID":375606},"geometry":{"x":182984.35000000056,"y":2569864.4399999995}},{"attributes":{"ID":375617,"DIS_CODE":0,"TOWNNAME":"六甲區","LI":"二甲里","LIN":"10鄰","STREET":"民權街","SECT":" ","MAREA":" ","LANE":"２８２巷","ALLEY":" ","HOUSE_NO":"２８號","E_COORD97":182994.85000000001,"N_COORD97":2569875.3100000001,"ADDRESS":"民權街２８２巷２８號","OBJECTID":375607},"geometry":{"x":182994.85000000056,"y":2569875.3100000024}},{"attributes":{"ID":375618,"DIS_CODE":0,"TOWNNAME":"六甲區","LI":"二甲里","LIN":"10鄰","STREET":"民權街","SECT":" ","MAREA":" ","LANE":"２８２巷","ALLEY":" ","HOUSE_NO":"３２號","E_COORD97":182994.17000000001,"N_COORD97":2569887.8599999999,"ADDRESS":"民權街２８２巷３２號","OBJECTID":375608},"geometry":{"x":182994.17000000179,"y":2569887.8600000013}},{"attributes":{"ID":375619,"DIS_CODE":0,"TOWNNAME":"六甲區","LI":"甲東里","LIN":"10鄰","STREET":"曾文街","SECT":" ","MAREA":" ","LANE":"１１０巷","ALLEY":" ","HOUSE_NO":"３１號","E_COORD97":184437.94,"N_COORD97":2570268.0899999999,"ADDRESS":"曾文街１１０巷３１號","OBJECTID":375609},"geometry":{"x":184437.94000000134,"y":2570268.0899999999}},{"attributes":{"ID":375620,"DIS_CODE":0,"TOWNNAME":"六甲區","LI":"甲東里","LIN":"10鄰","STREET":"曾文街","SECT":" ","MAREA":" ","LANE":"１１０巷","ALLEY":" ","HOUSE_NO":"７號","E_COORD97":184415.13,"N_COORD97":2570350.7200000002,"ADDRESS":"曾文街１１０巷７號","OBJECTID":375610},"geometry":{"x":184415.13000000082,"y":2570350.7200000025}},{"attributes":{"ID":375621,"DIS_CODE":0,"TOWNNAME":"六甲區","LI":"甲東里","LIN":"10鄰","STREET":"曾文街","SECT":" ","MAREA":" ","LANE":"６６巷","ALLEY":" ","HOUSE_NO":"２號","E_COORD97":184218.95999999999,"N_COORD97":2570245.4100000001,"ADDRESS":"曾文街６６巷２號","OBJECTID":375611},"geometry":{"x":184218.95999999996,"y":2570245.4100000001}},{"attributes":{"ID":375622,"DIS_CODE":0,"TOWNNAME":"安平區","LI":"平通里","LIN":"10鄰","STREET":"育平九街","SECT":" ","MAREA":" ","LANE":"２４６巷","ALLEY":" ","HOUSE_NO":"１５號","E_COORD97":164891.54568400001,"N_COORD97":2544063.7901699999,"ADDRESS":"育平九街２４６巷１５號","OBJECTID":375612},"geometry":{"x":164891.54568400141,"y":2544063.7901729997}},{"attributes":{"ID":375623,"DIS_CODE":0,"TOWNNAME":"安平區","LI":"平通里","LIN":"10鄰","STREET":"育平九街","SECT":" ","MAREA":" ","LANE":"２４６巷","ALLEY":" ","HOUSE_NO":"１７號","E_COORD97":164891.969499,"N_COORD97":2544068.0235000001,"ADDRESS":"育平九街２４６巷１７號","OBJECTID":375613},"geometry":{"x":164891.96949900035,"y":2544068.023504002}},{"attributes":{"ID":375624,"DIS_CODE":0,"TOWNNAME":"安平區","LI":"平通里","LIN":"10鄰","STREET":"育平九街","SECT":" ","MAREA":" ","LANE":"２４６巷","ALLEY":" ","HOUSE_NO":"４３號","E_COORD97":164900.869615,"N_COORD97":2544123.6918100002,"ADDRESS":"育平九街２４６巷４３號","OBJECTID":375614},"geometry":{"x":164900.86961499974,"y":2544123.6918080002}},{"attributes":{"ID":375625,"DIS_CODE":0,"TOWNNAME":"新營區","LI":"興業里","LIN":"10鄰","STREET":"公誠街","SECT":" ","MAREA":" ","LANE":"６巷","ALLEY":" ","HOUSE_NO":"２之３號","E_COORD97":180213.38,"N_COORD97":2578025.79,"ADDRESS":"公誠街６巷２之３號","OBJECTID":375615},"geometry":{"x":180213.38000000082,"y":2578025.7899999991}},{"attributes":{"ID":375626,"DIS_CODE":0,"TOWNNAME":"新營區","LI":"新東里","LIN":"10鄰","STREET":"東仁街","SECT":" ","MAREA":" ","LANE":"８２巷","ALLEY":" ","HOUSE_NO":"１０號","E_COORD97":181348.13,"N_COORD97":2579712.6099999999,"ADDRESS":"東仁街８２巷１０號","OBJECTID":375616},"geometry":{"x":181348.12999999989,"y":2579712.6099999994}},{"attributes":{"ID":375627,"DIS_CODE":0,"TOWNNAME":"新營區","LI":"南紙里","LIN":"10鄰","STREET":"南紙街","SECT":" ","MAREA":" ","LANE":"５４巷","ALLEY":" ","HOUSE_NO":"６號","E_COORD97":177775.67999999999,"N_COORD97":2577680.8100000001,"ADDRESS":"南紙街５４巷６號","OBJECTID":375617},"geometry":{"x":177775.6799999997,"y":2577680.8100000005}},{"attributes":{"ID":375628,"DIS_CODE":0,"TOWNNAME":"新營區","LI":"新東里","LIN":"10鄰","STREET":"東仁街","SECT":" ","MAREA":" ","LANE":"８２巷","ALLEY":" ","HOUSE_NO":"３２號","E_COORD97":181394.17000000001,"N_COORD97":2579695.79,"ADDRESS":"東仁街８２巷３２號","OBJECTID":375618},"geometry":{"x":181394.17000000086,"y":2579695.790000001}},{"attributes":{"ID":375629,"DIS_CODE":0,"TOWNNAME":"新營區","LI":"民生里","LIN":"10鄰","STREET":"復興路","SECT":" ","MAREA":" ","LANE":"１４８巷","ALLEY":" ","HOUSE_NO":"６之１號","E_COORD97":179248.10000000001,"N_COORD97":2578107.8999999999,"ADDRESS":"復興路１４８巷６之１號","OBJECTID":375619},"geometry":{"x":179248.10000000056,"y":2578107.9000000004}},{"attributes":{"ID":375630,"DIS_CODE":0,"TOWNNAME":"新營區","LI":"新東里","LIN":"10鄰","STREET":"東仁街","SECT":" ","MAREA":" ","LANE":"８２巷","ALLEY":" ","HOUSE_NO":"１５號","E_COORD97":181376.79999999999,"N_COORD97":2579720.23,"ADDRESS":"東仁街８２巷１５號","OBJECTID":375620},"geometry":{"x":181376.79999999981,"y":2579720.2299999986}},{"attributes":{"ID":375631,"DIS_CODE":0,"TOWNNAME":"新營區","LI":"興業里","LIN":"10鄰","STREET":"公誠街","SECT":" ","MAREA":" ","LANE":"６巷","ALLEY":" ","HOUSE_NO":"２之１號","E_COORD97":180224.63,"N_COORD97":2578025.7400000002,"ADDRESS":"公誠街６巷２之１號","OBJECTID":375621},"geometry":{"x":180224.63000000082,"y":2578025.7400000021}},{"attributes":{"ID":375632,"DIS_CODE":0,"TOWNNAME":"新營區","LI":"南興里","LIN":"10鄰","STREET":"和平路","SECT":" ","MAREA":" ","LANE":"１０２巷","ALLEY":" ","HOUSE_NO":"１３號","E_COORD97":179365.09,"N_COORD97":2577592.3199999998,"ADDRESS":"和平路１０２巷１３號","OBJECTID":375622},"geometry":{"x":179365.08999999892,"y":2577592.3200000003}},{"attributes":{"ID":375633,"DIS_CODE":0,"TOWNNAME":"新營區","LI":"大宏里","LIN":"10鄰","STREET":"民治路","SECT":" ","MAREA":" ","LANE":"２９巷","ALLEY":" ","HOUSE_NO":"２６號之２","E_COORD97":180171.73999999999,"N_COORD97":2578740.2999999998,"ADDRESS":"民治路２９巷２６號之２","OBJECTID":375623},"geometry":{"x":180171.74000000115,"y":2578740.2999999989}},{"attributes":{"ID":375634,"DIS_CODE":0,"TOWNNAME":"新營區","LI":"南興里","LIN":"10鄰","STREET":"和平路","SECT":" ","MAREA":" ","LANE":"１０４巷","ALLEY":" ","HOUSE_NO":"１８號","E_COORD97":179355.76000000001,"N_COORD97":2577566.8799999999,"ADDRESS":"和平路１０４巷１８號","OBJECTID":375624},"geometry":{"x":179355.76000000071,"y":2577566.879999999}},{"attributes":{"ID":375635,"DIS_CODE":0,"TOWNNAME":"新營區","LI":"興安里","LIN":"10鄰","STREET":"新進路","SECT":" ","MAREA":" ","LANE":"３４５巷","ALLEY":" ","HOUSE_NO":"５之１號","E_COORD97":179885.62,"N_COORD97":2577729.4300000002,"ADDRESS":"新進路３４５巷５之１號","OBJECTID":375625},"geometry":{"x":179885.62000000197,"y":2577729.4300000016}},{"attributes":{"ID":375636,"DIS_CODE":0,"TOWNNAME":"新營區","LI":"南興里","LIN":"10鄰","STREET":"和平路","SECT":" ","MAREA":" ","LANE":"１０２巷","ALLEY":" ","HOUSE_NO":"１１號","E_COORD97":179372.23999999999,"N_COORD97":2577591.1699999999,"ADDRESS":"和平路１０２巷１１號","OBJECTID":375626},"geometry":{"x":179372.24000000022,"y":2577591.1700000037}},{"attributes":{"ID":375637,"DIS_CODE":0,"TOWNNAME":"歸仁區","LI":"七甲里","LIN":"10鄰","STREET":"中正北路","SECT":"一段","MAREA":" ","LANE":"５３６巷","ALLEY":" ","HOUSE_NO":"３７號","E_COORD97":177879.81,"N_COORD97":2542134.25,"ADDRESS":"中正北路一段５３６巷３７號","OBJECTID":375627},"geometry":{"x":177879.80999999959,"y":2542134.2500000037}},{"attributes":{"ID":375638,"DIS_CODE":0,"TOWNNAME":"歸仁區","LI":"八甲里","LIN":"10鄰","STREET":"中正北路","SECT":"一段","MAREA":" ","LANE":"５２５巷","ALLEY":" ","HOUSE_NO":"１３７號","E_COORD97":177023.10000000001,"N_COORD97":2542049.21,"ADDRESS":"中正北路一段５２５巷１３７號","OBJECTID":375628},"geometry":{"x":177023.09999999963,"y":2542049.2100000009}},{"attributes":{"ID":375639,"DIS_CODE":0,"TOWNNAME":"歸仁區","LI":"六甲里","LIN":"10鄰","STREET":"六甲路","SECT":" ","MAREA":" ","LANE":"１５１巷","ALLEY":" ","HOUSE_NO":"３７號","E_COORD97":176134.10999999999,"N_COORD97":2539110.25,"ADDRESS":"六甲路１５１巷３７號","OBJECTID":375629},"geometry":{"x":176134.11000000034,"y":2539110.2500000019}},{"attributes":{"ID":375640,"DIS_CODE":0,"TOWNNAME":"歸仁區","LI":"武東里","LIN":"10鄰","STREET":"中正南路","SECT":"二段","MAREA":" ","LANE":"２５８巷","ALLEY":" ","HOUSE_NO":"５５號","E_COORD97":175158.06,"N_COORD97":2535333.2799999998,"ADDRESS":"中正南路二段２５８巷５５號","OBJECTID":375630},"geometry":{"x":175158.06000000052,"y":2535333.2800000012}},{"attributes":{"ID":375641,"DIS_CODE":0,"TOWNNAME":"歸仁區","LI":"武東里","LIN":"10鄰","STREET":"中正南路","SECT":"二段","MAREA":" ","LANE":"２５８巷","ALLEY":" ","HOUSE_NO":"６１號","E_COORD97":175117.16,"N_COORD97":2535349.2799999998,"ADDRESS":"中正南路二段２５８巷６１號","OBJECTID":375631},"geometry":{"x":175117.16000000108,"y":2535349.2800000031}},{"attributes":{"ID":375642,"DIS_CODE":0,"TOWNNAME":"歸仁區","LI":"八甲里","LIN":"10鄰","STREET":"中正北路","SECT":"一段","MAREA":" ","LANE":"５２５巷","ALLEY":" ","HOUSE_NO":"３號","E_COORD97":177621.42999999999,"N_COORD97":2542019.4900000002,"ADDRESS":"中正北路一段５２５巷３號","OBJECTID":375632},"geometry":{"x":177621.4299999997,"y":2542019.4900000002}},{"attributes":{"ID":375643,"DIS_CODE":0,"TOWNNAME":"歸仁區","LI":"八甲里","LIN":"10鄰","STREET":"中正北路","SECT":"一段","MAREA":" ","LANE":"５２５巷","ALLEY":" ","HOUSE_NO":"１３１號","E_COORD97":177050.79999999999,"N_COORD97":2542046.21,"ADDRESS":"中正北路一段５２５巷１３１號","OBJECTID":375633},"geometry":{"x":177050.79999999981,"y":2542046.2100000009}},{"attributes":{"ID":375644,"DIS_CODE":0,"TOWNNAME":"歸仁區","LI":"八甲里","LIN":"10鄰","STREET":"中正北路","SECT":"一段","MAREA":" ","LANE":"５２５巷","ALLEY":" ","HOUSE_NO":"１１號","E_COORD97":177532.57999999999,"N_COORD97":2542035.4900000002,"ADDRESS":"中正北路一段５２５巷１１號","OBJECTID":375634},"geometry":{"x":177532.58000000007,"y":2542035.4900000021}},{"attributes":{"ID":375645,"DIS_CODE":0,"TOWNNAME":"歸仁區","LI":"六甲里","LIN":"10鄰","STREET":"六甲路","SECT":" ","MAREA":" ","LANE":"１５１巷","ALLEY":" ","HOUSE_NO":"３４號","E_COORD97":176119.70999999999,"N_COORD97":2539094.25,"ADDRESS":"六甲路１５１巷３４號","OBJECTID":375635},"geometry":{"x":176119.70999999996,"y":2539094.2500000019}},{"attributes":{"ID":375646,"DIS_CODE":0,"TOWNNAME":"歸仁區","LI":"大潭里","LIN":"10鄰","STREET":"長榮路","SECT":"一段","MAREA":" ","LANE":"２１１巷","ALLEY":" ","HOUSE_NO":"１號","E_COORD97":175072.95999999999,"N_COORD97":2534590.2799999998,"ADDRESS":"長榮路一段２１１巷１號","OBJECTID":375636},"geometry":{"x":175072.96000000089,"y":2534590.2800000012}},{"attributes":{"ID":375647,"DIS_CODE":0,"TOWNNAME":"歸仁區","LI":"七甲里","LIN":"10鄰","STREET":"七甲一街","SECT":" ","MAREA":" ","LANE":"３６巷","ALLEY":" ","HOUSE_NO":"６號","E_COORD97":177623.19,"N_COORD97":2542407.6600000001,"ADDRESS":"七甲一街３６巷６號","OBJECTID":375637},"geometry":{"x":177623.19000000134,"y":2542407.660000002}},{"attributes":{"ID":375648,"DIS_CODE":0,"TOWNNAME":"歸仁區","LI":"七甲里","LIN":"10鄰","STREET":"七甲一街","SECT":" ","MAREA":" ","LANE":"３３巷","ALLEY":" ","HOUSE_NO":"１１號","E_COORD97":177580.94,"N_COORD97":2542531.6600000001,"ADDRESS":"七甲一街３３巷１１號","OBJECTID":375638},"geometry":{"x":177580.94000000041,"y":2542531.6600000039}},{"attributes":{"ID":375649,"DIS_CODE":0,"TOWNNAME":"歸仁區","LI":"六甲里","LIN":"10鄰","STREET":"六甲路","SECT":" ","MAREA":" ","LANE":"１５１巷","ALLEY":" ","HOUSE_NO":"３１號","E_COORD97":176136.20999999999,"N_COORD97":2539117.25,"ADDRESS":"六甲路１５１巷３１號","OBJECTID":375639},"geometry":{"x":176136.20999999996,"y":2539117.2500000019}},{"attributes":{"ID":375650,"DIS_CODE":0,"TOWNNAME":"歸仁區","LI":"大潭里","LIN":"10鄰","STREET":"長榮路","SECT":"一段","MAREA":" ","LANE":"２１１巷","ALLEY":" ","HOUSE_NO":"９號","E_COORD97":175059.76000000001,"N_COORD97":2534613.2799999998,"ADDRESS":"長榮路一段２１１巷９號","OBJECTID":375640},"geometry":{"x":175059.75999999885,"y":2534613.2800000031}},{"attributes":{"ID":375651,"DIS_CODE":0,"TOWNNAME":"安南區","LI":"梅花里","LIN":"21鄰","STREET":"同安路","SECT":" ","MAREA":" ","LANE":"３２２巷","ALLEY":" ","HOUSE_NO":"１８號","E_COORD97":167271,"N_COORD97":2549197.7200000002,"ADDRESS":"同安路３２２巷１８號","OBJECTID":375641},"geometry":{"x":167271.00000000093,"y":2549197.7200000025}},{"attributes":{"ID":375652,"DIS_CODE":0,"TOWNNAME":"歸仁區","LI":"六甲里","LIN":"10鄰","STREET":"六甲路","SECT":" ","MAREA":" ","LANE":"１５１巷","ALLEY":" ","HOUSE_NO":"４５號","E_COORD97":176124.70999999999,"N_COORD97":2539075.25,"ADDRESS":"六甲路１５１巷４５號","OBJECTID":375642},"geometry":{"x":176124.70999999996,"y":2539075.25}},{"attributes":{"ID":375653,"DIS_CODE":0,"TOWNNAME":"歸仁區","LI":"七甲里","LIN":"10鄰","STREET":"七甲一街","SECT":" ","MAREA":" ","LANE":"１４巷","ALLEY":" ","HOUSE_NO":"２號","E_COORD97":177611.69,"N_COORD97":2542365.6600000001,"ADDRESS":"七甲一街１４巷２號","OBJECTID":375643},"geometry":{"x":177611.69000000041,"y":2542365.6600000039}},{"attributes":{"ID":375654,"DIS_CODE":0,"TOWNNAME":"歸仁區","LI":"七甲里","LIN":"10鄰","STREET":"七甲一街","SECT":" ","MAREA":" ","LANE":"１４巷","ALLEY":" ","HOUSE_NO":"５號","E_COORD97":177623.09,"N_COORD97":2542381.6600000001,"ADDRESS":"七甲一街１４巷５號","OBJECTID":375644},"geometry":{"x":177623.09000000078,"y":2542381.6600000001}},{"attributes":{"ID":375655,"DIS_CODE":0,"TOWNNAME":"北區","LI":"六甲里","LIN":"10鄰","STREET":"公園路","SECT":" ","MAREA":" ","LANE":"４８７巷","ALLEY":" ","HOUSE_NO":"３７號","E_COORD97":168936.75,"N_COORD97":2545555.1099999999,"ADDRESS":"公園路４８７巷３７號","OBJECTID":375645},"geometry":{"x":168936.75,"y":2545555.1099999975}},{"attributes":{"ID":375656,"DIS_CODE":0,"TOWNNAME":"安南區","LI":"海東里","LIN":"17鄰","STREET":"同安路","SECT":" ","MAREA":" ","LANE":"３８７巷","ALLEY":" ","HOUSE_NO":"６０號","E_COORD97":167221.51999999999,"N_COORD97":2549360.6699999999,"ADDRESS":"同安路３８７巷６０號","OBJECTID":375646},"geometry":{"x":167221.52000000048,"y":2549360.6700000018}},{"attributes":{"ID":375657,"DIS_CODE":0,"TOWNNAME":"柳營區","LI":"光福里","LIN":"10鄰","STREET":"福安二街","SECT":" ","MAREA":" ","LANE":"３８巷","ALLEY":" ","HOUSE_NO":"８號","E_COORD97":179771.45000000001,"N_COORD97":2575215.48,"ADDRESS":"福安二街３８巷８號","OBJECTID":375647},"geometry":{"x":179771.45000000019,"y":2575215.4800000004}},{"attributes":{"ID":375658,"DIS_CODE":0,"TOWNNAME":"北區","LI":"玉皇里","LIN":"10鄰","STREET":"佑民街","SECT":" ","MAREA":" ","LANE":"８５巷","ALLEY":" ","HOUSE_NO":"２號","E_COORD97":168668.45000000001,"N_COORD97":2544491.1699999999,"ADDRESS":"佑民街８５巷２號","OBJECTID":375648},"geometry":{"x":168668.45000000112,"y":2544491.1700000018}},{"attributes":{"ID":375659,"DIS_CODE":0,"TOWNNAME":"北區","LI":"興北里","LIN":"10鄰","STREET":"公園路","SECT":" ","MAREA":" ","LANE":"５１６巷","ALLEY":" ","HOUSE_NO":"１１號","E_COORD97":169083.42999999999,"N_COORD97":2545257.8100000001,"ADDRESS":"公園路５１６巷１１號","OBJECTID":375649},"geometry":{"x":169083.43000000063,"y":2545257.8100000024}},{"attributes":{"ID":375660,"DIS_CODE":0,"TOWNNAME":"北區","LI":"興北里","LIN":"10鄰","STREET":"公園路","SECT":" ","MAREA":" ","LANE":"５１６巷","ALLEY":" ","HOUSE_NO":"２１號","E_COORD97":169119.47,"N_COORD97":2545278.48,"ADDRESS":"公園路５１６巷２１號","OBJECTID":375650},"geometry":{"x":169119.46999999974,"y":2545278.4800000004}},{"attributes":{"ID":375661,"DIS_CODE":0,"TOWNNAME":"北區","LI":"興北里","LIN":"10鄰","STREET":"公園路","SECT":" ","MAREA":" ","LANE":"５１６巷","ALLEY":" ","HOUSE_NO":"２３號","E_COORD97":169120.45000000001,"N_COORD97":2545284.2000000002,"ADDRESS":"公園路５１６巷２３號","OBJECTID":375651},"geometry":{"x":169120.45000000019,"y":2545284.2000000011}},{"attributes":{"ID":375662,"DIS_CODE":0,"TOWNNAME":"北區","LI":"華興里","LIN":"10鄰","STREET":"南園街","SECT":" ","MAREA":" ","LANE":"１０５巷","ALLEY":" ","HOUSE_NO":"８號","E_COORD97":170676.29000000001,"N_COORD97":2545373.9700000002,"ADDRESS":"南園街１０５巷８號","OBJECTID":375652},"geometry":{"x":170676.2900000019,"y":2545373.9700000007}},{"attributes":{"ID":375663,"DIS_CODE":0,"TOWNNAME":"北區","LI":"興北里","LIN":"10鄰","STREET":"公園路","SECT":" ","MAREA":" ","LANE":"５１６巷","ALLEY":" ","HOUSE_NO":"２５號","E_COORD97":169125.06,"N_COORD97":2545294.0699999998,"ADDRESS":"公園路５１６巷２５號","OBJECTID":375653},"geometry":{"x":169125.06000000052,"y":2545294.0700000003}},{"attributes":{"ID":375664,"DIS_CODE":0,"TOWNNAME":"北區","LI":"興北里","LIN":"10鄰","STREET":"公園路","SECT":" ","MAREA":" ","LANE":"５１６巷","ALLEY":" ","HOUSE_NO":"９號","E_COORD97":169079.98999999999,"N_COORD97":2545230.4100000001,"ADDRESS":"公園路５１６巷９號","OBJECTID":375654},"geometry":{"x":169079.99000000115,"y":2545230.4100000001}},{"attributes":{"ID":375665,"DIS_CODE":0,"TOWNNAME":"北區","LI":"興北里","LIN":"10鄰","STREET":"公園路","SECT":" ","MAREA":" ","LANE":"５１６巷","ALLEY":" ","HOUSE_NO":"９號之１","E_COORD97":169080.07000000001,"N_COORD97":2545234.8300000001,"ADDRESS":"公園路５１６巷９號之１","OBJECTID":375655},"geometry":{"x":169080.07000000123,"y":2545234.8300000001}},{"attributes":{"ID":375666,"DIS_CODE":0,"TOWNNAME":"北區","LI":"興北里","LIN":"10鄰","STREET":"公園路","SECT":" ","MAREA":" ","LANE":"５１６巷","ALLEY":" ","HOUSE_NO":"９號之２","E_COORD97":169079.98999999999,"N_COORD97":2545238.5099999998,"ADDRESS":"公園路５１６巷９號之２","OBJECTID":375656},"geometry":{"x":169079.99000000115,"y":2545238.5100000016}},{"attributes":{"ID":375667,"DIS_CODE":0,"TOWNNAME":"北區","LI":"興北里","LIN":"10鄰","STREET":"公園路","SECT":" ","MAREA":" ","LANE":"５１６巷","ALLEY":" ","HOUSE_NO":"９號之３","E_COORD97":169080.07000000001,"N_COORD97":2545242.1099999999,"ADDRESS":"公園路５１６巷９號之３","OBJECTID":375657},"geometry":{"x":169080.07000000123,"y":2545242.1099999994}},{"attributes":{"ID":375668,"DIS_CODE":0,"TOWNNAME":"北區","LI":"興北里","LIN":"10鄰","STREET":"公園路","SECT":" ","MAREA":" ","LANE":"５１６巷","ALLEY":" ","HOUSE_NO":"９號之４","E_COORD97":169079.98999999999,"N_COORD97":2545245.54,"ADDRESS":"公園路５１６巷９號之４","OBJECTID":375658},"geometry":{"x":169079.99000000115,"y":2545245.5399999991}},{"attributes":{"ID":375669,"DIS_CODE":0,"TOWNNAME":"北區","LI":"興北里","LIN":"10鄰","STREET":"公園路","SECT":" ","MAREA":" ","LANE":"５１６巷","ALLEY":" ","HOUSE_NO":"９號之５","E_COORD97":169079.66,"N_COORD97":2545249.5499999998,"ADDRESS":"公園路５１６巷９號之５","OBJECTID":375659},"geometry":{"x":169079.66000000015,"y":2545249.5500000026}},{"attributes":{"ID":375670,"DIS_CODE":0,"TOWNNAME":"北區","LI":"興北里","LIN":"10鄰","STREET":"公園路","SECT":" ","MAREA":" ","LANE":"５１６巷","ALLEY":" ","HOUSE_NO":"９號之６","E_COORD97":169079.66,"N_COORD97":2545253.7200000002,"ADDRESS":"公園路５１６巷９號之６","OBJECTID":375660},"geometry":{"x":169079.66000000015,"y":2545253.7200000007}},{"attributes":{"ID":375671,"DIS_CODE":0,"TOWNNAME":"北區","LI":"興北里","LIN":"10鄰","STREET":"公園路","SECT":" ","MAREA":" ","LANE":"５１６巷","ALLEY":" ","HOUSE_NO":"２７號","E_COORD97":169130.73999999999,"N_COORD97":2545301.02,"ADDRESS":"公園路５１６巷２７號","OBJECTID":375661},"geometry":{"x":169130.74000000209,"y":2545301.0199999996}},{"attributes":{"ID":375672,"DIS_CODE":0,"TOWNNAME":"北區","LI":"興北里","LIN":"10鄰","STREET":"公園路","SECT":" ","MAREA":" ","LANE":"５１６巷","ALLEY":" ","HOUSE_NO":"３號","E_COORD97":169070.89999999999,"N_COORD97":2545226.8999999999,"ADDRESS":"公園路５１６巷３號","OBJECTID":375662},"geometry":{"x":169070.9000000013,"y":2545226.9000000022}},{"attributes":{"ID":375673,"DIS_CODE":0,"TOWNNAME":"北區","LI":"興北里","LIN":"10鄰","STREET":"公園路","SECT":" ","MAREA":" ","LANE":"５１６巷","ALLEY":" ","HOUSE_NO":"１４號","E_COORD97":169109.57999999999,"N_COORD97":2545223.27,"ADDRESS":"公園路５１６巷１４號","OBJECTID":375663},"geometry":{"x":169109.58000000194,"y":2545223.2700000014}},{"attributes":{"ID":375674,"DIS_CODE":0,"TOWNNAME":"北區","LI":"興北里","LIN":"10鄰","STREET":"公園路","SECT":" ","MAREA":" ","LANE":"５１６巷","ALLEY":" ","HOUSE_NO":"１６號","E_COORD97":169104.82999999999,"N_COORD97":2545222.2799999998,"ADDRESS":"公園路５１６巷１６號","OBJECTID":375664},"geometry":{"x":169104.83000000101,"y":2545222.2800000012}},{"attributes":{"ID":375675,"DIS_CODE":0,"TOWNNAME":"北區","LI":"興北里","LIN":"10鄰","STREET":"公園路","SECT":" ","MAREA":" ","LANE":"５１６巷","ALLEY":" ","HOUSE_NO":"１８號","E_COORD97":169092.45000000001,"N_COORD97":2545222.02,"ADDRESS":"公園路５１６巷１８號","OBJECTID":375665},"geometry":{"x":169092.45000000112,"y":2545222.0200000014}},{"attributes":{"ID":375676,"DIS_CODE":0,"TOWNNAME":"北區","LI":"興北里","LIN":"10鄰","STREET":"公園路","SECT":" ","MAREA":" ","LANE":"５１６巷","ALLEY":" ","HOUSE_NO":"２０號","E_COORD97":169088.60000000001,"N_COORD97":2545229.2999999998,"ADDRESS":"公園路５１６巷２０號","OBJECTID":375666},"geometry":{"x":169088.60000000149,"y":2545229.3000000007}},{"attributes":{"ID":375677,"DIS_CODE":0,"TOWNNAME":"北區","LI":"興北里","LIN":"10鄰","STREET":"公園路","SECT":" ","MAREA":" ","LANE":"５１６巷","ALLEY":" ","HOUSE_NO":"２２號","E_COORD97":169088.44,"N_COORD97":2545234.7000000002,"ADDRESS":"公園路５１６巷２２號","OBJECTID":375667},"geometry":{"x":169088.44000000041,"y":2545234.6999999993}},{"attributes":{"ID":375678,"DIS_CODE":0,"TOWNNAME":"北區","LI":"興北里","LIN":"10鄰","STREET":"公園路","SECT":" ","MAREA":" ","LANE":"５１６巷","ALLEY":" ","HOUSE_NO":"２８號","E_COORD97":169116.04000000001,"N_COORD97":2545234.7999999998,"ADDRESS":"公園路５１６巷２８號","OBJECTID":375668},"geometry":{"x":169116.04000000004,"y":2545234.8000000026}},{"attributes":{"ID":375679,"DIS_CODE":0,"TOWNNAME":"北區","LI":"興北里","LIN":"10鄰","STREET":"公園路","SECT":" ","MAREA":" ","LANE":"５１６巷","ALLEY":" ","HOUSE_NO":"３２號","E_COORD97":169108.89000000001,"N_COORD97":2545250.6099999999,"ADDRESS":"公園路５１６巷３２號","OBJECTID":375669},"geometry":{"x":169108.89000000153,"y":2545250.6100000013}},{"attributes":{"ID":375680,"DIS_CODE":0,"TOWNNAME":"北區","LI":"興北里","LIN":"10鄰","STREET":"公園路","SECT":" ","MAREA":" ","LANE":"５１６巷","ALLEY":" ","HOUSE_NO":"３４號","E_COORD97":169088.09,"N_COORD97":2545243.5800000001,"ADDRESS":"公園路５１６巷３４號","OBJECTID":375670},"geometry":{"x":169088.09000000078,"y":2545243.5800000001}},{"attributes":{"ID":375681,"DIS_CODE":0,"TOWNNAME":"北區","LI":"興北里","LIN":"10鄰","STREET":"公園路","SECT":" ","MAREA":" ","LANE":"５１６巷","ALLEY":" ","HOUSE_NO":"３６號","E_COORD97":169098.41,"N_COORD97":2545250.04,"ADDRESS":"公園路５１６巷３６號","OBJECTID":375671},"geometry":{"x":169098.41000000015,"y":2545250.0399999991}},{"attributes":{"ID":375682,"DIS_CODE":0,"TOWNNAME":"北區","LI":"興北里","LIN":"10鄰","STREET":"公園路","SECT":" ","MAREA":" ","LANE":"５１６巷","ALLEY":" ","HOUSE_NO":"４２號","E_COORD97":169119.54000000001,"N_COORD97":2545251.77,"ADDRESS":"公園路５１６巷４２號","OBJECTID":375672},"geometry":{"x":169119.54000000004,"y":2545251.7699999996}},{"attributes":{"ID":375683,"DIS_CODE":0,"TOWNNAME":"北區","LI":"興北里","LIN":"10鄰","STREET":"公園路","SECT":" ","MAREA":" ","LANE":"５１６巷","ALLEY":" ","HOUSE_NO":"４６號","E_COORD97":169122.89999999999,"N_COORD97":2545258.3199999998,"ADDRESS":"公園路５１６巷４６號","OBJECTID":375673},"geometry":{"x":169122.89999999944,"y":2545258.3200000003}},{"attributes":{"ID":375684,"DIS_CODE":0,"TOWNNAME":"北區","LI":"興北里","LIN":"10鄰","STREET":"公園路","SECT":" ","MAREA":" ","LANE":"５１６巷","ALLEY":" ","HOUSE_NO":"４８號","E_COORD97":169126.17999999999,"N_COORD97":2545272.1800000002,"ADDRESS":"公園路５１６巷４８號","OBJECTID":375674},"geometry":{"x":169126.18000000063,"y":2545272.1799999997}},{"attributes":{"ID":375685,"DIS_CODE":0,"TOWNNAME":"北區","LI":"興南里","LIN":"10鄰","STREET":"公園北路","SECT":" ","MAREA":" ","LANE":"１４４巷","ALLEY":" ","HOUSE_NO":"１１號","E_COORD97":168877.10999999999,"N_COORD97":2545133.6200000001,"ADDRESS":"公園北路１４４巷１１號","OBJECTID":375675},"geometry":{"x":168877.11000000034,"y":2545133.6200000029}},{"attributes":{"ID":375686,"DIS_CODE":0,"TOWNNAME":"北區","LI":"興南里","LIN":"10鄰","STREET":"公園北路","SECT":" ","MAREA":" ","LANE":"１４４巷","ALLEY":" ","HOUSE_NO":"１３號","E_COORD97":168884.09,"N_COORD97":2545132.6200000001,"ADDRESS":"公園北路１４４巷１３號","OBJECTID":375676},"geometry":{"x":168884.09000000078,"y":2545132.620000001}},{"attributes":{"ID":375687,"DIS_CODE":0,"TOWNNAME":"北區","LI":"興南里","LIN":"10鄰","STREET":"公園北路","SECT":" ","MAREA":" ","LANE":"１４４巷","ALLEY":" ","HOUSE_NO":"１７號","E_COORD97":168870.79000000001,"N_COORD97":2545150.0600000001,"ADDRESS":"公園北路１４４巷１７號","OBJECTID":375677},"geometry":{"x":168870.7900000019,"y":2545150.0600000042}},{"attributes":{"ID":375688,"DIS_CODE":0,"TOWNNAME":"北區","LI":"興南里","LIN":"10鄰","STREET":"公園北路","SECT":" ","MAREA":" ","LANE":"１４４巷","ALLEY":" ","HOUSE_NO":"１９號","E_COORD97":168879.10999999999,"N_COORD97":2545148.3999999999,"ADDRESS":"公園北路１４４巷１９號","OBJECTID":375678},"geometry":{"x":168879.1100000022,"y":2545148.4000000022}},{"attributes":{"ID":375689,"DIS_CODE":0,"TOWNNAME":"北區","LI":"興南里","LIN":"10鄰","STREET":"公園北路","SECT":" ","MAREA":" ","LANE":"１４４巷","ALLEY":" ","HOUSE_NO":"１號","E_COORD97":168865.64000000001,"N_COORD97":2545088.9399999999,"ADDRESS":"公園北路１４４巷１號","OBJECTID":375679},"geometry":{"x":168865.63999999966,"y":2545088.9400000032}},{"attributes":{"ID":375690,"DIS_CODE":0,"TOWNNAME":"北區","LI":"興南里","LIN":"10鄰","STREET":"公園北路","SECT":" ","MAREA":" ","LANE":"１４４巷","ALLEY":" ","HOUSE_NO":"１號之１","E_COORD97":168872.45000000001,"N_COORD97":2545101.5600000001,"ADDRESS":"公園北路１４４巷１號之１","OBJECTID":375680},"geometry":{"x":168872.45000000019,"y":2545101.5600000005}},{"attributes":{"ID":375691,"DIS_CODE":0,"TOWNNAME":"北區","LI":"興南里","LIN":"10鄰","STREET":"公園北路","SECT":" ","MAREA":" ","LANE":"１４４巷","ALLEY":" ","HOUSE_NO":"２１號","E_COORD97":168885.92000000001,"N_COORD97":2545142.25,"ADDRESS":"公園北路１４４巷２１號","OBJECTID":375681},"geometry":{"x":168885.91999999993,"y":2545142.2500000019}},{"attributes":{"ID":375692,"DIS_CODE":0,"TOWNNAME":"北區","LI":"興南里","LIN":"10鄰","STREET":"公園北路","SECT":" ","MAREA":" ","LANE":"１４４巷","ALLEY":" ","HOUSE_NO":"２３號","E_COORD97":168886.59,"N_COORD97":2545145.4100000001,"ADDRESS":"公園北路１４４巷２３號","OBJECTID":375682},"geometry":{"x":168886.58999999985,"y":2545145.410000002}},{"attributes":{"ID":375693,"DIS_CODE":0,"TOWNNAME":"北區","LI":"興南里","LIN":"10鄰","STREET":"公園北路","SECT":" ","MAREA":" ","LANE":"１４４巷","ALLEY":" ","HOUSE_NO":"２５號","E_COORD97":168887.09,"N_COORD97":2545148.5699999998,"ADDRESS":"公園北路１４４巷２５號","OBJECTID":375683},"geometry":{"x":168887.08999999892,"y":2545148.5700000003}},{"attributes":{"ID":375694,"DIS_CODE":0,"TOWNNAME":"北區","LI":"興南里","LIN":"10鄰","STREET":"公園北路","SECT":" ","MAREA":" ","LANE":"１４４巷","ALLEY":" ","HOUSE_NO":"３號","E_COORD97":168877.94,"N_COORD97":2545108.3700000001,"ADDRESS":"公園北路１４４巷３號","OBJECTID":375684},"geometry":{"x":168877.94000000041,"y":2545108.3700000029}},{"attributes":{"ID":375695,"DIS_CODE":0,"TOWNNAME":"北區","LI":"興南里","LIN":"10鄰","STREET":"公園北路","SECT":" ","MAREA":" ","LANE":"１４４巷","ALLEY":" ","HOUSE_NO":"５號","E_COORD97":168868.79999999999,"N_COORD97":2545114.8500000001,"ADDRESS":"公園北路１４４巷５號","OBJECTID":375685},"geometry":{"x":168868.80000000168,"y":2545114.8500000015}},{"attributes":{"ID":375696,"DIS_CODE":0,"TOWNNAME":"北區","LI":"興南里","LIN":"10鄰","STREET":"公園北路","SECT":" ","MAREA":" ","LANE":"１４４巷","ALLEY":" ","HOUSE_NO":"５號之１","E_COORD97":168864.64000000001,"N_COORD97":2545116.3399999999,"ADDRESS":"公園北路１４４巷５號之１","OBJECTID":375686},"geometry":{"x":168864.64000000153,"y":2545116.3399999999}},{"attributes":{"ID":375697,"DIS_CODE":0,"TOWNNAME":"北區","LI":"興南里","LIN":"10鄰","STREET":"公園北路","SECT":" ","MAREA":" ","LANE":"１４４巷","ALLEY":" ","HOUSE_NO":"５號之２","E_COORD97":168860.98000000001,"N_COORD97":2545117.1800000002,"ADDRESS":"公園北路１４４巷５號之２","OBJECTID":375687},"geometry":{"x":168860.98000000045,"y":2545117.1799999997}},{"attributes":{"ID":375698,"DIS_CODE":0,"TOWNNAME":"北區","LI":"興南里","LIN":"10鄰","STREET":"公園北路","SECT":" ","MAREA":" ","LANE":"１４４巷","ALLEY":" ","HOUSE_NO":"７號","E_COORD97":168879.26999999999,"N_COORD97":2545118.6699999999,"ADDRESS":"公園北路１４４巷７號","OBJECTID":375688},"geometry":{"x":168879.27000000048,"y":2545118.6700000018}},{"attributes":{"ID":375699,"DIS_CODE":0,"TOWNNAME":"北區","LI":"興南里","LIN":"10鄰","STREET":"公園北路","SECT":" ","MAREA":" ","LANE":"１４４巷","ALLEY":" ","HOUSE_NO":"９號","E_COORD97":168866.79999999999,"N_COORD97":2545135.7799999998,"ADDRESS":"公園北路１４４巷９號","OBJECTID":375689},"geometry":{"x":168866.79999999981,"y":2545135.7799999993}},{"attributes":{"ID":375700,"DIS_CODE":0,"TOWNNAME":"北區","LI":"興南里","LIN":"10鄰","STREET":"公園北路","SECT":" ","MAREA":" ","LANE":"１４４巷","ALLEY":" ","HOUSE_NO":"９號之１","E_COORD97":168871.29000000001,"N_COORD97":2545135.2799999998,"ADDRESS":"公園北路１４４巷９號之１","OBJECTID":375690},"geometry":{"x":168871.29000000097,"y":2545135.2800000012}},{"attributes":{"ID":375701,"DIS_CODE":0,"TOWNNAME":"歸仁區","LI":"六甲里","LIN":"10鄰","STREET":"六甲路","SECT":" ","MAREA":" ","LANE":"１５１巷","ALLEY":" ","HOUSE_NO":"４７號","E_COORD97":176122.60999999999,"N_COORD97":2539063.25,"ADDRESS":"六甲路１５１巷４７號","OBJECTID":375691},"geometry":{"x":176122.6100000022,"y":2539063.2500000019}},{"attributes":{"ID":375702,"DIS_CODE":0,"TOWNNAME":"歸仁區","LI":"六甲里","LIN":"10鄰","STREET":"六甲路","SECT":" ","MAREA":" ","LANE":"１５１巷","ALLEY":" ","HOUSE_NO":"２６號","E_COORD97":176124.91,"N_COORD97":2539120.25,"ADDRESS":"六甲路１５１巷２６號","OBJECTID":375692},"geometry":{"x":176124.91000000015,"y":2539120.2500000037}},{"attributes":{"ID":375703,"DIS_CODE":0,"TOWNNAME":"歸仁區","LI":"六甲里","LIN":"10鄰","STREET":"六甲路","SECT":" ","MAREA":" ","LANE":"１５１巷","ALLEY":" ","HOUSE_NO":"４２號","E_COORD97":176113.41,"N_COORD97":2539067.25,"ADDRESS":"六甲路１５１巷４２號","OBJECTID":375693},"geometry":{"x":176113.41000000015,"y":2539067.2500000019}},{"attributes":{"ID":375704,"DIS_CODE":0,"TOWNNAME":"歸仁區","LI":"六甲里","LIN":"10鄰","STREET":"六甲路","SECT":" ","MAREA":" ","LANE":"１５１巷","ALLEY":" ","HOUSE_NO":"２０號","E_COORD97":176130.10999999999,"N_COORD97":2539140.25,"ADDRESS":"六甲路１５１巷２０號","OBJECTID":375694},"geometry":{"x":176130.11000000127,"y":2539140.2499999981}},{"attributes":{"ID":375705,"DIS_CODE":0,"TOWNNAME":"歸仁區","LI":"武東里","LIN":"10鄰","STREET":"武東三街","SECT":" ","MAREA":" ","LANE":"４６巷","ALLEY":" ","HOUSE_NO":"９號","E_COORD97":175173.34,"N_COORD97":2535272.25,"ADDRESS":"武東三街４６巷９號","OBJECTID":375695},"geometry":{"x":175173.34000000078,"y":2535272.2500000037}},{"attributes":{"ID":375706,"DIS_CODE":0,"TOWNNAME":"歸仁區","LI":"文化里","LIN":"10鄰","STREET":"民族北街","SECT":" ","MAREA":" ","LANE":"２３７巷","ALLEY":" ","HOUSE_NO":"２號","E_COORD97":177453,"N_COORD97":2541457.3300000001,"ADDRESS":"民族北街２３７巷２號","OBJECTID":375696},"geometry":{"x":177453,"y":2541457.3300000001}},{"attributes":{"ID":375707,"DIS_CODE":0,"TOWNNAME":"歸仁區","LI":"大廟里","LIN":"10鄰","STREET":"大廟一街","SECT":" ","MAREA":" ","LANE":"２９巷","ALLEY":" ","HOUSE_NO":"５號","E_COORD97":175904.97,"N_COORD97":2544072.25,"ADDRESS":"大廟一街２９巷５號","OBJECTID":375697},"geometry":{"x":175904.97000000067,"y":2544072.25}},{"attributes":{"ID":375708,"DIS_CODE":0,"TOWNNAME":"歸仁區","LI":"六甲里","LIN":"10鄰","STREET":"六甲路","SECT":" ","MAREA":" ","LANE":"１５１巷","ALLEY":" ","HOUSE_NO":"２４號","E_COORD97":176127.01000000001,"N_COORD97":2539127.25,"ADDRESS":"六甲路１５１巷２４號","OBJECTID":375698},"geometry":{"x":176127.00999999978,"y":2539127.2500000019}},{"attributes":{"ID":375709,"DIS_CODE":0,"TOWNNAME":"歸仁區","LI":"七甲里","LIN":"10鄰","STREET":"七甲一街","SECT":" ","MAREA":" ","LANE":"３３巷","ALLEY":" ","HOUSE_NO":"１５號","E_COORD97":177583.04000000001,"N_COORD97":2542540.6600000001,"ADDRESS":"七甲一街３３巷１５號","OBJECTID":375699},"geometry":{"x":177583.04000000097,"y":2542540.6600000001}},{"attributes":{"ID":375710,"DIS_CODE":0,"TOWNNAME":"歸仁區","LI":"武東里","LIN":"10鄰","STREET":"武東三街","SECT":" ","MAREA":" ","LANE":"５６巷","ALLEY":" ","HOUSE_NO":"１９號","E_COORD97":175110.19,"N_COORD97":2535312.25,"ADDRESS":"武東三街５６巷１９號","OBJECTID":375700},"geometry":{"x":175110.19000000227,"y":2535312.25}},{"attributes":{"ID":375711,"DIS_CODE":0,"TOWNNAME":"歸仁區","LI":"武東里","LIN":"10鄰","STREET":"武東三街","SECT":" ","MAREA":" ","LANE":"４６巷","ALLEY":" ","HOUSE_NO":"１５號","E_COORD97":175175.69,"N_COORD97":2535285.25,"ADDRESS":"武東三街４６巷１５號","OBJECTID":375701},"geometry":{"x":175175.69000000041,"y":2535285.25}},{"attributes":{"ID":375712,"DIS_CODE":0,"TOWNNAME":"歸仁區","LI":"七甲里","LIN":"10鄰","STREET":"七甲一街","SECT":" ","MAREA":" ","LANE":"３３巷","ALLEY":" ","HOUSE_NO":"５號","E_COORD97":177583.69,"N_COORD97":2542515.6600000001,"ADDRESS":"七甲一街３３巷５號","OBJECTID":375702},"geometry":{"x":177583.69000000134,"y":2542515.660000002}},{"attributes":{"ID":375713,"DIS_CODE":0,"TOWNNAME":"歸仁區","LI":"文化里","LIN":"10鄰","STREET":"民族北街","SECT":" ","MAREA":" ","LANE":"２３７巷","ALLEY":" ","HOUSE_NO":"８號","E_COORD97":177454.10000000001,"N_COORD97":2541466.3300000001,"ADDRESS":"民族北街２３７巷８號","OBJECTID":375703},"geometry":{"x":177454.09999999963,"y":2541466.3300000019}},{"attributes":{"ID":375714,"DIS_CODE":0,"TOWNNAME":"歸仁區","LI":"七甲里","LIN":"10鄰","STREET":"七甲一街","SECT":" ","MAREA":" ","LANE":"３３巷","ALLEY":" ","HOUSE_NO":"９號","E_COORD97":177580.69,"N_COORD97":2542525.6600000001,"ADDRESS":"七甲一街３３巷９號","OBJECTID":375704},"geometry":{"x":177580.69000000134,"y":2542525.660000002}},{"attributes":{"ID":375715,"DIS_CODE":0,"TOWNNAME":"歸仁區","LI":"八甲里","LIN":"10鄰","STREET":"大明二街","SECT":" ","MAREA":" ","LANE":"７５巷","ALLEY":" ","HOUSE_NO":"１１號","E_COORD97":177804.47,"N_COORD97":2541945.6099999999,"ADDRESS":"大明二街７５巷１１號","OBJECTID":375705},"geometry":{"x":177804.46999999974,"y":2541945.6100000013}},{"attributes":{"ID":375716,"DIS_CODE":0,"TOWNNAME":"歸仁區","LI":"六甲里","LIN":"10鄰","STREET":"六甲路","SECT":" ","MAREA":" ","LANE":"２０１巷","ALLEY":" ","HOUSE_NO":"１號","E_COORD97":176055.16,"N_COORD97":2539169.25,"ADDRESS":"六甲路２０１巷１號","OBJECTID":375706},"geometry":{"x":176055.16000000108,"y":2539169.25}},{"attributes":{"ID":375717,"DIS_CODE":0,"TOWNNAME":"歸仁區","LI":"武東里","LIN":"10鄰","STREET":"武東三街","SECT":" ","MAREA":" ","LANE":"２６巷","ALLEY":" ","HOUSE_NO":"１５號","E_COORD97":175236.09,"N_COORD97":2535247.25,"ADDRESS":"武東三街２６巷１５號","OBJECTID":375707},"geometry":{"x":175236.09000000078,"y":2535247.25}},{"attributes":{"ID":375718,"DIS_CODE":0,"TOWNNAME":"安南區","LI":"淵西里","LIN":"12鄰","STREET":"安中路","SECT":"四段","MAREA":" ","LANE":"２４０巷","ALLEY":" ","HOUSE_NO":"１１號","E_COORD97":164701.13,"N_COORD97":2550223.25,"ADDRESS":"安中路四段２４０巷１１號","OBJECTID":375708},"geometry":{"x":164701.12999999989,"y":2550223.25}},{"attributes":{"ID":375719,"DIS_CODE":0,"TOWNNAME":"歸仁區","LI":"武東里","LIN":"10鄰","STREET":"武東三街","SECT":" ","MAREA":" ","LANE":"２０巷","ALLEY":" ","HOUSE_NO":"１９號","E_COORD97":175278.19,"N_COORD97":2535265.25,"ADDRESS":"武東三街２０巷１９號","OBJECTID":375709},"geometry":{"x":175278.19000000134,"y":2535265.2500000037}},{"attributes":{"ID":375720,"DIS_CODE":0,"TOWNNAME":"歸仁區","LI":"文化里","LIN":"10鄰","STREET":"民族北街","SECT":" ","MAREA":" ","LANE":"２３１巷","ALLEY":" ","HOUSE_NO":"６號","E_COORD97":177446.79999999999,"N_COORD97":2541441.3300000001,"ADDRESS":"民族北街２３１巷６號","OBJECTID":375710},"geometry":{"x":177446.80000000075,"y":2541441.3300000001}},{"attributes":{"ID":375721,"DIS_CODE":0,"TOWNNAME":"歸仁區","LI":"六甲里","LIN":"10鄰","STREET":"六甲路","SECT":" ","MAREA":" ","LANE":"１５１巷","ALLEY":" ","HOUSE_NO":"２５號","E_COORD97":176140.31,"N_COORD97":2539130.25,"ADDRESS":"六甲路１５１巷２５號","OBJECTID":375711},"geometry":{"x":176140.30999999959,"y":2539130.2500000037}},{"attributes":{"ID":375722,"DIS_CODE":0,"TOWNNAME":"北區","LI":"華興里","LIN":"10鄰","STREET":"南園街","SECT":" ","MAREA":" ","LANE":"１０５巷","ALLEY":" ","HOUSE_NO":"１０號","E_COORD97":170681.07000000001,"N_COORD97":2545375.6699999999,"ADDRESS":"南園街１０５巷１０號","OBJECTID":375712},"geometry":{"x":170681.0700000003,"y":2545375.6700000037}},{"attributes":{"ID":375723,"DIS_CODE":0,"TOWNNAME":"北區","LI":"華興里","LIN":"10鄰","STREET":"南園街","SECT":" ","MAREA":" ","LANE":"１０５巷","ALLEY":" ","HOUSE_NO":"１１號","E_COORD97":170650.66,"N_COORD97":2545378.6000000001,"ADDRESS":"南園街１０５巷１１號","OBJECTID":375713},"geometry":{"x":170650.66000000108,"y":2545378.5999999996}},{"attributes":{"ID":375724,"DIS_CODE":0,"TOWNNAME":"北區","LI":"華興里","LIN":"10鄰","STREET":"南園街","SECT":" ","MAREA":" ","LANE":"１０５巷","ALLEY":" ","HOUSE_NO":"１２號","E_COORD97":170685.44,"N_COORD97":2545376.6400000001,"ADDRESS":"南園街１０５巷１２號","OBJECTID":375714},"geometry":{"x":170685.44000000041,"y":2545376.6400000043}},{"attributes":{"ID":375725,"DIS_CODE":0,"TOWNNAME":"北區","LI":"華興里","LIN":"10鄰","STREET":"南園街","SECT":" ","MAREA":" ","LANE":"１０５巷","ALLEY":" ","HOUSE_NO":"１３號","E_COORD97":170654.79000000001,"N_COORD97":2545380.3100000001,"ADDRESS":"南園街１０５巷１３號","OBJECTID":375715},"geometry":{"x":170654.79000000097,"y":2545380.3100000024}},{"attributes":{"ID":375726,"DIS_CODE":0,"TOWNNAME":"北區","LI":"華興里","LIN":"10鄰","STREET":"南園街","SECT":" ","MAREA":" ","LANE":"１０５巷","ALLEY":" ","HOUSE_NO":"１４號","E_COORD97":170689.97,"N_COORD97":2545378.4199999999,"ADDRESS":"南園街１０５巷１４號","OBJECTID":375716},"geometry":{"x":170689.9700000016,"y":2545378.4200000018}},{"attributes":{"ID":375727,"DIS_CODE":0,"TOWNNAME":"北區","LI":"華興里","LIN":"10鄰","STREET":"南園街","SECT":" ","MAREA":" ","LANE":"１０５巷","ALLEY":" ","HOUSE_NO":"１５號","E_COORD97":170658.91,"N_COORD97":2545381.8399999999,"ADDRESS":"南園街１０５巷１５號","OBJECTID":375717},"geometry":{"x":170658.91000000108,"y":2545381.8400000017}},{"attributes":{"ID":375728,"DIS_CODE":0,"TOWNNAME":"北區","LI":"華興里","LIN":"10鄰","STREET":"南園街","SECT":" ","MAREA":" ","LANE":"１０５巷","ALLEY":" ","HOUSE_NO":"１６號","E_COORD97":170694.17999999999,"N_COORD97":2545380.04,"ADDRESS":"南園街１０５巷１６號","OBJECTID":375718},"geometry":{"x":170694.18000000063,"y":2545380.040000001}},{"attributes":{"ID":375729,"DIS_CODE":0,"TOWNNAME":"北區","LI":"華興里","LIN":"10鄰","STREET":"南園街","SECT":" ","MAREA":" ","LANE":"１０５巷","ALLEY":" ","HOUSE_NO":"１７號","E_COORD97":170663.60000000001,"N_COORD97":2545383.21,"ADDRESS":"南園街１０５巷１７號","OBJECTID":375719},"geometry":{"x":170663.60000000149,"y":2545383.2100000046}},{"attributes":{"ID":375730,"DIS_CODE":0,"TOWNNAME":"北區","LI":"華興里","LIN":"10鄰","STREET":"南園街","SECT":" ","MAREA":" ","LANE":"１０５巷","ALLEY":" ","HOUSE_NO":"１８號","E_COORD97":170698.47,"N_COORD97":2545381.5699999998,"ADDRESS":"南園街１０５巷１８號","OBJECTID":375720},"geometry":{"x":170698.4700000016,"y":2545381.5700000022}},{"attributes":{"ID":375731,"DIS_CODE":0,"TOWNNAME":"北區","LI":"華興里","LIN":"10鄰","STREET":"南園街","SECT":" ","MAREA":" ","LANE":"１０５巷","ALLEY":" ","HOUSE_NO":"１９號","E_COORD97":170667.39999999999,"N_COORD97":2545384.75,"ADDRESS":"南園街１０５巷１９號","OBJECTID":375721},"geometry":{"x":170667.40000000224,"y":2545384.75}},{"attributes":{"ID":375732,"DIS_CODE":0,"TOWNNAME":"北區","LI":"華興里","LIN":"10鄰","STREET":"南園街","SECT":" ","MAREA":" ","LANE":"１０５巷","ALLEY":" ","HOUSE_NO":"１號","E_COORD97":170628.42000000001,"N_COORD97":2545371.4900000002,"ADDRESS":"南園街１０５巷１號","OBJECTID":375722},"geometry":{"x":170628.42000000086,"y":2545371.4900000021}},{"attributes":{"ID":375733,"DIS_CODE":0,"TOWNNAME":"北區","LI":"華興里","LIN":"10鄰","STREET":"南園街","SECT":" ","MAREA":" ","LANE":"１０５巷","ALLEY":" ","HOUSE_NO":"２０號","E_COORD97":170703.07999999999,"N_COORD97":2545383.2799999998,"ADDRESS":"南園街１０５巷２０號","OBJECTID":375723},"geometry":{"x":170703.08000000194,"y":2545383.2799999993}},{"attributes":{"ID":375734,"DIS_CODE":0,"TOWNNAME":"北區","LI":"華興里","LIN":"10鄰","STREET":"南園街","SECT":" ","MAREA":" ","LANE":"１０５巷","ALLEY":" ","HOUSE_NO":"２１號","E_COORD97":170672.01000000001,"N_COORD97":2545386.4500000002,"ADDRESS":"南園街１０５巷２１號","OBJECTID":375724},"geometry":{"x":170672.00999999978,"y":2545386.4499999993}},{"attributes":{"ID":375735,"DIS_CODE":0,"TOWNNAME":"北區","LI":"華興里","LIN":"10鄰","STREET":"南園街","SECT":" ","MAREA":" ","LANE":"１０５巷","ALLEY":" ","HOUSE_NO":"２２號","E_COORD97":170707.45000000001,"N_COORD97":2545384.73,"ADDRESS":"南園街１０５巷２２號","OBJECTID":375725},"geometry":{"x":170707.45000000205,"y":2545384.7300000004}},{"attributes":{"ID":375736,"DIS_CODE":0,"TOWNNAME":"北區","LI":"華興里","LIN":"10鄰","STREET":"南園街","SECT":" ","MAREA":" ","LANE":"１０５巷","ALLEY":" ","HOUSE_NO":"２３號","E_COORD97":170675.91,"N_COORD97":2545388.1499999999,"ADDRESS":"南園街１０５巷２３號","OBJECTID":375726},"geometry":{"x":170675.91000000108,"y":2545388.1500000022}},{"attributes":{"ID":375737,"DIS_CODE":0,"TOWNNAME":"北區","LI":"華興里","LIN":"10鄰","STREET":"南園街","SECT":" ","MAREA":" ","LANE":"１０５巷","ALLEY":" ","HOUSE_NO":"２４號","E_COORD97":170711.32999999999,"N_COORD97":2545386.1099999999,"ADDRESS":"南園街１０５巷２４號","OBJECTID":375727},"geometry":{"x":170711.33000000007,"y":2545386.1100000013}},{"attributes":{"ID":375738,"DIS_CODE":0,"TOWNNAME":"北區","LI":"華興里","LIN":"10鄰","STREET":"南園街","SECT":" ","MAREA":" ","LANE":"１０５巷","ALLEY":" ","HOUSE_NO":"２５號","E_COORD97":170679.88,"N_COORD97":2545389.9300000002,"ADDRESS":"南園街１０５巷２５號","OBJECTID":375728},"geometry":{"x":170679.87999999989,"y":2545389.9299999997}},{"attributes":{"ID":375739,"DIS_CODE":0,"TOWNNAME":"北區","LI":"華興里","LIN":"10鄰","STREET":"南園街","SECT":" ","MAREA":" ","LANE":"１０５巷","ALLEY":" ","HOUSE_NO":"２６號","E_COORD97":170715.85000000001,"N_COORD97":2545387.5600000001,"ADDRESS":"南園街１０５巷２６號","OBJECTID":375729},"geometry":{"x":170715.84999999963,"y":2545387.5600000042}},{"attributes":{"ID":375740,"DIS_CODE":0,"TOWNNAME":"北區","LI":"華興里","LIN":"10鄰","STREET":"南園街","SECT":" ","MAREA":" ","LANE":"１０５巷","ALLEY":" ","HOUSE_NO":"２７號","E_COORD97":170684.32000000001,"N_COORD97":2545391.3900000001,"ADDRESS":"南園街１０５巷２７號","OBJECTID":375730},"geometry":{"x":170684.3200000003,"y":2545391.3900000006}},{"attributes":{"ID":375741,"DIS_CODE":0,"TOWNNAME":"安南區","LI":"南興里","LIN":"8鄰","STREET":"安興街","SECT":" ","MAREA":" ","LANE":"６９６巷","ALLEY":" ","HOUSE_NO":"１１號之１","E_COORD97":163514.35999999999,"N_COORD97":2552649.3199999998,"ADDRESS":"安興街６９６巷１１號之１","OBJECTID":375731},"geometry":{"x":163514.36000000127,"y":2552649.3200000003}},{"attributes":{"ID":375742,"DIS_CODE":0,"TOWNNAME":"北區","LI":"華興里","LIN":"10鄰","STREET":"南園街","SECT":" ","MAREA":" ","LANE":"１０５巷","ALLEY":" ","HOUSE_NO":"２８號","E_COORD97":170719.89000000001,"N_COORD97":2545389.0099999998,"ADDRESS":"南園街１０５巷２８號","OBJECTID":375732},"geometry":{"x":170719.8900000006,"y":2545389.0099999998}},{"attributes":{"ID":375743,"DIS_CODE":0,"TOWNNAME":"北區","LI":"華興里","LIN":"10鄰","STREET":"南園街","SECT":" ","MAREA":" ","LANE":"１０５巷","ALLEY":" ","HOUSE_NO":"２９號","E_COORD97":170688.28,"N_COORD97":2545392.7599999998,"ADDRESS":"南園街１０５巷２９號","OBJECTID":375733},"geometry":{"x":170688.27999999933,"y":2545392.7600000016}},{"attributes":{"ID":375744,"DIS_CODE":0,"TOWNNAME":"北區","LI":"華興里","LIN":"10鄰","STREET":"南園街","SECT":" ","MAREA":" ","LANE":"１０５巷","ALLEY":" ","HOUSE_NO":"２號","E_COORD97":170663.16,"N_COORD97":2545370.1499999999,"ADDRESS":"南園街１０５巷２號","OBJECTID":375734},"geometry":{"x":170663.16000000015,"y":2545370.1500000022}},{"attributes":{"ID":375745,"DIS_CODE":0,"TOWNNAME":"北區","LI":"華興里","LIN":"10鄰","STREET":"南園街","SECT":" ","MAREA":" ","LANE":"１０５巷","ALLEY":" ","HOUSE_NO":"３０號","E_COORD97":170724.42999999999,"N_COORD97":2545390.6400000001,"ADDRESS":"南園街１０５巷３０號","OBJECTID":375735},"geometry":{"x":170724.43000000063,"y":2545390.6400000025}},{"attributes":{"ID":375746,"DIS_CODE":0,"TOWNNAME":"北區","LI":"華興里","LIN":"10鄰","STREET":"南園街","SECT":" ","MAREA":" ","LANE":"１０５巷","ALLEY":" ","HOUSE_NO":"３１號","E_COORD97":170692.17000000001,"N_COORD97":2545394.3799999999,"ADDRESS":"南園街１０５巷３１號","OBJECTID":375736},"geometry":{"x":170692.17000000179,"y":2545394.3800000008}},{"attributes":{"ID":375747,"DIS_CODE":0,"TOWNNAME":"北區","LI":"華興里","LIN":"10鄰","STREET":"南園街","SECT":" ","MAREA":" ","LANE":"１０５巷","ALLEY":" ","HOUSE_NO":"３２號","E_COORD97":170728.63,"N_COORD97":2545391.9300000002,"ADDRESS":"南園街１０５巷３２號","OBJECTID":375737},"geometry":{"x":170728.63000000082,"y":2545391.9300000016}},{"attributes":{"ID":375748,"DIS_CODE":0,"TOWNNAME":"北區","LI":"華興里","LIN":"10鄰","STREET":"南園街","SECT":" ","MAREA":" ","LANE":"１０５巷","ALLEY":" ","HOUSE_NO":"３３號","E_COORD97":170696.04999999999,"N_COORD97":2545396.0699999998,"ADDRESS":"南園街１０５巷３３號","OBJECTID":375738},"geometry":{"x":170696.04999999981,"y":2545396.0700000003}},{"attributes":{"ID":375749,"DIS_CODE":0,"TOWNNAME":"北區","LI":"華興里","LIN":"10鄰","STREET":"南園街","SECT":" ","MAREA":" ","LANE":"１０５巷","ALLEY":" ","HOUSE_NO":"３４號","E_COORD97":170733.23999999999,"N_COORD97":2545392.8199999998,"ADDRESS":"南園街１０５巷３４號","OBJECTID":375739},"geometry":{"x":170733.24000000115,"y":2545392.8200000022}},{"attributes":{"ID":375750,"DIS_CODE":0,"TOWNNAME":"北區","LI":"華興里","LIN":"10鄰","STREET":"南園街","SECT":" ","MAREA":" ","LANE":"１０５巷","ALLEY":" ","HOUSE_NO":"３５號","E_COORD97":170699.76000000001,"N_COORD97":2545397.8500000001,"ADDRESS":"南園街１０５巷３５號","OBJECTID":375740},"geometry":{"x":170699.75999999885,"y":2545397.8500000034}},{"attributes":{"ID":375751,"DIS_CODE":0,"TOWNNAME":"北區","LI":"華興里","LIN":"10鄰","STREET":"南園街","SECT":" ","MAREA":" ","LANE":"１０５巷","ALLEY":" ","HOUSE_NO":"３７號","E_COORD97":170703.72,"N_COORD97":2545399.5499999998,"ADDRESS":"南園街１０５巷３７號","OBJECTID":375741},"geometry":{"x":170703.72000000067,"y":2545399.5500000007}},{"attributes":{"ID":375752,"DIS_CODE":0,"TOWNNAME":"北區","LI":"華興里","LIN":"10鄰","STREET":"南園街","SECT":" ","MAREA":" ","LANE":"１０５巷","ALLEY":" ","HOUSE_NO":"３９號","E_COORD97":170707.35999999999,"N_COORD97":2545400.8399999999,"ADDRESS":"南園街１０５巷３９號","OBJECTID":375742},"geometry":{"x":170707.36000000127,"y":2545400.8399999999}},{"attributes":{"ID":375753,"DIS_CODE":0,"TOWNNAME":"北區","LI":"華興里","LIN":"10鄰","STREET":"南園街","SECT":" ","MAREA":" ","LANE":"１０５巷","ALLEY":" ","HOUSE_NO":"３號","E_COORD97":170632.95000000001,"N_COORD97":2545372.7799999998,"ADDRESS":"南園街１０５巷３號","OBJECTID":375743},"geometry":{"x":170632.95000000205,"y":2545372.7799999993}},{"attributes":{"ID":375754,"DIS_CODE":0,"TOWNNAME":"北區","LI":"華興里","LIN":"10鄰","STREET":"南園街","SECT":" ","MAREA":" ","LANE":"１０５巷","ALLEY":" ","HOUSE_NO":"４１號","E_COORD97":170711.16,"N_COORD97":2545403.1000000001,"ADDRESS":"南園街１０５巷４１號","OBJECTID":375744},"geometry":{"x":170711.16000000201,"y":2545403.1000000034}},{"attributes":{"ID":375755,"DIS_CODE":0,"TOWNNAME":"北區","LI":"華興里","LIN":"10鄰","STREET":"南園街","SECT":" ","MAREA":" ","LANE":"１０５巷","ALLEY":" ","HOUSE_NO":"４３號","E_COORD97":170717.72,"N_COORD97":2545403.4199999999,"ADDRESS":"南園街１０５巷４３號","OBJECTID":375745},"geometry":{"x":170717.72000000067,"y":2545403.4199999999}},{"attributes":{"ID":375756,"DIS_CODE":0,"TOWNNAME":"北區","LI":"華興里","LIN":"10鄰","STREET":"南園街","SECT":" ","MAREA":" ","LANE":"１０５巷","ALLEY":" ","HOUSE_NO":"４５號","E_COORD97":170716.42000000001,"N_COORD97":2545407.8599999999,"ADDRESS":"南園街１０５巷４５號","OBJECTID":375746},"geometry":{"x":170716.42000000086,"y":2545407.8600000031}},{"attributes":{"ID":375757,"DIS_CODE":0,"TOWNNAME":"北區","LI":"華興里","LIN":"10鄰","STREET":"南園街","SECT":" ","MAREA":" ","LANE":"１０５巷","ALLEY":" ","HOUSE_NO":"５號","E_COORD97":170637.07000000001,"N_COORD97":2545374.7200000002,"ADDRESS":"南園街１０５巷５號","OBJECTID":375747},"geometry":{"x":170637.0700000003,"y":2545374.7200000007}},{"attributes":{"ID":375758,"DIS_CODE":0,"TOWNNAME":"北區","LI":"華興里","LIN":"10鄰","STREET":"南園街","SECT":" ","MAREA":" ","LANE":"１０５巷","ALLEY":" ","HOUSE_NO":"６號","E_COORD97":170672.09,"N_COORD97":2545372.9199999999,"ADDRESS":"南園街１０５巷６號","OBJECTID":375748},"geometry":{"x":170672.08999999985,"y":2545372.9199999999}},{"attributes":{"ID":375759,"DIS_CODE":0,"TOWNNAME":"北區","LI":"華興里","LIN":"10鄰","STREET":"南園街","SECT":" ","MAREA":" ","LANE":"１０５巷","ALLEY":" ","HOUSE_NO":"７號","E_COORD97":170641.76999999999,"N_COORD97":2545376.4199999999,"ADDRESS":"南園街１０５巷７號","OBJECTID":375749},"geometry":{"x":170641.76999999862,"y":2545376.4199999999}},{"attributes":{"ID":375760,"DIS_CODE":0,"TOWNNAME":"關廟區","LI":"新埔里","LIN":"10鄰","STREET":"新埔二街","SECT":" ","MAREA":" ","LANE":"７０巷","ALLEY":" ","HOUSE_NO":"１３號","E_COORD97":181467.01999999999,"N_COORD97":2541003.25,"ADDRESS":"新埔二街７０巷１３號","OBJECTID":375750},"geometry":{"x":181467.01999999955,"y":2541003.2500000019}},{"attributes":{"ID":375761,"DIS_CODE":0,"TOWNNAME":"關廟區","LI":"布袋里","LIN":"10鄰","STREET":"長榮街","SECT":" ","MAREA":" ","LANE":"３３１巷","ALLEY":" ","HOUSE_NO":"５號","E_COORD97":182102.98999999999,"N_COORD97":2534339.25,"ADDRESS":"長榮街３３１巷５號","OBJECTID":375751},"geometry":{"x":182102.99000000115,"y":2534339.25}},{"attributes":{"ID":375762,"DIS_CODE":0,"TOWNNAME":"關廟區","LI":"新埔里","LIN":"10鄰","STREET":"新埔二街","SECT":" ","MAREA":" ","LANE":"７０巷","ALLEY":" ","HOUSE_NO":"９號","E_COORD97":181459.26999999999,"N_COORD97":2540999.25,"ADDRESS":"新埔二街７０巷９號","OBJECTID":375752},"geometry":{"x":181459.27000000048,"y":2540999.2500000019}},{"attributes":{"ID":375763,"DIS_CODE":0,"TOWNNAME":"關廟區","LI":"新埔里","LIN":"10鄰","STREET":"新埔二街","SECT":" ","MAREA":" ","LANE":"７０巷","ALLEY":" ","HOUSE_NO":"６號","E_COORD97":181477.67000000001,"N_COORD97":2540990.25,"ADDRESS":"新埔二街７０巷６號","OBJECTID":375753},"geometry":{"x":181477.67000000086,"y":2540990.25}},{"attributes":{"ID":375764,"DIS_CODE":0,"TOWNNAME":"關廟區","LI":"關廟里","LIN":"10鄰","STREET":"大仁街","SECT":" ","MAREA":" ","LANE":"３４６巷","ALLEY":" ","HOUSE_NO":"７２號","E_COORD97":180877.42000000001,"N_COORD97":2539510.25,"ADDRESS":"大仁街３４６巷７２號","OBJECTID":375754},"geometry":{"x":180877.42000000086,"y":2539510.2500000019}},{"attributes":{"ID":375765,"DIS_CODE":0,"TOWNNAME":"關廟區","LI":"新光里","LIN":"10鄰","STREET":"新光街","SECT":" ","MAREA":" ","LANE":"２９６巷","ALLEY":" ","HOUSE_NO":"２０號","E_COORD97":184337.67000000001,"N_COORD97":2541801.25,"ADDRESS":"新光街２９６巷２０號","OBJECTID":375755},"geometry":{"x":184337.66999999993,"y":2541801.25}},{"attributes":{"ID":375766,"DIS_CODE":0,"TOWNNAME":"關廟區","LI":"五甲里","LIN":"10鄰","STREET":"五甲路","SECT":" ","MAREA":" ","LANE":"２８０巷","ALLEY":" ","HOUSE_NO":"３８號","E_COORD97":180779.22,"N_COORD97":2538824.25,"ADDRESS":"五甲路２８０巷３８號","OBJECTID":375756},"geometry":{"x":180779.21999999974,"y":2538824.25}},{"attributes":{"ID":375767,"DIS_CODE":0,"TOWNNAME":"關廟區","LI":"五甲里","LIN":"10鄰","STREET":"五甲路","SECT":" ","MAREA":" ","LANE":"２８０巷","ALLEY":" ","HOUSE_NO":"２號","E_COORD97":180875.76999999999,"N_COORD97":2538838.25,"ADDRESS":"五甲路２８０巷２號","OBJECTID":375757},"geometry":{"x":180875.77000000142,"y":2538838.25}},{"attributes":{"ID":375768,"DIS_CODE":0,"TOWNNAME":"關廟區","LI":"南花里","LIN":"10鄰","STREET":"四維街","SECT":" ","MAREA":" ","LANE":"２０９巷","ALLEY":" ","HOUSE_NO":"１８號","E_COORD97":181806.79501599999,"N_COORD97":2540135.8763100002,"ADDRESS":"四維街２０９巷１８號","OBJECTID":375758},"geometry":{"x":181806.79501600098,"y":2540135.8763100002}},{"attributes":{"ID":375769,"DIS_CODE":0,"TOWNNAME":"關廟區","LI":"關廟里","LIN":"10鄰","STREET":"民生街","SECT":" ","MAREA":" ","LANE":"３７巷","ALLEY":" ","HOUSE_NO":"２５號","E_COORD97":180852.29000000001,"N_COORD97":2539531.29,"ADDRESS":"民生街３７巷２５號","OBJECTID":375759},"geometry":{"x":180852.28999999911,"y":2539531.2899999991}},{"attributes":{"ID":375770,"DIS_CODE":0,"TOWNNAME":"關廟區","LI":"五甲里","LIN":"10鄰","STREET":"五甲路","SECT":" ","MAREA":" ","LANE":"２８０巷","ALLEY":" ","HOUSE_NO":"５５號","E_COORD97":180766.92000000001,"N_COORD97":2538785.25,"ADDRESS":"五甲路２８０巷５５號","OBJECTID":375760},"geometry":{"x":180766.92000000086,"y":2538785.2500000019}},{"attributes":{"ID":375771,"DIS_CODE":0,"TOWNNAME":"關廟區","LI":"北勢里","LIN":"10鄰","STREET":"成功路","SECT":" ","MAREA":" ","LANE":"１８０巷","ALLEY":" ","HOUSE_NO":"２６號","E_COORD97":181597.51999999999,"N_COORD97":2540504.27,"ADDRESS":"成功路１８０巷２６號","OBJECTID":375761},"geometry":{"x":181597.51999999955,"y":2540504.2700000014}},{"attributes":{"ID":375772,"DIS_CODE":0,"TOWNNAME":"關廟區","LI":"關廟里","LIN":"10鄰","STREET":"大仁街","SECT":" ","MAREA":" ","LANE":"３４６巷","ALLEY":" ","HOUSE_NO":"６３號","E_COORD97":180885.51999999999,"N_COORD97":2539527.25,"ADDRESS":"大仁街３４６巷６３號","OBJECTID":375762},"geometry":{"x":180885.51999999955,"y":2539527.2500000019}},{"attributes":{"ID":375773,"DIS_CODE":0,"TOWNNAME":"關廟區","LI":"松腳里","LIN":"10鄰","STREET":"勝利街","SECT":" ","MAREA":" ","LANE":"３３巷","ALLEY":" ","HOUSE_NO":"３號","E_COORD97":181785.01999999999,"N_COORD97":2539721.2599999998,"ADDRESS":"勝利街３３巷３號","OBJECTID":375763},"geometry":{"x":181785.02000000048,"y":2539721.2600000016}},{"attributes":{"ID":375774,"DIS_CODE":0,"TOWNNAME":"關廟區","LI":"山西里","LIN":"10鄰","STREET":"文衡路","SECT":" ","MAREA":" ","LANE":"２３８巷","ALLEY":" ","HOUSE_NO":"２６號","E_COORD97":180974.89000000001,"N_COORD97":2540671.3300000001,"ADDRESS":"文衡路２３８巷２６號","OBJECTID":375764},"geometry":{"x":180974.88999999966,"y":2540671.3300000001}},{"attributes":{"ID":375775,"DIS_CODE":0,"TOWNNAME":"關廟區","LI":"北勢里","LIN":"10鄰","STREET":"成功路","SECT":" ","MAREA":" ","LANE":"１８０巷","ALLEY":" ","HOUSE_NO":"１８號","E_COORD97":181586.82000000001,"N_COORD97":2540496.27,"ADDRESS":"成功路１８０巷１８號","OBJECTID":375765},"geometry":{"x":181586.82000000123,"y":2540496.2700000014}},{"attributes":{"ID":375776,"DIS_CODE":0,"TOWNNAME":"關廟區","LI":"山西里","LIN":"10鄰","STREET":"文衡路","SECT":" ","MAREA":" ","LANE":"２３８巷","ALLEY":" ","HOUSE_NO":"１２號","E_COORD97":180952.98999999999,"N_COORD97":2540652.3300000001,"ADDRESS":"文衡路２３８巷１２號","OBJECTID":375766},"geometry":{"x":180952.99000000209,"y":2540652.3300000019}},{"attributes":{"ID":375777,"DIS_CODE":0,"TOWNNAME":"關廟區","LI":"五甲里","LIN":"10鄰","STREET":"五甲路","SECT":" ","MAREA":" ","LANE":"２１１巷","ALLEY":" ","HOUSE_NO":"５８號","E_COORD97":180958.82000000001,"N_COORD97":2538478.25,"ADDRESS":"五甲路２１１巷５８號","OBJECTID":375767},"geometry":{"x":180958.8200000003,"y":2538478.25}},{"attributes":{"ID":375778,"DIS_CODE":0,"TOWNNAME":"關廟區","LI":"山西里","LIN":"10鄰","STREET":"文衡路","SECT":" ","MAREA":" ","LANE":"２３８巷","ALLEY":" ","HOUSE_NO":"１０號","E_COORD97":180963.39000000001,"N_COORD97":2540641.3300000001,"ADDRESS":"文衡路２３８巷１０號","OBJECTID":375768},"geometry":{"x":180963.3900000006,"y":2540641.3300000001}},{"attributes":{"ID":375779,"DIS_CODE":0,"TOWNNAME":"關廟區","LI":"山西里","LIN":"10鄰","STREET":"文衡路","SECT":" ","MAREA":" ","LANE":"２３８巷","ALLEY":" ","HOUSE_NO":"２０號","E_COORD97":180956.89000000001,"N_COORD97":2540667.3300000001,"ADDRESS":"文衡路２３８巷２０號","OBJECTID":375769},"geometry":{"x":180956.8900000006,"y":2540667.3300000001}},{"attributes":{"ID":375780,"DIS_CODE":0,"TOWNNAME":"北區","LI":"開元里","LIN":"10鄰","STREET":"北園街","SECT":" ","MAREA":" ","LANE":"１２８巷","ALLEY":" ","HOUSE_NO":"１號","E_COORD97":170272.44,"N_COORD97":2545973.1800000002,"ADDRESS":"北園街１２８巷１號","OBJECTID":375770},"geometry":{"x":170272.44000000134,"y":2545973.1800000016}},{"attributes":{"ID":375781,"DIS_CODE":0,"TOWNNAME":"北區","LI":"開元里","LIN":"10鄰","STREET":"北園街","SECT":" ","MAREA":" ","LANE":"１２８巷","ALLEY":" ","HOUSE_NO":"３號","E_COORD97":170273.39999999999,"N_COORD97":2545983.6499999999,"ADDRESS":"北園街１２８巷３號","OBJECTID":375771},"geometry":{"x":170273.40000000037,"y":2545983.6500000022}},{"attributes":{"ID":375782,"DIS_CODE":0,"TOWNNAME":"北區","LI":"開元里","LIN":"10鄰","STREET":"北園街","SECT":" ","MAREA":" ","LANE":"１２８巷","ALLEY":" ","HOUSE_NO":"５號","E_COORD97":170294.95000000001,"N_COORD97":2545999.1400000001,"ADDRESS":"北園街１２８巷５號","OBJECTID":375772},"geometry":{"x":170294.95000000019,"y":2545999.1400000006}},{"attributes":{"ID":375783,"DIS_CODE":0,"TOWNNAME":"北區","LI":"開元里","LIN":"10鄰","STREET":"北園街","SECT":" ","MAREA":" ","LANE":"１２８巷","ALLEY":" ","HOUSE_NO":"９號","E_COORD97":170259.10000000001,"N_COORD97":2545989.2400000002,"ADDRESS":"北園街１２８巷９號","OBJECTID":375773},"geometry":{"x":170259.10000000056,"y":2545989.2400000039}},{"attributes":{"ID":375784,"DIS_CODE":0,"TOWNNAME":"北區","LI":"開元里","LIN":"10鄰","STREET":"北園街","SECT":" ","MAREA":" ","LANE":"１２４巷","ALLEY":" ","HOUSE_NO":"１號","E_COORD97":170341.60999999999,"N_COORD97":2545992.77,"ADDRESS":"北園街１２４巷１號","OBJECTID":375774},"geometry":{"x":170341.61000000034,"y":2545992.7700000014}},{"attributes":{"ID":375785,"DIS_CODE":0,"TOWNNAME":"北區","LI":"開元里","LIN":"10鄰","STREET":"北園街","SECT":" ","MAREA":" ","LANE":"１２４巷","ALLEY":" ","HOUSE_NO":"１號之１","E_COORD97":170328.14000000001,"N_COORD97":2545985.7000000002,"ADDRESS":"北園街１２４巷１號之１","OBJECTID":375775},"geometry":{"x":170328.1400000006,"y":2545985.7000000011}},{"attributes":{"ID":375786,"DIS_CODE":0,"TOWNNAME":"北區","LI":"開元里","LIN":"10鄰","STREET":"北園街","SECT":" ","MAREA":" ","LANE":"１２４巷","ALLEY":" ","HOUSE_NO":"１號之２","E_COORD97":170327.89999999999,"N_COORD97":2545982.5299999998,"ADDRESS":"北園街１２４巷１號之２","OBJECTID":375776},"geometry":{"x":170327.90000000037,"y":2545982.5299999993}},{"attributes":{"ID":375787,"DIS_CODE":0,"TOWNNAME":"北區","LI":"開元里","LIN":"10鄰","STREET":"北園街","SECT":" ","MAREA":" ","LANE":"１２４巷","ALLEY":" ","HOUSE_NO":"１號之３","E_COORD97":170327.13,"N_COORD97":2545978.25,"ADDRESS":"北園街１２４巷１號之３","OBJECTID":375777},"geometry":{"x":170327.12999999989,"y":2545978.25}},{"attributes":{"ID":375788,"DIS_CODE":0,"TOWNNAME":"北區","LI":"開元里","LIN":"10鄰","STREET":"北園街","SECT":" ","MAREA":" ","LANE":"１２８巷","ALLEY":" ","HOUSE_NO":"２號","E_COORD97":170308.35999999999,"N_COORD97":2545995.4100000001,"ADDRESS":"北園街１２８巷２號","OBJECTID":375778},"geometry":{"x":170308.36000000127,"y":2545995.410000002}},{"attributes":{"ID":375789,"DIS_CODE":0,"TOWNNAME":"北區","LI":"開元里","LIN":"10鄰","STREET":"北園街","SECT":" ","MAREA":" ","LANE":"１２８巷","ALLEY":" ","HOUSE_NO":"２號之１","E_COORD97":170313.63,"N_COORD97":2545986.73,"ADDRESS":"北園街１２８巷２號之１","OBJECTID":375779},"geometry":{"x":170313.62999999989,"y":2545986.7300000023}},{"attributes":{"ID":375790,"DIS_CODE":0,"TOWNNAME":"北區","LI":"開元里","LIN":"10鄰","STREET":"北園街","SECT":" ","MAREA":" ","LANE":"１２８巷","ALLEY":" ","HOUSE_NO":"４號","E_COORD97":170304.41,"N_COORD97":2546006.6499999999,"ADDRESS":"北園街１２８巷４號","OBJECTID":375780},"geometry":{"x":170304.41000000108,"y":2546006.6500000004}},{"attributes":{"ID":375791,"DIS_CODE":0,"TOWNNAME":"北區","LI":"開元里","LIN":"10鄰","STREET":"北園街","SECT":" ","MAREA":" ","LANE":"１２８巷","ALLEY":" ","HOUSE_NO":"６號","E_COORD97":170294.97,"N_COORD97":2546025.7799999998,"ADDRESS":"北園街１２８巷６號","OBJECTID":375781},"geometry":{"x":170294.9700000016,"y":2546025.7800000012}},{"attributes":{"ID":375792,"DIS_CODE":0,"TOWNNAME":"北區","LI":"開元里","LIN":"10鄰","STREET":"北園街","SECT":" ","MAREA":" ","LANE":"１２８巷","ALLEY":" ","HOUSE_NO":"８號","E_COORD97":170291.25,"N_COORD97":2546037.7400000002,"ADDRESS":"北園街１２８巷８號","OBJECTID":375782},"geometry":{"x":170291.25,"y":2546037.7400000021}},{"attributes":{"ID":375793,"DIS_CODE":0,"TOWNNAME":"北區","LI":"永祥里","LIN":"10鄰","STREET":"實踐街","SECT":" ","MAREA":" ","LANE":"７１巷","ALLEY":" ","HOUSE_NO":"５６號","E_COORD97":169969.81,"N_COORD97":2546181.4100000001,"ADDRESS":"實踐街７１巷５６號","OBJECTID":375783},"geometry":{"x":169969.80999999959,"y":2546181.4100000039}},{"attributes":{"ID":375794,"DIS_CODE":0,"TOWNNAME":"北區","LI":"成功里","LIN":"10鄰","STREET":"西門路","SECT":"四段","MAREA":" ","LANE":"５３３巷","ALLEY":" ","HOUSE_NO":"３之１號","E_COORD97":169297.20999999999,"N_COORD97":2546687.8300000001,"ADDRESS":"西門路四段５３３巷３之１號","OBJECTID":375784},"geometry":{"x":169297.21000000089,"y":2546687.8300000019}},{"attributes":{"ID":375795,"DIS_CODE":0,"TOWNNAME":"北區","LI":"振興里","LIN":"10鄰","STREET":"長榮路","SECT":"四段","MAREA":" ","LANE":"１１９巷","ALLEY":" ","HOUSE_NO":"２２之１號","E_COORD97":170177.87,"N_COORD97":2545088.3300000001,"ADDRESS":"長榮路四段１１９巷２２之１號","OBJECTID":375785},"geometry":{"x":170177.87000000104,"y":2545088.3300000019}},{"attributes":{"ID":375796,"DIS_CODE":0,"TOWNNAME":"安平區","LI":"海頭里","LIN":"10鄰","STREET":"中興街","SECT":" ","MAREA":" ","LANE":"３７巷","ALLEY":" ","HOUSE_NO":"３號","E_COORD97":164110.70000000001,"N_COORD97":2544717.5600000001,"ADDRESS":"中興街３７巷３號","OBJECTID":375786},"geometry":{"x":164110.70000000019,"y":2544717.5600000024}},{"attributes":{"ID":375797,"DIS_CODE":0,"TOWNNAME":"安平區","LI":"海頭里","LIN":"10鄰","STREET":"中興街","SECT":" ","MAREA":" ","LANE":"３７巷","ALLEY":" ","HOUSE_NO":"５號","E_COORD97":164080.01999999999,"N_COORD97":2544730.2999999998,"ADDRESS":"中興街３７巷５號","OBJECTID":375787},"geometry":{"x":164080.02000000048,"y":2544730.3000000007}},{"attributes":{"ID":375798,"DIS_CODE":0,"TOWNNAME":"北區","LI":"長榮里","LIN":"10鄰","STREET":"長榮路","SECT":"五段","MAREA":" ","LANE":"４１巷","ALLEY":" ","HOUSE_NO":"３號","E_COORD97":170083.98000000001,"N_COORD97":2545455.4300000002,"ADDRESS":"長榮路五段４１巷３號","OBJECTID":375788},"geometry":{"x":170083.98000000138,"y":2545455.4300000016}},{"attributes":{"ID":375799,"DIS_CODE":0,"TOWNNAME":"南區","LI":"金華里","LIN":"10鄰","STREET":"金華路","SECT":"二段","MAREA":" ","LANE":"８１巷","ALLEY":" ","HOUSE_NO":"５６號","E_COORD97":166879.13,"N_COORD97":2542227,"ADDRESS":"金華路二段８１巷５６號","OBJECTID":375789},"geometry":{"x":166879.12999999989,"y":2542227}},{"attributes":{"ID":375800,"DIS_CODE":0,"TOWNNAME":"南區","LI":"金華里","LIN":"10鄰","STREET":"金華路","SECT":"二段","MAREA":" ","LANE":"８１巷","ALLEY":" ","HOUSE_NO":"５８號","E_COORD97":166873.34,"N_COORD97":2542227.48,"ADDRESS":"金華路二段８１巷５８號","OBJECTID":375790},"geometry":{"x":166873.34000000171,"y":2542227.4800000004}},{"attributes":{"ID":375801,"DIS_CODE":0,"TOWNNAME":"北區","LI":"成德里","LIN":"10鄰","STREET":"西門路","SECT":"四段","MAREA":" ","LANE":"１７１巷","ALLEY":" ","HOUSE_NO":"３６號","E_COORD97":168695.20000000001,"N_COORD97":2545710.0600000001,"ADDRESS":"西門路四段１７１巷３６號","OBJECTID":375791},"geometry":{"x":168695.19999999925,"y":2545710.0600000024}},{"attributes":{"ID":375802,"DIS_CODE":0,"TOWNNAME":"安南區","LI":"安順里","LIN":"13鄰","STREET":"育安街","SECT":" ","MAREA":" ","LANE":" ","ALLEY":" ","HOUSE_NO":"２８６號","E_COORD97":169610.54000000001,"N_COORD97":2550148.21,"ADDRESS":"育安街２８６號","OBJECTID":375792},"geometry":{"x":169610.54000000097,"y":2550148.2100000028}},{"attributes":{"ID":375803,"DIS_CODE":0,"TOWNNAME":"南區","LI":"松安里","LIN":"10鄰","STREET":"興南街","SECT":" ","MAREA":" ","LANE":"２５２巷","ALLEY":" ","HOUSE_NO":"１００號","E_COORD97":165908.70999999999,"N_COORD97":2536045.6499999999,"ADDRESS":"興南街２５２巷１００號","OBJECTID":375793},"geometry":{"x":165908.71000000089,"y":2536045.6500000004}},{"attributes":{"ID":375804,"DIS_CODE":0,"TOWNNAME":"新營區","LI":"民生里","LIN":"10鄰","STREET":"復興路","SECT":" ","MAREA":" ","LANE":"１４８巷","ALLEY":" ","HOUSE_NO":"４號","E_COORD97":179237.42000000001,"N_COORD97":2578093.48,"ADDRESS":"復興路１４８巷４號","OBJECTID":375794},"geometry":{"x":179237.41999999993,"y":2578093.4800000004}},{"attributes":{"ID":375805,"DIS_CODE":0,"TOWNNAME":"新營區","LI":"南興里","LIN":"10鄰","STREET":"和平路","SECT":" ","MAREA":" ","LANE":"１０４巷","ALLEY":" ","HOUSE_NO":"２０之２號","E_COORD97":179352.19,"N_COORD97":2577566.96,"ADDRESS":"和平路１０４巷２０之２號","OBJECTID":375795},"geometry":{"x":179352.19000000134,"y":2577566.9600000028}},{"attributes":{"ID":375806,"DIS_CODE":0,"TOWNNAME":"新營區","LI":"南興里","LIN":"10鄰","STREET":"和平路","SECT":" ","MAREA":" ","LANE":"１０４巷","ALLEY":" ","HOUSE_NO":"２號","E_COORD97":179392.42000000001,"N_COORD97":2577565.5899999999,"ADDRESS":"和平路１０４巷２號","OBJECTID":375796},"geometry":{"x":179392.42000000086,"y":2577565.5900000017}},{"attributes":{"ID":375807,"DIS_CODE":0,"TOWNNAME":"新營區","LI":"新南里","LIN":"10鄰","STREET":"新北五街","SECT":" ","MAREA":" ","LANE":"１４３巷","ALLEY":" ","HOUSE_NO":"１７號","E_COORD97":178525.39000000001,"N_COORD97":2579102.48,"ADDRESS":"新北五街１４３巷１７號","OBJECTID":375797},"geometry":{"x":178525.38999999966,"y":2579102.4800000023}},{"attributes":{"ID":375808,"DIS_CODE":0,"TOWNNAME":"新營區","LI":"大宏里","LIN":"10鄰","STREET":"民治路","SECT":" ","MAREA":" ","LANE":"２９巷","ALLEY":" ","HOUSE_NO":"１５號","E_COORD97":180188.12,"N_COORD97":2578806.6000000001,"ADDRESS":"民治路２９巷１５號","OBJECTID":375798},"geometry":{"x":180188.12000000104,"y":2578806.6000000015}},{"attributes":{"ID":375809,"DIS_CODE":0,"TOWNNAME":"新營區","LI":"新南里","LIN":"10鄰","STREET":"新北五街","SECT":" ","MAREA":" ","LANE":"１４３巷","ALLEY":" ","HOUSE_NO":"２３號","E_COORD97":178509.01999999999,"N_COORD97":2579087.0499999998,"ADDRESS":"新北五街１４３巷２３號","OBJECTID":375799},"geometry":{"x":178509.01999999955,"y":2579087.0500000007}},{"attributes":{"ID":375810,"DIS_CODE":0,"TOWNNAME":"新營區","LI":"大宏里","LIN":"10鄰","STREET":"民治路","SECT":" ","MAREA":" ","LANE":"２９巷","ALLEY":" ","HOUSE_NO":"２３號","E_COORD97":180189.14000000001,"N_COORD97":2578789.9900000002,"ADDRESS":"民治路２９巷２３號","OBJECTID":375800},"geometry":{"x":180189.1400000006,"y":2578789.9900000021}}]}