{"displayFieldName":"TOWNNAME","fieldAliases":{"ID":"ID","DIS_CODE":"DIS_CODE","TOWNNAME":"TOWNNAME","LI":"LI","LIN":"LIN","STREET":"STREET","SECT":"SECT","MAREA":"MAREA","LANE":"LANE","ALLEY":"ALLEY","HOUSE_NO":"HOUSE_NO","E_COORD97":"E_COORD97","N_COORD97":"N_COORD97","ADDRESS":"ADDRESS","OBJECTID":"OBJECTID"},"geometryType":"esriGeometryPoint","spatialReference":{"wkid":102443,"latestWkid":3826},"fields":[{"name":"ID","type":"esriFieldTypeDouble","alias":"ID"},{"name":"DIS_CODE","type":"esriFieldTypeInteger","alias":"DIS_CODE"},{"name":"TOWNNAME","type":"esriFieldTypeString","alias":"TOWNNAME","length":8},{"name":"LI","type":"esriFieldTypeString","alias":"LI","length":8},{"name":"LIN","type":"esriFieldTypeString","alias":"LIN","length":12},{"name":"STREET","type":"esriFieldTypeString","alias":"STREET","length":20},{"name":"SECT","type":"esriFieldTypeString","alias":"SECT","length":8},{"name":"MAREA","type":"esriFieldTypeString","alias":"MAREA","length":12},{"name":"LANE","type":"esriFieldTypeString","alias":"LANE","length":10},{"name":"ALLEY","type":"esriFieldTypeString","alias":"ALLEY","length":10},{"name":"HOUSE_NO","type":"esriFieldTypeString","alias":"HOUSE_NO","length":20},{"name":"E_COORD97","type":"esriFieldTypeDouble","alias":"E_COORD97"},{"name":"N_COORD97","type":"esriFieldTypeDouble","alias":"N_COORD97"},{"name":"ADDRESS","type":"esriFieldTypeString","alias":"ADDRESS","length":50},{"name":"OBJECTID","type":"esriFieldTypeOID","alias":"OBJECTID"}],"features":[{"attributes":{"ID":606228,"DIS_CODE":0,"TOWNNAME":"安平區","LI":"育平里","LIN":"3鄰","STREET":"永華路","SECT":"二段","MAREA":" ","LANE":" ","ALLEY":" ","HOUSE_NO":"８１９號二十一樓之９","E_COORD97":164756.10999999999,"N_COORD97":2543515.4199999999,"ADDRESS":"永華路二段８１９號二十一樓之９","OBJECTID":606201},"geometry":{"x":164756.11000000034,"y":2543515.4199999999}},{"attributes":{"ID":606229,"DIS_CODE":0,"TOWNNAME":"安平區","LI":"育平里","LIN":"3鄰","STREET":"永華路","SECT":"二段","MAREA":" ","LANE":" ","ALLEY":" ","HOUSE_NO":"８１９號二十二樓之１","E_COORD97":164756.10999999999,"N_COORD97":2543515.4199999999,"ADDRESS":"永華路二段８１９號二十二樓之１０","OBJECTID":606202},"geometry":{"x":164756.11000000034,"y":2543515.4199999999}},{"attributes":{"ID":606230,"DIS_CODE":0,"TOWNNAME":"安平區","LI":"育平里","LIN":"3鄰","STREET":"永華路","SECT":"二段","MAREA":" ","LANE":" ","ALLEY":" ","HOUSE_NO":"８１９號二十二樓之１","E_COORD97":164756.10999999999,"N_COORD97":2543515.4199999999,"ADDRESS":"永華路二段８１９號二十二樓之１１","OBJECTID":606203},"geometry":{"x":164756.11000000034,"y":2543515.4199999999}},{"attributes":{"ID":606231,"DIS_CODE":0,"TOWNNAME":"安平區","LI":"育平里","LIN":"3鄰","STREET":"永華路","SECT":"二段","MAREA":" ","LANE":" ","ALLEY":" ","HOUSE_NO":"８１９號二十二樓之１","E_COORD97":164756.10999999999,"N_COORD97":2543515.4199999999,"ADDRESS":"永華路二段８１９號二十二樓之１２","OBJECTID":606204},"geometry":{"x":164756.11000000034,"y":2543515.4199999999}},{"attributes":{"ID":606232,"DIS_CODE":0,"TOWNNAME":"安平區","LI":"育平里","LIN":"3鄰","STREET":"永華路","SECT":"二段","MAREA":" ","LANE":" ","ALLEY":" ","HOUSE_NO":"８１９號二十二樓之９","E_COORD97":164756.10999999999,"N_COORD97":2543515.4199999999,"ADDRESS":"永華路二段８１９號二十二樓之９","OBJECTID":606205},"geometry":{"x":164756.11000000034,"y":2543515.4199999999}},{"attributes":{"ID":606233,"DIS_CODE":0,"TOWNNAME":"安平區","LI":"育平里","LIN":"3鄰","STREET":"永華路","SECT":"二段","MAREA":" ","LANE":" ","ALLEY":" ","HOUSE_NO":"８１９號二十三樓之１","E_COORD97":164756.10999999999,"N_COORD97":2543515.4199999999,"ADDRESS":"永華路二段８１９號二十三樓之１０","OBJECTID":606206},"geometry":{"x":164756.11000000034,"y":2543515.4199999999}},{"attributes":{"ID":606234,"DIS_CODE":0,"TOWNNAME":"安平區","LI":"育平里","LIN":"3鄰","STREET":"永華路","SECT":"二段","MAREA":" ","LANE":" ","ALLEY":" ","HOUSE_NO":"８１９號二十三樓之１","E_COORD97":164756.10999999999,"N_COORD97":2543515.4199999999,"ADDRESS":"永華路二段８１９號二十三樓之１１","OBJECTID":606207},"geometry":{"x":164756.11000000034,"y":2543515.4199999999}},{"attributes":{"ID":606235,"DIS_CODE":0,"TOWNNAME":"安平區","LI":"育平里","LIN":"3鄰","STREET":"永華路","SECT":"二段","MAREA":" ","LANE":" ","ALLEY":" ","HOUSE_NO":"８１９號二十三樓之１","E_COORD97":164756.10999999999,"N_COORD97":2543515.4199999999,"ADDRESS":"永華路二段８１９號二十三樓之１２","OBJECTID":606208},"geometry":{"x":164756.11000000034,"y":2543515.4199999999}},{"attributes":{"ID":606236,"DIS_CODE":0,"TOWNNAME":"安平區","LI":"育平里","LIN":"3鄰","STREET":"永華路","SECT":"二段","MAREA":" ","LANE":" ","ALLEY":" ","HOUSE_NO":"８１９號二十樓之１０","E_COORD97":164756.10999999999,"N_COORD97":2543515.4199999999,"ADDRESS":"永華路二段８１９號二十樓之１０","OBJECTID":606209},"geometry":{"x":164756.11000000034,"y":2543515.4199999999}},{"attributes":{"ID":606237,"DIS_CODE":0,"TOWNNAME":"安平區","LI":"育平里","LIN":"3鄰","STREET":"永華路","SECT":"二段","MAREA":" ","LANE":" ","ALLEY":" ","HOUSE_NO":"８１９號二十樓之１１","E_COORD97":164756.10999999999,"N_COORD97":2543515.4199999999,"ADDRESS":"永華路二段８１９號二十樓之１１","OBJECTID":606210},"geometry":{"x":164756.11000000034,"y":2543515.4199999999}},{"attributes":{"ID":606238,"DIS_CODE":0,"TOWNNAME":"安平區","LI":"育平里","LIN":"3鄰","STREET":"永華路","SECT":"二段","MAREA":" ","LANE":" ","ALLEY":" ","HOUSE_NO":"８１９號二十樓之１２","E_COORD97":164756.10999999999,"N_COORD97":2543515.4199999999,"ADDRESS":"永華路二段８１９號二十樓之１２","OBJECTID":606211},"geometry":{"x":164756.11000000034,"y":2543515.4199999999}},{"attributes":{"ID":606239,"DIS_CODE":0,"TOWNNAME":"安平區","LI":"育平里","LIN":"3鄰","STREET":"永華路","SECT":"二段","MAREA":" ","LANE":" ","ALLEY":" ","HOUSE_NO":"８１９號二十樓之９","E_COORD97":164756.10999999999,"N_COORD97":2543515.4199999999,"ADDRESS":"永華路二段８１９號二十樓之９","OBJECTID":606212},"geometry":{"x":164756.11000000034,"y":2543515.4199999999}},{"attributes":{"ID":606240,"DIS_CODE":0,"TOWNNAME":"仁德區","LI":"仁德里","LIN":"13鄰","STREET":"中正路","SECT":"三段","MAREA":" ","LANE":" ","ALLEY":" ","HOUSE_NO":"２３號","E_COORD97":173310.91,"N_COORD97":2541478.2799999998,"ADDRESS":"中正路三段２３號","OBJECTID":606213},"geometry":{"x":173310.91000000015,"y":2541478.2799999993}},{"attributes":{"ID":606241,"DIS_CODE":0,"TOWNNAME":"仁德區","LI":"後壁里","LIN":"24鄰","STREET":"中正路","SECT":"二段","MAREA":" ","LANE":" ","ALLEY":" ","HOUSE_NO":"２９３號","E_COORD97":173237.98999999999,"N_COORD97":2539060.5299999998,"ADDRESS":"中正路二段２９３號","OBJECTID":606214},"geometry":{"x":173237.99000000022,"y":2539060.5300000012}},{"attributes":{"ID":606242,"DIS_CODE":0,"TOWNNAME":"安平區","LI":"育平里","LIN":"3鄰","STREET":"永華路","SECT":"二段","MAREA":" ","LANE":" ","ALLEY":" ","HOUSE_NO":"８１９號八樓之１０","E_COORD97":164756.10999999999,"N_COORD97":2543515.4199999999,"ADDRESS":"永華路二段８１９號八樓之１０","OBJECTID":606215},"geometry":{"x":164756.11000000034,"y":2543515.4199999999}},{"attributes":{"ID":606243,"DIS_CODE":0,"TOWNNAME":"安平區","LI":"育平里","LIN":"3鄰","STREET":"永華路","SECT":"二段","MAREA":" ","LANE":" ","ALLEY":" ","HOUSE_NO":"８１９號八樓之１１","E_COORD97":164756.10999999999,"N_COORD97":2543515.4199999999,"ADDRESS":"永華路二段８１９號八樓之１１","OBJECTID":606216},"geometry":{"x":164756.11000000034,"y":2543515.4199999999}},{"attributes":{"ID":606244,"DIS_CODE":0,"TOWNNAME":"安平區","LI":"育平里","LIN":"3鄰","STREET":"永華路","SECT":"二段","MAREA":" ","LANE":" ","ALLEY":" ","HOUSE_NO":"８１９號八樓之１２","E_COORD97":164756.10999999999,"N_COORD97":2543515.4199999999,"ADDRESS":"永華路二段８１９號八樓之１２","OBJECTID":606217},"geometry":{"x":164756.11000000034,"y":2543515.4199999999}},{"attributes":{"ID":606245,"DIS_CODE":0,"TOWNNAME":"安平區","LI":"育平里","LIN":"3鄰","STREET":"永華路","SECT":"二段","MAREA":" ","LANE":" ","ALLEY":" ","HOUSE_NO":"８１９號八樓之９","E_COORD97":164756.10999999999,"N_COORD97":2543515.4199999999,"ADDRESS":"永華路二段８１９號八樓之９","OBJECTID":606218},"geometry":{"x":164756.11000000034,"y":2543515.4199999999}},{"attributes":{"ID":606246,"DIS_CODE":0,"TOWNNAME":"安平區","LI":"育平里","LIN":"3鄰","STREET":"永華路","SECT":"二段","MAREA":" ","LANE":" ","ALLEY":" ","HOUSE_NO":"８１９號十一樓之１０","E_COORD97":164756.10999999999,"N_COORD97":2543515.4199999999,"ADDRESS":"永華路二段８１９號十一樓之１０","OBJECTID":606219},"geometry":{"x":164756.11000000034,"y":2543515.4199999999}},{"attributes":{"ID":606247,"DIS_CODE":0,"TOWNNAME":"安平區","LI":"育平里","LIN":"3鄰","STREET":"永華路","SECT":"二段","MAREA":" ","LANE":" ","ALLEY":" ","HOUSE_NO":"８１９號十一樓之１１","E_COORD97":164756.10999999999,"N_COORD97":2543515.4199999999,"ADDRESS":"永華路二段８１９號十一樓之１１","OBJECTID":606220},"geometry":{"x":164756.11000000034,"y":2543515.4199999999}},{"attributes":{"ID":606248,"DIS_CODE":0,"TOWNNAME":"安平區","LI":"育平里","LIN":"3鄰","STREET":"永華路","SECT":"二段","MAREA":" ","LANE":" ","ALLEY":" ","HOUSE_NO":"８１９號十一樓之１２","E_COORD97":164756.10999999999,"N_COORD97":2543515.4199999999,"ADDRESS":"永華路二段８１９號十一樓之１２","OBJECTID":606221},"geometry":{"x":164756.11000000034,"y":2543515.4199999999}},{"attributes":{"ID":606249,"DIS_CODE":0,"TOWNNAME":"安平區","LI":"育平里","LIN":"3鄰","STREET":"永華路","SECT":"二段","MAREA":" ","LANE":" ","ALLEY":" ","HOUSE_NO":"８１９號十一樓之９","E_COORD97":164756.10999999999,"N_COORD97":2543515.4199999999,"ADDRESS":"永華路二段８１９號十一樓之９","OBJECTID":606222},"geometry":{"x":164756.11000000034,"y":2543515.4199999999}},{"attributes":{"ID":606250,"DIS_CODE":0,"TOWNNAME":"安平區","LI":"育平里","LIN":"3鄰","STREET":"永華路","SECT":"二段","MAREA":" ","LANE":" ","ALLEY":" ","HOUSE_NO":"８１９號十七樓之１０","E_COORD97":164756.10999999999,"N_COORD97":2543515.4199999999,"ADDRESS":"永華路二段８１９號十七樓之１０","OBJECTID":606223},"geometry":{"x":164756.11000000034,"y":2543515.4199999999}},{"attributes":{"ID":606251,"DIS_CODE":0,"TOWNNAME":"安平區","LI":"育平里","LIN":"3鄰","STREET":"永華路","SECT":"二段","MAREA":" ","LANE":" ","ALLEY":" ","HOUSE_NO":"８１９號十七樓之１２","E_COORD97":164756.10999999999,"N_COORD97":2543515.4199999999,"ADDRESS":"永華路二段８１９號十七樓之１２","OBJECTID":606224},"geometry":{"x":164756.11000000034,"y":2543515.4199999999}},{"attributes":{"ID":606252,"DIS_CODE":0,"TOWNNAME":"安平區","LI":"育平里","LIN":"3鄰","STREET":"永華路","SECT":"二段","MAREA":" ","LANE":" ","ALLEY":" ","HOUSE_NO":"８１９號十七樓之９","E_COORD97":164756.10999999999,"N_COORD97":2543515.4199999999,"ADDRESS":"永華路二段８１９號十七樓之９","OBJECTID":606225},"geometry":{"x":164756.11000000034,"y":2543515.4199999999}},{"attributes":{"ID":606253,"DIS_CODE":0,"TOWNNAME":"安平區","LI":"育平里","LIN":"3鄰","STREET":"永華路","SECT":"二段","MAREA":" ","LANE":" ","ALLEY":" ","HOUSE_NO":"８１９號十九樓之１０","E_COORD97":164756.10999999999,"N_COORD97":2543515.4199999999,"ADDRESS":"永華路二段８１９號十九樓之１０","OBJECTID":606226},"geometry":{"x":164756.11000000034,"y":2543515.4199999999}},{"attributes":{"ID":606254,"DIS_CODE":0,"TOWNNAME":"安平區","LI":"育平里","LIN":"3鄰","STREET":"永華路","SECT":"二段","MAREA":" ","LANE":" ","ALLEY":" ","HOUSE_NO":"８１９號十九樓之１１","E_COORD97":164756.10999999999,"N_COORD97":2543515.4199999999,"ADDRESS":"永華路二段８１９號十九樓之１１","OBJECTID":606227},"geometry":{"x":164756.11000000034,"y":2543515.4199999999}},{"attributes":{"ID":606255,"DIS_CODE":0,"TOWNNAME":"安平區","LI":"育平里","LIN":"3鄰","STREET":"永華路","SECT":"二段","MAREA":" ","LANE":" ","ALLEY":" ","HOUSE_NO":"８１９號十九樓之１２","E_COORD97":164756.10999999999,"N_COORD97":2543515.4199999999,"ADDRESS":"永華路二段８１９號十九樓之１２","OBJECTID":606228},"geometry":{"x":164756.11000000034,"y":2543515.4199999999}},{"attributes":{"ID":606256,"DIS_CODE":0,"TOWNNAME":"安平區","LI":"育平里","LIN":"3鄰","STREET":"永華路","SECT":"二段","MAREA":" ","LANE":" ","ALLEY":" ","HOUSE_NO":"８１９號十九樓之９","E_COORD97":164756.10999999999,"N_COORD97":2543515.4199999999,"ADDRESS":"永華路二段８１９號十九樓之９","OBJECTID":606229},"geometry":{"x":164756.11000000034,"y":2543515.4199999999}},{"attributes":{"ID":606257,"DIS_CODE":0,"TOWNNAME":"安平區","LI":"育平里","LIN":"3鄰","STREET":"永華路","SECT":"二段","MAREA":" ","LANE":" ","ALLEY":" ","HOUSE_NO":"８１９號十二樓之１０","E_COORD97":164756.10999999999,"N_COORD97":2543515.4199999999,"ADDRESS":"永華路二段８１９號十二樓之１０","OBJECTID":606230},"geometry":{"x":164756.11000000034,"y":2543515.4199999999}},{"attributes":{"ID":606258,"DIS_CODE":0,"TOWNNAME":"安平區","LI":"育平里","LIN":"3鄰","STREET":"永華路","SECT":"二段","MAREA":" ","LANE":" ","ALLEY":" ","HOUSE_NO":"８１９號十二樓之１１","E_COORD97":164756.10999999999,"N_COORD97":2543515.4199999999,"ADDRESS":"永華路二段８１９號十二樓之１１","OBJECTID":606231},"geometry":{"x":164756.11000000034,"y":2543515.4199999999}},{"attributes":{"ID":606259,"DIS_CODE":0,"TOWNNAME":"安平區","LI":"育平里","LIN":"3鄰","STREET":"永華路","SECT":"二段","MAREA":" ","LANE":" ","ALLEY":" ","HOUSE_NO":"８１９號十二樓之１２","E_COORD97":164756.10999999999,"N_COORD97":2543515.4199999999,"ADDRESS":"永華路二段８１９號十二樓之１２","OBJECTID":606232},"geometry":{"x":164756.11000000034,"y":2543515.4199999999}},{"attributes":{"ID":606260,"DIS_CODE":0,"TOWNNAME":"安平區","LI":"育平里","LIN":"3鄰","STREET":"永華路","SECT":"二段","MAREA":" ","LANE":" ","ALLEY":" ","HOUSE_NO":"８１９號十二樓之９","E_COORD97":164756.10999999999,"N_COORD97":2543515.4199999999,"ADDRESS":"永華路二段８１９號十二樓之９","OBJECTID":606233},"geometry":{"x":164756.11000000034,"y":2543515.4199999999}},{"attributes":{"ID":606261,"DIS_CODE":0,"TOWNNAME":"安平區","LI":"育平里","LIN":"3鄰","STREET":"永華路","SECT":"二段","MAREA":" ","LANE":" ","ALLEY":" ","HOUSE_NO":"８１９號十八樓之１０","E_COORD97":164756.10999999999,"N_COORD97":2543515.4199999999,"ADDRESS":"永華路二段８１９號十八樓之１０","OBJECTID":606234},"geometry":{"x":164756.11000000034,"y":2543515.4199999999}},{"attributes":{"ID":606262,"DIS_CODE":0,"TOWNNAME":"安平區","LI":"育平里","LIN":"3鄰","STREET":"永華路","SECT":"二段","MAREA":" ","LANE":" ","ALLEY":" ","HOUSE_NO":"８１９號十八樓之１１","E_COORD97":164756.10999999999,"N_COORD97":2543515.4199999999,"ADDRESS":"永華路二段８１９號十八樓之１１","OBJECTID":606235},"geometry":{"x":164756.11000000034,"y":2543515.4199999999}},{"attributes":{"ID":606263,"DIS_CODE":0,"TOWNNAME":"仁德區","LI":"保安里","LIN":"11鄰","STREET":"文賢路","SECT":"一段","MAREA":" ","LANE":" ","ALLEY":" ","HOUSE_NO":"８６９號","E_COORD97":171663.48000000001,"N_COORD97":2535897.8199999998,"ADDRESS":"文賢路一段８６９號","OBJECTID":606236},"geometry":{"x":171663.48000000045,"y":2535897.8200000003}},{"attributes":{"ID":606264,"DIS_CODE":0,"TOWNNAME":"安平區","LI":"育平里","LIN":"3鄰","STREET":"永華路","SECT":"二段","MAREA":" ","LANE":" ","ALLEY":" ","HOUSE_NO":"８１９號十八樓之１２","E_COORD97":164756.10999999999,"N_COORD97":2543515.4199999999,"ADDRESS":"永華路二段８１９號十八樓之１２","OBJECTID":606237},"geometry":{"x":164756.11000000034,"y":2543515.4199999999}},{"attributes":{"ID":606265,"DIS_CODE":0,"TOWNNAME":"安平區","LI":"育平里","LIN":"3鄰","STREET":"永華路","SECT":"二段","MAREA":" ","LANE":" ","ALLEY":" ","HOUSE_NO":"８１９號十八樓之９","E_COORD97":164756.10999999999,"N_COORD97":2543515.4199999999,"ADDRESS":"永華路二段８１９號十八樓之９","OBJECTID":606238},"geometry":{"x":164756.11000000034,"y":2543515.4199999999}},{"attributes":{"ID":606266,"DIS_CODE":0,"TOWNNAME":"安平區","LI":"育平里","LIN":"3鄰","STREET":"永華路","SECT":"二段","MAREA":" ","LANE":" ","ALLEY":" ","HOUSE_NO":"８１９號十三樓之１０","E_COORD97":164756.10999999999,"N_COORD97":2543515.4199999999,"ADDRESS":"永華路二段８１９號十三樓之１０","OBJECTID":606239},"geometry":{"x":164756.11000000034,"y":2543515.4199999999}},{"attributes":{"ID":606267,"DIS_CODE":0,"TOWNNAME":"安平區","LI":"育平里","LIN":"3鄰","STREET":"永華路","SECT":"二段","MAREA":" ","LANE":" ","ALLEY":" ","HOUSE_NO":"８１９號十三樓之１１","E_COORD97":164756.10999999999,"N_COORD97":2543515.4199999999,"ADDRESS":"永華路二段８１９號十三樓之１１","OBJECTID":606240},"geometry":{"x":164756.11000000034,"y":2543515.4199999999}},{"attributes":{"ID":606268,"DIS_CODE":0,"TOWNNAME":"安平區","LI":"育平里","LIN":"3鄰","STREET":"永華路","SECT":"二段","MAREA":" ","LANE":" ","ALLEY":" ","HOUSE_NO":"８１９號十三樓之１２","E_COORD97":164756.10999999999,"N_COORD97":2543515.4199999999,"ADDRESS":"永華路二段８１９號十三樓之１２","OBJECTID":606241},"geometry":{"x":164756.11000000034,"y":2543515.4199999999}},{"attributes":{"ID":606269,"DIS_CODE":0,"TOWNNAME":"安平區","LI":"育平里","LIN":"3鄰","STREET":"永華路","SECT":"二段","MAREA":" ","LANE":" ","ALLEY":" ","HOUSE_NO":"８１９號十三樓之９","E_COORD97":164756.10999999999,"N_COORD97":2543515.4199999999,"ADDRESS":"永華路二段８１９號十三樓之９","OBJECTID":606242},"geometry":{"x":164756.11000000034,"y":2543515.4199999999}},{"attributes":{"ID":606270,"DIS_CODE":0,"TOWNNAME":"安平區","LI":"育平里","LIN":"3鄰","STREET":"永華路","SECT":"二段","MAREA":" ","LANE":" ","ALLEY":" ","HOUSE_NO":"８１９號十五樓之１０","E_COORD97":164756.10999999999,"N_COORD97":2543515.4199999999,"ADDRESS":"永華路二段８１９號十五樓之１０","OBJECTID":606243},"geometry":{"x":164756.11000000034,"y":2543515.4199999999}},{"attributes":{"ID":606271,"DIS_CODE":0,"TOWNNAME":"安平區","LI":"育平里","LIN":"3鄰","STREET":"永華路","SECT":"二段","MAREA":" ","LANE":" ","ALLEY":" ","HOUSE_NO":"８１９號十五樓之１１","E_COORD97":164756.10999999999,"N_COORD97":2543515.4199999999,"ADDRESS":"永華路二段８１９號十五樓之１１","OBJECTID":606244},"geometry":{"x":164756.11000000034,"y":2543515.4199999999}},{"attributes":{"ID":606272,"DIS_CODE":0,"TOWNNAME":"安平區","LI":"育平里","LIN":"3鄰","STREET":"永華路","SECT":"二段","MAREA":" ","LANE":" ","ALLEY":" ","HOUSE_NO":"８１９號十五樓之１２","E_COORD97":164756.10999999999,"N_COORD97":2543515.4199999999,"ADDRESS":"永華路二段８１９號十五樓之１２","OBJECTID":606245},"geometry":{"x":164756.11000000034,"y":2543515.4199999999}},{"attributes":{"ID":606273,"DIS_CODE":0,"TOWNNAME":"安平區","LI":"育平里","LIN":"3鄰","STREET":"永華路","SECT":"二段","MAREA":" ","LANE":" ","ALLEY":" ","HOUSE_NO":"８１９號十五樓之９","E_COORD97":164756.10999999999,"N_COORD97":2543515.4199999999,"ADDRESS":"永華路二段８１９號十五樓之９","OBJECTID":606246},"geometry":{"x":164756.11000000034,"y":2543515.4199999999}},{"attributes":{"ID":606274,"DIS_CODE":0,"TOWNNAME":"安平區","LI":"育平里","LIN":"3鄰","STREET":"永華路","SECT":"二段","MAREA":" ","LANE":" ","ALLEY":" ","HOUSE_NO":"８１９號十六樓之１０","E_COORD97":164756.10999999999,"N_COORD97":2543515.4199999999,"ADDRESS":"永華路二段８１９號十六樓之１０","OBJECTID":606247},"geometry":{"x":164756.11000000034,"y":2543515.4199999999}},{"attributes":{"ID":606275,"DIS_CODE":0,"TOWNNAME":"安平區","LI":"育平里","LIN":"3鄰","STREET":"永華路","SECT":"二段","MAREA":" ","LANE":" ","ALLEY":" ","HOUSE_NO":"８１９號十六樓之１１","E_COORD97":164756.10999999999,"N_COORD97":2543515.4199999999,"ADDRESS":"永華路二段８１９號十六樓之１１","OBJECTID":606248},"geometry":{"x":164756.11000000034,"y":2543515.4199999999}},{"attributes":{"ID":606276,"DIS_CODE":0,"TOWNNAME":"安平區","LI":"育平里","LIN":"3鄰","STREET":"永華路","SECT":"二段","MAREA":" ","LANE":" ","ALLEY":" ","HOUSE_NO":"８１９號十六樓之１２","E_COORD97":164756.10999999999,"N_COORD97":2543515.4199999999,"ADDRESS":"永華路二段８１９號十六樓之１２","OBJECTID":606249},"geometry":{"x":164756.11000000034,"y":2543515.4199999999}},{"attributes":{"ID":606277,"DIS_CODE":0,"TOWNNAME":"安平區","LI":"育平里","LIN":"3鄰","STREET":"永華路","SECT":"二段","MAREA":" ","LANE":" ","ALLEY":" ","HOUSE_NO":"８１９號十六樓之９","E_COORD97":164756.10999999999,"N_COORD97":2543515.4199999999,"ADDRESS":"永華路二段８１９號十六樓之９","OBJECTID":606250},"geometry":{"x":164756.11000000034,"y":2543515.4199999999}},{"attributes":{"ID":606278,"DIS_CODE":0,"TOWNNAME":"安平區","LI":"育平里","LIN":"3鄰","STREET":"永華路","SECT":"二段","MAREA":" ","LANE":" ","ALLEY":" ","HOUSE_NO":"８１９號十四樓之１０","E_COORD97":164756.10999999999,"N_COORD97":2543515.4199999999,"ADDRESS":"永華路二段８１９號十四樓之１０","OBJECTID":606251},"geometry":{"x":164756.11000000034,"y":2543515.4199999999}},{"attributes":{"ID":606279,"DIS_CODE":0,"TOWNNAME":"安平區","LI":"育平里","LIN":"3鄰","STREET":"永華路","SECT":"二段","MAREA":" ","LANE":" ","ALLEY":" ","HOUSE_NO":"８１９號十四樓之１１","E_COORD97":164756.10999999999,"N_COORD97":2543515.4199999999,"ADDRESS":"永華路二段８１９號十四樓之１１","OBJECTID":606252},"geometry":{"x":164756.11000000034,"y":2543515.4199999999}},{"attributes":{"ID":606280,"DIS_CODE":0,"TOWNNAME":"安平區","LI":"育平里","LIN":"3鄰","STREET":"永華路","SECT":"二段","MAREA":" ","LANE":" ","ALLEY":" ","HOUSE_NO":"８１９號十四樓之１２","E_COORD97":164756.10999999999,"N_COORD97":2543515.4199999999,"ADDRESS":"永華路二段８１９號十四樓之１２","OBJECTID":606253},"geometry":{"x":164756.11000000034,"y":2543515.4199999999}},{"attributes":{"ID":606281,"DIS_CODE":0,"TOWNNAME":"安平區","LI":"育平里","LIN":"3鄰","STREET":"永華路","SECT":"二段","MAREA":" ","LANE":" ","ALLEY":" ","HOUSE_NO":"８１９號十四樓之９","E_COORD97":164756.10999999999,"N_COORD97":2543515.4199999999,"ADDRESS":"永華路二段８１９號十四樓之９","OBJECTID":606254},"geometry":{"x":164756.11000000034,"y":2543515.4199999999}},{"attributes":{"ID":606282,"DIS_CODE":0,"TOWNNAME":"永康區","LI":"東橋里","LIN":"15鄰","STREET":"東橋五路","SECT":" ","MAREA":" ","LANE":" ","ALLEY":" ","HOUSE_NO":"６號","E_COORD97":171811.5,"N_COORD97":2546585.8100000001,"ADDRESS":"東橋五路６號","OBJECTID":606255},"geometry":{"x":171811.5,"y":2546585.8100000042}},{"attributes":{"ID":606283,"DIS_CODE":0,"TOWNNAME":"安平區","LI":"育平里","LIN":"3鄰","STREET":"永華路","SECT":"二段","MAREA":" ","LANE":" ","ALLEY":" ","HOUSE_NO":"８１９號十樓之１０","E_COORD97":164756.10999999999,"N_COORD97":2543515.4199999999,"ADDRESS":"永華路二段８１９號十樓之１０","OBJECTID":606256},"geometry":{"x":164756.11000000034,"y":2543515.4199999999}},{"attributes":{"ID":606284,"DIS_CODE":0,"TOWNNAME":"安平區","LI":"育平里","LIN":"3鄰","STREET":"永華路","SECT":"二段","MAREA":" ","LANE":" ","ALLEY":" ","HOUSE_NO":"８１９號十樓之１１","E_COORD97":164756.10999999999,"N_COORD97":2543515.4199999999,"ADDRESS":"永華路二段８１９號十樓之１１","OBJECTID":606257},"geometry":{"x":164756.11000000034,"y":2543515.4199999999}},{"attributes":{"ID":606285,"DIS_CODE":0,"TOWNNAME":"安平區","LI":"育平里","LIN":"3鄰","STREET":"永華路","SECT":"二段","MAREA":" ","LANE":" ","ALLEY":" ","HOUSE_NO":"８１９號十樓之１２","E_COORD97":164756.10999999999,"N_COORD97":2543515.4199999999,"ADDRESS":"永華路二段８１９號十樓之１２","OBJECTID":606258},"geometry":{"x":164756.11000000034,"y":2543515.4199999999}},{"attributes":{"ID":606286,"DIS_CODE":0,"TOWNNAME":"安平區","LI":"育平里","LIN":"3鄰","STREET":"永華路","SECT":"二段","MAREA":" ","LANE":" ","ALLEY":" ","HOUSE_NO":"８１９號十樓之９","E_COORD97":164756.10999999999,"N_COORD97":2543515.4199999999,"ADDRESS":"永華路二段８１９號十樓之９","OBJECTID":606259},"geometry":{"x":164756.11000000034,"y":2543515.4199999999}},{"attributes":{"ID":606287,"DIS_CODE":0,"TOWNNAME":"安平區","LI":"育平里","LIN":"3鄰","STREET":"永華路","SECT":"二段","MAREA":" ","LANE":" ","ALLEY":" ","HOUSE_NO":"８１９號三樓之１０","E_COORD97":164756.10999999999,"N_COORD97":2543515.4199999999,"ADDRESS":"永華路二段８１９號三樓之１０","OBJECTID":606260},"geometry":{"x":164756.11000000034,"y":2543515.4199999999}},{"attributes":{"ID":606288,"DIS_CODE":0,"TOWNNAME":"安平區","LI":"育平里","LIN":"3鄰","STREET":"永華路","SECT":"二段","MAREA":" ","LANE":" ","ALLEY":" ","HOUSE_NO":"８１９號三樓之１１","E_COORD97":164756.10999999999,"N_COORD97":2543515.4199999999,"ADDRESS":"永華路二段８１９號三樓之１１","OBJECTID":606261},"geometry":{"x":164756.11000000034,"y":2543515.4199999999}},{"attributes":{"ID":606289,"DIS_CODE":0,"TOWNNAME":"安平區","LI":"育平里","LIN":"3鄰","STREET":"永華路","SECT":"二段","MAREA":" ","LANE":" ","ALLEY":" ","HOUSE_NO":"８１９號三樓之１２","E_COORD97":164756.10999999999,"N_COORD97":2543515.4199999999,"ADDRESS":"永華路二段８１９號三樓之１２","OBJECTID":606262},"geometry":{"x":164756.11000000034,"y":2543515.4199999999}},{"attributes":{"ID":606290,"DIS_CODE":0,"TOWNNAME":"安平區","LI":"育平里","LIN":"3鄰","STREET":"永華路","SECT":"二段","MAREA":" ","LANE":" ","ALLEY":" ","HOUSE_NO":"８１９號三樓之９","E_COORD97":164756.10999999999,"N_COORD97":2543515.4199999999,"ADDRESS":"永華路二段８１９號三樓之９","OBJECTID":606263},"geometry":{"x":164756.11000000034,"y":2543515.4199999999}},{"attributes":{"ID":606291,"DIS_CODE":0,"TOWNNAME":"安平區","LI":"育平里","LIN":"3鄰","STREET":"永華路","SECT":"二段","MAREA":" ","LANE":" ","ALLEY":" ","HOUSE_NO":"８１９號五樓之１０","E_COORD97":164756.10999999999,"N_COORD97":2543515.4199999999,"ADDRESS":"永華路二段８１９號五樓之１０","OBJECTID":606264},"geometry":{"x":164756.11000000034,"y":2543515.4199999999}},{"attributes":{"ID":606292,"DIS_CODE":0,"TOWNNAME":"安平區","LI":"育平里","LIN":"3鄰","STREET":"永華路","SECT":"二段","MAREA":" ","LANE":" ","ALLEY":" ","HOUSE_NO":"８１９號五樓之１１","E_COORD97":164756.10999999999,"N_COORD97":2543515.4199999999,"ADDRESS":"永華路二段８１９號五樓之１１","OBJECTID":606265},"geometry":{"x":164756.11000000034,"y":2543515.4199999999}},{"attributes":{"ID":606293,"DIS_CODE":0,"TOWNNAME":"安平區","LI":"育平里","LIN":"3鄰","STREET":"永華路","SECT":"二段","MAREA":" ","LANE":" ","ALLEY":" ","HOUSE_NO":"８１９號五樓之１２","E_COORD97":164756.10999999999,"N_COORD97":2543515.4199999999,"ADDRESS":"永華路二段８１９號五樓之１２","OBJECTID":606266},"geometry":{"x":164756.11000000034,"y":2543515.4199999999}},{"attributes":{"ID":606294,"DIS_CODE":0,"TOWNNAME":"安平區","LI":"育平里","LIN":"3鄰","STREET":"永華路","SECT":"二段","MAREA":" ","LANE":" ","ALLEY":" ","HOUSE_NO":"８１９號五樓之９","E_COORD97":164756.10999999999,"N_COORD97":2543515.4199999999,"ADDRESS":"永華路二段８１９號五樓之９","OBJECTID":606267},"geometry":{"x":164756.11000000034,"y":2543515.4199999999}},{"attributes":{"ID":606295,"DIS_CODE":0,"TOWNNAME":"中西區","LI":"保安里","LIN":"3鄰","STREET":"保安路","SECT":" ","MAREA":" ","LANE":" ","ALLEY":" ","HOUSE_NO":"４號","E_COORD97":167713.95000000001,"N_COORD97":2543432.5299999998,"ADDRESS":"保安路４號","OBJECTID":606268},"geometry":{"x":167713.95000000112,"y":2543432.5299999993}},{"attributes":{"ID":606296,"DIS_CODE":0,"TOWNNAME":"安平區","LI":"育平里","LIN":"3鄰","STREET":"永華路","SECT":"二段","MAREA":" ","LANE":" ","ALLEY":" ","HOUSE_NO":"８１９號六樓之１０","E_COORD97":164756.10999999999,"N_COORD97":2543515.4199999999,"ADDRESS":"永華路二段８１９號六樓之１０","OBJECTID":606269},"geometry":{"x":164756.11000000034,"y":2543515.4199999999}},{"attributes":{"ID":606297,"DIS_CODE":0,"TOWNNAME":"安平區","LI":"育平里","LIN":"3鄰","STREET":"永華路","SECT":"二段","MAREA":" ","LANE":" ","ALLEY":" ","HOUSE_NO":"８１９號六樓之１１","E_COORD97":164756.10999999999,"N_COORD97":2543515.4199999999,"ADDRESS":"永華路二段８１９號六樓之１１","OBJECTID":606270},"geometry":{"x":164756.11000000034,"y":2543515.4199999999}},{"attributes":{"ID":606298,"DIS_CODE":0,"TOWNNAME":"安平區","LI":"育平里","LIN":"3鄰","STREET":"永華路","SECT":"二段","MAREA":" ","LANE":" ","ALLEY":" ","HOUSE_NO":"８１９號六樓之１２","E_COORD97":164756.10999999999,"N_COORD97":2543515.4199999999,"ADDRESS":"永華路二段８１９號六樓之１２","OBJECTID":606271},"geometry":{"x":164756.11000000034,"y":2543515.4199999999}},{"attributes":{"ID":606299,"DIS_CODE":0,"TOWNNAME":"安平區","LI":"育平里","LIN":"3鄰","STREET":"永華路","SECT":"二段","MAREA":" ","LANE":" ","ALLEY":" ","HOUSE_NO":"８１９號六樓之９","E_COORD97":164756.10999999999,"N_COORD97":2543515.4199999999,"ADDRESS":"永華路二段８１９號六樓之９","OBJECTID":606272},"geometry":{"x":164756.11000000034,"y":2543515.4199999999}},{"attributes":{"ID":606300,"DIS_CODE":0,"TOWNNAME":"安平區","LI":"育平里","LIN":"3鄰","STREET":"永華路","SECT":"二段","MAREA":" ","LANE":" ","ALLEY":" ","HOUSE_NO":"８１９號四樓之１０","E_COORD97":164756.10999999999,"N_COORD97":2543515.4199999999,"ADDRESS":"永華路二段８１９號四樓之１０","OBJECTID":606273},"geometry":{"x":164756.11000000034,"y":2543515.4199999999}},{"attributes":{"ID":606301,"DIS_CODE":0,"TOWNNAME":"安平區","LI":"育平里","LIN":"3鄰","STREET":"永華路","SECT":"二段","MAREA":" ","LANE":" ","ALLEY":" ","HOUSE_NO":"８１９號四樓之１１","E_COORD97":164756.10999999999,"N_COORD97":2543515.4199999999,"ADDRESS":"永華路二段８１９號四樓之１１","OBJECTID":606274},"geometry":{"x":164756.11000000034,"y":2543515.4199999999}},{"attributes":{"ID":606302,"DIS_CODE":0,"TOWNNAME":"安平區","LI":"育平里","LIN":"3鄰","STREET":"永華路","SECT":"二段","MAREA":" ","LANE":" ","ALLEY":" ","HOUSE_NO":"８１９號四樓之１２","E_COORD97":164756.10999999999,"N_COORD97":2543515.4199999999,"ADDRESS":"永華路二段８１９號四樓之１２","OBJECTID":606275},"geometry":{"x":164756.11000000034,"y":2543515.4199999999}},{"attributes":{"ID":606303,"DIS_CODE":0,"TOWNNAME":"安平區","LI":"育平里","LIN":"3鄰","STREET":"永華路","SECT":"二段","MAREA":" ","LANE":" ","ALLEY":" ","HOUSE_NO":"８１９號四樓之９","E_COORD97":164756.10999999999,"N_COORD97":2543515.4199999999,"ADDRESS":"永華路二段８１９號四樓之９","OBJECTID":606276},"geometry":{"x":164756.11000000034,"y":2543515.4199999999}},{"attributes":{"ID":606304,"DIS_CODE":0,"TOWNNAME":"新營區","LI":"民榮里","LIN":"3鄰","STREET":"新進路","SECT":"二段","MAREA":" ","LANE":" ","ALLEY":" ","HOUSE_NO":"５００號七樓","E_COORD97":178673.37,"N_COORD97":2578038.6400000001,"ADDRESS":"新進路二段５００號七樓","OBJECTID":606277},"geometry":{"x":178673.37000000011,"y":2578038.6400000006}},{"attributes":{"ID":606305,"DIS_CODE":0,"TOWNNAME":"新營區","LI":"民榮里","LIN":"3鄰","STREET":"新進路","SECT":"二段","MAREA":" ","LANE":" ","ALLEY":" ","HOUSE_NO":"４９８號十三樓","E_COORD97":178674.67999999999,"N_COORD97":2578038.6400000001,"ADDRESS":"新進路二段４９８號十三樓","OBJECTID":606278},"geometry":{"x":178674.68000000063,"y":2578038.6400000006}},{"attributes":{"ID":606306,"DIS_CODE":0,"TOWNNAME":"新營區","LI":"民榮里","LIN":"3鄰","STREET":"新進路","SECT":"二段","MAREA":" ","LANE":" ","ALLEY":" ","HOUSE_NO":"４９８號十四樓","E_COORD97":178674.67999999999,"N_COORD97":2578038.6400000001,"ADDRESS":"新進路二段４９８號十四樓","OBJECTID":606279},"geometry":{"x":178674.68000000063,"y":2578038.6400000006}},{"attributes":{"ID":606307,"DIS_CODE":0,"TOWNNAME":"新營區","LI":"民榮里","LIN":"3鄰","STREET":"新進路","SECT":"二段","MAREA":" ","LANE":" ","ALLEY":" ","HOUSE_NO":"４９６號六樓","E_COORD97":178673.42999999999,"N_COORD97":2578038.6400000001,"ADDRESS":"新進路二段４９６號六樓","OBJECTID":606280},"geometry":{"x":178673.43000000063,"y":2578038.6400000006}},{"attributes":{"ID":606308,"DIS_CODE":0,"TOWNNAME":"新營區","LI":"民榮里","LIN":"3鄰","STREET":"新進路","SECT":"二段","MAREA":" ","LANE":" ","ALLEY":" ","HOUSE_NO":"４９８號八樓","E_COORD97":178673.42999999999,"N_COORD97":2578038.6400000001,"ADDRESS":"新進路二段４９８號八樓","OBJECTID":606281},"geometry":{"x":178673.43000000063,"y":2578038.6400000006}},{"attributes":{"ID":606309,"DIS_CODE":0,"TOWNNAME":"新營區","LI":"民榮里","LIN":"3鄰","STREET":"新進路","SECT":"二段","MAREA":" ","LANE":" ","ALLEY":" ","HOUSE_NO":"４９８號七樓","E_COORD97":178673.42999999999,"N_COORD97":2578038.6400000001,"ADDRESS":"新進路二段４９８號七樓","OBJECTID":606282},"geometry":{"x":178673.43000000063,"y":2578038.6400000006}},{"attributes":{"ID":606310,"DIS_CODE":0,"TOWNNAME":"新營區","LI":"民榮里","LIN":"3鄰","STREET":"新進路","SECT":"二段","MAREA":" ","LANE":" ","ALLEY":" ","HOUSE_NO":"４９８號九樓","E_COORD97":178673.42999999999,"N_COORD97":2578038.6400000001,"ADDRESS":"新進路二段４９８號九樓","OBJECTID":606283},"geometry":{"x":178673.43000000063,"y":2578038.6400000006}},{"attributes":{"ID":606311,"DIS_CODE":0,"TOWNNAME":"新營區","LI":"民榮里","LIN":"3鄰","STREET":"新進路","SECT":"二段","MAREA":" ","LANE":" ","ALLEY":" ","HOUSE_NO":"５００之１號九樓","E_COORD97":178675.87,"N_COORD97":2578038.6800000002,"ADDRESS":"新進路二段５００之１號九樓","OBJECTID":606284},"geometry":{"x":178675.87000000104,"y":2578038.6800000016}},{"attributes":{"ID":606312,"DIS_CODE":0,"TOWNNAME":"新營區","LI":"民榮里","LIN":"3鄰","STREET":"新進路","SECT":"二段","MAREA":" ","LANE":" ","ALLEY":" ","HOUSE_NO":"４９８號十樓","E_COORD97":178673.42999999999,"N_COORD97":2578038.6400000001,"ADDRESS":"新進路二段４９８號十樓","OBJECTID":606285},"geometry":{"x":178673.43000000063,"y":2578038.6400000006}},{"attributes":{"ID":606313,"DIS_CODE":0,"TOWNNAME":"新營區","LI":"民榮里","LIN":"3鄰","STREET":"新進路","SECT":"二段","MAREA":" ","LANE":" ","ALLEY":" ","HOUSE_NO":"４９６號八樓","E_COORD97":178673.54999999999,"N_COORD97":2578064.1000000001,"ADDRESS":"新進路二段４９６號八樓","OBJECTID":606286},"geometry":{"x":178673.54999999981,"y":2578064.1000000015}},{"attributes":{"ID":606314,"DIS_CODE":0,"TOWNNAME":"新營區","LI":"民榮里","LIN":"3鄰","STREET":"新進路","SECT":"二段","MAREA":" ","LANE":" ","ALLEY":" ","HOUSE_NO":"４９６號十一樓","E_COORD97":178674.79999999999,"N_COORD97":2578064.1000000001,"ADDRESS":"新進路二段４９６號十一樓","OBJECTID":606287},"geometry":{"x":178674.79999999981,"y":2578064.1000000015}},{"attributes":{"ID":606315,"DIS_CODE":0,"TOWNNAME":"新營區","LI":"民榮里","LIN":"3鄰","STREET":"新進路","SECT":"二段","MAREA":" ","LANE":" ","ALLEY":" ","HOUSE_NO":"５００之４號十樓","E_COORD97":178675.87,"N_COORD97":2578038.6800000002,"ADDRESS":"新進路二段５００之４號十樓","OBJECTID":606288},"geometry":{"x":178675.87000000104,"y":2578038.6800000016}},{"attributes":{"ID":606316,"DIS_CODE":0,"TOWNNAME":"新營區","LI":"民榮里","LIN":"3鄰","STREET":"新進路","SECT":"二段","MAREA":" ","LANE":" ","ALLEY":" ","HOUSE_NO":"５００號十一樓","E_COORD97":178674.62,"N_COORD97":2578038.6400000001,"ADDRESS":"新進路二段５００號十一樓","OBJECTID":606289},"geometry":{"x":178674.62000000011,"y":2578038.6400000006}},{"attributes":{"ID":606317,"DIS_CODE":0,"TOWNNAME":"新營區","LI":"民榮里","LIN":"3鄰","STREET":"新進路","SECT":"二段","MAREA":" ","LANE":" ","ALLEY":" ","HOUSE_NO":"４９６號之４五樓","E_COORD97":178675.92999999999,"N_COORD97":2578038.6800000002,"ADDRESS":"新進路二段４９６號之４五樓","OBJECTID":606290},"geometry":{"x":178675.9299999997,"y":2578038.6800000016}},{"attributes":{"ID":606318,"DIS_CODE":0,"TOWNNAME":"新營區","LI":"民榮里","LIN":"3鄰","STREET":"新進路","SECT":"二段","MAREA":" ","LANE":" ","ALLEY":" ","HOUSE_NO":"４９６之４號三樓","E_COORD97":178676.04999999999,"N_COORD97":2578064.1400000001,"ADDRESS":"新進路二段４９６之４號三樓","OBJECTID":606291},"geometry":{"x":178676.05000000075,"y":2578064.1400000025}},{"attributes":{"ID":606319,"DIS_CODE":0,"TOWNNAME":"新營區","LI":"民榮里","LIN":"3鄰","STREET":"新進路","SECT":"二段","MAREA":" ","LANE":" ","ALLEY":" ","HOUSE_NO":"４９６之４號十三樓","E_COORD97":178677.29999999999,"N_COORD97":2578064.1400000001,"ADDRESS":"新進路二段４９６之４號十三樓","OBJECTID":606292},"geometry":{"x":178677.30000000168,"y":2578064.1400000025}},{"attributes":{"ID":606320,"DIS_CODE":0,"TOWNNAME":"新營區","LI":"民榮里","LIN":"3鄰","STREET":"新進路","SECT":"二段","MAREA":" ","LANE":" ","ALLEY":" ","HOUSE_NO":"５００之４號十二樓","E_COORD97":178677.12,"N_COORD97":2578038.6800000002,"ADDRESS":"新進路二段５００之４號十二樓","OBJECTID":606293},"geometry":{"x":178677.12000000197,"y":2578038.6800000016}},{"attributes":{"ID":606321,"DIS_CODE":0,"TOWNNAME":"新營區","LI":"民榮里","LIN":"3鄰","STREET":"新進路","SECT":"二段","MAREA":" ","LANE":" ","ALLEY":" ","HOUSE_NO":"４９６之４號六樓","E_COORD97":178676.04999999999,"N_COORD97":2578064.1400000001,"ADDRESS":"新進路二段４９６之４號六樓","OBJECTID":606294},"geometry":{"x":178676.05000000075,"y":2578064.1400000025}},{"attributes":{"ID":606322,"DIS_CODE":0,"TOWNNAME":"新營區","LI":"民榮里","LIN":"3鄰","STREET":"新進路","SECT":"二段","MAREA":" ","LANE":" ","ALLEY":" ","HOUSE_NO":"４９６號十二樓","E_COORD97":178674.79999999999,"N_COORD97":2578064.1000000001,"ADDRESS":"新進路二段４９６號十二樓","OBJECTID":606295},"geometry":{"x":178674.79999999981,"y":2578064.1000000015}},{"attributes":{"ID":606323,"DIS_CODE":0,"TOWNNAME":"新營區","LI":"民榮里","LIN":"3鄰","STREET":"新進路","SECT":"二段","MAREA":" ","LANE":" ","ALLEY":" ","HOUSE_NO":"５００號十四樓","E_COORD97":178674.62,"N_COORD97":2578038.6400000001,"ADDRESS":"新進路二段５００號十四樓","OBJECTID":606296},"geometry":{"x":178674.62000000011,"y":2578038.6400000006}},{"attributes":{"ID":606324,"DIS_CODE":0,"TOWNNAME":"新營區","LI":"民榮里","LIN":"3鄰","STREET":"新進路","SECT":"二段","MAREA":" ","LANE":" ","ALLEY":" ","HOUSE_NO":"４９６之４號十樓","E_COORD97":178676.04999999999,"N_COORD97":2578064.1400000001,"ADDRESS":"新進路二段４９６之４號十樓","OBJECTID":606297},"geometry":{"x":178676.05000000075,"y":2578064.1400000025}},{"attributes":{"ID":606325,"DIS_CODE":0,"TOWNNAME":"新營區","LI":"民榮里","LIN":"3鄰","STREET":"新進路","SECT":"二段","MAREA":" ","LANE":" ","ALLEY":" ","HOUSE_NO":"４９６之４號七樓","E_COORD97":178676.04999999999,"N_COORD97":2578064.1400000001,"ADDRESS":"新進路二段４９６之４號七樓","OBJECTID":606298},"geometry":{"x":178676.05000000075,"y":2578064.1400000025}},{"attributes":{"ID":606326,"DIS_CODE":0,"TOWNNAME":"新營區","LI":"民榮里","LIN":"3鄰","STREET":"新進路","SECT":"二段","MAREA":" ","LANE":" ","ALLEY":" ","HOUSE_NO":"４９６號之１四樓","E_COORD97":178674.98000000001,"N_COORD97":2578053.0800000001,"ADDRESS":"新進路二段４９６號之１四樓","OBJECTID":606299},"geometry":{"x":178674.98000000231,"y":2578053.0800000038}},{"attributes":{"ID":606327,"DIS_CODE":0,"TOWNNAME":"新營區","LI":"民榮里","LIN":"3鄰","STREET":"新進路","SECT":"二段","MAREA":" ","LANE":" ","ALLEY":" ","HOUSE_NO":"５００之１號七樓","E_COORD97":178675.87,"N_COORD97":2578038.6800000002,"ADDRESS":"新進路二段５００之１號七樓","OBJECTID":606300},"geometry":{"x":178675.87000000104,"y":2578038.6800000016}},{"attributes":{"ID":606328,"DIS_CODE":0,"TOWNNAME":"北區","LI":"和順里","LIN":"3鄰","STREET":"西門路","SECT":"三段","MAREA":" ","LANE":" ","ALLEY":" ","HOUSE_NO":"５３號二樓","E_COORD97":168273.32000000001,"N_COORD97":2544718.6299999999,"ADDRESS":"西門路三段５３號二樓","OBJECTID":606301},"geometry":{"x":168273.32000000123,"y":2544718.6300000008}},{"attributes":{"ID":606329,"DIS_CODE":0,"TOWNNAME":"北區","LI":"和順里","LIN":"3鄰","STREET":"西門路","SECT":"三段","MAREA":" ","LANE":" ","ALLEY":" ","HOUSE_NO":"５１號二樓","E_COORD97":168271.14000000001,"N_COORD97":2544715.5,"ADDRESS":"西門路三段５１號二樓","OBJECTID":606302},"geometry":{"x":168271.13999999966,"y":2544715.5}},{"attributes":{"ID":606330,"DIS_CODE":0,"TOWNNAME":"北區","LI":"元寶里","LIN":"3鄰","STREET":"北園街","SECT":" ","MAREA":" ","LANE":" ","ALLEY":" ","HOUSE_NO":"７２號七樓之１","E_COORD97":170359.95999999999,"N_COORD97":2545828.98,"ADDRESS":"北園街７２號七樓之１","OBJECTID":606303},"geometry":{"x":170359.96000000089,"y":2545828.9800000023}},{"attributes":{"ID":606331,"DIS_CODE":0,"TOWNNAME":"北區","LI":"元寶里","LIN":"3鄰","STREET":"北園街","SECT":" ","MAREA":" ","LANE":" ","ALLEY":" ","HOUSE_NO":"７２號七樓之２","E_COORD97":170359.95999999999,"N_COORD97":2545828.98,"ADDRESS":"北園街７２號七樓之２","OBJECTID":606304},"geometry":{"x":170359.96000000089,"y":2545828.9800000023}},{"attributes":{"ID":606332,"DIS_CODE":0,"TOWNNAME":"北區","LI":"元寶里","LIN":"3鄰","STREET":"北園街","SECT":" ","MAREA":" ","LANE":" ","ALLEY":" ","HOUSE_NO":"７２號七樓之３","E_COORD97":170359.95999999999,"N_COORD97":2545828.98,"ADDRESS":"北園街７２號七樓之３","OBJECTID":606305},"geometry":{"x":170359.96000000089,"y":2545828.9800000023}},{"attributes":{"ID":606333,"DIS_CODE":0,"TOWNNAME":"北區","LI":"元寶里","LIN":"3鄰","STREET":"北園街","SECT":" ","MAREA":" ","LANE":" ","ALLEY":" ","HOUSE_NO":"７２號二樓之１","E_COORD97":170359.95999999999,"N_COORD97":2545828.98,"ADDRESS":"北園街７２號二樓之１","OBJECTID":606306},"geometry":{"x":170359.96000000089,"y":2545828.9800000023}},{"attributes":{"ID":606334,"DIS_CODE":0,"TOWNNAME":"北區","LI":"元寶里","LIN":"3鄰","STREET":"北園街","SECT":" ","MAREA":" ","LANE":" ","ALLEY":" ","HOUSE_NO":"７２號二樓之２","E_COORD97":170359.95999999999,"N_COORD97":2545828.98,"ADDRESS":"北園街７２號二樓之２","OBJECTID":606307},"geometry":{"x":170359.96000000089,"y":2545828.9800000023}},{"attributes":{"ID":606335,"DIS_CODE":0,"TOWNNAME":"北區","LI":"元寶里","LIN":"3鄰","STREET":"北園街","SECT":" ","MAREA":" ","LANE":" ","ALLEY":" ","HOUSE_NO":"７２號三樓之１","E_COORD97":170359.95999999999,"N_COORD97":2545828.98,"ADDRESS":"北園街７２號三樓之１","OBJECTID":606308},"geometry":{"x":170359.96000000089,"y":2545828.9800000023}},{"attributes":{"ID":606336,"DIS_CODE":0,"TOWNNAME":"北區","LI":"元寶里","LIN":"3鄰","STREET":"北園街","SECT":" ","MAREA":" ","LANE":" ","ALLEY":" ","HOUSE_NO":"７２號三樓之２","E_COORD97":170359.95999999999,"N_COORD97":2545828.98,"ADDRESS":"北園街７２號三樓之２","OBJECTID":606309},"geometry":{"x":170359.96000000089,"y":2545828.9800000023}},{"attributes":{"ID":606337,"DIS_CODE":0,"TOWNNAME":"北區","LI":"元寶里","LIN":"3鄰","STREET":"北園街","SECT":" ","MAREA":" ","LANE":" ","ALLEY":" ","HOUSE_NO":"７２號三樓之３","E_COORD97":170359.95999999999,"N_COORD97":2545828.98,"ADDRESS":"北園街７２號三樓之３","OBJECTID":606310},"geometry":{"x":170359.96000000089,"y":2545828.9800000023}},{"attributes":{"ID":606338,"DIS_CODE":0,"TOWNNAME":"北區","LI":"元寶里","LIN":"3鄰","STREET":"北園街","SECT":" ","MAREA":" ","LANE":" ","ALLEY":" ","HOUSE_NO":"７２號三樓之４","E_COORD97":170359.95999999999,"N_COORD97":2545828.98,"ADDRESS":"北園街７２號三樓之４","OBJECTID":606311},"geometry":{"x":170359.96000000089,"y":2545828.9800000023}},{"attributes":{"ID":606339,"DIS_CODE":0,"TOWNNAME":"北區","LI":"元寶里","LIN":"3鄰","STREET":"北園街","SECT":" ","MAREA":" ","LANE":" ","ALLEY":" ","HOUSE_NO":"７２號五樓之１","E_COORD97":170359.95999999999,"N_COORD97":2545828.98,"ADDRESS":"北園街７２號五樓之１","OBJECTID":606312},"geometry":{"x":170359.96000000089,"y":2545828.9800000023}},{"attributes":{"ID":606340,"DIS_CODE":0,"TOWNNAME":"北區","LI":"元寶里","LIN":"3鄰","STREET":"北園街","SECT":" ","MAREA":" ","LANE":" ","ALLEY":" ","HOUSE_NO":"７２號五樓之２","E_COORD97":170359.95999999999,"N_COORD97":2545828.98,"ADDRESS":"北園街７２號五樓之２","OBJECTID":606313},"geometry":{"x":170359.96000000089,"y":2545828.9800000023}},{"attributes":{"ID":606341,"DIS_CODE":0,"TOWNNAME":"北區","LI":"元寶里","LIN":"3鄰","STREET":"北園街","SECT":" ","MAREA":" ","LANE":" ","ALLEY":" ","HOUSE_NO":"７２號五樓之３","E_COORD97":170359.95999999999,"N_COORD97":2545828.98,"ADDRESS":"北園街７２號五樓之３","OBJECTID":606314},"geometry":{"x":170359.96000000089,"y":2545828.9800000023}},{"attributes":{"ID":606342,"DIS_CODE":0,"TOWNNAME":"北區","LI":"元寶里","LIN":"3鄰","STREET":"北園街","SECT":" ","MAREA":" ","LANE":" ","ALLEY":" ","HOUSE_NO":"７２號六樓之１","E_COORD97":170359.95999999999,"N_COORD97":2545828.98,"ADDRESS":"北園街７２號六樓之１","OBJECTID":606315},"geometry":{"x":170359.96000000089,"y":2545828.9800000023}},{"attributes":{"ID":606343,"DIS_CODE":0,"TOWNNAME":"北區","LI":"元寶里","LIN":"3鄰","STREET":"北園街","SECT":" ","MAREA":" ","LANE":" ","ALLEY":" ","HOUSE_NO":"７２號六樓之２","E_COORD97":170359.95999999999,"N_COORD97":2545828.98,"ADDRESS":"北園街７２號六樓之２","OBJECTID":606316},"geometry":{"x":170359.96000000089,"y":2545828.9800000023}},{"attributes":{"ID":606344,"DIS_CODE":0,"TOWNNAME":"北區","LI":"元寶里","LIN":"3鄰","STREET":"北園街","SECT":" ","MAREA":" ","LANE":" ","ALLEY":" ","HOUSE_NO":"７２號六樓之３","E_COORD97":170359.95999999999,"N_COORD97":2545828.98,"ADDRESS":"北園街７２號六樓之３","OBJECTID":606317},"geometry":{"x":170359.96000000089,"y":2545828.9800000023}},{"attributes":{"ID":606345,"DIS_CODE":0,"TOWNNAME":"北區","LI":"元寶里","LIN":"3鄰","STREET":"北園街","SECT":" ","MAREA":" ","LANE":" ","ALLEY":" ","HOUSE_NO":"７２號六樓之４","E_COORD97":170359.95999999999,"N_COORD97":2545828.98,"ADDRESS":"北園街７２號六樓之４","OBJECTID":606318},"geometry":{"x":170359.96000000089,"y":2545828.9800000023}},{"attributes":{"ID":606346,"DIS_CODE":0,"TOWNNAME":"北區","LI":"元寶里","LIN":"3鄰","STREET":"北園街","SECT":" ","MAREA":" ","LANE":" ","ALLEY":" ","HOUSE_NO":"７２號四樓之１","E_COORD97":170359.95999999999,"N_COORD97":2545828.98,"ADDRESS":"北園街７２號四樓之１","OBJECTID":606319},"geometry":{"x":170359.96000000089,"y":2545828.9800000023}},{"attributes":{"ID":606347,"DIS_CODE":0,"TOWNNAME":"北區","LI":"元寶里","LIN":"3鄰","STREET":"北園街","SECT":" ","MAREA":" ","LANE":" ","ALLEY":" ","HOUSE_NO":"７２號四樓之２","E_COORD97":170359.95999999999,"N_COORD97":2545828.98,"ADDRESS":"北園街７２號四樓之２","OBJECTID":606320},"geometry":{"x":170359.96000000089,"y":2545828.9800000023}},{"attributes":{"ID":606348,"DIS_CODE":0,"TOWNNAME":"北區","LI":"元寶里","LIN":"3鄰","STREET":"北園街","SECT":" ","MAREA":" ","LANE":" ","ALLEY":" ","HOUSE_NO":"７２號四樓之３","E_COORD97":170359.95999999999,"N_COORD97":2545828.98,"ADDRESS":"北園街７２號四樓之３","OBJECTID":606321},"geometry":{"x":170359.96000000089,"y":2545828.9800000023}},{"attributes":{"ID":606349,"DIS_CODE":0,"TOWNNAME":"北區","LI":"元寶里","LIN":"3鄰","STREET":"北園街","SECT":" ","MAREA":" ","LANE":" ","ALLEY":" ","HOUSE_NO":"７２號四樓之４","E_COORD97":170359.95999999999,"N_COORD97":2545828.98,"ADDRESS":"北園街７２號四樓之４","OBJECTID":606322},"geometry":{"x":170359.96000000089,"y":2545828.9800000023}},{"attributes":{"ID":606350,"DIS_CODE":0,"TOWNNAME":"北區","LI":"三德里","LIN":"3鄰","STREET":"裕民街","SECT":" ","MAREA":" ","LANE":" ","ALLEY":" ","HOUSE_NO":"１０４號三樓之１","E_COORD97":168484.56,"N_COORD97":2544568.6699999999,"ADDRESS":"裕民街１０４號三樓之１","OBJECTID":606323},"geometry":{"x":168484.55999999959,"y":2544568.6699999981}},{"attributes":{"ID":606351,"DIS_CODE":0,"TOWNNAME":"新營區","LI":"民榮里","LIN":"3鄰","STREET":"新進路","SECT":"二段","MAREA":" ","LANE":" ","ALLEY":" ","HOUSE_NO":"４９６號五樓","E_COORD97":178673.42999999999,"N_COORD97":2578038.6400000001,"ADDRESS":"新進路二段４９６號五樓","OBJECTID":606324},"geometry":{"x":178673.43000000063,"y":2578038.6400000006}},{"attributes":{"ID":606352,"DIS_CODE":0,"TOWNNAME":"新營區","LI":"民榮里","LIN":"3鄰","STREET":"新進路","SECT":"二段","MAREA":" ","LANE":" ","ALLEY":" ","HOUSE_NO":"４９６之４號四樓","E_COORD97":178676.04999999999,"N_COORD97":2578064.1400000001,"ADDRESS":"新進路二段４９６之４號四樓","OBJECTID":606325},"geometry":{"x":178676.05000000075,"y":2578064.1400000025}},{"attributes":{"ID":606353,"DIS_CODE":0,"TOWNNAME":"新營區","LI":"民榮里","LIN":"3鄰","STREET":"新進路","SECT":"二段","MAREA":" ","LANE":" ","ALLEY":" ","HOUSE_NO":"４９６號九樓","E_COORD97":178673.54999999999,"N_COORD97":2578064.1000000001,"ADDRESS":"新進路二段４９６號九樓","OBJECTID":606326},"geometry":{"x":178673.54999999981,"y":2578064.1000000015}},{"attributes":{"ID":606354,"DIS_CODE":0,"TOWNNAME":"新營區","LI":"民榮里","LIN":"3鄰","STREET":"新進路","SECT":"二段","MAREA":" ","LANE":" ","ALLEY":" ","HOUSE_NO":"５００號八樓","E_COORD97":178673.37,"N_COORD97":2578038.6400000001,"ADDRESS":"新進路二段５００號八樓","OBJECTID":606327},"geometry":{"x":178673.37000000011,"y":2578038.6400000006}},{"attributes":{"ID":606355,"DIS_CODE":0,"TOWNNAME":"新營區","LI":"民榮里","LIN":"3鄰","STREET":"新進路","SECT":"二段","MAREA":" ","LANE":" ","ALLEY":" ","HOUSE_NO":"５０２號四樓","E_COORD97":178673.37,"N_COORD97":2578038.6400000001,"ADDRESS":"新進路二段５０２號四樓","OBJECTID":606328},"geometry":{"x":178673.37000000011,"y":2578038.6400000006}},{"attributes":{"ID":606356,"DIS_CODE":0,"TOWNNAME":"北區","LI":"三德里","LIN":"3鄰","STREET":"裕民街","SECT":" ","MAREA":" ","LANE":" ","ALLEY":" ","HOUSE_NO":"１０２號三樓之５","E_COORD97":168497.59,"N_COORD97":2544560.5800000001,"ADDRESS":"裕民街１０２號三樓之５","OBJECTID":606329},"geometry":{"x":168497.59000000078,"y":2544560.5800000019}},{"attributes":{"ID":606357,"DIS_CODE":0,"TOWNNAME":"新營區","LI":"民榮里","LIN":"3鄰","STREET":"新進路","SECT":"二段","MAREA":" ","LANE":" ","ALLEY":" ","HOUSE_NO":"４９６之３號五樓","E_COORD97":178676.04999999999,"N_COORD97":2578064.1400000001,"ADDRESS":"新進路二段４９６之３號五樓","OBJECTID":606330},"geometry":{"x":178676.05000000075,"y":2578064.1400000025}},{"attributes":{"ID":606358,"DIS_CODE":0,"TOWNNAME":"新營區","LI":"民榮里","LIN":"3鄰","STREET":"新進路","SECT":"二段","MAREA":" ","LANE":" ","ALLEY":" ","HOUSE_NO":"５００號九樓","E_COORD97":178673.37,"N_COORD97":2578038.6400000001,"ADDRESS":"新進路二段５００號九樓","OBJECTID":606331},"geometry":{"x":178673.37000000011,"y":2578038.6400000006}},{"attributes":{"ID":606359,"DIS_CODE":0,"TOWNNAME":"新營區","LI":"民榮里","LIN":"3鄰","STREET":"新進路","SECT":"二段","MAREA":" ","LANE":" ","ALLEY":" ","HOUSE_NO":"５００號十樓","E_COORD97":178673.37,"N_COORD97":2578038.6400000001,"ADDRESS":"新進路二段５００號十樓","OBJECTID":606332},"geometry":{"x":178673.37000000011,"y":2578038.6400000006}},{"attributes":{"ID":606360,"DIS_CODE":0,"TOWNNAME":"新營區","LI":"民榮里","LIN":"3鄰","STREET":"新進路","SECT":"二段","MAREA":" ","LANE":" ","ALLEY":" ","HOUSE_NO":"４９６號七樓","E_COORD97":178673.54999999999,"N_COORD97":2578064.1000000001,"ADDRESS":"新進路二段４９６號七樓","OBJECTID":606333},"geometry":{"x":178673.54999999981,"y":2578064.1000000015}},{"attributes":{"ID":606361,"DIS_CODE":0,"TOWNNAME":"新營區","LI":"民榮里","LIN":"3鄰","STREET":"新進路","SECT":"二段","MAREA":" ","LANE":" ","ALLEY":" ","HOUSE_NO":"４９６之３號四樓","E_COORD97":178676.04999999999,"N_COORD97":2578064.1400000001,"ADDRESS":"新進路二段４９６之３號四樓","OBJECTID":606334},"geometry":{"x":178676.05000000075,"y":2578064.1400000025}},{"attributes":{"ID":606362,"DIS_CODE":0,"TOWNNAME":"北區","LI":"三德里","LIN":"3鄰","STREET":"裕民街","SECT":" ","MAREA":" ","LANE":" ","ALLEY":" ","HOUSE_NO":"１０２號五樓之４","E_COORD97":168497.59,"N_COORD97":2544560.5800000001,"ADDRESS":"裕民街１０２號五樓之４","OBJECTID":606335},"geometry":{"x":168497.59000000078,"y":2544560.5800000019}},{"attributes":{"ID":606363,"DIS_CODE":0,"TOWNNAME":"新營區","LI":"民榮里","LIN":"3鄰","STREET":"新進路","SECT":"二段","MAREA":" ","LANE":" ","ALLEY":" ","HOUSE_NO":"５００之１號十樓","E_COORD97":178675.87,"N_COORD97":2578038.6800000002,"ADDRESS":"新進路二段５００之１號十樓","OBJECTID":606336},"geometry":{"x":178675.87000000104,"y":2578038.6800000016}},{"attributes":{"ID":606364,"DIS_CODE":0,"TOWNNAME":"新營區","LI":"民榮里","LIN":"3鄰","STREET":"新進路","SECT":"二段","MAREA":" ","LANE":" ","ALLEY":" ","HOUSE_NO":"５００之２號八樓","E_COORD97":178675.87,"N_COORD97":2578038.6800000002,"ADDRESS":"新進路二段５００之２號八樓","OBJECTID":606337},"geometry":{"x":178675.87000000104,"y":2578038.6800000016}},{"attributes":{"ID":606365,"DIS_CODE":0,"TOWNNAME":"新營區","LI":"民榮里","LIN":"3鄰","STREET":"新進路","SECT":"二段","MAREA":" ","LANE":" ","ALLEY":" ","HOUSE_NO":"５００之１號三樓","E_COORD97":178675.87,"N_COORD97":2578038.6800000002,"ADDRESS":"新進路二段５００之１號三樓","OBJECTID":606338},"geometry":{"x":178675.87000000104,"y":2578038.6800000016}},{"attributes":{"ID":606366,"DIS_CODE":0,"TOWNNAME":"新營區","LI":"民榮里","LIN":"3鄰","STREET":"新進路","SECT":"二段","MAREA":" ","LANE":" ","ALLEY":" ","HOUSE_NO":"５００之２號三樓","E_COORD97":178675.87,"N_COORD97":2578038.6800000002,"ADDRESS":"新進路二段５００之２號三樓","OBJECTID":606339},"geometry":{"x":178675.87000000104,"y":2578038.6800000016}},{"attributes":{"ID":606367,"DIS_CODE":0,"TOWNNAME":"新營區","LI":"民榮里","LIN":"3鄰","STREET":"新進路","SECT":"二段","MAREA":" ","LANE":" ","ALLEY":" ","HOUSE_NO":"５００之３號九樓","E_COORD97":178675.87,"N_COORD97":2578038.6800000002,"ADDRESS":"新進路二段５００之３號九樓","OBJECTID":606340},"geometry":{"x":178675.87000000104,"y":2578038.6800000016}},{"attributes":{"ID":606368,"DIS_CODE":0,"TOWNNAME":"新營區","LI":"民榮里","LIN":"3鄰","STREET":"新進路","SECT":"二段","MAREA":" ","LANE":" ","ALLEY":" ","HOUSE_NO":"５００之２號九樓","E_COORD97":178675.87,"N_COORD97":2578038.6800000002,"ADDRESS":"新進路二段５００之２號九樓","OBJECTID":606341},"geometry":{"x":178675.87000000104,"y":2578038.6800000016}},{"attributes":{"ID":606369,"DIS_CODE":0,"TOWNNAME":"新營區","LI":"民榮里","LIN":"3鄰","STREET":"新進路","SECT":"二段","MAREA":" ","LANE":" ","ALLEY":" ","HOUSE_NO":"５００之３號七樓","E_COORD97":178675.87,"N_COORD97":2578038.6800000002,"ADDRESS":"新進路二段５００之３號七樓","OBJECTID":606342},"geometry":{"x":178675.87000000104,"y":2578038.6800000016}},{"attributes":{"ID":606370,"DIS_CODE":0,"TOWNNAME":"新營區","LI":"民榮里","LIN":"3鄰","STREET":"新進路","SECT":"二段","MAREA":" ","LANE":" ","ALLEY":" ","HOUSE_NO":"４９８號四樓","E_COORD97":178673.42999999999,"N_COORD97":2578038.6400000001,"ADDRESS":"新進路二段４９８號四樓","OBJECTID":606343},"geometry":{"x":178673.43000000063,"y":2578038.6400000006}},{"attributes":{"ID":606371,"DIS_CODE":0,"TOWNNAME":"新營區","LI":"民榮里","LIN":"3鄰","STREET":"新進路","SECT":"二段","MAREA":" ","LANE":" ","ALLEY":" ","HOUSE_NO":"４９８號十二樓","E_COORD97":178674.67999999999,"N_COORD97":2578038.6400000001,"ADDRESS":"新進路二段４９８號十二樓","OBJECTID":606344},"geometry":{"x":178674.68000000063,"y":2578038.6400000006}},{"attributes":{"ID":606372,"DIS_CODE":0,"TOWNNAME":"永康區","LI":"西灣里","LIN":"34鄰","STREET":"國光八街","SECT":" ","MAREA":" ","LANE":" ","ALLEY":" ","HOUSE_NO":"１２６號","E_COORD97":174111.67000000001,"N_COORD97":2545750.7999999998,"ADDRESS":"國光八街１２６號","OBJECTID":606345},"geometry":{"x":174111.67000000086,"y":2545750.8000000007}},{"attributes":{"ID":606373,"DIS_CODE":0,"TOWNNAME":"北區","LI":"三德里","LIN":"3鄰","STREET":"裕民街","SECT":" ","MAREA":" ","LANE":" ","ALLEY":" ","HOUSE_NO":"１０２號二樓之２","E_COORD97":168497.59,"N_COORD97":2544560.5800000001,"ADDRESS":"裕民街１０２號二樓之２","OBJECTID":606346},"geometry":{"x":168497.59000000078,"y":2544560.5800000019}},{"attributes":{"ID":606374,"DIS_CODE":0,"TOWNNAME":"北區","LI":"三德里","LIN":"3鄰","STREET":"北華街","SECT":" ","MAREA":" ","LANE":" ","ALLEY":" ","HOUSE_NO":"２６９號二樓之１","E_COORD97":168507.20000000001,"N_COORD97":2544569.7599999998,"ADDRESS":"北華街２６９號二樓之１","OBJECTID":606347},"geometry":{"x":168507.20000000205,"y":2544569.7600000016}},{"attributes":{"ID":606375,"DIS_CODE":0,"TOWNNAME":"北區","LI":"三德里","LIN":"3鄰","STREET":"北華街","SECT":" ","MAREA":" ","LANE":" ","ALLEY":" ","HOUSE_NO":"２６９號二樓之２","E_COORD97":168507.20000000001,"N_COORD97":2544569.7599999998,"ADDRESS":"北華街２６９號二樓之２","OBJECTID":606348},"geometry":{"x":168507.20000000205,"y":2544569.7600000016}},{"attributes":{"ID":606376,"DIS_CODE":0,"TOWNNAME":"北區","LI":"三德里","LIN":"3鄰","STREET":"北華街","SECT":" ","MAREA":" ","LANE":" ","ALLEY":" ","HOUSE_NO":"２６９號三樓之１","E_COORD97":168507.20000000001,"N_COORD97":2544569.7599999998,"ADDRESS":"北華街２６９號三樓之１","OBJECTID":606349},"geometry":{"x":168507.20000000205,"y":2544569.7600000016}},{"attributes":{"ID":606377,"DIS_CODE":0,"TOWNNAME":"北區","LI":"三德里","LIN":"3鄰","STREET":"北華街","SECT":" ","MAREA":" ","LANE":" ","ALLEY":" ","HOUSE_NO":"２６９號三樓之２","E_COORD97":168507.20000000001,"N_COORD97":2544569.7599999998,"ADDRESS":"北華街２６９號三樓之２","OBJECTID":606350},"geometry":{"x":168507.20000000205,"y":2544569.7600000016}},{"attributes":{"ID":606378,"DIS_CODE":0,"TOWNNAME":"北區","LI":"三德里","LIN":"3鄰","STREET":"北華街","SECT":" ","MAREA":" ","LANE":" ","ALLEY":" ","HOUSE_NO":"２６９號五樓之１","E_COORD97":168507.20000000001,"N_COORD97":2544569.7599999998,"ADDRESS":"北華街２６９號五樓之１","OBJECTID":606351},"geometry":{"x":168507.20000000205,"y":2544569.7600000016}},{"attributes":{"ID":606379,"DIS_CODE":0,"TOWNNAME":"北區","LI":"三德里","LIN":"3鄰","STREET":"北華街","SECT":" ","MAREA":" ","LANE":" ","ALLEY":" ","HOUSE_NO":"２６９號五樓之２","E_COORD97":168507.20000000001,"N_COORD97":2544569.7599999998,"ADDRESS":"北華街２６９號五樓之２","OBJECTID":606352},"geometry":{"x":168507.20000000205,"y":2544569.7600000016}},{"attributes":{"ID":606380,"DIS_CODE":0,"TOWNNAME":"北區","LI":"三德里","LIN":"3鄰","STREET":"北華街","SECT":" ","MAREA":" ","LANE":" ","ALLEY":" ","HOUSE_NO":"２６９號四樓之１","E_COORD97":168507.20000000001,"N_COORD97":2544569.7599999998,"ADDRESS":"北華街２６９號四樓之１","OBJECTID":606353},"geometry":{"x":168507.20000000205,"y":2544569.7600000016}},{"attributes":{"ID":606381,"DIS_CODE":0,"TOWNNAME":"北區","LI":"三德里","LIN":"3鄰","STREET":"北華街","SECT":" ","MAREA":" ","LANE":" ","ALLEY":" ","HOUSE_NO":"２６９號四樓之２","E_COORD97":168507.20000000001,"N_COORD97":2544569.7599999998,"ADDRESS":"北華街２６９號四樓之２","OBJECTID":606354},"geometry":{"x":168507.20000000205,"y":2544569.7600000016}},{"attributes":{"ID":606382,"DIS_CODE":0,"TOWNNAME":"北區","LI":"三德里","LIN":"3鄰","STREET":"裕民街","SECT":" ","MAREA":" ","LANE":" ","ALLEY":" ","HOUSE_NO":"１０２號二樓之１","E_COORD97":168497.59,"N_COORD97":2544560.5800000001,"ADDRESS":"裕民街１０２號二樓之１","OBJECTID":606355},"geometry":{"x":168497.59000000078,"y":2544560.5800000019}},{"attributes":{"ID":606383,"DIS_CODE":0,"TOWNNAME":"北區","LI":"三德里","LIN":"3鄰","STREET":"裕民街","SECT":" ","MAREA":" ","LANE":" ","ALLEY":" ","HOUSE_NO":"１０２號二樓之３","E_COORD97":168497.59,"N_COORD97":2544560.5800000001,"ADDRESS":"裕民街１０２號二樓之３","OBJECTID":606356},"geometry":{"x":168497.59000000078,"y":2544560.5800000019}},{"attributes":{"ID":606384,"DIS_CODE":0,"TOWNNAME":"北區","LI":"三德里","LIN":"3鄰","STREET":"裕民街","SECT":" ","MAREA":" ","LANE":" ","ALLEY":" ","HOUSE_NO":"１０２號二樓之４","E_COORD97":168497.59,"N_COORD97":2544560.5800000001,"ADDRESS":"裕民街１０２號二樓之４","OBJECTID":606357},"geometry":{"x":168497.59000000078,"y":2544560.5800000019}},{"attributes":{"ID":606385,"DIS_CODE":0,"TOWNNAME":"北區","LI":"三德里","LIN":"3鄰","STREET":"裕民街","SECT":" ","MAREA":" ","LANE":" ","ALLEY":" ","HOUSE_NO":"１０２號二樓之５","E_COORD97":168497.59,"N_COORD97":2544560.5800000001,"ADDRESS":"裕民街１０２號二樓之５","OBJECTID":606358},"geometry":{"x":168497.59000000078,"y":2544560.5800000019}},{"attributes":{"ID":606386,"DIS_CODE":0,"TOWNNAME":"北區","LI":"三德里","LIN":"3鄰","STREET":"裕民街","SECT":" ","MAREA":" ","LANE":" ","ALLEY":" ","HOUSE_NO":"１０２號三樓之１","E_COORD97":168497.59,"N_COORD97":2544560.5800000001,"ADDRESS":"裕民街１０２號三樓之１","OBJECTID":606359},"geometry":{"x":168497.59000000078,"y":2544560.5800000019}},{"attributes":{"ID":606387,"DIS_CODE":0,"TOWNNAME":"北區","LI":"三德里","LIN":"3鄰","STREET":"裕民街","SECT":" ","MAREA":" ","LANE":" ","ALLEY":" ","HOUSE_NO":"１０２號三樓之２","E_COORD97":168497.59,"N_COORD97":2544560.5800000001,"ADDRESS":"裕民街１０２號三樓之２","OBJECTID":606360},"geometry":{"x":168497.59000000078,"y":2544560.5800000019}},{"attributes":{"ID":606388,"DIS_CODE":0,"TOWNNAME":"北區","LI":"三德里","LIN":"3鄰","STREET":"裕民街","SECT":" ","MAREA":" ","LANE":" ","ALLEY":" ","HOUSE_NO":"１０２號三樓之３","E_COORD97":168497.59,"N_COORD97":2544560.5800000001,"ADDRESS":"裕民街１０２號三樓之３","OBJECTID":606361},"geometry":{"x":168497.59000000078,"y":2544560.5800000019}},{"attributes":{"ID":606389,"DIS_CODE":0,"TOWNNAME":"北區","LI":"三德里","LIN":"3鄰","STREET":"裕民街","SECT":" ","MAREA":" ","LANE":" ","ALLEY":" ","HOUSE_NO":"１０２號三樓之４","E_COORD97":168497.59,"N_COORD97":2544560.5800000001,"ADDRESS":"裕民街１０２號三樓之４","OBJECTID":606362},"geometry":{"x":168497.59000000078,"y":2544560.5800000019}},{"attributes":{"ID":606390,"DIS_CODE":0,"TOWNNAME":"北區","LI":"三德里","LIN":"3鄰","STREET":"裕民街","SECT":" ","MAREA":" ","LANE":" ","ALLEY":" ","HOUSE_NO":"１０２號五樓之１","E_COORD97":168497.59,"N_COORD97":2544560.5800000001,"ADDRESS":"裕民街１０２號五樓之１","OBJECTID":606363},"geometry":{"x":168497.59000000078,"y":2544560.5800000019}},{"attributes":{"ID":606391,"DIS_CODE":0,"TOWNNAME":"北區","LI":"三德里","LIN":"3鄰","STREET":"裕民街","SECT":" ","MAREA":" ","LANE":" ","ALLEY":" ","HOUSE_NO":"１０２號五樓之２","E_COORD97":168497.59,"N_COORD97":2544560.5800000001,"ADDRESS":"裕民街１０２號五樓之２","OBJECTID":606364},"geometry":{"x":168497.59000000078,"y":2544560.5800000019}},{"attributes":{"ID":606392,"DIS_CODE":0,"TOWNNAME":"北區","LI":"三德里","LIN":"3鄰","STREET":"裕民街","SECT":" ","MAREA":" ","LANE":" ","ALLEY":" ","HOUSE_NO":"１０２號五樓之３","E_COORD97":168497.59,"N_COORD97":2544560.5800000001,"ADDRESS":"裕民街１０２號五樓之３","OBJECTID":606365},"geometry":{"x":168497.59000000078,"y":2544560.5800000019}},{"attributes":{"ID":606393,"DIS_CODE":0,"TOWNNAME":"北區","LI":"三德里","LIN":"3鄰","STREET":"裕民街","SECT":" ","MAREA":" ","LANE":" ","ALLEY":" ","HOUSE_NO":"１０２號五樓之５","E_COORD97":168497.59,"N_COORD97":2544560.5800000001,"ADDRESS":"裕民街１０２號五樓之５","OBJECTID":606366},"geometry":{"x":168497.59000000078,"y":2544560.5800000019}},{"attributes":{"ID":606394,"DIS_CODE":0,"TOWNNAME":"北區","LI":"三德里","LIN":"3鄰","STREET":"裕民街","SECT":" ","MAREA":" ","LANE":" ","ALLEY":" ","HOUSE_NO":"１０２號四樓之１","E_COORD97":168497.59,"N_COORD97":2544560.5800000001,"ADDRESS":"裕民街１０２號四樓之１","OBJECTID":606367},"geometry":{"x":168497.59000000078,"y":2544560.5800000019}},{"attributes":{"ID":606395,"DIS_CODE":0,"TOWNNAME":"北區","LI":"三德里","LIN":"3鄰","STREET":"裕民街","SECT":" ","MAREA":" ","LANE":" ","ALLEY":" ","HOUSE_NO":"１０２號四樓之２","E_COORD97":168497.59,"N_COORD97":2544560.5800000001,"ADDRESS":"裕民街１０２號四樓之２","OBJECTID":606368},"geometry":{"x":168497.59000000078,"y":2544560.5800000019}},{"attributes":{"ID":606396,"DIS_CODE":0,"TOWNNAME":"北區","LI":"三德里","LIN":"3鄰","STREET":"裕民街","SECT":" ","MAREA":" ","LANE":" ","ALLEY":" ","HOUSE_NO":"１０２號四樓之３","E_COORD97":168497.59,"N_COORD97":2544560.5800000001,"ADDRESS":"裕民街１０２號四樓之３","OBJECTID":606369},"geometry":{"x":168497.59000000078,"y":2544560.5800000019}},{"attributes":{"ID":606397,"DIS_CODE":0,"TOWNNAME":"北區","LI":"三德里","LIN":"3鄰","STREET":"裕民街","SECT":" ","MAREA":" ","LANE":" ","ALLEY":" ","HOUSE_NO":"１０２號四樓之４","E_COORD97":168497.59,"N_COORD97":2544560.5800000001,"ADDRESS":"裕民街１０２號四樓之４","OBJECTID":606370},"geometry":{"x":168497.59000000078,"y":2544560.5800000019}},{"attributes":{"ID":606398,"DIS_CODE":0,"TOWNNAME":"北區","LI":"三德里","LIN":"3鄰","STREET":"裕民街","SECT":" ","MAREA":" ","LANE":" ","ALLEY":" ","HOUSE_NO":"１０２號四樓之５","E_COORD97":168497.59,"N_COORD97":2544560.5800000001,"ADDRESS":"裕民街１０２號四樓之５","OBJECTID":606371},"geometry":{"x":168497.59000000078,"y":2544560.5800000019}},{"attributes":{"ID":606399,"DIS_CODE":0,"TOWNNAME":"北區","LI":"三德里","LIN":"3鄰","STREET":"裕民街","SECT":" ","MAREA":" ","LANE":" ","ALLEY":" ","HOUSE_NO":"１０４號三樓之２","E_COORD97":168484.56,"N_COORD97":2544568.6699999999,"ADDRESS":"裕民街１０４號三樓之２","OBJECTID":606372},"geometry":{"x":168484.55999999959,"y":2544568.6699999981}},{"attributes":{"ID":606400,"DIS_CODE":0,"TOWNNAME":"北區","LI":"三德里","LIN":"3鄰","STREET":"裕民街","SECT":" ","MAREA":" ","LANE":" ","ALLEY":" ","HOUSE_NO":"１０４號三樓之３","E_COORD97":168484.56,"N_COORD97":2544568.6699999999,"ADDRESS":"裕民街１０４號三樓之３","OBJECTID":606373},"geometry":{"x":168484.55999999959,"y":2544568.6699999981}},{"attributes":{"ID":606401,"DIS_CODE":0,"TOWNNAME":"北區","LI":"三德里","LIN":"3鄰","STREET":"裕民街","SECT":" ","MAREA":" ","LANE":" ","ALLEY":" ","HOUSE_NO":"１０４號四樓之１","E_COORD97":168484.56,"N_COORD97":2544568.6699999999,"ADDRESS":"裕民街１０４號四樓之１","OBJECTID":606374},"geometry":{"x":168484.55999999959,"y":2544568.6699999981}},{"attributes":{"ID":606402,"DIS_CODE":0,"TOWNNAME":"北區","LI":"三德里","LIN":"3鄰","STREET":"裕民街","SECT":" ","MAREA":" ","LANE":" ","ALLEY":" ","HOUSE_NO":"１０４號四樓之２","E_COORD97":168484.56,"N_COORD97":2544568.6699999999,"ADDRESS":"裕民街１０４號四樓之２","OBJECTID":606375},"geometry":{"x":168484.55999999959,"y":2544568.6699999981}},{"attributes":{"ID":606403,"DIS_CODE":0,"TOWNNAME":"永康區","LI":"勝利里","LIN":"24鄰","STREET":"勝利街","SECT":" ","MAREA":" ","LANE":" ","ALLEY":" ","HOUSE_NO":"９２之９號","E_COORD97":171372.29999999999,"N_COORD97":2544793.1099999999,"ADDRESS":"勝利街９２之９號","OBJECTID":606376},"geometry":{"x":171372.29999999981,"y":2544793.1100000013}},{"attributes":{"ID":606404,"DIS_CODE":0,"TOWNNAME":"永康區","LI":"北灣里","LIN":"3鄰","STREET":"信義街","SECT":" ","MAREA":" ","LANE":" ","ALLEY":" ","HOUSE_NO":"９１號","E_COORD97":175273.20000000001,"N_COORD97":2545637.2400000002,"ADDRESS":"信義街９１號","OBJECTID":606377},"geometry":{"x":175273.20000000112,"y":2545637.2400000021}},{"attributes":{"ID":606405,"DIS_CODE":0,"TOWNNAME":"永康區","LI":"北灣里","LIN":"3鄰","STREET":"信義街","SECT":" ","MAREA":" ","LANE":" ","ALLEY":" ","HOUSE_NO":"７３號","E_COORD97":175339.78,"N_COORD97":2545645.6400000001,"ADDRESS":"信義街７３號","OBJECTID":606378},"geometry":{"x":175339.78000000026,"y":2545645.6400000025}},{"attributes":{"ID":606406,"DIS_CODE":0,"TOWNNAME":"永康區","LI":"永康里","LIN":"3鄰","STREET":"中山路","SECT":" ","MAREA":" ","LANE":" ","ALLEY":" ","HOUSE_NO":"２號","E_COORD97":173880.54999999999,"N_COORD97":2547381.3599999999,"ADDRESS":"中山路２號","OBJECTID":606379},"geometry":{"x":173880.55000000075,"y":2547381.3600000013}},{"attributes":{"ID":606407,"DIS_CODE":0,"TOWNNAME":"永康區","LI":"永康里","LIN":"3鄰","STREET":"中山路","SECT":" ","MAREA":" ","LANE":" ","ALLEY":" ","HOUSE_NO":"７號","E_COORD97":173840.98000000001,"N_COORD97":2547430.7400000002,"ADDRESS":"中山路７號","OBJECTID":606380},"geometry":{"x":173840.98000000138,"y":2547430.7400000021}},{"attributes":{"ID":606408,"DIS_CODE":0,"TOWNNAME":"中西區","LI":"保安里","LIN":"3鄰","STREET":"保安路","SECT":" ","MAREA":" ","LANE":" ","ALLEY":" ","HOUSE_NO":"４８號","E_COORD97":167635.44,"N_COORD97":2543442.3599999999,"ADDRESS":"保安路４８號","OBJECTID":606381},"geometry":{"x":167635.44000000041,"y":2543442.3600000013}},{"attributes":{"ID":606409,"DIS_CODE":0,"TOWNNAME":"安南區","LI":"總頭里","LIN":"3鄰","STREET":"長溪路","SECT":"二段","MAREA":" ","LANE":" ","ALLEY":" ","HOUSE_NO":"５３０號","E_COORD97":168267.91,"N_COORD97":2550508.4700000002,"ADDRESS":"長溪路二段５３０號","OBJECTID":606382},"geometry":{"x":168267.91000000015,"y":2550508.4700000025}},{"attributes":{"ID":606410,"DIS_CODE":0,"TOWNNAME":"安南區","LI":"總頭里","LIN":"3鄰","STREET":"長溪路","SECT":"二段","MAREA":" ","LANE":" ","ALLEY":" ","HOUSE_NO":"５３６號","E_COORD97":168268.35999999999,"N_COORD97":2550516.1400000001,"ADDRESS":"長溪路二段５３６號","OBJECTID":606383},"geometry":{"x":168268.36000000034,"y":2550516.1400000006}},{"attributes":{"ID":606411,"DIS_CODE":0,"TOWNNAME":"安南區","LI":"總頭里","LIN":"3鄰","STREET":"長溪路","SECT":"二段","MAREA":" ","LANE":" ","ALLEY":" ","HOUSE_NO":"５３８號","E_COORD97":168268.35999999999,"N_COORD97":2550522.46,"ADDRESS":"長溪路二段５３８號","OBJECTID":606384},"geometry":{"x":168268.36000000034,"y":2550522.4600000028}},{"attributes":{"ID":606412,"DIS_CODE":0,"TOWNNAME":"中西區","LI":"保安里","LIN":"3鄰","STREET":"保安路","SECT":" ","MAREA":" ","LANE":" ","ALLEY":" ","HOUSE_NO":"５０號","E_COORD97":167631.70999999999,"N_COORD97":2543442.3599999999,"ADDRESS":"保安路５０號","OBJECTID":606385},"geometry":{"x":167631.70999999996,"y":2543442.3600000013}},{"attributes":{"ID":606413,"DIS_CODE":0,"TOWNNAME":"中西區","LI":"保安里","LIN":"3鄰","STREET":"保安路","SECT":" ","MAREA":" ","LANE":" ","ALLEY":" ","HOUSE_NO":"５２號","E_COORD97":167627.95999999999,"N_COORD97":2543443.1099999999,"ADDRESS":"保安路５２號","OBJECTID":606386},"geometry":{"x":167627.95999999996,"y":2543443.1100000031}},{"attributes":{"ID":606414,"DIS_CODE":0,"TOWNNAME":"安南區","LI":"\u25A0南里","LIN":"3鄰","STREET":"環福街","SECT":" ","MAREA":" ","LANE":" ","ALLEY":" ","HOUSE_NO":"７９號","E_COORD97":170304.26000000001,"N_COORD97":2552454.5,"ADDRESS":"環福街７９號","OBJECTID":606387},"geometry":{"x":170304.25999999978,"y":2552454.5}},{"attributes":{"ID":606415,"DIS_CODE":0,"TOWNNAME":"安南區","LI":"鳳凰里","LIN":"3鄰","STREET":"安中路","SECT":"一段","MAREA":" ","LANE":" ","ALLEY":" ","HOUSE_NO":"５６２號","E_COORD97":167991.47661000001,"N_COORD97":2549019.8497799998,"ADDRESS":"安中路一段５６２號","OBJECTID":606388},"geometry":{"x":167991.47661000118,"y":2549019.849778004}},{"attributes":{"ID":606416,"DIS_CODE":0,"TOWNNAME":"安南區","LI":"佃東里","LIN":"3鄰","STREET":"公學路","SECT":"四段","MAREA":" ","LANE":" ","ALLEY":" ","HOUSE_NO":"６１號","E_COORD97":165741.34,"N_COORD97":2552009.3799999999,"ADDRESS":"公學路四段６１號","OBJECTID":606389},"geometry":{"x":165741.34000000078,"y":2552009.3800000008}},{"attributes":{"ID":606417,"DIS_CODE":0,"TOWNNAME":"安南區","LI":"佃東里","LIN":"3鄰","STREET":"公學路","SECT":"四段","MAREA":" ","LANE":" ","ALLEY":" ","HOUSE_NO":"６３號","E_COORD97":165736.76999999999,"N_COORD97":2552007.2000000002,"ADDRESS":"公學路四段６３號","OBJECTID":606390},"geometry":{"x":165736.77000000048,"y":2552007.2000000011}},{"attributes":{"ID":606418,"DIS_CODE":0,"TOWNNAME":"安南區","LI":"佃東里","LIN":"3鄰","STREET":"公學路","SECT":"四段","MAREA":" ","LANE":" ","ALLEY":" ","HOUSE_NO":"６５號","E_COORD97":165732.19,"N_COORD97":2552009.48,"ADDRESS":"公學路四段６５號","OBJECTID":606391},"geometry":{"x":165732.19000000041,"y":2552009.4800000023}},{"attributes":{"ID":606419,"DIS_CODE":0,"TOWNNAME":"安南區","LI":"佃東里","LIN":"3鄰","STREET":"公學路","SECT":"四段","MAREA":" ","LANE":" ","ALLEY":" ","HOUSE_NO":"６７號","E_COORD97":165726.92999999999,"N_COORD97":2552006.5099999998,"ADDRESS":"公學路四段６７號","OBJECTID":606392},"geometry":{"x":165726.93000000063,"y":2552006.5100000016}},{"attributes":{"ID":606420,"DIS_CODE":0,"TOWNNAME":"安南區","LI":"總頭里","LIN":"3鄰","STREET":"總安街","SECT":"二段","MAREA":" ","LANE":" ","ALLEY":" ","HOUSE_NO":"３５８號","E_COORD97":168330.29999999999,"N_COORD97":2550516.6000000001,"ADDRESS":"總安街二段３５８號","OBJECTID":606393},"geometry":{"x":168330.30000000075,"y":2550516.6000000015}},{"attributes":{"ID":606421,"DIS_CODE":0,"TOWNNAME":"安南區","LI":"州南里","LIN":"3鄰","STREET":"北安路","SECT":"四段","MAREA":" ","LANE":" ","ALLEY":" ","HOUSE_NO":"２８０號之１","E_COORD97":169480.04000000001,"N_COORD97":2551223.1200000001,"ADDRESS":"北安路四段２８０號之１","OBJECTID":606394},"geometry":{"x":169480.04000000097,"y":2551223.1200000029}},{"attributes":{"ID":606422,"DIS_CODE":0,"TOWNNAME":"東區","LI":"崇文里","LIN":"3鄰","STREET":"崇德十六街","SECT":" ","MAREA":" ","LANE":" ","ALLEY":" ","HOUSE_NO":"５５號","E_COORD97":170970.66,"N_COORD97":2541143,"ADDRESS":"崇德十六街５５號","OBJECTID":606395},"geometry":{"x":170970.66000000108,"y":2541143.0000000019}},{"attributes":{"ID":606423,"DIS_CODE":0,"TOWNNAME":"東區","LI":"崇文里","LIN":"3鄰","STREET":"崇德十六街","SECT":" ","MAREA":" ","LANE":" ","ALLEY":" ","HOUSE_NO":"５７號","E_COORD97":170975.37,"N_COORD97":2541143,"ADDRESS":"崇德十六街５７號","OBJECTID":606396},"geometry":{"x":170975.37000000011,"y":2541143.0000000019}},{"attributes":{"ID":606424,"DIS_CODE":0,"TOWNNAME":"東區","LI":"崇文里","LIN":"3鄰","STREET":"崇德十六街","SECT":" ","MAREA":" ","LANE":" ","ALLEY":" ","HOUSE_NO":"５９號","E_COORD97":170980.51999999999,"N_COORD97":2541143,"ADDRESS":"崇德十六街５９號","OBJECTID":606397},"geometry":{"x":170980.51999999955,"y":2541143.0000000019}},{"attributes":{"ID":606425,"DIS_CODE":0,"TOWNNAME":"東區","LI":"崇文里","LIN":"3鄰","STREET":"崇德十六街","SECT":" ","MAREA":" ","LANE":" ","ALLEY":" ","HOUSE_NO":"５號","E_COORD97":170830.79000000001,"N_COORD97":2541146.9199999999,"ADDRESS":"崇德十六街５號","OBJECTID":606398},"geometry":{"x":170830.79000000097,"y":2541146.9200000018}},{"attributes":{"ID":606426,"DIS_CODE":0,"TOWNNAME":"東區","LI":"崇文里","LIN":"3鄰","STREET":"崇德十六街","SECT":" ","MAREA":" ","LANE":" ","ALLEY":" ","HOUSE_NO":"７１號","E_COORD97":171004.14999999999,"N_COORD97":2541147.25,"ADDRESS":"崇德十六街７１號","OBJECTID":606399},"geometry":{"x":171004.15000000037,"y":2541147.2499999981}},{"attributes":{"ID":606427,"DIS_CODE":0,"TOWNNAME":"白河區","LI":"白河里","LIN":"3鄰","STREET":"國泰路","SECT":" ","MAREA":" ","LANE":" ","ALLEY":" ","HOUSE_NO":"５號","E_COORD97":190266.09,"N_COORD97":2582801.02,"ADDRESS":"國泰路５號","OBJECTID":606400},"geometry":{"x":190266.09000000078,"y":2582801.0200000014}}]}