{"displayFieldName":"TOWNNAME","fieldAliases":{"ID":"ID","DIS_CODE":"DIS_CODE","TOWNNAME":"TOWNNAME","LI":"LI","LIN":"LIN","STREET":"STREET","SECT":"SECT","MAREA":"MAREA","LANE":"LANE","ALLEY":"ALLEY","HOUSE_NO":"HOUSE_NO","E_COORD97":"E_COORD97","N_COORD97":"N_COORD97","ADDRESS":"ADDRESS","OBJECTID":"OBJECTID"},"geometryType":"esriGeometryPoint","spatialReference":{"wkid":102443,"latestWkid":3826},"fields":[{"name":"ID","type":"esriFieldTypeDouble","alias":"ID"},{"name":"DIS_CODE","type":"esriFieldTypeInteger","alias":"DIS_CODE"},{"name":"TOWNNAME","type":"esriFieldTypeString","alias":"TOWNNAME","length":8},{"name":"LI","type":"esriFieldTypeString","alias":"LI","length":8},{"name":"LIN","type":"esriFieldTypeString","alias":"LIN","length":12},{"name":"STREET","type":"esriFieldTypeString","alias":"STREET","length":20},{"name":"SECT","type":"esriFieldTypeString","alias":"SECT","length":8},{"name":"MAREA","type":"esriFieldTypeString","alias":"MAREA","length":12},{"name":"LANE","type":"esriFieldTypeString","alias":"LANE","length":10},{"name":"ALLEY","type":"esriFieldTypeString","alias":"ALLEY","length":10},{"name":"HOUSE_NO","type":"esriFieldTypeString","alias":"HOUSE_NO","length":20},{"name":"E_COORD97","type":"esriFieldTypeDouble","alias":"E_COORD97"},{"name":"N_COORD97","type":"esriFieldTypeDouble","alias":"N_COORD97"},{"name":"ADDRESS","type":"esriFieldTypeString","alias":"ADDRESS","length":50},{"name":"OBJECTID","type":"esriFieldTypeOID","alias":"OBJECTID"}],"features":[{"attributes":{"ID":435026,"DIS_CODE":0,"TOWNNAME":"歸仁區","LI":"南保里","LIN":"24鄰","STREET":"民權六街","SECT":" ","MAREA":" ","LANE":"８１巷","ALLEY":" ","HOUSE_NO":"１號","E_COORD97":176786.48999999999,"N_COORD97":2541086.29,"ADDRESS":"民權六街８１巷１號","OBJECTID":435001},"geometry":{"x":176786.49000000115,"y":2541086.290000001}},{"attributes":{"ID":435027,"DIS_CODE":0,"TOWNNAME":"新營區","LI":"新東里","LIN":"25鄰","STREET":"民族路","SECT":" ","MAREA":" ","LANE":"１５０巷","ALLEY":" ","HOUSE_NO":"４４號","E_COORD97":180625.45000000001,"N_COORD97":2579347.21,"ADDRESS":"民族路１５０巷４４號","OBJECTID":435002},"geometry":{"x":180625.45000000019,"y":2579347.2100000009}},{"attributes":{"ID":435028,"DIS_CODE":0,"TOWNNAME":"新營區","LI":"興業里","LIN":" ","STREET":"中興路","SECT":" ","MAREA":" ","LANE":"１５巷","ALLEY":" ","HOUSE_NO":"２０之１號","E_COORD97":180239.69,"N_COORD97":2577917.1499999999,"ADDRESS":"中興路１５巷２０之１號","OBJECTID":435003},"geometry":{"x":180239.68999999948,"y":2577917.1500000041}},{"attributes":{"ID":435029,"DIS_CODE":0,"TOWNNAME":"新營區","LI":"南興里","LIN":"9鄰","STREET":"和平路","SECT":" ","MAREA":" ","LANE":"１０２巷","ALLEY":" ","HOUSE_NO":"２８號之２","E_COORD97":179325.82999999999,"N_COORD97":2577616.9300000002,"ADDRESS":"和平路１０２巷２８之２號","OBJECTID":435004},"geometry":{"x":179325.83000000007,"y":2577616.9300000016}},{"attributes":{"ID":435030,"DIS_CODE":0,"TOWNNAME":"新營區","LI":"大宏里","LIN":"25鄰","STREET":"同濟街","SECT":" ","MAREA":" ","LANE":"１３６巷","ALLEY":" ","HOUSE_NO":"１６號","E_COORD97":180506.95000000001,"N_COORD97":2578744.2000000002,"ADDRESS":"同濟街１３６巷１６號","OBJECTID":435005},"geometry":{"x":180506.95000000019,"y":2578744.2000000011}},{"attributes":{"ID":435031,"DIS_CODE":0,"TOWNNAME":"新營區","LI":"大宏里","LIN":"25鄰","STREET":"同濟街","SECT":" ","MAREA":" ","LANE":"１３６巷","ALLEY":" ","HOUSE_NO":"１５之１號","E_COORD97":180503.48999999999,"N_COORD97":2578780.8199999998,"ADDRESS":"同濟街１３６巷１５之１號","OBJECTID":435006},"geometry":{"x":180503.49000000022,"y":2578780.820000004}},{"attributes":{"ID":435032,"DIS_CODE":0,"TOWNNAME":"新營區","LI":"民生里","LIN":"25鄰","STREET":"民生路","SECT":" ","MAREA":" ","LANE":"１３９巷","ALLEY":" ","HOUSE_NO":"２８之４號","E_COORD97":179152.64999999999,"N_COORD97":2578621.1099999999,"ADDRESS":"民生路１３９巷２８之４號","OBJECTID":435007},"geometry":{"x":179152.65000000037,"y":2578621.1099999994}},{"attributes":{"ID":435033,"DIS_CODE":0,"TOWNNAME":"新營區","LI":"興業里","LIN":" ","STREET":"公誠街","SECT":" ","MAREA":" ","LANE":"９巷","ALLEY":" ","HOUSE_NO":"１０之１號","E_COORD97":180341.29000000001,"N_COORD97":2578003.0499999998,"ADDRESS":"公誠街９巷１０之１號","OBJECTID":435008},"geometry":{"x":180341.29000000097,"y":2578003.0500000045}},{"attributes":{"ID":435034,"DIS_CODE":0,"TOWNNAME":"新營區","LI":"南興里","LIN":"7鄰","STREET":"和平路","SECT":" ","MAREA":" ","LANE":"９５巷","ALLEY":" ","HOUSE_NO":"４號之１","E_COORD97":179435.01000000001,"N_COORD97":2577604.2200000002,"ADDRESS":"和平街９５巷４之１號","OBJECTID":435009},"geometry":{"x":179435.00999999978,"y":2577604.2200000007}},{"attributes":{"ID":435035,"DIS_CODE":0,"TOWNNAME":"新營區","LI":"興業里","LIN":" ","STREET":"公誠街","SECT":" ","MAREA":" ","LANE":"９巷","ALLEY":" ","HOUSE_NO":"１１之２號","E_COORD97":180350.56,"N_COORD97":2578017.3999999999,"ADDRESS":"公誠街９巷１１之２號","OBJECTID":435010},"geometry":{"x":180350.56000000052,"y":2578017.4000000041}},{"attributes":{"ID":435036,"DIS_CODE":0,"TOWNNAME":"新營區","LI":"南興里","LIN":"7鄰","STREET":"和平路","SECT":" ","MAREA":" ","LANE":"９５巷","ALLEY":" ","HOUSE_NO":"３２號","E_COORD97":179500.23999999999,"N_COORD97":2577601.6400000001,"ADDRESS":"和平街９５巷３２號","OBJECTID":435011},"geometry":{"x":179500.24000000209,"y":2577601.6400000006}},{"attributes":{"ID":435037,"DIS_CODE":0,"TOWNNAME":"新營區","LI":"新東里","LIN":"25鄰","STREET":"民族路","SECT":" ","MAREA":" ","LANE":"１５０巷","ALLEY":" ","HOUSE_NO":"５０號","E_COORD97":180612.09,"N_COORD97":2579347.27,"ADDRESS":"民族路１５０巷５０號","OBJECTID":435012},"geometry":{"x":180612.08999999985,"y":2579347.2700000014}},{"attributes":{"ID":435038,"DIS_CODE":0,"TOWNNAME":"新營區","LI":"興業里","LIN":" ","STREET":"中興路","SECT":" ","MAREA":" ","LANE":"１５巷","ALLEY":" ","HOUSE_NO":"２８之４號","E_COORD97":180280.60000000001,"N_COORD97":2577915.8500000001,"ADDRESS":"中興路１５巷２８之４號","OBJECTID":435013},"geometry":{"x":180280.60000000056,"y":2577915.8500000015}},{"attributes":{"ID":435039,"DIS_CODE":0,"TOWNNAME":"新營區","LI":"民榮里","LIN":" ","STREET":"和平路","SECT":" ","MAREA":" ","LANE":"３２巷","ALLEY":" ","HOUSE_NO":"７之７號","E_COORD97":179355.98000000001,"N_COORD97":2577775.1400000001,"ADDRESS":"和平路３２巷７之７號","OBJECTID":435014},"geometry":{"x":179355.98000000045,"y":2577775.1400000043}},{"attributes":{"ID":435040,"DIS_CODE":0,"TOWNNAME":"新營區","LI":"民榮里","LIN":" ","STREET":"復興路","SECT":" ","MAREA":" ","LANE":"５１１巷","ALLEY":" ","HOUSE_NO":"１號","E_COORD97":178185.39999999999,"N_COORD97":2578220.3700000001,"ADDRESS":"復興路５１１巷１號","OBJECTID":435015},"geometry":{"x":178185.39999999944,"y":2578220.370000001}},{"attributes":{"ID":435041,"DIS_CODE":0,"TOWNNAME":"新營區","LI":"南紙里","LIN":"18鄰","STREET":"南紙街","SECT":" ","MAREA":" ","LANE":"４４巷","ALLEY":" ","HOUSE_NO":"２號","E_COORD97":177777.89999999999,"N_COORD97":2577705.1699999999,"ADDRESS":"南紙街４４巷２號","OBJECTID":435016},"geometry":{"x":177777.90000000037,"y":2577705.1699999999}},{"attributes":{"ID":435042,"DIS_CODE":0,"TOWNNAME":"新營區","LI":"新東里","LIN":"4鄰","STREET":"東大街","SECT":" ","MAREA":" ","LANE":"５２巷","ALLEY":" ","HOUSE_NO":"２２號","E_COORD97":181106.19,"N_COORD97":2579135.6600000001,"ADDRESS":"東大街５２巷２２號","OBJECTID":435017},"geometry":{"x":181106.19000000227,"y":2579135.660000002}},{"attributes":{"ID":435043,"DIS_CODE":0,"TOWNNAME":"新營區","LI":"新北里","LIN":"20鄰","STREET":"民生路","SECT":" ","MAREA":" ","LANE":"３３６巷","ALLEY":" ","HOUSE_NO":"２號","E_COORD97":178946.16,"N_COORD97":2579216.73,"ADDRESS":"民生路３３６巷２號","OBJECTID":435018},"geometry":{"x":178946.16000000015,"y":2579216.7300000023}},{"attributes":{"ID":435044,"DIS_CODE":0,"TOWNNAME":"新營區","LI":"大宏里","LIN":"25鄰","STREET":"同濟街","SECT":" ","MAREA":" ","LANE":"１３６巷","ALLEY":" ","HOUSE_NO":"９號","E_COORD97":180486.29999999999,"N_COORD97":2578755.3599999999,"ADDRESS":"同濟街１３６巷９號","OBJECTID":435019},"geometry":{"x":180486.30000000075,"y":2578755.3599999975}},{"attributes":{"ID":435045,"DIS_CODE":0,"TOWNNAME":"新營區","LI":"興業里","LIN":" ","STREET":"公誠街","SECT":" ","MAREA":" ","LANE":"９巷","ALLEY":" ","HOUSE_NO":"１６之３號","E_COORD97":180366.85999999999,"N_COORD97":2578001.8199999998,"ADDRESS":"公誠街９巷１６之３號","OBJECTID":435020},"geometry":{"x":180366.86000000034,"y":2578001.8200000022}},{"attributes":{"ID":435046,"DIS_CODE":0,"TOWNNAME":"新營區","LI":"民榮里","LIN":" ","STREET":"復興路","SECT":" ","MAREA":" ","LANE":"４８９巷","ALLEY":" ","HOUSE_NO":"２８號","E_COORD97":178302.07000000001,"N_COORD97":2578172.1800000002,"ADDRESS":"復興路４８９巷２８號","OBJECTID":435021},"geometry":{"x":178302.0700000003,"y":2578172.1800000016}},{"attributes":{"ID":435047,"DIS_CODE":0,"TOWNNAME":"新營區","LI":"興業里","LIN":" ","STREET":"公誠街","SECT":" ","MAREA":" ","LANE":"９巷","ALLEY":" ","HOUSE_NO":"１１之４號","E_COORD97":180350.56,"N_COORD97":2578017.3999999999,"ADDRESS":"公誠街９巷１１之４號","OBJECTID":435022},"geometry":{"x":180350.56000000052,"y":2578017.4000000041}},{"attributes":{"ID":435048,"DIS_CODE":0,"TOWNNAME":"新營區","LI":"南興里","LIN":"7鄰","STREET":"和平路","SECT":" ","MAREA":" ","LANE":"９５巷","ALLEY":" ","HOUSE_NO":"３０號之１","E_COORD97":179496.60999999999,"N_COORD97":2577601.7200000002,"ADDRESS":"和平街９５巷３０之１號","OBJECTID":435023},"geometry":{"x":179496.61000000127,"y":2577601.7200000044}},{"attributes":{"ID":435049,"DIS_CODE":0,"TOWNNAME":"新營區","LI":"民榮里","LIN":"26鄰","STREET":"復興路","SECT":" ","MAREA":" ","LANE":"３０５巷","ALLEY":" ","HOUSE_NO":"１４號","E_COORD97":178488.84,"N_COORD97":2578100.4100000001,"ADDRESS":"復興路３０５巷１４號","OBJECTID":435024},"geometry":{"x":178488.84000000171,"y":2578100.4100000001}},{"attributes":{"ID":435050,"DIS_CODE":0,"TOWNNAME":"新營區","LI":"新東里","LIN":"25鄰","STREET":"民族路","SECT":" ","MAREA":" ","LANE":"１５０巷","ALLEY":" ","HOUSE_NO":"７０號","E_COORD97":180606.84,"N_COORD97":2579318.4900000002,"ADDRESS":"民族路１５０巷７０號","OBJECTID":435025},"geometry":{"x":180606.84000000078,"y":2579318.4900000039}},{"attributes":{"ID":435051,"DIS_CODE":0,"TOWNNAME":"新營區","LI":"南興里","LIN":"7鄰","STREET":"和平路","SECT":" ","MAREA":" ","LANE":"９５巷","ALLEY":" ","HOUSE_NO":"１４號之２","E_COORD97":179458.67000000001,"N_COORD97":2577603.0099999998,"ADDRESS":"和平街９５巷１４之２號","OBJECTID":435026},"geometry":{"x":179458.67000000086,"y":2577603.0100000016}},{"attributes":{"ID":435052,"DIS_CODE":0,"TOWNNAME":"新營區","LI":"王公里","LIN":"7鄰","STREET":"民治路","SECT":" ","MAREA":" ","LANE":"２６巷","ALLEY":" ","HOUSE_NO":"１９號之３","E_COORD97":180207.69,"N_COORD97":2578954.98,"ADDRESS":"民治路２６巷１９號之３","OBJECTID":435027},"geometry":{"x":180207.69000000227,"y":2578954.9800000004}},{"attributes":{"ID":435053,"DIS_CODE":0,"TOWNNAME":"新營區","LI":"新東里","LIN":"24鄰","STREET":"民治路","SECT":" ","MAREA":" ","LANE":"６巷","ALLEY":"２６弄","HOUSE_NO":"８號","E_COORD97":180655.73999999999,"N_COORD97":2578967.27,"ADDRESS":"民治路６巷２６弄８號","OBJECTID":435028},"geometry":{"x":180655.74000000022,"y":2578967.2700000014}},{"attributes":{"ID":435054,"DIS_CODE":0,"TOWNNAME":"新營區","LI":"新東里","LIN":"24鄰","STREET":"民治路","SECT":" ","MAREA":" ","LANE":"６巷","ALLEY":"２６弄","HOUSE_NO":"１０號","E_COORD97":180661.19751200001,"N_COORD97":2578968.0068299999,"ADDRESS":"民治路６巷２６弄１０號","OBJECTID":435029},"geometry":{"x":180661.1975120008,"y":2578968.0068260022}},{"attributes":{"ID":435055,"DIS_CODE":0,"TOWNNAME":"新營區","LI":"民榮里","LIN":" ","STREET":"復興路","SECT":" ","MAREA":" ","LANE":"３０５巷","ALLEY":" ","HOUSE_NO":"２５號","E_COORD97":178563.39999999999,"N_COORD97":2578061.29,"ADDRESS":"復興路３０５巷２５號","OBJECTID":435030},"geometry":{"x":178563.39999999944,"y":2578061.290000001}},{"attributes":{"ID":435056,"DIS_CODE":0,"TOWNNAME":"新營區","LI":"南興里","LIN":"9鄰","STREET":"和平路","SECT":" ","MAREA":" ","LANE":"１０２巷","ALLEY":" ","HOUSE_NO":"１４號之２","E_COORD97":179369.73000000001,"N_COORD97":2577614.5,"ADDRESS":"和平路１０２巷１４之２號","OBJECTID":435031},"geometry":{"x":179369.73000000045,"y":2577614.5}},{"attributes":{"ID":435057,"DIS_CODE":0,"TOWNNAME":"新營區","LI":"南紙里","LIN":"13鄰","STREET":"太子路","SECT":" ","MAREA":" ","LANE":"２３８巷","ALLEY":" ","HOUSE_NO":"３８號","E_COORD97":177789.51000000001,"N_COORD97":2577938.79,"ADDRESS":"太子路２３８巷３８號","OBJECTID":435032},"geometry":{"x":177789.51000000071,"y":2577938.7900000028}},{"attributes":{"ID":435058,"DIS_CODE":0,"TOWNNAME":"新營區","LI":"興業里","LIN":" ","STREET":"公誠街","SECT":" ","MAREA":" ","LANE":"９巷","ALLEY":" ","HOUSE_NO":"１１之３號","E_COORD97":180350.56,"N_COORD97":2578017.3999999999,"ADDRESS":"公誠街９巷１１之３號","OBJECTID":435033},"geometry":{"x":180350.56000000052,"y":2578017.4000000041}},{"attributes":{"ID":435059,"DIS_CODE":0,"TOWNNAME":"新營區","LI":"南興里","LIN":"11鄰","STREET":"和平路","SECT":" ","MAREA":" ","LANE":"１０２巷","ALLEY":" ","HOUSE_NO":"２７號之２","E_COORD97":179323.67999999999,"N_COORD97":2577593.6800000002,"ADDRESS":"和平路１０２巷２７之２號","OBJECTID":435034},"geometry":{"x":179323.68000000156,"y":2577593.6799999997}},{"attributes":{"ID":435060,"DIS_CODE":0,"TOWNNAME":"新營區","LI":"興業里","LIN":" ","STREET":"公誠街","SECT":" ","MAREA":" ","LANE":"９巷","ALLEY":" ","HOUSE_NO":"１２之１號","E_COORD97":180348.45000000001,"N_COORD97":2578003.02,"ADDRESS":"公誠街９巷１２之１號","OBJECTID":435035},"geometry":{"x":180348.45000000112,"y":2578003.0200000014}},{"attributes":{"ID":435061,"DIS_CODE":0,"TOWNNAME":"新營區","LI":"新東里","LIN":"25鄰","STREET":"民族路","SECT":" ","MAREA":" ","LANE":"１５０巷","ALLEY":" ","HOUSE_NO":"６０號","E_COORD97":180626.25,"N_COORD97":2579316.1899999999,"ADDRESS":"民族路１５０巷６０號","OBJECTID":435036},"geometry":{"x":180626.25000000093,"y":2579316.1900000032}},{"attributes":{"ID":435062,"DIS_CODE":0,"TOWNNAME":"新營區","LI":"新東里","LIN":"4鄰","STREET":"東大街","SECT":" ","MAREA":" ","LANE":"５２巷","ALLEY":" ","HOUSE_NO":"２４號","E_COORD97":181110.28,"N_COORD97":2579136.7400000002,"ADDRESS":"東大街５２巷２４號","OBJECTID":435037},"geometry":{"x":181110.27999999933,"y":2579136.7399999984}},{"attributes":{"ID":435063,"DIS_CODE":0,"TOWNNAME":"新營區","LI":"嘉芳里","LIN":" ","STREET":"新工路","SECT":" ","MAREA":" ","LANE":"４巷","ALLEY":" ","HOUSE_NO":"７之１號","E_COORD97":176239.51999999999,"N_COORD97":2578668.5499999998,"ADDRESS":"新工路４巷７之１號","OBJECTID":435038},"geometry":{"x":176239.52000000142,"y":2578668.5500000026}},{"attributes":{"ID":435064,"DIS_CODE":0,"TOWNNAME":"新營區","LI":"南興里","LIN":"9鄰","STREET":"和平路","SECT":" ","MAREA":" ","LANE":"１０２巷","ALLEY":" ","HOUSE_NO":"２２號之１","E_COORD97":179351.39999999999,"N_COORD97":2577615.7000000002,"ADDRESS":"和平路１０２巷２２之１號","OBJECTID":435039},"geometry":{"x":179351.40000000037,"y":2577615.6999999993}},{"attributes":{"ID":435065,"DIS_CODE":0,"TOWNNAME":"新營區","LI":"南興里","LIN":"7鄰","STREET":"和平路","SECT":" ","MAREA":" ","LANE":"９５巷","ALLEY":" ","HOUSE_NO":"１４號","E_COORD97":179456.17000000001,"N_COORD97":2577602.96,"ADDRESS":"和平街９５巷１４號","OBJECTID":435040},"geometry":{"x":179456.16999999899,"y":2577602.9600000009}},{"attributes":{"ID":435066,"DIS_CODE":0,"TOWNNAME":"新營區","LI":"興業里","LIN":" ","STREET":"中興路","SECT":" ","MAREA":" ","LANE":"１５巷","ALLEY":" ","HOUSE_NO":"２之２號","E_COORD97":180146.39999999999,"N_COORD97":2577920.8999999999,"ADDRESS":"中興路１５巷２之２號","OBJECTID":435041},"geometry":{"x":180146.40000000037,"y":2577920.9000000004}},{"attributes":{"ID":435067,"DIS_CODE":0,"TOWNNAME":"新營區","LI":"南興里","LIN":"7鄰","STREET":"和平路","SECT":" ","MAREA":" ","LANE":"９５巷","ALLEY":" ","HOUSE_NO":"６號","E_COORD97":179436.51999999999,"N_COORD97":2577603.04,"ADDRESS":"和平街９５巷６號","OBJECTID":435042},"geometry":{"x":179436.52000000142,"y":2577603.0399999991}},{"attributes":{"ID":435068,"DIS_CODE":0,"TOWNNAME":"新營區","LI":"大宏里","LIN":"25鄰","STREET":"同濟街","SECT":" ","MAREA":" ","LANE":"１３６巷","ALLEY":" ","HOUSE_NO":"２３號","E_COORD97":180524.47,"N_COORD97":2578756.2999999998,"ADDRESS":"同濟街１３６巷２３號","OBJECTID":435043},"geometry":{"x":180524.47000000067,"y":2578756.3000000007}},{"attributes":{"ID":435069,"DIS_CODE":0,"TOWNNAME":"新營區","LI":"南興里","LIN":"7鄰","STREET":"和平路","SECT":" ","MAREA":" ","LANE":"９５巷","ALLEY":" ","HOUSE_NO":"８號","E_COORD97":179441.70999999999,"N_COORD97":2577604.1299999999,"ADDRESS":"和平街９５巷８號","OBJECTID":435044},"geometry":{"x":179441.70999999996,"y":2577604.1300000027}},{"attributes":{"ID":435070,"DIS_CODE":0,"TOWNNAME":"新營區","LI":"南興里","LIN":" ","STREET":"和平路","SECT":" ","MAREA":" ","LANE":"１０４巷","ALLEY":" ","HOUSE_NO":"３之２號","E_COORD97":179388.70999999999,"N_COORD97":2577547.96,"ADDRESS":"和平路１０４巷３之２號","OBJECTID":435045},"geometry":{"x":179388.71000000089,"y":2577547.9600000009}},{"attributes":{"ID":435071,"DIS_CODE":0,"TOWNNAME":"新營區","LI":"興業里","LIN":" ","STREET":"公誠街","SECT":" ","MAREA":" ","LANE":"９巷","ALLEY":" ","HOUSE_NO":"１５之１號","E_COORD97":180367.95000000001,"N_COORD97":2578017.3199999998,"ADDRESS":"公誠街９巷１５之１號","OBJECTID":435046},"geometry":{"x":180367.95000000019,"y":2578017.3200000003}},{"attributes":{"ID":435072,"DIS_CODE":0,"TOWNNAME":"新營區","LI":"南紙里","LIN":"20鄰","STREET":"南紙街","SECT":" ","MAREA":" ","LANE":"１１７巷","ALLEY":" ","HOUSE_NO":"４５號","E_COORD97":177964.29999999999,"N_COORD97":2577492.7400000002,"ADDRESS":"南紙街１１７巷４５號","OBJECTID":435047},"geometry":{"x":177964.30000000075,"y":2577492.7400000039}},{"attributes":{"ID":435073,"DIS_CODE":0,"TOWNNAME":"新營區","LI":"新東里","LIN":"26鄰","STREET":"東興三街","SECT":" ","MAREA":" ","LANE":"２２巷","ALLEY":" ","HOUSE_NO":"５６號","E_COORD97":180644.12,"N_COORD97":2579415.7799999998,"ADDRESS":"東興三街２２巷５６號","OBJECTID":435048},"geometry":{"x":180644.12000000104,"y":2579415.7799999993}},{"attributes":{"ID":435074,"DIS_CODE":0,"TOWNNAME":"新營區","LI":"忠政里","LIN":"13鄰","STREET":"中正路","SECT":" ","MAREA":" ","LANE":"７７巷","ALLEY":" ","HOUSE_NO":"４號","E_COORD97":180037.32999999999,"N_COORD97":2579611.3199999998,"ADDRESS":"中正路７７巷４號","OBJECTID":435049},"geometry":{"x":180037.33000000101,"y":2579611.320000004}},{"attributes":{"ID":435075,"DIS_CODE":0,"TOWNNAME":"新營區","LI":"忠政里","LIN":"6鄰","STREET":"府西路","SECT":" ","MAREA":" ","LANE":"２２巷","ALLEY":" ","HOUSE_NO":"２５號","E_COORD97":179863.82999999999,"N_COORD97":2579213.46,"ADDRESS":"府西路２２巷２５號","OBJECTID":435050},"geometry":{"x":179863.83000000194,"y":2579213.4600000009}},{"attributes":{"ID":435076,"DIS_CODE":0,"TOWNNAME":"新營區","LI":"民榮里","LIN":" ","STREET":"裕民路","SECT":" ","MAREA":" ","LANE":"３４巷","ALLEY":" ","HOUSE_NO":"３０之１號","E_COORD97":179037.67999999999,"N_COORD97":2577890.73,"ADDRESS":"裕民路３４巷３０之１號","OBJECTID":435051},"geometry":{"x":179037.68000000063,"y":2577890.7300000023}},{"attributes":{"ID":435077,"DIS_CODE":0,"TOWNNAME":"北區","LI":"光武里","LIN":"4鄰","STREET":"大武街","SECT":" ","MAREA":" ","LANE":"１４１巷","ALLEY":" ","HOUSE_NO":"１０號","E_COORD97":169597.29999999999,"N_COORD97":2545877.9500000002,"ADDRESS":"大武街１４１巷１０號","OBJECTID":435052},"geometry":{"x":169597.29999999981,"y":2545877.9499999993}},{"attributes":{"ID":435078,"DIS_CODE":0,"TOWNNAME":"北區","LI":"光武里","LIN":"4鄰","STREET":"大武街","SECT":" ","MAREA":" ","LANE":"１４１巷","ALLEY":" ","HOUSE_NO":"１１號","E_COORD97":169594.95000000001,"N_COORD97":2545869.1299999999,"ADDRESS":"大武街１４１巷１１號","OBJECTID":435053},"geometry":{"x":169594.95000000019,"y":2545869.129999999}},{"attributes":{"ID":435079,"DIS_CODE":0,"TOWNNAME":"北區","LI":"光武里","LIN":"4鄰","STREET":"大武街","SECT":" ","MAREA":" ","LANE":"１４１巷","ALLEY":" ","HOUSE_NO":"１２號","E_COORD97":169593.59,"N_COORD97":2545877.1000000001,"ADDRESS":"大武街１４１巷１２號","OBJECTID":435054},"geometry":{"x":169593.58999999985,"y":2545877.0999999996}},{"attributes":{"ID":435080,"DIS_CODE":0,"TOWNNAME":"北區","LI":"光武里","LIN":"4鄰","STREET":"大武街","SECT":" ","MAREA":" ","LANE":"１４１巷","ALLEY":" ","HOUSE_NO":"１３號","E_COORD97":169591.37,"N_COORD97":2545870.0899999999,"ADDRESS":"大武街１４１巷１３號","OBJECTID":435055},"geometry":{"x":169591.37000000104,"y":2545870.0899999999}},{"attributes":{"ID":435081,"DIS_CODE":0,"TOWNNAME":"北區","LI":"光武里","LIN":"4鄰","STREET":"大武街","SECT":" ","MAREA":" ","LANE":"１４１巷","ALLEY":" ","HOUSE_NO":"１５號","E_COORD97":169587.79000000001,"N_COORD97":2545868.8999999999,"ADDRESS":"大武街１４１巷１５號","OBJECTID":435056},"geometry":{"x":169587.78999999911,"y":2545868.9000000004}},{"attributes":{"ID":435082,"DIS_CODE":0,"TOWNNAME":"北區","LI":"光武里","LIN":"4鄰","STREET":"大武街","SECT":" ","MAREA":" ","LANE":"１４１巷","ALLEY":" ","HOUSE_NO":"１６號","E_COORD97":169587.63,"N_COORD97":2545878.4900000002,"ADDRESS":"大武街１４１巷１６號","OBJECTID":435057},"geometry":{"x":169587.63000000082,"y":2545878.4900000002}},{"attributes":{"ID":435083,"DIS_CODE":0,"TOWNNAME":"北區","LI":"光武里","LIN":"4鄰","STREET":"大武街","SECT":" ","MAREA":" ","LANE":"１４１巷","ALLEY":" ","HOUSE_NO":"１７號","E_COORD97":169585.16,"N_COORD97":2545870.7999999998,"ADDRESS":"大武街１４１巷１７號","OBJECTID":435058},"geometry":{"x":169585.16000000015,"y":2545870.8000000045}},{"attributes":{"ID":435084,"DIS_CODE":0,"TOWNNAME":"北區","LI":"光武里","LIN":"4鄰","STREET":"大武街","SECT":" ","MAREA":" ","LANE":"１３３巷","ALLEY":" ","HOUSE_NO":"１２號","E_COORD97":169591.85000000001,"N_COORD97":2545849.8199999998,"ADDRESS":"大武街１３３巷１２號","OBJECTID":435059},"geometry":{"x":169591.84999999963,"y":2545849.820000004}},{"attributes":{"ID":435085,"DIS_CODE":0,"TOWNNAME":"北區","LI":"光武里","LIN":"4鄰","STREET":"大武街","SECT":" ","MAREA":" ","LANE":"１３３巷","ALLEY":" ","HOUSE_NO":"１６號","E_COORD97":169585.121594,"N_COORD97":2545851.2420700002,"ADDRESS":"大武街１３３巷１６號","OBJECTID":435060},"geometry":{"x":169585.12159400061,"y":2545851.2420729995}},{"attributes":{"ID":435086,"DIS_CODE":0,"TOWNNAME":"北區","LI":"光武里","LIN":"4鄰","STREET":"大武街","SECT":" ","MAREA":" ","LANE":"１３３巷","ALLEY":" ","HOUSE_NO":"１８號","E_COORD97":169583.01999999999,"N_COORD97":2545851.96,"ADDRESS":"大武街１３３巷１８號","OBJECTID":435061},"geometry":{"x":169583.02000000048,"y":2545851.9600000009}},{"attributes":{"ID":435087,"DIS_CODE":0,"TOWNNAME":"北區","LI":"光武里","LIN":"4鄰","STREET":"大武街","SECT":" ","MAREA":" ","LANE":"１３３巷","ALLEY":" ","HOUSE_NO":"２０號","E_COORD97":169580.14999999999,"N_COORD97":2545852.4399999999,"ADDRESS":"大武街１３３巷２０號","OBJECTID":435062},"geometry":{"x":169580.15000000037,"y":2545852.4400000013}},{"attributes":{"ID":435088,"DIS_CODE":0,"TOWNNAME":"北區","LI":"光武里","LIN":"4鄰","STREET":"大武街","SECT":" ","MAREA":" ","LANE":"１３３巷","ALLEY":" ","HOUSE_NO":"２２號","E_COORD97":169577.29000000001,"N_COORD97":2545853.3900000001,"ADDRESS":"大武街１３３巷２２號","OBJECTID":435063},"geometry":{"x":169577.29000000004,"y":2545853.3900000025}},{"attributes":{"ID":435089,"DIS_CODE":0,"TOWNNAME":"北區","LI":"光武里","LIN":"4鄰","STREET":"大武街","SECT":" ","MAREA":" ","LANE":"１３３巷","ALLEY":" ","HOUSE_NO":"２４號","E_COORD97":169574.42000000001,"N_COORD97":2545854.1099999999,"ADDRESS":"大武街１３３巷２４號","OBJECTID":435064},"geometry":{"x":169574.41999999993,"y":2545854.1100000013}},{"attributes":{"ID":435090,"DIS_CODE":0,"TOWNNAME":"北區","LI":"光武里","LIN":"4鄰","STREET":"大武街","SECT":" ","MAREA":" ","LANE":"１３３巷","ALLEY":" ","HOUSE_NO":"２６號","E_COORD97":169571.56,"N_COORD97":2545854.5899999999,"ADDRESS":"大武街１３３巷２６號","OBJECTID":435065},"geometry":{"x":169571.55999999959,"y":2545854.5900000017}},{"attributes":{"ID":435091,"DIS_CODE":0,"TOWNNAME":"北區","LI":"光武里","LIN":"4鄰","STREET":"大武街","SECT":" ","MAREA":" ","LANE":"１３３巷","ALLEY":" ","HOUSE_NO":"２８號","E_COORD97":169568.45000000001,"N_COORD97":2545855.0600000001,"ADDRESS":"大武街１３３巷２８號","OBJECTID":435066},"geometry":{"x":169568.45000000112,"y":2545855.0600000042}},{"attributes":{"ID":435092,"DIS_CODE":0,"TOWNNAME":"北區","LI":"光武里","LIN":"4鄰","STREET":"大武街","SECT":" ","MAREA":" ","LANE":"１３３巷","ALLEY":" ","HOUSE_NO":"３０號","E_COORD97":169565.82999999999,"N_COORD97":2545855.7799999998,"ADDRESS":"大武街１３３巷３０號","OBJECTID":435067},"geometry":{"x":169565.83000000101,"y":2545855.7800000031}},{"attributes":{"ID":435093,"DIS_CODE":0,"TOWNNAME":"北區","LI":"光武里","LIN":"4鄰","STREET":"大武街","SECT":" ","MAREA":" ","LANE":"１３３巷","ALLEY":" ","HOUSE_NO":"３２號","E_COORD97":169562.48000000001,"N_COORD97":2545856.02,"ADDRESS":"大武街１３３巷３２號","OBJECTID":435068},"geometry":{"x":169562.48000000045,"y":2545856.0200000014}},{"attributes":{"ID":435094,"DIS_CODE":0,"TOWNNAME":"北區","LI":"光武里","LIN":"4鄰","STREET":"大武街","SECT":" ","MAREA":" ","LANE":"１３３巷","ALLEY":" ","HOUSE_NO":"３４號","E_COORD97":169559.38,"N_COORD97":2545856.73,"ADDRESS":"大武街１３３巷３４號","OBJECTID":435069},"geometry":{"x":169559.37999999989,"y":2545856.7300000004}},{"attributes":{"ID":435095,"DIS_CODE":0,"TOWNNAME":"北區","LI":"光武里","LIN":"4鄰","STREET":"長榮路","SECT":"五段","MAREA":" ","LANE":"３８３巷","ALLEY":" ","HOUSE_NO":"２３號","E_COORD97":169551.10999999999,"N_COORD97":2545879.3300000001,"ADDRESS":"長榮路五段３８３巷２３號","OBJECTID":435070},"geometry":{"x":169551.11000000127,"y":2545879.3300000001}},{"attributes":{"ID":435096,"DIS_CODE":0,"TOWNNAME":"北區","LI":"光武里","LIN":"4鄰","STREET":"長榮路","SECT":"五段","MAREA":" ","LANE":"３８３巷","ALLEY":" ","HOUSE_NO":"２５號","E_COORD97":169551.10999999999,"N_COORD97":2545877.1499999999,"ADDRESS":"長榮路五段３８３巷２５號","OBJECTID":435071},"geometry":{"x":169551.11000000127,"y":2545877.1500000004}},{"attributes":{"ID":435097,"DIS_CODE":0,"TOWNNAME":"北區","LI":"光武里","LIN":"4鄰","STREET":"長榮路","SECT":"五段","MAREA":" ","LANE":"３８３巷","ALLEY":" ","HOUSE_NO":"２７號","E_COORD97":169550.48999999999,"N_COORD97":2545874.6499999999,"ADDRESS":"長榮路五段３８３巷２７號","OBJECTID":435072},"geometry":{"x":169550.49000000022,"y":2545874.6500000041}},{"attributes":{"ID":435098,"DIS_CODE":0,"TOWNNAME":"北區","LI":"光武里","LIN":"4鄰","STREET":"長榮路","SECT":"五段","MAREA":" ","LANE":"３８３巷","ALLEY":" ","HOUSE_NO":"２９號","E_COORD97":169550.48999999999,"N_COORD97":2545873.0899999999,"ADDRESS":"長榮路五段３８３巷２９號","OBJECTID":435073},"geometry":{"x":169550.49000000022,"y":2545873.0899999999}},{"attributes":{"ID":435099,"DIS_CODE":0,"TOWNNAME":"北區","LI":"長德里","LIN":"13鄰","STREET":"長北街","SECT":" ","MAREA":" ","LANE":"２１０巷","ALLEY":" ","HOUSE_NO":"１號","E_COORD97":168601.85000000001,"N_COORD97":2545034.4700000002,"ADDRESS":"長北街２１０巷１號","OBJECTID":435074},"geometry":{"x":168601.84999999963,"y":2545034.4700000007}},{"attributes":{"ID":435100,"DIS_CODE":0,"TOWNNAME":"北區","LI":"安民里","LIN":"7鄰","STREET":"成功路","SECT":" ","MAREA":" ","LANE":"４１０巷","ALLEY":" ","HOUSE_NO":"３０號","E_COORD97":167780.23999999999,"N_COORD97":2544644.9399999999,"ADDRESS":"成功路４１０巷３０號","OBJECTID":435075},"geometry":{"x":167780.24000000115,"y":2544644.9400000013}},{"attributes":{"ID":435101,"DIS_CODE":0,"TOWNNAME":"北區","LI":"安民里","LIN":"7鄰","STREET":"成功路","SECT":" ","MAREA":" ","LANE":"４１０巷","ALLEY":" ","HOUSE_NO":"３２號","E_COORD97":167776.03,"N_COORD97":2544646.6200000001,"ADDRESS":"成功路４１０巷３２號","OBJECTID":435076},"geometry":{"x":167776.03000000212,"y":2544646.6200000029}},{"attributes":{"ID":435102,"DIS_CODE":0,"TOWNNAME":"北區","LI":"安民里","LIN":"7鄰","STREET":"成功路","SECT":" ","MAREA":" ","LANE":"４１０巷","ALLEY":" ","HOUSE_NO":"３４號","E_COORD97":167771.82999999999,"N_COORD97":2544648.0899999999,"ADDRESS":"成功路４１０巷３４號","OBJECTID":435077},"geometry":{"x":167771.83000000007,"y":2544648.0900000017}},{"attributes":{"ID":435103,"DIS_CODE":0,"TOWNNAME":"北區","LI":"成德里","LIN":"34鄰","STREET":"文成路","SECT":" ","MAREA":" ","LANE":"１７１巷","ALLEY":" ","HOUSE_NO":"１０號","E_COORD97":168422.92999999999,"N_COORD97":2545929.96,"ADDRESS":"文成路１７１巷１０號","OBJECTID":435078},"geometry":{"x":168422.9299999997,"y":2545929.9600000009}},{"attributes":{"ID":435104,"DIS_CODE":0,"TOWNNAME":"北區","LI":"成德里","LIN":"23鄰","STREET":"中華北路","SECT":"二段","MAREA":" ","LANE":"１９４巷","ALLEY":" ","HOUSE_NO":"２０號","E_COORD97":168292.67999999999,"N_COORD97":2546781.9100000001,"ADDRESS":"中華北路二段１９４巷２０號","OBJECTID":435079},"geometry":{"x":168292.6799999997,"y":2546781.910000002}},{"attributes":{"ID":435105,"DIS_CODE":0,"TOWNNAME":"北區","LI":"成德里","LIN":"41鄰","STREET":"文成一路","SECT":" ","MAREA":" ","LANE":"２００巷","ALLEY":" ","HOUSE_NO":"１０號","E_COORD97":168310.12,"N_COORD97":2546098.0099999998,"ADDRESS":"文成一路２００巷１０號","OBJECTID":435080},"geometry":{"x":168310.12000000011,"y":2546098.0099999998}},{"attributes":{"ID":435106,"DIS_CODE":0,"TOWNNAME":"北區","LI":"成德里","LIN":"41鄰","STREET":"文成一路","SECT":" ","MAREA":" ","LANE":"２００巷","ALLEY":" ","HOUSE_NO":"１１號","E_COORD97":168294.09,"N_COORD97":2546097.1800000002,"ADDRESS":"文成一路２００巷１１號","OBJECTID":435081},"geometry":{"x":168294.09000000078,"y":2546097.1799999997}},{"attributes":{"ID":435107,"DIS_CODE":0,"TOWNNAME":"北區","LI":"成德里","LIN":"41鄰","STREET":"文成一路","SECT":" ","MAREA":" ","LANE":"２００巷","ALLEY":" ","HOUSE_NO":"１２號","E_COORD97":168309.98999999999,"N_COORD97":2546104,"ADDRESS":"文成一路２００巷１２號","OBJECTID":435082},"geometry":{"x":168309.99000000022,"y":2546104.0000000019}},{"attributes":{"ID":435108,"DIS_CODE":0,"TOWNNAME":"北區","LI":"成德里","LIN":"41鄰","STREET":"文成一路","SECT":" ","MAREA":" ","LANE":"２００巷","ALLEY":" ","HOUSE_NO":"１３號","E_COORD97":168293.67999999999,"N_COORD97":2546103.1600000001,"ADDRESS":"文成一路２００巷１３號","OBJECTID":435083},"geometry":{"x":168293.68000000063,"y":2546103.160000002}},{"attributes":{"ID":435109,"DIS_CODE":0,"TOWNNAME":"北區","LI":"成德里","LIN":"41鄰","STREET":"文成一路","SECT":" ","MAREA":" ","LANE":"２００巷","ALLEY":" ","HOUSE_NO":"１５號","E_COORD97":168293.26000000001,"N_COORD97":2546109.71,"ADDRESS":"文成一路２００巷１５號","OBJECTID":435084},"geometry":{"x":168293.26000000071,"y":2546109.7100000028}},{"attributes":{"ID":435110,"DIS_CODE":0,"TOWNNAME":"北區","LI":"成德里","LIN":"41鄰","STREET":"文成一路","SECT":" ","MAREA":" ","LANE":"２００巷","ALLEY":" ","HOUSE_NO":"１６號","E_COORD97":168309.29000000001,"N_COORD97":2546111.1000000001,"ADDRESS":"文成一路２００巷１６號","OBJECTID":435085},"geometry":{"x":168309.29000000004,"y":2546111.0999999996}},{"attributes":{"ID":435111,"DIS_CODE":0,"TOWNNAME":"北區","LI":"成德里","LIN":"41鄰","STREET":"文成一路","SECT":" ","MAREA":" ","LANE":"２００巷","ALLEY":" ","HOUSE_NO":"１號","E_COORD97":168296.32000000001,"N_COORD97":2546066.8199999998,"ADDRESS":"文成一路２００巷１號","OBJECTID":435086},"geometry":{"x":168296.32000000216,"y":2546066.820000004}},{"attributes":{"ID":435112,"DIS_CODE":0,"TOWNNAME":"北區","LI":"成德里","LIN":"41鄰","STREET":"文成一路","SECT":" ","MAREA":" ","LANE":"２００巷","ALLEY":" ","HOUSE_NO":"３號","E_COORD97":168295.91,"N_COORD97":2546073.9199999999,"ADDRESS":"文成一路２００巷３號","OBJECTID":435087},"geometry":{"x":168295.91000000108,"y":2546073.9200000018}},{"attributes":{"ID":435113,"DIS_CODE":0,"TOWNNAME":"北區","LI":"成德里","LIN":"41鄰","STREET":"文成一路","SECT":" ","MAREA":" ","LANE":"２００巷","ALLEY":" ","HOUSE_NO":"５號","E_COORD97":168295.48999999999,"N_COORD97":2546079.6299999999,"ADDRESS":"文成一路２００巷５號","OBJECTID":435088},"geometry":{"x":168295.49000000115,"y":2546079.629999999}},{"attributes":{"ID":435114,"DIS_CODE":0,"TOWNNAME":"北區","LI":"成德里","LIN":"41鄰","STREET":"文成一路","SECT":" ","MAREA":" ","LANE":"２００巷","ALLEY":" ","HOUSE_NO":"６號","E_COORD97":168310.95999999999,"N_COORD97":2546086.5899999999,"ADDRESS":"文成一路２００巷６號","OBJECTID":435089},"geometry":{"x":168310.96000000089,"y":2546086.5899999999}},{"attributes":{"ID":435115,"DIS_CODE":0,"TOWNNAME":"北區","LI":"成德里","LIN":"41鄰","STREET":"文成一路","SECT":" ","MAREA":" ","LANE":"２００巷","ALLEY":" ","HOUSE_NO":"７號","E_COORD97":168294.92999999999,"N_COORD97":2546085.7599999998,"ADDRESS":"文成一路２００巷７號","OBJECTID":435090},"geometry":{"x":168294.93000000156,"y":2546085.7599999998}},{"attributes":{"ID":435116,"DIS_CODE":0,"TOWNNAME":"北區","LI":"成德里","LIN":"41鄰","STREET":"文成一路","SECT":" ","MAREA":" ","LANE":"２００巷","ALLEY":" ","HOUSE_NO":"８號","E_COORD97":168310.54000000001,"N_COORD97":2546092.2999999998,"ADDRESS":"文成一路２００巷８號","OBJECTID":435091},"geometry":{"x":168310.54000000097,"y":2546092.3000000026}},{"attributes":{"ID":435117,"DIS_CODE":0,"TOWNNAME":"北區","LI":"成德里","LIN":"41鄰","STREET":"文成一路","SECT":" ","MAREA":" ","LANE":"２００巷","ALLEY":" ","HOUSE_NO":"９號","E_COORD97":168294.51000000001,"N_COORD97":2546091.3300000001,"ADDRESS":"文成一路２００巷９號","OBJECTID":435092},"geometry":{"x":168294.51000000071,"y":2546091.3300000019}},{"attributes":{"ID":435118,"DIS_CODE":0,"TOWNNAME":"北區","LI":"成德里","LIN":"10鄰","STREET":"西門路","SECT":"四段","MAREA":" ","LANE":"１７１巷","ALLEY":" ","HOUSE_NO":"２２號","E_COORD97":168725.01000000001,"N_COORD97":2545698.73,"ADDRESS":"西門路四段１７１巷２２號","OBJECTID":435093},"geometry":{"x":168725.01000000164,"y":2545698.7300000023}},{"attributes":{"ID":435119,"DIS_CODE":0,"TOWNNAME":"北區","LI":"成功里","LIN":"15鄰","STREET":"西門路","SECT":"四段","MAREA":" ","LANE":"５３３巷","ALLEY":" ","HOUSE_NO":"１５號","E_COORD97":169215.54000000001,"N_COORD97":2546765.6499999999,"ADDRESS":"西門路四段５３３巷１５號","OBJECTID":435094},"geometry":{"x":169215.54000000097,"y":2546765.6500000004}},{"attributes":{"ID":435120,"DIS_CODE":0,"TOWNNAME":"北區","LI":"成功里","LIN":"15鄰","STREET":"西門路","SECT":"四段","MAREA":" ","LANE":"５３３巷","ALLEY":" ","HOUSE_NO":"４號","E_COORD97":169291.81,"N_COORD97":2546691.4399999999,"ADDRESS":"西門路四段５３３巷４號","OBJECTID":435095},"geometry":{"x":169291.80999999959,"y":2546691.4399999995}},{"attributes":{"ID":435121,"DIS_CODE":0,"TOWNNAME":"北區","LI":"成功里","LIN":"15鄰","STREET":"西門路","SECT":"四段","MAREA":" ","LANE":"５３３巷","ALLEY":" ","HOUSE_NO":"５號","E_COORD97":169240.23999999999,"N_COORD97":2546764.6400000001,"ADDRESS":"西門路四段５３３巷５號","OBJECTID":435096},"geometry":{"x":169240.24000000022,"y":2546764.6400000025}},{"attributes":{"ID":435122,"DIS_CODE":0,"TOWNNAME":"北區","LI":"成功里","LIN":"15鄰","STREET":"西門路","SECT":"四段","MAREA":" ","LANE":"５３３巷","ALLEY":" ","HOUSE_NO":"６號","E_COORD97":169229,"N_COORD97":2546770.4300000002,"ADDRESS":"西門路四段５３３巷６號","OBJECTID":435097},"geometry":{"x":169229.00000000093,"y":2546770.4299999978}},{"attributes":{"ID":435123,"DIS_CODE":0,"TOWNNAME":"北區","LI":"成功里","LIN":"15鄰","STREET":"西門路","SECT":"四段","MAREA":" ","LANE":"５３３巷","ALLEY":" ","HOUSE_NO":"８號","E_COORD97":169203.5,"N_COORD97":2546804.98,"ADDRESS":"西門路四段５３３巷８號","OBJECTID":435098},"geometry":{"x":169203.50000000093,"y":2546804.9800000042}},{"attributes":{"ID":435124,"DIS_CODE":0,"TOWNNAME":"鹽水區","LI":"水仙里","LIN":"4鄰","STREET":"中山路","SECT":" ","MAREA":" ","LANE":"３巷","ALLEY":" ","HOUSE_NO":"１５號","E_COORD97":175043.32999999999,"N_COORD97":2579770.04,"ADDRESS":"中山路３巷１５號","OBJECTID":435099},"geometry":{"x":175043.33000000101,"y":2579770.0399999991}},{"attributes":{"ID":435125,"DIS_CODE":0,"TOWNNAME":"鹽水區","LI":"水仙里","LIN":"8鄰","STREET":"中山路","SECT":" ","MAREA":" ","LANE":"３巷","ALLEY":" ","HOUSE_NO":"２６號","E_COORD97":175027.32999999999,"N_COORD97":2579837.98,"ADDRESS":"中山路３巷２６號","OBJECTID":435100},"geometry":{"x":175027.33000000007,"y":2579837.9800000023}},{"attributes":{"ID":435126,"DIS_CODE":0,"TOWNNAME":"鹽水區","LI":"水仙里","LIN":"4鄰","STREET":"中正路","SECT":" ","MAREA":" ","LANE":"１２４巷","ALLEY":" ","HOUSE_NO":"１５號","E_COORD97":175033.13,"N_COORD97":2579730.4199999999,"ADDRESS":"中正路１２４巷１５號","OBJECTID":435101},"geometry":{"x":175033.12999999989,"y":2579730.4200000018}},{"attributes":{"ID":435127,"DIS_CODE":0,"TOWNNAME":"鹽水區","LI":"水仙里","LIN":"4鄰","STREET":"中正路","SECT":" ","MAREA":" ","LANE":"１２４巷","ALLEY":" ","HOUSE_NO":"１７號","E_COORD97":175025.88,"N_COORD97":2579755.1699999999,"ADDRESS":"中正路１２４巷１７號","OBJECTID":435102},"geometry":{"x":175025.88000000082,"y":2579755.1700000018}},{"attributes":{"ID":435128,"DIS_CODE":0,"TOWNNAME":"鹽水區","LI":"水仙里","LIN":"4鄰","STREET":"中正路","SECT":" ","MAREA":" ","LANE":"１２４巷","ALLEY":" ","HOUSE_NO":"１９號","E_COORD97":175033.57999999999,"N_COORD97":2579755.2999999998,"ADDRESS":"中正路１２４巷１９號","OBJECTID":435103},"geometry":{"x":175033.58000000007,"y":2579755.3000000026}},{"attributes":{"ID":435129,"DIS_CODE":0,"TOWNNAME":"鹽水區","LI":"水仙里","LIN":"4鄰","STREET":"中正路","SECT":" ","MAREA":" ","LANE":"１２４巷","ALLEY":" ","HOUSE_NO":"２０號","E_COORD97":175039.37,"N_COORD97":2579756.3199999998,"ADDRESS":"中正路１２４巷２０號","OBJECTID":435104},"geometry":{"x":175039.37000000104,"y":2579756.3200000003}},{"attributes":{"ID":435130,"DIS_CODE":0,"TOWNNAME":"鹽水區","LI":"水仙里","LIN":"4鄰","STREET":"中正路","SECT":" ","MAREA":" ","LANE":"１２４巷","ALLEY":" ","HOUSE_NO":"２５號","E_COORD97":175016.26999999999,"N_COORD97":2579751.3799999999,"ADDRESS":"中正路１２４巷２５號","OBJECTID":435105},"geometry":{"x":175016.27000000048,"y":2579751.379999999}},{"attributes":{"ID":435131,"DIS_CODE":0,"TOWNNAME":"鹽水區","LI":"水仙里","LIN":"4鄰","STREET":"中正路","SECT":" ","MAREA":" ","LANE":"１４２巷","ALLEY":" ","HOUSE_NO":"２１號","E_COORD97":175043.91,"N_COORD97":2579747.9300000002,"ADDRESS":"中正路１４２巷２１號","OBJECTID":435106},"geometry":{"x":175043.90999999922,"y":2579747.9299999997}},{"attributes":{"ID":435132,"DIS_CODE":0,"TOWNNAME":"鹽水區","LI":"水正里","LIN":"17鄰","STREET":"中正路","SECT":" ","MAREA":" ","LANE":"１４２巷","ALLEY":" ","HOUSE_NO":"１號","E_COORD97":175031.73000000001,"N_COORD97":2579690.6099999999,"ADDRESS":"中正路１４２巷１號","OBJECTID":435107},"geometry":{"x":175031.73000000045,"y":2579690.6100000013}},{"attributes":{"ID":435133,"DIS_CODE":0,"TOWNNAME":"關廟區","LI":"山西里","LIN":"13鄰","STREET":"文衡路","SECT":" ","MAREA":" ","LANE":"１３３巷","ALLEY":" ","HOUSE_NO":"１５號","E_COORD97":180857.92999999999,"N_COORD97":2540546.0099999998,"ADDRESS":"文衡路１３３巷１５號","OBJECTID":435108},"geometry":{"x":180857.93000000156,"y":2540546.0100000016}},{"attributes":{"ID":435134,"DIS_CODE":0,"TOWNNAME":"關廟區","LI":"山西里","LIN":"13鄰","STREET":"文衡路","SECT":" ","MAREA":" ","LANE":"１３３巷","ALLEY":" ","HOUSE_NO":"３５號","E_COORD97":180840.32999999999,"N_COORD97":2540572.0099999998,"ADDRESS":"文衡路１３３巷３５號","OBJECTID":435109},"geometry":{"x":180840.33000000194,"y":2540572.0099999998}},{"attributes":{"ID":435135,"DIS_CODE":0,"TOWNNAME":"關廟區","LI":"下湖里","LIN":"4鄰","STREET":"下湖二街","SECT":" ","MAREA":" ","LANE":"６９巷","ALLEY":" ","HOUSE_NO":"１１號","E_COORD97":179335.44,"N_COORD97":2543059.25,"ADDRESS":"下湖二街６９巷１１號","OBJECTID":435110},"geometry":{"x":179335.44000000041,"y":2543059.25}},{"attributes":{"ID":435136,"DIS_CODE":0,"TOWNNAME":"關廟區","LI":"山西里","LIN":"18鄰","STREET":"崇明街","SECT":" ","MAREA":" ","LANE":"６９巷","ALLEY":" ","HOUSE_NO":"６號","E_COORD97":180934.82000000001,"N_COORD97":2540816.25,"ADDRESS":"崇明街６９巷６號","OBJECTID":435111},"geometry":{"x":180934.8200000003,"y":2540816.2500000019}},{"attributes":{"ID":435137,"DIS_CODE":0,"TOWNNAME":"關廟區","LI":"山西里","LIN":"20鄰","STREET":"崇平路","SECT":" ","MAREA":" ","LANE":"１０７巷","ALLEY":" ","HOUSE_NO":"９號","E_COORD97":180709.87,"N_COORD97":2540312.46,"ADDRESS":"崇平路１０７巷９號","OBJECTID":435112},"geometry":{"x":180709.87000000104,"y":2540312.4600000009}},{"attributes":{"ID":435138,"DIS_CODE":0,"TOWNNAME":"關廟區","LI":"山西里","LIN":"13鄰","STREET":"文衡路","SECT":" ","MAREA":" ","LANE":"１３３巷","ALLEY":" ","HOUSE_NO":"４３號","E_COORD97":180841.42999999999,"N_COORD97":2540589.0099999998,"ADDRESS":"文衡路１３３巷４３號","OBJECTID":435113},"geometry":{"x":180841.43000000063,"y":2540589.0099999998}},{"attributes":{"ID":435139,"DIS_CODE":0,"TOWNNAME":"關廟區","LI":"五甲里","LIN":"17鄰","STREET":"五甲路","SECT":" ","MAREA":" ","LANE":"１５０巷","ALLEY":" ","HOUSE_NO":"２號","E_COORD97":181095.76999999999,"N_COORD97":2539019.25,"ADDRESS":"五甲路１５０巷２號","OBJECTID":435114},"geometry":{"x":181095.76999999955,"y":2539019.2500000019}},{"attributes":{"ID":435140,"DIS_CODE":0,"TOWNNAME":"關廟區","LI":"田中里","LIN":"4鄰","STREET":"田大路","SECT":" ","MAREA":" ","LANE":"８０巷","ALLEY":" ","HOUSE_NO":"１２號","E_COORD97":184212.19,"N_COORD97":2533756.25,"ADDRESS":"田大路８０巷１２號","OBJECTID":435115},"geometry":{"x":184212.19000000134,"y":2533756.2499999981}},{"attributes":{"ID":435141,"DIS_CODE":0,"TOWNNAME":"關廟區","LI":"北花里","LIN":"4鄰","STREET":"四維街","SECT":" ","MAREA":" ","LANE":"３８０巷","ALLEY":" ","HOUSE_NO":"２５號","E_COORD97":181960.20999999999,"N_COORD97":2540279.25,"ADDRESS":"四維街３８０巷２５號","OBJECTID":435116},"geometry":{"x":181960.21000000089,"y":2540279.25}},{"attributes":{"ID":435142,"DIS_CODE":0,"TOWNNAME":"關廟區","LI":"五甲里","LIN":"18鄰","STREET":"五權街","SECT":" ","MAREA":" ","LANE":"２巷","ALLEY":" ","HOUSE_NO":"６０號","E_COORD97":180959.01999999999,"N_COORD97":2539120.25,"ADDRESS":"五權街２巷６０號","OBJECTID":435117},"geometry":{"x":180959.02000000048,"y":2539120.2500000037}},{"attributes":{"ID":435143,"DIS_CODE":0,"TOWNNAME":"關廟區","LI":"山西里","LIN":"20鄰","STREET":"崇平路","SECT":" ","MAREA":" ","LANE":"１０７巷","ALLEY":" ","HOUSE_NO":"７號","E_COORD97":180705.67000000001,"N_COORD97":2540313.46,"ADDRESS":"崇平路１０７巷７號","OBJECTID":435118},"geometry":{"x":180705.67000000179,"y":2540313.4600000028}},{"attributes":{"ID":435144,"DIS_CODE":0,"TOWNNAME":"關廟區","LI":"東勢里","LIN":"25鄰","STREET":"東興路","SECT":" ","MAREA":" ","LANE":"１４８巷","ALLEY":" ","HOUSE_NO":"１０號","E_COORD97":181548.01999999999,"N_COORD97":2539516.25,"ADDRESS":"東興路１４８巷１０號","OBJECTID":435119},"geometry":{"x":181548.01999999955,"y":2539516.25}},{"attributes":{"ID":435145,"DIS_CODE":0,"TOWNNAME":"關廟區","LI":"山西里","LIN":"13鄰","STREET":"文衡路","SECT":" ","MAREA":" ","LANE":"１３３巷","ALLEY":" ","HOUSE_NO":"２號","E_COORD97":180882.48000000001,"N_COORD97":2540554.0099999998,"ADDRESS":"文衡路１３３巷２號","OBJECTID":435120},"geometry":{"x":180882.48000000138,"y":2540554.0099999998}},{"attributes":{"ID":435146,"DIS_CODE":0,"TOWNNAME":"關廟區","LI":"東勢里","LIN":"4鄰","STREET":"和平路","SECT":" ","MAREA":" ","LANE":"７８巷","ALLEY":" ","HOUSE_NO":"２號","E_COORD97":181739.69,"N_COORD97":2539441.25,"ADDRESS":"和平路７８巷２號","OBJECTID":435121},"geometry":{"x":181739.69000000041,"y":2539441.25}},{"attributes":{"ID":435147,"DIS_CODE":0,"TOWNNAME":"關廟區","LI":"東勢里","LIN":"4鄰","STREET":"和平路","SECT":" ","MAREA":" ","LANE":"７８巷","ALLEY":" ","HOUSE_NO":"５號","E_COORD97":181745.48999999999,"N_COORD97":2539450.25,"ADDRESS":"和平路７８巷５號","OBJECTID":435122},"geometry":{"x":181745.49000000022,"y":2539450.2500000019}},{"attributes":{"ID":435148,"DIS_CODE":0,"TOWNNAME":"關廟區","LI":"北勢里","LIN":"5鄰","STREET":"成功路","SECT":" ","MAREA":" ","LANE":"１１５巷","ALLEY":" ","HOUSE_NO":"７號","E_COORD97":181577.87,"N_COORD97":2540410.27,"ADDRESS":"成功路１１５巷７號","OBJECTID":435123},"geometry":{"x":181577.87000000104,"y":2540410.2699999996}},{"attributes":{"ID":435149,"DIS_CODE":0,"TOWNNAME":"關廟區","LI":"五甲里","LIN":"18鄰","STREET":"大富街","SECT":" ","MAREA":" ","LANE":"３９巷","ALLEY":" ","HOUSE_NO":"７號","E_COORD97":180998.22,"N_COORD97":2539088.25,"ADDRESS":"大富街３９巷７號","OBJECTID":435124},"geometry":{"x":180998.21999999881,"y":2539088.25}},{"attributes":{"ID":435150,"DIS_CODE":0,"TOWNNAME":"關廟區","LI":"山西里","LIN":"20鄰","STREET":"崇平路","SECT":" ","MAREA":" ","LANE":"１０７巷","ALLEY":" ","HOUSE_NO":"１５號","E_COORD97":180724.92000000001,"N_COORD97":2540312.46,"ADDRESS":"崇平路１０７巷１５號","OBJECTID":435125},"geometry":{"x":180724.92000000086,"y":2540312.4600000009}},{"attributes":{"ID":435151,"DIS_CODE":0,"TOWNNAME":"關廟區","LI":"山西里","LIN":"17鄰","STREET":"崇明街","SECT":" ","MAREA":" ","LANE":"３巷","ALLEY":" ","HOUSE_NO":"１８號","E_COORD97":181014.32000000001,"N_COORD97":2540633.25,"ADDRESS":"崇明街３巷１８號","OBJECTID":435126},"geometry":{"x":181014.32000000123,"y":2540633.2500000019}},{"attributes":{"ID":435152,"DIS_CODE":0,"TOWNNAME":"關廟區","LI":"山西里","LIN":"18鄰","STREET":"崇明街","SECT":" ","MAREA":" ","LANE":"６９巷","ALLEY":" ","HOUSE_NO":"９號","E_COORD97":180932.51999999999,"N_COORD97":2540806.25,"ADDRESS":"崇明街６９巷９號","OBJECTID":435127},"geometry":{"x":180932.52000000048,"y":2540806.2500000019}},{"attributes":{"ID":435153,"DIS_CODE":0,"TOWNNAME":"關廟區","LI":"山西里","LIN":"14鄰","STREET":"文衡路","SECT":" ","MAREA":" ","LANE":"２２０巷","ALLEY":" ","HOUSE_NO":"２１號","E_COORD97":180999.48999999999,"N_COORD97":2540581.3300000001,"ADDRESS":"文衡路２２０巷２１號","OBJECTID":435128},"geometry":{"x":180999.49000000115,"y":2540581.3300000019}},{"attributes":{"ID":435154,"DIS_CODE":0,"TOWNNAME":"關廟區","LI":"五甲里","LIN":"18鄰","STREET":"大富街","SECT":" ","MAREA":" ","LANE":"３９巷","ALLEY":" ","HOUSE_NO":"１１號","E_COORD97":180996.37,"N_COORD97":2539095.25,"ADDRESS":"大富街３９巷１１號","OBJECTID":435129},"geometry":{"x":180996.37000000104,"y":2539095.25}},{"attributes":{"ID":435155,"DIS_CODE":0,"TOWNNAME":"關廟區","LI":"山西里","LIN":"20鄰","STREET":"崇平路","SECT":" ","MAREA":" ","LANE":"１０７巷","ALLEY":" ","HOUSE_NO":"２號","E_COORD97":180694.26999999999,"N_COORD97":2540375.25,"ADDRESS":"崇平路１０７巷２號","OBJECTID":435130},"geometry":{"x":180694.26999999862,"y":2540375.2500000019}},{"attributes":{"ID":435156,"DIS_CODE":0,"TOWNNAME":"關廟區","LI":"山西里","LIN":"20鄰","STREET":"崇平路","SECT":" ","MAREA":" ","LANE":"１０７巷","ALLEY":" ","HOUSE_NO":"６號","E_COORD97":180694.26999999999,"N_COORD97":2540371.25,"ADDRESS":"崇平路１０７巷６號","OBJECTID":435131},"geometry":{"x":180694.26999999862,"y":2540371.2500000037}},{"attributes":{"ID":435157,"DIS_CODE":0,"TOWNNAME":"關廟區","LI":"山西里","LIN":"17鄰","STREET":"崇明街","SECT":" ","MAREA":" ","LANE":"３巷","ALLEY":" ","HOUSE_NO":"２６號","E_COORD97":180999.32000000001,"N_COORD97":2540638.25,"ADDRESS":"崇明街３巷２６號","OBJECTID":435132},"geometry":{"x":180999.3200000003,"y":2540638.25}},{"attributes":{"ID":435158,"DIS_CODE":0,"TOWNNAME":"關廟區","LI":"山西里","LIN":"17鄰","STREET":"崇明街","SECT":" ","MAREA":" ","LANE":"３巷","ALLEY":" ","HOUSE_NO":"３２號","E_COORD97":180974.01999999999,"N_COORD97":2540643.25,"ADDRESS":"崇明街３巷３２號","OBJECTID":435133},"geometry":{"x":180974.02000000142,"y":2540643.2500000019}},{"attributes":{"ID":435159,"DIS_CODE":0,"TOWNNAME":"關廟區","LI":"山西里","LIN":"17鄰","STREET":"崇明街","SECT":" ","MAREA":" ","LANE":"３巷","ALLEY":" ","HOUSE_NO":"１７號","E_COORD97":181012.32000000001,"N_COORD97":2540622.25,"ADDRESS":"崇明街３巷１７號","OBJECTID":435134},"geometry":{"x":181012.32000000123,"y":2540622.2500000037}},{"attributes":{"ID":435160,"DIS_CODE":0,"TOWNNAME":"關廟區","LI":"山西里","LIN":"17鄰","STREET":"崇明街","SECT":" ","MAREA":" ","LANE":"３巷","ALLEY":" ","HOUSE_NO":"３６號","E_COORD97":180968.22,"N_COORD97":2540644.25,"ADDRESS":"崇明街３巷３６號","OBJECTID":435135},"geometry":{"x":180968.22000000067,"y":2540644.25}},{"attributes":{"ID":435161,"DIS_CODE":0,"TOWNNAME":"關廟區","LI":"山西里","LIN":"17鄰","STREET":"崇明街","SECT":" ","MAREA":" ","LANE":"３巷","ALLEY":" ","HOUSE_NO":"２１號","E_COORD97":180989.32000000001,"N_COORD97":2540628.25,"ADDRESS":"崇明街３巷２１號","OBJECTID":435136},"geometry":{"x":180989.3200000003,"y":2540628.25}},{"attributes":{"ID":435162,"DIS_CODE":0,"TOWNNAME":"關廟區","LI":"五甲里","LIN":"8鄰","STREET":"大富街","SECT":" ","MAREA":" ","LANE":"１２１巷","ALLEY":" ","HOUSE_NO":"６號","E_COORD97":181056.97,"N_COORD97":2539241.25,"ADDRESS":"大富街１２１巷６號","OBJECTID":435137},"geometry":{"x":181056.96999999974,"y":2539241.25}},{"attributes":{"ID":435163,"DIS_CODE":0,"TOWNNAME":"關廟區","LI":"下湖里","LIN":"4鄰","STREET":"下湖二街","SECT":" ","MAREA":" ","LANE":"６９巷","ALLEY":" ","HOUSE_NO":"１２號","E_COORD97":179325.84,"N_COORD97":2543074.25,"ADDRESS":"下湖二街６９巷１２號","OBJECTID":435138},"geometry":{"x":179325.83999999985,"y":2543074.2500000019}},{"attributes":{"ID":435164,"DIS_CODE":0,"TOWNNAME":"關廟區","LI":"山西里","LIN":"18鄰","STREET":"崇明街","SECT":" ","MAREA":" ","LANE":"６９巷","ALLEY":" ","HOUSE_NO":"５號","E_COORD97":180941.72,"N_COORD97":2540806.25,"ADDRESS":"崇明街６９巷５號","OBJECTID":435139},"geometry":{"x":180941.71999999974,"y":2540806.2500000019}},{"attributes":{"ID":435165,"DIS_CODE":0,"TOWNNAME":"關廟區","LI":"山西里","LIN":"20鄰","STREET":"崇平路","SECT":" ","MAREA":" ","LANE":"１０７巷","ALLEY":" ","HOUSE_NO":"１３號","E_COORD97":180720.32000000001,"N_COORD97":2540312.46,"ADDRESS":"崇平路１０７巷１３號","OBJECTID":435140},"geometry":{"x":180720.32000000216,"y":2540312.4600000009}},{"attributes":{"ID":435166,"DIS_CODE":0,"TOWNNAME":"關廟區","LI":"山西里","LIN":"13鄰","STREET":"文衡路","SECT":" ","MAREA":" ","LANE":"１３３巷","ALLEY":" ","HOUSE_NO":"４７號","E_COORD97":180840.32999999999,"N_COORD97":2540598.0099999998,"ADDRESS":"文衡路１３３巷４７號","OBJECTID":435141},"geometry":{"x":180840.33000000194,"y":2540598.0099999998}},{"attributes":{"ID":435167,"DIS_CODE":0,"TOWNNAME":"關廟區","LI":"山西里","LIN":"13鄰","STREET":"文衡路","SECT":" ","MAREA":" ","LANE":"１３３巷","ALLEY":" ","HOUSE_NO":"４５號","E_COORD97":180839.92999999999,"N_COORD97":2540594.0099999998,"ADDRESS":"文衡路１３３巷４５號","OBJECTID":435142},"geometry":{"x":180839.93000000063,"y":2540594.0100000016}},{"attributes":{"ID":435168,"DIS_CODE":0,"TOWNNAME":"關廟區","LI":"五甲里","LIN":"18鄰","STREET":"大富街","SECT":" ","MAREA":" ","LANE":"３９巷","ALLEY":" ","HOUSE_NO":"１５號","E_COORD97":180992.87,"N_COORD97":2539103.25,"ADDRESS":"大富街３９巷１５號","OBJECTID":435143},"geometry":{"x":180992.87000000104,"y":2539103.2500000037}},{"attributes":{"ID":435169,"DIS_CODE":0,"TOWNNAME":"關廟區","LI":"五甲里","LIN":"18鄰","STREET":"大富街","SECT":" ","MAREA":" ","LANE":"３９巷","ALLEY":" ","HOUSE_NO":"５號","E_COORD97":180999.72,"N_COORD97":2539085.25,"ADDRESS":"大富街３９巷５號","OBJECTID":435144},"geometry":{"x":180999.71999999974,"y":2539085.25}},{"attributes":{"ID":435170,"DIS_CODE":0,"TOWNNAME":"關廟區","LI":"山西里","LIN":"20鄰","STREET":"崇平路","SECT":" ","MAREA":" ","LANE":"１０７巷","ALLEY":" ","HOUSE_NO":"３６號","E_COORD97":180687.67000000001,"N_COORD97":2540324.5099999998,"ADDRESS":"崇平路１０７巷３６號","OBJECTID":435145},"geometry":{"x":180687.67000000086,"y":2540324.5099999998}},{"attributes":{"ID":435171,"DIS_CODE":0,"TOWNNAME":"關廟區","LI":"東勢里","LIN":"13鄰","STREET":"東榮街","SECT":" ","MAREA":" ","LANE":"１０５巷","ALLEY":" ","HOUSE_NO":"１６號","E_COORD97":182162.07999999999,"N_COORD97":2539417.1099999999,"ADDRESS":"東榮街１０５巷１６號","OBJECTID":435146},"geometry":{"x":182162.08000000007,"y":2539417.1099999994}},{"attributes":{"ID":435172,"DIS_CODE":0,"TOWNNAME":"關廟區","LI":"東勢里","LIN":"14鄰","STREET":"東榮街","SECT":" ","MAREA":" ","LANE":"１３８巷","ALLEY":" ","HOUSE_NO":"３號","E_COORD97":182160.57000000001,"N_COORD97":2539332.25,"ADDRESS":"東榮街１３８巷３號","OBJECTID":435147},"geometry":{"x":182160.5700000003,"y":2539332.25}},{"attributes":{"ID":435173,"DIS_CODE":0,"TOWNNAME":"關廟區","LI":"松腳里","LIN":"17鄰","STREET":"民族街","SECT":" ","MAREA":" ","LANE":"１９巷","ALLEY":" ","HOUSE_NO":"１２號","E_COORD97":181565.48999999999,"N_COORD97":2539762.29,"ADDRESS":"民族街１９巷１２號","OBJECTID":435148},"geometry":{"x":181565.49000000115,"y":2539762.2899999991}},{"attributes":{"ID":435174,"DIS_CODE":0,"TOWNNAME":"關廟區","LI":"松腳里","LIN":"5鄰","STREET":"中山路","SECT":"一段","MAREA":" ","LANE":"２１巷","ALLEY":" ","HOUSE_NO":"９號","E_COORD97":182071.51000000001,"N_COORD97":2539913.2799999998,"ADDRESS":"中山路一段２１巷９號","OBJECTID":435149},"geometry":{"x":182071.51000000071,"y":2539913.2800000012}},{"attributes":{"ID":435175,"DIS_CODE":0,"TOWNNAME":"關廟區","LI":"五甲里","LIN":"18鄰","STREET":"五權街","SECT":" ","MAREA":" ","LANE":"２巷","ALLEY":" ","HOUSE_NO":"５０號","E_COORD97":180977.42000000001,"N_COORD97":2539128.25,"ADDRESS":"五權街２巷５０號","OBJECTID":435150},"geometry":{"x":180977.42000000086,"y":2539128.2500000019}},{"attributes":{"ID":435176,"DIS_CODE":0,"TOWNNAME":"關廟區","LI":"五甲里","LIN":"13鄰","STREET":"光復街","SECT":" ","MAREA":" ","LANE":"９１巷","ALLEY":" ","HOUSE_NO":"４１號","E_COORD97":181413.54000000001,"N_COORD97":2539351.2799999998,"ADDRESS":"光復街９１巷４１號","OBJECTID":435151},"geometry":{"x":181413.5400000019,"y":2539351.2800000012}},{"attributes":{"ID":435177,"DIS_CODE":0,"TOWNNAME":"關廟區","LI":"松腳里","LIN":"5鄰","STREET":"中山路","SECT":"一段","MAREA":" ","LANE":"２１巷","ALLEY":" ","HOUSE_NO":"５號","E_COORD97":182071.10999999999,"N_COORD97":2539921.2799999998,"ADDRESS":"中山路一段２１巷５號","OBJECTID":435152},"geometry":{"x":182071.1100000022,"y":2539921.2799999993}},{"attributes":{"ID":435178,"DIS_CODE":0,"TOWNNAME":"關廟區","LI":"五甲里","LIN":"18鄰","STREET":"五權街","SECT":" ","MAREA":" ","LANE":"２巷","ALLEY":" ","HOUSE_NO":"７２號","E_COORD97":180940.62,"N_COORD97":2539113.25,"ADDRESS":"五權街２巷７２號","OBJECTID":435153},"geometry":{"x":180940.62000000104,"y":2539113.2500000037}},{"attributes":{"ID":435179,"DIS_CODE":0,"TOWNNAME":"關廟區","LI":"北勢里","LIN":"13鄰","STREET":"北安三街","SECT":" ","MAREA":" ","LANE":"１４５巷","ALLEY":" ","HOUSE_NO":"１號","E_COORD97":181430.94,"N_COORD97":2540562.3199999998,"ADDRESS":"北安三街１４５巷１號","OBJECTID":435154},"geometry":{"x":181430.94000000041,"y":2540562.3200000022}},{"attributes":{"ID":435180,"DIS_CODE":0,"TOWNNAME":"關廟區","LI":"五甲里","LIN":"13鄰","STREET":"光復街","SECT":" ","MAREA":" ","LANE":"９１巷","ALLEY":" ","HOUSE_NO":"５８號","E_COORD97":181406.64000000001,"N_COORD97":2539368.2799999998,"ADDRESS":"光復街９１巷５８號","OBJECTID":435155},"geometry":{"x":181406.63999999966,"y":2539368.2800000012}},{"attributes":{"ID":435181,"DIS_CODE":0,"TOWNNAME":"關廟區","LI":"五甲里","LIN":"18鄰","STREET":"五權街","SECT":" ","MAREA":" ","LANE":"２巷","ALLEY":" ","HOUSE_NO":"５８號","E_COORD97":180963.22,"N_COORD97":2539122.25,"ADDRESS":"五權街２巷５８號","OBJECTID":435156},"geometry":{"x":180963.22000000067,"y":2539122.25}},{"attributes":{"ID":435182,"DIS_CODE":0,"TOWNNAME":"關廟區","LI":"五甲里","LIN":"20鄰","STREET":"五智街","SECT":" ","MAREA":" ","LANE":"５０巷","ALLEY":" ","HOUSE_NO":"９號","E_COORD97":181164.42000000001,"N_COORD97":2539184.25,"ADDRESS":"五智街５０巷９號","OBJECTID":435157},"geometry":{"x":181164.41999999993,"y":2539184.2499999981}},{"attributes":{"ID":435183,"DIS_CODE":0,"TOWNNAME":"關廟區","LI":"北勢里","LIN":"4鄰","STREET":"北美街","SECT":" ","MAREA":" ","LANE":"４６巷","ALLEY":" ","HOUSE_NO":"２１號","E_COORD97":181527.59,"N_COORD97":2540383.2999999998,"ADDRESS":"北美街４６巷２１號","OBJECTID":435158},"geometry":{"x":181527.58999999985,"y":2540383.3000000026}},{"attributes":{"ID":435184,"DIS_CODE":0,"TOWNNAME":"關廟區","LI":"五甲里","LIN":"13鄰","STREET":"光復街","SECT":" ","MAREA":" ","LANE":"６３巷","ALLEY":" ","HOUSE_NO":"４８號","E_COORD97":181409.34,"N_COORD97":2539329.2799999998,"ADDRESS":"光復街６３巷４８號","OBJECTID":435159},"geometry":{"x":181409.33999999985,"y":2539329.2800000031}},{"attributes":{"ID":435185,"DIS_CODE":0,"TOWNNAME":"關廟區","LI":"五甲里","LIN":"18鄰","STREET":"五權街","SECT":" ","MAREA":" ","LANE":"２巷","ALLEY":" ","HOUSE_NO":"８６號","E_COORD97":180922.12,"N_COORD97":2539105.25,"ADDRESS":"五權街２巷８６號","OBJECTID":435160},"geometry":{"x":180922.12000000104,"y":2539105.25}},{"attributes":{"ID":435186,"DIS_CODE":0,"TOWNNAME":"關廟區","LI":"關廟里","LIN":"13鄰","STREET":"大仁街","SECT":" ","MAREA":" ","LANE":"１３０巷","ALLEY":" ","HOUSE_NO":"３２號","E_COORD97":181027.51999999999,"N_COORD97":2539494.25,"ADDRESS":"大仁街１３０巷３２號","OBJECTID":435161},"geometry":{"x":181027.51999999955,"y":2539494.2500000019}},{"attributes":{"ID":435187,"DIS_CODE":0,"TOWNNAME":"關廟區","LI":"五甲里","LIN":"13鄰","STREET":"光復街","SECT":" ","MAREA":" ","LANE":"９１巷","ALLEY":" ","HOUSE_NO":"３２號","E_COORD97":181454.64000000001,"N_COORD97":2539370.2799999998,"ADDRESS":"光復街９１巷３２號","OBJECTID":435162},"geometry":{"x":181454.63999999966,"y":2539370.2800000031}},{"attributes":{"ID":435188,"DIS_CODE":0,"TOWNNAME":"關廟區","LI":"北勢里","LIN":"4鄰","STREET":"北美街","SECT":" ","MAREA":" ","LANE":"３２巷","ALLEY":" ","HOUSE_NO":"１３號","E_COORD97":181515.69,"N_COORD97":2540372.2999999998,"ADDRESS":"北美街３２巷１３號","OBJECTID":435163},"geometry":{"x":181515.69000000041,"y":2540372.3000000026}},{"attributes":{"ID":435189,"DIS_CODE":0,"TOWNNAME":"關廟區","LI":"北勢里","LIN":"4鄰","STREET":"北美街","SECT":" ","MAREA":" ","LANE":"４６巷","ALLEY":" ","HOUSE_NO":"１５號","E_COORD97":181516.48999999999,"N_COORD97":2540391.2999999998,"ADDRESS":"北美街４６巷１５號","OBJECTID":435164},"geometry":{"x":181516.49000000115,"y":2540391.3000000007}},{"attributes":{"ID":435190,"DIS_CODE":0,"TOWNNAME":"關廟區","LI":"北花里","LIN":"18鄰","STREET":"中正路","SECT":" ","MAREA":" ","LANE":"５６７巷","ALLEY":" ","HOUSE_NO":"２５號","E_COORD97":182353.73000000001,"N_COORD97":2540414.4700000002,"ADDRESS":"中正路５６７巷２５號","OBJECTID":435165},"geometry":{"x":182353.73000000138,"y":2540414.4700000044}},{"attributes":{"ID":435191,"DIS_CODE":0,"TOWNNAME":"關廟區","LI":"香洋里","LIN":"24鄰","STREET":"中山路","SECT":"一段","MAREA":" ","LANE":"２９７巷","ALLEY":" ","HOUSE_NO":"１０號","E_COORD97":181255.20999999999,"N_COORD97":2539912.2799999998,"ADDRESS":"中山路一段２９７巷１０號","OBJECTID":435166},"geometry":{"x":181255.21000000089,"y":2539912.2799999975}},{"attributes":{"ID":435192,"DIS_CODE":0,"TOWNNAME":"關廟區","LI":"北勢里","LIN":"4鄰","STREET":"北美街","SECT":" ","MAREA":" ","LANE":"４６巷","ALLEY":" ","HOUSE_NO":"１７號","E_COORD97":181520.29000000001,"N_COORD97":2540388.2999999998,"ADDRESS":"北美街４６巷１７號","OBJECTID":435167},"geometry":{"x":181520.2900000019,"y":2540388.2999999989}},{"attributes":{"ID":435193,"DIS_CODE":0,"TOWNNAME":"關廟區","LI":"田中里","LIN":"4鄰","STREET":"南雄南路","SECT":" ","MAREA":" ","LANE":"５１５巷","ALLEY":" ","HOUSE_NO":"３１號","E_COORD97":183984.19,"N_COORD97":2533818.25,"ADDRESS":"南雄南路５１５巷３１號","OBJECTID":435168},"geometry":{"x":183984.19000000041,"y":2533818.2500000019}},{"attributes":{"ID":435194,"DIS_CODE":0,"TOWNNAME":"關廟區","LI":"松腳里","LIN":"4鄰","STREET":"旺萊路","SECT":" ","MAREA":" ","LANE":"４６６巷","ALLEY":" ","HOUSE_NO":"３號","E_COORD97":182992.34,"N_COORD97":2539731.25,"ADDRESS":"旺萊路４６６巷３號","OBJECTID":435169},"geometry":{"x":182992.33999999985,"y":2539731.2500000019}},{"attributes":{"ID":435195,"DIS_CODE":0,"TOWNNAME":"關廟區","LI":"深坑里","LIN":"4鄰","STREET":"深坑一街","SECT":" ","MAREA":" ","LANE":"２９巷","ALLEY":" ","HOUSE_NO":"６號","E_COORD97":181939.47,"N_COORD97":2537603.2799999998,"ADDRESS":"深坑一街２９巷６號","OBJECTID":435170},"geometry":{"x":181939.47000000067,"y":2537603.2799999993}},{"attributes":{"ID":435196,"DIS_CODE":0,"TOWNNAME":"關廟區","LI":"北勢里","LIN":"4鄰","STREET":"北美街","SECT":" ","MAREA":" ","LANE":"３２巷","ALLEY":" ","HOUSE_NO":"９號","E_COORD97":181503.73999999999,"N_COORD97":2540371.2999999998,"ADDRESS":"北美街３２巷９號","OBJECTID":435171},"geometry":{"x":181503.74000000022,"y":2540371.2999999989}},{"attributes":{"ID":435197,"DIS_CODE":0,"TOWNNAME":"關廟區","LI":"香洋里","LIN":"18鄰","STREET":"和平路","SECT":" ","MAREA":" ","LANE":"２５５巷","ALLEY":" ","HOUSE_NO":"６號","E_COORD97":181615.04000000001,"N_COORD97":2540043.25,"ADDRESS":"和平路２５５巷６號","OBJECTID":435172},"geometry":{"x":181615.04000000004,"y":2540043.2500000019}},{"attributes":{"ID":435198,"DIS_CODE":0,"TOWNNAME":"關廟區","LI":"香洋里","LIN":"26鄰","STREET":"南雄路","SECT":"一段","MAREA":" ","LANE":"１１３０巷","ALLEY":" ","HOUSE_NO":"６號","E_COORD97":181109.84,"N_COORD97":2539827.2799999998,"ADDRESS":"南雄路一段１１３０巷６號","OBJECTID":435173},"geometry":{"x":181109.84000000078,"y":2539827.2799999993}},{"attributes":{"ID":435199,"DIS_CODE":0,"TOWNNAME":"關廟區","LI":"五甲里","LIN":"13鄰","STREET":"光復街","SECT":" ","MAREA":" ","LANE":"６３巷","ALLEY":" ","HOUSE_NO":"５６號","E_COORD97":181397.44,"N_COORD97":2539335.2799999998,"ADDRESS":"光復街６３巷５６號","OBJECTID":435174},"geometry":{"x":181397.44000000041,"y":2539335.2799999993}},{"attributes":{"ID":435200,"DIS_CODE":0,"TOWNNAME":"關廟區","LI":"北勢里","LIN":"4鄰","STREET":"北美街","SECT":" ","MAREA":" ","LANE":"３２巷","ALLEY":" ","HOUSE_NO":"２０號","E_COORD97":181515.29000000001,"N_COORD97":2540362.2999999998,"ADDRESS":"北美街３２巷２０號","OBJECTID":435175},"geometry":{"x":181515.2900000019,"y":2540362.3000000026}},{"attributes":{"ID":435201,"DIS_CODE":0,"TOWNNAME":"將軍區","LI":"廣山里","LIN":"5鄰","STREET":" ","SECT":" ","MAREA":"廣山","LANE":" ","ALLEY":" ","HOUSE_NO":"４５之１號","E_COORD97":159769.461461,"N_COORD97":2568820.4764,"ADDRESS":"廣山４５之１號","OBJECTID":435176},"geometry":{"x":159769.46146100108,"y":2568820.4764019996}},{"attributes":{"ID":435202,"DIS_CODE":0,"TOWNNAME":"關廟區","LI":"北勢里","LIN":"18鄰","STREET":"成功路","SECT":" ","MAREA":" ","LANE":"３７５巷","ALLEY":" ","HOUSE_NO":"９號","E_COORD97":181218.17000000001,"N_COORD97":2540492.27,"ADDRESS":"成功路３７５巷９號","OBJECTID":435177},"geometry":{"x":181218.17000000086,"y":2540492.2699999996}},{"attributes":{"ID":435203,"DIS_CODE":0,"TOWNNAME":"關廟區","LI":"香洋里","LIN":"26鄰","STREET":"南雄路","SECT":"一段","MAREA":" ","LANE":"１１３０巷","ALLEY":" ","HOUSE_NO":"２號","E_COORD97":181105.54000000001,"N_COORD97":2539826.2799999998,"ADDRESS":"南雄路一段１１３０巷２號","OBJECTID":435178},"geometry":{"x":181105.54000000097,"y":2539826.2799999993}},{"attributes":{"ID":435204,"DIS_CODE":0,"TOWNNAME":"關廟區","LI":"香洋里","LIN":"25鄰","STREET":"南雄路","SECT":"一段","MAREA":" ","LANE":"１１５９巷","ALLEY":" ","HOUSE_NO":"８號","E_COORD97":181044.92999999999,"N_COORD97":2539948.9399999999,"ADDRESS":"南雄路一段１１５９巷８號","OBJECTID":435179},"geometry":{"x":181044.93000000063,"y":2539948.9400000032}},{"attributes":{"ID":435205,"DIS_CODE":0,"TOWNNAME":"關廟區","LI":"松腳里","LIN":"13鄰","STREET":"和平路","SECT":" ","MAREA":" ","LANE":"１８６巷","ALLEY":" ","HOUSE_NO":"２號","E_COORD97":181727.14000000001,"N_COORD97":2539646.25,"ADDRESS":"和平路１８６巷２號","OBJECTID":435180},"geometry":{"x":181727.13999999966,"y":2539646.2500000019}},{"attributes":{"ID":435206,"DIS_CODE":0,"TOWNNAME":"關廟區","LI":"香洋里","LIN":"4鄰","STREET":"成功路","SECT":" ","MAREA":" ","LANE":"３７５巷","ALLEY":" ","HOUSE_NO":"３０號","E_COORD97":181204.92000000001,"N_COORD97":2540410.27,"ADDRESS":"成功路３７５巷３０號","OBJECTID":435181},"geometry":{"x":181204.91999999993,"y":2540410.2699999996}},{"attributes":{"ID":435207,"DIS_CODE":0,"TOWNNAME":"關廟區","LI":"香洋里","LIN":"4鄰","STREET":"成功路","SECT":" ","MAREA":" ","LANE":"３７５巷","ALLEY":" ","HOUSE_NO":"６號","E_COORD97":181207.07000000001,"N_COORD97":2540490.27,"ADDRESS":"成功路３７５巷６號","OBJECTID":435182},"geometry":{"x":181207.07000000123,"y":2540490.2700000014}},{"attributes":{"ID":435208,"DIS_CODE":0,"TOWNNAME":"關廟區","LI":"香洋里","LIN":"4鄰","STREET":"成功路","SECT":" ","MAREA":" ","LANE":"３７５巷","ALLEY":" ","HOUSE_NO":"８號","E_COORD97":181201.67000000001,"N_COORD97":2540492.27,"ADDRESS":"成功路３７５巷８號","OBJECTID":435183},"geometry":{"x":181201.66999999993,"y":2540492.2699999996}},{"attributes":{"ID":435209,"DIS_CODE":0,"TOWNNAME":"關廟區","LI":"埤頭里","LIN":"4鄰","STREET":"保東路","SECT":" ","MAREA":" ","LANE":"１１５巷","ALLEY":" ","HOUSE_NO":"１３８號","E_COORD97":178776.82000000001,"N_COORD97":2543922.2999999998,"ADDRESS":"保東路１１５巷１３８號","OBJECTID":435184},"geometry":{"x":178776.8200000003,"y":2543922.3000000026}},{"attributes":{"ID":435210,"DIS_CODE":0,"TOWNNAME":"關廟區","LI":"五甲里","LIN":"13鄰","STREET":"光復街","SECT":" ","MAREA":" ","LANE":"９１巷","ALLEY":" ","HOUSE_NO":"４３號","E_COORD97":181412.73999999999,"N_COORD97":2539349.2799999998,"ADDRESS":"光復街９１巷４３號","OBJECTID":435185},"geometry":{"x":181412.74000000115,"y":2539349.2799999993}},{"attributes":{"ID":435211,"DIS_CODE":0,"TOWNNAME":"關廟區","LI":"深坑里","LIN":"5鄰","STREET":"深坑一街","SECT":" ","MAREA":" ","LANE":"１３巷","ALLEY":" ","HOUSE_NO":"４０號","E_COORD97":181852.26999999999,"N_COORD97":2537707.2799999998,"ADDRESS":"深坑一街１３巷４０號","OBJECTID":435186},"geometry":{"x":181852.27000000142,"y":2537707.2799999993}},{"attributes":{"ID":435212,"DIS_CODE":0,"TOWNNAME":"關廟區","LI":"香洋里","LIN":"26鄰","STREET":"民權街","SECT":" ","MAREA":" ","LANE":"２２８巷","ALLEY":" ","HOUSE_NO":"３７號","E_COORD97":181105.73999999999,"N_COORD97":2539864.29,"ADDRESS":"民權街２２８巷３７號","OBJECTID":435187},"geometry":{"x":181105.74000000115,"y":2539864.2899999991}},{"attributes":{"ID":435213,"DIS_CODE":0,"TOWNNAME":"關廟區","LI":"北花里","LIN":"18鄰","STREET":"中正路","SECT":" ","MAREA":" ","LANE":"５２０巷","ALLEY":" ","HOUSE_NO":"１５號","E_COORD97":182251.51000000001,"N_COORD97":2540556.25,"ADDRESS":"中正路５２０巷１５號","OBJECTID":435188},"geometry":{"x":182251.51000000071,"y":2540556.25}},{"attributes":{"ID":435214,"DIS_CODE":0,"TOWNNAME":"關廟區","LI":"香洋里","LIN":"25鄰","STREET":"南雄路","SECT":"一段","MAREA":" ","LANE":"１１５９巷","ALLEY":" ","HOUSE_NO":"１６號","E_COORD97":181034.28,"N_COORD97":2539951.9399999999,"ADDRESS":"南雄路一段１１５９巷１６號","OBJECTID":435189},"geometry":{"x":181034.28000000119,"y":2539951.9399999995}},{"attributes":{"ID":435215,"DIS_CODE":0,"TOWNNAME":"關廟區","LI":"埤頭里","LIN":"4鄰","STREET":"保東路","SECT":" ","MAREA":" ","LANE":"１１５巷","ALLEY":" ","HOUSE_NO":"１５０號","E_COORD97":178785.32000000001,"N_COORD97":2543911.2999999998,"ADDRESS":"保東路１１５巷１５０號","OBJECTID":435190},"geometry":{"x":178785.3200000003,"y":2543911.3000000045}},{"attributes":{"ID":435216,"DIS_CODE":0,"TOWNNAME":"關廟區","LI":"松腳里","LIN":"4鄰","STREET":"旺萊路","SECT":" ","MAREA":" ","LANE":"４６６巷","ALLEY":" ","HOUSE_NO":"１之１號","E_COORD97":182994.84,"N_COORD97":2539731.2999999998,"ADDRESS":"旺萊路４６６巷１之１號","OBJECTID":435191},"geometry":{"x":182994.84000000078,"y":2539731.3000000026}},{"attributes":{"ID":435217,"DIS_CODE":0,"TOWNNAME":"關廟區","LI":"埤頭里","LIN":"4鄰","STREET":"保東路","SECT":" ","MAREA":" ","LANE":"１１５巷","ALLEY":" ","HOUSE_NO":"１３２號","E_COORD97":178785.32000000001,"N_COORD97":2543922.2999999998,"ADDRESS":"保東路１１５巷１３２號","OBJECTID":435192},"geometry":{"x":178785.3200000003,"y":2543922.3000000026}},{"attributes":{"ID":435218,"DIS_CODE":0,"TOWNNAME":"關廟區","LI":"香洋里","LIN":"26鄰","STREET":"南雄路","SECT":"一段","MAREA":" ","LANE":"１１３０巷","ALLEY":" ","HOUSE_NO":"８號","E_COORD97":181113.64000000001,"N_COORD97":2539829.2799999998,"ADDRESS":"南雄路一段１１３０巷８號","OBJECTID":435193},"geometry":{"x":181113.63999999966,"y":2539829.2800000012}},{"attributes":{"ID":435219,"DIS_CODE":0,"TOWNNAME":"關廟區","LI":"五甲里","LIN":"14鄰","STREET":"光復街","SECT":" ","MAREA":" ","LANE":"６３巷","ALLEY":" ","HOUSE_NO":"３９號","E_COORD97":181383.23999999999,"N_COORD97":2539306.2799999998,"ADDRESS":"光復街６３巷３９號","OBJECTID":435194},"geometry":{"x":181383.24000000022,"y":2539306.2800000012}},{"attributes":{"ID":435220,"DIS_CODE":0,"TOWNNAME":"關廟區","LI":"東勢里","LIN":"17鄰","STREET":"旺萊路","SECT":" ","MAREA":" ","LANE":"２６０巷","ALLEY":" ","HOUSE_NO":"７號","E_COORD97":181943.23999999999,"N_COORD97":2539354.25,"ADDRESS":"旺萊路２６０巷７號","OBJECTID":435195},"geometry":{"x":181943.24000000115,"y":2539354.2500000037}},{"attributes":{"ID":435221,"DIS_CODE":0,"TOWNNAME":"關廟區","LI":"香洋里","LIN":"20鄰","STREET":"中山路","SECT":"一段","MAREA":" ","LANE":"４４２巷","ALLEY":" ","HOUSE_NO":"１１號","E_COORD97":181453.70999999999,"N_COORD97":2539940.2799999998,"ADDRESS":"中山路一段４４２巷１１號","OBJECTID":435196},"geometry":{"x":181453.71000000089,"y":2539940.2800000012}},{"attributes":{"ID":435222,"DIS_CODE":0,"TOWNNAME":"關廟區","LI":"北勢里","LIN":"4鄰","STREET":"北美街","SECT":" ","MAREA":" ","LANE":"４６巷","ALLEY":" ","HOUSE_NO":"１１號","E_COORD97":181508.79000000001,"N_COORD97":2540395.2999999998,"ADDRESS":"北美街４６巷１１號","OBJECTID":435197},"geometry":{"x":181508.79000000097,"y":2540395.3000000045}},{"attributes":{"ID":435223,"DIS_CODE":0,"TOWNNAME":"關廟區","LI":"松腳里","LIN":"4鄰","STREET":"東榮街","SECT":" ","MAREA":" ","LANE":"１４３巷","ALLEY":" ","HOUSE_NO":"９７號","E_COORD97":182929.12,"N_COORD97":2539366.25,"ADDRESS":"東榮街１４３巷９７號","OBJECTID":435198},"geometry":{"x":182929.12000000104,"y":2539366.25}},{"attributes":{"ID":435224,"DIS_CODE":0,"TOWNNAME":"關廟區","LI":"埤頭里","LIN":"4鄰","STREET":"保東路","SECT":" ","MAREA":" ","LANE":"１１５巷","ALLEY":" ","HOUSE_NO":"１４２號","E_COORD97":178768.42000000001,"N_COORD97":2543922.2999999998,"ADDRESS":"保東路１１５巷１４２號","OBJECTID":435199},"geometry":{"x":178768.42000000086,"y":2543922.3000000026}},{"attributes":{"ID":435225,"DIS_CODE":0,"TOWNNAME":"關廟區","LI":"北花里","LIN":"18鄰","STREET":"中正路","SECT":" ","MAREA":" ","LANE":"５６７巷","ALLEY":" ","HOUSE_NO":"３號","E_COORD97":182309.07999999999,"N_COORD97":2540431.4700000002,"ADDRESS":"中正路５６７巷３號","OBJECTID":435200},"geometry":{"x":182309.08000000101,"y":2540431.4700000044}}]}