{"displayFieldName":"TOWNNAME","fieldAliases":{"ID":"ID","DIS_CODE":"DIS_CODE","TOWNNAME":"TOWNNAME","LI":"LI","LIN":"LIN","STREET":"STREET","SECT":"SECT","MAREA":"MAREA","LANE":"LANE","ALLEY":"ALLEY","HOUSE_NO":"HOUSE_NO","E_COORD97":"E_COORD97","N_COORD97":"N_COORD97","ADDRESS":"ADDRESS","OBJECTID":"OBJECTID"},"geometryType":"esriGeometryPoint","spatialReference":{"wkid":102443,"latestWkid":3826},"fields":[{"name":"ID","type":"esriFieldTypeDouble","alias":"ID"},{"name":"DIS_CODE","type":"esriFieldTypeInteger","alias":"DIS_CODE"},{"name":"TOWNNAME","type":"esriFieldTypeString","alias":"TOWNNAME","length":8},{"name":"LI","type":"esriFieldTypeString","alias":"LI","length":8},{"name":"LIN","type":"esriFieldTypeString","alias":"LIN","length":12},{"name":"STREET","type":"esriFieldTypeString","alias":"STREET","length":20},{"name":"SECT","type":"esriFieldTypeString","alias":"SECT","length":8},{"name":"MAREA","type":"esriFieldTypeString","alias":"MAREA","length":12},{"name":"LANE","type":"esriFieldTypeString","alias":"LANE","length":10},{"name":"ALLEY","type":"esriFieldTypeString","alias":"ALLEY","length":10},{"name":"HOUSE_NO","type":"esriFieldTypeString","alias":"HOUSE_NO","length":20},{"name":"E_COORD97","type":"esriFieldTypeDouble","alias":"E_COORD97"},{"name":"N_COORD97","type":"esriFieldTypeDouble","alias":"N_COORD97"},{"name":"ADDRESS","type":"esriFieldTypeString","alias":"ADDRESS","length":50},{"name":"OBJECTID","type":"esriFieldTypeOID","alias":"OBJECTID"}],"features":[{"attributes":{"ID":301409,"DIS_CODE":0,"TOWNNAME":"善化區","LI":"文正里","LIN":"14鄰","STREET":"興農路","SECT":" ","MAREA":" ","LANE":" ","ALLEY":" ","HOUSE_NO":"６號","E_COORD97":176631.70999999999,"N_COORD97":2559197.7599999998,"ADDRESS":"興農路６號","OBJECTID":301401},"geometry":{"x":176631.70999999903,"y":2559197.7600000035}},{"attributes":{"ID":301410,"DIS_CODE":0,"TOWNNAME":"善化區","LI":"文昌里","LIN":"14鄰","STREET":"大信路","SECT":" ","MAREA":" ","LANE":" ","ALLEY":" ","HOUSE_NO":"３３號","E_COORD97":177558.16,"N_COORD97":2558914.25,"ADDRESS":"大信路３３號","OBJECTID":301402},"geometry":{"x":177558.16000000108,"y":2558914.2500000019}},{"attributes":{"ID":301411,"DIS_CODE":0,"TOWNNAME":"南區","LI":"府南里","LIN":"27鄰","STREET":"永成路","SECT":"三段","MAREA":" ","LANE":"５５１巷","ALLEY":" ","HOUSE_NO":"１號","E_COORD97":167483.885557,"N_COORD97":2541700.71465,"ADDRESS":"永成路三段５５１巷１號","OBJECTID":301403},"geometry":{"x":167483.88555700053,"y":2541700.7146510016}},{"attributes":{"ID":301412,"DIS_CODE":0,"TOWNNAME":"南區","LI":"府南里","LIN":"27鄰","STREET":"永成路","SECT":"三段","MAREA":" ","LANE":"５５１巷","ALLEY":" ","HOUSE_NO":"２號","E_COORD97":167480.708946,"N_COORD97":2541694.57632,"ADDRESS":"永成路三段５５１巷２號","OBJECTID":301404},"geometry":{"x":167480.70894600078,"y":2541694.57632}},{"attributes":{"ID":301413,"DIS_CODE":0,"TOWNNAME":"南區","LI":"府南里","LIN":"27鄰","STREET":"永成路","SECT":"三段","MAREA":" ","LANE":"５５１巷","ALLEY":" ","HOUSE_NO":"３號","E_COORD97":167478.16765700001,"N_COORD97":2541689.4963199999,"ADDRESS":"永成路三段５５１巷３號","OBJECTID":301405},"geometry":{"x":167478.16765700001,"y":2541689.4963230006}},{"attributes":{"ID":301414,"DIS_CODE":0,"TOWNNAME":"中西區","LI":"西賢里","LIN":"31鄰","STREET":"西賢六街","SECT":" ","MAREA":" ","LANE":"１３巷","ALLEY":" ","HOUSE_NO":"２１之１號","E_COORD97":164992.05458,"N_COORD97":2544668.0090999999,"ADDRESS":"西賢六街１３巷２１之１號","OBJECTID":301406},"geometry":{"x":164992.05458000209,"y":2544668.0090970043}},{"attributes":{"ID":301415,"DIS_CODE":0,"TOWNNAME":"南區","LI":"府南里","LIN":"27鄰","STREET":"永成路","SECT":"三段","MAREA":" ","LANE":"５５１巷","ALLEY":" ","HOUSE_NO":"５號","E_COORD97":167475.838143,"N_COORD97":2541683.7813300001,"ADDRESS":"永成路三段５５１巷５號","OBJECTID":301407},"geometry":{"x":167475.83814300131,"y":2541683.7813260015}},{"attributes":{"ID":301416,"DIS_CODE":0,"TOWNNAME":"南區","LI":"府南里","LIN":"27鄰","STREET":"永成路","SECT":"三段","MAREA":" ","LANE":"５５１巷","ALLEY":" ","HOUSE_NO":"８號","E_COORD97":167480.708946,"N_COORD97":2541672.35133,"ADDRESS":"永成路三段５５１巷８號","OBJECTID":301408},"geometry":{"x":167480.70894600078,"y":2541672.3513319995}},{"attributes":{"ID":301417,"DIS_CODE":0,"TOWNNAME":"南區","LI":"府南里","LIN":"27鄰","STREET":"永成路","SECT":"三段","MAREA":" ","LANE":"５５１巷","ALLEY":" ","HOUSE_NO":"９號","E_COORD97":167484.30910499999,"N_COORD97":2541680.6063299999,"ADDRESS":"永成路三段５５１巷９號","OBJECTID":301409},"geometry":{"x":167484.30910499953,"y":2541680.6063280012}},{"attributes":{"ID":301418,"DIS_CODE":0,"TOWNNAME":"仁德區","LI":"太子里","LIN":"27鄰","STREET":"大利路","SECT":" ","MAREA":" ","LANE":"８２巷","ALLEY":" ","HOUSE_NO":"９號","E_COORD97":173593.68260100001,"N_COORD97":2543257.1202699998,"ADDRESS":"大利路８２巷９號","OBJECTID":301410},"geometry":{"x":173593.68260100111,"y":2543257.120271001}},{"attributes":{"ID":301419,"DIS_CODE":0,"TOWNNAME":"仁德區","LI":"太子里","LIN":"27鄰","STREET":"大利路","SECT":" ","MAREA":" ","LANE":"８２巷","ALLEY":" ","HOUSE_NO":"１１號","E_COORD97":173604.271201,"N_COORD97":2543255.6386099998,"ADDRESS":"大利路８２巷１１號","OBJECTID":301411},"geometry":{"x":173604.27120100055,"y":2543255.6386050005}},{"attributes":{"ID":301420,"DIS_CODE":0,"TOWNNAME":"中西區","LI":"西賢里","LIN":"31鄰","STREET":"民權路","SECT":"四段","MAREA":" ","LANE":" ","ALLEY":" ","HOUSE_NO":"５５８號","E_COORD97":165043.97128500001,"N_COORD97":2544599.0057999999,"ADDRESS":"民權路四段５５８號","OBJECTID":301412},"geometry":{"x":165043.97128500044,"y":2544599.0058009997}},{"attributes":{"ID":301421,"DIS_CODE":0,"TOWNNAME":"中西區","LI":"進學里","LIN":"1鄰","STREET":"南寧街","SECT":" ","MAREA":" ","LANE":" ","ALLEY":" ","HOUSE_NO":"１０４號","E_COORD97":168134.209531,"N_COORD97":2542860.52997,"ADDRESS":"南寧街１０４號","OBJECTID":301413},"geometry":{"x":168134.20953099988,"y":2542860.529973004}},{"attributes":{"ID":301422,"DIS_CODE":0,"TOWNNAME":"仁德區","LI":"仁義里","LIN":"1鄰","STREET":"義林五街","SECT":" ","MAREA":" ","LANE":" ","ALLEY":" ","HOUSE_NO":"１０９號","E_COORD97":174153.715665,"N_COORD97":2541032.2082199999,"ADDRESS":"義林五街１０９號","OBJECTID":301414},"geometry":{"x":174153.71566499956,"y":2541032.2082160003}},{"attributes":{"ID":301423,"DIS_CODE":0,"TOWNNAME":"仁德區","LI":"仁義里","LIN":"1鄰","STREET":"義林五街","SECT":" ","MAREA":" ","LANE":" ","ALLEY":" ","HOUSE_NO":"１５３號","E_COORD97":174140.425066,"N_COORD97":2541031.5732200001,"ADDRESS":"義林五街１５３號","OBJECTID":301415},"geometry":{"x":174140.42506599985,"y":2541031.5732160006}},{"attributes":{"ID":301424,"DIS_CODE":0,"TOWNNAME":"南區","LI":"府南里","LIN":"27鄰","STREET":"永成路","SECT":"三段","MAREA":" ","LANE":" ","ALLEY":" ","HOUSE_NO":"４８１號","E_COORD97":167484.99230799999,"N_COORD97":2541549.50337,"ADDRESS":"永成路三段４８１號","OBJECTID":301416},"geometry":{"x":167484.9923080001,"y":2541549.5033720005}},{"attributes":{"ID":301425,"DIS_CODE":0,"TOWNNAME":"南區","LI":"府南里","LIN":"27鄰","STREET":"永成路","SECT":"三段","MAREA":" ","LANE":" ","ALLEY":" ","HOUSE_NO":"４７９號","E_COORD97":167485.41585600001,"N_COORD97":2541545.2700399999,"ADDRESS":"永成路三段４７９號","OBJECTID":301417},"geometry":{"x":167485.4158560019,"y":2541545.2700399999}},{"attributes":{"ID":301426,"DIS_CODE":0,"TOWNNAME":"南區","LI":"府南里","LIN":"27鄰","STREET":"永成路","SECT":"三段","MAREA":" ","LANE":" ","ALLEY":" ","HOUSE_NO":"４８７號","E_COORD97":167484.56875999999,"N_COORD97":2541560.8275299999,"ADDRESS":"永成路三段４８７號","OBJECTID":301418},"geometry":{"x":167484.5687600011,"y":2541560.8275320027}},{"attributes":{"ID":301427,"DIS_CODE":0,"TOWNNAME":"南區","LI":"府南里","LIN":"27鄰","STREET":"永成路","SECT":"三段","MAREA":" ","LANE":" ","ALLEY":" ","HOUSE_NO":"４７７號","E_COORD97":167484.78053399999,"N_COORD97":2541541.2483799998,"ADDRESS":"永成路三段４７７號","OBJECTID":301419},"geometry":{"x":167484.78053400014,"y":2541541.2483760025}},{"attributes":{"ID":301428,"DIS_CODE":0,"TOWNNAME":"仁德區","LI":"仁和里","LIN":"2鄰","STREET":"和愛街","SECT":" ","MAREA":" ","LANE":" ","ALLEY":" ","HOUSE_NO":"３號二樓之２","E_COORD97":170387.54999999999,"N_COORD97":2540119.5299999998,"ADDRESS":"和愛街３號二樓之２","OBJECTID":301420},"geometry":{"x":170387.54999999981,"y":2540119.5299999993}},{"attributes":{"ID":301429,"DIS_CODE":0,"TOWNNAME":"仁德區","LI":"仁和里","LIN":"2鄰","STREET":"和愛街","SECT":" ","MAREA":" ","LANE":" ","ALLEY":" ","HOUSE_NO":"３號二樓之３","E_COORD97":170387.54999999999,"N_COORD97":2540119.5299999998,"ADDRESS":"和愛街３號二樓之３","OBJECTID":301421},"geometry":{"x":170387.54999999981,"y":2540119.5299999993}},{"attributes":{"ID":301430,"DIS_CODE":0,"TOWNNAME":"仁德區","LI":"太子里","LIN":"27鄰","STREET":"大吉路","SECT":" ","MAREA":" ","LANE":" ","ALLEY":" ","HOUSE_NO":"１號","E_COORD97":173748.06438600001,"N_COORD97":2543331.5738599999,"ADDRESS":"大吉路１號","OBJECTID":301422},"geometry":{"x":173748.06438600086,"y":2543331.5738600045}},{"attributes":{"ID":301431,"DIS_CODE":0,"TOWNNAME":"安平區","LI":"華平里","LIN":"8鄰","STREET":"育平九街","SECT":" ","MAREA":" ","LANE":"２２巷","ALLEY":" ","HOUSE_NO":"５號五樓之１６","E_COORD97":165413.85000000001,"N_COORD97":2543981.5499999998,"ADDRESS":"育平九街２２巷５號五樓之１６","OBJECTID":301423},"geometry":{"x":165413.85000000056,"y":2543981.5500000026}},{"attributes":{"ID":301432,"DIS_CODE":0,"TOWNNAME":"安平區","LI":"華平里","LIN":"8鄰","STREET":"育平九街","SECT":" ","MAREA":" ","LANE":"２２巷","ALLEY":" ","HOUSE_NO":"５號五樓之２","E_COORD97":165413.85000000001,"N_COORD97":2543981.5499999998,"ADDRESS":"育平九街２２巷５號五樓之２","OBJECTID":301424},"geometry":{"x":165413.85000000056,"y":2543981.5500000026}},{"attributes":{"ID":301433,"DIS_CODE":0,"TOWNNAME":"安平區","LI":"華平里","LIN":"8鄰","STREET":"育平九街","SECT":" ","MAREA":" ","LANE":"２２巷","ALLEY":" ","HOUSE_NO":"５號五樓之３","E_COORD97":165413.85000000001,"N_COORD97":2543981.5499999998,"ADDRESS":"育平九街２２巷５號五樓之３","OBJECTID":301425},"geometry":{"x":165413.85000000056,"y":2543981.5500000026}},{"attributes":{"ID":301434,"DIS_CODE":0,"TOWNNAME":"安平區","LI":"華平里","LIN":"8鄰","STREET":"育平九街","SECT":" ","MAREA":" ","LANE":"２２巷","ALLEY":" ","HOUSE_NO":"５號五樓之４","E_COORD97":165413.85000000001,"N_COORD97":2543981.5499999998,"ADDRESS":"育平九街２２巷５號五樓之４","OBJECTID":301426},"geometry":{"x":165413.85000000056,"y":2543981.5500000026}},{"attributes":{"ID":301435,"DIS_CODE":0,"TOWNNAME":"安平區","LI":"華平里","LIN":"8鄰","STREET":"育平九街","SECT":" ","MAREA":" ","LANE":"２２巷","ALLEY":" ","HOUSE_NO":"５號五樓之５","E_COORD97":165413.85000000001,"N_COORD97":2543981.5499999998,"ADDRESS":"育平九街２２巷５號五樓之５","OBJECTID":301427},"geometry":{"x":165413.85000000056,"y":2543981.5500000026}},{"attributes":{"ID":301436,"DIS_CODE":0,"TOWNNAME":"安平區","LI":"華平里","LIN":"8鄰","STREET":"育平九街","SECT":" ","MAREA":" ","LANE":"２２巷","ALLEY":" ","HOUSE_NO":"５號五樓之６","E_COORD97":165413.85000000001,"N_COORD97":2543981.5499999998,"ADDRESS":"育平九街２２巷５號五樓之６","OBJECTID":301428},"geometry":{"x":165413.85000000056,"y":2543981.5500000026}},{"attributes":{"ID":301437,"DIS_CODE":0,"TOWNNAME":"麻豆區","LI":"大山里","LIN":"7鄰","STREET":" ","SECT":" ","MAREA":"大山\u25A0","LANE":" ","ALLEY":" ","HOUSE_NO":"６８號之５","E_COORD97":170194.67999999999,"N_COORD97":2566260.8799999999,"ADDRESS":"大山\u25A0６８號之５","OBJECTID":301429},"geometry":{"x":170194.6799999997,"y":2566260.879999999}},{"attributes":{"ID":301438,"DIS_CODE":0,"TOWNNAME":"安平區","LI":"華平里","LIN":"8鄰","STREET":"育平九街","SECT":" ","MAREA":" ","LANE":"２２巷","ALLEY":" ","HOUSE_NO":"５號五樓之７","E_COORD97":165413.85000000001,"N_COORD97":2543981.5499999998,"ADDRESS":"育平九街２２巷５號五樓之７","OBJECTID":301430},"geometry":{"x":165413.85000000056,"y":2543981.5500000026}},{"attributes":{"ID":301439,"DIS_CODE":0,"TOWNNAME":"善化區","LI":"文正里","LIN":"14鄰","STREET":"興農路","SECT":" ","MAREA":" ","LANE":" ","ALLEY":" ","HOUSE_NO":"１６４號","E_COORD97":176121.26999999999,"N_COORD97":2559122.2599999998,"ADDRESS":"興農路１６４號","OBJECTID":301431},"geometry":{"x":176121.27000000048,"y":2559122.2599999998}},{"attributes":{"ID":301440,"DIS_CODE":0,"TOWNNAME":"仁德區","LI":"太子里","LIN":"27鄰","STREET":"中正路","SECT":"三段","MAREA":" ","LANE":"５２３巷","ALLEY":" ","HOUSE_NO":"１０２號","E_COORD97":173599.89013799999,"N_COORD97":2543090.15484,"ADDRESS":"中正路三段５２３巷１０２號","OBJECTID":301432},"geometry":{"x":173599.89013800118,"y":2543090.1548380014}},{"attributes":{"ID":301441,"DIS_CODE":0,"TOWNNAME":"仁德區","LI":"仁義里","LIN":"1鄰","STREET":"義林五街","SECT":" ","MAREA":" ","LANE":" ","ALLEY":" ","HOUSE_NO":"１０３號","E_COORD97":174169.75969400001,"N_COORD97":2541028.1336300001,"ADDRESS":"義林五街１０３號","OBJECTID":301433},"geometry":{"x":174169.75969399884,"y":2541028.1336350013}},{"attributes":{"ID":301442,"DIS_CODE":0,"TOWNNAME":"仁德區","LI":"仁和里","LIN":"2鄰","STREET":"和愛街","SECT":" ","MAREA":" ","LANE":" ","ALLEY":" ","HOUSE_NO":"３號三樓之１","E_COORD97":170387.54999999999,"N_COORD97":2540119.5299999998,"ADDRESS":"和愛街３號三樓之１","OBJECTID":301434},"geometry":{"x":170387.54999999981,"y":2540119.5299999993}},{"attributes":{"ID":301443,"DIS_CODE":0,"TOWNNAME":"仁德區","LI":"仁和里","LIN":"2鄰","STREET":"和愛街","SECT":" ","MAREA":" ","LANE":" ","ALLEY":" ","HOUSE_NO":"３號三樓之２","E_COORD97":170387.54999999999,"N_COORD97":2540119.5299999998,"ADDRESS":"和愛街３號三樓之２","OBJECTID":301435},"geometry":{"x":170387.54999999981,"y":2540119.5299999993}},{"attributes":{"ID":301444,"DIS_CODE":0,"TOWNNAME":"仁德區","LI":"仁和里","LIN":"2鄰","STREET":"和愛街","SECT":" ","MAREA":" ","LANE":" ","ALLEY":" ","HOUSE_NO":"３號三樓之３","E_COORD97":170387.54999999999,"N_COORD97":2540119.5299999998,"ADDRESS":"和愛街３號三樓之３","OBJECTID":301436},"geometry":{"x":170387.54999999981,"y":2540119.5299999993}},{"attributes":{"ID":301445,"DIS_CODE":0,"TOWNNAME":"仁德區","LI":"仁和里","LIN":"2鄰","STREET":"和愛街","SECT":" ","MAREA":" ","LANE":" ","ALLEY":" ","HOUSE_NO":"３號三樓之５","E_COORD97":170387.54999999999,"N_COORD97":2540119.5299999998,"ADDRESS":"和愛街３號三樓之５","OBJECTID":301437},"geometry":{"x":170387.54999999981,"y":2540119.5299999993}},{"attributes":{"ID":301446,"DIS_CODE":0,"TOWNNAME":"仁德區","LI":"仁和里","LIN":"2鄰","STREET":"和愛街","SECT":" ","MAREA":" ","LANE":" ","ALLEY":" ","HOUSE_NO":"３號四樓之１","E_COORD97":170387.54999999999,"N_COORD97":2540119.5299999998,"ADDRESS":"和愛街３號四樓之１","OBJECTID":301438},"geometry":{"x":170387.54999999981,"y":2540119.5299999993}},{"attributes":{"ID":301447,"DIS_CODE":0,"TOWNNAME":"仁德區","LI":"仁和里","LIN":"2鄰","STREET":"和愛街","SECT":" ","MAREA":" ","LANE":" ","ALLEY":" ","HOUSE_NO":"３號四樓之２","E_COORD97":170387.54999999999,"N_COORD97":2540119.5299999998,"ADDRESS":"和愛街３號四樓之２","OBJECTID":301439},"geometry":{"x":170387.54999999981,"y":2540119.5299999993}},{"attributes":{"ID":301448,"DIS_CODE":0,"TOWNNAME":"仁德區","LI":"仁和里","LIN":"2鄰","STREET":"和愛街","SECT":" ","MAREA":" ","LANE":" ","ALLEY":" ","HOUSE_NO":"３號四樓之３","E_COORD97":170387.54999999999,"N_COORD97":2540119.5299999998,"ADDRESS":"和愛街３號四樓之３","OBJECTID":301440},"geometry":{"x":170387.54999999981,"y":2540119.5299999993}},{"attributes":{"ID":301449,"DIS_CODE":0,"TOWNNAME":"仁德區","LI":"仁和里","LIN":"2鄰","STREET":"和愛街","SECT":" ","MAREA":" ","LANE":" ","ALLEY":" ","HOUSE_NO":"３號四樓之５","E_COORD97":170387.54999999999,"N_COORD97":2540119.5299999998,"ADDRESS":"和愛街３號四樓之５","OBJECTID":301441},"geometry":{"x":170387.54999999981,"y":2540119.5299999993}},{"attributes":{"ID":301450,"DIS_CODE":0,"TOWNNAME":"仁德區","LI":"仁和里","LIN":"2鄰","STREET":"和愛街","SECT":" ","MAREA":" ","LANE":" ","ALLEY":" ","HOUSE_NO":"３號五樓之１","E_COORD97":170387.54999999999,"N_COORD97":2540119.5299999998,"ADDRESS":"和愛街３號五樓之１","OBJECTID":301442},"geometry":{"x":170387.54999999981,"y":2540119.5299999993}},{"attributes":{"ID":301451,"DIS_CODE":0,"TOWNNAME":"新營區","LI":"埤寮里","LIN":"2鄰","STREET":" ","SECT":" ","MAREA":"許丑","LANE":" ","ALLEY":" ","HOUSE_NO":"２１號之４","E_COORD97":179974.98999999999,"N_COORD97":2580993.7799999998,"ADDRESS":"許丑２１號之４","OBJECTID":301443},"geometry":{"x":179974.99000000115,"y":2580993.7800000031}},{"attributes":{"ID":301452,"DIS_CODE":0,"TOWNNAME":"仁德區","LI":"仁和里","LIN":"2鄰","STREET":"和愛街","SECT":" ","MAREA":" ","LANE":" ","ALLEY":" ","HOUSE_NO":"３號五樓之２","E_COORD97":170387.54999999999,"N_COORD97":2540119.5299999998,"ADDRESS":"和愛街３號五樓之２","OBJECTID":301444},"geometry":{"x":170387.54999999981,"y":2540119.5299999993}},{"attributes":{"ID":301453,"DIS_CODE":0,"TOWNNAME":"仁德區","LI":"仁和里","LIN":"2鄰","STREET":"和愛街","SECT":" ","MAREA":" ","LANE":" ","ALLEY":" ","HOUSE_NO":"３號五樓之３","E_COORD97":170387.54999999999,"N_COORD97":2540119.5299999998,"ADDRESS":"和愛街３號五樓之３","OBJECTID":301445},"geometry":{"x":170387.54999999981,"y":2540119.5299999993}},{"attributes":{"ID":301454,"DIS_CODE":0,"TOWNNAME":"仁德區","LI":"仁和里","LIN":"2鄰","STREET":"和愛街","SECT":" ","MAREA":" ","LANE":" ","ALLEY":" ","HOUSE_NO":"３號五樓之５","E_COORD97":170387.54999999999,"N_COORD97":2540119.5299999998,"ADDRESS":"和愛街３號五樓之５","OBJECTID":301446},"geometry":{"x":170387.54999999981,"y":2540119.5299999993}},{"attributes":{"ID":301455,"DIS_CODE":0,"TOWNNAME":"仁德區","LI":"仁和里","LIN":"2鄰","STREET":"和愛街","SECT":" ","MAREA":" ","LANE":" ","ALLEY":" ","HOUSE_NO":"３號六樓之１","E_COORD97":170387.54999999999,"N_COORD97":2540119.5299999998,"ADDRESS":"和愛街３號六樓之１","OBJECTID":301447},"geometry":{"x":170387.54999999981,"y":2540119.5299999993}},{"attributes":{"ID":301456,"DIS_CODE":0,"TOWNNAME":"仁德區","LI":"仁和里","LIN":"2鄰","STREET":"和愛街","SECT":" ","MAREA":" ","LANE":" ","ALLEY":" ","HOUSE_NO":"３號六樓之２","E_COORD97":170387.54999999999,"N_COORD97":2540119.5299999998,"ADDRESS":"和愛街３號六樓之２","OBJECTID":301448},"geometry":{"x":170387.54999999981,"y":2540119.5299999993}},{"attributes":{"ID":301457,"DIS_CODE":0,"TOWNNAME":"仁德區","LI":"仁和里","LIN":"2鄰","STREET":"和愛街","SECT":" ","MAREA":" ","LANE":" ","ALLEY":" ","HOUSE_NO":"３號六樓之３","E_COORD97":170387.54999999999,"N_COORD97":2540119.5299999998,"ADDRESS":"和愛街３號六樓之３","OBJECTID":301449},"geometry":{"x":170387.54999999981,"y":2540119.5299999993}},{"attributes":{"ID":301458,"DIS_CODE":0,"TOWNNAME":"仁德區","LI":"仁和里","LIN":"2鄰","STREET":"和愛街","SECT":" ","MAREA":" ","LANE":" ","ALLEY":" ","HOUSE_NO":"３號六樓之５","E_COORD97":170387.54999999999,"N_COORD97":2540119.5299999998,"ADDRESS":"和愛街３號六樓之５","OBJECTID":301450},"geometry":{"x":170387.54999999981,"y":2540119.5299999993}},{"attributes":{"ID":301459,"DIS_CODE":0,"TOWNNAME":"仁德區","LI":"仁和里","LIN":"2鄰","STREET":"和愛街","SECT":" ","MAREA":" ","LANE":" ","ALLEY":" ","HOUSE_NO":"３號七樓之１","E_COORD97":170387.54999999999,"N_COORD97":2540119.5299999998,"ADDRESS":"和愛街３號七樓之１","OBJECTID":301451},"geometry":{"x":170387.54999999981,"y":2540119.5299999993}},{"attributes":{"ID":301460,"DIS_CODE":0,"TOWNNAME":"仁德區","LI":"仁和里","LIN":"2鄰","STREET":"和愛街","SECT":" ","MAREA":" ","LANE":" ","ALLEY":" ","HOUSE_NO":"３號七樓之２","E_COORD97":170387.54999999999,"N_COORD97":2540119.5299999998,"ADDRESS":"和愛街３號七樓之２","OBJECTID":301452},"geometry":{"x":170387.54999999981,"y":2540119.5299999993}},{"attributes":{"ID":301461,"DIS_CODE":0,"TOWNNAME":"仁德區","LI":"仁和里","LIN":"2鄰","STREET":"和愛街","SECT":" ","MAREA":" ","LANE":" ","ALLEY":" ","HOUSE_NO":"３號七樓之３","E_COORD97":170387.54999999999,"N_COORD97":2540119.5299999998,"ADDRESS":"和愛街３號七樓之３","OBJECTID":301453},"geometry":{"x":170387.54999999981,"y":2540119.5299999993}},{"attributes":{"ID":301462,"DIS_CODE":0,"TOWNNAME":"安平區","LI":"華平里","LIN":"8鄰","STREET":"育平九街","SECT":" ","MAREA":" ","LANE":"２２巷","ALLEY":" ","HOUSE_NO":"５號五樓之８","E_COORD97":165413.85000000001,"N_COORD97":2543981.5499999998,"ADDRESS":"育平九街２２巷５號五樓之８","OBJECTID":301454},"geometry":{"x":165413.85000000056,"y":2543981.5500000026}},{"attributes":{"ID":301463,"DIS_CODE":0,"TOWNNAME":"安平區","LI":"華平里","LIN":"8鄰","STREET":"育平九街","SECT":" ","MAREA":" ","LANE":"２２巷","ALLEY":" ","HOUSE_NO":"５號五樓之９","E_COORD97":165413.85000000001,"N_COORD97":2543981.5499999998,"ADDRESS":"育平九街２２巷５號五樓之９","OBJECTID":301455},"geometry":{"x":165413.85000000056,"y":2543981.5500000026}},{"attributes":{"ID":301464,"DIS_CODE":0,"TOWNNAME":"安平區","LI":"華平里","LIN":"8鄰","STREET":"育平九街","SECT":" ","MAREA":" ","LANE":"２２巷","ALLEY":" ","HOUSE_NO":"５號六樓之１","E_COORD97":165413.85000000001,"N_COORD97":2543981.5499999998,"ADDRESS":"育平九街２２巷５號六樓之１","OBJECTID":301456},"geometry":{"x":165413.85000000056,"y":2543981.5500000026}},{"attributes":{"ID":301465,"DIS_CODE":0,"TOWNNAME":"安平區","LI":"華平里","LIN":"8鄰","STREET":"育平九街","SECT":" ","MAREA":" ","LANE":"２２巷","ALLEY":" ","HOUSE_NO":"５號六樓之１０","E_COORD97":165413.85000000001,"N_COORD97":2543981.5499999998,"ADDRESS":"育平九街２２巷５號六樓之１０","OBJECTID":301457},"geometry":{"x":165413.85000000056,"y":2543981.5500000026}},{"attributes":{"ID":301466,"DIS_CODE":0,"TOWNNAME":"安平區","LI":"華平里","LIN":"8鄰","STREET":"育平九街","SECT":" ","MAREA":" ","LANE":"２２巷","ALLEY":" ","HOUSE_NO":"５號六樓之１１","E_COORD97":165413.85000000001,"N_COORD97":2543981.5499999998,"ADDRESS":"育平九街２２巷５號六樓之１１","OBJECTID":301458},"geometry":{"x":165413.85000000056,"y":2543981.5500000026}},{"attributes":{"ID":301467,"DIS_CODE":0,"TOWNNAME":"安平區","LI":"華平里","LIN":"8鄰","STREET":"育平九街","SECT":" ","MAREA":" ","LANE":"２２巷","ALLEY":" ","HOUSE_NO":"５號六樓之１２","E_COORD97":165413.85000000001,"N_COORD97":2543981.5499999998,"ADDRESS":"育平九街２２巷５號六樓之１２","OBJECTID":301459},"geometry":{"x":165413.85000000056,"y":2543981.5500000026}},{"attributes":{"ID":301468,"DIS_CODE":0,"TOWNNAME":"安平區","LI":"華平里","LIN":"8鄰","STREET":"育平九街","SECT":" ","MAREA":" ","LANE":"２２巷","ALLEY":" ","HOUSE_NO":"５號六樓之１３","E_COORD97":165413.85000000001,"N_COORD97":2543981.5499999998,"ADDRESS":"育平九街２２巷５號六樓之１３","OBJECTID":301460},"geometry":{"x":165413.85000000056,"y":2543981.5500000026}},{"attributes":{"ID":301469,"DIS_CODE":0,"TOWNNAME":"安平區","LI":"華平里","LIN":"8鄰","STREET":"育平九街","SECT":" ","MAREA":" ","LANE":"２２巷","ALLEY":" ","HOUSE_NO":"５號六樓之１４","E_COORD97":165413.85000000001,"N_COORD97":2543981.5499999998,"ADDRESS":"育平九街２２巷５號六樓之１４","OBJECTID":301461},"geometry":{"x":165413.85000000056,"y":2543981.5500000026}},{"attributes":{"ID":301470,"DIS_CODE":0,"TOWNNAME":"安平區","LI":"華平里","LIN":"8鄰","STREET":"育平九街","SECT":" ","MAREA":" ","LANE":"２２巷","ALLEY":" ","HOUSE_NO":"５號六樓之１５","E_COORD97":165413.85000000001,"N_COORD97":2543981.5499999998,"ADDRESS":"育平九街２２巷５號六樓之１５","OBJECTID":301462},"geometry":{"x":165413.85000000056,"y":2543981.5500000026}},{"attributes":{"ID":301471,"DIS_CODE":0,"TOWNNAME":"安平區","LI":"華平里","LIN":"8鄰","STREET":"育平九街","SECT":" ","MAREA":" ","LANE":"２２巷","ALLEY":" ","HOUSE_NO":"５號六樓之２","E_COORD97":165413.85000000001,"N_COORD97":2543981.5499999998,"ADDRESS":"育平九街２２巷５號六樓之２","OBJECTID":301463},"geometry":{"x":165413.85000000056,"y":2543981.5500000026}},{"attributes":{"ID":301472,"DIS_CODE":0,"TOWNNAME":"安平區","LI":"華平里","LIN":"8鄰","STREET":"育平九街","SECT":" ","MAREA":" ","LANE":"２２巷","ALLEY":" ","HOUSE_NO":"５號六樓之３","E_COORD97":165413.85000000001,"N_COORD97":2543981.5499999998,"ADDRESS":"育平九街２２巷５號六樓之３","OBJECTID":301464},"geometry":{"x":165413.85000000056,"y":2543981.5500000026}},{"attributes":{"ID":301473,"DIS_CODE":0,"TOWNNAME":"安平區","LI":"華平里","LIN":"8鄰","STREET":"育平九街","SECT":" ","MAREA":" ","LANE":"２２巷","ALLEY":" ","HOUSE_NO":"５號六樓之４","E_COORD97":165413.85000000001,"N_COORD97":2543981.5499999998,"ADDRESS":"育平九街２２巷５號六樓之４","OBJECTID":301465},"geometry":{"x":165413.85000000056,"y":2543981.5500000026}},{"attributes":{"ID":301474,"DIS_CODE":0,"TOWNNAME":"安平區","LI":"華平里","LIN":"8鄰","STREET":"育平九街","SECT":" ","MAREA":" ","LANE":"２２巷","ALLEY":" ","HOUSE_NO":"５號六樓之５","E_COORD97":165413.85000000001,"N_COORD97":2543981.5499999998,"ADDRESS":"育平九街２２巷５號六樓之５","OBJECTID":301466},"geometry":{"x":165413.85000000056,"y":2543981.5500000026}},{"attributes":{"ID":301475,"DIS_CODE":0,"TOWNNAME":"關廟區","LI":"深坑里","LIN":"1鄰","STREET":"南雄路","SECT":"一段","MAREA":" ","LANE":" ","ALLEY":" ","HOUSE_NO":"２９０號","E_COORD97":181889.98035999999,"N_COORD97":2537441.30015,"ADDRESS":"南雄路一段２９０號","OBJECTID":301467},"geometry":{"x":181889.98036000133,"y":2537441.3001499996}},{"attributes":{"ID":301476,"DIS_CODE":0,"TOWNNAME":"麻豆區","LI":"大山里","LIN":"7鄰","STREET":" ","SECT":" ","MAREA":"大山\u25A0","LANE":" ","ALLEY":" ","HOUSE_NO":"６８號之６","E_COORD97":170163.34,"N_COORD97":2566265.2000000002,"ADDRESS":"大山\u25A0６８號之６","OBJECTID":301468},"geometry":{"x":170163.33999999985,"y":2566265.1999999993}},{"attributes":{"ID":301477,"DIS_CODE":0,"TOWNNAME":"麻豆區","LI":"大山里","LIN":"7鄰","STREET":" ","SECT":" ","MAREA":"大山\u25A0","LANE":" ","ALLEY":" ","HOUSE_NO":"６９號之４","E_COORD97":170207.28,"N_COORD97":2566337.9399999999,"ADDRESS":"大山\u25A0６９號之４","OBJECTID":301469},"geometry":{"x":170207.28000000119,"y":2566337.9399999995}},{"attributes":{"ID":301478,"DIS_CODE":0,"TOWNNAME":"麻豆區","LI":"大山里","LIN":"7鄰","STREET":" ","SECT":" ","MAREA":"大山\u25A0","LANE":" ","ALLEY":" ","HOUSE_NO":"７０號","E_COORD97":170345.60999999999,"N_COORD97":2566253.3500000001,"ADDRESS":"大山\u25A0７０號","OBJECTID":301470},"geometry":{"x":170345.61000000127,"y":2566253.3500000015}},{"attributes":{"ID":301479,"DIS_CODE":0,"TOWNNAME":"麻豆區","LI":"大山里","LIN":"7鄰","STREET":" ","SECT":" ","MAREA":"大山\u25A0","LANE":" ","ALLEY":" ","HOUSE_NO":"７１號之１","E_COORD97":170299.31,"N_COORD97":2566258.27,"ADDRESS":"大山\u25A0７１號之１","OBJECTID":301471},"geometry":{"x":170299.31000000145,"y":2566258.2699999996}},{"attributes":{"ID":301480,"DIS_CODE":0,"TOWNNAME":"麻豆區","LI":"大山里","LIN":"7鄰","STREET":" ","SECT":" ","MAREA":"大山\u25A0","LANE":" ","ALLEY":" ","HOUSE_NO":"７１號之２","E_COORD97":170288.72,"N_COORD97":2566260.6400000001,"ADDRESS":"大山\u25A0７１號之２","OBJECTID":301472},"geometry":{"x":170288.72000000067,"y":2566260.6400000006}},{"attributes":{"ID":301481,"DIS_CODE":0,"TOWNNAME":"麻豆區","LI":"大山里","LIN":"7鄰","STREET":" ","SECT":" ","MAREA":"大山\u25A0","LANE":" ","ALLEY":" ","HOUSE_NO":"７１號之３","E_COORD97":170284.64000000001,"N_COORD97":2566259.5899999999,"ADDRESS":"大山\u25A0７１號之３","OBJECTID":301473},"geometry":{"x":170284.63999999966,"y":2566259.5899999999}},{"attributes":{"ID":301482,"DIS_CODE":0,"TOWNNAME":"麻豆區","LI":"大山里","LIN":"7鄰","STREET":" ","SECT":" ","MAREA":"大山\u25A0","LANE":" ","ALLEY":" ","HOUSE_NO":"７１號","E_COORD97":170303.29000000001,"N_COORD97":2566259.6299999999,"ADDRESS":"大山\u25A0７１號","OBJECTID":301474},"geometry":{"x":170303.2900000019,"y":2566259.6300000027}},{"attributes":{"ID":301483,"DIS_CODE":0,"TOWNNAME":"麻豆區","LI":"大山里","LIN":"7鄰","STREET":" ","SECT":" ","MAREA":"大山\u25A0","LANE":" ","ALLEY":" ","HOUSE_NO":"７４號","E_COORD97":170298.42999999999,"N_COORD97":2566319.6600000001,"ADDRESS":"大山\u25A0７４號","OBJECTID":301475},"geometry":{"x":170298.42999999877,"y":2566319.660000002}},{"attributes":{"ID":301484,"DIS_CODE":0,"TOWNNAME":"麻豆區","LI":"大山里","LIN":"7鄰","STREET":" ","SECT":" ","MAREA":"大山\u25A0","LANE":" ","ALLEY":" ","HOUSE_NO":"７５號","E_COORD97":170313.39000000001,"N_COORD97":2566326.3599999999,"ADDRESS":"大山\u25A0７５號","OBJECTID":301476},"geometry":{"x":170313.38999999966,"y":2566326.3600000031}},{"attributes":{"ID":301485,"DIS_CODE":0,"TOWNNAME":"安平區","LI":"華平里","LIN":"8鄰","STREET":"育平九街","SECT":" ","MAREA":" ","LANE":"２２巷","ALLEY":" ","HOUSE_NO":"５號六樓之６","E_COORD97":165413.85000000001,"N_COORD97":2543981.5499999998,"ADDRESS":"育平九街２２巷５號六樓之６","OBJECTID":301477},"geometry":{"x":165413.85000000056,"y":2543981.5500000026}},{"attributes":{"ID":301486,"DIS_CODE":0,"TOWNNAME":"安平區","LI":"華平里","LIN":"8鄰","STREET":"育平九街","SECT":" ","MAREA":" ","LANE":"２２巷","ALLEY":" ","HOUSE_NO":"５號六樓之７","E_COORD97":165413.85000000001,"N_COORD97":2543981.5499999998,"ADDRESS":"育平九街２２巷５號六樓之７","OBJECTID":301478},"geometry":{"x":165413.85000000056,"y":2543981.5500000026}},{"attributes":{"ID":301487,"DIS_CODE":0,"TOWNNAME":"安平區","LI":"華平里","LIN":"8鄰","STREET":"育平九街","SECT":" ","MAREA":" ","LANE":"２２巷","ALLEY":" ","HOUSE_NO":"５號六樓之８","E_COORD97":165413.85000000001,"N_COORD97":2543981.5499999998,"ADDRESS":"育平九街２２巷５號六樓之８","OBJECTID":301479},"geometry":{"x":165413.85000000056,"y":2543981.5500000026}},{"attributes":{"ID":301488,"DIS_CODE":0,"TOWNNAME":"安平區","LI":"華平里","LIN":"8鄰","STREET":"育平九街","SECT":" ","MAREA":" ","LANE":"２２巷","ALLEY":" ","HOUSE_NO":"５號四樓之１０","E_COORD97":165413.85000000001,"N_COORD97":2543981.5499999998,"ADDRESS":"育平九街２２巷５號四樓之１０","OBJECTID":301480},"geometry":{"x":165413.85000000056,"y":2543981.5500000026}},{"attributes":{"ID":301489,"DIS_CODE":0,"TOWNNAME":"善化區","LI":"文正里","LIN":"14鄰","STREET":"興農路","SECT":" ","MAREA":" ","LANE":" ","ALLEY":" ","HOUSE_NO":"１６６號","E_COORD97":176102.45999999999,"N_COORD97":2559157.0099999998,"ADDRESS":"興農路１６６號","OBJECTID":301481},"geometry":{"x":176102.45999999996,"y":2559157.0099999998}},{"attributes":{"ID":301490,"DIS_CODE":0,"TOWNNAME":"善化區","LI":"文正里","LIN":"14鄰","STREET":"興農路","SECT":" ","MAREA":" ","LANE":" ","ALLEY":" ","HOUSE_NO":"１８４號","E_COORD97":176050.67999999999,"N_COORD97":2559127.2599999998,"ADDRESS":"興農路１８４號","OBJECTID":301482},"geometry":{"x":176050.68000000063,"y":2559127.2600000016}},{"attributes":{"ID":301491,"DIS_CODE":0,"TOWNNAME":"善化區","LI":"光文里","LIN":"14鄰","STREET":"大成路","SECT":" ","MAREA":" ","LANE":" ","ALLEY":" ","HOUSE_NO":"１５２號","E_COORD97":178502.26000000001,"N_COORD97":2558897.5,"ADDRESS":"大成路１５２號","OBJECTID":301483},"geometry":{"x":178502.25999999978,"y":2558897.5}},{"attributes":{"ID":301492,"DIS_CODE":0,"TOWNNAME":"善化區","LI":"光文里","LIN":"14鄰","STREET":"樹人路","SECT":" ","MAREA":" ","LANE":" ","ALLEY":" ","HOUSE_NO":"１４號","E_COORD97":178409.97,"N_COORD97":2558930.75,"ADDRESS":"樹人路１４號","OBJECTID":301484},"geometry":{"x":178409.97000000067,"y":2558930.7500000019}},{"attributes":{"ID":301493,"DIS_CODE":0,"TOWNNAME":"安平區","LI":"華平里","LIN":"8鄰","STREET":"育平九街","SECT":" ","MAREA":" ","LANE":"２２巷","ALLEY":" ","HOUSE_NO":"５號四樓之１１","E_COORD97":165413.85000000001,"N_COORD97":2543981.5499999998,"ADDRESS":"育平九街２２巷５號四樓之１１","OBJECTID":301485},"geometry":{"x":165413.85000000056,"y":2543981.5500000026}},{"attributes":{"ID":301494,"DIS_CODE":0,"TOWNNAME":"仁德區","LI":"後壁里","LIN":"5鄰","STREET":"德善一街","SECT":" ","MAREA":" ","LANE":" ","ALLEY":" ","HOUSE_NO":"２號","E_COORD97":173371.151988,"N_COORD97":2538896.50116,"ADDRESS":"德善一街２號","OBJECTID":301486},"geometry":{"x":173371.15198799968,"y":2538896.501162}},{"attributes":{"ID":301495,"DIS_CODE":0,"TOWNNAME":"善化區","LI":"坐駕里","LIN":"14鄰","STREET":"自立路","SECT":" ","MAREA":" ","LANE":" ","ALLEY":" ","HOUSE_NO":"５９號","E_COORD97":178194.13,"N_COORD97":2558650,"ADDRESS":"自立路５９號","OBJECTID":301487},"geometry":{"x":178194.13000000082,"y":2558650}},{"attributes":{"ID":301496,"DIS_CODE":0,"TOWNNAME":"善化區","LI":"光文里","LIN":"14鄰","STREET":"民生路","SECT":" ","MAREA":" ","LANE":" ","ALLEY":" ","HOUSE_NO":"１７１號","E_COORD97":178471.07000000001,"N_COORD97":2558953.2599999998,"ADDRESS":"民生路１７１號","OBJECTID":301488},"geometry":{"x":178471.07000000123,"y":2558953.2599999979}},{"attributes":{"ID":301497,"DIS_CODE":0,"TOWNNAME":"善化區","LI":"光文里","LIN":"14鄰","STREET":"民生路","SECT":" ","MAREA":" ","LANE":" ","ALLEY":" ","HOUSE_NO":"１７４號","E_COORD97":178464.26999999999,"N_COORD97":2558969.2599999998,"ADDRESS":"民生路１７４號","OBJECTID":301489},"geometry":{"x":178464.27000000048,"y":2558969.2599999998}},{"attributes":{"ID":301498,"DIS_CODE":0,"TOWNNAME":"東區","LI":"富裕里","LIN":"14鄰","STREET":"裕豐街","SECT":" ","MAREA":" ","LANE":" ","ALLEY":" ","HOUSE_NO":"９２號","E_COORD97":170736.64000000001,"N_COORD97":2542852.9399999999,"ADDRESS":"裕豐街９２號","OBJECTID":301490},"geometry":{"x":170736.6400000006,"y":2542852.9399999995}},{"attributes":{"ID":301499,"DIS_CODE":0,"TOWNNAME":"東區","LI":"崇誨里","LIN":"14鄰","STREET":"林森路","SECT":"二段","MAREA":" ","LANE":" ","ALLEY":" ","HOUSE_NO":"１９８號","E_COORD97":170468.07999999999,"N_COORD97":2543365.6800000002,"ADDRESS":"林森路二段１９８號","OBJECTID":301491},"geometry":{"x":170468.08000000101,"y":2543365.6800000016}},{"attributes":{"ID":301500,"DIS_CODE":0,"TOWNNAME":"安平區","LI":"華平里","LIN":"8鄰","STREET":"育平九街","SECT":" ","MAREA":" ","LANE":"２２巷","ALLEY":" ","HOUSE_NO":"５號四樓之１２","E_COORD97":165413.85000000001,"N_COORD97":2543981.5499999998,"ADDRESS":"育平九街２２巷５號四樓之１２","OBJECTID":301492},"geometry":{"x":165413.85000000056,"y":2543981.5500000026}},{"attributes":{"ID":301501,"DIS_CODE":0,"TOWNNAME":"麻豆區","LI":"總榮里","LIN":"2鄰","STREET":" ","SECT":" ","MAREA":"總爺\u25A0","LANE":" ","ALLEY":" ","HOUSE_NO":"１５號之３","E_COORD97":175105.53,"N_COORD97":2564595.4100000001,"ADDRESS":"總爺\u25A0１５號之３","OBJECTID":301493},"geometry":{"x":175105.53000000026,"y":2564595.410000002}},{"attributes":{"ID":301502,"DIS_CODE":0,"TOWNNAME":"麻豆區","LI":"總榮里","LIN":"2鄰","STREET":" ","SECT":" ","MAREA":"總爺\u25A0","LANE":" ","ALLEY":" ","HOUSE_NO":"１５號","E_COORD97":175108.60999999999,"N_COORD97":2564630.5099999998,"ADDRESS":"總爺\u25A0１５號","OBJECTID":301494},"geometry":{"x":175108.61000000034,"y":2564630.5099999979}},{"attributes":{"ID":301503,"DIS_CODE":0,"TOWNNAME":"麻豆區","LI":"總榮里","LIN":" ","STREET":" ","SECT":" ","MAREA":"總爺\u25A0","LANE":" ","ALLEY":" ","HOUSE_NO":"８０之１３號","E_COORD97":175003.20000000001,"N_COORD97":2564506.2200000002,"ADDRESS":"總爺\u25A0８０之１３號","OBJECTID":301495},"geometry":{"x":175003.20000000205,"y":2564506.2200000025}},{"attributes":{"ID":301504,"DIS_CODE":0,"TOWNNAME":"麻豆區","LI":"總榮里","LIN":"5鄰","STREET":" ","SECT":" ","MAREA":"總爺\u25A0","LANE":" ","ALLEY":" ","HOUSE_NO":"４２號之１","E_COORD97":175055.20999999999,"N_COORD97":2564422.2200000002,"ADDRESS":"總爺\u25A0４２號之１","OBJECTID":301496},"geometry":{"x":175055.20999999903,"y":2564422.2200000007}},{"attributes":{"ID":301505,"DIS_CODE":0,"TOWNNAME":"安平區","LI":"華平里","LIN":"8鄰","STREET":"育平九街","SECT":" ","MAREA":" ","LANE":"２２巷","ALLEY":" ","HOUSE_NO":"５號四樓之１３","E_COORD97":165413.85000000001,"N_COORD97":2543981.5499999998,"ADDRESS":"育平九街２２巷５號四樓之１３","OBJECTID":301497},"geometry":{"x":165413.85000000056,"y":2543981.5500000026}},{"attributes":{"ID":301506,"DIS_CODE":0,"TOWNNAME":"安平區","LI":"華平里","LIN":"8鄰","STREET":"育平九街","SECT":" ","MAREA":" ","LANE":"２２巷","ALLEY":" ","HOUSE_NO":"５號四樓之１４","E_COORD97":165413.85000000001,"N_COORD97":2543981.5499999998,"ADDRESS":"育平九街２２巷５號四樓之１４","OBJECTID":301498},"geometry":{"x":165413.85000000056,"y":2543981.5500000026}},{"attributes":{"ID":301507,"DIS_CODE":0,"TOWNNAME":"安平區","LI":"華平里","LIN":"8鄰","STREET":"育平九街","SECT":" ","MAREA":" ","LANE":"２２巷","ALLEY":" ","HOUSE_NO":"５號四樓之１５","E_COORD97":165413.85000000001,"N_COORD97":2543981.5499999998,"ADDRESS":"育平九街２２巷５號四樓之１５","OBJECTID":301499},"geometry":{"x":165413.85000000056,"y":2543981.5500000026}},{"attributes":{"ID":301508,"DIS_CODE":0,"TOWNNAME":"安南區","LI":"四草里","LIN":"5鄰","STREET":"北汕尾一路","SECT":" ","MAREA":" ","LANE":"９６巷","ALLEY":" ","HOUSE_NO":"４７號","E_COORD97":160837.06381399999,"N_COORD97":2546118.40099,"ADDRESS":"北汕尾一路９６巷４７號","OBJECTID":301500},"geometry":{"x":160837.06381400116,"y":2546118.4009949993}},{"attributes":{"ID":301509,"DIS_CODE":0,"TOWNNAME":"安平區","LI":"華平里","LIN":"8鄰","STREET":"育平九街","SECT":" ","MAREA":" ","LANE":"２２巷","ALLEY":" ","HOUSE_NO":"５號四樓之１６","E_COORD97":165413.85000000001,"N_COORD97":2543981.5499999998,"ADDRESS":"育平九街２２巷５號四樓之１６","OBJECTID":301501},"geometry":{"x":165413.85000000056,"y":2543981.5500000026}},{"attributes":{"ID":301510,"DIS_CODE":0,"TOWNNAME":"安平區","LI":"華平里","LIN":"8鄰","STREET":"育平九街","SECT":" ","MAREA":" ","LANE":"２２巷","ALLEY":" ","HOUSE_NO":"５號四樓之１７","E_COORD97":165413.85000000001,"N_COORD97":2543981.5499999998,"ADDRESS":"育平九街２２巷５號四樓之１７","OBJECTID":301502},"geometry":{"x":165413.85000000056,"y":2543981.5500000026}},{"attributes":{"ID":301511,"DIS_CODE":0,"TOWNNAME":"麻豆區","LI":"總榮里","LIN":"1鄰","STREET":" ","SECT":" ","MAREA":"總爺\u25A0","LANE":" ","ALLEY":" ","HOUSE_NO":"１號之１","E_COORD97":174949.5,"N_COORD97":2564804.0899999999,"ADDRESS":"總爺\u25A0１號之１","OBJECTID":301503},"geometry":{"x":174949.5,"y":2564804.0900000017}},{"attributes":{"ID":301512,"DIS_CODE":0,"TOWNNAME":"北區","LI":"中樓里","LIN":"8鄰","STREET":"東豐路","SECT":" ","MAREA":" ","LANE":"８５巷","ALLEY":" ","HOUSE_NO":"４７號二樓","E_COORD97":169701.85000000001,"N_COORD97":2545002.7799999998,"ADDRESS":"東豐路８５巷４７號二樓","OBJECTID":301504},"geometry":{"x":169701.84999999963,"y":2545002.7800000012}},{"attributes":{"ID":301513,"DIS_CODE":0,"TOWNNAME":"北區","LI":"中樓里","LIN":"8鄰","STREET":"東豐路","SECT":" ","MAREA":" ","LANE":"８５巷","ALLEY":" ","HOUSE_NO":"４７號三樓","E_COORD97":169701.85000000001,"N_COORD97":2545002.7799999998,"ADDRESS":"東豐路８５巷４７號三樓","OBJECTID":301505},"geometry":{"x":169701.84999999963,"y":2545002.7800000012}},{"attributes":{"ID":301514,"DIS_CODE":0,"TOWNNAME":"北區","LI":"中樓里","LIN":"8鄰","STREET":"東豐路","SECT":" ","MAREA":" ","LANE":"８５巷","ALLEY":" ","HOUSE_NO":"４７號五樓","E_COORD97":169701.85000000001,"N_COORD97":2545002.7799999998,"ADDRESS":"東豐路８５巷４７號五樓","OBJECTID":301506},"geometry":{"x":169701.84999999963,"y":2545002.7800000012}},{"attributes":{"ID":301515,"DIS_CODE":0,"TOWNNAME":"北區","LI":"中樓里","LIN":"8鄰","STREET":"東豐路","SECT":" ","MAREA":" ","LANE":"８５巷","ALLEY":" ","HOUSE_NO":"４７號四樓","E_COORD97":169701.85000000001,"N_COORD97":2545002.7799999998,"ADDRESS":"東豐路８５巷４７號四樓","OBJECTID":301507},"geometry":{"x":169701.84999999963,"y":2545002.7800000012}},{"attributes":{"ID":301516,"DIS_CODE":0,"TOWNNAME":"歸仁區","LI":"武東里","LIN":"8鄰","STREET":"武東一街","SECT":" ","MAREA":" ","LANE":"４９巷","ALLEY":" ","HOUSE_NO":"６６號五樓之２","E_COORD97":175800.26000000001,"N_COORD97":2535538.2999999998,"ADDRESS":"武東一街４９巷６６號五樓之２","OBJECTID":301508},"geometry":{"x":175800.25999999978,"y":2535538.3000000026}},{"attributes":{"ID":301517,"DIS_CODE":0,"TOWNNAME":"麻豆區","LI":"總榮里","LIN":"6鄰","STREET":" ","SECT":" ","MAREA":"總爺\u25A0","LANE":" ","ALLEY":" ","HOUSE_NO":"６２號之４","E_COORD97":174855.29999999999,"N_COORD97":2564392.6299999999,"ADDRESS":"總爺\u25A0６２號之４","OBJECTID":301509},"geometry":{"x":174855.30000000075,"y":2564392.6300000008}},{"attributes":{"ID":301518,"DIS_CODE":0,"TOWNNAME":"新營區","LI":"大宏里","LIN":"7鄰","STREET":"三民路","SECT":" ","MAREA":" ","LANE":" ","ALLEY":" ","HOUSE_NO":"３１號","E_COORD97":180507.78824600001,"N_COORD97":2578479.53321,"ADDRESS":"三民路３１號","OBJECTID":301510},"geometry":{"x":180507.78824600112,"y":2578479.5332090016}},{"attributes":{"ID":301519,"DIS_CODE":0,"TOWNNAME":"歸仁區","LI":"武東里","LIN":"8鄰","STREET":"武東一街","SECT":" ","MAREA":" ","LANE":"４９巷","ALLEY":" ","HOUSE_NO":"７０號三樓之４","E_COORD97":175800.14999999999,"N_COORD97":2535538.2999999998,"ADDRESS":"武東一街４９巷７０號三樓之４","OBJECTID":301511},"geometry":{"x":175800.15000000037,"y":2535538.3000000026}},{"attributes":{"ID":301520,"DIS_CODE":0,"TOWNNAME":"歸仁區","LI":"武東里","LIN":"8鄰","STREET":"武東一街","SECT":" ","MAREA":" ","LANE":"４９巷","ALLEY":" ","HOUSE_NO":"７０號二樓之４","E_COORD97":175800.14999999999,"N_COORD97":2535538.2999999998,"ADDRESS":"武東一街４９巷７０號二樓之４","OBJECTID":301512},"geometry":{"x":175800.15000000037,"y":2535538.3000000026}},{"attributes":{"ID":301521,"DIS_CODE":0,"TOWNNAME":"歸仁區","LI":"武東里","LIN":"8鄰","STREET":"武東一街","SECT":" ","MAREA":" ","LANE":"４９巷","ALLEY":" ","HOUSE_NO":"６８號四樓之２","E_COORD97":175800.26000000001,"N_COORD97":2535538.2999999998,"ADDRESS":"武東一街４９巷６８號四樓之２","OBJECTID":301513},"geometry":{"x":175800.25999999978,"y":2535538.3000000026}},{"attributes":{"ID":301522,"DIS_CODE":0,"TOWNNAME":"歸仁區","LI":"武東里","LIN":"8鄰","STREET":"武東一街","SECT":" ","MAREA":" ","LANE":"４９巷","ALLEY":" ","HOUSE_NO":"６８號二樓之５","E_COORD97":175800.28,"N_COORD97":2535538.2999999998,"ADDRESS":"武東一街４９巷６８號二樓之５","OBJECTID":301514},"geometry":{"x":175800.28000000026,"y":2535538.3000000026}},{"attributes":{"ID":301523,"DIS_CODE":0,"TOWNNAME":"歸仁區","LI":"武東里","LIN":"8鄰","STREET":"武東一街","SECT":" ","MAREA":" ","LANE":"４９巷","ALLEY":" ","HOUSE_NO":"６６號五樓之１","E_COORD97":175800.13,"N_COORD97":2535538.2999999998,"ADDRESS":"武東一街４９巷６６號五樓之１","OBJECTID":301515},"geometry":{"x":175800.13000000082,"y":2535538.3000000026}},{"attributes":{"ID":301524,"DIS_CODE":0,"TOWNNAME":"歸仁區","LI":"武東里","LIN":"8鄰","STREET":"武東一街","SECT":" ","MAREA":" ","LANE":"４９巷","ALLEY":" ","HOUSE_NO":"６６號六樓之５","E_COORD97":175800.28,"N_COORD97":2535538.2999999998,"ADDRESS":"武東一街４９巷６６號六樓之５","OBJECTID":301516},"geometry":{"x":175800.28000000026,"y":2535538.3000000026}},{"attributes":{"ID":301525,"DIS_CODE":0,"TOWNNAME":"歸仁區","LI":"武東里","LIN":"8鄰","STREET":"武東一街","SECT":" ","MAREA":" ","LANE":"４９巷","ALLEY":" ","HOUSE_NO":"７０號四樓之４","E_COORD97":175800.14999999999,"N_COORD97":2535538.2999999998,"ADDRESS":"武東一街４９巷７０號四樓之４","OBJECTID":301517},"geometry":{"x":175800.15000000037,"y":2535538.3000000026}},{"attributes":{"ID":301526,"DIS_CODE":0,"TOWNNAME":"歸仁區","LI":"武東里","LIN":"8鄰","STREET":"武東一街","SECT":" ","MAREA":" ","LANE":"４９巷","ALLEY":" ","HOUSE_NO":"６６號二樓之１","E_COORD97":175800.13,"N_COORD97":2535538.2999999998,"ADDRESS":"武東一街４９巷６６號二樓之１","OBJECTID":301518},"geometry":{"x":175800.13000000082,"y":2535538.3000000026}},{"attributes":{"ID":301527,"DIS_CODE":0,"TOWNNAME":"歸仁區","LI":"武東里","LIN":"8鄰","STREET":"武東一街","SECT":" ","MAREA":" ","LANE":"４９巷","ALLEY":" ","HOUSE_NO":"７０號五樓之６","E_COORD97":175800.23000000001,"N_COORD97":2535538.2999999998,"ADDRESS":"武東一街４９巷７０號五樓之６","OBJECTID":301519},"geometry":{"x":175800.23000000138,"y":2535538.3000000026}},{"attributes":{"ID":301528,"DIS_CODE":0,"TOWNNAME":"南區","LI":"金華里","LIN":"5鄰","STREET":"金華路","SECT":"二段","MAREA":" ","LANE":"１４７巷","ALLEY":" ","HOUSE_NO":"２號","E_COORD97":167056.39000000001,"N_COORD97":2542400.4100000001,"ADDRESS":"金華路二段１４７巷２號","OBJECTID":301520},"geometry":{"x":167056.3900000006,"y":2542400.4100000001}},{"attributes":{"ID":301529,"DIS_CODE":0,"TOWNNAME":"南區","LI":"金華里","LIN":"34鄰","STREET":"新孝路","SECT":" ","MAREA":" ","LANE":"１７２巷","ALLEY":" ","HOUSE_NO":"８９號","E_COORD97":166525.23999999999,"N_COORD97":2542321.4300000002,"ADDRESS":"新孝路１７２巷８９號","OBJECTID":301521},"geometry":{"x":166525.24000000209,"y":2542321.4299999997}},{"attributes":{"ID":301530,"DIS_CODE":0,"TOWNNAME":"南區","LI":"金華里","LIN":"34鄰","STREET":"新孝路","SECT":" ","MAREA":" ","LANE":"１７２巷","ALLEY":" ","HOUSE_NO":"９１號","E_COORD97":166527.39999999999,"N_COORD97":2542325.3599999999,"ADDRESS":"新孝路１７２巷９１號","OBJECTID":301522},"geometry":{"x":166527.40000000037,"y":2542325.3599999994}},{"attributes":{"ID":301531,"DIS_CODE":0,"TOWNNAME":"東區","LI":"崇誨里","LIN":"14鄰","STREET":"林森路","SECT":"二段","MAREA":" ","LANE":" ","ALLEY":" ","HOUSE_NO":"２００號","E_COORD97":170483.48000000001,"N_COORD97":2543362.77,"ADDRESS":"林森路二段２００號","OBJECTID":301523},"geometry":{"x":170483.48000000045,"y":2543362.7699999996}},{"attributes":{"ID":301532,"DIS_CODE":0,"TOWNNAME":"中西區","LI":"開山里","LIN":"4鄰","STREET":"開山路","SECT":" ","MAREA":" ","LANE":"１２７巷","ALLEY":" ","HOUSE_NO":"３１號","E_COORD97":168897.39000000001,"N_COORD97":2543220.4100000001,"ADDRESS":"開山路１２７巷３１號","OBJECTID":301524},"geometry":{"x":168897.3900000006,"y":2543220.4100000001}},{"attributes":{"ID":301533,"DIS_CODE":0,"TOWNNAME":"南區","LI":"金華里","LIN":"34鄰","STREET":"新孝路","SECT":" ","MAREA":" ","LANE":"１７２巷","ALLEY":" ","HOUSE_NO":"９３號","E_COORD97":166528.88,"N_COORD97":2542329.3399999999,"ADDRESS":"新孝路１７２巷９３號","OBJECTID":301525},"geometry":{"x":166528.87999999896,"y":2542329.3399999999}},{"attributes":{"ID":301534,"DIS_CODE":0,"TOWNNAME":"南區","LI":"金華里","LIN":"34鄰","STREET":"新孝路","SECT":" ","MAREA":" ","LANE":"１７２巷","ALLEY":" ","HOUSE_NO":"９５號","E_COORD97":166530.06,"N_COORD97":2542333.27,"ADDRESS":"新孝路１７２巷９５號","OBJECTID":301526},"geometry":{"x":166530.05999999959,"y":2542333.2699999977}},{"attributes":{"ID":301535,"DIS_CODE":0,"TOWNNAME":"南區","LI":"金華里","LIN":"34鄰","STREET":"新孝路","SECT":" ","MAREA":" ","LANE":"１７２巷","ALLEY":" ","HOUSE_NO":"９７號","E_COORD97":166532.51000000001,"N_COORD97":2542336.8999999999,"ADDRESS":"新孝路１７２巷９７號","OBJECTID":301527},"geometry":{"x":166532.50999999978,"y":2542336.9000000041}},{"attributes":{"ID":301536,"DIS_CODE":0,"TOWNNAME":"東區","LI":"崇誨里","LIN":"14鄰","STREET":"林森路","SECT":"二段","MAREA":" ","LANE":" ","ALLEY":" ","HOUSE_NO":"２０２號","E_COORD97":170470.57999999999,"N_COORD97":2543373.1600000001,"ADDRESS":"林森路二段２０２號","OBJECTID":301528},"geometry":{"x":170470.58000000007,"y":2543373.160000002}},{"attributes":{"ID":301537,"DIS_CODE":0,"TOWNNAME":"麻豆區","LI":"南勢里","LIN":"2鄰","STREET":" ","SECT":" ","MAREA":"\u25A0帝\u25A0","LANE":" ","ALLEY":" ","HOUSE_NO":"１９號之２２","E_COORD97":174226.45999999999,"N_COORD97":2565975.4199999999,"ADDRESS":"\u25A0帝\u25A0１９號之２２","OBJECTID":301529},"geometry":{"x":174226.46000000183,"y":2565975.4200000018}},{"attributes":{"ID":301538,"DIS_CODE":0,"TOWNNAME":"新營區","LI":"大宏里","LIN":"7鄰","STREET":"三民路","SECT":" ","MAREA":" ","LANE":" ","ALLEY":" ","HOUSE_NO":"３１之３號","E_COORD97":180493.05270999999,"N_COORD97":2578479.3215399999,"ADDRESS":"三民路３１之３號","OBJECTID":301530},"geometry":{"x":180493.05271000043,"y":2578479.3215400018}},{"attributes":{"ID":301539,"DIS_CODE":0,"TOWNNAME":"南區","LI":"金華里","LIN":"34鄰","STREET":"新孝路","SECT":" ","MAREA":" ","LANE":"１７２巷","ALLEY":" ","HOUSE_NO":"９９號","E_COORD97":166532.91,"N_COORD97":2542341.1200000001,"ADDRESS":"新孝路１７２巷９９號","OBJECTID":301531},"geometry":{"x":166532.91000000108,"y":2542341.1200000029}},{"attributes":{"ID":301540,"DIS_CODE":0,"TOWNNAME":"安平區","LI":"怡平里","LIN":"8鄰","STREET":"慶平路","SECT":" ","MAREA":" ","LANE":"１９３巷","ALLEY":" ","HOUSE_NO":"６號八樓之３","E_COORD97":165789.95999999999,"N_COORD97":2544149.1499999999,"ADDRESS":"慶平路１９３巷６號八樓之３","OBJECTID":301532},"geometry":{"x":165789.96000000089,"y":2544149.1500000041}},{"attributes":{"ID":301541,"DIS_CODE":0,"TOWNNAME":"歸仁區","LI":"武東里","LIN":"8鄰","STREET":"武東一街","SECT":" ","MAREA":" ","LANE":"４９巷","ALLEY":" ","HOUSE_NO":"６６號三樓之３","E_COORD97":175800.22,"N_COORD97":2535538.2999999998,"ADDRESS":"武東一街４９巷６６號三樓之３","OBJECTID":301533},"geometry":{"x":175800.21999999974,"y":2535538.3000000026}},{"attributes":{"ID":301542,"DIS_CODE":0,"TOWNNAME":"歸仁區","LI":"武東里","LIN":"8鄰","STREET":"武東一街","SECT":" ","MAREA":" ","LANE":"４９巷","ALLEY":" ","HOUSE_NO":"６８號六樓之５","E_COORD97":175800.28,"N_COORD97":2535538.2999999998,"ADDRESS":"武東一街４９巷６８號六樓之５","OBJECTID":301534},"geometry":{"x":175800.28000000026,"y":2535538.3000000026}},{"attributes":{"ID":301543,"DIS_CODE":0,"TOWNNAME":"麻豆區","LI":"南勢里","LIN":"1鄰","STREET":" ","SECT":" ","MAREA":"\u25A0帝\u25A0","LANE":" ","ALLEY":" ","HOUSE_NO":"１號之２","E_COORD97":173516.42000000001,"N_COORD97":2565809.5099999998,"ADDRESS":"\u25A0帝\u25A0１號之２","OBJECTID":301535},"geometry":{"x":173516.42000000179,"y":2565809.5099999998}},{"attributes":{"ID":301544,"DIS_CODE":0,"TOWNNAME":"歸仁區","LI":"武東里","LIN":"8鄰","STREET":"武東一街","SECT":" ","MAREA":" ","LANE":"４９巷","ALLEY":" ","HOUSE_NO":"６６號二樓之２","E_COORD97":175800.26000000001,"N_COORD97":2535538.2999999998,"ADDRESS":"武東一街４９巷６６號二樓之２","OBJECTID":301536},"geometry":{"x":175800.25999999978,"y":2535538.3000000026}},{"attributes":{"ID":301545,"DIS_CODE":0,"TOWNNAME":"麻豆區","LI":"南勢里","LIN":"1鄰","STREET":" ","SECT":" ","MAREA":"\u25A0帝\u25A0","LANE":" ","ALLEY":" ","HOUSE_NO":"６號之１","E_COORD97":173540.73000000001,"N_COORD97":2565812.3500000001,"ADDRESS":"\u25A0帝\u25A0６號之１","OBJECTID":301537},"geometry":{"x":173540.73000000138,"y":2565812.3500000015}},{"attributes":{"ID":301546,"DIS_CODE":0,"TOWNNAME":"麻豆區","LI":"南勢里","LIN":"1鄰","STREET":" ","SECT":" ","MAREA":"\u25A0帝\u25A0","LANE":" ","ALLEY":" ","HOUSE_NO":"６號之６","E_COORD97":173551.79000000001,"N_COORD97":2565792.9700000002,"ADDRESS":"\u25A0帝\u25A0６號之６","OBJECTID":301538},"geometry":{"x":173551.79000000097,"y":2565792.9700000025}},{"attributes":{"ID":301547,"DIS_CODE":0,"TOWNNAME":"歸仁區","LI":"武東里","LIN":"8鄰","STREET":"武東一街","SECT":" ","MAREA":" ","LANE":"４９巷","ALLEY":" ","HOUSE_NO":"６８號三樓之１","E_COORD97":175800.13,"N_COORD97":2535538.2999999998,"ADDRESS":"武東一街４９巷６８號三樓之１","OBJECTID":301539},"geometry":{"x":175800.13000000082,"y":2535538.3000000026}},{"attributes":{"ID":301548,"DIS_CODE":0,"TOWNNAME":"麻豆區","LI":"南勢里","LIN":"8鄰","STREET":" ","SECT":" ","MAREA":"\u25A0帝\u25A0","LANE":" ","ALLEY":" ","HOUSE_NO":"５８號之６","E_COORD97":174213.27005600001,"N_COORD97":2565467.9813399999,"ADDRESS":"\u25A0帝\u25A0５８號之６","OBJECTID":301540},"geometry":{"x":174213.27005600091,"y":2565467.981339002}},{"attributes":{"ID":301549,"DIS_CODE":0,"TOWNNAME":"新市區","LI":"新和里","LIN":"20鄰","STREET":"成功街","SECT":" ","MAREA":" ","LANE":"１９巷","ALLEY":" ","HOUSE_NO":"８號","E_COORD97":177423.51999999999,"N_COORD97":2552636.77,"ADDRESS":"成功街１９巷８號","OBJECTID":301541},"geometry":{"x":177423.51999999955,"y":2552636.7700000033}},{"attributes":{"ID":301550,"DIS_CODE":0,"TOWNNAME":"新市區","LI":"新市里","LIN":"4鄰","STREET":"華興街","SECT":" ","MAREA":" ","LANE":" ","ALLEY":" ","HOUSE_NO":"２６號","E_COORD97":177759.37,"N_COORD97":2553009.25,"ADDRESS":"華興街２６號","OBJECTID":301542},"geometry":{"x":177759.37000000011,"y":2553009.25}},{"attributes":{"ID":301551,"DIS_CODE":0,"TOWNNAME":"麻豆區","LI":"莊禮里","LIN":"10鄰","STREET":" ","SECT":" ","MAREA":"\u25A0子寮","LANE":" ","ALLEY":" ","HOUSE_NO":"２３號之２","E_COORD97":169012.01999999999,"N_COORD97":2565703.6000000001,"ADDRESS":"\u25A0子寮２３號之２","OBJECTID":301543},"geometry":{"x":169012.01999999955,"y":2565703.5999999996}},{"attributes":{"ID":301552,"DIS_CODE":0,"TOWNNAME":"新市區","LI":"新市里","LIN":"4鄰","STREET":"華興街","SECT":" ","MAREA":" ","LANE":" ","ALLEY":" ","HOUSE_NO":"１４號","E_COORD97":177784.78,"N_COORD97":2553012.25,"ADDRESS":"華興街１４號","OBJECTID":301544},"geometry":{"x":177784.78000000119,"y":2553012.25}},{"attributes":{"ID":301553,"DIS_CODE":0,"TOWNNAME":"仁德區","LI":"仁義里","LIN":"13鄰","STREET":"中山路","SECT":" ","MAREA":" ","LANE":"１７０巷","ALLEY":" ","HOUSE_NO":"５號","E_COORD97":174503.87191300001,"N_COORD97":2541227.0454699998,"ADDRESS":"中山路１７０巷５號","OBJECTID":301545},"geometry":{"x":174503.87191300187,"y":2541227.0454730038}},{"attributes":{"ID":301554,"DIS_CODE":0,"TOWNNAME":"仁德區","LI":"仁義里","LIN":"13鄰","STREET":"中山路","SECT":" ","MAREA":" ","LANE":"１７０巷","ALLEY":" ","HOUSE_NO":"７號","E_COORD97":174502.60109899999,"N_COORD97":2541234.0304700001,"ADDRESS":"中山路１７０巷７號","OBJECTID":301546},"geometry":{"x":174502.60109900124,"y":2541234.0304690022}},{"attributes":{"ID":301555,"DIS_CODE":0,"TOWNNAME":"麻豆區","LI":"莊禮里","LIN":"10鄰","STREET":" ","SECT":" ","MAREA":"\u25A0子寮","LANE":" ","ALLEY":" ","HOUSE_NO":"２４號","E_COORD97":169103.64000000001,"N_COORD97":2565746.3999999999,"ADDRESS":"\u25A0子寮２４號","OBJECTID":301547},"geometry":{"x":169103.64000000153,"y":2565746.4000000004}},{"attributes":{"ID":301556,"DIS_CODE":0,"TOWNNAME":"仁德區","LI":"仁義里","LIN":"13鄰","STREET":"中山路","SECT":" ","MAREA":" ","LANE":" ","ALLEY":" ","HOUSE_NO":"１７２號","E_COORD97":174501.54208700001,"N_COORD97":2541197.6238199999,"ADDRESS":"中山路１７２號","OBJECTID":301548},"geometry":{"x":174501.54208700079,"y":2541197.6238220017}},{"attributes":{"ID":301557,"DIS_CODE":0,"TOWNNAME":"仁德區","LI":"仁義里","LIN":"13鄰","STREET":"中山路","SECT":" ","MAREA":" ","LANE":" ","ALLEY":" ","HOUSE_NO":"１７６號","E_COORD97":174496.24702800001,"N_COORD97":2541199.31715,"ADDRESS":"中山路１７６號","OBJECTID":301549},"geometry":{"x":174496.24702799972,"y":2541199.3171549998}},{"attributes":{"ID":301558,"DIS_CODE":0,"TOWNNAME":"仁德區","LI":"仁義里","LIN":"13鄰","STREET":"中山路","SECT":" ","MAREA":" ","LANE":" ","ALLEY":" ","HOUSE_NO":"１７８號","E_COORD97":174490.95196899999,"N_COORD97":2541199.7404900002,"ADDRESS":"中山路１７８號","OBJECTID":301550},"geometry":{"x":174490.95196899958,"y":2541199.7404880039}},{"attributes":{"ID":301559,"DIS_CODE":0,"TOWNNAME":"仁德區","LI":"仁義里","LIN":"13鄰","STREET":"中山路","SECT":" ","MAREA":" ","LANE":" ","ALLEY":" ","HOUSE_NO":"１８０號","E_COORD97":174487.35132799999,"N_COORD97":2541201.2221499998,"ADDRESS":"中山路１８０號","OBJECTID":301551},"geometry":{"x":174487.35132800136,"y":2541201.2221539989}},{"attributes":{"ID":301560,"DIS_CODE":0,"TOWNNAME":"新營區","LI":"南興里","LIN":"8鄰","STREET":"建業路","SECT":" ","MAREA":" ","LANE":"７８巷","ALLEY":" ","HOUSE_NO":"１號九樓之２","E_COORD97":179327.28,"N_COORD97":2577506.1800000002,"ADDRESS":"建業路７８巷１號九樓之２","OBJECTID":301552},"geometry":{"x":179327.28000000119,"y":2577506.1800000034}},{"attributes":{"ID":301561,"DIS_CODE":0,"TOWNNAME":"新營區","LI":"南興里","LIN":"8鄰","STREET":"建業路","SECT":" ","MAREA":" ","LANE":"７８巷","ALLEY":" ","HOUSE_NO":"１１號十一樓之１","E_COORD97":179330.75,"N_COORD97":2577522.7799999998,"ADDRESS":"建業路７８巷１１號十一樓之１","OBJECTID":301553},"geometry":{"x":179330.75000000093,"y":2577522.7800000012}},{"attributes":{"ID":301562,"DIS_CODE":0,"TOWNNAME":"麻豆區","LI":"莊禮里","LIN":"9鄰","STREET":" ","SECT":" ","MAREA":"\u25A0子寮","LANE":" ","ALLEY":" ","HOUSE_NO":"１３號之４","E_COORD97":169196.26000000001,"N_COORD97":2565601.0699999998,"ADDRESS":"\u25A0子寮１３號之４","OBJECTID":301554},"geometry":{"x":169196.26000000164,"y":2565601.0700000022}},{"attributes":{"ID":301563,"DIS_CODE":0,"TOWNNAME":"麻豆區","LI":"莊禮里","LIN":"9鄰","STREET":" ","SECT":" ","MAREA":"\u25A0子寮","LANE":" ","ALLEY":" ","HOUSE_NO":"１３號之６","E_COORD97":169303.29999999999,"N_COORD97":2565590.4500000002,"ADDRESS":"\u25A0子寮１３號之６","OBJECTID":301555},"geometry":{"x":169303.30000000075,"y":2565590.4500000011}},{"attributes":{"ID":301564,"DIS_CODE":0,"TOWNNAME":"麻豆區","LI":"莊禮里","LIN":"9鄰","STREET":" ","SECT":" ","MAREA":"\u25A0子寮","LANE":" ","ALLEY":" ","HOUSE_NO":"１３之８號","E_COORD97":169279.45999999999,"N_COORD97":2565543.4199999999,"ADDRESS":"\u25A0子寮１３之８號","OBJECTID":301556},"geometry":{"x":169279.45999999996,"y":2565543.4200000037}},{"attributes":{"ID":301565,"DIS_CODE":0,"TOWNNAME":"新市區","LI":"新和里","LIN":"4鄰","STREET":"中正路","SECT":" ","MAREA":" ","LANE":"２３巷","ALLEY":" ","HOUSE_NO":"６號","E_COORD97":177348.87,"N_COORD97":2552200.5,"ADDRESS":"中正路２３巷６號","OBJECTID":301557},"geometry":{"x":177348.87000000011,"y":2552200.5}},{"attributes":{"ID":301566,"DIS_CODE":0,"TOWNNAME":"新營區","LI":"南興里","LIN":"8鄰","STREET":"建業路","SECT":" ","MAREA":" ","LANE":"７８巷","ALLEY":" ","HOUSE_NO":"１號十二樓之２","E_COORD97":179328.53,"N_COORD97":2577506.1800000002,"ADDRESS":"建業路７８巷１號十二樓之２","OBJECTID":301558},"geometry":{"x":179328.53000000026,"y":2577506.1800000034}},{"attributes":{"ID":301567,"DIS_CODE":0,"TOWNNAME":"麻豆區","LI":"莊禮里","LIN":"9鄰","STREET":" ","SECT":" ","MAREA":"\u25A0子寮","LANE":" ","ALLEY":" ","HOUSE_NO":"１３號之８","E_COORD97":169279.45999999999,"N_COORD97":2565543.4199999999,"ADDRESS":"\u25A0子寮１３號之８","OBJECTID":301559},"geometry":{"x":169279.45999999996,"y":2565543.4200000037}},{"attributes":{"ID":301568,"DIS_CODE":0,"TOWNNAME":"麻豆區","LI":"莊禮里","LIN":"9鄰","STREET":" ","SECT":" ","MAREA":"\u25A0子寮","LANE":" ","ALLEY":" ","HOUSE_NO":"１３號","E_COORD97":169166.10999999999,"N_COORD97":2565685.4199999999,"ADDRESS":"\u25A0子寮１３號","OBJECTID":301560},"geometry":{"x":169166.11000000127,"y":2565685.4199999999}},{"attributes":{"ID":301569,"DIS_CODE":0,"TOWNNAME":"新市區","LI":"豐華里","LIN":"5鄰","STREET":" ","SECT":" ","MAREA":"豐華","LANE":" ","ALLEY":" ","HOUSE_NO":"３７之１號","E_COORD97":173733.88,"N_COORD97":2554299.0499999998,"ADDRESS":"豐華３７之１號","OBJECTID":301561},"geometry":{"x":173733.88000000082,"y":2554299.0500000026}},{"attributes":{"ID":301570,"DIS_CODE":0,"TOWNNAME":"麻豆區","LI":"莊禮里","LIN":"9鄰","STREET":" ","SECT":" ","MAREA":"\u25A0子寮","LANE":" ","ALLEY":" ","HOUSE_NO":"１４號之１","E_COORD97":169167.25,"N_COORD97":2565632.7000000002,"ADDRESS":"\u25A0子寮１４號之１","OBJECTID":301562},"geometry":{"x":169167.25,"y":2565632.7000000011}},{"attributes":{"ID":301571,"DIS_CODE":0,"TOWNNAME":"新營區","LI":"南興里","LIN":"8鄰","STREET":"建業路","SECT":" ","MAREA":" ","LANE":"７８巷","ALLEY":" ","HOUSE_NO":"１１號七樓之２","E_COORD97":179329.63,"N_COORD97":2577522.7799999998,"ADDRESS":"建業路７８巷１１號七樓之２","OBJECTID":301563},"geometry":{"x":179329.63000000082,"y":2577522.7800000012}},{"attributes":{"ID":301572,"DIS_CODE":0,"TOWNNAME":"新營區","LI":"南興里","LIN":"8鄰","STREET":"建業路","SECT":" ","MAREA":" ","LANE":"７８巷","ALLEY":" ","HOUSE_NO":"２１號十一樓之３","E_COORD97":179333.06,"N_COORD97":2577544.9199999999,"ADDRESS":"建業路７８巷２１號十一樓之３","OBJECTID":301564},"geometry":{"x":179333.06000000052,"y":2577544.9199999999}},{"attributes":{"ID":301573,"DIS_CODE":0,"TOWNNAME":"中西區","LI":"民權里","LIN":"1鄰","STREET":"康樂街","SECT":" ","MAREA":" ","LANE":" ","ALLEY":" ","HOUSE_NO":"１７０號","E_COORD97":167525.76999999999,"N_COORD97":2544080.75,"ADDRESS":"康樂街１７０號","OBJECTID":301565},"geometry":{"x":167525.76999999955,"y":2544080.7500000019}},{"attributes":{"ID":301574,"DIS_CODE":0,"TOWNNAME":"新市區","LI":"大社里","LIN":"26鄰","STREET":" ","SECT":" ","MAREA":"大社","LANE":" ","ALLEY":" ","HOUSE_NO":"６７３之２號","E_COORD97":179941.07000000001,"N_COORD97":2554320.7999999998,"ADDRESS":"大社６７３之２號","OBJECTID":301566},"geometry":{"x":179941.07000000123,"y":2554320.8000000026}},{"attributes":{"ID":301575,"DIS_CODE":0,"TOWNNAME":"新市區","LI":"豐華里","LIN":"13鄰","STREET":" ","SECT":" ","MAREA":"豐華","LANE":" ","ALLEY":" ","HOUSE_NO":"４７之１５３號","E_COORD97":174262.12,"N_COORD97":2554484.5499999998,"ADDRESS":"豐華４７之１５３號","OBJECTID":301567},"geometry":{"x":174262.12000000011,"y":2554484.5500000026}},{"attributes":{"ID":301576,"DIS_CODE":0,"TOWNNAME":"新市區","LI":"社內里","LIN":"13鄰","STREET":" ","SECT":" ","MAREA":"社內","LANE":" ","ALLEY":" ","HOUSE_NO":"１３７之３號","E_COORD97":176276.76000000001,"N_COORD97":2552746.2999999998,"ADDRESS":"社內１３７之３號","OBJECTID":301568},"geometry":{"x":176276.75999999978,"y":2552746.2999999989}},{"attributes":{"ID":301577,"DIS_CODE":0,"TOWNNAME":"安南區","LI":"四草里","LIN":"5鄰","STREET":"北汕尾一路","SECT":" ","MAREA":" ","LANE":"９６巷","ALLEY":" ","HOUSE_NO":"５１號","E_COORD97":160855.48968299999,"N_COORD97":2546131.1009900002,"ADDRESS":"北汕尾一路９６巷５１號","OBJECTID":301569},"geometry":{"x":160855.48968300223,"y":2546131.1009880025}},{"attributes":{"ID":301578,"DIS_CODE":0,"TOWNNAME":"安南區","LI":"四草里","LIN":"5鄰","STREET":"北汕尾一路","SECT":" ","MAREA":" ","LANE":"９６巷","ALLEY":" ","HOUSE_NO":"５３號","E_COORD97":160866.714638,"N_COORD97":2546123.9043299998,"ADDRESS":"北汕尾一路９６巷５３號","OBJECTID":301570},"geometry":{"x":160866.71463800222,"y":2546123.9043260012}},{"attributes":{"ID":301579,"DIS_CODE":0,"TOWNNAME":"安南區","LI":"四草里","LIN":"5鄰","STREET":"北汕尾一路","SECT":" ","MAREA":" ","LANE":"９６巷","ALLEY":" ","HOUSE_NO":"５５號","E_COORD97":160877.092427,"N_COORD97":2546136.3926499998,"ADDRESS":"北汕尾一路９６巷５５號","OBJECTID":301571},"geometry":{"x":160877.09242700133,"y":2546136.3926519975}},{"attributes":{"ID":301580,"DIS_CODE":0,"TOWNNAME":"安南區","LI":"四草里","LIN":"5鄰","STREET":"北汕尾一路","SECT":" ","MAREA":" ","LANE":"９６巷","ALLEY":" ","HOUSE_NO":"５７號","E_COORD97":160887.04663200001,"N_COORD97":2546138.9326499999,"ADDRESS":"北汕尾一路９６巷５７號","OBJECTID":301572},"geometry":{"x":160887.04663200118,"y":2546138.932651002}},{"attributes":{"ID":301581,"DIS_CODE":0,"TOWNNAME":"新市區","LI":"港墘里","LIN":"4鄰","STREET":"三民街","SECT":" ","MAREA":" ","LANE":"１１２巷","ALLEY":" ","HOUSE_NO":"１７號","E_COORD97":178351.20000000001,"N_COORD97":2553553.54,"ADDRESS":"三民街１１２巷１７號","OBJECTID":301573},"geometry":{"x":178351.20000000205,"y":2553553.5400000028}},{"attributes":{"ID":301582,"DIS_CODE":0,"TOWNNAME":"新營區","LI":"南興里","LIN":"8鄰","STREET":"建業路","SECT":" ","MAREA":" ","LANE":"７８巷","ALLEY":" ","HOUSE_NO":"２１號六樓之３","E_COORD97":179331.81,"N_COORD97":2577544.9199999999,"ADDRESS":"建業路７８巷２１號六樓之３","OBJECTID":301574},"geometry":{"x":179331.81000000052,"y":2577544.9199999999}},{"attributes":{"ID":301583,"DIS_CODE":0,"TOWNNAME":"南區","LI":"金華里","LIN":"6鄰","STREET":"金華路","SECT":"二段","MAREA":" ","LANE":"１４７巷","ALLEY":" ","HOUSE_NO":"１０號","E_COORD97":167017.19,"N_COORD97":2542397.4300000002,"ADDRESS":"金華路二段１４７巷１０號","OBJECTID":301575},"geometry":{"x":167017.19000000041,"y":2542397.4300000016}},{"attributes":{"ID":301584,"DIS_CODE":0,"TOWNNAME":"新營區","LI":"南興里","LIN":"8鄰","STREET":"建業路","SECT":" ","MAREA":" ","LANE":"７８巷","ALLEY":" ","HOUSE_NO":"２１號三樓之１","E_COORD97":179331.70999999999,"N_COORD97":2577544.9199999999,"ADDRESS":"建業路７８巷２１號三樓之１","OBJECTID":301576},"geometry":{"x":179331.70999999996,"y":2577544.9199999999}},{"attributes":{"ID":301585,"DIS_CODE":0,"TOWNNAME":"新營區","LI":"南興里","LIN":"8鄰","STREET":"建業路","SECT":" ","MAREA":" ","LANE":"７８巷","ALLEY":" ","HOUSE_NO":"１號四樓之２","E_COORD97":179327.28,"N_COORD97":2577506.1800000002,"ADDRESS":"建業路７８巷１號四樓之２","OBJECTID":301577},"geometry":{"x":179327.28000000119,"y":2577506.1800000034}},{"attributes":{"ID":301586,"DIS_CODE":0,"TOWNNAME":"新營區","LI":"南興里","LIN":"8鄰","STREET":"建業路","SECT":" ","MAREA":" ","LANE":"７８巷","ALLEY":" ","HOUSE_NO":"１號九樓之１","E_COORD97":179327.14999999999,"N_COORD97":2577506.1800000002,"ADDRESS":"建業路７８巷１號九樓之１","OBJECTID":301578},"geometry":{"x":179327.1500000013,"y":2577506.1800000034}},{"attributes":{"ID":301587,"DIS_CODE":0,"TOWNNAME":"新營區","LI":"南興里","LIN":"8鄰","STREET":"建業路","SECT":" ","MAREA":" ","LANE":"７８巷","ALLEY":" ","HOUSE_NO":"２１號十樓之１","E_COORD97":179331.70999999999,"N_COORD97":2577544.9199999999,"ADDRESS":"建業路７８巷２１號十樓之１","OBJECTID":301579},"geometry":{"x":179331.70999999996,"y":2577544.9199999999}},{"attributes":{"ID":301588,"DIS_CODE":0,"TOWNNAME":"南區","LI":"新昌里","LIN":"8鄰","STREET":"西門路","SECT":"一段","MAREA":" ","LANE":"５４５巷","ALLEY":" ","HOUSE_NO":"１２號二樓","E_COORD97":167668.60000000001,"N_COORD97":2542702.3700000001,"ADDRESS":"西門路一段５４５巷１２號二樓","OBJECTID":301580},"geometry":{"x":167668.60000000056,"y":2542702.370000001}},{"attributes":{"ID":301589,"DIS_CODE":0,"TOWNNAME":"南區","LI":"新昌里","LIN":"8鄰","STREET":"西門路","SECT":"一段","MAREA":" ","LANE":"５４５巷","ALLEY":" ","HOUSE_NO":"１２號三樓","E_COORD97":167668.60000000001,"N_COORD97":2542702.3700000001,"ADDRESS":"西門路一段５４５巷１２號三樓","OBJECTID":301581},"geometry":{"x":167668.60000000056,"y":2542702.370000001}},{"attributes":{"ID":301590,"DIS_CODE":0,"TOWNNAME":"南區","LI":"新昌里","LIN":"8鄰","STREET":"西門路","SECT":"一段","MAREA":" ","LANE":"５４５巷","ALLEY":" ","HOUSE_NO":"１２號四樓","E_COORD97":167668.60000000001,"N_COORD97":2542702.3700000001,"ADDRESS":"西門路一段５４５巷１２號四樓","OBJECTID":301582},"geometry":{"x":167668.60000000056,"y":2542702.370000001}},{"attributes":{"ID":301591,"DIS_CODE":0,"TOWNNAME":"東區","LI":"崇誨里","LIN":"14鄰","STREET":"林森路","SECT":"二段","MAREA":" ","LANE":" ","ALLEY":" ","HOUSE_NO":"２０４號之３","E_COORD97":170486.60000000001,"N_COORD97":2543369.8399999999,"ADDRESS":"林森路二段２０４號之３","OBJECTID":301583},"geometry":{"x":170486.59999999963,"y":2543369.8399999999}},{"attributes":{"ID":301592,"DIS_CODE":0,"TOWNNAME":"東區","LI":"富裕里","LIN":"14鄰","STREET":"裕豐街","SECT":" ","MAREA":" ","LANE":" ","ALLEY":" ","HOUSE_NO":"１００號","E_COORD97":170739.20999999999,"N_COORD97":2542869.3500000001,"ADDRESS":"裕豐街１００號","OBJECTID":301584},"geometry":{"x":170739.20999999996,"y":2542869.3500000015}},{"attributes":{"ID":301593,"DIS_CODE":0,"TOWNNAME":"東區","LI":"富裕里","LIN":"14鄰","STREET":"裕豐街","SECT":" ","MAREA":" ","LANE":" ","ALLEY":" ","HOUSE_NO":"１０２號","E_COORD97":170739.32999999999,"N_COORD97":2542873.4199999999,"ADDRESS":"裕豐街１０２號","OBJECTID":301585},"geometry":{"x":170739.33000000101,"y":2542873.4200000018}},{"attributes":{"ID":301594,"DIS_CODE":0,"TOWNNAME":"東區","LI":"富裕里","LIN":"14鄰","STREET":"裕豐街","SECT":" ","MAREA":" ","LANE":" ","ALLEY":" ","HOUSE_NO":"１０４號","E_COORD97":170739.95000000001,"N_COORD97":2542877.2599999998,"ADDRESS":"裕豐街１０４號","OBJECTID":301586},"geometry":{"x":170739.95000000112,"y":2542877.2600000016}},{"attributes":{"ID":301595,"DIS_CODE":0,"TOWNNAME":"東區","LI":"富裕里","LIN":"14鄰","STREET":"裕豐街","SECT":" ","MAREA":" ","LANE":" ","ALLEY":" ","HOUSE_NO":"１０８號","E_COORD97":170740.17999999999,"N_COORD97":2542885.8599999999,"ADDRESS":"裕豐街１０８號","OBJECTID":301587},"geometry":{"x":170740.1799999997,"y":2542885.8600000013}},{"attributes":{"ID":301596,"DIS_CODE":0,"TOWNNAME":"東區","LI":"富裕里","LIN":"14鄰","STREET":"裕豐街","SECT":" ","MAREA":" ","LANE":" ","ALLEY":" ","HOUSE_NO":"１１０號","E_COORD97":170741.42999999999,"N_COORD97":2542890.6699999999,"ADDRESS":"裕豐街１１０號","OBJECTID":301588},"geometry":{"x":170741.43000000063,"y":2542890.6700000037}},{"attributes":{"ID":301597,"DIS_CODE":0,"TOWNNAME":"新市區","LI":"大營里","LIN":"20鄰","STREET":" ","SECT":" ","MAREA":"豐榮","LANE":" ","ALLEY":" ","HOUSE_NO":"６８號","E_COORD97":178866.79000000001,"N_COORD97":2554235.25,"ADDRESS":"豐榮６８號","OBJECTID":301589},"geometry":{"x":178866.79000000004,"y":2554235.2500000019}},{"attributes":{"ID":301598,"DIS_CODE":0,"TOWNNAME":"新市區","LI":"港墘里","LIN":"7鄰","STREET":" ","SECT":" ","MAREA":"店頂","LANE":" ","ALLEY":" ","HOUSE_NO":"６號","E_COORD97":179096.10000000001,"N_COORD97":2553170.25,"ADDRESS":"店頂６號","OBJECTID":301590},"geometry":{"x":179096.10000000056,"y":2553170.2500000019}},{"attributes":{"ID":301599,"DIS_CODE":0,"TOWNNAME":"白河區","LI":"草店里","LIN":" ","STREET":" ","SECT":" ","MAREA":"草店","LANE":" ","ALLEY":" ","HOUSE_NO":"７１之１號","E_COORD97":192074.84,"N_COORD97":2587554.8300000001,"ADDRESS":"草店７１之１號","OBJECTID":301591},"geometry":{"x":192074.84000000078,"y":2587554.8300000019}},{"attributes":{"ID":301600,"DIS_CODE":0,"TOWNNAME":"新市區","LI":"永就里","LIN":"7鄰","STREET":" ","SECT":" ","MAREA":"永就","LANE":" ","ALLEY":" ","HOUSE_NO":"７８號","E_COORD97":177588.45999999999,"N_COORD97":2551524,"ADDRESS":"永就７８號","OBJECTID":301592},"geometry":{"x":177588.46000000089,"y":2551524.0000000037}},{"attributes":{"ID":301601,"DIS_CODE":0,"TOWNNAME":"安南區","LI":"四草里","LIN":"7鄰","STREET":"四草大道","SECT":" ","MAREA":" ","LANE":"８１巷","ALLEY":" ","HOUSE_NO":"４８號","E_COORD97":161258.445702,"N_COORD97":2544779.1099100001,"ADDRESS":"四草大道８１巷４８號","OBJECTID":301593},"geometry":{"x":161258.44570200052,"y":2544779.109910002}},{"attributes":{"ID":301602,"DIS_CODE":0,"TOWNNAME":"安南區","LI":"四草里","LIN":"8鄰","STREET":"四草大道","SECT":" ","MAREA":" ","LANE":"８１巷","ALLEY":" ","HOUSE_NO":"４５６號","E_COORD97":160420.43129000001,"N_COORD97":2545472.5070500001,"ADDRESS":"四草大道８１巷４５６號","OBJECTID":301594},"geometry":{"x":160420.43129000068,"y":2545472.507050002}},{"attributes":{"ID":301603,"DIS_CODE":0,"TOWNNAME":"安南區","LI":"四草里","LIN":"8鄰","STREET":"四草大道","SECT":" ","MAREA":" ","LANE":"８１巷","ALLEY":" ","HOUSE_NO":"４４６號","E_COORD97":160439.47755000001,"N_COORD97":2545474.09455,"ADDRESS":"四草大道８１巷４４６號","OBJECTID":301595},"geometry":{"x":160439.47755000181,"y":2545474.0945500024}},{"attributes":{"ID":301604,"DIS_CODE":0,"TOWNNAME":"安南區","LI":"四草里","LIN":"8鄰","STREET":"四草大道","SECT":" ","MAREA":" ","LANE":"８１巷","ALLEY":" ","HOUSE_NO":"４４２號","E_COORD97":160456.53427100001,"N_COORD97":2545472.1820700001,"ADDRESS":"四草大道８１巷４４２號","OBJECTID":301596},"geometry":{"x":160456.53427099995,"y":2545472.1820670012}},{"attributes":{"ID":301605,"DIS_CODE":0,"TOWNNAME":"安南區","LI":"四草里","LIN":"8鄰","STREET":"四草大道","SECT":" ","MAREA":" ","LANE":"８１巷","ALLEY":" ","HOUSE_NO":"４２３號","E_COORD97":160477.50164,"N_COORD97":2545427.2029200001,"ADDRESS":"四草大道８１巷４２３號","OBJECTID":301597},"geometry":{"x":160477.50164000038,"y":2545427.2029250003}},{"attributes":{"ID":301606,"DIS_CODE":0,"TOWNNAME":"安南區","LI":"四草里","LIN":"8鄰","STREET":"四草大道","SECT":" ","MAREA":" ","LANE":"８１巷","ALLEY":" ","HOUSE_NO":"４２１號","E_COORD97":160482.37284699999,"N_COORD97":2545411.7512699999,"ADDRESS":"四草大道８１巷４２１號","OBJECTID":301598},"geometry":{"x":160482.37284700014,"y":2545411.751267001}},{"attributes":{"ID":301607,"DIS_CODE":0,"TOWNNAME":"安南區","LI":"四草里","LIN":"8鄰","STREET":"四草大道","SECT":" ","MAREA":" ","LANE":"８１巷","ALLEY":" ","HOUSE_NO":"４１９號","E_COORD97":160502.06946599999,"N_COORD97":2545417.8895999999,"ADDRESS":"四草大道８１巷４１９號","OBJECTID":301599},"geometry":{"x":160502.06946600135,"y":2545417.8895970024}},{"attributes":{"ID":301608,"DIS_CODE":0,"TOWNNAME":"安南區","LI":"四草里","LIN":"8鄰","STREET":"四草大道","SECT":" ","MAREA":" ","LANE":"８１巷","ALLEY":" ","HOUSE_NO":"４７６號","E_COORD97":160375.72827699999,"N_COORD97":2545483.1887300001,"ADDRESS":"四草大道８１巷４７６號","OBJECTID":301600},"geometry":{"x":160375.72827700153,"y":2545483.188728001}}]}