{"displayFieldName":"TOWNNAME","fieldAliases":{"ID":"ID","DIS_CODE":"DIS_CODE","TOWNNAME":"TOWNNAME","LI":"LI","LIN":"LIN","STREET":"STREET","SECT":"SECT","MAREA":"MAREA","LANE":"LANE","ALLEY":"ALLEY","HOUSE_NO":"HOUSE_NO","E_COORD97":"E_COORD97","N_COORD97":"N_COORD97","ADDRESS":"ADDRESS","OBJECTID":"OBJECTID"},"geometryType":"esriGeometryPoint","spatialReference":{"wkid":102443,"latestWkid":3826},"fields":[{"name":"ID","type":"esriFieldTypeDouble","alias":"ID"},{"name":"DIS_CODE","type":"esriFieldTypeInteger","alias":"DIS_CODE"},{"name":"TOWNNAME","type":"esriFieldTypeString","alias":"TOWNNAME","length":8},{"name":"LI","type":"esriFieldTypeString","alias":"LI","length":8},{"name":"LIN","type":"esriFieldTypeString","alias":"LIN","length":12},{"name":"STREET","type":"esriFieldTypeString","alias":"STREET","length":20},{"name":"SECT","type":"esriFieldTypeString","alias":"SECT","length":8},{"name":"MAREA","type":"esriFieldTypeString","alias":"MAREA","length":12},{"name":"LANE","type":"esriFieldTypeString","alias":"LANE","length":10},{"name":"ALLEY","type":"esriFieldTypeString","alias":"ALLEY","length":10},{"name":"HOUSE_NO","type":"esriFieldTypeString","alias":"HOUSE_NO","length":20},{"name":"E_COORD97","type":"esriFieldTypeDouble","alias":"E_COORD97"},{"name":"N_COORD97","type":"esriFieldTypeDouble","alias":"N_COORD97"},{"name":"ADDRESS","type":"esriFieldTypeString","alias":"ADDRESS","length":50},{"name":"OBJECTID","type":"esriFieldTypeOID","alias":"OBJECTID"}],"features":[{"attributes":{"ID":277406,"DIS_CODE":0,"TOWNNAME":"歸仁區","LI":"大潭里","LIN":"1鄰","STREET":"中正南路","SECT":"三段","MAREA":" ","LANE":"５１巷","ALLEY":" ","HOUSE_NO":"１之１號","E_COORD97":175322.14999999999,"N_COORD97":2535080.3100000001,"ADDRESS":"中正南路三段５１巷１之１號","OBJECTID":277401},"geometry":{"x":175322.15000000037,"y":2535080.3100000024}},{"attributes":{"ID":277407,"DIS_CODE":0,"TOWNNAME":"玉井區","LI":"三埔里","LIN":"3鄰","STREET":" ","SECT":" ","MAREA":"三埔","LANE":" ","ALLEY":" ","HOUSE_NO":"３２之１號","E_COORD97":197077.73000000001,"N_COORD97":2555374.29,"ADDRESS":"三埔３２之１號","OBJECTID":277402},"geometry":{"x":197077.73000000045,"y":2555374.2899999991}},{"attributes":{"ID":277408,"DIS_CODE":0,"TOWNNAME":"南區","LI":"喜東里","LIN":"1鄰","STREET":"明興路","SECT":" ","MAREA":" ","LANE":"３４９巷","ALLEY":" ","HOUSE_NO":"２號","E_COORD97":166389.22,"N_COORD97":2538961.8100000001,"ADDRESS":"明興路３４９巷２號","OBJECTID":277403},"geometry":{"x":166389.2200000016,"y":2538961.8100000024}},{"attributes":{"ID":277409,"DIS_CODE":0,"TOWNNAME":"歸仁區","LI":"武東里","LIN":"1鄰","STREET":"武東二街","SECT":" ","MAREA":" ","LANE":"４２巷","ALLEY":" ","HOUSE_NO":"５８號","E_COORD97":175588.26000000001,"N_COORD97":2535172.3599999999,"ADDRESS":"武東二街４２巷５８號","OBJECTID":277404},"geometry":{"x":175588.25999999978,"y":2535172.3600000031}},{"attributes":{"ID":277410,"DIS_CODE":0,"TOWNNAME":"玉井區","LI":"三埔里","LIN":"3鄰","STREET":" ","SECT":" ","MAREA":"三埔","LANE":" ","ALLEY":" ","HOUSE_NO":"２９號","E_COORD97":197029.34,"N_COORD97":2555499.2400000002,"ADDRESS":"三埔２９號","OBJECTID":277405},"geometry":{"x":197029.34000000078,"y":2555499.2400000039}},{"attributes":{"ID":277411,"DIS_CODE":0,"TOWNNAME":"玉井區","LI":"豐里里","LIN":"3鄰","STREET":" ","SECT":" ","MAREA":"豐里","LANE":" ","ALLEY":" ","HOUSE_NO":"２７之２號","E_COORD97":193315.37,"N_COORD97":2558434.2999999998,"ADDRESS":"豐里２７之２號","OBJECTID":277406},"geometry":{"x":193315.37000000104,"y":2558434.3000000007}},{"attributes":{"ID":277412,"DIS_CODE":0,"TOWNNAME":"新營區","LI":"民權里","LIN":"8鄰","STREET":"博愛街","SECT":" ","MAREA":" ","LANE":"７５巷","ALLEY":" ","HOUSE_NO":"１０號","E_COORD97":179843.14000000001,"N_COORD97":2578098.3599999999,"ADDRESS":"博愛街７５巷１０號","OBJECTID":277407},"geometry":{"x":179843.1400000006,"y":2578098.3600000013}},{"attributes":{"ID":277413,"DIS_CODE":0,"TOWNNAME":"南區","LI":"大恩里","LIN":"1鄰","STREET":"大同路","SECT":"二段","MAREA":" ","LANE":"６４０巷","ALLEY":" ","HOUSE_NO":"１１號","E_COORD97":169507.17000000001,"N_COORD97":2541023.3500000001,"ADDRESS":"大同路二段６４０巷１１號","OBJECTID":277408},"geometry":{"x":169507.17000000179,"y":2541023.3499999996}},{"attributes":{"ID":277414,"DIS_CODE":0,"TOWNNAME":"玉井區","LI":"望明里","LIN":"3鄰","STREET":" ","SECT":" ","MAREA":"望明","LANE":" ","ALLEY":" ","HOUSE_NO":"３６之１號","E_COORD97":194460.84,"N_COORD97":2556005.29,"ADDRESS":"望明３６之１號","OBJECTID":277409},"geometry":{"x":194460.84000000171,"y":2556005.2899999991}},{"attributes":{"ID":277415,"DIS_CODE":0,"TOWNNAME":"南區","LI":"大恩里","LIN":"1鄰","STREET":"大同路","SECT":"二段","MAREA":" ","LANE":"６４０巷","ALLEY":" ","HOUSE_NO":"５號","E_COORD97":169521.97,"N_COORD97":2541025.6699999999,"ADDRESS":"大同路二段６４０巷５號","OBJECTID":277410},"geometry":{"x":169521.9700000016,"y":2541025.6699999981}},{"attributes":{"ID":277416,"DIS_CODE":0,"TOWNNAME":"新營區","LI":"太北里","LIN":"9鄰","STREET":" ","SECT":" ","MAREA":"太子宮","LANE":" ","ALLEY":" ","HOUSE_NO":"７６號之１","E_COORD97":176110.60721799999,"N_COORD97":2577078.071,"ADDRESS":"太子宮７６號之１","OBJECTID":277411},"geometry":{"x":176110.60721800104,"y":2577078.0710019991}},{"attributes":{"ID":277417,"DIS_CODE":0,"TOWNNAME":"玉井區","LI":"豐里里","LIN":"3鄰","STREET":" ","SECT":" ","MAREA":"豐里","LANE":" ","ALLEY":" ","HOUSE_NO":"２５之４號","E_COORD97":193284.76000000001,"N_COORD97":2558250.2999999998,"ADDRESS":"豐里２５之４號","OBJECTID":277412},"geometry":{"x":193284.75999999885,"y":2558250.3000000026}},{"attributes":{"ID":277418,"DIS_CODE":0,"TOWNNAME":"玉井區","LI":"沙田里","LIN":"3鄰","STREET":" ","SECT":" ","MAREA":"沙田","LANE":" ","ALLEY":" ","HOUSE_NO":"２５之１７號","E_COORD97":196659.32000000001,"N_COORD97":2557946.2999999998,"ADDRESS":"沙田２５之１７號","OBJECTID":277413},"geometry":{"x":196659.3200000003,"y":2557946.3000000007}},{"attributes":{"ID":277419,"DIS_CODE":0,"TOWNNAME":"玉井區","LI":"沙田里","LIN":"3鄰","STREET":" ","SECT":" ","MAREA":"沙田","LANE":" ","ALLEY":" ","HOUSE_NO":"２５之６８號","E_COORD97":196940.62,"N_COORD97":2558741.2999999998,"ADDRESS":"沙田２５之６８號","OBJECTID":277414},"geometry":{"x":196940.62000000011,"y":2558741.3000000026}},{"attributes":{"ID":277420,"DIS_CODE":0,"TOWNNAME":"玉井區","LI":"豐里里","LIN":"3鄰","STREET":" ","SECT":" ","MAREA":"豐里","LANE":" ","ALLEY":" ","HOUSE_NO":"２７之７號","E_COORD97":193226.87,"N_COORD97":2558585.29,"ADDRESS":"豐里２７之７號","OBJECTID":277415},"geometry":{"x":193226.87000000197,"y":2558585.2899999991}},{"attributes":{"ID":277421,"DIS_CODE":0,"TOWNNAME":"南區","LI":"大恩里","LIN":"1鄰","STREET":"大同路","SECT":"二段","MAREA":" ","LANE":"６４０巷","ALLEY":" ","HOUSE_NO":"７號","E_COORD97":169517,"N_COORD97":2541025.0099999998,"ADDRESS":"大同路二段６４０巷７號","OBJECTID":277416},"geometry":{"x":169517.00000000186,"y":2541025.0100000016}},{"attributes":{"ID":277422,"DIS_CODE":0,"TOWNNAME":"玉井區","LI":"玉田里","LIN":"3鄰","STREET":"中正路","SECT":" ","MAREA":" ","LANE":" ","ALLEY":" ","HOUSE_NO":"２３６號","E_COORD97":195102.14999999999,"N_COORD97":2558243.25,"ADDRESS":"中正路２３６號","OBJECTID":277417},"geometry":{"x":195102.1500000013,"y":2558243.2500000019}},{"attributes":{"ID":277423,"DIS_CODE":0,"TOWNNAME":"玉井區","LI":"竹圍里","LIN":"3鄰","STREET":"中正路","SECT":" ","MAREA":" ","LANE":" ","ALLEY":" ","HOUSE_NO":"３４６號","E_COORD97":195354.01000000001,"N_COORD97":2558463.7999999998,"ADDRESS":"中正路３４６號","OBJECTID":277418},"geometry":{"x":195354.00999999978,"y":2558463.8000000026}},{"attributes":{"ID":277424,"DIS_CODE":0,"TOWNNAME":"玉井區","LI":"竹圍里","LIN":"3鄰","STREET":"中正路","SECT":" ","MAREA":" ","LANE":" ","ALLEY":" ","HOUSE_NO":"３４２號","E_COORD97":195349.47,"N_COORD97":2558455.9500000002,"ADDRESS":"中正路３４２號","OBJECTID":277419},"geometry":{"x":195349.46999999974,"y":2558455.9499999993}},{"attributes":{"ID":277425,"DIS_CODE":0,"TOWNNAME":"玉井區","LI":"竹圍里","LIN":"3鄰","STREET":"中正路","SECT":" ","MAREA":" ","LANE":" ","ALLEY":" ","HOUSE_NO":"３３４號","E_COORD97":195335.54999999999,"N_COORD97":2558441.5499999998,"ADDRESS":"中正路３３４號","OBJECTID":277420},"geometry":{"x":195335.54999999981,"y":2558441.5500000026}},{"attributes":{"ID":277426,"DIS_CODE":0,"TOWNNAME":"玉井區","LI":"竹圍里","LIN":"3鄰","STREET":"中正路","SECT":" ","MAREA":" ","LANE":" ","ALLEY":" ","HOUSE_NO":"３５４號","E_COORD97":195371.78,"N_COORD97":2558478.1299999999,"ADDRESS":"中正路３５４號","OBJECTID":277421},"geometry":{"x":195371.78000000026,"y":2558478.129999999}},{"attributes":{"ID":277427,"DIS_CODE":0,"TOWNNAME":"南區","LI":"大恩里","LIN":"1鄰","STREET":"大同路","SECT":"二段","MAREA":" ","LANE":"６４０巷","ALLEY":" ","HOUSE_NO":"９號","E_COORD97":169512.57999999999,"N_COORD97":2541023.9100000001,"ADDRESS":"大同路二段６４０巷９號","OBJECTID":277422},"geometry":{"x":169512.58000000007,"y":2541023.9100000001}},{"attributes":{"ID":277428,"DIS_CODE":0,"TOWNNAME":"南區","LI":"文華里","LIN":"1鄰","STREET":"永華路","SECT":"一段","MAREA":" ","LANE":"２３３巷","ALLEY":" ","HOUSE_NO":"１號","E_COORD97":167075.45999999999,"N_COORD97":2543198.1699999999,"ADDRESS":"永華路一段２３３巷１號","OBJECTID":277423},"geometry":{"x":167075.45999999996,"y":2543198.1699999999}},{"attributes":{"ID":277429,"DIS_CODE":0,"TOWNNAME":"玉井區","LI":"竹圍里","LIN":"3鄰","STREET":"仁愛街","SECT":" ","MAREA":" ","LANE":" ","ALLEY":" ","HOUSE_NO":"２８３號","E_COORD97":195365.51000000001,"N_COORD97":2558407.8700000001,"ADDRESS":"仁愛街２８３號","OBJECTID":277424},"geometry":{"x":195365.51000000071,"y":2558407.870000001}},{"attributes":{"ID":277430,"DIS_CODE":0,"TOWNNAME":"玉井區","LI":"竹圍里","LIN":"3鄰","STREET":"中正路","SECT":" ","MAREA":" ","LANE":" ","ALLEY":" ","HOUSE_NO":"３５６號","E_COORD97":195378.76000000001,"N_COORD97":2558482.4199999999,"ADDRESS":"中正路３５６號","OBJECTID":277425},"geometry":{"x":195378.76000000071,"y":2558482.4200000018}},{"attributes":{"ID":277431,"DIS_CODE":0,"TOWNNAME":"南區","LI":"喜東里","LIN":"1鄰","STREET":"明興路","SECT":" ","MAREA":" ","LANE":"３２１巷","ALLEY":" ","HOUSE_NO":"５０號之１","E_COORD97":166880.95999999999,"N_COORD97":2538648.1499999999,"ADDRESS":"明興路３２１巷５０號之１","OBJECTID":277426},"geometry":{"x":166880.95999999996,"y":2538648.1500000022}},{"attributes":{"ID":277432,"DIS_CODE":0,"TOWNNAME":"南區","LI":"喜東里","LIN":"1鄰","STREET":"明興路","SECT":" ","MAREA":" ","LANE":"３２１巷","ALLEY":" ","HOUSE_NO":"１６號之１","E_COORD97":166809.60999999999,"N_COORD97":2539042.0299999998,"ADDRESS":"明興路３２１巷１６號之１","OBJECTID":277427},"geometry":{"x":166809.61000000127,"y":2539042.0299999993}},{"attributes":{"ID":277433,"DIS_CODE":0,"TOWNNAME":"南區","LI":"日新里","LIN":"1鄰","STREET":"金華路","SECT":"一段","MAREA":" ","LANE":"３９３巷","ALLEY":" ","HOUSE_NO":"１號","E_COORD97":166957.20000000001,"N_COORD97":2541186.4100000001,"ADDRESS":"金華路一段３９３巷１號","OBJECTID":277428},"geometry":{"x":166957.20000000019,"y":2541186.4100000001}},{"attributes":{"ID":277434,"DIS_CODE":0,"TOWNNAME":"南區","LI":"日新里","LIN":"1鄰","STREET":"金華路","SECT":"一段","MAREA":" ","LANE":"３９３巷","ALLEY":" ","HOUSE_NO":"３號","E_COORD97":166952.89999999999,"N_COORD97":2541187.0299999998,"ADDRESS":"金華路一段３９３巷３號","OBJECTID":277429},"geometry":{"x":166952.90000000037,"y":2541187.0300000012}},{"attributes":{"ID":277435,"DIS_CODE":0,"TOWNNAME":"新營區","LI":"興業里","LIN":" ","STREET":"公誠街","SECT":" ","MAREA":" ","LANE":"１７巷","ALLEY":" ","HOUSE_NO":"８之２號","E_COORD97":180324.39999999999,"N_COORD97":2577925.6000000001,"ADDRESS":"公誠街１７巷８之２號","OBJECTID":277430},"geometry":{"x":180324.40000000037,"y":2577925.5999999996}},{"attributes":{"ID":277436,"DIS_CODE":0,"TOWNNAME":"安平區","LI":"億載里","LIN":"1鄰","STREET":"平豐路","SECT":" ","MAREA":" ","LANE":"３９１巷","ALLEY":" ","HOUSE_NO":"６０號","E_COORD97":164100.79999999999,"N_COORD97":2543815.6000000001,"ADDRESS":"平豐路３９１巷６０號","OBJECTID":277431},"geometry":{"x":164100.80000000075,"y":2543815.5999999996}},{"attributes":{"ID":277437,"DIS_CODE":0,"TOWNNAME":"安平區","LI":"億載里","LIN":"1鄰","STREET":"平豐路","SECT":" ","MAREA":" ","LANE":"３９１巷","ALLEY":" ","HOUSE_NO":"５８號","E_COORD97":164107.79000000001,"N_COORD97":2543816.3900000001,"ADDRESS":"平豐路３９１巷５８號","OBJECTID":277432},"geometry":{"x":164107.79000000097,"y":2543816.3900000025}},{"attributes":{"ID":277438,"DIS_CODE":0,"TOWNNAME":"安平區","LI":"億載里","LIN":"1鄰","STREET":"平豐路","SECT":" ","MAREA":" ","LANE":"３９１巷","ALLEY":" ","HOUSE_NO":"５２號","E_COORD97":164122.54999999999,"N_COORD97":2543818.6099999999,"ADDRESS":"平豐路３９１巷５２號","OBJECTID":277433},"geometry":{"x":164122.55000000075,"y":2543818.6099999994}},{"attributes":{"ID":277439,"DIS_CODE":0,"TOWNNAME":"玉井區","LI":"三和里","LIN":"3鄰","STREET":" ","SECT":" ","MAREA":"三和","LANE":" ","ALLEY":" ","HOUSE_NO":"４０之１號","E_COORD97":194686.64000000001,"N_COORD97":2556849.29,"ADDRESS":"三和４０之１號","OBJECTID":277434},"geometry":{"x":194686.63999999966,"y":2556849.2899999991}},{"attributes":{"ID":277440,"DIS_CODE":0,"TOWNNAME":"玉井區","LI":"豐里里","LIN":"3鄰","STREET":" ","SECT":" ","MAREA":"豐里","LANE":" ","ALLEY":" ","HOUSE_NO":"２９號之２","E_COORD97":193180.64000000001,"N_COORD97":2558268.29,"ADDRESS":"豐里２９號之２","OBJECTID":277435},"geometry":{"x":193180.6400000006,"y":2558268.290000001}},{"attributes":{"ID":277441,"DIS_CODE":0,"TOWNNAME":"玉井區","LI":"豐里里","LIN":"3鄰","STREET":" ","SECT":" ","MAREA":"豐里","LANE":" ","ALLEY":" ","HOUSE_NO":"２７號之４","E_COORD97":193283.62,"N_COORD97":2558431.2999999998,"ADDRESS":"豐里２７號之４","OBJECTID":277436},"geometry":{"x":193283.62000000011,"y":2558431.3000000007}},{"attributes":{"ID":277442,"DIS_CODE":0,"TOWNNAME":"玉井區","LI":"沙田里","LIN":"3鄰","STREET":" ","SECT":" ","MAREA":"沙田","LANE":" ","ALLEY":" ","HOUSE_NO":"２５之２３號","E_COORD97":197031.62,"N_COORD97":2558467.2999999998,"ADDRESS":"沙田２５之２３號","OBJECTID":277437},"geometry":{"x":197031.62000000104,"y":2558467.3000000026}},{"attributes":{"ID":277443,"DIS_CODE":0,"TOWNNAME":"玉井區","LI":"望明里","LIN":"3鄰","STREET":" ","SECT":" ","MAREA":"望明","LANE":" ","ALLEY":" ","HOUSE_NO":"３８號","E_COORD97":194418.34,"N_COORD97":2556032.2400000002,"ADDRESS":"望明３８號","OBJECTID":277438},"geometry":{"x":194418.33999999892,"y":2556032.2400000021}},{"attributes":{"ID":277444,"DIS_CODE":0,"TOWNNAME":"玉井區","LI":"望明里","LIN":"3鄰","STREET":" ","SECT":" ","MAREA":"望明","LANE":" ","ALLEY":" ","HOUSE_NO":"３５號","E_COORD97":194476.92999999999,"N_COORD97":2556020.2400000002,"ADDRESS":"望明３５號","OBJECTID":277439},"geometry":{"x":194476.92999999877,"y":2556020.2400000002}},{"attributes":{"ID":277445,"DIS_CODE":0,"TOWNNAME":"玉井區","LI":"望明里","LIN":"3鄰","STREET":" ","SECT":" ","MAREA":"望明","LANE":" ","ALLEY":" ","HOUSE_NO":"３４號之１８","E_COORD97":194736.57000000001,"N_COORD97":2555843.2999999998,"ADDRESS":"望明３４號之１８","OBJECTID":277440},"geometry":{"x":194736.57000000123,"y":2555843.3000000026}},{"attributes":{"ID":277446,"DIS_CODE":0,"TOWNNAME":"玉井區","LI":"望明里","LIN":"3鄰","STREET":" ","SECT":" ","MAREA":"望明","LANE":" ","ALLEY":" ","HOUSE_NO":"３９號","E_COORD97":194396.44,"N_COORD97":2556021.2400000002,"ADDRESS":"望明３９號","OBJECTID":277441},"geometry":{"x":194396.44000000227,"y":2556021.2399999984}},{"attributes":{"ID":277447,"DIS_CODE":0,"TOWNNAME":"玉井區","LI":"望明里","LIN":"3鄰","STREET":" ","SECT":" ","MAREA":"望明","LANE":" ","ALLEY":" ","HOUSE_NO":"３４之３號","E_COORD97":194545.14000000001,"N_COORD97":2555900.29,"ADDRESS":"望明３４之３號","OBJECTID":277442},"geometry":{"x":194545.14000000153,"y":2555900.2899999991}},{"attributes":{"ID":277448,"DIS_CODE":0,"TOWNNAME":"玉井區","LI":"望明里","LIN":"3鄰","STREET":" ","SECT":" ","MAREA":"望明","LANE":" ","ALLEY":" ","HOUSE_NO":"３３號","E_COORD97":194551.23000000001,"N_COORD97":2556043.25,"ADDRESS":"望明３３號","OBJECTID":277443},"geometry":{"x":194551.23000000045,"y":2556043.25}},{"attributes":{"ID":277449,"DIS_CODE":0,"TOWNNAME":"玉井區","LI":"望明里","LIN":"3鄰","STREET":" ","SECT":" ","MAREA":"望明","LANE":" ","ALLEY":" ","HOUSE_NO":"３４號","E_COORD97":194538.13,"N_COORD97":2556012.2400000002,"ADDRESS":"望明３４號","OBJECTID":277444},"geometry":{"x":194538.12999999989,"y":2556012.2400000021}},{"attributes":{"ID":277450,"DIS_CODE":0,"TOWNNAME":"玉井區","LI":"沙田里","LIN":"3鄰","STREET":" ","SECT":" ","MAREA":"沙田","LANE":" ","ALLEY":" ","HOUSE_NO":"２９號","E_COORD97":196656.17000000001,"N_COORD97":2557241.2799999998,"ADDRESS":"沙田２９號","OBJECTID":277445},"geometry":{"x":196656.17000000086,"y":2557241.2800000012}},{"attributes":{"ID":277451,"DIS_CODE":0,"TOWNNAME":"玉井區","LI":"玉田里","LIN":"3鄰","STREET":"民主街","SECT":" ","MAREA":" ","LANE":" ","ALLEY":" ","HOUSE_NO":"１３８號","E_COORD97":195096.78,"N_COORD97":2558206.2799999998,"ADDRESS":"民主街１３８號","OBJECTID":277446},"geometry":{"x":195096.78000000026,"y":2558206.2799999993}},{"attributes":{"ID":277452,"DIS_CODE":0,"TOWNNAME":"玉井區","LI":"玉田里","LIN":"3鄰","STREET":"民主街","SECT":" ","MAREA":" ","LANE":" ","ALLEY":" ","HOUSE_NO":"１２８號","E_COORD97":195101.59,"N_COORD97":2558178.2799999998,"ADDRESS":"民主街１２８號","OBJECTID":277447},"geometry":{"x":195101.59000000171,"y":2558178.2799999993}},{"attributes":{"ID":277453,"DIS_CODE":0,"TOWNNAME":"玉井區","LI":"玉田里","LIN":"3鄰","STREET":"民主街","SECT":" ","MAREA":" ","LANE":" ","ALLEY":" ","HOUSE_NO":"１２８之１號","E_COORD97":195103.28,"N_COORD97":2558183.29,"ADDRESS":"民主街１２８之１號","OBJECTID":277448},"geometry":{"x":195103.28000000119,"y":2558183.290000001}},{"attributes":{"ID":277454,"DIS_CODE":0,"TOWNNAME":"北區","LI":"賢北里","LIN":"3鄰","STREET":"大興街","SECT":" ","MAREA":" ","LANE":" ","ALLEY":" ","HOUSE_NO":"３９７號","E_COORD97":166368,"N_COORD97":2545571.6200000001,"ADDRESS":"大興街３９７號","OBJECTID":277449},"geometry":{"x":166368.00000000093,"y":2545571.6200000029}},{"attributes":{"ID":277455,"DIS_CODE":0,"TOWNNAME":"北區","LI":"賢北里","LIN":"3鄰","STREET":"大興街","SECT":" ","MAREA":" ","LANE":" ","ALLEY":" ","HOUSE_NO":"３８９號","E_COORD97":166384.13,"N_COORD97":2545576.1899999999,"ADDRESS":"大興街３８９號","OBJECTID":277450},"geometry":{"x":166384.12999999989,"y":2545576.1900000013}},{"attributes":{"ID":277456,"DIS_CODE":0,"TOWNNAME":"北區","LI":"賢北里","LIN":"3鄰","STREET":"大興街","SECT":" ","MAREA":" ","LANE":" ","ALLEY":" ","HOUSE_NO":"３９５號","E_COORD97":166371.82000000001,"N_COORD97":2545572.5099999998,"ADDRESS":"大興街３９５號","OBJECTID":277451},"geometry":{"x":166371.8200000003,"y":2545572.5099999998}},{"attributes":{"ID":277457,"DIS_CODE":0,"TOWNNAME":"北區","LI":"大豐里","LIN":"3鄰","STREET":"武聖路","SECT":" ","MAREA":" ","LANE":" ","ALLEY":" ","HOUSE_NO":"８０號","E_COORD97":167131.45000000001,"N_COORD97":2545166.1699999999,"ADDRESS":"武聖路８０號","OBJECTID":277452},"geometry":{"x":167131.45000000112,"y":2545166.1700000018}},{"attributes":{"ID":277458,"DIS_CODE":0,"TOWNNAME":"北區","LI":"大豐里","LIN":"3鄰","STREET":"武聖路","SECT":" ","MAREA":" ","LANE":" ","ALLEY":" ","HOUSE_NO":"１０６號","E_COORD97":167074.81,"N_COORD97":2545195.75,"ADDRESS":"武聖路１０６號","OBJECTID":277453},"geometry":{"x":167074.80999999959,"y":2545195.7500000037}},{"attributes":{"ID":277459,"DIS_CODE":0,"TOWNNAME":"北區","LI":"大豐里","LIN":"3鄰","STREET":"武聖路","SECT":" ","MAREA":" ","LANE":" ","ALLEY":" ","HOUSE_NO":"１０２號","E_COORD97":167083.98999999999,"N_COORD97":2545191.3100000001,"ADDRESS":"武聖路１０２號","OBJECTID":277454},"geometry":{"x":167083.99000000022,"y":2545191.3100000005}},{"attributes":{"ID":277460,"DIS_CODE":0,"TOWNNAME":"安平區","LI":"文平里","LIN":"1鄰","STREET":"建平七街","SECT":" ","MAREA":" ","LANE":"２６巷","ALLEY":" ","HOUSE_NO":"６號","E_COORD97":166461.12,"N_COORD97":2543242.9500000002,"ADDRESS":"建平七街２６巷６號","OBJECTID":277455},"geometry":{"x":166461.12000000011,"y":2543242.9499999993}},{"attributes":{"ID":277461,"DIS_CODE":0,"TOWNNAME":"安平區","LI":"文平里","LIN":"1鄰","STREET":"建平七街","SECT":" ","MAREA":" ","LANE":"２６巷","ALLEY":" ","HOUSE_NO":"８號","E_COORD97":166467.16,"N_COORD97":2543242,"ADDRESS":"建平七街２６巷８號","OBJECTID":277456},"geometry":{"x":166467.16000000108,"y":2543242.0000000019}},{"attributes":{"ID":277462,"DIS_CODE":0,"TOWNNAME":"安平區","LI":"文平里","LIN":"1鄰","STREET":"建平七街","SECT":" ","MAREA":" ","LANE":"２６巷","ALLEY":" ","HOUSE_NO":"１０號","E_COORD97":166472.39999999999,"N_COORD97":2543241.5299999998,"ADDRESS":"建平七街２６巷１０號","OBJECTID":277457},"geometry":{"x":166472.4000000013,"y":2543241.5300000012}},{"attributes":{"ID":277463,"DIS_CODE":0,"TOWNNAME":"安平區","LI":"文平里","LIN":"1鄰","STREET":"建平七街","SECT":" ","MAREA":" ","LANE":"２６巷","ALLEY":" ","HOUSE_NO":"１２號","E_COORD97":166477.63,"N_COORD97":2543241.3700000001,"ADDRESS":"建平七街２６巷１２號","OBJECTID":277458},"geometry":{"x":166477.62999999989,"y":2543241.370000001}},{"attributes":{"ID":277464,"DIS_CODE":0,"TOWNNAME":"安平區","LI":"文平里","LIN":"1鄰","STREET":"建平七街","SECT":" ","MAREA":" ","LANE":"２６巷","ALLEY":" ","HOUSE_NO":"１６號","E_COORD97":166483.82999999999,"N_COORD97":2543240.8900000001,"ADDRESS":"建平七街２６巷１６號","OBJECTID":277459},"geometry":{"x":166483.83000000194,"y":2543240.8900000006}},{"attributes":{"ID":277465,"DIS_CODE":0,"TOWNNAME":"安平區","LI":"平通里","LIN":"1鄰","STREET":"育平九街","SECT":" ","MAREA":" ","LANE":"１９２巷","ALLEY":" ","HOUSE_NO":"１００號","E_COORD97":165031.57999999999,"N_COORD97":2544123.8199999998,"ADDRESS":"育平九街１９２巷１００號","OBJECTID":277460},"geometry":{"x":165031.58000000101,"y":2544123.8200000003}},{"attributes":{"ID":277466,"DIS_CODE":0,"TOWNNAME":"安平區","LI":"平通里","LIN":"1鄰","STREET":"育平九街","SECT":" ","MAREA":" ","LANE":"１９２巷","ALLEY":" ","HOUSE_NO":"９６號","E_COORD97":165030.10000000001,"N_COORD97":2544118.6400000001,"ADDRESS":"育平九街１９２巷９６號","OBJECTID":277461},"geometry":{"x":165030.09999999963,"y":2544118.6399999987}},{"attributes":{"ID":277467,"DIS_CODE":0,"TOWNNAME":"安平區","LI":"平通里","LIN":"1鄰","STREET":"國平路","SECT":" ","MAREA":" ","LANE":"５９１巷","ALLEY":" ","HOUSE_NO":"３號","E_COORD97":165070.01999999999,"N_COORD97":2544121.71,"ADDRESS":"國平路５９１巷３號","OBJECTID":277462},"geometry":{"x":165070.02000000048,"y":2544121.7100000009}},{"attributes":{"ID":277468,"DIS_CODE":0,"TOWNNAME":"安平區","LI":"平通里","LIN":"1鄰","STREET":"國平路","SECT":" ","MAREA":" ","LANE":"５９１巷","ALLEY":" ","HOUSE_NO":"１號","E_COORD97":165071.69,"N_COORD97":2544120.8700000001,"ADDRESS":"國平路５９１巷１號","OBJECTID":277463},"geometry":{"x":165071.69000000134,"y":2544120.870000001}},{"attributes":{"ID":277469,"DIS_CODE":0,"TOWNNAME":"安平區","LI":"平通里","LIN":"1鄰","STREET":"國平路","SECT":" ","MAREA":" ","LANE":"５９１巷","ALLEY":" ","HOUSE_NO":"５號","E_COORD97":165068.34,"N_COORD97":2544121.9500000002,"ADDRESS":"國平路５９１巷５號","OBJECTID":277464},"geometry":{"x":165068.34000000078,"y":2544121.9499999974}},{"attributes":{"ID":277470,"DIS_CODE":0,"TOWNNAME":"安平區","LI":"平通里","LIN":"1鄰","STREET":"國平路","SECT":" ","MAREA":" ","LANE":"５９１巷","ALLEY":" ","HOUSE_NO":"７號","E_COORD97":165066.42000000001,"N_COORD97":2544122.5499999998,"ADDRESS":"國平路５９１巷７號","OBJECTID":277465},"geometry":{"x":165066.42000000086,"y":2544122.5500000007}},{"attributes":{"ID":277471,"DIS_CODE":0,"TOWNNAME":"安平區","LI":"文平里","LIN":"1鄰","STREET":"建平七街","SECT":" ","MAREA":" ","LANE":"２６巷","ALLEY":" ","HOUSE_NO":"２號","E_COORD97":166457.20000000001,"N_COORD97":2543247.52,"ADDRESS":"建平七街２６巷２號","OBJECTID":277466},"geometry":{"x":166457.20000000019,"y":2543247.5200000014}},{"attributes":{"ID":277472,"DIS_CODE":0,"TOWNNAME":"南區","LI":"松安里","LIN":"1鄰","STREET":"灣裡路","SECT":" ","MAREA":" ","LANE":"４００巷","ALLEY":" ","HOUSE_NO":"２８號","E_COORD97":166079.64000000001,"N_COORD97":2536163.6000000001,"ADDRESS":"灣裡路４００巷２８號","OBJECTID":277467},"geometry":{"x":166079.6400000006,"y":2536163.5999999996}},{"attributes":{"ID":277473,"DIS_CODE":0,"TOWNNAME":"南區","LI":"松安里","LIN":"1鄰","STREET":"灣裡路","SECT":" ","MAREA":" ","LANE":"４００巷","ALLEY":" ","HOUSE_NO":"３０號","E_COORD97":166085.85999999999,"N_COORD97":2536150.6099999999,"ADDRESS":"灣裡路４００巷３０號","OBJECTID":277468},"geometry":{"x":166085.86000000127,"y":2536150.6100000031}},{"attributes":{"ID":277474,"DIS_CODE":0,"TOWNNAME":"玉井區","LI":"望明里","LIN":"3鄰","STREET":" ","SECT":" ","MAREA":"望明","LANE":" ","ALLEY":" ","HOUSE_NO":"３４之２號","E_COORD97":194569.34,"N_COORD97":2555939.2999999998,"ADDRESS":"望明３４之２號","OBJECTID":277469},"geometry":{"x":194569.34000000171,"y":2555939.3000000007}},{"attributes":{"ID":277475,"DIS_CODE":0,"TOWNNAME":"玉井區","LI":"豐里里","LIN":"3鄰","STREET":" ","SECT":" ","MAREA":"豐里","LANE":" ","ALLEY":" ","HOUSE_NO":"３３號之１５","E_COORD97":193104.79999999999,"N_COORD97":2558257.2999999998,"ADDRESS":"豐里３３號之１５","OBJECTID":277470},"geometry":{"x":193104.79999999888,"y":2558257.3000000026}},{"attributes":{"ID":277476,"DIS_CODE":0,"TOWNNAME":"南區","LI":"松安里","LIN":"1鄰","STREET":"灣裡路","SECT":" ","MAREA":" ","LANE":"４００巷","ALLEY":" ","HOUSE_NO":"３２號","E_COORD97":166080.5,"N_COORD97":2536149.9399999999,"ADDRESS":"灣裡路４００巷３２號","OBJECTID":277471},"geometry":{"x":166080.5,"y":2536149.9400000013}},{"attributes":{"ID":277477,"DIS_CODE":0,"TOWNNAME":"新營區","LI":"興安里","LIN":"5鄰","STREET":"工業街","SECT":" ","MAREA":" ","LANE":" ","ALLEY":" ","HOUSE_NO":"７３號之１","E_COORD97":180572.11405,"N_COORD97":2577868.0349900001,"ADDRESS":"工業街７３號之１","OBJECTID":277472},"geometry":{"x":180572.11404999997,"y":2577868.0349900015}},{"attributes":{"ID":277478,"DIS_CODE":0,"TOWNNAME":"南區","LI":"松安里","LIN":"1鄰","STREET":"灣裡路","SECT":" ","MAREA":" ","LANE":"４００巷","ALLEY":" ","HOUSE_NO":"３４號","E_COORD97":166073.13,"N_COORD97":2536149.27,"ADDRESS":"灣裡路４００巷３４號","OBJECTID":277473},"geometry":{"x":166073.13000000082,"y":2536149.2699999977}},{"attributes":{"ID":277479,"DIS_CODE":0,"TOWNNAME":"南區","LI":"松安里","LIN":"1鄰","STREET":"灣裡路","SECT":" ","MAREA":" ","LANE":"４００巷","ALLEY":" ","HOUSE_NO":"３６號","E_COORD97":166063.75,"N_COORD97":2536148.3300000001,"ADDRESS":"灣裡路４００巷３６號","OBJECTID":277474},"geometry":{"x":166063.75000000186,"y":2536148.3300000001}},{"attributes":{"ID":277480,"DIS_CODE":0,"TOWNNAME":"北區","LI":"大豐里","LIN":"3鄰","STREET":"武聖路","SECT":" ","MAREA":" ","LANE":" ","ALLEY":" ","HOUSE_NO":"１１０號","E_COORD97":167065.39999999999,"N_COORD97":2545201.0099999998,"ADDRESS":"武聖路１１０號","OBJECTID":277475},"geometry":{"x":167065.4000000013,"y":2545201.0100000016}},{"attributes":{"ID":277481,"DIS_CODE":0,"TOWNNAME":"東區","LI":"小東里","LIN":"13鄰","STREET":"東和路","SECT":" ","MAREA":" ","LANE":" ","ALLEY":" ","HOUSE_NO":"８９號","E_COORD97":170858.29999999999,"N_COORD97":2544311.4500000002,"ADDRESS":"東和路８９號","OBJECTID":277476},"geometry":{"x":170858.29999999981,"y":2544311.4499999993}},{"attributes":{"ID":277482,"DIS_CODE":0,"TOWNNAME":"東區","LI":"仁和里","LIN":"24鄰","STREET":"仁東街","SECT":" ","MAREA":" ","LANE":" ","ALLEY":" ","HOUSE_NO":"４２號","E_COORD97":171615.32999999999,"N_COORD97":2541161.6499999999,"ADDRESS":"仁東街４２號","OBJECTID":277477},"geometry":{"x":171615.33000000101,"y":2541161.6500000004}},{"attributes":{"ID":277483,"DIS_CODE":0,"TOWNNAME":"南區","LI":"松安里","LIN":"1鄰","STREET":"灣裡路","SECT":" ","MAREA":" ","LANE":"４００巷","ALLEY":" ","HOUSE_NO":"３８號","E_COORD97":166055.98000000001,"N_COORD97":2536147.9300000002,"ADDRESS":"灣裡路４００巷３８號","OBJECTID":277478},"geometry":{"x":166055.98000000231,"y":2536147.9299999997}},{"attributes":{"ID":277484,"DIS_CODE":0,"TOWNNAME":"南區","LI":"松安里","LIN":"1鄰","STREET":"灣裡路","SECT":" ","MAREA":" ","LANE":"４００巷","ALLEY":" ","HOUSE_NO":"４０號","E_COORD97":166050.35000000001,"N_COORD97":2536147.9300000002,"ADDRESS":"灣裡路４００巷４０號","OBJECTID":277479},"geometry":{"x":166050.34999999963,"y":2536147.9299999997}},{"attributes":{"ID":277485,"DIS_CODE":0,"TOWNNAME":"南區","LI":"松安里","LIN":"1鄰","STREET":"灣裡路","SECT":" ","MAREA":" ","LANE":"４００巷","ALLEY":" ","HOUSE_NO":"４２號","E_COORD97":166045.53,"N_COORD97":2536147.9300000002,"ADDRESS":"灣裡路４００巷４２號","OBJECTID":277480},"geometry":{"x":166045.53000000119,"y":2536147.9299999997}},{"attributes":{"ID":277486,"DIS_CODE":0,"TOWNNAME":"南區","LI":"松安里","LIN":"1鄰","STREET":"灣裡路","SECT":" ","MAREA":" ","LANE":"４００巷","ALLEY":" ","HOUSE_NO":"４４號","E_COORD97":166040.29999999999,"N_COORD97":2536147.9300000002,"ADDRESS":"灣裡路４００巷４４號","OBJECTID":277481},"geometry":{"x":166040.30000000075,"y":2536147.9299999997}},{"attributes":{"ID":277487,"DIS_CODE":0,"TOWNNAME":"南區","LI":"松安里","LIN":"1鄰","STREET":"灣裡路","SECT":" ","MAREA":" ","LANE":"４００巷","ALLEY":" ","HOUSE_NO":"４６號","E_COORD97":166034.57999999999,"N_COORD97":2536147.1899999999,"ADDRESS":"灣裡路４００巷４６號","OBJECTID":277482},"geometry":{"x":166034.58000000194,"y":2536147.1900000013}},{"attributes":{"ID":277488,"DIS_CODE":0,"TOWNNAME":"仁德區","LI":"仁愛里","LIN":"2鄰","STREET":" ","SECT":" ","MAREA":"仁愛","LANE":" ","ALLEY":" ","HOUSE_NO":"３１號","E_COORD97":170345.06849999999,"N_COORD97":2540129.59962,"ADDRESS":"仁愛３１號","OBJECTID":277483},"geometry":{"x":170345.06850000005,"y":2540129.5996220037}},{"attributes":{"ID":277489,"DIS_CODE":0,"TOWNNAME":"鹽水區","LI":"橋南里","LIN":"1鄰","STREET":"橋南街","SECT":" ","MAREA":" ","LANE":"１１巷","ALLEY":" ","HOUSE_NO":"３號","E_COORD97":175164,"N_COORD97":2579554.46,"ADDRESS":"橋南街１１巷３號","OBJECTID":277484},"geometry":{"x":175164.00000000093,"y":2579554.4600000028}},{"attributes":{"ID":277490,"DIS_CODE":0,"TOWNNAME":"歸仁區","LI":"南保里","LIN":"1鄰","STREET":"民權二街","SECT":" ","MAREA":" ","LANE":"２巷","ALLEY":" ","HOUSE_NO":"１９號","E_COORD97":176981.31,"N_COORD97":2541442.25,"ADDRESS":"民權二街２巷１９號","OBJECTID":277485},"geometry":{"x":176981.30999999959,"y":2541442.2499999981}},{"attributes":{"ID":277491,"DIS_CODE":0,"TOWNNAME":"歸仁區","LI":"看東里","LIN":"1鄰","STREET":"忠孝南路","SECT":" ","MAREA":" ","LANE":"６０巷","ALLEY":" ","HOUSE_NO":"２８號","E_COORD97":178429.45000000001,"N_COORD97":2540529.6699999999,"ADDRESS":"忠孝南路６０巷２８號","OBJECTID":277486},"geometry":{"x":178429.45000000112,"y":2540529.6699999999}},{"attributes":{"ID":277492,"DIS_CODE":0,"TOWNNAME":"歸仁區","LI":"南保里","LIN":"1鄰","STREET":"民權二街","SECT":" ","MAREA":" ","LANE":"２巷","ALLEY":" ","HOUSE_NO":"２３號","E_COORD97":176981.41,"N_COORD97":2541456.25,"ADDRESS":"民權二街２巷２３號","OBJECTID":277487},"geometry":{"x":176981.41000000015,"y":2541456.2500000037}},{"attributes":{"ID":277493,"DIS_CODE":0,"TOWNNAME":"歸仁區","LI":"南保里","LIN":"1鄰","STREET":"民權二街","SECT":" ","MAREA":" ","LANE":"２巷","ALLEY":" ","HOUSE_NO":"１號","E_COORD97":176979.76000000001,"N_COORD97":2541385.25,"ADDRESS":"民權二街２巷１號","OBJECTID":277488},"geometry":{"x":176979.75999999978,"y":2541385.2500000019}},{"attributes":{"ID":277494,"DIS_CODE":0,"TOWNNAME":"歸仁區","LI":"南保里","LIN":"1鄰","STREET":"民權二街","SECT":" ","MAREA":" ","LANE":"２巷","ALLEY":" ","HOUSE_NO":"５號","E_COORD97":176979.85999999999,"N_COORD97":2541399.25,"ADDRESS":"民權二街２巷５號","OBJECTID":277489},"geometry":{"x":176979.86000000034,"y":2541399.2500000019}},{"attributes":{"ID":277495,"DIS_CODE":0,"TOWNNAME":"歸仁區","LI":"南保里","LIN":"1鄰","STREET":"民權北路","SECT":" ","MAREA":" ","LANE":"２６７巷","ALLEY":" ","HOUSE_NO":"１號","E_COORD97":177000.94,"N_COORD97":2541496.29,"ADDRESS":"民權北路２６７巷１號","OBJECTID":277490},"geometry":{"x":177000.94000000134,"y":2541496.290000001}},{"attributes":{"ID":277496,"DIS_CODE":0,"TOWNNAME":"歸仁區","LI":"南興里","LIN":"1鄰","STREET":"民生北街","SECT":" ","MAREA":" ","LANE":"１１２巷","ALLEY":" ","HOUSE_NO":"１５號","E_COORD97":176332.91,"N_COORD97":2541268.25,"ADDRESS":"民生北街１１２巷１５號","OBJECTID":277491},"geometry":{"x":176332.91000000108,"y":2541268.25}},{"attributes":{"ID":277497,"DIS_CODE":0,"TOWNNAME":"新營區","LI":"新北里","LIN":"24鄰","STREET":"民生路","SECT":" ","MAREA":" ","LANE":"４２０巷","ALLEY":" ","HOUSE_NO":"２９號","E_COORD97":178876.67999999999,"N_COORD97":2579397.5800000001,"ADDRESS":"民生路４２０巷２９號","OBJECTID":277492},"geometry":{"x":178876.68000000063,"y":2579397.5800000001}},{"attributes":{"ID":277498,"DIS_CODE":0,"TOWNNAME":"北區","LI":"力行里","LIN":"1鄰","STREET":"開南街","SECT":" ","MAREA":" ","LANE":"２１３巷","ALLEY":" ","HOUSE_NO":"２號","E_COORD97":170809.88,"N_COORD97":2544991.1000000001,"ADDRESS":"開南街２１３巷２號","OBJECTID":277493},"geometry":{"x":170809.88000000082,"y":2544991.1000000015}},{"attributes":{"ID":277499,"DIS_CODE":0,"TOWNNAME":"北區","LI":"力行里","LIN":"1鄰","STREET":"開南街","SECT":" ","MAREA":" ","LANE":"２１３巷","ALLEY":" ","HOUSE_NO":"４號","E_COORD97":170811.12,"N_COORD97":2544995.5499999998,"ADDRESS":"開南街２１３巷４號","OBJECTID":277494},"geometry":{"x":170811.12000000011,"y":2544995.5500000026}},{"attributes":{"ID":277500,"DIS_CODE":0,"TOWNNAME":"北區","LI":"大豐里","LIN":"1鄰","STREET":"武聖路","SECT":" ","MAREA":" ","LANE":"８巷","ALLEY":" ","HOUSE_NO":"２號","E_COORD97":167288.16,"N_COORD97":2545135.25,"ADDRESS":"武聖路８巷２號","OBJECTID":277495},"geometry":{"x":167288.16000000015,"y":2545135.2500000019}},{"attributes":{"ID":277501,"DIS_CODE":0,"TOWNNAME":"北區","LI":"大豐里","LIN":"1鄰","STREET":"武聖路","SECT":" ","MAREA":" ","LANE":"８巷","ALLEY":" ","HOUSE_NO":"６號","E_COORD97":167287.51000000001,"N_COORD97":2545145.3100000001,"ADDRESS":"武聖路８巷６號","OBJECTID":277496},"geometry":{"x":167287.51000000164,"y":2545145.3100000024}},{"attributes":{"ID":277502,"DIS_CODE":0,"TOWNNAME":"北區","LI":"六甲里","LIN":"1鄰","STREET":"公園路","SECT":" ","MAREA":" ","LANE":"４８７巷","ALLEY":" ","HOUSE_NO":"９號","E_COORD97":168999.48000000001,"N_COORD97":2545510.1099999999,"ADDRESS":"公園路４８７巷９號","OBJECTID":277497},"geometry":{"x":168999.48000000138,"y":2545510.1099999994}},{"attributes":{"ID":277503,"DIS_CODE":0,"TOWNNAME":"北區","LI":"六甲里","LIN":"1鄰","STREET":"公園路","SECT":" ","MAREA":" ","LANE":"４８７巷","ALLEY":" ","HOUSE_NO":"１１號","E_COORD97":168995.16,"N_COORD97":2545510.7000000002,"ADDRESS":"公園路４８７巷１１號","OBJECTID":277498},"geometry":{"x":168995.16000000015,"y":2545510.700000003}},{"attributes":{"ID":277504,"DIS_CODE":0,"TOWNNAME":"北區","LI":"正風里","LIN":"1鄰","STREET":"公園路","SECT":" ","MAREA":" ","LANE":"８６２巷","ALLEY":" ","HOUSE_NO":"２號","E_COORD97":169298.64000000001,"N_COORD97":2546020.8599999999,"ADDRESS":"公園路８６２巷２號","OBJECTID":277499},"geometry":{"x":169298.64000000153,"y":2546020.8599999994}},{"attributes":{"ID":277505,"DIS_CODE":0,"TOWNNAME":"北區","LI":"正風里","LIN":"1鄰","STREET":"公園路","SECT":" ","MAREA":" ","LANE":"８６２巷","ALLEY":" ","HOUSE_NO":"２號之１","E_COORD97":169301.92999999999,"N_COORD97":2546018.79,"ADDRESS":"公園路８６２巷２號之１","OBJECTID":277500},"geometry":{"x":169301.93000000063,"y":2546018.790000001}},{"attributes":{"ID":277506,"DIS_CODE":0,"TOWNNAME":"北區","LI":"正風里","LIN":"1鄰","STREET":"公園路","SECT":" ","MAREA":" ","LANE":"８６２巷","ALLEY":" ","HOUSE_NO":"６號","E_COORD97":169306.82364700001,"N_COORD97":2546014.5974499998,"ADDRESS":"公園路８６２巷６號","OBJECTID":277501},"geometry":{"x":169306.82364700083,"y":2546014.5974480007}},{"attributes":{"ID":277507,"DIS_CODE":0,"TOWNNAME":"北區","LI":"正風里","LIN":"1鄰","STREET":"公園路","SECT":" ","MAREA":" ","LANE":"８６２巷","ALLEY":" ","HOUSE_NO":"８號","E_COORD97":169309.57717,"N_COORD97":2546012.4807799999,"ADDRESS":"公園路８６２巷８號","OBJECTID":277502},"geometry":{"x":169309.57717000041,"y":2546012.4807820003}},{"attributes":{"ID":277508,"DIS_CODE":0,"TOWNNAME":"學甲區","LI":"宅港里","LIN":"3鄰","STREET":" ","SECT":" ","MAREA":"宅子港","LANE":" ","ALLEY":" ","HOUSE_NO":"３６號之１","E_COORD97":168434.56,"N_COORD97":2572989.77,"ADDRESS":"宅子港３６號之１","OBJECTID":277503},"geometry":{"x":168434.56000000145,"y":2572989.7700000014}},{"attributes":{"ID":277509,"DIS_CODE":0,"TOWNNAME":"學甲區","LI":"宅港里","LIN":"3鄰","STREET":" ","SECT":" ","MAREA":"宅子港","LANE":" ","ALLEY":" ","HOUSE_NO":"３７號之１","E_COORD97":168395.85000000001,"N_COORD97":2572964.73,"ADDRESS":"宅子港３７號之１","OBJECTID":277504},"geometry":{"x":168395.85000000056,"y":2572964.7300000023}},{"attributes":{"ID":277510,"DIS_CODE":0,"TOWNNAME":"學甲區","LI":"宅港里","LIN":"3鄰","STREET":" ","SECT":" ","MAREA":"宅子港","LANE":" ","ALLEY":" ","HOUSE_NO":"３７號","E_COORD97":168401.98000000001,"N_COORD97":2572981.0800000001,"ADDRESS":"宅子港３７號","OBJECTID":277505},"geometry":{"x":168401.97999999952,"y":2572981.0800000038}},{"attributes":{"ID":277511,"DIS_CODE":0,"TOWNNAME":"學甲區","LI":"宅港里","LIN":"3鄰","STREET":" ","SECT":" ","MAREA":"宅子港","LANE":" ","ALLEY":" ","HOUSE_NO":"３８號","E_COORD97":168390.57000000001,"N_COORD97":2572956.9900000002,"ADDRESS":"宅子港３８號","OBJECTID":277506},"geometry":{"x":168390.5700000003,"y":2572956.9900000002}},{"attributes":{"ID":277512,"DIS_CODE":0,"TOWNNAME":"學甲區","LI":"宅港里","LIN":"3鄰","STREET":" ","SECT":" ","MAREA":"宅子港","LANE":" ","ALLEY":" ","HOUSE_NO":"３９號","E_COORD97":168381.67999999999,"N_COORD97":2572976.8599999999,"ADDRESS":"宅子港３９號","OBJECTID":277507},"geometry":{"x":168381.68000000063,"y":2572976.8599999994}},{"attributes":{"ID":277513,"DIS_CODE":0,"TOWNNAME":"學甲區","LI":"宅港里","LIN":"3鄰","STREET":" ","SECT":" ","MAREA":"宅子港","LANE":" ","ALLEY":" ","HOUSE_NO":"４０號","E_COORD97":168391.20000000001,"N_COORD97":2572994.8500000001,"ADDRESS":"宅子港４０號","OBJECTID":277508},"geometry":{"x":168391.20000000019,"y":2572994.8499999996}},{"attributes":{"ID":277514,"DIS_CODE":0,"TOWNNAME":"學甲區","LI":"宅港里","LIN":"3鄰","STREET":" ","SECT":" ","MAREA":"宅子港","LANE":" ","ALLEY":" ","HOUSE_NO":"４１號","E_COORD97":168413.28,"N_COORD97":2573013.75,"ADDRESS":"宅子港４１號","OBJECTID":277509},"geometry":{"x":168413.27999999933,"y":2573013.7500000037}},{"attributes":{"ID":277515,"DIS_CODE":0,"TOWNNAME":"學甲區","LI":"宅港里","LIN":"3鄰","STREET":" ","SECT":" ","MAREA":"宅子港","LANE":" ","ALLEY":" ","HOUSE_NO":"４２號","E_COORD97":168408.45999999999,"N_COORD97":2573035.8300000001,"ADDRESS":"宅子港４２號","OBJECTID":277510},"geometry":{"x":168408.46000000183,"y":2573035.8300000001}},{"attributes":{"ID":277516,"DIS_CODE":0,"TOWNNAME":"學甲區","LI":"宅港里","LIN":"3鄰","STREET":" ","SECT":" ","MAREA":"宅子港","LANE":" ","ALLEY":" ","HOUSE_NO":"４３號之５","E_COORD97":168375.17000000001,"N_COORD97":2573006.5899999999,"ADDRESS":"宅子港４３號之５","OBJECTID":277511},"geometry":{"x":168375.17000000086,"y":2573006.5899999999}},{"attributes":{"ID":277517,"DIS_CODE":0,"TOWNNAME":"學甲區","LI":"宅港里","LIN":"3鄰","STREET":" ","SECT":" ","MAREA":"宅子港","LANE":" ","ALLEY":" ","HOUSE_NO":"４３號","E_COORD97":168389.62,"N_COORD97":2573014.3199999998,"ADDRESS":"宅子港４３號","OBJECTID":277512},"geometry":{"x":168389.62000000104,"y":2573014.3200000022}},{"attributes":{"ID":277518,"DIS_CODE":0,"TOWNNAME":"學甲區","LI":"宅港里","LIN":"3鄰","STREET":" ","SECT":" ","MAREA":"宅子港","LANE":" ","ALLEY":" ","HOUSE_NO":"４５號","E_COORD97":168384.04000000001,"N_COORD97":2573029.54,"ADDRESS":"宅子港４５號","OBJECTID":277513},"geometry":{"x":168384.04000000004,"y":2573029.5399999991}},{"attributes":{"ID":277519,"DIS_CODE":0,"TOWNNAME":"學甲區","LI":"宅港里","LIN":"3鄰","STREET":" ","SECT":" ","MAREA":"宅子港","LANE":" ","ALLEY":" ","HOUSE_NO":"４６號","E_COORD97":168383.09,"N_COORD97":2573044.23,"ADDRESS":"宅子港４６號","OBJECTID":277514},"geometry":{"x":168383.08999999985,"y":2573044.2300000004}},{"attributes":{"ID":277520,"DIS_CODE":0,"TOWNNAME":"學甲區","LI":"新榮里","LIN":"3鄰","STREET":" ","SECT":" ","MAREA":"東寮","LANE":" ","ALLEY":" ","HOUSE_NO":"３５號之５２","E_COORD97":166927.73999999999,"N_COORD97":2569410.9500000002,"ADDRESS":"東寮３５號之５２","OBJECTID":277515},"geometry":{"x":166927.74000000115,"y":2569410.950000003}},{"attributes":{"ID":277521,"DIS_CODE":0,"TOWNNAME":"學甲區","LI":"新榮里","LIN":"3鄰","STREET":" ","SECT":" ","MAREA":"東寮","LANE":" ","ALLEY":" ","HOUSE_NO":"３５號之５３","E_COORD97":166927.64999999999,"N_COORD97":2569414.9700000002,"ADDRESS":"東寮３５號之５３","OBJECTID":277516},"geometry":{"x":166927.64999999944,"y":2569414.9700000007}},{"attributes":{"ID":277522,"DIS_CODE":0,"TOWNNAME":"學甲區","LI":"新榮里","LIN":"3鄰","STREET":" ","SECT":" ","MAREA":"東寮","LANE":" ","ALLEY":" ","HOUSE_NO":"３５號之５４","E_COORD97":166927.54999999999,"N_COORD97":2569418.9900000002,"ADDRESS":"東寮３５號之５４","OBJECTID":277517},"geometry":{"x":166927.54999999981,"y":2569418.9900000021}},{"attributes":{"ID":277523,"DIS_CODE":0,"TOWNNAME":"學甲區","LI":"新榮里","LIN":"3鄰","STREET":" ","SECT":" ","MAREA":"東寮","LANE":" ","ALLEY":" ","HOUSE_NO":"３５號之５５","E_COORD97":166927.45999999999,"N_COORD97":2569423.0099999998,"ADDRESS":"東寮３５號之５５","OBJECTID":277518},"geometry":{"x":166927.46000000089,"y":2569423.0099999998}},{"attributes":{"ID":277524,"DIS_CODE":0,"TOWNNAME":"學甲區","LI":"新榮里","LIN":"3鄰","STREET":" ","SECT":" ","MAREA":"東寮","LANE":" ","ALLEY":" ","HOUSE_NO":"３５號之５６","E_COORD97":166927.37,"N_COORD97":2569427.0299999998,"ADDRESS":"東寮３５號之５６","OBJECTID":277519},"geometry":{"x":166927.37000000011,"y":2569427.0299999993}},{"attributes":{"ID":277525,"DIS_CODE":0,"TOWNNAME":"學甲區","LI":"新榮里","LIN":"3鄰","STREET":" ","SECT":" ","MAREA":"東寮","LANE":" ","ALLEY":" ","HOUSE_NO":"３５號之５７","E_COORD97":166927.26999999999,"N_COORD97":2569431.0499999998,"ADDRESS":"東寮３５號之５７","OBJECTID":277520},"geometry":{"x":166927.26999999955,"y":2569431.0500000007}},{"attributes":{"ID":277526,"DIS_CODE":0,"TOWNNAME":"學甲區","LI":"新榮里","LIN":"3鄰","STREET":" ","SECT":" ","MAREA":"東寮","LANE":" ","ALLEY":" ","HOUSE_NO":"３５號之５８","E_COORD97":166927.17999999999,"N_COORD97":2569435.0699999998,"ADDRESS":"東寮３５號之５８","OBJECTID":277521},"geometry":{"x":166927.18000000063,"y":2569435.070000004}},{"attributes":{"ID":277527,"DIS_CODE":0,"TOWNNAME":"學甲區","LI":"新榮里","LIN":"3鄰","STREET":" ","SECT":" ","MAREA":"東寮","LANE":" ","ALLEY":" ","HOUSE_NO":"３５號之５９","E_COORD97":166927.09,"N_COORD97":2569439.0899999999,"ADDRESS":"東寮３５號之５９","OBJECTID":277522},"geometry":{"x":166927.08999999985,"y":2569439.0900000017}},{"attributes":{"ID":277528,"DIS_CODE":0,"TOWNNAME":"北區","LI":"正風里","LIN":"1鄰","STREET":"公園路","SECT":" ","MAREA":" ","LANE":"８６２巷","ALLEY":" ","HOUSE_NO":"１０號","E_COORD97":169312.07000000001,"N_COORD97":2546010.7799999998,"ADDRESS":"公園路８６２巷１０號","OBJECTID":277523},"geometry":{"x":169312.07000000123,"y":2546010.7799999993}},{"attributes":{"ID":277529,"DIS_CODE":0,"TOWNNAME":"學甲區","LI":"新榮里","LIN":"3鄰","STREET":" ","SECT":" ","MAREA":"東寮","LANE":" ","ALLEY":" ","HOUSE_NO":"３５號之６０","E_COORD97":166926.98999999999,"N_COORD97":2569443.1099999999,"ADDRESS":"東寮３５號之６０","OBJECTID":277524},"geometry":{"x":166926.99000000209,"y":2569443.1099999994}},{"attributes":{"ID":277530,"DIS_CODE":0,"TOWNNAME":"學甲區","LI":"新榮里","LIN":"3鄰","STREET":" ","SECT":" ","MAREA":"東寮","LANE":" ","ALLEY":" ","HOUSE_NO":"３５號之６１","E_COORD97":166926.82000000001,"N_COORD97":2569448.1499999999,"ADDRESS":"東寮３５號之６１","OBJECTID":277525},"geometry":{"x":166926.82000000123,"y":2569448.1500000041}},{"attributes":{"ID":277531,"DIS_CODE":0,"TOWNNAME":"學甲區","LI":"新榮里","LIN":"3鄰","STREET":" ","SECT":" ","MAREA":"東寮","LANE":" ","ALLEY":" ","HOUSE_NO":"３５號","E_COORD97":166774.45999999999,"N_COORD97":2569394.2400000002,"ADDRESS":"東寮３５號","OBJECTID":277526},"geometry":{"x":166774.46000000089,"y":2569394.2400000021}},{"attributes":{"ID":277532,"DIS_CODE":0,"TOWNNAME":"北區","LI":"正風里","LIN":"1鄰","STREET":"公園路","SECT":" ","MAREA":" ","LANE":"８６２巷","ALLEY":" ","HOUSE_NO":"１２號","E_COORD97":169315.23999999999,"N_COORD97":2546008.8300000001,"ADDRESS":"公園路８６２巷１２號","OBJECTID":277527},"geometry":{"x":169315.24000000022,"y":2546008.8300000038}},{"attributes":{"ID":277533,"DIS_CODE":0,"TOWNNAME":"北區","LI":"正風里","LIN":"1鄰","STREET":"公園路","SECT":" ","MAREA":" ","LANE":"８６２巷","ALLEY":" ","HOUSE_NO":"１４號","E_COORD97":169318.53,"N_COORD97":2546006.5800000001,"ADDRESS":"公園路８６２巷１４號","OBJECTID":277528},"geometry":{"x":169318.52999999933,"y":2546006.5800000001}},{"attributes":{"ID":277534,"DIS_CODE":0,"TOWNNAME":"學甲區","LI":"新榮里","LIN":"3鄰","STREET":" ","SECT":" ","MAREA":"東寮","LANE":" ","ALLEY":" ","HOUSE_NO":"３６號之２１","E_COORD97":166821.60000000001,"N_COORD97":2569174.8999999999,"ADDRESS":"東寮３６號之２１","OBJECTID":277529},"geometry":{"x":166821.59999999963,"y":2569174.8999999985}},{"attributes":{"ID":277535,"DIS_CODE":0,"TOWNNAME":"東區","LI":"仁和里","LIN":"24鄰","STREET":"仁東街","SECT":" ","MAREA":" ","LANE":" ","ALLEY":" ","HOUSE_NO":"４６號","E_COORD97":171619.45000000001,"N_COORD97":2541163.3500000001,"ADDRESS":"仁東街４６號","OBJECTID":277530},"geometry":{"x":171619.45000000205,"y":2541163.3500000034}},{"attributes":{"ID":277536,"DIS_CODE":0,"TOWNNAME":"東區","LI":"小東里","LIN":"11鄰","STREET":"東安路","SECT":" ","MAREA":" ","LANE":" ","ALLEY":" ","HOUSE_NO":"２５５號","E_COORD97":170757.88,"N_COORD97":2544128.3799999999,"ADDRESS":"東安路２５５號","OBJECTID":277531},"geometry":{"x":170757.87999999989,"y":2544128.379999999}},{"attributes":{"ID":277537,"DIS_CODE":0,"TOWNNAME":"東區","LI":"小東里","LIN":"11鄰","STREET":"東安路","SECT":" ","MAREA":" ","LANE":" ","ALLEY":" ","HOUSE_NO":"２５７號","E_COORD97":170754.53,"N_COORD97":2544149.9700000002,"ADDRESS":"東安路２５７號","OBJECTID":277532},"geometry":{"x":170754.53000000212,"y":2544149.9700000007}},{"attributes":{"ID":277538,"DIS_CODE":0,"TOWNNAME":"東區","LI":"小東里","LIN":"11鄰","STREET":"東安路","SECT":" ","MAREA":" ","LANE":" ","ALLEY":" ","HOUSE_NO":"２８７號","E_COORD97":170752.73999999999,"N_COORD97":2544217.9700000002,"ADDRESS":"東安路２８７號","OBJECTID":277533},"geometry":{"x":170752.74000000022,"y":2544217.9700000007}},{"attributes":{"ID":277539,"DIS_CODE":0,"TOWNNAME":"東區","LI":"仁和里","LIN":"27鄰","STREET":"仁東街","SECT":" ","MAREA":" ","LANE":" ","ALLEY":" ","HOUSE_NO":"５２號","E_COORD97":171654.22,"N_COORD97":2541175.02,"ADDRESS":"仁東街５２號","OBJECTID":277534},"geometry":{"x":171654.21999999974,"y":2541175.0199999996}},{"attributes":{"ID":277540,"DIS_CODE":0,"TOWNNAME":"東區","LI":"龍山里","LIN":"7鄰","STREET":"長榮路","SECT":"一段","MAREA":" ","LANE":" ","ALLEY":" ","HOUSE_NO":"２３２號","E_COORD97":169891.78,"N_COORD97":2542900.0699999998,"ADDRESS":"長榮路一段２３２號","OBJECTID":277535},"geometry":{"x":169891.78000000119,"y":2542900.0700000022}},{"attributes":{"ID":277541,"DIS_CODE":0,"TOWNNAME":"東區","LI":"龍山里","LIN":"6鄰","STREET":"林森路","SECT":"一段","MAREA":" ","LANE":" ","ALLEY":" ","HOUSE_NO":"３６１號","E_COORD97":170124.72,"N_COORD97":2542788.4700000002,"ADDRESS":"林森路一段３６１號","OBJECTID":277536},"geometry":{"x":170124.71999999974,"y":2542788.4700000025}},{"attributes":{"ID":277542,"DIS_CODE":0,"TOWNNAME":"北區","LI":"正風里","LIN":"1鄰","STREET":"公園路","SECT":" ","MAREA":" ","LANE":"８６２巷","ALLEY":" ","HOUSE_NO":"１６號","E_COORD97":169321.69,"N_COORD97":2546004.2599999998,"ADDRESS":"公園路８６２巷１６號","OBJECTID":277537},"geometry":{"x":169321.69000000134,"y":2546004.2599999998}},{"attributes":{"ID":277543,"DIS_CODE":0,"TOWNNAME":"北區","LI":"正風里","LIN":"1鄰","STREET":"公園路","SECT":" ","MAREA":" ","LANE":"８６２巷","ALLEY":" ","HOUSE_NO":"１８號","E_COORD97":169325.37,"N_COORD97":2546001.5499999998,"ADDRESS":"公園路８６２巷１８號","OBJECTID":277538},"geometry":{"x":169325.37000000104,"y":2546001.5500000045}},{"attributes":{"ID":277544,"DIS_CODE":0,"TOWNNAME":"北區","LI":"正風里","LIN":"1鄰","STREET":"公園路","SECT":" ","MAREA":" ","LANE":"８６２巷","ALLEY":" ","HOUSE_NO":"２０號","E_COORD97":169327.89999999999,"N_COORD97":2545996.6200000001,"ADDRESS":"公園路８６２巷２０號","OBJECTID":277539},"geometry":{"x":169327.90000000037,"y":2545996.620000001}},{"attributes":{"ID":277545,"DIS_CODE":0,"TOWNNAME":"北區","LI":"正風里","LIN":"1鄰","STREET":"公園路","SECT":" ","MAREA":" ","LANE":"８６２巷","ALLEY":" ","HOUSE_NO":"２２號","E_COORD97":169331.26999999999,"N_COORD97":2545993.27,"ADDRESS":"公園路８６２巷２２號","OBJECTID":277540},"geometry":{"x":169331.26999999955,"y":2545993.2700000014}},{"attributes":{"ID":277546,"DIS_CODE":0,"TOWNNAME":"北區","LI":"正風里","LIN":"1鄰","STREET":"公園路","SECT":" ","MAREA":" ","LANE":"８６２巷","ALLEY":" ","HOUSE_NO":"２４號","E_COORD97":169333.98000000001,"N_COORD97":2545991.27,"ADDRESS":"公園路８６２巷２４號","OBJECTID":277541},"geometry":{"x":169333.98000000045,"y":2545991.2699999996}},{"attributes":{"ID":277547,"DIS_CODE":0,"TOWNNAME":"下營區","LI":"後街里","LIN":"17鄰","STREET":"人和二街","SECT":" ","MAREA":" ","LANE":" ","ALLEY":" ","HOUSE_NO":"５８號","E_COORD97":174656.865663,"N_COORD97":2570793.9995499998,"ADDRESS":"人和二街５８號","OBJECTID":277542},"geometry":{"x":174656.86566300131,"y":2570793.9995510019}},{"attributes":{"ID":277548,"DIS_CODE":0,"TOWNNAME":"北區","LI":"正風里","LIN":"1鄰","STREET":"公園路","SECT":" ","MAREA":" ","LANE":"８６２巷","ALLEY":" ","HOUSE_NO":"２６號","E_COORD97":169336.17000000001,"N_COORD97":2545988.8799999999,"ADDRESS":"公園路８６２巷２６號","OBJECTID":277543},"geometry":{"x":169336.17000000086,"y":2545988.879999999}},{"attributes":{"ID":277549,"DIS_CODE":0,"TOWNNAME":"北區","LI":"正風里","LIN":"1鄰","STREET":"公園路","SECT":" ","MAREA":" ","LANE":"８６２巷","ALLEY":" ","HOUSE_NO":"２８號","E_COORD97":169338.04999999999,"N_COORD97":2545986.9500000002,"ADDRESS":"公園路８６２巷２８號","OBJECTID":277544},"geometry":{"x":169338.04999999981,"y":2545986.950000003}},{"attributes":{"ID":277550,"DIS_CODE":0,"TOWNNAME":"北區","LI":"正覺里","LIN":"1鄰","STREET":"公園路","SECT":" ","MAREA":" ","LANE":"５９３巷","ALLEY":" ","HOUSE_NO":"４２號","E_COORD97":169072.54000000001,"N_COORD97":2546040.2000000002,"ADDRESS":"公園路５９３巷４２號","OBJECTID":277545},"geometry":{"x":169072.5400000019,"y":2546040.2000000011}},{"attributes":{"ID":277551,"DIS_CODE":0,"TOWNNAME":"北區","LI":"正覺里","LIN":"1鄰","STREET":"公園路","SECT":" ","MAREA":" ","LANE":"５９３巷","ALLEY":" ","HOUSE_NO":"４４號","E_COORD97":169073.91,"N_COORD97":2546043.4300000002,"ADDRESS":"公園路５９３巷４４號","OBJECTID":277546},"geometry":{"x":169073.91000000108,"y":2546043.4299999997}},{"attributes":{"ID":277552,"DIS_CODE":0,"TOWNNAME":"北區","LI":"新勝里","LIN":"1鄰","STREET":"開元路","SECT":" ","MAREA":" ","LANE":"３５７巷","ALLEY":" ","HOUSE_NO":"１號","E_COORD97":170299.89000000001,"N_COORD97":2545505.2400000002,"ADDRESS":"開元路３５７巷１號","OBJECTID":277547},"geometry":{"x":170299.88999999966,"y":2545505.2400000021}},{"attributes":{"ID":277553,"DIS_CODE":0,"TOWNNAME":"北區","LI":"新勝里","LIN":"1鄰","STREET":"開元路","SECT":" ","MAREA":" ","LANE":"３５７巷","ALLEY":" ","HOUSE_NO":"３號","E_COORD97":170297.76000000001,"N_COORD97":2545509.8199999998,"ADDRESS":"開元路３５７巷３號","OBJECTID":277548},"geometry":{"x":170297.75999999978,"y":2545509.8200000003}},{"attributes":{"ID":277554,"DIS_CODE":0,"TOWNNAME":"學甲區","LI":"新榮里","LIN":"3鄰","STREET":" ","SECT":" ","MAREA":"東寮","LANE":" ","ALLEY":" ","HOUSE_NO":"３３號","E_COORD97":166804.04000000001,"N_COORD97":2569410.2599999998,"ADDRESS":"東寮３３號","OBJECTID":277549},"geometry":{"x":166804.04000000004,"y":2569410.2600000016}},{"attributes":{"ID":277555,"DIS_CODE":0,"TOWNNAME":"學甲區","LI":"新榮里","LIN":"3鄰","STREET":" ","SECT":" ","MAREA":"東寮","LANE":" ","ALLEY":" ","HOUSE_NO":"３４號之１","E_COORD97":166775.01999999999,"N_COORD97":2569407.5,"ADDRESS":"東寮３４號之１","OBJECTID":277550},"geometry":{"x":166775.01999999955,"y":2569407.5}},{"attributes":{"ID":277556,"DIS_CODE":0,"TOWNNAME":"學甲區","LI":"新榮里","LIN":"3鄰","STREET":" ","SECT":" ","MAREA":"東寮","LANE":" ","ALLEY":" ","HOUSE_NO":"３４號","E_COORD97":166774.88,"N_COORD97":2569411.8399999999,"ADDRESS":"東寮３４號","OBJECTID":277551},"geometry":{"x":166774.88000000175,"y":2569411.8399999999}},{"attributes":{"ID":277557,"DIS_CODE":0,"TOWNNAME":"學甲區","LI":"新榮里","LIN":"3鄰","STREET":" ","SECT":" ","MAREA":"東寮","LANE":" ","ALLEY":" ","HOUSE_NO":"３５號之１２","E_COORD97":166834.12,"N_COORD97":2569390.27,"ADDRESS":"東寮３５號之１２","OBJECTID":277552},"geometry":{"x":166834.12000000011,"y":2569390.2700000014}},{"attributes":{"ID":277558,"DIS_CODE":0,"TOWNNAME":"學甲區","LI":"新榮里","LIN":"3鄰","STREET":" ","SECT":" ","MAREA":"東寮","LANE":" ","ALLEY":" ","HOUSE_NO":"３５號之１","E_COORD97":166774.76999999999,"N_COORD97":2569389.5099999998,"ADDRESS":"東寮３５號之１","OBJECTID":277553},"geometry":{"x":166774.76999999955,"y":2569389.5099999998}},{"attributes":{"ID":277559,"DIS_CODE":0,"TOWNNAME":"學甲區","LI":"新榮里","LIN":"3鄰","STREET":" ","SECT":" ","MAREA":"東寮","LANE":" ","ALLEY":" ","HOUSE_NO":"３５號之２","E_COORD97":166775.13,"N_COORD97":2569384.9300000002,"ADDRESS":"東寮３５號之２","OBJECTID":277554},"geometry":{"x":166775.13000000082,"y":2569384.9300000016}},{"attributes":{"ID":277560,"DIS_CODE":0,"TOWNNAME":"仁德區","LI":"仁愛里","LIN":"2鄰","STREET":" ","SECT":" ","MAREA":"仁愛","LANE":" ","ALLEY":" ","HOUSE_NO":"３３號","E_COORD97":170345.06849999999,"N_COORD97":2540119.9687899998,"ADDRESS":"仁愛３３號","OBJECTID":277555},"geometry":{"x":170345.06850000005,"y":2540119.9687939994}},{"attributes":{"ID":277561,"DIS_CODE":0,"TOWNNAME":"北區","LI":"新勝里","LIN":"1鄰","STREET":"開元路","SECT":" ","MAREA":" ","LANE":"３５７巷","ALLEY":" ","HOUSE_NO":"５號","E_COORD97":170296.17999999999,"N_COORD97":2545513.5299999998,"ADDRESS":"開元路３５７巷５號","OBJECTID":277556},"geometry":{"x":170296.1799999997,"y":2545513.5299999993}},{"attributes":{"ID":277562,"DIS_CODE":0,"TOWNNAME":"北區","LI":"新勝里","LIN":"1鄰","STREET":"開元路","SECT":" ","MAREA":" ","LANE":"３３３巷","ALLEY":" ","HOUSE_NO":"２號之１９","E_COORD97":170257.91,"N_COORD97":2545489.73,"ADDRESS":"開元路３３３巷２號之１９","OBJECTID":277557},"geometry":{"x":170257.91000000015,"y":2545489.7300000004}},{"attributes":{"ID":277563,"DIS_CODE":0,"TOWNNAME":"北區","LI":"新勝里","LIN":"1鄰","STREET":"開元路","SECT":" ","MAREA":" ","LANE":"３３３巷","ALLEY":" ","HOUSE_NO":"２號之２０","E_COORD97":170254.98999999999,"N_COORD97":2545486.3300000001,"ADDRESS":"開元路３３３巷２號之２０","OBJECTID":277558},"geometry":{"x":170254.99000000115,"y":2545486.3300000001}},{"attributes":{"ID":277564,"DIS_CODE":0,"TOWNNAME":"北區","LI":"新勝里","LIN":"1鄰","STREET":"開元路","SECT":" ","MAREA":" ","LANE":"３３３巷","ALLEY":" ","HOUSE_NO":"２號之２１","E_COORD97":170252.04999999999,"N_COORD97":2545482.9199999999,"ADDRESS":"開元路３３３巷２號之２１","OBJECTID":277559},"geometry":{"x":170252.05000000168,"y":2545482.9200000018}},{"attributes":{"ID":277565,"DIS_CODE":0,"TOWNNAME":"學甲區","LI":"豐和里","LIN":"3鄰","STREET":" ","SECT":" ","MAREA":"美豐","LANE":" ","ALLEY":" ","HOUSE_NO":"２０號","E_COORD97":168087.29000000001,"N_COORD97":2568906.3799999999,"ADDRESS":"美豐２０號","OBJECTID":277560},"geometry":{"x":168087.29000000004,"y":2568906.3800000008}},{"attributes":{"ID":277566,"DIS_CODE":0,"TOWNNAME":"北區","LI":"新勝里","LIN":"1鄰","STREET":"開元路","SECT":" ","MAREA":" ","LANE":"３３３巷","ALLEY":" ","HOUSE_NO":"２號之２２","E_COORD97":170248.17999999999,"N_COORD97":2545479.4500000002,"ADDRESS":"開元路３３３巷２號之２２","OBJECTID":277561},"geometry":{"x":170248.18000000063,"y":2545479.4500000011}},{"attributes":{"ID":277567,"DIS_CODE":0,"TOWNNAME":"北區","LI":"新勝里","LIN":"1鄰","STREET":"開元路","SECT":" ","MAREA":" ","LANE":"３３３巷","ALLEY":" ","HOUSE_NO":"２號之２３","E_COORD97":170244.14999999999,"N_COORD97":2545475.0299999998,"ADDRESS":"開元路３３３巷２號之２３","OBJECTID":277562},"geometry":{"x":170244.1500000013,"y":2545475.0300000012}},{"attributes":{"ID":277568,"DIS_CODE":0,"TOWNNAME":"北區","LI":"裕民里","LIN":"1鄰","STREET":"成功路","SECT":" ","MAREA":" ","LANE":"６００巷","ALLEY":" ","HOUSE_NO":"４１號","E_COORD97":167573.38,"N_COORD97":2544861.79,"ADDRESS":"成功路６００巷４１號","OBJECTID":277563},"geometry":{"x":167573.38000000082,"y":2544861.7899999991}},{"attributes":{"ID":277569,"DIS_CODE":0,"TOWNNAME":"北區","LI":"裕民里","LIN":"1鄰","STREET":"成功路","SECT":" ","MAREA":" ","LANE":"６００巷","ALLEY":" ","HOUSE_NO":"４３號","E_COORD97":167579.66,"N_COORD97":2544865.8500000001,"ADDRESS":"成功路６００巷４３號","OBJECTID":277564},"geometry":{"x":167579.66000000015,"y":2544865.8500000034}},{"attributes":{"ID":277570,"DIS_CODE":0,"TOWNNAME":"北區","LI":"裕民里","LIN":"1鄰","STREET":"成功路","SECT":" ","MAREA":" ","LANE":"６００巷","ALLEY":" ","HOUSE_NO":"４５號","E_COORD97":167584.10000000001,"N_COORD97":2544866.96,"ADDRESS":"成功路６００巷４５號","OBJECTID":277565},"geometry":{"x":167584.10000000056,"y":2544866.9600000028}},{"attributes":{"ID":277571,"DIS_CODE":0,"TOWNNAME":"北區","LI":"裕民里","LIN":"1鄰","STREET":"成功路","SECT":" ","MAREA":" ","LANE":"６００巷","ALLEY":" ","HOUSE_NO":"４７號","E_COORD97":167588.53,"N_COORD97":2544868.7999999998,"ADDRESS":"成功路６００巷４７號","OBJECTID":277566},"geometry":{"x":167588.53000000119,"y":2544868.8000000026}},{"attributes":{"ID":277572,"DIS_CODE":0,"TOWNNAME":"北區","LI":"裕民里","LIN":"1鄰","STREET":"成功路","SECT":" ","MAREA":" ","LANE":"６００巷","ALLEY":" ","HOUSE_NO":"４９號","E_COORD97":167594.07000000001,"N_COORD97":2544869.9100000001,"ADDRESS":"成功路６００巷４９號","OBJECTID":277567},"geometry":{"x":167594.0700000003,"y":2544869.910000002}},{"attributes":{"ID":277573,"DIS_CODE":0,"TOWNNAME":"北區","LI":"裕民里","LIN":"1鄰","STREET":"成功路","SECT":" ","MAREA":" ","LANE":"６００巷","ALLEY":" ","HOUSE_NO":"５１號","E_COORD97":167597.03,"N_COORD97":2544871.75,"ADDRESS":"成功路６００巷５１號","OBJECTID":277568},"geometry":{"x":167597.03000000119,"y":2544871.7500000019}},{"attributes":{"ID":277574,"DIS_CODE":0,"TOWNNAME":"北區","LI":"裕民里","LIN":"1鄰","STREET":"成功路","SECT":" ","MAREA":" ","LANE":"６００巷","ALLEY":" ","HOUSE_NO":"５３號","E_COORD97":167599.98000000001,"N_COORD97":2544873.9700000002,"ADDRESS":"成功路６００巷５３號","OBJECTID":277569},"geometry":{"x":167599.98000000045,"y":2544873.9700000025}},{"attributes":{"ID":277575,"DIS_CODE":0,"TOWNNAME":"北區","LI":"裕民里","LIN":"1鄰","STREET":"成功路","SECT":" ","MAREA":" ","LANE":"６００巷","ALLEY":" ","HOUSE_NO":"５５號","E_COORD97":167604.04999999999,"N_COORD97":2544876.1800000002,"ADDRESS":"成功路６００巷５５號","OBJECTID":277570},"geometry":{"x":167604.04999999981,"y":2544876.1799999997}},{"attributes":{"ID":277576,"DIS_CODE":0,"TOWNNAME":"北區","LI":"裕民里","LIN":"1鄰","STREET":"成功路","SECT":" ","MAREA":" ","LANE":"６００巷","ALLEY":" ","HOUSE_NO":"５７號","E_COORD97":167607,"N_COORD97":2544876.1800000002,"ADDRESS":"成功路６００巷５７號","OBJECTID":277571},"geometry":{"x":167607.00000000093,"y":2544876.1799999997}},{"attributes":{"ID":277577,"DIS_CODE":0,"TOWNNAME":"北區","LI":"裕民里","LIN":"1鄰","STREET":"成功路","SECT":" ","MAREA":" ","LANE":"６００巷","ALLEY":" ","HOUSE_NO":"６１號","E_COORD97":167617.35000000001,"N_COORD97":2544879.5,"ADDRESS":"成功路６００巷６１號","OBJECTID":277572},"geometry":{"x":167617.35000000149,"y":2544879.5000000019}},{"attributes":{"ID":277578,"DIS_CODE":0,"TOWNNAME":"北區","LI":"賢北里","LIN":"1鄰","STREET":"賢北街","SECT":" ","MAREA":" ","LANE":"１６巷","ALLEY":" ","HOUSE_NO":"６１號","E_COORD97":166467.95000000001,"N_COORD97":2545303.3500000001,"ADDRESS":"賢北街１６巷６１號","OBJECTID":277573},"geometry":{"x":166467.95000000112,"y":2545303.3500000015}},{"attributes":{"ID":277579,"DIS_CODE":0,"TOWNNAME":"北區","LI":"興北里","LIN":"1鄰","STREET":"北門路","SECT":"二段","MAREA":" ","LANE":"２０２巷","ALLEY":" ","HOUSE_NO":"２號","E_COORD97":169472.04000000001,"N_COORD97":2545127.98,"ADDRESS":"北門路二段２０２巷２號","OBJECTID":277574},"geometry":{"x":169472.04000000004,"y":2545127.9800000023}},{"attributes":{"ID":277580,"DIS_CODE":0,"TOWNNAME":"北區","LI":"大和里","LIN":"1鄰","STREET":"大港街","SECT":" ","MAREA":" ","LANE":"１５巷","ALLEY":" ","HOUSE_NO":"３３號","E_COORD97":167303.48000000001,"N_COORD97":2546006.4300000002,"ADDRESS":"大港街１５巷３３號","OBJECTID":277575},"geometry":{"x":167303.47999999952,"y":2546006.4299999997}},{"attributes":{"ID":277581,"DIS_CODE":0,"TOWNNAME":"北區","LI":"大和里","LIN":"1鄰","STREET":"大港街","SECT":" ","MAREA":" ","LANE":"１５巷","ALLEY":" ","HOUSE_NO":"３７號","E_COORD97":167304.13,"N_COORD97":2545994.6400000001,"ADDRESS":"大港街１５巷３７號","OBJECTID":277576},"geometry":{"x":167304.13000000082,"y":2545994.6400000025}},{"attributes":{"ID":277582,"DIS_CODE":0,"TOWNNAME":"北區","LI":"大和里","LIN":"1鄰","STREET":"大港街","SECT":" ","MAREA":" ","LANE":"１５巷","ALLEY":" ","HOUSE_NO":"３９號","E_COORD97":167304.45999999999,"N_COORD97":2545988.75,"ADDRESS":"大港街１５巷３９號","OBJECTID":277577},"geometry":{"x":167304.45999999996,"y":2545988.7499999981}},{"attributes":{"ID":277583,"DIS_CODE":0,"TOWNNAME":"北區","LI":"大和里","LIN":"1鄰","STREET":"大港街","SECT":" ","MAREA":" ","LANE":"１５巷","ALLEY":" ","HOUSE_NO":"２號","E_COORD97":167286.94,"N_COORD97":2546096.1499999999,"ADDRESS":"大港街１５巷２號","OBJECTID":277578},"geometry":{"x":167286.94000000227,"y":2546096.1500000022}},{"attributes":{"ID":277584,"DIS_CODE":0,"TOWNNAME":"北區","LI":"大和里","LIN":"1鄰","STREET":"大港街","SECT":" ","MAREA":" ","LANE":"１５巷","ALLEY":" ","HOUSE_NO":"６號","E_COORD97":167286.78,"N_COORD97":2546090.4199999999,"ADDRESS":"大港街１５巷６號","OBJECTID":277579},"geometry":{"x":167286.78000000119,"y":2546090.4200000018}},{"attributes":{"ID":277585,"DIS_CODE":0,"TOWNNAME":"北區","LI":"大和里","LIN":"1鄰","STREET":"大港街","SECT":" ","MAREA":" ","LANE":"１５巷","ALLEY":" ","HOUSE_NO":"５２號","E_COORD97":167292.84,"N_COORD97":2545988.2599999998,"ADDRESS":"大港街１５巷５２號","OBJECTID":277580},"geometry":{"x":167292.84000000078,"y":2545988.2599999998}},{"attributes":{"ID":277586,"DIS_CODE":0,"TOWNNAME":"北區","LI":"大和里","LIN":"1鄰","STREET":"大港街","SECT":" ","MAREA":" ","LANE":"１５巷","ALLEY":" ","HOUSE_NO":"５０號","E_COORD97":167292.17999999999,"N_COORD97":2545993.6600000001,"ADDRESS":"大港街１５巷５０號","OBJECTID":277581},"geometry":{"x":167292.1799999997,"y":2545993.660000002}},{"attributes":{"ID":277587,"DIS_CODE":0,"TOWNNAME":"北區","LI":"大和里","LIN":"1鄰","STREET":"大港街","SECT":" ","MAREA":" ","LANE":"１５巷","ALLEY":" ","HOUSE_NO":"４６號","E_COORD97":167291.69,"N_COORD97":2545999.5600000001,"ADDRESS":"大港街１５巷４６號","OBJECTID":277582},"geometry":{"x":167291.69000000041,"y":2545999.5600000005}},{"attributes":{"ID":277588,"DIS_CODE":0,"TOWNNAME":"楠西區","LI":"龜丹里","LIN":"3鄰","STREET":" ","SECT":" ","MAREA":"龜丹","LANE":" ","ALLEY":" ","HOUSE_NO":"３３號","E_COORD97":198033.34,"N_COORD97":2559265.25,"ADDRESS":"龜丹３３號","OBJECTID":277583},"geometry":{"x":198033.34000000078,"y":2559265.25}},{"attributes":{"ID":277589,"DIS_CODE":0,"TOWNNAME":"北區","LI":"大和里","LIN":"1鄰","STREET":"大港街","SECT":" ","MAREA":" ","LANE":"１５巷","ALLEY":" ","HOUSE_NO":"８號","E_COORD97":167286.94,"N_COORD97":2546085.02,"ADDRESS":"大港街１５巷８號","OBJECTID":277584},"geometry":{"x":167286.94000000227,"y":2546085.0200000033}},{"attributes":{"ID":277590,"DIS_CODE":0,"TOWNNAME":"新營區","LI":"好平里","LIN":"1鄰","STREET":"武侯街","SECT":" ","MAREA":" ","LANE":"９巷","ALLEY":" ","HOUSE_NO":"２４號","E_COORD97":179582.54000000001,"N_COORD97":2577703.1299999999,"ADDRESS":"武侯街９巷２４號","OBJECTID":277585},"geometry":{"x":179582.54000000004,"y":2577703.1300000008}},{"attributes":{"ID":277591,"DIS_CODE":0,"TOWNNAME":"楠西區","LI":"楠西里","LIN":"1鄰","STREET":"民族路","SECT":" ","MAREA":" ","LANE":"９０巷","ALLEY":" ","HOUSE_NO":"１號","E_COORD97":197021.04000000001,"N_COORD97":2564070.29,"ADDRESS":"民族路９０巷１號","OBJECTID":277586},"geometry":{"x":197021.03999999911,"y":2564070.290000001}},{"attributes":{"ID":277592,"DIS_CODE":0,"TOWNNAME":"新化區","LI":"護國里","LIN":"1鄰","STREET":"中山路","SECT":" ","MAREA":" ","LANE":"２２４巷","ALLEY":" ","HOUSE_NO":"１１號之２","E_COORD97":179094.01000000001,"N_COORD97":2548529.2599999998,"ADDRESS":"中山路２２４巷１１號之２","OBJECTID":277587},"geometry":{"x":179094.00999999978,"y":2548529.2600000016}},{"attributes":{"ID":277593,"DIS_CODE":0,"TOWNNAME":"學甲區","LI":"仁得里","LIN":"17鄰","STREET":"八德街","SECT":" ","MAREA":" ","LANE":"２１９巷","ALLEY":" ","HOUSE_NO":"１號","E_COORD97":165706.32000000001,"N_COORD97":2569789.5099999998,"ADDRESS":"八德街２１９巷１號","OBJECTID":277588},"geometry":{"x":165706.32000000123,"y":2569789.5099999998}},{"attributes":{"ID":277594,"DIS_CODE":0,"TOWNNAME":"佳里區","LI":"六安里","LIN":"1鄰","STREET":"進學路","SECT":" ","MAREA":" ","LANE":"１４８巷","ALLEY":" ","HOUSE_NO":"１０號","E_COORD97":166009.73000000001,"N_COORD97":2562730.6200000001,"ADDRESS":"進學路１４８巷１０號","OBJECTID":277589},"geometry":{"x":166009.73000000045,"y":2562730.6200000029}},{"attributes":{"ID":277595,"DIS_CODE":0,"TOWNNAME":"永康區","LI":"西橋里","LIN":"1鄰","STREET":"中山南路","SECT":" ","MAREA":" ","LANE":"４３巷","ALLEY":" ","HOUSE_NO":"５號之１","E_COORD97":170743.92999999999,"N_COORD97":2545849.46,"ADDRESS":"中山南路４３巷５號之１","OBJECTID":277590},"geometry":{"x":170743.9299999997,"y":2545849.4600000046}},{"attributes":{"ID":277596,"DIS_CODE":0,"TOWNNAME":"安南區","LI":"安順里","LIN":"1鄰","STREET":"安和路","SECT":"四段","MAREA":" ","LANE":"２５巷","ALLEY":" ","HOUSE_NO":"１１號","E_COORD97":169906.98000000001,"N_COORD97":2550146.0800000001,"ADDRESS":"安和路四段２５巷１１號","OBJECTID":277591},"geometry":{"x":169906.98000000045,"y":2550146.0800000001}},{"attributes":{"ID":277597,"DIS_CODE":0,"TOWNNAME":"安南區","LI":"淵中里","LIN":"1鄰","STREET":"安中路","SECT":"三段","MAREA":" ","LANE":"３７５巷","ALLEY":" ","HOUSE_NO":"１號","E_COORD97":165523.98000000001,"N_COORD97":2549898.1299999999,"ADDRESS":"安中路三段３７５巷１號","OBJECTID":277592},"geometry":{"x":165523.98000000138,"y":2549898.1300000008}},{"attributes":{"ID":277598,"DIS_CODE":0,"TOWNNAME":"安南區","LI":"淵中里","LIN":"1鄰","STREET":"安中路","SECT":"三段","MAREA":" ","LANE":"３７５巷","ALLEY":" ","HOUSE_NO":"３號","E_COORD97":165523.29999999999,"N_COORD97":2549893.2999999998,"ADDRESS":"安中路三段３７５巷３號","OBJECTID":277593},"geometry":{"x":165523.30000000075,"y":2549893.3000000026}},{"attributes":{"ID":277599,"DIS_CODE":0,"TOWNNAME":"安南區","LI":"淵中里","LIN":"1鄰","STREET":"安中路","SECT":"三段","MAREA":" ","LANE":"３７５巷","ALLEY":" ","HOUSE_NO":"７號","E_COORD97":165520.95000000001,"N_COORD97":2549881.2799999998,"ADDRESS":"安中路三段３７５巷７號","OBJECTID":277594},"geometry":{"x":165520.95000000112,"y":2549881.2800000012}},{"attributes":{"ID":277600,"DIS_CODE":0,"TOWNNAME":"安南區","LI":"淵中里","LIN":"1鄰","STREET":"安中路","SECT":"三段","MAREA":" ","LANE":"３７５巷","ALLEY":" ","HOUSE_NO":"９號","E_COORD97":165520.57000000001,"N_COORD97":2549876.5299999998,"ADDRESS":"安中路三段３７５巷９號","OBJECTID":277595},"geometry":{"x":165520.5700000003,"y":2549876.5300000012}},{"attributes":{"ID":277601,"DIS_CODE":0,"TOWNNAME":"安南區","LI":"原佃里","LIN":"1鄰","STREET":"本原街","SECT":"一段","MAREA":" ","LANE":"９７巷","ALLEY":" ","HOUSE_NO":"１３０號","E_COORD97":167846.89999999999,"N_COORD97":2549940.9199999999,"ADDRESS":"本原街一段９７巷１３０號","OBJECTID":277596},"geometry":{"x":167846.9000000013,"y":2549940.9200000037}},{"attributes":{"ID":277602,"DIS_CODE":0,"TOWNNAME":"安南區","LI":"原佃里","LIN":"1鄰","STREET":"本原街","SECT":"一段","MAREA":" ","LANE":"９７巷","ALLEY":" ","HOUSE_NO":"１２４號","E_COORD97":167842.79999999999,"N_COORD97":2549955.6499999999,"ADDRESS":"本原街一段９７巷１２４號","OBJECTID":277597},"geometry":{"x":167842.79999999981,"y":2549955.6500000004}},{"attributes":{"ID":277603,"DIS_CODE":0,"TOWNNAME":"安南區","LI":"原佃里","LIN":"1鄰","STREET":"本原街","SECT":"一段","MAREA":" ","LANE":"９７巷","ALLEY":" ","HOUSE_NO":"１２６號","E_COORD97":167846.35000000001,"N_COORD97":2549950.1099999999,"ADDRESS":"本原街一段９７巷１２６號","OBJECTID":277598},"geometry":{"x":167846.35000000056,"y":2549950.1100000013}},{"attributes":{"ID":277604,"DIS_CODE":0,"TOWNNAME":"楠西區","LI":"鹿田里","LIN":"2鄰","STREET":" ","SECT":" ","MAREA":"鹿陶洋","LANE":" ","ALLEY":" ","HOUSE_NO":"２２號","E_COORD97":197165.72,"N_COORD97":2561355.25,"ADDRESS":"鹿陶洋２２號","OBJECTID":277599},"geometry":{"x":197165.72000000067,"y":2561355.2500000019}},{"attributes":{"ID":277605,"DIS_CODE":0,"TOWNNAME":"安南區","LI":"原佃里","LIN":"1鄰","STREET":"本原街","SECT":"一段","MAREA":" ","LANE":"９７巷","ALLEY":" ","HOUSE_NO":"１３４號","E_COORD97":167849.92000000001,"N_COORD97":2549930.8999999999,"ADDRESS":"本原街一段９７巷１３４號","OBJECTID":277600},"geometry":{"x":167849.92000000086,"y":2549930.9000000004}}]}