{"displayFieldName":"TOWNNAME","fieldAliases":{"ID":"ID","DIS_CODE":"DIS_CODE","TOWNNAME":"TOWNNAME","LI":"LI","LIN":"LIN","STREET":"STREET","SECT":"SECT","MAREA":"MAREA","LANE":"LANE","ALLEY":"ALLEY","HOUSE_NO":"HOUSE_NO","E_COORD97":"E_COORD97","N_COORD97":"N_COORD97","ADDRESS":"ADDRESS","OBJECTID":"OBJECTID"},"geometryType":"esriGeometryPoint","spatialReference":{"wkid":102443,"latestWkid":3826},"fields":[{"name":"ID","type":"esriFieldTypeDouble","alias":"ID"},{"name":"DIS_CODE","type":"esriFieldTypeInteger","alias":"DIS_CODE"},{"name":"TOWNNAME","type":"esriFieldTypeString","alias":"TOWNNAME","length":8},{"name":"LI","type":"esriFieldTypeString","alias":"LI","length":8},{"name":"LIN","type":"esriFieldTypeString","alias":"LIN","length":12},{"name":"STREET","type":"esriFieldTypeString","alias":"STREET","length":20},{"name":"SECT","type":"esriFieldTypeString","alias":"SECT","length":8},{"name":"MAREA","type":"esriFieldTypeString","alias":"MAREA","length":12},{"name":"LANE","type":"esriFieldTypeString","alias":"LANE","length":10},{"name":"ALLEY","type":"esriFieldTypeString","alias":"ALLEY","length":10},{"name":"HOUSE_NO","type":"esriFieldTypeString","alias":"HOUSE_NO","length":20},{"name":"E_COORD97","type":"esriFieldTypeDouble","alias":"E_COORD97"},{"name":"N_COORD97","type":"esriFieldTypeDouble","alias":"N_COORD97"},{"name":"ADDRESS","type":"esriFieldTypeString","alias":"ADDRESS","length":50},{"name":"OBJECTID","type":"esriFieldTypeOID","alias":"OBJECTID"}],"features":[{"attributes":{"ID":170202,"DIS_CODE":0,"TOWNNAME":"新營區","LI":"民榮里","LIN":"38鄰","STREET":"太子路","SECT":" ","MAREA":" ","LANE":"５３巷","ALLEY":"６弄","HOUSE_NO":"７之４號","E_COORD97":178323.73000000001,"N_COORD97":2577959.5099999998,"ADDRESS":"太子路５３巷６弄７之４號","OBJECTID":170201},"geometry":{"x":178323.73000000045,"y":2577959.5100000016}},{"attributes":{"ID":170203,"DIS_CODE":0,"TOWNNAME":"後壁區","LI":"長安里","LIN":"13鄰","STREET":" ","SECT":" ","MAREA":"中寮","LANE":" ","ALLEY":" ","HOUSE_NO":"１７５號","E_COORD97":184176.54999999999,"N_COORD97":2581491.77,"ADDRESS":"中寮１７５號","OBJECTID":170202},"geometry":{"x":184176.55000000075,"y":2581491.7699999996}},{"attributes":{"ID":170204,"DIS_CODE":0,"TOWNNAME":"後壁區","LI":"長安里","LIN":"13鄰","STREET":" ","SECT":" ","MAREA":"中寮","LANE":" ","ALLEY":" ","HOUSE_NO":"１７６號之１","E_COORD97":184150.69,"N_COORD97":2581516.02,"ADDRESS":"中寮１７６號之１","OBJECTID":170203},"geometry":{"x":184150.69000000227,"y":2581516.0200000014}},{"attributes":{"ID":170205,"DIS_CODE":0,"TOWNNAME":"後壁區","LI":"長安里","LIN":"13鄰","STREET":" ","SECT":" ","MAREA":"中寮","LANE":" ","ALLEY":" ","HOUSE_NO":"１７６號","E_COORD97":184163.54999999999,"N_COORD97":2581535.1400000001,"ADDRESS":"中寮１７６號","OBJECTID":170204},"geometry":{"x":184163.55000000075,"y":2581535.1400000043}},{"attributes":{"ID":170206,"DIS_CODE":0,"TOWNNAME":"後壁區","LI":"長安里","LIN":"13鄰","STREET":" ","SECT":" ","MAREA":"中寮","LANE":" ","ALLEY":" ","HOUSE_NO":"１７７號之１","E_COORD97":184183.17000000001,"N_COORD97":2581546.8500000001,"ADDRESS":"中寮１７７號之１","OBJECTID":170205},"geometry":{"x":184183.17000000086,"y":2581546.8500000015}},{"attributes":{"ID":170207,"DIS_CODE":0,"TOWNNAME":"新營區","LI":"民榮里","LIN":"38鄰","STREET":"太子路","SECT":" ","MAREA":" ","LANE":"５３巷","ALLEY":"６弄","HOUSE_NO":"１９號","E_COORD97":178277.38,"N_COORD97":2577946.3900000001,"ADDRESS":"太子路５３巷６弄１９號","OBJECTID":170206},"geometry":{"x":178277.38000000082,"y":2577946.3900000043}},{"attributes":{"ID":170208,"DIS_CODE":0,"TOWNNAME":"後壁區","LI":"長安里","LIN":"13鄰","STREET":" ","SECT":" ","MAREA":"中寮","LANE":" ","ALLEY":" ","HOUSE_NO":"１７７號","E_COORD97":184165.56,"N_COORD97":2581549.8300000001,"ADDRESS":"中寮１７７號","OBJECTID":170207},"geometry":{"x":184165.55999999959,"y":2581549.8300000001}},{"attributes":{"ID":170209,"DIS_CODE":0,"TOWNNAME":"新營區","LI":"民榮里","LIN":"39鄰","STREET":"太子路","SECT":" ","MAREA":" ","LANE":"５３巷","ALLEY":"７弄","HOUSE_NO":"１２號","E_COORD97":178324.35999999999,"N_COORD97":2577930.6499999999,"ADDRESS":"太子路５３巷７弄１２號","OBJECTID":170208},"geometry":{"x":178324.36000000034,"y":2577930.6499999985}},{"attributes":{"ID":170210,"DIS_CODE":0,"TOWNNAME":"後壁區","LI":"長安里","LIN":"13鄰","STREET":" ","SECT":" ","MAREA":"中寮","LANE":" ","ALLEY":" ","HOUSE_NO":"１７８號之３","E_COORD97":184144.17999999999,"N_COORD97":2581540.9199999999,"ADDRESS":"中寮１７８號之３","OBJECTID":170209},"geometry":{"x":184144.1799999997,"y":2581540.9200000018}},{"attributes":{"ID":170211,"DIS_CODE":0,"TOWNNAME":"後壁區","LI":"長安里","LIN":"13鄰","STREET":" ","SECT":" ","MAREA":"中寮","LANE":" ","ALLEY":" ","HOUSE_NO":"１７８號","E_COORD97":184148.89000000001,"N_COORD97":2581529.8999999999,"ADDRESS":"中寮１７８號","OBJECTID":170210},"geometry":{"x":184148.8900000006,"y":2581529.9000000041}},{"attributes":{"ID":170212,"DIS_CODE":0,"TOWNNAME":"後壁區","LI":"長安里","LIN":"13鄰","STREET":" ","SECT":" ","MAREA":"中寮","LANE":" ","ALLEY":" ","HOUSE_NO":"１７９號之２","E_COORD97":184142.92000000001,"N_COORD97":2581575.7599999998,"ADDRESS":"中寮１７９號之２","OBJECTID":170211},"geometry":{"x":184142.91999999993,"y":2581575.7600000016}},{"attributes":{"ID":170213,"DIS_CODE":0,"TOWNNAME":"後壁區","LI":"長安里","LIN":"13鄰","STREET":" ","SECT":" ","MAREA":"中寮","LANE":" ","ALLEY":" ","HOUSE_NO":"１７９號之３","E_COORD97":184158.17999999999,"N_COORD97":2581578.1499999999,"ADDRESS":"中寮１７９號之３","OBJECTID":170212},"geometry":{"x":184158.1799999997,"y":2581578.1500000004}},{"attributes":{"ID":170214,"DIS_CODE":0,"TOWNNAME":"後壁區","LI":"長安里","LIN":"13鄰","STREET":" ","SECT":" ","MAREA":"中寮","LANE":" ","ALLEY":" ","HOUSE_NO":"１７９號之４","E_COORD97":184168.60999999999,"N_COORD97":2581581.3199999998,"ADDRESS":"中寮１７９號之４","OBJECTID":170213},"geometry":{"x":184168.61000000127,"y":2581581.3200000022}},{"attributes":{"ID":170215,"DIS_CODE":0,"TOWNNAME":"北區","LI":"永祥里","LIN":"22鄰","STREET":"大武街","SECT":" ","MAREA":" ","LANE":"５９７巷","ALLEY":"５４弄","HOUSE_NO":"１９號","E_COORD97":170307.66,"N_COORD97":2546571.8199999998,"ADDRESS":"大武街５９７巷５４弄１９號","OBJECTID":170214},"geometry":{"x":170307.66000000201,"y":2546571.8199999984}},{"attributes":{"ID":170216,"DIS_CODE":0,"TOWNNAME":"北區","LI":"永祥里","LIN":"22鄰","STREET":"大武街","SECT":" ","MAREA":" ","LANE":"５９７巷","ALLEY":"５４弄","HOUSE_NO":"１號","E_COORD97":170271.64000000001,"N_COORD97":2546597.02,"ADDRESS":"大武街５９７巷５４弄１號","OBJECTID":170215},"geometry":{"x":170271.64000000153,"y":2546597.0200000033}},{"attributes":{"ID":170217,"DIS_CODE":0,"TOWNNAME":"北區","LI":"永祥里","LIN":"22鄰","STREET":"大武街","SECT":" ","MAREA":" ","LANE":"５９７巷","ALLEY":"５４弄","HOUSE_NO":"２１號","E_COORD97":170311.23999999999,"N_COORD97":2546569.3300000001,"ADDRESS":"大武街５９７巷５４弄２１號","OBJECTID":170216},"geometry":{"x":170311.24000000115,"y":2546569.3300000019}},{"attributes":{"ID":170218,"DIS_CODE":0,"TOWNNAME":"北區","LI":"永祥里","LIN":"22鄰","STREET":"大武街","SECT":" ","MAREA":" ","LANE":"５９７巷","ALLEY":"５４弄","HOUSE_NO":"２３號","E_COORD97":170315.14000000001,"N_COORD97":2546567.0299999998,"ADDRESS":"大武街５９７巷５４弄２３號","OBJECTID":170217},"geometry":{"x":170315.13999999966,"y":2546567.0300000012}},{"attributes":{"ID":170219,"DIS_CODE":0,"TOWNNAME":"北區","LI":"永祥里","LIN":"22鄰","STREET":"大武街","SECT":" ","MAREA":" ","LANE":"５９７巷","ALLEY":"５４弄","HOUSE_NO":"２５號","E_COORD97":170318.47,"N_COORD97":2546564.1499999999,"ADDRESS":"大武街５９７巷５４弄２５號","OBJECTID":170218},"geometry":{"x":170318.46999999974,"y":2546564.1500000022}},{"attributes":{"ID":170220,"DIS_CODE":0,"TOWNNAME":"北區","LI":"永祥里","LIN":"15鄰","STREET":"實踐街","SECT":" ","MAREA":" ","LANE":"１０３巷","ALLEY":"２７弄","HOUSE_NO":"２號","E_COORD97":170194.95999999999,"N_COORD97":2546239.6299999999,"ADDRESS":"實踐街１０３巷２７弄２號","OBJECTID":170219},"geometry":{"x":170194.95999999996,"y":2546239.6300000027}},{"attributes":{"ID":170221,"DIS_CODE":0,"TOWNNAME":"北區","LI":"永祥里","LIN":"13鄰","STREET":"實踐街","SECT":" ","MAREA":" ","LANE":"１０３巷","ALLEY":"２１弄","HOUSE_NO":"１０號","E_COORD97":170112.13,"N_COORD97":2546148.9100000001,"ADDRESS":"實踐街１０３巷２１弄１０號","OBJECTID":170220},"geometry":{"x":170112.12999999989,"y":2546148.910000002}},{"attributes":{"ID":170222,"DIS_CODE":0,"TOWNNAME":"新營區","LI":"鐵線里","LIN":"12鄰","STREET":" ","SECT":" ","MAREA":"鐵線橋","LANE":" ","ALLEY":" ","HOUSE_NO":"１３９之４號","E_COORD97":175599.56,"N_COORD97":2573761.29,"ADDRESS":"鐵線橋１３９之４號","OBJECTID":170221},"geometry":{"x":175599.55999999959,"y":2573761.2899999991}},{"attributes":{"ID":170223,"DIS_CODE":0,"TOWNNAME":"新營區","LI":"鐵線里","LIN":"12鄰","STREET":" ","SECT":" ","MAREA":"鐵線橋","LANE":" ","ALLEY":" ","HOUSE_NO":"１４０號","E_COORD97":175620.53,"N_COORD97":2573747.8199999998,"ADDRESS":"鐵線橋１４０號","OBJECTID":170222},"geometry":{"x":175620.53000000026,"y":2573747.8200000003}},{"attributes":{"ID":170224,"DIS_CODE":0,"TOWNNAME":"南區","LI":"新昌里","LIN":"6鄰","STREET":"西門路","SECT":"一段","MAREA":" ","LANE":"５４５巷","ALLEY":"１９弄","HOUSE_NO":"１０號","E_COORD97":167632.57999999999,"N_COORD97":2542652.2400000002,"ADDRESS":"西門路一段５４５巷１９弄１０號","OBJECTID":170223},"geometry":{"x":167632.58000000007,"y":2542652.2400000002}},{"attributes":{"ID":170225,"DIS_CODE":0,"TOWNNAME":"南區","LI":"新昌里","LIN":"6鄰","STREET":"西門路","SECT":"一段","MAREA":" ","LANE":"５４５巷","ALLEY":"１９弄","HOUSE_NO":"１號","E_COORD97":167644.48000000001,"N_COORD97":2542679.5600000001,"ADDRESS":"西門路一段５４５巷１９弄１號","OBJECTID":170224},"geometry":{"x":167644.48000000138,"y":2542679.5600000024}},{"attributes":{"ID":170226,"DIS_CODE":0,"TOWNNAME":"新化區","LI":"全興里","LIN":"12鄰","STREET":" ","SECT":" ","MAREA":"竹子\u25A0","LANE":" ","ALLEY":" ","HOUSE_NO":"２４７號之１１４","E_COORD97":178260.67000000001,"N_COORD97":2546803.2599999998,"ADDRESS":"竹子\u25A0２４７號之１１４","OBJECTID":170225},"geometry":{"x":178260.66999999993,"y":2546803.2600000016}},{"attributes":{"ID":170227,"DIS_CODE":0,"TOWNNAME":"新化區","LI":"全興里","LIN":"12鄰","STREET":" ","SECT":" ","MAREA":"竹子\u25A0","LANE":" ","ALLEY":" ","HOUSE_NO":"２４７號之１２４","E_COORD97":178237.26999999999,"N_COORD97":2546803.2599999998,"ADDRESS":"竹子\u25A0２４７號之１２４","OBJECTID":170226},"geometry":{"x":178237.26999999955,"y":2546803.2600000016}},{"attributes":{"ID":170228,"DIS_CODE":0,"TOWNNAME":"新化區","LI":"全興里","LIN":"12鄰","STREET":" ","SECT":" ","MAREA":"竹子\u25A0","LANE":" ","ALLEY":" ","HOUSE_NO":"２４７號之１０４","E_COORD97":178261.97,"N_COORD97":2546847.2599999998,"ADDRESS":"竹子\u25A0２４７號之１０４","OBJECTID":170227},"geometry":{"x":178261.96999999974,"y":2546847.2600000016}},{"attributes":{"ID":170229,"DIS_CODE":0,"TOWNNAME":"歸仁區","LI":"武東里","LIN":"12鄰","STREET":" ","SECT":" ","MAREA":"明德新村","LANE":" ","ALLEY":" ","HOUSE_NO":"１２８號","E_COORD97":175275.73999999999,"N_COORD97":2536115.27,"ADDRESS":"明德新村１２８號","OBJECTID":170228},"geometry":{"x":175275.74000000209,"y":2536115.2699999996}},{"attributes":{"ID":170230,"DIS_CODE":0,"TOWNNAME":"歸仁區","LI":"武東里","LIN":"12鄰","STREET":" ","SECT":" ","MAREA":"明德新村","LANE":" ","ALLEY":" ","HOUSE_NO":"５號","E_COORD97":175261.23999999999,"N_COORD97":2536179.27,"ADDRESS":"明德新村５號","OBJECTID":170229},"geometry":{"x":175261.24000000115,"y":2536179.2699999996}},{"attributes":{"ID":170231,"DIS_CODE":0,"TOWNNAME":"歸仁區","LI":"武東里","LIN":"12鄰","STREET":" ","SECT":" ","MAREA":"明德新村","LANE":" ","ALLEY":" ","HOUSE_NO":"１０號","E_COORD97":175191.79000000001,"N_COORD97":2536188.2599999998,"ADDRESS":"明德新村１０號","OBJECTID":170230},"geometry":{"x":175191.79000000004,"y":2536188.2600000016}},{"attributes":{"ID":170232,"DIS_CODE":0,"TOWNNAME":"南區","LI":"新昌里","LIN":"6鄰","STREET":"西門路","SECT":"一段","MAREA":" ","LANE":"５４５巷","ALLEY":"１９弄","HOUSE_NO":"２號","E_COORD97":167633.85999999999,"N_COORD97":2542676.02,"ADDRESS":"西門路一段５４５巷１９弄２號","OBJECTID":170231},"geometry":{"x":167633.86000000127,"y":2542676.0199999996}},{"attributes":{"ID":170233,"DIS_CODE":0,"TOWNNAME":"歸仁區","LI":"武東里","LIN":"12鄰","STREET":" ","SECT":" ","MAREA":"明德新村","LANE":" ","ALLEY":" ","HOUSE_NO":"２２８號","E_COORD97":175136.14000000001,"N_COORD97":2536088.2599999998,"ADDRESS":"明德新村２２８號","OBJECTID":170232},"geometry":{"x":175136.13999999966,"y":2536088.2599999998}},{"attributes":{"ID":170234,"DIS_CODE":0,"TOWNNAME":"鹽水區","LI":"汫水里","LIN":"12鄰","STREET":" ","SECT":" ","MAREA":"溪州寮","LANE":" ","ALLEY":" ","HOUSE_NO":"２號之３","E_COORD97":177504.16,"N_COORD97":2581109.6000000001,"ADDRESS":"溪州寮２號之３","OBJECTID":170233},"geometry":{"x":177504.16000000108,"y":2581109.5999999996}},{"attributes":{"ID":170235,"DIS_CODE":0,"TOWNNAME":"後壁區","LI":"長安里","LIN":"13鄰","STREET":" ","SECT":" ","MAREA":"中寮","LANE":" ","ALLEY":" ","HOUSE_NO":"１８０號之１","E_COORD97":184216.20000000001,"N_COORD97":2581575.0299999998,"ADDRESS":"中寮１８０號之１","OBJECTID":170234},"geometry":{"x":184216.20000000019,"y":2581575.0299999975}},{"attributes":{"ID":170236,"DIS_CODE":0,"TOWNNAME":"後壁區","LI":"長安里","LIN":"13鄰","STREET":" ","SECT":" ","MAREA":"中寮","LANE":" ","ALLEY":" ","HOUSE_NO":"１８０號之３","E_COORD97":184206.56,"N_COORD97":2581560.5499999998,"ADDRESS":"中寮１８０號之３","OBJECTID":170235},"geometry":{"x":184206.56000000145,"y":2581560.5500000026}},{"attributes":{"ID":170237,"DIS_CODE":0,"TOWNNAME":"南區","LI":"新昌里","LIN":"6鄰","STREET":"西門路","SECT":"一段","MAREA":" ","LANE":"５４５巷","ALLEY":"１９弄","HOUSE_NO":"３號","E_COORD97":167644.79999999999,"N_COORD97":2542671.8399999999,"ADDRESS":"西門路一段５４５巷１９弄３號","OBJECTID":170236},"geometry":{"x":167644.79999999888,"y":2542671.8399999999}},{"attributes":{"ID":170238,"DIS_CODE":0,"TOWNNAME":"南區","LI":"新昌里","LIN":"6鄰","STREET":"西門路","SECT":"一段","MAREA":" ","LANE":"５４５巷","ALLEY":"１９弄","HOUSE_NO":"４號","E_COORD97":167632.89999999999,"N_COORD97":2542670.5600000001,"ADDRESS":"西門路一段５４５巷１９弄４號","OBJECTID":170237},"geometry":{"x":167632.90000000224,"y":2542670.5600000005}},{"attributes":{"ID":170239,"DIS_CODE":0,"TOWNNAME":"南區","LI":"新昌里","LIN":"6鄰","STREET":"西門路","SECT":"一段","MAREA":" ","LANE":"５４５巷","ALLEY":"１９弄","HOUSE_NO":"５號","E_COORD97":167650.26999999999,"N_COORD97":2542663.4900000002,"ADDRESS":"西門路一段５４５巷１９弄５號","OBJECTID":170238},"geometry":{"x":167650.27000000048,"y":2542663.4900000002}},{"attributes":{"ID":170240,"DIS_CODE":0,"TOWNNAME":"南區","LI":"新昌里","LIN":"6鄰","STREET":"西門路","SECT":"一段","MAREA":" ","LANE":"５４５巷","ALLEY":"１９弄","HOUSE_NO":"６號","E_COORD97":167631.60999999999,"N_COORD97":2542664.7799999998,"ADDRESS":"西門路一段５４５巷１９弄６號","OBJECTID":170239},"geometry":{"x":167631.61000000127,"y":2542664.7799999993}},{"attributes":{"ID":170241,"DIS_CODE":0,"TOWNNAME":"南區","LI":"新昌里","LIN":"6鄰","STREET":"西門路","SECT":"一段","MAREA":" ","LANE":"５４５巷","ALLEY":"１９弄","HOUSE_NO":"７號","E_COORD97":167650.26999999999,"N_COORD97":2542658.3500000001,"ADDRESS":"西門路一段５４５巷１９弄７號","OBJECTID":170240},"geometry":{"x":167650.27000000048,"y":2542658.3499999978}},{"attributes":{"ID":170242,"DIS_CODE":0,"TOWNNAME":"學甲區","LI":"三慶里","LIN":"16鄰","STREET":" ","SECT":" ","MAREA":"紅茄","LANE":" ","ALLEY":" ","HOUSE_NO":"２２號","E_COORD97":167568.37,"N_COORD97":2575781.75,"ADDRESS":"紅茄２２號","OBJECTID":170241},"geometry":{"x":167568.37000000197,"y":2575781.7500000019}},{"attributes":{"ID":170243,"DIS_CODE":0,"TOWNNAME":"南區","LI":"新昌里","LIN":"12鄰","STREET":"南寧街","SECT":" ","MAREA":" ","LANE":" ","ALLEY":" ","HOUSE_NO":"１７０號","E_COORD97":167685.97,"N_COORD97":2542870.9300000002,"ADDRESS":"南寧街１７０號","OBJECTID":170242},"geometry":{"x":167685.9700000016,"y":2542870.9299999997}},{"attributes":{"ID":170244,"DIS_CODE":0,"TOWNNAME":"南區","LI":"新昌里","LIN":"6鄰","STREET":"西門路","SECT":"一段","MAREA":" ","LANE":"５４５巷","ALLEY":"１９弄","HOUSE_NO":"８號","E_COORD97":167631.92999999999,"N_COORD97":2542658.3500000001,"ADDRESS":"西門路一段５４５巷１９弄８號","OBJECTID":170243},"geometry":{"x":167631.92999999877,"y":2542658.3499999978}},{"attributes":{"ID":170245,"DIS_CODE":0,"TOWNNAME":"南區","LI":"新昌里","LIN":"12鄰","STREET":"南寧街","SECT":" ","MAREA":" ","LANE":" ","ALLEY":" ","HOUSE_NO":"１７２號","E_COORD97":167681.47,"N_COORD97":2542870.6099999999,"ADDRESS":"南寧街１７２號","OBJECTID":170244},"geometry":{"x":167681.47000000067,"y":2542870.6100000013}},{"attributes":{"ID":170246,"DIS_CODE":0,"TOWNNAME":"南區","LI":"新昌里","LIN":"12鄰","STREET":"南寧街","SECT":" ","MAREA":" ","LANE":" ","ALLEY":" ","HOUSE_NO":"１７４號","E_COORD97":167676.64000000001,"N_COORD97":2542870.9300000002,"ADDRESS":"南寧街１７４號","OBJECTID":170245},"geometry":{"x":167676.6400000006,"y":2542870.9299999997}},{"attributes":{"ID":170247,"DIS_CODE":0,"TOWNNAME":"南區","LI":"新昌里","LIN":"12鄰","STREET":"南寧街","SECT":" ","MAREA":" ","LANE":" ","ALLEY":" ","HOUSE_NO":"１７８號","E_COORD97":167670.20999999999,"N_COORD97":2542870.6099999999,"ADDRESS":"南寧街１７８號","OBJECTID":170246},"geometry":{"x":167670.21000000089,"y":2542870.6100000013}},{"attributes":{"ID":170248,"DIS_CODE":0,"TOWNNAME":"南區","LI":"新昌里","LIN":"12鄰","STREET":"南寧街","SECT":" ","MAREA":" ","LANE":" ","ALLEY":" ","HOUSE_NO":"１８２號","E_COORD97":167662.17000000001,"N_COORD97":2542869.9700000002,"ADDRESS":"南寧街１８２號","OBJECTID":170247},"geometry":{"x":167662.16999999993,"y":2542869.9700000025}},{"attributes":{"ID":170249,"DIS_CODE":0,"TOWNNAME":"南區","LI":"新興里","LIN":"6鄰","STREET":"西門路","SECT":"一段","MAREA":" ","LANE":"４４１巷","ALLEY":"９弄","HOUSE_NO":"２２號","E_COORD97":167672.42999999999,"N_COORD97":2542343.2799999998,"ADDRESS":"西門路一段４４１巷９弄２２號","OBJECTID":170248},"geometry":{"x":167672.4299999997,"y":2542343.2800000031}},{"attributes":{"ID":170250,"DIS_CODE":0,"TOWNNAME":"南區","LI":"興農里","LIN":"14鄰","STREET":"明興路","SECT":" ","MAREA":" ","LANE":"１０５５巷","ALLEY":"１７弄","HOUSE_NO":"２８號","E_COORD97":166318.92999999999,"N_COORD97":2536897.8999999999,"ADDRESS":"明興路１０５５巷１７弄２８號","OBJECTID":170249},"geometry":{"x":166318.93000000063,"y":2536897.9000000004}},{"attributes":{"ID":170251,"DIS_CODE":0,"TOWNNAME":"安平區","LI":"華平里","LIN":"26鄰","STREET":"健康二街","SECT":" ","MAREA":" ","LANE":"４１９巷","ALLEY":"１３弄","HOUSE_NO":"１號","E_COORD97":165269.54000000001,"N_COORD97":2543687.2599999998,"ADDRESS":"健康二街４１９巷１３弄１號","OBJECTID":170250},"geometry":{"x":165269.54000000004,"y":2543687.2600000016}},{"attributes":{"ID":170252,"DIS_CODE":0,"TOWNNAME":"南區","LI":"竹溪里","LIN":"12鄰","STREET":"體育路","SECT":" ","MAREA":" ","LANE":" ","ALLEY":" ","HOUSE_NO":"９０號","E_COORD97":168690.78,"N_COORD97":2541957.1800000002,"ADDRESS":"體育路９０號","OBJECTID":170251},"geometry":{"x":168690.78000000026,"y":2541957.1799999997}},{"attributes":{"ID":170253,"DIS_CODE":0,"TOWNNAME":"南區","LI":"再興里","LIN":"12鄰","STREET":"三官路","SECT":" ","MAREA":" ","LANE":" ","ALLEY":" ","HOUSE_NO":"２２４號","E_COORD97":167119.89999999999,"N_COORD97":2541984.8599999999,"ADDRESS":"三官路２２４號","OBJECTID":170252},"geometry":{"x":167119.9000000013,"y":2541984.8600000013}},{"attributes":{"ID":170254,"DIS_CODE":0,"TOWNNAME":"南區","LI":"竹溪里","LIN":"12鄰","STREET":"體育路","SECT":" ","MAREA":" ","LANE":" ","ALLEY":" ","HOUSE_NO":"８７號之１","E_COORD97":168927.67000000001,"N_COORD97":2541990.8999999999,"ADDRESS":"體育路８７號之１","OBJECTID":170253},"geometry":{"x":168927.67000000086,"y":2541990.8999999985}},{"attributes":{"ID":170255,"DIS_CODE":0,"TOWNNAME":"永康區","LI":"南灣里","LIN":"25鄰","STREET":"立興街","SECT":" ","MAREA":" ","LANE":" ","ALLEY":" ","HOUSE_NO":"８８號","E_COORD97":174539.98000000001,"N_COORD97":2544777.79,"ADDRESS":"立興街８８號","OBJECTID":170254},"geometry":{"x":174539.98000000045,"y":2544777.790000001}},{"attributes":{"ID":170256,"DIS_CODE":0,"TOWNNAME":"安平區","LI":"華平里","LIN":"26鄰","STREET":"健康二街","SECT":" ","MAREA":" ","LANE":"４１９巷","ALLEY":"１３弄","HOUSE_NO":"２號","E_COORD97":165257.23999999999,"N_COORD97":2543692.6299999999,"ADDRESS":"健康二街４１９巷１３弄２號","OBJECTID":170255},"geometry":{"x":165257.24000000209,"y":2543692.629999999}},{"attributes":{"ID":170257,"DIS_CODE":0,"TOWNNAME":"安平區","LI":"華平里","LIN":"26鄰","STREET":"健康二街","SECT":" ","MAREA":" ","LANE":"４１９巷","ALLEY":"１３弄","HOUSE_NO":"３號","E_COORD97":165270.89000000001,"N_COORD97":2543691.1699999999,"ADDRESS":"健康二街４１９巷１３弄３號","OBJECTID":170256},"geometry":{"x":165270.89000000153,"y":2543691.1700000018}},{"attributes":{"ID":170258,"DIS_CODE":0,"TOWNNAME":"安平區","LI":"華平里","LIN":"26鄰","STREET":"健康二街","SECT":" ","MAREA":" ","LANE":"４１９巷","ALLEY":"１３弄","HOUSE_NO":"４號","E_COORD97":165256.89999999999,"N_COORD97":2543688.27,"ADDRESS":"健康二街４１９巷１３弄４號","OBJECTID":170257},"geometry":{"x":165256.9000000013,"y":2543688.2699999996}},{"attributes":{"ID":170259,"DIS_CODE":0,"TOWNNAME":"安平區","LI":"文平里","LIN":"3鄰","STREET":"中華西路","SECT":"二段","MAREA":" ","LANE":"４９巷","ALLEY":"２４弄","HOUSE_NO":"１１號","E_COORD97":166533.98000000001,"N_COORD97":2543063.77,"ADDRESS":"中華西路二段４９巷２４弄１１號","OBJECTID":170258},"geometry":{"x":166533.98000000231,"y":2543063.7700000014}},{"attributes":{"ID":170260,"DIS_CODE":0,"TOWNNAME":"安平區","LI":"文平里","LIN":"3鄰","STREET":"中華西路","SECT":"二段","MAREA":" ","LANE":"４９巷","ALLEY":"２４弄","HOUSE_NO":"１３號","E_COORD97":166534.23999999999,"N_COORD97":2543068.3999999999,"ADDRESS":"中華西路二段４９巷２４弄１３號","OBJECTID":170259},"geometry":{"x":166534.24000000115,"y":2543068.4000000004}},{"attributes":{"ID":170261,"DIS_CODE":0,"TOWNNAME":"歸仁區","LI":"崙頂里","LIN":"12鄰","STREET":"凱旋路","SECT":"一段","MAREA":" ","LANE":" ","ALLEY":" ","HOUSE_NO":"５７２號","E_COORD97":177838.902932,"N_COORD97":2539556.9210899998,"ADDRESS":"凱旋路一段５７２號","OBJECTID":170260},"geometry":{"x":177838.90293200035,"y":2539556.9210910015}},{"attributes":{"ID":170262,"DIS_CODE":0,"TOWNNAME":"歸仁區","LI":"崙頂里","LIN":"12鄰","STREET":"凱旋路","SECT":"一段","MAREA":" ","LANE":"６０１巷","ALLEY":" ","HOUSE_NO":"２６９號","E_COORD97":177799.13,"N_COORD97":2539021.4500000002,"ADDRESS":"凱旋路一段６０１巷２６９號","OBJECTID":170261},"geometry":{"x":177799.13000000082,"y":2539021.4499999993}},{"attributes":{"ID":170263,"DIS_CODE":0,"TOWNNAME":"南區","LI":"田寮里","LIN":"12鄰","STREET":"新興路","SECT":" ","MAREA":" ","LANE":"４１巷","ALLEY":" ","HOUSE_NO":"５號","E_COORD97":167673.07000000001,"N_COORD97":2542204.8300000001,"ADDRESS":"新興路４１巷５號","OBJECTID":170262},"geometry":{"x":167673.07000000123,"y":2542204.8300000038}},{"attributes":{"ID":170264,"DIS_CODE":0,"TOWNNAME":"南區","LI":"田寮里","LIN":"12鄰","STREET":"新興路","SECT":" ","MAREA":" ","LANE":"４１巷","ALLEY":" ","HOUSE_NO":"７號","E_COORD97":167672.92999999999,"N_COORD97":2542198.7799999998,"ADDRESS":"新興路４１巷７號","OBJECTID":170263},"geometry":{"x":167672.93000000063,"y":2542198.7800000012}},{"attributes":{"ID":170265,"DIS_CODE":0,"TOWNNAME":"南區","LI":"開南里","LIN":"17鄰","STREET":"新建路","SECT":" ","MAREA":" ","LANE":"２６巷","ALLEY":" ","HOUSE_NO":"１１號","E_COORD97":166400.31,"N_COORD97":2541069.79,"ADDRESS":"新建路２６巷１１號","OBJECTID":170264},"geometry":{"x":166400.31000000145,"y":2541069.790000001}},{"attributes":{"ID":170266,"DIS_CODE":0,"TOWNNAME":"南區","LI":"開南里","LIN":"17鄰","STREET":"新建路","SECT":" ","MAREA":" ","LANE":"２６巷","ALLEY":" ","HOUSE_NO":"１號","E_COORD97":166440.79000000001,"N_COORD97":2541069.1600000001,"ADDRESS":"新建路２６巷１號","OBJECTID":170265},"geometry":{"x":166440.79000000004,"y":2541069.1600000001}},{"attributes":{"ID":170267,"DIS_CODE":0,"TOWNNAME":"後壁區","LI":"長安里","LIN":"13鄰","STREET":" ","SECT":" ","MAREA":"中寮","LANE":" ","ALLEY":" ","HOUSE_NO":"１８１號之１","E_COORD97":184123.51000000001,"N_COORD97":2581535.1800000002,"ADDRESS":"中寮１８１號之１","OBJECTID":170266},"geometry":{"x":184123.50999999978,"y":2581535.1800000016}},{"attributes":{"ID":170268,"DIS_CODE":0,"TOWNNAME":"後壁區","LI":"長安里","LIN":"13鄰","STREET":" ","SECT":" ","MAREA":"中寮","LANE":" ","ALLEY":" ","HOUSE_NO":"１８１號之２","E_COORD97":184109.56,"N_COORD97":2581559.5600000001,"ADDRESS":"中寮１８１號之２","OBJECTID":170267},"geometry":{"x":184109.55999999959,"y":2581559.5600000024}},{"attributes":{"ID":170269,"DIS_CODE":0,"TOWNNAME":"後壁區","LI":"長安里","LIN":"13鄰","STREET":" ","SECT":" ","MAREA":"中寮","LANE":" ","ALLEY":" ","HOUSE_NO":"１８１號","E_COORD97":184103.66,"N_COORD97":2581556.4199999999,"ADDRESS":"中寮１８１號","OBJECTID":170268},"geometry":{"x":184103.66000000108,"y":2581556.4200000037}},{"attributes":{"ID":170270,"DIS_CODE":0,"TOWNNAME":"後壁區","LI":"長安里","LIN":"13鄰","STREET":" ","SECT":" ","MAREA":"中寮","LANE":" ","ALLEY":" ","HOUSE_NO":"１８３號之１３","E_COORD97":184112.22,"N_COORD97":2581469.2599999998,"ADDRESS":"中寮１８３號之１３","OBJECTID":170269},"geometry":{"x":184112.21999999974,"y":2581469.2600000016}},{"attributes":{"ID":170271,"DIS_CODE":0,"TOWNNAME":"後壁區","LI":"長安里","LIN":"13鄰","STREET":" ","SECT":" ","MAREA":"中寮","LANE":" ","ALLEY":" ","HOUSE_NO":"１８３號之１４","E_COORD97":184108.01000000001,"N_COORD97":2581469.4100000001,"ADDRESS":"中寮１８３號之１４","OBJECTID":170270},"geometry":{"x":184108.00999999978,"y":2581469.410000002}},{"attributes":{"ID":170272,"DIS_CODE":0,"TOWNNAME":"後壁區","LI":"長安里","LIN":"13鄰","STREET":" ","SECT":" ","MAREA":"中寮","LANE":" ","ALLEY":" ","HOUSE_NO":"１８３號之１６","E_COORD97":184100.37,"N_COORD97":2581469.6899999999,"ADDRESS":"中寮１８３號之１６","OBJECTID":170271},"geometry":{"x":184100.37000000104,"y":2581469.6900000013}},{"attributes":{"ID":170273,"DIS_CODE":0,"TOWNNAME":"後壁區","LI":"長安里","LIN":"13鄰","STREET":" ","SECT":" ","MAREA":"中寮","LANE":" ","ALLEY":" ","HOUSE_NO":"１８３號之１８","E_COORD97":184092.37,"N_COORD97":2581469.7000000002,"ADDRESS":"中寮１８３號之１８","OBJECTID":170272},"geometry":{"x":184092.37000000011,"y":2581469.7000000011}},{"attributes":{"ID":170274,"DIS_CODE":0,"TOWNNAME":"安平區","LI":"文平里","LIN":"3鄰","STREET":"中華西路","SECT":"二段","MAREA":" ","LANE":"４９巷","ALLEY":"２４弄","HOUSE_NO":"１５號","E_COORD97":166534.57999999999,"N_COORD97":2543073.3700000001,"ADDRESS":"中華西路二段４９巷２４弄１５號","OBJECTID":170273},"geometry":{"x":166534.58000000194,"y":2543073.3699999992}},{"attributes":{"ID":170275,"DIS_CODE":0,"TOWNNAME":"安平區","LI":"文平里","LIN":"3鄰","STREET":"中華西路","SECT":"二段","MAREA":" ","LANE":"４９巷","ALLEY":"２４弄","HOUSE_NO":"１７號","E_COORD97":166535.31,"N_COORD97":2543087.2200000002,"ADDRESS":"中華西路二段４９巷２４弄１７號","OBJECTID":170274},"geometry":{"x":166535.30999999959,"y":2543087.2200000007}},{"attributes":{"ID":170276,"DIS_CODE":0,"TOWNNAME":"南區","LI":"日新里","LIN":"12鄰","STREET":"新興路","SECT":" ","MAREA":" ","LANE":" ","ALLEY":" ","HOUSE_NO":"４８３號","E_COORD97":166800.14000000001,"N_COORD97":2541730.6200000001,"ADDRESS":"新興路４８３號","OBJECTID":170275},"geometry":{"x":166800.1400000006,"y":2541730.6200000029}},{"attributes":{"ID":170277,"DIS_CODE":0,"TOWNNAME":"南區","LI":"日新里","LIN":"12鄰","STREET":"新興路","SECT":" ","MAREA":" ","LANE":" ","ALLEY":" ","HOUSE_NO":"４８５號","E_COORD97":166795.94,"N_COORD97":2541729.3900000001,"ADDRESS":"新興路４８５號","OBJECTID":170276},"geometry":{"x":166795.94000000134,"y":2541729.3900000006}},{"attributes":{"ID":170278,"DIS_CODE":0,"TOWNNAME":"安平區","LI":"文平里","LIN":"3鄰","STREET":"中華西路","SECT":"二段","MAREA":" ","LANE":"４９巷","ALLEY":"２４弄","HOUSE_NO":"２１號","E_COORD97":166536.76999999999,"N_COORD97":2543097.3300000001,"ADDRESS":"中華西路二段４９巷２４弄２１號","OBJECTID":170277},"geometry":{"x":166536.77000000048,"y":2543097.3300000019}},{"attributes":{"ID":170279,"DIS_CODE":0,"TOWNNAME":"鹽水區","LI":"汫水里","LIN":"12鄰","STREET":" ","SECT":" ","MAREA":"溪州寮","LANE":" ","ALLEY":" ","HOUSE_NO":"２號之５","E_COORD97":177701.70000000001,"N_COORD97":2581310.2200000002,"ADDRESS":"溪州寮２號之５","OBJECTID":170278},"geometry":{"x":177701.69999999925,"y":2581310.2200000007}},{"attributes":{"ID":170280,"DIS_CODE":0,"TOWNNAME":"後壁區","LI":"長安里","LIN":"13鄰","STREET":" ","SECT":" ","MAREA":"中寮","LANE":" ","ALLEY":" ","HOUSE_NO":"１８３號之１９","E_COORD97":184088.32000000001,"N_COORD97":2581469.4300000002,"ADDRESS":"中寮１８３號之１９","OBJECTID":170279},"geometry":{"x":184088.3200000003,"y":2581469.4300000016}},{"attributes":{"ID":170281,"DIS_CODE":0,"TOWNNAME":"後壁區","LI":"長安里","LIN":"13鄰","STREET":" ","SECT":" ","MAREA":"中寮","LANE":" ","ALLEY":" ","HOUSE_NO":"１８３號之１","E_COORD97":184129.64999999999,"N_COORD97":2581494.04,"ADDRESS":"中寮１８３號之１","OBJECTID":170280},"geometry":{"x":184129.6500000013,"y":2581494.040000001}},{"attributes":{"ID":170282,"DIS_CODE":0,"TOWNNAME":"後壁區","LI":"長安里","LIN":"13鄰","STREET":" ","SECT":" ","MAREA":"中寮","LANE":" ","ALLEY":" ","HOUSE_NO":"１８３號之２０","E_COORD97":184084.76999999999,"N_COORD97":2581469.5699999998,"ADDRESS":"中寮１８３號之２０","OBJECTID":170281},"geometry":{"x":184084.77000000142,"y":2581469.5700000003}},{"attributes":{"ID":170283,"DIS_CODE":0,"TOWNNAME":"後壁區","LI":"長安里","LIN":"13鄰","STREET":" ","SECT":" ","MAREA":"中寮","LANE":" ","ALLEY":" ","HOUSE_NO":"１８３號之２１","E_COORD97":184080.82000000001,"N_COORD97":2581469.8100000001,"ADDRESS":"中寮１８３號之２１","OBJECTID":170282},"geometry":{"x":184080.82000000123,"y":2581469.8100000024}},{"attributes":{"ID":170284,"DIS_CODE":0,"TOWNNAME":"後壁區","LI":"長安里","LIN":"13鄰","STREET":" ","SECT":" ","MAREA":"中寮","LANE":" ","ALLEY":" ","HOUSE_NO":"１８３號之２２","E_COORD97":184076.67999999999,"N_COORD97":2581469.5800000001,"ADDRESS":"中寮１８３號之２２","OBJECTID":170283},"geometry":{"x":184076.6799999997,"y":2581469.5800000001}},{"attributes":{"ID":170285,"DIS_CODE":0,"TOWNNAME":"後壁區","LI":"長安里","LIN":"13鄰","STREET":" ","SECT":" ","MAREA":"中寮","LANE":" ","ALLEY":" ","HOUSE_NO":"１８３號之２３","E_COORD97":184079.19,"N_COORD97":2581483.8900000001,"ADDRESS":"中寮１８３號之２３","OBJECTID":170284},"geometry":{"x":184079.19000000041,"y":2581483.8900000025}},{"attributes":{"ID":170286,"DIS_CODE":0,"TOWNNAME":"後壁區","LI":"長安里","LIN":"13鄰","STREET":" ","SECT":" ","MAREA":"中寮","LANE":" ","ALLEY":" ","HOUSE_NO":"１８３號之２４","E_COORD97":184079.09,"N_COORD97":2581487.4100000001,"ADDRESS":"中寮１８３號之２４","OBJECTID":170285},"geometry":{"x":184079.08999999985,"y":2581487.4100000001}},{"attributes":{"ID":170287,"DIS_CODE":0,"TOWNNAME":"後壁區","LI":"長安里","LIN":"13鄰","STREET":" ","SECT":" ","MAREA":"中寮","LANE":" ","ALLEY":" ","HOUSE_NO":"１８３號之２５","E_COORD97":184078.92999999999,"N_COORD97":2581491.6400000001,"ADDRESS":"中寮１８３號之２５","OBJECTID":170286},"geometry":{"x":184078.93000000063,"y":2581491.6400000025}},{"attributes":{"ID":170288,"DIS_CODE":0,"TOWNNAME":"後壁區","LI":"長安里","LIN":"13鄰","STREET":" ","SECT":" ","MAREA":"中寮","LANE":" ","ALLEY":" ","HOUSE_NO":"１８３號之２６","E_COORD97":184079.09,"N_COORD97":2581495.8599999999,"ADDRESS":"中寮１８３號之２６","OBJECTID":170287},"geometry":{"x":184079.08999999985,"y":2581495.8600000013}},{"attributes":{"ID":170289,"DIS_CODE":0,"TOWNNAME":"後壁區","LI":"長安里","LIN":"13鄰","STREET":" ","SECT":" ","MAREA":"中寮","LANE":" ","ALLEY":" ","HOUSE_NO":"１８３號之２","E_COORD97":184131.26000000001,"N_COORD97":2581489.1099999999,"ADDRESS":"中寮１８３號之２","OBJECTID":170288},"geometry":{"x":184131.26000000071,"y":2581489.1099999994}},{"attributes":{"ID":170290,"DIS_CODE":0,"TOWNNAME":"後壁區","LI":"長安里","LIN":"13鄰","STREET":" ","SECT":" ","MAREA":"中寮","LANE":" ","ALLEY":" ","HOUSE_NO":"１８３號之３","E_COORD97":184132.17999999999,"N_COORD97":2581485.3100000001,"ADDRESS":"中寮１８３號之３","OBJECTID":170289},"geometry":{"x":184132.1799999997,"y":2581485.3100000005}},{"attributes":{"ID":170291,"DIS_CODE":0,"TOWNNAME":"後壁區","LI":"長安里","LIN":"13鄰","STREET":" ","SECT":" ","MAREA":"中寮","LANE":" ","ALLEY":" ","HOUSE_NO":"１８３號之５","E_COORD97":184134.78,"N_COORD97":2581476.96,"ADDRESS":"中寮１８３號之５","OBJECTID":170290},"geometry":{"x":184134.78000000119,"y":2581476.9600000028}},{"attributes":{"ID":170292,"DIS_CODE":0,"TOWNNAME":"後壁區","LI":"長安里","LIN":"13鄰","STREET":" ","SECT":" ","MAREA":"中寮","LANE":" ","ALLEY":" ","HOUSE_NO":"１８３號之６","E_COORD97":184136.25,"N_COORD97":2581472.8399999999,"ADDRESS":"中寮１８３號之６","OBJECTID":170291},"geometry":{"x":184136.25000000186,"y":2581472.8400000017}},{"attributes":{"ID":170293,"DIS_CODE":0,"TOWNNAME":"後壁區","LI":"長安里","LIN":"13鄰","STREET":" ","SECT":" ","MAREA":"中寮","LANE":" ","ALLEY":" ","HOUSE_NO":"１９３號","E_COORD97":184106.92999999999,"N_COORD97":2581451.1699999999,"ADDRESS":"中寮１９３號","OBJECTID":170292},"geometry":{"x":184106.9299999997,"y":2581451.1699999999}},{"attributes":{"ID":170294,"DIS_CODE":0,"TOWNNAME":"後壁區","LI":"長安里","LIN":"13鄰","STREET":" ","SECT":" ","MAREA":"中寮","LANE":" ","ALLEY":" ","HOUSE_NO":"１９４號","E_COORD97":184102.47,"N_COORD97":2581451.3100000001,"ADDRESS":"中寮１９４號","OBJECTID":170293},"geometry":{"x":184102.47000000067,"y":2581451.3100000005}},{"attributes":{"ID":170295,"DIS_CODE":0,"TOWNNAME":"後壁區","LI":"長安里","LIN":"13鄰","STREET":" ","SECT":" ","MAREA":"中寮","LANE":" ","ALLEY":" ","HOUSE_NO":"１９７號","E_COORD97":184089.60999999999,"N_COORD97":2581451.75,"ADDRESS":"中寮１９７號","OBJECTID":170294},"geometry":{"x":184089.61000000034,"y":2581451.75}},{"attributes":{"ID":170296,"DIS_CODE":0,"TOWNNAME":"後壁區","LI":"長安里","LIN":"13鄰","STREET":" ","SECT":" ","MAREA":"中寮","LANE":" ","ALLEY":" ","HOUSE_NO":"１９８號","E_COORD97":184085.75,"N_COORD97":2581451.79,"ADDRESS":"中寮１９８號","OBJECTID":170295},"geometry":{"x":184085.75000000093,"y":2581451.790000001}},{"attributes":{"ID":170297,"DIS_CODE":0,"TOWNNAME":"後壁區","LI":"長安里","LIN":"13鄰","STREET":" ","SECT":" ","MAREA":"中寮","LANE":" ","ALLEY":" ","HOUSE_NO":"２００號","E_COORD97":184077.67999999999,"N_COORD97":2581451.6800000002,"ADDRESS":"中寮２００號","OBJECTID":170296},"geometry":{"x":184077.68000000063,"y":2581451.6799999997}},{"attributes":{"ID":170298,"DIS_CODE":0,"TOWNNAME":"歸仁區","LI":"歸南里","LIN":"20鄰","STREET":"民生八街","SECT":" ","MAREA":" ","LANE":"２８巷","ALLEY":"１弄","HOUSE_NO":"２０號","E_COORD97":176074.14000000001,"N_COORD97":2540392.29,"ADDRESS":"民生八街２８巷１弄２０號","OBJECTID":170297},"geometry":{"x":176074.13999999966,"y":2540392.2899999991}},{"attributes":{"ID":170299,"DIS_CODE":0,"TOWNNAME":"後壁區","LI":"長安里","LIN":"13鄰","STREET":" ","SECT":" ","MAREA":"中寮","LANE":" ","ALLEY":" ","HOUSE_NO":"２０１號","E_COORD97":184073.64000000001,"N_COORD97":2581451.75,"ADDRESS":"中寮２０１號","OBJECTID":170298},"geometry":{"x":184073.63999999966,"y":2581451.75}},{"attributes":{"ID":170300,"DIS_CODE":0,"TOWNNAME":"後壁區","LI":"長安里","LIN":"13鄰","STREET":" ","SECT":" ","MAREA":"中寮","LANE":" ","ALLEY":" ","HOUSE_NO":"２０２號","E_COORD97":184068.70000000001,"N_COORD97":2581451.5800000001,"ADDRESS":"中寮２０２號","OBJECTID":170299},"geometry":{"x":184068.70000000019,"y":2581451.5800000019}},{"attributes":{"ID":170301,"DIS_CODE":0,"TOWNNAME":"安平區","LI":"文平里","LIN":"3鄰","STREET":"中華西路","SECT":"二段","MAREA":" ","LANE":"４９巷","ALLEY":"２４弄","HOUSE_NO":"２３號","E_COORD97":166537.45000000001,"N_COORD97":2543101.3599999999,"ADDRESS":"中華西路二段４９巷２４弄２３號","OBJECTID":170300},"geometry":{"x":166537.45000000112,"y":2543101.3599999994}},{"attributes":{"ID":170302,"DIS_CODE":0,"TOWNNAME":"安平區","LI":"建平里","LIN":"24鄰","STREET":"建平九街","SECT":" ","MAREA":" ","LANE":"６０巷","ALLEY":"３１弄","HOUSE_NO":"１０號","E_COORD97":166004.32999999999,"N_COORD97":2543636.54,"ADDRESS":"建平九街６０巷３１弄１０號","OBJECTID":170301},"geometry":{"x":166004.33000000101,"y":2543636.5400000028}},{"attributes":{"ID":170303,"DIS_CODE":0,"TOWNNAME":"安平區","LI":"建平里","LIN":"24鄰","STREET":"建平九街","SECT":" ","MAREA":" ","LANE":"６０巷","ALLEY":"３１弄","HOUSE_NO":"１１號","E_COORD97":165998.42000000001,"N_COORD97":2543617.0800000001,"ADDRESS":"建平九街６０巷３１弄１１號","OBJECTID":170302},"geometry":{"x":165998.42000000086,"y":2543617.0800000038}},{"attributes":{"ID":170304,"DIS_CODE":0,"TOWNNAME":"後壁區","LI":"長安里","LIN":"13鄰","STREET":" ","SECT":" ","MAREA":"中寮","LANE":" ","ALLEY":" ","HOUSE_NO":"２０３號","E_COORD97":184127.48999999999,"N_COORD97":2581434.1699999999,"ADDRESS":"中寮２０３號","OBJECTID":170303},"geometry":{"x":184127.49000000022,"y":2581434.1699999999}},{"attributes":{"ID":170305,"DIS_CODE":0,"TOWNNAME":"後壁區","LI":"長安里","LIN":"13鄰","STREET":" ","SECT":" ","MAREA":"中寮","LANE":" ","ALLEY":" ","HOUSE_NO":"２５３號","E_COORD97":184057.87,"N_COORD97":2581391.9300000002,"ADDRESS":"中寮２５３號","OBJECTID":170304},"geometry":{"x":184057.87000000104,"y":2581391.9299999997}},{"attributes":{"ID":170306,"DIS_CODE":0,"TOWNNAME":"後壁區","LI":"長安里","LIN":"13鄰","STREET":" ","SECT":" ","MAREA":"中寮","LANE":" ","ALLEY":" ","HOUSE_NO":"２０９號","E_COORD97":184125.95000000001,"N_COORD97":2581410.3300000001,"ADDRESS":"中寮２０９號","OBJECTID":170305},"geometry":{"x":184125.95000000019,"y":2581410.3300000001}},{"attributes":{"ID":170307,"DIS_CODE":0,"TOWNNAME":"安平區","LI":"建平里","LIN":"24鄰","STREET":"建平九街","SECT":" ","MAREA":" ","LANE":"６０巷","ALLEY":"３１弄","HOUSE_NO":"１２號","E_COORD97":165999.85999999999,"N_COORD97":2543637.3399999999,"ADDRESS":"建平九街６０巷３１弄１２號","OBJECTID":170306},"geometry":{"x":165999.86000000034,"y":2543637.3399999999}},{"attributes":{"ID":170308,"DIS_CODE":0,"TOWNNAME":"安平區","LI":"建平里","LIN":"24鄰","STREET":"建平九街","SECT":" ","MAREA":" ","LANE":"６０巷","ALLEY":"３１弄","HOUSE_NO":"１４號","E_COORD97":165995.87,"N_COORD97":2543637.8100000001,"ADDRESS":"建平九街６０巷３１弄１４號","OBJECTID":170307},"geometry":{"x":165995.87000000104,"y":2543637.8100000024}},{"attributes":{"ID":170309,"DIS_CODE":0,"TOWNNAME":"後壁區","LI":"長安里","LIN":"13鄰","STREET":" ","SECT":" ","MAREA":"中寮","LANE":" ","ALLEY":" ","HOUSE_NO":"２１５號","E_COORD97":184105.57999999999,"N_COORD97":2581423.6600000001,"ADDRESS":"中寮２１５號","OBJECTID":170308},"geometry":{"x":184105.58000000101,"y":2581423.660000002}},{"attributes":{"ID":170310,"DIS_CODE":0,"TOWNNAME":"安平區","LI":"建平里","LIN":"24鄰","STREET":"建平九街","SECT":" ","MAREA":" ","LANE":"６０巷","ALLEY":"３１弄","HOUSE_NO":"１６號","E_COORD97":165991.73999999999,"N_COORD97":2543638.6099999999,"ADDRESS":"建平九街６０巷３１弄１６號","OBJECTID":170309},"geometry":{"x":165991.74000000115,"y":2543638.6099999994}},{"attributes":{"ID":170311,"DIS_CODE":0,"TOWNNAME":"安平區","LI":"建平里","LIN":"24鄰","STREET":"建平九街","SECT":" ","MAREA":" ","LANE":"６０巷","ALLEY":"３１弄","HOUSE_NO":"１８號","E_COORD97":165983.48999999999,"N_COORD97":2543642.8300000001,"ADDRESS":"建平九街６０巷３１弄１８號","OBJECTID":170310},"geometry":{"x":165983.49000000115,"y":2543642.8300000019}},{"attributes":{"ID":170312,"DIS_CODE":0,"TOWNNAME":"安平區","LI":"建平里","LIN":"24鄰","STREET":"建平九街","SECT":" ","MAREA":" ","LANE":"６０巷","ALLEY":"３１弄","HOUSE_NO":"１號","E_COORD97":166021.56,"N_COORD97":2543618.25,"ADDRESS":"建平九街６０巷３１弄１號","OBJECTID":170311},"geometry":{"x":166021.55999999959,"y":2543618.25}},{"attributes":{"ID":170313,"DIS_CODE":0,"TOWNNAME":"安平區","LI":"華平里","LIN":"24鄰","STREET":"建平八街","SECT":" ","MAREA":" ","LANE":"４１６巷","ALLEY":"６弄","HOUSE_NO":"１０號","E_COORD97":165266.19,"N_COORD97":2543628.96,"ADDRESS":"建平八街４１６巷６弄１０號","OBJECTID":170312},"geometry":{"x":165266.19000000227,"y":2543628.9600000046}},{"attributes":{"ID":170314,"DIS_CODE":0,"TOWNNAME":"安平區","LI":"華平里","LIN":"26鄰","STREET":"健康二街","SECT":" ","MAREA":" ","LANE":"４１９巷","ALLEY":"４０弄","HOUSE_NO":"１號","E_COORD97":165207.42999999999,"N_COORD97":2543750.9100000001,"ADDRESS":"健康二街４１９巷４０弄１號","OBJECTID":170313},"geometry":{"x":165207.4299999997,"y":2543750.910000002}},{"attributes":{"ID":170315,"DIS_CODE":0,"TOWNNAME":"安平區","LI":"華平里","LIN":"26鄰","STREET":"健康二街","SECT":" ","MAREA":" ","LANE":"４１９巷","ALLEY":"４０弄","HOUSE_NO":"３號","E_COORD97":165208.12,"N_COORD97":2543755.0499999998,"ADDRESS":"健康二街４１９巷４０弄３號","OBJECTID":170314},"geometry":{"x":165208.12000000011,"y":2543755.0500000026}},{"attributes":{"ID":170316,"DIS_CODE":0,"TOWNNAME":"鹽水區","LI":"後宅里","LIN":"12鄰","STREET":" ","SECT":" ","MAREA":"番子寮","LANE":" ","ALLEY":" ","HOUSE_NO":"１１號","E_COORD97":171554.57999999999,"N_COORD97":2577943.1899999999,"ADDRESS":"番子寮１１號","OBJECTID":170315},"geometry":{"x":171554.58000000101,"y":2577943.1900000032}},{"attributes":{"ID":170317,"DIS_CODE":0,"TOWNNAME":"北區","LI":"東興里","LIN":"17鄰","STREET":"小東路","SECT":" ","MAREA":" ","LANE":"２９９巷","ALLEY":"９弄","HOUSE_NO":"８號","E_COORD97":171062.076649,"N_COORD97":2544475.99529,"ADDRESS":"小東路２９９巷９弄８號","OBJECTID":170316},"geometry":{"x":171062.07664900087,"y":2544475.9952860009}},{"attributes":{"ID":170318,"DIS_CODE":0,"TOWNNAME":"北區","LI":"東興里","LIN":"19鄰","STREET":"小東路","SECT":" ","MAREA":" ","LANE":"２９９巷","ALLEY":"２７弄","HOUSE_NO":"２６號","E_COORD97":171028.53,"N_COORD97":2544578.1400000001,"ADDRESS":"小東路２９９巷２７弄２６號","OBJECTID":170317},"geometry":{"x":171028.53000000026,"y":2544578.1400000025}},{"attributes":{"ID":170319,"DIS_CODE":0,"TOWNNAME":"北區","LI":"東興里","LIN":"19鄰","STREET":"小東路","SECT":" ","MAREA":" ","LANE":"２９９巷","ALLEY":"２７弄","HOUSE_NO":"２８號","E_COORD97":171025.51999999999,"N_COORD97":2544574.9300000002,"ADDRESS":"小東路２９９巷２７弄２８號","OBJECTID":170318},"geometry":{"x":171025.52000000048,"y":2544574.9300000016}},{"attributes":{"ID":170320,"DIS_CODE":0,"TOWNNAME":"鹽水區","LI":"後宅里","LIN":"12鄰","STREET":" ","SECT":" ","MAREA":"番子寮","LANE":" ","ALLEY":" ","HOUSE_NO":"１２號","E_COORD97":171551.20999999999,"N_COORD97":2577964.2000000002,"ADDRESS":"番子寮１２號","OBJECTID":170319},"geometry":{"x":171551.20999999996,"y":2577964.2000000011}},{"attributes":{"ID":170321,"DIS_CODE":0,"TOWNNAME":"鹽水區","LI":"後宅里","LIN":"12鄰","STREET":" ","SECT":" ","MAREA":"番子寮","LANE":" ","ALLEY":" ","HOUSE_NO":"１３號","E_COORD97":171580.26000000001,"N_COORD97":2577961.7400000002,"ADDRESS":"番子寮１３號","OBJECTID":170320},"geometry":{"x":171580.26000000071,"y":2577961.7400000021}},{"attributes":{"ID":170322,"DIS_CODE":0,"TOWNNAME":"鹽水區","LI":"後宅里","LIN":"12鄰","STREET":" ","SECT":" ","MAREA":"番子寮","LANE":" ","ALLEY":" ","HOUSE_NO":"１４號","E_COORD97":171573.51000000001,"N_COORD97":2577974.8900000001,"ADDRESS":"番子寮１４號","OBJECTID":170321},"geometry":{"x":171573.51000000071,"y":2577974.8900000025}},{"attributes":{"ID":170323,"DIS_CODE":0,"TOWNNAME":"北區","LI":"東興里","LIN":"19鄰","STREET":"小東路","SECT":" ","MAREA":" ","LANE":"２９９巷","ALLEY":"２７弄","HOUSE_NO":"２號","E_COORD97":171045.56,"N_COORD97":2544538.1699999999,"ADDRESS":"小東路２９９巷２７弄２號","OBJECTID":170322},"geometry":{"x":171045.56000000052,"y":2544538.1699999981}},{"attributes":{"ID":170324,"DIS_CODE":0,"TOWNNAME":"北區","LI":"東興里","LIN":"19鄰","STREET":"小東路","SECT":" ","MAREA":" ","LANE":"２９９巷","ALLEY":"２７弄","HOUSE_NO":"３０號","E_COORD97":171022.5,"N_COORD97":2544562.4900000002,"ADDRESS":"小東路２９９巷２７弄３０號","OBJECTID":170323},"geometry":{"x":171022.50000000093,"y":2544562.4900000002}},{"attributes":{"ID":170325,"DIS_CODE":0,"TOWNNAME":"鹽水區","LI":"汫水里","LIN":"12鄰","STREET":" ","SECT":" ","MAREA":"溪州寮","LANE":" ","ALLEY":" ","HOUSE_NO":"２號之６","E_COORD97":177946.45999999999,"N_COORD97":2581187.6000000001,"ADDRESS":"溪州寮２號之６","OBJECTID":170324},"geometry":{"x":177946.46000000089,"y":2581187.5999999996}},{"attributes":{"ID":170326,"DIS_CODE":0,"TOWNNAME":"鹽水區","LI":"汫水里","LIN":"12鄰","STREET":" ","SECT":" ","MAREA":"溪州寮","LANE":" ","ALLEY":" ","HOUSE_NO":"２之７號","E_COORD97":177902.25,"N_COORD97":2581119.0899999999,"ADDRESS":"溪州寮２之７號","OBJECTID":170325},"geometry":{"x":177902.25,"y":2581119.0900000017}},{"attributes":{"ID":170327,"DIS_CODE":0,"TOWNNAME":"鹽水區","LI":"汫水里","LIN":"12鄰","STREET":" ","SECT":" ","MAREA":"溪州寮","LANE":" ","ALLEY":" ","HOUSE_NO":"２之８號","E_COORD97":177599.67999999999,"N_COORD97":2581371.3999999999,"ADDRESS":"溪州寮２之８號","OBJECTID":170326},"geometry":{"x":177599.68000000156,"y":2581371.4000000022}},{"attributes":{"ID":170328,"DIS_CODE":0,"TOWNNAME":"鹽水區","LI":"汫水里","LIN":"12鄰","STREET":" ","SECT":" ","MAREA":"溪州寮","LANE":" ","ALLEY":" ","HOUSE_NO":"２之９號","E_COORD97":177581.03,"N_COORD97":2581585.8799999999,"ADDRESS":"溪州寮２之９號","OBJECTID":170327},"geometry":{"x":177581.03000000212,"y":2581585.8800000027}},{"attributes":{"ID":170329,"DIS_CODE":0,"TOWNNAME":"鹽水區","LI":"汫水里","LIN":"12鄰","STREET":" ","SECT":" ","MAREA":"溪州寮","LANE":" ","ALLEY":" ","HOUSE_NO":"３之１０號","E_COORD97":177093.26000000001,"N_COORD97":2581589.6499999999,"ADDRESS":"溪州寮３之１０號","OBJECTID":170328},"geometry":{"x":177093.25999999978,"y":2581589.6500000022}},{"attributes":{"ID":170330,"DIS_CODE":0,"TOWNNAME":"鹽水區","LI":"汫水里","LIN":"12鄰","STREET":" ","SECT":" ","MAREA":"溪州寮","LANE":" ","ALLEY":" ","HOUSE_NO":"３號之１０","E_COORD97":177093.26000000001,"N_COORD97":2581589.6499999999,"ADDRESS":"溪州寮３號之１０","OBJECTID":170329},"geometry":{"x":177093.25999999978,"y":2581589.6500000022}},{"attributes":{"ID":170331,"DIS_CODE":0,"TOWNNAME":"鹽水區","LI":"汫水里","LIN":"12鄰","STREET":" ","SECT":" ","MAREA":"溪州寮","LANE":" ","ALLEY":" ","HOUSE_NO":"３之１２號","E_COORD97":177819.89000000001,"N_COORD97":2582042.75,"ADDRESS":"溪州寮３之１２號","OBJECTID":170330},"geometry":{"x":177819.88999999966,"y":2582042.7500000019}},{"attributes":{"ID":170332,"DIS_CODE":0,"TOWNNAME":"鹽水區","LI":"汫水里","LIN":"12鄰","STREET":" ","SECT":" ","MAREA":"溪州寮","LANE":" ","ALLEY":" ","HOUSE_NO":"３號之１２","E_COORD97":177819.89000000001,"N_COORD97":2582042.75,"ADDRESS":"溪州寮３號之１２","OBJECTID":170331},"geometry":{"x":177819.88999999966,"y":2582042.7500000019}},{"attributes":{"ID":170333,"DIS_CODE":0,"TOWNNAME":"左鎮區","LI":"左鎮里","LIN":"12鄰","STREET":" ","SECT":" ","MAREA":"左鎮","LANE":" ","ALLEY":" ","HOUSE_NO":"１５０號","E_COORD97":189120.22,"N_COORD97":2550781.25,"ADDRESS":"左鎮１５０號","OBJECTID":170332},"geometry":{"x":189120.22000000067,"y":2550781.2500000019}},{"attributes":{"ID":170334,"DIS_CODE":0,"TOWNNAME":"左鎮區","LI":"中正里","LIN":"12鄰","STREET":" ","SECT":" ","MAREA":"中正","LANE":" ","ALLEY":" ","HOUSE_NO":"１６４號之１","E_COORD97":189464.47,"N_COORD97":2550703.27,"ADDRESS":"中正１６４號之１","OBJECTID":170333},"geometry":{"x":189464.47000000067,"y":2550703.2699999996}},{"attributes":{"ID":170335,"DIS_CODE":0,"TOWNNAME":"左鎮區","LI":"中正里","LIN":"12鄰","STREET":" ","SECT":" ","MAREA":"中正","LANE":" ","ALLEY":" ","HOUSE_NO":"１７０號之５","E_COORD97":189550.51000000001,"N_COORD97":2550658.1200000001,"ADDRESS":"中正１７０號之５","OBJECTID":170334},"geometry":{"x":189550.51000000071,"y":2550658.120000001}},{"attributes":{"ID":170336,"DIS_CODE":0,"TOWNNAME":"北區","LI":"東興里","LIN":"19鄰","STREET":"小東路","SECT":" ","MAREA":" ","LANE":"２９９巷","ALLEY":"２７弄","HOUSE_NO":"３２號","E_COORD97":171019.10000000001,"N_COORD97":2544565.21,"ADDRESS":"小東路２９９巷２７弄３２號","OBJECTID":170335},"geometry":{"x":171019.09999999963,"y":2544565.2100000009}},{"attributes":{"ID":170337,"DIS_CODE":0,"TOWNNAME":"後壁區","LI":"長安里","LIN":"13鄰","STREET":" ","SECT":" ","MAREA":"中寮","LANE":" ","ALLEY":" ","HOUSE_NO":"２１０號","E_COORD97":184125.70999999999,"N_COORD97":2581406.48,"ADDRESS":"中寮２１０號","OBJECTID":170336},"geometry":{"x":184125.70999999996,"y":2581406.4800000004}},{"attributes":{"ID":170338,"DIS_CODE":0,"TOWNNAME":"後壁區","LI":"長安里","LIN":"13鄰","STREET":" ","SECT":" ","MAREA":"中寮","LANE":" ","ALLEY":" ","HOUSE_NO":"２１１號","E_COORD97":184125.14000000001,"N_COORD97":2581402.5299999998,"ADDRESS":"中寮２１１號","OBJECTID":170337},"geometry":{"x":184125.1400000006,"y":2581402.5300000031}},{"attributes":{"ID":170339,"DIS_CODE":0,"TOWNNAME":"後壁區","LI":"長安里","LIN":"13鄰","STREET":" ","SECT":" ","MAREA":"中寮","LANE":" ","ALLEY":" ","HOUSE_NO":"２１２號","E_COORD97":184106.75,"N_COORD97":2581436.5299999998,"ADDRESS":"中寮２１２號","OBJECTID":170338},"geometry":{"x":184106.75,"y":2581436.5300000012}},{"attributes":{"ID":170340,"DIS_CODE":0,"TOWNNAME":"後壁區","LI":"長安里","LIN":"13鄰","STREET":" ","SECT":" ","MAREA":"中寮","LANE":" ","ALLEY":" ","HOUSE_NO":"２３１號","E_COORD97":184073.75,"N_COORD97":2581426.1299999999,"ADDRESS":"中寮２３１號","OBJECTID":170339},"geometry":{"x":184073.75000000093,"y":2581426.1300000008}},{"attributes":{"ID":170341,"DIS_CODE":0,"TOWNNAME":"後壁區","LI":"長安里","LIN":"13鄰","STREET":" ","SECT":" ","MAREA":"中寮","LANE":" ","ALLEY":" ","HOUSE_NO":"２１３號","E_COORD97":184106.35999999999,"N_COORD97":2581432.3399999999,"ADDRESS":"中寮２１３號","OBJECTID":170340},"geometry":{"x":184106.36000000034,"y":2581432.3400000017}},{"attributes":{"ID":170342,"DIS_CODE":0,"TOWNNAME":"後壁區","LI":"長安里","LIN":"13鄰","STREET":" ","SECT":" ","MAREA":"中寮","LANE":" ","ALLEY":" ","HOUSE_NO":"２１４號","E_COORD97":184106.09,"N_COORD97":2581428,"ADDRESS":"中寮２１４號","OBJECTID":170341},"geometry":{"x":184106.08999999985,"y":2581428.0000000019}},{"attributes":{"ID":170343,"DIS_CODE":0,"TOWNNAME":"後壁區","LI":"長安里","LIN":"13鄰","STREET":" ","SECT":" ","MAREA":"中寮","LANE":" ","ALLEY":" ","HOUSE_NO":"２１７號","E_COORD97":184112.91,"N_COORD97":2581404.4700000002,"ADDRESS":"中寮２１７號","OBJECTID":170342},"geometry":{"x":184112.91000000015,"y":2581404.4700000025}},{"attributes":{"ID":170344,"DIS_CODE":0,"TOWNNAME":"後壁區","LI":"長安里","LIN":"13鄰","STREET":" ","SECT":" ","MAREA":"中寮","LANE":" ","ALLEY":" ","HOUSE_NO":"２１８號","E_COORD97":184107.98000000001,"N_COORD97":2581404.7000000002,"ADDRESS":"中寮２１８號","OBJECTID":170343},"geometry":{"x":184107.98000000231,"y":2581404.7000000011}},{"attributes":{"ID":170345,"DIS_CODE":0,"TOWNNAME":"後壁區","LI":"長安里","LIN":"13鄰","STREET":" ","SECT":" ","MAREA":"中寮","LANE":" ","ALLEY":" ","HOUSE_NO":"２１９號","E_COORD97":184103.06,"N_COORD97":2581404.9399999999,"ADDRESS":"中寮２１９號","OBJECTID":170344},"geometry":{"x":184103.05999999866,"y":2581404.9399999995}},{"attributes":{"ID":170346,"DIS_CODE":0,"TOWNNAME":"後壁區","LI":"長安里","LIN":"13鄰","STREET":" ","SECT":" ","MAREA":"中寮","LANE":" ","ALLEY":" ","HOUSE_NO":"２２０號","E_COORD97":184098.42000000001,"N_COORD97":2581404.9300000002,"ADDRESS":"中寮２２０號","OBJECTID":170345},"geometry":{"x":184098.42000000086,"y":2581404.9300000016}},{"attributes":{"ID":170347,"DIS_CODE":0,"TOWNNAME":"後壁區","LI":"長安里","LIN":"13鄰","STREET":" ","SECT":" ","MAREA":"中寮","LANE":" ","ALLEY":" ","HOUSE_NO":"２２１號","E_COORD97":184093.20000000001,"N_COORD97":2581405.4199999999,"ADDRESS":"中寮２２１號","OBJECTID":170346},"geometry":{"x":184093.20000000112,"y":2581405.4199999999}},{"attributes":{"ID":170348,"DIS_CODE":0,"TOWNNAME":"後壁區","LI":"長安里","LIN":"13鄰","STREET":" ","SECT":" ","MAREA":"中寮","LANE":" ","ALLEY":" ","HOUSE_NO":"２２２號","E_COORD97":184083.23999999999,"N_COORD97":2581391.1000000001,"ADDRESS":"中寮２２２號","OBJECTID":170347},"geometry":{"x":184083.24000000022,"y":2581391.0999999996}},{"attributes":{"ID":170349,"DIS_CODE":0,"TOWNNAME":"後壁區","LI":"長安里","LIN":"13鄰","STREET":" ","SECT":" ","MAREA":"中寮","LANE":" ","ALLEY":" ","HOUSE_NO":"２２３號","E_COORD97":184082.23999999999,"N_COORD97":2581395.6600000001,"ADDRESS":"中寮２２３號","OBJECTID":170348},"geometry":{"x":184082.24000000209,"y":2581395.6600000039}},{"attributes":{"ID":170350,"DIS_CODE":0,"TOWNNAME":"後壁區","LI":"長安里","LIN":"13鄰","STREET":" ","SECT":" ","MAREA":"中寮","LANE":" ","ALLEY":" ","HOUSE_NO":"２２４號","E_COORD97":184081.31,"N_COORD97":2581400.9500000002,"ADDRESS":"中寮２２４號","OBJECTID":170349},"geometry":{"x":184081.31000000052,"y":2581400.9500000011}},{"attributes":{"ID":170351,"DIS_CODE":0,"TOWNNAME":"後壁區","LI":"長安里","LIN":"13鄰","STREET":" ","SECT":" ","MAREA":"中寮","LANE":" ","ALLEY":" ","HOUSE_NO":"２２５號","E_COORD97":184080.39999999999,"N_COORD97":2581406.0600000001,"ADDRESS":"中寮２２５號","OBJECTID":170350},"geometry":{"x":184080.4000000013,"y":2581406.0600000005}},{"attributes":{"ID":170352,"DIS_CODE":0,"TOWNNAME":"後壁區","LI":"長安里","LIN":"13鄰","STREET":" ","SECT":" ","MAREA":"中寮","LANE":" ","ALLEY":" ","HOUSE_NO":"２２６號","E_COORD97":184079.16,"N_COORD97":2581411.5,"ADDRESS":"中寮２２６號","OBJECTID":170351},"geometry":{"x":184079.16000000015,"y":2581411.5000000019}},{"attributes":{"ID":170353,"DIS_CODE":0,"TOWNNAME":"後壁區","LI":"長安里","LIN":"13鄰","STREET":" ","SECT":" ","MAREA":"中寮","LANE":" ","ALLEY":" ","HOUSE_NO":"２２７號","E_COORD97":184089.76000000001,"N_COORD97":2581429.7599999998,"ADDRESS":"中寮２２７號","OBJECTID":170352},"geometry":{"x":184089.75999999978,"y":2581429.7600000016}},{"attributes":{"ID":170354,"DIS_CODE":0,"TOWNNAME":"後壁區","LI":"長安里","LIN":"13鄰","STREET":" ","SECT":" ","MAREA":"中寮","LANE":" ","ALLEY":" ","HOUSE_NO":"２２８號","E_COORD97":184085.88,"N_COORD97":2581428.9100000001,"ADDRESS":"中寮２２８號","OBJECTID":170353},"geometry":{"x":184085.87999999989,"y":2581428.910000002}},{"attributes":{"ID":170355,"DIS_CODE":0,"TOWNNAME":"後壁區","LI":"長安里","LIN":"13鄰","STREET":" ","SECT":" ","MAREA":"中寮","LANE":" ","ALLEY":" ","HOUSE_NO":"２２９號","E_COORD97":184081.97,"N_COORD97":2581427.6600000001,"ADDRESS":"中寮２２９號","OBJECTID":170354},"geometry":{"x":184081.9700000016,"y":2581427.660000002}},{"attributes":{"ID":170356,"DIS_CODE":0,"TOWNNAME":"後壁區","LI":"長安里","LIN":"13鄰","STREET":" ","SECT":" ","MAREA":"中寮","LANE":" ","ALLEY":" ","HOUSE_NO":"２３０號","E_COORD97":184077.92000000001,"N_COORD97":2581426.9100000001,"ADDRESS":"中寮２３０號","OBJECTID":170355},"geometry":{"x":184077.92000000086,"y":2581426.9100000001}},{"attributes":{"ID":170357,"DIS_CODE":0,"TOWNNAME":"後壁區","LI":"長安里","LIN":"13鄰","STREET":" ","SECT":" ","MAREA":"中寮","LANE":" ","ALLEY":" ","HOUSE_NO":"２３３號","E_COORD97":184056.98000000001,"N_COORD97":2581375.0699999998,"ADDRESS":"中寮２３３號","OBJECTID":170356},"geometry":{"x":184056.98000000045,"y":2581375.0700000003}},{"attributes":{"ID":170358,"DIS_CODE":0,"TOWNNAME":"後壁區","LI":"長安里","LIN":"13鄰","STREET":" ","SECT":" ","MAREA":"中寮","LANE":" ","ALLEY":" ","HOUSE_NO":"２３４號","E_COORD97":184050.41,"N_COORD97":2581372.2599999998,"ADDRESS":"中寮２３４號","OBJECTID":170357},"geometry":{"x":184050.40999999922,"y":2581372.2600000016}},{"attributes":{"ID":170359,"DIS_CODE":0,"TOWNNAME":"後壁區","LI":"長安里","LIN":"13鄰","STREET":" ","SECT":" ","MAREA":"中寮","LANE":" ","ALLEY":" ","HOUSE_NO":"２３６號","E_COORD97":184039.85000000001,"N_COORD97":2581369.6200000001,"ADDRESS":"中寮２３６號","OBJECTID":170358},"geometry":{"x":184039.84999999963,"y":2581369.6200000048}},{"attributes":{"ID":170360,"DIS_CODE":0,"TOWNNAME":"北區","LI":"東興里","LIN":"19鄰","STREET":"小東路","SECT":" ","MAREA":" ","LANE":"２９９巷","ALLEY":"２７弄","HOUSE_NO":"３４號","E_COORD97":171015.01000000001,"N_COORD97":2544568.0299999998,"ADDRESS":"小東路２９９巷２７弄３４號","OBJECTID":170359},"geometry":{"x":171015.00999999978,"y":2544568.0299999993}},{"attributes":{"ID":170361,"DIS_CODE":0,"TOWNNAME":"後壁區","LI":"長安里","LIN":"13鄰","STREET":" ","SECT":" ","MAREA":"中寮","LANE":" ","ALLEY":" ","HOUSE_NO":"２３７號","E_COORD97":184034.51999999999,"N_COORD97":2581368.3500000001,"ADDRESS":"中寮２３７號","OBJECTID":170360},"geometry":{"x":184034.52000000048,"y":2581368.3499999996}},{"attributes":{"ID":170362,"DIS_CODE":0,"TOWNNAME":"後壁區","LI":"長安里","LIN":"13鄰","STREET":" ","SECT":" ","MAREA":"中寮","LANE":" ","ALLEY":" ","HOUSE_NO":"２３８號","E_COORD97":184029.57999999999,"N_COORD97":2581367.1000000001,"ADDRESS":"中寮２３８號","OBJECTID":170361},"geometry":{"x":184029.58000000101,"y":2581367.0999999996}},{"attributes":{"ID":170363,"DIS_CODE":0,"TOWNNAME":"北區","LI":"東興里","LIN":"19鄰","STREET":"小東路","SECT":" ","MAREA":" ","LANE":"２９９巷","ALLEY":"２７弄","HOUSE_NO":"３６號","E_COORD97":171012.09,"N_COORD97":2544571.6299999999,"ADDRESS":"小東路２９９巷２７弄３６號","OBJECTID":170362},"geometry":{"x":171012.09000000078,"y":2544571.6300000027}},{"attributes":{"ID":170364,"DIS_CODE":0,"TOWNNAME":"歸仁區","LI":"南保里","LIN":"59鄰","STREET":"中山路","SECT":"三段","MAREA":" ","LANE":"８１巷","ALLEY":"２３弄","HOUSE_NO":"１５號","E_COORD97":176832.51000000001,"N_COORD97":2540837.2799999998,"ADDRESS":"中山路三段８１巷２３弄１５號","OBJECTID":170363},"geometry":{"x":176832.50999999978,"y":2540837.2799999993}},{"attributes":{"ID":170365,"DIS_CODE":0,"TOWNNAME":"歸仁區","LI":"六甲里","LIN":"38鄰","STREET":"六甲八街","SECT":" ","MAREA":" ","LANE":"１４９巷","ALLEY":"５０弄","HOUSE_NO":"１３號","E_COORD97":175252.20000000001,"N_COORD97":2539777.73,"ADDRESS":"六甲八街１４９巷５０弄１３號","OBJECTID":170364},"geometry":{"x":175252.20000000205,"y":2539777.7300000004}},{"attributes":{"ID":170366,"DIS_CODE":0,"TOWNNAME":"歸仁區","LI":"南保里","LIN":"59鄰","STREET":"中山路","SECT":"三段","MAREA":" ","LANE":"８１巷","ALLEY":"２３弄","HOUSE_NO":"１號","E_COORD97":176816.76000000001,"N_COORD97":2540815.2799999998,"ADDRESS":"中山路三段８１巷２３弄１號","OBJECTID":170365},"geometry":{"x":176816.76000000071,"y":2540815.2800000012}},{"attributes":{"ID":170367,"DIS_CODE":0,"TOWNNAME":"歸仁區","LI":"歸南里","LIN":"18鄰","STREET":"民生八街","SECT":" ","MAREA":" ","LANE":"２８巷","ALLEY":"２弄","HOUSE_NO":"８號","E_COORD97":176143.59,"N_COORD97":2540375.29,"ADDRESS":"民生八街２８巷２弄８號","OBJECTID":170366},"geometry":{"x":176143.58999999985,"y":2540375.2899999991}},{"attributes":{"ID":170368,"DIS_CODE":0,"TOWNNAME":"歸仁區","LI":"南保里","LIN":"59鄰","STREET":"中山路","SECT":"三段","MAREA":" ","LANE":"８１巷","ALLEY":"２３弄","HOUSE_NO":"３２號","E_COORD97":176807.54000000001,"N_COORD97":2540774.0299999998,"ADDRESS":"中山路三段８１巷２３弄３２號","OBJECTID":170367},"geometry":{"x":176807.54000000004,"y":2540774.0299999993}},{"attributes":{"ID":170369,"DIS_CODE":0,"TOWNNAME":"麻豆區","LI":"油車里","LIN":"12鄰","STREET":" ","SECT":" ","MAREA":"油車","LANE":" ","ALLEY":" ","HOUSE_NO":"８２號之１","E_COORD97":172517.22,"N_COORD97":2565965.6299999999,"ADDRESS":"油車８２號之１","OBJECTID":170368},"geometry":{"x":172517.21999999881,"y":2565965.6300000008}},{"attributes":{"ID":170370,"DIS_CODE":0,"TOWNNAME":"歸仁區","LI":"後市里","LIN":"46鄰","STREET":"文化街","SECT":"二段","MAREA":" ","LANE":"１２１巷","ALLEY":"７弄","HOUSE_NO":"１０號","E_COORD97":177201.09,"N_COORD97":2541128.7599999998,"ADDRESS":"文化街二段１２１巷７弄１０號","OBJECTID":170369},"geometry":{"x":177201.09000000078,"y":2541128.7599999998}},{"attributes":{"ID":170371,"DIS_CODE":0,"TOWNNAME":"歸仁區","LI":"南保里","LIN":"25鄰","STREET":"文化街","SECT":"三段","MAREA":" ","LANE":"１８５巷","ALLEY":"１弄","HOUSE_NO":"１３號","E_COORD97":176604.39000000001,"N_COORD97":2541150.3300000001,"ADDRESS":"文化街三段１８５巷１弄１３號","OBJECTID":170370},"geometry":{"x":176604.38999999966,"y":2541150.3300000038}},{"attributes":{"ID":170372,"DIS_CODE":0,"TOWNNAME":"後壁區","LI":"長安里","LIN":"13鄰","STREET":" ","SECT":" ","MAREA":"中寮","LANE":" ","ALLEY":" ","HOUSE_NO":"２３９號","E_COORD97":184022.89000000001,"N_COORD97":2581366.1099999999,"ADDRESS":"中寮２３９號","OBJECTID":170371},"geometry":{"x":184022.88999999966,"y":2581366.1100000013}},{"attributes":{"ID":170373,"DIS_CODE":0,"TOWNNAME":"後壁區","LI":"長安里","LIN":"13鄰","STREET":" ","SECT":" ","MAREA":"中寮","LANE":" ","ALLEY":" ","HOUSE_NO":"２４０號","E_COORD97":184017.34,"N_COORD97":2581364.6099999999,"ADDRESS":"中寮２４０號","OBJECTID":170372},"geometry":{"x":184017.34000000078,"y":2581364.6100000031}},{"attributes":{"ID":170374,"DIS_CODE":0,"TOWNNAME":"歸仁區","LI":"辜厝里","LIN":"4鄰","STREET":"民族南街","SECT":" ","MAREA":" ","LANE":"１８巷","ALLEY":"２７弄","HOUSE_NO":"１４號","E_COORD97":177338.98999999999,"N_COORD97":2540710.5499999998,"ADDRESS":"民族南街１８巷２７弄１４號","OBJECTID":170373},"geometry":{"x":177338.99000000115,"y":2540710.5500000026}},{"attributes":{"ID":170375,"DIS_CODE":0,"TOWNNAME":"歸仁區","LI":"歸南里","LIN":"18鄰","STREET":"民生八街","SECT":" ","MAREA":" ","LANE":"２８巷","ALLEY":"２弄","HOUSE_NO":"２８號","E_COORD97":176186.84,"N_COORD97":2540375.29,"ADDRESS":"民生八街２８巷２弄２８號","OBJECTID":170374},"geometry":{"x":176186.84000000171,"y":2540375.2899999991}},{"attributes":{"ID":170376,"DIS_CODE":0,"TOWNNAME":"歸仁區","LI":"歸南里","LIN":"20鄰","STREET":"民生八街","SECT":" ","MAREA":" ","LANE":"２８巷","ALLEY":"１弄","HOUSE_NO":"１０號","E_COORD97":176095.64000000001,"N_COORD97":2540392.29,"ADDRESS":"民生八街２８巷１弄１０號","OBJECTID":170375},"geometry":{"x":176095.63999999966,"y":2540392.2899999991}},{"attributes":{"ID":170377,"DIS_CODE":0,"TOWNNAME":"歸仁區","LI":"南保里","LIN":"59鄰","STREET":"中山路","SECT":"三段","MAREA":" ","LANE":"８１巷","ALLEY":"２３弄","HOUSE_NO":"４６號","E_COORD97":176827.04000000001,"N_COORD97":2540786.0299999998,"ADDRESS":"中山路三段８１巷２３弄４６號","OBJECTID":170376},"geometry":{"x":176827.04000000097,"y":2540786.0300000012}},{"attributes":{"ID":170378,"DIS_CODE":0,"TOWNNAME":"歸仁區","LI":"媽廟里","LIN":"26鄰","STREET":"保大路","SECT":"一段","MAREA":" ","LANE":"１５２巷","ALLEY":"１１９弄","HOUSE_NO":"１號","E_COORD97":177552.84,"N_COORD97":2544956.8700000001,"ADDRESS":"保大路一段１５２巷１１９弄１號","OBJECTID":170377},"geometry":{"x":177552.83999999985,"y":2544956.8700000029}},{"attributes":{"ID":170379,"DIS_CODE":0,"TOWNNAME":"歸仁區","LI":"看東里","LIN":"13鄰","STREET":"忠孝南路","SECT":" ","MAREA":" ","LANE":"２５巷","ALLEY":"５９弄","HOUSE_NO":"５號","E_COORD97":178613.29999999999,"N_COORD97":2540483.48,"ADDRESS":"忠孝南路２５巷５９弄５號","OBJECTID":170378},"geometry":{"x":178613.30000000075,"y":2540483.4800000023}},{"attributes":{"ID":170380,"DIS_CODE":0,"TOWNNAME":"後壁區","LI":"長安里","LIN":"13鄰","STREET":" ","SECT":" ","MAREA":"中寮","LANE":" ","ALLEY":" ","HOUSE_NO":"２４１號","E_COORD97":184012.53,"N_COORD97":2581363.6400000001,"ADDRESS":"中寮２４１號","OBJECTID":170379},"geometry":{"x":184012.53000000212,"y":2581363.6400000025}},{"attributes":{"ID":170381,"DIS_CODE":0,"TOWNNAME":"後壁區","LI":"長安里","LIN":"13鄰","STREET":" ","SECT":" ","MAREA":"中寮","LANE":" ","ALLEY":" ","HOUSE_NO":"２４２號","E_COORD97":184006.76000000001,"N_COORD97":2581362.1099999999,"ADDRESS":"中寮２４２號","OBJECTID":170380},"geometry":{"x":184006.75999999978,"y":2581362.1100000013}},{"attributes":{"ID":170382,"DIS_CODE":0,"TOWNNAME":"後壁區","LI":"長安里","LIN":"13鄰","STREET":" ","SECT":" ","MAREA":"中寮","LANE":" ","ALLEY":" ","HOUSE_NO":"２４３號之１","E_COORD97":184008.89000000001,"N_COORD97":2581380.2799999998,"ADDRESS":"中寮２４３號之１","OBJECTID":170381},"geometry":{"x":184008.88999999966,"y":2581380.2800000031}},{"attributes":{"ID":170383,"DIS_CODE":0,"TOWNNAME":"後壁區","LI":"長安里","LIN":"13鄰","STREET":" ","SECT":" ","MAREA":"中寮","LANE":" ","ALLEY":" ","HOUSE_NO":"２４３號","E_COORD97":184003.44,"N_COORD97":2581378.96,"ADDRESS":"中寮２４３號","OBJECTID":170382},"geometry":{"x":184003.44000000134,"y":2581378.9600000028}},{"attributes":{"ID":170384,"DIS_CODE":0,"TOWNNAME":"後壁區","LI":"長安里","LIN":"13鄰","STREET":" ","SECT":" ","MAREA":"中寮","LANE":" ","ALLEY":" ","HOUSE_NO":"２４５號","E_COORD97":184014.12,"N_COORD97":2581381.0099999998,"ADDRESS":"中寮２４５號","OBJECTID":170383},"geometry":{"x":184014.12000000104,"y":2581381.0099999998}},{"attributes":{"ID":170385,"DIS_CODE":0,"TOWNNAME":"後壁區","LI":"長安里","LIN":"13鄰","STREET":" ","SECT":" ","MAREA":"中寮","LANE":" ","ALLEY":" ","HOUSE_NO":"２４６號","E_COORD97":184019.59,"N_COORD97":2581382.29,"ADDRESS":"中寮２４６號","OBJECTID":170384},"geometry":{"x":184019.58999999985,"y":2581382.2899999991}},{"attributes":{"ID":170386,"DIS_CODE":0,"TOWNNAME":"後壁區","LI":"長安里","LIN":"13鄰","STREET":" ","SECT":" ","MAREA":"中寮","LANE":" ","ALLEY":" ","HOUSE_NO":"２４７號","E_COORD97":184024.98000000001,"N_COORD97":2581383.77,"ADDRESS":"中寮２４７號","OBJECTID":170385},"geometry":{"x":184024.98000000231,"y":2581383.7699999977}},{"attributes":{"ID":170387,"DIS_CODE":0,"TOWNNAME":"後壁區","LI":"長安里","LIN":"13鄰","STREET":" ","SECT":" ","MAREA":"中寮","LANE":" ","ALLEY":" ","HOUSE_NO":"２４８號","E_COORD97":184031.48000000001,"N_COORD97":2581385.4300000002,"ADDRESS":"中寮２４８號","OBJECTID":170386},"geometry":{"x":184031.48000000045,"y":2581385.4299999997}},{"attributes":{"ID":170388,"DIS_CODE":0,"TOWNNAME":"歸仁區","LI":"新厝里","LIN":"4鄰","STREET":"復興路","SECT":" ","MAREA":" ","LANE":"１１６巷","ALLEY":"８弄","HOUSE_NO":"１３號","E_COORD97":177777.32000000001,"N_COORD97":2540660.25,"ADDRESS":"復興路１１６巷８弄１３號","OBJECTID":170387},"geometry":{"x":177777.31999999937,"y":2540660.2500000019}},{"attributes":{"ID":170389,"DIS_CODE":0,"TOWNNAME":"歸仁區","LI":"六甲里","LIN":"38鄰","STREET":"六甲八街","SECT":" ","MAREA":" ","LANE":"１４９巷","ALLEY":"５０弄","HOUSE_NO":"１５號","E_COORD97":175248.429118,"N_COORD97":2539785.5115499999,"ADDRESS":"六甲八街１４９巷５０弄１５號","OBJECTID":170388},"geometry":{"x":175248.4291180009,"y":2539785.5115510002}},{"attributes":{"ID":170390,"DIS_CODE":0,"TOWNNAME":"歸仁區","LI":"後市里","LIN":"39鄰","STREET":"文化街","SECT":"二段","MAREA":" ","LANE":"１２１巷","ALLEY":"７弄","HOUSE_NO":"３４號","E_COORD97":177254.39000000001,"N_COORD97":2541118.7599999998,"ADDRESS":"文化街二段１２１巷７弄３４號","OBJECTID":170389},"geometry":{"x":177254.3900000006,"y":2541118.7599999998}},{"attributes":{"ID":170391,"DIS_CODE":0,"TOWNNAME":"歸仁區","LI":"南保里","LIN":"59鄰","STREET":"中山路","SECT":"三段","MAREA":" ","LANE":"８１巷","ALLEY":"２３弄","HOUSE_NO":"９４號","E_COORD97":176871.14000000001,"N_COORD97":2540791.0299999998,"ADDRESS":"中山路三段８１巷２３弄９４號","OBJECTID":170390},"geometry":{"x":176871.14000000153,"y":2540791.0299999993}},{"attributes":{"ID":170392,"DIS_CODE":0,"TOWNNAME":"歸仁區","LI":"歸南里","LIN":"20鄰","STREET":"民生八街","SECT":" ","MAREA":" ","LANE":"２８巷","ALLEY":"１弄","HOUSE_NO":"５２號","E_COORD97":176011.64000000001,"N_COORD97":2540393.29,"ADDRESS":"民生八街２８巷１弄５２號","OBJECTID":170391},"geometry":{"x":176011.64000000153,"y":2540393.2899999991}},{"attributes":{"ID":170393,"DIS_CODE":0,"TOWNNAME":"歸仁區","LI":"南保里","LIN":"46鄰","STREET":"民權十街","SECT":" ","MAREA":" ","LANE":"６３巷","ALLEY":"１７弄","HOUSE_NO":"１４號","E_COORD97":176797.16,"N_COORD97":2540659.2999999998,"ADDRESS":"民權十街６３巷１７弄１４號","OBJECTID":170392},"geometry":{"x":176797.16000000108,"y":2540659.3000000007}},{"attributes":{"ID":170394,"DIS_CODE":0,"TOWNNAME":"歸仁區","LI":"大廟里","LIN":"13鄰","STREET":"大廟六街","SECT":" ","MAREA":" ","LANE":"１１０巷","ALLEY":"２０弄","HOUSE_NO":"１２號","E_COORD97":176207.22,"N_COORD97":2544204.25,"ADDRESS":"大廟六街１１０巷２０弄１２號","OBJECTID":170393},"geometry":{"x":176207.21999999974,"y":2544204.25}},{"attributes":{"ID":170395,"DIS_CODE":0,"TOWNNAME":"歸仁區","LI":"媽廟里","LIN":"4鄰","STREET":"和順路","SECT":"一段","MAREA":" ","LANE":"６３巷","ALLEY":"４５弄","HOUSE_NO":"６號","E_COORD97":177415.01999999999,"N_COORD97":2543652.7200000002,"ADDRESS":"和順路一段６３巷４５弄６號","OBJECTID":170394},"geometry":{"x":177415.02000000048,"y":2543652.7200000007}},{"attributes":{"ID":170396,"DIS_CODE":0,"TOWNNAME":"後壁區","LI":"長安里","LIN":"13鄰","STREET":" ","SECT":" ","MAREA":"中寮","LANE":" ","ALLEY":" ","HOUSE_NO":"２４９號","E_COORD97":184036.66,"N_COORD97":2581386.54,"ADDRESS":"中寮２４９號","OBJECTID":170395},"geometry":{"x":184036.66000000015,"y":2581386.540000001}},{"attributes":{"ID":170397,"DIS_CODE":0,"TOWNNAME":"後壁區","LI":"長安里","LIN":"13鄰","STREET":" ","SECT":" ","MAREA":"中寮","LANE":" ","ALLEY":" ","HOUSE_NO":"２５０號","E_COORD97":184042.23999999999,"N_COORD97":2581388.2200000002,"ADDRESS":"中寮２５０號","OBJECTID":170396},"geometry":{"x":184042.24000000115,"y":2581388.2200000007}},{"attributes":{"ID":170398,"DIS_CODE":0,"TOWNNAME":"後壁區","LI":"長安里","LIN":"13鄰","STREET":" ","SECT":" ","MAREA":"中寮","LANE":" ","ALLEY":" ","HOUSE_NO":"２５１號","E_COORD97":184047.39000000001,"N_COORD97":2581389.3100000001,"ADDRESS":"中寮２５１號","OBJECTID":170397},"geometry":{"x":184047.3900000006,"y":2581389.3100000024}},{"attributes":{"ID":170399,"DIS_CODE":0,"TOWNNAME":"後壁區","LI":"長安里","LIN":"13鄰","STREET":" ","SECT":" ","MAREA":"中寮","LANE":" ","ALLEY":" ","HOUSE_NO":"２５２號","E_COORD97":184052.62,"N_COORD97":2581390.3599999999,"ADDRESS":"中寮２５２號","OBJECTID":170398},"geometry":{"x":184052.62000000104,"y":2581390.3600000013}},{"attributes":{"ID":170400,"DIS_CODE":0,"TOWNNAME":"後壁區","LI":"長安里","LIN":"13鄰","STREET":" ","SECT":" ","MAREA":"中寮","LANE":" ","ALLEY":" ","HOUSE_NO":"２５４號","E_COORD97":184063.32999999999,"N_COORD97":2581392.8700000001,"ADDRESS":"中寮２５４號","OBJECTID":170399},"geometry":{"x":184063.33000000101,"y":2581392.8700000029}},{"attributes":{"ID":170401,"DIS_CODE":0,"TOWNNAME":"後壁區","LI":"長安里","LIN":"13鄰","STREET":" ","SECT":" ","MAREA":"中寮","LANE":" ","ALLEY":" ","HOUSE_NO":"２５５號","E_COORD97":184059.28,"N_COORD97":2581408.5099999998,"ADDRESS":"中寮２５５號","OBJECTID":170400},"geometry":{"x":184059.28000000026,"y":2581408.5099999998}}]}