{"displayFieldName":"TOWNNAME","fieldAliases":{"ID":"ID","DIS_CODE":"DIS_CODE","TOWNNAME":"TOWNNAME","LI":"LI","LIN":"LIN","STREET":"STREET","SECT":"SECT","MAREA":"MAREA","LANE":"LANE","ALLEY":"ALLEY","HOUSE_NO":"HOUSE_NO","E_COORD97":"E_COORD97","N_COORD97":"N_COORD97","ADDRESS":"ADDRESS","OBJECTID":"OBJECTID"},"geometryType":"esriGeometryPoint","spatialReference":{"wkid":102443,"latestWkid":3826},"fields":[{"name":"ID","type":"esriFieldTypeDouble","alias":"ID"},{"name":"DIS_CODE","type":"esriFieldTypeInteger","alias":"DIS_CODE"},{"name":"TOWNNAME","type":"esriFieldTypeString","alias":"TOWNNAME","length":8},{"name":"LI","type":"esriFieldTypeString","alias":"LI","length":8},{"name":"LIN","type":"esriFieldTypeString","alias":"LIN","length":12},{"name":"STREET","type":"esriFieldTypeString","alias":"STREET","length":20},{"name":"SECT","type":"esriFieldTypeString","alias":"SECT","length":8},{"name":"MAREA","type":"esriFieldTypeString","alias":"MAREA","length":12},{"name":"LANE","type":"esriFieldTypeString","alias":"LANE","length":10},{"name":"ALLEY","type":"esriFieldTypeString","alias":"ALLEY","length":10},{"name":"HOUSE_NO","type":"esriFieldTypeString","alias":"HOUSE_NO","length":20},{"name":"E_COORD97","type":"esriFieldTypeDouble","alias":"E_COORD97"},{"name":"N_COORD97","type":"esriFieldTypeDouble","alias":"N_COORD97"},{"name":"ADDRESS","type":"esriFieldTypeString","alias":"ADDRESS","length":50},{"name":"OBJECTID","type":"esriFieldTypeOID","alias":"OBJECTID"}],"features":[{"attributes":{"ID":480226,"DIS_CODE":0,"TOWNNAME":"歸仁區","LI":"媽廟里","LIN":"26鄰","STREET":"保大路","SECT":"一段","MAREA":" ","LANE":" ","ALLEY":" ","HOUSE_NO":"２１０號","E_COORD97":177531.82999999999,"N_COORD97":2544063.7200000002,"ADDRESS":"保大路一段２１０號","OBJECTID":480201},"geometry":{"x":177531.83000000101,"y":2544063.7200000007}},{"attributes":{"ID":480227,"DIS_CODE":0,"TOWNNAME":"歸仁區","LI":"南興里","LIN":"26鄰","STREET":"文化二十街","SECT":" ","MAREA":" ","LANE":" ","ALLEY":" ","HOUSE_NO":"１０７號","E_COORD97":175455.94,"N_COORD97":2541375.3300000001,"ADDRESS":"文化二十街１０７號","OBJECTID":480202},"geometry":{"x":175455.94000000227,"y":2541375.3300000019}},{"attributes":{"ID":480228,"DIS_CODE":0,"TOWNNAME":"學甲區","LI":"慈福里","LIN":"26鄰","STREET":"成功路","SECT":" ","MAREA":" ","LANE":" ","ALLEY":" ","HOUSE_NO":"５８號","E_COORD97":166211.98999999999,"N_COORD97":2570456.8199999998,"ADDRESS":"成功路５８號","OBJECTID":480203},"geometry":{"x":166211.99000000115,"y":2570456.8200000003}},{"attributes":{"ID":480229,"DIS_CODE":0,"TOWNNAME":"學甲區","LI":"慈福里","LIN":"26鄰","STREET":"成功路","SECT":" ","MAREA":" ","LANE":" ","ALLEY":" ","HOUSE_NO":"６０號","E_COORD97":166212.51000000001,"N_COORD97":2570463.0299999998,"ADDRESS":"成功路６０號","OBJECTID":480204},"geometry":{"x":166212.50999999978,"y":2570463.0300000012}},{"attributes":{"ID":480230,"DIS_CODE":0,"TOWNNAME":"南區","LI":"大忠里","LIN":"26鄰","STREET":"國民路","SECT":" ","MAREA":" ","LANE":" ","ALLEY":" ","HOUSE_NO":"２４０號","E_COORD97":169043.10000000001,"N_COORD97":2541031.5600000001,"ADDRESS":"國民路２４０號","OBJECTID":480205},"geometry":{"x":169043.10000000056,"y":2541031.5600000024}},{"attributes":{"ID":480231,"DIS_CODE":0,"TOWNNAME":"南區","LI":"大忠里","LIN":"26鄰","STREET":"國民路","SECT":" ","MAREA":" ","LANE":" ","ALLEY":" ","HOUSE_NO":"２４２號","E_COORD97":169039.98999999999,"N_COORD97":2541034.54,"ADDRESS":"國民路２４２號","OBJECTID":480206},"geometry":{"x":169039.99000000115,"y":2541034.5399999991}},{"attributes":{"ID":480232,"DIS_CODE":0,"TOWNNAME":"南區","LI":"大忠里","LIN":"26鄰","STREET":"國民路","SECT":" ","MAREA":" ","LANE":" ","ALLEY":" ","HOUSE_NO":"２４４號","E_COORD97":169037.48000000001,"N_COORD97":2541037.9500000002,"ADDRESS":"國民路２４４號","OBJECTID":480207},"geometry":{"x":169037.48000000045,"y":2541037.9500000011}},{"attributes":{"ID":480233,"DIS_CODE":0,"TOWNNAME":"柳營區","LI":"光福里","LIN":"26鄰","STREET":"十美街","SECT":" ","MAREA":" ","LANE":" ","ALLEY":" ","HOUSE_NO":"４５８號","E_COORD97":179997.04999999999,"N_COORD97":2575560.8500000001,"ADDRESS":"十美街４５８號","OBJECTID":480208},"geometry":{"x":179997.04999999981,"y":2575560.8499999996}},{"attributes":{"ID":480234,"DIS_CODE":0,"TOWNNAME":"柳營區","LI":"光福里","LIN":"26鄰","STREET":"十美街","SECT":" ","MAREA":" ","LANE":" ","ALLEY":" ","HOUSE_NO":"４６６號","E_COORD97":179982.06,"N_COORD97":2575563.6200000001,"ADDRESS":"十美街４６６號","OBJECTID":480209},"geometry":{"x":179982.05999999866,"y":2575563.620000001}},{"attributes":{"ID":480235,"DIS_CODE":0,"TOWNNAME":"柳營區","LI":"光福里","LIN":"26鄰","STREET":"十美街","SECT":" ","MAREA":" ","LANE":" ","ALLEY":" ","HOUSE_NO":"４９０號","E_COORD97":179937.53,"N_COORD97":2575560.7000000002,"ADDRESS":"十美街４９０號","OBJECTID":480210},"geometry":{"x":179937.53000000119,"y":2575560.7000000011}},{"attributes":{"ID":480236,"DIS_CODE":0,"TOWNNAME":"柳營區","LI":"光福里","LIN":"26鄰","STREET":"十美街","SECT":" ","MAREA":" ","LANE":" ","ALLEY":" ","HOUSE_NO":"４９２號","E_COORD97":179932.87,"N_COORD97":2575560.9300000002,"ADDRESS":"十美街４９２號","OBJECTID":480211},"geometry":{"x":179932.87000000011,"y":2575560.9299999997}},{"attributes":{"ID":480237,"DIS_CODE":0,"TOWNNAME":"柳營區","LI":"光福里","LIN":"26鄰","STREET":"十美街","SECT":" ","MAREA":" ","LANE":" ","ALLEY":" ","HOUSE_NO":"４９６號","E_COORD97":179913.95999999999,"N_COORD97":2575572.1000000001,"ADDRESS":"十美街４９６號","OBJECTID":480212},"geometry":{"x":179913.96000000089,"y":2575572.1000000015}},{"attributes":{"ID":480238,"DIS_CODE":0,"TOWNNAME":"柳營區","LI":"光福里","LIN":"26鄰","STREET":"十美街","SECT":" ","MAREA":" ","LANE":" ","ALLEY":" ","HOUSE_NO":"５０８號","E_COORD97":179902.38,"N_COORD97":2575559.4900000002,"ADDRESS":"十美街５０８號","OBJECTID":480213},"geometry":{"x":179902.38000000175,"y":2575559.4900000021}},{"attributes":{"ID":480239,"DIS_CODE":0,"TOWNNAME":"柳營區","LI":"光福里","LIN":"26鄰","STREET":"十美街","SECT":" ","MAREA":" ","LANE":" ","ALLEY":" ","HOUSE_NO":"５１０號","E_COORD97":179899.35000000001,"N_COORD97":2575559.4900000002,"ADDRESS":"十美街５１０號","OBJECTID":480214},"geometry":{"x":179899.35000000056,"y":2575559.4900000021}},{"attributes":{"ID":480240,"DIS_CODE":0,"TOWNNAME":"柳營區","LI":"光福里","LIN":"26鄰","STREET":"十美街","SECT":" ","MAREA":" ","LANE":" ","ALLEY":" ","HOUSE_NO":"５１２號","E_COORD97":179894.13,"N_COORD97":2575559.8700000001,"ADDRESS":"十美街５１２號","OBJECTID":480215},"geometry":{"x":179894.13000000082,"y":2575559.8699999992}},{"attributes":{"ID":480241,"DIS_CODE":0,"TOWNNAME":"柳營區","LI":"光福里","LIN":"26鄰","STREET":"十美街","SECT":" ","MAREA":" ","LANE":" ","ALLEY":" ","HOUSE_NO":"５１６號","E_COORD97":179889.69,"N_COORD97":2575559.8500000001,"ADDRESS":"十美街５１６號","OBJECTID":480216},"geometry":{"x":179889.69000000134,"y":2575559.8500000015}},{"attributes":{"ID":480242,"DIS_CODE":0,"TOWNNAME":"南區","LI":"新興里","LIN":"5鄰","STREET":"夏林路","SECT":" ","MAREA":" ","LANE":" ","ALLEY":" ","HOUSE_NO":"１０５號","E_COORD97":167497.67999999999,"N_COORD97":2542500.4300000002,"ADDRESS":"夏林路１０５號","OBJECTID":480217},"geometry":{"x":167497.6799999997,"y":2542500.4300000016}},{"attributes":{"ID":480243,"DIS_CODE":0,"TOWNNAME":"柳營區","LI":"光福里","LIN":"26鄰","STREET":"十美街","SECT":" ","MAREA":" ","LANE":" ","ALLEY":" ","HOUSE_NO":"５２０號","E_COORD97":179879.14000000001,"N_COORD97":2575559.7599999998,"ADDRESS":"十美街５２０號","OBJECTID":480218},"geometry":{"x":179879.13999999966,"y":2575559.7600000035}},{"attributes":{"ID":480244,"DIS_CODE":0,"TOWNNAME":"柳營區","LI":"光福里","LIN":"26鄰","STREET":"十美街","SECT":" ","MAREA":" ","LANE":" ","ALLEY":" ","HOUSE_NO":"５２２號","E_COORD97":179873.53,"N_COORD97":2575559.9700000002,"ADDRESS":"十美街５２２號","OBJECTID":480219},"geometry":{"x":179873.53000000119,"y":2575559.9700000025}},{"attributes":{"ID":480245,"DIS_CODE":0,"TOWNNAME":"柳營區","LI":"光福里","LIN":"26鄰","STREET":"十美街","SECT":" ","MAREA":" ","LANE":" ","ALLEY":" ","HOUSE_NO":"５７６號","E_COORD97":179790.70999999999,"N_COORD97":2575535.4399999999,"ADDRESS":"十美街５７６號","OBJECTID":480220},"geometry":{"x":179790.71000000089,"y":2575535.4400000013}},{"attributes":{"ID":480246,"DIS_CODE":0,"TOWNNAME":"柳營區","LI":"光福里","LIN":"26鄰","STREET":"十美街","SECT":" ","MAREA":" ","LANE":" ","ALLEY":" ","HOUSE_NO":"５７８號","E_COORD97":179784.26000000001,"N_COORD97":2575536.0899999999,"ADDRESS":"十美街５７８號","OBJECTID":480221},"geometry":{"x":179784.25999999885,"y":2575536.0899999999}},{"attributes":{"ID":480247,"DIS_CODE":0,"TOWNNAME":"新營區","LI":"三仙里","LIN":"26鄰","STREET":"育德三街","SECT":" ","MAREA":" ","LANE":" ","ALLEY":" ","HOUSE_NO":"４２號","E_COORD97":179502.87,"N_COORD97":2579015.8399999999,"ADDRESS":"育德三街４２號","OBJECTID":480222},"geometry":{"x":179502.87000000104,"y":2579015.8399999999}},{"attributes":{"ID":480248,"DIS_CODE":0,"TOWNNAME":"新營區","LI":"新北里","LIN":"26鄰","STREET":"民治路","SECT":" ","MAREA":" ","LANE":" ","ALLEY":" ","HOUSE_NO":"１５０號之１","E_COORD97":179171.32999999999,"N_COORD97":2578721.7999999998,"ADDRESS":"民治路１５０號之１","OBJECTID":480223},"geometry":{"x":179171.33000000101,"y":2578721.8000000026}},{"attributes":{"ID":480249,"DIS_CODE":0,"TOWNNAME":"新營區","LI":"新東里","LIN":"26鄰","STREET":"東興路","SECT":" ","MAREA":" ","LANE":" ","ALLEY":" ","HOUSE_NO":"２０３號","E_COORD97":180747.44,"N_COORD97":2579514.1899999999,"ADDRESS":"東興路２０３號","OBJECTID":480224},"geometry":{"x":180747.44000000134,"y":2579514.1900000013}},{"attributes":{"ID":480250,"DIS_CODE":0,"TOWNNAME":"新營區","LI":"三仙里","LIN":"26鄰","STREET":"育德三街","SECT":" ","MAREA":" ","LANE":" ","ALLEY":" ","HOUSE_NO":"３４號","E_COORD97":179514.01000000001,"N_COORD97":2578990.3100000001,"ADDRESS":"育德三街３４號","OBJECTID":480225},"geometry":{"x":179514.00999999978,"y":2578990.3100000005}},{"attributes":{"ID":480251,"DIS_CODE":0,"TOWNNAME":"新營區","LI":"三仙里","LIN":"26鄰","STREET":"育德三街","SECT":" ","MAREA":" ","LANE":" ","ALLEY":" ","HOUSE_NO":"１０號","E_COORD97":179563.07999999999,"N_COORD97":2579002.2599999998,"ADDRESS":"育德三街１０號","OBJECTID":480226},"geometry":{"x":179563.08000000007,"y":2579002.2600000016}},{"attributes":{"ID":480252,"DIS_CODE":0,"TOWNNAME":"學甲區","LI":"慈福里","LIN":"26鄰","STREET":"華宗路","SECT":" ","MAREA":" ","LANE":" ","ALLEY":" ","HOUSE_NO":"４２９號","E_COORD97":166327.48000000001,"N_COORD97":2570423.0499999998,"ADDRESS":"華宗路４２９號","OBJECTID":480227},"geometry":{"x":166327.48000000138,"y":2570423.0500000026}},{"attributes":{"ID":480253,"DIS_CODE":0,"TOWNNAME":"學甲區","LI":"慈福里","LIN":"26鄰","STREET":"華宗路","SECT":" ","MAREA":" ","LANE":" ","ALLEY":" ","HOUSE_NO":"４３１號","E_COORD97":166328.37,"N_COORD97":2570427.0299999998,"ADDRESS":"華宗路４３１號","OBJECTID":480228},"geometry":{"x":166328.37000000104,"y":2570427.0299999993}},{"attributes":{"ID":480254,"DIS_CODE":0,"TOWNNAME":"學甲區","LI":"慈福里","LIN":"26鄰","STREET":"華宗路","SECT":" ","MAREA":" ","LANE":" ","ALLEY":" ","HOUSE_NO":"４３３號","E_COORD97":166329.09,"N_COORD97":2570430.9300000002,"ADDRESS":"華宗路４３３號","OBJECTID":480229},"geometry":{"x":166329.08999999892,"y":2570430.9299999997}},{"attributes":{"ID":480255,"DIS_CODE":0,"TOWNNAME":"學甲區","LI":"慈福里","LIN":"26鄰","STREET":"華宗路","SECT":" ","MAREA":" ","LANE":" ","ALLEY":" ","HOUSE_NO":"４３５號","E_COORD97":166329.84,"N_COORD97":2570434.8300000001,"ADDRESS":"華宗路４３５號","OBJECTID":480230},"geometry":{"x":166329.84000000078,"y":2570434.8300000019}},{"attributes":{"ID":480256,"DIS_CODE":0,"TOWNNAME":"南區","LI":"新興里","LIN":"5鄰","STREET":"夏林路","SECT":" ","MAREA":" ","LANE":" ","ALLEY":" ","HOUSE_NO":"９５號","E_COORD97":167495.98999999999,"N_COORD97":2542575.5699999998,"ADDRESS":"夏林路９５號","OBJECTID":480231},"geometry":{"x":167495.99000000022,"y":2542575.5700000003}},{"attributes":{"ID":480257,"DIS_CODE":0,"TOWNNAME":"南區","LI":"新興里","LIN":"5鄰","STREET":"夏林路","SECT":" ","MAREA":" ","LANE":" ","ALLEY":" ","HOUSE_NO":"９７號","E_COORD97":167493.89000000001,"N_COORD97":2542567.8700000001,"ADDRESS":"夏林路９７號","OBJECTID":480232},"geometry":{"x":167493.8900000006,"y":2542567.870000001}},{"attributes":{"ID":480258,"DIS_CODE":0,"TOWNNAME":"南區","LI":"新興里","LIN":"5鄰","STREET":"夏林路","SECT":" ","MAREA":" ","LANE":" ","ALLEY":" ","HOUSE_NO":"９７號之１","E_COORD97":167494.22,"N_COORD97":2542563.4100000001,"ADDRESS":"夏林路９７號之１","OBJECTID":480233},"geometry":{"x":167494.21999999974,"y":2542563.4100000001}},{"attributes":{"ID":480259,"DIS_CODE":0,"TOWNNAME":"南區","LI":"新興里","LIN":"5鄰","STREET":"夏林路","SECT":" ","MAREA":" ","LANE":" ","ALLEY":" ","HOUSE_NO":"９７號之２","E_COORD97":167493.72,"N_COORD97":2542558.7799999998,"ADDRESS":"夏林路９７號之２","OBJECTID":480234},"geometry":{"x":167493.71999999974,"y":2542558.7799999993}},{"attributes":{"ID":480260,"DIS_CODE":0,"TOWNNAME":"南區","LI":"新興里","LIN":"5鄰","STREET":"夏林路","SECT":" ","MAREA":" ","LANE":" ","ALLEY":" ","HOUSE_NO":"９７號之３","E_COORD97":167493.89000000001,"N_COORD97":2542554.48,"ADDRESS":"夏林路９７號之３","OBJECTID":480235},"geometry":{"x":167493.8900000006,"y":2542554.4800000023}},{"attributes":{"ID":480261,"DIS_CODE":0,"TOWNNAME":"南區","LI":"新興里","LIN":"5鄰","STREET":"夏林路","SECT":" ","MAREA":" ","LANE":" ","ALLEY":" ","HOUSE_NO":"９７號之４","E_COORD97":167493.47,"N_COORD97":2542549.2200000002,"ADDRESS":"夏林路９７號之４","OBJECTID":480236},"geometry":{"x":167493.47000000067,"y":2542549.2200000025}},{"attributes":{"ID":480262,"DIS_CODE":0,"TOWNNAME":"南區","LI":"新興里","LIN":"5鄰","STREET":"健康路","SECT":"二段","MAREA":" ","LANE":" ","ALLEY":" ","HOUSE_NO":"６６號","E_COORD97":167549.60999999999,"N_COORD97":2542475.5600000001,"ADDRESS":"健康路二段６６號","OBJECTID":480237},"geometry":{"x":167549.61000000034,"y":2542475.5600000024}},{"attributes":{"ID":480263,"DIS_CODE":0,"TOWNNAME":"南區","LI":"新興里","LIN":"5鄰","STREET":"健康路","SECT":"二段","MAREA":" ","LANE":" ","ALLEY":" ","HOUSE_NO":"６８號","E_COORD97":167546.66,"N_COORD97":2542475.48,"ADDRESS":"健康路二段６８號","OBJECTID":480238},"geometry":{"x":167546.66000000108,"y":2542475.4800000042}},{"attributes":{"ID":480264,"DIS_CODE":0,"TOWNNAME":"南區","LI":"新興里","LIN":"5鄰","STREET":"健康路","SECT":"二段","MAREA":" ","LANE":" ","ALLEY":" ","HOUSE_NO":"７０號","E_COORD97":167543.88,"N_COORD97":2542475.5600000001,"ADDRESS":"健康路二段７０號","OBJECTID":480239},"geometry":{"x":167543.87999999989,"y":2542475.5600000024}},{"attributes":{"ID":480265,"DIS_CODE":0,"TOWNNAME":"南區","LI":"新興里","LIN":"5鄰","STREET":"健康路","SECT":"二段","MAREA":" ","LANE":" ","ALLEY":" ","HOUSE_NO":"７２號","E_COORD97":167541.17999999999,"N_COORD97":2542475.6499999999,"ADDRESS":"健康路二段７２號","OBJECTID":480240},"geometry":{"x":167541.18000000063,"y":2542475.6500000022}},{"attributes":{"ID":480266,"DIS_CODE":0,"TOWNNAME":"南區","LI":"新興里","LIN":"5鄰","STREET":"健康路","SECT":"二段","MAREA":" ","LANE":" ","ALLEY":" ","HOUSE_NO":"７６號","E_COORD97":167538.39999999999,"N_COORD97":2542475.5600000001,"ADDRESS":"健康路二段７６號","OBJECTID":480241},"geometry":{"x":167538.4000000013,"y":2542475.5600000024}},{"attributes":{"ID":480267,"DIS_CODE":0,"TOWNNAME":"南區","LI":"新興里","LIN":"5鄰","STREET":"健康路","SECT":"二段","MAREA":" ","LANE":" ","ALLEY":" ","HOUSE_NO":"７８號","E_COORD97":167535.87,"N_COORD97":2542475.5600000001,"ADDRESS":"健康路二段７８號","OBJECTID":480242},"geometry":{"x":167535.87000000011,"y":2542475.5600000024}},{"attributes":{"ID":480268,"DIS_CODE":0,"TOWNNAME":"南區","LI":"新興里","LIN":"5鄰","STREET":"健康路","SECT":"二段","MAREA":" ","LANE":" ","ALLEY":" ","HOUSE_NO":"８０號","E_COORD97":167531.98999999999,"N_COORD97":2542475.98,"ADDRESS":"健康路二段８０號","OBJECTID":480243},"geometry":{"x":167531.99000000022,"y":2542475.9800000023}},{"attributes":{"ID":480269,"DIS_CODE":0,"TOWNNAME":"南區","LI":"新興里","LIN":"5鄰","STREET":"健康路","SECT":"二段","MAREA":" ","LANE":" ","ALLEY":" ","HOUSE_NO":"８２號","E_COORD97":167526.60000000001,"N_COORD97":2542475.98,"ADDRESS":"健康路二段８２號","OBJECTID":480244},"geometry":{"x":167526.59999999963,"y":2542475.9800000023}},{"attributes":{"ID":480270,"DIS_CODE":0,"TOWNNAME":"南區","LI":"新興里","LIN":"5鄰","STREET":"健康路","SECT":"二段","MAREA":" ","LANE":" ","ALLEY":" ","HOUSE_NO":"８４號","E_COORD97":167520.78,"N_COORD97":2542473.8799999999,"ADDRESS":"健康路二段８４號","OBJECTID":480245},"geometry":{"x":167520.78000000119,"y":2542473.879999999}},{"attributes":{"ID":480271,"DIS_CODE":0,"TOWNNAME":"南區","LI":"新興里","LIN":"5鄰","STREET":"健康路","SECT":"二段","MAREA":" ","LANE":" ","ALLEY":" ","HOUSE_NO":"８６號","E_COORD97":167515.22,"N_COORD97":2542474.2999999998,"ADDRESS":"健康路二段８６號","OBJECTID":480246},"geometry":{"x":167515.22000000067,"y":2542474.3000000026}},{"attributes":{"ID":480272,"DIS_CODE":0,"TOWNNAME":"南區","LI":"新興里","LIN":"5鄰","STREET":"健康路","SECT":"二段","MAREA":" ","LANE":" ","ALLEY":" ","HOUSE_NO":"８８號","E_COORD97":167510.16,"N_COORD97":2542474.1299999999,"ADDRESS":"健康路二段８８號","OBJECTID":480247},"geometry":{"x":167510.16000000015,"y":2542474.1300000008}},{"attributes":{"ID":480273,"DIS_CODE":0,"TOWNNAME":"南區","LI":"新興里","LIN":"5鄰","STREET":"健康路","SECT":"二段","MAREA":" ","LANE":" ","ALLEY":" ","HOUSE_NO":"９０號","E_COORD97":167504.51000000001,"N_COORD97":2542474.3799999999,"ADDRESS":"健康路二段９０號","OBJECTID":480248},"geometry":{"x":167504.51000000164,"y":2542474.3799999971}},{"attributes":{"ID":480274,"DIS_CODE":0,"TOWNNAME":"東區","LI":"仁和里","LIN":"26鄰","STREET":"利東街","SECT":" ","MAREA":" ","LANE":" ","ALLEY":" ","HOUSE_NO":"７５號七樓","E_COORD97":171677.73000000001,"N_COORD97":2541068.75,"ADDRESS":"利東街７５號七樓","OBJECTID":480249},"geometry":{"x":171677.73000000138,"y":2541068.75}},{"attributes":{"ID":480275,"DIS_CODE":0,"TOWNNAME":"北區","LI":"文元里","LIN":"26鄰","STREET":"文賢三街","SECT":" ","MAREA":" ","LANE":" ","ALLEY":" ","HOUSE_NO":"２６１號","E_COORD97":167800.73000000001,"N_COORD97":2546117.5499999998,"ADDRESS":"文賢三街２６１號","OBJECTID":480250},"geometry":{"x":167800.73000000138,"y":2546117.5500000026}},{"attributes":{"ID":480276,"DIS_CODE":0,"TOWNNAME":"北區","LI":"文元里","LIN":"26鄰","STREET":"文賢三街","SECT":" ","MAREA":" ","LANE":" ","ALLEY":" ","HOUSE_NO":"２９５號","E_COORD97":167795.82000000001,"N_COORD97":2546154.2000000002,"ADDRESS":"文賢三街２９５號","OBJECTID":480251},"geometry":{"x":167795.8200000003,"y":2546154.1999999993}},{"attributes":{"ID":480277,"DIS_CODE":0,"TOWNNAME":"北區","LI":"和順里","LIN":"26鄰","STREET":"民德路","SECT":" ","MAREA":" ","LANE":" ","ALLEY":" ","HOUSE_NO":"４６號","E_COORD97":168215.64000000001,"N_COORD97":2545182.9500000002,"ADDRESS":"民德路４６號","OBJECTID":480252},"geometry":{"x":168215.6400000006,"y":2545182.9499999993}},{"attributes":{"ID":480278,"DIS_CODE":0,"TOWNNAME":"北區","LI":"和順里","LIN":"26鄰","STREET":"民德路","SECT":" ","MAREA":" ","LANE":" ","ALLEY":" ","HOUSE_NO":"３８號","E_COORD97":168230.75,"N_COORD97":2545172.5699999998,"ADDRESS":"民德路３８號","OBJECTID":480253},"geometry":{"x":168230.75000000093,"y":2545172.5700000003}},{"attributes":{"ID":480279,"DIS_CODE":0,"TOWNNAME":"北區","LI":"和順里","LIN":"26鄰","STREET":"民德路","SECT":" ","MAREA":" ","LANE":" ","ALLEY":" ","HOUSE_NO":"４０號","E_COORD97":168226.22,"N_COORD97":2545174.46,"ADDRESS":"民德路４０號","OBJECTID":480254},"geometry":{"x":168226.21999999974,"y":2545174.4600000009}},{"attributes":{"ID":480280,"DIS_CODE":0,"TOWNNAME":"北區","LI":"和順里","LIN":"26鄰","STREET":"民德路","SECT":" ","MAREA":" ","LANE":" ","ALLEY":" ","HOUSE_NO":"４２號","E_COORD97":168222.63,"N_COORD97":2545178.04,"ADDRESS":"民德路４２號","OBJECTID":480255},"geometry":{"x":168222.63000000082,"y":2545178.0399999991}},{"attributes":{"ID":480281,"DIS_CODE":0,"TOWNNAME":"北區","LI":"和順里","LIN":"26鄰","STREET":"民德路","SECT":" ","MAREA":" ","LANE":" ","ALLEY":" ","HOUSE_NO":"６０號","E_COORD97":168186.29999999999,"N_COORD97":2545203.71,"ADDRESS":"民德路６０號","OBJECTID":480256},"geometry":{"x":168186.30000000075,"y":2545203.7100000046}},{"attributes":{"ID":480282,"DIS_CODE":0,"TOWNNAME":"北區","LI":"和順里","LIN":"26鄰","STREET":"民德路","SECT":" ","MAREA":" ","LANE":" ","ALLEY":" ","HOUSE_NO":"６２號","E_COORD97":168181.34,"N_COORD97":2545206.29,"ADDRESS":"民德路６２號","OBJECTID":480257},"geometry":{"x":168181.33999999985,"y":2545206.2899999991}},{"attributes":{"ID":480283,"DIS_CODE":0,"TOWNNAME":"北區","LI":"和順里","LIN":"26鄰","STREET":"民德路","SECT":" ","MAREA":" ","LANE":" ","ALLEY":" ","HOUSE_NO":"６４號","E_COORD97":168177.89000000001,"N_COORD97":2545209.0899999999,"ADDRESS":"民德路６４號","OBJECTID":480258},"geometry":{"x":168177.88999999966,"y":2545209.0899999999}},{"attributes":{"ID":480284,"DIS_CODE":0,"TOWNNAME":"北區","LI":"和順里","LIN":"26鄰","STREET":"民德路","SECT":" ","MAREA":" ","LANE":" ","ALLEY":" ","HOUSE_NO":"６６號","E_COORD97":168173.79000000001,"N_COORD97":2545212.75,"ADDRESS":"民德路６６號","OBJECTID":480259},"geometry":{"x":168173.79000000004,"y":2545212.7500000037}},{"attributes":{"ID":480285,"DIS_CODE":0,"TOWNNAME":"北區","LI":"和順里","LIN":"26鄰","STREET":"民德路","SECT":" ","MAREA":" ","LANE":" ","ALLEY":" ","HOUSE_NO":"６８號","E_COORD97":168169.69,"N_COORD97":2545215.3399999999,"ADDRESS":"民德路６８號","OBJECTID":480260},"geometry":{"x":168169.69000000041,"y":2545215.3400000036}},{"attributes":{"ID":480286,"DIS_CODE":0,"TOWNNAME":"北區","LI":"和順里","LIN":"26鄰","STREET":"民德路","SECT":" ","MAREA":" ","LANE":" ","ALLEY":" ","HOUSE_NO":"７０號","E_COORD97":168165.60000000001,"N_COORD97":2545218.3599999999,"ADDRESS":"民德路７０號","OBJECTID":480261},"geometry":{"x":168165.60000000056,"y":2545218.3600000013}},{"attributes":{"ID":480287,"DIS_CODE":0,"TOWNNAME":"北區","LI":"和順里","LIN":"26鄰","STREET":"民德路","SECT":" ","MAREA":" ","LANE":" ","ALLEY":" ","HOUSE_NO":"７２號","E_COORD97":168162.14999999999,"N_COORD97":2545221.7999999998,"ADDRESS":"民德路７２號","OBJECTID":480262},"geometry":{"x":168162.1500000013,"y":2545221.8000000007}},{"attributes":{"ID":480288,"DIS_CODE":0,"TOWNNAME":"北區","LI":"和順里","LIN":"26鄰","STREET":"民德路","SECT":" ","MAREA":" ","LANE":" ","ALLEY":" ","HOUSE_NO":"７４號","E_COORD97":168158.70000000001,"N_COORD97":2545223.52,"ADDRESS":"民德路７４號","OBJECTID":480263},"geometry":{"x":168158.70000000112,"y":2545223.5199999996}},{"attributes":{"ID":480289,"DIS_CODE":0,"TOWNNAME":"北區","LI":"和順里","LIN":"26鄰","STREET":"民德路","SECT":" ","MAREA":" ","LANE":" ","ALLEY":" ","HOUSE_NO":"７６號","E_COORD97":168154.17000000001,"N_COORD97":2545226.9700000002,"ADDRESS":"民德路７６號","OBJECTID":480264},"geometry":{"x":168154.16999999993,"y":2545226.9700000025}},{"attributes":{"ID":480290,"DIS_CODE":0,"TOWNNAME":"北區","LI":"和順里","LIN":"26鄰","STREET":"民德路","SECT":" ","MAREA":" ","LANE":" ","ALLEY":" ","HOUSE_NO":"７８號","E_COORD97":168149.85999999999,"N_COORD97":2545229.9900000002,"ADDRESS":"民德路７８號","OBJECTID":480265},"geometry":{"x":168149.86000000034,"y":2545229.9900000002}},{"attributes":{"ID":480291,"DIS_CODE":0,"TOWNNAME":"東區","LI":"成大里","LIN":"26鄰","STREET":"育樂街","SECT":" ","MAREA":" ","LANE":" ","ALLEY":" ","HOUSE_NO":"７０號六樓","E_COORD97":169590.22,"N_COORD97":2544047.7400000002,"ADDRESS":"育樂街７０號六樓","OBJECTID":480266},"geometry":{"x":169590.22000000067,"y":2544047.7400000021}},{"attributes":{"ID":480292,"DIS_CODE":0,"TOWNNAME":"東區","LI":"大智里","LIN":"26鄰","STREET":"德東街","SECT":" ","MAREA":" ","LANE":" ","ALLEY":" ","HOUSE_NO":"２１０號六樓之１","E_COORD97":171363.01000000001,"N_COORD97":2540246.9900000002,"ADDRESS":"德東街２１０號六樓之１","OBJECTID":480267},"geometry":{"x":171363.01000000071,"y":2540246.9900000002}},{"attributes":{"ID":480293,"DIS_CODE":0,"TOWNNAME":"東區","LI":"大智里","LIN":"26鄰","STREET":"德東街","SECT":" ","MAREA":" ","LANE":" ","ALLEY":" ","HOUSE_NO":"２１０號六樓之２","E_COORD97":171363.01000000001,"N_COORD97":2540246.9900000002,"ADDRESS":"德東街２１０號六樓之２","OBJECTID":480268},"geometry":{"x":171363.01000000071,"y":2540246.9900000002}},{"attributes":{"ID":480294,"DIS_CODE":0,"TOWNNAME":"東區","LI":"大智里","LIN":"26鄰","STREET":"德東街","SECT":" ","MAREA":" ","LANE":" ","ALLEY":" ","HOUSE_NO":"２１０號六樓之３","E_COORD97":171363.01000000001,"N_COORD97":2540246.9900000002,"ADDRESS":"德東街２１０號六樓之３","OBJECTID":480269},"geometry":{"x":171363.01000000071,"y":2540246.9900000002}},{"attributes":{"ID":480295,"DIS_CODE":0,"TOWNNAME":"東區","LI":"大智里","LIN":"26鄰","STREET":"德東街","SECT":" ","MAREA":" ","LANE":" ","ALLEY":" ","HOUSE_NO":"２１０號六樓之４","E_COORD97":171363.01000000001,"N_COORD97":2540246.9900000002,"ADDRESS":"德東街２１０號六樓之４","OBJECTID":480270},"geometry":{"x":171363.01000000071,"y":2540246.9900000002}},{"attributes":{"ID":480296,"DIS_CODE":0,"TOWNNAME":"東區","LI":"大智里","LIN":"26鄰","STREET":"德東街","SECT":" ","MAREA":" ","LANE":" ","ALLEY":" ","HOUSE_NO":"２１０號四樓","E_COORD97":171363.01000000001,"N_COORD97":2540246.9900000002,"ADDRESS":"德東街２１０號四樓","OBJECTID":480271},"geometry":{"x":171363.01000000071,"y":2540246.9900000002}},{"attributes":{"ID":480297,"DIS_CODE":0,"TOWNNAME":"東區","LI":"大智里","LIN":"26鄰","STREET":"德東街","SECT":" ","MAREA":" ","LANE":" ","ALLEY":" ","HOUSE_NO":"２１０號四樓之１","E_COORD97":171363.01000000001,"N_COORD97":2540246.9900000002,"ADDRESS":"德東街２１０號四樓之１","OBJECTID":480272},"geometry":{"x":171363.01000000071,"y":2540246.9900000002}},{"attributes":{"ID":480298,"DIS_CODE":0,"TOWNNAME":"東區","LI":"大智里","LIN":"26鄰","STREET":"德東街","SECT":" ","MAREA":" ","LANE":" ","ALLEY":" ","HOUSE_NO":"２１０號四樓之２","E_COORD97":171363.01000000001,"N_COORD97":2540246.9900000002,"ADDRESS":"德東街２１０號四樓之２","OBJECTID":480273},"geometry":{"x":171363.01000000071,"y":2540246.9900000002}},{"attributes":{"ID":480299,"DIS_CODE":0,"TOWNNAME":"東區","LI":"大智里","LIN":"26鄰","STREET":"德東街","SECT":" ","MAREA":" ","LANE":" ","ALLEY":" ","HOUSE_NO":"２１０號四樓之３","E_COORD97":171363.01000000001,"N_COORD97":2540246.9900000002,"ADDRESS":"德東街２１０號四樓之３","OBJECTID":480274},"geometry":{"x":171363.01000000071,"y":2540246.9900000002}},{"attributes":{"ID":480300,"DIS_CODE":0,"TOWNNAME":"東區","LI":"大智里","LIN":"26鄰","STREET":"德東街","SECT":" ","MAREA":" ","LANE":" ","ALLEY":" ","HOUSE_NO":"２１０號四樓之４","E_COORD97":171363.01000000001,"N_COORD97":2540246.9900000002,"ADDRESS":"德東街２１０號四樓之４","OBJECTID":480275},"geometry":{"x":171363.01000000071,"y":2540246.9900000002}},{"attributes":{"ID":480301,"DIS_CODE":0,"TOWNNAME":"東區","LI":"大智里","LIN":"26鄰","STREET":"德東街","SECT":" ","MAREA":" ","LANE":" ","ALLEY":" ","HOUSE_NO":"２１０號四樓之５","E_COORD97":171363.01000000001,"N_COORD97":2540246.9900000002,"ADDRESS":"德東街２１０號四樓之５","OBJECTID":480276},"geometry":{"x":171363.01000000071,"y":2540246.9900000002}},{"attributes":{"ID":480302,"DIS_CODE":0,"TOWNNAME":"東區","LI":"大智里","LIN":"26鄰","STREET":"德東街","SECT":" ","MAREA":" ","LANE":" ","ALLEY":" ","HOUSE_NO":"２１０號四樓之６","E_COORD97":171363.01000000001,"N_COORD97":2540246.9900000002,"ADDRESS":"德東街２１０號四樓之６","OBJECTID":480277},"geometry":{"x":171363.01000000071,"y":2540246.9900000002}},{"attributes":{"ID":480303,"DIS_CODE":0,"TOWNNAME":"東區","LI":"大智里","LIN":"26鄰","STREET":"德東街","SECT":" ","MAREA":" ","LANE":" ","ALLEY":" ","HOUSE_NO":"２１０號五樓之１","E_COORD97":171363.01000000001,"N_COORD97":2540246.9900000002,"ADDRESS":"德東街２１０號五樓之１","OBJECTID":480278},"geometry":{"x":171363.01000000071,"y":2540246.9900000002}},{"attributes":{"ID":480304,"DIS_CODE":0,"TOWNNAME":"東區","LI":"大智里","LIN":"26鄰","STREET":"德東街","SECT":" ","MAREA":" ","LANE":" ","ALLEY":" ","HOUSE_NO":"２１０號七樓之３","E_COORD97":171363.01000000001,"N_COORD97":2540246.9900000002,"ADDRESS":"德東街２１０號七樓之３","OBJECTID":480279},"geometry":{"x":171363.01000000071,"y":2540246.9900000002}},{"attributes":{"ID":480305,"DIS_CODE":0,"TOWNNAME":"東區","LI":"大智里","LIN":"26鄰","STREET":"德東街","SECT":" ","MAREA":" ","LANE":" ","ALLEY":" ","HOUSE_NO":"２１０號六樓之５","E_COORD97":171363.01000000001,"N_COORD97":2540246.9900000002,"ADDRESS":"德東街２１０號六樓之５","OBJECTID":480280},"geometry":{"x":171363.01000000071,"y":2540246.9900000002}},{"attributes":{"ID":480306,"DIS_CODE":0,"TOWNNAME":"永康區","LI":"網寮里","LIN":"26鄰","STREET":"永興路","SECT":" ","MAREA":" ","LANE":" ","ALLEY":" ","HOUSE_NO":"１０７號十二樓之２","E_COORD97":173911.73000000001,"N_COORD97":2546555.3900000001,"ADDRESS":"永興路１０７號十二樓之２","OBJECTID":480281},"geometry":{"x":173911.73000000138,"y":2546555.3900000025}},{"attributes":{"ID":480307,"DIS_CODE":0,"TOWNNAME":"永康區","LI":"復國里","LIN":"26鄰","STREET":"復華三街","SECT":" ","MAREA":" ","LANE":" ","ALLEY":" ","HOUSE_NO":"６４號六樓之３","E_COORD97":172719.72,"N_COORD97":2545600.2999999998,"ADDRESS":"復華三街６４號六樓之３","OBJECTID":480282},"geometry":{"x":172719.72000000067,"y":2545600.3000000026}},{"attributes":{"ID":480308,"DIS_CODE":0,"TOWNNAME":"永康區","LI":"復國里","LIN":"26鄰","STREET":"復華三街","SECT":" ","MAREA":" ","LANE":" ","ALLEY":" ","HOUSE_NO":"６４號十二樓之６","E_COORD97":172720.98000000001,"N_COORD97":2545600.2999999998,"ADDRESS":"復華三街６４號十二樓之６","OBJECTID":480283},"geometry":{"x":172720.98000000045,"y":2545600.3000000026}},{"attributes":{"ID":480309,"DIS_CODE":0,"TOWNNAME":"東區","LI":"大智里","LIN":"26鄰","STREET":"德東街","SECT":" ","MAREA":" ","LANE":" ","ALLEY":" ","HOUSE_NO":"２１０號六樓之６","E_COORD97":171363.01000000001,"N_COORD97":2540246.9900000002,"ADDRESS":"德東街２１０號六樓之６","OBJECTID":480284},"geometry":{"x":171363.01000000071,"y":2540246.9900000002}},{"attributes":{"ID":480310,"DIS_CODE":0,"TOWNNAME":"東區","LI":"崇善里","LIN":"26鄰","STREET":"崇善十三街","SECT":" ","MAREA":" ","LANE":" ","ALLEY":" ","HOUSE_NO":"８號三樓","E_COORD97":171231.17999999999,"N_COORD97":2540973.6200000001,"ADDRESS":"崇善十三街８號三樓","OBJECTID":480285},"geometry":{"x":171231.18000000063,"y":2540973.6200000029}},{"attributes":{"ID":480311,"DIS_CODE":0,"TOWNNAME":"東區","LI":"崇善里","LIN":"26鄰","STREET":"崇善十三街","SECT":" ","MAREA":" ","LANE":" ","ALLEY":" ","HOUSE_NO":"８號四樓","E_COORD97":171231.17999999999,"N_COORD97":2540973.6200000001,"ADDRESS":"崇善十三街８號四樓","OBJECTID":480286},"geometry":{"x":171231.18000000063,"y":2540973.6200000029}},{"attributes":{"ID":480312,"DIS_CODE":0,"TOWNNAME":"東區","LI":"崇善里","LIN":"26鄰","STREET":"崇善十三街","SECT":" ","MAREA":" ","LANE":" ","ALLEY":" ","HOUSE_NO":"８號五樓","E_COORD97":171231.17999999999,"N_COORD97":2540973.6200000001,"ADDRESS":"崇善十三街８號五樓","OBJECTID":480287},"geometry":{"x":171231.18000000063,"y":2540973.6200000029}},{"attributes":{"ID":480313,"DIS_CODE":0,"TOWNNAME":"東區","LI":"崇善里","LIN":"26鄰","STREET":"崇善十三街","SECT":" ","MAREA":" ","LANE":" ","ALLEY":" ","HOUSE_NO":"８號六樓","E_COORD97":171231.17999999999,"N_COORD97":2540973.6200000001,"ADDRESS":"崇善十三街８號六樓","OBJECTID":480288},"geometry":{"x":171231.18000000063,"y":2540973.6200000029}},{"attributes":{"ID":480314,"DIS_CODE":0,"TOWNNAME":"東區","LI":"崇善里","LIN":"26鄰","STREET":"崇善十三街","SECT":" ","MAREA":" ","LANE":" ","ALLEY":" ","HOUSE_NO":"８號七樓","E_COORD97":171231.17999999999,"N_COORD97":2540973.6200000001,"ADDRESS":"崇善十三街８號七樓","OBJECTID":480289},"geometry":{"x":171231.18000000063,"y":2540973.6200000029}},{"attributes":{"ID":480315,"DIS_CODE":0,"TOWNNAME":"東區","LI":"崇善里","LIN":"26鄰","STREET":"崇善十三街","SECT":" ","MAREA":" ","LANE":" ","ALLEY":" ","HOUSE_NO":"１０號二樓","E_COORD97":171233.01999999999,"N_COORD97":2540968.3799999999,"ADDRESS":"崇善十三街１０號二樓","OBJECTID":480290},"geometry":{"x":171233.01999999955,"y":2540968.379999999}},{"attributes":{"ID":480316,"DIS_CODE":0,"TOWNNAME":"東區","LI":"崇善里","LIN":"26鄰","STREET":"崇善十三街","SECT":" ","MAREA":" ","LANE":" ","ALLEY":" ","HOUSE_NO":"１０號三樓","E_COORD97":171233.01999999999,"N_COORD97":2540968.3799999999,"ADDRESS":"崇善十三街１０號三樓","OBJECTID":480291},"geometry":{"x":171233.01999999955,"y":2540968.379999999}},{"attributes":{"ID":480317,"DIS_CODE":0,"TOWNNAME":"東區","LI":"崇善里","LIN":"26鄰","STREET":"崇善十三街","SECT":" ","MAREA":" ","LANE":" ","ALLEY":" ","HOUSE_NO":"１０號四樓","E_COORD97":171233.01999999999,"N_COORD97":2540968.3799999999,"ADDRESS":"崇善十三街１０號四樓","OBJECTID":480292},"geometry":{"x":171233.01999999955,"y":2540968.379999999}},{"attributes":{"ID":480318,"DIS_CODE":0,"TOWNNAME":"東區","LI":"成大里","LIN":"26鄰","STREET":"育樂街","SECT":" ","MAREA":" ","LANE":" ","ALLEY":" ","HOUSE_NO":"７０號四樓","E_COORD97":169590.22,"N_COORD97":2544047.7400000002,"ADDRESS":"育樂街７０號四樓","OBJECTID":480293},"geometry":{"x":169590.22000000067,"y":2544047.7400000021}},{"attributes":{"ID":480319,"DIS_CODE":0,"TOWNNAME":"東區","LI":"崇善里","LIN":"26鄰","STREET":"崇善十三街","SECT":" ","MAREA":" ","LANE":" ","ALLEY":" ","HOUSE_NO":"１０號五樓","E_COORD97":171233.01999999999,"N_COORD97":2540968.3799999999,"ADDRESS":"崇善十三街１０號五樓","OBJECTID":480294},"geometry":{"x":171233.01999999955,"y":2540968.379999999}},{"attributes":{"ID":480320,"DIS_CODE":0,"TOWNNAME":"東區","LI":"崇善里","LIN":"26鄰","STREET":"崇善十三街","SECT":" ","MAREA":" ","LANE":" ","ALLEY":" ","HOUSE_NO":"１０號六樓","E_COORD97":171233.01999999999,"N_COORD97":2540968.3799999999,"ADDRESS":"崇善十三街１０號六樓","OBJECTID":480295},"geometry":{"x":171233.01999999955,"y":2540968.379999999}},{"attributes":{"ID":480321,"DIS_CODE":0,"TOWNNAME":"東區","LI":"崇善里","LIN":"26鄰","STREET":"崇善十三街","SECT":" ","MAREA":" ","LANE":" ","ALLEY":" ","HOUSE_NO":"１０號七樓","E_COORD97":171233.01999999999,"N_COORD97":2540968.3799999999,"ADDRESS":"崇善十三街１０號七樓","OBJECTID":480296},"geometry":{"x":171233.01999999955,"y":2540968.379999999}},{"attributes":{"ID":480322,"DIS_CODE":0,"TOWNNAME":"東區","LI":"崇善里","LIN":"26鄰","STREET":"崇善十三街","SECT":" ","MAREA":" ","LANE":" ","ALLEY":" ","HOUSE_NO":"１２號二樓","E_COORD97":171239.29999999999,"N_COORD97":2540962.6299999999,"ADDRESS":"崇善十三街１２號二樓","OBJECTID":480297},"geometry":{"x":171239.30000000075,"y":2540962.629999999}},{"attributes":{"ID":480323,"DIS_CODE":0,"TOWNNAME":"東區","LI":"崇善里","LIN":"26鄰","STREET":"崇善十三街","SECT":" ","MAREA":" ","LANE":" ","ALLEY":" ","HOUSE_NO":"１２號三樓","E_COORD97":171239.29999999999,"N_COORD97":2540962.6299999999,"ADDRESS":"崇善十三街１２號三樓","OBJECTID":480298},"geometry":{"x":171239.30000000075,"y":2540962.629999999}},{"attributes":{"ID":480324,"DIS_CODE":0,"TOWNNAME":"東區","LI":"崇善里","LIN":"26鄰","STREET":"崇善十三街","SECT":" ","MAREA":" ","LANE":" ","ALLEY":" ","HOUSE_NO":"１２號五樓","E_COORD97":171239.29999999999,"N_COORD97":2540962.6299999999,"ADDRESS":"崇善十三街１２號五樓","OBJECTID":480299},"geometry":{"x":171239.30000000075,"y":2540962.629999999}},{"attributes":{"ID":480325,"DIS_CODE":0,"TOWNNAME":"東區","LI":"崇善里","LIN":"26鄰","STREET":"崇善十三街","SECT":" ","MAREA":" ","LANE":" ","ALLEY":" ","HOUSE_NO":"１２號六樓","E_COORD97":171239.29999999999,"N_COORD97":2540962.6299999999,"ADDRESS":"崇善十三街１２號六樓","OBJECTID":480300},"geometry":{"x":171239.30000000075,"y":2540962.629999999}},{"attributes":{"ID":480326,"DIS_CODE":0,"TOWNNAME":"東區","LI":"崇善里","LIN":"26鄰","STREET":"崇善十三街","SECT":" ","MAREA":" ","LANE":" ","ALLEY":" ","HOUSE_NO":"２號八樓","E_COORD97":171218.76000000001,"N_COORD97":2540963.1699999999,"ADDRESS":"崇善十三街２號八樓","OBJECTID":480301},"geometry":{"x":171218.76000000071,"y":2540963.1700000018}},{"attributes":{"ID":480327,"DIS_CODE":0,"TOWNNAME":"東區","LI":"崇善里","LIN":"26鄰","STREET":"崇善十三街","SECT":" ","MAREA":" ","LANE":" ","ALLEY":" ","HOUSE_NO":"１２號七樓","E_COORD97":171239.29999999999,"N_COORD97":2540962.6299999999,"ADDRESS":"崇善十三街１２號七樓","OBJECTID":480302},"geometry":{"x":171239.30000000075,"y":2540962.629999999}},{"attributes":{"ID":480328,"DIS_CODE":0,"TOWNNAME":"東區","LI":"崇善里","LIN":"26鄰","STREET":"崇善十三街","SECT":" ","MAREA":" ","LANE":" ","ALLEY":" ","HOUSE_NO":"１４號二樓","E_COORD97":171252.39999999999,"N_COORD97":2540968.6400000001,"ADDRESS":"崇善十三街１４號二樓","OBJECTID":480303},"geometry":{"x":171252.4000000013,"y":2540968.6400000006}},{"attributes":{"ID":480329,"DIS_CODE":0,"TOWNNAME":"東區","LI":"崇善里","LIN":"26鄰","STREET":"崇善十三街","SECT":" ","MAREA":" ","LANE":" ","ALLEY":" ","HOUSE_NO":"１４號三樓","E_COORD97":171252.39999999999,"N_COORD97":2540968.6400000001,"ADDRESS":"崇善十三街１４號三樓","OBJECTID":480304},"geometry":{"x":171252.4000000013,"y":2540968.6400000006}},{"attributes":{"ID":480330,"DIS_CODE":0,"TOWNNAME":"東區","LI":"崇善里","LIN":"26鄰","STREET":"崇善十三街","SECT":" ","MAREA":" ","LANE":" ","ALLEY":" ","HOUSE_NO":"１４號四樓","E_COORD97":171252.39999999999,"N_COORD97":2540968.6400000001,"ADDRESS":"崇善十三街１４號四樓","OBJECTID":480305},"geometry":{"x":171252.4000000013,"y":2540968.6400000006}},{"attributes":{"ID":480331,"DIS_CODE":0,"TOWNNAME":"東區","LI":"崇善里","LIN":"26鄰","STREET":"崇善十三街","SECT":" ","MAREA":" ","LANE":" ","ALLEY":" ","HOUSE_NO":"１４號五樓","E_COORD97":171252.39999999999,"N_COORD97":2540968.6400000001,"ADDRESS":"崇善十三街１４號五樓","OBJECTID":480306},"geometry":{"x":171252.4000000013,"y":2540968.6400000006}},{"attributes":{"ID":480332,"DIS_CODE":0,"TOWNNAME":"東區","LI":"崇善里","LIN":"26鄰","STREET":"崇善十三街","SECT":" ","MAREA":" ","LANE":" ","ALLEY":" ","HOUSE_NO":"１４號六樓","E_COORD97":171252.39999999999,"N_COORD97":2540968.6400000001,"ADDRESS":"崇善十三街１４號六樓","OBJECTID":480307},"geometry":{"x":171252.4000000013,"y":2540968.6400000006}},{"attributes":{"ID":480333,"DIS_CODE":0,"TOWNNAME":"東區","LI":"崇善里","LIN":"26鄰","STREET":"崇善十三街","SECT":" ","MAREA":" ","LANE":" ","ALLEY":" ","HOUSE_NO":"１４號七樓","E_COORD97":171252.39999999999,"N_COORD97":2540968.6400000001,"ADDRESS":"崇善十三街１４號七樓","OBJECTID":480308},"geometry":{"x":171252.4000000013,"y":2540968.6400000006}},{"attributes":{"ID":480334,"DIS_CODE":0,"TOWNNAME":"東區","LI":"崇善里","LIN":"26鄰","STREET":"崇善十三街","SECT":" ","MAREA":" ","LANE":" ","ALLEY":" ","HOUSE_NO":"１６號二樓","E_COORD97":171248.47,"N_COORD97":2540977.54,"ADDRESS":"崇善十三街１６號二樓","OBJECTID":480309},"geometry":{"x":171248.46999999974,"y":2540977.5399999991}},{"attributes":{"ID":480335,"DIS_CODE":0,"TOWNNAME":"東區","LI":"崇善里","LIN":"26鄰","STREET":"崇善十三街","SECT":" ","MAREA":" ","LANE":" ","ALLEY":" ","HOUSE_NO":"１６號三樓","E_COORD97":171248.47,"N_COORD97":2540977.54,"ADDRESS":"崇善十三街１６號三樓","OBJECTID":480310},"geometry":{"x":171248.46999999974,"y":2540977.5399999991}},{"attributes":{"ID":480336,"DIS_CODE":0,"TOWNNAME":"東區","LI":"崇善里","LIN":"26鄰","STREET":"崇善十三街","SECT":" ","MAREA":" ","LANE":" ","ALLEY":" ","HOUSE_NO":"１６號四樓","E_COORD97":171248.47,"N_COORD97":2540977.54,"ADDRESS":"崇善十三街１６號四樓","OBJECTID":480311},"geometry":{"x":171248.46999999974,"y":2540977.5399999991}},{"attributes":{"ID":480337,"DIS_CODE":0,"TOWNNAME":"東區","LI":"崇善里","LIN":"26鄰","STREET":"崇善十三街","SECT":" ","MAREA":" ","LANE":" ","ALLEY":" ","HOUSE_NO":"１６號五樓","E_COORD97":171248.47,"N_COORD97":2540977.54,"ADDRESS":"崇善十三街１６號五樓","OBJECTID":480312},"geometry":{"x":171248.46999999974,"y":2540977.5399999991}},{"attributes":{"ID":480338,"DIS_CODE":0,"TOWNNAME":"東區","LI":"崇善里","LIN":"26鄰","STREET":"崇善十三街","SECT":" ","MAREA":" ","LANE":" ","ALLEY":" ","HOUSE_NO":"１６號六樓","E_COORD97":171248.47,"N_COORD97":2540977.54,"ADDRESS":"崇善十三街１６號六樓","OBJECTID":480313},"geometry":{"x":171248.46999999974,"y":2540977.5399999991}},{"attributes":{"ID":480339,"DIS_CODE":0,"TOWNNAME":"東區","LI":"崇善里","LIN":"26鄰","STREET":"崇善十三街","SECT":" ","MAREA":" ","LANE":" ","ALLEY":" ","HOUSE_NO":"１６號七樓","E_COORD97":171248.47,"N_COORD97":2540977.54,"ADDRESS":"崇善十三街１６號七樓","OBJECTID":480314},"geometry":{"x":171248.46999999974,"y":2540977.5399999991}},{"attributes":{"ID":480340,"DIS_CODE":0,"TOWNNAME":"仁德區","LI":"成功里","LIN":"26鄰","STREET":"成功一街","SECT":" ","MAREA":" ","LANE":" ","ALLEY":" ","HOUSE_NO":"４８號一樓","E_COORD97":170524.34,"N_COORD97":2540017.52,"ADDRESS":"成功一街４８號一樓","OBJECTID":480315},"geometry":{"x":170524.33999999985,"y":2540017.5200000014}},{"attributes":{"ID":480341,"DIS_CODE":0,"TOWNNAME":"仁德區","LI":"成功里","LIN":"26鄰","STREET":"成功一街","SECT":" ","MAREA":" ","LANE":" ","ALLEY":" ","HOUSE_NO":"４８號六樓","E_COORD97":170524.34,"N_COORD97":2540017.52,"ADDRESS":"成功一街４８號六樓","OBJECTID":480316},"geometry":{"x":170524.33999999985,"y":2540017.5200000014}},{"attributes":{"ID":480342,"DIS_CODE":0,"TOWNNAME":"仁德區","LI":"成功里","LIN":"26鄰","STREET":"成功一街","SECT":" ","MAREA":" ","LANE":" ","ALLEY":" ","HOUSE_NO":"４８號五樓","E_COORD97":170524.34,"N_COORD97":2540017.52,"ADDRESS":"成功一街４８號五樓","OBJECTID":480317},"geometry":{"x":170524.33999999985,"y":2540017.5200000014}},{"attributes":{"ID":480343,"DIS_CODE":0,"TOWNNAME":"仁德區","LI":"成功里","LIN":"26鄰","STREET":"成功一街","SECT":" ","MAREA":" ","LANE":" ","ALLEY":" ","HOUSE_NO":"４６號五樓","E_COORD97":170524.29000000001,"N_COORD97":2540026.52,"ADDRESS":"成功一街４６號五樓","OBJECTID":480318},"geometry":{"x":170524.29000000097,"y":2540026.5200000033}},{"attributes":{"ID":480344,"DIS_CODE":0,"TOWNNAME":"仁德區","LI":"成功里","LIN":"26鄰","STREET":"成功一街","SECT":" ","MAREA":" ","LANE":" ","ALLEY":" ","HOUSE_NO":"４６號四樓","E_COORD97":170524.29000000001,"N_COORD97":2540026.52,"ADDRESS":"成功一街４６號四樓","OBJECTID":480319},"geometry":{"x":170524.29000000097,"y":2540026.5200000033}},{"attributes":{"ID":480345,"DIS_CODE":0,"TOWNNAME":"東區","LI":"崇善里","LIN":"26鄰","STREET":"崇善十三街","SECT":" ","MAREA":" ","LANE":" ","ALLEY":" ","HOUSE_NO":"２號二樓之１","E_COORD97":171218.76000000001,"N_COORD97":2540963.1699999999,"ADDRESS":"崇善十三街２號二樓之１","OBJECTID":480320},"geometry":{"x":171218.76000000071,"y":2540963.1700000018}},{"attributes":{"ID":480346,"DIS_CODE":0,"TOWNNAME":"東區","LI":"崇善里","LIN":"26鄰","STREET":"崇善十三街","SECT":" ","MAREA":" ","LANE":" ","ALLEY":" ","HOUSE_NO":"２號八樓之１","E_COORD97":171218.76000000001,"N_COORD97":2540963.1699999999,"ADDRESS":"崇善十三街２號八樓之１","OBJECTID":480321},"geometry":{"x":171218.76000000071,"y":2540963.1700000018}},{"attributes":{"ID":480347,"DIS_CODE":0,"TOWNNAME":"東區","LI":"崇善里","LIN":"26鄰","STREET":"崇善十三街","SECT":" ","MAREA":" ","LANE":" ","ALLEY":" ","HOUSE_NO":"２號五樓","E_COORD97":171218.76000000001,"N_COORD97":2540963.1699999999,"ADDRESS":"崇善十三街２號五樓","OBJECTID":480322},"geometry":{"x":171218.76000000071,"y":2540963.1700000018}},{"attributes":{"ID":480348,"DIS_CODE":0,"TOWNNAME":"東區","LI":"崇善里","LIN":"26鄰","STREET":"崇善十三街","SECT":" ","MAREA":" ","LANE":" ","ALLEY":" ","HOUSE_NO":"２號六樓","E_COORD97":171218.76000000001,"N_COORD97":2540963.1699999999,"ADDRESS":"崇善十三街２號六樓","OBJECTID":480323},"geometry":{"x":171218.76000000071,"y":2540963.1700000018}},{"attributes":{"ID":480349,"DIS_CODE":0,"TOWNNAME":"東區","LI":"崇善里","LIN":"26鄰","STREET":"崇善十三街","SECT":" ","MAREA":" ","LANE":" ","ALLEY":" ","HOUSE_NO":"２號六樓之１","E_COORD97":171218.76000000001,"N_COORD97":2540963.1699999999,"ADDRESS":"崇善十三街２號六樓之１","OBJECTID":480324},"geometry":{"x":171218.76000000071,"y":2540963.1700000018}},{"attributes":{"ID":480350,"DIS_CODE":0,"TOWNNAME":"東區","LI":"崇善里","LIN":"26鄰","STREET":"崇善十三街","SECT":" ","MAREA":" ","LANE":" ","ALLEY":" ","HOUSE_NO":"２號四樓之１","E_COORD97":171218.76000000001,"N_COORD97":2540963.1699999999,"ADDRESS":"崇善十三街２號四樓之１","OBJECTID":480325},"geometry":{"x":171218.76000000071,"y":2540963.1700000018}},{"attributes":{"ID":480351,"DIS_CODE":0,"TOWNNAME":"東區","LI":"崇善里","LIN":"26鄰","STREET":"崇善十三街","SECT":" ","MAREA":" ","LANE":" ","ALLEY":" ","HOUSE_NO":"２號三樓之１","E_COORD97":171218.76000000001,"N_COORD97":2540963.1699999999,"ADDRESS":"崇善十三街２號三樓之１","OBJECTID":480326},"geometry":{"x":171218.76000000071,"y":2540963.1700000018}},{"attributes":{"ID":480352,"DIS_CODE":0,"TOWNNAME":"東區","LI":"崇善里","LIN":"26鄰","STREET":"崇善十三街","SECT":" ","MAREA":" ","LANE":" ","ALLEY":" ","HOUSE_NO":"２號五樓之１","E_COORD97":171218.76000000001,"N_COORD97":2540963.1699999999,"ADDRESS":"崇善十三街２號五樓之１","OBJECTID":480327},"geometry":{"x":171218.76000000071,"y":2540963.1700000018}},{"attributes":{"ID":480353,"DIS_CODE":0,"TOWNNAME":"東區","LI":"崇善里","LIN":"26鄰","STREET":"崇善十三街","SECT":" ","MAREA":" ","LANE":" ","ALLEY":" ","HOUSE_NO":"２號三樓","E_COORD97":171218.76000000001,"N_COORD97":2540963.1699999999,"ADDRESS":"崇善十三街２號三樓","OBJECTID":480328},"geometry":{"x":171218.76000000071,"y":2540963.1700000018}},{"attributes":{"ID":480354,"DIS_CODE":0,"TOWNNAME":"東區","LI":"崇善里","LIN":"26鄰","STREET":"崇善十三街","SECT":" ","MAREA":" ","LANE":" ","ALLEY":" ","HOUSE_NO":"２號四樓","E_COORD97":171218.76000000001,"N_COORD97":2540963.1699999999,"ADDRESS":"崇善十三街２號四樓","OBJECTID":480329},"geometry":{"x":171218.76000000071,"y":2540963.1700000018}},{"attributes":{"ID":480355,"DIS_CODE":0,"TOWNNAME":"東區","LI":"崇善里","LIN":"26鄰","STREET":"崇善十三街","SECT":" ","MAREA":" ","LANE":" ","ALLEY":" ","HOUSE_NO":"２號七樓","E_COORD97":171218.76000000001,"N_COORD97":2540963.1699999999,"ADDRESS":"崇善十三街２號七樓","OBJECTID":480330},"geometry":{"x":171218.76000000071,"y":2540963.1700000018}},{"attributes":{"ID":480356,"DIS_CODE":0,"TOWNNAME":"東區","LI":"崇善里","LIN":"26鄰","STREET":"崇善十三街","SECT":" ","MAREA":" ","LANE":" ","ALLEY":" ","HOUSE_NO":"２號七樓之１","E_COORD97":171218.76000000001,"N_COORD97":2540963.1699999999,"ADDRESS":"崇善十三街２號七樓之１","OBJECTID":480331},"geometry":{"x":171218.76000000071,"y":2540963.1700000018}},{"attributes":{"ID":480357,"DIS_CODE":0,"TOWNNAME":"東區","LI":"忠孝里","LIN":"26鄰","STREET":"林森路","SECT":"一段","MAREA":" ","LANE":" ","ALLEY":" ","HOUSE_NO":"１６０號四樓之１０","E_COORD97":169552.09,"N_COORD97":2542470.5,"ADDRESS":"林森路一段１６０號四樓之１０","OBJECTID":480332},"geometry":{"x":169552.09000000078,"y":2542470.5}},{"attributes":{"ID":480358,"DIS_CODE":0,"TOWNNAME":"東區","LI":"仁和里","LIN":"26鄰","STREET":"利東街","SECT":" ","MAREA":" ","LANE":" ","ALLEY":" ","HOUSE_NO":"５５號九樓","E_COORD97":171682.59,"N_COORD97":2541095.3199999998,"ADDRESS":"利東街５５號九樓","OBJECTID":480333},"geometry":{"x":171682.59000000171,"y":2541095.3200000003}},{"attributes":{"ID":480359,"DIS_CODE":0,"TOWNNAME":"永康區","LI":"網寮里","LIN":"26鄰","STREET":"永興路","SECT":" ","MAREA":" ","LANE":" ","ALLEY":" ","HOUSE_NO":"１０９號六樓之１","E_COORD97":173913.64000000001,"N_COORD97":2546579.6400000001,"ADDRESS":"永興路１０９號六樓之１","OBJECTID":480334},"geometry":{"x":173913.6400000006,"y":2546579.6400000006}},{"attributes":{"ID":480360,"DIS_CODE":0,"TOWNNAME":"永康區","LI":"永康里","LIN":"26鄰","STREET":"中山北路","SECT":" ","MAREA":" ","LANE":" ","ALLEY":" ","HOUSE_NO":"７２號七樓之２","E_COORD97":174077.12,"N_COORD97":2547388.7599999998,"ADDRESS":"中山北路７２號七樓之２","OBJECTID":480335},"geometry":{"x":174077.12000000011,"y":2547388.7600000035}},{"attributes":{"ID":480361,"DIS_CODE":0,"TOWNNAME":"東區","LI":"仁和里","LIN":"26鄰","STREET":"利東街","SECT":" ","MAREA":" ","LANE":" ","ALLEY":" ","HOUSE_NO":"５１號七樓","E_COORD97":171697.44,"N_COORD97":2541072.52,"ADDRESS":"利東街５１號七樓","OBJECTID":480336},"geometry":{"x":171697.44000000041,"y":2541072.5199999996}},{"attributes":{"ID":480362,"DIS_CODE":0,"TOWNNAME":"東區","LI":"仁和里","LIN":"26鄰","STREET":"利東街","SECT":" ","MAREA":" ","LANE":" ","ALLEY":" ","HOUSE_NO":"５１號七樓之１","E_COORD97":171697.44,"N_COORD97":2541072.52,"ADDRESS":"利東街５１號七樓之１","OBJECTID":480337},"geometry":{"x":171697.44000000041,"y":2541072.5199999996}},{"attributes":{"ID":480363,"DIS_CODE":0,"TOWNNAME":"東區","LI":"仁和里","LIN":"26鄰","STREET":"利東街","SECT":" ","MAREA":" ","LANE":" ","ALLEY":" ","HOUSE_NO":"５１號七樓之２","E_COORD97":171697.44,"N_COORD97":2541072.52,"ADDRESS":"利東街５１號七樓之２","OBJECTID":480338},"geometry":{"x":171697.44000000041,"y":2541072.5199999996}},{"attributes":{"ID":480364,"DIS_CODE":0,"TOWNNAME":"東區","LI":"仁和里","LIN":"26鄰","STREET":"利東街","SECT":" ","MAREA":" ","LANE":" ","ALLEY":" ","HOUSE_NO":"５１號九樓","E_COORD97":171697.44,"N_COORD97":2541072.52,"ADDRESS":"利東街５１號九樓","OBJECTID":480339},"geometry":{"x":171697.44000000041,"y":2541072.5199999996}},{"attributes":{"ID":480365,"DIS_CODE":0,"TOWNNAME":"東區","LI":"仁和里","LIN":"26鄰","STREET":"利東街","SECT":" ","MAREA":" ","LANE":" ","ALLEY":" ","HOUSE_NO":"５１號九樓之１","E_COORD97":171697.44,"N_COORD97":2541072.52,"ADDRESS":"利東街５１號九樓之１","OBJECTID":480340},"geometry":{"x":171697.44000000041,"y":2541072.5199999996}},{"attributes":{"ID":480366,"DIS_CODE":0,"TOWNNAME":"東區","LI":"仁和里","LIN":"26鄰","STREET":"利東街","SECT":" ","MAREA":" ","LANE":" ","ALLEY":" ","HOUSE_NO":"５１號九樓之２","E_COORD97":171697.44,"N_COORD97":2541072.52,"ADDRESS":"利東街５１號九樓之２","OBJECTID":480341},"geometry":{"x":171697.44000000041,"y":2541072.5199999996}},{"attributes":{"ID":480367,"DIS_CODE":0,"TOWNNAME":"東區","LI":"仁和里","LIN":"26鄰","STREET":"利東街","SECT":" ","MAREA":" ","LANE":" ","ALLEY":" ","HOUSE_NO":"５１號二樓","E_COORD97":171697.44,"N_COORD97":2541072.52,"ADDRESS":"利東街５１號二樓","OBJECTID":480342},"geometry":{"x":171697.44000000041,"y":2541072.5199999996}},{"attributes":{"ID":480368,"DIS_CODE":0,"TOWNNAME":"東區","LI":"仁和里","LIN":"26鄰","STREET":"利東街","SECT":" ","MAREA":" ","LANE":" ","ALLEY":" ","HOUSE_NO":"５１號二樓之１","E_COORD97":171697.44,"N_COORD97":2541072.52,"ADDRESS":"利東街５１號二樓之１","OBJECTID":480343},"geometry":{"x":171697.44000000041,"y":2541072.5199999996}},{"attributes":{"ID":480369,"DIS_CODE":0,"TOWNNAME":"東區","LI":"仁和里","LIN":"26鄰","STREET":"利東街","SECT":" ","MAREA":" ","LANE":" ","ALLEY":" ","HOUSE_NO":"５１號二樓之２","E_COORD97":171697.44,"N_COORD97":2541072.52,"ADDRESS":"利東街５１號二樓之２","OBJECTID":480344},"geometry":{"x":171697.44000000041,"y":2541072.5199999996}},{"attributes":{"ID":480370,"DIS_CODE":0,"TOWNNAME":"東區","LI":"仁和里","LIN":"26鄰","STREET":"利東街","SECT":" ","MAREA":" ","LANE":" ","ALLEY":" ","HOUSE_NO":"５１號八樓","E_COORD97":171697.44,"N_COORD97":2541072.52,"ADDRESS":"利東街５１號八樓","OBJECTID":480345},"geometry":{"x":171697.44000000041,"y":2541072.5199999996}},{"attributes":{"ID":480371,"DIS_CODE":0,"TOWNNAME":"東區","LI":"仁和里","LIN":"26鄰","STREET":"利東街","SECT":" ","MAREA":" ","LANE":" ","ALLEY":" ","HOUSE_NO":"５１號八樓之１","E_COORD97":171697.44,"N_COORD97":2541072.52,"ADDRESS":"利東街５１號八樓之１","OBJECTID":480346},"geometry":{"x":171697.44000000041,"y":2541072.5199999996}},{"attributes":{"ID":480372,"DIS_CODE":0,"TOWNNAME":"東區","LI":"仁和里","LIN":"26鄰","STREET":"利東街","SECT":" ","MAREA":" ","LANE":" ","ALLEY":" ","HOUSE_NO":"５１號八樓之２","E_COORD97":171697.44,"N_COORD97":2541072.52,"ADDRESS":"利東街５１號八樓之２","OBJECTID":480347},"geometry":{"x":171697.44000000041,"y":2541072.5199999996}},{"attributes":{"ID":480373,"DIS_CODE":0,"TOWNNAME":"東區","LI":"仁和里","LIN":"26鄰","STREET":"利東街","SECT":" ","MAREA":" ","LANE":" ","ALLEY":" ","HOUSE_NO":"５１號三樓","E_COORD97":171697.44,"N_COORD97":2541072.52,"ADDRESS":"利東街５１號三樓","OBJECTID":480348},"geometry":{"x":171697.44000000041,"y":2541072.5199999996}},{"attributes":{"ID":480374,"DIS_CODE":0,"TOWNNAME":"東區","LI":"仁和里","LIN":"26鄰","STREET":"利東街","SECT":" ","MAREA":" ","LANE":" ","ALLEY":" ","HOUSE_NO":"５１號三樓之１","E_COORD97":171697.44,"N_COORD97":2541072.52,"ADDRESS":"利東街５１號三樓之１","OBJECTID":480349},"geometry":{"x":171697.44000000041,"y":2541072.5199999996}},{"attributes":{"ID":480375,"DIS_CODE":0,"TOWNNAME":"東區","LI":"仁和里","LIN":"26鄰","STREET":"利東街","SECT":" ","MAREA":" ","LANE":" ","ALLEY":" ","HOUSE_NO":"５１號三樓之２","E_COORD97":171697.44,"N_COORD97":2541072.52,"ADDRESS":"利東街５１號三樓之２","OBJECTID":480350},"geometry":{"x":171697.44000000041,"y":2541072.5199999996}},{"attributes":{"ID":480376,"DIS_CODE":0,"TOWNNAME":"東區","LI":"仁和里","LIN":"26鄰","STREET":"利東街","SECT":" ","MAREA":" ","LANE":" ","ALLEY":" ","HOUSE_NO":"５１號五樓","E_COORD97":171697.44,"N_COORD97":2541072.52,"ADDRESS":"利東街５１號五樓","OBJECTID":480351},"geometry":{"x":171697.44000000041,"y":2541072.5199999996}},{"attributes":{"ID":480377,"DIS_CODE":0,"TOWNNAME":"東區","LI":"仁和里","LIN":"26鄰","STREET":"利東街","SECT":" ","MAREA":" ","LANE":" ","ALLEY":" ","HOUSE_NO":"５１號五樓之１","E_COORD97":171697.44,"N_COORD97":2541072.52,"ADDRESS":"利東街５１號五樓之１","OBJECTID":480352},"geometry":{"x":171697.44000000041,"y":2541072.5199999996}},{"attributes":{"ID":480378,"DIS_CODE":0,"TOWNNAME":"東區","LI":"仁和里","LIN":"26鄰","STREET":"利東街","SECT":" ","MAREA":" ","LANE":" ","ALLEY":" ","HOUSE_NO":"５１號五樓之２","E_COORD97":171697.44,"N_COORD97":2541072.52,"ADDRESS":"利東街５１號五樓之２","OBJECTID":480353},"geometry":{"x":171697.44000000041,"y":2541072.5199999996}},{"attributes":{"ID":480379,"DIS_CODE":0,"TOWNNAME":"東區","LI":"仁和里","LIN":"26鄰","STREET":"利東街","SECT":" ","MAREA":" ","LANE":" ","ALLEY":" ","HOUSE_NO":"５１號六樓","E_COORD97":171697.44,"N_COORD97":2541072.52,"ADDRESS":"利東街５１號六樓","OBJECTID":480354},"geometry":{"x":171697.44000000041,"y":2541072.5199999996}},{"attributes":{"ID":480380,"DIS_CODE":0,"TOWNNAME":"東區","LI":"仁和里","LIN":"26鄰","STREET":"利東街","SECT":" ","MAREA":" ","LANE":" ","ALLEY":" ","HOUSE_NO":"５１號六樓之１","E_COORD97":171697.44,"N_COORD97":2541072.52,"ADDRESS":"利東街５１號六樓之１","OBJECTID":480355},"geometry":{"x":171697.44000000041,"y":2541072.5199999996}},{"attributes":{"ID":480381,"DIS_CODE":0,"TOWNNAME":"東區","LI":"仁和里","LIN":"26鄰","STREET":"利東街","SECT":" ","MAREA":" ","LANE":" ","ALLEY":" ","HOUSE_NO":"５１號六樓之２","E_COORD97":171697.44,"N_COORD97":2541072.52,"ADDRESS":"利東街５１號六樓之２","OBJECTID":480356},"geometry":{"x":171697.44000000041,"y":2541072.5199999996}},{"attributes":{"ID":480382,"DIS_CODE":0,"TOWNNAME":"東區","LI":"仁和里","LIN":"26鄰","STREET":"利東街","SECT":" ","MAREA":" ","LANE":" ","ALLEY":" ","HOUSE_NO":"５１號四樓","E_COORD97":171697.44,"N_COORD97":2541072.52,"ADDRESS":"利東街５１號四樓","OBJECTID":480357},"geometry":{"x":171697.44000000041,"y":2541072.5199999996}},{"attributes":{"ID":480383,"DIS_CODE":0,"TOWNNAME":"東區","LI":"仁和里","LIN":"26鄰","STREET":"利東街","SECT":" ","MAREA":" ","LANE":" ","ALLEY":" ","HOUSE_NO":"５１號四樓之１","E_COORD97":171697.44,"N_COORD97":2541072.52,"ADDRESS":"利東街５１號四樓之１","OBJECTID":480358},"geometry":{"x":171697.44000000041,"y":2541072.5199999996}},{"attributes":{"ID":480384,"DIS_CODE":0,"TOWNNAME":"東區","LI":"仁和里","LIN":"26鄰","STREET":"利東街","SECT":" ","MAREA":" ","LANE":" ","ALLEY":" ","HOUSE_NO":"５１號四樓之２","E_COORD97":171697.44,"N_COORD97":2541072.52,"ADDRESS":"利東街５１號四樓之２","OBJECTID":480359},"geometry":{"x":171697.44000000041,"y":2541072.5199999996}},{"attributes":{"ID":480385,"DIS_CODE":0,"TOWNNAME":"東區","LI":"仁和里","LIN":"26鄰","STREET":"利東街","SECT":" ","MAREA":" ","LANE":" ","ALLEY":" ","HOUSE_NO":"５３號七樓","E_COORD97":171686.12,"N_COORD97":2541083.6200000001,"ADDRESS":"利東街５３號七樓","OBJECTID":480360},"geometry":{"x":171686.12000000197,"y":2541083.620000001}},{"attributes":{"ID":480386,"DIS_CODE":0,"TOWNNAME":"東區","LI":"仁和里","LIN":"26鄰","STREET":"利東街","SECT":" ","MAREA":" ","LANE":" ","ALLEY":" ","HOUSE_NO":"５３號七樓之１","E_COORD97":171686.12,"N_COORD97":2541083.6200000001,"ADDRESS":"利東街５３號七樓之１","OBJECTID":480361},"geometry":{"x":171686.12000000197,"y":2541083.620000001}},{"attributes":{"ID":480387,"DIS_CODE":0,"TOWNNAME":"東區","LI":"仁和里","LIN":"26鄰","STREET":"利東街","SECT":" ","MAREA":" ","LANE":" ","ALLEY":" ","HOUSE_NO":"５３號七樓之２","E_COORD97":171686.12,"N_COORD97":2541083.6200000001,"ADDRESS":"利東街５３號七樓之２","OBJECTID":480362},"geometry":{"x":171686.12000000197,"y":2541083.620000001}},{"attributes":{"ID":480388,"DIS_CODE":0,"TOWNNAME":"東區","LI":"仁和里","LIN":"26鄰","STREET":"利東街","SECT":" ","MAREA":" ","LANE":" ","ALLEY":" ","HOUSE_NO":"５３號九樓","E_COORD97":171686.12,"N_COORD97":2541083.6200000001,"ADDRESS":"利東街５３號九樓","OBJECTID":480363},"geometry":{"x":171686.12000000197,"y":2541083.620000001}},{"attributes":{"ID":480389,"DIS_CODE":0,"TOWNNAME":"東區","LI":"仁和里","LIN":"26鄰","STREET":"利東街","SECT":" ","MAREA":" ","LANE":" ","ALLEY":" ","HOUSE_NO":"５３號九樓之１","E_COORD97":171686.12,"N_COORD97":2541083.6200000001,"ADDRESS":"利東街５３號九樓之１","OBJECTID":480364},"geometry":{"x":171686.12000000197,"y":2541083.620000001}},{"attributes":{"ID":480390,"DIS_CODE":0,"TOWNNAME":"東區","LI":"仁和里","LIN":"26鄰","STREET":"利東街","SECT":" ","MAREA":" ","LANE":" ","ALLEY":" ","HOUSE_NO":"５３號九樓之２","E_COORD97":171686.12,"N_COORD97":2541083.6200000001,"ADDRESS":"利東街５３號九樓之２","OBJECTID":480365},"geometry":{"x":171686.12000000197,"y":2541083.620000001}},{"attributes":{"ID":480391,"DIS_CODE":0,"TOWNNAME":"東區","LI":"仁和里","LIN":"26鄰","STREET":"利東街","SECT":" ","MAREA":" ","LANE":" ","ALLEY":" ","HOUSE_NO":"５３號二樓","E_COORD97":171686.12,"N_COORD97":2541083.6200000001,"ADDRESS":"利東街５３號二樓","OBJECTID":480366},"geometry":{"x":171686.12000000197,"y":2541083.620000001}},{"attributes":{"ID":480392,"DIS_CODE":0,"TOWNNAME":"東區","LI":"仁和里","LIN":"26鄰","STREET":"利東街","SECT":" ","MAREA":" ","LANE":" ","ALLEY":" ","HOUSE_NO":"５３號二樓之１","E_COORD97":171686.12,"N_COORD97":2541083.6200000001,"ADDRESS":"利東街５３號二樓之１","OBJECTID":480367},"geometry":{"x":171686.12000000197,"y":2541083.620000001}},{"attributes":{"ID":480393,"DIS_CODE":0,"TOWNNAME":"東區","LI":"仁和里","LIN":"26鄰","STREET":"利東街","SECT":" ","MAREA":" ","LANE":" ","ALLEY":" ","HOUSE_NO":"５３號二樓之２","E_COORD97":171686.12,"N_COORD97":2541083.6200000001,"ADDRESS":"利東街５３號二樓之２","OBJECTID":480368},"geometry":{"x":171686.12000000197,"y":2541083.620000001}},{"attributes":{"ID":480394,"DIS_CODE":0,"TOWNNAME":"東區","LI":"仁和里","LIN":"26鄰","STREET":"利東街","SECT":" ","MAREA":" ","LANE":" ","ALLEY":" ","HOUSE_NO":"５３號八樓","E_COORD97":171686.12,"N_COORD97":2541083.6200000001,"ADDRESS":"利東街５３號八樓","OBJECTID":480369},"geometry":{"x":171686.12000000197,"y":2541083.620000001}},{"attributes":{"ID":480395,"DIS_CODE":0,"TOWNNAME":"東區","LI":"仁和里","LIN":"26鄰","STREET":"利東街","SECT":" ","MAREA":" ","LANE":" ","ALLEY":" ","HOUSE_NO":"５３號八樓之１","E_COORD97":171686.12,"N_COORD97":2541083.6200000001,"ADDRESS":"利東街５３號八樓之１","OBJECTID":480370},"geometry":{"x":171686.12000000197,"y":2541083.620000001}},{"attributes":{"ID":480396,"DIS_CODE":0,"TOWNNAME":"東區","LI":"仁和里","LIN":"26鄰","STREET":"利東街","SECT":" ","MAREA":" ","LANE":" ","ALLEY":" ","HOUSE_NO":"５３號八樓之２","E_COORD97":171686.12,"N_COORD97":2541083.6200000001,"ADDRESS":"利東街５３號八樓之２","OBJECTID":480371},"geometry":{"x":171686.12000000197,"y":2541083.620000001}},{"attributes":{"ID":480397,"DIS_CODE":0,"TOWNNAME":"東區","LI":"仁和里","LIN":"26鄰","STREET":"利東街","SECT":" ","MAREA":" ","LANE":" ","ALLEY":" ","HOUSE_NO":"５３號三樓之１","E_COORD97":171686.12,"N_COORD97":2541083.6200000001,"ADDRESS":"利東街５３號三樓之１","OBJECTID":480372},"geometry":{"x":171686.12000000197,"y":2541083.620000001}},{"attributes":{"ID":480398,"DIS_CODE":0,"TOWNNAME":"東區","LI":"仁和里","LIN":"26鄰","STREET":"利東街","SECT":" ","MAREA":" ","LANE":" ","ALLEY":" ","HOUSE_NO":"５３號三樓之２","E_COORD97":171686.12,"N_COORD97":2541083.6200000001,"ADDRESS":"利東街５３號三樓之２","OBJECTID":480373},"geometry":{"x":171686.12000000197,"y":2541083.620000001}},{"attributes":{"ID":480399,"DIS_CODE":0,"TOWNNAME":"東區","LI":"仁和里","LIN":"26鄰","STREET":"利東街","SECT":" ","MAREA":" ","LANE":" ","ALLEY":" ","HOUSE_NO":"５３號五樓","E_COORD97":171686.12,"N_COORD97":2541083.6200000001,"ADDRESS":"利東街５３號五樓","OBJECTID":480374},"geometry":{"x":171686.12000000197,"y":2541083.620000001}},{"attributes":{"ID":480400,"DIS_CODE":0,"TOWNNAME":"東區","LI":"仁和里","LIN":"26鄰","STREET":"利東街","SECT":" ","MAREA":" ","LANE":" ","ALLEY":" ","HOUSE_NO":"５３號五樓之１","E_COORD97":171686.12,"N_COORD97":2541083.6200000001,"ADDRESS":"利東街５３號五樓之１","OBJECTID":480375},"geometry":{"x":171686.12000000197,"y":2541083.620000001}},{"attributes":{"ID":480401,"DIS_CODE":0,"TOWNNAME":"東區","LI":"仁和里","LIN":"26鄰","STREET":"利東街","SECT":" ","MAREA":" ","LANE":" ","ALLEY":" ","HOUSE_NO":"５３號五樓之２","E_COORD97":171686.12,"N_COORD97":2541083.6200000001,"ADDRESS":"利東街５３號五樓之２","OBJECTID":480376},"geometry":{"x":171686.12000000197,"y":2541083.620000001}},{"attributes":{"ID":480402,"DIS_CODE":0,"TOWNNAME":"東區","LI":"仁和里","LIN":"26鄰","STREET":"利東街","SECT":" ","MAREA":" ","LANE":" ","ALLEY":" ","HOUSE_NO":"５３號六樓","E_COORD97":171686.12,"N_COORD97":2541083.6200000001,"ADDRESS":"利東街５３號六樓","OBJECTID":480377},"geometry":{"x":171686.12000000197,"y":2541083.620000001}},{"attributes":{"ID":480403,"DIS_CODE":0,"TOWNNAME":"東區","LI":"仁和里","LIN":"26鄰","STREET":"利東街","SECT":" ","MAREA":" ","LANE":" ","ALLEY":" ","HOUSE_NO":"５３號六樓之１","E_COORD97":171686.12,"N_COORD97":2541083.6200000001,"ADDRESS":"利東街５３號六樓之１","OBJECTID":480378},"geometry":{"x":171686.12000000197,"y":2541083.620000001}},{"attributes":{"ID":480404,"DIS_CODE":0,"TOWNNAME":"東區","LI":"仁和里","LIN":"26鄰","STREET":"利東街","SECT":" ","MAREA":" ","LANE":" ","ALLEY":" ","HOUSE_NO":"５３號六樓之２","E_COORD97":171686.12,"N_COORD97":2541083.6200000001,"ADDRESS":"利東街５３號六樓之２","OBJECTID":480379},"geometry":{"x":171686.12000000197,"y":2541083.620000001}},{"attributes":{"ID":480405,"DIS_CODE":0,"TOWNNAME":"東區","LI":"仁和里","LIN":"26鄰","STREET":"利東街","SECT":" ","MAREA":" ","LANE":" ","ALLEY":" ","HOUSE_NO":"５３號四樓","E_COORD97":171686.12,"N_COORD97":2541083.6200000001,"ADDRESS":"利東街５３號四樓","OBJECTID":480380},"geometry":{"x":171686.12000000197,"y":2541083.620000001}},{"attributes":{"ID":480406,"DIS_CODE":0,"TOWNNAME":"東區","LI":"仁和里","LIN":"26鄰","STREET":"利東街","SECT":" ","MAREA":" ","LANE":" ","ALLEY":" ","HOUSE_NO":"５３號四樓之１","E_COORD97":171686.12,"N_COORD97":2541083.6200000001,"ADDRESS":"利東街５３號四樓之１","OBJECTID":480381},"geometry":{"x":171686.12000000197,"y":2541083.620000001}},{"attributes":{"ID":480407,"DIS_CODE":0,"TOWNNAME":"東區","LI":"仁和里","LIN":"26鄰","STREET":"利東街","SECT":" ","MAREA":" ","LANE":" ","ALLEY":" ","HOUSE_NO":"５３號四樓之２","E_COORD97":171686.12,"N_COORD97":2541083.6200000001,"ADDRESS":"利東街５３號四樓之２","OBJECTID":480382},"geometry":{"x":171686.12000000197,"y":2541083.620000001}},{"attributes":{"ID":480408,"DIS_CODE":0,"TOWNNAME":"東區","LI":"仁和里","LIN":"26鄰","STREET":"利東街","SECT":" ","MAREA":" ","LANE":" ","ALLEY":" ","HOUSE_NO":"５５號七樓","E_COORD97":171682.59,"N_COORD97":2541095.3199999998,"ADDRESS":"利東街５５號七樓","OBJECTID":480383},"geometry":{"x":171682.59000000171,"y":2541095.3200000003}},{"attributes":{"ID":480409,"DIS_CODE":0,"TOWNNAME":"東區","LI":"仁和里","LIN":"26鄰","STREET":"利東街","SECT":" ","MAREA":" ","LANE":" ","ALLEY":" ","HOUSE_NO":"５５號七樓之１","E_COORD97":171682.59,"N_COORD97":2541095.3199999998,"ADDRESS":"利東街５５號七樓之１","OBJECTID":480384},"geometry":{"x":171682.59000000171,"y":2541095.3200000003}},{"attributes":{"ID":480410,"DIS_CODE":0,"TOWNNAME":"東區","LI":"仁和里","LIN":"26鄰","STREET":"利東街","SECT":" ","MAREA":" ","LANE":" ","ALLEY":" ","HOUSE_NO":"５５號七樓之２","E_COORD97":171682.59,"N_COORD97":2541095.3199999998,"ADDRESS":"利東街５５號七樓之２","OBJECTID":480385},"geometry":{"x":171682.59000000171,"y":2541095.3200000003}},{"attributes":{"ID":480411,"DIS_CODE":0,"TOWNNAME":"東區","LI":"仁和里","LIN":"26鄰","STREET":"利東街","SECT":" ","MAREA":" ","LANE":" ","ALLEY":" ","HOUSE_NO":"５５號九樓之１","E_COORD97":171682.59,"N_COORD97":2541095.3199999998,"ADDRESS":"利東街５５號九樓之１","OBJECTID":480386},"geometry":{"x":171682.59000000171,"y":2541095.3200000003}},{"attributes":{"ID":480412,"DIS_CODE":0,"TOWNNAME":"東區","LI":"仁和里","LIN":"26鄰","STREET":"利東街","SECT":" ","MAREA":" ","LANE":" ","ALLEY":" ","HOUSE_NO":"５５號二樓","E_COORD97":171682.59,"N_COORD97":2541095.3199999998,"ADDRESS":"利東街５５號二樓","OBJECTID":480387},"geometry":{"x":171682.59000000171,"y":2541095.3200000003}},{"attributes":{"ID":480413,"DIS_CODE":0,"TOWNNAME":"東區","LI":"仁和里","LIN":"26鄰","STREET":"利東街","SECT":" ","MAREA":" ","LANE":" ","ALLEY":" ","HOUSE_NO":"５５號二樓之１","E_COORD97":171682.59,"N_COORD97":2541095.3199999998,"ADDRESS":"利東街５５號二樓之１","OBJECTID":480388},"geometry":{"x":171682.59000000171,"y":2541095.3200000003}},{"attributes":{"ID":480414,"DIS_CODE":0,"TOWNNAME":"東區","LI":"仁和里","LIN":"26鄰","STREET":"利東街","SECT":" ","MAREA":" ","LANE":" ","ALLEY":" ","HOUSE_NO":"５５號二樓之２","E_COORD97":171682.59,"N_COORD97":2541095.3199999998,"ADDRESS":"利東街５５號二樓之２","OBJECTID":480389},"geometry":{"x":171682.59000000171,"y":2541095.3200000003}},{"attributes":{"ID":480415,"DIS_CODE":0,"TOWNNAME":"東區","LI":"仁和里","LIN":"26鄰","STREET":"利東街","SECT":" ","MAREA":" ","LANE":" ","ALLEY":" ","HOUSE_NO":"５５號八樓","E_COORD97":171682.59,"N_COORD97":2541095.3199999998,"ADDRESS":"利東街５５號八樓","OBJECTID":480390},"geometry":{"x":171682.59000000171,"y":2541095.3200000003}},{"attributes":{"ID":480416,"DIS_CODE":0,"TOWNNAME":"東區","LI":"仁和里","LIN":"26鄰","STREET":"利東街","SECT":" ","MAREA":" ","LANE":" ","ALLEY":" ","HOUSE_NO":"５５號八樓之１","E_COORD97":171682.59,"N_COORD97":2541095.3199999998,"ADDRESS":"利東街５５號八樓之１","OBJECTID":480391},"geometry":{"x":171682.59000000171,"y":2541095.3200000003}},{"attributes":{"ID":480417,"DIS_CODE":0,"TOWNNAME":"東區","LI":"仁和里","LIN":"26鄰","STREET":"利東街","SECT":" ","MAREA":" ","LANE":" ","ALLEY":" ","HOUSE_NO":"５５號八樓之２","E_COORD97":171682.59,"N_COORD97":2541095.3199999998,"ADDRESS":"利東街５５號八樓之２","OBJECTID":480392},"geometry":{"x":171682.59000000171,"y":2541095.3200000003}},{"attributes":{"ID":480418,"DIS_CODE":0,"TOWNNAME":"東區","LI":"仁和里","LIN":"26鄰","STREET":"利東街","SECT":" ","MAREA":" ","LANE":" ","ALLEY":" ","HOUSE_NO":"５５號三樓","E_COORD97":171682.59,"N_COORD97":2541095.3199999998,"ADDRESS":"利東街５５號三樓","OBJECTID":480393},"geometry":{"x":171682.59000000171,"y":2541095.3200000003}},{"attributes":{"ID":480419,"DIS_CODE":0,"TOWNNAME":"東區","LI":"仁和里","LIN":"26鄰","STREET":"利東街","SECT":" ","MAREA":" ","LANE":" ","ALLEY":" ","HOUSE_NO":"５５號三樓之１","E_COORD97":171682.59,"N_COORD97":2541095.3199999998,"ADDRESS":"利東街５５號三樓之１","OBJECTID":480394},"geometry":{"x":171682.59000000171,"y":2541095.3200000003}},{"attributes":{"ID":480420,"DIS_CODE":0,"TOWNNAME":"東區","LI":"仁和里","LIN":"26鄰","STREET":"利東街","SECT":" ","MAREA":" ","LANE":" ","ALLEY":" ","HOUSE_NO":"５５號三樓之２","E_COORD97":171682.59,"N_COORD97":2541095.3199999998,"ADDRESS":"利東街５５號三樓之２","OBJECTID":480395},"geometry":{"x":171682.59000000171,"y":2541095.3200000003}},{"attributes":{"ID":480421,"DIS_CODE":0,"TOWNNAME":"東區","LI":"仁和里","LIN":"26鄰","STREET":"利東街","SECT":" ","MAREA":" ","LANE":" ","ALLEY":" ","HOUSE_NO":"５５號五樓","E_COORD97":171682.59,"N_COORD97":2541095.3199999998,"ADDRESS":"利東街５５號五樓","OBJECTID":480396},"geometry":{"x":171682.59000000171,"y":2541095.3200000003}},{"attributes":{"ID":480422,"DIS_CODE":0,"TOWNNAME":"東區","LI":"仁和里","LIN":"26鄰","STREET":"利東街","SECT":" ","MAREA":" ","LANE":" ","ALLEY":" ","HOUSE_NO":"５５號五樓之１","E_COORD97":171682.59,"N_COORD97":2541095.3199999998,"ADDRESS":"利東街５５號五樓之１","OBJECTID":480397},"geometry":{"x":171682.59000000171,"y":2541095.3200000003}},{"attributes":{"ID":480423,"DIS_CODE":0,"TOWNNAME":"東區","LI":"仁和里","LIN":"26鄰","STREET":"利東街","SECT":" ","MAREA":" ","LANE":" ","ALLEY":" ","HOUSE_NO":"５５號五樓之２","E_COORD97":171682.59,"N_COORD97":2541095.3199999998,"ADDRESS":"利東街５５號五樓之２","OBJECTID":480398},"geometry":{"x":171682.59000000171,"y":2541095.3200000003}},{"attributes":{"ID":480424,"DIS_CODE":0,"TOWNNAME":"東區","LI":"仁和里","LIN":"26鄰","STREET":"利東街","SECT":" ","MAREA":" ","LANE":" ","ALLEY":" ","HOUSE_NO":"５５號六樓","E_COORD97":171682.59,"N_COORD97":2541095.3199999998,"ADDRESS":"利東街５５號六樓","OBJECTID":480399},"geometry":{"x":171682.59000000171,"y":2541095.3200000003}},{"attributes":{"ID":480425,"DIS_CODE":0,"TOWNNAME":"東區","LI":"仁和里","LIN":"26鄰","STREET":"利東街","SECT":" ","MAREA":" ","LANE":" ","ALLEY":" ","HOUSE_NO":"５５號六樓之１","E_COORD97":171682.59,"N_COORD97":2541095.3199999998,"ADDRESS":"利東街５５號六樓之１","OBJECTID":480400},"geometry":{"x":171682.59000000171,"y":2541095.3200000003}}]}