{"displayFieldName":"TOWNNAME","fieldAliases":{"ID":"ID","DIS_CODE":"DIS_CODE","TOWNNAME":"TOWNNAME","LI":"LI","LIN":"LIN","STREET":"STREET","SECT":"SECT","MAREA":"MAREA","LANE":"LANE","ALLEY":"ALLEY","HOUSE_NO":"HOUSE_NO","E_COORD97":"E_COORD97","N_COORD97":"N_COORD97","ADDRESS":"ADDRESS","OBJECTID":"OBJECTID"},"geometryType":"esriGeometryPoint","spatialReference":{"wkid":102443,"latestWkid":3826},"fields":[{"name":"ID","type":"esriFieldTypeDouble","alias":"ID"},{"name":"DIS_CODE","type":"esriFieldTypeInteger","alias":"DIS_CODE"},{"name":"TOWNNAME","type":"esriFieldTypeString","alias":"TOWNNAME","length":8},{"name":"LI","type":"esriFieldTypeString","alias":"LI","length":8},{"name":"LIN","type":"esriFieldTypeString","alias":"LIN","length":12},{"name":"STREET","type":"esriFieldTypeString","alias":"STREET","length":20},{"name":"SECT","type":"esriFieldTypeString","alias":"SECT","length":8},{"name":"MAREA","type":"esriFieldTypeString","alias":"MAREA","length":12},{"name":"LANE","type":"esriFieldTypeString","alias":"LANE","length":10},{"name":"ALLEY","type":"esriFieldTypeString","alias":"ALLEY","length":10},{"name":"HOUSE_NO","type":"esriFieldTypeString","alias":"HOUSE_NO","length":20},{"name":"E_COORD97","type":"esriFieldTypeDouble","alias":"E_COORD97"},{"name":"N_COORD97","type":"esriFieldTypeDouble","alias":"N_COORD97"},{"name":"ADDRESS","type":"esriFieldTypeString","alias":"ADDRESS","length":50},{"name":"OBJECTID","type":"esriFieldTypeOID","alias":"OBJECTID"}],"features":[{"attributes":{"ID":395625,"DIS_CODE":0,"TOWNNAME":"永康區","LI":"勝利里","LIN":"16鄰","STREET":"勝利街","SECT":" ","MAREA":" ","LANE":"１０７巷","ALLEY":" ","HOUSE_NO":"６４號","E_COORD97":171192.34,"N_COORD97":2544940,"ADDRESS":"勝利街１０７巷６４號","OBJECTID":395601},"geometry":{"x":171192.33999999985,"y":2544940.0000000019}},{"attributes":{"ID":395626,"DIS_CODE":0,"TOWNNAME":"永康區","LI":"烏竹里","LIN":"16鄰","STREET":"龍橋街","SECT":" ","MAREA":" ","LANE":"１８６巷","ALLEY":" ","HOUSE_NO":"４５號","E_COORD97":174739.54000000001,"N_COORD97":2548802.0499999998,"ADDRESS":"龍橋街１８６巷４５號","OBJECTID":395602},"geometry":{"x":174739.5400000019,"y":2548802.0500000026}},{"attributes":{"ID":395627,"DIS_CODE":0,"TOWNNAME":"永康區","LI":"烏竹里","LIN":"16鄰","STREET":"龍橋街","SECT":" ","MAREA":" ","LANE":"１８６巷","ALLEY":" ","HOUSE_NO":"３６號","E_COORD97":174700.97,"N_COORD97":2548793.25,"ADDRESS":"龍橋街１８６巷３６號","OBJECTID":395603},"geometry":{"x":174700.97000000067,"y":2548793.2500000019}},{"attributes":{"ID":395628,"DIS_CODE":0,"TOWNNAME":"永康區","LI":"烏竹里","LIN":"16鄰","STREET":"龍橋街","SECT":" ","MAREA":" ","LANE":"１８６巷","ALLEY":" ","HOUSE_NO":"３５號","E_COORD97":174722.17000000001,"N_COORD97":2548788.0499999998,"ADDRESS":"龍橋街１８６巷３５號","OBJECTID":395604},"geometry":{"x":174722.17000000086,"y":2548788.0500000045}},{"attributes":{"ID":395629,"DIS_CODE":0,"TOWNNAME":"仁德區","LI":"一甲里","LIN":"16鄰","STREET":"中清路","SECT":" ","MAREA":" ","LANE":"２５５巷","ALLEY":" ","HOUSE_NO":"２９號","E_COORD97":173670.98999999999,"N_COORD97":2541771.7999999998,"ADDRESS":"中清路２５５巷２９號","OBJECTID":395605},"geometry":{"x":173670.99000000115,"y":2541771.8000000045}},{"attributes":{"ID":395630,"DIS_CODE":0,"TOWNNAME":"仁德區","LI":"一甲里","LIN":"16鄰","STREET":"中清路","SECT":" ","MAREA":" ","LANE":"２５５巷","ALLEY":" ","HOUSE_NO":"２５號","E_COORD97":173669.70000000001,"N_COORD97":2541762.2999999998,"ADDRESS":"中清路２５５巷２５號","OBJECTID":395606},"geometry":{"x":173669.70000000112,"y":2541762.3000000026}},{"attributes":{"ID":395631,"DIS_CODE":0,"TOWNNAME":"永康區","LI":"西勢里","LIN":"16鄰","STREET":"西勢路","SECT":" ","MAREA":" ","LANE":"８２巷","ALLEY":" ","HOUSE_NO":"６３號","E_COORD97":176085.89000000001,"N_COORD97":2546965.2000000002,"ADDRESS":"西勢路８２巷６３號","OBJECTID":395607},"geometry":{"x":176085.88999999966,"y":2546965.200000003}},{"attributes":{"ID":395632,"DIS_CODE":0,"TOWNNAME":"永康區","LI":"西勢里","LIN":"16鄰","STREET":"西勢路","SECT":" ","MAREA":" ","LANE":"６６巷","ALLEY":" ","HOUSE_NO":"２４號","E_COORD97":176166.10999999999,"N_COORD97":2546813.52,"ADDRESS":"西勢路６６巷２４號","OBJECTID":395608},"geometry":{"x":176166.11000000034,"y":2546813.5199999996}},{"attributes":{"ID":395633,"DIS_CODE":0,"TOWNNAME":"永康區","LI":"西勢里","LIN":"16鄰","STREET":"西勢路","SECT":" ","MAREA":" ","LANE":"６６巷","ALLEY":" ","HOUSE_NO":"２２號","E_COORD97":176161.91,"N_COORD97":2546813.77,"ADDRESS":"西勢路６６巷２２號","OBJECTID":395609},"geometry":{"x":176161.91000000108,"y":2546813.7700000014}},{"attributes":{"ID":395634,"DIS_CODE":0,"TOWNNAME":"永康區","LI":"光復里","LIN":"16鄰","STREET":"復興路","SECT":" ","MAREA":" ","LANE":"１２８巷","ALLEY":" ","HOUSE_NO":"５６號","E_COORD97":172641.25,"N_COORD97":2544392.02,"ADDRESS":"復興路１２８巷５６號","OBJECTID":395610},"geometry":{"x":172641.25000000186,"y":2544392.0199999996}},{"attributes":{"ID":395635,"DIS_CODE":0,"TOWNNAME":"安南區","LI":"海南里","LIN":"16鄰","STREET":"府安路","SECT":"七段","MAREA":" ","LANE":"９３巷","ALLEY":" ","HOUSE_NO":"６號","E_COORD97":165817.62,"N_COORD97":2545845.2999999998,"ADDRESS":"府安路七段９３巷６號","OBJECTID":395611},"geometry":{"x":165817.62000000104,"y":2545845.3000000026}},{"attributes":{"ID":395636,"DIS_CODE":0,"TOWNNAME":"中西區","LI":"福安里","LIN":"16鄰","STREET":"中正路","SECT":" ","MAREA":" ","LANE":"１１１巷","ALLEY":" ","HOUSE_NO":"１０號","E_COORD97":167999.07999999999,"N_COORD97":2543627.3199999998,"ADDRESS":"中正路１１１巷１０號","OBJECTID":395612},"geometry":{"x":167999.08000000007,"y":2543627.3200000022}},{"attributes":{"ID":395637,"DIS_CODE":0,"TOWNNAME":"中西區","LI":"福安里","LIN":"16鄰","STREET":"中正路","SECT":" ","MAREA":" ","LANE":"１１１巷","ALLEY":" ","HOUSE_NO":"１２號","E_COORD97":167994.95999999999,"N_COORD97":2543622.5699999998,"ADDRESS":"中正路１１１巷１２號","OBJECTID":395613},"geometry":{"x":167994.96000000183,"y":2543622.5700000003}},{"attributes":{"ID":395638,"DIS_CODE":0,"TOWNNAME":"中西區","LI":"福安里","LIN":"16鄰","STREET":"中正路","SECT":" ","MAREA":" ","LANE":"１１１巷","ALLEY":" ","HOUSE_NO":"１４號","E_COORD97":167994.03,"N_COORD97":2543617.2599999998,"ADDRESS":"中正路１１１巷１４號","OBJECTID":395614},"geometry":{"x":167994.03000000026,"y":2543617.2599999998}},{"attributes":{"ID":395639,"DIS_CODE":0,"TOWNNAME":"永康區","LI":"光復里","LIN":"16鄰","STREET":"復興路","SECT":" ","MAREA":" ","LANE":"１２８巷","ALLEY":" ","HOUSE_NO":"５０號","E_COORD97":172653.73999999999,"N_COORD97":2544396.27,"ADDRESS":"復興路１２８巷５０號","OBJECTID":395615},"geometry":{"x":172653.74000000115,"y":2544396.2700000014}},{"attributes":{"ID":395640,"DIS_CODE":0,"TOWNNAME":"永康區","LI":"西勢里","LIN":"16鄰","STREET":"西勢路","SECT":" ","MAREA":" ","LANE":"８２巷","ALLEY":" ","HOUSE_NO":"３２號","E_COORD97":176102.12,"N_COORD97":2546855.29,"ADDRESS":"西勢路８２巷３２號","OBJECTID":395616},"geometry":{"x":176102.12000000197,"y":2546855.2899999991}},{"attributes":{"ID":395641,"DIS_CODE":0,"TOWNNAME":"永康區","LI":"西勢里","LIN":"16鄰","STREET":"西勢路","SECT":" ","MAREA":" ","LANE":"８２巷","ALLEY":" ","HOUSE_NO":"１３號","E_COORD97":176077.47,"N_COORD97":2546804.0299999998,"ADDRESS":"西勢路８２巷１３號","OBJECTID":395617},"geometry":{"x":176077.47000000067,"y":2546804.0300000012}},{"attributes":{"ID":395642,"DIS_CODE":0,"TOWNNAME":"永康區","LI":"甲頂里","LIN":"16鄰","STREET":"中正南路","SECT":" ","MAREA":" ","LANE":"５２巷","ALLEY":" ","HOUSE_NO":"４３號","E_COORD97":169832.17000000001,"N_COORD97":2546781.5499999998,"ADDRESS":"中正南路５２巷４３號","OBJECTID":395618},"geometry":{"x":169832.16999999993,"y":2546781.5500000026}},{"attributes":{"ID":395643,"DIS_CODE":0,"TOWNNAME":"永康區","LI":"西勢里","LIN":"16鄰","STREET":"西勢路","SECT":" ","MAREA":" ","LANE":"６６巷","ALLEY":" ","HOUSE_NO":"３０號","E_COORD97":176160.57000000001,"N_COORD97":2546832.04,"ADDRESS":"西勢路６６巷３０號","OBJECTID":395619},"geometry":{"x":176160.57000000123,"y":2546832.0399999991}},{"attributes":{"ID":395644,"DIS_CODE":0,"TOWNNAME":"永康區","LI":"西勢里","LIN":"16鄰","STREET":"西勢路","SECT":" ","MAREA":" ","LANE":"８２巷","ALLEY":" ","HOUSE_NO":"１１號","E_COORD97":176076.97,"N_COORD97":2546799.7799999998,"ADDRESS":"西勢路８２巷１１號","OBJECTID":395620},"geometry":{"x":176076.96999999974,"y":2546799.7800000012}},{"attributes":{"ID":395645,"DIS_CODE":0,"TOWNNAME":"永康區","LI":"西勢里","LIN":"16鄰","STREET":"西勢路","SECT":" ","MAREA":" ","LANE":"８２巷","ALLEY":" ","HOUSE_NO":"２７號","E_COORD97":176061.82999999999,"N_COORD97":2546832.2999999998,"ADDRESS":"西勢路８２巷２７號","OBJECTID":395621},"geometry":{"x":176061.83000000101,"y":2546832.3000000007}},{"attributes":{"ID":395646,"DIS_CODE":0,"TOWNNAME":"永康區","LI":"\u25A0行里","LIN":"16鄰","STREET":"中正六街","SECT":" ","MAREA":" ","LANE":"２６６巷","ALLEY":" ","HOUSE_NO":"１８號","E_COORD97":171939.62,"N_COORD97":2548876.7400000002,"ADDRESS":"中正六街２６６巷１８號","OBJECTID":395622},"geometry":{"x":171939.62000000011,"y":2548876.7400000002}},{"attributes":{"ID":395647,"DIS_CODE":0,"TOWNNAME":"東區","LI":"大智里","LIN":"16鄰","STREET":"長東街","SECT":" ","MAREA":" ","LANE":"４１巷","ALLEY":" ","HOUSE_NO":"８４號","E_COORD97":171179.23000000001,"N_COORD97":2540506.6299999999,"ADDRESS":"長東街４１巷８４號","OBJECTID":395623},"geometry":{"x":171179.23000000138,"y":2540506.6300000027}},{"attributes":{"ID":395648,"DIS_CODE":0,"TOWNNAME":"東區","LI":"新東里","LIN":"16鄰","STREET":"裕豐街","SECT":" ","MAREA":" ","LANE":"１４７巷","ALLEY":" ","HOUSE_NO":"４５號","E_COORD97":170661.72,"N_COORD97":2543075.79,"ADDRESS":"裕豐街１４７巷４５號","OBJECTID":395624},"geometry":{"x":170661.72000000067,"y":2543075.790000001}},{"attributes":{"ID":395649,"DIS_CODE":0,"TOWNNAME":"東區","LI":"新東里","LIN":"16鄰","STREET":"裕豐街","SECT":" ","MAREA":" ","LANE":"１４７巷","ALLEY":" ","HOUSE_NO":"４７號","E_COORD97":170656.92000000001,"N_COORD97":2543075.1000000001,"ADDRESS":"裕豐街１４７巷４７號","OBJECTID":395625},"geometry":{"x":170656.92000000086,"y":2543075.1000000015}},{"attributes":{"ID":395650,"DIS_CODE":0,"TOWNNAME":"東區","LI":"新東里","LIN":"16鄰","STREET":"裕豐街","SECT":" ","MAREA":" ","LANE":"１４７巷","ALLEY":" ","HOUSE_NO":"４９號","E_COORD97":170652.12,"N_COORD97":2543073.9300000002,"ADDRESS":"裕豐街１４７巷４９號","OBJECTID":395626},"geometry":{"x":170652.12000000197,"y":2543073.9299999997}},{"attributes":{"ID":395651,"DIS_CODE":0,"TOWNNAME":"東區","LI":"新東里","LIN":"16鄰","STREET":"裕豐街","SECT":" ","MAREA":" ","LANE":"１４７巷","ALLEY":" ","HOUSE_NO":"５１號","E_COORD97":170647.22,"N_COORD97":2543073.1499999999,"ADDRESS":"裕豐街１４７巷５１號","OBJECTID":395627},"geometry":{"x":170647.21999999974,"y":2543073.1500000004}},{"attributes":{"ID":395652,"DIS_CODE":0,"TOWNNAME":"東區","LI":"新東里","LIN":"16鄰","STREET":"裕豐街","SECT":" ","MAREA":" ","LANE":"１４７巷","ALLEY":" ","HOUSE_NO":"５３號","E_COORD97":170642.62,"N_COORD97":2543072.46,"ADDRESS":"裕豐街１４７巷５３號","OBJECTID":395628},"geometry":{"x":170642.62000000104,"y":2543072.4600000009}},{"attributes":{"ID":395653,"DIS_CODE":0,"TOWNNAME":"東區","LI":"新東里","LIN":"16鄰","STREET":"裕豐街","SECT":" ","MAREA":" ","LANE":"１４７巷","ALLEY":" ","HOUSE_NO":"５５號","E_COORD97":170637.51999999999,"N_COORD97":2543071.3900000001,"ADDRESS":"裕豐街１４７巷５５號","OBJECTID":395629},"geometry":{"x":170637.52000000048,"y":2543071.3900000006}},{"attributes":{"ID":395654,"DIS_CODE":0,"TOWNNAME":"永康區","LI":"網寮里","LIN":"16鄰","STREET":"永二街","SECT":" ","MAREA":" ","LANE":"２４４巷","ALLEY":" ","HOUSE_NO":"５４號","E_COORD97":173265.53,"N_COORD97":2546683.29,"ADDRESS":"永二街２４４巷５４號","OBJECTID":395630},"geometry":{"x":173265.53000000119,"y":2546683.290000001}},{"attributes":{"ID":395655,"DIS_CODE":0,"TOWNNAME":"東區","LI":"虎尾里","LIN":"16鄰","STREET":"東成街","SECT":" ","MAREA":" ","LANE":"５６巷","ALLEY":" ","HOUSE_NO":"３２號","E_COORD97":171379.67999999999,"N_COORD97":2542177.3199999998,"ADDRESS":"東成街５６巷３２號","OBJECTID":395631},"geometry":{"x":171379.6799999997,"y":2542177.3200000003}},{"attributes":{"ID":395656,"DIS_CODE":0,"TOWNNAME":"仁德區","LI":"上崙里","LIN":"16鄰","STREET":"德崙路","SECT":" ","MAREA":" ","LANE":"３７８巷","ALLEY":" ","HOUSE_NO":"８之１號","E_COORD97":174047.70000000001,"N_COORD97":2538058.0499999998,"ADDRESS":"德崙路３７８巷８之１號","OBJECTID":395632},"geometry":{"x":174047.70000000112,"y":2538058.0500000026}},{"attributes":{"ID":395657,"DIS_CODE":0,"TOWNNAME":"仁德區","LI":"仁義里","LIN":"16鄰","STREET":"義林路","SECT":" ","MAREA":" ","LANE":"２３３巷","ALLEY":" ","HOUSE_NO":"２７號","E_COORD97":174466.13,"N_COORD97":2541240.8100000001,"ADDRESS":"義林路２３３巷２７號","OBJECTID":395633},"geometry":{"x":174466.13000000082,"y":2541240.8100000024}},{"attributes":{"ID":395658,"DIS_CODE":0,"TOWNNAME":"仁德區","LI":"仁德里","LIN":"16鄰","STREET":"中山路","SECT":" ","MAREA":" ","LANE":"６８５巷","ALLEY":" ","HOUSE_NO":"５０號","E_COORD97":172789.70000000001,"N_COORD97":2541249.75,"ADDRESS":"中山路６８５巷５０號","OBJECTID":395634},"geometry":{"x":172789.70000000112,"y":2541249.7500000019}},{"attributes":{"ID":395659,"DIS_CODE":0,"TOWNNAME":"永康區","LI":"復國里","LIN":"16鄰","STREET":"復國二路","SECT":" ","MAREA":" ","LANE":"１８４巷","ALLEY":" ","HOUSE_NO":"５號","E_COORD97":172958.31,"N_COORD97":2545734.52,"ADDRESS":"復國二路１８４巷５號","OBJECTID":395635},"geometry":{"x":172958.30999999959,"y":2545734.5199999996}},{"attributes":{"ID":395660,"DIS_CODE":0,"TOWNNAME":"永康區","LI":"復華里","LIN":"16鄰","STREET":"復華七街","SECT":" ","MAREA":" ","LANE":"１０６巷","ALLEY":" ","HOUSE_NO":"１８號","E_COORD97":172902.31,"N_COORD97":2546139.7599999998,"ADDRESS":"復華七街１０６巷１８號","OBJECTID":395636},"geometry":{"x":172902.30999999959,"y":2546139.7599999998}},{"attributes":{"ID":395661,"DIS_CODE":0,"TOWNNAME":"安南區","LI":"安順里","LIN":"16鄰","STREET":"總安街","SECT":"一段","MAREA":" ","LANE":"１１０巷","ALLEY":" ","HOUSE_NO":"１００號","E_COORD97":169795.54999999999,"N_COORD97":2550401.6400000001,"ADDRESS":"總安街一段１１０巷１００號","OBJECTID":395637},"geometry":{"x":169795.54999999981,"y":2550401.6400000025}},{"attributes":{"ID":395662,"DIS_CODE":0,"TOWNNAME":"安南區","LI":"安慶里","LIN":"16鄰","STREET":"安中路","SECT":"一段","MAREA":" ","LANE":"１８９巷","ALLEY":" ","HOUSE_NO":"３１號","E_COORD97":168774.28,"N_COORD97":2548377.6099999999,"ADDRESS":"安中路一段１８９巷３１號","OBJECTID":395638},"geometry":{"x":168774.28000000026,"y":2548377.6100000013}},{"attributes":{"ID":395663,"DIS_CODE":0,"TOWNNAME":"安南區","LI":"州北里","LIN":"16鄰","STREET":"安和路","SECT":"五段","MAREA":" ","LANE":"１７８巷","ALLEY":" ","HOUSE_NO":"１１號","E_COORD97":169878.66,"N_COORD97":2551875.27,"ADDRESS":"安和路五段１７８巷１１號","OBJECTID":395639},"geometry":{"x":169878.65999999922,"y":2551875.2700000014}},{"attributes":{"ID":395664,"DIS_CODE":0,"TOWNNAME":"中西區","LI":"水仙里","LIN":"16鄰","STREET":"西門路","SECT":"二段","MAREA":" ","LANE":"３３３巷","ALLEY":" ","HOUSE_NO":"１號","E_COORD97":167929.79999999999,"N_COORD97":2544216.21,"ADDRESS":"西門路二段３３３巷１號","OBJECTID":395640},"geometry":{"x":167929.80000000168,"y":2544216.2100000009}},{"attributes":{"ID":395665,"DIS_CODE":0,"TOWNNAME":"中西區","LI":"水仙里","LIN":"16鄰","STREET":"西門路","SECT":"二段","MAREA":" ","LANE":"３３３巷","ALLEY":" ","HOUSE_NO":"４號","E_COORD97":167917.13,"N_COORD97":2544224.27,"ADDRESS":"西門路二段３３３巷４號","OBJECTID":395641},"geometry":{"x":167917.12999999989,"y":2544224.2699999996}},{"attributes":{"ID":395666,"DIS_CODE":0,"TOWNNAME":"中西區","LI":"水仙里","LIN":"16鄰","STREET":"西門路","SECT":"二段","MAREA":" ","LANE":"３３３巷","ALLEY":" ","HOUSE_NO":"５號","E_COORD97":167912.26000000001,"N_COORD97":2544225.6600000001,"ADDRESS":"西門路二段３３３巷５號","OBJECTID":395642},"geometry":{"x":167912.25999999978,"y":2544225.6600000001}},{"attributes":{"ID":395667,"DIS_CODE":0,"TOWNNAME":"中西區","LI":"水仙里","LIN":"16鄰","STREET":"西門路","SECT":"二段","MAREA":" ","LANE":"３３３巷","ALLEY":" ","HOUSE_NO":"６號","E_COORD97":167907.94,"N_COORD97":2544228.3100000001,"ADDRESS":"西門路二段３３３巷６號","OBJECTID":395643},"geometry":{"x":167907.94000000134,"y":2544228.3100000005}},{"attributes":{"ID":395668,"DIS_CODE":0,"TOWNNAME":"中西區","LI":"水仙里","LIN":"16鄰","STREET":"西門路","SECT":"二段","MAREA":" ","LANE":"３３３巷","ALLEY":" ","HOUSE_NO":"７號","E_COORD97":167903.76999999999,"N_COORD97":2544230.6699999999,"ADDRESS":"西門路二段３３３巷７號","OBJECTID":395644},"geometry":{"x":167903.76999999955,"y":2544230.6700000018}},{"attributes":{"ID":395669,"DIS_CODE":0,"TOWNNAME":"中西區","LI":"水仙里","LIN":"16鄰","STREET":"西門路","SECT":"二段","MAREA":" ","LANE":"３３３巷","ALLEY":" ","HOUSE_NO":"８號","E_COORD97":167898.76000000001,"N_COORD97":2544231.5099999998,"ADDRESS":"西門路二段３３３巷８號","OBJECTID":395645},"geometry":{"x":167898.75999999978,"y":2544231.5100000016}},{"attributes":{"ID":395670,"DIS_CODE":0,"TOWNNAME":"中西區","LI":"水仙里","LIN":"16鄰","STREET":"西門路","SECT":"二段","MAREA":" ","LANE":"３３３巷","ALLEY":" ","HOUSE_NO":"９號","E_COORD97":167892.63,"N_COORD97":2544230.6699999999,"ADDRESS":"西門路二段３３３巷９號","OBJECTID":395646},"geometry":{"x":167892.63000000082,"y":2544230.6700000018}},{"attributes":{"ID":395671,"DIS_CODE":0,"TOWNNAME":"中西區","LI":"西湖里","LIN":"16鄰","STREET":"湖美一街","SECT":" ","MAREA":" ","LANE":"１０８巷","ALLEY":" ","HOUSE_NO":"４號","E_COORD97":166072.54999999999,"N_COORD97":2544844.7999999998,"ADDRESS":"湖美一街１０８巷４號","OBJECTID":395647},"geometry":{"x":166072.55000000075,"y":2544844.8000000026}},{"attributes":{"ID":395672,"DIS_CODE":0,"TOWNNAME":"中西區","LI":"西湖里","LIN":"16鄰","STREET":"湖美一街","SECT":" ","MAREA":" ","LANE":"１０８巷","ALLEY":" ","HOUSE_NO":"５號","E_COORD97":166076.20000000001,"N_COORD97":2544866.6800000002,"ADDRESS":"湖美一街１０８巷５號","OBJECTID":395648},"geometry":{"x":166076.20000000205,"y":2544866.6799999978}},{"attributes":{"ID":395673,"DIS_CODE":0,"TOWNNAME":"中西區","LI":"西湖里","LIN":"16鄰","STREET":"湖美一街","SECT":" ","MAREA":" ","LANE":"１０８巷","ALLEY":" ","HOUSE_NO":"６號","E_COORD97":166077.41,"N_COORD97":2544845.0499999998,"ADDRESS":"湖美一街１０８巷６號","OBJECTID":395649},"geometry":{"x":166077.41000000015,"y":2544845.0500000045}},{"attributes":{"ID":395674,"DIS_CODE":0,"TOWNNAME":"中西區","LI":"西湖里","LIN":"16鄰","STREET":"湖美一街","SECT":" ","MAREA":" ","LANE":"１０８巷","ALLEY":" ","HOUSE_NO":"７號","E_COORD97":166080.82000000001,"N_COORD97":2544866.4300000002,"ADDRESS":"湖美一街１０８巷７號","OBJECTID":395650},"geometry":{"x":166080.82000000123,"y":2544866.4300000016}},{"attributes":{"ID":395675,"DIS_CODE":0,"TOWNNAME":"中西區","LI":"西湖里","LIN":"16鄰","STREET":"湖美一街","SECT":" ","MAREA":" ","LANE":"１０８巷","ALLEY":" ","HOUSE_NO":"８號","E_COORD97":166081.79000000001,"N_COORD97":2544844.7999999998,"ADDRESS":"湖美一街１０８巷８號","OBJECTID":395651},"geometry":{"x":166081.79000000004,"y":2544844.8000000026}},{"attributes":{"ID":395676,"DIS_CODE":0,"TOWNNAME":"中西區","LI":"西湖里","LIN":"16鄰","STREET":"湖美一街","SECT":" ","MAREA":" ","LANE":"１０８巷","ALLEY":" ","HOUSE_NO":"９號","E_COORD97":166085.44,"N_COORD97":2544866.9199999999,"ADDRESS":"湖美一街１０８巷９號","OBJECTID":395652},"geometry":{"x":166085.44000000134,"y":2544866.9200000018}},{"attributes":{"ID":395677,"DIS_CODE":0,"TOWNNAME":"中西區","LI":"西湖里","LIN":"16鄰","STREET":"湖美一街","SECT":" ","MAREA":" ","LANE":"１１４巷","ALLEY":" ","HOUSE_NO":"１０號","E_COORD97":166084.95999999999,"N_COORD97":2544878.3399999999,"ADDRESS":"湖美一街１１４巷１０號","OBJECTID":395653},"geometry":{"x":166084.96000000089,"y":2544878.3399999999}},{"attributes":{"ID":395678,"DIS_CODE":0,"TOWNNAME":"中西區","LI":"西湖里","LIN":"16鄰","STREET":"湖美一街","SECT":" ","MAREA":" ","LANE":"１１４巷","ALLEY":" ","HOUSE_NO":"１１號","E_COORD97":166088.12,"N_COORD97":2544899.2400000002,"ADDRESS":"湖美一街１１４巷１１號","OBJECTID":395654},"geometry":{"x":166088.12000000011,"y":2544899.2400000021}},{"attributes":{"ID":395679,"DIS_CODE":0,"TOWNNAME":"中西區","LI":"西湖里","LIN":"16鄰","STREET":"湖美一街","SECT":" ","MAREA":" ","LANE":"１１４巷","ALLEY":" ","HOUSE_NO":"１２號","E_COORD97":166089.09,"N_COORD97":2544879.3100000001,"ADDRESS":"湖美一街１１４巷１２號","OBJECTID":395655},"geometry":{"x":166089.09000000078,"y":2544879.3100000005}},{"attributes":{"ID":395680,"DIS_CODE":0,"TOWNNAME":"中西區","LI":"西湖里","LIN":"16鄰","STREET":"湖美一街","SECT":" ","MAREA":" ","LANE":"１１４巷","ALLEY":" ","HOUSE_NO":"２號","E_COORD97":166066.70999999999,"N_COORD97":2544878.5800000001,"ADDRESS":"湖美一街１１４巷２號","OBJECTID":395656},"geometry":{"x":166066.70999999996,"y":2544878.5800000019}},{"attributes":{"ID":395681,"DIS_CODE":0,"TOWNNAME":"中西區","LI":"西湖里","LIN":"16鄰","STREET":"湖美一街","SECT":" ","MAREA":" ","LANE":"１１４巷","ALLEY":" ","HOUSE_NO":"３號","E_COORD97":166070.60000000001,"N_COORD97":2544900.21,"ADDRESS":"湖美一街１１４巷３號","OBJECTID":395657},"geometry":{"x":166070.59999999963,"y":2544900.2100000009}},{"attributes":{"ID":395682,"DIS_CODE":0,"TOWNNAME":"中西區","LI":"西湖里","LIN":"16鄰","STREET":"湖美一街","SECT":" ","MAREA":" ","LANE":"１１４巷","ALLEY":" ","HOUSE_NO":"４號","E_COORD97":166071.57000000001,"N_COORD97":2544878.5800000001,"ADDRESS":"湖美一街１１４巷４號","OBJECTID":395658},"geometry":{"x":166071.5700000003,"y":2544878.5800000019}},{"attributes":{"ID":395683,"DIS_CODE":0,"TOWNNAME":"中西區","LI":"西湖里","LIN":"16鄰","STREET":"湖美一街","SECT":" ","MAREA":" ","LANE":"１１４巷","ALLEY":" ","HOUSE_NO":"５號","E_COORD97":166075.22,"N_COORD97":2544900.21,"ADDRESS":"湖美一街１１４巷５號","OBJECTID":395659},"geometry":{"x":166075.21999999974,"y":2544900.2100000009}},{"attributes":{"ID":395684,"DIS_CODE":0,"TOWNNAME":"中西區","LI":"西湖里","LIN":"16鄰","STREET":"湖美一街","SECT":" ","MAREA":" ","LANE":"１１４巷","ALLEY":" ","HOUSE_NO":"６號","E_COORD97":166076.20000000001,"N_COORD97":2544879.3100000001,"ADDRESS":"湖美一街１１４巷６號","OBJECTID":395660},"geometry":{"x":166076.20000000205,"y":2544879.3100000005}},{"attributes":{"ID":395685,"DIS_CODE":0,"TOWNNAME":"中西區","LI":"西湖里","LIN":"16鄰","STREET":"湖美一街","SECT":" ","MAREA":" ","LANE":"１１４巷","ALLEY":" ","HOUSE_NO":"７號","E_COORD97":166079.60000000001,"N_COORD97":2544900.21,"ADDRESS":"湖美一街１１４巷７號","OBJECTID":395661},"geometry":{"x":166079.5999999987,"y":2544900.2100000009}},{"attributes":{"ID":395686,"DIS_CODE":0,"TOWNNAME":"中西區","LI":"西湖里","LIN":"16鄰","STREET":"湖美一街","SECT":" ","MAREA":" ","LANE":"１１４巷","ALLEY":" ","HOUSE_NO":"８號","E_COORD97":166080.57999999999,"N_COORD97":2544878.5800000001,"ADDRESS":"湖美一街１１４巷８號","OBJECTID":395662},"geometry":{"x":166080.58000000101,"y":2544878.5800000019}},{"attributes":{"ID":395687,"DIS_CODE":0,"TOWNNAME":"中西區","LI":"西湖里","LIN":"16鄰","STREET":"湖美一街","SECT":" ","MAREA":" ","LANE":"１１４巷","ALLEY":" ","HOUSE_NO":"９號","E_COORD97":166084.70999999999,"N_COORD97":2544900.7000000002,"ADDRESS":"湖美一街１１４巷９號","OBJECTID":395663},"geometry":{"x":166084.71000000089,"y":2544900.7000000011}},{"attributes":{"ID":395688,"DIS_CODE":0,"TOWNNAME":"中西區","LI":"西湖里","LIN":"16鄰","STREET":"湖美一街","SECT":" ","MAREA":" ","LANE":"１１５巷","ALLEY":" ","HOUSE_NO":"１０號","E_COORD97":166032.14999999999,"N_COORD97":2544861.23,"ADDRESS":"湖美一街１１５巷１０號","OBJECTID":395664},"geometry":{"x":166032.15000000037,"y":2544861.2300000023}},{"attributes":{"ID":395689,"DIS_CODE":0,"TOWNNAME":"中西區","LI":"西湖里","LIN":"16鄰","STREET":"湖美一街","SECT":" ","MAREA":" ","LANE":"１１５巷","ALLEY":" ","HOUSE_NO":"１１號","E_COORD97":166028.75,"N_COORD97":2544832.3100000001,"ADDRESS":"湖美一街１１５巷１１號","OBJECTID":395665},"geometry":{"x":166028.75000000093,"y":2544832.3100000005}},{"attributes":{"ID":395690,"DIS_CODE":0,"TOWNNAME":"中西區","LI":"西湖里","LIN":"16鄰","STREET":"湖美一街","SECT":" ","MAREA":" ","LANE":"１１５巷","ALLEY":" ","HOUSE_NO":"１２號","E_COORD97":166027.76999999999,"N_COORD97":2544861.7200000002,"ADDRESS":"湖美一街１１５巷１２號","OBJECTID":395666},"geometry":{"x":166027.77000000048,"y":2544861.7200000025}},{"attributes":{"ID":395691,"DIS_CODE":0,"TOWNNAME":"中西區","LI":"西湖里","LIN":"16鄰","STREET":"湖美一街","SECT":" ","MAREA":" ","LANE":"１１５巷","ALLEY":" ","HOUSE_NO":"１３號","E_COORD97":166023.88,"N_COORD97":2544832.3100000001,"ADDRESS":"湖美一街１１５巷１３號","OBJECTID":395667},"geometry":{"x":166023.88000000175,"y":2544832.3100000005}},{"attributes":{"ID":395692,"DIS_CODE":0,"TOWNNAME":"中西區","LI":"西湖里","LIN":"16鄰","STREET":"湖美一街","SECT":" ","MAREA":" ","LANE":"１１５巷","ALLEY":" ","HOUSE_NO":"１４號","E_COORD97":166023.14999999999,"N_COORD97":2544861.96,"ADDRESS":"湖美一街１１５巷１４號","OBJECTID":395668},"geometry":{"x":166023.1500000013,"y":2544861.9600000009}},{"attributes":{"ID":395693,"DIS_CODE":0,"TOWNNAME":"中西區","LI":"西湖里","LIN":"16鄰","STREET":"湖美一街","SECT":" ","MAREA":" ","LANE":"１１５巷","ALLEY":" ","HOUSE_NO":"１號","E_COORD97":166050.39999999999,"N_COORD97":2544833.29,"ADDRESS":"湖美一街１１５巷１號","OBJECTID":395669},"geometry":{"x":166050.4000000013,"y":2544833.290000001}},{"attributes":{"ID":395694,"DIS_CODE":0,"TOWNNAME":"中西區","LI":"西湖里","LIN":"16鄰","STREET":"湖美一街","SECT":" ","MAREA":" ","LANE":"１１５巷","ALLEY":" ","HOUSE_NO":"２號","E_COORD97":166050.16,"N_COORD97":2544862.4500000002,"ADDRESS":"湖美一街１１５巷２號","OBJECTID":395670},"geometry":{"x":166050.16000000108,"y":2544862.4500000011}},{"attributes":{"ID":395695,"DIS_CODE":0,"TOWNNAME":"中西區","LI":"西湖里","LIN":"16鄰","STREET":"湖美一街","SECT":" ","MAREA":" ","LANE":"１１５巷","ALLEY":" ","HOUSE_NO":"３號","E_COORD97":166045.04999999999,"N_COORD97":2544833.04,"ADDRESS":"湖美一街１１５巷３號","OBJECTID":395671},"geometry":{"x":166045.05000000075,"y":2544833.0399999991}},{"attributes":{"ID":395696,"DIS_CODE":0,"TOWNNAME":"中西區","LI":"西湖里","LIN":"16鄰","STREET":"湖美一街","SECT":" ","MAREA":" ","LANE":"１１５巷","ALLEY":" ","HOUSE_NO":"５號","E_COORD97":166041.39999999999,"N_COORD97":2544832.7999999998,"ADDRESS":"湖美一街１１５巷５號","OBJECTID":395672},"geometry":{"x":166041.4000000013,"y":2544832.8000000007}},{"attributes":{"ID":395697,"DIS_CODE":0,"TOWNNAME":"中西區","LI":"西湖里","LIN":"16鄰","STREET":"湖美一街","SECT":" ","MAREA":" ","LANE":"１１５巷","ALLEY":" ","HOUSE_NO":"６號","E_COORD97":166041.39999999999,"N_COORD97":2544861.7200000002,"ADDRESS":"湖美一街１１５巷６號","OBJECTID":395673},"geometry":{"x":166041.4000000013,"y":2544861.7200000025}},{"attributes":{"ID":395698,"DIS_CODE":0,"TOWNNAME":"中西區","LI":"西湖里","LIN":"16鄰","STREET":"湖美一街","SECT":" ","MAREA":" ","LANE":"１１５巷","ALLEY":" ","HOUSE_NO":"７號","E_COORD97":166037.26000000001,"N_COORD97":2544832.7999999998,"ADDRESS":"湖美一街１１５巷７號","OBJECTID":395674},"geometry":{"x":166037.25999999978,"y":2544832.8000000007}},{"attributes":{"ID":395699,"DIS_CODE":0,"TOWNNAME":"中西區","LI":"西湖里","LIN":"16鄰","STREET":"湖美一街","SECT":" ","MAREA":" ","LANE":"１１５巷","ALLEY":" ","HOUSE_NO":"８號","E_COORD97":166036.29000000001,"N_COORD97":2544861.48,"ADDRESS":"湖美一街１１５巷８號","OBJECTID":395675},"geometry":{"x":166036.29000000004,"y":2544861.4800000004}},{"attributes":{"ID":395700,"DIS_CODE":0,"TOWNNAME":"中西區","LI":"西湖里","LIN":"16鄰","STREET":"湖美一街","SECT":" ","MAREA":" ","LANE":"１１５巷","ALLEY":" ","HOUSE_NO":"９號","E_COORD97":166033.13,"N_COORD97":2544832.3100000001,"ADDRESS":"湖美一街１１５巷９號","OBJECTID":395676},"geometry":{"x":166033.13000000082,"y":2544832.3100000005}},{"attributes":{"ID":395701,"DIS_CODE":0,"TOWNNAME":"中西區","LI":"西湖里","LIN":"16鄰","STREET":"湖美一街","SECT":" ","MAREA":" ","LANE":"１２１巷","ALLEY":" ","HOUSE_NO":"１０號","E_COORD97":166031.07000000001,"N_COORD97":2544900.7400000002,"ADDRESS":"湖美一街１２１巷１０號","OBJECTID":395677},"geometry":{"x":166031.0700000003,"y":2544900.7399999984}},{"attributes":{"ID":395702,"DIS_CODE":0,"TOWNNAME":"中西區","LI":"西湖里","LIN":"16鄰","STREET":"湖美一街","SECT":" ","MAREA":" ","LANE":"１２１巷","ALLEY":" ","HOUSE_NO":"１１號","E_COORD97":166027.53,"N_COORD97":2544875.5699999998,"ADDRESS":"湖美一街１２１巷１１號","OBJECTID":395678},"geometry":{"x":166027.53000000026,"y":2544875.5700000022}},{"attributes":{"ID":395703,"DIS_CODE":0,"TOWNNAME":"中西區","LI":"西湖里","LIN":"16鄰","STREET":"湖美一街","SECT":" ","MAREA":" ","LANE":"１２１巷","ALLEY":" ","HOUSE_NO":"１２號","E_COORD97":166026.78,"N_COORD97":2544901.02,"ADDRESS":"湖美一街１２１巷１２號","OBJECTID":395679},"geometry":{"x":166026.78000000119,"y":2544901.0199999996}},{"attributes":{"ID":395704,"DIS_CODE":0,"TOWNNAME":"中西區","LI":"西湖里","LIN":"16鄰","STREET":"湖美一街","SECT":" ","MAREA":" ","LANE":"１２１巷","ALLEY":" ","HOUSE_NO":"１３號","E_COORD97":166022.91,"N_COORD97":2544875.0800000001,"ADDRESS":"湖美一街１２１巷１３號","OBJECTID":395680},"geometry":{"x":166022.91000000108,"y":2544875.0800000019}},{"attributes":{"ID":395705,"DIS_CODE":0,"TOWNNAME":"中西區","LI":"西湖里","LIN":"16鄰","STREET":"湖美一街","SECT":" ","MAREA":" ","LANE":"１２１巷","ALLEY":" ","HOUSE_NO":"１４號","E_COORD97":166021.67999999999,"N_COORD97":2544901.1400000001,"ADDRESS":"湖美一街１２１巷１４號","OBJECTID":395681},"geometry":{"x":166021.68000000156,"y":2544901.1400000006}},{"attributes":{"ID":395706,"DIS_CODE":0,"TOWNNAME":"中西區","LI":"西湖里","LIN":"16鄰","STREET":"湖美一街","SECT":" ","MAREA":" ","LANE":"１２１巷","ALLEY":" ","HOUSE_NO":"１號","E_COORD97":166050.16,"N_COORD97":2544875.8100000001,"ADDRESS":"湖美一街１２１巷１號","OBJECTID":395682},"geometry":{"x":166050.16000000108,"y":2544875.8100000005}},{"attributes":{"ID":395707,"DIS_CODE":0,"TOWNNAME":"中西區","LI":"西湖里","LIN":"16鄰","STREET":"湖美一街","SECT":" ","MAREA":" ","LANE":"１２１巷","ALLEY":" ","HOUSE_NO":"２號","E_COORD97":166048.94,"N_COORD97":2544900.8399999999,"ADDRESS":"湖美一街１２１巷２號","OBJECTID":395683},"geometry":{"x":166048.94000000041,"y":2544900.8400000017}},{"attributes":{"ID":395708,"DIS_CODE":0,"TOWNNAME":"中西區","LI":"西湖里","LIN":"16鄰","STREET":"湖美一街","SECT":" ","MAREA":" ","LANE":"１２１巷","ALLEY":" ","HOUSE_NO":"３號","E_COORD97":166045.04999999999,"N_COORD97":2544875.5699999998,"ADDRESS":"湖美一街１２１巷３號","OBJECTID":395684},"geometry":{"x":166045.05000000075,"y":2544875.5700000022}},{"attributes":{"ID":395709,"DIS_CODE":0,"TOWNNAME":"中西區","LI":"西湖里","LIN":"16鄰","STREET":"湖美一街","SECT":" ","MAREA":" ","LANE":"１２１巷","ALLEY":" ","HOUSE_NO":"４號","E_COORD97":166043.82999999999,"N_COORD97":2544899.8700000001,"ADDRESS":"湖美一街１２１巷４號","OBJECTID":395685},"geometry":{"x":166043.83000000101,"y":2544899.870000001}},{"attributes":{"ID":395710,"DIS_CODE":0,"TOWNNAME":"中西區","LI":"西湖里","LIN":"16鄰","STREET":"湖美一街","SECT":" ","MAREA":" ","LANE":"１２１巷","ALLEY":" ","HOUSE_NO":"５號","E_COORD97":166040.67000000001,"N_COORD97":2544876.0600000001,"ADDRESS":"湖美一街１２１巷５號","OBJECTID":395686},"geometry":{"x":166040.67000000179,"y":2544876.0600000024}},{"attributes":{"ID":395711,"DIS_CODE":0,"TOWNNAME":"中西區","LI":"西湖里","LIN":"16鄰","STREET":"湖美一街","SECT":" ","MAREA":" ","LANE":"１２１巷","ALLEY":" ","HOUSE_NO":"７號","E_COORD97":166036.29000000001,"N_COORD97":2544875.5699999998,"ADDRESS":"湖美一街１２１巷７號","OBJECTID":395687},"geometry":{"x":166036.29000000004,"y":2544875.5700000022}},{"attributes":{"ID":395712,"DIS_CODE":0,"TOWNNAME":"中西區","LI":"西湖里","LIN":"16鄰","STREET":"湖美一街","SECT":" ","MAREA":" ","LANE":"１２１巷","ALLEY":" ","HOUSE_NO":"８號","E_COORD97":166035.32000000001,"N_COORD97":2544900.6000000001,"ADDRESS":"湖美一街１２１巷８號","OBJECTID":395688},"geometry":{"x":166035.32000000123,"y":2544900.5999999996}},{"attributes":{"ID":395713,"DIS_CODE":0,"TOWNNAME":"中西區","LI":"西湖里","LIN":"16鄰","STREET":"湖美一街","SECT":" ","MAREA":" ","LANE":"１２１巷","ALLEY":" ","HOUSE_NO":"９號","E_COORD97":166031.91,"N_COORD97":2544875.5699999998,"ADDRESS":"湖美一街１２１巷９號","OBJECTID":395689},"geometry":{"x":166031.91000000015,"y":2544875.5700000022}},{"attributes":{"ID":395714,"DIS_CODE":0,"TOWNNAME":"中西區","LI":"西湖里","LIN":"16鄰","STREET":"湖美一街","SECT":" ","MAREA":" ","LANE":"１１４巷","ALLEY":" ","HOUSE_NO":"１號","E_COORD97":166065.98000000001,"N_COORD97":2544899.9700000002,"ADDRESS":"湖美一街１１４巷１號","OBJECTID":395690},"geometry":{"x":166065.97999999952,"y":2544899.9700000044}},{"attributes":{"ID":395715,"DIS_CODE":0,"TOWNNAME":"仁德區","LI":"太子里","LIN":"43鄰","STREET":"太子路","SECT":" ","MAREA":" ","LANE":"１０１巷","ALLEY":" ","HOUSE_NO":"４１號","E_COORD97":174946.98000000001,"N_COORD97":2543458.25,"ADDRESS":"太子路１０１巷４１號","OBJECTID":395691},"geometry":{"x":174946.98000000045,"y":2543458.25}},{"attributes":{"ID":395716,"DIS_CODE":0,"TOWNNAME":"仁德區","LI":"成功里","LIN":"4鄰","STREET":"成功三街","SECT":" ","MAREA":" ","LANE":"９３巷","ALLEY":" ","HOUSE_NO":"７號","E_COORD97":171215.04999999999,"N_COORD97":2539806.27,"ADDRESS":"成功三街９３巷７號","OBJECTID":395692},"geometry":{"x":171215.05000000168,"y":2539806.2699999996}},{"attributes":{"ID":395717,"DIS_CODE":0,"TOWNNAME":"中西區","LI":"西湖里","LIN":"16鄰","STREET":"湖美一街","SECT":" ","MAREA":" ","LANE":"１７３巷","ALLEY":" ","HOUSE_NO":"７號","E_COORD97":166032.45000000001,"N_COORD97":2545002.3599999999,"ADDRESS":"湖美一街１７３巷７號","OBJECTID":395693},"geometry":{"x":166032.45000000112,"y":2545002.3600000013}},{"attributes":{"ID":395718,"DIS_CODE":0,"TOWNNAME":"中西區","LI":"西湖里","LIN":"16鄰","STREET":"湖美一街","SECT":" ","MAREA":" ","LANE":"１７３巷","ALLEY":" ","HOUSE_NO":"５號","E_COORD97":166039.41,"N_COORD97":2545002.6299999999,"ADDRESS":"湖美一街１７３巷５號","OBJECTID":395694},"geometry":{"x":166039.41000000108,"y":2545002.6300000008}},{"attributes":{"ID":395719,"DIS_CODE":0,"TOWNNAME":"中西區","LI":"水仙里","LIN":"16鄰","STREET":"西門路","SECT":"二段","MAREA":" ","LANE":"３３３巷","ALLEY":" ","HOUSE_NO":"２號","E_COORD97":167926.04000000001,"N_COORD97":2544220.52,"ADDRESS":"西門路二段３３３巷２號","OBJECTID":395695},"geometry":{"x":167926.04000000004,"y":2544220.5200000033}},{"attributes":{"ID":395720,"DIS_CODE":0,"TOWNNAME":"中西區","LI":"水仙里","LIN":"16鄰","STREET":"西門路","SECT":"二段","MAREA":" ","LANE":"３３３巷","ALLEY":" ","HOUSE_NO":"３號","E_COORD97":167923.12,"N_COORD97":2544223.5800000001,"ADDRESS":"西門路二段３３３巷３號","OBJECTID":395696},"geometry":{"x":167923.12000000104,"y":2544223.5799999982}},{"attributes":{"ID":395721,"DIS_CODE":0,"TOWNNAME":"中西區","LI":"西湖里","LIN":"16鄰","STREET":"湖美一街","SECT":" ","MAREA":" ","LANE":"１０８巷","ALLEY":" ","HOUSE_NO":"２５號","E_COORD97":166113.42999999999,"N_COORD97":2544867.3999999999,"ADDRESS":"湖美一街１０８巷２５號","OBJECTID":395697},"geometry":{"x":166113.43000000063,"y":2544867.4000000022}},{"attributes":{"ID":395722,"DIS_CODE":0,"TOWNNAME":"中西區","LI":"西湖里","LIN":"16鄰","STREET":"湖美一街","SECT":" ","MAREA":" ","LANE":"１０８巷","ALLEY":" ","HOUSE_NO":"１５號","E_COORD97":166094.92999999999,"N_COORD97":2544863.7599999998,"ADDRESS":"湖美一街１０８巷１５號","OBJECTID":395698},"geometry":{"x":166094.93000000063,"y":2544863.7600000016}},{"attributes":{"ID":395723,"DIS_CODE":0,"TOWNNAME":"中西區","LI":"西湖里","LIN":"16鄰","STREET":"湖美一街","SECT":" ","MAREA":" ","LANE":"１０８巷","ALLEY":" ","HOUSE_NO":"１３號","E_COORD97":166099.79999999999,"N_COORD97":2544864,"ADDRESS":"湖美一街１０８巷１３號","OBJECTID":395699},"geometry":{"x":166099.79999999981,"y":2544864}},{"attributes":{"ID":395724,"DIS_CODE":0,"TOWNNAME":"中西區","LI":"西湖里","LIN":"16鄰","STREET":"湖美一街","SECT":" ","MAREA":" ","LANE":"１０８巷","ALLEY":" ","HOUSE_NO":"２７號","E_COORD97":166107.59,"N_COORD97":2544867.6499999999,"ADDRESS":"湖美一街１０８巷２７號","OBJECTID":395700},"geometry":{"x":166107.59000000078,"y":2544867.6499999985}},{"attributes":{"ID":395725,"DIS_CODE":0,"TOWNNAME":"中西區","LI":"西湖里","LIN":"16鄰","STREET":"湖美一街","SECT":" ","MAREA":" ","LANE":"１１４巷","ALLEY":" ","HOUSE_NO":"１３號","E_COORD97":166093.23000000001,"N_COORD97":2544897.7799999998,"ADDRESS":"湖美一街１１４巷１３號","OBJECTID":395701},"geometry":{"x":166093.23000000231,"y":2544897.7800000012}},{"attributes":{"ID":395726,"DIS_CODE":0,"TOWNNAME":"仁德區","LI":"仁義里","LIN":"16鄰","STREET":"義林路","SECT":" ","MAREA":" ","LANE":"２４１巷","ALLEY":" ","HOUSE_NO":"３號","E_COORD97":174497.45000000001,"N_COORD97":2541293.5099999998,"ADDRESS":"義林路２４１巷３號","OBJECTID":395702},"geometry":{"x":174497.45000000019,"y":2541293.5099999998}},{"attributes":{"ID":395727,"DIS_CODE":0,"TOWNNAME":"仁德區","LI":"土庫里","LIN":"16鄰","STREET":"土庫一街","SECT":" ","MAREA":" ","LANE":"８１１巷","ALLEY":" ","HOUSE_NO":"１７５號","E_COORD97":174625.95999999999,"N_COORD97":2542433.4900000002,"ADDRESS":"土庫一街８１１巷１７５號","OBJECTID":395703},"geometry":{"x":174625.95999999996,"y":2542433.4900000002}},{"attributes":{"ID":395728,"DIS_CODE":0,"TOWNNAME":"仁德區","LI":"土庫里","LIN":"16鄰","STREET":"土庫一街","SECT":" ","MAREA":" ","LANE":"７４巷","ALLEY":" ","HOUSE_NO":"４號","E_COORD97":174558.17999999999,"N_COORD97":2543048.4900000002,"ADDRESS":"土庫一街７４巷４號","OBJECTID":395704},"geometry":{"x":174558.1799999997,"y":2543048.4900000021}},{"attributes":{"ID":395729,"DIS_CODE":0,"TOWNNAME":"仁德區","LI":"土庫里","LIN":"16鄰","STREET":"土庫一街","SECT":" ","MAREA":" ","LANE":"８２巷","ALLEY":" ","HOUSE_NO":"９號","E_COORD97":174577.87,"N_COORD97":2542996.75,"ADDRESS":"土庫一街８２巷９號","OBJECTID":395705},"geometry":{"x":174577.87000000011,"y":2542996.7500000019}},{"attributes":{"ID":395730,"DIS_CODE":0,"TOWNNAME":"安南區","LI":"溪東里","LIN":"16鄰","STREET":"北安路","SECT":"二段","MAREA":" ","LANE":"１２３巷","ALLEY":" ","HOUSE_NO":"１９號","E_COORD97":168403.60000000001,"N_COORD97":2547503.1299999999,"ADDRESS":"北安路二段１２３巷１９號","OBJECTID":395706},"geometry":{"x":168403.59999999963,"y":2547503.129999999}},{"attributes":{"ID":395731,"DIS_CODE":0,"TOWNNAME":"安南區","LI":"溪東里","LIN":"16鄰","STREET":"北安路","SECT":"二段","MAREA":" ","LANE":"１２３巷","ALLEY":" ","HOUSE_NO":"２０號","E_COORD97":168401.37,"N_COORD97":2547527.4500000002,"ADDRESS":"北安路二段１２３巷２０號","OBJECTID":395707},"geometry":{"x":168401.37000000104,"y":2547527.4500000011}},{"attributes":{"ID":395732,"DIS_CODE":0,"TOWNNAME":"安南區","LI":"溪東里","LIN":"16鄰","STREET":"北安路","SECT":"二段","MAREA":" ","LANE":"１２３巷","ALLEY":" ","HOUSE_NO":"２１號","E_COORD97":168397.26999999999,"N_COORD97":2547502.5299999998,"ADDRESS":"北安路二段１２３巷２１號","OBJECTID":395708},"geometry":{"x":168397.26999999955,"y":2547502.5300000012}},{"attributes":{"ID":395733,"DIS_CODE":0,"TOWNNAME":"安南區","LI":"溪東里","LIN":"16鄰","STREET":"北安路","SECT":"二段","MAREA":" ","LANE":"１２３巷","ALLEY":" ","HOUSE_NO":"２３號","E_COORD97":168391.19,"N_COORD97":2547500.8900000001,"ADDRESS":"北安路二段１２３巷２３號","OBJECTID":395709},"geometry":{"x":168391.19000000134,"y":2547500.8900000043}},{"attributes":{"ID":395734,"DIS_CODE":0,"TOWNNAME":"安南區","LI":"溪東里","LIN":"16鄰","STREET":"北安路","SECT":"二段","MAREA":" ","LANE":"１２３巷","ALLEY":" ","HOUSE_NO":"２５號","E_COORD97":168384.53,"N_COORD97":2547500.4100000001,"ADDRESS":"北安路二段１２３巷２５號","OBJECTID":395710},"geometry":{"x":168384.53000000212,"y":2547500.4100000039}},{"attributes":{"ID":395735,"DIS_CODE":0,"TOWNNAME":"安南區","LI":"溪東里","LIN":"16鄰","STREET":"北安路","SECT":"二段","MAREA":" ","LANE":"１２３巷","ALLEY":" ","HOUSE_NO":"２７號","E_COORD97":168378.26000000001,"N_COORD97":2547499.3500000001,"ADDRESS":"北安路二段１２３巷２７號","OBJECTID":395711},"geometry":{"x":168378.26000000071,"y":2547499.3499999996}},{"attributes":{"ID":395736,"DIS_CODE":0,"TOWNNAME":"安南區","LI":"溪東里","LIN":"16鄰","STREET":"北安路","SECT":"二段","MAREA":" ","LANE":"１２３巷","ALLEY":" ","HOUSE_NO":"２８號","E_COORD97":168376.01000000001,"N_COORD97":2547523.6699999999,"ADDRESS":"北安路二段１２３巷２８號","OBJECTID":395712},"geometry":{"x":168376.01000000071,"y":2547523.6699999999}},{"attributes":{"ID":395737,"DIS_CODE":0,"TOWNNAME":"安南區","LI":"溪東里","LIN":"16鄰","STREET":"北安路","SECT":"二段","MAREA":" ","LANE":"１２３巷","ALLEY":" ","HOUSE_NO":"２９號","E_COORD97":168372.57000000001,"N_COORD97":2547498.5800000001,"ADDRESS":"北安路二段１２３巷２９號","OBJECTID":395713},"geometry":{"x":168372.57000000216,"y":2547498.5800000001}},{"attributes":{"ID":395738,"DIS_CODE":0,"TOWNNAME":"安南區","LI":"溪東里","LIN":"16鄰","STREET":"北安路","SECT":"二段","MAREA":" ","LANE":"１２３巷","ALLEY":" ","HOUSE_NO":"３１號","E_COORD97":168366.10000000001,"N_COORD97":2547498.77,"ADDRESS":"北安路二段１２３巷３１號","OBJECTID":395714},"geometry":{"x":168366.09999999963,"y":2547498.7700000014}},{"attributes":{"ID":395739,"DIS_CODE":0,"TOWNNAME":"安南區","LI":"溪東里","LIN":"16鄰","STREET":"北安路","SECT":"二段","MAREA":" ","LANE":"１２３巷","ALLEY":" ","HOUSE_NO":"３２號","E_COORD97":168363.03,"N_COORD97":2547521.1899999999,"ADDRESS":"北安路二段１２３巷３２號","OBJECTID":395715},"geometry":{"x":168363.03000000119,"y":2547521.1900000032}},{"attributes":{"ID":395740,"DIS_CODE":0,"TOWNNAME":"安南區","LI":"溪東里","LIN":"16鄰","STREET":"北安路","SECT":"二段","MAREA":" ","LANE":"１２３巷","ALLEY":" ","HOUSE_NO":"３７號","E_COORD97":168346.82999999999,"N_COORD97":2547495.1099999999,"ADDRESS":"北安路二段１２３巷３７號","OBJECTID":395716},"geometry":{"x":168346.83000000194,"y":2547495.1100000013}},{"attributes":{"ID":395741,"DIS_CODE":0,"TOWNNAME":"安南區","LI":"溪東里","LIN":"16鄰","STREET":"北安路","SECT":"二段","MAREA":" ","LANE":"１２３巷","ALLEY":" ","HOUSE_NO":"３８號","E_COORD97":168343.10999999999,"N_COORD97":2547518.8399999999,"ADDRESS":"北安路二段１２３巷３８號","OBJECTID":395717},"geometry":{"x":168343.11000000034,"y":2547518.8400000017}},{"attributes":{"ID":395742,"DIS_CODE":0,"TOWNNAME":"安南區","LI":"溪東里","LIN":"16鄰","STREET":"北安路","SECT":"二段","MAREA":" ","LANE":"１２３巷","ALLEY":" ","HOUSE_NO":"３９號","E_COORD97":168339.89000000001,"N_COORD97":2547495.0099999998,"ADDRESS":"北安路二段１２３巷３９號","OBJECTID":395718},"geometry":{"x":168339.8900000006,"y":2547495.0099999998}},{"attributes":{"ID":395743,"DIS_CODE":0,"TOWNNAME":"安南區","LI":"溪東里","LIN":"16鄰","STREET":"北安路","SECT":"二段","MAREA":" ","LANE":"１２３巷","ALLEY":" ","HOUSE_NO":"４１號","E_COORD97":168332.45999999999,"N_COORD97":2547494.4300000002,"ADDRESS":"北安路二段１２３巷４１號","OBJECTID":395719},"geometry":{"x":168332.46000000089,"y":2547494.4300000016}},{"attributes":{"ID":395744,"DIS_CODE":0,"TOWNNAME":"安南區","LI":"溪東里","LIN":"16鄰","STREET":"北安路","SECT":"二段","MAREA":" ","LANE":"１２３巷","ALLEY":" ","HOUSE_NO":"４２號","E_COORD97":168331.51000000001,"N_COORD97":2547517.5600000001,"ADDRESS":"北安路二段１２３巷４２號","OBJECTID":395720},"geometry":{"x":168331.50999999978,"y":2547517.5600000024}},{"attributes":{"ID":395745,"DIS_CODE":0,"TOWNNAME":"安南區","LI":"溪東里","LIN":"16鄰","STREET":"北安路","SECT":"二段","MAREA":" ","LANE":"１２３巷","ALLEY":" ","HOUSE_NO":"４９號","E_COORD97":168298.5,"N_COORD97":2547490.2000000002,"ADDRESS":"北安路二段１２３巷４９號","OBJECTID":395721},"geometry":{"x":168298.50000000093,"y":2547490.1999999974}},{"attributes":{"ID":395746,"DIS_CODE":0,"TOWNNAME":"安南區","LI":"溪東里","LIN":"16鄰","STREET":"北安路","SECT":"二段","MAREA":" ","LANE":"１２３巷","ALLEY":" ","HOUSE_NO":"５０號","E_COORD97":168294.37,"N_COORD97":2547515.8700000001,"ADDRESS":"北安路二段１２３巷５０號","OBJECTID":395722},"geometry":{"x":168294.37000000104,"y":2547515.8700000029}},{"attributes":{"ID":395747,"DIS_CODE":0,"TOWNNAME":"安南區","LI":"溪東里","LIN":"16鄰","STREET":"北安路","SECT":"二段","MAREA":" ","LANE":"１２３巷","ALLEY":" ","HOUSE_NO":"５３號","E_COORD97":168285.41,"N_COORD97":2547490.0099999998,"ADDRESS":"北安路二段１２３巷５３號","OBJECTID":395723},"geometry":{"x":168285.41000000108,"y":2547490.0100000016}},{"attributes":{"ID":395748,"DIS_CODE":0,"TOWNNAME":"安南區","LI":"溪東里","LIN":"16鄰","STREET":"北安路","SECT":"二段","MAREA":" ","LANE":"１２３巷","ALLEY":" ","HOUSE_NO":"５５號","E_COORD97":168277.41,"N_COORD97":2547490.2599999998,"ADDRESS":"北安路二段１２３巷５５號","OBJECTID":395724},"geometry":{"x":168277.41000000108,"y":2547490.2599999998}},{"attributes":{"ID":395749,"DIS_CODE":0,"TOWNNAME":"安南區","LI":"溪東里","LIN":"16鄰","STREET":"北安路","SECT":"二段","MAREA":" ","LANE":"１２３巷","ALLEY":" ","HOUSE_NO":"６１號","E_COORD97":168262,"N_COORD97":2547485.96,"ADDRESS":"北安路二段１２３巷６１號","OBJECTID":395725},"geometry":{"x":168262,"y":2547485.9600000009}},{"attributes":{"ID":395750,"DIS_CODE":0,"TOWNNAME":"安南區","LI":"溪東里","LIN":"16鄰","STREET":"北安路","SECT":"二段","MAREA":" ","LANE":"１２３巷","ALLEY":" ","HOUSE_NO":"６２號","E_COORD97":168256.26999999999,"N_COORD97":2547509.48,"ADDRESS":"北安路二段１２３巷６２號","OBJECTID":395726},"geometry":{"x":168256.26999999955,"y":2547509.4800000004}},{"attributes":{"ID":395751,"DIS_CODE":0,"TOWNNAME":"安南區","LI":"溪東里","LIN":"16鄰","STREET":"北安路","SECT":"二段","MAREA":" ","LANE":"１２３巷","ALLEY":" ","HOUSE_NO":"６３號","E_COORD97":168256.32999999999,"N_COORD97":2547485.2999999998,"ADDRESS":"北安路二段１２３巷６３號","OBJECTID":395727},"geometry":{"x":168256.33000000007,"y":2547485.3000000026}},{"attributes":{"ID":395752,"DIS_CODE":0,"TOWNNAME":"安南區","LI":"溪東里","LIN":"16鄰","STREET":"北安路","SECT":"二段","MAREA":" ","LANE":"１２３巷","ALLEY":" ","HOUSE_NO":"６５號","E_COORD97":168251.32000000001,"N_COORD97":2547484.77,"ADDRESS":"北安路二段１２３巷６５號","OBJECTID":395728},"geometry":{"x":168251.3200000003,"y":2547484.7700000014}},{"attributes":{"ID":395753,"DIS_CODE":0,"TOWNNAME":"安南區","LI":"溪東里","LIN":"16鄰","STREET":"北安路","SECT":"二段","MAREA":" ","LANE":"１２３巷","ALLEY":" ","HOUSE_NO":"７７號","E_COORD97":168223.22,"N_COORD97":2547481.0600000001,"ADDRESS":"北安路二段１２３巷７７號","OBJECTID":395729},"geometry":{"x":168223.21999999974,"y":2547481.0600000005}},{"attributes":{"ID":395754,"DIS_CODE":0,"TOWNNAME":"安南區","LI":"溪東里","LIN":"16鄰","STREET":"北安路","SECT":"二段","MAREA":" ","LANE":"１２３巷","ALLEY":" ","HOUSE_NO":"８３號","E_COORD97":168209.53,"N_COORD97":2547478.8399999999,"ADDRESS":"北安路二段１２３巷８３號","OBJECTID":395730},"geometry":{"x":168209.53000000026,"y":2547478.8399999999}},{"attributes":{"ID":395755,"DIS_CODE":0,"TOWNNAME":"安南區","LI":"溪東里","LIN":"16鄰","STREET":"北安路","SECT":"二段","MAREA":" ","LANE":"１２３巷","ALLEY":" ","HOUSE_NO":"８５號","E_COORD97":168204.70000000001,"N_COORD97":2547478.4500000002,"ADDRESS":"北安路二段１２３巷８５號","OBJECTID":395731},"geometry":{"x":168204.70000000019,"y":2547478.4499999974}},{"attributes":{"ID":395756,"DIS_CODE":0,"TOWNNAME":"安南區","LI":"溪心里","LIN":"16鄰","STREET":"安中路","SECT":"二段","MAREA":" ","LANE":"３７巷","ALLEY":" ","HOUSE_NO":"９號","E_COORD97":166959.23999999999,"N_COORD97":2549545.71,"ADDRESS":"安中路二段３７巷９號","OBJECTID":395732},"geometry":{"x":166959.24000000209,"y":2549545.7100000009}},{"attributes":{"ID":395757,"DIS_CODE":0,"TOWNNAME":"東區","LI":"東明里","LIN":"16鄰","STREET":"東安路","SECT":" ","MAREA":" ","LANE":"７６巷","ALLEY":" ","HOUSE_NO":"１號","E_COORD97":170727.91,"N_COORD97":2543679.9900000002,"ADDRESS":"東安路７６巷１號","OBJECTID":395733},"geometry":{"x":170727.90999999922,"y":2543679.9900000021}},{"attributes":{"ID":395758,"DIS_CODE":0,"TOWNNAME":"東區","LI":"東明里","LIN":"16鄰","STREET":"東安路","SECT":" ","MAREA":" ","LANE":"７６巷","ALLEY":" ","HOUSE_NO":"３號","E_COORD97":170728.14000000001,"N_COORD97":2543689.0299999998,"ADDRESS":"東安路７６巷３號","OBJECTID":395734},"geometry":{"x":170728.1400000006,"y":2543689.0300000012}},{"attributes":{"ID":395759,"DIS_CODE":0,"TOWNNAME":"東區","LI":"東明里","LIN":"16鄰","STREET":"東安路","SECT":" ","MAREA":" ","LANE":"７６巷","ALLEY":" ","HOUSE_NO":"５號","E_COORD97":170727.32000000001,"N_COORD97":2543696.8900000001,"ADDRESS":"東安路７６巷５號","OBJECTID":395735},"geometry":{"x":170727.32000000123,"y":2543696.8900000043}},{"attributes":{"ID":395760,"DIS_CODE":0,"TOWNNAME":"東區","LI":"東明里","LIN":"16鄰","STREET":"東安路","SECT":" ","MAREA":" ","LANE":"７６巷","ALLEY":" ","HOUSE_NO":"７號","E_COORD97":170728.95999999999,"N_COORD97":2543710.1600000001,"ADDRESS":"東安路７６巷７號","OBJECTID":395736},"geometry":{"x":170728.95999999996,"y":2543710.1600000001}},{"attributes":{"ID":395761,"DIS_CODE":0,"TOWNNAME":"仁德區","LI":"保安里","LIN":"11鄰","STREET":"中正路","SECT":"一段","MAREA":" ","LANE":"２５１巷","ALLEY":" ","HOUSE_NO":"３號","E_COORD97":171782.29000000001,"N_COORD97":2535997.27,"ADDRESS":"中正路一段２５１巷３號","OBJECTID":395737},"geometry":{"x":171782.29000000097,"y":2535997.2700000014}},{"attributes":{"ID":395762,"DIS_CODE":0,"TOWNNAME":"安南區","LI":"溪心里","LIN":"16鄰","STREET":"安中路","SECT":"二段","MAREA":" ","LANE":"３７巷","ALLEY":" ","HOUSE_NO":"１０１號","E_COORD97":166904.19,"N_COORD97":2549470.25,"ADDRESS":"安中路二段３７巷１０１號","OBJECTID":395738},"geometry":{"x":166904.19000000134,"y":2549470.25}},{"attributes":{"ID":395763,"DIS_CODE":0,"TOWNNAME":"安南區","LI":"溪心里","LIN":"16鄰","STREET":"安中路","SECT":"二段","MAREA":" ","LANE":"３７巷","ALLEY":" ","HOUSE_NO":"１０３號","E_COORD97":166900.54999999999,"N_COORD97":2549473.0299999998,"ADDRESS":"安中路二段３７巷１０３號","OBJECTID":395739},"geometry":{"x":166900.54999999981,"y":2549473.0300000012}},{"attributes":{"ID":395764,"DIS_CODE":0,"TOWNNAME":"安南區","LI":"溪心里","LIN":"16鄰","STREET":"安中路","SECT":"二段","MAREA":" ","LANE":"３７巷","ALLEY":" ","HOUSE_NO":"１０５號","E_COORD97":166896.59,"N_COORD97":2549475.2799999998,"ADDRESS":"安中路二段３７巷１０５號","OBJECTID":395740},"geometry":{"x":166896.58999999985,"y":2549475.2799999993}},{"attributes":{"ID":395765,"DIS_CODE":0,"TOWNNAME":"安南區","LI":"溪心里","LIN":"16鄰","STREET":"安中路","SECT":"二段","MAREA":" ","LANE":"３７巷","ALLEY":" ","HOUSE_NO":"１０７號","E_COORD97":166893.16,"N_COORD97":2549477.7400000002,"ADDRESS":"安中路二段３７巷１０７號","OBJECTID":395741},"geometry":{"x":166893.16000000015,"y":2549477.7399999984}},{"attributes":{"ID":395766,"DIS_CODE":0,"TOWNNAME":"安南區","LI":"溪心里","LIN":"16鄰","STREET":"安中路","SECT":"二段","MAREA":" ","LANE":"３７巷","ALLEY":" ","HOUSE_NO":"１０９號","E_COORD97":166888.66,"N_COORD97":2549479.02,"ADDRESS":"安中路二段３７巷１０９號","OBJECTID":395742},"geometry":{"x":166888.66000000108,"y":2549479.0200000033}},{"attributes":{"ID":395767,"DIS_CODE":0,"TOWNNAME":"安南區","LI":"溪心里","LIN":"16鄰","STREET":"安中路","SECT":"二段","MAREA":" ","LANE":"３７巷","ALLEY":" ","HOUSE_NO":"１１１號","E_COORD97":166884.70000000001,"N_COORD97":2549480.73,"ADDRESS":"安中路二段３７巷１１１號","OBJECTID":395743},"geometry":{"x":166884.69999999925,"y":2549480.7300000004}},{"attributes":{"ID":395768,"DIS_CODE":0,"TOWNNAME":"安南區","LI":"溪心里","LIN":"16鄰","STREET":"安中路","SECT":"二段","MAREA":" ","LANE":"３７巷","ALLEY":" ","HOUSE_NO":"１１３號","E_COORD97":166880.31,"N_COORD97":2549482.8700000001,"ADDRESS":"安中路二段３７巷１１３號","OBJECTID":395744},"geometry":{"x":166880.31000000052,"y":2549482.8700000029}},{"attributes":{"ID":395769,"DIS_CODE":0,"TOWNNAME":"安南區","LI":"溪心里","LIN":"16鄰","STREET":"安中路","SECT":"二段","MAREA":" ","LANE":"３７巷","ALLEY":" ","HOUSE_NO":"１１５號","E_COORD97":166877.31,"N_COORD97":2549485.7599999998,"ADDRESS":"安中路二段３７巷１１５號","OBJECTID":395745},"geometry":{"x":166877.31000000052,"y":2549485.7600000016}},{"attributes":{"ID":395770,"DIS_CODE":0,"TOWNNAME":"安南區","LI":"溪心里","LIN":"16鄰","STREET":"安中路","SECT":"二段","MAREA":" ","LANE":"３７巷","ALLEY":" ","HOUSE_NO":"１１號","E_COORD97":166957.42999999999,"N_COORD97":2549541.0299999998,"ADDRESS":"安中路二段３７巷１１號","OBJECTID":395746},"geometry":{"x":166957.43000000156,"y":2549541.0300000012}},{"attributes":{"ID":395771,"DIS_CODE":0,"TOWNNAME":"安南區","LI":"溪心里","LIN":"16鄰","STREET":"安中路","SECT":"二段","MAREA":" ","LANE":"３７巷","ALLEY":" ","HOUSE_NO":"１３號","E_COORD97":166956.67000000001,"N_COORD97":2549536.5,"ADDRESS":"安中路二段３７巷１３號","OBJECTID":395747},"geometry":{"x":166956.67000000086,"y":2549536.5}},{"attributes":{"ID":395772,"DIS_CODE":0,"TOWNNAME":"安南區","LI":"溪心里","LIN":"16鄰","STREET":"安中路","SECT":"二段","MAREA":" ","LANE":"３７巷","ALLEY":" ","HOUSE_NO":"１５號","E_COORD97":166956.82000000001,"N_COORD97":2549531.8199999998,"ADDRESS":"安中路二段３７巷１５號","OBJECTID":395748},"geometry":{"x":166956.8200000003,"y":2549531.820000004}},{"attributes":{"ID":395773,"DIS_CODE":0,"TOWNNAME":"安南區","LI":"溪心里","LIN":"16鄰","STREET":"安中路","SECT":"二段","MAREA":" ","LANE":"３７巷","ALLEY":" ","HOUSE_NO":"１７號","E_COORD97":166955.62,"N_COORD97":2549527.6000000001,"ADDRESS":"安中路二段３７巷１７號","OBJECTID":395749},"geometry":{"x":166955.62000000104,"y":2549527.5999999996}},{"attributes":{"ID":395774,"DIS_CODE":0,"TOWNNAME":"安南區","LI":"溪心里","LIN":"16鄰","STREET":"安中路","SECT":"二段","MAREA":" ","LANE":"３７巷","ALLEY":" ","HOUSE_NO":"１８號","E_COORD97":166929.89999999999,"N_COORD97":2549521.3399999999,"ADDRESS":"安中路二段３７巷１８號","OBJECTID":395750},"geometry":{"x":166929.9000000013,"y":2549521.3400000017}},{"attributes":{"ID":395775,"DIS_CODE":0,"TOWNNAME":"安南區","LI":"溪心里","LIN":"16鄰","STREET":"安中路","SECT":"二段","MAREA":" ","LANE":"３７巷","ALLEY":" ","HOUSE_NO":"１９號","E_COORD97":166954.41,"N_COORD97":2549523.8199999998,"ADDRESS":"安中路二段３７巷１９號","OBJECTID":395751},"geometry":{"x":166954.40999999922,"y":2549523.8200000003}},{"attributes":{"ID":395776,"DIS_CODE":0,"TOWNNAME":"安南區","LI":"溪心里","LIN":"16鄰","STREET":"安中路","SECT":"二段","MAREA":" ","LANE":"３７巷","ALLEY":" ","HOUSE_NO":"１號","E_COORD97":166963.92999999999,"N_COORD97":2549562.3199999998,"ADDRESS":"安中路二段３７巷１號","OBJECTID":395752},"geometry":{"x":166963.9299999997,"y":2549562.320000004}},{"attributes":{"ID":395777,"DIS_CODE":0,"TOWNNAME":"安南區","LI":"溪心里","LIN":"16鄰","STREET":"安中路","SECT":"二段","MAREA":" ","LANE":"３７巷","ALLEY":" ","HOUSE_NO":"２０號","E_COORD97":166924.91,"N_COORD97":2549523.4100000001,"ADDRESS":"安中路二段３７巷２０號","OBJECTID":395753},"geometry":{"x":166924.91000000015,"y":2549523.4100000001}},{"attributes":{"ID":395778,"DIS_CODE":0,"TOWNNAME":"安南區","LI":"溪心里","LIN":"16鄰","STREET":"安中路","SECT":"二段","MAREA":" ","LANE":"３７巷","ALLEY":" ","HOUSE_NO":"２１號","E_COORD97":166953.5,"N_COORD97":2549518.8399999999,"ADDRESS":"安中路二段３７巷２１號","OBJECTID":395754},"geometry":{"x":166953.5,"y":2549518.8400000017}},{"attributes":{"ID":395779,"DIS_CODE":0,"TOWNNAME":"安南區","LI":"溪心里","LIN":"16鄰","STREET":"安中路","SECT":"二段","MAREA":" ","LANE":"３７巷","ALLEY":" ","HOUSE_NO":"２２號","E_COORD97":166921.51000000001,"N_COORD97":2549524.8700000001,"ADDRESS":"安中路二段３７巷２２號","OBJECTID":395755},"geometry":{"x":166921.51000000071,"y":2549524.870000001}},{"attributes":{"ID":395780,"DIS_CODE":0,"TOWNNAME":"安南區","LI":"溪心里","LIN":"16鄰","STREET":"安中路","SECT":"二段","MAREA":" ","LANE":"３７巷","ALLEY":" ","HOUSE_NO":"２３號","E_COORD97":166951.69,"N_COORD97":2549515.0600000001,"ADDRESS":"安中路二段３７巷２３號","OBJECTID":395756},"geometry":{"x":166951.69000000134,"y":2549515.0600000024}},{"attributes":{"ID":395781,"DIS_CODE":0,"TOWNNAME":"安南區","LI":"溪心里","LIN":"16鄰","STREET":"安中路","SECT":"二段","MAREA":" ","LANE":"３７巷","ALLEY":" ","HOUSE_NO":"２４號","E_COORD97":166917.62,"N_COORD97":2549526.5699999998,"ADDRESS":"安中路二段３７巷２４號","OBJECTID":395757},"geometry":{"x":166917.62000000104,"y":2549526.570000004}},{"attributes":{"ID":395782,"DIS_CODE":0,"TOWNNAME":"安南區","LI":"溪心里","LIN":"16鄰","STREET":"安中路","SECT":"二段","MAREA":" ","LANE":"３７巷","ALLEY":" ","HOUSE_NO":"２５號","E_COORD97":166991.20000000001,"N_COORD97":2549556.8199999998,"ADDRESS":"安中路二段３７巷２５號","OBJECTID":395758},"geometry":{"x":166991.20000000019,"y":2549556.8200000022}},{"attributes":{"ID":395783,"DIS_CODE":0,"TOWNNAME":"安南區","LI":"溪心里","LIN":"16鄰","STREET":"安中路","SECT":"二段","MAREA":" ","LANE":"３７巷","ALLEY":" ","HOUSE_NO":"２６號","E_COORD97":166913.60000000001,"N_COORD97":2549528.1499999999,"ADDRESS":"安中路二段３７巷２６號","OBJECTID":395759},"geometry":{"x":166913.5999999987,"y":2549528.1500000004}},{"attributes":{"ID":395784,"DIS_CODE":0,"TOWNNAME":"安南區","LI":"溪心里","LIN":"16鄰","STREET":"安中路","SECT":"二段","MAREA":" ","LANE":"３７巷","ALLEY":" ","HOUSE_NO":"２７號","E_COORD97":166990.14000000001,"N_COORD97":2549552.3199999998,"ADDRESS":"安中路二段３７巷２７號","OBJECTID":395760},"geometry":{"x":166990.1400000006,"y":2549552.320000004}},{"attributes":{"ID":395785,"DIS_CODE":0,"TOWNNAME":"安南區","LI":"溪心里","LIN":"16鄰","STREET":"安中路","SECT":"二段","MAREA":" ","LANE":"３７巷","ALLEY":" ","HOUSE_NO":"２８號","E_COORD97":166910.56,"N_COORD97":2549530.46,"ADDRESS":"安中路二段３７巷２８號","OBJECTID":395761},"geometry":{"x":166910.56000000145,"y":2549530.4600000009}},{"attributes":{"ID":395786,"DIS_CODE":0,"TOWNNAME":"安南區","LI":"溪心里","LIN":"16鄰","STREET":"安中路","SECT":"二段","MAREA":" ","LANE":"３７巷","ALLEY":" ","HOUSE_NO":"２９號","E_COORD97":166989.54000000001,"N_COORD97":2549547.6699999999,"ADDRESS":"安中路二段３７巷２９號","OBJECTID":395762},"geometry":{"x":166989.54000000097,"y":2549547.6699999999}},{"attributes":{"ID":395787,"DIS_CODE":0,"TOWNNAME":"安南區","LI":"溪心里","LIN":"16鄰","STREET":"安中路","SECT":"二段","MAREA":" ","LANE":"３７巷","ALLEY":" ","HOUSE_NO":"３０號","E_COORD97":166906.17999999999,"N_COORD97":2549531.79,"ADDRESS":"安中路二段３７巷３０號","OBJECTID":395763},"geometry":{"x":166906.1799999997,"y":2549531.790000001}},{"attributes":{"ID":395788,"DIS_CODE":0,"TOWNNAME":"安南區","LI":"溪心里","LIN":"16鄰","STREET":"安中路","SECT":"二段","MAREA":" ","LANE":"３７巷","ALLEY":" ","HOUSE_NO":"３１號","E_COORD97":166987.89000000001,"N_COORD97":2549543.1699999999,"ADDRESS":"安中路二段３７巷３１號","OBJECTID":395764},"geometry":{"x":166987.88999999966,"y":2549543.1700000018}},{"attributes":{"ID":395789,"DIS_CODE":0,"TOWNNAME":"安南區","LI":"溪心里","LIN":"16鄰","STREET":"安中路","SECT":"二段","MAREA":" ","LANE":"３７巷","ALLEY":" ","HOUSE_NO":"３２號","E_COORD97":166901.79999999999,"N_COORD97":2549532.52,"ADDRESS":"安中路二段３７巷３２號","OBJECTID":395765},"geometry":{"x":166901.79999999981,"y":2549532.5199999996}},{"attributes":{"ID":395790,"DIS_CODE":0,"TOWNNAME":"安南區","LI":"溪心里","LIN":"16鄰","STREET":"安中路","SECT":"二段","MAREA":" ","LANE":"３７巷","ALLEY":" ","HOUSE_NO":"３３號","E_COORD97":166987.59,"N_COORD97":2549538.5099999998,"ADDRESS":"安中路二段３７巷３３號","OBJECTID":395766},"geometry":{"x":166987.59000000078,"y":2549538.5099999998}},{"attributes":{"ID":395791,"DIS_CODE":0,"TOWNNAME":"安南區","LI":"溪心里","LIN":"16鄰","STREET":"安中路","SECT":"二段","MAREA":" ","LANE":"３７巷","ALLEY":" ","HOUSE_NO":"３４號","E_COORD97":166898.51999999999,"N_COORD97":2549534.8300000001,"ADDRESS":"安中路二段３７巷３４號","OBJECTID":395767},"geometry":{"x":166898.51999999955,"y":2549534.8300000038}},{"attributes":{"ID":395792,"DIS_CODE":0,"TOWNNAME":"安南區","LI":"溪心里","LIN":"16鄰","STREET":"安中路","SECT":"二段","MAREA":" ","LANE":"３７巷","ALLEY":" ","HOUSE_NO":"３５號","E_COORD97":166986.54000000001,"N_COORD97":2549534.1600000001,"ADDRESS":"安中路二段３７巷３５號","OBJECTID":395768},"geometry":{"x":166986.54000000097,"y":2549534.160000002}},{"attributes":{"ID":395793,"DIS_CODE":0,"TOWNNAME":"安南區","LI":"溪心里","LIN":"16鄰","STREET":"安中路","SECT":"二段","MAREA":" ","LANE":"３７巷","ALLEY":" ","HOUSE_NO":"３６號","E_COORD97":166894.5,"N_COORD97":2549536.6499999999,"ADDRESS":"安中路二段３７巷３６號","OBJECTID":395769},"geometry":{"x":166894.50000000186,"y":2549536.6500000041}},{"attributes":{"ID":395794,"DIS_CODE":0,"TOWNNAME":"安南區","LI":"溪心里","LIN":"16鄰","STREET":"安中路","SECT":"二段","MAREA":" ","LANE":"３７巷","ALLEY":" ","HOUSE_NO":"３７號","E_COORD97":166985.04000000001,"N_COORD97":2549530.4100000001,"ADDRESS":"安中路二段３７巷３７號","OBJECTID":395770},"geometry":{"x":166985.04000000004,"y":2549530.4100000001}},{"attributes":{"ID":395795,"DIS_CODE":0,"TOWNNAME":"安南區","LI":"溪心里","LIN":"16鄰","STREET":"安中路","SECT":"二段","MAREA":" ","LANE":"３７巷","ALLEY":" ","HOUSE_NO":"３８號","E_COORD97":166890.73000000001,"N_COORD97":2549538.48,"ADDRESS":"安中路二段３７巷３８號","OBJECTID":395771},"geometry":{"x":166890.73000000138,"y":2549538.4800000023}},{"attributes":{"ID":395796,"DIS_CODE":0,"TOWNNAME":"安南區","LI":"溪心里","LIN":"16鄰","STREET":"安中路","SECT":"二段","MAREA":" ","LANE":"３７巷","ALLEY":" ","HOUSE_NO":"３９號","E_COORD97":166984.13,"N_COORD97":2549526.3599999999,"ADDRESS":"安中路二段３７巷３９號","OBJECTID":395772},"geometry":{"x":166984.13000000082,"y":2549526.3599999994}},{"attributes":{"ID":395797,"DIS_CODE":0,"TOWNNAME":"安南區","LI":"溪心里","LIN":"16鄰","STREET":"安中路","SECT":"二段","MAREA":" ","LANE":"３７巷","ALLEY":" ","HOUSE_NO":"３號","E_COORD97":166962.42000000001,"N_COORD97":2549558.3999999999,"ADDRESS":"安中路二段３７巷３號","OBJECTID":395773},"geometry":{"x":166962.41999999993,"y":2549558.4000000041}},{"attributes":{"ID":395798,"DIS_CODE":0,"TOWNNAME":"安南區","LI":"溪心里","LIN":"16鄰","STREET":"安中路","SECT":"二段","MAREA":" ","LANE":"３７巷","ALLEY":" ","HOUSE_NO":"４０號","E_COORD97":166886.84,"N_COORD97":2549539.9399999999,"ADDRESS":"安中路二段３７巷４０號","OBJECTID":395774},"geometry":{"x":166886.84000000171,"y":2549539.9399999995}},{"attributes":{"ID":395799,"DIS_CODE":0,"TOWNNAME":"安南區","LI":"溪心里","LIN":"16鄰","STREET":"安中路","SECT":"二段","MAREA":" ","LANE":"３７巷","ALLEY":" ","HOUSE_NO":"４１號","E_COORD97":166982.92999999999,"N_COORD97":2549520.9500000002,"ADDRESS":"安中路二段３７巷４１號","OBJECTID":395775},"geometry":{"x":166982.93000000063,"y":2549520.9500000011}},{"attributes":{"ID":395800,"DIS_CODE":0,"TOWNNAME":"安南區","LI":"溪心里","LIN":"16鄰","STREET":"安中路","SECT":"二段","MAREA":" ","LANE":"３７巷","ALLEY":" ","HOUSE_NO":"４２號","E_COORD97":166882.95000000001,"N_COORD97":2549543.3399999999,"ADDRESS":"安中路二段３７巷４２號","OBJECTID":395776},"geometry":{"x":166882.95000000019,"y":2549543.3399999999}},{"attributes":{"ID":395801,"DIS_CODE":0,"TOWNNAME":"安南區","LI":"溪心里","LIN":"16鄰","STREET":"安中路","SECT":"二段","MAREA":" ","LANE":"３７巷","ALLEY":" ","HOUSE_NO":"４３號","E_COORD97":166980.53,"N_COORD97":2549517.7999999998,"ADDRESS":"安中路二段３７巷４３號","OBJECTID":395777},"geometry":{"x":166980.53000000026,"y":2549517.8000000007}},{"attributes":{"ID":395802,"DIS_CODE":0,"TOWNNAME":"安南區","LI":"溪心里","LIN":"16鄰","STREET":"安中路","SECT":"二段","MAREA":" ","LANE":"３７巷","ALLEY":" ","HOUSE_NO":"４５號","E_COORD97":166975.87,"N_COORD97":2549513.75,"ADDRESS":"安中路二段３７巷４５號","OBJECTID":395778},"geometry":{"x":166975.87000000104,"y":2549513.75}},{"attributes":{"ID":395803,"DIS_CODE":0,"TOWNNAME":"安南區","LI":"溪心里","LIN":"16鄰","STREET":"安中路","SECT":"二段","MAREA":" ","LANE":"３７巷","ALLEY":" ","HOUSE_NO":"４７號","E_COORD97":166973.32000000001,"N_COORD97":2549508.6400000001,"ADDRESS":"安中路二段３７巷４７號","OBJECTID":395779},"geometry":{"x":166973.3200000003,"y":2549508.6400000006}},{"attributes":{"ID":395804,"DIS_CODE":0,"TOWNNAME":"安南區","LI":"溪心里","LIN":"16鄰","STREET":"安中路","SECT":"二段","MAREA":" ","LANE":"３７巷","ALLEY":" ","HOUSE_NO":"４９號","E_COORD97":166955.60999999999,"N_COORD97":2549489.1299999999,"ADDRESS":"安中路二段３７巷４９號","OBJECTID":395780},"geometry":{"x":166955.61000000127,"y":2549489.1300000008}},{"attributes":{"ID":395805,"DIS_CODE":0,"TOWNNAME":"安南區","LI":"溪心里","LIN":"16鄰","STREET":"安中路","SECT":"二段","MAREA":" ","LANE":"３７巷","ALLEY":" ","HOUSE_NO":"５１號","E_COORD97":166950.75,"N_COORD97":2549488.4399999999,"ADDRESS":"安中路二段３７巷５１號","OBJECTID":395781},"geometry":{"x":166950.75000000093,"y":2549488.4399999995}},{"attributes":{"ID":395806,"DIS_CODE":0,"TOWNNAME":"安南區","LI":"溪心里","LIN":"16鄰","STREET":"安中路","SECT":"二段","MAREA":" ","LANE":"３７巷","ALLEY":" ","HOUSE_NO":"５３號","E_COORD97":166946.45000000001,"N_COORD97":2549490.1000000001,"ADDRESS":"安中路二段３７巷５３號","OBJECTID":395782},"geometry":{"x":166946.45000000112,"y":2549490.1000000015}},{"attributes":{"ID":395807,"DIS_CODE":0,"TOWNNAME":"安南區","LI":"溪心里","LIN":"16鄰","STREET":"安中路","SECT":"二段","MAREA":" ","LANE":"３７巷","ALLEY":" ","HOUSE_NO":"５７號","E_COORD97":166939.51000000001,"N_COORD97":2549493.29,"ADDRESS":"安中路二段３７巷５７號","OBJECTID":395783},"geometry":{"x":166939.50999999978,"y":2549493.2900000028}},{"attributes":{"ID":395808,"DIS_CODE":0,"TOWNNAME":"安南區","LI":"溪心里","LIN":"16鄰","STREET":"安中路","SECT":"二段","MAREA":" ","LANE":"３７巷","ALLEY":" ","HOUSE_NO":"５９號","E_COORD97":166935.48000000001,"N_COORD97":2549494.54,"ADDRESS":"安中路二段３７巷５９號","OBJECTID":395784},"geometry":{"x":166935.48000000045,"y":2549494.5399999991}},{"attributes":{"ID":395809,"DIS_CODE":0,"TOWNNAME":"安南區","LI":"溪心里","LIN":"16鄰","STREET":"安中路","SECT":"二段","MAREA":" ","LANE":"３７巷","ALLEY":" ","HOUSE_NO":"５號","E_COORD97":166961.81,"N_COORD97":2549554.02,"ADDRESS":"安中路二段３７巷５號","OBJECTID":395785},"geometry":{"x":166961.81000000052,"y":2549554.0200000014}},{"attributes":{"ID":395810,"DIS_CODE":0,"TOWNNAME":"安南區","LI":"溪心里","LIN":"16鄰","STREET":"安中路","SECT":"二段","MAREA":" ","LANE":"３７巷","ALLEY":" ","HOUSE_NO":"６１號","E_COORD97":166931.45000000001,"N_COORD97":2549496.48,"ADDRESS":"安中路二段３７巷６１號","OBJECTID":395786},"geometry":{"x":166931.45000000019,"y":2549496.4800000004}},{"attributes":{"ID":395811,"DIS_CODE":0,"TOWNNAME":"安南區","LI":"溪心里","LIN":"16鄰","STREET":"安中路","SECT":"二段","MAREA":" ","LANE":"３７巷","ALLEY":" ","HOUSE_NO":"６３號","E_COORD97":166927.98000000001,"N_COORD97":2549498.1499999999,"ADDRESS":"安中路二段３７巷６３號","OBJECTID":395787},"geometry":{"x":166927.98000000138,"y":2549498.1500000004}},{"attributes":{"ID":395812,"DIS_CODE":0,"TOWNNAME":"安南區","LI":"溪心里","LIN":"16鄰","STREET":"安中路","SECT":"二段","MAREA":" ","LANE":"３７巷","ALLEY":" ","HOUSE_NO":"６５號","E_COORD97":166923.95999999999,"N_COORD97":2549499.9500000002,"ADDRESS":"安中路二段３７巷６５號","OBJECTID":395788},"geometry":{"x":166923.96000000089,"y":2549499.9500000011}},{"attributes":{"ID":395813,"DIS_CODE":0,"TOWNNAME":"安南區","LI":"溪心里","LIN":"16鄰","STREET":"安中路","SECT":"二段","MAREA":" ","LANE":"３７巷","ALLEY":" ","HOUSE_NO":"６７號","E_COORD97":166920.07000000001,"N_COORD97":2549501.6200000001,"ADDRESS":"安中路二段３７巷６７號","OBJECTID":395789},"geometry":{"x":166920.07000000123,"y":2549501.6200000029}},{"attributes":{"ID":395814,"DIS_CODE":0,"TOWNNAME":"安南區","LI":"溪心里","LIN":"16鄰","STREET":"安中路","SECT":"二段","MAREA":" ","LANE":"３７巷","ALLEY":" ","HOUSE_NO":"６９號","E_COORD97":166916.45999999999,"N_COORD97":2549503.4199999999,"ADDRESS":"安中路二段３７巷６９號","OBJECTID":395790},"geometry":{"x":166916.45999999996,"y":2549503.4199999981}},{"attributes":{"ID":395815,"DIS_CODE":0,"TOWNNAME":"安南區","LI":"溪心里","LIN":"16鄰","STREET":"安中路","SECT":"二段","MAREA":" ","LANE":"３７巷","ALLEY":" ","HOUSE_NO":"７１號","E_COORD97":166911.88,"N_COORD97":2549504.6699999999,"ADDRESS":"安中路二段３７巷７１號","OBJECTID":395791},"geometry":{"x":166911.87999999989,"y":2549504.6699999999}},{"attributes":{"ID":395816,"DIS_CODE":0,"TOWNNAME":"安南區","LI":"溪心里","LIN":"16鄰","STREET":"安中路","SECT":"二段","MAREA":" ","LANE":"３７巷","ALLEY":" ","HOUSE_NO":"７３號","E_COORD97":166908.54999999999,"N_COORD97":2549506.3300000001,"ADDRESS":"安中路二段３７巷７３號","OBJECTID":395792},"geometry":{"x":166908.54999999981,"y":2549506.3300000001}},{"attributes":{"ID":395817,"DIS_CODE":0,"TOWNNAME":"安南區","LI":"溪心里","LIN":"16鄰","STREET":"安中路","SECT":"二段","MAREA":" ","LANE":"３７巷","ALLEY":" ","HOUSE_NO":"７５號","E_COORD97":166904.94,"N_COORD97":2549508.1299999999,"ADDRESS":"安中路二段３７巷７５號","OBJECTID":395793},"geometry":{"x":166904.94000000041,"y":2549508.1300000027}},{"attributes":{"ID":395818,"DIS_CODE":0,"TOWNNAME":"安南區","LI":"溪心里","LIN":"16鄰","STREET":"安中路","SECT":"二段","MAREA":" ","LANE":"３７巷","ALLEY":" ","HOUSE_NO":"７７號","E_COORD97":166900.76999999999,"N_COORD97":2549510.4900000002,"ADDRESS":"安中路二段３７巷７７號","OBJECTID":395794},"geometry":{"x":166900.77000000048,"y":2549510.4900000021}},{"attributes":{"ID":395819,"DIS_CODE":0,"TOWNNAME":"安南區","LI":"溪心里","LIN":"16鄰","STREET":"安中路","SECT":"二段","MAREA":" ","LANE":"３７巷","ALLEY":" ","HOUSE_NO":"７９號","E_COORD97":166896.89000000001,"N_COORD97":2549512.2999999998,"ADDRESS":"安中路二段３７巷７９號","OBJECTID":395795},"geometry":{"x":166896.8900000006,"y":2549512.3000000026}},{"attributes":{"ID":395820,"DIS_CODE":0,"TOWNNAME":"安南區","LI":"溪心里","LIN":"16鄰","STREET":"安中路","SECT":"二段","MAREA":" ","LANE":"３７巷","ALLEY":" ","HOUSE_NO":"７號","E_COORD97":166960.45000000001,"N_COORD97":2549550.54,"ADDRESS":"安中路二段３７巷７號","OBJECTID":395796},"geometry":{"x":166960.45000000019,"y":2549550.540000001}},{"attributes":{"ID":395821,"DIS_CODE":0,"TOWNNAME":"安南區","LI":"溪心里","LIN":"16鄰","STREET":"安中路","SECT":"二段","MAREA":" ","LANE":"３７巷","ALLEY":" ","HOUSE_NO":"８１號","E_COORD97":166893,"N_COORD97":2549513.27,"ADDRESS":"安中路二段３７巷８１號","OBJECTID":395797},"geometry":{"x":166893.00000000093,"y":2549513.2699999996}},{"attributes":{"ID":395822,"DIS_CODE":0,"TOWNNAME":"安南區","LI":"溪心里","LIN":"16鄰","STREET":"安中路","SECT":"二段","MAREA":" ","LANE":"３７巷","ALLEY":" ","HOUSE_NO":"８３號","E_COORD97":166889.39000000001,"N_COORD97":2549515.0699999998,"ADDRESS":"安中路二段３７巷８３號","OBJECTID":395798},"geometry":{"x":166889.38999999966,"y":2549515.0700000003}},{"attributes":{"ID":395823,"DIS_CODE":0,"TOWNNAME":"安南區","LI":"溪心里","LIN":"16鄰","STREET":"安中路","SECT":"二段","MAREA":" ","LANE":"３７巷","ALLEY":" ","HOUSE_NO":"８５號","E_COORD97":166885.78,"N_COORD97":2549516.5899999999,"ADDRESS":"安中路二段３７巷８５號","OBJECTID":395799},"geometry":{"x":166885.78000000026,"y":2549516.5900000017}},{"attributes":{"ID":395824,"DIS_CODE":0,"TOWNNAME":"安南區","LI":"溪心里","LIN":"16鄰","STREET":"安中路","SECT":"二段","MAREA":" ","LANE":"３７巷","ALLEY":" ","HOUSE_NO":"８７號","E_COORD97":166881.75,"N_COORD97":2549518.3999999999,"ADDRESS":"安中路二段３７巷８７號","OBJECTID":395800},"geometry":{"x":166881.75,"y":2549518.4000000022}}]}