{"displayFieldName":"TOWNNAME","fieldAliases":{"ID":"ID","DIS_CODE":"DIS_CODE","TOWNNAME":"TOWNNAME","LI":"LI","LIN":"LIN","STREET":"STREET","SECT":"SECT","MAREA":"MAREA","LANE":"LANE","ALLEY":"ALLEY","HOUSE_NO":"HOUSE_NO","E_COORD97":"E_COORD97","N_COORD97":"N_COORD97","ADDRESS":"ADDRESS","OBJECTID":"OBJECTID"},"geometryType":"esriGeometryPoint","spatialReference":{"wkid":102443,"latestWkid":3826},"fields":[{"name":"ID","type":"esriFieldTypeDouble","alias":"ID"},{"name":"DIS_CODE","type":"esriFieldTypeInteger","alias":"DIS_CODE"},{"name":"TOWNNAME","type":"esriFieldTypeString","alias":"TOWNNAME","length":8},{"name":"LI","type":"esriFieldTypeString","alias":"LI","length":8},{"name":"LIN","type":"esriFieldTypeString","alias":"LIN","length":12},{"name":"STREET","type":"esriFieldTypeString","alias":"STREET","length":20},{"name":"SECT","type":"esriFieldTypeString","alias":"SECT","length":8},{"name":"MAREA","type":"esriFieldTypeString","alias":"MAREA","length":12},{"name":"LANE","type":"esriFieldTypeString","alias":"LANE","length":10},{"name":"ALLEY","type":"esriFieldTypeString","alias":"ALLEY","length":10},{"name":"HOUSE_NO","type":"esriFieldTypeString","alias":"HOUSE_NO","length":20},{"name":"E_COORD97","type":"esriFieldTypeDouble","alias":"E_COORD97"},{"name":"N_COORD97","type":"esriFieldTypeDouble","alias":"N_COORD97"},{"name":"ADDRESS","type":"esriFieldTypeString","alias":"ADDRESS","length":50},{"name":"OBJECTID","type":"esriFieldTypeOID","alias":"OBJECTID"}],"features":[{"attributes":{"ID":350410,"DIS_CODE":0,"TOWNNAME":"永康區","LI":"安康里","LIN":"19鄰","STREET":"中華西街","SECT":" ","MAREA":" ","LANE":"１０４巷","ALLEY":" ","HOUSE_NO":"１７號","E_COORD97":170775.88,"N_COORD97":2546139,"ADDRESS":"中華西街１０４巷１７號","OBJECTID":350401},"geometry":{"x":170775.88000000082,"y":2546139}},{"attributes":{"ID":350411,"DIS_CODE":0,"TOWNNAME":"永康區","LI":"永康里","LIN":"38鄰","STREET":"西勢路","SECT":" ","MAREA":" ","LANE":"６６９巷","ALLEY":" ","HOUSE_NO":"２０號","E_COORD97":174561.07999999999,"N_COORD97":2546689.6699999999,"ADDRESS":"西勢路６６９巷２０號","OBJECTID":350402},"geometry":{"x":174561.08000000007,"y":2546689.6699999999}},{"attributes":{"ID":350412,"DIS_CODE":0,"TOWNNAME":"永康區","LI":"安康里","LIN":"6鄰","STREET":"中華路","SECT":" ","MAREA":" ","LANE":"７２７巷","ALLEY":" ","HOUSE_NO":"３８號","E_COORD97":170746.54999999999,"N_COORD97":2546377.27,"ADDRESS":"中華路７２７巷３８號","OBJECTID":350403},"geometry":{"x":170746.54999999981,"y":2546377.2699999996}},{"attributes":{"ID":350413,"DIS_CODE":0,"TOWNNAME":"下營區","LI":"賀建里","LIN":"18鄰","STREET":" ","SECT":" ","MAREA":"火燒珠","LANE":" ","ALLEY":" ","HOUSE_NO":"２７號","E_COORD97":176754.42000000001,"N_COORD97":2572939.9700000002,"ADDRESS":"火燒珠２７號","OBJECTID":350404},"geometry":{"x":176754.42000000086,"y":2572939.9700000025}},{"attributes":{"ID":350414,"DIS_CODE":0,"TOWNNAME":"下營區","LI":"賀建里","LIN":"18鄰","STREET":" ","SECT":" ","MAREA":"火燒珠","LANE":" ","ALLEY":" ","HOUSE_NO":"２８號之１０","E_COORD97":177143.54000000001,"N_COORD97":2572872.96,"ADDRESS":"火燒珠２８號之１０","OBJECTID":350405},"geometry":{"x":177143.54000000097,"y":2572872.9600000009}},{"attributes":{"ID":350415,"DIS_CODE":0,"TOWNNAME":"下營區","LI":"賀建里","LIN":"18鄰","STREET":" ","SECT":" ","MAREA":"火燒珠","LANE":" ","ALLEY":" ","HOUSE_NO":"２８號之１１","E_COORD97":177029.34,"N_COORD97":2572945.3700000001,"ADDRESS":"火燒珠２８號之１１","OBJECTID":350406},"geometry":{"x":177029.34000000171,"y":2572945.370000001}},{"attributes":{"ID":350416,"DIS_CODE":0,"TOWNNAME":"下營區","LI":"賀建里","LIN":"18鄰","STREET":" ","SECT":" ","MAREA":"火燒珠","LANE":" ","ALLEY":" ","HOUSE_NO":"２８號之１２","E_COORD97":177017.76000000001,"N_COORD97":2572950.2400000002,"ADDRESS":"火燒珠２８號之１２","OBJECTID":350407},"geometry":{"x":177017.76000000164,"y":2572950.2400000021}},{"attributes":{"ID":350417,"DIS_CODE":0,"TOWNNAME":"下營區","LI":"賀建里","LIN":"18鄰","STREET":" ","SECT":" ","MAREA":"火燒珠","LANE":" ","ALLEY":" ","HOUSE_NO":"２８號之１","E_COORD97":177035.42000000001,"N_COORD97":2572931.8300000001,"ADDRESS":"火燒珠２８號之１","OBJECTID":350408},"geometry":{"x":177035.41999999899,"y":2572931.8300000038}},{"attributes":{"ID":350418,"DIS_CODE":0,"TOWNNAME":"東區","LI":"路東里","LIN":"6鄰","STREET":"大同路","SECT":"二段","MAREA":" ","LANE":"６１巷","ALLEY":" ","HOUSE_NO":"１６號十四樓","E_COORD97":169386.85999999999,"N_COORD97":2542216.9399999999,"ADDRESS":"大同路二段６１巷１６號十四樓","OBJECTID":350409},"geometry":{"x":169386.86000000034,"y":2542216.9400000032}},{"attributes":{"ID":350419,"DIS_CODE":0,"TOWNNAME":"東區","LI":"路東里","LIN":"6鄰","STREET":"大同路","SECT":"二段","MAREA":" ","LANE":"６１巷","ALLEY":" ","HOUSE_NO":"１６號十四樓之１","E_COORD97":169386.85999999999,"N_COORD97":2542216.9399999999,"ADDRESS":"大同路二段６１巷１６號十四樓之１","OBJECTID":350410},"geometry":{"x":169386.86000000034,"y":2542216.9400000032}},{"attributes":{"ID":350420,"DIS_CODE":0,"TOWNNAME":"下營區","LI":"賀建里","LIN":"18鄰","STREET":" ","SECT":" ","MAREA":"火燒珠","LANE":" ","ALLEY":" ","HOUSE_NO":"２８號之６","E_COORD97":177096.23000000001,"N_COORD97":2572913.5,"ADDRESS":"火燒珠２８號之６","OBJECTID":350411},"geometry":{"x":177096.23000000045,"y":2572913.4999999981}},{"attributes":{"ID":350421,"DIS_CODE":0,"TOWNNAME":"下營區","LI":"賀建里","LIN":"18鄰","STREET":" ","SECT":" ","MAREA":"火燒珠","LANE":" ","ALLEY":" ","HOUSE_NO":"２９號之１","E_COORD97":176804.51999999999,"N_COORD97":2572882.77,"ADDRESS":"火燒珠２９號之１","OBJECTID":350412},"geometry":{"x":176804.52000000048,"y":2572882.7699999996}},{"attributes":{"ID":350422,"DIS_CODE":0,"TOWNNAME":"下營區","LI":"賀建里","LIN":"18鄰","STREET":" ","SECT":" ","MAREA":"火燒珠","LANE":" ","ALLEY":" ","HOUSE_NO":"２９號之２","E_COORD97":176774.92999999999,"N_COORD97":2572887.1699999999,"ADDRESS":"火燒珠２９號之２","OBJECTID":350413},"geometry":{"x":176774.93000000063,"y":2572887.1699999999}},{"attributes":{"ID":350423,"DIS_CODE":0,"TOWNNAME":"下營區","LI":"賀建里","LIN":"18鄰","STREET":" ","SECT":" ","MAREA":"火燒珠","LANE":" ","ALLEY":" ","HOUSE_NO":"２９號之３","E_COORD97":176842.76999999999,"N_COORD97":2572879.2799999998,"ADDRESS":"火燒珠２９號之３","OBJECTID":350414},"geometry":{"x":176842.76999999862,"y":2572879.2799999993}},{"attributes":{"ID":350424,"DIS_CODE":0,"TOWNNAME":"下營區","LI":"賀建里","LIN":"18鄰","STREET":" ","SECT":" ","MAREA":"火燒珠","LANE":" ","ALLEY":" ","HOUSE_NO":"２９號之４","E_COORD97":176810.17999999999,"N_COORD97":2572934.1899999999,"ADDRESS":"火燒珠２９號之４","OBJECTID":350415},"geometry":{"x":176810.18000000063,"y":2572934.1899999995}},{"attributes":{"ID":350425,"DIS_CODE":0,"TOWNNAME":"下營區","LI":"賀建里","LIN":"18鄰","STREET":" ","SECT":" ","MAREA":"火燒珠","LANE":" ","ALLEY":" ","HOUSE_NO":"２９號之５","E_COORD97":176822.45999999999,"N_COORD97":2572934.6400000001,"ADDRESS":"火燒珠２９號之５","OBJECTID":350416},"geometry":{"x":176822.46000000089,"y":2572934.6400000025}},{"attributes":{"ID":350426,"DIS_CODE":0,"TOWNNAME":"東區","LI":"路東里","LIN":"6鄰","STREET":"大同路","SECT":"二段","MAREA":" ","LANE":"６１巷","ALLEY":" ","HOUSE_NO":"１６號十樓","E_COORD97":169386.85999999999,"N_COORD97":2542216.9399999999,"ADDRESS":"大同路二段６１巷１６號十樓","OBJECTID":350417},"geometry":{"x":169386.86000000034,"y":2542216.9400000032}},{"attributes":{"ID":350427,"DIS_CODE":0,"TOWNNAME":"下營區","LI":"紅厝里","LIN":"18鄰","STREET":" ","SECT":" ","MAREA":"紅毛厝","LANE":" ","ALLEY":" ","HOUSE_NO":"１３２號之１６","E_COORD97":175163.32000000001,"N_COORD97":2571372.1899999999,"ADDRESS":"紅毛厝１３２號之１６","OBJECTID":350418},"geometry":{"x":175163.31999999937,"y":2571372.1899999995}},{"attributes":{"ID":350428,"DIS_CODE":0,"TOWNNAME":"東區","LI":"路東里","LIN":"6鄰","STREET":"大同路","SECT":"二段","MAREA":" ","LANE":"６１巷","ALLEY":" ","HOUSE_NO":"１６號十樓之１","E_COORD97":169386.85999999999,"N_COORD97":2542216.9399999999,"ADDRESS":"大同路二段６１巷１６號十樓之１","OBJECTID":350419},"geometry":{"x":169386.86000000034,"y":2542216.9400000032}},{"attributes":{"ID":350429,"DIS_CODE":0,"TOWNNAME":"下營區","LI":"紅厝里","LIN":"18鄰","STREET":" ","SECT":" ","MAREA":"紅毛厝","LANE":" ","ALLEY":" ","HOUSE_NO":"１３２號之１","E_COORD97":175126.08632900001,"N_COORD97":2571472.1815300002,"ADDRESS":"紅毛厝１３２號之１","OBJECTID":350420},"geometry":{"x":175126.08632900007,"y":2571472.1815260015}},{"attributes":{"ID":350430,"DIS_CODE":0,"TOWNNAME":"下營區","LI":"紅厝里","LIN":"18鄰","STREET":" ","SECT":" ","MAREA":"紅毛厝","LANE":" ","ALLEY":" ","HOUSE_NO":"１３２號之２","E_COORD97":175155.32999999999,"N_COORD97":2571474.6000000001,"ADDRESS":"紅毛厝１３２號之２","OBJECTID":350421},"geometry":{"x":175155.33000000101,"y":2571474.5999999996}},{"attributes":{"ID":350431,"DIS_CODE":0,"TOWNNAME":"下營區","LI":"紅厝里","LIN":"18鄰","STREET":" ","SECT":" ","MAREA":"紅毛厝","LANE":" ","ALLEY":" ","HOUSE_NO":"１３２號之３","E_COORD97":175154.75,"N_COORD97":2571479.1000000001,"ADDRESS":"紅毛厝１３２號之３","OBJECTID":350422},"geometry":{"x":175154.75,"y":2571479.1000000015}},{"attributes":{"ID":350432,"DIS_CODE":0,"TOWNNAME":"下營區","LI":"紅厝里","LIN":"18鄰","STREET":" ","SECT":" ","MAREA":"紅毛厝","LANE":" ","ALLEY":" ","HOUSE_NO":"１３２號之４","E_COORD97":175153.98000000001,"N_COORD97":2571483.77,"ADDRESS":"紅毛厝１３２號之４","OBJECTID":350423},"geometry":{"x":175153.98000000231,"y":2571483.7699999977}},{"attributes":{"ID":350433,"DIS_CODE":0,"TOWNNAME":"東區","LI":"路東里","LIN":"6鄰","STREET":"大同路","SECT":"二段","MAREA":" ","LANE":"６１巷","ALLEY":" ","HOUSE_NO":"１６號三樓","E_COORD97":169386.85999999999,"N_COORD97":2542216.9399999999,"ADDRESS":"大同路二段６１巷１６號三樓","OBJECTID":350424},"geometry":{"x":169386.86000000034,"y":2542216.9400000032}},{"attributes":{"ID":350434,"DIS_CODE":0,"TOWNNAME":"東區","LI":"路東里","LIN":"6鄰","STREET":"大同路","SECT":"二段","MAREA":" ","LANE":"６１巷","ALLEY":" ","HOUSE_NO":"１６號三樓之１","E_COORD97":169386.85999999999,"N_COORD97":2542216.9399999999,"ADDRESS":"大同路二段６１巷１６號三樓之１","OBJECTID":350425},"geometry":{"x":169386.86000000034,"y":2542216.9400000032}},{"attributes":{"ID":350435,"DIS_CODE":0,"TOWNNAME":"下營區","LI":"紅厝里","LIN":"18鄰","STREET":" ","SECT":" ","MAREA":"紅毛厝","LANE":" ","ALLEY":" ","HOUSE_NO":"１４０號之２","E_COORD97":176139.14999999999,"N_COORD97":2571596.7000000002,"ADDRESS":"紅毛厝１４０號之２","OBJECTID":350426},"geometry":{"x":176139.15000000037,"y":2571596.7000000011}},{"attributes":{"ID":350436,"DIS_CODE":0,"TOWNNAME":"下營區","LI":"紅厝里","LIN":"18鄰","STREET":" ","SECT":" ","MAREA":"紅毛厝","LANE":" ","ALLEY":" ","HOUSE_NO":"１４０號","E_COORD97":176111.67999999999,"N_COORD97":2571562.6400000001,"ADDRESS":"紅毛厝１４０號","OBJECTID":350427},"geometry":{"x":176111.68000000063,"y":2571562.6400000006}},{"attributes":{"ID":350437,"DIS_CODE":0,"TOWNNAME":"下營區","LI":"紅厝里","LIN":"18鄰","STREET":" ","SECT":" ","MAREA":"紅毛厝","LANE":" ","ALLEY":" ","HOUSE_NO":"１４２號","E_COORD97":175946.75,"N_COORD97":2571566.7799999998,"ADDRESS":"紅毛厝１４２號","OBJECTID":350428},"geometry":{"x":175946.75000000186,"y":2571566.7799999993}},{"attributes":{"ID":350438,"DIS_CODE":0,"TOWNNAME":"下營區","LI":"紅厝里","LIN":"18鄰","STREET":" ","SECT":" ","MAREA":"紅毛厝","LANE":" ","ALLEY":" ","HOUSE_NO":"１６０號","E_COORD97":176266.35999999999,"N_COORD97":2571703.1800000002,"ADDRESS":"紅毛厝１６０號","OBJECTID":350429},"geometry":{"x":176266.36000000034,"y":2571703.1800000016}},{"attributes":{"ID":350439,"DIS_CODE":0,"TOWNNAME":"將軍區","LI":"西和里","LIN":"18鄰","STREET":" ","SECT":" ","MAREA":"西湖","LANE":" ","ALLEY":" ","HOUSE_NO":"３２號","E_COORD97":163173.48999999999,"N_COORD97":2566163.71,"ADDRESS":"西湖３２號","OBJECTID":350430},"geometry":{"x":163173.49000000022,"y":2566163.7100000028}},{"attributes":{"ID":350440,"DIS_CODE":0,"TOWNNAME":"將軍區","LI":"西和里","LIN":"18鄰","STREET":" ","SECT":" ","MAREA":"西湖","LANE":" ","ALLEY":" ","HOUSE_NO":"３３號","E_COORD97":163190.22,"N_COORD97":2566133.4399999999,"ADDRESS":"西湖３３號","OBJECTID":350431},"geometry":{"x":163190.21999999974,"y":2566133.4400000013}},{"attributes":{"ID":350441,"DIS_CODE":0,"TOWNNAME":"將軍區","LI":"西和里","LIN":"18鄰","STREET":" ","SECT":" ","MAREA":"西湖","LANE":" ","ALLEY":" ","HOUSE_NO":"３４之１號","E_COORD97":163211.47,"N_COORD97":2566127.8799999999,"ADDRESS":"西湖３４之１號","OBJECTID":350432},"geometry":{"x":163211.47000000067,"y":2566127.879999999}},{"attributes":{"ID":350442,"DIS_CODE":0,"TOWNNAME":"東區","LI":"路東里","LIN":"6鄰","STREET":"大同路","SECT":"二段","MAREA":" ","LANE":"６１巷","ALLEY":" ","HOUSE_NO":"１６號五樓之１","E_COORD97":169386.85999999999,"N_COORD97":2542216.9399999999,"ADDRESS":"大同路二段６１巷１６號五樓之１","OBJECTID":350433},"geometry":{"x":169386.86000000034,"y":2542216.9400000032}},{"attributes":{"ID":350443,"DIS_CODE":0,"TOWNNAME":"東區","LI":"路東里","LIN":"6鄰","STREET":"大同路","SECT":"二段","MAREA":" ","LANE":"６１巷","ALLEY":" ","HOUSE_NO":"１６號六樓","E_COORD97":169386.85999999999,"N_COORD97":2542216.9399999999,"ADDRESS":"大同路二段６１巷１６號六樓","OBJECTID":350434},"geometry":{"x":169386.86000000034,"y":2542216.9400000032}},{"attributes":{"ID":350444,"DIS_CODE":0,"TOWNNAME":"將軍區","LI":"仁和里","LIN":"18鄰","STREET":" ","SECT":" ","MAREA":"和巷","LANE":" ","ALLEY":" ","HOUSE_NO":"５４號","E_COORD97":163991,"N_COORD97":2569296.5600000001,"ADDRESS":"和巷５４號","OBJECTID":350435},"geometry":{"x":163991.00000000093,"y":2569296.5600000024}},{"attributes":{"ID":350445,"DIS_CODE":0,"TOWNNAME":"將軍區","LI":"仁和里","LIN":"18鄰","STREET":" ","SECT":" ","MAREA":"和巷","LANE":" ","ALLEY":" ","HOUSE_NO":"５６號","E_COORD97":163980.26999999999,"N_COORD97":2569295.6099999999,"ADDRESS":"和巷５６號","OBJECTID":350436},"geometry":{"x":163980.27000000048,"y":2569295.6100000013}},{"attributes":{"ID":350446,"DIS_CODE":0,"TOWNNAME":"將軍區","LI":"仁和里","LIN":"18鄰","STREET":" ","SECT":" ","MAREA":"和巷","LANE":" ","ALLEY":" ","HOUSE_NO":"５７之１號","E_COORD97":163963.26000000001,"N_COORD97":2569292.5600000001,"ADDRESS":"和巷５７之１號","OBJECTID":350437},"geometry":{"x":163963.26000000164,"y":2569292.5600000005}},{"attributes":{"ID":350447,"DIS_CODE":0,"TOWNNAME":"將軍區","LI":"仁和里","LIN":"18鄰","STREET":" ","SECT":" ","MAREA":"和巷","LANE":" ","ALLEY":" ","HOUSE_NO":"５７號","E_COORD97":163968.31,"N_COORD97":2569292.6299999999,"ADDRESS":"和巷５７號","OBJECTID":350438},"geometry":{"x":163968.31000000052,"y":2569292.629999999}},{"attributes":{"ID":350448,"DIS_CODE":0,"TOWNNAME":"東區","LI":"路東里","LIN":"6鄰","STREET":"大同路","SECT":"二段","MAREA":" ","LANE":"６１巷","ALLEY":" ","HOUSE_NO":"１６號六樓之１","E_COORD97":169386.85999999999,"N_COORD97":2542216.9399999999,"ADDRESS":"大同路二段６１巷１６號六樓之１","OBJECTID":350439},"geometry":{"x":169386.86000000034,"y":2542216.9400000032}},{"attributes":{"ID":350449,"DIS_CODE":0,"TOWNNAME":"將軍區","LI":"忠興里","LIN":"18鄰","STREET":" ","SECT":" ","MAREA":"忠興","LANE":" ","ALLEY":" ","HOUSE_NO":"１７９號","E_COORD97":163956.84,"N_COORD97":2566896.3700000001,"ADDRESS":"忠興１７９號","OBJECTID":350440},"geometry":{"x":163956.83999999985,"y":2566896.370000001}},{"attributes":{"ID":350450,"DIS_CODE":0,"TOWNNAME":"東區","LI":"路東里","LIN":"6鄰","STREET":"大同路","SECT":"二段","MAREA":" ","LANE":"６１巷","ALLEY":" ","HOUSE_NO":"１６號四樓","E_COORD97":169386.85999999999,"N_COORD97":2542216.9399999999,"ADDRESS":"大同路二段６１巷１６號四樓","OBJECTID":350441},"geometry":{"x":169386.86000000034,"y":2542216.9400000032}},{"attributes":{"ID":350451,"DIS_CODE":0,"TOWNNAME":"東區","LI":"路東里","LIN":"6鄰","STREET":"大同路","SECT":"二段","MAREA":" ","LANE":"６１巷","ALLEY":" ","HOUSE_NO":"１６號四樓之１","E_COORD97":169386.85999999999,"N_COORD97":2542216.9399999999,"ADDRESS":"大同路二段６１巷１６號四樓之１","OBJECTID":350442},"geometry":{"x":169386.86000000034,"y":2542216.9400000032}},{"attributes":{"ID":350452,"DIS_CODE":0,"TOWNNAME":"東區","LI":"路東里","LIN":"6鄰","STREET":"大同路","SECT":"二段","MAREA":" ","LANE":"６１巷","ALLEY":" ","HOUSE_NO":"６號七樓","E_COORD97":169356.92999999999,"N_COORD97":2542219.29,"ADDRESS":"大同路二段６１巷６號七樓","OBJECTID":350443},"geometry":{"x":169356.9299999997,"y":2542219.290000001}},{"attributes":{"ID":350453,"DIS_CODE":0,"TOWNNAME":"東區","LI":"路東里","LIN":"6鄰","STREET":"大同路","SECT":"二段","MAREA":" ","LANE":"６１巷","ALLEY":" ","HOUSE_NO":"６號七樓之１","E_COORD97":169356.92999999999,"N_COORD97":2542219.29,"ADDRESS":"大同路二段６１巷６號七樓之１","OBJECTID":350444},"geometry":{"x":169356.9299999997,"y":2542219.290000001}},{"attributes":{"ID":350454,"DIS_CODE":0,"TOWNNAME":"東區","LI":"路東里","LIN":"6鄰","STREET":"大同路","SECT":"二段","MAREA":" ","LANE":"６１巷","ALLEY":" ","HOUSE_NO":"６號九樓","E_COORD97":169356.92999999999,"N_COORD97":2542219.29,"ADDRESS":"大同路二段６１巷６號九樓","OBJECTID":350445},"geometry":{"x":169356.9299999997,"y":2542219.290000001}},{"attributes":{"ID":350455,"DIS_CODE":0,"TOWNNAME":"東區","LI":"路東里","LIN":"6鄰","STREET":"大同路","SECT":"二段","MAREA":" ","LANE":"６１巷","ALLEY":" ","HOUSE_NO":"６號九樓之１","E_COORD97":169356.92999999999,"N_COORD97":2542219.29,"ADDRESS":"大同路二段６１巷６號九樓之１","OBJECTID":350446},"geometry":{"x":169356.9299999997,"y":2542219.290000001}},{"attributes":{"ID":350456,"DIS_CODE":0,"TOWNNAME":"永康區","LI":"永康里","LIN":"19鄰","STREET":"永中街","SECT":" ","MAREA":" ","LANE":"１６６巷","ALLEY":" ","HOUSE_NO":"１０號","E_COORD97":174044.59,"N_COORD97":2547295.6000000001,"ADDRESS":"永中街１６６巷１０號","OBJECTID":350447},"geometry":{"x":174044.59000000078,"y":2547295.6000000015}},{"attributes":{"ID":350457,"DIS_CODE":0,"TOWNNAME":"永康區","LI":"正強里","LIN":"18鄰","STREET":"自強路","SECT":" ","MAREA":" ","LANE":"１８８巷","ALLEY":" ","HOUSE_NO":"６４號","E_COORD97":173224.48999999999,"N_COORD97":2547271.75,"ADDRESS":"自強路１８８巷６４號","OBJECTID":350448},"geometry":{"x":173224.48999999929,"y":2547271.7500000019}},{"attributes":{"ID":350458,"DIS_CODE":0,"TOWNNAME":"永康區","LI":"永康里","LIN":"39鄰","STREET":"永福街","SECT":" ","MAREA":" ","LANE":"１１巷","ALLEY":" ","HOUSE_NO":"２０號","E_COORD97":174291.67999999999,"N_COORD97":2546406.73,"ADDRESS":"永福街１１巷２０號","OBJECTID":350449},"geometry":{"x":174291.6799999997,"y":2546406.7300000042}},{"attributes":{"ID":350459,"DIS_CODE":0,"TOWNNAME":"永康區","LI":"安康里","LIN":"6鄰","STREET":"中華路","SECT":" ","MAREA":" ","LANE":"７２７巷","ALLEY":" ","HOUSE_NO":"５２號","E_COORD97":170721.70000000001,"N_COORD97":2546363.2000000002,"ADDRESS":"中華路７２７巷５２號","OBJECTID":350450},"geometry":{"x":170721.70000000112,"y":2546363.1999999993}},{"attributes":{"ID":350460,"DIS_CODE":0,"TOWNNAME":"東區","LI":"路東里","LIN":"6鄰","STREET":"大同路","SECT":"二段","MAREA":" ","LANE":"６１巷","ALLEY":" ","HOUSE_NO":"６號八樓","E_COORD97":169356.92999999999,"N_COORD97":2542219.29,"ADDRESS":"大同路二段６１巷６號八樓","OBJECTID":350451},"geometry":{"x":169356.9299999997,"y":2542219.290000001}},{"attributes":{"ID":350461,"DIS_CODE":0,"TOWNNAME":"東區","LI":"路東里","LIN":"6鄰","STREET":"大同路","SECT":"二段","MAREA":" ","LANE":"６１巷","ALLEY":" ","HOUSE_NO":"６號十一樓","E_COORD97":169356.92999999999,"N_COORD97":2542219.29,"ADDRESS":"大同路二段６１巷６號十一樓","OBJECTID":350452},"geometry":{"x":169356.9299999997,"y":2542219.290000001}},{"attributes":{"ID":350462,"DIS_CODE":0,"TOWNNAME":"東區","LI":"路東里","LIN":"6鄰","STREET":"大同路","SECT":"二段","MAREA":" ","LANE":"６１巷","ALLEY":" ","HOUSE_NO":"６號十一樓之１","E_COORD97":169356.92999999999,"N_COORD97":2542219.29,"ADDRESS":"大同路二段６１巷６號十一樓之１","OBJECTID":350453},"geometry":{"x":169356.9299999997,"y":2542219.290000001}},{"attributes":{"ID":350463,"DIS_CODE":0,"TOWNNAME":"東區","LI":"路東里","LIN":"6鄰","STREET":"大同路","SECT":"二段","MAREA":" ","LANE":"６１巷","ALLEY":" ","HOUSE_NO":"６號十二樓","E_COORD97":169356.92999999999,"N_COORD97":2542219.29,"ADDRESS":"大同路二段６１巷６號十二樓","OBJECTID":350454},"geometry":{"x":169356.9299999997,"y":2542219.290000001}},{"attributes":{"ID":350464,"DIS_CODE":0,"TOWNNAME":"東區","LI":"路東里","LIN":"6鄰","STREET":"大同路","SECT":"二段","MAREA":" ","LANE":"６１巷","ALLEY":" ","HOUSE_NO":"６號十二樓之１","E_COORD97":169356.92999999999,"N_COORD97":2542219.29,"ADDRESS":"大同路二段６１巷６號十二樓之１","OBJECTID":350455},"geometry":{"x":169356.9299999997,"y":2542219.290000001}},{"attributes":{"ID":350465,"DIS_CODE":0,"TOWNNAME":"東區","LI":"路東里","LIN":"6鄰","STREET":"大同路","SECT":"二段","MAREA":" ","LANE":"６１巷","ALLEY":" ","HOUSE_NO":"６號十三樓","E_COORD97":169356.92999999999,"N_COORD97":2542219.29,"ADDRESS":"大同路二段６１巷６號十三樓","OBJECTID":350456},"geometry":{"x":169356.9299999997,"y":2542219.290000001}},{"attributes":{"ID":350466,"DIS_CODE":0,"TOWNNAME":"東區","LI":"路東里","LIN":"6鄰","STREET":"大同路","SECT":"二段","MAREA":" ","LANE":"６１巷","ALLEY":" ","HOUSE_NO":"６號十三樓之１","E_COORD97":169356.92999999999,"N_COORD97":2542219.29,"ADDRESS":"大同路二段６１巷６號十三樓之１","OBJECTID":350457},"geometry":{"x":169356.9299999997,"y":2542219.290000001}},{"attributes":{"ID":350467,"DIS_CODE":0,"TOWNNAME":"東區","LI":"路東里","LIN":"6鄰","STREET":"大同路","SECT":"二段","MAREA":" ","LANE":"６１巷","ALLEY":" ","HOUSE_NO":"６號十五樓","E_COORD97":169356.92999999999,"N_COORD97":2542219.29,"ADDRESS":"大同路二段６１巷６號十五樓","OBJECTID":350458},"geometry":{"x":169356.9299999997,"y":2542219.290000001}},{"attributes":{"ID":350468,"DIS_CODE":0,"TOWNNAME":"東區","LI":"路東里","LIN":"6鄰","STREET":"大同路","SECT":"二段","MAREA":" ","LANE":"６１巷","ALLEY":" ","HOUSE_NO":"６號十五樓之１","E_COORD97":169356.92999999999,"N_COORD97":2542219.29,"ADDRESS":"大同路二段６１巷６號十五樓之１","OBJECTID":350459},"geometry":{"x":169356.9299999997,"y":2542219.290000001}},{"attributes":{"ID":350469,"DIS_CODE":0,"TOWNNAME":"東區","LI":"路東里","LIN":"6鄰","STREET":"大同路","SECT":"二段","MAREA":" ","LANE":"６１巷","ALLEY":" ","HOUSE_NO":"６號十六樓","E_COORD97":169356.92999999999,"N_COORD97":2542219.29,"ADDRESS":"大同路二段６１巷６號十六樓","OBJECTID":350460},"geometry":{"x":169356.9299999997,"y":2542219.290000001}},{"attributes":{"ID":350470,"DIS_CODE":0,"TOWNNAME":"東區","LI":"路東里","LIN":"6鄰","STREET":"大同路","SECT":"二段","MAREA":" ","LANE":"６１巷","ALLEY":" ","HOUSE_NO":"６號十六樓之１","E_COORD97":169356.92999999999,"N_COORD97":2542219.29,"ADDRESS":"大同路二段６１巷６號十六樓之１","OBJECTID":350461},"geometry":{"x":169356.9299999997,"y":2542219.290000001}},{"attributes":{"ID":350471,"DIS_CODE":0,"TOWNNAME":"東區","LI":"路東里","LIN":"6鄰","STREET":"大同路","SECT":"二段","MAREA":" ","LANE":"６１巷","ALLEY":" ","HOUSE_NO":"６號十四樓","E_COORD97":169356.92999999999,"N_COORD97":2542219.29,"ADDRESS":"大同路二段６１巷６號十四樓","OBJECTID":350462},"geometry":{"x":169356.9299999997,"y":2542219.290000001}},{"attributes":{"ID":350472,"DIS_CODE":0,"TOWNNAME":"東區","LI":"路東里","LIN":"6鄰","STREET":"大同路","SECT":"二段","MAREA":" ","LANE":"６１巷","ALLEY":" ","HOUSE_NO":"６號十四樓之１","E_COORD97":169356.92999999999,"N_COORD97":2542219.29,"ADDRESS":"大同路二段６１巷６號十四樓之１","OBJECTID":350463},"geometry":{"x":169356.9299999997,"y":2542219.290000001}},{"attributes":{"ID":350473,"DIS_CODE":0,"TOWNNAME":"東區","LI":"路東里","LIN":"6鄰","STREET":"大同路","SECT":"二段","MAREA":" ","LANE":"６１巷","ALLEY":" ","HOUSE_NO":"６號十樓","E_COORD97":169356.92999999999,"N_COORD97":2542219.29,"ADDRESS":"大同路二段６１巷６號十樓","OBJECTID":350464},"geometry":{"x":169356.9299999997,"y":2542219.290000001}},{"attributes":{"ID":350474,"DIS_CODE":0,"TOWNNAME":"東區","LI":"路東里","LIN":"6鄰","STREET":"大同路","SECT":"二段","MAREA":" ","LANE":"６１巷","ALLEY":" ","HOUSE_NO":"６號十樓之１","E_COORD97":169356.92999999999,"N_COORD97":2542219.29,"ADDRESS":"大同路二段６１巷６號十樓之１","OBJECTID":350465},"geometry":{"x":169356.9299999997,"y":2542219.290000001}},{"attributes":{"ID":350475,"DIS_CODE":0,"TOWNNAME":"東區","LI":"崇明里","LIN":"18鄰","STREET":"中華東路","SECT":"三段","MAREA":" ","LANE":"３５７巷","ALLEY":" ","HOUSE_NO":"９７號","E_COORD97":170468.67000000001,"N_COORD97":2541470.6699999999,"ADDRESS":"中華東路三段３５７巷９７號","OBJECTID":350466},"geometry":{"x":170468.67000000086,"y":2541470.6700000018}},{"attributes":{"ID":350476,"DIS_CODE":0,"TOWNNAME":"東區","LI":"崇明里","LIN":"18鄰","STREET":"中華東路","SECT":"三段","MAREA":" ","LANE":"３５７巷","ALLEY":" ","HOUSE_NO":"９９號","E_COORD97":170472.89999999999,"N_COORD97":2541467,"ADDRESS":"中華東路三段３５７巷９９號","OBJECTID":350467},"geometry":{"x":170472.9000000013,"y":2541467}},{"attributes":{"ID":350477,"DIS_CODE":0,"TOWNNAME":"東區","LI":"崇信里","LIN":"18鄰","STREET":"崇善路","SECT":" ","MAREA":" ","LANE":"２３１巷","ALLEY":" ","HOUSE_NO":"１２號","E_COORD97":170623.92000000001,"N_COORD97":2542206.5800000001,"ADDRESS":"崇善路２３１巷１２號","OBJECTID":350468},"geometry":{"x":170623.91999999993,"y":2542206.5800000038}},{"attributes":{"ID":350478,"DIS_CODE":0,"TOWNNAME":"東區","LI":"崇信里","LIN":"18鄰","STREET":"崇善路","SECT":" ","MAREA":" ","LANE":"２３１巷","ALLEY":" ","HOUSE_NO":"１４號","E_COORD97":170627.42000000001,"N_COORD97":2542210.2400000002,"ADDRESS":"崇善路２３１巷１４號","OBJECTID":350469},"geometry":{"x":170627.41999999993,"y":2542210.2400000021}},{"attributes":{"ID":350479,"DIS_CODE":0,"TOWNNAME":"東區","LI":"崇信里","LIN":"18鄰","STREET":"崇善路","SECT":" ","MAREA":" ","LANE":"２３１巷","ALLEY":" ","HOUSE_NO":"１６號","E_COORD97":170630.73000000001,"N_COORD97":2542213.9100000001,"ADDRESS":"崇善路２３１巷１６號","OBJECTID":350470},"geometry":{"x":170630.73000000045,"y":2542213.9100000001}},{"attributes":{"ID":350480,"DIS_CODE":0,"TOWNNAME":"東區","LI":"崇信里","LIN":"18鄰","STREET":"崇善路","SECT":" ","MAREA":" ","LANE":"２３１巷","ALLEY":" ","HOUSE_NO":"１８號","E_COORD97":170633.35000000001,"N_COORD97":2542217.7400000002,"ADDRESS":"崇善路２３１巷１８號","OBJECTID":350471},"geometry":{"x":170633.35000000056,"y":2542217.7400000002}},{"attributes":{"ID":350481,"DIS_CODE":0,"TOWNNAME":"東區","LI":"崇信里","LIN":"18鄰","STREET":"崇善路","SECT":" ","MAREA":" ","LANE":"２３１巷","ALLEY":" ","HOUSE_NO":"２２號","E_COORD97":170638.76999999999,"N_COORD97":2542224.7200000002,"ADDRESS":"崇善路２３１巷２２號","OBJECTID":350472},"geometry":{"x":170638.77000000048,"y":2542224.7200000025}},{"attributes":{"ID":350482,"DIS_CODE":0,"TOWNNAME":"東區","LI":"崇信里","LIN":"18鄰","STREET":"崇善路","SECT":" ","MAREA":" ","LANE":"２３１巷","ALLEY":" ","HOUSE_NO":"２４號","E_COORD97":170641.91,"N_COORD97":2542227.6899999999,"ADDRESS":"崇善路２３１巷２４號","OBJECTID":350473},"geometry":{"x":170641.91000000108,"y":2542227.6899999995}},{"attributes":{"ID":350483,"DIS_CODE":0,"TOWNNAME":"東區","LI":"崇信里","LIN":"18鄰","STREET":"崇善路","SECT":" ","MAREA":" ","LANE":"２３１巷","ALLEY":" ","HOUSE_NO":"２６號","E_COORD97":170643.82999999999,"N_COORD97":2542231.52,"ADDRESS":"崇善路２３１巷２６號","OBJECTID":350474},"geometry":{"x":170643.83000000194,"y":2542231.5200000014}},{"attributes":{"ID":350484,"DIS_CODE":0,"TOWNNAME":"東區","LI":"崇信里","LIN":"18鄰","STREET":"崇善路","SECT":" ","MAREA":" ","LANE":"２３１巷","ALLEY":" ","HOUSE_NO":"３０號","E_COORD97":170650.64000000001,"N_COORD97":2542238.5,"ADDRESS":"崇善路２３１巷３０號","OBJECTID":350475},"geometry":{"x":170650.63999999966,"y":2542238.5000000019}},{"attributes":{"ID":350485,"DIS_CODE":0,"TOWNNAME":"東區","LI":"崇信里","LIN":"18鄰","STREET":"崇善路","SECT":" ","MAREA":" ","LANE":"２３１巷","ALLEY":" ","HOUSE_NO":"３２號","E_COORD97":170653.44,"N_COORD97":2542242.5099999998,"ADDRESS":"崇善路２３１巷３２號","OBJECTID":350476},"geometry":{"x":170653.43999999948,"y":2542242.5099999998}},{"attributes":{"ID":350486,"DIS_CODE":0,"TOWNNAME":"東區","LI":"崇信里","LIN":"18鄰","STREET":"崇善路","SECT":" ","MAREA":" ","LANE":"２３１巷","ALLEY":" ","HOUSE_NO":"３４號","E_COORD97":170663.10000000001,"N_COORD97":2542247.3100000001,"ADDRESS":"崇善路２３１巷３４號","OBJECTID":350477},"geometry":{"x":170663.09999999963,"y":2542247.3100000024}},{"attributes":{"ID":350487,"DIS_CODE":0,"TOWNNAME":"東區","LI":"路東里","LIN":"6鄰","STREET":"大同路","SECT":"二段","MAREA":" ","LANE":"６１巷","ALLEY":" ","HOUSE_NO":"６號三樓","E_COORD97":169356.92999999999,"N_COORD97":2542219.29,"ADDRESS":"大同路二段６１巷６號三樓","OBJECTID":350478},"geometry":{"x":169356.9299999997,"y":2542219.290000001}},{"attributes":{"ID":350488,"DIS_CODE":0,"TOWNNAME":"安平區","LI":"華平里","LIN":"8鄰","STREET":"健康二街","SECT":" ","MAREA":" ","LANE":" ","ALLEY":" ","HOUSE_NO":"５１５之２號","E_COORD97":165350.48000000001,"N_COORD97":2544040.3599999999,"ADDRESS":"健康二街５１５之２號","OBJECTID":350479},"geometry":{"x":165350.48000000045,"y":2544040.3599999994}},{"attributes":{"ID":350489,"DIS_CODE":0,"TOWNNAME":"安平區","LI":"華平里","LIN":"8鄰","STREET":"健康二街","SECT":" ","MAREA":" ","LANE":" ","ALLEY":" ","HOUSE_NO":"５１５之３號","E_COORD97":165344.44,"N_COORD97":2544041.3199999998,"ADDRESS":"健康二街５１５之３號","OBJECTID":350480},"geometry":{"x":165344.44000000134,"y":2544041.3200000003}},{"attributes":{"ID":350490,"DIS_CODE":0,"TOWNNAME":"北區","LI":"東興里","LIN":"8鄰","STREET":"小東路","SECT":" ","MAREA":" ","LANE":" ","ALLEY":" ","HOUSE_NO":"３４７號","E_COORD97":171212.03,"N_COORD97":2544387.2400000002,"ADDRESS":"小東路３４７號","OBJECTID":350481},"geometry":{"x":171212.02999999933,"y":2544387.2400000021}},{"attributes":{"ID":350491,"DIS_CODE":0,"TOWNNAME":"安平區","LI":"華平里","LIN":"8鄰","STREET":"健康二街","SECT":" ","MAREA":" ","LANE":" ","ALLEY":" ","HOUSE_NO":"５１７號","E_COORD97":165363.48999999999,"N_COORD97":2544046.5600000001,"ADDRESS":"健康二街５１７號","OBJECTID":350482},"geometry":{"x":165363.49000000022,"y":2544046.5600000005}},{"attributes":{"ID":350492,"DIS_CODE":0,"TOWNNAME":"安平區","LI":"華平里","LIN":"8鄰","STREET":"健康二街","SECT":" ","MAREA":" ","LANE":" ","ALLEY":" ","HOUSE_NO":"５１９號","E_COORD97":165363.85000000001,"N_COORD97":2544049.5899999999,"ADDRESS":"健康二街５１９號","OBJECTID":350483},"geometry":{"x":165363.84999999963,"y":2544049.5899999999}},{"attributes":{"ID":350493,"DIS_CODE":0,"TOWNNAME":"安平區","LI":"建平里","LIN":"8鄰","STREET":"府前三街","SECT":" ","MAREA":" ","LANE":" ","ALLEY":" ","HOUSE_NO":"８６號","E_COORD97":166539.31,"N_COORD97":2543862.7799999998,"ADDRESS":"府前三街８６號","OBJECTID":350484},"geometry":{"x":166539.31000000145,"y":2543862.7800000012}},{"attributes":{"ID":350494,"DIS_CODE":0,"TOWNNAME":"安平區","LI":"建平里","LIN":"8鄰","STREET":"府前三街","SECT":" ","MAREA":" ","LANE":" ","ALLEY":" ","HOUSE_NO":"８２號","E_COORD97":166540.07999999999,"N_COORD97":2543859.7000000002,"ADDRESS":"府前三街８２號","OBJECTID":350485},"geometry":{"x":166540.08000000101,"y":2543859.7000000011}},{"attributes":{"ID":350495,"DIS_CODE":0,"TOWNNAME":"安平區","LI":"建平里","LIN":"8鄰","STREET":"府前三街","SECT":" ","MAREA":" ","LANE":" ","ALLEY":" ","HOUSE_NO":"８８號","E_COORD97":166537.76999999999,"N_COORD97":2543868.7400000002,"ADDRESS":"府前三街８８號","OBJECTID":350486},"geometry":{"x":166537.76999999862,"y":2543868.7400000002}},{"attributes":{"ID":350496,"DIS_CODE":0,"TOWNNAME":"安平區","LI":"建平里","LIN":"8鄰","STREET":"府前三街","SECT":" ","MAREA":" ","LANE":" ","ALLEY":" ","HOUSE_NO":"９２號","E_COORD97":166534.69,"N_COORD97":2543876.6299999999,"ADDRESS":"府前三街９２號","OBJECTID":350487},"geometry":{"x":166534.69000000134,"y":2543876.6300000027}},{"attributes":{"ID":350497,"DIS_CODE":0,"TOWNNAME":"安平區","LI":"建平里","LIN":"8鄰","STREET":"府前三街","SECT":" ","MAREA":" ","LANE":" ","ALLEY":" ","HOUSE_NO":"９６號","E_COORD97":166532.95999999999,"N_COORD97":2543881.0600000001,"ADDRESS":"府前三街９６號","OBJECTID":350488},"geometry":{"x":166532.95999999996,"y":2543881.0600000005}},{"attributes":{"ID":350498,"DIS_CODE":0,"TOWNNAME":"安平區","LI":"億載里","LIN":"8鄰","STREET":"永華路","SECT":"二段","MAREA":" ","LANE":" ","ALLEY":" ","HOUSE_NO":"１１６３號","E_COORD97":164182.42999999999,"N_COORD97":2543598.5,"ADDRESS":"永華路二段１１６３號","OBJECTID":350489},"geometry":{"x":164182.43000000156,"y":2543598.5000000019}},{"attributes":{"ID":350499,"DIS_CODE":0,"TOWNNAME":"安平區","LI":"建平里","LIN":"8鄰","STREET":"中華西路","SECT":"二段","MAREA":" ","LANE":" ","ALLEY":" ","HOUSE_NO":"４１１號","E_COORD97":166579.29000000001,"N_COORD97":2543888.4700000002,"ADDRESS":"中華西路二段４１１號","OBJECTID":350490},"geometry":{"x":166579.29000000097,"y":2543888.4700000007}},{"attributes":{"ID":350500,"DIS_CODE":0,"TOWNNAME":"安平區","LI":"建平里","LIN":"8鄰","STREET":"中華西路","SECT":"二段","MAREA":" ","LANE":" ","ALLEY":" ","HOUSE_NO":"４１７號","E_COORD97":166576.73999999999,"N_COORD97":2543898.7999999998,"ADDRESS":"中華西路二段４１７號","OBJECTID":350491},"geometry":{"x":166576.74000000115,"y":2543898.8000000026}},{"attributes":{"ID":350501,"DIS_CODE":0,"TOWNNAME":"東區","LI":"路東里","LIN":"6鄰","STREET":"大同路","SECT":"二段","MAREA":" ","LANE":"６１巷","ALLEY":" ","HOUSE_NO":"６號三樓之１","E_COORD97":169356.92999999999,"N_COORD97":2542219.29,"ADDRESS":"大同路二段６１巷６號三樓之１","OBJECTID":350492},"geometry":{"x":169356.9299999997,"y":2542219.290000001}},{"attributes":{"ID":350502,"DIS_CODE":0,"TOWNNAME":"東區","LI":"路東里","LIN":"6鄰","STREET":"大同路","SECT":"二段","MAREA":" ","LANE":"６１巷","ALLEY":" ","HOUSE_NO":"６號五樓","E_COORD97":169356.92999999999,"N_COORD97":2542219.29,"ADDRESS":"大同路二段６１巷６號五樓","OBJECTID":350493},"geometry":{"x":169356.9299999997,"y":2542219.290000001}},{"attributes":{"ID":350503,"DIS_CODE":0,"TOWNNAME":"東區","LI":"路東里","LIN":"6鄰","STREET":"大同路","SECT":"二段","MAREA":" ","LANE":"６１巷","ALLEY":" ","HOUSE_NO":"６號五樓之１","E_COORD97":169356.92999999999,"N_COORD97":2542219.29,"ADDRESS":"大同路二段６１巷６號五樓之１","OBJECTID":350494},"geometry":{"x":169356.9299999997,"y":2542219.290000001}},{"attributes":{"ID":350504,"DIS_CODE":0,"TOWNNAME":"東區","LI":"路東里","LIN":"6鄰","STREET":"大同路","SECT":"二段","MAREA":" ","LANE":"６１巷","ALLEY":" ","HOUSE_NO":"６號六樓","E_COORD97":169356.92999999999,"N_COORD97":2542219.29,"ADDRESS":"大同路二段６１巷６號六樓","OBJECTID":350495},"geometry":{"x":169356.9299999997,"y":2542219.290000001}},{"attributes":{"ID":350505,"DIS_CODE":0,"TOWNNAME":"東區","LI":"路東里","LIN":"6鄰","STREET":"大同路","SECT":"二段","MAREA":" ","LANE":"６１巷","ALLEY":" ","HOUSE_NO":"６號六樓之１","E_COORD97":169356.92999999999,"N_COORD97":2542219.29,"ADDRESS":"大同路二段６１巷６號六樓之１","OBJECTID":350496},"geometry":{"x":169356.9299999997,"y":2542219.290000001}},{"attributes":{"ID":350506,"DIS_CODE":0,"TOWNNAME":"東區","LI":"路東里","LIN":"6鄰","STREET":"大同路","SECT":"二段","MAREA":" ","LANE":"６１巷","ALLEY":" ","HOUSE_NO":"６號四樓","E_COORD97":169356.92999999999,"N_COORD97":2542219.29,"ADDRESS":"大同路二段６１巷６號四樓","OBJECTID":350497},"geometry":{"x":169356.9299999997,"y":2542219.290000001}},{"attributes":{"ID":350507,"DIS_CODE":0,"TOWNNAME":"東區","LI":"路東里","LIN":"6鄰","STREET":"大同路","SECT":"二段","MAREA":" ","LANE":"６１巷","ALLEY":" ","HOUSE_NO":"６號四樓之１","E_COORD97":169356.92999999999,"N_COORD97":2542219.29,"ADDRESS":"大同路二段６１巷６號四樓之１","OBJECTID":350498},"geometry":{"x":169356.9299999997,"y":2542219.290000001}},{"attributes":{"ID":350508,"DIS_CODE":0,"TOWNNAME":"安平區","LI":"金城里","LIN":"8鄰","STREET":"世平四街","SECT":" ","MAREA":" ","LANE":" ","ALLEY":" ","HOUSE_NO":"６８號","E_COORD97":162853.95000000001,"N_COORD97":2544144.1499999999,"ADDRESS":"世平四街６８號","OBJECTID":350499},"geometry":{"x":162853.95000000112,"y":2544144.1500000004}},{"attributes":{"ID":350509,"DIS_CODE":0,"TOWNNAME":"安定區","LI":"新吉里","LIN":"18鄰","STREET":" ","SECT":" ","MAREA":"新吉","LANE":" ","ALLEY":" ","HOUSE_NO":"２５９號","E_COORD97":169009.12,"N_COORD97":2554053.25,"ADDRESS":"新吉２５９號","OBJECTID":350500},"geometry":{"x":169009.12000000011,"y":2554053.25}},{"attributes":{"ID":350510,"DIS_CODE":0,"TOWNNAME":"安定區","LI":"新吉里","LIN":"18鄰","STREET":" ","SECT":" ","MAREA":"新吉","LANE":" ","ALLEY":" ","HOUSE_NO":"２５０號","E_COORD97":169046.51999999999,"N_COORD97":2554057.25,"ADDRESS":"新吉２５０號","OBJECTID":350501},"geometry":{"x":169046.51999999955,"y":2554057.25}},{"attributes":{"ID":350511,"DIS_CODE":0,"TOWNNAME":"安定區","LI":"新吉里","LIN":"18鄰","STREET":" ","SECT":" ","MAREA":"新吉","LANE":" ","ALLEY":" ","HOUSE_NO":"２７６號","E_COORD97":168879.01999999999,"N_COORD97":2554145.25,"ADDRESS":"新吉２７６號","OBJECTID":350502},"geometry":{"x":168879.02000000142,"y":2554145.25}},{"attributes":{"ID":350512,"DIS_CODE":0,"TOWNNAME":"安定區","LI":"新吉里","LIN":"18鄰","STREET":" ","SECT":" ","MAREA":"新吉","LANE":" ","ALLEY":" ","HOUSE_NO":"２５５號","E_COORD97":169025.92000000001,"N_COORD97":2554055.25,"ADDRESS":"新吉２５５號","OBJECTID":350503},"geometry":{"x":169025.92000000086,"y":2554055.2500000019}},{"attributes":{"ID":350513,"DIS_CODE":0,"TOWNNAME":"安定區","LI":"新吉里","LIN":"18鄰","STREET":" ","SECT":" ","MAREA":"新吉","LANE":" ","ALLEY":" ","HOUSE_NO":"２８１之６號","E_COORD97":168570.62,"N_COORD97":2554259.2999999998,"ADDRESS":"新吉２８１之６號","OBJECTID":350504},"geometry":{"x":168570.62000000104,"y":2554259.3000000026}},{"attributes":{"ID":350514,"DIS_CODE":0,"TOWNNAME":"安定區","LI":"新吉里","LIN":"18鄰","STREET":" ","SECT":" ","MAREA":"新吉","LANE":" ","ALLEY":" ","HOUSE_NO":"２６７號","E_COORD97":168975.82000000001,"N_COORD97":2554051.25,"ADDRESS":"新吉２６７號","OBJECTID":350505},"geometry":{"x":168975.8200000003,"y":2554051.2500000037}},{"attributes":{"ID":350515,"DIS_CODE":0,"TOWNNAME":"安定區","LI":"海寮里","LIN":"18鄰","STREET":" ","SECT":" ","MAREA":"海寮","LANE":" ","ALLEY":" ","HOUSE_NO":"１７２號之４","E_COORD97":169297,"N_COORD97":2555521.2999999998,"ADDRESS":"海寮１７２號之４","OBJECTID":350506},"geometry":{"x":169297.00000000093,"y":2555521.3000000026}},{"attributes":{"ID":350516,"DIS_CODE":0,"TOWNNAME":"安定區","LI":"新吉里","LIN":"18鄰","STREET":" ","SECT":" ","MAREA":"新吉","LANE":" ","ALLEY":" ","HOUSE_NO":"２８１之８號","E_COORD97":168886.72,"N_COORD97":2554231.2999999998,"ADDRESS":"新吉２８１之８號","OBJECTID":350507},"geometry":{"x":168886.72000000067,"y":2554231.3000000045}},{"attributes":{"ID":350517,"DIS_CODE":0,"TOWNNAME":"安定區","LI":"海寮里","LIN":"18鄰","STREET":" ","SECT":" ","MAREA":"海寮","LANE":" ","ALLEY":" ","HOUSE_NO":"１８０之８號","E_COORD97":169420.64000000001,"N_COORD97":2555465.2999999998,"ADDRESS":"海寮１８０之８號","OBJECTID":350508},"geometry":{"x":169420.64000000153,"y":2555465.2999999989}},{"attributes":{"ID":350518,"DIS_CODE":0,"TOWNNAME":"安定區","LI":"新吉里","LIN":"18鄰","STREET":" ","SECT":" ","MAREA":"新吉","LANE":" ","ALLEY":" ","HOUSE_NO":"２７１號","E_COORD97":168960.22,"N_COORD97":2554049.25,"ADDRESS":"新吉２７１號","OBJECTID":350509},"geometry":{"x":168960.21999999974,"y":2554049.2500000019}},{"attributes":{"ID":350519,"DIS_CODE":0,"TOWNNAME":"安定區","LI":"海寮里","LIN":"18鄰","STREET":" ","SECT":" ","MAREA":"海寮","LANE":" ","ALLEY":" ","HOUSE_NO":"１７１之１號","E_COORD97":169319.64000000001,"N_COORD97":2555508.2999999998,"ADDRESS":"海寮１７１之１號","OBJECTID":350510},"geometry":{"x":169319.6400000006,"y":2555508.3000000007}},{"attributes":{"ID":350520,"DIS_CODE":0,"TOWNNAME":"安定區","LI":"蘇厝里","LIN":"18鄰","STREET":" ","SECT":" ","MAREA":"蘇厝","LANE":" ","ALLEY":" ","HOUSE_NO":"４６０號","E_COORD97":173252.72,"N_COORD97":2558889.25,"ADDRESS":"蘇厝４６０號","OBJECTID":350511},"geometry":{"x":173252.71999999974,"y":2558889.2500000037}},{"attributes":{"ID":350521,"DIS_CODE":0,"TOWNNAME":"安南區","LI":"大安里","LIN":"18鄰","STREET":"義安街","SECT":" ","MAREA":" ","LANE":"１９８巷","ALLEY":" ","HOUSE_NO":"３５號","E_COORD97":167687.72,"N_COORD97":2548272.8700000001,"ADDRESS":"義安街１９８巷３５號","OBJECTID":350512},"geometry":{"x":167687.7200000016,"y":2548272.870000001}},{"attributes":{"ID":350522,"DIS_CODE":0,"TOWNNAME":"永康區","LI":"永康里","LIN":"20鄰","STREET":"永中街","SECT":" ","MAREA":" ","LANE":"１６６巷","ALLEY":" ","HOUSE_NO":"１１號","E_COORD97":174111.82999999999,"N_COORD97":2547267.77,"ADDRESS":"永中街１６６巷１１號","OBJECTID":350513},"geometry":{"x":174111.83000000007,"y":2547267.7700000014}},{"attributes":{"ID":350523,"DIS_CODE":0,"TOWNNAME":"永康區","LI":"永康里","LIN":"8鄰","STREET":"永中街","SECT":" ","MAREA":" ","LANE":"５３巷","ALLEY":" ","HOUSE_NO":"１５號","E_COORD97":173863.51000000001,"N_COORD97":2547245.25,"ADDRESS":"永中街５３巷１５號","OBJECTID":350514},"geometry":{"x":173863.51000000071,"y":2547245.25}},{"attributes":{"ID":350524,"DIS_CODE":0,"TOWNNAME":"北區","LI":"賢北里","LIN":"6鄰","STREET":"中華北路","SECT":"一段","MAREA":" ","LANE":"１０５巷","ALLEY":" ","HOUSE_NO":"５０號七樓之８","E_COORD97":166395.47,"N_COORD97":2545527.0099999998,"ADDRESS":"中華北路一段１０５巷５０號七樓之８","OBJECTID":350515},"geometry":{"x":166395.46999999974,"y":2545527.0100000016}},{"attributes":{"ID":350525,"DIS_CODE":0,"TOWNNAME":"北區","LI":"賢北里","LIN":"6鄰","STREET":"中華北路","SECT":"一段","MAREA":" ","LANE":"１０５巷","ALLEY":" ","HOUSE_NO":"５０號二樓之１","E_COORD97":166395.47,"N_COORD97":2545527.0099999998,"ADDRESS":"中華北路一段１０５巷５０號二樓之１","OBJECTID":350516},"geometry":{"x":166395.46999999974,"y":2545527.0100000016}},{"attributes":{"ID":350526,"DIS_CODE":0,"TOWNNAME":"北區","LI":"賢北里","LIN":"6鄰","STREET":"中華北路","SECT":"一段","MAREA":" ","LANE":"１０５巷","ALLEY":" ","HOUSE_NO":"５０號二樓之２","E_COORD97":166395.47,"N_COORD97":2545527.0099999998,"ADDRESS":"中華北路一段１０５巷５０號二樓之２","OBJECTID":350517},"geometry":{"x":166395.46999999974,"y":2545527.0100000016}},{"attributes":{"ID":350527,"DIS_CODE":0,"TOWNNAME":"北區","LI":"賢北里","LIN":"6鄰","STREET":"中華北路","SECT":"一段","MAREA":" ","LANE":"１０５巷","ALLEY":" ","HOUSE_NO":"５０號二樓之３","E_COORD97":166395.47,"N_COORD97":2545527.0099999998,"ADDRESS":"中華北路一段１０５巷５０號二樓之３","OBJECTID":350518},"geometry":{"x":166395.46999999974,"y":2545527.0100000016}},{"attributes":{"ID":350528,"DIS_CODE":0,"TOWNNAME":"北區","LI":"賢北里","LIN":"6鄰","STREET":"中華北路","SECT":"一段","MAREA":" ","LANE":"１０５巷","ALLEY":" ","HOUSE_NO":"５０號二樓之４","E_COORD97":166395.47,"N_COORD97":2545527.0099999998,"ADDRESS":"中華北路一段１０５巷５０號二樓之４","OBJECTID":350519},"geometry":{"x":166395.46999999974,"y":2545527.0100000016}},{"attributes":{"ID":350529,"DIS_CODE":0,"TOWNNAME":"安平區","LI":"金城里","LIN":"8鄰","STREET":"世平四街","SECT":" ","MAREA":" ","LANE":" ","ALLEY":" ","HOUSE_NO":"５８號","E_COORD97":162871.04000000001,"N_COORD97":2544154.1099999999,"ADDRESS":"世平四街５８號","OBJECTID":350520},"geometry":{"x":162871.04000000004,"y":2544154.1099999994}},{"attributes":{"ID":350530,"DIS_CODE":0,"TOWNNAME":"佳里區","LI":"六安里","LIN":"18鄰","STREET":"延平路","SECT":" ","MAREA":" ","LANE":"５７７巷","ALLEY":" ","HOUSE_NO":"６９號","E_COORD97":165683.94,"N_COORD97":2563553.2599999998,"ADDRESS":"延平路５７７巷６９號","OBJECTID":350521},"geometry":{"x":165683.94000000134,"y":2563553.2599999998}},{"attributes":{"ID":350531,"DIS_CODE":0,"TOWNNAME":"佳里區","LI":"六安里","LIN":"18鄰","STREET":"延平路","SECT":" ","MAREA":" ","LANE":"５７７巷","ALLEY":" ","HOUSE_NO":"７１號","E_COORD97":165679.39999999999,"N_COORD97":2563554.04,"ADDRESS":"延平路５７７巷７１號","OBJECTID":350522},"geometry":{"x":165679.40000000037,"y":2563554.0399999991}},{"attributes":{"ID":350532,"DIS_CODE":0,"TOWNNAME":"佳里區","LI":"六安里","LIN":"18鄰","STREET":"延平路","SECT":" ","MAREA":" ","LANE":"５７７巷","ALLEY":" ","HOUSE_NO":"７３號","E_COORD97":165674.72,"N_COORD97":2563554.98,"ADDRESS":"延平路５７７巷７３號","OBJECTID":350523},"geometry":{"x":165674.71999999974,"y":2563554.9800000023}},{"attributes":{"ID":350533,"DIS_CODE":0,"TOWNNAME":"佳里區","LI":"六安里","LIN":"18鄰","STREET":"延平路","SECT":" ","MAREA":" ","LANE":"５７７巷","ALLEY":" ","HOUSE_NO":"７５號","E_COORD97":165670.42999999999,"N_COORD97":2563555.2400000002,"ADDRESS":"延平路５７７巷７５號","OBJECTID":350524},"geometry":{"x":165670.4299999997,"y":2563555.2400000021}},{"attributes":{"ID":350534,"DIS_CODE":0,"TOWNNAME":"佳里區","LI":"六安里","LIN":"18鄰","STREET":"延平路","SECT":" ","MAREA":" ","LANE":"５７７巷","ALLEY":" ","HOUSE_NO":"７７號","E_COORD97":165665.42999999999,"N_COORD97":2563555.7599999998,"ADDRESS":"延平路５７７巷７７號","OBJECTID":350525},"geometry":{"x":165665.4299999997,"y":2563555.7600000016}},{"attributes":{"ID":350535,"DIS_CODE":0,"TOWNNAME":"佳里區","LI":"六安里","LIN":"18鄰","STREET":"延平路","SECT":" ","MAREA":" ","LANE":"５７７巷","ALLEY":" ","HOUSE_NO":"７９號","E_COORD97":165661.29999999999,"N_COORD97":2563556.7200000002,"ADDRESS":"延平路５７７巷７９號","OBJECTID":350526},"geometry":{"x":165661.29999999981,"y":2563556.7200000025}},{"attributes":{"ID":350536,"DIS_CODE":0,"TOWNNAME":"佳里區","LI":"六安里","LIN":"18鄰","STREET":"延平路","SECT":" ","MAREA":" ","LANE":"５７７巷","ALLEY":" ","HOUSE_NO":"８１號","E_COORD97":165651.56,"N_COORD97":2563558.1699999999,"ADDRESS":"延平路５７７巷８１號","OBJECTID":350527},"geometry":{"x":165651.56000000052,"y":2563558.1699999981}},{"attributes":{"ID":350537,"DIS_CODE":0,"TOWNNAME":"佳里區","LI":"六安里","LIN":"18鄰","STREET":"延平路","SECT":" ","MAREA":" ","LANE":"５７７巷","ALLEY":" ","HOUSE_NO":"８３號","E_COORD97":165646.79999999999,"N_COORD97":2563558.54,"ADDRESS":"延平路５７７巷８３號","OBJECTID":350528},"geometry":{"x":165646.80000000075,"y":2563558.5400000028}},{"attributes":{"ID":350538,"DIS_CODE":0,"TOWNNAME":"佳里區","LI":"六安里","LIN":"18鄰","STREET":"延平路","SECT":" ","MAREA":" ","LANE":"５７７巷","ALLEY":" ","HOUSE_NO":"８５號","E_COORD97":165642.97,"N_COORD97":2563559.3500000001,"ADDRESS":"延平路５７７巷８５號","OBJECTID":350529},"geometry":{"x":165642.96999999974,"y":2563559.3499999996}},{"attributes":{"ID":350539,"DIS_CODE":0,"TOWNNAME":"佳里區","LI":"六安里","LIN":"18鄰","STREET":"延平路","SECT":" ","MAREA":" ","LANE":"５７７巷","ALLEY":" ","HOUSE_NO":"８７號","E_COORD97":165639.14999999999,"N_COORD97":2563560.0099999998,"ADDRESS":"延平路５７７巷８７號","OBJECTID":350530},"geometry":{"x":165639.15000000037,"y":2563560.0100000016}},{"attributes":{"ID":350540,"DIS_CODE":0,"TOWNNAME":"永康區","LI":"安康里","LIN":"6鄰","STREET":"中華路","SECT":" ","MAREA":" ","LANE":"７２７巷","ALLEY":" ","HOUSE_NO":"２６號","E_COORD97":170771.70000000001,"N_COORD97":2546391.4100000001,"ADDRESS":"中華路７２７巷２６號","OBJECTID":350531},"geometry":{"x":170771.70000000019,"y":2546391.4100000039}},{"attributes":{"ID":350541,"DIS_CODE":0,"TOWNNAME":"北區","LI":"賢北里","LIN":"6鄰","STREET":"中華北路","SECT":"一段","MAREA":" ","LANE":"１０５巷","ALLEY":" ","HOUSE_NO":"５０號二樓之６","E_COORD97":166395.47,"N_COORD97":2545527.0099999998,"ADDRESS":"中華北路一段１０５巷５０號二樓之６","OBJECTID":350532},"geometry":{"x":166395.46999999974,"y":2545527.0100000016}},{"attributes":{"ID":350542,"DIS_CODE":0,"TOWNNAME":"北區","LI":"賢北里","LIN":"6鄰","STREET":"中華北路","SECT":"一段","MAREA":" ","LANE":"１０５巷","ALLEY":" ","HOUSE_NO":"５０號二樓之７","E_COORD97":166395.47,"N_COORD97":2545527.0099999998,"ADDRESS":"中華北路一段１０５巷５０號二樓之７","OBJECTID":350533},"geometry":{"x":166395.46999999974,"y":2545527.0100000016}},{"attributes":{"ID":350543,"DIS_CODE":0,"TOWNNAME":"安平區","LI":"金城里","LIN":"8鄰","STREET":"世平四街","SECT":" ","MAREA":" ","LANE":" ","ALLEY":" ","HOUSE_NO":"６０號","E_COORD97":162866.72,"N_COORD97":2544151.6200000001,"ADDRESS":"世平四街６０號","OBJECTID":350534},"geometry":{"x":162866.7200000016,"y":2544151.6200000029}},{"attributes":{"ID":350544,"DIS_CODE":0,"TOWNNAME":"安平區","LI":"國平里","LIN":"8鄰","STREET":"建平三街","SECT":" ","MAREA":" ","LANE":" ","ALLEY":" ","HOUSE_NO":"２２３號之１","E_COORD97":165372.42000000001,"N_COORD97":2542960.7599999998,"ADDRESS":"建平三街２２３號之１","OBJECTID":350535},"geometry":{"x":165372.41999999993,"y":2542960.7599999998}},{"attributes":{"ID":350545,"DIS_CODE":0,"TOWNNAME":"安平區","LI":"國平里","LIN":"8鄰","STREET":"文平路","SECT":" ","MAREA":" ","LANE":" ","ALLEY":" ","HOUSE_NO":"９５號","E_COORD97":165692.51999999999,"N_COORD97":2542987.6499999999,"ADDRESS":"文平路９５號","OBJECTID":350536},"geometry":{"x":165692.52000000048,"y":2542987.6500000022}},{"attributes":{"ID":350546,"DIS_CODE":0,"TOWNNAME":"安平區","LI":"建平里","LIN":"8鄰","STREET":"府前三街","SECT":" ","MAREA":" ","LANE":" ","ALLEY":" ","HOUSE_NO":"１５７號","E_COORD97":166505.92000000001,"N_COORD97":2544049.4900000002,"ADDRESS":"府前三街１５７號","OBJECTID":350537},"geometry":{"x":166505.91999999993,"y":2544049.4900000021}},{"attributes":{"ID":350547,"DIS_CODE":0,"TOWNNAME":"安平區","LI":"建平里","LIN":"8鄰","STREET":"府前三街","SECT":" ","MAREA":" ","LANE":" ","ALLEY":" ","HOUSE_NO":"１５９號","E_COORD97":166507.23999999999,"N_COORD97":2544056.6299999999,"ADDRESS":"府前三街１５９號","OBJECTID":350538},"geometry":{"x":166507.24000000115,"y":2544056.6300000008}},{"attributes":{"ID":350548,"DIS_CODE":0,"TOWNNAME":"佳里區","LI":"忠仁里","LIN":"18鄰","STREET":" ","SECT":" ","MAREA":"忠仁","LANE":" ","ALLEY":" ","HOUSE_NO":"９０號之７３","E_COORD97":166665.42000000001,"N_COORD97":2562265.8100000001,"ADDRESS":"忠仁９０號之７３","OBJECTID":350539},"geometry":{"x":166665.41999999993,"y":2562265.8100000005}},{"attributes":{"ID":350549,"DIS_CODE":0,"TOWNNAME":"安定區","LI":"新吉里","LIN":"18鄰","STREET":" ","SECT":" ","MAREA":"新吉","LANE":" ","ALLEY":" ","HOUSE_NO":"２４９之３號","E_COORD97":169037.62,"N_COORD97":2554069.2999999998,"ADDRESS":"新吉２４９之３號","OBJECTID":350540},"geometry":{"x":169037.62000000011,"y":2554069.3000000026}},{"attributes":{"ID":350550,"DIS_CODE":0,"TOWNNAME":"安定區","LI":"新吉里","LIN":"18鄰","STREET":" ","SECT":" ","MAREA":"新吉","LANE":" ","ALLEY":" ","HOUSE_NO":"２８１之９號","E_COORD97":168690.32000000001,"N_COORD97":2554070.2999999998,"ADDRESS":"新吉２８１之９號","OBJECTID":350541},"geometry":{"x":168690.32000000123,"y":2554070.3000000026}},{"attributes":{"ID":350551,"DIS_CODE":0,"TOWNNAME":"安平區","LI":"金城里","LIN":"8鄰","STREET":"世平四街","SECT":" ","MAREA":" ","LANE":" ","ALLEY":" ","HOUSE_NO":"４６號","E_COORD97":162898.98000000001,"N_COORD97":2544164.1400000001,"ADDRESS":"世平四街４６號","OBJECTID":350542},"geometry":{"x":162898.98000000045,"y":2544164.1400000025}},{"attributes":{"ID":350552,"DIS_CODE":0,"TOWNNAME":"安平區","LI":"金城里","LIN":"8鄰","STREET":"世平四街","SECT":" ","MAREA":" ","LANE":" ","ALLEY":" ","HOUSE_NO":"４６號之１","E_COORD97":162895.39999999999,"N_COORD97":2544163.7400000002,"ADDRESS":"世平四街４６號之１","OBJECTID":350543},"geometry":{"x":162895.4000000013,"y":2544163.7400000002}},{"attributes":{"ID":350553,"DIS_CODE":0,"TOWNNAME":"安平區","LI":"金城里","LIN":"8鄰","STREET":"世平四街","SECT":" ","MAREA":" ","LANE":" ","ALLEY":" ","HOUSE_NO":"４６號之１","E_COORD97":162894.88,"N_COORD97":2544166.25,"ADDRESS":"世平四街４６號之１","OBJECTID":350544},"geometry":{"x":162894.88000000082,"y":2544166.2500000019}},{"attributes":{"ID":350554,"DIS_CODE":0,"TOWNNAME":"安平區","LI":"金城里","LIN":"8鄰","STREET":"世平五街","SECT":" ","MAREA":" ","LANE":" ","ALLEY":" ","HOUSE_NO":"５１號","E_COORD97":162875.60000000001,"N_COORD97":2544177.8799999999,"ADDRESS":"世平五街５１號","OBJECTID":350545},"geometry":{"x":162875.59999999963,"y":2544177.8800000008}},{"attributes":{"ID":350555,"DIS_CODE":0,"TOWNNAME":"安平區","LI":"億載里","LIN":"8鄰","STREET":"永華路","SECT":"二段","MAREA":" ","LANE":" ","ALLEY":" ","HOUSE_NO":"１２５３號","E_COORD97":163934.42999999999,"N_COORD97":2543579.4399999999,"ADDRESS":"永華路二段１２５３號","OBJECTID":350546},"geometry":{"x":163934.4299999997,"y":2543579.4399999995}},{"attributes":{"ID":350556,"DIS_CODE":0,"TOWNNAME":"安平區","LI":"億載里","LIN":"8鄰","STREET":"光州六街","SECT":" ","MAREA":" ","LANE":" ","ALLEY":" ","HOUSE_NO":"９８號","E_COORD97":164165.01999999999,"N_COORD97":2543552.75,"ADDRESS":"光州六街９８號","OBJECTID":350547},"geometry":{"x":164165.02000000048,"y":2543552.7500000019}},{"attributes":{"ID":350557,"DIS_CODE":0,"TOWNNAME":"永康區","LI":"安康里","LIN":"18鄰","STREET":"中華路","SECT":" ","MAREA":" ","LANE":"６６１巷","ALLEY":" ","HOUSE_NO":"１０２號","E_COORD97":170807.04999999999,"N_COORD97":2546122,"ADDRESS":"中華路６６１巷１０２號","OBJECTID":350548},"geometry":{"x":170807.05000000075,"y":2546122}},{"attributes":{"ID":350558,"DIS_CODE":0,"TOWNNAME":"北區","LI":"賢北里","LIN":"6鄰","STREET":"中華北路","SECT":"一段","MAREA":" ","LANE":"１０５巷","ALLEY":" ","HOUSE_NO":"５０號二樓之８","E_COORD97":166395.47,"N_COORD97":2545527.0099999998,"ADDRESS":"中華北路一段１０５巷５０號二樓之８","OBJECTID":350549},"geometry":{"x":166395.46999999974,"y":2545527.0100000016}},{"attributes":{"ID":350559,"DIS_CODE":0,"TOWNNAME":"北區","LI":"賢北里","LIN":"6鄰","STREET":"中華北路","SECT":"一段","MAREA":" ","LANE":"１０５巷","ALLEY":" ","HOUSE_NO":"５０號三樓之１","E_COORD97":166395.47,"N_COORD97":2545527.0099999998,"ADDRESS":"中華北路一段１０５巷５０號三樓之１","OBJECTID":350550},"geometry":{"x":166395.46999999974,"y":2545527.0100000016}},{"attributes":{"ID":350560,"DIS_CODE":0,"TOWNNAME":"北區","LI":"賢北里","LIN":"6鄰","STREET":"中華北路","SECT":"一段","MAREA":" ","LANE":"１０５巷","ALLEY":" ","HOUSE_NO":"５０號三樓之２","E_COORD97":166395.47,"N_COORD97":2545527.0099999998,"ADDRESS":"中華北路一段１０５巷５０號三樓之２","OBJECTID":350551},"geometry":{"x":166395.46999999974,"y":2545527.0100000016}},{"attributes":{"ID":350561,"DIS_CODE":0,"TOWNNAME":"北區","LI":"賢北里","LIN":"6鄰","STREET":"中華北路","SECT":"一段","MAREA":" ","LANE":"１０５巷","ALLEY":" ","HOUSE_NO":"５０號三樓之３","E_COORD97":166395.47,"N_COORD97":2545527.0099999998,"ADDRESS":"中華北路一段１０５巷５０號三樓之３","OBJECTID":350552},"geometry":{"x":166395.46999999974,"y":2545527.0100000016}},{"attributes":{"ID":350562,"DIS_CODE":0,"TOWNNAME":"北區","LI":"賢北里","LIN":"6鄰","STREET":"中華北路","SECT":"一段","MAREA":" ","LANE":"１０５巷","ALLEY":" ","HOUSE_NO":"５０號三樓之４","E_COORD97":166395.47,"N_COORD97":2545527.0099999998,"ADDRESS":"中華北路一段１０５巷５０號三樓之４","OBJECTID":350553},"geometry":{"x":166395.46999999974,"y":2545527.0100000016}},{"attributes":{"ID":350563,"DIS_CODE":0,"TOWNNAME":"北區","LI":"賢北里","LIN":"6鄰","STREET":"中華北路","SECT":"一段","MAREA":" ","LANE":"１０５巷","ALLEY":" ","HOUSE_NO":"５０號三樓之５","E_COORD97":166395.47,"N_COORD97":2545527.0099999998,"ADDRESS":"中華北路一段１０５巷５０號三樓之５","OBJECTID":350554},"geometry":{"x":166395.46999999974,"y":2545527.0100000016}},{"attributes":{"ID":350564,"DIS_CODE":0,"TOWNNAME":"北區","LI":"賢北里","LIN":"6鄰","STREET":"中華北路","SECT":"一段","MAREA":" ","LANE":"１０５巷","ALLEY":" ","HOUSE_NO":"５０號三樓之６","E_COORD97":166395.47,"N_COORD97":2545527.0099999998,"ADDRESS":"中華北路一段１０５巷５０號三樓之６","OBJECTID":350555},"geometry":{"x":166395.46999999974,"y":2545527.0100000016}},{"attributes":{"ID":350565,"DIS_CODE":0,"TOWNNAME":"北區","LI":"賢北里","LIN":"6鄰","STREET":"中華北路","SECT":"一段","MAREA":" ","LANE":"１０５巷","ALLEY":" ","HOUSE_NO":"５０號三樓之７","E_COORD97":166395.47,"N_COORD97":2545527.0099999998,"ADDRESS":"中華北路一段１０５巷５０號三樓之７","OBJECTID":350556},"geometry":{"x":166395.46999999974,"y":2545527.0100000016}},{"attributes":{"ID":350566,"DIS_CODE":0,"TOWNNAME":"北區","LI":"賢北里","LIN":"6鄰","STREET":"中華北路","SECT":"一段","MAREA":" ","LANE":"１０５巷","ALLEY":" ","HOUSE_NO":"５０號三樓之８","E_COORD97":166395.47,"N_COORD97":2545527.0099999998,"ADDRESS":"中華北路一段１０５巷５０號三樓之８","OBJECTID":350557},"geometry":{"x":166395.46999999974,"y":2545527.0100000016}},{"attributes":{"ID":350567,"DIS_CODE":0,"TOWNNAME":"北區","LI":"賢北里","LIN":"6鄰","STREET":"中華北路","SECT":"一段","MAREA":" ","LANE":"１０５巷","ALLEY":" ","HOUSE_NO":"５０號五樓之１","E_COORD97":166395.47,"N_COORD97":2545527.0099999998,"ADDRESS":"中華北路一段１０５巷５０號五樓之１","OBJECTID":350558},"geometry":{"x":166395.46999999974,"y":2545527.0100000016}},{"attributes":{"ID":350568,"DIS_CODE":0,"TOWNNAME":"北區","LI":"賢北里","LIN":"6鄰","STREET":"中華北路","SECT":"一段","MAREA":" ","LANE":"１０５巷","ALLEY":" ","HOUSE_NO":"５０號五樓之４","E_COORD97":166395.47,"N_COORD97":2545527.0099999998,"ADDRESS":"中華北路一段１０５巷５０號五樓之４","OBJECTID":350559},"geometry":{"x":166395.46999999974,"y":2545527.0100000016}},{"attributes":{"ID":350569,"DIS_CODE":0,"TOWNNAME":"永康區","LI":"成功里","LIN":"29鄰","STREET":"中華路","SECT":" ","MAREA":" ","LANE":"１３４巷","ALLEY":" ","HOUSE_NO":"４９號","E_COORD97":171721.84,"N_COORD97":2544823.1600000001,"ADDRESS":"中華路１３４巷４９號","OBJECTID":350560},"geometry":{"x":171721.84000000078,"y":2544823.1600000001}},{"attributes":{"ID":350570,"DIS_CODE":0,"TOWNNAME":"永康區","LI":"永康里","LIN":"38鄰","STREET":"西勢路","SECT":" ","MAREA":" ","LANE":"７３３巷","ALLEY":" ","HOUSE_NO":"３０號","E_COORD97":174422.51000000001,"N_COORD97":2546633.0800000001,"ADDRESS":"西勢路７３３巷３０號","OBJECTID":350561},"geometry":{"x":174422.51000000164,"y":2546633.0800000001}},{"attributes":{"ID":350571,"DIS_CODE":0,"TOWNNAME":"南區","LI":"新興里","LIN":"8鄰","STREET":"健康路","SECT":"二段","MAREA":" ","LANE":" ","ALLEY":" ","HOUSE_NO":"６５號","E_COORD97":167553.23999999999,"N_COORD97":2542440.0299999998,"ADDRESS":"健康路二段６５號","OBJECTID":350562},"geometry":{"x":167553.24000000115,"y":2542440.0300000031}},{"attributes":{"ID":350572,"DIS_CODE":0,"TOWNNAME":"永康區","LI":"永康里","LIN":"20鄰","STREET":"永中街","SECT":" ","MAREA":" ","LANE":"１６６巷","ALLEY":" ","HOUSE_NO":"１９號","E_COORD97":174067.73000000001,"N_COORD97":2547286.7400000002,"ADDRESS":"永中街１６６巷１９號","OBJECTID":350563},"geometry":{"x":174067.73000000138,"y":2547286.7400000002}},{"attributes":{"ID":350573,"DIS_CODE":0,"TOWNNAME":"永康區","LI":"西灣里","LIN":"15鄰","STREET":"大安街","SECT":" ","MAREA":" ","LANE":"９７巷","ALLEY":" ","HOUSE_NO":"５０號","E_COORD97":174421.32000000001,"N_COORD97":2545096.3799999999,"ADDRESS":"大安街９７巷５０號","OBJECTID":350564},"geometry":{"x":174421.32000000123,"y":2545096.3800000008}},{"attributes":{"ID":350574,"DIS_CODE":0,"TOWNNAME":"安平區","LI":"億載里","LIN":"8鄰","STREET":"光州六街","SECT":" ","MAREA":" ","LANE":" ","ALLEY":" ","HOUSE_NO":"１００號","E_COORD97":164158.17999999999,"N_COORD97":2543551.4100000001,"ADDRESS":"光州六街１００號","OBJECTID":350565},"geometry":{"x":164158.1799999997,"y":2543551.410000002}},{"attributes":{"ID":350575,"DIS_CODE":0,"TOWNNAME":"安南區","LI":"長安里","LIN":"8鄰","STREET":"長溪路","SECT":"三段","MAREA":" ","LANE":" ","ALLEY":" ","HOUSE_NO":"４２７號","E_COORD97":167599.89000000001,"N_COORD97":2552084.5099999998,"ADDRESS":"長溪路三段４２７號","OBJECTID":350566},"geometry":{"x":167599.88999999966,"y":2552084.5100000016}},{"attributes":{"ID":350576,"DIS_CODE":0,"TOWNNAME":"安南區","LI":"安慶里","LIN":"18鄰","STREET":"安中路","SECT":"一段","MAREA":" ","LANE":"１８９巷","ALLEY":" ","HOUSE_NO":"５０號","E_COORD97":168750.73000000001,"N_COORD97":2548347.9300000002,"ADDRESS":"安中路一段１８９巷５０號","OBJECTID":350567},"geometry":{"x":168750.73000000045,"y":2548347.9300000016}},{"attributes":{"ID":350577,"DIS_CODE":0,"TOWNNAME":"安南區","LI":"安慶里","LIN":"18鄰","STREET":"安中路","SECT":"一段","MAREA":" ","LANE":"１８９巷","ALLEY":" ","HOUSE_NO":"５４號","E_COORD97":168752.26000000001,"N_COORD97":2548340.0600000001,"ADDRESS":"安中路一段１８９巷５４號","OBJECTID":350568},"geometry":{"x":168752.26000000071,"y":2548340.0600000005}},{"attributes":{"ID":350578,"DIS_CODE":0,"TOWNNAME":"安南區","LI":"安慶里","LIN":"18鄰","STREET":"安中路","SECT":"一段","MAREA":" ","LANE":"１８９巷","ALLEY":" ","HOUSE_NO":"５８號","E_COORD97":168753.07999999999,"N_COORD97":2548332.29,"ADDRESS":"安中路一段１８９巷５８號","OBJECTID":350569},"geometry":{"x":168753.08000000007,"y":2548332.2899999991}},{"attributes":{"ID":350579,"DIS_CODE":0,"TOWNNAME":"安南區","LI":"州南里","LIN":"18鄰","STREET":"安和路","SECT":"四段","MAREA":" ","LANE":"２７４巷","ALLEY":" ","HOUSE_NO":"２６號","E_COORD97":170008.25,"N_COORD97":2550733.6299999999,"ADDRESS":"安和路四段２７４巷２６號","OBJECTID":350570},"geometry":{"x":170008.25,"y":2550733.629999999}},{"attributes":{"ID":350580,"DIS_CODE":0,"TOWNNAME":"安南區","LI":"州南里","LIN":"18鄰","STREET":"安和路","SECT":"四段","MAREA":" ","LANE":"２７４巷","ALLEY":" ","HOUSE_NO":"３０號","E_COORD97":170017.85999999999,"N_COORD97":2550737.4399999999,"ADDRESS":"安和路四段２７４巷３０號","OBJECTID":350571},"geometry":{"x":170017.86000000034,"y":2550737.4400000013}},{"attributes":{"ID":350581,"DIS_CODE":0,"TOWNNAME":"安南區","LI":"州南里","LIN":"18鄰","STREET":"安和路","SECT":"四段","MAREA":" ","LANE":"２７４巷","ALLEY":" ","HOUSE_NO":"３２號","E_COORD97":170021.35999999999,"N_COORD97":2550737.8999999999,"ADDRESS":"安和路四段２７４巷３２號","OBJECTID":350572},"geometry":{"x":170021.36000000034,"y":2550737.9000000004}},{"attributes":{"ID":350582,"DIS_CODE":0,"TOWNNAME":"安南區","LI":"州南里","LIN":"18鄰","STREET":"安和路","SECT":"四段","MAREA":" ","LANE":"２７４巷","ALLEY":" ","HOUSE_NO":"３４號","E_COORD97":170025.92999999999,"N_COORD97":2550738.6600000001,"ADDRESS":"安和路四段２７４巷３４號","OBJECTID":350573},"geometry":{"x":170025.93000000063,"y":2550738.6600000001}},{"attributes":{"ID":350583,"DIS_CODE":0,"TOWNNAME":"安南區","LI":"州南里","LIN":"18鄰","STREET":"安和路","SECT":"四段","MAREA":" ","LANE":"２７４巷","ALLEY":" ","HOUSE_NO":"３６號","E_COORD97":170030.09,"N_COORD97":2550739.73,"ADDRESS":"安和路四段２７４巷３６號","OBJECTID":350574},"geometry":{"x":170030.09000000078,"y":2550739.7300000042}},{"attributes":{"ID":350584,"DIS_CODE":0,"TOWNNAME":"安南區","LI":"州南里","LIN":"18鄰","STREET":"安和路","SECT":"四段","MAREA":" ","LANE":"２７４巷","ALLEY":" ","HOUSE_NO":"３８號","E_COORD97":170033.35999999999,"N_COORD97":2550738.6400000001,"ADDRESS":"安和路四段２７４巷３８號","OBJECTID":350575},"geometry":{"x":170033.36000000034,"y":2550738.6400000006}},{"attributes":{"ID":350585,"DIS_CODE":0,"TOWNNAME":"安南區","LI":"州南里","LIN":"18鄰","STREET":"安和路","SECT":"四段","MAREA":" ","LANE":"２７４巷","ALLEY":" ","HOUSE_NO":"４０號","E_COORD97":170037.53,"N_COORD97":2550740.8199999998,"ADDRESS":"安和路四段２７４巷４０號","OBJECTID":350576},"geometry":{"x":170037.53000000212,"y":2550740.8200000003}},{"attributes":{"ID":350586,"DIS_CODE":0,"TOWNNAME":"安南區","LI":"州南里","LIN":"18鄰","STREET":"安和路","SECT":"四段","MAREA":" ","LANE":"２７４巷","ALLEY":" ","HOUSE_NO":"４６號","E_COORD97":170049.76000000001,"N_COORD97":2550741.3799999999,"ADDRESS":"安和路四段２７４巷４６號","OBJECTID":350577},"geometry":{"x":170049.75999999978,"y":2550741.3800000008}},{"attributes":{"ID":350587,"DIS_CODE":0,"TOWNNAME":"安南區","LI":"州南里","LIN":"18鄰","STREET":"安和路","SECT":"四段","MAREA":" ","LANE":"２７４巷","ALLEY":" ","HOUSE_NO":"５０號","E_COORD97":170056.66,"N_COORD97":2550743.5600000001,"ADDRESS":"安和路四段２７４巷５０號","OBJECTID":350578},"geometry":{"x":170056.65999999922,"y":2550743.5600000005}},{"attributes":{"ID":350588,"DIS_CODE":0,"TOWNNAME":"安南區","LI":"州南里","LIN":"18鄰","STREET":"安和路","SECT":"四段","MAREA":" ","LANE":"２７４巷","ALLEY":" ","HOUSE_NO":"５２號","E_COORD97":170061.01999999999,"N_COORD97":2550744.4700000002,"ADDRESS":"安和路四段２７４巷５２號","OBJECTID":350579},"geometry":{"x":170061.02000000048,"y":2550744.4700000007}},{"attributes":{"ID":350589,"DIS_CODE":0,"TOWNNAME":"安南區","LI":"海佃里","LIN":"18鄰","STREET":"海佃路","SECT":"一段","MAREA":" ","LANE":"１７９巷","ALLEY":" ","HOUSE_NO":"２２號","E_COORD97":167054.07000000001,"N_COORD97":2547156.6499999999,"ADDRESS":"海佃路一段１７９巷２２號","OBJECTID":350580},"geometry":{"x":167054.07000000123,"y":2547156.6500000022}},{"attributes":{"ID":350590,"DIS_CODE":0,"TOWNNAME":"安平區","LI":"億載里","LIN":"8鄰","STREET":"永華路","SECT":"二段","MAREA":" ","LANE":" ","ALLEY":" ","HOUSE_NO":"１２４５號之１","E_COORD97":164203.60999999999,"N_COORD97":2543600.3500000001,"ADDRESS":"永華路二段１２４５號之１","OBJECTID":350581},"geometry":{"x":164203.61000000034,"y":2543600.3499999996}},{"attributes":{"ID":350591,"DIS_CODE":0,"TOWNNAME":"安平區","LI":"建平里","LIN":"8鄰","STREET":"中華西路","SECT":"二段","MAREA":" ","LANE":" ","ALLEY":" ","HOUSE_NO":"４２７號","E_COORD97":166558.82999999999,"N_COORD97":2543946.6099999999,"ADDRESS":"中華西路二段４２７號","OBJECTID":350582},"geometry":{"x":166558.83000000101,"y":2543946.6099999994}},{"attributes":{"ID":350592,"DIS_CODE":0,"TOWNNAME":"安平區","LI":"建平里","LIN":"8鄰","STREET":"中華西路","SECT":"二段","MAREA":" ","LANE":" ","ALLEY":" ","HOUSE_NO":"４２９號","E_COORD97":166559.94,"N_COORD97":2543955.1899999999,"ADDRESS":"中華西路二段４２９號","OBJECTID":350583},"geometry":{"x":166559.94000000134,"y":2543955.1900000013}},{"attributes":{"ID":350593,"DIS_CODE":0,"TOWNNAME":"安平區","LI":"億載里","LIN":"8鄰","STREET":"永華十一街","SECT":" ","MAREA":" ","LANE":" ","ALLEY":" ","HOUSE_NO":"６７號","E_COORD97":164088.89999999999,"N_COORD97":2543528.9300000002,"ADDRESS":"永華十一街６７號","OBJECTID":350584},"geometry":{"x":164088.9000000013,"y":2543528.9299999997}},{"attributes":{"ID":350594,"DIS_CODE":0,"TOWNNAME":"安平區","LI":"億載里","LIN":"8鄰","STREET":"永華路","SECT":"二段","MAREA":" ","LANE":" ","ALLEY":" ","HOUSE_NO":"１１７７號","E_COORD97":164120.42000000001,"N_COORD97":2543595.27,"ADDRESS":"永華路二段１１７７號","OBJECTID":350585},"geometry":{"x":164120.42000000086,"y":2543595.2700000014}},{"attributes":{"ID":350595,"DIS_CODE":0,"TOWNNAME":"安平區","LI":"海頭里","LIN":"8鄰","STREET":"古堡街","SECT":" ","MAREA":" ","LANE":" ","ALLEY":" ","HOUSE_NO":"４７號","E_COORD97":164038.45999999999,"N_COORD97":2544607.96,"ADDRESS":"古堡街４７號","OBJECTID":350586},"geometry":{"x":164038.46000000089,"y":2544607.9600000009}},{"attributes":{"ID":350596,"DIS_CODE":0,"TOWNNAME":"安平區","LI":"億載里","LIN":"8鄰","STREET":"永華路","SECT":"二段","MAREA":" ","LANE":" ","ALLEY":" ","HOUSE_NO":"１２６０號","E_COORD97":163940.26000000001,"N_COORD97":2543631.4900000002,"ADDRESS":"永華路二段１２６０號","OBJECTID":350587},"geometry":{"x":163940.26000000071,"y":2543631.4900000039}},{"attributes":{"ID":350597,"DIS_CODE":0,"TOWNNAME":"新營區","LI":"三仙里","LIN":"8鄰","STREET":"博愛街","SECT":" ","MAREA":" ","LANE":" ","ALLEY":" ","HOUSE_NO":"９４號","E_COORD97":179670.39999999999,"N_COORD97":2578132.3999999999,"ADDRESS":"博愛街９４號","OBJECTID":350588},"geometry":{"x":179670.40000000224,"y":2578132.4000000041}},{"attributes":{"ID":350598,"DIS_CODE":0,"TOWNNAME":"新營區","LI":"護鎮里","LIN":"8鄰","STREET":"建國路","SECT":" ","MAREA":" ","LANE":" ","ALLEY":" ","HOUSE_NO":"２８５號","E_COORD97":179118.87,"N_COORD97":2581012.21,"ADDRESS":"建國路２８５號","OBJECTID":350589},"geometry":{"x":179118.87000000011,"y":2581012.2100000009}},{"attributes":{"ID":350599,"DIS_CODE":0,"TOWNNAME":"新營區","LI":"三仙里","LIN":"8鄰","STREET":"正義街","SECT":" ","MAREA":" ","LANE":" ","ALLEY":" ","HOUSE_NO":"２２號之４","E_COORD97":179660.5,"N_COORD97":2578154.6600000001,"ADDRESS":"正義街２２號之４","OBJECTID":350590},"geometry":{"x":179660.5,"y":2578154.660000002}},{"attributes":{"ID":350600,"DIS_CODE":0,"TOWNNAME":"新營區","LI":"護鎮里","LIN":"8鄰","STREET":"建國路","SECT":" ","MAREA":" ","LANE":" ","ALLEY":" ","HOUSE_NO":"２４５號","E_COORD97":179270.20999999999,"N_COORD97":2581009.27,"ADDRESS":"建國路２４５號","OBJECTID":350591},"geometry":{"x":179270.21000000089,"y":2581009.2700000014}},{"attributes":{"ID":350601,"DIS_CODE":0,"TOWNNAME":"新營區","LI":"興安里","LIN":"8鄰","STREET":"新進路","SECT":" ","MAREA":" ","LANE":" ","ALLEY":" ","HOUSE_NO":"２７７號","E_COORD97":179976.06,"N_COORD97":2577806.48,"ADDRESS":"新進路２７７號","OBJECTID":350592},"geometry":{"x":179976.06000000052,"y":2577806.4800000042}},{"attributes":{"ID":350602,"DIS_CODE":0,"TOWNNAME":"南區","LI":"新興里","LIN":"8鄰","STREET":"健康路","SECT":"二段","MAREA":" ","LANE":" ","ALLEY":" ","HOUSE_NO":"５７號","E_COORD97":167573.89000000001,"N_COORD97":2542439.5299999998,"ADDRESS":"健康路二段５７號","OBJECTID":350593},"geometry":{"x":167573.88999999966,"y":2542439.5299999993}},{"attributes":{"ID":350603,"DIS_CODE":0,"TOWNNAME":"南區","LI":"新興里","LIN":"8鄰","STREET":"健康路","SECT":"二段","MAREA":" ","LANE":" ","ALLEY":" ","HOUSE_NO":"５９號","E_COORD97":167566.14000000001,"N_COORD97":2542439.8599999999,"ADDRESS":"健康路二段５９號","OBJECTID":350594},"geometry":{"x":167566.14000000153,"y":2542439.8599999994}},{"attributes":{"ID":350604,"DIS_CODE":0,"TOWNNAME":"南區","LI":"新興里","LIN":"8鄰","STREET":"健康路","SECT":"二段","MAREA":" ","LANE":" ","ALLEY":" ","HOUSE_NO":"６７號","E_COORD97":167547.76000000001,"N_COORD97":2542440.3700000001,"ADDRESS":"健康路二段６７號","OBJECTID":350595},"geometry":{"x":167547.75999999978,"y":2542440.3700000029}},{"attributes":{"ID":350605,"DIS_CODE":0,"TOWNNAME":"安南區","LI":"州南里","LIN":"18鄰","STREET":"安和路","SECT":"四段","MAREA":" ","LANE":"２７４巷","ALLEY":" ","HOUSE_NO":"５６號","E_COORD97":170071.92000000001,"N_COORD97":2550747.5600000001,"ADDRESS":"安和路四段２７４巷５６號","OBJECTID":350596},"geometry":{"x":170071.92000000086,"y":2550747.5600000042}},{"attributes":{"ID":350606,"DIS_CODE":0,"TOWNNAME":"安南區","LI":"州南里","LIN":"18鄰","STREET":"安和路","SECT":"四段","MAREA":" ","LANE":"２７４巷","ALLEY":" ","HOUSE_NO":"６０號","E_COORD97":170083.23999999999,"N_COORD97":2550749.0099999998,"ADDRESS":"安和路四段２７４巷６０號","OBJECTID":350597},"geometry":{"x":170083.24000000022,"y":2550749.0099999998}},{"attributes":{"ID":350607,"DIS_CODE":0,"TOWNNAME":"安南區","LI":"州南里","LIN":"18鄰","STREET":"安和路","SECT":"四段","MAREA":" ","LANE":"２７４巷","ALLEY":" ","HOUSE_NO":"６４號","E_COORD97":170095.95999999999,"N_COORD97":2550749.7400000002,"ADDRESS":"安和路四段２７４巷６４號","OBJECTID":350598},"geometry":{"x":170095.96000000089,"y":2550749.7400000021}},{"attributes":{"ID":350608,"DIS_CODE":0,"TOWNNAME":"安南區","LI":"州南里","LIN":"18鄰","STREET":"安和路","SECT":"四段","MAREA":" ","LANE":"２７４巷","ALLEY":" ","HOUSE_NO":"６８號","E_COORD97":170107.95000000001,"N_COORD97":2550751.73,"ADDRESS":"安和路四段２７４巷６８號","OBJECTID":350599},"geometry":{"x":170107.95000000112,"y":2550751.7300000004}},{"attributes":{"ID":350609,"DIS_CODE":0,"TOWNNAME":"六甲區","LI":"水林里","LIN":"18鄰","STREET":"中正路","SECT":" ","MAREA":" ","LANE":"６４９巷","ALLEY":" ","HOUSE_NO":"７號","E_COORD97":183690.70000000001,"N_COORD97":2570314.77,"ADDRESS":"中正路６４９巷７號","OBJECTID":350600},"geometry":{"x":183690.70000000019,"y":2570314.7700000014}}]}