{"displayFieldName":"TOWNNAME","fieldAliases":{"ID":"ID","DIS_CODE":"DIS_CODE","TOWNNAME":"TOWNNAME","LI":"LI","LIN":"LIN","STREET":"STREET","SECT":"SECT","MAREA":"MAREA","LANE":"LANE","ALLEY":"ALLEY","HOUSE_NO":"HOUSE_NO","E_COORD97":"E_COORD97","N_COORD97":"N_COORD97","ADDRESS":"ADDRESS","OBJECTID":"OBJECTID"},"geometryType":"esriGeometryPoint","spatialReference":{"wkid":102443,"latestWkid":3826},"fields":[{"name":"ID","type":"esriFieldTypeDouble","alias":"ID"},{"name":"DIS_CODE","type":"esriFieldTypeInteger","alias":"DIS_CODE"},{"name":"TOWNNAME","type":"esriFieldTypeString","alias":"TOWNNAME","length":8},{"name":"LI","type":"esriFieldTypeString","alias":"LI","length":8},{"name":"LIN","type":"esriFieldTypeString","alias":"LIN","length":12},{"name":"STREET","type":"esriFieldTypeString","alias":"STREET","length":20},{"name":"SECT","type":"esriFieldTypeString","alias":"SECT","length":8},{"name":"MAREA","type":"esriFieldTypeString","alias":"MAREA","length":12},{"name":"LANE","type":"esriFieldTypeString","alias":"LANE","length":10},{"name":"ALLEY","type":"esriFieldTypeString","alias":"ALLEY","length":10},{"name":"HOUSE_NO","type":"esriFieldTypeString","alias":"HOUSE_NO","length":20},{"name":"E_COORD97","type":"esriFieldTypeDouble","alias":"E_COORD97"},{"name":"N_COORD97","type":"esriFieldTypeDouble","alias":"N_COORD97"},{"name":"ADDRESS","type":"esriFieldTypeString","alias":"ADDRESS","length":50},{"name":"OBJECTID","type":"esriFieldTypeOID","alias":"OBJECTID"}],"features":[{"attributes":{"ID":66201,"DIS_CODE":0,"TOWNNAME":"善化區","LI":"小新里","LIN":"8鄰","STREET":" ","SECT":" ","MAREA":"小新營","LANE":" ","ALLEY":" ","HOUSE_NO":"５７號之４","E_COORD97":179641.20999999999,"N_COORD97":2558414.27,"ADDRESS":"小新營５７號之４","OBJECTID":66201},"geometry":{"x":179641.21000000089,"y":2558414.2700000033}},{"attributes":{"ID":66202,"DIS_CODE":0,"TOWNNAME":"善化區","LI":"六德里","LIN":"8鄰","STREET":" ","SECT":" ","MAREA":"六分寮","LANE":" ","ALLEY":" ","HOUSE_NO":"２６７號之２","E_COORD97":178631.76000000001,"N_COORD97":2561574.02,"ADDRESS":"六分寮２６７號之２","OBJECTID":66202},"geometry":{"x":178631.76000000164,"y":2561574.0199999996}},{"attributes":{"ID":66203,"DIS_CODE":0,"TOWNNAME":"南區","LI":"府南里","LIN":"6鄰","STREET":"金華路","SECT":"一段","MAREA":" ","LANE":"４８４巷","ALLEY":"９９弄","HOUSE_NO":"６號之３","E_COORD97":167421.97,"N_COORD97":2541338.6400000001,"ADDRESS":"金華路一段４８４巷９９弄６號之３","OBJECTID":66203},"geometry":{"x":167421.97000000067,"y":2541338.6400000043}},{"attributes":{"ID":66204,"DIS_CODE":0,"TOWNNAME":"白河區","LI":"昇安里","LIN":"1鄰","STREET":" ","SECT":" ","MAREA":"三間厝","LANE":" ","ALLEY":" ","HOUSE_NO":"１８６之７號","E_COORD97":190843.32000000001,"N_COORD97":2584745.6899999999,"ADDRESS":"三間厝１８６之７號","OBJECTID":66204},"geometry":{"x":190843.3200000003,"y":2584745.6900000013}},{"attributes":{"ID":66205,"DIS_CODE":0,"TOWNNAME":"南區","LI":"府南里","LIN":"6鄰","STREET":"金華路","SECT":"一段","MAREA":" ","LANE":"４８４巷","ALLEY":"９９弄","HOUSE_NO":"６號之７","E_COORD97":167430.98000000001,"N_COORD97":2541328.8599999999,"ADDRESS":"金華路一段４８４巷９９弄６號之７","OBJECTID":66205},"geometry":{"x":167430.98000000138,"y":2541328.8599999994}},{"attributes":{"ID":66206,"DIS_CODE":0,"TOWNNAME":"北區","LI":"文成里","LIN":"6鄰","STREET":"文賢路","SECT":" ","MAREA":" ","LANE":"５７２巷","ALLEY":"５２弄","HOUSE_NO":"１０號","E_COORD97":167508.14999999999,"N_COORD97":2545380.7799999998,"ADDRESS":"文賢路５７２巷５２弄１０號","OBJECTID":66206},"geometry":{"x":167508.1500000013,"y":2545380.7799999993}},{"attributes":{"ID":66207,"DIS_CODE":0,"TOWNNAME":"北區","LI":"文成里","LIN":"6鄰","STREET":"文賢路","SECT":" ","MAREA":" ","LANE":"５７２巷","ALLEY":"５２弄","HOUSE_NO":"１２號","E_COORD97":167508.34,"N_COORD97":2545376.3999999999,"ADDRESS":"文賢路５７２巷５２弄１２號","OBJECTID":66207},"geometry":{"x":167508.33999999985,"y":2545376.4000000004}},{"attributes":{"ID":66208,"DIS_CODE":0,"TOWNNAME":"白河區","LI":"昇安里","LIN":"1鄰","STREET":" ","SECT":" ","MAREA":"三間厝","LANE":" ","ALLEY":" ","HOUSE_NO":"１８６號","E_COORD97":191036.57999999999,"N_COORD97":2584657.8900000001,"ADDRESS":"三間厝１８６號","OBJECTID":66208},"geometry":{"x":191036.58000000007,"y":2584657.8900000006}},{"attributes":{"ID":66209,"DIS_CODE":0,"TOWNNAME":"北區","LI":"文成里","LIN":"6鄰","STREET":"文賢路","SECT":" ","MAREA":" ","LANE":"５７２巷","ALLEY":"５２弄","HOUSE_NO":"１４號","E_COORD97":167507.76999999999,"N_COORD97":2545371.8300000001,"ADDRESS":"文賢路５７２巷５２弄１４號","OBJECTID":66209},"geometry":{"x":167507.77000000048,"y":2545371.8300000019}},{"attributes":{"ID":66210,"DIS_CODE":0,"TOWNNAME":"北區","LI":"文成里","LIN":"6鄰","STREET":"文賢路","SECT":" ","MAREA":" ","LANE":"５７２巷","ALLEY":"５２弄","HOUSE_NO":"２號","E_COORD97":167509.67000000001,"N_COORD97":2545392.7799999998,"ADDRESS":"文賢路５７２巷５２弄２號","OBJECTID":66210},"geometry":{"x":167509.66999999993,"y":2545392.7800000012}},{"attributes":{"ID":66211,"DIS_CODE":0,"TOWNNAME":"北區","LI":"文成里","LIN":"6鄰","STREET":"文賢路","SECT":" ","MAREA":" ","LANE":"５７２巷","ALLEY":"５２弄","HOUSE_NO":"６號","E_COORD97":167509.48000000001,"N_COORD97":2545388.7799999998,"ADDRESS":"文賢路５７２巷５２弄６號","OBJECTID":66211},"geometry":{"x":167509.48000000138,"y":2545388.7800000012}},{"attributes":{"ID":66212,"DIS_CODE":0,"TOWNNAME":"北區","LI":"文成里","LIN":"6鄰","STREET":"文賢路","SECT":" ","MAREA":" ","LANE":"５７２巷","ALLEY":"５２弄","HOUSE_NO":"８號","E_COORD97":167508.53,"N_COORD97":2545384.7799999998,"ADDRESS":"文賢路５７２巷５２弄８號","OBJECTID":66212},"geometry":{"x":167508.53000000119,"y":2545384.7800000031}},{"attributes":{"ID":66213,"DIS_CODE":0,"TOWNNAME":"北區","LI":"新勝里","LIN":"6鄰","STREET":"北園街","SECT":" ","MAREA":" ","LANE":"５３巷","ALLEY":"３６弄","HOUSE_NO":"１１號","E_COORD97":170306.72,"N_COORD97":2545606.9500000002,"ADDRESS":"北園街５３巷３６弄１１號","OBJECTID":66213},"geometry":{"x":170306.71999999881,"y":2545606.9499999974}},{"attributes":{"ID":66214,"DIS_CODE":0,"TOWNNAME":"白河區","LI":"昇安里","LIN":"1鄰","STREET":" ","SECT":" ","MAREA":"三間厝","LANE":" ","ALLEY":" ","HOUSE_NO":"１８８號","E_COORD97":191247.97,"N_COORD97":2584722.4300000002,"ADDRESS":"三間厝１８８號","OBJECTID":66214},"geometry":{"x":191247.97000000067,"y":2584722.4300000034}},{"attributes":{"ID":66215,"DIS_CODE":0,"TOWNNAME":"北區","LI":"成功里","LIN":"6鄰","STREET":"北安路","SECT":"一段","MAREA":" ","LANE":"１７６巷","ALLEY":"１１弄","HOUSE_NO":"２１號","E_COORD97":168854.01999999999,"N_COORD97":2546536.4199999999,"ADDRESS":"北安路一段１７６巷１１弄２１號","OBJECTID":66215},"geometry":{"x":168854.02000000048,"y":2546536.4199999999}},{"attributes":{"ID":66216,"DIS_CODE":0,"TOWNNAME":"善化區","LI":"文昌里","LIN":"8鄰","STREET":"光復路","SECT":" ","MAREA":" ","LANE":" ","ALLEY":" ","HOUSE_NO":"１４０號","E_COORD97":177393.70999999999,"N_COORD97":2558652.8300000001,"ADDRESS":"光復路１４０號","OBJECTID":66216},"geometry":{"x":177393.71000000089,"y":2558652.8300000019}},{"attributes":{"ID":66217,"DIS_CODE":0,"TOWNNAME":"白河區","LI":"昇安里","LIN":"1鄰","STREET":" ","SECT":" ","MAREA":"三間厝","LANE":" ","ALLEY":" ","HOUSE_NO":"１９０號","E_COORD97":191249.57999999999,"N_COORD97":2584726.5299999998,"ADDRESS":"三間厝１９０號","OBJECTID":66217},"geometry":{"x":191249.58000000101,"y":2584726.5299999993}},{"attributes":{"ID":66218,"DIS_CODE":0,"TOWNNAME":"白河區","LI":"昇安里","LIN":"1鄰","STREET":" ","SECT":" ","MAREA":"三間厝","LANE":" ","ALLEY":" ","HOUSE_NO":"１９２號","E_COORD97":191251.19,"N_COORD97":2584730.6299999999,"ADDRESS":"三間厝１９２號","OBJECTID":66218},"geometry":{"x":191251.19000000041,"y":2584730.6300000027}},{"attributes":{"ID":66219,"DIS_CODE":0,"TOWNNAME":"白河區","LI":"昇安里","LIN":"1鄰","STREET":" ","SECT":" ","MAREA":"三間厝","LANE":" ","ALLEY":" ","HOUSE_NO":"１之１０號","E_COORD97":191397.81,"N_COORD97":2584617.6200000001,"ADDRESS":"三間厝１之１０號","OBJECTID":66219},"geometry":{"x":191397.81000000052,"y":2584617.6200000048}},{"attributes":{"ID":66220,"DIS_CODE":0,"TOWNNAME":"白河區","LI":"昇安里","LIN":"1鄰","STREET":" ","SECT":" ","MAREA":"三間厝","LANE":" ","ALLEY":" ","HOUSE_NO":"１之１１號","E_COORD97":191395.51000000001,"N_COORD97":2584621.8399999999,"ADDRESS":"三間厝１之１１號","OBJECTID":66220},"geometry":{"x":191395.51000000071,"y":2584621.8400000036}},{"attributes":{"ID":66221,"DIS_CODE":0,"TOWNNAME":"善化區","LI":"六德里","LIN":"8鄰","STREET":" ","SECT":" ","MAREA":"六分寮","LANE":" ","ALLEY":" ","HOUSE_NO":"２６５號","E_COORD97":178649.32999999999,"N_COORD97":2561533.75,"ADDRESS":"六分寮２６５號","OBJECTID":66221},"geometry":{"x":178649.33000000007,"y":2561533.7500000037}},{"attributes":{"ID":66222,"DIS_CODE":0,"TOWNNAME":"北區","LI":"成功里","LIN":"6鄰","STREET":"北安路","SECT":"一段","MAREA":" ","LANE":"１７６巷","ALLEY":"１１弄","HOUSE_NO":"２３號","E_COORD97":168849.26000000001,"N_COORD97":2546539.7599999998,"ADDRESS":"北安路一段１７６巷１１弄２３號","OBJECTID":66222},"geometry":{"x":168849.26000000071,"y":2546539.7599999998}},{"attributes":{"ID":66223,"DIS_CODE":0,"TOWNNAME":"善化區","LI":"小新里","LIN":"8鄰","STREET":" ","SECT":" ","MAREA":"小新營","LANE":" ","ALLEY":" ","HOUSE_NO":"７１號之３","E_COORD97":179621.45999999999,"N_COORD97":2558274.52,"ADDRESS":"小新營７１號之３","OBJECTID":66223},"geometry":{"x":179621.45999999996,"y":2558274.5200000014}},{"attributes":{"ID":66224,"DIS_CODE":0,"TOWNNAME":"善化區","LI":"小新里","LIN":"8鄰","STREET":" ","SECT":" ","MAREA":"小新營","LANE":" ","ALLEY":" ","HOUSE_NO":"７１號之２","E_COORD97":179624.91,"N_COORD97":2558253.02,"ADDRESS":"小新營７１號之２","OBJECTID":66224},"geometry":{"x":179624.91000000108,"y":2558253.0200000033}},{"attributes":{"ID":66225,"DIS_CODE":0,"TOWNNAME":"善化區","LI":"牛庄里","LIN":"8鄰","STREET":" ","SECT":" ","MAREA":"牛庄","LANE":" ","ALLEY":" ","HOUSE_NO":"９０號之１","E_COORD97":180082.12,"N_COORD97":2560115.27,"ADDRESS":"牛庄９０號之１","OBJECTID":66225},"geometry":{"x":180082.12000000011,"y":2560115.2699999996}},{"attributes":{"ID":66226,"DIS_CODE":0,"TOWNNAME":"北區","LI":"成功里","LIN":"6鄰","STREET":"北安路","SECT":"一段","MAREA":" ","LANE":"１７６巷","ALLEY":"１１弄","HOUSE_NO":"２５號","E_COORD97":168845.13,"N_COORD97":2546542.46,"ADDRESS":"北安路一段１７６巷１１弄２５號","OBJECTID":66226},"geometry":{"x":168845.13000000082,"y":2546542.4600000028}},{"attributes":{"ID":66227,"DIS_CODE":0,"TOWNNAME":"善化區","LI":"牛庄里","LIN":"8鄰","STREET":" ","SECT":" ","MAREA":"牛庄","LANE":" ","ALLEY":" ","HOUSE_NO":"１２９之６號","E_COORD97":179909.67000000001,"N_COORD97":2560178.77,"ADDRESS":"牛庄１２９之６號","OBJECTID":66227},"geometry":{"x":179909.67000000086,"y":2560178.7700000014}},{"attributes":{"ID":66228,"DIS_CODE":0,"TOWNNAME":"善化區","LI":"牛庄里","LIN":"8鄰","STREET":" ","SECT":" ","MAREA":"牛庄","LANE":" ","ALLEY":" ","HOUSE_NO":"９７號之１４","E_COORD97":179996.5,"N_COORD97":2560280.27,"ADDRESS":"牛庄９７號之１４","OBJECTID":66228},"geometry":{"x":179996.50000000186,"y":2560280.2700000014}},{"attributes":{"ID":66229,"DIS_CODE":0,"TOWNNAME":"北區","LI":"成功里","LIN":"6鄰","STREET":"北安路","SECT":"一段","MAREA":" ","LANE":"１７６巷","ALLEY":"１１弄","HOUSE_NO":"１６號","E_COORD97":168891.01000000001,"N_COORD97":2546529.9199999999,"ADDRESS":"北安路一段１７６巷１１弄１６號","OBJECTID":66229},"geometry":{"x":168891.01000000164,"y":2546529.9199999999}},{"attributes":{"ID":66230,"DIS_CODE":0,"TOWNNAME":"善化區","LI":"牛庄里","LIN":"8鄰","STREET":" ","SECT":" ","MAREA":"牛庄","LANE":" ","ALLEY":" ","HOUSE_NO":"９８號","E_COORD97":180044.63,"N_COORD97":2560061.75,"ADDRESS":"牛庄９８號","OBJECTID":66230},"geometry":{"x":180044.62999999896,"y":2560061.75}},{"attributes":{"ID":66231,"DIS_CODE":0,"TOWNNAME":"北區","LI":"成功里","LIN":"6鄰","STREET":"北安路","SECT":"一段","MAREA":" ","LANE":"１７６巷","ALLEY":"１１弄","HOUSE_NO":"１８號","E_COORD97":168882.28,"N_COORD97":2546535.3100000001,"ADDRESS":"北安路一段１７６巷１１弄１８號","OBJECTID":66231},"geometry":{"x":168882.28000000026,"y":2546535.3100000024}},{"attributes":{"ID":66232,"DIS_CODE":0,"TOWNNAME":"北區","LI":"成功里","LIN":"6鄰","STREET":"北安路","SECT":"一段","MAREA":" ","LANE":"１７６巷","ALLEY":"１１弄","HOUSE_NO":"２０號","E_COORD97":168875.76999999999,"N_COORD97":2546538.8100000001,"ADDRESS":"北安路一段１７６巷１１弄２０號","OBJECTID":66232},"geometry":{"x":168875.77000000048,"y":2546538.8100000024}},{"attributes":{"ID":66233,"DIS_CODE":0,"TOWNNAME":"西港區","LI":"南海里","LIN":" ","STREET":"慶安路","SECT":" ","MAREA":" ","LANE":" ","ALLEY":" ","HOUSE_NO":"１７３號","E_COORD97":167945.73000000001,"N_COORD97":2557863.6099999999,"ADDRESS":"慶安路１７３號","OBJECTID":66233},"geometry":{"x":167945.73000000045,"y":2557863.6100000013}},{"attributes":{"ID":66234,"DIS_CODE":0,"TOWNNAME":"西港區","LI":"南海里","LIN":" ","STREET":"慶安路","SECT":" ","MAREA":" ","LANE":" ","ALLEY":" ","HOUSE_NO":"１９８號","E_COORD97":167834.35999999999,"N_COORD97":2557884.02,"ADDRESS":"慶安路１９８號","OBJECTID":66234},"geometry":{"x":167834.36000000034,"y":2557884.0200000014}},{"attributes":{"ID":66235,"DIS_CODE":0,"TOWNNAME":"西港區","LI":"南海里","LIN":" ","STREET":"慶安路","SECT":" ","MAREA":" ","LANE":" ","ALLEY":" ","HOUSE_NO":"２０２號","E_COORD97":167821.07000000001,"N_COORD97":2557873.8300000001,"ADDRESS":"慶安路２０２號","OBJECTID":66235},"geometry":{"x":167821.0700000003,"y":2557873.8300000001}},{"attributes":{"ID":66236,"DIS_CODE":0,"TOWNNAME":"西港區","LI":"南海里","LIN":" ","STREET":"慶安路","SECT":" ","MAREA":" ","LANE":" ","ALLEY":" ","HOUSE_NO":"２０６號","E_COORD97":167810.59,"N_COORD97":2557868,"ADDRESS":"慶安路２０６號","OBJECTID":66236},"geometry":{"x":167810.58999999985,"y":2557868.0000000019}},{"attributes":{"ID":66237,"DIS_CODE":0,"TOWNNAME":"北區","LI":"成功里","LIN":"6鄰","STREET":"北安路","SECT":"一段","MAREA":" ","LANE":"１７６巷","ALLEY":"１１弄","HOUSE_NO":"２２號","E_COORD97":168869.89999999999,"N_COORD97":2546541.5,"ADDRESS":"北安路一段１７６巷１１弄２２號","OBJECTID":66237},"geometry":{"x":168869.90000000037,"y":2546541.5000000019}},{"attributes":{"ID":66238,"DIS_CODE":0,"TOWNNAME":"北區","LI":"成功里","LIN":"6鄰","STREET":"北安路","SECT":"一段","MAREA":" ","LANE":"１７６巷","ALLEY":"１１弄","HOUSE_NO":"２６號","E_COORD97":168863.70999999999,"N_COORD97":2546545.3100000001,"ADDRESS":"北安路一段１７６巷１１弄２６號","OBJECTID":66238},"geometry":{"x":168863.70999999996,"y":2546545.3100000042}},{"attributes":{"ID":66239,"DIS_CODE":0,"TOWNNAME":"北區","LI":"成功里","LIN":"6鄰","STREET":"北安路","SECT":"一段","MAREA":" ","LANE":"１７６巷","ALLEY":"１１弄","HOUSE_NO":"２８號","E_COORD97":168859.26000000001,"N_COORD97":2546548.25,"ADDRESS":"北安路一段１７６巷１１弄２８號","OBJECTID":66239},"geometry":{"x":168859.26000000071,"y":2546548.2500000037}},{"attributes":{"ID":66240,"DIS_CODE":0,"TOWNNAME":"北區","LI":"成功里","LIN":"6鄰","STREET":"北安路","SECT":"一段","MAREA":" ","LANE":"１７６巷","ALLEY":"１１弄","HOUSE_NO":"３０號","E_COORD97":168854.5,"N_COORD97":2546551.1099999999,"ADDRESS":"北安路一段１７６巷１１弄３０號","OBJECTID":66240},"geometry":{"x":168854.50000000093,"y":2546551.1099999994}},{"attributes":{"ID":66241,"DIS_CODE":0,"TOWNNAME":"北區","LI":"光武里","LIN":"6鄰","STREET":"北門路","SECT":"二段","MAREA":" ","LANE":"５４７巷","ALLEY":"７８弄","HOUSE_NO":"１０號","E_COORD97":169510.12,"N_COORD97":2545759.2400000002,"ADDRESS":"北門路二段５４７巷７８弄１０號","OBJECTID":66241},"geometry":{"x":169510.12000000104,"y":2545759.2400000021}},{"attributes":{"ID":66242,"DIS_CODE":0,"TOWNNAME":"北區","LI":"光武里","LIN":"6鄰","STREET":"北門路","SECT":"二段","MAREA":" ","LANE":"５４７巷","ALLEY":"７８弄","HOUSE_NO":"１２號","E_COORD97":169511.39000000001,"N_COORD97":2545764.6400000001,"ADDRESS":"北門路二段５４７巷７８弄１２號","OBJECTID":66242},"geometry":{"x":169511.38999999966,"y":2545764.6400000025}},{"attributes":{"ID":66243,"DIS_CODE":0,"TOWNNAME":"北區","LI":"光武里","LIN":"6鄰","STREET":"北門路","SECT":"二段","MAREA":" ","LANE":"５４７巷","ALLEY":"７８弄","HOUSE_NO":"１６號","E_COORD97":169512.66,"N_COORD97":2545769.7200000002,"ADDRESS":"北門路二段５４７巷７８弄１６號","OBJECTID":66243},"geometry":{"x":169512.66000000201,"y":2545769.7200000044}},{"attributes":{"ID":66244,"DIS_CODE":0,"TOWNNAME":"北區","LI":"光武里","LIN":"6鄰","STREET":"北門路","SECT":"二段","MAREA":" ","LANE":"５４７巷","ALLEY":"７８弄","HOUSE_NO":"６號","E_COORD97":169507.57999999999,"N_COORD97":2545748.3599999999,"ADDRESS":"北門路二段５４７巷７８弄６號","OBJECTID":66244},"geometry":{"x":169507.58000000007,"y":2545748.3600000013}},{"attributes":{"ID":66245,"DIS_CODE":0,"TOWNNAME":"北區","LI":"光武里","LIN":"6鄰","STREET":"北門路","SECT":"二段","MAREA":" ","LANE":"５４７巷","ALLEY":"７８弄","HOUSE_NO":"８號","E_COORD97":169509.01000000001,"N_COORD97":2545754.0800000001,"ADDRESS":"北門路二段５４７巷７８弄８號","OBJECTID":66245},"geometry":{"x":169509.00999999978,"y":2545754.0800000019}},{"attributes":{"ID":66246,"DIS_CODE":0,"TOWNNAME":"北區","LI":"光武里","LIN":"6鄰","STREET":"北門路","SECT":"二段","MAREA":" ","LANE":"５４７巷","ALLEY":"７８弄","HOUSE_NO":"３６號","E_COORD97":169521.39000000001,"N_COORD97":2545808.0499999998,"ADDRESS":"北門路二段５４７巷７８弄３６號","OBJECTID":66246},"geometry":{"x":169521.3900000006,"y":2545808.0500000045}},{"attributes":{"ID":66247,"DIS_CODE":0,"TOWNNAME":"北區","LI":"光武里","LIN":"6鄰","STREET":"北門路","SECT":"二段","MAREA":" ","LANE":"５４７巷","ALLEY":"７８弄","HOUSE_NO":"２０號","E_COORD97":169514.88,"N_COORD97":2545778.8399999999,"ADDRESS":"北門路二段５４７巷７８弄２０號","OBJECTID":66247},"geometry":{"x":169514.88000000082,"y":2545778.8400000017}},{"attributes":{"ID":66248,"DIS_CODE":0,"TOWNNAME":"北區","LI":"光武里","LIN":"6鄰","STREET":"北門路","SECT":"二段","MAREA":" ","LANE":"５４７巷","ALLEY":"７８弄","HOUSE_NO":"２２號","E_COORD97":169516,"N_COORD97":2545784.2400000002,"ADDRESS":"北門路二段５４７巷７８弄２２號","OBJECTID":66248},"geometry":{"x":169516.00000000093,"y":2545784.2400000002}},{"attributes":{"ID":66249,"DIS_CODE":0,"TOWNNAME":"北區","LI":"光武里","LIN":"6鄰","STREET":"北門路","SECT":"二段","MAREA":" ","LANE":"５４７巷","ALLEY":"７８弄","HOUSE_NO":"２６號","E_COORD97":169517.26999999999,"N_COORD97":2545789,"ADDRESS":"北門路二段５４７巷７８弄２６號","OBJECTID":66249},"geometry":{"x":169517.26999999955,"y":2545789}},{"attributes":{"ID":66250,"DIS_CODE":0,"TOWNNAME":"北區","LI":"光武里","LIN":"6鄰","STREET":"北門路","SECT":"二段","MAREA":" ","LANE":"５４７巷","ALLEY":"７８弄","HOUSE_NO":"２８號","E_COORD97":169518.69,"N_COORD97":2545794.3999999999,"ADDRESS":"北門路二段５４７巷７８弄２８號","OBJECTID":66250},"geometry":{"x":169518.69000000041,"y":2545794.4000000004}},{"attributes":{"ID":66251,"DIS_CODE":0,"TOWNNAME":"北區","LI":"光武里","LIN":"6鄰","STREET":"北門路","SECT":"二段","MAREA":" ","LANE":"５４７巷","ALLEY":"７８弄","HOUSE_NO":"３０號","E_COORD97":169519.64999999999,"N_COORD97":2545799.3199999998,"ADDRESS":"北門路二段５４７巷７８弄３０號","OBJECTID":66251},"geometry":{"x":169519.65000000224,"y":2545799.3200000022}},{"attributes":{"ID":66252,"DIS_CODE":0,"TOWNNAME":"北區","LI":"重興里","LIN":"6鄰","STREET":"林森路","SECT":"三段","MAREA":" ","LANE":"８４巷","ALLEY":"１弄","HOUSE_NO":"８號","E_COORD97":170659.13,"N_COORD97":2544829.7799999998,"ADDRESS":"林森路三段８４巷１弄８號","OBJECTID":66252},"geometry":{"x":170659.13000000082,"y":2544829.7800000012}},{"attributes":{"ID":66253,"DIS_CODE":0,"TOWNNAME":"南區","LI":"大成里","LIN":"6鄰","STREET":"健康路","SECT":"一段","MAREA":" ","LANE":"３９１巷","ALLEY":"２１弄","HOUSE_NO":"２號","E_COORD97":167934.63,"N_COORD97":2542359.5600000001,"ADDRESS":"健康路一段３９１巷２１弄２號","OBJECTID":66253},"geometry":{"x":167934.63000000082,"y":2542359.5599999987}},{"attributes":{"ID":66254,"DIS_CODE":0,"TOWNNAME":"南區","LI":"大成里","LIN":"6鄰","STREET":"健康路","SECT":"一段","MAREA":" ","LANE":"３９１巷","ALLEY":"２１弄","HOUSE_NO":"１０號","E_COORD97":167954.26000000001,"N_COORD97":2542350.6400000001,"ADDRESS":"健康路一段３９１巷２１弄１０號","OBJECTID":66254},"geometry":{"x":167954.26000000071,"y":2542350.6400000025}},{"attributes":{"ID":66255,"DIS_CODE":0,"TOWNNAME":"南區","LI":"大成里","LIN":"6鄰","STREET":"健康路","SECT":"一段","MAREA":" ","LANE":"３９１巷","ALLEY":"２１弄","HOUSE_NO":"１１號","E_COORD97":167970.17999999999,"N_COORD97":2542373.48,"ADDRESS":"健康路一段３９１巷２１弄１１號","OBJECTID":66255},"geometry":{"x":167970.18000000063,"y":2542373.4799999986}},{"attributes":{"ID":66256,"DIS_CODE":0,"TOWNNAME":"南區","LI":"大成里","LIN":"6鄰","STREET":"健康路","SECT":"一段","MAREA":" ","LANE":"３９１巷","ALLEY":"２１弄","HOUSE_NO":"１２號","E_COORD97":167959.5,"N_COORD97":2542349.1200000001,"ADDRESS":"健康路一段３９１巷２１弄１２號","OBJECTID":66256},"geometry":{"x":167959.50000000093,"y":2542349.120000001}},{"attributes":{"ID":66257,"DIS_CODE":0,"TOWNNAME":"南區","LI":"大成里","LIN":"6鄰","STREET":"健康路","SECT":"一段","MAREA":" ","LANE":"３９１巷","ALLEY":"２１弄","HOUSE_NO":"１３號","E_COORD97":167974.76000000001,"N_COORD97":2542370.8700000001,"ADDRESS":"健康路一段３９１巷２１弄１３號","OBJECTID":66257},"geometry":{"x":167974.76000000071,"y":2542370.870000001}},{"attributes":{"ID":66258,"DIS_CODE":0,"TOWNNAME":"南區","LI":"大成里","LIN":"6鄰","STREET":"健康路","SECT":"一段","MAREA":" ","LANE":"３９１巷","ALLEY":"２１弄","HOUSE_NO":"１４號","E_COORD97":167964.51000000001,"N_COORD97":2542346.9500000002,"ADDRESS":"健康路一段３９１巷２１弄１４號","OBJECTID":66258},"geometry":{"x":167964.51000000071,"y":2542346.9500000011}},{"attributes":{"ID":66259,"DIS_CODE":0,"TOWNNAME":"南區","LI":"大成里","LIN":"6鄰","STREET":"健康路","SECT":"一段","MAREA":" ","LANE":"３９１巷","ALLEY":"２１弄","HOUSE_NO":"１號","E_COORD97":167944.88,"N_COORD97":2542383.2599999998,"ADDRESS":"健康路一段３９１巷２１弄１號","OBJECTID":66259},"geometry":{"x":167944.88000000082,"y":2542383.2599999998}},{"attributes":{"ID":66260,"DIS_CODE":0,"TOWNNAME":"西港區","LI":"南海里","LIN":" ","STREET":"慶安路","SECT":" ","MAREA":" ","LANE":" ","ALLEY":" ","HOUSE_NO":"２２１之１號","E_COORD97":167781.89000000001,"N_COORD97":2557808.1099999999,"ADDRESS":"慶安路２２１之１號","OBJECTID":66260},"geometry":{"x":167781.8900000006,"y":2557808.1100000031}},{"attributes":{"ID":66261,"DIS_CODE":0,"TOWNNAME":"西港區","LI":"南海里","LIN":" ","STREET":"慶安路","SECT":" ","MAREA":" ","LANE":" ","ALLEY":" ","HOUSE_NO":"２３４號","E_COORD97":167560.45000000001,"N_COORD97":2557749.4399999999,"ADDRESS":"慶安路２３４號","OBJECTID":66261},"geometry":{"x":167560.45000000019,"y":2557749.4400000013}},{"attributes":{"ID":66262,"DIS_CODE":0,"TOWNNAME":"西港區","LI":"慶安里","LIN":" ","STREET":"慶安路","SECT":" ","MAREA":" ","LANE":" ","ALLEY":" ","HOUSE_NO":"２７號","E_COORD97":168335.38,"N_COORD97":2557909.9300000002,"ADDRESS":"慶安路２７號","OBJECTID":66262},"geometry":{"x":168335.37999999989,"y":2557909.9299999997}},{"attributes":{"ID":66263,"DIS_CODE":0,"TOWNNAME":"西港區","LI":"慶安里","LIN":" ","STREET":"慶安路","SECT":" ","MAREA":" ","LANE":" ","ALLEY":" ","HOUSE_NO":"２９號","E_COORD97":168331.34,"N_COORD97":2557909.8799999999,"ADDRESS":"慶安路２９號","OBJECTID":66263},"geometry":{"x":168331.34000000078,"y":2557909.879999999}},{"attributes":{"ID":66264,"DIS_CODE":0,"TOWNNAME":"西港區","LI":"慶安里","LIN":" ","STREET":"慶安路","SECT":" ","MAREA":" ","LANE":" ","ALLEY":" ","HOUSE_NO":"２號","E_COORD97":168388.62,"N_COORD97":2557935.1800000002,"ADDRESS":"慶安路２號","OBJECTID":66264},"geometry":{"x":168388.62000000011,"y":2557935.1799999997}},{"attributes":{"ID":66265,"DIS_CODE":0,"TOWNNAME":"西港區","LI":"慶安里","LIN":" ","STREET":"慶安路","SECT":" ","MAREA":" ","LANE":" ","ALLEY":" ","HOUSE_NO":"３５號","E_COORD97":168309.95000000001,"N_COORD97":2557907.3599999999,"ADDRESS":"慶安路３５號","OBJECTID":66265},"geometry":{"x":168309.95000000019,"y":2557907.3599999994}},{"attributes":{"ID":66266,"DIS_CODE":0,"TOWNNAME":"西港區","LI":"慶安里","LIN":" ","STREET":"慶安路","SECT":" ","MAREA":" ","LANE":" ","ALLEY":" ","HOUSE_NO":"３號","E_COORD97":168377.95999999999,"N_COORD97":2557914.8900000001,"ADDRESS":"慶安路３號","OBJECTID":66266},"geometry":{"x":168377.96000000183,"y":2557914.8900000006}},{"attributes":{"ID":66267,"DIS_CODE":0,"TOWNNAME":"西港區","LI":"慶安里","LIN":" ","STREET":"慶安路","SECT":" ","MAREA":" ","LANE":" ","ALLEY":" ","HOUSE_NO":"４８號","E_COORD97":168213.20000000001,"N_COORD97":2557917.7400000002,"ADDRESS":"慶安路４８號","OBJECTID":66267},"geometry":{"x":168213.20000000019,"y":2557917.7400000021}},{"attributes":{"ID":66268,"DIS_CODE":0,"TOWNNAME":"南區","LI":"大成里","LIN":"6鄰","STREET":"健康路","SECT":"一段","MAREA":" ","LANE":"３９１巷","ALLEY":"２１弄","HOUSE_NO":"３號","E_COORD97":167949.89999999999,"N_COORD97":2542381.3100000001,"ADDRESS":"健康路一段３９１巷２１弄３號","OBJECTID":66268},"geometry":{"x":167949.90000000224,"y":2542381.3100000005}},{"attributes":{"ID":66269,"DIS_CODE":0,"TOWNNAME":"南區","LI":"大成里","LIN":"6鄰","STREET":"健康路","SECT":"一段","MAREA":" ","LANE":"３９１巷","ALLEY":"２１弄","HOUSE_NO":"４號","E_COORD97":167940.09,"N_COORD97":2542357.6000000001,"ADDRESS":"健康路一段３９１巷２１弄４號","OBJECTID":66269},"geometry":{"x":167940.09000000078,"y":2542357.5999999996}},{"attributes":{"ID":66270,"DIS_CODE":0,"TOWNNAME":"南區","LI":"大成里","LIN":"6鄰","STREET":"健康路","SECT":"一段","MAREA":" ","LANE":"３９１巷","ALLEY":"２１弄","HOUSE_NO":"５號","E_COORD97":167955.13,"N_COORD97":2542379.1299999999,"ADDRESS":"健康路一段３９１巷２１弄５號","OBJECTID":66270},"geometry":{"x":167955.13000000082,"y":2542379.1300000008}},{"attributes":{"ID":66271,"DIS_CODE":0,"TOWNNAME":"南區","LI":"大成里","LIN":"6鄰","STREET":"健康路","SECT":"一段","MAREA":" ","LANE":"３９１巷","ALLEY":"２１弄","HOUSE_NO":"６號","E_COORD97":167944.67000000001,"N_COORD97":2542355.4300000002,"ADDRESS":"健康路一段３９１巷２１弄６號","OBJECTID":66271},"geometry":{"x":167944.67000000086,"y":2542355.4299999997}},{"attributes":{"ID":66272,"DIS_CODE":0,"TOWNNAME":"南區","LI":"大成里","LIN":"6鄰","STREET":"健康路","SECT":"一段","MAREA":" ","LANE":"３９１巷","ALLEY":"２１弄","HOUSE_NO":"７號","E_COORD97":167959.28,"N_COORD97":2542377.3900000001,"ADDRESS":"健康路一段３９１巷２１弄７號","OBJECTID":66272},"geometry":{"x":167959.28000000119,"y":2542377.3900000006}},{"attributes":{"ID":66273,"DIS_CODE":0,"TOWNNAME":"南區","LI":"大成里","LIN":"6鄰","STREET":"健康路","SECT":"一段","MAREA":" ","LANE":"３９１巷","ALLEY":"２１弄","HOUSE_NO":"８號","E_COORD97":167949.67999999999,"N_COORD97":2542352.6000000001,"ADDRESS":"健康路一段３９１巷２１弄８號","OBJECTID":66273},"geometry":{"x":167949.68000000063,"y":2542352.6000000015}},{"attributes":{"ID":66274,"DIS_CODE":0,"TOWNNAME":"南區","LI":"大成里","LIN":"6鄰","STREET":"健康路","SECT":"一段","MAREA":" ","LANE":"３９１巷","ALLEY":"２１弄","HOUSE_NO":"９號","E_COORD97":167964.73000000001,"N_COORD97":2542375.6499999999,"ADDRESS":"健康路一段３９１巷２１弄９號","OBJECTID":66274},"geometry":{"x":167964.73000000231,"y":2542375.6499999985}},{"attributes":{"ID":66275,"DIS_CODE":0,"TOWNNAME":"南區","LI":"竹溪里","LIN":"6鄰","STREET":"健康路","SECT":"一段","MAREA":" ","LANE":"１３３巷","ALLEY":"３２弄","HOUSE_NO":"１０號","E_COORD97":168851.26000000001,"N_COORD97":2542302.6800000002,"ADDRESS":"健康路一段１３３巷３２弄１０號","OBJECTID":66275},"geometry":{"x":168851.25999999978,"y":2542302.6799999997}},{"attributes":{"ID":66276,"DIS_CODE":0,"TOWNNAME":"南區","LI":"竹溪里","LIN":"6鄰","STREET":"健康路","SECT":"一段","MAREA":" ","LANE":"１３３巷","ALLEY":"３２弄","HOUSE_NO":"１２號","E_COORD97":168844.59,"N_COORD97":2542304.7599999998,"ADDRESS":"健康路一段１３３巷３２弄１２號","OBJECTID":66276},"geometry":{"x":168844.58999999985,"y":2542304.7600000016}},{"attributes":{"ID":66277,"DIS_CODE":0,"TOWNNAME":"南區","LI":"田寮里","LIN":"6鄰","STREET":"新興路","SECT":" ","MAREA":" ","LANE":"２１７巷","ALLEY":"１４弄","HOUSE_NO":"１號","E_COORD97":167367.98999999999,"N_COORD97":2541909.7999999998,"ADDRESS":"新興路２１７巷１４弄１號","OBJECTID":66277},"geometry":{"x":167367.99000000115,"y":2541909.8000000007}},{"attributes":{"ID":66278,"DIS_CODE":0,"TOWNNAME":"南區","LI":"田寮里","LIN":"6鄰","STREET":"新興路","SECT":" ","MAREA":" ","LANE":"２１７巷","ALLEY":"１４弄","HOUSE_NO":"３號","E_COORD97":167366.51000000001,"N_COORD97":2541905.54,"ADDRESS":"新興路２１７巷１４弄３號","OBJECTID":66278},"geometry":{"x":167366.50999999978,"y":2541905.540000001}},{"attributes":{"ID":66279,"DIS_CODE":0,"TOWNNAME":"南區","LI":"田寮里","LIN":"6鄰","STREET":"新興路","SECT":" ","MAREA":" ","LANE":"２１７巷","ALLEY":"１４弄","HOUSE_NO":"５號","E_COORD97":167365.12,"N_COORD97":2541901.3700000001,"ADDRESS":"新興路２１７巷１４弄５號","OBJECTID":66279},"geometry":{"x":167365.12000000197,"y":2541901.3700000029}},{"attributes":{"ID":66280,"DIS_CODE":0,"TOWNNAME":"南區","LI":"田寮里","LIN":"6鄰","STREET":"新興路","SECT":" ","MAREA":" ","LANE":"２１７巷","ALLEY":"１４弄","HOUSE_NO":"７號","E_COORD97":167363.03,"N_COORD97":2541896.9300000002,"ADDRESS":"新興路２１７巷１４弄７號","OBJECTID":66280},"geometry":{"x":167363.03000000119,"y":2541896.9300000016}},{"attributes":{"ID":66281,"DIS_CODE":0,"TOWNNAME":"北區","LI":"重興里","LIN":"6鄰","STREET":"林森路","SECT":"三段","MAREA":" ","LANE":"８４巷","ALLEY":"１弄","HOUSE_NO":"１０號","E_COORD97":170663.48000000001,"N_COORD97":2544828.6699999999,"ADDRESS":"林森路三段８４巷１弄１０號","OBJECTID":66281},"geometry":{"x":170663.48000000231,"y":2544828.6699999999}},{"attributes":{"ID":66282,"DIS_CODE":0,"TOWNNAME":"西港區","LI":"慶安里","LIN":" ","STREET":"慶安路","SECT":" ","MAREA":" ","LANE":" ","ALLEY":" ","HOUSE_NO":"５０號","E_COORD97":168208.67999999999,"N_COORD97":2557917.1899999999,"ADDRESS":"慶安路５０號","OBJECTID":66282},"geometry":{"x":168208.68000000063,"y":2557917.1900000013}},{"attributes":{"ID":66283,"DIS_CODE":0,"TOWNNAME":"西港區","LI":"慶安里","LIN":" ","STREET":"慶安路","SECT":" ","MAREA":" ","LANE":" ","ALLEY":" ","HOUSE_NO":"５２號","E_COORD97":168204.23000000001,"N_COORD97":2557916.3799999999,"ADDRESS":"慶安路５２號","OBJECTID":66283},"geometry":{"x":168204.23000000138,"y":2557916.379999999}},{"attributes":{"ID":66284,"DIS_CODE":0,"TOWNNAME":"北區","LI":"重興里","LIN":"6鄰","STREET":"林森路","SECT":"三段","MAREA":" ","LANE":"８４巷","ALLEY":"１弄","HOUSE_NO":"１２號","E_COORD97":170667.92000000001,"N_COORD97":2544827.8999999999,"ADDRESS":"林森路三段８４巷１弄１２號","OBJECTID":66284},"geometry":{"x":170667.91999999993,"y":2544827.9000000004}},{"attributes":{"ID":66285,"DIS_CODE":0,"TOWNNAME":"北區","LI":"重興里","LIN":"6鄰","STREET":"林森路","SECT":"三段","MAREA":" ","LANE":"８４巷","ALLEY":"１弄","HOUSE_NO":"１４號","E_COORD97":170672.19,"N_COORD97":2544827.0499999998,"ADDRESS":"林森路三段８４巷１弄１４號","OBJECTID":66285},"geometry":{"x":170672.19000000227,"y":2544827.0500000007}},{"attributes":{"ID":66286,"DIS_CODE":0,"TOWNNAME":"北區","LI":"重興里","LIN":"6鄰","STREET":"林森路","SECT":"三段","MAREA":" ","LANE":"８４巷","ALLEY":"１弄","HOUSE_NO":"１６號","E_COORD97":170676.79999999999,"N_COORD97":2544826.4500000002,"ADDRESS":"林森路三段８４巷１弄１６號","OBJECTID":66286},"geometry":{"x":170676.79999999981,"y":2544826.4499999993}},{"attributes":{"ID":66287,"DIS_CODE":0,"TOWNNAME":"北區","LI":"重興里","LIN":"6鄰","STREET":"林森路","SECT":"三段","MAREA":" ","LANE":"８４巷","ALLEY":"１弄","HOUSE_NO":"１８號","E_COORD97":170681.14999999999,"N_COORD97":2544825.5099999998,"ADDRESS":"林森路三段８４巷１弄１８號","OBJECTID":66287},"geometry":{"x":170681.1500000013,"y":2544825.5100000016}},{"attributes":{"ID":66288,"DIS_CODE":0,"TOWNNAME":"北區","LI":"重興里","LIN":"6鄰","STREET":"林森路","SECT":"三段","MAREA":" ","LANE":"８４巷","ALLEY":"１弄","HOUSE_NO":"２０號","E_COORD97":170685.51000000001,"N_COORD97":2544824.5699999998,"ADDRESS":"林森路三段８４巷１弄２０號","OBJECTID":66288},"geometry":{"x":170685.50999999978,"y":2544824.5700000022}},{"attributes":{"ID":66289,"DIS_CODE":0,"TOWNNAME":"北區","LI":"重興里","LIN":"6鄰","STREET":"林森路","SECT":"三段","MAREA":" ","LANE":"８４巷","ALLEY":"１弄","HOUSE_NO":"２２號","E_COORD97":170690.63,"N_COORD97":2544823.29,"ADDRESS":"林森路三段８４巷１弄２２號","OBJECTID":66289},"geometry":{"x":170690.63000000175,"y":2544823.2899999991}},{"attributes":{"ID":66290,"DIS_CODE":0,"TOWNNAME":"北區","LI":"重興里","LIN":"6鄰","STREET":"林森路","SECT":"三段","MAREA":" ","LANE":"８４巷","ALLEY":"１弄","HOUSE_NO":"２４號","E_COORD97":170695.57999999999,"N_COORD97":2544822.8700000001,"ADDRESS":"林森路三段８４巷１弄２４號","OBJECTID":66290},"geometry":{"x":170695.58000000007,"y":2544822.8700000048}},{"attributes":{"ID":66291,"DIS_CODE":0,"TOWNNAME":"西港區","LI":"慶安里","LIN":" ","STREET":"慶安路","SECT":" ","MAREA":" ","LANE":" ","ALLEY":" ","HOUSE_NO":"５號","E_COORD97":168374.38,"N_COORD97":2557914.9199999999,"ADDRESS":"慶安路５號","OBJECTID":66291},"geometry":{"x":168374.37999999989,"y":2557914.9199999981}},{"attributes":{"ID":66292,"DIS_CODE":0,"TOWNNAME":"西港區","LI":"慶安里","LIN":" ","STREET":"慶安路","SECT":" ","MAREA":" ","LANE":" ","ALLEY":" ","HOUSE_NO":"６１號","E_COORD97":168266.62,"N_COORD97":2557885.3700000001,"ADDRESS":"慶安路６１號","OBJECTID":66292},"geometry":{"x":168266.62000000011,"y":2557885.370000001}},{"attributes":{"ID":66293,"DIS_CODE":0,"TOWNNAME":"北區","LI":"重興里","LIN":"6鄰","STREET":"林森路","SECT":"三段","MAREA":" ","LANE":"８４巷","ALLEY":"１弄","HOUSE_NO":"２６號","E_COORD97":170676.98999999999,"N_COORD97":2544841.3700000001,"ADDRESS":"林森路三段８４巷１弄２６號","OBJECTID":66293},"geometry":{"x":170676.99000000115,"y":2544841.3700000029}},{"attributes":{"ID":66294,"DIS_CODE":0,"TOWNNAME":"北區","LI":"重興里","LIN":"6鄰","STREET":"林森路","SECT":"三段","MAREA":" ","LANE":"８４巷","ALLEY":"１弄","HOUSE_NO":"２８號","E_COORD97":170671.53,"N_COORD97":2544844.0099999998,"ADDRESS":"林森路三段８４巷１弄２８號","OBJECTID":66294},"geometry":{"x":170671.53000000212,"y":2544844.0099999998}},{"attributes":{"ID":66295,"DIS_CODE":0,"TOWNNAME":"北區","LI":"重興里","LIN":"6鄰","STREET":"林森路","SECT":"三段","MAREA":" ","LANE":"８４巷","ALLEY":"１弄","HOUSE_NO":"３０號","E_COORD97":170667.28,"N_COORD97":2544845.4700000002,"ADDRESS":"林森路三段８４巷１弄３０號","OBJECTID":66295},"geometry":{"x":170667.28000000026,"y":2544845.4699999988}},{"attributes":{"ID":66296,"DIS_CODE":0,"TOWNNAME":"北區","LI":"重興里","LIN":"6鄰","STREET":"林森路","SECT":"三段","MAREA":" ","LANE":"８４巷","ALLEY":"１弄","HOUSE_NO":"３２號","E_COORD97":170662.75,"N_COORD97":2544846.5699999998,"ADDRESS":"林森路三段８４巷１弄３２號","OBJECTID":66296},"geometry":{"x":170662.74999999907,"y":2544846.5700000003}},{"attributes":{"ID":66297,"DIS_CODE":0,"TOWNNAME":"北區","LI":"重興里","LIN":"6鄰","STREET":"林森路","SECT":"三段","MAREA":" ","LANE":"８４巷","ALLEY":"１弄","HOUSE_NO":"３４號","E_COORD97":170658.64999999999,"N_COORD97":2544848.2799999998,"ADDRESS":"林森路三段８４巷１弄３４號","OBJECTID":66297},"geometry":{"x":170658.65000000037,"y":2544848.2799999993}},{"attributes":{"ID":66298,"DIS_CODE":0,"TOWNNAME":"北區","LI":"重興里","LIN":"6鄰","STREET":"林森路","SECT":"三段","MAREA":" ","LANE":"８４巷","ALLEY":"１弄","HOUSE_NO":"３６號","E_COORD97":170653.70000000001,"N_COORD97":2544848.6200000001,"ADDRESS":"林森路三段８４巷１弄３６號","OBJECTID":66298},"geometry":{"x":170653.70000000112,"y":2544848.6200000048}},{"attributes":{"ID":66299,"DIS_CODE":0,"TOWNNAME":"北區","LI":"重興里","LIN":"6鄰","STREET":"林森路","SECT":"三段","MAREA":" ","LANE":"８４巷","ALLEY":"１弄","HOUSE_NO":"３８號","E_COORD97":170656.59,"N_COORD97":2544861.4900000002,"ADDRESS":"林森路三段８４巷１弄３８號","OBJECTID":66299},"geometry":{"x":170656.58999999985,"y":2544861.4900000002}},{"attributes":{"ID":66300,"DIS_CODE":0,"TOWNNAME":"北區","LI":"重興里","LIN":"6鄰","STREET":"林森路","SECT":"三段","MAREA":" ","LANE":"８４巷","ALLEY":"１弄","HOUSE_NO":"４０號","E_COORD97":170662.04999999999,"N_COORD97":2544860.4700000002,"ADDRESS":"林森路三段８４巷１弄４０號","OBJECTID":66300},"geometry":{"x":170662.04999999981,"y":2544860.4700000025}},{"attributes":{"ID":66301,"DIS_CODE":0,"TOWNNAME":"北區","LI":"重興里","LIN":"6鄰","STREET":"林森路","SECT":"三段","MAREA":" ","LANE":"８４巷","ALLEY":"１弄","HOUSE_NO":"４２號","E_COORD97":170669.56,"N_COORD97":2544856.04,"ADDRESS":"林森路三段８４巷１弄４２號","OBJECTID":66301},"geometry":{"x":170669.56000000052,"y":2544856.0399999991}},{"attributes":{"ID":66302,"DIS_CODE":0,"TOWNNAME":"北區","LI":"重興里","LIN":"6鄰","STREET":"林森路","SECT":"三段","MAREA":" ","LANE":"８４巷","ALLEY":"１弄","HOUSE_NO":"４６號","E_COORD97":170698.48000000001,"N_COORD97":2544837.2000000002,"ADDRESS":"林森路三段８４巷１弄４６號","OBJECTID":66302},"geometry":{"x":170698.48000000045,"y":2544837.2000000011}},{"attributes":{"ID":66303,"DIS_CODE":0,"TOWNNAME":"北區","LI":"重興里","LIN":"6鄰","STREET":"林森路","SECT":"三段","MAREA":" ","LANE":"８４巷","ALLEY":"１弄","HOUSE_NO":"４８號","E_COORD97":170695.57999999999,"N_COORD97":2544841.9700000002,"ADDRESS":"林森路三段８４巷１弄４８號","OBJECTID":66303},"geometry":{"x":170695.58000000007,"y":2544841.9699999988}},{"attributes":{"ID":66304,"DIS_CODE":0,"TOWNNAME":"北區","LI":"重興里","LIN":"6鄰","STREET":"林森路","SECT":"三段","MAREA":" ","LANE":"８４巷","ALLEY":"１弄","HOUSE_NO":"５０號","E_COORD97":170693.10000000001,"N_COORD97":2544846.1499999999,"ADDRESS":"林森路三段８４巷１弄５０號","OBJECTID":66304},"geometry":{"x":170693.10000000056,"y":2544846.1500000004}},{"attributes":{"ID":66305,"DIS_CODE":0,"TOWNNAME":"北區","LI":"重興里","LIN":"6鄰","STREET":"林森路","SECT":"三段","MAREA":" ","LANE":"８４巷","ALLEY":"１弄","HOUSE_NO":"５２號","E_COORD97":170690.79999999999,"N_COORD97":2544850.4199999999,"ADDRESS":"林森路三段８４巷１弄５２號","OBJECTID":66305},"geometry":{"x":170690.79999999981,"y":2544850.4199999999}},{"attributes":{"ID":66306,"DIS_CODE":0,"TOWNNAME":"北區","LI":"重興里","LIN":"6鄰","STREET":"林森路","SECT":"三段","MAREA":" ","LANE":"８４巷","ALLEY":"１弄","HOUSE_NO":"５４號","E_COORD97":170687.29999999999,"N_COORD97":2544854.25,"ADDRESS":"林森路三段８４巷１弄５４號","OBJECTID":66306},"geometry":{"x":170687.29999999981,"y":2544854.2500000019}},{"attributes":{"ID":66307,"DIS_CODE":0,"TOWNNAME":"大內區","LI":"曲溪里","LIN":"8鄰","STREET":" ","SECT":" ","MAREA":"二重溪","LANE":" ","ALLEY":" ","HOUSE_NO":"７５號","E_COORD97":187330.89000000001,"N_COORD97":2557680.3100000001,"ADDRESS":"二重溪７５號","OBJECTID":66307},"geometry":{"x":187330.8900000006,"y":2557680.3100000024}},{"attributes":{"ID":66308,"DIS_CODE":0,"TOWNNAME":"大內區","LI":"石湖里","LIN":"8鄰","STREET":" ","SECT":" ","MAREA":"石子瀨","LANE":" ","ALLEY":" ","HOUSE_NO":"３０５號","E_COORD97":183819.76999999999,"N_COORD97":2558465.25,"ADDRESS":"石子瀨３０５號","OBJECTID":66308},"geometry":{"x":183819.76999999955,"y":2558465.25}},{"attributes":{"ID":66309,"DIS_CODE":0,"TOWNNAME":"大內區","LI":"石湖里","LIN":"8鄰","STREET":" ","SECT":" ","MAREA":"石子瀨","LANE":" ","ALLEY":" ","HOUSE_NO":"３０６號之１","E_COORD97":183773.39999999999,"N_COORD97":2558446.2999999998,"ADDRESS":"石子瀨３０６號之１","OBJECTID":66309},"geometry":{"x":183773.4000000013,"y":2558446.3000000026}},{"attributes":{"ID":66310,"DIS_CODE":0,"TOWNNAME":"北區","LI":"重興里","LIN":"6鄰","STREET":"林森路","SECT":"三段","MAREA":" ","LANE":"８４巷","ALLEY":"１弄","HOUSE_NO":"５６號","E_COORD97":170684.31,"N_COORD97":2544858.8599999999,"ADDRESS":"林森路三段８４巷１弄５６號","OBJECTID":66310},"geometry":{"x":170684.31000000052,"y":2544858.8600000031}},{"attributes":{"ID":66311,"DIS_CODE":0,"TOWNNAME":"北區","LI":"重興里","LIN":"6鄰","STREET":"林森路","SECT":"三段","MAREA":" ","LANE":"８４巷","ALLEY":"１弄","HOUSE_NO":"５８號","E_COORD97":170682.87,"N_COORD97":2544863.4399999999,"ADDRESS":"林森路三段８４巷１弄５８號","OBJECTID":66311},"geometry":{"x":170682.87000000104,"y":2544863.4399999995}},{"attributes":{"ID":66312,"DIS_CODE":0,"TOWNNAME":"北區","LI":"重興里","LIN":"6鄰","STREET":"林森路","SECT":"三段","MAREA":" ","LANE":"８４巷","ALLEY":"１弄","HOUSE_NO":"６０號","E_COORD97":170679.70000000001,"N_COORD97":2544867.1699999999,"ADDRESS":"林森路三段８４巷１弄６０號","OBJECTID":66312},"geometry":{"x":170679.70000000019,"y":2544867.1700000037}},{"attributes":{"ID":66313,"DIS_CODE":0,"TOWNNAME":"北區","LI":"重興里","LIN":"6鄰","STREET":"林森路","SECT":"三段","MAREA":" ","LANE":"８４巷","ALLEY":"１弄","HOUSE_NO":"６２號","E_COORD97":170677.26000000001,"N_COORD97":2544871.6400000001,"ADDRESS":"林森路三段８４巷１弄６２號","OBJECTID":66313},"geometry":{"x":170677.25999999978,"y":2544871.6400000043}},{"attributes":{"ID":66314,"DIS_CODE":0,"TOWNNAME":"北區","LI":"重興里","LIN":"6鄰","STREET":"林森路","SECT":"三段","MAREA":" ","LANE":"８４巷","ALLEY":"１弄","HOUSE_NO":"６４號","E_COORD97":170673.20000000001,"N_COORD97":2544875.46,"ADDRESS":"林森路三段８４巷１弄６４號","OBJECTID":66314},"geometry":{"x":170673.20000000019,"y":2544875.4600000009}},{"attributes":{"ID":66315,"DIS_CODE":0,"TOWNNAME":"北區","LI":"重興里","LIN":"6鄰","STREET":"林森路","SECT":"三段","MAREA":" ","LANE":"８４巷","ALLEY":"１弄","HOUSE_NO":"６６號","E_COORD97":170671.32999999999,"N_COORD97":2544879.8399999999,"ADDRESS":"林森路三段８４巷１弄６６號","OBJECTID":66315},"geometry":{"x":170671.33000000101,"y":2544879.8400000017}},{"attributes":{"ID":66316,"DIS_CODE":0,"TOWNNAME":"大內區","LI":"曲溪里","LIN":"8鄰","STREET":" ","SECT":" ","MAREA":"二重溪","LANE":" ","ALLEY":" ","HOUSE_NO":"７０號之２","E_COORD97":187240.85999999999,"N_COORD97":2557752.3100000001,"ADDRESS":"二重溪７０號之２","OBJECTID":66316},"geometry":{"x":187240.86000000034,"y":2557752.3100000005}},{"attributes":{"ID":66317,"DIS_CODE":0,"TOWNNAME":"大內區","LI":"石湖里","LIN":"8鄰","STREET":" ","SECT":" ","MAREA":"石子瀨","LANE":" ","ALLEY":" ","HOUSE_NO":"３０５號之１","E_COORD97":183720.5,"N_COORD97":2558496.2999999998,"ADDRESS":"石子瀨３０５號之１","OBJECTID":66317},"geometry":{"x":183720.5,"y":2558496.2999999989}},{"attributes":{"ID":66318,"DIS_CODE":0,"TOWNNAME":"大內區","LI":"石湖里","LIN":"8鄰","STREET":" ","SECT":" ","MAREA":"石子瀨","LANE":" ","ALLEY":" ","HOUSE_NO":"３０６之６號","E_COORD97":183756.76999999999,"N_COORD97":2558378.2999999998,"ADDRESS":"石子瀨３０６之６號","OBJECTID":66318},"geometry":{"x":183756.76999999955,"y":2558378.3000000026}},{"attributes":{"ID":66319,"DIS_CODE":0,"TOWNNAME":"大內區","LI":"石湖里","LIN":"8鄰","STREET":" ","SECT":" ","MAREA":"石子瀨","LANE":" ","ALLEY":" ","HOUSE_NO":"３０８號之１","E_COORD97":183861.70000000001,"N_COORD97":2558387.2999999998,"ADDRESS":"石子瀨３０８號之１","OBJECTID":66319},"geometry":{"x":183861.70000000019,"y":2558387.3000000007}},{"attributes":{"ID":66320,"DIS_CODE":0,"TOWNNAME":"大內區","LI":"石湖里","LIN":"8鄰","STREET":" ","SECT":" ","MAREA":"石子瀨","LANE":" ","ALLEY":" ","HOUSE_NO":"３０８號","E_COORD97":183849.97,"N_COORD97":2558401.25,"ADDRESS":"石子瀨３０８號","OBJECTID":66320},"geometry":{"x":183849.97000000067,"y":2558401.2500000037}},{"attributes":{"ID":66321,"DIS_CODE":0,"TOWNNAME":"大內區","LI":"內郭里","LIN":"8鄰","STREET":" ","SECT":" ","MAREA":"後堀","LANE":" ","ALLEY":" ","HOUSE_NO":"１４號之１","E_COORD97":185603.98999999999,"N_COORD97":2557413.3199999998,"ADDRESS":"後堀１４號之１","OBJECTID":66321},"geometry":{"x":185603.99000000022,"y":2557413.3200000003}},{"attributes":{"ID":66322,"DIS_CODE":0,"TOWNNAME":"大內區","LI":"石湖里","LIN":"8鄰","STREET":" ","SECT":" ","MAREA":"石子瀨","LANE":" ","ALLEY":" ","HOUSE_NO":"３１０號","E_COORD97":183896.76999999999,"N_COORD97":2558430.25,"ADDRESS":"石子瀨３１０號","OBJECTID":66322},"geometry":{"x":183896.77000000048,"y":2558430.25}},{"attributes":{"ID":66323,"DIS_CODE":0,"TOWNNAME":"大內區","LI":"環湖里","LIN":"8鄰","STREET":" ","SECT":" ","MAREA":"環湖","LANE":" ","ALLEY":" ","HOUSE_NO":"１０２號","E_COORD97":190431.69,"N_COORD97":2560710.25,"ADDRESS":"環湖１０２號","OBJECTID":66323},"geometry":{"x":190431.69000000134,"y":2560710.2500000037}},{"attributes":{"ID":66324,"DIS_CODE":0,"TOWNNAME":"大內區","LI":"內郭里","LIN":"8鄰","STREET":" ","SECT":" ","MAREA":"後堀","LANE":" ","ALLEY":" ","HOUSE_NO":"１６號","E_COORD97":185621.26000000001,"N_COORD97":2557430.3199999998,"ADDRESS":"後堀１６號","OBJECTID":66324},"geometry":{"x":185621.26000000071,"y":2557430.3200000003}},{"attributes":{"ID":66325,"DIS_CODE":0,"TOWNNAME":"北區","LI":"重興里","LIN":"6鄰","STREET":"林森路","SECT":"三段","MAREA":" ","LANE":"８４巷","ALLEY":"１弄","HOUSE_NO":"６８號","E_COORD97":170669.70999999999,"N_COORD97":2544883.1699999999,"ADDRESS":"林森路三段８４巷１弄６８號","OBJECTID":66325},"geometry":{"x":170669.70999999996,"y":2544883.1699999999}},{"attributes":{"ID":66326,"DIS_CODE":0,"TOWNNAME":"麻豆區","LI":"油車里","LIN":"8鄰","STREET":" ","SECT":" ","MAREA":"油車","LANE":" ","ALLEY":" ","HOUSE_NO":"３８號之６","E_COORD97":172534.48999999999,"N_COORD97":2565523.3799999999,"ADDRESS":"油車３８號之６","OBJECTID":66326},"geometry":{"x":172534.49000000022,"y":2565523.3800000008}},{"attributes":{"ID":66327,"DIS_CODE":0,"TOWNNAME":"麻豆區","LI":"油車里","LIN":"8鄰","STREET":" ","SECT":" ","MAREA":"油車","LANE":" ","ALLEY":" ","HOUSE_NO":"３８號","E_COORD97":172545.98999999999,"N_COORD97":2565454.1400000001,"ADDRESS":"油車３８號","OBJECTID":66327},"geometry":{"x":172545.99000000022,"y":2565454.1400000006}},{"attributes":{"ID":66328,"DIS_CODE":0,"TOWNNAME":"麻豆區","LI":"安正里","LIN":"8鄰","STREET":" ","SECT":" ","MAREA":"社子","LANE":" ","ALLEY":" ","HOUSE_NO":"１１號之１","E_COORD97":171946.62,"N_COORD97":2562247.4500000002,"ADDRESS":"社子１１號之１","OBJECTID":66328},"geometry":{"x":171946.62000000011,"y":2562247.4500000011}},{"attributes":{"ID":66329,"DIS_CODE":0,"TOWNNAME":"北區","LI":"重興里","LIN":"6鄰","STREET":"林森路","SECT":"三段","MAREA":" ","LANE":"８４巷","ALLEY":"１弄","HOUSE_NO":"６號","E_COORD97":170654.76999999999,"N_COORD97":2544830.8900000001,"ADDRESS":"林森路三段８４巷１弄６號","OBJECTID":66329},"geometry":{"x":170654.76999999955,"y":2544830.8900000006}},{"attributes":{"ID":66330,"DIS_CODE":0,"TOWNNAME":"北區","LI":"重興里","LIN":"6鄰","STREET":"林森路","SECT":"三段","MAREA":" ","LANE":"８４巷","ALLEY":"１弄","HOUSE_NO":"７０號","E_COORD97":170669.14000000001,"N_COORD97":2544885.2799999998,"ADDRESS":"林森路三段８４巷１弄７０號","OBJECTID":66330},"geometry":{"x":170669.1400000006,"y":2544885.2799999993}},{"attributes":{"ID":66331,"DIS_CODE":0,"TOWNNAME":"北區","LI":"重興里","LIN":"6鄰","STREET":"林森路","SECT":"三段","MAREA":" ","LANE":"８４巷","ALLEY":"１弄","HOUSE_NO":"７２號","E_COORD97":170663.42999999999,"N_COORD97":2544890.7599999998,"ADDRESS":"林森路三段８４巷１弄７２號","OBJECTID":66331},"geometry":{"x":170663.43000000063,"y":2544890.7600000016}},{"attributes":{"ID":66332,"DIS_CODE":0,"TOWNNAME":"北區","LI":"重興里","LIN":"6鄰","STREET":"林森路","SECT":"三段","MAREA":" ","LANE":"８４巷","ALLEY":"１弄","HOUSE_NO":"７４號","E_COORD97":170658.95999999999,"N_COORD97":2544894.98,"ADDRESS":"林森路三段８４巷１弄７４號","OBJECTID":66332},"geometry":{"x":170658.95999999996,"y":2544894.9800000004}},{"attributes":{"ID":66333,"DIS_CODE":0,"TOWNNAME":"北區","LI":"重興里","LIN":"6鄰","STREET":"林森路","SECT":"三段","MAREA":" ","LANE":"８４巷","ALLEY":"１弄","HOUSE_NO":"７６號","E_COORD97":170654.32000000001,"N_COORD97":2544898.0699999998,"ADDRESS":"林森路三段８４巷１弄７６號","OBJECTID":66333},"geometry":{"x":170654.32000000216,"y":2544898.0700000003}},{"attributes":{"ID":66334,"DIS_CODE":0,"TOWNNAME":"北區","LI":"重興里","LIN":"6鄰","STREET":"林森路","SECT":"三段","MAREA":" ","LANE":"８４巷","ALLEY":"１弄","HOUSE_NO":"７８號","E_COORD97":170650.01999999999,"N_COORD97":2544901.7999999998,"ADDRESS":"林森路三段８４巷１弄７８號","OBJECTID":66334},"geometry":{"x":170650.01999999955,"y":2544901.8000000026}},{"attributes":{"ID":66335,"DIS_CODE":0,"TOWNNAME":"北區","LI":"重興里","LIN":"6鄰","STREET":"林森路","SECT":"三段","MAREA":" ","LANE":"８４巷","ALLEY":"１弄","HOUSE_NO":"８０號","E_COORD97":170645.38,"N_COORD97":2544905.0499999998,"ADDRESS":"林森路三段８４巷１弄８０號","OBJECTID":66335},"geometry":{"x":170645.38000000082,"y":2544905.0500000007}},{"attributes":{"ID":66336,"DIS_CODE":0,"TOWNNAME":"北區","LI":"重興里","LIN":"6鄰","STREET":"林森路","SECT":"三段","MAREA":" ","LANE":"８４巷","ALLEY":"１弄","HOUSE_NO":"８２號","E_COORD97":170640.82999999999,"N_COORD97":2544908.2999999998,"ADDRESS":"林森路三段８４巷１弄８２號","OBJECTID":66336},"geometry":{"x":170640.83000000101,"y":2544908.3000000026}},{"attributes":{"ID":66337,"DIS_CODE":0,"TOWNNAME":"北區","LI":"重興里","LIN":"6鄰","STREET":"林森路","SECT":"三段","MAREA":" ","LANE":"８４巷","ALLEY":"１弄","HOUSE_NO":"８４號","E_COORD97":170636.51999999999,"N_COORD97":2544911.71,"ADDRESS":"林森路三段８４巷１弄８４號","OBJECTID":66337},"geometry":{"x":170636.51999999955,"y":2544911.7100000009}},{"attributes":{"ID":66338,"DIS_CODE":0,"TOWNNAME":"北區","LI":"重興里","LIN":"6鄰","STREET":"林森路","SECT":"三段","MAREA":" ","LANE":"８４巷","ALLEY":"１弄","HOUSE_NO":"８６號","E_COORD97":170631.97,"N_COORD97":2544914.7200000002,"ADDRESS":"林森路三段８４巷１弄８６號","OBJECTID":66338},"geometry":{"x":170631.96999999974,"y":2544914.7200000007}},{"attributes":{"ID":66339,"DIS_CODE":0,"TOWNNAME":"北區","LI":"重興里","LIN":"6鄰","STREET":"林森路","SECT":"三段","MAREA":" ","LANE":"８４巷","ALLEY":"１弄","HOUSE_NO":"８８號","E_COORD97":170627.98999999999,"N_COORD97":2544915.3700000001,"ADDRESS":"林森路三段８４巷１弄８８號","OBJECTID":66339},"geometry":{"x":170627.99000000115,"y":2544915.3700000029}},{"attributes":{"ID":66340,"DIS_CODE":0,"TOWNNAME":"北區","LI":"重興里","LIN":"6鄰","STREET":"林森路","SECT":"三段","MAREA":" ","LANE":"８４巷","ALLEY":"１弄","HOUSE_NO":"２９號","E_COORD97":170633.32999999999,"N_COORD97":2544866.4399999999,"ADDRESS":"林森路三段８４巷１弄２９號","OBJECTID":66340},"geometry":{"x":170633.33000000007,"y":2544866.4400000013}},{"attributes":{"ID":66341,"DIS_CODE":0,"TOWNNAME":"麻豆區","LI":"安正里","LIN":"8鄰","STREET":" ","SECT":" ","MAREA":"社子","LANE":" ","ALLEY":" ","HOUSE_NO":"１１號","E_COORD97":171937.5,"N_COORD97":2562250.7599999998,"ADDRESS":"社子１１號","OBJECTID":66341},"geometry":{"x":171937.49999999907,"y":2562250.7599999998}},{"attributes":{"ID":66342,"DIS_CODE":0,"TOWNNAME":"永康區","LI":"蔦松里","LIN":"8鄰","STREET":"蔦松二街","SECT":" ","MAREA":" ","LANE":" ","ALLEY":" ","HOUSE_NO":"２９號","E_COORD97":173649.76000000001,"N_COORD97":2549196.8199999998,"ADDRESS":"蔦松二街２９號","OBJECTID":66342},"geometry":{"x":173649.76000000071,"y":2549196.8200000022}},{"attributes":{"ID":66343,"DIS_CODE":0,"TOWNNAME":"永康區","LI":"\u25A0行里","LIN":"8鄰","STREET":"中正一街","SECT":" ","MAREA":" ","LANE":" ","ALLEY":" ","HOUSE_NO":"２８號","E_COORD97":172764.91,"N_COORD97":2548271,"ADDRESS":"中正一街２８號","OBJECTID":66343},"geometry":{"x":172764.91000000015,"y":2548271}},{"attributes":{"ID":66344,"DIS_CODE":0,"TOWNNAME":"永康區","LI":"網寮里","LIN":"8鄰","STREET":"永二街","SECT":" ","MAREA":" ","LANE":" ","ALLEY":" ","HOUSE_NO":"２４６號","E_COORD97":173243.06,"N_COORD97":2546310.46,"ADDRESS":"永二街２４６號","OBJECTID":66344},"geometry":{"x":173243.05999999959,"y":2546310.4600000046}},{"attributes":{"ID":66345,"DIS_CODE":0,"TOWNNAME":"善化區","LI":"溪美里","LIN":"8鄰","STREET":" ","SECT":" ","MAREA":"溪尾","LANE":" ","ALLEY":" ","HOUSE_NO":"７１號","E_COORD97":176710.62,"N_COORD97":2561238.52,"ADDRESS":"溪尾７１號","OBJECTID":66345},"geometry":{"x":176710.62000000197,"y":2561238.5199999996}},{"attributes":{"ID":66346,"DIS_CODE":0,"TOWNNAME":"仁德區","LI":"中生里","LIN":"8鄰","STREET":" ","SECT":" ","MAREA":"中洲","LANE":" ","ALLEY":" ","HOUSE_NO":"１５５號之１","E_COORD97":173078.32000000001,"N_COORD97":2534183.5499999998,"ADDRESS":"中洲１５５號之１","OBJECTID":66346},"geometry":{"x":173078.32000000216,"y":2534183.5500000026}},{"attributes":{"ID":66347,"DIS_CODE":0,"TOWNNAME":"仁德區","LI":"中洲里","LIN":"8鄰","STREET":" ","SECT":" ","MAREA":"中洲","LANE":" ","ALLEY":" ","HOUSE_NO":"２８４號","E_COORD97":173213.76000000001,"N_COORD97":2534168.2400000002,"ADDRESS":"中洲２８４號","OBJECTID":66347},"geometry":{"x":173213.76000000164,"y":2534168.2400000021}},{"attributes":{"ID":66348,"DIS_CODE":0,"TOWNNAME":"北區","LI":"重興里","LIN":"6鄰","STREET":"林森路","SECT":"三段","MAREA":" ","LANE":"８４巷","ALLEY":"１弄","HOUSE_NO":"３１號","E_COORD97":170628.20999999999,"N_COORD97":2544867.1699999999,"ADDRESS":"林森路三段８４巷１弄３１號","OBJECTID":66348},"geometry":{"x":170628.21000000089,"y":2544867.1700000037}},{"attributes":{"ID":66349,"DIS_CODE":0,"TOWNNAME":"白河區","LI":"昇安里","LIN":"1鄰","STREET":" ","SECT":" ","MAREA":"三間厝","LANE":" ","ALLEY":" ","HOUSE_NO":"１之１２號","E_COORD97":192257.63,"N_COORD97":2584976.48,"ADDRESS":"三間厝１之１２號","OBJECTID":66349},"geometry":{"x":192257.63000000082,"y":2584976.4800000004}},{"attributes":{"ID":66350,"DIS_CODE":0,"TOWNNAME":"白河區","LI":"昇安里","LIN":"1鄰","STREET":" ","SECT":" ","MAREA":"三間厝","LANE":" ","ALLEY":" ","HOUSE_NO":"１之１３號","E_COORD97":191393.13,"N_COORD97":2584629.3900000001,"ADDRESS":"三間厝１之１３號","OBJECTID":66350},"geometry":{"x":191393.13000000082,"y":2584629.3900000025}},{"attributes":{"ID":66351,"DIS_CODE":0,"TOWNNAME":"北區","LI":"重興里","LIN":"6鄰","STREET":"林森路","SECT":"三段","MAREA":" ","LANE":"８４巷","ALLEY":"１弄","HOUSE_NO":"３５號","E_COORD97":170618.45999999999,"N_COORD97":2544869.2799999998,"ADDRESS":"林森路三段８４巷１弄３５號","OBJECTID":66351},"geometry":{"x":170618.45999999996,"y":2544869.2800000031}},{"attributes":{"ID":66352,"DIS_CODE":0,"TOWNNAME":"北區","LI":"重興里","LIN":"6鄰","STREET":"林森路","SECT":"三段","MAREA":" ","LANE":"８４巷","ALLEY":"１弄","HOUSE_NO":"３７號","E_COORD97":170622.28,"N_COORD97":2544887.8599999999,"ADDRESS":"林森路三段８４巷１弄３７號","OBJECTID":66352},"geometry":{"x":170622.28000000212,"y":2544887.8599999994}},{"attributes":{"ID":66353,"DIS_CODE":0,"TOWNNAME":"北區","LI":"重興里","LIN":"6鄰","STREET":"林森路","SECT":"三段","MAREA":" ","LANE":"８４巷","ALLEY":"１弄","HOUSE_NO":"３９號","E_COORD97":170626.75,"N_COORD97":2544887.29,"ADDRESS":"林森路三段８４巷１弄３９號","OBJECTID":66353},"geometry":{"x":170626.75,"y":2544887.290000001}},{"attributes":{"ID":66354,"DIS_CODE":0,"TOWNNAME":"北區","LI":"重興里","LIN":"6鄰","STREET":"林森路","SECT":"三段","MAREA":" ","LANE":"８４巷","ALLEY":"１弄","HOUSE_NO":"３號","E_COORD97":170631.59,"N_COORD97":2544834.29,"ADDRESS":"林森路三段８４巷１弄３號","OBJECTID":66354},"geometry":{"x":170631.59000000171,"y":2544834.2899999991}},{"attributes":{"ID":66355,"DIS_CODE":0,"TOWNNAME":"白河區","LI":"昇安里","LIN":"1鄰","STREET":" ","SECT":" ","MAREA":"三間厝","LANE":" ","ALLEY":" ","HOUSE_NO":"１之１４號","E_COORD97":191391.20000000001,"N_COORD97":2584633.3799999999,"ADDRESS":"三間厝１之１４號","OBJECTID":66355},"geometry":{"x":191391.20000000112,"y":2584633.379999999}},{"attributes":{"ID":66356,"DIS_CODE":0,"TOWNNAME":"白河區","LI":"昇安里","LIN":"1鄰","STREET":" ","SECT":" ","MAREA":"三間厝","LANE":" ","ALLEY":" ","HOUSE_NO":"１之１５號","E_COORD97":191389.26999999999,"N_COORD97":2584637.3799999999,"ADDRESS":"三間厝１之１５號","OBJECTID":66356},"geometry":{"x":191389.27000000142,"y":2584637.3800000027}},{"attributes":{"ID":66357,"DIS_CODE":0,"TOWNNAME":"白河區","LI":"昇安里","LIN":"1鄰","STREET":" ","SECT":" ","MAREA":"三間厝","LANE":" ","ALLEY":" ","HOUSE_NO":"１之１６號","E_COORD97":191387.34,"N_COORD97":2584641.3700000001,"ADDRESS":"三間厝１之１６號","OBJECTID":66357},"geometry":{"x":191387.33999999892,"y":2584641.370000001}},{"attributes":{"ID":66358,"DIS_CODE":0,"TOWNNAME":"白河區","LI":"昇安里","LIN":"1鄰","STREET":" ","SECT":" ","MAREA":"三間厝","LANE":" ","ALLEY":" ","HOUSE_NO":"１之１７號","E_COORD97":191385.41,"N_COORD97":2584645.3599999999,"ADDRESS":"三間厝１之１７號","OBJECTID":66358},"geometry":{"x":191385.41000000015,"y":2584645.3600000013}},{"attributes":{"ID":66359,"DIS_CODE":0,"TOWNNAME":"白河區","LI":"昇安里","LIN":"1鄰","STREET":" ","SECT":" ","MAREA":"三間厝","LANE":" ","ALLEY":" ","HOUSE_NO":"１之１８號","E_COORD97":191383.48000000001,"N_COORD97":2584649.3599999999,"ADDRESS":"三間厝１之１８號","OBJECTID":66359},"geometry":{"x":191383.48000000045,"y":2584649.3600000013}},{"attributes":{"ID":66360,"DIS_CODE":0,"TOWNNAME":"白河區","LI":"昇安里","LIN":"1鄰","STREET":" ","SECT":" ","MAREA":"三間厝","LANE":" ","ALLEY":" ","HOUSE_NO":"１之１９號","E_COORD97":191381.54999999999,"N_COORD97":2584653.3500000001,"ADDRESS":"三間厝１之１９號","OBJECTID":66360},"geometry":{"x":191381.55000000075,"y":2584653.3500000015}},{"attributes":{"ID":66361,"DIS_CODE":0,"TOWNNAME":"白河區","LI":"昇安里","LIN":"1鄰","STREET":" ","SECT":" ","MAREA":"三間厝","LANE":" ","ALLEY":" ","HOUSE_NO":"１之２０號","E_COORD97":191379.62,"N_COORD97":2584657.3500000001,"ADDRESS":"三間厝１之２０號","OBJECTID":66361},"geometry":{"x":191379.62000000104,"y":2584657.3499999996}},{"attributes":{"ID":66362,"DIS_CODE":0,"TOWNNAME":"白河區","LI":"昇安里","LIN":"1鄰","STREET":" ","SECT":" ","MAREA":"三間厝","LANE":" ","ALLEY":" ","HOUSE_NO":"１之２１號","E_COORD97":191377.69,"N_COORD97":2584661.3399999999,"ADDRESS":"三間厝１之２１號","OBJECTID":66362},"geometry":{"x":191377.69000000134,"y":2584661.3399999999}},{"attributes":{"ID":66363,"DIS_CODE":0,"TOWNNAME":"白河區","LI":"昇安里","LIN":"1鄰","STREET":" ","SECT":" ","MAREA":"三間厝","LANE":" ","ALLEY":" ","HOUSE_NO":"１號","E_COORD97":190692.25,"N_COORD97":2584772.7799999998,"ADDRESS":"三間厝１號","OBJECTID":66363},"geometry":{"x":190692.25000000093,"y":2584772.7799999993}},{"attributes":{"ID":66364,"DIS_CODE":0,"TOWNNAME":"白河區","LI":"昇安里","LIN":"1鄰","STREET":" ","SECT":" ","MAREA":"三間厝","LANE":" ","ALLEY":" ","HOUSE_NO":"２２０號","E_COORD97":191099.31,"N_COORD97":2584451.3199999998,"ADDRESS":"三間厝２２０號","OBJECTID":66364},"geometry":{"x":191099.31000000145,"y":2584451.3200000003}},{"attributes":{"ID":66365,"DIS_CODE":0,"TOWNNAME":"白河區","LI":"昇安里","LIN":"1鄰","STREET":" ","SECT":" ","MAREA":"三間厝","LANE":" ","ALLEY":" ","HOUSE_NO":"２６０之２號","E_COORD97":191591.92999999999,"N_COORD97":2585592.8599999999,"ADDRESS":"三間厝２６０之２號","OBJECTID":66365},"geometry":{"x":191591.93000000156,"y":2585592.8599999994}},{"attributes":{"ID":66366,"DIS_CODE":0,"TOWNNAME":"白河區","LI":"昇安里","LIN":"1鄰","STREET":" ","SECT":" ","MAREA":"三間厝","LANE":" ","ALLEY":" ","HOUSE_NO":"２６０之３號","E_COORD97":191588.60999999999,"N_COORD97":2585583.9199999999,"ADDRESS":"三間厝２６０之３號","OBJECTID":66366},"geometry":{"x":191588.61000000127,"y":2585583.9200000037}},{"attributes":{"ID":66367,"DIS_CODE":0,"TOWNNAME":"白河區","LI":"昇安里","LIN":"1鄰","STREET":" ","SECT":" ","MAREA":"三間厝","LANE":" ","ALLEY":" ","HOUSE_NO":"２之１１號","E_COORD97":191339.85999999999,"N_COORD97":2584656.0600000001,"ADDRESS":"三間厝２之１１號","OBJECTID":66367},"geometry":{"x":191339.86000000034,"y":2584656.0600000024}},{"attributes":{"ID":66368,"DIS_CODE":0,"TOWNNAME":"白河區","LI":"昇安里","LIN":"1鄰","STREET":" ","SECT":" ","MAREA":"三間厝","LANE":" ","ALLEY":" ","HOUSE_NO":"２之１２號","E_COORD97":191335.95000000001,"N_COORD97":2584654.2999999998,"ADDRESS":"三間厝２之１２號","OBJECTID":66368},"geometry":{"x":191335.95000000019,"y":2584654.3000000026}},{"attributes":{"ID":66369,"DIS_CODE":0,"TOWNNAME":"白河區","LI":"昇安里","LIN":"1鄰","STREET":" ","SECT":" ","MAREA":"三間厝","LANE":" ","ALLEY":" ","HOUSE_NO":"２之１３號","E_COORD97":191332.04000000001,"N_COORD97":2584652.5299999998,"ADDRESS":"三間厝２之１３號","OBJECTID":66369},"geometry":{"x":191332.0400000019,"y":2584652.5299999993}},{"attributes":{"ID":66370,"DIS_CODE":0,"TOWNNAME":"北區","LI":"重興里","LIN":"6鄰","STREET":"林森路","SECT":"三段","MAREA":" ","LANE":"８４巷","ALLEY":"１弄","HOUSE_NO":"４１號","E_COORD97":170631.87,"N_COORD97":2544886.7999999998,"ADDRESS":"林森路三段８４巷１弄４１號","OBJECTID":66370},"geometry":{"x":170631.87000000104,"y":2544886.8000000007}},{"attributes":{"ID":66371,"DIS_CODE":0,"TOWNNAME":"北區","LI":"重興里","LIN":"6鄰","STREET":"林森路","SECT":"三段","MAREA":" ","LANE":"８４巷","ALLEY":"１弄","HOUSE_NO":"４３號","E_COORD97":170636.91,"N_COORD97":2544885.75,"ADDRESS":"林森路三段８４巷１弄４３號","OBJECTID":66371},"geometry":{"x":170636.91000000108,"y":2544885.75}},{"attributes":{"ID":66372,"DIS_CODE":0,"TOWNNAME":"永康區","LI":"蔦松里","LIN":"8鄰","STREET":"蔦松二街","SECT":" ","MAREA":" ","LANE":" ","ALLEY":" ","HOUSE_NO":"１１號","E_COORD97":173631.20000000001,"N_COORD97":2549162.0699999998,"ADDRESS":"蔦松二街１１號","OBJECTID":66372},"geometry":{"x":173631.20000000019,"y":2549162.0700000022}},{"attributes":{"ID":66373,"DIS_CODE":0,"TOWNNAME":"永康區","LI":"\u25A0行里","LIN":"8鄰","STREET":"中正一街","SECT":" ","MAREA":" ","LANE":" ","ALLEY":" ","HOUSE_NO":"２５號","E_COORD97":172762.38,"N_COORD97":2548326.2400000002,"ADDRESS":"中正一街２５號","OBJECTID":66373},"geometry":{"x":172762.38000000082,"y":2548326.2400000021}},{"attributes":{"ID":66374,"DIS_CODE":0,"TOWNNAME":"永康區","LI":"蔦松里","LIN":"8鄰","STREET":"蔦松二街","SECT":" ","MAREA":" ","LANE":" ","ALLEY":" ","HOUSE_NO":"１３號","E_COORD97":173633.39999999999,"N_COORD97":2549165.8199999998,"ADDRESS":"蔦松二街１３號","OBJECTID":66374},"geometry":{"x":173633.40000000037,"y":2549165.820000004}},{"attributes":{"ID":66375,"DIS_CODE":0,"TOWNNAME":"永康區","LI":"\u25A0行里","LIN":"8鄰","STREET":"中正一街","SECT":" ","MAREA":" ","LANE":" ","ALLEY":" ","HOUSE_NO":"２７號","E_COORD97":172760.70000000001,"N_COORD97":2548334.2400000002,"ADDRESS":"中正一街２７號","OBJECTID":66375},"geometry":{"x":172760.70000000112,"y":2548334.2400000002}},{"attributes":{"ID":66376,"DIS_CODE":0,"TOWNNAME":"北區","LI":"重興里","LIN":"6鄰","STREET":"林森路","SECT":"三段","MAREA":" ","LANE":"８４巷","ALLEY":"１弄","HOUSE_NO":"４５號","E_COORD97":170642.03,"N_COORD97":2544884.6099999999,"ADDRESS":"林森路三段８４巷１弄４５號","OBJECTID":66376},"geometry":{"x":170642.03000000026,"y":2544884.6100000013}},{"attributes":{"ID":66377,"DIS_CODE":0,"TOWNNAME":"仁德區","LI":"仁愛里","LIN":"8鄰","STREET":" ","SECT":" ","MAREA":"仁愛","LANE":" ","ALLEY":" ","HOUSE_NO":"１６６號","E_COORD97":170301.32834099999,"N_COORD97":2539813.665,"ADDRESS":"仁愛１６６號","OBJECTID":66377},"geometry":{"x":170301.32834099978,"y":2539813.665000001}},{"attributes":{"ID":66378,"DIS_CODE":0,"TOWNNAME":"北區","LI":"重興里","LIN":"6鄰","STREET":"林森路","SECT":"三段","MAREA":" ","LANE":"８４巷","ALLEY":"１弄","HOUSE_NO":"４７號","E_COORD97":170647.16,"N_COORD97":2544881.8500000001,"ADDRESS":"林森路三段８４巷１弄４７號","OBJECTID":66378},"geometry":{"x":170647.16000000108,"y":2544881.8499999996}},{"attributes":{"ID":66379,"DIS_CODE":0,"TOWNNAME":"仁德區","LI":"仁愛里","LIN":"8鄰","STREET":" ","SECT":" ","MAREA":"仁愛","LANE":" ","ALLEY":" ","HOUSE_NO":"１６３號","E_COORD97":170291.159312,"N_COORD97":2539813.665,"ADDRESS":"仁愛１６３號","OBJECTID":66379},"geometry":{"x":170291.1593120005,"y":2539813.665000001}},{"attributes":{"ID":66380,"DIS_CODE":0,"TOWNNAME":"北區","LI":"重興里","LIN":"6鄰","STREET":"林森路","SECT":"三段","MAREA":" ","LANE":"８４巷","ALLEY":"１弄","HOUSE_NO":"５號","E_COORD97":170625.95999999999,"N_COORD97":2544835.8300000001,"ADDRESS":"林森路三段８４巷１弄５號","OBJECTID":66380},"geometry":{"x":170625.96000000089,"y":2544835.8300000038}},{"attributes":{"ID":66381,"DIS_CODE":0,"TOWNNAME":"仁德區","LI":"仁愛里","LIN":"8鄰","STREET":" ","SECT":" ","MAREA":"仁愛","LANE":" ","ALLEY":" ","HOUSE_NO":"１６０號","E_COORD97":170282.57919300001,"N_COORD97":2539813.665,"ADDRESS":"仁愛１６０號","OBJECTID":66381},"geometry":{"x":170282.57919300068,"y":2539813.665000001}},{"attributes":{"ID":66382,"DIS_CODE":0,"TOWNNAME":"仁德區","LI":"中洲里","LIN":"8鄰","STREET":" ","SECT":" ","MAREA":"中洲","LANE":" ","ALLEY":" ","HOUSE_NO":"２８７號之１","E_COORD97":173159.87,"N_COORD97":2534227.5499999998,"ADDRESS":"中洲２８７號之１","OBJECTID":66382},"geometry":{"x":173159.87000000104,"y":2534227.5500000026}},{"attributes":{"ID":66383,"DIS_CODE":0,"TOWNNAME":"仁德區","LI":"中生里","LIN":"8鄰","STREET":" ","SECT":" ","MAREA":"中洲","LANE":" ","ALLEY":" ","HOUSE_NO":"１５７號","E_COORD97":173051.04999999999,"N_COORD97":2534189.9900000002,"ADDRESS":"中洲１５７號","OBJECTID":66383},"geometry":{"x":173051.05000000075,"y":2534189.9900000021}},{"attributes":{"ID":66384,"DIS_CODE":0,"TOWNNAME":"仁德區","LI":"中生里","LIN":"8鄰","STREET":" ","SECT":" ","MAREA":"中洲","LANE":" ","ALLEY":" ","HOUSE_NO":"１５１號","E_COORD97":173060.35000000001,"N_COORD97":2534202.5,"ADDRESS":"中洲１５１號","OBJECTID":66384},"geometry":{"x":173060.3499999987,"y":2534202.5000000037}},{"attributes":{"ID":66385,"DIS_CODE":0,"TOWNNAME":"仁德區","LI":"中洲里","LIN":"8鄰","STREET":" ","SECT":" ","MAREA":"中洲","LANE":" ","ALLEY":" ","HOUSE_NO":"２８５號","E_COORD97":173217.10000000001,"N_COORD97":2534153.9900000002,"ADDRESS":"中洲２８５號","OBJECTID":66385},"geometry":{"x":173217.10000000056,"y":2534153.9900000002}},{"attributes":{"ID":66386,"DIS_CODE":0,"TOWNNAME":"仁德區","LI":"中洲里","LIN":"8鄰","STREET":" ","SECT":" ","MAREA":"中洲","LANE":" ","ALLEY":" ","HOUSE_NO":"２８７號","E_COORD97":173226.79999999999,"N_COORD97":2534143.9900000002,"ADDRESS":"中洲２８７號","OBJECTID":66386},"geometry":{"x":173226.79999999981,"y":2534143.9900000002}},{"attributes":{"ID":66387,"DIS_CODE":0,"TOWNNAME":"仁德區","LI":"中生里","LIN":"8鄰","STREET":" ","SECT":" ","MAREA":"中洲","LANE":" ","ALLEY":" ","HOUSE_NO":"１５６號","E_COORD97":173098.98999999999,"N_COORD97":2534136.9900000002,"ADDRESS":"中洲１５６號","OBJECTID":66387},"geometry":{"x":173098.99000000022,"y":2534136.9900000002}},{"attributes":{"ID":66388,"DIS_CODE":0,"TOWNNAME":"仁德區","LI":"中生里","LIN":"8鄰","STREET":" ","SECT":" ","MAREA":"中洲","LANE":" ","ALLEY":" ","HOUSE_NO":"１５５號","E_COORD97":173126.39999999999,"N_COORD97":2534179.2400000002,"ADDRESS":"中洲１５５號","OBJECTID":66388},"geometry":{"x":173126.40000000037,"y":2534179.2400000002}},{"attributes":{"ID":66389,"DIS_CODE":0,"TOWNNAME":"北區","LI":"重興里","LIN":"6鄰","STREET":"林森路","SECT":"三段","MAREA":" ","LANE":"８４巷","ALLEY":"１弄","HOUSE_NO":"７號","E_COORD97":170621.60000000001,"N_COORD97":2544836.6800000002,"ADDRESS":"林森路三段８４巷１弄７號","OBJECTID":66389},"geometry":{"x":170621.60000000056,"y":2544836.6800000016}},{"attributes":{"ID":66390,"DIS_CODE":0,"TOWNNAME":"麻豆區","LI":"海埔里","LIN":"8鄰","STREET":" ","SECT":" ","MAREA":"海埔","LANE":" ","ALLEY":" ","HOUSE_NO":"３８號","E_COORD97":169597.57999999999,"N_COORD97":2566849.5600000001,"ADDRESS":"海埔３８號","OBJECTID":66390},"geometry":{"x":169597.58000000007,"y":2566849.5600000024}},{"attributes":{"ID":66391,"DIS_CODE":0,"TOWNNAME":"北區","LI":"重興里","LIN":"6鄰","STREET":"林森路","SECT":"三段","MAREA":" ","LANE":"８４巷","ALLEY":"１弄","HOUSE_NO":"３３號","E_COORD97":170623.25,"N_COORD97":2544868.4700000002,"ADDRESS":"林森路三段８４巷１弄３３號","OBJECTID":66391},"geometry":{"x":170623.25,"y":2544868.4700000007}},{"attributes":{"ID":66392,"DIS_CODE":0,"TOWNNAME":"東區","LI":"南聖里","LIN":"6鄰","STREET":"裕農路","SECT":" ","MAREA":" ","LANE":"７２６巷","ALLEY":"２弄","HOUSE_NO":"１１號三樓之１","E_COORD97":171821.09,"N_COORD97":2543177.1600000001,"ADDRESS":"裕農路７２６巷２弄１１號三樓之１","OBJECTID":66392},"geometry":{"x":171821.08999999985,"y":2543177.160000002}},{"attributes":{"ID":66393,"DIS_CODE":0,"TOWNNAME":"東區","LI":"南聖里","LIN":"6鄰","STREET":"裕農路","SECT":" ","MAREA":" ","LANE":"７２６巷","ALLEY":"２弄","HOUSE_NO":"１１號三樓之２","E_COORD97":171821.09,"N_COORD97":2543177.1600000001,"ADDRESS":"裕農路７２６巷２弄１１號三樓之２","OBJECTID":66393},"geometry":{"x":171821.08999999985,"y":2543177.160000002}},{"attributes":{"ID":66394,"DIS_CODE":0,"TOWNNAME":"仁德區","LI":"二行里","LIN":"8鄰","STREET":"行大街","SECT":" ","MAREA":" ","LANE":" ","ALLEY":" ","HOUSE_NO":"６９之１號","E_COORD97":170185.04000000001,"N_COORD97":2535155.7999999998,"ADDRESS":"行大街６９之１號","OBJECTID":66394},"geometry":{"x":170185.04000000097,"y":2535155.8000000007}},{"attributes":{"ID":66395,"DIS_CODE":0,"TOWNNAME":"仁德區","LI":"大甲里","LIN":"8鄰","STREET":"行大街","SECT":" ","MAREA":" ","LANE":" ","ALLEY":" ","HOUSE_NO":"３１３之１號","E_COORD97":169700.26999999999,"N_COORD97":2535171.54,"ADDRESS":"行大街３１３之１號","OBJECTID":66395},"geometry":{"x":169700.26999999955,"y":2535171.540000001}},{"attributes":{"ID":66396,"DIS_CODE":0,"TOWNNAME":"東區","LI":"中西里","LIN":"8鄰","STREET":"勝利路","SECT":" ","MAREA":" ","LANE":" ","ALLEY":" ","HOUSE_NO":"４０號之１","E_COORD97":169811.12,"N_COORD97":2543502.6499999999,"ADDRESS":"勝利路４０號之１","OBJECTID":66396},"geometry":{"x":169811.12000000197,"y":2543502.6500000022}},{"attributes":{"ID":66397,"DIS_CODE":0,"TOWNNAME":"西港區","LI":"慶安里","LIN":" ","STREET":"慶安路","SECT":" ","MAREA":" ","LANE":" ","ALLEY":" ","HOUSE_NO":"６４號","E_COORD97":168164.60999999999,"N_COORD97":2557914.3500000001,"ADDRESS":"慶安路６４號","OBJECTID":66397},"geometry":{"x":168164.61000000034,"y":2557914.3499999996}},{"attributes":{"ID":66398,"DIS_CODE":0,"TOWNNAME":"西港區","LI":"慶安里","LIN":" ","STREET":"慶安路","SECT":" ","MAREA":" ","LANE":" ","ALLEY":" ","HOUSE_NO":"７號","E_COORD97":168370.63,"N_COORD97":2557914.2799999998,"ADDRESS":"慶安路７號","OBJECTID":66398},"geometry":{"x":168370.63000000082,"y":2557914.2799999993}},{"attributes":{"ID":66399,"DIS_CODE":0,"TOWNNAME":"西港區","LI":"慶安里","LIN":" ","STREET":"慶安路","SECT":" ","MAREA":" ","LANE":" ","ALLEY":" ","HOUSE_NO":"８３號","E_COORD97":168226.60000000001,"N_COORD97":2557897.8900000001,"ADDRESS":"慶安路８３號","OBJECTID":66399},"geometry":{"x":168226.60000000056,"y":2557897.8900000006}},{"attributes":{"ID":66400,"DIS_CODE":0,"TOWNNAME":"西港區","LI":"慶安里","LIN":" ","STREET":"慶安路","SECT":" ","MAREA":" ","LANE":" ","ALLEY":" ","HOUSE_NO":"８７號","E_COORD97":168216.67000000001,"N_COORD97":2557896.4500000002,"ADDRESS":"慶安路８７號","OBJECTID":66400},"geometry":{"x":168216.66999999993,"y":2557896.4499999993}}]}