{"displayFieldName":"TOWNNAME","fieldAliases":{"ID":"ID","DIS_CODE":"DIS_CODE","TOWNNAME":"TOWNNAME","LI":"LI","LIN":"LIN","STREET":"STREET","SECT":"SECT","MAREA":"MAREA","LANE":"LANE","ALLEY":"ALLEY","HOUSE_NO":"HOUSE_NO","E_COORD97":"E_COORD97","N_COORD97":"N_COORD97","ADDRESS":"ADDRESS","OBJECTID":"OBJECTID"},"geometryType":"esriGeometryPoint","spatialReference":{"wkid":102443,"latestWkid":3826},"fields":[{"name":"ID","type":"esriFieldTypeDouble","alias":"ID"},{"name":"DIS_CODE","type":"esriFieldTypeInteger","alias":"DIS_CODE"},{"name":"TOWNNAME","type":"esriFieldTypeString","alias":"TOWNNAME","length":8},{"name":"LI","type":"esriFieldTypeString","alias":"LI","length":8},{"name":"LIN","type":"esriFieldTypeString","alias":"LIN","length":12},{"name":"STREET","type":"esriFieldTypeString","alias":"STREET","length":20},{"name":"SECT","type":"esriFieldTypeString","alias":"SECT","length":8},{"name":"MAREA","type":"esriFieldTypeString","alias":"MAREA","length":12},{"name":"LANE","type":"esriFieldTypeString","alias":"LANE","length":10},{"name":"ALLEY","type":"esriFieldTypeString","alias":"ALLEY","length":10},{"name":"HOUSE_NO","type":"esriFieldTypeString","alias":"HOUSE_NO","length":20},{"name":"E_COORD97","type":"esriFieldTypeDouble","alias":"E_COORD97"},{"name":"N_COORD97","type":"esriFieldTypeDouble","alias":"N_COORD97"},{"name":"ADDRESS","type":"esriFieldTypeString","alias":"ADDRESS","length":50},{"name":"OBJECTID","type":"esriFieldTypeOID","alias":"OBJECTID"}],"features":[{"attributes":{"ID":455226,"DIS_CODE":0,"TOWNNAME":"佳里區","LI":"安西里","LIN":"39鄰","STREET":"育善街","SECT":" ","MAREA":" ","LANE":"２７２巷","ALLEY":" ","HOUSE_NO":"２２號","E_COORD97":164962.75,"N_COORD97":2562674.7999999998,"ADDRESS":"育善街２７２巷２２號","OBJECTID":455201},"geometry":{"x":164962.75000000093,"y":2562674.8000000026}},{"attributes":{"ID":455227,"DIS_CODE":0,"TOWNNAME":"佳里區","LI":"安西里","LIN":"39鄰","STREET":"育善街","SECT":" ","MAREA":" ","LANE":"２７２巷","ALLEY":" ","HOUSE_NO":"２６號","E_COORD97":164962.20000000001,"N_COORD97":2562670.6400000001,"ADDRESS":"育善街２７２巷２６號","OBJECTID":455202},"geometry":{"x":164962.20000000019,"y":2562670.6400000006}},{"attributes":{"ID":455228,"DIS_CODE":0,"TOWNNAME":"佳里區","LI":"安西里","LIN":"39鄰","STREET":"育善街","SECT":" ","MAREA":" ","LANE":"２７２巷","ALLEY":" ","HOUSE_NO":"２８號","E_COORD97":164962.03,"N_COORD97":2562666.6899999999,"ADDRESS":"育善街２７２巷２８號","OBJECTID":455203},"geometry":{"x":164962.03000000212,"y":2562666.6900000013}},{"attributes":{"ID":455229,"DIS_CODE":0,"TOWNNAME":"佳里區","LI":"安西里","LIN":"39鄰","STREET":"育善街","SECT":" ","MAREA":" ","LANE":"２７２巷","ALLEY":" ","HOUSE_NO":"２號","E_COORD97":164957.48000000001,"N_COORD97":2562704.1699999999,"ADDRESS":"育善街２７２巷２號","OBJECTID":455204},"geometry":{"x":164957.48000000231,"y":2562704.1700000037}},{"attributes":{"ID":455230,"DIS_CODE":0,"TOWNNAME":"佳里區","LI":"安西里","LIN":"39鄰","STREET":"育善街","SECT":" ","MAREA":" ","LANE":"２７２巷","ALLEY":" ","HOUSE_NO":"８號","E_COORD97":164966.20000000001,"N_COORD97":2562703.6099999999,"ADDRESS":"育善街２７２巷８號","OBJECTID":455205},"geometry":{"x":164966.20000000112,"y":2562703.6099999975}},{"attributes":{"ID":455231,"DIS_CODE":0,"TOWNNAME":"永康區","LI":"永康里","LIN":"39鄰","STREET":"永福街","SECT":" ","MAREA":" ","LANE":"１１巷","ALLEY":" ","HOUSE_NO":"３０號","E_COORD97":174264.51000000001,"N_COORD97":2546397.9500000002,"ADDRESS":"永福街１１巷３０號","OBJECTID":455206},"geometry":{"x":174264.50999999978,"y":2546397.9500000011}},{"attributes":{"ID":455232,"DIS_CODE":0,"TOWNNAME":"永康區","LI":"北灣里","LIN":"39鄰","STREET":"大同街","SECT":" ","MAREA":" ","LANE":"４２５巷","ALLEY":" ","HOUSE_NO":"１２號","E_COORD97":174581.51000000001,"N_COORD97":2546341.52,"ADDRESS":"大同街４２５巷１２號","OBJECTID":455207},"geometry":{"x":174581.50999999978,"y":2546341.5199999996}},{"attributes":{"ID":455233,"DIS_CODE":0,"TOWNNAME":"安平區","LI":"育平里","LIN":"39鄰","STREET":"平豐路","SECT":" ","MAREA":" ","LANE":"４４巷","ALLEY":" ","HOUSE_NO":"２０號三樓之１","E_COORD97":164397.97,"N_COORD97":2542996.75,"ADDRESS":"平豐路４４巷２０號三樓之１","OBJECTID":455208},"geometry":{"x":164397.97000000067,"y":2542996.7500000019}},{"attributes":{"ID":455234,"DIS_CODE":0,"TOWNNAME":"安平區","LI":"育平里","LIN":"39鄰","STREET":"平豐路","SECT":" ","MAREA":" ","LANE":"４４巷","ALLEY":" ","HOUSE_NO":"２０號三樓之１０","E_COORD97":164397.97,"N_COORD97":2542996.75,"ADDRESS":"平豐路４４巷２０號三樓之１０","OBJECTID":455209},"geometry":{"x":164397.97000000067,"y":2542996.7500000019}},{"attributes":{"ID":455235,"DIS_CODE":0,"TOWNNAME":"安平區","LI":"育平里","LIN":"39鄰","STREET":"平豐路","SECT":" ","MAREA":" ","LANE":"４４巷","ALLEY":" ","HOUSE_NO":"２０號三樓之１１","E_COORD97":164397.97,"N_COORD97":2542996.75,"ADDRESS":"平豐路４４巷２０號三樓之１１","OBJECTID":455210},"geometry":{"x":164397.97000000067,"y":2542996.7500000019}},{"attributes":{"ID":455236,"DIS_CODE":0,"TOWNNAME":"安平區","LI":"育平里","LIN":"39鄰","STREET":"平豐路","SECT":" ","MAREA":" ","LANE":"４４巷","ALLEY":" ","HOUSE_NO":"２０號三樓之２","E_COORD97":164397.97,"N_COORD97":2542996.75,"ADDRESS":"平豐路４４巷２０號三樓之２","OBJECTID":455211},"geometry":{"x":164397.97000000067,"y":2542996.7500000019}},{"attributes":{"ID":455237,"DIS_CODE":0,"TOWNNAME":"安平區","LI":"育平里","LIN":"39鄰","STREET":"平豐路","SECT":" ","MAREA":" ","LANE":"４４巷","ALLEY":" ","HOUSE_NO":"２０號三樓之３","E_COORD97":164397.97,"N_COORD97":2542996.75,"ADDRESS":"平豐路４４巷２０號三樓之３","OBJECTID":455212},"geometry":{"x":164397.97000000067,"y":2542996.7500000019}},{"attributes":{"ID":455238,"DIS_CODE":0,"TOWNNAME":"安平區","LI":"育平里","LIN":"39鄰","STREET":"平豐路","SECT":" ","MAREA":" ","LANE":"４４巷","ALLEY":" ","HOUSE_NO":"２０號三樓之４","E_COORD97":164397.97,"N_COORD97":2542996.75,"ADDRESS":"平豐路４４巷２０號三樓之４","OBJECTID":455213},"geometry":{"x":164397.97000000067,"y":2542996.7500000019}},{"attributes":{"ID":455239,"DIS_CODE":0,"TOWNNAME":"安平區","LI":"育平里","LIN":"39鄰","STREET":"平豐路","SECT":" ","MAREA":" ","LANE":"４４巷","ALLEY":" ","HOUSE_NO":"２０號三樓之５","E_COORD97":164397.97,"N_COORD97":2542996.75,"ADDRESS":"平豐路４４巷２０號三樓之５","OBJECTID":455214},"geometry":{"x":164397.97000000067,"y":2542996.7500000019}},{"attributes":{"ID":455240,"DIS_CODE":0,"TOWNNAME":"安平區","LI":"育平里","LIN":"39鄰","STREET":"平豐路","SECT":" ","MAREA":" ","LANE":"４４巷","ALLEY":" ","HOUSE_NO":"２０號三樓之６","E_COORD97":164397.97,"N_COORD97":2542996.75,"ADDRESS":"平豐路４４巷２０號三樓之６","OBJECTID":455215},"geometry":{"x":164397.97000000067,"y":2542996.7500000019}},{"attributes":{"ID":455241,"DIS_CODE":0,"TOWNNAME":"安平區","LI":"育平里","LIN":"39鄰","STREET":"平豐路","SECT":" ","MAREA":" ","LANE":"４４巷","ALLEY":" ","HOUSE_NO":"２０號三樓之７","E_COORD97":164397.97,"N_COORD97":2542996.75,"ADDRESS":"平豐路４４巷２０號三樓之７","OBJECTID":455216},"geometry":{"x":164397.97000000067,"y":2542996.7500000019}},{"attributes":{"ID":455242,"DIS_CODE":0,"TOWNNAME":"安平區","LI":"育平里","LIN":"39鄰","STREET":"平豐路","SECT":" ","MAREA":" ","LANE":"４４巷","ALLEY":" ","HOUSE_NO":"２０號三樓之８","E_COORD97":164397.97,"N_COORD97":2542996.75,"ADDRESS":"平豐路４４巷２０號三樓之８","OBJECTID":455217},"geometry":{"x":164397.97000000067,"y":2542996.7500000019}},{"attributes":{"ID":455243,"DIS_CODE":0,"TOWNNAME":"安平區","LI":"育平里","LIN":"39鄰","STREET":"平豐路","SECT":" ","MAREA":" ","LANE":"４４巷","ALLEY":" ","HOUSE_NO":"２０號三樓之９","E_COORD97":164397.97,"N_COORD97":2542996.75,"ADDRESS":"平豐路４４巷２０號三樓之９","OBJECTID":455218},"geometry":{"x":164397.97000000067,"y":2542996.7500000019}},{"attributes":{"ID":455244,"DIS_CODE":0,"TOWNNAME":"安平區","LI":"育平里","LIN":"39鄰","STREET":"平豐路","SECT":" ","MAREA":" ","LANE":"４４巷","ALLEY":" ","HOUSE_NO":"２０號五樓之１","E_COORD97":164397.97,"N_COORD97":2542996.75,"ADDRESS":"平豐路４４巷２０號五樓之１","OBJECTID":455219},"geometry":{"x":164397.97000000067,"y":2542996.7500000019}},{"attributes":{"ID":455245,"DIS_CODE":0,"TOWNNAME":"安平區","LI":"育平里","LIN":"39鄰","STREET":"平豐路","SECT":" ","MAREA":" ","LANE":"４４巷","ALLEY":" ","HOUSE_NO":"２０號五樓之１０","E_COORD97":164397.97,"N_COORD97":2542996.75,"ADDRESS":"平豐路４４巷２０號五樓之１０","OBJECTID":455220},"geometry":{"x":164397.97000000067,"y":2542996.7500000019}},{"attributes":{"ID":455246,"DIS_CODE":0,"TOWNNAME":"安平區","LI":"育平里","LIN":"39鄰","STREET":"平豐路","SECT":" ","MAREA":" ","LANE":"４４巷","ALLEY":" ","HOUSE_NO":"２０號五樓之１１","E_COORD97":164397.97,"N_COORD97":2542996.75,"ADDRESS":"平豐路４４巷２０號五樓之１１","OBJECTID":455221},"geometry":{"x":164397.97000000067,"y":2542996.7500000019}},{"attributes":{"ID":455247,"DIS_CODE":0,"TOWNNAME":"安平區","LI":"育平里","LIN":"39鄰","STREET":"平豐路","SECT":" ","MAREA":" ","LANE":"４４巷","ALLEY":" ","HOUSE_NO":"２０號五樓之２","E_COORD97":164397.97,"N_COORD97":2542996.75,"ADDRESS":"平豐路４４巷２０號五樓之２","OBJECTID":455222},"geometry":{"x":164397.97000000067,"y":2542996.7500000019}},{"attributes":{"ID":455248,"DIS_CODE":0,"TOWNNAME":"安平區","LI":"育平里","LIN":"39鄰","STREET":"平豐路","SECT":" ","MAREA":" ","LANE":"４４巷","ALLEY":" ","HOUSE_NO":"２０號五樓之３","E_COORD97":164397.97,"N_COORD97":2542996.75,"ADDRESS":"平豐路４４巷２０號五樓之３","OBJECTID":455223},"geometry":{"x":164397.97000000067,"y":2542996.7500000019}},{"attributes":{"ID":455249,"DIS_CODE":0,"TOWNNAME":"安平區","LI":"育平里","LIN":"39鄰","STREET":"平豐路","SECT":" ","MAREA":" ","LANE":"４４巷","ALLEY":" ","HOUSE_NO":"２０號五樓之４","E_COORD97":164397.97,"N_COORD97":2542996.75,"ADDRESS":"平豐路４４巷２０號五樓之４","OBJECTID":455224},"geometry":{"x":164397.97000000067,"y":2542996.7500000019}},{"attributes":{"ID":455250,"DIS_CODE":0,"TOWNNAME":"安平區","LI":"育平里","LIN":"39鄰","STREET":"平豐路","SECT":" ","MAREA":" ","LANE":"４４巷","ALLEY":" ","HOUSE_NO":"２０號五樓之５","E_COORD97":164397.97,"N_COORD97":2542996.75,"ADDRESS":"平豐路４４巷２０號五樓之５","OBJECTID":455225},"geometry":{"x":164397.97000000067,"y":2542996.7500000019}},{"attributes":{"ID":455251,"DIS_CODE":0,"TOWNNAME":"安平區","LI":"育平里","LIN":"39鄰","STREET":"平豐路","SECT":" ","MAREA":" ","LANE":"４４巷","ALLEY":" ","HOUSE_NO":"２０號五樓之６","E_COORD97":164397.97,"N_COORD97":2542996.75,"ADDRESS":"平豐路４４巷２０號五樓之６","OBJECTID":455226},"geometry":{"x":164397.97000000067,"y":2542996.7500000019}},{"attributes":{"ID":455252,"DIS_CODE":0,"TOWNNAME":"安平區","LI":"育平里","LIN":"39鄰","STREET":"平豐路","SECT":" ","MAREA":" ","LANE":"４４巷","ALLEY":" ","HOUSE_NO":"２０號五樓之７","E_COORD97":164397.97,"N_COORD97":2542996.75,"ADDRESS":"平豐路４４巷２０號五樓之７","OBJECTID":455227},"geometry":{"x":164397.97000000067,"y":2542996.7500000019}},{"attributes":{"ID":455253,"DIS_CODE":0,"TOWNNAME":"安平區","LI":"育平里","LIN":"39鄰","STREET":"平豐路","SECT":" ","MAREA":" ","LANE":"４４巷","ALLEY":" ","HOUSE_NO":"２０號五樓之８","E_COORD97":164397.97,"N_COORD97":2542996.75,"ADDRESS":"平豐路４４巷２０號五樓之８","OBJECTID":455228},"geometry":{"x":164397.97000000067,"y":2542996.7500000019}},{"attributes":{"ID":455254,"DIS_CODE":0,"TOWNNAME":"安平區","LI":"育平里","LIN":"39鄰","STREET":"平豐路","SECT":" ","MAREA":" ","LANE":"４４巷","ALLEY":" ","HOUSE_NO":"２０號五樓之９","E_COORD97":164397.97,"N_COORD97":2542996.75,"ADDRESS":"平豐路４４巷２０號五樓之９","OBJECTID":455229},"geometry":{"x":164397.97000000067,"y":2542996.7500000019}},{"attributes":{"ID":455255,"DIS_CODE":0,"TOWNNAME":"佳里區","LI":"安西里","LIN":"41鄰","STREET":"育善街","SECT":" ","MAREA":" ","LANE":"９７巷","ALLEY":" ","HOUSE_NO":"６號","E_COORD97":164931.39999999999,"N_COORD97":2562277.3900000001,"ADDRESS":"育善街９７巷６號","OBJECTID":455230},"geometry":{"x":164931.4000000013,"y":2562277.3900000025}},{"attributes":{"ID":455256,"DIS_CODE":0,"TOWNNAME":"安平區","LI":"育平里","LIN":"39鄰","STREET":"平豐路","SECT":" ","MAREA":" ","LANE":"４４巷","ALLEY":" ","HOUSE_NO":"２０號六樓之１","E_COORD97":164397.97,"N_COORD97":2542996.75,"ADDRESS":"平豐路４４巷２０號六樓之１","OBJECTID":455231},"geometry":{"x":164397.97000000067,"y":2542996.7500000019}},{"attributes":{"ID":455257,"DIS_CODE":0,"TOWNNAME":"安平區","LI":"育平里","LIN":"39鄰","STREET":"平豐路","SECT":" ","MAREA":" ","LANE":"４４巷","ALLEY":" ","HOUSE_NO":"２０號六樓之１０","E_COORD97":164397.97,"N_COORD97":2542996.75,"ADDRESS":"平豐路４４巷２０號六樓之１０","OBJECTID":455232},"geometry":{"x":164397.97000000067,"y":2542996.7500000019}},{"attributes":{"ID":455258,"DIS_CODE":0,"TOWNNAME":"安平區","LI":"育平里","LIN":"39鄰","STREET":"平豐路","SECT":" ","MAREA":" ","LANE":"４４巷","ALLEY":" ","HOUSE_NO":"２０號六樓之２","E_COORD97":164397.97,"N_COORD97":2542996.75,"ADDRESS":"平豐路４４巷２０號六樓之２","OBJECTID":455233},"geometry":{"x":164397.97000000067,"y":2542996.7500000019}},{"attributes":{"ID":455259,"DIS_CODE":0,"TOWNNAME":"安平區","LI":"育平里","LIN":"39鄰","STREET":"平豐路","SECT":" ","MAREA":" ","LANE":"４４巷","ALLEY":" ","HOUSE_NO":"２０號六樓之３","E_COORD97":164397.97,"N_COORD97":2542996.75,"ADDRESS":"平豐路４４巷２０號六樓之３","OBJECTID":455234},"geometry":{"x":164397.97000000067,"y":2542996.7500000019}},{"attributes":{"ID":455260,"DIS_CODE":0,"TOWNNAME":"安平區","LI":"育平里","LIN":"39鄰","STREET":"平豐路","SECT":" ","MAREA":" ","LANE":"４４巷","ALLEY":" ","HOUSE_NO":"２０號六樓之４","E_COORD97":164397.97,"N_COORD97":2542996.75,"ADDRESS":"平豐路４４巷２０號六樓之４","OBJECTID":455235},"geometry":{"x":164397.97000000067,"y":2542996.7500000019}},{"attributes":{"ID":455261,"DIS_CODE":0,"TOWNNAME":"安平區","LI":"育平里","LIN":"39鄰","STREET":"平豐路","SECT":" ","MAREA":" ","LANE":"４４巷","ALLEY":" ","HOUSE_NO":"２０號六樓之５","E_COORD97":164397.97,"N_COORD97":2542996.75,"ADDRESS":"平豐路４４巷２０號六樓之５","OBJECTID":455236},"geometry":{"x":164397.97000000067,"y":2542996.7500000019}},{"attributes":{"ID":455262,"DIS_CODE":0,"TOWNNAME":"安平區","LI":"育平里","LIN":"39鄰","STREET":"平豐路","SECT":" ","MAREA":" ","LANE":"４４巷","ALLEY":" ","HOUSE_NO":"２０號六樓之６","E_COORD97":164397.97,"N_COORD97":2542996.75,"ADDRESS":"平豐路４４巷２０號六樓之６","OBJECTID":455237},"geometry":{"x":164397.97000000067,"y":2542996.7500000019}},{"attributes":{"ID":455263,"DIS_CODE":0,"TOWNNAME":"安平區","LI":"育平里","LIN":"39鄰","STREET":"平豐路","SECT":" ","MAREA":" ","LANE":"４４巷","ALLEY":" ","HOUSE_NO":"２０號六樓之７","E_COORD97":164397.97,"N_COORD97":2542996.75,"ADDRESS":"平豐路４４巷２０號六樓之７","OBJECTID":455238},"geometry":{"x":164397.97000000067,"y":2542996.7500000019}},{"attributes":{"ID":455264,"DIS_CODE":0,"TOWNNAME":"安平區","LI":"育平里","LIN":"39鄰","STREET":"平豐路","SECT":" ","MAREA":" ","LANE":"４４巷","ALLEY":" ","HOUSE_NO":"２０號六樓之８","E_COORD97":164397.97,"N_COORD97":2542996.75,"ADDRESS":"平豐路４４巷２０號六樓之８","OBJECTID":455239},"geometry":{"x":164397.97000000067,"y":2542996.7500000019}},{"attributes":{"ID":455265,"DIS_CODE":0,"TOWNNAME":"安平區","LI":"育平里","LIN":"39鄰","STREET":"平豐路","SECT":" ","MAREA":" ","LANE":"４４巷","ALLEY":" ","HOUSE_NO":"２０號六樓之９","E_COORD97":164397.97,"N_COORD97":2542996.75,"ADDRESS":"平豐路４４巷２０號六樓之９","OBJECTID":455240},"geometry":{"x":164397.97000000067,"y":2542996.7500000019}},{"attributes":{"ID":455266,"DIS_CODE":0,"TOWNNAME":"安平區","LI":"育平里","LIN":"39鄰","STREET":"平豐路","SECT":" ","MAREA":" ","LANE":"４４巷","ALLEY":" ","HOUSE_NO":"２０號四樓之１","E_COORD97":164397.97,"N_COORD97":2542996.75,"ADDRESS":"平豐路４４巷２０號四樓之１","OBJECTID":455241},"geometry":{"x":164397.97000000067,"y":2542996.7500000019}},{"attributes":{"ID":455267,"DIS_CODE":0,"TOWNNAME":"安平區","LI":"育平里","LIN":"39鄰","STREET":"平豐路","SECT":" ","MAREA":" ","LANE":"４４巷","ALLEY":" ","HOUSE_NO":"２０號四樓之１０","E_COORD97":164397.97,"N_COORD97":2542996.75,"ADDRESS":"平豐路４４巷２０號四樓之１０","OBJECTID":455242},"geometry":{"x":164397.97000000067,"y":2542996.7500000019}},{"attributes":{"ID":455268,"DIS_CODE":0,"TOWNNAME":"安平區","LI":"育平里","LIN":"39鄰","STREET":"平豐路","SECT":" ","MAREA":" ","LANE":"４４巷","ALLEY":" ","HOUSE_NO":"２０號四樓之１１","E_COORD97":164397.97,"N_COORD97":2542996.75,"ADDRESS":"平豐路４４巷２０號四樓之１１","OBJECTID":455243},"geometry":{"x":164397.97000000067,"y":2542996.7500000019}},{"attributes":{"ID":455269,"DIS_CODE":0,"TOWNNAME":"安平區","LI":"育平里","LIN":"39鄰","STREET":"平豐路","SECT":" ","MAREA":" ","LANE":"４４巷","ALLEY":" ","HOUSE_NO":"２０號四樓之２","E_COORD97":164397.97,"N_COORD97":2542996.75,"ADDRESS":"平豐路４４巷２０號四樓之２","OBJECTID":455244},"geometry":{"x":164397.97000000067,"y":2542996.7500000019}},{"attributes":{"ID":455270,"DIS_CODE":0,"TOWNNAME":"安平區","LI":"育平里","LIN":"39鄰","STREET":"平豐路","SECT":" ","MAREA":" ","LANE":"４４巷","ALLEY":" ","HOUSE_NO":"２０號四樓之３","E_COORD97":164397.97,"N_COORD97":2542996.75,"ADDRESS":"平豐路４４巷２０號四樓之３","OBJECTID":455245},"geometry":{"x":164397.97000000067,"y":2542996.7500000019}},{"attributes":{"ID":455271,"DIS_CODE":0,"TOWNNAME":"安平區","LI":"育平里","LIN":"39鄰","STREET":"平豐路","SECT":" ","MAREA":" ","LANE":"４４巷","ALLEY":" ","HOUSE_NO":"２０號四樓之３之１","E_COORD97":164397.97,"N_COORD97":2542996.75,"ADDRESS":"平豐路４４巷２０號四樓之３之１","OBJECTID":455246},"geometry":{"x":164397.97000000067,"y":2542996.7500000019}},{"attributes":{"ID":455272,"DIS_CODE":0,"TOWNNAME":"安平區","LI":"育平里","LIN":"39鄰","STREET":"平豐路","SECT":" ","MAREA":" ","LANE":"４４巷","ALLEY":" ","HOUSE_NO":"２０號四樓之５","E_COORD97":164397.97,"N_COORD97":2542996.75,"ADDRESS":"平豐路４４巷２０號四樓之５","OBJECTID":455247},"geometry":{"x":164397.97000000067,"y":2542996.7500000019}},{"attributes":{"ID":455273,"DIS_CODE":0,"TOWNNAME":"安平區","LI":"育平里","LIN":"39鄰","STREET":"平豐路","SECT":" ","MAREA":" ","LANE":"４４巷","ALLEY":" ","HOUSE_NO":"２０號四樓之６","E_COORD97":164397.97,"N_COORD97":2542996.75,"ADDRESS":"平豐路４４巷２０號四樓之６","OBJECTID":455248},"geometry":{"x":164397.97000000067,"y":2542996.7500000019}},{"attributes":{"ID":455274,"DIS_CODE":0,"TOWNNAME":"安平區","LI":"育平里","LIN":"39鄰","STREET":"平豐路","SECT":" ","MAREA":" ","LANE":"４４巷","ALLEY":" ","HOUSE_NO":"２０號四樓之７","E_COORD97":164397.97,"N_COORD97":2542996.75,"ADDRESS":"平豐路４４巷２０號四樓之７","OBJECTID":455249},"geometry":{"x":164397.97000000067,"y":2542996.7500000019}},{"attributes":{"ID":455275,"DIS_CODE":0,"TOWNNAME":"安平區","LI":"育平里","LIN":"39鄰","STREET":"平豐路","SECT":" ","MAREA":" ","LANE":"４４巷","ALLEY":" ","HOUSE_NO":"２０號四樓之８","E_COORD97":164397.97,"N_COORD97":2542996.75,"ADDRESS":"平豐路４４巷２０號四樓之８","OBJECTID":455250},"geometry":{"x":164397.97000000067,"y":2542996.7500000019}},{"attributes":{"ID":455276,"DIS_CODE":0,"TOWNNAME":"安平區","LI":"育平里","LIN":"39鄰","STREET":"平豐路","SECT":" ","MAREA":" ","LANE":"４４巷","ALLEY":" ","HOUSE_NO":"２０號四樓之９","E_COORD97":164397.97,"N_COORD97":2542996.75,"ADDRESS":"平豐路４４巷２０號四樓之９","OBJECTID":455251},"geometry":{"x":164397.97000000067,"y":2542996.7500000019}},{"attributes":{"ID":455277,"DIS_CODE":0,"TOWNNAME":"永康區","LI":"西灣里","LIN":"39鄰","STREET":"永華路","SECT":" ","MAREA":" ","LANE":"２１２巷","ALLEY":" ","HOUSE_NO":"１８號二樓","E_COORD97":174147.98000000001,"N_COORD97":2545431.25,"ADDRESS":"永華路２１２巷１８號二樓","OBJECTID":455252},"geometry":{"x":174147.98000000045,"y":2545431.2500000019}},{"attributes":{"ID":455278,"DIS_CODE":0,"TOWNNAME":"永康區","LI":"西灣里","LIN":"39鄰","STREET":"永華路","SECT":" ","MAREA":" ","LANE":"２１２巷","ALLEY":" ","HOUSE_NO":"１６號六樓","E_COORD97":174150.51000000001,"N_COORD97":2545438.25,"ADDRESS":"永華路２１２巷１６號六樓","OBJECTID":455253},"geometry":{"x":174150.50999999978,"y":2545438.25}},{"attributes":{"ID":455279,"DIS_CODE":0,"TOWNNAME":"永康區","LI":"西灣里","LIN":"39鄰","STREET":"永華路","SECT":" ","MAREA":" ","LANE":"２１２巷","ALLEY":" ","HOUSE_NO":"１８號五樓","E_COORD97":174147.98000000001,"N_COORD97":2545431.25,"ADDRESS":"永華路２１２巷１８號五樓","OBJECTID":455254},"geometry":{"x":174147.98000000045,"y":2545431.2500000019}},{"attributes":{"ID":455280,"DIS_CODE":0,"TOWNNAME":"永康區","LI":"西灣里","LIN":"39鄰","STREET":"永華路","SECT":" ","MAREA":" ","LANE":"２１２巷","ALLEY":" ","HOUSE_NO":"２０號八樓","E_COORD97":174158.17999999999,"N_COORD97":2545429,"ADDRESS":"永華路２１２巷２０號八樓","OBJECTID":455255},"geometry":{"x":174158.1799999997,"y":2545429.0000000019}},{"attributes":{"ID":455281,"DIS_CODE":0,"TOWNNAME":"永康區","LI":"西灣里","LIN":"39鄰","STREET":"永華路","SECT":" ","MAREA":" ","LANE":"２１２巷","ALLEY":" ","HOUSE_NO":"２０號五樓","E_COORD97":174158.17999999999,"N_COORD97":2545429,"ADDRESS":"永華路２１２巷２０號五樓","OBJECTID":455256},"geometry":{"x":174158.1799999997,"y":2545429.0000000019}},{"attributes":{"ID":455282,"DIS_CODE":0,"TOWNNAME":"永康區","LI":"西灣里","LIN":"39鄰","STREET":"永華路","SECT":" ","MAREA":" ","LANE":"２１２巷","ALLEY":" ","HOUSE_NO":"２７號四樓之１","E_COORD97":174184.42999999999,"N_COORD97":2545474.7999999998,"ADDRESS":"永華路２１２巷２７號四樓之１","OBJECTID":455257},"geometry":{"x":174184.43000000063,"y":2545474.8000000026}},{"attributes":{"ID":455283,"DIS_CODE":0,"TOWNNAME":"永康區","LI":"西灣里","LIN":"39鄰","STREET":"永華路","SECT":" ","MAREA":" ","LANE":"２１２巷","ALLEY":" ","HOUSE_NO":"２７號三樓之１","E_COORD97":174184.42999999999,"N_COORD97":2545474.7999999998,"ADDRESS":"永華路２１２巷２７號三樓之１","OBJECTID":455258},"geometry":{"x":174184.43000000063,"y":2545474.8000000026}},{"attributes":{"ID":455284,"DIS_CODE":0,"TOWNNAME":"永康區","LI":"西灣里","LIN":"39鄰","STREET":"永華路","SECT":" ","MAREA":" ","LANE":"２１２巷","ALLEY":" ","HOUSE_NO":"１４號五樓","E_COORD97":174155.12,"N_COORD97":2545450.5,"ADDRESS":"永華路２１２巷１４號五樓","OBJECTID":455259},"geometry":{"x":174155.12000000011,"y":2545450.5}},{"attributes":{"ID":455285,"DIS_CODE":0,"TOWNNAME":"永康區","LI":"西灣里","LIN":"39鄰","STREET":"永華路","SECT":" ","MAREA":" ","LANE":"２１２巷","ALLEY":" ","HOUSE_NO":"１４號四樓","E_COORD97":174155.12,"N_COORD97":2545450.5,"ADDRESS":"永華路２１２巷１４號四樓","OBJECTID":455260},"geometry":{"x":174155.12000000011,"y":2545450.5}},{"attributes":{"ID":455286,"DIS_CODE":0,"TOWNNAME":"永康區","LI":"西灣里","LIN":"39鄰","STREET":"永華路","SECT":" ","MAREA":" ","LANE":"２１２巷","ALLEY":" ","HOUSE_NO":"２７號三樓之３","E_COORD97":174184.53,"N_COORD97":2545474.7999999998,"ADDRESS":"永華路２１２巷２７號三樓之３","OBJECTID":455261},"geometry":{"x":174184.53000000119,"y":2545474.8000000026}},{"attributes":{"ID":455287,"DIS_CODE":0,"TOWNNAME":"永康區","LI":"西灣里","LIN":"39鄰","STREET":"永華路","SECT":" ","MAREA":" ","LANE":"２１２巷","ALLEY":" ","HOUSE_NO":"２７號二樓之２","E_COORD97":174184.56,"N_COORD97":2545474.7999999998,"ADDRESS":"永華路２１２巷２７號二樓之２","OBJECTID":455262},"geometry":{"x":174184.56000000145,"y":2545474.8000000026}},{"attributes":{"ID":455288,"DIS_CODE":0,"TOWNNAME":"仁德區","LI":"仁義里","LIN":"39鄰","STREET":"仁義五街","SECT":" ","MAREA":" ","LANE":"４４巷","ALLEY":" ","HOUSE_NO":"８號","E_COORD97":173592.45999999999,"N_COORD97":2540410.6800000002,"ADDRESS":"仁義五街４４巷８號","OBJECTID":455263},"geometry":{"x":173592.46000000183,"y":2540410.6799999997}},{"attributes":{"ID":455289,"DIS_CODE":0,"TOWNNAME":"永康區","LI":"西灣里","LIN":"39鄰","STREET":"永華路","SECT":" ","MAREA":" ","LANE":"２１２巷","ALLEY":" ","HOUSE_NO":"１６號五樓","E_COORD97":174150.51000000001,"N_COORD97":2545438.25,"ADDRESS":"永華路２１２巷１６號五樓","OBJECTID":455264},"geometry":{"x":174150.50999999978,"y":2545438.25}},{"attributes":{"ID":455290,"DIS_CODE":0,"TOWNNAME":"永康區","LI":"西灣里","LIN":"39鄰","STREET":"永華路","SECT":" ","MAREA":" ","LANE":"２１２巷","ALLEY":" ","HOUSE_NO":"２４號三樓","E_COORD97":174165.19,"N_COORD97":2545448,"ADDRESS":"永華路２１２巷２４號三樓","OBJECTID":455265},"geometry":{"x":174165.19000000041,"y":2545447.9999999981}},{"attributes":{"ID":455291,"DIS_CODE":0,"TOWNNAME":"永康區","LI":"西灣里","LIN":"39鄰","STREET":"永華路","SECT":" ","MAREA":" ","LANE":"２１２巷","ALLEY":" ","HOUSE_NO":"２２號五樓","E_COORD97":174160.76999999999,"N_COORD97":2545436.75,"ADDRESS":"永華路２１２巷２２號五樓","OBJECTID":455266},"geometry":{"x":174160.76999999955,"y":2545436.7500000019}},{"attributes":{"ID":455292,"DIS_CODE":0,"TOWNNAME":"永康區","LI":"西灣里","LIN":"39鄰","STREET":"永華路","SECT":" ","MAREA":" ","LANE":"２１２巷","ALLEY":" ","HOUSE_NO":"１６號八樓","E_COORD97":174150.51000000001,"N_COORD97":2545438.25,"ADDRESS":"永華路２１２巷１６號八樓","OBJECTID":455267},"geometry":{"x":174150.50999999978,"y":2545438.25}},{"attributes":{"ID":455293,"DIS_CODE":0,"TOWNNAME":"永康區","LI":"西灣里","LIN":"39鄰","STREET":"永華路","SECT":" ","MAREA":" ","LANE":"２１２巷","ALLEY":" ","HOUSE_NO":"２６號二樓","E_COORD97":174167.07999999999,"N_COORD97":2545455.75,"ADDRESS":"永華路２１２巷２６號二樓","OBJECTID":455268},"geometry":{"x":174167.08000000101,"y":2545455.75}},{"attributes":{"ID":455294,"DIS_CODE":0,"TOWNNAME":"永康區","LI":"西灣里","LIN":"39鄰","STREET":"永華路","SECT":" ","MAREA":" ","LANE":"２１２巷","ALLEY":" ","HOUSE_NO":"２６號四樓","E_COORD97":174167.07999999999,"N_COORD97":2545455.75,"ADDRESS":"永華路２１２巷２６號四樓","OBJECTID":455269},"geometry":{"x":174167.08000000101,"y":2545455.75}},{"attributes":{"ID":455295,"DIS_CODE":0,"TOWNNAME":"永康區","LI":"西灣里","LIN":"39鄰","STREET":"永華路","SECT":" ","MAREA":" ","LANE":"２１２巷","ALLEY":" ","HOUSE_NO":"２２號二樓","E_COORD97":174160.76999999999,"N_COORD97":2545436.75,"ADDRESS":"永華路２１２巷２２號二樓","OBJECTID":455270},"geometry":{"x":174160.76999999955,"y":2545436.7500000019}},{"attributes":{"ID":455296,"DIS_CODE":0,"TOWNNAME":"永康區","LI":"西灣里","LIN":"39鄰","STREET":"永華路","SECT":" ","MAREA":" ","LANE":"２１２巷","ALLEY":" ","HOUSE_NO":"１８號七樓","E_COORD97":174147.98000000001,"N_COORD97":2545431.25,"ADDRESS":"永華路２１２巷１８號七樓","OBJECTID":455271},"geometry":{"x":174147.98000000045,"y":2545431.2500000019}},{"attributes":{"ID":455297,"DIS_CODE":0,"TOWNNAME":"永康區","LI":"西灣里","LIN":"39鄰","STREET":"永華路","SECT":" ","MAREA":" ","LANE":"２１２巷","ALLEY":" ","HOUSE_NO":"２４號二樓","E_COORD97":174165.19,"N_COORD97":2545448,"ADDRESS":"永華路２１２巷２４號二樓","OBJECTID":455272},"geometry":{"x":174165.19000000041,"y":2545447.9999999981}},{"attributes":{"ID":455298,"DIS_CODE":0,"TOWNNAME":"永康區","LI":"西灣里","LIN":"39鄰","STREET":"永華路","SECT":" ","MAREA":" ","LANE":"２１２巷","ALLEY":" ","HOUSE_NO":"２０號七樓","E_COORD97":174158.17999999999,"N_COORD97":2545429,"ADDRESS":"永華路２１２巷２０號七樓","OBJECTID":455273},"geometry":{"x":174158.1799999997,"y":2545429.0000000019}},{"attributes":{"ID":455299,"DIS_CODE":0,"TOWNNAME":"永康區","LI":"西灣里","LIN":"39鄰","STREET":"永華路","SECT":" ","MAREA":" ","LANE":"２１２巷","ALLEY":" ","HOUSE_NO":"１８號六樓","E_COORD97":174147.98000000001,"N_COORD97":2545431.25,"ADDRESS":"永華路２１２巷１８號六樓","OBJECTID":455274},"geometry":{"x":174147.98000000045,"y":2545431.2500000019}},{"attributes":{"ID":455300,"DIS_CODE":0,"TOWNNAME":"永康區","LI":"西灣里","LIN":"39鄰","STREET":"永華路","SECT":" ","MAREA":" ","LANE":"２１２巷","ALLEY":" ","HOUSE_NO":"２０號四樓","E_COORD97":174158.17999999999,"N_COORD97":2545429,"ADDRESS":"永華路２１２巷２０號四樓","OBJECTID":455275},"geometry":{"x":174158.1799999997,"y":2545429.0000000019}},{"attributes":{"ID":455301,"DIS_CODE":0,"TOWNNAME":"永康區","LI":"\u25A0行里","LIN":"39鄰","STREET":"永安路","SECT":" ","MAREA":" ","LANE":"１０５巷","ALLEY":" ","HOUSE_NO":"９號二樓","E_COORD97":172732.59,"N_COORD97":2549229.3799999999,"ADDRESS":"永安路１０５巷９號二樓","OBJECTID":455276},"geometry":{"x":172732.59000000078,"y":2549229.3800000008}},{"attributes":{"ID":455302,"DIS_CODE":0,"TOWNNAME":"永康區","LI":"\u25A0行里","LIN":"39鄰","STREET":"永安路","SECT":" ","MAREA":" ","LANE":"１０５巷","ALLEY":" ","HOUSE_NO":"９號五樓","E_COORD97":172732.59,"N_COORD97":2549229.3799999999,"ADDRESS":"永安路１０５巷９號五樓","OBJECTID":455277},"geometry":{"x":172732.59000000078,"y":2549229.3800000008}},{"attributes":{"ID":455303,"DIS_CODE":0,"TOWNNAME":"永康區","LI":"\u25A0行里","LIN":"39鄰","STREET":"永安路","SECT":" ","MAREA":" ","LANE":"１０５巷","ALLEY":" ","HOUSE_NO":"１３號三樓","E_COORD97":172735.13,"N_COORD97":2549201.3799999999,"ADDRESS":"永安路１０５巷１３號三樓","OBJECTID":455278},"geometry":{"x":172735.13000000175,"y":2549201.3800000008}},{"attributes":{"ID":455304,"DIS_CODE":0,"TOWNNAME":"永康區","LI":"\u25A0行里","LIN":"39鄰","STREET":"永安路","SECT":" ","MAREA":" ","LANE":"１０５巷","ALLEY":" ","HOUSE_NO":"３號六樓","E_COORD97":172731.82000000001,"N_COORD97":2549270.1200000001,"ADDRESS":"永安路１０５巷３號六樓","OBJECTID":455279},"geometry":{"x":172731.8200000003,"y":2549270.1200000029}},{"attributes":{"ID":455305,"DIS_CODE":0,"TOWNNAME":"永康區","LI":"\u25A0行里","LIN":"39鄰","STREET":"永安路","SECT":" ","MAREA":" ","LANE":"１０５巷","ALLEY":" ","HOUSE_NO":"１號三樓","E_COORD97":172731.06,"N_COORD97":2549283.6200000001,"ADDRESS":"永安路１０５巷１號三樓","OBJECTID":455280},"geometry":{"x":172731.05999999959,"y":2549283.6200000029}},{"attributes":{"ID":455306,"DIS_CODE":0,"TOWNNAME":"永康區","LI":"\u25A0行里","LIN":"39鄰","STREET":"永安路","SECT":" ","MAREA":" ","LANE":"１０５巷","ALLEY":" ","HOUSE_NO":"７號四樓","E_COORD97":172732.54999999999,"N_COORD97":2549235.6299999999,"ADDRESS":"永安路１０５巷７號四樓","OBJECTID":455281},"geometry":{"x":172732.55000000075,"y":2549235.629999999}},{"attributes":{"ID":455307,"DIS_CODE":0,"TOWNNAME":"永康區","LI":"\u25A0行里","LIN":"39鄰","STREET":"永安路","SECT":" ","MAREA":" ","LANE":"１０５巷","ALLEY":" ","HOUSE_NO":"３號四樓","E_COORD97":172731.82000000001,"N_COORD97":2549270.1200000001,"ADDRESS":"永安路１０５巷３號四樓","OBJECTID":455282},"geometry":{"x":172731.8200000003,"y":2549270.1200000029}},{"attributes":{"ID":455308,"DIS_CODE":0,"TOWNNAME":"永康區","LI":"\u25A0行里","LIN":"39鄰","STREET":"永安路","SECT":" ","MAREA":" ","LANE":"１０５巷","ALLEY":" ","HOUSE_NO":"２１號六樓","E_COORD97":172727.09,"N_COORD97":2549235.6299999999,"ADDRESS":"永安路１０５巷２１號六樓","OBJECTID":455283},"geometry":{"x":172727.09000000078,"y":2549235.629999999}},{"attributes":{"ID":455309,"DIS_CODE":0,"TOWNNAME":"永康區","LI":"\u25A0行里","LIN":"39鄰","STREET":"永安路","SECT":" ","MAREA":" ","LANE":"１０５巷","ALLEY":" ","HOUSE_NO":"５號二樓","E_COORD97":172731.42999999999,"N_COORD97":2549256.1200000001,"ADDRESS":"永安路１０５巷５號二樓","OBJECTID":455284},"geometry":{"x":172731.43000000063,"y":2549256.1200000048}},{"attributes":{"ID":455310,"DIS_CODE":0,"TOWNNAME":"永康區","LI":"\u25A0行里","LIN":"39鄰","STREET":"永安路","SECT":" ","MAREA":" ","LANE":"１０５巷","ALLEY":" ","HOUSE_NO":"２７號三樓","E_COORD97":172727.92999999999,"N_COORD97":2549201.3799999999,"ADDRESS":"永安路１０５巷２７號三樓","OBJECTID":455285},"geometry":{"x":172727.93000000063,"y":2549201.3800000008}},{"attributes":{"ID":455311,"DIS_CODE":0,"TOWNNAME":"永康區","LI":"\u25A0行里","LIN":"39鄰","STREET":"永安路","SECT":" ","MAREA":" ","LANE":"１０５巷","ALLEY":" ","HOUSE_NO":"３號二樓","E_COORD97":172731.82000000001,"N_COORD97":2549270.1200000001,"ADDRESS":"永安路１０５巷３號二樓","OBJECTID":455286},"geometry":{"x":172731.8200000003,"y":2549270.1200000029}},{"attributes":{"ID":455312,"DIS_CODE":0,"TOWNNAME":"永康區","LI":"勝利里","LIN":"39鄰","STREET":"勝華街","SECT":" ","MAREA":" ","LANE":"３７巷","ALLEY":" ","HOUSE_NO":"５６號三樓之９","E_COORD97":171422.60000000001,"N_COORD97":2545110.29,"ADDRESS":"勝華街３７巷５６號三樓之９","OBJECTID":455287},"geometry":{"x":171422.59999999963,"y":2545110.290000001}},{"attributes":{"ID":455313,"DIS_CODE":0,"TOWNNAME":"永康區","LI":"勝利里","LIN":"39鄰","STREET":"勝華街","SECT":" ","MAREA":" ","LANE":"３７巷","ALLEY":" ","HOUSE_NO":"５６號五樓之８","E_COORD97":171422.66,"N_COORD97":2545110.29,"ADDRESS":"勝華街３７巷５６號五樓之８","OBJECTID":455288},"geometry":{"x":171422.66000000015,"y":2545110.290000001}},{"attributes":{"ID":455314,"DIS_CODE":0,"TOWNNAME":"永康區","LI":"復華里","LIN":"39鄰","STREET":"復華七街","SECT":" ","MAREA":" ","LANE":"３２巷","ALLEY":" ","HOUSE_NO":"２１號","E_COORD97":172699.62,"N_COORD97":2545922.2799999998,"ADDRESS":"復華七街３２巷２１號","OBJECTID":455289},"geometry":{"x":172699.62000000011,"y":2545922.2799999993}},{"attributes":{"ID":455315,"DIS_CODE":0,"TOWNNAME":"永康區","LI":"復華里","LIN":"39鄰","STREET":"復華七街","SECT":" ","MAREA":" ","LANE":"３２巷","ALLEY":" ","HOUSE_NO":"１７號","E_COORD97":172698.07000000001,"N_COORD97":2545931.5299999998,"ADDRESS":"復華七街３２巷１７號","OBJECTID":455290},"geometry":{"x":172698.0700000003,"y":2545931.5299999993}},{"attributes":{"ID":455316,"DIS_CODE":0,"TOWNNAME":"永康區","LI":"五王里","LIN":"39鄰","STREET":"中華路","SECT":" ","MAREA":" ","LANE":"５７８巷","ALLEY":" ","HOUSE_NO":"１７號之１１５","E_COORD97":171334.97,"N_COORD97":2545989.54,"ADDRESS":"中華路５７８巷１７號之１１５","OBJECTID":455291},"geometry":{"x":171334.96999999974,"y":2545989.5400000028}},{"attributes":{"ID":455317,"DIS_CODE":0,"TOWNNAME":"永康區","LI":"五王里","LIN":"39鄰","STREET":"中華路","SECT":" ","MAREA":" ","LANE":"５７８巷","ALLEY":" ","HOUSE_NO":"１７號之１１７","E_COORD97":171334.89999999999,"N_COORD97":2545989.54,"ADDRESS":"中華路５７８巷１７號之１１７","OBJECTID":455292},"geometry":{"x":171334.90000000037,"y":2545989.5400000028}},{"attributes":{"ID":455318,"DIS_CODE":0,"TOWNNAME":"永康區","LI":"五王里","LIN":"39鄰","STREET":"中華路","SECT":" ","MAREA":" ","LANE":"５７８巷","ALLEY":" ","HOUSE_NO":"１７號之１２２","E_COORD97":171334.95000000001,"N_COORD97":2545989.54,"ADDRESS":"中華路５７８巷１７號之１２２","OBJECTID":455293},"geometry":{"x":171334.95000000112,"y":2545989.5400000028}},{"attributes":{"ID":455319,"DIS_CODE":0,"TOWNNAME":"仁德區","LI":"仁義里","LIN":"39鄰","STREET":"仁義五街","SECT":" ","MAREA":" ","LANE":"４４巷","ALLEY":" ","HOUSE_NO":"２３號","E_COORD97":173604.95000000001,"N_COORD97":2540375.0099999998,"ADDRESS":"仁義五街４４巷２３號","OBJECTID":455294},"geometry":{"x":173604.95000000112,"y":2540375.0099999998}},{"attributes":{"ID":455320,"DIS_CODE":0,"TOWNNAME":"新市區","LI":"新和里","LIN":"39鄰","STREET":"中正路","SECT":" ","MAREA":" ","LANE":"１９５巷","ALLEY":" ","HOUSE_NO":"１２號","E_COORD97":177303.92999999999,"N_COORD97":2552897.25,"ADDRESS":"中正路１９５巷１２號","OBJECTID":455295},"geometry":{"x":177303.9299999997,"y":2552897.25}},{"attributes":{"ID":455321,"DIS_CODE":0,"TOWNNAME":"永康區","LI":"二王里","LIN":"39鄰","STREET":"中山南路","SECT":" ","MAREA":" ","LANE":"３１６巷","ALLEY":" ","HOUSE_NO":"３７號","E_COORD97":171930.09,"N_COORD97":2546226.75,"ADDRESS":"中山南路３１６巷３７號","OBJECTID":455296},"geometry":{"x":171930.09000000171,"y":2546226.7500000019}},{"attributes":{"ID":455322,"DIS_CODE":0,"TOWNNAME":"永康區","LI":"五王里","LIN":"39鄰","STREET":"中華路","SECT":" ","MAREA":" ","LANE":"５７８巷","ALLEY":" ","HOUSE_NO":"１７號之８５","E_COORD97":171333.72,"N_COORD97":2545989.54,"ADDRESS":"中華路５７８巷１７號之８５","OBJECTID":455297},"geometry":{"x":171333.71999999974,"y":2545989.5400000028}},{"attributes":{"ID":455323,"DIS_CODE":0,"TOWNNAME":"永康區","LI":"五王里","LIN":"39鄰","STREET":"中華路","SECT":" ","MAREA":" ","LANE":"５７８巷","ALLEY":" ","HOUSE_NO":"１７號之１１１","E_COORD97":171334.82000000001,"N_COORD97":2545989.54,"ADDRESS":"中華路５７８巷１７號之１１１","OBJECTID":455298},"geometry":{"x":171334.82000000123,"y":2545989.5400000028}},{"attributes":{"ID":455324,"DIS_CODE":0,"TOWNNAME":"永康區","LI":"五王里","LIN":"39鄰","STREET":"中華路","SECT":" ","MAREA":" ","LANE":"５７８巷","ALLEY":" ","HOUSE_NO":"１７號之１０５","E_COORD97":171334.97,"N_COORD97":2545989.54,"ADDRESS":"中華路５７８巷１７號之１０５","OBJECTID":455299},"geometry":{"x":171334.96999999974,"y":2545989.5400000028}},{"attributes":{"ID":455325,"DIS_CODE":0,"TOWNNAME":"永康區","LI":"五王里","LIN":"39鄰","STREET":"中華路","SECT":" ","MAREA":" ","LANE":"５７８巷","ALLEY":" ","HOUSE_NO":"１７號之６９","E_COORD97":171333.64999999999,"N_COORD97":2545989.54,"ADDRESS":"中華路５７８巷１７號之６９","OBJECTID":455300},"geometry":{"x":171333.65000000224,"y":2545989.5400000028}},{"attributes":{"ID":455326,"DIS_CODE":0,"TOWNNAME":"永康區","LI":"五王里","LIN":"39鄰","STREET":"中華路","SECT":" ","MAREA":" ","LANE":"５７８巷","ALLEY":" ","HOUSE_NO":"１７號之１１０","E_COORD97":171334.87,"N_COORD97":2545989.54,"ADDRESS":"中華路５７８巷１７號之１１０","OBJECTID":455301},"geometry":{"x":171334.87000000011,"y":2545989.5400000028}},{"attributes":{"ID":455327,"DIS_CODE":0,"TOWNNAME":"永康區","LI":"五王里","LIN":"39鄰","STREET":"中華路","SECT":" ","MAREA":" ","LANE":"５７８巷","ALLEY":" ","HOUSE_NO":"１７號之５７","E_COORD97":171333.64999999999,"N_COORD97":2545989.54,"ADDRESS":"中華路５７８巷１７號之５７","OBJECTID":455302},"geometry":{"x":171333.65000000224,"y":2545989.5400000028}},{"attributes":{"ID":455328,"DIS_CODE":0,"TOWNNAME":"永康區","LI":"五王里","LIN":"39鄰","STREET":"中華路","SECT":" ","MAREA":" ","LANE":"５７８巷","ALLEY":" ","HOUSE_NO":"１７號之７２","E_COORD97":171333.70000000001,"N_COORD97":2545989.54,"ADDRESS":"中華路５７８巷１７號之７２","OBJECTID":455303},"geometry":{"x":171333.70000000112,"y":2545989.5400000028}},{"attributes":{"ID":455329,"DIS_CODE":0,"TOWNNAME":"永康區","LI":"崑山里","LIN":"39鄰","STREET":"崑山街","SECT":" ","MAREA":" ","LANE":"２００巷","ALLEY":" ","HOUSE_NO":"２２號","E_COORD97":174139.03,"N_COORD97":2544966.0299999998,"ADDRESS":"崑山街２００巷２２號","OBJECTID":455304},"geometry":{"x":174139.03000000026,"y":2544966.0300000031}},{"attributes":{"ID":455330,"DIS_CODE":0,"TOWNNAME":"永康區","LI":"勝利里","LIN":"39鄰","STREET":"勝華街","SECT":" ","MAREA":" ","LANE":"３７巷","ALLEY":" ","HOUSE_NO":"４０號","E_COORD97":171437.04999999999,"N_COORD97":2545133.8500000001,"ADDRESS":"勝華街３７巷４０號","OBJECTID":455305},"geometry":{"x":171437.05000000168,"y":2545133.8500000015}},{"attributes":{"ID":455331,"DIS_CODE":0,"TOWNNAME":"永康區","LI":"勝利里","LIN":"39鄰","STREET":"勝華街","SECT":" ","MAREA":" ","LANE":"３７巷","ALLEY":" ","HOUSE_NO":"１８號","E_COORD97":171441.29999999999,"N_COORD97":2545171.6099999999,"ADDRESS":"勝華街３７巷１８號","OBJECTID":455306},"geometry":{"x":171441.29999999981,"y":2545171.6099999994}},{"attributes":{"ID":455332,"DIS_CODE":0,"TOWNNAME":"中西區","LI":"文賢里","LIN":"8鄰","STREET":"和善街","SECT":" ","MAREA":" ","LANE":"８４巷","ALLEY":" ","HOUSE_NO":"９號","E_COORD97":166990.39999999999,"N_COORD97":2544778.3500000001,"ADDRESS":"和善街８４巷９號","OBJECTID":455307},"geometry":{"x":166990.40000000224,"y":2544778.3500000015}},{"attributes":{"ID":455333,"DIS_CODE":0,"TOWNNAME":"永康區","LI":"復華里","LIN":"39鄰","STREET":"復華七街","SECT":" ","MAREA":" ","LANE":"３２巷","ALLEY":" ","HOUSE_NO":"１１號","E_COORD97":172693.42000000001,"N_COORD97":2545943.27,"ADDRESS":"復華七街３２巷１１號","OBJECTID":455308},"geometry":{"x":172693.41999999993,"y":2545943.2699999996}},{"attributes":{"ID":455334,"DIS_CODE":0,"TOWNNAME":"永康區","LI":"復華里","LIN":"39鄰","STREET":"復華七街","SECT":" ","MAREA":" ","LANE":"３２巷","ALLEY":" ","HOUSE_NO":"１９號","E_COORD97":172699.01000000001,"N_COORD97":2545928.7799999998,"ADDRESS":"復華七街３２巷１９號","OBJECTID":455309},"geometry":{"x":172699.01000000071,"y":2545928.7799999993}},{"attributes":{"ID":455335,"DIS_CODE":0,"TOWNNAME":"永康區","LI":"勝利里","LIN":"39鄰","STREET":"勝華街","SECT":" ","MAREA":" ","LANE":"３７巷","ALLEY":" ","HOUSE_NO":"４６號","E_COORD97":171437.51000000001,"N_COORD97":2545119.5,"ADDRESS":"勝華街３７巷４６號","OBJECTID":455310},"geometry":{"x":171437.51000000071,"y":2545119.5000000037}},{"attributes":{"ID":455336,"DIS_CODE":0,"TOWNNAME":"永康區","LI":"勝利里","LIN":"39鄰","STREET":"勝華街","SECT":" ","MAREA":" ","LANE":"３７巷","ALLEY":" ","HOUSE_NO":"２２號","E_COORD97":171441.09,"N_COORD97":2545163.3599999999,"ADDRESS":"勝華街３７巷２２號","OBJECTID":455311},"geometry":{"x":171441.08999999985,"y":2545163.3599999994}},{"attributes":{"ID":455337,"DIS_CODE":0,"TOWNNAME":"永康區","LI":"勝利里","LIN":"39鄰","STREET":"勝華街","SECT":" ","MAREA":" ","LANE":"３７巷","ALLEY":" ","HOUSE_NO":"５８號","E_COORD97":171436.19,"N_COORD97":2545089.7599999998,"ADDRESS":"勝華街３７巷５８號","OBJECTID":455312},"geometry":{"x":171436.19000000041,"y":2545089.7599999998}},{"attributes":{"ID":455338,"DIS_CODE":0,"TOWNNAME":"仁德區","LI":"後壁里","LIN":"39鄰","STREET":"德糖路","SECT":" ","MAREA":" ","LANE":"３４１巷","ALLEY":" ","HOUSE_NO":"１７號","E_COORD97":173537.87,"N_COORD97":2539117.8100000001,"ADDRESS":"德糖路３４１巷１７號","OBJECTID":455313},"geometry":{"x":173537.87000000104,"y":2539117.8100000024}},{"attributes":{"ID":455339,"DIS_CODE":0,"TOWNNAME":"永康區","LI":"埔園里","LIN":"39鄰","STREET":"聖龍街","SECT":" ","MAREA":" ","LANE":"１６５巷","ALLEY":" ","HOUSE_NO":"２號","E_COORD97":174280.23000000001,"N_COORD97":2547872.6000000001,"ADDRESS":"聖龍街１６５巷２號","OBJECTID":455314},"geometry":{"x":174280.23000000045,"y":2547872.6000000015}},{"attributes":{"ID":455340,"DIS_CODE":0,"TOWNNAME":"仁德區","LI":"後壁里","LIN":"39鄰","STREET":"德糖路","SECT":" ","MAREA":" ","LANE":"４０７巷","ALLEY":" ","HOUSE_NO":"３０號","E_COORD97":173420.09,"N_COORD97":2539040.2599999998,"ADDRESS":"德糖路４０７巷３０號","OBJECTID":455315},"geometry":{"x":173420.09000000171,"y":2539040.2599999998}},{"attributes":{"ID":455341,"DIS_CODE":0,"TOWNNAME":"永康區","LI":"五王里","LIN":"39鄰","STREET":"中華路","SECT":" ","MAREA":" ","LANE":"５７８巷","ALLEY":" ","HOUSE_NO":"１７號之１２５","E_COORD97":171334.97,"N_COORD97":2545989.54,"ADDRESS":"中華路５７８巷１７號之１２５","OBJECTID":455316},"geometry":{"x":171334.96999999974,"y":2545989.5400000028}},{"attributes":{"ID":455342,"DIS_CODE":0,"TOWNNAME":"永康區","LI":"埔園里","LIN":"39鄰","STREET":"聖龍街","SECT":" ","MAREA":" ","LANE":"１６５巷","ALLEY":" ","HOUSE_NO":"１５號","E_COORD97":174271.48999999999,"N_COORD97":2547915.1800000002,"ADDRESS":"聖龍街１６５巷１５號","OBJECTID":455317},"geometry":{"x":174271.49000000022,"y":2547915.1800000016}},{"attributes":{"ID":455343,"DIS_CODE":0,"TOWNNAME":"永康區","LI":"埔園里","LIN":"39鄰","STREET":"聖龍街","SECT":" ","MAREA":" ","LANE":"１６５巷","ALLEY":" ","HOUSE_NO":"２０號","E_COORD97":174292.97,"N_COORD97":2547910.8700000001,"ADDRESS":"聖龍街１６５巷２０號","OBJECTID":455318},"geometry":{"x":174292.97000000067,"y":2547910.870000001}},{"attributes":{"ID":455344,"DIS_CODE":0,"TOWNNAME":"永康區","LI":"埔園里","LIN":"39鄰","STREET":"聖龍街","SECT":" ","MAREA":" ","LANE":"１７９巷","ALLEY":" ","HOUSE_NO":"５號","E_COORD97":174298.69,"N_COORD97":2547880.3500000001,"ADDRESS":"聖龍街１７９巷５號","OBJECTID":455319},"geometry":{"x":174298.69000000134,"y":2547880.3500000015}},{"attributes":{"ID":455345,"DIS_CODE":0,"TOWNNAME":"永康區","LI":"埔園里","LIN":"39鄰","STREET":"聖龍街","SECT":" ","MAREA":" ","LANE":"１６５巷","ALLEY":" ","HOUSE_NO":"１９號","E_COORD97":174278.79000000001,"N_COORD97":2547926.4300000002,"ADDRESS":"聖龍街１６５巷１９號","OBJECTID":455320},"geometry":{"x":174278.79000000097,"y":2547926.4299999997}},{"attributes":{"ID":455346,"DIS_CODE":0,"TOWNNAME":"永康區","LI":"埔園里","LIN":"39鄰","STREET":"聖龍街","SECT":" ","MAREA":" ","LANE":"１７９巷","ALLEY":" ","HOUSE_NO":"９號","E_COORD97":174295.94,"N_COORD97":2547890.8500000001,"ADDRESS":"聖龍街１７９巷９號","OBJECTID":455321},"geometry":{"x":174295.94000000041,"y":2547890.8500000015}},{"attributes":{"ID":455347,"DIS_CODE":0,"TOWNNAME":"永康區","LI":"埔園里","LIN":"39鄰","STREET":"聖龍街","SECT":" ","MAREA":" ","LANE":"１６５巷","ALLEY":" ","HOUSE_NO":"８號","E_COORD97":174281.69,"N_COORD97":2547881.1000000001,"ADDRESS":"聖龍街１６５巷８號","OBJECTID":455322},"geometry":{"x":174281.69000000134,"y":2547881.0999999996}},{"attributes":{"ID":455348,"DIS_CODE":0,"TOWNNAME":"永康區","LI":"埔園里","LIN":"39鄰","STREET":"聖龍街","SECT":" ","MAREA":" ","LANE":"１６５巷","ALLEY":" ","HOUSE_NO":"１８號","E_COORD97":174285.29999999999,"N_COORD97":2547898.1000000001,"ADDRESS":"聖龍街１６５巷１８號","OBJECTID":455323},"geometry":{"x":174285.30000000075,"y":2547898.0999999996}},{"attributes":{"ID":455349,"DIS_CODE":0,"TOWNNAME":"永康區","LI":"埔園里","LIN":"39鄰","STREET":"聖龍街","SECT":" ","MAREA":" ","LANE":"１６５巷","ALLEY":" ","HOUSE_NO":"１２號","E_COORD97":174283.85000000001,"N_COORD97":2547889.8500000001,"ADDRESS":"聖龍街１６５巷１２號","OBJECTID":455324},"geometry":{"x":174283.84999999963,"y":2547889.8500000034}},{"attributes":{"ID":455350,"DIS_CODE":0,"TOWNNAME":"永康區","LI":"崑山里","LIN":"39鄰","STREET":"崑山街","SECT":" ","MAREA":" ","LANE":"２００巷","ALLEY":" ","HOUSE_NO":"４號","E_COORD97":174096.57999999999,"N_COORD97":2544980.6600000001,"ADDRESS":"崑山街２００巷４號","OBJECTID":455325},"geometry":{"x":174096.58000000007,"y":2544980.660000002}},{"attributes":{"ID":455351,"DIS_CODE":0,"TOWNNAME":"永康區","LI":"埔園里","LIN":"39鄰","STREET":"聖龍街","SECT":" ","MAREA":" ","LANE":"１６５巷","ALLEY":" ","HOUSE_NO":"３６號","E_COORD97":174290.13,"N_COORD97":2547939.6200000001,"ADDRESS":"聖龍街１６５巷３６號","OBJECTID":455326},"geometry":{"x":174290.13000000082,"y":2547939.620000001}},{"attributes":{"ID":455352,"DIS_CODE":0,"TOWNNAME":"永康區","LI":"崑山里","LIN":"39鄰","STREET":"崑山街","SECT":" ","MAREA":" ","LANE":"１７８巷","ALLEY":" ","HOUSE_NO":"１１號","E_COORD97":174117.38,"N_COORD97":2544932.7400000002,"ADDRESS":"崑山街１７８巷１１號","OBJECTID":455327},"geometry":{"x":174117.38000000082,"y":2544932.7400000021}},{"attributes":{"ID":455353,"DIS_CODE":0,"TOWNNAME":"永康區","LI":"埔園里","LIN":"39鄰","STREET":"聖龍街","SECT":" ","MAREA":" ","LANE":"１６５巷","ALLEY":" ","HOUSE_NO":"２５號","E_COORD97":174280.66,"N_COORD97":2547938.6800000002,"ADDRESS":"聖龍街１６５巷２５號","OBJECTID":455328},"geometry":{"x":174280.66000000015,"y":2547938.6800000034}},{"attributes":{"ID":455354,"DIS_CODE":0,"TOWNNAME":"永康區","LI":"埔園里","LIN":"39鄰","STREET":"聖龍街","SECT":" ","MAREA":" ","LANE":"１６５巷","ALLEY":" ","HOUSE_NO":"３２號","E_COORD97":174289.63,"N_COORD97":2547935.3700000001,"ADDRESS":"聖龍街１６５巷３２號","OBJECTID":455329},"geometry":{"x":174289.63000000175,"y":2547935.3700000048}},{"attributes":{"ID":455355,"DIS_CODE":0,"TOWNNAME":"永康區","LI":"埔園里","LIN":"39鄰","STREET":"聖龍街","SECT":" ","MAREA":" ","LANE":"１６５巷","ALLEY":" ","HOUSE_NO":"１６號","E_COORD97":174284.59,"N_COORD97":2547893.8500000001,"ADDRESS":"聖龍街１６５巷１６號","OBJECTID":455330},"geometry":{"x":174284.58999999892,"y":2547893.8500000015}},{"attributes":{"ID":455356,"DIS_CODE":0,"TOWNNAME":"永康區","LI":"埔園里","LIN":"39鄰","STREET":"聖龍街","SECT":" ","MAREA":" ","LANE":"１６５巷","ALLEY":" ","HOUSE_NO":"２７號","E_COORD97":174280.92000000001,"N_COORD97":2547942.6800000002,"ADDRESS":"聖龍街１６５巷２７號","OBJECTID":455331},"geometry":{"x":174280.92000000179,"y":2547942.6800000016}},{"attributes":{"ID":455357,"DIS_CODE":0,"TOWNNAME":"永康區","LI":"埔園里","LIN":"39鄰","STREET":"聖龍街","SECT":" ","MAREA":" ","LANE":"１６５巷","ALLEY":" ","HOUSE_NO":"５號","E_COORD97":174272.73999999999,"N_COORD97":2547883.2999999998,"ADDRESS":"聖龍街１６５巷５號","OBJECTID":455332},"geometry":{"x":174272.74000000115,"y":2547883.3000000007}},{"attributes":{"ID":455358,"DIS_CODE":0,"TOWNNAME":"北區","LI":"成德里","LIN":"39鄰","STREET":"文成五街","SECT":" ","MAREA":" ","LANE":"１７６巷","ALLEY":" ","HOUSE_NO":"５號","E_COORD97":168279.04000000001,"N_COORD97":2546550.2799999998,"ADDRESS":"文成五街１７６巷５號","OBJECTID":455333},"geometry":{"x":168279.04000000004,"y":2546550.2799999993}},{"attributes":{"ID":455359,"DIS_CODE":0,"TOWNNAME":"北區","LI":"成德里","LIN":"39鄰","STREET":"文成五街","SECT":" ","MAREA":" ","LANE":"１７６巷","ALLEY":" ","HOUSE_NO":"６號","E_COORD97":168297.57999999999,"N_COORD97":2546549.2599999998,"ADDRESS":"文成五街１７６巷６號","OBJECTID":455334},"geometry":{"x":168297.58000000194,"y":2546549.2600000016}},{"attributes":{"ID":455360,"DIS_CODE":0,"TOWNNAME":"北區","LI":"成德里","LIN":"39鄰","STREET":"文成五街","SECT":" ","MAREA":" ","LANE":"１７６巷","ALLEY":" ","HOUSE_NO":"８號","E_COORD97":168295.54999999999,"N_COORD97":2546555.3599999999,"ADDRESS":"文成五街１７６巷８號","OBJECTID":455335},"geometry":{"x":168295.54999999981,"y":2546555.3600000013}},{"attributes":{"ID":455361,"DIS_CODE":0,"TOWNNAME":"北區","LI":"成德里","LIN":"39鄰","STREET":"文成五街","SECT":" ","MAREA":" ","LANE":"１７６巷","ALLEY":" ","HOUSE_NO":"７號","E_COORD97":168277.51999999999,"N_COORD97":2546555.8700000001,"ADDRESS":"文成五街１７６巷７號","OBJECTID":455336},"geometry":{"x":168277.52000000048,"y":2546555.8700000029}},{"attributes":{"ID":455362,"DIS_CODE":0,"TOWNNAME":"北區","LI":"成德里","LIN":"39鄰","STREET":"文成五街","SECT":" ","MAREA":" ","LANE":"１７６巷","ALLEY":" ","HOUSE_NO":"９號","E_COORD97":168275.73999999999,"N_COORD97":2546561.71,"ADDRESS":"文成五街１７６巷９號","OBJECTID":455337},"geometry":{"x":168275.74000000022,"y":2546561.7100000009}},{"attributes":{"ID":455363,"DIS_CODE":0,"TOWNNAME":"北區","LI":"成德里","LIN":"39鄰","STREET":"文成五街","SECT":" ","MAREA":" ","LANE":"１７６巷","ALLEY":" ","HOUSE_NO":"１０號","E_COORD97":168294.03,"N_COORD97":2546561.46,"ADDRESS":"文成五街１７６巷１０號","OBJECTID":455338},"geometry":{"x":168294.03000000026,"y":2546561.4600000046}},{"attributes":{"ID":455364,"DIS_CODE":0,"TOWNNAME":"北區","LI":"成德里","LIN":"39鄰","STREET":"文成五街","SECT":" ","MAREA":" ","LANE":"１７６巷","ALLEY":" ","HOUSE_NO":"１１號","E_COORD97":168273.95999999999,"N_COORD97":2546567.5499999998,"ADDRESS":"文成五街１７６巷１１號","OBJECTID":455339},"geometry":{"x":168273.95999999996,"y":2546567.5500000045}},{"attributes":{"ID":455365,"DIS_CODE":0,"TOWNNAME":"東區","LI":"和平里","LIN":"1鄰","STREET":"仁和路","SECT":" ","MAREA":" ","LANE":" ","ALLEY":" ","HOUSE_NO":"３７號二樓","E_COORD97":171099.45000000001,"N_COORD97":2542097.2200000002,"ADDRESS":"仁和路３７號二樓","OBJECTID":455340},"geometry":{"x":171099.45000000112,"y":2542097.2200000007}},{"attributes":{"ID":455366,"DIS_CODE":0,"TOWNNAME":"北區","LI":"成德里","LIN":"39鄰","STREET":"文成五街","SECT":" ","MAREA":" ","LANE":"１７６巷","ALLEY":" ","HOUSE_NO":"１２號","E_COORD97":168292.76000000001,"N_COORD97":2546567.5499999998,"ADDRESS":"文成五街１７６巷１２號","OBJECTID":455341},"geometry":{"x":168292.76000000164,"y":2546567.5500000045}},{"attributes":{"ID":455367,"DIS_CODE":0,"TOWNNAME":"北區","LI":"成德里","LIN":"39鄰","STREET":"文成五街","SECT":" ","MAREA":" ","LANE":"１７６巷","ALLEY":" ","HOUSE_NO":"１３號","E_COORD97":168272.69,"N_COORD97":2546573.1400000001,"ADDRESS":"文成五街１７６巷１３號","OBJECTID":455342},"geometry":{"x":168272.69000000041,"y":2546573.1400000006}},{"attributes":{"ID":455368,"DIS_CODE":0,"TOWNNAME":"北區","LI":"成德里","LIN":"39鄰","STREET":"文成五街","SECT":" ","MAREA":" ","LANE":"１７６巷","ALLEY":" ","HOUSE_NO":"１５號","E_COORD97":168270.91,"N_COORD97":2546578.73,"ADDRESS":"文成五街１７６巷１５號","OBJECTID":455343},"geometry":{"x":168270.91000000015,"y":2546578.7300000004}},{"attributes":{"ID":455369,"DIS_CODE":0,"TOWNNAME":"北區","LI":"成德里","LIN":"39鄰","STREET":"文成五街","SECT":" ","MAREA":" ","LANE":"１７６巷","ALLEY":" ","HOUSE_NO":"１６號","E_COORD97":168290.72,"N_COORD97":2546573.6499999999,"ADDRESS":"文成五街１７６巷１６號","OBJECTID":455344},"geometry":{"x":168290.71999999974,"y":2546573.6500000022}},{"attributes":{"ID":455370,"DIS_CODE":0,"TOWNNAME":"北區","LI":"成德里","LIN":"39鄰","STREET":"文成五街","SECT":" ","MAREA":" ","LANE":"１７６巷","ALLEY":" ","HOUSE_NO":"１８號","E_COORD97":168289.20000000001,"N_COORD97":2546578.98,"ADDRESS":"文成五街１７６巷１８號","OBJECTID":455345},"geometry":{"x":168289.20000000112,"y":2546578.9800000023}},{"attributes":{"ID":455371,"DIS_CODE":0,"TOWNNAME":"北區","LI":"成德里","LIN":"39鄰","STREET":"文成五街","SECT":" ","MAREA":" ","LANE":"１７６巷","ALLEY":" ","HOUSE_NO":"２０號","E_COORD97":168287.92999999999,"N_COORD97":2546584.3199999998,"ADDRESS":"文成五街１７６巷２０號","OBJECTID":455346},"geometry":{"x":168287.92999999877,"y":2546584.3200000003}},{"attributes":{"ID":455372,"DIS_CODE":0,"TOWNNAME":"永康區","LI":"勝利里","LIN":"39鄰","STREET":"勝華街","SECT":" ","MAREA":" ","LANE":"３７巷","ALLEY":" ","HOUSE_NO":"５６號六樓之９","E_COORD97":171422.60000000001,"N_COORD97":2545110.29,"ADDRESS":"勝華街３７巷５６號六樓之９","OBJECTID":455347},"geometry":{"x":171422.59999999963,"y":2545110.290000001}},{"attributes":{"ID":455373,"DIS_CODE":0,"TOWNNAME":"永康區","LI":"勝利里","LIN":"39鄰","STREET":"勝華街","SECT":" ","MAREA":" ","LANE":"３７巷","ALLEY":" ","HOUSE_NO":"５６號五樓之７","E_COORD97":171422.59,"N_COORD97":2545110.29,"ADDRESS":"勝華街３７巷５６號五樓之７","OBJECTID":455348},"geometry":{"x":171422.58999999985,"y":2545110.290000001}},{"attributes":{"ID":455374,"DIS_CODE":0,"TOWNNAME":"永康區","LI":"勝利里","LIN":"39鄰","STREET":"勝華街","SECT":" ","MAREA":" ","LANE":"３７巷","ALLEY":" ","HOUSE_NO":"５６號二樓之１","E_COORD97":171422.51000000001,"N_COORD97":2545110.29,"ADDRESS":"勝華街３７巷５６號二樓之１","OBJECTID":455349},"geometry":{"x":171422.51000000071,"y":2545110.290000001}},{"attributes":{"ID":455375,"DIS_CODE":0,"TOWNNAME":"永康區","LI":"勝利里","LIN":"39鄰","STREET":"勝華街","SECT":" ","MAREA":" ","LANE":"３７巷","ALLEY":" ","HOUSE_NO":"５６號四樓之１０","E_COORD97":171423.81,"N_COORD97":2545110.29,"ADDRESS":"勝華街３７巷５６號四樓之１０","OBJECTID":455350},"geometry":{"x":171423.81000000052,"y":2545110.290000001}},{"attributes":{"ID":455376,"DIS_CODE":0,"TOWNNAME":"永康區","LI":"勝利里","LIN":"39鄰","STREET":"勝華街","SECT":" ","MAREA":" ","LANE":"３７巷","ALLEY":" ","HOUSE_NO":"５６號四樓之６","E_COORD97":171422.62,"N_COORD97":2545110.29,"ADDRESS":"勝華街３７巷５６號四樓之６","OBJECTID":455351},"geometry":{"x":171422.62000000011,"y":2545110.290000001}},{"attributes":{"ID":455377,"DIS_CODE":0,"TOWNNAME":"永康區","LI":"勝利里","LIN":"39鄰","STREET":"勝華街","SECT":" ","MAREA":" ","LANE":"３７巷","ALLEY":" ","HOUSE_NO":"５６號二樓之６","E_COORD97":171422.62,"N_COORD97":2545110.29,"ADDRESS":"勝華街３７巷５６號二樓之６","OBJECTID":455352},"geometry":{"x":171422.62000000011,"y":2545110.290000001}},{"attributes":{"ID":455378,"DIS_CODE":0,"TOWNNAME":"永康區","LI":"勝利里","LIN":"39鄰","STREET":"勝華街","SECT":" ","MAREA":" ","LANE":"３７巷","ALLEY":" ","HOUSE_NO":"５６號四樓之１１","E_COORD97":171423.76000000001,"N_COORD97":2545110.29,"ADDRESS":"勝華街３７巷５６號四樓之１１","OBJECTID":455353},"geometry":{"x":171423.76000000164,"y":2545110.290000001}},{"attributes":{"ID":455379,"DIS_CODE":0,"TOWNNAME":"永康區","LI":"勝利里","LIN":"39鄰","STREET":"勝華街","SECT":" ","MAREA":" ","LANE":"３７巷","ALLEY":" ","HOUSE_NO":"５６號三樓之３","E_COORD97":171422.60999999999,"N_COORD97":2545110.29,"ADDRESS":"勝華街３７巷５６號三樓之３","OBJECTID":455354},"geometry":{"x":171422.61000000127,"y":2545110.290000001}},{"attributes":{"ID":455380,"DIS_CODE":0,"TOWNNAME":"永康區","LI":"勝利里","LIN":"39鄰","STREET":"勝華街","SECT":" ","MAREA":" ","LANE":"３７巷","ALLEY":" ","HOUSE_NO":"５６號二樓之２","E_COORD97":171422.64999999999,"N_COORD97":2545110.29,"ADDRESS":"勝華街３７巷５６號二樓之２","OBJECTID":455355},"geometry":{"x":171422.65000000037,"y":2545110.290000001}},{"attributes":{"ID":455381,"DIS_CODE":0,"TOWNNAME":"永康區","LI":"勝利里","LIN":"39鄰","STREET":"勝華街","SECT":" ","MAREA":" ","LANE":"３７巷","ALLEY":" ","HOUSE_NO":"５６號三樓之５","E_COORD97":171422.67000000001,"N_COORD97":2545110.29,"ADDRESS":"勝華街３７巷５６號三樓之５","OBJECTID":455356},"geometry":{"x":171422.66999999899,"y":2545110.290000001}},{"attributes":{"ID":455382,"DIS_CODE":0,"TOWNNAME":"永康區","LI":"勝利里","LIN":"39鄰","STREET":"勝華街","SECT":" ","MAREA":" ","LANE":"３７巷","ALLEY":" ","HOUSE_NO":"５６號六樓之１","E_COORD97":171422.51000000001,"N_COORD97":2545110.29,"ADDRESS":"勝華街３７巷５６號六樓之１","OBJECTID":455357},"geometry":{"x":171422.51000000071,"y":2545110.290000001}},{"attributes":{"ID":455383,"DIS_CODE":0,"TOWNNAME":"永康區","LI":"勝利里","LIN":"39鄰","STREET":"勝華街","SECT":" ","MAREA":" ","LANE":"３７巷","ALLEY":" ","HOUSE_NO":"５６號七樓之３","E_COORD97":171422.60999999999,"N_COORD97":2545110.29,"ADDRESS":"勝華街３７巷５６號七樓之３","OBJECTID":455358},"geometry":{"x":171422.61000000127,"y":2545110.290000001}},{"attributes":{"ID":455384,"DIS_CODE":0,"TOWNNAME":"永康區","LI":"勝利里","LIN":"39鄰","STREET":"勝華街","SECT":" ","MAREA":" ","LANE":"３７巷","ALLEY":" ","HOUSE_NO":"５６號八樓之２","E_COORD97":171422.64999999999,"N_COORD97":2545110.29,"ADDRESS":"勝華街３７巷５６號八樓之２","OBJECTID":455359},"geometry":{"x":171422.65000000037,"y":2545110.290000001}},{"attributes":{"ID":455385,"DIS_CODE":0,"TOWNNAME":"永康區","LI":"勝利里","LIN":"39鄰","STREET":"勝華街","SECT":" ","MAREA":" ","LANE":"３７巷","ALLEY":" ","HOUSE_NO":"５６號五樓之２","E_COORD97":171422.64999999999,"N_COORD97":2545110.29,"ADDRESS":"勝華街３７巷５６號五樓之２","OBJECTID":455360},"geometry":{"x":171422.65000000037,"y":2545110.290000001}},{"attributes":{"ID":455386,"DIS_CODE":0,"TOWNNAME":"永康區","LI":"勝利里","LIN":"39鄰","STREET":"勝華街","SECT":" ","MAREA":" ","LANE":"３７巷","ALLEY":" ","HOUSE_NO":"５６號十樓之１","E_COORD97":171422.51000000001,"N_COORD97":2545110.29,"ADDRESS":"勝華街３７巷５６號十樓之１","OBJECTID":455361},"geometry":{"x":171422.51000000071,"y":2545110.290000001}},{"attributes":{"ID":455387,"DIS_CODE":0,"TOWNNAME":"永康區","LI":"勝利里","LIN":"39鄰","STREET":"勝華街","SECT":" ","MAREA":" ","LANE":"３７巷","ALLEY":" ","HOUSE_NO":"５６號三樓之８","E_COORD97":171422.66,"N_COORD97":2545110.29,"ADDRESS":"勝華街３７巷５６號三樓之８","OBJECTID":455362},"geometry":{"x":171422.66000000015,"y":2545110.290000001}},{"attributes":{"ID":455388,"DIS_CODE":0,"TOWNNAME":"永康區","LI":"勝利里","LIN":"39鄰","STREET":"勝華街","SECT":" ","MAREA":" ","LANE":"３７巷","ALLEY":" ","HOUSE_NO":"５６號八樓之８","E_COORD97":171422.66,"N_COORD97":2545110.29,"ADDRESS":"勝華街３７巷５６號八樓之８","OBJECTID":455363},"geometry":{"x":171422.66000000015,"y":2545110.290000001}},{"attributes":{"ID":455389,"DIS_CODE":0,"TOWNNAME":"永康區","LI":"勝利里","LIN":"39鄰","STREET":"勝華街","SECT":" ","MAREA":" ","LANE":"３７巷","ALLEY":" ","HOUSE_NO":"５６號十樓之９","E_COORD97":171422.60000000001,"N_COORD97":2545110.29,"ADDRESS":"勝華街３７巷５６號十樓之９","OBJECTID":455364},"geometry":{"x":171422.59999999963,"y":2545110.290000001}},{"attributes":{"ID":455390,"DIS_CODE":0,"TOWNNAME":"永康區","LI":"勝利里","LIN":"39鄰","STREET":"勝華街","SECT":" ","MAREA":" ","LANE":"３７巷","ALLEY":" ","HOUSE_NO":"５６號八樓之１０","E_COORD97":171423.81,"N_COORD97":2545110.29,"ADDRESS":"勝華街３７巷５６號八樓之１０","OBJECTID":455365},"geometry":{"x":171423.81000000052,"y":2545110.290000001}},{"attributes":{"ID":455391,"DIS_CODE":0,"TOWNNAME":"永康區","LI":"勝利里","LIN":"39鄰","STREET":"勝華街","SECT":" ","MAREA":" ","LANE":"３７巷","ALLEY":" ","HOUSE_NO":"５６號四樓之８","E_COORD97":171422.66,"N_COORD97":2545110.29,"ADDRESS":"勝華街３７巷５６號四樓之８","OBJECTID":455366},"geometry":{"x":171422.66000000015,"y":2545110.290000001}},{"attributes":{"ID":455392,"DIS_CODE":0,"TOWNNAME":"永康區","LI":"勝利里","LIN":"39鄰","STREET":"勝華街","SECT":" ","MAREA":" ","LANE":"３７巷","ALLEY":" ","HOUSE_NO":"５６號四樓之１","E_COORD97":171422.51000000001,"N_COORD97":2545110.29,"ADDRESS":"勝華街３７巷５６號四樓之１","OBJECTID":455367},"geometry":{"x":171422.51000000071,"y":2545110.290000001}},{"attributes":{"ID":455393,"DIS_CODE":0,"TOWNNAME":"永康區","LI":"勝利里","LIN":"39鄰","STREET":"勝華街","SECT":" ","MAREA":" ","LANE":"３７巷","ALLEY":" ","HOUSE_NO":"５６號六樓之７","E_COORD97":171422.59,"N_COORD97":2545110.29,"ADDRESS":"勝華街３７巷５６號六樓之７","OBJECTID":455368},"geometry":{"x":171422.58999999985,"y":2545110.290000001}},{"attributes":{"ID":455394,"DIS_CODE":0,"TOWNNAME":"永康區","LI":"勝利里","LIN":"39鄰","STREET":"勝華街","SECT":" ","MAREA":" ","LANE":"３７巷","ALLEY":" ","HOUSE_NO":"５６號三樓之６","E_COORD97":171422.62,"N_COORD97":2545110.29,"ADDRESS":"勝華街３７巷５６號三樓之６","OBJECTID":455369},"geometry":{"x":171422.62000000011,"y":2545110.290000001}},{"attributes":{"ID":455395,"DIS_CODE":0,"TOWNNAME":"永康區","LI":"勝利里","LIN":"39鄰","STREET":"勝華街","SECT":" ","MAREA":" ","LANE":"３７巷","ALLEY":" ","HOUSE_NO":"５６號五樓之６","E_COORD97":171422.62,"N_COORD97":2545110.29,"ADDRESS":"勝華街３７巷５６號五樓之６","OBJECTID":455370},"geometry":{"x":171422.62000000011,"y":2545110.290000001}},{"attributes":{"ID":455396,"DIS_CODE":0,"TOWNNAME":"永康區","LI":"勝利里","LIN":"39鄰","STREET":"勝華街","SECT":" ","MAREA":" ","LANE":"３７巷","ALLEY":" ","HOUSE_NO":"５６號六樓之８","E_COORD97":171422.66,"N_COORD97":2545110.29,"ADDRESS":"勝華街３７巷５６號六樓之８","OBJECTID":455371},"geometry":{"x":171422.66000000015,"y":2545110.290000001}},{"attributes":{"ID":455397,"DIS_CODE":0,"TOWNNAME":"永康區","LI":"勝利里","LIN":"39鄰","STREET":"勝華街","SECT":" ","MAREA":" ","LANE":"３７巷","ALLEY":" ","HOUSE_NO":"５６號六樓之１１","E_COORD97":171423.76000000001,"N_COORD97":2545110.29,"ADDRESS":"勝華街３７巷５６號六樓之１１","OBJECTID":455372},"geometry":{"x":171423.76000000164,"y":2545110.290000001}},{"attributes":{"ID":455398,"DIS_CODE":0,"TOWNNAME":"東區","LI":"忠孝里","LIN":"39鄰","STREET":"崇明路","SECT":" ","MAREA":" ","LANE":"２６６巷","ALLEY":" ","HOUSE_NO":"７號十四樓之二","E_COORD97":169963.63,"N_COORD97":2542007.8199999998,"ADDRESS":"崇明路２６６巷７號十四樓之二","OBJECTID":455373},"geometry":{"x":169963.63000000082,"y":2542007.8200000003}},{"attributes":{"ID":455399,"DIS_CODE":0,"TOWNNAME":"永康區","LI":"西灣里","LIN":"39鄰","STREET":"永華路","SECT":" ","MAREA":" ","LANE":"２１２巷","ALLEY":" ","HOUSE_NO":"１２號五樓","E_COORD97":174157.16,"N_COORD97":2545457.3500000001,"ADDRESS":"永華路２１２巷１２號五樓","OBJECTID":455374},"geometry":{"x":174157.16000000015,"y":2545457.3499999996}},{"attributes":{"ID":455400,"DIS_CODE":0,"TOWNNAME":"永康區","LI":"西灣里","LIN":"39鄰","STREET":"永華路","SECT":" ","MAREA":" ","LANE":"２１２巷","ALLEY":" ","HOUSE_NO":"１４號八樓","E_COORD97":174155.12,"N_COORD97":2545450.5,"ADDRESS":"永華路２１２巷１４號八樓","OBJECTID":455375},"geometry":{"x":174155.12000000011,"y":2545450.5}},{"attributes":{"ID":455401,"DIS_CODE":0,"TOWNNAME":"永康區","LI":"西灣里","LIN":"39鄰","STREET":"永華路","SECT":" ","MAREA":" ","LANE":"２１２巷","ALLEY":" ","HOUSE_NO":"２７號四樓之２","E_COORD97":174184.56,"N_COORD97":2545474.7999999998,"ADDRESS":"永華路２１２巷２７號四樓之２","OBJECTID":455376},"geometry":{"x":174184.56000000145,"y":2545474.8000000026}},{"attributes":{"ID":455402,"DIS_CODE":0,"TOWNNAME":"永康區","LI":"五王里","LIN":"32鄰","STREET":"中華路","SECT":" ","MAREA":" ","LANE":"５７８巷","ALLEY":" ","HOUSE_NO":"２號六樓之１","E_COORD97":171284.88,"N_COORD97":2545927.0499999998,"ADDRESS":"中華路５７８巷２號六樓之１","OBJECTID":455377},"geometry":{"x":171284.87999999989,"y":2545927.0500000026}},{"attributes":{"ID":455403,"DIS_CODE":0,"TOWNNAME":"新營區","LI":"新北里","LIN":"32鄰","STREET":"新北六街","SECT":" ","MAREA":" ","LANE":"５巷","ALLEY":" ","HOUSE_NO":"６號五樓","E_COORD97":178690.22,"N_COORD97":2579085.0899999999,"ADDRESS":"新北六街５巷６號五樓","OBJECTID":455378},"geometry":{"x":178690.22000000067,"y":2579085.0899999999}},{"attributes":{"ID":455404,"DIS_CODE":0,"TOWNNAME":"新營區","LI":"新北里","LIN":"32鄰","STREET":"新北六街","SECT":" ","MAREA":" ","LANE":"５巷","ALLEY":" ","HOUSE_NO":"６號六樓","E_COORD97":178690.22,"N_COORD97":2579085.0899999999,"ADDRESS":"新北六街５巷６號六樓","OBJECTID":455379},"geometry":{"x":178690.22000000067,"y":2579085.0899999999}},{"attributes":{"ID":455405,"DIS_CODE":0,"TOWNNAME":"新營區","LI":"新北里","LIN":"32鄰","STREET":"新北六街","SECT":" ","MAREA":" ","LANE":"５巷","ALLEY":" ","HOUSE_NO":"６號二樓","E_COORD97":178690.22,"N_COORD97":2579085.0899999999,"ADDRESS":"新北六街５巷６號二樓","OBJECTID":455380},"geometry":{"x":178690.22000000067,"y":2579085.0899999999}},{"attributes":{"ID":455406,"DIS_CODE":0,"TOWNNAME":"永康區","LI":"永康里","LIN":"32鄰","STREET":"大同街","SECT":" ","MAREA":" ","LANE":"８３９巷","ALLEY":" ","HOUSE_NO":"３號","E_COORD97":174372.17999999999,"N_COORD97":2547096.4900000002,"ADDRESS":"大同街８３９巷３號","OBJECTID":455381},"geometry":{"x":174372.18000000156,"y":2547096.4900000039}},{"attributes":{"ID":455407,"DIS_CODE":0,"TOWNNAME":"永康區","LI":"永康里","LIN":"32鄰","STREET":"大同街","SECT":" ","MAREA":" ","LANE":"９７６巷","ALLEY":" ","HOUSE_NO":"６號","E_COORD97":174400.10999999999,"N_COORD97":2547114.3300000001,"ADDRESS":"大同街９７６巷６號","OBJECTID":455382},"geometry":{"x":174400.11000000034,"y":2547114.3300000038}},{"attributes":{"ID":455408,"DIS_CODE":0,"TOWNNAME":"東區","LI":"崇文里","LIN":"32鄰","STREET":"生產路","SECT":" ","MAREA":" ","LANE":"３２１巷","ALLEY":" ","HOUSE_NO":"１０號","E_COORD97":171045.45000000001,"N_COORD97":2540707.6099999999,"ADDRESS":"生產路３２１巷１０號","OBJECTID":455383},"geometry":{"x":171045.45000000112,"y":2540707.6100000013}},{"attributes":{"ID":455409,"DIS_CODE":0,"TOWNNAME":"東區","LI":"崇文里","LIN":"32鄰","STREET":"生產路","SECT":" ","MAREA":" ","LANE":"３２１巷","ALLEY":" ","HOUSE_NO":"１１號","E_COORD97":171018.73000000001,"N_COORD97":2540696.54,"ADDRESS":"生產路３２１巷１１號","OBJECTID":455384},"geometry":{"x":171018.73000000045,"y":2540696.5399999991}},{"attributes":{"ID":455410,"DIS_CODE":0,"TOWNNAME":"東區","LI":"崇文里","LIN":"32鄰","STREET":"生產路","SECT":" ","MAREA":" ","LANE":"３２１巷","ALLEY":" ","HOUSE_NO":"１３號","E_COORD97":171018.82999999999,"N_COORD97":2540700.3199999998,"ADDRESS":"生產路３２１巷１３號","OBJECTID":455385},"geometry":{"x":171018.83000000101,"y":2540700.3200000022}},{"attributes":{"ID":455411,"DIS_CODE":0,"TOWNNAME":"東區","LI":"崇文里","LIN":"32鄰","STREET":"生產路","SECT":" ","MAREA":" ","LANE":"３２１巷","ALLEY":" ","HOUSE_NO":"１５號","E_COORD97":171019.03,"N_COORD97":2540705.1899999999,"ADDRESS":"生產路３２１巷１５號","OBJECTID":455386},"geometry":{"x":171019.03000000212,"y":2540705.1899999995}},{"attributes":{"ID":455412,"DIS_CODE":0,"TOWNNAME":"東區","LI":"崇文里","LIN":"32鄰","STREET":"生產路","SECT":" ","MAREA":" ","LANE":"３２１巷","ALLEY":" ","HOUSE_NO":"１６號","E_COORD97":171043.76000000001,"N_COORD97":2540722.5499999998,"ADDRESS":"生產路３２１巷１６號","OBJECTID":455387},"geometry":{"x":171043.75999999978,"y":2540722.5500000045}},{"attributes":{"ID":455413,"DIS_CODE":0,"TOWNNAME":"東區","LI":"崇文里","LIN":"32鄰","STREET":"生產路","SECT":" ","MAREA":" ","LANE":"３２１巷","ALLEY":" ","HOUSE_NO":"１７號","E_COORD97":171016.73999999999,"N_COORD97":2540709.96,"ADDRESS":"生產路３２１巷１７號","OBJECTID":455388},"geometry":{"x":171016.74000000022,"y":2540709.9600000028}},{"attributes":{"ID":455414,"DIS_CODE":0,"TOWNNAME":"東區","LI":"崇文里","LIN":"32鄰","STREET":"生產路","SECT":" ","MAREA":" ","LANE":"３２１巷","ALLEY":" ","HOUSE_NO":"１８號","E_COORD97":171043.45999999999,"N_COORD97":2540727.3300000001,"ADDRESS":"生產路３２１巷１８號","OBJECTID":455389},"geometry":{"x":171043.46000000089,"y":2540727.3300000019}},{"attributes":{"ID":455415,"DIS_CODE":0,"TOWNNAME":"東區","LI":"崇文里","LIN":"32鄰","STREET":"生產路","SECT":" ","MAREA":" ","LANE":"３２１巷","ALLEY":" ","HOUSE_NO":"１９號","E_COORD97":171016.14000000001,"N_COORD97":2540714.0299999998,"ADDRESS":"生產路３２１巷１９號","OBJECTID":455390},"geometry":{"x":171016.1400000006,"y":2540714.0299999993}},{"attributes":{"ID":455416,"DIS_CODE":0,"TOWNNAME":"東區","LI":"崇文里","LIN":"32鄰","STREET":"生產路","SECT":" ","MAREA":" ","LANE":"３２１巷","ALLEY":" ","HOUSE_NO":"２０號","E_COORD97":171042.67000000001,"N_COORD97":2540732.2999999998,"ADDRESS":"生產路３２１巷２０號","OBJECTID":455391},"geometry":{"x":171042.66999999993,"y":2540732.3000000026}},{"attributes":{"ID":455417,"DIS_CODE":0,"TOWNNAME":"東區","LI":"崇文里","LIN":"32鄰","STREET":"生產路","SECT":" ","MAREA":" ","LANE":"３２１巷","ALLEY":" ","HOUSE_NO":"２１號","E_COORD97":171016.34,"N_COORD97":2540717.9100000001,"ADDRESS":"生產路３２１巷２１號","OBJECTID":455392},"geometry":{"x":171016.34000000171,"y":2540717.9100000001}},{"attributes":{"ID":455418,"DIS_CODE":0,"TOWNNAME":"東區","LI":"崇文里","LIN":"32鄰","STREET":"生產路","SECT":" ","MAREA":" ","LANE":"３２１巷","ALLEY":" ","HOUSE_NO":"２２號","E_COORD97":171041.97,"N_COORD97":2540737.27,"ADDRESS":"生產路３２１巷２２號","OBJECTID":455393},"geometry":{"x":171041.96999999974,"y":2540737.2700000014}},{"attributes":{"ID":455419,"DIS_CODE":0,"TOWNNAME":"東區","LI":"崇文里","LIN":"32鄰","STREET":"生產路","SECT":" ","MAREA":" ","LANE":"３２１巷","ALLEY":" ","HOUSE_NO":"２３號","E_COORD97":171015.84,"N_COORD97":2540722.1899999999,"ADDRESS":"生產路３２１巷２３號","OBJECTID":455394},"geometry":{"x":171015.83999999985,"y":2540722.1899999995}},{"attributes":{"ID":455420,"DIS_CODE":0,"TOWNNAME":"東區","LI":"崇文里","LIN":"32鄰","STREET":"生產路","SECT":" ","MAREA":" ","LANE":"３２１巷","ALLEY":" ","HOUSE_NO":"２４號","E_COORD97":171041.26999999999,"N_COORD97":2540742.3399999999,"ADDRESS":"生產路３２１巷２４號","OBJECTID":455395},"geometry":{"x":171041.26999999955,"y":2540742.3399999999}},{"attributes":{"ID":455421,"DIS_CODE":0,"TOWNNAME":"東區","LI":"崇文里","LIN":"32鄰","STREET":"生產路","SECT":" ","MAREA":" ","LANE":"３２１巷","ALLEY":" ","HOUSE_NO":"２５號","E_COORD97":171015.84,"N_COORD97":2540725.9700000002,"ADDRESS":"生產路３２１巷２５號","OBJECTID":455396},"geometry":{"x":171015.83999999985,"y":2540725.9700000007}},{"attributes":{"ID":455422,"DIS_CODE":0,"TOWNNAME":"東區","LI":"崇文里","LIN":"32鄰","STREET":"生產路","SECT":" ","MAREA":" ","LANE":"３２１巷","ALLEY":" ","HOUSE_NO":"２６號","E_COORD97":171040.38,"N_COORD97":2540747.9100000001,"ADDRESS":"生產路３２１巷２６號","OBJECTID":455397},"geometry":{"x":171040.38000000082,"y":2540747.910000002}},{"attributes":{"ID":455423,"DIS_CODE":0,"TOWNNAME":"東區","LI":"崇文里","LIN":"32鄰","STREET":"生產路","SECT":" ","MAREA":" ","LANE":"３２１巷","ALLEY":" ","HOUSE_NO":"２７號","E_COORD97":171015.84,"N_COORD97":2540730.9399999999,"ADDRESS":"生產路３２１巷２７號","OBJECTID":455398},"geometry":{"x":171015.83999999985,"y":2540730.9399999995}},{"attributes":{"ID":455424,"DIS_CODE":0,"TOWNNAME":"東區","LI":"崇文里","LIN":"32鄰","STREET":"生產路","SECT":" ","MAREA":" ","LANE":"３２１巷","ALLEY":" ","HOUSE_NO":"２９號","E_COORD97":171015.64000000001,"N_COORD97":2540735.3199999998,"ADDRESS":"生產路３２１巷２９號","OBJECTID":455399},"geometry":{"x":171015.63999999966,"y":2540735.3200000022}},{"attributes":{"ID":455425,"DIS_CODE":0,"TOWNNAME":"東區","LI":"崇文里","LIN":"32鄰","STREET":"生產路","SECT":" ","MAREA":" ","LANE":"３２１巷","ALLEY":" ","HOUSE_NO":"２號","E_COORD97":171048.14000000001,"N_COORD97":2540686.9199999999,"ADDRESS":"生產路３２１巷２號","OBJECTID":455400},"geometry":{"x":171048.14000000153,"y":2540686.9199999999}}]}