{"displayFieldName":"TOWNNAME","fieldAliases":{"ID":"ID","DIS_CODE":"DIS_CODE","TOWNNAME":"TOWNNAME","LI":"LI","LIN":"LIN","STREET":"STREET","SECT":"SECT","MAREA":"MAREA","LANE":"LANE","ALLEY":"ALLEY","HOUSE_NO":"HOUSE_NO","E_COORD97":"E_COORD97","N_COORD97":"N_COORD97","ADDRESS":"ADDRESS","OBJECTID":"OBJECTID"},"geometryType":"esriGeometryPoint","spatialReference":{"wkid":102443,"latestWkid":3826},"fields":[{"name":"ID","type":"esriFieldTypeDouble","alias":"ID"},{"name":"DIS_CODE","type":"esriFieldTypeInteger","alias":"DIS_CODE"},{"name":"TOWNNAME","type":"esriFieldTypeString","alias":"TOWNNAME","length":8},{"name":"LI","type":"esriFieldTypeString","alias":"LI","length":8},{"name":"LIN","type":"esriFieldTypeString","alias":"LIN","length":12},{"name":"STREET","type":"esriFieldTypeString","alias":"STREET","length":20},{"name":"SECT","type":"esriFieldTypeString","alias":"SECT","length":8},{"name":"MAREA","type":"esriFieldTypeString","alias":"MAREA","length":12},{"name":"LANE","type":"esriFieldTypeString","alias":"LANE","length":10},{"name":"ALLEY","type":"esriFieldTypeString","alias":"ALLEY","length":10},{"name":"HOUSE_NO","type":"esriFieldTypeString","alias":"HOUSE_NO","length":20},{"name":"E_COORD97","type":"esriFieldTypeDouble","alias":"E_COORD97"},{"name":"N_COORD97","type":"esriFieldTypeDouble","alias":"N_COORD97"},{"name":"ADDRESS","type":"esriFieldTypeString","alias":"ADDRESS","length":50},{"name":"OBJECTID","type":"esriFieldTypeOID","alias":"OBJECTID"}],"features":[{"attributes":{"ID":38601,"DIS_CODE":0,"TOWNNAME":"安南區","LI":"新順里","LIN":"14鄰","STREET":"永安二街","SECT":" ","MAREA":" ","LANE":" ","ALLEY":" ","HOUSE_NO":"２１號","E_COORD97":169923.84,"N_COORD97":2549517.5499999998,"ADDRESS":"永安二街２１號","OBJECTID":38601},"geometry":{"x":169923.83999999985,"y":2549517.5500000026}},{"attributes":{"ID":38602,"DIS_CODE":0,"TOWNNAME":"新化區","LI":"護國里","LIN":"4鄰","STREET":"中山路","SECT":" ","MAREA":" ","LANE":" ","ALLEY":" ","HOUSE_NO":"２２０號","E_COORD97":179142.10999999999,"N_COORD97":2548456.25,"ADDRESS":"中山路２２０號","OBJECTID":38602},"geometry":{"x":179142.11000000127,"y":2548456.25}},{"attributes":{"ID":38603,"DIS_CODE":0,"TOWNNAME":"安南區","LI":"州北里","LIN":"7鄰","STREET":"安和路","SECT":"五段","MAREA":" ","LANE":"３３６巷","ALLEY":"３３弄","HOUSE_NO":"２６號","E_COORD97":169763.42000000001,"N_COORD97":2552298.6000000001,"ADDRESS":"安和路五段３３６巷３３弄２６號","OBJECTID":38603},"geometry":{"x":169763.42000000086,"y":2552298.5999999996}},{"attributes":{"ID":38604,"DIS_CODE":0,"TOWNNAME":"新化區","LI":"協興里","LIN":"4鄰","STREET":"中山路","SECT":" ","MAREA":" ","LANE":" ","ALLEY":" ","HOUSE_NO":"５２２號","E_COORD97":178531.20999999999,"N_COORD97":2548438.25,"ADDRESS":"中山路５２２號","OBJECTID":38604},"geometry":{"x":178531.21000000089,"y":2548438.2500000019}},{"attributes":{"ID":38605,"DIS_CODE":0,"TOWNNAME":"六甲區","LI":"菁埔里","LIN":"7鄰","STREET":" ","SECT":" ","MAREA":"菁埔","LANE":" ","ALLEY":" ","HOUSE_NO":"２７５號","E_COORD97":178444.73999999999,"N_COORD97":2569689.0800000001,"ADDRESS":"菁埔２７５號","OBJECTID":38605},"geometry":{"x":178444.74000000115,"y":2569689.0800000038}},{"attributes":{"ID":38606,"DIS_CODE":0,"TOWNNAME":"安南區","LI":"州北里","LIN":"7鄰","STREET":"安和路","SECT":"五段","MAREA":" ","LANE":"３３６巷","ALLEY":"３３弄","HOUSE_NO":"２８號","E_COORD97":169763.42000000001,"N_COORD97":2552305.1099999999,"ADDRESS":"安和路五段３３６巷３３弄２８號","OBJECTID":38606},"geometry":{"x":169763.42000000086,"y":2552305.1099999994}},{"attributes":{"ID":38607,"DIS_CODE":0,"TOWNNAME":"安南區","LI":"州北里","LIN":"7鄰","STREET":"安和路","SECT":"五段","MAREA":" ","LANE":"３３６巷","ALLEY":"３３弄","HOUSE_NO":"３０號","E_COORD97":169763.57000000001,"N_COORD97":2552311.77,"ADDRESS":"安和路五段３３６巷３３弄３０號","OBJECTID":38607},"geometry":{"x":169763.5700000003,"y":2552311.7700000014}},{"attributes":{"ID":38608,"DIS_CODE":0,"TOWNNAME":"安南區","LI":"州北里","LIN":"7鄰","STREET":"安和路","SECT":"五段","MAREA":" ","LANE":"３３６巷","ALLEY":"３３弄","HOUSE_NO":"３２號","E_COORD97":169763.57000000001,"N_COORD97":2552318.5800000001,"ADDRESS":"安和路五段３３６巷３３弄３２號","OBJECTID":38608},"geometry":{"x":169763.5700000003,"y":2552318.5800000001}},{"attributes":{"ID":38609,"DIS_CODE":0,"TOWNNAME":"安南區","LI":"州北里","LIN":"7鄰","STREET":"安和路","SECT":"五段","MAREA":" ","LANE":"３３６巷","ALLEY":"３３弄","HOUSE_NO":"３６號","E_COORD97":169763.26999999999,"N_COORD97":2552325.9900000002,"ADDRESS":"安和路五段３３６巷３３弄３６號","OBJECTID":38609},"geometry":{"x":169763.26999999955,"y":2552325.9900000002}},{"attributes":{"ID":38610,"DIS_CODE":0,"TOWNNAME":"安南區","LI":"州北里","LIN":"7鄰","STREET":"安和路","SECT":"五段","MAREA":" ","LANE":"３３６巷","ALLEY":"３３弄","HOUSE_NO":"３８號","E_COORD97":169763.88,"N_COORD97":2552333.71,"ADDRESS":"安和路五段３３６巷３３弄３８號","OBJECTID":38610},"geometry":{"x":169763.88000000082,"y":2552333.7100000046}},{"attributes":{"ID":38611,"DIS_CODE":0,"TOWNNAME":"安南區","LI":"州北里","LIN":"7鄰","STREET":"安和路","SECT":"五段","MAREA":" ","LANE":"３３６巷","ALLEY":"３３弄","HOUSE_NO":"４０號","E_COORD97":169762.82000000001,"N_COORD97":2552349.4399999999,"ADDRESS":"安和路五段３３６巷３３弄４０號","OBJECTID":38611},"geometry":{"x":169762.82000000123,"y":2552349.4399999995}},{"attributes":{"ID":38612,"DIS_CODE":0,"TOWNNAME":"永康區","LI":"勝利里","LIN":"7鄰","STREET":"勝利街","SECT":" ","MAREA":" ","LANE":"２２巷","ALLEY":"４５弄","HOUSE_NO":"１７號","E_COORD97":171229.14999999999,"N_COORD97":2544687.7599999998,"ADDRESS":"勝利街２２巷４５弄１７號","OBJECTID":38612},"geometry":{"x":171229.1500000013,"y":2544687.7600000016}},{"attributes":{"ID":38613,"DIS_CODE":0,"TOWNNAME":"安南區","LI":"州北里","LIN":"7鄰","STREET":"安和路","SECT":"五段","MAREA":" ","LANE":"３３６巷","ALLEY":"３３弄","HOUSE_NO":"４２號","E_COORD97":169762.82000000001,"N_COORD97":2552356.25,"ADDRESS":"安和路五段３３６巷３３弄４２號","OBJECTID":38613},"geometry":{"x":169762.82000000123,"y":2552356.2500000037}},{"attributes":{"ID":38614,"DIS_CODE":0,"TOWNNAME":"安南區","LI":"安東里","LIN":"7鄰","STREET":"安和路","SECT":"一段","MAREA":" ","LANE":"２８８巷","ALLEY":"６１弄","HOUSE_NO":"９號","E_COORD97":169378.45999999999,"N_COORD97":2548153.48,"ADDRESS":"安和路一段２８８巷６１弄９號","OBJECTID":38614},"geometry":{"x":169378.46000000089,"y":2548153.4800000004}},{"attributes":{"ID":38615,"DIS_CODE":0,"TOWNNAME":"安南區","LI":"總頭里","LIN":"7鄰","STREET":"長溪路","SECT":"二段","MAREA":" ","LANE":"５７０巷","ALLEY":"３１弄","HOUSE_NO":"２０號","E_COORD97":168451.07000000001,"N_COORD97":2550659.9399999999,"ADDRESS":"長溪路二段５７０巷３１弄２０號","OBJECTID":38615},"geometry":{"x":168451.07000000123,"y":2550659.9400000013}},{"attributes":{"ID":38616,"DIS_CODE":0,"TOWNNAME":"安南區","LI":"原佃里","LIN":"7鄰","STREET":"本原街","SECT":"一段","MAREA":" ","LANE":"１９５巷","ALLEY":"８５弄","HOUSE_NO":"３２號","E_COORD97":167467.95000000001,"N_COORD97":2550052.21,"ADDRESS":"本原街一段１９５巷８５弄３２號","OBJECTID":38616},"geometry":{"x":167467.95000000205,"y":2550052.2100000028}},{"attributes":{"ID":38617,"DIS_CODE":0,"TOWNNAME":"安南區","LI":"東和里","LIN":"7鄰","STREET":"長和路","SECT":"一段","MAREA":" ","LANE":"２１７巷","ALLEY":"２１５弄","HOUSE_NO":"２５之１號","E_COORD97":171199.95999999999,"N_COORD97":2550058.23,"ADDRESS":"長和路一段２１７巷２１５弄２５之１號","OBJECTID":38617},"geometry":{"x":171199.95999999996,"y":2550058.2300000042}},{"attributes":{"ID":38618,"DIS_CODE":0,"TOWNNAME":"安南區","LI":"原佃里","LIN":"7鄰","STREET":"安中路","SECT":"二段","MAREA":" ","LANE":"２巷","ALLEY":"１１５弄","HOUSE_NO":"１號","E_COORD97":167218.76999999999,"N_COORD97":2549751.3700000001,"ADDRESS":"安中路二段２巷１１５弄１號","OBJECTID":38618},"geometry":{"x":167218.76999999955,"y":2549751.370000001}},{"attributes":{"ID":38619,"DIS_CODE":0,"TOWNNAME":"安南區","LI":"青草里","LIN":"7鄰","STREET":"青砂街","SECT":"二段","MAREA":" ","LANE":"７３７巷","ALLEY":"６０弄","HOUSE_NO":"７１之５號","E_COORD97":158925.92000000001,"N_COORD97":2552716.0699999998,"ADDRESS":"青砂街二段７３７巷６０弄７１之５號","OBJECTID":38619},"geometry":{"x":158925.92000000179,"y":2552716.0700000003}},{"attributes":{"ID":38620,"DIS_CODE":0,"TOWNNAME":"安南區","LI":"東和里","LIN":"7鄰","STREET":"長和路","SECT":"一段","MAREA":" ","LANE":"２１７巷","ALLEY":"２５弄","HOUSE_NO":"６１號","E_COORD97":171601.44,"N_COORD97":2550399.96,"ADDRESS":"長和路一段２１７巷２５弄６１號","OBJECTID":38620},"geometry":{"x":171601.44000000134,"y":2550399.9600000028}},{"attributes":{"ID":38621,"DIS_CODE":0,"TOWNNAME":"六甲區","LI":"菁埔里","LIN":"7鄰","STREET":" ","SECT":" ","MAREA":"菁埔","LANE":" ","ALLEY":" ","HOUSE_NO":"２７６號","E_COORD97":178527.34,"N_COORD97":2569712.4900000002,"ADDRESS":"菁埔２７６號","OBJECTID":38621},"geometry":{"x":178527.33999999985,"y":2569712.4900000002}},{"attributes":{"ID":38622,"DIS_CODE":0,"TOWNNAME":"六甲區","LI":"二甲里","LIN":"16鄰","STREET":"光明街","SECT":" ","MAREA":" ","LANE":" ","ALLEY":" ","HOUSE_NO":"１０號","E_COORD97":183181.67999999999,"N_COORD97":2569759.8100000001,"ADDRESS":"光明街１０號","OBJECTID":38622},"geometry":{"x":183181.6799999997,"y":2569759.8100000024}},{"attributes":{"ID":38623,"DIS_CODE":0,"TOWNNAME":"安南區","LI":"新順里","LIN":"14鄰","STREET":"永安路","SECT":" ","MAREA":" ","LANE":" ","ALLEY":" ","HOUSE_NO":"５８號","E_COORD97":170085.47,"N_COORD97":2549481.2799999998,"ADDRESS":"永安路５８號","OBJECTID":38623},"geometry":{"x":170085.47000000067,"y":2549481.2800000012}},{"attributes":{"ID":38624,"DIS_CODE":0,"TOWNNAME":"安平區","LI":"育平里","LIN":"33鄰","STREET":"光州六街","SECT":" ","MAREA":" ","LANE":" ","ALLEY":" ","HOUSE_NO":"２５號","E_COORD97":164480.23893799999,"N_COORD97":2543527.6976299998,"ADDRESS":"光州六街２５號","OBJECTID":38624},"geometry":{"x":164480.23893800005,"y":2543527.697629001}},{"attributes":{"ID":38625,"DIS_CODE":0,"TOWNNAME":"六甲區","LI":"菁埔里","LIN":"7鄰","STREET":" ","SECT":" ","MAREA":"菁埔","LANE":" ","ALLEY":" ","HOUSE_NO":"２７８號","E_COORD97":178723.28,"N_COORD97":2569711.9399999999,"ADDRESS":"菁埔２７８號","OBJECTID":38625},"geometry":{"x":178723.28000000026,"y":2569711.9399999995}},{"attributes":{"ID":38626,"DIS_CODE":0,"TOWNNAME":"安南區","LI":"原佃里","LIN":"7鄰","STREET":"安中路","SECT":"二段","MAREA":" ","LANE":"２巷","ALLEY":"１１５弄","HOUSE_NO":"３號","E_COORD97":167205.78,"N_COORD97":2549733.1200000001,"ADDRESS":"安中路二段２巷１１５弄３號","OBJECTID":38626},"geometry":{"x":167205.78000000026,"y":2549733.120000001}},{"attributes":{"ID":38627,"DIS_CODE":0,"TOWNNAME":"安南區","LI":"原佃里","LIN":"7鄰","STREET":"安中路","SECT":"二段","MAREA":" ","LANE":"２巷","ALLEY":"１１５弄","HOUSE_NO":"２號","E_COORD97":167226.48999999999,"N_COORD97":2549792.0800000001,"ADDRESS":"安中路二段２巷１１５弄２號","OBJECTID":38627},"geometry":{"x":167226.49000000022,"y":2549792.0800000019}},{"attributes":{"ID":38628,"DIS_CODE":0,"TOWNNAME":"安南區","LI":"原佃里","LIN":"7鄰","STREET":"安中路","SECT":"二段","MAREA":" ","LANE":"２巷","ALLEY":"１１５弄","HOUSE_NO":"６號","E_COORD97":167221.57999999999,"N_COORD97":2549801.21,"ADDRESS":"安中路二段２巷１１５弄６號","OBJECTID":38628},"geometry":{"x":167221.58000000101,"y":2549801.2100000046}},{"attributes":{"ID":38629,"DIS_CODE":0,"TOWNNAME":"六甲區","LI":"菁埔里","LIN":"7鄰","STREET":" ","SECT":" ","MAREA":"菁埔","LANE":" ","ALLEY":" ","HOUSE_NO":"２７９號","E_COORD97":178729.44,"N_COORD97":2569738.8599999999,"ADDRESS":"菁埔２７９號","OBJECTID":38629},"geometry":{"x":178729.44000000227,"y":2569738.8600000013}},{"attributes":{"ID":38630,"DIS_CODE":0,"TOWNNAME":"六甲區","LI":"菁埔里","LIN":"7鄰","STREET":" ","SECT":" ","MAREA":"菁埔","LANE":" ","ALLEY":" ","HOUSE_NO":"２８０號","E_COORD97":178764.01000000001,"N_COORD97":2569738.0600000001,"ADDRESS":"菁埔２８０號","OBJECTID":38630},"geometry":{"x":178764.01000000071,"y":2569738.0600000024}},{"attributes":{"ID":38631,"DIS_CODE":0,"TOWNNAME":"六甲區","LI":"菁埔里","LIN":"7鄰","STREET":" ","SECT":" ","MAREA":"菁埔","LANE":" ","ALLEY":" ","HOUSE_NO":"２８３號","E_COORD97":178913.75,"N_COORD97":2569815.1299999999,"ADDRESS":"菁埔２８３號","OBJECTID":38631},"geometry":{"x":178913.75000000093,"y":2569815.129999999}},{"attributes":{"ID":38632,"DIS_CODE":0,"TOWNNAME":"六甲區","LI":"菁埔里","LIN":"7鄰","STREET":" ","SECT":" ","MAREA":"菁埔","LANE":" ","ALLEY":" ","HOUSE_NO":"２８７號","E_COORD97":179011.95999999999,"N_COORD97":2569876.0299999998,"ADDRESS":"菁埔２８７號","OBJECTID":38632},"geometry":{"x":179011.96000000183,"y":2569876.0300000012}},{"attributes":{"ID":38633,"DIS_CODE":0,"TOWNNAME":"六甲區","LI":"菁埔里","LIN":"7鄰","STREET":" ","SECT":" ","MAREA":"菁埔","LANE":" ","ALLEY":" ","HOUSE_NO":"２９０號","E_COORD97":179165.32000000001,"N_COORD97":2569819.6899999999,"ADDRESS":"菁埔２９０號","OBJECTID":38633},"geometry":{"x":179165.3200000003,"y":2569819.6900000032}},{"attributes":{"ID":38634,"DIS_CODE":0,"TOWNNAME":"安南區","LI":"原佃里","LIN":"7鄰","STREET":"安中路","SECT":"二段","MAREA":" ","LANE":"２巷","ALLEY":"１１５弄","HOUSE_NO":"５號","E_COORD97":167208.23999999999,"N_COORD97":2549782.6099999999,"ADDRESS":"安中路二段２巷１１５弄５號","OBJECTID":38634},"geometry":{"x":167208.23999999929,"y":2549782.6099999994}},{"attributes":{"ID":38635,"DIS_CODE":0,"TOWNNAME":"六甲區","LI":"菁埔里","LIN":"7鄰","STREET":" ","SECT":" ","MAREA":"菁埔","LANE":" ","ALLEY":" ","HOUSE_NO":"２９１號","E_COORD97":179229.98999999999,"N_COORD97":2569853.3500000001,"ADDRESS":"菁埔２９１號","OBJECTID":38635},"geometry":{"x":179229.99000000022,"y":2569853.3500000015}},{"attributes":{"ID":38636,"DIS_CODE":0,"TOWNNAME":"安南區","LI":"原佃里","LIN":"7鄰","STREET":"安中路","SECT":"二段","MAREA":" ","LANE":"２巷","ALLEY":"１１５弄","HOUSE_NO":"７號","E_COORD97":167204.03,"N_COORD97":2549791.73,"ADDRESS":"安中路二段２巷１１５弄７號","OBJECTID":38636},"geometry":{"x":167204.03000000026,"y":2549791.7300000023}},{"attributes":{"ID":38637,"DIS_CODE":0,"TOWNNAME":"六甲區","LI":"菁埔里","LIN":"7鄰","STREET":" ","SECT":" ","MAREA":"菁埔","LANE":" ","ALLEY":" ","HOUSE_NO":"２９３號","E_COORD97":179245.20999999999,"N_COORD97":2569861.8199999998,"ADDRESS":"菁埔２９３號","OBJECTID":38637},"geometry":{"x":179245.20999999996,"y":2569861.8200000022}},{"attributes":{"ID":38638,"DIS_CODE":0,"TOWNNAME":"六甲區","LI":"菁埔里","LIN":"7鄰","STREET":" ","SECT":" ","MAREA":"菁埔","LANE":" ","ALLEY":" ","HOUSE_NO":"３１７號","E_COORD97":179289.31,"N_COORD97":2569688.9399999999,"ADDRESS":"菁埔３１７號","OBJECTID":38638},"geometry":{"x":179289.31000000052,"y":2569688.9399999995}},{"attributes":{"ID":38639,"DIS_CODE":0,"TOWNNAME":"六甲區","LI":"菁埔里","LIN":"7鄰","STREET":" ","SECT":" ","MAREA":"菁埔","LANE":" ","ALLEY":" ","HOUSE_NO":"３２５號","E_COORD97":179398.14000000001,"N_COORD97":2569918.2200000002,"ADDRESS":"菁埔３２５號","OBJECTID":38639},"geometry":{"x":179398.13999999966,"y":2569918.2200000007}},{"attributes":{"ID":38640,"DIS_CODE":0,"TOWNNAME":"六甲區","LI":"菁埔里","LIN":"7鄰","STREET":" ","SECT":" ","MAREA":"菁埔","LANE":" ","ALLEY":" ","HOUSE_NO":"３３７號","E_COORD97":179540.82000000001,"N_COORD97":2570276.9500000002,"ADDRESS":"菁埔３３７號","OBJECTID":38640},"geometry":{"x":179540.82000000123,"y":2570276.9500000011}},{"attributes":{"ID":38641,"DIS_CODE":0,"TOWNNAME":"六甲區","LI":"菁埔里","LIN":"7鄰","STREET":" ","SECT":" ","MAREA":"菁埔","LANE":" ","ALLEY":" ","HOUSE_NO":"３３８號","E_COORD97":179498.19,"N_COORD97":2570286.3100000001,"ADDRESS":"菁埔３３８號","OBJECTID":38641},"geometry":{"x":179498.19000000041,"y":2570286.3100000005}},{"attributes":{"ID":38642,"DIS_CODE":0,"TOWNNAME":"安南區","LI":"原佃里","LIN":"7鄰","STREET":"安中路","SECT":"二段","MAREA":" ","LANE":"２巷","ALLEY":"１１５弄","HOUSE_NO":"９號","E_COORD97":167199.82000000001,"N_COORD97":2549805.4199999999,"ADDRESS":"安中路二段２巷１１５弄９號","OBJECTID":38642},"geometry":{"x":167199.82000000123,"y":2549805.4200000037}},{"attributes":{"ID":38643,"DIS_CODE":0,"TOWNNAME":"南化區","LI":"南化里","LIN":"7鄰","STREET":" ","SECT":" ","MAREA":"南化","LANE":" ","ALLEY":" ","HOUSE_NO":"８６號","E_COORD97":196388.59,"N_COORD97":2549048.75,"ADDRESS":"南化８６號","OBJECTID":38643},"geometry":{"x":196388.59000000078,"y":2549048.7500000019}},{"attributes":{"ID":38644,"DIS_CODE":0,"TOWNNAME":"安南區","LI":"東和里","LIN":"7鄰","STREET":"長和路","SECT":"一段","MAREA":" ","LANE":"２２２巷","ALLEY":"１００弄","HOUSE_NO":"２８之１９號","E_COORD97":172032.62018500001,"N_COORD97":2550751.4483599998,"ADDRESS":"長和路一段２２２巷１００弄２８之１９號","OBJECTID":38644},"geometry":{"x":172032.62018499989,"y":2550751.4483570009}},{"attributes":{"ID":38645,"DIS_CODE":0,"TOWNNAME":"安南區","LI":"東和里","LIN":"7鄰","STREET":"長和路","SECT":"一段","MAREA":" ","LANE":"２２２巷","ALLEY":"１００弄","HOUSE_NO":"２８之２０號","E_COORD97":172037.27906599999,"N_COORD97":2550748.6966900001,"ADDRESS":"長和路一段２２２巷１００弄２８之２０號","OBJECTID":38645},"geometry":{"x":172037.27906600013,"y":2550748.6966920048}},{"attributes":{"ID":38646,"DIS_CODE":0,"TOWNNAME":"安南區","LI":"東和里","LIN":"7鄰","STREET":"長和路","SECT":"一段","MAREA":" ","LANE":"２２２巷","ALLEY":"１００弄","HOUSE_NO":"１１０號","E_COORD97":172178.95137900001,"N_COORD97":2550719.2750400002,"ADDRESS":"長和路一段２２２巷１００弄１１０號","OBJECTID":38646},"geometry":{"x":172178.95137900114,"y":2550719.2750409991}},{"attributes":{"ID":38647,"DIS_CODE":0,"TOWNNAME":"安南區","LI":"東和里","LIN":"7鄰","STREET":"環館三路","SECT":" ","MAREA":" ","LANE":"１３巷","ALLEY":"３０弄","HOUSE_NO":"４６之１號","E_COORD97":171523.57240899999,"N_COORD97":2551654.6537000001,"ADDRESS":"環館三路１３巷３０弄４６之１號","OBJECTID":38647},"geometry":{"x":171523.57240900025,"y":2551654.6536979992}},{"attributes":{"ID":38648,"DIS_CODE":0,"TOWNNAME":"六甲區","LI":"菁埔里","LIN":"7鄰","STREET":" ","SECT":" ","MAREA":"菁埔","LANE":" ","ALLEY":" ","HOUSE_NO":"３４６號","E_COORD97":179696.45000000001,"N_COORD97":2570375.2000000002,"ADDRESS":"菁埔３４６號","OBJECTID":38648},"geometry":{"x":179696.45000000019,"y":2570375.1999999993}},{"attributes":{"ID":38649,"DIS_CODE":0,"TOWNNAME":"安南區","LI":"原佃里","LIN":"7鄰","STREET":"安中路","SECT":"二段","MAREA":" ","LANE":"２巷","ALLEY":"１１５弄","HOUSE_NO":"８號","E_COORD97":167215.95999999999,"N_COORD97":2549812.79,"ADDRESS":"安中路二段２巷１１５弄８號","OBJECTID":38649},"geometry":{"x":167215.95999999996,"y":2549812.790000001}},{"attributes":{"ID":38650,"DIS_CODE":0,"TOWNNAME":"安南區","LI":"原佃里","LIN":"7鄰","STREET":"安中路","SECT":"二段","MAREA":" ","LANE":"２巷","ALLEY":"１１５弄","HOUSE_NO":"１０號","E_COORD97":167209.98999999999,"N_COORD97":2549824.3700000001,"ADDRESS":"安中路二段２巷１１５弄１０號","OBJECTID":38650},"geometry":{"x":167209.99000000209,"y":2549824.3700000029}},{"attributes":{"ID":38651,"DIS_CODE":0,"TOWNNAME":"六甲區","LI":"菁埔里","LIN":"7鄰","STREET":" ","SECT":" ","MAREA":"菁埔","LANE":" ","ALLEY":" ","HOUSE_NO":"３５１號","E_COORD97":179723.78,"N_COORD97":2570520.96,"ADDRESS":"菁埔３５１號","OBJECTID":38651},"geometry":{"x":179723.78000000212,"y":2570520.9600000009}},{"attributes":{"ID":38652,"DIS_CODE":0,"TOWNNAME":"佳里區","LI":"東寧里","LIN":"14鄰","STREET":"義民街","SECT":" ","MAREA":" ","LANE":" ","ALLEY":" ","HOUSE_NO":"８６號","E_COORD97":165936.44,"N_COORD97":2562435,"ADDRESS":"義民街８６號","OBJECTID":38652},"geometry":{"x":165936.44000000134,"y":2562435.0000000019}},{"attributes":{"ID":38653,"DIS_CODE":0,"TOWNNAME":"六甲區","LI":"菁埔里","LIN":"7鄰","STREET":" ","SECT":" ","MAREA":"菁埔","LANE":" ","ALLEY":" ","HOUSE_NO":"３５５號","E_COORD97":179751.42999999999,"N_COORD97":2570579.3399999999,"ADDRESS":"菁埔３５５號","OBJECTID":38653},"geometry":{"x":179751.43000000063,"y":2570579.3400000017}},{"attributes":{"ID":38654,"DIS_CODE":0,"TOWNNAME":"麻豆區","LI":"安業里","LIN":"7鄰","STREET":" ","SECT":" ","MAREA":"安業","LANE":" ","ALLEY":" ","HOUSE_NO":"１４５號","E_COORD97":172556.42000000001,"N_COORD97":2562192.2000000002,"ADDRESS":"安業１４５號","OBJECTID":38654},"geometry":{"x":172556.41999999993,"y":2562192.2000000011}},{"attributes":{"ID":38655,"DIS_CODE":0,"TOWNNAME":"新化區","LI":"知義里","LIN":"14鄰","STREET":"復興路","SECT":" ","MAREA":" ","LANE":" ","ALLEY":" ","HOUSE_NO":"１２７號","E_COORD97":179469.82000000001,"N_COORD97":2547771.25,"ADDRESS":"復興路１２７號","OBJECTID":38655},"geometry":{"x":179469.82000000123,"y":2547771.25}},{"attributes":{"ID":38656,"DIS_CODE":0,"TOWNNAME":"麻豆區","LI":"安業里","LIN":"7鄰","STREET":" ","SECT":" ","MAREA":"安業","LANE":" ","ALLEY":" ","HOUSE_NO":"１２３號之１０","E_COORD97":172721.16,"N_COORD97":2562322.6499999999,"ADDRESS":"安業１２３號之１０","OBJECTID":38656},"geometry":{"x":172721.16000000015,"y":2562322.6500000022}},{"attributes":{"ID":38657,"DIS_CODE":0,"TOWNNAME":"麻豆區","LI":"安業里","LIN":"7鄰","STREET":" ","SECT":" ","MAREA":"安業","LANE":" ","ALLEY":" ","HOUSE_NO":"１２３號之１２","E_COORD97":172665.20000000001,"N_COORD97":2562223.4300000002,"ADDRESS":"安業１２３號之１２","OBJECTID":38657},"geometry":{"x":172665.20000000019,"y":2562223.4299999997}},{"attributes":{"ID":38658,"DIS_CODE":0,"TOWNNAME":"新化區","LI":"協興里","LIN":"14鄰","STREET":"太平街","SECT":" ","MAREA":" ","LANE":" ","ALLEY":" ","HOUSE_NO":"１５８號之３","E_COORD97":178304.17000000001,"N_COORD97":2548700.2599999998,"ADDRESS":"太平街１５８號之３","OBJECTID":38658},"geometry":{"x":178304.17000000086,"y":2548700.2599999998}},{"attributes":{"ID":38659,"DIS_CODE":0,"TOWNNAME":"新化區","LI":"太平里","LIN":"14鄰","STREET":"民權街","SECT":" ","MAREA":" ","LANE":" ","ALLEY":" ","HOUSE_NO":"１６０號","E_COORD97":178716.70999999999,"N_COORD97":2548876.25,"ADDRESS":"民權街１６０號","OBJECTID":38659},"geometry":{"x":178716.70999999996,"y":2548876.25}},{"attributes":{"ID":38660,"DIS_CODE":0,"TOWNNAME":"新化區","LI":"太平里","LIN":"14鄰","STREET":"民權街","SECT":" ","MAREA":" ","LANE":" ","ALLEY":" ","HOUSE_NO":"１５６號","E_COORD97":178768.01000000001,"N_COORD97":2548873.25,"ADDRESS":"民權街１５６號","OBJECTID":38660},"geometry":{"x":178768.01000000071,"y":2548873.25}},{"attributes":{"ID":38661,"DIS_CODE":0,"TOWNNAME":"新化區","LI":"太平里","LIN":"14鄰","STREET":"民權街","SECT":" ","MAREA":" ","LANE":" ","ALLEY":" ","HOUSE_NO":"１２２號之１","E_COORD97":178728.84,"N_COORD97":2548808.2599999998,"ADDRESS":"民權街１２２號之１","OBJECTID":38661},"geometry":{"x":178728.83999999985,"y":2548808.2599999998}},{"attributes":{"ID":38662,"DIS_CODE":0,"TOWNNAME":"新化區","LI":"全興里","LIN":"14鄰","STREET":" ","SECT":" ","MAREA":"竹子\u25A0","LANE":" ","ALLEY":" ","HOUSE_NO":"２４７號之２９６","E_COORD97":178130.48000000001,"N_COORD97":2546724.2599999998,"ADDRESS":"竹子\u25A0２４７號之２９６","OBJECTID":38662},"geometry":{"x":178130.48000000045,"y":2546724.2600000035}},{"attributes":{"ID":38663,"DIS_CODE":0,"TOWNNAME":"安南區","LI":"原佃里","LIN":"7鄰","STREET":"安中路","SECT":"二段","MAREA":" ","LANE":"２巷","ALLEY":"１１５弄","HOUSE_NO":"１１號","E_COORD97":167192.45000000001,"N_COORD97":2549818.3999999999,"ADDRESS":"安中路二段２巷１１５弄１１號","OBJECTID":38663},"geometry":{"x":167192.45000000112,"y":2549818.4000000004}},{"attributes":{"ID":38664,"DIS_CODE":0,"TOWNNAME":"安南區","LI":"原佃里","LIN":"7鄰","STREET":"安中路","SECT":"二段","MAREA":" ","LANE":"２巷","ALLEY":"１１５弄","HOUSE_NO":"１２號","E_COORD97":167206.48999999999,"N_COORD97":2549836.2999999998,"ADDRESS":"安中路二段２巷１１５弄１２號","OBJECTID":38664},"geometry":{"x":167206.49000000022,"y":2549836.3000000007}},{"attributes":{"ID":38665,"DIS_CODE":0,"TOWNNAME":"安南區","LI":"原佃里","LIN":"7鄰","STREET":"安中路","SECT":"二段","MAREA":" ","LANE":"２巷","ALLEY":"１１５弄","HOUSE_NO":"１３號","E_COORD97":167188.94,"N_COORD97":2549826.8199999998,"ADDRESS":"安中路二段２巷１１５弄１３號","OBJECTID":38665},"geometry":{"x":167188.94000000134,"y":2549826.820000004}},{"attributes":{"ID":38666,"DIS_CODE":0,"TOWNNAME":"安南區","LI":"原佃里","LIN":"7鄰","STREET":"安中路","SECT":"二段","MAREA":" ","LANE":"２巷","ALLEY":"１１５弄","HOUSE_NO":"１５號","E_COORD97":167184.03,"N_COORD97":2549838.4100000001,"ADDRESS":"安中路二段２巷１１５弄１５號","OBJECTID":38666},"geometry":{"x":167184.03000000026,"y":2549838.4100000001}},{"attributes":{"ID":38667,"DIS_CODE":0,"TOWNNAME":"佳里區","LI":"東寧里","LIN":"14鄰","STREET":"義民街","SECT":" ","MAREA":" ","LANE":" ","ALLEY":" ","HOUSE_NO":"９０號","E_COORD97":165928.07000000001,"N_COORD97":2562435.02,"ADDRESS":"義民街９０號","OBJECTID":38667},"geometry":{"x":165928.07000000216,"y":2562435.0200000014}},{"attributes":{"ID":38668,"DIS_CODE":0,"TOWNNAME":"新化區","LI":"全興里","LIN":"14鄰","STREET":" ","SECT":" ","MAREA":"竹子\u25A0","LANE":" ","ALLEY":" ","HOUSE_NO":"２４７號之４０３","E_COORD97":178124.57999999999,"N_COORD97":2546709.2599999998,"ADDRESS":"竹子\u25A0２４７號之４０３","OBJECTID":38668},"geometry":{"x":178124.58000000194,"y":2546709.2599999998}},{"attributes":{"ID":38669,"DIS_CODE":0,"TOWNNAME":"麻豆區","LI":"安業里","LIN":"7鄰","STREET":" ","SECT":" ","MAREA":"安業","LANE":" ","ALLEY":" ","HOUSE_NO":"１２３號之１３","E_COORD97":172649.69,"N_COORD97":2562316.27,"ADDRESS":"安業１２３號之１３","OBJECTID":38669},"geometry":{"x":172649.69000000041,"y":2562316.2699999977}},{"attributes":{"ID":38670,"DIS_CODE":0,"TOWNNAME":"麻豆區","LI":"安業里","LIN":"7鄰","STREET":" ","SECT":" ","MAREA":"安業","LANE":" ","ALLEY":" ","HOUSE_NO":"１２３號之１","E_COORD97":172673.73999999999,"N_COORD97":2562252.77,"ADDRESS":"安業１２３號之１","OBJECTID":38670},"geometry":{"x":172673.74000000209,"y":2562252.7700000014}},{"attributes":{"ID":38671,"DIS_CODE":0,"TOWNNAME":"麻豆區","LI":"安業里","LIN":"7鄰","STREET":" ","SECT":" ","MAREA":"安業","LANE":" ","ALLEY":" ","HOUSE_NO":"１２３號之２","E_COORD97":172693.82000000001,"N_COORD97":2562261.1099999999,"ADDRESS":"安業１２３號之２","OBJECTID":38671},"geometry":{"x":172693.82000000123,"y":2562261.1100000013}},{"attributes":{"ID":38672,"DIS_CODE":0,"TOWNNAME":"柳營區","LI":"神農里","LIN":"15鄰","STREET":" ","SECT":" ","MAREA":"新厝","LANE":" ","ALLEY":" ","HOUSE_NO":"６號之１","E_COORD97":183349.19,"N_COORD97":2573204.6499999999,"ADDRESS":"新厝６號之１","OBJECTID":38672},"geometry":{"x":183349.19000000134,"y":2573204.6500000041}},{"attributes":{"ID":38673,"DIS_CODE":0,"TOWNNAME":"麻豆區","LI":"安業里","LIN":"7鄰","STREET":" ","SECT":" ","MAREA":"安業","LANE":" ","ALLEY":" ","HOUSE_NO":"１２３號之３","E_COORD97":172675.44,"N_COORD97":2562282.48,"ADDRESS":"安業１２３號之３","OBJECTID":38673},"geometry":{"x":172675.44000000041,"y":2562282.4800000023}},{"attributes":{"ID":38674,"DIS_CODE":0,"TOWNNAME":"麻豆區","LI":"安業里","LIN":"7鄰","STREET":" ","SECT":" ","MAREA":"安業","LANE":" ","ALLEY":" ","HOUSE_NO":"１２３號之４","E_COORD97":172701.26999999999,"N_COORD97":2562291.5600000001,"ADDRESS":"安業１２３號之４","OBJECTID":38674},"geometry":{"x":172701.26999999955,"y":2562291.5599999987}},{"attributes":{"ID":38675,"DIS_CODE":0,"TOWNNAME":"麻豆區","LI":"安業里","LIN":"7鄰","STREET":" ","SECT":" ","MAREA":"安業","LANE":" ","ALLEY":" ","HOUSE_NO":"１２３號之５","E_COORD97":172733.97,"N_COORD97":2562270.9199999999,"ADDRESS":"安業１２３號之５","OBJECTID":38675},"geometry":{"x":172733.96999999974,"y":2562270.9199999999}},{"attributes":{"ID":38676,"DIS_CODE":0,"TOWNNAME":"麻豆區","LI":"安業里","LIN":"7鄰","STREET":" ","SECT":" ","MAREA":"安業","LANE":" ","ALLEY":" ","HOUSE_NO":"１２３號之６","E_COORD97":172725.87,"N_COORD97":2562287.6299999999,"ADDRESS":"安業１２３號之６","OBJECTID":38676},"geometry":{"x":172725.87000000104,"y":2562287.6300000008}},{"attributes":{"ID":38677,"DIS_CODE":0,"TOWNNAME":"麻豆區","LI":"安業里","LIN":"7鄰","STREET":" ","SECT":" ","MAREA":"安業","LANE":" ","ALLEY":" ","HOUSE_NO":"１２３號之７","E_COORD97":172715.62,"N_COORD97":2562296.7000000002,"ADDRESS":"安業１２３號之７","OBJECTID":38677},"geometry":{"x":172715.62000000104,"y":2562296.7000000011}},{"attributes":{"ID":38678,"DIS_CODE":0,"TOWNNAME":"麻豆區","LI":"安業里","LIN":"7鄰","STREET":" ","SECT":" ","MAREA":"安業","LANE":" ","ALLEY":" ","HOUSE_NO":"１４５號之２","E_COORD97":172553.14000000001,"N_COORD97":2562200.4300000002,"ADDRESS":"安業１４５號之２","OBJECTID":38678},"geometry":{"x":172553.13999999966,"y":2562200.4300000034}},{"attributes":{"ID":38679,"DIS_CODE":0,"TOWNNAME":"麻豆區","LI":"安業里","LIN":"7鄰","STREET":" ","SECT":" ","MAREA":"安業","LANE":" ","ALLEY":" ","HOUSE_NO":"１４５號之３","E_COORD97":172569.67000000001,"N_COORD97":2562207.1800000002,"ADDRESS":"安業１４５號之３","OBJECTID":38679},"geometry":{"x":172569.66999999993,"y":2562207.1799999997}},{"attributes":{"ID":38680,"DIS_CODE":0,"TOWNNAME":"麻豆區","LI":"安業里","LIN":"7鄰","STREET":" ","SECT":" ","MAREA":"安業","LANE":" ","ALLEY":" ","HOUSE_NO":"１４５號之４","E_COORD97":172574.98999999999,"N_COORD97":2562210.3799999999,"ADDRESS":"安業１４５號之４","OBJECTID":38680},"geometry":{"x":172574.99000000022,"y":2562210.3800000008}},{"attributes":{"ID":38681,"DIS_CODE":0,"TOWNNAME":"南化區","LI":"小崙里","LIN":"7鄰","STREET":" ","SECT":" ","MAREA":"小崙","LANE":" ","ALLEY":" ","HOUSE_NO":"８１號","E_COORD97":198497.37,"N_COORD97":2549700.75,"ADDRESS":"小崙８１號","OBJECTID":38681},"geometry":{"x":198497.37000000104,"y":2549700.75}},{"attributes":{"ID":38682,"DIS_CODE":0,"TOWNNAME":"麻豆區","LI":"安業里","LIN":"7鄰","STREET":" ","SECT":" ","MAREA":"安業","LANE":" ","ALLEY":" ","HOUSE_NO":"１４６號之１","E_COORD97":172558.26000000001,"N_COORD97":2562269.4100000001,"ADDRESS":"安業１４６號之１","OBJECTID":38682},"geometry":{"x":172558.26000000071,"y":2562269.410000002}},{"attributes":{"ID":38683,"DIS_CODE":0,"TOWNNAME":"麻豆區","LI":"安業里","LIN":"7鄰","STREET":" ","SECT":" ","MAREA":"安業","LANE":" ","ALLEY":" ","HOUSE_NO":"１４６號之２","E_COORD97":172582.23999999999,"N_COORD97":2562281.2400000002,"ADDRESS":"安業１４６號之２","OBJECTID":38683},"geometry":{"x":172582.24000000209,"y":2562281.2400000021}},{"attributes":{"ID":38684,"DIS_CODE":0,"TOWNNAME":"安平區","LI":"平安里","LIN":"20鄰","STREET":"民權路","SECT":"四段","MAREA":" ","LANE":" ","ALLEY":" ","HOUSE_NO":"６８１號","E_COORD97":164896.26000000001,"N_COORD97":2544625.5299999998,"ADDRESS":"民權路四段６８１號","OBJECTID":38684},"geometry":{"x":164896.26000000071,"y":2544625.5299999993}},{"attributes":{"ID":38685,"DIS_CODE":0,"TOWNNAME":"麻豆區","LI":"安業里","LIN":"7鄰","STREET":" ","SECT":" ","MAREA":"安業","LANE":" ","ALLEY":" ","HOUSE_NO":"１４６號之３","E_COORD97":172586.23999999999,"N_COORD97":2562283.4199999999,"ADDRESS":"安業１４６號之３","OBJECTID":38685},"geometry":{"x":172586.24000000115,"y":2562283.4200000018}},{"attributes":{"ID":38686,"DIS_CODE":0,"TOWNNAME":"麻豆區","LI":"安業里","LIN":"7鄰","STREET":" ","SECT":" ","MAREA":"安業","LANE":" ","ALLEY":" ","HOUSE_NO":"１４６號之６","E_COORD97":172608.54000000001,"N_COORD97":2562283.2400000002,"ADDRESS":"安業１４６號之６","OBJECTID":38686},"geometry":{"x":172608.54000000004,"y":2562283.2399999984}},{"attributes":{"ID":38687,"DIS_CODE":0,"TOWNNAME":"麻豆區","LI":"安業里","LIN":"7鄰","STREET":" ","SECT":" ","MAREA":"安業","LANE":" ","ALLEY":" ","HOUSE_NO":"１４８號之１０","E_COORD97":172599.20000000001,"N_COORD97":2562245.4900000002,"ADDRESS":"安業１４８號之１０","OBJECTID":38687},"geometry":{"x":172599.19999999925,"y":2562245.4900000021}},{"attributes":{"ID":38688,"DIS_CODE":0,"TOWNNAME":"麻豆區","LI":"安業里","LIN":"7鄰","STREET":" ","SECT":" ","MAREA":"安業","LANE":" ","ALLEY":" ","HOUSE_NO":"１４８號之１１","E_COORD97":172605.19,"N_COORD97":2562248.9900000002,"ADDRESS":"安業１４８號之１１","OBJECTID":38688},"geometry":{"x":172605.19000000134,"y":2562248.9900000021}},{"attributes":{"ID":38689,"DIS_CODE":0,"TOWNNAME":"麻豆區","LI":"安業里","LIN":"7鄰","STREET":" ","SECT":" ","MAREA":"安業","LANE":" ","ALLEY":" ","HOUSE_NO":"１４８號之１２","E_COORD97":172609.54000000001,"N_COORD97":2562251.4100000001,"ADDRESS":"安業１４８號之１２","OBJECTID":38689},"geometry":{"x":172609.54000000097,"y":2562251.4100000001}},{"attributes":{"ID":38690,"DIS_CODE":0,"TOWNNAME":"麻豆區","LI":"安業里","LIN":"7鄰","STREET":" ","SECT":" ","MAREA":"安業","LANE":" ","ALLEY":" ","HOUSE_NO":"１４８號之１３","E_COORD97":172614.23000000001,"N_COORD97":2562254.3900000001,"ADDRESS":"安業１４８號之１３","OBJECTID":38690},"geometry":{"x":172614.23000000045,"y":2562254.3900000006}},{"attributes":{"ID":38691,"DIS_CODE":0,"TOWNNAME":"麻豆區","LI":"安業里","LIN":"7鄰","STREET":" ","SECT":" ","MAREA":"安業","LANE":" ","ALLEY":" ","HOUSE_NO":"１４８號之１４","E_COORD97":172619.85999999999,"N_COORD97":2562256.7400000002,"ADDRESS":"安業１４８號之１４","OBJECTID":38691},"geometry":{"x":172619.86000000034,"y":2562256.7400000021}},{"attributes":{"ID":38692,"DIS_CODE":0,"TOWNNAME":"麻豆區","LI":"安業里","LIN":"7鄰","STREET":" ","SECT":" ","MAREA":"安業","LANE":" ","ALLEY":" ","HOUSE_NO":"１４８號之１","E_COORD97":172545.28,"N_COORD97":2562216.75,"ADDRESS":"安業１４８號之１","OBJECTID":38692},"geometry":{"x":172545.28000000119,"y":2562216.7500000019}},{"attributes":{"ID":38693,"DIS_CODE":0,"TOWNNAME":"安平區","LI":"平安里","LIN":"20鄰","STREET":"民權路","SECT":"四段","MAREA":" ","LANE":" ","ALLEY":" ","HOUSE_NO":"６８３號","E_COORD97":164892.73000000001,"N_COORD97":2544627.1699999999,"ADDRESS":"民權路四段６８３號","OBJECTID":38693},"geometry":{"x":164892.73000000045,"y":2544627.1700000018}},{"attributes":{"ID":38694,"DIS_CODE":0,"TOWNNAME":"安平區","LI":"平安里","LIN":"20鄰","STREET":"民權路","SECT":"四段","MAREA":" ","LANE":" ","ALLEY":" ","HOUSE_NO":"６８５號","E_COORD97":164888.51000000001,"N_COORD97":2544629.75,"ADDRESS":"民權路四段６８５號","OBJECTID":38694},"geometry":{"x":164888.50999999978,"y":2544629.7500000019}},{"attributes":{"ID":38695,"DIS_CODE":0,"TOWNNAME":"麻豆區","LI":"安業里","LIN":"7鄰","STREET":" ","SECT":" ","MAREA":"安業","LANE":" ","ALLEY":" ","HOUSE_NO":"１４８號之２","E_COORD97":172503.82999999999,"N_COORD97":2562184.8900000001,"ADDRESS":"安業１４８號之２","OBJECTID":38695},"geometry":{"x":172503.83000000101,"y":2562184.8900000025}},{"attributes":{"ID":38696,"DIS_CODE":0,"TOWNNAME":"安南區","LI":"原佃里","LIN":"7鄰","STREET":"安中路","SECT":"二段","MAREA":" ","LANE":"２巷","ALLEY":"１１５弄","HOUSE_NO":"１６號","E_COORD97":167202.26999999999,"N_COORD97":2549848.9300000002,"ADDRESS":"安中路二段２巷１１５弄１６號","OBJECTID":38696},"geometry":{"x":167202.26999999862,"y":2549848.9299999978}},{"attributes":{"ID":38697,"DIS_CODE":0,"TOWNNAME":"仁德區","LI":"田厝里","LIN":"7鄰","STREET":"中正路","SECT":"一段","MAREA":" ","LANE":"５９９巷","ALLEY":"２弄","HOUSE_NO":"８號","E_COORD97":172903.437936,"N_COORD97":2537861.05253,"ADDRESS":"中正路一段５９９巷２弄８號","OBJECTID":38697},"geometry":{"x":172903.43793600053,"y":2537861.0525310002}},{"attributes":{"ID":38698,"DIS_CODE":0,"TOWNNAME":"安南區","LI":"原佃里","LIN":"7鄰","STREET":"安中路","SECT":"二段","MAREA":" ","LANE":"２巷","ALLEY":"１１５弄","HOUSE_NO":"１８號","E_COORD97":167196.31,"N_COORD97":2549861.5699999998,"ADDRESS":"安中路二段２巷１１５弄１８號","OBJECTID":38698},"geometry":{"x":167196.30999999959,"y":2549861.5700000003}},{"attributes":{"ID":38699,"DIS_CODE":0,"TOWNNAME":"安南區","LI":"原佃里","LIN":"7鄰","STREET":"安中路","SECT":"二段","MAREA":" ","LANE":"２巷","ALLEY":"１１５弄","HOUSE_NO":"１７號","E_COORD97":167175.95000000001,"N_COORD97":2549854.2000000002,"ADDRESS":"安中路二段２巷１１５弄１７號","OBJECTID":38699},"geometry":{"x":167175.95000000019,"y":2549854.2000000011}},{"attributes":{"ID":38700,"DIS_CODE":0,"TOWNNAME":"安南區","LI":"原佃里","LIN":"7鄰","STREET":"安中路","SECT":"二段","MAREA":" ","LANE":"２巷","ALLEY":"１１５弄","HOUSE_NO":"２０號","E_COORD97":167188.59,"N_COORD97":2549871.3900000001,"ADDRESS":"安中路二段２巷１１５弄２０號","OBJECTID":38700},"geometry":{"x":167188.59000000171,"y":2549871.3900000025}},{"attributes":{"ID":38701,"DIS_CODE":0,"TOWNNAME":"安南區","LI":"原佃里","LIN":"7鄰","STREET":"安中路","SECT":"二段","MAREA":" ","LANE":"２巷","ALLEY":"１１５弄","HOUSE_NO":"１９號","E_COORD97":167173.5,"N_COORD97":2549863.6699999999,"ADDRESS":"安中路二段２巷１１５弄１９號","OBJECTID":38701},"geometry":{"x":167173.5,"y":2549863.6699999999}},{"attributes":{"ID":38702,"DIS_CODE":0,"TOWNNAME":"安南區","LI":"原佃里","LIN":"7鄰","STREET":"安中路","SECT":"二段","MAREA":" ","LANE":"２巷","ALLEY":"１１５弄","HOUSE_NO":"２１號","E_COORD97":167168.23000000001,"N_COORD97":2549873.5,"ADDRESS":"安中路二段２巷１１５弄２１號","OBJECTID":38702},"geometry":{"x":167168.23000000138,"y":2549873.5000000019}},{"attributes":{"ID":38703,"DIS_CODE":0,"TOWNNAME":"安南區","LI":"原佃里","LIN":"7鄰","STREET":"安中路","SECT":"二段","MAREA":" ","LANE":"２巷","ALLEY":"１１５弄","HOUSE_NO":"２２號","E_COORD97":167184.73000000001,"N_COORD97":2549882.98,"ADDRESS":"安中路二段２巷１１５弄２２號","OBJECTID":38703},"geometry":{"x":167184.73000000045,"y":2549882.9800000004}},{"attributes":{"ID":38704,"DIS_CODE":0,"TOWNNAME":"安南區","LI":"原佃里","LIN":"7鄰","STREET":"安中路","SECT":"二段","MAREA":" ","LANE":"２巷","ALLEY":"１１５弄","HOUSE_NO":"２３號","E_COORD97":167164.37,"N_COORD97":2549884.3799999999,"ADDRESS":"安中路二段２巷１１５弄２３號","OBJECTID":38704},"geometry":{"x":167164.37000000011,"y":2549884.379999999}},{"attributes":{"ID":38705,"DIS_CODE":0,"TOWNNAME":"安南區","LI":"原佃里","LIN":"7鄰","STREET":"安中路","SECT":"二段","MAREA":" ","LANE":"２巷","ALLEY":"１１５弄","HOUSE_NO":"２６號","E_COORD97":167179.45999999999,"N_COORD97":2549895.96,"ADDRESS":"安中路二段２巷１１５弄２６號","OBJECTID":38705},"geometry":{"x":167179.46000000183,"y":2549895.9600000009}},{"attributes":{"ID":38706,"DIS_CODE":0,"TOWNNAME":"柳營區","LI":"神農里","LIN":"15鄰","STREET":" ","SECT":" ","MAREA":"新厝","LANE":" ","ALLEY":" ","HOUSE_NO":"６號","E_COORD97":183363.64000000001,"N_COORD97":2573210.3500000001,"ADDRESS":"新厝６號","OBJECTID":38706},"geometry":{"x":183363.64000000153,"y":2573210.3500000015}},{"attributes":{"ID":38707,"DIS_CODE":0,"TOWNNAME":"安南區","LI":"原佃里","LIN":"7鄰","STREET":"安中路","SECT":"二段","MAREA":" ","LANE":"２巷","ALLEY":"１１５弄","HOUSE_NO":"２８號","E_COORD97":167174.54999999999,"N_COORD97":2549904.3799999999,"ADDRESS":"安中路二段２巷１１５弄２８號","OBJECTID":38707},"geometry":{"x":167174.54999999981,"y":2549904.3800000008}},{"attributes":{"ID":38708,"DIS_CODE":0,"TOWNNAME":"安南區","LI":"原佃里","LIN":"7鄰","STREET":"安中路","SECT":"二段","MAREA":" ","LANE":"２巷","ALLEY":"１１５弄","HOUSE_NO":"３０號","E_COORD97":167169.29000000001,"N_COORD97":2549917.02,"ADDRESS":"安中路二段２巷１１５弄３０號","OBJECTID":38708},"geometry":{"x":167169.29000000097,"y":2549917.0200000014}},{"attributes":{"ID":38709,"DIS_CODE":0,"TOWNNAME":"安南區","LI":"原佃里","LIN":"7鄰","STREET":"安中路","SECT":"二段","MAREA":" ","LANE":"２巷","ALLEY":"１１５弄","HOUSE_NO":"２５號","E_COORD97":167155.95000000001,"N_COORD97":2549899.4700000002,"ADDRESS":"安中路二段２巷１１５弄２５號","OBJECTID":38709},"geometry":{"x":167155.94999999925,"y":2549899.4700000007}},{"attributes":{"ID":38710,"DIS_CODE":0,"TOWNNAME":"安南區","LI":"城西里","LIN":"7鄰","STREET":"城西街","SECT":"三段","MAREA":" ","LANE":"１１０５巷","ALLEY":"１２１弄","HOUSE_NO":"１５６號","E_COORD97":155321.32000000001,"N_COORD97":2549680.4900000002,"ADDRESS":"城西街三段１１０５巷１２１弄１５６號","OBJECTID":38710},"geometry":{"x":155321.32000000216,"y":2549680.4900000021}},{"attributes":{"ID":38711,"DIS_CODE":0,"TOWNNAME":"永康區","LI":"甲頂里","LIN":"7鄰","STREET":"中正南路","SECT":" ","MAREA":" ","LANE":"５２巷","ALLEY":"７１弄","HOUSE_NO":"６２號","E_COORD97":169868.54000000001,"N_COORD97":2546837.3799999999,"ADDRESS":"中正南路５２巷７１弄６２號","OBJECTID":38711},"geometry":{"x":169868.54000000004,"y":2546837.379999999}},{"attributes":{"ID":38712,"DIS_CODE":0,"TOWNNAME":"永康區","LI":"正強里","LIN":"7鄰","STREET":"自強路","SECT":" ","MAREA":" ","LANE":"３３０巷","ALLEY":"２１弄","HOUSE_NO":"５０號","E_COORD97":173523.72,"N_COORD97":2547664.1499999999,"ADDRESS":"自強路３３０巷２１弄５０號","OBJECTID":38712},"geometry":{"x":173523.71999999974,"y":2547664.1500000004}},{"attributes":{"ID":38713,"DIS_CODE":0,"TOWNNAME":"永康區","LI":"正強里","LIN":"7鄰","STREET":"自強路","SECT":" ","MAREA":" ","LANE":"３３０巷","ALLEY":"２１弄","HOUSE_NO":"８號","E_COORD97":173464.09,"N_COORD97":2547639.21,"ADDRESS":"自強路３３０巷２１弄８號","OBJECTID":38713},"geometry":{"x":173464.08999999985,"y":2547639.2100000028}},{"attributes":{"ID":38714,"DIS_CODE":0,"TOWNNAME":"永康區","LI":"正強里","LIN":"7鄰","STREET":"自強路","SECT":" ","MAREA":" ","LANE":"３３０巷","ALLEY":"２１弄","HOUSE_NO":"３２號","E_COORD97":173492.09,"N_COORD97":2547649.4900000002,"ADDRESS":"自強路３３０巷２１弄３２號","OBJECTID":38714},"geometry":{"x":173492.09000000078,"y":2547649.4900000021}},{"attributes":{"ID":38715,"DIS_CODE":0,"TOWNNAME":"永康區","LI":"正強里","LIN":"7鄰","STREET":"自強路","SECT":" ","MAREA":" ","LANE":"３３０巷","ALLEY":"２１弄","HOUSE_NO":"４６號","E_COORD97":173517.79999999999,"N_COORD97":2547658.8999999999,"ADDRESS":"自強路３３０巷２１弄４６號","OBJECTID":38715},"geometry":{"x":173517.80000000075,"y":2547658.9000000004}},{"attributes":{"ID":38716,"DIS_CODE":0,"TOWNNAME":"永康區","LI":"甲頂里","LIN":"7鄰","STREET":"中正南路","SECT":" ","MAREA":" ","LANE":"５２巷","ALLEY":"７１弄","HOUSE_NO":"６０號","E_COORD97":169872.17999999999,"N_COORD97":2546839.3799999999,"ADDRESS":"中正南路５２巷７１弄６０號","OBJECTID":38716},"geometry":{"x":169872.18000000063,"y":2546839.3800000008}},{"attributes":{"ID":38717,"DIS_CODE":0,"TOWNNAME":"永康區","LI":"正強里","LIN":"7鄰","STREET":"自強路","SECT":" ","MAREA":" ","LANE":"３３０巷","ALLEY":"２１弄","HOUSE_NO":"４８號","E_COORD97":173521.09,"N_COORD97":2547661.1499999999,"ADDRESS":"自強路３３０巷２１弄４８號","OBJECTID":38717},"geometry":{"x":173521.08999999985,"y":2547661.1500000004}},{"attributes":{"ID":38718,"DIS_CODE":0,"TOWNNAME":"永康區","LI":"正強里","LIN":"7鄰","STREET":"自強路","SECT":" ","MAREA":" ","LANE":"３３０巷","ALLEY":"２１弄","HOUSE_NO":"２０號","E_COORD97":173486.34,"N_COORD97":2547623.9900000002,"ADDRESS":"自強路３３０巷２１弄２０號","OBJECTID":38718},"geometry":{"x":173486.34000000171,"y":2547623.9900000002}},{"attributes":{"ID":38719,"DIS_CODE":0,"TOWNNAME":"永康區","LI":"正強里","LIN":"7鄰","STREET":"自強路","SECT":" ","MAREA":" ","LANE":"３３０巷","ALLEY":"２１弄","HOUSE_NO":"２６號","E_COORD97":173479.34,"N_COORD97":2547643.98,"ADDRESS":"自強路３３０巷２１弄２６號","OBJECTID":38719},"geometry":{"x":173479.33999999985,"y":2547643.9800000023}},{"attributes":{"ID":38720,"DIS_CODE":0,"TOWNNAME":"安平區","LI":"石門里","LIN":"7鄰","STREET":"安北路","SECT":" ","MAREA":" ","LANE":"４０巷","ALLEY":"１７弄","HOUSE_NO":"９號之２三樓","E_COORD97":164579.76999999999,"N_COORD97":2544650.0299999998,"ADDRESS":"安北路４０巷１７弄９號之２三樓","OBJECTID":38720},"geometry":{"x":164579.76999999862,"y":2544650.0299999993}},{"attributes":{"ID":38721,"DIS_CODE":0,"TOWNNAME":"南區","LI":"再興里","LIN":"14鄰","STREET":"金華路","SECT":"二段","MAREA":" ","LANE":"１００巷","ALLEY":" ","HOUSE_NO":"２號","E_COORD97":167154.35000000001,"N_COORD97":2542084.4300000002,"ADDRESS":"金華路二段１００巷２號","OBJECTID":38721},"geometry":{"x":167154.3499999987,"y":2542084.4299999997}},{"attributes":{"ID":38722,"DIS_CODE":0,"TOWNNAME":"東區","LI":"關聖里","LIN":"14鄰","STREET":"裕和二街","SECT":" ","MAREA":" ","LANE":" ","ALLEY":" ","HOUSE_NO":"７１號","E_COORD97":172218.89000000001,"N_COORD97":2542968.9700000002,"ADDRESS":"裕和二街７１號","OBJECTID":38722},"geometry":{"x":172218.88999999966,"y":2542968.9700000025}},{"attributes":{"ID":38723,"DIS_CODE":0,"TOWNNAME":"永康區","LI":"埔園里","LIN":"15鄰","STREET":"中山路","SECT":" ","MAREA":" ","LANE":" ","ALLEY":" ","HOUSE_NO":"３３１號","E_COORD97":173593.17999999999,"N_COORD97":2548408.25,"ADDRESS":"中山路３３１號","OBJECTID":38723},"geometry":{"x":173593.1799999997,"y":2548408.25}},{"attributes":{"ID":38724,"DIS_CODE":0,"TOWNNAME":"新營區","LI":"民權里","LIN":"18鄰","STREET":"博愛街","SECT":" ","MAREA":" ","LANE":" ","ALLEY":" ","HOUSE_NO":"６６號","E_COORD97":179768.69,"N_COORD97":2578141.8999999999,"ADDRESS":"博愛街６６號","OBJECTID":38724},"geometry":{"x":179768.69000000227,"y":2578141.9000000004}},{"attributes":{"ID":38725,"DIS_CODE":0,"TOWNNAME":"柳營區","LI":"東昇里","LIN":"8鄰","STREET":"成功街","SECT":" ","MAREA":" ","LANE":" ","ALLEY":" ","HOUSE_NO":"６０號","E_COORD97":180066.76999999999,"N_COORD97":2575339.8399999999,"ADDRESS":"成功街６０號","OBJECTID":38725},"geometry":{"x":180066.76999999955,"y":2575339.8400000017}},{"attributes":{"ID":38726,"DIS_CODE":0,"TOWNNAME":"鹽水區","LI":"橋南里","LIN":"7鄰","STREET":"新中路","SECT":" ","MAREA":" ","LANE":"８２巷","ALLEY":"８０弄","HOUSE_NO":"１３號三樓","E_COORD97":175798.06,"N_COORD97":2578703.7000000002,"ADDRESS":"新中路８２巷８０弄１３號三樓","OBJECTID":38726},"geometry":{"x":175798.05999999959,"y":2578703.7000000011}},{"attributes":{"ID":38727,"DIS_CODE":0,"TOWNNAME":"仁德區","LI":"太子里","LIN":"7鄰","STREET":"太子路","SECT":" ","MAREA":" ","LANE":"１９０巷","ALLEY":"４弄","HOUSE_NO":"１號二樓","E_COORD97":174343.10000000001,"N_COORD97":2543601.79,"ADDRESS":"太子路１９０巷４弄１號二樓","OBJECTID":38727},"geometry":{"x":174343.09999999963,"y":2543601.790000001}},{"attributes":{"ID":38728,"DIS_CODE":0,"TOWNNAME":"東區","LI":"德光里","LIN":"14鄰","STREET":"崇德二街","SECT":" ","MAREA":" ","LANE":"６巷","ALLEY":" ","HOUSE_NO":"２４號","E_COORD97":170169.32000000001,"N_COORD97":2542324.2599999998,"ADDRESS":"崇德二街６巷２４號","OBJECTID":38728},"geometry":{"x":170169.31999999937,"y":2542324.2600000016}},{"attributes":{"ID":38729,"DIS_CODE":0,"TOWNNAME":"麻豆區","LI":"安業里","LIN":"7鄰","STREET":" ","SECT":" ","MAREA":"安業","LANE":" ","ALLEY":" ","HOUSE_NO":"１４８號之３","E_COORD97":172561.92999999999,"N_COORD97":2562226.23,"ADDRESS":"安業１４８號之３","OBJECTID":38729},"geometry":{"x":172561.93000000063,"y":2562226.2300000042}},{"attributes":{"ID":38730,"DIS_CODE":0,"TOWNNAME":"麻豆區","LI":"安業里","LIN":"7鄰","STREET":" ","SECT":" ","MAREA":"安業","LANE":" ","ALLEY":" ","HOUSE_NO":"１４８號之４","E_COORD97":172568.16,"N_COORD97":2562229.1699999999,"ADDRESS":"安業１４８號之４","OBJECTID":38730},"geometry":{"x":172568.16000000108,"y":2562229.1699999981}},{"attributes":{"ID":38731,"DIS_CODE":0,"TOWNNAME":"麻豆區","LI":"安業里","LIN":"7鄰","STREET":" ","SECT":" ","MAREA":"安業","LANE":" ","ALLEY":" ","HOUSE_NO":"１４８號之５","E_COORD97":172573.59,"N_COORD97":2562231.6699999999,"ADDRESS":"安業１４８號之５","OBJECTID":38731},"geometry":{"x":172573.58999999985,"y":2562231.6699999999}},{"attributes":{"ID":38732,"DIS_CODE":0,"TOWNNAME":"麻豆區","LI":"安業里","LIN":"7鄰","STREET":" ","SECT":" ","MAREA":"安業","LANE":" ","ALLEY":" ","HOUSE_NO":"１４８號之６","E_COORD97":172578.29000000001,"N_COORD97":2562234.0699999998,"ADDRESS":"安業１４８號之６","OBJECTID":38732},"geometry":{"x":172578.2900000019,"y":2562234.070000004}},{"attributes":{"ID":38733,"DIS_CODE":0,"TOWNNAME":"麻豆區","LI":"安業里","LIN":"7鄰","STREET":" ","SECT":" ","MAREA":"安業","LANE":" ","ALLEY":" ","HOUSE_NO":"１４８號之７","E_COORD97":172583.42000000001,"N_COORD97":2562236.96,"ADDRESS":"安業１４８號之７","OBJECTID":38733},"geometry":{"x":172583.41999999993,"y":2562236.9600000009}},{"attributes":{"ID":38734,"DIS_CODE":0,"TOWNNAME":"麻豆區","LI":"安業里","LIN":"7鄰","STREET":" ","SECT":" ","MAREA":"安業","LANE":" ","ALLEY":" ","HOUSE_NO":"１４８號之８","E_COORD97":172588.91,"N_COORD97":2562239.7599999998,"ADDRESS":"安業１４８號之８","OBJECTID":38734},"geometry":{"x":172588.91000000015,"y":2562239.7600000016}},{"attributes":{"ID":38735,"DIS_CODE":0,"TOWNNAME":"麻豆區","LI":"安業里","LIN":"7鄰","STREET":" ","SECT":" ","MAREA":"安業","LANE":" ","ALLEY":" ","HOUSE_NO":"１４８號之９","E_COORD97":172593.89999999999,"N_COORD97":2562242.4900000002,"ADDRESS":"安業１４８號之９","OBJECTID":38735},"geometry":{"x":172593.90000000037,"y":2562242.4900000021}},{"attributes":{"ID":38736,"DIS_CODE":0,"TOWNNAME":"麻豆區","LI":"安業里","LIN":"7鄰","STREET":" ","SECT":" ","MAREA":"安業","LANE":" ","ALLEY":" ","HOUSE_NO":"１４８號","E_COORD97":172547.47,"N_COORD97":2562212.4399999999,"ADDRESS":"安業１４８號","OBJECTID":38736},"geometry":{"x":172547.46999999974,"y":2562212.4399999995}},{"attributes":{"ID":38737,"DIS_CODE":0,"TOWNNAME":"麻豆區","LI":"安西里","LIN":"7鄰","STREET":" ","SECT":" ","MAREA":"安業","LANE":" ","ALLEY":" ","HOUSE_NO":"２５３號之１","E_COORD97":172410.64999999999,"N_COORD97":2562060.0899999999,"ADDRESS":"安業２５３號之１","OBJECTID":38737},"geometry":{"x":172410.6500000013,"y":2562060.089999998}},{"attributes":{"ID":38738,"DIS_CODE":0,"TOWNNAME":"麻豆區","LI":"安西里","LIN":"7鄰","STREET":" ","SECT":" ","MAREA":"安業","LANE":" ","ALLEY":" ","HOUSE_NO":"２５３號","E_COORD97":172410.28,"N_COORD97":2562043.5,"ADDRESS":"安業２５３號","OBJECTID":38738},"geometry":{"x":172410.28000000026,"y":2562043.5}},{"attributes":{"ID":38739,"DIS_CODE":0,"TOWNNAME":"麻豆區","LI":"安西里","LIN":"7鄰","STREET":" ","SECT":" ","MAREA":"安業","LANE":" ","ALLEY":" ","HOUSE_NO":"２５４號之１","E_COORD97":172379.91,"N_COORD97":2562075.1400000001,"ADDRESS":"安業２５４號之１","OBJECTID":38739},"geometry":{"x":172379.91000000108,"y":2562075.1400000025}},{"attributes":{"ID":38740,"DIS_CODE":0,"TOWNNAME":"麻豆區","LI":"安西里","LIN":"7鄰","STREET":" ","SECT":" ","MAREA":"安業","LANE":" ","ALLEY":" ","HOUSE_NO":"２５４號之２","E_COORD97":172381.19,"N_COORD97":2562071.3700000001,"ADDRESS":"安業２５４號之２","OBJECTID":38740},"geometry":{"x":172381.19000000134,"y":2562071.3700000029}},{"attributes":{"ID":38741,"DIS_CODE":0,"TOWNNAME":"麻豆區","LI":"安西里","LIN":"7鄰","STREET":" ","SECT":" ","MAREA":"安業","LANE":" ","ALLEY":" ","HOUSE_NO":"２５４號之３","E_COORD97":172405.38,"N_COORD97":2562070.6800000002,"ADDRESS":"安業２５４號之３","OBJECTID":38741},"geometry":{"x":172405.37999999989,"y":2562070.6800000016}},{"attributes":{"ID":38742,"DIS_CODE":0,"TOWNNAME":"麻豆區","LI":"安西里","LIN":"7鄰","STREET":" ","SECT":" ","MAREA":"安業","LANE":" ","ALLEY":" ","HOUSE_NO":"２５６號","E_COORD97":172408.87,"N_COORD97":2562083.6800000002,"ADDRESS":"安業２５６號","OBJECTID":38742},"geometry":{"x":172408.87000000104,"y":2562083.6800000016}},{"attributes":{"ID":38743,"DIS_CODE":0,"TOWNNAME":"麻豆區","LI":"安西里","LIN":"7鄰","STREET":" ","SECT":" ","MAREA":"安業","LANE":" ","ALLEY":" ","HOUSE_NO":"２５７號","E_COORD97":172390.32999999999,"N_COORD97":2562093.75,"ADDRESS":"安業２５７號","OBJECTID":38743},"geometry":{"x":172390.33000000101,"y":2562093.7500000019}},{"attributes":{"ID":38744,"DIS_CODE":0,"TOWNNAME":"麻豆區","LI":"安西里","LIN":"7鄰","STREET":" ","SECT":" ","MAREA":"安業","LANE":" ","ALLEY":" ","HOUSE_NO":"２５９號之１","E_COORD97":172355.53,"N_COORD97":2562225.4500000002,"ADDRESS":"安業２５９號之１","OBJECTID":38744},"geometry":{"x":172355.53000000119,"y":2562225.4499999993}},{"attributes":{"ID":38745,"DIS_CODE":0,"TOWNNAME":"麻豆區","LI":"安西里","LIN":"7鄰","STREET":" ","SECT":" ","MAREA":"安業","LANE":" ","ALLEY":" ","HOUSE_NO":"２５９號之２","E_COORD97":172357.60000000001,"N_COORD97":2562157.9399999999,"ADDRESS":"安業２５９號之２","OBJECTID":38745},"geometry":{"x":172357.60000000056,"y":2562157.9399999995}},{"attributes":{"ID":38746,"DIS_CODE":0,"TOWNNAME":"麻豆區","LI":"安西里","LIN":"7鄰","STREET":" ","SECT":" ","MAREA":"安業","LANE":" ","ALLEY":" ","HOUSE_NO":"２５９號","E_COORD97":172401.47,"N_COORD97":2562127,"ADDRESS":"安業２５９號","OBJECTID":38746},"geometry":{"x":172401.46999999974,"y":2562127.0000000019}},{"attributes":{"ID":38747,"DIS_CODE":0,"TOWNNAME":"麻豆區","LI":"安東里","LIN":"7鄰","STREET":" ","SECT":" ","MAREA":"安業","LANE":" ","ALLEY":" ","HOUSE_NO":"６５號之３","E_COORD97":172948.26000000001,"N_COORD97":2562367.9100000001,"ADDRESS":"安業６５號之３","OBJECTID":38747},"geometry":{"x":172948.26000000071,"y":2562367.910000002}},{"attributes":{"ID":38748,"DIS_CODE":0,"TOWNNAME":"麻豆區","LI":"安東里","LIN":"7鄰","STREET":" ","SECT":" ","MAREA":"安業","LANE":" ","ALLEY":" ","HOUSE_NO":"６５號之４","E_COORD97":172961.64999999999,"N_COORD97":2562386.4399999999,"ADDRESS":"安業６５號之４","OBJECTID":38748},"geometry":{"x":172961.6500000013,"y":2562386.4400000032}},{"attributes":{"ID":38749,"DIS_CODE":0,"TOWNNAME":"麻豆區","LI":"安東里","LIN":"7鄰","STREET":" ","SECT":" ","MAREA":"安業","LANE":" ","ALLEY":" ","HOUSE_NO":"６５號之６","E_COORD97":172941.45000000001,"N_COORD97":2562381.7799999998,"ADDRESS":"安業６５號之６","OBJECTID":38749},"geometry":{"x":172941.45000000019,"y":2562381.7800000012}},{"attributes":{"ID":38750,"DIS_CODE":0,"TOWNNAME":"麻豆區","LI":"安東里","LIN":"7鄰","STREET":" ","SECT":" ","MAREA":"安業","LANE":" ","ALLEY":" ","HOUSE_NO":"６５號之７","E_COORD97":172948.12,"N_COORD97":2562395.8300000001,"ADDRESS":"安業６５號之７","OBJECTID":38750},"geometry":{"x":172948.12000000011,"y":2562395.8300000019}},{"attributes":{"ID":38751,"DIS_CODE":0,"TOWNNAME":"麻豆區","LI":"安東里","LIN":"7鄰","STREET":" ","SECT":" ","MAREA":"安業","LANE":" ","ALLEY":" ","HOUSE_NO":"６５號之８","E_COORD97":172938.07000000001,"N_COORD97":2562387.02,"ADDRESS":"安業６５號之８","OBJECTID":38751},"geometry":{"x":172938.07000000123,"y":2562387.0200000014}},{"attributes":{"ID":38752,"DIS_CODE":0,"TOWNNAME":"麻豆區","LI":"安東里","LIN":"7鄰","STREET":" ","SECT":" ","MAREA":"安業","LANE":" ","ALLEY":" ","HOUSE_NO":"６５號之９","E_COORD97":172938,"N_COORD97":2562394.1600000001,"ADDRESS":"安業６５號之９","OBJECTID":38752},"geometry":{"x":172938.00000000093,"y":2562394.1600000001}},{"attributes":{"ID":38753,"DIS_CODE":0,"TOWNNAME":"柳營區","LI":"果毅里","LIN":"7鄰","STREET":" ","SECT":" ","MAREA":"果毅後","LANE":" ","ALLEY":" ","HOUSE_NO":"８０號之１","E_COORD97":185790.39999999999,"N_COORD97":2572870.5699999998,"ADDRESS":"果毅後８０號之１","OBJECTID":38753},"geometry":{"x":185790.4000000013,"y":2572870.5700000022}},{"attributes":{"ID":38754,"DIS_CODE":0,"TOWNNAME":"柳營區","LI":"果毅里","LIN":"7鄰","STREET":" ","SECT":" ","MAREA":"果毅後","LANE":" ","ALLEY":" ","HOUSE_NO":"８０之２號","E_COORD97":185804.03,"N_COORD97":2572857.4900000002,"ADDRESS":"果毅後８０之２號","OBJECTID":38754},"geometry":{"x":185804.03000000026,"y":2572857.4900000021}},{"attributes":{"ID":38755,"DIS_CODE":0,"TOWNNAME":"柳營區","LI":"果毅里","LIN":"7鄰","STREET":" ","SECT":" ","MAREA":"果毅後","LANE":" ","ALLEY":" ","HOUSE_NO":"８０號之２","E_COORD97":185804.03,"N_COORD97":2572857.4900000002,"ADDRESS":"果毅後８０號之２","OBJECTID":38755},"geometry":{"x":185804.03000000026,"y":2572857.4900000021}},{"attributes":{"ID":38756,"DIS_CODE":0,"TOWNNAME":"柳營區","LI":"果毅里","LIN":"7鄰","STREET":" ","SECT":" ","MAREA":"果毅後","LANE":" ","ALLEY":" ","HOUSE_NO":"８１之１號","E_COORD97":185748.17000000001,"N_COORD97":2572861.48,"ADDRESS":"果毅後８１之１號","OBJECTID":38756},"geometry":{"x":185748.16999999993,"y":2572861.4800000023}},{"attributes":{"ID":38757,"DIS_CODE":0,"TOWNNAME":"柳營區","LI":"果毅里","LIN":"7鄰","STREET":" ","SECT":" ","MAREA":"果毅後","LANE":" ","ALLEY":" ","HOUSE_NO":"８１之２號","E_COORD97":185759.82000000001,"N_COORD97":2572848.21,"ADDRESS":"果毅後８１之２號","OBJECTID":38757},"geometry":{"x":185759.8200000003,"y":2572848.2100000009}},{"attributes":{"ID":38758,"DIS_CODE":0,"TOWNNAME":"柳營區","LI":"果毅里","LIN":"7鄰","STREET":" ","SECT":" ","MAREA":"果毅後","LANE":" ","ALLEY":" ","HOUSE_NO":"８１之３號","E_COORD97":185758.79999999999,"N_COORD97":2572844.6400000001,"ADDRESS":"果毅後８１之３號","OBJECTID":38758},"geometry":{"x":185758.80000000075,"y":2572844.6400000006}},{"attributes":{"ID":38759,"DIS_CODE":0,"TOWNNAME":"東區","LI":"德光里","LIN":"14鄰","STREET":"德光街","SECT":" ","MAREA":" ","LANE":" ","ALLEY":" ","HOUSE_NO":"１０２號","E_COORD97":170183.59,"N_COORD97":2542285.1499999999,"ADDRESS":"德光街１０２號","OBJECTID":38759},"geometry":{"x":170183.58999999985,"y":2542285.1500000022}},{"attributes":{"ID":38760,"DIS_CODE":0,"TOWNNAME":"東區","LI":"德光里","LIN":"14鄰","STREET":"德光街","SECT":" ","MAREA":" ","LANE":" ","ALLEY":" ","HOUSE_NO":"７０號","E_COORD97":170213.34,"N_COORD97":2542338.75,"ADDRESS":"德光街７０號","OBJECTID":38760},"geometry":{"x":170213.34000000078,"y":2542338.7500000019}},{"attributes":{"ID":38761,"DIS_CODE":0,"TOWNNAME":"柳營區","LI":"果毅里","LIN":"7鄰","STREET":" ","SECT":" ","MAREA":"果毅後","LANE":" ","ALLEY":" ","HOUSE_NO":"８１之４號","E_COORD97":185757.54999999999,"N_COORD97":2572840.5600000001,"ADDRESS":"果毅後８１之４號","OBJECTID":38761},"geometry":{"x":185757.54999999981,"y":2572840.5600000024}},{"attributes":{"ID":38762,"DIS_CODE":0,"TOWNNAME":"柳營區","LI":"果毅里","LIN":"7鄰","STREET":" ","SECT":" ","MAREA":"果毅後","LANE":" ","ALLEY":" ","HOUSE_NO":"８２號之１０","E_COORD97":185533.5,"N_COORD97":2572506.9900000002,"ADDRESS":"果毅後８２號之１０","OBJECTID":38762},"geometry":{"x":185533.50000000093,"y":2572506.9900000039}},{"attributes":{"ID":38763,"DIS_CODE":0,"TOWNNAME":"柳營區","LI":"果毅里","LIN":"7鄰","STREET":" ","SECT":" ","MAREA":"果毅後","LANE":" ","ALLEY":" ","HOUSE_NO":"８２號之１１","E_COORD97":185754.53,"N_COORD97":2572784.27,"ADDRESS":"果毅後８２號之１１","OBJECTID":38763},"geometry":{"x":185754.53000000026,"y":2572784.2699999996}},{"attributes":{"ID":38764,"DIS_CODE":0,"TOWNNAME":"柳營區","LI":"果毅里","LIN":"7鄰","STREET":" ","SECT":" ","MAREA":"果毅後","LANE":" ","ALLEY":" ","HOUSE_NO":"８２之１２號","E_COORD97":185739.76999999999,"N_COORD97":2572769.4300000002,"ADDRESS":"果毅後８２之１２號","OBJECTID":38764},"geometry":{"x":185739.77000000048,"y":2572769.4300000016}},{"attributes":{"ID":38765,"DIS_CODE":0,"TOWNNAME":"柳營區","LI":"果毅里","LIN":"7鄰","STREET":" ","SECT":" ","MAREA":"果毅後","LANE":" ","ALLEY":" ","HOUSE_NO":"８２之１３號","E_COORD97":185744.85999999999,"N_COORD97":2572767.3799999999,"ADDRESS":"果毅後８２之１３號","OBJECTID":38765},"geometry":{"x":185744.86000000127,"y":2572767.3799999971}},{"attributes":{"ID":38766,"DIS_CODE":0,"TOWNNAME":"柳營區","LI":"果毅里","LIN":"7鄰","STREET":" ","SECT":" ","MAREA":"果毅後","LANE":" ","ALLEY":" ","HOUSE_NO":"８２號之１","E_COORD97":185756.85999999999,"N_COORD97":2572792.1499999999,"ADDRESS":"果毅後８２號之１","OBJECTID":38766},"geometry":{"x":185756.86000000127,"y":2572792.1500000022}},{"attributes":{"ID":38767,"DIS_CODE":0,"TOWNNAME":"柳營區","LI":"果毅里","LIN":"7鄰","STREET":" ","SECT":" ","MAREA":"果毅後","LANE":" ","ALLEY":" ","HOUSE_NO":"８２之２號","E_COORD97":185748.69,"N_COORD97":2572805.2799999998,"ADDRESS":"果毅後８２之２號","OBJECTID":38767},"geometry":{"x":185748.69000000041,"y":2572805.2799999993}},{"attributes":{"ID":38768,"DIS_CODE":0,"TOWNNAME":"柳營區","LI":"果毅里","LIN":"7鄰","STREET":" ","SECT":" ","MAREA":"果毅後","LANE":" ","ALLEY":" ","HOUSE_NO":"８２號之２","E_COORD97":185748.69,"N_COORD97":2572805.2799999998,"ADDRESS":"果毅後８２號之２","OBJECTID":38768},"geometry":{"x":185748.69000000041,"y":2572805.2799999993}},{"attributes":{"ID":38769,"DIS_CODE":0,"TOWNNAME":"柳營區","LI":"果毅里","LIN":"7鄰","STREET":" ","SECT":" ","MAREA":"果毅後","LANE":" ","ALLEY":" ","HOUSE_NO":"８２之３號","E_COORD97":185749.75,"N_COORD97":2572829.3900000001,"ADDRESS":"果毅後８２之３號","OBJECTID":38769},"geometry":{"x":185749.75,"y":2572829.3900000006}},{"attributes":{"ID":38770,"DIS_CODE":0,"TOWNNAME":"柳營區","LI":"果毅里","LIN":"7鄰","STREET":" ","SECT":" ","MAREA":"果毅後","LANE":" ","ALLEY":" ","HOUSE_NO":"８２號之５","E_COORD97":185654.32999999999,"N_COORD97":2572560.1000000001,"ADDRESS":"果毅後８２號之５","OBJECTID":38770},"geometry":{"x":185654.33000000007,"y":2572560.1000000034}},{"attributes":{"ID":38771,"DIS_CODE":0,"TOWNNAME":"柳營區","LI":"果毅里","LIN":"7鄰","STREET":" ","SECT":" ","MAREA":"果毅後","LANE":" ","ALLEY":" ","HOUSE_NO":"８２之６號","E_COORD97":185826.03,"N_COORD97":2572505.3500000001,"ADDRESS":"果毅後８２之６號","OBJECTID":38771},"geometry":{"x":185826.03000000026,"y":2572505.3500000015}},{"attributes":{"ID":38772,"DIS_CODE":0,"TOWNNAME":"柳營區","LI":"果毅里","LIN":"7鄰","STREET":" ","SECT":" ","MAREA":"果毅後","LANE":" ","ALLEY":" ","HOUSE_NO":"８２之７號","E_COORD97":185738.67999999999,"N_COORD97":2572798.21,"ADDRESS":"果毅後８２之７號","OBJECTID":38772},"geometry":{"x":185738.68000000063,"y":2572798.2100000028}},{"attributes":{"ID":38773,"DIS_CODE":0,"TOWNNAME":"柳營區","LI":"果毅里","LIN":"8鄰","STREET":" ","SECT":" ","MAREA":"果毅後","LANE":" ","ALLEY":" ","HOUSE_NO":"８２之８號","E_COORD97":185666.06,"N_COORD97":2572150.1699999999,"ADDRESS":"果毅後８２之８號","OBJECTID":38773},"geometry":{"x":185666.05999999866,"y":2572150.1700000018}},{"attributes":{"ID":38774,"DIS_CODE":0,"TOWNNAME":"柳營區","LI":"神農里","LIN":"15鄰","STREET":" ","SECT":" ","MAREA":"新厝","LANE":" ","ALLEY":" ","HOUSE_NO":"７號","E_COORD97":183322.98000000001,"N_COORD97":2573227.1099999999,"ADDRESS":"新厝７號","OBJECTID":38774},"geometry":{"x":183322.98000000045,"y":2573227.1099999994}},{"attributes":{"ID":38775,"DIS_CODE":0,"TOWNNAME":"仁德區","LI":"太子里","LIN":"7鄰","STREET":"太子路","SECT":" ","MAREA":" ","LANE":"１９０巷","ALLEY":"１４弄","HOUSE_NO":"２號二樓","E_COORD97":174330.76999999999,"N_COORD97":2543629.0099999998,"ADDRESS":"太子路１９０巷１４弄２號二樓","OBJECTID":38775},"geometry":{"x":174330.77000000048,"y":2543629.0099999998}},{"attributes":{"ID":38776,"DIS_CODE":0,"TOWNNAME":"柳營區","LI":"果毅里","LIN":"7鄰","STREET":" ","SECT":" ","MAREA":"果毅後","LANE":" ","ALLEY":" ","HOUSE_NO":"８２號之８","E_COORD97":185666.06,"N_COORD97":2572150.1699999999,"ADDRESS":"果毅後８２號之８","OBJECTID":38776},"geometry":{"x":185666.05999999866,"y":2572150.1700000018}},{"attributes":{"ID":38777,"DIS_CODE":0,"TOWNNAME":"柳營區","LI":"果毅里","LIN":"7鄰","STREET":" ","SECT":" ","MAREA":"果毅後","LANE":" ","ALLEY":" ","HOUSE_NO":"８２之９號","E_COORD97":185753.97,"N_COORD97":2572765.46,"ADDRESS":"果毅後８２之９號","OBJECTID":38777},"geometry":{"x":185753.97000000067,"y":2572765.459999999}},{"attributes":{"ID":38778,"DIS_CODE":0,"TOWNNAME":"柳營區","LI":"果毅里","LIN":"7鄰","STREET":" ","SECT":" ","MAREA":"果毅後","LANE":" ","ALLEY":" ","HOUSE_NO":"８２號","E_COORD97":185725.17000000001,"N_COORD97":2572789.9300000002,"ADDRESS":"果毅後８２號","OBJECTID":38778},"geometry":{"x":185725.17000000179,"y":2572789.9300000016}},{"attributes":{"ID":38779,"DIS_CODE":0,"TOWNNAME":"仁德區","LI":"太子里","LIN":"7鄰","STREET":"太子路","SECT":" ","MAREA":" ","LANE":"１９０巷","ALLEY":"１４弄","HOUSE_NO":"６號一樓","E_COORD97":174344.76000000001,"N_COORD97":2543631.5499999998,"ADDRESS":"太子路１９０巷１４弄６號一樓","OBJECTID":38779},"geometry":{"x":174344.76000000071,"y":2543631.5500000045}},{"attributes":{"ID":38780,"DIS_CODE":0,"TOWNNAME":"柳營區","LI":"果毅里","LIN":"7鄰","STREET":" ","SECT":" ","MAREA":"果毅後","LANE":" ","ALLEY":" ","HOUSE_NO":"８３之１號","E_COORD97":185835.79999999999,"N_COORD97":2572837.29,"ADDRESS":"果毅後８３之１號","OBJECTID":38780},"geometry":{"x":185835.79999999981,"y":2572837.290000001}},{"attributes":{"ID":38781,"DIS_CODE":0,"TOWNNAME":"仁德區","LI":"太子里","LIN":"7鄰","STREET":"太子路","SECT":" ","MAREA":" ","LANE":"１９０巷","ALLEY":"１４弄","HOUSE_NO":"４號五樓","E_COORD97":174336.54999999999,"N_COORD97":2543631.7999999998,"ADDRESS":"太子路１９０巷１４弄４號五樓","OBJECTID":38781},"geometry":{"x":174336.55000000075,"y":2543631.8000000007}},{"attributes":{"ID":38782,"DIS_CODE":0,"TOWNNAME":"柳營區","LI":"果毅里","LIN":"7鄰","STREET":" ","SECT":" ","MAREA":"果毅後","LANE":" ","ALLEY":" ","HOUSE_NO":"８３號之２","E_COORD97":185853.04000000001,"N_COORD97":2572849.0299999998,"ADDRESS":"果毅後８３號之２","OBJECTID":38782},"geometry":{"x":185853.04000000004,"y":2572849.0300000012}},{"attributes":{"ID":38783,"DIS_CODE":0,"TOWNNAME":"仁德區","LI":"太子里","LIN":"7鄰","STREET":"太子路","SECT":" ","MAREA":" ","LANE":"１９０巷","ALLEY":"１４弄","HOUSE_NO":"４號二樓","E_COORD97":174336.54999999999,"N_COORD97":2543631.7999999998,"ADDRESS":"太子路１９０巷１４弄４號二樓","OBJECTID":38783},"geometry":{"x":174336.55000000075,"y":2543631.8000000007}},{"attributes":{"ID":38784,"DIS_CODE":0,"TOWNNAME":"柳營區","LI":"果毅里","LIN":"7鄰","STREET":" ","SECT":" ","MAREA":"果毅後","LANE":" ","ALLEY":" ","HOUSE_NO":"８３號之３","E_COORD97":185870.89000000001,"N_COORD97":2572852.8500000001,"ADDRESS":"果毅後８３號之３","OBJECTID":38784},"geometry":{"x":185870.89000000153,"y":2572852.8499999996}},{"attributes":{"ID":38785,"DIS_CODE":0,"TOWNNAME":"柳營區","LI":"果毅里","LIN":"7鄰","STREET":" ","SECT":" ","MAREA":"果毅後","LANE":" ","ALLEY":" ","HOUSE_NO":"８３號之４","E_COORD97":185866.29999999999,"N_COORD97":2572852.29,"ADDRESS":"果毅後８３號之４","OBJECTID":38785},"geometry":{"x":185866.29999999981,"y":2572852.2899999991}},{"attributes":{"ID":38786,"DIS_CODE":0,"TOWNNAME":"仁德區","LI":"太子里","LIN":"7鄰","STREET":"太子路","SECT":" ","MAREA":" ","LANE":"１９０巷","ALLEY":"１４弄","HOUSE_NO":"６號四樓","E_COORD97":174344.76000000001,"N_COORD97":2543631.5499999998,"ADDRESS":"太子路１９０巷１４弄６號四樓","OBJECTID":38786},"geometry":{"x":174344.76000000071,"y":2543631.5500000045}},{"attributes":{"ID":38787,"DIS_CODE":0,"TOWNNAME":"仁德區","LI":"太子里","LIN":"7鄰","STREET":"太子路","SECT":" ","MAREA":" ","LANE":"１９０巷","ALLEY":"１４弄","HOUSE_NO":"４號四樓","E_COORD97":174336.54999999999,"N_COORD97":2543631.7999999998,"ADDRESS":"太子路１９０巷１４弄４號四樓","OBJECTID":38787},"geometry":{"x":174336.55000000075,"y":2543631.8000000007}},{"attributes":{"ID":38788,"DIS_CODE":0,"TOWNNAME":"柳營區","LI":"果毅里","LIN":"7鄰","STREET":" ","SECT":" ","MAREA":"果毅後","LANE":" ","ALLEY":" ","HOUSE_NO":"８３之５號","E_COORD97":185843.44,"N_COORD97":2572865.0899999999,"ADDRESS":"果毅後８３之５號","OBJECTID":38788},"geometry":{"x":185843.44000000041,"y":2572865.0899999999}},{"attributes":{"ID":38789,"DIS_CODE":0,"TOWNNAME":"仁德區","LI":"太子里","LIN":"7鄰","STREET":"太子路","SECT":" ","MAREA":" ","LANE":"１９０巷","ALLEY":"１４弄","HOUSE_NO":"８號二樓","E_COORD97":174350.87,"N_COORD97":2543631.5499999998,"ADDRESS":"太子路１９０巷１４弄８號二樓","OBJECTID":38789},"geometry":{"x":174350.87000000197,"y":2543631.5500000045}},{"attributes":{"ID":38790,"DIS_CODE":0,"TOWNNAME":"柳營區","LI":"果毅里","LIN":"7鄰","STREET":" ","SECT":" ","MAREA":"果毅後","LANE":" ","ALLEY":" ","HOUSE_NO":"８３號之６","E_COORD97":186159.60999999999,"N_COORD97":2572649.0800000001,"ADDRESS":"果毅後８３號之６","OBJECTID":38790},"geometry":{"x":186159.61000000034,"y":2572649.0800000019}},{"attributes":{"ID":38791,"DIS_CODE":0,"TOWNNAME":"仁德區","LI":"太子里","LIN":"7鄰","STREET":"太子路","SECT":" ","MAREA":" ","LANE":"１９０巷","ALLEY":"１４弄","HOUSE_NO":"２號三樓","E_COORD97":174330.76999999999,"N_COORD97":2543629.0099999998,"ADDRESS":"太子路１９０巷１４弄２號三樓","OBJECTID":38791},"geometry":{"x":174330.77000000048,"y":2543629.0099999998}},{"attributes":{"ID":38792,"DIS_CODE":0,"TOWNNAME":"東區","LI":"南聖里","LIN":"14鄰","STREET":"裕誠街","SECT":" ","MAREA":" ","LANE":" ","ALLEY":" ","HOUSE_NO":"３５５號","E_COORD97":172770.04223299999,"N_COORD97":2543370.3967900001,"ADDRESS":"裕誠街３５５號","OBJECTID":38792},"geometry":{"x":172770.04223300051,"y":2543370.3967860043}},{"attributes":{"ID":38793,"DIS_CODE":0,"TOWNNAME":"東區","LI":"南聖里","LIN":"14鄰","STREET":"裕誠街","SECT":" ","MAREA":" ","LANE":" ","ALLEY":" ","HOUSE_NO":"３５７號","E_COORD97":172774.17376999999,"N_COORD97":2543370.2909499998,"ADDRESS":"裕誠街３５７號","OBJECTID":38793},"geometry":{"x":172774.17377000023,"y":2543370.2909529991}},{"attributes":{"ID":38794,"DIS_CODE":0,"TOWNNAME":"東區","LI":"關聖里","LIN":"14鄰","STREET":"裕農三街","SECT":" ","MAREA":" ","LANE":" ","ALLEY":" ","HOUSE_NO":"６７號","E_COORD97":172053.14000000001,"N_COORD97":2543004.46,"ADDRESS":"裕農三街６７號","OBJECTID":38794},"geometry":{"x":172053.13999999966,"y":2543004.4600000009}},{"attributes":{"ID":38795,"DIS_CODE":0,"TOWNNAME":"仁德區","LI":"仁愛里","LIN":"14鄰","STREET":" ","SECT":" ","MAREA":"仁愛","LANE":" ","ALLEY":" ","HOUSE_NO":"２９８號","E_COORD97":170268.173068,"N_COORD97":2539901.2949999999,"ADDRESS":"仁愛２９８號","OBJECTID":38795},"geometry":{"x":170268.17306800094,"y":2539901.2950000037}},{"attributes":{"ID":38796,"DIS_CODE":0,"TOWNNAME":"仁德區","LI":"中生里","LIN":"1鄰","STREET":" ","SECT":" ","MAREA":"中洲","LANE":" ","ALLEY":" ","HOUSE_NO":"７６之１２０號","E_COORD97":171747.276988,"N_COORD97":2534947.5693000001,"ADDRESS":"中洲７６之１２０號","OBJECTID":38796},"geometry":{"x":171747.27698800061,"y":2534947.5692960005}},{"attributes":{"ID":38797,"DIS_CODE":0,"TOWNNAME":"仁德區","LI":"中生里","LIN":"14鄰","STREET":" ","SECT":" ","MAREA":"中洲","LANE":" ","ALLEY":" ","HOUSE_NO":"２３２號之３","E_COORD97":173126.87,"N_COORD97":2533967.79,"ADDRESS":"中洲２３２號之３","OBJECTID":38797},"geometry":{"x":173126.86999999918,"y":2533967.7899999991}},{"attributes":{"ID":38798,"DIS_CODE":0,"TOWNNAME":"仁德區","LI":"太子里","LIN":"7鄰","STREET":"太子路","SECT":" ","MAREA":" ","LANE":"１９０巷","ALLEY":"１４弄","HOUSE_NO":"６號五樓","E_COORD97":174344.76000000001,"N_COORD97":2543631.5499999998,"ADDRESS":"太子路１９０巷１４弄６號五樓","OBJECTID":38798},"geometry":{"x":174344.76000000071,"y":2543631.5500000045}},{"attributes":{"ID":38799,"DIS_CODE":0,"TOWNNAME":"柳營區","LI":"果毅里","LIN":"7鄰","STREET":" ","SECT":" ","MAREA":"果毅後","LANE":" ","ALLEY":" ","HOUSE_NO":"８３號","E_COORD97":185844.95000000001,"N_COORD97":2572838.6499999999,"ADDRESS":"果毅後８３號","OBJECTID":38799},"geometry":{"x":185844.95000000019,"y":2572838.6500000041}},{"attributes":{"ID":38800,"DIS_CODE":0,"TOWNNAME":"柳營區","LI":"果毅里","LIN":"7鄰","STREET":" ","SECT":" ","MAREA":"果毅後","LANE":" ","ALLEY":" ","HOUSE_NO":"８４號之１","E_COORD97":185780.06,"N_COORD97":2572774.4399999999,"ADDRESS":"果毅後８４號之１","OBJECTID":38800},"geometry":{"x":185780.06000000052,"y":2572774.4400000032}}]}