{"displayFieldName":"TOWNNAME","fieldAliases":{"ID":"ID","DIS_CODE":"DIS_CODE","TOWNNAME":"TOWNNAME","LI":"LI","LIN":"LIN","STREET":"STREET","SECT":"SECT","MAREA":"MAREA","LANE":"LANE","ALLEY":"ALLEY","HOUSE_NO":"HOUSE_NO","E_COORD97":"E_COORD97","N_COORD97":"N_COORD97","ADDRESS":"ADDRESS","OBJECTID":"OBJECTID"},"geometryType":"esriGeometryPoint","spatialReference":{"wkid":102443,"latestWkid":3826},"fields":[{"name":"ID","type":"esriFieldTypeDouble","alias":"ID"},{"name":"DIS_CODE","type":"esriFieldTypeInteger","alias":"DIS_CODE"},{"name":"TOWNNAME","type":"esriFieldTypeString","alias":"TOWNNAME","length":8},{"name":"LI","type":"esriFieldTypeString","alias":"LI","length":8},{"name":"LIN","type":"esriFieldTypeString","alias":"LIN","length":12},{"name":"STREET","type":"esriFieldTypeString","alias":"STREET","length":20},{"name":"SECT","type":"esriFieldTypeString","alias":"SECT","length":8},{"name":"MAREA","type":"esriFieldTypeString","alias":"MAREA","length":12},{"name":"LANE","type":"esriFieldTypeString","alias":"LANE","length":10},{"name":"ALLEY","type":"esriFieldTypeString","alias":"ALLEY","length":10},{"name":"HOUSE_NO","type":"esriFieldTypeString","alias":"HOUSE_NO","length":20},{"name":"E_COORD97","type":"esriFieldTypeDouble","alias":"E_COORD97"},{"name":"N_COORD97","type":"esriFieldTypeDouble","alias":"N_COORD97"},{"name":"ADDRESS","type":"esriFieldTypeString","alias":"ADDRESS","length":50},{"name":"OBJECTID","type":"esriFieldTypeOID","alias":"OBJECTID"}],"features":[{"attributes":{"ID":358010,"DIS_CODE":0,"TOWNNAME":"歸仁區","LI":"後市里","LIN":"30鄰","STREET":"民族北街","SECT":" ","MAREA":" ","LANE":"１７巷","ALLEY":" ","HOUSE_NO":"２號七樓之１０","E_COORD97":177400.82000000001,"N_COORD97":2540892.75,"ADDRESS":"民族北街１７巷２號七樓之１０","OBJECTID":358001},"geometry":{"x":177400.8200000003,"y":2540892.75}},{"attributes":{"ID":358011,"DIS_CODE":0,"TOWNNAME":"歸仁區","LI":"後市里","LIN":"30鄰","STREET":"民族北街","SECT":" ","MAREA":" ","LANE":"１７巷","ALLEY":" ","HOUSE_NO":"２號八樓之８","E_COORD97":177400.59,"N_COORD97":2540892.75,"ADDRESS":"民族北街１７巷２號八樓之８","OBJECTID":358002},"geometry":{"x":177400.59000000171,"y":2540892.75}},{"attributes":{"ID":358012,"DIS_CODE":0,"TOWNNAME":"永康區","LI":"正強里","LIN":"30鄰","STREET":"中正路","SECT":" ","MAREA":" ","LANE":"２０９巷","ALLEY":" ","HOUSE_NO":"７９號","E_COORD97":173152.75,"N_COORD97":2547714.7400000002,"ADDRESS":"中正路２０９巷７９號","OBJECTID":358003},"geometry":{"x":173152.75,"y":2547714.7399999984}},{"attributes":{"ID":358013,"DIS_CODE":0,"TOWNNAME":"永康區","LI":"正強里","LIN":"30鄰","STREET":"中正路","SECT":" ","MAREA":" ","LANE":"２０９巷","ALLEY":" ","HOUSE_NO":"１００號","E_COORD97":173129.66,"N_COORD97":2547710.2400000002,"ADDRESS":"中正路２０９巷１００號","OBJECTID":358004},"geometry":{"x":173129.66000000015,"y":2547710.2400000002}},{"attributes":{"ID":358014,"DIS_CODE":0,"TOWNNAME":"永康區","LI":"北灣里","LIN":"30鄰","STREET":"大同街","SECT":" ","MAREA":" ","LANE":"３３巷","ALLEY":" ","HOUSE_NO":"７號","E_COORD97":175262.64999999999,"N_COORD97":2545376.75,"ADDRESS":"大同街３３巷７號","OBJECTID":358005},"geometry":{"x":175262.65000000037,"y":2545376.7500000019}},{"attributes":{"ID":358015,"DIS_CODE":0,"TOWNNAME":"佳里區","LI":"安西里","LIN":"30鄰","STREET":"佳西路","SECT":" ","MAREA":" ","LANE":"５６２巷","ALLEY":" ","HOUSE_NO":"２８號","E_COORD97":165067.26999999999,"N_COORD97":2563170.98,"ADDRESS":"佳西路５６２巷２８號","OBJECTID":358006},"geometry":{"x":165067.27000000048,"y":2563170.9800000023}},{"attributes":{"ID":358016,"DIS_CODE":0,"TOWNNAME":"佳里區","LI":"安西里","LIN":"30鄰","STREET":"佳西路","SECT":" ","MAREA":" ","LANE":"５６２巷","ALLEY":" ","HOUSE_NO":"２號","E_COORD97":165033.51000000001,"N_COORD97":2563197.7599999998,"ADDRESS":"佳西路５６２巷２號","OBJECTID":358007},"geometry":{"x":165033.51000000071,"y":2563197.7599999998}},{"attributes":{"ID":358017,"DIS_CODE":0,"TOWNNAME":"佳里區","LI":"安西里","LIN":"30鄰","STREET":"佳西路","SECT":" ","MAREA":" ","LANE":"５６２巷","ALLEY":" ","HOUSE_NO":"３０號","E_COORD97":165070.82999999999,"N_COORD97":2563168.29,"ADDRESS":"佳西路５６２巷３０號","OBJECTID":358008},"geometry":{"x":165070.83000000007,"y":2563168.290000001}},{"attributes":{"ID":358018,"DIS_CODE":0,"TOWNNAME":"佳里區","LI":"安西里","LIN":"30鄰","STREET":"佳西路","SECT":" ","MAREA":" ","LANE":"５６２巷","ALLEY":" ","HOUSE_NO":"３２號","E_COORD97":165074.89000000001,"N_COORD97":2563165.8999999999,"ADDRESS":"佳西路５６２巷３２號","OBJECTID":358009},"geometry":{"x":165074.8900000006,"y":2563165.9000000004}},{"attributes":{"ID":358019,"DIS_CODE":0,"TOWNNAME":"佳里區","LI":"安西里","LIN":"30鄰","STREET":"佳西路","SECT":" ","MAREA":" ","LANE":"５６２巷","ALLEY":" ","HOUSE_NO":"３號","E_COORD97":165044.42000000001,"N_COORD97":2563209.23,"ADDRESS":"佳西路５６２巷３號","OBJECTID":358010},"geometry":{"x":165044.42000000086,"y":2563209.2300000042}},{"attributes":{"ID":358020,"DIS_CODE":0,"TOWNNAME":"佳里區","LI":"安西里","LIN":"30鄰","STREET":"佳西路","SECT":" ","MAREA":" ","LANE":"５６２巷","ALLEY":" ","HOUSE_NO":"５號","E_COORD97":165047.75,"N_COORD97":2563207.3399999999,"ADDRESS":"佳西路５６２巷５號","OBJECTID":358011},"geometry":{"x":165047.75,"y":2563207.3399999999}},{"attributes":{"ID":358021,"DIS_CODE":0,"TOWNNAME":"佳里區","LI":"安西里","LIN":"30鄰","STREET":"佳西路","SECT":" ","MAREA":" ","LANE":"５６２巷","ALLEY":" ","HOUSE_NO":"６號","E_COORD97":165036.53,"N_COORD97":2563195.5299999998,"ADDRESS":"佳西路５６２巷６號","OBJECTID":358012},"geometry":{"x":165036.53000000212,"y":2563195.5299999993}},{"attributes":{"ID":358022,"DIS_CODE":0,"TOWNNAME":"佳里區","LI":"安西里","LIN":"30鄰","STREET":"佳西路","SECT":" ","MAREA":" ","LANE":"５６２巷","ALLEY":" ","HOUSE_NO":"７號","E_COORD97":165051,"N_COORD97":2563204.7599999998,"ADDRESS":"佳西路５６２巷７號","OBJECTID":358013},"geometry":{"x":165051,"y":2563204.7599999979}},{"attributes":{"ID":358023,"DIS_CODE":0,"TOWNNAME":"永康區","LI":"西勢里","LIN":"26鄰","STREET":"廣興街","SECT":" ","MAREA":" ","LANE":"３８巷","ALLEY":" ","HOUSE_NO":"２０號一樓","E_COORD97":175981.51000000001,"N_COORD97":2546478.25,"ADDRESS":"廣興街３８巷２０號一樓","OBJECTID":358014},"geometry":{"x":175981.50999999978,"y":2546478.2500000019}},{"attributes":{"ID":358024,"DIS_CODE":0,"TOWNNAME":"永康區","LI":"西勢里","LIN":"26鄰","STREET":"廣興街","SECT":" ","MAREA":" ","LANE":"３８巷","ALLEY":" ","HOUSE_NO":"２０號之３一樓","E_COORD97":175978.57000000001,"N_COORD97":2546483.29,"ADDRESS":"廣興街３８巷２０號之３一樓","OBJECTID":358015},"geometry":{"x":175978.5700000003,"y":2546483.290000001}},{"attributes":{"ID":358025,"DIS_CODE":0,"TOWNNAME":"永康區","LI":"西勢里","LIN":"26鄰","STREET":"廣興街","SECT":" ","MAREA":" ","LANE":"３８巷","ALLEY":" ","HOUSE_NO":"２０號四樓","E_COORD97":175981.51000000001,"N_COORD97":2546478.25,"ADDRESS":"廣興街３８巷２０號四樓","OBJECTID":358016},"geometry":{"x":175981.50999999978,"y":2546478.2500000019}},{"attributes":{"ID":358026,"DIS_CODE":0,"TOWNNAME":"永康區","LI":"西勢里","LIN":"26鄰","STREET":"廣興街","SECT":" ","MAREA":" ","LANE":"３８巷","ALLEY":" ","HOUSE_NO":"２０號三樓","E_COORD97":175981.51000000001,"N_COORD97":2546478.25,"ADDRESS":"廣興街３８巷２０號三樓","OBJECTID":358017},"geometry":{"x":175981.50999999978,"y":2546478.2500000019}},{"attributes":{"ID":358027,"DIS_CODE":0,"TOWNNAME":"永康區","LI":"西勢里","LIN":"26鄰","STREET":"廣興街","SECT":" ","MAREA":" ","LANE":"３８巷","ALLEY":" ","HOUSE_NO":"２０號之１三樓","E_COORD97":175971.10000000001,"N_COORD97":2546465.79,"ADDRESS":"廣興街３８巷２０號之１三樓","OBJECTID":358018},"geometry":{"x":175971.10000000149,"y":2546465.7900000028}},{"attributes":{"ID":358028,"DIS_CODE":0,"TOWNNAME":"永康區","LI":"西勢里","LIN":"26鄰","STREET":"廣興街","SECT":" ","MAREA":" ","LANE":"３８巷","ALLEY":" ","HOUSE_NO":"２０之２號五樓","E_COORD97":175965.66,"N_COORD97":2546471.04,"ADDRESS":"廣興街３８巷２０之２號五樓","OBJECTID":358019},"geometry":{"x":175965.66000000015,"y":2546471.0400000028}},{"attributes":{"ID":358029,"DIS_CODE":0,"TOWNNAME":"永康區","LI":"西勢里","LIN":"26鄰","STREET":"廣興街","SECT":" ","MAREA":" ","LANE":"３８巷","ALLEY":" ","HOUSE_NO":"２０之２號三樓","E_COORD97":175965.66,"N_COORD97":2546471.04,"ADDRESS":"廣興街３８巷２０之２號三樓","OBJECTID":358020},"geometry":{"x":175965.66000000015,"y":2546471.0400000028}},{"attributes":{"ID":358030,"DIS_CODE":0,"TOWNNAME":"永康區","LI":"西勢里","LIN":"26鄰","STREET":"廣興街","SECT":" ","MAREA":" ","LANE":"３８巷","ALLEY":" ","HOUSE_NO":"２０號三樓之１","E_COORD97":175983.64999999999,"N_COORD97":2546478.29,"ADDRESS":"廣興街３８巷２０號三樓之１","OBJECTID":358021},"geometry":{"x":175983.6500000013,"y":2546478.2899999991}},{"attributes":{"ID":358031,"DIS_CODE":0,"TOWNNAME":"永康區","LI":"西勢里","LIN":"26鄰","STREET":"廣興街","SECT":" ","MAREA":" ","LANE":"３８巷","ALLEY":" ","HOUSE_NO":"２０之３號三樓","E_COORD97":175978.57000000001,"N_COORD97":2546483.29,"ADDRESS":"廣興街３８巷２０之３號三樓","OBJECTID":358022},"geometry":{"x":175978.5700000003,"y":2546483.290000001}},{"attributes":{"ID":358032,"DIS_CODE":0,"TOWNNAME":"永康區","LI":"西勢里","LIN":"26鄰","STREET":"廣興街","SECT":" ","MAREA":" ","LANE":"３８巷","ALLEY":" ","HOUSE_NO":"２０號之２一樓","E_COORD97":175965.66,"N_COORD97":2546471.04,"ADDRESS":"廣興街３８巷２０號之２一樓","OBJECTID":358023},"geometry":{"x":175965.66000000015,"y":2546471.0400000028}},{"attributes":{"ID":358033,"DIS_CODE":0,"TOWNNAME":"永康區","LI":"西勢里","LIN":"26鄰","STREET":"廣興街","SECT":" ","MAREA":" ","LANE":"３８巷","ALLEY":" ","HOUSE_NO":"２０號之３三樓","E_COORD97":175978.57000000001,"N_COORD97":2546483.29,"ADDRESS":"廣興街３８巷２０號之３三樓","OBJECTID":358024},"geometry":{"x":175978.5700000003,"y":2546483.290000001}},{"attributes":{"ID":358034,"DIS_CODE":0,"TOWNNAME":"永康區","LI":"西勢里","LIN":"26鄰","STREET":"廣興街","SECT":" ","MAREA":" ","LANE":"３８巷","ALLEY":" ","HOUSE_NO":"２０之１號二樓","E_COORD97":175971.10000000001,"N_COORD97":2546465.79,"ADDRESS":"廣興街３８巷２０之１號二樓","OBJECTID":358025},"geometry":{"x":175971.10000000149,"y":2546465.7900000028}},{"attributes":{"ID":358035,"DIS_CODE":0,"TOWNNAME":"佳里區","LI":"安西里","LIN":"30鄰","STREET":"佳西路","SECT":" ","MAREA":" ","LANE":"５６２巷","ALLEY":" ","HOUSE_NO":"８號","E_COORD97":165040.26000000001,"N_COORD97":2563192.6800000002,"ADDRESS":"佳西路５６２巷８號","OBJECTID":358026},"geometry":{"x":165040.26000000071,"y":2563192.6800000016}},{"attributes":{"ID":358036,"DIS_CODE":0,"TOWNNAME":"佳里區","LI":"安西里","LIN":"30鄰","STREET":"佳西路","SECT":" ","MAREA":" ","LANE":"５６２巷","ALLEY":" ","HOUSE_NO":"９號","E_COORD97":165053.34,"N_COORD97":2563202.25,"ADDRESS":"佳西路５６２巷９號","OBJECTID":358027},"geometry":{"x":165053.34000000078,"y":2563202.2500000019}},{"attributes":{"ID":358037,"DIS_CODE":0,"TOWNNAME":"永康區","LI":"永康里","LIN":"30鄰","STREET":"永大路","SECT":"二段","MAREA":" ","LANE":"９０９巷","ALLEY":" ","HOUSE_NO":"２號","E_COORD97":174214.57000000001,"N_COORD97":2547053.3199999998,"ADDRESS":"永大路二段９０９巷２號","OBJECTID":358028},"geometry":{"x":174214.57000000123,"y":2547053.320000004}},{"attributes":{"ID":358038,"DIS_CODE":0,"TOWNNAME":"永康區","LI":"正強里","LIN":"30鄰","STREET":"正強街","SECT":" ","MAREA":" ","LANE":"２１５巷","ALLEY":" ","HOUSE_NO":"７０號","E_COORD97":173192.04000000001,"N_COORD97":2547704.9399999999,"ADDRESS":"正強街２１５巷７０號","OBJECTID":358029},"geometry":{"x":173192.04000000097,"y":2547704.9399999995}},{"attributes":{"ID":358039,"DIS_CODE":0,"TOWNNAME":"永康區","LI":"崑山里","LIN":"30鄰","STREET":"國光二街","SECT":" ","MAREA":" ","LANE":"７０巷","ALLEY":" ","HOUSE_NO":"１３號之１","E_COORD97":173887.29999999999,"N_COORD97":2544789.5899999999,"ADDRESS":"國光二街７０巷１３號之１","OBJECTID":358030},"geometry":{"x":173887.30000000075,"y":2544789.5900000036}},{"attributes":{"ID":358040,"DIS_CODE":0,"TOWNNAME":"佳里區","LI":"安西里","LIN":"30鄰","STREET":"忠孝路","SECT":" ","MAREA":" ","LANE":"２８１巷","ALLEY":" ","HOUSE_NO":"１３號","E_COORD97":165124.01999999999,"N_COORD97":2563170.4300000002,"ADDRESS":"忠孝路２８１巷１３號","OBJECTID":358031},"geometry":{"x":165124.02000000142,"y":2563170.4300000016}},{"attributes":{"ID":358041,"DIS_CODE":0,"TOWNNAME":"中西區","LI":"安海里","LIN":"8鄰","STREET":"金華路","SECT":"三段","MAREA":" ","LANE":" ","ALLEY":" ","HOUSE_NO":"２１８號六樓之１０","E_COORD97":167349.89999999999,"N_COORD97":2543920.5099999998,"ADDRESS":"金華路三段２１８號六樓之１０","OBJECTID":358032},"geometry":{"x":167349.90000000224,"y":2543920.5100000016}},{"attributes":{"ID":358042,"DIS_CODE":0,"TOWNNAME":"中西區","LI":"安海里","LIN":"8鄰","STREET":"金華路","SECT":"三段","MAREA":" ","LANE":" ","ALLEY":" ","HOUSE_NO":"２１８號六樓之１１","E_COORD97":167349.89999999999,"N_COORD97":2543920.5099999998,"ADDRESS":"金華路三段２１８號六樓之１１","OBJECTID":358033},"geometry":{"x":167349.90000000224,"y":2543920.5100000016}},{"attributes":{"ID":358043,"DIS_CODE":0,"TOWNNAME":"中西區","LI":"安海里","LIN":"8鄰","STREET":"金華路","SECT":"三段","MAREA":" ","LANE":" ","ALLEY":" ","HOUSE_NO":"２１８號六樓之１２","E_COORD97":167349.89999999999,"N_COORD97":2543920.5099999998,"ADDRESS":"金華路三段２１８號六樓之１２","OBJECTID":358034},"geometry":{"x":167349.90000000224,"y":2543920.5100000016}},{"attributes":{"ID":358044,"DIS_CODE":0,"TOWNNAME":"六甲區","LI":"六甲里","LIN":"30鄰","STREET":"成功街","SECT":" ","MAREA":" ","LANE":"４８巷","ALLEY":" ","HOUSE_NO":"３號","E_COORD97":183294.04999999999,"N_COORD97":2569188.6000000001,"ADDRESS":"成功街４８巷３號","OBJECTID":358035},"geometry":{"x":183294.04999999981,"y":2569188.5999999996}},{"attributes":{"ID":358045,"DIS_CODE":0,"TOWNNAME":"中西區","LI":"安海里","LIN":"8鄰","STREET":"金華路","SECT":"三段","MAREA":" ","LANE":" ","ALLEY":" ","HOUSE_NO":"２１８號六樓之１３","E_COORD97":167349.89999999999,"N_COORD97":2543920.5099999998,"ADDRESS":"金華路三段２１８號六樓之１３","OBJECTID":358036},"geometry":{"x":167349.90000000224,"y":2543920.5100000016}},{"attributes":{"ID":358046,"DIS_CODE":0,"TOWNNAME":"中西區","LI":"安海里","LIN":"8鄰","STREET":"金華路","SECT":"三段","MAREA":" ","LANE":" ","ALLEY":" ","HOUSE_NO":"２１８號六樓之１４","E_COORD97":167349.89999999999,"N_COORD97":2543920.5099999998,"ADDRESS":"金華路三段２１８號六樓之１４","OBJECTID":358037},"geometry":{"x":167349.90000000224,"y":2543920.5100000016}},{"attributes":{"ID":358047,"DIS_CODE":0,"TOWNNAME":"中西區","LI":"安海里","LIN":"8鄰","STREET":"金華路","SECT":"三段","MAREA":" ","LANE":" ","ALLEY":" ","HOUSE_NO":"２１８號六樓之１５","E_COORD97":167349.89999999999,"N_COORD97":2543920.5099999998,"ADDRESS":"金華路三段２１８號六樓之１５","OBJECTID":358038},"geometry":{"x":167349.90000000224,"y":2543920.5100000016}},{"attributes":{"ID":358048,"DIS_CODE":0,"TOWNNAME":"中西區","LI":"安海里","LIN":"8鄰","STREET":"金華路","SECT":"三段","MAREA":" ","LANE":" ","ALLEY":" ","HOUSE_NO":"２１８號六樓之１６","E_COORD97":167349.89999999999,"N_COORD97":2543920.5099999998,"ADDRESS":"金華路三段２１８號六樓之１６","OBJECTID":358039},"geometry":{"x":167349.90000000224,"y":2543920.5100000016}},{"attributes":{"ID":358049,"DIS_CODE":0,"TOWNNAME":"中西區","LI":"安海里","LIN":"8鄰","STREET":"金華路","SECT":"三段","MAREA":" ","LANE":" ","ALLEY":" ","HOUSE_NO":"２１８號六樓之１７","E_COORD97":167349.89999999999,"N_COORD97":2543920.5099999998,"ADDRESS":"金華路三段２１８號六樓之１７","OBJECTID":358040},"geometry":{"x":167349.90000000224,"y":2543920.5100000016}},{"attributes":{"ID":358050,"DIS_CODE":0,"TOWNNAME":"中西區","LI":"安海里","LIN":"8鄰","STREET":"金華路","SECT":"三段","MAREA":" ","LANE":" ","ALLEY":" ","HOUSE_NO":"２１８號六樓之１８","E_COORD97":167349.89999999999,"N_COORD97":2543920.5099999998,"ADDRESS":"金華路三段２１８號六樓之１８","OBJECTID":358041},"geometry":{"x":167349.90000000224,"y":2543920.5100000016}},{"attributes":{"ID":358051,"DIS_CODE":0,"TOWNNAME":"中西區","LI":"安海里","LIN":"8鄰","STREET":"金華路","SECT":"三段","MAREA":" ","LANE":" ","ALLEY":" ","HOUSE_NO":"２１８號六樓之１９","E_COORD97":167349.89999999999,"N_COORD97":2543920.5099999998,"ADDRESS":"金華路三段２１８號六樓之１９","OBJECTID":358042},"geometry":{"x":167349.90000000224,"y":2543920.5100000016}},{"attributes":{"ID":358052,"DIS_CODE":0,"TOWNNAME":"中西區","LI":"安海里","LIN":"8鄰","STREET":"金華路","SECT":"三段","MAREA":" ","LANE":" ","ALLEY":" ","HOUSE_NO":"２１８號六樓之２","E_COORD97":167349.89999999999,"N_COORD97":2543920.5099999998,"ADDRESS":"金華路三段２１８號六樓之２","OBJECTID":358043},"geometry":{"x":167349.90000000224,"y":2543920.5100000016}},{"attributes":{"ID":358053,"DIS_CODE":0,"TOWNNAME":"永康區","LI":"西勢里","LIN":"26鄰","STREET":"廣興街","SECT":" ","MAREA":" ","LANE":"３８巷","ALLEY":" ","HOUSE_NO":"２０號之２二樓","E_COORD97":175965.66,"N_COORD97":2546471.04,"ADDRESS":"廣興街３８巷２０號之２二樓","OBJECTID":358044},"geometry":{"x":175965.66000000015,"y":2546471.0400000028}},{"attributes":{"ID":358054,"DIS_CODE":0,"TOWNNAME":"永康區","LI":"西勢里","LIN":"26鄰","STREET":"廣興街","SECT":" ","MAREA":" ","LANE":"３８巷","ALLEY":" ","HOUSE_NO":"２０之３號四樓","E_COORD97":175978.57000000001,"N_COORD97":2546483.29,"ADDRESS":"廣興街３８巷２０之３號四樓","OBJECTID":358045},"geometry":{"x":175978.5700000003,"y":2546483.290000001}},{"attributes":{"ID":358055,"DIS_CODE":0,"TOWNNAME":"永康區","LI":"西勢里","LIN":"26鄰","STREET":"廣興街","SECT":" ","MAREA":" ","LANE":"３８巷","ALLEY":" ","HOUSE_NO":"２０號之２四樓","E_COORD97":175965.66,"N_COORD97":2546471.04,"ADDRESS":"廣興街３８巷２０號之２四樓","OBJECTID":358046},"geometry":{"x":175965.66000000015,"y":2546471.0400000028}},{"attributes":{"ID":358056,"DIS_CODE":0,"TOWNNAME":"永康區","LI":"尚頂里","LIN":"26鄰","STREET":"南台街","SECT":" ","MAREA":" ","LANE":"１０巷","ALLEY":" ","HOUSE_NO":"３號二樓之６","E_COORD97":170464.10000000001,"N_COORD97":2546989.4300000002,"ADDRESS":"南台街１０巷３號二樓之６","OBJECTID":358047},"geometry":{"x":170464.10000000056,"y":2546989.4299999997}},{"attributes":{"ID":358057,"DIS_CODE":0,"TOWNNAME":"永康區","LI":"尚頂里","LIN":"26鄰","STREET":"南台街","SECT":" ","MAREA":" ","LANE":"１０巷","ALLEY":" ","HOUSE_NO":"３號三樓之８","E_COORD97":170464.14000000001,"N_COORD97":2546989.4300000002,"ADDRESS":"南台街１０巷３號三樓之８","OBJECTID":358048},"geometry":{"x":170464.13999999966,"y":2546989.4299999997}},{"attributes":{"ID":358058,"DIS_CODE":0,"TOWNNAME":"永康區","LI":"尚頂里","LIN":"26鄰","STREET":"南台街","SECT":" ","MAREA":" ","LANE":"１０巷","ALLEY":" ","HOUSE_NO":"３號三樓之５","E_COORD97":170464.14999999999,"N_COORD97":2546989.4300000002,"ADDRESS":"南台街１０巷３號三樓之５","OBJECTID":358049},"geometry":{"x":170464.1500000013,"y":2546989.4299999997}},{"attributes":{"ID":358059,"DIS_CODE":0,"TOWNNAME":"永康區","LI":"尚頂里","LIN":"26鄰","STREET":"南台街","SECT":" ","MAREA":" ","LANE":"１０巷","ALLEY":" ","HOUSE_NO":"３號三樓之７","E_COORD97":170464.07000000001,"N_COORD97":2546989.4300000002,"ADDRESS":"南台街１０巷３號三樓之７","OBJECTID":358050},"geometry":{"x":170464.0700000003,"y":2546989.4299999997}},{"attributes":{"ID":358060,"DIS_CODE":0,"TOWNNAME":"佳里區","LI":"安西里","LIN":"30鄰","STREET":"忠孝路","SECT":" ","MAREA":" ","LANE":"２８１巷","ALLEY":" ","HOUSE_NO":"１５號","E_COORD97":165121.35999999999,"N_COORD97":2563166.21,"ADDRESS":"忠孝路２８１巷１５號","OBJECTID":358051},"geometry":{"x":165121.36000000127,"y":2563166.2100000028}},{"attributes":{"ID":358061,"DIS_CODE":0,"TOWNNAME":"中西區","LI":"安海里","LIN":"8鄰","STREET":"金華路","SECT":"三段","MAREA":" ","LANE":" ","ALLEY":" ","HOUSE_NO":"２１８號六樓之３","E_COORD97":167349.89999999999,"N_COORD97":2543920.5099999998,"ADDRESS":"金華路三段２１８號六樓之３","OBJECTID":358052},"geometry":{"x":167349.90000000224,"y":2543920.5100000016}},{"attributes":{"ID":358062,"DIS_CODE":0,"TOWNNAME":"中西區","LI":"安海里","LIN":"8鄰","STREET":"金華路","SECT":"三段","MAREA":" ","LANE":" ","ALLEY":" ","HOUSE_NO":"２１８號六樓之４","E_COORD97":167349.89999999999,"N_COORD97":2543920.5099999998,"ADDRESS":"金華路三段２１８號六樓之４","OBJECTID":358053},"geometry":{"x":167349.90000000224,"y":2543920.5100000016}},{"attributes":{"ID":358063,"DIS_CODE":0,"TOWNNAME":"中西區","LI":"安海里","LIN":"8鄰","STREET":"金華路","SECT":"三段","MAREA":" ","LANE":" ","ALLEY":" ","HOUSE_NO":"２１８號六樓之５","E_COORD97":167349.89999999999,"N_COORD97":2543920.5099999998,"ADDRESS":"金華路三段２１８號六樓之５","OBJECTID":358054},"geometry":{"x":167349.90000000224,"y":2543920.5100000016}},{"attributes":{"ID":358064,"DIS_CODE":0,"TOWNNAME":"中西區","LI":"安海里","LIN":"8鄰","STREET":"金華路","SECT":"三段","MAREA":" ","LANE":" ","ALLEY":" ","HOUSE_NO":"２１８號六樓之６","E_COORD97":167349.89999999999,"N_COORD97":2543920.5099999998,"ADDRESS":"金華路三段２１８號六樓之６","OBJECTID":358055},"geometry":{"x":167349.90000000224,"y":2543920.5100000016}},{"attributes":{"ID":358065,"DIS_CODE":0,"TOWNNAME":"中西區","LI":"安海里","LIN":"8鄰","STREET":"金華路","SECT":"三段","MAREA":" ","LANE":" ","ALLEY":" ","HOUSE_NO":"２１８號六樓之７","E_COORD97":167349.89999999999,"N_COORD97":2543920.5099999998,"ADDRESS":"金華路三段２１８號六樓之７","OBJECTID":358056},"geometry":{"x":167349.90000000224,"y":2543920.5100000016}},{"attributes":{"ID":358066,"DIS_CODE":0,"TOWNNAME":"中西區","LI":"安海里","LIN":"8鄰","STREET":"金華路","SECT":"三段","MAREA":" ","LANE":" ","ALLEY":" ","HOUSE_NO":"２１８號六樓之８","E_COORD97":167349.89999999999,"N_COORD97":2543920.5099999998,"ADDRESS":"金華路三段２１８號六樓之８","OBJECTID":358057},"geometry":{"x":167349.90000000224,"y":2543920.5100000016}},{"attributes":{"ID":358067,"DIS_CODE":0,"TOWNNAME":"新市區","LI":"新市里","LIN":"8鄰","STREET":"中正路","SECT":" ","MAREA":" ","LANE":" ","ALLEY":" ","HOUSE_NO":"２３７之４號","E_COORD97":177450.37,"N_COORD97":2553135.0499999998,"ADDRESS":"中正路２３７之４號","OBJECTID":358058},"geometry":{"x":177450.37000000104,"y":2553135.0500000026}},{"attributes":{"ID":358068,"DIS_CODE":0,"TOWNNAME":"佳里區","LI":"安西里","LIN":"30鄰","STREET":"忠孝路","SECT":" ","MAREA":" ","LANE":"２８１巷","ALLEY":" ","HOUSE_NO":"１７號","E_COORD97":165117.97,"N_COORD97":2563162.27,"ADDRESS":"忠孝路２８１巷１７號","OBJECTID":358059},"geometry":{"x":165117.97000000067,"y":2563162.2700000014}},{"attributes":{"ID":358069,"DIS_CODE":0,"TOWNNAME":"佳里區","LI":"安西里","LIN":"30鄰","STREET":"忠孝路","SECT":" ","MAREA":" ","LANE":"２８１巷","ALLEY":" ","HOUSE_NO":"１９號","E_COORD97":165114,"N_COORD97":2563156.9399999999,"ADDRESS":"忠孝路２８１巷１９號","OBJECTID":358060},"geometry":{"x":165114,"y":2563156.9400000013}},{"attributes":{"ID":358070,"DIS_CODE":0,"TOWNNAME":"佳里區","LI":"安西里","LIN":"30鄰","STREET":"忠孝路","SECT":" ","MAREA":" ","LANE":"２８１巷","ALLEY":" ","HOUSE_NO":"１號","E_COORD97":165142.10999999999,"N_COORD97":2563194.3900000001,"ADDRESS":"忠孝路２８１巷１號","OBJECTID":358061},"geometry":{"x":165142.11000000034,"y":2563194.3900000006}},{"attributes":{"ID":358071,"DIS_CODE":0,"TOWNNAME":"佳里區","LI":"安西里","LIN":"30鄰","STREET":"忠孝路","SECT":" ","MAREA":" ","LANE":"２８１巷","ALLEY":" ","HOUSE_NO":"２０號","E_COORD97":165090.04000000001,"N_COORD97":2563155.4300000002,"ADDRESS":"忠孝路２８１巷２０號","OBJECTID":358062},"geometry":{"x":165090.04000000004,"y":2563155.4299999997}},{"attributes":{"ID":358072,"DIS_CODE":0,"TOWNNAME":"佳里區","LI":"安西里","LIN":"30鄰","STREET":"忠孝路","SECT":" ","MAREA":" ","LANE":"２８１巷","ALLEY":" ","HOUSE_NO":"２１號","E_COORD97":165128.17000000001,"N_COORD97":2563150.7599999998,"ADDRESS":"忠孝路２８１巷２１號","OBJECTID":358063},"geometry":{"x":165128.16999999993,"y":2563150.7600000035}},{"attributes":{"ID":358073,"DIS_CODE":0,"TOWNNAME":"佳里區","LI":"安西里","LIN":"30鄰","STREET":"忠孝路","SECT":" ","MAREA":" ","LANE":"２８１巷","ALLEY":" ","HOUSE_NO":"２２號","E_COORD97":165086.79999999999,"N_COORD97":2563150.7400000002,"ADDRESS":"忠孝路２８１巷２２號","OBJECTID":358064},"geometry":{"x":165086.80000000168,"y":2563150.7400000002}},{"attributes":{"ID":358074,"DIS_CODE":0,"TOWNNAME":"佳里區","LI":"安西里","LIN":"30鄰","STREET":"忠孝路","SECT":" ","MAREA":" ","LANE":"２８１巷","ALLEY":" ","HOUSE_NO":"２３號","E_COORD97":165132.5,"N_COORD97":2563148.1400000001,"ADDRESS":"忠孝路２８１巷２３號","OBJECTID":358065},"geometry":{"x":165132.5,"y":2563148.1400000006}},{"attributes":{"ID":358075,"DIS_CODE":0,"TOWNNAME":"佳里區","LI":"安西里","LIN":"30鄰","STREET":"忠孝路","SECT":" ","MAREA":" ","LANE":"２８１巷","ALLEY":" ","HOUSE_NO":"２４號","E_COORD97":165084.12,"N_COORD97":2563146.8700000001,"ADDRESS":"忠孝路２８１巷２４號","OBJECTID":358066},"geometry":{"x":165084.12000000104,"y":2563146.870000001}},{"attributes":{"ID":358076,"DIS_CODE":0,"TOWNNAME":"佳里區","LI":"安西里","LIN":"30鄰","STREET":"忠孝路","SECT":" ","MAREA":" ","LANE":"２８１巷","ALLEY":" ","HOUSE_NO":"２５號","E_COORD97":165136.78,"N_COORD97":2563145.3500000001,"ADDRESS":"忠孝路２８１巷２５號","OBJECTID":358067},"geometry":{"x":165136.78000000119,"y":2563145.3499999996}},{"attributes":{"ID":358077,"DIS_CODE":0,"TOWNNAME":"佳里區","LI":"安西里","LIN":"30鄰","STREET":"忠孝路","SECT":" ","MAREA":" ","LANE":"２８１巷","ALLEY":" ","HOUSE_NO":"２６號","E_COORD97":165081.60999999999,"N_COORD97":2563142.9500000002,"ADDRESS":"忠孝路２８１巷２６號","OBJECTID":358068},"geometry":{"x":165081.61000000034,"y":2563142.9500000011}},{"attributes":{"ID":358078,"DIS_CODE":0,"TOWNNAME":"佳里區","LI":"安西里","LIN":"30鄰","STREET":"忠孝路","SECT":" ","MAREA":" ","LANE":"２８１巷","ALLEY":" ","HOUSE_NO":"２７號","E_COORD97":165140.81,"N_COORD97":2563142.5600000001,"ADDRESS":"忠孝路２８１巷２７號","OBJECTID":358069},"geometry":{"x":165140.81000000145,"y":2563142.5599999987}},{"attributes":{"ID":358079,"DIS_CODE":0,"TOWNNAME":"佳里區","LI":"安西里","LIN":"30鄰","STREET":"忠孝路","SECT":" ","MAREA":" ","LANE":"２８１巷","ALLEY":" ","HOUSE_NO":"２８號","E_COORD97":165078.42000000001,"N_COORD97":2563139.4700000002,"ADDRESS":"忠孝路２８１巷２８號","OBJECTID":358070},"geometry":{"x":165078.42000000086,"y":2563139.4700000007}},{"attributes":{"ID":358080,"DIS_CODE":0,"TOWNNAME":"佳里區","LI":"安西里","LIN":"30鄰","STREET":"忠孝路","SECT":" ","MAREA":" ","LANE":"２８１巷","ALLEY":" ","HOUSE_NO":"２９號","E_COORD97":165145.10000000001,"N_COORD97":2563139.71,"ADDRESS":"忠孝路２８１巷２９號","OBJECTID":358071},"geometry":{"x":165145.09999999963,"y":2563139.7100000028}},{"attributes":{"ID":358081,"DIS_CODE":0,"TOWNNAME":"佳里區","LI":"安西里","LIN":"30鄰","STREET":"忠孝路","SECT":" ","MAREA":" ","LANE":"２８１巷","ALLEY":" ","HOUSE_NO":"３０號","E_COORD97":165076.41,"N_COORD97":2563136.0099999998,"ADDRESS":"忠孝路２８１巷３０號","OBJECTID":358072},"geometry":{"x":165076.41000000201,"y":2563136.0100000016}},{"attributes":{"ID":358082,"DIS_CODE":0,"TOWNNAME":"佳里區","LI":"安西里","LIN":"30鄰","STREET":"忠孝路","SECT":" ","MAREA":" ","LANE":"２８１巷","ALLEY":" ","HOUSE_NO":"３１號","E_COORD97":165149.23000000001,"N_COORD97":2563136.6099999999,"ADDRESS":"忠孝路２８１巷３１號","OBJECTID":358073},"geometry":{"x":165149.23000000138,"y":2563136.6099999994}},{"attributes":{"ID":358083,"DIS_CODE":0,"TOWNNAME":"佳里區","LI":"安西里","LIN":"30鄰","STREET":"忠孝路","SECT":" ","MAREA":" ","LANE":"２８１巷","ALLEY":" ","HOUSE_NO":"３２號","E_COORD97":165073.62,"N_COORD97":2563132.6000000001,"ADDRESS":"忠孝路２８１巷３２號","OBJECTID":358074},"geometry":{"x":165073.62000000104,"y":2563132.6000000015}},{"attributes":{"ID":358084,"DIS_CODE":0,"TOWNNAME":"佳里區","LI":"安西里","LIN":"30鄰","STREET":"忠孝路","SECT":" ","MAREA":" ","LANE":"２８１巷","ALLEY":" ","HOUSE_NO":"３４號","E_COORD97":165071.39999999999,"N_COORD97":2563129.0699999998,"ADDRESS":"忠孝路２８１巷３４號","OBJECTID":358075},"geometry":{"x":165071.39999999944,"y":2563129.070000004}},{"attributes":{"ID":358085,"DIS_CODE":0,"TOWNNAME":"佳里區","LI":"安西里","LIN":"30鄰","STREET":"忠孝路","SECT":" ","MAREA":" ","LANE":"２８１巷","ALLEY":" ","HOUSE_NO":"３６號","E_COORD97":165067.98000000001,"N_COORD97":2563125.54,"ADDRESS":"忠孝路２８１巷３６號","OBJECTID":358076},"geometry":{"x":165067.98000000138,"y":2563125.540000001}},{"attributes":{"ID":358086,"DIS_CODE":0,"TOWNNAME":"佳里區","LI":"安西里","LIN":"30鄰","STREET":"忠孝路","SECT":" ","MAREA":" ","LANE":"２８１巷","ALLEY":" ","HOUSE_NO":"３號","E_COORD97":165139.07000000001,"N_COORD97":2563189.9399999999,"ADDRESS":"忠孝路２８１巷３號","OBJECTID":358077},"geometry":{"x":165139.0700000003,"y":2563189.9400000032}},{"attributes":{"ID":358087,"DIS_CODE":0,"TOWNNAME":"佳里區","LI":"安西里","LIN":"30鄰","STREET":"忠孝路","SECT":" ","MAREA":" ","LANE":"２８１巷","ALLEY":" ","HOUSE_NO":"５０號","E_COORD97":165055.10999999999,"N_COORD97":2563095.3900000001,"ADDRESS":"忠孝路２８１巷５０號","OBJECTID":358078},"geometry":{"x":165055.11000000127,"y":2563095.3900000006}},{"attributes":{"ID":358088,"DIS_CODE":0,"TOWNNAME":"佳里區","LI":"安西里","LIN":"30鄰","STREET":"忠孝路","SECT":" ","MAREA":" ","LANE":"２８１巷","ALLEY":" ","HOUSE_NO":"５２號","E_COORD97":165054.70999999999,"N_COORD97":2563089.4700000002,"ADDRESS":"忠孝路２８１巷５２號","OBJECTID":358079},"geometry":{"x":165054.70999999996,"y":2563089.4700000044}},{"attributes":{"ID":358089,"DIS_CODE":0,"TOWNNAME":"佳里區","LI":"安西里","LIN":"30鄰","STREET":"忠孝路","SECT":" ","MAREA":" ","LANE":"２８１巷","ALLEY":" ","HOUSE_NO":"５４號","E_COORD97":165054.20999999999,"N_COORD97":2563083.5499999998,"ADDRESS":"忠孝路２８１巷５４號","OBJECTID":358080},"geometry":{"x":165054.21000000089,"y":2563083.5500000026}},{"attributes":{"ID":358090,"DIS_CODE":0,"TOWNNAME":"佳里區","LI":"安西里","LIN":"30鄰","STREET":"忠孝路","SECT":" ","MAREA":" ","LANE":"２８１巷","ALLEY":" ","HOUSE_NO":"５６號","E_COORD97":165053.82999999999,"N_COORD97":2563077.9100000001,"ADDRESS":"忠孝路２８１巷５６號","OBJECTID":358081},"geometry":{"x":165053.83000000101,"y":2563077.9100000001}},{"attributes":{"ID":358091,"DIS_CODE":0,"TOWNNAME":"佳里區","LI":"安西里","LIN":"30鄰","STREET":"忠孝路","SECT":" ","MAREA":" ","LANE":"２８１巷","ALLEY":" ","HOUSE_NO":"７號","E_COORD97":165132.64999999999,"N_COORD97":2563182.0499999998,"ADDRESS":"忠孝路２８１巷７號","OBJECTID":358082},"geometry":{"x":165132.65000000224,"y":2563182.0500000007}},{"attributes":{"ID":358092,"DIS_CODE":0,"TOWNNAME":"佳里區","LI":"安西里","LIN":"30鄰","STREET":"忠孝路","SECT":" ","MAREA":" ","LANE":"２８１巷","ALLEY":" ","HOUSE_NO":"９號","E_COORD97":165129.92000000001,"N_COORD97":2563178.4500000002,"ADDRESS":"忠孝路２８１巷９號","OBJECTID":358083},"geometry":{"x":165129.91999999993,"y":2563178.4499999993}},{"attributes":{"ID":358093,"DIS_CODE":0,"TOWNNAME":"安平區","LI":"平安里","LIN":"11鄰","STREET":"安平路","SECT":" ","MAREA":" ","LANE":"５００巷","ALLEY":" ","HOUSE_NO":"５號","E_COORD97":165131.60999999999,"N_COORD97":2544365.1600000001,"ADDRESS":"安平路５００巷５號","OBJECTID":358084},"geometry":{"x":165131.61000000127,"y":2544365.1600000001}},{"attributes":{"ID":358094,"DIS_CODE":0,"TOWNNAME":"中西區","LI":"中正里","LIN":"11鄰","STREET":"海安路","SECT":" ","MAREA":" ","LANE":"２２５巷","ALLEY":" ","HOUSE_NO":"１１號","E_COORD97":167568.88,"N_COORD97":2543932.3700000001,"ADDRESS":"海安路２２５巷１１號","OBJECTID":358085},"geometry":{"x":167568.88000000082,"y":2543932.3700000029}},{"attributes":{"ID":358095,"DIS_CODE":0,"TOWNNAME":"安南區","LI":"溪心里","LIN":"11鄰","STREET":"安吉路","SECT":"一段","MAREA":" ","LANE":"９９９巷","ALLEY":" ","HOUSE_NO":"１２５之１號","E_COORD97":166708.39999999999,"N_COORD97":2550523.46,"ADDRESS":"安吉路一段９９９巷１２５之１號","OBJECTID":358086},"geometry":{"x":166708.40000000037,"y":2550523.4600000009}},{"attributes":{"ID":358096,"DIS_CODE":0,"TOWNNAME":"仁德區","LI":"中生里","LIN":"1鄰","STREET":" ","SECT":" ","MAREA":"中洲","LANE":" ","ALLEY":" ","HOUSE_NO":"７６之１１９號","E_COORD97":172089.11931000001,"N_COORD97":2534937.4092999999,"ADDRESS":"中洲７６之１１９號","OBJECTID":358087},"geometry":{"x":172089.11930999998,"y":2534937.4093020018}},{"attributes":{"ID":358097,"DIS_CODE":0,"TOWNNAME":"永康區","LI":"永康里","LIN":"30鄰","STREET":"永華路","SECT":" ","MAREA":" ","LANE":"７０２巷","ALLEY":" ","HOUSE_NO":"９號","E_COORD97":174124.92999999999,"N_COORD97":2547111.4900000002,"ADDRESS":"永華路７０２巷９號","OBJECTID":358088},"geometry":{"x":174124.93000000063,"y":2547111.4900000021}},{"attributes":{"ID":358098,"DIS_CODE":0,"TOWNNAME":"永康區","LI":"永康里","LIN":"30鄰","STREET":"永華路","SECT":" ","MAREA":" ","LANE":"７７６巷","ALLEY":" ","HOUSE_NO":"１５號","E_COORD97":174183.01000000001,"N_COORD97":2547190.7400000002,"ADDRESS":"永華路７７６巷１５號","OBJECTID":358089},"geometry":{"x":174183.00999999978,"y":2547190.7400000021}},{"attributes":{"ID":358099,"DIS_CODE":0,"TOWNNAME":"永康區","LI":"永康里","LIN":"30鄰","STREET":"永華路","SECT":" ","MAREA":" ","LANE":"７７６巷","ALLEY":" ","HOUSE_NO":"１９號","E_COORD97":174181.69,"N_COORD97":2547170.8900000001,"ADDRESS":"永華路７７６巷１９號","OBJECTID":358090},"geometry":{"x":174181.69000000134,"y":2547170.8900000006}},{"attributes":{"ID":358100,"DIS_CODE":0,"TOWNNAME":"北區","LI":"和順里","LIN":"30鄰","STREET":"海安路","SECT":"三段","MAREA":" ","LANE":"１３５巷","ALLEY":" ","HOUSE_NO":"４７號","E_COORD97":167830.85999999999,"N_COORD97":2544998.8399999999,"ADDRESS":"海安路三段１３５巷４７號","OBJECTID":358091},"geometry":{"x":167830.86000000034,"y":2544998.8400000017}},{"attributes":{"ID":358101,"DIS_CODE":0,"TOWNNAME":"北區","LI":"和順里","LIN":"30鄰","STREET":"海安路","SECT":"三段","MAREA":" ","LANE":"１３５巷","ALLEY":" ","HOUSE_NO":"４９號","E_COORD97":167824.89000000001,"N_COORD97":2544998.7799999998,"ADDRESS":"海安路三段１３５巷４９號","OBJECTID":358092},"geometry":{"x":167824.88999999966,"y":2544998.7800000012}},{"attributes":{"ID":358102,"DIS_CODE":0,"TOWNNAME":"北區","LI":"和順里","LIN":"30鄰","STREET":"海安路","SECT":"三段","MAREA":" ","LANE":"１３５巷","ALLEY":" ","HOUSE_NO":"５１號","E_COORD97":167820.01999999999,"N_COORD97":2544998.6000000001,"ADDRESS":"海安路三段１３５巷５１號","OBJECTID":358093},"geometry":{"x":167820.02000000048,"y":2544998.5999999996}},{"attributes":{"ID":358103,"DIS_CODE":0,"TOWNNAME":"北區","LI":"和順里","LIN":"30鄰","STREET":"海安路","SECT":"三段","MAREA":" ","LANE":"１３５巷","ALLEY":" ","HOUSE_NO":"５３號","E_COORD97":167815.14999999999,"N_COORD97":2544998.6000000001,"ADDRESS":"海安路三段１３５巷５３號","OBJECTID":358094},"geometry":{"x":167815.1500000013,"y":2544998.5999999996}},{"attributes":{"ID":358104,"DIS_CODE":0,"TOWNNAME":"北區","LI":"和順里","LIN":"30鄰","STREET":"海安路","SECT":"三段","MAREA":" ","LANE":"１３５巷","ALLEY":" ","HOUSE_NO":"５５號","E_COORD97":167810.29000000001,"N_COORD97":2544998.6000000001,"ADDRESS":"海安路三段１３５巷５５號","OBJECTID":358095},"geometry":{"x":167810.29000000097,"y":2544998.5999999996}},{"attributes":{"ID":358105,"DIS_CODE":0,"TOWNNAME":"北區","LI":"和順里","LIN":"30鄰","STREET":"海安路","SECT":"三段","MAREA":" ","LANE":"１３５巷","ALLEY":" ","HOUSE_NO":"５７號","E_COORD97":167805.35000000001,"N_COORD97":2544998.4100000001,"ADDRESS":"海安路三段１３５巷５７號","OBJECTID":358096},"geometry":{"x":167805.35000000149,"y":2544998.410000002}},{"attributes":{"ID":358106,"DIS_CODE":0,"TOWNNAME":"新營區","LI":"忠政里","LIN":"30鄰","STREET":"府西路","SECT":" ","MAREA":" ","LANE":"３３巷","ALLEY":" ","HOUSE_NO":"２３號","E_COORD97":179749.21996300001,"N_COORD97":2578964.5788099999,"ADDRESS":"府西路３３巷２３號","OBJECTID":358097},"geometry":{"x":179749.21996300016,"y":2578964.578811001}},{"attributes":{"ID":358107,"DIS_CODE":0,"TOWNNAME":"新營區","LI":"南興里","LIN":"30鄰","STREET":"建業路","SECT":" ","MAREA":" ","LANE":"１５７巷","ALLEY":" ","HOUSE_NO":"１９號","E_COORD97":178398.64999999999,"N_COORD97":2577427.5099999998,"ADDRESS":"建業路１５７巷１９號","OBJECTID":358098},"geometry":{"x":178398.65000000037,"y":2577427.5100000016}},{"attributes":{"ID":358108,"DIS_CODE":0,"TOWNNAME":"新營區","LI":"新北里","LIN":"30鄰","STREET":"新北街","SECT":" ","MAREA":" ","LANE":"１７０巷","ALLEY":" ","HOUSE_NO":"２號","E_COORD97":178692.39999999999,"N_COORD97":2578982.0600000001,"ADDRESS":"新北街１７０巷２號","OBJECTID":358099},"geometry":{"x":178692.40000000224,"y":2578982.0600000005}},{"attributes":{"ID":358109,"DIS_CODE":0,"TOWNNAME":"中西區","LI":"安海里","LIN":"8鄰","STREET":"金華路","SECT":"三段","MAREA":" ","LANE":" ","ALLEY":" ","HOUSE_NO":"２１８號六樓之９","E_COORD97":167349.89999999999,"N_COORD97":2543920.5099999998,"ADDRESS":"金華路三段２１８號六樓之９","OBJECTID":358100},"geometry":{"x":167349.90000000224,"y":2543920.5100000016}},{"attributes":{"ID":358110,"DIS_CODE":0,"TOWNNAME":"中西區","LI":"安海里","LIN":"8鄰","STREET":"金華路","SECT":"三段","MAREA":" ","LANE":" ","ALLEY":" ","HOUSE_NO":"２１８號四樓","E_COORD97":167349.89999999999,"N_COORD97":2543920.5099999998,"ADDRESS":"金華路三段２１８號四樓","OBJECTID":358101},"geometry":{"x":167349.90000000224,"y":2543920.5100000016}},{"attributes":{"ID":358111,"DIS_CODE":0,"TOWNNAME":"中西區","LI":"三合里","LIN":"8鄰","STREET":"成功路","SECT":" ","MAREA":" ","LANE":" ","ALLEY":" ","HOUSE_NO":"４５７號七樓","E_COORD97":167602.39000000001,"N_COORD97":2544649.3900000001,"ADDRESS":"成功路４５７號七樓","OBJECTID":358102},"geometry":{"x":167602.3900000006,"y":2544649.3900000043}},{"attributes":{"ID":358112,"DIS_CODE":0,"TOWNNAME":"中西區","LI":"三合里","LIN":"8鄰","STREET":"成功路","SECT":" ","MAREA":" ","LANE":" ","ALLEY":" ","HOUSE_NO":"４５７號九樓之１","E_COORD97":167602.39000000001,"N_COORD97":2544649.3900000001,"ADDRESS":"成功路４５７號九樓之１","OBJECTID":358103},"geometry":{"x":167602.3900000006,"y":2544649.3900000043}},{"attributes":{"ID":358113,"DIS_CODE":0,"TOWNNAME":"中西區","LI":"三合里","LIN":"8鄰","STREET":"成功路","SECT":" ","MAREA":" ","LANE":" ","ALLEY":" ","HOUSE_NO":"４５７號九樓之２","E_COORD97":167602.39000000001,"N_COORD97":2544649.3900000001,"ADDRESS":"成功路４５７號九樓之２","OBJECTID":358104},"geometry":{"x":167602.3900000006,"y":2544649.3900000043}},{"attributes":{"ID":358114,"DIS_CODE":0,"TOWNNAME":"中西區","LI":"三合里","LIN":"8鄰","STREET":"成功路","SECT":" ","MAREA":" ","LANE":" ","ALLEY":" ","HOUSE_NO":"４５７號九樓之３","E_COORD97":167602.39000000001,"N_COORD97":2544649.3900000001,"ADDRESS":"成功路４５７號九樓之３","OBJECTID":358105},"geometry":{"x":167602.3900000006,"y":2544649.3900000043}},{"attributes":{"ID":358115,"DIS_CODE":0,"TOWNNAME":"六甲區","LI":"六甲里","LIN":"30鄰","STREET":"中華路","SECT":" ","MAREA":" ","LANE":"９９巷","ALLEY":" ","HOUSE_NO":"９號","E_COORD97":183394.79000000001,"N_COORD97":2569304.5099999998,"ADDRESS":"中華路９９巷９號","OBJECTID":358106},"geometry":{"x":183394.79000000004,"y":2569304.5099999998}},{"attributes":{"ID":358116,"DIS_CODE":0,"TOWNNAME":"中西區","LI":"三合里","LIN":"8鄰","STREET":"成功路","SECT":" ","MAREA":" ","LANE":" ","ALLEY":" ","HOUSE_NO":"４５７號九樓之４","E_COORD97":167602.39000000001,"N_COORD97":2544649.3900000001,"ADDRESS":"成功路４５７號九樓之４","OBJECTID":358107},"geometry":{"x":167602.3900000006,"y":2544649.3900000043}},{"attributes":{"ID":358117,"DIS_CODE":0,"TOWNNAME":"中西區","LI":"三合里","LIN":"8鄰","STREET":"成功路","SECT":" ","MAREA":" ","LANE":" ","ALLEY":" ","HOUSE_NO":"４５７號九樓之５","E_COORD97":167602.39000000001,"N_COORD97":2544649.3900000001,"ADDRESS":"成功路４５７號九樓之５","OBJECTID":358108},"geometry":{"x":167602.3900000006,"y":2544649.3900000043}},{"attributes":{"ID":358118,"DIS_CODE":0,"TOWNNAME":"中西區","LI":"三合里","LIN":"8鄰","STREET":"成功路","SECT":" ","MAREA":" ","LANE":" ","ALLEY":" ","HOUSE_NO":"４５７號九樓之６","E_COORD97":167602.39000000001,"N_COORD97":2544649.3900000001,"ADDRESS":"成功路４５７號九樓之６","OBJECTID":358109},"geometry":{"x":167602.3900000006,"y":2544649.3900000043}},{"attributes":{"ID":358119,"DIS_CODE":0,"TOWNNAME":"中西區","LI":"三合里","LIN":"8鄰","STREET":"成功路","SECT":" ","MAREA":" ","LANE":" ","ALLEY":" ","HOUSE_NO":"４５７號九樓之７","E_COORD97":167602.39000000001,"N_COORD97":2544649.3900000001,"ADDRESS":"成功路４５７號九樓之７","OBJECTID":358110},"geometry":{"x":167602.3900000006,"y":2544649.3900000043}},{"attributes":{"ID":358120,"DIS_CODE":0,"TOWNNAME":"中西區","LI":"三合里","LIN":"8鄰","STREET":"成功路","SECT":" ","MAREA":" ","LANE":" ","ALLEY":" ","HOUSE_NO":"４５７號二樓","E_COORD97":167602.39000000001,"N_COORD97":2544649.3900000001,"ADDRESS":"成功路４５７號二樓","OBJECTID":358111},"geometry":{"x":167602.3900000006,"y":2544649.3900000043}},{"attributes":{"ID":358121,"DIS_CODE":0,"TOWNNAME":"中西區","LI":"三合里","LIN":"8鄰","STREET":"成功路","SECT":" ","MAREA":" ","LANE":" ","ALLEY":" ","HOUSE_NO":"４５７號八樓","E_COORD97":167602.39000000001,"N_COORD97":2544649.3900000001,"ADDRESS":"成功路４５７號八樓","OBJECTID":358112},"geometry":{"x":167602.3900000006,"y":2544649.3900000043}},{"attributes":{"ID":358122,"DIS_CODE":0,"TOWNNAME":"中西區","LI":"三合里","LIN":"8鄰","STREET":"成功路","SECT":" ","MAREA":" ","LANE":" ","ALLEY":" ","HOUSE_NO":"４５７號十一樓之１","E_COORD97":167602.39000000001,"N_COORD97":2544649.3900000001,"ADDRESS":"成功路４５７號十一樓之１","OBJECTID":358113},"geometry":{"x":167602.3900000006,"y":2544649.3900000043}},{"attributes":{"ID":358123,"DIS_CODE":0,"TOWNNAME":"中西區","LI":"三合里","LIN":"8鄰","STREET":"成功路","SECT":" ","MAREA":" ","LANE":" ","ALLEY":" ","HOUSE_NO":"４５７號十一樓之２","E_COORD97":167602.39000000001,"N_COORD97":2544649.3900000001,"ADDRESS":"成功路４５７號十一樓之２","OBJECTID":358114},"geometry":{"x":167602.3900000006,"y":2544649.3900000043}},{"attributes":{"ID":358124,"DIS_CODE":0,"TOWNNAME":"中西區","LI":"三合里","LIN":"8鄰","STREET":"成功路","SECT":" ","MAREA":" ","LANE":" ","ALLEY":" ","HOUSE_NO":"４５７號十一樓之３","E_COORD97":167602.39000000001,"N_COORD97":2544649.3900000001,"ADDRESS":"成功路４５７號十一樓之３","OBJECTID":358115},"geometry":{"x":167602.3900000006,"y":2544649.3900000043}},{"attributes":{"ID":358125,"DIS_CODE":0,"TOWNNAME":"中西區","LI":"三合里","LIN":"8鄰","STREET":"成功路","SECT":" ","MAREA":" ","LANE":" ","ALLEY":" ","HOUSE_NO":"４５７號十一樓之４","E_COORD97":167602.39000000001,"N_COORD97":2544649.3900000001,"ADDRESS":"成功路４５７號十一樓之４","OBJECTID":358116},"geometry":{"x":167602.3900000006,"y":2544649.3900000043}},{"attributes":{"ID":358126,"DIS_CODE":0,"TOWNNAME":"安南區","LI":"新順里","LIN":"11鄰","STREET":"育安四街","SECT":" ","MAREA":" ","LANE":"８７巷","ALLEY":" ","HOUSE_NO":"１６號","E_COORD97":169701.26000000001,"N_COORD97":2549688.1600000001,"ADDRESS":"育安四街８７巷１６號","OBJECTID":358117},"geometry":{"x":169701.25999999885,"y":2549688.1600000001}},{"attributes":{"ID":358127,"DIS_CODE":0,"TOWNNAME":"安南區","LI":"新順里","LIN":"11鄰","STREET":"育安四街","SECT":" ","MAREA":" ","LANE":"８７巷","ALLEY":" ","HOUSE_NO":"１８號","E_COORD97":169696.44,"N_COORD97":2549690.3799999999,"ADDRESS":"育安四街８７巷１８號","OBJECTID":358118},"geometry":{"x":169696.44000000134,"y":2549690.3800000008}},{"attributes":{"ID":358128,"DIS_CODE":0,"TOWNNAME":"安南區","LI":"新順里","LIN":"11鄰","STREET":"育安四街","SECT":" ","MAREA":" ","LANE":"８７巷","ALLEY":" ","HOUSE_NO":"２０號","E_COORD97":169690.32999999999,"N_COORD97":2549692.6000000001,"ADDRESS":"育安四街８７巷２０號","OBJECTID":358119},"geometry":{"x":169690.33000000007,"y":2549692.6000000015}},{"attributes":{"ID":358129,"DIS_CODE":0,"TOWNNAME":"新營區","LI":"民榮里","LIN":"30鄰","STREET":"太子路","SECT":" ","MAREA":" ","LANE":"４４巷","ALLEY":" ","HOUSE_NO":"３１號","E_COORD97":178136.79999999999,"N_COORD97":2578046.7400000002,"ADDRESS":"太子路４４巷３１號","OBJECTID":358120},"geometry":{"x":178136.80000000075,"y":2578046.7400000021}},{"attributes":{"ID":358130,"DIS_CODE":0,"TOWNNAME":"新營區","LI":"民榮里","LIN":"30鄰","STREET":"太子路","SECT":" ","MAREA":" ","LANE":"４４巷","ALLEY":" ","HOUSE_NO":"２５號","E_COORD97":178162.39999999999,"N_COORD97":2578055.4700000002,"ADDRESS":"太子路４４巷２５號","OBJECTID":358121},"geometry":{"x":178162.4000000013,"y":2578055.4700000025}},{"attributes":{"ID":358131,"DIS_CODE":0,"TOWNNAME":"新營區","LI":"王公里","LIN":"30鄰","STREET":"民族路","SECT":" ","MAREA":" ","LANE":"２６８巷","ALLEY":" ","HOUSE_NO":"１８號","E_COORD97":180450.39000000001,"N_COORD97":2579548.4700000002,"ADDRESS":"民族路２６８巷１８號","OBJECTID":358122},"geometry":{"x":180450.3900000006,"y":2579548.4700000007}},{"attributes":{"ID":358132,"DIS_CODE":0,"TOWNNAME":"新營區","LI":"王公里","LIN":"30鄰","STREET":"民族路","SECT":" ","MAREA":" ","LANE":"２６８巷","ALLEY":" ","HOUSE_NO":"８號","E_COORD97":180426.73000000001,"N_COORD97":2579553.0099999998,"ADDRESS":"民族路２６８巷８號","OBJECTID":358123},"geometry":{"x":180426.73000000138,"y":2579553.0100000016}},{"attributes":{"ID":358133,"DIS_CODE":0,"TOWNNAME":"新營區","LI":"王公里","LIN":"30鄰","STREET":"民族路","SECT":" ","MAREA":" ","LANE":"２６８巷","ALLEY":" ","HOUSE_NO":"２６號","E_COORD97":180467.82999999999,"N_COORD97":2579546.1699999999,"ADDRESS":"民族路２６８巷２６號","OBJECTID":358124},"geometry":{"x":180467.83000000101,"y":2579546.1699999999}},{"attributes":{"ID":358134,"DIS_CODE":0,"TOWNNAME":"新營區","LI":"民榮里","LIN":"30鄰","STREET":"太子路","SECT":" ","MAREA":" ","LANE":"４４巷","ALLEY":" ","HOUSE_NO":"３４號","E_COORD97":178125.51000000001,"N_COORD97":2578040.1499999999,"ADDRESS":"太子路４４巷３４號","OBJECTID":358125},"geometry":{"x":178125.51000000071,"y":2578040.1500000022}},{"attributes":{"ID":358135,"DIS_CODE":0,"TOWNNAME":"新營區","LI":"王公里","LIN":"30鄰","STREET":"民族路","SECT":" ","MAREA":" ","LANE":"２６８巷","ALLEY":" ","HOUSE_NO":"２８號","E_COORD97":180471.92999999999,"N_COORD97":2579546.1499999999,"ADDRESS":"民族路２６８巷２８號","OBJECTID":358126},"geometry":{"x":180471.93000000063,"y":2579546.1500000022}},{"attributes":{"ID":358136,"DIS_CODE":0,"TOWNNAME":"新營區","LI":"王公里","LIN":"30鄰","STREET":"民族路","SECT":" ","MAREA":" ","LANE":"２６８巷","ALLEY":" ","HOUSE_NO":"２４號","E_COORD97":180463.73999999999,"N_COORD97":2579547.2999999998,"ADDRESS":"民族路２６８巷２４號","OBJECTID":358127},"geometry":{"x":180463.74000000115,"y":2579547.3000000045}},{"attributes":{"ID":358137,"DIS_CODE":0,"TOWNNAME":"中西區","LI":"三合里","LIN":"8鄰","STREET":"成功路","SECT":" ","MAREA":" ","LANE":" ","ALLEY":" ","HOUSE_NO":"４５７號十七樓之１","E_COORD97":167602.39000000001,"N_COORD97":2544649.3900000001,"ADDRESS":"成功路４５７號十七樓之１","OBJECTID":358128},"geometry":{"x":167602.3900000006,"y":2544649.3900000043}},{"attributes":{"ID":358138,"DIS_CODE":0,"TOWNNAME":"中西區","LI":"三合里","LIN":"8鄰","STREET":"成功路","SECT":" ","MAREA":" ","LANE":" ","ALLEY":" ","HOUSE_NO":"４５７號十七樓之２","E_COORD97":167602.39000000001,"N_COORD97":2544649.3900000001,"ADDRESS":"成功路４５７號十七樓之２","OBJECTID":358129},"geometry":{"x":167602.3900000006,"y":2544649.3900000043}},{"attributes":{"ID":358139,"DIS_CODE":0,"TOWNNAME":"中西區","LI":"三合里","LIN":"8鄰","STREET":"成功路","SECT":" ","MAREA":" ","LANE":" ","ALLEY":" ","HOUSE_NO":"４５７號十七樓之３","E_COORD97":167602.39000000001,"N_COORD97":2544649.3900000001,"ADDRESS":"成功路４５７號十七樓之３","OBJECTID":358130},"geometry":{"x":167602.3900000006,"y":2544649.3900000043}},{"attributes":{"ID":358140,"DIS_CODE":0,"TOWNNAME":"安平區","LI":"平通里","LIN":"15鄰","STREET":"健康三街","SECT":" ","MAREA":" ","LANE":"４６０巷","ALLEY":" ","HOUSE_NO":"１２號之５","E_COORD97":164882.59,"N_COORD97":2543889.8999999999,"ADDRESS":"健康三街４６０巷１２號之５","OBJECTID":358131},"geometry":{"x":164882.58999999985,"y":2543889.9000000041}},{"attributes":{"ID":358141,"DIS_CODE":0,"TOWNNAME":"安南區","LI":"長安里","LIN":"15鄰","STREET":"公學路","SECT":"二段","MAREA":" ","LANE":"１２３巷","ALLEY":" ","HOUSE_NO":"５２號","E_COORD97":167770.66,"N_COORD97":2552315.3999999999,"ADDRESS":"公學路二段１２３巷５２號","OBJECTID":358132},"geometry":{"x":167770.66000000108,"y":2552315.4000000022}},{"attributes":{"ID":358142,"DIS_CODE":0,"TOWNNAME":"下營區","LI":"營前里","LIN":"25鄰","STREET":"仁愛街","SECT":" ","MAREA":" ","LANE":"３２巷","ALLEY":" ","HOUSE_NO":"６號","E_COORD97":174802.63,"N_COORD97":2570045.0600000001,"ADDRESS":"仁愛街３２巷６號","OBJECTID":358133},"geometry":{"x":174802.62999999989,"y":2570045.0600000005}},{"attributes":{"ID":358143,"DIS_CODE":0,"TOWNNAME":"新營區","LI":"王公里","LIN":"30鄰","STREET":"民族路","SECT":" ","MAREA":" ","LANE":"２６８巷","ALLEY":" ","HOUSE_NO":"１６號","E_COORD97":180445.28,"N_COORD97":2579549.6099999999,"ADDRESS":"民族路２６８巷１６號","OBJECTID":358134},"geometry":{"x":180445.28000000026,"y":2579549.6099999994}},{"attributes":{"ID":358144,"DIS_CODE":0,"TOWNNAME":"新營區","LI":"民榮里","LIN":"30鄰","STREET":"太子路","SECT":" ","MAREA":" ","LANE":"４４巷","ALLEY":" ","HOUSE_NO":"４１號","E_COORD97":178097.82000000001,"N_COORD97":2578025.8900000001,"ADDRESS":"太子路４４巷４１號","OBJECTID":358135},"geometry":{"x":178097.82000000216,"y":2578025.8900000025}},{"attributes":{"ID":358145,"DIS_CODE":0,"TOWNNAME":"新營區","LI":"王公里","LIN":"30鄰","STREET":"民族路","SECT":" ","MAREA":" ","LANE":"２６８巷","ALLEY":" ","HOUSE_NO":"１４號","E_COORD97":180441.19,"N_COORD97":2579550.7400000002,"ADDRESS":"民族路２６８巷１４號","OBJECTID":358136},"geometry":{"x":180441.19000000041,"y":2579550.7400000039}},{"attributes":{"ID":358146,"DIS_CODE":0,"TOWNNAME":"新營區","LI":"王公里","LIN":"30鄰","STREET":"民族路","SECT":" ","MAREA":" ","LANE":"２６８巷","ALLEY":" ","HOUSE_NO":"３４號","E_COORD97":180485.23000000001,"N_COORD97":2579543.8799999999,"ADDRESS":"民族路２６８巷３４號","OBJECTID":358137},"geometry":{"x":180485.23000000045,"y":2579543.879999999}},{"attributes":{"ID":358147,"DIS_CODE":0,"TOWNNAME":"仁德區","LI":"中生里","LIN":"1鄰","STREET":" ","SECT":" ","MAREA":"中洲","LANE":" ","ALLEY":" ","HOUSE_NO":"７６之１１８號","E_COORD97":172063.90751200001,"N_COORD97":2534949.2626299998,"ADDRESS":"中洲７６之１１８號","OBJECTID":358138},"geometry":{"x":172063.90751199983,"y":2534949.2626290023}},{"attributes":{"ID":358148,"DIS_CODE":0,"TOWNNAME":"新營區","LI":"民榮里","LIN":"30鄰","STREET":"太子路","SECT":" ","MAREA":" ","LANE":"４４巷","ALLEY":" ","HOUSE_NO":"２６號","E_COORD97":178158.29000000001,"N_COORD97":2578053.2799999998,"ADDRESS":"太子路４４巷２６號","OBJECTID":358139},"geometry":{"x":178158.29000000004,"y":2578053.2799999993}},{"attributes":{"ID":358149,"DIS_CODE":0,"TOWNNAME":"新營區","LI":"民榮里","LIN":"30鄰","STREET":"太子路","SECT":" ","MAREA":" ","LANE":"４４巷","ALLEY":" ","HOUSE_NO":"２２號","E_COORD97":178172.66,"N_COORD97":2578062.0699999998,"ADDRESS":"太子路４４巷２２號","OBJECTID":358140},"geometry":{"x":178172.66000000015,"y":2578062.0700000003}},{"attributes":{"ID":358150,"DIS_CODE":0,"TOWNNAME":"新營區","LI":"民榮里","LIN":"30鄰","STREET":"太子路","SECT":" ","MAREA":" ","LANE":"４４巷","ALLEY":" ","HOUSE_NO":"３６號","E_COORD97":178117.31,"N_COORD97":2578035.7599999998,"ADDRESS":"太子路４４巷３６號","OBJECTID":358141},"geometry":{"x":178117.30999999959,"y":2578035.7600000016}},{"attributes":{"ID":358151,"DIS_CODE":0,"TOWNNAME":"六甲區","LI":"六甲里","LIN":"30鄰","STREET":"中華路","SECT":" ","MAREA":" ","LANE":"９３巷","ALLEY":" ","HOUSE_NO":"１１號","E_COORD97":183420.98999999999,"N_COORD97":2569303.96,"ADDRESS":"中華路９３巷１１號","OBJECTID":358142},"geometry":{"x":183420.99000000022,"y":2569303.959999999}},{"attributes":{"ID":358152,"DIS_CODE":0,"TOWNNAME":"六甲區","LI":"六甲里","LIN":"30鄰","STREET":"中華路","SECT":" ","MAREA":" ","LANE":"９３巷","ALLEY":" ","HOUSE_NO":"１３號","E_COORD97":183420.23999999999,"N_COORD97":2569300.5299999998,"ADDRESS":"中華路９３巷１３號","OBJECTID":358143},"geometry":{"x":183420.24000000115,"y":2569300.5299999993}},{"attributes":{"ID":358153,"DIS_CODE":0,"TOWNNAME":"六甲區","LI":"六甲里","LIN":"30鄰","STREET":"中華路","SECT":" ","MAREA":" ","LANE":"９３巷","ALLEY":" ","HOUSE_NO":"１５號","E_COORD97":183418.07999999999,"N_COORD97":2569296.6400000001,"ADDRESS":"中華路９３巷１５號","OBJECTID":358144},"geometry":{"x":183418.08000000007,"y":2569296.6400000025}},{"attributes":{"ID":358154,"DIS_CODE":0,"TOWNNAME":"六甲區","LI":"六甲里","LIN":"30鄰","STREET":"中華路","SECT":" ","MAREA":" ","LANE":"９３巷","ALLEY":" ","HOUSE_NO":"１７號","E_COORD97":183416.92000000001,"N_COORD97":2569292.6699999999,"ADDRESS":"中華路９３巷１７號","OBJECTID":358145},"geometry":{"x":183416.92000000086,"y":2569292.6700000018}},{"attributes":{"ID":358155,"DIS_CODE":0,"TOWNNAME":"六甲區","LI":"六甲里","LIN":"30鄰","STREET":"中華路","SECT":" ","MAREA":" ","LANE":"９３巷","ALLEY":" ","HOUSE_NO":"１９號","E_COORD97":183415.64999999999,"N_COORD97":2569288.5299999998,"ADDRESS":"中華路９３巷１９號","OBJECTID":358146},"geometry":{"x":183415.6500000013,"y":2569288.5300000031}},{"attributes":{"ID":358156,"DIS_CODE":0,"TOWNNAME":"六甲區","LI":"六甲里","LIN":"30鄰","STREET":"中華路","SECT":" ","MAREA":" ","LANE":"９３巷","ALLEY":" ","HOUSE_NO":"２１號","E_COORD97":183414.32999999999,"N_COORD97":2569284.77,"ADDRESS":"中華路９３巷２１號","OBJECTID":358147},"geometry":{"x":183414.33000000101,"y":2569284.7700000014}},{"attributes":{"ID":358157,"DIS_CODE":0,"TOWNNAME":"六甲區","LI":"六甲里","LIN":"30鄰","STREET":"中華路","SECT":" ","MAREA":" ","LANE":"９３巷","ALLEY":" ","HOUSE_NO":"２３號","E_COORD97":183412.73999999999,"N_COORD97":2569280.9199999999,"ADDRESS":"中華路９３巷２３號","OBJECTID":358148},"geometry":{"x":183412.74000000209,"y":2569280.9200000018}},{"attributes":{"ID":358158,"DIS_CODE":0,"TOWNNAME":"六甲區","LI":"六甲里","LIN":"30鄰","STREET":"中華路","SECT":" ","MAREA":" ","LANE":"９３巷","ALLEY":" ","HOUSE_NO":"７號","E_COORD97":183424.51999999999,"N_COORD97":2569312.7000000002,"ADDRESS":"中華路９３巷７號","OBJECTID":358149},"geometry":{"x":183424.51999999955,"y":2569312.6999999993}},{"attributes":{"ID":358159,"DIS_CODE":0,"TOWNNAME":"六甲區","LI":"六甲里","LIN":"30鄰","STREET":"中華路","SECT":" ","MAREA":" ","LANE":"９３巷","ALLEY":" ","HOUSE_NO":"９號","E_COORD97":183422.94,"N_COORD97":2569308.3599999999,"ADDRESS":"中華路９３巷９號","OBJECTID":358150},"geometry":{"x":183422.94000000041,"y":2569308.3599999994}},{"attributes":{"ID":358160,"DIS_CODE":0,"TOWNNAME":"六甲區","LI":"六甲里","LIN":"30鄰","STREET":"中華路","SECT":" ","MAREA":" ","LANE":"９９巷","ALLEY":" ","HOUSE_NO":"１１號","E_COORD97":183393.14999999999,"N_COORD97":2569299.7599999998,"ADDRESS":"中華路９９巷１１號","OBJECTID":358151},"geometry":{"x":183393.15000000224,"y":2569299.7599999998}},{"attributes":{"ID":358161,"DIS_CODE":0,"TOWNNAME":"六甲區","LI":"六甲里","LIN":"30鄰","STREET":"中華路","SECT":" ","MAREA":" ","LANE":"９９巷","ALLEY":" ","HOUSE_NO":"１３號","E_COORD97":183391.56,"N_COORD97":2569295.7599999998,"ADDRESS":"中華路９９巷１３號","OBJECTID":358152},"geometry":{"x":183391.56000000052,"y":2569295.7600000016}},{"attributes":{"ID":358162,"DIS_CODE":0,"TOWNNAME":"六甲區","LI":"六甲里","LIN":"30鄰","STREET":"中華路","SECT":" ","MAREA":" ","LANE":"９９巷","ALLEY":" ","HOUSE_NO":"１５號","E_COORD97":183390.14999999999,"N_COORD97":2569291.5899999999,"ADDRESS":"中華路９９巷１５號","OBJECTID":358153},"geometry":{"x":183390.1500000013,"y":2569291.5899999999}},{"attributes":{"ID":358163,"DIS_CODE":0,"TOWNNAME":"六甲區","LI":"六甲里","LIN":"30鄰","STREET":"中華路","SECT":" ","MAREA":" ","LANE":"９９巷","ALLEY":" ","HOUSE_NO":"１７號","E_COORD97":183388.56,"N_COORD97":2569287.9300000002,"ADDRESS":"中華路９９巷１７號","OBJECTID":358154},"geometry":{"x":183388.56000000052,"y":2569287.9299999997}},{"attributes":{"ID":358164,"DIS_CODE":0,"TOWNNAME":"六甲區","LI":"六甲里","LIN":"30鄰","STREET":"中華路","SECT":" ","MAREA":" ","LANE":"９９巷","ALLEY":" ","HOUSE_NO":"１９號","E_COORD97":183387.45000000001,"N_COORD97":2569283.5099999998,"ADDRESS":"中華路９９巷１９號","OBJECTID":358155},"geometry":{"x":183387.45000000205,"y":2569283.5100000016}},{"attributes":{"ID":358165,"DIS_CODE":0,"TOWNNAME":"六甲區","LI":"六甲里","LIN":"30鄰","STREET":"中華路","SECT":" ","MAREA":" ","LANE":"９９巷","ALLEY":" ","HOUSE_NO":"１號","E_COORD97":183400.44,"N_COORD97":2569319.79,"ADDRESS":"中華路９９巷１號","OBJECTID":358156},"geometry":{"x":183400.44000000134,"y":2569319.7899999991}},{"attributes":{"ID":358166,"DIS_CODE":0,"TOWNNAME":"六甲區","LI":"六甲里","LIN":"30鄰","STREET":"中華路","SECT":" ","MAREA":" ","LANE":"９９巷","ALLEY":" ","HOUSE_NO":"２１號","E_COORD97":183386.01000000001,"N_COORD97":2569280.02,"ADDRESS":"中華路９９巷２１號","OBJECTID":358157},"geometry":{"x":183386.00999999978,"y":2569280.0200000014}},{"attributes":{"ID":358167,"DIS_CODE":0,"TOWNNAME":"中西區","LI":"三合里","LIN":"8鄰","STREET":"成功路","SECT":" ","MAREA":" ","LANE":" ","ALLEY":" ","HOUSE_NO":"４５７號十二樓之１","E_COORD97":167602.39000000001,"N_COORD97":2544649.3900000001,"ADDRESS":"成功路４５７號十二樓之１","OBJECTID":358158},"geometry":{"x":167602.3900000006,"y":2544649.3900000043}},{"attributes":{"ID":358168,"DIS_CODE":0,"TOWNNAME":"中西區","LI":"三合里","LIN":"8鄰","STREET":"成功路","SECT":" ","MAREA":" ","LANE":" ","ALLEY":" ","HOUSE_NO":"４５７號十二樓之２","E_COORD97":167602.39000000001,"N_COORD97":2544649.3900000001,"ADDRESS":"成功路４５７號十二樓之２","OBJECTID":358159},"geometry":{"x":167602.3900000006,"y":2544649.3900000043}},{"attributes":{"ID":358169,"DIS_CODE":0,"TOWNNAME":"南區","LI":"佛壇里","LIN":"15鄰","STREET":"灣裡路","SECT":" ","MAREA":" ","LANE":"６４０巷","ALLEY":" ","HOUSE_NO":"３２號","E_COORD97":166060.79999999999,"N_COORD97":2535671.5800000001,"ADDRESS":"灣裡路６４０巷３２號","OBJECTID":358160},"geometry":{"x":166060.79999999981,"y":2535671.5800000019}},{"attributes":{"ID":358170,"DIS_CODE":0,"TOWNNAME":"南區","LI":"佛壇里","LIN":"15鄰","STREET":"灣裡路","SECT":" ","MAREA":" ","LANE":"６４０巷","ALLEY":" ","HOUSE_NO":"３６號","E_COORD97":166059.69,"N_COORD97":2535673.1600000001,"ADDRESS":"灣裡路６４０巷３６號","OBJECTID":358161},"geometry":{"x":166059.69000000227,"y":2535673.160000002}},{"attributes":{"ID":358171,"DIS_CODE":0,"TOWNNAME":"南區","LI":"佛壇里","LIN":"15鄰","STREET":"灣裡路","SECT":" ","MAREA":" ","LANE":"６４０巷","ALLEY":" ","HOUSE_NO":"３８號","E_COORD97":166058.42000000001,"N_COORD97":2535675.23,"ADDRESS":"灣裡路６４０巷３８號","OBJECTID":358162},"geometry":{"x":166058.41999999993,"y":2535675.2300000004}},{"attributes":{"ID":358172,"DIS_CODE":0,"TOWNNAME":"南區","LI":"佛壇里","LIN":"15鄰","STREET":"灣裡路","SECT":" ","MAREA":" ","LANE":"６４０巷","ALLEY":" ","HOUSE_NO":"４０號","E_COORD97":166057.79000000001,"N_COORD97":2535676.8100000001,"ADDRESS":"灣裡路６４０巷４０號","OBJECTID":358163},"geometry":{"x":166057.79000000004,"y":2535676.8100000024}},{"attributes":{"ID":358173,"DIS_CODE":0,"TOWNNAME":"南區","LI":"佛壇里","LIN":"15鄰","STREET":"灣裡路","SECT":" ","MAREA":" ","LANE":"６４０巷","ALLEY":" ","HOUSE_NO":"４２號","E_COORD97":166056.98999999999,"N_COORD97":2535678.3999999999,"ADDRESS":"灣裡路６４０巷４２號","OBJECTID":358164},"geometry":{"x":166056.99000000022,"y":2535678.4000000041}},{"attributes":{"ID":358174,"DIS_CODE":0,"TOWNNAME":"南區","LI":"佛壇里","LIN":"15鄰","STREET":"灣裡路","SECT":" ","MAREA":" ","LANE":"６４０巷","ALLEY":" ","HOUSE_NO":"４６號","E_COORD97":166056.20000000001,"N_COORD97":2535680.1499999999,"ADDRESS":"灣裡路６４０巷４６號","OBJECTID":358165},"geometry":{"x":166056.20000000112,"y":2535680.1500000041}},{"attributes":{"ID":358175,"DIS_CODE":0,"TOWNNAME":"南區","LI":"佛壇里","LIN":"15鄰","STREET":"灣裡路","SECT":" ","MAREA":" ","LANE":"６４０巷","ALLEY":" ","HOUSE_NO":"４８號","E_COORD97":166055.25,"N_COORD97":2535682.5299999998,"ADDRESS":"灣裡路６４０巷４８號","OBJECTID":358166},"geometry":{"x":166055.24999999907,"y":2535682.5299999993}},{"attributes":{"ID":358176,"DIS_CODE":0,"TOWNNAME":"南區","LI":"佛壇里","LIN":"15鄰","STREET":"灣裡路","SECT":" ","MAREA":" ","LANE":"６４０巷","ALLEY":" ","HOUSE_NO":"５０號","E_COORD97":166053.82000000001,"N_COORD97":2535684.9100000001,"ADDRESS":"灣裡路６４０巷５０號","OBJECTID":358167},"geometry":{"x":166053.82000000123,"y":2535684.9100000039}},{"attributes":{"ID":358177,"DIS_CODE":0,"TOWNNAME":"南區","LI":"佛壇里","LIN":"15鄰","STREET":"灣裡路","SECT":" ","MAREA":" ","LANE":"６４０巷","ALLEY":" ","HOUSE_NO":"５２號","E_COORD97":166053.01999999999,"N_COORD97":2535687.29,"ADDRESS":"灣裡路６４０巷５２號","OBJECTID":358168},"geometry":{"x":166053.02000000142,"y":2535687.2899999991}},{"attributes":{"ID":358178,"DIS_CODE":0,"TOWNNAME":"南區","LI":"佛壇里","LIN":"15鄰","STREET":"灣裡路","SECT":" ","MAREA":" ","LANE":"６４０巷","ALLEY":" ","HOUSE_NO":"５６號","E_COORD97":166052.07000000001,"N_COORD97":2535690.4700000002,"ADDRESS":"灣裡路６４０巷５６號","OBJECTID":358169},"geometry":{"x":166052.07000000123,"y":2535690.4700000007}},{"attributes":{"ID":358179,"DIS_CODE":0,"TOWNNAME":"南區","LI":"佛壇里","LIN":"15鄰","STREET":"灣裡路","SECT":" ","MAREA":" ","LANE":"６４０巷","ALLEY":" ","HOUSE_NO":"５８號","E_COORD97":166055.09,"N_COORD97":2535691.5800000001,"ADDRESS":"灣裡路６４０巷５８號","OBJECTID":358170},"geometry":{"x":166055.09000000078,"y":2535691.5800000019}},{"attributes":{"ID":358180,"DIS_CODE":0,"TOWNNAME":"南區","LI":"佛壇里","LIN":"15鄰","STREET":"灣裡路","SECT":" ","MAREA":" ","LANE":"６４０巷","ALLEY":" ","HOUSE_NO":"６０號","E_COORD97":166057.47,"N_COORD97":2535692.3700000001,"ADDRESS":"灣裡路６４０巷６０號","OBJECTID":358171},"geometry":{"x":166057.47000000067,"y":2535692.370000001}},{"attributes":{"ID":358181,"DIS_CODE":0,"TOWNNAME":"南區","LI":"佛壇里","LIN":"15鄰","STREET":"灣裡路","SECT":" ","MAREA":" ","LANE":"６４０巷","ALLEY":" ","HOUSE_NO":"６２號","E_COORD97":166060.48000000001,"N_COORD97":2535693.6400000001,"ADDRESS":"灣裡路６４０巷６２號","OBJECTID":358172},"geometry":{"x":166060.48000000045,"y":2535693.6400000043}},{"attributes":{"ID":358182,"DIS_CODE":0,"TOWNNAME":"六甲區","LI":"六甲里","LIN":"30鄰","STREET":"中華路","SECT":" ","MAREA":" ","LANE":"９９巷","ALLEY":" ","HOUSE_NO":"２３號","E_COORD97":183384.64999999999,"N_COORD97":2569275.8399999999,"ADDRESS":"中華路９９巷２３號","OBJECTID":358173},"geometry":{"x":183384.65000000224,"y":2569275.8399999999}},{"attributes":{"ID":358183,"DIS_CODE":0,"TOWNNAME":"六甲區","LI":"六甲里","LIN":"30鄰","STREET":"中華路","SECT":" ","MAREA":" ","LANE":"９９巷","ALLEY":" ","HOUSE_NO":"２５號","E_COORD97":183382.97,"N_COORD97":2569271.8700000001,"ADDRESS":"中華路９９巷２５號","OBJECTID":358174},"geometry":{"x":183382.96999999974,"y":2569271.8700000029}},{"attributes":{"ID":358184,"DIS_CODE":0,"TOWNNAME":"中西區","LI":"三合里","LIN":"8鄰","STREET":"成功路","SECT":" ","MAREA":" ","LANE":" ","ALLEY":" ","HOUSE_NO":"４５７號十二樓之３","E_COORD97":167602.39000000001,"N_COORD97":2544649.3900000001,"ADDRESS":"成功路４５７號十二樓之３","OBJECTID":358175},"geometry":{"x":167602.3900000006,"y":2544649.3900000043}},{"attributes":{"ID":358185,"DIS_CODE":0,"TOWNNAME":"中西區","LI":"三合里","LIN":"8鄰","STREET":"成功路","SECT":" ","MAREA":" ","LANE":" ","ALLEY":" ","HOUSE_NO":"４５７號十三樓之１","E_COORD97":167602.39000000001,"N_COORD97":2544649.3900000001,"ADDRESS":"成功路４５７號十三樓之１","OBJECTID":358176},"geometry":{"x":167602.3900000006,"y":2544649.3900000043}},{"attributes":{"ID":358186,"DIS_CODE":0,"TOWNNAME":"中西區","LI":"三合里","LIN":"8鄰","STREET":"成功路","SECT":" ","MAREA":" ","LANE":" ","ALLEY":" ","HOUSE_NO":"４５７號十三樓之２","E_COORD97":167602.39000000001,"N_COORD97":2544649.3900000001,"ADDRESS":"成功路４５７號十三樓之２","OBJECTID":358177},"geometry":{"x":167602.3900000006,"y":2544649.3900000043}},{"attributes":{"ID":358187,"DIS_CODE":0,"TOWNNAME":"中西區","LI":"三合里","LIN":"8鄰","STREET":"成功路","SECT":" ","MAREA":" ","LANE":" ","ALLEY":" ","HOUSE_NO":"４５７號十三樓之３","E_COORD97":167602.39000000001,"N_COORD97":2544649.3900000001,"ADDRESS":"成功路４５７號十三樓之３","OBJECTID":358178},"geometry":{"x":167602.3900000006,"y":2544649.3900000043}},{"attributes":{"ID":358188,"DIS_CODE":0,"TOWNNAME":"中西區","LI":"三合里","LIN":"8鄰","STREET":"成功路","SECT":" ","MAREA":" ","LANE":" ","ALLEY":" ","HOUSE_NO":"４５７號十三樓之４","E_COORD97":167602.39000000001,"N_COORD97":2544649.3900000001,"ADDRESS":"成功路４５７號十三樓之４","OBJECTID":358179},"geometry":{"x":167602.3900000006,"y":2544649.3900000043}},{"attributes":{"ID":358189,"DIS_CODE":0,"TOWNNAME":"中西區","LI":"三合里","LIN":"8鄰","STREET":"成功路","SECT":" ","MAREA":" ","LANE":" ","ALLEY":" ","HOUSE_NO":"４５７號十三樓之５","E_COORD97":167602.39000000001,"N_COORD97":2544649.3900000001,"ADDRESS":"成功路４５７號十三樓之５","OBJECTID":358180},"geometry":{"x":167602.3900000006,"y":2544649.3900000043}},{"attributes":{"ID":358190,"DIS_CODE":0,"TOWNNAME":"中西區","LI":"三合里","LIN":"8鄰","STREET":"成功路","SECT":" ","MAREA":" ","LANE":" ","ALLEY":" ","HOUSE_NO":"４５７號十三樓之６","E_COORD97":167602.39000000001,"N_COORD97":2544649.3900000001,"ADDRESS":"成功路４５７號十三樓之６","OBJECTID":358181},"geometry":{"x":167602.3900000006,"y":2544649.3900000043}},{"attributes":{"ID":358191,"DIS_CODE":0,"TOWNNAME":"中西區","LI":"三合里","LIN":"8鄰","STREET":"成功路","SECT":" ","MAREA":" ","LANE":" ","ALLEY":" ","HOUSE_NO":"４５７號十三樓之７","E_COORD97":167602.39000000001,"N_COORD97":2544649.3900000001,"ADDRESS":"成功路４５７號十三樓之７","OBJECTID":358182},"geometry":{"x":167602.3900000006,"y":2544649.3900000043}},{"attributes":{"ID":358192,"DIS_CODE":0,"TOWNNAME":"中西區","LI":"三合里","LIN":"8鄰","STREET":"成功路","SECT":" ","MAREA":" ","LANE":" ","ALLEY":" ","HOUSE_NO":"４５７號十六樓","E_COORD97":167602.39000000001,"N_COORD97":2544649.3900000001,"ADDRESS":"成功路４５７號十六樓","OBJECTID":358183},"geometry":{"x":167602.3900000006,"y":2544649.3900000043}},{"attributes":{"ID":358193,"DIS_CODE":0,"TOWNNAME":"中西區","LI":"三合里","LIN":"8鄰","STREET":"成功路","SECT":" ","MAREA":" ","LANE":" ","ALLEY":" ","HOUSE_NO":"４５７號十四樓之１","E_COORD97":167602.39000000001,"N_COORD97":2544649.3900000001,"ADDRESS":"成功路４５７號十四樓之１","OBJECTID":358184},"geometry":{"x":167602.3900000006,"y":2544649.3900000043}},{"attributes":{"ID":358194,"DIS_CODE":0,"TOWNNAME":"中西區","LI":"三合里","LIN":"8鄰","STREET":"成功路","SECT":" ","MAREA":" ","LANE":" ","ALLEY":" ","HOUSE_NO":"４５７號十四樓之２","E_COORD97":167602.39000000001,"N_COORD97":2544649.3900000001,"ADDRESS":"成功路４５７號十四樓之２","OBJECTID":358185},"geometry":{"x":167602.3900000006,"y":2544649.3900000043}},{"attributes":{"ID":358195,"DIS_CODE":0,"TOWNNAME":"中西區","LI":"三合里","LIN":"8鄰","STREET":"成功路","SECT":" ","MAREA":" ","LANE":" ","ALLEY":" ","HOUSE_NO":"４５７號十樓之１","E_COORD97":167602.39000000001,"N_COORD97":2544649.3900000001,"ADDRESS":"成功路４５７號十樓之１","OBJECTID":358186},"geometry":{"x":167602.3900000006,"y":2544649.3900000043}},{"attributes":{"ID":358196,"DIS_CODE":0,"TOWNNAME":"中西區","LI":"三合里","LIN":"8鄰","STREET":"成功路","SECT":" ","MAREA":" ","LANE":" ","ALLEY":" ","HOUSE_NO":"４５７號十樓之２","E_COORD97":167602.39000000001,"N_COORD97":2544649.3900000001,"ADDRESS":"成功路４５７號十樓之２","OBJECTID":358187},"geometry":{"x":167602.3900000006,"y":2544649.3900000043}},{"attributes":{"ID":358197,"DIS_CODE":0,"TOWNNAME":"中西區","LI":"三合里","LIN":"8鄰","STREET":"成功路","SECT":" ","MAREA":" ","LANE":" ","ALLEY":" ","HOUSE_NO":"４５７號十樓之３","E_COORD97":167602.39000000001,"N_COORD97":2544649.3900000001,"ADDRESS":"成功路４５７號十樓之３","OBJECTID":358188},"geometry":{"x":167602.3900000006,"y":2544649.3900000043}},{"attributes":{"ID":358198,"DIS_CODE":0,"TOWNNAME":"六甲區","LI":"六甲里","LIN":"30鄰","STREET":"中華路","SECT":" ","MAREA":" ","LANE":"９９巷","ALLEY":" ","HOUSE_NO":"２７號","E_COORD97":183381.88,"N_COORD97":2569268.9300000002,"ADDRESS":"中華路９９巷２７號","OBJECTID":358189},"geometry":{"x":183381.87999999989,"y":2569268.9299999978}},{"attributes":{"ID":358199,"DIS_CODE":0,"TOWNNAME":"六甲區","LI":"六甲里","LIN":"30鄰","STREET":"中華路","SECT":" ","MAREA":" ","LANE":"９９巷","ALLEY":" ","HOUSE_NO":"２９號","E_COORD97":183380.09,"N_COORD97":2569264.6099999999,"ADDRESS":"中華路９９巷２９號","OBJECTID":358190},"geometry":{"x":183380.09000000078,"y":2569264.6100000013}},{"attributes":{"ID":358200,"DIS_CODE":0,"TOWNNAME":"六甲區","LI":"六甲里","LIN":"30鄰","STREET":"中華路","SECT":" ","MAREA":" ","LANE":"９９巷","ALLEY":" ","HOUSE_NO":"２號","E_COORD97":183378.47,"N_COORD97":2569306.9900000002,"ADDRESS":"中華路９９巷２號","OBJECTID":358191},"geometry":{"x":183378.4700000016,"y":2569306.9900000021}},{"attributes":{"ID":358201,"DIS_CODE":0,"TOWNNAME":"六甲區","LI":"六甲里","LIN":"30鄰","STREET":"中華路","SECT":" ","MAREA":" ","LANE":"９９巷","ALLEY":" ","HOUSE_NO":"３１號","E_COORD97":183378.85999999999,"N_COORD97":2569260.6699999999,"ADDRESS":"中華路９９巷３１號","OBJECTID":358192},"geometry":{"x":183378.86000000127,"y":2569260.6699999999}},{"attributes":{"ID":358202,"DIS_CODE":0,"TOWNNAME":"六甲區","LI":"六甲里","LIN":"30鄰","STREET":"中華路","SECT":" ","MAREA":" ","LANE":"９９巷","ALLEY":" ","HOUSE_NO":"３３號","E_COORD97":183377.29000000001,"N_COORD97":2569256.27,"ADDRESS":"中華路９９巷３３號","OBJECTID":358193},"geometry":{"x":183377.29000000097,"y":2569256.2699999977}},{"attributes":{"ID":358203,"DIS_CODE":0,"TOWNNAME":"六甲區","LI":"六甲里","LIN":"30鄰","STREET":"中華路","SECT":" ","MAREA":" ","LANE":"９９巷","ALLEY":" ","HOUSE_NO":"３５號","E_COORD97":183375.92000000001,"N_COORD97":2569252.3500000001,"ADDRESS":"中華路９９巷３５號","OBJECTID":358194},"geometry":{"x":183375.92000000086,"y":2569252.3499999996}},{"attributes":{"ID":358204,"DIS_CODE":0,"TOWNNAME":"六甲區","LI":"六甲里","LIN":"30鄰","STREET":"中華路","SECT":" ","MAREA":" ","LANE":"９９巷","ALLEY":" ","HOUSE_NO":"３７號","E_COORD97":183374.5,"N_COORD97":2569248.77,"ADDRESS":"中華路９９巷３７號","OBJECTID":358195},"geometry":{"x":183374.5,"y":2569248.7699999996}},{"attributes":{"ID":358205,"DIS_CODE":0,"TOWNNAME":"六甲區","LI":"六甲里","LIN":"30鄰","STREET":"中華路","SECT":" ","MAREA":" ","LANE":"９９巷","ALLEY":" ","HOUSE_NO":"３９號","E_COORD97":183373.04000000001,"N_COORD97":2569244.7999999998,"ADDRESS":"中華路９９巷３９號","OBJECTID":358196},"geometry":{"x":183373.03999999911,"y":2569244.8000000026}},{"attributes":{"ID":358206,"DIS_CODE":0,"TOWNNAME":"六甲區","LI":"六甲里","LIN":"30鄰","STREET":"中華路","SECT":" ","MAREA":" ","LANE":"９９巷","ALLEY":" ","HOUSE_NO":"３號","E_COORD97":183399.07000000001,"N_COORD97":2569315.6200000001,"ADDRESS":"中華路９９巷３號","OBJECTID":358197},"geometry":{"x":183399.07000000123,"y":2569315.620000001}},{"attributes":{"ID":358207,"DIS_CODE":0,"TOWNNAME":"六甲區","LI":"六甲里","LIN":"30鄰","STREET":"中華路","SECT":" ","MAREA":" ","LANE":"９９巷","ALLEY":" ","HOUSE_NO":"４號","E_COORD97":183376.67000000001,"N_COORD97":2569300.5,"ADDRESS":"中華路９９巷４號","OBJECTID":358198},"geometry":{"x":183376.66999999993,"y":2569300.5000000019}},{"attributes":{"ID":358208,"DIS_CODE":0,"TOWNNAME":"六甲區","LI":"六甲里","LIN":"30鄰","STREET":"中華路","SECT":" ","MAREA":" ","LANE":"９９巷","ALLEY":" ","HOUSE_NO":"５號","E_COORD97":183397.75,"N_COORD97":2569311.8399999999,"ADDRESS":"中華路９９巷５號","OBJECTID":358199},"geometry":{"x":183397.75000000093,"y":2569311.8400000017}},{"attributes":{"ID":358209,"DIS_CODE":0,"TOWNNAME":"六甲區","LI":"六甲里","LIN":"30鄰","STREET":"中華路","SECT":" ","MAREA":" ","LANE":"９９巷","ALLEY":" ","HOUSE_NO":"６號","E_COORD97":183374.62,"N_COORD97":2569295.75,"ADDRESS":"中華路９９巷６號","OBJECTID":358200},"geometry":{"x":183374.62000000104,"y":2569295.7500000019}}]}