{"displayFieldName":"TOWNNAME","fieldAliases":{"ID":"ID","DIS_CODE":"DIS_CODE","TOWNNAME":"TOWNNAME","LI":"LI","LIN":"LIN","STREET":"STREET","SECT":"SECT","MAREA":"MAREA","LANE":"LANE","ALLEY":"ALLEY","HOUSE_NO":"HOUSE_NO","E_COORD97":"E_COORD97","N_COORD97":"N_COORD97","ADDRESS":"ADDRESS","OBJECTID":"OBJECTID"},"geometryType":"esriGeometryPoint","spatialReference":{"wkid":102443,"latestWkid":3826},"fields":[{"name":"ID","type":"esriFieldTypeDouble","alias":"ID"},{"name":"DIS_CODE","type":"esriFieldTypeInteger","alias":"DIS_CODE"},{"name":"TOWNNAME","type":"esriFieldTypeString","alias":"TOWNNAME","length":8},{"name":"LI","type":"esriFieldTypeString","alias":"LI","length":8},{"name":"LIN","type":"esriFieldTypeString","alias":"LIN","length":12},{"name":"STREET","type":"esriFieldTypeString","alias":"STREET","length":20},{"name":"SECT","type":"esriFieldTypeString","alias":"SECT","length":8},{"name":"MAREA","type":"esriFieldTypeString","alias":"MAREA","length":12},{"name":"LANE","type":"esriFieldTypeString","alias":"LANE","length":10},{"name":"ALLEY","type":"esriFieldTypeString","alias":"ALLEY","length":10},{"name":"HOUSE_NO","type":"esriFieldTypeString","alias":"HOUSE_NO","length":20},{"name":"E_COORD97","type":"esriFieldTypeDouble","alias":"E_COORD97"},{"name":"N_COORD97","type":"esriFieldTypeDouble","alias":"N_COORD97"},{"name":"ADDRESS","type":"esriFieldTypeString","alias":"ADDRESS","length":50},{"name":"OBJECTID","type":"esriFieldTypeOID","alias":"OBJECTID"}],"features":[{"attributes":{"ID":480826,"DIS_CODE":0,"TOWNNAME":"佳里區","LI":"六安里","LIN":"26鄰","STREET":"林園街","SECT":" ","MAREA":" ","LANE":" ","ALLEY":" ","HOUSE_NO":"２１２號之６六樓","E_COORD97":165530.28,"N_COORD97":2562962.0899999999,"ADDRESS":"林園街２１２號之６六樓","OBJECTID":480801},"geometry":{"x":165530.28000000119,"y":2562962.0900000036}},{"attributes":{"ID":480827,"DIS_CODE":0,"TOWNNAME":"佳里區","LI":"六安里","LIN":"26鄰","STREET":"林園街","SECT":" ","MAREA":" ","LANE":" ","ALLEY":" ","HOUSE_NO":"２１２號之６四樓","E_COORD97":165530.28,"N_COORD97":2562962.0899999999,"ADDRESS":"林園街２１２號之６四樓","OBJECTID":480802},"geometry":{"x":165530.28000000119,"y":2562962.0900000036}},{"attributes":{"ID":480828,"DIS_CODE":0,"TOWNNAME":"佳里區","LI":"六安里","LIN":"26鄰","STREET":"林園街","SECT":" ","MAREA":" ","LANE":" ","ALLEY":" ","HOUSE_NO":"２１２號之７七樓","E_COORD97":165525.23000000001,"N_COORD97":2562961.5800000001,"ADDRESS":"林園街２１２號之７七樓","OBJECTID":480803},"geometry":{"x":165525.22999999952,"y":2562961.5800000001}},{"attributes":{"ID":480829,"DIS_CODE":0,"TOWNNAME":"佳里區","LI":"六安里","LIN":"26鄰","STREET":"林園街","SECT":" ","MAREA":" ","LANE":" ","ALLEY":" ","HOUSE_NO":"２１２號之７九樓","E_COORD97":165525.23000000001,"N_COORD97":2562961.5800000001,"ADDRESS":"林園街２１２號之７九樓","OBJECTID":480804},"geometry":{"x":165525.22999999952,"y":2562961.5800000001}},{"attributes":{"ID":480830,"DIS_CODE":0,"TOWNNAME":"佳里區","LI":"六安里","LIN":"26鄰","STREET":"林園街","SECT":" ","MAREA":" ","LANE":" ","ALLEY":" ","HOUSE_NO":"２１２號之７八樓","E_COORD97":165525.23000000001,"N_COORD97":2562961.5800000001,"ADDRESS":"林園街２１２號之７八樓","OBJECTID":480805},"geometry":{"x":165525.22999999952,"y":2562961.5800000001}},{"attributes":{"ID":480831,"DIS_CODE":0,"TOWNNAME":"佳里區","LI":"六安里","LIN":"26鄰","STREET":"林園街","SECT":" ","MAREA":" ","LANE":" ","ALLEY":" ","HOUSE_NO":"２１２號之７十一樓","E_COORD97":165525.23000000001,"N_COORD97":2562961.5800000001,"ADDRESS":"林園街２１２號之７十一樓","OBJECTID":480806},"geometry":{"x":165525.22999999952,"y":2562961.5800000001}},{"attributes":{"ID":480832,"DIS_CODE":0,"TOWNNAME":"佳里區","LI":"六安里","LIN":"26鄰","STREET":"林園街","SECT":" ","MAREA":" ","LANE":" ","ALLEY":" ","HOUSE_NO":"２１２號之７十樓","E_COORD97":165525.23000000001,"N_COORD97":2562961.5800000001,"ADDRESS":"林園街２１２號之７十樓","OBJECTID":480807},"geometry":{"x":165525.22999999952,"y":2562961.5800000001}},{"attributes":{"ID":480833,"DIS_CODE":0,"TOWNNAME":"佳里區","LI":"六安里","LIN":"26鄰","STREET":"林園街","SECT":" ","MAREA":" ","LANE":" ","ALLEY":" ","HOUSE_NO":"２１２號之７五樓","E_COORD97":165525.23000000001,"N_COORD97":2562961.5800000001,"ADDRESS":"林園街２１２號之７五樓","OBJECTID":480808},"geometry":{"x":165525.22999999952,"y":2562961.5800000001}},{"attributes":{"ID":480834,"DIS_CODE":0,"TOWNNAME":"佳里區","LI":"六安里","LIN":"26鄰","STREET":"林園街","SECT":" ","MAREA":" ","LANE":" ","ALLEY":" ","HOUSE_NO":"２１２號之７六樓","E_COORD97":165525.23000000001,"N_COORD97":2562961.5800000001,"ADDRESS":"林園街２１２號之７六樓","OBJECTID":480809},"geometry":{"x":165525.22999999952,"y":2562961.5800000001}},{"attributes":{"ID":480835,"DIS_CODE":0,"TOWNNAME":"佳里區","LI":"六安里","LIN":"26鄰","STREET":"林園街","SECT":" ","MAREA":" ","LANE":" ","ALLEY":" ","HOUSE_NO":"２１２號之７四樓","E_COORD97":165525.23000000001,"N_COORD97":2562961.5800000001,"ADDRESS":"林園街２１２號之７四樓","OBJECTID":480810},"geometry":{"x":165525.22999999952,"y":2562961.5800000001}},{"attributes":{"ID":480836,"DIS_CODE":0,"TOWNNAME":"佳里區","LI":"六安里","LIN":"26鄰","STREET":"林園街","SECT":" ","MAREA":" ","LANE":" ","ALLEY":" ","HOUSE_NO":"２１２號之８七樓","E_COORD97":165521.79999999999,"N_COORD97":2562961.1099999999,"ADDRESS":"林園街２１２號之８七樓","OBJECTID":480811},"geometry":{"x":165521.79999999981,"y":2562961.1099999994}},{"attributes":{"ID":480837,"DIS_CODE":0,"TOWNNAME":"佳里區","LI":"六安里","LIN":"26鄰","STREET":"林園街","SECT":" ","MAREA":" ","LANE":" ","ALLEY":" ","HOUSE_NO":"２１２號之８九樓","E_COORD97":165521.79999999999,"N_COORD97":2562961.1099999999,"ADDRESS":"林園街２１２號之８九樓","OBJECTID":480812},"geometry":{"x":165521.79999999981,"y":2562961.1099999994}},{"attributes":{"ID":480838,"DIS_CODE":0,"TOWNNAME":"北區","LI":"三德里","LIN":"9鄰","STREET":"長北街","SECT":" ","MAREA":" ","LANE":" ","ALLEY":" ","HOUSE_NO":"８２號","E_COORD97":168442.10000000001,"N_COORD97":2544692.2000000002,"ADDRESS":"長北街８２號","OBJECTID":480813},"geometry":{"x":168442.09999999963,"y":2544692.1999999993}},{"attributes":{"ID":480839,"DIS_CODE":0,"TOWNNAME":"佳里區","LI":"六安里","LIN":"26鄰","STREET":"林園街","SECT":" ","MAREA":" ","LANE":" ","ALLEY":" ","HOUSE_NO":"２１２號之８八樓","E_COORD97":165521.79999999999,"N_COORD97":2562961.1099999999,"ADDRESS":"林園街２１２號之８八樓","OBJECTID":480814},"geometry":{"x":165521.79999999981,"y":2562961.1099999994}},{"attributes":{"ID":480840,"DIS_CODE":0,"TOWNNAME":"佳里區","LI":"六安里","LIN":"26鄰","STREET":"林園街","SECT":" ","MAREA":" ","LANE":" ","ALLEY":" ","HOUSE_NO":"２１２號之８十一樓","E_COORD97":165521.79999999999,"N_COORD97":2562961.1099999999,"ADDRESS":"林園街２１２號之８十一樓","OBJECTID":480815},"geometry":{"x":165521.79999999981,"y":2562961.1099999994}},{"attributes":{"ID":480841,"DIS_CODE":0,"TOWNNAME":"佳里區","LI":"六安里","LIN":"26鄰","STREET":"林園街","SECT":" ","MAREA":" ","LANE":" ","ALLEY":" ","HOUSE_NO":"２１２號之８十樓","E_COORD97":165521.79999999999,"N_COORD97":2562961.1099999999,"ADDRESS":"林園街２１２號之８十樓","OBJECTID":480816},"geometry":{"x":165521.79999999981,"y":2562961.1099999994}},{"attributes":{"ID":480842,"DIS_CODE":0,"TOWNNAME":"佳里區","LI":"六安里","LIN":"26鄰","STREET":"林園街","SECT":" ","MAREA":" ","LANE":" ","ALLEY":" ","HOUSE_NO":"２１２號之８五樓","E_COORD97":165521.79999999999,"N_COORD97":2562961.1099999999,"ADDRESS":"林園街２１２號之８五樓","OBJECTID":480817},"geometry":{"x":165521.79999999981,"y":2562961.1099999994}},{"attributes":{"ID":480843,"DIS_CODE":0,"TOWNNAME":"佳里區","LI":"六安里","LIN":"26鄰","STREET":"林園街","SECT":" ","MAREA":" ","LANE":" ","ALLEY":" ","HOUSE_NO":"２１２號之８六樓","E_COORD97":165521.79999999999,"N_COORD97":2562961.1099999999,"ADDRESS":"林園街２１２號之８六樓","OBJECTID":480818},"geometry":{"x":165521.79999999981,"y":2562961.1099999994}},{"attributes":{"ID":480844,"DIS_CODE":0,"TOWNNAME":"佳里區","LI":"六安里","LIN":"26鄰","STREET":"林園街","SECT":" ","MAREA":" ","LANE":" ","ALLEY":" ","HOUSE_NO":"２１２號之８四樓","E_COORD97":165521.79999999999,"N_COORD97":2562961.1099999999,"ADDRESS":"林園街２１２號之８四樓","OBJECTID":480819},"geometry":{"x":165521.79999999981,"y":2562961.1099999994}},{"attributes":{"ID":480845,"DIS_CODE":0,"TOWNNAME":"佳里區","LI":"六安里","LIN":"26鄰","STREET":"林園街","SECT":" ","MAREA":" ","LANE":" ","ALLEY":" ","HOUSE_NO":"２１２號之９七樓","E_COORD97":165517.92999999999,"N_COORD97":2562960.8199999998,"ADDRESS":"林園街２１２號之９七樓","OBJECTID":480820},"geometry":{"x":165517.9299999997,"y":2562960.8199999984}},{"attributes":{"ID":480846,"DIS_CODE":0,"TOWNNAME":"佳里區","LI":"六安里","LIN":"26鄰","STREET":"林園街","SECT":" ","MAREA":" ","LANE":" ","ALLEY":" ","HOUSE_NO":"２１２號之９九樓","E_COORD97":165517.92999999999,"N_COORD97":2562960.8199999998,"ADDRESS":"林園街２１２號之９九樓","OBJECTID":480821},"geometry":{"x":165517.9299999997,"y":2562960.8199999984}},{"attributes":{"ID":480847,"DIS_CODE":0,"TOWNNAME":"佳里區","LI":"六安里","LIN":"26鄰","STREET":"林園街","SECT":" ","MAREA":" ","LANE":" ","ALLEY":" ","HOUSE_NO":"２１２號之９八樓","E_COORD97":165517.92999999999,"N_COORD97":2562960.8199999998,"ADDRESS":"林園街２１２號之９八樓","OBJECTID":480822},"geometry":{"x":165517.9299999997,"y":2562960.8199999984}},{"attributes":{"ID":480848,"DIS_CODE":0,"TOWNNAME":"佳里區","LI":"六安里","LIN":"26鄰","STREET":"林園街","SECT":" ","MAREA":" ","LANE":" ","ALLEY":" ","HOUSE_NO":"２１２號之９十一樓","E_COORD97":165517.92999999999,"N_COORD97":2562960.8199999998,"ADDRESS":"林園街２１２號之９十一樓","OBJECTID":480823},"geometry":{"x":165517.9299999997,"y":2562960.8199999984}},{"attributes":{"ID":480849,"DIS_CODE":0,"TOWNNAME":"佳里區","LI":"六安里","LIN":"26鄰","STREET":"林園街","SECT":" ","MAREA":" ","LANE":" ","ALLEY":" ","HOUSE_NO":"２１２號之９十樓","E_COORD97":165517.92999999999,"N_COORD97":2562960.8199999998,"ADDRESS":"林園街２１２號之９十樓","OBJECTID":480824},"geometry":{"x":165517.9299999997,"y":2562960.8199999984}},{"attributes":{"ID":480850,"DIS_CODE":0,"TOWNNAME":"佳里區","LI":"六安里","LIN":"26鄰","STREET":"林園街","SECT":" ","MAREA":" ","LANE":" ","ALLEY":" ","HOUSE_NO":"２１２號之９五樓","E_COORD97":165517.92999999999,"N_COORD97":2562960.8199999998,"ADDRESS":"林園街２１２號之９五樓","OBJECTID":480825},"geometry":{"x":165517.9299999997,"y":2562960.8199999984}},{"attributes":{"ID":480851,"DIS_CODE":0,"TOWNNAME":"佳里區","LI":"六安里","LIN":"26鄰","STREET":"林園街","SECT":" ","MAREA":" ","LANE":" ","ALLEY":" ","HOUSE_NO":"２１２號之９六樓","E_COORD97":165517.92999999999,"N_COORD97":2562960.8199999998,"ADDRESS":"林園街２１２號之９六樓","OBJECTID":480826},"geometry":{"x":165517.9299999997,"y":2562960.8199999984}},{"attributes":{"ID":480852,"DIS_CODE":0,"TOWNNAME":"學甲區","LI":"慈福里","LIN":"26鄰","STREET":"中山路","SECT":" ","MAREA":" ","LANE":" ","ALLEY":" ","HOUSE_NO":"８７號五樓","E_COORD97":166250.22,"N_COORD97":2570455.1600000001,"ADDRESS":"中山路８７號五樓","OBJECTID":480827},"geometry":{"x":166250.2200000016,"y":2570455.160000002}},{"attributes":{"ID":480853,"DIS_CODE":0,"TOWNNAME":"佳里區","LI":"六安里","LIN":"26鄰","STREET":"林園街","SECT":" ","MAREA":" ","LANE":" ","ALLEY":" ","HOUSE_NO":"２１２號之９四樓","E_COORD97":165517.92999999999,"N_COORD97":2562960.8199999998,"ADDRESS":"林園街２１２號之９四樓","OBJECTID":480828},"geometry":{"x":165517.9299999997,"y":2562960.8199999984}},{"attributes":{"ID":480854,"DIS_CODE":0,"TOWNNAME":"佳里區","LI":"六安里","LIN":"26鄰","STREET":"林園街","SECT":" ","MAREA":" ","LANE":" ","ALLEY":" ","HOUSE_NO":"２１２號七樓","E_COORD97":165537.70000000001,"N_COORD97":2562917.9399999999,"ADDRESS":"林園街２１２號七樓","OBJECTID":480829},"geometry":{"x":165537.70000000112,"y":2562917.9399999995}},{"attributes":{"ID":480855,"DIS_CODE":0,"TOWNNAME":"佳里區","LI":"六安里","LIN":"26鄰","STREET":"林園街","SECT":" ","MAREA":" ","LANE":" ","ALLEY":" ","HOUSE_NO":"２１２號九樓","E_COORD97":165537.70000000001,"N_COORD97":2562917.9399999999,"ADDRESS":"林園街２１２號九樓","OBJECTID":480830},"geometry":{"x":165537.70000000112,"y":2562917.9399999995}},{"attributes":{"ID":480856,"DIS_CODE":0,"TOWNNAME":"佳里區","LI":"六安里","LIN":"26鄰","STREET":"林園街","SECT":" ","MAREA":" ","LANE":" ","ALLEY":" ","HOUSE_NO":"２１２號八樓","E_COORD97":165537.70000000001,"N_COORD97":2562917.9399999999,"ADDRESS":"林園街２１２號八樓","OBJECTID":480831},"geometry":{"x":165537.70000000112,"y":2562917.9399999995}},{"attributes":{"ID":480857,"DIS_CODE":0,"TOWNNAME":"佳里區","LI":"六安里","LIN":"26鄰","STREET":"林園街","SECT":" ","MAREA":" ","LANE":" ","ALLEY":" ","HOUSE_NO":"２１２號十一樓","E_COORD97":165537.70000000001,"N_COORD97":2562917.9399999999,"ADDRESS":"林園街２１２號十一樓","OBJECTID":480832},"geometry":{"x":165537.70000000112,"y":2562917.9399999995}},{"attributes":{"ID":480858,"DIS_CODE":0,"TOWNNAME":"佳里區","LI":"六安里","LIN":"26鄰","STREET":"林園街","SECT":" ","MAREA":" ","LANE":" ","ALLEY":" ","HOUSE_NO":"２１２號十二樓","E_COORD97":165537.70000000001,"N_COORD97":2562917.9399999999,"ADDRESS":"林園街２１２號十二樓","OBJECTID":480833},"geometry":{"x":165537.70000000112,"y":2562917.9399999995}},{"attributes":{"ID":480859,"DIS_CODE":0,"TOWNNAME":"北區","LI":"成德里","LIN":"26鄰","STREET":"育德一街","SECT":" ","MAREA":" ","LANE":" ","ALLEY":" ","HOUSE_NO":"９號五樓","E_COORD97":168450.25,"N_COORD97":2545806.6299999999,"ADDRESS":"育德一街９號五樓","OBJECTID":480834},"geometry":{"x":168450.25,"y":2545806.6300000008}},{"attributes":{"ID":480860,"DIS_CODE":0,"TOWNNAME":"佳里區","LI":"六安里","LIN":"26鄰","STREET":"林園街","SECT":" ","MAREA":" ","LANE":" ","ALLEY":" ","HOUSE_NO":"２１２號十樓","E_COORD97":165537.70000000001,"N_COORD97":2562917.9399999999,"ADDRESS":"林園街２１２號十樓","OBJECTID":480835},"geometry":{"x":165537.70000000112,"y":2562917.9399999995}},{"attributes":{"ID":480861,"DIS_CODE":0,"TOWNNAME":"佳里區","LI":"六安里","LIN":"26鄰","STREET":"林園街","SECT":" ","MAREA":" ","LANE":" ","ALLEY":" ","HOUSE_NO":"２１２號三樓","E_COORD97":165537.70000000001,"N_COORD97":2562917.9399999999,"ADDRESS":"林園街２１２號三樓","OBJECTID":480836},"geometry":{"x":165537.70000000112,"y":2562917.9399999995}},{"attributes":{"ID":480862,"DIS_CODE":0,"TOWNNAME":"佳里區","LI":"六安里","LIN":"26鄰","STREET":"林園街","SECT":" ","MAREA":" ","LANE":" ","ALLEY":" ","HOUSE_NO":"２１２號五樓","E_COORD97":165537.70000000001,"N_COORD97":2562917.9399999999,"ADDRESS":"林園街２１２號五樓","OBJECTID":480837},"geometry":{"x":165537.70000000112,"y":2562917.9399999995}},{"attributes":{"ID":480863,"DIS_CODE":0,"TOWNNAME":"佳里區","LI":"六安里","LIN":"26鄰","STREET":"林園街","SECT":" ","MAREA":" ","LANE":" ","ALLEY":" ","HOUSE_NO":"２１２號六樓","E_COORD97":165537.70000000001,"N_COORD97":2562917.9399999999,"ADDRESS":"林園街２１２號六樓","OBJECTID":480838},"geometry":{"x":165537.70000000112,"y":2562917.9399999995}},{"attributes":{"ID":480864,"DIS_CODE":0,"TOWNNAME":"佳里區","LI":"六安里","LIN":"26鄰","STREET":"林園街","SECT":" ","MAREA":" ","LANE":" ","ALLEY":" ","HOUSE_NO":"２１２號四樓","E_COORD97":165537.70000000001,"N_COORD97":2562917.9399999999,"ADDRESS":"林園街２１２號四樓","OBJECTID":480839},"geometry":{"x":165537.70000000112,"y":2562917.9399999995}},{"attributes":{"ID":480865,"DIS_CODE":0,"TOWNNAME":"永康區","LI":"網寮里","LIN":"26鄰","STREET":"永興路","SECT":" ","MAREA":" ","LANE":" ","ALLEY":" ","HOUSE_NO":"１０９號九樓之２","E_COORD97":173913.76999999999,"N_COORD97":2546579.6400000001,"ADDRESS":"永興路１０９號九樓之２","OBJECTID":480840},"geometry":{"x":173913.77000000048,"y":2546579.6400000006}},{"attributes":{"ID":480866,"DIS_CODE":0,"TOWNNAME":"東區","LI":"莊敬里","LIN":"26鄰","STREET":"東平路","SECT":" ","MAREA":" ","LANE":" ","ALLEY":" ","HOUSE_NO":"４６號七樓","E_COORD97":171325.88,"N_COORD97":2543955.5899999999,"ADDRESS":"東平路４６號七樓","OBJECTID":480841},"geometry":{"x":171325.87999999989,"y":2543955.5900000036}},{"attributes":{"ID":480867,"DIS_CODE":0,"TOWNNAME":"東區","LI":"莊敬里","LIN":"26鄰","STREET":"東平路","SECT":" ","MAREA":" ","LANE":" ","ALLEY":" ","HOUSE_NO":"４６號七樓之１","E_COORD97":171325.88,"N_COORD97":2543955.5899999999,"ADDRESS":"東平路４６號七樓之１","OBJECTID":480842},"geometry":{"x":171325.87999999989,"y":2543955.5900000036}},{"attributes":{"ID":480868,"DIS_CODE":0,"TOWNNAME":"東區","LI":"莊敬里","LIN":"26鄰","STREET":"東平路","SECT":" ","MAREA":" ","LANE":" ","ALLEY":" ","HOUSE_NO":"４６號九樓","E_COORD97":171325.88,"N_COORD97":2543955.5899999999,"ADDRESS":"東平路４６號九樓","OBJECTID":480843},"geometry":{"x":171325.87999999989,"y":2543955.5900000036}},{"attributes":{"ID":480869,"DIS_CODE":0,"TOWNNAME":"東區","LI":"莊敬里","LIN":"26鄰","STREET":"東平路","SECT":" ","MAREA":" ","LANE":" ","ALLEY":" ","HOUSE_NO":"４６號九樓之１","E_COORD97":171325.88,"N_COORD97":2543955.5899999999,"ADDRESS":"東平路４６號九樓之１","OBJECTID":480844},"geometry":{"x":171325.87999999989,"y":2543955.5900000036}},{"attributes":{"ID":480870,"DIS_CODE":0,"TOWNNAME":"東區","LI":"莊敬里","LIN":"26鄰","STREET":"東平路","SECT":" ","MAREA":" ","LANE":" ","ALLEY":" ","HOUSE_NO":"４６號八樓","E_COORD97":171325.88,"N_COORD97":2543955.5899999999,"ADDRESS":"東平路４６號八樓","OBJECTID":480845},"geometry":{"x":171325.87999999989,"y":2543955.5900000036}},{"attributes":{"ID":480871,"DIS_CODE":0,"TOWNNAME":"東區","LI":"莊敬里","LIN":"26鄰","STREET":"東平路","SECT":" ","MAREA":" ","LANE":" ","ALLEY":" ","HOUSE_NO":"４６號八樓之１","E_COORD97":171325.88,"N_COORD97":2543955.5899999999,"ADDRESS":"東平路４６號八樓之１","OBJECTID":480846},"geometry":{"x":171325.87999999989,"y":2543955.5900000036}},{"attributes":{"ID":480872,"DIS_CODE":0,"TOWNNAME":"東區","LI":"莊敬里","LIN":"26鄰","STREET":"東平路","SECT":" ","MAREA":" ","LANE":" ","ALLEY":" ","HOUSE_NO":"４６號三樓","E_COORD97":171325.88,"N_COORD97":2543955.5899999999,"ADDRESS":"東平路４６號三樓","OBJECTID":480847},"geometry":{"x":171325.87999999989,"y":2543955.5900000036}},{"attributes":{"ID":480873,"DIS_CODE":0,"TOWNNAME":"東區","LI":"莊敬里","LIN":"26鄰","STREET":"東平路","SECT":" ","MAREA":" ","LANE":" ","ALLEY":" ","HOUSE_NO":"４６號五樓","E_COORD97":171325.88,"N_COORD97":2543955.5899999999,"ADDRESS":"東平路４６號五樓","OBJECTID":480848},"geometry":{"x":171325.87999999989,"y":2543955.5900000036}},{"attributes":{"ID":480874,"DIS_CODE":0,"TOWNNAME":"東區","LI":"莊敬里","LIN":"26鄰","STREET":"東平路","SECT":" ","MAREA":" ","LANE":" ","ALLEY":" ","HOUSE_NO":"４６號五樓之１","E_COORD97":171325.88,"N_COORD97":2543955.5899999999,"ADDRESS":"東平路４６號五樓之１","OBJECTID":480849},"geometry":{"x":171325.87999999989,"y":2543955.5900000036}},{"attributes":{"ID":480875,"DIS_CODE":0,"TOWNNAME":"東區","LI":"莊敬里","LIN":"26鄰","STREET":"東平路","SECT":" ","MAREA":" ","LANE":" ","ALLEY":" ","HOUSE_NO":"４６號六樓","E_COORD97":171325.88,"N_COORD97":2543955.5899999999,"ADDRESS":"東平路４６號六樓","OBJECTID":480850},"geometry":{"x":171325.87999999989,"y":2543955.5900000036}},{"attributes":{"ID":480876,"DIS_CODE":0,"TOWNNAME":"東區","LI":"莊敬里","LIN":"26鄰","STREET":"東平路","SECT":" ","MAREA":" ","LANE":" ","ALLEY":" ","HOUSE_NO":"４６號六樓之１","E_COORD97":171325.88,"N_COORD97":2543955.5899999999,"ADDRESS":"東平路４６號六樓之１","OBJECTID":480851},"geometry":{"x":171325.87999999989,"y":2543955.5900000036}},{"attributes":{"ID":480877,"DIS_CODE":0,"TOWNNAME":"東區","LI":"莊敬里","LIN":"26鄰","STREET":"東平路","SECT":" ","MAREA":" ","LANE":" ","ALLEY":" ","HOUSE_NO":"４６號四樓","E_COORD97":171325.88,"N_COORD97":2543955.5899999999,"ADDRESS":"東平路４６號四樓","OBJECTID":480852},"geometry":{"x":171325.87999999989,"y":2543955.5900000036}},{"attributes":{"ID":480878,"DIS_CODE":0,"TOWNNAME":"東區","LI":"莊敬里","LIN":"26鄰","STREET":"東平路","SECT":" ","MAREA":" ","LANE":" ","ALLEY":" ","HOUSE_NO":"４６號四樓之１","E_COORD97":171325.88,"N_COORD97":2543955.5899999999,"ADDRESS":"東平路４６號四樓之１","OBJECTID":480853},"geometry":{"x":171325.87999999989,"y":2543955.5900000036}},{"attributes":{"ID":480879,"DIS_CODE":0,"TOWNNAME":"東區","LI":"莊敬里","LIN":"26鄰","STREET":"莊敬路","SECT":" ","MAREA":" ","LANE":" ","ALLEY":" ","HOUSE_NO":"１０９號七樓","E_COORD97":171333.85999999999,"N_COORD97":2543957.77,"ADDRESS":"莊敬路１０９號七樓","OBJECTID":480854},"geometry":{"x":171333.8600000022,"y":2543957.7700000033}},{"attributes":{"ID":480880,"DIS_CODE":0,"TOWNNAME":"東區","LI":"莊敬里","LIN":"26鄰","STREET":"莊敬路","SECT":" ","MAREA":" ","LANE":" ","ALLEY":" ","HOUSE_NO":"１０９號七樓之１","E_COORD97":171333.85999999999,"N_COORD97":2543957.77,"ADDRESS":"莊敬路１０９號七樓之１","OBJECTID":480855},"geometry":{"x":171333.8600000022,"y":2543957.7700000033}},{"attributes":{"ID":480881,"DIS_CODE":0,"TOWNNAME":"東區","LI":"莊敬里","LIN":"26鄰","STREET":"莊敬路","SECT":" ","MAREA":" ","LANE":" ","ALLEY":" ","HOUSE_NO":"１０９號九樓","E_COORD97":171333.85999999999,"N_COORD97":2543957.77,"ADDRESS":"莊敬路１０９號九樓","OBJECTID":480856},"geometry":{"x":171333.8600000022,"y":2543957.7700000033}},{"attributes":{"ID":480882,"DIS_CODE":0,"TOWNNAME":"東區","LI":"莊敬里","LIN":"26鄰","STREET":"莊敬路","SECT":" ","MAREA":" ","LANE":" ","ALLEY":" ","HOUSE_NO":"１０９號九樓之１","E_COORD97":171333.85999999999,"N_COORD97":2543957.77,"ADDRESS":"莊敬路１０９號九樓之１","OBJECTID":480857},"geometry":{"x":171333.8600000022,"y":2543957.7700000033}},{"attributes":{"ID":480883,"DIS_CODE":0,"TOWNNAME":"東區","LI":"莊敬里","LIN":"26鄰","STREET":"莊敬路","SECT":" ","MAREA":" ","LANE":" ","ALLEY":" ","HOUSE_NO":"１０９號八樓","E_COORD97":171333.85999999999,"N_COORD97":2543957.77,"ADDRESS":"莊敬路１０９號八樓","OBJECTID":480858},"geometry":{"x":171333.8600000022,"y":2543957.7700000033}},{"attributes":{"ID":480884,"DIS_CODE":0,"TOWNNAME":"東區","LI":"莊敬里","LIN":"26鄰","STREET":"莊敬路","SECT":" ","MAREA":" ","LANE":" ","ALLEY":" ","HOUSE_NO":"１０９號八樓之１","E_COORD97":171333.85999999999,"N_COORD97":2543957.77,"ADDRESS":"莊敬路１０９號八樓之１","OBJECTID":480859},"geometry":{"x":171333.8600000022,"y":2543957.7700000033}},{"attributes":{"ID":480885,"DIS_CODE":0,"TOWNNAME":"東區","LI":"莊敬里","LIN":"26鄰","STREET":"莊敬路","SECT":" ","MAREA":" ","LANE":" ","ALLEY":" ","HOUSE_NO":"１０９號八樓之２","E_COORD97":171333.85999999999,"N_COORD97":2543957.77,"ADDRESS":"莊敬路１０９號八樓之２","OBJECTID":480860},"geometry":{"x":171333.8600000022,"y":2543957.7700000033}},{"attributes":{"ID":480886,"DIS_CODE":0,"TOWNNAME":"東區","LI":"莊敬里","LIN":"26鄰","STREET":"莊敬路","SECT":" ","MAREA":" ","LANE":" ","ALLEY":" ","HOUSE_NO":"１０９號五樓","E_COORD97":171333.85999999999,"N_COORD97":2543957.77,"ADDRESS":"莊敬路１０９號五樓","OBJECTID":480861},"geometry":{"x":171333.8600000022,"y":2543957.7700000033}},{"attributes":{"ID":480887,"DIS_CODE":0,"TOWNNAME":"東區","LI":"莊敬里","LIN":"26鄰","STREET":"莊敬路","SECT":" ","MAREA":" ","LANE":" ","ALLEY":" ","HOUSE_NO":"１０９號五樓之１","E_COORD97":171333.85999999999,"N_COORD97":2543957.77,"ADDRESS":"莊敬路１０９號五樓之１","OBJECTID":480862},"geometry":{"x":171333.8600000022,"y":2543957.7700000033}},{"attributes":{"ID":480888,"DIS_CODE":0,"TOWNNAME":"東區","LI":"莊敬里","LIN":"26鄰","STREET":"莊敬路","SECT":" ","MAREA":" ","LANE":" ","ALLEY":" ","HOUSE_NO":"１０９號五樓之２","E_COORD97":171333.85999999999,"N_COORD97":2543957.77,"ADDRESS":"莊敬路１０９號五樓之２","OBJECTID":480863},"geometry":{"x":171333.8600000022,"y":2543957.7700000033}},{"attributes":{"ID":480889,"DIS_CODE":0,"TOWNNAME":"東區","LI":"莊敬里","LIN":"26鄰","STREET":"莊敬路","SECT":" ","MAREA":" ","LANE":" ","ALLEY":" ","HOUSE_NO":"１０９號六樓","E_COORD97":171333.85999999999,"N_COORD97":2543957.77,"ADDRESS":"莊敬路１０９號六樓","OBJECTID":480864},"geometry":{"x":171333.8600000022,"y":2543957.7700000033}},{"attributes":{"ID":480890,"DIS_CODE":0,"TOWNNAME":"東區","LI":"莊敬里","LIN":"26鄰","STREET":"莊敬路","SECT":" ","MAREA":" ","LANE":" ","ALLEY":" ","HOUSE_NO":"１０９號六樓之１","E_COORD97":171333.85999999999,"N_COORD97":2543957.77,"ADDRESS":"莊敬路１０９號六樓之１","OBJECTID":480865},"geometry":{"x":171333.8600000022,"y":2543957.7700000033}},{"attributes":{"ID":480891,"DIS_CODE":0,"TOWNNAME":"東區","LI":"莊敬里","LIN":"26鄰","STREET":"莊敬路","SECT":" ","MAREA":" ","LANE":" ","ALLEY":" ","HOUSE_NO":"１０９號四樓","E_COORD97":171333.85999999999,"N_COORD97":2543957.77,"ADDRESS":"莊敬路１０９號四樓","OBJECTID":480866},"geometry":{"x":171333.8600000022,"y":2543957.7700000033}},{"attributes":{"ID":480892,"DIS_CODE":0,"TOWNNAME":"東區","LI":"莊敬里","LIN":"26鄰","STREET":"莊敬路","SECT":" ","MAREA":" ","LANE":" ","ALLEY":" ","HOUSE_NO":"１０９號四樓之１","E_COORD97":171333.85999999999,"N_COORD97":2543957.77,"ADDRESS":"莊敬路１０９號四樓之１","OBJECTID":480867},"geometry":{"x":171333.8600000022,"y":2543957.7700000033}},{"attributes":{"ID":480893,"DIS_CODE":0,"TOWNNAME":"永康區","LI":"復國里","LIN":"26鄰","STREET":"復華三街","SECT":" ","MAREA":" ","LANE":" ","ALLEY":" ","HOUSE_NO":"６２號十九樓之２","E_COORD97":172711.85000000001,"N_COORD97":2545562.9700000002,"ADDRESS":"復華三街６２號十九樓之２","OBJECTID":480868},"geometry":{"x":172711.85000000056,"y":2545562.9700000007}},{"attributes":{"ID":480894,"DIS_CODE":0,"TOWNNAME":"永康區","LI":"復國里","LIN":"26鄰","STREET":"復華三街","SECT":" ","MAREA":" ","LANE":" ","ALLEY":" ","HOUSE_NO":"６４號十六樓之３","E_COORD97":172720.97,"N_COORD97":2545600.2999999998,"ADDRESS":"復華三街６４號十六樓之３","OBJECTID":480869},"geometry":{"x":172720.97000000067,"y":2545600.3000000026}},{"attributes":{"ID":480895,"DIS_CODE":0,"TOWNNAME":"永康區","LI":"復國里","LIN":"26鄰","STREET":"復華三街","SECT":" ","MAREA":" ","LANE":" ","ALLEY":" ","HOUSE_NO":"６２號十五樓之４","E_COORD97":172711.73999999999,"N_COORD97":2545562.9700000002,"ADDRESS":"復華三街６２號十五樓之４","OBJECTID":480870},"geometry":{"x":172711.74000000115,"y":2545562.9700000007}},{"attributes":{"ID":480896,"DIS_CODE":0,"TOWNNAME":"永康區","LI":"網寮里","LIN":"26鄰","STREET":"永興路","SECT":" ","MAREA":" ","LANE":" ","ALLEY":" ","HOUSE_NO":"９１號五樓之２","E_COORD97":173982.64000000001,"N_COORD97":2546562.8599999999,"ADDRESS":"永興路９１號五樓之２","OBJECTID":480871},"geometry":{"x":173982.6400000006,"y":2546562.8599999994}},{"attributes":{"ID":480897,"DIS_CODE":0,"TOWNNAME":"永康區","LI":"網寮里","LIN":"26鄰","STREET":"永華路","SECT":" ","MAREA":" ","LANE":" ","ALLEY":" ","HOUSE_NO":"５８０號十二樓之３","E_COORD97":173898.23000000001,"N_COORD97":2546572.7999999998,"ADDRESS":"永華路５８０號十二樓之３","OBJECTID":480872},"geometry":{"x":173898.23000000138,"y":2546572.8000000045}},{"attributes":{"ID":480898,"DIS_CODE":0,"TOWNNAME":"永康區","LI":"網寮里","LIN":"26鄰","STREET":"永華路","SECT":" ","MAREA":" ","LANE":" ","ALLEY":" ","HOUSE_NO":"５７２號八樓之２","E_COORD97":173892.82999999999,"N_COORD97":2546554.5499999998,"ADDRESS":"永華路５７２號八樓之２","OBJECTID":480873},"geometry":{"x":173892.83000000007,"y":2546554.5500000026}},{"attributes":{"ID":480899,"DIS_CODE":0,"TOWNNAME":"永康區","LI":"網寮里","LIN":"26鄰","STREET":"永華路","SECT":" ","MAREA":" ","LANE":" ","ALLEY":" ","HOUSE_NO":"５７２號八樓之１","E_COORD97":173892.70000000001,"N_COORD97":2546554.5499999998,"ADDRESS":"永華路５７２號八樓之１","OBJECTID":480874},"geometry":{"x":173892.70000000205,"y":2546554.5500000026}},{"attributes":{"ID":480900,"DIS_CODE":0,"TOWNNAME":"永康區","LI":"復國里","LIN":"26鄰","STREET":"復華三街","SECT":" ","MAREA":" ","LANE":" ","ALLEY":" ","HOUSE_NO":"６４號十三樓之４","E_COORD97":172720.89999999999,"N_COORD97":2545600.2999999998,"ADDRESS":"復華三街６４號十三樓之４","OBJECTID":480875},"geometry":{"x":172720.9000000013,"y":2545600.3000000026}},{"attributes":{"ID":480901,"DIS_CODE":0,"TOWNNAME":"永康區","LI":"網寮里","LIN":"26鄰","STREET":"永興路","SECT":" ","MAREA":" ","LANE":" ","ALLEY":" ","HOUSE_NO":"６９號九樓之２","E_COORD97":174038.95000000001,"N_COORD97":2546534.2999999998,"ADDRESS":"永興路６９號九樓之２","OBJECTID":480876},"geometry":{"x":174038.95000000112,"y":2546534.3000000007}},{"attributes":{"ID":480902,"DIS_CODE":0,"TOWNNAME":"永康區","LI":"復國里","LIN":"26鄰","STREET":"復華三街","SECT":" ","MAREA":" ","LANE":" ","ALLEY":" ","HOUSE_NO":"６２號十九樓之５","E_COORD97":172711.87,"N_COORD97":2545562.9700000002,"ADDRESS":"復華三街６２號十九樓之５","OBJECTID":480877},"geometry":{"x":172711.87000000104,"y":2545562.9700000007}},{"attributes":{"ID":480903,"DIS_CODE":0,"TOWNNAME":"永康區","LI":"復國里","LIN":"26鄰","STREET":"復華三街","SECT":" ","MAREA":" ","LANE":" ","ALLEY":" ","HOUSE_NO":"６４號六樓之１","E_COORD97":172719.63,"N_COORD97":2545600.2999999998,"ADDRESS":"復華三街６４號六樓之１","OBJECTID":480878},"geometry":{"x":172719.62999999989,"y":2545600.3000000026}},{"attributes":{"ID":480904,"DIS_CODE":0,"TOWNNAME":"永康區","LI":"網寮里","LIN":"26鄰","STREET":"永興路","SECT":" ","MAREA":" ","LANE":" ","ALLEY":" ","HOUSE_NO":"９１號八樓之３","E_COORD97":173982.60999999999,"N_COORD97":2546562.8599999999,"ADDRESS":"永興路９１號八樓之３","OBJECTID":480879},"geometry":{"x":173982.61000000034,"y":2546562.8599999994}},{"attributes":{"ID":480905,"DIS_CODE":0,"TOWNNAME":"永康區","LI":"復國里","LIN":"26鄰","STREET":"復華三街","SECT":" ","MAREA":" ","LANE":" ","ALLEY":" ","HOUSE_NO":"６２號十樓之２","E_COORD97":172710.60000000001,"N_COORD97":2545562.9700000002,"ADDRESS":"復華三街６２號十樓之２","OBJECTID":480880},"geometry":{"x":172710.59999999963,"y":2545562.9700000007}},{"attributes":{"ID":480906,"DIS_CODE":0,"TOWNNAME":"永康區","LI":"復國里","LIN":"26鄰","STREET":"復華三街","SECT":" ","MAREA":" ","LANE":" ","ALLEY":" ","HOUSE_NO":"６２號十六樓之５","E_COORD97":172711.87,"N_COORD97":2545562.9700000002,"ADDRESS":"復華三街６２號十六樓之５","OBJECTID":480881},"geometry":{"x":172711.87000000104,"y":2545562.9700000007}},{"attributes":{"ID":480907,"DIS_CODE":0,"TOWNNAME":"永康區","LI":"永康里","LIN":"26鄰","STREET":"永大路","SECT":"二段","MAREA":" ","LANE":" ","ALLEY":" ","HOUSE_NO":"１１２９號十八樓之３","E_COORD97":174199.79000000001,"N_COORD97":2547482.3599999999,"ADDRESS":"永大路二段１１２９號十八樓之３","OBJECTID":480882},"geometry":{"x":174199.79000000004,"y":2547482.3599999994}},{"attributes":{"ID":480908,"DIS_CODE":0,"TOWNNAME":"永康區","LI":"永康里","LIN":"26鄰","STREET":"永大路","SECT":"二段","MAREA":" ","LANE":" ","ALLEY":" ","HOUSE_NO":"１１２９號八樓之５","E_COORD97":174198.59,"N_COORD97":2547482.3599999999,"ADDRESS":"永大路二段１１２９號八樓之５","OBJECTID":480883},"geometry":{"x":174198.59000000078,"y":2547482.3599999994}},{"attributes":{"ID":480909,"DIS_CODE":0,"TOWNNAME":"永康區","LI":"永康里","LIN":"26鄰","STREET":"永大路","SECT":"二段","MAREA":" ","LANE":" ","ALLEY":" ","HOUSE_NO":"１１２９號十七樓之１","E_COORD97":174199.69,"N_COORD97":2547482.3599999999,"ADDRESS":"永大路二段１１２９號十七樓之１","OBJECTID":480884},"geometry":{"x":174199.69000000041,"y":2547482.3599999994}},{"attributes":{"ID":480910,"DIS_CODE":0,"TOWNNAME":"永康區","LI":"永康里","LIN":"26鄰","STREET":"中山北路","SECT":" ","MAREA":" ","LANE":" ","ALLEY":" ","HOUSE_NO":"１１４號八樓之４","E_COORD97":174163.76000000001,"N_COORD97":2547447.25,"ADDRESS":"中山北路１１４號八樓之４","OBJECTID":480885},"geometry":{"x":174163.76000000071,"y":2547447.2500000019}},{"attributes":{"ID":480911,"DIS_CODE":0,"TOWNNAME":"永康區","LI":"永康里","LIN":"26鄰","STREET":"中山北路","SECT":" ","MAREA":" ","LANE":" ","ALLEY":" ","HOUSE_NO":"７０號六樓之２","E_COORD97":174075.48000000001,"N_COORD97":2547398.25,"ADDRESS":"中山北路７０號六樓之２","OBJECTID":480886},"geometry":{"x":174075.48000000045,"y":2547398.25}},{"attributes":{"ID":480912,"DIS_CODE":0,"TOWNNAME":"永康區","LI":"安康里","LIN":"26鄰","STREET":"大橋一街","SECT":" ","MAREA":" ","LANE":" ","ALLEY":" ","HOUSE_NO":"５３號六樓之２","E_COORD97":170778.87,"N_COORD97":2546346.7999999998,"ADDRESS":"大橋一街５３號六樓之２","OBJECTID":480887},"geometry":{"x":170778.87000000011,"y":2546346.8000000026}},{"attributes":{"ID":480913,"DIS_CODE":0,"TOWNNAME":"永康區","LI":"永康里","LIN":"26鄰","STREET":"永大路","SECT":"二段","MAREA":" ","LANE":" ","ALLEY":" ","HOUSE_NO":"１１２９號十四樓之７","E_COORD97":174199.76999999999,"N_COORD97":2547482.3599999999,"ADDRESS":"永大路二段１１２９號十四樓之７","OBJECTID":480888},"geometry":{"x":174199.76999999955,"y":2547482.3599999994}},{"attributes":{"ID":480914,"DIS_CODE":0,"TOWNNAME":"學甲區","LI":"慈福里","LIN":"26鄰","STREET":"中山路","SECT":" ","MAREA":" ","LANE":" ","ALLEY":" ","HOUSE_NO":"８７號七樓","E_COORD97":166250.22,"N_COORD97":2570455.1600000001,"ADDRESS":"中山路８７號七樓","OBJECTID":480889},"geometry":{"x":166250.2200000016,"y":2570455.160000002}},{"attributes":{"ID":480915,"DIS_CODE":0,"TOWNNAME":"學甲區","LI":"慈福里","LIN":"26鄰","STREET":"中山路","SECT":" ","MAREA":" ","LANE":" ","ALLEY":" ","HOUSE_NO":"８７號九樓","E_COORD97":166250.22,"N_COORD97":2570455.1600000001,"ADDRESS":"中山路８７號九樓","OBJECTID":480890},"geometry":{"x":166250.2200000016,"y":2570455.160000002}},{"attributes":{"ID":480916,"DIS_CODE":0,"TOWNNAME":"學甲區","LI":"慈福里","LIN":"26鄰","STREET":"中山路","SECT":" ","MAREA":" ","LANE":" ","ALLEY":" ","HOUSE_NO":"８７號十樓","E_COORD97":166250.22,"N_COORD97":2570455.1600000001,"ADDRESS":"中山路８７號十樓","OBJECTID":480891},"geometry":{"x":166250.2200000016,"y":2570455.160000002}},{"attributes":{"ID":480917,"DIS_CODE":0,"TOWNNAME":"學甲區","LI":"慈福里","LIN":"26鄰","STREET":"中山路","SECT":" ","MAREA":" ","LANE":" ","ALLEY":" ","HOUSE_NO":"８７號六樓","E_COORD97":166250.22,"N_COORD97":2570455.1600000001,"ADDRESS":"中山路８７號六樓","OBJECTID":480892},"geometry":{"x":166250.2200000016,"y":2570455.160000002}},{"attributes":{"ID":480918,"DIS_CODE":0,"TOWNNAME":"學甲區","LI":"慈福里","LIN":"26鄰","STREET":"中山路","SECT":" ","MAREA":" ","LANE":" ","ALLEY":" ","HOUSE_NO":"８７號四樓","E_COORD97":166250.22,"N_COORD97":2570455.1600000001,"ADDRESS":"中山路８７號四樓","OBJECTID":480893},"geometry":{"x":166250.2200000016,"y":2570455.160000002}},{"attributes":{"ID":480919,"DIS_CODE":0,"TOWNNAME":"歸仁區","LI":"許厝里","LIN":"26鄰","STREET":"信義北路","SECT":" ","MAREA":" ","LANE":" ","ALLEY":" ","HOUSE_NO":"４６號六樓之２","E_COORD97":178001.78,"N_COORD97":2540839.2400000002,"ADDRESS":"信義北路４６號六樓之２","OBJECTID":480894},"geometry":{"x":178001.78000000119,"y":2540839.2400000039}},{"attributes":{"ID":480920,"DIS_CODE":0,"TOWNNAME":"永康區","LI":"永康里","LIN":"26鄰","STREET":"永大路","SECT":"二段","MAREA":" ","LANE":" ","ALLEY":" ","HOUSE_NO":"１１２９號八樓之２","E_COORD97":174198.57000000001,"N_COORD97":2547482.3599999999,"ADDRESS":"永大路二段１１２９號八樓之２","OBJECTID":480895},"geometry":{"x":174198.5700000003,"y":2547482.3599999994}},{"attributes":{"ID":480921,"DIS_CODE":0,"TOWNNAME":"歸仁區","LI":"許厝里","LIN":"26鄰","STREET":"信義北路","SECT":" ","MAREA":" ","LANE":" ","ALLEY":" ","HOUSE_NO":"４６號七樓之２","E_COORD97":178001.78,"N_COORD97":2540839.2400000002,"ADDRESS":"信義北路４６號七樓之２","OBJECTID":480896},"geometry":{"x":178001.78000000119,"y":2540839.2400000039}},{"attributes":{"ID":480922,"DIS_CODE":0,"TOWNNAME":"北區","LI":"成德里","LIN":"26鄰","STREET":"育德一街","SECT":" ","MAREA":" ","LANE":" ","ALLEY":" ","HOUSE_NO":"３號二樓","E_COORD97":168478.51000000001,"N_COORD97":2545786,"ADDRESS":"育德一街３號二樓","OBJECTID":480897},"geometry":{"x":168478.50999999978,"y":2545786}},{"attributes":{"ID":480923,"DIS_CODE":0,"TOWNNAME":"北區","LI":"成德里","LIN":"26鄰","STREET":"育德一街","SECT":" ","MAREA":" ","LANE":" ","ALLEY":" ","HOUSE_NO":"３號三樓","E_COORD97":168478.51000000001,"N_COORD97":2545786,"ADDRESS":"育德一街３號三樓","OBJECTID":480898},"geometry":{"x":168478.50999999978,"y":2545786}},{"attributes":{"ID":480924,"DIS_CODE":0,"TOWNNAME":"北區","LI":"成德里","LIN":"26鄰","STREET":"育德一街","SECT":" ","MAREA":" ","LANE":" ","ALLEY":" ","HOUSE_NO":"３號五樓","E_COORD97":168478.51000000001,"N_COORD97":2545786,"ADDRESS":"育德一街３號五樓","OBJECTID":480899},"geometry":{"x":168478.50999999978,"y":2545786}},{"attributes":{"ID":480925,"DIS_CODE":0,"TOWNNAME":"北區","LI":"成德里","LIN":"26鄰","STREET":"育德一街","SECT":" ","MAREA":" ","LANE":" ","ALLEY":" ","HOUSE_NO":"３號七樓","E_COORD97":168478.51000000001,"N_COORD97":2545786,"ADDRESS":"育德一街３號七樓","OBJECTID":480900},"geometry":{"x":168478.50999999978,"y":2545786}},{"attributes":{"ID":480926,"DIS_CODE":0,"TOWNNAME":"北區","LI":"中樓里","LIN":"5鄰","STREET":"開元路","SECT":" ","MAREA":" ","LANE":" ","ALLEY":" ","HOUSE_NO":"５２號","E_COORD97":169656.81,"N_COORD97":2545133.96,"ADDRESS":"開元路５２號","OBJECTID":480901},"geometry":{"x":169656.81000000145,"y":2545133.959999999}},{"attributes":{"ID":480927,"DIS_CODE":0,"TOWNNAME":"北區","LI":"成德里","LIN":"26鄰","STREET":"育德一街","SECT":" ","MAREA":" ","LANE":" ","ALLEY":" ","HOUSE_NO":"３號八樓","E_COORD97":168478.51000000001,"N_COORD97":2545786,"ADDRESS":"育德一街３號八樓","OBJECTID":480902},"geometry":{"x":168478.50999999978,"y":2545786}},{"attributes":{"ID":480928,"DIS_CODE":0,"TOWNNAME":"北區","LI":"成德里","LIN":"26鄰","STREET":"育德一街","SECT":" ","MAREA":" ","LANE":" ","ALLEY":" ","HOUSE_NO":"９號六樓","E_COORD97":168450.25,"N_COORD97":2545806.6299999999,"ADDRESS":"育德一街９號六樓","OBJECTID":480903},"geometry":{"x":168450.25,"y":2545806.6300000008}},{"attributes":{"ID":480929,"DIS_CODE":0,"TOWNNAME":"北區","LI":"成德里","LIN":"26鄰","STREET":"育德一街","SECT":" ","MAREA":" ","LANE":" ","ALLEY":" ","HOUSE_NO":"３號十樓","E_COORD97":168478.51000000001,"N_COORD97":2545786,"ADDRESS":"育德一街３號十樓","OBJECTID":480904},"geometry":{"x":168478.50999999978,"y":2545786}},{"attributes":{"ID":480930,"DIS_CODE":0,"TOWNNAME":"北區","LI":"成德里","LIN":"26鄰","STREET":"育德一街","SECT":" ","MAREA":" ","LANE":" ","ALLEY":" ","HOUSE_NO":"９號三樓","E_COORD97":168450.25,"N_COORD97":2545806.6299999999,"ADDRESS":"育德一街９號三樓","OBJECTID":480905},"geometry":{"x":168450.25,"y":2545806.6300000008}},{"attributes":{"ID":480931,"DIS_CODE":0,"TOWNNAME":"安平區","LI":"怡平里","LIN":"26鄰","STREET":"永華六街","SECT":" ","MAREA":" ","LANE":" ","ALLEY":" ","HOUSE_NO":"３２號七樓之１","E_COORD97":165607.88,"N_COORD97":2543622.2599999998,"ADDRESS":"永華六街３２號七樓之１","OBJECTID":480906},"geometry":{"x":165607.87999999989,"y":2543622.2600000035}},{"attributes":{"ID":480932,"DIS_CODE":0,"TOWNNAME":"安平區","LI":"怡平里","LIN":"26鄰","STREET":"永華六街","SECT":" ","MAREA":" ","LANE":" ","ALLEY":" ","HOUSE_NO":"３２號七樓之１０","E_COORD97":165607.88,"N_COORD97":2543622.2599999998,"ADDRESS":"永華六街３２號七樓之１０","OBJECTID":480907},"geometry":{"x":165607.87999999989,"y":2543622.2600000035}},{"attributes":{"ID":480933,"DIS_CODE":0,"TOWNNAME":"安平區","LI":"怡平里","LIN":"26鄰","STREET":"永華六街","SECT":" ","MAREA":" ","LANE":" ","ALLEY":" ","HOUSE_NO":"３２號七樓之１１","E_COORD97":165607.88,"N_COORD97":2543622.2599999998,"ADDRESS":"永華六街３２號七樓之１１","OBJECTID":480908},"geometry":{"x":165607.87999999989,"y":2543622.2600000035}},{"attributes":{"ID":480934,"DIS_CODE":0,"TOWNNAME":"安平區","LI":"怡平里","LIN":"26鄰","STREET":"永華六街","SECT":" ","MAREA":" ","LANE":" ","ALLEY":" ","HOUSE_NO":"３２號七樓之１２","E_COORD97":165607.88,"N_COORD97":2543622.2599999998,"ADDRESS":"永華六街３２號七樓之１２","OBJECTID":480909},"geometry":{"x":165607.87999999989,"y":2543622.2600000035}},{"attributes":{"ID":480935,"DIS_CODE":0,"TOWNNAME":"安平區","LI":"怡平里","LIN":"26鄰","STREET":"永華六街","SECT":" ","MAREA":" ","LANE":" ","ALLEY":" ","HOUSE_NO":"３２號七樓之１９","E_COORD97":165607.88,"N_COORD97":2543622.2599999998,"ADDRESS":"永華六街３２號七樓之１９","OBJECTID":480910},"geometry":{"x":165607.87999999989,"y":2543622.2600000035}},{"attributes":{"ID":480936,"DIS_CODE":0,"TOWNNAME":"安平區","LI":"怡平里","LIN":"26鄰","STREET":"永華六街","SECT":" ","MAREA":" ","LANE":" ","ALLEY":" ","HOUSE_NO":"３２號七樓之２","E_COORD97":165607.88,"N_COORD97":2543622.2599999998,"ADDRESS":"永華六街３２號七樓之２","OBJECTID":480911},"geometry":{"x":165607.87999999989,"y":2543622.2600000035}},{"attributes":{"ID":480937,"DIS_CODE":0,"TOWNNAME":"安平區","LI":"怡平里","LIN":"26鄰","STREET":"永華六街","SECT":" ","MAREA":" ","LANE":" ","ALLEY":" ","HOUSE_NO":"３２號七樓之２０","E_COORD97":165607.88,"N_COORD97":2543622.2599999998,"ADDRESS":"永華六街３２號七樓之２０","OBJECTID":480912},"geometry":{"x":165607.87999999989,"y":2543622.2600000035}},{"attributes":{"ID":480938,"DIS_CODE":0,"TOWNNAME":"安平區","LI":"怡平里","LIN":"26鄰","STREET":"永華六街","SECT":" ","MAREA":" ","LANE":" ","ALLEY":" ","HOUSE_NO":"３２號七樓之３","E_COORD97":165607.88,"N_COORD97":2543622.2599999998,"ADDRESS":"永華六街３２號七樓之３","OBJECTID":480913},"geometry":{"x":165607.87999999989,"y":2543622.2600000035}},{"attributes":{"ID":480939,"DIS_CODE":0,"TOWNNAME":"安平區","LI":"怡平里","LIN":"26鄰","STREET":"永華六街","SECT":" ","MAREA":" ","LANE":" ","ALLEY":" ","HOUSE_NO":"３２號七樓之５","E_COORD97":165607.88,"N_COORD97":2543622.2599999998,"ADDRESS":"永華六街３２號七樓之５","OBJECTID":480914},"geometry":{"x":165607.87999999989,"y":2543622.2600000035}},{"attributes":{"ID":480940,"DIS_CODE":0,"TOWNNAME":"安平區","LI":"怡平里","LIN":"26鄰","STREET":"永華六街","SECT":" ","MAREA":" ","LANE":" ","ALLEY":" ","HOUSE_NO":"３２號七樓之６","E_COORD97":165607.88,"N_COORD97":2543622.2599999998,"ADDRESS":"永華六街３２號七樓之６","OBJECTID":480915},"geometry":{"x":165607.87999999989,"y":2543622.2600000035}},{"attributes":{"ID":480941,"DIS_CODE":0,"TOWNNAME":"安平區","LI":"怡平里","LIN":"26鄰","STREET":"永華六街","SECT":" ","MAREA":" ","LANE":" ","ALLEY":" ","HOUSE_NO":"３２號七樓之７","E_COORD97":165607.88,"N_COORD97":2543622.2599999998,"ADDRESS":"永華六街３２號七樓之７","OBJECTID":480916},"geometry":{"x":165607.87999999989,"y":2543622.2600000035}},{"attributes":{"ID":480942,"DIS_CODE":0,"TOWNNAME":"安平區","LI":"怡平里","LIN":"26鄰","STREET":"永華六街","SECT":" ","MAREA":" ","LANE":" ","ALLEY":" ","HOUSE_NO":"３２號七樓之８","E_COORD97":165607.88,"N_COORD97":2543622.2599999998,"ADDRESS":"永華六街３２號七樓之８","OBJECTID":480917},"geometry":{"x":165607.87999999989,"y":2543622.2600000035}},{"attributes":{"ID":480943,"DIS_CODE":0,"TOWNNAME":"安平區","LI":"怡平里","LIN":"26鄰","STREET":"永華六街","SECT":" ","MAREA":" ","LANE":" ","ALLEY":" ","HOUSE_NO":"３２號七樓之９","E_COORD97":165607.88,"N_COORD97":2543622.2599999998,"ADDRESS":"永華六街３２號七樓之９","OBJECTID":480918},"geometry":{"x":165607.87999999989,"y":2543622.2600000035}},{"attributes":{"ID":480944,"DIS_CODE":0,"TOWNNAME":"安平區","LI":"怡平里","LIN":"26鄰","STREET":"永華六街","SECT":" ","MAREA":" ","LANE":" ","ALLEY":" ","HOUSE_NO":"３２號二樓之１","E_COORD97":165607.88,"N_COORD97":2543622.2599999998,"ADDRESS":"永華六街３２號二樓之１","OBJECTID":480919},"geometry":{"x":165607.87999999989,"y":2543622.2600000035}},{"attributes":{"ID":480945,"DIS_CODE":0,"TOWNNAME":"安平區","LI":"怡平里","LIN":"26鄰","STREET":"永華六街","SECT":" ","MAREA":" ","LANE":" ","ALLEY":" ","HOUSE_NO":"３２號二樓之１０","E_COORD97":165607.88,"N_COORD97":2543622.2599999998,"ADDRESS":"永華六街３２號二樓之１０","OBJECTID":480920},"geometry":{"x":165607.87999999989,"y":2543622.2600000035}},{"attributes":{"ID":480946,"DIS_CODE":0,"TOWNNAME":"安平區","LI":"怡平里","LIN":"26鄰","STREET":"永華六街","SECT":" ","MAREA":" ","LANE":" ","ALLEY":" ","HOUSE_NO":"３２號二樓之１９","E_COORD97":165607.88,"N_COORD97":2543622.2599999998,"ADDRESS":"永華六街３２號二樓之１９","OBJECTID":480921},"geometry":{"x":165607.87999999989,"y":2543622.2600000035}},{"attributes":{"ID":480947,"DIS_CODE":0,"TOWNNAME":"安平區","LI":"怡平里","LIN":"26鄰","STREET":"永華六街","SECT":" ","MAREA":" ","LANE":" ","ALLEY":" ","HOUSE_NO":"３２號二樓之２０","E_COORD97":165607.88,"N_COORD97":2543622.2599999998,"ADDRESS":"永華六街３２號二樓之２０","OBJECTID":480922},"geometry":{"x":165607.87999999989,"y":2543622.2600000035}},{"attributes":{"ID":480948,"DIS_CODE":0,"TOWNNAME":"安平區","LI":"怡平里","LIN":"26鄰","STREET":"永華六街","SECT":" ","MAREA":" ","LANE":" ","ALLEY":" ","HOUSE_NO":"３２號八樓之８","E_COORD97":165607.88,"N_COORD97":2543622.2599999998,"ADDRESS":"永華六街３２號八樓之８","OBJECTID":480923},"geometry":{"x":165607.87999999989,"y":2543622.2600000035}},{"attributes":{"ID":480949,"DIS_CODE":0,"TOWNNAME":"北區","LI":"三德里","LIN":"9鄰","STREET":"長北街","SECT":" ","MAREA":" ","LANE":" ","ALLEY":" ","HOUSE_NO":"８６號","E_COORD97":168443.98000000001,"N_COORD97":2544698.9399999999,"ADDRESS":"長北街８６號","OBJECTID":480924},"geometry":{"x":168443.98000000045,"y":2544698.9400000032}},{"attributes":{"ID":480950,"DIS_CODE":0,"TOWNNAME":"安平區","LI":"怡平里","LIN":"26鄰","STREET":"永華六街","SECT":" ","MAREA":" ","LANE":" ","ALLEY":" ","HOUSE_NO":"３２號三樓之１","E_COORD97":165607.88,"N_COORD97":2543622.2599999998,"ADDRESS":"永華六街３２號三樓之１","OBJECTID":480925},"geometry":{"x":165607.87999999989,"y":2543622.2600000035}},{"attributes":{"ID":480951,"DIS_CODE":0,"TOWNNAME":"安平區","LI":"怡平里","LIN":"26鄰","STREET":"永華六街","SECT":" ","MAREA":" ","LANE":" ","ALLEY":" ","HOUSE_NO":"３２號二樓之６","E_COORD97":165607.88,"N_COORD97":2543622.2599999998,"ADDRESS":"永華六街３２號二樓之６","OBJECTID":480926},"geometry":{"x":165607.87999999989,"y":2543622.2600000035}},{"attributes":{"ID":480952,"DIS_CODE":0,"TOWNNAME":"安平區","LI":"怡平里","LIN":"26鄰","STREET":"永華六街","SECT":" ","MAREA":" ","LANE":" ","ALLEY":" ","HOUSE_NO":"３２號二樓之７","E_COORD97":165607.88,"N_COORD97":2543622.2599999998,"ADDRESS":"永華六街３２號二樓之７","OBJECTID":480927},"geometry":{"x":165607.87999999989,"y":2543622.2600000035}},{"attributes":{"ID":480953,"DIS_CODE":0,"TOWNNAME":"安平區","LI":"怡平里","LIN":"26鄰","STREET":"永華六街","SECT":" ","MAREA":" ","LANE":" ","ALLEY":" ","HOUSE_NO":"３２號二樓之８","E_COORD97":165607.88,"N_COORD97":2543622.2599999998,"ADDRESS":"永華六街３２號二樓之８","OBJECTID":480928},"geometry":{"x":165607.87999999989,"y":2543622.2600000035}},{"attributes":{"ID":480954,"DIS_CODE":0,"TOWNNAME":"安平區","LI":"怡平里","LIN":"26鄰","STREET":"永華六街","SECT":" ","MAREA":" ","LANE":" ","ALLEY":" ","HOUSE_NO":"３２號二樓之９","E_COORD97":165607.88,"N_COORD97":2543622.2599999998,"ADDRESS":"永華六街３２號二樓之９","OBJECTID":480929},"geometry":{"x":165607.87999999989,"y":2543622.2600000035}},{"attributes":{"ID":480955,"DIS_CODE":0,"TOWNNAME":"安平區","LI":"怡平里","LIN":"26鄰","STREET":"永華六街","SECT":" ","MAREA":" ","LANE":" ","ALLEY":" ","HOUSE_NO":"３２號八樓之１","E_COORD97":165607.88,"N_COORD97":2543622.2599999998,"ADDRESS":"永華六街３２號八樓之１","OBJECTID":480930},"geometry":{"x":165607.87999999989,"y":2543622.2600000035}},{"attributes":{"ID":480956,"DIS_CODE":0,"TOWNNAME":"安平區","LI":"怡平里","LIN":"26鄰","STREET":"永華六街","SECT":" ","MAREA":" ","LANE":" ","ALLEY":" ","HOUSE_NO":"３２號八樓之１０","E_COORD97":165607.88,"N_COORD97":2543622.2599999998,"ADDRESS":"永華六街３２號八樓之１０","OBJECTID":480931},"geometry":{"x":165607.87999999989,"y":2543622.2600000035}},{"attributes":{"ID":480957,"DIS_CODE":0,"TOWNNAME":"安平區","LI":"怡平里","LIN":"26鄰","STREET":"永華六街","SECT":" ","MAREA":" ","LANE":" ","ALLEY":" ","HOUSE_NO":"３２號八樓之１１","E_COORD97":165607.88,"N_COORD97":2543622.2599999998,"ADDRESS":"永華六街３２號八樓之１１","OBJECTID":480932},"geometry":{"x":165607.87999999989,"y":2543622.2600000035}},{"attributes":{"ID":480958,"DIS_CODE":0,"TOWNNAME":"北區","LI":"成德里","LIN":"26鄰","STREET":"育德一街","SECT":" ","MAREA":" ","LANE":" ","ALLEY":" ","HOUSE_NO":"５號六樓","E_COORD97":168463.89999999999,"N_COORD97":2545787.5800000001,"ADDRESS":"育德一街５號六樓","OBJECTID":480933},"geometry":{"x":168463.9000000013,"y":2545787.5800000019}},{"attributes":{"ID":480959,"DIS_CODE":0,"TOWNNAME":"安平區","LI":"怡平里","LIN":"26鄰","STREET":"永華六街","SECT":" ","MAREA":" ","LANE":" ","ALLEY":" ","HOUSE_NO":"３２號八樓之１２","E_COORD97":165607.88,"N_COORD97":2543622.2599999998,"ADDRESS":"永華六街３２號八樓之１２","OBJECTID":480934},"geometry":{"x":165607.87999999989,"y":2543622.2600000035}},{"attributes":{"ID":480960,"DIS_CODE":0,"TOWNNAME":"安平區","LI":"怡平里","LIN":"26鄰","STREET":"永華六街","SECT":" ","MAREA":" ","LANE":" ","ALLEY":" ","HOUSE_NO":"３２號八樓之１３","E_COORD97":165607.88,"N_COORD97":2543622.2599999998,"ADDRESS":"永華六街３２號八樓之１３","OBJECTID":480935},"geometry":{"x":165607.87999999989,"y":2543622.2600000035}},{"attributes":{"ID":480961,"DIS_CODE":0,"TOWNNAME":"安平區","LI":"怡平里","LIN":"26鄰","STREET":"永華六街","SECT":" ","MAREA":" ","LANE":" ","ALLEY":" ","HOUSE_NO":"３２號八樓之１５","E_COORD97":165607.88,"N_COORD97":2543622.2599999998,"ADDRESS":"永華六街３２號八樓之１５","OBJECTID":480936},"geometry":{"x":165607.87999999989,"y":2543622.2600000035}},{"attributes":{"ID":480962,"DIS_CODE":0,"TOWNNAME":"安平區","LI":"怡平里","LIN":"26鄰","STREET":"永華六街","SECT":" ","MAREA":" ","LANE":" ","ALLEY":" ","HOUSE_NO":"３２號八樓之２","E_COORD97":165607.88,"N_COORD97":2543622.2599999998,"ADDRESS":"永華六街３２號八樓之２","OBJECTID":480937},"geometry":{"x":165607.87999999989,"y":2543622.2600000035}},{"attributes":{"ID":480963,"DIS_CODE":0,"TOWNNAME":"安平區","LI":"怡平里","LIN":"26鄰","STREET":"永華六街","SECT":" ","MAREA":" ","LANE":" ","ALLEY":" ","HOUSE_NO":"３２號八樓之２０","E_COORD97":165607.88,"N_COORD97":2543622.2599999998,"ADDRESS":"永華六街３２號八樓之２０","OBJECTID":480938},"geometry":{"x":165607.87999999989,"y":2543622.2600000035}},{"attributes":{"ID":480964,"DIS_CODE":0,"TOWNNAME":"安平區","LI":"怡平里","LIN":"26鄰","STREET":"永華六街","SECT":" ","MAREA":" ","LANE":" ","ALLEY":" ","HOUSE_NO":"３２號八樓之３","E_COORD97":165607.88,"N_COORD97":2543622.2599999998,"ADDRESS":"永華六街３２號八樓之３","OBJECTID":480939},"geometry":{"x":165607.87999999989,"y":2543622.2600000035}},{"attributes":{"ID":480965,"DIS_CODE":0,"TOWNNAME":"北區","LI":"成德里","LIN":"26鄰","STREET":"育德一街","SECT":" ","MAREA":" ","LANE":" ","ALLEY":" ","HOUSE_NO":"７號六樓","E_COORD97":168449.62,"N_COORD97":2545787.8999999999,"ADDRESS":"育德一街７號六樓","OBJECTID":480940},"geometry":{"x":168449.62000000011,"y":2545787.9000000004}},{"attributes":{"ID":480966,"DIS_CODE":0,"TOWNNAME":"安平區","LI":"怡平里","LIN":"26鄰","STREET":"永華六街","SECT":" ","MAREA":" ","LANE":" ","ALLEY":" ","HOUSE_NO":"３２號八樓之５","E_COORD97":165607.88,"N_COORD97":2543622.2599999998,"ADDRESS":"永華六街３２號八樓之５","OBJECTID":480941},"geometry":{"x":165607.87999999989,"y":2543622.2600000035}},{"attributes":{"ID":480967,"DIS_CODE":0,"TOWNNAME":"安平區","LI":"怡平里","LIN":"26鄰","STREET":"永華六街","SECT":" ","MAREA":" ","LANE":" ","ALLEY":" ","HOUSE_NO":"３２號八樓之６","E_COORD97":165607.88,"N_COORD97":2543622.2599999998,"ADDRESS":"永華六街３２號八樓之６","OBJECTID":480942},"geometry":{"x":165607.87999999989,"y":2543622.2600000035}},{"attributes":{"ID":480968,"DIS_CODE":0,"TOWNNAME":"安平區","LI":"怡平里","LIN":"26鄰","STREET":"永華六街","SECT":" ","MAREA":" ","LANE":" ","ALLEY":" ","HOUSE_NO":"３２號八樓之７","E_COORD97":165607.88,"N_COORD97":2543622.2599999998,"ADDRESS":"永華六街３２號八樓之７","OBJECTID":480943},"geometry":{"x":165607.87999999989,"y":2543622.2600000035}},{"attributes":{"ID":480969,"DIS_CODE":0,"TOWNNAME":"安平區","LI":"怡平里","LIN":"26鄰","STREET":"永華六街","SECT":" ","MAREA":" ","LANE":" ","ALLEY":" ","HOUSE_NO":"３２號八樓之９","E_COORD97":165607.88,"N_COORD97":2543622.2599999998,"ADDRESS":"永華六街３２號八樓之９","OBJECTID":480944},"geometry":{"x":165607.87999999989,"y":2543622.2600000035}},{"attributes":{"ID":480970,"DIS_CODE":0,"TOWNNAME":"安平區","LI":"怡平里","LIN":"26鄰","STREET":"永華六街","SECT":" ","MAREA":" ","LANE":" ","ALLEY":" ","HOUSE_NO":"３２號三樓之１０","E_COORD97":165607.88,"N_COORD97":2543622.2599999998,"ADDRESS":"永華六街３２號三樓之１０","OBJECTID":480945},"geometry":{"x":165607.87999999989,"y":2543622.2600000035}},{"attributes":{"ID":480971,"DIS_CODE":0,"TOWNNAME":"安平區","LI":"怡平里","LIN":"26鄰","STREET":"永華六街","SECT":" ","MAREA":" ","LANE":" ","ALLEY":" ","HOUSE_NO":"３２號三樓之１１","E_COORD97":165607.88,"N_COORD97":2543622.2599999998,"ADDRESS":"永華六街３２號三樓之１１","OBJECTID":480946},"geometry":{"x":165607.87999999989,"y":2543622.2600000035}},{"attributes":{"ID":480972,"DIS_CODE":0,"TOWNNAME":"安平區","LI":"怡平里","LIN":"26鄰","STREET":"永華六街","SECT":" ","MAREA":" ","LANE":" ","ALLEY":" ","HOUSE_NO":"３２號三樓之１２","E_COORD97":165607.88,"N_COORD97":2543622.2599999998,"ADDRESS":"永華六街３２號三樓之１２","OBJECTID":480947},"geometry":{"x":165607.87999999989,"y":2543622.2600000035}},{"attributes":{"ID":480973,"DIS_CODE":0,"TOWNNAME":"安平區","LI":"怡平里","LIN":"26鄰","STREET":"永華六街","SECT":" ","MAREA":" ","LANE":" ","ALLEY":" ","HOUSE_NO":"３２號三樓之１３","E_COORD97":165607.88,"N_COORD97":2543622.2599999998,"ADDRESS":"永華六街３２號三樓之１３","OBJECTID":480948},"geometry":{"x":165607.87999999989,"y":2543622.2600000035}},{"attributes":{"ID":480974,"DIS_CODE":0,"TOWNNAME":"安平區","LI":"怡平里","LIN":"26鄰","STREET":"永華六街","SECT":" ","MAREA":" ","LANE":" ","ALLEY":" ","HOUSE_NO":"３２號三樓之１５","E_COORD97":165607.88,"N_COORD97":2543622.2599999998,"ADDRESS":"永華六街３２號三樓之１５","OBJECTID":480949},"geometry":{"x":165607.87999999989,"y":2543622.2600000035}},{"attributes":{"ID":480975,"DIS_CODE":0,"TOWNNAME":"安平區","LI":"怡平里","LIN":"26鄰","STREET":"永華六街","SECT":" ","MAREA":" ","LANE":" ","ALLEY":" ","HOUSE_NO":"３２號三樓之１６","E_COORD97":165607.88,"N_COORD97":2543622.2599999998,"ADDRESS":"永華六街３２號三樓之１６","OBJECTID":480950},"geometry":{"x":165607.87999999989,"y":2543622.2600000035}},{"attributes":{"ID":480976,"DIS_CODE":0,"TOWNNAME":"安平區","LI":"怡平里","LIN":"26鄰","STREET":"永華六街","SECT":" ","MAREA":" ","LANE":" ","ALLEY":" ","HOUSE_NO":"３２號三樓之１７","E_COORD97":165607.88,"N_COORD97":2543622.2599999998,"ADDRESS":"永華六街３２號三樓之１７","OBJECTID":480951},"geometry":{"x":165607.87999999989,"y":2543622.2600000035}},{"attributes":{"ID":480977,"DIS_CODE":0,"TOWNNAME":"安平區","LI":"怡平里","LIN":"26鄰","STREET":"永華六街","SECT":" ","MAREA":" ","LANE":" ","ALLEY":" ","HOUSE_NO":"３２號三樓之１８","E_COORD97":165607.88,"N_COORD97":2543622.2599999998,"ADDRESS":"永華六街３２號三樓之１８","OBJECTID":480952},"geometry":{"x":165607.87999999989,"y":2543622.2600000035}},{"attributes":{"ID":480978,"DIS_CODE":0,"TOWNNAME":"安平區","LI":"怡平里","LIN":"26鄰","STREET":"永華六街","SECT":" ","MAREA":" ","LANE":" ","ALLEY":" ","HOUSE_NO":"３２號三樓之１９","E_COORD97":165607.88,"N_COORD97":2543622.2599999998,"ADDRESS":"永華六街３２號三樓之１９","OBJECTID":480953},"geometry":{"x":165607.87999999989,"y":2543622.2600000035}},{"attributes":{"ID":480979,"DIS_CODE":0,"TOWNNAME":"安平區","LI":"怡平里","LIN":"26鄰","STREET":"永華六街","SECT":" ","MAREA":" ","LANE":" ","ALLEY":" ","HOUSE_NO":"３２號三樓之２","E_COORD97":165607.88,"N_COORD97":2543622.2599999998,"ADDRESS":"永華六街３２號三樓之２","OBJECTID":480954},"geometry":{"x":165607.87999999989,"y":2543622.2600000035}},{"attributes":{"ID":480980,"DIS_CODE":0,"TOWNNAME":"安平區","LI":"怡平里","LIN":"26鄰","STREET":"永華六街","SECT":" ","MAREA":" ","LANE":" ","ALLEY":" ","HOUSE_NO":"３２號三樓之２０","E_COORD97":165607.88,"N_COORD97":2543622.2599999998,"ADDRESS":"永華六街３２號三樓之２０","OBJECTID":480955},"geometry":{"x":165607.87999999989,"y":2543622.2600000035}},{"attributes":{"ID":480981,"DIS_CODE":0,"TOWNNAME":"安平區","LI":"怡平里","LIN":"26鄰","STREET":"永華六街","SECT":" ","MAREA":" ","LANE":" ","ALLEY":" ","HOUSE_NO":"３２號三樓之３","E_COORD97":165607.88,"N_COORD97":2543622.2599999998,"ADDRESS":"永華六街３２號三樓之３","OBJECTID":480956},"geometry":{"x":165607.87999999989,"y":2543622.2600000035}},{"attributes":{"ID":480982,"DIS_CODE":0,"TOWNNAME":"安平區","LI":"怡平里","LIN":"26鄰","STREET":"永華六街","SECT":" ","MAREA":" ","LANE":" ","ALLEY":" ","HOUSE_NO":"３２號三樓之５","E_COORD97":165607.88,"N_COORD97":2543622.2599999998,"ADDRESS":"永華六街３２號三樓之５","OBJECTID":480957},"geometry":{"x":165607.87999999989,"y":2543622.2600000035}},{"attributes":{"ID":480983,"DIS_CODE":0,"TOWNNAME":"安平區","LI":"怡平里","LIN":"26鄰","STREET":"永華六街","SECT":" ","MAREA":" ","LANE":" ","ALLEY":" ","HOUSE_NO":"３２號三樓之６","E_COORD97":165607.88,"N_COORD97":2543622.2599999998,"ADDRESS":"永華六街３２號三樓之６","OBJECTID":480958},"geometry":{"x":165607.87999999989,"y":2543622.2600000035}},{"attributes":{"ID":480984,"DIS_CODE":0,"TOWNNAME":"安平區","LI":"怡平里","LIN":"26鄰","STREET":"永華六街","SECT":" ","MAREA":" ","LANE":" ","ALLEY":" ","HOUSE_NO":"３２號三樓之７","E_COORD97":165607.88,"N_COORD97":2543622.2599999998,"ADDRESS":"永華六街３２號三樓之７","OBJECTID":480959},"geometry":{"x":165607.87999999989,"y":2543622.2600000035}},{"attributes":{"ID":480985,"DIS_CODE":0,"TOWNNAME":"安平區","LI":"怡平里","LIN":"26鄰","STREET":"永華六街","SECT":" ","MAREA":" ","LANE":" ","ALLEY":" ","HOUSE_NO":"３２號三樓之８","E_COORD97":165607.88,"N_COORD97":2543622.2599999998,"ADDRESS":"永華六街３２號三樓之８","OBJECTID":480960},"geometry":{"x":165607.87999999989,"y":2543622.2600000035}},{"attributes":{"ID":480986,"DIS_CODE":0,"TOWNNAME":"安平區","LI":"怡平里","LIN":"26鄰","STREET":"永華六街","SECT":" ","MAREA":" ","LANE":" ","ALLEY":" ","HOUSE_NO":"３２號三樓之９","E_COORD97":165607.88,"N_COORD97":2543622.2599999998,"ADDRESS":"永華六街３２號三樓之９","OBJECTID":480961},"geometry":{"x":165607.87999999989,"y":2543622.2600000035}},{"attributes":{"ID":480987,"DIS_CODE":0,"TOWNNAME":"安平區","LI":"怡平里","LIN":"26鄰","STREET":"永華六街","SECT":" ","MAREA":" ","LANE":" ","ALLEY":" ","HOUSE_NO":"３２號五樓之１","E_COORD97":165607.88,"N_COORD97":2543622.2599999998,"ADDRESS":"永華六街３２號五樓之１","OBJECTID":480962},"geometry":{"x":165607.87999999989,"y":2543622.2600000035}},{"attributes":{"ID":480988,"DIS_CODE":0,"TOWNNAME":"安平區","LI":"怡平里","LIN":"26鄰","STREET":"永華六街","SECT":" ","MAREA":" ","LANE":" ","ALLEY":" ","HOUSE_NO":"３２號五樓之１０","E_COORD97":165607.88,"N_COORD97":2543622.2599999998,"ADDRESS":"永華六街３２號五樓之１０","OBJECTID":480963},"geometry":{"x":165607.87999999989,"y":2543622.2600000035}},{"attributes":{"ID":480989,"DIS_CODE":0,"TOWNNAME":"安平區","LI":"怡平里","LIN":"26鄰","STREET":"永華六街","SECT":" ","MAREA":" ","LANE":" ","ALLEY":" ","HOUSE_NO":"３２號五樓之１１","E_COORD97":165607.88,"N_COORD97":2543622.2599999998,"ADDRESS":"永華六街３２號五樓之１１","OBJECTID":480964},"geometry":{"x":165607.87999999989,"y":2543622.2600000035}},{"attributes":{"ID":480990,"DIS_CODE":0,"TOWNNAME":"安平區","LI":"怡平里","LIN":"26鄰","STREET":"永華六街","SECT":" ","MAREA":" ","LANE":" ","ALLEY":" ","HOUSE_NO":"３２號五樓之１２","E_COORD97":165607.88,"N_COORD97":2543622.2599999998,"ADDRESS":"永華六街３２號五樓之１２","OBJECTID":480965},"geometry":{"x":165607.87999999989,"y":2543622.2600000035}},{"attributes":{"ID":480991,"DIS_CODE":0,"TOWNNAME":"安平區","LI":"怡平里","LIN":"26鄰","STREET":"永華六街","SECT":" ","MAREA":" ","LANE":" ","ALLEY":" ","HOUSE_NO":"３２號五樓之１３","E_COORD97":165607.88,"N_COORD97":2543622.2599999998,"ADDRESS":"永華六街３２號五樓之１３","OBJECTID":480966},"geometry":{"x":165607.87999999989,"y":2543622.2600000035}},{"attributes":{"ID":480992,"DIS_CODE":0,"TOWNNAME":"安平區","LI":"怡平里","LIN":"26鄰","STREET":"永華六街","SECT":" ","MAREA":" ","LANE":" ","ALLEY":" ","HOUSE_NO":"３２號五樓之１５","E_COORD97":165607.88,"N_COORD97":2543622.2599999998,"ADDRESS":"永華六街３２號五樓之１５","OBJECTID":480967},"geometry":{"x":165607.87999999989,"y":2543622.2600000035}},{"attributes":{"ID":480993,"DIS_CODE":0,"TOWNNAME":"安平區","LI":"怡平里","LIN":"26鄰","STREET":"永華六街","SECT":" ","MAREA":" ","LANE":" ","ALLEY":" ","HOUSE_NO":"３２號五樓之１６","E_COORD97":165607.88,"N_COORD97":2543622.2599999998,"ADDRESS":"永華六街３２號五樓之１６","OBJECTID":480968},"geometry":{"x":165607.87999999989,"y":2543622.2600000035}},{"attributes":{"ID":480994,"DIS_CODE":0,"TOWNNAME":"安平區","LI":"怡平里","LIN":"26鄰","STREET":"永華六街","SECT":" ","MAREA":" ","LANE":" ","ALLEY":" ","HOUSE_NO":"３２號五樓之１７","E_COORD97":165607.88,"N_COORD97":2543622.2599999998,"ADDRESS":"永華六街３２號五樓之１７","OBJECTID":480969},"geometry":{"x":165607.87999999989,"y":2543622.2600000035}},{"attributes":{"ID":480995,"DIS_CODE":0,"TOWNNAME":"安平區","LI":"怡平里","LIN":"26鄰","STREET":"永華六街","SECT":" ","MAREA":" ","LANE":" ","ALLEY":" ","HOUSE_NO":"３２號五樓之１８","E_COORD97":165607.88,"N_COORD97":2543622.2599999998,"ADDRESS":"永華六街３２號五樓之１８","OBJECTID":480970},"geometry":{"x":165607.87999999989,"y":2543622.2600000035}},{"attributes":{"ID":480996,"DIS_CODE":0,"TOWNNAME":"安平區","LI":"怡平里","LIN":"26鄰","STREET":"永華六街","SECT":" ","MAREA":" ","LANE":" ","ALLEY":" ","HOUSE_NO":"３２號四樓之５","E_COORD97":165607.88,"N_COORD97":2543622.2599999998,"ADDRESS":"永華六街３２號四樓之５","OBJECTID":480971},"geometry":{"x":165607.87999999989,"y":2543622.2600000035}},{"attributes":{"ID":480997,"DIS_CODE":0,"TOWNNAME":"安平區","LI":"怡平里","LIN":"26鄰","STREET":"永華六街","SECT":" ","MAREA":" ","LANE":" ","ALLEY":" ","HOUSE_NO":"３２號五樓之１９","E_COORD97":165607.88,"N_COORD97":2543622.2599999998,"ADDRESS":"永華六街３２號五樓之１９","OBJECTID":480972},"geometry":{"x":165607.87999999989,"y":2543622.2600000035}},{"attributes":{"ID":480998,"DIS_CODE":0,"TOWNNAME":"安平區","LI":"怡平里","LIN":"26鄰","STREET":"永華六街","SECT":" ","MAREA":" ","LANE":" ","ALLEY":" ","HOUSE_NO":"３２號五樓之２","E_COORD97":165607.88,"N_COORD97":2543622.2599999998,"ADDRESS":"永華六街３２號五樓之２","OBJECTID":480973},"geometry":{"x":165607.87999999989,"y":2543622.2600000035}},{"attributes":{"ID":480999,"DIS_CODE":0,"TOWNNAME":"安平區","LI":"怡平里","LIN":"26鄰","STREET":"永華六街","SECT":" ","MAREA":" ","LANE":" ","ALLEY":" ","HOUSE_NO":"３２號五樓之２０","E_COORD97":165607.88,"N_COORD97":2543622.2599999998,"ADDRESS":"永華六街３２號五樓之２０","OBJECTID":480974},"geometry":{"x":165607.87999999989,"y":2543622.2600000035}},{"attributes":{"ID":481000,"DIS_CODE":0,"TOWNNAME":"安平區","LI":"怡平里","LIN":"26鄰","STREET":"永華六街","SECT":" ","MAREA":" ","LANE":" ","ALLEY":" ","HOUSE_NO":"３２號五樓之３","E_COORD97":165607.88,"N_COORD97":2543622.2599999998,"ADDRESS":"永華六街３２號五樓之３","OBJECTID":480975},"geometry":{"x":165607.87999999989,"y":2543622.2600000035}},{"attributes":{"ID":481001,"DIS_CODE":0,"TOWNNAME":"安平區","LI":"怡平里","LIN":"26鄰","STREET":"永華六街","SECT":" ","MAREA":" ","LANE":" ","ALLEY":" ","HOUSE_NO":"３２號五樓之５","E_COORD97":165607.88,"N_COORD97":2543622.2599999998,"ADDRESS":"永華六街３２號五樓之５","OBJECTID":480976},"geometry":{"x":165607.87999999989,"y":2543622.2600000035}},{"attributes":{"ID":481002,"DIS_CODE":0,"TOWNNAME":"安平區","LI":"怡平里","LIN":"26鄰","STREET":"永華六街","SECT":" ","MAREA":" ","LANE":" ","ALLEY":" ","HOUSE_NO":"３２號五樓之６","E_COORD97":165607.88,"N_COORD97":2543622.2599999998,"ADDRESS":"永華六街３２號五樓之６","OBJECTID":480977},"geometry":{"x":165607.87999999989,"y":2543622.2600000035}},{"attributes":{"ID":481003,"DIS_CODE":0,"TOWNNAME":"安平區","LI":"怡平里","LIN":"26鄰","STREET":"永華六街","SECT":" ","MAREA":" ","LANE":" ","ALLEY":" ","HOUSE_NO":"３２號五樓之７","E_COORD97":165607.88,"N_COORD97":2543622.2599999998,"ADDRESS":"永華六街３２號五樓之７","OBJECTID":480978},"geometry":{"x":165607.87999999989,"y":2543622.2600000035}},{"attributes":{"ID":481004,"DIS_CODE":0,"TOWNNAME":"安平區","LI":"怡平里","LIN":"26鄰","STREET":"永華六街","SECT":" ","MAREA":" ","LANE":" ","ALLEY":" ","HOUSE_NO":"３２號五樓之８","E_COORD97":165607.88,"N_COORD97":2543622.2599999998,"ADDRESS":"永華六街３２號五樓之８","OBJECTID":480979},"geometry":{"x":165607.87999999989,"y":2543622.2600000035}},{"attributes":{"ID":481005,"DIS_CODE":0,"TOWNNAME":"安平區","LI":"怡平里","LIN":"26鄰","STREET":"永華六街","SECT":" ","MAREA":" ","LANE":" ","ALLEY":" ","HOUSE_NO":"３２號五樓之９","E_COORD97":165607.88,"N_COORD97":2543622.2599999998,"ADDRESS":"永華六街３２號五樓之９","OBJECTID":480980},"geometry":{"x":165607.87999999989,"y":2543622.2600000035}},{"attributes":{"ID":481006,"DIS_CODE":0,"TOWNNAME":"安平區","LI":"怡平里","LIN":"26鄰","STREET":"永華六街","SECT":" ","MAREA":" ","LANE":" ","ALLEY":" ","HOUSE_NO":"３２號六樓之１","E_COORD97":165607.88,"N_COORD97":2543622.2599999998,"ADDRESS":"永華六街３２號六樓之１","OBJECTID":480981},"geometry":{"x":165607.87999999989,"y":2543622.2600000035}},{"attributes":{"ID":481007,"DIS_CODE":0,"TOWNNAME":"安平區","LI":"怡平里","LIN":"26鄰","STREET":"永華六街","SECT":" ","MAREA":" ","LANE":" ","ALLEY":" ","HOUSE_NO":"３２號六樓之１０","E_COORD97":165607.88,"N_COORD97":2543622.2599999998,"ADDRESS":"永華六街３２號六樓之１０","OBJECTID":480982},"geometry":{"x":165607.87999999989,"y":2543622.2600000035}},{"attributes":{"ID":481008,"DIS_CODE":0,"TOWNNAME":"安平區","LI":"怡平里","LIN":"26鄰","STREET":"永華六街","SECT":" ","MAREA":" ","LANE":" ","ALLEY":" ","HOUSE_NO":"３２號六樓之１１","E_COORD97":165607.88,"N_COORD97":2543622.2599999998,"ADDRESS":"永華六街３２號六樓之１１","OBJECTID":480983},"geometry":{"x":165607.87999999989,"y":2543622.2600000035}},{"attributes":{"ID":481009,"DIS_CODE":0,"TOWNNAME":"安平區","LI":"怡平里","LIN":"26鄰","STREET":"永華六街","SECT":" ","MAREA":" ","LANE":" ","ALLEY":" ","HOUSE_NO":"３２號六樓之１２","E_COORD97":165607.88,"N_COORD97":2543622.2599999998,"ADDRESS":"永華六街３２號六樓之１２","OBJECTID":480984},"geometry":{"x":165607.87999999989,"y":2543622.2600000035}},{"attributes":{"ID":481010,"DIS_CODE":0,"TOWNNAME":"安平區","LI":"怡平里","LIN":"26鄰","STREET":"永華六街","SECT":" ","MAREA":" ","LANE":" ","ALLEY":" ","HOUSE_NO":"３２號六樓之１３","E_COORD97":165607.88,"N_COORD97":2543622.2599999998,"ADDRESS":"永華六街３２號六樓之１３","OBJECTID":480985},"geometry":{"x":165607.87999999989,"y":2543622.2600000035}},{"attributes":{"ID":481011,"DIS_CODE":0,"TOWNNAME":"安平區","LI":"怡平里","LIN":"26鄰","STREET":"永華六街","SECT":" ","MAREA":" ","LANE":" ","ALLEY":" ","HOUSE_NO":"３２號六樓之１５","E_COORD97":165607.88,"N_COORD97":2543622.2599999998,"ADDRESS":"永華六街３２號六樓之１５","OBJECTID":480986},"geometry":{"x":165607.87999999989,"y":2543622.2600000035}},{"attributes":{"ID":481012,"DIS_CODE":0,"TOWNNAME":"安平區","LI":"怡平里","LIN":"26鄰","STREET":"永華六街","SECT":" ","MAREA":" ","LANE":" ","ALLEY":" ","HOUSE_NO":"３２號六樓之１６","E_COORD97":165607.88,"N_COORD97":2543622.2599999998,"ADDRESS":"永華六街３２號六樓之１６","OBJECTID":480987},"geometry":{"x":165607.87999999989,"y":2543622.2600000035}},{"attributes":{"ID":481013,"DIS_CODE":0,"TOWNNAME":"安平區","LI":"怡平里","LIN":"26鄰","STREET":"永華六街","SECT":" ","MAREA":" ","LANE":" ","ALLEY":" ","HOUSE_NO":"３２號六樓之１７","E_COORD97":165607.88,"N_COORD97":2543622.2599999998,"ADDRESS":"永華六街３２號六樓之１７","OBJECTID":480988},"geometry":{"x":165607.87999999989,"y":2543622.2600000035}},{"attributes":{"ID":481014,"DIS_CODE":0,"TOWNNAME":"安平區","LI":"怡平里","LIN":"26鄰","STREET":"永華六街","SECT":" ","MAREA":" ","LANE":" ","ALLEY":" ","HOUSE_NO":"３２號六樓之１８","E_COORD97":165607.88,"N_COORD97":2543622.2599999998,"ADDRESS":"永華六街３２號六樓之１８","OBJECTID":480989},"geometry":{"x":165607.87999999989,"y":2543622.2600000035}},{"attributes":{"ID":481015,"DIS_CODE":0,"TOWNNAME":"安平區","LI":"怡平里","LIN":"26鄰","STREET":"永華六街","SECT":" ","MAREA":" ","LANE":" ","ALLEY":" ","HOUSE_NO":"３２號六樓之１９","E_COORD97":165607.88,"N_COORD97":2543622.2599999998,"ADDRESS":"永華六街３２號六樓之１９","OBJECTID":480990},"geometry":{"x":165607.87999999989,"y":2543622.2600000035}},{"attributes":{"ID":481016,"DIS_CODE":0,"TOWNNAME":"安平區","LI":"怡平里","LIN":"26鄰","STREET":"永華六街","SECT":" ","MAREA":" ","LANE":" ","ALLEY":" ","HOUSE_NO":"３２號六樓之２","E_COORD97":165607.88,"N_COORD97":2543622.2599999998,"ADDRESS":"永華六街３２號六樓之２","OBJECTID":480991},"geometry":{"x":165607.87999999989,"y":2543622.2600000035}},{"attributes":{"ID":481017,"DIS_CODE":0,"TOWNNAME":"安平區","LI":"怡平里","LIN":"26鄰","STREET":"永華六街","SECT":" ","MAREA":" ","LANE":" ","ALLEY":" ","HOUSE_NO":"３２號六樓之２０","E_COORD97":165607.88,"N_COORD97":2543622.2599999998,"ADDRESS":"永華六街３２號六樓之２０","OBJECTID":480992},"geometry":{"x":165607.87999999989,"y":2543622.2600000035}},{"attributes":{"ID":481018,"DIS_CODE":0,"TOWNNAME":"安平區","LI":"怡平里","LIN":"26鄰","STREET":"永華六街","SECT":" ","MAREA":" ","LANE":" ","ALLEY":" ","HOUSE_NO":"３２號六樓之３","E_COORD97":165607.88,"N_COORD97":2543622.2599999998,"ADDRESS":"永華六街３２號六樓之３","OBJECTID":480993},"geometry":{"x":165607.87999999989,"y":2543622.2600000035}},{"attributes":{"ID":481019,"DIS_CODE":0,"TOWNNAME":"安平區","LI":"怡平里","LIN":"26鄰","STREET":"永華六街","SECT":" ","MAREA":" ","LANE":" ","ALLEY":" ","HOUSE_NO":"３２號六樓之５","E_COORD97":165607.88,"N_COORD97":2543622.2599999998,"ADDRESS":"永華六街３２號六樓之５","OBJECTID":480994},"geometry":{"x":165607.87999999989,"y":2543622.2600000035}},{"attributes":{"ID":481020,"DIS_CODE":0,"TOWNNAME":"安平區","LI":"怡平里","LIN":"26鄰","STREET":"永華六街","SECT":" ","MAREA":" ","LANE":" ","ALLEY":" ","HOUSE_NO":"３２號六樓之６","E_COORD97":165607.88,"N_COORD97":2543622.2599999998,"ADDRESS":"永華六街３２號六樓之６","OBJECTID":480995},"geometry":{"x":165607.87999999989,"y":2543622.2600000035}},{"attributes":{"ID":481021,"DIS_CODE":0,"TOWNNAME":"安平區","LI":"怡平里","LIN":"26鄰","STREET":"永華六街","SECT":" ","MAREA":" ","LANE":" ","ALLEY":" ","HOUSE_NO":"３２號六樓之７","E_COORD97":165607.88,"N_COORD97":2543622.2599999998,"ADDRESS":"永華六街３２號六樓之７","OBJECTID":480996},"geometry":{"x":165607.87999999989,"y":2543622.2600000035}},{"attributes":{"ID":481022,"DIS_CODE":0,"TOWNNAME":"安平區","LI":"怡平里","LIN":"26鄰","STREET":"永華六街","SECT":" ","MAREA":" ","LANE":" ","ALLEY":" ","HOUSE_NO":"３２號六樓之８","E_COORD97":165607.88,"N_COORD97":2543622.2599999998,"ADDRESS":"永華六街３２號六樓之８","OBJECTID":480997},"geometry":{"x":165607.87999999989,"y":2543622.2600000035}},{"attributes":{"ID":481023,"DIS_CODE":0,"TOWNNAME":"安平區","LI":"怡平里","LIN":"26鄰","STREET":"永華六街","SECT":" ","MAREA":" ","LANE":" ","ALLEY":" ","HOUSE_NO":"３２號六樓之９","E_COORD97":165607.88,"N_COORD97":2543622.2599999998,"ADDRESS":"永華六街３２號六樓之９","OBJECTID":480998},"geometry":{"x":165607.87999999989,"y":2543622.2600000035}},{"attributes":{"ID":481024,"DIS_CODE":0,"TOWNNAME":"安平區","LI":"怡平里","LIN":"26鄰","STREET":"永華六街","SECT":" ","MAREA":" ","LANE":" ","ALLEY":" ","HOUSE_NO":"３２號四樓之１","E_COORD97":165607.88,"N_COORD97":2543622.2599999998,"ADDRESS":"永華六街３２號四樓之１","OBJECTID":480999},"geometry":{"x":165607.87999999989,"y":2543622.2600000035}},{"attributes":{"ID":481025,"DIS_CODE":0,"TOWNNAME":"安平區","LI":"怡平里","LIN":"26鄰","STREET":"永華六街","SECT":" ","MAREA":" ","LANE":" ","ALLEY":" ","HOUSE_NO":"３２號四樓之１０","E_COORD97":165607.88,"N_COORD97":2543622.2599999998,"ADDRESS":"永華六街３２號四樓之１０","OBJECTID":481000},"geometry":{"x":165607.87999999989,"y":2543622.2600000035}}]}