{"displayFieldName":"TOWNNAME","fieldAliases":{"ID":"ID","DIS_CODE":"DIS_CODE","TOWNNAME":"TOWNNAME","LI":"LI","LIN":"LIN","STREET":"STREET","SECT":"SECT","MAREA":"MAREA","LANE":"LANE","ALLEY":"ALLEY","HOUSE_NO":"HOUSE_NO","E_COORD97":"E_COORD97","N_COORD97":"N_COORD97","ADDRESS":"ADDRESS","OBJECTID":"OBJECTID"},"geometryType":"esriGeometryPoint","spatialReference":{"wkid":102443,"latestWkid":3826},"fields":[{"name":"ID","type":"esriFieldTypeDouble","alias":"ID"},{"name":"DIS_CODE","type":"esriFieldTypeInteger","alias":"DIS_CODE"},{"name":"TOWNNAME","type":"esriFieldTypeString","alias":"TOWNNAME","length":8},{"name":"LI","type":"esriFieldTypeString","alias":"LI","length":8},{"name":"LIN","type":"esriFieldTypeString","alias":"LIN","length":12},{"name":"STREET","type":"esriFieldTypeString","alias":"STREET","length":20},{"name":"SECT","type":"esriFieldTypeString","alias":"SECT","length":8},{"name":"MAREA","type":"esriFieldTypeString","alias":"MAREA","length":12},{"name":"LANE","type":"esriFieldTypeString","alias":"LANE","length":10},{"name":"ALLEY","type":"esriFieldTypeString","alias":"ALLEY","length":10},{"name":"HOUSE_NO","type":"esriFieldTypeString","alias":"HOUSE_NO","length":20},{"name":"E_COORD97","type":"esriFieldTypeDouble","alias":"E_COORD97"},{"name":"N_COORD97","type":"esriFieldTypeDouble","alias":"N_COORD97"},{"name":"ADDRESS","type":"esriFieldTypeString","alias":"ADDRESS","length":50},{"name":"OBJECTID","type":"esriFieldTypeOID","alias":"OBJECTID"}],"features":[{"attributes":{"ID":292209,"DIS_CODE":0,"TOWNNAME":"安南區","LI":"海南里","LIN":"17鄰","STREET":"府安路","SECT":"六段","MAREA":" ","LANE":"１０３巷","ALLEY":" ","HOUSE_NO":"１７３號","E_COORD97":166635.31,"N_COORD97":2546925.8799999999,"ADDRESS":"府安路六段１０３巷１７３號","OBJECTID":292201},"geometry":{"x":166635.30999999959,"y":2546925.8799999971}},{"attributes":{"ID":292210,"DIS_CODE":0,"TOWNNAME":"安南區","LI":"海南里","LIN":"17鄰","STREET":"國安街","SECT":" ","MAREA":" ","LANE":"２０９巷","ALLEY":" ","HOUSE_NO":"１６號","E_COORD97":166609.35000000001,"N_COORD97":2546882.7400000002,"ADDRESS":"國安街２０９巷１６號","OBJECTID":292202},"geometry":{"x":166609.35000000056,"y":2546882.7400000002}},{"attributes":{"ID":292211,"DIS_CODE":0,"TOWNNAME":"安南區","LI":"海南里","LIN":"17鄰","STREET":"國安街","SECT":" ","MAREA":" ","LANE":"２３３巷","ALLEY":" ","HOUSE_NO":"１２號","E_COORD97":166550.64000000001,"N_COORD97":2546868.3999999999,"ADDRESS":"國安街２３３巷１２號","OBJECTID":292203},"geometry":{"x":166550.63999999873,"y":2546868.4000000004}},{"attributes":{"ID":292212,"DIS_CODE":0,"TOWNNAME":"安南區","LI":"海南里","LIN":"17鄰","STREET":"國安街","SECT":" ","MAREA":" ","LANE":"２３３巷","ALLEY":" ","HOUSE_NO":"１５號","E_COORD97":166568.13,"N_COORD97":2546862.0499999998,"ADDRESS":"國安街２３３巷１５號","OBJECTID":292204},"geometry":{"x":166568.13000000082,"y":2546862.0500000007}},{"attributes":{"ID":292213,"DIS_CODE":0,"TOWNNAME":"安南區","LI":"海南里","LIN":"17鄰","STREET":"國安街","SECT":" ","MAREA":" ","LANE":"２３３巷","ALLEY":" ","HOUSE_NO":"１７號","E_COORD97":166568.97,"N_COORD97":2546857.71,"ADDRESS":"國安街２３３巷１７號","OBJECTID":292205},"geometry":{"x":166568.9700000016,"y":2546857.7100000009}},{"attributes":{"ID":292214,"DIS_CODE":0,"TOWNNAME":"安南區","LI":"海南里","LIN":"17鄰","STREET":"國安街","SECT":" ","MAREA":" ","LANE":"２３３巷","ALLEY":" ","HOUSE_NO":"１８號","E_COORD97":166552.34,"N_COORD97":2546853.8999999999,"ADDRESS":"國安街２３３巷１８號","OBJECTID":292206},"geometry":{"x":166552.33999999985,"y":2546853.9000000022}},{"attributes":{"ID":292215,"DIS_CODE":0,"TOWNNAME":"善化區","LI":"嘉北里","LIN":"4鄰","STREET":" ","SECT":" ","MAREA":"茄拔","LANE":" ","ALLEY":" ","HOUSE_NO":"３５號","E_COORD97":181100.72,"N_COORD97":2559743.2599999998,"ADDRESS":"茄拔３５號","OBJECTID":292207},"geometry":{"x":181100.72000000067,"y":2559743.2599999979}},{"attributes":{"ID":292216,"DIS_CODE":0,"TOWNNAME":"善化區","LI":"胡家里","LIN":"20鄰","STREET":" ","SECT":" ","MAREA":"胡厝寮","LANE":" ","ALLEY":" ","HOUSE_NO":"９４號之１１","E_COORD97":175371.84,"N_COORD97":2560452.77,"ADDRESS":"胡厝寮９４號之１１","OBJECTID":292208},"geometry":{"x":175371.84000000078,"y":2560452.7700000014}},{"attributes":{"ID":292217,"DIS_CODE":0,"TOWNNAME":"善化區","LI":"溪美里","LIN":"14鄰","STREET":" ","SECT":" ","MAREA":"溪尾","LANE":" ","ALLEY":" ","HOUSE_NO":"１３２號之４","E_COORD97":176953.12,"N_COORD97":2561409.52,"ADDRESS":"溪尾１３２號之４","OBJECTID":292209},"geometry":{"x":176953.12000000197,"y":2561409.5200000033}},{"attributes":{"ID":292218,"DIS_CODE":0,"TOWNNAME":"善化區","LI":"胡家里","LIN":"20鄰","STREET":" ","SECT":" ","MAREA":"胡厝寮","LANE":" ","ALLEY":" ","HOUSE_NO":"９４號之１２","E_COORD97":175372.75,"N_COORD97":2560448.52,"ADDRESS":"胡厝寮９４號之１２","OBJECTID":292210},"geometry":{"x":175372.75000000093,"y":2560448.5199999996}},{"attributes":{"ID":292219,"DIS_CODE":0,"TOWNNAME":"善化區","LI":"胡家里","LIN":"13鄰","STREET":" ","SECT":" ","MAREA":"胡厝寮","LANE":" ","ALLEY":" ","HOUSE_NO":"７８號之１","E_COORD97":175311.35000000001,"N_COORD97":2560666.27,"ADDRESS":"胡厝寮７８號之１","OBJECTID":292211},"geometry":{"x":175311.34999999963,"y":2560666.2700000014}},{"attributes":{"ID":292220,"DIS_CODE":0,"TOWNNAME":"善化區","LI":"溪美里","LIN":"14鄰","STREET":" ","SECT":" ","MAREA":"溪尾","LANE":" ","ALLEY":" ","HOUSE_NO":"１３５號之６","E_COORD97":176966.57000000001,"N_COORD97":2561435.77,"ADDRESS":"溪尾１３５號之６","OBJECTID":292212},"geometry":{"x":176966.5700000003,"y":2561435.7700000014}},{"attributes":{"ID":292221,"DIS_CODE":0,"TOWNNAME":"新營區","LI":"王公里","LIN":"1鄰","STREET":"中正路","SECT":" ","MAREA":" ","LANE":" ","ALLEY":" ","HOUSE_NO":"４４號之３","E_COORD97":180117.55404700001,"N_COORD97":2578925.85048,"ADDRESS":"中正路４４號之３","OBJECTID":292213},"geometry":{"x":180117.55404699873,"y":2578925.8504820038}},{"attributes":{"ID":292222,"DIS_CODE":0,"TOWNNAME":"善化區","LI":"胡家里","LIN":"17鄰","STREET":" ","SECT":" ","MAREA":"胡厝寮","LANE":" ","ALLEY":" ","HOUSE_NO":"１５６號","E_COORD97":175198.07000000001,"N_COORD97":2560705,"ADDRESS":"胡厝寮１５６號","OBJECTID":292214},"geometry":{"x":175198.07000000123,"y":2560705.0000000037}},{"attributes":{"ID":292223,"DIS_CODE":0,"TOWNNAME":"善化區","LI":"東昌里","LIN":"4鄰","STREET":" ","SECT":" ","MAREA":"東勢寮","LANE":" ","ALLEY":" ","HOUSE_NO":"３７號之１","E_COORD97":180743.60000000001,"N_COORD97":2561782.77,"ADDRESS":"東勢寮３７號之１","OBJECTID":292215},"geometry":{"x":180743.60000000056,"y":2561782.7699999996}},{"attributes":{"ID":292224,"DIS_CODE":0,"TOWNNAME":"善化區","LI":"嘉北里","LIN":"4鄰","STREET":" ","SECT":" ","MAREA":"茄拔","LANE":" ","ALLEY":" ","HOUSE_NO":"２９號之５","E_COORD97":181085.42000000001,"N_COORD97":2559774.52,"ADDRESS":"茄拔２９號之５","OBJECTID":292216},"geometry":{"x":181085.42000000179,"y":2559774.5199999996}},{"attributes":{"ID":292225,"DIS_CODE":0,"TOWNNAME":"善化區","LI":"胡厝里","LIN":"4鄰","STREET":" ","SECT":" ","MAREA":"胡厝寮","LANE":" ","ALLEY":" ","HOUSE_NO":"１７９之１號","E_COORD97":175197.48999999999,"N_COORD97":2560571.52,"ADDRESS":"胡厝寮１７９之１號","OBJECTID":292217},"geometry":{"x":175197.49000000022,"y":2560571.5199999996}},{"attributes":{"ID":292226,"DIS_CODE":0,"TOWNNAME":"善化區","LI":"胡家里","LIN":"20鄰","STREET":" ","SECT":" ","MAREA":"胡厝寮","LANE":" ","ALLEY":" ","HOUSE_NO":"９４號之６","E_COORD97":175353.03,"N_COORD97":2560486.27,"ADDRESS":"胡厝寮９４號之６","OBJECTID":292218},"geometry":{"x":175353.03000000026,"y":2560486.2700000014}},{"attributes":{"ID":292227,"DIS_CODE":0,"TOWNNAME":"善化區","LI":"嘉南里","LIN":"13鄰","STREET":" ","SECT":" ","MAREA":"茄拔","LANE":" ","ALLEY":" ","HOUSE_NO":"３４０之１號","E_COORD97":180827.19,"N_COORD97":2559442.27,"ADDRESS":"茄拔３４０之１號","OBJECTID":292219},"geometry":{"x":180827.19000000134,"y":2559442.2700000014}},{"attributes":{"ID":292228,"DIS_CODE":0,"TOWNNAME":"安南區","LI":"溪北里","LIN":"17鄰","STREET":"文安街","SECT":" ","MAREA":" ","LANE":"１３３巷","ALLEY":" ","HOUSE_NO":"１４號","E_COORD97":169124.64999999999,"N_COORD97":2547384.2000000002,"ADDRESS":"文安街１３３巷１４號","OBJECTID":292220},"geometry":{"x":169124.65000000224,"y":2547384.1999999993}},{"attributes":{"ID":292229,"DIS_CODE":0,"TOWNNAME":"安南區","LI":"溪東里","LIN":"17鄰","STREET":"府安路","SECT":"五段","MAREA":" ","LANE":"１１巷","ALLEY":" ","HOUSE_NO":"８１號","E_COORD97":168417.82000000001,"N_COORD97":2547569.2599999998,"ADDRESS":"府安路五段１１巷８１號","OBJECTID":292221},"geometry":{"x":168417.8200000003,"y":2547569.2600000016}},{"attributes":{"ID":292230,"DIS_CODE":0,"TOWNNAME":"安南區","LI":"溪東里","LIN":"17鄰","STREET":"府安路","SECT":"五段","MAREA":" ","LANE":"１１巷","ALLEY":" ","HOUSE_NO":"８５號","E_COORD97":168419.14999999999,"N_COORD97":2547581.1200000001,"ADDRESS":"府安路五段１１巷８５號","OBJECTID":292222},"geometry":{"x":168419.15000000037,"y":2547581.1200000048}},{"attributes":{"ID":292231,"DIS_CODE":0,"TOWNNAME":"永康區","LI":"\u25A0行里","LIN":"17鄰","STREET":"中正路","SECT":" ","MAREA":" ","LANE":"６３５巷","ALLEY":" ","HOUSE_NO":"２４號","E_COORD97":171707.98000000001,"N_COORD97":2548889.1499999999,"ADDRESS":"中正路６３５巷２４號","OBJECTID":292223},"geometry":{"x":171707.98000000138,"y":2548889.1500000022}},{"attributes":{"ID":292232,"DIS_CODE":0,"TOWNNAME":"永康區","LI":"勝利里","LIN":"17鄰","STREET":"中華一路","SECT":" ","MAREA":" ","LANE":"２９９巷","ALLEY":" ","HOUSE_NO":"２號","E_COORD97":171207.17000000001,"N_COORD97":2544963.75,"ADDRESS":"中華一路２９９巷２號","OBJECTID":292224},"geometry":{"x":171207.16999999993,"y":2544963.75}},{"attributes":{"ID":292233,"DIS_CODE":0,"TOWNNAME":"善化區","LI":"東關里","LIN":"20鄰","STREET":"中山路","SECT":" ","MAREA":" ","LANE":" ","ALLEY":" ","HOUSE_NO":"３５７號","E_COORD97":177561.67999999999,"N_COORD97":2559086.75,"ADDRESS":"中山路３５７號","OBJECTID":292225},"geometry":{"x":177561.6799999997,"y":2559086.7500000019}},{"attributes":{"ID":292234,"DIS_CODE":0,"TOWNNAME":"永康區","LI":"勝利里","LIN":"17鄰","STREET":"中華一路","SECT":" ","MAREA":" ","LANE":"２８３巷","ALLEY":" ","HOUSE_NO":"１８號","E_COORD97":171257.76999999999,"N_COORD97":2544946.4900000002,"ADDRESS":"中華一路２８３巷１８號","OBJECTID":292226},"geometry":{"x":171257.77000000048,"y":2544946.4899999984}},{"attributes":{"ID":292235,"DIS_CODE":0,"TOWNNAME":"永康區","LI":"勝利里","LIN":"17鄰","STREET":"中華一路","SECT":" ","MAREA":" ","LANE":"２８３巷","ALLEY":" ","HOUSE_NO":"１２號","E_COORD97":171258.76999999999,"N_COORD97":2544958,"ADDRESS":"中華一路２８３巷１２號","OBJECTID":292227},"geometry":{"x":171258.76999999955,"y":2544958.0000000019}},{"attributes":{"ID":292236,"DIS_CODE":0,"TOWNNAME":"善化區","LI":"胡厝里","LIN":"10鄰","STREET":" ","SECT":" ","MAREA":"百二甲","LANE":" ","ALLEY":" ","HOUSE_NO":"４號之３８","E_COORD97":175214.97,"N_COORD97":2560152.02,"ADDRESS":"百二甲４號之３８","OBJECTID":292228},"geometry":{"x":175214.97000000067,"y":2560152.0200000014}},{"attributes":{"ID":292237,"DIS_CODE":0,"TOWNNAME":"永康區","LI":"勝利里","LIN":"17鄰","STREET":"中華一路","SECT":" ","MAREA":" ","LANE":"２８３巷","ALLEY":" ","HOUSE_NO":"１４號","E_COORD97":171258.16,"N_COORD97":2544953.7400000002,"ADDRESS":"中華一路２８３巷１４號","OBJECTID":292229},"geometry":{"x":171258.16000000015,"y":2544953.7400000002}},{"attributes":{"ID":292238,"DIS_CODE":0,"TOWNNAME":"永康區","LI":"勝利里","LIN":"17鄰","STREET":"中華一路","SECT":" ","MAREA":" ","LANE":"２８３巷","ALLEY":" ","HOUSE_NO":"６號","E_COORD97":171257.73999999999,"N_COORD97":2544969.5,"ADDRESS":"中華一路２８３巷６號","OBJECTID":292230},"geometry":{"x":171257.74000000022,"y":2544969.5}},{"attributes":{"ID":292239,"DIS_CODE":0,"TOWNNAME":"永康區","LI":"勝利里","LIN":"17鄰","STREET":"中華一路","SECT":" ","MAREA":" ","LANE":"２８３巷","ALLEY":" ","HOUSE_NO":"２２號","E_COORD97":171257.25,"N_COORD97":2544939.2400000002,"ADDRESS":"中華一路２８３巷２２號","OBJECTID":292231},"geometry":{"x":171257.25,"y":2544939.2400000021}},{"attributes":{"ID":292240,"DIS_CODE":0,"TOWNNAME":"永康區","LI":"勝利里","LIN":"17鄰","STREET":"中華一路","SECT":" ","MAREA":" ","LANE":"２８３巷","ALLEY":" ","HOUSE_NO":"２號","E_COORD97":171256.48999999999,"N_COORD97":2544977,"ADDRESS":"中華一路２８３巷２號","OBJECTID":292232},"geometry":{"x":171256.49000000209,"y":2544977.0000000037}},{"attributes":{"ID":292241,"DIS_CODE":0,"TOWNNAME":"永康區","LI":"勝利里","LIN":"17鄰","STREET":"中華一路","SECT":" ","MAREA":" ","LANE":"２８３巷","ALLEY":" ","HOUSE_NO":"８號","E_COORD97":171257.62,"N_COORD97":2544965.75,"ADDRESS":"中華一路２８３巷８號","OBJECTID":292233},"geometry":{"x":171257.62000000104,"y":2544965.7500000019}},{"attributes":{"ID":292242,"DIS_CODE":0,"TOWNNAME":"安南區","LI":"溪墘里","LIN":"17鄰","STREET":"海佃路","SECT":"一段","MAREA":" ","LANE":"３７２巷","ALLEY":" ","HOUSE_NO":"２號","E_COORD97":167119.34,"N_COORD97":2547595.54,"ADDRESS":"海佃路一段３７２巷２號","OBJECTID":292234},"geometry":{"x":167119.34000000078,"y":2547595.5399999991}},{"attributes":{"ID":292243,"DIS_CODE":0,"TOWNNAME":"安南區","LI":"溪墘里","LIN":"17鄰","STREET":"海佃路","SECT":"一段","MAREA":" ","LANE":"３７２巷","ALLEY":" ","HOUSE_NO":"６號","E_COORD97":167121.75,"N_COORD97":2547596.0499999998,"ADDRESS":"海佃路一段３７２巷６號","OBJECTID":292235},"geometry":{"x":167121.75000000093,"y":2547596.0500000026}},{"attributes":{"ID":292244,"DIS_CODE":0,"TOWNNAME":"安南區","LI":"溪墘里","LIN":"17鄰","STREET":"海佃路","SECT":"一段","MAREA":" ","LANE":"３７２巷","ALLEY":" ","HOUSE_NO":"８號","E_COORD97":167125.42999999999,"N_COORD97":2547596.5600000001,"ADDRESS":"海佃路一段３７２巷８號","OBJECTID":292236},"geometry":{"x":167125.43000000063,"y":2547596.5600000005}},{"attributes":{"ID":292245,"DIS_CODE":0,"TOWNNAME":"安南區","LI":"溪墘里","LIN":"17鄰","STREET":"海佃路","SECT":"一段","MAREA":" ","LANE":"３７２巷","ALLEY":" ","HOUSE_NO":"３６號","E_COORD97":167172.81,"N_COORD97":2547606.7200000002,"ADDRESS":"海佃路一段３７２巷３６號","OBJECTID":292237},"geometry":{"x":167172.80999999959,"y":2547606.7200000007}},{"attributes":{"ID":292246,"DIS_CODE":0,"TOWNNAME":"安南區","LI":"溪墘里","LIN":"17鄰","STREET":"海佃路","SECT":"一段","MAREA":" ","LANE":"３７２巷","ALLEY":" ","HOUSE_NO":"３２號","E_COORD97":167169.25,"N_COORD97":2547605.96,"ADDRESS":"海佃路一段３７２巷３２號","OBJECTID":292238},"geometry":{"x":167169.25000000093,"y":2547605.9600000046}},{"attributes":{"ID":292247,"DIS_CODE":0,"TOWNNAME":"安南區","LI":"溪墘里","LIN":"17鄰","STREET":"海佃路","SECT":"一段","MAREA":" ","LANE":"３７２巷","ALLEY":" ","HOUSE_NO":"３０號","E_COORD97":167165.06,"N_COORD97":2547605.5800000001,"ADDRESS":"海佃路一段３７２巷３０號","OBJECTID":292239},"geometry":{"x":167165.06000000052,"y":2547605.5800000019}},{"attributes":{"ID":292248,"DIS_CODE":0,"TOWNNAME":"安南區","LI":"溪墘里","LIN":"17鄰","STREET":"海佃路","SECT":"一段","MAREA":" ","LANE":"３７２巷","ALLEY":" ","HOUSE_NO":"２８號","E_COORD97":167161.76000000001,"N_COORD97":2547604.6899999999,"ADDRESS":"海佃路一段３７２巷２８號","OBJECTID":292240},"geometry":{"x":167161.75999999978,"y":2547604.6899999995}},{"attributes":{"ID":292249,"DIS_CODE":0,"TOWNNAME":"安南區","LI":"溪墘里","LIN":"17鄰","STREET":"海佃路","SECT":"一段","MAREA":" ","LANE":"３７２巷","ALLEY":" ","HOUSE_NO":"２６號","E_COORD97":167157.57000000001,"N_COORD97":2547604.1800000002,"ADDRESS":"海佃路一段３７２巷２６號","OBJECTID":292241},"geometry":{"x":167157.57000000123,"y":2547604.1800000016}},{"attributes":{"ID":292250,"DIS_CODE":0,"TOWNNAME":"安南區","LI":"溪墘里","LIN":"17鄰","STREET":"海佃路","SECT":"一段","MAREA":" ","LANE":"３７２巷","ALLEY":" ","HOUSE_NO":"２２號","E_COORD97":167153.5,"N_COORD97":2547603.04,"ADDRESS":"海佃路一段３７２巷２２號","OBJECTID":292242},"geometry":{"x":167153.5,"y":2547603.0399999972}},{"attributes":{"ID":292251,"DIS_CODE":0,"TOWNNAME":"安南區","LI":"溪墘里","LIN":"17鄰","STREET":"海佃路","SECT":"一段","MAREA":" ","LANE":"３７２巷","ALLEY":" ","HOUSE_NO":"２０號","E_COORD97":167149.56,"N_COORD97":2547602.1499999999,"ADDRESS":"海佃路一段３７２巷２０號","OBJECTID":292243},"geometry":{"x":167149.56000000145,"y":2547602.1500000022}},{"attributes":{"ID":292252,"DIS_CODE":0,"TOWNNAME":"歸仁區","LI":"大廟里","LIN":"17鄰","STREET":"大廟五街","SECT":" ","MAREA":" ","LANE":"７３巷","ALLEY":" ","HOUSE_NO":"２０號","E_COORD97":175965.92999999999,"N_COORD97":2544354.0899999999,"ADDRESS":"大廟五街７３巷２０號","OBJECTID":292244},"geometry":{"x":175965.93000000063,"y":2544354.0899999999}},{"attributes":{"ID":292253,"DIS_CODE":0,"TOWNNAME":"善化區","LI":"東關里","LIN":"19鄰","STREET":"中興路","SECT":" ","MAREA":" ","LANE":" ","ALLEY":" ","HOUSE_NO":"９０號","E_COORD97":177514.70999999999,"N_COORD97":2559027.75,"ADDRESS":"中興路９０號","OBJECTID":292245},"geometry":{"x":177514.70999999996,"y":2559027.75}},{"attributes":{"ID":292254,"DIS_CODE":0,"TOWNNAME":"新營區","LI":"王公里","LIN":"1鄰","STREET":"中正路","SECT":" ","MAREA":" ","LANE":" ","ALLEY":" ","HOUSE_NO":"４８號","E_COORD97":180121.89763200001,"N_COORD97":2578942.7838099999,"ADDRESS":"中正路４８號","OBJECTID":292246},"geometry":{"x":180121.8976320019,"y":2578942.783805998}},{"attributes":{"ID":292255,"DIS_CODE":0,"TOWNNAME":"安南區","LI":"幸福里","LIN":"6鄰","STREET":"國安街","SECT":" ","MAREA":" ","LANE":"１３９巷","ALLEY":" ","HOUSE_NO":"１６號","E_COORD97":166785.82999999999,"N_COORD97":2546899.1800000002,"ADDRESS":"國安街１３９巷１６號","OBJECTID":292247},"geometry":{"x":166785.83000000101,"y":2546899.1800000016}},{"attributes":{"ID":292256,"DIS_CODE":0,"TOWNNAME":"安南區","LI":"幸福里","LIN":"6鄰","STREET":"國安街","SECT":" ","MAREA":" ","LANE":"１３９巷","ALLEY":" ","HOUSE_NO":"２號","E_COORD97":166777.64000000001,"N_COORD97":2546942.1400000001,"ADDRESS":"國安街１３９巷２號","OBJECTID":292248},"geometry":{"x":166777.63999999966,"y":2546942.1400000006}},{"attributes":{"ID":292257,"DIS_CODE":0,"TOWNNAME":"安南區","LI":"溪墘里","LIN":"17鄰","STREET":"海佃路","SECT":"一段","MAREA":" ","LANE":"３７２巷","ALLEY":" ","HOUSE_NO":"１８號","E_COORD97":167144.73999999999,"N_COORD97":2547600.5,"ADDRESS":"海佃路一段３７２巷１８號","OBJECTID":292249},"geometry":{"x":167144.74000000115,"y":2547600.5}},{"attributes":{"ID":292258,"DIS_CODE":0,"TOWNNAME":"安南區","LI":"頂安里","LIN":"17鄰","STREET":"安中路","SECT":"一段","MAREA":" ","LANE":"４１０巷","ALLEY":" ","HOUSE_NO":"１０號","E_COORD97":168346.20999999999,"N_COORD97":2548875.3100000001,"ADDRESS":"安中路一段４１０巷１０號","OBJECTID":292250},"geometry":{"x":168346.21000000089,"y":2548875.3100000024}},{"attributes":{"ID":292259,"DIS_CODE":0,"TOWNNAME":"安南區","LI":"海東里","LIN":"17鄰","STREET":"同安路","SECT":" ","MAREA":" ","LANE":"３８７巷","ALLEY":" ","HOUSE_NO":"２號","E_COORD97":167282.44,"N_COORD97":2549386.8799999999,"ADDRESS":"同安路３８７巷２號","OBJECTID":292251},"geometry":{"x":167282.44000000134,"y":2549386.879999999}},{"attributes":{"ID":292260,"DIS_CODE":0,"TOWNNAME":"安南區","LI":"海東里","LIN":"17鄰","STREET":"同安路","SECT":" ","MAREA":" ","LANE":"３８７巷","ALLEY":" ","HOUSE_NO":"６號","E_COORD97":167278.5,"N_COORD97":2549389.2999999998,"ADDRESS":"同安路３８７巷６號","OBJECTID":292252},"geometry":{"x":167278.5,"y":2549389.3000000007}},{"attributes":{"ID":292261,"DIS_CODE":0,"TOWNNAME":"安南區","LI":"海東里","LIN":"17鄰","STREET":"同安路","SECT":" ","MAREA":" ","LANE":"３８７巷","ALLEY":" ","HOUSE_NO":"８號","E_COORD97":167275.20000000001,"N_COORD97":2549391.46,"ADDRESS":"同安路３８７巷８號","OBJECTID":292253},"geometry":{"x":167275.20000000112,"y":2549391.4600000009}},{"attributes":{"ID":292262,"DIS_CODE":0,"TOWNNAME":"安南區","LI":"海東里","LIN":"17鄰","STREET":"同安路","SECT":" ","MAREA":" ","LANE":"３８７巷","ALLEY":" ","HOUSE_NO":"１０號","E_COORD97":167271.89999999999,"N_COORD97":2549393.1099999999,"ADDRESS":"同安路３８７巷１０號","OBJECTID":292254},"geometry":{"x":167271.90000000224,"y":2549393.1100000031}},{"attributes":{"ID":292263,"DIS_CODE":0,"TOWNNAME":"安南區","LI":"海東里","LIN":"17鄰","STREET":"同安路","SECT":" ","MAREA":" ","LANE":"３８７巷","ALLEY":" ","HOUSE_NO":"１２號","E_COORD97":167268.09,"N_COORD97":2549395.3900000001,"ADDRESS":"同安路３８７巷１２號","OBJECTID":292255},"geometry":{"x":167268.08999999985,"y":2549395.3900000006}},{"attributes":{"ID":292264,"DIS_CODE":0,"TOWNNAME":"安南區","LI":"海東里","LIN":"17鄰","STREET":"同安路","SECT":" ","MAREA":" ","LANE":"３８７巷","ALLEY":" ","HOUSE_NO":"１６號","E_COORD97":167264.28,"N_COORD97":2549397.2999999998,"ADDRESS":"同安路３８７巷１６號","OBJECTID":292256},"geometry":{"x":167264.28000000119,"y":2549397.3000000026}},{"attributes":{"ID":292265,"DIS_CODE":0,"TOWNNAME":"東區","LI":"德高里","LIN":"17鄰","STREET":"崇善路","SECT":" ","MAREA":" ","LANE":"１０８９巷","ALLEY":" ","HOUSE_NO":"４６之１號","E_COORD97":171669.98000000001,"N_COORD97":2540556.8700000001,"ADDRESS":"崇善路１０８９巷４６之１號","OBJECTID":292257},"geometry":{"x":171669.98000000045,"y":2540556.870000001}},{"attributes":{"ID":292266,"DIS_CODE":0,"TOWNNAME":"仁德區","LI":"新田里","LIN":"17鄰","STREET":"北保東路","SECT":" ","MAREA":" ","LANE":"４６巷","ALLEY":" ","HOUSE_NO":"１０號","E_COORD97":173495.51000000001,"N_COORD97":2539327.7400000002,"ADDRESS":"北保東路４６巷１０號","OBJECTID":292258},"geometry":{"x":173495.51000000071,"y":2539327.7400000021}},{"attributes":{"ID":292267,"DIS_CODE":0,"TOWNNAME":"歸仁區","LI":"八甲里","LIN":"17鄰","STREET":"大仁八街","SECT":" ","MAREA":" ","LANE":"５巷","ALLEY":" ","HOUSE_NO":"１號","E_COORD97":178037.94,"N_COORD97":2541574.25,"ADDRESS":"大仁八街５巷１號","OBJECTID":292259},"geometry":{"x":178037.94000000134,"y":2541574.25}},{"attributes":{"ID":292268,"DIS_CODE":0,"TOWNNAME":"永康區","LI":"西勢里","LIN":"17鄰","STREET":"富強路","SECT":"一段","MAREA":" ","LANE":"２５４巷","ALLEY":" ","HOUSE_NO":"１８號","E_COORD97":175748.48999999999,"N_COORD97":2546416.1699999999,"ADDRESS":"富強路一段２５４巷１８號","OBJECTID":292260},"geometry":{"x":175748.49000000022,"y":2546416.1699999999}},{"attributes":{"ID":292269,"DIS_CODE":0,"TOWNNAME":"永康區","LI":"西勢里","LIN":"17鄰","STREET":"富強路","SECT":"一段","MAREA":" ","LANE":"２５４巷","ALLEY":" ","HOUSE_NO":"２０號","E_COORD97":175751.69,"N_COORD97":2546413.4900000002,"ADDRESS":"富強路一段２５４巷２０號","OBJECTID":292261},"geometry":{"x":175751.69000000134,"y":2546413.4900000002}},{"attributes":{"ID":292270,"DIS_CODE":0,"TOWNNAME":"永康區","LI":"西勢里","LIN":"17鄰","STREET":"富強路","SECT":"一段","MAREA":" ","LANE":"２５４巷","ALLEY":" ","HOUSE_NO":"２２號","E_COORD97":175754.78,"N_COORD97":2546410.6299999999,"ADDRESS":"富強路一段２５４巷２２號","OBJECTID":292262},"geometry":{"x":175754.78000000026,"y":2546410.6300000008}},{"attributes":{"ID":292271,"DIS_CODE":0,"TOWNNAME":"永康區","LI":"西勢里","LIN":"17鄰","STREET":"富強路","SECT":"一段","MAREA":" ","LANE":"２５４巷","ALLEY":" ","HOUSE_NO":"２６號","E_COORD97":175757.57999999999,"N_COORD97":2546407.6000000001,"ADDRESS":"富強路一段２５４巷２６號","OBJECTID":292263},"geometry":{"x":175757.58000000007,"y":2546407.6000000015}},{"attributes":{"ID":292272,"DIS_CODE":0,"TOWNNAME":"永康區","LI":"西勢里","LIN":"17鄰","STREET":"富強路","SECT":"一段","MAREA":" ","LANE":"２５４巷","ALLEY":" ","HOUSE_NO":"２８號","E_COORD97":175760.84,"N_COORD97":2546404.8599999999,"ADDRESS":"富強路一段２５４巷２８號","OBJECTID":292264},"geometry":{"x":175760.83999999985,"y":2546404.8600000031}},{"attributes":{"ID":292273,"DIS_CODE":0,"TOWNNAME":"南區","LI":"金華里","LIN":"20鄰","STREET":"尊南街","SECT":" ","MAREA":" ","LANE":" ","ALLEY":" ","HOUSE_NO":"２５３號","E_COORD97":166844.89000000001,"N_COORD97":2542384.3300000001,"ADDRESS":"尊南街２５３號","OBJECTID":292265},"geometry":{"x":166844.88999999966,"y":2542384.3299999982}},{"attributes":{"ID":292274,"DIS_CODE":0,"TOWNNAME":"新營區","LI":"大宏里","LIN":"8鄰","STREET":"文昌街","SECT":" ","MAREA":" ","LANE":" ","ALLEY":" ","HOUSE_NO":"１６號三樓之５","E_COORD97":180442.69,"N_COORD97":2578413.4500000002,"ADDRESS":"文昌街１６號三樓之５","OBJECTID":292266},"geometry":{"x":180442.69000000041,"y":2578413.4500000011}},{"attributes":{"ID":292275,"DIS_CODE":0,"TOWNNAME":"新營區","LI":"大宏里","LIN":"8鄰","STREET":"文昌街","SECT":" ","MAREA":" ","LANE":" ","ALLEY":" ","HOUSE_NO":"１６號五樓之６","E_COORD97":180442.64000000001,"N_COORD97":2578413.4500000002,"ADDRESS":"文昌街１６號五樓之６","OBJECTID":292267},"geometry":{"x":180442.63999999966,"y":2578413.4500000011}},{"attributes":{"ID":292276,"DIS_CODE":0,"TOWNNAME":"永康區","LI":"埔園里","LIN":"26鄰","STREET":"自強路","SECT":" ","MAREA":" ","LANE":"４１７巷","ALLEY":" ","HOUSE_NO":"３３號","E_COORD97":173738.64999999999,"N_COORD97":2548056.71,"ADDRESS":"自強路４１７巷３３號","OBJECTID":292268},"geometry":{"x":173738.65000000037,"y":2548056.7100000009}},{"attributes":{"ID":292277,"DIS_CODE":0,"TOWNNAME":"永康區","LI":"崑山里","LIN":"4鄰","STREET":"永大路","SECT":"一段","MAREA":" ","LANE":"２８７巷","ALLEY":" ","HOUSE_NO":"１０１號","E_COORD97":173753.82999999999,"N_COORD97":2544325.6000000001,"ADDRESS":"永大路一段２８７巷１０１號","OBJECTID":292269},"geometry":{"x":173753.83000000007,"y":2544325.6000000015}},{"attributes":{"ID":292278,"DIS_CODE":0,"TOWNNAME":"永康區","LI":"中興里","LIN":"18鄰","STREET":"中華路","SECT":" ","MAREA":" ","LANE":"２８６巷","ALLEY":" ","HOUSE_NO":"３６號","E_COORD97":171688.85000000001,"N_COORD97":2545312.5,"ADDRESS":"中華路２８６巷３６號","OBJECTID":292270},"geometry":{"x":171688.84999999963,"y":2545312.5000000037}},{"attributes":{"ID":292279,"DIS_CODE":0,"TOWNNAME":"永康區","LI":"尚頂里","LIN":"13鄰","STREET":"正南一街","SECT":" ","MAREA":" ","LANE":"１０５巷","ALLEY":" ","HOUSE_NO":"９號","E_COORD97":170993.38,"N_COORD97":2547206.4300000002,"ADDRESS":"正南一街１０５巷９號","OBJECTID":292271},"geometry":{"x":170993.37999999989,"y":2547206.4299999997}},{"attributes":{"ID":292280,"DIS_CODE":0,"TOWNNAME":"永康區","LI":"西橋里","LIN":"24鄰","STREET":"大橋三街","SECT":" ","MAREA":" ","LANE":"５７巷","ALLEY":" ","HOUSE_NO":"２６號","E_COORD97":170547.57000000001,"N_COORD97":2546567.2400000002,"ADDRESS":"大橋三街５７巷２６號","OBJECTID":292272},"geometry":{"x":170547.57000000123,"y":2546567.2400000021}},{"attributes":{"ID":292281,"DIS_CODE":0,"TOWNNAME":"永康區","LI":"西灣里","LIN":"36鄰","STREET":"國光八街","SECT":" ","MAREA":" ","LANE":"８７巷","ALLEY":" ","HOUSE_NO":"２６號","E_COORD97":174231.76000000001,"N_COORD97":2545702.7200000002,"ADDRESS":"國光八街８７巷２６號","OBJECTID":292273},"geometry":{"x":174231.76000000071,"y":2545702.7200000025}},{"attributes":{"ID":292282,"DIS_CODE":0,"TOWNNAME":"永康區","LI":"中興里","LIN":"5鄰","STREET":"中華路","SECT":" ","MAREA":" ","LANE":"２１４巷","ALLEY":" ","HOUSE_NO":"２０號","E_COORD97":171748.73000000001,"N_COORD97":2545050.7400000002,"ADDRESS":"中華路２１４巷２０號","OBJECTID":292274},"geometry":{"x":171748.73000000138,"y":2545050.7400000021}},{"attributes":{"ID":292283,"DIS_CODE":0,"TOWNNAME":"永康區","LI":"復國里","LIN":"5鄰","STREET":"復國一路","SECT":" ","MAREA":" ","LANE":"９０巷","ALLEY":" ","HOUSE_NO":"５２之１號","E_COORD97":172801.04000000001,"N_COORD97":2544924.54,"ADDRESS":"復國一路９０巷５２之１號","OBJECTID":292275},"geometry":{"x":172801.04000000097,"y":2544924.5399999991}},{"attributes":{"ID":292284,"DIS_CODE":0,"TOWNNAME":"永康區","LI":"崑山里","LIN":"18鄰","STREET":"大灣路","SECT":" ","MAREA":" ","LANE":"９４２巷","ALLEY":" ","HOUSE_NO":"３０號","E_COORD97":173646.72,"N_COORD97":2544531.1200000001,"ADDRESS":"大灣路９４２巷３０號","OBJECTID":292276},"geometry":{"x":173646.72000000067,"y":2544531.1200000029}},{"attributes":{"ID":292285,"DIS_CODE":0,"TOWNNAME":"永康區","LI":"龍潭里","LIN":"39鄰","STREET":"永明街","SECT":" ","MAREA":" ","LANE":"２７３巷","ALLEY":" ","HOUSE_NO":"７號","E_COORD97":174656.14999999999,"N_COORD97":2547240.9100000001,"ADDRESS":"永明街２７３巷７號","OBJECTID":292277},"geometry":{"x":174656.15000000224,"y":2547240.9100000001}},{"attributes":{"ID":292286,"DIS_CODE":0,"TOWNNAME":"永康區","LI":"三合里","LIN":"5鄰","STREET":"南工街","SECT":" ","MAREA":" ","LANE":"６６巷","ALLEY":" ","HOUSE_NO":"３號","E_COORD97":172123.42999999999,"N_COORD97":2545660.0600000001,"ADDRESS":"南工街６６巷３號","OBJECTID":292278},"geometry":{"x":172123.4299999997,"y":2545660.0600000024}},{"attributes":{"ID":292287,"DIS_CODE":0,"TOWNNAME":"永康區","LI":"三合里","LIN":"18鄰","STREET":"南工街","SECT":" ","MAREA":" ","LANE":"２６７巷","ALLEY":" ","HOUSE_NO":"９號","E_COORD97":171891.13,"N_COORD97":2545930.25,"ADDRESS":"南工街２６７巷９號","OBJECTID":292279},"geometry":{"x":171891.13000000082,"y":2545930.25}},{"attributes":{"ID":292288,"DIS_CODE":0,"TOWNNAME":"永康區","LI":"三合里","LIN":"5鄰","STREET":"南工街","SECT":" ","MAREA":" ","LANE":"６６巷","ALLEY":" ","HOUSE_NO":"２號","E_COORD97":172121.5,"N_COORD97":2545646.3599999999,"ADDRESS":"南工街６６巷２號","OBJECTID":292280},"geometry":{"x":172121.50000000093,"y":2545646.3600000013}},{"attributes":{"ID":292289,"DIS_CODE":0,"TOWNNAME":"永康區","LI":"西勢里","LIN":"17鄰","STREET":"富強路","SECT":"一段","MAREA":" ","LANE":"２５４巷","ALLEY":" ","HOUSE_NO":"３０號","E_COORD97":175763.85999999999,"N_COORD97":2546402.4100000001,"ADDRESS":"富強路一段２５４巷３０號","OBJECTID":292281},"geometry":{"x":175763.86000000127,"y":2546402.410000002}},{"attributes":{"ID":292290,"DIS_CODE":0,"TOWNNAME":"永康區","LI":"西勢里","LIN":"17鄰","STREET":"富強路","SECT":"一段","MAREA":" ","LANE":"２５４巷","ALLEY":" ","HOUSE_NO":"３２號","E_COORD97":175766.81,"N_COORD97":2546399.4700000002,"ADDRESS":"富強路一段２５４巷３２號","OBJECTID":292282},"geometry":{"x":175766.81000000052,"y":2546399.4700000025}},{"attributes":{"ID":292291,"DIS_CODE":0,"TOWNNAME":"新營區","LI":"大宏里","LIN":"8鄰","STREET":"文昌街","SECT":" ","MAREA":" ","LANE":" ","ALLEY":" ","HOUSE_NO":"１６號四樓之５","E_COORD97":180442.69,"N_COORD97":2578413.4500000002,"ADDRESS":"文昌街１６號四樓之５","OBJECTID":292283},"geometry":{"x":180442.69000000041,"y":2578413.4500000011}},{"attributes":{"ID":292292,"DIS_CODE":0,"TOWNNAME":"安平區","LI":"文平里","LIN":"8鄰","STREET":"建平六街","SECT":" ","MAREA":" ","LANE":" ","ALLEY":" ","HOUSE_NO":"１１４號七樓之１","E_COORD97":166198.32000000001,"N_COORD97":2543142.2000000002,"ADDRESS":"建平六街１１４號七樓之１","OBJECTID":292284},"geometry":{"x":166198.32000000123,"y":2543142.2000000011}},{"attributes":{"ID":292293,"DIS_CODE":0,"TOWNNAME":"安平區","LI":"文平里","LIN":"8鄰","STREET":"建平六街","SECT":" ","MAREA":" ","LANE":" ","ALLEY":" ","HOUSE_NO":"１１４號七樓之２","E_COORD97":166198.32000000001,"N_COORD97":2543142.2000000002,"ADDRESS":"建平六街１１４號七樓之２","OBJECTID":292285},"geometry":{"x":166198.32000000123,"y":2543142.2000000011}},{"attributes":{"ID":292294,"DIS_CODE":0,"TOWNNAME":"安平區","LI":"文平里","LIN":"8鄰","STREET":"建平六街","SECT":" ","MAREA":" ","LANE":" ","ALLEY":" ","HOUSE_NO":"１１４號七樓之３","E_COORD97":166198.32000000001,"N_COORD97":2543142.2000000002,"ADDRESS":"建平六街１１４號七樓之３","OBJECTID":292286},"geometry":{"x":166198.32000000123,"y":2543142.2000000011}},{"attributes":{"ID":292295,"DIS_CODE":0,"TOWNNAME":"安平區","LI":"文平里","LIN":"8鄰","STREET":"建平六街","SECT":" ","MAREA":" ","LANE":" ","ALLEY":" ","HOUSE_NO":"１１４號七樓之４","E_COORD97":166198.32000000001,"N_COORD97":2543142.2000000002,"ADDRESS":"建平六街１１４號七樓之４","OBJECTID":292287},"geometry":{"x":166198.32000000123,"y":2543142.2000000011}},{"attributes":{"ID":292296,"DIS_CODE":0,"TOWNNAME":"安平區","LI":"文平里","LIN":"8鄰","STREET":"建平六街","SECT":" ","MAREA":" ","LANE":" ","ALLEY":" ","HOUSE_NO":"１１４號七樓之５","E_COORD97":166198.32000000001,"N_COORD97":2543142.2000000002,"ADDRESS":"建平六街１１４號七樓之５","OBJECTID":292288},"geometry":{"x":166198.32000000123,"y":2543142.2000000011}},{"attributes":{"ID":292297,"DIS_CODE":0,"TOWNNAME":"安平區","LI":"文平里","LIN":"8鄰","STREET":"建平六街","SECT":" ","MAREA":" ","LANE":" ","ALLEY":" ","HOUSE_NO":"１１４號七樓之６","E_COORD97":166176.26999999999,"N_COORD97":2543144.21,"ADDRESS":"建平六街１１４號七樓之６","OBJECTID":292289},"geometry":{"x":166176.26999999955,"y":2543144.2100000009}},{"attributes":{"ID":292298,"DIS_CODE":0,"TOWNNAME":"安平區","LI":"文平里","LIN":"8鄰","STREET":"建平六街","SECT":" ","MAREA":" ","LANE":" ","ALLEY":" ","HOUSE_NO":"１１４號七樓之７","E_COORD97":166176.26999999999,"N_COORD97":2543144.21,"ADDRESS":"建平六街１１４號七樓之７","OBJECTID":292290},"geometry":{"x":166176.26999999955,"y":2543144.2100000009}},{"attributes":{"ID":292299,"DIS_CODE":0,"TOWNNAME":"安平區","LI":"文平里","LIN":"8鄰","STREET":"建平六街","SECT":" ","MAREA":" ","LANE":" ","ALLEY":" ","HOUSE_NO":"１１４號七樓之８","E_COORD97":166176.26999999999,"N_COORD97":2543144.21,"ADDRESS":"建平六街１１４號七樓之８","OBJECTID":292291},"geometry":{"x":166176.26999999955,"y":2543144.2100000009}},{"attributes":{"ID":292300,"DIS_CODE":0,"TOWNNAME":"下營區","LI":"仁里里","LIN":"8鄰","STREET":"公園路","SECT":" ","MAREA":" ","LANE":" ","ALLEY":" ","HOUSE_NO":"２０６號","E_COORD97":173977.19,"N_COORD97":2570279.3900000001,"ADDRESS":"公園路２０６號","OBJECTID":292292},"geometry":{"x":173977.19000000041,"y":2570279.3900000006}},{"attributes":{"ID":292301,"DIS_CODE":0,"TOWNNAME":"安平區","LI":"文平里","LIN":"8鄰","STREET":"建平六街","SECT":" ","MAREA":" ","LANE":" ","ALLEY":" ","HOUSE_NO":"１１４號七樓之９","E_COORD97":166176.26999999999,"N_COORD97":2543144.21,"ADDRESS":"建平六街１１４號七樓之９","OBJECTID":292293},"geometry":{"x":166176.26999999955,"y":2543144.2100000009}},{"attributes":{"ID":292302,"DIS_CODE":0,"TOWNNAME":"安平區","LI":"文平里","LIN":"8鄰","STREET":"建平六街","SECT":" ","MAREA":" ","LANE":" ","ALLEY":" ","HOUSE_NO":"１１４號二樓之２","E_COORD97":166176.26999999999,"N_COORD97":2543144.21,"ADDRESS":"建平六街１１４號二樓之２","OBJECTID":292294},"geometry":{"x":166176.26999999955,"y":2543144.2100000009}},{"attributes":{"ID":292303,"DIS_CODE":0,"TOWNNAME":"永康區","LI":"二王里","LIN":"26鄰","STREET":"中山南路","SECT":" ","MAREA":" ","LANE":"５４４巷","ALLEY":" ","HOUSE_NO":"１２５號","E_COORD97":172329.01000000001,"N_COORD97":2546187.2400000002,"ADDRESS":"中山南路５４４巷１２５號","OBJECTID":292295},"geometry":{"x":172329.01000000164,"y":2546187.2400000021}},{"attributes":{"ID":292304,"DIS_CODE":0,"TOWNNAME":"永康區","LI":"二王里","LIN":"20鄰","STREET":"中山南路","SECT":" ","MAREA":" ","LANE":"６４４巷","ALLEY":" ","HOUSE_NO":"４號","E_COORD97":172390.95000000001,"N_COORD97":2546646.7200000002,"ADDRESS":"中山南路６４４巷４號","OBJECTID":292296},"geometry":{"x":172390.95000000112,"y":2546646.7200000007}},{"attributes":{"ID":292305,"DIS_CODE":0,"TOWNNAME":"永康區","LI":"二王里","LIN":"26鄰","STREET":"中山南路","SECT":" ","MAREA":" ","LANE":"５４４巷","ALLEY":" ","HOUSE_NO":"１０７號","E_COORD97":172332.42000000001,"N_COORD97":2546228.75,"ADDRESS":"中山南路５４４巷１０７號","OBJECTID":292297},"geometry":{"x":172332.41999999993,"y":2546228.75}},{"attributes":{"ID":292306,"DIS_CODE":0,"TOWNNAME":"永康區","LI":"二王里","LIN":"34鄰","STREET":"中山南路","SECT":" ","MAREA":" ","LANE":"４９０巷","ALLEY":" ","HOUSE_NO":"１０號之２２","E_COORD97":172182.29000000001,"N_COORD97":2546340.7400000002,"ADDRESS":"中山南路４９０巷１０號之２２","OBJECTID":292298},"geometry":{"x":172182.29000000097,"y":2546340.7400000002}},{"attributes":{"ID":292307,"DIS_CODE":0,"TOWNNAME":"永康區","LI":"二王里","LIN":"26鄰","STREET":"中山南路","SECT":" ","MAREA":" ","LANE":"５４４巷","ALLEY":" ","HOUSE_NO":"１０８號","E_COORD97":172313.38,"N_COORD97":2546194.3700000001,"ADDRESS":"中山南路５４４巷１０８號","OBJECTID":292299},"geometry":{"x":172313.38000000082,"y":2546194.3700000029}},{"attributes":{"ID":292308,"DIS_CODE":0,"TOWNNAME":"永康區","LI":"二王里","LIN":"25鄰","STREET":"中山南路","SECT":" ","MAREA":" ","LANE":"５４４巷","ALLEY":" ","HOUSE_NO":"９３號","E_COORD97":172333.07000000001,"N_COORD97":2546263.4900000002,"ADDRESS":"中山南路５４４巷９３號","OBJECTID":292300},"geometry":{"x":172333.07000000123,"y":2546263.4900000021}},{"attributes":{"ID":292309,"DIS_CODE":0,"TOWNNAME":"永康區","LI":"二王里","LIN":"13鄰","STREET":"永二街","SECT":" ","MAREA":" ","LANE":"４５９巷","ALLEY":" ","HOUSE_NO":"９號","E_COORD97":172639.17000000001,"N_COORD97":2546649.4100000001,"ADDRESS":"永二街４５９巷９號","OBJECTID":292301},"geometry":{"x":172639.16999999993,"y":2546649.4100000039}},{"attributes":{"ID":292310,"DIS_CODE":0,"TOWNNAME":"永康區","LI":"三民里","LIN":"14鄰","STREET":"和平東路","SECT":" ","MAREA":" ","LANE":"２１巷","ALLEY":" ","HOUSE_NO":"９號","E_COORD97":175156.17999999999,"N_COORD97":2550496.2400000002,"ADDRESS":"和平東路２１巷９號","OBJECTID":292302},"geometry":{"x":175156.1799999997,"y":2550496.2400000021}},{"attributes":{"ID":292311,"DIS_CODE":0,"TOWNNAME":"永康區","LI":"二王里","LIN":"26鄰","STREET":"中山南路","SECT":" ","MAREA":" ","LANE":"５４４巷","ALLEY":" ","HOUSE_NO":"１０４號","E_COORD97":172314.35999999999,"N_COORD97":2546203.1299999999,"ADDRESS":"中山南路５４４巷１０４號","OBJECTID":292303},"geometry":{"x":172314.36000000127,"y":2546203.1300000008}},{"attributes":{"ID":292312,"DIS_CODE":0,"TOWNNAME":"永康區","LI":"三合里","LIN":"18鄰","STREET":"南工街","SECT":" ","MAREA":" ","LANE":"２６７巷","ALLEY":" ","HOUSE_NO":"１３號","E_COORD97":171890.26999999999,"N_COORD97":2545917.75,"ADDRESS":"南工街２６７巷１３號","OBJECTID":292304},"geometry":{"x":171890.27000000048,"y":2545917.7500000037}},{"attributes":{"ID":292313,"DIS_CODE":0,"TOWNNAME":"永康區","LI":"三合里","LIN":"20鄰","STREET":"南工街","SECT":" ","MAREA":" ","LANE":"２６７巷","ALLEY":" ","HOUSE_NO":"１２號","E_COORD97":171872.70999999999,"N_COORD97":2545926.25,"ADDRESS":"南工街２６７巷１２號","OBJECTID":292305},"geometry":{"x":171872.70999999996,"y":2545926.25}},{"attributes":{"ID":292314,"DIS_CODE":0,"TOWNNAME":"永康區","LI":"三合里","LIN":"25鄰","STREET":"中山東路","SECT":" ","MAREA":" ","LANE":" ","ALLEY":" ","HOUSE_NO":"９９號","E_COORD97":171752.57999999999,"N_COORD97":2545924.1099999999,"ADDRESS":"中山東路９９號","OBJECTID":292306},"geometry":{"x":171752.58000000101,"y":2545924.1099999994}},{"attributes":{"ID":292315,"DIS_CODE":0,"TOWNNAME":"永康區","LI":"二王里","LIN":"8鄰","STREET":"二王路","SECT":" ","MAREA":" ","LANE":" ","ALLEY":" ","HOUSE_NO":"８號","E_COORD97":172990.51000000001,"N_COORD97":2546842.6800000002,"ADDRESS":"二王路８號","OBJECTID":292307},"geometry":{"x":172990.51000000071,"y":2546842.6799999997}},{"attributes":{"ID":292316,"DIS_CODE":0,"TOWNNAME":"永康區","LI":"三合里","LIN":"25鄰","STREET":"中山東路","SECT":" ","MAREA":" ","LANE":" ","ALLEY":" ","HOUSE_NO":"１０７號","E_COORD97":171759.17999999999,"N_COORD97":2545903.5,"ADDRESS":"中山東路１０７號","OBJECTID":292308},"geometry":{"x":171759.1799999997,"y":2545903.5000000019}},{"attributes":{"ID":292317,"DIS_CODE":0,"TOWNNAME":"永康區","LI":"三合里","LIN":"25鄰","STREET":"中山東路","SECT":" ","MAREA":" ","LANE":" ","ALLEY":" ","HOUSE_NO":"１０３號","E_COORD97":171757.48000000001,"N_COORD97":2545917.1099999999,"ADDRESS":"中山東路１０３號","OBJECTID":292309},"geometry":{"x":171757.48000000138,"y":2545917.1099999994}},{"attributes":{"ID":292318,"DIS_CODE":0,"TOWNNAME":"永康區","LI":"三合里","LIN":"25鄰","STREET":"中山東路","SECT":" ","MAREA":" ","LANE":" ","ALLEY":" ","HOUSE_NO":"１２１號","E_COORD97":171766.98000000001,"N_COORD97":2545870.7400000002,"ADDRESS":"中山東路１２１號","OBJECTID":292310},"geometry":{"x":171766.98000000231,"y":2545870.7400000039}},{"attributes":{"ID":292319,"DIS_CODE":0,"TOWNNAME":"永康區","LI":"三合里","LIN":"5鄰","STREET":"南工街","SECT":" ","MAREA":" ","LANE":" ","ALLEY":" ","HOUSE_NO":"７０號","E_COORD97":172104.92000000001,"N_COORD97":2545661.5800000001,"ADDRESS":"南工街７０號","OBJECTID":292311},"geometry":{"x":172104.92000000086,"y":2545661.5800000038}},{"attributes":{"ID":292320,"DIS_CODE":0,"TOWNNAME":"永康區","LI":"三民里","LIN":"14鄰","STREET":"和平東路","SECT":" ","MAREA":" ","LANE":" ","ALLEY":" ","HOUSE_NO":"１１６號","E_COORD97":174843.44,"N_COORD97":2550653.77,"ADDRESS":"和平東路１１６號","OBJECTID":292312},"geometry":{"x":174843.44000000041,"y":2550653.7700000033}},{"attributes":{"ID":292321,"DIS_CODE":0,"TOWNNAME":"永康區","LI":"三合里","LIN":"5鄰","STREET":"南工街","SECT":" ","MAREA":" ","LANE":" ","ALLEY":" ","HOUSE_NO":"７２號","E_COORD97":172105.06,"N_COORD97":2545665.3300000001,"ADDRESS":"南工街７２號","OBJECTID":292313},"geometry":{"x":172105.06000000052,"y":2545665.3300000001}},{"attributes":{"ID":292322,"DIS_CODE":0,"TOWNNAME":"永康區","LI":"三合里","LIN":"25鄰","STREET":"中山東路","SECT":" ","MAREA":" ","LANE":" ","ALLEY":" ","HOUSE_NO":"１３３號","E_COORD97":171773.92999999999,"N_COORD97":2545846.8100000001,"ADDRESS":"中山東路１３３號","OBJECTID":292314},"geometry":{"x":171773.93000000063,"y":2545846.8100000042}},{"attributes":{"ID":292323,"DIS_CODE":0,"TOWNNAME":"永康區","LI":"二王里","LIN":"4鄰","STREET":"二王路","SECT":" ","MAREA":" ","LANE":" ","ALLEY":" ","HOUSE_NO":"６８號","E_COORD97":173013.44,"N_COORD97":2546713.6099999999,"ADDRESS":"二王路６８號","OBJECTID":292315},"geometry":{"x":173013.44000000134,"y":2546713.6099999994}},{"attributes":{"ID":292324,"DIS_CODE":0,"TOWNNAME":"永康區","LI":"三合里","LIN":"5鄰","STREET":"南工街","SECT":" ","MAREA":" ","LANE":" ","ALLEY":" ","HOUSE_NO":"８８號","E_COORD97":172104.39999999999,"N_COORD97":2545699.6200000001,"ADDRESS":"南工街８８號","OBJECTID":292316},"geometry":{"x":172104.40000000037,"y":2545699.6200000048}},{"attributes":{"ID":292325,"DIS_CODE":0,"TOWNNAME":"安南區","LI":"安東里","LIN":"24鄰","STREET":"安和路","SECT":"二段","MAREA":" ","LANE":" ","ALLEY":" ","HOUSE_NO":"８號之３","E_COORD97":169444.51000000001,"N_COORD97":2548539.8900000001,"ADDRESS":"安和路二段８號之３","OBJECTID":292317},"geometry":{"x":169444.51000000071,"y":2548539.8900000025}},{"attributes":{"ID":292326,"DIS_CODE":0,"TOWNNAME":"安南區","LI":"安東里","LIN":"24鄰","STREET":"安和路","SECT":"二段","MAREA":" ","LANE":" ","ALLEY":" ","HOUSE_NO":"１８號","E_COORD97":169451.63,"N_COORD97":2548563.7599999998,"ADDRESS":"安和路二段１８號","OBJECTID":292318},"geometry":{"x":169451.63000000082,"y":2548563.7599999998}},{"attributes":{"ID":292327,"DIS_CODE":0,"TOWNNAME":"安南區","LI":"安東里","LIN":"24鄰","STREET":"安和路","SECT":"二段","MAREA":" ","LANE":" ","ALLEY":" ","HOUSE_NO":"２８號","E_COORD97":169459.04000000001,"N_COORD97":2548587.6000000001,"ADDRESS":"安和路二段２８號","OBJECTID":292319},"geometry":{"x":169459.0400000019,"y":2548587.6000000015}},{"attributes":{"ID":292328,"DIS_CODE":0,"TOWNNAME":"永康區","LI":"二王里","LIN":"20鄰","STREET":"中山南路","SECT":" ","MAREA":" ","LANE":"６４４巷","ALLEY":" ","HOUSE_NO":"６號","E_COORD97":172390.91,"N_COORD97":2546639.9700000002,"ADDRESS":"中山南路６４４巷６號","OBJECTID":292320},"geometry":{"x":172390.90999999922,"y":2546639.9700000025}},{"attributes":{"ID":292329,"DIS_CODE":0,"TOWNNAME":"永康區","LI":"中興里","LIN":"26鄰","STREET":"中山東路","SECT":" ","MAREA":" ","LANE":"３８６巷","ALLEY":" ","HOUSE_NO":"１１號","E_COORD97":171860.91,"N_COORD97":2545240.0299999998,"ADDRESS":"中山東路３８６巷１１號","OBJECTID":292321},"geometry":{"x":171860.91000000108,"y":2545240.0299999993}},{"attributes":{"ID":292330,"DIS_CODE":0,"TOWNNAME":"永康區","LI":"二王里","LIN":"26鄰","STREET":"中山南路","SECT":" ","MAREA":" ","LANE":"５４４巷","ALLEY":" ","HOUSE_NO":"１１３號","E_COORD97":172331.26000000001,"N_COORD97":2546215.25,"ADDRESS":"中山南路５４４巷１１３號","OBJECTID":292322},"geometry":{"x":172331.26000000071,"y":2546215.25}},{"attributes":{"ID":292331,"DIS_CODE":0,"TOWNNAME":"永康區","LI":"二王里","LIN":"26鄰","STREET":"中山南路","SECT":" ","MAREA":" ","LANE":"５４４巷","ALLEY":" ","HOUSE_NO":"９８號","E_COORD97":172313.66,"N_COORD97":2546216.8799999999,"ADDRESS":"中山南路５４４巷９８號","OBJECTID":292323},"geometry":{"x":172313.66000000108,"y":2546216.879999999}},{"attributes":{"ID":292332,"DIS_CODE":0,"TOWNNAME":"永康區","LI":"二王里","LIN":"5鄰","STREET":"二王路","SECT":" ","MAREA":" ","LANE":"３０巷","ALLEY":" ","HOUSE_NO":"１１號","E_COORD97":172903.62,"N_COORD97":2546776,"ADDRESS":"二王路３０巷１１號","OBJECTID":292324},"geometry":{"x":172903.62000000104,"y":2546776}},{"attributes":{"ID":292333,"DIS_CODE":0,"TOWNNAME":"永康區","LI":"二王里","LIN":"25鄰","STREET":"中山南路","SECT":" ","MAREA":" ","LANE":"５４４巷","ALLEY":" ","HOUSE_NO":"８９號","E_COORD97":172333.91,"N_COORD97":2546273.7400000002,"ADDRESS":"中山南路５４４巷８９號","OBJECTID":292325},"geometry":{"x":172333.91000000108,"y":2546273.7400000002}},{"attributes":{"ID":292334,"DIS_CODE":0,"TOWNNAME":"永康區","LI":"二王里","LIN":"5鄰","STREET":"二王路","SECT":" ","MAREA":" ","LANE":"４０巷","ALLEY":" ","HOUSE_NO":"８號","E_COORD97":172935.59,"N_COORD97":2546775.3999999999,"ADDRESS":"二王路４０巷８號","OBJECTID":292326},"geometry":{"x":172935.59000000078,"y":2546775.4000000022}},{"attributes":{"ID":292335,"DIS_CODE":0,"TOWNNAME":"永康區","LI":"二王里","LIN":"5鄰","STREET":"二王路","SECT":" ","MAREA":" ","LANE":"４０巷","ALLEY":" ","HOUSE_NO":"１２號","E_COORD97":172936.42000000001,"N_COORD97":2546757.0499999998,"ADDRESS":"二王路４０巷１２號","OBJECTID":292327},"geometry":{"x":172936.41999999993,"y":2546757.0500000007}},{"attributes":{"ID":292336,"DIS_CODE":0,"TOWNNAME":"永康區","LI":"西勢里","LIN":"17鄰","STREET":"富強路","SECT":"一段","MAREA":" ","LANE":"２５４巷","ALLEY":" ","HOUSE_NO":"３６號","E_COORD97":175770.23000000001,"N_COORD97":2546396.52,"ADDRESS":"富強路一段２５４巷３６號","OBJECTID":292328},"geometry":{"x":175770.23000000045,"y":2546396.5199999996}},{"attributes":{"ID":292337,"DIS_CODE":0,"TOWNNAME":"永康區","LI":"西勢里","LIN":"17鄰","STREET":"富強路","SECT":"一段","MAREA":" ","LANE":"２５４巷","ALLEY":" ","HOUSE_NO":"３８號","E_COORD97":175773.28,"N_COORD97":2546394,"ADDRESS":"富強路一段２５４巷３８號","OBJECTID":292329},"geometry":{"x":175773.28000000026,"y":2546394.0000000037}},{"attributes":{"ID":292338,"DIS_CODE":0,"TOWNNAME":"永康區","LI":"西勢里","LIN":"17鄰","STREET":"富強路","SECT":"一段","MAREA":" ","LANE":"２５４巷","ALLEY":" ","HOUSE_NO":"４０號","E_COORD97":175776.38,"N_COORD97":2546391.3700000001,"ADDRESS":"富強路一段２５４巷４０號","OBJECTID":292330},"geometry":{"x":175776.38000000082,"y":2546391.370000001}},{"attributes":{"ID":292339,"DIS_CODE":0,"TOWNNAME":"永康區","LI":"西勢里","LIN":"17鄰","STREET":"富強路","SECT":"一段","MAREA":" ","LANE":"２５４巷","ALLEY":" ","HOUSE_NO":"４２號","E_COORD97":175779.32000000001,"N_COORD97":2546388.6899999999,"ADDRESS":"富強路一段２５４巷４２號","OBJECTID":292331},"geometry":{"x":175779.32000000123,"y":2546388.6899999976}},{"attributes":{"ID":292340,"DIS_CODE":0,"TOWNNAME":"永康區","LI":"西勢里","LIN":"17鄰","STREET":"富強路","SECT":"一段","MAREA":" ","LANE":"２５４巷","ALLEY":" ","HOUSE_NO":"４６號","E_COORD97":175782.31,"N_COORD97":2546385.9100000001,"ADDRESS":"富強路一段２５４巷４６號","OBJECTID":292332},"geometry":{"x":175782.31000000052,"y":2546385.910000002}},{"attributes":{"ID":292341,"DIS_CODE":0,"TOWNNAME":"安平區","LI":"文平里","LIN":"8鄰","STREET":"建平六街","SECT":" ","MAREA":" ","LANE":" ","ALLEY":" ","HOUSE_NO":"１１４號三樓之１","E_COORD97":166198.32000000001,"N_COORD97":2543142.2000000002,"ADDRESS":"建平六街１１４號三樓之１","OBJECTID":292333},"geometry":{"x":166198.32000000123,"y":2543142.2000000011}},{"attributes":{"ID":292342,"DIS_CODE":0,"TOWNNAME":"安平區","LI":"文平里","LIN":"8鄰","STREET":"建平六街","SECT":" ","MAREA":" ","LANE":" ","ALLEY":" ","HOUSE_NO":"１１４號三樓之１０","E_COORD97":166176.26999999999,"N_COORD97":2543144.21,"ADDRESS":"建平六街１１４號三樓之１０","OBJECTID":292334},"geometry":{"x":166176.26999999955,"y":2543144.2100000009}},{"attributes":{"ID":292343,"DIS_CODE":0,"TOWNNAME":"安平區","LI":"文平里","LIN":"8鄰","STREET":"建平六街","SECT":" ","MAREA":" ","LANE":" ","ALLEY":" ","HOUSE_NO":"１１４號三樓之２","E_COORD97":166198.32000000001,"N_COORD97":2543142.2000000002,"ADDRESS":"建平六街１１４號三樓之２","OBJECTID":292335},"geometry":{"x":166198.32000000123,"y":2543142.2000000011}},{"attributes":{"ID":292344,"DIS_CODE":0,"TOWNNAME":"安平區","LI":"文平里","LIN":"8鄰","STREET":"建平六街","SECT":" ","MAREA":" ","LANE":" ","ALLEY":" ","HOUSE_NO":"１１４號三樓之３","E_COORD97":166198.32000000001,"N_COORD97":2543142.2000000002,"ADDRESS":"建平六街１１４號三樓之３","OBJECTID":292336},"geometry":{"x":166198.32000000123,"y":2543142.2000000011}},{"attributes":{"ID":292345,"DIS_CODE":0,"TOWNNAME":"安平區","LI":"文平里","LIN":"8鄰","STREET":"建平六街","SECT":" ","MAREA":" ","LANE":" ","ALLEY":" ","HOUSE_NO":"１１４號三樓之４","E_COORD97":166198.32000000001,"N_COORD97":2543142.2000000002,"ADDRESS":"建平六街１１４號三樓之４","OBJECTID":292337},"geometry":{"x":166198.32000000123,"y":2543142.2000000011}},{"attributes":{"ID":292346,"DIS_CODE":0,"TOWNNAME":"安平區","LI":"文平里","LIN":"8鄰","STREET":"建平六街","SECT":" ","MAREA":" ","LANE":" ","ALLEY":" ","HOUSE_NO":"１１４號三樓之５","E_COORD97":166198.32000000001,"N_COORD97":2543142.2000000002,"ADDRESS":"建平六街１１４號三樓之５","OBJECTID":292338},"geometry":{"x":166198.32000000123,"y":2543142.2000000011}},{"attributes":{"ID":292347,"DIS_CODE":0,"TOWNNAME":"安平區","LI":"文平里","LIN":"8鄰","STREET":"建平六街","SECT":" ","MAREA":" ","LANE":" ","ALLEY":" ","HOUSE_NO":"１１４號三樓之６","E_COORD97":166176.26999999999,"N_COORD97":2543144.21,"ADDRESS":"建平六街１１４號三樓之６","OBJECTID":292339},"geometry":{"x":166176.26999999955,"y":2543144.2100000009}},{"attributes":{"ID":292348,"DIS_CODE":0,"TOWNNAME":"永康區","LI":"二王里","LIN":"41鄰","STREET":"中山南路","SECT":" ","MAREA":" ","LANE":"３１６巷","ALLEY":" ","HOUSE_NO":"９號","E_COORD97":171787.89999999999,"N_COORD97":2546240.9199999999,"ADDRESS":"中山南路３１６巷９號","OBJECTID":292340},"geometry":{"x":171787.90000000224,"y":2546240.9199999999}},{"attributes":{"ID":292349,"DIS_CODE":0,"TOWNNAME":"永康區","LI":"三合里","LIN":"7鄰","STREET":"南工街","SECT":" ","MAREA":" ","LANE":"１０３巷","ALLEY":" ","HOUSE_NO":"３號","E_COORD97":172075.06,"N_COORD97":2545713.3700000001,"ADDRESS":"南工街１０３巷３號","OBJECTID":292341},"geometry":{"x":172075.05999999959,"y":2545713.370000001}},{"attributes":{"ID":292350,"DIS_CODE":0,"TOWNNAME":"永康區","LI":"二王里","LIN":"4鄰","STREET":"二王路","SECT":" ","MAREA":" ","LANE":"４０巷","ALLEY":" ","HOUSE_NO":"２號","E_COORD97":172962.70999999999,"N_COORD97":2546777.27,"ADDRESS":"二王路４０巷２號","OBJECTID":292342},"geometry":{"x":172962.70999999996,"y":2546777.2699999996}},{"attributes":{"ID":292351,"DIS_CODE":0,"TOWNNAME":"永康區","LI":"二王里","LIN":"26鄰","STREET":"中山南路","SECT":" ","MAREA":" ","LANE":"５４４巷","ALLEY":" ","HOUSE_NO":"１１７號","E_COORD97":172330.20999999999,"N_COORD97":2546206.25,"ADDRESS":"中山南路５４４巷１１７號","OBJECTID":292343},"geometry":{"x":172330.21000000089,"y":2546206.2500000019}},{"attributes":{"ID":292352,"DIS_CODE":0,"TOWNNAME":"永康區","LI":"二王里","LIN":"5鄰","STREET":"二王路","SECT":" ","MAREA":" ","LANE":"４０巷","ALLEY":" ","HOUSE_NO":"６號","E_COORD97":172946.01000000001,"N_COORD97":2546769.02,"ADDRESS":"二王路４０巷６號","OBJECTID":292344},"geometry":{"x":172946.01000000164,"y":2546769.0199999996}},{"attributes":{"ID":292353,"DIS_CODE":0,"TOWNNAME":"永康區","LI":"二王里","LIN":"26鄰","STREET":"中山南路","SECT":" ","MAREA":" ","LANE":"５４４巷","ALLEY":" ","HOUSE_NO":"１０９號","E_COORD97":172331.82000000001,"N_COORD97":2546224.25,"ADDRESS":"中山南路５４４巷１０９號","OBJECTID":292345},"geometry":{"x":172331.8200000003,"y":2546224.2500000019}},{"attributes":{"ID":292354,"DIS_CODE":0,"TOWNNAME":"永康區","LI":"西勢里","LIN":"17鄰","STREET":"富強路","SECT":"一段","MAREA":" ","LANE":"２５４巷","ALLEY":" ","HOUSE_NO":"４７號","E_COORD97":175826.60999999999,"N_COORD97":2546376.2599999998,"ADDRESS":"富強路一段２５４巷４７號","OBJECTID":292346},"geometry":{"x":175826.61000000127,"y":2546376.2600000016}},{"attributes":{"ID":292355,"DIS_CODE":0,"TOWNNAME":"永康區","LI":"西勢里","LIN":"17鄰","STREET":"富強路","SECT":"一段","MAREA":" ","LANE":"２５４巷","ALLEY":" ","HOUSE_NO":"５０號","E_COORD97":175788.06,"N_COORD97":2546379.96,"ADDRESS":"富強路一段２５４巷５０號","OBJECTID":292347},"geometry":{"x":175788.05999999959,"y":2546379.9600000028}},{"attributes":{"ID":292356,"DIS_CODE":0,"TOWNNAME":"永康區","LI":"西勢里","LIN":"17鄰","STREET":"富強路","SECT":"一段","MAREA":" ","LANE":"２５４巷","ALLEY":" ","HOUSE_NO":"５１號","E_COORD97":175824.38,"N_COORD97":2546373.1899999999,"ADDRESS":"富強路一段２５４巷５１號","OBJECTID":292348},"geometry":{"x":175824.38000000082,"y":2546373.1900000013}},{"attributes":{"ID":292357,"DIS_CODE":0,"TOWNNAME":"永康區","LI":"西勢里","LIN":"17鄰","STREET":"富強路","SECT":"一段","MAREA":" ","LANE":"２５４巷","ALLEY":" ","HOUSE_NO":"５２號","E_COORD97":175791.5,"N_COORD97":2546377.1099999999,"ADDRESS":"富強路一段２５４巷５２號","OBJECTID":292349},"geometry":{"x":175791.50000000093,"y":2546377.1100000013}},{"attributes":{"ID":292358,"DIS_CODE":0,"TOWNNAME":"永康區","LI":"西勢里","LIN":"17鄰","STREET":"富強路","SECT":"一段","MAREA":" ","LANE":"２５４巷","ALLEY":" ","HOUSE_NO":"５３號","E_COORD97":175822.26999999999,"N_COORD97":2546369.1299999999,"ADDRESS":"富強路一段２５４巷５３號","OBJECTID":292350},"geometry":{"x":175822.26999999862,"y":2546369.1300000008}},{"attributes":{"ID":292359,"DIS_CODE":0,"TOWNNAME":"永康區","LI":"西勢里","LIN":"17鄰","STREET":"富強路","SECT":"一段","MAREA":" ","LANE":"２５４巷","ALLEY":" ","HOUSE_NO":"５５號","E_COORD97":175818.57000000001,"N_COORD97":2546362.3799999999,"ADDRESS":"富強路一段２５４巷５５號","OBJECTID":292351},"geometry":{"x":175818.57000000123,"y":2546362.379999999}},{"attributes":{"ID":292360,"DIS_CODE":0,"TOWNNAME":"安平區","LI":"文平里","LIN":"8鄰","STREET":"建平六街","SECT":" ","MAREA":" ","LANE":" ","ALLEY":" ","HOUSE_NO":"１１４號三樓之７","E_COORD97":166176.26999999999,"N_COORD97":2543144.21,"ADDRESS":"建平六街１１４號三樓之７","OBJECTID":292352},"geometry":{"x":166176.26999999955,"y":2543144.2100000009}},{"attributes":{"ID":292361,"DIS_CODE":0,"TOWNNAME":"安平區","LI":"文平里","LIN":"8鄰","STREET":"建平六街","SECT":" ","MAREA":" ","LANE":" ","ALLEY":" ","HOUSE_NO":"１１４號三樓之８","E_COORD97":166176.26999999999,"N_COORD97":2543144.21,"ADDRESS":"建平六街１１４號三樓之８","OBJECTID":292353},"geometry":{"x":166176.26999999955,"y":2543144.2100000009}},{"attributes":{"ID":292362,"DIS_CODE":0,"TOWNNAME":"安平區","LI":"文平里","LIN":"8鄰","STREET":"建平六街","SECT":" ","MAREA":" ","LANE":" ","ALLEY":" ","HOUSE_NO":"１１４號三樓之９","E_COORD97":166176.26999999999,"N_COORD97":2543144.21,"ADDRESS":"建平六街１１４號三樓之９","OBJECTID":292354},"geometry":{"x":166176.26999999955,"y":2543144.2100000009}},{"attributes":{"ID":292363,"DIS_CODE":0,"TOWNNAME":"安平區","LI":"文平里","LIN":"8鄰","STREET":"建平六街","SECT":" ","MAREA":" ","LANE":" ","ALLEY":" ","HOUSE_NO":"１１４號五樓之１","E_COORD97":166198.32000000001,"N_COORD97":2543142.2000000002,"ADDRESS":"建平六街１１４號五樓之１","OBJECTID":292355},"geometry":{"x":166198.32000000123,"y":2543142.2000000011}},{"attributes":{"ID":292364,"DIS_CODE":0,"TOWNNAME":"安平區","LI":"文平里","LIN":"8鄰","STREET":"建平六街","SECT":" ","MAREA":" ","LANE":" ","ALLEY":" ","HOUSE_NO":"１１４號五樓之１０","E_COORD97":166176.26999999999,"N_COORD97":2543144.21,"ADDRESS":"建平六街１１４號五樓之１０","OBJECTID":292356},"geometry":{"x":166176.26999999955,"y":2543144.2100000009}},{"attributes":{"ID":292365,"DIS_CODE":0,"TOWNNAME":"永康區","LI":"二王里","LIN":"26鄰","STREET":"中山南路","SECT":" ","MAREA":" ","LANE":"５４４巷","ALLEY":" ","HOUSE_NO":"１１５號","E_COORD97":172331.07000000001,"N_COORD97":2546210.75,"ADDRESS":"中山南路５４４巷１１５號","OBJECTID":292357},"geometry":{"x":172331.07000000123,"y":2546210.7500000019}},{"attributes":{"ID":292366,"DIS_CODE":0,"TOWNNAME":"永康區","LI":"二王里","LIN":"25鄰","STREET":"中山南路","SECT":" ","MAREA":" ","LANE":"５４４巷","ALLEY":" ","HOUSE_NO":"１０１號","E_COORD97":172333.28,"N_COORD97":2546244,"ADDRESS":"中山南路５４４巷１０１號","OBJECTID":292358},"geometry":{"x":172333.28000000119,"y":2546244}},{"attributes":{"ID":292367,"DIS_CODE":0,"TOWNNAME":"永康區","LI":"二王里","LIN":"18鄰","STREET":"中山南路","SECT":" ","MAREA":" ","LANE":"６４４巷","ALLEY":" ","HOUSE_NO":"１１號","E_COORD97":172405.28,"N_COORD97":2546646.6299999999,"ADDRESS":"中山南路６４４巷１１號","OBJECTID":292359},"geometry":{"x":172405.28000000026,"y":2546646.6300000027}},{"attributes":{"ID":292368,"DIS_CODE":0,"TOWNNAME":"永康區","LI":"二王里","LIN":"20鄰","STREET":"中山南路","SECT":" ","MAREA":" ","LANE":"６４４巷","ALLEY":" ","HOUSE_NO":"２８號","E_COORD97":172395.39999999999,"N_COORD97":2546593.2999999998,"ADDRESS":"中山南路６４４巷２８號","OBJECTID":292360},"geometry":{"x":172395.4000000013,"y":2546593.3000000026}},{"attributes":{"ID":292369,"DIS_CODE":0,"TOWNNAME":"永康區","LI":"埔園里","LIN":"4鄰","STREET":"埔聖街","SECT":" ","MAREA":" ","LANE":"８１巷","ALLEY":" ","HOUSE_NO":"６５號","E_COORD97":174004.17000000001,"N_COORD97":2547778.9700000002,"ADDRESS":"埔聖街８１巷６５號","OBJECTID":292361},"geometry":{"x":174004.16999999993,"y":2547778.9700000025}},{"attributes":{"ID":292370,"DIS_CODE":0,"TOWNNAME":"永康區","LI":"\u25A0洲里","LIN":"4鄰","STREET":"\u25A0洲二街","SECT":" ","MAREA":" ","LANE":"１５３巷","ALLEY":" ","HOUSE_NO":"２２號","E_COORD97":171654.04999999999,"N_COORD97":2549419.6699999999,"ADDRESS":"\u25A0洲二街１５３巷２２號","OBJECTID":292362},"geometry":{"x":171654.05000000168,"y":2549419.6699999999}},{"attributes":{"ID":292371,"DIS_CODE":0,"TOWNNAME":"永康區","LI":"正強里","LIN":"36鄰","STREET":"正強街","SECT":" ","MAREA":" ","LANE":"３０７巷","ALLEY":" ","HOUSE_NO":"１２號","E_COORD97":173223.89999999999,"N_COORD97":2548124.1899999999,"ADDRESS":"正強街３０７巷１２號","OBJECTID":292363},"geometry":{"x":173223.9000000013,"y":2548124.1899999995}},{"attributes":{"ID":292372,"DIS_CODE":0,"TOWNNAME":"永康區","LI":"二王里","LIN":"20鄰","STREET":"中山南路","SECT":" ","MAREA":" ","LANE":"６４４巷","ALLEY":" ","HOUSE_NO":"３０號","E_COORD97":172395.64000000001,"N_COORD97":2546586.0499999998,"ADDRESS":"中山南路６４４巷３０號","OBJECTID":292364},"geometry":{"x":172395.63999999873,"y":2546586.0500000026}},{"attributes":{"ID":292373,"DIS_CODE":0,"TOWNNAME":"永康區","LI":"崑山里","LIN":"38鄰","STREET":"崑山街","SECT":" ","MAREA":" ","LANE":"２０３巷","ALLEY":" ","HOUSE_NO":"１５號","E_COORD97":174030.48000000001,"N_COORD97":2544999.79,"ADDRESS":"崑山街２０３巷１５號","OBJECTID":292365},"geometry":{"x":174030.48000000138,"y":2544999.7899999991}},{"attributes":{"ID":292374,"DIS_CODE":0,"TOWNNAME":"永康區","LI":"西勢里","LIN":"17鄰","STREET":"富強路","SECT":"一段","MAREA":" ","LANE":"２５４巷","ALLEY":" ","HOUSE_NO":"５６之１號","E_COORD97":175796.89999999999,"N_COORD97":2546374.4500000002,"ADDRESS":"富強路一段２５４巷５６之１號","OBJECTID":292366},"geometry":{"x":175796.90000000224,"y":2546374.4500000011}},{"attributes":{"ID":292375,"DIS_CODE":0,"TOWNNAME":"永康區","LI":"六合里","LIN":"17鄰","STREET":"中華路","SECT":" ","MAREA":" ","LANE":"４８５巷","ALLEY":" ","HOUSE_NO":"１０號","E_COORD97":171211.23999999999,"N_COORD97":2545756.9900000002,"ADDRESS":"中華路４８５巷１０號","OBJECTID":292367},"geometry":{"x":171211.24000000115,"y":2545756.9900000039}},{"attributes":{"ID":292376,"DIS_CODE":0,"TOWNNAME":"永康區","LI":"六合里","LIN":"17鄰","STREET":"中華路","SECT":" ","MAREA":" ","LANE":"４８５巷","ALLEY":" ","HOUSE_NO":"２號","E_COORD97":171231.51000000001,"N_COORD97":2545776.9900000002,"ADDRESS":"中華路４８５巷２號","OBJECTID":292368},"geometry":{"x":171231.50999999978,"y":2545776.9900000002}},{"attributes":{"ID":292377,"DIS_CODE":0,"TOWNNAME":"永康區","LI":"六合里","LIN":"17鄰","STREET":"中華路","SECT":" ","MAREA":" ","LANE":"４８５巷","ALLEY":" ","HOUSE_NO":"３號","E_COORD97":171230.06,"N_COORD97":2545765.2400000002,"ADDRESS":"中華路４８５巷３號","OBJECTID":292369},"geometry":{"x":171230.06000000052,"y":2545765.2399999984}},{"attributes":{"ID":292378,"DIS_CODE":0,"TOWNNAME":"永康區","LI":"六合里","LIN":"17鄰","STREET":"中華路","SECT":" ","MAREA":" ","LANE":"４８５巷","ALLEY":" ","HOUSE_NO":"４號","E_COORD97":171227.48000000001,"N_COORD97":2545774.9900000002,"ADDRESS":"中華路４８５巷４號","OBJECTID":292370},"geometry":{"x":171227.48000000045,"y":2545774.9900000021}},{"attributes":{"ID":292379,"DIS_CODE":0,"TOWNNAME":"永康區","LI":"六合里","LIN":"17鄰","STREET":"中華路","SECT":" ","MAREA":" ","LANE":"４８５巷","ALLEY":" ","HOUSE_NO":"５號","E_COORD97":171227.70999999999,"N_COORD97":2545761.9900000002,"ADDRESS":"中華路４８５巷５號","OBJECTID":292371},"geometry":{"x":171227.71000000183,"y":2545761.9900000021}},{"attributes":{"ID":292380,"DIS_CODE":0,"TOWNNAME":"永康區","LI":"六合里","LIN":"17鄰","STREET":"中華路","SECT":" ","MAREA":" ","LANE":"４８５巷","ALLEY":" ","HOUSE_NO":"６號","E_COORD97":171224.26000000001,"N_COORD97":2545772.7400000002,"ADDRESS":"中華路４８５巷６號","OBJECTID":292372},"geometry":{"x":171224.26000000071,"y":2545772.7400000021}},{"attributes":{"ID":292381,"DIS_CODE":0,"TOWNNAME":"永康區","LI":"六合里","LIN":"17鄰","STREET":"中華路","SECT":" ","MAREA":" ","LANE":"４８５巷","ALLEY":" ","HOUSE_NO":"７號","E_COORD97":171224.84,"N_COORD97":2545758.9900000002,"ADDRESS":"中華路４８５巷７號","OBJECTID":292373},"geometry":{"x":171224.84000000171,"y":2545758.9900000002}},{"attributes":{"ID":292382,"DIS_CODE":0,"TOWNNAME":"永康區","LI":"六合里","LIN":"17鄰","STREET":"中華路","SECT":" ","MAREA":" ","LANE":"４８５巷","ALLEY":" ","HOUSE_NO":"９號","E_COORD97":171221.5,"N_COORD97":2545756.2400000002,"ADDRESS":"中華路４８５巷９號","OBJECTID":292374},"geometry":{"x":171221.5,"y":2545756.2400000021}},{"attributes":{"ID":292383,"DIS_CODE":0,"TOWNNAME":"永康區","LI":"六合里","LIN":"17鄰","STREET":"中華路","SECT":" ","MAREA":" ","LANE":"４９７巷","ALLEY":" ","HOUSE_NO":"１１號","E_COORD97":171206.41,"N_COORD97":2545787.25,"ADDRESS":"中華路４９７巷１１號","OBJECTID":292375},"geometry":{"x":171206.41000000108,"y":2545787.25}},{"attributes":{"ID":292384,"DIS_CODE":0,"TOWNNAME":"安平區","LI":"文平里","LIN":"8鄰","STREET":"建平六街","SECT":" ","MAREA":" ","LANE":" ","ALLEY":" ","HOUSE_NO":"１１４號五樓之２","E_COORD97":166198.32000000001,"N_COORD97":2543142.2000000002,"ADDRESS":"建平六街１１４號五樓之２","OBJECTID":292376},"geometry":{"x":166198.32000000123,"y":2543142.2000000011}},{"attributes":{"ID":292385,"DIS_CODE":0,"TOWNNAME":"安平區","LI":"文平里","LIN":"8鄰","STREET":"建平六街","SECT":" ","MAREA":" ","LANE":" ","ALLEY":" ","HOUSE_NO":"１１４號五樓之３","E_COORD97":166198.32000000001,"N_COORD97":2543142.2000000002,"ADDRESS":"建平六街１１４號五樓之３","OBJECTID":292377},"geometry":{"x":166198.32000000123,"y":2543142.2000000011}},{"attributes":{"ID":292386,"DIS_CODE":0,"TOWNNAME":"安平區","LI":"文平里","LIN":"8鄰","STREET":"建平六街","SECT":" ","MAREA":" ","LANE":" ","ALLEY":" ","HOUSE_NO":"１１４號五樓之４","E_COORD97":166198.32000000001,"N_COORD97":2543142.2000000002,"ADDRESS":"建平六街１１４號五樓之４","OBJECTID":292378},"geometry":{"x":166198.32000000123,"y":2543142.2000000011}},{"attributes":{"ID":292387,"DIS_CODE":0,"TOWNNAME":"安平區","LI":"文平里","LIN":"8鄰","STREET":"建平六街","SECT":" ","MAREA":" ","LANE":" ","ALLEY":" ","HOUSE_NO":"１１４號五樓之５","E_COORD97":166198.32000000001,"N_COORD97":2543142.2000000002,"ADDRESS":"建平六街１１４號五樓之５","OBJECTID":292379},"geometry":{"x":166198.32000000123,"y":2543142.2000000011}},{"attributes":{"ID":292388,"DIS_CODE":0,"TOWNNAME":"安平區","LI":"文平里","LIN":"8鄰","STREET":"建平六街","SECT":" ","MAREA":" ","LANE":" ","ALLEY":" ","HOUSE_NO":"１１４號五樓之６","E_COORD97":166176.26999999999,"N_COORD97":2543144.21,"ADDRESS":"建平六街１１４號五樓之６","OBJECTID":292380},"geometry":{"x":166176.26999999955,"y":2543144.2100000009}},{"attributes":{"ID":292389,"DIS_CODE":0,"TOWNNAME":"安平區","LI":"文平里","LIN":"8鄰","STREET":"建平六街","SECT":" ","MAREA":" ","LANE":" ","ALLEY":" ","HOUSE_NO":"１１４號五樓之７","E_COORD97":166176.26999999999,"N_COORD97":2543144.21,"ADDRESS":"建平六街１１４號五樓之７","OBJECTID":292381},"geometry":{"x":166176.26999999955,"y":2543144.2100000009}},{"attributes":{"ID":292390,"DIS_CODE":0,"TOWNNAME":"安平區","LI":"文平里","LIN":"8鄰","STREET":"建平六街","SECT":" ","MAREA":" ","LANE":" ","ALLEY":" ","HOUSE_NO":"１１４號五樓之８","E_COORD97":166176.26999999999,"N_COORD97":2543144.21,"ADDRESS":"建平六街１１４號五樓之８","OBJECTID":292382},"geometry":{"x":166176.26999999955,"y":2543144.2100000009}},{"attributes":{"ID":292391,"DIS_CODE":0,"TOWNNAME":"安平區","LI":"文平里","LIN":"8鄰","STREET":"建平六街","SECT":" ","MAREA":" ","LANE":" ","ALLEY":" ","HOUSE_NO":"１１４號五樓之９","E_COORD97":166176.26999999999,"N_COORD97":2543144.21,"ADDRESS":"建平六街１１４號五樓之９","OBJECTID":292383},"geometry":{"x":166176.26999999955,"y":2543144.2100000009}},{"attributes":{"ID":292392,"DIS_CODE":0,"TOWNNAME":"永康區","LI":"永康里","LIN":"25鄰","STREET":"埔聖街","SECT":" ","MAREA":" ","LANE":"１６２巷","ALLEY":" ","HOUSE_NO":"１２號","E_COORD97":174122.41,"N_COORD97":2547598.7000000002,"ADDRESS":"埔聖街１６２巷１２號","OBJECTID":292384},"geometry":{"x":174122.41000000108,"y":2547598.6999999974}},{"attributes":{"ID":292393,"DIS_CODE":0,"TOWNNAME":"永康區","LI":"二王里","LIN":"13鄰","STREET":"永二街","SECT":" ","MAREA":" ","LANE":"４４７巷","ALLEY":" ","HOUSE_NO":"２號","E_COORD97":172707.84,"N_COORD97":2546654.29,"ADDRESS":"永二街４４７巷２號","OBJECTID":292385},"geometry":{"x":172707.83999999985,"y":2546654.2899999991}},{"attributes":{"ID":292394,"DIS_CODE":0,"TOWNNAME":"永康區","LI":"尚頂里","LIN":"4鄰","STREET":"正南一街","SECT":" ","MAREA":" ","LANE":"１９０巷","ALLEY":" ","HOUSE_NO":"３０號","E_COORD97":170750.20999999999,"N_COORD97":2547437.02,"ADDRESS":"正南一街１９０巷３０號","OBJECTID":292386},"geometry":{"x":170750.21000000089,"y":2547437.0199999996}},{"attributes":{"ID":292395,"DIS_CODE":0,"TOWNNAME":"永康區","LI":"復興里","LIN":"4鄰","STREET":"復興路","SECT":" ","MAREA":" ","LANE":"４２３巷","ALLEY":" ","HOUSE_NO":"７５號","E_COORD97":172222.03,"N_COORD97":2544246.5299999998,"ADDRESS":"復興路４２３巷７５號","OBJECTID":292387},"geometry":{"x":172222.03000000026,"y":2544246.5299999993}},{"attributes":{"ID":292396,"DIS_CODE":0,"TOWNNAME":"永康區","LI":"東灣里","LIN":"4鄰","STREET":"大灣路","SECT":" ","MAREA":" ","LANE":"４３６巷","ALLEY":" ","HOUSE_NO":"６８號","E_COORD97":174616.79000000001,"N_COORD97":2544984.75,"ADDRESS":"大灣路４３６巷６８號","OBJECTID":292388},"geometry":{"x":174616.79000000004,"y":2544984.75}},{"attributes":{"ID":292397,"DIS_CODE":0,"TOWNNAME":"永康區","LI":"甲頂里","LIN":" ","STREET":"大武街","SECT":" ","MAREA":" ","LANE":"５９７巷","ALLEY":" ","HOUSE_NO":"５６號","E_COORD97":170253.03,"N_COORD97":2546605.7400000002,"ADDRESS":"大武街５９７巷５６號","OBJECTID":292389},"geometry":{"x":170253.03000000119,"y":2546605.7400000002}},{"attributes":{"ID":292398,"DIS_CODE":0,"TOWNNAME":"永康區","LI":"埔園里","LIN":"13鄰","STREET":"中山路","SECT":" ","MAREA":" ","LANE":"２０７巷","ALLEY":" ","HOUSE_NO":"４號","E_COORD97":173633.34,"N_COORD97":2548111.25,"ADDRESS":"中山路２０７巷４號","OBJECTID":292390},"geometry":{"x":173633.33999999985,"y":2548111.2500000037}},{"attributes":{"ID":292399,"DIS_CODE":0,"TOWNNAME":"永康區","LI":"埔園里","LIN":"13鄰","STREET":"中山路","SECT":" ","MAREA":" ","LANE":"２０７巷","ALLEY":" ","HOUSE_NO":"５９號","E_COORD97":173549.98000000001,"N_COORD97":2548147.9900000002,"ADDRESS":"中山路２０７巷５９號","OBJECTID":292391},"geometry":{"x":173549.98000000045,"y":2548147.9900000021}},{"attributes":{"ID":292400,"DIS_CODE":0,"TOWNNAME":"七股區","LI":"義合里","LIN":"6鄰","STREET":" ","SECT":" ","MAREA":"義合","LANE":" ","ALLEY":" ","HOUSE_NO":"４６號之１","E_COORD97":162405.42626400001,"N_COORD97":2555898.9548599999,"ADDRESS":"義合４６號之１","OBJECTID":292392},"geometry":{"x":162405.42626400106,"y":2555898.9548630007}},{"attributes":{"ID":292401,"DIS_CODE":0,"TOWNNAME":"永康區","LI":"尚頂里","LIN":" ","STREET":"南台街","SECT":" ","MAREA":" ","LANE":"１５４巷","ALLEY":" ","HOUSE_NO":"１９８號","E_COORD97":170027.72,"N_COORD97":2547103.9900000002,"ADDRESS":"南台街１５４巷１９８號","OBJECTID":292393},"geometry":{"x":170027.72000000067,"y":2547103.9900000021}},{"attributes":{"ID":292402,"DIS_CODE":0,"TOWNNAME":"永康區","LI":"六合里","LIN":"17鄰","STREET":"中華路","SECT":" ","MAREA":" ","LANE":"４９７巷","ALLEY":" ","HOUSE_NO":"１號","E_COORD97":171215.32000000001,"N_COORD97":2545788.75,"ADDRESS":"中華路４９７巷１號","OBJECTID":292394},"geometry":{"x":171215.32000000216,"y":2545788.7499999981}},{"attributes":{"ID":292403,"DIS_CODE":0,"TOWNNAME":"永康區","LI":"六合里","LIN":"17鄰","STREET":"中華路","SECT":" ","MAREA":" ","LANE":"４９７巷","ALLEY":" ","HOUSE_NO":"３號","E_COORD97":171217.31,"N_COORD97":2545785,"ADDRESS":"中華路４９７巷３號","OBJECTID":292395},"geometry":{"x":171217.30999999959,"y":2545785.0000000019}},{"attributes":{"ID":292404,"DIS_CODE":0,"TOWNNAME":"永康區","LI":"六合里","LIN":"17鄰","STREET":"中華路","SECT":" ","MAREA":" ","LANE":"４９７巷","ALLEY":" ","HOUSE_NO":"７號","E_COORD97":171210.45999999999,"N_COORD97":2545780.7400000002,"ADDRESS":"中華路４９７巷７號","OBJECTID":292396},"geometry":{"x":171210.45999999996,"y":2545780.7400000021}},{"attributes":{"ID":292405,"DIS_CODE":0,"TOWNNAME":"永康區","LI":"六合里","LIN":"17鄰","STREET":"中華路","SECT":" ","MAREA":" ","LANE":"４９７巷","ALLEY":" ","HOUSE_NO":"９號","E_COORD97":171206.91,"N_COORD97":2545783.5,"ADDRESS":"中華路４９７巷９號","OBJECTID":292397},"geometry":{"x":171206.91000000108,"y":2545783.5}},{"attributes":{"ID":292406,"DIS_CODE":0,"TOWNNAME":"安平區","LI":"文平里","LIN":"8鄰","STREET":"建平六街","SECT":" ","MAREA":" ","LANE":" ","ALLEY":" ","HOUSE_NO":"１１４號六樓之１","E_COORD97":166198.32000000001,"N_COORD97":2543142.2000000002,"ADDRESS":"建平六街１１４號六樓之１","OBJECTID":292398},"geometry":{"x":166198.32000000123,"y":2543142.2000000011}},{"attributes":{"ID":292407,"DIS_CODE":0,"TOWNNAME":"安平區","LI":"文平里","LIN":"8鄰","STREET":"建平六街","SECT":" ","MAREA":" ","LANE":" ","ALLEY":" ","HOUSE_NO":"１１４號六樓之１０","E_COORD97":166176.26999999999,"N_COORD97":2543144.21,"ADDRESS":"建平六街１１４號六樓之１０","OBJECTID":292399},"geometry":{"x":166176.26999999955,"y":2543144.2100000009}},{"attributes":{"ID":292408,"DIS_CODE":0,"TOWNNAME":"安平區","LI":"文平里","LIN":"8鄰","STREET":"建平六街","SECT":" ","MAREA":" ","LANE":" ","ALLEY":" ","HOUSE_NO":"１１４號六樓之２","E_COORD97":166198.32000000001,"N_COORD97":2543142.2000000002,"ADDRESS":"建平六街１１４號六樓之２","OBJECTID":292400},"geometry":{"x":166198.32000000123,"y":2543142.2000000011}}]}