{"displayFieldName":"TOWNNAME","fieldAliases":{"ID":"ID","DIS_CODE":"DIS_CODE","TOWNNAME":"TOWNNAME","LI":"LI","LIN":"LIN","STREET":"STREET","SECT":"SECT","MAREA":"MAREA","LANE":"LANE","ALLEY":"ALLEY","HOUSE_NO":"HOUSE_NO","E_COORD97":"E_COORD97","N_COORD97":"N_COORD97","ADDRESS":"ADDRESS","OBJECTID":"OBJECTID"},"geometryType":"esriGeometryPoint","spatialReference":{"wkid":102443,"latestWkid":3826},"fields":[{"name":"ID","type":"esriFieldTypeDouble","alias":"ID"},{"name":"DIS_CODE","type":"esriFieldTypeInteger","alias":"DIS_CODE"},{"name":"TOWNNAME","type":"esriFieldTypeString","alias":"TOWNNAME","length":8},{"name":"LI","type":"esriFieldTypeString","alias":"LI","length":8},{"name":"LIN","type":"esriFieldTypeString","alias":"LIN","length":12},{"name":"STREET","type":"esriFieldTypeString","alias":"STREET","length":20},{"name":"SECT","type":"esriFieldTypeString","alias":"SECT","length":8},{"name":"MAREA","type":"esriFieldTypeString","alias":"MAREA","length":12},{"name":"LANE","type":"esriFieldTypeString","alias":"LANE","length":10},{"name":"ALLEY","type":"esriFieldTypeString","alias":"ALLEY","length":10},{"name":"HOUSE_NO","type":"esriFieldTypeString","alias":"HOUSE_NO","length":20},{"name":"E_COORD97","type":"esriFieldTypeDouble","alias":"E_COORD97"},{"name":"N_COORD97","type":"esriFieldTypeDouble","alias":"N_COORD97"},{"name":"ADDRESS","type":"esriFieldTypeString","alias":"ADDRESS","length":50},{"name":"OBJECTID","type":"esriFieldTypeOID","alias":"OBJECTID"}],"features":[{"attributes":{"ID":427426,"DIS_CODE":0,"TOWNNAME":"新化區","LI":"太平里","LIN":"4鄰","STREET":"中正路","SECT":" ","MAREA":" ","LANE":"５８０巷","ALLEY":" ","HOUSE_NO":"２號之８１","E_COORD97":178991.92000000001,"N_COORD97":2548975.3500000001,"ADDRESS":"中正路５８０巷２號之８１","OBJECTID":427401},"geometry":{"x":178991.92000000086,"y":2548975.3500000015}},{"attributes":{"ID":427427,"DIS_CODE":0,"TOWNNAME":"新化區","LI":"太平里","LIN":"4鄰","STREET":"中正路","SECT":" ","MAREA":" ","LANE":"５８０巷","ALLEY":" ","HOUSE_NO":"２號之８２","E_COORD97":178996.04000000001,"N_COORD97":2548977.3599999999,"ADDRESS":"中正路５８０巷２號之８２","OBJECTID":427402},"geometry":{"x":178996.03999999911,"y":2548977.3599999994}},{"attributes":{"ID":427428,"DIS_CODE":0,"TOWNNAME":"新化區","LI":"太平里","LIN":"4鄰","STREET":"中正路","SECT":" ","MAREA":" ","LANE":"５８０巷","ALLEY":" ","HOUSE_NO":"２號之８３","E_COORD97":179000.14000000001,"N_COORD97":2548979.3599999999,"ADDRESS":"中正路５８０巷２號之８３","OBJECTID":427403},"geometry":{"x":179000.14000000153,"y":2548979.3600000013}},{"attributes":{"ID":427429,"DIS_CODE":0,"TOWNNAME":"新化區","LI":"太平里","LIN":"4鄰","STREET":"中正路","SECT":" ","MAREA":" ","LANE":"５８０巷","ALLEY":" ","HOUSE_NO":"２號之８５","E_COORD97":179004.28,"N_COORD97":2548981.3799999999,"ADDRESS":"中正路５８０巷２號之８５","OBJECTID":427404},"geometry":{"x":179004.28000000026,"y":2548981.3800000008}},{"attributes":{"ID":427430,"DIS_CODE":0,"TOWNNAME":"新化區","LI":"太平里","LIN":"4鄰","STREET":"中正路","SECT":" ","MAREA":" ","LANE":"５８０巷","ALLEY":" ","HOUSE_NO":"２號之８６","E_COORD97":179008.42000000001,"N_COORD97":2548983.4100000001,"ADDRESS":"中正路５８０巷２號之８６","OBJECTID":427405},"geometry":{"x":179008.41999999993,"y":2548983.410000002}},{"attributes":{"ID":427431,"DIS_CODE":0,"TOWNNAME":"新化區","LI":"太平里","LIN":"4鄰","STREET":"中正路","SECT":" ","MAREA":" ","LANE":"５８０巷","ALLEY":" ","HOUSE_NO":"２號之８７","E_COORD97":179012.56,"N_COORD97":2548985.4300000002,"ADDRESS":"中正路５８０巷２號之８７","OBJECTID":427406},"geometry":{"x":179012.56000000145,"y":2548985.4300000016}},{"attributes":{"ID":427432,"DIS_CODE":0,"TOWNNAME":"新化區","LI":"太平里","LIN":"4鄰","STREET":"中正路","SECT":" ","MAREA":" ","LANE":"５８０巷","ALLEY":" ","HOUSE_NO":"２號之８８","E_COORD97":179019.51999999999,"N_COORD97":2548982.4700000002,"ADDRESS":"中正路５８０巷２號之８８","OBJECTID":427407},"geometry":{"x":179019.52000000142,"y":2548982.4700000025}},{"attributes":{"ID":427433,"DIS_CODE":0,"TOWNNAME":"新化區","LI":"太平里","LIN":"4鄰","STREET":"中正路","SECT":" ","MAREA":" ","LANE":"５８０巷","ALLEY":" ","HOUSE_NO":"２號之８９","E_COORD97":179021.76999999999,"N_COORD97":2548991.2799999998,"ADDRESS":"中正路５８０巷２號之８９","OBJECTID":427408},"geometry":{"x":179021.77000000048,"y":2548991.2799999993}},{"attributes":{"ID":427434,"DIS_CODE":0,"TOWNNAME":"新化區","LI":"太平里","LIN":"4鄰","STREET":"中正路","SECT":" ","MAREA":" ","LANE":"５８０巷","ALLEY":" ","HOUSE_NO":"２號之９０","E_COORD97":179011.39000000001,"N_COORD97":2549007.9300000002,"ADDRESS":"中正路５８０巷２號之９０","OBJECTID":427409},"geometry":{"x":179011.38999999966,"y":2549007.9299999997}},{"attributes":{"ID":427435,"DIS_CODE":0,"TOWNNAME":"新化區","LI":"太平里","LIN":"4鄰","STREET":"中正路","SECT":" ","MAREA":" ","LANE":"５８０巷","ALLEY":" ","HOUSE_NO":"２號之９１","E_COORD97":179005.26999999999,"N_COORD97":2549007.8500000001,"ADDRESS":"中正路５８０巷２號之９１","OBJECTID":427410},"geometry":{"x":179005.26999999955,"y":2549007.8499999996}},{"attributes":{"ID":427436,"DIS_CODE":0,"TOWNNAME":"新化區","LI":"太平里","LIN":"4鄰","STREET":"中正路","SECT":" ","MAREA":" ","LANE":"５８０巷","ALLEY":" ","HOUSE_NO":"２號之９２","E_COORD97":179001.26000000001,"N_COORD97":2549005.6000000001,"ADDRESS":"中正路５８０巷２號之９２","OBJECTID":427411},"geometry":{"x":179001.26000000164,"y":2549005.5999999996}},{"attributes":{"ID":427437,"DIS_CODE":0,"TOWNNAME":"新化區","LI":"太平里","LIN":"4鄰","STREET":"中正路","SECT":" ","MAREA":" ","LANE":"５８０巷","ALLEY":" ","HOUSE_NO":"２號之９３","E_COORD97":178997.23999999999,"N_COORD97":2549003.3599999999,"ADDRESS":"中正路５８０巷２號之９３","OBJECTID":427412},"geometry":{"x":178997.24000000115,"y":2549003.3599999994}},{"attributes":{"ID":427438,"DIS_CODE":0,"TOWNNAME":"新化區","LI":"太平里","LIN":"4鄰","STREET":"中正路","SECT":" ","MAREA":" ","LANE":"５８０巷","ALLEY":" ","HOUSE_NO":"２號之９５","E_COORD97":178993.23000000001,"N_COORD97":2549001.1099999999,"ADDRESS":"中正路５８０巷２號之９５","OBJECTID":427413},"geometry":{"x":178993.23000000045,"y":2549001.1100000013}},{"attributes":{"ID":427439,"DIS_CODE":0,"TOWNNAME":"新化區","LI":"太平里","LIN":"4鄰","STREET":"中正路","SECT":" ","MAREA":" ","LANE":"５８０巷","ALLEY":" ","HOUSE_NO":"２號之９６","E_COORD97":178989.22,"N_COORD97":2548998.8599999999,"ADDRESS":"中正路５８０巷２號之９６","OBJECTID":427414},"geometry":{"x":178989.21999999974,"y":2548998.8600000013}},{"attributes":{"ID":427440,"DIS_CODE":0,"TOWNNAME":"新化區","LI":"太平里","LIN":"4鄰","STREET":"中正路","SECT":" ","MAREA":" ","LANE":"５８０巷","ALLEY":" ","HOUSE_NO":"２號之９７","E_COORD97":178985.20000000001,"N_COORD97":2548996.6200000001,"ADDRESS":"中正路５８０巷２號之９７","OBJECTID":427415},"geometry":{"x":178985.20000000205,"y":2548996.620000001}},{"attributes":{"ID":427441,"DIS_CODE":0,"TOWNNAME":"仁德區","LI":"仁德里","LIN":"14鄰","STREET":"四維街","SECT":" ","MAREA":" ","LANE":"８巷","ALLEY":" ","HOUSE_NO":"１０號","E_COORD97":173322.09,"N_COORD97":2541574,"ADDRESS":"四維街８巷１０號","OBJECTID":427416},"geometry":{"x":173322.09000000078,"y":2541574.0000000019}},{"attributes":{"ID":427442,"DIS_CODE":0,"TOWNNAME":"新化區","LI":"太平里","LIN":"4鄰","STREET":"中正路","SECT":" ","MAREA":" ","LANE":"５８０巷","ALLEY":" ","HOUSE_NO":"２號之９８","E_COORD97":178981.19,"N_COORD97":2548994.3700000001,"ADDRESS":"中正路５８０巷２號之９８","OBJECTID":427417},"geometry":{"x":178981.19000000041,"y":2548994.3700000029}},{"attributes":{"ID":427443,"DIS_CODE":0,"TOWNNAME":"新化區","LI":"太平里","LIN":"4鄰","STREET":"中正路","SECT":" ","MAREA":" ","LANE":"５８０巷","ALLEY":" ","HOUSE_NO":"２號之９９","E_COORD97":178977.17000000001,"N_COORD97":2548992.1299999999,"ADDRESS":"中正路５８０巷２號之９９","OBJECTID":427418},"geometry":{"x":178977.17000000086,"y":2548992.129999999}},{"attributes":{"ID":427444,"DIS_CODE":0,"TOWNNAME":"新化區","LI":"太平里","LIN":"4鄰","STREET":"中正路","SECT":" ","MAREA":" ","LANE":"５８０巷","ALLEY":" ","HOUSE_NO":"２號之１００","E_COORD97":178973.48000000001,"N_COORD97":2548987.9199999999,"ADDRESS":"中正路５８０巷２號之１００","OBJECTID":427419},"geometry":{"x":178973.48000000138,"y":2548987.9199999999}},{"attributes":{"ID":427445,"DIS_CODE":0,"TOWNNAME":"善化區","LI":"坐駕里","LIN":"13鄰","STREET":"信義路","SECT":" ","MAREA":" ","LANE":"７１巷","ALLEY":" ","HOUSE_NO":"２３號","E_COORD97":178220.57000000001,"N_COORD97":2558699.75,"ADDRESS":"信義路７１巷２３號","OBJECTID":427420},"geometry":{"x":178220.57000000123,"y":2558699.7500000037}},{"attributes":{"ID":427446,"DIS_CODE":0,"TOWNNAME":"中西區","LI":"三合里","LIN":"4鄰","STREET":"忠孝街","SECT":" ","MAREA":" ","LANE":"９８巷","ALLEY":" ","HOUSE_NO":"２２號","E_COORD97":167746.35999999999,"N_COORD97":2544486.4700000002,"ADDRESS":"忠孝街９８巷２２號","OBJECTID":427421},"geometry":{"x":167746.36000000034,"y":2544486.4700000044}},{"attributes":{"ID":427447,"DIS_CODE":0,"TOWNNAME":"中西區","LI":"三合里","LIN":"4鄰","STREET":"忠孝街","SECT":" ","MAREA":" ","LANE":"９８巷","ALLEY":" ","HOUSE_NO":"２３號","E_COORD97":167753.23999999999,"N_COORD97":2544489.1200000001,"ADDRESS":"忠孝街９８巷２３號","OBJECTID":427422},"geometry":{"x":167753.24000000115,"y":2544489.1200000048}},{"attributes":{"ID":427448,"DIS_CODE":0,"TOWNNAME":"中西區","LI":"三合里","LIN":"4鄰","STREET":"忠孝街","SECT":" ","MAREA":" ","LANE":"９８巷","ALLEY":" ","HOUSE_NO":"２４號","E_COORD97":167748.73999999999,"N_COORD97":2544484.3599999999,"ADDRESS":"忠孝街９８巷２４號","OBJECTID":427423},"geometry":{"x":167748.74000000022,"y":2544484.3599999994}},{"attributes":{"ID":427449,"DIS_CODE":0,"TOWNNAME":"中西區","LI":"三合里","LIN":"4鄰","STREET":"忠孝街","SECT":" ","MAREA":" ","LANE":"９８巷","ALLEY":" ","HOUSE_NO":"２號","E_COORD97":167717.17999999999,"N_COORD97":2544506.4700000002,"ADDRESS":"忠孝街９８巷２號","OBJECTID":427424},"geometry":{"x":167717.18000000063,"y":2544506.4700000044}},{"attributes":{"ID":427450,"DIS_CODE":0,"TOWNNAME":"中西區","LI":"三合里","LIN":"4鄰","STREET":"忠孝街","SECT":" ","MAREA":" ","LANE":"９８巷","ALLEY":" ","HOUSE_NO":"３號","E_COORD97":167729.17000000001,"N_COORD97":2544507.3500000001,"ADDRESS":"忠孝街９８巷３號","OBJECTID":427425},"geometry":{"x":167729.17000000086,"y":2544507.3500000015}},{"attributes":{"ID":427451,"DIS_CODE":0,"TOWNNAME":"中西區","LI":"三合里","LIN":"4鄰","STREET":"忠孝街","SECT":" ","MAREA":" ","LANE":"９８巷","ALLEY":" ","HOUSE_NO":"４號","E_COORD97":167719.82000000001,"N_COORD97":2544504.6200000001,"ADDRESS":"忠孝街９８巷４號","OBJECTID":427426},"geometry":{"x":167719.82000000216,"y":2544504.620000001}},{"attributes":{"ID":427452,"DIS_CODE":0,"TOWNNAME":"中西區","LI":"三合里","LIN":"4鄰","STREET":"忠孝街","SECT":" ","MAREA":" ","LANE":"９８巷","ALLEY":" ","HOUSE_NO":"６號","E_COORD97":167726.26000000001,"N_COORD97":2544499.9500000002,"ADDRESS":"忠孝街９８巷６號","OBJECTID":427427},"geometry":{"x":167726.25999999978,"y":2544499.9500000011}},{"attributes":{"ID":427453,"DIS_CODE":0,"TOWNNAME":"善化區","LI":"坐駕里","LIN":"13鄰","STREET":"信義路","SECT":" ","MAREA":" ","LANE":"７１巷","ALLEY":" ","HOUSE_NO":"１５號","E_COORD97":178241.85000000001,"N_COORD97":2558703.25,"ADDRESS":"信義路７１巷１５號","OBJECTID":427428},"geometry":{"x":178241.84999999963,"y":2558703.2500000019}},{"attributes":{"ID":427454,"DIS_CODE":0,"TOWNNAME":"中西區","LI":"三合里","LIN":"4鄰","STREET":"忠孝街","SECT":" ","MAREA":" ","LANE":"９８巷","ALLEY":" ","HOUSE_NO":"７號","E_COORD97":167733.39999999999,"N_COORD97":2544503.6499999999,"ADDRESS":"忠孝街９８巷７號","OBJECTID":427429},"geometry":{"x":167733.4000000013,"y":2544503.6500000004}},{"attributes":{"ID":427455,"DIS_CODE":0,"TOWNNAME":"中西區","LI":"三合里","LIN":"4鄰","STREET":"忠孝街","SECT":" ","MAREA":" ","LANE":"９８巷","ALLEY":" ","HOUSE_NO":"８號","E_COORD97":167728.91,"N_COORD97":2544498.2799999998,"ADDRESS":"忠孝街９８巷８號","OBJECTID":427430},"geometry":{"x":167728.91000000015,"y":2544498.2799999993}},{"attributes":{"ID":427456,"DIS_CODE":0,"TOWNNAME":"中西區","LI":"三合里","LIN":"4鄰","STREET":"忠孝街","SECT":" ","MAREA":" ","LANE":"９８巷","ALLEY":" ","HOUSE_NO":"９號","E_COORD97":167736.48999999999,"N_COORD97":2544502.3300000001,"ADDRESS":"忠孝街９８巷９號","OBJECTID":427431},"geometry":{"x":167736.49000000022,"y":2544502.3300000001}},{"attributes":{"ID":427457,"DIS_CODE":0,"TOWNNAME":"中西區","LI":"三合里","LIN":"4鄰","STREET":"忠孝街","SECT":" ","MAREA":" ","LANE":"７８巷","ALLEY":" ","HOUSE_NO":"１０號","E_COORD97":167729.45000000001,"N_COORD97":2544454.9399999999,"ADDRESS":"忠孝街７８巷１０號","OBJECTID":427432},"geometry":{"x":167729.45000000112,"y":2544454.9400000032}},{"attributes":{"ID":427458,"DIS_CODE":0,"TOWNNAME":"中西區","LI":"三合里","LIN":"4鄰","STREET":"忠孝街","SECT":" ","MAREA":" ","LANE":"７８巷","ALLEY":" ","HOUSE_NO":"１號","E_COORD97":167702.45000000001,"N_COORD97":2544479.1600000001,"ADDRESS":"忠孝街７８巷１號","OBJECTID":427433},"geometry":{"x":167702.45000000112,"y":2544479.160000002}},{"attributes":{"ID":427459,"DIS_CODE":0,"TOWNNAME":"中西區","LI":"三合里","LIN":"4鄰","STREET":"忠孝街","SECT":" ","MAREA":" ","LANE":"７８巷","ALLEY":" ","HOUSE_NO":"３號","E_COORD97":167709.42000000001,"N_COORD97":2544473.0800000001,"ADDRESS":"忠孝街７８巷３號","OBJECTID":427434},"geometry":{"x":167709.42000000086,"y":2544473.0800000001}},{"attributes":{"ID":427460,"DIS_CODE":0,"TOWNNAME":"中西區","LI":"三合里","LIN":"4鄰","STREET":"忠孝街","SECT":" ","MAREA":" ","LANE":"７８巷","ALLEY":" ","HOUSE_NO":"５號","E_COORD97":167713.56,"N_COORD97":2544470.0899999999,"ADDRESS":"忠孝街７８巷５號","OBJECTID":427435},"geometry":{"x":167713.55999999959,"y":2544470.0899999999}},{"attributes":{"ID":427461,"DIS_CODE":0,"TOWNNAME":"中西區","LI":"三合里","LIN":"4鄰","STREET":"忠孝街","SECT":" ","MAREA":" ","LANE":"７８巷","ALLEY":" ","HOUSE_NO":"７號","E_COORD97":167716.20000000001,"N_COORD97":2544468.5,"ADDRESS":"忠孝街７８巷７號","OBJECTID":427436},"geometry":{"x":167716.20000000112,"y":2544468.5000000037}},{"attributes":{"ID":427462,"DIS_CODE":0,"TOWNNAME":"中西區","LI":"三合里","LIN":"4鄰","STREET":"忠孝街","SECT":" ","MAREA":" ","LANE":"７８巷","ALLEY":" ","HOUSE_NO":"９號","E_COORD97":167720.26000000001,"N_COORD97":2544466.3900000001,"ADDRESS":"忠孝街７８巷９號","OBJECTID":427437},"geometry":{"x":167720.26000000071,"y":2544466.3900000043}},{"attributes":{"ID":427463,"DIS_CODE":0,"TOWNNAME":"中西區","LI":"三合里","LIN":"4鄰","STREET":"忠孝街","SECT":" ","MAREA":" ","LANE":"９０巷","ALLEY":" ","HOUSE_NO":"１０號","E_COORD97":167728.45999999999,"N_COORD97":2544475.4199999999,"ADDRESS":"忠孝街９０巷１０號","OBJECTID":427438},"geometry":{"x":167728.45999999996,"y":2544475.4199999981}},{"attributes":{"ID":427464,"DIS_CODE":0,"TOWNNAME":"中西區","LI":"三合里","LIN":"4鄰","STREET":"忠孝街","SECT":" ","MAREA":" ","LANE":"９０巷","ALLEY":" ","HOUSE_NO":"１１號","E_COORD97":167734.45000000001,"N_COORD97":2544483.8799999999,"ADDRESS":"忠孝街９０巷１１號","OBJECTID":427439},"geometry":{"x":167734.45000000112,"y":2544483.879999999}},{"attributes":{"ID":427465,"DIS_CODE":0,"TOWNNAME":"中西區","LI":"三合里","LIN":"4鄰","STREET":"忠孝街","SECT":" ","MAREA":" ","LANE":"９０巷","ALLEY":" ","HOUSE_NO":"１２號","E_COORD97":167731.63,"N_COORD97":2544473.1299999999,"ADDRESS":"忠孝街９０巷１２號","OBJECTID":427440},"geometry":{"x":167731.63000000082,"y":2544473.1300000027}},{"attributes":{"ID":427466,"DIS_CODE":0,"TOWNNAME":"中西區","LI":"三合里","LIN":"4鄰","STREET":"忠孝街","SECT":" ","MAREA":" ","LANE":"９０巷","ALLEY":" ","HOUSE_NO":"１３號","E_COORD97":167737.35999999999,"N_COORD97":2544482.1200000001,"ADDRESS":"忠孝街９０巷１３號","OBJECTID":427441},"geometry":{"x":167737.36000000127,"y":2544482.1200000048}},{"attributes":{"ID":427467,"DIS_CODE":0,"TOWNNAME":"中西區","LI":"三合里","LIN":"4鄰","STREET":"忠孝街","SECT":" ","MAREA":" ","LANE":"９０巷","ALLEY":" ","HOUSE_NO":"１５號","E_COORD97":167740.89000000001,"N_COORD97":2544480.1800000002,"ADDRESS":"忠孝街９０巷１５號","OBJECTID":427442},"geometry":{"x":167740.8900000006,"y":2544480.1799999978}},{"attributes":{"ID":427468,"DIS_CODE":0,"TOWNNAME":"中西區","LI":"三合里","LIN":"4鄰","STREET":"忠孝街","SECT":" ","MAREA":" ","LANE":"９０巷","ALLEY":" ","HOUSE_NO":"２號","E_COORD97":167717.35000000001,"N_COORD97":2544484.5,"ADDRESS":"忠孝街９０巷２號","OBJECTID":427443},"geometry":{"x":167717.35000000149,"y":2544484.5}},{"attributes":{"ID":427469,"DIS_CODE":0,"TOWNNAME":"中西區","LI":"三合里","LIN":"4鄰","STREET":"忠孝街","SECT":" ","MAREA":" ","LANE":"９０巷","ALLEY":" ","HOUSE_NO":"３號","E_COORD97":167723.17000000001,"N_COORD97":2544492.8700000001,"ADDRESS":"忠孝街９０巷３號","OBJECTID":427444},"geometry":{"x":167723.16999999993,"y":2544492.870000001}},{"attributes":{"ID":427470,"DIS_CODE":0,"TOWNNAME":"中西區","LI":"三合里","LIN":"4鄰","STREET":"忠孝街","SECT":" ","MAREA":" ","LANE":"９０巷","ALLEY":" ","HOUSE_NO":"４號","E_COORD97":167719.73000000001,"N_COORD97":2544481.77,"ADDRESS":"忠孝街９０巷４號","OBJECTID":427445},"geometry":{"x":167719.73000000138,"y":2544481.7699999996}},{"attributes":{"ID":427471,"DIS_CODE":0,"TOWNNAME":"中西區","LI":"三合里","LIN":"4鄰","STREET":"忠孝街","SECT":" ","MAREA":" ","LANE":"９０巷","ALLEY":" ","HOUSE_NO":"５號","E_COORD97":167725.73000000001,"N_COORD97":2544490.5800000001,"ADDRESS":"忠孝街９０巷５號","OBJECTID":427446},"geometry":{"x":167725.73000000231,"y":2544490.5800000001}},{"attributes":{"ID":427472,"DIS_CODE":0,"TOWNNAME":"中西區","LI":"三合里","LIN":"4鄰","STREET":"忠孝街","SECT":" ","MAREA":" ","LANE":"９０巷","ALLEY":" ","HOUSE_NO":"６號","E_COORD97":167723.35000000001,"N_COORD97":2544480.0099999998,"ADDRESS":"忠孝街９０巷６號","OBJECTID":427447},"geometry":{"x":167723.34999999963,"y":2544480.0099999998}},{"attributes":{"ID":427473,"DIS_CODE":0,"TOWNNAME":"中西區","LI":"三合里","LIN":"4鄰","STREET":"忠孝街","SECT":" ","MAREA":" ","LANE":"９０巷","ALLEY":" ","HOUSE_NO":"７號","E_COORD97":167728.63,"N_COORD97":2544488.73,"ADDRESS":"忠孝街９０巷７號","OBJECTID":427448},"geometry":{"x":167728.62999999989,"y":2544488.7300000023}},{"attributes":{"ID":427474,"DIS_CODE":0,"TOWNNAME":"永康區","LI":"崑山里","LIN":"40鄰","STREET":"崑山街","SECT":" ","MAREA":" ","LANE":" ","ALLEY":" ","HOUSE_NO":"２３８號","E_COORD97":174114.10999999999,"N_COORD97":2545077.9900000002,"ADDRESS":"崑山街２３８號","OBJECTID":427449},"geometry":{"x":174114.11000000127,"y":2545077.9900000002}},{"attributes":{"ID":427475,"DIS_CODE":0,"TOWNNAME":"南區","LI":"文華里","LIN":"25鄰","STREET":"敬南街","SECT":" ","MAREA":" ","LANE":"４０巷","ALLEY":" ","HOUSE_NO":"５號","E_COORD97":166869.01000000001,"N_COORD97":2542904.5800000001,"ADDRESS":"敬南街４０巷５號","OBJECTID":427450},"geometry":{"x":166869.01000000071,"y":2542904.5800000001}},{"attributes":{"ID":427476,"DIS_CODE":0,"TOWNNAME":"中西區","LI":"三合里","LIN":"4鄰","STREET":"忠孝街","SECT":" ","MAREA":" ","LANE":"９０巷","ALLEY":" ","HOUSE_NO":"８號","E_COORD97":167726.07999999999,"N_COORD97":2544477.3599999999,"ADDRESS":"忠孝街９０巷８號","OBJECTID":427451},"geometry":{"x":167726.08000000007,"y":2544477.3599999994}},{"attributes":{"ID":427477,"DIS_CODE":0,"TOWNNAME":"中西區","LI":"三合里","LIN":"4鄰","STREET":"忠孝街","SECT":" ","MAREA":" ","LANE":"９０巷","ALLEY":" ","HOUSE_NO":"９號","E_COORD97":167731.37,"N_COORD97":2544486.2599999998,"ADDRESS":"忠孝街９０巷９號","OBJECTID":427452},"geometry":{"x":167731.37000000104,"y":2544486.2599999998}},{"attributes":{"ID":427478,"DIS_CODE":0,"TOWNNAME":"中西區","LI":"元安里","LIN":"4鄰","STREET":"西門路","SECT":"一段","MAREA":" ","LANE":"７１５巷","ALLEY":" ","HOUSE_NO":"５號","E_COORD97":167683.25,"N_COORD97":2543273.1800000002,"ADDRESS":"西門路一段７１５巷５號","OBJECTID":427453},"geometry":{"x":167683.25000000093,"y":2543273.1799999978}},{"attributes":{"ID":427479,"DIS_CODE":0,"TOWNNAME":"中西區","LI":"元安里","LIN":"4鄰","STREET":"西門路","SECT":"一段","MAREA":" ","LANE":"７１５巷","ALLEY":" ","HOUSE_NO":"７號","E_COORD97":167683.94,"N_COORD97":2543276.3799999999,"ADDRESS":"西門路一段７１５巷７號","OBJECTID":427454},"geometry":{"x":167683.94000000134,"y":2543276.3800000008}},{"attributes":{"ID":427480,"DIS_CODE":0,"TOWNNAME":"中西區","LI":"元安里","LIN":"4鄰","STREET":"西門路","SECT":"一段","MAREA":" ","LANE":"７１５巷","ALLEY":" ","HOUSE_NO":"８號","E_COORD97":167667.20999999999,"N_COORD97":2543294.75,"ADDRESS":"西門路一段７１５巷８號","OBJECTID":427455},"geometry":{"x":167667.20999999996,"y":2543294.7500000019}},{"attributes":{"ID":427481,"DIS_CODE":0,"TOWNNAME":"中西區","LI":"元安里","LIN":"4鄰","STREET":"西門路","SECT":"一段","MAREA":" ","LANE":"７１５巷","ALLEY":" ","HOUSE_NO":"９號","E_COORD97":167685.13,"N_COORD97":2543282.1099999999,"ADDRESS":"西門路一段７１５巷９號","OBJECTID":427456},"geometry":{"x":167685.13000000175,"y":2543282.1099999994}},{"attributes":{"ID":427482,"DIS_CODE":0,"TOWNNAME":"中西區","LI":"元安里","LIN":"4鄰","STREET":"西門路","SECT":"一段","MAREA":" ","LANE":"７４３巷","ALLEY":" ","HOUSE_NO":"１１號","E_COORD97":167670.35999999999,"N_COORD97":2543306.1200000001,"ADDRESS":"西門路一段７４３巷１１號","OBJECTID":427457},"geometry":{"x":167670.3599999994,"y":2543306.1200000029}},{"attributes":{"ID":427483,"DIS_CODE":0,"TOWNNAME":"中西區","LI":"元安里","LIN":"4鄰","STREET":"西門路","SECT":"一段","MAREA":" ","LANE":"７４３巷","ALLEY":" ","HOUSE_NO":"１３號","E_COORD97":167664.84,"N_COORD97":2543305.3900000001,"ADDRESS":"西門路一段７４３巷１３號","OBJECTID":427458},"geometry":{"x":167664.83999999985,"y":2543305.3900000006}},{"attributes":{"ID":427484,"DIS_CODE":0,"TOWNNAME":"中西區","LI":"元安里","LIN":"4鄰","STREET":"西門路","SECT":"一段","MAREA":" ","LANE":"７４３巷","ALLEY":" ","HOUSE_NO":"１５號","E_COORD97":167661.82999999999,"N_COORD97":2543306.04,"ADDRESS":"西門路一段７４３巷１５號","OBJECTID":427459},"geometry":{"x":167661.82999999914,"y":2543306.0399999991}},{"attributes":{"ID":427485,"DIS_CODE":0,"TOWNNAME":"中西區","LI":"元安里","LIN":"4鄰","STREET":"西門路","SECT":"一段","MAREA":" ","LANE":"７４３巷","ALLEY":" ","HOUSE_NO":"１７號","E_COORD97":167658.98999999999,"N_COORD97":2543306.2000000002,"ADDRESS":"西門路一段７４３巷１７號","OBJECTID":427460},"geometry":{"x":167658.99000000022,"y":2543306.1999999993}},{"attributes":{"ID":427486,"DIS_CODE":0,"TOWNNAME":"中西區","LI":"元安里","LIN":"4鄰","STREET":"西門路","SECT":"一段","MAREA":" ","LANE":"７４３巷","ALLEY":" ","HOUSE_NO":"２１號","E_COORD97":167654.76000000001,"N_COORD97":2543309.2000000002,"ADDRESS":"西門路一段７４３巷２１號","OBJECTID":427461},"geometry":{"x":167654.75999999978,"y":2543309.1999999993}},{"attributes":{"ID":427487,"DIS_CODE":0,"TOWNNAME":"白河區","LI":"外角里","LIN":"4鄰","STREET":"開明街","SECT":" ","MAREA":" ","LANE":"１２７巷","ALLEY":" ","HOUSE_NO":"８號","E_COORD97":190602.78,"N_COORD97":2583172.8900000001,"ADDRESS":"開明街１２７巷８號","OBJECTID":427462},"geometry":{"x":190602.78000000026,"y":2583172.8900000006}},{"attributes":{"ID":427488,"DIS_CODE":0,"TOWNNAME":"中西區","LI":"元安里","LIN":"4鄰","STREET":"西門路","SECT":"一段","MAREA":" ","LANE":"７４３巷","ALLEY":" ","HOUSE_NO":"２３號","E_COORD97":167649.07000000001,"N_COORD97":2543299.29,"ADDRESS":"西門路一段７４３巷２３號","OBJECTID":427463},"geometry":{"x":167649.07000000123,"y":2543299.2900000028}},{"attributes":{"ID":427489,"DIS_CODE":0,"TOWNNAME":"中西區","LI":"元安里","LIN":"4鄰","STREET":"西門路","SECT":"一段","MAREA":" ","LANE":"７４３巷","ALLEY":" ","HOUSE_NO":"２５號","E_COORD97":167644.85000000001,"N_COORD97":2543299.4399999999,"ADDRESS":"西門路一段７４３巷２５號","OBJECTID":427464},"geometry":{"x":167644.85000000056,"y":2543299.4400000013}},{"attributes":{"ID":427490,"DIS_CODE":0,"TOWNNAME":"安南區","LI":"新順里","LIN":"4鄰","STREET":"安生街","SECT":" ","MAREA":" ","LANE":"１７１巷","ALLEY":" ","HOUSE_NO":"１號","E_COORD97":169383.57000000001,"N_COORD97":2549512.6899999999,"ADDRESS":"安生街１７１巷１號","OBJECTID":427465},"geometry":{"x":169383.57000000123,"y":2549512.6900000013}},{"attributes":{"ID":427491,"DIS_CODE":0,"TOWNNAME":"善化區","LI":"光文里","LIN":"26鄰","STREET":"中山路","SECT":" ","MAREA":" ","LANE":"２４０巷","ALLEY":" ","HOUSE_NO":"１號之４９","E_COORD97":178114.53,"N_COORD97":2559252.54,"ADDRESS":"中山路２４０巷１號之４９","OBJECTID":427466},"geometry":{"x":178114.53000000026,"y":2559252.5400000028}},{"attributes":{"ID":427492,"DIS_CODE":0,"TOWNNAME":"善化區","LI":"文正里","LIN":"4鄰","STREET":"文正路","SECT":" ","MAREA":" ","LANE":"７９巷","ALLEY":" ","HOUSE_NO":"２號之２","E_COORD97":177125.57000000001,"N_COORD97":2559344.98,"ADDRESS":"文正路７９巷２號之２","OBJECTID":427467},"geometry":{"x":177125.57000000123,"y":2559344.9800000004}},{"attributes":{"ID":427493,"DIS_CODE":0,"TOWNNAME":"善化區","LI":"文正里","LIN":"4鄰","STREET":"文正路","SECT":" ","MAREA":" ","LANE":"７９巷","ALLEY":" ","HOUSE_NO":"３號之２","E_COORD97":177113.67000000001,"N_COORD97":2559341.9300000002,"ADDRESS":"文正路７９巷３號之２","OBJECTID":427468},"geometry":{"x":177113.67000000086,"y":2559341.9299999978}},{"attributes":{"ID":427494,"DIS_CODE":0,"TOWNNAME":"安南區","LI":"溪北里","LIN":"4鄰","STREET":"文安街","SECT":" ","MAREA":" ","LANE":"２８巷","ALLEY":" ","HOUSE_NO":"１號","E_COORD97":169405.70999999999,"N_COORD97":2547535.1299999999,"ADDRESS":"文安街２８巷１號","OBJECTID":427469},"geometry":{"x":169405.71000000089,"y":2547535.1300000008}},{"attributes":{"ID":427495,"DIS_CODE":0,"TOWNNAME":"南區","LI":"同安里","LIN":"4鄰","STREET":"明興路","SECT":" ","MAREA":" ","LANE":"１２７５巷","ALLEY":" ","HOUSE_NO":"２６號","E_COORD97":166476.10000000001,"N_COORD97":2536030.54,"ADDRESS":"明興路１２７５巷２６號","OBJECTID":427470},"geometry":{"x":166476.09999999963,"y":2536030.5399999991}},{"attributes":{"ID":427496,"DIS_CODE":0,"TOWNNAME":"南區","LI":"同安里","LIN":"4鄰","STREET":"明興路","SECT":" ","MAREA":" ","LANE":"１２７５巷","ALLEY":" ","HOUSE_NO":"２８號","E_COORD97":166479.70000000001,"N_COORD97":2536025.9199999999,"ADDRESS":"明興路１２７５巷２８號","OBJECTID":427471},"geometry":{"x":166479.70000000205,"y":2536025.9199999999}},{"attributes":{"ID":427497,"DIS_CODE":0,"TOWNNAME":"南區","LI":"同安里","LIN":"4鄰","STREET":"明興路","SECT":" ","MAREA":" ","LANE":"１２７５巷","ALLEY":" ","HOUSE_NO":"３０號","E_COORD97":166484.66,"N_COORD97":2536029.3399999999,"ADDRESS":"明興路１２７５巷３０號","OBJECTID":427472},"geometry":{"x":166484.66000000015,"y":2536029.3399999999}},{"attributes":{"ID":427498,"DIS_CODE":0,"TOWNNAME":"南區","LI":"同安里","LIN":"4鄰","STREET":"明興路","SECT":" ","MAREA":" ","LANE":"１２７５巷","ALLEY":" ","HOUSE_NO":"３２號","E_COORD97":166488.09,"N_COORD97":2536024.3900000001,"ADDRESS":"明興路１２７５巷３２號","OBJECTID":427473},"geometry":{"x":166488.08999999985,"y":2536024.3900000043}},{"attributes":{"ID":427499,"DIS_CODE":0,"TOWNNAME":"南區","LI":"同安里","LIN":"4鄰","STREET":"明興路","SECT":" ","MAREA":" ","LANE":"１２７５巷","ALLEY":" ","HOUSE_NO":"３４號","E_COORD97":166492.54000000001,"N_COORD97":2536027.6299999999,"ADDRESS":"明興路１２７５巷３４號","OBJECTID":427474},"geometry":{"x":166492.5400000019,"y":2536027.6300000027}},{"attributes":{"ID":427500,"DIS_CODE":0,"TOWNNAME":"南區","LI":"同安里","LIN":"4鄰","STREET":"明興路","SECT":" ","MAREA":" ","LANE":"１２７５巷","ALLEY":" ","HOUSE_NO":"３６號","E_COORD97":166496.26999999999,"N_COORD97":2536022.8500000001,"ADDRESS":"明興路１２７５巷３６號","OBJECTID":427475},"geometry":{"x":166496.27000000048,"y":2536022.8499999996}},{"attributes":{"ID":427501,"DIS_CODE":0,"TOWNNAME":"南區","LI":"同安里","LIN":"4鄰","STREET":"明興路","SECT":" ","MAREA":" ","LANE":"１２７５巷","ALLEY":" ","HOUSE_NO":"４０號","E_COORD97":166504.70000000001,"N_COORD97":2536022.8100000001,"ADDRESS":"明興路１２７５巷４０號","OBJECTID":427476},"geometry":{"x":166504.70000000019,"y":2536022.8100000024}},{"attributes":{"ID":427502,"DIS_CODE":0,"TOWNNAME":"南區","LI":"同安里","LIN":"4鄰","STREET":"明興路","SECT":" ","MAREA":" ","LANE":"１２７５巷","ALLEY":" ","HOUSE_NO":"４２號","E_COORD97":166508.22,"N_COORD97":2536019.52,"ADDRESS":"明興路１２７５巷４２號","OBJECTID":427477},"geometry":{"x":166508.22000000067,"y":2536019.5200000014}},{"attributes":{"ID":427503,"DIS_CODE":0,"TOWNNAME":"南區","LI":"同安里","LIN":"4鄰","STREET":"明興路","SECT":" ","MAREA":" ","LANE":"１２７５巷","ALLEY":" ","HOUSE_NO":"４４號","E_COORD97":166512.92000000001,"N_COORD97":2536022.5699999998,"ADDRESS":"明興路１２７５巷４４號","OBJECTID":427478},"geometry":{"x":166512.91999999993,"y":2536022.5699999984}},{"attributes":{"ID":427504,"DIS_CODE":0,"TOWNNAME":"南區","LI":"同安里","LIN":"4鄰","STREET":"明興路","SECT":" ","MAREA":" ","LANE":"１２７５巷","ALLEY":" ","HOUSE_NO":"４６號","E_COORD97":166516.20999999999,"N_COORD97":2536018.3500000001,"ADDRESS":"明興路１２７５巷４６號","OBJECTID":427479},"geometry":{"x":166516.20999999996,"y":2536018.3500000015}},{"attributes":{"ID":427505,"DIS_CODE":0,"TOWNNAME":"南區","LI":"同安里","LIN":"4鄰","STREET":"明興路","SECT":" ","MAREA":" ","LANE":"１２７５巷","ALLEY":" ","HOUSE_NO":"４８號","E_COORD97":166521.37,"N_COORD97":2536020.9300000002,"ADDRESS":"明興路１２７５巷４８號","OBJECTID":427480},"geometry":{"x":166521.37000000104,"y":2536020.9300000016}},{"attributes":{"ID":427506,"DIS_CODE":0,"TOWNNAME":"南區","LI":"同安里","LIN":"4鄰","STREET":"明興路","SECT":" ","MAREA":" ","LANE":"１２８５巷","ALLEY":" ","HOUSE_NO":"１號","E_COORD97":166417.44,"N_COORD97":2536027.1899999999,"ADDRESS":"明興路１２８５巷１號","OBJECTID":427481},"geometry":{"x":166417.44000000134,"y":2536027.1899999995}},{"attributes":{"ID":427507,"DIS_CODE":0,"TOWNNAME":"南區","LI":"同安里","LIN":"4鄰","STREET":"明興路","SECT":" ","MAREA":" ","LANE":"１２８５巷","ALLEY":" ","HOUSE_NO":"３號","E_COORD97":166435.39999999999,"N_COORD97":2536017.6499999999,"ADDRESS":"明興路１２８５巷３號","OBJECTID":427482},"geometry":{"x":166435.40000000037,"y":2536017.6500000004}},{"attributes":{"ID":427508,"DIS_CODE":0,"TOWNNAME":"南區","LI":"同安里","LIN":"4鄰","STREET":"明興路","SECT":" ","MAREA":" ","LANE":"１２８５巷","ALLEY":" ","HOUSE_NO":"５號","E_COORD97":166440.57000000001,"N_COORD97":2536015.0699999998,"ADDRESS":"明興路１２８５巷５號","OBJECTID":427483},"geometry":{"x":166440.57000000123,"y":2536015.0700000003}},{"attributes":{"ID":427509,"DIS_CODE":0,"TOWNNAME":"南區","LI":"同安里","LIN":"4鄰","STREET":"明興路","SECT":" ","MAREA":" ","LANE":"１２８５巷","ALLEY":" ","HOUSE_NO":"７號","E_COORD97":166446.44,"N_COORD97":2536013.8900000001,"ADDRESS":"明興路１２８５巷７號","OBJECTID":427484},"geometry":{"x":166446.44000000134,"y":2536013.8899999987}},{"attributes":{"ID":427510,"DIS_CODE":0,"TOWNNAME":"南區","LI":"同安里","LIN":"4鄰","STREET":"明興路","SECT":" ","MAREA":" ","LANE":"１２８５巷","ALLEY":" ","HOUSE_NO":"９號","E_COORD97":166450.44,"N_COORD97":2536006.3900000001,"ADDRESS":"明興路１２８５巷９號","OBJECTID":427485},"geometry":{"x":166450.44000000041,"y":2536006.3900000006}},{"attributes":{"ID":427511,"DIS_CODE":0,"TOWNNAME":"南區","LI":"同安里","LIN":"4鄰","STREET":"明興路","SECT":" ","MAREA":" ","LANE":"１２８５巷","ALLEY":" ","HOUSE_NO":"１１號","E_COORD97":166456.78,"N_COORD97":2536009.4399999999,"ADDRESS":"明興路１２８５巷１１號","OBJECTID":427486},"geometry":{"x":166456.78000000026,"y":2536009.4400000032}},{"attributes":{"ID":427512,"DIS_CODE":0,"TOWNNAME":"南區","LI":"同安里","LIN":"4鄰","STREET":"明興路","SECT":" ","MAREA":" ","LANE":"１２８５巷","ALLEY":" ","HOUSE_NO":"１３號","E_COORD97":166460.76999999999,"N_COORD97":2536004.27,"ADDRESS":"明興路１２８５巷１３號","OBJECTID":427487},"geometry":{"x":166460.76999999955,"y":2536004.2700000014}},{"attributes":{"ID":427513,"DIS_CODE":0,"TOWNNAME":"南區","LI":"同安里","LIN":"4鄰","STREET":"明興路","SECT":" ","MAREA":" ","LANE":"１２８５巷","ALLEY":" ","HOUSE_NO":"１５號","E_COORD97":166465.47,"N_COORD97":2536009.4399999999,"ADDRESS":"明興路１２８５巷１５號","OBJECTID":427488},"geometry":{"x":166465.4700000016,"y":2536009.4400000032}},{"attributes":{"ID":427514,"DIS_CODE":0,"TOWNNAME":"南區","LI":"同安里","LIN":"4鄰","STREET":"明興路","SECT":" ","MAREA":" ","LANE":"１２８５巷","ALLEY":" ","HOUSE_NO":"１７號","E_COORD97":166473.45000000001,"N_COORD97":2536007.5600000001,"ADDRESS":"明興路１２８５巷１７號","OBJECTID":427489},"geometry":{"x":166473.45000000112,"y":2536007.5600000024}},{"attributes":{"ID":427515,"DIS_CODE":0,"TOWNNAME":"南區","LI":"同安里","LIN":"4鄰","STREET":"明興路","SECT":" ","MAREA":" ","LANE":"１２８５巷","ALLEY":" ","HOUSE_NO":"１９號","E_COORD97":166477.20999999999,"N_COORD97":2536003.1000000001,"ADDRESS":"明興路１２８５巷１９號","OBJECTID":427490},"geometry":{"x":166477.20999999996,"y":2536003.1000000015}},{"attributes":{"ID":427516,"DIS_CODE":0,"TOWNNAME":"南區","LI":"同安里","LIN":"4鄰","STREET":"明興路","SECT":" ","MAREA":" ","LANE":"１２８５巷","ALLEY":" ","HOUSE_NO":"２１號","E_COORD97":166481.67999999999,"N_COORD97":2536006.1499999999,"ADDRESS":"明興路１２８５巷２１號","OBJECTID":427491},"geometry":{"x":166481.68000000063,"y":2536006.1500000022}},{"attributes":{"ID":427517,"DIS_CODE":0,"TOWNNAME":"南區","LI":"同安里","LIN":"4鄰","STREET":"明興路","SECT":" ","MAREA":" ","LANE":"１２８５巷","ALLEY":" ","HOUSE_NO":"２３號","E_COORD97":166485.67000000001,"N_COORD97":2536001.6899999999,"ADDRESS":"明興路１２８５巷２３號","OBJECTID":427492},"geometry":{"x":166485.66999999993,"y":2536001.6900000013}},{"attributes":{"ID":427518,"DIS_CODE":0,"TOWNNAME":"南區","LI":"同安里","LIN":"4鄰","STREET":"明興路","SECT":" ","MAREA":" ","LANE":"１２８５巷","ALLEY":" ","HOUSE_NO":"２５號","E_COORD97":166490.84,"N_COORD97":2536004.98,"ADDRESS":"明興路１２８５巷２５號","OBJECTID":427493},"geometry":{"x":166490.84000000078,"y":2536004.9800000004}},{"attributes":{"ID":427519,"DIS_CODE":0,"TOWNNAME":"南區","LI":"同安里","LIN":"4鄰","STREET":"明興路","SECT":" ","MAREA":" ","LANE":"１２８５巷","ALLEY":" ","HOUSE_NO":"２７號","E_COORD97":166494.35999999999,"N_COORD97":2536002.3999999999,"ADDRESS":"明興路１２８５巷２７號","OBJECTID":427494},"geometry":{"x":166494.36000000127,"y":2536002.4000000004}},{"attributes":{"ID":427520,"DIS_CODE":0,"TOWNNAME":"南區","LI":"同安里","LIN":"4鄰","STREET":"明興路","SECT":" ","MAREA":" ","LANE":"１２８５巷","ALLEY":" ","HOUSE_NO":"２９號","E_COORD97":166497.64999999999,"N_COORD97":2536001.23,"ADDRESS":"明興路１２８５巷２９號","OBJECTID":427495},"geometry":{"x":166497.6500000013,"y":2536001.2300000004}},{"attributes":{"ID":427521,"DIS_CODE":0,"TOWNNAME":"南區","LI":"同安里","LIN":"4鄰","STREET":"明興路","SECT":" ","MAREA":" ","LANE":"１２８５巷","ALLEY":" ","HOUSE_NO":"３１號","E_COORD97":166501.88,"N_COORD97":2535999.1099999999,"ADDRESS":"明興路１２８５巷３１號","OBJECTID":427496},"geometry":{"x":166501.88000000175,"y":2535999.1100000013}},{"attributes":{"ID":427522,"DIS_CODE":0,"TOWNNAME":"南區","LI":"同安里","LIN":"4鄰","STREET":"明興路","SECT":" ","MAREA":" ","LANE":"１２８５巷","ALLEY":" ","HOUSE_NO":"３３號","E_COORD97":166506.10999999999,"N_COORD97":2535996.77,"ADDRESS":"明興路１２８５巷３３號","OBJECTID":427497},"geometry":{"x":166506.11000000127,"y":2535996.7699999977}},{"attributes":{"ID":427523,"DIS_CODE":0,"TOWNNAME":"南區","LI":"同安里","LIN":"4鄰","STREET":"明興路","SECT":" ","MAREA":" ","LANE":"１２８５巷","ALLEY":" ","HOUSE_NO":"３５號","E_COORD97":166510.32999999999,"N_COORD97":2535998.8799999999,"ADDRESS":"明興路１２８５巷３５號","OBJECTID":427498},"geometry":{"x":166510.33000000007,"y":2535998.8800000027}},{"attributes":{"ID":427524,"DIS_CODE":0,"TOWNNAME":"南區","LI":"同安里","LIN":"4鄰","STREET":"明興路","SECT":" ","MAREA":" ","LANE":"１２８５巷","ALLEY":" ","HOUSE_NO":"３７號","E_COORD97":166514.09,"N_COORD97":2535996.0600000001,"ADDRESS":"明興路１２８５巷３７號","OBJECTID":427499},"geometry":{"x":166514.09000000171,"y":2535996.0600000042}},{"attributes":{"ID":427525,"DIS_CODE":0,"TOWNNAME":"南區","LI":"同安里","LIN":"4鄰","STREET":"明興路","SECT":" ","MAREA":" ","LANE":"１２８５巷","ALLEY":" ","HOUSE_NO":"３９號","E_COORD97":166518.32000000001,"N_COORD97":2535997,"ADDRESS":"明興路１２８５巷３９號","OBJECTID":427500},"geometry":{"x":166518.32000000123,"y":2535997.0000000019}},{"attributes":{"ID":427526,"DIS_CODE":0,"TOWNNAME":"南區","LI":"同安里","LIN":"4鄰","STREET":"明興路","SECT":" ","MAREA":" ","LANE":"１２８５巷","ALLEY":" ","HOUSE_NO":"４１號","E_COORD97":166522.07999999999,"N_COORD97":2535993.7200000002,"ADDRESS":"明興路１２８５巷４１號","OBJECTID":427501},"geometry":{"x":166522.08000000007,"y":2535993.7200000007}},{"attributes":{"ID":427527,"DIS_CODE":0,"TOWNNAME":"南區","LI":"同安里","LIN":"4鄰","STREET":"明興路","SECT":" ","MAREA":" ","LANE":"１２８５巷","ALLEY":" ","HOUSE_NO":"４３號","E_COORD97":166526.78,"N_COORD97":2535995.8300000001,"ADDRESS":"明興路１２８５巷４３號","OBJECTID":427502},"geometry":{"x":166526.78000000212,"y":2535995.8300000001}},{"attributes":{"ID":427528,"DIS_CODE":0,"TOWNNAME":"南區","LI":"明德里","LIN":"4鄰","STREET":"大成路","SECT":"一段","MAREA":" ","LANE":"１９３巷","ALLEY":" ","HOUSE_NO":"１３０號","E_COORD97":167953.56,"N_COORD97":2541629.8700000001,"ADDRESS":"大成路一段１９３巷１３０號","OBJECTID":427503},"geometry":{"x":167953.56000000052,"y":2541629.8700000029}},{"attributes":{"ID":427529,"DIS_CODE":0,"TOWNNAME":"南區","LI":"明德里","LIN":"4鄰","STREET":"大成路","SECT":"一段","MAREA":" ","LANE":"１９３巷","ALLEY":" ","HOUSE_NO":"１３１號","E_COORD97":167966.26000000001,"N_COORD97":2541631.7799999998,"ADDRESS":"大成路一段１９３巷１３１號","OBJECTID":427504},"geometry":{"x":167966.26000000071,"y":2541631.7800000012}},{"attributes":{"ID":427530,"DIS_CODE":0,"TOWNNAME":"南區","LI":"明德里","LIN":"4鄰","STREET":"大成路","SECT":"一段","MAREA":" ","LANE":"１９３巷","ALLEY":" ","HOUSE_NO":"１３２號","E_COORD97":167971.81,"N_COORD97":2541631.7799999998,"ADDRESS":"大成路一段１９３巷１３２號","OBJECTID":427505},"geometry":{"x":167971.81000000145,"y":2541631.7800000012}},{"attributes":{"ID":427531,"DIS_CODE":0,"TOWNNAME":"南區","LI":"明德里","LIN":"4鄰","STREET":"大成路","SECT":"一段","MAREA":" ","LANE":"１９３巷","ALLEY":" ","HOUSE_NO":"１３３號","E_COORD97":167976.73000000001,"N_COORD97":2541631.6200000001,"ADDRESS":"大成路一段１９３巷１３３號","OBJECTID":427506},"geometry":{"x":167976.73000000138,"y":2541631.6200000029}},{"attributes":{"ID":427532,"DIS_CODE":0,"TOWNNAME":"南區","LI":"明德里","LIN":"4鄰","STREET":"大成路","SECT":"一段","MAREA":" ","LANE":"１９３巷","ALLEY":" ","HOUSE_NO":"１３４號","E_COORD97":167982.13,"N_COORD97":2541631.7799999998,"ADDRESS":"大成路一段１９３巷１３４號","OBJECTID":427507},"geometry":{"x":167982.13000000082,"y":2541631.7800000012}},{"attributes":{"ID":427533,"DIS_CODE":0,"TOWNNAME":"善化區","LI":"北關里","LIN":"8鄰","STREET":"公園路","SECT":" ","MAREA":" ","LANE":"４３２巷","ALLEY":" ","HOUSE_NO":"１５號","E_COORD97":177350.75,"N_COORD97":2559304.5800000001,"ADDRESS":"公園路４３２巷１５號","OBJECTID":427508},"geometry":{"x":177350.75000000093,"y":2559304.5800000019}},{"attributes":{"ID":427534,"DIS_CODE":0,"TOWNNAME":"善化區","LI":"北關里","LIN":"8鄰","STREET":"公園路","SECT":" ","MAREA":" ","LANE":"４３２巷","ALLEY":" ","HOUSE_NO":"１７號","E_COORD97":177355.17000000001,"N_COORD97":2559303.73,"ADDRESS":"公園路４３２巷１７號","OBJECTID":427509},"geometry":{"x":177355.16999999993,"y":2559303.7300000042}},{"attributes":{"ID":427535,"DIS_CODE":0,"TOWNNAME":"善化區","LI":"北關里","LIN":"8鄰","STREET":"公園路","SECT":" ","MAREA":" ","LANE":"４３２巷","ALLEY":" ","HOUSE_NO":"１９號","E_COORD97":177359.59,"N_COORD97":2559302.8799999999,"ADDRESS":"公園路４３２巷１９號","OBJECTID":427510},"geometry":{"x":177359.58999999985,"y":2559302.879999999}},{"attributes":{"ID":427536,"DIS_CODE":0,"TOWNNAME":"善化區","LI":"北關里","LIN":"8鄰","STREET":"公園路","SECT":" ","MAREA":" ","LANE":"４３２巷","ALLEY":" ","HOUSE_NO":"２１號","E_COORD97":177364.01000000001,"N_COORD97":2559302.0299999998,"ADDRESS":"公園路４３２巷２１號","OBJECTID":427511},"geometry":{"x":177364.01000000071,"y":2559302.0300000012}},{"attributes":{"ID":427537,"DIS_CODE":0,"TOWNNAME":"善化區","LI":"北關里","LIN":"8鄰","STREET":"公園路","SECT":" ","MAREA":" ","LANE":"４３２巷","ALLEY":" ","HOUSE_NO":"２３號","E_COORD97":177368.42999999999,"N_COORD97":2559301.1800000002,"ADDRESS":"公園路４３２巷２３號","OBJECTID":427512},"geometry":{"x":177368.4299999997,"y":2559301.1800000016}},{"attributes":{"ID":427538,"DIS_CODE":0,"TOWNNAME":"善化區","LI":"北關里","LIN":"8鄰","STREET":"公園路","SECT":" ","MAREA":" ","LANE":"４３２巷","ALLEY":" ","HOUSE_NO":"２５號","E_COORD97":177372.85000000001,"N_COORD97":2559300.3300000001,"ADDRESS":"公園路４３２巷２５號","OBJECTID":427513},"geometry":{"x":177372.84999999963,"y":2559300.3300000019}},{"attributes":{"ID":427539,"DIS_CODE":0,"TOWNNAME":"善化區","LI":"北關里","LIN":"8鄰","STREET":"公園路","SECT":" ","MAREA":" ","LANE":"４３２巷","ALLEY":" ","HOUSE_NO":"２７號","E_COORD97":177377.10000000001,"N_COORD97":2559298.0899999999,"ADDRESS":"公園路４３２巷２７號","OBJECTID":427514},"geometry":{"x":177377.10000000056,"y":2559298.0900000017}},{"attributes":{"ID":427540,"DIS_CODE":0,"TOWNNAME":"東區","LI":"仁和里","LIN":"4鄰","STREET":"仁和路","SECT":" ","MAREA":" ","LANE":"１０９巷","ALLEY":" ","HOUSE_NO":"４２號","E_COORD97":171485.53,"N_COORD97":2541321.3700000001,"ADDRESS":"仁和路１０９巷４２號","OBJECTID":427515},"geometry":{"x":171485.53000000119,"y":2541321.3700000029}},{"attributes":{"ID":427541,"DIS_CODE":0,"TOWNNAME":"東區","LI":"仁和里","LIN":"4鄰","STREET":"仁和路","SECT":" ","MAREA":" ","LANE":"１０９巷","ALLEY":" ","HOUSE_NO":"４６號","E_COORD97":171494.64999999999,"N_COORD97":2541321.1499999999,"ADDRESS":"仁和路１０９巷４６號","OBJECTID":427516},"geometry":{"x":171494.65000000224,"y":2541321.1500000004}},{"attributes":{"ID":427542,"DIS_CODE":0,"TOWNNAME":"東區","LI":"仁和里","LIN":"4鄰","STREET":"仁和路","SECT":" ","MAREA":" ","LANE":"１０９巷","ALLEY":" ","HOUSE_NO":"４８號","E_COORD97":171500.17000000001,"N_COORD97":2541320.3100000001,"ADDRESS":"仁和路１０９巷４８號","OBJECTID":427517},"geometry":{"x":171500.16999999993,"y":2541320.3099999987}},{"attributes":{"ID":427543,"DIS_CODE":0,"TOWNNAME":"東區","LI":"仁和里","LIN":"4鄰","STREET":"仁和路","SECT":" ","MAREA":" ","LANE":"１０９巷","ALLEY":" ","HOUSE_NO":"５０號","E_COORD97":171505.04999999999,"N_COORD97":2541319.8799999999,"ADDRESS":"仁和路１０９巷５０號","OBJECTID":427518},"geometry":{"x":171505.05000000075,"y":2541319.8800000008}},{"attributes":{"ID":427544,"DIS_CODE":0,"TOWNNAME":"東區","LI":"仁和里","LIN":"4鄰","STREET":"仁和路","SECT":" ","MAREA":" ","LANE":"１０９巷","ALLEY":" ","HOUSE_NO":"５２號","E_COORD97":171509.72,"N_COORD97":2541319.25,"ADDRESS":"仁和路１０９巷５２號","OBJECTID":427519},"geometry":{"x":171509.71999999974,"y":2541319.25}},{"attributes":{"ID":427545,"DIS_CODE":0,"TOWNNAME":"東區","LI":"仁和里","LIN":"4鄰","STREET":"仁和路","SECT":" ","MAREA":" ","LANE":"１０９巷","ALLEY":" ","HOUSE_NO":"５４號","E_COORD97":171514.82000000001,"N_COORD97":2541319.0299999998,"ADDRESS":"仁和路１０９巷５４號","OBJECTID":427520},"geometry":{"x":171514.8200000003,"y":2541319.0300000012}},{"attributes":{"ID":427546,"DIS_CODE":0,"TOWNNAME":"東區","LI":"仁和里","LIN":"4鄰","STREET":"仁和路","SECT":" ","MAREA":" ","LANE":"１０９巷","ALLEY":" ","HOUSE_NO":"５６號","E_COORD97":171520.12,"N_COORD97":2541319.25,"ADDRESS":"仁和路１０９巷５６號","OBJECTID":427521},"geometry":{"x":171520.12000000104,"y":2541319.25}},{"attributes":{"ID":427547,"DIS_CODE":0,"TOWNNAME":"東區","LI":"仁和里","LIN":"4鄰","STREET":"仁和路","SECT":" ","MAREA":" ","LANE":"１０９巷","ALLEY":" ","HOUSE_NO":"５８號","E_COORD97":171525,"N_COORD97":2541318.1899999999,"ADDRESS":"仁和路１０９巷５８號","OBJECTID":427522},"geometry":{"x":171525,"y":2541318.1900000013}},{"attributes":{"ID":427548,"DIS_CODE":0,"TOWNNAME":"東區","LI":"仁和里","LIN":"4鄰","STREET":"仁和路","SECT":" ","MAREA":" ","LANE":"１０９巷","ALLEY":" ","HOUSE_NO":"４７號","E_COORD97":171480.22,"N_COORD97":2541339.6000000001,"ADDRESS":"仁和路１０９巷４７號","OBJECTID":427523},"geometry":{"x":171480.22000000067,"y":2541339.6000000015}},{"attributes":{"ID":427549,"DIS_CODE":0,"TOWNNAME":"東區","LI":"仁和里","LIN":"4鄰","STREET":"仁和路","SECT":" ","MAREA":" ","LANE":"１０９巷","ALLEY":" ","HOUSE_NO":"４９號","E_COORD97":171485.32000000001,"N_COORD97":2541339.1800000002,"ADDRESS":"仁和路１０９巷４９號","OBJECTID":427524},"geometry":{"x":171485.32000000123,"y":2541339.1800000016}},{"attributes":{"ID":427550,"DIS_CODE":0,"TOWNNAME":"東區","LI":"仁和里","LIN":"4鄰","STREET":"仁和路","SECT":" ","MAREA":" ","LANE":"１０９巷","ALLEY":" ","HOUSE_NO":"５１號","E_COORD97":171489.76999999999,"N_COORD97":2541337.8999999999,"ADDRESS":"仁和路１０９巷５１號","OBJECTID":427525},"geometry":{"x":171489.77000000048,"y":2541337.9000000022}},{"attributes":{"ID":427551,"DIS_CODE":0,"TOWNNAME":"東區","LI":"仁和里","LIN":"4鄰","STREET":"仁和路","SECT":" ","MAREA":" ","LANE":"１０９巷","ALLEY":" ","HOUSE_NO":"５３號","E_COORD97":171495.29000000001,"N_COORD97":2541339.1800000002,"ADDRESS":"仁和路１０９巷５３號","OBJECTID":427526},"geometry":{"x":171495.29000000097,"y":2541339.1800000016}},{"attributes":{"ID":427552,"DIS_CODE":0,"TOWNNAME":"東區","LI":"仁和里","LIN":"4鄰","STREET":"仁和路","SECT":" ","MAREA":" ","LANE":"１０９巷","ALLEY":" ","HOUSE_NO":"５５號","E_COORD97":171499.32000000001,"N_COORD97":2541337.27,"ADDRESS":"仁和路１０９巷５５號","OBJECTID":427527},"geometry":{"x":171499.3200000003,"y":2541337.2700000014}},{"attributes":{"ID":427553,"DIS_CODE":0,"TOWNNAME":"東區","LI":"仁和里","LIN":"4鄰","STREET":"仁和路","SECT":" ","MAREA":" ","LANE":"１０９巷","ALLEY":" ","HOUSE_NO":"５７號","E_COORD97":171504.84,"N_COORD97":2541337.8999999999,"ADDRESS":"仁和路１０９巷５７號","OBJECTID":427528},"geometry":{"x":171504.84000000078,"y":2541337.9000000022}},{"attributes":{"ID":427554,"DIS_CODE":0,"TOWNNAME":"東區","LI":"仁和里","LIN":"4鄰","STREET":"仁和路","SECT":" ","MAREA":" ","LANE":"１０９巷","ALLEY":" ","HOUSE_NO":"５９號","E_COORD97":171510.14999999999,"N_COORD97":2541337.0600000001,"ADDRESS":"仁和路１０９巷５９號","OBJECTID":427529},"geometry":{"x":171510.1500000013,"y":2541337.0600000024}},{"attributes":{"ID":427555,"DIS_CODE":0,"TOWNNAME":"東區","LI":"仁和里","LIN":"4鄰","STREET":"仁和路","SECT":" ","MAREA":" ","LANE":"１０９巷","ALLEY":" ","HOUSE_NO":"６１號","E_COORD97":171515.23999999999,"N_COORD97":2541337.0600000001,"ADDRESS":"仁和路１０９巷６１號","OBJECTID":427530},"geometry":{"x":171515.24000000022,"y":2541337.0600000024}},{"attributes":{"ID":427556,"DIS_CODE":0,"TOWNNAME":"東區","LI":"仁和里","LIN":"4鄰","STREET":"仁和路","SECT":" ","MAREA":" ","LANE":"１０９巷","ALLEY":" ","HOUSE_NO":"６３號","E_COORD97":171519.91,"N_COORD97":2541336.4199999999,"ADDRESS":"仁和路１０９巷６３號","OBJECTID":427531},"geometry":{"x":171519.91000000108,"y":2541336.4200000018}},{"attributes":{"ID":427557,"DIS_CODE":0,"TOWNNAME":"東區","LI":"仁和里","LIN":"4鄰","STREET":"仁和路","SECT":" ","MAREA":" ","LANE":"１０９巷","ALLEY":" ","HOUSE_NO":"６５號","E_COORD97":171525.22,"N_COORD97":2541335.5699999998,"ADDRESS":"仁和路１０９巷６５號","OBJECTID":427532},"geometry":{"x":171525.21999999974,"y":2541335.570000004}},{"attributes":{"ID":427558,"DIS_CODE":0,"TOWNNAME":"東區","LI":"仁和里","LIN":"4鄰","STREET":"仁和路","SECT":" ","MAREA":" ","LANE":"１０９巷","ALLEY":" ","HOUSE_NO":"６０號","E_COORD97":171538.48000000001,"N_COORD97":2541318.6400000001,"ADDRESS":"仁和路１０９巷６０號","OBJECTID":427533},"geometry":{"x":171538.48000000138,"y":2541318.6400000043}},{"attributes":{"ID":427559,"DIS_CODE":0,"TOWNNAME":"東區","LI":"仁和里","LIN":"4鄰","STREET":"仁和路","SECT":" ","MAREA":" ","LANE":"１０９巷","ALLEY":" ","HOUSE_NO":"６２號","E_COORD97":171543.76000000001,"N_COORD97":2541317.77,"ADDRESS":"仁和路１０９巷６２號","OBJECTID":427534},"geometry":{"x":171543.75999999978,"y":2541317.7700000014}},{"attributes":{"ID":427560,"DIS_CODE":0,"TOWNNAME":"東區","LI":"仁和里","LIN":"4鄰","STREET":"仁和路","SECT":" ","MAREA":" ","LANE":"１０９巷","ALLEY":" ","HOUSE_NO":"６４號","E_COORD97":171548.17999999999,"N_COORD97":2541316.7000000002,"ADDRESS":"仁和路１０９巷６４號","OBJECTID":427535},"geometry":{"x":171548.18000000063,"y":2541316.700000003}},{"attributes":{"ID":427561,"DIS_CODE":0,"TOWNNAME":"東區","LI":"仁和里","LIN":"4鄰","STREET":"仁和路","SECT":" ","MAREA":" ","LANE":"１０９巷","ALLEY":" ","HOUSE_NO":"６６號","E_COORD97":171552.73000000001,"N_COORD97":2541315.1499999999,"ADDRESS":"仁和路１０９巷６６號","OBJECTID":427536},"geometry":{"x":171552.73000000045,"y":2541315.1500000022}},{"attributes":{"ID":427562,"DIS_CODE":0,"TOWNNAME":"東區","LI":"仁和里","LIN":"4鄰","STREET":"仁和路","SECT":" ","MAREA":" ","LANE":"１０９巷","ALLEY":" ","HOUSE_NO":"６８號","E_COORD97":171558.10999999999,"N_COORD97":2541315.0299999998,"ADDRESS":"仁和路１０９巷６８號","OBJECTID":427537},"geometry":{"x":171558.11000000127,"y":2541315.0300000012}},{"attributes":{"ID":427563,"DIS_CODE":0,"TOWNNAME":"東區","LI":"仁和里","LIN":"4鄰","STREET":"仁和路","SECT":" ","MAREA":" ","LANE":"１０９巷","ALLEY":" ","HOUSE_NO":"７０號","E_COORD97":171562.76999999999,"N_COORD97":2541313.5899999999,"ADDRESS":"仁和路１０９巷７０號","OBJECTID":427538},"geometry":{"x":171562.77000000048,"y":2541313.5899999999}},{"attributes":{"ID":427564,"DIS_CODE":0,"TOWNNAME":"東區","LI":"仁和里","LIN":"4鄰","STREET":"仁和路","SECT":" ","MAREA":" ","LANE":"１０９巷","ALLEY":" ","HOUSE_NO":"７２號","E_COORD97":171567.91,"N_COORD97":2541313.8300000001,"ADDRESS":"仁和路１０９巷７２號","OBJECTID":427539},"geometry":{"x":171567.91000000108,"y":2541313.8300000019}},{"attributes":{"ID":427565,"DIS_CODE":0,"TOWNNAME":"東區","LI":"仁和里","LIN":"4鄰","STREET":"仁和路","SECT":" ","MAREA":" ","LANE":"１０９巷","ALLEY":" ","HOUSE_NO":"７４號","E_COORD97":171572.57000000001,"N_COORD97":2541313,"ADDRESS":"仁和路１０９巷７４號","OBJECTID":427540},"geometry":{"x":171572.5700000003,"y":2541313.0000000019}},{"attributes":{"ID":427566,"DIS_CODE":0,"TOWNNAME":"東區","LI":"仁和里","LIN":"4鄰","STREET":"仁和路","SECT":" ","MAREA":" ","LANE":"１０９巷","ALLEY":" ","HOUSE_NO":"７６號","E_COORD97":171578.19,"N_COORD97":2541312.52,"ADDRESS":"仁和路１０９巷７６號","OBJECTID":427541},"geometry":{"x":171578.19000000134,"y":2541312.5200000014}},{"attributes":{"ID":427567,"DIS_CODE":0,"TOWNNAME":"東區","LI":"仁和里","LIN":"4鄰","STREET":"仁和路","SECT":" ","MAREA":" ","LANE":"１０９巷","ALLEY":" ","HOUSE_NO":"７８號","E_COORD97":171583.10000000001,"N_COORD97":2541312.6400000001,"ADDRESS":"仁和路１０９巷７８號","OBJECTID":427542},"geometry":{"x":171583.10000000056,"y":2541312.6400000025}},{"attributes":{"ID":427568,"DIS_CODE":0,"TOWNNAME":"東區","LI":"仁和里","LIN":"4鄰","STREET":"仁和路","SECT":" ","MAREA":" ","LANE":"１０９巷","ALLEY":" ","HOUSE_NO":"８０號","E_COORD97":171588.35999999999,"N_COORD97":2541311.5600000001,"ADDRESS":"仁和路１０９巷８０號","OBJECTID":427543},"geometry":{"x":171588.36000000127,"y":2541311.5600000005}},{"attributes":{"ID":427569,"DIS_CODE":0,"TOWNNAME":"東區","LI":"仁和里","LIN":"4鄰","STREET":"仁和路","SECT":" ","MAREA":" ","LANE":"１０９巷","ALLEY":" ","HOUSE_NO":"８２號","E_COORD97":171593.26000000001,"N_COORD97":2541311.9199999999,"ADDRESS":"仁和路１０９巷８２號","OBJECTID":427544},"geometry":{"x":171593.26000000164,"y":2541311.9199999999}},{"attributes":{"ID":427570,"DIS_CODE":0,"TOWNNAME":"東區","LI":"仁和里","LIN":"4鄰","STREET":"仁和路","SECT":" ","MAREA":" ","LANE":"１０９巷","ALLEY":" ","HOUSE_NO":"６７號","E_COORD97":171539.79000000001,"N_COORD97":2541333.1899999999,"ADDRESS":"仁和路１０９巷６７號","OBJECTID":427545},"geometry":{"x":171539.79000000097,"y":2541333.1899999995}},{"attributes":{"ID":427571,"DIS_CODE":0,"TOWNNAME":"東區","LI":"仁和里","LIN":"4鄰","STREET":"仁和路","SECT":" ","MAREA":" ","LANE":"１０９巷","ALLEY":" ","HOUSE_NO":"６９號","E_COORD97":171544.54000000001,"N_COORD97":2541331.3300000001,"ADDRESS":"仁和路１０９巷６９號","OBJECTID":427546},"geometry":{"x":171544.54000000097,"y":2541331.3300000019}},{"attributes":{"ID":427572,"DIS_CODE":0,"TOWNNAME":"東區","LI":"仁和里","LIN":"4鄰","STREET":"仁和路","SECT":" ","MAREA":" ","LANE":"１０９巷","ALLEY":" ","HOUSE_NO":"７１號","E_COORD97":171549.13,"N_COORD97":2541332.6000000001,"ADDRESS":"仁和路１０９巷７１號","OBJECTID":427547},"geometry":{"x":171549.13000000082,"y":2541332.6000000015}},{"attributes":{"ID":427573,"DIS_CODE":0,"TOWNNAME":"東區","LI":"仁和里","LIN":"4鄰","STREET":"仁和路","SECT":" ","MAREA":" ","LANE":"１０９巷","ALLEY":" ","HOUSE_NO":"７３號","E_COORD97":171554.64000000001,"N_COORD97":2541332.4300000002,"ADDRESS":"仁和路１０９巷７３號","OBJECTID":427548},"geometry":{"x":171554.63999999966,"y":2541332.4300000034}},{"attributes":{"ID":427574,"DIS_CODE":0,"TOWNNAME":"東區","LI":"仁和里","LIN":"4鄰","STREET":"仁和路","SECT":" ","MAREA":" ","LANE":"１０９巷","ALLEY":" ","HOUSE_NO":"７５號","E_COORD97":171558.54999999999,"N_COORD97":2541330.8199999998,"ADDRESS":"仁和路１０９巷７５號","OBJECTID":427549},"geometry":{"x":171558.54999999981,"y":2541330.8200000022}},{"attributes":{"ID":427575,"DIS_CODE":0,"TOWNNAME":"東區","LI":"仁和里","LIN":"4鄰","STREET":"仁和路","SECT":" ","MAREA":" ","LANE":"１０９巷","ALLEY":" ","HOUSE_NO":"７７號","E_COORD97":171563.98000000001,"N_COORD97":2541330.73,"ADDRESS":"仁和路１０９巷７７號","OBJECTID":427550},"geometry":{"x":171563.98000000138,"y":2541330.7300000004}},{"attributes":{"ID":427576,"DIS_CODE":0,"TOWNNAME":"東區","LI":"仁和里","LIN":"4鄰","STREET":"仁和路","SECT":" ","MAREA":" ","LANE":"１０９巷","ALLEY":" ","HOUSE_NO":"７９號","E_COORD97":171568.39999999999,"N_COORD97":2541331.1600000001,"ADDRESS":"仁和路１０９巷７９號","OBJECTID":427551},"geometry":{"x":171568.40000000037,"y":2541331.1599999983}},{"attributes":{"ID":427577,"DIS_CODE":0,"TOWNNAME":"東區","LI":"莊敬里","LIN":"4鄰","STREET":"小東路","SECT":" ","MAREA":" ","LANE":"２５８巷","ALLEY":" ","HOUSE_NO":"３４號","E_COORD97":171193.14000000001,"N_COORD97":2544279.3500000001,"ADDRESS":"小東路２５８巷３４號","OBJECTID":427552},"geometry":{"x":171193.13999999966,"y":2544279.3500000034}},{"attributes":{"ID":427578,"DIS_CODE":0,"TOWNNAME":"東區","LI":"莊敬里","LIN":"4鄰","STREET":"小東路","SECT":" ","MAREA":" ","LANE":"２５８巷","ALLEY":" ","HOUSE_NO":"３７號","E_COORD97":171201.92000000001,"N_COORD97":2544294.25,"ADDRESS":"小東路２５８巷３７號","OBJECTID":427553},"geometry":{"x":171201.91999999993,"y":2544294.2500000019}},{"attributes":{"ID":427579,"DIS_CODE":0,"TOWNNAME":"東區","LI":"莊敬里","LIN":"4鄰","STREET":"小東路","SECT":" ","MAREA":" ","LANE":"２５８巷","ALLEY":" ","HOUSE_NO":"３９號","E_COORD97":171206.14999999999,"N_COORD97":2544290.02,"ADDRESS":"小東路２５８巷３９號","OBJECTID":427554},"geometry":{"x":171206.15000000037,"y":2544290.0199999996}},{"attributes":{"ID":427580,"DIS_CODE":0,"TOWNNAME":"安南區","LI":"海東里","LIN":"4鄰","STREET":"海中街","SECT":" ","MAREA":" ","LANE":"１４８巷","ALLEY":" ","HOUSE_NO":"１１號","E_COORD97":166358.73999999999,"N_COORD97":2549192.1200000001,"ADDRESS":"海中街１４８巷１１號","OBJECTID":427555},"geometry":{"x":166358.74000000022,"y":2549192.1200000029}},{"attributes":{"ID":427581,"DIS_CODE":0,"TOWNNAME":"南區","LI":"喜北里","LIN":"4鄰","STREET":"喜樹路","SECT":" ","MAREA":" ","LANE":"７２巷","ALLEY":" ","HOUSE_NO":"１號","E_COORD97":165850.41,"N_COORD97":2538506.6800000002,"ADDRESS":"喜樹路７２巷１號","OBJECTID":427556},"geometry":{"x":165850.41000000015,"y":2538506.6800000034}},{"attributes":{"ID":427582,"DIS_CODE":0,"TOWNNAME":"南區","LI":"喜北里","LIN":"4鄰","STREET":"喜樹路","SECT":" ","MAREA":" ","LANE":"７２巷","ALLEY":" ","HOUSE_NO":"３號","E_COORD97":165844.47,"N_COORD97":2538506.7999999998,"ADDRESS":"喜樹路７２巷３號","OBJECTID":427557},"geometry":{"x":165844.46999999974,"y":2538506.8000000045}},{"attributes":{"ID":427583,"DIS_CODE":0,"TOWNNAME":"南區","LI":"喜北里","LIN":"4鄰","STREET":"喜樹路","SECT":" ","MAREA":" ","LANE":"７２巷","ALLEY":" ","HOUSE_NO":"５號","E_COORD97":165839.38,"N_COORD97":2538507.0499999998,"ADDRESS":"喜樹路７２巷５號","OBJECTID":427558},"geometry":{"x":165839.38000000082,"y":2538507.0500000007}},{"attributes":{"ID":427584,"DIS_CODE":0,"TOWNNAME":"南區","LI":"喜北里","LIN":"4鄰","STREET":"喜樹路","SECT":" ","MAREA":" ","LANE":"７２巷","ALLEY":" ","HOUSE_NO":"７號","E_COORD97":165833.57000000001,"N_COORD97":2538507.0499999998,"ADDRESS":"喜樹路７２巷７號","OBJECTID":427559},"geometry":{"x":165833.57000000123,"y":2538507.0500000007}},{"attributes":{"ID":427585,"DIS_CODE":0,"TOWNNAME":"南區","LI":"喜北里","LIN":"4鄰","STREET":"喜樹路","SECT":" ","MAREA":" ","LANE":"７２巷","ALLEY":" ","HOUSE_NO":"９號","E_COORD97":165828.51999999999,"N_COORD97":2538507.1800000002,"ADDRESS":"喜樹路７２巷９號","OBJECTID":427560},"geometry":{"x":165828.51999999955,"y":2538507.1800000016}},{"attributes":{"ID":427586,"DIS_CODE":0,"TOWNNAME":"南區","LI":"喜北里","LIN":"4鄰","STREET":"喜樹路","SECT":" ","MAREA":" ","LANE":"７２巷","ALLEY":" ","HOUSE_NO":"１１號","E_COORD97":165823.07999999999,"N_COORD97":2538507.2400000002,"ADDRESS":"喜樹路７２巷１１號","OBJECTID":427561},"geometry":{"x":165823.08000000101,"y":2538507.2400000021}},{"attributes":{"ID":427587,"DIS_CODE":0,"TOWNNAME":"南區","LI":"喜北里","LIN":"4鄰","STREET":"喜樹路","SECT":" ","MAREA":" ","LANE":"７２巷","ALLEY":" ","HOUSE_NO":"１３號","E_COORD97":165817.78,"N_COORD97":2538507.0499999998,"ADDRESS":"喜樹路７２巷１３號","OBJECTID":427562},"geometry":{"x":165817.78000000026,"y":2538507.0500000007}},{"attributes":{"ID":427588,"DIS_CODE":0,"TOWNNAME":"南區","LI":"喜北里","LIN":"4鄰","STREET":"喜樹路","SECT":" ","MAREA":" ","LANE":"７２巷","ALLEY":" ","HOUSE_NO":"１５號","E_COORD97":165812.41,"N_COORD97":2538506.9900000002,"ADDRESS":"喜樹路７２巷１５號","OBJECTID":427563},"geometry":{"x":165812.41000000108,"y":2538506.9900000002}},{"attributes":{"ID":427589,"DIS_CODE":0,"TOWNNAME":"南區","LI":"喜北里","LIN":"4鄰","STREET":"喜樹路","SECT":" ","MAREA":" ","LANE":"７２巷","ALLEY":" ","HOUSE_NO":"１７號","E_COORD97":165807.23000000001,"N_COORD97":2538507.1800000002,"ADDRESS":"喜樹路７２巷１７號","OBJECTID":427564},"geometry":{"x":165807.23000000138,"y":2538507.1800000016}},{"attributes":{"ID":427590,"DIS_CODE":0,"TOWNNAME":"南區","LI":"喜北里","LIN":"4鄰","STREET":"喜樹路","SECT":" ","MAREA":" ","LANE":"７２巷","ALLEY":" ","HOUSE_NO":"１９號","E_COORD97":165801.98000000001,"N_COORD97":2538507.1200000001,"ADDRESS":"喜樹路７２巷１９號","OBJECTID":427565},"geometry":{"x":165801.98000000138,"y":2538507.120000001}},{"attributes":{"ID":427591,"DIS_CODE":0,"TOWNNAME":"南區","LI":"喜北里","LIN":"4鄰","STREET":"喜樹路","SECT":" ","MAREA":" ","LANE":"７２巷","ALLEY":" ","HOUSE_NO":"２１號","E_COORD97":165796.42000000001,"N_COORD97":2538507.0499999998,"ADDRESS":"喜樹路７２巷２１號","OBJECTID":427566},"geometry":{"x":165796.42000000179,"y":2538507.0500000007}},{"attributes":{"ID":427592,"DIS_CODE":0,"TOWNNAME":"南區","LI":"喜北里","LIN":"4鄰","STREET":"喜樹路","SECT":" ","MAREA":" ","LANE":"７２巷","ALLEY":" ","HOUSE_NO":"２３號","E_COORD97":165791.10999999999,"N_COORD97":2538506.9900000002,"ADDRESS":"喜樹路７２巷２３號","OBJECTID":427567},"geometry":{"x":165791.11000000127,"y":2538506.9900000002}},{"attributes":{"ID":427593,"DIS_CODE":0,"TOWNNAME":"南區","LI":"喜北里","LIN":"4鄰","STREET":"喜樹路","SECT":" ","MAREA":" ","LANE":"７２巷","ALLEY":" ","HOUSE_NO":"２５號","E_COORD97":165777.01999999999,"N_COORD97":2538507.2999999998,"ADDRESS":"喜樹路７２巷２５號","OBJECTID":427568},"geometry":{"x":165777.02000000048,"y":2538507.3000000026}},{"attributes":{"ID":427594,"DIS_CODE":0,"TOWNNAME":"南區","LI":"喜北里","LIN":"4鄰","STREET":"喜樹路","SECT":" ","MAREA":" ","LANE":"７２巷","ALLEY":" ","HOUSE_NO":"２７號","E_COORD97":165771.78,"N_COORD97":2538507.6800000002,"ADDRESS":"喜樹路７２巷２７號","OBJECTID":427569},"geometry":{"x":165771.78000000026,"y":2538507.6800000016}},{"attributes":{"ID":427595,"DIS_CODE":0,"TOWNNAME":"南區","LI":"喜北里","LIN":"4鄰","STREET":"喜樹路","SECT":" ","MAREA":" ","LANE":"７２巷","ALLEY":" ","HOUSE_NO":"２９號","E_COORD97":165765.70999999999,"N_COORD97":2538507.8700000001,"ADDRESS":"喜樹路７２巷２９號","OBJECTID":427570},"geometry":{"x":165765.71000000183,"y":2538507.8700000029}},{"attributes":{"ID":427596,"DIS_CODE":0,"TOWNNAME":"南區","LI":"喜北里","LIN":"4鄰","STREET":"喜樹路","SECT":" ","MAREA":" ","LANE":"７２巷","ALLEY":" ","HOUSE_NO":"３１號","E_COORD97":165760.28,"N_COORD97":2538507.8700000001,"ADDRESS":"喜樹路７２巷３１號","OBJECTID":427571},"geometry":{"x":165760.28000000026,"y":2538507.8700000029}},{"attributes":{"ID":427597,"DIS_CODE":0,"TOWNNAME":"南區","LI":"喜北里","LIN":"4鄰","STREET":"喜樹路","SECT":" ","MAREA":" ","LANE":"７２巷","ALLEY":" ","HOUSE_NO":"３３號","E_COORD97":165754.78,"N_COORD97":2538508,"ADDRESS":"喜樹路７２巷３３號","OBJECTID":427572},"geometry":{"x":165754.78000000026,"y":2538508.0000000037}},{"attributes":{"ID":427598,"DIS_CODE":0,"TOWNNAME":"南區","LI":"喜北里","LIN":"4鄰","STREET":"喜樹路","SECT":" ","MAREA":" ","LANE":"７２巷","ALLEY":" ","HOUSE_NO":"３５號","E_COORD97":165749.22,"N_COORD97":2538508.1200000001,"ADDRESS":"喜樹路７２巷３５號","OBJECTID":427573},"geometry":{"x":165749.22000000067,"y":2538508.1199999992}},{"attributes":{"ID":427599,"DIS_CODE":0,"TOWNNAME":"南區","LI":"喜北里","LIN":"4鄰","STREET":"喜樹路","SECT":" ","MAREA":" ","LANE":"７２巷","ALLEY":" ","HOUSE_NO":"３７號","E_COORD97":165744.04000000001,"N_COORD97":2538508.1200000001,"ADDRESS":"喜樹路７２巷３７號","OBJECTID":427574},"geometry":{"x":165744.04000000004,"y":2538508.1199999992}},{"attributes":{"ID":427600,"DIS_CODE":0,"TOWNNAME":"南區","LI":"喜北里","LIN":"4鄰","STREET":"喜樹路","SECT":" ","MAREA":" ","LANE":"７２巷","ALLEY":" ","HOUSE_NO":"３９號","E_COORD97":165738.42000000001,"N_COORD97":2538508.0600000001,"ADDRESS":"喜樹路７２巷３９號","OBJECTID":427575},"geometry":{"x":165738.41999999993,"y":2538508.0599999987}},{"attributes":{"ID":427601,"DIS_CODE":0,"TOWNNAME":"南區","LI":"喜北里","LIN":"4鄰","STREET":"喜樹路","SECT":" ","MAREA":" ","LANE":"７２巷","ALLEY":" ","HOUSE_NO":"４１號","E_COORD97":165732.85999999999,"N_COORD97":2538507.7400000002,"ADDRESS":"喜樹路７２巷４１號","OBJECTID":427576},"geometry":{"x":165732.8600000022,"y":2538507.7400000021}},{"attributes":{"ID":427602,"DIS_CODE":0,"TOWNNAME":"南區","LI":"喜北里","LIN":"4鄰","STREET":"喜樹路","SECT":" ","MAREA":" ","LANE":"７２巷","ALLEY":" ","HOUSE_NO":"４３號","E_COORD97":165727.48999999999,"N_COORD97":2538508,"ADDRESS":"喜樹路７２巷４３號","OBJECTID":427577},"geometry":{"x":165727.49000000115,"y":2538508.0000000037}},{"attributes":{"ID":427603,"DIS_CODE":0,"TOWNNAME":"南區","LI":"喜北里","LIN":"4鄰","STREET":"喜樹路","SECT":" ","MAREA":" ","LANE":"７４巷","ALLEY":" ","HOUSE_NO":"２號","E_COORD97":165850.53,"N_COORD97":2538493.7799999998,"ADDRESS":"喜樹路７４巷２號","OBJECTID":427578},"geometry":{"x":165850.53000000119,"y":2538493.7799999993}},{"attributes":{"ID":427604,"DIS_CODE":0,"TOWNNAME":"南區","LI":"喜北里","LIN":"4鄰","STREET":"喜樹路","SECT":" ","MAREA":" ","LANE":"７４巷","ALLEY":" ","HOUSE_NO":"４號","E_COORD97":165844.72,"N_COORD97":2538493.7799999998,"ADDRESS":"喜樹路７４巷４號","OBJECTID":427579},"geometry":{"x":165844.71999999974,"y":2538493.7799999993}},{"attributes":{"ID":427605,"DIS_CODE":0,"TOWNNAME":"南區","LI":"喜北里","LIN":"4鄰","STREET":"喜樹路","SECT":" ","MAREA":" ","LANE":"７４巷","ALLEY":" ","HOUSE_NO":"６號","E_COORD97":165839.29000000001,"N_COORD97":2538493.71,"ADDRESS":"喜樹路７４巷６號","OBJECTID":427580},"geometry":{"x":165839.29000000004,"y":2538493.7100000009}},{"attributes":{"ID":427606,"DIS_CODE":0,"TOWNNAME":"南區","LI":"喜北里","LIN":"4鄰","STREET":"喜樹路","SECT":" ","MAREA":" ","LANE":"７４巷","ALLEY":" ","HOUSE_NO":"８號","E_COORD97":165833.92000000001,"N_COORD97":2538493.6499999999,"ADDRESS":"喜樹路７４巷８號","OBJECTID":427581},"geometry":{"x":165833.92000000086,"y":2538493.6499999985}},{"attributes":{"ID":427607,"DIS_CODE":0,"TOWNNAME":"南區","LI":"喜北里","LIN":"4鄰","STREET":"喜樹路","SECT":" ","MAREA":" ","LANE":"７４巷","ALLEY":" ","HOUSE_NO":"１０號","E_COORD97":165828.48000000001,"N_COORD97":2538494.0899999999,"ADDRESS":"喜樹路７４巷１０號","OBJECTID":427582},"geometry":{"x":165828.48000000045,"y":2538494.0900000017}},{"attributes":{"ID":427608,"DIS_CODE":0,"TOWNNAME":"南區","LI":"喜北里","LIN":"4鄰","STREET":"喜樹路","SECT":" ","MAREA":" ","LANE":"７４巷","ALLEY":" ","HOUSE_NO":"１２號","E_COORD97":165822.85999999999,"N_COORD97":2538494.2200000002,"ADDRESS":"喜樹路７４巷１２號","OBJECTID":427583},"geometry":{"x":165822.86000000127,"y":2538494.2200000025}},{"attributes":{"ID":427609,"DIS_CODE":0,"TOWNNAME":"南區","LI":"喜北里","LIN":"4鄰","STREET":"喜樹路","SECT":" ","MAREA":" ","LANE":"７４巷","ALLEY":" ","HOUSE_NO":"１４號","E_COORD97":165817.67999999999,"N_COORD97":2538494.2200000002,"ADDRESS":"喜樹路７４巷１４號","OBJECTID":427584},"geometry":{"x":165817.6799999997,"y":2538494.2200000025}},{"attributes":{"ID":427610,"DIS_CODE":0,"TOWNNAME":"南區","LI":"喜北里","LIN":"4鄰","STREET":"喜樹路","SECT":" ","MAREA":" ","LANE":"７４巷","ALLEY":" ","HOUSE_NO":"１６號","E_COORD97":165812.41,"N_COORD97":2538494.1000000001,"ADDRESS":"喜樹路７４巷１６號","OBJECTID":427585},"geometry":{"x":165812.41000000108,"y":2538494.1000000015}},{"attributes":{"ID":427611,"DIS_CODE":0,"TOWNNAME":"南區","LI":"喜北里","LIN":"4鄰","STREET":"喜樹路","SECT":" ","MAREA":" ","LANE":"７４巷","ALLEY":" ","HOUSE_NO":"１８號","E_COORD97":165806.98000000001,"N_COORD97":2538494.3500000001,"ADDRESS":"喜樹路７４巷１８號","OBJECTID":427586},"geometry":{"x":165806.98000000138,"y":2538494.3499999996}},{"attributes":{"ID":427612,"DIS_CODE":0,"TOWNNAME":"南區","LI":"喜北里","LIN":"4鄰","STREET":"喜樹路","SECT":" ","MAREA":" ","LANE":"７４巷","ALLEY":" ","HOUSE_NO":"２０號","E_COORD97":165801.60999999999,"N_COORD97":2538494.29,"ADDRESS":"喜樹路７４巷２０號","OBJECTID":427587},"geometry":{"x":165801.61000000034,"y":2538494.2899999991}},{"attributes":{"ID":427613,"DIS_CODE":0,"TOWNNAME":"南區","LI":"喜北里","LIN":"4鄰","STREET":"喜樹路","SECT":" ","MAREA":" ","LANE":"７４巷","ALLEY":" ","HOUSE_NO":"２２號","E_COORD97":165796.17000000001,"N_COORD97":2538494.73,"ADDRESS":"喜樹路７４巷２２號","OBJECTID":427588},"geometry":{"x":165796.16999999993,"y":2538494.7300000023}},{"attributes":{"ID":427614,"DIS_CODE":0,"TOWNNAME":"南區","LI":"喜北里","LIN":"4鄰","STREET":"喜樹路","SECT":" ","MAREA":" ","LANE":"７４巷","ALLEY":" ","HOUSE_NO":"２４號","E_COORD97":165790.60000000001,"N_COORD97":2538494.48,"ADDRESS":"喜樹路７４巷２４號","OBJECTID":427589},"geometry":{"x":165790.60000000056,"y":2538494.4800000004}},{"attributes":{"ID":427615,"DIS_CODE":0,"TOWNNAME":"南區","LI":"喜北里","LIN":"4鄰","STREET":"喜樹路","SECT":" ","MAREA":" ","LANE":"７４巷","ALLEY":" ","HOUSE_NO":"２６號","E_COORD97":165776.92999999999,"N_COORD97":2538493.6699999999,"ADDRESS":"喜樹路７４巷２６號","OBJECTID":427590},"geometry":{"x":165776.9299999997,"y":2538493.6700000018}},{"attributes":{"ID":427616,"DIS_CODE":0,"TOWNNAME":"南區","LI":"喜北里","LIN":"4鄰","STREET":"喜樹路","SECT":" ","MAREA":" ","LANE":"７４巷","ALLEY":" ","HOUSE_NO":"２８號","E_COORD97":165771.51000000001,"N_COORD97":2538493.8700000001,"ADDRESS":"喜樹路７４巷２８號","OBJECTID":427591},"geometry":{"x":165771.50999999978,"y":2538493.8700000029}},{"attributes":{"ID":427617,"DIS_CODE":0,"TOWNNAME":"南區","LI":"喜北里","LIN":"4鄰","STREET":"喜樹路","SECT":" ","MAREA":" ","LANE":"７４巷","ALLEY":" ","HOUSE_NO":"３０號","E_COORD97":165765.42999999999,"N_COORD97":2538493.8700000001,"ADDRESS":"喜樹路７４巷３０號","OBJECTID":427592},"geometry":{"x":165765.4299999997,"y":2538493.8700000029}},{"attributes":{"ID":427618,"DIS_CODE":0,"TOWNNAME":"南區","LI":"喜北里","LIN":"4鄰","STREET":"喜樹路","SECT":" ","MAREA":" ","LANE":"７４巷","ALLEY":" ","HOUSE_NO":"３２號","E_COORD97":165760.07000000001,"N_COORD97":2538494.3300000001,"ADDRESS":"喜樹路７４巷３２號","OBJECTID":427593},"geometry":{"x":165760.06999999937,"y":2538494.3300000001}},{"attributes":{"ID":427619,"DIS_CODE":0,"TOWNNAME":"南區","LI":"喜北里","LIN":"4鄰","STREET":"喜樹路","SECT":" ","MAREA":" ","LANE":"７４巷","ALLEY":" ","HOUSE_NO":"３４號","E_COORD97":165754.31,"N_COORD97":2538494.1299999999,"ADDRESS":"喜樹路７４巷３４號","OBJECTID":427594},"geometry":{"x":165754.30999999866,"y":2538494.1300000008}},{"attributes":{"ID":427620,"DIS_CODE":0,"TOWNNAME":"南區","LI":"喜北里","LIN":"4鄰","STREET":"喜樹路","SECT":" ","MAREA":" ","LANE":"７４巷","ALLEY":" ","HOUSE_NO":"３６號","E_COORD97":165748.76000000001,"N_COORD97":2538493.4700000002,"ADDRESS":"喜樹路７４巷３６號","OBJECTID":427595},"geometry":{"x":165748.76000000071,"y":2538493.4700000025}},{"attributes":{"ID":427621,"DIS_CODE":0,"TOWNNAME":"南區","LI":"喜東里","LIN":"4鄰","STREET":"明興路","SECT":" ","MAREA":" ","LANE":"４０４巷","ALLEY":" ","HOUSE_NO":"１２號","E_COORD97":166266.01000000001,"N_COORD97":2538864.4700000002,"ADDRESS":"明興路４０４巷１２號","OBJECTID":427596},"geometry":{"x":166266.01000000071,"y":2538864.4700000007}},{"attributes":{"ID":427622,"DIS_CODE":0,"TOWNNAME":"南區","LI":"喜東里","LIN":"4鄰","STREET":"明興路","SECT":" ","MAREA":" ","LANE":"４０４巷","ALLEY":" ","HOUSE_NO":"１３號","E_COORD97":166256.70000000001,"N_COORD97":2538846.0899999999,"ADDRESS":"明興路４０４巷１３號","OBJECTID":427597},"geometry":{"x":166256.70000000112,"y":2538846.0899999999}},{"attributes":{"ID":427623,"DIS_CODE":0,"TOWNNAME":"南區","LI":"喜東里","LIN":"4鄰","STREET":"明興路","SECT":" ","MAREA":" ","LANE":"４０４巷","ALLEY":" ","HOUSE_NO":"１４號","E_COORD97":166261.95999999999,"N_COORD97":2538865.02,"ADDRESS":"明興路４０４巷１４號","OBJECTID":427598},"geometry":{"x":166261.95999999996,"y":2538865.0200000014}},{"attributes":{"ID":427624,"DIS_CODE":0,"TOWNNAME":"南區","LI":"喜東里","LIN":"4鄰","STREET":"明興路","SECT":" ","MAREA":" ","LANE":"４０４巷","ALLEY":" ","HOUSE_NO":"１號","E_COORD97":166279.04999999999,"N_COORD97":2538841.71,"ADDRESS":"明興路４０４巷１號","OBJECTID":427599},"geometry":{"x":166279.05000000075,"y":2538841.7100000009}},{"attributes":{"ID":427625,"DIS_CODE":0,"TOWNNAME":"南區","LI":"喜東里","LIN":"4鄰","STREET":"明興路","SECT":" ","MAREA":" ","LANE":"４０４巷","ALLEY":" ","HOUSE_NO":"２號","E_COORD97":166283.67999999999,"N_COORD97":2538856.73,"ADDRESS":"明興路４０４巷２號","OBJECTID":427600},"geometry":{"x":166283.6799999997,"y":2538856.7300000023}}]}