{"displayFieldName":"TOWNNAME","fieldAliases":{"ID":"ID","DIS_CODE":"DIS_CODE","TOWNNAME":"TOWNNAME","LI":"LI","LIN":"LIN","STREET":"STREET","SECT":"SECT","MAREA":"MAREA","LANE":"LANE","ALLEY":"ALLEY","HOUSE_NO":"HOUSE_NO","E_COORD97":"E_COORD97","N_COORD97":"N_COORD97","ADDRESS":"ADDRESS","OBJECTID":"OBJECTID"},"geometryType":"esriGeometryPoint","spatialReference":{"wkid":102443,"latestWkid":3826},"fields":[{"name":"ID","type":"esriFieldTypeDouble","alias":"ID"},{"name":"DIS_CODE","type":"esriFieldTypeInteger","alias":"DIS_CODE"},{"name":"TOWNNAME","type":"esriFieldTypeString","alias":"TOWNNAME","length":8},{"name":"LI","type":"esriFieldTypeString","alias":"LI","length":8},{"name":"LIN","type":"esriFieldTypeString","alias":"LIN","length":12},{"name":"STREET","type":"esriFieldTypeString","alias":"STREET","length":20},{"name":"SECT","type":"esriFieldTypeString","alias":"SECT","length":8},{"name":"MAREA","type":"esriFieldTypeString","alias":"MAREA","length":12},{"name":"LANE","type":"esriFieldTypeString","alias":"LANE","length":10},{"name":"ALLEY","type":"esriFieldTypeString","alias":"ALLEY","length":10},{"name":"HOUSE_NO","type":"esriFieldTypeString","alias":"HOUSE_NO","length":20},{"name":"E_COORD97","type":"esriFieldTypeDouble","alias":"E_COORD97"},{"name":"N_COORD97","type":"esriFieldTypeDouble","alias":"N_COORD97"},{"name":"ADDRESS","type":"esriFieldTypeString","alias":"ADDRESS","length":50},{"name":"OBJECTID","type":"esriFieldTypeOID","alias":"OBJECTID"}],"features":[{"attributes":{"ID":276406,"DIS_CODE":0,"TOWNNAME":"永康區","LI":"建國里","LIN":"1鄰","STREET":"復興路","SECT":" ","MAREA":" ","LANE":"２６巷","ALLEY":" ","HOUSE_NO":"７號","E_COORD97":173089.39999999999,"N_COORD97":2544495.52,"ADDRESS":"復興路２６巷７號","OBJECTID":276401},"geometry":{"x":173089.40000000037,"y":2544495.5200000014}},{"attributes":{"ID":276407,"DIS_CODE":0,"TOWNNAME":"安南區","LI":"城西里","LIN":"1鄰","STREET":"城西街","SECT":"三段","MAREA":" ","LANE":"１巷","ALLEY":" ","HOUSE_NO":"１５８號","E_COORD97":158118.51000000001,"N_COORD97":2550998.4399999999,"ADDRESS":"城西街三段１巷１５８號","OBJECTID":276402},"geometry":{"x":158118.51000000071,"y":2550998.4400000013}},{"attributes":{"ID":276408,"DIS_CODE":0,"TOWNNAME":"新市區","LI":"港墘里","LIN":"1鄰","STREET":"民族路","SECT":" ","MAREA":" ","LANE":"２８巷","ALLEY":" ","HOUSE_NO":"３號","E_COORD97":178583.23999999999,"N_COORD97":2553913.7799999998,"ADDRESS":"民族路２８巷３號","OBJECTID":276403},"geometry":{"x":178583.24000000115,"y":2553913.7799999993}},{"attributes":{"ID":276409,"DIS_CODE":0,"TOWNNAME":"永康區","LI":"大灣里","LIN":"3鄰","STREET":"信義二街","SECT":" ","MAREA":" ","LANE":" ","ALLEY":" ","HOUSE_NO":"１３３號","E_COORD97":174813.60000000001,"N_COORD97":2545716.6099999999,"ADDRESS":"信義二街１３３號","OBJECTID":276404},"geometry":{"x":174813.60000000056,"y":2545716.6099999994}},{"attributes":{"ID":276410,"DIS_CODE":0,"TOWNNAME":"下營區","LI":"後街里","LIN":"1鄰","STREET":"中正北路","SECT":" ","MAREA":" ","LANE":"２８６巷","ALLEY":" ","HOUSE_NO":"１３號","E_COORD97":174401.92999999999,"N_COORD97":2571052.3900000001,"ADDRESS":"中正北路２８６巷１３號","OBJECTID":276405},"geometry":{"x":174401.9299999997,"y":2571052.3900000006}},{"attributes":{"ID":276411,"DIS_CODE":0,"TOWNNAME":"永康區","LI":"復國里","LIN":"3鄰","STREET":"復國一路","SECT":" ","MAREA":" ","LANE":" ","ALLEY":" ","HOUSE_NO":"３０號","E_COORD97":172729.12,"N_COORD97":2544763.7799999998,"ADDRESS":"復國一路３０號","OBJECTID":276406},"geometry":{"x":172729.12000000104,"y":2544763.7799999993}},{"attributes":{"ID":276412,"DIS_CODE":0,"TOWNNAME":"仁德區","LI":"仁德里","LIN":"3鄰","STREET":"仁中五街","SECT":" ","MAREA":" ","LANE":" ","ALLEY":" ","HOUSE_NO":"５５號","E_COORD97":173391.25,"N_COORD97":2540281.2400000002,"ADDRESS":"仁中五街５５號","OBJECTID":276407},"geometry":{"x":173391.25000000093,"y":2540281.2400000021}},{"attributes":{"ID":276413,"DIS_CODE":0,"TOWNNAME":"下營區","LI":"後街里","LIN":"1鄰","STREET":"中正北路","SECT":" ","MAREA":" ","LANE":"２８６巷","ALLEY":" ","HOUSE_NO":"１５號","E_COORD97":174409.20999999999,"N_COORD97":2571052.5499999998,"ADDRESS":"中正北路２８６巷１５號","OBJECTID":276408},"geometry":{"x":174409.20999999996,"y":2571052.5499999989}},{"attributes":{"ID":276414,"DIS_CODE":0,"TOWNNAME":"下營區","LI":"後街里","LIN":"1鄰","STREET":"中正北路","SECT":" ","MAREA":" ","LANE":"２８６巷","ALLEY":" ","HOUSE_NO":"１９號","E_COORD97":174419.17999999999,"N_COORD97":2571057.1699999999,"ADDRESS":"中正北路２８６巷１９號","OBJECTID":276409},"geometry":{"x":174419.1799999997,"y":2571057.1699999999}},{"attributes":{"ID":276415,"DIS_CODE":0,"TOWNNAME":"下營區","LI":"後街里","LIN":"1鄰","STREET":"中正北路","SECT":" ","MAREA":" ","LANE":"２８６巷","ALLEY":" ","HOUSE_NO":"６號","E_COORD97":174383.35000000001,"N_COORD97":2571042.9100000001,"ADDRESS":"中正北路２８６巷６號","OBJECTID":276410},"geometry":{"x":174383.35000000056,"y":2571042.9100000039}},{"attributes":{"ID":276416,"DIS_CODE":0,"TOWNNAME":"下營區","LI":"後街里","LIN":"1鄰","STREET":"中正北路","SECT":" ","MAREA":" ","LANE":"３６０巷","ALLEY":" ","HOUSE_NO":"１號","E_COORD97":174296.56,"N_COORD97":2571271.3900000001,"ADDRESS":"中正北路３６０巷１號","OBJECTID":276411},"geometry":{"x":174296.56000000145,"y":2571271.3900000025}},{"attributes":{"ID":276417,"DIS_CODE":0,"TOWNNAME":"下營區","LI":"仁里里","LIN":"1鄰","STREET":"仁中街","SECT":" ","MAREA":" ","LANE":"３６巷","ALLEY":" ","HOUSE_NO":"１０號","E_COORD97":174595.45999999999,"N_COORD97":2569804.3900000001,"ADDRESS":"仁中街３６巷１０號","OBJECTID":276412},"geometry":{"x":174595.45999999996,"y":2569804.3900000006}},{"attributes":{"ID":276418,"DIS_CODE":0,"TOWNNAME":"永康區","LI":"東橋里","LIN":"1鄰","STREET":"中山南路","SECT":" ","MAREA":" ","LANE":"１９５巷","ALLEY":" ","HOUSE_NO":"１０１號","E_COORD97":171298.29999999999,"N_COORD97":2546616.79,"ADDRESS":"中山南路１９５巷１０１號","OBJECTID":276413},"geometry":{"x":171298.30000000075,"y":2546616.7899999991}},{"attributes":{"ID":276419,"DIS_CODE":0,"TOWNNAME":"永康區","LI":"尚頂里","LIN":"1鄰","STREET":"中正南路","SECT":" ","MAREA":" ","LANE":"３０６巷","ALLEY":" ","HOUSE_NO":"４號","E_COORD97":170696.94,"N_COORD97":2547842.3399999999,"ADDRESS":"中正南路３０６巷４號","OBJECTID":276414},"geometry":{"x":170696.94000000041,"y":2547842.3399999999}},{"attributes":{"ID":276420,"DIS_CODE":0,"TOWNNAME":"仁德區","LI":"仁德里","LIN":"3鄰","STREET":"仁中七街","SECT":" ","MAREA":" ","LANE":" ","ALLEY":" ","HOUSE_NO":"１４８號","E_COORD97":173270.28,"N_COORD97":2540360.25,"ADDRESS":"仁中七街１４８號","OBJECTID":276415},"geometry":{"x":173270.28000000119,"y":2540360.25}},{"attributes":{"ID":276421,"DIS_CODE":0,"TOWNNAME":"善化區","LI":"胡家里","LIN":"3鄰","STREET":" ","SECT":" ","MAREA":"胡厝寮","LANE":" ","ALLEY":" ","HOUSE_NO":"４０４號","E_COORD97":175603.70000000001,"N_COORD97":2560363.25,"ADDRESS":"胡厝寮４０４號","OBJECTID":276416},"geometry":{"x":175603.70000000112,"y":2560363.25}},{"attributes":{"ID":276422,"DIS_CODE":0,"TOWNNAME":"善化區","LI":"嘉北里","LIN":"3鄰","STREET":" ","SECT":" ","MAREA":"茄拔","LANE":" ","ALLEY":" ","HOUSE_NO":"１７號之１","E_COORD97":181134.95000000001,"N_COORD97":2559961.27,"ADDRESS":"茄拔１７號之１","OBJECTID":276417},"geometry":{"x":181134.95000000112,"y":2559961.2700000014}},{"attributes":{"ID":276423,"DIS_CODE":0,"TOWNNAME":"善化區","LI":"嘉北里","LIN":"3鄰","STREET":" ","SECT":" ","MAREA":"茄拔","LANE":" ","ALLEY":" ","HOUSE_NO":"２５號","E_COORD97":181093.53,"N_COORD97":2559849.2599999998,"ADDRESS":"茄拔２５號","OBJECTID":276418},"geometry":{"x":181093.53000000212,"y":2559849.2600000016}},{"attributes":{"ID":276424,"DIS_CODE":0,"TOWNNAME":"永康區","LI":"永康里","LIN":"1鄰","STREET":"永埔街","SECT":" ","MAREA":" ","LANE":"３３巷","ALLEY":" ","HOUSE_NO":"３２號","E_COORD97":173935.19,"N_COORD97":2547519.4900000002,"ADDRESS":"永埔街３３巷３２號","OBJECTID":276419},"geometry":{"x":173935.19000000041,"y":2547519.4900000002}},{"attributes":{"ID":276425,"DIS_CODE":0,"TOWNNAME":"永康區","LI":"永康里","LIN":"1鄰","STREET":"永埔街","SECT":" ","MAREA":" ","LANE":"３３巷","ALLEY":" ","HOUSE_NO":"２６號","E_COORD97":173953.41,"N_COORD97":2547526.2400000002,"ADDRESS":"永埔街３３巷２６號","OBJECTID":276420},"geometry":{"x":173953.41000000015,"y":2547526.2400000021}},{"attributes":{"ID":276426,"DIS_CODE":0,"TOWNNAME":"永康區","LI":"永康里","LIN":"1鄰","STREET":"永埔街","SECT":" ","MAREA":" ","LANE":"３３巷","ALLEY":" ","HOUSE_NO":"４２號","E_COORD97":173920.29000000001,"N_COORD97":2547513.7400000002,"ADDRESS":"永埔街３３巷４２號","OBJECTID":276421},"geometry":{"x":173920.29000000004,"y":2547513.7400000002}},{"attributes":{"ID":276427,"DIS_CODE":0,"TOWNNAME":"安南區","LI":"鹿耳里","LIN":"1鄰","STREET":"媽祖宮路","SECT":" ","MAREA":" ","LANE":"１１巷","ALLEY":" ","HOUSE_NO":"５號","E_COORD97":160864.32999999999,"N_COORD97":2548955.3300000001,"ADDRESS":"媽祖宮路１１巷５號","OBJECTID":276422},"geometry":{"x":160864.33000000194,"y":2548955.3300000038}},{"attributes":{"ID":276428,"DIS_CODE":0,"TOWNNAME":"安南區","LI":"鹿耳里","LIN":"1鄰","STREET":"媽祖宮路","SECT":" ","MAREA":" ","LANE":"１１巷","ALLEY":" ","HOUSE_NO":"３號（屋全毀）","E_COORD97":160858.73999999999,"N_COORD97":2548959.7799999998,"ADDRESS":"媽祖宮路１１巷３號（屋全毀）","OBJECTID":276423},"geometry":{"x":160858.74000000115,"y":2548959.7799999993}},{"attributes":{"ID":276429,"DIS_CODE":0,"TOWNNAME":"安南區","LI":"鹿耳里","LIN":"1鄰","STREET":"媽祖宮路","SECT":" ","MAREA":" ","LANE":"１１巷","ALLEY":" ","HOUSE_NO":"１號","E_COORD97":160846.04000000001,"N_COORD97":2548966.25,"ADDRESS":"媽祖宮路１１巷１號","OBJECTID":276424},"geometry":{"x":160846.04000000097,"y":2548966.2500000019}},{"attributes":{"ID":276430,"DIS_CODE":0,"TOWNNAME":"安南區","LI":"理想里","LIN":"1鄰","STREET":"同安路","SECT":" ","MAREA":" ","LANE":"３６巷","ALLEY":" ","HOUSE_NO":"４２號","E_COORD97":166874.59,"N_COORD97":2548786.5,"ADDRESS":"同安路３６巷４２號","OBJECTID":276425},"geometry":{"x":166874.58999999985,"y":2548786.5}},{"attributes":{"ID":276431,"DIS_CODE":0,"TOWNNAME":"安南區","LI":"理想里","LIN":"1鄰","STREET":"同安路","SECT":" ","MAREA":" ","LANE":"３６巷","ALLEY":" ","HOUSE_NO":"４２之７號","E_COORD97":166897.39000000001,"N_COORD97":2548742.7999999998,"ADDRESS":"同安路３６巷４２之７號","OBJECTID":276426},"geometry":{"x":166897.38999999966,"y":2548742.8000000026}},{"attributes":{"ID":276432,"DIS_CODE":0,"TOWNNAME":"安南區","LI":"公親里","LIN":"1鄰","STREET":"公學路","SECT":"一段","MAREA":" ","LANE":"２２６巷","ALLEY":" ","HOUSE_NO":"１９之１號","E_COORD97":168076.14999999999,"N_COORD97":2553137.0899999999,"ADDRESS":"公學路一段２２６巷１９之１號","OBJECTID":276427},"geometry":{"x":168076.1500000013,"y":2553137.0900000036}},{"attributes":{"ID":276433,"DIS_CODE":0,"TOWNNAME":"安南區","LI":"青草里","LIN":"1鄰","STREET":"青砂街","SECT":"一段","MAREA":" ","LANE":"６９５巷","ALLEY":" ","HOUSE_NO":"５１之２６號","E_COORD97":159643.37,"N_COORD97":2552795.8900000001,"ADDRESS":"青砂街一段６９５巷５１之２６號","OBJECTID":276428},"geometry":{"x":159643.37000000197,"y":2552795.8900000006}},{"attributes":{"ID":276434,"DIS_CODE":0,"TOWNNAME":"安南區","LI":"青草里","LIN":"1鄰","STREET":"青砂街","SECT":"一段","MAREA":" ","LANE":"６９５巷","ALLEY":" ","HOUSE_NO":"５１之２７號","E_COORD97":159650.57000000001,"N_COORD97":2552795.6800000002,"ADDRESS":"青砂街一段６９５巷５１之２７號","OBJECTID":276429},"geometry":{"x":159650.5700000003,"y":2552795.6799999997}},{"attributes":{"ID":276435,"DIS_CODE":0,"TOWNNAME":"安南區","LI":"佃東里","LIN":"1鄰","STREET":"海佃路","SECT":"四段","MAREA":" ","LANE":"３５０巷","ALLEY":" ","HOUSE_NO":"５４之１號","E_COORD97":165772.60999999999,"N_COORD97":2551394.1299999999,"ADDRESS":"海佃路四段３５０巷５４之１號","OBJECTID":276430},"geometry":{"x":165772.61000000127,"y":2551394.1300000008}},{"attributes":{"ID":276436,"DIS_CODE":0,"TOWNNAME":"安平區","LI":"國平里","LIN":"5鄰","STREET":"建平七街","SECT":" ","MAREA":" ","LANE":"３７０巷","ALLEY":" ","HOUSE_NO":"１２號","E_COORD97":165703.89999999999,"N_COORD97":2543312.71,"ADDRESS":"建平七街３７０巷１２號","OBJECTID":276431},"geometry":{"x":165703.90000000224,"y":2543312.7100000028}},{"attributes":{"ID":276437,"DIS_CODE":0,"TOWNNAME":"安平區","LI":"華平里","LIN":"12鄰","STREET":"建平八街","SECT":" ","MAREA":" ","LANE":"３７２巷","ALLEY":" ","HOUSE_NO":"３號","E_COORD97":165358.97,"N_COORD97":2543577.2599999998,"ADDRESS":"建平八街３７２巷３號","OBJECTID":276432},"geometry":{"x":165358.97000000067,"y":2543577.2599999998}},{"attributes":{"ID":276438,"DIS_CODE":0,"TOWNNAME":"安平區","LI":"華平里","LIN":"12鄰","STREET":"建平八街","SECT":" ","MAREA":" ","LANE":"３７２巷","ALLEY":" ","HOUSE_NO":"５２號","E_COORD97":165391.87,"N_COORD97":2543697.29,"ADDRESS":"建平八街３７２巷５２號","OBJECTID":276433},"geometry":{"x":165391.87000000197,"y":2543697.290000001}},{"attributes":{"ID":276439,"DIS_CODE":0,"TOWNNAME":"安平區","LI":"國平里","LIN":"10鄰","STREET":"建平一街","SECT":" ","MAREA":" ","LANE":"２０６巷","ALLEY":" ","HOUSE_NO":"２７號","E_COORD97":165491.73999999999,"N_COORD97":2542867.1699999999,"ADDRESS":"建平一街２０６巷２７號","OBJECTID":276434},"geometry":{"x":165491.74000000115,"y":2542867.1700000037}},{"attributes":{"ID":276440,"DIS_CODE":0,"TOWNNAME":"安平區","LI":"海頭里","LIN":"16鄰","STREET":"古堡街","SECT":" ","MAREA":" ","LANE":"７６巷","ALLEY":" ","HOUSE_NO":"３０之１號","E_COORD97":163991.01999999999,"N_COORD97":2544974.8100000001,"ADDRESS":"古堡街７６巷３０之１號","OBJECTID":276435},"geometry":{"x":163991.01999999955,"y":2544974.8100000005}},{"attributes":{"ID":276441,"DIS_CODE":0,"TOWNNAME":"安南區","LI":"學東里","LIN":"1鄰","STREET":"公學路","SECT":"六段","MAREA":" ","LANE":"７２１巷","ALLEY":" ","HOUSE_NO":"２８２號","E_COORD97":162187.04999999999,"N_COORD97":2552870.4900000002,"ADDRESS":"公學路六段７２１巷２８２號","OBJECTID":276436},"geometry":{"x":162187.05000000075,"y":2552870.4900000021}},{"attributes":{"ID":276442,"DIS_CODE":0,"TOWNNAME":"安南區","LI":"安東里","LIN":"1鄰","STREET":"安和路","SECT":"一段","MAREA":" ","LANE":"３４０巷","ALLEY":" ","HOUSE_NO":"２之１號","E_COORD97":169321.42999999999,"N_COORD97":2548154.3300000001,"ADDRESS":"安和路一段３４０巷２之１號","OBJECTID":276437},"geometry":{"x":169321.4299999997,"y":2548154.3300000001}},{"attributes":{"ID":276443,"DIS_CODE":0,"TOWNNAME":"安南區","LI":"城東里","LIN":"1鄰","STREET":"安明路","SECT":"四段","MAREA":" ","LANE":"６９６巷","ALLEY":" ","HOUSE_NO":"５之３０號","E_COORD97":161431.73000000001,"N_COORD97":2551483.7400000002,"ADDRESS":"安明路四段６９６巷５之３０號","OBJECTID":276438},"geometry":{"x":161431.73000000138,"y":2551483.7400000002}},{"attributes":{"ID":276444,"DIS_CODE":0,"TOWNNAME":"安平區","LI":"金城里","LIN":"15鄰","STREET":"州平三街","SECT":" ","MAREA":" ","LANE":"８巷","ALLEY":" ","HOUSE_NO":"６號","E_COORD97":162786.84,"N_COORD97":2544395.04,"ADDRESS":"州平三街８巷６號","OBJECTID":276439},"geometry":{"x":162786.84000000078,"y":2544395.0399999991}},{"attributes":{"ID":276445,"DIS_CODE":0,"TOWNNAME":"善化區","LI":"東隆里","LIN":"3鄰","STREET":" ","SECT":" ","MAREA":"東勢寮","LANE":" ","ALLEY":" ","HOUSE_NO":"１４７號","E_COORD97":180131.31,"N_COORD97":2561860.2599999998,"ADDRESS":"東勢寮１４７號","OBJECTID":276440},"geometry":{"x":180131.31000000145,"y":2561860.2600000016}},{"attributes":{"ID":276446,"DIS_CODE":0,"TOWNNAME":"善化區","LI":"胡家里","LIN":"3鄰","STREET":" ","SECT":" ","MAREA":"胡厝寮","LANE":" ","ALLEY":" ","HOUSE_NO":"４２０號","E_COORD97":175707.07999999999,"N_COORD97":2560211.25,"ADDRESS":"胡厝寮４２０號","OBJECTID":276441},"geometry":{"x":175707.08000000007,"y":2560211.25}},{"attributes":{"ID":276447,"DIS_CODE":0,"TOWNNAME":"善化區","LI":"胡家里","LIN":"3鄰","STREET":" ","SECT":" ","MAREA":"胡厝寮","LANE":" ","ALLEY":" ","HOUSE_NO":"５０１號","E_COORD97":175954.98999999999,"N_COORD97":2560133.75,"ADDRESS":"胡厝寮５０１號","OBJECTID":276442},"geometry":{"x":175954.99000000022,"y":2560133.7500000037}},{"attributes":{"ID":276448,"DIS_CODE":0,"TOWNNAME":"善化區","LI":"東隆里","LIN":"3鄰","STREET":" ","SECT":" ","MAREA":"東勢寮","LANE":" ","ALLEY":" ","HOUSE_NO":"１４３號","E_COORD97":180182.76000000001,"N_COORD97":2561873.5099999998,"ADDRESS":"東勢寮１４３號","OBJECTID":276443},"geometry":{"x":180182.76000000164,"y":2561873.5099999998}},{"attributes":{"ID":276449,"DIS_CODE":0,"TOWNNAME":"善化區","LI":"東隆里","LIN":"3鄰","STREET":" ","SECT":" ","MAREA":"東勢寮","LANE":" ","ALLEY":" ","HOUSE_NO":"１４９之１號","E_COORD97":180099.60000000001,"N_COORD97":2561859.52,"ADDRESS":"東勢寮１４９之１號","OBJECTID":276444},"geometry":{"x":180099.60000000056,"y":2561859.5199999996}},{"attributes":{"ID":276450,"DIS_CODE":0,"TOWNNAME":"官田區","LI":"隆田里","LIN":"1鄰","STREET":"中山路","SECT":"一段","MAREA":" ","LANE":"１９巷","ALLEY":" ","HOUSE_NO":"１１號","E_COORD97":180257.59,"N_COORD97":2565730.0899999999,"ADDRESS":"中山路一段１９巷１１號","OBJECTID":276445},"geometry":{"x":180257.59000000078,"y":2565730.0900000017}},{"attributes":{"ID":276451,"DIS_CODE":0,"TOWNNAME":"官田區","LI":"隆田里","LIN":"1鄰","STREET":"中山路","SECT":"一段","MAREA":" ","LANE":"１９巷","ALLEY":" ","HOUSE_NO":"１３號","E_COORD97":180257.85999999999,"N_COORD97":2565726.5899999999,"ADDRESS":"中山路一段１９巷１３號","OBJECTID":276446},"geometry":{"x":180257.86000000127,"y":2565726.5900000017}},{"attributes":{"ID":276452,"DIS_CODE":0,"TOWNNAME":"官田區","LI":"隆田里","LIN":"1鄰","STREET":"中山路","SECT":"一段","MAREA":" ","LANE":"１９巷","ALLEY":" ","HOUSE_NO":"１５號","E_COORD97":180257.89000000001,"N_COORD97":2565723,"ADDRESS":"中山路一段１９巷１５號","OBJECTID":276447},"geometry":{"x":180257.88999999873,"y":2565723.0000000019}},{"attributes":{"ID":276453,"DIS_CODE":0,"TOWNNAME":"官田區","LI":"隆田里","LIN":"1鄰","STREET":"中山路","SECT":"一段","MAREA":" ","LANE":"１９巷","ALLEY":" ","HOUSE_NO":"１號","E_COORD97":180257.60999999999,"N_COORD97":2565754.0099999998,"ADDRESS":"中山路一段１９巷１號","OBJECTID":276448},"geometry":{"x":180257.61000000127,"y":2565754.0100000016}},{"attributes":{"ID":276454,"DIS_CODE":0,"TOWNNAME":"官田區","LI":"隆田里","LIN":"1鄰","STREET":"中山路","SECT":"一段","MAREA":" ","LANE":"１９巷","ALLEY":" ","HOUSE_NO":"３號","E_COORD97":180257.23999999999,"N_COORD97":2565747.54,"ADDRESS":"中山路一段１９巷３號","OBJECTID":276449},"geometry":{"x":180257.24000000022,"y":2565747.5399999991}},{"attributes":{"ID":276455,"DIS_CODE":0,"TOWNNAME":"官田區","LI":"隆田里","LIN":"1鄰","STREET":"中山路","SECT":"一段","MAREA":" ","LANE":"１９巷","ALLEY":" ","HOUSE_NO":"５號","E_COORD97":180257.32000000001,"N_COORD97":2565741.8599999999,"ADDRESS":"中山路一段１９巷５號","OBJECTID":276450},"geometry":{"x":180257.3200000003,"y":2565741.8599999994}},{"attributes":{"ID":276456,"DIS_CODE":0,"TOWNNAME":"官田區","LI":"隆田里","LIN":"1鄰","STREET":"中山路","SECT":"一段","MAREA":" ","LANE":"１９巷","ALLEY":" ","HOUSE_NO":"７號","E_COORD97":180257.44,"N_COORD97":2565737.4700000002,"ADDRESS":"中山路一段１９巷７號","OBJECTID":276451},"geometry":{"x":180257.44000000134,"y":2565737.4700000025}},{"attributes":{"ID":276457,"DIS_CODE":0,"TOWNNAME":"官田區","LI":"隆田里","LIN":"1鄰","STREET":"中山路","SECT":"一段","MAREA":" ","LANE":"１９巷","ALLEY":" ","HOUSE_NO":"９號","E_COORD97":180257.42999999999,"N_COORD97":2565733.8300000001,"ADDRESS":"中山路一段１９巷９號","OBJECTID":276452},"geometry":{"x":180257.4299999997,"y":2565733.8299999982}},{"attributes":{"ID":276458,"DIS_CODE":0,"TOWNNAME":"中西區","LI":"西湖里","LIN":"1鄰","STREET":"頂美二街","SECT":" ","MAREA":" ","LANE":"１８巷","ALLEY":" ","HOUSE_NO":"２１號","E_COORD97":166493.06,"N_COORD97":2544492.5499999998,"ADDRESS":"頂美二街１８巷２１號","OBJECTID":276453},"geometry":{"x":166493.05999999959,"y":2544492.5500000045}},{"attributes":{"ID":276459,"DIS_CODE":0,"TOWNNAME":"新市區","LI":"豐華里","LIN":"3鄰","STREET":" ","SECT":" ","MAREA":"豐華","LANE":" ","ALLEY":" ","HOUSE_NO":"２４之１號","E_COORD97":173796.88,"N_COORD97":2554217.7999999998,"ADDRESS":"豐華２４之１號","OBJECTID":276454},"geometry":{"x":173796.88000000082,"y":2554217.8000000045}},{"attributes":{"ID":276460,"DIS_CODE":0,"TOWNNAME":"新市區","LI":"大洲里","LIN":"3鄰","STREET":" ","SECT":" ","MAREA":"大洲","LANE":" ","ALLEY":" ","HOUSE_NO":"２４號之６","E_COORD97":174509.5,"N_COORD97":2552435.2999999998,"ADDRESS":"大洲２４號之６","OBJECTID":276455},"geometry":{"x":174509.50000000093,"y":2552435.3000000026}},{"attributes":{"ID":276461,"DIS_CODE":0,"TOWNNAME":"新市區","LI":"潭頂里","LIN":"3鄰","STREET":" ","SECT":" ","MAREA":"潭頂","LANE":" ","ALLEY":" ","HOUSE_NO":"１８６號","E_COORD97":180850.64000000001,"N_COORD97":2552915.75,"ADDRESS":"潭頂１８６號","OBJECTID":276456},"geometry":{"x":180850.63999999966,"y":2552915.7500000037}},{"attributes":{"ID":276462,"DIS_CODE":0,"TOWNNAME":"新市區","LI":"社內里","LIN":"3鄰","STREET":" ","SECT":" ","MAREA":"社內","LANE":" ","ALLEY":" ","HOUSE_NO":"３６之３號","E_COORD97":176917.75,"N_COORD97":2552527.7999999998,"ADDRESS":"社內３６之３號","OBJECTID":276457},"geometry":{"x":176917.75,"y":2552527.8000000007}},{"attributes":{"ID":276463,"DIS_CODE":0,"TOWNNAME":"新市區","LI":"大社里","LIN":"3鄰","STREET":" ","SECT":" ","MAREA":"大社","LANE":" ","ALLEY":" ","HOUSE_NO":"１０８號","E_COORD97":180264.73000000001,"N_COORD97":2554388,"ADDRESS":"大社１０８號","OBJECTID":276458},"geometry":{"x":180264.73000000045,"y":2554388}},{"attributes":{"ID":276464,"DIS_CODE":0,"TOWNNAME":"新市區","LI":"大社里","LIN":"3鄰","STREET":" ","SECT":" ","MAREA":"大社","LANE":" ","ALLEY":" ","HOUSE_NO":"９１號","E_COORD97":180363.29000000001,"N_COORD97":2554408.25,"ADDRESS":"大社９１號","OBJECTID":276459},"geometry":{"x":180363.29000000097,"y":2554408.2500000019}},{"attributes":{"ID":276465,"DIS_CODE":0,"TOWNNAME":"新市區","LI":"大營里","LIN":"3鄰","STREET":" ","SECT":" ","MAREA":"大營","LANE":" ","ALLEY":" ","HOUSE_NO":"３５之２號","E_COORD97":179740.54000000001,"N_COORD97":2555506.0499999998,"ADDRESS":"大營３５之２號","OBJECTID":276460},"geometry":{"x":179740.54000000097,"y":2555506.0500000026}},{"attributes":{"ID":276466,"DIS_CODE":0,"TOWNNAME":"新市區","LI":"大洲里","LIN":"3鄰","STREET":" ","SECT":" ","MAREA":"大洲","LANE":" ","ALLEY":" ","HOUSE_NO":"１９號","E_COORD97":174452.12,"N_COORD97":2552467.25,"ADDRESS":"大洲１９號","OBJECTID":276461},"geometry":{"x":174452.12000000011,"y":2552467.25}},{"attributes":{"ID":276467,"DIS_CODE":0,"TOWNNAME":"新市區","LI":"大營里","LIN":"3鄰","STREET":" ","SECT":" ","MAREA":"大營","LANE":" ","ALLEY":" ","HOUSE_NO":"４１之１號","E_COORD97":179701.37,"N_COORD97":2555588.0499999998,"ADDRESS":"大營４１之１號","OBJECTID":276462},"geometry":{"x":179701.37000000104,"y":2555588.0500000007}},{"attributes":{"ID":276468,"DIS_CODE":0,"TOWNNAME":"白河區","LI":"秀祐里","LIN":"3鄰","STREET":" ","SECT":" ","MAREA":"頂秀祐","LANE":" ","ALLEY":" ","HOUSE_NO":"３８之２號","E_COORD97":188874.97,"N_COORD97":2583406.7799999998,"ADDRESS":"頂秀祐３８之２號","OBJECTID":276463},"geometry":{"x":188874.97000000067,"y":2583406.7799999993}},{"attributes":{"ID":276469,"DIS_CODE":0,"TOWNNAME":"白河區","LI":"詔安里","LIN":"3鄰","STREET":" ","SECT":" ","MAREA":"詔安厝","LANE":" ","ALLEY":" ","HOUSE_NO":"２９之１號","E_COORD97":189818.60000000001,"N_COORD97":2588022.96,"ADDRESS":"詔安厝２９之１號","OBJECTID":276464},"geometry":{"x":189818.59999999963,"y":2588022.9600000028}},{"attributes":{"ID":276470,"DIS_CODE":0,"TOWNNAME":"白河區","LI":"關嶺里","LIN":"3鄰","STREET":" ","SECT":" ","MAREA":"關子嶺","LANE":" ","ALLEY":" ","HOUSE_NO":"２４０號","E_COORD97":199086.29999999999,"N_COORD97":2581678,"ADDRESS":"關子嶺２４０號","OBJECTID":276465},"geometry":{"x":199086.30000000075,"y":2581678.0000000037}},{"attributes":{"ID":276471,"DIS_CODE":0,"TOWNNAME":"中西區","LI":"大南里","LIN":"1鄰","STREET":"南門路","SECT":" ","MAREA":" ","LANE":"６８巷","ALLEY":" ","HOUSE_NO":"１３號","E_COORD97":168237.98999999999,"N_COORD97":2542510.4100000001,"ADDRESS":"南門路６８巷１３號","OBJECTID":276466},"geometry":{"x":168237.99000000115,"y":2542510.410000002}},{"attributes":{"ID":276472,"DIS_CODE":0,"TOWNNAME":"中西區","LI":"西賢里","LIN":"1鄰","STREET":"湖美街","SECT":" ","MAREA":" ","LANE":"４７巷","ALLEY":" ","HOUSE_NO":"７號","E_COORD97":165918.92000000001,"N_COORD97":2544547.7200000002,"ADDRESS":"湖美街４７巷７號","OBJECTID":276467},"geometry":{"x":165918.92000000086,"y":2544547.7200000007}},{"attributes":{"ID":276473,"DIS_CODE":0,"TOWNNAME":"安南區","LI":"原佃里","LIN":"1鄰","STREET":"本原街","SECT":"一段","MAREA":" ","LANE":"９７巷","ALLEY":" ","HOUSE_NO":"２３０號","E_COORD97":167895.64999999999,"N_COORD97":2549700.3900000001,"ADDRESS":"本原街一段９７巷２３０號","OBJECTID":276468},"geometry":{"x":167895.65000000224,"y":2549700.3900000006}},{"attributes":{"ID":276474,"DIS_CODE":0,"TOWNNAME":"安南區","LI":"城西里","LIN":"1鄰","STREET":"城西街","SECT":"三段","MAREA":" ","LANE":"１巷","ALLEY":" ","HOUSE_NO":"１６２之５２號","E_COORD97":158280.31,"N_COORD97":2550833.2799999998,"ADDRESS":"城西街三段１巷１６２之５２號","OBJECTID":276469},"geometry":{"x":158280.31000000145,"y":2550833.2800000012}},{"attributes":{"ID":276475,"DIS_CODE":0,"TOWNNAME":"新營區","LI":"大宏里","LIN":"26鄰","STREET":"民族路","SECT":" ","MAREA":" ","LANE":" ","ALLEY":" ","HOUSE_NO":"９號之１８","E_COORD97":180231.35000000001,"N_COORD97":2578383.4199999999,"ADDRESS":"民族路９號之１８","OBJECTID":276470},"geometry":{"x":180231.35000000056,"y":2578383.4200000018}},{"attributes":{"ID":276476,"DIS_CODE":0,"TOWNNAME":"北門區","LI":"錦湖里","LIN":"3鄰","STREET":" ","SECT":" ","MAREA":"渡子頭","LANE":" ","ALLEY":" ","HOUSE_NO":"２６之１０號","E_COORD97":166387.72,"N_COORD97":2576517.1499999999,"ADDRESS":"渡子頭２６之１０號","OBJECTID":276471},"geometry":{"x":166387.72000000067,"y":2576517.1500000041}},{"attributes":{"ID":276477,"DIS_CODE":0,"TOWNNAME":"北門區","LI":"錦湖里","LIN":"3鄰","STREET":" ","SECT":" ","MAREA":"渡子頭","LANE":" ","ALLEY":" ","HOUSE_NO":"２６號之１","E_COORD97":166045.51999999999,"N_COORD97":2576758.4500000002,"ADDRESS":"渡子頭２６號之１","OBJECTID":276472},"geometry":{"x":166045.51999999955,"y":2576758.4500000011}},{"attributes":{"ID":276478,"DIS_CODE":0,"TOWNNAME":"中西區","LI":"三合里","LIN":"15鄰","STREET":"文賢路","SECT":" ","MAREA":" ","LANE":" ","ALLEY":" ","HOUSE_NO":"７０號","E_COORD97":167415.48999999999,"N_COORD97":2544596.6600000001,"ADDRESS":"文賢路７０號","OBJECTID":276473},"geometry":{"x":167415.49000000115,"y":2544596.660000002}},{"attributes":{"ID":276479,"DIS_CODE":0,"TOWNNAME":"安南區","LI":"原佃里","LIN":"1鄰","STREET":"本原街","SECT":"一段","MAREA":" ","LANE":"９７巷","ALLEY":" ","HOUSE_NO":"１６８號","E_COORD97":167884.06,"N_COORD97":2549748.6499999999,"ADDRESS":"本原街一段９７巷１６８號","OBJECTID":276474},"geometry":{"x":167884.06000000052,"y":2549748.6500000004}},{"attributes":{"ID":276480,"DIS_CODE":0,"TOWNNAME":"安南區","LI":"新順里","LIN":"1鄰","STREET":"安豐五街","SECT":" ","MAREA":" ","LANE":"１５巷","ALLEY":" ","HOUSE_NO":"２號","E_COORD97":169476.70999999999,"N_COORD97":2549738.1099999999,"ADDRESS":"安豐五街１５巷２號","OBJECTID":276475},"geometry":{"x":169476.71000000089,"y":2549738.1099999994}},{"attributes":{"ID":276481,"DIS_CODE":0,"TOWNNAME":"安南區","LI":"新順里","LIN":"1鄰","STREET":"安豐五街","SECT":" ","MAREA":" ","LANE":"１５巷","ALLEY":" ","HOUSE_NO":"６號","E_COORD97":169474.17999999999,"N_COORD97":2549740.98,"ADDRESS":"安豐五街１５巷６號","OBJECTID":276476},"geometry":{"x":169474.1799999997,"y":2549740.9800000042}},{"attributes":{"ID":276482,"DIS_CODE":0,"TOWNNAME":"安南區","LI":"新順里","LIN":"1鄰","STREET":"安豐五街","SECT":" ","MAREA":" ","LANE":"１５巷","ALLEY":" ","HOUSE_NO":"８號","E_COORD97":169471.48999999999,"N_COORD97":2549744.3500000001,"ADDRESS":"安豐五街１５巷８號","OBJECTID":276477},"geometry":{"x":169471.49000000209,"y":2549744.3500000034}},{"attributes":{"ID":276483,"DIS_CODE":0,"TOWNNAME":"安南區","LI":"新順里","LIN":"1鄰","STREET":"安豐五街","SECT":" ","MAREA":" ","LANE":"１５巷","ALLEY":" ","HOUSE_NO":"１２號","E_COORD97":169466.94,"N_COORD97":2549750.0800000001,"ADDRESS":"安豐五街１５巷１２號","OBJECTID":276478},"geometry":{"x":169466.94000000227,"y":2549750.0800000038}},{"attributes":{"ID":276484,"DIS_CODE":0,"TOWNNAME":"安南區","LI":"新順里","LIN":"1鄰","STREET":"安豐五街","SECT":" ","MAREA":" ","LANE":"１５巷","ALLEY":" ","HOUSE_NO":"１６號","E_COORD97":169464.57999999999,"N_COORD97":2549752.7799999998,"ADDRESS":"安豐五街１５巷１６號","OBJECTID":276479},"geometry":{"x":169464.58000000101,"y":2549752.7800000012}},{"attributes":{"ID":276485,"DIS_CODE":0,"TOWNNAME":"安南區","LI":"新順里","LIN":"1鄰","STREET":"安豐五街","SECT":" ","MAREA":" ","LANE":"１５巷","ALLEY":" ","HOUSE_NO":"１０號","E_COORD97":169468.95999999999,"N_COORD97":2549747.3799999999,"ADDRESS":"安豐五街１５巷１０號","OBJECTID":276480},"geometry":{"x":169468.95999999996,"y":2549747.3800000008}},{"attributes":{"ID":276486,"DIS_CODE":0,"TOWNNAME":"安南區","LI":"新順里","LIN":"1鄰","STREET":"安豐五街","SECT":" ","MAREA":" ","LANE":"１５巷","ALLEY":" ","HOUSE_NO":"１號","E_COORD97":169467.95000000001,"N_COORD97":2549734.7400000002,"ADDRESS":"安豐五街１５巷１號","OBJECTID":276481},"geometry":{"x":169467.95000000019,"y":2549734.7400000002}},{"attributes":{"ID":276487,"DIS_CODE":0,"TOWNNAME":"安南區","LI":"新順里","LIN":"1鄰","STREET":"安豐五街","SECT":" ","MAREA":" ","LANE":"１５巷","ALLEY":" ","HOUSE_NO":"３號","E_COORD97":169462.72,"N_COORD97":2549738.6200000001,"ADDRESS":"安豐五街１５巷３號","OBJECTID":276482},"geometry":{"x":169462.7200000016,"y":2549738.6200000029}},{"attributes":{"ID":276488,"DIS_CODE":0,"TOWNNAME":"中西區","LI":"福安里","LIN":"17鄰","STREET":"友愛街","SECT":" ","MAREA":" ","LANE":" ","ALLEY":" ","HOUSE_NO":"５６號","E_COORD97":168023.94,"N_COORD97":2543550.8900000001,"ADDRESS":"友愛街５６號","OBJECTID":276483},"geometry":{"x":168023.94000000041,"y":2543550.8900000043}},{"attributes":{"ID":276489,"DIS_CODE":0,"TOWNNAME":"中西區","LI":"福安里","LIN":"17鄰","STREET":"友愛街","SECT":" ","MAREA":" ","LANE":" ","ALLEY":" ","HOUSE_NO":"５８號","E_COORD97":168019.54999999999,"N_COORD97":2543551.5499999998,"ADDRESS":"友愛街５８號","OBJECTID":276484},"geometry":{"x":168019.55000000168,"y":2543551.5500000026}},{"attributes":{"ID":276490,"DIS_CODE":0,"TOWNNAME":"中西區","LI":"福安里","LIN":"17鄰","STREET":"友愛街","SECT":" ","MAREA":" ","LANE":" ","ALLEY":" ","HOUSE_NO":"６０號","E_COORD97":168013.97,"N_COORD97":2543552.8799999999,"ADDRESS":"友愛街６０號","OBJECTID":276485},"geometry":{"x":168013.97000000067,"y":2543552.8800000027}},{"attributes":{"ID":276491,"DIS_CODE":0,"TOWNNAME":"中西區","LI":"福安里","LIN":"17鄰","STREET":"友愛街","SECT":" ","MAREA":" ","LANE":" ","ALLEY":" ","HOUSE_NO":"６２號","E_COORD97":168008.92000000001,"N_COORD97":2543553.8100000001,"ADDRESS":"友愛街６２號","OBJECTID":276486},"geometry":{"x":168008.92000000086,"y":2543553.8100000005}},{"attributes":{"ID":276492,"DIS_CODE":0,"TOWNNAME":"中西區","LI":"福安里","LIN":"17鄰","STREET":"友愛街","SECT":" ","MAREA":" ","LANE":" ","ALLEY":" ","HOUSE_NO":"６４號","E_COORD97":168005.06,"N_COORD97":2543554.3399999999,"ADDRESS":"友愛街６４號","OBJECTID":276487},"geometry":{"x":168005.05999999959,"y":2543554.3400000017}},{"attributes":{"ID":276493,"DIS_CODE":0,"TOWNNAME":"中西區","LI":"福安里","LIN":"17鄰","STREET":"友愛街","SECT":" ","MAREA":" ","LANE":" ","ALLEY":" ","HOUSE_NO":"６６號","E_COORD97":168001.34,"N_COORD97":2543555.5299999998,"ADDRESS":"友愛街６６號","OBJECTID":276488},"geometry":{"x":168001.34000000078,"y":2543555.5300000031}},{"attributes":{"ID":276494,"DIS_CODE":0,"TOWNNAME":"中西區","LI":"福安里","LIN":"17鄰","STREET":"友愛街","SECT":" ","MAREA":" ","LANE":" ","ALLEY":" ","HOUSE_NO":"７６號","E_COORD97":167978.20999999999,"N_COORD97":2543560.3199999998,"ADDRESS":"友愛街７６號","OBJECTID":276489},"geometry":{"x":167978.21000000089,"y":2543560.3200000003}},{"attributes":{"ID":276495,"DIS_CODE":0,"TOWNNAME":"中西區","LI":"福安里","LIN":"17鄰","STREET":"友愛街","SECT":" ","MAREA":" ","LANE":" ","ALLEY":" ","HOUSE_NO":"７８號","E_COORD97":167974.48999999999,"N_COORD97":2543561.5099999998,"ADDRESS":"友愛街７８號","OBJECTID":276490},"geometry":{"x":167974.48999999929,"y":2543561.5099999998}},{"attributes":{"ID":276496,"DIS_CODE":0,"TOWNNAME":"安南區","LI":"新順里","LIN":"1鄰","STREET":"安豐五街","SECT":" ","MAREA":" ","LANE":"１５巷","ALLEY":" ","HOUSE_NO":"５號","E_COORD97":169458.67999999999,"N_COORD97":2549742.1600000001,"ADDRESS":"安豐五街１５巷５號","OBJECTID":276491},"geometry":{"x":169458.6799999997,"y":2549742.1600000001}},{"attributes":{"ID":276497,"DIS_CODE":0,"TOWNNAME":"安南區","LI":"新順里","LIN":"1鄰","STREET":"安豐五街","SECT":" ","MAREA":" ","LANE":"１５巷","ALLEY":" ","HOUSE_NO":"７號","E_COORD97":169455.81,"N_COORD97":2549745.7000000002,"ADDRESS":"安豐五街１５巷７號","OBJECTID":276492},"geometry":{"x":169455.81000000052,"y":2549745.7000000011}},{"attributes":{"ID":276498,"DIS_CODE":0,"TOWNNAME":"安平區","LI":"億載里","LIN":"14鄰","STREET":"平豐路","SECT":" ","MAREA":" ","LANE":"１０１巷","ALLEY":" ","HOUSE_NO":"３１號","E_COORD97":164209.98000000001,"N_COORD97":2543252.5099999998,"ADDRESS":"平豐路１０１巷３１號","OBJECTID":276493},"geometry":{"x":164209.98000000231,"y":2543252.5100000016}},{"attributes":{"ID":276499,"DIS_CODE":0,"TOWNNAME":"安平區","LI":"億載里","LIN":"14鄰","STREET":"平豐路","SECT":" ","MAREA":" ","LANE":"１０１巷","ALLEY":" ","HOUSE_NO":"３３號","E_COORD97":164204.73999999999,"N_COORD97":2543252.6600000001,"ADDRESS":"平豐路１０１巷３３號","OBJECTID":276494},"geometry":{"x":164204.74000000115,"y":2543252.6600000001}},{"attributes":{"ID":276500,"DIS_CODE":0,"TOWNNAME":"安南區","LI":"安順里","LIN":"1鄰","STREET":"總安街","SECT":"一段","MAREA":" ","LANE":"１９巷","ALLEY":" ","HOUSE_NO":"７號","E_COORD97":169917.07999999999,"N_COORD97":2550057.1000000001,"ADDRESS":"總安街一段１９巷７號","OBJECTID":276495},"geometry":{"x":169917.08000000101,"y":2550057.0999999996}},{"attributes":{"ID":276501,"DIS_CODE":0,"TOWNNAME":"中西區","LI":"福安里","LIN":"17鄰","STREET":"友愛街","SECT":" ","MAREA":" ","LANE":" ","ALLEY":" ","HOUSE_NO":"８０號","E_COORD97":167970.63,"N_COORD97":2543562.1800000002,"ADDRESS":"友愛街８０號","OBJECTID":276496},"geometry":{"x":167970.63000000082,"y":2543562.1800000016}},{"attributes":{"ID":276502,"DIS_CODE":0,"TOWNNAME":"中西區","LI":"福安里","LIN":"21鄰","STREET":"友愛街","SECT":" ","MAREA":" ","LANE":" ","ALLEY":" ","HOUSE_NO":"１１４號","E_COORD97":167872.07999999999,"N_COORD97":2543585.5099999998,"ADDRESS":"友愛街１１４號","OBJECTID":276497},"geometry":{"x":167872.08000000194,"y":2543585.5099999998}},{"attributes":{"ID":276503,"DIS_CODE":0,"TOWNNAME":"新市區","LI":"豐華里","LIN":"3鄰","STREET":" ","SECT":" ","MAREA":"豐華","LANE":" ","ALLEY":" ","HOUSE_NO":"１５之７號","E_COORD97":173909.23000000001,"N_COORD97":2554320.0499999998,"ADDRESS":"豐華１５之７號","OBJECTID":276498},"geometry":{"x":173909.23000000045,"y":2554320.0500000007}},{"attributes":{"ID":276504,"DIS_CODE":0,"TOWNNAME":"新市區","LI":"潭頂里","LIN":"3鄰","STREET":" ","SECT":" ","MAREA":"潭頂","LANE":" ","ALLEY":" ","HOUSE_NO":"１６６之１６號","E_COORD97":180933.60999999999,"N_COORD97":2552823.5499999998,"ADDRESS":"潭頂１６６之１６號","OBJECTID":276499},"geometry":{"x":180933.6100000022,"y":2552823.5500000026}},{"attributes":{"ID":276505,"DIS_CODE":0,"TOWNNAME":"新市區","LI":"潭頂里","LIN":"3鄰","STREET":" ","SECT":" ","MAREA":"潭頂","LANE":" ","ALLEY":" ","HOUSE_NO":"１６６之１２號","E_COORD97":180931.75,"N_COORD97":2552839.5499999998,"ADDRESS":"潭頂１６６之１２號","OBJECTID":276500},"geometry":{"x":180931.75,"y":2552839.5500000045}},{"attributes":{"ID":276506,"DIS_CODE":0,"TOWNNAME":"新市區","LI":"潭頂里","LIN":"3鄰","STREET":" ","SECT":" ","MAREA":"潭頂","LANE":" ","ALLEY":" ","HOUSE_NO":"１６６之１７號","E_COORD97":180934.14999999999,"N_COORD97":2552819.7999999998,"ADDRESS":"潭頂１６６之１７號","OBJECTID":276501},"geometry":{"x":180934.1500000013,"y":2552819.8000000007}},{"attributes":{"ID":276507,"DIS_CODE":0,"TOWNNAME":"新市區","LI":"潭頂里","LIN":"3鄰","STREET":" ","SECT":" ","MAREA":"潭頂","LANE":" ","ALLEY":" ","HOUSE_NO":"１８４號","E_COORD97":180824.56,"N_COORD97":2552918.75,"ADDRESS":"潭頂１８４號","OBJECTID":276502},"geometry":{"x":180824.55999999866,"y":2552918.7499999981}},{"attributes":{"ID":276508,"DIS_CODE":0,"TOWNNAME":"新市區","LI":"潭頂里","LIN":"3鄰","STREET":" ","SECT":" ","MAREA":"潭頂","LANE":" ","ALLEY":" ","HOUSE_NO":"１６６之５號","E_COORD97":180927,"N_COORD97":2552867.2999999998,"ADDRESS":"潭頂１６６之５號","OBJECTID":276503},"geometry":{"x":180927,"y":2552867.3000000007}},{"attributes":{"ID":276509,"DIS_CODE":0,"TOWNNAME":"新市區","LI":"潭頂里","LIN":"3鄰","STREET":" ","SECT":" ","MAREA":"潭頂","LANE":" ","ALLEY":" ","HOUSE_NO":"１６６之１號","E_COORD97":180925,"N_COORD97":2552883.2999999998,"ADDRESS":"潭頂１６６之１號","OBJECTID":276504},"geometry":{"x":180925,"y":2552883.3000000026}},{"attributes":{"ID":276510,"DIS_CODE":0,"TOWNNAME":"安南區","LI":"州南里","LIN":"1鄰","STREET":"安和路","SECT":"四段","MAREA":" ","LANE":"３４６巷","ALLEY":" ","HOUSE_NO":"４６號","E_COORD97":169996.39999999999,"N_COORD97":2550864.1099999999,"ADDRESS":"安和路四段３４６巷４６號","OBJECTID":276505},"geometry":{"x":169996.4000000013,"y":2550864.1099999994}},{"attributes":{"ID":276511,"DIS_CODE":0,"TOWNNAME":"新市區","LI":"新和里","LIN":"3鄰","STREET":"中正路","SECT":" ","MAREA":" ","LANE":" ","ALLEY":" ","HOUSE_NO":"５號","E_COORD97":177496.82000000001,"N_COORD97":2552146.75,"ADDRESS":"中正路５號","OBJECTID":276506},"geometry":{"x":177496.82000000123,"y":2552146.7500000019}},{"attributes":{"ID":276512,"DIS_CODE":0,"TOWNNAME":"新市區","LI":"新和里","LIN":"3鄰","STREET":"中正路","SECT":" ","MAREA":" ","LANE":" ","ALLEY":" ","HOUSE_NO":"９號","E_COORD97":177494.51999999999,"N_COORD97":2552155,"ADDRESS":"中正路９號","OBJECTID":276507},"geometry":{"x":177494.52000000048,"y":2552155.0000000019}},{"attributes":{"ID":276513,"DIS_CODE":0,"TOWNNAME":"新市區","LI":"潭頂里","LIN":"3鄰","STREET":" ","SECT":" ","MAREA":"潭頂","LANE":" ","ALLEY":" ","HOUSE_NO":"１８３號","E_COORD97":180810.42000000001,"N_COORD97":2552912.75,"ADDRESS":"潭頂１８３號","OBJECTID":276508},"geometry":{"x":180810.41999999993,"y":2552912.7500000019}},{"attributes":{"ID":276514,"DIS_CODE":0,"TOWNNAME":"新市區","LI":"豐華里","LIN":"3鄰","STREET":" ","SECT":" ","MAREA":"豐華","LANE":" ","ALLEY":" ","HOUSE_NO":"２０之１號","E_COORD97":173843.73999999999,"N_COORD97":2554176.5499999998,"ADDRESS":"豐華２０之１號","OBJECTID":276509},"geometry":{"x":173843.74000000115,"y":2554176.5500000026}},{"attributes":{"ID":276515,"DIS_CODE":0,"TOWNNAME":"安南區","LI":"州南里","LIN":"1鄰","STREET":"安和路","SECT":"四段","MAREA":" ","LANE":"３４６巷","ALLEY":" ","HOUSE_NO":"５４號","E_COORD97":170003.66,"N_COORD97":2550854.96,"ADDRESS":"安和路四段３４６巷５４號","OBJECTID":276510},"geometry":{"x":170003.66000000015,"y":2550854.9600000028}},{"attributes":{"ID":276516,"DIS_CODE":0,"TOWNNAME":"永康區","LI":"永康里","LIN":"1鄰","STREET":"中山北路","SECT":" ","MAREA":" ","LANE":"７９巷","ALLEY":" ","HOUSE_NO":"２０號","E_COORD97":174002.60999999999,"N_COORD97":2547475.2999999998,"ADDRESS":"中山北路７９巷２０號","OBJECTID":276511},"geometry":{"x":174002.61000000127,"y":2547475.3000000026}},{"attributes":{"ID":276517,"DIS_CODE":0,"TOWNNAME":"永康區","LI":"永康里","LIN":"1鄰","STREET":"中山北路","SECT":" ","MAREA":" ","LANE":"７９巷","ALLEY":" ","HOUSE_NO":"１０號","E_COORD97":174001.91,"N_COORD97":2547460.8700000001,"ADDRESS":"中山北路７９巷１０號","OBJECTID":276512},"geometry":{"x":174001.91000000108,"y":2547460.8700000048}},{"attributes":{"ID":276518,"DIS_CODE":0,"TOWNNAME":"新市區","LI":"新和里","LIN":"3鄰","STREET":"中正路","SECT":" ","MAREA":" ","LANE":" ","ALLEY":" ","HOUSE_NO":"２２號","E_COORD97":177541.06,"N_COORD97":2552241.75,"ADDRESS":"中正路２２號","OBJECTID":276513},"geometry":{"x":177541.06000000145,"y":2552241.7500000019}},{"attributes":{"ID":276519,"DIS_CODE":0,"TOWNNAME":"永康區","LI":"大橋里","LIN":"3鄰","STREET":"大橋二街","SECT":" ","MAREA":" ","LANE":" ","ALLEY":" ","HOUSE_NO":"９１號","E_COORD97":170796.91,"N_COORD97":2546588.5600000001,"ADDRESS":"大橋二街９１號","OBJECTID":276514},"geometry":{"x":170796.91000000015,"y":2546588.5600000024}},{"attributes":{"ID":276520,"DIS_CODE":0,"TOWNNAME":"永康區","LI":"大灣里","LIN":"3鄰","STREET":"信義二街","SECT":" ","MAREA":" ","LANE":" ","ALLEY":" ","HOUSE_NO":"１２７號","E_COORD97":174826.92999999999,"N_COORD97":2545719.1099999999,"ADDRESS":"信義二街１２７號","OBJECTID":276515},"geometry":{"x":174826.93000000063,"y":2545719.1100000013}},{"attributes":{"ID":276521,"DIS_CODE":0,"TOWNNAME":"永康區","LI":"永康里","LIN":"1鄰","STREET":"中山北路","SECT":" ","MAREA":" ","LANE":"７９巷","ALLEY":" ","HOUSE_NO":"４０號","E_COORD97":173968.01000000001,"N_COORD97":2547498.7400000002,"ADDRESS":"中山北路７９巷４０號","OBJECTID":276516},"geometry":{"x":173968.00999999978,"y":2547498.7400000021}},{"attributes":{"ID":276522,"DIS_CODE":0,"TOWNNAME":"永康區","LI":"永康里","LIN":"1鄰","STREET":"中山北路","SECT":" ","MAREA":" ","LANE":"７９巷","ALLEY":" ","HOUSE_NO":"２３號","E_COORD97":173954.98000000001,"N_COORD97":2547486.75,"ADDRESS":"中山北路７９巷２３號","OBJECTID":276517},"geometry":{"x":173954.98000000045,"y":2547486.75}},{"attributes":{"ID":276523,"DIS_CODE":0,"TOWNNAME":"中西區","LI":"福安里","LIN":"21鄰","STREET":"友愛街","SECT":" ","MAREA":" ","LANE":" ","ALLEY":" ","HOUSE_NO":"１１６號","E_COORD97":167867.82000000001,"N_COORD97":2543586.3100000001,"ADDRESS":"友愛街１１６號","OBJECTID":276518},"geometry":{"x":167867.82000000123,"y":2543586.3100000024}},{"attributes":{"ID":276524,"DIS_CODE":0,"TOWNNAME":"中西區","LI":"福安里","LIN":"21鄰","STREET":"友愛街","SECT":" ","MAREA":" ","LANE":" ","ALLEY":" ","HOUSE_NO":"１１８號","E_COORD97":167863.97,"N_COORD97":2543587.3700000001,"ADDRESS":"友愛街１１８號","OBJECTID":276519},"geometry":{"x":167863.9700000016,"y":2543587.370000001}},{"attributes":{"ID":276525,"DIS_CODE":0,"TOWNNAME":"永康區","LI":"永康里","LIN":"1鄰","STREET":"永埔街","SECT":" ","MAREA":" ","LANE":"３３巷","ALLEY":" ","HOUSE_NO":"１８號","E_COORD97":173965.82000000001,"N_COORD97":2547530.9900000002,"ADDRESS":"永埔街３３巷１８號","OBJECTID":276520},"geometry":{"x":173965.8200000003,"y":2547530.9900000021}},{"attributes":{"ID":276526,"DIS_CODE":0,"TOWNNAME":"永康區","LI":"永康里","LIN":"1鄰","STREET":"永埔街","SECT":" ","MAREA":" ","LANE":"３３巷","ALLEY":" ","HOUSE_NO":"１０號","E_COORD97":173982.78,"N_COORD97":2547542.2400000002,"ADDRESS":"永埔街３３巷１０號","OBJECTID":276521},"geometry":{"x":173982.78000000119,"y":2547542.2400000039}},{"attributes":{"ID":276527,"DIS_CODE":0,"TOWNNAME":"永康區","LI":"大灣里","LIN":"1鄰","STREET":"大同街","SECT":" ","MAREA":" ","LANE":"１７７巷","ALLEY":" ","HOUSE_NO":"８號","E_COORD97":174779.57000000001,"N_COORD97":2545665.1200000001,"ADDRESS":"大同街１７７巷８號","OBJECTID":276522},"geometry":{"x":174779.5700000003,"y":2545665.120000001}},{"attributes":{"ID":276528,"DIS_CODE":0,"TOWNNAME":"永康區","LI":"\u25A0行里","LIN":"1鄰","STREET":"中正路","SECT":" ","MAREA":" ","LANE":"９７０巷","ALLEY":" ","HOUSE_NO":"２７號十樓之９","E_COORD97":172044.91,"N_COORD97":2549030.4199999999,"ADDRESS":"中正路９７０巷２７號十樓之９","OBJECTID":276523},"geometry":{"x":172044.91000000015,"y":2549030.4200000018}},{"attributes":{"ID":276529,"DIS_CODE":0,"TOWNNAME":"南區","LI":"彰南里","LIN":"1鄰","STREET":"中華西路","SECT":"一段","MAREA":" ","LANE":"５８巷","ALLEY":" ","HOUSE_NO":"１２號四樓","E_COORD97":166373.48000000001,"N_COORD97":2541321.7999999998,"ADDRESS":"中華西路一段５８巷１２號四樓","OBJECTID":276524},"geometry":{"x":166373.48000000138,"y":2541321.8000000026}},{"attributes":{"ID":276530,"DIS_CODE":0,"TOWNNAME":"南區","LI":"彰南里","LIN":"1鄰","STREET":"中華西路","SECT":"一段","MAREA":" ","LANE":"５８巷","ALLEY":" ","HOUSE_NO":"２號二樓","E_COORD97":166331.51999999999,"N_COORD97":2541321.4500000002,"ADDRESS":"中華西路一段５８巷２號二樓","OBJECTID":276525},"geometry":{"x":166331.52000000048,"y":2541321.4499999974}},{"attributes":{"ID":276531,"DIS_CODE":0,"TOWNNAME":"南區","LI":"彰南里","LIN":"1鄰","STREET":"中華西路","SECT":"一段","MAREA":" ","LANE":"５８巷","ALLEY":" ","HOUSE_NO":"２號三樓","E_COORD97":166331.51999999999,"N_COORD97":2541321.4500000002,"ADDRESS":"中華西路一段５８巷２號三樓","OBJECTID":276526},"geometry":{"x":166331.52000000048,"y":2541321.4499999974}},{"attributes":{"ID":276532,"DIS_CODE":0,"TOWNNAME":"南區","LI":"彰南里","LIN":"1鄰","STREET":"中華西路","SECT":"一段","MAREA":" ","LANE":"５８巷","ALLEY":" ","HOUSE_NO":"２號五樓","E_COORD97":166331.51999999999,"N_COORD97":2541321.4500000002,"ADDRESS":"中華西路一段５８巷２號五樓","OBJECTID":276527},"geometry":{"x":166331.52000000048,"y":2541321.4499999974}},{"attributes":{"ID":276533,"DIS_CODE":0,"TOWNNAME":"南區","LI":"彰南里","LIN":"1鄰","STREET":"中華西路","SECT":"一段","MAREA":" ","LANE":"５８巷","ALLEY":" ","HOUSE_NO":"４號二樓","E_COORD97":166338.62,"N_COORD97":2541321.4500000002,"ADDRESS":"中華西路一段５８巷４號二樓","OBJECTID":276528},"geometry":{"x":166338.62000000011,"y":2541321.4499999974}},{"attributes":{"ID":276534,"DIS_CODE":0,"TOWNNAME":"南區","LI":"彰南里","LIN":"1鄰","STREET":"中華西路","SECT":"一段","MAREA":" ","LANE":"５８巷","ALLEY":" ","HOUSE_NO":"４號三樓","E_COORD97":166338.62,"N_COORD97":2541321.4500000002,"ADDRESS":"中華西路一段５８巷４號三樓","OBJECTID":276529},"geometry":{"x":166338.62000000011,"y":2541321.4499999974}},{"attributes":{"ID":276535,"DIS_CODE":0,"TOWNNAME":"永康區","LI":"復華里","LIN":"1鄰","STREET":"復國二路","SECT":" ","MAREA":" ","LANE":"２１２巷","ALLEY":" ","HOUSE_NO":"２號","E_COORD97":172984.39000000001,"N_COORD97":2545865.77,"ADDRESS":"復國二路２１２巷２號","OBJECTID":276530},"geometry":{"x":172984.3900000006,"y":2545865.7699999996}},{"attributes":{"ID":276536,"DIS_CODE":0,"TOWNNAME":"永康區","LI":"復華里","LIN":"1鄰","STREET":"復國二路","SECT":" ","MAREA":" ","LANE":"２４４巷","ALLEY":" ","HOUSE_NO":"１０號","E_COORD97":173024.51000000001,"N_COORD97":2545911.2799999998,"ADDRESS":"復國二路２４４巷１０號","OBJECTID":276531},"geometry":{"x":173024.51000000071,"y":2545911.2800000012}},{"attributes":{"ID":276537,"DIS_CODE":0,"TOWNNAME":"永康區","LI":"復華里","LIN":"1鄰","STREET":"復國二路","SECT":" ","MAREA":" ","LANE":"２４４巷","ALLEY":" ","HOUSE_NO":"１號","E_COORD97":173017.12,"N_COORD97":2545933.7000000002,"ADDRESS":"復國二路２４４巷１號","OBJECTID":276532},"geometry":{"x":173017.12000000104,"y":2545933.6999999993}},{"attributes":{"ID":276538,"DIS_CODE":0,"TOWNNAME":"永康區","LI":"勝利里","LIN":"1鄰","STREET":"勝利街","SECT":" ","MAREA":" ","LANE":"２巷","ALLEY":" ","HOUSE_NO":"１號之６","E_COORD97":171130.73000000001,"N_COORD97":2544603.79,"ADDRESS":"勝利街２巷１號之６","OBJECTID":276533},"geometry":{"x":171130.73000000045,"y":2544603.7899999991}},{"attributes":{"ID":276539,"DIS_CODE":0,"TOWNNAME":"中西區","LI":"福安里","LIN":"21鄰","STREET":"友愛街","SECT":" ","MAREA":" ","LANE":" ","ALLEY":" ","HOUSE_NO":"１２０號","E_COORD97":167859.17999999999,"N_COORD97":2543588.8300000001,"ADDRESS":"友愛街１２０號","OBJECTID":276534},"geometry":{"x":167859.18000000156,"y":2543588.8300000019}},{"attributes":{"ID":276540,"DIS_CODE":0,"TOWNNAME":"中西區","LI":"福安里","LIN":"21鄰","STREET":"友愛街","SECT":" ","MAREA":" ","LANE":" ","ALLEY":" ","HOUSE_NO":"１２２號","E_COORD97":167854.79000000001,"N_COORD97":2543589.4900000002,"ADDRESS":"友愛街１２２號","OBJECTID":276535},"geometry":{"x":167854.79000000004,"y":2543589.4900000002}},{"attributes":{"ID":276541,"DIS_CODE":0,"TOWNNAME":"中西區","LI":"福安里","LIN":"21鄰","STREET":"友愛街","SECT":" ","MAREA":" ","LANE":" ","ALLEY":" ","HOUSE_NO":"１２４號","E_COORD97":167851.73999999999,"N_COORD97":2543590.4199999999,"ADDRESS":"友愛街１２４號","OBJECTID":276536},"geometry":{"x":167851.74000000022,"y":2543590.4199999999}},{"attributes":{"ID":276542,"DIS_CODE":0,"TOWNNAME":"中西區","LI":"福安里","LIN":"21鄰","STREET":"友愛街","SECT":" ","MAREA":" ","LANE":" ","ALLEY":" ","HOUSE_NO":"１２６號","E_COORD97":167846.54999999999,"N_COORD97":2543591.75,"ADDRESS":"友愛街１２６號","OBJECTID":276537},"geometry":{"x":167846.55000000168,"y":2543591.7499999981}},{"attributes":{"ID":276543,"DIS_CODE":0,"TOWNNAME":"中西區","LI":"福安里","LIN":"21鄰","STREET":"友愛街","SECT":" ","MAREA":" ","LANE":" ","ALLEY":" ","HOUSE_NO":"１２８號","E_COORD97":167841.37,"N_COORD97":2543592.8100000001,"ADDRESS":"友愛街１２８號","OBJECTID":276538},"geometry":{"x":167841.37000000197,"y":2543592.8100000024}},{"attributes":{"ID":276544,"DIS_CODE":0,"TOWNNAME":"中西區","LI":"福安里","LIN":"21鄰","STREET":"西門路","SECT":"二段","MAREA":" ","LANE":" ","ALLEY":" ","HOUSE_NO":"６６號","E_COORD97":167824.07999999999,"N_COORD97":2543611.8100000001,"ADDRESS":"西門路二段６６號","OBJECTID":276539},"geometry":{"x":167824.08000000007,"y":2543611.8100000005}},{"attributes":{"ID":276545,"DIS_CODE":0,"TOWNNAME":"中西區","LI":"福安里","LIN":"21鄰","STREET":"西門路","SECT":"二段","MAREA":" ","LANE":" ","ALLEY":" ","HOUSE_NO":"６８號","E_COORD97":167826.34,"N_COORD97":2543618.4500000002,"ADDRESS":"西門路二段６８號","OBJECTID":276540},"geometry":{"x":167826.34000000078,"y":2543618.4500000011}},{"attributes":{"ID":276546,"DIS_CODE":0,"TOWNNAME":"中西區","LI":"福安里","LIN":"21鄰","STREET":"西門路","SECT":"二段","MAREA":" ","LANE":" ","ALLEY":" ","HOUSE_NO":"７０號","E_COORD97":167829,"N_COORD97":2543625.3500000001,"ADDRESS":"西門路二段７０號","OBJECTID":276541},"geometry":{"x":167829.00000000093,"y":2543625.3500000015}},{"attributes":{"ID":276547,"DIS_CODE":0,"TOWNNAME":"中西區","LI":"福安里","LIN":"21鄰","STREET":"西門路","SECT":"二段","MAREA":" ","LANE":" ","ALLEY":" ","HOUSE_NO":"７２號","E_COORD97":167830.60000000001,"N_COORD97":2543630.3999999999,"ADDRESS":"西門路二段７２號","OBJECTID":276542},"geometry":{"x":167830.59999999963,"y":2543630.4000000004}},{"attributes":{"ID":276548,"DIS_CODE":0,"TOWNNAME":"中西區","LI":"五妃里","LIN":"4鄰","STREET":"南門路","SECT":" ","MAREA":" ","LANE":" ","ALLEY":" ","HOUSE_NO":"２３３號","E_COORD97":168395.23999999999,"N_COORD97":2542683.23,"ADDRESS":"南門路２３３號","OBJECTID":276543},"geometry":{"x":168395.24000000115,"y":2542683.2300000004}},{"attributes":{"ID":276549,"DIS_CODE":0,"TOWNNAME":"中西區","LI":"五妃里","LIN":"4鄰","STREET":"南門路","SECT":" ","MAREA":" ","LANE":" ","ALLEY":" ","HOUSE_NO":"２３３號之１","E_COORD97":168395,"N_COORD97":2542679.4700000002,"ADDRESS":"南門路２３３號之１","OBJECTID":276544},"geometry":{"x":168395.00000000093,"y":2542679.4700000025}},{"attributes":{"ID":276550,"DIS_CODE":0,"TOWNNAME":"中西區","LI":"五妃里","LIN":"4鄰","STREET":"南門路","SECT":" ","MAREA":" ","LANE":" ","ALLEY":" ","HOUSE_NO":"２３３號之２","E_COORD97":168394.26999999999,"N_COORD97":2542674.3799999999,"ADDRESS":"南門路２３３號之２","OBJECTID":276545},"geometry":{"x":168394.27000000048,"y":2542674.3799999971}},{"attributes":{"ID":276551,"DIS_CODE":0,"TOWNNAME":"官田區","LI":"湖山里","LIN":"3鄰","STREET":" ","SECT":" ","MAREA":"烏山頭","LANE":" ","ALLEY":" ","HOUSE_NO":"１７號","E_COORD97":183339.89999999999,"N_COORD97":2567508.6699999999,"ADDRESS":"烏山頭１７號","OBJECTID":276546},"geometry":{"x":183339.90000000037,"y":2567508.6700000018}},{"attributes":{"ID":276552,"DIS_CODE":0,"TOWNNAME":"永康區","LI":"復國里","LIN":"1鄰","STREET":"復國二路","SECT":" ","MAREA":" ","LANE":"１４巷","ALLEY":" ","HOUSE_NO":"７號","E_COORD97":172858.26999999999,"N_COORD97":2544783.2599999998,"ADDRESS":"復國二路１４巷７號","OBJECTID":276547},"geometry":{"x":172858.27000000048,"y":2544783.2600000016}},{"attributes":{"ID":276553,"DIS_CODE":0,"TOWNNAME":"永康區","LI":"\u25A0行里","LIN":"3鄰","STREET":"中正路","SECT":" ","MAREA":" ","LANE":" ","ALLEY":" ","HOUSE_NO":"９１２號","E_COORD97":172029.26000000001,"N_COORD97":2548877.79,"ADDRESS":"中正路９１２號","OBJECTID":276548},"geometry":{"x":172029.26000000071,"y":2548877.790000001}},{"attributes":{"ID":276554,"DIS_CODE":0,"TOWNNAME":"永康區","LI":"復國里","LIN":"3鄰","STREET":"復國一路","SECT":" ","MAREA":" ","LANE":" ","ALLEY":" ","HOUSE_NO":"２４號","E_COORD97":172727.26000000001,"N_COORD97":2544743.27,"ADDRESS":"復國一路２４號","OBJECTID":276549},"geometry":{"x":172727.26000000164,"y":2544743.2699999996}},{"attributes":{"ID":276555,"DIS_CODE":0,"TOWNNAME":"永康區","LI":"勝利里","LIN":"1鄰","STREET":"勝利街","SECT":" ","MAREA":" ","LANE":"２巷","ALLEY":" ","HOUSE_NO":"１號之４","E_COORD97":171118.89999999999,"N_COORD97":2544662.2999999998,"ADDRESS":"勝利街２巷１號之４","OBJECTID":276550},"geometry":{"x":171118.9000000013,"y":2544662.3000000007}},{"attributes":{"ID":276556,"DIS_CODE":0,"TOWNNAME":"永康區","LI":"復國里","LIN":"1鄰","STREET":"復國二路","SECT":" ","MAREA":" ","LANE":"１４巷","ALLEY":" ","HOUSE_NO":"１５號","E_COORD97":172876.51999999999,"N_COORD97":2544783.2599999998,"ADDRESS":"復國二路１４巷１５號","OBJECTID":276551},"geometry":{"x":172876.52000000048,"y":2544783.2600000016}},{"attributes":{"ID":276557,"DIS_CODE":0,"TOWNNAME":"永康區","LI":"復國里","LIN":"1鄰","STREET":"復國二路","SECT":" ","MAREA":" ","LANE":"１０巷","ALLEY":" ","HOUSE_NO":"１２號","E_COORD97":172865.47,"N_COORD97":2544752.7000000002,"ADDRESS":"復國二路１０巷１２號","OBJECTID":276552},"geometry":{"x":172865.47000000067,"y":2544752.7000000011}},{"attributes":{"ID":276558,"DIS_CODE":0,"TOWNNAME":"永康區","LI":"復國里","LIN":"1鄰","STREET":"復國二路","SECT":" ","MAREA":" ","LANE":"１６巷","ALLEY":" ","HOUSE_NO":"１號","E_COORD97":172843.76000000001,"N_COORD97":2544822.3199999998,"ADDRESS":"復國二路１６巷１號","OBJECTID":276553},"geometry":{"x":172843.75999999978,"y":2544822.3199999984}},{"attributes":{"ID":276559,"DIS_CODE":0,"TOWNNAME":"永康區","LI":"大橋里","LIN":"1鄰","STREET":"大橋一街","SECT":" ","MAREA":" ","LANE":"７３巷","ALLEY":" ","HOUSE_NO":"１３５號","E_COORD97":170639.67999999999,"N_COORD97":2546655.75,"ADDRESS":"大橋一街７３巷１３５號","OBJECTID":276554},"geometry":{"x":170639.68000000063,"y":2546655.75}},{"attributes":{"ID":276560,"DIS_CODE":0,"TOWNNAME":"永康區","LI":"中興里","LIN":"1鄰","STREET":"忠孝路","SECT":" ","MAREA":" ","LANE":"２１７巷","ALLEY":" ","HOUSE_NO":"１號","E_COORD97":172068.57000000001,"N_COORD97":2544987,"ADDRESS":"忠孝路２１７巷１號","OBJECTID":276555},"geometry":{"x":172068.57000000123,"y":2544987.0000000037}},{"attributes":{"ID":276561,"DIS_CODE":0,"TOWNNAME":"七股區","LI":"竹橋里","LIN":"1鄰","STREET":" ","SECT":" ","MAREA":"竹橋","LANE":" ","ALLEY":" ","HOUSE_NO":"８號","E_COORD97":164506.81,"N_COORD97":2556117.75,"ADDRESS":"竹橋８號","OBJECTID":276556},"geometry":{"x":164506.81000000145,"y":2556117.75}},{"attributes":{"ID":276562,"DIS_CODE":0,"TOWNNAME":"永康區","LI":"復國里","LIN":"1鄰","STREET":"復國二路","SECT":" ","MAREA":" ","LANE":"１０巷","ALLEY":" ","HOUSE_NO":"１１號","E_COORD97":172870.31,"N_COORD97":2544761.54,"ADDRESS":"復國二路１０巷１１號","OBJECTID":276557},"geometry":{"x":172870.30999999959,"y":2544761.5399999991}},{"attributes":{"ID":276563,"DIS_CODE":0,"TOWNNAME":"永康區","LI":"復國里","LIN":"1鄰","STREET":"復國二路","SECT":" ","MAREA":" ","LANE":"１６巷","ALLEY":" ","HOUSE_NO":"１０號","E_COORD97":172861.70999999999,"N_COORD97":2544807.21,"ADDRESS":"復國二路１６巷１０號","OBJECTID":276558},"geometry":{"x":172861.71000000183,"y":2544807.2100000046}},{"attributes":{"ID":276564,"DIS_CODE":0,"TOWNNAME":"仁德區","LI":"田厝里","LIN":"1鄰","STREET":"中正路","SECT":"一段","MAREA":" ","LANE":"４４５巷","ALLEY":" ","HOUSE_NO":"８６號","E_COORD97":172635.04000000001,"N_COORD97":2537222.5299999998,"ADDRESS":"中正路一段４４５巷８６號","OBJECTID":276559},"geometry":{"x":172635.04000000004,"y":2537222.5300000012}},{"attributes":{"ID":276565,"DIS_CODE":0,"TOWNNAME":"仁德區","LI":"仁義里","LIN":"1鄰","STREET":"中山路","SECT":" ","MAREA":" ","LANE":"１巷","ALLEY":" ","HOUSE_NO":"５號","E_COORD97":175288.12,"N_COORD97":2541003.4900000002,"ADDRESS":"中山路１巷５號","OBJECTID":276560},"geometry":{"x":175288.12000000011,"y":2541003.4899999984}},{"attributes":{"ID":276566,"DIS_CODE":0,"TOWNNAME":"仁德區","LI":"田厝里","LIN":"1鄰","STREET":"保安路","SECT":"二段","MAREA":" ","LANE":"６３０巷","ALLEY":" ","HOUSE_NO":"８號","E_COORD97":172769.69,"N_COORD97":2537547.3799999999,"ADDRESS":"保安路二段６３０巷８號","OBJECTID":276561},"geometry":{"x":172769.69000000134,"y":2537547.379999999}},{"attributes":{"ID":276567,"DIS_CODE":0,"TOWNNAME":"白河區","LI":"大竹里","LIN":"3鄰","STREET":" ","SECT":" ","MAREA":"大排竹","LANE":" ","ALLEY":" ","HOUSE_NO":"３５號","E_COORD97":189900.89000000001,"N_COORD97":2585383.9199999999,"ADDRESS":"大排竹３５號","OBJECTID":276562},"geometry":{"x":189900.8900000006,"y":2585383.9200000037}},{"attributes":{"ID":276568,"DIS_CODE":0,"TOWNNAME":"善化區","LI":"東關里","LIN":"1鄰","STREET":"中正路","SECT":" ","MAREA":" ","LANE":"５３７巷","ALLEY":" ","HOUSE_NO":"２４號","E_COORD97":177623.14000000001,"N_COORD97":2559183.8999999999,"ADDRESS":"中正路５３７巷２４號","OBJECTID":276563},"geometry":{"x":177623.13999999966,"y":2559183.9000000041}},{"attributes":{"ID":276569,"DIS_CODE":0,"TOWNNAME":"中西區","LI":"西賢里","LIN":"1鄰","STREET":"湖美街","SECT":" ","MAREA":" ","LANE":"３１巷","ALLEY":" ","HOUSE_NO":"３６號","E_COORD97":165862.84,"N_COORD97":2544521.9700000002,"ADDRESS":"湖美街３１巷３６號","OBJECTID":276564},"geometry":{"x":165862.83999999985,"y":2544521.9700000007}},{"attributes":{"ID":276570,"DIS_CODE":0,"TOWNNAME":"白河區","LI":"大竹里","LIN":"3鄰","STREET":" ","SECT":" ","MAREA":"大排竹","LANE":" ","ALLEY":" ","HOUSE_NO":"３７之１號","E_COORD97":189857.19,"N_COORD97":2585388.5499999998,"ADDRESS":"大排竹３７之１號","OBJECTID":276565},"geometry":{"x":189857.19000000134,"y":2585388.5500000026}},{"attributes":{"ID":276571,"DIS_CODE":0,"TOWNNAME":"中西區","LI":"五妃里","LIN":"4鄰","STREET":"南門路","SECT":" ","MAREA":" ","LANE":" ","ALLEY":" ","HOUSE_NO":"２３３號之３","E_COORD97":168393.79000000001,"N_COORD97":2542669.6499999999,"ADDRESS":"南門路２３３號之３","OBJECTID":276566},"geometry":{"x":168393.79000000004,"y":2542669.6500000004}},{"attributes":{"ID":276572,"DIS_CODE":0,"TOWNNAME":"中西區","LI":"文賢里","LIN":"1鄰","STREET":"文和街","SECT":" ","MAREA":" ","LANE":"９巷","ALLEY":" ","HOUSE_NO":"１１號","E_COORD97":167297.84,"N_COORD97":2544932.3100000001,"ADDRESS":"文和街９巷１１號","OBJECTID":276567},"geometry":{"x":167297.84000000078,"y":2544932.3100000024}},{"attributes":{"ID":276573,"DIS_CODE":0,"TOWNNAME":"中西區","LI":"文賢里","LIN":"1鄰","STREET":"文和街","SECT":" ","MAREA":" ","LANE":"９巷","ALLEY":" ","HOUSE_NO":"１３號","E_COORD97":167297.84,"N_COORD97":2544927.0899999999,"ADDRESS":"文和街９巷１３號","OBJECTID":276568},"geometry":{"x":167297.84000000078,"y":2544927.0899999999}},{"attributes":{"ID":276574,"DIS_CODE":0,"TOWNNAME":"中西區","LI":"文賢里","LIN":"1鄰","STREET":"文和街","SECT":" ","MAREA":" ","LANE":"９巷","ALLEY":" ","HOUSE_NO":"１５號","E_COORD97":167297.84,"N_COORD97":2544922.6099999999,"ADDRESS":"文和街９巷１５號","OBJECTID":276569},"geometry":{"x":167297.84000000078,"y":2544922.6100000013}},{"attributes":{"ID":276575,"DIS_CODE":0,"TOWNNAME":"中西區","LI":"文賢里","LIN":"1鄰","STREET":"文和街","SECT":" ","MAREA":" ","LANE":"９巷","ALLEY":" ","HOUSE_NO":"１７號","E_COORD97":167297.70999999999,"N_COORD97":2544918.75,"ADDRESS":"文和街９巷１７號","OBJECTID":276570},"geometry":{"x":167297.70999999996,"y":2544918.7500000019}},{"attributes":{"ID":276576,"DIS_CODE":0,"TOWNNAME":"永康區","LI":"勝利里","LIN":"1鄰","STREET":"勝利街","SECT":" ","MAREA":" ","LANE":"２巷","ALLEY":" ","HOUSE_NO":"１號之１","E_COORD97":171119.17000000001,"N_COORD97":2544674.5499999998,"ADDRESS":"勝利街２巷１號之１","OBJECTID":276571},"geometry":{"x":171119.16999999993,"y":2544674.5500000007}},{"attributes":{"ID":276577,"DIS_CODE":0,"TOWNNAME":"永康區","LI":"復國里","LIN":"1鄰","STREET":"復國二路","SECT":" ","MAREA":" ","LANE":"１６巷","ALLEY":" ","HOUSE_NO":"５號","E_COORD97":172852.23999999999,"N_COORD97":2544822.3199999998,"ADDRESS":"復國二路１６巷５號","OBJECTID":276572},"geometry":{"x":172852.24000000115,"y":2544822.3199999984}},{"attributes":{"ID":276578,"DIS_CODE":0,"TOWNNAME":"永康區","LI":"復國里","LIN":"1鄰","STREET":"復國二路","SECT":" ","MAREA":" ","LANE":"１０巷","ALLEY":" ","HOUSE_NO":"９號","E_COORD97":172864.10999999999,"N_COORD97":2544761.54,"ADDRESS":"復國二路１０巷９號","OBJECTID":276573},"geometry":{"x":172864.11000000034,"y":2544761.5399999991}},{"attributes":{"ID":276579,"DIS_CODE":0,"TOWNNAME":"永康區","LI":"復華里","LIN":"1鄰","STREET":"復國二路","SECT":" ","MAREA":" ","LANE":"２７４巷","ALLEY":" ","HOUSE_NO":"１號","E_COORD97":173041.07999999999,"N_COORD97":2546070.1899999999,"ADDRESS":"復國二路２７４巷１號","OBJECTID":276574},"geometry":{"x":173041.08000000101,"y":2546070.1900000032}},{"attributes":{"ID":276580,"DIS_CODE":0,"TOWNNAME":"永康區","LI":"復華里","LIN":"1鄰","STREET":"復國二路","SECT":" ","MAREA":" ","LANE":"２８０巷","ALLEY":" ","HOUSE_NO":"１４號","E_COORD97":173051.10000000001,"N_COORD97":2546095.0099999998,"ADDRESS":"復國二路２８０巷１４號","OBJECTID":276575},"geometry":{"x":173051.10000000056,"y":2546095.0099999998}},{"attributes":{"ID":276581,"DIS_CODE":0,"TOWNNAME":"安南區","LI":"安富里","LIN":"1鄰","STREET":"郡安路","SECT":"五段","MAREA":" ","LANE":"１９２巷","ALLEY":" ","HOUSE_NO":"５１號","E_COORD97":167278.37,"N_COORD97":2547705.6800000002,"ADDRESS":"郡安路五段１９２巷５１號","OBJECTID":276576},"geometry":{"x":167278.37000000011,"y":2547705.6800000016}},{"attributes":{"ID":276582,"DIS_CODE":0,"TOWNNAME":"安南區","LI":"安富里","LIN":"1鄰","STREET":"郡安路","SECT":"五段","MAREA":" ","LANE":"１９２巷","ALLEY":" ","HOUSE_NO":"５３號","E_COORD97":167273.56,"N_COORD97":2547703.6200000001,"ADDRESS":"郡安路五段１９２巷５３號","OBJECTID":276577},"geometry":{"x":167273.56000000052,"y":2547703.6200000029}},{"attributes":{"ID":276583,"DIS_CODE":0,"TOWNNAME":"安南區","LI":"安富里","LIN":"1鄰","STREET":"郡安路","SECT":"五段","MAREA":" ","LANE":"１９２巷","ALLEY":" ","HOUSE_NO":"５號","E_COORD97":167415.64000000001,"N_COORD97":2547731.5699999998,"ADDRESS":"郡安路五段１９２巷５號","OBJECTID":276578},"geometry":{"x":167415.6400000006,"y":2547731.5700000003}},{"attributes":{"ID":276584,"DIS_CODE":0,"TOWNNAME":"安南區","LI":"安富里","LIN":"1鄰","STREET":"郡安路","SECT":"五段","MAREA":" ","LANE":"１９２巷","ALLEY":" ","HOUSE_NO":"７號","E_COORD97":167408.29999999999,"N_COORD97":2547731.7999999998,"ADDRESS":"郡安路五段１９２巷７號","OBJECTID":276579},"geometry":{"x":167408.30000000075,"y":2547731.8000000007}},{"attributes":{"ID":276585,"DIS_CODE":0,"TOWNNAME":"安南區","LI":"淵東里","LIN":"1鄰","STREET":"海佃路","SECT":"四段","MAREA":" ","LANE":"５５巷","ALLEY":" ","HOUSE_NO":"１１號","E_COORD97":165669.35000000001,"N_COORD97":2550576.0299999998,"ADDRESS":"海佃路四段５５巷１１號","OBJECTID":276580},"geometry":{"x":165669.3499999987,"y":2550576.0299999993}},{"attributes":{"ID":276586,"DIS_CODE":0,"TOWNNAME":"安南區","LI":"淵東里","LIN":"1鄰","STREET":"海佃路","SECT":"四段","MAREA":" ","LANE":"５５巷","ALLEY":" ","HOUSE_NO":"１３號","E_COORD97":165664.59,"N_COORD97":2550574.8100000001,"ADDRESS":"海佃路四段５５巷１３號","OBJECTID":276581},"geometry":{"x":165664.58999999892,"y":2550574.8100000005}},{"attributes":{"ID":276587,"DIS_CODE":0,"TOWNNAME":"安南區","LI":"淵東里","LIN":"1鄰","STREET":"海佃路","SECT":"四段","MAREA":" ","LANE":"５５巷","ALLEY":" ","HOUSE_NO":"１５號","E_COORD97":165660.44,"N_COORD97":2550573.73,"ADDRESS":"海佃路四段５５巷１５號","OBJECTID":276582},"geometry":{"x":165660.44000000041,"y":2550573.7300000023}},{"attributes":{"ID":276588,"DIS_CODE":0,"TOWNNAME":"安南區","LI":"淵東里","LIN":"1鄰","STREET":"海佃路","SECT":"四段","MAREA":" ","LANE":"５５巷","ALLEY":" ","HOUSE_NO":"１７號","E_COORD97":165656.29000000001,"N_COORD97":2550572.2000000002,"ADDRESS":"海佃路四段５５巷１７號","OBJECTID":276583},"geometry":{"x":165656.29000000004,"y":2550572.200000003}},{"attributes":{"ID":276589,"DIS_CODE":0,"TOWNNAME":"安南區","LI":"淵東里","LIN":"1鄰","STREET":"海佃路","SECT":"四段","MAREA":" ","LANE":"５５巷","ALLEY":" ","HOUSE_NO":"１９號","E_COORD97":165651.98000000001,"N_COORD97":2550570.9700000002,"ADDRESS":"海佃路四段５５巷１９號","OBJECTID":276584},"geometry":{"x":165651.98000000045,"y":2550570.9700000007}},{"attributes":{"ID":276590,"DIS_CODE":0,"TOWNNAME":"安南區","LI":"淵東里","LIN":"1鄰","STREET":"海佃路","SECT":"四段","MAREA":" ","LANE":"５５巷","ALLEY":" ","HOUSE_NO":"２１號","E_COORD97":165647.82999999999,"N_COORD97":2550569.5899999999,"ADDRESS":"海佃路四段５５巷２１號","OBJECTID":276585},"geometry":{"x":165647.83000000007,"y":2550569.5899999999}},{"attributes":{"ID":276591,"DIS_CODE":0,"TOWNNAME":"安南區","LI":"淵東里","LIN":"1鄰","STREET":"海佃路","SECT":"四段","MAREA":" ","LANE":"５５巷","ALLEY":" ","HOUSE_NO":"２３號","E_COORD97":165643.53,"N_COORD97":2550567.8999999999,"ADDRESS":"海佃路四段５５巷２３號","OBJECTID":276586},"geometry":{"x":165643.53000000212,"y":2550567.9000000004}},{"attributes":{"ID":276592,"DIS_CODE":0,"TOWNNAME":"安南區","LI":"淵東里","LIN":"1鄰","STREET":"海佃路","SECT":"四段","MAREA":" ","LANE":"５５巷","ALLEY":" ","HOUSE_NO":"２５號","E_COORD97":165639.67999999999,"N_COORD97":2550566.52,"ADDRESS":"海佃路四段５５巷２５號","OBJECTID":276587},"geometry":{"x":165639.6799999997,"y":2550566.5199999996}},{"attributes":{"ID":276593,"DIS_CODE":0,"TOWNNAME":"安南區","LI":"淵東里","LIN":"1鄰","STREET":"海佃路","SECT":"四段","MAREA":" ","LANE":"５５巷","ALLEY":" ","HOUSE_NO":"７號","E_COORD97":165677.04000000001,"N_COORD97":2550578.0299999998,"ADDRESS":"海佃路四段５５巷７號","OBJECTID":276588},"geometry":{"x":165677.0400000019,"y":2550578.0300000012}},{"attributes":{"ID":276594,"DIS_CODE":0,"TOWNNAME":"安南區","LI":"淵東里","LIN":"1鄰","STREET":"海佃路","SECT":"四段","MAREA":" ","LANE":"５５巷","ALLEY":" ","HOUSE_NO":"９號","E_COORD97":165673.20000000001,"N_COORD97":2550577.1099999999,"ADDRESS":"海佃路四段５５巷９號","OBJECTID":276589},"geometry":{"x":165673.20000000112,"y":2550577.1100000013}},{"attributes":{"ID":276595,"DIS_CODE":0,"TOWNNAME":"安南區","LI":"州北里","LIN":"1鄰","STREET":"安和路","SECT":"五段","MAREA":" ","LANE":"８１巷","ALLEY":" ","HOUSE_NO":"５２號之１","E_COORD97":169774.56,"N_COORD97":2551653.9700000002,"ADDRESS":"安和路五段８１巷５２號之１","OBJECTID":276590},"geometry":{"x":169774.56000000052,"y":2551653.9700000025}},{"attributes":{"ID":276596,"DIS_CODE":0,"TOWNNAME":"新化區","LI":"北勢里","LIN":"2鄰","STREET":" ","SECT":" ","MAREA":"北勢","LANE":" ","ALLEY":" ","HOUSE_NO":"１５號","E_COORD97":177451.32999999999,"N_COORD97":2549443.2599999998,"ADDRESS":"北勢１５號","OBJECTID":276591},"geometry":{"x":177451.33000000007,"y":2549443.2599999979}},{"attributes":{"ID":276597,"DIS_CODE":0,"TOWNNAME":"安南區","LI":"理想里","LIN":"1鄰","STREET":"同安路","SECT":" ","MAREA":" ","LANE":"５２巷","ALLEY":" ","HOUSE_NO":"３２號","E_COORD97":166932.19,"N_COORD97":2548755.4700000002,"ADDRESS":"同安路５２巷３２號","OBJECTID":276592},"geometry":{"x":166932.19000000041,"y":2548755.4700000025}},{"attributes":{"ID":276598,"DIS_CODE":0,"TOWNNAME":"安南區","LI":"理想里","LIN":"1鄰","STREET":"同安路","SECT":" ","MAREA":" ","LANE":"５２巷","ALLEY":" ","HOUSE_NO":"１５號","E_COORD97":166923.5,"N_COORD97":2548810.8300000001,"ADDRESS":"同安路５２巷１５號","OBJECTID":276593},"geometry":{"x":166923.50000000093,"y":2548810.8300000019}},{"attributes":{"ID":276599,"DIS_CODE":0,"TOWNNAME":"安南區","LI":"理想里","LIN":"1鄰","STREET":"同安路","SECT":" ","MAREA":" ","LANE":"５２巷","ALLEY":" ","HOUSE_NO":"２７號","E_COORD97":166945.60999999999,"N_COORD97":2548778.1499999999,"ADDRESS":"同安路５２巷２７號","OBJECTID":276594},"geometry":{"x":166945.61000000127,"y":2548778.1500000022}},{"attributes":{"ID":276600,"DIS_CODE":0,"TOWNNAME":"安南區","LI":"溪心里","LIN":"1鄰","STREET":"海環街","SECT":" ","MAREA":" ","LANE":"７１５巷","ALLEY":" ","HOUSE_NO":"１００號","E_COORD97":166351.97,"N_COORD97":2549509.4700000002,"ADDRESS":"海環街７１５巷１００號","OBJECTID":276595},"geometry":{"x":166351.9700000016,"y":2549509.4700000007}},{"attributes":{"ID":276601,"DIS_CODE":0,"TOWNNAME":"安南區","LI":"溪心里","LIN":"1鄰","STREET":"海環街","SECT":" ","MAREA":" ","LANE":"７１５巷","ALLEY":" ","HOUSE_NO":"１０６號","E_COORD97":166360.51000000001,"N_COORD97":2549528.6800000002,"ADDRESS":"海環街７１５巷１０６號","OBJECTID":276596},"geometry":{"x":166360.51000000071,"y":2549528.6800000034}},{"attributes":{"ID":276602,"DIS_CODE":0,"TOWNNAME":"安南區","LI":"溪心里","LIN":"1鄰","STREET":"海環街","SECT":" ","MAREA":" ","LANE":"７１５巷","ALLEY":" ","HOUSE_NO":"１１０號","E_COORD97":166375.47,"N_COORD97":2549513.4100000001,"ADDRESS":"海環街７１５巷１１０號","OBJECTID":276597},"geometry":{"x":166375.46999999974,"y":2549513.4100000001}},{"attributes":{"ID":276603,"DIS_CODE":0,"TOWNNAME":"安南區","LI":"溪心里","LIN":"1鄰","STREET":"海環街","SECT":" ","MAREA":" ","LANE":"７１５巷","ALLEY":" ","HOUSE_NO":"９５號","E_COORD97":166337.29999999999,"N_COORD97":2549482.6400000001,"ADDRESS":"海環街７１５巷９５號","OBJECTID":276598},"geometry":{"x":166337.29999999981,"y":2549482.6400000043}},{"attributes":{"ID":276604,"DIS_CODE":0,"TOWNNAME":"中西區","LI":"萬昌里","LIN":"17鄰","STREET":"青年路","SECT":" ","MAREA":" ","LANE":"１６４巷","ALLEY":" ","HOUSE_NO":"６號","E_COORD97":168984.04000000001,"N_COORD97":2543571.1899999999,"ADDRESS":"青年路１６４巷６號","OBJECTID":276599},"geometry":{"x":168984.04000000004,"y":2543571.1899999995}},{"attributes":{"ID":276605,"DIS_CODE":0,"TOWNNAME":"安南區","LI":"溪心里","LIN":"1鄰","STREET":"海環街","SECT":" ","MAREA":" ","LANE":"７１５巷","ALLEY":" ","HOUSE_NO":"９５號之１","E_COORD97":166319.10999999999,"N_COORD97":2549473.4900000002,"ADDRESS":"海環街７１５巷９５號之１","OBJECTID":276600},"geometry":{"x":166319.11000000034,"y":2549473.4900000021}}]}