{"displayFieldName":"TOWNNAME","fieldAliases":{"ID":"ID","DIS_CODE":"DIS_CODE","TOWNNAME":"TOWNNAME","LI":"LI","LIN":"LIN","STREET":"STREET","SECT":"SECT","MAREA":"MAREA","LANE":"LANE","ALLEY":"ALLEY","HOUSE_NO":"HOUSE_NO","E_COORD97":"E_COORD97","N_COORD97":"N_COORD97","ADDRESS":"ADDRESS","OBJECTID":"OBJECTID"},"geometryType":"esriGeometryPoint","spatialReference":{"wkid":102443,"latestWkid":3826},"fields":[{"name":"ID","type":"esriFieldTypeDouble","alias":"ID"},{"name":"DIS_CODE","type":"esriFieldTypeInteger","alias":"DIS_CODE"},{"name":"TOWNNAME","type":"esriFieldTypeString","alias":"TOWNNAME","length":8},{"name":"LI","type":"esriFieldTypeString","alias":"LI","length":8},{"name":"LIN","type":"esriFieldTypeString","alias":"LIN","length":12},{"name":"STREET","type":"esriFieldTypeString","alias":"STREET","length":20},{"name":"SECT","type":"esriFieldTypeString","alias":"SECT","length":8},{"name":"MAREA","type":"esriFieldTypeString","alias":"MAREA","length":12},{"name":"LANE","type":"esriFieldTypeString","alias":"LANE","length":10},{"name":"ALLEY","type":"esriFieldTypeString","alias":"ALLEY","length":10},{"name":"HOUSE_NO","type":"esriFieldTypeString","alias":"HOUSE_NO","length":20},{"name":"E_COORD97","type":"esriFieldTypeDouble","alias":"E_COORD97"},{"name":"N_COORD97","type":"esriFieldTypeDouble","alias":"N_COORD97"},{"name":"ADDRESS","type":"esriFieldTypeString","alias":"ADDRESS","length":50},{"name":"OBJECTID","type":"esriFieldTypeOID","alias":"OBJECTID"}],"features":[{"attributes":{"ID":125401,"DIS_CODE":0,"TOWNNAME":"安南區","LI":"淵中里","LIN":"6鄰","STREET":"安中路","SECT":"四段","MAREA":" ","LANE":" ","ALLEY":" ","HOUSE_NO":"１２６號","E_COORD97":165029.07000000001,"N_COORD97":2549995.9700000002,"ADDRESS":"安中路四段１２６號","OBJECTID":125401},"geometry":{"x":165029.0700000003,"y":2549995.9700000025}},{"attributes":{"ID":125402,"DIS_CODE":0,"TOWNNAME":"安南區","LI":"淵中里","LIN":"6鄰","STREET":"安中路","SECT":"四段","MAREA":" ","LANE":" ","ALLEY":" ","HOUSE_NO":"１２８號","E_COORD97":165024.17000000001,"N_COORD97":2549997.5699999998,"ADDRESS":"安中路四段１２８號","OBJECTID":125402},"geometry":{"x":165024.17000000086,"y":2549997.5700000003}},{"attributes":{"ID":125403,"DIS_CODE":0,"TOWNNAME":"永康區","LI":"安康里","LIN":"16鄰","STREET":"中華路","SECT":" ","MAREA":" ","LANE":"６１９巷","ALLEY":"８８弄","HOUSE_NO":"６５號二樓之１","E_COORD97":170895.73000000001,"N_COORD97":2546113.0499999998,"ADDRESS":"中華路６１９巷８８弄６５號二樓之１","OBJECTID":125403},"geometry":{"x":170895.73000000231,"y":2546113.0500000045}},{"attributes":{"ID":125404,"DIS_CODE":0,"TOWNNAME":"永康區","LI":"安康里","LIN":"16鄰","STREET":"中華路","SECT":" ","MAREA":" ","LANE":"６１９巷","ALLEY":"８８弄","HOUSE_NO":"６５號三樓之３","E_COORD97":170895.82999999999,"N_COORD97":2546113.0499999998,"ADDRESS":"中華路６１９巷８８弄６５號三樓之３","OBJECTID":125404},"geometry":{"x":170895.83000000007,"y":2546113.0500000045}},{"attributes":{"ID":125405,"DIS_CODE":0,"TOWNNAME":"永康區","LI":"安康里","LIN":"16鄰","STREET":"中華路","SECT":" ","MAREA":" ","LANE":"６１９巷","ALLEY":"８８弄","HOUSE_NO":"６５號三樓之１","E_COORD97":170895.73000000001,"N_COORD97":2546113.0499999998,"ADDRESS":"中華路６１９巷８８弄６５號三樓之１","OBJECTID":125405},"geometry":{"x":170895.73000000231,"y":2546113.0500000045}},{"attributes":{"ID":125406,"DIS_CODE":0,"TOWNNAME":"永康區","LI":"安康里","LIN":"16鄰","STREET":"中華路","SECT":" ","MAREA":" ","LANE":"６１９巷","ALLEY":"８８弄","HOUSE_NO":"６５號三樓之２","E_COORD97":170895.85999999999,"N_COORD97":2546113.0499999998,"ADDRESS":"中華路６１９巷８８弄６５號三樓之２","OBJECTID":125406},"geometry":{"x":170895.86000000034,"y":2546113.0500000045}},{"attributes":{"ID":125407,"DIS_CODE":0,"TOWNNAME":"永康區","LI":"安康里","LIN":"16鄰","STREET":"中華路","SECT":" ","MAREA":" ","LANE":"６１９巷","ALLEY":"８８弄","HOUSE_NO":"６５號五樓之１","E_COORD97":170895.73000000001,"N_COORD97":2546113.0499999998,"ADDRESS":"中華路６１９巷８８弄６５號五樓之１","OBJECTID":125407},"geometry":{"x":170895.73000000231,"y":2546113.0500000045}},{"attributes":{"ID":125408,"DIS_CODE":0,"TOWNNAME":"仁德區","LI":"成功里","LIN":"29鄰","STREET":"成功一街","SECT":" ","MAREA":" ","LANE":"１巷","ALLEY":"２６弄","HOUSE_NO":"２８號","E_COORD97":170683.82999999999,"N_COORD97":2540131.9300000002,"ADDRESS":"成功一街１巷２６弄２８號","OBJECTID":125408},"geometry":{"x":170683.83000000007,"y":2540131.9299999997}},{"attributes":{"ID":125409,"DIS_CODE":0,"TOWNNAME":"仁德區","LI":"仁義里","LIN":"46鄰","STREET":"仁義路","SECT":" ","MAREA":" ","LANE":"９８巷","ALLEY":"１３弄","HOUSE_NO":"１１號","E_COORD97":173665.88,"N_COORD97":2540929.29,"ADDRESS":"仁義路９８巷１３弄１１號","OBJECTID":125409},"geometry":{"x":173665.88000000082,"y":2540929.2900000028}},{"attributes":{"ID":125410,"DIS_CODE":0,"TOWNNAME":"仁德區","LI":"太子里","LIN":"41鄰","STREET":"太子路","SECT":" ","MAREA":" ","LANE":"６６巷","ALLEY":"４弄","HOUSE_NO":"５號","E_COORD97":175251.47,"N_COORD97":2543656.2599999998,"ADDRESS":"太子路６６巷４弄５號","OBJECTID":125410},"geometry":{"x":175251.46999999974,"y":2543656.2600000035}},{"attributes":{"ID":125411,"DIS_CODE":0,"TOWNNAME":"永康區","LI":"神洲里","LIN":"16鄰","STREET":"忠孝路","SECT":" ","MAREA":" ","LANE":"７６巷","ALLEY":"４９弄","HOUSE_NO":"９號四樓","E_COORD97":172239.04000000001,"N_COORD97":2544962.98,"ADDRESS":"忠孝路７６巷４９弄９號四樓","OBJECTID":125411},"geometry":{"x":172239.03999999911,"y":2544962.9800000004}},{"attributes":{"ID":125412,"DIS_CODE":0,"TOWNNAME":"永康區","LI":"神洲里","LIN":"16鄰","STREET":"忠孝路","SECT":" ","MAREA":" ","LANE":"７６巷","ALLEY":"４９弄","HOUSE_NO":"７號三樓","E_COORD97":172247.82000000001,"N_COORD97":2544963.23,"ADDRESS":"忠孝路７６巷４９弄７號三樓","OBJECTID":125412},"geometry":{"x":172247.82000000216,"y":2544963.2300000023}},{"attributes":{"ID":125413,"DIS_CODE":0,"TOWNNAME":"西港區","LI":"營西里","LIN":" ","STREET":" ","SECT":" ","MAREA":"後營","LANE":" ","ALLEY":" ","HOUSE_NO":"２７號","E_COORD97":169629.67000000001,"N_COORD97":2560195.3199999998,"ADDRESS":"後營２７號","OBJECTID":125413},"geometry":{"x":169629.67000000086,"y":2560195.3200000022}},{"attributes":{"ID":125414,"DIS_CODE":0,"TOWNNAME":"將軍區","LI":"鯤鯓里","LIN":"19鄰","STREET":" ","SECT":" ","MAREA":"鯤鯓","LANE":" ","ALLEY":" ","HOUSE_NO":"２２８之１０號","E_COORD97":156874.73999999999,"N_COORD97":2565534.0899999999,"ADDRESS":"鯤鯓２２８之１０號","OBJECTID":125414},"geometry":{"x":156874.74000000115,"y":2565534.0899999999}},{"attributes":{"ID":125415,"DIS_CODE":0,"TOWNNAME":"將軍區","LI":"鯤鯓里","LIN":"19鄰","STREET":" ","SECT":" ","MAREA":"鯤鯓","LANE":" ","ALLEY":" ","HOUSE_NO":"２２８之１９號","E_COORD97":156878.75,"N_COORD97":2565499.3599999999,"ADDRESS":"鯤鯓２２８之１９號","OBJECTID":125415},"geometry":{"x":156878.75,"y":2565499.3600000031}},{"attributes":{"ID":125416,"DIS_CODE":0,"TOWNNAME":"將軍區","LI":"鯤鯓里","LIN":"19鄰","STREET":" ","SECT":" ","MAREA":"鯤鯓","LANE":" ","ALLEY":" ","HOUSE_NO":"２２８之２０號","E_COORD97":156879.20000000001,"N_COORD97":2565494.98,"ADDRESS":"鯤鯓２２８之２０號","OBJECTID":125416},"geometry":{"x":156879.20000000019,"y":2565494.9800000004}},{"attributes":{"ID":125417,"DIS_CODE":0,"TOWNNAME":"將軍區","LI":"鯤鯓里","LIN":"19鄰","STREET":" ","SECT":" ","MAREA":"鯤鯓","LANE":" ","ALLEY":" ","HOUSE_NO":"２２８之２３號","E_COORD97":156885.25,"N_COORD97":2565461.29,"ADDRESS":"鯤鯓２２８之２３號","OBJECTID":125417},"geometry":{"x":156885.25,"y":2565461.2899999991}},{"attributes":{"ID":125418,"DIS_CODE":0,"TOWNNAME":"將軍區","LI":"鯤鯓里","LIN":"19鄰","STREET":" ","SECT":" ","MAREA":"鯤鯓","LANE":" ","ALLEY":" ","HOUSE_NO":"２２８之２４號","E_COORD97":156889.29999999999,"N_COORD97":2565461.46,"ADDRESS":"鯤鯓２２８之２４號","OBJECTID":125418},"geometry":{"x":156889.30000000075,"y":2565461.4600000009}},{"attributes":{"ID":125419,"DIS_CODE":0,"TOWNNAME":"將軍區","LI":"鯤鯓里","LIN":"14鄰","STREET":" ","SECT":" ","MAREA":"鯤鯓","LANE":" ","ALLEY":" ","HOUSE_NO":"２３０之６號","E_COORD97":156895.92000000001,"N_COORD97":2565657.1699999999,"ADDRESS":"鯤鯓２３０之６號","OBJECTID":125419},"geometry":{"x":156895.91999999993,"y":2565657.1700000037}},{"attributes":{"ID":125420,"DIS_CODE":0,"TOWNNAME":"將軍區","LI":"鯤鯓里","LIN":"14鄰","STREET":" ","SECT":" ","MAREA":"鯤鯓","LANE":" ","ALLEY":" ","HOUSE_NO":"２３３之１１號","E_COORD97":156906.76000000001,"N_COORD97":2565686.6800000002,"ADDRESS":"鯤鯓２３３之１１號","OBJECTID":125420},"geometry":{"x":156906.76000000071,"y":2565686.6799999997}},{"attributes":{"ID":125421,"DIS_CODE":0,"TOWNNAME":"將軍區","LI":"鯤鯓里","LIN":"14鄰","STREET":" ","SECT":" ","MAREA":"鯤鯓","LANE":" ","ALLEY":" ","HOUSE_NO":"２３３之１５號","E_COORD97":156909.26000000001,"N_COORD97":2565665.6200000001,"ADDRESS":"鯤鯓２３３之１５號","OBJECTID":125421},"geometry":{"x":156909.25999999978,"y":2565665.6200000029}},{"attributes":{"ID":125422,"DIS_CODE":0,"TOWNNAME":"將軍區","LI":"鯤鯓里","LIN":"14鄰","STREET":" ","SECT":" ","MAREA":"鯤鯓","LANE":" ","ALLEY":" ","HOUSE_NO":"２３３之１６號","E_COORD97":156909.82999999999,"N_COORD97":2565660.6899999999,"ADDRESS":"鯤鯓２３３之１６號","OBJECTID":125422},"geometry":{"x":156909.83000000101,"y":2565660.6900000013}},{"attributes":{"ID":125423,"DIS_CODE":0,"TOWNNAME":"將軍區","LI":"鯤鯓里","LIN":"14鄰","STREET":" ","SECT":" ","MAREA":"鯤鯓","LANE":" ","ALLEY":" ","HOUSE_NO":"２３３之１號","E_COORD97":156910.60000000001,"N_COORD97":2565730.2000000002,"ADDRESS":"鯤鯓２３３之１號","OBJECTID":125423},"geometry":{"x":156910.60000000056,"y":2565730.1999999993}},{"attributes":{"ID":125424,"DIS_CODE":0,"TOWNNAME":"將軍區","LI":"鯤鯓里","LIN":"14鄰","STREET":" ","SECT":" ","MAREA":"鯤鯓","LANE":" ","ALLEY":" ","HOUSE_NO":"２３３號","E_COORD97":156904.76000000001,"N_COORD97":2565715.8199999998,"ADDRESS":"鯤鯓２３３號","OBJECTID":125424},"geometry":{"x":156904.76000000071,"y":2565715.8200000003}},{"attributes":{"ID":125425,"DIS_CODE":0,"TOWNNAME":"將軍區","LI":"鯤鯓里","LIN":"14鄰","STREET":" ","SECT":" ","MAREA":"鯤鯓","LANE":" ","ALLEY":" ","HOUSE_NO":"２３４之１０號","E_COORD97":156930.32000000001,"N_COORD97":2565656.3300000001,"ADDRESS":"鯤鯓２３４之１０號","OBJECTID":125425},"geometry":{"x":156930.32000000123,"y":2565656.3300000038}},{"attributes":{"ID":125426,"DIS_CODE":0,"TOWNNAME":"安南區","LI":"安慶里","LIN":"6鄰","STREET":"怡安路","SECT":"一段","MAREA":" ","LANE":" ","ALLEY":" ","HOUSE_NO":"２９７號","E_COORD97":168936.79000000001,"N_COORD97":2549089.5299999998,"ADDRESS":"怡安路一段２９７號","OBJECTID":125426},"geometry":{"x":168936.78999999911,"y":2549089.5300000012}},{"attributes":{"ID":125427,"DIS_CODE":0,"TOWNNAME":"佳里區","LI":"安西里","LIN":"10鄰","STREET":"義民街","SECT":" ","MAREA":" ","LANE":" ","ALLEY":" ","HOUSE_NO":"１６６號","E_COORD97":165682.88,"N_COORD97":2562419.3700000001,"ADDRESS":"義民街１６６號","OBJECTID":125427},"geometry":{"x":165682.87999999989,"y":2562419.3700000029}},{"attributes":{"ID":125428,"DIS_CODE":0,"TOWNNAME":"佳里區","LI":"東寧里","LIN":"18鄰","STREET":"義民街","SECT":" ","MAREA":" ","LANE":" ","ALLEY":" ","HOUSE_NO":"２３號","E_COORD97":166094.82000000001,"N_COORD97":2562451.7599999998,"ADDRESS":"義民街２３號","OBJECTID":125428},"geometry":{"x":166094.82000000123,"y":2562451.7599999998}},{"attributes":{"ID":125429,"DIS_CODE":0,"TOWNNAME":"佳里區","LI":"東寧里","LIN":"18鄰","STREET":"義民街","SECT":" ","MAREA":" ","LANE":" ","ALLEY":" ","HOUSE_NO":"２４號","E_COORD97":166087.98999999999,"N_COORD97":2562470.6099999999,"ADDRESS":"義民街２４號","OBJECTID":125429},"geometry":{"x":166087.99000000115,"y":2562470.6100000013}},{"attributes":{"ID":125430,"DIS_CODE":0,"TOWNNAME":"佳里區","LI":"東寧里","LIN":"18鄰","STREET":"義民街","SECT":" ","MAREA":" ","LANE":" ","ALLEY":" ","HOUSE_NO":"２５號","E_COORD97":166090.39999999999,"N_COORD97":2562449.7400000002,"ADDRESS":"義民街２５號","OBJECTID":125430},"geometry":{"x":166090.40000000224,"y":2562449.7400000039}},{"attributes":{"ID":125431,"DIS_CODE":0,"TOWNNAME":"佳里區","LI":"安西里","LIN":"13鄰","STREET":"義民街","SECT":" ","MAREA":" ","LANE":" ","ALLEY":" ","HOUSE_NO":"２７６號之３","E_COORD97":165440.76999999999,"N_COORD97":2562430.5600000001,"ADDRESS":"義民街２７６號之３","OBJECTID":125431},"geometry":{"x":165440.76999999955,"y":2562430.5599999987}},{"attributes":{"ID":125432,"DIS_CODE":0,"TOWNNAME":"佳里區","LI":"安西里","LIN":"13鄰","STREET":"義民街","SECT":" ","MAREA":" ","LANE":" ","ALLEY":" ","HOUSE_NO":"２７６號","E_COORD97":165457.04000000001,"N_COORD97":2562394.02,"ADDRESS":"義民街２７６號","OBJECTID":125432},"geometry":{"x":165457.04000000097,"y":2562394.0200000014}},{"attributes":{"ID":125433,"DIS_CODE":0,"TOWNNAME":"佳里區","LI":"安西里","LIN":"13鄰","STREET":"義民街","SECT":" ","MAREA":" ","LANE":" ","ALLEY":" ","HOUSE_NO":"２８８號","E_COORD97":165434.81,"N_COORD97":2562396.8700000001,"ADDRESS":"義民街２８８號","OBJECTID":125433},"geometry":{"x":165434.81000000052,"y":2562396.8700000029}},{"attributes":{"ID":125434,"DIS_CODE":0,"TOWNNAME":"佳里區","LI":"安西里","LIN":"13鄰","STREET":"義民街","SECT":" ","MAREA":" ","LANE":" ","ALLEY":" ","HOUSE_NO":"２９０號","E_COORD97":165429.51000000001,"N_COORD97":2562396.9100000001,"ADDRESS":"義民街２９０號","OBJECTID":125434},"geometry":{"x":165429.51000000164,"y":2562396.9100000001}},{"attributes":{"ID":125435,"DIS_CODE":0,"TOWNNAME":"佳里區","LI":"安西里","LIN":"13鄰","STREET":"義民街","SECT":" ","MAREA":" ","LANE":" ","ALLEY":" ","HOUSE_NO":"２９２號","E_COORD97":165403.92999999999,"N_COORD97":2562405.3399999999,"ADDRESS":"義民街２９２號","OBJECTID":125435},"geometry":{"x":165403.9299999997,"y":2562405.3400000017}},{"attributes":{"ID":125436,"DIS_CODE":0,"TOWNNAME":"佳里區","LI":"安西里","LIN":"10鄰","STREET":"義民街","SECT":" ","MAREA":" ","LANE":" ","ALLEY":" ","HOUSE_NO":"２３０號","E_COORD97":165588.42999999999,"N_COORD97":2562410.4500000002,"ADDRESS":"義民街２３０號","OBJECTID":125436},"geometry":{"x":165588.43000000063,"y":2562410.4500000011}},{"attributes":{"ID":125437,"DIS_CODE":0,"TOWNNAME":"佳里區","LI":"安西里","LIN":"13鄰","STREET":"義民街","SECT":" ","MAREA":" ","LANE":" ","ALLEY":" ","HOUSE_NO":"２９７號","E_COORD97":165333.88,"N_COORD97":2562375.9500000002,"ADDRESS":"義民街２９７號","OBJECTID":125437},"geometry":{"x":165333.88000000175,"y":2562375.950000003}},{"attributes":{"ID":125438,"DIS_CODE":0,"TOWNNAME":"佳里區","LI":"東寧里","LIN":"14鄰","STREET":"義民街","SECT":" ","MAREA":" ","LANE":" ","ALLEY":" ","HOUSE_NO":"７２號","E_COORD97":165968.37,"N_COORD97":2562436.2999999998,"ADDRESS":"義民街７２號","OBJECTID":125438},"geometry":{"x":165968.37000000104,"y":2562436.3000000045}},{"attributes":{"ID":125439,"DIS_CODE":0,"TOWNNAME":"佳里區","LI":"東寧里","LIN":"14鄰","STREET":"義民街","SECT":" ","MAREA":" ","LANE":" ","ALLEY":" ","HOUSE_NO":"７４號","E_COORD97":165963.70999999999,"N_COORD97":2562435.8599999999,"ADDRESS":"義民街７４號","OBJECTID":125439},"geometry":{"x":165963.70999999996,"y":2562435.8600000013}},{"attributes":{"ID":125440,"DIS_CODE":0,"TOWNNAME":"永康區","LI":"神洲里","LIN":"16鄰","STREET":"忠孝路","SECT":" ","MAREA":" ","LANE":"７６巷","ALLEY":"４９弄","HOUSE_NO":"１３號三樓","E_COORD97":172224.59,"N_COORD97":2544963.5099999998,"ADDRESS":"忠孝路７６巷４９弄１３號三樓","OBJECTID":125440},"geometry":{"x":172224.58999999985,"y":2544963.5100000016}},{"attributes":{"ID":125441,"DIS_CODE":0,"TOWNNAME":"永康區","LI":"神洲里","LIN":"16鄰","STREET":"忠孝路","SECT":" ","MAREA":" ","LANE":"７６巷","ALLEY":"４９弄","HOUSE_NO":"１１號二樓","E_COORD97":172232.64000000001,"N_COORD97":2544963.73,"ADDRESS":"忠孝路７６巷４９弄１１號二樓","OBJECTID":125441},"geometry":{"x":172232.63999999966,"y":2544963.7300000023}},{"attributes":{"ID":125442,"DIS_CODE":0,"TOWNNAME":"安南區","LI":"安東里","LIN":"16鄰","STREET":"安和路","SECT":"一段","MAREA":" ","LANE":"４７８巷","ALLEY":"３８弄","HOUSE_NO":"２號七樓","E_COORD97":169514.79000000001,"N_COORD97":2548366.6499999999,"ADDRESS":"安和路一段４７８巷３８弄２號七樓","OBJECTID":125442},"geometry":{"x":169514.79000000004,"y":2548366.6500000041}},{"attributes":{"ID":125443,"DIS_CODE":0,"TOWNNAME":"安南區","LI":"安東里","LIN":"16鄰","STREET":"安和路","SECT":"一段","MAREA":" ","LANE":"４７８巷","ALLEY":"３８弄","HOUSE_NO":"２號三樓","E_COORD97":169514.79000000001,"N_COORD97":2548366.6499999999,"ADDRESS":"安和路一段４７８巷３８弄２號三樓","OBJECTID":125443},"geometry":{"x":169514.79000000004,"y":2548366.6500000041}},{"attributes":{"ID":125444,"DIS_CODE":0,"TOWNNAME":"安南區","LI":"安東里","LIN":"16鄰","STREET":"安和路","SECT":"一段","MAREA":" ","LANE":"４７８巷","ALLEY":"３８弄","HOUSE_NO":"２號五樓","E_COORD97":169514.79000000001,"N_COORD97":2548366.6499999999,"ADDRESS":"安和路一段４７８巷３８弄２號五樓","OBJECTID":125444},"geometry":{"x":169514.79000000004,"y":2548366.6500000041}},{"attributes":{"ID":125445,"DIS_CODE":0,"TOWNNAME":"安南區","LI":"安東里","LIN":"16鄰","STREET":"安和路","SECT":"一段","MAREA":" ","LANE":"４７８巷","ALLEY":"３８弄","HOUSE_NO":"２號六樓","E_COORD97":169514.79000000001,"N_COORD97":2548366.6499999999,"ADDRESS":"安和路一段４７８巷３８弄２號六樓","OBJECTID":125445},"geometry":{"x":169514.79000000004,"y":2548366.6500000041}},{"attributes":{"ID":125446,"DIS_CODE":0,"TOWNNAME":"安南區","LI":"安東里","LIN":"16鄰","STREET":"安和路","SECT":"一段","MAREA":" ","LANE":"４７８巷","ALLEY":"３８弄","HOUSE_NO":"２號四樓","E_COORD97":169514.79000000001,"N_COORD97":2548366.6499999999,"ADDRESS":"安和路一段４７８巷３８弄２號四樓","OBJECTID":125446},"geometry":{"x":169514.79000000004,"y":2548366.6500000041}},{"attributes":{"ID":125447,"DIS_CODE":0,"TOWNNAME":"安南區","LI":"安東里","LIN":"16鄰","STREET":"安和路","SECT":"一段","MAREA":" ","LANE":"４７８巷","ALLEY":"３８弄","HOUSE_NO":"４號七樓","E_COORD97":169504.87,"N_COORD97":2548366.6499999999,"ADDRESS":"安和路一段４７８巷３８弄４號七樓","OBJECTID":125447},"geometry":{"x":169504.87000000104,"y":2548366.6500000041}},{"attributes":{"ID":125448,"DIS_CODE":0,"TOWNNAME":"安南區","LI":"安東里","LIN":"16鄰","STREET":"安和路","SECT":"一段","MAREA":" ","LANE":"４７８巷","ALLEY":"３８弄","HOUSE_NO":"４號三樓","E_COORD97":169504.87,"N_COORD97":2548366.6499999999,"ADDRESS":"安和路一段４７８巷３８弄４號三樓","OBJECTID":125448},"geometry":{"x":169504.87000000104,"y":2548366.6500000041}},{"attributes":{"ID":125449,"DIS_CODE":0,"TOWNNAME":"安南區","LI":"安東里","LIN":"16鄰","STREET":"安和路","SECT":"一段","MAREA":" ","LANE":"４７８巷","ALLEY":"３８弄","HOUSE_NO":"４號五樓","E_COORD97":169504.87,"N_COORD97":2548366.6499999999,"ADDRESS":"安和路一段４７８巷３８弄４號五樓","OBJECTID":125449},"geometry":{"x":169504.87000000104,"y":2548366.6500000041}},{"attributes":{"ID":125450,"DIS_CODE":0,"TOWNNAME":"安南區","LI":"安東里","LIN":"16鄰","STREET":"安和路","SECT":"一段","MAREA":" ","LANE":"４７８巷","ALLEY":"３８弄","HOUSE_NO":"４號六樓","E_COORD97":169504.87,"N_COORD97":2548366.6499999999,"ADDRESS":"安和路一段４７８巷３８弄４號六樓","OBJECTID":125450},"geometry":{"x":169504.87000000104,"y":2548366.6500000041}},{"attributes":{"ID":125451,"DIS_CODE":0,"TOWNNAME":"安南區","LI":"安東里","LIN":"16鄰","STREET":"安和路","SECT":"一段","MAREA":" ","LANE":"４７８巷","ALLEY":"３８弄","HOUSE_NO":"４號四樓","E_COORD97":169504.87,"N_COORD97":2548366.6499999999,"ADDRESS":"安和路一段４７８巷３８弄４號四樓","OBJECTID":125451},"geometry":{"x":169504.87000000104,"y":2548366.6500000041}},{"attributes":{"ID":125452,"DIS_CODE":0,"TOWNNAME":"永康區","LI":"安康里","LIN":"16鄰","STREET":"中華路","SECT":" ","MAREA":" ","LANE":"６１９巷","ALLEY":"８８弄","HOUSE_NO":"６５號二樓之３","E_COORD97":170895.82999999999,"N_COORD97":2546113.0499999998,"ADDRESS":"中華路６１９巷８８弄６５號二樓之３","OBJECTID":125452},"geometry":{"x":170895.83000000007,"y":2546113.0500000045}},{"attributes":{"ID":125453,"DIS_CODE":0,"TOWNNAME":"永康區","LI":"安康里","LIN":"16鄰","STREET":"中華路","SECT":" ","MAREA":" ","LANE":"６１９巷","ALLEY":"８８弄","HOUSE_NO":"６３號六樓之２","E_COORD97":170878.76999999999,"N_COORD97":2546103.2999999998,"ADDRESS":"中華路６１９巷８８弄６３號六樓之２","OBJECTID":125453},"geometry":{"x":170878.76999999955,"y":2546103.3000000007}},{"attributes":{"ID":125454,"DIS_CODE":0,"TOWNNAME":"佳里區","LI":"東寧里","LIN":"14鄰","STREET":"義民街","SECT":" ","MAREA":" ","LANE":" ","ALLEY":" ","HOUSE_NO":"７６號","E_COORD97":165959.04999999999,"N_COORD97":2562435.6499999999,"ADDRESS":"義民街７６號","OBJECTID":125454},"geometry":{"x":165959.04999999981,"y":2562435.6500000004}},{"attributes":{"ID":125455,"DIS_CODE":0,"TOWNNAME":"佳里區","LI":"東寧里","LIN":"14鄰","STREET":"義民街","SECT":" ","MAREA":" ","LANE":" ","ALLEY":" ","HOUSE_NO":"７８號","E_COORD97":165954.09,"N_COORD97":2562435.2999999998,"ADDRESS":"義民街７８號","OBJECTID":125455},"geometry":{"x":165954.08999999985,"y":2562435.3000000007}},{"attributes":{"ID":125456,"DIS_CODE":0,"TOWNNAME":"佳里區","LI":"東寧里","LIN":"14鄰","STREET":"義民街","SECT":" ","MAREA":" ","LANE":" ","ALLEY":" ","HOUSE_NO":"８０號","E_COORD97":165949.37,"N_COORD97":2562435.1800000002,"ADDRESS":"義民街８０號","OBJECTID":125456},"geometry":{"x":165949.37000000011,"y":2562435.1799999997}},{"attributes":{"ID":125457,"DIS_CODE":0,"TOWNNAME":"將軍區","LI":"鯤鯓里","LIN":"14鄰","STREET":" ","SECT":" ","MAREA":"鯤鯓","LANE":" ","ALLEY":" ","HOUSE_NO":"２３４之２號","E_COORD97":156948.45000000001,"N_COORD97":2565721.3700000001,"ADDRESS":"鯤鯓２３４之２號","OBJECTID":125457},"geometry":{"x":156948.45000000112,"y":2565721.3700000048}},{"attributes":{"ID":125458,"DIS_CODE":0,"TOWNNAME":"永康區","LI":"安康里","LIN":"16鄰","STREET":"中華路","SECT":" ","MAREA":" ","LANE":"６１９巷","ALLEY":"８８弄","HOUSE_NO":"６３號五樓之１","E_COORD97":170878.64000000001,"N_COORD97":2546103.2999999998,"ADDRESS":"中華路６１９巷８８弄６３號五樓之１","OBJECTID":125458},"geometry":{"x":170878.64000000153,"y":2546103.3000000007}},{"attributes":{"ID":125459,"DIS_CODE":0,"TOWNNAME":"永康區","LI":"安康里","LIN":"16鄰","STREET":"中華路","SECT":" ","MAREA":" ","LANE":"６１９巷","ALLEY":"８８弄","HOUSE_NO":"６５號四樓之３","E_COORD97":170895.82999999999,"N_COORD97":2546113.0499999998,"ADDRESS":"中華路６１９巷８８弄６５號四樓之３","OBJECTID":125459},"geometry":{"x":170895.83000000007,"y":2546113.0500000045}},{"attributes":{"ID":125460,"DIS_CODE":0,"TOWNNAME":"安平區","LI":"國平里","LIN":"16鄰","STREET":"華平路","SECT":" ","MAREA":" ","LANE":"２１巷","ALLEY":"３２弄","HOUSE_NO":"２２號二樓","E_COORD97":165232.16,"N_COORD97":2542877.79,"ADDRESS":"華平路２１巷３２弄２２號二樓","OBJECTID":125460},"geometry":{"x":165232.15999999922,"y":2542877.7899999991}},{"attributes":{"ID":125461,"DIS_CODE":0,"TOWNNAME":"安平區","LI":"國平里","LIN":"16鄰","STREET":"華平路","SECT":" ","MAREA":" ","LANE":"２１巷","ALLEY":"３２弄","HOUSE_NO":"２２號三樓","E_COORD97":165232.16,"N_COORD97":2542877.79,"ADDRESS":"華平路２１巷３２弄２２號三樓","OBJECTID":125461},"geometry":{"x":165232.15999999922,"y":2542877.7899999991}},{"attributes":{"ID":125462,"DIS_CODE":0,"TOWNNAME":"安平區","LI":"國平里","LIN":"16鄰","STREET":"華平路","SECT":" ","MAREA":" ","LANE":"２１巷","ALLEY":"３２弄","HOUSE_NO":"２２號之１二樓","E_COORD97":165239.64000000001,"N_COORD97":2542876.5800000001,"ADDRESS":"華平路２１巷３２弄２２號之１二樓","OBJECTID":125462},"geometry":{"x":165239.63999999966,"y":2542876.5800000001}},{"attributes":{"ID":125463,"DIS_CODE":0,"TOWNNAME":"安平區","LI":"國平里","LIN":"16鄰","STREET":"華平路","SECT":" ","MAREA":" ","LANE":"２１巷","ALLEY":"３２弄","HOUSE_NO":"２２號之１三樓","E_COORD97":165239.64000000001,"N_COORD97":2542876.5800000001,"ADDRESS":"華平路２１巷３２弄２２號之１三樓","OBJECTID":125463},"geometry":{"x":165239.63999999966,"y":2542876.5800000001}},{"attributes":{"ID":125464,"DIS_CODE":0,"TOWNNAME":"安平區","LI":"國平里","LIN":"16鄰","STREET":"華平路","SECT":" ","MAREA":" ","LANE":"２１巷","ALLEY":"３２弄","HOUSE_NO":"２２號之１五樓","E_COORD97":165239.64000000001,"N_COORD97":2542876.5800000001,"ADDRESS":"華平路２１巷３２弄２２號之１五樓","OBJECTID":125464},"geometry":{"x":165239.63999999966,"y":2542876.5800000001}},{"attributes":{"ID":125465,"DIS_CODE":0,"TOWNNAME":"安平區","LI":"國平里","LIN":"16鄰","STREET":"華平路","SECT":" ","MAREA":" ","LANE":"２１巷","ALLEY":"３２弄","HOUSE_NO":"２２號之１六樓","E_COORD97":165239.64000000001,"N_COORD97":2542876.5800000001,"ADDRESS":"華平路２１巷３２弄２２號之１六樓","OBJECTID":125465},"geometry":{"x":165239.63999999966,"y":2542876.5800000001}},{"attributes":{"ID":125466,"DIS_CODE":0,"TOWNNAME":"安平區","LI":"國平里","LIN":"16鄰","STREET":"華平路","SECT":" ","MAREA":" ","LANE":"２１巷","ALLEY":"３２弄","HOUSE_NO":"２２號之１四樓","E_COORD97":165239.64000000001,"N_COORD97":2542876.5800000001,"ADDRESS":"華平路２１巷３２弄２２號之１四樓","OBJECTID":125466},"geometry":{"x":165239.63999999966,"y":2542876.5800000001}},{"attributes":{"ID":125467,"DIS_CODE":0,"TOWNNAME":"安平區","LI":"國平里","LIN":"16鄰","STREET":"華平路","SECT":" ","MAREA":" ","LANE":"２１巷","ALLEY":"３２弄","HOUSE_NO":"２２號之２二樓","E_COORD97":165241.45999999999,"N_COORD97":2542883.4399999999,"ADDRESS":"華平路２１巷３２弄２２號之２二樓","OBJECTID":125467},"geometry":{"x":165241.45999999996,"y":2542883.4399999995}},{"attributes":{"ID":125468,"DIS_CODE":0,"TOWNNAME":"安平區","LI":"國平里","LIN":"16鄰","STREET":"華平路","SECT":" ","MAREA":" ","LANE":"２１巷","ALLEY":"３２弄","HOUSE_NO":"２２號之２三樓","E_COORD97":165241.45999999999,"N_COORD97":2542883.4399999999,"ADDRESS":"華平路２１巷３２弄２２號之２三樓","OBJECTID":125468},"geometry":{"x":165241.45999999996,"y":2542883.4399999995}},{"attributes":{"ID":125469,"DIS_CODE":0,"TOWNNAME":"安平區","LI":"國平里","LIN":"16鄰","STREET":"華平路","SECT":" ","MAREA":" ","LANE":"２１巷","ALLEY":"３２弄","HOUSE_NO":"２２號之２五樓","E_COORD97":165241.45999999999,"N_COORD97":2542883.4399999999,"ADDRESS":"華平路２１巷３２弄２２號之２五樓","OBJECTID":125469},"geometry":{"x":165241.45999999996,"y":2542883.4399999995}},{"attributes":{"ID":125470,"DIS_CODE":0,"TOWNNAME":"安平區","LI":"國平里","LIN":"16鄰","STREET":"華平路","SECT":" ","MAREA":" ","LANE":"２１巷","ALLEY":"３２弄","HOUSE_NO":"２２號之２六樓","E_COORD97":165241.45999999999,"N_COORD97":2542883.4399999999,"ADDRESS":"華平路２１巷３２弄２２號之２六樓","OBJECTID":125470},"geometry":{"x":165241.45999999996,"y":2542883.4399999995}},{"attributes":{"ID":125471,"DIS_CODE":0,"TOWNNAME":"安平區","LI":"國平里","LIN":"16鄰","STREET":"華平路","SECT":" ","MAREA":" ","LANE":"２１巷","ALLEY":"３２弄","HOUSE_NO":"２２號之２四樓","E_COORD97":165241.45999999999,"N_COORD97":2542883.4399999999,"ADDRESS":"華平路２１巷３２弄２２號之２四樓","OBJECTID":125471},"geometry":{"x":165241.45999999996,"y":2542883.4399999995}},{"attributes":{"ID":125472,"DIS_CODE":0,"TOWNNAME":"安平區","LI":"國平里","LIN":"16鄰","STREET":"華平路","SECT":" ","MAREA":" ","LANE":"２１巷","ALLEY":"３２弄","HOUSE_NO":"２２號之３二樓","E_COORD97":165243.28,"N_COORD97":2542891.5099999998,"ADDRESS":"華平路２１巷３２弄２２號之３二樓","OBJECTID":125472},"geometry":{"x":165243.27999999933,"y":2542891.5100000035}},{"attributes":{"ID":125473,"DIS_CODE":0,"TOWNNAME":"安平區","LI":"國平里","LIN":"16鄰","STREET":"華平路","SECT":" ","MAREA":" ","LANE":"２１巷","ALLEY":"３２弄","HOUSE_NO":"２２號之３三樓","E_COORD97":165243.28,"N_COORD97":2542891.5099999998,"ADDRESS":"華平路２１巷３２弄２２號之３三樓","OBJECTID":125473},"geometry":{"x":165243.27999999933,"y":2542891.5100000035}},{"attributes":{"ID":125474,"DIS_CODE":0,"TOWNNAME":"安平區","LI":"國平里","LIN":"16鄰","STREET":"華平路","SECT":" ","MAREA":" ","LANE":"２１巷","ALLEY":"３２弄","HOUSE_NO":"２２號之３五樓","E_COORD97":165243.28,"N_COORD97":2542891.5099999998,"ADDRESS":"華平路２１巷３２弄２２號之３五樓","OBJECTID":125474},"geometry":{"x":165243.27999999933,"y":2542891.5100000035}},{"attributes":{"ID":125475,"DIS_CODE":0,"TOWNNAME":"佳里區","LI":"東寧里","LIN":"14鄰","STREET":"義民街","SECT":" ","MAREA":" ","LANE":" ","ALLEY":" ","HOUSE_NO":"８２號","E_COORD97":165944.79999999999,"N_COORD97":2562435.1499999999,"ADDRESS":"義民街８２號","OBJECTID":125475},"geometry":{"x":165944.80000000075,"y":2562435.1500000004}},{"attributes":{"ID":125476,"DIS_CODE":0,"TOWNNAME":"佳里區","LI":"東寧里","LIN":"14鄰","STREET":"義民街","SECT":" ","MAREA":" ","LANE":" ","ALLEY":" ","HOUSE_NO":"８４號","E_COORD97":165940.56,"N_COORD97":2562435.1299999999,"ADDRESS":"義民街８４號","OBJECTID":125476},"geometry":{"x":165940.55999999959,"y":2562435.129999999}},{"attributes":{"ID":125477,"DIS_CODE":0,"TOWNNAME":"佳里區","LI":"東寧里","LIN":"14鄰","STREET":"義民街","SECT":" ","MAREA":" ","LANE":" ","ALLEY":" ","HOUSE_NO":"８８號","E_COORD97":165932.06,"N_COORD97":2562434.8799999999,"ADDRESS":"義民街８８號","OBJECTID":125477},"geometry":{"x":165932.05999999959,"y":2562434.8800000008}},{"attributes":{"ID":125478,"DIS_CODE":0,"TOWNNAME":"佳里區","LI":"忠仁里","LIN":"4鄰","STREET":"興中街","SECT":" ","MAREA":" ","LANE":" ","ALLEY":" ","HOUSE_NO":"６３號","E_COORD97":165851.23000000001,"N_COORD97":2562174.5299999998,"ADDRESS":"興中街６３號","OBJECTID":125478},"geometry":{"x":165851.23000000138,"y":2562174.5299999993}},{"attributes":{"ID":125479,"DIS_CODE":0,"TOWNNAME":"佳里區","LI":"忠仁里","LIN":"4鄰","STREET":"興中街","SECT":" ","MAREA":" ","LANE":" ","ALLEY":" ","HOUSE_NO":"６５號","E_COORD97":165846.29999999999,"N_COORD97":2562173.8999999999,"ADDRESS":"興中街６５號","OBJECTID":125479},"geometry":{"x":165846.30000000168,"y":2562173.9000000041}},{"attributes":{"ID":125480,"DIS_CODE":0,"TOWNNAME":"佳里區","LI":"忠仁里","LIN":"4鄰","STREET":"興中街","SECT":" ","MAREA":" ","LANE":" ","ALLEY":" ","HOUSE_NO":"６７號","E_COORD97":165841.47,"N_COORD97":2562173.2799999998,"ADDRESS":"興中街６７號","OBJECTID":125480},"geometry":{"x":165841.46999999974,"y":2562173.2799999993}},{"attributes":{"ID":125481,"DIS_CODE":0,"TOWNNAME":"佳里區","LI":"忠仁里","LIN":"4鄰","STREET":"興中街","SECT":" ","MAREA":" ","LANE":" ","ALLEY":" ","HOUSE_NO":"６９號","E_COORD97":165837.22,"N_COORD97":2562172.8500000001,"ADDRESS":"興中街６９號","OBJECTID":125481},"geometry":{"x":165837.22000000067,"y":2562172.8499999996}},{"attributes":{"ID":125482,"DIS_CODE":0,"TOWNNAME":"佳里區","LI":"忠仁里","LIN":"4鄰","STREET":"興中街","SECT":" ","MAREA":" ","LANE":" ","ALLEY":" ","HOUSE_NO":"７３號","E_COORD97":165830.04999999999,"N_COORD97":2562170.73,"ADDRESS":"興中街７３號","OBJECTID":125482},"geometry":{"x":165830.05000000075,"y":2562170.7300000004}},{"attributes":{"ID":125483,"DIS_CODE":0,"TOWNNAME":"佳里區","LI":"忠仁里","LIN":"4鄰","STREET":"興中街","SECT":" ","MAREA":" ","LANE":" ","ALLEY":" ","HOUSE_NO":"７５號","E_COORD97":165825.57000000001,"N_COORD97":2562170.04,"ADDRESS":"興中街７５號","OBJECTID":125483},"geometry":{"x":165825.5700000003,"y":2562170.0399999991}},{"attributes":{"ID":125484,"DIS_CODE":0,"TOWNNAME":"佳里區","LI":"忠仁里","LIN":"4鄰","STREET":"興中街","SECT":" ","MAREA":" ","LANE":" ","ALLEY":" ","HOUSE_NO":"７７號之１","E_COORD97":165811.01000000001,"N_COORD97":2562127.6600000001,"ADDRESS":"興中街７７號之１","OBJECTID":125484},"geometry":{"x":165811.01000000164,"y":2562127.6600000001}},{"attributes":{"ID":125485,"DIS_CODE":0,"TOWNNAME":"佳里區","LI":"忠仁里","LIN":"4鄰","STREET":"興中街","SECT":" ","MAREA":" ","LANE":" ","ALLEY":" ","HOUSE_NO":"７７號","E_COORD97":165822.07999999999,"N_COORD97":2562142.5299999998,"ADDRESS":"興中街７７號","OBJECTID":125485},"geometry":{"x":165822.08000000007,"y":2562142.5300000012}},{"attributes":{"ID":125486,"DIS_CODE":0,"TOWNNAME":"永康區","LI":"永康里","LIN":"38鄰","STREET":"永大路","SECT":"二段","MAREA":" ","LANE":" ","ALLEY":" ","HOUSE_NO":"１１４６號","E_COORD97":174392.25,"N_COORD97":2546629.3199999998,"ADDRESS":"永大路二段１１４６號","OBJECTID":125486},"geometry":{"x":174392.25000000186,"y":2546629.3200000003}},{"attributes":{"ID":125487,"DIS_CODE":0,"TOWNNAME":"永康區","LI":"永康里","LIN":"20鄰","STREET":"永中街","SECT":" ","MAREA":" ","LANE":" ","ALLEY":" ","HOUSE_NO":"１７２號","E_COORD97":174022.60000000001,"N_COORD97":2547330.71,"ADDRESS":"永中街１７２號","OBJECTID":125487},"geometry":{"x":174022.59999999963,"y":2547330.7100000028}},{"attributes":{"ID":125488,"DIS_CODE":0,"TOWNNAME":"麻豆區","LI":"小埤里","LIN":"6鄰","STREET":" ","SECT":" ","MAREA":"小埤頭","LANE":" ","ALLEY":" ","HOUSE_NO":"３１號之１６","E_COORD97":171550.51000000001,"N_COORD97":2565999.9199999999,"ADDRESS":"小埤頭３１號之１６","OBJECTID":125488},"geometry":{"x":171550.50999999978,"y":2565999.9199999999}},{"attributes":{"ID":125489,"DIS_CODE":0,"TOWNNAME":"安平區","LI":"國平里","LIN":"16鄰","STREET":"華平路","SECT":" ","MAREA":" ","LANE":"２１巷","ALLEY":"３２弄","HOUSE_NO":"２２號之３六樓","E_COORD97":165243.28,"N_COORD97":2542891.5099999998,"ADDRESS":"華平路２１巷３２弄２２號之３六樓","OBJECTID":125489},"geometry":{"x":165243.27999999933,"y":2542891.5100000035}},{"attributes":{"ID":125490,"DIS_CODE":0,"TOWNNAME":"麻豆區","LI":"小埤里","LIN":"6鄰","STREET":" ","SECT":" ","MAREA":"小埤頭","LANE":" ","ALLEY":" ","HOUSE_NO":"３３號","E_COORD97":171448.76999999999,"N_COORD97":2566001.77,"ADDRESS":"小埤頭３３號","OBJECTID":125490},"geometry":{"x":171448.77000000142,"y":2566001.7700000033}},{"attributes":{"ID":125491,"DIS_CODE":0,"TOWNNAME":"麻豆區","LI":"小埤里","LIN":"6鄰","STREET":" ","SECT":" ","MAREA":"小埤頭","LANE":" ","ALLEY":" ","HOUSE_NO":"３４號","E_COORD97":171460.62,"N_COORD97":2565969.5699999998,"ADDRESS":"小埤頭３４號","OBJECTID":125491},"geometry":{"x":171460.62000000197,"y":2565969.5700000003}},{"attributes":{"ID":125492,"DIS_CODE":0,"TOWNNAME":"麻豆區","LI":"小埤里","LIN":"6鄰","STREET":" ","SECT":" ","MAREA":"小埤頭","LANE":" ","ALLEY":" ","HOUSE_NO":"３７號之３","E_COORD97":171457.25,"N_COORD97":2565933.23,"ADDRESS":"小埤頭３７號之３","OBJECTID":125492},"geometry":{"x":171457.25,"y":2565933.2300000023}},{"attributes":{"ID":125493,"DIS_CODE":0,"TOWNNAME":"麻豆區","LI":"小埤里","LIN":"6鄰","STREET":" ","SECT":" ","MAREA":"小埤頭","LANE":" ","ALLEY":" ","HOUSE_NO":"３７號","E_COORD97":171473.29999999999,"N_COORD97":2565912.8700000001,"ADDRESS":"小埤頭３７號","OBJECTID":125493},"geometry":{"x":171473.30000000075,"y":2565912.870000001}},{"attributes":{"ID":125494,"DIS_CODE":0,"TOWNNAME":"麻豆區","LI":"小埤里","LIN":"6鄰","STREET":" ","SECT":" ","MAREA":"小埤頭","LANE":" ","ALLEY":" ","HOUSE_NO":"３８號","E_COORD97":171433.81,"N_COORD97":2565940.6400000001,"ADDRESS":"小埤頭３８號","OBJECTID":125494},"geometry":{"x":171433.81000000052,"y":2565940.6400000025}},{"attributes":{"ID":125495,"DIS_CODE":0,"TOWNNAME":"將軍區","LI":"鯤鯓里","LIN":"14鄰","STREET":" ","SECT":" ","MAREA":"鯤鯓","LANE":" ","ALLEY":" ","HOUSE_NO":"２３４之６號","E_COORD97":156927.26999999999,"N_COORD97":2565685.1800000002,"ADDRESS":"鯤鯓２３４之６號","OBJECTID":125495},"geometry":{"x":156927.26999999955,"y":2565685.1800000016}},{"attributes":{"ID":125496,"DIS_CODE":0,"TOWNNAME":"將軍區","LI":"鯤鯓里","LIN":"14鄰","STREET":" ","SECT":" ","MAREA":"鯤鯓","LANE":" ","ALLEY":" ","HOUSE_NO":"２３４之７號","E_COORD97":156928.23000000001,"N_COORD97":2565680.52,"ADDRESS":"鯤鯓２３４之７號","OBJECTID":125496},"geometry":{"x":156928.23000000045,"y":2565680.5199999996}},{"attributes":{"ID":125497,"DIS_CODE":0,"TOWNNAME":"將軍區","LI":"鯤鯓里","LIN":"4鄰","STREET":" ","SECT":" ","MAREA":"鯤鯓","LANE":" ","ALLEY":" ","HOUSE_NO":"３０號","E_COORD97":156555.72,"N_COORD97":2565671.5600000001,"ADDRESS":"鯤鯓３０號","OBJECTID":125497},"geometry":{"x":156555.72000000067,"y":2565671.5600000005}},{"attributes":{"ID":125498,"DIS_CODE":0,"TOWNNAME":"將軍區","LI":"鯤鯓里","LIN":"4鄰","STREET":" ","SECT":" ","MAREA":"鯤鯓","LANE":" ","ALLEY":" ","HOUSE_NO":"３１之１號","E_COORD97":156550.38,"N_COORD97":2565642.5499999998,"ADDRESS":"鯤鯓３１之１號","OBJECTID":125498},"geometry":{"x":156550.37999999989,"y":2565642.5500000026}},{"attributes":{"ID":125499,"DIS_CODE":0,"TOWNNAME":"將軍區","LI":"鯤鯓里","LIN":"4鄰","STREET":" ","SECT":" ","MAREA":"鯤鯓","LANE":" ","ALLEY":" ","HOUSE_NO":"３１號","E_COORD97":156551.35000000001,"N_COORD97":2565652.9900000002,"ADDRESS":"鯤鯓３１號","OBJECTID":125499},"geometry":{"x":156551.35000000056,"y":2565652.9900000021}},{"attributes":{"ID":125500,"DIS_CODE":0,"TOWNNAME":"將軍區","LI":"鯤鯓里","LIN":"4鄰","STREET":" ","SECT":" ","MAREA":"鯤鯓","LANE":" ","ALLEY":" ","HOUSE_NO":"３２號","E_COORD97":156551.87,"N_COORD97":2565631.71,"ADDRESS":"鯤鯓３２號","OBJECTID":125500},"geometry":{"x":156551.87000000104,"y":2565631.7100000028}},{"attributes":{"ID":125501,"DIS_CODE":0,"TOWNNAME":"將軍區","LI":"鯤鯓里","LIN":"4鄰","STREET":" ","SECT":" ","MAREA":"鯤鯓","LANE":" ","ALLEY":" ","HOUSE_NO":"３３號","E_COORD97":156548.12,"N_COORD97":2565621.79,"ADDRESS":"鯤鯓３３號","OBJECTID":125501},"geometry":{"x":156548.12000000197,"y":2565621.790000001}},{"attributes":{"ID":125502,"DIS_CODE":0,"TOWNNAME":"將軍區","LI":"鯤鯓里","LIN":"4鄰","STREET":" ","SECT":" ","MAREA":"鯤鯓","LANE":" ","ALLEY":" ","HOUSE_NO":"３４號","E_COORD97":156547.79000000001,"N_COORD97":2565612.96,"ADDRESS":"鯤鯓３４號","OBJECTID":125502},"geometry":{"x":156547.79000000004,"y":2565612.9600000028}},{"attributes":{"ID":125503,"DIS_CODE":0,"TOWNNAME":"將軍區","LI":"鯤鯓里","LIN":"4鄰","STREET":" ","SECT":" ","MAREA":"鯤鯓","LANE":" ","ALLEY":" ","HOUSE_NO":"３６之１號","E_COORD97":156538.70999999999,"N_COORD97":2565614.1299999999,"ADDRESS":"鯤鯓３６之１號","OBJECTID":125503},"geometry":{"x":156538.71000000183,"y":2565614.129999999}},{"attributes":{"ID":125504,"DIS_CODE":0,"TOWNNAME":"將軍區","LI":"鯤鯓里","LIN":"4鄰","STREET":" ","SECT":" ","MAREA":"鯤鯓","LANE":" ","ALLEY":" ","HOUSE_NO":"３６號","E_COORD97":156542.31,"N_COORD97":2565613.8399999999,"ADDRESS":"鯤鯓３６號","OBJECTID":125504},"geometry":{"x":156542.30999999959,"y":2565613.8399999999}},{"attributes":{"ID":125505,"DIS_CODE":0,"TOWNNAME":"將軍區","LI":"鯤鯓里","LIN":"4鄰","STREET":" ","SECT":" ","MAREA":"鯤鯓","LANE":" ","ALLEY":" ","HOUSE_NO":"３７號","E_COORD97":156532.51000000001,"N_COORD97":2565613.54,"ADDRESS":"鯤鯓３７號","OBJECTID":125505},"geometry":{"x":156532.50999999978,"y":2565613.540000001}},{"attributes":{"ID":125506,"DIS_CODE":0,"TOWNNAME":"將軍區","LI":"鯤鯓里","LIN":"4鄰","STREET":" ","SECT":" ","MAREA":"鯤鯓","LANE":" ","ALLEY":" ","HOUSE_NO":"３９號","E_COORD97":156521.09,"N_COORD97":2565633.8300000001,"ADDRESS":"鯤鯓３９號","OBJECTID":125506},"geometry":{"x":156521.09000000078,"y":2565633.8300000019}},{"attributes":{"ID":125507,"DIS_CODE":0,"TOWNNAME":"將軍區","LI":"鯤鯓里","LIN":"15鄰","STREET":" ","SECT":" ","MAREA":"鯤鯓","LANE":" ","ALLEY":" ","HOUSE_NO":"２７２號","E_COORD97":156948.76000000001,"N_COORD97":2565950.9900000002,"ADDRESS":"鯤鯓２７２號","OBJECTID":125507},"geometry":{"x":156948.76000000071,"y":2565950.9900000021}},{"attributes":{"ID":125508,"DIS_CODE":0,"TOWNNAME":"將軍區","LI":"鯤鯓里","LIN":"15鄰","STREET":" ","SECT":" ","MAREA":"鯤鯓","LANE":" ","ALLEY":" ","HOUSE_NO":"２７３號","E_COORD97":156953.29000000001,"N_COORD97":2565951.3799999999,"ADDRESS":"鯤鯓２７３號","OBJECTID":125508},"geometry":{"x":156953.29000000004,"y":2565951.379999999}},{"attributes":{"ID":125509,"DIS_CODE":0,"TOWNNAME":"將軍區","LI":"鯤鯓里","LIN":"15鄰","STREET":" ","SECT":" ","MAREA":"鯤鯓","LANE":" ","ALLEY":" ","HOUSE_NO":"２７４號","E_COORD97":156957.60000000001,"N_COORD97":2565952.0699999998,"ADDRESS":"鯤鯓２７４號","OBJECTID":125509},"geometry":{"x":156957.59999999963,"y":2565952.0700000003}},{"attributes":{"ID":125510,"DIS_CODE":0,"TOWNNAME":"將軍區","LI":"鯤鯓里","LIN":"15鄰","STREET":" ","SECT":" ","MAREA":"鯤鯓","LANE":" ","ALLEY":" ","HOUSE_NO":"２７５號","E_COORD97":156954.98999999999,"N_COORD97":2565972.25,"ADDRESS":"鯤鯓２７５號","OBJECTID":125510},"geometry":{"x":156954.99000000115,"y":2565972.2500000019}},{"attributes":{"ID":125511,"DIS_CODE":0,"TOWNNAME":"將軍區","LI":"鯤鯓里","LIN":"15鄰","STREET":" ","SECT":" ","MAREA":"鯤鯓","LANE":" ","ALLEY":" ","HOUSE_NO":"２７６號","E_COORD97":156950.48999999999,"N_COORD97":2565971.6099999999,"ADDRESS":"鯤鯓２７６號","OBJECTID":125511},"geometry":{"x":156950.49000000022,"y":2565971.6099999994}},{"attributes":{"ID":125512,"DIS_CODE":0,"TOWNNAME":"將軍區","LI":"鯤鯓里","LIN":"15鄰","STREET":" ","SECT":" ","MAREA":"鯤鯓","LANE":" ","ALLEY":" ","HOUSE_NO":"２７７號","E_COORD97":156946.17000000001,"N_COORD97":2565971.0099999998,"ADDRESS":"鯤鯓２７７號","OBJECTID":125512},"geometry":{"x":156946.17000000086,"y":2565971.0100000016}},{"attributes":{"ID":125513,"DIS_CODE":0,"TOWNNAME":"將軍區","LI":"鯤鯓里","LIN":"15鄰","STREET":" ","SECT":" ","MAREA":"鯤鯓","LANE":" ","ALLEY":" ","HOUSE_NO":"２７８號","E_COORD97":156941.73000000001,"N_COORD97":2565970.4199999999,"ADDRESS":"鯤鯓２７８號","OBJECTID":125513},"geometry":{"x":156941.73000000138,"y":2565970.4199999981}},{"attributes":{"ID":125514,"DIS_CODE":0,"TOWNNAME":"將軍區","LI":"鯤鯓里","LIN":"15鄰","STREET":" ","SECT":" ","MAREA":"鯤鯓","LANE":" ","ALLEY":" ","HOUSE_NO":"２７９號","E_COORD97":156937.10000000001,"N_COORD97":2565969.8999999999,"ADDRESS":"鯤鯓２７９號","OBJECTID":125514},"geometry":{"x":156937.09999999963,"y":2565969.9000000004}},{"attributes":{"ID":125515,"DIS_CODE":0,"TOWNNAME":"將軍區","LI":"鯤鯓里","LIN":"15鄰","STREET":" ","SECT":" ","MAREA":"鯤鯓","LANE":" ","ALLEY":" ","HOUSE_NO":"２８０號","E_COORD97":156932.76000000001,"N_COORD97":2565969.29,"ADDRESS":"鯤鯓２８０號","OBJECTID":125515},"geometry":{"x":156932.75999999978,"y":2565969.2899999991}},{"attributes":{"ID":125516,"DIS_CODE":0,"TOWNNAME":"將軍區","LI":"忠興里","LIN":"13鄰","STREET":" ","SECT":" ","MAREA":"忠興","LANE":" ","ALLEY":" ","HOUSE_NO":"１３２之１５號","E_COORD97":163930.53,"N_COORD97":2567275.46,"ADDRESS":"忠興１３２之１５號","OBJECTID":125516},"geometry":{"x":163930.53000000026,"y":2567275.4600000009}},{"attributes":{"ID":125517,"DIS_CODE":0,"TOWNNAME":"仁德區","LI":"仁愛里","LIN":"18鄰","STREET":" ","SECT":" ","MAREA":"仁愛","LANE":" ","ALLEY":" ","HOUSE_NO":"３７８號","E_COORD97":170171.058467,"N_COORD97":2540207.3462200002,"ADDRESS":"仁愛３７８號","OBJECTID":125517},"geometry":{"x":170171.05846699979,"y":2540207.346218003}},{"attributes":{"ID":125518,"DIS_CODE":0,"TOWNNAME":"龍崎區","LI":"崎頂里","LIN":"8鄰","STREET":" ","SECT":" ","MAREA":"新市子","LANE":" ","ALLEY":" ","HOUSE_NO":"２９５號","E_COORD97":184354.17000000001,"N_COORD97":2540570.25,"ADDRESS":"新市子２９５號","OBJECTID":125518},"geometry":{"x":184354.17000000086,"y":2540570.25}},{"attributes":{"ID":125519,"DIS_CODE":0,"TOWNNAME":"龍崎區","LI":"牛埔里","LIN":"7鄰","STREET":" ","SECT":" ","MAREA":"烏山頭","LANE":" ","ALLEY":" ","HOUSE_NO":"８號","E_COORD97":190908.69,"N_COORD97":2536965.25,"ADDRESS":"烏山頭８號","OBJECTID":125519},"geometry":{"x":190908.69000000041,"y":2536965.2500000019}},{"attributes":{"ID":125520,"DIS_CODE":0,"TOWNNAME":"龍崎區","LI":"土崎里","LIN":"4鄰","STREET":" ","SECT":" ","MAREA":"礁坑子","LANE":" ","ALLEY":" ","HOUSE_NO":"２６號","E_COORD97":187379.14000000001,"N_COORD97":2543752.2799999998,"ADDRESS":"礁坑子２６號","OBJECTID":125520},"geometry":{"x":187379.13999999966,"y":2543752.2799999993}},{"attributes":{"ID":125521,"DIS_CODE":0,"TOWNNAME":"龍崎區","LI":"崎頂里","LIN":"4鄰","STREET":" ","SECT":" ","MAREA":"新市子","LANE":" ","ALLEY":" ","HOUSE_NO":"１５０號","E_COORD97":184607.67000000001,"N_COORD97":2540567.25,"ADDRESS":"新市子１５０號","OBJECTID":125521},"geometry":{"x":184607.66999999993,"y":2540567.25}},{"attributes":{"ID":125522,"DIS_CODE":0,"TOWNNAME":"龍崎區","LI":"崎頂里","LIN":"4鄰","STREET":" ","SECT":" ","MAREA":"新市子","LANE":" ","ALLEY":" ","HOUSE_NO":"１５５號","E_COORD97":184587.17000000001,"N_COORD97":2540569.25,"ADDRESS":"新市子１５５號","OBJECTID":125522},"geometry":{"x":184587.16999999993,"y":2540569.2500000019}},{"attributes":{"ID":125523,"DIS_CODE":0,"TOWNNAME":"大內區","LI":"內江里","LIN":" ","STREET":" ","SECT":" ","MAREA":"內庄","LANE":" ","ALLEY":" ","HOUSE_NO":"３０８之１號","E_COORD97":184584.88,"N_COORD97":2557242.2999999998,"ADDRESS":"內庄３０８之１號","OBJECTID":125523},"geometry":{"x":184584.88000000082,"y":2557242.3000000045}},{"attributes":{"ID":125524,"DIS_CODE":0,"TOWNNAME":"大內區","LI":"頭社里","LIN":" ","STREET":" ","SECT":" ","MAREA":"頭社","LANE":" ","ALLEY":" ","HOUSE_NO":"６３之１號","E_COORD97":187205.14000000001,"N_COORD97":2560322.2999999998,"ADDRESS":"頭社６３之１號","OBJECTID":125524},"geometry":{"x":187205.1400000006,"y":2560322.3000000007}},{"attributes":{"ID":125525,"DIS_CODE":0,"TOWNNAME":"大內區","LI":"石林里","LIN":" ","STREET":" ","SECT":" ","MAREA":"石子瀨","LANE":" ","ALLEY":" ","HOUSE_NO":"２２２之１１號","E_COORD97":184188.82000000001,"N_COORD97":2558382.2999999998,"ADDRESS":"石子瀨２２２之１１號","OBJECTID":125525},"geometry":{"x":184188.82000000123,"y":2558382.3000000026}},{"attributes":{"ID":125526,"DIS_CODE":0,"TOWNNAME":"大內區","LI":"石林里","LIN":" ","STREET":" ","SECT":" ","MAREA":"石子瀨","LANE":" ","ALLEY":" ","HOUSE_NO":"２２２之２號","E_COORD97":184188.97,"N_COORD97":2558403.2999999998,"ADDRESS":"石子瀨２２２之２號","OBJECTID":125526},"geometry":{"x":184188.97000000067,"y":2558403.3000000007}},{"attributes":{"ID":125527,"DIS_CODE":0,"TOWNNAME":"麻豆區","LI":"北勢里","LIN":"6鄰","STREET":" ","SECT":" ","MAREA":"太子宅","LANE":" ","ALLEY":" ","HOUSE_NO":"８號","E_COORD97":173111.22,"N_COORD97":2565930.21,"ADDRESS":"太子宅８號","OBJECTID":125527},"geometry":{"x":173111.22000000067,"y":2565930.2100000028}},{"attributes":{"ID":125528,"DIS_CODE":0,"TOWNNAME":"麻豆區","LI":"北勢里","LIN":"6鄰","STREET":" ","SECT":" ","MAREA":"太子宅","LANE":" ","ALLEY":" ","HOUSE_NO":"９號之１","E_COORD97":173092.01000000001,"N_COORD97":2565929.5499999998,"ADDRESS":"太子宅９號之１","OBJECTID":125528},"geometry":{"x":173092.01000000071,"y":2565929.5500000007}},{"attributes":{"ID":125529,"DIS_CODE":0,"TOWNNAME":"麻豆區","LI":"北勢里","LIN":"6鄰","STREET":" ","SECT":" ","MAREA":"太子宅","LANE":" ","ALLEY":" ","HOUSE_NO":"９號","E_COORD97":173095.85000000001,"N_COORD97":2565945.8199999998,"ADDRESS":"太子宅９號","OBJECTID":125529},"geometry":{"x":173095.84999999963,"y":2565945.8200000022}},{"attributes":{"ID":125530,"DIS_CODE":0,"TOWNNAME":"龍崎區","LI":"石\u25A0里","LIN":"4鄰","STREET":" ","SECT":" ","MAREA":"刺子崙","LANE":" ","ALLEY":" ","HOUSE_NO":"２之３號","E_COORD97":189119.64000000001,"N_COORD97":2538532.2999999998,"ADDRESS":"刺子崙２之３號","OBJECTID":125530},"geometry":{"x":189119.63999999966,"y":2538532.3000000007}},{"attributes":{"ID":125531,"DIS_CODE":0,"TOWNNAME":"龍崎區","LI":"土崎里","LIN":"4鄰","STREET":" ","SECT":" ","MAREA":"礁坑子","LANE":" ","ALLEY":" ","HOUSE_NO":"２２號之２","E_COORD97":186843.10999999999,"N_COORD97":2543179.2999999998,"ADDRESS":"礁坑子２２號之２","OBJECTID":125531},"geometry":{"x":186843.1100000022,"y":2543179.3000000026}},{"attributes":{"ID":125532,"DIS_CODE":0,"TOWNNAME":"龍崎區","LI":"崎頂里","LIN":"4鄰","STREET":" ","SECT":" ","MAREA":"新市子","LANE":" ","ALLEY":" ","HOUSE_NO":"１６１號","E_COORD97":184567.57000000001,"N_COORD97":2540634.25,"ADDRESS":"新市子１６１號","OBJECTID":125532},"geometry":{"x":184567.5700000003,"y":2540634.25}},{"attributes":{"ID":125533,"DIS_CODE":0,"TOWNNAME":"安平區","LI":"國平里","LIN":"16鄰","STREET":"華平路","SECT":" ","MAREA":" ","LANE":"２１巷","ALLEY":"３２弄","HOUSE_NO":"２２號之３四樓","E_COORD97":165243.28,"N_COORD97":2542891.5099999998,"ADDRESS":"華平路２１巷３２弄２２號之３四樓","OBJECTID":125533},"geometry":{"x":165243.27999999933,"y":2542891.5100000035}},{"attributes":{"ID":125534,"DIS_CODE":0,"TOWNNAME":"安平區","LI":"國平里","LIN":"16鄰","STREET":"華平路","SECT":" ","MAREA":" ","LANE":"２１巷","ALLEY":"３２弄","HOUSE_NO":"２２號之４二樓","E_COORD97":165243.69,"N_COORD97":2542898.0299999998,"ADDRESS":"華平路２１巷３２弄２２號之４二樓","OBJECTID":125534},"geometry":{"x":165243.69000000041,"y":2542898.0300000012}},{"attributes":{"ID":125535,"DIS_CODE":0,"TOWNNAME":"安平區","LI":"國平里","LIN":"16鄰","STREET":"華平路","SECT":" ","MAREA":" ","LANE":"２１巷","ALLEY":"３２弄","HOUSE_NO":"２２號之４三樓","E_COORD97":165243.69,"N_COORD97":2542898.0299999998,"ADDRESS":"華平路２１巷３２弄２２號之４三樓","OBJECTID":125535},"geometry":{"x":165243.69000000041,"y":2542898.0300000012}},{"attributes":{"ID":125536,"DIS_CODE":0,"TOWNNAME":"安平區","LI":"國平里","LIN":"16鄰","STREET":"華平路","SECT":" ","MAREA":" ","LANE":"２１巷","ALLEY":"３２弄","HOUSE_NO":"２２號之４五樓","E_COORD97":165243.69,"N_COORD97":2542898.0299999998,"ADDRESS":"華平路２１巷３２弄２２號之４五樓","OBJECTID":125536},"geometry":{"x":165243.69000000041,"y":2542898.0300000012}},{"attributes":{"ID":125537,"DIS_CODE":0,"TOWNNAME":"安平區","LI":"國平里","LIN":"16鄰","STREET":"華平路","SECT":" ","MAREA":" ","LANE":"２１巷","ALLEY":"３２弄","HOUSE_NO":"２２號之４六樓","E_COORD97":165243.69,"N_COORD97":2542898.0299999998,"ADDRESS":"華平路２１巷３２弄２２號之４六樓","OBJECTID":125537},"geometry":{"x":165243.69000000041,"y":2542898.0300000012}},{"attributes":{"ID":125538,"DIS_CODE":0,"TOWNNAME":"安平區","LI":"國平里","LIN":"16鄰","STREET":"華平路","SECT":" ","MAREA":" ","LANE":"２１巷","ALLEY":"３２弄","HOUSE_NO":"２２號之４四樓","E_COORD97":165243.69,"N_COORD97":2542898.0299999998,"ADDRESS":"華平路２１巷３２弄２２號之４四樓","OBJECTID":125538},"geometry":{"x":165243.69000000041,"y":2542898.0300000012}},{"attributes":{"ID":125539,"DIS_CODE":0,"TOWNNAME":"安平區","LI":"國平里","LIN":"16鄰","STREET":"華平路","SECT":" ","MAREA":" ","LANE":"２１巷","ALLEY":"３２弄","HOUSE_NO":"２２號之５二樓","E_COORD97":165238.23999999999,"N_COORD97":2542899.4500000002,"ADDRESS":"華平路２１巷３２弄２２號之５二樓","OBJECTID":125539},"geometry":{"x":165238.24000000022,"y":2542899.4500000011}},{"attributes":{"ID":125540,"DIS_CODE":0,"TOWNNAME":"安平區","LI":"國平里","LIN":"16鄰","STREET":"華平路","SECT":" ","MAREA":" ","LANE":"２１巷","ALLEY":"３２弄","HOUSE_NO":"２２號之５三樓","E_COORD97":165238.23999999999,"N_COORD97":2542899.4500000002,"ADDRESS":"華平路２１巷３２弄２２號之５三樓","OBJECTID":125540},"geometry":{"x":165238.24000000022,"y":2542899.4500000011}},{"attributes":{"ID":125541,"DIS_CODE":0,"TOWNNAME":"安平區","LI":"國平里","LIN":"16鄰","STREET":"華平路","SECT":" ","MAREA":" ","LANE":"２１巷","ALLEY":"３２弄","HOUSE_NO":"２２號之５五樓","E_COORD97":165238.23999999999,"N_COORD97":2542899.4500000002,"ADDRESS":"華平路２１巷３２弄２２號之５五樓","OBJECTID":125541},"geometry":{"x":165238.24000000022,"y":2542899.4500000011}},{"attributes":{"ID":125542,"DIS_CODE":0,"TOWNNAME":"安平區","LI":"國平里","LIN":"16鄰","STREET":"華平路","SECT":" ","MAREA":" ","LANE":"２１巷","ALLEY":"３２弄","HOUSE_NO":"２２號之５六樓","E_COORD97":165238.23999999999,"N_COORD97":2542899.4500000002,"ADDRESS":"華平路２１巷３２弄２２號之５六樓","OBJECTID":125542},"geometry":{"x":165238.24000000022,"y":2542899.4500000011}},{"attributes":{"ID":125543,"DIS_CODE":0,"TOWNNAME":"龍崎區","LI":"石\u25A0里","LIN":"4鄰","STREET":" ","SECT":" ","MAREA":"刺子崙","LANE":" ","ALLEY":" ","HOUSE_NO":"１０之１號","E_COORD97":188600.29000000001,"N_COORD97":2539629.2999999998,"ADDRESS":"刺子崙１０之１號","OBJECTID":125543},"geometry":{"x":188600.29000000004,"y":2539629.3000000045}},{"attributes":{"ID":125544,"DIS_CODE":0,"TOWNNAME":"龍崎區","LI":"楠坑里","LIN":"4鄰","STREET":" ","SECT":" ","MAREA":"樹子林","LANE":" ","ALLEY":" ","HOUSE_NO":"１５號","E_COORD97":184863.04000000001,"N_COORD97":2536883.25,"ADDRESS":"樹子林１５號","OBJECTID":125544},"geometry":{"x":184863.04000000004,"y":2536883.2500000019}},{"attributes":{"ID":125545,"DIS_CODE":0,"TOWNNAME":"白河區","LI":"白河里","LIN":"6鄰","STREET":" ","SECT":" ","MAREA":" ","LANE":"市場二巷","ALLEY":" ","HOUSE_NO":"３號","E_COORD97":190211.06,"N_COORD97":2583079.4700000002,"ADDRESS":"市場二巷３號","OBJECTID":125545},"geometry":{"x":190211.06000000145,"y":2583079.4700000025}},{"attributes":{"ID":125546,"DIS_CODE":0,"TOWNNAME":"龍崎區","LI":"龍船里","LIN":"4鄰","STREET":" ","SECT":" ","MAREA":"後壁溪","LANE":" ","ALLEY":" ","HOUSE_NO":"２６號","E_COORD97":190131.92000000001,"N_COORD97":2538452.3199999998,"ADDRESS":"後壁溪２６號","OBJECTID":125546},"geometry":{"x":190131.91999999993,"y":2538452.3200000022}},{"attributes":{"ID":125547,"DIS_CODE":0,"TOWNNAME":"龍崎區","LI":"龍船里","LIN":"4鄰","STREET":" ","SECT":" ","MAREA":"後壁溪","LANE":" ","ALLEY":" ","HOUSE_NO":"３１號","E_COORD97":190302.92000000001,"N_COORD97":2538626.3199999998,"ADDRESS":"後壁溪３１號","OBJECTID":125547},"geometry":{"x":190302.92000000086,"y":2538626.3200000022}},{"attributes":{"ID":125548,"DIS_CODE":0,"TOWNNAME":"龍崎區","LI":"龍船里","LIN":"4鄰","STREET":" ","SECT":" ","MAREA":"後壁溪","LANE":" ","ALLEY":" ","HOUSE_NO":"２７之１號","E_COORD97":190173.01999999999,"N_COORD97":2538493.3199999998,"ADDRESS":"後壁溪２７之１號","OBJECTID":125548},"geometry":{"x":190173.02000000048,"y":2538493.3200000022}},{"attributes":{"ID":125549,"DIS_CODE":0,"TOWNNAME":"龍崎區","LI":"崎頂里","LIN":"20鄰","STREET":" ","SECT":" ","MAREA":"嶺頂","LANE":" ","ALLEY":" ","HOUSE_NO":"２號","E_COORD97":185870.12,"N_COORD97":2541437.25,"ADDRESS":"嶺頂２號","OBJECTID":125549},"geometry":{"x":185870.12000000104,"y":2541437.2500000019}},{"attributes":{"ID":125550,"DIS_CODE":0,"TOWNNAME":"新市區","LI":"大社里","LIN":"18鄰","STREET":" ","SECT":" ","MAREA":"大社","LANE":" ","ALLEY":" ","HOUSE_NO":"７５３號之５","E_COORD97":180084.79999999999,"N_COORD97":2554205.5499999998,"ADDRESS":"大社７５３號之５","OBJECTID":125550},"geometry":{"x":180084.80000000075,"y":2554205.5500000007}},{"attributes":{"ID":125551,"DIS_CODE":0,"TOWNNAME":"新市區","LI":"大社里","LIN":"25鄰","STREET":" ","SECT":" ","MAREA":"大社","LANE":" ","ALLEY":" ","HOUSE_NO":"９１８之２０號","E_COORD97":179922.79000000001,"N_COORD97":2554044.7999999998,"ADDRESS":"大社９１８之２０號","OBJECTID":125551},"geometry":{"x":179922.79000000004,"y":2554044.7999999989}},{"attributes":{"ID":125552,"DIS_CODE":0,"TOWNNAME":"新市區","LI":"大社里","LIN":"25鄰","STREET":" ","SECT":" ","MAREA":"大社","LANE":" ","ALLEY":" ","HOUSE_NO":"９１８之４號","E_COORD97":179944.38,"N_COORD97":2554037.0499999998,"ADDRESS":"大社９１８之４號","OBJECTID":125552},"geometry":{"x":179944.37999999989,"y":2554037.0500000026}},{"attributes":{"ID":125553,"DIS_CODE":0,"TOWNNAME":"龍崎區","LI":"崎頂里","LIN":"13鄰","STREET":" ","SECT":" ","MAREA":"崎頂","LANE":" ","ALLEY":" ","HOUSE_NO":"１４之１６號","E_COORD97":185885.16,"N_COORD97":2539576.2999999998,"ADDRESS":"崎頂１４之１６號","OBJECTID":125553},"geometry":{"x":185885.16000000108,"y":2539576.3000000026}},{"attributes":{"ID":125554,"DIS_CODE":0,"TOWNNAME":"龍崎區","LI":"土崎里","LIN":"14鄰","STREET":" ","SECT":" ","MAREA":"觀音山","LANE":" ","ALLEY":" ","HOUSE_NO":"１２號","E_COORD97":186855.44,"N_COORD97":2544794.25,"ADDRESS":"觀音山１２號","OBJECTID":125554},"geometry":{"x":186855.44000000041,"y":2544794.25}},{"attributes":{"ID":125555,"DIS_CODE":0,"TOWNNAME":"龍崎區","LI":"大坪里","LIN":"8鄰","STREET":" ","SECT":" ","MAREA":"大坪","LANE":" ","ALLEY":" ","HOUSE_NO":"３０號","E_COORD97":187679.17000000001,"N_COORD97":2536302.25,"ADDRESS":"大坪３０號","OBJECTID":125555},"geometry":{"x":187679.16999999993,"y":2536302.25}},{"attributes":{"ID":125556,"DIS_CODE":0,"TOWNNAME":"龍崎區","LI":"大坪里","LIN":"7鄰","STREET":" ","SECT":" ","MAREA":"大坪","LANE":" ","ALLEY":" ","HOUSE_NO":"１６號","E_COORD97":187669.37,"N_COORD97":2536448.25,"ADDRESS":"大坪１６號","OBJECTID":125556},"geometry":{"x":187669.37000000011,"y":2536448.2499999981}},{"attributes":{"ID":125557,"DIS_CODE":0,"TOWNNAME":"龍崎區","LI":"中坑里","LIN":"7鄰","STREET":" ","SECT":" ","MAREA":"大溪","LANE":" ","ALLEY":" ","HOUSE_NO":"１３之１號","E_COORD97":184259.07000000001,"N_COORD97":2538108.3100000001,"ADDRESS":"大溪１３之１號","OBJECTID":125557},"geometry":{"x":184259.0700000003,"y":2538108.3100000005}},{"attributes":{"ID":125558,"DIS_CODE":0,"TOWNNAME":"龍崎區","LI":"崎頂里","LIN":"7鄰","STREET":" ","SECT":" ","MAREA":"新市子","LANE":" ","ALLEY":" ","HOUSE_NO":"２３６號","E_COORD97":184412.97,"N_COORD97":2540814.25,"ADDRESS":"新市子２３６號","OBJECTID":125558},"geometry":{"x":184412.97000000067,"y":2540814.25}},{"attributes":{"ID":125559,"DIS_CODE":0,"TOWNNAME":"龍崎區","LI":"中坑里","LIN":"7鄰","STREET":" ","SECT":" ","MAREA":"大溪","LANE":" ","ALLEY":" ","HOUSE_NO":"１６之１號","E_COORD97":184217.47,"N_COORD97":2538104.3100000001,"ADDRESS":"大溪１６之１號","OBJECTID":125559},"geometry":{"x":184217.4700000016,"y":2538104.3100000024}},{"attributes":{"ID":125560,"DIS_CODE":0,"TOWNNAME":"龍崎區","LI":"崎頂里","LIN":"4鄰","STREET":" ","SECT":" ","MAREA":"新市子","LANE":" ","ALLEY":" ","HOUSE_NO":"１１５號","E_COORD97":184739.26999999999,"N_COORD97":2540565.25,"ADDRESS":"新市子１１５號","OBJECTID":125560},"geometry":{"x":184739.27000000048,"y":2540565.2500000019}},{"attributes":{"ID":125561,"DIS_CODE":0,"TOWNNAME":"龍崎區","LI":"崎頂里","LIN":"4鄰","STREET":" ","SECT":" ","MAREA":"新市子","LANE":" ","ALLEY":" ","HOUSE_NO":"１０８號","E_COORD97":184770.67000000001,"N_COORD97":2540520.25,"ADDRESS":"新市子１０８號","OBJECTID":125561},"geometry":{"x":184770.67000000179,"y":2540520.2500000037}},{"attributes":{"ID":125562,"DIS_CODE":0,"TOWNNAME":"龍崎區","LI":"崎頂里","LIN":"4鄰","STREET":" ","SECT":" ","MAREA":"新市子","LANE":" ","ALLEY":" ","HOUSE_NO":"１５６號","E_COORD97":184582.07000000001,"N_COORD97":2540570.25,"ADDRESS":"新市子１５６號","OBJECTID":125562},"geometry":{"x":184582.07000000123,"y":2540570.25}},{"attributes":{"ID":125563,"DIS_CODE":0,"TOWNNAME":"龍崎區","LI":"崎頂里","LIN":"4鄰","STREET":" ","SECT":" ","MAREA":"新市子","LANE":" ","ALLEY":" ","HOUSE_NO":"１３３號之３","E_COORD97":184769.70000000001,"N_COORD97":2540668.2999999998,"ADDRESS":"新市子１３３號之３","OBJECTID":125563},"geometry":{"x":184769.70000000112,"y":2540668.3000000007}},{"attributes":{"ID":125564,"DIS_CODE":0,"TOWNNAME":"龍崎區","LI":"楠坑里","LIN":"4鄰","STREET":" ","SECT":" ","MAREA":"樹子林","LANE":" ","ALLEY":" ","HOUSE_NO":"１７之２號","E_COORD97":184685.73999999999,"N_COORD97":2536509.2999999998,"ADDRESS":"樹子林１７之２號","OBJECTID":125564},"geometry":{"x":184685.74000000209,"y":2536509.3000000007}},{"attributes":{"ID":125565,"DIS_CODE":0,"TOWNNAME":"龍崎區","LI":"龍船里","LIN":"4鄰","STREET":" ","SECT":" ","MAREA":"苦苓湖","LANE":" ","ALLEY":" ","HOUSE_NO":"１６號之５","E_COORD97":190214.48000000001,"N_COORD97":2538371.2999999998,"ADDRESS":"苦苓湖１６號之５","OBJECTID":125565},"geometry":{"x":190214.48000000138,"y":2538371.3000000045}},{"attributes":{"ID":125566,"DIS_CODE":0,"TOWNNAME":"龍崎區","LI":"龍船里","LIN":"4鄰","STREET":" ","SECT":" ","MAREA":"後壁溪","LANE":" ","ALLEY":" ","HOUSE_NO":"２７號","E_COORD97":190163.32000000001,"N_COORD97":2538493.3199999998,"ADDRESS":"後壁溪２７號","OBJECTID":125566},"geometry":{"x":190163.3200000003,"y":2538493.3200000022}},{"attributes":{"ID":125567,"DIS_CODE":0,"TOWNNAME":"龍崎區","LI":"龍船里","LIN":"4鄰","STREET":" ","SECT":" ","MAREA":"後壁溪","LANE":" ","ALLEY":" ","HOUSE_NO":"２６之２號","E_COORD97":190072.12,"N_COORD97":2538479.3199999998,"ADDRESS":"後壁溪２６之２號","OBJECTID":125567},"geometry":{"x":190072.12000000197,"y":2538479.320000004}},{"attributes":{"ID":125568,"DIS_CODE":0,"TOWNNAME":"龍崎區","LI":"土崎里","LIN":"14鄰","STREET":" ","SECT":" ","MAREA":"觀音山","LANE":" ","ALLEY":" ","HOUSE_NO":"１３號","E_COORD97":186820.84,"N_COORD97":2544897.25,"ADDRESS":"觀音山１３號","OBJECTID":125568},"geometry":{"x":186820.84000000078,"y":2544897.2500000037}},{"attributes":{"ID":125569,"DIS_CODE":0,"TOWNNAME":"龍崎區","LI":"崎頂里","LIN":"17鄰","STREET":" ","SECT":" ","MAREA":"芋園","LANE":" ","ALLEY":" ","HOUSE_NO":"１６號","E_COORD97":186890.97,"N_COORD97":2541519.25,"ADDRESS":"芋園１６號","OBJECTID":125569},"geometry":{"x":186890.97000000067,"y":2541519.25}},{"attributes":{"ID":125570,"DIS_CODE":0,"TOWNNAME":"龍崎區","LI":"崎頂里","LIN":"8鄰","STREET":" ","SECT":" ","MAREA":"新市子","LANE":" ","ALLEY":" ","HOUSE_NO":"２９４號","E_COORD97":184354.26999999999,"N_COORD97":2540574.25,"ADDRESS":"新市子２９４號","OBJECTID":125570},"geometry":{"x":184354.27000000142,"y":2540574.25}},{"attributes":{"ID":125571,"DIS_CODE":0,"TOWNNAME":"龍崎區","LI":"龍船里","LIN":"4鄰","STREET":" ","SECT":" ","MAREA":"後壁溪","LANE":" ","ALLEY":" ","HOUSE_NO":"２９之１號","E_COORD97":190186.82000000001,"N_COORD97":2538560.3199999998,"ADDRESS":"後壁溪２９之１號","OBJECTID":125571},"geometry":{"x":190186.82000000123,"y":2538560.3199999984}},{"attributes":{"ID":125572,"DIS_CODE":0,"TOWNNAME":"龍崎區","LI":"龍船里","LIN":"4鄰","STREET":" ","SECT":" ","MAREA":"苦苓湖","LANE":" ","ALLEY":" ","HOUSE_NO":"１９號","E_COORD97":190201.48999999999,"N_COORD97":2538131.25,"ADDRESS":"苦苓湖１９號","OBJECTID":125572},"geometry":{"x":190201.49000000022,"y":2538131.2500000019}},{"attributes":{"ID":125573,"DIS_CODE":0,"TOWNNAME":"龍崎區","LI":"龍船里","LIN":"4鄰","STREET":" ","SECT":" ","MAREA":"苦苓湖","LANE":" ","ALLEY":" ","HOUSE_NO":"１６之３號","E_COORD97":190287.48999999999,"N_COORD97":2538278.2999999998,"ADDRESS":"苦苓湖１６之３號","OBJECTID":125573},"geometry":{"x":190287.49000000115,"y":2538278.3000000007}},{"attributes":{"ID":125574,"DIS_CODE":0,"TOWNNAME":"龍崎區","LI":"龍船里","LIN":"4鄰","STREET":" ","SECT":" ","MAREA":"後壁溪","LANE":" ","ALLEY":" ","HOUSE_NO":"２９號","E_COORD97":190226.72,"N_COORD97":2538524.3199999998,"ADDRESS":"後壁溪２９號","OBJECTID":125574},"geometry":{"x":190226.71999999974,"y":2538524.3200000022}},{"attributes":{"ID":125575,"DIS_CODE":0,"TOWNNAME":"龍崎區","LI":"龍船里","LIN":"4鄰","STREET":" ","SECT":" ","MAREA":"後壁溪","LANE":" ","ALLEY":" ","HOUSE_NO":"３０號","E_COORD97":190232.72,"N_COORD97":2538498.3199999998,"ADDRESS":"後壁溪３０號","OBJECTID":125575},"geometry":{"x":190232.72000000067,"y":2538498.3200000003}},{"attributes":{"ID":125576,"DIS_CODE":0,"TOWNNAME":"龍崎區","LI":"龍船里","LIN":"4鄰","STREET":" ","SECT":" ","MAREA":"後壁溪","LANE":" ","ALLEY":" ","HOUSE_NO":"２６之１號","E_COORD97":190094.01999999999,"N_COORD97":2538508.3199999998,"ADDRESS":"後壁溪２６之１號","OBJECTID":125576},"geometry":{"x":190094.01999999955,"y":2538508.3200000003}},{"attributes":{"ID":125577,"DIS_CODE":0,"TOWNNAME":"龍崎區","LI":"龍船里","LIN":"4鄰","STREET":" ","SECT":" ","MAREA":"苦苓湖","LANE":" ","ALLEY":" ","HOUSE_NO":"１６號之４","E_COORD97":190221.04999999999,"N_COORD97":2538325.2999999998,"ADDRESS":"苦苓湖１６號之４","OBJECTID":125577},"geometry":{"x":190221.04999999981,"y":2538325.3000000026}},{"attributes":{"ID":125578,"DIS_CODE":0,"TOWNNAME":"龍崎區","LI":"龍船里","LIN":"7鄰","STREET":" ","SECT":" ","MAREA":"水堀坪","LANE":" ","ALLEY":" ","HOUSE_NO":"６號","E_COORD97":191757.35999999999,"N_COORD97":2539439.25,"ADDRESS":"水堀坪６號","OBJECTID":125578},"geometry":{"x":191757.3600000022,"y":2539439.2500000019}},{"attributes":{"ID":125579,"DIS_CODE":0,"TOWNNAME":"龍崎區","LI":"龍船里","LIN":"7鄰","STREET":" ","SECT":" ","MAREA":"水堀坪","LANE":" ","ALLEY":" ","HOUSE_NO":"８號","E_COORD97":191885.66,"N_COORD97":2539573.25,"ADDRESS":"水堀坪８號","OBJECTID":125579},"geometry":{"x":191885.66000000201,"y":2539573.25}},{"attributes":{"ID":125580,"DIS_CODE":0,"TOWNNAME":"龍崎區","LI":"龍船里","LIN":"7鄰","STREET":" ","SECT":" ","MAREA":"水堀坪","LANE":" ","ALLEY":" ","HOUSE_NO":"１之１號","E_COORD97":191290.95999999999,"N_COORD97":2539145.2999999998,"ADDRESS":"水堀坪１之１號","OBJECTID":125580},"geometry":{"x":191290.96000000089,"y":2539145.3000000026}},{"attributes":{"ID":125581,"DIS_CODE":0,"TOWNNAME":"龍崎區","LI":"龍船里","LIN":"1鄰","STREET":" ","SECT":" ","MAREA":"瓦厝子","LANE":" ","ALLEY":" ","HOUSE_NO":"７號","E_COORD97":189496.64000000001,"N_COORD97":2537579.25,"ADDRESS":"瓦厝子７號","OBJECTID":125581},"geometry":{"x":189496.63999999966,"y":2537579.25}},{"attributes":{"ID":125582,"DIS_CODE":0,"TOWNNAME":"龍崎區","LI":"崎頂里","LIN":"21鄰","STREET":" ","SECT":" ","MAREA":"嶺頂","LANE":" ","ALLEY":" ","HOUSE_NO":"８號","E_COORD97":185852.92000000001,"N_COORD97":2541637.25,"ADDRESS":"嶺頂８號","OBJECTID":125582},"geometry":{"x":185852.92000000086,"y":2541637.2500000019}},{"attributes":{"ID":125583,"DIS_CODE":0,"TOWNNAME":"龍崎區","LI":"龍船里","LIN":"4鄰","STREET":" ","SECT":" ","MAREA":"苦苓湖","LANE":" ","ALLEY":" ","HOUSE_NO":"１７號","E_COORD97":190170.59,"N_COORD97":2538125.25,"ADDRESS":"苦苓湖１７號","OBJECTID":125583},"geometry":{"x":190170.59000000078,"y":2538125.25}},{"attributes":{"ID":125584,"DIS_CODE":0,"TOWNNAME":"新市區","LI":"永就里","LIN":"4鄰","STREET":" ","SECT":" ","MAREA":"永就","LANE":" ","ALLEY":" ","HOUSE_NO":"４０之２號","E_COORD97":178469.03,"N_COORD97":2551480.5499999998,"ADDRESS":"永就４０之２號","OBJECTID":125584},"geometry":{"x":178469.03000000026,"y":2551480.5500000026}},{"attributes":{"ID":125585,"DIS_CODE":0,"TOWNNAME":"新市區","LI":"大社里","LIN":"29鄰","STREET":" ","SECT":" ","MAREA":"大社","LANE":" ","ALLEY":" ","HOUSE_NO":"９５０號之２","E_COORD97":180129.48000000001,"N_COORD97":2554138.2999999998,"ADDRESS":"大社９５０號之２","OBJECTID":125585},"geometry":{"x":180129.48000000231,"y":2554138.3000000007}},{"attributes":{"ID":125586,"DIS_CODE":0,"TOWNNAME":"麻豆區","LI":"北勢里","LIN":"6鄰","STREET":" ","SECT":" ","MAREA":"太子宅","LANE":" ","ALLEY":" ","HOUSE_NO":"１０號","E_COORD97":173095.53,"N_COORD97":2565981.5600000001,"ADDRESS":"太子宅１０號","OBJECTID":125586},"geometry":{"x":173095.53000000212,"y":2565981.5600000024}},{"attributes":{"ID":125587,"DIS_CODE":0,"TOWNNAME":"麻豆區","LI":"北勢里","LIN":"6鄰","STREET":" ","SECT":" ","MAREA":"太子宅","LANE":" ","ALLEY":" ","HOUSE_NO":"１１號","E_COORD97":173119.78,"N_COORD97":2565973.2000000002,"ADDRESS":"太子宅１１號","OBJECTID":125587},"geometry":{"x":173119.78000000119,"y":2565973.1999999993}},{"attributes":{"ID":125588,"DIS_CODE":0,"TOWNNAME":"麻豆區","LI":"北勢里","LIN":"6鄰","STREET":" ","SECT":" ","MAREA":"太子宅","LANE":" ","ALLEY":" ","HOUSE_NO":"１２號之１","E_COORD97":173162.23999999999,"N_COORD97":2566051.04,"ADDRESS":"太子宅１２號之１","OBJECTID":125588},"geometry":{"x":173162.24000000115,"y":2566051.040000001}},{"attributes":{"ID":125589,"DIS_CODE":0,"TOWNNAME":"麻豆區","LI":"北勢里","LIN":"6鄰","STREET":" ","SECT":" ","MAREA":"太子宅","LANE":" ","ALLEY":" ","HOUSE_NO":"１２號之２","E_COORD97":173220.84,"N_COORD97":2566070.9399999999,"ADDRESS":"太子宅１２號之２","OBJECTID":125589},"geometry":{"x":173220.84000000078,"y":2566070.9399999995}},{"attributes":{"ID":125590,"DIS_CODE":0,"TOWNNAME":"麻豆區","LI":"北勢里","LIN":"6鄰","STREET":" ","SECT":" ","MAREA":"太子宅","LANE":" ","ALLEY":" ","HOUSE_NO":"１３號","E_COORD97":173093.07999999999,"N_COORD97":2565998.6099999999,"ADDRESS":"太子宅１３號","OBJECTID":125590},"geometry":{"x":173093.08000000007,"y":2565998.6099999994}},{"attributes":{"ID":125591,"DIS_CODE":0,"TOWNNAME":"麻豆區","LI":"北勢里","LIN":"6鄰","STREET":" ","SECT":" ","MAREA":"太子宅","LANE":" ","ALLEY":" ","HOUSE_NO":"１４號","E_COORD97":173067.04000000001,"N_COORD97":2566021.8900000001,"ADDRESS":"太子宅１４號","OBJECTID":125591},"geometry":{"x":173067.04000000097,"y":2566021.8900000006}},{"attributes":{"ID":125592,"DIS_CODE":0,"TOWNNAME":"麻豆區","LI":"北勢里","LIN":"6鄰","STREET":" ","SECT":" ","MAREA":"太子宅","LANE":" ","ALLEY":" ","HOUSE_NO":"１５號","E_COORD97":173101.10000000001,"N_COORD97":2566034.75,"ADDRESS":"太子宅１５號","OBJECTID":125592},"geometry":{"x":173101.10000000149,"y":2566034.75}},{"attributes":{"ID":125593,"DIS_CODE":0,"TOWNNAME":"麻豆區","LI":"北勢里","LIN":"6鄰","STREET":" ","SECT":" ","MAREA":"太子宅","LANE":" ","ALLEY":" ","HOUSE_NO":"１６號之１","E_COORD97":173083.17000000001,"N_COORD97":2566047.0899999999,"ADDRESS":"太子宅１６號之１","OBJECTID":125593},"geometry":{"x":173083.17000000086,"y":2566047.0899999999}},{"attributes":{"ID":125594,"DIS_CODE":0,"TOWNNAME":"麻豆區","LI":"北勢里","LIN":"6鄰","STREET":" ","SECT":" ","MAREA":"太子宅","LANE":" ","ALLEY":" ","HOUSE_NO":"１６號之２","E_COORD97":173043.10000000001,"N_COORD97":2566031.6699999999,"ADDRESS":"太子宅１６號之２","OBJECTID":125594},"geometry":{"x":173043.09999999963,"y":2566031.6699999999}},{"attributes":{"ID":125595,"DIS_CODE":0,"TOWNNAME":"麻豆區","LI":"北勢里","LIN":"6鄰","STREET":" ","SECT":" ","MAREA":"太子宅","LANE":" ","ALLEY":" ","HOUSE_NO":"１６號","E_COORD97":173068.04000000001,"N_COORD97":2566044.6600000001,"ADDRESS":"太子宅１６號","OBJECTID":125595},"geometry":{"x":173068.0400000019,"y":2566044.660000002}},{"attributes":{"ID":125596,"DIS_CODE":0,"TOWNNAME":"麻豆區","LI":"北勢里","LIN":"6鄰","STREET":" ","SECT":" ","MAREA":"太子宅","LANE":" ","ALLEY":" ","HOUSE_NO":"１７號之１","E_COORD97":172909.01999999999,"N_COORD97":2565977.27,"ADDRESS":"太子宅１７號之１","OBJECTID":125596},"geometry":{"x":172909.02000000048,"y":2565977.2699999996}},{"attributes":{"ID":125597,"DIS_CODE":0,"TOWNNAME":"安南區","LI":"安慶里","LIN":"9鄰","STREET":"長溪路","SECT":"一段","MAREA":" ","LANE":"３４２巷","ALLEY":" ","HOUSE_NO":"４１號","E_COORD97":168701.98706700001,"N_COORD97":2548945.0690799998,"ADDRESS":"長溪路一段３４２巷４１號","OBJECTID":125597},"geometry":{"x":168701.98706700001,"y":2548945.0690770019}},{"attributes":{"ID":125598,"DIS_CODE":0,"TOWNNAME":"麻豆區","LI":"北勢里","LIN":"6鄰","STREET":" ","SECT":" ","MAREA":"太子宅","LANE":" ","ALLEY":" ","HOUSE_NO":"１７號","E_COORD97":172909.56,"N_COORD97":2566049.1600000001,"ADDRESS":"太子宅１７號","OBJECTID":125598},"geometry":{"x":172909.55999999959,"y":2566049.1600000001}},{"attributes":{"ID":125599,"DIS_CODE":0,"TOWNNAME":"麻豆區","LI":"北勢里","LIN":"6鄰","STREET":" ","SECT":" ","MAREA":"太子宅","LANE":" ","ALLEY":" ","HOUSE_NO":"１８號之１","E_COORD97":173076.79999999999,"N_COORD97":2566068.6400000001,"ADDRESS":"太子宅１８號之１","OBJECTID":125599},"geometry":{"x":173076.80000000075,"y":2566068.6400000025}},{"attributes":{"ID":125600,"DIS_CODE":0,"TOWNNAME":"麻豆區","LI":"北勢里","LIN":"6鄰","STREET":" ","SECT":" ","MAREA":"太子宅","LANE":" ","ALLEY":" ","HOUSE_NO":"１８號","E_COORD97":173056.39000000001,"N_COORD97":2566102.96,"ADDRESS":"太子宅１８號","OBJECTID":125600},"geometry":{"x":173056.38999999966,"y":2566102.9600000009}}]}