{"displayFieldName":"TOWNNAME","fieldAliases":{"ID":"ID","DIS_CODE":"DIS_CODE","TOWNNAME":"TOWNNAME","LI":"LI","LIN":"LIN","STREET":"STREET","SECT":"SECT","MAREA":"MAREA","LANE":"LANE","ALLEY":"ALLEY","HOUSE_NO":"HOUSE_NO","E_COORD97":"E_COORD97","N_COORD97":"N_COORD97","ADDRESS":"ADDRESS","OBJECTID":"OBJECTID"},"geometryType":"esriGeometryPoint","spatialReference":{"wkid":102443,"latestWkid":3826},"fields":[{"name":"ID","type":"esriFieldTypeDouble","alias":"ID"},{"name":"DIS_CODE","type":"esriFieldTypeInteger","alias":"DIS_CODE"},{"name":"TOWNNAME","type":"esriFieldTypeString","alias":"TOWNNAME","length":8},{"name":"LI","type":"esriFieldTypeString","alias":"LI","length":8},{"name":"LIN","type":"esriFieldTypeString","alias":"LIN","length":12},{"name":"STREET","type":"esriFieldTypeString","alias":"STREET","length":20},{"name":"SECT","type":"esriFieldTypeString","alias":"SECT","length":8},{"name":"MAREA","type":"esriFieldTypeString","alias":"MAREA","length":12},{"name":"LANE","type":"esriFieldTypeString","alias":"LANE","length":10},{"name":"ALLEY","type":"esriFieldTypeString","alias":"ALLEY","length":10},{"name":"HOUSE_NO","type":"esriFieldTypeString","alias":"HOUSE_NO","length":20},{"name":"E_COORD97","type":"esriFieldTypeDouble","alias":"E_COORD97"},{"name":"N_COORD97","type":"esriFieldTypeDouble","alias":"N_COORD97"},{"name":"ADDRESS","type":"esriFieldTypeString","alias":"ADDRESS","length":50},{"name":"OBJECTID","type":"esriFieldTypeOID","alias":"OBJECTID"}],"features":[{"attributes":{"ID":277206,"DIS_CODE":0,"TOWNNAME":"學甲區","LI":"中洲里","LIN":"3鄰","STREET":" ","SECT":" ","MAREA":"中洲","LANE":" ","ALLEY":" ","HOUSE_NO":"３５號之２","E_COORD97":163927.20999999999,"N_COORD97":2571404.0499999998,"ADDRESS":"中洲３５號之２","OBJECTID":277201},"geometry":{"x":163927.21000000089,"y":2571404.0500000007}},{"attributes":{"ID":277207,"DIS_CODE":0,"TOWNNAME":"學甲區","LI":"中洲里","LIN":"3鄰","STREET":" ","SECT":" ","MAREA":"中洲","LANE":" ","ALLEY":" ","HOUSE_NO":"３５號之３","E_COORD97":163931.70999999999,"N_COORD97":2571404.54,"ADDRESS":"中洲３５號之３","OBJECTID":277202},"geometry":{"x":163931.71000000089,"y":2571404.540000001}},{"attributes":{"ID":277208,"DIS_CODE":0,"TOWNNAME":"學甲區","LI":"中洲里","LIN":"3鄰","STREET":" ","SECT":" ","MAREA":"中洲","LANE":" ","ALLEY":" ","HOUSE_NO":"３５號之４","E_COORD97":163937.20999999999,"N_COORD97":2571403.9300000002,"ADDRESS":"中洲３５號之４","OBJECTID":277203},"geometry":{"x":163937.21000000089,"y":2571403.9299999997}},{"attributes":{"ID":277209,"DIS_CODE":0,"TOWNNAME":"學甲區","LI":"中洲里","LIN":"3鄰","STREET":" ","SECT":" ","MAREA":"中洲","LANE":" ","ALLEY":" ","HOUSE_NO":"３５號之５","E_COORD97":163940.98000000001,"N_COORD97":2571404.25,"ADDRESS":"中洲３５號之５","OBJECTID":277204},"geometry":{"x":163940.98000000138,"y":2571404.2500000019}},{"attributes":{"ID":277210,"DIS_CODE":0,"TOWNNAME":"永康區","LI":"正強里","LIN":"6鄰","STREET":"自強路","SECT":" ","MAREA":" ","LANE":" ","ALLEY":" ","HOUSE_NO":"３３８號","E_COORD97":173433.45000000001,"N_COORD97":2547704.9900000002,"ADDRESS":"自強路３３８號","OBJECTID":277205},"geometry":{"x":173433.45000000205,"y":2547704.9900000002}},{"attributes":{"ID":277211,"DIS_CODE":0,"TOWNNAME":"關廟區","LI":"香洋里","LIN":"8鄰","STREET":"南雄路","SECT":"二段","MAREA":" ","LANE":" ","ALLEY":" ","HOUSE_NO":"２７號","E_COORD97":181086.14744100001,"N_COORD97":2540084.5041999999,"ADDRESS":"南雄路二段２７號","OBJECTID":277206},"geometry":{"x":181086.14744100068,"y":2540084.5042020027}},{"attributes":{"ID":277212,"DIS_CODE":0,"TOWNNAME":"歸仁區","LI":"武東里","LIN":"1鄰","STREET":"中正南路","SECT":"二段","MAREA":" ","LANE":"２５３巷","ALLEY":" ","HOUSE_NO":"１２號","E_COORD97":175423.16,"N_COORD97":2535214.2799999998,"ADDRESS":"中正南路二段２５３巷１２號","OBJECTID":277207},"geometry":{"x":175423.16000000015,"y":2535214.2800000012}},{"attributes":{"ID":277213,"DIS_CODE":0,"TOWNNAME":"學甲區","LI":"中洲里","LIN":"3鄰","STREET":" ","SECT":" ","MAREA":"中洲","LANE":" ","ALLEY":" ","HOUSE_NO":"３５號之６","E_COORD97":163946.53,"N_COORD97":2571402.2799999998,"ADDRESS":"中洲３５號之６","OBJECTID":277208},"geometry":{"x":163946.53000000212,"y":2571402.2800000031}},{"attributes":{"ID":277214,"DIS_CODE":0,"TOWNNAME":"歸仁區","LI":"武東里","LIN":"1鄰","STREET":"中正南路","SECT":"二段","MAREA":" ","LANE":"２５３巷","ALLEY":" ","HOUSE_NO":"３６號","E_COORD97":175525.56,"N_COORD97":2535164.2799999998,"ADDRESS":"中正南路二段２５３巷３６號","OBJECTID":277209},"geometry":{"x":175525.56000000145,"y":2535164.2799999993}},{"attributes":{"ID":277215,"DIS_CODE":0,"TOWNNAME":"永康區","LI":"大灣里","LIN":"22鄰","STREET":"大灣路","SECT":" ","MAREA":" ","LANE":" ","ALLEY":" ","HOUSE_NO":"２２９號","E_COORD97":174955.14000000001,"N_COORD97":2545277.7799999998,"ADDRESS":"大灣路２２９號","OBJECTID":277210},"geometry":{"x":174955.13999999966,"y":2545277.7799999993}},{"attributes":{"ID":277216,"DIS_CODE":0,"TOWNNAME":"學甲區","LI":"中洲里","LIN":"3鄰","STREET":" ","SECT":" ","MAREA":"中洲","LANE":" ","ALLEY":" ","HOUSE_NO":"３５號之７","E_COORD97":163917.44,"N_COORD97":2571367.8399999999,"ADDRESS":"中洲３５號之７","OBJECTID":277211},"geometry":{"x":163917.44000000134,"y":2571367.8399999999}},{"attributes":{"ID":277217,"DIS_CODE":0,"TOWNNAME":"歸仁區","LI":"武東里","LIN":"1鄰","STREET":"中正南路","SECT":"二段","MAREA":" ","LANE":"２７５巷","ALLEY":" ","HOUSE_NO":"２１號","E_COORD97":175460.76000000001,"N_COORD97":2535144.2799999998,"ADDRESS":"中正南路二段２７５巷２１號","OBJECTID":277212},"geometry":{"x":175460.76000000071,"y":2535144.2799999993}},{"attributes":{"ID":277218,"DIS_CODE":0,"TOWNNAME":"永康區","LI":"復國里","LIN":"7鄰","STREET":"復國一路","SECT":" ","MAREA":" ","LANE":" ","ALLEY":" ","HOUSE_NO":"２９２號","E_COORD97":172755.87,"N_COORD97":2545514.7799999998,"ADDRESS":"復國一路２９２號","OBJECTID":277213},"geometry":{"x":172755.87000000104,"y":2545514.7800000012}},{"attributes":{"ID":277219,"DIS_CODE":0,"TOWNNAME":"北區","LI":"興南里","LIN":"1鄰","STREET":"公園南路","SECT":" ","MAREA":" ","LANE":"３８巷","ALLEY":" ","HOUSE_NO":"１２號","E_COORD97":168857.94,"N_COORD97":2544683.25,"ADDRESS":"公園南路３８巷１２號","OBJECTID":277214},"geometry":{"x":168857.94000000041,"y":2544683.25}},{"attributes":{"ID":277220,"DIS_CODE":0,"TOWNNAME":"永康區","LI":"龍潭里","LIN":"9鄰","STREET":"龍埔街","SECT":" ","MAREA":" ","LANE":" ","ALLEY":" ","HOUSE_NO":"６８號","E_COORD97":174647.5,"N_COORD97":2548241.3799999999,"ADDRESS":"龍埔街６８號","OBJECTID":277215},"geometry":{"x":174647.5,"y":2548241.3799999971}},{"attributes":{"ID":277221,"DIS_CODE":0,"TOWNNAME":"永康區","LI":"網寮里","LIN":"22鄰","STREET":"永勝街","SECT":" ","MAREA":" ","LANE":" ","ALLEY":" ","HOUSE_NO":"３２號","E_COORD97":173638.85999999999,"N_COORD97":2546223.9300000002,"ADDRESS":"永勝街３２號","OBJECTID":277216},"geometry":{"x":173638.86000000034,"y":2546223.9299999997}},{"attributes":{"ID":277222,"DIS_CODE":0,"TOWNNAME":"北區","LI":"興南里","LIN":"1鄰","STREET":"公園南路","SECT":" ","MAREA":" ","LANE":"３８巷","ALLEY":" ","HOUSE_NO":"２２號","E_COORD97":168844.95000000001,"N_COORD97":2544684.1299999999,"ADDRESS":"公園南路３８巷２２號","OBJECTID":277217},"geometry":{"x":168844.95000000112,"y":2544684.1300000008}},{"attributes":{"ID":277223,"DIS_CODE":0,"TOWNNAME":"北區","LI":"興南里","LIN":"1鄰","STREET":"公園南路","SECT":" ","MAREA":" ","LANE":"３８巷","ALLEY":" ","HOUSE_NO":"３２號","E_COORD97":168831.95000000001,"N_COORD97":2544682.3700000001,"ADDRESS":"公園南路３８巷３２號","OBJECTID":277218},"geometry":{"x":168831.95000000019,"y":2544682.370000001}},{"attributes":{"ID":277224,"DIS_CODE":0,"TOWNNAME":"北區","LI":"興南里","LIN":"1鄰","STREET":"公園南路","SECT":" ","MAREA":" ","LANE":"３８巷","ALLEY":" ","HOUSE_NO":"２號","E_COORD97":168861.45999999999,"N_COORD97":2544667.6299999999,"ADDRESS":"公園南路３８巷２號","OBJECTID":277219},"geometry":{"x":168861.46000000089,"y":2544667.6300000008}},{"attributes":{"ID":277225,"DIS_CODE":0,"TOWNNAME":"北區","LI":"興南里","LIN":"1鄰","STREET":"公園南路","SECT":" ","MAREA":" ","LANE":"３８巷","ALLEY":" ","HOUSE_NO":"６號","E_COORD97":168867.42999999999,"N_COORD97":2544672.02,"ADDRESS":"公園南路３８巷６號","OBJECTID":277220},"geometry":{"x":168867.4299999997,"y":2544672.0200000014}},{"attributes":{"ID":277226,"DIS_CODE":0,"TOWNNAME":"北區","LI":"興南里","LIN":"1鄰","STREET":"公園南路","SECT":" ","MAREA":" ","LANE":"３８巷","ALLEY":" ","HOUSE_NO":"８號","E_COORD97":168863.04000000001,"N_COORD97":2544676.0600000001,"ADDRESS":"公園南路３８巷８號","OBJECTID":277221},"geometry":{"x":168863.04000000097,"y":2544676.0600000024}},{"attributes":{"ID":277227,"DIS_CODE":0,"TOWNNAME":"北區","LI":"和順里","LIN":"1鄰","STREET":"民德路","SECT":" ","MAREA":" ","LANE":"９０巷","ALLEY":" ","HOUSE_NO":"３５號","E_COORD97":168054.12,"N_COORD97":2545339.3900000001,"ADDRESS":"民德路９０巷３５號","OBJECTID":277222},"geometry":{"x":168054.12000000011,"y":2545339.3900000025}},{"attributes":{"ID":277228,"DIS_CODE":0,"TOWNNAME":"柳營區","LI":"大農里","LIN":"1鄰","STREET":"義士路","SECT":"一段","MAREA":" ","LANE":"２６２巷","ALLEY":" ","HOUSE_NO":"２６號","E_COORD97":186360.03,"N_COORD97":2575866.5600000001,"ADDRESS":"義士路一段２６２巷２６號","OBJECTID":277223},"geometry":{"x":186360.03000000026,"y":2575866.5599999987}},{"attributes":{"ID":277229,"DIS_CODE":0,"TOWNNAME":"柳營區","LI":"大農里","LIN":"1鄰","STREET":"義士路","SECT":"一段","MAREA":" ","LANE":"２６２巷","ALLEY":" ","HOUSE_NO":"３３號","E_COORD97":186323.92000000001,"N_COORD97":2575872.4900000002,"ADDRESS":"義士路一段２６２巷３３號","OBJECTID":277224},"geometry":{"x":186323.92000000086,"y":2575872.4900000002}},{"attributes":{"ID":277230,"DIS_CODE":0,"TOWNNAME":"柳營區","LI":"大農里","LIN":"1鄰","STREET":"義士路","SECT":"一段","MAREA":" ","LANE":"２６２巷","ALLEY":" ","HOUSE_NO":"５１號","E_COORD97":186280.10000000001,"N_COORD97":2575868.96,"ADDRESS":"義士路一段２６２巷５１號","OBJECTID":277225},"geometry":{"x":186280.10000000056,"y":2575868.9600000028}},{"attributes":{"ID":277231,"DIS_CODE":0,"TOWNNAME":"柳營區","LI":"大農里","LIN":"1鄰","STREET":"義士路","SECT":"一段","MAREA":" ","LANE":"２６２巷","ALLEY":" ","HOUSE_NO":"７０號","E_COORD97":186285.81,"N_COORD97":2575918.8199999998,"ADDRESS":"義士路一段２６２巷７０號","OBJECTID":277226},"geometry":{"x":186285.80999999959,"y":2575918.8199999984}},{"attributes":{"ID":277232,"DIS_CODE":0,"TOWNNAME":"歸仁區","LI":"辜厝里","LIN":"3鄰","STREET":"中正二街","SECT":" ","MAREA":" ","LANE":" ","ALLEY":" ","HOUSE_NO":"２３號","E_COORD97":177552.45999999999,"N_COORD97":2540715.1099999999,"ADDRESS":"中正二街２３號","OBJECTID":277227},"geometry":{"x":177552.46000000183,"y":2540715.1100000013}},{"attributes":{"ID":277233,"DIS_CODE":0,"TOWNNAME":"柳營區","LI":"大農里","LIN":"1鄰","STREET":"義士路","SECT":"一段","MAREA":" ","LANE":"２６２巷","ALLEY":" ","HOUSE_NO":"７２號","E_COORD97":186280.60000000001,"N_COORD97":2575920.1800000002,"ADDRESS":"義士路一段２６２巷７２號","OBJECTID":277228},"geometry":{"x":186280.59999999963,"y":2575920.1800000016}},{"attributes":{"ID":277234,"DIS_CODE":0,"TOWNNAME":"北區","LI":"文元里","LIN":"17鄰","STREET":"文賢路","SECT":" ","MAREA":" ","LANE":"１０３０巷","ALLEY":" ","HOUSE_NO":"３７號","E_COORD97":167515.19,"N_COORD97":2546087.9700000002,"ADDRESS":"文賢路１０３０巷３７號","OBJECTID":277229},"geometry":{"x":167515.19000000041,"y":2546087.9700000025}},{"attributes":{"ID":277235,"DIS_CODE":0,"TOWNNAME":"柳營區","LI":"大農里","LIN":"1鄰","STREET":"義士路","SECT":"一段","MAREA":" ","LANE":"３０２巷","ALLEY":" ","HOUSE_NO":"８號","E_COORD97":186280.39999999999,"N_COORD97":2575845.7599999998,"ADDRESS":"義士路一段３０２巷８號","OBJECTID":277230},"geometry":{"x":186280.4000000013,"y":2575845.7600000016}},{"attributes":{"ID":277236,"DIS_CODE":0,"TOWNNAME":"柳營區","LI":"大農里","LIN":"1鄰","STREET":"義士路","SECT":"一段","MAREA":" ","LANE":"３１２巷","ALLEY":" ","HOUSE_NO":"１２號","E_COORD97":186254.73000000001,"N_COORD97":2575849.1499999999,"ADDRESS":"義士路一段３１２巷１２號","OBJECTID":277231},"geometry":{"x":186254.73000000138,"y":2575849.1500000041}},{"attributes":{"ID":277237,"DIS_CODE":0,"TOWNNAME":"柳營區","LI":"大農里","LIN":"1鄰","STREET":"義士路","SECT":"一段","MAREA":" ","LANE":"３１２巷","ALLEY":" ","HOUSE_NO":"２號","E_COORD97":186261.17000000001,"N_COORD97":2575820.8500000001,"ADDRESS":"義士路一段３１２巷２號","OBJECTID":277232},"geometry":{"x":186261.17000000086,"y":2575820.8500000015}},{"attributes":{"ID":277238,"DIS_CODE":0,"TOWNNAME":"柳營區","LI":"重溪里","LIN":"1鄰","STREET":"義士路","SECT":"二段","MAREA":" ","LANE":"６７０巷","ALLEY":" ","HOUSE_NO":"１號","E_COORD97":183609.89000000001,"N_COORD97":2576438.8900000001,"ADDRESS":"義士路二段６７０巷１號","OBJECTID":277233},"geometry":{"x":183609.8900000006,"y":2576438.8900000025}},{"attributes":{"ID":277239,"DIS_CODE":0,"TOWNNAME":"北區","LI":"光武里","LIN":"1鄰","STREET":"長榮路","SECT":"五段","MAREA":" ","LANE":"２５３巷","ALLEY":" ","HOUSE_NO":"１３號","E_COORD97":169881.89000000001,"N_COORD97":2545834.3799999999,"ADDRESS":"長榮路五段２５３巷１３號","OBJECTID":277234},"geometry":{"x":169881.89000000153,"y":2545834.3800000027}},{"attributes":{"ID":277240,"DIS_CODE":0,"TOWNNAME":"北區","LI":"光武里","LIN":"1鄰","STREET":"長榮路","SECT":"五段","MAREA":" ","LANE":"２５３巷","ALLEY":" ","HOUSE_NO":"１７號","E_COORD97":169882.13,"N_COORD97":2545810.8900000001,"ADDRESS":"長榮路五段２５３巷１７號","OBJECTID":277235},"geometry":{"x":169882.13000000175,"y":2545810.8900000006}},{"attributes":{"ID":277241,"DIS_CODE":0,"TOWNNAME":"北區","LI":"光武里","LIN":"1鄰","STREET":"長榮路","SECT":"五段","MAREA":" ","LANE":"２５３巷","ALLEY":" ","HOUSE_NO":"２１號","E_COORD97":169881.64999999999,"N_COORD97":2545791.6699999999,"ADDRESS":"長榮路五段２５３巷２１號","OBJECTID":277236},"geometry":{"x":169881.65000000037,"y":2545791.6699999999}},{"attributes":{"ID":277242,"DIS_CODE":0,"TOWNNAME":"北區","LI":"小康里","LIN":"3鄰","STREET":"大武街","SECT":" ","MAREA":" ","LANE":" ","ALLEY":" ","HOUSE_NO":"３５２號之３","E_COORD97":169825.38,"N_COORD97":2546315.73,"ADDRESS":"大武街３５２號之３","OBJECTID":277237},"geometry":{"x":169825.37999999989,"y":2546315.7300000023}},{"attributes":{"ID":277243,"DIS_CODE":0,"TOWNNAME":"北區","LI":"光武里","LIN":"1鄰","STREET":"長榮路","SECT":"五段","MAREA":" ","LANE":"２５３巷","ALLEY":" ","HOUSE_NO":"２３號","E_COORD97":169881.89000000001,"N_COORD97":2545786.21,"ADDRESS":"長榮路五段２５３巷２３號","OBJECTID":277238},"geometry":{"x":169881.89000000153,"y":2545786.2100000009}},{"attributes":{"ID":277244,"DIS_CODE":0,"TOWNNAME":"北區","LI":"光武里","LIN":"1鄰","STREET":"長榮路","SECT":"五段","MAREA":" ","LANE":"２５３巷","ALLEY":" ","HOUSE_NO":"７號","E_COORD97":169880.47,"N_COORD97":2545863.9700000002,"ADDRESS":"長榮路五段２５３巷７號","OBJECTID":277239},"geometry":{"x":169880.46999999974,"y":2545863.9700000025}},{"attributes":{"ID":277245,"DIS_CODE":0,"TOWNNAME":"北區","LI":"小康里","LIN":"3鄰","STREET":"大武街","SECT":" ","MAREA":" ","LANE":" ","ALLEY":" ","HOUSE_NO":"３５２號之５","E_COORD97":169821.45000000001,"N_COORD97":2546306.3999999999,"ADDRESS":"大武街３５２號之５","OBJECTID":277240},"geometry":{"x":169821.45000000112,"y":2546306.4000000004}},{"attributes":{"ID":277246,"DIS_CODE":0,"TOWNNAME":"北區","LI":"小康里","LIN":"3鄰","STREET":"大武街","SECT":" ","MAREA":" ","LANE":" ","ALLEY":" ","HOUSE_NO":"３５２號之６","E_COORD97":169822.17999999999,"N_COORD97":2546299.3500000001,"ADDRESS":"大武街３５２號之６","OBJECTID":277241},"geometry":{"x":169822.18000000156,"y":2546299.3499999996}},{"attributes":{"ID":277247,"DIS_CODE":0,"TOWNNAME":"北區","LI":"小康里","LIN":"3鄰","STREET":"大武街","SECT":" ","MAREA":" ","LANE":" ","ALLEY":" ","HOUSE_NO":"３５２號之７","E_COORD97":169822.26999999999,"N_COORD97":2546291.5800000001,"ADDRESS":"大武街３５２號之７","OBJECTID":277242},"geometry":{"x":169822.27000000048,"y":2546291.5800000001}},{"attributes":{"ID":277248,"DIS_CODE":0,"TOWNNAME":"北區","LI":"光武里","LIN":"1鄰","STREET":"長榮路","SECT":"五段","MAREA":" ","LANE":"２５３巷","ALLEY":" ","HOUSE_NO":"９號","E_COORD97":169881.66,"N_COORD97":2545858.98,"ADDRESS":"長榮路五段２５３巷９號","OBJECTID":277243},"geometry":{"x":169881.66000000015,"y":2545858.9800000042}},{"attributes":{"ID":277249,"DIS_CODE":0,"TOWNNAME":"北區","LI":"實踐里","LIN":"1鄰","STREET":"實踐街","SECT":" ","MAREA":" ","LANE":"８２巷","ALLEY":" ","HOUSE_NO":"１０號","E_COORD97":169935.92000000001,"N_COORD97":2545978.54,"ADDRESS":"實踐街８２巷１０號","OBJECTID":277244},"geometry":{"x":169935.91999999993,"y":2545978.5399999991}},{"attributes":{"ID":277250,"DIS_CODE":0,"TOWNNAME":"北區","LI":"實踐里","LIN":"1鄰","STREET":"實踐街","SECT":" ","MAREA":" ","LANE":"８２巷","ALLEY":" ","HOUSE_NO":"１１號","E_COORD97":169957.32999999999,"N_COORD97":2545968.4199999999,"ADDRESS":"實踐街８２巷１１號","OBJECTID":277245},"geometry":{"x":169957.33000000101,"y":2545968.4200000018}},{"attributes":{"ID":277251,"DIS_CODE":0,"TOWNNAME":"北區","LI":"實踐里","LIN":"1鄰","STREET":"實踐街","SECT":" ","MAREA":" ","LANE":"８２巷","ALLEY":" ","HOUSE_NO":"１２號","E_COORD97":169935.42999999999,"N_COORD97":2545974.8999999999,"ADDRESS":"實踐街８２巷１２號","OBJECTID":277246},"geometry":{"x":169935.4299999997,"y":2545974.9000000041}},{"attributes":{"ID":277252,"DIS_CODE":0,"TOWNNAME":"北區","LI":"實踐里","LIN":"1鄰","STREET":"實踐街","SECT":" ","MAREA":" ","LANE":"８２巷","ALLEY":" ","HOUSE_NO":"１３號","E_COORD97":169957.32999999999,"N_COORD97":2545964.8799999999,"ADDRESS":"實踐街８２巷１３號","OBJECTID":277247},"geometry":{"x":169957.33000000101,"y":2545964.8800000008}},{"attributes":{"ID":277253,"DIS_CODE":0,"TOWNNAME":"北區","LI":"實踐里","LIN":"1鄰","STREET":"實踐街","SECT":" ","MAREA":" ","LANE":"８２巷","ALLEY":" ","HOUSE_NO":"１４號","E_COORD97":169935.04000000001,"N_COORD97":2545971.3599999999,"ADDRESS":"實踐街８２巷１４號","OBJECTID":277248},"geometry":{"x":169935.04000000004,"y":2545971.3600000013}},{"attributes":{"ID":277254,"DIS_CODE":0,"TOWNNAME":"北區","LI":"小康里","LIN":"3鄰","STREET":"大武街","SECT":" ","MAREA":" ","LANE":" ","ALLEY":" ","HOUSE_NO":"３５２號之８","E_COORD97":169822.82000000001,"N_COORD97":2546283.1600000001,"ADDRESS":"大武街３５２號之８","OBJECTID":277249},"geometry":{"x":169822.8200000003,"y":2546283.1600000001}},{"attributes":{"ID":277255,"DIS_CODE":0,"TOWNNAME":"北區","LI":"興南里","LIN":"1鄰","STREET":"公園南路","SECT":" ","MAREA":" ","LANE":"６０巷","ALLEY":" ","HOUSE_NO":"５號","E_COORD97":168823.20999999999,"N_COORD97":2544678.73,"ADDRESS":"公園南路６０巷５號","OBJECTID":277250},"geometry":{"x":168823.20999999996,"y":2544678.7300000023}},{"attributes":{"ID":277256,"DIS_CODE":0,"TOWNNAME":"北區","LI":"興南里","LIN":"1鄰","STREET":"公園南路","SECT":" ","MAREA":" ","LANE":"６０巷","ALLEY":" ","HOUSE_NO":"６號","E_COORD97":168820.92999999999,"N_COORD97":2544678.29,"ADDRESS":"公園南路６０巷６號","OBJECTID":277251},"geometry":{"x":168820.93000000063,"y":2544678.2899999991}},{"attributes":{"ID":277257,"DIS_CODE":0,"TOWNNAME":"新營區","LI":"五興里","LIN":"3鄰","STREET":" ","SECT":" ","MAREA":"五間厝","LANE":" ","ALLEY":" ","HOUSE_NO":"４０之１號","E_COORD97":175725.91,"N_COORD97":2574912.3999999999,"ADDRESS":"五間厝４０之１號","OBJECTID":277252},"geometry":{"x":175725.91000000108,"y":2574912.4000000022}},{"attributes":{"ID":277258,"DIS_CODE":0,"TOWNNAME":"新營區","LI":"五興里","LIN":"3鄰","STREET":" ","SECT":" ","MAREA":"五間厝","LANE":" ","ALLEY":" ","HOUSE_NO":"３４號","E_COORD97":175769.45999999999,"N_COORD97":2574912.1200000001,"ADDRESS":"五間厝３４號","OBJECTID":277253},"geometry":{"x":175769.46000000089,"y":2574912.1200000029}},{"attributes":{"ID":277259,"DIS_CODE":0,"TOWNNAME":"北區","LI":"興南里","LIN":"1鄰","STREET":"公園南路","SECT":" ","MAREA":" ","LANE":"６０巷","ALLEY":" ","HOUSE_NO":"８號","E_COORD97":168813.81,"N_COORD97":2544676.7000000002,"ADDRESS":"公園南路６０巷８號","OBJECTID":277254},"geometry":{"x":168813.80999999959,"y":2544676.700000003}},{"attributes":{"ID":277260,"DIS_CODE":0,"TOWNNAME":"北區","LI":"興南里","LIN":"1鄰","STREET":"公園南路","SECT":" ","MAREA":" ","LANE":"６０巷","ALLEY":" ","HOUSE_NO":"９號","E_COORD97":168811.42000000001,"N_COORD97":2544677.3199999998,"ADDRESS":"公園南路６０巷９號","OBJECTID":277255},"geometry":{"x":168811.41999999993,"y":2544677.3200000022}},{"attributes":{"ID":277261,"DIS_CODE":0,"TOWNNAME":"北區","LI":"興南里","LIN":"1鄰","STREET":"公園南路","SECT":" ","MAREA":" ","LANE":"９６巷","ALLEY":" ","HOUSE_NO":"１２號","E_COORD97":168758.32000000001,"N_COORD97":2544687.9100000001,"ADDRESS":"公園南路９６巷１２號","OBJECTID":277256},"geometry":{"x":168758.3200000003,"y":2544687.9100000001}},{"attributes":{"ID":277262,"DIS_CODE":0,"TOWNNAME":"安平區","LI":"國平里","LIN":"3鄰","STREET":"建平五街","SECT":" ","MAREA":" ","LANE":" ","ALLEY":" ","HOUSE_NO":"２７１號","E_COORD97":165493.5,"N_COORD97":2543301.1000000001,"ADDRESS":"建平五街２７１號","OBJECTID":277257},"geometry":{"x":165493.5,"y":2543301.1000000034}},{"attributes":{"ID":277263,"DIS_CODE":0,"TOWNNAME":"北區","LI":"興南里","LIN":"1鄰","STREET":"公園南路","SECT":" ","MAREA":" ","LANE":"９６巷","ALLEY":" ","HOUSE_NO":"１６號","E_COORD97":168756.73000000001,"N_COORD97":2544700.1299999999,"ADDRESS":"公園南路９６巷１６號","OBJECTID":277258},"geometry":{"x":168756.73000000138,"y":2544700.1299999971}},{"attributes":{"ID":277264,"DIS_CODE":0,"TOWNNAME":"北區","LI":"興南里","LIN":"1鄰","STREET":"公園南路","SECT":" ","MAREA":" ","LANE":"９６巷","ALLEY":" ","HOUSE_NO":"２號","E_COORD97":168772.03,"N_COORD97":2544671.9300000002,"ADDRESS":"公園南路９６巷２號","OBJECTID":277259},"geometry":{"x":168772.03000000026,"y":2544671.9300000034}},{"attributes":{"ID":277265,"DIS_CODE":0,"TOWNNAME":"北區","LI":"興南里","LIN":"1鄰","STREET":"公園南路","SECT":" ","MAREA":" ","LANE":"９６巷","ALLEY":" ","HOUSE_NO":"６號","E_COORD97":168764.97,"N_COORD97":2544676.9100000001,"ADDRESS":"公園南路９６巷６號","OBJECTID":277260},"geometry":{"x":168764.97000000067,"y":2544676.910000002}},{"attributes":{"ID":277266,"DIS_CODE":0,"TOWNNAME":"北區","LI":"興南里","LIN":"1鄰","STREET":"公園南路","SECT":" ","MAREA":" ","LANE":"９６巷","ALLEY":" ","HOUSE_NO":"８號","E_COORD97":168760.39999999999,"N_COORD97":2544679.1899999999,"ADDRESS":"公園南路９６巷８號","OBJECTID":277261},"geometry":{"x":168760.4000000013,"y":2544679.1899999995}},{"attributes":{"ID":277267,"DIS_CODE":0,"TOWNNAME":"歸仁區","LI":"七甲里","LIN":"1鄰","STREET":"七甲五街","SECT":" ","MAREA":" ","LANE":"９１巷","ALLEY":" ","HOUSE_NO":"２３號","E_COORD97":177169.63,"N_COORD97":2542499.25,"ADDRESS":"七甲五街９１巷２３號","OBJECTID":277262},"geometry":{"x":177169.63000000175,"y":2542499.25}},{"attributes":{"ID":277268,"DIS_CODE":0,"TOWNNAME":"歸仁區","LI":"西埔里","LIN":"1鄰","STREET":"西埔三街","SECT":" ","MAREA":" ","LANE":"５１巷","ALLEY":" ","HOUSE_NO":"６６號","E_COORD97":176973.98999999999,"N_COORD97":2543967.25,"ADDRESS":"西埔三街５１巷６６號","OBJECTID":277263},"geometry":{"x":176973.99000000022,"y":2543967.25}},{"attributes":{"ID":277269,"DIS_CODE":0,"TOWNNAME":"歸仁區","LI":"武東里","LIN":"1鄰","STREET":"武東二街","SECT":" ","MAREA":" ","LANE":"４２巷","ALLEY":" ","HOUSE_NO":"６２號","E_COORD97":175644.70000000001,"N_COORD97":2535139.1299999999,"ADDRESS":"武東二街４２巷６２號","OBJECTID":277264},"geometry":{"x":175644.70000000112,"y":2535139.129999999}},{"attributes":{"ID":277270,"DIS_CODE":0,"TOWNNAME":"歸仁區","LI":"大廟里","LIN":"1鄰","STREET":"大廟二街","SECT":" ","MAREA":" ","LANE":"７９巷","ALLEY":" ","HOUSE_NO":"１３號","E_COORD97":176052.22,"N_COORD97":2543935.25,"ADDRESS":"大廟二街７９巷１３號","OBJECTID":277265},"geometry":{"x":176052.22000000067,"y":2543935.2500000019}},{"attributes":{"ID":277271,"DIS_CODE":0,"TOWNNAME":"歸仁區","LI":"大廟里","LIN":"1鄰","STREET":"大廟二街","SECT":" ","MAREA":" ","LANE":"４５巷","ALLEY":" ","HOUSE_NO":"１５號","E_COORD97":176039.66,"N_COORD97":2544010.8900000001,"ADDRESS":"大廟二街４５巷１５號","OBJECTID":277266},"geometry":{"x":176039.66000000108,"y":2544010.8900000006}},{"attributes":{"ID":277272,"DIS_CODE":0,"TOWNNAME":"關廟區","LI":"埤頭里","LIN":"5鄰","STREET":"關新路","SECT":"二段","MAREA":" ","LANE":" ","ALLEY":" ","HOUSE_NO":"２０號","E_COORD97":179100.55153500001,"N_COORD97":2544075.0424000002,"ADDRESS":"關新路二段２０號","OBJECTID":277267},"geometry":{"x":179100.55153500102,"y":2544075.0424039997}},{"attributes":{"ID":277273,"DIS_CODE":0,"TOWNNAME":"歸仁區","LI":"西埔里","LIN":"1鄰","STREET":"西埔三街","SECT":" ","MAREA":" ","LANE":"５１巷","ALLEY":" ","HOUSE_NO":"８８號","E_COORD97":177037.97,"N_COORD97":2543971.25,"ADDRESS":"西埔三街５１巷８８號","OBJECTID":277268},"geometry":{"x":177037.96999999974,"y":2543971.25}},{"attributes":{"ID":277274,"DIS_CODE":0,"TOWNNAME":"北區","LI":"勝安里","LIN":"1鄰","STREET":"開元路","SECT":" ","MAREA":" ","LANE":"４３巷","ALLEY":" ","HOUSE_NO":"１０號","E_COORD97":169579.06,"N_COORD97":2545196.3100000001,"ADDRESS":"開元路４３巷１０號","OBJECTID":277269},"geometry":{"x":169579.06000000052,"y":2545196.3100000024}},{"attributes":{"ID":277275,"DIS_CODE":0,"TOWNNAME":"北區","LI":"勝安里","LIN":"1鄰","STREET":"開元路","SECT":" ","MAREA":" ","LANE":"４３巷","ALLEY":" ","HOUSE_NO":"１２號","E_COORD97":169578.89999999999,"N_COORD97":2545202.77,"ADDRESS":"開元路４３巷１２號","OBJECTID":277270},"geometry":{"x":169578.89999999944,"y":2545202.7700000014}},{"attributes":{"ID":277276,"DIS_CODE":0,"TOWNNAME":"北區","LI":"勝安里","LIN":"1鄰","STREET":"開元路","SECT":" ","MAREA":" ","LANE":"４３巷","ALLEY":" ","HOUSE_NO":"１４號","E_COORD97":169577.32999999999,"N_COORD97":2545208.4399999999,"ADDRESS":"開元路４３巷１４號","OBJECTID":277271},"geometry":{"x":169577.33000000007,"y":2545208.4400000013}},{"attributes":{"ID":277277,"DIS_CODE":0,"TOWNNAME":"新營區","LI":"三仙里","LIN":"3鄰","STREET":"正義街","SECT":" ","MAREA":" ","LANE":" ","ALLEY":" ","HOUSE_NO":"１８號","E_COORD97":179667.12,"N_COORD97":2578081.4700000002,"ADDRESS":"正義街１８號","OBJECTID":277272},"geometry":{"x":179667.12000000197,"y":2578081.4700000044}},{"attributes":{"ID":277278,"DIS_CODE":0,"TOWNNAME":"北區","LI":"勝安里","LIN":"1鄰","STREET":"開元路","SECT":" ","MAREA":" ","LANE":"４３巷","ALLEY":" ","HOUSE_NO":"１６號","E_COORD97":169573.07000000001,"N_COORD97":2545211.9100000001,"ADDRESS":"開元路４３巷１６號","OBJECTID":277273},"geometry":{"x":169573.07000000123,"y":2545211.9100000039}},{"attributes":{"ID":277279,"DIS_CODE":0,"TOWNNAME":"北區","LI":"勝安里","LIN":"1鄰","STREET":"開元路","SECT":" ","MAREA":" ","LANE":"４３巷","ALLEY":" ","HOUSE_NO":"１６號之１","E_COORD97":169576.10000000001,"N_COORD97":2545219.1600000001,"ADDRESS":"開元路４３巷１６號之１","OBJECTID":277274},"geometry":{"x":169576.09999999963,"y":2545219.1600000001}},{"attributes":{"ID":277280,"DIS_CODE":0,"TOWNNAME":"北區","LI":"勝安里","LIN":"1鄰","STREET":"開元路","SECT":" ","MAREA":" ","LANE":"４３巷","ALLEY":" ","HOUSE_NO":"１８號","E_COORD97":169565.01999999999,"N_COORD97":2545217.5800000001,"ADDRESS":"開元路４３巷１８號","OBJECTID":277275},"geometry":{"x":169565.01999999955,"y":2545217.5800000019}},{"attributes":{"ID":277281,"DIS_CODE":0,"TOWNNAME":"北區","LI":"勝安里","LIN":"1鄰","STREET":"開元路","SECT":" ","MAREA":" ","LANE":"４３巷","ALLEY":" ","HOUSE_NO":"８號","E_COORD97":169582.70999999999,"N_COORD97":2545185.0099999998,"ADDRESS":"開元路４３巷８號","OBJECTID":277276},"geometry":{"x":169582.70999999996,"y":2545185.0100000016}},{"attributes":{"ID":277282,"DIS_CODE":0,"TOWNNAME":"北區","LI":"勝安里","LIN":"1鄰","STREET":"開元路","SECT":" ","MAREA":" ","LANE":"４３巷","ALLEY":" ","HOUSE_NO":"１１號","E_COORD97":169572.17000000001,"N_COORD97":2545167.6200000001,"ADDRESS":"開元路４３巷１１號","OBJECTID":277277},"geometry":{"x":169572.17000000086,"y":2545167.6200000029}},{"attributes":{"ID":277283,"DIS_CODE":0,"TOWNNAME":"北區","LI":"勝安里","LIN":"1鄰","STREET":"開元路","SECT":" ","MAREA":" ","LANE":"４３巷","ALLEY":"１","HOUSE_NO":"３號","E_COORD97":169577.06,"N_COORD97":2545153.8399999999,"ADDRESS":"開元路４３巷３號","OBJECTID":277278},"geometry":{"x":169577.06000000145,"y":2545153.8399999999}},{"attributes":{"ID":277284,"DIS_CODE":0,"TOWNNAME":"北區","LI":"勝安里","LIN":"1鄰","STREET":"開元路","SECT":" ","MAREA":" ","LANE":"４３巷","ALLEY":"１","HOUSE_NO":"５號","E_COORD97":169575.64000000001,"N_COORD97":2545157.1499999999,"ADDRESS":"開元路４３巷５號","OBJECTID":277279},"geometry":{"x":169575.6400000006,"y":2545157.1500000022}},{"attributes":{"ID":277285,"DIS_CODE":0,"TOWNNAME":"北區","LI":"勝安里","LIN":"1鄰","STREET":"開元路","SECT":" ","MAREA":" ","LANE":"４３巷","ALLEY":"１","HOUSE_NO":"７號","E_COORD97":169574.85000000001,"N_COORD97":2545160.46,"ADDRESS":"開元路４３巷７號","OBJECTID":277280},"geometry":{"x":169574.84999999963,"y":2545160.4600000009}},{"attributes":{"ID":277286,"DIS_CODE":0,"TOWNNAME":"北區","LI":"勝安里","LIN":"1鄰","STREET":"開元路","SECT":" ","MAREA":" ","LANE":"４３巷","ALLEY":" ","HOUSE_NO":"９號","E_COORD97":169573.75,"N_COORD97":2545164.0899999999,"ADDRESS":"開元路４３巷９號","OBJECTID":277281},"geometry":{"x":169573.75,"y":2545164.0900000017}},{"attributes":{"ID":277287,"DIS_CODE":0,"TOWNNAME":"北區","LI":"正覺里","LIN":"26鄰","STREET":"公園路","SECT":" ","MAREA":" ","LANE":"７６９巷","ALLEY":" ","HOUSE_NO":"６號之３","E_COORD97":169551.45000000001,"N_COORD97":2546559.9300000002,"ADDRESS":"公園路７６９巷６號之３","OBJECTID":277282},"geometry":{"x":169551.45000000205,"y":2546559.9299999997}},{"attributes":{"ID":277288,"DIS_CODE":0,"TOWNNAME":"北區","LI":"正覺里","LIN":"26鄰","STREET":"公園路","SECT":" ","MAREA":" ","LANE":"７６９巷","ALLEY":" ","HOUSE_NO":"６號之４","E_COORD97":169554.26999999999,"N_COORD97":2546569.98,"ADDRESS":"公園路７６９巷６號之４","OBJECTID":277283},"geometry":{"x":169554.27000000048,"y":2546569.9800000004}},{"attributes":{"ID":277289,"DIS_CODE":0,"TOWNNAME":"關廟區","LI":"北勢里","LIN":"1鄰","STREET":"北新街","SECT":" ","MAREA":" ","LANE":"１５巷","ALLEY":" ","HOUSE_NO":"６號","E_COORD97":181261.84,"N_COORD97":2540327.25,"ADDRESS":"北新街１５巷６號","OBJECTID":277284},"geometry":{"x":181261.83999999985,"y":2540327.2500000037}},{"attributes":{"ID":277290,"DIS_CODE":0,"TOWNNAME":"關廟區","LI":"北花里","LIN":"1鄰","STREET":"成功路","SECT":" ","MAREA":" ","LANE":"２０巷","ALLEY":" ","HOUSE_NO":"７號","E_COORD97":181798.12,"N_COORD97":2540453.27,"ADDRESS":"成功路２０巷７號","OBJECTID":277285},"geometry":{"x":181798.12000000104,"y":2540453.2700000014}},{"attributes":{"ID":277291,"DIS_CODE":0,"TOWNNAME":"關廟區","LI":"北花里","LIN":"1鄰","STREET":"中正路","SECT":" ","MAREA":" ","LANE":"６５２巷","ALLEY":" ","HOUSE_NO":"２０號","E_COORD97":181838.51000000001,"N_COORD97":2540436.25,"ADDRESS":"中正路６５２巷２０號","OBJECTID":277286},"geometry":{"x":181838.50999999978,"y":2540436.2500000019}},{"attributes":{"ID":277292,"DIS_CODE":0,"TOWNNAME":"關廟區","LI":"南花里","LIN":"1鄰","STREET":"四維街","SECT":" ","MAREA":" ","LANE":"２６０巷","ALLEY":" ","HOUSE_NO":"２號","E_COORD97":181889.06,"N_COORD97":2540029.25,"ADDRESS":"四維街２６０巷２號","OBJECTID":277287},"geometry":{"x":181889.05999999959,"y":2540029.2500000019}},{"attributes":{"ID":277293,"DIS_CODE":0,"TOWNNAME":"關廟區","LI":"田中里","LIN":"1鄰","STREET":"南雄南路","SECT":" ","MAREA":" ","LANE":"５２０巷","ALLEY":" ","HOUSE_NO":"６號","E_COORD97":183944.94,"N_COORD97":2533942.25,"ADDRESS":"南雄南路５２０巷６號","OBJECTID":277288},"geometry":{"x":183944.94000000041,"y":2533942.25}},{"attributes":{"ID":277294,"DIS_CODE":0,"TOWNNAME":"北區","LI":"開元里","LIN":"1鄰","STREET":"北園街","SECT":" ","MAREA":" ","LANE":"９９巷","ALLEY":" ","HOUSE_NO":"１５號","E_COORD97":170273.60000000001,"N_COORD97":2545865.9399999999,"ADDRESS":"北園街９９巷１５號","OBJECTID":277289},"geometry":{"x":170273.60000000149,"y":2545865.9400000013}},{"attributes":{"ID":277295,"DIS_CODE":0,"TOWNNAME":"北區","LI":"開元里","LIN":"1鄰","STREET":"北園街","SECT":" ","MAREA":" ","LANE":"９９巷","ALLEY":" ","HOUSE_NO":"１７號","E_COORD97":170267.92999999999,"N_COORD97":2545866.8100000001,"ADDRESS":"北園街９９巷１７號","OBJECTID":277290},"geometry":{"x":170267.92999999877,"y":2545866.8099999987}},{"attributes":{"ID":277296,"DIS_CODE":0,"TOWNNAME":"北區","LI":"開元里","LIN":"1鄰","STREET":"北園街","SECT":" ","MAREA":" ","LANE":"９９巷","ALLEY":" ","HOUSE_NO":"１９號","E_COORD97":170259.87,"N_COORD97":2545867.79,"ADDRESS":"北園街９９巷１９號","OBJECTID":277291},"geometry":{"x":170259.87000000011,"y":2545867.7899999991}},{"attributes":{"ID":277297,"DIS_CODE":0,"TOWNNAME":"北區","LI":"開元里","LIN":"1鄰","STREET":"北園街","SECT":" ","MAREA":" ","LANE":"９９巷","ALLEY":" ","HOUSE_NO":"１號","E_COORD97":170317.35999999999,"N_COORD97":2545860.4700000002,"ADDRESS":"北園街９９巷１號","OBJECTID":277292},"geometry":{"x":170317.36000000127,"y":2545860.4700000025}},{"attributes":{"ID":277298,"DIS_CODE":0,"TOWNNAME":"北區","LI":"開元里","LIN":"1鄰","STREET":"北園街","SECT":" ","MAREA":" ","LANE":"９９巷","ALLEY":" ","HOUSE_NO":"５號","E_COORD97":170303.95000000001,"N_COORD97":2545862.75,"ADDRESS":"北園街９９巷５號","OBJECTID":277293},"geometry":{"x":170303.95000000205,"y":2545862.75}},{"attributes":{"ID":277299,"DIS_CODE":0,"TOWNNAME":"北區","LI":"開元里","LIN":"1鄰","STREET":"北園街","SECT":" ","MAREA":" ","LANE":"９９巷","ALLEY":" ","HOUSE_NO":"７號","E_COORD97":170298.72,"N_COORD97":2545863.0800000001,"ADDRESS":"北園街９９巷７號","OBJECTID":277294},"geometry":{"x":170298.72000000067,"y":2545863.0800000001}},{"attributes":{"ID":277300,"DIS_CODE":0,"TOWNNAME":"北區","LI":"開元里","LIN":"1鄰","STREET":"北園街","SECT":" ","MAREA":" ","LANE":"９９巷","ALLEY":" ","HOUSE_NO":"９號","E_COORD97":170289.97,"N_COORD97":2545863.6499999999,"ADDRESS":"北園街９９巷９號","OBJECTID":277295},"geometry":{"x":170289.9700000016,"y":2545863.6500000004}},{"attributes":{"ID":277301,"DIS_CODE":0,"TOWNNAME":"北區","LI":"仁愛里","LIN":"1鄰","STREET":"東豐路","SECT":" ","MAREA":" ","LANE":"１９１巷","ALLEY":" ","HOUSE_NO":"５號","E_COORD97":170002.10000000001,"N_COORD97":2544927.3199999998,"ADDRESS":"東豐路１９１巷５號","OBJECTID":277296},"geometry":{"x":170002.09999999963,"y":2544927.3200000003}},{"attributes":{"ID":277302,"DIS_CODE":0,"TOWNNAME":"北區","LI":"賢北里","LIN":"1鄰","STREET":"賢北街","SECT":" ","MAREA":" ","LANE":"１６巷","ALLEY":" ","HOUSE_NO":"１８號","E_COORD97":166420.79999999999,"N_COORD97":2545264.1200000001,"ADDRESS":"賢北街１６巷１８號","OBJECTID":277297},"geometry":{"x":166420.79999999981,"y":2545264.120000001}},{"attributes":{"ID":277303,"DIS_CODE":0,"TOWNNAME":"安平區","LI":"平安里","LIN":"1鄰","STREET":"安平路","SECT":" ","MAREA":" ","LANE":"４０巷","ALLEY":" ","HOUSE_NO":"３號","E_COORD97":166538.26999999999,"N_COORD97":2544344.6200000001,"ADDRESS":"安平路４０巷３號","OBJECTID":277298},"geometry":{"x":166538.27000000048,"y":2544344.6200000029}},{"attributes":{"ID":277304,"DIS_CODE":0,"TOWNNAME":"新營區","LI":"興業里","LIN":"1鄰","STREET":"公誠街","SECT":" ","MAREA":" ","LANE":"１７巷","ALLEY":" ","HOUSE_NO":"２０號","E_COORD97":180367.25,"N_COORD97":2577948.6000000001,"ADDRESS":"公誠街１７巷２０號","OBJECTID":277299},"geometry":{"x":180367.25,"y":2577948.6000000015}},{"attributes":{"ID":277305,"DIS_CODE":0,"TOWNNAME":"新營區","LI":"嘉芳里","LIN":"1鄰","STREET":"復興路","SECT":" ","MAREA":" ","LANE":"７００巷","ALLEY":" ","HOUSE_NO":"９０號","E_COORD97":177324.32000000001,"N_COORD97":2579052.9500000002,"ADDRESS":"復興路７００巷９０號","OBJECTID":277300},"geometry":{"x":177324.3200000003,"y":2579052.9499999974}},{"attributes":{"ID":277306,"DIS_CODE":0,"TOWNNAME":"關廟區","LI":"下湖里","LIN":"1鄰","STREET":"關新路","SECT":"一段","MAREA":" ","LANE":"３４０巷","ALLEY":" ","HOUSE_NO":"１１號","E_COORD97":179469.09,"N_COORD97":2542772.2999999998,"ADDRESS":"關新路一段３４０巷１１號","OBJECTID":277301},"geometry":{"x":179469.09000000078,"y":2542772.3000000026}},{"attributes":{"ID":277307,"DIS_CODE":0,"TOWNNAME":"關廟區","LI":"北勢里","LIN":"1鄰","STREET":"中正路","SECT":" ","MAREA":" ","LANE":"９０８巷","ALLEY":" ","HOUSE_NO":"１２號","E_COORD97":181232.81,"N_COORD97":2540310.25,"ADDRESS":"中正路９０８巷１２號","OBJECTID":277302},"geometry":{"x":181232.80999999959,"y":2540310.2500000037}},{"attributes":{"ID":277308,"DIS_CODE":0,"TOWNNAME":"關廟區","LI":"松腳里","LIN":"1鄰","STREET":"四維街","SECT":" ","MAREA":" ","LANE":"１４２巷","ALLEY":" ","HOUSE_NO":"７號","E_COORD97":181905.16,"N_COORD97":2539734.25,"ADDRESS":"四維街１４２巷７號","OBJECTID":277303},"geometry":{"x":181905.16000000108,"y":2539734.2500000019}},{"attributes":{"ID":277309,"DIS_CODE":0,"TOWNNAME":"關廟區","LI":"松腳里","LIN":"1鄰","STREET":"四維街","SECT":" ","MAREA":" ","LANE":"１４２巷","ALLEY":" ","HOUSE_NO":"９號","E_COORD97":181910.95999999999,"N_COORD97":2539734.25,"ADDRESS":"四維街１４２巷９號","OBJECTID":277304},"geometry":{"x":181910.96000000089,"y":2539734.2500000019}},{"attributes":{"ID":277310,"DIS_CODE":0,"TOWNNAME":"北區","LI":"大山里","LIN":"1鄰","STREET":"精忠街","SECT":" ","MAREA":" ","LANE":"２５巷","ALLEY":" ","HOUSE_NO":"１０號","E_COORD97":169460.09,"N_COORD97":2545444.6499999999,"ADDRESS":"精忠街２５巷１０號","OBJECTID":277305},"geometry":{"x":169460.08999999892,"y":2545444.6500000022}},{"attributes":{"ID":277311,"DIS_CODE":0,"TOWNNAME":"北區","LI":"大山里","LIN":"1鄰","STREET":"精忠街","SECT":" ","MAREA":" ","LANE":"２５巷","ALLEY":" ","HOUSE_NO":"１１號","E_COORD97":169455.92999999999,"N_COORD97":2545445.2799999998,"ADDRESS":"精忠街２５巷１１號","OBJECTID":277306},"geometry":{"x":169455.92999999877,"y":2545445.2799999993}},{"attributes":{"ID":277312,"DIS_CODE":0,"TOWNNAME":"北區","LI":"大山里","LIN":"1鄰","STREET":"精忠街","SECT":" ","MAREA":" ","LANE":"２５巷","ALLEY":" ","HOUSE_NO":"１５號","E_COORD97":169449.95000000001,"N_COORD97":2545446.2000000002,"ADDRESS":"精忠街２５巷１５號","OBJECTID":277307},"geometry":{"x":169449.95000000112,"y":2545446.200000003}},{"attributes":{"ID":277313,"DIS_CODE":0,"TOWNNAME":"北區","LI":"大山里","LIN":"1鄰","STREET":"精忠街","SECT":" ","MAREA":" ","LANE":"２５巷","ALLEY":" ","HOUSE_NO":"１６號","E_COORD97":169443.45000000001,"N_COORD97":2545447.2999999998,"ADDRESS":"精忠街２５巷１６號","OBJECTID":277308},"geometry":{"x":169443.45000000112,"y":2545447.3000000026}},{"attributes":{"ID":277314,"DIS_CODE":0,"TOWNNAME":"北區","LI":"大山里","LIN":"1鄰","STREET":"精忠街","SECT":" ","MAREA":" ","LANE":"２５巷","ALLEY":" ","HOUSE_NO":"１７號","E_COORD97":169437.82999999999,"N_COORD97":2545448.48,"ADDRESS":"精忠街２５巷１７號","OBJECTID":277309},"geometry":{"x":169437.83000000007,"y":2545448.4800000004}},{"attributes":{"ID":277315,"DIS_CODE":0,"TOWNNAME":"北區","LI":"大山里","LIN":"1鄰","STREET":"精忠街","SECT":" ","MAREA":" ","LANE":"２５巷","ALLEY":" ","HOUSE_NO":"１號","E_COORD97":169499.67000000001,"N_COORD97":2545436.4700000002,"ADDRESS":"精忠街２５巷１號","OBJECTID":277310},"geometry":{"x":169499.66999999993,"y":2545436.4700000025}},{"attributes":{"ID":277316,"DIS_CODE":0,"TOWNNAME":"北區","LI":"延平里","LIN":"3鄰","STREET":"公園路","SECT":" ","MAREA":" ","LANE":" ","ALLEY":" ","HOUSE_NO":"６９８號","E_COORD97":169041.41,"N_COORD97":2545443.4300000002,"ADDRESS":"公園路６９８號","OBJECTID":277311},"geometry":{"x":169041.41000000201,"y":2545443.4299999997}},{"attributes":{"ID":277317,"DIS_CODE":0,"TOWNNAME":"北區","LI":"延平里","LIN":"3鄰","STREET":"公園路","SECT":" ","MAREA":" ","LANE":" ","ALLEY":" ","HOUSE_NO":"７００號","E_COORD97":169043.79000000001,"N_COORD97":2545448.1899999999,"ADDRESS":"公園路７００號","OBJECTID":277312},"geometry":{"x":169043.7900000019,"y":2545448.1899999995}},{"attributes":{"ID":277318,"DIS_CODE":0,"TOWNNAME":"北區","LI":"大山里","LIN":"1鄰","STREET":"精忠街","SECT":" ","MAREA":" ","LANE":"２５巷","ALLEY":" ","HOUSE_NO":"２號","E_COORD97":169489.57999999999,"N_COORD97":2545437.8100000001,"ADDRESS":"精忠街２５巷２號","OBJECTID":277313},"geometry":{"x":169489.58000000101,"y":2545437.8100000024}},{"attributes":{"ID":277319,"DIS_CODE":0,"TOWNNAME":"北區","LI":"大山里","LIN":"1鄰","STREET":"精忠街","SECT":" ","MAREA":" ","LANE":"２５巷","ALLEY":" ","HOUSE_NO":"３號","E_COORD97":169483.57999999999,"N_COORD97":2545440,"ADDRESS":"精忠街２５巷３號","OBJECTID":277314},"geometry":{"x":169483.58000000007,"y":2545440}},{"attributes":{"ID":277320,"DIS_CODE":0,"TOWNNAME":"北區","LI":"大山里","LIN":"1鄰","STREET":"精忠街","SECT":" ","MAREA":" ","LANE":"２５巷","ALLEY":" ","HOUSE_NO":"４０號","E_COORD97":169432.72,"N_COORD97":2545421.3500000001,"ADDRESS":"精忠街２５巷４０號","OBJECTID":277315},"geometry":{"x":169432.72000000067,"y":2545421.3499999996}},{"attributes":{"ID":277321,"DIS_CODE":0,"TOWNNAME":"北區","LI":"大山里","LIN":"1鄰","STREET":"精忠街","SECT":" ","MAREA":" ","LANE":"２５巷","ALLEY":" ","HOUSE_NO":"４１號","E_COORD97":169443.01000000001,"N_COORD97":2545391.8799999999,"ADDRESS":"精忠街２５巷４１號","OBJECTID":277316},"geometry":{"x":169443.00999999978,"y":2545391.8800000008}},{"attributes":{"ID":277322,"DIS_CODE":0,"TOWNNAME":"北區","LI":"大山里","LIN":"1鄰","STREET":"精忠街","SECT":" ","MAREA":" ","LANE":"２５巷","ALLEY":" ","HOUSE_NO":"４１號之１","E_COORD97":169436.57000000001,"N_COORD97":2545405.8700000001,"ADDRESS":"精忠街２５巷４１號之１","OBJECTID":277317},"geometry":{"x":169436.5700000003,"y":2545405.8699999992}},{"attributes":{"ID":277323,"DIS_CODE":0,"TOWNNAME":"北區","LI":"大山里","LIN":"1鄰","STREET":"精忠街","SECT":" ","MAREA":" ","LANE":"２５巷","ALLEY":" ","HOUSE_NO":"４２號","E_COORD97":169447.29000000001,"N_COORD97":2545393.0600000001,"ADDRESS":"精忠街２５巷４２號","OBJECTID":277318},"geometry":{"x":169447.2900000019,"y":2545393.0600000005}},{"attributes":{"ID":277324,"DIS_CODE":0,"TOWNNAME":"北區","LI":"光武里","LIN":"17鄰","STREET":"北門路","SECT":"二段","MAREA":" ","LANE":"５７７巷","ALLEY":" ","HOUSE_NO":"８號","E_COORD97":169621.23999999999,"N_COORD97":2545782.3399999999,"ADDRESS":"北門路二段５７７巷８號","OBJECTID":277319},"geometry":{"x":169621.24000000115,"y":2545782.3400000017}},{"attributes":{"ID":277325,"DIS_CODE":0,"TOWNNAME":"北區","LI":"光武里","LIN":"8鄰","STREET":"北門路","SECT":"二段","MAREA":" ","LANE":"５７７巷","ALLEY":" ","HOUSE_NO":"５號","E_COORD97":169642.04000000001,"N_COORD97":2545735.4199999999,"ADDRESS":"北門路二段５７７巷５號","OBJECTID":277320},"geometry":{"x":169642.03999999911,"y":2545735.4199999999}},{"attributes":{"ID":277326,"DIS_CODE":0,"TOWNNAME":"北區","LI":"大山里","LIN":"1鄰","STREET":"精忠街","SECT":" ","MAREA":" ","LANE":"２５巷","ALLEY":" ","HOUSE_NO":"４３號","E_COORD97":169450.25,"N_COORD97":2545409.6099999999,"ADDRESS":"精忠街２５巷４３號","OBJECTID":277321},"geometry":{"x":169450.25,"y":2545409.6100000031}},{"attributes":{"ID":277327,"DIS_CODE":0,"TOWNNAME":"北區","LI":"大山里","LIN":"1鄰","STREET":"精忠街","SECT":" ","MAREA":" ","LANE":"２５巷","ALLEY":" ","HOUSE_NO":"４號","E_COORD97":169479.28,"N_COORD97":2545440.77,"ADDRESS":"精忠街２５巷４號","OBJECTID":277322},"geometry":{"x":169479.28000000026,"y":2545440.7700000014}},{"attributes":{"ID":277328,"DIS_CODE":0,"TOWNNAME":"安平區","LI":"怡平里","LIN":"3鄰","STREET":"慶平路","SECT":" ","MAREA":" ","LANE":" ","ALLEY":" ","HOUSE_NO":"３７２號","E_COORD97":165711.72,"N_COORD97":2544191.1600000001,"ADDRESS":"慶平路３７２號","OBJECTID":277323},"geometry":{"x":165711.72000000067,"y":2544191.1600000001}},{"attributes":{"ID":277329,"DIS_CODE":0,"TOWNNAME":"安平區","LI":"怡平里","LIN":"3鄰","STREET":"慶平路","SECT":" ","MAREA":" ","LANE":" ","ALLEY":" ","HOUSE_NO":"３７４號","E_COORD97":165707.07000000001,"N_COORD97":2544191.1600000001,"ADDRESS":"慶平路３７４號","OBJECTID":277324},"geometry":{"x":165707.0700000003,"y":2544191.1600000001}},{"attributes":{"ID":277330,"DIS_CODE":0,"TOWNNAME":"安平區","LI":"怡平里","LIN":"3鄰","STREET":"慶平路","SECT":" ","MAREA":" ","LANE":" ","ALLEY":" ","HOUSE_NO":"３７６號","E_COORD97":165702.28,"N_COORD97":2544191.1600000001,"ADDRESS":"慶平路３７６號","OBJECTID":277325},"geometry":{"x":165702.28000000026,"y":2544191.1600000001}},{"attributes":{"ID":277331,"DIS_CODE":0,"TOWNNAME":"安平區","LI":"怡平里","LIN":"3鄰","STREET":"慶平路","SECT":" ","MAREA":" ","LANE":" ","ALLEY":" ","HOUSE_NO":"３７８號","E_COORD97":165696.39999999999,"N_COORD97":2544191.0299999998,"ADDRESS":"慶平路３７８號","OBJECTID":277326},"geometry":{"x":165696.40000000037,"y":2544191.0300000012}},{"attributes":{"ID":277332,"DIS_CODE":0,"TOWNNAME":"安平區","LI":"怡平里","LIN":"3鄰","STREET":"慶平路","SECT":" ","MAREA":" ","LANE":" ","ALLEY":" ","HOUSE_NO":"３８０號","E_COORD97":165690.92000000001,"N_COORD97":2544190.8900000001,"ADDRESS":"慶平路３８０號","OBJECTID":277327},"geometry":{"x":165690.91999999993,"y":2544190.8900000006}},{"attributes":{"ID":277333,"DIS_CODE":0,"TOWNNAME":"安平區","LI":"怡平里","LIN":"3鄰","STREET":"慶平路","SECT":" ","MAREA":" ","LANE":" ","ALLEY":" ","HOUSE_NO":"３８０號之１","E_COORD97":165685.17000000001,"N_COORD97":2544191.1600000001,"ADDRESS":"慶平路３８０號之１","OBJECTID":277328},"geometry":{"x":165685.17000000086,"y":2544191.1600000001}},{"attributes":{"ID":277334,"DIS_CODE":0,"TOWNNAME":"東區","LI":"裕聖里","LIN":"8鄰","STREET":"裕東二街","SECT":" ","MAREA":" ","LANE":" ","ALLEY":" ","HOUSE_NO":"３２號","E_COORD97":172742.59,"N_COORD97":2541934.21,"ADDRESS":"裕東二街３２號","OBJECTID":277329},"geometry":{"x":172742.59000000078,"y":2541934.2100000009}},{"attributes":{"ID":277335,"DIS_CODE":0,"TOWNNAME":"東區","LI":"文聖里","LIN":"20鄰","STREET":"裕文一街","SECT":" ","MAREA":" ","LANE":" ","ALLEY":" ","HOUSE_NO":"５８號","E_COORD97":172743.95999999999,"N_COORD97":2542620.4199999999,"ADDRESS":"裕文一街５８號","OBJECTID":277330},"geometry":{"x":172743.95999999996,"y":2542620.4199999999}},{"attributes":{"ID":277336,"DIS_CODE":0,"TOWNNAME":"北區","LI":"大和里","LIN":"1鄰","STREET":"文賢路","SECT":" ","MAREA":" ","LANE":"６０９巷","ALLEY":" ","HOUSE_NO":"１號","E_COORD97":167328.81,"N_COORD97":2545922.46,"ADDRESS":"文賢路６０９巷１號","OBJECTID":277331},"geometry":{"x":167328.80999999959,"y":2545922.4600000009}},{"attributes":{"ID":277337,"DIS_CODE":0,"TOWNNAME":"歸仁區","LI":"南興里","LIN":"1鄰","STREET":"民生北街","SECT":" ","MAREA":" ","LANE":"１１２巷","ALLEY":" ","HOUSE_NO":"２號","E_COORD97":176310.54000000001,"N_COORD97":2541225.29,"ADDRESS":"民生北街１１２巷２號","OBJECTID":277332},"geometry":{"x":176310.54000000004,"y":2541225.290000001}},{"attributes":{"ID":277338,"DIS_CODE":0,"TOWNNAME":"歸仁區","LI":"南保里","LIN":"1鄰","STREET":"民權北路","SECT":" ","MAREA":" ","LANE":"２６７巷","ALLEY":" ","HOUSE_NO":"６號","E_COORD97":176960.94,"N_COORD97":2541501.29,"ADDRESS":"民權北路２６７巷６號","OBJECTID":277333},"geometry":{"x":176960.94000000041,"y":2541501.2899999991}},{"attributes":{"ID":277339,"DIS_CODE":0,"TOWNNAME":"歸仁區","LI":"媽廟里","LIN":"1鄰","STREET":"媽廟一街","SECT":" ","MAREA":" ","LANE":"７２巷","ALLEY":" ","HOUSE_NO":"５號","E_COORD97":177297.23000000001,"N_COORD97":2543458.7200000002,"ADDRESS":"媽廟一街７２巷５號","OBJECTID":277334},"geometry":{"x":177297.23000000138,"y":2543458.7200000025}},{"attributes":{"ID":277340,"DIS_CODE":0,"TOWNNAME":"歸仁區","LI":"媽廟里","LIN":"1鄰","STREET":"媽廟一街","SECT":" ","MAREA":" ","LANE":"７２巷","ALLEY":" ","HOUSE_NO":"７０號","E_COORD97":177052.57999999999,"N_COORD97":2543489.7200000002,"ADDRESS":"媽廟一街７２巷７０號","OBJECTID":277335},"geometry":{"x":177052.58000000007,"y":2543489.7200000007}},{"attributes":{"ID":277341,"DIS_CODE":0,"TOWNNAME":"歸仁區","LI":"看東里","LIN":"1鄰","STREET":"忠孝南路","SECT":" ","MAREA":" ","LANE":"６０巷","ALLEY":" ","HOUSE_NO":"２３號","E_COORD97":178442.64999999999,"N_COORD97":2540495.6699999999,"ADDRESS":"忠孝南路６０巷２３號","OBJECTID":277336},"geometry":{"x":178442.65000000037,"y":2540495.6699999999}},{"attributes":{"ID":277342,"DIS_CODE":0,"TOWNNAME":"新營區","LI":"忠政里","LIN":"1鄰","STREET":"中正路","SECT":" ","MAREA":" ","LANE":"３１巷","ALLEY":" ","HOUSE_NO":"５２號","E_COORD97":180046.72,"N_COORD97":2578964.5299999998,"ADDRESS":"中正路３１巷５２號","OBJECTID":277337},"geometry":{"x":180046.71999999974,"y":2578964.5300000031}},{"attributes":{"ID":277343,"DIS_CODE":0,"TOWNNAME":"新營區","LI":"忠政里","LIN":"1鄰","STREET":"中正路","SECT":" ","MAREA":" ","LANE":"３１巷","ALLEY":" ","HOUSE_NO":"６號","E_COORD97":180058.94,"N_COORD97":2579004.3300000001,"ADDRESS":"中正路３１巷６號","OBJECTID":277338},"geometry":{"x":180058.94000000134,"y":2579004.3300000019}},{"attributes":{"ID":277344,"DIS_CODE":0,"TOWNNAME":"新營區","LI":"忠政里","LIN":"1鄰","STREET":"中正路","SECT":" ","MAREA":" ","LANE":"３１巷","ALLEY":" ","HOUSE_NO":"１６號","E_COORD97":180039.72,"N_COORD97":2579003.3199999998,"ADDRESS":"中正路３１巷１６號","OBJECTID":277339},"geometry":{"x":180039.71999999974,"y":2579003.3200000003}},{"attributes":{"ID":277345,"DIS_CODE":0,"TOWNNAME":"新營區","LI":"忠政里","LIN":"1鄰","STREET":"中正路","SECT":" ","MAREA":" ","LANE":"３１巷","ALLEY":" ","HOUSE_NO":"３４號","E_COORD97":180070.39000000001,"N_COORD97":2578982.1400000001,"ADDRESS":"中正路３１巷３４號","OBJECTID":277340},"geometry":{"x":180070.3900000006,"y":2578982.1400000043}},{"attributes":{"ID":277346,"DIS_CODE":0,"TOWNNAME":"新營區","LI":"忠政里","LIN":"1鄰","STREET":"中正路","SECT":" ","MAREA":" ","LANE":"３１巷","ALLEY":" ","HOUSE_NO":"４號","E_COORD97":180063.10000000001,"N_COORD97":2579004.3199999998,"ADDRESS":"中正路３１巷４號","OBJECTID":277341},"geometry":{"x":180063.09999999963,"y":2579004.320000004}},{"attributes":{"ID":277347,"DIS_CODE":0,"TOWNNAME":"新營區","LI":"忠政里","LIN":"1鄰","STREET":"中正路","SECT":" ","MAREA":" ","LANE":"３１巷","ALLEY":" ","HOUSE_NO":"２６號","E_COORD97":180057.10000000001,"N_COORD97":2578986.6299999999,"ADDRESS":"中正路３１巷２６號","OBJECTID":277342},"geometry":{"x":180057.10000000056,"y":2578986.629999999}},{"attributes":{"ID":277348,"DIS_CODE":0,"TOWNNAME":"安平區","LI":"金城里","LIN":"3鄰","STREET":"運河路","SECT":" ","MAREA":" ","LANE":"４０巷","ALLEY":" ","HOUSE_NO":"５號","E_COORD97":163932.82999999999,"N_COORD97":2544378.1299999999,"ADDRESS":"運河路４０巷５號","OBJECTID":277343},"geometry":{"x":163932.83000000101,"y":2544378.1300000027}},{"attributes":{"ID":277349,"DIS_CODE":0,"TOWNNAME":"仁德區","LI":"仁愛里","LIN":"2鄰","STREET":" ","SECT":" ","MAREA":"仁愛","LANE":" ","ALLEY":" ","HOUSE_NO":"２８號","E_COORD97":170345.06849999999,"N_COORD97":2540139.9712800002,"ADDRESS":"仁愛２８號","OBJECTID":277344},"geometry":{"x":170345.06850000005,"y":2540139.9712830037}},{"attributes":{"ID":277350,"DIS_CODE":0,"TOWNNAME":"東區","LI":"文聖里","LIN":"20鄰","STREET":"裕文路","SECT":" ","MAREA":" ","LANE":" ","ALLEY":" ","HOUSE_NO":"３６１號","E_COORD97":172846.73999999999,"N_COORD97":2542537.6000000001,"ADDRESS":"裕文路３６１號","OBJECTID":277345},"geometry":{"x":172846.74000000115,"y":2542537.5999999996}},{"attributes":{"ID":277351,"DIS_CODE":0,"TOWNNAME":"東區","LI":"德光里","LIN":"17鄰","STREET":"崇善路","SECT":" ","MAREA":" ","LANE":" ","ALLEY":" ","HOUSE_NO":"２２號","E_COORD97":170192.91,"N_COORD97":2542461.3100000001,"ADDRESS":"崇善路２２號","OBJECTID":277346},"geometry":{"x":170192.91000000108,"y":2542461.3100000024}},{"attributes":{"ID":277352,"DIS_CODE":0,"TOWNNAME":"東區","LI":"圍下里","LIN":"24鄰","STREET":"北門路","SECT":"一段","MAREA":" ","LANE":" ","ALLEY":" ","HOUSE_NO":"２２６號","E_COORD97":169210.07000000001,"N_COORD97":2543878.9199999999,"ADDRESS":"北門路一段２２６號","OBJECTID":277347},"geometry":{"x":169210.07000000123,"y":2543878.9200000037}},{"attributes":{"ID":277353,"DIS_CODE":0,"TOWNNAME":"東區","LI":"裕聖里","LIN":"6鄰","STREET":"裕孝三街","SECT":" ","MAREA":" ","LANE":" ","ALLEY":" ","HOUSE_NO":"３號","E_COORD97":172450.26999999999,"N_COORD97":2542084.73,"ADDRESS":"裕孝三街３號","OBJECTID":277348},"geometry":{"x":172450.26999999955,"y":2542084.7300000023}},{"attributes":{"ID":277354,"DIS_CODE":0,"TOWNNAME":"東區","LI":"裕聖里","LIN":"6鄰","STREET":"裕孝三街","SECT":" ","MAREA":" ","LANE":" ","ALLEY":" ","HOUSE_NO":"１號","E_COORD97":172444.01999999999,"N_COORD97":2542084.73,"ADDRESS":"裕孝三街１號","OBJECTID":277349},"geometry":{"x":172444.02000000142,"y":2542084.7300000023}},{"attributes":{"ID":277355,"DIS_CODE":0,"TOWNNAME":"東區","LI":"崇善里","LIN":"4鄰","STREET":"崇善路","SECT":" ","MAREA":" ","LANE":" ","ALLEY":" ","HOUSE_NO":"４４５之１號","E_COORD97":170923.01999999999,"N_COORD97":2541852.5899999999,"ADDRESS":"崇善路４４５之１號","OBJECTID":277350},"geometry":{"x":170923.01999999955,"y":2541852.5899999999}},{"attributes":{"ID":277356,"DIS_CODE":0,"TOWNNAME":"東區","LI":"裕聖里","LIN":"8鄰","STREET":"裕敬五街","SECT":" ","MAREA":" ","LANE":" ","ALLEY":" ","HOUSE_NO":"１０６號","E_COORD97":172824.76000000001,"N_COORD97":2542039.6699999999,"ADDRESS":"裕敬五街１０６號","OBJECTID":277351},"geometry":{"x":172824.76000000071,"y":2542039.6700000037}},{"attributes":{"ID":277357,"DIS_CODE":0,"TOWNNAME":"東區","LI":"關聖里","LIN":"20鄰","STREET":"裕孝路","SECT":" ","MAREA":" ","LANE":" ","ALLEY":" ","HOUSE_NO":"１５５號","E_COORD97":172450.75,"N_COORD97":2542918.8199999998,"ADDRESS":"裕孝路１５５號","OBJECTID":277352},"geometry":{"x":172450.75,"y":2542918.8200000022}},{"attributes":{"ID":277358,"DIS_CODE":0,"TOWNNAME":"新營區","LI":"忠政里","LIN":"1鄰","STREET":"中正路","SECT":" ","MAREA":" ","LANE":"３１巷","ALLEY":" ","HOUSE_NO":"６２號","E_COORD97":180067.16,"N_COORD97":2578965.54,"ADDRESS":"中正路３１巷６２號","OBJECTID":277353},"geometry":{"x":180067.16000000108,"y":2578965.540000001}},{"attributes":{"ID":277359,"DIS_CODE":0,"TOWNNAME":"歸仁區","LI":"大廟里","LIN":"1鄰","STREET":"大廟二街","SECT":" ","MAREA":" ","LANE":"４５巷","ALLEY":" ","HOUSE_NO":"１７號","E_COORD97":176019.16,"N_COORD97":2544008.8900000001,"ADDRESS":"大廟二街４５巷１７號","OBJECTID":277354},"geometry":{"x":176019.16000000108,"y":2544008.8900000043}},{"attributes":{"ID":277360,"DIS_CODE":0,"TOWNNAME":"歸仁區","LI":"大廟里","LIN":"1鄰","STREET":"大廟二街","SECT":" ","MAREA":" ","LANE":"４５巷","ALLEY":" ","HOUSE_NO":"９號","E_COORD97":176027.10999999999,"N_COORD97":2544009.8900000001,"ADDRESS":"大廟二街４５巷９號","OBJECTID":277355},"geometry":{"x":176027.11000000034,"y":2544009.8900000025}},{"attributes":{"ID":277361,"DIS_CODE":0,"TOWNNAME":"歸仁區","LI":"七甲里","LIN":"1鄰","STREET":"七甲五街","SECT":" ","MAREA":" ","LANE":"９１巷","ALLEY":" ","HOUSE_NO":"２５號","E_COORD97":177171.63,"N_COORD97":2542485.25,"ADDRESS":"七甲五街９１巷２５號","OBJECTID":277356},"geometry":{"x":177171.63000000082,"y":2542485.25}},{"attributes":{"ID":277362,"DIS_CODE":0,"TOWNNAME":"歸仁區","LI":"大廟里","LIN":"1鄰","STREET":"大廟二街","SECT":" ","MAREA":" ","LANE":"５７巷","ALLEY":" ","HOUSE_NO":"３號","E_COORD97":176007.19,"N_COORD97":2543963.8900000001,"ADDRESS":"大廟二街５７巷３號","OBJECTID":277357},"geometry":{"x":176007.19000000134,"y":2543963.8900000006}},{"attributes":{"ID":277363,"DIS_CODE":0,"TOWNNAME":"關廟區","LI":"松腳里","LIN":"1鄰","STREET":"四維街","SECT":" ","MAREA":" ","LANE":"１４２巷","ALLEY":" ","HOUSE_NO":"８號","E_COORD97":181912.85999999999,"N_COORD97":2539724.25,"ADDRESS":"四維街１４２巷８號","OBJECTID":277358},"geometry":{"x":181912.86000000034,"y":2539724.2500000019}},{"attributes":{"ID":277364,"DIS_CODE":0,"TOWNNAME":"玉井區","LI":"豐里里","LIN":"3鄰","STREET":" ","SECT":" ","MAREA":"豐里","LANE":" ","ALLEY":" ","HOUSE_NO":"２６號","E_COORD97":193283.26000000001,"N_COORD97":2558406.2400000002,"ADDRESS":"豐里２６號","OBJECTID":277359},"geometry":{"x":193283.26000000164,"y":2558406.2400000021}},{"attributes":{"ID":277365,"DIS_CODE":0,"TOWNNAME":"歸仁區","LI":"沙崙里","LIN":"3鄰","STREET":" ","SECT":" ","MAREA":"二甲","LANE":" ","ALLEY":" ","HOUSE_NO":"１７４號","E_COORD97":178563.69,"N_COORD97":2539013.96,"ADDRESS":"二甲１７４號","OBJECTID":277360},"geometry":{"x":178563.69000000134,"y":2539013.9600000009}},{"attributes":{"ID":277366,"DIS_CODE":0,"TOWNNAME":"關廟區","LI":"下湖里","LIN":"1鄰","STREET":"保東一街","SECT":" ","MAREA":" ","LANE":"６００巷","ALLEY":" ","HOUSE_NO":"３２號","E_COORD97":178080.04000000001,"N_COORD97":2542551.2999999998,"ADDRESS":"保東一街６００巷３２號","OBJECTID":277361},"geometry":{"x":178080.04000000004,"y":2542551.3000000007}},{"attributes":{"ID":277367,"DIS_CODE":0,"TOWNNAME":"關廟區","LI":"五甲里","LIN":"1鄰","STREET":"旺萊路","SECT":" ","MAREA":" ","LANE":"１０１巷","ALLEY":" ","HOUSE_NO":"２號","E_COORD97":181669.54000000001,"N_COORD97":2539282.25,"ADDRESS":"旺萊路１０１巷２號","OBJECTID":277362},"geometry":{"x":181669.5400000019,"y":2539282.25}},{"attributes":{"ID":277368,"DIS_CODE":0,"TOWNNAME":"關廟區","LI":"北花里","LIN":"1鄰","STREET":"中正路","SECT":" ","MAREA":" ","LANE":"６５２巷","ALLEY":" ","HOUSE_NO":"１２號","E_COORD97":181824.70999999999,"N_COORD97":2540420.25,"ADDRESS":"中正路６５２巷１２號","OBJECTID":277363},"geometry":{"x":181824.71000000089,"y":2540420.2500000019}},{"attributes":{"ID":277369,"DIS_CODE":0,"TOWNNAME":"南區","LI":"建南里","LIN":"1鄰","STREET":"中華南路","SECT":"二段","MAREA":" ","LANE":"５３巷","ALLEY":" ","HOUSE_NO":"１４３號","E_COORD97":167380.57999999999,"N_COORD97":2539985.4900000002,"ADDRESS":"中華南路二段５３巷１４３號","OBJECTID":277364},"geometry":{"x":167380.58000000194,"y":2539985.4900000002}},{"attributes":{"ID":277370,"DIS_CODE":0,"TOWNNAME":"南區","LI":"建南里","LIN":"1鄰","STREET":"中華南路","SECT":"二段","MAREA":" ","LANE":"５３巷","ALLEY":" ","HOUSE_NO":"１３５號","E_COORD97":167381.07999999999,"N_COORD97":2540001.8599999999,"ADDRESS":"中華南路二段５３巷１３５號","OBJECTID":277365},"geometry":{"x":167381.08000000101,"y":2540001.8600000013}},{"attributes":{"ID":277371,"DIS_CODE":0,"TOWNNAME":"南區","LI":"建南里","LIN":"1鄰","STREET":"中華南路","SECT":"二段","MAREA":" ","LANE":"５３巷","ALLEY":" ","HOUSE_NO":"１３７號","E_COORD97":167380.07999999999,"N_COORD97":2539998.8900000001,"ADDRESS":"中華南路二段５３巷１３７號","OBJECTID":277366},"geometry":{"x":167380.08000000007,"y":2539998.8900000025}},{"attributes":{"ID":277372,"DIS_CODE":0,"TOWNNAME":"南區","LI":"建南里","LIN":"1鄰","STREET":"中華南路","SECT":"二段","MAREA":" ","LANE":"５３巷","ALLEY":" ","HOUSE_NO":"１３９號","E_COORD97":167380.07999999999,"N_COORD97":2539993.6800000002,"ADDRESS":"中華南路二段５３巷１３９號","OBJECTID":277367},"geometry":{"x":167380.08000000007,"y":2539993.6799999997}},{"attributes":{"ID":277373,"DIS_CODE":0,"TOWNNAME":"南區","LI":"建南里","LIN":"1鄰","STREET":"中華南路","SECT":"二段","MAREA":" ","LANE":"５３巷","ALLEY":" ","HOUSE_NO":"１４１號","E_COORD97":167380.57999999999,"N_COORD97":2539989.46,"ADDRESS":"中華南路二段５３巷１４１號","OBJECTID":277368},"geometry":{"x":167380.58000000194,"y":2539989.4600000009}},{"attributes":{"ID":277374,"DIS_CODE":0,"TOWNNAME":"北區","LI":"光武里","LIN":"1鄰","STREET":"長榮路","SECT":"五段","MAREA":" ","LANE":"２３３巷","ALLEY":" ","HOUSE_NO":"１８號","E_COORD97":169932.26000000001,"N_COORD97":2545858.98,"ADDRESS":"長榮路五段２３３巷１８號","OBJECTID":277369},"geometry":{"x":169932.26000000071,"y":2545858.9800000042}},{"attributes":{"ID":277375,"DIS_CODE":0,"TOWNNAME":"安平區","LI":"億載里","LIN":"1鄰","STREET":"平豐路","SECT":" ","MAREA":" ","LANE":"３９１巷","ALLEY":" ","HOUSE_NO":"４３號","E_COORD97":164139.54999999999,"N_COORD97":2543801.48,"ADDRESS":"平豐路３９１巷４３號","OBJECTID":277370},"geometry":{"x":164139.55000000075,"y":2543801.4800000023}},{"attributes":{"ID":277376,"DIS_CODE":0,"TOWNNAME":"歸仁區","LI":"大廟里","LIN":"3鄰","STREET":"和順路","SECT":"二段","MAREA":" ","LANE":" ","ALLEY":" ","HOUSE_NO":"１３６號","E_COORD97":176178.64000000001,"N_COORD97":2543639.2799999998,"ADDRESS":"和順路二段１３６號","OBJECTID":277371},"geometry":{"x":176178.63999999966,"y":2543639.2800000012}},{"attributes":{"ID":277377,"DIS_CODE":0,"TOWNNAME":"歸仁區","LI":"七甲里","LIN":"3鄰","STREET":"中正北路","SECT":"二段","MAREA":" ","LANE":" ","ALLEY":" ","HOUSE_NO":"５００之１號","E_COORD97":177473.12,"N_COORD97":2543233.27,"ADDRESS":"中正北路二段５００之１號","OBJECTID":277372},"geometry":{"x":177473.12000000011,"y":2543233.2700000014}},{"attributes":{"ID":277378,"DIS_CODE":0,"TOWNNAME":"安平區","LI":"億載里","LIN":"1鄰","STREET":"平豐路","SECT":" ","MAREA":" ","LANE":"３９１巷","ALLEY":" ","HOUSE_NO":"４５號","E_COORD97":164133.85999999999,"N_COORD97":2543800.3399999999,"ADDRESS":"平豐路３９１巷４５號","OBJECTID":277373},"geometry":{"x":164133.86000000034,"y":2543800.3399999999}},{"attributes":{"ID":277379,"DIS_CODE":0,"TOWNNAME":"歸仁區","LI":"南保里","LIN":"3鄰","STREET":"民權二街","SECT":" ","MAREA":" ","LANE":" ","ALLEY":" ","HOUSE_NO":"６９號","E_COORD97":176952.79000000001,"N_COORD97":2541423.29,"ADDRESS":"民權二街６９號","OBJECTID":277374},"geometry":{"x":176952.79000000004,"y":2541423.2899999991}},{"attributes":{"ID":277380,"DIS_CODE":0,"TOWNNAME":"北區","LI":"成德里","LIN":"1鄰","STREET":"民德路","SECT":" ","MAREA":" ","LANE":"５８巷","ALLEY":" ","HOUSE_NO":"３７號","E_COORD97":168307.29000000001,"N_COORD97":2545386.2400000002,"ADDRESS":"民德路５８巷３７號","OBJECTID":277375},"geometry":{"x":168307.29000000004,"y":2545386.2400000021}},{"attributes":{"ID":277381,"DIS_CODE":0,"TOWNNAME":"歸仁區","LI":"文化里","LIN":"3鄰","STREET":"國光街","SECT":" ","MAREA":" ","LANE":" ","ALLEY":" ","HOUSE_NO":"１４１號","E_COORD97":177345.73000000001,"N_COORD97":2541202.3300000001,"ADDRESS":"國光街１４１號","OBJECTID":277376},"geometry":{"x":177345.73000000045,"y":2541202.3300000019}},{"attributes":{"ID":277382,"DIS_CODE":0,"TOWNNAME":"歸仁區","LI":"辜厝里","LIN":"3鄰","STREET":"中正南路","SECT":"一段","MAREA":" ","LANE":" ","ALLEY":" ","HOUSE_NO":"２４號","E_COORD97":177607.16,"N_COORD97":2540684.1099999999,"ADDRESS":"中正南路一段２４號","OBJECTID":277377},"geometry":{"x":177607.16000000201,"y":2540684.1100000013}},{"attributes":{"ID":277383,"DIS_CODE":0,"TOWNNAME":"歸仁區","LI":"西埔里","LIN":"3鄰","STREET":"保大路","SECT":"二段","MAREA":" ","LANE":" ","ALLEY":" ","HOUSE_NO":"２８８號","E_COORD97":176571.97,"N_COORD97":2544177.27,"ADDRESS":"保大路二段２８８號","OBJECTID":277378},"geometry":{"x":176571.96999999974,"y":2544177.2699999996}},{"attributes":{"ID":277384,"DIS_CODE":0,"TOWNNAME":"歸仁區","LI":"看東里","LIN":"3鄰","STREET":"忠孝南路","SECT":" ","MAREA":" ","LANE":" ","ALLEY":" ","HOUSE_NO":"１８６號","E_COORD97":178537.37,"N_COORD97":2540231.8300000001,"ADDRESS":"忠孝南路１８６號","OBJECTID":277379},"geometry":{"x":178537.37000000011,"y":2540231.8300000038}},{"attributes":{"ID":277385,"DIS_CODE":0,"TOWNNAME":"歸仁區","LI":"歸仁里","LIN":"3鄰","STREET":"中正北路","SECT":"一段","MAREA":" ","LANE":" ","ALLEY":" ","HOUSE_NO":"２８號","E_COORD97":177677.07999999999,"N_COORD97":2540907.04,"ADDRESS":"中正北路一段２８號","OBJECTID":277380},"geometry":{"x":177677.08000000194,"y":2540907.0399999972}},{"attributes":{"ID":277386,"DIS_CODE":0,"TOWNNAME":"北區","LI":"賢北里","LIN":"1鄰","STREET":"中華北路","SECT":"一段","MAREA":" ","LANE":"５３巷","ALLEY":" ","HOUSE_NO":"５５號","E_COORD97":166400.31,"N_COORD97":2545320.46,"ADDRESS":"中華北路一段５３巷５５號","OBJECTID":277381},"geometry":{"x":166400.31000000145,"y":2545320.4600000046}},{"attributes":{"ID":277387,"DIS_CODE":0,"TOWNNAME":"新營區","LI":"民權里","LIN":" ","STREET":"博愛街","SECT":" ","MAREA":" ","LANE":"２１巷","ALLEY":" ","HOUSE_NO":"３號","E_COORD97":180006.81,"N_COORD97":2578129.7000000002,"ADDRESS":"博愛街２１巷３號","OBJECTID":277382},"geometry":{"x":180006.80999999959,"y":2578129.7000000011}},{"attributes":{"ID":277388,"DIS_CODE":0,"TOWNNAME":"北區","LI":"和順里","LIN":"1鄰","STREET":"育德二路","SECT":" ","MAREA":" ","LANE":"５１巷","ALLEY":" ","HOUSE_NO":"５３號","E_COORD97":168077.57000000001,"N_COORD97":2545354.4300000002,"ADDRESS":"育德二路５１巷５３號","OBJECTID":277383},"geometry":{"x":168077.57000000216,"y":2545354.4300000016}},{"attributes":{"ID":277389,"DIS_CODE":0,"TOWNNAME":"北區","LI":"六甲里","LIN":"1鄰","STREET":"公園路","SECT":" ","MAREA":" ","LANE":"４５１巷","ALLEY":" ","HOUSE_NO":"２８之１號","E_COORD97":168946.31,"N_COORD97":2545487.6299999999,"ADDRESS":"公園路４５１巷２８之１號","OBJECTID":277384},"geometry":{"x":168946.30999999959,"y":2545487.6300000008}},{"attributes":{"ID":277390,"DIS_CODE":0,"TOWNNAME":"北區","LI":"六甲里","LIN":"1鄰","STREET":"公園路","SECT":" ","MAREA":" ","LANE":"４５１巷","ALLEY":" ","HOUSE_NO":"２８之２號","E_COORD97":168941.23000000001,"N_COORD97":2545489.7799999998,"ADDRESS":"公園路４５１巷２８之２號","OBJECTID":277385},"geometry":{"x":168941.23000000231,"y":2545489.7800000031}},{"attributes":{"ID":277391,"DIS_CODE":0,"TOWNNAME":"新營區","LI":"興業里","LIN":" ","STREET":"公誠街","SECT":" ","MAREA":" ","LANE":"９巷","ALLEY":" ","HOUSE_NO":"２之１號","E_COORD97":180305.32999999999,"N_COORD97":2578003.21,"ADDRESS":"公誠街９巷２之１號","OBJECTID":277386},"geometry":{"x":180305.33000000101,"y":2578003.2100000028}},{"attributes":{"ID":277392,"DIS_CODE":0,"TOWNNAME":"新營區","LI":"南興里","LIN":"16鄰","STREET":"興農街","SECT":" ","MAREA":" ","LANE":"１４０巷","ALLEY":" ","HOUSE_NO":"６號","E_COORD97":179227.57000000001,"N_COORD97":2577545.3399999999,"ADDRESS":"興農街１４０巷６號","OBJECTID":277387},"geometry":{"x":179227.57000000123,"y":2577545.3399999999}},{"attributes":{"ID":277393,"DIS_CODE":0,"TOWNNAME":"歸仁區","LI":"西埔里","LIN":"3鄰","STREET":"保大路","SECT":"二段","MAREA":" ","LANE":" ","ALLEY":" ","HOUSE_NO":"９１號","E_COORD97":177080.17999999999,"N_COORD97":2544117.25,"ADDRESS":"保大路二段９１號","OBJECTID":277388},"geometry":{"x":177080.1799999997,"y":2544117.2499999981}},{"attributes":{"ID":277394,"DIS_CODE":0,"TOWNNAME":"北區","LI":"文元里","LIN":"3鄰","STREET":"文成三路","SECT":" ","MAREA":" ","LANE":" ","ALLEY":" ","HOUSE_NO":"９５０號","E_COORD97":167598.78,"N_COORD97":2546243.7599999998,"ADDRESS":"文成三路９５０號","OBJECTID":277389},"geometry":{"x":167598.78000000119,"y":2546243.7600000016}},{"attributes":{"ID":277395,"DIS_CODE":0,"TOWNNAME":"玉井區","LI":"玉田里","LIN":"3鄰","STREET":"中正路","SECT":" ","MAREA":" ","LANE":" ","ALLEY":" ","HOUSE_NO":"２３０號","E_COORD97":195089.95999999999,"N_COORD97":2558238.25,"ADDRESS":"中正路２３０號","OBJECTID":277390},"geometry":{"x":195089.95999999996,"y":2558238.2499999981}},{"attributes":{"ID":277396,"DIS_CODE":0,"TOWNNAME":"玉井區","LI":"玉田里","LIN":"3鄰","STREET":"中正路","SECT":" ","MAREA":" ","LANE":" ","ALLEY":" ","HOUSE_NO":"２４８號","E_COORD97":195123.06,"N_COORD97":2558254.25,"ADDRESS":"中正路２４８號","OBJECTID":277391},"geometry":{"x":195123.05999999959,"y":2558254.25}},{"attributes":{"ID":277397,"DIS_CODE":0,"TOWNNAME":"新營區","LI":"南興里","LIN":"15鄰","STREET":"興農街","SECT":" ","MAREA":" ","LANE":"１４０巷","ALLEY":" ","HOUSE_NO":"７號","E_COORD97":179221.35000000001,"N_COORD97":2577524.3300000001,"ADDRESS":"興農街１４０巷７號","OBJECTID":277392},"geometry":{"x":179221.35000000056,"y":2577524.3300000001}},{"attributes":{"ID":277398,"DIS_CODE":0,"TOWNNAME":"南區","LI":"文華里","LIN":"1鄰","STREET":"永華路","SECT":"一段","MAREA":" ","LANE":"２３３巷","ALLEY":" ","HOUSE_NO":"１３號","E_COORD97":167101.78,"N_COORD97":2543155.6400000001,"ADDRESS":"永華路一段２３３巷１３號","OBJECTID":277393},"geometry":{"x":167101.78000000119,"y":2543155.6400000006}},{"attributes":{"ID":277399,"DIS_CODE":0,"TOWNNAME":"南區","LI":"喜東里","LIN":"1鄰","STREET":"明興路","SECT":" ","MAREA":" ","LANE":"３２１巷","ALLEY":" ","HOUSE_NO":"８３號","E_COORD97":166499.14000000001,"N_COORD97":2538583.9100000001,"ADDRESS":"明興路３２１巷８３號","OBJECTID":277394},"geometry":{"x":166499.13999999966,"y":2538583.910000002}},{"attributes":{"ID":277400,"DIS_CODE":0,"TOWNNAME":"南區","LI":"喜東里","LIN":"1鄰","STREET":"明興路","SECT":" ","MAREA":" ","LANE":"３２１巷","ALLEY":" ","HOUSE_NO":"３８號","E_COORD97":166690.66,"N_COORD97":2539077.2599999998,"ADDRESS":"明興路３２１巷３８號","OBJECTID":277395},"geometry":{"x":166690.66000000108,"y":2539077.2600000016}},{"attributes":{"ID":277401,"DIS_CODE":0,"TOWNNAME":"歸仁區","LI":"大潭里","LIN":"1鄰","STREET":"中正南路","SECT":"三段","MAREA":" ","LANE":"９５巷","ALLEY":" ","HOUSE_NO":"２９號","E_COORD97":175370.70999999999,"N_COORD97":2535030.2799999998,"ADDRESS":"中正南路三段９５巷２９號","OBJECTID":277396},"geometry":{"x":175370.71000000183,"y":2535030.2800000031}},{"attributes":{"ID":277402,"DIS_CODE":0,"TOWNNAME":"歸仁區","LI":"大潭里","LIN":"1鄰","STREET":"中正南路","SECT":"三段","MAREA":" ","LANE":"９５巷","ALLEY":" ","HOUSE_NO":"４１號","E_COORD97":175383.20999999999,"N_COORD97":2535064.2799999998,"ADDRESS":"中正南路三段９５巷４１號","OBJECTID":277397},"geometry":{"x":175383.21000000089,"y":2535064.2800000031}},{"attributes":{"ID":277403,"DIS_CODE":0,"TOWNNAME":"歸仁區","LI":"西埔里","LIN":"1鄰","STREET":"西埔三街","SECT":" ","MAREA":" ","LANE":"５１巷","ALLEY":" ","HOUSE_NO":"１００號","E_COORD97":177088.32000000001,"N_COORD97":2543942.25,"ADDRESS":"西埔三街５１巷１００號","OBJECTID":277398},"geometry":{"x":177088.3200000003,"y":2543942.2500000019}},{"attributes":{"ID":277404,"DIS_CODE":0,"TOWNNAME":"歸仁區","LI":"西埔里","LIN":"1鄰","STREET":"西埔三街","SECT":" ","MAREA":" ","LANE":"５１巷","ALLEY":" ","HOUSE_NO":"２８號","E_COORD97":176891.89000000001,"N_COORD97":2543954.25,"ADDRESS":"西埔三街５１巷２８號","OBJECTID":277399},"geometry":{"x":176891.8900000006,"y":2543954.25}},{"attributes":{"ID":277405,"DIS_CODE":0,"TOWNNAME":"歸仁區","LI":"媽廟里","LIN":"1鄰","STREET":"中正北路","SECT":"三段","MAREA":" ","LANE":"３５巷","ALLEY":" ","HOUSE_NO":"２７號","E_COORD97":177336.87,"N_COORD97":2543403.0499999998,"ADDRESS":"中正北路三段３５巷２７號","OBJECTID":277400},"geometry":{"x":177336.87000000104,"y":2543403.0500000007}}]}