{"displayFieldName":"TOWNNAME","fieldAliases":{"ID":"ID","DIS_CODE":"DIS_CODE","TOWNNAME":"TOWNNAME","LI":"LI","LIN":"LIN","STREET":"STREET","SECT":"SECT","MAREA":"MAREA","LANE":"LANE","ALLEY":"ALLEY","HOUSE_NO":"HOUSE_NO","E_COORD97":"E_COORD97","N_COORD97":"N_COORD97","ADDRESS":"ADDRESS","OBJECTID":"OBJECTID"},"geometryType":"esriGeometryPoint","spatialReference":{"wkid":102443,"latestWkid":3826},"fields":[{"name":"ID","type":"esriFieldTypeDouble","alias":"ID"},{"name":"DIS_CODE","type":"esriFieldTypeInteger","alias":"DIS_CODE"},{"name":"TOWNNAME","type":"esriFieldTypeString","alias":"TOWNNAME","length":8},{"name":"LI","type":"esriFieldTypeString","alias":"LI","length":8},{"name":"LIN","type":"esriFieldTypeString","alias":"LIN","length":12},{"name":"STREET","type":"esriFieldTypeString","alias":"STREET","length":20},{"name":"SECT","type":"esriFieldTypeString","alias":"SECT","length":8},{"name":"MAREA","type":"esriFieldTypeString","alias":"MAREA","length":12},{"name":"LANE","type":"esriFieldTypeString","alias":"LANE","length":10},{"name":"ALLEY","type":"esriFieldTypeString","alias":"ALLEY","length":10},{"name":"HOUSE_NO","type":"esriFieldTypeString","alias":"HOUSE_NO","length":20},{"name":"E_COORD97","type":"esriFieldTypeDouble","alias":"E_COORD97"},{"name":"N_COORD97","type":"esriFieldTypeDouble","alias":"N_COORD97"},{"name":"ADDRESS","type":"esriFieldTypeString","alias":"ADDRESS","length":50},{"name":"OBJECTID","type":"esriFieldTypeOID","alias":"OBJECTID"}],"features":[{"attributes":{"ID":314009,"DIS_CODE":0,"TOWNNAME":"安平區","LI":"建平里","LIN":"17鄰","STREET":"文平路","SECT":" ","MAREA":" ","LANE":" ","ALLEY":" ","HOUSE_NO":"５００號","E_COORD97":165844.98000000001,"N_COORD97":2543985.3399999999,"ADDRESS":"文平路５００號","OBJECTID":314001},"geometry":{"x":165844.98000000045,"y":2543985.3400000017}},{"attributes":{"ID":314010,"DIS_CODE":0,"TOWNNAME":"新營區","LI":"民榮里","LIN":"17鄰","STREET":"新進路","SECT":"二段","MAREA":" ","LANE":" ","ALLEY":" ","HOUSE_NO":"２９８號","E_COORD97":178833.26000000001,"N_COORD97":2577763.1899999999,"ADDRESS":"新進路二段２９８號","OBJECTID":314002},"geometry":{"x":178833.25999999885,"y":2577763.1899999976}},{"attributes":{"ID":314011,"DIS_CODE":0,"TOWNNAME":"新營區","LI":"護鎮里","LIN":"9鄰","STREET":" ","SECT":" ","MAREA":"後鎮","LANE":" ","ALLEY":" ","HOUSE_NO":"９６號之５０","E_COORD97":179096.16227,"N_COORD97":2580620.0619399999,"ADDRESS":"後鎮９６之５０號","OBJECTID":314003},"geometry":{"x":179096.16227000114,"y":2580620.0619399995}},{"attributes":{"ID":314012,"DIS_CODE":0,"TOWNNAME":"新營區","LI":"護鎮里","LIN":"2鄰","STREET":" ","SECT":" ","MAREA":"後鎮","LANE":" ","ALLEY":" ","HOUSE_NO":"１６號之８","E_COORD97":179333.36316000001,"N_COORD97":2581003.71973,"ADDRESS":"後鎮１６之８號","OBJECTID":314004},"geometry":{"x":179333.36316000018,"y":2581003.7197300009}},{"attributes":{"ID":314013,"DIS_CODE":0,"TOWNNAME":"新營區","LI":"埤寮里","LIN":"4鄰","STREET":" ","SECT":" ","MAREA":"許丑","LANE":" ","ALLEY":" ","HOUSE_NO":"４５之９號","E_COORD97":179717.07000000001,"N_COORD97":2580947.3900000001,"ADDRESS":"許丑４５之９號","OBJECTID":314005},"geometry":{"x":179717.07000000123,"y":2580947.3900000025}},{"attributes":{"ID":314014,"DIS_CODE":0,"TOWNNAME":"新營區","LI":"埤寮里","LIN":"6鄰","STREET":" ","SECT":" ","MAREA":"埤寮","LANE":" ","ALLEY":" ","HOUSE_NO":"１６號之３","E_COORD97":180362.16,"N_COORD97":2580916.6600000001,"ADDRESS":"埤寮１６號之３","OBJECTID":314006},"geometry":{"x":180362.16000000108,"y":2580916.6600000001}},{"attributes":{"ID":314015,"DIS_CODE":0,"TOWNNAME":"新營區","LI":"新東里","LIN":"23鄰","STREET":"大同路","SECT":" ","MAREA":" ","LANE":"７２巷","ALLEY":" ","HOUSE_NO":"２０號","E_COORD97":180743.79000000001,"N_COORD97":2578970.1800000002,"ADDRESS":"大同路７２巷２０號","OBJECTID":314007},"geometry":{"x":180743.78999999911,"y":2578970.1799999997}},{"attributes":{"ID":314016,"DIS_CODE":0,"TOWNNAME":"新營區","LI":"嘉芳里","LIN":" ","STREET":" ","SECT":" ","MAREA":"茄苳腳","LANE":" ","ALLEY":" ","HOUSE_NO":"３３號","E_COORD97":177007.17999999999,"N_COORD97":2578392.25,"ADDRESS":"茄苳腳３３號","OBJECTID":314008},"geometry":{"x":177007.18000000063,"y":2578392.2500000019}},{"attributes":{"ID":314017,"DIS_CODE":0,"TOWNNAME":"新營區","LI":"埤寮里","LIN":"4鄰","STREET":" ","SECT":" ","MAREA":"許丑","LANE":" ","ALLEY":" ","HOUSE_NO":"４５之１０號","E_COORD97":179718.35000000001,"N_COORD97":2580954.04,"ADDRESS":"許丑４５之１０號","OBJECTID":314009},"geometry":{"x":179718.34999999963,"y":2580954.0399999991}},{"attributes":{"ID":314018,"DIS_CODE":0,"TOWNNAME":"新營區","LI":"護鎮里","LIN":"4鄰","STREET":" ","SECT":" ","MAREA":"後鎮","LANE":" ","ALLEY":" ","HOUSE_NO":"４７號","E_COORD97":179191.79999999999,"N_COORD97":2581125.9199999999,"ADDRESS":"後鎮４７號","OBJECTID":314010},"geometry":{"x":179191.79999999981,"y":2581125.9200000018}},{"attributes":{"ID":314019,"DIS_CODE":0,"TOWNNAME":"新營區","LI":"民生里","LIN":"14鄰","STREET":"復興路","SECT":" ","MAREA":" ","LANE":"２３４巷","ALLEY":" ","HOUSE_NO":"１０號","E_COORD97":178873.67999999999,"N_COORD97":2578147.2799999998,"ADDRESS":"復興路２３４巷１０號","OBJECTID":314011},"geometry":{"x":178873.6799999997,"y":2578147.2800000012}},{"attributes":{"ID":314020,"DIS_CODE":0,"TOWNNAME":"北區","LI":"大港里","LIN":"7鄰","STREET":"大興街","SECT":" ","MAREA":" ","LANE":"２２６巷","ALLEY":" ","HOUSE_NO":"１號","E_COORD97":166735.67000000001,"N_COORD97":2545739,"ADDRESS":"大興街２２６巷１號","OBJECTID":314012},"geometry":{"x":166735.67000000179,"y":2545739}},{"attributes":{"ID":314021,"DIS_CODE":0,"TOWNNAME":"北區","LI":"大港里","LIN":"7鄰","STREET":"大興街","SECT":" ","MAREA":" ","LANE":"２２６巷","ALLEY":" ","HOUSE_NO":"２１號","E_COORD97":166727.82999999999,"N_COORD97":2545782.7599999998,"ADDRESS":"大興街２２６巷２１號","OBJECTID":314013},"geometry":{"x":166727.83000000194,"y":2545782.7600000016}},{"attributes":{"ID":314022,"DIS_CODE":0,"TOWNNAME":"北區","LI":"大港里","LIN":"7鄰","STREET":"大興街","SECT":" ","MAREA":" ","LANE":"２２６巷","ALLEY":" ","HOUSE_NO":"２３號","E_COORD97":166727.12,"N_COORD97":2545788.27,"ADDRESS":"大興街２２６巷２３號","OBJECTID":314014},"geometry":{"x":166727.12000000011,"y":2545788.2700000033}},{"attributes":{"ID":314023,"DIS_CODE":0,"TOWNNAME":"新營區","LI":"民榮里","LIN":"17鄰","STREET":"新進路","SECT":"二段","MAREA":" ","LANE":" ","ALLEY":" ","HOUSE_NO":"２２２號","E_COORD97":179103.23999999999,"N_COORD97":2577748.6099999999,"ADDRESS":"新進路二段２２２號","OBJECTID":314015},"geometry":{"x":179103.24000000022,"y":2577748.6100000013}},{"attributes":{"ID":314024,"DIS_CODE":0,"TOWNNAME":"新營區","LI":"民榮里","LIN":"17鄰","STREET":"新進路","SECT":"二段","MAREA":" ","LANE":" ","ALLEY":" ","HOUSE_NO":"２９０號","E_COORD97":178849.62,"N_COORD97":2577762.0099999998,"ADDRESS":"新進路二段２９０號","OBJECTID":314016},"geometry":{"x":178849.62000000011,"y":2577762.0100000016}},{"attributes":{"ID":314025,"DIS_CODE":0,"TOWNNAME":"新營區","LI":"王公里","LIN":"17鄰","STREET":"大智街","SECT":" ","MAREA":" ","LANE":" ","ALLEY":" ","HOUSE_NO":"４８號","E_COORD97":180296.97,"N_COORD97":2579314.4100000001,"ADDRESS":"大智街４８號","OBJECTID":314017},"geometry":{"x":180296.97000000067,"y":2579314.4100000001}},{"attributes":{"ID":314026,"DIS_CODE":0,"TOWNNAME":"新營區","LI":"土庫里","LIN":"4鄰","STREET":" ","SECT":" ","MAREA":"土庫","LANE":" ","ALLEY":" ","HOUSE_NO":"３５號之１０","E_COORD97":183283.89000000001,"N_COORD97":2580145.7000000002,"ADDRESS":"土庫３５號之１０","OBJECTID":314018},"geometry":{"x":183283.89000000153,"y":2580145.6999999993}},{"attributes":{"ID":314027,"DIS_CODE":0,"TOWNNAME":"新營區","LI":"土庫里","LIN":"4鄰","STREET":" ","SECT":" ","MAREA":"土庫","LANE":" ","ALLEY":" ","HOUSE_NO":"３８號之２","E_COORD97":183322.79000000001,"N_COORD97":2579977.1899999999,"ADDRESS":"土庫３８號之２","OBJECTID":314019},"geometry":{"x":183322.79000000097,"y":2579977.1899999976}},{"attributes":{"ID":314028,"DIS_CODE":0,"TOWNNAME":"新營區","LI":"土庫里","LIN":"4鄰","STREET":" ","SECT":" ","MAREA":"土庫","LANE":" ","ALLEY":" ","HOUSE_NO":"３８之３號","E_COORD97":183326.91,"N_COORD97":2579984.9300000002,"ADDRESS":"土庫３８之３號","OBJECTID":314020},"geometry":{"x":183326.91000000108,"y":2579984.9299999997}},{"attributes":{"ID":314029,"DIS_CODE":0,"TOWNNAME":"新營區","LI":"土庫里","LIN":"5鄰","STREET":" ","SECT":" ","MAREA":"土庫","LANE":" ","ALLEY":" ","HOUSE_NO":"４３號之１６","E_COORD97":183654.17999999999,"N_COORD97":2580160.6499999999,"ADDRESS":"土庫４３號之１６","OBJECTID":314021},"geometry":{"x":183654.1799999997,"y":2580160.6500000004}},{"attributes":{"ID":314030,"DIS_CODE":0,"TOWNNAME":"新營區","LI":"五興里","LIN":"4鄰","STREET":" ","SECT":" ","MAREA":"五間厝","LANE":" ","ALLEY":" ","HOUSE_NO":"４３號","E_COORD97":175685.09,"N_COORD97":2574818.4100000001,"ADDRESS":"五間厝４３號","OBJECTID":314022},"geometry":{"x":175685.09000000078,"y":2574818.4100000001}},{"attributes":{"ID":314031,"DIS_CODE":0,"TOWNNAME":"新營區","LI":"土庫里","LIN":"8鄰","STREET":" ","SECT":" ","MAREA":"土庫","LANE":" ","ALLEY":" ","HOUSE_NO":"７１號之３","E_COORD97":182954.25,"N_COORD97":2579913.52,"ADDRESS":"土庫７１號之３","OBJECTID":314023},"geometry":{"x":182954.25,"y":2579913.5199999996}},{"attributes":{"ID":314032,"DIS_CODE":0,"TOWNNAME":"新營區","LI":"護鎮里","LIN":"1鄰","STREET":" ","SECT":" ","MAREA":"後鎮","LANE":" ","ALLEY":" ","HOUSE_NO":"３號之１４","E_COORD97":179604.25,"N_COORD97":2581091.8900000001,"ADDRESS":"後鎮３之１４號","OBJECTID":314024},"geometry":{"x":179604.25,"y":2581091.8900000006}},{"attributes":{"ID":314033,"DIS_CODE":0,"TOWNNAME":"新營區","LI":"民生里","LIN":"26鄰","STREET":"民生路","SECT":" ","MAREA":" ","LANE":"１３９巷","ALLEY":" ","HOUSE_NO":"４２號","E_COORD97":179120.32000000001,"N_COORD97":2578583.54,"ADDRESS":"民生路１３９巷４２號","OBJECTID":314025},"geometry":{"x":179120.32000000123,"y":2578583.5399999991}},{"attributes":{"ID":314034,"DIS_CODE":0,"TOWNNAME":"新營區","LI":"土庫里","LIN":"4鄰","STREET":" ","SECT":" ","MAREA":"土庫","LANE":" ","ALLEY":" ","HOUSE_NO":"３７號","E_COORD97":183282.42000000001,"N_COORD97":2579970.6699999999,"ADDRESS":"土庫３７號","OBJECTID":314026},"geometry":{"x":183282.42000000179,"y":2579970.6699999999}},{"attributes":{"ID":314035,"DIS_CODE":0,"TOWNNAME":"新營區","LI":"太南里","LIN":" ","STREET":" ","SECT":" ","MAREA":"太子宮","LANE":" ","ALLEY":" ","HOUSE_NO":"１６７號","E_COORD97":176295.42999999999,"N_COORD97":2576959.3999999999,"ADDRESS":"太子宮１６７號","OBJECTID":314027},"geometry":{"x":176295.4299999997,"y":2576959.4000000041}},{"attributes":{"ID":314036,"DIS_CODE":0,"TOWNNAME":"新營區","LI":"土庫里","LIN":"4鄰","STREET":" ","SECT":" ","MAREA":"土庫","LANE":" ","ALLEY":" ","HOUSE_NO":"３５號","E_COORD97":183279.59,"N_COORD97":2580023.8399999999,"ADDRESS":"土庫３５號","OBJECTID":314028},"geometry":{"x":183279.59000000078,"y":2580023.8399999999}},{"attributes":{"ID":314037,"DIS_CODE":0,"TOWNNAME":"新營區","LI":"民榮里","LIN":" ","STREET":"裕民路","SECT":" ","MAREA":" ","LANE":"５８巷","ALLEY":" ","HOUSE_NO":"３８之２號","E_COORD97":179034.42999999999,"N_COORD97":2577853.1000000001,"ADDRESS":"裕民路５８巷３８之２號","OBJECTID":314029},"geometry":{"x":179034.43000000063,"y":2577853.1000000015}},{"attributes":{"ID":314038,"DIS_CODE":0,"TOWNNAME":"新營區","LI":"民生里","LIN":"24鄰","STREET":"民生路","SECT":" ","MAREA":" ","LANE":"１３９巷","ALLEY":" ","HOUSE_NO":"９號","E_COORD97":179158.81,"N_COORD97":2578576.71,"ADDRESS":"民生路１３９巷９號","OBJECTID":314030},"geometry":{"x":179158.81000000052,"y":2578576.7100000028}},{"attributes":{"ID":314039,"DIS_CODE":0,"TOWNNAME":"新營區","LI":"新北里","LIN":"14鄰","STREET":"南新街","SECT":" ","MAREA":" ","LANE":"１３巷","ALLEY":" ","HOUSE_NO":"２號","E_COORD97":179338.10999999999,"N_COORD97":2578831.6800000002,"ADDRESS":"南新街１３巷２號","OBJECTID":314031},"geometry":{"x":179338.11000000034,"y":2578831.6800000034}},{"attributes":{"ID":314040,"DIS_CODE":0,"TOWNNAME":"新營區","LI":"興業里","LIN":" ","STREET":"中興路","SECT":" ","MAREA":" ","LANE":"１３巷","ALLEY":" ","HOUSE_NO":"３２之１號","E_COORD97":180282.88,"N_COORD97":2577960.1299999999,"ADDRESS":"中興路１３巷３２之１號","OBJECTID":314032},"geometry":{"x":180282.88000000082,"y":2577960.1300000027}},{"attributes":{"ID":314041,"DIS_CODE":0,"TOWNNAME":"北區","LI":"大港里","LIN":"7鄰","STREET":"大興街","SECT":" ","MAREA":" ","LANE":"２２６巷","ALLEY":" ","HOUSE_NO":"２５號","E_COORD97":166728.19,"N_COORD97":2545793.7799999998,"ADDRESS":"大興街２２６巷２５號","OBJECTID":314033},"geometry":{"x":166728.19000000134,"y":2545793.7799999993}},{"attributes":{"ID":314042,"DIS_CODE":0,"TOWNNAME":"北區","LI":"大港里","LIN":"7鄰","STREET":"大興街","SECT":" ","MAREA":" ","LANE":"２２６巷","ALLEY":" ","HOUSE_NO":"２７號","E_COORD97":166728.37,"N_COORD97":2545799.2999999998,"ADDRESS":"大興街２２６巷２７號","OBJECTID":314034},"geometry":{"x":166728.37000000104,"y":2545799.2999999989}},{"attributes":{"ID":314043,"DIS_CODE":0,"TOWNNAME":"北區","LI":"大港里","LIN":"7鄰","STREET":"大興街","SECT":" ","MAREA":" ","LANE":"２２６巷","ALLEY":" ","HOUSE_NO":"２９號","E_COORD97":166727.48000000001,"N_COORD97":2545804.9900000002,"ADDRESS":"大興街２２６巷２９號","OBJECTID":314035},"geometry":{"x":166727.48000000138,"y":2545804.9900000021}},{"attributes":{"ID":314044,"DIS_CODE":0,"TOWNNAME":"北區","LI":"大港里","LIN":"7鄰","STREET":"大興街","SECT":" ","MAREA":" ","LANE":"２２６巷","ALLEY":" ","HOUSE_NO":"３１號","E_COORD97":166727.29999999999,"N_COORD97":2545809.0800000001,"ADDRESS":"大興街２２６巷３１號","OBJECTID":314036},"geometry":{"x":166727.29999999981,"y":2545809.0800000001}},{"attributes":{"ID":314045,"DIS_CODE":0,"TOWNNAME":"新營區","LI":"民權里","LIN":"17鄰","STREET":"博愛街","SECT":" ","MAREA":" ","LANE":" ","ALLEY":" ","HOUSE_NO":"９９號","E_COORD97":179765.51000000001,"N_COORD97":2578128.6299999999,"ADDRESS":"博愛街９９號","OBJECTID":314037},"geometry":{"x":179765.50999999978,"y":2578128.629999999}},{"attributes":{"ID":314046,"DIS_CODE":0,"TOWNNAME":"新營區","LI":"三仙里","LIN":"17鄰","STREET":"三民路","SECT":" ","MAREA":" ","LANE":" ","ALLEY":" ","HOUSE_NO":"１０１之１９號","E_COORD97":179592.53,"N_COORD97":2578396.4199999999,"ADDRESS":"三民路１０１之１９號","OBJECTID":314038},"geometry":{"x":179592.53000000026,"y":2578396.4200000037}},{"attributes":{"ID":314047,"DIS_CODE":0,"TOWNNAME":"南區","LI":"新興里","LIN":"17鄰","STREET":"三官路","SECT":" ","MAREA":" ","LANE":" ","ALLEY":" ","HOUSE_NO":"６９號","E_COORD97":167362.01999999999,"N_COORD97":2542270.9500000002,"ADDRESS":"三官路６９號","OBJECTID":314039},"geometry":{"x":167362.02000000048,"y":2542270.950000003}},{"attributes":{"ID":314048,"DIS_CODE":0,"TOWNNAME":"北區","LI":"小康里","LIN":"17鄰","STREET":"大武街","SECT":" ","MAREA":" ","LANE":" ","ALLEY":" ","HOUSE_NO":"３９９號","E_COORD97":169701.29000000001,"N_COORD97":2546501.7400000002,"ADDRESS":"大武街３９９號","OBJECTID":314040},"geometry":{"x":169701.29000000004,"y":2546501.7400000021}},{"attributes":{"ID":314049,"DIS_CODE":0,"TOWNNAME":"北區","LI":"小康里","LIN":"17鄰","STREET":"大武街","SECT":" ","MAREA":" ","LANE":" ","ALLEY":" ","HOUSE_NO":"３９９號之１","E_COORD97":169704.69,"N_COORD97":2546498.96,"ADDRESS":"大武街３９９號之１","OBJECTID":314041},"geometry":{"x":169704.69000000134,"y":2546498.9600000009}},{"attributes":{"ID":314050,"DIS_CODE":0,"TOWNNAME":"新營區","LI":"護鎮里","LIN":"2鄰","STREET":" ","SECT":" ","MAREA":"後鎮","LANE":" ","ALLEY":" ","HOUSE_NO":"１６號之９","E_COORD97":179347.14477000001,"N_COORD97":2580988.69141,"ADDRESS":"後鎮１６之９號","OBJECTID":314042},"geometry":{"x":179347.14477000013,"y":2580988.6914100014}},{"attributes":{"ID":314051,"DIS_CODE":0,"TOWNNAME":"新營區","LI":"護鎮里","LIN":"2鄰","STREET":" ","SECT":" ","MAREA":"後鎮","LANE":" ","ALLEY":" ","HOUSE_NO":"１６之１０號","E_COORD97":179346.50868999999,"N_COORD97":2580980.0130799999,"ADDRESS":"後鎮１６之１０號","OBJECTID":314043},"geometry":{"x":179346.50869000144,"y":2580980.0130800009}},{"attributes":{"ID":314052,"DIS_CODE":0,"TOWNNAME":"新營區","LI":"護鎮里","LIN":"1鄰","STREET":" ","SECT":" ","MAREA":"後鎮","LANE":" ","ALLEY":" ","HOUSE_NO":"５號之６","E_COORD97":179669.84637000001,"N_COORD97":2580945.9347600001,"ADDRESS":"後鎮５之６號","OBJECTID":314044},"geometry":{"x":179669.84637000132,"y":2580945.9347600024}},{"attributes":{"ID":314053,"DIS_CODE":0,"TOWNNAME":"歸仁區","LI":"六甲里","LIN":"41鄰","STREET":"民生十二街","SECT":" ","MAREA":" ","LANE":"２７巷","ALLEY":" ","HOUSE_NO":"１３號","E_COORD97":176049,"N_COORD97":2539390.29,"ADDRESS":"民生十二街２７巷１３號","OBJECTID":314045},"geometry":{"x":176049.00000000093,"y":2539390.2900000028}},{"attributes":{"ID":314054,"DIS_CODE":0,"TOWNNAME":"歸仁區","LI":"七甲里","LIN":"4鄰","STREET":"中正北路","SECT":"二段","MAREA":" ","LANE":"４７０巷","ALLEY":" ","HOUSE_NO":"３９號","E_COORD97":177545.76999999999,"N_COORD97":2543157.2599999998,"ADDRESS":"中正北路二段４７０巷３９號","OBJECTID":314046},"geometry":{"x":177545.76999999955,"y":2543157.2599999998}},{"attributes":{"ID":314055,"DIS_CODE":0,"TOWNNAME":"歸仁區","LI":"七甲里","LIN":"4鄰","STREET":"中正北路","SECT":"二段","MAREA":" ","LANE":"４７０巷","ALLEY":" ","HOUSE_NO":"７號","E_COORD97":177499.51999999999,"N_COORD97":2543180.2599999998,"ADDRESS":"中正北路二段４７０巷７號","OBJECTID":314047},"geometry":{"x":177499.52000000048,"y":2543180.2599999998}},{"attributes":{"ID":314056,"DIS_CODE":0,"TOWNNAME":"歸仁區","LI":"大廟里","LIN":"24鄰","STREET":"大廟一街","SECT":" ","MAREA":" ","LANE":"１５６巷","ALLEY":" ","HOUSE_NO":"２５號","E_COORD97":175573.87,"N_COORD97":2543773.25,"ADDRESS":"大廟一街１５６巷２５號","OBJECTID":314048},"geometry":{"x":175573.87000000104,"y":2543773.2500000019}},{"attributes":{"ID":314057,"DIS_CODE":0,"TOWNNAME":"歸仁區","LI":"七甲里","LIN":"4鄰","STREET":"中正北路","SECT":"二段","MAREA":" ","LANE":"４７０巷","ALLEY":" ","HOUSE_NO":"２７號","E_COORD97":177509.97,"N_COORD97":2543173.2599999998,"ADDRESS":"中正北路二段４７０巷２７號","OBJECTID":314049},"geometry":{"x":177509.97000000067,"y":2543173.2599999998}},{"attributes":{"ID":314058,"DIS_CODE":0,"TOWNNAME":"歸仁區","LI":"武東里","LIN":"13鄰","STREET":" ","SECT":" ","MAREA":"明德新村","LANE":" ","ALLEY":" ","HOUSE_NO":"２３５號","E_COORD97":175091.04000000001,"N_COORD97":2536092.27,"ADDRESS":"明德新村２３５號","OBJECTID":314050},"geometry":{"x":175091.04000000097,"y":2536092.2700000014}},{"attributes":{"ID":314059,"DIS_CODE":0,"TOWNNAME":"歸仁區","LI":"六甲里","LIN":"26鄰","STREET":"六甲路","SECT":" ","MAREA":" ","LANE":"２２６巷","ALLEY":" ","HOUSE_NO":"８號","E_COORD97":175962.17000000001,"N_COORD97":2539234.25,"ADDRESS":"六甲路２２６巷８號","OBJECTID":314051},"geometry":{"x":175962.16999999993,"y":2539234.25}},{"attributes":{"ID":314060,"DIS_CODE":0,"TOWNNAME":"歸仁區","LI":"八甲里","LIN":"14鄰","STREET":"大仁七街","SECT":" ","MAREA":" ","LANE":" ","ALLEY":" ","HOUSE_NO":"６２號","E_COORD97":178088.82000000001,"N_COORD97":2541742.6099999999,"ADDRESS":"大仁七街６２號","OBJECTID":314052},"geometry":{"x":178088.8200000003,"y":2541742.6100000013}},{"attributes":{"ID":314061,"DIS_CODE":0,"TOWNNAME":"歸仁區","LI":"大潭里","LIN":"4鄰","STREET":"大潭一街","SECT":" ","MAREA":" ","LANE":" ","ALLEY":" ","HOUSE_NO":"９８號","E_COORD97":175292.47,"N_COORD97":2534554.25,"ADDRESS":"大潭一街９８號","OBJECTID":314053},"geometry":{"x":175292.4700000016,"y":2534554.2500000019}},{"attributes":{"ID":314062,"DIS_CODE":0,"TOWNNAME":"歸仁區","LI":"文化里","LIN":"5鄰","STREET":"國光街","SECT":" ","MAREA":" ","LANE":" ","ALLEY":" ","HOUSE_NO":"１８９號","E_COORD97":177341.85999999999,"N_COORD97":2541326.3300000001,"ADDRESS":"國光街１８９號","OBJECTID":314054},"geometry":{"x":177341.86000000127,"y":2541326.3300000001}},{"attributes":{"ID":314063,"DIS_CODE":0,"TOWNNAME":"歸仁區","LI":"文化里","LIN":"26鄰","STREET":"民權北路","SECT":" ","MAREA":" ","LANE":" ","ALLEY":" ","HOUSE_NO":"２００號","E_COORD97":177036.29999999999,"N_COORD97":2541480.3300000001,"ADDRESS":"民權北路２００號","OBJECTID":314055},"geometry":{"x":177036.30000000168,"y":2541480.3300000019}},{"attributes":{"ID":314064,"DIS_CODE":0,"TOWNNAME":"歸仁區","LI":"文化里","LIN":"26鄰","STREET":"民權北路","SECT":" ","MAREA":" ","LANE":" ","ALLEY":" ","HOUSE_NO":"２１４號","E_COORD97":177037.5,"N_COORD97":2541508.3300000001,"ADDRESS":"民權北路２１４號","OBJECTID":314056},"geometry":{"x":177037.50000000093,"y":2541508.3300000001}},{"attributes":{"ID":314065,"DIS_CODE":0,"TOWNNAME":"歸仁區","LI":"八甲里","LIN":"20鄰","STREET":"大仁街","SECT":" ","MAREA":" ","LANE":" ","ALLEY":" ","HOUSE_NO":"３５６號","E_COORD97":178184.89000000001,"N_COORD97":2541460.25,"ADDRESS":"大仁街３５６號","OBJECTID":314057},"geometry":{"x":178184.89000000153,"y":2541460.2500000019}},{"attributes":{"ID":314066,"DIS_CODE":0,"TOWNNAME":"歸仁區","LI":"文化里","LIN":"26鄰","STREET":"民權北路","SECT":" ","MAREA":" ","LANE":" ","ALLEY":" ","HOUSE_NO":"２１８號","E_COORD97":177037.5,"N_COORD97":2541517.3300000001,"ADDRESS":"民權北路２１８號","OBJECTID":314058},"geometry":{"x":177037.50000000093,"y":2541517.3300000019}},{"attributes":{"ID":314067,"DIS_CODE":0,"TOWNNAME":"歸仁區","LI":"八甲里","LIN":"25鄰","STREET":"大仁五街","SECT":" ","MAREA":" ","LANE":" ","ALLEY":" ","HOUSE_NO":"５３號","E_COORD97":178063.69,"N_COORD97":2541436.25,"ADDRESS":"大仁五街５３號","OBJECTID":314059},"geometry":{"x":178063.69000000134,"y":2541436.2500000019}},{"attributes":{"ID":314068,"DIS_CODE":0,"TOWNNAME":"歸仁區","LI":"六甲里","LIN":"4鄰","STREET":"中正十五街","SECT":" ","MAREA":" ","LANE":" ","ALLEY":" ","HOUSE_NO":"５號","E_COORD97":176454.85999999999,"N_COORD97":2539628.25,"ADDRESS":"中正十五街５號","OBJECTID":314060},"geometry":{"x":176454.8600000022,"y":2539628.25}},{"attributes":{"ID":314069,"DIS_CODE":0,"TOWNNAME":"歸仁區","LI":"八甲里","LIN":"18鄰","STREET":"大仁八街","SECT":" ","MAREA":" ","LANE":" ","ALLEY":" ","HOUSE_NO":"２９號","E_COORD97":177999.48999999999,"N_COORD97":2541500.25,"ADDRESS":"大仁八街２９號","OBJECTID":314061},"geometry":{"x":177999.49000000022,"y":2541500.2500000037}},{"attributes":{"ID":314070,"DIS_CODE":0,"TOWNNAME":"新營區","LI":"舊部里","LIN":"9鄰","STREET":"後鎮","SECT":" ","MAREA":" ","LANE":" ","ALLEY":" ","HOUSE_NO":"１０３之６號","E_COORD97":178083.689526,"N_COORD97":2580766.8648600001,"ADDRESS":"後鎮１０３之６號","OBJECTID":314062},"geometry":{"x":178083.68952600006,"y":2580766.8648650013}},{"attributes":{"ID":314071,"DIS_CODE":0,"TOWNNAME":"歸仁區","LI":"七甲里","LIN":"4鄰","STREET":"中正北路","SECT":"二段","MAREA":" ","LANE":"４７０巷","ALLEY":" ","HOUSE_NO":"５號","E_COORD97":177498.42000000001,"N_COORD97":2543175.2599999998,"ADDRESS":"中正北路二段４７０巷５號","OBJECTID":314063},"geometry":{"x":177498.42000000179,"y":2543175.2600000016}},{"attributes":{"ID":314072,"DIS_CODE":0,"TOWNNAME":"歸仁區","LI":"大廟里","LIN":"4鄰","STREET":"和順路","SECT":"二段","MAREA":" ","LANE":"６１巷","ALLEY":" ","HOUSE_NO":"３０號","E_COORD97":176425.64000000001,"N_COORD97":2543519.2799999998,"ADDRESS":"和順路二段６１巷３０號","OBJECTID":314064},"geometry":{"x":176425.6400000006,"y":2543519.2799999993}},{"attributes":{"ID":314073,"DIS_CODE":0,"TOWNNAME":"歸仁區","LI":"文化里","LIN":"4鄰","STREET":"民權一街","SECT":" ","MAREA":" ","LANE":"３８巷","ALLEY":" ","HOUSE_NO":"１２號","E_COORD97":177264.60000000001,"N_COORD97":2541308.3300000001,"ADDRESS":"民權一街３８巷１２號","OBJECTID":314065},"geometry":{"x":177264.60000000149,"y":2541308.3300000001}},{"attributes":{"ID":314074,"DIS_CODE":0,"TOWNNAME":"歸仁區","LI":"文化里","LIN":"4鄰","STREET":"文化三街","SECT":" ","MAREA":" ","LANE":"５６巷","ALLEY":" ","HOUSE_NO":"２號","E_COORD97":177241.85999999999,"N_COORD97":2541309.3399999999,"ADDRESS":"文化三街５６巷２號","OBJECTID":314066},"geometry":{"x":177241.86000000127,"y":2541309.339999998}},{"attributes":{"ID":314075,"DIS_CODE":0,"TOWNNAME":"歸仁區","LI":"八甲里","LIN":"18鄰","STREET":"忠孝北路","SECT":" ","MAREA":" ","LANE":"２８４巷","ALLEY":" ","HOUSE_NO":"１２號","E_COORD97":177977.78,"N_COORD97":2541475.25,"ADDRESS":"忠孝北路２８４巷１２號","OBJECTID":314067},"geometry":{"x":177977.78000000212,"y":2541475.25}},{"attributes":{"ID":314076,"DIS_CODE":0,"TOWNNAME":"歸仁區","LI":"七甲里","LIN":"4鄰","STREET":"中正北路","SECT":"二段","MAREA":" ","LANE":"４７０巷","ALLEY":" ","HOUSE_NO":"１９號","E_COORD97":177513.17000000001,"N_COORD97":2543196.2599999998,"ADDRESS":"中正北路二段４７０巷１９號","OBJECTID":314068},"geometry":{"x":177513.16999999993,"y":2543196.2600000016}},{"attributes":{"ID":314077,"DIS_CODE":0,"TOWNNAME":"歸仁區","LI":"大廟里","LIN":"4鄰","STREET":"和順路","SECT":"二段","MAREA":" ","LANE":"８７巷","ALLEY":" ","HOUSE_NO":"８２號","E_COORD97":176260.92000000001,"N_COORD97":2543488.1400000001,"ADDRESS":"和順路二段８７巷８２號","OBJECTID":314069},"geometry":{"x":176260.92000000179,"y":2543488.1400000043}},{"attributes":{"ID":314078,"DIS_CODE":0,"TOWNNAME":"歸仁區","LI":"大廟里","LIN":"4鄰","STREET":"和順路","SECT":"二段","MAREA":" ","LANE":"４１巷","ALLEY":" ","HOUSE_NO":"３６號","E_COORD97":176476.94,"N_COORD97":2543528.2799999998,"ADDRESS":"和順路二段４１巷３６號","OBJECTID":314070},"geometry":{"x":176476.94000000134,"y":2543528.2800000012}},{"attributes":{"ID":314079,"DIS_CODE":0,"TOWNNAME":"歸仁區","LI":"大廟里","LIN":"17鄰","STREET":"大廟五街","SECT":" ","MAREA":" ","LANE":"１８９巷","ALLEY":" ","HOUSE_NO":"２６號","E_COORD97":176314.17000000001,"N_COORD97":2544825.25,"ADDRESS":"大廟五街１８９巷２６號","OBJECTID":314071},"geometry":{"x":176314.17000000086,"y":2544825.25}},{"attributes":{"ID":314080,"DIS_CODE":0,"TOWNNAME":"北區","LI":"大港里","LIN":"7鄰","STREET":"大興街","SECT":" ","MAREA":" ","LANE":"２２６巷","ALLEY":" ","HOUSE_NO":"３３號","E_COORD97":166727.12,"N_COORD97":2545812.46,"ADDRESS":"大興街２２６巷３３號","OBJECTID":314072},"geometry":{"x":166727.12000000011,"y":2545812.4600000046}},{"attributes":{"ID":314081,"DIS_CODE":0,"TOWNNAME":"北區","LI":"小康里","LIN":"17鄰","STREET":"大武街","SECT":" ","MAREA":" ","LANE":" ","ALLEY":" ","HOUSE_NO":"３９９號之１０","E_COORD97":169746.20999999999,"N_COORD97":2546492.2799999998,"ADDRESS":"大武街３９９號之１０","OBJECTID":314073},"geometry":{"x":169746.21000000089,"y":2546492.2799999993}},{"attributes":{"ID":314082,"DIS_CODE":0,"TOWNNAME":"北區","LI":"小康里","LIN":"17鄰","STREET":"大武街","SECT":" ","MAREA":" ","LANE":" ","ALLEY":" ","HOUSE_NO":"３９９號之２","E_COORD97":169709.48999999999,"N_COORD97":2546498.96,"ADDRESS":"大武街３９９號之２","OBJECTID":314074},"geometry":{"x":169709.49000000115,"y":2546498.9600000009}},{"attributes":{"ID":314083,"DIS_CODE":0,"TOWNNAME":"北區","LI":"小康里","LIN":"17鄰","STREET":"大武街","SECT":" ","MAREA":" ","LANE":" ","ALLEY":" ","HOUSE_NO":"４０３號之３","E_COORD97":169766.54000000001,"N_COORD97":2546479.1800000002,"ADDRESS":"大武街４０３號之３","OBJECTID":314075},"geometry":{"x":169766.54000000097,"y":2546479.1799999997}},{"attributes":{"ID":314084,"DIS_CODE":0,"TOWNNAME":"北區","LI":"小康里","LIN":"17鄰","STREET":"大武街","SECT":" ","MAREA":" ","LANE":" ","ALLEY":" ","HOUSE_NO":"４０３號之４","E_COORD97":169770.85999999999,"N_COORD97":2546477.98,"ADDRESS":"大武街４０３號之４","OBJECTID":314076},"geometry":{"x":169770.8600000022,"y":2546477.9800000004}},{"attributes":{"ID":314085,"DIS_CODE":0,"TOWNNAME":"南區","LI":"新興里","LIN":"17鄰","STREET":"三官路","SECT":" ","MAREA":" ","LANE":" ","ALLEY":" ","HOUSE_NO":"７９號","E_COORD97":167367.91,"N_COORD97":2542250.29,"ADDRESS":"三官路７９號","OBJECTID":314077},"geometry":{"x":167367.91000000015,"y":2542250.2899999991}},{"attributes":{"ID":314086,"DIS_CODE":0,"TOWNNAME":"南區","LI":"新興里","LIN":"17鄰","STREET":"三官路","SECT":" ","MAREA":" ","LANE":" ","ALLEY":" ","HOUSE_NO":"１０１號","E_COORD97":167360.73000000001,"N_COORD97":2542179.5499999998,"ADDRESS":"三官路１０１號","OBJECTID":314078},"geometry":{"x":167360.73000000045,"y":2542179.5500000007}},{"attributes":{"ID":314087,"DIS_CODE":0,"TOWNNAME":"南區","LI":"新興里","LIN":"17鄰","STREET":"三官路","SECT":" ","MAREA":" ","LANE":" ","ALLEY":" ","HOUSE_NO":"１０３號","E_COORD97":167359.92999999999,"N_COORD97":2542174.5499999998,"ADDRESS":"三官路１０３號","OBJECTID":314079},"geometry":{"x":167359.93000000063,"y":2542174.5500000026}},{"attributes":{"ID":314088,"DIS_CODE":0,"TOWNNAME":"南區","LI":"新興里","LIN":"17鄰","STREET":"三官路","SECT":" ","MAREA":" ","LANE":" ","ALLEY":" ","HOUSE_NO":"１０５號","E_COORD97":167357.92999999999,"N_COORD97":2542169.75,"ADDRESS":"三官路１０５號","OBJECTID":314080},"geometry":{"x":167357.93000000063,"y":2542169.75}},{"attributes":{"ID":314089,"DIS_CODE":0,"TOWNNAME":"南區","LI":"新興里","LIN":"17鄰","STREET":"三官路","SECT":" ","MAREA":" ","LANE":" ","ALLEY":" ","HOUSE_NO":"１０９號","E_COORD97":167353.92999999999,"N_COORD97":2542159.8599999999,"ADDRESS":"三官路１０９號","OBJECTID":314081},"geometry":{"x":167353.92999999877,"y":2542159.8600000031}},{"attributes":{"ID":314090,"DIS_CODE":0,"TOWNNAME":"南區","LI":"新興里","LIN":"17鄰","STREET":"三官路","SECT":" ","MAREA":" ","LANE":" ","ALLEY":" ","HOUSE_NO":"１１１號","E_COORD97":167351.13,"N_COORD97":2542152.8700000001,"ADDRESS":"三官路１１１號","OBJECTID":314082},"geometry":{"x":167351.13000000175,"y":2542152.8700000029}},{"attributes":{"ID":314091,"DIS_CODE":0,"TOWNNAME":"歸仁區","LI":"文化里","LIN":"7鄰","STREET":"文化三街","SECT":" ","MAREA":" ","LANE":" ","ALLEY":" ","HOUSE_NO":"６號","E_COORD97":177221.20999999999,"N_COORD97":2541222.3399999999,"ADDRESS":"文化三街６號","OBJECTID":314083},"geometry":{"x":177221.20999999996,"y":2541222.3400000017}},{"attributes":{"ID":314092,"DIS_CODE":0,"TOWNNAME":"新營區","LI":"護鎮里","LIN":"9鄰","STREET":" ","SECT":" ","MAREA":"後鎮","LANE":" ","ALLEY":" ","HOUSE_NO":"１０３號","E_COORD97":178051.88582,"N_COORD97":2580834.1748199998,"ADDRESS":"後鎮１０３號","OBJECTID":314084},"geometry":{"x":178051.88582000136,"y":2580834.1748200003}},{"attributes":{"ID":314093,"DIS_CODE":0,"TOWNNAME":"歸仁區","LI":"大廟里","LIN":"4鄰","STREET":"和順路","SECT":"二段","MAREA":" ","LANE":"８７巷","ALLEY":" ","HOUSE_NO":"７８號","E_COORD97":176270.22,"N_COORD97":2543495.1400000001,"ADDRESS":"和順路二段８７巷７８號","OBJECTID":314085},"geometry":{"x":176270.21999999974,"y":2543495.1400000043}},{"attributes":{"ID":314094,"DIS_CODE":0,"TOWNNAME":"歸仁區","LI":"大廟里","LIN":"5鄰","STREET":"和順路","SECT":"二段","MAREA":" ","LANE":"１５１巷","ALLEY":" ","HOUSE_NO":"２８號","E_COORD97":176160.95000000001,"N_COORD97":2543524.98,"ADDRESS":"和順路二段１５１巷２８號","OBJECTID":314086},"geometry":{"x":176160.95000000205,"y":2543524.9800000004}},{"attributes":{"ID":314095,"DIS_CODE":0,"TOWNNAME":"歸仁區","LI":"六甲里","LIN":"26鄰","STREET":"六甲路","SECT":" ","MAREA":" ","LANE":"２２６巷","ALLEY":" ","HOUSE_NO":"２號","E_COORD97":175962.17000000001,"N_COORD97":2539224.25,"ADDRESS":"六甲路２２６巷２號","OBJECTID":314087},"geometry":{"x":175962.16999999993,"y":2539224.25}},{"attributes":{"ID":314096,"DIS_CODE":0,"TOWNNAME":"歸仁區","LI":"文化里","LIN":"13鄰","STREET":"大德路","SECT":" ","MAREA":" ","LANE":"１９３巷","ALLEY":" ","HOUSE_NO":"３７號","E_COORD97":177409.01999999999,"N_COORD97":2541482.3300000001,"ADDRESS":"大德路１９３巷３７號","OBJECTID":314088},"geometry":{"x":177409.01999999862,"y":2541482.3300000001}},{"attributes":{"ID":314097,"DIS_CODE":0,"TOWNNAME":"歸仁區","LI":"大廟里","LIN":"24鄰","STREET":"大廟一街","SECT":" ","MAREA":" ","LANE":"２２２巷","ALLEY":" ","HOUSE_NO":"６號","E_COORD97":175566.82000000001,"N_COORD97":2543635.25,"ADDRESS":"大廟一街２２２巷６號","OBJECTID":314089},"geometry":{"x":175566.82000000216,"y":2543635.25}},{"attributes":{"ID":314098,"DIS_CODE":0,"TOWNNAME":"歸仁區","LI":"文化里","LIN":"4鄰","STREET":"民權一街","SECT":" ","MAREA":" ","LANE":"３８巷","ALLEY":" ","HOUSE_NO":"６號","E_COORD97":177282.85000000001,"N_COORD97":2541314.3300000001,"ADDRESS":"民權一街３８巷６號","OBJECTID":314090},"geometry":{"x":177282.84999999963,"y":2541314.3300000019}},{"attributes":{"ID":314099,"DIS_CODE":0,"TOWNNAME":"歸仁區","LI":"文化里","LIN":"5鄰","STREET":"民權一街","SECT":" ","MAREA":" ","LANE":"３８巷","ALLEY":" ","HOUSE_NO":"７號","E_COORD97":177313.64999999999,"N_COORD97":2541316.3300000001,"ADDRESS":"民權一街３８巷７號","OBJECTID":314091},"geometry":{"x":177313.65000000037,"y":2541316.3299999982}},{"attributes":{"ID":314100,"DIS_CODE":0,"TOWNNAME":"歸仁區","LI":"武東里","LIN":"13鄰","STREET":" ","SECT":" ","MAREA":"明德新村","LANE":" ","ALLEY":" ","HOUSE_NO":"２３４號","E_COORD97":175096.14000000001,"N_COORD97":2536092.27,"ADDRESS":"明德新村２３４號","OBJECTID":314092},"geometry":{"x":175096.14000000153,"y":2536092.2700000014}},{"attributes":{"ID":314101,"DIS_CODE":0,"TOWNNAME":"歸仁區","LI":"文化里","LIN":"4鄰","STREET":"民權一街","SECT":" ","MAREA":" ","LANE":"３８巷","ALLEY":" ","HOUSE_NO":"１４號","E_COORD97":177260.5,"N_COORD97":2541309.3300000001,"ADDRESS":"民權一街３８巷１４號","OBJECTID":314093},"geometry":{"x":177260.50000000186,"y":2541309.3300000001}},{"attributes":{"ID":314102,"DIS_CODE":0,"TOWNNAME":"歸仁區","LI":"大廟里","LIN":"24鄰","STREET":"和順路","SECT":"二段","MAREA":" ","LANE":" ","ALLEY":" ","HOUSE_NO":"３６０號","E_COORD97":175563.23999999999,"N_COORD97":2543585.2799999998,"ADDRESS":"和順路二段３６０號","OBJECTID":314094},"geometry":{"x":175563.24000000022,"y":2543585.2800000012}},{"attributes":{"ID":314103,"DIS_CODE":0,"TOWNNAME":"歸仁區","LI":"文化里","LIN":"7鄰","STREET":"文化三街","SECT":" ","MAREA":" ","LANE":" ","ALLEY":" ","HOUSE_NO":"４０號","E_COORD97":177222.85999999999,"N_COORD97":2541297.3399999999,"ADDRESS":"文化三街４０號","OBJECTID":314095},"geometry":{"x":177222.8600000022,"y":2541297.3400000017}},{"attributes":{"ID":314104,"DIS_CODE":0,"TOWNNAME":"歸仁區","LI":"大潭里","LIN":"4鄰","STREET":"大潭一街","SECT":" ","MAREA":" ","LANE":" ","ALLEY":" ","HOUSE_NO":"８４號","E_COORD97":175284.47,"N_COORD97":2534581.25,"ADDRESS":"大潭一街８４號","OBJECTID":314096},"geometry":{"x":175284.47000000067,"y":2534581.2500000019}},{"attributes":{"ID":314105,"DIS_CODE":0,"TOWNNAME":"歸仁區","LI":"八甲里","LIN":"13鄰","STREET":"大明二街","SECT":" ","MAREA":" ","LANE":" ","ALLEY":" ","HOUSE_NO":"２３號","E_COORD97":178005.62,"N_COORD97":2541926.6099999999,"ADDRESS":"大明二街２３號","OBJECTID":314097},"geometry":{"x":178005.61999999918,"y":2541926.6099999994}},{"attributes":{"ID":314106,"DIS_CODE":0,"TOWNNAME":"歸仁區","LI":"六甲里","LIN":"4鄰","STREET":"中正十五街","SECT":" ","MAREA":" ","LANE":" ","ALLEY":" ","HOUSE_NO":"１１號","E_COORD97":176455.01000000001,"N_COORD97":2539614.25,"ADDRESS":"中正十五街１１號","OBJECTID":314098},"geometry":{"x":176455.01000000164,"y":2539614.25}},{"attributes":{"ID":314107,"DIS_CODE":0,"TOWNNAME":"歸仁區","LI":"六甲里","LIN":"4鄰","STREET":"中正十五街","SECT":" ","MAREA":" ","LANE":" ","ALLEY":" ","HOUSE_NO":"１７號","E_COORD97":176453.58457100001,"N_COORD97":2539599.4831099999,"ADDRESS":"中正十五街１７號","OBJECTID":314099},"geometry":{"x":176453.58457100112,"y":2539599.4831100013}},{"attributes":{"ID":314108,"DIS_CODE":0,"TOWNNAME":"歸仁區","LI":"七甲里","LIN":"4鄰","STREET":"中正北路","SECT":"二段","MAREA":" ","LANE":" ","ALLEY":" ","HOUSE_NO":"４８０號","E_COORD97":177474.42000000001,"N_COORD97":2543198.2599999998,"ADDRESS":"中正北路二段４８０號","OBJECTID":314100},"geometry":{"x":177474.41999999993,"y":2543198.2600000035}},{"attributes":{"ID":314109,"DIS_CODE":0,"TOWNNAME":"歸仁區","LI":"八甲里","LIN":"20鄰","STREET":"大仁街","SECT":" ","MAREA":" ","LANE":" ","ALLEY":" ","HOUSE_NO":"２７２號","E_COORD97":178358.76999999999,"N_COORD97":2541247.1099999999,"ADDRESS":"大仁街２７２號","OBJECTID":314101},"geometry":{"x":178358.77000000048,"y":2541247.1100000013}},{"attributes":{"ID":314110,"DIS_CODE":0,"TOWNNAME":"歸仁區","LI":"八甲里","LIN":"25鄰","STREET":"忠孝北路","SECT":" ","MAREA":" ","LANE":" ","ALLEY":" ","HOUSE_NO":"２５８號","E_COORD97":178013.42999999999,"N_COORD97":2541365.25,"ADDRESS":"忠孝北路２５８號","OBJECTID":314102},"geometry":{"x":178013.43000000156,"y":2541365.2500000019}},{"attributes":{"ID":314111,"DIS_CODE":0,"TOWNNAME":"歸仁區","LI":"文化里","LIN":"25鄰","STREET":"民權北路","SECT":" ","MAREA":" ","LANE":" ","ALLEY":" ","HOUSE_NO":"１７６號","E_COORD97":177047.29999999999,"N_COORD97":2541430.3300000001,"ADDRESS":"民權北路１７６號","OBJECTID":314103},"geometry":{"x":177047.29999999981,"y":2541430.3300000001}},{"attributes":{"ID":314112,"DIS_CODE":0,"TOWNNAME":"歸仁區","LI":"六甲里","LIN":"4鄰","STREET":"中正十五街","SECT":" ","MAREA":" ","LANE":" ","ALLEY":" ","HOUSE_NO":"３７號","E_COORD97":176448.51000000001,"N_COORD97":2539555.25,"ADDRESS":"中正十五街３７號","OBJECTID":314104},"geometry":{"x":176448.51000000071,"y":2539555.2500000019}},{"attributes":{"ID":314113,"DIS_CODE":0,"TOWNNAME":"歸仁區","LI":"六甲里","LIN":"4鄰","STREET":"中正十五街","SECT":" ","MAREA":" ","LANE":" ","ALLEY":" ","HOUSE_NO":"２７號","E_COORD97":176451.70999999999,"N_COORD97":2539577.25,"ADDRESS":"中正十五街２７號","OBJECTID":314105},"geometry":{"x":176451.70999999996,"y":2539577.25}},{"attributes":{"ID":314114,"DIS_CODE":0,"TOWNNAME":"歸仁區","LI":"武東里","LIN":"13鄰","STREET":" ","SECT":" ","MAREA":"明德新村","LANE":" ","ALLEY":" ","HOUSE_NO":"２３２號","E_COORD97":175107.34,"N_COORD97":2536090.27,"ADDRESS":"明德新村２３２號","OBJECTID":314106},"geometry":{"x":175107.34000000078,"y":2536090.2699999996}},{"attributes":{"ID":314115,"DIS_CODE":0,"TOWNNAME":"新營區","LI":"護鎮里","LIN":"9鄰","STREET":" ","SECT":" ","MAREA":"後鎮","LANE":" ","ALLEY":" ","HOUSE_NO":"１０３之１０號","E_COORD97":178128.63876,"N_COORD97":2580769.6165300002,"ADDRESS":"後鎮１０３之１０號","OBJECTID":314107},"geometry":{"x":178128.6387600014,"y":2580769.616530003}},{"attributes":{"ID":314116,"DIS_CODE":0,"TOWNNAME":"新營區","LI":"護鎮里","LIN":"9鄰","STREET":" ","SECT":" ","MAREA":"後鎮","LANE":" ","ALLEY":" ","HOUSE_NO":"９７號之１３","E_COORD97":178966.77244,"N_COORD97":2580733.5273799999,"ADDRESS":"後鎮９７之１３號","OBJECTID":314108},"geometry":{"x":178966.77244000044,"y":2580733.5273800027}},{"attributes":{"ID":314117,"DIS_CODE":0,"TOWNNAME":"永康區","LI":"北灣里","LIN":"4鄰","STREET":"信義街","SECT":" ","MAREA":" ","LANE":"４４巷","ALLEY":" ","HOUSE_NO":"２６號","E_COORD97":175484.53,"N_COORD97":2545739.9100000001,"ADDRESS":"信義街４４巷２６號","OBJECTID":314109},"geometry":{"x":175484.53000000119,"y":2545739.9100000001}},{"attributes":{"ID":314118,"DIS_CODE":0,"TOWNNAME":"歸仁區","LI":"大廟里","LIN":"4鄰","STREET":"和順路","SECT":"二段","MAREA":" ","LANE":"８７巷","ALLEY":" ","HOUSE_NO":"７６號","E_COORD97":176280.42000000001,"N_COORD97":2543497.1400000001,"ADDRESS":"和順路二段８７巷７６號","OBJECTID":314110},"geometry":{"x":176280.41999999993,"y":2543497.1400000006}},{"attributes":{"ID":314119,"DIS_CODE":0,"TOWNNAME":"歸仁區","LI":"大廟里","LIN":"4鄰","STREET":"和順路","SECT":"二段","MAREA":" ","LANE":"８７巷","ALLEY":" ","HOUSE_NO":"４８號","E_COORD97":176287.62,"N_COORD97":2543503.1400000001,"ADDRESS":"和順路二段８７巷４８號","OBJECTID":314111},"geometry":{"x":176287.62000000104,"y":2543503.1400000025}},{"attributes":{"ID":314120,"DIS_CODE":0,"TOWNNAME":"歸仁區","LI":"七甲里","LIN":"5鄰","STREET":"中正北路","SECT":"二段","MAREA":" ","LANE":"４３２巷","ALLEY":" ","HOUSE_NO":"６號","E_COORD97":177512.32000000001,"N_COORD97":2543068.2599999998,"ADDRESS":"中正北路二段４３２巷６號","OBJECTID":314112},"geometry":{"x":177512.3200000003,"y":2543068.2599999998}},{"attributes":{"ID":314121,"DIS_CODE":0,"TOWNNAME":"歸仁區","LI":"八甲里","LIN":"25鄰","STREET":"忠孝北路","SECT":" ","MAREA":" ","LANE":"２６６巷","ALLEY":" ","HOUSE_NO":"１０號","E_COORD97":177994.98000000001,"N_COORD97":2541423.25,"ADDRESS":"忠孝北路２６６巷１０號","OBJECTID":314113},"geometry":{"x":177994.98000000045,"y":2541423.2500000019}},{"attributes":{"ID":314122,"DIS_CODE":0,"TOWNNAME":"新營區","LI":"民生里","LIN":" ","STREET":"進修街","SECT":" ","MAREA":" ","LANE":"２９巷","ALLEY":" ","HOUSE_NO":"１４之４號","E_COORD97":178989.29999999999,"N_COORD97":2578487.8799999999,"ADDRESS":"進修街２９巷１４之４號","OBJECTID":314114},"geometry":{"x":178989.30000000075,"y":2578487.8800000008}},{"attributes":{"ID":314123,"DIS_CODE":0,"TOWNNAME":"新營區","LI":"興業里","LIN":" ","STREET":"中興路","SECT":" ","MAREA":" ","LANE":"１３巷","ALLEY":" ","HOUSE_NO":"２２之１號","E_COORD97":180238.88,"N_COORD97":2577961.4399999999,"ADDRESS":"中興路１３巷２２之１號","OBJECTID":314115},"geometry":{"x":180238.87999999989,"y":2577961.4399999995}},{"attributes":{"ID":314124,"DIS_CODE":0,"TOWNNAME":"北區","LI":"大港里","LIN":"7鄰","STREET":"大興街","SECT":" ","MAREA":" ","LANE":"２２６巷","ALLEY":" ","HOUSE_NO":"３５號","E_COORD97":166726.41,"N_COORD97":2545816.3700000001,"ADDRESS":"大興街２２６巷３５號","OBJECTID":314116},"geometry":{"x":166726.41000000108,"y":2545816.3700000048}},{"attributes":{"ID":314125,"DIS_CODE":0,"TOWNNAME":"北區","LI":"大港里","LIN":"7鄰","STREET":"大興街","SECT":" ","MAREA":" ","LANE":"２２６巷","ALLEY":" ","HOUSE_NO":"３７號","E_COORD97":166725.16,"N_COORD97":2545820.6400000001,"ADDRESS":"大興街２２６巷３７號","OBJECTID":314117},"geometry":{"x":166725.16000000015,"y":2545820.6399999987}},{"attributes":{"ID":314126,"DIS_CODE":0,"TOWNNAME":"北區","LI":"大港里","LIN":"7鄰","STREET":"大興街","SECT":" ","MAREA":" ","LANE":"２２６巷","ALLEY":" ","HOUSE_NO":"３９號","E_COORD97":166724.63,"N_COORD97":2545824.5499999998,"ADDRESS":"大興街２２６巷３９號","OBJECTID":314118},"geometry":{"x":166724.63000000082,"y":2545824.5500000007}},{"attributes":{"ID":314127,"DIS_CODE":0,"TOWNNAME":"南區","LI":"新興里","LIN":"17鄰","STREET":"三官路","SECT":" ","MAREA":" ","LANE":" ","ALLEY":" ","HOUSE_NO":"１１３號","E_COORD97":167344.72,"N_COORD97":2542143.4700000002,"ADDRESS":"三官路１１３號","OBJECTID":314119},"geometry":{"x":167344.71999999974,"y":2542143.4700000044}},{"attributes":{"ID":314128,"DIS_CODE":0,"TOWNNAME":"南區","LI":"新興里","LIN":"17鄰","STREET":"三官路","SECT":" ","MAREA":" ","LANE":" ","ALLEY":" ","HOUSE_NO":"１１５號","E_COORD97":167343.32000000001,"N_COORD97":2542136.8799999999,"ADDRESS":"三官路１１５號","OBJECTID":314120},"geometry":{"x":167343.3200000003,"y":2542136.8800000008}},{"attributes":{"ID":314129,"DIS_CODE":0,"TOWNNAME":"南區","LI":"新興里","LIN":"17鄰","STREET":"三官路","SECT":" ","MAREA":" ","LANE":" ","ALLEY":" ","HOUSE_NO":"１１７號","E_COORD97":167338.72,"N_COORD97":2542128.2799999998,"ADDRESS":"三官路１１７號","OBJECTID":314121},"geometry":{"x":167338.72000000067,"y":2542128.2799999993}},{"attributes":{"ID":314130,"DIS_CODE":0,"TOWNNAME":"安平區","LI":"國平里","LIN":"17鄰","STREET":"健康二街","SECT":" ","MAREA":" ","LANE":" ","ALLEY":" ","HOUSE_NO":"５４號","E_COORD97":165187.06,"N_COORD97":2542892.3199999998,"ADDRESS":"健康二街５４號","OBJECTID":314122},"geometry":{"x":165187.06000000052,"y":2542892.3200000003}},{"attributes":{"ID":314131,"DIS_CODE":0,"TOWNNAME":"安平區","LI":"國平里","LIN":"17鄰","STREET":"健康二街","SECT":" ","MAREA":" ","LANE":" ","ALLEY":" ","HOUSE_NO":"５６號","E_COORD97":165187.85000000001,"N_COORD97":2542896.3599999999,"ADDRESS":"健康二街５６號","OBJECTID":314123},"geometry":{"x":165187.84999999963,"y":2542896.3600000013}},{"attributes":{"ID":314132,"DIS_CODE":0,"TOWNNAME":"安平區","LI":"國平里","LIN":"17鄰","STREET":"健康二街","SECT":" ","MAREA":" ","LANE":" ","ALLEY":" ","HOUSE_NO":"５８號","E_COORD97":165188.45000000001,"N_COORD97":2542901.1200000001,"ADDRESS":"健康二街５８號","OBJECTID":314124},"geometry":{"x":165188.45000000112,"y":2542901.120000001}},{"attributes":{"ID":314133,"DIS_CODE":0,"TOWNNAME":"安平區","LI":"國平里","LIN":"17鄰","STREET":"健康二街","SECT":" ","MAREA":" ","LANE":" ","ALLEY":" ","HOUSE_NO":"６０號","E_COORD97":165189.04999999999,"N_COORD97":2542905.48,"ADDRESS":"健康二街６０號","OBJECTID":314125},"geometry":{"x":165189.05000000075,"y":2542905.4800000004}},{"attributes":{"ID":314134,"DIS_CODE":0,"TOWNNAME":"新營區","LI":"護鎮里","LIN":"9鄰","STREET":"建國路","SECT":" ","MAREA":" ","LANE":"３１３巷","ALLEY":" ","HOUSE_NO":"３８號","E_COORD97":178291.47374099999,"N_COORD97":2580554.13998,"ADDRESS":"建國路３１３巷３８號","OBJECTID":314126},"geometry":{"x":178291.47374100052,"y":2580554.1399800014}},{"attributes":{"ID":314135,"DIS_CODE":0,"TOWNNAME":"柳營區","LI":"果毅里","LIN":"4鄰","STREET":" ","SECT":" ","MAREA":"果毅後","LANE":" ","ALLEY":" ","HOUSE_NO":"４６號","E_COORD97":185612.98999999999,"N_COORD97":2572944.2799999998,"ADDRESS":"果毅後４６號","OBJECTID":314127},"geometry":{"x":185612.99000000209,"y":2572944.2799999993}},{"attributes":{"ID":314136,"DIS_CODE":0,"TOWNNAME":"歸仁區","LI":"大廟里","LIN":"4鄰","STREET":"和順路","SECT":"二段","MAREA":" ","LANE":"１５１巷","ALLEY":" ","HOUSE_NO":"３７號","E_COORD97":176171.25,"N_COORD97":2543544.98,"ADDRESS":"和順路二段１５１巷３７號","OBJECTID":314128},"geometry":{"x":176171.25000000093,"y":2543544.9800000023}},{"attributes":{"ID":314137,"DIS_CODE":0,"TOWNNAME":"歸仁區","LI":"大廟里","LIN":"4鄰","STREET":"和順路","SECT":"二段","MAREA":" ","LANE":"８７巷","ALLEY":" ","HOUSE_NO":"３２號","E_COORD97":176252,"N_COORD97":2543540.98,"ADDRESS":"和順路二段８７巷３２號","OBJECTID":314129},"geometry":{"x":176252.00000000186,"y":2543540.9800000023}},{"attributes":{"ID":314138,"DIS_CODE":0,"TOWNNAME":"歸仁區","LI":"文化里","LIN":"13鄰","STREET":"大德路","SECT":" ","MAREA":" ","LANE":"１９３巷","ALLEY":" ","HOUSE_NO":"３５號","E_COORD97":177402.92000000001,"N_COORD97":2541482.3300000001,"ADDRESS":"大德路１９３巷３５號","OBJECTID":314130},"geometry":{"x":177402.91999999993,"y":2541482.3300000001}},{"attributes":{"ID":314139,"DIS_CODE":0,"TOWNNAME":"歸仁區","LI":"七甲里","LIN":"4鄰","STREET":"中正北路","SECT":"二段","MAREA":" ","LANE":"４７０巷","ALLEY":" ","HOUSE_NO":"１號","E_COORD97":177497.32000000001,"N_COORD97":2543164.2599999998,"ADDRESS":"中正北路二段４７０巷１號","OBJECTID":314131},"geometry":{"x":177497.3200000003,"y":2543164.2599999979}},{"attributes":{"ID":314140,"DIS_CODE":0,"TOWNNAME":"歸仁區","LI":"大廟里","LIN":"4鄰","STREET":"和順路","SECT":"二段","MAREA":" ","LANE":"１５１巷","ALLEY":" ","HOUSE_NO":"６３號","E_COORD97":176183.25,"N_COORD97":2543481.98,"ADDRESS":"和順路二段１５１巷６３號","OBJECTID":314132},"geometry":{"x":176183.25,"y":2543481.9800000004}},{"attributes":{"ID":314141,"DIS_CODE":0,"TOWNNAME":"歸仁區","LI":"八甲里","LIN":"4鄰","STREET":"大光街","SECT":" ","MAREA":" ","LANE":"９０巷","ALLEY":" ","HOUSE_NO":"２４號","E_COORD97":178028.92000000001,"N_COORD97":2541755.6099999999,"ADDRESS":"大光街９０巷２４號","OBJECTID":314133},"geometry":{"x":178028.92000000179,"y":2541755.6100000013}},{"attributes":{"ID":314142,"DIS_CODE":0,"TOWNNAME":"歸仁區","LI":"七甲里","LIN":"5鄰","STREET":"中正北路","SECT":"二段","MAREA":" ","LANE":"４５２巷","ALLEY":" ","HOUSE_NO":"７號","E_COORD97":177518.72,"N_COORD97":2543119.2599999998,"ADDRESS":"中正北路二段４５２巷７號","OBJECTID":314134},"geometry":{"x":177518.72000000067,"y":2543119.2599999998}},{"attributes":{"ID":314143,"DIS_CODE":0,"TOWNNAME":"北區","LI":"大港里","LIN":"7鄰","STREET":"大興街","SECT":" ","MAREA":" ","LANE":"２２６巷","ALLEY":" ","HOUSE_NO":"３號","E_COORD97":166734.78,"N_COORD97":2545743.27,"ADDRESS":"大興街２２６巷３號","OBJECTID":314135},"geometry":{"x":166734.78000000026,"y":2545743.2699999996}},{"attributes":{"ID":314144,"DIS_CODE":0,"TOWNNAME":"北區","LI":"大港里","LIN":"7鄰","STREET":"大興街","SECT":" ","MAREA":" ","LANE":"２２６巷","ALLEY":" ","HOUSE_NO":"５號","E_COORD97":166734.07000000001,"N_COORD97":2545747.8999999999,"ADDRESS":"大興街２２６巷５號","OBJECTID":314136},"geometry":{"x":166734.07000000123,"y":2545747.9000000041}},{"attributes":{"ID":314145,"DIS_CODE":0,"TOWNNAME":"安平區","LI":"國平里","LIN":"17鄰","STREET":"健康二街","SECT":" ","MAREA":" ","LANE":" ","ALLEY":" ","HOUSE_NO":"６２號","E_COORD97":165190.23999999999,"N_COORD97":2542909.8500000001,"ADDRESS":"健康二街６２號","OBJECTID":314137},"geometry":{"x":165190.24000000022,"y":2542909.8500000015}},{"attributes":{"ID":314146,"DIS_CODE":0,"TOWNNAME":"安平區","LI":"國平里","LIN":"17鄰","STREET":"健康二街","SECT":" ","MAREA":" ","LANE":" ","ALLEY":" ","HOUSE_NO":"６４號","E_COORD97":165191.23000000001,"N_COORD97":2542913.8199999998,"ADDRESS":"健康二街６４號","OBJECTID":314138},"geometry":{"x":165191.23000000045,"y":2542913.820000004}},{"attributes":{"ID":314147,"DIS_CODE":0,"TOWNNAME":"安平區","LI":"國平里","LIN":"17鄰","STREET":"健康二街","SECT":" ","MAREA":" ","LANE":" ","ALLEY":" ","HOUSE_NO":"６６號","E_COORD97":165192.22,"N_COORD97":2542918.5800000001,"ADDRESS":"健康二街６６號","OBJECTID":314139},"geometry":{"x":165192.21999999974,"y":2542918.5800000038}},{"attributes":{"ID":314148,"DIS_CODE":0,"TOWNNAME":"安平區","LI":"國平里","LIN":"17鄰","STREET":"健康二街","SECT":" ","MAREA":" ","LANE":" ","ALLEY":" ","HOUSE_NO":"６８號","E_COORD97":165193.01999999999,"N_COORD97":2542922.9399999999,"ADDRESS":"健康二街６８號","OBJECTID":314140},"geometry":{"x":165193.01999999955,"y":2542922.9400000013}},{"attributes":{"ID":314149,"DIS_CODE":0,"TOWNNAME":"安平區","LI":"國平里","LIN":"17鄰","STREET":"健康二街","SECT":" ","MAREA":" ","LANE":" ","ALLEY":" ","HOUSE_NO":"７０號","E_COORD97":165194.20999999999,"N_COORD97":2542926.5099999998,"ADDRESS":"健康二街７０號","OBJECTID":314141},"geometry":{"x":165194.20999999996,"y":2542926.5100000016}},{"attributes":{"ID":314150,"DIS_CODE":0,"TOWNNAME":"安平區","LI":"國平里","LIN":"17鄰","STREET":"健康二街","SECT":" ","MAREA":" ","LANE":" ","ALLEY":" ","HOUSE_NO":"７２號","E_COORD97":165195.39999999999,"N_COORD97":2542931.6699999999,"ADDRESS":"健康二街７２號","OBJECTID":314142},"geometry":{"x":165195.4000000013,"y":2542931.6700000018}},{"attributes":{"ID":314151,"DIS_CODE":0,"TOWNNAME":"安平區","LI":"國平里","LIN":"17鄰","STREET":"健康二街","SECT":" ","MAREA":" ","LANE":" ","ALLEY":" ","HOUSE_NO":"７６號","E_COORD97":165197.59,"N_COORD97":2542939.7999999998,"ADDRESS":"健康二街７６號","OBJECTID":314143},"geometry":{"x":165197.59000000078,"y":2542939.8000000007}},{"attributes":{"ID":314152,"DIS_CODE":0,"TOWNNAME":"安平區","LI":"國平里","LIN":"17鄰","STREET":"健康二街","SECT":" ","MAREA":" ","LANE":" ","ALLEY":" ","HOUSE_NO":"７８號","E_COORD97":165197.98000000001,"N_COORD97":2542944.1699999999,"ADDRESS":"健康二街７８號","OBJECTID":314144},"geometry":{"x":165197.98000000045,"y":2542944.1699999999}},{"attributes":{"ID":314153,"DIS_CODE":0,"TOWNNAME":"安平區","LI":"國平里","LIN":"17鄰","STREET":"健康二街","SECT":" ","MAREA":" ","LANE":" ","ALLEY":" ","HOUSE_NO":"８０號","E_COORD97":165198.78,"N_COORD97":2542948.9300000002,"ADDRESS":"健康二街８０號","OBJECTID":314145},"geometry":{"x":165198.78000000026,"y":2542948.9299999997}},{"attributes":{"ID":314154,"DIS_CODE":0,"TOWNNAME":"新營區","LI":"護鎮里","LIN":"2鄰","STREET":"建國路","SECT":" ","MAREA":" ","LANE":" ","ALLEY":" ","HOUSE_NO":"２４０號","E_COORD97":179378.3124,"N_COORD97":2581047.6405400001,"ADDRESS":"建國２４０號","OBJECTID":314146},"geometry":{"x":179378.31240000203,"y":2581047.6405399982}},{"attributes":{"ID":314155,"DIS_CODE":0,"TOWNNAME":"歸仁區","LI":"大廟里","LIN":"4鄰","STREET":"和順路","SECT":"二段","MAREA":" ","LANE":"８７巷","ALLEY":" ","HOUSE_NO":"１１０號","E_COORD97":176190.35000000001,"N_COORD97":2543466.98,"ADDRESS":"和順路二段８７巷１１０號","OBJECTID":314147},"geometry":{"x":176190.35000000056,"y":2543466.9800000023}},{"attributes":{"ID":314156,"DIS_CODE":0,"TOWNNAME":"歸仁區","LI":"六甲里","LIN":"26鄰","STREET":"六甲路","SECT":" ","MAREA":" ","LANE":"２２６巷","ALLEY":" ","HOUSE_NO":"２６號","E_COORD97":175983.62,"N_COORD97":2539276.25,"ADDRESS":"六甲路２２６巷２６號","OBJECTID":314148},"geometry":{"x":175983.62000000104,"y":2539276.2500000037}},{"attributes":{"ID":314157,"DIS_CODE":0,"TOWNNAME":"歸仁區","LI":"大廟里","LIN":"24鄰","STREET":"大廟一街","SECT":" ","MAREA":" ","LANE":"２２２巷","ALLEY":" ","HOUSE_NO":"１０號","E_COORD97":175558.87,"N_COORD97":2543636.25,"ADDRESS":"大廟一街２２２巷１０號","OBJECTID":314149},"geometry":{"x":175558.87000000011,"y":2543636.2500000037}},{"attributes":{"ID":314158,"DIS_CODE":0,"TOWNNAME":"歸仁區","LI":"七甲里","LIN":"13鄰","STREET":"南潭一街","SECT":" ","MAREA":" ","LANE":"４２巷","ALLEY":" ","HOUSE_NO":"２６號","E_COORD97":175873.54000000001,"N_COORD97":2543066.25,"ADDRESS":"南潭一街４２巷２６號","OBJECTID":314150},"geometry":{"x":175873.53999999911,"y":2543066.2499999981}},{"attributes":{"ID":314159,"DIS_CODE":0,"TOWNNAME":"歸仁區","LI":"六甲里","LIN":"41鄰","STREET":"民生十二街","SECT":" ","MAREA":" ","LANE":"２７巷","ALLEY":" ","HOUSE_NO":"９號","E_COORD97":176049.85000000001,"N_COORD97":2539400.29,"ADDRESS":"民生十二街２７巷９號","OBJECTID":314151},"geometry":{"x":176049.85000000056,"y":2539400.2900000028}},{"attributes":{"ID":314160,"DIS_CODE":0,"TOWNNAME":"北區","LI":"大港里","LIN":"7鄰","STREET":"大興街","SECT":" ","MAREA":" ","LANE":"２２６巷","ALLEY":" ","HOUSE_NO":"７號","E_COORD97":166733.53,"N_COORD97":2545751.9900000002,"ADDRESS":"大興街２２６巷７號","OBJECTID":314152},"geometry":{"x":166733.53000000212,"y":2545751.9900000002}},{"attributes":{"ID":314161,"DIS_CODE":0,"TOWNNAME":"北區","LI":"大港里","LIN":"7鄰","STREET":"大興街","SECT":" ","MAREA":" ","LANE":"２２６巷","ALLEY":" ","HOUSE_NO":"９號","E_COORD97":166732.45999999999,"N_COORD97":2545756.6099999999,"ADDRESS":"大興街２２６巷９號","OBJECTID":314153},"geometry":{"x":166732.46000000089,"y":2545756.6100000013}},{"attributes":{"ID":314162,"DIS_CODE":0,"TOWNNAME":"北區","LI":"大港里","LIN":"7鄰","STREET":"大興街","SECT":" ","MAREA":" ","LANE":"２２６巷","ALLEY":" ","HOUSE_NO":"４１號","E_COORD97":166722.29999999999,"N_COORD97":2545853.4900000002,"ADDRESS":"大興街２２６巷４１號","OBJECTID":314154},"geometry":{"x":166722.29999999981,"y":2545853.4900000021}},{"attributes":{"ID":314163,"DIS_CODE":0,"TOWNNAME":"安平區","LI":"國平里","LIN":"17鄰","STREET":"健康二街","SECT":" ","MAREA":" ","LANE":" ","ALLEY":" ","HOUSE_NO":"８２號","E_COORD97":165199.76999999999,"N_COORD97":2542952.1000000001,"ADDRESS":"健康二街８２號","OBJECTID":314155},"geometry":{"x":165199.76999999955,"y":2542952.1000000015}},{"attributes":{"ID":314164,"DIS_CODE":0,"TOWNNAME":"安平區","LI":"國平里","LIN":"17鄰","STREET":"健康二街","SECT":" ","MAREA":" ","LANE":" ","ALLEY":" ","HOUSE_NO":"８４號","E_COORD97":165200.95999999999,"N_COORD97":2542956.8700000001,"ADDRESS":"健康二街８４號","OBJECTID":314156},"geometry":{"x":165200.95999999996,"y":2542956.870000001}},{"attributes":{"ID":314165,"DIS_CODE":0,"TOWNNAME":"安平區","LI":"國平里","LIN":"17鄰","STREET":"健康二街","SECT":" ","MAREA":" ","LANE":" ","ALLEY":" ","HOUSE_NO":"８６號","E_COORD97":165202.75,"N_COORD97":2542961.23,"ADDRESS":"健康二街８６號","OBJECTID":314157},"geometry":{"x":165202.75000000186,"y":2542961.2300000004}},{"attributes":{"ID":314166,"DIS_CODE":0,"TOWNNAME":"學甲區","LI":"慈福里","LIN":"17鄰","STREET":"成功路","SECT":" ","MAREA":" ","LANE":" ","ALLEY":" ","HOUSE_NO":"５９號","E_COORD97":166174.87,"N_COORD97":2570393.3599999999,"ADDRESS":"成功路５９號","OBJECTID":314158},"geometry":{"x":166174.86999999918,"y":2570393.3599999994}},{"attributes":{"ID":314167,"DIS_CODE":0,"TOWNNAME":"學甲區","LI":"慈福里","LIN":"17鄰","STREET":"成功路","SECT":" ","MAREA":" ","LANE":" ","ALLEY":" ","HOUSE_NO":"６１號","E_COORD97":166175.67000000001,"N_COORD97":2570398,"ADDRESS":"成功路６１號","OBJECTID":314159},"geometry":{"x":166175.66999999993,"y":2570398.0000000037}},{"attributes":{"ID":314168,"DIS_CODE":0,"TOWNNAME":"歸仁區","LI":"看西里","LIN":"17鄰","STREET":"成功七街","SECT":" ","MAREA":" ","LANE":" ","ALLEY":" ","HOUSE_NO":"１１號","E_COORD97":178296.16,"N_COORD97":2539888.3599999999,"ADDRESS":"成功七街１１號","OBJECTID":314160},"geometry":{"x":178296.16000000108,"y":2539888.3600000031}},{"attributes":{"ID":314169,"DIS_CODE":0,"TOWNNAME":"歸仁區","LI":"歸南里","LIN":"17鄰","STREET":"民生八街","SECT":" ","MAREA":" ","LANE":" ","ALLEY":" ","HOUSE_NO":"２０號","E_COORD97":176141.48999999999,"N_COORD97":2540346.29,"ADDRESS":"民生八街２０號","OBJECTID":314161},"geometry":{"x":176141.49000000022,"y":2540346.2900000028}},{"attributes":{"ID":314170,"DIS_CODE":0,"TOWNNAME":"歸仁區","LI":"七甲里","LIN":"17鄰","STREET":"南潭二街","SECT":" ","MAREA":" ","LANE":" ","ALLEY":" ","HOUSE_NO":"１４９號","E_COORD97":176476.07000000001,"N_COORD97":2543020.3900000001,"ADDRESS":"南潭二街１４９號","OBJECTID":314162},"geometry":{"x":176476.07000000123,"y":2543020.3900000006}},{"attributes":{"ID":314171,"DIS_CODE":0,"TOWNNAME":"歸仁區","LI":"六甲里","LIN":"4鄰","STREET":"中正十五街","SECT":" ","MAREA":" ","LANE":" ","ALLEY":" ","HOUSE_NO":"９號","E_COORD97":176454.76000000001,"N_COORD97":2539618.25,"ADDRESS":"中正十五街９號","OBJECTID":314163},"geometry":{"x":176454.75999999978,"y":2539618.2499999981}},{"attributes":{"ID":314172,"DIS_CODE":0,"TOWNNAME":"柳營區","LI":"果毅里","LIN":"4鄰","STREET":" ","SECT":" ","MAREA":"果毅後","LANE":" ","ALLEY":" ","HOUSE_NO":"４８號之１","E_COORD97":185613.23999999999,"N_COORD97":2572926.4100000001,"ADDRESS":"果毅後４８號之１","OBJECTID":314164},"geometry":{"x":185613.24000000115,"y":2572926.4100000001}},{"attributes":{"ID":314173,"DIS_CODE":0,"TOWNNAME":"柳營區","LI":"果毅里","LIN":"4鄰","STREET":" ","SECT":" ","MAREA":"果毅後","LANE":" ","ALLEY":" ","HOUSE_NO":"５０號","E_COORD97":185643.23000000001,"N_COORD97":2572921.8399999999,"ADDRESS":"果毅後５０號","OBJECTID":314165},"geometry":{"x":185643.23000000045,"y":2572921.8400000017}},{"attributes":{"ID":314174,"DIS_CODE":0,"TOWNNAME":"歸仁區","LI":"七甲里","LIN":"13鄰","STREET":"南丁路","SECT":" ","MAREA":" ","LANE":"４３７巷","ALLEY":" ","HOUSE_NO":"１５２號","E_COORD97":175608.98999999999,"N_COORD97":2542803.25,"ADDRESS":"南丁路４３７巷１５２號","OBJECTID":314166},"geometry":{"x":175608.99000000022,"y":2542803.2500000019}},{"attributes":{"ID":314175,"DIS_CODE":0,"TOWNNAME":"北區","LI":"大港里","LIN":"7鄰","STREET":"大興街","SECT":" ","MAREA":" ","LANE":"２２６巷","ALLEY":" ","HOUSE_NO":"４３號","E_COORD97":166722.29999999999,"N_COORD97":2545857.3999999999,"ADDRESS":"大興街２２６巷４３號","OBJECTID":314167},"geometry":{"x":166722.29999999981,"y":2545857.4000000022}},{"attributes":{"ID":314176,"DIS_CODE":0,"TOWNNAME":"北區","LI":"大港里","LIN":"7鄰","STREET":"大興街","SECT":" ","MAREA":" ","LANE":"２２６巷","ALLEY":" ","HOUSE_NO":"４５號","E_COORD97":166721.23000000001,"N_COORD97":2545862.2000000002,"ADDRESS":"大興街２２６巷４５號","OBJECTID":314168},"geometry":{"x":166721.23000000138,"y":2545862.1999999993}},{"attributes":{"ID":314177,"DIS_CODE":0,"TOWNNAME":"北區","LI":"大港里","LIN":"7鄰","STREET":"大興街","SECT":" ","MAREA":" ","LANE":"２２６巷","ALLEY":" ","HOUSE_NO":"４７號","E_COORD97":166720.69,"N_COORD97":2545867.3599999999,"ADDRESS":"大興街２２６巷４７號","OBJECTID":314169},"geometry":{"x":166720.69000000227,"y":2545867.3599999994}},{"attributes":{"ID":314178,"DIS_CODE":0,"TOWNNAME":"北區","LI":"大港里","LIN":"7鄰","STREET":"大興街","SECT":" ","MAREA":" ","LANE":"２２６巷","ALLEY":" ","HOUSE_NO":"４９號","E_COORD97":166719.79999999999,"N_COORD97":2545871.7999999998,"ADDRESS":"大興街２２６巷４９號","OBJECTID":314170},"geometry":{"x":166719.80000000075,"y":2545871.8000000026}},{"attributes":{"ID":314179,"DIS_CODE":0,"TOWNNAME":"北區","LI":"大港里","LIN":"7鄰","STREET":"大興街","SECT":" ","MAREA":" ","LANE":"２２６巷","ALLEY":" ","HOUSE_NO":"５１號","E_COORD97":166718.91,"N_COORD97":2545875.7200000002,"ADDRESS":"大興街２２６巷５１號","OBJECTID":314171},"geometry":{"x":166718.91000000201,"y":2545875.7200000025}},{"attributes":{"ID":314180,"DIS_CODE":0,"TOWNNAME":"北區","LI":"大港里","LIN":"7鄰","STREET":"大興街","SECT":" ","MAREA":" ","LANE":"２２６巷","ALLEY":" ","HOUSE_NO":"５３號","E_COORD97":166718.20000000001,"N_COORD97":2545881.4100000001,"ADDRESS":"大興街２２６巷５３號","OBJECTID":314172},"geometry":{"x":166718.20000000019,"y":2545881.4100000001}},{"attributes":{"ID":314181,"DIS_CODE":0,"TOWNNAME":"北區","LI":"大港里","LIN":"7鄰","STREET":"大興街","SECT":" ","MAREA":" ","LANE":"２２６巷","ALLEY":" ","HOUSE_NO":"５５號","E_COORD97":166717.67000000001,"N_COORD97":2545885.3199999998,"ADDRESS":"大興街２２６巷５５號","OBJECTID":314173},"geometry":{"x":166717.67000000086,"y":2545885.3200000022}},{"attributes":{"ID":314182,"DIS_CODE":0,"TOWNNAME":"北區","LI":"大港里","LIN":"7鄰","STREET":"大興街","SECT":" ","MAREA":" ","LANE":"２２６巷","ALLEY":" ","HOUSE_NO":"５７號","E_COORD97":166718.01999999999,"N_COORD97":2545890.1200000001,"ADDRESS":"大興街２２６巷５７號","OBJECTID":314174},"geometry":{"x":166718.02000000048,"y":2545890.1200000029}},{"attributes":{"ID":314183,"DIS_CODE":0,"TOWNNAME":"北區","LI":"大港里","LIN":"7鄰","STREET":"大興街","SECT":" ","MAREA":" ","LANE":"２２６巷","ALLEY":" ","HOUSE_NO":"５９號","E_COORD97":166716.42000000001,"N_COORD97":2545896.1299999999,"ADDRESS":"大興街２２６巷５９號","OBJECTID":314175},"geometry":{"x":166716.41999999993,"y":2545896.129999999}},{"attributes":{"ID":314184,"DIS_CODE":0,"TOWNNAME":"新營區","LI":"忠政里","LIN":"29鄰","STREET":"中正路","SECT":" ","MAREA":" ","LANE":"３９巷","ALLEY":" ","HOUSE_NO":"１０４號","E_COORD97":179749.54000000001,"N_COORD97":2579233.9399999999,"ADDRESS":"中正路３９巷１０４號","OBJECTID":314176},"geometry":{"x":179749.54000000097,"y":2579233.9400000013}},{"attributes":{"ID":314185,"DIS_CODE":0,"TOWNNAME":"新營區","LI":"南紙里","LIN":"5鄰","STREET":"南紙街","SECT":" ","MAREA":" ","LANE":"２９巷","ALLEY":" ","HOUSE_NO":"８號","E_COORD97":177862.89000000001,"N_COORD97":2577722.4700000002,"ADDRESS":"南紙街２９巷８號","OBJECTID":314177},"geometry":{"x":177862.8900000006,"y":2577722.4700000025}},{"attributes":{"ID":314186,"DIS_CODE":0,"TOWNNAME":"新營區","LI":"新北里","LIN":"13鄰","STREET":"周武街","SECT":" ","MAREA":" ","LANE":"７９巷","ALLEY":" ","HOUSE_NO":"１２號","E_COORD97":179343.04999999999,"N_COORD97":2578976.73,"ADDRESS":"周武街７９巷１２號","OBJECTID":314178},"geometry":{"x":179343.04999999981,"y":2578976.7300000004}},{"attributes":{"ID":314187,"DIS_CODE":0,"TOWNNAME":"新營區","LI":"忠政里","LIN":"6鄰","STREET":"府西路","SECT":" ","MAREA":" ","LANE":"２２巷","ALLEY":" ","HOUSE_NO":"５７號","E_COORD97":179885.37,"N_COORD97":2579235.5099999998,"ADDRESS":"府西路２２巷５７號","OBJECTID":314179},"geometry":{"x":179885.37000000011,"y":2579235.5099999998}},{"attributes":{"ID":314188,"DIS_CODE":0,"TOWNNAME":"西港區","LI":"新復里","LIN":"4鄰","STREET":" ","SECT":" ","MAREA":"新港","LANE":" ","ALLEY":" ","HOUSE_NO":"２９號","E_COORD97":166389.47,"N_COORD97":2556433.8100000001,"ADDRESS":"新港２９號","OBJECTID":314180},"geometry":{"x":166389.47000000067,"y":2556433.8100000005}},{"attributes":{"ID":314189,"DIS_CODE":0,"TOWNNAME":"北區","LI":"賢北里","LIN":"7鄰","STREET":"賢北街","SECT":" ","MAREA":" ","LANE":"１５巷","ALLEY":" ","HOUSE_NO":"１１號","E_COORD97":166296.76999999999,"N_COORD97":2545201.6099999999,"ADDRESS":"賢北街１５巷１１號","OBJECTID":314181},"geometry":{"x":166296.76999999955,"y":2545201.6099999994}},{"attributes":{"ID":314190,"DIS_CODE":0,"TOWNNAME":"北區","LI":"賢北里","LIN":"7鄰","STREET":"賢北街","SECT":" ","MAREA":" ","LANE":"１５巷","ALLEY":" ","HOUSE_NO":"１３號","E_COORD97":166298.78,"N_COORD97":2545196.9900000002,"ADDRESS":"賢北街１５巷１３號","OBJECTID":314182},"geometry":{"x":166298.78000000026,"y":2545196.9900000002}},{"attributes":{"ID":314191,"DIS_CODE":0,"TOWNNAME":"北區","LI":"賢北里","LIN":"7鄰","STREET":"賢北街","SECT":" ","MAREA":" ","LANE":"１５巷","ALLEY":" ","HOUSE_NO":"１５號","E_COORD97":166300.79000000001,"N_COORD97":2545190.3599999999,"ADDRESS":"賢北街１５巷１５號","OBJECTID":314183},"geometry":{"x":166300.78999999911,"y":2545190.3599999994}},{"attributes":{"ID":314192,"DIS_CODE":0,"TOWNNAME":"北區","LI":"賢北里","LIN":"7鄰","STREET":"賢北街","SECT":" ","MAREA":" ","LANE":"１５巷","ALLEY":" ","HOUSE_NO":"１７號","E_COORD97":166304.41,"N_COORD97":2545185.3300000001,"ADDRESS":"賢北街１５巷１７號","OBJECTID":314184},"geometry":{"x":166304.41000000108,"y":2545185.3300000019}},{"attributes":{"ID":314193,"DIS_CODE":0,"TOWNNAME":"北區","LI":"賢北里","LIN":"7鄰","STREET":"賢北街","SECT":" ","MAREA":" ","LANE":"１５巷","ALLEY":" ","HOUSE_NO":"１９號","E_COORD97":166304.82000000001,"N_COORD97":2545179.9100000001,"ADDRESS":"賢北街１５巷１９號","OBJECTID":314185},"geometry":{"x":166304.82000000123,"y":2545179.9100000001}},{"attributes":{"ID":314194,"DIS_CODE":0,"TOWNNAME":"歸仁區","LI":"八甲里","LIN":"17鄰","STREET":"大仁九街","SECT":" ","MAREA":" ","LANE":" ","ALLEY":" ","HOUSE_NO":"１５之２號","E_COORD97":178023.59,"N_COORD97":2541523.2599999998,"ADDRESS":"大仁九街１５之２號","OBJECTID":314186},"geometry":{"x":178023.58999999985,"y":2541523.2599999998}},{"attributes":{"ID":314195,"DIS_CODE":0,"TOWNNAME":"北區","LI":"賢北里","LIN":"7鄰","STREET":"賢北街","SECT":" ","MAREA":" ","LANE":"１５巷","ALLEY":" ","HOUSE_NO":"１號","E_COORD97":166321.26000000001,"N_COORD97":2545220.9700000002,"ADDRESS":"賢北街１５巷１號","OBJECTID":314187},"geometry":{"x":166321.26000000164,"y":2545220.9700000007}},{"attributes":{"ID":314196,"DIS_CODE":0,"TOWNNAME":"北區","LI":"賢北里","LIN":"7鄰","STREET":"賢北街","SECT":" ","MAREA":" ","LANE":"１５巷","ALLEY":" ","HOUSE_NO":"２１號","E_COORD97":166288.31,"N_COORD97":2545182.1200000001,"ADDRESS":"賢北街１５巷２１號","OBJECTID":314188},"geometry":{"x":166288.30999999866,"y":2545182.1200000029}},{"attributes":{"ID":314197,"DIS_CODE":0,"TOWNNAME":"柳營區","LI":"果毅里","LIN":"4鄰","STREET":" ","SECT":" ","MAREA":"果毅後","LANE":" ","ALLEY":" ","HOUSE_NO":"４２之１號","E_COORD97":185588.42000000001,"N_COORD97":2572945.3100000001,"ADDRESS":"果毅後４２之１號","OBJECTID":314189},"geometry":{"x":185588.42000000086,"y":2572945.3100000005}},{"attributes":{"ID":314198,"DIS_CODE":0,"TOWNNAME":"柳營區","LI":"果毅里","LIN":"4鄰","STREET":" ","SECT":" ","MAREA":"果毅後","LANE":" ","ALLEY":" ","HOUSE_NO":"４２之２號","E_COORD97":185589.60000000001,"N_COORD97":2572949.4399999999,"ADDRESS":"果毅後４２之２號","OBJECTID":314190},"geometry":{"x":185589.60000000149,"y":2572949.4399999995}},{"attributes":{"ID":314199,"DIS_CODE":0,"TOWNNAME":"北區","LI":"賢北里","LIN":"7鄰","STREET":"賢北街","SECT":" ","MAREA":" ","LANE":"１５巷","ALLEY":" ","HOUSE_NO":"２３號","E_COORD97":166283.28,"N_COORD97":2545190.96,"ADDRESS":"賢北街１５巷２３號","OBJECTID":314191},"geometry":{"x":166283.28000000119,"y":2545190.9600000009}},{"attributes":{"ID":314200,"DIS_CODE":0,"TOWNNAME":"北區","LI":"賢北里","LIN":"7鄰","STREET":"賢北街","SECT":" ","MAREA":" ","LANE":"１５巷","ALLEY":" ","HOUSE_NO":"２５號","E_COORD97":166283.07999999999,"N_COORD97":2545195.3799999999,"ADDRESS":"賢北街１５巷２５號","OBJECTID":314192},"geometry":{"x":166283.08000000007,"y":2545195.379999999}},{"attributes":{"ID":314201,"DIS_CODE":0,"TOWNNAME":"北區","LI":"賢北里","LIN":"7鄰","STREET":"賢北街","SECT":" ","MAREA":" ","LANE":"１５巷","ALLEY":" ","HOUSE_NO":"２７號","E_COORD97":166280.26000000001,"N_COORD97":2545201.21,"ADDRESS":"賢北街１５巷２７號","OBJECTID":314193},"geometry":{"x":166280.25999999978,"y":2545201.2100000028}},{"attributes":{"ID":314202,"DIS_CODE":0,"TOWNNAME":"北區","LI":"賢北里","LIN":"7鄰","STREET":"賢北街","SECT":" ","MAREA":" ","LANE":"１５巷","ALLEY":" ","HOUSE_NO":"５１號","E_COORD97":166219.12,"N_COORD97":2545170.9100000001,"ADDRESS":"賢北街１５巷５１號","OBJECTID":314194},"geometry":{"x":166219.12000000197,"y":2545170.9100000039}},{"attributes":{"ID":314203,"DIS_CODE":0,"TOWNNAME":"南化區","LI":"中坑里","LIN":"1鄰","STREET":" ","SECT":" ","MAREA":"中坑","LANE":" ","ALLEY":" ","HOUSE_NO":"１１號","E_COORD97":195146.405493,"N_COORD97":2549918.1281099999,"ADDRESS":"中坑１１號","OBJECTID":314195},"geometry":{"x":195146.40549300052,"y":2549918.1281080004}},{"attributes":{"ID":314204,"DIS_CODE":0,"TOWNNAME":"北區","LI":"賢北里","LIN":"7鄰","STREET":"賢北街","SECT":" ","MAREA":" ","LANE":"１５巷","ALLEY":" ","HOUSE_NO":"５３號","E_COORD97":166212.98999999999,"N_COORD97":2545168.79,"ADDRESS":"賢北街１５巷５３號","OBJECTID":314196},"geometry":{"x":166212.99000000022,"y":2545168.790000001}},{"attributes":{"ID":314205,"DIS_CODE":0,"TOWNNAME":"柳營區","LI":"果毅里","LIN":"1鄰","STREET":" ","SECT":" ","MAREA":"果毅後","LANE":" ","ALLEY":" ","HOUSE_NO":"５號","E_COORD97":185721.98000000001,"N_COORD97":2573196.0699999998,"ADDRESS":"果毅後５號","OBJECTID":314197},"geometry":{"x":185721.98000000138,"y":2573196.0700000022}},{"attributes":{"ID":314206,"DIS_CODE":0,"TOWNNAME":"柳營區","LI":"果毅里","LIN":"8鄰","STREET":" ","SECT":" ","MAREA":"果毅後","LANE":" ","ALLEY":" ","HOUSE_NO":"９５號之５","E_COORD97":185607.84,"N_COORD97":2572699.2000000002,"ADDRESS":"果毅後９５號之５","OBJECTID":314198},"geometry":{"x":185607.83999999985,"y":2572699.2000000011}},{"attributes":{"ID":314207,"DIS_CODE":0,"TOWNNAME":"柳營區","LI":"果毅里","LIN":"18鄰","STREET":" ","SECT":" ","MAREA":"南湖","LANE":" ","ALLEY":" ","HOUSE_NO":"５號之１","E_COORD97":186263.57999999999,"N_COORD97":2571469.96,"ADDRESS":"南湖５號之１","OBJECTID":314199},"geometry":{"x":186263.58000000101,"y":2571469.9600000009}},{"attributes":{"ID":314208,"DIS_CODE":0,"TOWNNAME":"柳營區","LI":"果毅里","LIN":"18鄰","STREET":" ","SECT":" ","MAREA":"南湖","LANE":" ","ALLEY":" ","HOUSE_NO":"５號之２","E_COORD97":186277.09,"N_COORD97":2571722.27,"ADDRESS":"南湖５號之２","OBJECTID":314200},"geometry":{"x":186277.09000000078,"y":2571722.2700000014}}]}