{"displayFieldName":"TOWNNAME","fieldAliases":{"ID":"ID","DIS_CODE":"DIS_CODE","TOWNNAME":"TOWNNAME","LI":"LI","LIN":"LIN","STREET":"STREET","SECT":"SECT","MAREA":"MAREA","LANE":"LANE","ALLEY":"ALLEY","HOUSE_NO":"HOUSE_NO","E_COORD97":"E_COORD97","N_COORD97":"N_COORD97","ADDRESS":"ADDRESS","OBJECTID":"OBJECTID"},"geometryType":"esriGeometryPoint","spatialReference":{"wkid":102443,"latestWkid":3826},"fields":[{"name":"ID","type":"esriFieldTypeDouble","alias":"ID"},{"name":"DIS_CODE","type":"esriFieldTypeInteger","alias":"DIS_CODE"},{"name":"TOWNNAME","type":"esriFieldTypeString","alias":"TOWNNAME","length":8},{"name":"LI","type":"esriFieldTypeString","alias":"LI","length":8},{"name":"LIN","type":"esriFieldTypeString","alias":"LIN","length":12},{"name":"STREET","type":"esriFieldTypeString","alias":"STREET","length":20},{"name":"SECT","type":"esriFieldTypeString","alias":"SECT","length":8},{"name":"MAREA","type":"esriFieldTypeString","alias":"MAREA","length":12},{"name":"LANE","type":"esriFieldTypeString","alias":"LANE","length":10},{"name":"ALLEY","type":"esriFieldTypeString","alias":"ALLEY","length":10},{"name":"HOUSE_NO","type":"esriFieldTypeString","alias":"HOUSE_NO","length":20},{"name":"E_COORD97","type":"esriFieldTypeDouble","alias":"E_COORD97"},{"name":"N_COORD97","type":"esriFieldTypeDouble","alias":"N_COORD97"},{"name":"ADDRESS","type":"esriFieldTypeString","alias":"ADDRESS","length":50},{"name":"OBJECTID","type":"esriFieldTypeOID","alias":"OBJECTID"}],"features":[{"attributes":{"ID":35601,"DIS_CODE":0,"TOWNNAME":"永康區","LI":"永康里","LIN":"14鄰","STREET":"永中街","SECT":" ","MAREA":" ","LANE":" ","ALLEY":" ","HOUSE_NO":"４８號","E_COORD97":173901.75,"N_COORD97":2547138.3700000001,"ADDRESS":"永中街４８號","OBJECTID":35601},"geometry":{"x":173901.75,"y":2547138.3699999992}},{"attributes":{"ID":35602,"DIS_CODE":0,"TOWNNAME":"安南區","LI":"州北里","LIN":"14鄰","STREET":"安和路","SECT":"五段","MAREA":" ","LANE":" ","ALLEY":" ","HOUSE_NO":"１２３號","E_COORD97":169887.48000000001,"N_COORD97":2551753.8300000001,"ADDRESS":"安和路五段１２３號","OBJECTID":35602},"geometry":{"x":169887.48000000138,"y":2551753.8300000019}},{"attributes":{"ID":35603,"DIS_CODE":0,"TOWNNAME":"安南區","LI":"州北里","LIN":"14鄰","STREET":"安和路","SECT":"五段","MAREA":" ","LANE":" ","ALLEY":" ","HOUSE_NO":"１２７號","E_COORD97":169884.85000000001,"N_COORD97":2551761.5,"ADDRESS":"安和路五段１２７號","OBJECTID":35603},"geometry":{"x":169884.84999999963,"y":2551761.5000000019}},{"attributes":{"ID":35604,"DIS_CODE":0,"TOWNNAME":"後壁區","LI":"侯伯里","LIN":"7鄰","STREET":" ","SECT":" ","MAREA":"後壁寮","LANE":" ","ALLEY":" ","HOUSE_NO":"５３號","E_COORD97":185357.54999999999,"N_COORD97":2585214.3300000001,"ADDRESS":"後壁寮５３號","OBJECTID":35604},"geometry":{"x":185357.54999999981,"y":2585214.3300000001}},{"attributes":{"ID":35605,"DIS_CODE":0,"TOWNNAME":"後壁區","LI":"侯伯里","LIN":"7鄰","STREET":" ","SECT":" ","MAREA":"後壁寮","LANE":" ","ALLEY":" ","HOUSE_NO":"５４號","E_COORD97":185376.14000000001,"N_COORD97":2585214.1699999999,"ADDRESS":"後壁寮５４號","OBJECTID":35605},"geometry":{"x":185376.1400000006,"y":2585214.1700000018}},{"attributes":{"ID":35606,"DIS_CODE":0,"TOWNNAME":"後壁區","LI":"侯伯里","LIN":"7鄰","STREET":" ","SECT":" ","MAREA":"後壁寮","LANE":" ","ALLEY":" ","HOUSE_NO":"５５號之１","E_COORD97":185383.42000000001,"N_COORD97":2585200.3599999999,"ADDRESS":"後壁寮５５號之１","OBJECTID":35606},"geometry":{"x":185383.42000000086,"y":2585200.3599999994}},{"attributes":{"ID":35607,"DIS_CODE":0,"TOWNNAME":"後壁區","LI":"侯伯里","LIN":"7鄰","STREET":" ","SECT":" ","MAREA":"後壁寮","LANE":" ","ALLEY":" ","HOUSE_NO":"５５號之２","E_COORD97":185401.79000000001,"N_COORD97":2585196.6299999999,"ADDRESS":"後壁寮５５號之２","OBJECTID":35607},"geometry":{"x":185401.79000000004,"y":2585196.6300000008}},{"attributes":{"ID":35608,"DIS_CODE":0,"TOWNNAME":"後壁區","LI":"侯伯里","LIN":"7鄰","STREET":" ","SECT":" ","MAREA":"後壁寮","LANE":" ","ALLEY":" ","HOUSE_NO":"５５號","E_COORD97":185398.54000000001,"N_COORD97":2585207.7200000002,"ADDRESS":"後壁寮５５號","OBJECTID":35608},"geometry":{"x":185398.54000000004,"y":2585207.7200000025}},{"attributes":{"ID":35609,"DIS_CODE":0,"TOWNNAME":"後壁區","LI":"侯伯里","LIN":"7鄰","STREET":" ","SECT":" ","MAREA":"後壁寮","LANE":" ","ALLEY":" ","HOUSE_NO":"５６號","E_COORD97":185419.14999999999,"N_COORD97":2585216.7200000002,"ADDRESS":"後壁寮５６號","OBJECTID":35609},"geometry":{"x":185419.1500000013,"y":2585216.7200000044}},{"attributes":{"ID":35610,"DIS_CODE":0,"TOWNNAME":"後壁區","LI":"侯伯里","LIN":"7鄰","STREET":" ","SECT":" ","MAREA":"後壁寮","LANE":" ","ALLEY":" ","HOUSE_NO":"５７號之１０","E_COORD97":185437.26000000001,"N_COORD97":2585189.02,"ADDRESS":"後壁寮５７號之１０","OBJECTID":35610},"geometry":{"x":185437.25999999978,"y":2585189.0199999996}},{"attributes":{"ID":35611,"DIS_CODE":0,"TOWNNAME":"後壁區","LI":"侯伯里","LIN":"7鄰","STREET":" ","SECT":" ","MAREA":"後壁寮","LANE":" ","ALLEY":" ","HOUSE_NO":"５７號之１１","E_COORD97":185439.88,"N_COORD97":2585193.3199999998,"ADDRESS":"後壁寮５７號之１１","OBJECTID":35611},"geometry":{"x":185439.87999999989,"y":2585193.3200000022}},{"attributes":{"ID":35612,"DIS_CODE":0,"TOWNNAME":"後壁區","LI":"侯伯里","LIN":"7鄰","STREET":" ","SECT":" ","MAREA":"後壁寮","LANE":" ","ALLEY":" ","HOUSE_NO":"５７號之１２","E_COORD97":185443.17999999999,"N_COORD97":2585197.5499999998,"ADDRESS":"後壁寮５７號之１２","OBJECTID":35612},"geometry":{"x":185443.1799999997,"y":2585197.5500000045}},{"attributes":{"ID":35613,"DIS_CODE":0,"TOWNNAME":"後壁區","LI":"侯伯里","LIN":"7鄰","STREET":" ","SECT":" ","MAREA":"後壁寮","LANE":" ","ALLEY":" ","HOUSE_NO":"５７號之１３","E_COORD97":185446.48999999999,"N_COORD97":2585201.6000000001,"ADDRESS":"後壁寮５７號之１３","OBJECTID":35613},"geometry":{"x":185446.49000000022,"y":2585201.5999999996}},{"attributes":{"ID":35614,"DIS_CODE":0,"TOWNNAME":"後壁區","LI":"侯伯里","LIN":"7鄰","STREET":" ","SECT":" ","MAREA":"後壁寮","LANE":" ","ALLEY":" ","HOUSE_NO":"５７號之３","E_COORD97":185463.28,"N_COORD97":2585224.1899999999,"ADDRESS":"後壁寮５７號之３","OBJECTID":35614},"geometry":{"x":185463.28000000026,"y":2585224.1899999995}},{"attributes":{"ID":35615,"DIS_CODE":0,"TOWNNAME":"後壁區","LI":"侯伯里","LIN":"7鄰","STREET":" ","SECT":" ","MAREA":"後壁寮","LANE":" ","ALLEY":" ","HOUSE_NO":"５８號之１０","E_COORD97":185297.62,"N_COORD97":2585158.6499999999,"ADDRESS":"後壁寮５８號之１０","OBJECTID":35615},"geometry":{"x":185297.62000000011,"y":2585158.6500000004}},{"attributes":{"ID":35616,"DIS_CODE":0,"TOWNNAME":"後壁區","LI":"侯伯里","LIN":"7鄰","STREET":" ","SECT":" ","MAREA":"後壁寮","LANE":" ","ALLEY":" ","HOUSE_NO":"５８號之１１","E_COORD97":185295.73000000001,"N_COORD97":2585155.1899999999,"ADDRESS":"後壁寮５８號之１１","OBJECTID":35616},"geometry":{"x":185295.73000000045,"y":2585155.1900000013}},{"attributes":{"ID":35617,"DIS_CODE":0,"TOWNNAME":"北區","LI":"大豐里","LIN":"8鄰","STREET":"文賢路","SECT":" ","MAREA":" ","LANE":"３１３巷","ALLEY":"１２弄","HOUSE_NO":"１７號","E_COORD97":167273.51999999999,"N_COORD97":2545319.0600000001,"ADDRESS":"文賢路３１３巷１２弄１７號","OBJECTID":35617},"geometry":{"x":167273.52000000142,"y":2545319.0600000005}},{"attributes":{"ID":35618,"DIS_CODE":0,"TOWNNAME":"北區","LI":"大豐里","LIN":"8鄰","STREET":"文賢路","SECT":" ","MAREA":" ","LANE":"３１３巷","ALLEY":"１２弄","HOUSE_NO":"１８號","E_COORD97":167288.17000000001,"N_COORD97":2545317.7599999998,"ADDRESS":"文賢路３１３巷１２弄１８號","OBJECTID":35618},"geometry":{"x":167288.17000000179,"y":2545317.7600000016}},{"attributes":{"ID":35619,"DIS_CODE":0,"TOWNNAME":"北區","LI":"大豐里","LIN":"8鄰","STREET":"文賢路","SECT":" ","MAREA":" ","LANE":"３１３巷","ALLEY":"１２弄","HOUSE_NO":"１９號","E_COORD97":167273.70999999999,"N_COORD97":2545323,"ADDRESS":"文賢路３１３巷１２弄１９號","OBJECTID":35619},"geometry":{"x":167273.70999999996,"y":2545323.0000000037}},{"attributes":{"ID":35620,"DIS_CODE":0,"TOWNNAME":"北區","LI":"大豐里","LIN":"8鄰","STREET":"文賢路","SECT":" ","MAREA":" ","LANE":"３１３巷","ALLEY":"１２弄","HOUSE_NO":"２０號","E_COORD97":167289.07000000001,"N_COORD97":2545322.3399999999,"ADDRESS":"文賢路３１３巷１２弄２０號","OBJECTID":35620},"geometry":{"x":167289.0700000003,"y":2545322.3399999999}},{"attributes":{"ID":35621,"DIS_CODE":0,"TOWNNAME":"北區","LI":"大豐里","LIN":"8鄰","STREET":"文賢路","SECT":" ","MAREA":" ","LANE":"３１３巷","ALLEY":"１２弄","HOUSE_NO":"２２號","E_COORD97":167290.23000000001,"N_COORD97":2545328.46,"ADDRESS":"文賢路３１３巷１２弄２２號","OBJECTID":35621},"geometry":{"x":167290.23000000138,"y":2545328.4600000028}},{"attributes":{"ID":35622,"DIS_CODE":0,"TOWNNAME":"北區","LI":"大豐里","LIN":"8鄰","STREET":"文賢路","SECT":" ","MAREA":" ","LANE":"３１３巷","ALLEY":"１２弄","HOUSE_NO":"２４號","E_COORD97":167290.69,"N_COORD97":2545333.6200000001,"ADDRESS":"文賢路３１３巷１２弄２４號","OBJECTID":35622},"geometry":{"x":167290.69000000134,"y":2545333.6200000029}},{"attributes":{"ID":35623,"DIS_CODE":0,"TOWNNAME":"後壁區","LI":"侯伯里","LIN":"7鄰","STREET":" ","SECT":" ","MAREA":"後壁寮","LANE":" ","ALLEY":" ","HOUSE_NO":"５８號之１２","E_COORD97":185293.82999999999,"N_COORD97":2585151.7400000002,"ADDRESS":"後壁寮５８號之１２","OBJECTID":35623},"geometry":{"x":185293.83000000101,"y":2585151.7400000039}},{"attributes":{"ID":35624,"DIS_CODE":0,"TOWNNAME":"北區","LI":"大豐里","LIN":"8鄰","STREET":"文賢路","SECT":" ","MAREA":" ","LANE":"３１３巷","ALLEY":"３４弄","HOUSE_NO":"２號","E_COORD97":167230.91,"N_COORD97":2545285.9300000002,"ADDRESS":"文賢路３１３巷３４弄２號","OBJECTID":35624},"geometry":{"x":167230.91000000201,"y":2545285.9300000016}},{"attributes":{"ID":35625,"DIS_CODE":0,"TOWNNAME":"北區","LI":"大豐里","LIN":"8鄰","STREET":"文賢路","SECT":" ","MAREA":" ","LANE":"３１３巷","ALLEY":"３４弄","HOUSE_NO":"４號","E_COORD97":167231.37,"N_COORD97":2545290.25,"ADDRESS":"文賢路３１３巷３４弄４號","OBJECTID":35625},"geometry":{"x":167231.37000000104,"y":2545290.25}},{"attributes":{"ID":35626,"DIS_CODE":0,"TOWNNAME":"北區","LI":"大豐里","LIN":"8鄰","STREET":"文賢路","SECT":" ","MAREA":" ","LANE":"３１３巷","ALLEY":"３４弄","HOUSE_NO":"６號","E_COORD97":167231.75,"N_COORD97":2545295.02,"ADDRESS":"文賢路３１３巷３４弄６號","OBJECTID":35626},"geometry":{"x":167231.75000000186,"y":2545295.0200000033}},{"attributes":{"ID":35627,"DIS_CODE":0,"TOWNNAME":"後壁區","LI":"侯伯里","LIN":"7鄰","STREET":" ","SECT":" ","MAREA":"後壁寮","LANE":" ","ALLEY":" ","HOUSE_NO":"５８號之１３","E_COORD97":185291.94,"N_COORD97":2585148.2799999998,"ADDRESS":"後壁寮５８號之１３","OBJECTID":35627},"geometry":{"x":185291.94000000134,"y":2585148.2800000012}},{"attributes":{"ID":35628,"DIS_CODE":0,"TOWNNAME":"北區","LI":"大豐里","LIN":"8鄰","STREET":"文賢路","SECT":" ","MAREA":" ","LANE":"３１３巷","ALLEY":"３４弄","HOUSE_NO":"１０號","E_COORD97":167232.79000000001,"N_COORD97":2545304.4300000002,"ADDRESS":"文賢路３１３巷３４弄１０號","OBJECTID":35628},"geometry":{"x":167232.79000000004,"y":2545304.4299999997}},{"attributes":{"ID":35629,"DIS_CODE":0,"TOWNNAME":"北區","LI":"文元里","LIN":"8鄰","STREET":"中華北路","SECT":"二段","MAREA":" ","LANE":"５３巷","ALLEY":"２０弄","HOUSE_NO":"２號","E_COORD97":167575.38,"N_COORD97":2546511.21,"ADDRESS":"中華北路二段５３巷２０弄２號","OBJECTID":35629},"geometry":{"x":167575.38000000082,"y":2546511.2100000009}},{"attributes":{"ID":35630,"DIS_CODE":0,"TOWNNAME":"北區","LI":"文元里","LIN":"8鄰","STREET":"中華北路","SECT":"二段","MAREA":" ","LANE":"５３巷","ALLEY":"１６弄","HOUSE_NO":"１０號","E_COORD97":167552.26999999999,"N_COORD97":2546573.4399999999,"ADDRESS":"中華北路二段５３巷１６弄１０號","OBJECTID":35630},"geometry":{"x":167552.27000000048,"y":2546573.4399999976}},{"attributes":{"ID":35631,"DIS_CODE":0,"TOWNNAME":"北區","LI":"文元里","LIN":"8鄰","STREET":"中華北路","SECT":"二段","MAREA":" ","LANE":"５３巷","ALLEY":"１６弄","HOUSE_NO":"５號","E_COORD97":167558.10999999999,"N_COORD97":2546561.7599999998,"ADDRESS":"中華北路二段５３巷１６弄５號","OBJECTID":35631},"geometry":{"x":167558.11000000034,"y":2546561.7600000035}},{"attributes":{"ID":35632,"DIS_CODE":0,"TOWNNAME":"北區","LI":"文元里","LIN":"8鄰","STREET":"中華北路","SECT":"二段","MAREA":" ","LANE":"５３巷","ALLEY":"１６弄","HOUSE_NO":"３號","E_COORD97":167562.94,"N_COORD97":2546562.52,"ADDRESS":"中華北路二段５３巷１６弄３號","OBJECTID":35632},"geometry":{"x":167562.94000000041,"y":2546562.5199999996}},{"attributes":{"ID":35633,"DIS_CODE":0,"TOWNNAME":"北區","LI":"文元里","LIN":"8鄰","STREET":"中華北路","SECT":"二段","MAREA":" ","LANE":"５３巷","ALLEY":"１６弄","HOUSE_NO":"１號","E_COORD97":167567.89000000001,"N_COORD97":2546563.2799999998,"ADDRESS":"中華北路二段５３巷１６弄１號","OBJECTID":35633},"geometry":{"x":167567.89000000153,"y":2546563.2799999993}},{"attributes":{"ID":35634,"DIS_CODE":0,"TOWNNAME":"北區","LI":"文元里","LIN":"8鄰","STREET":"中華北路","SECT":"二段","MAREA":" ","LANE":"５３巷","ALLEY":"１６弄","HOUSE_NO":"７號","E_COORD97":167553.54000000001,"N_COORD97":2546561.1200000001,"ADDRESS":"中華北路二段５３巷１６弄７號","OBJECTID":35634},"geometry":{"x":167553.53999999911,"y":2546561.1200000029}},{"attributes":{"ID":35635,"DIS_CODE":0,"TOWNNAME":"北區","LI":"文元里","LIN":"8鄰","STREET":"中華北路","SECT":"二段","MAREA":" ","LANE":"５３巷","ALLEY":"１８弄","HOUSE_NO":"１２號","E_COORD97":167550.23999999999,"N_COORD97":2546538.1400000001,"ADDRESS":"中華北路二段５３巷１８弄１２號","OBJECTID":35635},"geometry":{"x":167550.24000000022,"y":2546538.1400000006}},{"attributes":{"ID":35636,"DIS_CODE":0,"TOWNNAME":"北區","LI":"文元里","LIN":"8鄰","STREET":"中華北路","SECT":"二段","MAREA":" ","LANE":"５３巷","ALLEY":"１８弄","HOUSE_NO":"８號","E_COORD97":167561.03,"N_COORD97":2546539.4100000001,"ADDRESS":"中華北路二段５３巷１８弄８號","OBJECTID":35636},"geometry":{"x":167561.03000000119,"y":2546539.4100000001}},{"attributes":{"ID":35637,"DIS_CODE":0,"TOWNNAME":"北區","LI":"文元里","LIN":"8鄰","STREET":"中華北路","SECT":"二段","MAREA":" ","LANE":"５３巷","ALLEY":"１８弄","HOUSE_NO":"２號","E_COORD97":167572.07999999999,"N_COORD97":2546540.2999999998,"ADDRESS":"中華北路二段５３巷１８弄２號","OBJECTID":35637},"geometry":{"x":167572.08000000194,"y":2546540.3000000026}},{"attributes":{"ID":35638,"DIS_CODE":0,"TOWNNAME":"北區","LI":"文元里","LIN":"8鄰","STREET":"中華北路","SECT":"二段","MAREA":" ","LANE":"５３巷","ALLEY":"１８弄","HOUSE_NO":"５號","E_COORD97":167562.42999999999,"N_COORD97":2546527.6600000001,"ADDRESS":"中華北路二段５３巷１８弄５號","OBJECTID":35638},"geometry":{"x":167562.42999999877,"y":2546527.6600000001}},{"attributes":{"ID":35639,"DIS_CODE":0,"TOWNNAME":"北區","LI":"文元里","LIN":"8鄰","STREET":"中華北路","SECT":"二段","MAREA":" ","LANE":"５３巷","ALLEY":"１８弄","HOUSE_NO":"７號","E_COORD97":167557.35000000001,"N_COORD97":2546527.02,"ADDRESS":"中華北路二段５３巷１８弄７號","OBJECTID":35639},"geometry":{"x":167557.34999999963,"y":2546527.0200000014}},{"attributes":{"ID":35640,"DIS_CODE":0,"TOWNNAME":"北區","LI":"文元里","LIN":"8鄰","STREET":"中華北路","SECT":"二段","MAREA":" ","LANE":"５３巷","ALLEY":"１８弄","HOUSE_NO":"９號","E_COORD97":167552.14000000001,"N_COORD97":2546526.6400000001,"ADDRESS":"中華北路二段５３巷１８弄９號","OBJECTID":35640},"geometry":{"x":167552.13999999966,"y":2546526.6400000025}},{"attributes":{"ID":35641,"DIS_CODE":0,"TOWNNAME":"安南區","LI":"州北里","LIN":"14鄰","STREET":"安和路","SECT":"五段","MAREA":" ","LANE":" ","ALLEY":" ","HOUSE_NO":"１６４號","E_COORD97":169885.98000000001,"N_COORD97":2551828.7000000002,"ADDRESS":"安和路五段１６４號","OBJECTID":35641},"geometry":{"x":169885.98000000138,"y":2551828.6999999993}},{"attributes":{"ID":35642,"DIS_CODE":0,"TOWNNAME":"安南區","LI":"州北里","LIN":"14鄰","STREET":"安和路","SECT":"五段","MAREA":" ","LANE":" ","ALLEY":" ","HOUSE_NO":"１７４號","E_COORD97":169875.51999999999,"N_COORD97":2551847.0499999998,"ADDRESS":"安和路五段１７４號","OBJECTID":35642},"geometry":{"x":169875.51999999955,"y":2551847.0500000026}},{"attributes":{"ID":35643,"DIS_CODE":0,"TOWNNAME":"後壁區","LI":"侯伯里","LIN":"7鄰","STREET":" ","SECT":" ","MAREA":"後壁寮","LANE":" ","ALLEY":" ","HOUSE_NO":"５８號之１４","E_COORD97":185290.04999999999,"N_COORD97":2585144.8199999998,"ADDRESS":"後壁寮５８號之１４","OBJECTID":35643},"geometry":{"x":185290.05000000168,"y":2585144.8200000022}},{"attributes":{"ID":35644,"DIS_CODE":0,"TOWNNAME":"後壁區","LI":"崁頂里","LIN":"7鄰","STREET":" ","SECT":" ","MAREA":"崁頂","LANE":" ","ALLEY":" ","HOUSE_NO":"７４號","E_COORD97":183037.37,"N_COORD97":2586553.0899999999,"ADDRESS":"崁頂７４號","OBJECTID":35644},"geometry":{"x":183037.37000000104,"y":2586553.0900000017}},{"attributes":{"ID":35645,"DIS_CODE":0,"TOWNNAME":"後壁區","LI":"侯伯里","LIN":"7鄰","STREET":" ","SECT":" ","MAREA":"後壁寮","LANE":" ","ALLEY":" ","HOUSE_NO":"５８號之１５","E_COORD97":185285.14999999999,"N_COORD97":2585139.29,"ADDRESS":"後壁寮５８號之１５","OBJECTID":35645},"geometry":{"x":185285.1500000013,"y":2585139.2899999991}},{"attributes":{"ID":35646,"DIS_CODE":0,"TOWNNAME":"新化區","LI":"觀音里","LIN":"4鄰","STREET":"中正路","SECT":" ","MAREA":" ","LANE":" ","ALLEY":" ","HOUSE_NO":"５１３號","E_COORD97":179024.60999999999,"N_COORD97":2548576.25,"ADDRESS":"中正路５１３號","OBJECTID":35646},"geometry":{"x":179024.61000000034,"y":2548576.2500000019}},{"attributes":{"ID":35647,"DIS_CODE":0,"TOWNNAME":"新化區","LI":"中央里","LIN":"4鄰","STREET":"中山路","SECT":" ","MAREA":" ","LANE":" ","ALLEY":" ","HOUSE_NO":"２６１號","E_COORD97":179036.70999999999,"N_COORD97":2548415.25,"ADDRESS":"中山路２６１號","OBJECTID":35647},"geometry":{"x":179036.70999999996,"y":2548415.25}},{"attributes":{"ID":35648,"DIS_CODE":0,"TOWNNAME":"新化區","LI":"東榮里","LIN":"20鄰","STREET":"民生路","SECT":" ","MAREA":" ","LANE":" ","ALLEY":" ","HOUSE_NO":"５７號","E_COORD97":179414.35999999999,"N_COORD97":2548408.25,"ADDRESS":"民生路５７號","OBJECTID":35648},"geometry":{"x":179414.36000000034,"y":2548408.25}},{"attributes":{"ID":35649,"DIS_CODE":0,"TOWNNAME":"新化區","LI":"豐榮里","LIN":"13鄰","STREET":"正新南路","SECT":" ","MAREA":" ","LANE":" ","ALLEY":" ","HOUSE_NO":"１７０號","E_COORD97":178781.26999999999,"N_COORD97":2547966.25,"ADDRESS":"正新南路１７０號","OBJECTID":35649},"geometry":{"x":178781.27000000048,"y":2547966.2500000019}},{"attributes":{"ID":35650,"DIS_CODE":0,"TOWNNAME":"新化區","LI":"豐榮里","LIN":"13鄰","STREET":"正新南路","SECT":" ","MAREA":" ","LANE":" ","ALLEY":" ","HOUSE_NO":"１８１號","E_COORD97":178742.37,"N_COORD97":2547934.25,"ADDRESS":"正新南路１８１號","OBJECTID":35650},"geometry":{"x":178742.37000000011,"y":2547934.25}},{"attributes":{"ID":35651,"DIS_CODE":0,"TOWNNAME":"後壁區","LI":"侯伯里","LIN":"7鄰","STREET":" ","SECT":" ","MAREA":"後壁寮","LANE":" ","ALLEY":" ","HOUSE_NO":"５８號之１６","E_COORD97":185283.20000000001,"N_COORD97":2585135.3700000001,"ADDRESS":"後壁寮５８號之１６","OBJECTID":35651},"geometry":{"x":185283.20000000112,"y":2585135.3700000029}},{"attributes":{"ID":35652,"DIS_CODE":0,"TOWNNAME":"後壁區","LI":"侯伯里","LIN":"7鄰","STREET":" ","SECT":" ","MAREA":"後壁寮","LANE":" ","ALLEY":" ","HOUSE_NO":"５８號之１７","E_COORD97":185324.76000000001,"N_COORD97":2585103.2599999998,"ADDRESS":"後壁寮５８號之１７","OBJECTID":35652},"geometry":{"x":185324.76000000071,"y":2585103.2599999979}},{"attributes":{"ID":35653,"DIS_CODE":0,"TOWNNAME":"後壁區","LI":"侯伯里","LIN":"7鄰","STREET":" ","SECT":" ","MAREA":"後壁寮","LANE":" ","ALLEY":" ","HOUSE_NO":"５８號之１８","E_COORD97":185328.56,"N_COORD97":2585102.2000000002,"ADDRESS":"後壁寮５８號之１８","OBJECTID":35653},"geometry":{"x":185328.55999999959,"y":2585102.1999999993}},{"attributes":{"ID":35654,"DIS_CODE":0,"TOWNNAME":"後壁區","LI":"侯伯里","LIN":"7鄰","STREET":" ","SECT":" ","MAREA":"後壁寮","LANE":" ","ALLEY":" ","HOUSE_NO":"５８號之１９","E_COORD97":185332.51000000001,"N_COORD97":2585101.1899999999,"ADDRESS":"後壁寮５８號之１９","OBJECTID":35654},"geometry":{"x":185332.50999999978,"y":2585101.1900000013}},{"attributes":{"ID":35655,"DIS_CODE":0,"TOWNNAME":"後壁區","LI":"侯伯里","LIN":"7鄰","STREET":" ","SECT":" ","MAREA":"後壁寮","LANE":" ","ALLEY":" ","HOUSE_NO":"５８號之１","E_COORD97":185316.34,"N_COORD97":2585192.7599999998,"ADDRESS":"後壁寮５８號之１","OBJECTID":35655},"geometry":{"x":185316.33999999985,"y":2585192.7600000016}},{"attributes":{"ID":35656,"DIS_CODE":0,"TOWNNAME":"北區","LI":"文元里","LIN":"8鄰","STREET":"中華北路","SECT":"二段","MAREA":" ","LANE":"５３巷","ALLEY":"１８弄","HOUSE_NO":"３號","E_COORD97":167567.89000000001,"N_COORD97":2546528.29,"ADDRESS":"中華北路二段５３巷１８弄３號","OBJECTID":35656},"geometry":{"x":167567.89000000153,"y":2546528.290000001}},{"attributes":{"ID":35657,"DIS_CODE":0,"TOWNNAME":"北區","LI":"文元里","LIN":"8鄰","STREET":"中華北路","SECT":"二段","MAREA":" ","LANE":"５３巷","ALLEY":"１６弄","HOUSE_NO":"１２號","E_COORD97":167546.94,"N_COORD97":2546572.2999999998,"ADDRESS":"中華北路二段５３巷１６弄１２號","OBJECTID":35657},"geometry":{"x":167546.94000000134,"y":2546572.2999999989}},{"attributes":{"ID":35658,"DIS_CODE":0,"TOWNNAME":"安南區","LI":"淵中里","LIN":"8鄰","STREET":"安中路","SECT":"四段","MAREA":" ","LANE":"４巷","ALLEY":"４８弄","HOUSE_NO":"１９號","E_COORD97":165177.27117299999,"N_COORD97":2550250.2184799998,"ADDRESS":"安中路四段４巷４８弄１９號","OBJECTID":35658},"geometry":{"x":165177.27117300034,"y":2550250.2184790019}},{"attributes":{"ID":35659,"DIS_CODE":0,"TOWNNAME":"新營區","LI":"新北里","LIN":"8鄰","STREET":"三興街","SECT":" ","MAREA":" ","LANE":"２７５巷","ALLEY":"６６弄","HOUSE_NO":"８號","E_COORD97":179168.26999999999,"N_COORD97":2579677.48,"ADDRESS":"三興街２７５巷６６弄８號","OBJECTID":35659},"geometry":{"x":179168.26999999955,"y":2579677.4800000004}},{"attributes":{"ID":35660,"DIS_CODE":0,"TOWNNAME":"新營區","LI":"新北里","LIN":"8鄰","STREET":"三興街","SECT":" ","MAREA":" ","LANE":"２７５巷","ALLEY":"６６弄","HOUSE_NO":"９號","E_COORD97":179154.89000000001,"N_COORD97":2579680.8599999999,"ADDRESS":"三興街２７５巷６６弄９號","OBJECTID":35660},"geometry":{"x":179154.8900000006,"y":2579680.8599999994}},{"attributes":{"ID":35661,"DIS_CODE":0,"TOWNNAME":"新營區","LI":"新北里","LIN":"8鄰","STREET":"三興街","SECT":" ","MAREA":" ","LANE":"２７５巷","ALLEY":"６６弄","HOUSE_NO":"２之１號","E_COORD97":179170.5,"N_COORD97":2579668.8599999999,"ADDRESS":"三興街２７５巷６６弄２之１號","OBJECTID":35661},"geometry":{"x":179170.5,"y":2579668.8600000013}},{"attributes":{"ID":35662,"DIS_CODE":0,"TOWNNAME":"新營區","LI":"新北里","LIN":"8鄰","STREET":"三興街","SECT":" ","MAREA":" ","LANE":"２７５巷","ALLEY":"６６弄","HOUSE_NO":"２號","E_COORD97":179171.69,"N_COORD97":2579665.7799999998,"ADDRESS":"三興街２７５巷６６弄２號","OBJECTID":35662},"geometry":{"x":179171.69000000041,"y":2579665.7800000012}},{"attributes":{"ID":35663,"DIS_CODE":0,"TOWNNAME":"永康區","LI":"建國里","LIN":"8鄰","STREET":"復國一路","SECT":" ","MAREA":" ","LANE":"６巷","ALLEY":"６６弄","HOUSE_NO":"１５之１號","E_COORD97":172802.39999999999,"N_COORD97":2544698.3100000001,"ADDRESS":"復國一路６巷６６弄１５之１號","OBJECTID":35663},"geometry":{"x":172802.4000000013,"y":2544698.3100000024}},{"attributes":{"ID":35664,"DIS_CODE":0,"TOWNNAME":"南區","LI":"文華里","LIN":"8鄰","STREET":"金華路","SECT":"二段","MAREA":" ","LANE":"３４５巷","ALLEY":"８弄","HOUSE_NO":"１７號","E_COORD97":167084.84,"N_COORD97":2542997.3199999998,"ADDRESS":"金華路二段３４５巷８弄１７號","OBJECTID":35664},"geometry":{"x":167084.83999999985,"y":2542997.3200000003}},{"attributes":{"ID":35665,"DIS_CODE":0,"TOWNNAME":"南區","LI":"文華里","LIN":"8鄰","STREET":"金華路","SECT":"二段","MAREA":" ","LANE":"３４５巷","ALLEY":"２６弄","HOUSE_NO":"４號","E_COORD97":167057.62,"N_COORD97":2542965.1099999999,"ADDRESS":"金華路二段３４５巷２６弄４號","OBJECTID":35665},"geometry":{"x":167057.62000000011,"y":2542965.1100000031}},{"attributes":{"ID":35666,"DIS_CODE":0,"TOWNNAME":"南區","LI":"文華里","LIN":"8鄰","STREET":"金華路","SECT":"二段","MAREA":" ","LANE":"３４５巷","ALLEY":"２６弄","HOUSE_NO":"６號","E_COORD97":167055.91,"N_COORD97":2542976.48,"ADDRESS":"金華路二段３４５巷２６弄６號","OBJECTID":35666},"geometry":{"x":167055.91000000015,"y":2542976.4800000004}},{"attributes":{"ID":35667,"DIS_CODE":0,"TOWNNAME":"南區","LI":"文華里","LIN":"8鄰","STREET":"金華路","SECT":"二段","MAREA":" ","LANE":"３４５巷","ALLEY":"２６弄","HOUSE_NO":"１２號","E_COORD97":167056.72,"N_COORD97":2542993.98,"ADDRESS":"金華路二段３４５巷２６弄１２號","OBJECTID":35667},"geometry":{"x":167056.71999999974,"y":2542993.9799999986}},{"attributes":{"ID":35668,"DIS_CODE":0,"TOWNNAME":"南區","LI":"文華里","LIN":"8鄰","STREET":"金華路","SECT":"二段","MAREA":" ","LANE":"３４５巷","ALLEY":"２６弄","HOUSE_NO":"２２號","E_COORD97":167058.16,"N_COORD97":2543016.1499999999,"ADDRESS":"金華路二段３４５巷２６弄２２號","OBJECTID":35668},"geometry":{"x":167058.16000000108,"y":2543016.1500000004}},{"attributes":{"ID":35669,"DIS_CODE":0,"TOWNNAME":"南區","LI":"田寮里","LIN":"8鄰","STREET":"新興路","SECT":" ","MAREA":" ","LANE":"１８３巷","ALLEY":"１６弄","HOUSE_NO":"７號","E_COORD97":167417.14999999999,"N_COORD97":2541958.2999999998,"ADDRESS":"新興路１８３巷１６弄７號","OBJECTID":35669},"geometry":{"x":167417.15000000037,"y":2541958.3000000045}},{"attributes":{"ID":35670,"DIS_CODE":0,"TOWNNAME":"南區","LI":"田寮里","LIN":"8鄰","STREET":"新興路","SECT":" ","MAREA":" ","LANE":"１８３巷","ALLEY":"１６弄","HOUSE_NO":"９號","E_COORD97":167416.64999999999,"N_COORD97":2541956.54,"ADDRESS":"新興路１８３巷１６弄９號","OBJECTID":35670},"geometry":{"x":167416.6500000013,"y":2541956.540000001}},{"attributes":{"ID":35671,"DIS_CODE":0,"TOWNNAME":"安南區","LI":"安慶里","LIN":"14鄰","STREET":"安中路","SECT":"一段","MAREA":" ","LANE":" ","ALLEY":" ","HOUSE_NO":"８１號","E_COORD97":169056.42000000001,"N_COORD97":2548298.0899999999,"ADDRESS":"安中路一段８１號","OBJECTID":35671},"geometry":{"x":169056.42000000086,"y":2548298.0899999999}},{"attributes":{"ID":35672,"DIS_CODE":0,"TOWNNAME":"安南區","LI":"安慶里","LIN":"14鄰","STREET":"安中路","SECT":"一段","MAREA":" ","LANE":" ","ALLEY":" ","HOUSE_NO":"８３號","E_COORD97":169049.39999999999,"N_COORD97":2548301.4300000002,"ADDRESS":"安中路一段８３號","OBJECTID":35672},"geometry":{"x":169049.40000000037,"y":2548301.4299999997}},{"attributes":{"ID":35673,"DIS_CODE":0,"TOWNNAME":"安南區","LI":"安慶里","LIN":"14鄰","STREET":"安中路","SECT":"一段","MAREA":" ","LANE":" ","ALLEY":" ","HOUSE_NO":"８７號","E_COORD97":169024.17000000001,"N_COORD97":2548309.6000000001,"ADDRESS":"安中路一段８７號","OBJECTID":35673},"geometry":{"x":169024.17000000179,"y":2548309.6000000015}},{"attributes":{"ID":35674,"DIS_CODE":0,"TOWNNAME":"安南區","LI":"安慶里","LIN":"14鄰","STREET":"安中路","SECT":"一段","MAREA":" ","LANE":" ","ALLEY":" ","HOUSE_NO":"９０號","E_COORD97":169031.98999999999,"N_COORD97":2548349.3900000001,"ADDRESS":"安中路一段９０號","OBJECTID":35674},"geometry":{"x":169031.99000000022,"y":2548349.3900000025}},{"attributes":{"ID":35675,"DIS_CODE":0,"TOWNNAME":"安南區","LI":"安慶里","LIN":"14鄰","STREET":"安中路","SECT":"一段","MAREA":" ","LANE":" ","ALLEY":" ","HOUSE_NO":"９６號","E_COORD97":169024.94,"N_COORD97":2548351.1499999999,"ADDRESS":"安中路一段９６號","OBJECTID":35675},"geometry":{"x":169024.94000000134,"y":2548351.1500000022}},{"attributes":{"ID":35676,"DIS_CODE":0,"TOWNNAME":"六甲區","LI":"龍湖里","LIN":"14鄰","STREET":"中正路","SECT":" ","MAREA":" ","LANE":" ","ALLEY":" ","HOUSE_NO":"１３８號","E_COORD97":183437.35999999999,"N_COORD97":2568993.79,"ADDRESS":"中正路１３８號","OBJECTID":35676},"geometry":{"x":183437.3600000022,"y":2568993.7899999991}},{"attributes":{"ID":35677,"DIS_CODE":0,"TOWNNAME":"南區","LI":"田寮里","LIN":"8鄰","STREET":"新興路","SECT":" ","MAREA":" ","LANE":"１８３巷","ALLEY":"１６弄","HOUSE_NO":"１１號","E_COORD97":167415.89000000001,"N_COORD97":2541955.02,"ADDRESS":"新興路１８３巷１６弄１１號","OBJECTID":35677},"geometry":{"x":167415.8900000006,"y":2541955.0199999996}},{"attributes":{"ID":35678,"DIS_CODE":0,"TOWNNAME":"南區","LI":"田寮里","LIN":"8鄰","STREET":"新興路","SECT":" ","MAREA":" ","LANE":"１８３巷","ALLEY":"１６弄","HOUSE_NO":"１７號","E_COORD97":167414.88,"N_COORD97":2541953.2599999998,"ADDRESS":"新興路１８３巷１６弄１７號","OBJECTID":35678},"geometry":{"x":167414.87999999989,"y":2541953.2599999998}},{"attributes":{"ID":35679,"DIS_CODE":0,"TOWNNAME":"南區","LI":"田寮里","LIN":"8鄰","STREET":"新興路","SECT":" ","MAREA":" ","LANE":"１８３巷","ALLEY":"１６弄","HOUSE_NO":"１９號","E_COORD97":167413.62,"N_COORD97":2541951.7400000002,"ADDRESS":"新興路１８３巷１６弄１９號","OBJECTID":35679},"geometry":{"x":167413.62000000011,"y":2541951.7400000021}},{"attributes":{"ID":35680,"DIS_CODE":0,"TOWNNAME":"南區","LI":"田寮里","LIN":"8鄰","STREET":"新興路","SECT":" ","MAREA":" ","LANE":"１８３巷","ALLEY":"１６弄","HOUSE_NO":"２１號","E_COORD97":167412.60999999999,"N_COORD97":2541949.73,"ADDRESS":"新興路１８３巷１６弄２１號","OBJECTID":35680},"geometry":{"x":167412.61000000034,"y":2541949.7300000023}},{"attributes":{"ID":35681,"DIS_CODE":0,"TOWNNAME":"南區","LI":"田寮里","LIN":"8鄰","STREET":"新興路","SECT":" ","MAREA":" ","LANE":"１８３巷","ALLEY":"２弄","HOUSE_NO":"２號","E_COORD97":167380.28,"N_COORD97":2541986.29,"ADDRESS":"新興路１８３巷２弄２號","OBJECTID":35681},"geometry":{"x":167380.28000000026,"y":2541986.2899999991}},{"attributes":{"ID":35682,"DIS_CODE":0,"TOWNNAME":"南區","LI":"田寮里","LIN":"8鄰","STREET":"新興路","SECT":" ","MAREA":" ","LANE":"１８３巷","ALLEY":"２弄","HOUSE_NO":"４號","E_COORD97":167377.76000000001,"N_COORD97":2541983.0099999998,"ADDRESS":"新興路１８３巷２弄４號","OBJECTID":35682},"geometry":{"x":167377.76000000071,"y":2541983.0100000035}},{"attributes":{"ID":35683,"DIS_CODE":0,"TOWNNAME":"南區","LI":"田寮里","LIN":"8鄰","STREET":"新興路","SECT":" ","MAREA":" ","LANE":"１８３巷","ALLEY":"２弄","HOUSE_NO":"６號","E_COORD97":167375.98999999999,"N_COORD97":2541979.9900000002,"ADDRESS":"新興路１８３巷２弄６號","OBJECTID":35683},"geometry":{"x":167375.99000000022,"y":2541979.9899999984}},{"attributes":{"ID":35684,"DIS_CODE":0,"TOWNNAME":"南區","LI":"田寮里","LIN":"8鄰","STREET":"新興路","SECT":" ","MAREA":" ","LANE":"１８３巷","ALLEY":"２弄","HOUSE_NO":"８號","E_COORD97":167374.73000000001,"N_COORD97":2541975.7000000002,"ADDRESS":"新興路１８３巷２弄８號","OBJECTID":35684},"geometry":{"x":167374.73000000231,"y":2541975.7000000011}},{"attributes":{"ID":35685,"DIS_CODE":0,"TOWNNAME":"南區","LI":"田寮里","LIN":"8鄰","STREET":"新興路","SECT":" ","MAREA":" ","LANE":"１８３巷","ALLEY":"２弄","HOUSE_NO":"１０號","E_COORD97":167372.95999999999,"N_COORD97":2541971.9199999999,"ADDRESS":"新興路１８３巷２弄１０號","OBJECTID":35685},"geometry":{"x":167372.96000000089,"y":2541971.9199999999}},{"attributes":{"ID":35686,"DIS_CODE":0,"TOWNNAME":"南區","LI":"田寮里","LIN":"8鄰","STREET":"新興路","SECT":" ","MAREA":" ","LANE":"１８３巷","ALLEY":"２弄","HOUSE_NO":"１２號","E_COORD97":167372.45000000001,"N_COORD97":2541967.6299999999,"ADDRESS":"新興路１８３巷２弄１２號","OBJECTID":35686},"geometry":{"x":167372.45000000019,"y":2541967.6300000027}},{"attributes":{"ID":35687,"DIS_CODE":0,"TOWNNAME":"南區","LI":"田寮里","LIN":"8鄰","STREET":"新興路","SECT":" ","MAREA":" ","LANE":"１８３巷","ALLEY":"１６弄","HOUSE_NO":"４號之１","E_COORD97":167403.26000000001,"N_COORD97":2541965.3599999999,"ADDRESS":"新興路１８３巷１６弄４號之１","OBJECTID":35687},"geometry":{"x":167403.26000000071,"y":2541965.3599999994}},{"attributes":{"ID":35688,"DIS_CODE":0,"TOWNNAME":"南區","LI":"田寮里","LIN":"8鄰","STREET":"新興路","SECT":" ","MAREA":" ","LANE":"１８３巷","ALLEY":"１６弄","HOUSE_NO":"６號","E_COORD97":167400.73999999999,"N_COORD97":2541960.0699999998,"ADDRESS":"新興路１８３巷１６弄６號","OBJECTID":35688},"geometry":{"x":167400.74000000115,"y":2541960.0700000022}},{"attributes":{"ID":35689,"DIS_CODE":0,"TOWNNAME":"南區","LI":"田寮里","LIN":"8鄰","STREET":"新興路","SECT":" ","MAREA":" ","LANE":"１８３巷","ALLEY":"１６弄","HOUSE_NO":"８號","E_COORD97":167398.20999999999,"N_COORD97":2541954.0099999998,"ADDRESS":"新興路１８３巷１６弄８號","OBJECTID":35689},"geometry":{"x":167398.21000000183,"y":2541954.0100000016}},{"attributes":{"ID":35690,"DIS_CODE":0,"TOWNNAME":"南區","LI":"田寮里","LIN":"8鄰","STREET":"新興路","SECT":" ","MAREA":" ","LANE":"１８３巷","ALLEY":"１６弄","HOUSE_NO":"１號","E_COORD97":167421.95000000001,"N_COORD97":2541965.3599999999,"ADDRESS":"新興路１８３巷１６弄１號","OBJECTID":35690},"geometry":{"x":167421.95000000019,"y":2541965.3599999994}},{"attributes":{"ID":35691,"DIS_CODE":0,"TOWNNAME":"南區","LI":"田寮里","LIN":"8鄰","STREET":"新興路","SECT":" ","MAREA":" ","LANE":"１８３巷","ALLEY":"１６弄","HOUSE_NO":"３號","E_COORD97":167419.67999999999,"N_COORD97":2541962.0800000001,"ADDRESS":"新興路１８３巷１６弄３號","OBJECTID":35691},"geometry":{"x":167419.6799999997,"y":2541962.0800000001}},{"attributes":{"ID":35692,"DIS_CODE":0,"TOWNNAME":"新營區","LI":"嘉芳里","LIN":"14鄰","STREET":"新工路","SECT":" ","MAREA":" ","LANE":" ","ALLEY":" ","HOUSE_NO":"１９號","E_COORD97":176564.39999999999,"N_COORD97":2578229.4300000002,"ADDRESS":"新工路１９號","OBJECTID":35692},"geometry":{"x":176564.40000000037,"y":2578229.4299999997}},{"attributes":{"ID":35693,"DIS_CODE":0,"TOWNNAME":"新化區","LI":"觀音里","LIN":"4鄰","STREET":"中正路","SECT":" ","MAREA":" ","LANE":" ","ALLEY":" ","HOUSE_NO":"４９９號","E_COORD97":179030.70999999999,"N_COORD97":2548555.25,"ADDRESS":"中正路４９９號","OBJECTID":35693},"geometry":{"x":179030.71000000089,"y":2548555.2499999981}},{"attributes":{"ID":35694,"DIS_CODE":0,"TOWNNAME":"新化區","LI":"東榮里","LIN":"20鄰","STREET":"民生路","SECT":" ","MAREA":" ","LANE":" ","ALLEY":" ","HOUSE_NO":"２５號","E_COORD97":179420.45999999999,"N_COORD97":2548309.25,"ADDRESS":"民生路２５號","OBJECTID":35694},"geometry":{"x":179420.46000000183,"y":2548309.2500000019}},{"attributes":{"ID":35695,"DIS_CODE":0,"TOWNNAME":"新化區","LI":"東榮里","LIN":"20鄰","STREET":"復興路","SECT":" ","MAREA":" ","LANE":" ","ALLEY":" ","HOUSE_NO":"２２６號","E_COORD97":179384.62,"N_COORD97":2548233.25,"ADDRESS":"復興路２２６號","OBJECTID":35695},"geometry":{"x":179384.62000000104,"y":2548233.2499999981}},{"attributes":{"ID":35696,"DIS_CODE":0,"TOWNNAME":"新化區","LI":"武安里","LIN":"14鄰","STREET":"健康路","SECT":" ","MAREA":" ","LANE":" ","ALLEY":" ","HOUSE_NO":"１１６號","E_COORD97":178811.82999999999,"N_COORD97":2548179.2599999998,"ADDRESS":"健康路１１６號","OBJECTID":35696},"geometry":{"x":178811.83000000101,"y":2548179.2600000016}},{"attributes":{"ID":35697,"DIS_CODE":0,"TOWNNAME":"新化區","LI":"太平里","LIN":"17鄰","STREET":"民權街","SECT":" ","MAREA":" ","LANE":" ","ALLEY":" ","HOUSE_NO":"１０２號","E_COORD97":178736.91,"N_COORD97":2548734.25,"ADDRESS":"民權街１０２號","OBJECTID":35697},"geometry":{"x":178736.91000000108,"y":2548734.25}},{"attributes":{"ID":35698,"DIS_CODE":0,"TOWNNAME":"新化區","LI":"武安里","LIN":"8鄰","STREET":"和平街","SECT":" ","MAREA":" ","LANE":" ","ALLEY":" ","HOUSE_NO":"１５０號","E_COORD97":178913.72,"N_COORD97":2548228.25,"ADDRESS":"和平街１５０號","OBJECTID":35698},"geometry":{"x":178913.72000000067,"y":2548228.2500000019}},{"attributes":{"ID":35699,"DIS_CODE":0,"TOWNNAME":"新化區","LI":"東榮里","LIN":"20鄰","STREET":"民生路","SECT":" ","MAREA":" ","LANE":" ","ALLEY":" ","HOUSE_NO":"１５號之８","E_COORD97":179423.62,"N_COORD97":2548269.2599999998,"ADDRESS":"民生路１５號之８","OBJECTID":35699},"geometry":{"x":179423.62000000104,"y":2548269.2599999998}},{"attributes":{"ID":35700,"DIS_CODE":0,"TOWNNAME":"新化區","LI":"豐榮里","LIN":"4鄰","STREET":"中山路","SECT":" ","MAREA":" ","LANE":" ","ALLEY":" ","HOUSE_NO":"６９３號之１０","E_COORD97":177970.768068,"N_COORD97":2548454.3728700001,"ADDRESS":"中山路６９３號之１０","OBJECTID":35700},"geometry":{"x":177970.76806799974,"y":2548454.3728659991}},{"attributes":{"ID":35701,"DIS_CODE":0,"TOWNNAME":"新化區","LI":"豐榮里","LIN":"4鄰","STREET":"中山路","SECT":" ","MAREA":" ","LANE":" ","ALLEY":" ","HOUSE_NO":"６９３號","E_COORD97":178000.60999999999,"N_COORD97":2548462.25,"ADDRESS":"中山路６９３號","OBJECTID":35701},"geometry":{"x":178000.61000000034,"y":2548462.2500000019}},{"attributes":{"ID":35702,"DIS_CODE":0,"TOWNNAME":"新化區","LI":"武安里","LIN":"4鄰","STREET":"大同街","SECT":" ","MAREA":" ","LANE":" ","ALLEY":" ","HOUSE_NO":"４２號之３","E_COORD97":179030.32999999999,"N_COORD97":2548201.2599999998,"ADDRESS":"大同街４２號之３","OBJECTID":35702},"geometry":{"x":179030.33000000101,"y":2548201.2599999998}},{"attributes":{"ID":35703,"DIS_CODE":0,"TOWNNAME":"新化區","LI":"豐榮里","LIN":"13鄰","STREET":"民治路","SECT":" ","MAREA":" ","LANE":" ","ALLEY":" ","HOUSE_NO":"２２號","E_COORD97":178745.45999999999,"N_COORD97":2548007.25,"ADDRESS":"民治路２２號","OBJECTID":35703},"geometry":{"x":178745.45999999996,"y":2548007.2500000019}},{"attributes":{"ID":35704,"DIS_CODE":0,"TOWNNAME":"新化區","LI":"太平里","LIN":"4鄰","STREET":"民生路","SECT":" ","MAREA":" ","LANE":" ","ALLEY":" ","HOUSE_NO":"２６５號","E_COORD97":179000.01000000001,"N_COORD97":2549064.25,"ADDRESS":"民生路２６５號","OBJECTID":35704},"geometry":{"x":179000.01000000071,"y":2549064.2500000037}},{"attributes":{"ID":35705,"DIS_CODE":0,"TOWNNAME":"新化區","LI":"太平里","LIN":"4鄰","STREET":"民生路","SECT":" ","MAREA":" ","LANE":" ","ALLEY":" ","HOUSE_NO":"２５３號","E_COORD97":179016.91,"N_COORD97":2549039.25,"ADDRESS":"民生路２５３號","OBJECTID":35705},"geometry":{"x":179016.91000000015,"y":2549039.25}},{"attributes":{"ID":35706,"DIS_CODE":0,"TOWNNAME":"新化區","LI":"豐榮里","LIN":"13鄰","STREET":"民治路","SECT":" ","MAREA":" ","LANE":" ","ALLEY":" ","HOUSE_NO":"２３號","E_COORD97":178720.16,"N_COORD97":2548020.25,"ADDRESS":"民治路２３號","OBJECTID":35706},"geometry":{"x":178720.16000000015,"y":2548020.2500000019}},{"attributes":{"ID":35707,"DIS_CODE":0,"TOWNNAME":"新化區","LI":"豐榮里","LIN":"13鄰","STREET":"信義路","SECT":" ","MAREA":" ","LANE":" ","ALLEY":" ","HOUSE_NO":"３７１號之１","E_COORD97":178708.35999999999,"N_COORD97":2548270.2599999998,"ADDRESS":"信義路３７１號之１","OBJECTID":35707},"geometry":{"x":178708.36000000127,"y":2548270.2600000035}},{"attributes":{"ID":35708,"DIS_CODE":0,"TOWNNAME":"新化區","LI":"護國里","LIN":"7鄰","STREET":"民生路","SECT":" ","MAREA":" ","LANE":" ","ALLEY":" ","HOUSE_NO":"８５號","E_COORD97":179353.45999999999,"N_COORD97":2548548.25,"ADDRESS":"民生路８５號","OBJECTID":35708},"geometry":{"x":179353.46000000089,"y":2548548.25}},{"attributes":{"ID":35709,"DIS_CODE":0,"TOWNNAME":"新化區","LI":"護國里","LIN":"7鄰","STREET":"復興路","SECT":" ","MAREA":" ","LANE":" ","ALLEY":" ","HOUSE_NO":"２９２號之２","E_COORD97":179333.38,"N_COORD97":2548468.2599999998,"ADDRESS":"復興路２９２號之２","OBJECTID":35709},"geometry":{"x":179333.38000000082,"y":2548468.2600000016}},{"attributes":{"ID":35710,"DIS_CODE":0,"TOWNNAME":"後壁區","LI":"侯伯里","LIN":"7鄰","STREET":" ","SECT":" ","MAREA":"後壁寮","LANE":" ","ALLEY":" ","HOUSE_NO":"５８號之２０","E_COORD97":185336.73000000001,"N_COORD97":2585100.5499999998,"ADDRESS":"後壁寮５８號之２０","OBJECTID":35710},"geometry":{"x":185336.73000000045,"y":2585100.5500000026}},{"attributes":{"ID":35711,"DIS_CODE":0,"TOWNNAME":"南區","LI":"田寮里","LIN":"8鄰","STREET":"新興路","SECT":" ","MAREA":" ","LANE":"１８３巷","ALLEY":"１６弄","HOUSE_NO":"５號","E_COORD97":167418.41,"N_COORD97":2541960.0699999998,"ADDRESS":"新興路１８３巷１６弄５號","OBJECTID":35711},"geometry":{"x":167418.41000000015,"y":2541960.0700000022}},{"attributes":{"ID":35712,"DIS_CODE":0,"TOWNNAME":"永康區","LI":"成功里","LIN":"8鄰","STREET":"忠孝路","SECT":" ","MAREA":" ","LANE":"２０７巷","ALLEY":"３０弄","HOUSE_NO":"７號","E_COORD97":172006.26000000001,"N_COORD97":2544948.9900000002,"ADDRESS":"忠孝路２０７巷３０弄７號","OBJECTID":35712},"geometry":{"x":172006.25999999978,"y":2544948.9900000002}},{"attributes":{"ID":35713,"DIS_CODE":0,"TOWNNAME":"永康區","LI":"成功里","LIN":"8鄰","STREET":"忠孝路","SECT":" ","MAREA":" ","LANE":"２０７巷","ALLEY":"３０弄","HOUSE_NO":"４號","E_COORD97":171991.51000000001,"N_COORD97":2544960.4700000002,"ADDRESS":"忠孝路２０７巷３０弄４號","OBJECTID":35713},"geometry":{"x":171991.51000000164,"y":2544960.4700000007}},{"attributes":{"ID":35714,"DIS_CODE":0,"TOWNNAME":"新化區","LI":"東榮里","LIN":"20鄰","STREET":"復興路","SECT":" ","MAREA":" ","LANE":" ","ALLEY":" ","HOUSE_NO":"２３８號","E_COORD97":179391.32000000001,"N_COORD97":2548303.25,"ADDRESS":"復興路２３８號","OBJECTID":35714},"geometry":{"x":179391.32000000216,"y":2548303.25}},{"attributes":{"ID":35715,"DIS_CODE":0,"TOWNNAME":"永康區","LI":"成功里","LIN":"8鄰","STREET":"忠孝路","SECT":" ","MAREA":" ","LANE":"２０７巷","ALLEY":"３０弄","HOUSE_NO":"１１號","E_COORD97":172007.25,"N_COORD97":2544935.7400000002,"ADDRESS":"忠孝路２０７巷３０弄１１號","OBJECTID":35715},"geometry":{"x":172007.25000000186,"y":2544935.7400000021}},{"attributes":{"ID":35716,"DIS_CODE":0,"TOWNNAME":"永康區","LI":"成功里","LIN":"8鄰","STREET":"忠孝路","SECT":" ","MAREA":" ","LANE":"２３９巷","ALLEY":"３７弄","HOUSE_NO":"２７號","E_COORD97":171984.76000000001,"N_COORD97":2544926.46,"ADDRESS":"忠孝路２３９巷３７弄２７號","OBJECTID":35716},"geometry":{"x":171984.76000000164,"y":2544926.4600000009}},{"attributes":{"ID":35717,"DIS_CODE":0,"TOWNNAME":"永康區","LI":"安康里","LIN":"8鄰","STREET":"中山南路","SECT":" ","MAREA":" ","LANE":"１１９巷","ALLEY":"１１弄","HOUSE_NO":"８號","E_COORD97":171024.01999999999,"N_COORD97":2546024.5,"ADDRESS":"中山南路１１９巷１１弄８號","OBJECTID":35717},"geometry":{"x":171024.02000000048,"y":2546024.5000000037}},{"attributes":{"ID":35718,"DIS_CODE":0,"TOWNNAME":"永康區","LI":"成功里","LIN":"8鄰","STREET":"忠孝路","SECT":" ","MAREA":" ","LANE":"２０７巷","ALLEY":"３０弄","HOUSE_NO":"５號","E_COORD97":172006,"N_COORD97":2544955.75,"ADDRESS":"忠孝路２０７巷３０弄５號","OBJECTID":35718},"geometry":{"x":172006.00000000093,"y":2544955.7500000019}},{"attributes":{"ID":35719,"DIS_CODE":0,"TOWNNAME":"永康區","LI":"安康里","LIN":"8鄰","STREET":"中山南路","SECT":" ","MAREA":" ","LANE":"１１９巷","ALLEY":"１１弄","HOUSE_NO":"７號","E_COORD97":171018.79999999999,"N_COORD97":2546020.5,"ADDRESS":"中山南路１１９巷１１弄７號","OBJECTID":35719},"geometry":{"x":171018.80000000075,"y":2546020.5}},{"attributes":{"ID":35720,"DIS_CODE":0,"TOWNNAME":"永康區","LI":"成功里","LIN":"8鄰","STREET":"忠孝路","SECT":" ","MAREA":" ","LANE":"２０７巷","ALLEY":"３０弄","HOUSE_NO":"９號","E_COORD97":172006,"N_COORD97":2544943.2400000002,"ADDRESS":"忠孝路２０７巷３０弄９號","OBJECTID":35720},"geometry":{"x":172006.00000000093,"y":2544943.2400000021}},{"attributes":{"ID":35721,"DIS_CODE":0,"TOWNNAME":"安南區","LI":"安西里","LIN":"8鄰","STREET":"安中路","SECT":"一段","MAREA":" ","LANE":"７７巷","ALLEY":"７弄","HOUSE_NO":"５號","E_COORD97":169100.07000000001,"N_COORD97":2548242.5099999998,"ADDRESS":"安中路一段７７巷７弄５號","OBJECTID":35721},"geometry":{"x":169100.07000000123,"y":2548242.5100000016}},{"attributes":{"ID":35722,"DIS_CODE":0,"TOWNNAME":"安南區","LI":"安西里","LIN":"8鄰","STREET":"安中路","SECT":"一段","MAREA":" ","LANE":"７７巷","ALLEY":"７弄","HOUSE_NO":"６號","E_COORD97":169078.54000000001,"N_COORD97":2548240.1699999999,"ADDRESS":"安中路一段７７巷７弄６號","OBJECTID":35722},"geometry":{"x":169078.54000000004,"y":2548240.1699999999}},{"attributes":{"ID":35723,"DIS_CODE":0,"TOWNNAME":"安南區","LI":"安西里","LIN":"8鄰","STREET":"安中路","SECT":"一段","MAREA":" ","LANE":"７７巷","ALLEY":"７弄","HOUSE_NO":"７號","E_COORD97":169103.20000000001,"N_COORD97":2548237.4300000002,"ADDRESS":"安中路一段７７巷７弄７號","OBJECTID":35723},"geometry":{"x":169103.20000000019,"y":2548237.4299999997}},{"attributes":{"ID":35724,"DIS_CODE":0,"TOWNNAME":"新化區","LI":"豐榮里","LIN":"13鄰","STREET":"民治路","SECT":" ","MAREA":" ","LANE":" ","ALLEY":" ","HOUSE_NO":"６８號","E_COORD97":178749.06,"N_COORD97":2548091.25,"ADDRESS":"民治路６８號","OBJECTID":35724},"geometry":{"x":178749.05999999959,"y":2548091.2500000037}},{"attributes":{"ID":35725,"DIS_CODE":0,"TOWNNAME":"新化區","LI":"清水里","LIN":"8鄰","STREET":"民治路","SECT":" ","MAREA":" ","LANE":" ","ALLEY":" ","HOUSE_NO":"２９６號之６","E_COORD97":178675.26000000001,"N_COORD97":2548597.2599999998,"ADDRESS":"民治路２９６號之６","OBJECTID":35725},"geometry":{"x":178675.25999999978,"y":2548597.2600000016}},{"attributes":{"ID":35726,"DIS_CODE":0,"TOWNNAME":"新化區","LI":"豐榮里","LIN":"7鄰","STREET":"大智路","SECT":" ","MAREA":" ","LANE":" ","ALLEY":" ","HOUSE_NO":"１７０號","E_COORD97":178041.23000000001,"N_COORD97":2548110.25,"ADDRESS":"大智路１７０號","OBJECTID":35726},"geometry":{"x":178041.23000000138,"y":2548110.25}},{"attributes":{"ID":35727,"DIS_CODE":0,"TOWNNAME":"新化區","LI":"武安里","LIN":"4鄰","STREET":"大同街","SECT":" ","MAREA":" ","LANE":" ","ALLEY":" ","HOUSE_NO":"４８號","E_COORD97":179002.88,"N_COORD97":2548220.25,"ADDRESS":"大同街４８號","OBJECTID":35727},"geometry":{"x":179002.88000000082,"y":2548220.2500000019}},{"attributes":{"ID":35728,"DIS_CODE":0,"TOWNNAME":"新化區","LI":"唪口里","LIN":"4鄰","STREET":"大德路","SECT":" ","MAREA":" ","LANE":" ","ALLEY":" ","HOUSE_NO":"８６號之２","E_COORD97":178194.92999999999,"N_COORD97":2549484.2599999998,"ADDRESS":"大德路８６號之２","OBJECTID":35728},"geometry":{"x":178194.93000000063,"y":2549484.2600000035}},{"attributes":{"ID":35729,"DIS_CODE":0,"TOWNNAME":"新化區","LI":"太平里","LIN":"4鄰","STREET":"民生路","SECT":" ","MAREA":" ","LANE":" ","ALLEY":" ","HOUSE_NO":"２０８號","E_COORD97":179091.91,"N_COORD97":2548958.25,"ADDRESS":"民生路２０８號","OBJECTID":35729},"geometry":{"x":179091.91000000015,"y":2548958.25}},{"attributes":{"ID":35730,"DIS_CODE":0,"TOWNNAME":"新化區","LI":"太平里","LIN":"4鄰","STREET":"民生路","SECT":" ","MAREA":" ","LANE":" ","ALLEY":" ","HOUSE_NO":"２１９號","E_COORD97":179071.70999999999,"N_COORD97":2548962.25,"ADDRESS":"民生路２１９號","OBJECTID":35730},"geometry":{"x":179071.71000000089,"y":2548962.2500000037}},{"attributes":{"ID":35731,"DIS_CODE":0,"TOWNNAME":"安南區","LI":"安西里","LIN":"8鄰","STREET":"安中路","SECT":"一段","MAREA":" ","LANE":"７７巷","ALLEY":"７弄","HOUSE_NO":"８號","E_COORD97":169080.5,"N_COORD97":2548235.8700000001,"ADDRESS":"安中路一段７７巷７弄８號","OBJECTID":35731},"geometry":{"x":169080.5,"y":2548235.870000001}},{"attributes":{"ID":35732,"DIS_CODE":0,"TOWNNAME":"安南區","LI":"安西里","LIN":"8鄰","STREET":"安中路","SECT":"一段","MAREA":" ","LANE":"７７巷","ALLEY":"７弄","HOUSE_NO":"９號","E_COORD97":169105.16,"N_COORD97":2548232.7400000002,"ADDRESS":"安中路一段７７巷７弄９號","OBJECTID":35732},"geometry":{"x":169105.16000000015,"y":2548232.7400000002}},{"attributes":{"ID":35733,"DIS_CODE":0,"TOWNNAME":"安南區","LI":"安西里","LIN":"8鄰","STREET":"安中路","SECT":"一段","MAREA":" ","LANE":"７７巷","ALLEY":"７弄","HOUSE_NO":"１０號","E_COORD97":169081.28,"N_COORD97":2548231.96,"ADDRESS":"安中路一段７７巷７弄１０號","OBJECTID":35733},"geometry":{"x":169081.28000000212,"y":2548231.9600000009}},{"attributes":{"ID":35734,"DIS_CODE":0,"TOWNNAME":"麻豆區","LI":"東角里","LIN":"15鄰","STREET":"民生路","SECT":" ","MAREA":" ","LANE":" ","ALLEY":" ","HOUSE_NO":"７３號","E_COORD97":173778.67999999999,"N_COORD97":2564408.8399999999,"ADDRESS":"民生路７３號","OBJECTID":35734},"geometry":{"x":173778.67999999877,"y":2564408.8400000017}},{"attributes":{"ID":35735,"DIS_CODE":0,"TOWNNAME":"麻豆區","LI":"東角里","LIN":"3鄰","STREET":"民生路","SECT":" ","MAREA":" ","LANE":" ","ALLEY":" ","HOUSE_NO":"７號之２","E_COORD97":173564.89999999999,"N_COORD97":2564913.79,"ADDRESS":"民生路７號之２","OBJECTID":35735},"geometry":{"x":173564.9000000013,"y":2564913.790000001}},{"attributes":{"ID":35736,"DIS_CODE":0,"TOWNNAME":"新化區","LI":"觀音里","LIN":"4鄰","STREET":"中正路","SECT":" ","MAREA":" ","LANE":" ","ALLEY":" ","HOUSE_NO":"４９１號","E_COORD97":179035.60999999999,"N_COORD97":2548539.25,"ADDRESS":"中正路４９１號","OBJECTID":35736},"geometry":{"x":179035.61000000127,"y":2548539.2500000019}},{"attributes":{"ID":35737,"DIS_CODE":0,"TOWNNAME":"新化區","LI":"豐榮里","LIN":"13鄰","STREET":"民治路","SECT":" ","MAREA":" ","LANE":" ","ALLEY":" ","HOUSE_NO":"５０號","E_COORD97":178733.35999999999,"N_COORD97":2548065.25,"ADDRESS":"民治路５０號","OBJECTID":35737},"geometry":{"x":178733.3600000022,"y":2548065.2500000019}},{"attributes":{"ID":35738,"DIS_CODE":0,"TOWNNAME":"新化區","LI":"護國里","LIN":"8鄰","STREET":"信義路","SECT":" ","MAREA":" ","LANE":" ","ALLEY":" ","HOUSE_NO":"９４號之１","E_COORD97":179827.41,"N_COORD97":2548749.2599999998,"ADDRESS":"信義路９４號之１","OBJECTID":35738},"geometry":{"x":179827.41000000015,"y":2548749.2600000016}},{"attributes":{"ID":35739,"DIS_CODE":0,"TOWNNAME":"新化區","LI":"豐榮里","LIN":"13鄰","STREET":"民治路","SECT":" ","MAREA":" ","LANE":" ","ALLEY":" ","HOUSE_NO":"７號","E_COORD97":178728.20999999999,"N_COORD97":2547981.25,"ADDRESS":"民治路７號","OBJECTID":35739},"geometry":{"x":178728.20999999996,"y":2547981.25}},{"attributes":{"ID":35740,"DIS_CODE":0,"TOWNNAME":"新化區","LI":"知義里","LIN":"14鄰","STREET":"復興路","SECT":" ","MAREA":" ","LANE":" ","ALLEY":" ","HOUSE_NO":"２５號","E_COORD97":179580.76999999999,"N_COORD97":2547281.25,"ADDRESS":"復興路２５號","OBJECTID":35740},"geometry":{"x":179580.77000000142,"y":2547281.2500000019}},{"attributes":{"ID":35741,"DIS_CODE":0,"TOWNNAME":"新化區","LI":"唪口里","LIN":"4鄰","STREET":"大德路","SECT":" ","MAREA":" ","LANE":" ","ALLEY":" ","HOUSE_NO":"８８號之９","E_COORD97":178167.82000000001,"N_COORD97":2549510.2599999998,"ADDRESS":"大德路８８號之９","OBJECTID":35741},"geometry":{"x":178167.82000000123,"y":2549510.2599999998}},{"attributes":{"ID":35742,"DIS_CODE":0,"TOWNNAME":"後壁區","LI":"侯伯里","LIN":"7鄰","STREET":" ","SECT":" ","MAREA":"後壁寮","LANE":" ","ALLEY":" ","HOUSE_NO":"５８號之２１","E_COORD97":185340.63,"N_COORD97":2585099.3799999999,"ADDRESS":"後壁寮５８號之２１","OBJECTID":35742},"geometry":{"x":185340.63000000175,"y":2585099.3800000008}},{"attributes":{"ID":35743,"DIS_CODE":0,"TOWNNAME":"後壁區","LI":"侯伯里","LIN":"7鄰","STREET":" ","SECT":" ","MAREA":"後壁寮","LANE":" ","ALLEY":" ","HOUSE_NO":"５８號之２２","E_COORD97":185344.66,"N_COORD97":2585098.5299999998,"ADDRESS":"後壁寮５８號之２２","OBJECTID":35743},"geometry":{"x":185344.66000000108,"y":2585098.5300000012}},{"attributes":{"ID":35744,"DIS_CODE":0,"TOWNNAME":"安南區","LI":"安西里","LIN":"8鄰","STREET":"安中路","SECT":"一段","MAREA":" ","LANE":"７７巷","ALLEY":"１１弄","HOUSE_NO":"３號","E_COORD97":169060.92999999999,"N_COORD97":2548237.8199999998,"ADDRESS":"安中路一段７７巷１１弄３號","OBJECTID":35744},"geometry":{"x":169060.92999999877,"y":2548237.8200000022}},{"attributes":{"ID":35745,"DIS_CODE":0,"TOWNNAME":"安南區","LI":"安西里","LIN":"8鄰","STREET":"安中路","SECT":"一段","MAREA":" ","LANE":"７７巷","ALLEY":"１１弄","HOUSE_NO":"５號","E_COORD97":169063.28,"N_COORD97":2548233.1299999999,"ADDRESS":"安中路一段７７巷１１弄５號","OBJECTID":35745},"geometry":{"x":169063.28000000119,"y":2548233.1300000027}},{"attributes":{"ID":35746,"DIS_CODE":0,"TOWNNAME":"安南區","LI":"安西里","LIN":"8鄰","STREET":"安中路","SECT":"一段","MAREA":" ","LANE":"７７巷","ALLEY":"１１弄","HOUSE_NO":"７號","E_COORD97":169063.67000000001,"N_COORD97":2548228.4399999999,"ADDRESS":"安中路一段７７巷１１弄７號","OBJECTID":35746},"geometry":{"x":169063.67000000086,"y":2548228.4400000032}},{"attributes":{"ID":35747,"DIS_CODE":0,"TOWNNAME":"安南區","LI":"安西里","LIN":"8鄰","STREET":"安中路","SECT":"一段","MAREA":" ","LANE":"７７巷","ALLEY":"１１弄","HOUSE_NO":"９號","E_COORD97":169065.63,"N_COORD97":2548224.1400000001,"ADDRESS":"安中路一段７７巷１１弄９號","OBJECTID":35747},"geometry":{"x":169065.63000000082,"y":2548224.1400000006}},{"attributes":{"ID":35748,"DIS_CODE":0,"TOWNNAME":"將軍區","LI":"長榮里","LIN":"7鄰","STREET":" ","SECT":" ","MAREA":"長榮","LANE":" ","ALLEY":" ","HOUSE_NO":"７２之１號","E_COORD97":164028.94,"N_COORD97":2566216.1400000001,"ADDRESS":"長榮７２之１號","OBJECTID":35748},"geometry":{"x":164028.94000000134,"y":2566216.1400000006}},{"attributes":{"ID":35749,"DIS_CODE":0,"TOWNNAME":"安南區","LI":"安西里","LIN":"8鄰","STREET":"安中路","SECT":"一段","MAREA":" ","LANE":"７７巷","ALLEY":"７弄","HOUSE_NO":"１２號","E_COORD97":169082.85000000001,"N_COORD97":2548228.4399999999,"ADDRESS":"安中路一段７７巷７弄１２號","OBJECTID":35749},"geometry":{"x":169082.84999999963,"y":2548228.4400000032}},{"attributes":{"ID":35750,"DIS_CODE":0,"TOWNNAME":"安南區","LI":"淵西里","LIN":"8鄰","STREET":"安中路","SECT":"四段","MAREA":" ","LANE":"２９０巷","ALLEY":"７７弄","HOUSE_NO":"６號","E_COORD97":164680.73999999999,"N_COORD97":2550282.6899999999,"ADDRESS":"安中路四段２９０巷７７弄６號","OBJECTID":35750},"geometry":{"x":164680.73999999929,"y":2550282.6900000013}},{"attributes":{"ID":35751,"DIS_CODE":0,"TOWNNAME":"安南區","LI":"淵西里","LIN":"8鄰","STREET":"安中路","SECT":"四段","MAREA":" ","LANE":"２９０巷","ALLEY":"７７弄","HOUSE_NO":"８號","E_COORD97":164679.38,"N_COORD97":2550288.8199999998,"ADDRESS":"安中路四段２９０巷７７弄８號","OBJECTID":35751},"geometry":{"x":164679.37999999989,"y":2550288.8200000022}},{"attributes":{"ID":35752,"DIS_CODE":0,"TOWNNAME":"安南區","LI":"州北里","LIN":"8鄰","STREET":"北安路","SECT":"四段","MAREA":" ","LANE":"４２０巷","ALLEY":"１６弄","HOUSE_NO":"８號","E_COORD97":169560.73999999999,"N_COORD97":2551582.9100000001,"ADDRESS":"北安路四段４２０巷１６弄８號","OBJECTID":35752},"geometry":{"x":169560.74000000022,"y":2551582.910000002}},{"attributes":{"ID":35753,"DIS_CODE":0,"TOWNNAME":"安南區","LI":"州北里","LIN":"8鄰","STREET":"北安路","SECT":"四段","MAREA":" ","LANE":"４２０巷","ALLEY":"１６弄","HOUSE_NO":"９號","E_COORD97":169582.95999999999,"N_COORD97":2551581.4500000002,"ADDRESS":"北安路四段４２０巷１６弄９號","OBJECTID":35753},"geometry":{"x":169582.95999999996,"y":2551581.4500000011}},{"attributes":{"ID":35754,"DIS_CODE":0,"TOWNNAME":"安南區","LI":"理想里","LIN":"8鄰","STREET":"海佃路","SECT":"二段","MAREA":" ","LANE":"１５０巷","ALLEY":"１１２弄","HOUSE_NO":"６號","E_COORD97":167201.98999999999,"N_COORD97":2548367.4300000002,"ADDRESS":"海佃路二段１５０巷１１２弄６號","OBJECTID":35754},"geometry":{"x":167201.99000000115,"y":2548367.4300000034}},{"attributes":{"ID":35755,"DIS_CODE":0,"TOWNNAME":"安南區","LI":"理想里","LIN":"8鄰","STREET":"海佃路","SECT":"二段","MAREA":" ","LANE":"１５０巷","ALLEY":"１１２弄","HOUSE_NO":"２號","E_COORD97":167198.48999999999,"N_COORD97":2548369.4300000002,"ADDRESS":"海佃路二段１５０巷１１２弄２號","OBJECTID":35755},"geometry":{"x":167198.49000000115,"y":2548369.4299999997}},{"attributes":{"ID":35756,"DIS_CODE":0,"TOWNNAME":"安南區","LI":"理想里","LIN":"8鄰","STREET":"海佃路","SECT":"二段","MAREA":" ","LANE":"１５０巷","ALLEY":"１１２弄","HOUSE_NO":"８號","E_COORD97":167205.45000000001,"N_COORD97":2548363.79,"ADDRESS":"海佃路二段１５０巷１１２弄８號","OBJECTID":35756},"geometry":{"x":167205.45000000112,"y":2548363.7899999991}},{"attributes":{"ID":35757,"DIS_CODE":0,"TOWNNAME":"安南區","LI":"理想里","LIN":"8鄰","STREET":"海佃路","SECT":"二段","MAREA":" ","LANE":"１５０巷","ALLEY":"１１２弄","HOUSE_NO":"１０號","E_COORD97":167209.51000000001,"N_COORD97":2548361.6699999999,"ADDRESS":"海佃路二段１５０巷１１２弄１０號","OBJECTID":35757},"geometry":{"x":167209.51000000164,"y":2548361.6699999999}},{"attributes":{"ID":35758,"DIS_CODE":0,"TOWNNAME":"安南區","LI":"理想里","LIN":"8鄰","STREET":"海佃路","SECT":"二段","MAREA":" ","LANE":"１５０巷","ALLEY":"１１２弄","HOUSE_NO":"１２號","E_COORD97":167213.51000000001,"N_COORD97":2548360.1000000001,"ADDRESS":"海佃路二段１５０巷１１２弄１２號","OBJECTID":35758},"geometry":{"x":167213.51000000071,"y":2548360.1000000015}},{"attributes":{"ID":35759,"DIS_CODE":0,"TOWNNAME":"安南區","LI":"理想里","LIN":"8鄰","STREET":"海佃路","SECT":"二段","MAREA":" ","LANE":"１５０巷","ALLEY":"１１２弄","HOUSE_NO":"１４號","E_COORD97":167217.62,"N_COORD97":2548357.1099999999,"ADDRESS":"海佃路二段１５０巷１１２弄１４號","OBJECTID":35759},"geometry":{"x":167217.62000000197,"y":2548357.1100000013}},{"attributes":{"ID":35760,"DIS_CODE":0,"TOWNNAME":"安南區","LI":"理想里","LIN":"8鄰","STREET":"海佃路","SECT":"二段","MAREA":" ","LANE":"１５０巷","ALLEY":"１１２弄","HOUSE_NO":"１號之３","E_COORD97":167227.04638099999,"N_COORD97":2548400.1963800001,"ADDRESS":"海佃路二段１５０巷１１２弄１號之３","OBJECTID":35760},"geometry":{"x":167227.04638100136,"y":2548400.1963780019}},{"attributes":{"ID":35761,"DIS_CODE":0,"TOWNNAME":"南區","LI":"光明里","LIN":"8鄰","STREET":"新興路","SECT":" ","MAREA":" ","LANE":"５３３巷","ALLEY":"３３弄","HOUSE_NO":"１１號","E_COORD97":166692.35999999999,"N_COORD97":2541580.7999999998,"ADDRESS":"新興路５３３巷３３弄１１號","OBJECTID":35761},"geometry":{"x":166692.3600000022,"y":2541580.8000000007}},{"attributes":{"ID":35762,"DIS_CODE":0,"TOWNNAME":"安南區","LI":"理想里","LIN":"8鄰","STREET":"海佃路","SECT":"二段","MAREA":" ","LANE":"１５０巷","ALLEY":"１１２弄","HOUSE_NO":"１號","E_COORD97":167219.62939700001,"N_COORD97":2548388.76639,"ADDRESS":"海佃路二段１５０巷１１２弄１號","OBJECTID":35762},"geometry":{"x":167219.62939700112,"y":2548388.7663850039}},{"attributes":{"ID":35763,"DIS_CODE":0,"TOWNNAME":"安南區","LI":"理想里","LIN":"8鄰","STREET":"海佃路","SECT":"二段","MAREA":" ","LANE":"１５０巷","ALLEY":"１１２弄","HOUSE_NO":"１８號","E_COORD97":167225.06,"N_COORD97":2548352.5099999998,"ADDRESS":"海佃路二段１５０巷１１２弄１８號","OBJECTID":35763},"geometry":{"x":167225.05999999959,"y":2548352.5099999998}},{"attributes":{"ID":35764,"DIS_CODE":0,"TOWNNAME":"安南區","LI":"理想里","LIN":"8鄰","STREET":"海佃路","SECT":"二段","MAREA":" ","LANE":"１５０巷","ALLEY":"１１２弄","HOUSE_NO":"２０號","E_COORD97":167229.35000000001,"N_COORD97":2548350.6800000002,"ADDRESS":"海佃路二段１５０巷１１２弄２０號","OBJECTID":35764},"geometry":{"x":167229.35000000056,"y":2548350.6799999997}},{"attributes":{"ID":35765,"DIS_CODE":0,"TOWNNAME":"安南區","LI":"理想里","LIN":"8鄰","STREET":"海佃路","SECT":"二段","MAREA":" ","LANE":"１５０巷","ALLEY":"１１２弄","HOUSE_NO":"２２號","E_COORD97":167233.79000000001,"N_COORD97":2548348.54,"ADDRESS":"海佃路二段１５０巷１１２弄２２號","OBJECTID":35765},"geometry":{"x":167233.79000000097,"y":2548348.5399999991}},{"attributes":{"ID":35766,"DIS_CODE":0,"TOWNNAME":"安南區","LI":"理想里","LIN":"8鄰","STREET":"海佃路","SECT":"二段","MAREA":" ","LANE":"１５０巷","ALLEY":"１１２弄","HOUSE_NO":"２４號","E_COORD97":167237.35000000001,"N_COORD97":2548345.5600000001,"ADDRESS":"海佃路二段１５０巷１１２弄２４號","OBJECTID":35766},"geometry":{"x":167237.34999999963,"y":2548345.5600000005}},{"attributes":{"ID":35767,"DIS_CODE":0,"TOWNNAME":"安南區","LI":"理想里","LIN":"8鄰","STREET":"海佃路","SECT":"二段","MAREA":" ","LANE":"１５０巷","ALLEY":"１１２弄","HOUSE_NO":"２６號","E_COORD97":167241.01000000001,"N_COORD97":2548343.4900000002,"ADDRESS":"海佃路二段１５０巷１１２弄２６號","OBJECTID":35767},"geometry":{"x":167241.00999999978,"y":2548343.4900000002}},{"attributes":{"ID":35768,"DIS_CODE":0,"TOWNNAME":"安南區","LI":"理想里","LIN":"8鄰","STREET":"海佃路","SECT":"二段","MAREA":" ","LANE":"１５０巷","ALLEY":"１１２弄","HOUSE_NO":"２８號","E_COORD97":167245.23999999999,"N_COORD97":2548341.77,"ADDRESS":"海佃路二段１５０巷１１２弄２８號","OBJECTID":35768},"geometry":{"x":167245.24000000022,"y":2548341.7700000014}},{"attributes":{"ID":35769,"DIS_CODE":0,"TOWNNAME":"安南區","LI":"理想里","LIN":"8鄰","STREET":"海佃路","SECT":"二段","MAREA":" ","LANE":"１５０巷","ALLEY":"１１２弄","HOUSE_NO":"３０號","E_COORD97":167248.82000000001,"N_COORD97":2548339.3300000001,"ADDRESS":"海佃路二段１５０巷１１２弄３０號","OBJECTID":35769},"geometry":{"x":167248.82000000123,"y":2548339.3300000019}},{"attributes":{"ID":35770,"DIS_CODE":0,"TOWNNAME":"安南區","LI":"理想里","LIN":"8鄰","STREET":"海佃路","SECT":"二段","MAREA":" ","LANE":"１５０巷","ALLEY":"１１２弄","HOUSE_NO":"３２號","E_COORD97":167252.39999999999,"N_COORD97":2548337.8300000001,"ADDRESS":"海佃路二段１５０巷１１２弄３２號","OBJECTID":35770},"geometry":{"x":167252.40000000037,"y":2548337.8299999982}},{"attributes":{"ID":35771,"DIS_CODE":0,"TOWNNAME":"安南區","LI":"理想里","LIN":"8鄰","STREET":"海佃路","SECT":"二段","MAREA":" ","LANE":"１５０巷","ALLEY":"１１２弄","HOUSE_NO":"３４號","E_COORD97":167256.92000000001,"N_COORD97":2548334.8300000001,"ADDRESS":"海佃路二段１５０巷１１２弄３４號","OBJECTID":35771},"geometry":{"x":167256.91999999993,"y":2548334.8300000038}},{"attributes":{"ID":35772,"DIS_CODE":0,"TOWNNAME":"安南區","LI":"理想里","LIN":"8鄰","STREET":"海佃路","SECT":"二段","MAREA":" ","LANE":"１５０巷","ALLEY":"１１２弄","HOUSE_NO":"３６號","E_COORD97":167261.22,"N_COORD97":2548332.0299999998,"ADDRESS":"海佃路二段１５０巷１１２弄３６號","OBJECTID":35772},"geometry":{"x":167261.22000000067,"y":2548332.0299999993}},{"attributes":{"ID":35773,"DIS_CODE":0,"TOWNNAME":"安南區","LI":"理想里","LIN":"8鄰","STREET":"海佃路","SECT":"二段","MAREA":" ","LANE":"１５０巷","ALLEY":"１１２弄","HOUSE_NO":"３８號","E_COORD97":167265.29999999999,"N_COORD97":2548329.6699999999,"ADDRESS":"海佃路二段１５０巷１１２弄３８號","OBJECTID":35773},"geometry":{"x":167265.30000000075,"y":2548329.6700000018}},{"attributes":{"ID":35774,"DIS_CODE":0,"TOWNNAME":"安南區","LI":"理想里","LIN":"8鄰","STREET":"海佃路","SECT":"二段","MAREA":" ","LANE":"１５０巷","ALLEY":"１１２弄","HOUSE_NO":"７２號","E_COORD97":167258.23000000001,"N_COORD97":2548317.7200000002,"ADDRESS":"海佃路二段１５０巷１１２弄７２號","OBJECTID":35774},"geometry":{"x":167258.23000000138,"y":2548317.7200000007}},{"attributes":{"ID":35775,"DIS_CODE":0,"TOWNNAME":"安南區","LI":"理想里","LIN":"8鄰","STREET":"海佃路","SECT":"二段","MAREA":" ","LANE":"１５０巷","ALLEY":"１１２弄","HOUSE_NO":"７４號","E_COORD97":167253.5,"N_COORD97":2548319.0800000001,"ADDRESS":"海佃路二段１５０巷１１２弄７４號","OBJECTID":35775},"geometry":{"x":167253.5,"y":2548319.0800000001}},{"attributes":{"ID":35776,"DIS_CODE":0,"TOWNNAME":"白河區","LI":"汴頭里","LIN":"7鄰","STREET":" ","SECT":" ","MAREA":"五汴頭","LANE":" ","ALLEY":" ","HOUSE_NO":"２２之２號","E_COORD97":194275.32999999999,"N_COORD97":2585383.3300000001,"ADDRESS":"五汴頭２２之２號","OBJECTID":35776},"geometry":{"x":194275.33000000101,"y":2585383.3300000001}},{"attributes":{"ID":35777,"DIS_CODE":0,"TOWNNAME":"安南區","LI":"理想里","LIN":"8鄰","STREET":"海佃路","SECT":"二段","MAREA":" ","LANE":"１５０巷","ALLEY":"１１２弄","HOUSE_NO":"７６號","E_COORD97":167249.26999999999,"N_COORD97":2548322.1600000001,"ADDRESS":"海佃路二段１５０巷１１２弄７６號","OBJECTID":35777},"geometry":{"x":167249.26999999955,"y":2548322.1599999983}},{"attributes":{"ID":35778,"DIS_CODE":0,"TOWNNAME":"安南區","LI":"理想里","LIN":"8鄰","STREET":"海佃路","SECT":"二段","MAREA":" ","LANE":"１５０巷","ALLEY":"１１２弄","HOUSE_NO":"７８號","E_COORD97":167246.10999999999,"N_COORD97":2548324.3100000001,"ADDRESS":"海佃路二段１５０巷１１２弄７８號","OBJECTID":35778},"geometry":{"x":167246.11000000034,"y":2548324.3100000005}},{"attributes":{"ID":35779,"DIS_CODE":0,"TOWNNAME":"後壁區","LI":"侯伯里","LIN":"7鄰","STREET":" ","SECT":" ","MAREA":"後壁寮","LANE":" ","ALLEY":" ","HOUSE_NO":"５８號之２３","E_COORD97":185348.60000000001,"N_COORD97":2585097,"ADDRESS":"後壁寮５８號之２３","OBJECTID":35779},"geometry":{"x":185348.59999999963,"y":2585097}},{"attributes":{"ID":35780,"DIS_CODE":0,"TOWNNAME":"安南區","LI":"理想里","LIN":"8鄰","STREET":"海佃路","SECT":"二段","MAREA":" ","LANE":"１５０巷","ALLEY":"１１２弄","HOUSE_NO":"８０號","E_COORD97":167241.45999999999,"N_COORD97":2548326.5299999998,"ADDRESS":"海佃路二段１５０巷１１２弄８０號","OBJECTID":35780},"geometry":{"x":167241.45999999996,"y":2548326.5300000012}},{"attributes":{"ID":35781,"DIS_CODE":0,"TOWNNAME":"後壁區","LI":"侯伯里","LIN":"7鄰","STREET":" ","SECT":" ","MAREA":"後壁寮","LANE":" ","ALLEY":" ","HOUSE_NO":"５８號之２４","E_COORD97":185352.69,"N_COORD97":2585095.73,"ADDRESS":"後壁寮５８號之２４","OBJECTID":35781},"geometry":{"x":185352.69000000134,"y":2585095.7300000023}},{"attributes":{"ID":35782,"DIS_CODE":0,"TOWNNAME":"後壁區","LI":"侯伯里","LIN":"7鄰","STREET":" ","SECT":" ","MAREA":"後壁寮","LANE":" ","ALLEY":" ","HOUSE_NO":"５８號之２５","E_COORD97":185356.48999999999,"N_COORD97":2585094.4100000001,"ADDRESS":"後壁寮５８號之２５","OBJECTID":35782},"geometry":{"x":185356.49000000022,"y":2585094.4100000001}},{"attributes":{"ID":35783,"DIS_CODE":0,"TOWNNAME":"後壁區","LI":"侯伯里","LIN":"7鄰","STREET":" ","SECT":" ","MAREA":"後壁寮","LANE":" ","ALLEY":" ","HOUSE_NO":"５８號之２６","E_COORD97":185360.47,"N_COORD97":2585092.96,"ADDRESS":"後壁寮５８號之２６","OBJECTID":35783},"geometry":{"x":185360.47000000067,"y":2585092.959999999}},{"attributes":{"ID":35784,"DIS_CODE":0,"TOWNNAME":"後壁區","LI":"侯伯里","LIN":"7鄰","STREET":" ","SECT":" ","MAREA":"後壁寮","LANE":" ","ALLEY":" ","HOUSE_NO":"５８號之２７","E_COORD97":185364.45000000001,"N_COORD97":2585091.79,"ADDRESS":"後壁寮５８號之２７","OBJECTID":35784},"geometry":{"x":185364.45000000112,"y":2585091.7899999991}},{"attributes":{"ID":35785,"DIS_CODE":0,"TOWNNAME":"安南區","LI":"理想里","LIN":"8鄰","STREET":"海佃路","SECT":"二段","MAREA":" ","LANE":"１５０巷","ALLEY":"１１２弄","HOUSE_NO":"８２號","E_COORD97":167238.01999999999,"N_COORD97":2548328.6000000001,"ADDRESS":"海佃路二段１５０巷１１２弄８２號","OBJECTID":35785},"geometry":{"x":167238.02000000142,"y":2548328.5999999996}},{"attributes":{"ID":35786,"DIS_CODE":0,"TOWNNAME":"安南區","LI":"理想里","LIN":"8鄰","STREET":"海佃路","SECT":"二段","MAREA":" ","LANE":"１５０巷","ALLEY":"１１２弄","HOUSE_NO":"８４號","E_COORD97":167234.35999999999,"N_COORD97":2548331.1099999999,"ADDRESS":"海佃路二段１５０巷１１２弄８４號","OBJECTID":35786},"geometry":{"x":167234.36000000034,"y":2548331.1099999994}},{"attributes":{"ID":35787,"DIS_CODE":0,"TOWNNAME":"安南區","LI":"理想里","LIN":"8鄰","STREET":"海佃路","SECT":"二段","MAREA":" ","LANE":"１５０巷","ALLEY":"１１２弄","HOUSE_NO":"８６號","E_COORD97":167229.98999999999,"N_COORD97":2548332.8999999999,"ADDRESS":"海佃路二段１５０巷１１２弄８６號","OBJECTID":35787},"geometry":{"x":167229.99000000022,"y":2548332.9000000004}},{"attributes":{"ID":35788,"DIS_CODE":0,"TOWNNAME":"安南區","LI":"理想里","LIN":"8鄰","STREET":"海佃路","SECT":"二段","MAREA":" ","LANE":"１５０巷","ALLEY":"１１２弄","HOUSE_NO":"８８號","E_COORD97":167224.97,"N_COORD97":2548335.3300000001,"ADDRESS":"海佃路二段１５０巷１１２弄８８號","OBJECTID":35788},"geometry":{"x":167224.9700000016,"y":2548335.3300000019}},{"attributes":{"ID":35789,"DIS_CODE":0,"TOWNNAME":"安南區","LI":"理想里","LIN":"8鄰","STREET":"海佃路","SECT":"二段","MAREA":" ","LANE":"１５０巷","ALLEY":"１１２弄","HOUSE_NO":"９０號","E_COORD97":167221.88,"N_COORD97":2548337.5600000001,"ADDRESS":"海佃路二段１５０巷１１２弄９０號","OBJECTID":35789},"geometry":{"x":167221.87999999989,"y":2548337.5600000024}},{"attributes":{"ID":35790,"DIS_CODE":0,"TOWNNAME":"安南區","LI":"理想里","LIN":"8鄰","STREET":"海佃路","SECT":"二段","MAREA":" ","LANE":"１５０巷","ALLEY":"１１２弄","HOUSE_NO":"９２號","E_COORD97":167217.67999999999,"N_COORD97":2548339.9700000002,"ADDRESS":"海佃路二段１５０巷１１２弄９２號","OBJECTID":35790},"geometry":{"x":167217.6799999997,"y":2548339.9700000007}},{"attributes":{"ID":35791,"DIS_CODE":0,"TOWNNAME":"安南區","LI":"理想里","LIN":"8鄰","STREET":"海佃路","SECT":"二段","MAREA":" ","LANE":"１５０巷","ALLEY":"１１２弄","HOUSE_NO":"９４號","E_COORD97":167213.95000000001,"N_COORD97":2548342.1200000001,"ADDRESS":"海佃路二段１５０巷１１２弄９４號","OBJECTID":35791},"geometry":{"x":167213.95000000112,"y":2548342.1200000029}},{"attributes":{"ID":35792,"DIS_CODE":0,"TOWNNAME":"安南區","LI":"理想里","LIN":"8鄰","STREET":"海佃路","SECT":"二段","MAREA":" ","LANE":"１５０巷","ALLEY":"１１２弄","HOUSE_NO":"９６號","E_COORD97":167210.31,"N_COORD97":2548344.5499999998,"ADDRESS":"海佃路二段１５０巷１１２弄９６號","OBJECTID":35792},"geometry":{"x":167210.30999999959,"y":2548344.5500000026}},{"attributes":{"ID":35793,"DIS_CODE":0,"TOWNNAME":"安南區","LI":"理想里","LIN":"8鄰","STREET":"海佃路","SECT":"二段","MAREA":" ","LANE":"１５０巷","ALLEY":"１１２弄","HOUSE_NO":"９８號","E_COORD97":167206.89000000001,"N_COORD97":2548347.1099999999,"ADDRESS":"海佃路二段１５０巷１１２弄９８號","OBJECTID":35793},"geometry":{"x":167206.8900000006,"y":2548347.1100000013}},{"attributes":{"ID":35794,"DIS_CODE":0,"TOWNNAME":"安南區","LI":"理想里","LIN":"8鄰","STREET":"海佃路","SECT":"二段","MAREA":" ","LANE":"１５０巷","ALLEY":"１１２弄","HOUSE_NO":"１００號","E_COORD97":167202.48000000001,"N_COORD97":2548348.6699999999,"ADDRESS":"海佃路二段１５０巷１１２弄１００號","OBJECTID":35794},"geometry":{"x":167202.48000000138,"y":2548348.6699999999}},{"attributes":{"ID":35795,"DIS_CODE":0,"TOWNNAME":"南區","LI":"光明里","LIN":"8鄰","STREET":"新興路","SECT":" ","MAREA":" ","LANE":"５３３巷","ALLEY":"３３弄","HOUSE_NO":"１３號","E_COORD97":166696.64000000001,"N_COORD97":2541582.6899999999,"ADDRESS":"新興路５３３巷３３弄１３號","OBJECTID":35795},"geometry":{"x":166696.6400000006,"y":2541582.6900000013}},{"attributes":{"ID":35796,"DIS_CODE":0,"TOWNNAME":"東區","LI":"崇誨里","LIN":"28鄰","STREET":"裕豐街","SECT":" ","MAREA":" ","LANE":"１８５巷","ALLEY":"１２弄","HOUSE_NO":"１９號二樓","E_COORD97":170723.67000000001,"N_COORD97":2543256.0299999998,"ADDRESS":"裕豐街１８５巷１２弄１９號二樓","OBJECTID":35796},"geometry":{"x":170723.66999999993,"y":2543256.0299999993}},{"attributes":{"ID":35797,"DIS_CODE":0,"TOWNNAME":"新營區","LI":"中營里","LIN":"14鄰","STREET":"東昇街","SECT":" ","MAREA":" ","LANE":" ","ALLEY":" ","HOUSE_NO":"１４１號","E_COORD97":181730.76000000001,"N_COORD97":2579022.0099999998,"ADDRESS":"東昇街１４１號","OBJECTID":35797},"geometry":{"x":181730.76000000071,"y":2579022.0099999998}},{"attributes":{"ID":35798,"DIS_CODE":0,"TOWNNAME":"安南區","LI":"溪墘里","LIN":"14鄰","STREET":"海佃路","SECT":"一段","MAREA":" ","LANE":" ","ALLEY":" ","HOUSE_NO":"３２２號","E_COORD97":167109.85999999999,"N_COORD97":2547477.25,"ADDRESS":"海佃路一段３２２號","OBJECTID":35798},"geometry":{"x":167109.86000000127,"y":2547477.2500000037}},{"attributes":{"ID":35799,"DIS_CODE":0,"TOWNNAME":"安南區","LI":"溪墘里","LIN":"14鄰","STREET":"海佃路","SECT":"一段","MAREA":" ","LANE":" ","ALLEY":" ","HOUSE_NO":"３２４號","E_COORD97":167108.79999999999,"N_COORD97":2547482.2799999998,"ADDRESS":"海佃路一段３２４號","OBJECTID":35799},"geometry":{"x":167108.79999999981,"y":2547482.2799999993}},{"attributes":{"ID":35800,"DIS_CODE":0,"TOWNNAME":"安南區","LI":"理想里","LIN":"8鄰","STREET":"海佃路","SECT":"二段","MAREA":" ","LANE":"１５０巷","ALLEY":"１１２弄","HOUSE_NO":"１０２號","E_COORD97":167199.06,"N_COORD97":2548351.52,"ADDRESS":"海佃路二段１５０巷１１２弄１０２號","OBJECTID":35800},"geometry":{"x":167199.06000000052,"y":2548351.5199999996}}]}