{"displayFieldName":"TOWNNAME","fieldAliases":{"ID":"ID","DIS_CODE":"DIS_CODE","TOWNNAME":"TOWNNAME","LI":"LI","LIN":"LIN","STREET":"STREET","SECT":"SECT","MAREA":"MAREA","LANE":"LANE","ALLEY":"ALLEY","HOUSE_NO":"HOUSE_NO","E_COORD97":"E_COORD97","N_COORD97":"N_COORD97","ADDRESS":"ADDRESS","OBJECTID":"OBJECTID"},"geometryType":"esriGeometryPoint","spatialReference":{"wkid":102443,"latestWkid":3826},"fields":[{"name":"ID","type":"esriFieldTypeDouble","alias":"ID"},{"name":"DIS_CODE","type":"esriFieldTypeInteger","alias":"DIS_CODE"},{"name":"TOWNNAME","type":"esriFieldTypeString","alias":"TOWNNAME","length":8},{"name":"LI","type":"esriFieldTypeString","alias":"LI","length":8},{"name":"LIN","type":"esriFieldTypeString","alias":"LIN","length":12},{"name":"STREET","type":"esriFieldTypeString","alias":"STREET","length":20},{"name":"SECT","type":"esriFieldTypeString","alias":"SECT","length":8},{"name":"MAREA","type":"esriFieldTypeString","alias":"MAREA","length":12},{"name":"LANE","type":"esriFieldTypeString","alias":"LANE","length":10},{"name":"ALLEY","type":"esriFieldTypeString","alias":"ALLEY","length":10},{"name":"HOUSE_NO","type":"esriFieldTypeString","alias":"HOUSE_NO","length":20},{"name":"E_COORD97","type":"esriFieldTypeDouble","alias":"E_COORD97"},{"name":"N_COORD97","type":"esriFieldTypeDouble","alias":"N_COORD97"},{"name":"ADDRESS","type":"esriFieldTypeString","alias":"ADDRESS","length":50},{"name":"OBJECTID","type":"esriFieldTypeOID","alias":"OBJECTID"}],"features":[{"attributes":{"ID":399625,"DIS_CODE":0,"TOWNNAME":"新化區","LI":"協興里","LIN":"11鄰","STREET":"太平街","SECT":" ","MAREA":" ","LANE":"１５０巷","ALLEY":" ","HOUSE_NO":"２２８號","E_COORD97":178321.51999999999,"N_COORD97":2548944.25,"ADDRESS":"太平街１５０巷２２８號","OBJECTID":399601},"geometry":{"x":178321.52000000048,"y":2548944.25}},{"attributes":{"ID":399626,"DIS_CODE":0,"TOWNNAME":"新化區","LI":"協興里","LIN":"11鄰","STREET":"太平街","SECT":" ","MAREA":" ","LANE":"１５０巷","ALLEY":" ","HOUSE_NO":"１８０號","E_COORD97":178309.12,"N_COORD97":2548891.25,"ADDRESS":"太平街１５０巷１８０號","OBJECTID":399602},"geometry":{"x":178309.12000000197,"y":2548891.2500000037}},{"attributes":{"ID":399627,"DIS_CODE":0,"TOWNNAME":"新化區","LI":"武安里","LIN":"11鄰","STREET":"信義路","SECT":" ","MAREA":" ","LANE":"３３９巷","ALLEY":" ","HOUSE_NO":"７號","E_COORD97":178843.32999999999,"N_COORD97":2548250.25,"ADDRESS":"信義路３３９巷７號","OBJECTID":399603},"geometry":{"x":178843.33000000194,"y":2548250.2500000037}},{"attributes":{"ID":399628,"DIS_CODE":0,"TOWNNAME":"新化區","LI":"太平里","LIN":"11鄰","STREET":"中正路","SECT":" ","MAREA":" ","LANE":"６９１巷","ALLEY":" ","HOUSE_NO":"４號","E_COORD97":178790.41,"N_COORD97":2549114.25,"ADDRESS":"中正路６９１巷４號","OBJECTID":399604},"geometry":{"x":178790.41000000201,"y":2549114.25}},{"attributes":{"ID":399629,"DIS_CODE":0,"TOWNNAME":"新化區","LI":"太平里","LIN":"11鄰","STREET":"中正路","SECT":" ","MAREA":" ","LANE":"７０７巷","ALLEY":" ","HOUSE_NO":"５號","E_COORD97":178730.81,"N_COORD97":2549160.25,"ADDRESS":"中正路７０７巷５號","OBJECTID":399605},"geometry":{"x":178730.80999999959,"y":2549160.2500000019}},{"attributes":{"ID":399630,"DIS_CODE":0,"TOWNNAME":"新化區","LI":"太平里","LIN":"11鄰","STREET":"中正路","SECT":" ","MAREA":" ","LANE":"７０７巷","ALLEY":" ","HOUSE_NO":"１７號","E_COORD97":178709.66,"N_COORD97":2549150.25,"ADDRESS":"中正路７０７巷１７號","OBJECTID":399606},"geometry":{"x":178709.66000000108,"y":2549150.2500000019}},{"attributes":{"ID":399631,"DIS_CODE":0,"TOWNNAME":"新化區","LI":"武安里","LIN":"11鄰","STREET":"信義路","SECT":" ","MAREA":" ","LANE":"３３９巷","ALLEY":" ","HOUSE_NO":"２９號","E_COORD97":178873.28,"N_COORD97":2548210.25,"ADDRESS":"信義路３３９巷２９號","OBJECTID":399607},"geometry":{"x":178873.28000000119,"y":2548210.2500000019}},{"attributes":{"ID":399632,"DIS_CODE":0,"TOWNNAME":"新化區","LI":"武安里","LIN":"11鄰","STREET":"信義路","SECT":" ","MAREA":" ","LANE":"３３９巷","ALLEY":" ","HOUSE_NO":"３８號","E_COORD97":178843.28,"N_COORD97":2548193.25,"ADDRESS":"信義路３３９巷３８號","OBJECTID":399608},"geometry":{"x":178843.28000000026,"y":2548193.2500000019}},{"attributes":{"ID":399633,"DIS_CODE":0,"TOWNNAME":"新化區","LI":"武安里","LIN":"11鄰","STREET":"信義路","SECT":" ","MAREA":" ","LANE":"３３９巷","ALLEY":" ","HOUSE_NO":"２２號","E_COORD97":178832.28,"N_COORD97":2548234.25,"ADDRESS":"信義路３３９巷２２號","OBJECTID":399609},"geometry":{"x":178832.28000000119,"y":2548234.2500000019}},{"attributes":{"ID":399634,"DIS_CODE":0,"TOWNNAME":"新化區","LI":"太平里","LIN":"11鄰","STREET":"中正路","SECT":" ","MAREA":" ","LANE":"６９１巷","ALLEY":" ","HOUSE_NO":"８號之１","E_COORD97":178760.14000000001,"N_COORD97":2549075.25,"ADDRESS":"中正路６９１巷８號之１","OBJECTID":399610},"geometry":{"x":178760.1400000006,"y":2549075.2500000019}},{"attributes":{"ID":399635,"DIS_CODE":0,"TOWNNAME":"新化區","LI":"武安里","LIN":"11鄰","STREET":"信義路","SECT":" ","MAREA":" ","LANE":"３３９巷","ALLEY":" ","HOUSE_NO":"１２號之１","E_COORD97":178807.57999999999,"N_COORD97":2548243.25,"ADDRESS":"信義路３３９巷１２號之１","OBJECTID":399611},"geometry":{"x":178807.58000000007,"y":2548243.25}},{"attributes":{"ID":399636,"DIS_CODE":0,"TOWNNAME":"新化區","LI":"東榮里","LIN":"11鄰","STREET":"中興路","SECT":" ","MAREA":" ","LANE":"４９０巷","ALLEY":" ","HOUSE_NO":"４０號","E_COORD97":180070.06,"N_COORD97":2547948.25,"ADDRESS":"中興路４９０巷４０號","OBJECTID":399612},"geometry":{"x":180070.05999999959,"y":2547948.25}},{"attributes":{"ID":399637,"DIS_CODE":0,"TOWNNAME":"新化區","LI":"知義里","LIN":"11鄰","STREET":"中興路","SECT":" ","MAREA":" ","LANE":"８１巷","ALLEY":" ","HOUSE_NO":"１８號","E_COORD97":181787.51000000001,"N_COORD97":2547216.25,"ADDRESS":"中興路８１巷１８號","OBJECTID":399613},"geometry":{"x":181787.50999999978,"y":2547216.2500000037}},{"attributes":{"ID":399638,"DIS_CODE":0,"TOWNNAME":"新化區","LI":"武安里","LIN":"11鄰","STREET":"信義路","SECT":" ","MAREA":" ","LANE":"３３９巷","ALLEY":" ","HOUSE_NO":"３９號","E_COORD97":178855.67999999999,"N_COORD97":2548188.25,"ADDRESS":"信義路３３９巷３９號","OBJECTID":399614},"geometry":{"x":178855.6799999997,"y":2548188.25}},{"attributes":{"ID":399639,"DIS_CODE":0,"TOWNNAME":"新化區","LI":"武安里","LIN":"11鄰","STREET":"信義路","SECT":" ","MAREA":" ","LANE":"３３９巷","ALLEY":" ","HOUSE_NO":"３６號","E_COORD97":178841.78,"N_COORD97":2548200.25,"ADDRESS":"信義路３３９巷３６號","OBJECTID":399615},"geometry":{"x":178841.78000000026,"y":2548200.2500000019}},{"attributes":{"ID":399640,"DIS_CODE":0,"TOWNNAME":"新化區","LI":"護國里","LIN":"11鄰","STREET":"中山路","SECT":" ","MAREA":" ","LANE":"１９巷","ALLEY":" ","HOUSE_NO":"３３號","E_COORD97":180369.70999999999,"N_COORD97":2549576.25,"ADDRESS":"中山路１９巷３３號","OBJECTID":399616},"geometry":{"x":180369.71000000183,"y":2549576.2500000037}},{"attributes":{"ID":399641,"DIS_CODE":0,"TOWNNAME":"新化區","LI":"護國里","LIN":"11鄰","STREET":"中山路","SECT":" ","MAREA":" ","LANE":"１９巷","ALLEY":" ","HOUSE_NO":"３１號","E_COORD97":180367.01000000001,"N_COORD97":2549586.25,"ADDRESS":"中山路１９巷３１號","OBJECTID":399617},"geometry":{"x":180367.00999999978,"y":2549586.2500000037}},{"attributes":{"ID":399642,"DIS_CODE":0,"TOWNNAME":"新化區","LI":"武安里","LIN":"11鄰","STREET":"信義路","SECT":" ","MAREA":" ","LANE":"３３９巷","ALLEY":" ","HOUSE_NO":"８號","E_COORD97":178828.32999999999,"N_COORD97":2548247.25,"ADDRESS":"信義路３３９巷８號","OBJECTID":399618},"geometry":{"x":178828.33000000101,"y":2548247.2500000019}},{"attributes":{"ID":399643,"DIS_CODE":0,"TOWNNAME":"新化區","LI":"護國里","LIN":"11鄰","STREET":"中山路","SECT":" ","MAREA":" ","LANE":"１９巷","ALLEY":" ","HOUSE_NO":"６０號","E_COORD97":180364.91,"N_COORD97":2549322.25,"ADDRESS":"中山路１９巷６０號","OBJECTID":399619},"geometry":{"x":180364.91000000015,"y":2549322.2500000019}},{"attributes":{"ID":399644,"DIS_CODE":0,"TOWNNAME":"新化區","LI":"護國里","LIN":"11鄰","STREET":"中山路","SECT":" ","MAREA":" ","LANE":"１１１巷","ALLEY":" ","HOUSE_NO":"７３號","E_COORD97":180389.16,"N_COORD97":2549180.25,"ADDRESS":"中山路１１１巷７３號","OBJECTID":399620},"geometry":{"x":180389.16000000108,"y":2549180.2500000019}},{"attributes":{"ID":399645,"DIS_CODE":0,"TOWNNAME":"新化區","LI":"護國里","LIN":"11鄰","STREET":"中山路","SECT":" ","MAREA":" ","LANE":"１９巷","ALLEY":" ","HOUSE_NO":"４７號","E_COORD97":180425.10999999999,"N_COORD97":2549378.25,"ADDRESS":"中山路１９巷４７號","OBJECTID":399621},"geometry":{"x":180425.1100000022,"y":2549378.25}},{"attributes":{"ID":399646,"DIS_CODE":0,"TOWNNAME":"新化區","LI":"護國里","LIN":"11鄰","STREET":"中山路","SECT":" ","MAREA":" ","LANE":"１９巷","ALLEY":" ","HOUSE_NO":"３７號","E_COORD97":180393.41,"N_COORD97":2549507.25,"ADDRESS":"中山路１９巷３７號","OBJECTID":399622},"geometry":{"x":180393.41000000015,"y":2549507.25}},{"attributes":{"ID":399647,"DIS_CODE":0,"TOWNNAME":"新化區","LI":"東榮里","LIN":"11鄰","STREET":"中興路","SECT":" ","MAREA":" ","LANE":"４９０巷","ALLEY":" ","HOUSE_NO":"１３號","E_COORD97":180079.35999999999,"N_COORD97":2547885.25,"ADDRESS":"中興路４９０巷１３號","OBJECTID":399623},"geometry":{"x":180079.3600000022,"y":2547885.2500000019}},{"attributes":{"ID":399648,"DIS_CODE":0,"TOWNNAME":"新化區","LI":"太平里","LIN":"11鄰","STREET":"中正路","SECT":" ","MAREA":" ","LANE":"６９１巷","ALLEY":" ","HOUSE_NO":"４２號之２","E_COORD97":178680.81,"N_COORD97":2548964.2599999998,"ADDRESS":"中正路６９１巷４２號之２","OBJECTID":399624},"geometry":{"x":178680.81000000052,"y":2548964.2599999998}},{"attributes":{"ID":399649,"DIS_CODE":0,"TOWNNAME":"新化區","LI":"東榮里","LIN":"11鄰","STREET":"中興路","SECT":" ","MAREA":" ","LANE":"４９０巷","ALLEY":" ","HOUSE_NO":"４２號","E_COORD97":180069.85999999999,"N_COORD97":2547951.25,"ADDRESS":"中興路４９０巷４２號","OBJECTID":399625},"geometry":{"x":180069.86000000127,"y":2547951.25}},{"attributes":{"ID":399650,"DIS_CODE":0,"TOWNNAME":"新化區","LI":"太平里","LIN":"11鄰","STREET":"中正路","SECT":" ","MAREA":" ","LANE":"６９１巷","ALLEY":" ","HOUSE_NO":"３２號之１","E_COORD97":178753.19,"N_COORD97":2548974.2599999998,"ADDRESS":"中正路６９１巷３２號之１","OBJECTID":399626},"geometry":{"x":178753.19000000227,"y":2548974.2599999998}},{"attributes":{"ID":399651,"DIS_CODE":0,"TOWNNAME":"新化區","LI":"太平里","LIN":"11鄰","STREET":"中正路","SECT":" ","MAREA":" ","LANE":"６９１巷","ALLEY":" ","HOUSE_NO":"４４號之１","E_COORD97":178667.89000000001,"N_COORD97":2548965.2599999998,"ADDRESS":"中正路６９１巷４４號之１","OBJECTID":399627},"geometry":{"x":178667.89000000153,"y":2548965.2599999979}},{"attributes":{"ID":399652,"DIS_CODE":0,"TOWNNAME":"新化區","LI":"武安里","LIN":"11鄰","STREET":"信義路","SECT":" ","MAREA":" ","LANE":"３３９巷","ALLEY":" ","HOUSE_NO":"２７號","E_COORD97":178879.98000000001,"N_COORD97":2548211.25,"ADDRESS":"信義路３３９巷２７號","OBJECTID":399628},"geometry":{"x":178879.98000000231,"y":2548211.2500000019}},{"attributes":{"ID":399653,"DIS_CODE":0,"TOWNNAME":"新化區","LI":"東榮里","LIN":"11鄰","STREET":"中興路","SECT":" ","MAREA":" ","LANE":"４９０巷","ALLEY":" ","HOUSE_NO":"２８號","E_COORD97":180069.16,"N_COORD97":2547924.25,"ADDRESS":"中興路４９０巷２８號","OBJECTID":399629},"geometry":{"x":180069.16000000108,"y":2547924.25}},{"attributes":{"ID":399654,"DIS_CODE":0,"TOWNNAME":"新化區","LI":"東榮里","LIN":"11鄰","STREET":"中興路","SECT":" ","MAREA":" ","LANE":"４９０巷","ALLEY":" ","HOUSE_NO":"３８號","E_COORD97":180069.66,"N_COORD97":2547944.25,"ADDRESS":"中興路４９０巷３８號","OBJECTID":399630},"geometry":{"x":180069.66000000015,"y":2547944.25}},{"attributes":{"ID":399655,"DIS_CODE":0,"TOWNNAME":"新化區","LI":"武安里","LIN":"11鄰","STREET":"信義路","SECT":" ","MAREA":" ","LANE":"３３９巷","ALLEY":" ","HOUSE_NO":"１２號","E_COORD97":178811.98000000001,"N_COORD97":2548244.25,"ADDRESS":"信義路３３９巷１２號","OBJECTID":399631},"geometry":{"x":178811.98000000045,"y":2548244.2500000019}},{"attributes":{"ID":399656,"DIS_CODE":0,"TOWNNAME":"新化區","LI":"太平里","LIN":"11鄰","STREET":"中正路","SECT":" ","MAREA":" ","LANE":"７０７巷","ALLEY":" ","HOUSE_NO":"３７號之１","E_COORD97":178577.29000000001,"N_COORD97":2549078.2599999998,"ADDRESS":"中正路７０７巷３７號之１","OBJECTID":399632},"geometry":{"x":178577.29000000004,"y":2549078.2600000016}},{"attributes":{"ID":399657,"DIS_CODE":0,"TOWNNAME":"新化區","LI":"太平里","LIN":"11鄰","STREET":"中正路","SECT":" ","MAREA":" ","LANE":"６９１巷","ALLEY":" ","HOUSE_NO":"３４號之１","E_COORD97":178734.79000000001,"N_COORD97":2548955.2599999998,"ADDRESS":"中正路６９１巷３４號之１","OBJECTID":399633},"geometry":{"x":178734.79000000004,"y":2548955.2600000035}},{"attributes":{"ID":399658,"DIS_CODE":0,"TOWNNAME":"新化區","LI":"太平里","LIN":"11鄰","STREET":"中正路","SECT":" ","MAREA":" ","LANE":"７０７巷","ALLEY":" ","HOUSE_NO":"３７號之７","E_COORD97":178604.39999999999,"N_COORD97":2549083.2599999998,"ADDRESS":"中正路７０７巷３７號之７","OBJECTID":399634},"geometry":{"x":178604.4000000013,"y":2549083.2599999998}},{"attributes":{"ID":399659,"DIS_CODE":0,"TOWNNAME":"新化區","LI":"太平里","LIN":"11鄰","STREET":"中正路","SECT":" ","MAREA":" ","LANE":"６９１巷","ALLEY":" ","HOUSE_NO":"５２號","E_COORD97":178744.16,"N_COORD97":2548933.25,"ADDRESS":"中正路６９１巷５２號","OBJECTID":399635},"geometry":{"x":178744.16000000015,"y":2548933.2500000019}},{"attributes":{"ID":399660,"DIS_CODE":0,"TOWNNAME":"新化區","LI":"太平里","LIN":"11鄰","STREET":"中正路","SECT":" ","MAREA":" ","LANE":"７０７巷","ALLEY":" ","HOUSE_NO":"３７號之１３","E_COORD97":178629.06,"N_COORD97":2549087.2599999998,"ADDRESS":"中正路７０７巷３７號之１３","OBJECTID":399636},"geometry":{"x":178629.05999999959,"y":2549087.2599999979}},{"attributes":{"ID":399661,"DIS_CODE":0,"TOWNNAME":"新化區","LI":"太平里","LIN":"11鄰","STREET":"中正路","SECT":" ","MAREA":" ","LANE":"７０７巷","ALLEY":" ","HOUSE_NO":"３７號之１０","E_COORD97":178616.64999999999,"N_COORD97":2549085.2599999998,"ADDRESS":"中正路７０７巷３７號之１０","OBJECTID":399637},"geometry":{"x":178616.6500000013,"y":2549085.2600000016}},{"attributes":{"ID":399662,"DIS_CODE":0,"TOWNNAME":"新化區","LI":"武安里","LIN":"11鄰","STREET":"信義路","SECT":" ","MAREA":" ","LANE":"３３９巷","ALLEY":" ","HOUSE_NO":"１８號","E_COORD97":178812.57999999999,"N_COORD97":2548233.25,"ADDRESS":"信義路３３９巷１８號","OBJECTID":399638},"geometry":{"x":178812.58000000007,"y":2548233.2499999981}},{"attributes":{"ID":399663,"DIS_CODE":0,"TOWNNAME":"新化區","LI":"太平里","LIN":"11鄰","STREET":"中正路","SECT":" ","MAREA":" ","LANE":"７０７巷","ALLEY":" ","HOUSE_NO":"３７號之５","E_COORD97":178595.92000000001,"N_COORD97":2549082.2599999998,"ADDRESS":"中正路７０７巷３７號之５","OBJECTID":399639},"geometry":{"x":178595.92000000086,"y":2549082.2600000016}},{"attributes":{"ID":399664,"DIS_CODE":0,"TOWNNAME":"新化區","LI":"武安里","LIN":"11鄰","STREET":"信義路","SECT":" ","MAREA":" ","LANE":"３３９巷","ALLEY":" ","HOUSE_NO":"１０號","E_COORD97":178815.98000000001,"N_COORD97":2548245.25,"ADDRESS":"信義路３３９巷１０號","OBJECTID":399640},"geometry":{"x":178815.98000000138,"y":2548245.2500000019}},{"attributes":{"ID":399665,"DIS_CODE":0,"TOWNNAME":"新化區","LI":"武安里","LIN":"11鄰","STREET":"信義路","SECT":" ","MAREA":" ","LANE":"３３９巷","ALLEY":" ","HOUSE_NO":"２號","E_COORD97":178825.53,"N_COORD97":2548260.25,"ADDRESS":"信義路３３９巷２號","OBJECTID":399641},"geometry":{"x":178825.53000000119,"y":2548260.25}},{"attributes":{"ID":399666,"DIS_CODE":0,"TOWNNAME":"新化區","LI":"護國里","LIN":"11鄰","STREET":"中山路","SECT":" ","MAREA":" ","LANE":"３巷","ALLEY":" ","HOUSE_NO":"８３號","E_COORD97":180944.85999999999,"N_COORD97":2549284.25,"ADDRESS":"中山路３巷８３號","OBJECTID":399642},"geometry":{"x":180944.86000000034,"y":2549284.2499999981}},{"attributes":{"ID":399667,"DIS_CODE":0,"TOWNNAME":"新化區","LI":"太平里","LIN":"11鄰","STREET":"中正路","SECT":" ","MAREA":" ","LANE":"７０７巷","ALLEY":" ","HOUSE_NO":"１９號","E_COORD97":178706.06,"N_COORD97":2549148.25,"ADDRESS":"中正路７０７巷１９號","OBJECTID":399643},"geometry":{"x":178706.06000000052,"y":2549148.25}},{"attributes":{"ID":399668,"DIS_CODE":0,"TOWNNAME":"新化區","LI":"太平里","LIN":"11鄰","STREET":"中正路","SECT":" ","MAREA":" ","LANE":"６９１巷","ALLEY":" ","HOUSE_NO":"１６號","E_COORD97":178724.56,"N_COORD97":2549033.25,"ADDRESS":"中正路６９１巷１６號","OBJECTID":399644},"geometry":{"x":178724.56000000052,"y":2549033.25}},{"attributes":{"ID":399669,"DIS_CODE":0,"TOWNNAME":"新化區","LI":"太平里","LIN":"11鄰","STREET":"中正路","SECT":" ","MAREA":" ","LANE":"７０７巷","ALLEY":" ","HOUSE_NO":"２５號","E_COORD97":178695.45999999999,"N_COORD97":2549142.25,"ADDRESS":"中正路７０７巷２５號","OBJECTID":399645},"geometry":{"x":178695.46000000089,"y":2549142.2500000037}},{"attributes":{"ID":399670,"DIS_CODE":0,"TOWNNAME":"新化區","LI":"護國里","LIN":"11鄰","STREET":"中山路","SECT":" ","MAREA":" ","LANE":"１１１巷","ALLEY":" ","HOUSE_NO":"９５號","E_COORD97":180517.26000000001,"N_COORD97":2549179.25,"ADDRESS":"中山路１１１巷９５號","OBJECTID":399646},"geometry":{"x":180517.26000000071,"y":2549179.2500000037}},{"attributes":{"ID":399671,"DIS_CODE":0,"TOWNNAME":"新化區","LI":"武安里","LIN":"11鄰","STREET":"信義路","SECT":" ","MAREA":" ","LANE":"３３９巷","ALLEY":" ","HOUSE_NO":"４１號","E_COORD97":178857.17999999999,"N_COORD97":2548182.25,"ADDRESS":"信義路３３９巷４１號","OBJECTID":399647},"geometry":{"x":178857.1799999997,"y":2548182.25}},{"attributes":{"ID":399672,"DIS_CODE":0,"TOWNNAME":"新化區","LI":"護國里","LIN":"11鄰","STREET":"中山路","SECT":" ","MAREA":" ","LANE":"３巷","ALLEY":" ","HOUSE_NO":"８０號","E_COORD97":180920.56,"N_COORD97":2549226.25,"ADDRESS":"中山路３巷８０號","OBJECTID":399648},"geometry":{"x":180920.55999999959,"y":2549226.25}},{"attributes":{"ID":399673,"DIS_CODE":0,"TOWNNAME":"新化區","LI":"太平里","LIN":"11鄰","STREET":"中正路","SECT":" ","MAREA":" ","LANE":"７０７巷","ALLEY":" ","HOUSE_NO":"９號","E_COORD97":178722.91,"N_COORD97":2549157.25,"ADDRESS":"中正路７０７巷９號","OBJECTID":399649},"geometry":{"x":178722.91000000108,"y":2549157.2500000019}},{"attributes":{"ID":399674,"DIS_CODE":0,"TOWNNAME":"新化區","LI":"東榮里","LIN":"11鄰","STREET":"中興路","SECT":" ","MAREA":" ","LANE":"４９０巷","ALLEY":" ","HOUSE_NO":"１６號","E_COORD97":180097.76000000001,"N_COORD97":2547887.25,"ADDRESS":"中興路４９０巷１６號","OBJECTID":399650},"geometry":{"x":180097.75999999978,"y":2547887.25}},{"attributes":{"ID":399675,"DIS_CODE":0,"TOWNNAME":"新化區","LI":"太平里","LIN":"11鄰","STREET":"中正路","SECT":" ","MAREA":" ","LANE":"７０７巷","ALLEY":" ","HOUSE_NO":"１１號","E_COORD97":178719.45999999999,"N_COORD97":2549155.25,"ADDRESS":"中正路７０７巷１１號","OBJECTID":399651},"geometry":{"x":178719.46000000089,"y":2549155.25}},{"attributes":{"ID":399676,"DIS_CODE":0,"TOWNNAME":"新化區","LI":"護國里","LIN":"11鄰","STREET":"中山路","SECT":" ","MAREA":" ","LANE":"３巷","ALLEY":" ","HOUSE_NO":"１２２號","E_COORD97":181408.63,"N_COORD97":2549376.0299999998,"ADDRESS":"中山路３巷１２２號","OBJECTID":399652},"geometry":{"x":181408.62999999989,"y":2549376.0299999993}},{"attributes":{"ID":399677,"DIS_CODE":0,"TOWNNAME":"新化區","LI":"協興里","LIN":"11鄰","STREET":"太平街","SECT":" ","MAREA":" ","LANE":"１５０巷","ALLEY":" ","HOUSE_NO":"１８２號","E_COORD97":178310.67000000001,"N_COORD97":2548899.1499999999,"ADDRESS":"太平街１５０巷１８２號","OBJECTID":399653},"geometry":{"x":178310.67000000086,"y":2548899.1500000041}},{"attributes":{"ID":399678,"DIS_CODE":0,"TOWNNAME":"新營區","LI":"新東里","LIN":"11鄰","STREET":"東泰八街","SECT":" ","MAREA":" ","LANE":"９巷","ALLEY":" ","HOUSE_NO":"１號","E_COORD97":181141.75,"N_COORD97":2579801.7799999998,"ADDRESS":"東泰八街９巷１號","OBJECTID":399654},"geometry":{"x":181141.75,"y":2579801.7800000012}},{"attributes":{"ID":399679,"DIS_CODE":0,"TOWNNAME":"永康區","LI":"埔園里","LIN":"11鄰","STREET":"中山路","SECT":" ","MAREA":" ","LANE":"１５５巷","ALLEY":" ","HOUSE_NO":"１之１號","E_COORD97":173691.53,"N_COORD97":2547932.1000000001,"ADDRESS":"中山路１５５巷１之１號","OBJECTID":399655},"geometry":{"x":173691.53000000026,"y":2547932.0999999978}},{"attributes":{"ID":399680,"DIS_CODE":0,"TOWNNAME":"東區","LI":"德光里","LIN":"11鄰","STREET":"崇德三街","SECT":" ","MAREA":" ","LANE":"６２巷","ALLEY":" ","HOUSE_NO":"６號","E_COORD97":170287.01000000001,"N_COORD97":2542238.54,"ADDRESS":"崇德三街６２巷６號","OBJECTID":399656},"geometry":{"x":170287.01000000071,"y":2542238.5399999991}},{"attributes":{"ID":399681,"DIS_CODE":0,"TOWNNAME":"東區","LI":"德光里","LIN":"11鄰","STREET":"崇德三街","SECT":" ","MAREA":" ","LANE":"６２巷","ALLEY":" ","HOUSE_NO":"７號","E_COORD97":170302.59,"N_COORD97":2542248.6600000001,"ADDRESS":"崇德三街６２巷７號","OBJECTID":399657},"geometry":{"x":170302.58999999892,"y":2542248.6600000001}},{"attributes":{"ID":399682,"DIS_CODE":0,"TOWNNAME":"東區","LI":"德光里","LIN":"11鄰","STREET":"崇德三街","SECT":" ","MAREA":" ","LANE":"６２巷","ALLEY":" ","HOUSE_NO":"８號","E_COORD97":170291.53,"N_COORD97":2542236.52,"ADDRESS":"崇德三街６２巷８號","OBJECTID":399658},"geometry":{"x":170291.53000000026,"y":2542236.5199999996}},{"attributes":{"ID":399683,"DIS_CODE":0,"TOWNNAME":"南區","LI":"文南里","LIN":"11鄰","STREET":"美南街","SECT":" ","MAREA":" ","LANE":"１４８巷","ALLEY":" ","HOUSE_NO":"２號","E_COORD97":166707.26000000001,"N_COORD97":2542833.5699999998,"ADDRESS":"美南街１４８巷２號","OBJECTID":399659},"geometry":{"x":166707.25999999978,"y":2542833.5700000003}},{"attributes":{"ID":399684,"DIS_CODE":0,"TOWNNAME":"南區","LI":"文南里","LIN":"11鄰","STREET":"美南街","SECT":" ","MAREA":" ","LANE":"１４８巷","ALLEY":" ","HOUSE_NO":"４號","E_COORD97":166701.5,"N_COORD97":2542833.9500000002,"ADDRESS":"美南街１４８巷４號","OBJECTID":399660},"geometry":{"x":166701.50000000093,"y":2542833.950000003}},{"attributes":{"ID":399685,"DIS_CODE":0,"TOWNNAME":"南區","LI":"文南里","LIN":"11鄰","STREET":"美南街","SECT":" ","MAREA":" ","LANE":"１４８巷","ALLEY":" ","HOUSE_NO":"６號","E_COORD97":166695.56,"N_COORD97":2542834.9100000001,"ADDRESS":"美南街１４８巷６號","OBJECTID":399661},"geometry":{"x":166695.56000000052,"y":2542834.9100000039}},{"attributes":{"ID":399686,"DIS_CODE":0,"TOWNNAME":"南區","LI":"文南里","LIN":"11鄰","STREET":"美南街","SECT":" ","MAREA":" ","LANE":"１４８巷","ALLEY":" ","HOUSE_NO":"１０號","E_COORD97":166683.29000000001,"N_COORD97":2542836.25,"ADDRESS":"美南街１４８巷１０號","OBJECTID":399662},"geometry":{"x":166683.29000000004,"y":2542836.2500000019}},{"attributes":{"ID":399687,"DIS_CODE":0,"TOWNNAME":"南區","LI":"文南里","LIN":"11鄰","STREET":"美南街","SECT":" ","MAREA":" ","LANE":"１４８巷","ALLEY":" ","HOUSE_NO":"１２號","E_COORD97":166676.95000000001,"N_COORD97":2542836.4399999999,"ADDRESS":"美南街１４８巷１２號","OBJECTID":399663},"geometry":{"x":166676.95000000112,"y":2542836.4399999995}},{"attributes":{"ID":399688,"DIS_CODE":0,"TOWNNAME":"南區","LI":"文南里","LIN":"11鄰","STREET":"美南街","SECT":" ","MAREA":" ","LANE":"１４８巷","ALLEY":" ","HOUSE_NO":"１４號","E_COORD97":166671.20999999999,"N_COORD97":2542837.21,"ADDRESS":"美南街１４８巷１４號","OBJECTID":399664},"geometry":{"x":166671.21000000089,"y":2542837.2100000046}},{"attributes":{"ID":399689,"DIS_CODE":0,"TOWNNAME":"南區","LI":"文南里","LIN":"11鄰","STREET":"美南街","SECT":" ","MAREA":" ","LANE":"１４８巷","ALLEY":" ","HOUSE_NO":"２１號","E_COORD97":166645.51000000001,"N_COORD97":2542828.7799999998,"ADDRESS":"美南街１４８巷２１號","OBJECTID":399665},"geometry":{"x":166645.51000000071,"y":2542828.7800000012}},{"attributes":{"ID":399690,"DIS_CODE":0,"TOWNNAME":"南區","LI":"文南里","LIN":"11鄰","STREET":"美南街","SECT":" ","MAREA":" ","LANE":"１４８巷","ALLEY":" ","HOUSE_NO":"２３號","E_COORD97":166639.17999999999,"N_COORD97":2542826.6699999999,"ADDRESS":"美南街１４８巷２３號","OBJECTID":399666},"geometry":{"x":166639.18000000063,"y":2542826.6700000018}},{"attributes":{"ID":399691,"DIS_CODE":0,"TOWNNAME":"東區","LI":"崇成里","LIN":"13鄰","STREET":"崇德路","SECT":" ","MAREA":" ","LANE":" ","ALLEY":" ","HOUSE_NO":"５８４號","E_COORD97":170773.59,"N_COORD97":2541337.8500000001,"ADDRESS":"崇德路５８４號","OBJECTID":399667},"geometry":{"x":170773.58999999985,"y":2541337.8500000015}},{"attributes":{"ID":399692,"DIS_CODE":0,"TOWNNAME":"南區","LI":"文南里","LIN":"11鄰","STREET":"美南街","SECT":" ","MAREA":" ","LANE":"１４８巷","ALLEY":" ","HOUSE_NO":"２４號","E_COORD97":166640.72,"N_COORD97":2542840.0800000001,"ADDRESS":"美南街１４８巷２４號","OBJECTID":399668},"geometry":{"x":166640.72000000067,"y":2542840.0800000001}},{"attributes":{"ID":399693,"DIS_CODE":0,"TOWNNAME":"南區","LI":"文南里","LIN":"11鄰","STREET":"美南街","SECT":" ","MAREA":" ","LANE":"１４８巷","ALLEY":" ","HOUSE_NO":"２５號","E_COORD97":166633.23999999999,"N_COORD97":2542827.0600000001,"ADDRESS":"美南街１４８巷２５號","OBJECTID":399669},"geometry":{"x":166633.24000000022,"y":2542827.0600000005}},{"attributes":{"ID":399694,"DIS_CODE":0,"TOWNNAME":"南區","LI":"文南里","LIN":"11鄰","STREET":"美南街","SECT":" ","MAREA":" ","LANE":"１４８巷","ALLEY":" ","HOUSE_NO":"２６號","E_COORD97":166634.57999999999,"N_COORD97":2542840.8500000001,"ADDRESS":"美南街１４８巷２６號","OBJECTID":399670},"geometry":{"x":166634.58000000194,"y":2542840.8499999996}},{"attributes":{"ID":399695,"DIS_CODE":0,"TOWNNAME":"南區","LI":"文華里","LIN":"11鄰","STREET":"金華路","SECT":"二段","MAREA":" ","LANE":"３４５巷","ALLEY":" ","HOUSE_NO":"１９號","E_COORD97":167032.57000000001,"N_COORD97":2542926.5499999998,"ADDRESS":"金華路二段３４５巷１９號","OBJECTID":399671},"geometry":{"x":167032.5700000003,"y":2542926.5500000026}},{"attributes":{"ID":399696,"DIS_CODE":0,"TOWNNAME":"南區","LI":"文華里","LIN":"11鄰","STREET":"金華路","SECT":"二段","MAREA":" ","LANE":"３４５巷","ALLEY":" ","HOUSE_NO":"２１號","E_COORD97":167022.34,"N_COORD97":2542929.8700000001,"ADDRESS":"金華路二段３４５巷２１號","OBJECTID":399672},"geometry":{"x":167022.33999999985,"y":2542929.870000001}},{"attributes":{"ID":399697,"DIS_CODE":0,"TOWNNAME":"南區","LI":"文華里","LIN":"11鄰","STREET":"金華路","SECT":"二段","MAREA":" ","LANE":"３４５巷","ALLEY":" ","HOUSE_NO":"２３號","E_COORD97":167017.48999999999,"N_COORD97":2542929.8700000001,"ADDRESS":"金華路二段３４５巷２３號","OBJECTID":399673},"geometry":{"x":167017.49000000115,"y":2542929.870000001}},{"attributes":{"ID":399698,"DIS_CODE":0,"TOWNNAME":"南區","LI":"文華里","LIN":"11鄰","STREET":"金華路","SECT":"二段","MAREA":" ","LANE":"３４５巷","ALLEY":" ","HOUSE_NO":"２７號","E_COORD97":167008.32999999999,"N_COORD97":2542930.23,"ADDRESS":"金華路二段３４５巷２７號","OBJECTID":399674},"geometry":{"x":167008.33000000101,"y":2542930.2300000004}},{"attributes":{"ID":399699,"DIS_CODE":0,"TOWNNAME":"南區","LI":"文華里","LIN":"11鄰","STREET":"金華路","SECT":"二段","MAREA":" ","LANE":"３４５巷","ALLEY":" ","HOUSE_NO":"２９號","E_COORD97":166992.89000000001,"N_COORD97":2542932.9199999999,"ADDRESS":"金華路二段３４５巷２９號","OBJECTID":399675},"geometry":{"x":166992.88999999966,"y":2542932.9200000037}},{"attributes":{"ID":399700,"DIS_CODE":0,"TOWNNAME":"南區","LI":"文華里","LIN":"11鄰","STREET":"金華路","SECT":"二段","MAREA":" ","LANE":"３４５巷","ALLEY":" ","HOUSE_NO":"３１號","E_COORD97":166984.63,"N_COORD97":2542933.3700000001,"ADDRESS":"金華路二段３４５巷３１號","OBJECTID":399676},"geometry":{"x":166984.62999999989,"y":2542933.370000001}},{"attributes":{"ID":399701,"DIS_CODE":0,"TOWNNAME":"南區","LI":"文華里","LIN":"11鄰","STREET":"金華路","SECT":"二段","MAREA":" ","LANE":"３４５巷","ALLEY":" ","HOUSE_NO":"３３號","E_COORD97":166979.60999999999,"N_COORD97":2542933.46,"ADDRESS":"金華路二段３４５巷３３號","OBJECTID":399677},"geometry":{"x":166979.61000000127,"y":2542933.4600000009}},{"attributes":{"ID":399702,"DIS_CODE":0,"TOWNNAME":"南區","LI":"文華里","LIN":"11鄰","STREET":"建南路","SECT":" ","MAREA":" ","LANE":"１２０巷","ALLEY":" ","HOUSE_NO":"１號","E_COORD97":167033.19,"N_COORD97":2542866.0499999998,"ADDRESS":"建南路１２０巷１號","OBJECTID":399678},"geometry":{"x":167033.19000000134,"y":2542866.0500000026}},{"attributes":{"ID":399703,"DIS_CODE":0,"TOWNNAME":"南區","LI":"文華里","LIN":"11鄰","STREET":"建南路","SECT":" ","MAREA":" ","LANE":"１２０巷","ALLEY":" ","HOUSE_NO":"３號","E_COORD97":167033.19,"N_COORD97":2542871.3599999999,"ADDRESS":"建南路１２０巷３號","OBJECTID":399679},"geometry":{"x":167033.19000000134,"y":2542871.3599999994}},{"attributes":{"ID":399704,"DIS_CODE":0,"TOWNNAME":"南區","LI":"文華里","LIN":"11鄰","STREET":"建南路","SECT":" ","MAREA":" ","LANE":"１２０巷","ALLEY":" ","HOUSE_NO":"５號","E_COORD97":167033.94,"N_COORD97":2542880.79,"ADDRESS":"建南路１２０巷５號","OBJECTID":399680},"geometry":{"x":167033.94000000041,"y":2542880.7899999991}},{"attributes":{"ID":399705,"DIS_CODE":0,"TOWNNAME":"南區","LI":"文華里","LIN":"11鄰","STREET":"建南路","SECT":" ","MAREA":" ","LANE":"１２０巷","ALLEY":" ","HOUSE_NO":"７號","E_COORD97":167034.57000000001,"N_COORD97":2542885.8799999999,"ADDRESS":"建南路１２０巷７號","OBJECTID":399681},"geometry":{"x":167034.5700000003,"y":2542885.8800000008}},{"attributes":{"ID":399706,"DIS_CODE":0,"TOWNNAME":"南區","LI":"文華里","LIN":"11鄰","STREET":"建南路","SECT":" ","MAREA":" ","LANE":"１２０巷","ALLEY":" ","HOUSE_NO":"９號","E_COORD97":167035.10000000001,"N_COORD97":2542889.6000000001,"ADDRESS":"建南路１２０巷９號","OBJECTID":399682},"geometry":{"x":167035.09999999963,"y":2542889.5999999996}},{"attributes":{"ID":399707,"DIS_CODE":0,"TOWNNAME":"南區","LI":"文華里","LIN":"11鄰","STREET":"建南路","SECT":" ","MAREA":" ","LANE":"１２０巷","ALLEY":" ","HOUSE_NO":"１１號","E_COORD97":167034.72,"N_COORD97":2542893.8199999998,"ADDRESS":"建南路１２０巷１１號","OBJECTID":399683},"geometry":{"x":167034.71999999974,"y":2542893.8200000022}},{"attributes":{"ID":399708,"DIS_CODE":0,"TOWNNAME":"南區","LI":"文華里","LIN":"11鄰","STREET":"建南路","SECT":" ","MAREA":" ","LANE":"１２０巷","ALLEY":" ","HOUSE_NO":"１３號","E_COORD97":167034.98999999999,"N_COORD97":2542899.29,"ADDRESS":"建南路１２０巷１３號","OBJECTID":399684},"geometry":{"x":167034.99000000022,"y":2542899.2900000028}},{"attributes":{"ID":399709,"DIS_CODE":0,"TOWNNAME":"南區","LI":"文華里","LIN":"11鄰","STREET":"建南路","SECT":" ","MAREA":" ","LANE":"１３８巷","ALLEY":" ","HOUSE_NO":"１號","E_COORD97":166989.67000000001,"N_COORD97":2542870.0800000001,"ADDRESS":"建南路１３８巷１號","OBJECTID":399685},"geometry":{"x":166989.66999999993,"y":2542870.0800000001}},{"attributes":{"ID":399710,"DIS_CODE":0,"TOWNNAME":"南區","LI":"文華里","LIN":"11鄰","STREET":"建南路","SECT":" ","MAREA":" ","LANE":"１３８巷","ALLEY":" ","HOUSE_NO":"２號","E_COORD97":167005.79999999999,"N_COORD97":2542867.8599999999,"ADDRESS":"建南路１３８巷２號","OBJECTID":399686},"geometry":{"x":167005.80000000168,"y":2542867.8599999994}},{"attributes":{"ID":399711,"DIS_CODE":0,"TOWNNAME":"南區","LI":"文華里","LIN":"11鄰","STREET":"建南路","SECT":" ","MAREA":" ","LANE":"１３８巷","ALLEY":" ","HOUSE_NO":"３號","E_COORD97":166990.20000000001,"N_COORD97":2542874.96,"ADDRESS":"建南路１３８巷３號","OBJECTID":399687},"geometry":{"x":166990.20000000112,"y":2542874.9600000009}},{"attributes":{"ID":399712,"DIS_CODE":0,"TOWNNAME":"南區","LI":"文華里","LIN":"11鄰","STREET":"建南路","SECT":" ","MAREA":" ","LANE":"１３８巷","ALLEY":" ","HOUSE_NO":"４號","E_COORD97":167005.91,"N_COORD97":2542872.9500000002,"ADDRESS":"建南路１３８巷４號","OBJECTID":399688},"geometry":{"x":167005.91000000108,"y":2542872.9499999993}},{"attributes":{"ID":399713,"DIS_CODE":0,"TOWNNAME":"南區","LI":"文華里","LIN":"11鄰","STREET":"建南路","SECT":" ","MAREA":" ","LANE":"１３８巷","ALLEY":" ","HOUSE_NO":"５號","E_COORD97":166989.98999999999,"N_COORD97":2542879.52,"ADDRESS":"建南路１３８巷５號","OBJECTID":399689},"geometry":{"x":166989.99000000115,"y":2542879.5199999996}},{"attributes":{"ID":399714,"DIS_CODE":0,"TOWNNAME":"南區","LI":"文華里","LIN":"11鄰","STREET":"建南路","SECT":" ","MAREA":" ","LANE":"１３８巷","ALLEY":" ","HOUSE_NO":"６號","E_COORD97":167005.91,"N_COORD97":2542878.1400000001,"ADDRESS":"建南路１３８巷６號","OBJECTID":399690},"geometry":{"x":167005.91000000108,"y":2542878.1400000043}},{"attributes":{"ID":399715,"DIS_CODE":0,"TOWNNAME":"南區","LI":"文華里","LIN":"11鄰","STREET":"建南路","SECT":" ","MAREA":" ","LANE":"１３８巷","ALLEY":" ","HOUSE_NO":"７號","E_COORD97":166990.62,"N_COORD97":2542883.98,"ADDRESS":"建南路１３８巷７號","OBJECTID":399691},"geometry":{"x":166990.62000000104,"y":2542883.9800000023}},{"attributes":{"ID":399716,"DIS_CODE":0,"TOWNNAME":"南區","LI":"文華里","LIN":"11鄰","STREET":"建南路","SECT":" ","MAREA":" ","LANE":"１２０巷","ALLEY":" ","HOUSE_NO":"１５號","E_COORD97":167034.89999999999,"N_COORD97":2542904.3999999999,"ADDRESS":"建南路１２０巷１５號","OBJECTID":399692},"geometry":{"x":167034.9000000013,"y":2542904.4000000022}},{"attributes":{"ID":399717,"DIS_CODE":0,"TOWNNAME":"南區","LI":"文華里","LIN":"11鄰","STREET":"建南路","SECT":" ","MAREA":" ","LANE":"１３８巷","ALLEY":" ","HOUSE_NO":"１６號","E_COORD97":167007.70000000001,"N_COORD97":2542901.0800000001,"ADDRESS":"建南路１３８巷１６號","OBJECTID":399693},"geometry":{"x":167007.70000000112,"y":2542901.0800000001}},{"attributes":{"ID":399718,"DIS_CODE":0,"TOWNNAME":"南區","LI":"明興里","LIN":"11鄰","STREET":"永興四街","SECT":" ","MAREA":" ","LANE":"６５巷","ALLEY":" ","HOUSE_NO":"２號","E_COORD97":167082.12,"N_COORD97":2540567.0800000001,"ADDRESS":"永興四街６５巷２號","OBJECTID":399694},"geometry":{"x":167082.12000000104,"y":2540567.0800000019}},{"attributes":{"ID":399719,"DIS_CODE":0,"TOWNNAME":"南區","LI":"興農里","LIN":"11鄰","STREET":"萬年五街","SECT":" ","MAREA":" ","LANE":"４０巷","ALLEY":" ","HOUSE_NO":"６號","E_COORD97":166795.54999999999,"N_COORD97":2536421.7799999998,"ADDRESS":"萬年五街４０巷６號","OBJECTID":399695},"geometry":{"x":166795.55000000168,"y":2536421.7800000012}},{"attributes":{"ID":399720,"DIS_CODE":0,"TOWNNAME":"南區","LI":"文華里","LIN":"11鄰","STREET":"建南路","SECT":" ","MAREA":" ","LANE":"１３８巷","ALLEY":" ","HOUSE_NO":"２２號","E_COORD97":167007.97,"N_COORD97":2542913.2799999998,"ADDRESS":"建南路１３８巷２２號","OBJECTID":399696},"geometry":{"x":167007.9700000016,"y":2542913.2800000012}},{"attributes":{"ID":399721,"DIS_CODE":0,"TOWNNAME":"南區","LI":"文華里","LIN":"11鄰","STREET":"金華路","SECT":"二段","MAREA":" ","LANE":"３４５巷","ALLEY":" ","HOUSE_NO":"２５號","E_COORD97":167012.82000000001,"N_COORD97":2542929.96,"ADDRESS":"金華路二段３４５巷２５號","OBJECTID":399697},"geometry":{"x":167012.81999999937,"y":2542929.9600000009}},{"attributes":{"ID":399722,"DIS_CODE":0,"TOWNNAME":"南區","LI":"文華里","LIN":"11鄰","STREET":"建南路","SECT":" ","MAREA":" ","LANE":"１２０巷","ALLEY":" ","HOUSE_NO":"１９號","E_COORD97":167035.07999999999,"N_COORD97":2542913.6400000001,"ADDRESS":"建南路１２０巷１９號","OBJECTID":399698},"geometry":{"x":167035.08000000101,"y":2542913.6400000006}},{"attributes":{"ID":399723,"DIS_CODE":0,"TOWNNAME":"南區","LI":"日新里","LIN":"11鄰","STREET":"新興路","SECT":" ","MAREA":" ","LANE":"４３９巷","ALLEY":" ","HOUSE_NO":"３號","E_COORD97":166940.85999999999,"N_COORD97":2541695.1099999999,"ADDRESS":"新興路４３９巷３號","OBJECTID":399699},"geometry":{"x":166940.86000000034,"y":2541695.1100000013}},{"attributes":{"ID":399724,"DIS_CODE":0,"TOWNNAME":"南區","LI":"田寮里","LIN":"11鄰","STREET":"新興路","SECT":" ","MAREA":" ","LANE":"１１３巷","ALLEY":" ","HOUSE_NO":"２９號","E_COORD97":167575.64999999999,"N_COORD97":2542109.5899999999,"ADDRESS":"新興路１１３巷２９號","OBJECTID":399700},"geometry":{"x":167575.6500000013,"y":2542109.5900000017}},{"attributes":{"ID":399725,"DIS_CODE":0,"TOWNNAME":"南區","LI":"田寮里","LIN":"11鄰","STREET":"新興路","SECT":" ","MAREA":" ","LANE":"１１３巷","ALLEY":" ","HOUSE_NO":"２７號","E_COORD97":167577.20000000001,"N_COORD97":2542101.8199999998,"ADDRESS":"新興路１１３巷２７號","OBJECTID":399701},"geometry":{"x":167577.20000000112,"y":2542101.8200000003}},{"attributes":{"ID":399726,"DIS_CODE":0,"TOWNNAME":"南區","LI":"田寮里","LIN":"11鄰","STREET":"新興路","SECT":" ","MAREA":" ","LANE":"１１３巷","ALLEY":" ","HOUSE_NO":"２５號","E_COORD97":167581.57999999999,"N_COORD97":2542092.9399999999,"ADDRESS":"新興路１１３巷２５號","OBJECTID":399702},"geometry":{"x":167581.58000000007,"y":2542092.9400000013}},{"attributes":{"ID":399727,"DIS_CODE":0,"TOWNNAME":"南區","LI":"田寮里","LIN":"11鄰","STREET":"新興路","SECT":" ","MAREA":" ","LANE":"１１３巷","ALLEY":" ","HOUSE_NO":"２３號","E_COORD97":167578.01999999999,"N_COORD97":2542080.2000000002,"ADDRESS":"新興路１１３巷２３號","OBJECTID":399703},"geometry":{"x":167578.01999999955,"y":2542080.2000000011}},{"attributes":{"ID":399728,"DIS_CODE":0,"TOWNNAME":"南區","LI":"田寮里","LIN":"11鄰","STREET":"新興路","SECT":" ","MAREA":" ","LANE":"１１３巷","ALLEY":" ","HOUSE_NO":"２１號","E_COORD97":167569.51000000001,"N_COORD97":2542079.9300000002,"ADDRESS":"新興路１１３巷２１號","OBJECTID":399704},"geometry":{"x":167569.51000000071,"y":2542079.9300000016}},{"attributes":{"ID":399729,"DIS_CODE":0,"TOWNNAME":"中西區","LI":"元安里","LIN":"11鄰","STREET":"國華街","SECT":"二段","MAREA":" ","LANE":"７１巷","ALLEY":" ","HOUSE_NO":"１０號","E_COORD97":167595.62,"N_COORD97":2543348.1099999999,"ADDRESS":"國華街二段７１巷１０號","OBJECTID":399705},"geometry":{"x":167595.62000000197,"y":2543348.1100000031}},{"attributes":{"ID":399730,"DIS_CODE":0,"TOWNNAME":"中西區","LI":"元安里","LIN":"11鄰","STREET":"國華街","SECT":"二段","MAREA":" ","LANE":"７１巷","ALLEY":" ","HOUSE_NO":"１２號","E_COORD97":167585.45999999999,"N_COORD97":2543348.0099999998,"ADDRESS":"國華街二段７１巷１２號","OBJECTID":399706},"geometry":{"x":167585.46000000089,"y":2543348.0099999998}},{"attributes":{"ID":399731,"DIS_CODE":0,"TOWNNAME":"新化區","LI":"武安里","LIN":"11鄰","STREET":"信義路","SECT":" ","MAREA":" ","LANE":"３３９巷","ALLEY":" ","HOUSE_NO":"５號","E_COORD97":178842.92999999999,"N_COORD97":2548254.25,"ADDRESS":"信義路３３９巷５號","OBJECTID":399707},"geometry":{"x":178842.93000000063,"y":2548254.2500000019}},{"attributes":{"ID":399732,"DIS_CODE":0,"TOWNNAME":"中西區","LI":"元安里","LIN":"11鄰","STREET":"國華街","SECT":"二段","MAREA":" ","LANE":"７１巷","ALLEY":" ","HOUSE_NO":"１６號","E_COORD97":167578.09,"N_COORD97":2543346.6200000001,"ADDRESS":"國華街二段７１巷１６號","OBJECTID":399708},"geometry":{"x":167578.08999999985,"y":2543346.6200000048}},{"attributes":{"ID":399733,"DIS_CODE":0,"TOWNNAME":"中西區","LI":"元安里","LIN":"11鄰","STREET":"國華街","SECT":"二段","MAREA":" ","LANE":"７１巷","ALLEY":" ","HOUSE_NO":"１８號","E_COORD97":167574.45000000001,"N_COORD97":2543348.8599999999,"ADDRESS":"國華街二段７１巷１８號","OBJECTID":399709},"geometry":{"x":167574.45000000019,"y":2543348.8599999994}},{"attributes":{"ID":399734,"DIS_CODE":0,"TOWNNAME":"中西區","LI":"元安里","LIN":"11鄰","STREET":"國華街","SECT":"二段","MAREA":" ","LANE":"７１巷","ALLEY":" ","HOUSE_NO":"２０號","E_COORD97":167569.91,"N_COORD97":2543349.4399999999,"ADDRESS":"國華街二段７１巷２０號","OBJECTID":399710},"geometry":{"x":167569.91000000201,"y":2543349.4400000032}},{"attributes":{"ID":399735,"DIS_CODE":0,"TOWNNAME":"永康區","LI":"成功里","LIN":"11鄰","STREET":"忠孝路","SECT":" ","MAREA":" ","LANE":"１９９巷","ALLEY":" ","HOUSE_NO":"３３號","E_COORD97":172013.37,"N_COORD97":2544850.4900000002,"ADDRESS":"忠孝路１９９巷３３號","OBJECTID":399711},"geometry":{"x":172013.37000000104,"y":2544850.4900000002}},{"attributes":{"ID":399736,"DIS_CODE":0,"TOWNNAME":"永康區","LI":"成功里","LIN":"11鄰","STREET":"忠孝路","SECT":" ","MAREA":" ","LANE":"１９９巷","ALLEY":" ","HOUSE_NO":"２３號","E_COORD97":172031.48999999999,"N_COORD97":2544852.5,"ADDRESS":"忠孝路１９９巷２３號","OBJECTID":399712},"geometry":{"x":172031.49000000115,"y":2544852.5000000019}},{"attributes":{"ID":399737,"DIS_CODE":0,"TOWNNAME":"永康區","LI":"正強里","LIN":"11鄰","STREET":"正強街","SECT":" ","MAREA":" ","LANE":"１２２巷","ALLEY":" ","HOUSE_NO":"７號","E_COORD97":173373.47,"N_COORD97":2547426.9900000002,"ADDRESS":"正強街１２２巷７號","OBJECTID":399713},"geometry":{"x":173373.4700000016,"y":2547426.9900000002}},{"attributes":{"ID":399738,"DIS_CODE":0,"TOWNNAME":"永康區","LI":"成功里","LIN":"11鄰","STREET":"忠孝路","SECT":" ","MAREA":" ","LANE":"１９９巷","ALLEY":" ","HOUSE_NO":"２２號","E_COORD97":172033.04000000001,"N_COORD97":2544871.25,"ADDRESS":"忠孝路１９９巷２２號","OBJECTID":399714},"geometry":{"x":172033.04000000097,"y":2544871.2500000019}},{"attributes":{"ID":399739,"DIS_CODE":0,"TOWNNAME":"中西區","LI":"元安里","LIN":"11鄰","STREET":"國華街","SECT":"二段","MAREA":" ","LANE":"６１巷","ALLEY":" ","HOUSE_NO":"１９號","E_COORD97":167559.76000000001,"N_COORD97":2543303.7799999998,"ADDRESS":"國華街二段６１巷１９號","OBJECTID":399715},"geometry":{"x":167559.75999999978,"y":2543303.7800000012}},{"attributes":{"ID":399740,"DIS_CODE":0,"TOWNNAME":"中西區","LI":"元安里","LIN":"11鄰","STREET":"國華街","SECT":"二段","MAREA":" ","LANE":"６１巷","ALLEY":" ","HOUSE_NO":"２１號","E_COORD97":167569.75,"N_COORD97":2543308.3100000001,"ADDRESS":"國華街二段６１巷２１號","OBJECTID":399716},"geometry":{"x":167569.75000000093,"y":2543308.3100000024}},{"attributes":{"ID":399741,"DIS_CODE":0,"TOWNNAME":"中西區","LI":"元安里","LIN":"11鄰","STREET":"國華街","SECT":"二段","MAREA":" ","LANE":"６１巷","ALLEY":" ","HOUSE_NO":"２３號","E_COORD97":167572.76999999999,"N_COORD97":2543313.6800000002,"ADDRESS":"國華街二段６１巷２３號","OBJECTID":399717},"geometry":{"x":167572.76999999955,"y":2543313.6799999997}},{"attributes":{"ID":399742,"DIS_CODE":0,"TOWNNAME":"中西區","LI":"元安里","LIN":"11鄰","STREET":"國華街","SECT":"二段","MAREA":" ","LANE":"７１巷","ALLEY":" ","HOUSE_NO":"１７號","E_COORD97":167580.82999999999,"N_COORD97":2543336,"ADDRESS":"國華街二段７１巷１７號","OBJECTID":399718},"geometry":{"x":167580.83000000101,"y":2543336.0000000037}},{"attributes":{"ID":399743,"DIS_CODE":0,"TOWNNAME":"中西區","LI":"元安里","LIN":"11鄰","STREET":"國華街","SECT":"二段","MAREA":" ","LANE":"７１巷","ALLEY":" ","HOUSE_NO":"１９號","E_COORD97":167576.01000000001,"N_COORD97":2543336.6600000001,"ADDRESS":"國華街二段７１巷１９號","OBJECTID":399719},"geometry":{"x":167576.01000000071,"y":2543336.660000002}},{"attributes":{"ID":399744,"DIS_CODE":0,"TOWNNAME":"中西區","LI":"元安里","LIN":"11鄰","STREET":"國華街","SECT":"二段","MAREA":" ","LANE":"７１巷","ALLEY":" ","HOUSE_NO":"２１號","E_COORD97":167571.28,"N_COORD97":2543338.6699999999,"ADDRESS":"國華街二段７１巷２１號","OBJECTID":399720},"geometry":{"x":167571.28000000119,"y":2543338.6700000018}},{"attributes":{"ID":399745,"DIS_CODE":0,"TOWNNAME":"中西區","LI":"元安里","LIN":"11鄰","STREET":"國華街","SECT":"二段","MAREA":" ","LANE":"７１巷","ALLEY":" ","HOUSE_NO":"２３號","E_COORD97":167567.29999999999,"N_COORD97":2543339.1099999999,"ADDRESS":"國華街二段７１巷２３號","OBJECTID":399721},"geometry":{"x":167567.30000000075,"y":2543339.1100000013}},{"attributes":{"ID":399746,"DIS_CODE":0,"TOWNNAME":"中西區","LI":"元安里","LIN":"11鄰","STREET":"國華街","SECT":"二段","MAREA":" ","LANE":"７１巷","ALLEY":" ","HOUSE_NO":"２５號","E_COORD97":167566.14999999999,"N_COORD97":2543342.77,"ADDRESS":"國華街二段７１巷２５號","OBJECTID":399722},"geometry":{"x":167566.15000000037,"y":2543342.7699999996}},{"attributes":{"ID":399747,"DIS_CODE":0,"TOWNNAME":"中西區","LI":"民主里","LIN":"11鄰","STREET":"尊王路","SECT":" ","MAREA":" ","LANE":"１３８巷","ALLEY":" ","HOUSE_NO":"９號","E_COORD97":167340.10999999999,"N_COORD97":2543674.9399999999,"ADDRESS":"尊王路１３８巷９號","OBJECTID":399723},"geometry":{"x":167340.11000000127,"y":2543674.9400000032}},{"attributes":{"ID":399748,"DIS_CODE":0,"TOWNNAME":"中西區","LI":"民主里","LIN":"11鄰","STREET":"尊王路","SECT":" ","MAREA":" ","LANE":"１５０巷","ALLEY":" ","HOUSE_NO":"６號","E_COORD97":167320.19,"N_COORD97":2543657.2200000002,"ADDRESS":"尊王路１５０巷６號","OBJECTID":399724},"geometry":{"x":167320.19000000041,"y":2543657.2200000044}},{"attributes":{"ID":399749,"DIS_CODE":0,"TOWNNAME":"中西區","LI":"文賢里","LIN":"11鄰","STREET":"和真街","SECT":" ","MAREA":" ","LANE":"９５巷","ALLEY":" ","HOUSE_NO":"２號","E_COORD97":166816.89999999999,"N_COORD97":2544646.4500000002,"ADDRESS":"和真街９５巷２號","OBJECTID":399725},"geometry":{"x":166816.90000000037,"y":2544646.4499999993}},{"attributes":{"ID":399750,"DIS_CODE":0,"TOWNNAME":"新化區","LI":"協興里","LIN":"11鄰","STREET":"太平街","SECT":" ","MAREA":" ","LANE":"１５０巷","ALLEY":" ","HOUSE_NO":"１８４號","E_COORD97":178324.42000000001,"N_COORD97":2548901.25,"ADDRESS":"太平街１５０巷１８４號","OBJECTID":399726},"geometry":{"x":178324.42000000086,"y":2548901.2500000037}},{"attributes":{"ID":399751,"DIS_CODE":0,"TOWNNAME":"新化區","LI":"協興里","LIN":"11鄰","STREET":"太平街","SECT":" ","MAREA":" ","LANE":"１５０巷","ALLEY":" ","HOUSE_NO":"２３６號","E_COORD97":178340.12,"N_COORD97":2548947.25,"ADDRESS":"太平街１５０巷２３６號","OBJECTID":399727},"geometry":{"x":178340.12000000104,"y":2548947.25}},{"attributes":{"ID":399752,"DIS_CODE":0,"TOWNNAME":"新化區","LI":"武安里","LIN":"11鄰","STREET":"信義路","SECT":" ","MAREA":" ","LANE":"３３９巷","ALLEY":" ","HOUSE_NO":"１９號","E_COORD97":178843.07999999999,"N_COORD97":2548239.25,"ADDRESS":"信義路３３９巷１９號","OBJECTID":399728},"geometry":{"x":178843.08000000007,"y":2548239.25}},{"attributes":{"ID":399753,"DIS_CODE":0,"TOWNNAME":"新化區","LI":"協興里","LIN":"11鄰","STREET":"太平街","SECT":" ","MAREA":" ","LANE":"１５０巷","ALLEY":" ","HOUSE_NO":"２４６號","E_COORD97":178331.22,"N_COORD97":2548966.25,"ADDRESS":"太平街１５０巷２４６號","OBJECTID":399729},"geometry":{"x":178331.21999999974,"y":2548966.2500000019}},{"attributes":{"ID":399754,"DIS_CODE":0,"TOWNNAME":"新化區","LI":"協興里","LIN":"11鄰","STREET":"太平街","SECT":" ","MAREA":" ","LANE":"１５０巷","ALLEY":" ","HOUSE_NO":"１９８號","E_COORD97":178329.01999999999,"N_COORD97":2548912.25,"ADDRESS":"太平街１５０巷１９８號","OBJECTID":399730},"geometry":{"x":178329.01999999955,"y":2548912.2500000019}},{"attributes":{"ID":399755,"DIS_CODE":0,"TOWNNAME":"新化區","LI":"協興里","LIN":"11鄰","STREET":"太平街","SECT":" ","MAREA":" ","LANE":"１５０巷","ALLEY":" ","HOUSE_NO":"２３２號","E_COORD97":178344.32000000001,"N_COORD97":2548938.25,"ADDRESS":"太平街１５０巷２３２號","OBJECTID":399731},"geometry":{"x":178344.32000000123,"y":2548938.25}},{"attributes":{"ID":399756,"DIS_CODE":0,"TOWNNAME":"新化區","LI":"協興里","LIN":"11鄰","STREET":"太平街","SECT":" ","MAREA":" ","LANE":"１５０巷","ALLEY":" ","HOUSE_NO":"１８８號","E_COORD97":178332.42000000001,"N_COORD97":2548902.25,"ADDRESS":"太平街１５０巷１８８號","OBJECTID":399732},"geometry":{"x":178332.42000000179,"y":2548902.2500000019}},{"attributes":{"ID":399757,"DIS_CODE":0,"TOWNNAME":"新化區","LI":"協興里","LIN":"11鄰","STREET":"太平街","SECT":" ","MAREA":" ","LANE":"１５０巷","ALLEY":" ","HOUSE_NO":"２４２號","E_COORD97":178334.82000000001,"N_COORD97":2548958.25,"ADDRESS":"太平街１５０巷２４２號","OBJECTID":399733},"geometry":{"x":178334.8200000003,"y":2548958.25}},{"attributes":{"ID":399758,"DIS_CODE":0,"TOWNNAME":"新化區","LI":"協興里","LIN":"11鄰","STREET":"太平街","SECT":" ","MAREA":" ","LANE":"１５０巷","ALLEY":" ","HOUSE_NO":"２３８號","E_COORD97":178338.32000000001,"N_COORD97":2548951.25,"ADDRESS":"太平街１５０巷２３８號","OBJECTID":399734},"geometry":{"x":178338.3200000003,"y":2548951.25}},{"attributes":{"ID":399759,"DIS_CODE":0,"TOWNNAME":"新化區","LI":"豐榮里","LIN":"11鄰","STREET":"信義路","SECT":" ","MAREA":" ","LANE":"４４３巷","ALLEY":" ","HOUSE_NO":"１９號","E_COORD97":178515.88,"N_COORD97":2548225.25,"ADDRESS":"信義路４４３巷１９號","OBJECTID":399735},"geometry":{"x":178515.88000000082,"y":2548225.25}},{"attributes":{"ID":399760,"DIS_CODE":0,"TOWNNAME":"新化區","LI":"協興里","LIN":"11鄰","STREET":"太平街","SECT":" ","MAREA":" ","LANE":"１５０巷","ALLEY":" ","HOUSE_NO":"１９４號","E_COORD97":178337.01999999999,"N_COORD97":2548914.25,"ADDRESS":"太平街１５０巷１９４號","OBJECTID":399736},"geometry":{"x":178337.02000000048,"y":2548914.25}},{"attributes":{"ID":399761,"DIS_CODE":0,"TOWNNAME":"新化區","LI":"協興里","LIN":"11鄰","STREET":"太平街","SECT":" ","MAREA":" ","LANE":"１５０巷","ALLEY":" ","HOUSE_NO":"２０４號","E_COORD97":178307.32000000001,"N_COORD97":2548907.25,"ADDRESS":"太平街１５０巷２０４號","OBJECTID":399737},"geometry":{"x":178307.3200000003,"y":2548907.25}},{"attributes":{"ID":399762,"DIS_CODE":0,"TOWNNAME":"新化區","LI":"豐榮里","LIN":"11鄰","STREET":"信義路","SECT":" ","MAREA":" ","LANE":"４４３巷","ALLEY":" ","HOUSE_NO":"４５號","E_COORD97":178498.38,"N_COORD97":2548196.25,"ADDRESS":"信義路４４３巷４５號","OBJECTID":399738},"geometry":{"x":178498.37999999989,"y":2548196.2500000037}},{"attributes":{"ID":399763,"DIS_CODE":0,"TOWNNAME":"新化區","LI":"協興里","LIN":"11鄰","STREET":"太平街","SECT":" ","MAREA":" ","LANE":"１５０巷","ALLEY":" ","HOUSE_NO":"１７８號","E_COORD97":178310.51999999999,"N_COORD97":2548887.25,"ADDRESS":"太平街１５０巷１７８號","OBJECTID":399739},"geometry":{"x":178310.51999999955,"y":2548887.25}},{"attributes":{"ID":399764,"DIS_CODE":0,"TOWNNAME":"新化區","LI":"協興里","LIN":"11鄰","STREET":"太平街","SECT":" ","MAREA":" ","LANE":"１５０巷","ALLEY":" ","HOUSE_NO":"２０８號","E_COORD97":178305.12,"N_COORD97":2548915.25,"ADDRESS":"太平街１５０巷２０８號","OBJECTID":399740},"geometry":{"x":178305.12000000011,"y":2548915.2500000019}},{"attributes":{"ID":399765,"DIS_CODE":0,"TOWNNAME":"新化區","LI":"豐榮里","LIN":"11鄰","STREET":"信義路","SECT":" ","MAREA":" ","LANE":"４４３巷","ALLEY":" ","HOUSE_NO":"３５號","E_COORD97":178526.17999999999,"N_COORD97":2548206.25,"ADDRESS":"信義路４４３巷３５號","OBJECTID":399741},"geometry":{"x":178526.1799999997,"y":2548206.2500000037}},{"attributes":{"ID":399766,"DIS_CODE":0,"TOWNNAME":"新化區","LI":"協興里","LIN":"11鄰","STREET":"太平街","SECT":" ","MAREA":" ","LANE":"１５０巷","ALLEY":" ","HOUSE_NO":"２２０號","E_COORD97":178298.42000000001,"N_COORD97":2548939.25,"ADDRESS":"太平街１５０巷２２０號","OBJECTID":399742},"geometry":{"x":178298.42000000179,"y":2548939.2500000019}},{"attributes":{"ID":399767,"DIS_CODE":0,"TOWNNAME":"新化區","LI":"協興里","LIN":"11鄰","STREET":"太平街","SECT":" ","MAREA":" ","LANE":"１５０巷","ALLEY":" ","HOUSE_NO":"２１８號","E_COORD97":178299.51999999999,"N_COORD97":2548935.25,"ADDRESS":"太平街１５０巷２１８號","OBJECTID":399743},"geometry":{"x":178299.52000000048,"y":2548935.2500000037}},{"attributes":{"ID":399768,"DIS_CODE":0,"TOWNNAME":"新化區","LI":"豐榮里","LIN":"11鄰","STREET":"信義路","SECT":" ","MAREA":" ","LANE":"４４３巷","ALLEY":" ","HOUSE_NO":"１１號","E_COORD97":178494.07999999999,"N_COORD97":2548207.25,"ADDRESS":"信義路４４３巷１１號","OBJECTID":399744},"geometry":{"x":178494.07999999914,"y":2548207.2500000019}},{"attributes":{"ID":399769,"DIS_CODE":0,"TOWNNAME":"新化區","LI":"豐榮里","LIN":"11鄰","STREET":"信義路","SECT":" ","MAREA":" ","LANE":"４４３巷","ALLEY":" ","HOUSE_NO":"２９號","E_COORD97":178526.48000000001,"N_COORD97":2548224.25,"ADDRESS":"信義路４４３巷２９號","OBJECTID":399745},"geometry":{"x":178526.48000000138,"y":2548224.2500000019}},{"attributes":{"ID":399770,"DIS_CODE":0,"TOWNNAME":"新化區","LI":"豐榮里","LIN":"11鄰","STREET":"信義路","SECT":" ","MAREA":" ","LANE":"４４３巷","ALLEY":" ","HOUSE_NO":"２７號","E_COORD97":178526.98000000001,"N_COORD97":2548230.25,"ADDRESS":"信義路４４３巷２７號","OBJECTID":399746},"geometry":{"x":178526.98000000045,"y":2548230.2500000037}},{"attributes":{"ID":399771,"DIS_CODE":0,"TOWNNAME":"新化區","LI":"豐榮里","LIN":"11鄰","STREET":"信義路","SECT":" ","MAREA":" ","LANE":"４４３巷","ALLEY":" ","HOUSE_NO":"２３號","E_COORD97":178516.07999999999,"N_COORD97":2548237.25,"ADDRESS":"信義路４４３巷２３號","OBJECTID":399747},"geometry":{"x":178516.07999999914,"y":2548237.2500000019}},{"attributes":{"ID":399772,"DIS_CODE":0,"TOWNNAME":"安南區","LI":"南興里","LIN":"11鄰","STREET":"公學路","SECT":"五段","MAREA":" ","LANE":"６９７巷","ALLEY":" ","HOUSE_NO":"２０號之１","E_COORD97":163845.89999999999,"N_COORD97":2552818.4199999999,"ADDRESS":"公學路五段６９７巷２０號之１","OBJECTID":399748},"geometry":{"x":163845.90000000224,"y":2552818.4199999999}},{"attributes":{"ID":399773,"DIS_CODE":0,"TOWNNAME":"安南區","LI":"南興里","LIN":"11鄰","STREET":"公學路","SECT":"五段","MAREA":" ","LANE":"６９７巷","ALLEY":" ","HOUSE_NO":"２０號之２","E_COORD97":163845.89999999999,"N_COORD97":2552814.0299999998,"ADDRESS":"公學路五段６９７巷２０號之２","OBJECTID":399749},"geometry":{"x":163845.90000000224,"y":2552814.0299999993}},{"attributes":{"ID":399774,"DIS_CODE":0,"TOWNNAME":"安南區","LI":"南興里","LIN":"11鄰","STREET":"公學路","SECT":"五段","MAREA":" ","LANE":"６９７巷","ALLEY":" ","HOUSE_NO":"２號","E_COORD97":163848.82999999999,"N_COORD97":2552869.3599999999,"ADDRESS":"公學路五段６９７巷２號","OBJECTID":399750},"geometry":{"x":163848.83000000007,"y":2552869.3599999994}},{"attributes":{"ID":399775,"DIS_CODE":0,"TOWNNAME":"安南區","LI":"南興里","LIN":"11鄰","STREET":"公學路","SECT":"五段","MAREA":" ","LANE":"６９７巷","ALLEY":" ","HOUSE_NO":"６號","E_COORD97":163850,"N_COORD97":2552857.6499999999,"ADDRESS":"公學路五段６９７巷６號","OBJECTID":399751},"geometry":{"x":163850.00000000186,"y":2552857.6500000004}},{"attributes":{"ID":399776,"DIS_CODE":0,"TOWNNAME":"安南區","LI":"南興里","LIN":"11鄰","STREET":"公學路","SECT":"五段","MAREA":" ","LANE":"６９７巷","ALLEY":" ","HOUSE_NO":"８號","E_COORD97":163849.70999999999,"N_COORD97":2552852.6699999999,"ADDRESS":"公學路五段６９７巷８號","OBJECTID":399752},"geometry":{"x":163849.70999999996,"y":2552852.6700000018}},{"attributes":{"ID":399777,"DIS_CODE":0,"TOWNNAME":"安南區","LI":"南興里","LIN":"11鄰","STREET":"公學路","SECT":"五段","MAREA":" ","LANE":"６９７巷","ALLEY":" ","HOUSE_NO":"１０號","E_COORD97":163847.66,"N_COORD97":2552847.4100000001,"ADDRESS":"公學路五段６９７巷１０號","OBJECTID":399753},"geometry":{"x":163847.66000000108,"y":2552847.410000002}},{"attributes":{"ID":399778,"DIS_CODE":0,"TOWNNAME":"安南區","LI":"南興里","LIN":"11鄰","STREET":"公學路","SECT":"五段","MAREA":" ","LANE":"６９７巷","ALLEY":" ","HOUSE_NO":"１２號","E_COORD97":163847.35999999999,"N_COORD97":2552842.1400000001,"ADDRESS":"公學路五段６９７巷１２號","OBJECTID":399754},"geometry":{"x":163847.36000000034,"y":2552842.1399999987}},{"attributes":{"ID":399779,"DIS_CODE":0,"TOWNNAME":"安南區","LI":"南興里","LIN":"11鄰","STREET":"公學路","SECT":"五段","MAREA":" ","LANE":"６９７巷","ALLEY":" ","HOUSE_NO":"１４號","E_COORD97":163848.54000000001,"N_COORD97":2552836.8700000001,"ADDRESS":"公學路五段６９７巷１４號","OBJECTID":399755},"geometry":{"x":163848.54000000097,"y":2552836.870000001}},{"attributes":{"ID":399780,"DIS_CODE":0,"TOWNNAME":"安南區","LI":"南興里","LIN":"11鄰","STREET":"公學路","SECT":"五段","MAREA":" ","LANE":"６９７巷","ALLEY":" ","HOUSE_NO":"１６號","E_COORD97":163847.07000000001,"N_COORD97":2552832.77,"ADDRESS":"公學路五段６９７巷１６號","OBJECTID":399756},"geometry":{"x":163847.07000000123,"y":2552832.7699999996}},{"attributes":{"ID":399781,"DIS_CODE":0,"TOWNNAME":"安南區","LI":"南興里","LIN":"11鄰","STREET":"公學路","SECT":"五段","MAREA":" ","LANE":"６９７巷","ALLEY":" ","HOUSE_NO":"１８號","E_COORD97":163846.78,"N_COORD97":2552827.79,"ADDRESS":"公學路五段６９７巷１８號","OBJECTID":399757},"geometry":{"x":163846.78000000119,"y":2552827.790000001}},{"attributes":{"ID":399782,"DIS_CODE":0,"TOWNNAME":"安南區","LI":"城南里","LIN":"11鄰","STREET":"城西街","SECT":"二段","MAREA":" ","LANE":"１６０巷","ALLEY":" ","HOUSE_NO":"１２號","E_COORD97":159955.60000000001,"N_COORD97":2551088.0899999999,"ADDRESS":"城西街二段１６０巷１２號","OBJECTID":399758},"geometry":{"x":159955.60000000056,"y":2551088.0899999999}},{"attributes":{"ID":399783,"DIS_CODE":0,"TOWNNAME":"安南區","LI":"城南里","LIN":"11鄰","STREET":"城西街","SECT":"二段","MAREA":" ","LANE":"１６０巷","ALLEY":" ","HOUSE_NO":"１４號","E_COORD97":159954.07999999999,"N_COORD97":2551092.96,"ADDRESS":"城西街二段１６０巷１４號","OBJECTID":399759},"geometry":{"x":159954.08000000101,"y":2551092.9600000009}},{"attributes":{"ID":399784,"DIS_CODE":0,"TOWNNAME":"安南區","LI":"城南里","LIN":"11鄰","STREET":"城西街","SECT":"二段","MAREA":" ","LANE":"１６０巷","ALLEY":" ","HOUSE_NO":"１６號","E_COORD97":159954.07999999999,"N_COORD97":2551096,"ADDRESS":"城西街二段１６０巷１６號","OBJECTID":399760},"geometry":{"x":159954.08000000101,"y":2551096}},{"attributes":{"ID":399785,"DIS_CODE":0,"TOWNNAME":"安南區","LI":"城南里","LIN":"11鄰","STREET":"城西街","SECT":"二段","MAREA":" ","LANE":"１６０巷","ALLEY":" ","HOUSE_NO":"１８號","E_COORD97":159954.07999999999,"N_COORD97":2551100.27,"ADDRESS":"城西街二段１６０巷１８號","OBJECTID":399761},"geometry":{"x":159954.08000000101,"y":2551100.2699999996}},{"attributes":{"ID":399786,"DIS_CODE":0,"TOWNNAME":"安南區","LI":"城南里","LIN":"11鄰","STREET":"城西街","SECT":"二段","MAREA":" ","LANE":"１６０巷","ALLEY":" ","HOUSE_NO":"２０號","E_COORD97":159953.47,"N_COORD97":2551104.5299999998,"ADDRESS":"城西街二段１６０巷２０號","OBJECTID":399762},"geometry":{"x":159953.46999999974,"y":2551104.5299999993}},{"attributes":{"ID":399787,"DIS_CODE":0,"TOWNNAME":"安南區","LI":"城南里","LIN":"11鄰","STREET":"城西街","SECT":"二段","MAREA":" ","LANE":"１６０巷","ALLEY":" ","HOUSE_NO":"２２號","E_COORD97":159952.54999999999,"N_COORD97":2551108.4900000002,"ADDRESS":"城西街二段１６０巷２２號","OBJECTID":399763},"geometry":{"x":159952.55000000075,"y":2551108.4900000021}},{"attributes":{"ID":399788,"DIS_CODE":0,"TOWNNAME":"安南區","LI":"城南里","LIN":"11鄰","STREET":"城西街","SECT":"二段","MAREA":" ","LANE":"１６０巷","ALLEY":" ","HOUSE_NO":"２４號","E_COORD97":159951.94,"N_COORD97":2551112.1400000001,"ADDRESS":"城西街二段１６０巷２４號","OBJECTID":399764},"geometry":{"x":159951.94000000134,"y":2551112.1400000006}},{"attributes":{"ID":399789,"DIS_CODE":0,"TOWNNAME":"安南區","LI":"城南里","LIN":"11鄰","STREET":"城西街","SECT":"二段","MAREA":" ","LANE":"１６０巷","ALLEY":" ","HOUSE_NO":"２６號","E_COORD97":159950.72,"N_COORD97":2551116.7000000002,"ADDRESS":"城西街二段１６０巷２６號","OBJECTID":399765},"geometry":{"x":159950.71999999974,"y":2551116.6999999993}},{"attributes":{"ID":399790,"DIS_CODE":0,"TOWNNAME":"安南區","LI":"城南里","LIN":"11鄰","STREET":"城西街","SECT":"二段","MAREA":" ","LANE":"１６０巷","ALLEY":" ","HOUSE_NO":"２８號","E_COORD97":159949.20000000001,"N_COORD97":2551120.3599999999,"ADDRESS":"城西街二段１６０巷２８號","OBJECTID":399766},"geometry":{"x":159949.20000000019,"y":2551120.3599999975}},{"attributes":{"ID":399791,"DIS_CODE":0,"TOWNNAME":"安南區","LI":"城南里","LIN":"11鄰","STREET":"城西街","SECT":"二段","MAREA":" ","LANE":"１６０巷","ALLEY":" ","HOUSE_NO":"２號","E_COORD97":159956.51999999999,"N_COORD97":2551067.3799999999,"ADDRESS":"城西街二段１６０巷２號","OBJECTID":399767},"geometry":{"x":159956.51999999955,"y":2551067.3800000008}},{"attributes":{"ID":399792,"DIS_CODE":0,"TOWNNAME":"安南區","LI":"城南里","LIN":"11鄰","STREET":"城西街","SECT":"二段","MAREA":" ","LANE":"１６０巷","ALLEY":" ","HOUSE_NO":"３２號","E_COORD97":159947.37,"N_COORD97":2551134.6699999999,"ADDRESS":"城西街二段１６０巷３２號","OBJECTID":399768},"geometry":{"x":159947.37000000104,"y":2551134.6699999999}},{"attributes":{"ID":399793,"DIS_CODE":0,"TOWNNAME":"安南區","LI":"城南里","LIN":"11鄰","STREET":"城西街","SECT":"二段","MAREA":" ","LANE":"１６０巷","ALLEY":" ","HOUSE_NO":"３４號","E_COORD97":159946.76000000001,"N_COORD97":2551138.9399999999,"ADDRESS":"城西街二段１６０巷３４號","OBJECTID":399769},"geometry":{"x":159946.75999999978,"y":2551138.9399999995}},{"attributes":{"ID":399794,"DIS_CODE":0,"TOWNNAME":"安南區","LI":"城南里","LIN":"11鄰","STREET":"城西街","SECT":"二段","MAREA":" ","LANE":"１６０巷","ALLEY":" ","HOUSE_NO":"３６號","E_COORD97":159946.76000000001,"N_COORD97":2551142.8999999999,"ADDRESS":"城西街二段１６０巷３６號","OBJECTID":399770},"geometry":{"x":159946.75999999978,"y":2551142.9000000022}},{"attributes":{"ID":399795,"DIS_CODE":0,"TOWNNAME":"安南區","LI":"城南里","LIN":"11鄰","STREET":"城西街","SECT":"二段","MAREA":" ","LANE":"１６０巷","ALLEY":" ","HOUSE_NO":"３８號","E_COORD97":159945.85000000001,"N_COORD97":2551148.0699999998,"ADDRESS":"城西街二段１６０巷３８號","OBJECTID":399771},"geometry":{"x":159945.84999999963,"y":2551148.0700000022}},{"attributes":{"ID":399796,"DIS_CODE":0,"TOWNNAME":"安南區","LI":"城南里","LIN":"11鄰","STREET":"城西街","SECT":"二段","MAREA":" ","LANE":"１６０巷","ALLEY":" ","HOUSE_NO":"４號","E_COORD97":159956.82000000001,"N_COORD97":2551071.04,"ADDRESS":"城西街二段１６０巷４號","OBJECTID":399772},"geometry":{"x":159956.8200000003,"y":2551071.0399999991}},{"attributes":{"ID":399797,"DIS_CODE":0,"TOWNNAME":"安南區","LI":"城南里","LIN":"11鄰","STREET":"城西街","SECT":"二段","MAREA":" ","LANE":"１６０巷","ALLEY":" ","HOUSE_NO":"６號","E_COORD97":159956.51999999999,"N_COORD97":2551075.2999999998,"ADDRESS":"城西街二段１６０巷６號","OBJECTID":399773},"geometry":{"x":159956.51999999955,"y":2551075.3000000026}},{"attributes":{"ID":399798,"DIS_CODE":0,"TOWNNAME":"安南區","LI":"城南里","LIN":"11鄰","STREET":"城西街","SECT":"二段","MAREA":" ","LANE":"１６０巷","ALLEY":" ","HOUSE_NO":"８號","E_COORD97":159956.20999999999,"N_COORD97":2551079.8700000001,"ADDRESS":"城西街二段１６０巷８號","OBJECTID":399774},"geometry":{"x":159956.21000000183,"y":2551079.8700000029}},{"attributes":{"ID":399799,"DIS_CODE":0,"TOWNNAME":"安南區","LI":"幸福里","LIN":"11鄰","STREET":"府安路","SECT":"六段","MAREA":" ","LANE":"９４巷","ALLEY":" ","HOUSE_NO":"１０號","E_COORD97":166767.81,"N_COORD97":2546544.77,"ADDRESS":"府安路六段９４巷１０號","OBJECTID":399775},"geometry":{"x":166767.80999999959,"y":2546544.7700000014}},{"attributes":{"ID":399800,"DIS_CODE":0,"TOWNNAME":"安南區","LI":"幸福里","LIN":"11鄰","STREET":"府安路","SECT":"六段","MAREA":" ","LANE":"９４巷","ALLEY":" ","HOUSE_NO":"１２號","E_COORD97":166767.10999999999,"N_COORD97":2546548.23,"ADDRESS":"府安路六段９４巷１２號","OBJECTID":399776},"geometry":{"x":166767.11000000127,"y":2546548.2300000004}},{"attributes":{"ID":399801,"DIS_CODE":0,"TOWNNAME":"安南區","LI":"幸福里","LIN":"11鄰","STREET":"府安路","SECT":"六段","MAREA":" ","LANE":"９４巷","ALLEY":" ","HOUSE_NO":"６號","E_COORD97":166768.79999999999,"N_COORD97":2546537.4300000002,"ADDRESS":"府安路六段９４巷６號","OBJECTID":399777},"geometry":{"x":166768.80000000075,"y":2546537.4300000016}},{"attributes":{"ID":399802,"DIS_CODE":0,"TOWNNAME":"安南區","LI":"幸福里","LIN":"11鄰","STREET":"府安路","SECT":"六段","MAREA":" ","LANE":"９４巷","ALLEY":" ","HOUSE_NO":"８號","E_COORD97":166768.5,"N_COORD97":2546541.1000000001,"ADDRESS":"府安路六段９４巷８號","OBJECTID":399778},"geometry":{"x":166768.5,"y":2546541.0999999996}},{"attributes":{"ID":399803,"DIS_CODE":0,"TOWNNAME":"安南區","LI":"幸福里","LIN":"11鄰","STREET":"府安路","SECT":"六段","MAREA":" ","LANE":"９４巷","ALLEY":" ","HOUSE_NO":"６之１號","E_COORD97":166769.39000000001,"N_COORD97":2546532.8799999999,"ADDRESS":"府安路六段９４巷６之１號","OBJECTID":399779},"geometry":{"x":166769.39000000153,"y":2546532.8800000027}},{"attributes":{"ID":399804,"DIS_CODE":0,"TOWNNAME":"安南區","LI":"南興里","LIN":"11鄰","STREET":"公學路","SECT":"五段","MAREA":" ","LANE":"６９７巷","ALLEY":" ","HOUSE_NO":"２７號","E_COORD97":163873.16,"N_COORD97":2552802.8999999999,"ADDRESS":"公學路五段６９７巷２７號","OBJECTID":399780},"geometry":{"x":163873.16000000108,"y":2552802.9000000041}},{"attributes":{"ID":399805,"DIS_CODE":0,"TOWNNAME":"安南區","LI":"南興里","LIN":"11鄰","STREET":"公學路","SECT":"五段","MAREA":" ","LANE":"６９７巷","ALLEY":" ","HOUSE_NO":"２９號","E_COORD97":163872.57000000001,"N_COORD97":2552798.2200000002,"ADDRESS":"公學路五段６９７巷２９號","OBJECTID":399781},"geometry":{"x":163872.57000000123,"y":2552798.2200000025}},{"attributes":{"ID":399806,"DIS_CODE":0,"TOWNNAME":"安南區","LI":"南興里","LIN":"11鄰","STREET":"公學路","SECT":"五段","MAREA":" ","LANE":"６９７巷","ALLEY":" ","HOUSE_NO":"３１號","E_COORD97":163873.25,"N_COORD97":2552794.1299999999,"ADDRESS":"公學路五段６９７巷３１號","OBJECTID":399782},"geometry":{"x":163873.25,"y":2552794.1300000008}},{"attributes":{"ID":399807,"DIS_CODE":0,"TOWNNAME":"安南區","LI":"南興里","LIN":"11鄰","STREET":"公學路","SECT":"五段","MAREA":" ","LANE":"６９７巷","ALLEY":" ","HOUSE_NO":"３３號","E_COORD97":163871.59,"N_COORD97":2552788.5899999999,"ADDRESS":"公學路五段６９７巷３３號","OBJECTID":399783},"geometry":{"x":163871.59000000078,"y":2552788.5900000017}},{"attributes":{"ID":399808,"DIS_CODE":0,"TOWNNAME":"安南區","LI":"南興里","LIN":"11鄰","STREET":"公學路","SECT":"五段","MAREA":" ","LANE":"６９７巷","ALLEY":" ","HOUSE_NO":"３５號","E_COORD97":163871.59,"N_COORD97":2552784.5800000001,"ADDRESS":"公學路五段６９７巷３５號","OBJECTID":399784},"geometry":{"x":163871.59000000078,"y":2552784.5800000038}},{"attributes":{"ID":399809,"DIS_CODE":0,"TOWNNAME":"安南區","LI":"南興里","LIN":"11鄰","STREET":"公學路","SECT":"五段","MAREA":" ","LANE":"６９７巷","ALLEY":" ","HOUSE_NO":"３７號","E_COORD97":163871.59,"N_COORD97":2552780,"ADDRESS":"公學路五段６９７巷３７號","OBJECTID":399785},"geometry":{"x":163871.59000000078,"y":2552780}},{"attributes":{"ID":399810,"DIS_CODE":0,"TOWNNAME":"安南區","LI":"學東里","LIN":"11鄰","STREET":"公學路","SECT":"六段","MAREA":" ","LANE":"６７２巷","ALLEY":" ","HOUSE_NO":"３０號","E_COORD97":162218.53,"N_COORD97":2553353.5899999999,"ADDRESS":"公學路六段６７２巷３０號","OBJECTID":399786},"geometry":{"x":162218.53000000026,"y":2553353.589999998}},{"attributes":{"ID":399811,"DIS_CODE":0,"TOWNNAME":"安南區","LI":"學東里","LIN":"11鄰","STREET":"公學路","SECT":"六段","MAREA":" ","LANE":"６６０巷","ALLEY":" ","HOUSE_NO":"２９號","E_COORD97":162236.69,"N_COORD97":2553350.6699999999,"ADDRESS":"公學路六段６６０巷２９號","OBJECTID":399787},"geometry":{"x":162236.69000000041,"y":2553350.6700000018}},{"attributes":{"ID":399812,"DIS_CODE":0,"TOWNNAME":"南區","LI":"同安里","LIN":"11鄰","STREET":"明興路","SECT":" ","MAREA":" ","LANE":"１２７５巷","ALLEY":" ","HOUSE_NO":"１５號","E_COORD97":166461.84,"N_COORD97":2536059.2599999998,"ADDRESS":"明興路１２７５巷１５號","OBJECTID":399788},"geometry":{"x":166461.84000000078,"y":2536059.2600000016}},{"attributes":{"ID":399813,"DIS_CODE":0,"TOWNNAME":"安南區","LI":"學東里","LIN":"11鄰","STREET":"公學路","SECT":"六段","MAREA":" ","LANE":"６６０巷","ALLEY":" ","HOUSE_NO":"３１號","E_COORD97":162236.23999999999,"N_COORD97":2553355.6000000001,"ADDRESS":"公學路六段６６０巷３１號","OBJECTID":399789},"geometry":{"x":162236.23999999929,"y":2553355.5999999996}},{"attributes":{"ID":399814,"DIS_CODE":0,"TOWNNAME":"安南區","LI":"學東里","LIN":"11鄰","STREET":"公學路","SECT":"六段","MAREA":" ","LANE":"６７２巷","ALLEY":" ","HOUSE_NO":"３２號","E_COORD97":162217.64000000001,"N_COORD97":2553358.5099999998,"ADDRESS":"公學路六段６７２巷３２號","OBJECTID":399790},"geometry":{"x":162217.63999999966,"y":2553358.5100000016}},{"attributes":{"ID":399815,"DIS_CODE":0,"TOWNNAME":"安南區","LI":"新順里","LIN":"11鄰","STREET":"安和路","SECT":"三段","MAREA":" ","LANE":"１１５巷","ALLEY":" ","HOUSE_NO":"２號","E_COORD97":169814.29000000001,"N_COORD97":2549650.1000000001,"ADDRESS":"安和路三段１１５巷２號","OBJECTID":399791},"geometry":{"x":169814.29000000004,"y":2549650.0999999996}},{"attributes":{"ID":399816,"DIS_CODE":0,"TOWNNAME":"安南區","LI":"新順里","LIN":"11鄰","STREET":"安和路","SECT":"三段","MAREA":" ","LANE":"１１５巷","ALLEY":" ","HOUSE_NO":"３０號","E_COORD97":169746.84,"N_COORD97":2549672.9399999999,"ADDRESS":"安和路三段１１５巷３０號","OBJECTID":399792},"geometry":{"x":169746.84000000078,"y":2549672.9400000013}},{"attributes":{"ID":399817,"DIS_CODE":0,"TOWNNAME":"安南區","LI":"新順里","LIN":"11鄰","STREET":"安和路","SECT":"三段","MAREA":" ","LANE":"１１５巷","ALLEY":" ","HOUSE_NO":"３２號","E_COORD97":169741.98000000001,"N_COORD97":2549674.6600000001,"ADDRESS":"安和路三段１１５巷３２號","OBJECTID":399793},"geometry":{"x":169741.98000000138,"y":2549674.6600000001}},{"attributes":{"ID":399818,"DIS_CODE":0,"TOWNNAME":"安南區","LI":"新順里","LIN":"11鄰","STREET":"育安四街","SECT":" ","MAREA":" ","LANE":"８７巷","ALLEY":" ","HOUSE_NO":"１０號","E_COORD97":169710.82000000001,"N_COORD97":2549683.2200000002,"ADDRESS":"育安四街８７巷１０號","OBJECTID":399794},"geometry":{"x":169710.82000000123,"y":2549683.2200000025}},{"attributes":{"ID":399819,"DIS_CODE":0,"TOWNNAME":"安南區","LI":"新順里","LIN":"11鄰","STREET":"育安四街","SECT":" ","MAREA":" ","LANE":"８７巷","ALLEY":" ","HOUSE_NO":"１２號","E_COORD97":169706.25,"N_COORD97":2549685.2200000002,"ADDRESS":"育安四街８７巷１２號","OBJECTID":399795},"geometry":{"x":169706.25,"y":2549685.2199999988}},{"attributes":{"ID":399820,"DIS_CODE":0,"TOWNNAME":"安南區","LI":"新順里","LIN":"11鄰","STREET":"育安四街","SECT":" ","MAREA":" ","LANE":"８７巷","ALLEY":" ","HOUSE_NO":"２號","E_COORD97":169726.54000000001,"N_COORD97":2549678.0800000001,"ADDRESS":"育安四街８７巷２號","OBJECTID":399796},"geometry":{"x":169726.54000000004,"y":2549678.0800000001}},{"attributes":{"ID":399821,"DIS_CODE":0,"TOWNNAME":"安南區","LI":"新順里","LIN":"11鄰","STREET":"育安四街","SECT":" ","MAREA":" ","LANE":"８７巷","ALLEY":" ","HOUSE_NO":"２號之１","E_COORD97":169723.10999999999,"N_COORD97":2549680.3700000001,"ADDRESS":"育安四街８７巷２號之１","OBJECTID":399797},"geometry":{"x":169723.11000000034,"y":2549680.370000001}},{"attributes":{"ID":399822,"DIS_CODE":0,"TOWNNAME":"安南區","LI":"新順里","LIN":"11鄰","STREET":"育安四街","SECT":" ","MAREA":" ","LANE":"８７巷","ALLEY":" ","HOUSE_NO":"６號","E_COORD97":169718.54000000001,"N_COORD97":2549680.3700000001,"ADDRESS":"育安四街８７巷６號","OBJECTID":399798},"geometry":{"x":169718.54000000097,"y":2549680.370000001}},{"attributes":{"ID":399823,"DIS_CODE":0,"TOWNNAME":"安南區","LI":"新順里","LIN":"11鄰","STREET":"育安四街","SECT":" ","MAREA":" ","LANE":"８７巷","ALLEY":" ","HOUSE_NO":"８號","E_COORD97":169715.10999999999,"N_COORD97":2549683.2200000002,"ADDRESS":"育安四街８７巷８號","OBJECTID":399799},"geometry":{"x":169715.11000000127,"y":2549683.2200000025}},{"attributes":{"ID":399824,"DIS_CODE":0,"TOWNNAME":"新化區","LI":"豐榮里","LIN":"11鄰","STREET":"信義路","SECT":" ","MAREA":" ","LANE":"４４３巷","ALLEY":" ","HOUSE_NO":"１５號","E_COORD97":178515.67999999999,"N_COORD97":2548214.25,"ADDRESS":"信義路４４３巷１５號","OBJECTID":399800},"geometry":{"x":178515.68000000063,"y":2548214.2500000019}}]}