{"displayFieldName":"TOWNNAME","fieldAliases":{"ID":"ID","DIS_CODE":"DIS_CODE","TOWNNAME":"TOWNNAME","LI":"LI","LIN":"LIN","STREET":"STREET","SECT":"SECT","MAREA":"MAREA","LANE":"LANE","ALLEY":"ALLEY","HOUSE_NO":"HOUSE_NO","E_COORD97":"E_COORD97","N_COORD97":"N_COORD97","ADDRESS":"ADDRESS","OBJECTID":"OBJECTID"},"geometryType":"esriGeometryPoint","spatialReference":{"wkid":102443,"latestWkid":3826},"fields":[{"name":"ID","type":"esriFieldTypeDouble","alias":"ID"},{"name":"DIS_CODE","type":"esriFieldTypeInteger","alias":"DIS_CODE"},{"name":"TOWNNAME","type":"esriFieldTypeString","alias":"TOWNNAME","length":8},{"name":"LI","type":"esriFieldTypeString","alias":"LI","length":8},{"name":"LIN","type":"esriFieldTypeString","alias":"LIN","length":12},{"name":"STREET","type":"esriFieldTypeString","alias":"STREET","length":20},{"name":"SECT","type":"esriFieldTypeString","alias":"SECT","length":8},{"name":"MAREA","type":"esriFieldTypeString","alias":"MAREA","length":12},{"name":"LANE","type":"esriFieldTypeString","alias":"LANE","length":10},{"name":"ALLEY","type":"esriFieldTypeString","alias":"ALLEY","length":10},{"name":"HOUSE_NO","type":"esriFieldTypeString","alias":"HOUSE_NO","length":20},{"name":"E_COORD97","type":"esriFieldTypeDouble","alias":"E_COORD97"},{"name":"N_COORD97","type":"esriFieldTypeDouble","alias":"N_COORD97"},{"name":"ADDRESS","type":"esriFieldTypeString","alias":"ADDRESS","length":50},{"name":"OBJECTID","type":"esriFieldTypeOID","alias":"OBJECTID"}],"features":[{"attributes":{"ID":3601,"DIS_CODE":0,"TOWNNAME":"安南區","LI":"鳳凰里","LIN":"1鄰","STREET":"北安路","SECT":"三段","MAREA":" ","LANE":" ","ALLEY":" ","HOUSE_NO":"６３號","E_COORD97":168283.172188,"N_COORD97":2548995.0450400002,"ADDRESS":"北安路三段６３號","OBJECTID":3601},"geometry":{"x":168283.17218800075,"y":2548995.045040004}},{"attributes":{"ID":3602,"DIS_CODE":0,"TOWNNAME":"安南區","LI":"鳳凰里","LIN":"1鄰","STREET":"北安路","SECT":"三段","MAREA":" ","LANE":" ","ALLEY":" ","HOUSE_NO":"６３號之１","E_COORD97":168279.57272600001,"N_COORD97":2548997.3733700002,"ADDRESS":"北安路三段６３號之１","OBJECTID":3602},"geometry":{"x":168279.57272600103,"y":2548997.3733720016}},{"attributes":{"ID":3603,"DIS_CODE":0,"TOWNNAME":"下營區","LI":"西連里","LIN":"10鄰","STREET":" ","SECT":" ","MAREA":"西寮","LANE":" ","ALLEY":" ","HOUSE_NO":"６０之３號","E_COORD97":174660.775884,"N_COORD97":2567263.8453799998,"ADDRESS":"西寮６０之３號","OBJECTID":3603},"geometry":{"x":174660.77588400058,"y":2567263.845381001}},{"attributes":{"ID":3604,"DIS_CODE":0,"TOWNNAME":"安南區","LI":"東和里","LIN":"7鄰","STREET":"環館北路","SECT":" ","MAREA":" ","LANE":"８４９巷","ALLEY":"１弄","HOUSE_NO":"４３號","E_COORD97":171177.98478999999,"N_COORD97":2551570.1120099998,"ADDRESS":"環館北路８４９巷１弄４３號","OBJECTID":3604},"geometry":{"x":171177.98479000106,"y":2551570.1120100021}},{"attributes":{"ID":3605,"DIS_CODE":0,"TOWNNAME":"新營區","LI":"新東里","LIN":"10鄰","STREET":"東仁街","SECT":" ","MAREA":" ","LANE":"１０巷","ALLEY":" ","HOUSE_NO":"５號","E_COORD97":181287.41049400001,"N_COORD97":2579530.7141100001,"ADDRESS":"東仁街１０巷５號","OBJECTID":3605},"geometry":{"x":181287.41049400065,"y":2579530.7141140029}},{"attributes":{"ID":3606,"DIS_CODE":0,"TOWNNAME":"仁德區","LI":"太子里","LIN":"33鄰","STREET":"太子三街","SECT":" ","MAREA":" ","LANE":" ","ALLEY":" ","HOUSE_NO":"８號","E_COORD97":174024.44016599999,"N_COORD97":2543464.6460099998,"ADDRESS":"太子三街８號","OBJECTID":3606},"geometry":{"x":174024.44016600214,"y":2543464.646006003}},{"attributes":{"ID":3607,"DIS_CODE":0,"TOWNNAME":"歸仁區","LI":"六甲里","LIN":"12鄰","STREET":"中正二十街","SECT":" ","MAREA":" ","LANE":" ","ALLEY":" ","HOUSE_NO":"１６號","E_COORD97":175924.31593400001,"N_COORD97":2539122.8655099999,"ADDRESS":"中正二十街１６號","OBJECTID":3607},"geometry":{"x":175924.31593400054,"y":2539122.8655060027}},{"attributes":{"ID":3608,"DIS_CODE":0,"TOWNNAME":"仁德區","LI":"太子里","LIN":"32鄰","STREET":"太子路","SECT":" ","MAREA":" ","LANE":"４９５巷","ALLEY":" ","HOUSE_NO":"７號","E_COORD97":174019.14585999999,"N_COORD97":2543474.2768299999,"ADDRESS":"太子路４９５巷７號","OBJECTID":3608},"geometry":{"x":174019.14585999958,"y":2543474.2768300008}},{"attributes":{"ID":3609,"DIS_CODE":0,"TOWNNAME":"仁德區","LI":"太子里","LIN":"32鄰","STREET":"太子路","SECT":" ","MAREA":" ","LANE":"４９５巷","ALLEY":" ","HOUSE_NO":"９號","E_COORD97":174016.39283,"N_COORD97":2543469.5143400002,"ADDRESS":"太子路４９５巷９號","OBJECTID":3609},"geometry":{"x":174016.39283000026,"y":2543469.5143360011}},{"attributes":{"ID":3610,"DIS_CODE":0,"TOWNNAME":"仁德區","LI":"大甲里","LIN":"22鄰","STREET":"行大街","SECT":" ","MAREA":" ","LANE":" ","ALLEY":" ","HOUSE_NO":"４０６號","E_COORD97":169474.27314,"N_COORD97":2535271.9825300002,"ADDRESS":"行大街４０６號","OBJECTID":3610},"geometry":{"x":169474.27314000111,"y":2535271.9825340007}},{"attributes":{"ID":3611,"DIS_CODE":0,"TOWNNAME":"仁德區","LI":"大甲里","LIN":"23鄰","STREET":"二仁路","SECT":"一段","MAREA":" ","LANE":"３１５巷","ALLEY":" ","HOUSE_NO":"５２１號","E_COORD97":169232.32947699999,"N_COORD97":2535868.5647100001,"ADDRESS":"二仁路一段３１５巷５２１號","OBJECTID":3611},"geometry":{"x":169232.32947700191,"y":2535868.5647110008}},{"attributes":{"ID":3612,"DIS_CODE":0,"TOWNNAME":"歸仁區","LI":"六甲里","LIN":"12鄰","STREET":"中正二十街","SECT":" ","MAREA":" ","LANE":" ","ALLEY":" ","HOUSE_NO":"１號","E_COORD97":175955.12024399999,"N_COORD97":2539107.5595200001,"ADDRESS":"中正二十街１號","OBJECTID":3612},"geometry":{"x":175955.12024400104,"y":2539107.5595190041}},{"attributes":{"ID":3613,"DIS_CODE":0,"TOWNNAME":"歸仁區","LI":"西埔里","LIN":"15鄰","STREET":"西埔一街","SECT":" ","MAREA":" ","LANE":" ","ALLEY":" ","HOUSE_NO":"６０５號","E_COORD97":177114.68044600001,"N_COORD97":2545360.65747,"ADDRESS":"西埔一街６０５號","OBJECTID":3613},"geometry":{"x":177114.68044600077,"y":2545360.6574680004}},{"attributes":{"ID":3614,"DIS_CODE":0,"TOWNNAME":"歸仁區","LI":"六甲里","LIN":"12鄰","STREET":"中正二十街","SECT":" ","MAREA":" ","LANE":" ","ALLEY":" ","HOUSE_NO":"３號","E_COORD97":175948.55132500001,"N_COORD97":2539108.8295200001,"ADDRESS":"中正二十街３號","OBJECTID":3614},"geometry":{"x":175948.55132499989,"y":2539108.8295190018}},{"attributes":{"ID":3615,"DIS_CODE":0,"TOWNNAME":"歸仁區","LI":"六甲里","LIN":"12鄰","STREET":"中正二十街","SECT":" ","MAREA":" ","LANE":" ","ALLEY":" ","HOUSE_NO":"５號","E_COORD97":175942.61810699999,"N_COORD97":2539108.8295200001,"ADDRESS":"中正二十街５號","OBJECTID":3615},"geometry":{"x":175942.6181070013,"y":2539108.8295190018}},{"attributes":{"ID":3616,"DIS_CODE":0,"TOWNNAME":"歸仁區","LI":"六甲里","LIN":"12鄰","STREET":"中正二十街","SECT":" ","MAREA":" ","LANE":" ","ALLEY":" ","HOUSE_NO":"７號","E_COORD97":175936.68489,"N_COORD97":2539110.3111899998,"ADDRESS":"中正二十街７號","OBJECTID":3616},"geometry":{"x":175936.68489000108,"y":2539110.3111850042}},{"attributes":{"ID":3617,"DIS_CODE":0,"TOWNNAME":"仁德區","LI":"大甲里","LIN":"23鄰","STREET":"二仁路","SECT":"一段","MAREA":" ","LANE":"４９１巷","ALLEY":" ","HOUSE_NO":"２８７之５號","E_COORD97":169210.07447600001,"N_COORD97":2536146.2712300001,"ADDRESS":"二仁路一段４９１巷２８７之５號","OBJECTID":3617},"geometry":{"x":169210.07447600085,"y":2536146.2712280005}},{"attributes":{"ID":3618,"DIS_CODE":0,"TOWNNAME":"仁德區","LI":"大甲里","LIN":"23鄰","STREET":"二仁路","SECT":"一段","MAREA":" ","LANE":"４９１巷","ALLEY":" ","HOUSE_NO":"３１７號","E_COORD97":169121.690325,"N_COORD97":2536227.1278499998,"ADDRESS":"二仁路一段４９１巷３１７號","OBJECTID":3618},"geometry":{"x":169121.69032500125,"y":2536227.1278510019}},{"attributes":{"ID":3619,"DIS_CODE":0,"TOWNNAME":"歸仁區","LI":"七甲里","LIN":"7鄰","STREET":"七甲一街","SECT":" ","MAREA":" ","LANE":" ","ALLEY":" ","HOUSE_NO":"８５號","E_COORD97":177617.60589499999,"N_COORD97":2542624.77159,"ADDRESS":"七甲一街８５號","OBJECTID":3619},"geometry":{"x":177617.60589500051,"y":2542624.7715850025}},{"attributes":{"ID":3620,"DIS_CODE":0,"TOWNNAME":"安南區","LI":"鳳凰里","LIN":"2鄰","STREET":"北安路","SECT":"三段","MAREA":" ","LANE":" ","ALLEY":" ","HOUSE_NO":"１７９號","E_COORD97":168306.65467399999,"N_COORD97":2549101.0701100002,"ADDRESS":"北安路三段１７９號","OBJECTID":3620},"geometry":{"x":168306.65467400104,"y":2549101.0701070037}},{"attributes":{"ID":3621,"DIS_CODE":0,"TOWNNAME":"新營區","LI":"新東里","LIN":"10鄰","STREET":"東仁街","SECT":" ","MAREA":" ","LANE":"８２巷","ALLEY":" ","HOUSE_NO":"４３號","E_COORD97":181430.642876,"N_COORD97":2579700.3681800002,"ADDRESS":"東仁街８２巷４３號","OBJECTID":3621},"geometry":{"x":181430.64287600014,"y":2579700.3681800012}},{"attributes":{"ID":3622,"DIS_CODE":0,"TOWNNAME":"仁德區","LI":"太子里","LIN":"33鄰","STREET":"太子三街","SECT":" ","MAREA":" ","LANE":" ","ALLEY":" ","HOUSE_NO":"４號","E_COORD97":174043.92319,"N_COORD97":2543477.8222500002,"ADDRESS":"太子三街４號","OBJECTID":3622},"geometry":{"x":174043.92319000047,"y":2543477.8222490009}},{"attributes":{"ID":3623,"DIS_CODE":0,"TOWNNAME":"安南區","LI":"鳳凰里","LIN":"1鄰","STREET":"北安路","SECT":"三段","MAREA":" ","LANE":" ","ALLEY":" ","HOUSE_NO":"１６５號","E_COORD97":168306.23120800001,"N_COORD97":2549097.4717799998,"ADDRESS":"北安路三段１６５號","OBJECTID":3623},"geometry":{"x":168306.23120800126,"y":2549097.4717750009}},{"attributes":{"ID":3624,"DIS_CODE":0,"TOWNNAME":"新營區","LI":"新東里","LIN":"10鄰","STREET":"東仁街","SECT":" ","MAREA":" ","LANE":"８２巷","ALLEY":" ","HOUSE_NO":"５６號","E_COORD97":181433.82110900001,"N_COORD97":2579679.7306900001,"ADDRESS":"東仁街８２巷５６號","OBJECTID":3624},"geometry":{"x":181433.82110899966,"y":2579679.7306910027}},{"attributes":{"ID":3625,"DIS_CODE":0,"TOWNNAME":"關廟區","LI":"埤頭里","LIN":"12鄰","STREET":"保東二街","SECT":" ","MAREA":" ","LANE":"１３１巷","ALLEY":" ","HOUSE_NO":"２２號","E_COORD97":178681.68964699999,"N_COORD97":2544414.3968000002,"ADDRESS":"保東二街１３１巷２２號","OBJECTID":3625},"geometry":{"x":178681.68964700121,"y":2544414.3968040012}},{"attributes":{"ID":3626,"DIS_CODE":0,"TOWNNAME":"關廟區","LI":"埤頭里","LIN":"12鄰","STREET":"保東二街","SECT":" ","MAREA":" ","LANE":"１３１巷","ALLEY":" ","HOUSE_NO":"３２號","E_COORD97":178627.663455,"N_COORD97":2544423.6042999998,"ADDRESS":"保東二街１３１巷３２號","OBJECTID":3626},"geometry":{"x":178627.66345500015,"y":2544423.6042990014}},{"attributes":{"ID":3627,"DIS_CODE":0,"TOWNNAME":"六甲區","LI":"甲東里","LIN":"21鄰","STREET":"裕農街","SECT":" ","MAREA":" ","LANE":" ","ALLEY":" ","HOUSE_NO":"１００號","E_COORD97":184365.64062600001,"N_COORD97":2569729.49498,"ADDRESS":"裕農街１００號","OBJECTID":3627},"geometry":{"x":184365.64062600024,"y":2569729.494977003}},{"attributes":{"ID":3628,"DIS_CODE":0,"TOWNNAME":"歸仁區","LI":"六甲里","LIN":"38鄰","STREET":"六甲八街","SECT":" ","MAREA":" ","LANE":" ","ALLEY":" ","HOUSE_NO":"１３９號","E_COORD97":175245.97232599999,"N_COORD97":2539634.6094,"ADDRESS":"六甲八街１３９號","OBJECTID":3628},"geometry":{"x":175245.97232600022,"y":2539634.6094020028}},{"attributes":{"ID":3629,"DIS_CODE":0,"TOWNNAME":"新營區","LI":"新東里","LIN":"10鄰","STREET":"東仁街","SECT":" ","MAREA":" ","LANE":"８２巷","ALLEY":" ","HOUSE_NO":"３４號","E_COORD97":181399.07242499999,"N_COORD97":2579694.12402,"ADDRESS":"東仁街８２巷３４號","OBJECTID":3629},"geometry":{"x":181399.0724250013,"y":2579694.1240170021}},{"attributes":{"ID":3630,"DIS_CODE":0,"TOWNNAME":"六甲區","LI":"甲東里","LIN":"21鄰","STREET":"裕農街","SECT":" ","MAREA":" ","LANE":" ","ALLEY":" ","HOUSE_NO":"１０１號","E_COORD97":184346.99801700001,"N_COORD97":2569751.71997,"ADDRESS":"裕農街１０１號","OBJECTID":3630},"geometry":{"x":184346.99801700003,"y":2569751.7199649978}},{"attributes":{"ID":3631,"DIS_CODE":0,"TOWNNAME":"新營區","LI":"新東里","LIN":"10鄰","STREET":"東仁街","SECT":" ","MAREA":" ","LANE":"８２巷","ALLEY":" ","HOUSE_NO":"１６號","E_COORD97":181362.94650600001,"N_COORD97":2579706.7181799999,"ADDRESS":"東仁街８２巷１６號","OBJECTID":3631},"geometry":{"x":181362.94650600199,"y":2579706.7181770001}},{"attributes":{"ID":3632,"DIS_CODE":0,"TOWNNAME":"新營區","LI":"新東里","LIN":"10鄰","STREET":"東仁街","SECT":" ","MAREA":" ","LANE":"８２巷","ALLEY":" ","HOUSE_NO":"２２號","E_COORD97":181374.38814600001,"N_COORD97":2579702.27318,"ADDRESS":"東仁街８２巷２２號","OBJECTID":3632},"geometry":{"x":181374.38814600091,"y":2579702.2731790002}},{"attributes":{"ID":3633,"DIS_CODE":0,"TOWNNAME":"關廟區","LI":"埤頭里","LIN":"12鄰","STREET":"保東二街","SECT":" ","MAREA":" ","LANE":"１３１巷","ALLEY":" ","HOUSE_NO":"７８號","E_COORD97":178591.96379400001,"N_COORD97":2544484.2996800002,"ADDRESS":"保東二街１３１巷７８號","OBJECTID":3633},"geometry":{"x":178591.96379400138,"y":2544484.2996830009}},{"attributes":{"ID":3634,"DIS_CODE":0,"TOWNNAME":"新營區","LI":"新東里","LIN":"10鄰","STREET":"東仁街","SECT":" ","MAREA":" ","LANE":"８２巷","ALLEY":" ","HOUSE_NO":"２８號","E_COORD97":181386.465433,"N_COORD97":2579697.6165100001,"ADDRESS":"東仁街８２巷２８號","OBJECTID":3634},"geometry":{"x":181386.46543300059,"y":2579697.6165149994}},{"attributes":{"ID":3635,"DIS_CODE":0,"TOWNNAME":"新營區","LI":"新東里","LIN":"10鄰","STREET":"東昌街","SECT":" ","MAREA":" ","LANE":" ","ALLEY":" ","HOUSE_NO":"３號","E_COORD97":181296.30954799999,"N_COORD97":2579599.1915699998,"ADDRESS":"東昌街３號","OBJECTID":3635},"geometry":{"x":181296.30954800174,"y":2579599.191568004}},{"attributes":{"ID":3636,"DIS_CODE":0,"TOWNNAME":"歸仁區","LI":"六甲里","LIN":"17鄰","STREET":"六甲路","SECT":" ","MAREA":" ","LANE":"３２１巷","ALLEY":" ","HOUSE_NO":"２５號","E_COORD97":175736.46587000001,"N_COORD97":2539156.1473699999,"ADDRESS":"六甲路３２１巷２５號","OBJECTID":3636},"geometry":{"x":175736.46587000135,"y":2539156.147365002}},{"attributes":{"ID":3637,"DIS_CODE":0,"TOWNNAME":"關廟區","LI":"埤頭里","LIN":"12鄰","STREET":"保東路","SECT":" ","MAREA":" ","LANE":"３５６巷","ALLEY":" ","HOUSE_NO":"１３８號","E_COORD97":178305.307176,"N_COORD97":2544419.6355499998,"ADDRESS":"保東路３５６巷１３８號","OBJECTID":3637},"geometry":{"x":178305.30717600044,"y":2544419.6355510037}},{"attributes":{"ID":3638,"DIS_CODE":0,"TOWNNAME":"新營區","LI":"新東里","LIN":"10鄰","STREET":"東林街","SECT":" ","MAREA":" ","LANE":" ","ALLEY":" ","HOUSE_NO":"１８號","E_COORD97":181355.84845200001,"N_COORD97":2579757.4652300002,"ADDRESS":"東林街１８號","OBJECTID":3638},"geometry":{"x":181355.84845200088,"y":2579757.4652330019}},{"attributes":{"ID":3639,"DIS_CODE":0,"TOWNNAME":"歸仁區","LI":"六甲里","LIN":"17鄰","STREET":"六甲路","SECT":" ","MAREA":" ","LANE":"３２１巷","ALLEY":" ","HOUSE_NO":"２８號","E_COORD97":175718.009811,"N_COORD97":2539149.2928300002,"ADDRESS":"六甲路３２１巷２８號","OBJECTID":3639},"geometry":{"x":175718.00981099997,"y":2539149.2928290013}},{"attributes":{"ID":3640,"DIS_CODE":0,"TOWNNAME":"關廟區","LI":"埤頭里","LIN":"12鄰","STREET":"保東路","SECT":" ","MAREA":" ","LANE":"３５６巷","ALLEY":" ","HOUSE_NO":"１５１號","E_COORD97":178286.027241,"N_COORD97":2544475.0921900002,"ADDRESS":"保東路３５６巷１５１號","OBJECTID":3640},"geometry":{"x":178286.02724100091,"y":2544475.0921880044}},{"attributes":{"ID":3641,"DIS_CODE":0,"TOWNNAME":"新營區","LI":"新東里","LIN":"10鄰","STREET":"東林街","SECT":" ","MAREA":" ","LANE":" ","ALLEY":" ","HOUSE_NO":"４１號","E_COORD97":181426.29929,"N_COORD97":2579757.3594,"ADDRESS":"東林街４１號","OBJECTID":3641},"geometry":{"x":181426.29929000046,"y":2579757.359399002}},{"attributes":{"ID":3642,"DIS_CODE":0,"TOWNNAME":"新營區","LI":"新東里","LIN":"10鄰","STREET":"東林街","SECT":" ","MAREA":" ","LANE":" ","ALLEY":" ","HOUSE_NO":"４３號","E_COORD97":181432.443875,"N_COORD97":2579755.2427300001,"ADDRESS":"東林街４３號","OBJECTID":3642},"geometry":{"x":181432.44387500081,"y":2579755.2427340001}},{"attributes":{"ID":3643,"DIS_CODE":0,"TOWNNAME":"新營區","LI":"新東里","LIN":"10鄰","STREET":"東林街","SECT":" ","MAREA":" ","LANE":" ","ALLEY":" ","HOUSE_NO":"４５號","E_COORD97":181439.43598800001,"N_COORD97":2579752.9144000001,"ADDRESS":"東林街４５號","OBJECTID":3643},"geometry":{"x":181439.43598799966,"y":2579752.9144020025}},{"attributes":{"ID":3644,"DIS_CODE":0,"TOWNNAME":"歸仁區","LI":"六甲里","LIN":"12鄰","STREET":"中正南路","SECT":"一段","MAREA":" ","LANE":" ","ALLEY":" ","HOUSE_NO":"１０９２號","E_COORD97":175954.69644299999,"N_COORD97":2539017.0986500001,"ADDRESS":"中正南路一段１０９２號","OBJECTID":3644},"geometry":{"x":175954.69644300174,"y":2539017.0986470003}},{"attributes":{"ID":3645,"DIS_CODE":0,"TOWNNAME":"新營區","LI":"新東里","LIN":"10鄰","STREET":"東勇街","SECT":" ","MAREA":" ","LANE":" ","ALLEY":" ","HOUSE_NO":"７３號","E_COORD97":181409.13683,"N_COORD97":2579624.1682199999,"ADDRESS":"東勇街７３號","OBJECTID":3645},"geometry":{"x":181409.13683000114,"y":2579624.1682210006}},{"attributes":{"ID":3646,"DIS_CODE":0,"TOWNNAME":"關廟區","LI":"埤頭里","LIN":"12鄰","STREET":"保東路","SECT":" ","MAREA":" ","LANE":"３５６巷","ALLEY":" ","HOUSE_NO":"２７１號","E_COORD97":178201.068405,"N_COORD97":2544775.4470299999,"ADDRESS":"保東路３５６巷２７１號","OBJECTID":3646},"geometry":{"x":178201.06840500049,"y":2544775.4470250029}},{"attributes":{"ID":3647,"DIS_CODE":0,"TOWNNAME":"新營區","LI":"新東里","LIN":"10鄰","STREET":"東勇街","SECT":" ","MAREA":" ","LANE":" ","ALLEY":" ","HOUSE_NO":"７５號","E_COORD97":181412.10318100001,"N_COORD97":2579630.51822,"ADDRESS":"東勇街７５號","OBJECTID":3647},"geometry":{"x":181412.1031810008,"y":2579630.5182179995}},{"attributes":{"ID":3648,"DIS_CODE":0,"TOWNNAME":"新營區","LI":"新東里","LIN":"10鄰","STREET":"東仁街","SECT":" ","MAREA":" ","LANE":"４２巷","ALLEY":" ","HOUSE_NO":"３７號","E_COORD97":181391.550606,"N_COORD97":2579625.4382199999,"ADDRESS":"東仁街４２巷３７號","OBJECTID":3648},"geometry":{"x":181391.55060600024,"y":2579625.4382210001}},{"attributes":{"ID":3649,"DIS_CODE":0,"TOWNNAME":"歸仁區","LI":"六甲里","LIN":"30鄰","STREET":"民生十二街","SECT":" ","MAREA":" ","LANE":"１１５巷","ALLEY":" ","HOUSE_NO":"５６號","E_COORD97":175754.87414999999,"N_COORD97":2539325.17931,"ADDRESS":"民生十二街１１５巷５６號","OBJECTID":3649},"geometry":{"x":175754.87415000051,"y":2539325.1793140024}},{"attributes":{"ID":3650,"DIS_CODE":0,"TOWNNAME":"新營區","LI":"新東里","LIN":"10鄰","STREET":"東仁街","SECT":" ","MAREA":" ","LANE":"４２巷","ALLEY":" ","HOUSE_NO":"３９號","E_COORD97":181397.69519,"N_COORD97":2579622.2632200001,"ADDRESS":"東仁街４２巷３９號","OBJECTID":3650},"geometry":{"x":181397.69519000128,"y":2579622.2632220015}},{"attributes":{"ID":3651,"DIS_CODE":0,"TOWNNAME":"安南區","LI":"鳳凰里","LIN":"21鄰","STREET":"安中路","SECT":"一段","MAREA":" ","LANE":" ","ALLEY":" ","HOUSE_NO":"９１６號","E_COORD97":167319.85939299999,"N_COORD97":2549448.8978800001,"ADDRESS":"安中路一段９１６號","OBJECTID":3651},"geometry":{"x":167319.8593930006,"y":2549448.897880001}},{"attributes":{"ID":3652,"DIS_CODE":0,"TOWNNAME":"歸仁區","LI":"六甲里","LIN":"17鄰","STREET":"六甲路","SECT":" ","MAREA":" ","LANE":"３２１巷","ALLEY":" ","HOUSE_NO":"２６號","E_COORD97":175716.73203700001,"N_COORD97":2539154.04691,"ADDRESS":"六甲路３２１巷２６號","OBJECTID":3652},"geometry":{"x":175716.73203700129,"y":2539154.0469070021}},{"attributes":{"ID":3653,"DIS_CODE":0,"TOWNNAME":"新營區","LI":"新東里","LIN":"10鄰","STREET":"東仁街","SECT":" ","MAREA":" ","LANE":"４２巷","ALLEY":" ","HOUSE_NO":"１３號","E_COORD97":181323.53641299999,"N_COORD97":2579649.14488,"ADDRESS":"東仁街４２巷１３號","OBJECTID":3653},"geometry":{"x":181323.5364130009,"y":2579649.1448750012}},{"attributes":{"ID":3654,"DIS_CODE":0,"TOWNNAME":"新營區","LI":"新東里","LIN":"10鄰","STREET":"東仁街","SECT":" ","MAREA":" ","LANE":"４２巷","ALLEY":" ","HOUSE_NO":"１５號","E_COORD97":181329.68099699999,"N_COORD97":2579646.60488,"ADDRESS":"東仁街４２巷１５號","OBJECTID":3654},"geometry":{"x":181329.68099700194,"y":2579646.6048760023}},{"attributes":{"ID":3655,"DIS_CODE":0,"TOWNNAME":"安南區","LI":"鳳凰里","LIN":"1鄰","STREET":"怡安路","SECT":"二段","MAREA":" ","LANE":" ","ALLEY":" ","HOUSE_NO":"１０５號","E_COORD97":168058.57636100001,"N_COORD97":2549313.8809500001,"ADDRESS":"怡安路二段１０５號","OBJECTID":3655},"geometry":{"x":168058.57636100054,"y":2549313.8809489999}},{"attributes":{"ID":3656,"DIS_CODE":0,"TOWNNAME":"安南區","LI":"東和里","LIN":"7鄰","STREET":"環館北路","SECT":" ","MAREA":" ","LANE":"８４９巷","ALLEY":"８弄","HOUSE_NO":"１８號","E_COORD97":171062.81640099999,"N_COORD97":2551410.21802,"ADDRESS":"環館北路８４９巷８弄１８號","OBJECTID":3656},"geometry":{"x":171062.81640100013,"y":2551410.2180179991}},{"attributes":{"ID":3657,"DIS_CODE":0,"TOWNNAME":"安南區","LI":"鳳凰里","LIN":"1鄰","STREET":"北安路","SECT":"三段","MAREA":" ","LANE":" ","ALLEY":" ","HOUSE_NO":"９號","E_COORD97":168261.15195100001,"N_COORD97":2548888.5767600001,"ADDRESS":"北安路三段９號","OBJECTID":3657},"geometry":{"x":168261.15195100103,"y":2548888.5767640006}},{"attributes":{"ID":3658,"DIS_CODE":0,"TOWNNAME":"安南區","LI":"東和里","LIN":"7鄰","STREET":"環館北路","SECT":" ","MAREA":" ","LANE":"８４９巷","ALLEY":"８弄","HOUSE_NO":"１２號","E_COORD97":171075.526636,"N_COORD97":2551421.4363500001,"ADDRESS":"環館北路８４９巷８弄１２號","OBJECTID":3658},"geometry":{"x":171075.52663599979,"y":2551421.4363460001}},{"attributes":{"ID":3659,"DIS_CODE":0,"TOWNNAME":"仁德區","LI":"大甲里","LIN":"23鄰","STREET":"中正西路","SECT":" ","MAREA":" ","LANE":" ","ALLEY":" ","HOUSE_NO":"１０１３號","E_COORD97":168114.492528,"N_COORD97":2535748.3381099999,"ADDRESS":"中正西路１０１３號","OBJECTID":3659},"geometry":{"x":168114.49252800085,"y":2535748.3381100018}},{"attributes":{"ID":3660,"DIS_CODE":0,"TOWNNAME":"關廟區","LI":"埤頭里","LIN":"12鄰","STREET":"保東二街","SECT":" ","MAREA":" ","LANE":"１３１巷","ALLEY":" ","HOUSE_NO":"１６號","E_COORD97":178709.65614599999,"N_COORD97":2544384.12849,"ADDRESS":"保東二街１３１巷１６號","OBJECTID":3660},"geometry":{"x":178709.656146002,"y":2544384.1284870021}},{"attributes":{"ID":3661,"DIS_CODE":0,"TOWNNAME":"歸仁區","LI":"六甲里","LIN":"17鄰","STREET":"六甲路","SECT":" ","MAREA":" ","LANE":"３２１巷","ALLEY":" ","HOUSE_NO":"２４號","E_COORD97":175719.062944,"N_COORD97":2539160.7143999999,"ADDRESS":"六甲路３２１巷２４號","OBJECTID":3661},"geometry":{"x":175719.06294400059,"y":2539160.7144029997}},{"attributes":{"ID":3662,"DIS_CODE":0,"TOWNNAME":"新營區","LI":"新東里","LIN":"10鄰","STREET":"東仁街","SECT":" ","MAREA":" ","LANE":"４２巷","ALLEY":" ","HOUSE_NO":"１９號","E_COORD97":181342.71175399999,"N_COORD97":2579641.4719600002,"ADDRESS":"東仁街４２巷１９號","OBJECTID":3662},"geometry":{"x":181342.71175400075,"y":2579641.4719620012}},{"attributes":{"ID":3663,"DIS_CODE":0,"TOWNNAME":"安南區","LI":"鳳凰里","LIN":"1鄰","STREET":"怡安路","SECT":"二段","MAREA":" ","LANE":" ","ALLEY":" ","HOUSE_NO":"７７號之２７","E_COORD97":168226.40784999999,"N_COORD97":2549276.0125099998,"ADDRESS":"怡安路二段７７號之２７","OBJECTID":3663},"geometry":{"x":168226.40785000008,"y":2549276.0125120021}},{"attributes":{"ID":3664,"DIS_CODE":0,"TOWNNAME":"新營區","LI":"新東里","LIN":"10鄰","STREET":"東仁街","SECT":" ","MAREA":" ","LANE":"４２巷","ALLEY":" ","HOUSE_NO":"２１號","E_COORD97":181348.96228000001,"N_COORD97":2579638.6144599998,"ADDRESS":"東仁街４２巷２１號","OBJECTID":3664},"geometry":{"x":181348.96228000056,"y":2579638.614463998}},{"attributes":{"ID":3665,"DIS_CODE":0,"TOWNNAME":"官田區","LI":"社子里","LIN":"7鄰","STREET":" ","SECT":" ","MAREA":"社子","LANE":" ","ALLEY":" ","HOUSE_NO":"１４號","E_COORD97":184437.42000000001,"N_COORD97":2564594.5699999998,"ADDRESS":"社子１４號","OBJECTID":3665},"geometry":{"x":184437.42000000086,"y":2564594.5700000022}},{"attributes":{"ID":3666,"DIS_CODE":0,"TOWNNAME":"新營區","LI":"新東里","LIN":"10鄰","STREET":"東仁街","SECT":" ","MAREA":" ","LANE":"４２巷","ALLEY":" ","HOUSE_NO":"２３號","E_COORD97":181355.74251099999,"N_COORD97":2579636.1803000001,"ADDRESS":"東仁街４２巷２３號","OBJECTID":3666},"geometry":{"x":181355.74251099955,"y":2579636.1802980006}},{"attributes":{"ID":3667,"DIS_CODE":0,"TOWNNAME":"安南區","LI":"鳳凰里","LIN":"1鄰","STREET":"怡安路","SECT":"二段","MAREA":" ","LANE":" ","ALLEY":" ","HOUSE_NO":"９７號","E_COORD97":168063.552088,"N_COORD97":2549313.0872,"ADDRESS":"怡安路二段９７號","OBJECTID":3667},"geometry":{"x":168063.55208800081,"y":2549313.0872000009}},{"attributes":{"ID":3668,"DIS_CODE":0,"TOWNNAME":"官田區","LI":"社子里","LIN":"2鄰","STREET":" ","SECT":" ","MAREA":"社子","LANE":" ","ALLEY":" ","HOUSE_NO":"１０號之１","E_COORD97":184411.04147299999,"N_COORD97":2564570.7226399998,"ADDRESS":"社子１０號之１","OBJECTID":3668},"geometry":{"x":184411.04147300031,"y":2564570.7226400021}},{"attributes":{"ID":3669,"DIS_CODE":0,"TOWNNAME":"安南區","LI":"鳳凰里","LIN":"1鄰","STREET":"怡安路","SECT":"二段","MAREA":" ","LANE":" ","ALLEY":" ","HOUSE_NO":"９９號","E_COORD97":168062.228756,"N_COORD97":2549313.3517800001,"ADDRESS":"怡安路二段９９號","OBJECTID":3669},"geometry":{"x":168062.22875600122,"y":2549313.3517829999}},{"attributes":{"ID":3670,"DIS_CODE":0,"TOWNNAME":"歸仁區","LI":"六甲里","LIN":"17鄰","STREET":"六甲路","SECT":" ","MAREA":" ","LANE":"３２１巷","ALLEY":" ","HOUSE_NO":"２２號","E_COORD97":175718.00344100001,"N_COORD97":2539164.4185700002,"ADDRESS":"六甲路３２１巷２２號","OBJECTID":3670},"geometry":{"x":175718.00344100129,"y":2539164.4185680021}},{"attributes":{"ID":3671,"DIS_CODE":0,"TOWNNAME":"新營區","LI":"新東里","LIN":"10鄰","STREET":"東仁街","SECT":" ","MAREA":" ","LANE":"２巷","ALLEY":" ","HOUSE_NO":"１號","E_COORD97":181274.06191399999,"N_COORD97":2579443.7754000002,"ADDRESS":"東仁街２巷１號","OBJECTID":3671},"geometry":{"x":181274.06191400066,"y":2579443.775402002}},{"attributes":{"ID":3672,"DIS_CODE":0,"TOWNNAME":"新營區","LI":"新東里","LIN":"10鄰","STREET":"東仁街","SECT":" ","MAREA":" ","LANE":"２巷","ALLEY":" ","HOUSE_NO":"３號","E_COORD97":181280.20649899999,"N_COORD97":2579443.5637400001,"ADDRESS":"東仁街２巷３號","OBJECTID":3672},"geometry":{"x":181280.20649900101,"y":2579443.5637359992}},{"attributes":{"ID":3673,"DIS_CODE":0,"TOWNNAME":"歸仁區","LI":"六甲里","LIN":"17鄰","STREET":"六甲路","SECT":" ","MAREA":" ","LANE":"３２１巷","ALLEY":" ","HOUSE_NO":"２０號","E_COORD97":175717.79154000001,"N_COORD97":2539168.3344000001,"ADDRESS":"六甲路３２１巷２０號","OBJECTID":3673},"geometry":{"x":175717.79153999873,"y":2539168.3343990017}},{"attributes":{"ID":3674,"DIS_CODE":0,"TOWNNAME":"官田區","LI":"社子里","LIN":"2鄰","STREET":" ","SECT":" ","MAREA":"社子","LANE":" ","ALLEY":" ","HOUSE_NO":"１０號之２","E_COORD97":184404.47343300001,"N_COORD97":2564572.4424299998,"ADDRESS":"社子１０號之２","OBJECTID":3674},"geometry":{"x":184404.47343300097,"y":2564572.4424310029}},{"attributes":{"ID":3675,"DIS_CODE":0,"TOWNNAME":"歸仁區","LI":"六甲里","LIN":"17鄰","STREET":"六甲路","SECT":" ","MAREA":" ","LANE":"３２１巷","ALLEY":" ","HOUSE_NO":"１８號","E_COORD97":175717.579639,"N_COORD97":2539172.2502299999,"ADDRESS":"六甲路３２１巷１８號","OBJECTID":3675},"geometry":{"x":175717.57963899896,"y":2539172.2502300031}},{"attributes":{"ID":3676,"DIS_CODE":0,"TOWNNAME":"安南區","LI":"鳳凰里","LIN":"3鄰","STREET":"安中路","SECT":"一段","MAREA":" ","LANE":"６２２巷","ALLEY":" ","HOUSE_NO":"９３號","E_COORD97":168076.94420299999,"N_COORD97":2549195.1889300002,"ADDRESS":"安中路一段６２２巷９３號","OBJECTID":3676},"geometry":{"x":168076.94420300052,"y":2549195.1889300048}},{"attributes":{"ID":3677,"DIS_CODE":0,"TOWNNAME":"安南區","LI":"鳳凰里","LIN":"3鄰","STREET":"安中路","SECT":"一段","MAREA":" ","LANE":" ","ALLEY":" ","HOUSE_NO":"５３２號","E_COORD97":168064.66368600001,"N_COORD97":2548967.8590500001,"ADDRESS":"安中路一段５３２號","OBJECTID":3677},"geometry":{"x":168064.66368599888,"y":2548967.8590530027}},{"attributes":{"ID":3678,"DIS_CODE":0,"TOWNNAME":"新營區","LI":"新東里","LIN":"10鄰","STREET":"東仁街","SECT":" ","MAREA":" ","LANE":"２巷","ALLEY":" ","HOUSE_NO":"５號","E_COORD97":181286.56296499999,"N_COORD97":2579443.7754000002,"ADDRESS":"東仁街２巷５號","OBJECTID":3678},"geometry":{"x":181286.56296500098,"y":2579443.775402002}},{"attributes":{"ID":3679,"DIS_CODE":0,"TOWNNAME":"楠西區","LI":"東勢里","LIN":"10鄰","STREET":"信義路","SECT":" ","MAREA":" ","LANE":" ","ALLEY":" ","HOUSE_NO":"２８０號","E_COORD97":197704.428946,"N_COORD97":2564037.6818200001,"ADDRESS":"信義路２８０號","OBJECTID":3679},"geometry":{"x":197704.42894599959,"y":2564037.6818230003}},{"attributes":{"ID":3680,"DIS_CODE":0,"TOWNNAME":"新營區","LI":"新東里","LIN":"10鄰","STREET":"東仁街","SECT":" ","MAREA":" ","LANE":" ","ALLEY":" ","HOUSE_NO":"７號","E_COORD97":181292.70754999999,"N_COORD97":2579443.7754000002,"ADDRESS":"東仁街７號","OBJECTID":3680},"geometry":{"x":181292.70755000133,"y":2579443.775402002}},{"attributes":{"ID":3681,"DIS_CODE":0,"TOWNNAME":"歸仁區","LI":"六甲里","LIN":"17鄰","STREET":"六甲路","SECT":" ","MAREA":" ","LANE":"３２１巷","ALLEY":" ","HOUSE_NO":"１０號","E_COORD97":175718.851043,"N_COORD97":2539198.49688,"ADDRESS":"六甲路３２１巷１０號","OBJECTID":3681},"geometry":{"x":175718.85104300082,"y":2539198.4968829993}},{"attributes":{"ID":3682,"DIS_CODE":0,"TOWNNAME":"官田區","LI":"社子里","LIN":"3鄰","STREET":" ","SECT":" ","MAREA":"社子","LANE":" ","ALLEY":" ","HOUSE_NO":"１５號之１","E_COORD97":184787.326604,"N_COORD97":2564601.1232500002,"ADDRESS":"社子１５號之１","OBJECTID":3682},"geometry":{"x":184787.32660400122,"y":2564601.1232490018}},{"attributes":{"ID":3683,"DIS_CODE":0,"TOWNNAME":"歸仁區","LI":"武東里","LIN":"11鄰","STREET":"中正南路","SECT":"二段","MAREA":" ","LANE":"２巷","ALLEY":"５０１弄","HOUSE_NO":"２５１號","E_COORD97":174732.62619700001,"N_COORD97":2536229.5934700002,"ADDRESS":"中正南路二段２巷５０１弄２５１號","OBJECTID":3683},"geometry":{"x":174732.62619700003,"y":2536229.5934689995}},{"attributes":{"ID":3684,"DIS_CODE":0,"TOWNNAME":"新營區","LI":"新東里","LIN":"10鄰","STREET":"東仁街","SECT":" ","MAREA":" ","LANE":"２","ALLEY":" ","HOUSE_NO":"９號","E_COORD97":181299.27588999999,"N_COORD97":2579444.62206,"ADDRESS":"東仁街２９號","OBJECTID":3684},"geometry":{"x":181299.27589000016,"y":2579444.622059999}},{"attributes":{"ID":3685,"DIS_CODE":0,"TOWNNAME":"新營區","LI":"新東里","LIN":"10鄰","STREET":"東仁街","SECT":" ","MAREA":" ","LANE":"２巷","ALLEY":" ","HOUSE_NO":"１１號","E_COORD97":181306.26801199999,"N_COORD97":2579445.2570699998,"ADDRESS":"東仁街２巷１１號","OBJECTID":3685},"geometry":{"x":181306.26801200118,"y":2579445.2570680026}},{"attributes":{"ID":3686,"DIS_CODE":0,"TOWNNAME":"關廟區","LI":"埤頭里","LIN":"12鄰","STREET":"保東二街","SECT":" ","MAREA":" ","LANE":" ","ALLEY":" ","HOUSE_NO":"５１號","E_COORD97":178720.779186,"N_COORD97":2544174.3140199999,"ADDRESS":"保東二街５１號","OBJECTID":3686},"geometry":{"x":178720.77918600012,"y":2544174.3140170034}},{"attributes":{"ID":3687,"DIS_CODE":0,"TOWNNAME":"安南區","LI":"鳳凰里","LIN":"21鄰","STREET":"怡安路","SECT":"二段","MAREA":" ","LANE":" ","ALLEY":" ","HOUSE_NO":"６０１之３號","E_COORD97":167350.77241800001,"N_COORD97":2549492.5011900002,"ADDRESS":"怡安路二段６０１之３號","OBJECTID":3687},"geometry":{"x":167350.77241800074,"y":2549492.5011900011}},{"attributes":{"ID":3688,"DIS_CODE":0,"TOWNNAME":"新營區","LI":"新東里","LIN":"10鄰","STREET":"東仁街","SECT":" ","MAREA":" ","LANE":"２巷","ALLEY":" ","HOUSE_NO":"１３號","E_COORD97":181312.41259600001,"N_COORD97":2579445.0454000002,"ADDRESS":"東仁街２巷１３號","OBJECTID":3688},"geometry":{"x":181312.41259600036,"y":2579445.0454010013}},{"attributes":{"ID":3689,"DIS_CODE":0,"TOWNNAME":"安南區","LI":"鳳凰里","LIN":"21鄰","STREET":"怡安路","SECT":"二段","MAREA":" ","LANE":" ","ALLEY":" ","HOUSE_NO":"６０１之５號","E_COORD97":167344.420426,"N_COORD97":2549493.9828599999,"ADDRESS":"怡安路二段６０１之５號","OBJECTID":3689},"geometry":{"x":167344.42042600084,"y":2549493.9828560017}},{"attributes":{"ID":3690,"DIS_CODE":0,"TOWNNAME":"歸仁區","LI":"武東里","LIN":"9鄰","STREET":"武東三街","SECT":" ","MAREA":" ","LANE":" ","ALLEY":" ","HOUSE_NO":"１３９號","E_COORD97":174728.157057,"N_COORD97":2535304.5300699999,"ADDRESS":"武東三街１３９號","OBJECTID":3690},"geometry":{"x":174728.15705700126,"y":2535304.5300719999}},{"attributes":{"ID":3691,"DIS_CODE":0,"TOWNNAME":"歸仁區","LI":"歸南里","LIN":"7鄰","STREET":"中正南路","SECT":"一段","MAREA":" ","LANE":" ","ALLEY":" ","HOUSE_NO":"６５０號","E_COORD97":176605.55932100001,"N_COORD97":2539851.3680099999,"ADDRESS":"中正南路一段６５０號","OBJECTID":3691},"geometry":{"x":176605.55932100024,"y":2539851.3680059984}},{"attributes":{"ID":3692,"DIS_CODE":0,"TOWNNAME":"楠西區","LI":"龜丹里","LIN":"7鄰","STREET":" ","SECT":" ","MAREA":"龜丹","LANE":" ","ALLEY":" ","HOUSE_NO":"８６之２號","E_COORD97":200083.01360999999,"N_COORD97":2560346.8848799998,"ADDRESS":"龜丹８６之２號","OBJECTID":3692},"geometry":{"x":200083.01360999886,"y":2560346.8848799989}},{"attributes":{"ID":3693,"DIS_CODE":0,"TOWNNAME":"新營區","LI":"新東里","LIN":"10鄰","STREET":"東泰路","SECT":" ","MAREA":" ","LANE":" ","ALLEY":" ","HOUSE_NO":"６８號","E_COORD97":181134.752305,"N_COORD97":2579738.1888000001,"ADDRESS":"東泰路６８號","OBJECTID":3693},"geometry":{"x":181134.75230500195,"y":2579738.1887979992}},{"attributes":{"ID":3694,"DIS_CODE":0,"TOWNNAME":"善化區","LI":"南關里","LIN":"13鄰","STREET":"自由路","SECT":" ","MAREA":" ","LANE":"１８９巷","ALLEY":" ","HOUSE_NO":"２６號","E_COORD97":176870.76573000001,"N_COORD97":2558833.54648,"ADDRESS":"自由路１８９巷２６號","OBJECTID":3694},"geometry":{"x":176870.76573000103,"y":2558833.5464759991}},{"attributes":{"ID":3695,"DIS_CODE":0,"TOWNNAME":"關廟區","LI":"埤頭里","LIN":"11鄰","STREET":"關新路","SECT":"二段","MAREA":" ","LANE":"１０３巷","ALLEY":" ","HOUSE_NO":"２號","E_COORD97":179077.16295699999,"N_COORD97":2544335.0957499999,"ADDRESS":"關新路二段１０３巷２號","OBJECTID":3695},"geometry":{"x":179077.16295699961,"y":2544335.0957539994}},{"attributes":{"ID":3696,"DIS_CODE":0,"TOWNNAME":"善化區","LI":"南關里","LIN":"13鄰","STREET":"自由路","SECT":" ","MAREA":" ","LANE":"１８９巷","ALLEY":" ","HOUSE_NO":"２７號","E_COORD97":176865.25598799999,"N_COORD97":2558834.6048099999,"ADDRESS":"自由路１８９巷２７號","OBJECTID":3696},"geometry":{"x":176865.25598799996,"y":2558834.604809003}},{"attributes":{"ID":3697,"DIS_CODE":0,"TOWNNAME":"歸仁區","LI":"武東里","LIN":"11鄰","STREET":"中正南路","SECT":"二段","MAREA":" ","LANE":" ","ALLEY":" ","HOUSE_NO":"２０８號","E_COORD97":175496.26621599999,"N_COORD97":2535591.9587099999,"ADDRESS":"中正南路二段２０８號","OBJECTID":3697},"geometry":{"x":175496.26621600147,"y":2535591.9587060008}},{"attributes":{"ID":3698,"DIS_CODE":0,"TOWNNAME":"中西區","LI":"藥王里","LIN":"6鄰","STREET":"大新街","SECT":" ","MAREA":" ","LANE":"７２巷","ALLEY":" ","HOUSE_NO":"２１號之１","E_COORD97":167267.76350999999,"N_COORD97":2544457.8502500001,"ADDRESS":"大新街７２巷２１號之１","OBJECTID":3698},"geometry":{"x":167267.76351000089,"y":2544457.8502500001}},{"attributes":{"ID":3699,"DIS_CODE":0,"TOWNNAME":"新營區","LI":"新東里","LIN":"11鄰","STREET":"東泰八街","SECT":" ","MAREA":" ","LANE":" ","ALLEY":" ","HOUSE_NO":"２８號","E_COORD97":181216.07073499999,"N_COORD97":2579735.9281600001,"ADDRESS":"東泰八街２８號","OBJECTID":3699},"geometry":{"x":181216.07073500007,"y":2579735.928160999}},{"attributes":{"ID":3700,"DIS_CODE":0,"TOWNNAME":"中西區","LI":"藥王里","LIN":"22鄰","STREET":"永和街","SECT":" ","MAREA":" ","LANE":" ","ALLEY":" ","HOUSE_NO":"６６號","E_COORD97":167020.92947599999,"N_COORD97":2544590.03602,"ADDRESS":"永和街６６號","OBJECTID":3700},"geometry":{"x":167020.9294760013,"y":2544590.0360209998}},{"attributes":{"ID":3701,"DIS_CODE":0,"TOWNNAME":"楠西區","LI":"照興里","LIN":"15鄰","STREET":" ","SECT":" ","MAREA":"照興","LANE":" ","ALLEY":" ","HOUSE_NO":"６９之９號","E_COORD97":195470.65515100001,"N_COORD97":2565362.59338,"ADDRESS":"照興６９之９號","OBJECTID":3701},"geometry":{"x":195470.65515100025,"y":2565362.5933790002}},{"attributes":{"ID":3702,"DIS_CODE":0,"TOWNNAME":"東區","LI":"富強里","LIN":"22鄰","STREET":"中華東路","SECT":"二段","MAREA":" ","LANE":"２２６巷","ALLEY":"２７弄","HOUSE_NO":"１１號四樓","E_COORD97":171034.37059899999,"N_COORD97":2542584.3586400002,"ADDRESS":"中華東路二段２２６巷２７弄１１號四樓","OBJECTID":3702},"geometry":{"x":171034.37059900071,"y":2542584.3586379997}},{"attributes":{"ID":3703,"DIS_CODE":0,"TOWNNAME":"歸仁區","LI":"西埔里","LIN":"15鄰","STREET":"西埔二街","SECT":" ","MAREA":" ","LANE":"１１０巷","ALLEY":"３１１弄","HOUSE_NO":"５號","E_COORD97":176597.389734,"N_COORD97":2545561.5958699998,"ADDRESS":"西埔二街１１０巷３１１弄５號","OBJECTID":3703},"geometry":{"x":176597.3897340009,"y":2545561.5958709996}},{"attributes":{"ID":3704,"DIS_CODE":0,"TOWNNAME":"東區","LI":"富強里","LIN":"22鄰","STREET":"中華東路","SECT":"二段","MAREA":" ","LANE":"２２６巷","ALLEY":"２７弄","HOUSE_NO":"１１號十三樓","E_COORD97":171034.37059899999,"N_COORD97":2542584.3586400002,"ADDRESS":"中華東路二段２２６巷２７弄１１號十三樓","OBJECTID":3704},"geometry":{"x":171034.37059900071,"y":2542584.3586379997}},{"attributes":{"ID":3705,"DIS_CODE":0,"TOWNNAME":"東區","LI":"富強里","LIN":"22鄰","STREET":"中華東路","SECT":"二段","MAREA":" ","LANE":"２２６巷","ALLEY":"２７弄","HOUSE_NO":"１１號十四樓","E_COORD97":171034.37059899999,"N_COORD97":2542584.3586400002,"ADDRESS":"中華東路二段２２６巷２７弄１１號十四樓","OBJECTID":3705},"geometry":{"x":171034.37059900071,"y":2542584.3586379997}},{"attributes":{"ID":3706,"DIS_CODE":0,"TOWNNAME":"東區","LI":"富強里","LIN":"22鄰","STREET":"中華東路","SECT":"二段","MAREA":" ","LANE":"２２６巷","ALLEY":"２７弄","HOUSE_NO":"１１號十五樓","E_COORD97":171034.37059899999,"N_COORD97":2542584.3586400002,"ADDRESS":"中華東路二段２２６巷２７弄１１號十五樓","OBJECTID":3706},"geometry":{"x":171034.37059900071,"y":2542584.3586379997}},{"attributes":{"ID":3707,"DIS_CODE":0,"TOWNNAME":"東區","LI":"富強里","LIN":"22鄰","STREET":"中華東路","SECT":"二段","MAREA":" ","LANE":"２２６巷","ALLEY":"２７弄","HOUSE_NO":"１１號十六樓","E_COORD97":171034.37059899999,"N_COORD97":2542584.3586400002,"ADDRESS":"中華東路二段２２６巷２７弄１１號十六樓","OBJECTID":3707},"geometry":{"x":171034.37059900071,"y":2542584.3586379997}},{"attributes":{"ID":3708,"DIS_CODE":0,"TOWNNAME":"歸仁區","LI":"武東里","LIN":"4鄰","STREET":"武東二街","SECT":" ","MAREA":" ","LANE":"４２巷","ALLEY":" ","HOUSE_NO":"２０號","E_COORD97":175538.84815400001,"N_COORD97":2535265.1218300001,"ADDRESS":"武東二街４２巷２０號","OBJECTID":3708},"geometry":{"x":175538.84815400094,"y":2535265.1218280029}},{"attributes":{"ID":3709,"DIS_CODE":0,"TOWNNAME":"東區","LI":"富強里","LIN":"22鄰","STREET":"中華東路","SECT":"二段","MAREA":" ","LANE":"２２６巷","ALLEY":"２７弄","HOUSE_NO":"１５號九樓","E_COORD97":170978.43431700001,"N_COORD97":2542604.9790500002,"ADDRESS":"中華東路二段２２６巷２７弄１５號九樓","OBJECTID":3709},"geometry":{"x":170978.43431700114,"y":2542604.9790460039}},{"attributes":{"ID":3710,"DIS_CODE":0,"TOWNNAME":"東區","LI":"富強里","LIN":"22鄰","STREET":"中華東路","SECT":"二段","MAREA":" ","LANE":"２２６巷","ALLEY":"２７弄","HOUSE_NO":"１５號十樓","E_COORD97":170978.43431700001,"N_COORD97":2542604.9790500002,"ADDRESS":"中華東路二段２２６巷２７弄１５號十樓","OBJECTID":3710},"geometry":{"x":170978.43431700114,"y":2542604.9790460039}},{"attributes":{"ID":3711,"DIS_CODE":0,"TOWNNAME":"東區","LI":"富強里","LIN":"22鄰","STREET":"中華東路","SECT":"二段","MAREA":" ","LANE":"２２６巷","ALLEY":"２７弄","HOUSE_NO":"１５號十一樓","E_COORD97":170978.43431700001,"N_COORD97":2542604.9790500002,"ADDRESS":"中華東路二段２２６巷２７弄１５號十一樓","OBJECTID":3711},"geometry":{"x":170978.43431700114,"y":2542604.9790460039}},{"attributes":{"ID":3712,"DIS_CODE":0,"TOWNNAME":"東區","LI":"富強里","LIN":"22鄰","STREET":"中華東路","SECT":"二段","MAREA":" ","LANE":"２２６巷","ALLEY":"２７弄","HOUSE_NO":"１５號十二樓","E_COORD97":170978.43431700001,"N_COORD97":2542604.9790500002,"ADDRESS":"中華東路二段２２６巷２７弄１５號十二樓","OBJECTID":3712},"geometry":{"x":170978.43431700114,"y":2542604.9790460039}},{"attributes":{"ID":3713,"DIS_CODE":0,"TOWNNAME":"東區","LI":"富強里","LIN":"22鄰","STREET":"中華東路","SECT":"二段","MAREA":" ","LANE":"２２６巷","ALLEY":"２７弄","HOUSE_NO":"１５號十三樓","E_COORD97":170978.43431700001,"N_COORD97":2542604.9790500002,"ADDRESS":"中華東路二段２２６巷２７弄１５號十三樓","OBJECTID":3713},"geometry":{"x":170978.43431700114,"y":2542604.9790460039}},{"attributes":{"ID":3714,"DIS_CODE":0,"TOWNNAME":"東區","LI":"富強里","LIN":"22鄰","STREET":"中華東路","SECT":"二段","MAREA":" ","LANE":"２２６巷","ALLEY":"２７弄","HOUSE_NO":"１５號十四樓","E_COORD97":170978.43431700001,"N_COORD97":2542604.9790500002,"ADDRESS":"中華東路二段２２６巷２７弄１５號十四樓","OBJECTID":3714},"geometry":{"x":170978.43431700114,"y":2542604.9790460039}},{"attributes":{"ID":3715,"DIS_CODE":0,"TOWNNAME":"東區","LI":"富強里","LIN":"22鄰","STREET":"中華東路","SECT":"二段","MAREA":" ","LANE":"２２６巷","ALLEY":"２７弄","HOUSE_NO":"１５號十五樓","E_COORD97":170978.43431700001,"N_COORD97":2542604.9790500002,"ADDRESS":"中華東路二段２２６巷２７弄１５號十五樓","OBJECTID":3715},"geometry":{"x":170978.43431700114,"y":2542604.9790460039}},{"attributes":{"ID":3716,"DIS_CODE":0,"TOWNNAME":"東區","LI":"富強里","LIN":"22鄰","STREET":"中華東路","SECT":"二段","MAREA":" ","LANE":"２２６巷","ALLEY":"２７弄","HOUSE_NO":"１５號十六樓","E_COORD97":170978.43431700001,"N_COORD97":2542604.9790500002,"ADDRESS":"中華東路二段２２６巷２７弄１５號十六樓","OBJECTID":3716},"geometry":{"x":170978.43431700114,"y":2542604.9790460039}},{"attributes":{"ID":3717,"DIS_CODE":0,"TOWNNAME":"東區","LI":"富強里","LIN":"22鄰","STREET":"中華東路","SECT":"二段","MAREA":" ","LANE":"２２６巷","ALLEY":"２７弄","HOUSE_NO":"１５號十七樓","E_COORD97":170978.43431700001,"N_COORD97":2542604.9790500002,"ADDRESS":"中華東路二段２２６巷２７弄１５號十七樓","OBJECTID":3717},"geometry":{"x":170978.43431700114,"y":2542604.9790460039}},{"attributes":{"ID":3718,"DIS_CODE":0,"TOWNNAME":"東區","LI":"富強里","LIN":"22鄰","STREET":"中華東路","SECT":"二段","MAREA":" ","LANE":"２２６巷","ALLEY":"２７弄","HOUSE_NO":"１５號十八樓","E_COORD97":170978.43431700001,"N_COORD97":2542604.9790500002,"ADDRESS":"中華東路二段２２６巷２７弄１５號十八樓","OBJECTID":3718},"geometry":{"x":170978.43431700114,"y":2542604.9790460039}},{"attributes":{"ID":3719,"DIS_CODE":0,"TOWNNAME":"東區","LI":"富強里","LIN":"22鄰","STREET":"中華東路","SECT":"二段","MAREA":" ","LANE":"２２６巷","ALLEY":"２７弄","HOUSE_NO":"１５號","E_COORD97":170978.43431700001,"N_COORD97":2542604.9790500002,"ADDRESS":"中華東路二段２２６巷２７弄１５號","OBJECTID":3719},"geometry":{"x":170978.43431700114,"y":2542604.9790460039}},{"attributes":{"ID":3720,"DIS_CODE":0,"TOWNNAME":"東區","LI":"富強里","LIN":"22鄰","STREET":"中華東路","SECT":"二段","MAREA":" ","LANE":"２２６巷","ALLEY":"２７弄","HOUSE_NO":"１５號二樓","E_COORD97":170978.43431700001,"N_COORD97":2542604.9790500002,"ADDRESS":"中華東路二段２２６巷２７弄１５號二樓","OBJECTID":3720},"geometry":{"x":170978.43431700114,"y":2542604.9790460039}},{"attributes":{"ID":3721,"DIS_CODE":0,"TOWNNAME":"東區","LI":"富強里","LIN":"22鄰","STREET":"中華東路","SECT":"二段","MAREA":" ","LANE":"２２６巷","ALLEY":"２７弄","HOUSE_NO":"１５號三樓","E_COORD97":170978.43431700001,"N_COORD97":2542604.9790500002,"ADDRESS":"中華東路二段２２６巷２７弄１５號三樓","OBJECTID":3721},"geometry":{"x":170978.43431700114,"y":2542604.9790460039}},{"attributes":{"ID":3722,"DIS_CODE":0,"TOWNNAME":"東區","LI":"富強里","LIN":"22鄰","STREET":"中華東路","SECT":"二段","MAREA":" ","LANE":"２２６巷","ALLEY":"２７弄","HOUSE_NO":"１５號四樓","E_COORD97":170978.43431700001,"N_COORD97":2542604.9790500002,"ADDRESS":"中華東路二段２２６巷２７弄１５號四樓","OBJECTID":3722},"geometry":{"x":170978.43431700114,"y":2542604.9790460039}},{"attributes":{"ID":3723,"DIS_CODE":0,"TOWNNAME":"東區","LI":"富強里","LIN":"22鄰","STREET":"中華東路","SECT":"二段","MAREA":" ","LANE":"２２６巷","ALLEY":"２７弄","HOUSE_NO":"１５號五樓","E_COORD97":170978.43431700001,"N_COORD97":2542604.9790500002,"ADDRESS":"中華東路二段２２６巷２７弄１５號五樓","OBJECTID":3723},"geometry":{"x":170978.43431700114,"y":2542604.9790460039}},{"attributes":{"ID":3724,"DIS_CODE":0,"TOWNNAME":"東區","LI":"富強里","LIN":"22鄰","STREET":"中華東路","SECT":"二段","MAREA":" ","LANE":"２２６巷","ALLEY":"２７弄","HOUSE_NO":"１５號六樓","E_COORD97":170978.43431700001,"N_COORD97":2542604.9790500002,"ADDRESS":"中華東路二段２２６巷２７弄１５號六樓","OBJECTID":3724},"geometry":{"x":170978.43431700114,"y":2542604.9790460039}},{"attributes":{"ID":3725,"DIS_CODE":0,"TOWNNAME":"東區","LI":"富強里","LIN":"22鄰","STREET":"中華東路","SECT":"二段","MAREA":" ","LANE":"２２６巷","ALLEY":"２７弄","HOUSE_NO":"１５號七樓","E_COORD97":170978.43431700001,"N_COORD97":2542604.9790500002,"ADDRESS":"中華東路二段２２６巷２７弄１５號七樓","OBJECTID":3725},"geometry":{"x":170978.43431700114,"y":2542604.9790460039}},{"attributes":{"ID":3726,"DIS_CODE":0,"TOWNNAME":"東區","LI":"富強里","LIN":"22鄰","STREET":"中華東路","SECT":"二段","MAREA":" ","LANE":"２２６巷","ALLEY":"２７弄","HOUSE_NO":"１５號八樓","E_COORD97":170978.43431700001,"N_COORD97":2542604.9790500002,"ADDRESS":"中華東路二段２２６巷２７弄１５號八樓","OBJECTID":3726},"geometry":{"x":170978.43431700114,"y":2542604.9790460039}},{"attributes":{"ID":3727,"DIS_CODE":0,"TOWNNAME":"關廟區","LI":"埤頭里","LIN":"11鄰","STREET":"關新路","SECT":"二段","MAREA":" ","LANE":"１０３巷","ALLEY":" ","HOUSE_NO":"６號","E_COORD97":179064.02717700001,"N_COORD97":2544334.5665899999,"ADDRESS":"關新路二段１０３巷６號","OBJECTID":3727},"geometry":{"x":179064.02717700042,"y":2544334.5665870048}},{"attributes":{"ID":3728,"DIS_CODE":0,"TOWNNAME":"東區","LI":"富強里","LIN":"22鄰","STREET":"中華東路","SECT":"二段","MAREA":" ","LANE":"２２６巷","ALLEY":"２７弄","HOUSE_NO":"１７號七樓","E_COORD97":170977.66422899999,"N_COORD97":2542588.8277199999,"ADDRESS":"中華東路二段２２６巷２７弄１７號七樓","OBJECTID":3728},"geometry":{"x":170977.66422900185,"y":2542588.8277170043}},{"attributes":{"ID":3729,"DIS_CODE":0,"TOWNNAME":"東區","LI":"富強里","LIN":"22鄰","STREET":"中華東路","SECT":"二段","MAREA":" ","LANE":"２２６巷","ALLEY":"２７弄","HOUSE_NO":"１７號八樓","E_COORD97":170977.66422899999,"N_COORD97":2542588.8277199999,"ADDRESS":"中華東路二段２２６巷２７弄１７號八樓","OBJECTID":3729},"geometry":{"x":170977.66422900185,"y":2542588.8277170043}},{"attributes":{"ID":3730,"DIS_CODE":0,"TOWNNAME":"東區","LI":"富強里","LIN":"22鄰","STREET":"中華東路","SECT":"二段","MAREA":" ","LANE":"２２６巷","ALLEY":"２７弄","HOUSE_NO":"１７號九樓","E_COORD97":170977.66422899999,"N_COORD97":2542588.8277199999,"ADDRESS":"中華東路二段２２６巷２７弄１７號九樓","OBJECTID":3730},"geometry":{"x":170977.66422900185,"y":2542588.8277170043}},{"attributes":{"ID":3731,"DIS_CODE":0,"TOWNNAME":"東區","LI":"富強里","LIN":"22鄰","STREET":"中華東路","SECT":"二段","MAREA":" ","LANE":"２２６巷","ALLEY":"２７弄","HOUSE_NO":"１７號十樓","E_COORD97":170977.66422899999,"N_COORD97":2542588.8277199999,"ADDRESS":"中華東路二段２２６巷２７弄１７號十樓","OBJECTID":3731},"geometry":{"x":170977.66422900185,"y":2542588.8277170043}},{"attributes":{"ID":3732,"DIS_CODE":0,"TOWNNAME":"東區","LI":"富強里","LIN":"22鄰","STREET":"中華東路","SECT":"二段","MAREA":" ","LANE":"２２６巷","ALLEY":"２７弄","HOUSE_NO":"１７號十一樓","E_COORD97":170977.66422899999,"N_COORD97":2542588.8277199999,"ADDRESS":"中華東路二段２２６巷２７弄１７號十一樓","OBJECTID":3732},"geometry":{"x":170977.66422900185,"y":2542588.8277170043}},{"attributes":{"ID":3733,"DIS_CODE":0,"TOWNNAME":"東區","LI":"富強里","LIN":"22鄰","STREET":"中華東路","SECT":"二段","MAREA":" ","LANE":"２２６巷","ALLEY":"２７弄","HOUSE_NO":"１７號十二樓","E_COORD97":170977.66422899999,"N_COORD97":2542588.8277199999,"ADDRESS":"中華東路二段２２６巷２７弄１７號十二樓","OBJECTID":3733},"geometry":{"x":170977.66422900185,"y":2542588.8277170043}},{"attributes":{"ID":3734,"DIS_CODE":0,"TOWNNAME":"東區","LI":"富強里","LIN":"22鄰","STREET":"中華東路","SECT":"二段","MAREA":" ","LANE":"２２６巷","ALLEY":"２７弄","HOUSE_NO":"１７號十三樓","E_COORD97":170977.66422899999,"N_COORD97":2542588.8277199999,"ADDRESS":"中華東路二段２２６巷２７弄１７號十三樓","OBJECTID":3734},"geometry":{"x":170977.66422900185,"y":2542588.8277170043}},{"attributes":{"ID":3735,"DIS_CODE":0,"TOWNNAME":"東區","LI":"富強里","LIN":"22鄰","STREET":"中華東路","SECT":"二段","MAREA":" ","LANE":"２２６巷","ALLEY":"２７弄","HOUSE_NO":"１７號十四樓","E_COORD97":170977.66422899999,"N_COORD97":2542588.8277199999,"ADDRESS":"中華東路二段２２６巷２７弄１７號十四樓","OBJECTID":3735},"geometry":{"x":170977.66422900185,"y":2542588.8277170043}},{"attributes":{"ID":3736,"DIS_CODE":0,"TOWNNAME":"東區","LI":"富強里","LIN":"22鄰","STREET":"中華東路","SECT":"二段","MAREA":" ","LANE":"２２６巷","ALLEY":"２７弄","HOUSE_NO":"１７號十五樓","E_COORD97":170977.66422899999,"N_COORD97":2542588.8277199999,"ADDRESS":"中華東路二段２２６巷２７弄１７號十五樓","OBJECTID":3736},"geometry":{"x":170977.66422900185,"y":2542588.8277170043}},{"attributes":{"ID":3737,"DIS_CODE":0,"TOWNNAME":"東區","LI":"富強里","LIN":"22鄰","STREET":"中華東路","SECT":"二段","MAREA":" ","LANE":"２２６巷","ALLEY":"２７弄","HOUSE_NO":"１７號十六樓","E_COORD97":170977.66422899999,"N_COORD97":2542588.8277199999,"ADDRESS":"中華東路二段２２６巷２７弄１７號十六樓","OBJECTID":3737},"geometry":{"x":170977.66422900185,"y":2542588.8277170043}},{"attributes":{"ID":3738,"DIS_CODE":0,"TOWNNAME":"東區","LI":"富強里","LIN":"22鄰","STREET":"中華東路","SECT":"二段","MAREA":" ","LANE":"２２６巷","ALLEY":"２７弄","HOUSE_NO":"１７號十七樓","E_COORD97":170977.66422899999,"N_COORD97":2542588.8277199999,"ADDRESS":"中華東路二段２２６巷２７弄１７號十七樓","OBJECTID":3738},"geometry":{"x":170977.66422900185,"y":2542588.8277170043}},{"attributes":{"ID":3739,"DIS_CODE":0,"TOWNNAME":"東區","LI":"富強里","LIN":"22鄰","STREET":"中華東路","SECT":"二段","MAREA":" ","LANE":"２２６巷","ALLEY":"２７弄","HOUSE_NO":"１７號十八樓","E_COORD97":170977.66422899999,"N_COORD97":2542588.8277199999,"ADDRESS":"中華東路二段２２６巷２７弄１７號十八樓","OBJECTID":3739},"geometry":{"x":170977.66422900185,"y":2542588.8277170043}},{"attributes":{"ID":3740,"DIS_CODE":0,"TOWNNAME":"東區","LI":"富強里","LIN":"22鄰","STREET":"中華東路","SECT":"二段","MAREA":" ","LANE":"２２６巷","ALLEY":"２７弄","HOUSE_NO":"１７號二樓","E_COORD97":170977.66422899999,"N_COORD97":2542588.8277199999,"ADDRESS":"中華東路二段２２６巷２７弄１７號二樓","OBJECTID":3740},"geometry":{"x":170977.66422900185,"y":2542588.8277170043}},{"attributes":{"ID":3741,"DIS_CODE":0,"TOWNNAME":"東區","LI":"富強里","LIN":"22鄰","STREET":"中華東路","SECT":"二段","MAREA":" ","LANE":"２２６巷","ALLEY":"２７弄","HOUSE_NO":"１７號三樓","E_COORD97":170977.66422899999,"N_COORD97":2542588.8277199999,"ADDRESS":"中華東路二段２２６巷２７弄１７號三樓","OBJECTID":3741},"geometry":{"x":170977.66422900185,"y":2542588.8277170043}},{"attributes":{"ID":3742,"DIS_CODE":0,"TOWNNAME":"東區","LI":"富強里","LIN":"22鄰","STREET":"中華東路","SECT":"二段","MAREA":" ","LANE":"２２６巷","ALLEY":"２７弄","HOUSE_NO":"１７號四樓","E_COORD97":170977.66422899999,"N_COORD97":2542588.8277199999,"ADDRESS":"中華東路二段２２６巷２７弄１７號四樓","OBJECTID":3742},"geometry":{"x":170977.66422900185,"y":2542588.8277170043}},{"attributes":{"ID":3743,"DIS_CODE":0,"TOWNNAME":"東區","LI":"富強里","LIN":"22鄰","STREET":"中華東路","SECT":"二段","MAREA":" ","LANE":"２２６巷","ALLEY":"２７弄","HOUSE_NO":"１７號五樓","E_COORD97":170977.66422899999,"N_COORD97":2542588.8277199999,"ADDRESS":"中華東路二段２２６巷２７弄１７號五樓","OBJECTID":3743},"geometry":{"x":170977.66422900185,"y":2542588.8277170043}},{"attributes":{"ID":3744,"DIS_CODE":0,"TOWNNAME":"東區","LI":"富強里","LIN":"22鄰","STREET":"中華東路","SECT":"二段","MAREA":" ","LANE":"２２６巷","ALLEY":"２７弄","HOUSE_NO":"１７號六樓","E_COORD97":170977.66422899999,"N_COORD97":2542588.8277199999,"ADDRESS":"中華東路二段２２６巷２７弄１７號六樓","OBJECTID":3744},"geometry":{"x":170977.66422900185,"y":2542588.8277170043}},{"attributes":{"ID":3745,"DIS_CODE":0,"TOWNNAME":"安南區","LI":"鳳凰里","LIN":"1鄰","STREET":"怡安路","SECT":"二段","MAREA":" ","LANE":" ","ALLEY":" ","HOUSE_NO":"９７之１０號","E_COORD97":168097.978332,"N_COORD97":2549225.5896700001,"ADDRESS":"怡安路二段９７之１０號","OBJECTID":3745},"geometry":{"x":168097.97833199985,"y":2549225.5896669999}},{"attributes":{"ID":3746,"DIS_CODE":0,"TOWNNAME":"楠西區","LI":"東勢里","LIN":"1鄰","STREET":"水庫路","SECT":" ","MAREA":" ","LANE":" ","ALLEY":" ","HOUSE_NO":"５５之１２號","E_COORD97":197857.18427100001,"N_COORD97":2564431.2605499998,"ADDRESS":"水庫路５５之１２號","OBJECTID":3746},"geometry":{"x":197857.18427100126,"y":2564431.2605489995}},{"attributes":{"ID":3747,"DIS_CODE":0,"TOWNNAME":"關廟區","LI":"埤頭里","LIN":"11鄰","STREET":"關新路","SECT":"二段","MAREA":" ","LANE":"１０３巷","ALLEY":" ","HOUSE_NO":"９０號","E_COORD97":178911.0589,"N_COORD97":2544327.6874199999,"ADDRESS":"關新路二段１０３巷９０號","OBJECTID":3747},"geometry":{"x":178911.0588999996,"y":2544327.6874240022}},{"attributes":{"ID":3748,"DIS_CODE":0,"TOWNNAME":"東區","LI":"富強里","LIN":"22鄰","STREET":"中華東路","SECT":"二段","MAREA":" ","LANE":"２２６巷","ALLEY":"２７弄","HOUSE_NO":"７號二樓","E_COORD97":171019.24897799999,"N_COORD97":2542605.74816,"ADDRESS":"中華東路二段２２６巷２７弄７號二樓","OBJECTID":3748},"geometry":{"x":171019.248978002,"y":2542605.748157002}},{"attributes":{"ID":3749,"DIS_CODE":0,"TOWNNAME":"東區","LI":"富強里","LIN":"22鄰","STREET":"中華東路","SECT":"二段","MAREA":" ","LANE":"２２６巷","ALLEY":"２７弄","HOUSE_NO":"７號三樓","E_COORD97":171019.24897799999,"N_COORD97":2542605.74816,"ADDRESS":"中華東路二段２２６巷２７弄７號三樓","OBJECTID":3749},"geometry":{"x":171019.248978002,"y":2542605.748157002}},{"attributes":{"ID":3750,"DIS_CODE":0,"TOWNNAME":"東區","LI":"富強里","LIN":"22鄰","STREET":"中華東路","SECT":"二段","MAREA":" ","LANE":"２２６巷","ALLEY":"２７弄","HOUSE_NO":"７號四樓","E_COORD97":171019.24897799999,"N_COORD97":2542605.74816,"ADDRESS":"中華東路二段２２６巷２７弄７號四樓","OBJECTID":3750},"geometry":{"x":171019.248978002,"y":2542605.748157002}},{"attributes":{"ID":3751,"DIS_CODE":0,"TOWNNAME":"東區","LI":"富強里","LIN":"22鄰","STREET":"中華東路","SECT":"二段","MAREA":" ","LANE":"２２６巷","ALLEY":"２７弄","HOUSE_NO":"７號五樓","E_COORD97":171019.24897799999,"N_COORD97":2542605.74816,"ADDRESS":"中華東路二段２２６巷２７弄７號五樓","OBJECTID":3751},"geometry":{"x":171019.248978002,"y":2542605.748157002}},{"attributes":{"ID":3752,"DIS_CODE":0,"TOWNNAME":"東區","LI":"富強里","LIN":"22鄰","STREET":"中華東路","SECT":"二段","MAREA":" ","LANE":"２２６巷","ALLEY":"２７弄","HOUSE_NO":"７號六樓","E_COORD97":171019.24897799999,"N_COORD97":2542605.74816,"ADDRESS":"中華東路二段２２６巷２７弄７號六樓","OBJECTID":3752},"geometry":{"x":171019.248978002,"y":2542605.748157002}},{"attributes":{"ID":3753,"DIS_CODE":0,"TOWNNAME":"東區","LI":"富強里","LIN":"22鄰","STREET":"中華東路","SECT":"二段","MAREA":" ","LANE":"２２６巷","ALLEY":"２７弄","HOUSE_NO":"７號十三樓","E_COORD97":171019.24897799999,"N_COORD97":2542605.74816,"ADDRESS":"中華東路二段２２６巷２７弄７號十三樓","OBJECTID":3753},"geometry":{"x":171019.248978002,"y":2542605.748157002}},{"attributes":{"ID":3754,"DIS_CODE":0,"TOWNNAME":"東區","LI":"富強里","LIN":"22鄰","STREET":"中華東路","SECT":"二段","MAREA":" ","LANE":"２２６巷","ALLEY":"２７弄","HOUSE_NO":"７號十四樓","E_COORD97":171019.24897799999,"N_COORD97":2542605.74816,"ADDRESS":"中華東路二段２２６巷２７弄７號十四樓","OBJECTID":3754},"geometry":{"x":171019.248978002,"y":2542605.748157002}},{"attributes":{"ID":3755,"DIS_CODE":0,"TOWNNAME":"東區","LI":"富強里","LIN":"22鄰","STREET":"中華東路","SECT":"二段","MAREA":" ","LANE":"２２６巷","ALLEY":"２７弄","HOUSE_NO":"７號十五樓","E_COORD97":171019.24897799999,"N_COORD97":2542605.74816,"ADDRESS":"中華東路二段２２６巷２７弄７號十五樓","OBJECTID":3755},"geometry":{"x":171019.248978002,"y":2542605.748157002}},{"attributes":{"ID":3756,"DIS_CODE":0,"TOWNNAME":"東區","LI":"富強里","LIN":"22鄰","STREET":"中華東路","SECT":"二段","MAREA":" ","LANE":"２２６巷","ALLEY":"２７弄","HOUSE_NO":"７號十六樓","E_COORD97":171019.24897799999,"N_COORD97":2542605.74816,"ADDRESS":"中華東路二段２２６巷２７弄７號十六樓","OBJECTID":3756},"geometry":{"x":171019.248978002,"y":2542605.748157002}},{"attributes":{"ID":3757,"DIS_CODE":0,"TOWNNAME":"東區","LI":"富強里","LIN":"22鄰","STREET":"中華東路","SECT":"二段","MAREA":" ","LANE":"２２６巷","ALLEY":"２７弄","HOUSE_NO":"７號十七樓","E_COORD97":171019.24897799999,"N_COORD97":2542605.74816,"ADDRESS":"中華東路二段２２６巷２７弄７號十七樓","OBJECTID":3757},"geometry":{"x":171019.248978002,"y":2542605.748157002}},{"attributes":{"ID":3758,"DIS_CODE":0,"TOWNNAME":"東區","LI":"富強里","LIN":"22鄰","STREET":"中華東路","SECT":"二段","MAREA":" ","LANE":"２２６巷","ALLEY":"２７弄","HOUSE_NO":"７號十八樓","E_COORD97":171019.24897799999,"N_COORD97":2542605.74816,"ADDRESS":"中華東路二段２２６巷２７弄７號十八樓","OBJECTID":3758},"geometry":{"x":171019.248978002,"y":2542605.748157002}},{"attributes":{"ID":3759,"DIS_CODE":0,"TOWNNAME":"東區","LI":"富強里","LIN":"22鄰","STREET":"中華東路","SECT":"二段","MAREA":" ","LANE":"２２６巷","ALLEY":"２７弄","HOUSE_NO":"７號七樓","E_COORD97":171019.24897799999,"N_COORD97":2542605.74816,"ADDRESS":"中華東路二段２２６巷２７弄７號七樓","OBJECTID":3759},"geometry":{"x":171019.248978002,"y":2542605.748157002}},{"attributes":{"ID":3760,"DIS_CODE":0,"TOWNNAME":"東區","LI":"富強里","LIN":"22鄰","STREET":"中華東路","SECT":"二段","MAREA":" ","LANE":"２２６巷","ALLEY":"２７弄","HOUSE_NO":"７號八樓","E_COORD97":171019.24897799999,"N_COORD97":2542605.74816,"ADDRESS":"中華東路二段２２６巷２７弄７號八樓","OBJECTID":3760},"geometry":{"x":171019.248978002,"y":2542605.748157002}},{"attributes":{"ID":3761,"DIS_CODE":0,"TOWNNAME":"東區","LI":"富強里","LIN":"22鄰","STREET":"中華東路","SECT":"二段","MAREA":" ","LANE":"２２６巷","ALLEY":"２７弄","HOUSE_NO":"７號九樓","E_COORD97":171019.24897799999,"N_COORD97":2542605.74816,"ADDRESS":"中華東路二段２２６巷２７弄７號九樓","OBJECTID":3761},"geometry":{"x":171019.248978002,"y":2542605.748157002}},{"attributes":{"ID":3762,"DIS_CODE":0,"TOWNNAME":"東區","LI":"富強里","LIN":"22鄰","STREET":"中華東路","SECT":"二段","MAREA":" ","LANE":"２２６巷","ALLEY":"２７弄","HOUSE_NO":"７號十樓","E_COORD97":171019.24897799999,"N_COORD97":2542605.74816,"ADDRESS":"中華東路二段２２６巷２７弄７號十樓","OBJECTID":3762},"geometry":{"x":171019.248978002,"y":2542605.748157002}},{"attributes":{"ID":3763,"DIS_CODE":0,"TOWNNAME":"東區","LI":"富強里","LIN":"22鄰","STREET":"中華東路","SECT":"二段","MAREA":" ","LANE":"２２６巷","ALLEY":"２７弄","HOUSE_NO":"７號十一樓","E_COORD97":171019.24897799999,"N_COORD97":2542605.74816,"ADDRESS":"中華東路二段２２６巷２７弄７號十一樓","OBJECTID":3763},"geometry":{"x":171019.248978002,"y":2542605.748157002}},{"attributes":{"ID":3764,"DIS_CODE":0,"TOWNNAME":"東區","LI":"富強里","LIN":"22鄰","STREET":"中華東路","SECT":"二段","MAREA":" ","LANE":"２２６巷","ALLEY":"２７弄","HOUSE_NO":"７號十二樓","E_COORD97":171019.24897799999,"N_COORD97":2542605.74816,"ADDRESS":"中華東路二段２２６巷２７弄７號十二樓","OBJECTID":3764},"geometry":{"x":171019.248978002,"y":2542605.748157002}},{"attributes":{"ID":3765,"DIS_CODE":0,"TOWNNAME":"安南區","LI":"東和里","LIN":"7鄰","STREET":"環館北路","SECT":" ","MAREA":" ","LANE":"８４９巷","ALLEY":"７弄","HOUSE_NO":"２０號","E_COORD97":171201.222542,"N_COORD97":2551440.2996100001,"ADDRESS":"環館北路８４９巷７弄２０號","OBJECTID":3765},"geometry":{"x":171201.222542,"y":2551440.2996079996}},{"attributes":{"ID":3766,"DIS_CODE":0,"TOWNNAME":"善化區","LI":"南關里","LIN":"13鄰","STREET":"自由路","SECT":" ","MAREA":" ","LANE":"１８９巷","ALLEY":" ","HOUSE_NO":"２８號","E_COORD97":176859.56051499999,"N_COORD97":2558836.2341499999,"ADDRESS":"自由路１８９巷２８號","OBJECTID":3766},"geometry":{"x":176859.56051499955,"y":2558836.2341500018}},{"attributes":{"ID":3767,"DIS_CODE":0,"TOWNNAME":"歸仁區","LI":"武東里","LIN":"14鄰","STREET":"光明街","SECT":" ","MAREA":" ","LANE":" ","ALLEY":" ","HOUSE_NO":"１２３號","E_COORD97":175718.91574,"N_COORD97":2536361.9479800002,"ADDRESS":"光明街１２３號","OBJECTID":3767},"geometry":{"x":175718.91574000195,"y":2536361.9479770027}},{"attributes":{"ID":3768,"DIS_CODE":0,"TOWNNAME":"關廟區","LI":"埤頭里","LIN":"12鄰","STREET":"關新路","SECT":"二段","MAREA":" ","LANE":"１０３巷","ALLEY":" ","HOUSE_NO":"１０２號","E_COORD97":178864.448068,"N_COORD97":2544356.6857400001,"ADDRESS":"關新路二段１０３巷１０２號","OBJECTID":3768},"geometry":{"x":178864.44806800131,"y":2544356.6857420001}},{"attributes":{"ID":3769,"DIS_CODE":0,"TOWNNAME":"東區","LI":"富強里","LIN":"22鄰","STREET":"中華東路","SECT":"二段","MAREA":" ","LANE":"２２６巷","ALLEY":"２７弄","HOUSE_NO":"５號七樓","E_COORD97":171036.67243599999,"N_COORD97":2542604.4519400001,"ADDRESS":"中華東路二段２２６巷２７弄５號七樓","OBJECTID":3769},"geometry":{"x":171036.67243600078,"y":2542604.4519410003}},{"attributes":{"ID":3770,"DIS_CODE":0,"TOWNNAME":"東區","LI":"富強里","LIN":"22鄰","STREET":"中華東路","SECT":"二段","MAREA":" ","LANE":"２２６巷","ALLEY":"２７弄","HOUSE_NO":"５號八樓","E_COORD97":171036.67243599999,"N_COORD97":2542604.4519400001,"ADDRESS":"中華東路二段２２６巷２７弄５號八樓","OBJECTID":3770},"geometry":{"x":171036.67243600078,"y":2542604.4519410003}},{"attributes":{"ID":3771,"DIS_CODE":0,"TOWNNAME":"東區","LI":"富強里","LIN":"22鄰","STREET":"中華東路","SECT":"二段","MAREA":" ","LANE":"２２６巷","ALLEY":"２７弄","HOUSE_NO":"５號九樓","E_COORD97":171036.67243599999,"N_COORD97":2542604.4519400001,"ADDRESS":"中華東路二段２２６巷２７弄５號九樓","OBJECTID":3771},"geometry":{"x":171036.67243600078,"y":2542604.4519410003}},{"attributes":{"ID":3772,"DIS_CODE":0,"TOWNNAME":"東區","LI":"富強里","LIN":"22鄰","STREET":"中華東路","SECT":"二段","MAREA":" ","LANE":"２２６巷","ALLEY":"２７弄","HOUSE_NO":"５號十樓","E_COORD97":171036.67243599999,"N_COORD97":2542604.4519400001,"ADDRESS":"中華東路二段２２６巷２７弄５號十樓","OBJECTID":3772},"geometry":{"x":171036.67243600078,"y":2542604.4519410003}},{"attributes":{"ID":3773,"DIS_CODE":0,"TOWNNAME":"東區","LI":"富強里","LIN":"22鄰","STREET":"中華東路","SECT":"二段","MAREA":" ","LANE":"２２６巷","ALLEY":"２７弄","HOUSE_NO":"５號十一樓","E_COORD97":171036.67243599999,"N_COORD97":2542604.4519400001,"ADDRESS":"中華東路二段２２６巷２７弄５號十一樓","OBJECTID":3773},"geometry":{"x":171036.67243600078,"y":2542604.4519410003}},{"attributes":{"ID":3774,"DIS_CODE":0,"TOWNNAME":"東區","LI":"富強里","LIN":"22鄰","STREET":"中華東路","SECT":"二段","MAREA":" ","LANE":"２２６巷","ALLEY":"２７弄","HOUSE_NO":"５號十二樓","E_COORD97":171036.67243599999,"N_COORD97":2542604.4519400001,"ADDRESS":"中華東路二段２２６巷２７弄５號十二樓","OBJECTID":3774},"geometry":{"x":171036.67243600078,"y":2542604.4519410003}},{"attributes":{"ID":3775,"DIS_CODE":0,"TOWNNAME":"東區","LI":"富強里","LIN":"22鄰","STREET":"中華東路","SECT":"二段","MAREA":" ","LANE":"２２６巷","ALLEY":"２７弄","HOUSE_NO":"５號十三樓","E_COORD97":171036.67243599999,"N_COORD97":2542604.4519400001,"ADDRESS":"中華東路二段２２６巷２７弄５號十三樓","OBJECTID":3775},"geometry":{"x":171036.67243600078,"y":2542604.4519410003}},{"attributes":{"ID":3776,"DIS_CODE":0,"TOWNNAME":"東區","LI":"富強里","LIN":"22鄰","STREET":"中華東路","SECT":"二段","MAREA":" ","LANE":"２２６巷","ALLEY":"２７弄","HOUSE_NO":"５號十四樓","E_COORD97":171036.67243599999,"N_COORD97":2542604.4519400001,"ADDRESS":"中華東路二段２２６巷２７弄５號十四樓","OBJECTID":3776},"geometry":{"x":171036.67243600078,"y":2542604.4519410003}},{"attributes":{"ID":3777,"DIS_CODE":0,"TOWNNAME":"東區","LI":"富強里","LIN":"22鄰","STREET":"中華東路","SECT":"二段","MAREA":" ","LANE":"２２６巷","ALLEY":"２７弄","HOUSE_NO":"５號十五樓","E_COORD97":171036.67243599999,"N_COORD97":2542604.4519400001,"ADDRESS":"中華東路二段２２６巷２７弄５號十五樓","OBJECTID":3777},"geometry":{"x":171036.67243600078,"y":2542604.4519410003}},{"attributes":{"ID":3778,"DIS_CODE":0,"TOWNNAME":"東區","LI":"富強里","LIN":"22鄰","STREET":"中華東路","SECT":"二段","MAREA":" ","LANE":"２２６巷","ALLEY":"２７弄","HOUSE_NO":"５號十六樓","E_COORD97":171036.67243599999,"N_COORD97":2542604.4519400001,"ADDRESS":"中華東路二段２２６巷２７弄５號十六樓","OBJECTID":3778},"geometry":{"x":171036.67243600078,"y":2542604.4519410003}},{"attributes":{"ID":3779,"DIS_CODE":0,"TOWNNAME":"東區","LI":"富強里","LIN":"22鄰","STREET":"中華東路","SECT":"二段","MAREA":" ","LANE":"２２６巷","ALLEY":"２７弄","HOUSE_NO":"５號二樓","E_COORD97":171036.67243599999,"N_COORD97":2542604.4519400001,"ADDRESS":"中華東路二段２２６巷２７弄５號二樓","OBJECTID":3779},"geometry":{"x":171036.67243600078,"y":2542604.4519410003}},{"attributes":{"ID":3780,"DIS_CODE":0,"TOWNNAME":"東區","LI":"富強里","LIN":"22鄰","STREET":"中華東路","SECT":"二段","MAREA":" ","LANE":"２２６巷","ALLEY":"２７弄","HOUSE_NO":"５號三樓","E_COORD97":171036.67243599999,"N_COORD97":2542604.4519400001,"ADDRESS":"中華東路二段２２６巷２７弄５號三樓","OBJECTID":3780},"geometry":{"x":171036.67243600078,"y":2542604.4519410003}},{"attributes":{"ID":3781,"DIS_CODE":0,"TOWNNAME":"東區","LI":"富強里","LIN":"22鄰","STREET":"中華東路","SECT":"二段","MAREA":" ","LANE":"２２６巷","ALLEY":"２７弄","HOUSE_NO":"５號四樓","E_COORD97":171036.67243599999,"N_COORD97":2542604.4519400001,"ADDRESS":"中華東路二段２２６巷２７弄５號四樓","OBJECTID":3781},"geometry":{"x":171036.67243600078,"y":2542604.4519410003}},{"attributes":{"ID":3782,"DIS_CODE":0,"TOWNNAME":"東區","LI":"富強里","LIN":"22鄰","STREET":"中華東路","SECT":"二段","MAREA":" ","LANE":"２２６巷","ALLEY":"２７弄","HOUSE_NO":"５號五樓","E_COORD97":171036.67243599999,"N_COORD97":2542604.4519400001,"ADDRESS":"中華東路二段２２６巷２７弄５號五樓","OBJECTID":3782},"geometry":{"x":171036.67243600078,"y":2542604.4519410003}},{"attributes":{"ID":3783,"DIS_CODE":0,"TOWNNAME":"東區","LI":"富強里","LIN":"22鄰","STREET":"中華東路","SECT":"二段","MAREA":" ","LANE":"２２６巷","ALLEY":"２７弄","HOUSE_NO":"５號六樓","E_COORD97":171036.67243599999,"N_COORD97":2542604.4519400001,"ADDRESS":"中華東路二段２２６巷２７弄５號六樓","OBJECTID":3783},"geometry":{"x":171036.67243600078,"y":2542604.4519410003}},{"attributes":{"ID":3784,"DIS_CODE":0,"TOWNNAME":"新營區","LI":"新東里","LIN":"11鄰","STREET":"東仁街","SECT":" ","MAREA":" ","LANE":"４３巷","ALLEY":"１６弄","HOUSE_NO":"３２號","E_COORD97":181215.11726500001,"N_COORD97":2579700.8179700002,"ADDRESS":"東仁街４３巷１６弄３２號","OBJECTID":3784},"geometry":{"x":181215.11726500094,"y":2579700.8179720007}},{"attributes":{"ID":3785,"DIS_CODE":0,"TOWNNAME":"楠西區","LI":"東勢里","LIN":"22鄰","STREET":"忠孝路","SECT":" ","MAREA":" ","LANE":" ","ALLEY":" ","HOUSE_NO":"１７２號","E_COORD97":197566.071788,"N_COORD97":2564385.0114099998,"ADDRESS":"忠孝路１７２號","OBJECTID":3785},"geometry":{"x":197566.07178800087,"y":2564385.0114069991}},{"attributes":{"ID":3786,"DIS_CODE":0,"TOWNNAME":"安南區","LI":"鳳凰里","LIN":" ","STREET":"北安路","SECT":"三段","MAREA":" ","LANE":"１８１巷","ALLEY":"１５弄","HOUSE_NO":"２４號","E_COORD97":168241.341614,"N_COORD97":2549065.6093799998,"ADDRESS":"北安路三段１８１巷１５弄２４號","OBJECTID":3786},"geometry":{"x":168241.34161399957,"y":2549065.6093770005}},{"attributes":{"ID":3787,"DIS_CODE":0,"TOWNNAME":"安南區","LI":"鳳凰里","LIN":"2鄰","STREET":"北安路","SECT":"三段","MAREA":" ","LANE":"１８１巷","ALLEY":"１５弄","HOUSE_NO":"２６號之１","E_COORD97":168243.14134500001,"N_COORD97":2549072.38271,"ADDRESS":"北安路三段１８１巷１５弄２６號之１","OBJECTID":3787},"geometry":{"x":168243.14134500176,"y":2549072.3827060014}},{"attributes":{"ID":3788,"DIS_CODE":0,"TOWNNAME":"安南區","LI":"鳳凰里","LIN":"2鄰","STREET":"北安路","SECT":"三段","MAREA":" ","LANE":"１８１巷","ALLEY":"１５弄","HOUSE_NO":"２８號","E_COORD97":168245.576275,"N_COORD97":2549087.4110300001,"ADDRESS":"北安路三段１８１巷１５弄２８號","OBJECTID":3788},"geometry":{"x":168245.57627500128,"y":2549087.4110320024}},{"attributes":{"ID":3789,"DIS_CODE":0,"TOWNNAME":"安南區","LI":"鳳凰里","LIN":"2鄰","STREET":"北安路","SECT":"三段","MAREA":" ","LANE":"１８１巷","ALLEY":"１５弄","HOUSE_NO":"２６號","E_COORD97":168245.040358,"N_COORD97":2549083.0784499999,"ADDRESS":"北安路三段１８１巷１５弄２６號","OBJECTID":3789},"geometry":{"x":168245.04035800137,"y":2549083.0784499999}},{"attributes":{"ID":3790,"DIS_CODE":0,"TOWNNAME":"安南區","LI":"鳳凰里","LIN":"2鄰","STREET":"北安路","SECT":"三段","MAREA":" ","LANE":"１８１巷","ALLEY":"１５弄","HOUSE_NO":"３０號","E_COORD97":168247.270139,"N_COORD97":2549091.6443599998,"ADDRESS":"北安路三段１８１巷１５弄３０號","OBJECTID":3790},"geometry":{"x":168247.27013900038,"y":2549091.6443630047}},{"attributes":{"ID":3791,"DIS_CODE":0,"TOWNNAME":"安南區","LI":"鳳凰里","LIN":"2鄰","STREET":"北安路","SECT":"三段","MAREA":" ","LANE":"１８１巷","ALLEY":"１５弄","HOUSE_NO":"３６號","E_COORD97":168250.022669,"N_COORD97":2549100.9576900001,"ADDRESS":"北安路三段１８１巷１５弄３６號","OBJECTID":3791},"geometry":{"x":168250.02266899962,"y":2549100.9576910008}},{"attributes":{"ID":3792,"DIS_CODE":0,"TOWNNAME":"安南區","LI":"鳳凰里","LIN":"2鄰","STREET":"北安路","SECT":"三段","MAREA":" ","LANE":"１８１巷","ALLEY":"１５弄","HOUSE_NO":"６２號","E_COORD97":168254.25732999999,"N_COORD97":2549121.8068499998,"ADDRESS":"北安路三段１８１巷１５弄６２號","OBJECTID":3792},"geometry":{"x":168254.2573300004,"y":2549121.8068460021}},{"attributes":{"ID":3793,"DIS_CODE":0,"TOWNNAME":"新市區","LI":"大洲里","LIN":"1鄰","STREET":" ","SECT":" ","MAREA":"大洲","LANE":" ","ALLEY":" ","HOUSE_NO":"４之１號","E_COORD97":175115.48000000001,"N_COORD97":2552725.2999999998,"ADDRESS":"大洲４之１號","OBJECTID":3793},"geometry":{"x":175115.48000000138,"y":2552725.3000000007}},{"attributes":{"ID":3794,"DIS_CODE":0,"TOWNNAME":"安南區","LI":"鳳凰里","LIN":"2鄰","STREET":"北安路","SECT":"三段","MAREA":" ","LANE":"１８１巷","ALLEY":" ","HOUSE_NO":"１７號","E_COORD97":168257.64505799999,"N_COORD97":2549148.0534999999,"ADDRESS":"北安路三段１８１巷１７號","OBJECTID":3794},"geometry":{"x":168257.64505800139,"y":2549148.053499002}},{"attributes":{"ID":3795,"DIS_CODE":0,"TOWNNAME":"安南區","LI":"鳳凰里","LIN":"2鄰","STREET":"北安路","SECT":"三段","MAREA":" ","LANE":"１８１巷","ALLEY":" ","HOUSE_NO":"２３號","E_COORD97":168243.03547800001,"N_COORD97":2549152.2868300001,"ADDRESS":"北安路三段１８１巷２３號","OBJECTID":3795},"geometry":{"x":168243.0354779996,"y":2549152.2868300006}},{"attributes":{"ID":3796,"DIS_CODE":0,"TOWNNAME":"安南區","LI":"鳳凰里","LIN":"2鄰","STREET":"北安路","SECT":"三段","MAREA":" ","LANE":"１８１巷","ALLEY":" ","HOUSE_NO":"３１號","E_COORD97":168225.673369,"N_COORD97":2549156.5201599998,"ADDRESS":"北安路三段１８１巷３１號","OBJECTID":3796},"geometry":{"x":168225.67336899973,"y":2549156.5201609991}},{"attributes":{"ID":3797,"DIS_CODE":0,"TOWNNAME":"新營區","LI":"新東里","LIN":"12鄰","STREET":"東興六街","SECT":" ","MAREA":" ","LANE":" ","ALLEY":" ","HOUSE_NO":"１６號","E_COORD97":180819.21533499999,"N_COORD97":2579212.87365,"ADDRESS":"東興六街１６號","OBJECTID":3797},"geometry":{"x":180819.21533500124,"y":2579212.8736520037}},{"attributes":{"ID":3798,"DIS_CODE":0,"TOWNNAME":"安南區","LI":"鳳凰里","LIN":"2鄰","STREET":"北安路","SECT":"三段","MAREA":" ","LANE":"１８１巷","ALLEY":"３７弄","HOUSE_NO":"１號","E_COORD97":168215.29844899999,"N_COORD97":2549156.6259900001,"ADDRESS":"北安路三段１８１巷３７弄１號","OBJECTID":3798},"geometry":{"x":168215.29844900128,"y":2549156.6259940043}},{"attributes":{"ID":3799,"DIS_CODE":0,"TOWNNAME":"安南區","LI":"鳳凰里","LIN":"2鄰","STREET":"北安路","SECT":"三段","MAREA":" ","LANE":"１８１巷","ALLEY":"３７弄","HOUSE_NO":"３號","E_COORD97":168212.75765300001,"N_COORD97":2549151.0168300001,"ADDRESS":"北安路三段１８１巷３７弄３號","OBJECTID":3799},"geometry":{"x":168212.75765300076,"y":2549151.0168310013}},{"attributes":{"ID":3800,"DIS_CODE":0,"TOWNNAME":"安南區","LI":"鳳凰里","LIN":"2鄰","STREET":"北安路","SECT":"三段","MAREA":" ","LANE":"１８１巷","ALLEY":"３７弄","HOUSE_NO":"７號","E_COORD97":168210.21685600001,"N_COORD97":2549139.4810000001,"ADDRESS":"北安路三段１８１巷３７弄７號","OBJECTID":3800},"geometry":{"x":168210.21685600094,"y":2549139.4810040016}}]}