{"displayFieldName":"TOWNNAME","fieldAliases":{"ID":"ID","DIS_CODE":"DIS_CODE","TOWNNAME":"TOWNNAME","LI":"LI","LIN":"LIN","STREET":"STREET","SECT":"SECT","MAREA":"MAREA","LANE":"LANE","ALLEY":"ALLEY","HOUSE_NO":"HOUSE_NO","E_COORD97":"E_COORD97","N_COORD97":"N_COORD97","ADDRESS":"ADDRESS","OBJECTID":"OBJECTID"},"geometryType":"esriGeometryPoint","spatialReference":{"wkid":102443,"latestWkid":3826},"fields":[{"name":"ID","type":"esriFieldTypeDouble","alias":"ID"},{"name":"DIS_CODE","type":"esriFieldTypeInteger","alias":"DIS_CODE"},{"name":"TOWNNAME","type":"esriFieldTypeString","alias":"TOWNNAME","length":8},{"name":"LI","type":"esriFieldTypeString","alias":"LI","length":8},{"name":"LIN","type":"esriFieldTypeString","alias":"LIN","length":12},{"name":"STREET","type":"esriFieldTypeString","alias":"STREET","length":20},{"name":"SECT","type":"esriFieldTypeString","alias":"SECT","length":8},{"name":"MAREA","type":"esriFieldTypeString","alias":"MAREA","length":12},{"name":"LANE","type":"esriFieldTypeString","alias":"LANE","length":10},{"name":"ALLEY","type":"esriFieldTypeString","alias":"ALLEY","length":10},{"name":"HOUSE_NO","type":"esriFieldTypeString","alias":"HOUSE_NO","length":20},{"name":"E_COORD97","type":"esriFieldTypeDouble","alias":"E_COORD97"},{"name":"N_COORD97","type":"esriFieldTypeDouble","alias":"N_COORD97"},{"name":"ADDRESS","type":"esriFieldTypeString","alias":"ADDRESS","length":50},{"name":"OBJECTID","type":"esriFieldTypeOID","alias":"OBJECTID"}],"features":[{"attributes":{"ID":44201,"DIS_CODE":0,"TOWNNAME":"東區","LI":"新東里","LIN":"7鄰","STREET":"衛國街","SECT":" ","MAREA":" ","LANE":"１０６巷","ALLEY":"１７弄","HOUSE_NO":"１號之２","E_COORD97":170412.70999999999,"N_COORD97":2543026.0699999998,"ADDRESS":"衛國街１０６巷１７弄１號之２","OBJECTID":44201},"geometry":{"x":170412.71000000089,"y":2543026.0700000003}},{"attributes":{"ID":44202,"DIS_CODE":0,"TOWNNAME":"東區","LI":"新東里","LIN":"7鄰","STREET":"衛國街","SECT":" ","MAREA":" ","LANE":"１０６巷","ALLEY":"１７弄","HOUSE_NO":"２１號","E_COORD97":170454.37,"N_COORD97":2543027.9199999999,"ADDRESS":"衛國街１０６巷１７弄２１號","OBJECTID":44202},"geometry":{"x":170454.37000000104,"y":2543027.9200000037}},{"attributes":{"ID":44203,"DIS_CODE":0,"TOWNNAME":"東區","LI":"新東里","LIN":"7鄰","STREET":"衛國街","SECT":" ","MAREA":" ","LANE":"１０６巷","ALLEY":"１７弄","HOUSE_NO":"２３號","E_COORD97":170459.5,"N_COORD97":2543028.8100000001,"ADDRESS":"衛國街１０６巷１７弄２３號","OBJECTID":44203},"geometry":{"x":170459.50000000186,"y":2543028.8100000005}},{"attributes":{"ID":44204,"DIS_CODE":0,"TOWNNAME":"東區","LI":"新東里","LIN":"7鄰","STREET":"衛國街","SECT":" ","MAREA":" ","LANE":"１０６巷","ALLEY":"１７弄","HOUSE_NO":"２５號","E_COORD97":170472.34,"N_COORD97":2543029.0299999998,"ADDRESS":"衛國街１０６巷１７弄２５號","OBJECTID":44204},"geometry":{"x":170472.34000000171,"y":2543029.0299999993}},{"attributes":{"ID":44205,"DIS_CODE":0,"TOWNNAME":"東區","LI":"新東里","LIN":"7鄰","STREET":"衛國街","SECT":" ","MAREA":" ","LANE":"１０６巷","ALLEY":"１７弄","HOUSE_NO":"３３號","E_COORD97":170492.04999999999,"N_COORD97":2543028.9199999999,"ADDRESS":"衛國街１０６巷１７弄３３號","OBJECTID":44205},"geometry":{"x":170492.04999999981,"y":2543028.9200000018}},{"attributes":{"ID":44206,"DIS_CODE":0,"TOWNNAME":"東區","LI":"新東里","LIN":"7鄰","STREET":"衛國街","SECT":" ","MAREA":" ","LANE":"１０６巷","ALLEY":"１７弄","HOUSE_NO":"３５號","E_COORD97":170498.85999999999,"N_COORD97":2543029.0299999998,"ADDRESS":"衛國街１０６巷１７弄３５號","OBJECTID":44206},"geometry":{"x":170498.86000000127,"y":2543029.0299999993}},{"attributes":{"ID":44207,"DIS_CODE":0,"TOWNNAME":"南區","LI":"府南里","LIN":"20鄰","STREET":"永成路","SECT":"三段","MAREA":" ","LANE":"４６１巷","ALLEY":"２１弄","HOUSE_NO":"１０號","E_COORD97":167396.78841199999,"N_COORD97":2541496.4107900001,"ADDRESS":"永成路三段４６１巷２１弄１０號","OBJECTID":44207},"geometry":{"x":167396.78841200005,"y":2541496.4107880015}},{"attributes":{"ID":44208,"DIS_CODE":0,"TOWNNAME":"東區","LI":"新東里","LIN":"7鄰","STREET":"衛國街","SECT":" ","MAREA":" ","LANE":"１０６巷","ALLEY":"１７弄","HOUSE_NO":"３９號","E_COORD97":170512.94,"N_COORD97":2543029.9199999999,"ADDRESS":"衛國街１０６巷１７弄３９號","OBJECTID":44208},"geometry":{"x":170512.94000000227,"y":2543029.9199999999}},{"attributes":{"ID":44209,"DIS_CODE":0,"TOWNNAME":"東區","LI":"新東里","LIN":"7鄰","STREET":"衛國街","SECT":" ","MAREA":" ","LANE":"１０６巷","ALLEY":"１７弄","HOUSE_NO":"３號","E_COORD97":170416.70999999999,"N_COORD97":2543025.9700000002,"ADDRESS":"衛國街１０６巷１７弄３號","OBJECTID":44209},"geometry":{"x":170416.70999999996,"y":2543025.9700000025}},{"attributes":{"ID":44210,"DIS_CODE":0,"TOWNNAME":"東區","LI":"新東里","LIN":"7鄰","STREET":"衛國街","SECT":" ","MAREA":" ","LANE":"１０６巷","ALLEY":"１７弄","HOUSE_NO":"４１號","E_COORD97":170520.98000000001,"N_COORD97":2543030.8199999998,"ADDRESS":"衛國街１０６巷１７弄４１號","OBJECTID":44210},"geometry":{"x":170520.97999999952,"y":2543030.8200000003}},{"attributes":{"ID":44211,"DIS_CODE":0,"TOWNNAME":"東區","LI":"新東里","LIN":"7鄰","STREET":"衛國街","SECT":" ","MAREA":" ","LANE":"１０６巷","ALLEY":"１７弄","HOUSE_NO":"４３號","E_COORD97":170529.73999999999,"N_COORD97":2543030.1499999999,"ADDRESS":"衛國街１０６巷１７弄４３號","OBJECTID":44211},"geometry":{"x":170529.74000000115,"y":2543030.1500000041}},{"attributes":{"ID":44212,"DIS_CODE":0,"TOWNNAME":"東區","LI":"新東里","LIN":"7鄰","STREET":"衛國街","SECT":" ","MAREA":" ","LANE":"１０６巷","ALLEY":"１７弄","HOUSE_NO":"４５號","E_COORD97":170537.56,"N_COORD97":2543031.1499999999,"ADDRESS":"衛國街１０６巷１７弄４５號","OBJECTID":44212},"geometry":{"x":170537.55999999959,"y":2543031.1500000022}},{"attributes":{"ID":44213,"DIS_CODE":0,"TOWNNAME":"東區","LI":"新東里","LIN":"7鄰","STREET":"衛國街","SECT":" ","MAREA":" ","LANE":"１０６巷","ALLEY":"１７弄","HOUSE_NO":"４７號","E_COORD97":170544.14999999999,"N_COORD97":2543031.71,"ADDRESS":"衛國街１０６巷１７弄４７號","OBJECTID":44213},"geometry":{"x":170544.1500000013,"y":2543031.7100000028}},{"attributes":{"ID":44214,"DIS_CODE":0,"TOWNNAME":"東區","LI":"新東里","LIN":"7鄰","STREET":"衛國街","SECT":" ","MAREA":" ","LANE":"１０６巷","ALLEY":"１７弄","HOUSE_NO":"４９號","E_COORD97":170551.17999999999,"N_COORD97":2543031.9300000002,"ADDRESS":"衛國街１０６巷１７弄４９號","OBJECTID":44214},"geometry":{"x":170551.18000000156,"y":2543031.9300000016}},{"attributes":{"ID":44215,"DIS_CODE":0,"TOWNNAME":"東區","LI":"新東里","LIN":"7鄰","STREET":"衛國街","SECT":" ","MAREA":" ","LANE":"１０６巷","ALLEY":"１７弄","HOUSE_NO":"５１號","E_COORD97":170558.44,"N_COORD97":2543032.71,"ADDRESS":"衛國街１０６巷１７弄５１號","OBJECTID":44215},"geometry":{"x":170558.44000000041,"y":2543032.7100000009}},{"attributes":{"ID":44216,"DIS_CODE":0,"TOWNNAME":"東區","LI":"新東里","LIN":"7鄰","STREET":"衛國街","SECT":" ","MAREA":" ","LANE":"１０６巷","ALLEY":"１７弄","HOUSE_NO":"５３號","E_COORD97":170565.47,"N_COORD97":2543033.6000000001,"ADDRESS":"衛國街１０６巷１７弄５３號","OBJECTID":44216},"geometry":{"x":170565.46999999974,"y":2543033.6000000015}},{"attributes":{"ID":44217,"DIS_CODE":0,"TOWNNAME":"東區","LI":"新東里","LIN":"7鄰","STREET":"衛國街","SECT":" ","MAREA":" ","LANE":"１０６巷","ALLEY":"１７弄","HOUSE_NO":"５７號","E_COORD97":170581.44,"N_COORD97":2543034.27,"ADDRESS":"衛國街１０６巷１７弄５７號","OBJECTID":44217},"geometry":{"x":170581.44000000134,"y":2543034.2699999996}},{"attributes":{"ID":44218,"DIS_CODE":0,"TOWNNAME":"東區","LI":"新東里","LIN":"7鄰","STREET":"衛國街","SECT":" ","MAREA":" ","LANE":"１０６巷","ALLEY":"１７弄","HOUSE_NO":"５９號","E_COORD97":170588.70000000001,"N_COORD97":2543034.9399999999,"ADDRESS":"衛國街１０６巷１７弄５９號","OBJECTID":44218},"geometry":{"x":170588.69999999925,"y":2543034.9400000013}},{"attributes":{"ID":44219,"DIS_CODE":0,"TOWNNAME":"永康區","LI":"網寮里","LIN":"26鄰","STREET":"永大一路","SECT":" ","MAREA":" ","LANE":" ","ALLEY":" ","HOUSE_NO":"１１６號","E_COORD97":174017.56,"N_COORD97":2546418.21,"ADDRESS":"永大一路１１６號","OBJECTID":44219},"geometry":{"x":174017.56000000052,"y":2546418.2100000028}},{"attributes":{"ID":44220,"DIS_CODE":0,"TOWNNAME":"永康區","LI":"東橋里","LIN":"14鄰","STREET":"東橋一路","SECT":" ","MAREA":" ","LANE":" ","ALLEY":" ","HOUSE_NO":"２９０號","E_COORD97":171380.62,"N_COORD97":2546688.7599999998,"ADDRESS":"東橋一路２９０號","OBJECTID":44220},"geometry":{"x":171380.62000000011,"y":2546688.7600000016}},{"attributes":{"ID":44221,"DIS_CODE":0,"TOWNNAME":"永康區","LI":"\u25A0行里","LIN":"20鄰","STREET":"正南五街","SECT":" ","MAREA":" ","LANE":" ","ALLEY":" ","HOUSE_NO":"３８８號","E_COORD97":171803.23000000001,"N_COORD97":2548565.6000000001,"ADDRESS":"正南五街３８８號","OBJECTID":44221},"geometry":{"x":171803.23000000138,"y":2548565.5999999996}},{"attributes":{"ID":44222,"DIS_CODE":0,"TOWNNAME":"永康區","LI":"\u25A0行里","LIN":"43鄰","STREET":"正南三路","SECT":" ","MAREA":" ","LANE":" ","ALLEY":" ","HOUSE_NO":"８５之１號","E_COORD97":171610.39999999999,"N_COORD97":2547714.5099999998,"ADDRESS":"正南三路８５之１號","OBJECTID":44222},"geometry":{"x":171610.4000000013,"y":2547714.5099999998}},{"attributes":{"ID":44223,"DIS_CODE":0,"TOWNNAME":"東區","LI":"新東里","LIN":"7鄰","STREET":"衛國街","SECT":" ","MAREA":" ","LANE":"１０６巷","ALLEY":"１７弄","HOUSE_NO":"５號","E_COORD97":170420.82000000001,"N_COORD97":2543026.29,"ADDRESS":"衛國街１０６巷１７弄５號","OBJECTID":44223},"geometry":{"x":170420.82000000123,"y":2543026.2899999991}},{"attributes":{"ID":44224,"DIS_CODE":0,"TOWNNAME":"東區","LI":"新東里","LIN":"7鄰","STREET":"衛國街","SECT":" ","MAREA":" ","LANE":"１０６巷","ALLEY":"１７弄","HOUSE_NO":"６１號","E_COORD97":170595.07000000001,"N_COORD97":2543035.9500000002,"ADDRESS":"衛國街１０６巷１７弄６１號","OBJECTID":44224},"geometry":{"x":170595.07000000123,"y":2543035.9499999993}},{"attributes":{"ID":44225,"DIS_CODE":0,"TOWNNAME":"東區","LI":"新東里","LIN":"7鄰","STREET":"衛國街","SECT":" ","MAREA":" ","LANE":"１０６巷","ALLEY":"１７弄","HOUSE_NO":"６３號","E_COORD97":170602.20999999999,"N_COORD97":2543036.0600000001,"ADDRESS":"衛國街１０６巷１７弄６３號","OBJECTID":44225},"geometry":{"x":170602.21000000089,"y":2543036.0600000024}},{"attributes":{"ID":44226,"DIS_CODE":0,"TOWNNAME":"東區","LI":"新東里","LIN":"7鄰","STREET":"衛國街","SECT":" ","MAREA":" ","LANE":"１０６巷","ALLEY":"１７弄","HOUSE_NO":"６５號","E_COORD97":170608.47,"N_COORD97":2543036.73,"ADDRESS":"衛國街１０６巷１７弄６５號","OBJECTID":44226},"geometry":{"x":170608.4700000016,"y":2543036.7300000042}},{"attributes":{"ID":44227,"DIS_CODE":0,"TOWNNAME":"東區","LI":"新東里","LIN":"7鄰","STREET":"衛國街","SECT":" ","MAREA":" ","LANE":"１０６巷","ALLEY":"１７弄","HOUSE_NO":"７號","E_COORD97":170425.04000000001,"N_COORD97":2543026.6099999999,"ADDRESS":"衛國街１０６巷１７弄７號","OBJECTID":44227},"geometry":{"x":170425.04000000004,"y":2543026.6100000013}},{"attributes":{"ID":44228,"DIS_CODE":0,"TOWNNAME":"東區","LI":"新東里","LIN":"7鄰","STREET":"衛國街","SECT":" ","MAREA":" ","LANE":"１０６巷","ALLEY":"１７弄","HOUSE_NO":"９號","E_COORD97":170428.95999999999,"N_COORD97":2543026.5800000001,"ADDRESS":"衛國街１０６巷１７弄９號","OBJECTID":44228},"geometry":{"x":170428.95999999996,"y":2543026.5800000001}},{"attributes":{"ID":44229,"DIS_CODE":0,"TOWNNAME":"永康區","LI":"西勢里","LIN":"7鄰","STREET":"富強路","SECT":"一段","MAREA":" ","LANE":"２７９巷","ALLEY":"３１弄","HOUSE_NO":"８號","E_COORD97":175570.23999999999,"N_COORD97":2546614.6400000001,"ADDRESS":"富強路一段２７９巷３１弄８號","OBJECTID":44229},"geometry":{"x":175570.24000000022,"y":2546614.6400000025}},{"attributes":{"ID":44230,"DIS_CODE":0,"TOWNNAME":"永康區","LI":"\u25A0洲里","LIN":"7鄰","STREET":"三村二街","SECT":" ","MAREA":" ","LANE":"１２巷","ALLEY":"１弄","HOUSE_NO":"３７號","E_COORD97":171862.10000000001,"N_COORD97":2549507.4900000002,"ADDRESS":"三村二街１２巷１弄３７號","OBJECTID":44230},"geometry":{"x":171862.10000000149,"y":2549507.4900000021}},{"attributes":{"ID":44231,"DIS_CODE":0,"TOWNNAME":"永康區","LI":"\u25A0洲里","LIN":"7鄰","STREET":"三村二街","SECT":" ","MAREA":" ","LANE":"１２巷","ALLEY":"１弄","HOUSE_NO":"３５號","E_COORD97":171869.41,"N_COORD97":2549503.2400000002,"ADDRESS":"三村二街１２巷１弄３５號","OBJECTID":44231},"geometry":{"x":171869.41000000108,"y":2549503.2400000021}},{"attributes":{"ID":44232,"DIS_CODE":0,"TOWNNAME":"永康區","LI":"\u25A0行里","LIN":"20鄰","STREET":"正南五街","SECT":" ","MAREA":" ","LANE":" ","ALLEY":" ","HOUSE_NO":"３８６號","E_COORD97":171806.17000000001,"N_COORD97":2548562.54,"ADDRESS":"正南五街３８６號","OBJECTID":44232},"geometry":{"x":171806.17000000086,"y":2548562.5399999972}},{"attributes":{"ID":44233,"DIS_CODE":0,"TOWNNAME":"永康區","LI":"網寮里","LIN":"26鄰","STREET":"永大一路","SECT":" ","MAREA":" ","LANE":" ","ALLEY":" ","HOUSE_NO":"１１８號","E_COORD97":174007.17999999999,"N_COORD97":2546419.0699999998,"ADDRESS":"永大一路１１８號","OBJECTID":44233},"geometry":{"x":174007.1799999997,"y":2546419.0700000022}},{"attributes":{"ID":44234,"DIS_CODE":0,"TOWNNAME":"永康區","LI":"龍潭里","LIN":"25鄰","STREET":"中山北路","SECT":" ","MAREA":" ","LANE":" ","ALLEY":" ","HOUSE_NO":"３９５號","E_COORD97":174925.84,"N_COORD97":2547715.0299999998,"ADDRESS":"中山北路３９５號","OBJECTID":44234},"geometry":{"x":174925.84000000078,"y":2547715.0299999993}},{"attributes":{"ID":44235,"DIS_CODE":0,"TOWNNAME":"永康區","LI":"龍潭里","LIN":"25鄰","STREET":"中山北路","SECT":" ","MAREA":" ","LANE":" ","ALLEY":" ","HOUSE_NO":"３９３號","E_COORD97":174921.19,"N_COORD97":2547715.46,"ADDRESS":"中山北路３９３號","OBJECTID":44235},"geometry":{"x":174921.19000000041,"y":2547715.4600000028}},{"attributes":{"ID":44236,"DIS_CODE":0,"TOWNNAME":"永康區","LI":"\u25A0洲里","LIN":"7鄰","STREET":"三村二街","SECT":" ","MAREA":" ","LANE":"１２巷","ALLEY":"１弄","HOUSE_NO":"３９號","E_COORD97":171857.63,"N_COORD97":2549509.7400000002,"ADDRESS":"三村二街１２巷１弄３９號","OBJECTID":44236},"geometry":{"x":171857.63000000082,"y":2549509.7400000021}},{"attributes":{"ID":44237,"DIS_CODE":0,"TOWNNAME":"永康區","LI":"\u25A0洲里","LIN":"7鄰","STREET":"三村二街","SECT":" ","MAREA":" ","LANE":"１２巷","ALLEY":"１弄","HOUSE_NO":"２３號","E_COORD97":171906.84,"N_COORD97":2549482.9900000002,"ADDRESS":"三村二街１２巷１弄２３號","OBJECTID":44237},"geometry":{"x":171906.84000000078,"y":2549482.9900000039}},{"attributes":{"ID":44238,"DIS_CODE":0,"TOWNNAME":"永康區","LI":"網寮里","LIN":"7鄰","STREET":"永二街","SECT":" ","MAREA":" ","LANE":"２４４巷","ALLEY":"２弄","HOUSE_NO":"２２號","E_COORD97":173309.64000000001,"N_COORD97":2546287.3300000001,"ADDRESS":"永二街２４４巷２弄２２號","OBJECTID":44238},"geometry":{"x":173309.6400000006,"y":2546287.3300000019}},{"attributes":{"ID":44239,"DIS_CODE":0,"TOWNNAME":"永康區","LI":"網寮里","LIN":"7鄰","STREET":"永二街","SECT":" ","MAREA":" ","LANE":"２４４巷","ALLEY":"２弄","HOUSE_NO":"７號","E_COORD97":173276.29000000001,"N_COORD97":2546322.1499999999,"ADDRESS":"永二街２４４巷２弄７號","OBJECTID":44239},"geometry":{"x":173276.29000000004,"y":2546322.1499999985}},{"attributes":{"ID":44240,"DIS_CODE":0,"TOWNNAME":"永康區","LI":"網寮里","LIN":"7鄰","STREET":"永二街","SECT":" ","MAREA":" ","LANE":"２４４巷","ALLEY":"２弄","HOUSE_NO":"１５號","E_COORD97":173294.82999999999,"N_COORD97":2546310.6499999999,"ADDRESS":"永二街２４４巷２弄１５號","OBJECTID":44240},"geometry":{"x":173294.83000000007,"y":2546310.6500000004}},{"attributes":{"ID":44241,"DIS_CODE":0,"TOWNNAME":"永康區","LI":"\u25A0行里","LIN":"7鄰","STREET":"中正路","SECT":" ","MAREA":" ","LANE":"７６４巷","ALLEY":"２１弄","HOUSE_NO":"６號","E_COORD97":172439.04000000001,"N_COORD97":2548696.75,"ADDRESS":"中正路７６４巷２１弄６號","OBJECTID":44241},"geometry":{"x":172439.04000000004,"y":2548696.75}},{"attributes":{"ID":44242,"DIS_CODE":0,"TOWNNAME":"仁德區","LI":"太子里","LIN":"7鄰","STREET":"太子路","SECT":" ","MAREA":" ","LANE":"１９０巷","ALLEY":"１４弄","HOUSE_NO":"８號","E_COORD97":174348.37,"N_COORD97":2543631.5499999998,"ADDRESS":"太子路１９０巷１４弄８號","OBJECTID":44242},"geometry":{"x":174348.37000000011,"y":2543631.5500000045}},{"attributes":{"ID":44243,"DIS_CODE":0,"TOWNNAME":"安南區","LI":"原佃里","LIN":"7鄰","STREET":"安吉路","SECT":"一段","MAREA":" ","LANE":"２９０巷","ALLEY":"３２弄","HOUSE_NO":"６０號","E_COORD97":166901.64000000001,"N_COORD97":2549675.52,"ADDRESS":"安吉路一段２９０巷３２弄６０號","OBJECTID":44243},"geometry":{"x":166901.64000000153,"y":2549675.5200000033}},{"attributes":{"ID":44244,"DIS_CODE":0,"TOWNNAME":"安南區","LI":"原佃里","LIN":"7鄰","STREET":"安吉路","SECT":"一段","MAREA":" ","LANE":"２９０巷","ALLEY":"３２弄","HOUSE_NO":"６２號","E_COORD97":166896.62,"N_COORD97":2549676.6099999999,"ADDRESS":"安吉路一段２９０巷３２弄６２號","OBJECTID":44244},"geometry":{"x":166896.62000000011,"y":2549676.6099999994}},{"attributes":{"ID":44245,"DIS_CODE":0,"TOWNNAME":"安南區","LI":"原佃里","LIN":"7鄰","STREET":"安吉路","SECT":"一段","MAREA":" ","LANE":"２９０巷","ALLEY":"３２弄","HOUSE_NO":"６６號","E_COORD97":166891.63,"N_COORD97":2549677.6899999999,"ADDRESS":"安吉路一段２９０巷３２弄６６號","OBJECTID":44245},"geometry":{"x":166891.62999999896,"y":2549677.6900000032}},{"attributes":{"ID":44246,"DIS_CODE":0,"TOWNNAME":"安南區","LI":"原佃里","LIN":"7鄰","STREET":"安吉路","SECT":"一段","MAREA":" ","LANE":"２９０巷","ALLEY":"３２弄","HOUSE_NO":"６８號","E_COORD97":166886.62,"N_COORD97":2549679.8199999998,"ADDRESS":"安吉路一段２９０巷３２弄６８號","OBJECTID":44246},"geometry":{"x":166886.62000000011,"y":2549679.8200000003}},{"attributes":{"ID":44247,"DIS_CODE":0,"TOWNNAME":"新營區","LI":"大宏里","LIN":"16鄰","STREET":"綠川北街","SECT":" ","MAREA":" ","LANE":" ","ALLEY":" ","HOUSE_NO":"６號","E_COORD97":180833.60000000001,"N_COORD97":2578867.8100000001,"ADDRESS":"綠川北街６號","OBJECTID":44247},"geometry":{"x":180833.60000000056,"y":2578867.8100000005}},{"attributes":{"ID":44248,"DIS_CODE":0,"TOWNNAME":"新營區","LI":"民權里","LIN":"14鄰","STREET":"三民路","SECT":" ","MAREA":" ","LANE":" ","ALLEY":" ","HOUSE_NO":"８９之２號","E_COORD97":179793.07999999999,"N_COORD97":2578433.1099999999,"ADDRESS":"三民路８９之２號","OBJECTID":44248},"geometry":{"x":179793.08000000101,"y":2578433.1100000013}},{"attributes":{"ID":44249,"DIS_CODE":0,"TOWNNAME":"北門區","LI":"三光里","LIN":"15鄰","STREET":" ","SECT":" ","MAREA":"蘆竹溝","LANE":" ","ALLEY":" ","HOUSE_NO":"３３０號","E_COORD97":157591.26999999999,"N_COORD97":2570433.75,"ADDRESS":"蘆竹溝３３０號","OBJECTID":44249},"geometry":{"x":157591.27000000048,"y":2570433.7500000037}},{"attributes":{"ID":44250,"DIS_CODE":0,"TOWNNAME":"北門區","LI":"三光里","LIN":"15鄰","STREET":" ","SECT":" ","MAREA":"蘆竹溝","LANE":" ","ALLEY":" ","HOUSE_NO":"３３３號","E_COORD97":157572.01000000001,"N_COORD97":2570432.3300000001,"ADDRESS":"蘆竹溝３３３號","OBJECTID":44250},"geometry":{"x":157572.00999999978,"y":2570432.3300000001}},{"attributes":{"ID":44251,"DIS_CODE":0,"TOWNNAME":"安南區","LI":"原佃里","LIN":"7鄰","STREET":"安吉路","SECT":"一段","MAREA":" ","LANE":"２９０巷","ALLEY":"３２弄","HOUSE_NO":"７０號","E_COORD97":166880.78,"N_COORD97":2549678.8999999999,"ADDRESS":"安吉路一段２９０巷３２弄７０號","OBJECTID":44251},"geometry":{"x":166880.78000000026,"y":2549678.9000000004}},{"attributes":{"ID":44252,"DIS_CODE":0,"TOWNNAME":"安南區","LI":"原佃里","LIN":"7鄰","STREET":"安吉路","SECT":"一段","MAREA":" ","LANE":"２９０巷","ALLEY":"３２弄","HOUSE_NO":"７２號","E_COORD97":166875.59,"N_COORD97":2549657.48,"ADDRESS":"安吉路一段２９０巷３２弄７２號","OBJECTID":44252},"geometry":{"x":166875.59000000078,"y":2549657.4800000023}},{"attributes":{"ID":44253,"DIS_CODE":0,"TOWNNAME":"安南區","LI":"原佃里","LIN":"7鄰","STREET":"安吉路","SECT":"一段","MAREA":" ","LANE":"２９０巷","ALLEY":"３２弄","HOUSE_NO":"７６號","E_COORD97":166881.44,"N_COORD97":2549656.6099999999,"ADDRESS":"安吉路一段２９０巷３２弄７６號","OBJECTID":44253},"geometry":{"x":166881.44000000041,"y":2549656.6099999994}},{"attributes":{"ID":44254,"DIS_CODE":0,"TOWNNAME":"安南區","LI":"原佃里","LIN":"7鄰","STREET":"安吉路","SECT":"一段","MAREA":" ","LANE":"２９０巷","ALLEY":"３２弄","HOUSE_NO":"７８號","E_COORD97":166886.25,"N_COORD97":2549655.4700000002,"ADDRESS":"安吉路一段２９０巷３２弄７８號","OBJECTID":44254},"geometry":{"x":166886.25000000093,"y":2549655.4700000007}},{"attributes":{"ID":44255,"DIS_CODE":0,"TOWNNAME":"安南區","LI":"原佃里","LIN":"7鄰","STREET":"安吉路","SECT":"一段","MAREA":" ","LANE":"２９０巷","ALLEY":"３２弄","HOUSE_NO":"８０號","E_COORD97":166891.20999999999,"N_COORD97":2549653.1899999999,"ADDRESS":"安吉路一段２９０巷３２弄８０號","OBJECTID":44255},"geometry":{"x":166891.20999999903,"y":2549653.1899999995}},{"attributes":{"ID":44256,"DIS_CODE":0,"TOWNNAME":"安南區","LI":"原佃里","LIN":"7鄰","STREET":"安吉路","SECT":"一段","MAREA":" ","LANE":"２９０巷","ALLEY":"３２弄","HOUSE_NO":"８２號","E_COORD97":166896.57000000001,"N_COORD97":2549653.0299999998,"ADDRESS":"安吉路一段２９０巷３２弄８２號","OBJECTID":44256},"geometry":{"x":166896.57000000123,"y":2549653.0300000012}},{"attributes":{"ID":44257,"DIS_CODE":0,"TOWNNAME":"安南區","LI":"原佃里","LIN":"7鄰","STREET":"安吉路","SECT":"一段","MAREA":" ","LANE":"２９０巷","ALLEY":"３２弄","HOUSE_NO":"８６號","E_COORD97":166901.39000000001,"N_COORD97":2549651.8799999999,"ADDRESS":"安吉路一段２９０巷３２弄８６號","OBJECTID":44257},"geometry":{"x":166901.38999999966,"y":2549651.8800000027}},{"attributes":{"ID":44258,"DIS_CODE":0,"TOWNNAME":"安南區","LI":"原佃里","LIN":"7鄰","STREET":"安吉路","SECT":"一段","MAREA":" ","LANE":"２９０巷","ALLEY":"３２弄","HOUSE_NO":"８８號","E_COORD97":166906.20999999999,"N_COORD97":2549650.7400000002,"ADDRESS":"安吉路一段２９０巷３２弄８８號","OBJECTID":44258},"geometry":{"x":166906.20999999996,"y":2549650.7399999984}},{"attributes":{"ID":44259,"DIS_CODE":0,"TOWNNAME":"安南區","LI":"東和里","LIN":"7鄰","STREET":"環館北路","SECT":" ","MAREA":" ","LANE":"８４９巷","ALLEY":"２弄","HOUSE_NO":"９號","E_COORD97":171053.32999999999,"N_COORD97":2551466.77,"ADDRESS":"環館北路８４９巷２弄９號","OBJECTID":44259},"geometry":{"x":171053.33000000007,"y":2551466.7699999996}},{"attributes":{"ID":44260,"DIS_CODE":0,"TOWNNAME":"安南區","LI":"原佃里","LIN":"7鄰","STREET":"安吉路","SECT":"一段","MAREA":" ","LANE":"２９０巷","ALLEY":"３２弄","HOUSE_NO":"９０號","E_COORD97":166911.88,"N_COORD97":2549649.8999999999,"ADDRESS":"安吉路一段２９０巷３２弄９０號","OBJECTID":44260},"geometry":{"x":166911.87999999989,"y":2549649.9000000041}},{"attributes":{"ID":44261,"DIS_CODE":0,"TOWNNAME":"安南區","LI":"原佃里","LIN":"7鄰","STREET":"安吉路","SECT":"一段","MAREA":" ","LANE":"２９０巷","ALLEY":"３２弄","HOUSE_NO":"９２號","E_COORD97":166918.56,"N_COORD97":2549658.02,"ADDRESS":"安吉路一段２９０巷３２弄９２號","OBJECTID":44261},"geometry":{"x":166918.55999999959,"y":2549658.0199999996}},{"attributes":{"ID":44262,"DIS_CODE":0,"TOWNNAME":"安南區","LI":"原佃里","LIN":"7鄰","STREET":"安吉路","SECT":"一段","MAREA":" ","LANE":"２９０巷","ALLEY":"３２弄","HOUSE_NO":"１５６號","E_COORD97":167009.39999999999,"N_COORD97":2549637.79,"ADDRESS":"安吉路一段２９０巷３２弄１５６號","OBJECTID":44262},"geometry":{"x":167009.4000000013,"y":2549637.7899999991}},{"attributes":{"ID":44263,"DIS_CODE":0,"TOWNNAME":"安南區","LI":"原佃里","LIN":"7鄰","STREET":"安吉路","SECT":"一段","MAREA":" ","LANE":"２９０巷","ALLEY":"３２弄","HOUSE_NO":"１５８號","E_COORD97":167013.79000000001,"N_COORD97":2549638.3300000001,"ADDRESS":"安吉路一段２９０巷３２弄１５８號","OBJECTID":44263},"geometry":{"x":167013.79000000004,"y":2549638.3300000001}},{"attributes":{"ID":44264,"DIS_CODE":0,"TOWNNAME":"安南區","LI":"原佃里","LIN":"7鄰","STREET":"安吉路","SECT":"一段","MAREA":" ","LANE":"２９０巷","ALLEY":"３２弄","HOUSE_NO":"１６０號","E_COORD97":167018.14999999999,"N_COORD97":2549630.9900000002,"ADDRESS":"安吉路一段２９０巷３２弄１６０號","OBJECTID":44264},"geometry":{"x":167018.1500000013,"y":2549630.9900000002}},{"attributes":{"ID":44265,"DIS_CODE":0,"TOWNNAME":"安南區","LI":"原佃里","LIN":"7鄰","STREET":"安吉路","SECT":"一段","MAREA":" ","LANE":"２９０巷","ALLEY":"３２弄","HOUSE_NO":"１６２號","E_COORD97":167023.60000000001,"N_COORD97":2549629.7000000002,"ADDRESS":"安吉路一段２９０巷３２弄１６２號","OBJECTID":44265},"geometry":{"x":167023.59999999963,"y":2549629.700000003}},{"attributes":{"ID":44266,"DIS_CODE":0,"TOWNNAME":"安南區","LI":"原佃里","LIN":"7鄰","STREET":"安吉路","SECT":"一段","MAREA":" ","LANE":"２９０巷","ALLEY":"３２弄","HOUSE_NO":"１６６號","E_COORD97":167029.26999999999,"N_COORD97":2549630.7200000002,"ADDRESS":"安吉路一段２９０巷３２弄１６６號","OBJECTID":44266},"geometry":{"x":167029.26999999955,"y":2549630.7200000007}},{"attributes":{"ID":44267,"DIS_CODE":0,"TOWNNAME":"安南區","LI":"原佃里","LIN":"7鄰","STREET":"安吉路","SECT":"一段","MAREA":" ","LANE":"２９０巷","ALLEY":"３２弄","HOUSE_NO":"１６８號","E_COORD97":167037.59,"N_COORD97":2549628.21,"ADDRESS":"安吉路一段２９０巷３２弄１６８號","OBJECTID":44267},"geometry":{"x":167037.58999999985,"y":2549628.2100000046}},{"attributes":{"ID":44268,"DIS_CODE":0,"TOWNNAME":"安南區","LI":"州北里","LIN":"7鄰","STREET":"安和路","SECT":"五段","MAREA":" ","LANE":"３３６巷","ALLEY":"２７弄","HOUSE_NO":"１９號","E_COORD97":169725.73000000001,"N_COORD97":2552280.8799999999,"ADDRESS":"安和路五段３３６巷２７弄１９號","OBJECTID":44268},"geometry":{"x":169725.73000000045,"y":2552280.8800000008}},{"attributes":{"ID":44269,"DIS_CODE":0,"TOWNNAME":"安南區","LI":"州北里","LIN":"7鄰","STREET":"安和路","SECT":"五段","MAREA":" ","LANE":"３３６巷","ALLEY":"２７弄","HOUSE_NO":"２１號","E_COORD97":169726.89999999999,"N_COORD97":2552288.1299999999,"ADDRESS":"安和路五段３３６巷２７弄２１號","OBJECTID":44269},"geometry":{"x":169726.9000000013,"y":2552288.1300000027}},{"attributes":{"ID":44270,"DIS_CODE":0,"TOWNNAME":"安南區","LI":"州北里","LIN":"7鄰","STREET":"安和路","SECT":"五段","MAREA":" ","LANE":"３３６巷","ALLEY":"２７弄","HOUSE_NO":"２３號","E_COORD97":169725.57000000001,"N_COORD97":2552295.2400000002,"ADDRESS":"安和路五段３３６巷２７弄２３號","OBJECTID":44270},"geometry":{"x":169725.57000000123,"y":2552295.2399999984}},{"attributes":{"ID":44271,"DIS_CODE":0,"TOWNNAME":"東區","LI":"東明里","LIN":"17鄰","STREET":"東安路","SECT":" ","MAREA":" ","LANE":"７６巷","ALLEY":" ","HOUSE_NO":"８號三樓","E_COORD97":170742.81,"N_COORD97":2543656.8300000001,"ADDRESS":"東安路７６巷８號三樓","OBJECTID":44271},"geometry":{"x":170742.80999999959,"y":2543656.8300000019}},{"attributes":{"ID":44272,"DIS_CODE":0,"TOWNNAME":"歸仁區","LI":"六甲里","LIN":"8鄰","STREET":"中正十五街","SECT":" ","MAREA":" ","LANE":" ","ALLEY":" ","HOUSE_NO":"９４號","E_COORD97":176484.01000000001,"N_COORD97":2539459.25,"ADDRESS":"中正十五街９４號","OBJECTID":44272},"geometry":{"x":176484.01000000071,"y":2539459.2500000037}},{"attributes":{"ID":44273,"DIS_CODE":0,"TOWNNAME":"歸仁區","LI":"文化里","LIN":"8鄰","STREET":"民權一街","SECT":" ","MAREA":" ","LANE":" ","ALLEY":" ","HOUSE_NO":"４５號","E_COORD97":177166.75,"N_COORD97":2541360.3300000001,"ADDRESS":"民權一街４５號","OBJECTID":44273},"geometry":{"x":177166.75,"y":2541360.3300000001}},{"attributes":{"ID":44274,"DIS_CODE":0,"TOWNNAME":"歸仁區","LI":"六甲里","LIN":"8鄰","STREET":"中正十五街","SECT":" ","MAREA":" ","LANE":" ","ALLEY":" ","HOUSE_NO":"１１４號","E_COORD97":176494.76000000001,"N_COORD97":2539518.25,"ADDRESS":"中正十五街１１４號","OBJECTID":44274},"geometry":{"x":176494.76000000071,"y":2539518.2500000019}},{"attributes":{"ID":44275,"DIS_CODE":0,"TOWNNAME":"歸仁區","LI":"六甲里","LIN":"8鄰","STREET":"中正十五街","SECT":" ","MAREA":" ","LANE":" ","ALLEY":" ","HOUSE_NO":"１１０號","E_COORD97":176492.66,"N_COORD97":2539506.25,"ADDRESS":"中正十五街１１０號","OBJECTID":44275},"geometry":{"x":176492.66000000015,"y":2539506.25}},{"attributes":{"ID":44276,"DIS_CODE":0,"TOWNNAME":"玉井區","LI":"中正里","LIN":"8鄰","STREET":"中正路","SECT":" ","MAREA":" ","LANE":" ","ALLEY":" ","HOUSE_NO":"５７３號","E_COORD97":195679.56,"N_COORD97":2558829.2400000002,"ADDRESS":"中正路５７３號","OBJECTID":44276},"geometry":{"x":195679.56000000145,"y":2558829.2400000021}},{"attributes":{"ID":44277,"DIS_CODE":0,"TOWNNAME":"玉井區","LI":"中正里","LIN":"8鄰","STREET":"中正路","SECT":" ","MAREA":" ","LANE":" ","ALLEY":" ","HOUSE_NO":"５７９號","E_COORD97":195692.64999999999,"N_COORD97":2558843.25,"ADDRESS":"中正路５７９號","OBJECTID":44277},"geometry":{"x":195692.65000000037,"y":2558843.2500000019}},{"attributes":{"ID":44278,"DIS_CODE":0,"TOWNNAME":"玉井區","LI":"中正里","LIN":"8鄰","STREET":"中正路","SECT":" ","MAREA":" ","LANE":" ","ALLEY":" ","HOUSE_NO":"５７１號","E_COORD97":195675.35000000001,"N_COORD97":2558825.2400000002,"ADDRESS":"中正路５７１號","OBJECTID":44278},"geometry":{"x":195675.34999999963,"y":2558825.2400000039}},{"attributes":{"ID":44279,"DIS_CODE":0,"TOWNNAME":"玉井區","LI":"中正里","LIN":"8鄰","STREET":"中正路","SECT":" ","MAREA":" ","LANE":" ","ALLEY":" ","HOUSE_NO":"５７７號","E_COORD97":195688.54999999999,"N_COORD97":2558838.25,"ADDRESS":"中正路５７７號","OBJECTID":44279},"geometry":{"x":195688.55000000075,"y":2558838.2499999981}},{"attributes":{"ID":44280,"DIS_CODE":0,"TOWNNAME":"安南區","LI":"州北里","LIN":"7鄰","STREET":"安和路","SECT":"五段","MAREA":" ","LANE":"３３６巷","ALLEY":"２７弄","HOUSE_NO":"２５號","E_COORD97":169725.48000000001,"N_COORD97":2552303.3599999999,"ADDRESS":"安和路五段３３６巷２７弄２５號","OBJECTID":44280},"geometry":{"x":169725.48000000045,"y":2552303.3599999994}},{"attributes":{"ID":44281,"DIS_CODE":0,"TOWNNAME":"安南區","LI":"州北里","LIN":"7鄰","STREET":"安和路","SECT":"五段","MAREA":" ","LANE":"３３６巷","ALLEY":"２７弄","HOUSE_NO":"２７號","E_COORD97":169725.92000000001,"N_COORD97":2552310.23,"ADDRESS":"安和路五段３３６巷２７弄２７號","OBJECTID":44281},"geometry":{"x":169725.92000000179,"y":2552310.2300000023}},{"attributes":{"ID":44282,"DIS_CODE":0,"TOWNNAME":"安南區","LI":"州北里","LIN":"7鄰","STREET":"安和路","SECT":"五段","MAREA":" ","LANE":"３３６巷","ALLEY":"２７弄","HOUSE_NO":"２９號","E_COORD97":169725.31,"N_COORD97":2552317.7400000002,"ADDRESS":"安和路五段３３６巷２７弄２９號","OBJECTID":44282},"geometry":{"x":169725.31000000052,"y":2552317.7400000002}},{"attributes":{"ID":44283,"DIS_CODE":0,"TOWNNAME":"安南區","LI":"州北里","LIN":"7鄰","STREET":"安和路","SECT":"五段","MAREA":" ","LANE":"３３６巷","ALLEY":"２７弄","HOUSE_NO":"３１號","E_COORD97":169725.20999999999,"N_COORD97":2552325.8799999999,"ADDRESS":"安和路五段３３６巷２７弄３１號","OBJECTID":44283},"geometry":{"x":169725.20999999996,"y":2552325.879999999}},{"attributes":{"ID":44284,"DIS_CODE":0,"TOWNNAME":"安南區","LI":"州北里","LIN":"7鄰","STREET":"安和路","SECT":"五段","MAREA":" ","LANE":"３３６巷","ALLEY":"２７弄","HOUSE_NO":"３３號","E_COORD97":169726.17999999999,"N_COORD97":2552333.9700000002,"ADDRESS":"安和路五段３３６巷２７弄３３號","OBJECTID":44284},"geometry":{"x":169726.18000000063,"y":2552333.9700000007}},{"attributes":{"ID":44285,"DIS_CODE":0,"TOWNNAME":"安南區","LI":"原佃里","LIN":"7鄰","STREET":"安中路","SECT":"二段","MAREA":" ","LANE":"２巷","ALLEY":"１１７弄","HOUSE_NO":"９號","E_COORD97":167240.92999999999,"N_COORD97":2549874.6200000001,"ADDRESS":"安中路二段２巷１１７弄９號","OBJECTID":44285},"geometry":{"x":167240.93000000063,"y":2549874.6200000029}},{"attributes":{"ID":44286,"DIS_CODE":0,"TOWNNAME":"安南區","LI":"原佃里","LIN":"7鄰","STREET":"安中路","SECT":"二段","MAREA":" ","LANE":"２巷","ALLEY":"１１７弄","HOUSE_NO":"１１號","E_COORD97":167236.10000000001,"N_COORD97":2549884.21,"ADDRESS":"安中路二段２巷１１７弄１１號","OBJECTID":44286},"geometry":{"x":167236.10000000056,"y":2549884.2100000009}},{"attributes":{"ID":44287,"DIS_CODE":0,"TOWNNAME":"新市區","LI":"大營里","LIN":"15鄰","STREET":" ","SECT":" ","MAREA":"大營","LANE":" ","ALLEY":" ","HOUSE_NO":"２８２號","E_COORD97":179042.95999999999,"N_COORD97":2555486.75,"ADDRESS":"大營２８２號","OBJECTID":44287},"geometry":{"x":179042.96000000089,"y":2555486.7500000019}},{"attributes":{"ID":44288,"DIS_CODE":0,"TOWNNAME":"安南區","LI":"原佃里","LIN":"7鄰","STREET":"安中路","SECT":"二段","MAREA":" ","LANE":"２巷","ALLEY":"１１７弄","HOUSE_NO":"１３號","E_COORD97":167231.82999999999,"N_COORD97":2549894.6499999999,"ADDRESS":"安中路二段２巷１１７弄１３號","OBJECTID":44288},"geometry":{"x":167231.83000000101,"y":2549894.6500000004}},{"attributes":{"ID":44289,"DIS_CODE":0,"TOWNNAME":"安南區","LI":"原佃里","LIN":"7鄰","STREET":"安中路","SECT":"二段","MAREA":" ","LANE":"２巷","ALLEY":"１１７弄","HOUSE_NO":"１５號","E_COORD97":167227,"N_COORD97":2549904.2400000002,"ADDRESS":"安中路二段２巷１１７弄１５號","OBJECTID":44289},"geometry":{"x":167227.00000000093,"y":2549904.2400000002}},{"attributes":{"ID":44290,"DIS_CODE":0,"TOWNNAME":"安南區","LI":"原佃里","LIN":"7鄰","STREET":"安中路","SECT":"二段","MAREA":" ","LANE":"２巷","ALLEY":"１１７弄","HOUSE_NO":"１７號","E_COORD97":167222.72,"N_COORD97":2549914.6800000002,"ADDRESS":"安中路二段２巷１１７弄１７號","OBJECTID":44290},"geometry":{"x":167222.71999999974,"y":2549914.6799999997}},{"attributes":{"ID":44291,"DIS_CODE":0,"TOWNNAME":"安南區","LI":"原佃里","LIN":"7鄰","STREET":"安中路","SECT":"二段","MAREA":" ","LANE":"２巷","ALLEY":"１１７弄","HOUSE_NO":"１９號","E_COORD97":167217.89000000001,"N_COORD97":2549924.27,"ADDRESS":"安中路二段２巷１１７弄１９號","OBJECTID":44291},"geometry":{"x":167217.88999999966,"y":2549924.2699999996}},{"attributes":{"ID":44292,"DIS_CODE":0,"TOWNNAME":"安南區","LI":"原佃里","LIN":"7鄰","STREET":"安中路","SECT":"二段","MAREA":" ","LANE":"２巷","ALLEY":"１１７弄","HOUSE_NO":"２１號","E_COORD97":167213.62,"N_COORD97":2549934.71,"ADDRESS":"安中路二段２巷１１７弄２１號","OBJECTID":44292},"geometry":{"x":167213.62000000011,"y":2549934.7100000028}},{"attributes":{"ID":44293,"DIS_CODE":0,"TOWNNAME":"安南區","LI":"原佃里","LIN":"7鄰","STREET":"安中路","SECT":"二段","MAREA":" ","LANE":"２巷","ALLEY":"１１７弄","HOUSE_NO":"２３號","E_COORD97":167206.78,"N_COORD97":2549944.5899999999,"ADDRESS":"安中路二段２巷１１７弄２３號","OBJECTID":44293},"geometry":{"x":167206.78000000119,"y":2549944.5900000017}},{"attributes":{"ID":44294,"DIS_CODE":0,"TOWNNAME":"安南區","LI":"原佃里","LIN":"7鄰","STREET":"安中路","SECT":"二段","MAREA":" ","LANE":"２巷","ALLEY":"１１７弄","HOUSE_NO":"２５號","E_COORD97":167205.78,"N_COORD97":2549957.0600000001,"ADDRESS":"安中路二段２巷１１７弄２５號","OBJECTID":44294},"geometry":{"x":167205.78000000026,"y":2549957.0600000005}},{"attributes":{"ID":44295,"DIS_CODE":0,"TOWNNAME":"安南區","LI":"原佃里","LIN":"7鄰","STREET":"安中路","SECT":"二段","MAREA":" ","LANE":"２巷","ALLEY":"１１７弄","HOUSE_NO":"２號","E_COORD97":167297.59,"N_COORD97":2549838.3300000001,"ADDRESS":"安中路二段２巷１１７弄２號","OBJECTID":44295},"geometry":{"x":167297.59000000078,"y":2549838.3300000001}},{"attributes":{"ID":44296,"DIS_CODE":0,"TOWNNAME":"安南區","LI":"原佃里","LIN":"7鄰","STREET":"安中路","SECT":"二段","MAREA":" ","LANE":"２巷","ALLEY":"１１７弄","HOUSE_NO":"６號","E_COORD97":167292.64000000001,"N_COORD97":2549855.4199999999,"ADDRESS":"安中路二段２巷１１７弄６號","OBJECTID":44296},"geometry":{"x":167292.63999999966,"y":2549855.4199999999}},{"attributes":{"ID":44297,"DIS_CODE":0,"TOWNNAME":"安南區","LI":"原佃里","LIN":"7鄰","STREET":"安中路","SECT":"二段","MAREA":" ","LANE":"２巷","ALLEY":"１１７弄","HOUSE_NO":"８號","E_COORD97":167286.32000000001,"N_COORD97":2549869.25,"ADDRESS":"安中路二段２巷１１７弄８號","OBJECTID":44297},"geometry":{"x":167286.32000000123,"y":2549869.2500000019}},{"attributes":{"ID":44298,"DIS_CODE":0,"TOWNNAME":"安南區","LI":"原佃里","LIN":"7鄰","STREET":"安中路","SECT":"二段","MAREA":" ","LANE":"２巷","ALLEY":"１１７弄","HOUSE_NO":"１０號","E_COORD97":167281.42999999999,"N_COORD97":2549881.2400000002,"ADDRESS":"安中路二段２巷１１７弄１０號","OBJECTID":44298},"geometry":{"x":167281.43000000063,"y":2549881.2399999984}},{"attributes":{"ID":44299,"DIS_CODE":0,"TOWNNAME":"安南區","LI":"原佃里","LIN":"7鄰","STREET":"安中路","SECT":"二段","MAREA":" ","LANE":"２巷","ALLEY":"１１７弄","HOUSE_NO":"１２號","E_COORD97":167274.54999999999,"N_COORD97":2549891.25,"ADDRESS":"安中路二段２巷１１７弄１２號","OBJECTID":44299},"geometry":{"x":167274.54999999981,"y":2549891.2500000037}},{"attributes":{"ID":44300,"DIS_CODE":0,"TOWNNAME":"新營區","LI":"新北里","LIN":"17鄰","STREET":"南新街","SECT":" ","MAREA":" ","LANE":" ","ALLEY":" ","HOUSE_NO":"１３７號","E_COORD97":179241.79999999999,"N_COORD97":2578932.9300000002,"ADDRESS":"南新街１３７號","OBJECTID":44300},"geometry":{"x":179241.80000000168,"y":2578932.9300000016}},{"attributes":{"ID":44301,"DIS_CODE":0,"TOWNNAME":"新營區","LI":"三仙里","LIN":"24鄰","STREET":"育德一街","SECT":" ","MAREA":" ","LANE":" ","ALLEY":" ","HOUSE_NO":"５１號","E_COORD97":179468.54000000001,"N_COORD97":2578906.3599999999,"ADDRESS":"育德一街５１號","OBJECTID":44301},"geometry":{"x":179468.54000000004,"y":2578906.3600000013}},{"attributes":{"ID":44302,"DIS_CODE":0,"TOWNNAME":"永康區","LI":"網寮里","LIN":"26鄰","STREET":"永大一路","SECT":" ","MAREA":" ","LANE":" ","ALLEY":" ","HOUSE_NO":"１１２號","E_COORD97":174024.38,"N_COORD97":2546419.8700000001,"ADDRESS":"永大一路１１２號","OBJECTID":44302},"geometry":{"x":174024.37999999989,"y":2546419.8700000048}},{"attributes":{"ID":44303,"DIS_CODE":0,"TOWNNAME":"永康區","LI":"北灣里","LIN":"25鄰","STREET":"大同街","SECT":" ","MAREA":" ","LANE":" ","ALLEY":" ","HOUSE_NO":"５３號","E_COORD97":175206.28,"N_COORD97":2545410.3300000001,"ADDRESS":"大同街５３號","OBJECTID":44303},"geometry":{"x":175206.28000000119,"y":2545410.3300000019}},{"attributes":{"ID":44304,"DIS_CODE":0,"TOWNNAME":"永康區","LI":"龍潭里","LIN":"25鄰","STREET":"中山北路","SECT":" ","MAREA":" ","LANE":" ","ALLEY":" ","HOUSE_NO":"３９９號","E_COORD97":174935.26999999999,"N_COORD97":2547722.46,"ADDRESS":"中山北路３９９號","OBJECTID":44304},"geometry":{"x":174935.26999999955,"y":2547722.4600000028}},{"attributes":{"ID":44305,"DIS_CODE":0,"TOWNNAME":"永康區","LI":"埔園里","LIN":"34鄰","STREET":"八德街","SECT":" ","MAREA":" ","LANE":" ","ALLEY":" ","HOUSE_NO":"６８號","E_COORD97":174236.39999999999,"N_COORD97":2548524.6099999999,"ADDRESS":"八德街６８號","OBJECTID":44305},"geometry":{"x":174236.4000000013,"y":2548524.6099999994}},{"attributes":{"ID":44306,"DIS_CODE":0,"TOWNNAME":"永康區","LI":"埔園里","LIN":"38鄰","STREET":"龍國街","SECT":" ","MAREA":" ","LANE":" ","ALLEY":" ","HOUSE_NO":"１２０號","E_COORD97":174202.32999999999,"N_COORD97":2548056.8799999999,"ADDRESS":"龍國街１２０號","OBJECTID":44306},"geometry":{"x":174202.33000000101,"y":2548056.879999999}},{"attributes":{"ID":44307,"DIS_CODE":0,"TOWNNAME":"永康區","LI":"\u25A0行里","LIN":"20鄰","STREET":"正南五街","SECT":" ","MAREA":" ","LANE":" ","ALLEY":" ","HOUSE_NO":"３９２號","E_COORD97":171797.32999999999,"N_COORD97":2548571.73,"ADDRESS":"正南五街３９２號","OBJECTID":44307},"geometry":{"x":171797.33000000007,"y":2548571.7300000004}},{"attributes":{"ID":44308,"DIS_CODE":0,"TOWNNAME":"永康區","LI":"\u25A0行里","LIN":"20鄰","STREET":"正南五街","SECT":" ","MAREA":" ","LANE":" ","ALLEY":" ","HOUSE_NO":"３８２號","E_COORD97":171809.12,"N_COORD97":2548559.48,"ADDRESS":"正南五街３８２號","OBJECTID":44308},"geometry":{"x":171809.12000000011,"y":2548559.4800000023}},{"attributes":{"ID":44309,"DIS_CODE":0,"TOWNNAME":"永康區","LI":"永康里","LIN":"42鄰","STREET":"永大五路","SECT":" ","MAREA":" ","LANE":" ","ALLEY":" ","HOUSE_NO":"３０號","E_COORD97":174223.25,"N_COORD97":2546773.04,"ADDRESS":"永大五路３０號","OBJECTID":44309},"geometry":{"x":174223.25000000093,"y":2546773.040000001}},{"attributes":{"ID":44310,"DIS_CODE":0,"TOWNNAME":"北門區","LI":"三光里","LIN":"15鄰","STREET":" ","SECT":" ","MAREA":"蘆竹溝","LANE":" ","ALLEY":" ","HOUSE_NO":"３３５號","E_COORD97":157580.44,"N_COORD97":2570417.1899999999,"ADDRESS":"蘆竹溝３３５號","OBJECTID":44310},"geometry":{"x":157580.44000000134,"y":2570417.1900000013}},{"attributes":{"ID":44311,"DIS_CODE":0,"TOWNNAME":"北門區","LI":"玉港里","LIN":"15鄰","STREET":" ","SECT":" ","MAREA":"西埔內","LANE":" ","ALLEY":" ","HOUSE_NO":"１３號","E_COORD97":162128.44,"N_COORD97":2573783.0499999998,"ADDRESS":"西埔內１３號","OBJECTID":44311},"geometry":{"x":162128.44000000227,"y":2573783.0500000026}},{"attributes":{"ID":44312,"DIS_CODE":0,"TOWNNAME":"官田區","LI":"二鎮里","LIN":"1鄰","STREET":" ","SECT":" ","MAREA":"二鎮","LANE":" ","ALLEY":" ","HOUSE_NO":"５號","E_COORD97":181231.48999999999,"N_COORD97":2568123.7400000002,"ADDRESS":"二鎮５號","OBJECTID":44312},"geometry":{"x":181231.49000000115,"y":2568123.7400000002}},{"attributes":{"ID":44313,"DIS_CODE":0,"TOWNNAME":"安南區","LI":"原佃里","LIN":"7鄰","STREET":"安中路","SECT":"二段","MAREA":" ","LANE":"２巷","ALLEY":"１１７弄","HOUSE_NO":"１６號","E_COORD97":167272.10000000001,"N_COORD97":2549901.7799999998,"ADDRESS":"安中路二段２巷１１７弄１６號","OBJECTID":44313},"geometry":{"x":167272.10000000056,"y":2549901.7800000012}},{"attributes":{"ID":44314,"DIS_CODE":0,"TOWNNAME":"安南區","LI":"原佃里","LIN":"7鄰","STREET":"安中路","SECT":"二段","MAREA":" ","LANE":"２巷","ALLEY":"１１７弄","HOUSE_NO":"１８號","E_COORD97":167265.44,"N_COORD97":2549911.27,"ADDRESS":"安中路二段２巷１１７弄１８號","OBJECTID":44314},"geometry":{"x":167265.44000000134,"y":2549911.2700000033}},{"attributes":{"ID":44315,"DIS_CODE":0,"TOWNNAME":"安南區","LI":"原佃里","LIN":"7鄰","STREET":"安中路","SECT":"二段","MAREA":" ","LANE":"２巷","ALLEY":"１１７弄","HOUSE_NO":"２０號","E_COORD97":167263,"N_COORD97":2549921.8100000001,"ADDRESS":"安中路二段２巷１１７弄２０號","OBJECTID":44315},"geometry":{"x":167263.00000000093,"y":2549921.8099999987}},{"attributes":{"ID":44316,"DIS_CODE":0,"TOWNNAME":"安南區","LI":"原佃里","LIN":"7鄰","STREET":"安中路","SECT":"二段","MAREA":" ","LANE":"２巷","ALLEY":"１１７弄","HOUSE_NO":"２２號","E_COORD97":167256.34,"N_COORD97":2549931.2999999998,"ADDRESS":"安中路二段２巷１１７弄２２號","OBJECTID":44316},"geometry":{"x":167256.33999999892,"y":2549931.3000000007}},{"attributes":{"ID":44317,"DIS_CODE":0,"TOWNNAME":"安南區","LI":"原佃里","LIN":"7鄰","STREET":"安中路","SECT":"二段","MAREA":" ","LANE":"２巷","ALLEY":"１１７弄","HOUSE_NO":"２６號","E_COORD97":167253.89999999999,"N_COORD97":2549941.8399999999,"ADDRESS":"安中路二段２巷１１７弄２６號","OBJECTID":44317},"geometry":{"x":167253.9000000013,"y":2549941.8400000017}},{"attributes":{"ID":44318,"DIS_CODE":0,"TOWNNAME":"安南區","LI":"原佃里","LIN":"7鄰","STREET":"安中路","SECT":"二段","MAREA":" ","LANE":"２巷","ALLEY":"１１７弄","HOUSE_NO":"２８號","E_COORD97":167247.23999999999,"N_COORD97":2549951.3300000001,"ADDRESS":"安中路二段２巷１１７弄２８號","OBJECTID":44318},"geometry":{"x":167247.23999999929,"y":2549951.3300000001}},{"attributes":{"ID":44319,"DIS_CODE":0,"TOWNNAME":"安南區","LI":"原佃里","LIN":"7鄰","STREET":"安中路","SECT":"二段","MAREA":" ","LANE":"２巷","ALLEY":"１１７弄","HOUSE_NO":"３０號","E_COORD97":167244.79000000001,"N_COORD97":2549961.8700000001,"ADDRESS":"安中路二段２巷１１７弄３０號","OBJECTID":44319},"geometry":{"x":167244.79000000004,"y":2549961.870000001}},{"attributes":{"ID":44320,"DIS_CODE":0,"TOWNNAME":"安南區","LI":"原佃里","LIN":"7鄰","STREET":"安中路","SECT":"二段","MAREA":" ","LANE":"２巷","ALLEY":"１１７弄","HOUSE_NO":"３２號","E_COORD97":167234.62,"N_COORD97":2549970.7400000002,"ADDRESS":"安中路二段２巷１１７弄３２號","OBJECTID":44320},"geometry":{"x":167234.62000000104,"y":2549970.7400000021}},{"attributes":{"ID":44321,"DIS_CODE":0,"TOWNNAME":"安南區","LI":"東和里","LIN":"7鄰","STREET":"環館北路","SECT":" ","MAREA":" ","LANE":"８４９巷","ALLEY":"１弄","HOUSE_NO":"１號","E_COORD97":171085.78,"N_COORD97":2551517.52,"ADDRESS":"環館北路８４９巷１弄１號","OBJECTID":44321},"geometry":{"x":171085.78000000119,"y":2551517.5200000014}},{"attributes":{"ID":44322,"DIS_CODE":0,"TOWNNAME":"安南區","LI":"東和里","LIN":"7鄰","STREET":"環館北路","SECT":" ","MAREA":" ","LANE":"８４９巷","ALLEY":"１弄","HOUSE_NO":"２號","E_COORD97":171095.79999999999,"N_COORD97":2551498.1099999999,"ADDRESS":"環館北路８４９巷１弄２號","OBJECTID":44322},"geometry":{"x":171095.79999999981,"y":2551498.1099999994}},{"attributes":{"ID":44323,"DIS_CODE":0,"TOWNNAME":"安南區","LI":"東和里","LIN":"7鄰","STREET":"環館北路","SECT":" ","MAREA":" ","LANE":"８４９巷","ALLEY":"１弄","HOUSE_NO":"３號","E_COORD97":171093.14000000001,"N_COORD97":2551520.6499999999,"ADDRESS":"環館北路８４９巷１弄３號","OBJECTID":44323},"geometry":{"x":171093.13999999966,"y":2551520.6500000022}},{"attributes":{"ID":44324,"DIS_CODE":0,"TOWNNAME":"安南區","LI":"東和里","LIN":"7鄰","STREET":"環館北路","SECT":" ","MAREA":" ","LANE":"８４９巷","ALLEY":"１弄","HOUSE_NO":"５號","E_COORD97":171097,"N_COORD97":2551525.48,"ADDRESS":"環館北路８４９巷１弄５號","OBJECTID":44324},"geometry":{"x":171097.00000000093,"y":2551525.4800000023}},{"attributes":{"ID":44325,"DIS_CODE":0,"TOWNNAME":"安南區","LI":"東和里","LIN":"7鄰","STREET":"環館北路","SECT":" ","MAREA":" ","LANE":"８４９巷","ALLEY":"１弄","HOUSE_NO":"６號","E_COORD97":171103.38,"N_COORD97":2551501.4500000002,"ADDRESS":"環館北路８４９巷１弄６號","OBJECTID":44325},"geometry":{"x":171103.38000000082,"y":2551501.4499999993}},{"attributes":{"ID":44326,"DIS_CODE":0,"TOWNNAME":"安南區","LI":"東和里","LIN":"7鄰","STREET":"環館北路","SECT":" ","MAREA":" ","LANE":"８４９巷","ALLEY":"１弄","HOUSE_NO":"７號","E_COORD97":171103.64000000001,"N_COORD97":2551526.71,"ADDRESS":"環館北路８４９巷１弄７號","OBJECTID":44326},"geometry":{"x":171103.63999999966,"y":2551526.7100000046}},{"attributes":{"ID":44327,"DIS_CODE":0,"TOWNNAME":"安南區","LI":"東和里","LIN":"7鄰","STREET":"環館北路","SECT":" ","MAREA":" ","LANE":"８４９巷","ALLEY":"１弄","HOUSE_NO":"８號","E_COORD97":171107.69,"N_COORD97":2551506.54,"ADDRESS":"環館北路８４９巷１弄８號","OBJECTID":44327},"geometry":{"x":171107.69000000041,"y":2551506.540000001}},{"attributes":{"ID":44328,"DIS_CODE":0,"TOWNNAME":"安南區","LI":"東和里","LIN":"7鄰","STREET":"環館北路","SECT":" ","MAREA":" ","LANE":"８４９巷","ALLEY":"１弄","HOUSE_NO":"９號","E_COORD97":171105.95999999999,"N_COORD97":2551530.6499999999,"ADDRESS":"環館北路８４９巷１弄９號","OBJECTID":44328},"geometry":{"x":171105.96000000089,"y":2551530.6500000022}},{"attributes":{"ID":44329,"DIS_CODE":0,"TOWNNAME":"安南區","LI":"東和里","LIN":"7鄰","STREET":"環館北路","SECT":" ","MAREA":" ","LANE":"８４９巷","ALLEY":"１弄","HOUSE_NO":"１０號","E_COORD97":171114.72,"N_COORD97":2551507.9900000002,"ADDRESS":"環館北路８４９巷１弄１０號","OBJECTID":44329},"geometry":{"x":171114.71999999974,"y":2551507.9900000021}},{"attributes":{"ID":44330,"DIS_CODE":0,"TOWNNAME":"北門區","LI":"玉港里","LIN":"15鄰","STREET":" ","SECT":" ","MAREA":"西埔內","LANE":" ","ALLEY":" ","HOUSE_NO":"１６號","E_COORD97":162193.88,"N_COORD97":2573804.2200000002,"ADDRESS":"西埔內１６號","OBJECTID":44330},"geometry":{"x":162193.87999999989,"y":2573804.2200000007}},{"attributes":{"ID":44331,"DIS_CODE":0,"TOWNNAME":"北門區","LI":"玉港里","LIN":"15鄰","STREET":" ","SECT":" ","MAREA":"西埔內","LANE":" ","ALLEY":" ","HOUSE_NO":"１８之１５號","E_COORD97":162475.23000000001,"N_COORD97":2573981.02,"ADDRESS":"西埔內１８之１５號","OBJECTID":44331},"geometry":{"x":162475.23000000045,"y":2573981.0200000033}},{"attributes":{"ID":44332,"DIS_CODE":0,"TOWNNAME":"安南區","LI":"東和里","LIN":"7鄰","STREET":"環館北路","SECT":" ","MAREA":" ","LANE":"８４９巷","ALLEY":"１弄","HOUSE_NO":"１１號","E_COORD97":171110.07999999999,"N_COORD97":2551533.02,"ADDRESS":"環館北路８４９巷１弄１１號","OBJECTID":44332},"geometry":{"x":171110.08000000101,"y":2551533.0199999996}},{"attributes":{"ID":44333,"DIS_CODE":0,"TOWNNAME":"北門區","LI":"玉港里","LIN":"15鄰","STREET":" ","SECT":" ","MAREA":"西埔內","LANE":" ","ALLEY":" ","HOUSE_NO":"１８之１９號","E_COORD97":162306.89999999999,"N_COORD97":2574132,"ADDRESS":"西埔內１８之１９號","OBJECTID":44333},"geometry":{"x":162306.9000000013,"y":2574132.0000000019}},{"attributes":{"ID":44334,"DIS_CODE":0,"TOWNNAME":"北門區","LI":"玉港里","LIN":"15鄰","STREET":" ","SECT":" ","MAREA":"西埔內","LANE":" ","ALLEY":" ","HOUSE_NO":"１８號之１９","E_COORD97":162306.89999999999,"N_COORD97":2574132,"ADDRESS":"西埔內１８號之１９","OBJECTID":44334},"geometry":{"x":162306.9000000013,"y":2574132.0000000019}},{"attributes":{"ID":44335,"DIS_CODE":0,"TOWNNAME":"北門區","LI":"玉港里","LIN":"15鄰","STREET":" ","SECT":" ","MAREA":"西埔內","LANE":" ","ALLEY":" ","HOUSE_NO":"１８之２０號","E_COORD97":162325.92999999999,"N_COORD97":2574134.54,"ADDRESS":"西埔內１８之２０號","OBJECTID":44335},"geometry":{"x":162325.9299999997,"y":2574134.540000001}},{"attributes":{"ID":44336,"DIS_CODE":0,"TOWNNAME":"北門區","LI":"玉港里","LIN":"15鄰","STREET":" ","SECT":" ","MAREA":"西埔內","LANE":" ","ALLEY":" ","HOUSE_NO":"１８之３號","E_COORD97":163107.29999999999,"N_COORD97":2574236.5699999998,"ADDRESS":"西埔內１８之３號","OBJECTID":44336},"geometry":{"x":163107.30000000075,"y":2574236.5700000022}},{"attributes":{"ID":44337,"DIS_CODE":0,"TOWNNAME":"北門區","LI":"玉港里","LIN":"15鄰","STREET":" ","SECT":" ","MAREA":"西埔內","LANE":" ","ALLEY":" ","HOUSE_NO":"１８號","E_COORD97":162182.57999999999,"N_COORD97":2573941.77,"ADDRESS":"西埔內１８號","OBJECTID":44337},"geometry":{"x":162182.58000000007,"y":2573941.7699999977}},{"attributes":{"ID":44338,"DIS_CODE":0,"TOWNNAME":"北門區","LI":"玉港里","LIN":"15鄰","STREET":" ","SECT":" ","MAREA":"西埔內","LANE":" ","ALLEY":" ","HOUSE_NO":"２０號","E_COORD97":162174.62,"N_COORD97":2573904.9100000001,"ADDRESS":"西埔內２０號","OBJECTID":44338},"geometry":{"x":162174.62000000104,"y":2573904.910000002}},{"attributes":{"ID":44339,"DIS_CODE":0,"TOWNNAME":"北門區","LI":"保吉里","LIN":"15鄰","STREET":" ","SECT":" ","MAREA":"蚵寮","LANE":" ","ALLEY":" ","HOUSE_NO":"３７５號","E_COORD97":161511.25,"N_COORD97":2576291.0800000001,"ADDRESS":"蚵寮３７５號","OBJECTID":44339},"geometry":{"x":161511.25000000093,"y":2576291.0800000019}},{"attributes":{"ID":44340,"DIS_CODE":0,"TOWNNAME":"北門區","LI":"保吉里","LIN":"15鄰","STREET":" ","SECT":" ","MAREA":"蚵寮","LANE":" ","ALLEY":" ","HOUSE_NO":"３７６號","E_COORD97":161499.64999999999,"N_COORD97":2576283.5,"ADDRESS":"蚵寮３７６號","OBJECTID":44340},"geometry":{"x":161499.64999999944,"y":2576283.4999999981}},{"attributes":{"ID":44341,"DIS_CODE":0,"TOWNNAME":"北門區","LI":"保吉里","LIN":"15鄰","STREET":" ","SECT":" ","MAREA":"蚵寮","LANE":" ","ALLEY":" ","HOUSE_NO":"３７８號","E_COORD97":161524.44,"N_COORD97":2576269.1000000001,"ADDRESS":"蚵寮３７８號","OBJECTID":44341},"geometry":{"x":161524.44000000041,"y":2576269.1000000034}},{"attributes":{"ID":44342,"DIS_CODE":0,"TOWNNAME":"北門區","LI":"保吉里","LIN":"15鄰","STREET":" ","SECT":" ","MAREA":"蚵寮","LANE":" ","ALLEY":" ","HOUSE_NO":"３７９之１號","E_COORD97":161504.54999999999,"N_COORD97":2576261.2999999998,"ADDRESS":"蚵寮３７９之１號","OBJECTID":44342},"geometry":{"x":161504.54999999981,"y":2576261.3000000007}},{"attributes":{"ID":44343,"DIS_CODE":0,"TOWNNAME":"北門區","LI":"保吉里","LIN":"15鄰","STREET":" ","SECT":" ","MAREA":"蚵寮","LANE":" ","ALLEY":" ","HOUSE_NO":"３７９之２號","E_COORD97":161511.06,"N_COORD97":2576264.1099999999,"ADDRESS":"蚵寮３７９之２號","OBJECTID":44343},"geometry":{"x":161511.05999999959,"y":2576264.1099999994}},{"attributes":{"ID":44344,"DIS_CODE":0,"TOWNNAME":"北門區","LI":"保吉里","LIN":"15鄰","STREET":" ","SECT":" ","MAREA":"蚵寮","LANE":" ","ALLEY":" ","HOUSE_NO":"３７９號","E_COORD97":161520.94,"N_COORD97":2576247.1499999999,"ADDRESS":"蚵寮３７９號","OBJECTID":44344},"geometry":{"x":161520.94000000041,"y":2576247.1500000022}},{"attributes":{"ID":44345,"DIS_CODE":0,"TOWNNAME":"北門區","LI":"東壁里","LIN":"15鄰","STREET":" ","SECT":" ","MAREA":"蚵寮","LANE":" ","ALLEY":" ","HOUSE_NO":"７５３號","E_COORD97":161644.34,"N_COORD97":2576335.8500000001,"ADDRESS":"蚵寮７５３號","OBJECTID":44345},"geometry":{"x":161644.34000000078,"y":2576335.8500000015}},{"attributes":{"ID":44346,"DIS_CODE":0,"TOWNNAME":"北門區","LI":"東壁里","LIN":"15鄰","STREET":" ","SECT":" ","MAREA":"蚵寮","LANE":" ","ALLEY":" ","HOUSE_NO":"７５４號","E_COORD97":161648.51000000001,"N_COORD97":2576323.0899999999,"ADDRESS":"蚵寮７５４號","OBJECTID":44346},"geometry":{"x":161648.50999999978,"y":2576323.0899999999}},{"attributes":{"ID":44347,"DIS_CODE":0,"TOWNNAME":"北門區","LI":"東壁里","LIN":"15鄰","STREET":" ","SECT":" ","MAREA":"蚵寮","LANE":" ","ALLEY":" ","HOUSE_NO":"７５５號","E_COORD97":161637.54999999999,"N_COORD97":2576310.98,"ADDRESS":"蚵寮７５５號","OBJECTID":44347},"geometry":{"x":161637.55000000075,"y":2576310.9800000004}},{"attributes":{"ID":44348,"DIS_CODE":0,"TOWNNAME":"安南區","LI":"東和里","LIN":"7鄰","STREET":"環館北路","SECT":" ","MAREA":" ","LANE":"８４９巷","ALLEY":"１弄","HOUSE_NO":"１２號","E_COORD97":171117.07000000001,"N_COORD97":2551511.9500000002,"ADDRESS":"環館北路８４９巷１弄１２號","OBJECTID":44348},"geometry":{"x":171117.07000000216,"y":2551511.9499999993}},{"attributes":{"ID":44349,"DIS_CODE":0,"TOWNNAME":"安南區","LI":"東和里","LIN":"7鄰","STREET":"環館北路","SECT":" ","MAREA":" ","LANE":"８４９巷","ALLEY":"１弄","HOUSE_NO":"１３號","E_COORD97":171114.19,"N_COORD97":2551535.3999999999,"ADDRESS":"環館北路８４９巷１弄１３號","OBJECTID":44349},"geometry":{"x":171114.19000000041,"y":2551535.4000000022}},{"attributes":{"ID":44350,"DIS_CODE":0,"TOWNNAME":"安南區","LI":"東和里","LIN":"7鄰","STREET":"環館北路","SECT":" ","MAREA":" ","LANE":"８４９巷","ALLEY":"１弄","HOUSE_NO":"１５號","E_COORD97":171118.31,"N_COORD97":2551536.73,"ADDRESS":"環館北路８４９巷１弄１５號","OBJECTID":44350},"geometry":{"x":171118.31000000052,"y":2551536.7300000023}},{"attributes":{"ID":44351,"DIS_CODE":0,"TOWNNAME":"安南區","LI":"東和里","LIN":"7鄰","STREET":"環館北路","SECT":" ","MAREA":" ","LANE":"８４９巷","ALLEY":"１弄","HOUSE_NO":"１６號","E_COORD97":171121.20999999999,"N_COORD97":2551514.3399999999,"ADDRESS":"環館北路８４９巷１弄１６號","OBJECTID":44351},"geometry":{"x":171121.21000000089,"y":2551514.339999998}},{"attributes":{"ID":44352,"DIS_CODE":0,"TOWNNAME":"安南區","LI":"東和里","LIN":"7鄰","STREET":"環館北路","SECT":" ","MAREA":" ","LANE":"８４９巷","ALLEY":"１弄","HOUSE_NO":"１７號","E_COORD97":171121.63,"N_COORD97":2551539.6800000002,"ADDRESS":"環館北路８４９巷１弄１７號","OBJECTID":44352},"geometry":{"x":171121.63000000082,"y":2551539.6800000016}},{"attributes":{"ID":44353,"DIS_CODE":0,"TOWNNAME":"安南區","LI":"東和里","LIN":"7鄰","STREET":"環館北路","SECT":" ","MAREA":" ","LANE":"８４９巷","ALLEY":"１弄","HOUSE_NO":"１８號","E_COORD97":171125.35999999999,"N_COORD97":2551516.73,"ADDRESS":"環館北路８４９巷１弄１８號","OBJECTID":44353},"geometry":{"x":171125.3600000022,"y":2551516.7300000023}},{"attributes":{"ID":44354,"DIS_CODE":0,"TOWNNAME":"安南區","LI":"東和里","LIN":"7鄰","STREET":"環館北路","SECT":" ","MAREA":" ","LANE":"８４９巷","ALLEY":"１弄","HOUSE_NO":"１９號","E_COORD97":171125.73999999999,"N_COORD97":2551542.0600000001,"ADDRESS":"環館北路８４９巷１弄１９號","OBJECTID":44354},"geometry":{"x":171125.74000000022,"y":2551542.0600000024}},{"attributes":{"ID":44355,"DIS_CODE":0,"TOWNNAME":"安南區","LI":"東和里","LIN":"7鄰","STREET":"環館北路","SECT":" ","MAREA":" ","LANE":"８４９巷","ALLEY":"１弄","HOUSE_NO":"２０號","E_COORD97":171128.28,"N_COORD97":2551519.9700000002,"ADDRESS":"環館北路８４９巷１弄２０號","OBJECTID":44355},"geometry":{"x":171128.28000000026,"y":2551519.9700000007}},{"attributes":{"ID":44356,"DIS_CODE":0,"TOWNNAME":"安南區","LI":"東和里","LIN":"7鄰","STREET":"環館北路","SECT":" ","MAREA":" ","LANE":"８４９巷","ALLEY":"１弄","HOUSE_NO":"２１號","E_COORD97":171129.91,"N_COORD97":2551544.46,"ADDRESS":"環館北路８４９巷１弄２１號","OBJECTID":44356},"geometry":{"x":171129.91000000201,"y":2551544.4600000009}},{"attributes":{"ID":44357,"DIS_CODE":0,"TOWNNAME":"北門區","LI":"東壁里","LIN":"15鄰","STREET":" ","SECT":" ","MAREA":"蚵寮","LANE":" ","ALLEY":" ","HOUSE_NO":"７５６號","E_COORD97":161633.87,"N_COORD97":2576318.7400000002,"ADDRESS":"蚵寮７５６號","OBJECTID":44357},"geometry":{"x":161633.87000000104,"y":2576318.7400000002}},{"attributes":{"ID":44358,"DIS_CODE":0,"TOWNNAME":"北門區","LI":"東壁里","LIN":"15鄰","STREET":" ","SECT":" ","MAREA":"蚵寮","LANE":" ","ALLEY":" ","HOUSE_NO":"７５７號","E_COORD97":161641.42999999999,"N_COORD97":2576303.71,"ADDRESS":"蚵寮７５７號","OBJECTID":44358},"geometry":{"x":161641.43000000063,"y":2576303.7100000046}},{"attributes":{"ID":44359,"DIS_CODE":0,"TOWNNAME":"安南區","LI":"東和里","LIN":"7鄰","STREET":"環館北路","SECT":" ","MAREA":" ","LANE":"８４９巷","ALLEY":"１弄","HOUSE_NO":"２２號","E_COORD97":171132.82000000001,"N_COORD97":2551521.0299999998,"ADDRESS":"環館北路８４９巷１弄２２號","OBJECTID":44359},"geometry":{"x":171132.82000000123,"y":2551521.0300000012}},{"attributes":{"ID":44360,"DIS_CODE":0,"TOWNNAME":"安南區","LI":"東和里","LIN":"7鄰","STREET":"環館北路","SECT":" ","MAREA":" ","LANE":"８４９巷","ALLEY":"１弄","HOUSE_NO":"２３號","E_COORD97":171134.16,"N_COORD97":2551546.9199999999,"ADDRESS":"環館北路８４９巷１弄２３號","OBJECTID":44360},"geometry":{"x":171134.16000000015,"y":2551546.9199999999}},{"attributes":{"ID":44361,"DIS_CODE":0,"TOWNNAME":"安南區","LI":"東和里","LIN":"7鄰","STREET":"環館北路","SECT":" ","MAREA":" ","LANE":"８４９巷","ALLEY":"１弄","HOUSE_NO":"２５號","E_COORD97":171144.34,"N_COORD97":2551548.6299999999,"ADDRESS":"環館北路８４９巷１弄２５號","OBJECTID":44361},"geometry":{"x":171144.34000000078,"y":2551548.629999999}},{"attributes":{"ID":44362,"DIS_CODE":0,"TOWNNAME":"安南區","LI":"東和里","LIN":"7鄰","STREET":"環館北路","SECT":" ","MAREA":" ","LANE":"８４９巷","ALLEY":"１弄","HOUSE_NO":"２６號","E_COORD97":171136.95999999999,"N_COORD97":2551523.4199999999,"ADDRESS":"環館北路８４９巷１弄２６號","OBJECTID":44362},"geometry":{"x":171136.95999999996,"y":2551523.4199999999}},{"attributes":{"ID":44363,"DIS_CODE":0,"TOWNNAME":"安南區","LI":"東和里","LIN":"7鄰","STREET":"環館北路","SECT":" ","MAREA":" ","LANE":"８４９巷","ALLEY":"１弄","HOUSE_NO":"２７號","E_COORD97":171145.62,"N_COORD97":2551553.5299999998,"ADDRESS":"環館北路８４９巷１弄２７號","OBJECTID":44363},"geometry":{"x":171145.62000000104,"y":2551553.5300000031}},{"attributes":{"ID":44364,"DIS_CODE":0,"TOWNNAME":"安南區","LI":"東和里","LIN":"7鄰","STREET":"環館北路","SECT":" ","MAREA":" ","LANE":"８４９巷","ALLEY":"１弄","HOUSE_NO":"２８號","E_COORD97":171141.10999999999,"N_COORD97":2551525.8100000001,"ADDRESS":"環館北路８４９巷１弄２８號","OBJECTID":44364},"geometry":{"x":171141.11000000127,"y":2551525.8100000042}},{"attributes":{"ID":44365,"DIS_CODE":0,"TOWNNAME":"安南區","LI":"東和里","LIN":"7鄰","STREET":"環館北路","SECT":" ","MAREA":" ","LANE":"８４９巷","ALLEY":"１弄","HOUSE_NO":"２９號","E_COORD97":171149.73000000001,"N_COORD97":2551555.8999999999,"ADDRESS":"環館北路８４９巷１弄２９號","OBJECTID":44365},"geometry":{"x":171149.73000000045,"y":2551555.9000000022}},{"attributes":{"ID":44366,"DIS_CODE":0,"TOWNNAME":"北門區","LI":"東壁里","LIN":"15鄰","STREET":" ","SECT":" ","MAREA":"蚵寮","LANE":" ","ALLEY":" ","HOUSE_NO":"７５８號","E_COORD97":161629.10000000001,"N_COORD97":2576300.2799999998,"ADDRESS":"蚵寮７５８號","OBJECTID":44366},"geometry":{"x":161629.09999999963,"y":2576300.2799999993}},{"attributes":{"ID":44367,"DIS_CODE":0,"TOWNNAME":"北門區","LI":"東壁里","LIN":"15鄰","STREET":" ","SECT":" ","MAREA":"蚵寮","LANE":" ","ALLEY":" ","HOUSE_NO":"７５９號","E_COORD97":161634.16,"N_COORD97":2576288.0499999998,"ADDRESS":"蚵寮７５９號","OBJECTID":44367},"geometry":{"x":161634.16000000108,"y":2576288.0500000026}},{"attributes":{"ID":44368,"DIS_CODE":0,"TOWNNAME":"安南區","LI":"東和里","LIN":"7鄰","STREET":"環館北路","SECT":" ","MAREA":" ","LANE":"８４９巷","ALLEY":"１弄","HOUSE_NO":"３０號","E_COORD97":171144.28,"N_COORD97":2551529.2000000002,"ADDRESS":"環館北路８４９巷１弄３０號","OBJECTID":44368},"geometry":{"x":171144.27999999933,"y":2551529.2000000011}},{"attributes":{"ID":44369,"DIS_CODE":0,"TOWNNAME":"安南區","LI":"東和里","LIN":"7鄰","STREET":"環館北路","SECT":" ","MAREA":" ","LANE":"８４９巷","ALLEY":"１弄","HOUSE_NO":"３１號","E_COORD97":171153.85000000001,"N_COORD97":2551558.27,"ADDRESS":"環館北路８４９巷１弄３１號","OBJECTID":44369},"geometry":{"x":171153.85000000056,"y":2551558.2699999996}},{"attributes":{"ID":44370,"DIS_CODE":0,"TOWNNAME":"北門區","LI":"東壁里","LIN":"15鄰","STREET":" ","SECT":" ","MAREA":"蚵寮","LANE":" ","ALLEY":" ","HOUSE_NO":"７６０號","E_COORD97":161636.32999999999,"N_COORD97":2576267.4300000002,"ADDRESS":"蚵寮７６０號","OBJECTID":44370},"geometry":{"x":161636.33000000101,"y":2576267.4300000016}},{"attributes":{"ID":44371,"DIS_CODE":0,"TOWNNAME":"安南區","LI":"東和里","LIN":"7鄰","STREET":"環館北路","SECT":" ","MAREA":" ","LANE":"８４９巷","ALLEY":"１弄","HOUSE_NO":"３２號","E_COORD97":171154.22,"N_COORD97":2551531.8199999998,"ADDRESS":"環館北路８４９巷１弄３２號","OBJECTID":44371},"geometry":{"x":171154.21999999974,"y":2551531.8199999984}},{"attributes":{"ID":44372,"DIS_CODE":0,"TOWNNAME":"安南區","LI":"東和里","LIN":"7鄰","STREET":"環館北路","SECT":" ","MAREA":" ","LANE":"８４９巷","ALLEY":"１弄","HOUSE_NO":"３３號","E_COORD97":171157.95999999999,"N_COORD97":2551560.6499999999,"ADDRESS":"環館北路８４９巷１弄３３號","OBJECTID":44372},"geometry":{"x":171157.95999999903,"y":2551560.6500000041}},{"attributes":{"ID":44373,"DIS_CODE":0,"TOWNNAME":"安南區","LI":"東和里","LIN":"7鄰","STREET":"環館北路","SECT":" ","MAREA":" ","LANE":"８４９巷","ALLEY":"１弄","HOUSE_NO":"３５號","E_COORD97":171162.07999999999,"N_COORD97":2551563.02,"ADDRESS":"環館北路８４９巷１弄３５號","OBJECTID":44373},"geometry":{"x":171162.08000000007,"y":2551563.0199999996}},{"attributes":{"ID":44374,"DIS_CODE":0,"TOWNNAME":"新營區","LI":"民生里","LIN":"7鄰","STREET":"中華路","SECT":" ","MAREA":" ","LANE":" ","ALLEY":" ","HOUSE_NO":"８１之１號","E_COORD97":179366.25,"N_COORD97":2578154.9500000002,"ADDRESS":"中華路８１之１號","OBJECTID":44374},"geometry":{"x":179366.25000000093,"y":2578154.950000003}},{"attributes":{"ID":44375,"DIS_CODE":0,"TOWNNAME":"新營區","LI":"民榮里","LIN":"15鄰","STREET":"復興路","SECT":" ","MAREA":" ","LANE":" ","ALLEY":" ","HOUSE_NO":"２６３號","E_COORD97":178776.54000000001,"N_COORD97":2578093.4900000002,"ADDRESS":"復興路２６３號","OBJECTID":44375},"geometry":{"x":178776.54000000097,"y":2578093.4900000002}},{"attributes":{"ID":44376,"DIS_CODE":0,"TOWNNAME":"新營區","LI":"民榮里","LIN":" ","STREET":"復興路","SECT":" ","MAREA":" ","LANE":" ","ALLEY":" ","HOUSE_NO":"１５３之３號","E_COORD97":179210.20999999999,"N_COORD97":2578006.2000000002,"ADDRESS":"復興路１５３之３號","OBJECTID":44376},"geometry":{"x":179210.21000000183,"y":2578006.1999999993}},{"attributes":{"ID":44377,"DIS_CODE":0,"TOWNNAME":"新市區","LI":"大營里","LIN":"15鄰","STREET":" ","SECT":" ","MAREA":"大營","LANE":" ","ALLEY":" ","HOUSE_NO":"２９６之６號","E_COORD97":179126.23999999999,"N_COORD97":2555438.7999999998,"ADDRESS":"大營２９６之６號","OBJECTID":44377},"geometry":{"x":179126.24000000115,"y":2555438.8000000026}},{"attributes":{"ID":44378,"DIS_CODE":0,"TOWNNAME":"安南區","LI":"東和里","LIN":"7鄰","STREET":"環館北路","SECT":" ","MAREA":" ","LANE":"８４９巷","ALLEY":"１弄","HOUSE_NO":"３６號","E_COORD97":171156.73000000001,"N_COORD97":2551534.8300000001,"ADDRESS":"環館北路８４９巷１弄３６號","OBJECTID":44378},"geometry":{"x":171156.73000000231,"y":2551534.8300000001}},{"attributes":{"ID":44379,"DIS_CODE":0,"TOWNNAME":"安南區","LI":"東和里","LIN":"7鄰","STREET":"環館北路","SECT":" ","MAREA":" ","LANE":"８４９巷","ALLEY":"１弄","HOUSE_NO":"３７號","E_COORD97":171166.17000000001,"N_COORD97":2551564.3399999999,"ADDRESS":"環館北路８４９巷１弄３７號","OBJECTID":44379},"geometry":{"x":171166.16999999993,"y":2551564.3399999999}},{"attributes":{"ID":44380,"DIS_CODE":0,"TOWNNAME":"安南區","LI":"東和里","LIN":"7鄰","STREET":"環館北路","SECT":" ","MAREA":" ","LANE":"８４９巷","ALLEY":"１弄","HOUSE_NO":"３８號","E_COORD97":171160.85999999999,"N_COORD97":2551537.21,"ADDRESS":"環館北路８４９巷１弄３８號","OBJECTID":44380},"geometry":{"x":171160.8600000022,"y":2551537.2100000028}},{"attributes":{"ID":44381,"DIS_CODE":0,"TOWNNAME":"安南區","LI":"東和里","LIN":"7鄰","STREET":"環館北路","SECT":" ","MAREA":" ","LANE":"８４９巷","ALLEY":"１弄","HOUSE_NO":"３９號","E_COORD97":171171.29999999999,"N_COORD97":2551565.75,"ADDRESS":"環館北路８４９巷１弄３９號","OBJECTID":44381},"geometry":{"x":171171.30000000075,"y":2551565.75}},{"attributes":{"ID":44382,"DIS_CODE":0,"TOWNNAME":"新市區","LI":"大營里","LIN":"15鄰","STREET":" ","SECT":" ","MAREA":"大營","LANE":" ","ALLEY":" ","HOUSE_NO":"２９６之１號","E_COORD97":179106.62,"N_COORD97":2555425.5499999998,"ADDRESS":"大營２９６之１號","OBJECTID":44382},"geometry":{"x":179106.62000000104,"y":2555425.5500000007}},{"attributes":{"ID":44383,"DIS_CODE":0,"TOWNNAME":"北門區","LI":"永隆里","LIN":"15鄰","STREET":" ","SECT":" ","MAREA":"港北","LANE":" ","ALLEY":" ","HOUSE_NO":"２６號之１","E_COORD97":160259.42999999999,"N_COORD97":2574577.7400000002,"ADDRESS":"港北２６號之１","OBJECTID":44383},"geometry":{"x":160259.4299999997,"y":2574577.7400000021}},{"attributes":{"ID":44384,"DIS_CODE":0,"TOWNNAME":"北門區","LI":"永隆里","LIN":"15鄰","STREET":" ","SECT":" ","MAREA":"港北","LANE":" ","ALLEY":" ","HOUSE_NO":"２６號","E_COORD97":160250.70000000001,"N_COORD97":2574584.1400000001,"ADDRESS":"港北２６號","OBJECTID":44384},"geometry":{"x":160250.70000000019,"y":2574584.1400000006}},{"attributes":{"ID":44385,"DIS_CODE":0,"TOWNNAME":"安南區","LI":"東和里","LIN":"7鄰","STREET":"環館北路","SECT":" ","MAREA":" ","LANE":"８４９巷","ALLEY":"１弄","HOUSE_NO":"４０號","E_COORD97":171164.98999999999,"N_COORD97":2551539.5899999999,"ADDRESS":"環館北路８４９巷１弄４０號","OBJECTID":44385},"geometry":{"x":171164.99000000209,"y":2551539.5899999999}},{"attributes":{"ID":44386,"DIS_CODE":0,"TOWNNAME":"安南區","LI":"東和里","LIN":"7鄰","STREET":"環館北路","SECT":" ","MAREA":" ","LANE":"８４９巷","ALLEY":"１弄","HOUSE_NO":"４１號","E_COORD97":171174.39999999999,"N_COORD97":2551567.9700000002,"ADDRESS":"環館北路８４９巷１弄４１號","OBJECTID":44386},"geometry":{"x":171174.4000000013,"y":2551567.9700000007}},{"attributes":{"ID":44387,"DIS_CODE":0,"TOWNNAME":"安南區","LI":"東和里","LIN":"7鄰","STREET":"環館北路","SECT":" ","MAREA":" ","LANE":"８４９巷","ALLEY":"１弄","HOUSE_NO":"４２號","E_COORD97":171169.10999999999,"N_COORD97":2551541.9700000002,"ADDRESS":"環館北路８４９巷１弄４２號","OBJECTID":44387},"geometry":{"x":171169.11000000034,"y":2551541.9700000025}},{"attributes":{"ID":44388,"DIS_CODE":0,"TOWNNAME":"安南區","LI":"東和里","LIN":"7鄰","STREET":"環館北路","SECT":" ","MAREA":" ","LANE":"８４９巷","ALLEY":"１弄","HOUSE_NO":"４６號","E_COORD97":171172.14999999999,"N_COORD97":2551545.2799999998,"ADDRESS":"環館北路８４９巷１弄４６號","OBJECTID":44388},"geometry":{"x":171172.15000000037,"y":2551545.2800000012}},{"attributes":{"ID":44389,"DIS_CODE":0,"TOWNNAME":"安南區","LI":"東和里","LIN":"7鄰","STREET":"環館北路","SECT":" ","MAREA":" ","LANE":"８４９巷","ALLEY":"１弄","HOUSE_NO":"４８號","E_COORD97":171176.56,"N_COORD97":2551546.27,"ADDRESS":"環館北路８４９巷１弄４８號","OBJECTID":44389},"geometry":{"x":171176.55999999959,"y":2551546.2700000014}},{"attributes":{"ID":44390,"DIS_CODE":0,"TOWNNAME":"安南區","LI":"東和里","LIN":"7鄰","STREET":"環館北路","SECT":" ","MAREA":" ","LANE":"８４９巷","ALLEY":"１弄","HOUSE_NO":"５０號","E_COORD97":171181.35999999999,"N_COORD97":2551549.0299999998,"ADDRESS":"環館北路８４９巷１弄５０號","OBJECTID":44390},"geometry":{"x":171181.36000000127,"y":2551549.0299999993}},{"attributes":{"ID":44391,"DIS_CODE":0,"TOWNNAME":"安南區","LI":"東和里","LIN":"7鄰","STREET":"環館北路","SECT":" ","MAREA":" ","LANE":"８４９巷","ALLEY":"１弄","HOUSE_NO":"５２號","E_COORD97":171184.5,"N_COORD97":2551551.4700000002,"ADDRESS":"環館北路８４９巷１弄５２號","OBJECTID":44391},"geometry":{"x":171184.5,"y":2551551.4700000007}},{"attributes":{"ID":44392,"DIS_CODE":0,"TOWNNAME":"安南區","LI":"東和里","LIN":"7鄰","STREET":"環館北路","SECT":" ","MAREA":" ","LANE":"８４９巷","ALLEY":"２弄","HOUSE_NO":"１號","E_COORD97":171071.95000000001,"N_COORD97":2551484.9900000002,"ADDRESS":"環館北路８４９巷２弄１號","OBJECTID":44392},"geometry":{"x":171071.95000000205,"y":2551484.9900000021}},{"attributes":{"ID":44393,"DIS_CODE":0,"TOWNNAME":"安南區","LI":"東和里","LIN":"7鄰","STREET":"環館北路","SECT":" ","MAREA":" ","LANE":"８４９巷","ALLEY":"２弄","HOUSE_NO":"２號","E_COORD97":171060.51999999999,"N_COORD97":2551498.7799999998,"ADDRESS":"環館北路８４９巷２弄２號","OBJECTID":44393},"geometry":{"x":171060.51999999862,"y":2551498.7800000012}},{"attributes":{"ID":44394,"DIS_CODE":0,"TOWNNAME":"安南區","LI":"東和里","LIN":"7鄰","STREET":"環館北路","SECT":" ","MAREA":" ","LANE":"８４９巷","ALLEY":"２弄","HOUSE_NO":"３號","E_COORD97":171069.09,"N_COORD97":2551477.6600000001,"ADDRESS":"環館北路８４９巷２弄３號","OBJECTID":44394},"geometry":{"x":171069.09000000078,"y":2551477.6600000001}},{"attributes":{"ID":44395,"DIS_CODE":0,"TOWNNAME":"安南區","LI":"東和里","LIN":"7鄰","STREET":"環館北路","SECT":" ","MAREA":" ","LANE":"８４９巷","ALLEY":"２弄","HOUSE_NO":"５號","E_COORD97":171061.13,"N_COORD97":2551473.6499999999,"ADDRESS":"環館北路８４９巷２弄５號","OBJECTID":44395},"geometry":{"x":171061.12999999989,"y":2551473.6500000022}},{"attributes":{"ID":44396,"DIS_CODE":0,"TOWNNAME":"安南區","LI":"東和里","LIN":"7鄰","STREET":"環館北路","SECT":" ","MAREA":" ","LANE":"８４９巷","ALLEY":"２弄","HOUSE_NO":"６號","E_COORD97":171052.01000000001,"N_COORD97":2551494.6099999999,"ADDRESS":"環館北路８４９巷２弄６號","OBJECTID":44396},"geometry":{"x":171052.00999999978,"y":2551494.6099999994}},{"attributes":{"ID":44397,"DIS_CODE":0,"TOWNNAME":"北門區","LI":"永隆里","LIN":"15鄰","STREET":" ","SECT":" ","MAREA":"港北","LANE":" ","ALLEY":" ","HOUSE_NO":"２８號之１","E_COORD97":160292.98000000001,"N_COORD97":2574588.0800000001,"ADDRESS":"港北２８號之１","OBJECTID":44397},"geometry":{"x":160292.98000000138,"y":2574588.0800000038}},{"attributes":{"ID":44398,"DIS_CODE":0,"TOWNNAME":"北門區","LI":"永隆里","LIN":"15鄰","STREET":" ","SECT":" ","MAREA":"港北","LANE":" ","ALLEY":" ","HOUSE_NO":"２８號","E_COORD97":160268.44,"N_COORD97":2574571.1899999999,"ADDRESS":"港北２８號","OBJECTID":44398},"geometry":{"x":160268.44000000041,"y":2574571.1900000013}},{"attributes":{"ID":44399,"DIS_CODE":0,"TOWNNAME":"永康區","LI":"復國里","LIN":"17鄰","STREET":"國華街","SECT":" ","MAREA":" ","LANE":" ","ALLEY":" ","HOUSE_NO":"６８號","E_COORD97":172860.45000000001,"N_COORD97":2545781.54,"ADDRESS":"國華街６８號","OBJECTID":44399},"geometry":{"x":172860.45000000205,"y":2545781.5399999991}},{"attributes":{"ID":44400,"DIS_CODE":0,"TOWNNAME":"北門區","LI":"永隆里","LIN":"15鄰","STREET":" ","SECT":" ","MAREA":"港北","LANE":" ","ALLEY":" ","HOUSE_NO":"２９號","E_COORD97":160281.79000000001,"N_COORD97":2574562.2200000002,"ADDRESS":"港北２９號","OBJECTID":44400},"geometry":{"x":160281.79000000097,"y":2574562.2200000025}}]}