{"displayFieldName":"TOWNNAME","fieldAliases":{"ID":"ID","DIS_CODE":"DIS_CODE","TOWNNAME":"TOWNNAME","LI":"LI","LIN":"LIN","STREET":"STREET","SECT":"SECT","MAREA":"MAREA","LANE":"LANE","ALLEY":"ALLEY","HOUSE_NO":"HOUSE_NO","E_COORD97":"E_COORD97","N_COORD97":"N_COORD97","ADDRESS":"ADDRESS","OBJECTID":"OBJECTID"},"geometryType":"esriGeometryPoint","spatialReference":{"wkid":102443,"latestWkid":3826},"fields":[{"name":"ID","type":"esriFieldTypeDouble","alias":"ID"},{"name":"DIS_CODE","type":"esriFieldTypeInteger","alias":"DIS_CODE"},{"name":"TOWNNAME","type":"esriFieldTypeString","alias":"TOWNNAME","length":8},{"name":"LI","type":"esriFieldTypeString","alias":"LI","length":8},{"name":"LIN","type":"esriFieldTypeString","alias":"LIN","length":12},{"name":"STREET","type":"esriFieldTypeString","alias":"STREET","length":20},{"name":"SECT","type":"esriFieldTypeString","alias":"SECT","length":8},{"name":"MAREA","type":"esriFieldTypeString","alias":"MAREA","length":12},{"name":"LANE","type":"esriFieldTypeString","alias":"LANE","length":10},{"name":"ALLEY","type":"esriFieldTypeString","alias":"ALLEY","length":10},{"name":"HOUSE_NO","type":"esriFieldTypeString","alias":"HOUSE_NO","length":20},{"name":"E_COORD97","type":"esriFieldTypeDouble","alias":"E_COORD97"},{"name":"N_COORD97","type":"esriFieldTypeDouble","alias":"N_COORD97"},{"name":"ADDRESS","type":"esriFieldTypeString","alias":"ADDRESS","length":50},{"name":"OBJECTID","type":"esriFieldTypeOID","alias":"OBJECTID"}],"features":[{"attributes":{"ID":269206,"DIS_CODE":0,"TOWNNAME":"歸仁區","LI":"新厝里","LIN":"3鄰","STREET":"和平南街","SECT":" ","MAREA":" ","LANE":" ","ALLEY":" ","HOUSE_NO":"１４號","E_COORD97":177815.39999999999,"N_COORD97":2540705.6800000002,"ADDRESS":"和平南街１４號","OBJECTID":269201},"geometry":{"x":177815.40000000037,"y":2540705.6799999997}},{"attributes":{"ID":269207,"DIS_CODE":0,"TOWNNAME":"歸仁區","LI":"歸南里","LIN":"3鄰","STREET":"民權南路","SECT":" ","MAREA":" ","LANE":" ","ALLEY":" ","HOUSE_NO":"２３６號","E_COORD97":176943.60999999999,"N_COORD97":2540258.5,"ADDRESS":"民權南路２３６號","OBJECTID":269202},"geometry":{"x":176943.61000000127,"y":2540258.5000000019}},{"attributes":{"ID":269208,"DIS_CODE":0,"TOWNNAME":"永康區","LI":"烏竹里","LIN":"17鄰","STREET":"竹南街","SECT":" ","MAREA":" ","LANE":"５６巷","ALLEY":" ","HOUSE_NO":"６０號","E_COORD97":174460.75,"N_COORD97":2548876.0600000001,"ADDRESS":"竹南街５６巷６０號","OBJECTID":269203},"geometry":{"x":174460.75000000093,"y":2548876.0600000042}},{"attributes":{"ID":269209,"DIS_CODE":0,"TOWNNAME":"永康區","LI":"烏竹里","LIN":"17鄰","STREET":"竹南街","SECT":" ","MAREA":" ","LANE":"５６巷","ALLEY":" ","HOUSE_NO":"６６號","E_COORD97":174456.66,"N_COORD97":2548882.8399999999,"ADDRESS":"竹南街５６巷６６號","OBJECTID":269204},"geometry":{"x":174456.66000000015,"y":2548882.8399999999}},{"attributes":{"ID":269210,"DIS_CODE":0,"TOWNNAME":"永康區","LI":"東橋里","LIN":"17鄰","STREET":"東橋十街","SECT":" ","MAREA":" ","LANE":"８８巷","ALLEY":" ","HOUSE_NO":"１６號","E_COORD97":171395.48999999999,"N_COORD97":2546858.0800000001,"ADDRESS":"東橋十街８８巷１６號","OBJECTID":269205},"geometry":{"x":171395.49000000209,"y":2546858.0800000038}},{"attributes":{"ID":269211,"DIS_CODE":0,"TOWNNAME":"永康區","LI":"東橋里","LIN":"17鄰","STREET":"東橋十街","SECT":" ","MAREA":" ","LANE":"８８巷","ALLEY":" ","HOUSE_NO":"１０號","E_COORD97":171391.95999999999,"N_COORD97":2546867.0699999998,"ADDRESS":"東橋十街８８巷１０號","OBJECTID":269206},"geometry":{"x":171391.96000000183,"y":2546867.0700000003}},{"attributes":{"ID":269212,"DIS_CODE":0,"TOWNNAME":"永康區","LI":"烏竹里","LIN":"17鄰","STREET":"竹南街","SECT":" ","MAREA":" ","LANE":"５６巷","ALLEY":" ","HOUSE_NO":"５２號","E_COORD97":174462.23999999999,"N_COORD97":2548858.0699999998,"ADDRESS":"竹南街５６巷５２號","OBJECTID":269207},"geometry":{"x":174462.24000000115,"y":2548858.0700000003}},{"attributes":{"ID":269213,"DIS_CODE":0,"TOWNNAME":"永康區","LI":"東橋里","LIN":"17鄰","STREET":"東橋三路","SECT":" ","MAREA":" ","LANE":"２１３巷","ALLEY":" ","HOUSE_NO":"５號","E_COORD97":171407.70999999999,"N_COORD97":2546890.6899999999,"ADDRESS":"東橋三路２１３巷５號","OBJECTID":269208},"geometry":{"x":171407.71000000089,"y":2546890.6900000032}},{"attributes":{"ID":269214,"DIS_CODE":0,"TOWNNAME":"永康區","LI":"東橋里","LIN":"17鄰","STREET":"東橋三路","SECT":" ","MAREA":" ","LANE":"２１３巷","ALLEY":" ","HOUSE_NO":"３號","E_COORD97":171413.89999999999,"N_COORD97":2546891.6000000001,"ADDRESS":"東橋三路２１３巷３號","OBJECTID":269209},"geometry":{"x":171413.9000000013,"y":2546891.6000000034}},{"attributes":{"ID":269215,"DIS_CODE":0,"TOWNNAME":"永康區","LI":"東橋里","LIN":"17鄰","STREET":"東橋三路","SECT":" ","MAREA":" ","LANE":"２１３巷","ALLEY":" ","HOUSE_NO":"１０號","E_COORD97":171398.94,"N_COORD97":2546905.71,"ADDRESS":"東橋三路２１３巷１０號","OBJECTID":269210},"geometry":{"x":171398.94000000041,"y":2546905.7100000046}},{"attributes":{"ID":269216,"DIS_CODE":0,"TOWNNAME":"永康區","LI":"東橋里","LIN":"17鄰","STREET":"東橋十街","SECT":" ","MAREA":" ","LANE":"８８巷","ALLEY":" ","HOUSE_NO":"９號","E_COORD97":171416.78,"N_COORD97":2546876.2999999998,"ADDRESS":"東橋十街８８巷９號","OBJECTID":269211},"geometry":{"x":171416.78000000026,"y":2546876.3000000007}},{"attributes":{"ID":269217,"DIS_CODE":0,"TOWNNAME":"歸仁區","LI":"新厝里","LIN":"3鄰","STREET":"和平南街","SECT":" ","MAREA":" ","LANE":" ","ALLEY":" ","HOUSE_NO":"８號","E_COORD97":177818.25,"N_COORD97":2540716.6800000002,"ADDRESS":"和平南街８號","OBJECTID":269212},"geometry":{"x":177818.25000000186,"y":2540716.6799999997}},{"attributes":{"ID":269218,"DIS_CODE":0,"TOWNNAME":"永康區","LI":"烏竹里","LIN":"17鄰","STREET":"竹南街","SECT":" ","MAREA":" ","LANE":"５６巷","ALLEY":" ","HOUSE_NO":"５８號","E_COORD97":174458.28,"N_COORD97":2548868.6000000001,"ADDRESS":"竹南街５６巷５８號","OBJECTID":269213},"geometry":{"x":174458.28000000026,"y":2548868.6000000015}},{"attributes":{"ID":269219,"DIS_CODE":0,"TOWNNAME":"永康區","LI":"東橋里","LIN":"17鄰","STREET":"東橋十街","SECT":" ","MAREA":" ","LANE":"８８巷","ALLEY":" ","HOUSE_NO":"８號","E_COORD97":171389.62,"N_COORD97":2546871.1200000001,"ADDRESS":"東橋十街８８巷８號","OBJECTID":269214},"geometry":{"x":171389.62000000104,"y":2546871.120000001}},{"attributes":{"ID":269220,"DIS_CODE":0,"TOWNNAME":"歸仁區","LI":"大廟里","LIN":"17鄰","STREET":"大廟五街","SECT":" ","MAREA":" ","LANE":"１３１巷","ALLEY":" ","HOUSE_NO":"１２３號","E_COORD97":175686.09,"N_COORD97":2544762.2799999998,"ADDRESS":"大廟五街１３１巷１２３號","OBJECTID":269215},"geometry":{"x":175686.08999999985,"y":2544762.2800000012}},{"attributes":{"ID":269221,"DIS_CODE":0,"TOWNNAME":"東區","LI":"路東里","LIN":"17鄰","STREET":"大同路","SECT":"二段","MAREA":" ","LANE":"６１巷","ALLEY":" ","HOUSE_NO":"１９２號","E_COORD97":169473.66,"N_COORD97":2542329.1600000001,"ADDRESS":"大同路二段６１巷１９２號","OBJECTID":269216},"geometry":{"x":169473.66000000201,"y":2542329.160000002}},{"attributes":{"ID":269222,"DIS_CODE":0,"TOWNNAME":"歸仁區","LI":"歸南里","LIN":"3鄰","STREET":"民權南路","SECT":" ","MAREA":" ","LANE":" ","ALLEY":" ","HOUSE_NO":"２５８號","E_COORD97":176935.06,"N_COORD97":2540197.25,"ADDRESS":"民權南路２５８號","OBJECTID":269217},"geometry":{"x":176935.05999999959,"y":2540197.25}},{"attributes":{"ID":269223,"DIS_CODE":0,"TOWNNAME":"歸仁區","LI":"歸仁里","LIN":"3鄰","STREET":"中正北路","SECT":"一段","MAREA":" ","LANE":" ","ALLEY":" ","HOUSE_NO":"３８號","E_COORD97":177682.38,"N_COORD97":2540945.04,"ADDRESS":"中正北路一段３８號","OBJECTID":269218},"geometry":{"x":177682.38000000082,"y":2540945.040000001}},{"attributes":{"ID":269224,"DIS_CODE":0,"TOWNNAME":"歸仁區","LI":"新厝里","LIN":"3鄰","STREET":"和平南街","SECT":" ","MAREA":" ","LANE":" ","ALLEY":" ","HOUSE_NO":"３６號","E_COORD97":177812.97,"N_COORD97":2540665.25,"ADDRESS":"和平南街３６號","OBJECTID":269219},"geometry":{"x":177812.96999999881,"y":2540665.25}},{"attributes":{"ID":269225,"DIS_CODE":0,"TOWNNAME":"歸仁區","LI":"辜厝里","LIN":"3鄰","STREET":"中正南路","SECT":"一段","MAREA":" ","LANE":" ","ALLEY":" ","HOUSE_NO":"２２號","E_COORD97":177608.26000000001,"N_COORD97":2540689.1200000001,"ADDRESS":"中正南路一段２２號","OBJECTID":269220},"geometry":{"x":177608.26000000071,"y":2540689.1200000029}},{"attributes":{"ID":269226,"DIS_CODE":0,"TOWNNAME":"歸仁區","LI":"辜厝里","LIN":"3鄰","STREET":"中正六街","SECT":" ","MAREA":" ","LANE":" ","ALLEY":" ","HOUSE_NO":"３８號","E_COORD97":177538.95999999999,"N_COORD97":2540677.1099999999,"ADDRESS":"中正六街３８號","OBJECTID":269221},"geometry":{"x":177538.96000000089,"y":2540677.1100000013}},{"attributes":{"ID":269227,"DIS_CODE":0,"TOWNNAME":"東區","LI":"路東里","LIN":"17鄰","STREET":"大同路","SECT":"二段","MAREA":" ","LANE":"６１巷","ALLEY":" ","HOUSE_NO":"１９４號","E_COORD97":169466.64000000001,"N_COORD97":2542328.2000000002,"ADDRESS":"大同路二段６１巷１９４號","OBJECTID":269222},"geometry":{"x":169466.6400000006,"y":2542328.2000000011}},{"attributes":{"ID":269228,"DIS_CODE":0,"TOWNNAME":"歸仁區","LI":"沙崙里","LIN":"3鄰","STREET":" ","SECT":" ","MAREA":"二甲","LANE":" ","ALLEY":" ","HOUSE_NO":"１０４號","E_COORD97":178423.53,"N_COORD97":2539238.8900000001,"ADDRESS":"二甲１０４號","OBJECTID":269223},"geometry":{"x":178423.53000000212,"y":2539238.8900000025}},{"attributes":{"ID":269229,"DIS_CODE":0,"TOWNNAME":"東區","LI":"路東里","LIN":"17鄰","STREET":"大同路","SECT":"二段","MAREA":" ","LANE":"６１巷","ALLEY":" ","HOUSE_NO":"１９６號","E_COORD97":169459.92999999999,"N_COORD97":2542326.29,"ADDRESS":"大同路二段６１巷１９６號","OBJECTID":269224},"geometry":{"x":169459.93000000063,"y":2542326.2900000028}},{"attributes":{"ID":269230,"DIS_CODE":0,"TOWNNAME":"歸仁區","LI":"大廟里","LIN":"13鄰","STREET":"大廟六街","SECT":" ","MAREA":" ","LANE":"１１０巷","ALLEY":" ","HOUSE_NO":"１２之１號","E_COORD97":176204.07000000001,"N_COORD97":2544231.2999999998,"ADDRESS":"大廟六街１１０巷１２之１號","OBJECTID":269225},"geometry":{"x":176204.0700000003,"y":2544231.3000000026}},{"attributes":{"ID":269231,"DIS_CODE":0,"TOWNNAME":"歸仁區","LI":"八甲里","LIN":"14鄰","STREET":"大明三街","SECT":" ","MAREA":" ","LANE":"２１巷","ALLEY":" ","HOUSE_NO":"６號","E_COORD97":178094.51999999999,"N_COORD97":2541771.6099999999,"ADDRESS":"大明三街２１巷６號","OBJECTID":269226},"geometry":{"x":178094.52000000048,"y":2541771.6100000031}},{"attributes":{"ID":269232,"DIS_CODE":0,"TOWNNAME":"東區","LI":"路東里","LIN":"17鄰","STREET":"大同路","SECT":"二段","MAREA":" ","LANE":"６１巷","ALLEY":" ","HOUSE_NO":"１３８號","E_COORD97":169435.48999999999,"N_COORD97":2542296.8300000001,"ADDRESS":"大同路二段６１巷１３８號","OBJECTID":269227},"geometry":{"x":169435.49000000022,"y":2542296.8300000019}},{"attributes":{"ID":269233,"DIS_CODE":0,"TOWNNAME":"東區","LI":"路東里","LIN":"17鄰","STREET":"大同路","SECT":"二段","MAREA":" ","LANE":"６１巷","ALLEY":" ","HOUSE_NO":"１４０號","E_COORD97":169443.10000000001,"N_COORD97":2542303.6099999999,"ADDRESS":"大同路二段６１巷１４０號","OBJECTID":269228},"geometry":{"x":169443.10000000056,"y":2542303.6099999994}},{"attributes":{"ID":269234,"DIS_CODE":0,"TOWNNAME":"東區","LI":"德光里","LIN":"17鄰","STREET":"德光街","SECT":" ","MAREA":" ","LANE":"５８巷","ALLEY":" ","HOUSE_NO":"１１號","E_COORD97":170228.70999999999,"N_COORD97":2542408.6699999999,"ADDRESS":"德光街５８巷１１號","OBJECTID":269229},"geometry":{"x":170228.70999999996,"y":2542408.6699999999}},{"attributes":{"ID":269235,"DIS_CODE":0,"TOWNNAME":"東區","LI":"德光里","LIN":"17鄰","STREET":"德光街","SECT":" ","MAREA":" ","LANE":"５８巷","ALLEY":" ","HOUSE_NO":"１３號","E_COORD97":170225.35000000001,"N_COORD97":2542411.1600000001,"ADDRESS":"德光街５８巷１３號","OBJECTID":269230},"geometry":{"x":170225.34999999963,"y":2542411.160000002}},{"attributes":{"ID":269236,"DIS_CODE":0,"TOWNNAME":"東區","LI":"德光里","LIN":"17鄰","STREET":"德光街","SECT":" ","MAREA":" ","LANE":"５８巷","ALLEY":" ","HOUSE_NO":"１５號","E_COORD97":170222.54999999999,"N_COORD97":2542413.6000000001,"ADDRESS":"德光街５８巷１５號","OBJECTID":269231},"geometry":{"x":170222.54999999981,"y":2542413.6000000015}},{"attributes":{"ID":269237,"DIS_CODE":0,"TOWNNAME":"歸仁區","LI":"南保里","LIN":"3鄰","STREET":"民權二街","SECT":" ","MAREA":" ","LANE":" ","ALLEY":" ","HOUSE_NO":"７７號","E_COORD97":176953.89000000001,"N_COORD97":2541440.29,"ADDRESS":"民權二街７７號","OBJECTID":269232},"geometry":{"x":176953.88999999966,"y":2541440.2899999991}},{"attributes":{"ID":269238,"DIS_CODE":0,"TOWNNAME":"中西區","LI":"民生里","LIN":"17鄰","STREET":"保安路","SECT":" ","MAREA":" ","LANE":"１７９巷","ALLEY":" ","HOUSE_NO":"２號","E_COORD97":167189.39000000001,"N_COORD97":2543520.7599999998,"ADDRESS":"保安路１７９巷２號","OBJECTID":269233},"geometry":{"x":167189.38999999966,"y":2543520.7600000016}},{"attributes":{"ID":269239,"DIS_CODE":0,"TOWNNAME":"新營區","LI":"埤寮里","LIN":"3鄰","STREET":" ","SECT":" ","MAREA":"許丑","LANE":" ","ALLEY":" ","HOUSE_NO":"３３號","E_COORD97":179856.07999999999,"N_COORD97":2581026.4100000001,"ADDRESS":"許丑３３號","OBJECTID":269234},"geometry":{"x":179856.08000000101,"y":2581026.4100000001}},{"attributes":{"ID":269240,"DIS_CODE":0,"TOWNNAME":"歸仁區","LI":"六甲里","LIN":"3鄰","STREET":"中正南路","SECT":"一段","MAREA":" ","LANE":" ","ALLEY":" ","HOUSE_NO":"６３９號","E_COORD97":176644.06227600001,"N_COORD97":2539847.95682,"ADDRESS":"中正南路一段６３９號","OBJECTID":269235},"geometry":{"x":176644.06227600016,"y":2539847.9568230007}},{"attributes":{"ID":269241,"DIS_CODE":0,"TOWNNAME":"新營區","LI":"埤寮里","LIN":"3鄰","STREET":" ","SECT":" ","MAREA":"許丑","LANE":" ","ALLEY":" ","HOUSE_NO":"３９之２號","E_COORD97":179883.87,"N_COORD97":2580967.6400000001,"ADDRESS":"許丑３９之２號","OBJECTID":269236},"geometry":{"x":179883.86999999918,"y":2580967.6400000006}},{"attributes":{"ID":269242,"DIS_CODE":0,"TOWNNAME":"中西區","LI":"民生里","LIN":"17鄰","STREET":"保安路","SECT":" ","MAREA":" ","LANE":"１７９巷","ALLEY":" ","HOUSE_NO":"４號","E_COORD97":167187.34,"N_COORD97":2543516.21,"ADDRESS":"保安路１７９巷４號","OBJECTID":269237},"geometry":{"x":167187.34000000078,"y":2543516.2100000028}},{"attributes":{"ID":269243,"DIS_CODE":0,"TOWNNAME":"新營區","LI":"埤寮里","LIN":"3鄰","STREET":" ","SECT":" ","MAREA":"許丑","LANE":" ","ALLEY":" ","HOUSE_NO":"３４之１號","E_COORD97":179850.35999999999,"N_COORD97":2581017.6400000001,"ADDRESS":"許丑３４之１號","OBJECTID":269238},"geometry":{"x":179850.3600000022,"y":2581017.6400000025}},{"attributes":{"ID":269244,"DIS_CODE":0,"TOWNNAME":"新營區","LI":"鐵線里","LIN":"3鄰","STREET":" ","SECT":" ","MAREA":"鐵線橋","LANE":" ","ALLEY":" ","HOUSE_NO":"２１號","E_COORD97":176040.54000000001,"N_COORD97":2573879.73,"ADDRESS":"鐵線橋２１號","OBJECTID":269239},"geometry":{"x":176040.54000000097,"y":2573879.7300000023}},{"attributes":{"ID":269245,"DIS_CODE":0,"TOWNNAME":"新營區","LI":"埤寮里","LIN":"3鄰","STREET":" ","SECT":" ","MAREA":"許丑","LANE":" ","ALLEY":" ","HOUSE_NO":"４０號","E_COORD97":179862,"N_COORD97":2580982.0800000001,"ADDRESS":"許丑４０號","OBJECTID":269240},"geometry":{"x":179862,"y":2580982.0799999982}},{"attributes":{"ID":269246,"DIS_CODE":0,"TOWNNAME":"中西區","LI":"民生里","LIN":"17鄰","STREET":"保安路","SECT":" ","MAREA":" ","LANE":"１７９巷","ALLEY":" ","HOUSE_NO":"５號","E_COORD97":167194.85999999999,"N_COORD97":2543511.6499999999,"ADDRESS":"保安路１７９巷５號","OBJECTID":269241},"geometry":{"x":167194.86000000127,"y":2543511.6500000041}},{"attributes":{"ID":269247,"DIS_CODE":0,"TOWNNAME":"新營區","LI":"太北里","LIN":"3鄰","STREET":" ","SECT":" ","MAREA":"太子宮","LANE":" ","ALLEY":" ","HOUSE_NO":"２３號之１４","E_COORD97":176121.95999999999,"N_COORD97":2577216.1499999999,"ADDRESS":"太子宮２３號之１４","OBJECTID":269242},"geometry":{"x":176121.96000000089,"y":2577216.1500000022}},{"attributes":{"ID":269248,"DIS_CODE":0,"TOWNNAME":"新營區","LI":"太北里","LIN":"3鄰","STREET":" ","SECT":" ","MAREA":"太子宮","LANE":" ","ALLEY":" ","HOUSE_NO":"２３之１０號","E_COORD97":176134.67000000001,"N_COORD97":2577233.8100000001,"ADDRESS":"太子宮２３之１０號","OBJECTID":269243},"geometry":{"x":176134.66999999993,"y":2577233.8100000005}},{"attributes":{"ID":269249,"DIS_CODE":0,"TOWNNAME":"中西區","LI":"民生里","LIN":"17鄰","STREET":"保安路","SECT":" ","MAREA":" ","LANE":"１７９巷","ALLEY":" ","HOUSE_NO":"６號","E_COORD97":167186.42999999999,"N_COORD97":2543511.4199999999,"ADDRESS":"保安路１７９巷６號","OBJECTID":269244},"geometry":{"x":167186.43000000063,"y":2543511.4199999999}},{"attributes":{"ID":269250,"DIS_CODE":0,"TOWNNAME":"中西區","LI":"民生里","LIN":"17鄰","STREET":"保安路","SECT":" ","MAREA":" ","LANE":"１７９巷","ALLEY":" ","HOUSE_NO":"７號","E_COORD97":167193.72,"N_COORD97":2543508.0099999998,"ADDRESS":"保安路１７９巷７號","OBJECTID":269245},"geometry":{"x":167193.71999999974,"y":2543508.0099999998}},{"attributes":{"ID":269251,"DIS_CODE":0,"TOWNNAME":"中西區","LI":"民生里","LIN":"17鄰","STREET":"保安路","SECT":" ","MAREA":" ","LANE":"１７９巷","ALLEY":" ","HOUSE_NO":"８號","E_COORD97":167185.51999999999,"N_COORD97":2543506.1899999999,"ADDRESS":"保安路１７９巷８號","OBJECTID":269246},"geometry":{"x":167185.52000000142,"y":2543506.1899999995}},{"attributes":{"ID":269252,"DIS_CODE":0,"TOWNNAME":"中西區","LI":"民生里","LIN":"17鄰","STREET":"保安路","SECT":" ","MAREA":" ","LANE":"１７９巷","ALLEY":" ","HOUSE_NO":"９號","E_COORD97":167192.81,"N_COORD97":2543504.1400000001,"ADDRESS":"保安路１７９巷９號","OBJECTID":269247},"geometry":{"x":167192.80999999959,"y":2543504.1400000006}},{"attributes":{"ID":269253,"DIS_CODE":0,"TOWNNAME":"新營區","LI":"太北里","LIN":"3鄰","STREET":" ","SECT":" ","MAREA":"太子宮","LANE":" ","ALLEY":" ","HOUSE_NO":"２３號之１６","E_COORD97":176110.79000000001,"N_COORD97":2577216.21,"ADDRESS":"太子宮２３號之１６","OBJECTID":269248},"geometry":{"x":176110.79000000004,"y":2577216.2100000028}},{"attributes":{"ID":269254,"DIS_CODE":0,"TOWNNAME":"中西區","LI":"民生里","LIN":"17鄰","STREET":"保安路","SECT":" ","MAREA":" ","LANE":"１８５巷","ALLEY":" ","HOUSE_NO":"３號","E_COORD97":167176.85000000001,"N_COORD97":2543514.6099999999,"ADDRESS":"保安路１８５巷３號","OBJECTID":269249},"geometry":{"x":167176.85000000056,"y":2543514.6100000013}},{"attributes":{"ID":269255,"DIS_CODE":0,"TOWNNAME":"中西區","LI":"民生里","LIN":"17鄰","STREET":"保安路","SECT":" ","MAREA":" ","LANE":"１８５巷","ALLEY":" ","HOUSE_NO":"５號","E_COORD97":167175.70999999999,"N_COORD97":2543511.4199999999,"ADDRESS":"保安路１８５巷５號","OBJECTID":269250},"geometry":{"x":167175.70999999996,"y":2543511.4199999999}},{"attributes":{"ID":269256,"DIS_CODE":0,"TOWNNAME":"中西區","LI":"民生里","LIN":"17鄰","STREET":"保安路","SECT":" ","MAREA":" ","LANE":"１８５巷","ALLEY":" ","HOUSE_NO":"７號","E_COORD97":167175.03,"N_COORD97":2543507.7799999998,"ADDRESS":"保安路１８５巷７號","OBJECTID":269251},"geometry":{"x":167175.03000000119,"y":2543507.7800000012}},{"attributes":{"ID":269257,"DIS_CODE":0,"TOWNNAME":"中西區","LI":"民生里","LIN":"17鄰","STREET":"保安路","SECT":" ","MAREA":" ","LANE":"１８５巷","ALLEY":" ","HOUSE_NO":"９號","E_COORD97":167173.66,"N_COORD97":2543501.8599999999,"ADDRESS":"保安路１８５巷９號","OBJECTID":269252},"geometry":{"x":167173.66000000108,"y":2543501.8599999994}},{"attributes":{"ID":269258,"DIS_CODE":0,"TOWNNAME":"永康區","LI":"正強里","LIN":"17鄰","STREET":"自強路","SECT":" ","MAREA":" ","LANE":"１８８巷","ALLEY":" ","HOUSE_NO":"５０號","E_COORD97":173217.23999999999,"N_COORD97":2547314.4199999999,"ADDRESS":"自強路１８８巷５０號","OBJECTID":269253},"geometry":{"x":173217.24000000022,"y":2547314.4200000018}},{"attributes":{"ID":269259,"DIS_CODE":0,"TOWNNAME":"新營區","LI":"南紙里","LIN":"3鄰","STREET":"太子路","SECT":" ","MAREA":" ","LANE":" ","ALLEY":" ","HOUSE_NO":"１４７號","E_COORD97":177937.60999999999,"N_COORD97":2577866.0899999999,"ADDRESS":"太子路１４７號","OBJECTID":269254},"geometry":{"x":177937.61000000034,"y":2577866.089999998}},{"attributes":{"ID":269260,"DIS_CODE":0,"TOWNNAME":"新營區","LI":"埤寮里","LIN":"3鄰","STREET":" ","SECT":" ","MAREA":"許丑","LANE":" ","ALLEY":" ","HOUSE_NO":"３１之１號","E_COORD97":179901.51999999999,"N_COORD97":2581021.8300000001,"ADDRESS":"許丑３１之１號","OBJECTID":269255},"geometry":{"x":179901.52000000048,"y":2581021.8300000019}},{"attributes":{"ID":269261,"DIS_CODE":0,"TOWNNAME":"永康區","LI":"正強里","LIN":"17鄰","STREET":"自強路","SECT":" ","MAREA":" ","LANE":"１８８巷","ALLEY":" ","HOUSE_NO":"２８號之７","E_COORD97":173205.53,"N_COORD97":2547400.04,"ADDRESS":"自強路１８８巷２８號之７","OBJECTID":269256},"geometry":{"x":173205.53000000026,"y":2547400.0400000028}},{"attributes":{"ID":269262,"DIS_CODE":0,"TOWNNAME":"新營區","LI":"埤寮里","LIN":"3鄰","STREET":" ","SECT":" ","MAREA":"許丑","LANE":" ","ALLEY":" ","HOUSE_NO":"３０號","E_COORD97":179904.20000000001,"N_COORD97":2581037.25,"ADDRESS":"許丑３０號","OBJECTID":269257},"geometry":{"x":179904.20000000112,"y":2581037.25}},{"attributes":{"ID":269263,"DIS_CODE":0,"TOWNNAME":"新營區","LI":"鐵線里","LIN":"3鄰","STREET":" ","SECT":" ","MAREA":"鐵線橋","LANE":" ","ALLEY":" ","HOUSE_NO":"２３號","E_COORD97":175993.37,"N_COORD97":2573860.0299999998,"ADDRESS":"鐵線橋２３號","OBJECTID":269258},"geometry":{"x":175993.37000000011,"y":2573860.0300000012}},{"attributes":{"ID":269264,"DIS_CODE":0,"TOWNNAME":"新營區","LI":"太北里","LIN":"3鄰","STREET":" ","SECT":" ","MAREA":"太子宮","LANE":" ","ALLEY":" ","HOUSE_NO":"１７之５號","E_COORD97":176083.87,"N_COORD97":2577159.8500000001,"ADDRESS":"太子宮１７之５號","OBJECTID":269259},"geometry":{"x":176083.87000000104,"y":2577159.8500000015}},{"attributes":{"ID":269265,"DIS_CODE":0,"TOWNNAME":"新營區","LI":"太北里","LIN":"3鄰","STREET":" ","SECT":" ","MAREA":"太子宮","LANE":" ","ALLEY":" ","HOUSE_NO":"２３號之３","E_COORD97":176125.10999999999,"N_COORD97":2577262.6400000001,"ADDRESS":"太子宮２３號之３","OBJECTID":269260},"geometry":{"x":176125.11000000127,"y":2577262.6400000006}},{"attributes":{"ID":269266,"DIS_CODE":0,"TOWNNAME":"新營區","LI":"埤寮里","LIN":"3鄰","STREET":" ","SECT":" ","MAREA":"許丑","LANE":" ","ALLEY":" ","HOUSE_NO":"２７之８號","E_COORD97":179897.32999999999,"N_COORD97":2581006.3399999999,"ADDRESS":"許丑２７之８號","OBJECTID":269261},"geometry":{"x":179897.33000000007,"y":2581006.3399999999}},{"attributes":{"ID":269267,"DIS_CODE":0,"TOWNNAME":"新營區","LI":"太北里","LIN":"3鄰","STREET":" ","SECT":" ","MAREA":"太子宮","LANE":" ","ALLEY":" ","HOUSE_NO":"２０號","E_COORD97":176026.44,"N_COORD97":2577206.6000000001,"ADDRESS":"太子宮２０號","OBJECTID":269262},"geometry":{"x":176026.44000000041,"y":2577206.5999999996}},{"attributes":{"ID":269268,"DIS_CODE":0,"TOWNNAME":"新營區","LI":"角帶里","LIN":"3鄰","STREET":" ","SECT":" ","MAREA":"角帶圍","LANE":" ","ALLEY":" ","HOUSE_NO":"４０號","E_COORD97":174767.51000000001,"N_COORD97":2575858.5099999998,"ADDRESS":"角帶圍４０號","OBJECTID":269263},"geometry":{"x":174767.50999999978,"y":2575858.5099999998}},{"attributes":{"ID":269269,"DIS_CODE":0,"TOWNNAME":"新營區","LI":"角帶里","LIN":"3鄰","STREET":" ","SECT":" ","MAREA":"角帶圍","LANE":" ","ALLEY":" ","HOUSE_NO":"３３之３號","E_COORD97":174813.39000000001,"N_COORD97":2575940.29,"ADDRESS":"角帶圍３３之３號","OBJECTID":269264},"geometry":{"x":174813.3900000006,"y":2575940.2899999991}},{"attributes":{"ID":269270,"DIS_CODE":0,"TOWNNAME":"新營區","LI":"角帶里","LIN":"3鄰","STREET":" ","SECT":" ","MAREA":"角帶圍","LANE":" ","ALLEY":" ","HOUSE_NO":"３６之１０號","E_COORD97":174901.44,"N_COORD97":2575907.73,"ADDRESS":"角帶圍３６之１０號","OBJECTID":269265},"geometry":{"x":174901.44000000041,"y":2575907.7300000023}},{"attributes":{"ID":269271,"DIS_CODE":0,"TOWNNAME":"新營區","LI":"角帶里","LIN":"3鄰","STREET":" ","SECT":" ","MAREA":"角帶圍","LANE":" ","ALLEY":" ","HOUSE_NO":"３６號","E_COORD97":174837.26000000001,"N_COORD97":2575894.7000000002,"ADDRESS":"角帶圍３６號","OBJECTID":269266},"geometry":{"x":174837.25999999978,"y":2575894.6999999993}},{"attributes":{"ID":269272,"DIS_CODE":0,"TOWNNAME":"新營區","LI":"角帶里","LIN":"3鄰","STREET":" ","SECT":" ","MAREA":"角帶圍","LANE":" ","ALLEY":" ","HOUSE_NO":"３６之１１號","E_COORD97":174905.53,"N_COORD97":2575906.6000000001,"ADDRESS":"角帶圍３６之１１號","OBJECTID":269267},"geometry":{"x":174905.53000000026,"y":2575906.6000000015}},{"attributes":{"ID":269273,"DIS_CODE":0,"TOWNNAME":"歸仁區","LI":"大廟里","LIN":"15鄰","STREET":"大廟五街","SECT":" ","MAREA":" ","LANE":"１３２巷","ALLEY":" ","HOUSE_NO":"３號","E_COORD97":176104.88,"N_COORD97":2544453.5299999998,"ADDRESS":"大廟五街１３２巷３號","OBJECTID":269268},"geometry":{"x":176104.87999999989,"y":2544453.5299999993}},{"attributes":{"ID":269274,"DIS_CODE":0,"TOWNNAME":"新營區","LI":"南紙里","LIN":"3鄰","STREET":"太子路","SECT":" ","MAREA":" ","LANE":" ","ALLEY":" ","HOUSE_NO":"１４９號","E_COORD97":177934.54000000001,"N_COORD97":2577863.8900000001,"ADDRESS":"太子路１４９號","OBJECTID":269269},"geometry":{"x":177934.54000000004,"y":2577863.8900000006}},{"attributes":{"ID":269275,"DIS_CODE":0,"TOWNNAME":"歸仁區","LI":"新厝里","LIN":"3鄰","STREET":"中正一街","SECT":" ","MAREA":" ","LANE":" ","ALLEY":" ","HOUSE_NO":"５３號","E_COORD97":177735.39000000001,"N_COORD97":2540705.6800000002,"ADDRESS":"中正一街５３號","OBJECTID":269270},"geometry":{"x":177735.38999999966,"y":2540705.6799999997}},{"attributes":{"ID":269276,"DIS_CODE":0,"TOWNNAME":"歸仁區","LI":"大廟里","LIN":"3鄰","STREET":"和順路","SECT":"二段","MAREA":" ","LANE":" ","ALLEY":" ","HOUSE_NO":"９４號","E_COORD97":176241.98999999999,"N_COORD97":2543643.2799999998,"ADDRESS":"和順路二段９４號","OBJECTID":269271},"geometry":{"x":176241.99000000209,"y":2543643.2800000012}},{"attributes":{"ID":269277,"DIS_CODE":0,"TOWNNAME":"永康區","LI":"永康里","LIN":"17鄰","STREET":"永中街","SECT":" ","MAREA":" ","LANE":"１１８巷","ALLEY":" ","HOUSE_NO":"２６號","E_COORD97":174041.62,"N_COORD97":2547195.7400000002,"ADDRESS":"永中街１１８巷２６號","OBJECTID":269272},"geometry":{"x":174041.62000000011,"y":2547195.7400000002}},{"attributes":{"ID":269278,"DIS_CODE":0,"TOWNNAME":"永康區","LI":"安康里","LIN":"17鄰","STREET":"中華路","SECT":" ","MAREA":" ","LANE":"６６１巷","ALLEY":" ","HOUSE_NO":"５號","E_COORD97":170970.63,"N_COORD97":2546206.25,"ADDRESS":"中華路６６１巷５號","OBJECTID":269273},"geometry":{"x":170970.63000000082,"y":2546206.2500000019}},{"attributes":{"ID":269279,"DIS_CODE":0,"TOWNNAME":"麻豆區","LI":"寮\u25A0里","LIN":"3鄰","STREET":" ","SECT":" ","MAREA":"寮子\u25A0","LANE":" ","ALLEY":" ","HOUSE_NO":"２９號","E_COORD97":176598.34,"N_COORD97":2565435.3999999999,"ADDRESS":"寮子\u25A0２９號","OBJECTID":269274},"geometry":{"x":176598.33999999985,"y":2565435.3999999985}},{"attributes":{"ID":269280,"DIS_CODE":0,"TOWNNAME":"麻豆區","LI":"寮\u25A0里","LIN":"3鄰","STREET":" ","SECT":" ","MAREA":"寮子\u25A0","LANE":" ","ALLEY":" ","HOUSE_NO":"２１號","E_COORD97":176525.22,"N_COORD97":2565498.0800000001,"ADDRESS":"寮子\u25A0２１號","OBJECTID":269275},"geometry":{"x":176525.22000000067,"y":2565498.0800000001}},{"attributes":{"ID":269281,"DIS_CODE":0,"TOWNNAME":"永康區","LI":"安康里","LIN":"17鄰","STREET":"中華路","SECT":" ","MAREA":" ","LANE":"６１９巷","ALLEY":" ","HOUSE_NO":"１０號","E_COORD97":171028.89999999999,"N_COORD97":2546099.5,"ADDRESS":"中華路６１９巷１０號","OBJECTID":269276},"geometry":{"x":171028.9000000013,"y":2546099.5000000019}},{"attributes":{"ID":269282,"DIS_CODE":0,"TOWNNAME":"南區","LI":"同安里","LIN":"17鄰","STREET":"明興路","SECT":" ","MAREA":" ","LANE":"１４２５巷","ALLEY":" ","HOUSE_NO":"２號","E_COORD97":166370.41,"N_COORD97":2535758.5099999998,"ADDRESS":"明興路１４２５巷２號","OBJECTID":269277},"geometry":{"x":166370.41000000108,"y":2535758.5100000016}},{"attributes":{"ID":269283,"DIS_CODE":0,"TOWNNAME":"南區","LI":"同安里","LIN":"17鄰","STREET":"明興路","SECT":" ","MAREA":" ","LANE":"１４２５巷","ALLEY":" ","HOUSE_NO":"４號","E_COORD97":166373.70000000001,"N_COORD97":2535755.6499999999,"ADDRESS":"明興路１４２５巷４號","OBJECTID":269278},"geometry":{"x":166373.70000000112,"y":2535755.6500000022}},{"attributes":{"ID":269284,"DIS_CODE":0,"TOWNNAME":"歸仁區","LI":"六甲里","LIN":"33鄰","STREET":"六甲路","SECT":" ","MAREA":" ","LANE":"３０６巷","ALLEY":" ","HOUSE_NO":"３號","E_COORD97":175692.57000000001,"N_COORD97":2539249.25,"ADDRESS":"六甲路３０６巷３號","OBJECTID":269279},"geometry":{"x":175692.57000000123,"y":2539249.2500000019}},{"attributes":{"ID":269285,"DIS_CODE":0,"TOWNNAME":"麻豆區","LI":"寮\u25A0里","LIN":"3鄰","STREET":" ","SECT":" ","MAREA":"寮子\u25A0","LANE":" ","ALLEY":" ","HOUSE_NO":"２４號","E_COORD97":176542.73000000001,"N_COORD97":2565464.3700000001,"ADDRESS":"寮子\u25A0２４號","OBJECTID":269280},"geometry":{"x":176542.73000000138,"y":2565464.3700000029}},{"attributes":{"ID":269286,"DIS_CODE":0,"TOWNNAME":"歸仁區","LI":"大廟里","LIN":"5鄰","STREET":"和順路","SECT":"二段","MAREA":" ","LANE":"１５１巷","ALLEY":" ","HOUSE_NO":"３０號","E_COORD97":176160.85000000001,"N_COORD97":2543520.98,"ADDRESS":"和順路二段１５１巷３０號","OBJECTID":269281},"geometry":{"x":176160.8499999987,"y":2543520.9800000023}},{"attributes":{"ID":269287,"DIS_CODE":0,"TOWNNAME":"歸仁區","LI":"大潭里","LIN":"3鄰","STREET":"大潭一街","SECT":" ","MAREA":" ","LANE":" ","ALLEY":" ","HOUSE_NO":"６５號","E_COORD97":175293.76999999999,"N_COORD97":2534607.25,"ADDRESS":"大潭一街６５號","OBJECTID":269282},"geometry":{"x":175293.77000000048,"y":2534607.2499999981}},{"attributes":{"ID":269288,"DIS_CODE":0,"TOWNNAME":"麻豆區","LI":"寮\u25A0里","LIN":"3鄰","STREET":" ","SECT":" ","MAREA":"寮子\u25A0","LANE":" ","ALLEY":" ","HOUSE_NO":"２５號之１","E_COORD97":176548.66,"N_COORD97":2565438.6299999999,"ADDRESS":"寮子\u25A0２５號之１","OBJECTID":269283},"geometry":{"x":176548.66000000015,"y":2565438.629999999}},{"attributes":{"ID":269289,"DIS_CODE":0,"TOWNNAME":"麻豆區","LI":"寮\u25A0里","LIN":"3鄰","STREET":" ","SECT":" ","MAREA":"寮子\u25A0","LANE":" ","ALLEY":" ","HOUSE_NO":"２６號之２","E_COORD97":176532.37,"N_COORD97":2565438.1200000001,"ADDRESS":"寮子\u25A0２６號之２","OBJECTID":269284},"geometry":{"x":176532.37000000011,"y":2565438.1200000048}},{"attributes":{"ID":269290,"DIS_CODE":0,"TOWNNAME":"麻豆區","LI":"寮\u25A0里","LIN":"3鄰","STREET":" ","SECT":" ","MAREA":"寮子\u25A0","LANE":" ","ALLEY":" ","HOUSE_NO":"２６號","E_COORD97":176533.12,"N_COORD97":2565431.4700000002,"ADDRESS":"寮子\u25A0２６號","OBJECTID":269285},"geometry":{"x":176533.12000000104,"y":2565431.4700000007}},{"attributes":{"ID":269291,"DIS_CODE":0,"TOWNNAME":"東山區","LI":"三榮里","LIN":"3鄰","STREET":" ","SECT":" ","MAREA":"許秀才","LANE":" ","ALLEY":" ","HOUSE_NO":"２１號","E_COORD97":187283.34,"N_COORD97":2579288.46,"ADDRESS":"許秀才２１號","OBJECTID":269286},"geometry":{"x":187283.33999999892,"y":2579288.4600000009}},{"attributes":{"ID":269292,"DIS_CODE":0,"TOWNNAME":"南區","LI":"同安里","LIN":"17鄰","STREET":"明興路","SECT":" ","MAREA":" ","LANE":"１４２５巷","ALLEY":" ","HOUSE_NO":"６號","E_COORD97":166378.29000000001,"N_COORD97":2535758.25,"ADDRESS":"明興路１４２５巷６號","OBJECTID":269287},"geometry":{"x":166378.29000000004,"y":2535758.2500000019}},{"attributes":{"ID":269293,"DIS_CODE":0,"TOWNNAME":"東山區","LI":"三榮里","LIN":"3鄰","STREET":" ","SECT":" ","MAREA":"許秀才","LANE":" ","ALLEY":" ","HOUSE_NO":"２２號之１","E_COORD97":187296.14999999999,"N_COORD97":2579250.98,"ADDRESS":"許秀才２２號之１","OBJECTID":269288},"geometry":{"x":187296.1500000013,"y":2579250.9800000042}},{"attributes":{"ID":269294,"DIS_CODE":0,"TOWNNAME":"南區","LI":"同安里","LIN":"17鄰","STREET":"明興路","SECT":" ","MAREA":" ","LANE":"１４２５巷","ALLEY":" ","HOUSE_NO":"１０號","E_COORD97":166389.89000000001,"N_COORD97":2535755.7400000002,"ADDRESS":"明興路１４２５巷１０號","OBJECTID":269289},"geometry":{"x":166389.8900000006,"y":2535755.7400000002}},{"attributes":{"ID":269295,"DIS_CODE":0,"TOWNNAME":"南區","LI":"同安里","LIN":"17鄰","STREET":"明興路","SECT":" ","MAREA":" ","LANE":"１４２５巷","ALLEY":" ","HOUSE_NO":"１２號","E_COORD97":166393.60999999999,"N_COORD97":2535752.54,"ADDRESS":"明興路１４２５巷１２號","OBJECTID":269290},"geometry":{"x":166393.61000000034,"y":2535752.5399999991}},{"attributes":{"ID":269296,"DIS_CODE":0,"TOWNNAME":"東山區","LI":"三榮里","LIN":"3鄰","STREET":" ","SECT":" ","MAREA":"許秀才","LANE":" ","ALLEY":" ","HOUSE_NO":"２２號","E_COORD97":187301.82999999999,"N_COORD97":2579271.6400000001,"ADDRESS":"許秀才２２號","OBJECTID":269291},"geometry":{"x":187301.83000000007,"y":2579271.6400000025}},{"attributes":{"ID":269297,"DIS_CODE":0,"TOWNNAME":"東山區","LI":"三榮里","LIN":"3鄰","STREET":" ","SECT":" ","MAREA":"許秀才","LANE":" ","ALLEY":" ","HOUSE_NO":"２３號","E_COORD97":187231.57999999999,"N_COORD97":2579277,"ADDRESS":"許秀才２３號","OBJECTID":269292},"geometry":{"x":187231.58000000101,"y":2579277}},{"attributes":{"ID":269298,"DIS_CODE":0,"TOWNNAME":"東山區","LI":"三榮里","LIN":"3鄰","STREET":" ","SECT":" ","MAREA":"許秀才","LANE":" ","ALLEY":" ","HOUSE_NO":"２４號","E_COORD97":187208.79999999999,"N_COORD97":2579239.3700000001,"ADDRESS":"許秀才２４號","OBJECTID":269293},"geometry":{"x":187208.79999999981,"y":2579239.3700000029}},{"attributes":{"ID":269299,"DIS_CODE":0,"TOWNNAME":"歸仁區","LI":"七甲里","LIN":"6鄰","STREET":"七甲三街","SECT":" ","MAREA":" ","LANE":"７２巷","ALLEY":" ","HOUSE_NO":"１５號","E_COORD97":177625.34,"N_COORD97":2542815.6600000001,"ADDRESS":"七甲三街７２巷１５號","OBJECTID":269294},"geometry":{"x":177625.33999999985,"y":2542815.6600000001}},{"attributes":{"ID":269300,"DIS_CODE":0,"TOWNNAME":"南區","LI":"府南里","LIN":"17鄰","STREET":"大成路","SECT":"二段","MAREA":" ","LANE":"１７７巷","ALLEY":" ","HOUSE_NO":"１１號","E_COORD97":167248.32999999999,"N_COORD97":2541696.1299999999,"ADDRESS":"大成路二段１７７巷１１號","OBJECTID":269295},"geometry":{"x":167248.33000000194,"y":2541696.129999999}},{"attributes":{"ID":269301,"DIS_CODE":0,"TOWNNAME":"東山區","LI":"三榮里","LIN":"3鄰","STREET":" ","SECT":" ","MAREA":"許秀才","LANE":" ","ALLEY":" ","HOUSE_NO":"２５號之１","E_COORD97":187181.20000000001,"N_COORD97":2579297.0600000001,"ADDRESS":"許秀才２５號之１","OBJECTID":269296},"geometry":{"x":187181.19999999925,"y":2579297.0600000005}},{"attributes":{"ID":269302,"DIS_CODE":0,"TOWNNAME":"東山區","LI":"三榮里","LIN":"3鄰","STREET":" ","SECT":" ","MAREA":"許秀才","LANE":" ","ALLEY":" ","HOUSE_NO":"２５號","E_COORD97":187226.16,"N_COORD97":2579294.29,"ADDRESS":"許秀才２５號","OBJECTID":269297},"geometry":{"x":187226.16000000108,"y":2579294.2899999991}},{"attributes":{"ID":269303,"DIS_CODE":0,"TOWNNAME":"東山區","LI":"三榮里","LIN":"3鄰","STREET":" ","SECT":" ","MAREA":"許秀才","LANE":" ","ALLEY":" ","HOUSE_NO":"２６號之１","E_COORD97":187171.87,"N_COORD97":2579283.98,"ADDRESS":"許秀才２６號之１","OBJECTID":269298},"geometry":{"x":187171.87000000104,"y":2579283.9800000004}},{"attributes":{"ID":269304,"DIS_CODE":0,"TOWNNAME":"南區","LI":"府南里","LIN":"17鄰","STREET":"大成路","SECT":"二段","MAREA":" ","LANE":"１７７巷","ALLEY":" ","HOUSE_NO":"１３號","E_COORD97":167252.35000000001,"N_COORD97":2541694.79,"ADDRESS":"大成路二段１７７巷１３號","OBJECTID":269299},"geometry":{"x":167252.34999999963,"y":2541694.7899999991}},{"attributes":{"ID":269305,"DIS_CODE":0,"TOWNNAME":"東山區","LI":"三榮里","LIN":"3鄰","STREET":" ","SECT":" ","MAREA":"許秀才","LANE":" ","ALLEY":" ","HOUSE_NO":"２７號","E_COORD97":187182.51000000001,"N_COORD97":2579271.6600000001,"ADDRESS":"許秀才２７號","OBJECTID":269300},"geometry":{"x":187182.51000000071,"y":2579271.6600000001}},{"attributes":{"ID":269306,"DIS_CODE":0,"TOWNNAME":"東山區","LI":"三榮里","LIN":"3鄰","STREET":" ","SECT":" ","MAREA":"許秀才","LANE":" ","ALLEY":" ","HOUSE_NO":"２９號之１","E_COORD97":187219.64999999999,"N_COORD97":2579253.96,"ADDRESS":"許秀才２９號之１","OBJECTID":269301},"geometry":{"x":187219.6500000013,"y":2579253.9600000009}},{"attributes":{"ID":269307,"DIS_CODE":0,"TOWNNAME":"南區","LI":"府南里","LIN":"17鄰","STREET":"大成路","SECT":"二段","MAREA":" ","LANE":"１７７巷","ALLEY":" ","HOUSE_NO":"１５號","E_COORD97":167255.76000000001,"N_COORD97":2541693.3199999998,"ADDRESS":"大成路二段１７７巷１５號","OBJECTID":269302},"geometry":{"x":167255.76000000071,"y":2541693.320000004}},{"attributes":{"ID":269308,"DIS_CODE":0,"TOWNNAME":"東山區","LI":"三榮里","LIN":"3鄰","STREET":" ","SECT":" ","MAREA":"許秀才","LANE":" ","ALLEY":" ","HOUSE_NO":"２９號之２","E_COORD97":187233.97,"N_COORD97":2579249.0099999998,"ADDRESS":"許秀才２９號之２","OBJECTID":269303},"geometry":{"x":187233.97000000067,"y":2579249.0099999998}},{"attributes":{"ID":269309,"DIS_CODE":0,"TOWNNAME":"安南區","LI":"學東里","LIN":"17鄰","STREET":"城北路","SECT":" ","MAREA":" ","LANE":"８００巷","ALLEY":" ","HOUSE_NO":"４６號","E_COORD97":161029.70000000001,"N_COORD97":2553286.3900000001,"ADDRESS":"城北路８００巷４６號","OBJECTID":269304},"geometry":{"x":161029.70000000205,"y":2553286.3900000025}},{"attributes":{"ID":269310,"DIS_CODE":0,"TOWNNAME":"東山區","LI":"三榮里","LIN":"3鄰","STREET":" ","SECT":" ","MAREA":"許秀才","LANE":" ","ALLEY":" ","HOUSE_NO":"２９號","E_COORD97":187188.75,"N_COORD97":2579258.5899999999,"ADDRESS":"許秀才２９號","OBJECTID":269305},"geometry":{"x":187188.75,"y":2579258.5899999999}},{"attributes":{"ID":269311,"DIS_CODE":0,"TOWNNAME":"歸仁區","LI":"六甲里","LIN":"44鄰","STREET":"民生十二街","SECT":" ","MAREA":" ","LANE":"１１５巷","ALLEY":" ","HOUSE_NO":"４９號","E_COORD97":175785.75,"N_COORD97":2539327.7999999998,"ADDRESS":"民生十二街１１５巷４９號","OBJECTID":269306},"geometry":{"x":175785.75000000186,"y":2539327.8000000026}},{"attributes":{"ID":269312,"DIS_CODE":0,"TOWNNAME":"東山區","LI":"三榮里","LIN":"3鄰","STREET":" ","SECT":" ","MAREA":"許秀才","LANE":" ","ALLEY":" ","HOUSE_NO":"３０號","E_COORD97":187158.79999999999,"N_COORD97":2579254.3199999998,"ADDRESS":"許秀才３０號","OBJECTID":269307},"geometry":{"x":187158.80000000075,"y":2579254.3200000003}},{"attributes":{"ID":269313,"DIS_CODE":0,"TOWNNAME":"關廟區","LI":"五甲里","LIN":"3鄰","STREET":"旺萊路","SECT":" ","MAREA":" ","LANE":" ","ALLEY":" ","HOUSE_NO":"２９號","E_COORD97":181485.39000000001,"N_COORD97":2539149.25,"ADDRESS":"旺萊路２９號","OBJECTID":269308},"geometry":{"x":181485.39000000153,"y":2539149.25}},{"attributes":{"ID":269314,"DIS_CODE":0,"TOWNNAME":"仁德區","LI":"新田里","LIN":"17鄰","STREET":"北保東路","SECT":" ","MAREA":" ","LANE":"４６巷","ALLEY":" ","HOUSE_NO":"２２號","E_COORD97":173530.28,"N_COORD97":2539293.75,"ADDRESS":"北保東路４６巷２２號","OBJECTID":269309},"geometry":{"x":173530.28000000119,"y":2539293.7500000019}},{"attributes":{"ID":269315,"DIS_CODE":0,"TOWNNAME":"仁德區","LI":"太子里","LIN":"17鄰","STREET":"太興路","SECT":" ","MAREA":" ","LANE":"１２７巷","ALLEY":" ","HOUSE_NO":"１７號","E_COORD97":174043.73000000001,"N_COORD97":2543601.5,"ADDRESS":"太興路１２７巷１７號","OBJECTID":269310},"geometry":{"x":174043.73000000231,"y":2543601.5000000019}},{"attributes":{"ID":269316,"DIS_CODE":0,"TOWNNAME":"仁德區","LI":"仁義里","LIN":"17鄰","STREET":"正義路","SECT":" ","MAREA":" ","LANE":"２０５巷","ALLEY":" ","HOUSE_NO":"４９號","E_COORD97":174114.5,"N_COORD97":2541452.27,"ADDRESS":"正義路２０５巷４９號","OBJECTID":269311},"geometry":{"x":174114.50000000093,"y":2541452.2700000033}},{"attributes":{"ID":269317,"DIS_CODE":0,"TOWNNAME":"仁德區","LI":"保安里","LIN":"17鄰","STREET":"中正路","SECT":"一段","MAREA":" ","LANE":"７０巷","ALLEY":" ","HOUSE_NO":"７號","E_COORD97":170938.04999999999,"N_COORD97":2535488.27,"ADDRESS":"中正路一段７０巷７號","OBJECTID":269312},"geometry":{"x":170938.04999999981,"y":2535488.2700000033}},{"attributes":{"ID":269318,"DIS_CODE":0,"TOWNNAME":"仁德區","LI":"後壁里","LIN":"17鄰","STREET":"德善路","SECT":" ","MAREA":" ","LANE":"１２巷","ALLEY":" ","HOUSE_NO":"８號","E_COORD97":173262.03,"N_COORD97":2538894.2599999998,"ADDRESS":"德善路１２巷８號","OBJECTID":269313},"geometry":{"x":173262.03000000119,"y":2538894.2600000016}},{"attributes":{"ID":269319,"DIS_CODE":0,"TOWNNAME":"關廟區","LI":"關廟里","LIN":"3鄰","STREET":"武聖路","SECT":" ","MAREA":" ","LANE":" ","ALLEY":" ","HOUSE_NO":"５號","E_COORD97":180969.84,"N_COORD97":2540179.25,"ADDRESS":"武聖路５號","OBJECTID":269314},"geometry":{"x":180969.83999999985,"y":2540179.2500000019}},{"attributes":{"ID":269320,"DIS_CODE":0,"TOWNNAME":"關廟區","LI":"關廟里","LIN":"3鄰","STREET":"武聖路","SECT":" ","MAREA":" ","LANE":" ","ALLEY":" ","HOUSE_NO":"３３號","E_COORD97":180910.39000000001,"N_COORD97":2540187.25,"ADDRESS":"武聖路３３號","OBJECTID":269315},"geometry":{"x":180910.38999999966,"y":2540187.25}},{"attributes":{"ID":269321,"DIS_CODE":0,"TOWNNAME":"仁德區","LI":"保安里","LIN":"17鄰","STREET":"中正路","SECT":"一段","MAREA":" ","LANE":"７０巷","ALLEY":" ","HOUSE_NO":"１２號","E_COORD97":170931.60999999999,"N_COORD97":2535482.77,"ADDRESS":"中正路一段７０巷１２號","OBJECTID":269316},"geometry":{"x":170931.61000000034,"y":2535482.7700000014}},{"attributes":{"ID":269322,"DIS_CODE":0,"TOWNNAME":"仁德區","LI":"保安里","LIN":"17鄰","STREET":"中正路","SECT":"一段","MAREA":" ","LANE":"７０巷","ALLEY":" ","HOUSE_NO":"２號","E_COORD97":170916.63,"N_COORD97":2535507.52,"ADDRESS":"中正路一段７０巷２號","OBJECTID":269317},"geometry":{"x":170916.63000000082,"y":2535507.5200000014}},{"attributes":{"ID":269323,"DIS_CODE":0,"TOWNNAME":"關廟區","LI":"關廟里","LIN":"3鄰","STREET":"武聖路","SECT":" ","MAREA":" ","LANE":" ","ALLEY":" ","HOUSE_NO":"３號","E_COORD97":180974.44,"N_COORD97":2540178.25,"ADDRESS":"武聖路３號","OBJECTID":269318},"geometry":{"x":180974.44000000134,"y":2540178.2500000019}},{"attributes":{"ID":269324,"DIS_CODE":0,"TOWNNAME":"永康區","LI":"永康里","LIN":"17鄰","STREET":"永中街","SECT":" ","MAREA":" ","LANE":"１１８巷","ALLEY":" ","HOUSE_NO":"２５號","E_COORD97":174039.06,"N_COORD97":2547210.9900000002,"ADDRESS":"永中街１１８巷２５號","OBJECTID":269319},"geometry":{"x":174039.06000000052,"y":2547210.9900000002}},{"attributes":{"ID":269325,"DIS_CODE":0,"TOWNNAME":"關廟區","LI":"香洋里","LIN":"3鄰","STREET":"南雄路","SECT":"二段","MAREA":" ","LANE":" ","ALLEY":" ","HOUSE_NO":"１３９號","E_COORD97":181158.03,"N_COORD97":2540431.7599999998,"ADDRESS":"南雄路二段１３９號","OBJECTID":269320},"geometry":{"x":181158.03000000119,"y":2540431.7600000035}},{"attributes":{"ID":269326,"DIS_CODE":0,"TOWNNAME":"永康區","LI":"大橋里","LIN":"17鄰","STREET":"大橋一街","SECT":" ","MAREA":" ","LANE":"１０３巷","ALLEY":" ","HOUSE_NO":"５０號","E_COORD97":170948.84,"N_COORD97":2546547.75,"ADDRESS":"大橋一街１０３巷５０號","OBJECTID":269321},"geometry":{"x":170948.84000000078,"y":2546547.75}},{"attributes":{"ID":269327,"DIS_CODE":0,"TOWNNAME":"關廟區","LI":"香洋里","LIN":"3鄰","STREET":"南雄路","SECT":"二段","MAREA":" ","LANE":" ","ALLEY":" ","HOUSE_NO":"１３５號","E_COORD97":181157.63,"N_COORD97":2540423.7599999998,"ADDRESS":"南雄路二段１３５號","OBJECTID":269322},"geometry":{"x":181157.62999999989,"y":2540423.7599999998}},{"attributes":{"ID":269328,"DIS_CODE":0,"TOWNNAME":"永康區","LI":"埔園里","LIN":"17鄰","STREET":"龍埔街","SECT":" ","MAREA":" ","LANE":"５６２巷","ALLEY":" ","HOUSE_NO":"３４號","E_COORD97":173448.20999999999,"N_COORD97":2548484,"ADDRESS":"龍埔街５６２巷３４號","OBJECTID":269323},"geometry":{"x":173448.20999999903,"y":2548484.0000000019}},{"attributes":{"ID":269329,"DIS_CODE":0,"TOWNNAME":"關廟區","LI":"新埔里","LIN":"3鄰","STREET":"忠孝街","SECT":" ","MAREA":" ","LANE":" ","ALLEY":" ","HOUSE_NO":"２７５號","E_COORD97":181170.73999999999,"N_COORD97":2540802.25,"ADDRESS":"忠孝街２７５號","OBJECTID":269324},"geometry":{"x":181170.74000000115,"y":2540802.2500000019}},{"attributes":{"ID":269330,"DIS_CODE":0,"TOWNNAME":"關廟區","LI":"香洋里","LIN":"3鄰","STREET":"南雄路","SECT":"二段","MAREA":" ","LANE":" ","ALLEY":" ","HOUSE_NO":"１６７號","E_COORD97":181160.19,"N_COORD97":2540504.2799999998,"ADDRESS":"南雄路二段１６７號","OBJECTID":269325},"geometry":{"x":181160.18999999948,"y":2540504.2799999993}},{"attributes":{"ID":269331,"DIS_CODE":0,"TOWNNAME":"關廟區","LI":"新光里","LIN":"3鄰","STREET":"新湖街","SECT":" ","MAREA":" ","LANE":" ","ALLEY":" ","HOUSE_NO":"１７０號","E_COORD97":183572.67000000001,"N_COORD97":2541965.25,"ADDRESS":"新湖街１７０號","OBJECTID":269326},"geometry":{"x":183572.67000000086,"y":2541965.2500000019}},{"attributes":{"ID":269332,"DIS_CODE":0,"TOWNNAME":"關廟區","LI":"南花里","LIN":"3鄰","STREET":"四維街","SECT":" ","MAREA":" ","LANE":" ","ALLEY":" ","HOUSE_NO":"３００號","E_COORD97":181856.26000000001,"N_COORD97":2540121.25,"ADDRESS":"四維街３００號","OBJECTID":269327},"geometry":{"x":181856.26000000071,"y":2540121.2500000019}},{"attributes":{"ID":269333,"DIS_CODE":0,"TOWNNAME":"永康區","LI":"網寮里","LIN":"17鄰","STREET":"永興路","SECT":" ","MAREA":" ","LANE":"４２７巷","ALLEY":" ","HOUSE_NO":"１２號","E_COORD97":173274.62,"N_COORD97":2546840.5899999999,"ADDRESS":"永興路４２７巷１２號","OBJECTID":269328},"geometry":{"x":173274.62000000104,"y":2546840.5899999999}},{"attributes":{"ID":269334,"DIS_CODE":0,"TOWNNAME":"永康區","LI":"西灣里","LIN":"17鄰","STREET":"永大路","SECT":"二段","MAREA":" ","LANE":"５５６巷","ALLEY":" ","HOUSE_NO":"３３號","E_COORD97":174509.45999999999,"N_COORD97":2545408.7799999998,"ADDRESS":"永大路二段５５６巷３３號","OBJECTID":269329},"geometry":{"x":174509.46000000183,"y":2545408.7800000012}},{"attributes":{"ID":269335,"DIS_CODE":0,"TOWNNAME":"永康區","LI":"勝利里","LIN":"17鄰","STREET":"中華一路","SECT":" ","MAREA":" ","LANE":"２８３巷","ALLEY":" ","HOUSE_NO":"４號","E_COORD97":171258.04000000001,"N_COORD97":2544973,"ADDRESS":"中華一路２８３巷４號","OBJECTID":269330},"geometry":{"x":171258.04000000097,"y":2544973}},{"attributes":{"ID":269336,"DIS_CODE":0,"TOWNNAME":"永康區","LI":"永康里","LIN":"17鄰","STREET":"永中街","SECT":" ","MAREA":" ","LANE":"１１８巷","ALLEY":" ","HOUSE_NO":"２７號","E_COORD97":174044.01000000001,"N_COORD97":2547207.7400000002,"ADDRESS":"永中街１１８巷２７號","OBJECTID":269331},"geometry":{"x":174044.00999999978,"y":2547207.7400000021}},{"attributes":{"ID":269337,"DIS_CODE":0,"TOWNNAME":"永康區","LI":"復國里","LIN":"17鄰","STREET":"國華街","SECT":" ","MAREA":" ","LANE":"３６巷","ALLEY":" ","HOUSE_NO":"８號","E_COORD97":172866.12,"N_COORD97":2545644.9900000002,"ADDRESS":"國華街３６巷８號","OBJECTID":269332},"geometry":{"x":172866.12000000104,"y":2545644.9899999984}},{"attributes":{"ID":269338,"DIS_CODE":0,"TOWNNAME":"關廟區","LI":"新埔里","LIN":"3鄰","STREET":"忠孝街","SECT":" ","MAREA":" ","LANE":" ","ALLEY":" ","HOUSE_NO":"２９５號","E_COORD97":181180.34,"N_COORD97":2540851.25,"ADDRESS":"忠孝街２９５號","OBJECTID":269333},"geometry":{"x":181180.33999999985,"y":2540851.25}},{"attributes":{"ID":269339,"DIS_CODE":0,"TOWNNAME":"仁德區","LI":"中生里","LIN":"8鄰","STREET":" ","SECT":" ","MAREA":"中洲","LANE":" ","ALLEY":" ","HOUSE_NO":"１５３之３號","E_COORD97":173102.96548399999,"N_COORD97":2534238.3029399998,"ADDRESS":"中洲１５３之３號","OBJECTID":269334},"geometry":{"x":173102.96548399981,"y":2534238.3029350024}},{"attributes":{"ID":269340,"DIS_CODE":0,"TOWNNAME":"關廟區","LI":"新光里","LIN":"3鄰","STREET":" ","SECT":" ","MAREA":"新光","LANE":" ","ALLEY":" ","HOUSE_NO":"１５之１號","E_COORD97":183678.47,"N_COORD97":2541837.2999999998,"ADDRESS":"新光１５之１號","OBJECTID":269335},"geometry":{"x":183678.4700000016,"y":2541837.3000000026}},{"attributes":{"ID":269341,"DIS_CODE":0,"TOWNNAME":"新化區","LI":"豐榮里","LIN":"3鄰","STREET":" ","SECT":" ","MAREA":"洋子","LANE":" ","ALLEY":" ","HOUSE_NO":"４８號","E_COORD97":178046.404737,"N_COORD97":2548203.2305000001,"ADDRESS":"洋子４８號","OBJECTID":269336},"geometry":{"x":178046.40473700128,"y":2548203.2305020001}},{"attributes":{"ID":269342,"DIS_CODE":0,"TOWNNAME":"新化區","LI":"知義里","LIN":"3鄰","STREET":" ","SECT":" ","MAREA":"知母義","LANE":" ","ALLEY":" ","HOUSE_NO":"１２８號之６","E_COORD97":179798.67000000001,"N_COORD97":2547121.2599999998,"ADDRESS":"知母義１２８號之６","OBJECTID":269337},"geometry":{"x":179798.67000000179,"y":2547121.2600000035}},{"attributes":{"ID":269343,"DIS_CODE":0,"TOWNNAME":"新化區","LI":"崙頂里","LIN":"3鄰","STREET":" ","SECT":" ","MAREA":"崙子頂","LANE":" ","ALLEY":" ","HOUSE_NO":"１４２號","E_COORD97":176778.42999999999,"N_COORD97":2546809.25,"ADDRESS":"崙子頂１４２號","OBJECTID":269338},"geometry":{"x":176778.4299999997,"y":2546809.2499999981}},{"attributes":{"ID":269344,"DIS_CODE":0,"TOWNNAME":"關廟區","LI":"新光里","LIN":"3鄰","STREET":"新湖街","SECT":" ","MAREA":" ","LANE":" ","ALLEY":" ","HOUSE_NO":"２２１號","E_COORD97":183237.26999999999,"N_COORD97":2542349.25,"ADDRESS":"新湖街２２１號","OBJECTID":269339},"geometry":{"x":183237.27000000142,"y":2542349.2500000019}},{"attributes":{"ID":269345,"DIS_CODE":0,"TOWNNAME":"新化區","LI":"羊林里","LIN":"3鄰","STREET":" ","SECT":" ","MAREA":"\u25A0拔林","LANE":" ","ALLEY":" ","HOUSE_NO":"４１７號之３","E_COORD97":183734.17000000001,"N_COORD97":2551804.2599999998,"ADDRESS":"\u25A0拔林４１７號之３","OBJECTID":269340},"geometry":{"x":183734.16999999993,"y":2551804.2600000016}},{"attributes":{"ID":269346,"DIS_CODE":0,"TOWNNAME":"關廟區","LI":"香洋里","LIN":"3鄰","STREET":"中正路","SECT":" ","MAREA":" ","LANE":" ","ALLEY":" ","HOUSE_NO":"９９０號","E_COORD97":181089.66,"N_COORD97":2540318.25,"ADDRESS":"中正路９９０號","OBJECTID":269341},"geometry":{"x":181089.66000000108,"y":2540318.2500000019}},{"attributes":{"ID":269347,"DIS_CODE":0,"TOWNNAME":"新化區","LI":"崙頂里","LIN":"3鄰","STREET":" ","SECT":" ","MAREA":"崙子頂","LANE":" ","ALLEY":" ","HOUSE_NO":"１４４號","E_COORD97":176769.42999999999,"N_COORD97":2546809.25,"ADDRESS":"崙子頂１４４號","OBJECTID":269342},"geometry":{"x":176769.43000000063,"y":2546809.2499999981}},{"attributes":{"ID":269348,"DIS_CODE":0,"TOWNNAME":"永康區","LI":"埔園里","LIN":"17鄰","STREET":"中山路","SECT":" ","MAREA":" ","LANE":"３８３巷","ALLEY":" ","HOUSE_NO":"３號之８","E_COORD97":173493.42999999999,"N_COORD97":2548468.79,"ADDRESS":"中山路３８３巷３號之８","OBJECTID":269343},"geometry":{"x":173493.4299999997,"y":2548468.7899999991}},{"attributes":{"ID":269349,"DIS_CODE":0,"TOWNNAME":"新化區","LI":"知義里","LIN":"3鄰","STREET":" ","SECT":" ","MAREA":"知母義","LANE":" ","ALLEY":" ","HOUSE_NO":"１４３號之４","E_COORD97":179790.35999999999,"N_COORD97":2547091.2599999998,"ADDRESS":"知母義１４３號之４","OBJECTID":269344},"geometry":{"x":179790.36000000034,"y":2547091.2600000016}},{"attributes":{"ID":269350,"DIS_CODE":0,"TOWNNAME":"永康區","LI":"埔園里","LIN":"17鄰","STREET":"龍埔街","SECT":" ","MAREA":" ","LANE":"５６２巷","ALLEY":" ","HOUSE_NO":"２６號","E_COORD97":173453.26000000001,"N_COORD97":2548464.9900000002,"ADDRESS":"龍埔街５６２巷２６號","OBJECTID":269345},"geometry":{"x":173453.26000000071,"y":2548464.9900000002}},{"attributes":{"ID":269351,"DIS_CODE":0,"TOWNNAME":"新化區","LI":"東榮里","LIN":"17鄰","STREET":"中興路","SECT":" ","MAREA":" ","LANE":"６７７巷","ALLEY":" ","HOUSE_NO":"３４號","E_COORD97":179589.85999999999,"N_COORD97":2547958.25,"ADDRESS":"中興路６７７巷３４號","OBJECTID":269346},"geometry":{"x":179589.86000000127,"y":2547958.25}},{"attributes":{"ID":269352,"DIS_CODE":0,"TOWNNAME":"東區","LI":"東安里","LIN":"17鄰","STREET":"衛國街","SECT":" ","MAREA":" ","LANE":"１３巷","ALLEY":" ","HOUSE_NO":"２３號","E_COORD97":170192.70999999999,"N_COORD97":2542998.0600000001,"ADDRESS":"衛國街１３巷２３號","OBJECTID":269347},"geometry":{"x":170192.70999999996,"y":2542998.0600000024}},{"attributes":{"ID":269353,"DIS_CODE":0,"TOWNNAME":"東區","LI":"東安里","LIN":"17鄰","STREET":"衛國街","SECT":" ","MAREA":" ","LANE":"１３巷","ALLEY":" ","HOUSE_NO":"２５號","E_COORD97":170187.53,"N_COORD97":2542998.0600000001,"ADDRESS":"衛國街１３巷２５號","OBJECTID":269348},"geometry":{"x":170187.53000000026,"y":2542998.0600000024}},{"attributes":{"ID":269354,"DIS_CODE":0,"TOWNNAME":"東區","LI":"東安里","LIN":"17鄰","STREET":"衛國街","SECT":" ","MAREA":" ","LANE":"１３巷","ALLEY":" ","HOUSE_NO":"２７號","E_COORD97":170182.54000000001,"N_COORD97":2542999.96,"ADDRESS":"衛國街１３巷２７號","OBJECTID":269349},"geometry":{"x":170182.54000000004,"y":2542999.9600000009}},{"attributes":{"ID":269355,"DIS_CODE":0,"TOWNNAME":"東區","LI":"東安里","LIN":"17鄰","STREET":"衛國街","SECT":" ","MAREA":" ","LANE":"１３巷","ALLEY":" ","HOUSE_NO":"１６號","E_COORD97":170173.69,"N_COORD97":2543013.73,"ADDRESS":"衛國街１３巷１６號","OBJECTID":269350},"geometry":{"x":170173.68999999948,"y":2543013.7300000023}},{"attributes":{"ID":269356,"DIS_CODE":0,"TOWNNAME":"東區","LI":"虎尾里","LIN":"17鄰","STREET":"富農街","SECT":"一段","MAREA":" ","LANE":"２９巷","ALLEY":" ","HOUSE_NO":"８號","E_COORD97":171499.48000000001,"N_COORD97":2542210.1699999999,"ADDRESS":"富農街一段２９巷８號","OBJECTID":269351},"geometry":{"x":171499.48000000138,"y":2542210.1700000018}},{"attributes":{"ID":269357,"DIS_CODE":0,"TOWNNAME":"安南區","LI":"溪墘里","LIN":"17鄰","STREET":"海佃路","SECT":"一段","MAREA":" ","LANE":"３５２巷","ALLEY":" ","HOUSE_NO":"６號","E_COORD97":167131.28,"N_COORD97":2547568.0699999998,"ADDRESS":"海佃路一段３５２巷６號","OBJECTID":269352},"geometry":{"x":167131.28000000026,"y":2547568.0700000022}},{"attributes":{"ID":269358,"DIS_CODE":0,"TOWNNAME":"安南區","LI":"安東里","LIN":"17鄰","STREET":"安和路","SECT":"一段","MAREA":" ","LANE":"４７８巷","ALLEY":" ","HOUSE_NO":"２２號","E_COORD97":169470.38,"N_COORD97":2548425.8599999999,"ADDRESS":"安和路一段４７８巷２２號","OBJECTID":269353},"geometry":{"x":169470.38000000082,"y":2548425.8600000013}},{"attributes":{"ID":269359,"DIS_CODE":0,"TOWNNAME":"新化區","LI":"豐榮里","LIN":"3鄰","STREET":"大智路","SECT":" ","MAREA":" ","LANE":" ","ALLEY":" ","HOUSE_NO":"１４９號","E_COORD97":178097.32999999999,"N_COORD97":2548137.25,"ADDRESS":"大智路１４９號","OBJECTID":269354},"geometry":{"x":178097.33000000007,"y":2548137.25}},{"attributes":{"ID":269360,"DIS_CODE":0,"TOWNNAME":"新化區","LI":"武安里","LIN":"3鄰","STREET":"中正路","SECT":" ","MAREA":" ","LANE":" ","ALLEY":" ","HOUSE_NO":"２８９號","E_COORD97":179134.41,"N_COORD97":2548069.25,"ADDRESS":"中正路２８９號","OBJECTID":269355},"geometry":{"x":179134.40999999922,"y":2548069.25}},{"attributes":{"ID":269361,"DIS_CODE":0,"TOWNNAME":"新化區","LI":"清水里","LIN":"3鄰","STREET":"中山路","SECT":" ","MAREA":" ","LANE":" ","ALLEY":" ","HOUSE_NO":"４５３號","E_COORD97":178659.70999999999,"N_COORD97":2548398.25,"ADDRESS":"中山路４５３號","OBJECTID":269356},"geometry":{"x":178659.71000000089,"y":2548398.25}},{"attributes":{"ID":269362,"DIS_CODE":0,"TOWNNAME":"新化區","LI":"唪口里","LIN":"3鄰","STREET":"大德路","SECT":" ","MAREA":" ","LANE":" ","ALLEY":" ","HOUSE_NO":"８４號之３２","E_COORD97":178272.48000000001,"N_COORD97":2549513.2599999998,"ADDRESS":"大德路８４號之３２","OBJECTID":269357},"geometry":{"x":178272.48000000045,"y":2549513.2599999998}},{"attributes":{"ID":269363,"DIS_CODE":0,"TOWNNAME":"新化區","LI":"唪口里","LIN":"3鄰","STREET":"大德路","SECT":" ","MAREA":" ","LANE":" ","ALLEY":" ","HOUSE_NO":"８４號之２１","E_COORD97":178229.85999999999,"N_COORD97":2549515.2599999998,"ADDRESS":"大德路８４號之２１","OBJECTID":269358},"geometry":{"x":178229.8600000022,"y":2549515.2600000016}},{"attributes":{"ID":269364,"DIS_CODE":0,"TOWNNAME":"新化區","LI":"觀音里","LIN":"3鄰","STREET":"中山路","SECT":" ","MAREA":" ","LANE":" ","ALLEY":" ","HOUSE_NO":"３２６號","E_COORD97":178951.20999999999,"N_COORD97":2548431.25,"ADDRESS":"中山路３２６號","OBJECTID":269359},"geometry":{"x":178951.21000000089,"y":2548431.2500000019}},{"attributes":{"ID":269365,"DIS_CODE":0,"TOWNNAME":"新化區","LI":"武安里","LIN":"3鄰","STREET":"中正路","SECT":" ","MAREA":" ","LANE":" ","ALLEY":" ","HOUSE_NO":"３０９號","E_COORD97":179128.81,"N_COORD97":2548137.25,"ADDRESS":"中正路３０９號","OBJECTID":269360},"geometry":{"x":179128.80999999959,"y":2548137.25}},{"attributes":{"ID":269366,"DIS_CODE":0,"TOWNNAME":"安南區","LI":"安順里","LIN":"18鄰","STREET":"育安街","SECT":" ","MAREA":" ","LANE":" ","ALLEY":" ","HOUSE_NO":"１８８號","E_COORD97":169589.91,"N_COORD97":2549939.4700000002,"ADDRESS":"育安街１８８號","OBJECTID":269361},"geometry":{"x":169589.91000000015,"y":2549939.4700000025}},{"attributes":{"ID":269367,"DIS_CODE":0,"TOWNNAME":"永康區","LI":"烏竹里","LIN":"17鄰","STREET":"龍橋街","SECT":" ","MAREA":" ","LANE":"２５３巷","ALLEY":" ","HOUSE_NO":"２９號","E_COORD97":174509.42999999999,"N_COORD97":2548850.1400000001,"ADDRESS":"龍橋街２５３巷２９號","OBJECTID":269362},"geometry":{"x":174509.43000000156,"y":2548850.1400000006}},{"attributes":{"ID":269368,"DIS_CODE":0,"TOWNNAME":"永康區","LI":"烏竹里","LIN":"17鄰","STREET":"龍橋街","SECT":" ","MAREA":" ","LANE":"２５３巷","ALLEY":" ","HOUSE_NO":"３７號","E_COORD97":174515.81,"N_COORD97":2548889.25,"ADDRESS":"龍橋街２５３巷３７號","OBJECTID":269363},"geometry":{"x":174515.81000000052,"y":2548889.2500000019}},{"attributes":{"ID":269369,"DIS_CODE":0,"TOWNNAME":"永康區","LI":"埔園里","LIN":"17鄰","STREET":"中山路","SECT":" ","MAREA":" ","LANE":"３８３巷","ALLEY":" ","HOUSE_NO":"７號","E_COORD97":173457.87,"N_COORD97":2548501.5,"ADDRESS":"中山路３８３巷７號","OBJECTID":269364},"geometry":{"x":173457.87000000104,"y":2548501.5}},{"attributes":{"ID":269370,"DIS_CODE":0,"TOWNNAME":"永康區","LI":"埔園里","LIN":"17鄰","STREET":"龍埔街","SECT":" ","MAREA":" ","LANE":"５６２巷","ALLEY":" ","HOUSE_NO":"４１號","E_COORD97":173424.34,"N_COORD97":2548498.3100000001,"ADDRESS":"龍埔街５６２巷４１號","OBJECTID":269365},"geometry":{"x":173424.34000000078,"y":2548498.3100000024}},{"attributes":{"ID":269371,"DIS_CODE":0,"TOWNNAME":"永康區","LI":"烏竹里","LIN":"17鄰","STREET":"龍橋街","SECT":" ","MAREA":" ","LANE":"２５３巷","ALLEY":" ","HOUSE_NO":"２９號之１","E_COORD97":174509.70999999999,"N_COORD97":2548854.4399999999,"ADDRESS":"龍橋街２５３巷２９號之１","OBJECTID":269366},"geometry":{"x":174509.71000000089,"y":2548854.4399999995}},{"attributes":{"ID":269372,"DIS_CODE":0,"TOWNNAME":"歸仁區","LI":"文化里","LIN":"25鄰","STREET":"文化北街","SECT":" ","MAREA":" ","LANE":"１６８巷","ALLEY":" ","HOUSE_NO":"３號","E_COORD97":177047.81,"N_COORD97":2541430.3399999999,"ADDRESS":"文化北街１６８巷３號","OBJECTID":269367},"geometry":{"x":177047.81000000145,"y":2541430.3399999999}},{"attributes":{"ID":269373,"DIS_CODE":0,"TOWNNAME":"永康區","LI":"埔園里","LIN":"17鄰","STREET":"中山路","SECT":" ","MAREA":" ","LANE":"３８３巷","ALLEY":" ","HOUSE_NO":"３號之７","E_COORD97":173492.42000000001,"N_COORD97":2548474.04,"ADDRESS":"中山路３８３巷３號之７","OBJECTID":269368},"geometry":{"x":173492.41999999993,"y":2548474.0399999991}},{"attributes":{"ID":269374,"DIS_CODE":0,"TOWNNAME":"永康區","LI":"東灣里","LIN":"17鄰","STREET":"大灣三街","SECT":" ","MAREA":" ","LANE":"７３巷","ALLEY":" ","HOUSE_NO":"３號","E_COORD97":174886.79999999999,"N_COORD97":2544922.8100000001,"ADDRESS":"大灣三街７３巷３號","OBJECTID":269369},"geometry":{"x":174886.80000000168,"y":2544922.8100000024}},{"attributes":{"ID":269375,"DIS_CODE":0,"TOWNNAME":"永康區","LI":"埔園里","LIN":"17鄰","STREET":"龍埔街","SECT":" ","MAREA":" ","LANE":"５６２巷","ALLEY":" ","HOUSE_NO":"４４號","E_COORD97":173436.66,"N_COORD97":2548524.5800000001,"ADDRESS":"龍埔街５６２巷４４號","OBJECTID":269370},"geometry":{"x":173436.66000000015,"y":2548524.5800000001}},{"attributes":{"ID":269376,"DIS_CODE":0,"TOWNNAME":"永康區","LI":"埔園里","LIN":"17鄰","STREET":"中山路","SECT":" ","MAREA":" ","LANE":"３８３巷","ALLEY":" ","HOUSE_NO":"５號","E_COORD97":173470.70000000001,"N_COORD97":2548506.75,"ADDRESS":"中山路３８３巷５號","OBJECTID":269371},"geometry":{"x":173470.70000000205,"y":2548506.75}},{"attributes":{"ID":269377,"DIS_CODE":0,"TOWNNAME":"仁德區","LI":"土庫里","LIN":"17鄰","STREET":"土庫一街","SECT":" ","MAREA":" ","LANE":"２２巷","ALLEY":" ","HOUSE_NO":"９號","E_COORD97":174479.59,"N_COORD97":2543057.9900000002,"ADDRESS":"土庫一街２２巷９號","OBJECTID":269372},"geometry":{"x":174479.59000000171,"y":2543057.9900000002}},{"attributes":{"ID":269378,"DIS_CODE":0,"TOWNNAME":"善化區","LI":"坐駕里","LIN":"17鄰","STREET":"興華路","SECT":" ","MAREA":" ","LANE":"２８９巷","ALLEY":" ","HOUSE_NO":"５號","E_COORD97":177812.42999999999,"N_COORD97":2558471.7400000002,"ADDRESS":"興華路２８９巷５號","OBJECTID":269373},"geometry":{"x":177812.43000000063,"y":2558471.7400000002}},{"attributes":{"ID":269379,"DIS_CODE":0,"TOWNNAME":"仁德區","LI":"新田里","LIN":"17鄰","STREET":"北保東路","SECT":" ","MAREA":" ","LANE":"４６巷","ALLEY":" ","HOUSE_NO":"１７號","E_COORD97":173546.31,"N_COORD97":2539346.2400000002,"ADDRESS":"北保東路４６巷１７號","OBJECTID":269374},"geometry":{"x":173546.31000000052,"y":2539346.2400000002}},{"attributes":{"ID":269380,"DIS_CODE":0,"TOWNNAME":"仁德區","LI":"太子里","LIN":"17鄰","STREET":"太興路","SECT":" ","MAREA":" ","LANE":"１２７巷","ALLEY":" ","HOUSE_NO":"１號","E_COORD97":174077.35000000001,"N_COORD97":2543604.5,"ADDRESS":"太興路１２７巷１號","OBJECTID":269375},"geometry":{"x":174077.34999999963,"y":2543604.5000000019}},{"attributes":{"ID":269381,"DIS_CODE":0,"TOWNNAME":"仁德區","LI":"一甲里","LIN":"17鄰","STREET":"忠義路","SECT":" ","MAREA":" ","LANE":"２５１巷","ALLEY":" ","HOUSE_NO":"５５號","E_COORD97":173832.42999999999,"N_COORD97":2541693.0099999998,"ADDRESS":"忠義路２５１巷５５號","OBJECTID":269376},"geometry":{"x":173832.4299999997,"y":2541693.0100000016}},{"attributes":{"ID":269382,"DIS_CODE":0,"TOWNNAME":"新化區","LI":"豐榮里","LIN":"3鄰","STREET":" ","SECT":" ","MAREA":"洋子","LANE":" ","ALLEY":" ","HOUSE_NO":"７８號","E_COORD97":178020.13,"N_COORD97":2548212.25,"ADDRESS":"洋子７８號","OBJECTID":269377},"geometry":{"x":178020.12999999989,"y":2548212.25}},{"attributes":{"ID":269383,"DIS_CODE":0,"TOWNNAME":"新化區","LI":"知義里","LIN":"3鄰","STREET":" ","SECT":" ","MAREA":"知母義","LANE":" ","ALLEY":" ","HOUSE_NO":"１２４號之５","E_COORD97":179729.78,"N_COORD97":2547181.2599999998,"ADDRESS":"知母義１２４號之５","OBJECTID":269378},"geometry":{"x":179729.78000000026,"y":2547181.2599999998}},{"attributes":{"ID":269384,"DIS_CODE":0,"TOWNNAME":"新化區","LI":"崙頂里","LIN":"3鄰","STREET":" ","SECT":" ","MAREA":"崙子頂","LANE":" ","ALLEY":" ","HOUSE_NO":"１４７號","E_COORD97":176757.42999999999,"N_COORD97":2546809.25,"ADDRESS":"崙子頂１４７號","OBJECTID":269379},"geometry":{"x":176757.43000000063,"y":2546809.2499999981}},{"attributes":{"ID":269385,"DIS_CODE":0,"TOWNNAME":"新化區","LI":"知義里","LIN":"3鄰","STREET":" ","SECT":" ","MAREA":"知母義","LANE":" ","ALLEY":" ","HOUSE_NO":"１２４號","E_COORD97":179735.42000000001,"N_COORD97":2547168.25,"ADDRESS":"知母義１２４號","OBJECTID":269380},"geometry":{"x":179735.41999999993,"y":2547168.25}},{"attributes":{"ID":269386,"DIS_CODE":0,"TOWNNAME":"官田區","LI":"渡頭里","LIN":"1鄰","STREET":" ","SECT":" ","MAREA":"渡子頭","LANE":" ","ALLEY":" ","HOUSE_NO":"２號","E_COORD97":181490.59,"N_COORD97":2563265.52,"ADDRESS":"渡子頭２號","OBJECTID":269381},"geometry":{"x":181490.58999999985,"y":2563265.5200000014}},{"attributes":{"ID":269387,"DIS_CODE":0,"TOWNNAME":"新化區","LI":"羊林里","LIN":"3鄰","STREET":" ","SECT":" ","MAREA":"\u25A0拔林","LANE":" ","ALLEY":" ","HOUSE_NO":"４４０號","E_COORD97":183715.32000000001,"N_COORD97":2551775.25,"ADDRESS":"\u25A0拔林４４０號","OBJECTID":269382},"geometry":{"x":183715.3200000003,"y":2551775.25}},{"attributes":{"ID":269388,"DIS_CODE":0,"TOWNNAME":"仁德區","LI":"一甲里","LIN":"17鄰","STREET":"忠義路","SECT":" ","MAREA":" ","LANE":"２５１巷","ALLEY":" ","HOUSE_NO":"６３號","E_COORD97":173831.04000000001,"N_COORD97":2541676.27,"ADDRESS":"忠義路２５１巷６３號","OBJECTID":269383},"geometry":{"x":173831.0400000019,"y":2541676.2700000014}},{"attributes":{"ID":269389,"DIS_CODE":0,"TOWNNAME":"仁德區","LI":"一甲里","LIN":"17鄰","STREET":"忠義路","SECT":" ","MAREA":" ","LANE":"２５１巷","ALLEY":" ","HOUSE_NO":"４３號","E_COORD97":173837.06,"N_COORD97":2541713.7599999998,"ADDRESS":"忠義路２５１巷４３號","OBJECTID":269384},"geometry":{"x":173837.06000000145,"y":2541713.7600000016}},{"attributes":{"ID":269390,"DIS_CODE":0,"TOWNNAME":"仁德區","LI":"一甲里","LIN":"17鄰","STREET":"忠義路","SECT":" ","MAREA":" ","LANE":"２５１巷","ALLEY":" ","HOUSE_NO":"６４號","E_COORD97":173813.60999999999,"N_COORD97":2541670.4300000002,"ADDRESS":"忠義路２５１巷６４號","OBJECTID":269385},"geometry":{"x":173813.61000000034,"y":2541670.4299999997}},{"attributes":{"ID":269391,"DIS_CODE":0,"TOWNNAME":"仁德區","LI":"一甲里","LIN":"17鄰","STREET":"忠義路","SECT":" ","MAREA":" ","LANE":"２５１巷","ALLEY":" ","HOUSE_NO":"４７號","E_COORD97":173833.70000000001,"N_COORD97":2541705.7599999998,"ADDRESS":"忠義路２５１巷４７號","OBJECTID":269386},"geometry":{"x":173833.70000000112,"y":2541705.7599999998}},{"attributes":{"ID":269392,"DIS_CODE":0,"TOWNNAME":"仁德區","LI":"一甲里","LIN":"17鄰","STREET":"中清路","SECT":" ","MAREA":" ","LANE":"２４８巷","ALLEY":" ","HOUSE_NO":"２號","E_COORD97":173775.26999999999,"N_COORD97":2541731.54,"ADDRESS":"中清路２４８巷２號","OBJECTID":269387},"geometry":{"x":173775.27000000048,"y":2541731.540000001}},{"attributes":{"ID":269393,"DIS_CODE":0,"TOWNNAME":"北區","LI":"光武里","LIN":"3鄰","STREET":"大武街","SECT":" ","MAREA":" ","LANE":" ","ALLEY":" ","HOUSE_NO":"１１８號","E_COORD97":169630.47,"N_COORD97":2545888.8900000001,"ADDRESS":"大武街１１８號","OBJECTID":269388},"geometry":{"x":169630.4700000016,"y":2545888.8900000006}},{"attributes":{"ID":269394,"DIS_CODE":0,"TOWNNAME":"北區","LI":"光武里","LIN":"3鄰","STREET":"大武街","SECT":" ","MAREA":" ","LANE":" ","ALLEY":" ","HOUSE_NO":"１２０號","E_COORD97":169630.70000000001,"N_COORD97":2545893.1600000001,"ADDRESS":"大武街１２０號","OBJECTID":269389},"geometry":{"x":169630.70000000019,"y":2545893.1600000001}},{"attributes":{"ID":269395,"DIS_CODE":0,"TOWNNAME":"北區","LI":"光武里","LIN":"3鄰","STREET":"大武街","SECT":" ","MAREA":" ","LANE":" ","ALLEY":" ","HOUSE_NO":"１２２號","E_COORD97":169630.23000000001,"N_COORD97":2545896.96,"ADDRESS":"大武街１２２號","OBJECTID":269390},"geometry":{"x":169630.23000000138,"y":2545896.9600000046}},{"attributes":{"ID":269396,"DIS_CODE":0,"TOWNNAME":"北區","LI":"光武里","LIN":"3鄰","STREET":"大武街","SECT":" ","MAREA":" ","LANE":" ","ALLEY":" ","HOUSE_NO":"１２４號","E_COORD97":169630.94,"N_COORD97":2545900.2799999998,"ADDRESS":"大武街１２４號","OBJECTID":269391},"geometry":{"x":169630.94000000041,"y":2545900.2800000012}},{"attributes":{"ID":269397,"DIS_CODE":0,"TOWNNAME":"北區","LI":"光武里","LIN":"3鄰","STREET":"大武街","SECT":" ","MAREA":" ","LANE":" ","ALLEY":" ","HOUSE_NO":"１２６號","E_COORD97":169632.13,"N_COORD97":2545904.79,"ADDRESS":"大武街１２６號","OBJECTID":269392},"geometry":{"x":169632.12999999989,"y":2545904.7899999991}},{"attributes":{"ID":269398,"DIS_CODE":0,"TOWNNAME":"北區","LI":"光武里","LIN":"3鄰","STREET":"大武街","SECT":" ","MAREA":" ","LANE":" ","ALLEY":" ","HOUSE_NO":"１２８號","E_COORD97":169631.89000000001,"N_COORD97":2545907.6400000001,"ADDRESS":"大武街１２８號","OBJECTID":269393},"geometry":{"x":169631.88999999966,"y":2545907.6400000006}},{"attributes":{"ID":269399,"DIS_CODE":0,"TOWNNAME":"仁德區","LI":"一甲里","LIN":"17鄰","STREET":"中清路","SECT":" ","MAREA":" ","LANE":"２４８巷","ALLEY":" ","HOUSE_NO":"６號","E_COORD97":173779.67000000001,"N_COORD97":2541730.79,"ADDRESS":"中清路２４８巷６號","OBJECTID":269394},"geometry":{"x":173779.67000000086,"y":2541730.790000001}},{"attributes":{"ID":269400,"DIS_CODE":0,"TOWNNAME":"安南區","LI":"淵東里","LIN":"17鄰","STREET":"仁安路","SECT":" ","MAREA":" ","LANE":"１９４巷","ALLEY":" ","HOUSE_NO":"１７號","E_COORD97":165838.19,"N_COORD97":2550118.4100000001,"ADDRESS":"仁安路１９４巷１７號","OBJECTID":269395},"geometry":{"x":165838.19000000134,"y":2550118.410000002}},{"attributes":{"ID":269401,"DIS_CODE":0,"TOWNNAME":"安南區","LI":"淵東里","LIN":"17鄰","STREET":"仁安路","SECT":" ","MAREA":" ","LANE":"１９４巷","ALLEY":" ","HOUSE_NO":"１９號","E_COORD97":165839.25,"N_COORD97":2550114.0499999998,"ADDRESS":"仁安路１９４巷１９號","OBJECTID":269396},"geometry":{"x":165839.25,"y":2550114.0500000045}},{"attributes":{"ID":269402,"DIS_CODE":0,"TOWNNAME":"安南區","LI":"淵東里","LIN":"17鄰","STREET":"仁安路","SECT":" ","MAREA":" ","LANE":"１９４巷","ALLEY":" ","HOUSE_NO":"２１號","E_COORD97":165845.17000000001,"N_COORD97":2550111.1099999999,"ADDRESS":"仁安路１９４巷２１號","OBJECTID":269397},"geometry":{"x":165845.16999999993,"y":2550111.1099999994}},{"attributes":{"ID":269403,"DIS_CODE":0,"TOWNNAME":"安南區","LI":"淵東里","LIN":"17鄰","STREET":"仁安路","SECT":" ","MAREA":" ","LANE":"１９４巷","ALLEY":" ","HOUSE_NO":"２號","E_COORD97":165804.64999999999,"N_COORD97":2550160.7999999998,"ADDRESS":"仁安路１９４巷２號","OBJECTID":269398},"geometry":{"x":165804.6500000013,"y":2550160.8000000026}},{"attributes":{"ID":269404,"DIS_CODE":0,"TOWNNAME":"永康區","LI":"埔園里","LIN":"17鄰","STREET":"中山路","SECT":" ","MAREA":" ","LANE":"３８３巷","ALLEY":" ","HOUSE_NO":"５號之６","E_COORD97":173479.59,"N_COORD97":2548476.0499999998,"ADDRESS":"中山路３８３巷５號之６","OBJECTID":269399},"geometry":{"x":173479.59000000171,"y":2548476.0499999989}},{"attributes":{"ID":269405,"DIS_CODE":0,"TOWNNAME":"永康區","LI":"埔園里","LIN":"17鄰","STREET":"中山路","SECT":" ","MAREA":" ","LANE":"３８３巷","ALLEY":" ","HOUSE_NO":"３號之９","E_COORD97":173494.85000000001,"N_COORD97":2548463.54,"ADDRESS":"中山路３８３巷３號之９","OBJECTID":269400},"geometry":{"x":173494.85000000056,"y":2548463.5399999991}}]}