{"displayFieldName":"TOWNNAME","fieldAliases":{"ID":"ID","DIS_CODE":"DIS_CODE","TOWNNAME":"TOWNNAME","LI":"LI","LIN":"LIN","STREET":"STREET","SECT":"SECT","MAREA":"MAREA","LANE":"LANE","ALLEY":"ALLEY","HOUSE_NO":"HOUSE_NO","E_COORD97":"E_COORD97","N_COORD97":"N_COORD97","ADDRESS":"ADDRESS","OBJECTID":"OBJECTID"},"geometryType":"esriGeometryPoint","spatialReference":{"wkid":102443,"latestWkid":3826},"fields":[{"name":"ID","type":"esriFieldTypeDouble","alias":"ID"},{"name":"DIS_CODE","type":"esriFieldTypeInteger","alias":"DIS_CODE"},{"name":"TOWNNAME","type":"esriFieldTypeString","alias":"TOWNNAME","length":8},{"name":"LI","type":"esriFieldTypeString","alias":"LI","length":8},{"name":"LIN","type":"esriFieldTypeString","alias":"LIN","length":12},{"name":"STREET","type":"esriFieldTypeString","alias":"STREET","length":20},{"name":"SECT","type":"esriFieldTypeString","alias":"SECT","length":8},{"name":"MAREA","type":"esriFieldTypeString","alias":"MAREA","length":12},{"name":"LANE","type":"esriFieldTypeString","alias":"LANE","length":10},{"name":"ALLEY","type":"esriFieldTypeString","alias":"ALLEY","length":10},{"name":"HOUSE_NO","type":"esriFieldTypeString","alias":"HOUSE_NO","length":20},{"name":"E_COORD97","type":"esriFieldTypeDouble","alias":"E_COORD97"},{"name":"N_COORD97","type":"esriFieldTypeDouble","alias":"N_COORD97"},{"name":"ADDRESS","type":"esriFieldTypeString","alias":"ADDRESS","length":50},{"name":"OBJECTID","type":"esriFieldTypeOID","alias":"OBJECTID"}],"features":[{"attributes":{"ID":14401,"DIS_CODE":0,"TOWNNAME":"六甲區","LI":"甲南里","LIN":"24鄰","STREET":"中正路","SECT":" ","MAREA":" ","LANE":"１８０巷","ALLEY":"１７弄","HOUSE_NO":"１０號","E_COORD97":183551.09,"N_COORD97":2569081.25,"ADDRESS":"中正路１８０巷１７弄１０號","OBJECTID":14401},"geometry":{"x":183551.09000000078,"y":2569081.2500000019}},{"attributes":{"ID":14402,"DIS_CODE":0,"TOWNNAME":"善化區","LI":"六德里","LIN":"13鄰","STREET":" ","SECT":" ","MAREA":"六分寮","LANE":" ","ALLEY":" ","HOUSE_NO":"３０９之３號","E_COORD97":178554.91,"N_COORD97":2561482.27,"ADDRESS":"六分寮３０９之３號","OBJECTID":14402},"geometry":{"x":178554.91000000108,"y":2561482.2700000033}},{"attributes":{"ID":14403,"DIS_CODE":0,"TOWNNAME":"六甲區","LI":"甲南里","LIN":"24鄰","STREET":"中正路","SECT":" ","MAREA":" ","LANE":"１８０巷","ALLEY":"１７弄","HOUSE_NO":"１１號","E_COORD97":183555.56,"N_COORD97":2569101.21,"ADDRESS":"中正路１８０巷１７弄１１號","OBJECTID":14403},"geometry":{"x":183555.56000000145,"y":2569101.2100000009}},{"attributes":{"ID":14404,"DIS_CODE":0,"TOWNNAME":"六甲區","LI":"甲南里","LIN":"24鄰","STREET":"中正路","SECT":" ","MAREA":" ","LANE":"１８０巷","ALLEY":"１７弄","HOUSE_NO":"１２號","E_COORD97":183556,"N_COORD97":2569079.46,"ADDRESS":"中正路１８０巷１７弄１２號","OBJECTID":14404},"geometry":{"x":183556,"y":2569079.4600000009}},{"attributes":{"ID":14405,"DIS_CODE":0,"TOWNNAME":"六甲區","LI":"甲南里","LIN":"24鄰","STREET":"中正路","SECT":" ","MAREA":" ","LANE":"１８０巷","ALLEY":"１７弄","HOUSE_NO":"１３號","E_COORD97":183560.17000000001,"N_COORD97":2569098.9500000002,"ADDRESS":"中正路１８０巷１７弄１３號","OBJECTID":14405},"geometry":{"x":183560.16999999993,"y":2569098.950000003}},{"attributes":{"ID":14406,"DIS_CODE":0,"TOWNNAME":"善化區","LI":"小新里","LIN":"13鄰","STREET":" ","SECT":" ","MAREA":"小新營","LANE":" ","ALLEY":" ","HOUSE_NO":"１０２號之８","E_COORD97":179698.39999999999,"N_COORD97":2558229.27,"ADDRESS":"小新營１０２號之８","OBJECTID":14406},"geometry":{"x":179698.4000000013,"y":2558229.2700000014}},{"attributes":{"ID":14407,"DIS_CODE":0,"TOWNNAME":"六甲區","LI":"甲南里","LIN":"24鄰","STREET":"中正路","SECT":" ","MAREA":" ","LANE":"１８０巷","ALLEY":"１７弄","HOUSE_NO":"１５號","E_COORD97":183563.92000000001,"N_COORD97":2569096.8100000001,"ADDRESS":"中正路１８０巷１７弄１５號","OBJECTID":14407},"geometry":{"x":183563.92000000086,"y":2569096.8100000005}},{"attributes":{"ID":14408,"DIS_CODE":0,"TOWNNAME":"六甲區","LI":"甲南里","LIN":"24鄰","STREET":"中正路","SECT":" ","MAREA":" ","LANE":"１８０巷","ALLEY":"１７弄","HOUSE_NO":"１號","E_COORD97":183534.20000000001,"N_COORD97":2569110.2400000002,"ADDRESS":"中正路１８０巷１７弄１號","OBJECTID":14408},"geometry":{"x":183534.20000000019,"y":2569110.2400000002}},{"attributes":{"ID":14409,"DIS_CODE":0,"TOWNNAME":"六甲區","LI":"甲南里","LIN":"24鄰","STREET":"中正路","SECT":" ","MAREA":" ","LANE":"１８０巷","ALLEY":"１７弄","HOUSE_NO":"２號","E_COORD97":183534.06,"N_COORD97":2569088.5699999998,"ADDRESS":"中正路１８０巷１７弄２號","OBJECTID":14409},"geometry":{"x":183534.06000000052,"y":2569088.5700000003}},{"attributes":{"ID":14410,"DIS_CODE":0,"TOWNNAME":"六甲區","LI":"甲南里","LIN":"24鄰","STREET":"中正路","SECT":" ","MAREA":" ","LANE":"１８０巷","ALLEY":"１７弄","HOUSE_NO":"３號","E_COORD97":183538.54999999999,"N_COORD97":2569108.6099999999,"ADDRESS":"中正路１８０巷１７弄３號","OBJECTID":14410},"geometry":{"x":183538.54999999981,"y":2569108.6100000013}},{"attributes":{"ID":14411,"DIS_CODE":0,"TOWNNAME":"善化區","LI":"小新里","LIN":"13鄰","STREET":" ","SECT":" ","MAREA":"小新營","LANE":" ","ALLEY":" ","HOUSE_NO":"１０７號之８","E_COORD97":179722.72550999999,"N_COORD97":2557971.5425900002,"ADDRESS":"小新營１０７號之８","OBJECTID":14411},"geometry":{"x":179722.72551000118,"y":2557971.5425890014}},{"attributes":{"ID":14412,"DIS_CODE":0,"TOWNNAME":"六甲區","LI":"甲南里","LIN":"24鄰","STREET":"中正路","SECT":" ","MAREA":" ","LANE":"１８０巷","ALLEY":"１７弄","HOUSE_NO":"４號","E_COORD97":183538.69,"N_COORD97":2569087.0600000001,"ADDRESS":"中正路１８０巷１７弄４號","OBJECTID":14412},"geometry":{"x":183538.69000000227,"y":2569087.0600000024}},{"attributes":{"ID":14413,"DIS_CODE":0,"TOWNNAME":"六甲區","LI":"甲南里","LIN":"24鄰","STREET":"中正路","SECT":" ","MAREA":" ","LANE":"１８０巷","ALLEY":"１７弄","HOUSE_NO":"５號","E_COORD97":183542.48000000001,"N_COORD97":2569106.27,"ADDRESS":"中正路１８０巷１７弄５號","OBJECTID":14413},"geometry":{"x":183542.48000000138,"y":2569106.2699999996}},{"attributes":{"ID":14414,"DIS_CODE":0,"TOWNNAME":"善化區","LI":"光文里","LIN":"13鄰","STREET":"仁愛路","SECT":" ","MAREA":" ","LANE":" ","ALLEY":" ","HOUSE_NO":"８６號","E_COORD97":178486.04999999999,"N_COORD97":2559098.5099999998,"ADDRESS":"仁愛路８６號","OBJECTID":14414},"geometry":{"x":178486.05000000075,"y":2559098.5100000016}},{"attributes":{"ID":14415,"DIS_CODE":0,"TOWNNAME":"東山區","LI":"聖賢里","LIN":"14鄰","STREET":" ","SECT":" ","MAREA":"田尾","LANE":" ","ALLEY":" ","HOUSE_NO":"６５號","E_COORD97":185218.88,"N_COORD97":2578558.8300000001,"ADDRESS":"田尾６５號","OBJECTID":14415},"geometry":{"x":185218.88000000082,"y":2578558.8300000001}},{"attributes":{"ID":14416,"DIS_CODE":0,"TOWNNAME":"善化區","LI":"小新里","LIN":"13鄰","STREET":" ","SECT":" ","MAREA":"小新營","LANE":" ","ALLEY":" ","HOUSE_NO":"１０２號之９","E_COORD97":179693.98999999999,"N_COORD97":2558229.02,"ADDRESS":"小新營１０２號之９","OBJECTID":14416},"geometry":{"x":179693.99000000115,"y":2558229.0199999996}},{"attributes":{"ID":14417,"DIS_CODE":0,"TOWNNAME":"六甲區","LI":"甲南里","LIN":"24鄰","STREET":"中正路","SECT":" ","MAREA":" ","LANE":"１８０巷","ALLEY":"１７弄","HOUSE_NO":"６號","E_COORD97":183542.98000000001,"N_COORD97":2569085,"ADDRESS":"中正路１８０巷１７弄６號","OBJECTID":14417},"geometry":{"x":183542.98000000045,"y":2569085}},{"attributes":{"ID":14418,"DIS_CODE":0,"TOWNNAME":"六甲區","LI":"甲南里","LIN":"24鄰","STREET":"中正路","SECT":" ","MAREA":" ","LANE":"１８０巷","ALLEY":"１７弄","HOUSE_NO":"７號","E_COORD97":183546.92999999999,"N_COORD97":2569104.77,"ADDRESS":"中正路１８０巷１７弄７號","OBJECTID":14418},"geometry":{"x":183546.93000000063,"y":2569104.7700000014}},{"attributes":{"ID":14419,"DIS_CODE":0,"TOWNNAME":"六甲區","LI":"甲南里","LIN":"24鄰","STREET":"中正路","SECT":" ","MAREA":" ","LANE":"１８０巷","ALLEY":"１７弄","HOUSE_NO":"８號","E_COORD97":183547.28,"N_COORD97":2569083.3399999999,"ADDRESS":"中正路１８０巷１７弄８號","OBJECTID":14419},"geometry":{"x":183547.28000000026,"y":2569083.3400000036}},{"attributes":{"ID":14420,"DIS_CODE":0,"TOWNNAME":"六甲區","LI":"甲南里","LIN":"24鄰","STREET":"中正路","SECT":" ","MAREA":" ","LANE":"１８０巷","ALLEY":"１７弄","HOUSE_NO":"９號","E_COORD97":183551.57999999999,"N_COORD97":2569102.71,"ADDRESS":"中正路１８０巷１７弄９號","OBJECTID":14420},"geometry":{"x":183551.58000000101,"y":2569102.7100000028}},{"attributes":{"ID":14421,"DIS_CODE":0,"TOWNNAME":"六甲區","LI":"甲南里","LIN":"24鄰","STREET":"中正路","SECT":" ","MAREA":" ","LANE":"１８０巷","ALLEY":"１９弄","HOUSE_NO":"１１號","E_COORD97":183546.63,"N_COORD97":2569059.9199999999,"ADDRESS":"中正路１８０巷１９弄１１號","OBJECTID":14421},"geometry":{"x":183546.62999999989,"y":2569059.9200000018}},{"attributes":{"ID":14422,"DIS_CODE":0,"TOWNNAME":"六甲區","LI":"甲南里","LIN":"24鄰","STREET":"中正路","SECT":" ","MAREA":" ","LANE":"１８０巷","ALLEY":"１９弄","HOUSE_NO":"３號","E_COORD97":183531.01000000001,"N_COORD97":2569067.1299999999,"ADDRESS":"中正路１８０巷１９弄３號","OBJECTID":14422},"geometry":{"x":183531.01000000071,"y":2569067.1300000027}},{"attributes":{"ID":14423,"DIS_CODE":0,"TOWNNAME":"六甲區","LI":"甲南里","LIN":"24鄰","STREET":"中正路","SECT":" ","MAREA":" ","LANE":"１８０巷","ALLEY":"１９弄","HOUSE_NO":"５號","E_COORD97":183535.03,"N_COORD97":2569065.0499999998,"ADDRESS":"中正路１８０巷１９弄５號","OBJECTID":14423},"geometry":{"x":183535.03000000119,"y":2569065.0500000007}},{"attributes":{"ID":14424,"DIS_CODE":0,"TOWNNAME":"六甲區","LI":"甲南里","LIN":"24鄰","STREET":"中正路","SECT":" ","MAREA":" ","LANE":"１８０巷","ALLEY":"１９弄","HOUSE_NO":"７號","E_COORD97":183538.67999999999,"N_COORD97":2569063.0899999999,"ADDRESS":"中正路１８０巷１９弄７號","OBJECTID":14424},"geometry":{"x":183538.68000000063,"y":2569063.0900000017}},{"attributes":{"ID":14425,"DIS_CODE":0,"TOWNNAME":"六甲區","LI":"甲南里","LIN":"24鄰","STREET":"中正路","SECT":" ","MAREA":" ","LANE":"１８０巷","ALLEY":"１９弄","HOUSE_NO":"９號","E_COORD97":183542.62,"N_COORD97":2569061.3999999999,"ADDRESS":"中正路１８０巷１９弄９號","OBJECTID":14425},"geometry":{"x":183542.62000000104,"y":2569061.4000000022}},{"attributes":{"ID":14426,"DIS_CODE":0,"TOWNNAME":"六甲區","LI":"甲南里","LIN":"24鄰","STREET":"中正路","SECT":" ","MAREA":" ","LANE":"２０８巷","ALLEY":"１弄","HOUSE_NO":"１０號","E_COORD97":183558.29000000001,"N_COORD97":2569218.3799999999,"ADDRESS":"中正路２０８巷１弄１０號","OBJECTID":14426},"geometry":{"x":183558.29000000097,"y":2569218.3800000008}},{"attributes":{"ID":14427,"DIS_CODE":0,"TOWNNAME":"六甲區","LI":"甲南里","LIN":"24鄰","STREET":"中正路","SECT":" ","MAREA":" ","LANE":"２０８巷","ALLEY":"１弄","HOUSE_NO":"１１號","E_COORD97":183559.98000000001,"N_COORD97":2569222.3300000001,"ADDRESS":"中正路２０８巷１弄１１號","OBJECTID":14427},"geometry":{"x":183559.98000000045,"y":2569222.3300000001}},{"attributes":{"ID":14428,"DIS_CODE":0,"TOWNNAME":"六甲區","LI":"甲南里","LIN":"24鄰","STREET":"中正路","SECT":" ","MAREA":" ","LANE":"２０８巷","ALLEY":"１弄","HOUSE_NO":"１２號","E_COORD97":183523.82999999999,"N_COORD97":2569195.48,"ADDRESS":"中正路２０８巷１弄１２號","OBJECTID":14428},"geometry":{"x":183523.83000000194,"y":2569195.4800000023}},{"attributes":{"ID":14429,"DIS_CODE":0,"TOWNNAME":"六甲區","LI":"甲南里","LIN":"24鄰","STREET":"中正路","SECT":" ","MAREA":" ","LANE":"２０８巷","ALLEY":"１弄","HOUSE_NO":"１３號","E_COORD97":183525.35999999999,"N_COORD97":2569199.46,"ADDRESS":"中正路２０８巷１弄１３號","OBJECTID":14429},"geometry":{"x":183525.36000000034,"y":2569199.4600000028}},{"attributes":{"ID":14430,"DIS_CODE":0,"TOWNNAME":"六甲區","LI":"甲南里","LIN":"24鄰","STREET":"中正路","SECT":" ","MAREA":" ","LANE":"２０８巷","ALLEY":"１弄","HOUSE_NO":"１５號","E_COORD97":183531.44,"N_COORD97":2569205.1200000001,"ADDRESS":"中正路２０８巷１弄１５號","OBJECTID":14430},"geometry":{"x":183531.44000000041,"y":2569205.1200000048}},{"attributes":{"ID":14431,"DIS_CODE":0,"TOWNNAME":"六甲區","LI":"甲南里","LIN":"24鄰","STREET":"中正路","SECT":" ","MAREA":" ","LANE":"２０８巷","ALLEY":"１弄","HOUSE_NO":"１６號","E_COORD97":183533.19,"N_COORD97":2569208.7000000002,"ADDRESS":"中正路２０８巷１弄１６號","OBJECTID":14431},"geometry":{"x":183533.19000000041,"y":2569208.6999999993}},{"attributes":{"ID":14432,"DIS_CODE":0,"TOWNNAME":"六甲區","LI":"甲南里","LIN":"24鄰","STREET":"中正路","SECT":" ","MAREA":" ","LANE":"２０８巷","ALLEY":"１弄","HOUSE_NO":"１７號","E_COORD97":183538.60999999999,"N_COORD97":2569218,"ADDRESS":"中正路２０８巷１弄１７號","OBJECTID":14432},"geometry":{"x":183538.61000000034,"y":2569217.9999999981}},{"attributes":{"ID":14433,"DIS_CODE":0,"TOWNNAME":"安南區","LI":"淵東里","LIN":"13鄰","STREET":"海佃路","SECT":"四段","MAREA":" ","LANE":"５５巷","ALLEY":" ","HOUSE_NO":"５９號","E_COORD97":165525.41,"N_COORD97":2550522.27,"ADDRESS":"海佃路四段５５巷５９號","OBJECTID":14433},"geometry":{"x":165525.40999999922,"y":2550522.2700000014}},{"attributes":{"ID":14434,"DIS_CODE":0,"TOWNNAME":"善化區","LI":"文正里","LIN":"13鄰","STREET":"中山路","SECT":" ","MAREA":" ","LANE":" ","ALLEY":" ","HOUSE_NO":"５５０號","E_COORD97":176846.70000000001,"N_COORD97":2559228.75,"ADDRESS":"中山路５５０號","OBJECTID":14434},"geometry":{"x":176846.70000000019,"y":2559228.7500000019}},{"attributes":{"ID":14435,"DIS_CODE":0,"TOWNNAME":"玉井區","LI":"玉田里","LIN":"40鄰","STREET":"和平街","SECT":" ","MAREA":" ","LANE":" ","ALLEY":" ","HOUSE_NO":"１９２號","E_COORD97":195284.63,"N_COORD97":2557490.25,"ADDRESS":"和平街１９２號","OBJECTID":14435},"geometry":{"x":195284.63000000082,"y":2557490.2500000019}},{"attributes":{"ID":14436,"DIS_CODE":0,"TOWNNAME":"玉井區","LI":"玉田里","LIN":"40鄰","STREET":"和平街","SECT":" ","MAREA":" ","LANE":" ","ALLEY":" ","HOUSE_NO":"１８０號","E_COORD97":195266.42999999999,"N_COORD97":2557498.25,"ADDRESS":"和平街１８０號","OBJECTID":14436},"geometry":{"x":195266.4299999997,"y":2557498.25}},{"attributes":{"ID":14437,"DIS_CODE":0,"TOWNNAME":"玉井區","LI":"玉田里","LIN":"40鄰","STREET":"和平街","SECT":" ","MAREA":" ","LANE":" ","ALLEY":" ","HOUSE_NO":"１６８號","E_COORD97":195243.73000000001,"N_COORD97":2557509.25,"ADDRESS":"和平街１６８號","OBJECTID":14437},"geometry":{"x":195243.73000000231,"y":2557509.2499999981}},{"attributes":{"ID":14438,"DIS_CODE":0,"TOWNNAME":"玉井區","LI":"玉田里","LIN":"40鄰","STREET":"和平街","SECT":" ","MAREA":" ","LANE":" ","ALLEY":" ","HOUSE_NO":"１７２號","E_COORD97":195253.13,"N_COORD97":2557504.25,"ADDRESS":"和平街１７２號","OBJECTID":14438},"geometry":{"x":195253.12999999989,"y":2557504.2500000019}},{"attributes":{"ID":14439,"DIS_CODE":0,"TOWNNAME":"玉井區","LI":"玉田里","LIN":"40鄰","STREET":"中華路","SECT":" ","MAREA":" ","LANE":" ","ALLEY":" ","HOUSE_NO":"３００號","E_COORD97":195471.35000000001,"N_COORD97":2557523.25,"ADDRESS":"中華路３００號","OBJECTID":14439},"geometry":{"x":195471.35000000056,"y":2557523.2500000037}},{"attributes":{"ID":14440,"DIS_CODE":0,"TOWNNAME":"玉井區","LI":"玉田里","LIN":"40鄰","STREET":"和平街","SECT":" ","MAREA":" ","LANE":" ","ALLEY":" ","HOUSE_NO":"１２７號","E_COORD97":195256.04000000001,"N_COORD97":2557520.25,"ADDRESS":"和平街１２７號","OBJECTID":14440},"geometry":{"x":195256.04000000004,"y":2557520.2500000019}},{"attributes":{"ID":14441,"DIS_CODE":0,"TOWNNAME":"玉井區","LI":"玉田里","LIN":"40鄰","STREET":"信義街","SECT":" ","MAREA":" ","LANE":" ","ALLEY":" ","HOUSE_NO":"１５５號","E_COORD97":195328.76000000001,"N_COORD97":2557528.27,"ADDRESS":"信義街１５５號","OBJECTID":14441},"geometry":{"x":195328.75999999978,"y":2557528.2699999996}},{"attributes":{"ID":14442,"DIS_CODE":0,"TOWNNAME":"玉井區","LI":"玉田里","LIN":"40鄰","STREET":"信義街","SECT":" ","MAREA":" ","LANE":" ","ALLEY":" ","HOUSE_NO":"１５７號","E_COORD97":195326.07000000001,"N_COORD97":2557524.27,"ADDRESS":"信義街１５７號","OBJECTID":14442},"geometry":{"x":195326.07000000216,"y":2557524.2699999996}},{"attributes":{"ID":14443,"DIS_CODE":0,"TOWNNAME":"玉井區","LI":"玉田里","LIN":"40鄰","STREET":"信義街","SECT":" ","MAREA":" ","LANE":" ","ALLEY":" ","HOUSE_NO":"１６１號","E_COORD97":195322.45999999999,"N_COORD97":2557515.27,"ADDRESS":"信義街１６１號","OBJECTID":14443},"geometry":{"x":195322.45999999996,"y":2557515.2699999996}},{"attributes":{"ID":14444,"DIS_CODE":0,"TOWNNAME":"玉井區","LI":"玉田里","LIN":"40鄰","STREET":"和平街","SECT":" ","MAREA":" ","LANE":" ","ALLEY":" ","HOUSE_NO":"１４１號","E_COORD97":195283.04000000001,"N_COORD97":2557508.25,"ADDRESS":"和平街１４１號","OBJECTID":14444},"geometry":{"x":195283.04000000004,"y":2557508.25}},{"attributes":{"ID":14445,"DIS_CODE":0,"TOWNNAME":"官田區","LI":"隆田里","LIN":"13鄰","STREET":"自強街","SECT":" ","MAREA":" ","LANE":" ","ALLEY":" ","HOUSE_NO":"３７號","E_COORD97":180142.39000000001,"N_COORD97":2565940.3100000001,"ADDRESS":"自強街３７號","OBJECTID":14445},"geometry":{"x":180142.38999999966,"y":2565940.3100000005}},{"attributes":{"ID":14446,"DIS_CODE":0,"TOWNNAME":"仁德區","LI":"仁愛里","LIN":"13鄰","STREET":" ","SECT":" ","MAREA":"仁愛","LANE":" ","ALLEY":" ","HOUSE_NO":"２６９號之１","E_COORD97":170283.63846700001,"N_COORD97":2539975.06012,"ADDRESS":"仁愛２６９號之１","OBJECTID":14446},"geometry":{"x":170283.6384670008,"y":2539975.0601220019}},{"attributes":{"ID":14447,"DIS_CODE":0,"TOWNNAME":"白河區","LI":"玉豐里","LIN":"13鄰","STREET":" ","SECT":" ","MAREA":"海豐厝","LANE":" ","ALLEY":" ","HOUSE_NO":"１５０號","E_COORD97":190339.14999999999,"N_COORD97":2585976.1899999999,"ADDRESS":"海豐厝１５０號","OBJECTID":14447},"geometry":{"x":190339.15000000037,"y":2585976.1900000013}},{"attributes":{"ID":14448,"DIS_CODE":0,"TOWNNAME":"官田區","LI":"東庄里","LIN":"13鄰","STREET":" ","SECT":" ","MAREA":"西庄","LANE":" ","ALLEY":" ","HOUSE_NO":"１８０號之１","E_COORD97":178046.70999999999,"N_COORD97":2565142,"ADDRESS":"西庄１８０號之１","OBJECTID":14448},"geometry":{"x":178046.70999999996,"y":2565142}},{"attributes":{"ID":14449,"DIS_CODE":0,"TOWNNAME":"官田區","LI":"東庄里","LIN":"13鄰","STREET":" ","SECT":" ","MAREA":"西庄","LANE":" ","ALLEY":" ","HOUSE_NO":"１８０號","E_COORD97":178048.82000000001,"N_COORD97":2565112.1200000001,"ADDRESS":"西庄１８０號","OBJECTID":14449},"geometry":{"x":178048.82000000123,"y":2565112.120000001}},{"attributes":{"ID":14450,"DIS_CODE":0,"TOWNNAME":"官田區","LI":"東庄里","LIN":"13鄰","STREET":" ","SECT":" ","MAREA":"西庄","LANE":" ","ALLEY":" ","HOUSE_NO":"１８２號","E_COORD97":178080.76999999999,"N_COORD97":2565095.6800000002,"ADDRESS":"西庄１８２號","OBJECTID":14450},"geometry":{"x":178080.77000000048,"y":2565095.6799999997}},{"attributes":{"ID":14451,"DIS_CODE":0,"TOWNNAME":"官田區","LI":"西庄里","LIN":"13鄰","STREET":" ","SECT":" ","MAREA":"西庄","LANE":" ","ALLEY":" ","HOUSE_NO":"９１號之１","E_COORD97":178008.03,"N_COORD97":2565216.2000000002,"ADDRESS":"西庄９１號之１","OBJECTID":14451},"geometry":{"x":178008.03000000026,"y":2565216.2000000011}},{"attributes":{"ID":14452,"DIS_CODE":0,"TOWNNAME":"官田區","LI":"西庄里","LIN":"13鄰","STREET":" ","SECT":" ","MAREA":"西庄","LANE":" ","ALLEY":" ","HOUSE_NO":"９１號之２","E_COORD97":178003.79999999999,"N_COORD97":2565214.6699999999,"ADDRESS":"西庄９１號之２","OBJECTID":14452},"geometry":{"x":178003.79999999981,"y":2565214.6699999999}},{"attributes":{"ID":14453,"DIS_CODE":0,"TOWNNAME":"官田區","LI":"西庄里","LIN":"13鄰","STREET":" ","SECT":" ","MAREA":"西庄","LANE":" ","ALLEY":" ","HOUSE_NO":"９１號之４","E_COORD97":177997.17999999999,"N_COORD97":2565208.3799999999,"ADDRESS":"西庄９１號之４","OBJECTID":14453},"geometry":{"x":177997.18000000063,"y":2565208.3800000008}},{"attributes":{"ID":14454,"DIS_CODE":0,"TOWNNAME":"官田區","LI":"西庄里","LIN":"13鄰","STREET":" ","SECT":" ","MAREA":"西庄","LANE":" ","ALLEY":" ","HOUSE_NO":"９１號之５","E_COORD97":177993.26999999999,"N_COORD97":2565206.0600000001,"ADDRESS":"西庄９１號之５","OBJECTID":14454},"geometry":{"x":177993.26999999955,"y":2565206.0600000005}},{"attributes":{"ID":14455,"DIS_CODE":0,"TOWNNAME":"官田區","LI":"西庄里","LIN":"13鄰","STREET":" ","SECT":" ","MAREA":"西庄","LANE":" ","ALLEY":" ","HOUSE_NO":"９１號","E_COORD97":178019.97,"N_COORD97":2565197.2999999998,"ADDRESS":"西庄９１號","OBJECTID":14455},"geometry":{"x":178019.9700000016,"y":2565197.3000000026}},{"attributes":{"ID":14456,"DIS_CODE":0,"TOWNNAME":"官田區","LI":"西庄里","LIN":"13鄰","STREET":" ","SECT":" ","MAREA":"西庄","LANE":" ","ALLEY":" ","HOUSE_NO":"９２號之１","E_COORD97":177975.30858300001,"N_COORD97":2565199.03357,"ADDRESS":"西庄９２號之１","OBJECTID":14456},"geometry":{"x":177975.30858300067,"y":2565199.033569999}},{"attributes":{"ID":14457,"DIS_CODE":0,"TOWNNAME":"官田區","LI":"西庄里","LIN":"13鄰","STREET":" ","SECT":" ","MAREA":"西庄","LANE":" ","ALLEY":" ","HOUSE_NO":"９２號之４","E_COORD97":177988.07000000001,"N_COORD97":2565169.77,"ADDRESS":"西庄９２號之４","OBJECTID":14457},"geometry":{"x":177988.07000000123,"y":2565169.7699999996}},{"attributes":{"ID":14458,"DIS_CODE":0,"TOWNNAME":"官田區","LI":"西庄里","LIN":"13鄰","STREET":" ","SECT":" ","MAREA":"西庄","LANE":" ","ALLEY":" ","HOUSE_NO":"９２號之５","E_COORD97":177989.63,"N_COORD97":2565166.2400000002,"ADDRESS":"西庄９２號之５","OBJECTID":14458},"geometry":{"x":177989.62999999989,"y":2565166.2400000021}},{"attributes":{"ID":14459,"DIS_CODE":0,"TOWNNAME":"官田區","LI":"西庄里","LIN":"13鄰","STREET":" ","SECT":" ","MAREA":"西庄","LANE":" ","ALLEY":" ","HOUSE_NO":"９２號","E_COORD97":177979.07999999999,"N_COORD97":2565201.3700000001,"ADDRESS":"西庄９２號","OBJECTID":14459},"geometry":{"x":177979.08000000101,"y":2565201.370000001}},{"attributes":{"ID":14460,"DIS_CODE":0,"TOWNNAME":"官田區","LI":"西庄里","LIN":"13鄰","STREET":" ","SECT":" ","MAREA":"西庄","LANE":" ","ALLEY":" ","HOUSE_NO":"９３號","E_COORD97":177987.41,"N_COORD97":2565150.3900000001,"ADDRESS":"西庄９３號","OBJECTID":14460},"geometry":{"x":177987.41000000108,"y":2565150.3900000006}},{"attributes":{"ID":14461,"DIS_CODE":0,"TOWNNAME":"後壁區","LI":"新東里","LIN":"14鄰","STREET":" ","SECT":" ","MAREA":"新港東","LANE":" ","ALLEY":" ","HOUSE_NO":"１４７號之５８","E_COORD97":181268.35000000001,"N_COORD97":2582194.5899999999,"ADDRESS":"新港東１４７號之５８","OBJECTID":14461},"geometry":{"x":181268.34999999963,"y":2582194.5899999999}},{"attributes":{"ID":14462,"DIS_CODE":0,"TOWNNAME":"後壁區","LI":"新東里","LIN":"14鄰","STREET":" ","SECT":" ","MAREA":"新港東","LANE":" ","ALLEY":" ","HOUSE_NO":"１４７號之５９","E_COORD97":181274.35000000001,"N_COORD97":2582194.0699999998,"ADDRESS":"新港東１４７號之５９","OBJECTID":14462},"geometry":{"x":181274.35000000056,"y":2582194.0700000022}},{"attributes":{"ID":14463,"DIS_CODE":0,"TOWNNAME":"後壁區","LI":"新東里","LIN":"14鄰","STREET":" ","SECT":" ","MAREA":"新港東","LANE":" ","ALLEY":" ","HOUSE_NO":"１４７號之６０","E_COORD97":181276.03,"N_COORD97":2582188.4900000002,"ADDRESS":"新港東１４７號之６０","OBJECTID":14463},"geometry":{"x":181276.03000000026,"y":2582188.4900000002}},{"attributes":{"ID":14464,"DIS_CODE":0,"TOWNNAME":"後壁區","LI":"新東里","LIN":"14鄰","STREET":" ","SECT":" ","MAREA":"新港東","LANE":" ","ALLEY":" ","HOUSE_NO":"１４７號之６１","E_COORD97":181279.07000000001,"N_COORD97":2582186.1499999999,"ADDRESS":"新港東１４７號之６１","OBJECTID":14464},"geometry":{"x":181279.0700000003,"y":2582186.1500000022}},{"attributes":{"ID":14465,"DIS_CODE":0,"TOWNNAME":"後壁區","LI":"新東里","LIN":"14鄰","STREET":" ","SECT":" ","MAREA":"新港東","LANE":" ","ALLEY":" ","HOUSE_NO":"１４７號之６２","E_COORD97":181282.85000000001,"N_COORD97":2582183.3999999999,"ADDRESS":"新港東１４７號之６２","OBJECTID":14465},"geometry":{"x":181282.85000000056,"y":2582183.4000000004}},{"attributes":{"ID":14466,"DIS_CODE":0,"TOWNNAME":"仁德區","LI":"仁愛里","LIN":"13鄰","STREET":" ","SECT":" ","MAREA":"仁愛","LANE":" ","ALLEY":" ","HOUSE_NO":"２８３號","E_COORD97":170268.59677800001,"N_COORD97":2539936.4309999999,"ADDRESS":"仁愛２８３號","OBJECTID":14466},"geometry":{"x":170268.59677799884,"y":2539936.4310000017}},{"attributes":{"ID":14467,"DIS_CODE":0,"TOWNNAME":"仁德區","LI":"仁愛里","LIN":"13鄰","STREET":" ","SECT":" ","MAREA":"仁愛","LANE":" ","ALLEY":" ","HOUSE_NO":"２７３號","E_COORD97":170254.402508,"N_COORD97":2539959.7200000002,"ADDRESS":"仁愛２７３號","OBJECTID":14467},"geometry":{"x":170254.40250799991,"y":2539959.7200000025}},{"attributes":{"ID":14468,"DIS_CODE":0,"TOWNNAME":"六甲區","LI":"甲南里","LIN":"24鄰","STREET":"中正路","SECT":" ","MAREA":" ","LANE":"２０８巷","ALLEY":"１弄","HOUSE_NO":"１８號","E_COORD97":183541.37,"N_COORD97":2569227.7400000002,"ADDRESS":"中正路２０８巷１弄１８號","OBJECTID":14468},"geometry":{"x":183541.37000000011,"y":2569227.7400000021}},{"attributes":{"ID":14469,"DIS_CODE":0,"TOWNNAME":"仁德區","LI":"仁愛里","LIN":"13鄰","STREET":" ","SECT":" ","MAREA":"仁愛","LANE":" ","ALLEY":" ","HOUSE_NO":"２７９號","E_COORD97":170281.73177400001,"N_COORD97":2539959.7200000002,"ADDRESS":"仁愛２７９號","OBJECTID":14469},"geometry":{"x":170281.73177400045,"y":2539959.7200000025}},{"attributes":{"ID":14470,"DIS_CODE":0,"TOWNNAME":"六甲區","LI":"甲南里","LIN":"24鄰","STREET":"中正路","SECT":" ","MAREA":" ","LANE":"２０８巷","ALLEY":"１弄","HOUSE_NO":"１號","E_COORD97":183546.04999999999,"N_COORD97":2569185.3100000001,"ADDRESS":"中正路２０８巷１弄１號","OBJECTID":14470},"geometry":{"x":183546.05000000075,"y":2569185.3100000005}},{"attributes":{"ID":14471,"DIS_CODE":0,"TOWNNAME":"六甲區","LI":"甲南里","LIN":"24鄰","STREET":"中正路","SECT":" ","MAREA":" ","LANE":"２０８巷","ALLEY":"１弄","HOUSE_NO":"２號","E_COORD97":183547.73999999999,"N_COORD97":2569189.4199999999,"ADDRESS":"中正路２０８巷１弄２號","OBJECTID":14471},"geometry":{"x":183547.74000000022,"y":2569189.4200000018}},{"attributes":{"ID":14472,"DIS_CODE":0,"TOWNNAME":"仁德區","LI":"仁愛里","LIN":"13鄰","STREET":" ","SECT":" ","MAREA":"仁愛","LANE":" ","ALLEY":" ","HOUSE_NO":"２７３號之１","E_COORD97":170254.50842999999,"N_COORD97":2539965.7250000001,"ADDRESS":"仁愛２７３號之１","OBJECTID":14472},"geometry":{"x":170254.50843000133,"y":2539965.7250000034}},{"attributes":{"ID":14473,"DIS_CODE":0,"TOWNNAME":"六甲區","LI":"甲南里","LIN":"24鄰","STREET":"中正路","SECT":" ","MAREA":" ","LANE":"２０８巷","ALLEY":"１弄","HOUSE_NO":"３號","E_COORD97":183549.28,"N_COORD97":2569193.5899999999,"ADDRESS":"中正路２０８巷１弄３號","OBJECTID":14473},"geometry":{"x":183549.28000000026,"y":2569193.5900000036}},{"attributes":{"ID":14474,"DIS_CODE":0,"TOWNNAME":"六甲區","LI":"甲南里","LIN":"24鄰","STREET":"中正路","SECT":" ","MAREA":" ","LANE":"２０８巷","ALLEY":"１弄","HOUSE_NO":"５號","E_COORD97":183550.89999999999,"N_COORD97":2569197.7200000002,"ADDRESS":"中正路２０８巷１弄５號","OBJECTID":14474},"geometry":{"x":183550.9000000013,"y":2569197.7200000025}},{"attributes":{"ID":14475,"DIS_CODE":0,"TOWNNAME":"六甲區","LI":"甲南里","LIN":"24鄰","STREET":"中正路","SECT":" ","MAREA":" ","LANE":"２０８巷","ALLEY":"１弄","HOUSE_NO":"６號","E_COORD97":183552.54000000001,"N_COORD97":2569202.3100000001,"ADDRESS":"中正路２０８巷１弄６號","OBJECTID":14475},"geometry":{"x":183552.54000000004,"y":2569202.3100000005}},{"attributes":{"ID":14476,"DIS_CODE":0,"TOWNNAME":"官田區","LI":"西庄里","LIN":"13鄰","STREET":" ","SECT":" ","MAREA":"西庄","LANE":" ","ALLEY":" ","HOUSE_NO":"９４號","E_COORD97":177966.60000000001,"N_COORD97":2565157.2599999998,"ADDRESS":"西庄９４號","OBJECTID":14476},"geometry":{"x":177966.60000000056,"y":2565157.2599999998}},{"attributes":{"ID":14477,"DIS_CODE":0,"TOWNNAME":"官田區","LI":"隆田里","LIN":"13鄰","STREET":"協進街","SECT":" ","MAREA":" ","LANE":" ","ALLEY":" ","HOUSE_NO":"１４號","E_COORD97":180158.79000000001,"N_COORD97":2566046.3999999999,"ADDRESS":"協進街１４號","OBJECTID":14477},"geometry":{"x":180158.79000000004,"y":2566046.4000000022}},{"attributes":{"ID":14478,"DIS_CODE":0,"TOWNNAME":"官田區","LI":"西庄里","LIN":"13鄰","STREET":" ","SECT":" ","MAREA":"西庄","LANE":" ","ALLEY":" ","HOUSE_NO":"９５號之１","E_COORD97":177945.35999999999,"N_COORD97":2565168.4300000002,"ADDRESS":"西庄９５號之１","OBJECTID":14478},"geometry":{"x":177945.36000000127,"y":2565168.4300000016}},{"attributes":{"ID":14479,"DIS_CODE":0,"TOWNNAME":"官田區","LI":"西庄里","LIN":"13鄰","STREET":" ","SECT":" ","MAREA":"西庄","LANE":" ","ALLEY":" ","HOUSE_NO":"９５號之２","E_COORD97":177971.17716799999,"N_COORD97":2565196.8110699998,"ADDRESS":"西庄９５號之２","OBJECTID":14479},"geometry":{"x":177971.17716799863,"y":2565196.811071001}},{"attributes":{"ID":14480,"DIS_CODE":0,"TOWNNAME":"官田區","LI":"西庄里","LIN":"13鄰","STREET":" ","SECT":" ","MAREA":"西庄","LANE":" ","ALLEY":" ","HOUSE_NO":"９５號之３","E_COORD97":177968.105091,"N_COORD97":2565195.0119099999,"ADDRESS":"西庄９５號之３","OBJECTID":14480},"geometry":{"x":177968.10509099998,"y":2565195.0119050015}},{"attributes":{"ID":14481,"DIS_CODE":0,"TOWNNAME":"官田區","LI":"西庄里","LIN":"13鄰","STREET":" ","SECT":" ","MAREA":"西庄","LANE":" ","ALLEY":" ","HOUSE_NO":"９５號之６","E_COORD97":177937.28,"N_COORD97":2565170.2799999998,"ADDRESS":"西庄９５號之６","OBJECTID":14481},"geometry":{"x":177937.28000000119,"y":2565170.2799999993}},{"attributes":{"ID":14482,"DIS_CODE":0,"TOWNNAME":"仁德區","LI":"仁愛里","LIN":"13鄰","STREET":" ","SECT":" ","MAREA":"仁愛","LANE":" ","ALLEY":" ","HOUSE_NO":"２８４號","E_COORD97":170264.14782799999,"N_COORD97":2539936.4309999999,"ADDRESS":"仁愛２８４號","OBJECTID":14482},"geometry":{"x":170264.14782799967,"y":2539936.4310000017}},{"attributes":{"ID":14483,"DIS_CODE":0,"TOWNNAME":"仁德區","LI":"仁愛里","LIN":"13鄰","STREET":" ","SECT":" ","MAREA":"仁愛","LANE":" ","ALLEY":" ","HOUSE_NO":"２７８號","E_COORD97":170275.79983999999,"N_COORD97":2539959.7200000002,"ADDRESS":"仁愛２７８號","OBJECTID":14483},"geometry":{"x":170275.79984000046,"y":2539959.7200000025}},{"attributes":{"ID":14484,"DIS_CODE":0,"TOWNNAME":"仁德區","LI":"仁愛里","LIN":"13鄰","STREET":" ","SECT":" ","MAREA":"仁愛","LANE":" ","ALLEY":" ","HOUSE_NO":"２８０號","E_COORD97":170283.42661200001,"N_COORD97":2539936.4309999999,"ADDRESS":"仁愛２８０號","OBJECTID":14484},"geometry":{"x":170283.42661200091,"y":2539936.4310000017}},{"attributes":{"ID":14485,"DIS_CODE":0,"TOWNNAME":"仁德區","LI":"仁愛里","LIN":"13鄰","STREET":" ","SECT":" ","MAREA":"仁愛","LANE":" ","ALLEY":" ","HOUSE_NO":"２８５號","E_COORD97":170259.91073199999,"N_COORD97":2539936.4309999999,"ADDRESS":"仁愛２８５號","OBJECTID":14485},"geometry":{"x":170259.910732002,"y":2539936.4310000017}},{"attributes":{"ID":14486,"DIS_CODE":0,"TOWNNAME":"仁德區","LI":"仁愛里","LIN":"13鄰","STREET":" ","SECT":" ","MAREA":"仁愛","LANE":" ","ALLEY":" ","HOUSE_NO":"２７４號","E_COORD97":170258.85145799999,"N_COORD97":2539959.7200000002,"ADDRESS":"仁愛２７４號","OBJECTID":14486},"geometry":{"x":170258.85145800095,"y":2539959.7200000025}},{"attributes":{"ID":14487,"DIS_CODE":0,"TOWNNAME":"仁德區","LI":"中洲里","LIN":"13鄰","STREET":" ","SECT":" ","MAREA":"中洲","LANE":" ","ALLEY":" ","HOUSE_NO":"３５１號","E_COORD97":173370.13,"N_COORD97":2534126.75,"ADDRESS":"中洲３５１號","OBJECTID":14487},"geometry":{"x":173370.12999999989,"y":2534126.7500000019}},{"attributes":{"ID":14488,"DIS_CODE":0,"TOWNNAME":"六甲區","LI":"甲南里","LIN":"24鄰","STREET":"中正路","SECT":" ","MAREA":" ","LANE":"２０８巷","ALLEY":"１弄","HOUSE_NO":"７號","E_COORD97":183554,"N_COORD97":2569206.2999999998,"ADDRESS":"中正路２０８巷１弄７號","OBJECTID":14488},"geometry":{"x":183554,"y":2569206.3000000007}},{"attributes":{"ID":14489,"DIS_CODE":0,"TOWNNAME":"六甲區","LI":"甲南里","LIN":"24鄰","STREET":"中正路","SECT":" ","MAREA":" ","LANE":"２０８巷","ALLEY":"１弄","HOUSE_NO":"８號","E_COORD97":183555.42000000001,"N_COORD97":2569210.48,"ADDRESS":"中正路２０８巷１弄８號","OBJECTID":14489},"geometry":{"x":183555.42000000086,"y":2569210.4800000004}},{"attributes":{"ID":14490,"DIS_CODE":0,"TOWNNAME":"六甲區","LI":"甲南里","LIN":"24鄰","STREET":"中正路","SECT":" ","MAREA":" ","LANE":"２０８巷","ALLEY":"１弄","HOUSE_NO":"９號","E_COORD97":183556.67000000001,"N_COORD97":2569214.1000000001,"ADDRESS":"中正路２０８巷１弄９號","OBJECTID":14490},"geometry":{"x":183556.66999999993,"y":2569214.1000000015}},{"attributes":{"ID":14491,"DIS_CODE":0,"TOWNNAME":"六甲區","LI":"六甲里","LIN":"24鄰","STREET":"中正路","SECT":" ","MAREA":" ","LANE":"４２３巷","ALLEY":"２８弄","HOUSE_NO":"１０號","E_COORD97":183513.81,"N_COORD97":2569783.1800000002,"ADDRESS":"中正路４２３巷２８弄１０號","OBJECTID":14491},"geometry":{"x":183513.81000000052,"y":2569783.1800000016}},{"attributes":{"ID":14492,"DIS_CODE":0,"TOWNNAME":"六甲區","LI":"六甲里","LIN":"24鄰","STREET":"中正路","SECT":" ","MAREA":" ","LANE":"４２３巷","ALLEY":"２８弄","HOUSE_NO":"１２號","E_COORD97":183515.22,"N_COORD97":2569788.77,"ADDRESS":"中正路４２３巷２８弄１２號","OBJECTID":14492},"geometry":{"x":183515.21999999974,"y":2569788.7700000033}},{"attributes":{"ID":14493,"DIS_CODE":0,"TOWNNAME":"六甲區","LI":"六甲里","LIN":"24鄰","STREET":"中正路","SECT":" ","MAREA":" ","LANE":"４２３巷","ALLEY":"２８弄","HOUSE_NO":"１號","E_COORD97":183487.66,"N_COORD97":2569778.0899999999,"ADDRESS":"中正路４２３巷２８弄１號","OBJECTID":14493},"geometry":{"x":183487.66000000201,"y":2569778.0900000017}},{"attributes":{"ID":14494,"DIS_CODE":0,"TOWNNAME":"六甲區","LI":"六甲里","LIN":"24鄰","STREET":"中正路","SECT":" ","MAREA":" ","LANE":"４２３巷","ALLEY":"２８弄","HOUSE_NO":"２號","E_COORD97":183509.10000000001,"N_COORD97":2569771.04,"ADDRESS":"中正路４２３巷２８弄２號","OBJECTID":14494},"geometry":{"x":183509.09999999963,"y":2569771.040000001}},{"attributes":{"ID":14495,"DIS_CODE":0,"TOWNNAME":"六甲區","LI":"六甲里","LIN":"24鄰","STREET":"中正路","SECT":" ","MAREA":" ","LANE":"４２３巷","ALLEY":"２８弄","HOUSE_NO":"３號","E_COORD97":183489.20999999999,"N_COORD97":2569782.8300000001,"ADDRESS":"中正路４２３巷２８弄３號","OBJECTID":14495},"geometry":{"x":183489.21000000089,"y":2569782.8300000019}},{"attributes":{"ID":14496,"DIS_CODE":0,"TOWNNAME":"六甲區","LI":"六甲里","LIN":"24鄰","STREET":"中正路","SECT":" ","MAREA":" ","LANE":"４２３巷","ALLEY":"２８弄","HOUSE_NO":"５號","E_COORD97":183490.85000000001,"N_COORD97":2569787.29,"ADDRESS":"中正路４２３巷２８弄５號","OBJECTID":14496},"geometry":{"x":183490.8499999987,"y":2569787.2899999991}},{"attributes":{"ID":14497,"DIS_CODE":0,"TOWNNAME":"六甲區","LI":"六甲里","LIN":"24鄰","STREET":"中正路","SECT":" ","MAREA":" ","LANE":"４２３巷","ALLEY":"２８弄","HOUSE_NO":"６號","E_COORD97":183510.88,"N_COORD97":2569775.2000000002,"ADDRESS":"中正路４２３巷２８弄６號","OBJECTID":14497},"geometry":{"x":183510.87999999989,"y":2569775.1999999974}},{"attributes":{"ID":14498,"DIS_CODE":0,"TOWNNAME":"六甲區","LI":"六甲里","LIN":"24鄰","STREET":"中正路","SECT":" ","MAREA":" ","LANE":"４２３巷","ALLEY":"２８弄","HOUSE_NO":"７號","E_COORD97":183492.70999999999,"N_COORD97":2569791.7999999998,"ADDRESS":"中正路４２３巷２８弄７號","OBJECTID":14498},"geometry":{"x":183492.71000000089,"y":2569791.8000000007}},{"attributes":{"ID":14499,"DIS_CODE":0,"TOWNNAME":"六甲區","LI":"六甲里","LIN":"24鄰","STREET":"中正路","SECT":" ","MAREA":" ","LANE":"４２３巷","ALLEY":"２８弄","HOUSE_NO":"８號","E_COORD97":183512.20999999999,"N_COORD97":2569779.4100000001,"ADDRESS":"中正路４２３巷２８弄８號","OBJECTID":14499},"geometry":{"x":183512.20999999996,"y":2569779.410000002}},{"attributes":{"ID":14500,"DIS_CODE":0,"TOWNNAME":"仁德區","LI":"上崙里","LIN":"13鄰","STREET":"德崙路","SECT":" ","MAREA":" ","LANE":" ","ALLEY":" ","HOUSE_NO":"４３６號","E_COORD97":174223.39000000001,"N_COORD97":2538067.0099999998,"ADDRESS":"德崙路４３６號","OBJECTID":14500},"geometry":{"x":174223.3900000006,"y":2538067.0100000035}},{"attributes":{"ID":14501,"DIS_CODE":0,"TOWNNAME":"仁德區","LI":"上崙里","LIN":"13鄰","STREET":"德崙路","SECT":" ","MAREA":" ","LANE":" ","ALLEY":" ","HOUSE_NO":"４３２之１號","E_COORD97":174215.95000000001,"N_COORD97":2538072.54,"ADDRESS":"德崙路４３２之１號","OBJECTID":14501},"geometry":{"x":174215.95000000019,"y":2538072.5399999991}},{"attributes":{"ID":14502,"DIS_CODE":0,"TOWNNAME":"仁德區","LI":"仁義里","LIN":"13鄰","STREET":"義林路","SECT":" ","MAREA":" ","LANE":" ","ALLEY":" ","HOUSE_NO":"１９０號","E_COORD97":174563.29999999999,"N_COORD97":2541240.52,"ADDRESS":"義林路１９０號","OBJECTID":14502},"geometry":{"x":174563.30000000075,"y":2541240.5200000014}},{"attributes":{"ID":14503,"DIS_CODE":0,"TOWNNAME":"仁德區","LI":"一甲里","LIN":"13鄰","STREET":"忠義路","SECT":" ","MAREA":" ","LANE":" ","ALLEY":" ","HOUSE_NO":"３１７號","E_COORD97":173652.73000000001,"N_COORD97":2541860.27,"ADDRESS":"忠義路３１７號","OBJECTID":14503},"geometry":{"x":173652.73000000138,"y":2541860.2700000014}},{"attributes":{"ID":14504,"DIS_CODE":0,"TOWNNAME":"仁德區","LI":"土庫里","LIN":"13鄰","STREET":"土庫路","SECT":" ","MAREA":" ","LANE":" ","ALLEY":" ","HOUSE_NO":"１９５號","E_COORD97":174319.42999999999,"N_COORD97":2542929.25,"ADDRESS":"土庫路１９５號","OBJECTID":14504},"geometry":{"x":174319.42999999877,"y":2542929.25}},{"attributes":{"ID":14505,"DIS_CODE":0,"TOWNNAME":"仁德區","LI":"土庫里","LIN":"13鄰","STREET":"土庫路","SECT":" ","MAREA":" ","LANE":" ","ALLEY":" ","HOUSE_NO":"２１３之１號","E_COORD97":174283.79000000001,"N_COORD97":2542888.0499999998,"ADDRESS":"土庫路２１３之１號","OBJECTID":14505},"geometry":{"x":174283.79000000097,"y":2542888.0500000007}},{"attributes":{"ID":14506,"DIS_CODE":0,"TOWNNAME":"仁德區","LI":"中洲里","LIN":"13鄰","STREET":" ","SECT":" ","MAREA":"中洲","LANE":" ","ALLEY":" ","HOUSE_NO":"３５６號","E_COORD97":173341.35000000001,"N_COORD97":2534196.25,"ADDRESS":"中洲３５６號","OBJECTID":14506},"geometry":{"x":173341.34999999963,"y":2534196.25}},{"attributes":{"ID":14507,"DIS_CODE":0,"TOWNNAME":"仁德區","LI":"中洲里","LIN":"13鄰","STREET":" ","SECT":" ","MAREA":"中洲","LANE":" ","ALLEY":" ","HOUSE_NO":"３５６號之２","E_COORD97":173343.67000000001,"N_COORD97":2534215.0499999998,"ADDRESS":"中洲３５６號之２","OBJECTID":14507},"geometry":{"x":173343.67000000086,"y":2534215.0500000007}},{"attributes":{"ID":14508,"DIS_CODE":0,"TOWNNAME":"仁德區","LI":"中洲里","LIN":"13鄰","STREET":" ","SECT":" ","MAREA":"中洲","LANE":" ","ALLEY":" ","HOUSE_NO":"３５４號","E_COORD97":173341.23000000001,"N_COORD97":2534161.7400000002,"ADDRESS":"中洲３５４號","OBJECTID":14508},"geometry":{"x":173341.23000000045,"y":2534161.7400000021}},{"attributes":{"ID":14509,"DIS_CODE":0,"TOWNNAME":"仁德區","LI":"中洲里","LIN":"13鄰","STREET":" ","SECT":" ","MAREA":"中洲","LANE":" ","ALLEY":" ","HOUSE_NO":"３５６之８號","E_COORD97":173353.29000000001,"N_COORD97":2534173.29,"ADDRESS":"中洲３５６之８號","OBJECTID":14509},"geometry":{"x":173353.29000000097,"y":2534173.290000001}},{"attributes":{"ID":14510,"DIS_CODE":0,"TOWNNAME":"後壁區","LI":"新東里","LIN":"14鄰","STREET":" ","SECT":" ","MAREA":"新港東","LANE":" ","ALLEY":" ","HOUSE_NO":"１４７號之６３","E_COORD97":181286.70000000001,"N_COORD97":2582181,"ADDRESS":"新港東１４７號之６３","OBJECTID":14510},"geometry":{"x":181286.70000000019,"y":2582181.0000000019}},{"attributes":{"ID":14511,"DIS_CODE":0,"TOWNNAME":"後壁區","LI":"新東里","LIN":"14鄰","STREET":" ","SECT":" ","MAREA":"新港東","LANE":" ","ALLEY":" ","HOUSE_NO":"１４７號之６４","E_COORD97":181289.10999999999,"N_COORD97":2582178.4700000002,"ADDRESS":"新港東１４７號之６４","OBJECTID":14511},"geometry":{"x":181289.11000000034,"y":2582178.4700000025}},{"attributes":{"ID":14512,"DIS_CODE":0,"TOWNNAME":"後壁區","LI":"新東里","LIN":"14鄰","STREET":" ","SECT":" ","MAREA":"新港東","LANE":" ","ALLEY":" ","HOUSE_NO":"１４７號之６５","E_COORD97":181292.45999999999,"N_COORD97":2582176.2799999998,"ADDRESS":"新港東１４７號之６５","OBJECTID":14512},"geometry":{"x":181292.46000000089,"y":2582176.2799999993}},{"attributes":{"ID":14513,"DIS_CODE":0,"TOWNNAME":"後壁區","LI":"新東里","LIN":"14鄰","STREET":" ","SECT":" ","MAREA":"新港東","LANE":" ","ALLEY":" ","HOUSE_NO":"１４７號之６６","E_COORD97":181295.42000000001,"N_COORD97":2582173.8700000001,"ADDRESS":"新港東１４７號之６６","OBJECTID":14513},"geometry":{"x":181295.41999999899,"y":2582173.870000001}},{"attributes":{"ID":14514,"DIS_CODE":0,"TOWNNAME":"六甲區","LI":"六甲里","LIN":"24鄰","STREET":"中正路","SECT":" ","MAREA":" ","LANE":"４２３巷","ALLEY":"２８弄","HOUSE_NO":"９號","E_COORD97":183494.5,"N_COORD97":2569796.2000000002,"ADDRESS":"中正路４２３巷２８弄９號","OBJECTID":14514},"geometry":{"x":183494.50000000093,"y":2569796.2000000011}},{"attributes":{"ID":14515,"DIS_CODE":0,"TOWNNAME":"六甲區","LI":"六甲里","LIN":"24鄰","STREET":"中正路","SECT":" ","MAREA":" ","LANE":"４５９巷","ALLEY":"５弄","HOUSE_NO":"３號","E_COORD97":183557.72,"N_COORD97":2569777.79,"ADDRESS":"中正路４５９巷５弄３號","OBJECTID":14515},"geometry":{"x":183557.71999999974,"y":2569777.7899999972}},{"attributes":{"ID":14516,"DIS_CODE":0,"TOWNNAME":"六甲區","LI":"六甲里","LIN":"24鄰","STREET":"中正路","SECT":" ","MAREA":" ","LANE":"４５９巷","ALLEY":"５弄","HOUSE_NO":"５號","E_COORD97":183556.17999999999,"N_COORD97":2569773.1699999999,"ADDRESS":"中正路４５９巷５弄５號","OBJECTID":14516},"geometry":{"x":183556.1799999997,"y":2569773.1700000037}},{"attributes":{"ID":14517,"DIS_CODE":0,"TOWNNAME":"南區","LI":"田寮里","LIN":"24鄰","STREET":"大成路","SECT":"二段","MAREA":" ","LANE":"４２巷","ALLEY":"５弄","HOUSE_NO":"１１號","E_COORD97":167579.25,"N_COORD97":2541778.23,"ADDRESS":"大成路二段４２巷５弄１１號","OBJECTID":14517},"geometry":{"x":167579.25000000186,"y":2541778.2300000004}},{"attributes":{"ID":14518,"DIS_CODE":0,"TOWNNAME":"六甲區","LI":"甲東里","LIN":"24鄰","STREET":"裕農街","SECT":" ","MAREA":" ","LANE":"２巷","ALLEY":"１１弄","HOUSE_NO":"６號","E_COORD97":183981.39999999999,"N_COORD97":2569539.4900000002,"ADDRESS":"裕農街２巷１１弄６號","OBJECTID":14518},"geometry":{"x":183981.40000000224,"y":2569539.4900000002}},{"attributes":{"ID":14519,"DIS_CODE":0,"TOWNNAME":"南區","LI":"田寮里","LIN":"24鄰","STREET":"大成路","SECT":"二段","MAREA":" ","LANE":"４２巷","ALLEY":"５弄","HOUSE_NO":"１號","E_COORD97":167604.84,"N_COORD97":2541777.9900000002,"ADDRESS":"大成路二段４２巷５弄１號","OBJECTID":14519},"geometry":{"x":167604.83999999985,"y":2541777.9900000021}},{"attributes":{"ID":14520,"DIS_CODE":0,"TOWNNAME":"南區","LI":"田寮里","LIN":"24鄰","STREET":"大成路","SECT":"二段","MAREA":" ","LANE":"４２巷","ALLEY":"５弄","HOUSE_NO":"３號","E_COORD97":167599.14999999999,"N_COORD97":2541778.7000000002,"ADDRESS":"大成路二段４２巷５弄３號","OBJECTID":14520},"geometry":{"x":167599.15000000224,"y":2541778.7000000011}},{"attributes":{"ID":14521,"DIS_CODE":0,"TOWNNAME":"南區","LI":"田寮里","LIN":"24鄰","STREET":"大成路","SECT":"二段","MAREA":" ","LANE":"４２巷","ALLEY":"５弄","HOUSE_NO":"５號","E_COORD97":167594.17999999999,"N_COORD97":2541778.46,"ADDRESS":"大成路二段４２巷５弄５號","OBJECTID":14521},"geometry":{"x":167594.1799999997,"y":2541778.4600000028}},{"attributes":{"ID":14522,"DIS_CODE":0,"TOWNNAME":"南區","LI":"田寮里","LIN":"24鄰","STREET":"大成路","SECT":"二段","MAREA":" ","LANE":"４２巷","ALLEY":"５弄","HOUSE_NO":"９號","E_COORD97":167584.45999999999,"N_COORD97":2541778.23,"ADDRESS":"大成路二段４２巷５弄９號","OBJECTID":14522},"geometry":{"x":167584.45999999996,"y":2541778.2300000004}},{"attributes":{"ID":14523,"DIS_CODE":0,"TOWNNAME":"玉井區","LI":"玉田里","LIN":"24鄰","STREET":"中華路","SECT":" ","MAREA":" ","LANE":"１９２巷","ALLEY":"８弄","HOUSE_NO":"２號","E_COORD97":195145.54999999999,"N_COORD97":2557813.25,"ADDRESS":"中華路１９２巷８弄２號","OBJECTID":14523},"geometry":{"x":195145.54999999981,"y":2557813.25}},{"attributes":{"ID":14524,"DIS_CODE":0,"TOWNNAME":"歸仁區","LI":"歸南里","LIN":"24鄰","STREET":"民生八街","SECT":" ","MAREA":" ","LANE":"２１巷","ALLEY":"２弄","HOUSE_NO":"６號","E_COORD97":176105.70999999999,"N_COORD97":2540310.25,"ADDRESS":"民生八街２１巷２弄６號","OBJECTID":14524},"geometry":{"x":176105.70999999996,"y":2540310.2500000037}},{"attributes":{"ID":14525,"DIS_CODE":0,"TOWNNAME":"歸仁區","LI":"歸南里","LIN":"24鄰","STREET":"民生八街","SECT":" ","MAREA":" ","LANE":"２１巷","ALLEY":"２弄","HOUSE_NO":"８號","E_COORD97":176101.60999999999,"N_COORD97":2540310.25,"ADDRESS":"民生八街２１巷２弄８號","OBJECTID":14525},"geometry":{"x":176101.61000000034,"y":2540310.2500000037}},{"attributes":{"ID":14526,"DIS_CODE":0,"TOWNNAME":"歸仁區","LI":"歸南里","LIN":"24鄰","STREET":"民生八街","SECT":" ","MAREA":" ","LANE":"２１巷","ALLEY":"１弄","HOUSE_NO":"１５號","E_COORD97":176151.06,"N_COORD97":2540311.25,"ADDRESS":"民生八街２１巷１弄１５號","OBJECTID":14526},"geometry":{"x":176151.06000000145,"y":2540311.2500000019}},{"attributes":{"ID":14527,"DIS_CODE":0,"TOWNNAME":"北區","LI":"正覺里","LIN":"24鄰","STREET":"公園路","SECT":" ","MAREA":" ","LANE":"７６９巷","ALLEY":"３２弄","HOUSE_NO":"１０號","E_COORD97":169517.44,"N_COORD97":2546489.9700000002,"ADDRESS":"公園路７６９巷３２弄１０號","OBJECTID":14527},"geometry":{"x":169517.44000000041,"y":2546489.9700000044}},{"attributes":{"ID":14528,"DIS_CODE":0,"TOWNNAME":"北區","LI":"正覺里","LIN":"24鄰","STREET":"公園路","SECT":" ","MAREA":" ","LANE":"７６９巷","ALLEY":"３２弄","HOUSE_NO":"１１號","E_COORD97":169510.97,"N_COORD97":2546481,"ADDRESS":"公園路７６９巷３２弄１１號","OBJECTID":14528},"geometry":{"x":169510.96999999974,"y":2546481}},{"attributes":{"ID":14529,"DIS_CODE":0,"TOWNNAME":"北區","LI":"正覺里","LIN":"24鄰","STREET":"公園路","SECT":" ","MAREA":" ","LANE":"７６９巷","ALLEY":"３２弄","HOUSE_NO":"１２號","E_COORD97":169513.59,"N_COORD97":2546490.9100000001,"ADDRESS":"公園路７６９巷３２弄１２號","OBJECTID":14529},"geometry":{"x":169513.59000000078,"y":2546490.910000002}},{"attributes":{"ID":14530,"DIS_CODE":0,"TOWNNAME":"北區","LI":"正覺里","LIN":"24鄰","STREET":"公園路","SECT":" ","MAREA":" ","LANE":"７６９巷","ALLEY":"３２弄","HOUSE_NO":"１３號","E_COORD97":169506.70000000001,"N_COORD97":2546482.0499999998,"ADDRESS":"公園路７６９巷３２弄１３號","OBJECTID":14530},"geometry":{"x":169506.70000000019,"y":2546482.0500000007}},{"attributes":{"ID":14531,"DIS_CODE":0,"TOWNNAME":"北區","LI":"正覺里","LIN":"24鄰","STREET":"公園路","SECT":" ","MAREA":" ","LANE":"７６９巷","ALLEY":"３２弄","HOUSE_NO":"１４號","E_COORD97":169509.73999999999,"N_COORD97":2546491.9399999999,"ADDRESS":"公園路７６９巷３２弄１４號","OBJECTID":14531},"geometry":{"x":169509.74000000022,"y":2546491.9399999995}},{"attributes":{"ID":14532,"DIS_CODE":0,"TOWNNAME":"北區","LI":"正覺里","LIN":"24鄰","STREET":"公園路","SECT":" ","MAREA":" ","LANE":"７６９巷","ALLEY":"３２弄","HOUSE_NO":"１５號","E_COORD97":169503.32000000001,"N_COORD97":2546483.0899999999,"ADDRESS":"公園路７６９巷３２弄１５號","OBJECTID":14532},"geometry":{"x":169503.32000000123,"y":2546483.0900000017}},{"attributes":{"ID":14533,"DIS_CODE":0,"TOWNNAME":"北區","LI":"正覺里","LIN":"24鄰","STREET":"公園路","SECT":" ","MAREA":" ","LANE":"７６９巷","ALLEY":"３２弄","HOUSE_NO":"１６號","E_COORD97":169505.5,"N_COORD97":2546493.2599999998,"ADDRESS":"公園路７６９巷３２弄１６號","OBJECTID":14533},"geometry":{"x":169505.50000000093,"y":2546493.2599999998}},{"attributes":{"ID":14534,"DIS_CODE":0,"TOWNNAME":"中西區","LI":"三民里","LIN":"13鄰","STREET":"民族路","SECT":"二段","MAREA":" ","LANE":" ","ALLEY":" ","HOUSE_NO":"１２１號","E_COORD97":168809.47,"N_COORD97":2543927.1099999999,"ADDRESS":"民族路二段１２１號","OBJECTID":14534},"geometry":{"x":168809.46999999974,"y":2543927.1099999994}},{"attributes":{"ID":14535,"DIS_CODE":0,"TOWNNAME":"中西區","LI":"三民里","LIN":"13鄰","STREET":"民族路","SECT":"二段","MAREA":" ","LANE":" ","ALLEY":" ","HOUSE_NO":"１２３號","E_COORD97":168804.37,"N_COORD97":2543928.5299999998,"ADDRESS":"民族路二段１２３號","OBJECTID":14535},"geometry":{"x":168804.37000000104,"y":2543928.5300000031}},{"attributes":{"ID":14536,"DIS_CODE":0,"TOWNNAME":"中西區","LI":"三民里","LIN":"13鄰","STREET":"民族路","SECT":"二段","MAREA":" ","LANE":" ","ALLEY":" ","HOUSE_NO":"１２５號","E_COORD97":168798.45999999999,"N_COORD97":2543929.75,"ADDRESS":"民族路二段１２５號","OBJECTID":14536},"geometry":{"x":168798.46000000183,"y":2543929.75}},{"attributes":{"ID":14537,"DIS_CODE":0,"TOWNNAME":"中西區","LI":"三民里","LIN":"13鄰","STREET":"民族路","SECT":"二段","MAREA":" ","LANE":" ","ALLEY":" ","HOUSE_NO":"１２７號","E_COORD97":168793.76999999999,"N_COORD97":2543931.9900000002,"ADDRESS":"民族路二段１２７號","OBJECTID":14537},"geometry":{"x":168793.76999999955,"y":2543931.9900000002}},{"attributes":{"ID":14538,"DIS_CODE":0,"TOWNNAME":"中西區","LI":"三民里","LIN":"13鄰","STREET":"民族路","SECT":"二段","MAREA":" ","LANE":" ","ALLEY":" ","HOUSE_NO":"１３１號","E_COORD97":168790.29999999999,"N_COORD97":2543934.4399999999,"ADDRESS":"民族路二段１３１號","OBJECTID":14538},"geometry":{"x":168790.29999999981,"y":2543934.4399999995}},{"attributes":{"ID":14539,"DIS_CODE":0,"TOWNNAME":"玉井區","LI":"玉田里","LIN":"40鄰","STREET":"和平街","SECT":" ","MAREA":" ","LANE":" ","ALLEY":" ","HOUSE_NO":"１１９號","E_COORD97":195238.92999999999,"N_COORD97":2557528.25,"ADDRESS":"和平街１１９號","OBJECTID":14539},"geometry":{"x":195238.93000000063,"y":2557528.25}},{"attributes":{"ID":14540,"DIS_CODE":0,"TOWNNAME":"北區","LI":"成德里","LIN":"34鄰","STREET":"文成一路","SECT":" ","MAREA":" ","LANE":" ","ALLEY":" ","HOUSE_NO":"１９１號","E_COORD97":168342.82000000001,"N_COORD97":2546039.5800000001,"ADDRESS":"文成一路１９１號","OBJECTID":14540},"geometry":{"x":168342.82000000123,"y":2546039.5800000001}},{"attributes":{"ID":14541,"DIS_CODE":0,"TOWNNAME":"北區","LI":"成德里","LIN":"34鄰","STREET":"文成一路","SECT":" ","MAREA":" ","LANE":" ","ALLEY":" ","HOUSE_NO":"１９３號","E_COORD97":168337.35999999999,"N_COORD97":2546039.71,"ADDRESS":"文成一路１９３號","OBJECTID":14541},"geometry":{"x":168337.36000000127,"y":2546039.7100000009}},{"attributes":{"ID":14542,"DIS_CODE":0,"TOWNNAME":"後壁區","LI":"新東里","LIN":"14鄰","STREET":" ","SECT":" ","MAREA":"新港東","LANE":" ","ALLEY":" ","HOUSE_NO":"１４７號之６７","E_COORD97":181298.64999999999,"N_COORD97":2582171.5099999998,"ADDRESS":"新港東１４７號之６７","OBJECTID":14542},"geometry":{"x":181298.6500000013,"y":2582171.5099999998}},{"attributes":{"ID":14543,"DIS_CODE":0,"TOWNNAME":"後壁區","LI":"新東里","LIN":"14鄰","STREET":" ","SECT":" ","MAREA":"新港東","LANE":" ","ALLEY":" ","HOUSE_NO":"１４７號之６８","E_COORD97":181302.53,"N_COORD97":2582168.27,"ADDRESS":"新港東１４７號之６８","OBJECTID":14543},"geometry":{"x":181302.53000000119,"y":2582168.2700000014}},{"attributes":{"ID":14544,"DIS_CODE":0,"TOWNNAME":"後壁區","LI":"新東里","LIN":"14鄰","STREET":" ","SECT":" ","MAREA":"新港東","LANE":" ","ALLEY":" ","HOUSE_NO":"１４７號之６９","E_COORD97":181305.87,"N_COORD97":2582165.8999999999,"ADDRESS":"新港東１４７號之６９","OBJECTID":14544},"geometry":{"x":181305.87000000011,"y":2582165.9000000004}},{"attributes":{"ID":14545,"DIS_CODE":0,"TOWNNAME":"後壁區","LI":"新東里","LIN":"14鄰","STREET":" ","SECT":" ","MAREA":"新港東","LANE":" ","ALLEY":" ","HOUSE_NO":"１４７號之７０","E_COORD97":181309.29000000001,"N_COORD97":2582163.3300000001,"ADDRESS":"新港東１４７號之７０","OBJECTID":14545},"geometry":{"x":181309.29000000004,"y":2582163.3300000001}},{"attributes":{"ID":14546,"DIS_CODE":0,"TOWNNAME":"後壁區","LI":"新東里","LIN":"14鄰","STREET":" ","SECT":" ","MAREA":"新港東","LANE":" ","ALLEY":" ","HOUSE_NO":"１４７號之７１","E_COORD97":181312.17999999999,"N_COORD97":2582161.1499999999,"ADDRESS":"新港東１４７號之７１","OBJECTID":14546},"geometry":{"x":181312.18000000156,"y":2582161.1500000004}},{"attributes":{"ID":14547,"DIS_CODE":0,"TOWNNAME":"後壁區","LI":"新東里","LIN":"14鄰","STREET":" ","SECT":" ","MAREA":"新港東","LANE":" ","ALLEY":" ","HOUSE_NO":"１４７號之７２","E_COORD97":181315.37,"N_COORD97":2582158.7000000002,"ADDRESS":"新港東１４７號之７２","OBJECTID":14547},"geometry":{"x":181315.37000000104,"y":2582158.7000000011}},{"attributes":{"ID":14548,"DIS_CODE":0,"TOWNNAME":"後壁區","LI":"新東里","LIN":"14鄰","STREET":" ","SECT":" ","MAREA":"新港東","LANE":" ","ALLEY":" ","HOUSE_NO":"１４７號之７３","E_COORD97":181319.04000000001,"N_COORD97":2582156.1899999999,"ADDRESS":"新港東１４７號之７３","OBJECTID":14548},"geometry":{"x":181319.04000000097,"y":2582156.1899999995}},{"attributes":{"ID":14549,"DIS_CODE":0,"TOWNNAME":"後壁區","LI":"新東里","LIN":"14鄰","STREET":" ","SECT":" ","MAREA":"新港東","LANE":" ","ALLEY":" ","HOUSE_NO":"１４７號之７４","E_COORD97":181322.07000000001,"N_COORD97":2582153.9500000002,"ADDRESS":"新港東１４７號之７４","OBJECTID":14549},"geometry":{"x":181322.07000000216,"y":2582153.9499999993}},{"attributes":{"ID":14550,"DIS_CODE":0,"TOWNNAME":"後壁區","LI":"新東里","LIN":"14鄰","STREET":" ","SECT":" ","MAREA":"新港東","LANE":" ","ALLEY":" ","HOUSE_NO":"１４７號之７５","E_COORD97":181325.10999999999,"N_COORD97":2582151.6499999999,"ADDRESS":"新港東１４７號之７５","OBJECTID":14550},"geometry":{"x":181325.1099999994,"y":2582151.6499999985}},{"attributes":{"ID":14551,"DIS_CODE":0,"TOWNNAME":"後壁區","LI":"新東里","LIN":"14鄰","STREET":" ","SECT":" ","MAREA":"新港東","LANE":" ","ALLEY":" ","HOUSE_NO":"１４７號之７６","E_COORD97":181328.48000000001,"N_COORD97":2582149.0499999998,"ADDRESS":"新港東１４７號之７６","OBJECTID":14551},"geometry":{"x":181328.48000000138,"y":2582149.0500000007}},{"attributes":{"ID":14552,"DIS_CODE":0,"TOWNNAME":"後壁區","LI":"新東里","LIN":"14鄰","STREET":" ","SECT":" ","MAREA":"新港東","LANE":" ","ALLEY":" ","HOUSE_NO":"１４７號之７７","E_COORD97":181331.95999999999,"N_COORD97":2582146.5299999998,"ADDRESS":"新港東１４７號之７７","OBJECTID":14552},"geometry":{"x":181331.95999999996,"y":2582146.5299999993}},{"attributes":{"ID":14553,"DIS_CODE":0,"TOWNNAME":"後壁區","LI":"新東里","LIN":"14鄰","STREET":" ","SECT":" ","MAREA":"新港東","LANE":" ","ALLEY":" ","HOUSE_NO":"１４７號之７８","E_COORD97":181334.95999999999,"N_COORD97":2582143.9900000002,"ADDRESS":"新港東１４７號之７８","OBJECTID":14553},"geometry":{"x":181334.96000000089,"y":2582143.9900000021}},{"attributes":{"ID":14554,"DIS_CODE":0,"TOWNNAME":"後壁區","LI":"新東里","LIN":"14鄰","STREET":" ","SECT":" ","MAREA":"新港東","LANE":" ","ALLEY":" ","HOUSE_NO":"１４７號之７９","E_COORD97":181338.85999999999,"N_COORD97":2582140.1600000001,"ADDRESS":"新港東１４７號之７９","OBJECTID":14554},"geometry":{"x":181338.8600000022,"y":2582140.1600000001}},{"attributes":{"ID":14555,"DIS_CODE":0,"TOWNNAME":"北區","LI":"正覺里","LIN":"24鄰","STREET":"公園路","SECT":" ","MAREA":" ","LANE":"７６９巷","ALLEY":"３２弄","HOUSE_NO":"１７號","E_COORD97":169498.98000000001,"N_COORD97":2546484.7799999998,"ADDRESS":"公園路７６９巷３２弄１７號","OBJECTID":14555},"geometry":{"x":169498.98000000231,"y":2546484.7799999993}},{"attributes":{"ID":14556,"DIS_CODE":0,"TOWNNAME":"北區","LI":"正覺里","LIN":"24鄰","STREET":"公園路","SECT":" ","MAREA":" ","LANE":"７６９巷","ALLEY":"３２弄","HOUSE_NO":"１８號","E_COORD97":169501.47,"N_COORD97":2546494.6699999999,"ADDRESS":"公園路７６９巷３２弄１８號","OBJECTID":14556},"geometry":{"x":169501.46999999881,"y":2546494.6700000037}},{"attributes":{"ID":14557,"DIS_CODE":0,"TOWNNAME":"北區","LI":"正覺里","LIN":"24鄰","STREET":"公園路","SECT":" ","MAREA":" ","LANE":"７６９巷","ALLEY":"３２弄","HOUSE_NO":"１９號","E_COORD97":169494.39000000001,"N_COORD97":2546486.0699999998,"ADDRESS":"公園路７６９巷３２弄１９號","OBJECTID":14557},"geometry":{"x":169494.3900000006,"y":2546486.0700000022}},{"attributes":{"ID":14558,"DIS_CODE":0,"TOWNNAME":"北區","LI":"正覺里","LIN":"24鄰","STREET":"公園路","SECT":" ","MAREA":" ","LANE":"７６９巷","ALLEY":"３２弄","HOUSE_NO":"１號","E_COORD97":169530.20999999999,"N_COORD97":2546473.2799999998,"ADDRESS":"公園路７６９巷３２弄１號","OBJECTID":14558},"geometry":{"x":169530.20999999996,"y":2546473.2800000012}},{"attributes":{"ID":14559,"DIS_CODE":0,"TOWNNAME":"北區","LI":"正覺里","LIN":"24鄰","STREET":"公園路","SECT":" ","MAREA":" ","LANE":"７６９巷","ALLEY":"３２弄","HOUSE_NO":"２０號","E_COORD97":169497.32999999999,"N_COORD97":2546495.9900000002,"ADDRESS":"公園路７６９巷３２弄２０號","OBJECTID":14559},"geometry":{"x":169497.33000000007,"y":2546495.9899999984}},{"attributes":{"ID":14560,"DIS_CODE":0,"TOWNNAME":"北區","LI":"正覺里","LIN":"24鄰","STREET":"公園路","SECT":" ","MAREA":" ","LANE":"７６９巷","ALLEY":"３２弄","HOUSE_NO":"２１號","E_COORD97":169490.28,"N_COORD97":2546487.52,"ADDRESS":"公園路７６９巷３２弄２１號","OBJECTID":14560},"geometry":{"x":169490.28000000119,"y":2546487.5199999996}},{"attributes":{"ID":14561,"DIS_CODE":0,"TOWNNAME":"北區","LI":"正覺里","LIN":"24鄰","STREET":"公園路","SECT":" ","MAREA":" ","LANE":"７６９巷","ALLEY":"３２弄","HOUSE_NO":"２２號","E_COORD97":169493,"N_COORD97":2546496.9300000002,"ADDRESS":"公園路７６９巷３２弄２２號","OBJECTID":14561},"geometry":{"x":169493,"y":2546496.9300000016}},{"attributes":{"ID":14562,"DIS_CODE":0,"TOWNNAME":"後壁區","LI":"新東里","LIN":"14鄰","STREET":" ","SECT":" ","MAREA":"新港東","LANE":" ","ALLEY":" ","HOUSE_NO":"１４７號之８０","E_COORD97":181342.70999999999,"N_COORD97":2582143.5099999998,"ADDRESS":"新港東１４７號之８０","OBJECTID":14562},"geometry":{"x":181342.71000000183,"y":2582143.5100000016}},{"attributes":{"ID":14563,"DIS_CODE":0,"TOWNNAME":"北區","LI":"正覺里","LIN":"24鄰","STREET":"公園路","SECT":" ","MAREA":" ","LANE":"７６９巷","ALLEY":"３２弄","HOUSE_NO":"２３號","E_COORD97":169486.34,"N_COORD97":2546489.21,"ADDRESS":"公園路７６９巷３２弄２３號","OBJECTID":14563},"geometry":{"x":169486.34000000078,"y":2546489.2100000028}},{"attributes":{"ID":14564,"DIS_CODE":0,"TOWNNAME":"北區","LI":"正覺里","LIN":"24鄰","STREET":"公園路","SECT":" ","MAREA":" ","LANE":"７６９巷","ALLEY":"３２弄","HOUSE_NO":"２４號","E_COORD97":169488.5,"N_COORD97":2546498.8100000001,"ADDRESS":"公園路７６９巷３２弄２４號","OBJECTID":14564},"geometry":{"x":169488.50000000093,"y":2546498.8100000024}},{"attributes":{"ID":14565,"DIS_CODE":0,"TOWNNAME":"北區","LI":"正覺里","LIN":"24鄰","STREET":"公園路","SECT":" ","MAREA":" ","LANE":"７６９巷","ALLEY":"３２弄","HOUSE_NO":"２５號","E_COORD97":169478.54999999999,"N_COORD97":2546487.3100000001,"ADDRESS":"公園路７６９巷３２弄２５號","OBJECTID":14565},"geometry":{"x":169478.54999999981,"y":2546487.3099999987}},{"attributes":{"ID":14566,"DIS_CODE":0,"TOWNNAME":"北區","LI":"正覺里","LIN":"24鄰","STREET":"公園路","SECT":" ","MAREA":" ","LANE":"７６９巷","ALLEY":"３２弄","HOUSE_NO":"２６號","E_COORD97":169482.10000000001,"N_COORD97":2546500.3199999998,"ADDRESS":"公園路７６９巷３２弄２６號","OBJECTID":14566},"geometry":{"x":169482.10000000056,"y":2546500.3200000003}},{"attributes":{"ID":14567,"DIS_CODE":0,"TOWNNAME":"北區","LI":"正覺里","LIN":"24鄰","STREET":"公園路","SECT":" ","MAREA":" ","LANE":"７６９巷","ALLEY":"３２弄","HOUSE_NO":"２７號","E_COORD97":169474.41,"N_COORD97":2546487.9700000002,"ADDRESS":"公園路７６９巷３２弄２７號","OBJECTID":14567},"geometry":{"x":169474.41000000108,"y":2546487.9700000025}},{"attributes":{"ID":14568,"DIS_CODE":0,"TOWNNAME":"北區","LI":"正覺里","LIN":"24鄰","STREET":"公園路","SECT":" ","MAREA":" ","LANE":"７６９巷","ALLEY":"３２弄","HOUSE_NO":"２８號","E_COORD97":169477.97,"N_COORD97":2546501.3500000001,"ADDRESS":"公園路７６９巷３２弄２８號","OBJECTID":14568},"geometry":{"x":169477.9700000016,"y":2546501.3500000015}},{"attributes":{"ID":14569,"DIS_CODE":0,"TOWNNAME":"北區","LI":"正覺里","LIN":"24鄰","STREET":"公園路","SECT":" ","MAREA":" ","LANE":"７６９巷","ALLEY":"３２弄","HOUSE_NO":"２９號","E_COORD97":169470.28,"N_COORD97":2546488.6299999999,"ADDRESS":"公園路７６９巷３２弄２９號","OBJECTID":14569},"geometry":{"x":169470.28000000119,"y":2546488.6300000008}},{"attributes":{"ID":14570,"DIS_CODE":0,"TOWNNAME":"中西區","LI":"三民里","LIN":"13鄰","STREET":"民族路","SECT":"二段","MAREA":" ","LANE":" ","ALLEY":" ","HOUSE_NO":"１３３號","E_COORD97":168784.59,"N_COORD97":2543935.25,"ADDRESS":"民族路二段１３３號","OBJECTID":14570},"geometry":{"x":168784.59000000078,"y":2543935.2500000019}},{"attributes":{"ID":14571,"DIS_CODE":0,"TOWNNAME":"中西區","LI":"三民里","LIN":"13鄰","STREET":"民族路","SECT":"二段","MAREA":" ","LANE":" ","ALLEY":" ","HOUSE_NO":"１３５號","E_COORD97":168772.97,"N_COORD97":2543931.79,"ADDRESS":"民族路二段１３５號","OBJECTID":14571},"geometry":{"x":168772.97000000067,"y":2543931.7899999991}},{"attributes":{"ID":14572,"DIS_CODE":0,"TOWNNAME":"中西區","LI":"三民里","LIN":"13鄰","STREET":"民族路","SECT":"二段","MAREA":" ","LANE":" ","ALLEY":" ","HOUSE_NO":"１３７號","E_COORD97":168769.70000000001,"N_COORD97":2543941.9700000002,"ADDRESS":"民族路二段１３７號","OBJECTID":14572},"geometry":{"x":168769.70000000019,"y":2543941.9700000025}},{"attributes":{"ID":14573,"DIS_CODE":0,"TOWNNAME":"後壁區","LI":"新東里","LIN":"14鄰","STREET":" ","SECT":" ","MAREA":"新港東","LANE":" ","ALLEY":" ","HOUSE_NO":"１４７號之８１","E_COORD97":181345.20999999999,"N_COORD97":2582146.8999999999,"ADDRESS":"新港東１４７號之８１","OBJECTID":14573},"geometry":{"x":181345.21000000089,"y":2582146.9000000041}},{"attributes":{"ID":14574,"DIS_CODE":0,"TOWNNAME":"後壁區","LI":"新東里","LIN":"14鄰","STREET":" ","SECT":" ","MAREA":"新港東","LANE":" ","ALLEY":" ","HOUSE_NO":"１４７號之８２","E_COORD97":181347.73999999999,"N_COORD97":2582150.2400000002,"ADDRESS":"新港東１４７號之８２","OBJECTID":14574},"geometry":{"x":181347.74000000022,"y":2582150.2400000002}},{"attributes":{"ID":14575,"DIS_CODE":0,"TOWNNAME":"安南區","LI":"新順里","LIN":"7鄰","STREET":"北安路","SECT":"三段","MAREA":" ","LANE":"７４５巷","ALLEY":"４２弄","HOUSE_NO":"５０號","E_COORD97":169191.85785,"N_COORD97":2550096.90857,"ADDRESS":"北安路三段７４５巷４２弄５０號","OBJECTID":14575},"geometry":{"x":169191.85785000212,"y":2550096.908569999}},{"attributes":{"ID":14576,"DIS_CODE":0,"TOWNNAME":"七股區","LI":"龍山里","LIN":"8鄰","STREET":" ","SECT":" ","MAREA":"龍山","LANE":" ","ALLEY":" ","HOUSE_NO":"８３號","E_COORD97":159387.95999999999,"N_COORD97":2559858.46,"ADDRESS":"龍山８３號","OBJECTID":14576},"geometry":{"x":159387.95999999996,"y":2559858.4600000046}},{"attributes":{"ID":14577,"DIS_CODE":0,"TOWNNAME":"北區","LI":"正覺里","LIN":"24鄰","STREET":"公園路","SECT":" ","MAREA":" ","LANE":"７６９巷","ALLEY":"３２弄","HOUSE_NO":"２號","E_COORD97":169533.98999999999,"N_COORD97":2546484.7999999998,"ADDRESS":"公園路７６９巷３２弄２號","OBJECTID":14577},"geometry":{"x":169533.99000000022,"y":2546484.8000000026}},{"attributes":{"ID":14578,"DIS_CODE":0,"TOWNNAME":"北區","LI":"正覺里","LIN":"24鄰","STREET":"公園路","SECT":" ","MAREA":" ","LANE":"７６９巷","ALLEY":"３２弄","HOUSE_NO":"３０號","E_COORD97":169473.92999999999,"N_COORD97":2546502.6600000001,"ADDRESS":"公園路７６９巷３２弄３０號","OBJECTID":14578},"geometry":{"x":169473.9299999997,"y":2546502.660000002}},{"attributes":{"ID":14579,"DIS_CODE":0,"TOWNNAME":"北區","LI":"正覺里","LIN":"24鄰","STREET":"公園路","SECT":" ","MAREA":" ","LANE":"７６９巷","ALLEY":"３２弄","HOUSE_NO":"３１號","E_COORD97":169465.85999999999,"N_COORD97":2546490.2200000002,"ADDRESS":"公園路７６９巷３２弄３１號","OBJECTID":14579},"geometry":{"x":169465.86000000127,"y":2546490.2200000007}},{"attributes":{"ID":14580,"DIS_CODE":0,"TOWNNAME":"北區","LI":"正覺里","LIN":"24鄰","STREET":"公園路","SECT":" ","MAREA":" ","LANE":"７６９巷","ALLEY":"３２弄","HOUSE_NO":"３２號","E_COORD97":169470.35999999999,"N_COORD97":2546503.98,"ADDRESS":"公園路７６９巷３２弄３２號","OBJECTID":14580},"geometry":{"x":169470.36000000034,"y":2546503.9800000023}},{"attributes":{"ID":14581,"DIS_CODE":0,"TOWNNAME":"北區","LI":"正覺里","LIN":"24鄰","STREET":"公園路","SECT":" ","MAREA":" ","LANE":"７６９巷","ALLEY":"３２弄","HOUSE_NO":"３３號","E_COORD97":169462.56,"N_COORD97":2546492.02,"ADDRESS":"公園路７６９巷３２弄３３號","OBJECTID":14581},"geometry":{"x":169462.56000000052,"y":2546492.0200000033}},{"attributes":{"ID":14582,"DIS_CODE":0,"TOWNNAME":"北區","LI":"正覺里","LIN":"24鄰","STREET":"公園路","SECT":" ","MAREA":" ","LANE":"７６９巷","ALLEY":"３２弄","HOUSE_NO":"３４號","E_COORD97":169466.39999999999,"N_COORD97":2546505.5899999999,"ADDRESS":"公園路７６９巷３２弄３４號","OBJECTID":14582},"geometry":{"x":169466.40000000037,"y":2546505.5900000017}},{"attributes":{"ID":14583,"DIS_CODE":0,"TOWNNAME":"北區","LI":"正覺里","LIN":"24鄰","STREET":"公園路","SECT":" ","MAREA":" ","LANE":"７６９巷","ALLEY":"３２弄","HOUSE_NO":"３５號","E_COORD97":169457.95999999999,"N_COORD97":2546493.0499999998,"ADDRESS":"公園路７６９巷３２弄３５號","OBJECTID":14583},"geometry":{"x":169457.96000000089,"y":2546493.0500000045}},{"attributes":{"ID":14584,"DIS_CODE":0,"TOWNNAME":"北區","LI":"正覺里","LIN":"24鄰","STREET":"公園路","SECT":" ","MAREA":" ","LANE":"７６９巷","ALLEY":"３２弄","HOUSE_NO":"３６號","E_COORD97":169461.79999999999,"N_COORD97":2546506.6200000001,"ADDRESS":"公園路７６９巷３２弄３６號","OBJECTID":14584},"geometry":{"x":169461.79999999981,"y":2546506.6200000029}},{"attributes":{"ID":14585,"DIS_CODE":0,"TOWNNAME":"北區","LI":"正覺里","LIN":"24鄰","STREET":"公園路","SECT":" ","MAREA":" ","LANE":"７６９巷","ALLEY":"３２弄","HOUSE_NO":"３７號","E_COORD97":169454.20000000001,"N_COORD97":2546494.5499999998,"ADDRESS":"公園路７６９巷３２弄３７號","OBJECTID":14585},"geometry":{"x":169454.20000000019,"y":2546494.5500000026}},{"attributes":{"ID":14586,"DIS_CODE":0,"TOWNNAME":"北區","LI":"正覺里","LIN":"24鄰","STREET":"公園路","SECT":" ","MAREA":" ","LANE":"７６９巷","ALLEY":"３２弄","HOUSE_NO":"３８號","E_COORD97":169458.23000000001,"N_COORD97":2546507.9300000002,"ADDRESS":"公園路７６９巷３２弄３８號","OBJECTID":14586},"geometry":{"x":169458.23000000231,"y":2546507.9299999997}},{"attributes":{"ID":14587,"DIS_CODE":0,"TOWNNAME":"北區","LI":"正覺里","LIN":"24鄰","STREET":"公園路","SECT":" ","MAREA":" ","LANE":"７６９巷","ALLEY":"３２弄","HOUSE_NO":"３９號","E_COORD97":169450.26000000001,"N_COORD97":2546494.9300000002,"ADDRESS":"公園路７６９巷３２弄３９號","OBJECTID":14587},"geometry":{"x":169450.25999999978,"y":2546494.9299999997}},{"attributes":{"ID":14588,"DIS_CODE":0,"TOWNNAME":"六甲區","LI":"六甲里","LIN":"24鄰","STREET":"信義街","SECT":" ","MAREA":" ","LANE":"２３８巷","ALLEY":"１４弄","HOUSE_NO":"１１號","E_COORD97":183428.22,"N_COORD97":2569908.8399999999,"ADDRESS":"信義街２３８巷１４弄１１號","OBJECTID":14588},"geometry":{"x":183428.22000000067,"y":2569908.8400000017}},{"attributes":{"ID":14589,"DIS_CODE":0,"TOWNNAME":"六甲區","LI":"六甲里","LIN":"24鄰","STREET":"信義街","SECT":" ","MAREA":" ","LANE":"２３８巷","ALLEY":"１４弄","HOUSE_NO":"１３號","E_COORD97":183427.67999999999,"N_COORD97":2569904.6499999999,"ADDRESS":"信義街２３８巷１４弄１３號","OBJECTID":14589},"geometry":{"x":183427.67999999877,"y":2569904.6500000004}},{"attributes":{"ID":14590,"DIS_CODE":0,"TOWNNAME":"六甲區","LI":"六甲里","LIN":"24鄰","STREET":"信義街","SECT":" ","MAREA":" ","LANE":"２３８巷","ALLEY":"１４弄","HOUSE_NO":"１５號","E_COORD97":183426.64000000001,"N_COORD97":2569900.3700000001,"ADDRESS":"信義街２３８巷１４弄１５號","OBJECTID":14590},"geometry":{"x":183426.6400000006,"y":2569900.370000001}},{"attributes":{"ID":14591,"DIS_CODE":0,"TOWNNAME":"六甲區","LI":"六甲里","LIN":"24鄰","STREET":"信義街","SECT":" ","MAREA":" ","LANE":"２３８巷","ALLEY":"１４弄","HOUSE_NO":"１７之１號","E_COORD97":183415.64999999999,"N_COORD97":2569878.7599999998,"ADDRESS":"信義街２３８巷１４弄１７之１號","OBJECTID":14591},"geometry":{"x":183415.6500000013,"y":2569878.7600000016}},{"attributes":{"ID":14592,"DIS_CODE":0,"TOWNNAME":"六甲區","LI":"六甲里","LIN":"24鄰","STREET":"信義街","SECT":" ","MAREA":" ","LANE":"２３８巷","ALLEY":"１４弄","HOUSE_NO":"１７號","E_COORD97":183401.97,"N_COORD97":2569876.3100000001,"ADDRESS":"信義街２３８巷１４弄１７號","OBJECTID":14592},"geometry":{"x":183401.96999999974,"y":2569876.3100000005}},{"attributes":{"ID":14593,"DIS_CODE":0,"TOWNNAME":"六甲區","LI":"六甲里","LIN":"24鄰","STREET":"信義街","SECT":" ","MAREA":" ","LANE":"２３８巷","ALLEY":"１４弄","HOUSE_NO":"１號","E_COORD97":183434.97,"N_COORD97":2569931.46,"ADDRESS":"信義街２３８巷１４弄１號","OBJECTID":14593},"geometry":{"x":183434.97000000067,"y":2569931.4600000046}},{"attributes":{"ID":14594,"DIS_CODE":0,"TOWNNAME":"六甲區","LI":"六甲里","LIN":"24鄰","STREET":"信義街","SECT":" ","MAREA":" ","LANE":"２３８巷","ALLEY":"１４弄","HOUSE_NO":"２號","E_COORD97":183432.14000000001,"N_COORD97":2569947.2999999998,"ADDRESS":"信義街２３８巷１４弄２號","OBJECTID":14594},"geometry":{"x":183432.1400000006,"y":2569947.3000000026}},{"attributes":{"ID":14595,"DIS_CODE":0,"TOWNNAME":"六甲區","LI":"六甲里","LIN":"24鄰","STREET":"信義街","SECT":" ","MAREA":" ","LANE":"２３８巷","ALLEY":"１４弄","HOUSE_NO":"３號","E_COORD97":183433.84,"N_COORD97":2569926.9700000002,"ADDRESS":"信義街２３８巷１４弄３號","OBJECTID":14595},"geometry":{"x":183433.84000000078,"y":2569926.9700000007}},{"attributes":{"ID":14596,"DIS_CODE":0,"TOWNNAME":"六甲區","LI":"六甲里","LIN":"24鄰","STREET":"信義街","SECT":" ","MAREA":" ","LANE":"２３８巷","ALLEY":"１４弄","HOUSE_NO":"４號","E_COORD97":183436.32000000001,"N_COORD97":2569946.1699999999,"ADDRESS":"信義街２３８巷１４弄４號","OBJECTID":14596},"geometry":{"x":183436.32000000123,"y":2569946.1700000018}},{"attributes":{"ID":14597,"DIS_CODE":0,"TOWNNAME":"六甲區","LI":"六甲里","LIN":"24鄰","STREET":"信義街","SECT":" ","MAREA":" ","LANE":"２３８巷","ALLEY":"１４弄","HOUSE_NO":"５號","E_COORD97":183432.37,"N_COORD97":2569922.6099999999,"ADDRESS":"信義街２３８巷１４弄５號","OBJECTID":14597},"geometry":{"x":183432.37000000104,"y":2569922.6100000013}},{"attributes":{"ID":14598,"DIS_CODE":0,"TOWNNAME":"六甲區","LI":"六甲里","LIN":"24鄰","STREET":"信義街","SECT":" ","MAREA":" ","LANE":"２３８巷","ALLEY":"１４弄","HOUSE_NO":"６號","E_COORD97":183441.25,"N_COORD97":2569944.6200000001,"ADDRESS":"信義街２３８巷１４弄６號","OBJECTID":14598},"geometry":{"x":183441.25000000186,"y":2569944.6200000029}},{"attributes":{"ID":14599,"DIS_CODE":0,"TOWNNAME":"東區","LI":"小東里","LIN":"13鄰","STREET":"光明街","SECT":" ","MAREA":" ","LANE":" ","ALLEY":" ","HOUSE_NO":"５２號之１","E_COORD97":170884.64999999999,"N_COORD97":2544302.8999999999,"ADDRESS":"光明街５２號之１","OBJECTID":14599},"geometry":{"x":170884.6500000013,"y":2544302.9000000004}},{"attributes":{"ID":14600,"DIS_CODE":0,"TOWNNAME":"東區","LI":"小東里","LIN":"13鄰","STREET":"光明街","SECT":" ","MAREA":" ","LANE":" ","ALLEY":" ","HOUSE_NO":"５２號之２","E_COORD97":170884.95999999999,"N_COORD97":2544297.98,"ADDRESS":"光明街５２號之２","OBJECTID":14600},"geometry":{"x":170884.95999999996,"y":2544297.9800000004}}]}