{"displayFieldName":"TOWNNAME","fieldAliases":{"ID":"ID","DIS_CODE":"DIS_CODE","TOWNNAME":"TOWNNAME","LI":"LI","LIN":"LIN","STREET":"STREET","SECT":"SECT","MAREA":"MAREA","LANE":"LANE","ALLEY":"ALLEY","HOUSE_NO":"HOUSE_NO","E_COORD97":"E_COORD97","N_COORD97":"N_COORD97","ADDRESS":"ADDRESS","OBJECTID":"OBJECTID"},"geometryType":"esriGeometryPoint","spatialReference":{"wkid":102443,"latestWkid":3826},"fields":[{"name":"ID","type":"esriFieldTypeDouble","alias":"ID"},{"name":"DIS_CODE","type":"esriFieldTypeInteger","alias":"DIS_CODE"},{"name":"TOWNNAME","type":"esriFieldTypeString","alias":"TOWNNAME","length":8},{"name":"LI","type":"esriFieldTypeString","alias":"LI","length":8},{"name":"LIN","type":"esriFieldTypeString","alias":"LIN","length":12},{"name":"STREET","type":"esriFieldTypeString","alias":"STREET","length":20},{"name":"SECT","type":"esriFieldTypeString","alias":"SECT","length":8},{"name":"MAREA","type":"esriFieldTypeString","alias":"MAREA","length":12},{"name":"LANE","type":"esriFieldTypeString","alias":"LANE","length":10},{"name":"ALLEY","type":"esriFieldTypeString","alias":"ALLEY","length":10},{"name":"HOUSE_NO","type":"esriFieldTypeString","alias":"HOUSE_NO","length":20},{"name":"E_COORD97","type":"esriFieldTypeDouble","alias":"E_COORD97"},{"name":"N_COORD97","type":"esriFieldTypeDouble","alias":"N_COORD97"},{"name":"ADDRESS","type":"esriFieldTypeString","alias":"ADDRESS","length":50},{"name":"OBJECTID","type":"esriFieldTypeOID","alias":"OBJECTID"}],"features":[{"attributes":{"ID":162202,"DIS_CODE":0,"TOWNNAME":"仁德區","LI":"仁德里","LIN":"32鄰","STREET":"中山路","SECT":" ","MAREA":" ","LANE":"６０６巷","ALLEY":"１弄","HOUSE_NO":"１５號","E_COORD97":173191.57999999999,"N_COORD97":2541414.2400000002,"ADDRESS":"中山路６０６巷１弄１５號","OBJECTID":162201},"geometry":{"x":173191.58000000194,"y":2541414.2400000002}},{"attributes":{"ID":162203,"DIS_CODE":0,"TOWNNAME":"永康區","LI":"復華里","LIN":"21鄰","STREET":"國華街","SECT":" ","MAREA":" ","LANE":"１３２巷","ALLEY":"１２弄","HOUSE_NO":"８號","E_COORD97":172876.736274,"N_COORD97":2546392.9047900001,"ADDRESS":"國華街１３２巷１２弄８號","OBJECTID":162202},"geometry":{"x":172876.73627400119,"y":2546392.904794002}},{"attributes":{"ID":162204,"DIS_CODE":0,"TOWNNAME":"將軍區","LI":"鯤鯓里","LIN":"18鄰","STREET":" ","SECT":" ","MAREA":"鯤鯓","LANE":" ","ALLEY":" ","HOUSE_NO":"２２２之５４號","E_COORD97":156930.92999999999,"N_COORD97":2565490.5699999998,"ADDRESS":"鯤鯓２２２之５４號","OBJECTID":162203},"geometry":{"x":156930.93000000063,"y":2565490.5700000003}},{"attributes":{"ID":162205,"DIS_CODE":0,"TOWNNAME":"將軍區","LI":"鯤鯓里","LIN":"18鄰","STREET":" ","SECT":" ","MAREA":"鯤鯓","LANE":" ","ALLEY":" ","HOUSE_NO":"２２２之６９號","E_COORD97":156953.59,"N_COORD97":2565493.75,"ADDRESS":"鯤鯓２２２之６９號","OBJECTID":162204},"geometry":{"x":156953.59000000078,"y":2565493.7500000037}},{"attributes":{"ID":162206,"DIS_CODE":0,"TOWNNAME":"永康區","LI":"埔園里","LIN":"7鄰","STREET":"中山路","SECT":" ","MAREA":" ","LANE":" ","ALLEY":" ","HOUSE_NO":"５７號","E_COORD97":173767.91,"N_COORD97":2547722.4900000002,"ADDRESS":"中山路５７號","OBJECTID":162205},"geometry":{"x":173767.91000000108,"y":2547722.4900000002}},{"attributes":{"ID":162207,"DIS_CODE":0,"TOWNNAME":"永康區","LI":"東灣里","LIN":"31鄰","STREET":"大灣一街","SECT":" ","MAREA":" ","LANE":" ","ALLEY":" ","HOUSE_NO":"１７３號","E_COORD97":174799.81,"N_COORD97":2544593.7400000002,"ADDRESS":"大灣一街１７３號","OBJECTID":162206},"geometry":{"x":174799.80999999959,"y":2544593.7400000021}},{"attributes":{"ID":162208,"DIS_CODE":0,"TOWNNAME":"仁德區","LI":"仁義里","LIN":"42鄰","STREET":"中正路","SECT":"二段","MAREA":" ","LANE":"９９４巷","ALLEY":"１０弄","HOUSE_NO":"２１號","E_COORD97":173492.66,"N_COORD97":2540726.2799999998,"ADDRESS":"中正路二段９９４巷１０弄２１號","OBJECTID":162207},"geometry":{"x":173492.66000000015,"y":2540726.2800000031}},{"attributes":{"ID":162209,"DIS_CODE":0,"TOWNNAME":"仁德區","LI":"仁義里","LIN":"20鄰","STREET":"中山路","SECT":" ","MAREA":" ","LANE":"３２８巷","ALLEY":"１８弄","HOUSE_NO":"９號","E_COORD97":174020.57999999999,"N_COORD97":2541339.3999999999,"ADDRESS":"中山路３２８巷１８弄９號","OBJECTID":162208},"geometry":{"x":174020.58000000194,"y":2541339.4000000004}},{"attributes":{"ID":162210,"DIS_CODE":0,"TOWNNAME":"仁德區","LI":"仁義里","LIN":"26鄰","STREET":"中山路","SECT":" ","MAREA":" ","LANE":"５３０巷","ALLEY":"１弄","HOUSE_NO":"３號","E_COORD97":173402.45999999999,"N_COORD97":2541364.4399999999,"ADDRESS":"中山路５３０巷１弄３號","OBJECTID":162209},"geometry":{"x":173402.46000000183,"y":2541364.4399999995}},{"attributes":{"ID":162211,"DIS_CODE":0,"TOWNNAME":"仁德區","LI":"土庫里","LIN":"5鄰","STREET":"土庫六街","SECT":" ","MAREA":" ","LANE":"７５巷","ALLEY":"１１６弄","HOUSE_NO":"１號","E_COORD97":174128.51000000001,"N_COORD97":2543110,"ADDRESS":"土庫六街７５巷１１６弄１號","OBJECTID":162210},"geometry":{"x":174128.50999999978,"y":2543110.0000000019}},{"attributes":{"ID":162212,"DIS_CODE":0,"TOWNNAME":"仁德區","LI":"仁義里","LIN":"18鄰","STREET":"中山路","SECT":" ","MAREA":" ","LANE":"３２８巷","ALLEY":"１６弄","HOUSE_NO":"３號","E_COORD97":173967.45000000001,"N_COORD97":2541327.1099999999,"ADDRESS":"中山路３２８巷１６弄３號","OBJECTID":162211},"geometry":{"x":173967.45000000112,"y":2541327.1099999994}},{"attributes":{"ID":162213,"DIS_CODE":0,"TOWNNAME":"仁德區","LI":"成功里","LIN":"38鄰","STREET":"保華路","SECT":" ","MAREA":" ","LANE":"２巷","ALLEY":"５弄","HOUSE_NO":"３４號","E_COORD97":170687.73999999999,"N_COORD97":2540047.2400000002,"ADDRESS":"保華路２巷５弄３４號","OBJECTID":162212},"geometry":{"x":170687.74000000022,"y":2540047.2400000021}},{"attributes":{"ID":162214,"DIS_CODE":0,"TOWNNAME":"東區","LI":"關聖里","LIN":"4鄰","STREET":"裕農路","SECT":" ","MAREA":" ","LANE":"６６８巷","ALLEY":"５１弄","HOUSE_NO":"１６號","E_COORD97":171810.37,"N_COORD97":2542997.75,"ADDRESS":"裕農路６６８巷５１弄１６號","OBJECTID":162213},"geometry":{"x":171810.37000000104,"y":2542997.75}},{"attributes":{"ID":162215,"DIS_CODE":0,"TOWNNAME":"仁德區","LI":"仁德里","LIN":"18鄰","STREET":"文華路","SECT":"三段","MAREA":" ","LANE":"１８９巷","ALLEY":"３０弄","HOUSE_NO":"３５號","E_COORD97":172155.85000000001,"N_COORD97":2540579.2799999998,"ADDRESS":"文華路三段１８９巷３０弄３５號","OBJECTID":162214},"geometry":{"x":172155.85000000056,"y":2540579.2799999993}},{"attributes":{"ID":162216,"DIS_CODE":0,"TOWNNAME":"仁德區","LI":"仁德里","LIN":"43鄰","STREET":"中山路","SECT":" ","MAREA":" ","LANE":"９１０巷","ALLEY":"１１弄","HOUSE_NO":"１０號","E_COORD97":171987.31,"N_COORD97":2541765,"ADDRESS":"中山路９１０巷１１弄１０號","OBJECTID":162215},"geometry":{"x":171987.30999999959,"y":2541765}},{"attributes":{"ID":162217,"DIS_CODE":0,"TOWNNAME":"將軍區","LI":"鯤鯓里","LIN":"18鄰","STREET":" ","SECT":" ","MAREA":"鯤鯓","LANE":" ","ALLEY":" ","HOUSE_NO":"２２２之７０號","E_COORD97":156958.17999999999,"N_COORD97":2565494.0600000001,"ADDRESS":"鯤鯓２２２之７０號","OBJECTID":162216},"geometry":{"x":156958.18000000063,"y":2565494.0600000005}},{"attributes":{"ID":162218,"DIS_CODE":0,"TOWNNAME":"仁德區","LI":"保安里","LIN":"4鄰","STREET":"文賢路","SECT":"一段","MAREA":" ","LANE":"８６４巷","ALLEY":"１３弄","HOUSE_NO":"１２號","E_COORD97":171547.60999999999,"N_COORD97":2535990.0800000001,"ADDRESS":"文賢路一段８６４巷１３弄１２號","OBJECTID":162217},"geometry":{"x":171547.61000000127,"y":2535990.0800000019}},{"attributes":{"ID":162219,"DIS_CODE":0,"TOWNNAME":"仁德區","LI":"仁德里","LIN":"26鄰","STREET":"淨修街","SECT":" ","MAREA":" ","LANE":"１７５巷","ALLEY":"３０弄","HOUSE_NO":"１６號","E_COORD97":171978,"N_COORD97":2541201.9300000002,"ADDRESS":"淨修街１７５巷３０弄１６號","OBJECTID":162218},"geometry":{"x":171978,"y":2541201.9299999997}},{"attributes":{"ID":162220,"DIS_CODE":0,"TOWNNAME":"仁德區","LI":"成功里","LIN":"43鄰","STREET":"虎山一街","SECT":" ","MAREA":" ","LANE":"９巷","ALLEY":"１弄","HOUSE_NO":"５號","E_COORD97":170975.26999999999,"N_COORD97":2538006.2599999998,"ADDRESS":"虎山一街９巷１弄５號","OBJECTID":162219},"geometry":{"x":170975.26999999955,"y":2538006.2599999998}},{"attributes":{"ID":162221,"DIS_CODE":0,"TOWNNAME":"仁德區","LI":"保安里","LIN":"4鄰","STREET":"文賢路","SECT":"一段","MAREA":" ","LANE":"８７４巷","ALLEY":"１弄","HOUSE_NO":"４號","E_COORD97":171593.94,"N_COORD97":2535993.8300000001,"ADDRESS":"文賢路一段８７４巷１弄４號","OBJECTID":162220},"geometry":{"x":171593.94000000041,"y":2535993.8300000038}},{"attributes":{"ID":162222,"DIS_CODE":0,"TOWNNAME":"仁德區","LI":"仁德里","LIN":"18鄰","STREET":"文華路","SECT":"三段","MAREA":" ","LANE":"１８９巷","ALLEY":"９２弄","HOUSE_NO":"７９號","E_COORD97":172115.04000000001,"N_COORD97":2540566.2799999998,"ADDRESS":"文華路三段１８９巷９２弄７９號","OBJECTID":162221},"geometry":{"x":172115.04000000004,"y":2540566.2799999993}},{"attributes":{"ID":162223,"DIS_CODE":0,"TOWNNAME":"仁德區","LI":"太子里","LIN":"26鄰","STREET":"長興五街","SECT":" ","MAREA":" ","LANE":"１４巷","ALLEY":"２弄","HOUSE_NO":"１號","E_COORD97":173627.92999999999,"N_COORD97":2543586.75,"ADDRESS":"長興五街１４巷２弄１號","OBJECTID":162222},"geometry":{"x":173627.93000000156,"y":2543586.7500000019}},{"attributes":{"ID":162224,"DIS_CODE":0,"TOWNNAME":"將軍區","LI":"鯤鯓里","LIN":"18鄰","STREET":" ","SECT":" ","MAREA":"鯤鯓","LANE":" ","ALLEY":" ","HOUSE_NO":"２２２之７１號","E_COORD97":156968.26999999999,"N_COORD97":2565495.21,"ADDRESS":"鯤鯓２２２之７１號","OBJECTID":162223},"geometry":{"x":156968.26999999955,"y":2565495.2100000046}},{"attributes":{"ID":162225,"DIS_CODE":0,"TOWNNAME":"將軍區","LI":"鯤鯓里","LIN":"18鄰","STREET":" ","SECT":" ","MAREA":"鯤鯓","LANE":" ","ALLEY":" ","HOUSE_NO":"２２２之７２號","E_COORD97":156971.76999999999,"N_COORD97":2565495.6000000001,"ADDRESS":"鯤鯓２２２之７２號","OBJECTID":162224},"geometry":{"x":156971.76999999862,"y":2565495.6000000015}},{"attributes":{"ID":162226,"DIS_CODE":0,"TOWNNAME":"將軍區","LI":"鯤鯓里","LIN":"18鄰","STREET":" ","SECT":" ","MAREA":"鯤鯓","LANE":" ","ALLEY":" ","HOUSE_NO":"２２２之７３號","E_COORD97":156987.64999999999,"N_COORD97":2565497.0899999999,"ADDRESS":"鯤鯓２２２之７３號","OBJECTID":162225},"geometry":{"x":156987.6500000013,"y":2565497.0899999999}},{"attributes":{"ID":162227,"DIS_CODE":0,"TOWNNAME":"將軍區","LI":"鯤鯓里","LIN":"18鄰","STREET":" ","SECT":" ","MAREA":"鯤鯓","LANE":" ","ALLEY":" ","HOUSE_NO":"２２２之７４號","E_COORD97":156991.51999999999,"N_COORD97":2565497.7400000002,"ADDRESS":"鯤鯓２２２之７４號","OBJECTID":162226},"geometry":{"x":156991.51999999955,"y":2565497.7400000039}},{"attributes":{"ID":162228,"DIS_CODE":0,"TOWNNAME":"將軍區","LI":"鯤鯓里","LIN":"18鄰","STREET":" ","SECT":" ","MAREA":"鯤鯓","LANE":" ","ALLEY":" ","HOUSE_NO":"２２２之７５號","E_COORD97":156971.95999999999,"N_COORD97":2565476.1099999999,"ADDRESS":"鯤鯓２２２之７５號","OBJECTID":162227},"geometry":{"x":156971.95999999996,"y":2565476.1099999994}},{"attributes":{"ID":162229,"DIS_CODE":0,"TOWNNAME":"將軍區","LI":"鯤鯓里","LIN":"18鄰","STREET":" ","SECT":" ","MAREA":"鯤鯓","LANE":" ","ALLEY":" ","HOUSE_NO":"２３５之１７號","E_COORD97":156948.70999999999,"N_COORD97":2565523.3599999999,"ADDRESS":"鯤鯓２３５之１７號","OBJECTID":162228},"geometry":{"x":156948.70999999996,"y":2565523.3600000013}},{"attributes":{"ID":162230,"DIS_CODE":0,"TOWNNAME":"將軍區","LI":"鯤鯓里","LIN":"18鄰","STREET":" ","SECT":" ","MAREA":"鯤鯓","LANE":" ","ALLEY":" ","HOUSE_NO":"２３５之１８號","E_COORD97":156949.07000000001,"N_COORD97":2565519.21,"ADDRESS":"鯤鯓２３５之１８號","OBJECTID":162229},"geometry":{"x":156949.07000000123,"y":2565519.2100000028}},{"attributes":{"ID":162231,"DIS_CODE":0,"TOWNNAME":"將軍區","LI":"鯤鯓里","LIN":"18鄰","STREET":" ","SECT":" ","MAREA":"鯤鯓","LANE":" ","ALLEY":" ","HOUSE_NO":"２３５之１９號","E_COORD97":156950.04000000001,"N_COORD97":2565515.1299999999,"ADDRESS":"鯤鯓２３５之１９號","OBJECTID":162230},"geometry":{"x":156950.04000000004,"y":2565515.1300000008}},{"attributes":{"ID":162232,"DIS_CODE":0,"TOWNNAME":"將軍區","LI":"鯤鯓里","LIN":"18鄰","STREET":" ","SECT":" ","MAREA":"鯤鯓","LANE":" ","ALLEY":" ","HOUSE_NO":"２３５之１號","E_COORD97":156939.56,"N_COORD97":2565584.4900000002,"ADDRESS":"鯤鯓２３５之１號","OBJECTID":162231},"geometry":{"x":156939.56000000145,"y":2565584.4900000021}},{"attributes":{"ID":162233,"DIS_CODE":0,"TOWNNAME":"仁德區","LI":"成功里","LIN":"43鄰","STREET":"虎山一街","SECT":" ","MAREA":" ","LANE":"９巷","ALLEY":"１弄","HOUSE_NO":"３號","E_COORD97":170982.12,"N_COORD97":2538005.5099999998,"ADDRESS":"虎山一街９巷１弄３號","OBJECTID":162232},"geometry":{"x":170982.12000000011,"y":2538005.5099999998}},{"attributes":{"ID":162234,"DIS_CODE":0,"TOWNNAME":"將軍區","LI":"鯤鯓里","LIN":"18鄰","STREET":" ","SECT":" ","MAREA":"鯤鯓","LANE":" ","ALLEY":" ","HOUSE_NO":"２３５之２０號","E_COORD97":156953.82000000001,"N_COORD97":2565515.3199999998,"ADDRESS":"鯤鯓２３５之２０號","OBJECTID":162233},"geometry":{"x":156953.82000000216,"y":2565515.3200000022}},{"attributes":{"ID":162235,"DIS_CODE":0,"TOWNNAME":"將軍區","LI":"鯤鯓里","LIN":"18鄰","STREET":" ","SECT":" ","MAREA":"鯤鯓","LANE":" ","ALLEY":" ","HOUSE_NO":"２３５之２１號","E_COORD97":156957.51999999999,"N_COORD97":2565515.6099999999,"ADDRESS":"鯤鯓２３５之２１號","OBJECTID":162234},"geometry":{"x":156957.51999999955,"y":2565515.6100000013}},{"attributes":{"ID":162236,"DIS_CODE":0,"TOWNNAME":"將軍區","LI":"鯤鯓里","LIN":"18鄰","STREET":" ","SECT":" ","MAREA":"鯤鯓","LANE":" ","ALLEY":" ","HOUSE_NO":"２３５之２２號","E_COORD97":156961.57999999999,"N_COORD97":2565516.21,"ADDRESS":"鯤鯓２３５之２２號","OBJECTID":162235},"geometry":{"x":156961.58000000007,"y":2565516.2100000028}},{"attributes":{"ID":162237,"DIS_CODE":0,"TOWNNAME":"將軍區","LI":"鯤鯓里","LIN":"18鄰","STREET":" ","SECT":" ","MAREA":"鯤鯓","LANE":" ","ALLEY":" ","HOUSE_NO":"２３５之２３號","E_COORD97":156965.56,"N_COORD97":2565516.5099999998,"ADDRESS":"鯤鯓２３５之２３號","OBJECTID":162236},"geometry":{"x":156965.56000000052,"y":2565516.5100000016}},{"attributes":{"ID":162238,"DIS_CODE":0,"TOWNNAME":"將軍區","LI":"鯤鯓里","LIN":"18鄰","STREET":" ","SECT":" ","MAREA":"鯤鯓","LANE":" ","ALLEY":" ","HOUSE_NO":"２３５之２４號","E_COORD97":156969.54999999999,"N_COORD97":2565517.0099999998,"ADDRESS":"鯤鯓２３５之２４號","OBJECTID":162237},"geometry":{"x":156969.54999999981,"y":2565517.0100000016}},{"attributes":{"ID":162239,"DIS_CODE":0,"TOWNNAME":"將軍區","LI":"鯤鯓里","LIN":"18鄰","STREET":" ","SECT":" ","MAREA":"鯤鯓","LANE":" ","ALLEY":" ","HOUSE_NO":"２３５之２５號","E_COORD97":156973.41,"N_COORD97":2565517.4399999999,"ADDRESS":"鯤鯓２３５之２５號","OBJECTID":162238},"geometry":{"x":156973.41000000108,"y":2565517.4399999995}},{"attributes":{"ID":162240,"DIS_CODE":0,"TOWNNAME":"西港區","LI":"港東里","LIN":"18鄰","STREET":" ","SECT":" ","MAREA":"八份","LANE":" ","ALLEY":" ","HOUSE_NO":"６７號","E_COORD97":170102.60999999999,"N_COORD97":2558610.2599999998,"ADDRESS":"八份６７號","OBJECTID":162239},"geometry":{"x":170102.61000000034,"y":2558610.2599999998}},{"attributes":{"ID":162241,"DIS_CODE":0,"TOWNNAME":"西港區","LI":"港東里","LIN":"18鄰","STREET":" ","SECT":" ","MAREA":"八份","LANE":" ","ALLEY":" ","HOUSE_NO":"６８號之１","E_COORD97":170098.17999999999,"N_COORD97":2558635.77,"ADDRESS":"八份６８號之１","OBJECTID":162240},"geometry":{"x":170098.1799999997,"y":2558635.7700000014}},{"attributes":{"ID":162242,"DIS_CODE":0,"TOWNNAME":"西港區","LI":"港東里","LIN":"18鄰","STREET":" ","SECT":" ","MAREA":"八份","LANE":" ","ALLEY":" ","HOUSE_NO":"６８之２號","E_COORD97":170111.85000000001,"N_COORD97":2558630.8300000001,"ADDRESS":"八份６８之２號","OBJECTID":162241},"geometry":{"x":170111.84999999963,"y":2558630.8300000001}},{"attributes":{"ID":162243,"DIS_CODE":0,"TOWNNAME":"西港區","LI":"港東里","LIN":"18鄰","STREET":" ","SECT":" ","MAREA":"八份","LANE":" ","ALLEY":" ","HOUSE_NO":"６８號","E_COORD97":170121.41,"N_COORD97":2558630.6000000001,"ADDRESS":"八份６８號","OBJECTID":162242},"geometry":{"x":170121.41000000108,"y":2558630.6000000015}},{"attributes":{"ID":162244,"DIS_CODE":0,"TOWNNAME":"永康區","LI":"西橋里","LIN":"12鄰","STREET":"大橋一街","SECT":" ","MAREA":" ","LANE":" ","ALLEY":" ","HOUSE_NO":"４２號八樓之２","E_COORD97":170623.45999999999,"N_COORD97":2546226.7999999998,"ADDRESS":"大橋一街４２號八樓之２","OBJECTID":162243},"geometry":{"x":170623.45999999996,"y":2546226.8000000045}},{"attributes":{"ID":162245,"DIS_CODE":0,"TOWNNAME":"永康區","LI":"西橋里","LIN":"12鄰","STREET":"大橋一街","SECT":" ","MAREA":" ","LANE":" ","ALLEY":" ","HOUSE_NO":"４２號五樓之３","E_COORD97":170623.42000000001,"N_COORD97":2546226.7999999998,"ADDRESS":"大橋一街４２號五樓之３","OBJECTID":162244},"geometry":{"x":170623.42000000086,"y":2546226.8000000045}},{"attributes":{"ID":162246,"DIS_CODE":0,"TOWNNAME":"西港區","LI":"竹林里","LIN":"18鄰","STREET":" ","SECT":" ","MAREA":"大竹林","LANE":" ","ALLEY":" ","HOUSE_NO":"１５３號之１","E_COORD97":166892.66,"N_COORD97":2558093.6800000002,"ADDRESS":"大竹林１５３號之１","OBJECTID":162245},"geometry":{"x":166892.66000000108,"y":2558093.6800000016}},{"attributes":{"ID":162247,"DIS_CODE":0,"TOWNNAME":"永康區","LI":"西橋里","LIN":"12鄰","STREET":"大橋一街","SECT":" ","MAREA":" ","LANE":" ","ALLEY":" ","HOUSE_NO":"４２號九樓之１","E_COORD97":170623.32000000001,"N_COORD97":2546226.7999999998,"ADDRESS":"大橋一街４２號九樓之１","OBJECTID":162246},"geometry":{"x":170623.3200000003,"y":2546226.8000000045}},{"attributes":{"ID":162248,"DIS_CODE":0,"TOWNNAME":"仁德區","LI":"成功里","LIN":"4鄰","STREET":"成功三街","SECT":" ","MAREA":" ","LANE":"８６巷","ALLEY":"１弄","HOUSE_NO":"１４號","E_COORD97":171151.81,"N_COORD97":2539787.21,"ADDRESS":"成功三街８６巷１弄１４號","OBJECTID":162247},"geometry":{"x":171151.80999999866,"y":2539787.2100000028}},{"attributes":{"ID":162249,"DIS_CODE":0,"TOWNNAME":"安南區","LI":"溪東里","LIN":"20鄰","STREET":"郡安路","SECT":"五段","MAREA":" ","LANE":"３１巷","ALLEY":"２弄","HOUSE_NO":"３號","E_COORD97":168202.45999999999,"N_COORD97":2547624.9199999999,"ADDRESS":"郡安路五段３１巷２弄３號","OBJECTID":162248},"geometry":{"x":168202.46000000089,"y":2547624.9199999999}},{"attributes":{"ID":162250,"DIS_CODE":0,"TOWNNAME":"安南區","LI":"溪東里","LIN":"20鄰","STREET":"郡安路","SECT":"五段","MAREA":" ","LANE":"３１巷","ALLEY":"２弄","HOUSE_NO":"５號","E_COORD97":168194.35000000001,"N_COORD97":2547623.1899999999,"ADDRESS":"郡安路五段３１巷２弄５號","OBJECTID":162249},"geometry":{"x":168194.35000000056,"y":2547623.1900000032}},{"attributes":{"ID":162251,"DIS_CODE":0,"TOWNNAME":"安南區","LI":"安富里","LIN":"14鄰","STREET":"安富街","SECT":" ","MAREA":" ","LANE":"２５１巷","ALLEY":"５６弄","HOUSE_NO":"４５號","E_COORD97":167392.12,"N_COORD97":2547262.7200000002,"ADDRESS":"安富街２５１巷５６弄４５號","OBJECTID":162250},"geometry":{"x":167392.12000000197,"y":2547262.7200000025}},{"attributes":{"ID":162252,"DIS_CODE":0,"TOWNNAME":"安南區","LI":"溪東里","LIN":"19鄰","STREET":"府安路","SECT":"五段","MAREA":" ","LANE":"１１巷","ALLEY":"９３弄","HOUSE_NO":"４４號","E_COORD97":168269.59,"N_COORD97":2547620.1000000001,"ADDRESS":"府安路五段１１巷９３弄４４號","OBJECTID":162251},"geometry":{"x":168269.58999999985,"y":2547620.0999999978}},{"attributes":{"ID":162253,"DIS_CODE":0,"TOWNNAME":"西港區","LI":"竹林里","LIN":"18鄰","STREET":" ","SECT":" ","MAREA":"大竹林","LANE":" ","ALLEY":" ","HOUSE_NO":"１５３號之２","E_COORD97":166919.70000000001,"N_COORD97":2558101.6000000001,"ADDRESS":"大竹林１５３號之２","OBJECTID":162252},"geometry":{"x":166919.70000000019,"y":2558101.6000000015}},{"attributes":{"ID":162254,"DIS_CODE":0,"TOWNNAME":"西港區","LI":"竹林里","LIN":"18鄰","STREET":" ","SECT":" ","MAREA":"大竹林","LANE":" ","ALLEY":" ","HOUSE_NO":"１５３號","E_COORD97":166886.35000000001,"N_COORD97":2558075.3399999999,"ADDRESS":"大竹林１５３號","OBJECTID":162253},"geometry":{"x":166886.34999999963,"y":2558075.3400000017}},{"attributes":{"ID":162255,"DIS_CODE":0,"TOWNNAME":"安南區","LI":"海佃里","LIN":"23鄰","STREET":"國安街","SECT":" ","MAREA":" ","LANE":"１５６巷","ALLEY":"１０２弄","HOUSE_NO":"１２號","E_COORD97":166752.45000000001,"N_COORD97":2547246.3300000001,"ADDRESS":"國安街１５６巷１０２弄１２號","OBJECTID":162254},"geometry":{"x":166752.44999999925,"y":2547246.3300000038}},{"attributes":{"ID":162256,"DIS_CODE":0,"TOWNNAME":"安南區","LI":"安富里","LIN":"25鄰","STREET":"郡安路","SECT":"五段","MAREA":" ","LANE":"１６４巷","ALLEY":"３弄","HOUSE_NO":"２號","E_COORD97":167656.91,"N_COORD97":2547675.3999999999,"ADDRESS":"郡安路五段１６４巷３弄２號","OBJECTID":162255},"geometry":{"x":167656.91000000108,"y":2547675.4000000004}},{"attributes":{"ID":162257,"DIS_CODE":0,"TOWNNAME":"西港區","LI":"竹林里","LIN":"18鄰","STREET":" ","SECT":" ","MAREA":"大竹林","LANE":" ","ALLEY":" ","HOUSE_NO":"１５４號","E_COORD97":166894.32999999999,"N_COORD97":2558054.4199999999,"ADDRESS":"大竹林１５４號","OBJECTID":162256},"geometry":{"x":166894.33000000101,"y":2558054.4200000018}},{"attributes":{"ID":162258,"DIS_CODE":0,"TOWNNAME":"安南區","LI":"安富里","LIN":"25鄰","STREET":"郡安路","SECT":"五段","MAREA":" ","LANE":"１６４巷","ALLEY":"３弄","HOUSE_NO":"２６號","E_COORD97":167724.81,"N_COORD97":2547690.98,"ADDRESS":"郡安路五段１６４巷３弄２６號","OBJECTID":162257},"geometry":{"x":167724.81000000052,"y":2547690.9800000023}},{"attributes":{"ID":162259,"DIS_CODE":0,"TOWNNAME":"安南區","LI":"安慶里","LIN":"31鄰","STREET":"安和路","SECT":"一段","MAREA":" ","LANE":"４５９巷","ALLEY":"３６弄","HOUSE_NO":"４７號之８","E_COORD97":169187.23999999999,"N_COORD97":2548657.0499999998,"ADDRESS":"安和路一段４５９巷３６弄４７號之８","OBJECTID":162258},"geometry":{"x":169187.24000000115,"y":2548657.0500000026}},{"attributes":{"ID":162260,"DIS_CODE":0,"TOWNNAME":"西港區","LI":"竹林里","LIN":"18鄰","STREET":" ","SECT":" ","MAREA":"大竹林","LANE":" ","ALLEY":" ","HOUSE_NO":"１５５號","E_COORD97":166881.67999999999,"N_COORD97":2558029.4399999999,"ADDRESS":"大竹林１５５號","OBJECTID":162259},"geometry":{"x":166881.68000000063,"y":2558029.4399999995}},{"attributes":{"ID":162261,"DIS_CODE":0,"TOWNNAME":"西港區","LI":"竹林里","LIN":"18鄰","STREET":" ","SECT":" ","MAREA":"大竹林","LANE":" ","ALLEY":" ","HOUSE_NO":"１５７號","E_COORD97":166908.88,"N_COORD97":2558010.5800000001,"ADDRESS":"大竹林１５７號","OBJECTID":162260},"geometry":{"x":166908.88000000082,"y":2558010.5800000019}},{"attributes":{"ID":162262,"DIS_CODE":0,"TOWNNAME":"西港區","LI":"竹林里","LIN":"18鄰","STREET":" ","SECT":" ","MAREA":"大竹林","LANE":" ","ALLEY":" ","HOUSE_NO":"１５８號","E_COORD97":166942.47,"N_COORD97":2557995.52,"ADDRESS":"大竹林１５８號","OBJECTID":162261},"geometry":{"x":166942.47000000067,"y":2557995.5200000033}},{"attributes":{"ID":162263,"DIS_CODE":0,"TOWNNAME":"西港區","LI":"竹林里","LIN":"18鄰","STREET":" ","SECT":" ","MAREA":"大竹林","LANE":" ","ALLEY":" ","HOUSE_NO":"１５９號","E_COORD97":166908.39999999999,"N_COORD97":2557998.6000000001,"ADDRESS":"大竹林１５９號","OBJECTID":162262},"geometry":{"x":166908.40000000037,"y":2557998.6000000015}},{"attributes":{"ID":162264,"DIS_CODE":0,"TOWNNAME":"西港區","LI":"竹林里","LIN":"18鄰","STREET":" ","SECT":" ","MAREA":"大竹林","LANE":" ","ALLEY":" ","HOUSE_NO":"１６０號之１","E_COORD97":166870.07000000001,"N_COORD97":2558005.96,"ADDRESS":"大竹林１６０號之１","OBJECTID":162263},"geometry":{"x":166870.0700000003,"y":2558005.9600000009}},{"attributes":{"ID":162265,"DIS_CODE":0,"TOWNNAME":"永康區","LI":"西橋里","LIN":"12鄰","STREET":"大橋一街","SECT":" ","MAREA":" ","LANE":" ","ALLEY":" ","HOUSE_NO":"４２號三樓之１","E_COORD97":170623.32000000001,"N_COORD97":2546226.7999999998,"ADDRESS":"大橋一街４２號三樓之１","OBJECTID":162264},"geometry":{"x":170623.3200000003,"y":2546226.8000000045}},{"attributes":{"ID":162266,"DIS_CODE":0,"TOWNNAME":"西港區","LI":"竹林里","LIN":"18鄰","STREET":" ","SECT":" ","MAREA":"大竹林","LANE":" ","ALLEY":" ","HOUSE_NO":"１６０號之２","E_COORD97":166868.32000000001,"N_COORD97":2558001.5899999999,"ADDRESS":"大竹林１６０號之２","OBJECTID":162265},"geometry":{"x":166868.3200000003,"y":2558001.5899999999}},{"attributes":{"ID":162267,"DIS_CODE":0,"TOWNNAME":"西港區","LI":"竹林里","LIN":"18鄰","STREET":" ","SECT":" ","MAREA":"大竹林","LANE":" ","ALLEY":" ","HOUSE_NO":"１６０號之３","E_COORD97":166867.88,"N_COORD97":2557996.8100000001,"ADDRESS":"大竹林１６０號之３","OBJECTID":162266},"geometry":{"x":166867.87999999989,"y":2557996.8100000005}},{"attributes":{"ID":162268,"DIS_CODE":0,"TOWNNAME":"安南區","LI":"安慶里","LIN":"31鄰","STREET":"安和路","SECT":"一段","MAREA":" ","LANE":"４５９巷","ALLEY":"３６弄","HOUSE_NO":"４９號","E_COORD97":169226.45000000001,"N_COORD97":2548658.1400000001,"ADDRESS":"安和路一段４５９巷３６弄４９號","OBJECTID":162267},"geometry":{"x":169226.45000000112,"y":2548658.1400000006}},{"attributes":{"ID":162269,"DIS_CODE":0,"TOWNNAME":"西港區","LI":"竹林里","LIN":"18鄰","STREET":" ","SECT":" ","MAREA":"大竹林","LANE":" ","ALLEY":" ","HOUSE_NO":"１６０號之４","E_COORD97":166867.39999999999,"N_COORD97":2557992.1899999999,"ADDRESS":"大竹林１６０號之４","OBJECTID":162268},"geometry":{"x":166867.4000000013,"y":2557992.1900000013}},{"attributes":{"ID":162270,"DIS_CODE":0,"TOWNNAME":"西港區","LI":"竹林里","LIN":"18鄰","STREET":" ","SECT":" ","MAREA":"大竹林","LANE":" ","ALLEY":" ","HOUSE_NO":"１６０號之５","E_COORD97":166867.17999999999,"N_COORD97":2557987.3799999999,"ADDRESS":"大竹林１６０號之５","OBJECTID":162269},"geometry":{"x":166867.1799999997,"y":2557987.379999999}},{"attributes":{"ID":162271,"DIS_CODE":0,"TOWNNAME":"西港區","LI":"竹林里","LIN":"18鄰","STREET":" ","SECT":" ","MAREA":"大竹林","LANE":" ","ALLEY":" ","HOUSE_NO":"１６０號之６","E_COORD97":166890.45000000001,"N_COORD97":2558005.75,"ADDRESS":"大竹林１６０號之６","OBJECTID":162270},"geometry":{"x":166890.45000000112,"y":2558005.7500000019}},{"attributes":{"ID":162272,"DIS_CODE":0,"TOWNNAME":"西港區","LI":"竹林里","LIN":"18鄰","STREET":" ","SECT":" ","MAREA":"大竹林","LANE":" ","ALLEY":" ","HOUSE_NO":"１６０號之７","E_COORD97":166889.85000000001,"N_COORD97":2557999.8300000001,"ADDRESS":"大竹林１６０號之７","OBJECTID":162271},"geometry":{"x":166889.8499999987,"y":2557999.8300000001}},{"attributes":{"ID":162273,"DIS_CODE":0,"TOWNNAME":"永康區","LI":"復華里","LIN":"21鄰","STREET":"國華街","SECT":" ","MAREA":" ","LANE":"１３２巷","ALLEY":"１２弄","HOUSE_NO":"１１號","E_COORD97":172885.74306499999,"N_COORD97":2546402.0028200001,"ADDRESS":"國華街１３２巷１２弄１１號","OBJECTID":162272},"geometry":{"x":172885.74306500051,"y":2546402.0028189998}},{"attributes":{"ID":162274,"DIS_CODE":0,"TOWNNAME":"西港區","LI":"竹林里","LIN":"18鄰","STREET":" ","SECT":" ","MAREA":"大竹林","LANE":" ","ALLEY":" ","HOUSE_NO":"１６０號之８","E_COORD97":166889.98999999999,"N_COORD97":2557992.7400000002,"ADDRESS":"大竹林１６０號之８","OBJECTID":162273},"geometry":{"x":166889.99000000115,"y":2557992.7400000021}},{"attributes":{"ID":162275,"DIS_CODE":0,"TOWNNAME":"西港區","LI":"竹林里","LIN":"18鄰","STREET":" ","SECT":" ","MAREA":"大竹林","LANE":" ","ALLEY":" ","HOUSE_NO":"１６０號之９","E_COORD97":166889.88,"N_COORD97":2557985.6299999999,"ADDRESS":"大竹林１６０號之９","OBJECTID":162274},"geometry":{"x":166889.87999999989,"y":2557985.629999999}},{"attributes":{"ID":162276,"DIS_CODE":0,"TOWNNAME":"西港區","LI":"竹林里","LIN":"18鄰","STREET":" ","SECT":" ","MAREA":"大竹林","LANE":" ","ALLEY":" ","HOUSE_NO":"１６０號","E_COORD97":166872.25,"N_COORD97":2558010.2200000002,"ADDRESS":"大竹林１６０號","OBJECTID":162275},"geometry":{"x":166872.25,"y":2558010.2200000025}},{"attributes":{"ID":162277,"DIS_CODE":0,"TOWNNAME":"西港區","LI":"竹林里","LIN":"18鄰","STREET":" ","SECT":" ","MAREA":"大竹林","LANE":" ","ALLEY":" ","HOUSE_NO":"１６１號之１","E_COORD97":166883.63,"N_COORD97":2557923.4700000002,"ADDRESS":"大竹林１６１號之１","OBJECTID":162276},"geometry":{"x":166883.63000000082,"y":2557923.4700000025}},{"attributes":{"ID":162278,"DIS_CODE":0,"TOWNNAME":"西港區","LI":"竹林里","LIN":"18鄰","STREET":" ","SECT":" ","MAREA":"大竹林","LANE":" ","ALLEY":" ","HOUSE_NO":"１６１號之２","E_COORD97":166882.73000000001,"N_COORD97":2557936.2999999998,"ADDRESS":"大竹林１６１號之２","OBJECTID":162277},"geometry":{"x":166882.73000000045,"y":2557936.3000000007}},{"attributes":{"ID":162279,"DIS_CODE":0,"TOWNNAME":"西港區","LI":"竹林里","LIN":"18鄰","STREET":" ","SECT":" ","MAREA":"大竹林","LANE":" ","ALLEY":" ","HOUSE_NO":"１６１號之３","E_COORD97":166900.67000000001,"N_COORD97":2557910.6200000001,"ADDRESS":"大竹林１６１號之３","OBJECTID":162278},"geometry":{"x":166900.67000000086,"y":2557910.620000001}},{"attributes":{"ID":162280,"DIS_CODE":0,"TOWNNAME":"西港區","LI":"竹林里","LIN":"18鄰","STREET":" ","SECT":" ","MAREA":"大竹林","LANE":" ","ALLEY":" ","HOUSE_NO":"１６１號之４","E_COORD97":166915.94,"N_COORD97":2557927.1099999999,"ADDRESS":"大竹林１６１號之４","OBJECTID":162279},"geometry":{"x":166915.94000000134,"y":2557927.1100000013}},{"attributes":{"ID":162281,"DIS_CODE":0,"TOWNNAME":"西港區","LI":"竹林里","LIN":"18鄰","STREET":" ","SECT":" ","MAREA":"大竹林","LANE":" ","ALLEY":" ","HOUSE_NO":"１６１號之５","E_COORD97":166860.45999999999,"N_COORD97":2557929.48,"ADDRESS":"大竹林１６１號之５","OBJECTID":162280},"geometry":{"x":166860.45999999996,"y":2557929.4800000023}},{"attributes":{"ID":162282,"DIS_CODE":0,"TOWNNAME":"安南區","LI":"安慶里","LIN":"31鄰","STREET":"安和路","SECT":"一段","MAREA":" ","LANE":"４５９巷","ALLEY":"３６弄","HOUSE_NO":"５３號","E_COORD97":169235.57999999999,"N_COORD97":2548653.7999999998,"ADDRESS":"安和路一段４５９巷３６弄５３號","OBJECTID":162281},"geometry":{"x":169235.58000000101,"y":2548653.8000000007}},{"attributes":{"ID":162283,"DIS_CODE":0,"TOWNNAME":"西港區","LI":"竹林里","LIN":"18鄰","STREET":" ","SECT":" ","MAREA":"大竹林","LANE":" ","ALLEY":" ","HOUSE_NO":"１６１號","E_COORD97":166891.34,"N_COORD97":2557971.71,"ADDRESS":"大竹林１６１號","OBJECTID":162282},"geometry":{"x":166891.33999999985,"y":2557971.7100000046}},{"attributes":{"ID":162284,"DIS_CODE":0,"TOWNNAME":"西港區","LI":"竹林里","LIN":"18鄰","STREET":" ","SECT":" ","MAREA":"大竹林","LANE":" ","ALLEY":" ","HOUSE_NO":"１６２號之１１","E_COORD97":166862.76999999999,"N_COORD97":2557885.4100000001,"ADDRESS":"大竹林１６２號之１１","OBJECTID":162283},"geometry":{"x":166862.76999999955,"y":2557885.410000002}},{"attributes":{"ID":162285,"DIS_CODE":0,"TOWNNAME":"西港區","LI":"竹林里","LIN":"18鄰","STREET":" ","SECT":" ","MAREA":"大竹林","LANE":" ","ALLEY":" ","HOUSE_NO":"１６２號之１２","E_COORD97":166863.98000000001,"N_COORD97":2557877.1400000001,"ADDRESS":"大竹林１６２號之１２","OBJECTID":162284},"geometry":{"x":166863.98000000045,"y":2557877.1400000043}},{"attributes":{"ID":162286,"DIS_CODE":0,"TOWNNAME":"西港區","LI":"竹林里","LIN":"18鄰","STREET":" ","SECT":" ","MAREA":"大竹林","LANE":" ","ALLEY":" ","HOUSE_NO":"１６２號之１３","E_COORD97":166868.60000000001,"N_COORD97":2557864.54,"ADDRESS":"大竹林１６２號之１３","OBJECTID":162285},"geometry":{"x":166868.60000000056,"y":2557864.5399999991}},{"attributes":{"ID":162287,"DIS_CODE":0,"TOWNNAME":"西港區","LI":"竹林里","LIN":"18鄰","STREET":" ","SECT":" ","MAREA":"大竹林","LANE":" ","ALLEY":" ","HOUSE_NO":"１６２號之１４","E_COORD97":166869.89000000001,"N_COORD97":2557856.8399999999,"ADDRESS":"大竹林１６２號之１４","OBJECTID":162286},"geometry":{"x":166869.8900000006,"y":2557856.8399999999}},{"attributes":{"ID":162288,"DIS_CODE":0,"TOWNNAME":"西港區","LI":"竹林里","LIN":"18鄰","STREET":" ","SECT":" ","MAREA":"大竹林","LANE":" ","ALLEY":" ","HOUSE_NO":"１６２號之１５","E_COORD97":166869.35999999999,"N_COORD97":2557844.5600000001,"ADDRESS":"大竹林１６２號之１５","OBJECTID":162287},"geometry":{"x":166869.36000000127,"y":2557844.5600000024}},{"attributes":{"ID":162289,"DIS_CODE":0,"TOWNNAME":"西港區","LI":"竹林里","LIN":"18鄰","STREET":" ","SECT":" ","MAREA":"大竹林","LANE":" ","ALLEY":" ","HOUSE_NO":"１６２號之１６","E_COORD97":166870.01999999999,"N_COORD97":2557839.46,"ADDRESS":"大竹林１６２號之１６","OBJECTID":162288},"geometry":{"x":166870.01999999862,"y":2557839.4600000028}},{"attributes":{"ID":162290,"DIS_CODE":0,"TOWNNAME":"西港區","LI":"竹林里","LIN":"18鄰","STREET":" ","SECT":" ","MAREA":"大竹林","LANE":" ","ALLEY":" ","HOUSE_NO":"１６２號之１７","E_COORD97":166870.98999999999,"N_COORD97":2557834.3100000001,"ADDRESS":"大竹林１６２號之１７","OBJECTID":162289},"geometry":{"x":166870.99000000209,"y":2557834.3100000005}},{"attributes":{"ID":162291,"DIS_CODE":0,"TOWNNAME":"西港區","LI":"竹林里","LIN":"18鄰","STREET":" ","SECT":" ","MAREA":"大竹林","LANE":" ","ALLEY":" ","HOUSE_NO":"１６２號之３","E_COORD97":166879.48999999999,"N_COORD97":2557829.3100000001,"ADDRESS":"大竹林１６２號之３","OBJECTID":162290},"geometry":{"x":166879.49000000209,"y":2557829.3100000024}},{"attributes":{"ID":162292,"DIS_CODE":0,"TOWNNAME":"西港區","LI":"竹林里","LIN":"18鄰","STREET":" ","SECT":" ","MAREA":"大竹林","LANE":" ","ALLEY":" ","HOUSE_NO":"１６２號","E_COORD97":166926.07000000001,"N_COORD97":2557832.29,"ADDRESS":"大竹林１６２號","OBJECTID":162291},"geometry":{"x":166926.0700000003,"y":2557832.2899999991}},{"attributes":{"ID":162293,"DIS_CODE":0,"TOWNNAME":"西港區","LI":"竹林里","LIN":"18鄰","STREET":" ","SECT":" ","MAREA":"大竹林","LANE":" ","ALLEY":" ","HOUSE_NO":"１６３號之１","E_COORD97":166890.26999999999,"N_COORD97":2557804.1400000001,"ADDRESS":"大竹林１６３號之１","OBJECTID":162292},"geometry":{"x":166890.26999999955,"y":2557804.1400000006}},{"attributes":{"ID":162294,"DIS_CODE":0,"TOWNNAME":"中西區","LI":"開山里","LIN":"12鄰","STREET":"大同路","SECT":"一段","MAREA":" ","LANE":" ","ALLEY":" ","HOUSE_NO":"２４號七樓之６","E_COORD97":169134.79999999999,"N_COORD97":2543163.1000000001,"ADDRESS":"大同路一段２４號七樓之６","OBJECTID":162293},"geometry":{"x":169134.79999999981,"y":2543163.1000000015}},{"attributes":{"ID":162295,"DIS_CODE":0,"TOWNNAME":"東區","LI":"後甲里","LIN":"26鄰","STREET":"裕農路","SECT":" ","MAREA":" ","LANE":"５７１巷","ALLEY":"２弄","HOUSE_NO":"７號之３","E_COORD97":171475.62,"N_COORD97":2543291.54,"ADDRESS":"裕農路５７１巷２弄７號之３","OBJECTID":162294},"geometry":{"x":171475.62000000011,"y":2543291.540000001}},{"attributes":{"ID":162296,"DIS_CODE":0,"TOWNNAME":"東區","LI":"關聖里","LIN":"4鄰","STREET":"裕農路","SECT":" ","MAREA":" ","LANE":"６６８巷","ALLEY":"５１弄","HOUSE_NO":"１０號","E_COORD97":171798.72,"N_COORD97":2542995.7799999998,"ADDRESS":"裕農路６６８巷５１弄１０號","OBJECTID":162295},"geometry":{"x":171798.72000000067,"y":2542995.7800000012}},{"attributes":{"ID":162297,"DIS_CODE":0,"TOWNNAME":"東區","LI":"關聖里","LIN":"4鄰","STREET":"裕農路","SECT":" ","MAREA":" ","LANE":"６６８巷","ALLEY":"５１弄","HOUSE_NO":"１０號之１","E_COORD97":171804.04999999999,"N_COORD97":2542981.3799999999,"ADDRESS":"裕農路６６８巷５１弄１０號之１","OBJECTID":162296},"geometry":{"x":171804.04999999981,"y":2542981.3800000008}},{"attributes":{"ID":162298,"DIS_CODE":0,"TOWNNAME":"東區","LI":"關聖里","LIN":"4鄰","STREET":"裕農路","SECT":" ","MAREA":" ","LANE":"６６８巷","ALLEY":"５１弄","HOUSE_NO":"１０號之２","E_COORD97":171804.64000000001,"N_COORD97":2542977.4300000002,"ADDRESS":"裕農路６６８巷５１弄１０號之２","OBJECTID":162297},"geometry":{"x":171804.6400000006,"y":2542977.4300000016}},{"attributes":{"ID":162299,"DIS_CODE":0,"TOWNNAME":"東區","LI":"關聖里","LIN":"4鄰","STREET":"裕農路","SECT":" ","MAREA":" ","LANE":"６６８巷","ALLEY":"５１弄","HOUSE_NO":"１０號之３","E_COORD97":171805.04000000001,"N_COORD97":2542972.5,"ADDRESS":"裕農路６６８巷５１弄１０號之３","OBJECTID":162298},"geometry":{"x":171805.04000000004,"y":2542972.5}},{"attributes":{"ID":162300,"DIS_CODE":0,"TOWNNAME":"中西區","LI":"郡王里","LIN":"4鄰","STREET":"開山路","SECT":" ","MAREA":" ","LANE":" ","ALLEY":" ","HOUSE_NO":"１９６號","E_COORD97":168942.31,"N_COORD97":2543007.4100000001,"ADDRESS":"開山路１９６號","OBJECTID":162299},"geometry":{"x":168942.30999999959,"y":2543007.4100000001}},{"attributes":{"ID":162301,"DIS_CODE":0,"TOWNNAME":"東區","LI":"關聖里","LIN":"4鄰","STREET":"裕農路","SECT":" ","MAREA":" ","LANE":"６６８巷","ALLEY":"５１弄","HOUSE_NO":"１０號之４","E_COORD97":171805.42999999999,"N_COORD97":2542968.5499999998,"ADDRESS":"裕農路６６８巷５１弄１０號之４","OBJECTID":162300},"geometry":{"x":171805.4299999997,"y":2542968.5500000026}},{"attributes":{"ID":162302,"DIS_CODE":0,"TOWNNAME":"東區","LI":"關聖里","LIN":"4鄰","STREET":"裕農路","SECT":" ","MAREA":" ","LANE":"６６８巷","ALLEY":"５１弄","HOUSE_NO":"１０號之５","E_COORD97":171805.42999999999,"N_COORD97":2542964.8100000001,"ADDRESS":"裕農路６６８巷５１弄１０號之５","OBJECTID":162301},"geometry":{"x":171805.4299999997,"y":2542964.8100000042}},{"attributes":{"ID":162303,"DIS_CODE":0,"TOWNNAME":"東區","LI":"關聖里","LIN":"4鄰","STREET":"裕農路","SECT":" ","MAREA":" ","LANE":"６６８巷","ALLEY":"５１弄","HOUSE_NO":"１０號之６","E_COORD97":171805.04000000001,"N_COORD97":2542960.6600000001,"ADDRESS":"裕農路６６８巷５１弄１０號之６","OBJECTID":162302},"geometry":{"x":171805.04000000004,"y":2542960.6600000001}},{"attributes":{"ID":162304,"DIS_CODE":0,"TOWNNAME":"東區","LI":"關聖里","LIN":"4鄰","STREET":"裕農路","SECT":" ","MAREA":" ","LANE":"６６８巷","ALLEY":"５１弄","HOUSE_NO":"１２號","E_COORD97":171802.07999999999,"N_COORD97":2542997.1600000001,"ADDRESS":"裕農路６６８巷５１弄１２號","OBJECTID":162303},"geometry":{"x":171802.08000000101,"y":2542997.160000002}},{"attributes":{"ID":162305,"DIS_CODE":0,"TOWNNAME":"永康區","LI":"復華里","LIN":"21鄰","STREET":"國華街","SECT":" ","MAREA":" ","LANE":"１３２巷","ALLEY":"１２弄","HOUSE_NO":"１５號","E_COORD97":172894.57406099999,"N_COORD97":2546402.4331899998,"ADDRESS":"國華街１３２巷１２弄１５號","OBJECTID":162304},"geometry":{"x":172894.57406100165,"y":2546402.4331909996}},{"attributes":{"ID":162306,"DIS_CODE":0,"TOWNNAME":"東區","LI":"關聖里","LIN":"4鄰","STREET":"裕農路","SECT":" ","MAREA":" ","LANE":"６６８巷","ALLEY":"５１弄","HOUSE_NO":"１４號","E_COORD97":171806.03,"N_COORD97":2542996.1699999999,"ADDRESS":"裕農路６６８巷５１弄１４號","OBJECTID":162305},"geometry":{"x":171806.03000000119,"y":2542996.1700000018}},{"attributes":{"ID":162307,"DIS_CODE":0,"TOWNNAME":"東區","LI":"關聖里","LIN":"4鄰","STREET":"裕農路","SECT":" ","MAREA":" ","LANE":"６６８巷","ALLEY":"５１弄","HOUSE_NO":"１８號","E_COORD97":171814.32000000001,"N_COORD97":2542996.77,"ADDRESS":"裕農路６６８巷５１弄１８號","OBJECTID":162306},"geometry":{"x":171814.32000000123,"y":2542996.7699999996}},{"attributes":{"ID":162308,"DIS_CODE":0,"TOWNNAME":"東區","LI":"關聖里","LIN":"4鄰","STREET":"裕農路","SECT":" ","MAREA":" ","LANE":"６６８巷","ALLEY":"５１弄","HOUSE_NO":"８號之２","E_COORD97":171780.35999999999,"N_COORD97":2542973.0899999999,"ADDRESS":"裕農路６６８巷５１弄８號之２","OBJECTID":162307},"geometry":{"x":171780.36000000127,"y":2542973.0900000017}},{"attributes":{"ID":162309,"DIS_CODE":0,"TOWNNAME":"東區","LI":"關聖里","LIN":"4鄰","STREET":"裕農路","SECT":" ","MAREA":" ","LANE":"６６８巷","ALLEY":"５１弄","HOUSE_NO":"８號之３","E_COORD97":171781.35000000001,"N_COORD97":2542968.1600000001,"ADDRESS":"裕農路６６８巷５１弄８號之３","OBJECTID":162308},"geometry":{"x":171781.35000000056,"y":2542968.1600000001}},{"attributes":{"ID":162310,"DIS_CODE":0,"TOWNNAME":"東區","LI":"關聖里","LIN":"4鄰","STREET":"裕農路","SECT":" ","MAREA":" ","LANE":"６６８巷","ALLEY":"５１弄","HOUSE_NO":"８號之４","E_COORD97":171781.94,"N_COORD97":2542963.6200000001,"ADDRESS":"裕農路６６８巷５１弄８號之４","OBJECTID":162309},"geometry":{"x":171781.94000000041,"y":2542963.6200000048}},{"attributes":{"ID":162311,"DIS_CODE":0,"TOWNNAME":"東區","LI":"關聖里","LIN":"4鄰","STREET":"裕農路","SECT":" ","MAREA":" ","LANE":"６６８巷","ALLEY":"５１弄","HOUSE_NO":"８號之５","E_COORD97":171782.32999999999,"N_COORD97":2542958.6899999999,"ADDRESS":"裕農路６６８巷５１弄８號之５","OBJECTID":162310},"geometry":{"x":171782.33000000007,"y":2542958.6900000013}},{"attributes":{"ID":162312,"DIS_CODE":0,"TOWNNAME":"東區","LI":"關聖里","LIN":"4鄰","STREET":"裕農路","SECT":" ","MAREA":" ","LANE":"６６８巷","ALLEY":"５１弄","HOUSE_NO":"８號之６","E_COORD97":171783.72,"N_COORD97":2542954.9399999999,"ADDRESS":"裕農路６６８巷５１弄８號之６","OBJECTID":162311},"geometry":{"x":171783.72000000067,"y":2542954.9399999995}},{"attributes":{"ID":162313,"DIS_CODE":0,"TOWNNAME":"東區","LI":"關聖里","LIN":"4鄰","STREET":"裕農路","SECT":" ","MAREA":" ","LANE":"６６８巷","ALLEY":"６７弄","HOUSE_NO":"１３號","E_COORD97":171808.98999999999,"N_COORD97":2542950.3999999999,"ADDRESS":"裕農路６６８巷６７弄１３號","OBJECTID":162312},"geometry":{"x":171808.98999999929,"y":2542950.3999999985}},{"attributes":{"ID":162314,"DIS_CODE":0,"TOWNNAME":"東區","LI":"關聖里","LIN":"4鄰","STREET":"裕農路","SECT":" ","MAREA":" ","LANE":"６６８巷","ALLEY":"６７弄","HOUSE_NO":"１５號","E_COORD97":171812.94,"N_COORD97":2542954.3500000001,"ADDRESS":"裕農路６６８巷６７弄１５號","OBJECTID":162313},"geometry":{"x":171812.93999999948,"y":2542954.3500000015}},{"attributes":{"ID":162315,"DIS_CODE":0,"TOWNNAME":"東區","LI":"關聖里","LIN":"4鄰","STREET":"裕農路","SECT":" ","MAREA":" ","LANE":"６６８巷","ALLEY":"６７弄","HOUSE_NO":"１號","E_COORD97":171777.98999999999,"N_COORD97":2542941.5299999998,"ADDRESS":"裕農路６６８巷６７弄１號","OBJECTID":162314},"geometry":{"x":171777.99000000022,"y":2542941.5299999993}},{"attributes":{"ID":162316,"DIS_CODE":0,"TOWNNAME":"東區","LI":"關聖里","LIN":"4鄰","STREET":"裕農路","SECT":" ","MAREA":" ","LANE":"６６８巷","ALLEY":"６７弄","HOUSE_NO":"３號","E_COORD97":171781.73999999999,"N_COORD97":2542943.8900000001,"ADDRESS":"裕農路６６８巷６７弄３號","OBJECTID":162315},"geometry":{"x":171781.74000000022,"y":2542943.8899999987}},{"attributes":{"ID":162317,"DIS_CODE":0,"TOWNNAME":"東區","LI":"關聖里","LIN":"4鄰","STREET":"裕農路","SECT":" ","MAREA":" ","LANE":"６６８巷","ALLEY":"６７弄","HOUSE_NO":"５號","E_COORD97":171786.28,"N_COORD97":2542941.1299999999,"ADDRESS":"裕農路６６８巷６７弄５號","OBJECTID":162316},"geometry":{"x":171786.28000000026,"y":2542941.1300000008}},{"attributes":{"ID":162318,"DIS_CODE":0,"TOWNNAME":"東區","LI":"關聖里","LIN":"4鄰","STREET":"裕農路","SECT":" ","MAREA":" ","LANE":"６６８巷","ALLEY":"６７弄","HOUSE_NO":"７號","E_COORD97":171790.63,"N_COORD97":2542944.8799999999,"ADDRESS":"裕農路６６８巷６７弄７號","OBJECTID":162317},"geometry":{"x":171790.62999999989,"y":2542944.879999999}},{"attributes":{"ID":162319,"DIS_CODE":0,"TOWNNAME":"東區","LI":"關聖里","LIN":"4鄰","STREET":"裕農路","SECT":" ","MAREA":" ","LANE":"６６８巷","ALLEY":"６７弄","HOUSE_NO":"９號","E_COORD97":171801.09,"N_COORD97":2542949.8100000001,"ADDRESS":"裕農路６６８巷６７弄９號","OBJECTID":162318},"geometry":{"x":171801.08999999985,"y":2542949.8100000005}},{"attributes":{"ID":162320,"DIS_CODE":0,"TOWNNAME":"東區","LI":"關聖里","LIN":"4鄰","STREET":"裕農路","SECT":" ","MAREA":" ","LANE":"６６８巷","ALLEY":"５１弄","HOUSE_NO":"８號之１","E_COORD97":171780.35999999999,"N_COORD97":2542977.4300000002,"ADDRESS":"裕農路６６８巷５１弄８號之１","OBJECTID":162319},"geometry":{"x":171780.36000000127,"y":2542977.4300000016}},{"attributes":{"ID":162321,"DIS_CODE":0,"TOWNNAME":"東區","LI":"關聖里","LIN":"4鄰","STREET":"裕農路","SECT":" ","MAREA":" ","LANE":"６６８巷","ALLEY":"６７弄","HOUSE_NO":"１１號","E_COORD97":171805.04000000001,"N_COORD97":2542952.3799999999,"ADDRESS":"裕農路６６８巷６７弄１１號","OBJECTID":162320},"geometry":{"x":171805.04000000004,"y":2542952.3799999971}},{"attributes":{"ID":162322,"DIS_CODE":0,"TOWNNAME":"東區","LI":"莊敬里","LIN":"2鄰","STREET":"小東路","SECT":" ","MAREA":" ","LANE":"２５４巷","ALLEY":"２弄","HOUSE_NO":"７號","E_COORD97":171108.64000000001,"N_COORD97":2544298.0899999999,"ADDRESS":"小東路２５４巷２弄７號","OBJECTID":162321},"geometry":{"x":171108.63999999966,"y":2544298.0900000036}},{"attributes":{"ID":162323,"DIS_CODE":0,"TOWNNAME":"東區","LI":"富強里","LIN":"25鄰","STREET":"裕農路","SECT":" ","MAREA":" ","LANE":"４４６巷","ALLEY":"５２弄","HOUSE_NO":"１２號","E_COORD97":171210.66,"N_COORD97":2543005.1200000001,"ADDRESS":"裕農路４４６巷５２弄１２號","OBJECTID":162322},"geometry":{"x":171210.66000000015,"y":2543005.1200000029}},{"attributes":{"ID":162324,"DIS_CODE":0,"TOWNNAME":"東區","LI":"富強里","LIN":"25鄰","STREET":"裕農路","SECT":" ","MAREA":" ","LANE":"４４６巷","ALLEY":"５２弄","HOUSE_NO":"１４號","E_COORD97":171205.29000000001,"N_COORD97":2543004.3300000001,"ADDRESS":"裕農路４４６巷５２弄１４號","OBJECTID":162323},"geometry":{"x":171205.29000000097,"y":2543004.3300000001}},{"attributes":{"ID":162325,"DIS_CODE":0,"TOWNNAME":"東區","LI":"富強里","LIN":"25鄰","STREET":"裕農路","SECT":" ","MAREA":" ","LANE":"４４６巷","ALLEY":"５２弄","HOUSE_NO":"１６號","E_COORD97":171199.12,"N_COORD97":2543004.1699999999,"ADDRESS":"裕農路４４６巷５２弄１６號","OBJECTID":162324},"geometry":{"x":171199.12000000011,"y":2543004.1700000018}},{"attributes":{"ID":162326,"DIS_CODE":0,"TOWNNAME":"東區","LI":"富強里","LIN":"25鄰","STREET":"裕農路","SECT":" ","MAREA":" ","LANE":"４４６巷","ALLEY":"５２弄","HOUSE_NO":"１８號","E_COORD97":171193.10999999999,"N_COORD97":2543004.3300000001,"ADDRESS":"裕農路４４６巷５２弄１８號","OBJECTID":162325},"geometry":{"x":171193.1100000022,"y":2543004.3300000001}},{"attributes":{"ID":162327,"DIS_CODE":0,"TOWNNAME":"東區","LI":"富強里","LIN":"25鄰","STREET":"裕農路","SECT":" ","MAREA":" ","LANE":"４４６巷","ALLEY":"５２弄","HOUSE_NO":"２號","E_COORD97":171239.17000000001,"N_COORD97":2543006.98,"ADDRESS":"裕農路４４６巷５２弄２號","OBJECTID":162326},"geometry":{"x":171239.16999999993,"y":2543006.9800000004}},{"attributes":{"ID":162328,"DIS_CODE":0,"TOWNNAME":"東區","LI":"富強里","LIN":"25鄰","STREET":"裕農路","SECT":" ","MAREA":" ","LANE":"４４６巷","ALLEY":"５２弄","HOUSE_NO":"４號","E_COORD97":171234.22,"N_COORD97":2543006.1800000002,"ADDRESS":"裕農路４４６巷５２弄４號","OBJECTID":162327},"geometry":{"x":171234.22000000067,"y":2543006.1800000016}},{"attributes":{"ID":162329,"DIS_CODE":0,"TOWNNAME":"東區","LI":"富強里","LIN":"25鄰","STREET":"裕農路","SECT":" ","MAREA":" ","LANE":"４４６巷","ALLEY":"５２弄","HOUSE_NO":"６號","E_COORD97":171229.10999999999,"N_COORD97":2543005.3900000001,"ADDRESS":"裕農路４４６巷５２弄６號","OBJECTID":162328},"geometry":{"x":171229.11000000127,"y":2543005.3900000043}},{"attributes":{"ID":162330,"DIS_CODE":0,"TOWNNAME":"東區","LI":"富強里","LIN":"25鄰","STREET":"裕農路","SECT":" ","MAREA":" ","LANE":"４４６巷","ALLEY":"５２弄","HOUSE_NO":"８號","E_COORD97":171223,"N_COORD97":2543005.6000000001,"ADDRESS":"裕農路４４６巷５２弄８號","OBJECTID":162329},"geometry":{"x":171223.00000000093,"y":2543005.5999999996}},{"attributes":{"ID":162331,"DIS_CODE":0,"TOWNNAME":"東區","LI":"崇誨里","LIN":"22鄰","STREET":"東寧路","SECT":" ","MAREA":" ","LANE":"２９６巷","ALLEY":"６弄","HOUSE_NO":"４號","E_COORD97":170710.70000000001,"N_COORD97":2543396.1099999999,"ADDRESS":"東寧路２９６巷６弄４號","OBJECTID":162330},"geometry":{"x":170710.70000000019,"y":2543396.1100000013}},{"attributes":{"ID":162332,"DIS_CODE":0,"TOWNNAME":"東區","LI":"泉南里","LIN":"32鄰","STREET":"府連路","SECT":" ","MAREA":" ","LANE":"３２６巷","ALLEY":"４弄","HOUSE_NO":"２號","E_COORD97":169557.73000000001,"N_COORD97":2542802.8100000001,"ADDRESS":"府連路３２６巷４弄２號","OBJECTID":162331},"geometry":{"x":169557.73000000045,"y":2542802.8100000024}},{"attributes":{"ID":162333,"DIS_CODE":0,"TOWNNAME":"東區","LI":"泉南里","LIN":"32鄰","STREET":"府連路","SECT":" ","MAREA":" ","LANE":"３２６巷","ALLEY":"４弄","HOUSE_NO":"８號","E_COORD97":169543.19,"N_COORD97":2542808.3300000001,"ADDRESS":"府連路３２６巷４弄８號","OBJECTID":162332},"geometry":{"x":169543.19000000227,"y":2542808.3300000038}},{"attributes":{"ID":162334,"DIS_CODE":0,"TOWNNAME":"東區","LI":"泉南里","LIN":"33鄰","STREET":"府連路","SECT":" ","MAREA":" ","LANE":"３２６巷","ALLEY":"１弄","HOUSE_NO":"５號","E_COORD97":169584.91,"N_COORD97":2542793.7999999998,"ADDRESS":"府連路３２６巷１弄５號","OBJECTID":162333},"geometry":{"x":169584.91000000015,"y":2542793.8000000026}},{"attributes":{"ID":162335,"DIS_CODE":0,"TOWNNAME":"東區","LI":"裕農里","LIN":"27鄰","STREET":"東寧路","SECT":" ","MAREA":" ","LANE":"４２８巷","ALLEY":"２弄","HOUSE_NO":"１０號","E_COORD97":170928.79000000001,"N_COORD97":2543319.3700000001,"ADDRESS":"東寧路４２８巷２弄１０號","OBJECTID":162334},"geometry":{"x":170928.7900000019,"y":2543319.370000001}},{"attributes":{"ID":162336,"DIS_CODE":0,"TOWNNAME":"東區","LI":"裕農里","LIN":"27鄰","STREET":"東寧路","SECT":" ","MAREA":" ","LANE":"４２８巷","ALLEY":"２弄","HOUSE_NO":"１２號","E_COORD97":170923.51000000001,"N_COORD97":2543321.3399999999,"ADDRESS":"東寧路４２８巷２弄１２號","OBJECTID":162335},"geometry":{"x":170923.50999999885,"y":2543321.3400000017}},{"attributes":{"ID":162337,"DIS_CODE":0,"TOWNNAME":"東區","LI":"裕農里","LIN":"27鄰","STREET":"東寧路","SECT":" ","MAREA":" ","LANE":"４２８巷","ALLEY":"２弄","HOUSE_NO":"１４號","E_COORD97":170918.88,"N_COORD97":2543323.6499999999,"ADDRESS":"東寧路４２８巷２弄１４號","OBJECTID":162336},"geometry":{"x":170918.87999999989,"y":2543323.6500000004}},{"attributes":{"ID":162338,"DIS_CODE":0,"TOWNNAME":"東區","LI":"泉南里","LIN":"33鄰","STREET":"府連路","SECT":" ","MAREA":" ","LANE":"３２６巷","ALLEY":"１弄","HOUSE_NO":"１１號","E_COORD97":169598.5,"N_COORD97":2542789.3799999999,"ADDRESS":"府連路３２６巷１弄１１號","OBJECTID":162337},"geometry":{"x":169598.50000000093,"y":2542789.379999999}},{"attributes":{"ID":162339,"DIS_CODE":0,"TOWNNAME":"東區","LI":"泉南里","LIN":"33鄰","STREET":"府連路","SECT":" ","MAREA":" ","LANE":"３２６巷","ALLEY":"１弄","HOUSE_NO":"１３號","E_COORD97":169602.76999999999,"N_COORD97":2542788.5899999999,"ADDRESS":"府連路３２６巷１弄１３號","OBJECTID":162338},"geometry":{"x":169602.77000000142,"y":2542788.5899999999}},{"attributes":{"ID":162340,"DIS_CODE":0,"TOWNNAME":"東區","LI":"泉南里","LIN":"33鄰","STREET":"府連路","SECT":" ","MAREA":" ","LANE":"３２６巷","ALLEY":"１弄","HOUSE_NO":"１５號","E_COORD97":169607.98000000001,"N_COORD97":2542785.4399999999,"ADDRESS":"府連路３２６巷１弄１５號","OBJECTID":162339},"geometry":{"x":169607.98000000138,"y":2542785.4399999995}},{"attributes":{"ID":162341,"DIS_CODE":0,"TOWNNAME":"西港區","LI":"竹林里","LIN":"18鄰","STREET":" ","SECT":" ","MAREA":"大竹林","LANE":" ","ALLEY":" ","HOUSE_NO":"１６３號之２","E_COORD97":166890.95999999999,"N_COORD97":2557799.2000000002,"ADDRESS":"大竹林１６３號之２","OBJECTID":162340},"geometry":{"x":166890.95999999996,"y":2557799.1999999993}},{"attributes":{"ID":162342,"DIS_CODE":0,"TOWNNAME":"東區","LI":"泉南里","LIN":"33鄰","STREET":"府連路","SECT":" ","MAREA":" ","LANE":"３２６巷","ALLEY":"１弄","HOUSE_NO":"１號","E_COORD97":169576.69,"N_COORD97":2542797.2799999998,"ADDRESS":"府連路３２６巷１弄１號","OBJECTID":162341},"geometry":{"x":169576.69000000041,"y":2542797.2799999993}},{"attributes":{"ID":162343,"DIS_CODE":0,"TOWNNAME":"東區","LI":"泉南里","LIN":"33鄰","STREET":"府連路","SECT":" ","MAREA":" ","LANE":"３２６巷","ALLEY":"１弄","HOUSE_NO":"３號","E_COORD97":169581.89999999999,"N_COORD97":2542795.7000000002,"ADDRESS":"府連路３２６巷１弄３號","OBJECTID":162342},"geometry":{"x":169581.90000000037,"y":2542795.7000000011}},{"attributes":{"ID":162344,"DIS_CODE":0,"TOWNNAME":"永康區","LI":"東橋里","LIN":"18鄰","STREET":"中山南路","SECT":" ","MAREA":" ","LANE":" ","ALLEY":" ","HOUSE_NO":"４０３號","E_COORD97":172782.91,"N_COORD97":2546816.8900000001,"ADDRESS":"中山南路４０３號","OBJECTID":162343},"geometry":{"x":172782.91000000108,"y":2546816.8900000025}},{"attributes":{"ID":162345,"DIS_CODE":0,"TOWNNAME":"西港區","LI":"竹林里","LIN":"18鄰","STREET":" ","SECT":" ","MAREA":"大竹林","LANE":" ","ALLEY":" ","HOUSE_NO":"１６３號之３","E_COORD97":166892.01000000001,"N_COORD97":2557794.96,"ADDRESS":"大竹林１６３號之３","OBJECTID":162344},"geometry":{"x":166892.00999999978,"y":2557794.9600000028}},{"attributes":{"ID":162346,"DIS_CODE":0,"TOWNNAME":"東區","LI":"泉南里","LIN":"33鄰","STREET":"府連路","SECT":" ","MAREA":" ","LANE":"３２６巷","ALLEY":"１弄","HOUSE_NO":"７號","E_COORD97":169588.85999999999,"N_COORD97":2542792.54,"ADDRESS":"府連路３２６巷１弄７號","OBJECTID":162345},"geometry":{"x":169588.86000000034,"y":2542792.5400000028}},{"attributes":{"ID":162347,"DIS_CODE":0,"TOWNNAME":"東區","LI":"泉南里","LIN":"33鄰","STREET":"府連路","SECT":" ","MAREA":" ","LANE":"３２６巷","ALLEY":"１弄","HOUSE_NO":"９號","E_COORD97":169594.39000000001,"N_COORD97":2542791.2799999998,"ADDRESS":"府連路３２６巷１弄９號","OBJECTID":162346},"geometry":{"x":169594.3900000006,"y":2542791.2800000012}},{"attributes":{"ID":162348,"DIS_CODE":0,"TOWNNAME":"東區","LI":"富強里","LIN":"25鄰","STREET":"裕農路","SECT":" ","MAREA":" ","LANE":"４４６巷","ALLEY":"５２弄","HOUSE_NO":"１３號","E_COORD97":171187.26000000001,"N_COORD97":2542979.6899999999,"ADDRESS":"裕農路４４６巷５２弄１３號","OBJECTID":162347},"geometry":{"x":171187.25999999978,"y":2542979.6900000013}},{"attributes":{"ID":162349,"DIS_CODE":0,"TOWNNAME":"東區","LI":"富強里","LIN":"25鄰","STREET":"裕農路","SECT":" ","MAREA":" ","LANE":"４４６巷","ALLEY":"５２弄","HOUSE_NO":"１９號","E_COORD97":171163.85999999999,"N_COORD97":2542982.2200000002,"ADDRESS":"裕農路４４６巷５２弄１９號","OBJECTID":162348},"geometry":{"x":171163.86000000034,"y":2542982.2200000007}},{"attributes":{"ID":162350,"DIS_CODE":0,"TOWNNAME":"東區","LI":"富強里","LIN":"25鄰","STREET":"裕農路","SECT":" ","MAREA":" ","LANE":"４４６巷","ALLEY":"５２弄","HOUSE_NO":"２５號","E_COORD97":171162.60000000001,"N_COORD97":2542970.3700000001,"ADDRESS":"裕農路４４６巷５２弄２５號","OBJECTID":162349},"geometry":{"x":171162.60000000056,"y":2542970.370000001}},{"attributes":{"ID":162351,"DIS_CODE":0,"TOWNNAME":"東區","LI":"富強里","LIN":"25鄰","STREET":"裕農路","SECT":" ","MAREA":" ","LANE":"４４６巷","ALLEY":"５２弄","HOUSE_NO":"３１號","E_COORD97":171132.51999999999,"N_COORD97":2542961.6000000001,"ADDRESS":"裕農路４４６巷５２弄３１號","OBJECTID":162350},"geometry":{"x":171132.52000000048,"y":2542961.5999999996}},{"attributes":{"ID":162352,"DIS_CODE":0,"TOWNNAME":"東區","LI":"富強里","LIN":"25鄰","STREET":"裕農路","SECT":" ","MAREA":" ","LANE":"４４６巷","ALLEY":"５２弄","HOUSE_NO":"４１號","E_COORD97":171133.73000000001,"N_COORD97":2542982.0699999998,"ADDRESS":"裕農路４４６巷５２弄４１號","OBJECTID":162351},"geometry":{"x":171133.73000000138,"y":2542982.0700000003}},{"attributes":{"ID":162353,"DIS_CODE":0,"TOWNNAME":"東區","LI":"富強里","LIN":"25鄰","STREET":"裕農路","SECT":" ","MAREA":" ","LANE":"４４６巷","ALLEY":"７０弄","HOUSE_NO":"６號","E_COORD97":171210.63,"N_COORD97":2542967.8599999999,"ADDRESS":"裕農路４４６巷７０弄６號","OBJECTID":162352},"geometry":{"x":171210.62999999989,"y":2542967.8600000013}},{"attributes":{"ID":162354,"DIS_CODE":0,"TOWNNAME":"西港區","LI":"竹林里","LIN":"18鄰","STREET":" ","SECT":" ","MAREA":"大竹林","LANE":" ","ALLEY":" ","HOUSE_NO":"１６３號之４","E_COORD97":166893.20000000001,"N_COORD97":2557789.4100000001,"ADDRESS":"大竹林１６３號之４","OBJECTID":162353},"geometry":{"x":166893.19999999925,"y":2557789.4100000001}},{"attributes":{"ID":162355,"DIS_CODE":0,"TOWNNAME":"西港區","LI":"竹林里","LIN":"18鄰","STREET":" ","SECT":" ","MAREA":"大竹林","LANE":" ","ALLEY":" ","HOUSE_NO":"１６３號","E_COORD97":166882.34,"N_COORD97":2557823.54,"ADDRESS":"大竹林１６３號","OBJECTID":162354},"geometry":{"x":166882.34000000078,"y":2557823.540000001}},{"attributes":{"ID":162356,"DIS_CODE":0,"TOWNNAME":"西港區","LI":"竹林里","LIN":"18鄰","STREET":" ","SECT":" ","MAREA":"大竹林","LANE":" ","ALLEY":" ","HOUSE_NO":"１６４號之１","E_COORD97":166918.66,"N_COORD97":2557784.2000000002,"ADDRESS":"大竹林１６４號之１","OBJECTID":162355},"geometry":{"x":166918.66000000015,"y":2557784.2000000011}},{"attributes":{"ID":162357,"DIS_CODE":0,"TOWNNAME":"學甲區","LI":"大灣里","LIN":"18鄰","STREET":" ","SECT":" ","MAREA":"大灣","LANE":" ","ALLEY":" ","HOUSE_NO":"１８４號","E_COORD97":166670.37,"N_COORD97":2567576.23,"ADDRESS":"大灣１８４號","OBJECTID":162356},"geometry":{"x":166670.37000000104,"y":2567576.2300000042}},{"attributes":{"ID":162358,"DIS_CODE":0,"TOWNNAME":"學甲區","LI":"新達里","LIN":"18鄰","STREET":" ","SECT":" ","MAREA":"山寮","LANE":" ","ALLEY":" ","HOUSE_NO":"２２號之１０","E_COORD97":167792.75,"N_COORD97":2570490.04,"ADDRESS":"山寮２２號之１０","OBJECTID":162357},"geometry":{"x":167792.75,"y":2570490.0399999991}},{"attributes":{"ID":162359,"DIS_CODE":0,"TOWNNAME":"學甲區","LI":"新達里","LIN":"18鄰","STREET":" ","SECT":" ","MAREA":"山寮","LANE":" ","ALLEY":" ","HOUSE_NO":"２２號之４","E_COORD97":167688.10000000001,"N_COORD97":2570409.8599999999,"ADDRESS":"山寮２２號之４","OBJECTID":162358},"geometry":{"x":167688.09999999963,"y":2570409.8600000013}},{"attributes":{"ID":162360,"DIS_CODE":0,"TOWNNAME":"學甲區","LI":"新達里","LIN":"18鄰","STREET":" ","SECT":" ","MAREA":"山寮","LANE":" ","ALLEY":" ","HOUSE_NO":"２２號之５","E_COORD97":167801.87,"N_COORD97":2570375.5299999998,"ADDRESS":"山寮２２號之５","OBJECTID":162359},"geometry":{"x":167801.87000000011,"y":2570375.5299999993}},{"attributes":{"ID":162361,"DIS_CODE":0,"TOWNNAME":"學甲區","LI":"新達里","LIN":"18鄰","STREET":" ","SECT":" ","MAREA":"山寮","LANE":" ","ALLEY":" ","HOUSE_NO":"２２號之８","E_COORD97":167818.13,"N_COORD97":2570478.46,"ADDRESS":"山寮２２號之８","OBJECTID":162360},"geometry":{"x":167818.13000000082,"y":2570478.4600000028}},{"attributes":{"ID":162362,"DIS_CODE":0,"TOWNNAME":"學甲區","LI":"新達里","LIN":"18鄰","STREET":" ","SECT":" ","MAREA":"山寮","LANE":" ","ALLEY":" ","HOUSE_NO":"２４號","E_COORD97":167794.56,"N_COORD97":2570542.8999999999,"ADDRESS":"山寮２４號","OBJECTID":162361},"geometry":{"x":167794.56000000052,"y":2570542.9000000022}},{"attributes":{"ID":162363,"DIS_CODE":0,"TOWNNAME":"學甲區","LI":"新達里","LIN":"18鄰","STREET":" ","SECT":" ","MAREA":"山寮","LANE":" ","ALLEY":" ","HOUSE_NO":"２６號之１","E_COORD97":167869.67999999999,"N_COORD97":2570515.3500000001,"ADDRESS":"山寮２６號之１","OBJECTID":162362},"geometry":{"x":167869.68000000063,"y":2570515.3500000015}},{"attributes":{"ID":162364,"DIS_CODE":0,"TOWNNAME":"學甲區","LI":"新達里","LIN":"18鄰","STREET":" ","SECT":" ","MAREA":"山寮","LANE":" ","ALLEY":" ","HOUSE_NO":"２６號之２","E_COORD97":167882.32999999999,"N_COORD97":2570476.0699999998,"ADDRESS":"山寮２６號之２","OBJECTID":162363},"geometry":{"x":167882.33000000194,"y":2570476.070000004}},{"attributes":{"ID":162365,"DIS_CODE":0,"TOWNNAME":"學甲區","LI":"新達里","LIN":"18鄰","STREET":" ","SECT":" ","MAREA":"山寮","LANE":" ","ALLEY":" ","HOUSE_NO":"２６號之６","E_COORD97":167822.10000000001,"N_COORD97":2570522.9100000001,"ADDRESS":"山寮２６號之６","OBJECTID":162364},"geometry":{"x":167822.09999999963,"y":2570522.9100000001}},{"attributes":{"ID":162366,"DIS_CODE":0,"TOWNNAME":"學甲區","LI":"新達里","LIN":"18鄰","STREET":" ","SECT":" ","MAREA":"山寮","LANE":" ","ALLEY":" ","HOUSE_NO":"２６號","E_COORD97":167841.54000000001,"N_COORD97":2570533.9100000001,"ADDRESS":"山寮２６號","OBJECTID":162365},"geometry":{"x":167841.54000000004,"y":2570533.9100000001}},{"attributes":{"ID":162367,"DIS_CODE":0,"TOWNNAME":"學甲區","LI":"新達里","LIN":"18鄰","STREET":" ","SECT":" ","MAREA":"山寮","LANE":" ","ALLEY":" ","HOUSE_NO":"２７號","E_COORD97":167864.34,"N_COORD97":2570539.9500000002,"ADDRESS":"山寮２７號","OBJECTID":162366},"geometry":{"x":167864.33999999985,"y":2570539.950000003}},{"attributes":{"ID":162368,"DIS_CODE":0,"TOWNNAME":"學甲區","LI":"新達里","LIN":"18鄰","STREET":" ","SECT":" ","MAREA":"山寮","LANE":" ","ALLEY":" ","HOUSE_NO":"２９號","E_COORD97":167816.17999999999,"N_COORD97":2570569.8399999999,"ADDRESS":"山寮２９號","OBJECTID":162367},"geometry":{"x":167816.1799999997,"y":2570569.8400000017}},{"attributes":{"ID":162369,"DIS_CODE":0,"TOWNNAME":"學甲區","LI":"中洲里","LIN":"18鄰","STREET":" ","SECT":" ","MAREA":"中洲","LANE":" ","ALLEY":" ","HOUSE_NO":"１８７號","E_COORD97":161650.59,"N_COORD97":2570193.23,"ADDRESS":"中洲１８７號","OBJECTID":162368},"geometry":{"x":161650.59000000171,"y":2570193.2299999986}},{"attributes":{"ID":162370,"DIS_CODE":0,"TOWNNAME":"學甲區","LI":"中洲里","LIN":"18鄰","STREET":" ","SECT":" ","MAREA":"中洲","LANE":" ","ALLEY":" ","HOUSE_NO":"１８８號","E_COORD97":161679.07000000001,"N_COORD97":2570133.8900000001,"ADDRESS":"中洲１８８號","OBJECTID":162369},"geometry":{"x":161679.0700000003,"y":2570133.8900000006}},{"attributes":{"ID":162371,"DIS_CODE":0,"TOWNNAME":"學甲區","LI":"中洲里","LIN":"18鄰","STREET":" ","SECT":" ","MAREA":"中洲","LANE":" ","ALLEY":" ","HOUSE_NO":"１８９號","E_COORD97":161706.95999999999,"N_COORD97":2570145.5600000001,"ADDRESS":"中洲１８９號","OBJECTID":162370},"geometry":{"x":161706.95999999996,"y":2570145.5600000024}},{"attributes":{"ID":162372,"DIS_CODE":0,"TOWNNAME":"東區","LI":"富強里","LIN":"7鄰","STREET":"中華東路","SECT":"二段","MAREA":" ","LANE":"４８巷","ALLEY":"２５弄","HOUSE_NO":"１５號","E_COORD97":171294.35999999999,"N_COORD97":2542951.5699999998,"ADDRESS":"中華東路二段４８巷２５弄１５號","OBJECTID":162371},"geometry":{"x":171294.36000000034,"y":2542951.5700000003}},{"attributes":{"ID":162373,"DIS_CODE":0,"TOWNNAME":"東區","LI":"虎尾里","LIN":"25鄰","STREET":"富農街","SECT":"一段","MAREA":" ","LANE":"１８８巷","ALLEY":"１０弄","HOUSE_NO":"１０號","E_COORD97":171565.87,"N_COORD97":2542441.8599999999,"ADDRESS":"富農街一段１８８巷１０弄１０號","OBJECTID":162372},"geometry":{"x":171565.87000000104,"y":2542441.8600000013}},{"attributes":{"ID":162374,"DIS_CODE":0,"TOWNNAME":"學甲區","LI":"中洲里","LIN":"18鄰","STREET":" ","SECT":" ","MAREA":"中洲","LANE":" ","ALLEY":" ","HOUSE_NO":"１９０號","E_COORD97":161684.31,"N_COORD97":2570162.1499999999,"ADDRESS":"中洲１９０號","OBJECTID":162373},"geometry":{"x":161684.31000000145,"y":2570162.1500000004}},{"attributes":{"ID":162375,"DIS_CODE":0,"TOWNNAME":"學甲區","LI":"中洲里","LIN":"18鄰","STREET":" ","SECT":" ","MAREA":"中洲","LANE":" ","ALLEY":" ","HOUSE_NO":"１９１號","E_COORD97":161730.37,"N_COORD97":2570179.54,"ADDRESS":"中洲１９１號","OBJECTID":162374},"geometry":{"x":161730.37000000104,"y":2570179.5399999972}},{"attributes":{"ID":162376,"DIS_CODE":0,"TOWNNAME":"學甲區","LI":"三慶里","LIN":"18鄰","STREET":" ","SECT":" ","MAREA":"紅茄","LANE":" ","ALLEY":" ","HOUSE_NO":"３９號","E_COORD97":167478.29000000001,"N_COORD97":2575786.5699999998,"ADDRESS":"紅茄３９號","OBJECTID":162375},"geometry":{"x":167478.29000000004,"y":2575786.5700000022}},{"attributes":{"ID":162377,"DIS_CODE":0,"TOWNNAME":"學甲區","LI":"三慶里","LIN":"18鄰","STREET":" ","SECT":" ","MAREA":"紅茄","LANE":" ","ALLEY":" ","HOUSE_NO":"４０號","E_COORD97":167266.95000000001,"N_COORD97":2576395.9500000002,"ADDRESS":"紅茄４０號","OBJECTID":162376},"geometry":{"x":167266.95000000112,"y":2576395.9500000011}},{"attributes":{"ID":162378,"DIS_CODE":0,"TOWNNAME":"學甲區","LI":"三慶里","LIN":"18鄰","STREET":" ","SECT":" ","MAREA":"紅茄","LANE":" ","ALLEY":" ","HOUSE_NO":"４２號之１","E_COORD97":167499.69,"N_COORD97":2575672.9300000002,"ADDRESS":"紅茄４２號之１","OBJECTID":162377},"geometry":{"x":167499.69000000041,"y":2575672.9299999997}},{"attributes":{"ID":162379,"DIS_CODE":0,"TOWNNAME":"學甲區","LI":"三慶里","LIN":"18鄰","STREET":" ","SECT":" ","MAREA":"紅茄","LANE":" ","ALLEY":" ","HOUSE_NO":"４２號之２","E_COORD97":167529.66,"N_COORD97":2575673.3100000001,"ADDRESS":"紅茄４２號之２","OBJECTID":162378},"geometry":{"x":167529.66000000108,"y":2575673.3100000024}},{"attributes":{"ID":162380,"DIS_CODE":0,"TOWNNAME":"學甲區","LI":"三慶里","LIN":"18鄰","STREET":" ","SECT":" ","MAREA":"紅茄","LANE":" ","ALLEY":" ","HOUSE_NO":"４３號","E_COORD97":167484.22,"N_COORD97":2575701.8799999999,"ADDRESS":"紅茄４３號","OBJECTID":162379},"geometry":{"x":167484.21999999881,"y":2575701.8800000008}},{"attributes":{"ID":162381,"DIS_CODE":0,"TOWNNAME":"學甲區","LI":"豐和里","LIN":"18鄰","STREET":" ","SECT":" ","MAREA":"美和","LANE":" ","ALLEY":" ","HOUSE_NO":"２０號","E_COORD97":167917.70000000001,"N_COORD97":2569265.2999999998,"ADDRESS":"美和２０號","OBJECTID":162380},"geometry":{"x":167917.70000000112,"y":2569265.3000000026}},{"attributes":{"ID":162382,"DIS_CODE":0,"TOWNNAME":"學甲區","LI":"豐和里","LIN":"18鄰","STREET":" ","SECT":" ","MAREA":"美和","LANE":" ","ALLEY":" ","HOUSE_NO":"２１號","E_COORD97":167921.67999999999,"N_COORD97":2569274.0499999998,"ADDRESS":"美和２１號","OBJECTID":162381},"geometry":{"x":167921.6799999997,"y":2569274.0500000026}},{"attributes":{"ID":162383,"DIS_CODE":0,"TOWNNAME":"學甲區","LI":"豐和里","LIN":"18鄰","STREET":" ","SECT":" ","MAREA":"美和","LANE":" ","ALLEY":" ","HOUSE_NO":"２２號","E_COORD97":167932.89000000001,"N_COORD97":2569284.79,"ADDRESS":"美和２２號","OBJECTID":162382},"geometry":{"x":167932.8900000006,"y":2569284.7899999991}},{"attributes":{"ID":162384,"DIS_CODE":0,"TOWNNAME":"學甲區","LI":"光華里","LIN":"18鄰","STREET":" ","SECT":" ","MAREA":"新筏子頭","LANE":" ","ALLEY":" ","HOUSE_NO":"１００號","E_COORD97":164936.85000000001,"N_COORD97":2571704.96,"ADDRESS":"新筏子頭１００號","OBJECTID":162383},"geometry":{"x":164936.84999999963,"y":2571704.9600000028}},{"attributes":{"ID":162385,"DIS_CODE":0,"TOWNNAME":"學甲區","LI":"光華里","LIN":"18鄰","STREET":" ","SECT":" ","MAREA":"新筏子頭","LANE":" ","ALLEY":" ","HOUSE_NO":"１０１號","E_COORD97":164958.76000000001,"N_COORD97":2571698.0299999998,"ADDRESS":"新筏子頭１０１號","OBJECTID":162384},"geometry":{"x":164958.76000000071,"y":2571698.0299999993}},{"attributes":{"ID":162386,"DIS_CODE":0,"TOWNNAME":"東區","LI":"虎尾里","LIN":"25鄰","STREET":"富農街","SECT":"一段","MAREA":" ","LANE":"１８８巷","ALLEY":"１０弄","HOUSE_NO":"１２號","E_COORD97":171566.87,"N_COORD97":2542437.2599999998,"ADDRESS":"富農街一段１８８巷１０弄１２號","OBJECTID":162385},"geometry":{"x":171566.87000000011,"y":2542437.2599999998}},{"attributes":{"ID":162387,"DIS_CODE":0,"TOWNNAME":"東區","LI":"虎尾里","LIN":"25鄰","STREET":"富農街","SECT":"一段","MAREA":" ","LANE":"１８８巷","ALLEY":"１０弄","HOUSE_NO":"１４號","E_COORD97":171558.67000000001,"N_COORD97":2542439.6600000001,"ADDRESS":"富農街一段１８８巷１０弄１４號","OBJECTID":162386},"geometry":{"x":171558.67000000086,"y":2542439.6600000001}},{"attributes":{"ID":162388,"DIS_CODE":0,"TOWNNAME":"東區","LI":"虎尾里","LIN":"25鄰","STREET":"富農街","SECT":"一段","MAREA":" ","LANE":"１８８巷","ALLEY":"１０弄","HOUSE_NO":"１６號","E_COORD97":171554.26999999999,"N_COORD97":2542439.8599999999,"ADDRESS":"富農街一段１８８巷１０弄１６號","OBJECTID":162387},"geometry":{"x":171554.27000000048,"y":2542439.8599999994}},{"attributes":{"ID":162389,"DIS_CODE":0,"TOWNNAME":"東區","LI":"虎尾里","LIN":"25鄰","STREET":"富農街","SECT":"一段","MAREA":" ","LANE":"１８８巷","ALLEY":"１０弄","HOUSE_NO":"２０號","E_COORD97":171546.06,"N_COORD97":2542438.8599999999,"ADDRESS":"富農街一段１８８巷１０弄２０號","OBJECTID":162388},"geometry":{"x":171546.05999999959,"y":2542438.8600000013}},{"attributes":{"ID":162390,"DIS_CODE":0,"TOWNNAME":"永康區","LI":"復華里","LIN":"26鄰","STREET":"復華八街","SECT":" ","MAREA":" ","LANE":"５１巷","ALLEY":"３７弄","HOUSE_NO":"１號","E_COORD97":172702.06,"N_COORD97":2546415.8599999999,"ADDRESS":"復華八街５１巷３７弄１號","OBJECTID":162389},"geometry":{"x":172702.06000000052,"y":2546415.8600000013}},{"attributes":{"ID":162391,"DIS_CODE":0,"TOWNNAME":"東區","LI":"虎尾里","LIN":"25鄰","STREET":"富農街","SECT":"一段","MAREA":" ","LANE":"１８８巷","ALLEY":"１０弄","HOUSE_NO":"２２號","E_COORD97":171548.66,"N_COORD97":2542414.8799999999,"ADDRESS":"富農街一段１８８巷１０弄２２號","OBJECTID":162390},"geometry":{"x":171548.66000000108,"y":2542414.8800000008}},{"attributes":{"ID":162392,"DIS_CODE":0,"TOWNNAME":"學甲區","LI":"光華里","LIN":"18鄰","STREET":" ","SECT":" ","MAREA":"新筏子頭","LANE":" ","ALLEY":" ","HOUSE_NO":"１０２號","E_COORD97":164961.10000000001,"N_COORD97":2571695.1099999999,"ADDRESS":"新筏子頭１０２號","OBJECTID":162391},"geometry":{"x":164961.10000000056,"y":2571695.1100000031}},{"attributes":{"ID":162393,"DIS_CODE":0,"TOWNNAME":"學甲區","LI":"光華里","LIN":"18鄰","STREET":" ","SECT":" ","MAREA":"新筏子頭","LANE":" ","ALLEY":" ","HOUSE_NO":"１０４號","E_COORD97":164970.98999999999,"N_COORD97":2571688.7400000002,"ADDRESS":"新筏子頭１０４號","OBJECTID":162392},"geometry":{"x":164970.99000000115,"y":2571688.7400000021}},{"attributes":{"ID":162394,"DIS_CODE":0,"TOWNNAME":"東區","LI":"虎尾里","LIN":"25鄰","STREET":"富農街","SECT":"一段","MAREA":" ","LANE":"１８８巷","ALLEY":"１０弄","HOUSE_NO":"２４號","E_COORD97":171552.47,"N_COORD97":2542415.0800000001,"ADDRESS":"富農街一段１８８巷１０弄２４號","OBJECTID":162393},"geometry":{"x":171552.46999999974,"y":2542415.0800000001}},{"attributes":{"ID":162395,"DIS_CODE":0,"TOWNNAME":"東區","LI":"虎尾里","LIN":"25鄰","STREET":"富農街","SECT":"一段","MAREA":" ","LANE":"１８８巷","ALLEY":"１０弄","HOUSE_NO":"２６號","E_COORD97":171556.67000000001,"N_COORD97":2542415.6800000002,"ADDRESS":"富農街一段１８８巷１０弄２６號","OBJECTID":162394},"geometry":{"x":171556.67000000179,"y":2542415.6800000034}},{"attributes":{"ID":162396,"DIS_CODE":0,"TOWNNAME":"東區","LI":"虎尾里","LIN":"25鄰","STREET":"富農街","SECT":"一段","MAREA":" ","LANE":"１８８巷","ALLEY":"１０弄","HOUSE_NO":"２８號","E_COORD97":171560.47,"N_COORD97":2542418.2799999998,"ADDRESS":"富農街一段１８８巷１０弄２８號","OBJECTID":162395},"geometry":{"x":171560.46999999974,"y":2542418.2800000012}},{"attributes":{"ID":162397,"DIS_CODE":0,"TOWNNAME":"東區","LI":"虎尾里","LIN":"25鄰","STREET":"富農街","SECT":"一段","MAREA":" ","LANE":"１８８巷","ALLEY":"１０弄","HOUSE_NO":"２號","E_COORD97":171562.26999999999,"N_COORD97":2542459.8399999999,"ADDRESS":"富農街一段１８８巷１０弄２號","OBJECTID":162396},"geometry":{"x":171562.26999999862,"y":2542459.8400000017}},{"attributes":{"ID":162398,"DIS_CODE":0,"TOWNNAME":"東區","LI":"虎尾里","LIN":"25鄰","STREET":"富農街","SECT":"一段","MAREA":" ","LANE":"１８８巷","ALLEY":"１０弄","HOUSE_NO":"３０號","E_COORD97":171570.73000000001,"N_COORD97":2542424.21,"ADDRESS":"富農街一段１８８巷１０弄３０號","OBJECTID":162397},"geometry":{"x":171570.73000000138,"y":2542424.2100000028}},{"attributes":{"ID":162399,"DIS_CODE":0,"TOWNNAME":"白河區","LI":"永安里","LIN":"15鄰","STREET":"新興路","SECT":" ","MAREA":" ","LANE":" ","ALLEY":" ","HOUSE_NO":"５４６號","E_COORD97":190091.20000000001,"N_COORD97":2583630.1000000001,"ADDRESS":"新興路５４６號","OBJECTID":162398},"geometry":{"x":190091.20000000019,"y":2583630.1000000015}},{"attributes":{"ID":162400,"DIS_CODE":0,"TOWNNAME":"東區","LI":"虎尾里","LIN":"25鄰","STREET":"富農街","SECT":"一段","MAREA":" ","LANE":"１８８巷","ALLEY":"１０弄","HOUSE_NO":"３２號","E_COORD97":171571.54999999999,"N_COORD97":2542417.3300000001,"ADDRESS":"富農街一段１８８巷１０弄３２號","OBJECTID":162399},"geometry":{"x":171571.55000000075,"y":2542417.3300000001}},{"attributes":{"ID":162401,"DIS_CODE":0,"TOWNNAME":"東區","LI":"富強里","LIN":"27鄰","STREET":"東門路","SECT":"二段","MAREA":" ","LANE":"３０１巷","ALLEY":"８０弄","HOUSE_NO":"１１號","E_COORD97":170942.35999999999,"N_COORD97":2542694.6699999999,"ADDRESS":"東門路二段３０１巷８０弄１１號","OBJECTID":162400},"geometry":{"x":170942.36000000127,"y":2542694.6700000018}}]}