{"displayFieldName":"TOWNNAME","fieldAliases":{"ID":"ID","DIS_CODE":"DIS_CODE","TOWNNAME":"TOWNNAME","LI":"LI","LIN":"LIN","STREET":"STREET","SECT":"SECT","MAREA":"MAREA","LANE":"LANE","ALLEY":"ALLEY","HOUSE_NO":"HOUSE_NO","E_COORD97":"E_COORD97","N_COORD97":"N_COORD97","ADDRESS":"ADDRESS","OBJECTID":"OBJECTID"},"geometryType":"esriGeometryPoint","spatialReference":{"wkid":102443,"latestWkid":3826},"fields":[{"name":"ID","type":"esriFieldTypeDouble","alias":"ID"},{"name":"DIS_CODE","type":"esriFieldTypeInteger","alias":"DIS_CODE"},{"name":"TOWNNAME","type":"esriFieldTypeString","alias":"TOWNNAME","length":8},{"name":"LI","type":"esriFieldTypeString","alias":"LI","length":8},{"name":"LIN","type":"esriFieldTypeString","alias":"LIN","length":12},{"name":"STREET","type":"esriFieldTypeString","alias":"STREET","length":20},{"name":"SECT","type":"esriFieldTypeString","alias":"SECT","length":8},{"name":"MAREA","type":"esriFieldTypeString","alias":"MAREA","length":12},{"name":"LANE","type":"esriFieldTypeString","alias":"LANE","length":10},{"name":"ALLEY","type":"esriFieldTypeString","alias":"ALLEY","length":10},{"name":"HOUSE_NO","type":"esriFieldTypeString","alias":"HOUSE_NO","length":20},{"name":"E_COORD97","type":"esriFieldTypeDouble","alias":"E_COORD97"},{"name":"N_COORD97","type":"esriFieldTypeDouble","alias":"N_COORD97"},{"name":"ADDRESS","type":"esriFieldTypeString","alias":"ADDRESS","length":50},{"name":"OBJECTID","type":"esriFieldTypeOID","alias":"OBJECTID"}],"features":[{"attributes":{"ID":6601,"DIS_CODE":0,"TOWNNAME":"安南區","LI":"州南里","LIN":"19鄰","STREET":"大聖一街","SECT":" ","MAREA":" ","LANE":"１０１巷","ALLEY":" ","HOUSE_NO":"１８號","E_COORD97":170108.627179,"N_COORD97":2551114.1343700001,"ADDRESS":"大聖一街１０１巷１８號","OBJECTID":6601},"geometry":{"x":170108.6271789996,"y":2551114.1343690027}},{"attributes":{"ID":6602,"DIS_CODE":0,"TOWNNAME":"安南區","LI":"州南里","LIN":"19鄰","STREET":"大聖一街","SECT":" ","MAREA":" ","LANE":"１０１巷","ALLEY":" ","HOUSE_NO":"２０號","E_COORD97":170104.49888100001,"N_COORD97":2551114.0285399999,"ADDRESS":"大聖一街１０１巷２０號","OBJECTID":6602},"geometry":{"x":170104.49888100103,"y":2551114.0285350028}},{"attributes":{"ID":6603,"DIS_CODE":0,"TOWNNAME":"安南區","LI":"州南里","LIN":"19鄰","STREET":"大聖一街","SECT":" ","MAREA":" ","LANE":"１０１巷","ALLEY":" ","HOUSE_NO":"２２號","E_COORD97":170100.15887499999,"N_COORD97":2551114.2401999999,"ADDRESS":"大聖一街１０１巷２２號","OBJECTID":6603},"geometry":{"x":170100.15887500066,"y":2551114.2402020041}},{"attributes":{"ID":6604,"DIS_CODE":0,"TOWNNAME":"安南區","LI":"州南里","LIN":"19鄰","STREET":"大聖一街","SECT":" ","MAREA":" ","LANE":"１０１巷","ALLEY":" ","HOUSE_NO":"２６號","E_COORD97":170095.924723,"N_COORD97":2551114.45187,"ADDRESS":"大聖一街１０１巷２６號","OBJECTID":6604},"geometry":{"x":170095.92472300027,"y":2551114.4518689997}},{"attributes":{"ID":6605,"DIS_CODE":0,"TOWNNAME":"安南區","LI":"州南里","LIN":"19鄰","STREET":"大聖一街","SECT":" ","MAREA":" ","LANE":"１０１巷","ALLEY":" ","HOUSE_NO":"２８號","E_COORD97":170091.796424,"N_COORD97":2551114.5576999998,"ADDRESS":"大聖一街１０１巷２８號","OBJECTID":6605},"geometry":{"x":170091.79642400052,"y":2551114.5577020012}},{"attributes":{"ID":6606,"DIS_CODE":0,"TOWNNAME":"安南區","LI":"州南里","LIN":"19鄰","STREET":"大聖一街","SECT":" ","MAREA":" ","LANE":"１０１巷","ALLEY":" ","HOUSE_NO":"３０號","E_COORD97":170087.45641799999,"N_COORD97":2551114.7693699999,"ADDRESS":"大聖一街１０１巷３０號","OBJECTID":6606},"geometry":{"x":170087.45641800016,"y":2551114.7693680022}},{"attributes":{"ID":6607,"DIS_CODE":0,"TOWNNAME":"安南區","LI":"州南里","LIN":"19鄰","STREET":"大聖一街","SECT":" ","MAREA":" ","LANE":"１０１巷","ALLEY":" ","HOUSE_NO":"３２號","E_COORD97":170083.116412,"N_COORD97":2551114.5576999998,"ADDRESS":"大聖一街１０１巷３２號","OBJECTID":6607},"geometry":{"x":170083.11641200073,"y":2551114.5577020012}},{"attributes":{"ID":6608,"DIS_CODE":0,"TOWNNAME":"安南區","LI":"州南里","LIN":"19鄰","STREET":"大聖一街","SECT":" ","MAREA":" ","LANE":"１０１巷","ALLEY":" ","HOUSE_NO":"３號","E_COORD97":170121.75305,"N_COORD97":2551101.43438,"ADDRESS":"大聖一街１０１巷３號","OBJECTID":6608},"geometry":{"x":170121.75305000041,"y":2551101.4343759995}},{"attributes":{"ID":6609,"DIS_CODE":0,"TOWNNAME":"安南區","LI":"州南里","LIN":"19鄰","STREET":"大聖一街","SECT":" ","MAREA":" ","LANE":"１０１巷","ALLEY":" ","HOUSE_NO":"５號","E_COORD97":170117.20133700001,"N_COORD97":2551101.5402099998,"ADDRESS":"大聖一街１０１巷５號","OBJECTID":6609},"geometry":{"x":170117.20133699942,"y":2551101.5402090009}},{"attributes":{"ID":6610,"DIS_CODE":0,"TOWNNAME":"安南區","LI":"州南里","LIN":"19鄰","STREET":"大聖一街","SECT":" ","MAREA":" ","LANE":"１０１巷","ALLEY":" ","HOUSE_NO":"７號","E_COORD97":170113.07303900001,"N_COORD97":2551101.43438,"ADDRESS":"大聖一街１０１巷７號","OBJECTID":6610},"geometry":{"x":170113.07303900179,"y":2551101.4343759995}},{"attributes":{"ID":6611,"DIS_CODE":0,"TOWNNAME":"佳里區","LI":"建南里","LIN":"26鄰","STREET":"安南路","SECT":" ","MAREA":" ","LANE":" ","ALLEY":" ","HOUSE_NO":"２８６號","E_COORD97":165366.63480900001,"N_COORD97":2561381.02715,"ADDRESS":"安南路２８６號","OBJECTID":6611},"geometry":{"x":165366.63480900135,"y":2561381.0271550026}},{"attributes":{"ID":6612,"DIS_CODE":0,"TOWNNAME":"安南區","LI":"州南里","LIN":"19鄰","STREET":"大聖一街","SECT":" ","MAREA":" ","LANE":"１０１巷","ALLEY":" ","HOUSE_NO":"９號","E_COORD97":170108.94474000001,"N_COORD97":2551101.7518799999,"ADDRESS":"大聖一街１０１巷９號","OBJECTID":6612},"geometry":{"x":170108.94474000204,"y":2551101.7518750038}},{"attributes":{"ID":6613,"DIS_CODE":0,"TOWNNAME":"安南區","LI":"州南里","LIN":"19鄰","STREET":"大聖一街","SECT":" ","MAREA":" ","LANE":"１０１巷","ALLEY":" ","HOUSE_NO":"１１號","E_COORD97":170104.60473399999,"N_COORD97":2551101.9635399999,"ADDRESS":"大聖一街１０１巷１１號","OBJECTID":6613},"geometry":{"x":170104.60473400168,"y":2551101.9635419995}},{"attributes":{"ID":6614,"DIS_CODE":0,"TOWNNAME":"安南區","LI":"州南里","LIN":"19鄰","STREET":"大聖一街","SECT":" ","MAREA":" ","LANE":"１０１巷","ALLEY":" ","HOUSE_NO":"１３號","E_COORD97":170100.26472800001,"N_COORD97":2551101.7518799999,"ADDRESS":"大聖一街１０１巷１３號","OBJECTID":6614},"geometry":{"x":170100.26472800132,"y":2551101.7518750038}},{"attributes":{"ID":6615,"DIS_CODE":0,"TOWNNAME":"安南區","LI":"州南里","LIN":"19鄰","STREET":"大聖一街","SECT":" ","MAREA":" ","LANE":"１０１巷","ALLEY":" ","HOUSE_NO":"１５號","E_COORD97":170096.24228400001,"N_COORD97":2551101.7518799999,"ADDRESS":"大聖一街１０１巷１５號","OBJECTID":6615},"geometry":{"x":170096.24228400085,"y":2551101.7518750038}},{"attributes":{"ID":6616,"DIS_CODE":0,"TOWNNAME":"佳里區","LI":"建南里","LIN":"26鄰","STREET":"安南路","SECT":" ","MAREA":" ","LANE":" ","ALLEY":" ","HOUSE_NO":"２８８號","E_COORD97":165362.034048,"N_COORD97":2561383.4598500002,"ADDRESS":"安南路２８８號","OBJECTID":6616},"geometry":{"x":165362.03404800035,"y":2561383.4598520007}},{"attributes":{"ID":6617,"DIS_CODE":0,"TOWNNAME":"安南區","LI":"州南里","LIN":"19鄰","STREET":"大聖一街","SECT":" ","MAREA":" ","LANE":"１０１巷","ALLEY":" ","HOUSE_NO":"１７號","E_COORD97":170091.69057000001,"N_COORD97":2551101.8577100001,"ADDRESS":"大聖一街１０１巷１７號","OBJECTID":6617},"geometry":{"x":170091.69057000056,"y":2551101.8577090036}},{"attributes":{"ID":6618,"DIS_CODE":0,"TOWNNAME":"安南區","LI":"州南里","LIN":"19鄰","STREET":"大聖一街","SECT":" ","MAREA":" ","LANE":"１０１巷","ALLEY":" ","HOUSE_NO":"１９號","E_COORD97":170087.87983399999,"N_COORD97":2551101.9635399999,"ADDRESS":"大聖一街１０１巷１９號","OBJECTID":6618},"geometry":{"x":170087.87983399909,"y":2551101.9635419995}},{"attributes":{"ID":6619,"DIS_CODE":0,"TOWNNAME":"安南區","LI":"州南里","LIN":"19鄰","STREET":"大聖一街","SECT":" ","MAREA":" ","LANE":"１０１巷","ALLEY":" ","HOUSE_NO":"２１號","E_COORD97":170083.222266,"N_COORD97":2551102.0693799998,"ADDRESS":"大聖一街１０１巷２１號","OBJECTID":6619},"geometry":{"x":170083.22226599976,"y":2551102.0693750009}},{"attributes":{"ID":6620,"DIS_CODE":0,"TOWNNAME":"佳里區","LI":"建南里","LIN":"26鄰","STREET":"安南路","SECT":" ","MAREA":" ","LANE":" ","ALLEY":" ","HOUSE_NO":"２９０號","E_COORD97":165358.786452,"N_COORD97":2561385.62225,"ADDRESS":"安南路２９０號","OBJECTID":6620},"geometry":{"x":165358.78645200003,"y":2561385.6222490016}},{"attributes":{"ID":6621,"DIS_CODE":0,"TOWNNAME":"安南區","LI":"州南里","LIN":"19鄰","STREET":"大聖三街","SECT":" ","MAREA":" ","LANE":" ","ALLEY":" ","HOUSE_NO":"３號","E_COORD97":170147.263817,"N_COORD97":2551147.5776800001,"ADDRESS":"大聖三街３號","OBJECTID":6621},"geometry":{"x":170147.26381700113,"y":2551147.5776840001}},{"attributes":{"ID":6622,"DIS_CODE":0,"TOWNNAME":"安南區","LI":"州南里","LIN":"19鄰","STREET":"大聖三街","SECT":" ","MAREA":" ","LANE":" ","ALLEY":" ","HOUSE_NO":"５號","E_COORD97":170143.66478799999,"N_COORD97":2551147.3660200001,"ADDRESS":"大聖三街５號","OBJECTID":6622},"geometry":{"x":170143.66478800029,"y":2551147.3660169989}},{"attributes":{"ID":6623,"DIS_CODE":0,"TOWNNAME":"安南區","LI":"州南里","LIN":"19鄰","STREET":"大聖三街","SECT":" ","MAREA":" ","LANE":" ","ALLEY":" ","HOUSE_NO":"７號","E_COORD97":170139.32478200001,"N_COORD97":2551147.5776800001,"ADDRESS":"大聖三街７號","OBJECTID":6623},"geometry":{"x":170139.32478199992,"y":2551147.5776840001}},{"attributes":{"ID":6624,"DIS_CODE":0,"TOWNNAME":"安南區","LI":"州南里","LIN":"19鄰","STREET":"大聖三街","SECT":" ","MAREA":" ","LANE":" ","ALLEY":" ","HOUSE_NO":"９號","E_COORD97":170134.984776,"N_COORD97":2551147.4718499999,"ADDRESS":"大聖三街９號","OBJECTID":6624},"geometry":{"x":170134.98477600049,"y":2551147.4718510043}},{"attributes":{"ID":6625,"DIS_CODE":0,"TOWNNAME":"安南區","LI":"州南里","LIN":"19鄰","STREET":"大聖三街","SECT":" ","MAREA":" ","LANE":" ","ALLEY":" ","HOUSE_NO":"１３號","E_COORD97":170130.856478,"N_COORD97":2551147.3660200001,"ADDRESS":"大聖三街１３號","OBJECTID":6625},"geometry":{"x":170130.85647799913,"y":2551147.3660169989}},{"attributes":{"ID":6626,"DIS_CODE":0,"TOWNNAME":"安南區","LI":"州南里","LIN":"19鄰","STREET":"大聖三街","SECT":" ","MAREA":" ","LANE":" ","ALLEY":" ","HOUSE_NO":"１１號","E_COORD97":170130.856478,"N_COORD97":2551147.3660200001,"ADDRESS":"大聖三街１１號","OBJECTID":6626},"geometry":{"x":170130.85647799913,"y":2551147.3660169989}},{"attributes":{"ID":6627,"DIS_CODE":0,"TOWNNAME":"安南區","LI":"州南里","LIN":"19鄰","STREET":"大聖三街","SECT":" ","MAREA":" ","LANE":" ","ALLEY":" ","HOUSE_NO":"１３號","E_COORD97":170126.41061799999,"N_COORD97":2551147.4718499999,"ADDRESS":"大聖三街１３號","OBJECTID":6627},"geometry":{"x":170126.41061799973,"y":2551147.4718510043}},{"attributes":{"ID":6628,"DIS_CODE":0,"TOWNNAME":"佳里區","LI":"建南里","LIN":"26鄰","STREET":"安南路","SECT":" ","MAREA":" ","LANE":" ","ALLEY":" ","HOUSE_NO":"２９２號","E_COORD97":165353.91505800001,"N_COORD97":2561388.3252500002,"ADDRESS":"安南路２９２號","OBJECTID":6628},"geometry":{"x":165353.91505800001,"y":2561388.3252460025}},{"attributes":{"ID":6629,"DIS_CODE":0,"TOWNNAME":"佳里區","LI":"禮化里","LIN":"3鄰","STREET":" ","SECT":" ","MAREA":" ","LANE":" ","ALLEY":" ","HOUSE_NO":"２６１號之１","E_COORD97":166956.98977700001,"N_COORD97":2565882.5775000001,"ADDRESS":"２６１號之１","OBJECTID":6629},"geometry":{"x":166956.98977700062,"y":2565882.5774990022}},{"attributes":{"ID":6630,"DIS_CODE":0,"TOWNNAME":"安南區","LI":"州南里","LIN":"19鄰","STREET":"大聖三街","SECT":" ","MAREA":" ","LANE":" ","ALLEY":" ","HOUSE_NO":"１５號","E_COORD97":170122.176466,"N_COORD97":2551147.4718499999,"ADDRESS":"大聖三街１５號","OBJECTID":6630},"geometry":{"x":170122.1764660012,"y":2551147.4718510043}},{"attributes":{"ID":6631,"DIS_CODE":0,"TOWNNAME":"安南區","LI":"州南里","LIN":"19鄰","STREET":"大聖三街","SECT":" ","MAREA":" ","LANE":" ","ALLEY":" ","HOUSE_NO":"１７號","E_COORD97":170117.730606,"N_COORD97":2551147.2601800002,"ADDRESS":"大聖三街１７號","OBJECTID":6631},"geometry":{"x":170117.7306060018,"y":2551147.260184003}},{"attributes":{"ID":6632,"DIS_CODE":0,"TOWNNAME":"安南區","LI":"州南里","LIN":"19鄰","STREET":"大聖三街","SECT":" ","MAREA":" ","LANE":" ","ALLEY":" ","HOUSE_NO":"１９號","E_COORD97":170113.602308,"N_COORD97":2551147.2601800002,"ADDRESS":"大聖三街１９號","OBJECTID":6632},"geometry":{"x":170113.60230800137,"y":2551147.260184003}},{"attributes":{"ID":6633,"DIS_CODE":0,"TOWNNAME":"安南區","LI":"州南里","LIN":"19鄰","STREET":"大聖三街","SECT":" ","MAREA":" ","LANE":" ","ALLEY":" ","HOUSE_NO":"２１號","E_COORD97":170109.36815600001,"N_COORD97":2551147.15435,"ADDRESS":"大聖三街２１號","OBJECTID":6633},"geometry":{"x":170109.36815600097,"y":2551147.1543510016}},{"attributes":{"ID":6634,"DIS_CODE":0,"TOWNNAME":"安南區","LI":"州南里","LIN":"19鄰","STREET":"大聖三街","SECT":" ","MAREA":" ","LANE":" ","ALLEY":" ","HOUSE_NO":"２３號","E_COORD97":170105.451565,"N_COORD97":2551147.15435,"ADDRESS":"大聖三街２３號","OBJECTID":6634},"geometry":{"x":170105.45156500023,"y":2551147.1543510016}},{"attributes":{"ID":6635,"DIS_CODE":0,"TOWNNAME":"安南區","LI":"州南里","LIN":"19鄰","STREET":"大聖三街","SECT":" ","MAREA":" ","LANE":" ","ALLEY":" ","HOUSE_NO":"２５號","E_COORD97":170100.89985099999,"N_COORD97":2551147.0485200002,"ADDRESS":"大聖三街２５號","OBJECTID":6635},"geometry":{"x":170100.89985100087,"y":2551147.0485180002}},{"attributes":{"ID":6636,"DIS_CODE":0,"TOWNNAME":"安南區","LI":"州南里","LIN":"19鄰","STREET":"大聖三街","SECT":" ","MAREA":" ","LANE":" ","ALLEY":" ","HOUSE_NO":"２７號","E_COORD97":170096.453992,"N_COORD97":2551147.0485200002,"ADDRESS":"大聖三街２７號","OBJECTID":6636},"geometry":{"x":170096.45399199985,"y":2551147.0485180002}},{"attributes":{"ID":6637,"DIS_CODE":0,"TOWNNAME":"安南區","LI":"州南里","LIN":"19鄰","STREET":"大聖三街","SECT":" ","MAREA":" ","LANE":" ","ALLEY":" ","HOUSE_NO":"２９號","E_COORD97":170092.11398600001,"N_COORD97":2551147.0485200002,"ADDRESS":"大聖三街２９號","OBJECTID":6637},"geometry":{"x":170092.11398599949,"y":2551147.0485180002}},{"attributes":{"ID":6638,"DIS_CODE":0,"TOWNNAME":"安南區","LI":"州南里","LIN":"19鄰","STREET":"大聖三街","SECT":" ","MAREA":" ","LANE":" ","ALLEY":" ","HOUSE_NO":"３１號","E_COORD97":170088.197395,"N_COORD97":2551147.15435,"ADDRESS":"大聖三街３１號","OBJECTID":6638},"geometry":{"x":170088.19739499968,"y":2551147.1543510016}},{"attributes":{"ID":6639,"DIS_CODE":0,"TOWNNAME":"安南區","LI":"州南里","LIN":"19鄰","STREET":"大聖三街","SECT":" ","MAREA":" ","LANE":" ","ALLEY":" ","HOUSE_NO":"３３號","E_COORD97":170083.43397400001,"N_COORD97":2551147.0485200002,"ADDRESS":"大聖三街３３號","OBJECTID":6639},"geometry":{"x":170083.43397399969,"y":2551147.0485180002}},{"attributes":{"ID":6640,"DIS_CODE":0,"TOWNNAME":"安南區","LI":"州南里","LIN":"19鄰","STREET":"大聖三街","SECT":" ","MAREA":" ","LANE":" ","ALLEY":" ","HOUSE_NO":"６號","E_COORD97":170148.63991599999,"N_COORD97":2551163.6643400001,"ADDRESS":"大聖三街６號","OBJECTID":6640},"geometry":{"x":170148.63991600089,"y":2551163.6643420029}},{"attributes":{"ID":6641,"DIS_CODE":0,"TOWNNAME":"安南區","LI":"州南里","LIN":"19鄰","STREET":"大聖三街","SECT":" ","MAREA":" ","LANE":" ","ALLEY":" ","HOUSE_NO":"８號","E_COORD97":170144.61747200001,"N_COORD97":2551163.77018,"ADDRESS":"大聖三街８號","OBJECTID":6641},"geometry":{"x":170144.61747200228,"y":2551163.7701750007}},{"attributes":{"ID":6642,"DIS_CODE":0,"TOWNNAME":"安南區","LI":"州南里","LIN":"19鄰","STREET":"大聖三街","SECT":" ","MAREA":" ","LANE":" ","ALLEY":" ","HOUSE_NO":"１０號","E_COORD97":170140.80673499999,"N_COORD97":2551163.8760099998,"ADDRESS":"大聖三街１０號","OBJECTID":6642},"geometry":{"x":170140.8067350015,"y":2551163.8760090005}},{"attributes":{"ID":6643,"DIS_CODE":0,"TOWNNAME":"安南區","LI":"州南里","LIN":"19鄰","STREET":"大聖三街","SECT":" ","MAREA":" ","LANE":" ","ALLEY":" ","HOUSE_NO":"１２號","E_COORD97":170136.46672900001,"N_COORD97":2551163.77018,"ADDRESS":"大聖三街１２號","OBJECTID":6643},"geometry":{"x":170136.46672900114,"y":2551163.7701750007}},{"attributes":{"ID":6644,"DIS_CODE":0,"TOWNNAME":"安南區","LI":"總頭里","LIN":"2鄰","STREET":"總安街","SECT":"二段","MAREA":" ","LANE":"３１５巷","ALLEY":" ","HOUSE_NO":"２１號","E_COORD97":168449.546886,"N_COORD97":2550401.7590399999,"ADDRESS":"總安街二段３１５巷２１號","OBJECTID":6644},"geometry":{"x":168449.54688600171,"y":2550401.7590440009}},{"attributes":{"ID":6645,"DIS_CODE":0,"TOWNNAME":"永康區","LI":"王行里","LIN":"16鄰","STREET":"永科東路","SECT":" ","MAREA":" ","LANE":" ","ALLEY":" ","HOUSE_NO":"２８８號","E_COORD97":176098.06189899999,"N_COORD97":2549731.8417699998,"ADDRESS":"永科東路２８８號","OBJECTID":6645},"geometry":{"x":176098.06189900078,"y":2549731.8417739999}},{"attributes":{"ID":6646,"DIS_CODE":0,"TOWNNAME":"安南區","LI":"州南里","LIN":"19鄰","STREET":"大聖三街","SECT":" ","MAREA":" ","LANE":" ","ALLEY":" ","HOUSE_NO":"１６號","E_COORD97":170132.33843100001,"N_COORD97":2551163.77018,"ADDRESS":"大聖三街１６號","OBJECTID":6646},"geometry":{"x":170132.33843100071,"y":2551163.7701750007}},{"attributes":{"ID":6647,"DIS_CODE":0,"TOWNNAME":"安南區","LI":"州南里","LIN":"19鄰","STREET":"大聖三街","SECT":" ","MAREA":" ","LANE":" ","ALLEY":" ","HOUSE_NO":"１８號","E_COORD97":170127.68086299999,"N_COORD97":2551163.77018,"ADDRESS":"大聖三街１８號","OBJECTID":6647},"geometry":{"x":170127.68086300138,"y":2551163.7701750007}},{"attributes":{"ID":6648,"DIS_CODE":0,"TOWNNAME":"安南區","LI":"州南里","LIN":"19鄰","STREET":"大聖三街","SECT":" ","MAREA":" ","LANE":" ","ALLEY":" ","HOUSE_NO":"２０號","E_COORD97":170123.97597999999,"N_COORD97":2551163.8760099998,"ADDRESS":"大聖三街２０號","OBJECTID":6648},"geometry":{"x":170123.97598000057,"y":2551163.8760090005}},{"attributes":{"ID":6649,"DIS_CODE":0,"TOWNNAME":"安南區","LI":"州南里","LIN":"19鄰","STREET":"大聖三街","SECT":" ","MAREA":" ","LANE":" ","ALLEY":" ","HOUSE_NO":"２２號","E_COORD97":170120.05939000001,"N_COORD97":2551163.77018,"ADDRESS":"大聖三街２２號","OBJECTID":6649},"geometry":{"x":170120.059390001,"y":2551163.7701750007}},{"attributes":{"ID":6650,"DIS_CODE":0,"TOWNNAME":"安南區","LI":"州南里","LIN":"19鄰","STREET":"大聖三街","SECT":" ","MAREA":" ","LANE":" ","ALLEY":" ","HOUSE_NO":"２６號","E_COORD97":170115.61353,"N_COORD97":2551163.77018,"ADDRESS":"大聖三街２６號","OBJECTID":6650},"geometry":{"x":170115.61352999881,"y":2551163.7701750007}},{"attributes":{"ID":6651,"DIS_CODE":0,"TOWNNAME":"安南區","LI":"州南里","LIN":"19鄰","STREET":"大聖三街","SECT":" ","MAREA":" ","LANE":" ","ALLEY":" ","HOUSE_NO":"２８號","E_COORD97":170112.22620800001,"N_COORD97":2551163.8760099998,"ADDRESS":"大聖三街２８號","OBJECTID":6651},"geometry":{"x":170112.22620800044,"y":2551163.8760090005}},{"attributes":{"ID":6652,"DIS_CODE":0,"TOWNNAME":"安南區","LI":"州南里","LIN":"19鄰","STREET":"大聖三街","SECT":" ","MAREA":" ","LANE":" ","ALLEY":" ","HOUSE_NO":"３０號","E_COORD97":170107.88620199999,"N_COORD97":2551163.98184,"ADDRESS":"大聖三街３０號","OBJECTID":6652},"geometry":{"x":170107.88620200008,"y":2551163.981842}},{"attributes":{"ID":6653,"DIS_CODE":0,"TOWNNAME":"安南區","LI":"州南里","LIN":"19鄰","STREET":"大聖三街","SECT":" ","MAREA":" ","LANE":" ","ALLEY":" ","HOUSE_NO":"３２號","E_COORD97":170103.54619600001,"N_COORD97":2551164.0876799999,"ADDRESS":"大聖三街３２號","OBJECTID":6653},"geometry":{"x":170103.54619600065,"y":2551164.0876750015}},{"attributes":{"ID":6654,"DIS_CODE":0,"TOWNNAME":"安南區","LI":"總頭里","LIN":"2鄰","STREET":"總安街","SECT":"二段","MAREA":" ","LANE":" ","ALLEY":" ","HOUSE_NO":"３２０號","E_COORD97":168412.25821999999,"N_COORD97":2550512.4606499998,"ADDRESS":"總安街二段３２０號","OBJECTID":6654},"geometry":{"x":168412.25822000112,"y":2550512.4606510028}},{"attributes":{"ID":6655,"DIS_CODE":0,"TOWNNAME":"佳里區","LI":"建南里","LIN":"24鄰","STREET":"成功路","SECT":" ","MAREA":" ","LANE":"２１３巷","ALLEY":" ","HOUSE_NO":"３６號","E_COORD97":165455.605407,"N_COORD97":2561101.4021800002,"ADDRESS":"成功路２１３巷３６號","OBJECTID":6655},"geometry":{"x":165455.60540700052,"y":2561101.402176002}},{"attributes":{"ID":6656,"DIS_CODE":0,"TOWNNAME":"新營區","LI":"土庫里","LIN":"4鄰","STREET":" ","SECT":" ","MAREA":"土庫","LANE":" ","ALLEY":" ","HOUSE_NO":"４０號之１","E_COORD97":183276.42000000001,"N_COORD97":2579904.3100000001,"ADDRESS":"土庫４０號之１","OBJECTID":6656},"geometry":{"x":183276.41999999993,"y":2579904.3100000024}},{"attributes":{"ID":6657,"DIS_CODE":0,"TOWNNAME":"安南區","LI":"公親里","LIN":"6鄰","STREET":"公學路","SECT":"一段","MAREA":" ","LANE":"１２巷","ALLEY":" ","HOUSE_NO":"４２號之１","E_COORD97":168635.34294599999,"N_COORD97":2553157.5259699998,"ADDRESS":"公學路一段１２巷４２號之１","OBJECTID":6657},"geometry":{"x":168635.34294600133,"y":2553157.5259730015}},{"attributes":{"ID":6658,"DIS_CODE":0,"TOWNNAME":"安南區","LI":"總頭里","LIN":"1鄰","STREET":"長溪路","SECT":"二段","MAREA":" ","LANE":"４１０巷","ALLEY":" ","HOUSE_NO":"２００號","E_COORD97":168612.04919699999,"N_COORD97":2549944.66512,"ADDRESS":"長溪路二段４１０巷２００號","OBJECTID":6658},"geometry":{"x":168612.04919700045,"y":2549944.6651239991}},{"attributes":{"ID":6659,"DIS_CODE":0,"TOWNNAME":"新營區","LI":"土庫里","LIN":"4鄰","STREET":" ","SECT":" ","MAREA":"土庫","LANE":" ","ALLEY":" ","HOUSE_NO":"４０號之２","E_COORD97":183284.62,"N_COORD97":2579906.4900000002,"ADDRESS":"土庫４０號之２","OBJECTID":6659},"geometry":{"x":183284.62000000197,"y":2579906.4900000021}},{"attributes":{"ID":6660,"DIS_CODE":0,"TOWNNAME":"安南區","LI":"總頭里","LIN":"1鄰","STREET":"長溪路","SECT":"二段","MAREA":" ","LANE":"４１０巷","ALLEY":"１７９弄","HOUSE_NO":"３３號","E_COORD97":168720.73718299999,"N_COORD97":2550064.25673,"ADDRESS":"長溪路二段４１０巷１７９弄３３號","OBJECTID":6660},"geometry":{"x":168720.73718299996,"y":2550064.2567260023}},{"attributes":{"ID":6661,"DIS_CODE":0,"TOWNNAME":"佳里區","LI":"建南里","LIN":"24鄰","STREET":"成功路","SECT":" ","MAREA":" ","LANE":"２１３巷","ALLEY":" ","HOUSE_NO":"３８號","E_COORD97":165458.785344,"N_COORD97":2561101.1318799998,"ADDRESS":"成功路２１３巷３８號","OBJECTID":6661},"geometry":{"x":165458.78534399997,"y":2561101.1318769995}},{"attributes":{"ID":6662,"DIS_CODE":0,"TOWNNAME":"佳里區","LI":"建南里","LIN":"24鄰","STREET":"成功路","SECT":" ","MAREA":" ","LANE":"２１３巷","ALLEY":" ","HOUSE_NO":"４０號","E_COORD97":165461.82996500001,"N_COORD97":2561100.5912799998,"ADDRESS":"成功路２１３巷４０號","OBJECTID":6662},"geometry":{"x":165461.82996500097,"y":2561100.5912780017}},{"attributes":{"ID":6663,"DIS_CODE":0,"TOWNNAME":"佳里區","LI":"建南里","LIN":"24鄰","STREET":"成功路","SECT":" ","MAREA":" ","LANE":"２１３巷","ALLEY":" ","HOUSE_NO":"４２號","E_COORD97":165465.618827,"N_COORD97":2561100.0506799999,"ADDRESS":"成功路２１３巷４２號","OBJECTID":6663},"geometry":{"x":165465.61882700119,"y":2561100.0506780017}},{"attributes":{"ID":6664,"DIS_CODE":0,"TOWNNAME":"安南區","LI":"州南里","LIN":"8鄰","STREET":"長和路","SECT":"三段","MAREA":" ","LANE":"１３３巷","ALLEY":" ","HOUSE_NO":"７號","E_COORD97":169694.655615,"N_COORD97":2551502.94276,"ADDRESS":"長和路三段１３３巷７號","OBJECTID":6664},"geometry":{"x":169694.65561500099,"y":2551502.9427620005}},{"attributes":{"ID":6665,"DIS_CODE":0,"TOWNNAME":"安南區","LI":"總頭里","LIN":"7鄰","STREET":"長溪路","SECT":"二段","MAREA":" ","LANE":"５９８巷","ALLEY":" ","HOUSE_NO":"４３號","E_COORD97":168337.469021,"N_COORD97":2550784.2404999998,"ADDRESS":"長溪路二段５９８巷４３號","OBJECTID":6665},"geometry":{"x":168337.4690210009,"y":2550784.2405040003}},{"attributes":{"ID":6666,"DIS_CODE":0,"TOWNNAME":"仁德區","LI":"仁德里","LIN":"5鄰","STREET":"中正路","SECT":"二段","MAREA":" ","LANE":" ","ALLEY":" ","HOUSE_NO":"１０２７號","E_COORD97":173408.601696,"N_COORD97":2540726.5745600001,"ADDRESS":"中正路二段１０２７號","OBJECTID":6666},"geometry":{"x":173408.60169600137,"y":2540726.5745630004}},{"attributes":{"ID":6667,"DIS_CODE":0,"TOWNNAME":"佳里區","LI":"建南里","LIN":"24鄰","STREET":"成功路","SECT":" ","MAREA":" ","LANE":"２１３巷","ALLEY":" ","HOUSE_NO":"３０號","E_COORD97":165447.824708,"N_COORD97":2561102.34822,"ADDRESS":"成功路２１３巷３０號","OBJECTID":6667},"geometry":{"x":165447.82470800169,"y":2561102.3482250012}},{"attributes":{"ID":6668,"DIS_CODE":0,"TOWNNAME":"仁德區","LI":"仁德里","LIN":"5鄰","STREET":"中正路","SECT":"二段","MAREA":" ","LANE":" ","ALLEY":" ","HOUSE_NO":"１０２５號","E_COORD97":173395.254028,"N_COORD97":2540707.3129099999,"ADDRESS":"中正路二段１０２５號","OBJECTID":6668},"geometry":{"x":173395.25402800087,"y":2540707.3129070029}},{"attributes":{"ID":6669,"DIS_CODE":0,"TOWNNAME":"佳里區","LI":"建南里","LIN":"24鄰","STREET":"成功路","SECT":" ","MAREA":" ","LANE":"２１３巷","ALLEY":" ","HOUSE_NO":"３２號","E_COORD97":165451.27527899999,"N_COORD97":2561102.0779300001,"ADDRESS":"成功路２１３巷３２號","OBJECTID":6669},"geometry":{"x":165451.27527900133,"y":2561102.0779260024}},{"attributes":{"ID":6670,"DIS_CODE":0,"TOWNNAME":"南區","LI":"喜東里","LIN":"10鄰","STREET":"永成路","SECT":"二段","MAREA":" ","LANE":" ","ALLEY":" ","HOUSE_NO":"４６０之２號","E_COORD97":167752.63897999999,"N_COORD97":2538860.0932300002,"ADDRESS":"永成路二段４６０之２號","OBJECTID":6670},"geometry":{"x":167752.63898000028,"y":2538860.0932339989}},{"attributes":{"ID":6671,"DIS_CODE":0,"TOWNNAME":"佳里區","LI":"建南里","LIN":"24鄰","STREET":"成功路","SECT":" ","MAREA":" ","LANE":"２１３巷","ALLEY":" ","HOUSE_NO":"５０號","E_COORD97":165479.894718,"N_COORD97":2561098.0234300001,"ADDRESS":"成功路２１３巷５０號","OBJECTID":6671},"geometry":{"x":165479.8947179988,"y":2561098.0234309994}},{"attributes":{"ID":6672,"DIS_CODE":0,"TOWNNAME":"佳里區","LI":"建南里","LIN":"24鄰","STREET":"成功路","SECT":" ","MAREA":" ","LANE":"２１３巷","ALLEY":" ","HOUSE_NO":"５２號","E_COORD97":165484.340688,"N_COORD97":2561097.14824,"ADDRESS":"成功路２１３巷５２號","OBJECTID":6672},"geometry":{"x":165484.34068800136,"y":2561097.1482450012}},{"attributes":{"ID":6673,"DIS_CODE":0,"TOWNNAME":"佳里區","LI":"建南里","LIN":"24鄰","STREET":"成功路","SECT":" ","MAREA":" ","LANE":"２１３巷","ALLEY":" ","HOUSE_NO":"４６號","E_COORD97":165469.330705,"N_COORD97":2561099.5792999999,"ADDRESS":"成功路２１３巷４６號","OBJECTID":6673},"geometry":{"x":165469.33070500102,"y":2561099.5792980008}},{"attributes":{"ID":6674,"DIS_CODE":0,"TOWNNAME":"佳里區","LI":"建南里","LIN":"24鄰","STREET":"成功路","SECT":" ","MAREA":" ","LANE":"２１３巷","ALLEY":" ","HOUSE_NO":"４８號","E_COORD97":165474.19880799999,"N_COORD97":2561099.3091799999,"ADDRESS":"成功路２１３巷４８號","OBJECTID":6674},"geometry":{"x":165474.19880799949,"y":2561099.309181001}},{"attributes":{"ID":6675,"DIS_CODE":0,"TOWNNAME":"安南區","LI":"總頭里","LIN":"2鄰","STREET":"總安街","SECT":"二段","MAREA":" ","LANE":" ","ALLEY":" ","HOUSE_NO":"２７６號之１","E_COORD97":168547.85336899999,"N_COORD97":2550494.99816,"ADDRESS":"總安街二段２７６號之１","OBJECTID":6675},"geometry":{"x":168547.8533690013,"y":2550494.9981600028}},{"attributes":{"ID":6676,"DIS_CODE":0,"TOWNNAME":"南區","LI":"喜東里","LIN":"10鄰","STREET":"永成路","SECT":"二段","MAREA":" ","LANE":" ","ALLEY":" ","HOUSE_NO":"３９６之７號","E_COORD97":167736.96770000001,"N_COORD97":2538821.7815899998,"ADDRESS":"永成路二段３９６之７號","OBJECTID":6676},"geometry":{"x":167736.96770000085,"y":2538821.7815879993}},{"attributes":{"ID":6677,"DIS_CODE":0,"TOWNNAME":"南區","LI":"喜東里","LIN":"10鄰","STREET":"永成路","SECT":"二段","MAREA":" ","LANE":" ","ALLEY":" ","HOUSE_NO":"３９６之６號","E_COORD97":167736.96770000001,"N_COORD97":2538813.5265899999,"ADDRESS":"永成路二段３９６之６號","OBJECTID":6677},"geometry":{"x":167736.96770000085,"y":2538813.5265929997}},{"attributes":{"ID":6678,"DIS_CODE":0,"TOWNNAME":"南區","LI":"喜東里","LIN":"10鄰","STREET":"永成路","SECT":" ","MAREA":" ","LANE":" ","ALLEY":" ","HOUSE_NO":"３６９之５號","E_COORD97":167737.179474,"N_COORD97":2538803.1549300002,"ADDRESS":"永成路３６９之５號","OBJECTID":6678},"geometry":{"x":167737.17947399989,"y":2538803.1549319997}},{"attributes":{"ID":6679,"DIS_CODE":0,"TOWNNAME":"南區","LI":"喜東里","LIN":"10鄰","STREET":"永成路","SECT":" ","MAREA":" ","LANE":" ","ALLEY":" ","HOUSE_NO":"３６９之３號","E_COORD97":167738.45011800001,"N_COORD97":2538791.9366000001,"ADDRESS":"永成路３６９之３號","OBJECTID":6679},"geometry":{"x":167738.45011800155,"y":2538791.9366040006}},{"attributes":{"ID":6680,"DIS_CODE":0,"TOWNNAME":"佳里區","LI":"建南里","LIN":"28鄰","STREET":"四維一街","SECT":" ","MAREA":" ","LANE":"９１巷","ALLEY":" ","HOUSE_NO":"２９號","E_COORD97":165866.925208,"N_COORD97":2561193.2175500002,"ADDRESS":"四維一街９１巷２９號","OBJECTID":6680},"geometry":{"x":165866.92520800047,"y":2561193.2175480016}},{"attributes":{"ID":6681,"DIS_CODE":0,"TOWNNAME":"佳里區","LI":"建南里","LIN":"28鄰","STREET":"四維一街","SECT":" ","MAREA":" ","LANE":"９１巷","ALLEY":" ","HOUSE_NO":"３１號","E_COORD97":165869.631536,"N_COORD97":2561193.2175500002,"ADDRESS":"四維一街９１巷３１號","OBJECTID":6681},"geometry":{"x":165869.63153600134,"y":2561193.2175480016}},{"attributes":{"ID":6682,"DIS_CODE":0,"TOWNNAME":"仁德區","LI":"仁德里","LIN":"4鄰","STREET":"仁中一街","SECT":" ","MAREA":" ","LANE":" ","ALLEY":" ","HOUSE_NO":"１１７號","E_COORD97":173191.43725799999,"N_COORD97":2540598.36387,"ADDRESS":"仁中一街１１７號","OBJECTID":6682},"geometry":{"x":173191.43725799955,"y":2540598.3638700023}},{"attributes":{"ID":6683,"DIS_CODE":0,"TOWNNAME":"仁德區","LI":"仁德里","LIN":"4鄰","STREET":"仁中一街","SECT":" ","MAREA":" ","LANE":" ","ALLEY":" ","HOUSE_NO":"１１９號","E_COORD97":173186.140564,"N_COORD97":2540598.36387,"ADDRESS":"仁中一街１１９號","OBJECTID":6683},"geometry":{"x":173186.14056400023,"y":2540598.3638700023}},{"attributes":{"ID":6684,"DIS_CODE":0,"TOWNNAME":"佳里區","LI":"建南里","LIN":"28鄰","STREET":"四維一街","SECT":" ","MAREA":" ","LANE":"９１巷","ALLEY":" ","HOUSE_NO":"３３號","E_COORD97":165871.79659899999,"N_COORD97":2561192.4066499998,"ADDRESS":"四維一街９１巷３３號","OBJECTID":6684},"geometry":{"x":165871.79659900069,"y":2561192.4066490009}},{"attributes":{"ID":6685,"DIS_CODE":0,"TOWNNAME":"南區","LI":"喜東里","LIN":"10鄰","STREET":"永成路","SECT":"二段","MAREA":" ","LANE":" ","ALLEY":" ","HOUSE_NO":"３９６之１號","E_COORD97":167741.83850000001,"N_COORD97":2538769.3941100002,"ADDRESS":"永成路二段３９６之１號","OBJECTID":6685},"geometry":{"x":167741.83849999961,"y":2538769.3941100016}},{"attributes":{"ID":6686,"DIS_CODE":0,"TOWNNAME":"南區","LI":"喜東里","LIN":"10鄰","STREET":"永成路","SECT":"二段","MAREA":" ","LANE":" ","ALLEY":" ","HOUSE_NO":"３９６之２號","E_COORD97":167738.66188999999,"N_COORD97":2538781.56494,"ADDRESS":"永成路二段３９６之２號","OBJECTID":6686},"geometry":{"x":167738.66189000104,"y":2538781.5649400018}},{"attributes":{"ID":6687,"DIS_CODE":0,"TOWNNAME":"仁德區","LI":"仁德里","LIN":"4鄰","STREET":"仁中一街","SECT":" ","MAREA":" ","LANE":" ","ALLEY":" ","HOUSE_NO":"１２１號","E_COORD97":173181.69134200001,"N_COORD97":2540598.36387,"ADDRESS":"仁中一街１２１號","OBJECTID":6687},"geometry":{"x":173181.69134199992,"y":2540598.3638700023}},{"attributes":{"ID":6688,"DIS_CODE":0,"TOWNNAME":"仁德區","LI":"仁德里","LIN":"4鄰","STREET":"仁中一街","SECT":" ","MAREA":" ","LANE":" ","ALLEY":" ","HOUSE_NO":"１２３號","E_COORD97":173177.13618500001,"N_COORD97":2540598.36387,"ADDRESS":"仁中一街１２３號","OBJECTID":6688},"geometry":{"x":173177.13618499972,"y":2540598.3638700023}},{"attributes":{"ID":6689,"DIS_CODE":0,"TOWNNAME":"仁德區","LI":"仁德里","LIN":"4鄰","STREET":"仁中一街","SECT":" ","MAREA":" ","LANE":" ","ALLEY":" ","HOUSE_NO":"１２５號","E_COORD97":173172.89882999999,"N_COORD97":2540598.36387,"ADDRESS":"仁中一街１２５號","OBJECTID":6689},"geometry":{"x":173172.89883000031,"y":2540598.3638700023}},{"attributes":{"ID":6690,"DIS_CODE":0,"TOWNNAME":"仁德區","LI":"仁德里","LIN":"4鄰","STREET":"仁中一街","SECT":" ","MAREA":" ","LANE":" ","ALLEY":" ","HOUSE_NO":"１２７號","E_COORD97":173166.54279800001,"N_COORD97":2540598.36387,"ADDRESS":"仁中一街１２７號","OBJECTID":6690},"geometry":{"x":173166.54279800039,"y":2540598.3638700023}},{"attributes":{"ID":6691,"DIS_CODE":0,"TOWNNAME":"南區","LI":"喜東里","LIN":"10鄰","STREET":"明興路","SECT":" ","MAREA":" ","LANE":"６１９巷","ALLEY":"４９９弄","HOUSE_NO":"４９之２０號","E_COORD97":167373.775188,"N_COORD97":2538194.8252599998,"ADDRESS":"明興路６１９巷４９９弄４９之２０號","OBJECTID":6691},"geometry":{"x":167373.77518799994,"y":2538194.8252600003}},{"attributes":{"ID":6692,"DIS_CODE":0,"TOWNNAME":"南區","LI":"喜東里","LIN":"10鄰","STREET":"明興路","SECT":" ","MAREA":" ","LANE":"６１９巷","ALLEY":"４９９弄","HOUSE_NO":"４９之２１號","E_COORD97":167366.36309500001,"N_COORD97":2538194.6135900002,"ADDRESS":"明興路６１９巷４９９弄４９之２１號","OBJECTID":6692},"geometry":{"x":167366.36309500132,"y":2538194.6135939993}},{"attributes":{"ID":6693,"DIS_CODE":0,"TOWNNAME":"中西區","LI":"普濟里","LIN":"6鄰","STREET":"海安路","SECT":"二段","MAREA":" ","LANE":"２９６巷","ALLEY":" ","HOUSE_NO":"５０號","E_COORD97":167866.22028499999,"N_COORD97":2544387.27195,"ADDRESS":"海安路二段２９６巷５０號","OBJECTID":6693},"geometry":{"x":167866.22028500214,"y":2544387.2719500009}},{"attributes":{"ID":6694,"DIS_CODE":0,"TOWNNAME":"安南區","LI":"公親里","LIN":"4鄰","STREET":"公學路","SECT":"一段","MAREA":" ","LANE":" ","ALLEY":" ","HOUSE_NO":"１３６號","E_COORD97":168247.68552999999,"N_COORD97":2553060.31342,"ADDRESS":"公學路一段１３６號","OBJECTID":6694},"geometry":{"x":168247.6855300013,"y":2553060.3134200014}},{"attributes":{"ID":6695,"DIS_CODE":0,"TOWNNAME":"南區","LI":"喜東里","LIN":"10鄰","STREET":"明興路","SECT":" ","MAREA":" ","LANE":"６１１巷","ALLEY":"１３９弄","HOUSE_NO":"５１號","E_COORD97":166396.861451,"N_COORD97":2538059.6761699999,"ADDRESS":"明興路６１１巷１３９弄５１號","OBJECTID":6695},"geometry":{"x":166396.86145100184,"y":2538059.6761670019}},{"attributes":{"ID":6696,"DIS_CODE":0,"TOWNNAME":"中西區","LI":"普濟里","LIN":"6鄰","STREET":"海安路","SECT":"二段","MAREA":" ","LANE":"２９６巷","ALLEY":" ","HOUSE_NO":"５２號","E_COORD97":167872.58143200001,"N_COORD97":2544388.9652800001,"ADDRESS":"海安路二段２９６巷５２號","OBJECTID":6696},"geometry":{"x":167872.5814319998,"y":2544388.9652820043}},{"attributes":{"ID":6697,"DIS_CODE":0,"TOWNNAME":"安南區","LI":"總頭里","LIN":"6鄰","STREET":"長溪路","SECT":"二段","MAREA":" ","LANE":"５７０巷","ALLEY":"３１弄","HOUSE_NO":"１０號之１","E_COORD97":168422.63972400001,"N_COORD97":2550666.13057,"ADDRESS":"長溪路二段５７０巷３１弄１０號之１","OBJECTID":6697},"geometry":{"x":168422.63972400036,"y":2550666.1305679977}},{"attributes":{"ID":6698,"DIS_CODE":0,"TOWNNAME":"中西區","LI":"普濟里","LIN":"6鄰","STREET":"海安路","SECT":"二段","MAREA":" ","LANE":"２９６巷","ALLEY":" ","HOUSE_NO":"５６號","E_COORD97":167876.39812,"N_COORD97":2544391.08195,"ADDRESS":"海安路二段２９６巷５６號","OBJECTID":6698},"geometry":{"x":167876.39812000003,"y":2544391.0819480009}},{"attributes":{"ID":6699,"DIS_CODE":0,"TOWNNAME":"中西區","LI":"普濟里","LIN":"6鄰","STREET":"海安路","SECT":"二段","MAREA":" ","LANE":"２９６巷","ALLEY":" ","HOUSE_NO":"５８號","E_COORD97":167879.36665499999,"N_COORD97":2544391.08195,"ADDRESS":"海安路二段２９６巷５８號","OBJECTID":6699},"geometry":{"x":167879.36665499955,"y":2544391.0819480009}},{"attributes":{"ID":6700,"DIS_CODE":0,"TOWNNAME":"佳里區","LI":"佳化里","LIN":"1鄰","STREET":" ","SECT":" ","MAREA":" ","LANE":" ","ALLEY":" ","HOUSE_NO":"５號","E_COORD97":167747.57821499999,"N_COORD97":2565344.9630900002,"ADDRESS":"５號","OBJECTID":6700},"geometry":{"x":167747.57821500115,"y":2565344.9630890004}},{"attributes":{"ID":6701,"DIS_CODE":0,"TOWNNAME":"中西區","LI":"普濟里","LIN":"6鄰","STREET":"海安路","SECT":"二段","MAREA":" ","LANE":"２９６巷","ALLEY":" ","HOUSE_NO":"６０號","E_COORD97":167882.54722899999,"N_COORD97":2544395.8444400001,"ADDRESS":"海安路二段２９６巷６０號","OBJECTID":6701},"geometry":{"x":167882.5472290013,"y":2544395.8444450013}},{"attributes":{"ID":6702,"DIS_CODE":0,"TOWNNAME":"永康區","LI":"王行里","LIN":"16鄰","STREET":"永科東路","SECT":" ","MAREA":" ","LANE":" ","ALLEY":" ","HOUSE_NO":"１５９號","E_COORD97":176067.75286400001,"N_COORD97":2549587.6174599999,"ADDRESS":"永科東路１５９號","OBJECTID":6702},"geometry":{"x":176067.75286400039,"y":2549587.6174610015}},{"attributes":{"ID":6703,"DIS_CODE":0,"TOWNNAME":"中西區","LI":"普濟里","LIN":"6鄰","STREET":"海安路","SECT":"二段","MAREA":" ","LANE":"２９６巷","ALLEY":" ","HOUSE_NO":"４８號","E_COORD97":167862.403597,"N_COORD97":2544384.94362,"ADDRESS":"海安路二段２９６巷４８號","OBJECTID":6703},"geometry":{"x":167862.40359700006,"y":2544384.9436180033}},{"attributes":{"ID":6704,"DIS_CODE":0,"TOWNNAME":"新營區","LI":"土庫里","LIN":"5鄰","STREET":" ","SECT":" ","MAREA":"土庫","LANE":" ","ALLEY":" ","HOUSE_NO":"４３號之３","E_COORD97":183411.54999999999,"N_COORD97":2579930.2799999998,"ADDRESS":"土庫４３號之３","OBJECTID":6704},"geometry":{"x":183411.54999999981,"y":2579930.2800000012}},{"attributes":{"ID":6705,"DIS_CODE":0,"TOWNNAME":"新營區","LI":"土庫里","LIN":"5鄰","STREET":" ","SECT":" ","MAREA":"土庫","LANE":" ","ALLEY":" ","HOUSE_NO":"４３號之６","E_COORD97":183603.64999999999,"N_COORD97":2580119.8999999999,"ADDRESS":"土庫４３號之６","OBJECTID":6705},"geometry":{"x":183603.6500000013,"y":2580119.9000000022}},{"attributes":{"ID":6706,"DIS_CODE":0,"TOWNNAME":"仁德區","LI":"仁德里","LIN":"4鄰","STREET":"仁中三街","SECT":" ","MAREA":" ","LANE":" ","ALLEY":" ","HOUSE_NO":"８２號","E_COORD97":173225.230163,"N_COORD97":2540429.75,"ADDRESS":"仁中三街８２號","OBJECTID":6706},"geometry":{"x":173225.23016300052,"y":2540429.7500000019}},{"attributes":{"ID":6707,"DIS_CODE":0,"TOWNNAME":"仁德區","LI":"仁德里","LIN":"4鄰","STREET":"仁中三街","SECT":" ","MAREA":" ","LANE":" ","ALLEY":" ","HOUSE_NO":"８６號","E_COORD97":173215.37831299999,"N_COORD97":2540429.75,"ADDRESS":"仁中三街８６號","OBJECTID":6707},"geometry":{"x":173215.37831300031,"y":2540429.7500000019}},{"attributes":{"ID":6708,"DIS_CODE":0,"TOWNNAME":"永康區","LI":"王行里","LIN":"16鄰","STREET":"永科一路","SECT":" ","MAREA":" ","LANE":" ","ALLEY":" ","HOUSE_NO":"５２號","E_COORD97":176109.71922,"N_COORD97":2549328.8550999998,"ADDRESS":"永科一路５２號","OBJECTID":6708},"geometry":{"x":176109.71922000125,"y":2549328.8551010024}},{"attributes":{"ID":6709,"DIS_CODE":0,"TOWNNAME":"仁德區","LI":"仁德里","LIN":"4鄰","STREET":"仁中三街","SECT":" ","MAREA":" ","LANE":" ","ALLEY":" ","HOUSE_NO":"８８號","E_COORD97":173206.69173600001,"N_COORD97":2540429.75,"ADDRESS":"仁中三街８８號","OBJECTID":6709},"geometry":{"x":173206.69173599966,"y":2540429.7500000019}},{"attributes":{"ID":6710,"DIS_CODE":0,"TOWNNAME":"仁德區","LI":"仁德里","LIN":"4鄰","STREET":"仁中三街","SECT":" ","MAREA":" ","LANE":" ","ALLEY":" ","HOUSE_NO":"９０號","E_COORD97":173200.44163700001,"N_COORD97":2540429.75,"ADDRESS":"仁中三街９０號","OBJECTID":6710},"geometry":{"x":173200.441637001,"y":2540429.7500000019}},{"attributes":{"ID":6711,"DIS_CODE":0,"TOWNNAME":"仁德區","LI":"仁德里","LIN":"4鄰","STREET":"仁中三街","SECT":" ","MAREA":" ","LANE":" ","ALLEY":" ","HOUSE_NO":"９２號","E_COORD97":173195.67461300001,"N_COORD97":2540429.75,"ADDRESS":"仁中三街９２號","OBJECTID":6711},"geometry":{"x":173195.67461299989,"y":2540429.7500000019}},{"attributes":{"ID":6712,"DIS_CODE":0,"TOWNNAME":"仁德區","LI":"仁德里","LIN":"4鄰","STREET":"仁中三街","SECT":" ","MAREA":" ","LANE":" ","ALLEY":" ","HOUSE_NO":"９６號","E_COORD97":173191.11945599999,"N_COORD97":2540429.75,"ADDRESS":"仁中三街９６號","OBJECTID":6712},"geometry":{"x":173191.11945599969,"y":2540429.7500000019}},{"attributes":{"ID":6713,"DIS_CODE":0,"TOWNNAME":"仁德區","LI":"仁德里","LIN":"4鄰","STREET":"仁中三街","SECT":" ","MAREA":" ","LANE":" ","ALLEY":" ","HOUSE_NO":"９８號","E_COORD97":173186.5643,"N_COORD97":2540429.75,"ADDRESS":"仁中三街９８號","OBJECTID":6713},"geometry":{"x":173186.56430000067,"y":2540429.7500000019}},{"attributes":{"ID":6714,"DIS_CODE":0,"TOWNNAME":"仁德區","LI":"仁德里","LIN":"4鄰","STREET":"仁中三街","SECT":" ","MAREA":" ","LANE":" ","ALLEY":" ","HOUSE_NO":"１００號","E_COORD97":173182.009143,"N_COORD97":2540429.75,"ADDRESS":"仁中三街１００號","OBJECTID":6714},"geometry":{"x":173182.00914300047,"y":2540429.7500000019}},{"attributes":{"ID":6715,"DIS_CODE":0,"TOWNNAME":"仁德區","LI":"仁德里","LIN":"4鄰","STREET":"仁中三街","SECT":" ","MAREA":" ","LANE":" ","ALLEY":" ","HOUSE_NO":"１０２號","E_COORD97":173177.45398699999,"N_COORD97":2540429.75,"ADDRESS":"仁中三街１０２號","OBJECTID":6715},"geometry":{"x":173177.45398700051,"y":2540429.7500000019}},{"attributes":{"ID":6716,"DIS_CODE":0,"TOWNNAME":"仁德區","LI":"仁德里","LIN":"4鄰","STREET":"仁中三街","SECT":" ","MAREA":" ","LANE":" ","ALLEY":" ","HOUSE_NO":"１０６號","E_COORD97":173173.216632,"N_COORD97":2540429.75,"ADDRESS":"仁中三街１０６號","OBJECTID":6716},"geometry":{"x":173173.21663200017,"y":2540429.7500000019}},{"attributes":{"ID":6717,"DIS_CODE":0,"TOWNNAME":"仁德區","LI":"仁德里","LIN":"4鄰","STREET":"仁中三街","SECT":" ","MAREA":" ","LANE":" ","ALLEY":" ","HOUSE_NO":"１０８號","E_COORD97":173168.97927700001,"N_COORD97":2540429.75,"ADDRESS":"仁中三街１０８號","OBJECTID":6717},"geometry":{"x":173168.97927700076,"y":2540429.7500000019}},{"attributes":{"ID":6718,"DIS_CODE":0,"TOWNNAME":"仁德區","LI":"仁德里","LIN":"4鄰","STREET":"仁中三街","SECT":" ","MAREA":" ","LANE":" ","ALLEY":" ","HOUSE_NO":"１１０號","E_COORD97":173164.63598799999,"N_COORD97":2540429.75,"ADDRESS":"仁中三街１１０號","OBJECTID":6718},"geometry":{"x":173164.63598800078,"y":2540429.7500000019}},{"attributes":{"ID":6719,"DIS_CODE":0,"TOWNNAME":"永康區","LI":"北灣里","LIN":"16鄰","STREET":"文賢街","SECT":" ","MAREA":" ","LANE":"３５６巷","ALLEY":"１弄","HOUSE_NO":"１號","E_COORD97":174879.315863,"N_COORD97":2545825.3833900001,"ADDRESS":"文賢街３５６巷１弄１號","OBJECTID":6719},"geometry":{"x":174879.31586300116,"y":2545825.3833930027}},{"attributes":{"ID":6720,"DIS_CODE":0,"TOWNNAME":"新營區","LI":"土庫里","LIN":"5鄰","STREET":" ","SECT":" ","MAREA":"土庫","LANE":" ","ALLEY":" ","HOUSE_NO":"４３之１８號","E_COORD97":183459.335827,"N_COORD97":2579951.4229299999,"ADDRESS":"土庫４３之１８號","OBJECTID":6720},"geometry":{"x":183459.3358270023,"y":2579951.4229280017}},{"attributes":{"ID":6721,"DIS_CODE":0,"TOWNNAME":"新營區","LI":"延平里","LIN":"1鄰","STREET":"延平路","SECT":" ","MAREA":" ","LANE":" ","ALLEY":" ","HOUSE_NO":"４６號之３６","E_COORD97":179777.87266399999,"N_COORD97":2577794.1336400001,"ADDRESS":"延平路４６號之３６","OBJECTID":6721},"geometry":{"x":179777.87266400084,"y":2577794.1336429995}},{"attributes":{"ID":6722,"DIS_CODE":0,"TOWNNAME":"永康區","LI":"大橋里","LIN":"22鄰","STREET":"大橋一街","SECT":" ","MAREA":" ","LANE":"１３９巷","ALLEY":"２２弄","HOUSE_NO":"２０號","E_COORD97":171063.37085499999,"N_COORD97":2546586.29158,"ADDRESS":"大橋一街１３９巷２２弄２０號","OBJECTID":6722},"geometry":{"x":171063.37085500173,"y":2546586.2915820014}},{"attributes":{"ID":6723,"DIS_CODE":0,"TOWNNAME":"永康區","LI":"崑山里","LIN":"10鄰","STREET":"崑大路","SECT":" ","MAREA":" ","LANE":"２０１巷","ALLEY":"１８弄","HOUSE_NO":"１５號","E_COORD97":173232.69235200001,"N_COORD97":2544251.0803399999,"ADDRESS":"崑大路２０１巷１８弄１５號","OBJECTID":6723},"geometry":{"x":173232.69235200062,"y":2544251.0803430025}},{"attributes":{"ID":6724,"DIS_CODE":0,"TOWNNAME":"仁德區","LI":"仁德里","LIN":"3鄰","STREET":"仁中三街","SECT":" ","MAREA":" ","LANE":" ","ALLEY":" ","HOUSE_NO":"１１５號","E_COORD97":173159.54367099999,"N_COORD97":2540412.7915500002,"ADDRESS":"仁中三街１１５號","OBJECTID":6724},"geometry":{"x":173159.54367100075,"y":2540412.7915490028}},{"attributes":{"ID":6725,"DIS_CODE":0,"TOWNNAME":"永康區","LI":"\u25A0行里","LIN":"43鄰","STREET":"正南三路","SECT":" ","MAREA":" ","LANE":"１２６巷","ALLEY":" ","HOUSE_NO":"２８號","E_COORD97":171752.21256099999,"N_COORD97":2547598.6927,"ADDRESS":"正南三路１２６巷２８號","OBJECTID":6725},"geometry":{"x":171752.21256100014,"y":2547598.692702001}},{"attributes":{"ID":6726,"DIS_CODE":0,"TOWNNAME":"中西區","LI":"普濟里","LIN":"6鄰","STREET":"海安路","SECT":"二段","MAREA":" ","LANE":"２９６巷","ALLEY":" ","HOUSE_NO":"４２號","E_COORD97":167854.34614400001,"N_COORD97":2544381.4511199999,"ADDRESS":"海安路二段２９６巷４２號","OBJECTID":6726},"geometry":{"x":167854.34614400193,"y":2544381.4511200003}},{"attributes":{"ID":6727,"DIS_CODE":0,"TOWNNAME":"仁德區","LI":"仁德里","LIN":"4鄰","STREET":"仁中三街","SECT":" ","MAREA":" ","LANE":"８０巷","ALLEY":" ","HOUSE_NO":"１號","E_COORD97":173226.599812,"N_COORD97":2540443.1656999998,"ADDRESS":"仁中三街８０巷１號","OBJECTID":6727},"geometry":{"x":173226.59981200006,"y":2540443.1656990014}},{"attributes":{"ID":6728,"DIS_CODE":0,"TOWNNAME":"仁德區","LI":"仁德里","LIN":"4鄰","STREET":"仁中三街","SECT":" ","MAREA":" ","LANE":"８０巷","ALLEY":" ","HOUSE_NO":"３號","E_COORD97":173226.599812,"N_COORD97":2540448.8807000001,"ADDRESS":"仁中三街８０巷３號","OBJECTID":6728},"geometry":{"x":173226.59981200006,"y":2540448.8806960005}},{"attributes":{"ID":6729,"DIS_CODE":0,"TOWNNAME":"佳里區","LI":"蚶寮里","LIN":"10鄰","STREET":" ","SECT":" ","MAREA":" ","LANE":" ","ALLEY":" ","HOUSE_NO":"９５號之５","E_COORD97":163043.83551999999,"N_COORD97":2558772.6975199999,"ADDRESS":"９５號之５","OBJECTID":6729},"geometry":{"x":163043.83552000113,"y":2558772.6975230016}},{"attributes":{"ID":6730,"DIS_CODE":0,"TOWNNAME":"中西區","LI":"普濟里","LIN":"6鄰","STREET":"海安路","SECT":"二段","MAREA":" ","LANE":"２９６巷","ALLEY":" ","HOUSE_NO":"４０號","E_COORD97":167848.197036,"N_COORD97":2544379.41383,"ADDRESS":"海安路二段２９６巷４０號","OBJECTID":6730},"geometry":{"x":167848.1970360009,"y":2544379.4138290044}},{"attributes":{"ID":6731,"DIS_CODE":0,"TOWNNAME":"仁德區","LI":"仁德里","LIN":"4鄰","STREET":"仁中三街","SECT":" ","MAREA":" ","LANE":"８０巷","ALLEY":" ","HOUSE_NO":"５號","E_COORD97":173226.599812,"N_COORD97":2540454.4369399999,"ADDRESS":"仁中三街８０巷５號","OBJECTID":6731},"geometry":{"x":173226.59981200006,"y":2540454.4369430002}},{"attributes":{"ID":6732,"DIS_CODE":0,"TOWNNAME":"仁德區","LI":"仁德里","LIN":"4鄰","STREET":"仁中三街","SECT":" ","MAREA":" ","LANE":"８０巷","ALLEY":" ","HOUSE_NO":"７號","E_COORD97":173226.599812,"N_COORD97":2540461.2102700002,"ADDRESS":"仁中三街８０巷７號","OBJECTID":6732},"geometry":{"x":173226.59981200006,"y":2540461.2102730013}},{"attributes":{"ID":6733,"DIS_CODE":0,"TOWNNAME":"仁德區","LI":"仁德里","LIN":"4鄰","STREET":"仁中三街","SECT":" ","MAREA":" ","LANE":"８０巷","ALLEY":" ","HOUSE_NO":"９號","E_COORD97":173226.599812,"N_COORD97":2540473.0636,"ADDRESS":"仁中三街８０巷９號","OBJECTID":6733},"geometry":{"x":173226.59981200006,"y":2540473.0636000019}},{"attributes":{"ID":6734,"DIS_CODE":0,"TOWNNAME":"仁德區","LI":"仁德里","LIN":"4鄰","STREET":"仁中三街","SECT":" ","MAREA":" ","LANE":"８０巷","ALLEY":" ","HOUSE_NO":"１１號","E_COORD97":173226.599812,"N_COORD97":2540479.20193,"ADDRESS":"仁中三街８０巷１１號","OBJECTID":6734},"geometry":{"x":173226.59981200006,"y":2540479.2019299995}},{"attributes":{"ID":6735,"DIS_CODE":0,"TOWNNAME":"東山區","LI":"科里里","LIN":"21鄰","STREET":" ","SECT":" ","MAREA":"枋子林","LANE":" ","ALLEY":" ","HOUSE_NO":"７４號之１","E_COORD97":188070.13649999999,"N_COORD97":2576730.52146,"ADDRESS":"枋子林７４號之１","OBJECTID":6735},"geometry":{"x":188070.13650000188,"y":2576730.5214600004}},{"attributes":{"ID":6736,"DIS_CODE":0,"TOWNNAME":"仁德區","LI":"仁德里","LIN":"4鄰","STREET":"仁中三街","SECT":" ","MAREA":" ","LANE":"８０巷","ALLEY":" ","HOUSE_NO":"１３號","E_COORD97":173226.599812,"N_COORD97":2540484.2819300001,"ADDRESS":"仁中三街８０巷１３號","OBJECTID":6736},"geometry":{"x":173226.59981200006,"y":2540484.2819270045}},{"attributes":{"ID":6737,"DIS_CODE":0,"TOWNNAME":"仁德區","LI":"仁德里","LIN":"4鄰","STREET":"仁中三街","SECT":" ","MAREA":" ","LANE":"８０巷","ALLEY":" ","HOUSE_NO":"１５號","E_COORD97":173226.599812,"N_COORD97":2540490.6319200001,"ADDRESS":"仁中三街８０巷１５號","OBJECTID":6737},"geometry":{"x":173226.59981200006,"y":2540490.6319240015}},{"attributes":{"ID":6738,"DIS_CODE":0,"TOWNNAME":"仁德區","LI":"仁德里","LIN":"4鄰","STREET":"仁中三街","SECT":" ","MAREA":" ","LANE":" ","ALLEY":" ","HOUSE_NO":"１１２號","E_COORD97":173159.96740699999,"N_COORD97":2540429.75,"ADDRESS":"仁中三街１１２號","OBJECTID":6738},"geometry":{"x":173159.96740700118,"y":2540429.7500000019}},{"attributes":{"ID":6739,"DIS_CODE":0,"TOWNNAME":"東山區","LI":"科里里","LIN":"21鄰","STREET":" ","SECT":" ","MAREA":"枋子林","LANE":" ","ALLEY":" ","HOUSE_NO":"７４號之２","E_COORD97":188073.52689000001,"N_COORD97":2576719.5148,"ADDRESS":"枋子林７４號之２","OBJECTID":6739},"geometry":{"x":188073.52689000126,"y":2576719.5147999991}},{"attributes":{"ID":6740,"DIS_CODE":0,"TOWNNAME":"仁德區","LI":"仁德里","LIN":"4鄰","STREET":"仁中三街","SECT":" ","MAREA":" ","LANE":"８０巷","ALLEY":" ","HOUSE_NO":"１７號","E_COORD97":173226.599812,"N_COORD97":2540495.9235899998,"ADDRESS":"仁中三街８０巷１７號","OBJECTID":6740},"geometry":{"x":173226.59981200006,"y":2540495.9235869981}},{"attributes":{"ID":6741,"DIS_CODE":0,"TOWNNAME":"仁德區","LI":"仁德里","LIN":"4鄰","STREET":"仁中三街","SECT":" ","MAREA":" ","LANE":"８０巷","ALLEY":" ","HOUSE_NO":"１９號","E_COORD97":173226.599812,"N_COORD97":2540507.77691,"ADDRESS":"仁中三街８０巷１９號","OBJECTID":6741},"geometry":{"x":173226.59981200006,"y":2540507.7769140005}},{"attributes":{"ID":6742,"DIS_CODE":0,"TOWNNAME":"中西區","LI":"普濟里","LIN":"13鄰","STREET":"海安路","SECT":"二段","MAREA":" ","LANE":"３３０巷","ALLEY":" ","HOUSE_NO":"２２號","E_COORD97":167876.822197,"N_COORD97":2544450.3221200001,"ADDRESS":"海安路二段３３０巷２２號","OBJECTID":6742},"geometry":{"x":167876.8221970005,"y":2544450.3221240044}},{"attributes":{"ID":6743,"DIS_CODE":0,"TOWNNAME":"仁德區","LI":"仁德里","LIN":"4鄰","STREET":"仁中三街","SECT":" ","MAREA":" ","LANE":"８０巷","ALLEY":" ","HOUSE_NO":"２１號","E_COORD97":173226.599812,"N_COORD97":2540514.3385800002,"ADDRESS":"仁中三街８０巷２１號","OBJECTID":6743},"geometry":{"x":173226.59981200006,"y":2540514.3385770004}},{"attributes":{"ID":6744,"DIS_CODE":0,"TOWNNAME":"仁德區","LI":"仁德里","LIN":"4鄰","STREET":"仁中三街","SECT":" ","MAREA":" ","LANE":"８０巷","ALLEY":" ","HOUSE_NO":"２３號","E_COORD97":173226.599812,"N_COORD97":2540521.5352400001,"ADDRESS":"仁中三街８０巷２３號","OBJECTID":6744},"geometry":{"x":173226.59981200006,"y":2540521.5352400001}},{"attributes":{"ID":6745,"DIS_CODE":0,"TOWNNAME":"仁德區","LI":"仁德里","LIN":"4鄰","STREET":"仁中二街","SECT":" ","MAREA":" ","LANE":" ","ALLEY":" ","HOUSE_NO":"５１號","E_COORD97":173223.91865100001,"N_COORD97":2540535.0819000001,"ADDRESS":"仁中二街５１號","OBJECTID":6745},"geometry":{"x":173223.91865099967,"y":2540535.0819000043}},{"attributes":{"ID":6746,"DIS_CODE":0,"TOWNNAME":"東山區","LI":"科里里","LIN":"21鄰","STREET":" ","SECT":" ","MAREA":"枋子林","LANE":" ","ALLEY":" ","HOUSE_NO":"７４號之３","E_COORD97":188018.64496999999,"N_COORD97":2576736.2364599998,"ADDRESS":"枋子林７４號之３","OBJECTID":6746},"geometry":{"x":188018.64496999979,"y":2576736.2364600021}},{"attributes":{"ID":6747,"DIS_CODE":0,"TOWNNAME":"南區","LI":"喜東里","LIN":"10鄰","STREET":"永成路","SECT":"二段","MAREA":" ","LANE":" ","ALLEY":" ","HOUSE_NO":"３９６號","E_COORD97":167743.53268999999,"N_COORD97":2538757.75245,"ADDRESS":"永成路二段３９６號","OBJECTID":6747},"geometry":{"x":167743.53268999979,"y":2538757.7524500005}},{"attributes":{"ID":6748,"DIS_CODE":0,"TOWNNAME":"仁德區","LI":"仁德里","LIN":"4鄰","STREET":"仁中二街","SECT":" ","MAREA":" ","LANE":" ","ALLEY":" ","HOUSE_NO":"５３號","E_COORD97":173216.291413,"N_COORD97":2540535.0819000001,"ADDRESS":"仁中二街５３號","OBJECTID":6748},"geometry":{"x":173216.29141300172,"y":2540535.0819000043}},{"attributes":{"ID":6749,"DIS_CODE":0,"TOWNNAME":"永康區","LI":"蔦松里","LIN":"2鄰","STREET":"中正北路","SECT":" ","MAREA":" ","LANE":"５２１巷","ALLEY":"８弄","HOUSE_NO":"１號","E_COORD97":173832.938417,"N_COORD97":2549213.3909999998,"ADDRESS":"中正北路５２１巷８弄１號","OBJECTID":6749},"geometry":{"x":173832.93841699976,"y":2549213.390997}},{"attributes":{"ID":6750,"DIS_CODE":0,"TOWNNAME":"仁德區","LI":"仁德里","LIN":"4鄰","STREET":"仁中二街","SECT":" ","MAREA":" ","LANE":" ","ALLEY":" ","HOUSE_NO":"５５號","E_COORD97":173210.99471900001,"N_COORD97":2540535.0819000001,"ADDRESS":"仁中二街５５號","OBJECTID":6750},"geometry":{"x":173210.9947189996,"y":2540535.0819000043}},{"attributes":{"ID":6751,"DIS_CODE":0,"TOWNNAME":"永康區","LI":"蔦松里","LIN":"2鄰","STREET":"中正北路","SECT":" ","MAREA":" ","LANE":"５２１巷","ALLEY":"８弄","HOUSE_NO":"３號","E_COORD97":173838.87305299999,"N_COORD97":2549215.7193300002,"ADDRESS":"中正北路５２１巷８弄３號","OBJECTID":6751},"geometry":{"x":173838.87305300031,"y":2549215.7193290032}},{"attributes":{"ID":6752,"DIS_CODE":0,"TOWNNAME":"東山區","LI":"科里里","LIN":"21鄰","STREET":" ","SECT":" ","MAREA":"枋子林","LANE":" ","ALLEY":" ","HOUSE_NO":"７４號之４","E_COORD97":187998.090749,"N_COORD97":2576751.2647899999,"ADDRESS":"枋子林７４號之４","OBJECTID":6752},"geometry":{"x":187998.09074900113,"y":2576751.2647860013}},{"attributes":{"ID":6753,"DIS_CODE":0,"TOWNNAME":"仁德區","LI":"仁德里","LIN":"4鄰","STREET":"仁中二街","SECT":" ","MAREA":" ","LANE":" ","ALLEY":" ","HOUSE_NO":"５７號","E_COORD97":173206.22769500001,"N_COORD97":2540535.0819000001,"ADDRESS":"仁中二街５７號","OBJECTID":6753},"geometry":{"x":173206.22769500129,"y":2540535.0819000043}},{"attributes":{"ID":6754,"DIS_CODE":0,"TOWNNAME":"仁德區","LI":"仁德里","LIN":"4鄰","STREET":"仁中二街","SECT":" ","MAREA":" ","LANE":" ","ALLEY":" ","HOUSE_NO":"５９號","E_COORD97":173201.56660399999,"N_COORD97":2540535.0819000001,"ADDRESS":"仁中二街５９號","OBJECTID":6754},"geometry":{"x":173201.56660400052,"y":2540535.0819000043}},{"attributes":{"ID":6755,"DIS_CODE":0,"TOWNNAME":"仁德區","LI":"仁德里","LIN":"4鄰","STREET":"仁中二街","SECT":" ","MAREA":" ","LANE":" ","ALLEY":" ","HOUSE_NO":"６１號","E_COORD97":173196.79957999999,"N_COORD97":2540535.0819000001,"ADDRESS":"仁中二街６１號","OBJECTID":6755},"geometry":{"x":173196.7995800022,"y":2540535.0819000043}},{"attributes":{"ID":6756,"DIS_CODE":0,"TOWNNAME":"仁德區","LI":"仁德里","LIN":"4鄰","STREET":"仁中二街","SECT":" ","MAREA":" ","LANE":" ","ALLEY":" ","HOUSE_NO":"６３號","E_COORD97":173191.502886,"N_COORD97":2540535.0819000001,"ADDRESS":"仁中二街６３號","OBJECTID":6756},"geometry":{"x":173191.50288600009,"y":2540535.0819000043}},{"attributes":{"ID":6757,"DIS_CODE":0,"TOWNNAME":"仁德區","LI":"仁德里","LIN":"4鄰","STREET":"仁中二街","SECT":" ","MAREA":" ","LANE":" ","ALLEY":" ","HOUSE_NO":"６５號","E_COORD97":173187.05366400001,"N_COORD97":2540535.0819000001,"ADDRESS":"仁中二街６５號","OBJECTID":6757},"geometry":{"x":173187.05366399977,"y":2540535.0819000043}},{"attributes":{"ID":6758,"DIS_CODE":0,"TOWNNAME":"仁德區","LI":"仁德里","LIN":"4鄰","STREET":"仁中二街","SECT":" ","MAREA":" ","LANE":" ","ALLEY":" ","HOUSE_NO":"６７號","E_COORD97":173182.604441,"N_COORD97":2540535.0819000001,"ADDRESS":"仁中二街６７號","OBJECTID":6758},"geometry":{"x":173182.60444100015,"y":2540535.0819000043}},{"attributes":{"ID":6759,"DIS_CODE":0,"TOWNNAME":"仁德區","LI":"仁德里","LIN":"4鄰","STREET":"仁中二街","SECT":" ","MAREA":" ","LANE":" ","ALLEY":" ","HOUSE_NO":"６９號","E_COORD97":173178.15521900001,"N_COORD97":2540535.0819000001,"ADDRESS":"仁中二街６９號","OBJECTID":6759},"geometry":{"x":173178.1552190017,"y":2540535.0819000043}},{"attributes":{"ID":6760,"DIS_CODE":0,"TOWNNAME":"仁德區","LI":"仁德里","LIN":"4鄰","STREET":"仁中二街","SECT":" ","MAREA":" ","LANE":" ","ALLEY":" ","HOUSE_NO":"７１號","E_COORD97":173173.81193,"N_COORD97":2540535.0819000001,"ADDRESS":"仁中二街７１號","OBJECTID":6760},"geometry":{"x":173173.81193000171,"y":2540535.0819000043}},{"attributes":{"ID":6761,"DIS_CODE":0,"TOWNNAME":"仁德區","LI":"仁德里","LIN":"4鄰","STREET":"仁中二街","SECT":" ","MAREA":" ","LANE":" ","ALLEY":" ","HOUSE_NO":"７３號","E_COORD97":173169.680509,"N_COORD97":2540535.0819000001,"ADDRESS":"仁中二街７３號","OBJECTID":6761},"geometry":{"x":173169.68050900009,"y":2540535.0819000043}},{"attributes":{"ID":6762,"DIS_CODE":0,"TOWNNAME":"永康區","LI":"蔦松里","LIN":"2鄰","STREET":"中正北路","SECT":" ","MAREA":" ","LANE":"５２１巷","ALLEY":"８弄","HOUSE_NO":"５號","E_COORD97":173843.95988400001,"N_COORD97":2549217.4126599999,"ADDRESS":"中正北路５２１巷８弄５號","OBJECTID":6762},"geometry":{"x":173843.95988400094,"y":2549217.4126610011}},{"attributes":{"ID":6763,"DIS_CODE":0,"TOWNNAME":"仁德區","LI":"仁德里","LIN":"4鄰","STREET":"仁中二街","SECT":" ","MAREA":" ","LANE":" ","ALLEY":" ","HOUSE_NO":"７５號","E_COORD97":173165.01941800001,"N_COORD97":2540535.0819000001,"ADDRESS":"仁中二街７５號","OBJECTID":6763},"geometry":{"x":173165.01941800211,"y":2540535.0819000043}},{"attributes":{"ID":6764,"DIS_CODE":0,"TOWNNAME":"永康區","LI":"蔦松里","LIN":"2鄰","STREET":"中正北路","SECT":" ","MAREA":" ","LANE":"５２１巷","ALLEY":"８弄","HOUSE_NO":"７號","E_COORD97":173847.139154,"N_COORD97":2549219.3176600002,"ADDRESS":"中正北路５２１巷８弄７號","OBJECTID":6764},"geometry":{"x":173847.13915400021,"y":2549219.3176600002}},{"attributes":{"ID":6765,"DIS_CODE":0,"TOWNNAME":"永康區","LI":"蔦松里","LIN":"2鄰","STREET":"中正北路","SECT":" ","MAREA":" ","LANE":"５２１巷","ALLEY":"８弄","HOUSE_NO":"９號","E_COORD97":173851.590131,"N_COORD97":2549221.0109899999,"ADDRESS":"中正北路５２１巷８弄９號","OBJECTID":6765},"geometry":{"x":173851.59013100062,"y":2549221.010993002}},{"attributes":{"ID":6766,"DIS_CODE":0,"TOWNNAME":"永康區","LI":"蔦松里","LIN":"2鄰","STREET":"中正北路","SECT":" ","MAREA":" ","LANE":"５２１巷","ALLEY":"８弄","HOUSE_NO":"１１號","E_COORD97":173854.55744900001,"N_COORD97":2549222.49266,"ADDRESS":"中正北路５２１巷８弄１１號","OBJECTID":6766},"geometry":{"x":173854.55744899996,"y":2549222.4926580004}},{"attributes":{"ID":6767,"DIS_CODE":0,"TOWNNAME":"東山區","LI":"科里里","LIN":"21鄰","STREET":" ","SECT":" ","MAREA":"枋子林","LANE":" ","ALLEY":" ","HOUSE_NO":"７８號之１","E_COORD97":188023.94245999999,"N_COORD97":2576759.3081100001,"ADDRESS":"枋子林７８號之１","OBJECTID":6767},"geometry":{"x":188023.94246000051,"y":2576759.3081150036}},{"attributes":{"ID":6768,"DIS_CODE":0,"TOWNNAME":"仁德區","LI":"仁德里","LIN":"4鄰","STREET":"仁中八街","SECT":" ","MAREA":" ","LANE":"３０巷","ALLEY":" ","HOUSE_NO":"１號","E_COORD97":173164.27788099999,"N_COORD97":2540508.7823299998,"ADDRESS":"仁中八街３０巷１號","OBJECTID":6768},"geometry":{"x":173164.27788100019,"y":2540508.7823300008}},{"attributes":{"ID":6769,"DIS_CODE":0,"TOWNNAME":"永康區","LI":"蔦松里","LIN":"2鄰","STREET":"中正北路","SECT":" ","MAREA":" ","LANE":"５２１巷","ALLEY":"８弄","HOUSE_NO":"１３號","E_COORD97":173857.94867000001,"N_COORD97":2549223.97432,"ADDRESS":"中正北路５２１巷８弄１３號","OBJECTID":6769},"geometry":{"x":173857.94867000077,"y":2549223.974324001}},{"attributes":{"ID":6770,"DIS_CODE":0,"TOWNNAME":"仁德區","LI":"仁德里","LIN":"4鄰","STREET":"仁中八街","SECT":" ","MAREA":" ","LANE":"３０巷","ALLEY":" ","HOUSE_NO":"３號","E_COORD97":173168.51523600001,"N_COORD97":2540508.7823299998,"ADDRESS":"仁中八街３０巷３號","OBJECTID":6770},"geometry":{"x":173168.5152359996,"y":2540508.7823300008}},{"attributes":{"ID":6771,"DIS_CODE":0,"TOWNNAME":"仁德區","LI":"仁德里","LIN":"4鄰","STREET":"仁中八街","SECT":" ","MAREA":" ","LANE":"３０巷","ALLEY":" ","HOUSE_NO":"５號","E_COORD97":173172.646657,"N_COORD97":2540508.7823299998,"ADDRESS":"仁中八街３０巷５號","OBJECTID":6771},"geometry":{"x":173172.64665700123,"y":2540508.7823300008}},{"attributes":{"ID":6772,"DIS_CODE":0,"TOWNNAME":"永康區","LI":"蔦松里","LIN":"2鄰","STREET":"中正北路","SECT":" ","MAREA":" ","LANE":"５２１巷","ALLEY":"８弄","HOUSE_NO":"１５號","E_COORD97":173859.85623100001,"N_COORD97":2549225.03266,"ADDRESS":"中正北路５２１巷８弄１５號","OBJECTID":6772},"geometry":{"x":173859.85623100121,"y":2549225.0326569993}},{"attributes":{"ID":6773,"DIS_CODE":0,"TOWNNAME":"仁德區","LI":"仁德里","LIN":"4鄰","STREET":"仁中八街","SECT":" ","MAREA":" ","LANE":"３０巷","ALLEY":" ","HOUSE_NO":"７號","E_COORD97":173176.88401199999,"N_COORD97":2540508.7823299998,"ADDRESS":"仁中八街３０巷７號","OBJECTID":6773},"geometry":{"x":173176.88401200157,"y":2540508.7823300008}},{"attributes":{"ID":6774,"DIS_CODE":0,"TOWNNAME":"仁德區","LI":"仁德里","LIN":"4鄰","STREET":"仁中八街","SECT":" ","MAREA":" ","LANE":"３０巷","ALLEY":" ","HOUSE_NO":"９號","E_COORD97":173181.545102,"N_COORD97":2540508.7823299998,"ADDRESS":"仁中八街３０巷９號","OBJECTID":6774},"geometry":{"x":173181.54510200024,"y":2540508.7823300008}},{"attributes":{"ID":6775,"DIS_CODE":0,"TOWNNAME":"南區","LI":"大忠里","LIN":"10鄰","STREET":"公英一街","SECT":" ","MAREA":" ","LANE":"７７巷","ALLEY":"１２弄","HOUSE_NO":"８號","E_COORD97":169268.87242999999,"N_COORD97":2541114.23618,"ADDRESS":"公英一街７７巷１２弄８號","OBJECTID":6775},"geometry":{"x":169268.87243000045,"y":2541114.2361840047}},{"attributes":{"ID":6776,"DIS_CODE":0,"TOWNNAME":"南區","LI":"大忠里","LIN":"10鄰","STREET":"公英一街","SECT":" ","MAREA":" ","LANE":"７７巷","ALLEY":"１２弄","HOUSE_NO":"１０號","E_COORD97":169264.42517500001,"N_COORD97":2541114.4478500001,"ADDRESS":"公英一街７７巷１２弄１０號","OBJECTID":6776},"geometry":{"x":169264.42517500091,"y":2541114.447850002}},{"attributes":{"ID":6777,"DIS_CODE":0,"TOWNNAME":"安南區","LI":"公親里","LIN":"1鄰","STREET":"公學路","SECT":"一段","MAREA":" ","LANE":"２２６巷","ALLEY":" ","HOUSE_NO":"１９號","E_COORD97":167930.73339000001,"N_COORD97":2552948.65931,"ADDRESS":"公學路一段２２６巷１９號","OBJECTID":6777},"geometry":{"x":167930.73339000158,"y":2552948.6593100019}},{"attributes":{"ID":6778,"DIS_CODE":0,"TOWNNAME":"南區","LI":"大忠里","LIN":"10鄰","STREET":"公英一街","SECT":" ","MAREA":" ","LANE":"７７巷","ALLEY":"１２弄","HOUSE_NO":"１２號","E_COORD97":169258.91905,"N_COORD97":2541113.8128499999,"ADDRESS":"公英一街７７巷１２弄１２號","OBJECTID":6778},"geometry":{"x":169258.91904999968,"y":2541113.8128510006}},{"attributes":{"ID":6779,"DIS_CODE":0,"TOWNNAME":"仁德區","LI":"仁德里","LIN":"4鄰","STREET":"仁中八街","SECT":" ","MAREA":" ","LANE":"３０巷","ALLEY":" ","HOUSE_NO":"１５號","E_COORD97":173194.78683699999,"N_COORD97":2540508.7823299998,"ADDRESS":"仁中八街３０巷１５號","OBJECTID":6779},"geometry":{"x":173194.78683700226,"y":2540508.7823300008}},{"attributes":{"ID":6780,"DIS_CODE":0,"TOWNNAME":"仁德區","LI":"仁德里","LIN":"4鄰","STREET":"仁中八街","SECT":" ","MAREA":" ","LANE":"３０巷","ALLEY":" ","HOUSE_NO":"１７號","E_COORD97":173199.130125,"N_COORD97":2540508.7823299998,"ADDRESS":"仁中八街３０巷１７號","OBJECTID":6780},"geometry":{"x":173199.13012500014,"y":2540508.7823300008}},{"attributes":{"ID":6781,"DIS_CODE":0,"TOWNNAME":"南區","LI":"大忠里","LIN":"20鄰","STREET":"公英一街","SECT":" ","MAREA":" ","LANE":"７７巷","ALLEY":"１２弄","HOUSE_NO":"１８號","E_COORD97":169247.27147599999,"N_COORD97":2541112.75452,"ADDRESS":"公英一街７７巷１２弄１８號","OBJECTID":6781},"geometry":{"x":169247.27147599962,"y":2541112.7545180023}},{"attributes":{"ID":6782,"DIS_CODE":0,"TOWNNAME":"仁德區","LI":"仁德里","LIN":"4鄰","STREET":"仁中八街","SECT":" ","MAREA":" ","LANE":"３０巷","ALLEY":" ","HOUSE_NO":"２１號","E_COORD97":173208.45230599999,"N_COORD97":2540508.7823299998,"ADDRESS":"仁中八街３０巷２１號","OBJECTID":6782},"geometry":{"x":173208.45230599865,"y":2540508.7823300008}},{"attributes":{"ID":6783,"DIS_CODE":0,"TOWNNAME":"南區","LI":"大忠里","LIN":"20鄰","STREET":"公英一街","SECT":" ","MAREA":" ","LANE":"７７巷","ALLEY":"１２弄","HOUSE_NO":"２０號","E_COORD97":169241.55357700001,"N_COORD97":2541112.1195200002,"ADDRESS":"公英一街７７巷１２弄２０號","OBJECTID":6783},"geometry":{"x":169241.55357700121,"y":2541112.1195180044}},{"attributes":{"ID":6784,"DIS_CODE":0,"TOWNNAME":"南區","LI":"大忠里","LIN":"20鄰","STREET":"公英一街","SECT":" ","MAREA":" ","LANE":"７７巷","ALLEY":"１２弄","HOUSE_NO":"２２號","E_COORD97":169236.25922499999,"N_COORD97":2541111.4845199999,"ADDRESS":"公英一街７７巷１２弄２２號","OBJECTID":6784},"geometry":{"x":169236.25922500156,"y":2541111.484519003}},{"attributes":{"ID":6785,"DIS_CODE":0,"TOWNNAME":"仁德區","LI":"仁德里","LIN":"4鄰","STREET":"仁中八街","SECT":" ","MAREA":" ","LANE":"３０巷","ALLEY":" ","HOUSE_NO":"２３號","E_COORD97":173212.68966100001,"N_COORD97":2540508.7823299998,"ADDRESS":"仁中八街３０巷２３號","OBJECTID":6785},"geometry":{"x":173212.68966100086,"y":2540508.7823300008}},{"attributes":{"ID":6786,"DIS_CODE":0,"TOWNNAME":"東山區","LI":"科里里","LIN":"22鄰","STREET":" ","SECT":" ","MAREA":"枋子林","LANE":" ","ALLEY":" ","HOUSE_NO":"７９號之４","E_COORD97":188914.13128999999,"N_COORD97":2576965.2596700001,"ADDRESS":"枋子林７９號之４","OBJECTID":6786},"geometry":{"x":188914.13128999993,"y":2576965.2596700005}},{"attributes":{"ID":6787,"DIS_CODE":0,"TOWNNAME":"南區","LI":"大忠里","LIN":"20鄰","STREET":"公英一街","SECT":" ","MAREA":" ","LANE":"７７巷","ALLEY":"１２弄","HOUSE_NO":"２６號","E_COORD97":169229.48245499999,"N_COORD97":2541112.0136899999,"ADDRESS":"公英一街７７巷１２弄２６號","OBJECTID":6787},"geometry":{"x":169229.48245500121,"y":2541112.0136849973}},{"attributes":{"ID":6788,"DIS_CODE":0,"TOWNNAME":"永康區","LI":"永康里","LIN":"37鄰","STREET":"西勢路","SECT":" ","MAREA":" ","LANE":"７３８巷","ALLEY":" ","HOUSE_NO":"２號","E_COORD97":174556.540136,"N_COORD97":2546761.8689899999,"ADDRESS":"西勢路７３８巷２號","OBJECTID":6788},"geometry":{"x":174556.54013600107,"y":2546761.8689870015}},{"attributes":{"ID":6789,"DIS_CODE":0,"TOWNNAME":"永康區","LI":"永康里","LIN":"37鄰","STREET":"西勢路","SECT":" ","MAREA":" ","LANE":"７３８巷","ALLEY":" ","HOUSE_NO":"６號","E_COORD97":174555.05647700001,"N_COORD97":2546766.9489799999,"ADDRESS":"西勢路７３８巷６號","OBJECTID":6789},"geometry":{"x":174555.05647700187,"y":2546766.9489840008}},{"attributes":{"ID":6790,"DIS_CODE":0,"TOWNNAME":"永康區","LI":"永康里","LIN":"37鄰","STREET":"西勢路","SECT":" ","MAREA":" ","LANE":" ","ALLEY":" ","HOUSE_NO":"７２６號","E_COORD97":174562.898674,"N_COORD97":2546757.8473200002,"ADDRESS":"西勢路７２６號","OBJECTID":6790},"geometry":{"x":174562.89867400099,"y":2546757.8473230004}},{"attributes":{"ID":6791,"DIS_CODE":0,"TOWNNAME":"佳里區","LI":"建南里","LIN":"14鄰","STREET":"佳南路","SECT":" ","MAREA":" ","LANE":" ","ALLEY":" ","HOUSE_NO":"７９９號","E_COORD97":164816.61425700001,"N_COORD97":2561475.0012400001,"ADDRESS":"佳南路７９９號","OBJECTID":6791},"geometry":{"x":164816.61425700225,"y":2561475.0012420043}},{"attributes":{"ID":6792,"DIS_CODE":0,"TOWNNAME":"仁德區","LI":"仁德里","LIN":"4鄰","STREET":"仁中八街","SECT":" ","MAREA":" ","LANE":"３０巷","ALLEY":" ","HOUSE_NO":"１１號","E_COORD97":173185.676523,"N_COORD97":2540508.7823299998,"ADDRESS":"仁中八街３０巷１１號","OBJECTID":6792},"geometry":{"x":173185.676523,"y":2540508.7823300008}},{"attributes":{"ID":6793,"DIS_CODE":0,"TOWNNAME":"仁德區","LI":"仁德里","LIN":"4鄰","STREET":"仁中八街","SECT":" ","MAREA":" ","LANE":"３０巷","ALLEY":" ","HOUSE_NO":"１３號","E_COORD97":173190.01981200001,"N_COORD97":2540508.7823299998,"ADDRESS":"仁中八街３０巷１３號","OBJECTID":6793},"geometry":{"x":173190.01981200185,"y":2540508.7823300008}},{"attributes":{"ID":6794,"DIS_CODE":0,"TOWNNAME":"東山區","LI":"科里里","LIN":"22鄰","STREET":" ","SECT":" ","MAREA":"枋子林","LANE":" ","ALLEY":" ","HOUSE_NO":"７９號之１","E_COORD97":188916.67408,"N_COORD97":2576969.4929999998,"ADDRESS":"枋子林７９號之１","OBJECTID":6794},"geometry":{"x":188916.67408000119,"y":2576969.4929999989}},{"attributes":{"ID":6795,"DIS_CODE":0,"TOWNNAME":"南區","LI":"大忠里","LIN":"20鄰","STREET":"公英一街","SECT":" ","MAREA":" ","LANE":"７７巷","ALLEY":"１２弄","HOUSE_NO":"１６號","E_COORD97":169253.20115000001,"N_COORD97":2541113.3895200002,"ADDRESS":"公英一街７７巷１２弄１６號","OBJECTID":6795},"geometry":{"x":169253.20115000196,"y":2541113.389518002}},{"attributes":{"ID":6796,"DIS_CODE":0,"TOWNNAME":"仁德區","LI":"仁德里","LIN":"4鄰","STREET":"仁中八街","SECT":" ","MAREA":" ","LANE":"３０巷","ALLEY":" ","HOUSE_NO":"１９號","E_COORD97":173203.68528199999,"N_COORD97":2540508.7823299998,"ADDRESS":"仁中八街３０巷１９號","OBJECTID":6796},"geometry":{"x":173203.68528200034,"y":2540508.7823300008}},{"attributes":{"ID":6797,"DIS_CODE":0,"TOWNNAME":"南區","LI":"大忠里","LIN":"20鄰","STREET":"公英一街","SECT":" ","MAREA":" ","LANE":"７７巷","ALLEY":"１２弄","HOUSE_NO":"２８號","E_COORD97":169222.07036300001,"N_COORD97":2541111.8020199998,"ADDRESS":"公英一街７７巷１２弄２８號","OBJECTID":6797},"geometry":{"x":169222.07036300004,"y":2541111.8020180017}},{"attributes":{"ID":6798,"DIS_CODE":0,"TOWNNAME":"安南區","LI":"公親里","LIN":"1鄰","STREET":"公學路","SECT":"一段","MAREA":" ","LANE":"２２６巷","ALLEY":" ","HOUSE_NO":"１９號","E_COORD97":168066.319957,"N_COORD97":2553133.7406700002,"ADDRESS":"公學路一段２２６巷１９號","OBJECTID":6798},"geometry":{"x":168066.31995700207,"y":2553133.740673}},{"attributes":{"ID":6799,"DIS_CODE":0,"TOWNNAME":"東山區","LI":"科里里","LIN":"22鄰","STREET":" ","SECT":" ","MAREA":"枋子林","LANE":" ","ALLEY":" ","HOUSE_NO":"８２號","E_COORD97":188957.358748,"N_COORD97":2576991.5063200002,"ADDRESS":"枋子林８２號","OBJECTID":6799},"geometry":{"x":188957.35874800105,"y":2576991.5063230023}},{"attributes":{"ID":6800,"DIS_CODE":0,"TOWNNAME":"佳里區","LI":"建南里","LIN":"16鄰","STREET":"建中街","SECT":" ","MAREA":" ","LANE":" ","ALLEY":" ","HOUSE_NO":"１２５號","E_COORD97":165580.26019299999,"N_COORD97":2562047.8645500001,"ADDRESS":"建中街１２５號","OBJECTID":6800},"geometry":{"x":165580.26019299962,"y":2562047.8645500019}}]}