{"displayFieldName":"TOWNNAME","fieldAliases":{"ID":"ID","DIS_CODE":"DIS_CODE","TOWNNAME":"TOWNNAME","LI":"LI","LIN":"LIN","STREET":"STREET","SECT":"SECT","MAREA":"MAREA","LANE":"LANE","ALLEY":"ALLEY","HOUSE_NO":"HOUSE_NO","E_COORD97":"E_COORD97","N_COORD97":"N_COORD97","ADDRESS":"ADDRESS","OBJECTID":"OBJECTID"},"geometryType":"esriGeometryPoint","spatialReference":{"wkid":102443,"latestWkid":3826},"fields":[{"name":"ID","type":"esriFieldTypeDouble","alias":"ID"},{"name":"DIS_CODE","type":"esriFieldTypeInteger","alias":"DIS_CODE"},{"name":"TOWNNAME","type":"esriFieldTypeString","alias":"TOWNNAME","length":8},{"name":"LI","type":"esriFieldTypeString","alias":"LI","length":8},{"name":"LIN","type":"esriFieldTypeString","alias":"LIN","length":12},{"name":"STREET","type":"esriFieldTypeString","alias":"STREET","length":20},{"name":"SECT","type":"esriFieldTypeString","alias":"SECT","length":8},{"name":"MAREA","type":"esriFieldTypeString","alias":"MAREA","length":12},{"name":"LANE","type":"esriFieldTypeString","alias":"LANE","length":10},{"name":"ALLEY","type":"esriFieldTypeString","alias":"ALLEY","length":10},{"name":"HOUSE_NO","type":"esriFieldTypeString","alias":"HOUSE_NO","length":20},{"name":"E_COORD97","type":"esriFieldTypeDouble","alias":"E_COORD97"},{"name":"N_COORD97","type":"esriFieldTypeDouble","alias":"N_COORD97"},{"name":"ADDRESS","type":"esriFieldTypeString","alias":"ADDRESS","length":50},{"name":"OBJECTID","type":"esriFieldTypeOID","alias":"OBJECTID"}],"features":[{"attributes":{"ID":25401,"DIS_CODE":0,"TOWNNAME":"東區","LI":"後甲里","LIN":"14鄰","STREET":"裕農路","SECT":" ","MAREA":" ","LANE":"６２１巷","ALLEY":"４１弄","HOUSE_NO":"７號之２","E_COORD97":171590.29000000001,"N_COORD97":2543410.9500000002,"ADDRESS":"裕農路６２１巷４１弄７號之２","OBJECTID":25401},"geometry":{"x":171590.29000000097,"y":2543410.9500000011}},{"attributes":{"ID":25402,"DIS_CODE":0,"TOWNNAME":"東區","LI":"後甲里","LIN":"14鄰","STREET":"裕農路","SECT":" ","MAREA":" ","LANE":"６２１巷","ALLEY":"４１弄","HOUSE_NO":"７號之３","E_COORD97":171590.54000000001,"N_COORD97":2543406.6200000001,"ADDRESS":"裕農路６２１巷４１弄７號之３","OBJECTID":25402},"geometry":{"x":171590.54000000097,"y":2543406.620000001}},{"attributes":{"ID":25403,"DIS_CODE":0,"TOWNNAME":"東區","LI":"後甲里","LIN":"14鄰","STREET":"裕農路","SECT":" ","MAREA":" ","LANE":"６２１巷","ALLEY":"４１弄","HOUSE_NO":"７號之４","E_COORD97":171590.54000000001,"N_COORD97":2543402.2799999998,"ADDRESS":"裕農路６２１巷４１弄７號之４","OBJECTID":25403},"geometry":{"x":171590.54000000097,"y":2543402.2800000012}},{"attributes":{"ID":25404,"DIS_CODE":0,"TOWNNAME":"永康區","LI":"安康里","LIN":"14鄰","STREET":"中華路","SECT":" ","MAREA":" ","LANE":"６１９巷","ALLEY":"８８弄","HOUSE_NO":"４號","E_COORD97":170863.48999999999,"N_COORD97":2546023.25,"ADDRESS":"中華路６１９巷８８弄４號","OBJECTID":25404},"geometry":{"x":170863.49000000115,"y":2546023.2500000019}},{"attributes":{"ID":25405,"DIS_CODE":0,"TOWNNAME":"永康區","LI":"安康里","LIN":"14鄰","STREET":"中華路","SECT":" ","MAREA":" ","LANE":"６１９巷","ALLEY":"８８弄","HOUSE_NO":"２４號","E_COORD97":170866.70999999999,"N_COORD97":2546063.4900000002,"ADDRESS":"中華路６１９巷８８弄２４號","OBJECTID":25405},"geometry":{"x":170866.71000000089,"y":2546063.4900000021}},{"attributes":{"ID":25406,"DIS_CODE":0,"TOWNNAME":"永康區","LI":"龍潭里","LIN":"14鄰","STREET":"龍埔街","SECT":" ","MAREA":" ","LANE":"１５０巷","ALLEY":"２弄","HOUSE_NO":"１號","E_COORD97":174446.42000000001,"N_COORD97":2548329.0899999999,"ADDRESS":"龍埔街１５０巷２弄１號","OBJECTID":25406},"geometry":{"x":174446.41999999993,"y":2548329.089999998}},{"attributes":{"ID":25407,"DIS_CODE":0,"TOWNNAME":"新市區","LI":"新市里","LIN":"34鄰","STREET":"復興路","SECT":" ","MAREA":" ","LANE":" ","ALLEY":" ","HOUSE_NO":"７６號","E_COORD97":177833.07000000001,"N_COORD97":2553528.2799999998,"ADDRESS":"復興路７６號","OBJECTID":25407},"geometry":{"x":177833.0700000003,"y":2553528.2800000031}},{"attributes":{"ID":25408,"DIS_CODE":0,"TOWNNAME":"安南區","LI":"淵中里","LIN":"14鄰","STREET":"安中路","SECT":"四段","MAREA":" ","LANE":"１５４巷","ALLEY":"５８弄","HOUSE_NO":"５號","E_COORD97":165082.84,"N_COORD97":2550128.0899999999,"ADDRESS":"安中路四段１５４巷５８弄５號","OBJECTID":25408},"geometry":{"x":165082.83999999985,"y":2550128.0899999999}},{"attributes":{"ID":25409,"DIS_CODE":0,"TOWNNAME":"永康區","LI":"龍潭里","LIN":"34鄰","STREET":"龍埔街","SECT":" ","MAREA":" ","LANE":" ","ALLEY":" ","HOUSE_NO":"１７１號","E_COORD97":174473.64999999999,"N_COORD97":2548248.48,"ADDRESS":"龍埔街１７１號","OBJECTID":25409},"geometry":{"x":174473.6500000013,"y":2548248.4800000004}},{"attributes":{"ID":25410,"DIS_CODE":0,"TOWNNAME":"北門區","LI":"錦湖里","LIN":"8鄰","STREET":" ","SECT":" ","MAREA":"渡子頭","LANE":" ","ALLEY":" ","HOUSE_NO":"８０號","E_COORD97":164905.54000000001,"N_COORD97":2577455.1899999999,"ADDRESS":"渡子頭８０號","OBJECTID":25410},"geometry":{"x":164905.54000000004,"y":2577455.1900000032}},{"attributes":{"ID":25411,"DIS_CODE":0,"TOWNNAME":"安南區","LI":"淵中里","LIN":"14鄰","STREET":"安中路","SECT":"四段","MAREA":" ","LANE":"１５４巷","ALLEY":"５８弄","HOUSE_NO":"１５號","E_COORD97":165096.38,"N_COORD97":2550111.21,"ADDRESS":"安中路四段１５４巷５８弄１５號","OBJECTID":25411},"geometry":{"x":165096.37999999989,"y":2550111.2100000009}},{"attributes":{"ID":25412,"DIS_CODE":0,"TOWNNAME":"新市區","LI":"三舍里","LIN":"8鄰","STREET":" ","SECT":" ","MAREA":"三舍","LANE":" ","ALLEY":" ","HOUSE_NO":"１８２之３號","E_COORD97":177414.32000000001,"N_COORD97":2554897.5499999998,"ADDRESS":"三舍１８２之３號","OBJECTID":25412},"geometry":{"x":177414.3200000003,"y":2554897.5500000045}},{"attributes":{"ID":25413,"DIS_CODE":0,"TOWNNAME":"新市區","LI":"大社里","LIN":"8鄰","STREET":" ","SECT":" ","MAREA":"大社","LANE":" ","ALLEY":" ","HOUSE_NO":"２８１號","E_COORD97":180429.37,"N_COORD97":2554532.25,"ADDRESS":"大社２８１號","OBJECTID":25413},"geometry":{"x":180429.37000000011,"y":2554532.25}},{"attributes":{"ID":25414,"DIS_CODE":0,"TOWNNAME":"安南區","LI":"淵中里","LIN":"14鄰","STREET":"安中路","SECT":"四段","MAREA":" ","LANE":"１５４巷","ALLEY":"５８弄","HOUSE_NO":"１３號","E_COORD97":165093.85000000001,"N_COORD97":2550114.6400000001,"ADDRESS":"安中路四段１５４巷５８弄１３號","OBJECTID":25414},"geometry":{"x":165093.85000000056,"y":2550114.6400000025}},{"attributes":{"ID":25415,"DIS_CODE":0,"TOWNNAME":"新市區","LI":"永就里","LIN":"8鄰","STREET":" ","SECT":" ","MAREA":"永就","LANE":" ","ALLEY":" ","HOUSE_NO":"８８之３號","E_COORD97":177541.51000000001,"N_COORD97":2551511.7999999998,"ADDRESS":"永就８８之３號","OBJECTID":25415},"geometry":{"x":177541.50999999885,"y":2551511.8000000007}},{"attributes":{"ID":25416,"DIS_CODE":0,"TOWNNAME":"新市區","LI":"三舍里","LIN":"8鄰","STREET":" ","SECT":" ","MAREA":"三舍","LANE":" ","ALLEY":" ","HOUSE_NO":"１８３之５號","E_COORD97":177352.12,"N_COORD97":2554857.7999999998,"ADDRESS":"三舍１８３之５號","OBJECTID":25416},"geometry":{"x":177352.12000000104,"y":2554857.8000000007}},{"attributes":{"ID":25417,"DIS_CODE":0,"TOWNNAME":"安南區","LI":"淵中里","LIN":"14鄰","STREET":"安中路","SECT":"四段","MAREA":" ","LANE":"１５４巷","ALLEY":"５８弄","HOUSE_NO":"１０號","E_COORD97":165074.88,"N_COORD97":2550110.7400000002,"ADDRESS":"安中路四段１５４巷５８弄１０號","OBJECTID":25417},"geometry":{"x":165074.88000000082,"y":2550110.7400000002}},{"attributes":{"ID":25418,"DIS_CODE":0,"TOWNNAME":"新市區","LI":"大社里","LIN":"8鄰","STREET":" ","SECT":" ","MAREA":"大社","LANE":" ","ALLEY":" ","HOUSE_NO":"２７８之４號","E_COORD97":180478.92999999999,"N_COORD97":2554504.2999999998,"ADDRESS":"大社２７８之４號","OBJECTID":25418},"geometry":{"x":180478.93000000063,"y":2554504.3000000026}},{"attributes":{"ID":25419,"DIS_CODE":0,"TOWNNAME":"安南區","LI":"淵中里","LIN":"14鄰","STREET":"安中路","SECT":"四段","MAREA":" ","LANE":"１５４巷","ALLEY":"５８弄","HOUSE_NO":"１１號","E_COORD97":165091.23999999999,"N_COORD97":2550117.8799999999,"ADDRESS":"安中路四段１５４巷５８弄１１號","OBJECTID":25419},"geometry":{"x":165091.24000000115,"y":2550117.8800000008}},{"attributes":{"ID":25420,"DIS_CODE":0,"TOWNNAME":"安南區","LI":"淵中里","LIN":"14鄰","STREET":"安中路","SECT":"四段","MAREA":" ","LANE":"１５４巷","ALLEY":"５８弄","HOUSE_NO":"１２號","E_COORD97":165077.04000000001,"N_COORD97":2550107.1400000001,"ADDRESS":"安中路四段１５４巷５８弄１２號","OBJECTID":25420},"geometry":{"x":165077.0400000019,"y":2550107.1400000025}},{"attributes":{"ID":25421,"DIS_CODE":0,"TOWNNAME":"東區","LI":"崇信里","LIN":"14鄰","STREET":"崇學路","SECT":" ","MAREA":" ","LANE":"１４２巷","ALLEY":"１０弄","HOUSE_NO":"７號","E_COORD97":170522.62,"N_COORD97":2542337.77,"ADDRESS":"崇學路１４２巷１０弄７號","OBJECTID":25421},"geometry":{"x":170522.62000000011,"y":2542337.7700000014}},{"attributes":{"ID":25422,"DIS_CODE":0,"TOWNNAME":"新市區","LI":"三舍里","LIN":"8鄰","STREET":" ","SECT":" ","MAREA":"三舍","LANE":" ","ALLEY":" ","HOUSE_NO":"１８２之８號","E_COORD97":177395.45999999999,"N_COORD97":2554890.5499999998,"ADDRESS":"三舍１８２之８號","OBJECTID":25422},"geometry":{"x":177395.46000000089,"y":2554890.5500000007}},{"attributes":{"ID":25423,"DIS_CODE":0,"TOWNNAME":"安南區","LI":"淵中里","LIN":"14鄰","STREET":"安中路","SECT":"四段","MAREA":" ","LANE":"１５４巷","ALLEY":"５８弄","HOUSE_NO":"１４號","E_COORD97":165079.84,"N_COORD97":2550104.5299999998,"ADDRESS":"安中路四段１５４巷５８弄１４號","OBJECTID":25423},"geometry":{"x":165079.84000000171,"y":2550104.5299999993}},{"attributes":{"ID":25424,"DIS_CODE":0,"TOWNNAME":"安南區","LI":"淵中里","LIN":"14鄰","STREET":"安中路","SECT":"四段","MAREA":" ","LANE":"１５４巷","ALLEY":"５８弄","HOUSE_NO":"１６號","E_COORD97":165082.89999999999,"N_COORD97":2550101.0099999998,"ADDRESS":"安中路四段１５４巷５８弄１６號","OBJECTID":25424},"geometry":{"x":165082.90000000037,"y":2550101.0100000016}},{"attributes":{"ID":25425,"DIS_CODE":0,"TOWNNAME":"新市區","LI":"大社里","LIN":"8鄰","STREET":" ","SECT":" ","MAREA":"大社","LANE":" ","ALLEY":" ","HOUSE_NO":"２７８號之７","E_COORD97":180507.91,"N_COORD97":2554518.2999999998,"ADDRESS":"大社２７８號之７","OBJECTID":25425},"geometry":{"x":180507.91000000108,"y":2554518.3000000007}},{"attributes":{"ID":25426,"DIS_CODE":0,"TOWNNAME":"新市區","LI":"三舍里","LIN":"8鄰","STREET":" ","SECT":" ","MAREA":"三舍","LANE":" ","ALLEY":" ","HOUSE_NO":"１８２之９號","E_COORD97":177412.12,"N_COORD97":2554934.5499999998,"ADDRESS":"三舍１８２之９號","OBJECTID":25426},"geometry":{"x":177412.12000000011,"y":2554934.5500000007}},{"attributes":{"ID":25427,"DIS_CODE":0,"TOWNNAME":"安南區","LI":"淵中里","LIN":"14鄰","STREET":"安中路","SECT":"四段","MAREA":" ","LANE":"１５４巷","ALLEY":"５８弄","HOUSE_NO":"１７號","E_COORD97":165098.98999999999,"N_COORD97":2550108.0600000001,"ADDRESS":"安中路四段１５４巷５８弄１７號","OBJECTID":25427},"geometry":{"x":165098.99000000022,"y":2550108.0600000024}},{"attributes":{"ID":25428,"DIS_CODE":0,"TOWNNAME":"安南區","LI":"淵中里","LIN":"14鄰","STREET":"安中路","SECT":"四段","MAREA":" ","LANE":"１５４巷","ALLEY":"５８弄","HOUSE_NO":"１８號","E_COORD97":165085.79000000001,"N_COORD97":2550097.5699999998,"ADDRESS":"安中路四段１５４巷５８弄１８號","OBJECTID":25428},"geometry":{"x":165085.79000000097,"y":2550097.5700000022}},{"attributes":{"ID":25429,"DIS_CODE":0,"TOWNNAME":"永康區","LI":"埔園里","LIN":"34鄰","STREET":"八德街","SECT":" ","MAREA":" ","LANE":"２６巷","ALLEY":" ","HOUSE_NO":"４６號","E_COORD97":174314.97,"N_COORD97":2548600,"ADDRESS":"八德街２６巷４６號","OBJECTID":25429},"geometry":{"x":174314.97000000067,"y":2548600}},{"attributes":{"ID":25430,"DIS_CODE":0,"TOWNNAME":"永康區","LI":"南灣里","LIN":"34鄰","STREET":"南灣街","SECT":" ","MAREA":" ","LANE":" ","ALLEY":" ","HOUSE_NO":"１１１號","E_COORD97":174300.67999999999,"N_COORD97":2544985,"ADDRESS":"南灣街１１１號","OBJECTID":25430},"geometry":{"x":174300.6799999997,"y":2544985.0000000019}},{"attributes":{"ID":25431,"DIS_CODE":0,"TOWNNAME":"永康區","LI":"埔園里","LIN":"34鄰","STREET":"八德街","SECT":" ","MAREA":" ","LANE":" ","ALLEY":" ","HOUSE_NO":"９２之１號","E_COORD97":174159.54000000001,"N_COORD97":2548530.1499999999,"ADDRESS":"八德街９２之１號","OBJECTID":25431},"geometry":{"x":174159.54000000004,"y":2548530.1500000022}},{"attributes":{"ID":25432,"DIS_CODE":0,"TOWNNAME":"永康區","LI":"南灣里","LIN":"34鄰","STREET":"南灣街","SECT":" ","MAREA":" ","LANE":" ","ALLEY":" ","HOUSE_NO":"１０７號","E_COORD97":174317.76999999999,"N_COORD97":2544990.5,"ADDRESS":"南灣街１０７號","OBJECTID":25432},"geometry":{"x":174317.77000000048,"y":2544990.5000000037}},{"attributes":{"ID":25433,"DIS_CODE":0,"TOWNNAME":"永康區","LI":"尚頂里","LIN":"34鄰","STREET":"國聖街","SECT":" ","MAREA":" ","LANE":" ","ALLEY":" ","HOUSE_NO":"９９號","E_COORD97":170482.98999999999,"N_COORD97":2548092,"ADDRESS":"國聖街９９號","OBJECTID":25433},"geometry":{"x":170482.99000000022,"y":2548092}},{"attributes":{"ID":25434,"DIS_CODE":0,"TOWNNAME":"永康區","LI":"南灣里","LIN":"34鄰","STREET":"南灣街","SECT":" ","MAREA":" ","LANE":" ","ALLEY":" ","HOUSE_NO":"９３號","E_COORD97":174354.51999999999,"N_COORD97":2544974,"ADDRESS":"南灣街９３號","OBJECTID":25434},"geometry":{"x":174354.52000000048,"y":2544974.0000000019}},{"attributes":{"ID":25435,"DIS_CODE":0,"TOWNNAME":"永康區","LI":"南灣里","LIN":"34鄰","STREET":"南灣街","SECT":" ","MAREA":" ","LANE":" ","ALLEY":" ","HOUSE_NO":"９３之２號","E_COORD97":174348.62,"N_COORD97":2544977.7999999998,"ADDRESS":"南灣街９３之２號","OBJECTID":25435},"geometry":{"x":174348.62000000011,"y":2544977.8000000007}},{"attributes":{"ID":25436,"DIS_CODE":0,"TOWNNAME":"永康區","LI":"埔園里","LIN":"34鄰","STREET":"八德街","SECT":" ","MAREA":" ","LANE":" ","ALLEY":" ","HOUSE_NO":"９０之１號","E_COORD97":173235.73999999999,"N_COORD97":2546867.3599999999,"ADDRESS":"八德街９０之１號","OBJECTID":25436},"geometry":{"x":173235.74000000022,"y":2546867.3600000013}},{"attributes":{"ID":25437,"DIS_CODE":0,"TOWNNAME":"永康區","LI":"埔園里","LIN":"34鄰","STREET":"八德街","SECT":" ","MAREA":" ","LANE":" ","ALLEY":" ","HOUSE_NO":"９８號","E_COORD97":174106.34,"N_COORD97":2548610.52,"ADDRESS":"八德街９８號","OBJECTID":25437},"geometry":{"x":174106.33999999985,"y":2548610.5199999996}},{"attributes":{"ID":25438,"DIS_CODE":0,"TOWNNAME":"永康區","LI":"埔園里","LIN":"34鄰","STREET":"八德街","SECT":" ","MAREA":" ","LANE":" ","ALLEY":" ","HOUSE_NO":"８０號","E_COORD97":174205.01000000001,"N_COORD97":2548523.02,"ADDRESS":"八德街８０號","OBJECTID":25438},"geometry":{"x":174205.00999999978,"y":2548523.0200000014}},{"attributes":{"ID":25439,"DIS_CODE":0,"TOWNNAME":"永康區","LI":"埔園里","LIN":"34鄰","STREET":"八德街","SECT":" ","MAREA":" ","LANE":" ","ALLEY":" ","HOUSE_NO":"８０之１號","E_COORD97":174207.51000000001,"N_COORD97":2548523.0499999998,"ADDRESS":"八德街８０之１號","OBJECTID":25439},"geometry":{"x":174207.51000000071,"y":2548523.0500000007}},{"attributes":{"ID":25440,"DIS_CODE":0,"TOWNNAME":"東區","LI":"文聖里","LIN":"20鄰","STREET":"裕信二街","SECT":" ","MAREA":" ","LANE":" ","ALLEY":" ","HOUSE_NO":"１１３號","E_COORD97":172845.42000000001,"N_COORD97":2542644.3900000001,"ADDRESS":"裕信二街１１３號","OBJECTID":25440},"geometry":{"x":172845.42000000086,"y":2542644.3900000006}},{"attributes":{"ID":25441,"DIS_CODE":0,"TOWNNAME":"新市區","LI":"大社里","LIN":"8鄰","STREET":" ","SECT":" ","MAREA":"大社","LANE":" ","ALLEY":" ","HOUSE_NO":"２７９號之２","E_COORD97":180352.25,"N_COORD97":2554531.2999999998,"ADDRESS":"大社２７９號之２","OBJECTID":25441},"geometry":{"x":180352.25,"y":2554531.3000000026}},{"attributes":{"ID":25442,"DIS_CODE":0,"TOWNNAME":"新市區","LI":"大社里","LIN":"8鄰","STREET":" ","SECT":" ","MAREA":"大社","LANE":" ","ALLEY":" ","HOUSE_NO":"２７８號之２","E_COORD97":180440.54000000001,"N_COORD97":2554484.2999999998,"ADDRESS":"大社２７８號之２","OBJECTID":25442},"geometry":{"x":180440.5400000019,"y":2554484.3000000007}},{"attributes":{"ID":25443,"DIS_CODE":0,"TOWNNAME":"新市區","LI":"大社里","LIN":"8鄰","STREET":" ","SECT":" ","MAREA":"大社","LANE":" ","ALLEY":" ","HOUSE_NO":"２７８之３號","E_COORD97":180459.01999999999,"N_COORD97":2554502.7999999998,"ADDRESS":"大社２７８之３號","OBJECTID":25443},"geometry":{"x":180459.02000000048,"y":2554502.8000000045}},{"attributes":{"ID":25444,"DIS_CODE":0,"TOWNNAME":"安南區","LI":"淵中里","LIN":"14鄰","STREET":"安中路","SECT":"四段","MAREA":" ","LANE":"１５４巷","ALLEY":"５８弄","HOUSE_NO":"１號","E_COORD97":165076.62,"N_COORD97":2550134.1200000001,"ADDRESS":"安中路四段１５４巷５８弄１號","OBJECTID":25444},"geometry":{"x":165076.62000000197,"y":2550134.1200000048}},{"attributes":{"ID":25445,"DIS_CODE":0,"TOWNNAME":"安南區","LI":"淵中里","LIN":"14鄰","STREET":"安中路","SECT":"四段","MAREA":" ","LANE":"１５４巷","ALLEY":"５８弄","HOUSE_NO":"２０號","E_COORD97":165089.26999999999,"N_COORD97":2550095.0800000001,"ADDRESS":"安中路四段１５４巷５８弄２０號","OBJECTID":25445},"geometry":{"x":165089.27000000048,"y":2550095.0800000001}},{"attributes":{"ID":25446,"DIS_CODE":0,"TOWNNAME":"新市區","LI":"三舍里","LIN":"8鄰","STREET":" ","SECT":" ","MAREA":"三舍","LANE":" ","ALLEY":" ","HOUSE_NO":"１８３之３號","E_COORD97":177356.20000000001,"N_COORD97":2554860.7999999998,"ADDRESS":"三舍１８３之３號","OBJECTID":25446},"geometry":{"x":177356.20000000112,"y":2554860.8000000007}},{"attributes":{"ID":25447,"DIS_CODE":0,"TOWNNAME":"新市區","LI":"大社里","LIN":"8鄰","STREET":" ","SECT":" ","MAREA":"大社","LANE":" ","ALLEY":" ","HOUSE_NO":"２７７之１號","E_COORD97":180373.89999999999,"N_COORD97":2554470.2999999998,"ADDRESS":"大社２７７之１號","OBJECTID":25447},"geometry":{"x":180373.90000000224,"y":2554470.3000000026}},{"attributes":{"ID":25448,"DIS_CODE":0,"TOWNNAME":"安南區","LI":"淵中里","LIN":"14鄰","STREET":"安中路","SECT":"四段","MAREA":" ","LANE":"１５４巷","ALLEY":"５８弄","HOUSE_NO":"２２號","E_COORD97":165090.67999999999,"N_COORD97":2550091.5800000001,"ADDRESS":"安中路四段１５４巷５８弄２２號","OBJECTID":25448},"geometry":{"x":165090.6799999997,"y":2550091.5800000001}},{"attributes":{"ID":25449,"DIS_CODE":0,"TOWNNAME":"新市區","LI":"三舍里","LIN":"8鄰","STREET":" ","SECT":" ","MAREA":"三舍","LANE":" ","ALLEY":" ","HOUSE_NO":"１８２之５號","E_COORD97":177409.20999999999,"N_COORD97":2554896.5499999998,"ADDRESS":"三舍１８２之５號","OBJECTID":25449},"geometry":{"x":177409.20999999996,"y":2554896.5500000007}},{"attributes":{"ID":25450,"DIS_CODE":0,"TOWNNAME":"新市區","LI":"三舍里","LIN":"8鄰","STREET":" ","SECT":" ","MAREA":"三舍","LANE":" ","ALLEY":" ","HOUSE_NO":"１８２之１６號","E_COORD97":177384.53,"N_COORD97":2554921.7999999998,"ADDRESS":"三舍１８２之１６號","OBJECTID":25450},"geometry":{"x":177384.53000000119,"y":2554921.8000000007}},{"attributes":{"ID":25451,"DIS_CODE":0,"TOWNNAME":"安南區","LI":"淵中里","LIN":"14鄰","STREET":"安中路","SECT":"四段","MAREA":" ","LANE":"１５４巷","ALLEY":"５８弄","HOUSE_NO":"２３號","E_COORD97":165107.12,"N_COORD97":2550098.29,"ADDRESS":"安中路四段１５４巷５８弄２３號","OBJECTID":25451},"geometry":{"x":165107.12000000197,"y":2550098.290000001}},{"attributes":{"ID":25452,"DIS_CODE":0,"TOWNNAME":"安南區","LI":"淵中里","LIN":"14鄰","STREET":"安中路","SECT":"四段","MAREA":" ","LANE":"１５４巷","ALLEY":"５８弄","HOUSE_NO":"２４號","E_COORD97":165093.17999999999,"N_COORD97":2550088.3799999999,"ADDRESS":"安中路四段１５４巷５８弄２４號","OBJECTID":25452},"geometry":{"x":165093.18000000063,"y":2550088.379999999}},{"attributes":{"ID":25453,"DIS_CODE":0,"TOWNNAME":"安南區","LI":"淵中里","LIN":"14鄰","STREET":"安中路","SECT":"四段","MAREA":" ","LANE":"１５４巷","ALLEY":"５８弄","HOUSE_NO":"２５號","E_COORD97":165110.81,"N_COORD97":2550095.3199999998,"ADDRESS":"安中路四段１５４巷５８弄２５號","OBJECTID":25453},"geometry":{"x":165110.81000000052,"y":2550095.3200000022}},{"attributes":{"ID":25454,"DIS_CODE":0,"TOWNNAME":"安南區","LI":"淵中里","LIN":"14鄰","STREET":"安中路","SECT":"四段","MAREA":" ","LANE":"１５４巷","ALLEY":"５８弄","HOUSE_NO":"２號","E_COORD97":165063.32999999999,"N_COORD97":2550123.6400000001,"ADDRESS":"安中路四段１５４巷５８弄２號","OBJECTID":25454},"geometry":{"x":165063.33000000101,"y":2550123.6400000025}},{"attributes":{"ID":25455,"DIS_CODE":0,"TOWNNAME":"安南區","LI":"淵中里","LIN":"14鄰","STREET":"安中路","SECT":"四段","MAREA":" ","LANE":"１５４巷","ALLEY":"５８弄","HOUSE_NO":"４號","E_COORD97":165066.20999999999,"N_COORD97":2550120.3999999999,"ADDRESS":"安中路四段１５４巷５８弄４號","OBJECTID":25455},"geometry":{"x":165066.21000000089,"y":2550120.4000000004}},{"attributes":{"ID":25456,"DIS_CODE":0,"TOWNNAME":"安南區","LI":"淵中里","LIN":"14鄰","STREET":"安中路","SECT":"四段","MAREA":" ","LANE":"１５４巷","ALLEY":"５８弄","HOUSE_NO":"７號","E_COORD97":165085.45999999999,"N_COORD97":2550124.3900000001,"ADDRESS":"安中路四段１５４巷５８弄７號","OBJECTID":25456},"geometry":{"x":165085.45999999996,"y":2550124.3900000006}},{"attributes":{"ID":25457,"DIS_CODE":0,"TOWNNAME":"安南區","LI":"淵中里","LIN":"14鄰","STREET":"安中路","SECT":"四段","MAREA":" ","LANE":"１５４巷","ALLEY":"５８弄","HOUSE_NO":"８號","E_COORD97":165071.17000000001,"N_COORD97":2550113.1000000001,"ADDRESS":"安中路四段１５４巷５８弄８號","OBJECTID":25457},"geometry":{"x":165071.17000000086,"y":2550113.1000000015}},{"attributes":{"ID":25458,"DIS_CODE":0,"TOWNNAME":"安南區","LI":"淵中里","LIN":"14鄰","STREET":"安中路","SECT":"四段","MAREA":" ","LANE":"１５４巷","ALLEY":"５８弄","HOUSE_NO":"９號","E_COORD97":165088.44,"N_COORD97":2550121.3900000001,"ADDRESS":"安中路四段１５４巷５８弄９號","OBJECTID":25458},"geometry":{"x":165088.44000000134,"y":2550121.3900000043}},{"attributes":{"ID":25459,"DIS_CODE":0,"TOWNNAME":"安南區","LI":"淵中里","LIN":"14鄰","STREET":"安中路","SECT":"四段","MAREA":" ","LANE":"１５４巷","ALLEY":"９４弄","HOUSE_NO":"６號","E_COORD97":165095.92000000001,"N_COORD97":2550146.73,"ADDRESS":"安中路四段１５４巷９４弄６號","OBJECTID":25459},"geometry":{"x":165095.91999999993,"y":2550146.7300000023}},{"attributes":{"ID":25460,"DIS_CODE":0,"TOWNNAME":"安南區","LI":"淵中里","LIN":"14鄰","STREET":"安中路","SECT":"四段","MAREA":" ","LANE":"１５４巷","ALLEY":"５８弄","HOUSE_NO":"２１號","E_COORD97":165104.5,"N_COORD97":2550101.6299999999,"ADDRESS":"安中路四段１５４巷５８弄２１號","OBJECTID":25460},"geometry":{"x":165104.50000000093,"y":2550101.6300000008}},{"attributes":{"ID":25461,"DIS_CODE":0,"TOWNNAME":"安南區","LI":"佃東里","LIN":"14鄰","STREET":"公學路","SECT":"四段","MAREA":" ","LANE":"１０巷","ALLEY":"１３弄","HOUSE_NO":"１號","E_COORD97":165921.38,"N_COORD97":2552091.7799999998,"ADDRESS":"公學路四段１０巷１３弄１號","OBJECTID":25461},"geometry":{"x":165921.37999999989,"y":2552091.7800000012}},{"attributes":{"ID":25462,"DIS_CODE":0,"TOWNNAME":"安南區","LI":"佃東里","LIN":"14鄰","STREET":"公學路","SECT":"四段","MAREA":" ","LANE":"１０巷","ALLEY":"１３弄","HOUSE_NO":"２號","E_COORD97":165921.53,"N_COORD97":2552111.4199999999,"ADDRESS":"公學路四段１０巷１３弄２號","OBJECTID":25462},"geometry":{"x":165921.53000000212,"y":2552111.4200000018}},{"attributes":{"ID":25463,"DIS_CODE":0,"TOWNNAME":"永康區","LI":"埔園里","LIN":"34鄰","STREET":"八德街","SECT":" ","MAREA":" ","LANE":" ","ALLEY":" ","HOUSE_NO":"３０號","E_COORD97":174288.29000000001,"N_COORD97":2548515.77,"ADDRESS":"八德街３０號","OBJECTID":25463},"geometry":{"x":174288.29000000004,"y":2548515.7700000014}},{"attributes":{"ID":25464,"DIS_CODE":0,"TOWNNAME":"永康區","LI":"埔園里","LIN":"34鄰","STREET":"八德街","SECT":" ","MAREA":" ","LANE":" ","ALLEY":" ","HOUSE_NO":"８２之１號","E_COORD97":174202.98999999999,"N_COORD97":2548523.7999999998,"ADDRESS":"八德街８２之１號","OBJECTID":25464},"geometry":{"x":174202.99000000115,"y":2548523.8000000007}},{"attributes":{"ID":25465,"DIS_CODE":0,"TOWNNAME":"永康區","LI":"埔園里","LIN":"34鄰","STREET":"八德街","SECT":" ","MAREA":" ","LANE":" ","ALLEY":" ","HOUSE_NO":"８２號","E_COORD97":174200.48999999999,"N_COORD97":2548523.77,"ADDRESS":"八德街８２號","OBJECTID":25465},"geometry":{"x":174200.49000000022,"y":2548523.7699999996}},{"attributes":{"ID":25466,"DIS_CODE":0,"TOWNNAME":"永康區","LI":"埔園里","LIN":"34鄰","STREET":"八德街","SECT":" ","MAREA":" ","LANE":" ","ALLEY":" ","HOUSE_NO":"２８號","E_COORD97":174293.92999999999,"N_COORD97":2548515.02,"ADDRESS":"八德街２８號","OBJECTID":25466},"geometry":{"x":174293.9299999997,"y":2548515.0199999996}},{"attributes":{"ID":25467,"DIS_CODE":0,"TOWNNAME":"永康區","LI":"埔園里","LIN":"34鄰","STREET":"八德街","SECT":" ","MAREA":" ","LANE":" ","ALLEY":" ","HOUSE_NO":"７８號","E_COORD97":174209.39999999999,"N_COORD97":2548522.52,"ADDRESS":"八德街７８號","OBJECTID":25467},"geometry":{"x":174209.4000000013,"y":2548522.5199999977}},{"attributes":{"ID":25468,"DIS_CODE":0,"TOWNNAME":"新市區","LI":"三舍里","LIN":"8鄰","STREET":" ","SECT":" ","MAREA":"三舍","LANE":" ","ALLEY":" ","HOUSE_NO":"１８３之７號","E_COORD97":177347.85000000001,"N_COORD97":2554855.0499999998,"ADDRESS":"三舍１８３之７號","OBJECTID":25468},"geometry":{"x":177347.85000000056,"y":2554855.0500000026}},{"attributes":{"ID":25469,"DIS_CODE":0,"TOWNNAME":"新市區","LI":"三舍里","LIN":"8鄰","STREET":" ","SECT":" ","MAREA":"三舍","LANE":" ","ALLEY":" ","HOUSE_NO":"１８３之２號","E_COORD97":177373.14000000001,"N_COORD97":2554884.5499999998,"ADDRESS":"三舍１８３之２號","OBJECTID":25469},"geometry":{"x":177373.1400000006,"y":2554884.5500000026}},{"attributes":{"ID":25470,"DIS_CODE":0,"TOWNNAME":"新市區","LI":"新市里","LIN":"34鄰","STREET":"復興路","SECT":" ","MAREA":" ","LANE":" ","ALLEY":" ","HOUSE_NO":"１０６號","E_COORD97":177822.82000000001,"N_COORD97":2553640.7799999998,"ADDRESS":"復興路１０６號","OBJECTID":25470},"geometry":{"x":177822.8200000003,"y":2553640.7800000012}},{"attributes":{"ID":25471,"DIS_CODE":0,"TOWNNAME":"永康區","LI":"埔園里","LIN":"34鄰","STREET":"八德街","SECT":" ","MAREA":" ","LANE":" ","ALLEY":" ","HOUSE_NO":"２０號","E_COORD97":174316.76000000001,"N_COORD97":2548509.52,"ADDRESS":"八德街２０號","OBJECTID":25471},"geometry":{"x":174316.75999999978,"y":2548509.5200000014}},{"attributes":{"ID":25472,"DIS_CODE":0,"TOWNNAME":"新市區","LI":"三舍里","LIN":"8鄰","STREET":" ","SECT":" ","MAREA":"三舍","LANE":" ","ALLEY":" ","HOUSE_NO":"１８２之１號","E_COORD97":177423.62,"N_COORD97":2554900.7999999998,"ADDRESS":"三舍１８２之１號","OBJECTID":25472},"geometry":{"x":177423.62000000011,"y":2554900.8000000026}},{"attributes":{"ID":25473,"DIS_CODE":0,"TOWNNAME":"新市區","LI":"三舍里","LIN":"8鄰","STREET":" ","SECT":" ","MAREA":"三舍","LANE":" ","ALLEY":" ","HOUSE_NO":"１８２之１７號","E_COORD97":177381.07000000001,"N_COORD97":2554920.2999999998,"ADDRESS":"三舍１８２之１７號","OBJECTID":25473},"geometry":{"x":177381.07000000123,"y":2554920.3000000026}},{"attributes":{"ID":25474,"DIS_CODE":0,"TOWNNAME":"安南區","LI":"佃東里","LIN":"14鄰","STREET":"公學路","SECT":"四段","MAREA":" ","LANE":"１０巷","ALLEY":"１３弄","HOUSE_NO":"３號","E_COORD97":165916.54000000001,"N_COORD97":2552096.1499999999,"ADDRESS":"公學路四段１０巷１３弄３號","OBJECTID":25474},"geometry":{"x":165916.54000000097,"y":2552096.1500000041}},{"attributes":{"ID":25475,"DIS_CODE":0,"TOWNNAME":"安南區","LI":"佃東里","LIN":"14鄰","STREET":"公學路","SECT":"四段","MAREA":" ","LANE":"１０巷","ALLEY":"１３弄","HOUSE_NO":"５號","E_COORD97":165909.67000000001,"N_COORD97":2552090.54,"ADDRESS":"公學路四段１０巷１３弄５號","OBJECTID":25475},"geometry":{"x":165909.66999999993,"y":2552090.5399999991}},{"attributes":{"ID":25476,"DIS_CODE":0,"TOWNNAME":"安南區","LI":"佃東里","LIN":"14鄰","STREET":"公學路","SECT":"四段","MAREA":" ","LANE":"１０巷","ALLEY":"１３弄","HOUSE_NO":"７號","E_COORD97":165902.79999999999,"N_COORD97":2552096.2999999998,"ADDRESS":"公學路四段１０巷１３弄７號","OBJECTID":25476},"geometry":{"x":165902.80000000075,"y":2552096.3000000026}},{"attributes":{"ID":25477,"DIS_CODE":0,"TOWNNAME":"安南區","LI":"佃東里","LIN":"14鄰","STREET":"公學路","SECT":"四段","MAREA":" ","LANE":"１０巷","ALLEY":"１３弄","HOUSE_NO":"８號","E_COORD97":165903.73999999999,"N_COORD97":2552105.9700000002,"ADDRESS":"公學路四段１０巷１３弄８號","OBJECTID":25477},"geometry":{"x":165903.74000000115,"y":2552105.9700000025}},{"attributes":{"ID":25478,"DIS_CODE":0,"TOWNNAME":"安南區","LI":"佃東里","LIN":"14鄰","STREET":"公學路","SECT":"四段","MAREA":" ","LANE":"２巷","ALLEY":"１３弄","HOUSE_NO":"１２號","E_COORD97":165939.47,"N_COORD97":2552109.7200000002,"ADDRESS":"公學路四段２巷１３弄１２號","OBJECTID":25478},"geometry":{"x":165939.46999999974,"y":2552109.7200000044}},{"attributes":{"ID":25479,"DIS_CODE":0,"TOWNNAME":"安南區","LI":"佃東里","LIN":"14鄰","STREET":"公學路","SECT":"四段","MAREA":" ","LANE":"２巷","ALLEY":"１３弄","HOUSE_NO":"４號","E_COORD97":165964.56,"N_COORD97":2552116.5800000001,"ADDRESS":"公學路四段２巷１３弄４號","OBJECTID":25479},"geometry":{"x":165964.55999999866,"y":2552116.5800000038}},{"attributes":{"ID":25480,"DIS_CODE":0,"TOWNNAME":"安南區","LI":"佃東里","LIN":"14鄰","STREET":"公學路","SECT":"四段","MAREA":" ","LANE":"２巷","ALLEY":"１３弄","HOUSE_NO":"５號","E_COORD97":165946.10999999999,"N_COORD97":2552093.3599999999,"ADDRESS":"公學路四段２巷１３弄５號","OBJECTID":25480},"geometry":{"x":165946.11000000034,"y":2552093.3599999994}},{"attributes":{"ID":25481,"DIS_CODE":0,"TOWNNAME":"新市區","LI":"三舍里","LIN":"8鄰","STREET":" ","SECT":" ","MAREA":"三舍","LANE":" ","ALLEY":" ","HOUSE_NO":"１８２之１３號","E_COORD97":177393.98000000001,"N_COORD97":2554928.2999999998,"ADDRESS":"三舍１８２之１３號","OBJECTID":25481},"geometry":{"x":177393.98000000138,"y":2554928.3000000007}},{"attributes":{"ID":25482,"DIS_CODE":0,"TOWNNAME":"安南區","LI":"佃東里","LIN":"14鄰","STREET":"公學路","SECT":"四段","MAREA":" ","LANE":"２巷","ALLEY":"１９弄","HOUSE_NO":"１０號","E_COORD97":165974.64000000001,"N_COORD97":2552136.0699999998,"ADDRESS":"公學路四段２巷１９弄１０號","OBJECTID":25482},"geometry":{"x":165974.6400000006,"y":2552136.0700000003}},{"attributes":{"ID":25483,"DIS_CODE":0,"TOWNNAME":"安南區","LI":"佃東里","LIN":"14鄰","STREET":"公學路","SECT":"四段","MAREA":" ","LANE":"２巷","ALLEY":"１９弄","HOUSE_NO":"２號","E_COORD97":165948.89999999999,"N_COORD97":2552132.4300000002,"ADDRESS":"公學路四段２巷１９弄２號","OBJECTID":25483},"geometry":{"x":165948.90000000037,"y":2552132.4300000016}},{"attributes":{"ID":25484,"DIS_CODE":0,"TOWNNAME":"安南區","LI":"佃西里","LIN":"14鄰","STREET":"公學路","SECT":"四段","MAREA":" ","LANE":"２３４巷","ALLEY":"３３弄","HOUSE_NO":"５號","E_COORD97":165374.31,"N_COORD97":2551893.6000000001,"ADDRESS":"公學路四段２３４巷３３弄５號","OBJECTID":25484},"geometry":{"x":165374.30999999959,"y":2551893.6000000015}},{"attributes":{"ID":25485,"DIS_CODE":0,"TOWNNAME":"安南區","LI":"幸福里","LIN":"14鄰","STREET":"府安路","SECT":"六段","MAREA":" ","LANE":"４５巷","ALLEY":"２９弄","HOUSE_NO":"６號","E_COORD97":166908.39000000001,"N_COORD97":2546739.7999999998,"ADDRESS":"府安路六段４５巷２９弄６號","OBJECTID":25485},"geometry":{"x":166908.39000000153,"y":2546739.8000000026}},{"attributes":{"ID":25486,"DIS_CODE":0,"TOWNNAME":"安南區","LI":"溪北里","LIN":"14鄰","STREET":"府安路","SECT":"四段","MAREA":" ","LANE":"９１巷","ALLEY":"２２弄","HOUSE_NO":"７８號","E_COORD97":169291.75,"N_COORD97":2547402.6800000002,"ADDRESS":"府安路四段９１巷２２弄７８號","OBJECTID":25486},"geometry":{"x":169291.75000000093,"y":2547402.6799999978}},{"attributes":{"ID":25487,"DIS_CODE":0,"TOWNNAME":"善化區","LI":"文正里","LIN":"14鄰","STREET":"陽明路","SECT":" ","MAREA":" ","LANE":"２２３巷","ALLEY":"２弄","HOUSE_NO":"６號","E_COORD97":176086.70999999999,"N_COORD97":2559618.0099999998,"ADDRESS":"陽明路２２３巷２弄６號","OBJECTID":25487},"geometry":{"x":176086.71000000089,"y":2559618.0099999998}},{"attributes":{"ID":25488,"DIS_CODE":0,"TOWNNAME":"善化區","LI":"文正里","LIN":"14鄰","STREET":"陽明路","SECT":" ","MAREA":" ","LANE":"２２３巷","ALLEY":"１弄","HOUSE_NO":"４號","E_COORD97":176098.75,"N_COORD97":2559652.2599999998,"ADDRESS":"陽明路２２３巷１弄４號","OBJECTID":25488},"geometry":{"x":176098.75,"y":2559652.2600000016}},{"attributes":{"ID":25489,"DIS_CODE":0,"TOWNNAME":"新市區","LI":"大社里","LIN":"8鄰","STREET":" ","SECT":" ","MAREA":"大社","LANE":" ","ALLEY":" ","HOUSE_NO":"２７０號","E_COORD97":180301.67000000001,"N_COORD97":2554487.5,"ADDRESS":"大社２７０號","OBJECTID":25489},"geometry":{"x":180301.66999999993,"y":2554487.5000000019}},{"attributes":{"ID":25490,"DIS_CODE":0,"TOWNNAME":"善化區","LI":"文正里","LIN":"14鄰","STREET":"陽明路","SECT":" ","MAREA":" ","LANE":"２２３巷","ALLEY":"２弄","HOUSE_NO":"１９號","E_COORD97":176127.51000000001,"N_COORD97":2559630.0099999998,"ADDRESS":"陽明路２２３巷２弄１９號","OBJECTID":25490},"geometry":{"x":176127.50999999978,"y":2559630.0100000035}},{"attributes":{"ID":25491,"DIS_CODE":0,"TOWNNAME":"善化區","LI":"文正里","LIN":"14鄰","STREET":"陽明路","SECT":" ","MAREA":" ","LANE":"２２３巷","ALLEY":"２弄","HOUSE_NO":"１４號","E_COORD97":176106.45999999999,"N_COORD97":2559617.7599999998,"ADDRESS":"陽明路２２３巷２弄１４號","OBJECTID":25491},"geometry":{"x":176106.46000000183,"y":2559617.7599999979}},{"attributes":{"ID":25492,"DIS_CODE":0,"TOWNNAME":"善化區","LI":"文正里","LIN":"14鄰","STREET":"陽明路","SECT":" ","MAREA":" ","LANE":"２２３巷","ALLEY":"３弄","HOUSE_NO":"９號","E_COORD97":176090.85000000001,"N_COORD97":2559596.7599999998,"ADDRESS":"陽明路２２３巷３弄９號","OBJECTID":25492},"geometry":{"x":176090.84999999963,"y":2559596.7599999998}},{"attributes":{"ID":25493,"DIS_CODE":0,"TOWNNAME":"永康區","LI":"尚頂里","LIN":"34鄰","STREET":"中正南路","SECT":" ","MAREA":" ","LANE":" ","ALLEY":" ","HOUSE_NO":"３７７號","E_COORD97":170556.51999999999,"N_COORD97":2547832.7400000002,"ADDRESS":"中正南路３７７號","OBJECTID":25493},"geometry":{"x":170556.51999999955,"y":2547832.7400000002}},{"attributes":{"ID":25494,"DIS_CODE":0,"TOWNNAME":"新市區","LI":"三舍里","LIN":"8鄰","STREET":" ","SECT":" ","MAREA":"三舍","LANE":" ","ALLEY":" ","HOUSE_NO":"１８３之２８號","E_COORD97":177332.85000000001,"N_COORD97":2554859.2999999998,"ADDRESS":"三舍１８３之２８號","OBJECTID":25494},"geometry":{"x":177332.85000000056,"y":2554859.3000000026}},{"attributes":{"ID":25495,"DIS_CODE":0,"TOWNNAME":"永康區","LI":"尚頂里","LIN":"34鄰","STREET":"國聖街","SECT":" ","MAREA":" ","LANE":" ","ALLEY":" ","HOUSE_NO":"９５號","E_COORD97":170469.03,"N_COORD97":2548077.2400000002,"ADDRESS":"國聖街９５號","OBJECTID":25495},"geometry":{"x":170469.03000000026,"y":2548077.2400000002}},{"attributes":{"ID":25496,"DIS_CODE":0,"TOWNNAME":"永康區","LI":"埔園里","LIN":"34鄰","STREET":"八德街","SECT":" ","MAREA":" ","LANE":" ","ALLEY":" ","HOUSE_NO":"７８之１號","E_COORD97":174211.89999999999,"N_COORD97":2548522.5499999998,"ADDRESS":"八德街７８之１號","OBJECTID":25496},"geometry":{"x":174211.90000000224,"y":2548522.5500000007}},{"attributes":{"ID":25497,"DIS_CODE":0,"TOWNNAME":"新市區","LI":"大營里","LIN":"8鄰","STREET":" ","SECT":" ","MAREA":"大營","LANE":" ","ALLEY":" ","HOUSE_NO":"１７８號","E_COORD97":179478.12,"N_COORD97":2555617.5,"ADDRESS":"大營１７８號","OBJECTID":25497},"geometry":{"x":179478.12000000011,"y":2555617.5000000019}},{"attributes":{"ID":25498,"DIS_CODE":0,"TOWNNAME":"新市區","LI":"大洲里","LIN":"8鄰","STREET":" ","SECT":" ","MAREA":"大洲","LANE":" ","ALLEY":" ","HOUSE_NO":"７９號之９","E_COORD97":174123.14000000001,"N_COORD97":2552166.2999999998,"ADDRESS":"大洲７９號之９","OBJECTID":25498},"geometry":{"x":174123.14000000153,"y":2552166.3000000007}},{"attributes":{"ID":25499,"DIS_CODE":0,"TOWNNAME":"新市區","LI":"社內里","LIN":"8鄰","STREET":" ","SECT":" ","MAREA":"社內","LANE":" ","ALLEY":" ","HOUSE_NO":"７６之８號","E_COORD97":176708,"N_COORD97":2553027.7999999998,"ADDRESS":"社內７６之８號","OBJECTID":25499},"geometry":{"x":176708.00000000186,"y":2553027.8000000045}},{"attributes":{"ID":25500,"DIS_CODE":0,"TOWNNAME":"新市區","LI":"大營里","LIN":"8鄰","STREET":" ","SECT":" ","MAREA":"大營","LANE":" ","ALLEY":" ","HOUSE_NO":"１７９號","E_COORD97":179464.04000000001,"N_COORD97":2555632.75,"ADDRESS":"大營１７９號","OBJECTID":25500},"geometry":{"x":179464.0400000019,"y":2555632.7500000019}},{"attributes":{"ID":25501,"DIS_CODE":0,"TOWNNAME":"新市區","LI":"三舍里","LIN":"8鄰","STREET":" ","SECT":" ","MAREA":"三舍","LANE":" ","ALLEY":" ","HOUSE_NO":"１８３之９號","E_COORD97":177343.51000000001,"N_COORD97":2554852.7999999998,"ADDRESS":"三舍１８３之９號","OBJECTID":25501},"geometry":{"x":177343.51000000071,"y":2554852.8000000026}},{"attributes":{"ID":25502,"DIS_CODE":0,"TOWNNAME":"新市區","LI":"大營里","LIN":"8鄰","STREET":" ","SECT":" ","MAREA":"大營","LANE":" ","ALLEY":" ","HOUSE_NO":"１８０號","E_COORD97":179457.23999999999,"N_COORD97":2555633.25,"ADDRESS":"大營１８０號","OBJECTID":25502},"geometry":{"x":179457.24000000022,"y":2555633.25}},{"attributes":{"ID":25503,"DIS_CODE":0,"TOWNNAME":"新市區","LI":"三舍里","LIN":"8鄰","STREET":" ","SECT":" ","MAREA":"三舍","LANE":" ","ALLEY":" ","HOUSE_NO":"１８３之１１號","E_COORD97":177340.67999999999,"N_COORD97":2554850.7999999998,"ADDRESS":"三舍１８３之１１號","OBJECTID":25503},"geometry":{"x":177340.68000000063,"y":2554850.8000000007}},{"attributes":{"ID":25504,"DIS_CODE":0,"TOWNNAME":"新營區","LI":"民生里","LIN":"6鄰","STREET":"三民路","SECT":" ","MAREA":" ","LANE":" ","ALLEY":" ","HOUSE_NO":"１５６號之２","E_COORD97":179351.98999999999,"N_COORD97":2578348.8199999998,"ADDRESS":"三民路１５６號之２","OBJECTID":25504},"geometry":{"x":179351.99000000022,"y":2578348.8200000003}},{"attributes":{"ID":25505,"DIS_CODE":0,"TOWNNAME":"新營區","LI":"民生里","LIN":"7鄰","STREET":"民生路","SECT":" ","MAREA":" ","LANE":" ","ALLEY":" ","HOUSE_NO":"１３號之３","E_COORD97":179371.29000000001,"N_COORD97":2578156.04,"ADDRESS":"民生路１３號之３","OBJECTID":25505},"geometry":{"x":179371.29000000097,"y":2578156.0399999991}},{"attributes":{"ID":25506,"DIS_CODE":0,"TOWNNAME":"新營區","LI":"中營里","LIN":" ","STREET":"東山路","SECT":" ","MAREA":" ","LANE":" ","ALLEY":" ","HOUSE_NO":"１４６號","E_COORD97":181721.07999999999,"N_COORD97":2578699.79,"ADDRESS":"東山路１４６號","OBJECTID":25506},"geometry":{"x":181721.08000000007,"y":2578699.790000001}},{"attributes":{"ID":25507,"DIS_CODE":0,"TOWNNAME":"善化區","LI":"文正里","LIN":"14鄰","STREET":"陽明路","SECT":" ","MAREA":" ","LANE":"２２３巷","ALLEY":"２弄","HOUSE_NO":"２４號","E_COORD97":176136.34,"N_COORD97":2559617.5099999998,"ADDRESS":"陽明路２２３巷２弄２４號","OBJECTID":25507},"geometry":{"x":176136.34000000078,"y":2559617.5100000016}},{"attributes":{"ID":25508,"DIS_CODE":0,"TOWNNAME":"善化區","LI":"文正里","LIN":"14鄰","STREET":"陽明路","SECT":" ","MAREA":" ","LANE":"２２３巷","ALLEY":"１弄","HOUSE_NO":"８號","E_COORD97":176107.84,"N_COORD97":2559652.5099999998,"ADDRESS":"陽明路２２３巷１弄８號","OBJECTID":25508},"geometry":{"x":176107.84000000078,"y":2559652.5099999998}},{"attributes":{"ID":25509,"DIS_CODE":0,"TOWNNAME":"善化區","LI":"文正里","LIN":"14鄰","STREET":"陽明路","SECT":" ","MAREA":" ","LANE":"２２３巷","ALLEY":"２弄","HOUSE_NO":"２８號","E_COORD97":176145.92999999999,"N_COORD97":2559617.2599999998,"ADDRESS":"陽明路２２３巷２弄２８號","OBJECTID":25509},"geometry":{"x":176145.93000000063,"y":2559617.2599999998}},{"attributes":{"ID":25510,"DIS_CODE":0,"TOWNNAME":"永康區","LI":"龍潭里","LIN":"9鄰","STREET":"龍橋街","SECT":" ","MAREA":" ","LANE":"５３巷","ALLEY":"２１弄","HOUSE_NO":"２號","E_COORD97":174753.12223400001,"N_COORD97":2548287.1817600001,"ADDRESS":"龍橋街５３巷２１弄２號","OBJECTID":25510},"geometry":{"x":174753.12223399989,"y":2548287.1817589998}},{"attributes":{"ID":25511,"DIS_CODE":0,"TOWNNAME":"善化區","LI":"文正里","LIN":"14鄰","STREET":"陽明路","SECT":" ","MAREA":" ","LANE":"２２３巷","ALLEY":"２弄","HOUSE_NO":"７號","E_COORD97":176092.06,"N_COORD97":2559630.7599999998,"ADDRESS":"陽明路２２３巷２弄７號","OBJECTID":25511},"geometry":{"x":176092.06000000052,"y":2559630.7599999998}},{"attributes":{"ID":25512,"DIS_CODE":0,"TOWNNAME":"善化區","LI":"文正里","LIN":"14鄰","STREET":"陽明路","SECT":" ","MAREA":" ","LANE":"２２３巷","ALLEY":"３弄","HOUSE_NO":"２３號","E_COORD97":176130.51999999999,"N_COORD97":2559596.0099999998,"ADDRESS":"陽明路２２３巷３弄２３號","OBJECTID":25512},"geometry":{"x":176130.51999999955,"y":2559596.0100000035}},{"attributes":{"ID":25513,"DIS_CODE":0,"TOWNNAME":"善化區","LI":"文正里","LIN":"14鄰","STREET":"陽明路","SECT":" ","MAREA":" ","LANE":"２２３巷","ALLEY":"２弄","HOUSE_NO":"１２號","E_COORD97":176101.59,"N_COORD97":2559617.7599999998,"ADDRESS":"陽明路２２３巷２弄１２號","OBJECTID":25513},"geometry":{"x":176101.58999999985,"y":2559617.7599999979}},{"attributes":{"ID":25514,"DIS_CODE":0,"TOWNNAME":"善化區","LI":"文正里","LIN":"14鄰","STREET":"陽明路","SECT":" ","MAREA":" ","LANE":"２２３巷","ALLEY":"２弄","HOUSE_NO":"２６號","E_COORD97":176141.06,"N_COORD97":2559617.5099999998,"ADDRESS":"陽明路２２３巷２弄２６號","OBJECTID":25514},"geometry":{"x":176141.06000000052,"y":2559617.5100000016}},{"attributes":{"ID":25515,"DIS_CODE":0,"TOWNNAME":"善化區","LI":"文正里","LIN":"14鄰","STREET":"陽明路","SECT":" ","MAREA":" ","LANE":"２２３巷","ALLEY":"２弄","HOUSE_NO":"３號","E_COORD97":176082.41,"N_COORD97":2559631.0099999998,"ADDRESS":"陽明路２２３巷２弄３號","OBJECTID":25515},"geometry":{"x":176082.41000000015,"y":2559631.0100000016}},{"attributes":{"ID":25516,"DIS_CODE":0,"TOWNNAME":"善化區","LI":"文正里","LIN":"14鄰","STREET":"陽明路","SECT":" ","MAREA":" ","LANE":"２２３巷","ALLEY":"２弄","HOUSE_NO":"１０號","E_COORD97":176096.81,"N_COORD97":2559617.7599999998,"ADDRESS":"陽明路２２３巷２弄１０號","OBJECTID":25516},"geometry":{"x":176096.81000000145,"y":2559617.7599999979}},{"attributes":{"ID":25517,"DIS_CODE":0,"TOWNNAME":"善化區","LI":"文正里","LIN":"14鄰","STREET":"陽明路","SECT":" ","MAREA":" ","LANE":"２２３巷","ALLEY":"３弄","HOUSE_NO":"２號","E_COORD97":176071.56,"N_COORD97":2559582.2599999998,"ADDRESS":"陽明路２２３巷３弄２號","OBJECTID":25517},"geometry":{"x":176071.56000000052,"y":2559582.2600000016}},{"attributes":{"ID":25518,"DIS_CODE":0,"TOWNNAME":"善化區","LI":"文正里","LIN":"14鄰","STREET":"陽明路","SECT":" ","MAREA":" ","LANE":"２２３巷","ALLEY":"３弄","HOUSE_NO":"６號","E_COORD97":176079.85999999999,"N_COORD97":2559582.7599999998,"ADDRESS":"陽明路２２３巷３弄６號","OBJECTID":25518},"geometry":{"x":176079.86000000034,"y":2559582.7599999998}},{"attributes":{"ID":25519,"DIS_CODE":0,"TOWNNAME":"善化區","LI":"文正里","LIN":"14鄰","STREET":"陽明路","SECT":" ","MAREA":" ","LANE":"２２３巷","ALLEY":"１弄","HOUSE_NO":"１２號","E_COORD97":176126.98999999999,"N_COORD97":2559645.0099999998,"ADDRESS":"陽明路２２３巷１弄１２號","OBJECTID":25519},"geometry":{"x":176126.99000000115,"y":2559645.0100000016}},{"attributes":{"ID":25520,"DIS_CODE":0,"TOWNNAME":"善化區","LI":"文正里","LIN":"14鄰","STREET":"陽明路","SECT":" ","MAREA":" ","LANE":"２２３巷","ALLEY":"２弄","HOUSE_NO":"３０號","E_COORD97":176150.91,"N_COORD97":2559617.2599999998,"ADDRESS":"陽明路２２３巷２弄３０號","OBJECTID":25520},"geometry":{"x":176150.91000000201,"y":2559617.2599999998}},{"attributes":{"ID":25521,"DIS_CODE":0,"TOWNNAME":"新營區","LI":"民生里","LIN":" ","STREET":"民生路","SECT":" ","MAREA":" ","LANE":" ","ALLEY":" ","HOUSE_NO":"１０３之２０號","E_COORD97":179201.69,"N_COORD97":2578528.9700000002,"ADDRESS":"民生路１０３之２０號","OBJECTID":25521},"geometry":{"x":179201.69000000041,"y":2578528.9700000044}},{"attributes":{"ID":25522,"DIS_CODE":0,"TOWNNAME":"新營區","LI":"興業里","LIN":" ","STREET":"中山路","SECT":" ","MAREA":" ","LANE":" ","ALLEY":" ","HOUSE_NO":"９１之２６號","E_COORD97":180460.01000000001,"N_COORD97":2578191.8599999999,"ADDRESS":"中山路９１之２６號","OBJECTID":25522},"geometry":{"x":180460.00999999978,"y":2578191.8599999994}},{"attributes":{"ID":25523,"DIS_CODE":0,"TOWNNAME":"新營區","LI":"中營里","LIN":" ","STREET":"中山路","SECT":" ","MAREA":" ","LANE":" ","ALLEY":" ","HOUSE_NO":"２之１號","E_COORD97":180789.42999999999,"N_COORD97":2578498.1800000002,"ADDRESS":"中山路２之１號","OBJECTID":25523},"geometry":{"x":180789.4299999997,"y":2578498.1799999997}},{"attributes":{"ID":25524,"DIS_CODE":0,"TOWNNAME":"新營區","LI":"三仙里","LIN":" ","STREET":"民權路","SECT":" ","MAREA":" ","LANE":" ","ALLEY":" ","HOUSE_NO":"３之６號","E_COORD97":179752.03,"N_COORD97":2578015.79,"ADDRESS":"民權路３之６號","OBJECTID":25524},"geometry":{"x":179752.03000000026,"y":2578015.7899999991}},{"attributes":{"ID":25525,"DIS_CODE":0,"TOWNNAME":"新市區","LI":"大社里","LIN":"34鄰","STREET":" ","SECT":" ","MAREA":"大社","LANE":" ","ALLEY":" ","HOUSE_NO":"５１０號","E_COORD97":179892.87,"N_COORD97":2554833.25,"ADDRESS":"大社５１０號","OBJECTID":25525},"geometry":{"x":179892.87000000104,"y":2554833.25}},{"attributes":{"ID":25526,"DIS_CODE":0,"TOWNNAME":"新市區","LI":"大社里","LIN":"8鄰","STREET":" ","SECT":" ","MAREA":"大社","LANE":" ","ALLEY":" ","HOUSE_NO":"２６９之１號","E_COORD97":180328.13,"N_COORD97":2554488.7999999998,"ADDRESS":"大社２６９之１號","OBJECTID":25526},"geometry":{"x":180328.13000000082,"y":2554488.8000000007}},{"attributes":{"ID":25527,"DIS_CODE":0,"TOWNNAME":"善化區","LI":"文正里","LIN":"14鄰","STREET":"陽明路","SECT":" ","MAREA":" ","LANE":"２２３巷","ALLEY":"３弄","HOUSE_NO":"２６號","E_COORD97":176131.85000000001,"N_COORD97":2559582.5099999998,"ADDRESS":"陽明路２２３巷３弄２６號","OBJECTID":25527},"geometry":{"x":176131.84999999963,"y":2559582.5100000035}},{"attributes":{"ID":25528,"DIS_CODE":0,"TOWNNAME":"善化區","LI":"文正里","LIN":"14鄰","STREET":"陽明路","SECT":" ","MAREA":" ","LANE":"２２３巷","ALLEY":"３弄","HOUSE_NO":"１號","E_COORD97":176071.60999999999,"N_COORD97":2559597.0099999998,"ADDRESS":"陽明路２２３巷３弄１號","OBJECTID":25528},"geometry":{"x":176071.61000000034,"y":2559597.0100000016}},{"attributes":{"ID":25529,"DIS_CODE":0,"TOWNNAME":"善化區","LI":"文正里","LIN":"14鄰","STREET":"陽明路","SECT":" ","MAREA":" ","LANE":"２２３巷","ALLEY":"３弄","HOUSE_NO":"１２號","E_COORD97":176095.20999999999,"N_COORD97":2559582.7599999998,"ADDRESS":"陽明路２２３巷３弄１２號","OBJECTID":25529},"geometry":{"x":176095.21000000089,"y":2559582.7599999998}},{"attributes":{"ID":25530,"DIS_CODE":0,"TOWNNAME":"善化區","LI":"文正里","LIN":"14鄰","STREET":"陽明路","SECT":" ","MAREA":" ","LANE":"２２３巷","ALLEY":"３弄","HOUSE_NO":"１５號","E_COORD97":176105.60999999999,"N_COORD97":2559596.5099999998,"ADDRESS":"陽明路２２３巷３弄１５號","OBJECTID":25530},"geometry":{"x":176105.6099999994,"y":2559596.5100000016}},{"attributes":{"ID":25531,"DIS_CODE":0,"TOWNNAME":"善化區","LI":"文正里","LIN":"14鄰","STREET":"陽明路","SECT":" ","MAREA":" ","LANE":"２２３巷","ALLEY":"３弄","HOUSE_NO":"２５號","E_COORD97":176135.26000000001,"N_COORD97":2559596.0099999998,"ADDRESS":"陽明路２２３巷３弄２５號","OBJECTID":25531},"geometry":{"x":176135.26000000071,"y":2559596.0100000035}},{"attributes":{"ID":25532,"DIS_CODE":0,"TOWNNAME":"佳里區","LI":"安西里","LIN":"34鄰","STREET":"安西路","SECT":" ","MAREA":" ","LANE":" ","ALLEY":" ","HOUSE_NO":"１９９號","E_COORD97":165115.48999999999,"N_COORD97":2562681.2999999998,"ADDRESS":"安西路１９９號","OBJECTID":25532},"geometry":{"x":165115.49000000115,"y":2562681.3000000026}},{"attributes":{"ID":25533,"DIS_CODE":0,"TOWNNAME":"佳里區","LI":"安西里","LIN":"34鄰","STREET":"安西路","SECT":" ","MAREA":" ","LANE":" ","ALLEY":" ","HOUSE_NO":"１７５號","E_COORD97":165115.14000000001,"N_COORD97":2562626.9399999999,"ADDRESS":"安西路１７５號","OBJECTID":25533},"geometry":{"x":165115.1400000006,"y":2562626.9399999976}},{"attributes":{"ID":25534,"DIS_CODE":0,"TOWNNAME":"永康區","LI":"西灣里","LIN":"14鄰","STREET":"民族路","SECT":" ","MAREA":" ","LANE":"４１５巷","ALLEY":"１８弄","HOUSE_NO":"１２號","E_COORD97":174743.63,"N_COORD97":2545318.0099999998,"ADDRESS":"民族路４１５巷１８弄１２號","OBJECTID":25534},"geometry":{"x":174743.62999999989,"y":2545318.0099999998}},{"attributes":{"ID":25535,"DIS_CODE":0,"TOWNNAME":"新市區","LI":"大洲里","LIN":"8鄰","STREET":" ","SECT":" ","MAREA":"大洲","LANE":" ","ALLEY":" ","HOUSE_NO":"７５號","E_COORD97":174096.85000000001,"N_COORD97":2552239,"ADDRESS":"大洲７５號","OBJECTID":25535},"geometry":{"x":174096.85000000056,"y":2552239.0000000037}},{"attributes":{"ID":25536,"DIS_CODE":0,"TOWNNAME":"永康區","LI":"西灣里","LIN":"14鄰","STREET":"民族路","SECT":" ","MAREA":" ","LANE":"４１５巷","ALLEY":"１８弄","HOUSE_NO":"６號","E_COORD97":174755.78,"N_COORD97":2545316.2599999998,"ADDRESS":"民族路４１５巷１８弄６號","OBJECTID":25536},"geometry":{"x":174755.78000000119,"y":2545316.2599999998}},{"attributes":{"ID":25537,"DIS_CODE":0,"TOWNNAME":"永康區","LI":"西灣里","LIN":"14鄰","STREET":"民族路","SECT":" ","MAREA":" ","LANE":"４１５巷","ALLEY":"１８弄","HOUSE_NO":"１６號","E_COORD97":174739.04000000001,"N_COORD97":2545318.5099999998,"ADDRESS":"民族路４１５巷１８弄１６號","OBJECTID":25537},"geometry":{"x":174739.04000000004,"y":2545318.5099999998}},{"attributes":{"ID":25538,"DIS_CODE":0,"TOWNNAME":"永康區","LI":"神洲里","LIN":"14鄰","STREET":"忠孝路","SECT":" ","MAREA":" ","LANE":"７６巷","ALLEY":"６３弄","HOUSE_NO":"１７號","E_COORD97":172236.22,"N_COORD97":2544998.25,"ADDRESS":"忠孝路７６巷６３弄１７號","OBJECTID":25538},"geometry":{"x":172236.22000000067,"y":2544998.25}},{"attributes":{"ID":25539,"DIS_CODE":0,"TOWNNAME":"安南區","LI":"溪北里","LIN":"14鄰","STREET":"府安路","SECT":"四段","MAREA":" ","LANE":"９１巷","ALLEY":"２２弄","HOUSE_NO":"１２號","E_COORD97":169152.70999999999,"N_COORD97":2547370.27,"ADDRESS":"府安路四段９１巷２２弄１２號","OBJECTID":25539},"geometry":{"x":169152.71000000183,"y":2547370.2699999996}},{"attributes":{"ID":25540,"DIS_CODE":0,"TOWNNAME":"安南區","LI":"溪北里","LIN":"14鄰","STREET":"府安路","SECT":"四段","MAREA":" ","LANE":"９１巷","ALLEY":"２２弄","HOUSE_NO":"１４號","E_COORD97":169157.20000000001,"N_COORD97":2547373.6600000001,"ADDRESS":"府安路四段９１巷２２弄１４號","OBJECTID":25540},"geometry":{"x":169157.20000000112,"y":2547373.660000002}},{"attributes":{"ID":25541,"DIS_CODE":0,"TOWNNAME":"新營區","LI":"民榮里","LIN":" ","STREET":"裕民路","SECT":" ","MAREA":" ","LANE":" ","ALLEY":" ","HOUSE_NO":"１５之７號","E_COORD97":179172.22,"N_COORD97":2577809.25,"ADDRESS":"裕民路１５之７號","OBJECTID":25541},"geometry":{"x":179172.21999999974,"y":2577809.2500000019}},{"attributes":{"ID":25542,"DIS_CODE":0,"TOWNNAME":"新營區","LI":"民榮里","LIN":" ","STREET":"裕民路","SECT":" ","MAREA":" ","LANE":" ","ALLEY":" ","HOUSE_NO":"１５之６號","E_COORD97":179172.23000000001,"N_COORD97":2577812.5699999998,"ADDRESS":"裕民路１５之６號","OBJECTID":25542},"geometry":{"x":179172.23000000138,"y":2577812.570000004}},{"attributes":{"ID":25543,"DIS_CODE":0,"TOWNNAME":"新營區","LI":"中營里","LIN":" ","STREET":"東山路","SECT":" ","MAREA":" ","LANE":" ","ALLEY":" ","HOUSE_NO":"１３６號","E_COORD97":181456.98999999999,"N_COORD97":2578654.5,"ADDRESS":"東山路１３６號","OBJECTID":25543},"geometry":{"x":181456.99000000115,"y":2578654.5000000019}},{"attributes":{"ID":25544,"DIS_CODE":0,"TOWNNAME":"新營區","LI":"三仙里","LIN":"20鄰","STREET":"三民路","SECT":" ","MAREA":" ","LANE":" ","ALLEY":" ","HOUSE_NO":"１４０號之６","E_COORD97":179535.26999999999,"N_COORD97":2578444.3100000001,"ADDRESS":"三民路１４０號之６","OBJECTID":25544},"geometry":{"x":179535.27000000048,"y":2578444.3100000005}},{"attributes":{"ID":25545,"DIS_CODE":0,"TOWNNAME":"新市區","LI":"大洲里","LIN":"8鄰","STREET":" ","SECT":" ","MAREA":"大洲","LANE":" ","ALLEY":" ","HOUSE_NO":"７２號","E_COORD97":174077.26999999999,"N_COORD97":2552150,"ADDRESS":"大洲７２號","OBJECTID":25545},"geometry":{"x":174077.26999999955,"y":2552150}},{"attributes":{"ID":25546,"DIS_CODE":0,"TOWNNAME":"新市區","LI":"三舍里","LIN":"8鄰","STREET":" ","SECT":" ","MAREA":"三舍","LANE":" ","ALLEY":" ","HOUSE_NO":"１８３之１６號","E_COORD97":177353.70999999999,"N_COORD97":2554872.2999999998,"ADDRESS":"三舍１８３之１６號","OBJECTID":25546},"geometry":{"x":177353.70999999996,"y":2554872.3000000045}},{"attributes":{"ID":25547,"DIS_CODE":0,"TOWNNAME":"新市區","LI":"三舍里","LIN":"8鄰","STREET":" ","SECT":" ","MAREA":"三舍","LANE":" ","ALLEY":" ","HOUSE_NO":"１８３之１８號","E_COORD97":177349.37,"N_COORD97":2554869.5499999998,"ADDRESS":"三舍１８３之１８號","OBJECTID":25547},"geometry":{"x":177349.37000000011,"y":2554869.5500000007}},{"attributes":{"ID":25548,"DIS_CODE":0,"TOWNNAME":"新市區","LI":"大洲里","LIN":"8鄰","STREET":" ","SECT":" ","MAREA":"大洲","LANE":" ","ALLEY":" ","HOUSE_NO":"７９號之６","E_COORD97":174161.59,"N_COORD97":2552203.2999999998,"ADDRESS":"大洲７９號之６","OBJECTID":25548},"geometry":{"x":174161.59000000078,"y":2552203.3000000007}},{"attributes":{"ID":25549,"DIS_CODE":0,"TOWNNAME":"安南區","LI":"溪北里","LIN":"14鄰","STREET":"府安路","SECT":"四段","MAREA":" ","LANE":"９１巷","ALLEY":"２２弄","HOUSE_NO":"１６號","E_COORD97":169160.67000000001,"N_COORD97":2547378.7799999998,"ADDRESS":"府安路四段９１巷２２弄１６號","OBJECTID":25549},"geometry":{"x":169160.66999999993,"y":2547378.7800000012}},{"attributes":{"ID":25550,"DIS_CODE":0,"TOWNNAME":"安南區","LI":"溪北里","LIN":"14鄰","STREET":"府安路","SECT":"四段","MAREA":" ","LANE":"９１巷","ALLEY":"２２弄","HOUSE_NO":"１８號","E_COORD97":169165.23999999999,"N_COORD97":2547374.6000000001,"ADDRESS":"府安路四段９１巷２２弄１８號","OBJECTID":25550},"geometry":{"x":169165.24000000115,"y":2547374.5999999996}},{"attributes":{"ID":25551,"DIS_CODE":0,"TOWNNAME":"安南區","LI":"溪北里","LIN":"14鄰","STREET":"府安路","SECT":"四段","MAREA":" ","LANE":"９１巷","ALLEY":"２２弄","HOUSE_NO":"２０號","E_COORD97":169168.70999999999,"N_COORD97":2547380.04,"ADDRESS":"府安路四段９１巷２２弄２０號","OBJECTID":25551},"geometry":{"x":169168.71000000089,"y":2547380.040000001}},{"attributes":{"ID":25552,"DIS_CODE":0,"TOWNNAME":"安南區","LI":"溪北里","LIN":"14鄰","STREET":"府安路","SECT":"四段","MAREA":" ","LANE":"９１巷","ALLEY":"２２弄","HOUSE_NO":"２２號","E_COORD97":169173.28,"N_COORD97":2547375.3900000001,"ADDRESS":"府安路四段９１巷２２弄２２號","OBJECTID":25552},"geometry":{"x":169173.28000000119,"y":2547375.3900000043}},{"attributes":{"ID":25553,"DIS_CODE":0,"TOWNNAME":"安南區","LI":"溪北里","LIN":"14鄰","STREET":"府安路","SECT":"四段","MAREA":" ","LANE":"９１巷","ALLEY":"２２弄","HOUSE_NO":"２４號","E_COORD97":169176.51000000001,"N_COORD97":2547380.3500000001,"ADDRESS":"府安路四段９１巷２２弄２４號","OBJECTID":25553},"geometry":{"x":169176.51000000071,"y":2547380.3499999996}},{"attributes":{"ID":25554,"DIS_CODE":0,"TOWNNAME":"安南區","LI":"溪北里","LIN":"14鄰","STREET":"府安路","SECT":"四段","MAREA":" ","LANE":"９１巷","ALLEY":"２２弄","HOUSE_NO":"２６號","E_COORD97":169181.13,"N_COORD97":2547376.02,"ADDRESS":"府安路四段９１巷２２弄２６號","OBJECTID":25554},"geometry":{"x":169181.12999999989,"y":2547376.0199999996}},{"attributes":{"ID":25555,"DIS_CODE":0,"TOWNNAME":"安南區","LI":"溪北里","LIN":"14鄰","STREET":"府安路","SECT":"四段","MAREA":" ","LANE":"９１巷","ALLEY":"２２弄","HOUSE_NO":"２８號","E_COORD97":169184.60000000001,"N_COORD97":2547380.9100000001,"ADDRESS":"府安路四段９１巷２２弄２８號","OBJECTID":25555},"geometry":{"x":169184.59999999963,"y":2547380.9100000001}},{"attributes":{"ID":25556,"DIS_CODE":0,"TOWNNAME":"安南區","LI":"溪北里","LIN":"14鄰","STREET":"府安路","SECT":"四段","MAREA":" ","LANE":"９１巷","ALLEY":"２２弄","HOUSE_NO":"３０號","E_COORD97":169189.01999999999,"N_COORD97":2547377.21,"ADDRESS":"府安路四段９１巷２２弄３０號","OBJECTID":25556},"geometry":{"x":169189.01999999862,"y":2547377.2100000028}},{"attributes":{"ID":25557,"DIS_CODE":0,"TOWNNAME":"安南區","LI":"溪北里","LIN":"14鄰","STREET":"府安路","SECT":"四段","MAREA":" ","LANE":"９１巷","ALLEY":"２２弄","HOUSE_NO":"３２號","E_COORD97":169192.48000000001,"N_COORD97":2547380.8300000001,"ADDRESS":"府安路四段９１巷２２弄３２號","OBJECTID":25557},"geometry":{"x":169192.48000000138,"y":2547380.8300000001}},{"attributes":{"ID":25558,"DIS_CODE":0,"TOWNNAME":"安南區","LI":"溪北里","LIN":"14鄰","STREET":"府安路","SECT":"四段","MAREA":" ","LANE":"９１巷","ALLEY":"２２弄","HOUSE_NO":"３４號","E_COORD97":169197.06,"N_COORD97":2547377.3599999999,"ADDRESS":"府安路四段９１巷２２弄３４號","OBJECTID":25558},"geometry":{"x":169197.05999999959,"y":2547377.3599999994}},{"attributes":{"ID":25559,"DIS_CODE":0,"TOWNNAME":"安南區","LI":"溪北里","LIN":"14鄰","STREET":"府安路","SECT":"四段","MAREA":" ","LANE":"９１巷","ALLEY":"２２弄","HOUSE_NO":"３６號","E_COORD97":169200.67999999999,"N_COORD97":2547380.8300000001,"ADDRESS":"府安路四段９１巷２２弄３６號","OBJECTID":25559},"geometry":{"x":169200.68000000063,"y":2547380.8300000001}},{"attributes":{"ID":25560,"DIS_CODE":0,"TOWNNAME":"安南區","LI":"溪北里","LIN":"14鄰","STREET":"府安路","SECT":"四段","MAREA":" ","LANE":"９１巷","ALLEY":"２２弄","HOUSE_NO":"３８號","E_COORD97":169205.01999999999,"N_COORD97":2547377.7599999998,"ADDRESS":"府安路四段９１巷２２弄３８號","OBJECTID":25560},"geometry":{"x":169205.02000000048,"y":2547377.7599999998}},{"attributes":{"ID":25561,"DIS_CODE":0,"TOWNNAME":"中西區","LI":"西湖里","LIN":"34鄰","STREET":"西湖街","SECT":" ","MAREA":" ","LANE":" ","ALLEY":" ","HOUSE_NO":"２０９號","E_COORD97":166237.29000000001,"N_COORD97":2544905.7599999998,"ADDRESS":"西湖街２０９號","OBJECTID":25561},"geometry":{"x":166237.29000000097,"y":2544905.7599999998}},{"attributes":{"ID":25562,"DIS_CODE":0,"TOWNNAME":"中西區","LI":"西湖里","LIN":"34鄰","STREET":"西湖街","SECT":" ","MAREA":" ","LANE":" ","ALLEY":" ","HOUSE_NO":"２０７號","E_COORD97":166242.37,"N_COORD97":2544905.4399999999,"ADDRESS":"西湖街２０７號","OBJECTID":25562},"geometry":{"x":166242.37000000011,"y":2544905.4399999976}},{"attributes":{"ID":25563,"DIS_CODE":0,"TOWNNAME":"中西區","LI":"西湖里","LIN":"34鄰","STREET":"西湖街","SECT":" ","MAREA":" ","LANE":" ","ALLEY":" ","HOUSE_NO":"９５號","E_COORD97":166346.94,"N_COORD97":2544897.5699999998,"ADDRESS":"西湖街９５號","OBJECTID":25563},"geometry":{"x":166346.94000000041,"y":2544897.5700000003}},{"attributes":{"ID":25564,"DIS_CODE":0,"TOWNNAME":"中西區","LI":"西湖里","LIN":"34鄰","STREET":"西湖街","SECT":" ","MAREA":" ","LANE":" ","ALLEY":" ","HOUSE_NO":"８１號","E_COORD97":166378.57000000001,"N_COORD97":2544894.6600000001,"ADDRESS":"西湖街８１號","OBJECTID":25564},"geometry":{"x":166378.5700000003,"y":2544894.6600000039}},{"attributes":{"ID":25565,"DIS_CODE":0,"TOWNNAME":"中西區","LI":"西湖里","LIN":"34鄰","STREET":"西湖街","SECT":" ","MAREA":" ","LANE":" ","ALLEY":" ","HOUSE_NO":"２０５號","E_COORD97":166247.45000000001,"N_COORD97":2544904.73,"ADDRESS":"西湖街２０５號","OBJECTID":25565},"geometry":{"x":166247.45000000205,"y":2544904.7300000042}},{"attributes":{"ID":25566,"DIS_CODE":0,"TOWNNAME":"安南區","LI":"溪北里","LIN":"14鄰","STREET":"府安路","SECT":"四段","MAREA":" ","LANE":"９１巷","ALLEY":"２２弄","HOUSE_NO":"４０號","E_COORD97":169208.60999999999,"N_COORD97":2547380.8399999999,"ADDRESS":"府安路四段９１巷２２弄４０號","OBJECTID":25566},"geometry":{"x":169208.61000000127,"y":2547380.8399999999}},{"attributes":{"ID":25567,"DIS_CODE":0,"TOWNNAME":"安南區","LI":"溪北里","LIN":"14鄰","STREET":"府安路","SECT":"四段","MAREA":" ","LANE":"９１巷","ALLEY":"２２弄","HOUSE_NO":"４２號","E_COORD97":169212.94,"N_COORD97":2547378.8700000001,"ADDRESS":"府安路四段９１巷２２弄４２號","OBJECTID":25567},"geometry":{"x":169212.94000000134,"y":2547378.870000001}},{"attributes":{"ID":25568,"DIS_CODE":0,"TOWNNAME":"安南區","LI":"溪北里","LIN":"14鄰","STREET":"府安路","SECT":"四段","MAREA":" ","LANE":"９１巷","ALLEY":"２２弄","HOUSE_NO":"４４號","E_COORD97":169216.73000000001,"N_COORD97":2547381.23,"ADDRESS":"府安路四段９１巷２２弄４４號","OBJECTID":25568},"geometry":{"x":169216.73000000045,"y":2547381.2300000023}},{"attributes":{"ID":25569,"DIS_CODE":0,"TOWNNAME":"安南區","LI":"溪北里","LIN":"14鄰","STREET":"府安路","SECT":"四段","MAREA":" ","LANE":"９１巷","ALLEY":"２２弄","HOUSE_NO":"４６號","E_COORD97":169221.62,"N_COORD97":2547379.6499999999,"ADDRESS":"府安路四段９１巷２２弄４６號","OBJECTID":25569},"geometry":{"x":169221.62000000104,"y":2547379.6500000004}},{"attributes":{"ID":25570,"DIS_CODE":0,"TOWNNAME":"安南區","LI":"溪北里","LIN":"14鄰","STREET":"府安路","SECT":"四段","MAREA":" ","LANE":"９１巷","ALLEY":"２２弄","HOUSE_NO":"４８號","E_COORD97":169231.32999999999,"N_COORD97":2547375.6899999999,"ADDRESS":"府安路四段９１巷２２弄４８號","OBJECTID":25570},"geometry":{"x":169231.33000000007,"y":2547375.6900000032}},{"attributes":{"ID":25571,"DIS_CODE":0,"TOWNNAME":"安南區","LI":"溪北里","LIN":"14鄰","STREET":"府安路","SECT":"四段","MAREA":" ","LANE":"９１巷","ALLEY":"２２弄","HOUSE_NO":"５０號","E_COORD97":169234.57000000001,"N_COORD97":2547376.7400000002,"ADDRESS":"府安路四段９１巷２２弄５０號","OBJECTID":25571},"geometry":{"x":169234.5700000003,"y":2547376.7400000021}},{"attributes":{"ID":25572,"DIS_CODE":0,"TOWNNAME":"安南區","LI":"溪北里","LIN":"14鄰","STREET":"府安路","SECT":"四段","MAREA":" ","LANE":"９１巷","ALLEY":"２２弄","HOUSE_NO":"５２號","E_COORD97":169238.12,"N_COORD97":2547377.7799999998,"ADDRESS":"府安路四段９１巷２２弄５２號","OBJECTID":25572},"geometry":{"x":169238.11999999918,"y":2547377.7799999993}},{"attributes":{"ID":25573,"DIS_CODE":0,"TOWNNAME":"新營區","LI":"三仙里","LIN":"20鄰","STREET":"三民路","SECT":" ","MAREA":" ","LANE":" ","ALLEY":" ","HOUSE_NO":"１４０號之４１","E_COORD97":179545.45000000001,"N_COORD97":2578407.71,"ADDRESS":"三民路１４０號之４１","OBJECTID":25573},"geometry":{"x":179545.45000000019,"y":2578407.7100000009}},{"attributes":{"ID":25574,"DIS_CODE":0,"TOWNNAME":"新營區","LI":"三仙里","LIN":"20鄰","STREET":"三民路","SECT":" ","MAREA":" ","LANE":" ","ALLEY":" ","HOUSE_NO":"１４０號之１１","E_COORD97":179517.98999999999,"N_COORD97":2578441.0699999998,"ADDRESS":"三民路１４０號之１１","OBJECTID":25574},"geometry":{"x":179517.99000000022,"y":2578441.0700000022}},{"attributes":{"ID":25575,"DIS_CODE":0,"TOWNNAME":"安南區","LI":"溪北里","LIN":"14鄰","STREET":"府安路","SECT":"四段","MAREA":" ","LANE":"９１巷","ALLEY":"２２弄","HOUSE_NO":"５４號","E_COORD97":169242.29000000001,"N_COORD97":2547378.5099999998,"ADDRESS":"府安路四段９１巷２２弄５４號","OBJECTID":25575},"geometry":{"x":169242.29000000097,"y":2547378.5100000016}},{"attributes":{"ID":25576,"DIS_CODE":0,"TOWNNAME":"新營區","LI":"忠政里","LIN":"25鄰","STREET":"府西路","SECT":" ","MAREA":" ","LANE":" ","ALLEY":" ","HOUSE_NO":"１８５號","E_COORD97":179797.57999999999,"N_COORD97":2579445.2400000002,"ADDRESS":"府西路１８５號","OBJECTID":25576},"geometry":{"x":179797.58000000007,"y":2579445.2400000002}},{"attributes":{"ID":25577,"DIS_CODE":0,"TOWNNAME":"安南區","LI":"溪北里","LIN":"14鄰","STREET":"府安路","SECT":"四段","MAREA":" ","LANE":"９１巷","ALLEY":"２２弄","HOUSE_NO":"５８號","E_COORD97":169250.10999999999,"N_COORD97":2547381.6299999999,"ADDRESS":"府安路四段９１巷２２弄５８號","OBJECTID":25577},"geometry":{"x":169250.11000000034,"y":2547381.629999999}},{"attributes":{"ID":25578,"DIS_CODE":0,"TOWNNAME":"安南區","LI":"溪北里","LIN":"14鄰","STREET":"府安路","SECT":"四段","MAREA":" ","LANE":"９１巷","ALLEY":"２２弄","HOUSE_NO":"６０號","E_COORD97":169253.53,"N_COORD97":2547381.7999999998,"ADDRESS":"府安路四段９１巷２２弄６０號","OBJECTID":25578},"geometry":{"x":169253.53000000026,"y":2547381.8000000007}},{"attributes":{"ID":25579,"DIS_CODE":0,"TOWNNAME":"安南區","LI":"溪北里","LIN":"14鄰","STREET":"府安路","SECT":"四段","MAREA":" ","LANE":"９１巷","ALLEY":"２２弄","HOUSE_NO":"６２號","E_COORD97":169256.70999999999,"N_COORD97":2547384.2599999998,"ADDRESS":"府安路四段９１巷２２弄６２號","OBJECTID":25579},"geometry":{"x":169256.71000000089,"y":2547384.2599999998}},{"attributes":{"ID":25580,"DIS_CODE":0,"TOWNNAME":"新營區","LI":"忠政里","LIN":"25鄰","STREET":"府西路","SECT":" ","MAREA":" ","LANE":" ","ALLEY":" ","HOUSE_NO":"７２號","E_COORD97":179813.79000000001,"N_COORD97":2579238.0600000001,"ADDRESS":"府西路７２號","OBJECTID":25580},"geometry":{"x":179813.79000000097,"y":2579238.0600000024}},{"attributes":{"ID":25581,"DIS_CODE":0,"TOWNNAME":"新營區","LI":"民榮里","LIN":"13鄰","STREET":"南昌街","SECT":" ","MAREA":" ","LANE":" ","ALLEY":" ","HOUSE_NO":"６２號","E_COORD97":179225.29000000001,"N_COORD97":2577662.75,"ADDRESS":"南昌街６２號","OBJECTID":25581},"geometry":{"x":179225.29000000097,"y":2577662.7500000019}},{"attributes":{"ID":25582,"DIS_CODE":0,"TOWNNAME":"安南區","LI":"溪北里","LIN":"14鄰","STREET":"府安路","SECT":"四段","MAREA":" ","LANE":"９１巷","ALLEY":"２２弄","HOUSE_NO":"６４號","E_COORD97":169260.66,"N_COORD97":2547386.4500000002,"ADDRESS":"府安路四段９１巷２２弄６４號","OBJECTID":25582},"geometry":{"x":169260.66000000108,"y":2547386.4499999993}},{"attributes":{"ID":25583,"DIS_CODE":0,"TOWNNAME":"新營區","LI":"民榮里","LIN":"13鄰","STREET":"南昌街","SECT":" ","MAREA":" ","LANE":" ","ALLEY":" ","HOUSE_NO":"６２之２號","E_COORD97":179218.59,"N_COORD97":2577663.9500000002,"ADDRESS":"南昌街６２之２號","OBJECTID":25583},"geometry":{"x":179218.58999999985,"y":2577663.9500000011}},{"attributes":{"ID":25584,"DIS_CODE":0,"TOWNNAME":"安南區","LI":"溪北里","LIN":"14鄰","STREET":"府安路","SECT":"四段","MAREA":" ","LANE":"９１巷","ALLEY":"２２弄","HOUSE_NO":"６６號","E_COORD97":169262.89999999999,"N_COORD97":2547388.7200000002,"ADDRESS":"府安路四段９１巷２２弄６６號","OBJECTID":25584},"geometry":{"x":169262.90000000037,"y":2547388.7200000007}},{"attributes":{"ID":25585,"DIS_CODE":0,"TOWNNAME":"安南區","LI":"溪北里","LIN":"14鄰","STREET":"府安路","SECT":"四段","MAREA":" ","LANE":"９１巷","ALLEY":"２２弄","HOUSE_NO":"６８號","E_COORD97":169265.98999999999,"N_COORD97":2547391.6499999999,"ADDRESS":"府安路四段９１巷２２弄６８號","OBJECTID":25585},"geometry":{"x":169265.99000000022,"y":2547391.6500000022}},{"attributes":{"ID":25586,"DIS_CODE":0,"TOWNNAME":"新營區","LI":"民榮里","LIN":" ","STREET":"興農街","SECT":" ","MAREA":" ","LANE":" ","ALLEY":" ","HOUSE_NO":"８６之１號","E_COORD97":179237.57999999999,"N_COORD97":2577772.3900000001,"ADDRESS":"興農街８６之１號","OBJECTID":25586},"geometry":{"x":179237.58000000007,"y":2577772.3900000006}},{"attributes":{"ID":25587,"DIS_CODE":0,"TOWNNAME":"安南區","LI":"溪北里","LIN":"14鄰","STREET":"府安路","SECT":"四段","MAREA":" ","LANE":"９１巷","ALLEY":"２２弄","HOUSE_NO":"７０號","E_COORD97":169269.34,"N_COORD97":2547393.8199999998,"ADDRESS":"府安路四段９１巷２２弄７０號","OBJECTID":25587},"geometry":{"x":169269.34000000078,"y":2547393.8200000022}},{"attributes":{"ID":25588,"DIS_CODE":0,"TOWNNAME":"安南區","LI":"溪北里","LIN":"14鄰","STREET":"府安路","SECT":"四段","MAREA":" ","LANE":"９１巷","ALLEY":"２２弄","HOUSE_NO":"７２號","E_COORD97":169273.19,"N_COORD97":2547395.4100000001,"ADDRESS":"府安路四段９１巷２２弄７２號","OBJECTID":25588},"geometry":{"x":169273.19000000041,"y":2547395.410000002}},{"attributes":{"ID":25589,"DIS_CODE":0,"TOWNNAME":"新營區","LI":"民榮里","LIN":" ","STREET":"裕民路","SECT":" ","MAREA":" ","LANE":" ","ALLEY":" ","HOUSE_NO":"１７之２號","E_COORD97":179188.67000000001,"N_COORD97":2577825.7799999998,"ADDRESS":"裕民路１７之２號","OBJECTID":25589},"geometry":{"x":179188.67000000086,"y":2577825.7799999993}},{"attributes":{"ID":25590,"DIS_CODE":0,"TOWNNAME":"新營區","LI":"民榮里","LIN":" ","STREET":"裕民路","SECT":" ","MAREA":" ","LANE":" ","ALLEY":" ","HOUSE_NO":"１１之７號","E_COORD97":179221.51999999999,"N_COORD97":2577849.9900000002,"ADDRESS":"裕民路１１之７號","OBJECTID":25590},"geometry":{"x":179221.52000000048,"y":2577849.9900000002}},{"attributes":{"ID":25591,"DIS_CODE":0,"TOWNNAME":"新營區","LI":"三仙里","LIN":"20鄰","STREET":"三民路","SECT":" ","MAREA":" ","LANE":" ","ALLEY":" ","HOUSE_NO":"１４０號之１７","E_COORD97":179527.32000000001,"N_COORD97":2578451,"ADDRESS":"三民路１４０號之１７","OBJECTID":25591},"geometry":{"x":179527.32000000123,"y":2578451.0000000019}},{"attributes":{"ID":25592,"DIS_CODE":0,"TOWNNAME":"新營區","LI":"忠政里","LIN":"25鄰","STREET":"府西路","SECT":" ","MAREA":" ","LANE":" ","ALLEY":" ","HOUSE_NO":"７６號","E_COORD97":179812.85000000001,"N_COORD97":2579255.7999999998,"ADDRESS":"府西路７６號","OBJECTID":25592},"geometry":{"x":179812.85000000056,"y":2579255.8000000045}},{"attributes":{"ID":25593,"DIS_CODE":0,"TOWNNAME":"新營區","LI":"民榮里","LIN":"13鄰","STREET":"新進路","SECT":"二段","MAREA":" ","LANE":" ","ALLEY":" ","HOUSE_NO":"１８３之４號","E_COORD97":179210.89999999999,"N_COORD97":2577721.5800000001,"ADDRESS":"新進路二段１８３之４號","OBJECTID":25593},"geometry":{"x":179210.90000000037,"y":2577721.5800000019}},{"attributes":{"ID":25594,"DIS_CODE":0,"TOWNNAME":"永康區","LI":"復國里","LIN":"34鄰","STREET":"復華一街","SECT":" ","MAREA":" ","LANE":" ","ALLEY":" ","HOUSE_NO":"６５號","E_COORD97":172531.73000000001,"N_COORD97":2545071.5299999998,"ADDRESS":"復華一街６５號","OBJECTID":25594},"geometry":{"x":172531.73000000138,"y":2545071.5300000012}},{"attributes":{"ID":25595,"DIS_CODE":0,"TOWNNAME":"新營區","LI":"民榮里","LIN":" ","STREET":"裕民路","SECT":" ","MAREA":" ","LANE":" ","ALLEY":" ","HOUSE_NO":"１７之９號","E_COORD97":179188.56,"N_COORD97":2577802.5299999998,"ADDRESS":"裕民路１７之９號","OBJECTID":25595},"geometry":{"x":179188.55999999959,"y":2577802.5300000012}},{"attributes":{"ID":25596,"DIS_CODE":0,"TOWNNAME":"新市區","LI":"三舍里","LIN":"8鄰","STREET":" ","SECT":" ","MAREA":"三舍","LANE":" ","ALLEY":" ","HOUSE_NO":"１８３之１０號","E_COORD97":177361.89000000001,"N_COORD97":2554877.7999999998,"ADDRESS":"三舍１８３之１０號","OBJECTID":25596},"geometry":{"x":177361.88999999966,"y":2554877.8000000007}},{"attributes":{"ID":25597,"DIS_CODE":0,"TOWNNAME":"安南區","LI":"溪北里","LIN":"14鄰","STREET":"府安路","SECT":"四段","MAREA":" ","LANE":"９１巷","ALLEY":"２２弄","HOUSE_NO":"７６號","E_COORD97":169286.17999999999,"N_COORD97":2547399.6499999999,"ADDRESS":"府安路四段９１巷２２弄７６號","OBJECTID":25597},"geometry":{"x":169286.1799999997,"y":2547399.6500000004}},{"attributes":{"ID":25598,"DIS_CODE":0,"TOWNNAME":"安南區","LI":"溪北里","LIN":"14鄰","STREET":"府安路","SECT":"四段","MAREA":" ","LANE":"９１巷","ALLEY":"２２弄","HOUSE_NO":"８２號","E_COORD97":169304.03,"N_COORD97":2547407.02,"ADDRESS":"府安路四段９１巷２２弄８２號","OBJECTID":25598},"geometry":{"x":169304.03000000119,"y":2547407.0199999977}},{"attributes":{"ID":25599,"DIS_CODE":0,"TOWNNAME":"安南區","LI":"溪北里","LIN":"14鄰","STREET":"府安路","SECT":"四段","MAREA":" ","LANE":"９１巷","ALLEY":"２２弄","HOUSE_NO":"８４號","E_COORD97":169310.98999999999,"N_COORD97":2547409.2799999998,"ADDRESS":"府安路四段９１巷２２弄８４號","OBJECTID":25599},"geometry":{"x":169310.99000000115,"y":2547409.2800000012}},{"attributes":{"ID":25600,"DIS_CODE":0,"TOWNNAME":"安南區","LI":"溪北里","LIN":"14鄰","STREET":"府安路","SECT":"四段","MAREA":" ","LANE":"９１巷","ALLEY":"２２弄","HOUSE_NO":"８６號","E_COORD97":169316.60000000001,"N_COORD97":2547412.1299999999,"ADDRESS":"府安路四段９１巷２２弄８６號","OBJECTID":25600},"geometry":{"x":169316.60000000056,"y":2547412.129999999}}]}