{"displayFieldName":"TOWNNAME","fieldAliases":{"ID":"ID","DIS_CODE":"DIS_CODE","TOWNNAME":"TOWNNAME","LI":"LI","LIN":"LIN","STREET":"STREET","SECT":"SECT","MAREA":"MAREA","LANE":"LANE","ALLEY":"ALLEY","HOUSE_NO":"HOUSE_NO","E_COORD97":"E_COORD97","N_COORD97":"N_COORD97","ADDRESS":"ADDRESS","OBJECTID":"OBJECTID"},"geometryType":"esriGeometryPoint","spatialReference":{"wkid":102443,"latestWkid":3826},"fields":[{"name":"ID","type":"esriFieldTypeDouble","alias":"ID"},{"name":"DIS_CODE","type":"esriFieldTypeInteger","alias":"DIS_CODE"},{"name":"TOWNNAME","type":"esriFieldTypeString","alias":"TOWNNAME","length":8},{"name":"LI","type":"esriFieldTypeString","alias":"LI","length":8},{"name":"LIN","type":"esriFieldTypeString","alias":"LIN","length":12},{"name":"STREET","type":"esriFieldTypeString","alias":"STREET","length":20},{"name":"SECT","type":"esriFieldTypeString","alias":"SECT","length":8},{"name":"MAREA","type":"esriFieldTypeString","alias":"MAREA","length":12},{"name":"LANE","type":"esriFieldTypeString","alias":"LANE","length":10},{"name":"ALLEY","type":"esriFieldTypeString","alias":"ALLEY","length":10},{"name":"HOUSE_NO","type":"esriFieldTypeString","alias":"HOUSE_NO","length":20},{"name":"E_COORD97","type":"esriFieldTypeDouble","alias":"E_COORD97"},{"name":"N_COORD97","type":"esriFieldTypeDouble","alias":"N_COORD97"},{"name":"ADDRESS","type":"esriFieldTypeString","alias":"ADDRESS","length":50},{"name":"OBJECTID","type":"esriFieldTypeOID","alias":"OBJECTID"}],"features":[{"attributes":{"ID":159602,"DIS_CODE":0,"TOWNNAME":"安南區","LI":"安富里","LIN":"2鄰","STREET":"郡安路","SECT":"五段","MAREA":" ","LANE":"１８４巷","ALLEY":"１０弄","HOUSE_NO":"５０號","E_COORD97":167306.35999999999,"N_COORD97":2547697.6699999999,"ADDRESS":"郡安路五段１８４巷１０弄５０號","OBJECTID":159601},"geometry":{"x":167306.36000000127,"y":2547697.6699999999}},{"attributes":{"ID":159603,"DIS_CODE":0,"TOWNNAME":"中西區","LI":"仙草里","LIN":"12鄰","STREET":"府緯街","SECT":" ","MAREA":" ","LANE":" ","ALLEY":" ","HOUSE_NO":"２４號","E_COORD97":167911.72,"N_COORD97":2542727.0099999998,"ADDRESS":"府緯街２４號","OBJECTID":159602},"geometry":{"x":167911.72000000067,"y":2542727.0100000016}},{"attributes":{"ID":159604,"DIS_CODE":0,"TOWNNAME":"善化區","LI":"田寮里","LIN":"5鄰","STREET":" ","SECT":" ","MAREA":"六分寮","LANE":" ","ALLEY":" ","HOUSE_NO":"５６號之３","E_COORD97":178444.01000000001,"N_COORD97":2561229.52,"ADDRESS":"六分寮５６號之３","OBJECTID":159603},"geometry":{"x":178444.01000000071,"y":2561229.5199999996}},{"attributes":{"ID":159605,"DIS_CODE":0,"TOWNNAME":"善化區","LI":"光文里","LIN":"5鄰","STREET":" ","SECT":" ","MAREA":"北子店","LANE":" ","ALLEY":" ","HOUSE_NO":"２６９號","E_COORD97":179092.72,"N_COORD97":2559601.75,"ADDRESS":"北子店２６９號","OBJECTID":159604},"geometry":{"x":179092.71999999974,"y":2559601.7500000019}},{"attributes":{"ID":159606,"DIS_CODE":0,"TOWNNAME":"善化區","LI":"六分里","LIN":"5鄰","STREET":" ","SECT":" ","MAREA":"東勢宅","LANE":" ","ALLEY":" ","HOUSE_NO":"３５號之１","E_COORD97":177739.41,"N_COORD97":2561007.27,"ADDRESS":"東勢宅３５號之１","OBJECTID":159605},"geometry":{"x":177739.41000000201,"y":2561007.2699999996}},{"attributes":{"ID":159607,"DIS_CODE":0,"TOWNNAME":"善化區","LI":"光文里","LIN":"5鄰","STREET":" ","SECT":" ","MAREA":"北子店","LANE":" ","ALLEY":" ","HOUSE_NO":"２０３號","E_COORD97":179284.73000000001,"N_COORD97":2559650.25,"ADDRESS":"北子店２０３號","OBJECTID":159606},"geometry":{"x":179284.73000000045,"y":2559650.2500000019}},{"attributes":{"ID":159608,"DIS_CODE":0,"TOWNNAME":"安南區","LI":"安富里","LIN":"2鄰","STREET":"郡安路","SECT":"五段","MAREA":" ","LANE":"１８４巷","ALLEY":"１０弄","HOUSE_NO":"５１號","E_COORD97":167305.44,"N_COORD97":2547675.27,"ADDRESS":"郡安路五段１８４巷１０弄５１號","OBJECTID":159607},"geometry":{"x":167305.43999999948,"y":2547675.2699999996}},{"attributes":{"ID":159609,"DIS_CODE":0,"TOWNNAME":"安南區","LI":"安富里","LIN":"2鄰","STREET":"郡安路","SECT":"五段","MAREA":" ","LANE":"１８４巷","ALLEY":"１０弄","HOUSE_NO":"５２號","E_COORD97":167300.62,"N_COORD97":2547695.1499999999,"ADDRESS":"郡安路五段１８４巷１０弄５２號","OBJECTID":159608},"geometry":{"x":167300.62000000197,"y":2547695.1499999985}},{"attributes":{"ID":159610,"DIS_CODE":0,"TOWNNAME":"安南區","LI":"安富里","LIN":"2鄰","STREET":"郡安路","SECT":"五段","MAREA":" ","LANE":"１８４巷","ALLEY":"１０弄","HOUSE_NO":"５４號","E_COORD97":167296.48999999999,"N_COORD97":2547693.0899999999,"ADDRESS":"郡安路五段１８４巷１０弄５４號","OBJECTID":159609},"geometry":{"x":167296.49000000209,"y":2547693.0900000017}},{"attributes":{"ID":159611,"DIS_CODE":0,"TOWNNAME":"善化區","LI":"溪美里","LIN":"5鄰","STREET":" ","SECT":" ","MAREA":"溪尾","LANE":" ","ALLEY":" ","HOUSE_NO":"４３號之１","E_COORD97":176645.29999999999,"N_COORD97":2561150.27,"ADDRESS":"溪尾４３號之１","OBJECTID":159610},"geometry":{"x":176645.30000000075,"y":2561150.2700000033}},{"attributes":{"ID":159612,"DIS_CODE":0,"TOWNNAME":"安南區","LI":"安富里","LIN":"2鄰","STREET":"郡安路","SECT":"五段","MAREA":" ","LANE":"１８４巷","ALLEY":"１０弄","HOUSE_NO":"５５號","E_COORD97":167295.57999999999,"N_COORD97":2547672.52,"ADDRESS":"郡安路五段１８４巷１０弄５５號","OBJECTID":159611},"geometry":{"x":167295.58000000007,"y":2547672.5200000014}},{"attributes":{"ID":159613,"DIS_CODE":0,"TOWNNAME":"安南區","LI":"安富里","LIN":"2鄰","STREET":"郡安路","SECT":"五段","MAREA":" ","LANE":"１８４巷","ALLEY":"１０弄","HOUSE_NO":"５６號","E_COORD97":167290.76000000001,"N_COORD97":2547694.9199999999,"ADDRESS":"郡安路五段１８４巷１０弄５６號","OBJECTID":159612},"geometry":{"x":167290.76000000164,"y":2547694.9199999999}},{"attributes":{"ID":159614,"DIS_CODE":0,"TOWNNAME":"安南區","LI":"安富里","LIN":"2鄰","STREET":"郡安路","SECT":"五段","MAREA":" ","LANE":"１８４巷","ALLEY":"１０弄","HOUSE_NO":"５７號","E_COORD97":167290.07000000001,"N_COORD97":2547673.4399999999,"ADDRESS":"郡安路五段１８４巷１０弄５７號","OBJECTID":159613},"geometry":{"x":167290.07000000123,"y":2547673.4400000013}},{"attributes":{"ID":159615,"DIS_CODE":0,"TOWNNAME":"安南區","LI":"安富里","LIN":"2鄰","STREET":"郡安路","SECT":"五段","MAREA":" ","LANE":"１８４巷","ALLEY":"１０弄","HOUSE_NO":"５８號","E_COORD97":167286.17000000001,"N_COORD97":2547693.0899999999,"ADDRESS":"郡安路五段１８４巷１０弄５８號","OBJECTID":159614},"geometry":{"x":167286.16999999993,"y":2547693.0900000017}},{"attributes":{"ID":159616,"DIS_CODE":0,"TOWNNAME":"安南區","LI":"安富里","LIN":"2鄰","STREET":"郡安路","SECT":"五段","MAREA":" ","LANE":"１８４巷","ALLEY":"１０弄","HOUSE_NO":"５９號","E_COORD97":167285.25,"N_COORD97":2547671.6099999999,"ADDRESS":"郡安路五段１８４巷１０弄５９號","OBJECTID":159615},"geometry":{"x":167285.25,"y":2547671.6100000013}},{"attributes":{"ID":159617,"DIS_CODE":0,"TOWNNAME":"安南區","LI":"安富里","LIN":"2鄰","STREET":"郡安路","SECT":"五段","MAREA":" ","LANE":"１８４巷","ALLEY":"１０弄","HOUSE_NO":"５號","E_COORD97":167442.97,"N_COORD97":2547700.5,"ADDRESS":"郡安路五段１８４巷１０弄５號","OBJECTID":159616},"geometry":{"x":167442.96999999974,"y":2547700.5000000019}},{"attributes":{"ID":159618,"DIS_CODE":0,"TOWNNAME":"安南區","LI":"安富里","LIN":"2鄰","STREET":"郡安路","SECT":"五段","MAREA":" ","LANE":"１８４巷","ALLEY":"１０弄","HOUSE_NO":"６０號","E_COORD97":167281.35999999999,"N_COORD97":2547690.7999999998,"ADDRESS":"郡安路五段１８４巷１０弄６０號","OBJECTID":159617},"geometry":{"x":167281.36000000127,"y":2547690.8000000007}},{"attributes":{"ID":159619,"DIS_CODE":0,"TOWNNAME":"安南區","LI":"安富里","LIN":"2鄰","STREET":"郡安路","SECT":"五段","MAREA":" ","LANE":"１８４巷","ALLEY":"１０弄","HOUSE_NO":"６１號","E_COORD97":167280.20999999999,"N_COORD97":2547669.77,"ADDRESS":"郡安路五段１８４巷１０弄６１號","OBJECTID":159618},"geometry":{"x":167280.21000000089,"y":2547669.7699999977}},{"attributes":{"ID":159620,"DIS_CODE":0,"TOWNNAME":"善化區","LI":"田寮里","LIN":"5鄰","STREET":" ","SECT":" ","MAREA":"六分寮","LANE":" ","ALLEY":" ","HOUSE_NO":"５５號","E_COORD97":178448.45999999999,"N_COORD97":2561151.5,"ADDRESS":"六分寮５５號","OBJECTID":159619},"geometry":{"x":178448.45999999996,"y":2561151.5}},{"attributes":{"ID":159621,"DIS_CODE":0,"TOWNNAME":"善化區","LI":"田寮里","LIN":"5鄰","STREET":" ","SECT":" ","MAREA":"六分寮","LANE":" ","ALLEY":" ","HOUSE_NO":"５５號之６","E_COORD97":178494.57999999999,"N_COORD97":2561140.77,"ADDRESS":"六分寮５５號之６","OBJECTID":159620},"geometry":{"x":178494.58000000101,"y":2561140.7700000014}},{"attributes":{"ID":159622,"DIS_CODE":0,"TOWNNAME":"善化區","LI":"田寮里","LIN":"5鄰","STREET":" ","SECT":" ","MAREA":"六分寮","LANE":" ","ALLEY":" ","HOUSE_NO":"６１號之４","E_COORD97":178531.01999999999,"N_COORD97":2561130.52,"ADDRESS":"六分寮６１號之４","OBJECTID":159621},"geometry":{"x":178531.01999999955,"y":2561130.5199999996}},{"attributes":{"ID":159623,"DIS_CODE":0,"TOWNNAME":"新化區","LI":"唪口里","LIN":"5鄰","STREET":" ","SECT":" ","MAREA":"唪口","LANE":" ","ALLEY":" ","HOUSE_NO":"４７號","E_COORD97":178123.10000000001,"N_COORD97":2548968.25,"ADDRESS":"唪口４７號","OBJECTID":159622},"geometry":{"x":178123.10000000056,"y":2548968.25}},{"attributes":{"ID":159624,"DIS_CODE":0,"TOWNNAME":"仁德區","LI":"三甲里","LIN":"5鄰","STREET":" ","SECT":" ","MAREA":"三甲子","LANE":" ","ALLEY":" ","HOUSE_NO":"４８號之３","E_COORD97":171810.92999999999,"N_COORD97":2536611.5499999998,"ADDRESS":"三甲子４８號之３","OBJECTID":159623},"geometry":{"x":171810.93000000063,"y":2536611.5500000026}},{"attributes":{"ID":159625,"DIS_CODE":0,"TOWNNAME":"新化區","LI":"山\u25A0里","LIN":"5鄰","STREET":" ","SECT":" ","MAREA":"頂山\u25A0","LANE":" ","ALLEY":" ","HOUSE_NO":"１４號","E_COORD97":179626.07999999999,"N_COORD97":2546831.25,"ADDRESS":"頂山\u25A0１４號","OBJECTID":159624},"geometry":{"x":179626.08000000007,"y":2546831.2500000019}},{"attributes":{"ID":159626,"DIS_CODE":0,"TOWNNAME":"安南區","LI":"安富里","LIN":"2鄰","STREET":"郡安路","SECT":"五段","MAREA":" ","LANE":"１８４巷","ALLEY":"１０弄","HOUSE_NO":"６２號","E_COORD97":167275.62,"N_COORD97":2547692.1699999999,"ADDRESS":"郡安路五段１８４巷１０弄６２號","OBJECTID":159625},"geometry":{"x":167275.62000000104,"y":2547692.1700000018}},{"attributes":{"ID":159627,"DIS_CODE":0,"TOWNNAME":"永康區","LI":"網寮里","LIN":"12鄰","STREET":"永勝街","SECT":" ","MAREA":" ","LANE":"１６９巷","ALLEY":" ","HOUSE_NO":"３號","E_COORD97":173311.60000000001,"N_COORD97":2546509.5099999998,"ADDRESS":"永勝街１６９巷３號","OBJECTID":159626},"geometry":{"x":173311.60000000056,"y":2546509.5100000016}},{"attributes":{"ID":159628,"DIS_CODE":0,"TOWNNAME":"東區","LI":"裕聖里","LIN":"15鄰","STREET":"裕忠一街","SECT":" ","MAREA":" ","LANE":" ","ALLEY":" ","HOUSE_NO":"１１６號","E_COORD97":172508.48999999999,"N_COORD97":2542397.6800000002,"ADDRESS":"裕忠一街１１６號","OBJECTID":159627},"geometry":{"x":172508.49000000022,"y":2542397.6799999997}},{"attributes":{"ID":159629,"DIS_CODE":0,"TOWNNAME":"歸仁區","LI":"媽廟里","LIN":"4鄰","STREET":"和順路","SECT":"一段","MAREA":" ","LANE":"６３巷","ALLEY":"２５弄","HOUSE_NO":"６號","E_COORD97":177386.21557100001,"N_COORD97":2543678.40069,"ADDRESS":"和順路一段６３巷２５弄６號","OBJECTID":159628},"geometry":{"x":177386.21557100024,"y":2543678.4006890003}},{"attributes":{"ID":159630,"DIS_CODE":0,"TOWNNAME":"東區","LI":"裕聖里","LIN":"15鄰","STREET":"裕忠一街","SECT":" ","MAREA":" ","LANE":" ","ALLEY":" ","HOUSE_NO":"８８號","E_COORD97":172451.37,"N_COORD97":2542397.6800000002,"ADDRESS":"裕忠一街８８號","OBJECTID":159629},"geometry":{"x":172451.37000000104,"y":2542397.6799999997}},{"attributes":{"ID":159631,"DIS_CODE":0,"TOWNNAME":"東區","LI":"裕聖里","LIN":"15鄰","STREET":"裕忠一街","SECT":" ","MAREA":" ","LANE":" ","ALLEY":" ","HOUSE_NO":"９０號","E_COORD97":172457.23000000001,"N_COORD97":2542397.4199999999,"ADDRESS":"裕忠一街９０號","OBJECTID":159630},"geometry":{"x":172457.23000000138,"y":2542397.4200000037}},{"attributes":{"ID":159632,"DIS_CODE":0,"TOWNNAME":"東區","LI":"裕聖里","LIN":"15鄰","STREET":"裕忠一街","SECT":" ","MAREA":" ","LANE":" ","ALLEY":" ","HOUSE_NO":"９２號","E_COORD97":172463.10000000001,"N_COORD97":2542397.6800000002,"ADDRESS":"裕忠一街９２號","OBJECTID":159631},"geometry":{"x":172463.09999999963,"y":2542397.6799999997}},{"attributes":{"ID":159633,"DIS_CODE":0,"TOWNNAME":"東區","LI":"裕聖里","LIN":"15鄰","STREET":"裕忠一街","SECT":" ","MAREA":" ","LANE":" ","ALLEY":" ","HOUSE_NO":"９６號","E_COORD97":172468.95999999999,"N_COORD97":2542397.4199999999,"ADDRESS":"裕忠一街９６號","OBJECTID":159632},"geometry":{"x":172468.96000000089,"y":2542397.4200000037}},{"attributes":{"ID":159634,"DIS_CODE":0,"TOWNNAME":"東區","LI":"裕聖里","LIN":"15鄰","STREET":"裕忠一街","SECT":" ","MAREA":" ","LANE":" ","ALLEY":" ","HOUSE_NO":"９８號","E_COORD97":172474.06,"N_COORD97":2542397.6800000002,"ADDRESS":"裕忠一街９８號","OBJECTID":159633},"geometry":{"x":172474.05999999866,"y":2542397.6799999997}},{"attributes":{"ID":159635,"DIS_CODE":0,"TOWNNAME":"東區","LI":"關聖里","LIN":"15鄰","STREET":"裕忠路","SECT":" ","MAREA":" ","LANE":" ","ALLEY":" ","HOUSE_NO":"５７號","E_COORD97":172270.79999999999,"N_COORD97":2543117.1499999999,"ADDRESS":"裕忠路５７號","OBJECTID":159634},"geometry":{"x":172270.79999999981,"y":2543117.1500000004}},{"attributes":{"ID":159636,"DIS_CODE":0,"TOWNNAME":"將軍區","LI":"仁和里","LIN":"22鄰","STREET":" ","SECT":" ","MAREA":"和巷","LANE":" ","ALLEY":" ","HOUSE_NO":"９７號","E_COORD97":163873.76999999999,"N_COORD97":2569263.2000000002,"ADDRESS":"和巷９７號","OBJECTID":159635},"geometry":{"x":163873.77000000048,"y":2569263.1999999974}},{"attributes":{"ID":159637,"DIS_CODE":0,"TOWNNAME":"北區","LI":"公園里","LIN":"14鄰","STREET":"西華街","SECT":" ","MAREA":" ","LANE":" ","ALLEY":" ","HOUSE_NO":"１０７號","E_COORD97":169092.23000000001,"N_COORD97":2544520.21,"ADDRESS":"西華街１０７號","OBJECTID":159636},"geometry":{"x":169092.23000000138,"y":2544520.2100000028}},{"attributes":{"ID":159638,"DIS_CODE":0,"TOWNNAME":"北區","LI":"公園里","LIN":"14鄰","STREET":"西華街","SECT":" ","MAREA":" ","LANE":" ","ALLEY":" ","HOUSE_NO":"１０９號","E_COORD97":169093.01000000001,"N_COORD97":2544524.3500000001,"ADDRESS":"西華街１０９號","OBJECTID":159637},"geometry":{"x":169093.01000000071,"y":2544524.3500000015}},{"attributes":{"ID":159639,"DIS_CODE":0,"TOWNNAME":"北區","LI":"公園里","LIN":"14鄰","STREET":"西華街","SECT":" ","MAREA":" ","LANE":" ","ALLEY":" ","HOUSE_NO":"１１１號","E_COORD97":169094.57999999999,"N_COORD97":2544529.3700000001,"ADDRESS":"西華街１１１號","OBJECTID":159638},"geometry":{"x":169094.58000000101,"y":2544529.3700000029}},{"attributes":{"ID":159640,"DIS_CODE":0,"TOWNNAME":"北區","LI":"公園里","LIN":"14鄰","STREET":"西華街","SECT":" ","MAREA":" ","LANE":" ","ALLEY":" ","HOUSE_NO":"１１３號","E_COORD97":169095.01000000001,"N_COORD97":2544535.4300000002,"ADDRESS":"西華街１１３號","OBJECTID":159639},"geometry":{"x":169095.01000000071,"y":2544535.4299999997}},{"attributes":{"ID":159641,"DIS_CODE":0,"TOWNNAME":"北區","LI":"公園里","LIN":"14鄰","STREET":"西華街","SECT":" ","MAREA":" ","LANE":" ","ALLEY":" ","HOUSE_NO":"９９號","E_COORD97":169051.51000000001,"N_COORD97":2544535.23,"ADDRESS":"西華街９９號","OBJECTID":159640},"geometry":{"x":169051.50999999978,"y":2544535.2300000042}},{"attributes":{"ID":159642,"DIS_CODE":0,"TOWNNAME":"大內區","LI":"內江里","LIN":"12鄰","STREET":" ","SECT":" ","MAREA":"蒙正","LANE":" ","ALLEY":" ","HOUSE_NO":"１號之３","E_COORD97":185256.51999999999,"N_COORD97":2556557.2999999998,"ADDRESS":"蒙正１號之３","OBJECTID":159641},"geometry":{"x":185256.52000000048,"y":2556557.3000000045}},{"attributes":{"ID":159643,"DIS_CODE":0,"TOWNNAME":"新化區","LI":"唪口里","LIN":"5鄰","STREET":" ","SECT":" ","MAREA":"唪口","LANE":" ","ALLEY":" ","HOUSE_NO":"５１號之３","E_COORD97":178243.84,"N_COORD97":2549061.2599999998,"ADDRESS":"唪口５１號之３","OBJECTID":159642},"geometry":{"x":178243.83999999985,"y":2549061.2600000016}},{"attributes":{"ID":159644,"DIS_CODE":0,"TOWNNAME":"安南區","LI":"安富里","LIN":"2鄰","STREET":"郡安路","SECT":"五段","MAREA":" ","LANE":"１８４巷","ALLEY":"１０弄","HOUSE_NO":"６３號","E_COORD97":167274.70000000001,"N_COORD97":2547670.6899999999,"ADDRESS":"郡安路五段１８４巷１０弄６３號","OBJECTID":159643},"geometry":{"x":167274.70000000205,"y":2547670.6900000032}},{"attributes":{"ID":159645,"DIS_CODE":0,"TOWNNAME":"安南區","LI":"安富里","LIN":"2鄰","STREET":"郡安路","SECT":"五段","MAREA":" ","LANE":"１８４巷","ALLEY":"１０弄","HOUSE_NO":"６號","E_COORD97":167437.89000000001,"N_COORD97":2547723.7799999998,"ADDRESS":"郡安路五段１８４巷１０弄６號","OBJECTID":159644},"geometry":{"x":167437.8900000006,"y":2547723.7799999975}},{"attributes":{"ID":159646,"DIS_CODE":0,"TOWNNAME":"安南區","LI":"安富里","LIN":"2鄰","STREET":"郡安路","SECT":"五段","MAREA":" ","LANE":"１８４巷","ALLEY":"１０弄","HOUSE_NO":"７號","E_COORD97":167437.45999999999,"N_COORD97":2547702.1000000001,"ADDRESS":"郡安路五段１８４巷１０弄７號","OBJECTID":159645},"geometry":{"x":167437.46000000089,"y":2547702.1000000015}},{"attributes":{"ID":159647,"DIS_CODE":0,"TOWNNAME":"安南區","LI":"安富里","LIN":"2鄰","STREET":"郡安路","SECT":"五段","MAREA":" ","LANE":"１８４巷","ALLEY":"１０弄","HOUSE_NO":"８號","E_COORD97":167433.31,"N_COORD97":2547721.9500000002,"ADDRESS":"郡安路五段１８４巷１０弄８號","OBJECTID":159646},"geometry":{"x":167433.31000000052,"y":2547721.9499999993}},{"attributes":{"ID":159648,"DIS_CODE":0,"TOWNNAME":"安南區","LI":"安富里","LIN":"2鄰","STREET":"郡安路","SECT":"五段","MAREA":" ","LANE":"１８４巷","ALLEY":"１０弄","HOUSE_NO":"９號","E_COORD97":167432.64000000001,"N_COORD97":2547700.5,"ADDRESS":"郡安路五段１８４巷１０弄９號","OBJECTID":159647},"geometry":{"x":167432.6400000006,"y":2547700.5000000019}},{"attributes":{"ID":159649,"DIS_CODE":0,"TOWNNAME":"安南區","LI":"理想里","LIN":"2鄰","STREET":"海佃路","SECT":"二段","MAREA":" ","LANE":"３４２巷","ALLEY":"２１弄","HOUSE_NO":"３５號","E_COORD97":166981.17999999999,"N_COORD97":2548674.6000000001,"ADDRESS":"海佃路二段３４２巷２１弄３５號","OBJECTID":159648},"geometry":{"x":166981.18000000156,"y":2548674.5999999978}},{"attributes":{"ID":159650,"DIS_CODE":0,"TOWNNAME":"安南區","LI":"理想里","LIN":"2鄰","STREET":"海佃路","SECT":"二段","MAREA":" ","LANE":"３４２巷","ALLEY":"２１弄","HOUSE_NO":"４７號","E_COORD97":167003.47,"N_COORD97":2548689.8300000001,"ADDRESS":"海佃路二段３４２巷２１弄４７號","OBJECTID":159649},"geometry":{"x":167003.47000000067,"y":2548689.8300000001}},{"attributes":{"ID":159651,"DIS_CODE":0,"TOWNNAME":"新化區","LI":"\u25A0拔里","LIN":"5鄰","STREET":" ","SECT":" ","MAREA":"\u25A0拔林","LANE":" ","ALLEY":" ","HOUSE_NO":"２５７號","E_COORD97":183639.42000000001,"N_COORD97":2551842.25,"ADDRESS":"\u25A0拔林２５７號","OBJECTID":159650},"geometry":{"x":183639.41999999993,"y":2551842.2500000019}},{"attributes":{"ID":159652,"DIS_CODE":0,"TOWNNAME":"新化區","LI":"山\u25A0里","LIN":"5鄰","STREET":" ","SECT":" ","MAREA":"頂山\u25A0","LANE":" ","ALLEY":" ","HOUSE_NO":"１３０號","E_COORD97":179618.42999999999,"N_COORD97":2546728.25,"ADDRESS":"頂山\u25A0１３０號","OBJECTID":159651},"geometry":{"x":179618.4299999997,"y":2546728.2500000037}},{"attributes":{"ID":159653,"DIS_CODE":0,"TOWNNAME":"東區","LI":"崇善里","LIN":"2鄰","STREET":"中華東路","SECT":"三段","MAREA":" ","LANE":"７７巷","ALLEY":"３４弄","HOUSE_NO":"１９號","E_COORD97":170877.95000000001,"N_COORD97":2542066.96,"ADDRESS":"中華東路三段７７巷３４弄１９號","OBJECTID":159652},"geometry":{"x":170877.95000000019,"y":2542066.9600000028}},{"attributes":{"ID":159654,"DIS_CODE":0,"TOWNNAME":"仁德區","LI":"仁德里","LIN":"2鄰","STREET":"中正路","SECT":"二段","MAREA":" ","LANE":"６７９巷","ALLEY":"１４弄","HOUSE_NO":"１號","E_COORD97":173402.70999999999,"N_COORD97":2540110.2799999998,"ADDRESS":"中正路二段６７９巷１４弄１號","OBJECTID":159653},"geometry":{"x":173402.71000000089,"y":2540110.2800000012}},{"attributes":{"ID":159655,"DIS_CODE":0,"TOWNNAME":"仁德區","LI":"後壁里","LIN":"2鄰","STREET":"德安路","SECT":" ","MAREA":" ","LANE":"３２巷","ALLEY":"１３弄","HOUSE_NO":"１號","E_COORD97":173337.84,"N_COORD97":2539179.0699999998,"ADDRESS":"德安路３２巷１３弄１號","OBJECTID":159654},"geometry":{"x":173337.84000000078,"y":2539179.0699999984}},{"attributes":{"ID":159656,"DIS_CODE":0,"TOWNNAME":"仁德區","LI":"保安里","LIN":"2鄰","STREET":"文賢路","SECT":"一段","MAREA":" ","LANE":"５５４巷","ALLEY":"８弄","HOUSE_NO":"８號","E_COORD97":171083.64000000001,"N_COORD97":2536919.3300000001,"ADDRESS":"文賢路一段５５４巷８弄８號","OBJECTID":159655},"geometry":{"x":171083.64000000153,"y":2536919.3300000038}},{"attributes":{"ID":159657,"DIS_CODE":0,"TOWNNAME":"仁德區","LI":"保安里","LIN":"2鄰","STREET":"文賢路","SECT":"一段","MAREA":" ","LANE":"５５４巷","ALLEY":"１０弄","HOUSE_NO":"１３號","E_COORD97":171038.57000000001,"N_COORD97":2536911.5800000001,"ADDRESS":"文賢路一段５５４巷１０弄１３號","OBJECTID":159656},"geometry":{"x":171038.5700000003,"y":2536911.5800000019}},{"attributes":{"ID":159658,"DIS_CODE":0,"TOWNNAME":"仁德區","LI":"保安里","LIN":"2鄰","STREET":"文賢路","SECT":"一段","MAREA":" ","LANE":"５５４巷","ALLEY":"８弄","HOUSE_NO":"３號","E_COORD97":171074.10000000001,"N_COORD97":2536901.8300000001,"ADDRESS":"文賢路一段５５４巷８弄３號","OBJECTID":159657},"geometry":{"x":171074.10000000056,"y":2536901.8300000001}},{"attributes":{"ID":159659,"DIS_CODE":0,"TOWNNAME":"仁德區","LI":"成功里","LIN":"2鄰","STREET":"保生東路","SECT":" ","MAREA":" ","LANE":"１３８巷","ALLEY":"４３弄","HOUSE_NO":"９號","E_COORD97":171304.87,"N_COORD97":2539597.6899999999,"ADDRESS":"保生東路１３８巷４３弄９號","OBJECTID":159658},"geometry":{"x":171304.87000000104,"y":2539597.6899999995}},{"attributes":{"ID":159660,"DIS_CODE":0,"TOWNNAME":"中西區","LI":"協和里","LIN":"12鄰","STREET":"中和街","SECT":" ","MAREA":" ","LANE":" ","ALLEY":" ","HOUSE_NO":"２３６號","E_COORD97":167341.54999999999,"N_COORD97":2544814.7599999998,"ADDRESS":"中和街２３６號","OBJECTID":159659},"geometry":{"x":167341.55000000168,"y":2544814.7599999998}},{"attributes":{"ID":159661,"DIS_CODE":0,"TOWNNAME":"仁德區","LI":"後壁里","LIN":"2鄰","STREET":"德安路","SECT":" ","MAREA":" ","LANE":"３２巷","ALLEY":"１３弄","HOUSE_NO":"５號","E_COORD97":173351.34,"N_COORD97":2539169.5699999998,"ADDRESS":"德安路３２巷１３弄５號","OBJECTID":159660},"geometry":{"x":173351.34000000078,"y":2539169.5700000022}},{"attributes":{"ID":159662,"DIS_CODE":0,"TOWNNAME":"新化區","LI":"\u25A0拔里","LIN":"5鄰","STREET":" ","SECT":" ","MAREA":"\u25A0拔林","LANE":" ","ALLEY":" ","HOUSE_NO":"２４９號","E_COORD97":183664.22,"N_COORD97":2551847.25,"ADDRESS":"\u25A0拔林２４９號","OBJECTID":159661},"geometry":{"x":183664.21999999974,"y":2551847.25}},{"attributes":{"ID":159663,"DIS_CODE":0,"TOWNNAME":"新化區","LI":"唪口里","LIN":"5鄰","STREET":" ","SECT":" ","MAREA":"唪口","LANE":" ","ALLEY":" ","HOUSE_NO":"４６號之２","E_COORD97":178156.35000000001,"N_COORD97":2548975.25,"ADDRESS":"唪口４６號之２","OBJECTID":159662},"geometry":{"x":178156.35000000056,"y":2548975.25}},{"attributes":{"ID":159664,"DIS_CODE":0,"TOWNNAME":"白河區","LI":"詔安里","LIN":"5鄰","STREET":" ","SECT":" ","MAREA":"詔安厝","LANE":" ","ALLEY":" ","HOUSE_NO":"５２之２號","E_COORD97":189804.17999999999,"N_COORD97":2587965.48,"ADDRESS":"詔安厝５２之２號","OBJECTID":159663},"geometry":{"x":189804.18000000063,"y":2587965.4800000023}},{"attributes":{"ID":159665,"DIS_CODE":0,"TOWNNAME":"白河區","LI":"詔安里","LIN":"5鄰","STREET":" ","SECT":" ","MAREA":"詔安厝","LANE":" ","ALLEY":" ","HOUSE_NO":"５３號","E_COORD97":189803.45999999999,"N_COORD97":2587954.77,"ADDRESS":"詔安厝５３號","OBJECTID":159664},"geometry":{"x":189803.46000000183,"y":2587954.7700000014}},{"attributes":{"ID":159666,"DIS_CODE":0,"TOWNNAME":"安南區","LI":"鳳凰里","LIN":"2鄰","STREET":"怡安路","SECT":"二段","MAREA":" ","LANE":"５９巷","ALLEY":"１２弄","HOUSE_NO":"３號","E_COORD97":168265.68432999999,"N_COORD97":2549206.2154700002,"ADDRESS":"怡安路二段５９巷１２弄３號","OBJECTID":159665},"geometry":{"x":168265.68432999961,"y":2549206.2154670041}},{"attributes":{"ID":159667,"DIS_CODE":0,"TOWNNAME":"安南區","LI":"鳳凰里","LIN":"2鄰","STREET":"怡安路","SECT":"二段","MAREA":" ","LANE":"５９巷","ALLEY":"１２弄","HOUSE_NO":"５號","E_COORD97":168262.61420000001,"N_COORD97":2549206.9563000002,"ADDRESS":"怡安路二段５９巷１２弄５號","OBJECTID":159666},"geometry":{"x":168262.61419999972,"y":2549206.9562989995}},{"attributes":{"ID":159668,"DIS_CODE":0,"TOWNNAME":"仁德區","LI":"成功里","LIN":"2鄰","STREET":"保生東路","SECT":" ","MAREA":" ","LANE":"１３８巷","ALLEY":"４３弄","HOUSE_NO":"７號","E_COORD97":171304.48999999999,"N_COORD97":2539593.1899999999,"ADDRESS":"保生東路１３８巷４３弄７號","OBJECTID":159667},"geometry":{"x":171304.49000000115,"y":2539593.1899999995}},{"attributes":{"ID":159669,"DIS_CODE":0,"TOWNNAME":"安南區","LI":"理想里","LIN":"2鄰","STREET":"海佃路","SECT":"二段","MAREA":" ","LANE":"３４２巷","ALLEY":"２１弄","HOUSE_NO":"３３號","E_COORD97":166976.62,"N_COORD97":2548672.5899999999,"ADDRESS":"海佃路二段３４２巷２１弄３３號","OBJECTID":159668},"geometry":{"x":166976.62000000011,"y":2548672.5900000017}},{"attributes":{"ID":159670,"DIS_CODE":0,"TOWNNAME":"白河區","LI":"詔安里","LIN":"5鄰","STREET":" ","SECT":" ","MAREA":"詔安厝","LANE":" ","ALLEY":" ","HOUSE_NO":"５４號","E_COORD97":189800.87,"N_COORD97":2587928.2000000002,"ADDRESS":"詔安厝５４號","OBJECTID":159669},"geometry":{"x":189800.87000000197,"y":2587928.2000000011}},{"attributes":{"ID":159671,"DIS_CODE":0,"TOWNNAME":"白河區","LI":"詔安里","LIN":"5鄰","STREET":" ","SECT":" ","MAREA":"詔安厝","LANE":" ","ALLEY":" ","HOUSE_NO":"５６號","E_COORD97":189794.25,"N_COORD97":2587960.4900000002,"ADDRESS":"詔安厝５６號","OBJECTID":159670},"geometry":{"x":189794.25,"y":2587960.4900000039}},{"attributes":{"ID":159672,"DIS_CODE":0,"TOWNNAME":"白河區","LI":"詔安里","LIN":"5鄰","STREET":" ","SECT":" ","MAREA":"詔安厝","LANE":" ","ALLEY":" ","HOUSE_NO":"５７號","E_COORD97":189796.89000000001,"N_COORD97":2587973.3500000001,"ADDRESS":"詔安厝５７號","OBJECTID":159671},"geometry":{"x":189796.89000000153,"y":2587973.3499999996}},{"attributes":{"ID":159673,"DIS_CODE":0,"TOWNNAME":"安南區","LI":"安慶里","LIN":"12鄰","STREET":"安中路","SECT":"一段","MAREA":" ","LANE":" ","ALLEY":" ","HOUSE_NO":"６４號","E_COORD97":169108.75,"N_COORD97":2548304.6299999999,"ADDRESS":"安中路一段６４號","OBJECTID":159672},"geometry":{"x":169108.75000000093,"y":2548304.6300000008}},{"attributes":{"ID":159674,"DIS_CODE":0,"TOWNNAME":"安南區","LI":"理想里","LIN":"2鄰","STREET":"海佃路","SECT":"二段","MAREA":" ","LANE":"３４２巷","ALLEY":"２１弄","HOUSE_NO":"３７號","E_COORD97":166985.06,"N_COORD97":2548676.3399999999,"ADDRESS":"海佃路二段３４２巷２１弄３７號","OBJECTID":159673},"geometry":{"x":166985.05999999866,"y":2548676.3399999999}},{"attributes":{"ID":159675,"DIS_CODE":0,"TOWNNAME":"安南區","LI":"理想里","LIN":"2鄰","STREET":"海佃路","SECT":"二段","MAREA":" ","LANE":"３４２巷","ALLEY":"２１弄","HOUSE_NO":"３９號","E_COORD97":166989.62,"N_COORD97":2548677.9500000002,"ADDRESS":"海佃路二段３４２巷２１弄３９號","OBJECTID":159674},"geometry":{"x":166989.62000000011,"y":2548677.9499999993}},{"attributes":{"ID":159676,"DIS_CODE":0,"TOWNNAME":"安南區","LI":"州南里","LIN":"12鄰","STREET":"安和路","SECT":"五段","MAREA":" ","LANE":" ","ALLEY":" ","HOUSE_NO":"１３號","E_COORD97":169922.19,"N_COORD97":2551542.98,"ADDRESS":"安和路五段１３號","OBJECTID":159675},"geometry":{"x":169922.19000000041,"y":2551542.9800000023}},{"attributes":{"ID":159677,"DIS_CODE":0,"TOWNNAME":"安南區","LI":"理想里","LIN":"2鄰","STREET":"海佃路","SECT":"二段","MAREA":" ","LANE":"３４２巷","ALLEY":"２１弄","HOUSE_NO":"４３號","E_COORD97":166995.10000000001,"N_COORD97":2548687.73,"ADDRESS":"海佃路二段３４２巷２１弄４３號","OBJECTID":159676},"geometry":{"x":166995.10000000149,"y":2548687.7300000004}},{"attributes":{"ID":159678,"DIS_CODE":0,"TOWNNAME":"安南區","LI":"州南里","LIN":"12鄰","STREET":"安和路","SECT":"五段","MAREA":" ","LANE":" ","ALLEY":" ","HOUSE_NO":"１６號","E_COORD97":169956.54000000001,"N_COORD97":2551545.3300000001,"ADDRESS":"安和路五段１６號","OBJECTID":159677},"geometry":{"x":169956.54000000097,"y":2551545.3300000038}},{"attributes":{"ID":159679,"DIS_CODE":0,"TOWNNAME":"安南區","LI":"城南里","LIN":"12鄰","STREET":"城西街","SECT":"二段","MAREA":" ","LANE":" ","ALLEY":" ","HOUSE_NO":"２３６號","E_COORD97":159757.09,"N_COORD97":2551016.52,"ADDRESS":"城西街二段２３６號","OBJECTID":159678},"geometry":{"x":159757.09000000078,"y":2551016.5199999996}},{"attributes":{"ID":159680,"DIS_CODE":0,"TOWNNAME":"安南區","LI":"理想里","LIN":"2鄰","STREET":"海佃路","SECT":"二段","MAREA":" ","LANE":"３４２巷","ALLEY":"２１弄","HOUSE_NO":"４９號","E_COORD97":167007.20000000001,"N_COORD97":2548691.2200000002,"ADDRESS":"海佃路二段３４２巷２１弄４９號","OBJECTID":159679},"geometry":{"x":167007.20000000112,"y":2548691.2200000007}},{"attributes":{"ID":159681,"DIS_CODE":0,"TOWNNAME":"安南區","LI":"理想里","LIN":"2鄰","STREET":"海佃路","SECT":"二段","MAREA":" ","LANE":"３４２巷","ALLEY":"２１弄","HOUSE_NO":"５１號","E_COORD97":167011.14999999999,"N_COORD97":2548695.4100000001,"ADDRESS":"海佃路二段３４２巷２１弄５１號","OBJECTID":159680},"geometry":{"x":167011.1500000013,"y":2548695.4100000001}},{"attributes":{"ID":159682,"DIS_CODE":0,"TOWNNAME":"安南區","LI":"\u25A0南里","LIN":"2鄰","STREET":"安昌街","SECT":" ","MAREA":" ","LANE":"１３１巷","ALLEY":"２弄","HOUSE_NO":"１０號","E_COORD97":170035.20000000001,"N_COORD97":2552386.46,"ADDRESS":"安昌街１３１巷２弄１０號","OBJECTID":159681},"geometry":{"x":170035.20000000112,"y":2552386.4600000028}},{"attributes":{"ID":159683,"DIS_CODE":0,"TOWNNAME":"安南區","LI":"\u25A0南里","LIN":"2鄰","STREET":"安昌街","SECT":" ","MAREA":" ","LANE":"１３１巷","ALLEY":"２弄","HOUSE_NO":"１２號","E_COORD97":170033.85999999999,"N_COORD97":2552393.4900000002,"ADDRESS":"安昌街１３１巷２弄１２號","OBJECTID":159682},"geometry":{"x":170033.86000000127,"y":2552393.4900000021}},{"attributes":{"ID":159684,"DIS_CODE":0,"TOWNNAME":"安南區","LI":"\u25A0南里","LIN":"2鄰","STREET":"安昌街","SECT":" ","MAREA":" ","LANE":"１３１巷","ALLEY":"２弄","HOUSE_NO":"１７號","E_COORD97":170011.75,"N_COORD97":2552417.9700000002,"ADDRESS":"安昌街１３１巷２弄１７號","OBJECTID":159683},"geometry":{"x":170011.75,"y":2552417.9700000025}},{"attributes":{"ID":159685,"DIS_CODE":0,"TOWNNAME":"安南區","LI":"\u25A0南里","LIN":"2鄰","STREET":"安昌街","SECT":" ","MAREA":" ","LANE":"１３１巷","ALLEY":"２弄","HOUSE_NO":"１８號","E_COORD97":170032.73000000001,"N_COORD97":2552402.2200000002,"ADDRESS":"安昌街１３１巷２弄１８號","OBJECTID":159684},"geometry":{"x":170032.72999999952,"y":2552402.2200000025}},{"attributes":{"ID":159686,"DIS_CODE":0,"TOWNNAME":"安南區","LI":"\u25A0南里","LIN":"2鄰","STREET":"安昌街","SECT":" ","MAREA":" ","LANE":"１３１巷","ALLEY":"２弄","HOUSE_NO":"１９號","E_COORD97":170011.47,"N_COORD97":2552422.4100000001,"ADDRESS":"安昌街１３１巷２弄１９號","OBJECTID":159685},"geometry":{"x":170011.46999999974,"y":2552422.4100000001}},{"attributes":{"ID":159687,"DIS_CODE":0,"TOWNNAME":"安南區","LI":"\u25A0南里","LIN":"2鄰","STREET":"安昌街","SECT":" ","MAREA":" ","LANE":"１３１巷","ALLEY":"２弄","HOUSE_NO":"２１號","E_COORD97":170011.47,"N_COORD97":2552426.5600000001,"ADDRESS":"安昌街１３１巷２弄２１號","OBJECTID":159686},"geometry":{"x":170011.46999999974,"y":2552426.5600000024}},{"attributes":{"ID":159688,"DIS_CODE":0,"TOWNNAME":"安南區","LI":"\u25A0南里","LIN":"2鄰","STREET":"安昌街","SECT":" ","MAREA":" ","LANE":"１３１巷","ALLEY":"２弄","HOUSE_NO":"２３號","E_COORD97":170011.28,"N_COORD97":2552430.5299999998,"ADDRESS":"安昌街１３１巷２弄２３號","OBJECTID":159687},"geometry":{"x":170011.28000000026,"y":2552430.5299999993}},{"attributes":{"ID":159689,"DIS_CODE":0,"TOWNNAME":"安南區","LI":"城南里","LIN":"12鄰","STREET":"城西街","SECT":"二段","MAREA":" ","LANE":" ","ALLEY":" ","HOUSE_NO":"２３８號","E_COORD97":159750.07999999999,"N_COORD97":2551018.9500000002,"ADDRESS":"城西街二段２３８號","OBJECTID":159688},"geometry":{"x":159750.08000000007,"y":2551018.9500000011}},{"attributes":{"ID":159690,"DIS_CODE":0,"TOWNNAME":"安南區","LI":"頂安里","LIN":"12鄰","STREET":"怡安路","SECT":"一段","MAREA":" ","LANE":" ","ALLEY":" ","HOUSE_NO":"４９８號之１","E_COORD97":168445.14999999999,"N_COORD97":2549245.5899999999,"ADDRESS":"怡安路一段４９８號之１","OBJECTID":159689},"geometry":{"x":168445.1500000013,"y":2549245.5900000017}},{"attributes":{"ID":159691,"DIS_CODE":0,"TOWNNAME":"中西區","LI":"保安里","LIN":" ","STREET":"中正路","SECT":" ","MAREA":" ","LANE":" ","ALLEY":" ","HOUSE_NO":"３１３號","E_COORD97":167494.72,"N_COORD97":2543761.9399999999,"ADDRESS":"中正路３１３號","OBJECTID":159690},"geometry":{"x":167494.72000000067,"y":2543761.9399999995}},{"attributes":{"ID":159692,"DIS_CODE":0,"TOWNNAME":"中西區","LI":"保安里","LIN":" ","STREET":"府前路","SECT":"二段","MAREA":" ","LANE":" ","ALLEY":" ","HOUSE_NO":"３３號","E_COORD97":167647.09,"N_COORD97":2543460.5600000001,"ADDRESS":"府前路二段３３號","OBJECTID":159691},"geometry":{"x":167647.09000000078,"y":2543460.5600000005}},{"attributes":{"ID":159693,"DIS_CODE":0,"TOWNNAME":"中西區","LI":"普濟里","LIN":" ","STREET":"國華街","SECT":"三段","MAREA":" ","LANE":" ","ALLEY":" ","HOUSE_NO":"２３３號","E_COORD97":167927.95999999999,"N_COORD97":2544373.3999999999,"ADDRESS":"國華街三段２３３號","OBJECTID":159692},"geometry":{"x":167927.95999999996,"y":2544373.4000000004}},{"attributes":{"ID":159694,"DIS_CODE":0,"TOWNNAME":"中西區","LI":"普濟里","LIN":" ","STREET":"國華街","SECT":"三段","MAREA":" ","LANE":" ","ALLEY":" ","HOUSE_NO":"２３５號","E_COORD97":167925.51000000001,"N_COORD97":2544369.6299999999,"ADDRESS":"國華街三段２３５號","OBJECTID":159693},"geometry":{"x":167925.51000000071,"y":2544369.6300000008}},{"attributes":{"ID":159695,"DIS_CODE":0,"TOWNNAME":"中西區","LI":"普濟里","LIN":" ","STREET":"國華街","SECT":"三段","MAREA":" ","LANE":" ","ALLEY":" ","HOUSE_NO":"２３８號","E_COORD97":167944.39999999999,"N_COORD97":2544376.5099999998,"ADDRESS":"國華街三段２３８號","OBJECTID":159694},"geometry":{"x":167944.40000000037,"y":2544376.5100000035}},{"attributes":{"ID":159696,"DIS_CODE":0,"TOWNNAME":"中西區","LI":"普濟里","LIN":" ","STREET":"國華街","SECT":"三段","MAREA":" ","LANE":" ","ALLEY":" ","HOUSE_NO":"２２３之１號","E_COORD97":167926.89999999999,"N_COORD97":2544339.29,"ADDRESS":"國華街三段２２３之１號","OBJECTID":159695},"geometry":{"x":167926.9000000013,"y":2544339.2899999991}},{"attributes":{"ID":159697,"DIS_CODE":0,"TOWNNAME":"大內區","LI":"內江里","LIN":"12鄰","STREET":" ","SECT":" ","MAREA":"蒙正","LANE":" ","ALLEY":" ","HOUSE_NO":"８號之６","E_COORD97":185025.13,"N_COORD97":2556427.2999999998,"ADDRESS":"蒙正８號之６","OBJECTID":159696},"geometry":{"x":185025.13000000175,"y":2556427.3000000007}},{"attributes":{"ID":159698,"DIS_CODE":0,"TOWNNAME":"大內區","LI":"內江里","LIN":"12鄰","STREET":" ","SECT":" ","MAREA":"蒙正","LANE":" ","ALLEY":" ","HOUSE_NO":"９號之５","E_COORD97":185501.38,"N_COORD97":2556326.2999999998,"ADDRESS":"蒙正９號之５","OBJECTID":159697},"geometry":{"x":185501.37999999989,"y":2556326.3000000007}},{"attributes":{"ID":159699,"DIS_CODE":0,"TOWNNAME":"白河區","LI":"詔安里","LIN":"5鄰","STREET":" ","SECT":" ","MAREA":"詔安厝","LANE":" ","ALLEY":" ","HOUSE_NO":"５８之１號","E_COORD97":189796.98000000001,"N_COORD97":2588013.2599999998,"ADDRESS":"詔安厝５８之１號","OBJECTID":159698},"geometry":{"x":189796.97999999952,"y":2588013.2600000016}},{"attributes":{"ID":159700,"DIS_CODE":0,"TOWNNAME":"白河區","LI":"詔安里","LIN":"5鄰","STREET":" ","SECT":" ","MAREA":"詔安厝","LANE":" ","ALLEY":" ","HOUSE_NO":"５８之５號","E_COORD97":189742.97,"N_COORD97":2588011.73,"ADDRESS":"詔安厝５８之５號","OBJECTID":159699},"geometry":{"x":189742.97000000067,"y":2588011.7300000004}},{"attributes":{"ID":159701,"DIS_CODE":0,"TOWNNAME":"白河區","LI":"詔安里","LIN":"5鄰","STREET":" ","SECT":" ","MAREA":"詔安厝","LANE":" ","ALLEY":" ","HOUSE_NO":"５８之６號","E_COORD97":189765.92000000001,"N_COORD97":2588040.9399999999,"ADDRESS":"詔安厝５８之６號","OBJECTID":159700},"geometry":{"x":189765.91999999993,"y":2588040.9399999995}},{"attributes":{"ID":159702,"DIS_CODE":0,"TOWNNAME":"安南區","LI":"南興里","LIN":"12鄰","STREET":"公學路","SECT":"五段","MAREA":" ","LANE":" ","ALLEY":" ","HOUSE_NO":"６７３號","E_COORD97":163905.41,"N_COORD97":2552803.7799999998,"ADDRESS":"公學路五段６７３號","OBJECTID":159701},"geometry":{"x":163905.41000000108,"y":2552803.7800000012}},{"attributes":{"ID":159703,"DIS_CODE":0,"TOWNNAME":"中西區","LI":"普濟里","LIN":" ","STREET":"國華街","SECT":"三段","MAREA":" ","LANE":" ","ALLEY":" ","HOUSE_NO":"１９８號","E_COORD97":167904.62,"N_COORD97":2544279.1600000001,"ADDRESS":"國華街三段１９８號","OBJECTID":159702},"geometry":{"x":167904.62000000104,"y":2544279.160000002}},{"attributes":{"ID":159704,"DIS_CODE":0,"TOWNNAME":"中西區","LI":"普濟里","LIN":" ","STREET":"郡緯街","SECT":" ","MAREA":" ","LANE":" ","ALLEY":" ","HOUSE_NO":"１２０號","E_COORD97":167850.32000000001,"N_COORD97":2544426,"ADDRESS":"郡緯街１２０號","OBJECTID":159703},"geometry":{"x":167850.32000000216,"y":2544426.0000000019}},{"attributes":{"ID":159705,"DIS_CODE":0,"TOWNNAME":"中西區","LI":"普濟里","LIN":" ","STREET":"海安路","SECT":" ","MAREA":" ","LANE":" ","ALLEY":" ","HOUSE_NO":"４８４號","E_COORD97":167838.95999999999,"N_COORD97":2544457.3199999998,"ADDRESS":"海安路４８４號","OBJECTID":159704},"geometry":{"x":167838.96000000183,"y":2544457.3200000022}},{"attributes":{"ID":159706,"DIS_CODE":0,"TOWNNAME":"中西區","LI":"普濟里","LIN":" ","STREET":"成功路","SECT":" ","MAREA":" ","LANE":" ","ALLEY":" ","HOUSE_NO":"３３９號","E_COORD97":167975.79999999999,"N_COORD97":2544508.52,"ADDRESS":"成功路３３９號","OBJECTID":159705},"geometry":{"x":167975.80000000075,"y":2544508.5200000033}},{"attributes":{"ID":159707,"DIS_CODE":0,"TOWNNAME":"中西區","LI":"普濟里","LIN":" ","STREET":"西門路","SECT":"二段","MAREA":" ","LANE":" ","ALLEY":" ","HOUSE_NO":"３９１號","E_COORD97":168036.37,"N_COORD97":2544358.3100000001,"ADDRESS":"西門路二段３９１號","OBJECTID":159706},"geometry":{"x":168036.37000000197,"y":2544358.3100000042}},{"attributes":{"ID":159708,"DIS_CODE":0,"TOWNNAME":"中西區","LI":"普濟里","LIN":" ","STREET":"西門路","SECT":"二段","MAREA":" ","LANE":" ","ALLEY":" ","HOUSE_NO":"３９３號","E_COORD97":168038.20999999999,"N_COORD97":2544363.5800000001,"ADDRESS":"西門路二段３９３號","OBJECTID":159707},"geometry":{"x":168038.20999999996,"y":2544363.5800000019}},{"attributes":{"ID":159709,"DIS_CODE":0,"TOWNNAME":"中西區","LI":"藥王里","LIN":" ","STREET":"中和街","SECT":" ","MAREA":" ","LANE":" ","ALLEY":" ","HOUSE_NO":"５０號","E_COORD97":167049.85999999999,"N_COORD97":2544550.3100000001,"ADDRESS":"中和街５０號","OBJECTID":159708},"geometry":{"x":167049.86000000034,"y":2544550.3100000005}},{"attributes":{"ID":159710,"DIS_CODE":0,"TOWNNAME":"中西區","LI":"藥王里","LIN":" ","STREET":"永和街","SECT":" ","MAREA":" ","LANE":" ","ALLEY":" ","HOUSE_NO":"４５號","E_COORD97":166996.34,"N_COORD97":2544593.5099999998,"ADDRESS":"永和街４５號","OBJECTID":159709},"geometry":{"x":166996.33999999985,"y":2544593.5100000035}},{"attributes":{"ID":159711,"DIS_CODE":0,"TOWNNAME":"安南區","LI":"\u25A0南里","LIN":"2鄰","STREET":"安昌街","SECT":" ","MAREA":" ","LANE":"１３１巷","ALLEY":"２弄","HOUSE_NO":"２５號","E_COORD97":170011.10000000001,"N_COORD97":2552434.8799999999,"ADDRESS":"安昌街１３１巷２弄２５號","OBJECTID":159710},"geometry":{"x":170011.10000000056,"y":2552434.879999999}},{"attributes":{"ID":159712,"DIS_CODE":0,"TOWNNAME":"安南區","LI":"\u25A0南里","LIN":"2鄰","STREET":"安昌街","SECT":" ","MAREA":" ","LANE":"１３１巷","ALLEY":"２弄","HOUSE_NO":"２７號","E_COORD97":170011.10000000001,"N_COORD97":2552439.2200000002,"ADDRESS":"安昌街１３１巷２弄２７號","OBJECTID":159711},"geometry":{"x":170011.10000000056,"y":2552439.2200000025}},{"attributes":{"ID":159713,"DIS_CODE":0,"TOWNNAME":"安南區","LI":"\u25A0南里","LIN":"2鄰","STREET":"安昌街","SECT":" ","MAREA":" ","LANE":"１３１巷","ALLEY":"２弄","HOUSE_NO":"２９號","E_COORD97":170010.72,"N_COORD97":2552443.3799999999,"ADDRESS":"安昌街１３１巷２弄２９號","OBJECTID":159712},"geometry":{"x":170010.72000000067,"y":2552443.3800000008}},{"attributes":{"ID":159714,"DIS_CODE":0,"TOWNNAME":"安南區","LI":"\u25A0南里","LIN":"2鄰","STREET":"安昌街","SECT":" ","MAREA":" ","LANE":"１３１巷","ALLEY":"２弄","HOUSE_NO":"３１號","E_COORD97":170010.14999999999,"N_COORD97":2552448.48,"ADDRESS":"安昌街１３１巷２弄３１號","OBJECTID":159713},"geometry":{"x":170010.1500000013,"y":2552448.4800000004}},{"attributes":{"ID":159715,"DIS_CODE":0,"TOWNNAME":"安南區","LI":"\u25A0南里","LIN":"2鄰","STREET":"安昌街","SECT":" ","MAREA":" ","LANE":"１３１巷","ALLEY":"２弄","HOUSE_NO":"４號","E_COORD97":170036.10000000001,"N_COORD97":2552365.1800000002,"ADDRESS":"安昌街１３１巷２弄４號","OBJECTID":159714},"geometry":{"x":170036.09999999963,"y":2552365.1799999997}},{"attributes":{"ID":159716,"DIS_CODE":0,"TOWNNAME":"安南區","LI":"\u25A0南里","LIN":"2鄰","STREET":"安昌街","SECT":" ","MAREA":" ","LANE":"１３１巷","ALLEY":"２弄","HOUSE_NO":"６號","E_COORD97":170035.64999999999,"N_COORD97":2552371.46,"ADDRESS":"安昌街１３１巷２弄６號","OBJECTID":159715},"geometry":{"x":170035.6500000013,"y":2552371.4600000009}},{"attributes":{"ID":159717,"DIS_CODE":0,"TOWNNAME":"安南區","LI":"\u25A0南里","LIN":"2鄰","STREET":"安昌街","SECT":" ","MAREA":" ","LANE":"１３１巷","ALLEY":"２弄","HOUSE_NO":"８號","E_COORD97":170034.75,"N_COORD97":2552378.6200000001,"ADDRESS":"安昌街１３１巷２弄８號","OBJECTID":159716},"geometry":{"x":170034.75000000093,"y":2552378.6200000048}},{"attributes":{"ID":159718,"DIS_CODE":0,"TOWNNAME":"安南區","LI":"\u25A0南里","LIN":"2鄰","STREET":"安昌街","SECT":" ","MAREA":" ","LANE":"１３１巷","ALLEY":"２弄","HOUSE_NO":"２０號","E_COORD97":170032.51000000001,"N_COORD97":2552413.96,"ADDRESS":"安昌街１３１巷２弄２０號","OBJECTID":159717},"geometry":{"x":170032.51000000071,"y":2552413.9600000028}},{"attributes":{"ID":159719,"DIS_CODE":0,"TOWNNAME":"安南區","LI":"\u25A0南里","LIN":"2鄰","STREET":"安昌街","SECT":" ","MAREA":" ","LANE":"１３１巷","ALLEY":"２弄","HOUSE_NO":"２２號","E_COORD97":170030.94,"N_COORD97":2552423.5899999999,"ADDRESS":"安昌街１３１巷２弄２２號","OBJECTID":159718},"geometry":{"x":170030.94000000041,"y":2552423.5899999999}},{"attributes":{"ID":159720,"DIS_CODE":0,"TOWNNAME":"安南區","LI":"淵西里","LIN":"2鄰","STREET":"安中路","SECT":"四段","MAREA":" ","LANE":"２９０巷","ALLEY":"３２５弄","HOUSE_NO":"１０１號","E_COORD97":165050.79999999999,"N_COORD97":2550466.21,"ADDRESS":"安中路四段２９０巷３２５弄１０１號","OBJECTID":159719},"geometry":{"x":165050.79999999981,"y":2550466.2100000028}},{"attributes":{"ID":159721,"DIS_CODE":0,"TOWNNAME":"安南區","LI":"淵西里","LIN":"2鄰","STREET":"安中路","SECT":"四段","MAREA":" ","LANE":"２９０巷","ALLEY":"３２５弄","HOUSE_NO":"１０３號","E_COORD97":165044.70000000001,"N_COORD97":2550473.8900000001,"ADDRESS":"安中路四段２９０巷３２５弄１０３號","OBJECTID":159720},"geometry":{"x":165044.70000000019,"y":2550473.8899999987}},{"attributes":{"ID":159722,"DIS_CODE":0,"TOWNNAME":"安南區","LI":"淵西里","LIN":"2鄰","STREET":"安中路","SECT":"四段","MAREA":" ","LANE":"２９０巷","ALLEY":"３２５弄","HOUSE_NO":"１０５號","E_COORD97":165029.89000000001,"N_COORD97":2550492.6200000001,"ADDRESS":"安中路四段２９０巷３２５弄１０５號","OBJECTID":159721},"geometry":{"x":165029.88999999966,"y":2550492.620000001}},{"attributes":{"ID":159723,"DIS_CODE":0,"TOWNNAME":"安南區","LI":"淵西里","LIN":"2鄰","STREET":"安中路","SECT":"四段","MAREA":" ","LANE":"２９０巷","ALLEY":"３２５弄","HOUSE_NO":"１０７號","E_COORD97":165025.14000000001,"N_COORD97":2550499.6200000001,"ADDRESS":"安中路四段２９０巷３２５弄１０７號","OBJECTID":159722},"geometry":{"x":165025.14000000153,"y":2550499.620000001}},{"attributes":{"ID":159724,"DIS_CODE":0,"TOWNNAME":"安南區","LI":"淵西里","LIN":"2鄰","STREET":"安中路","SECT":"四段","MAREA":" ","LANE":"２９０巷","ALLEY":"３２５弄","HOUSE_NO":"１０９號","E_COORD97":165019.72,"N_COORD97":2550506.6200000001,"ADDRESS":"安中路四段２９０巷３２５弄１０９號","OBJECTID":159723},"geometry":{"x":165019.72000000067,"y":2550506.620000001}},{"attributes":{"ID":159725,"DIS_CODE":0,"TOWNNAME":"白河區","LI":"河東里","LIN":"5鄰","STREET":" ","SECT":" ","MAREA":"糞箕湖","LANE":" ","ALLEY":" ","HOUSE_NO":"７０之１０號","E_COORD97":192343.42000000001,"N_COORD97":2582460.2000000002,"ADDRESS":"糞箕湖７０之１０號","OBJECTID":159724},"geometry":{"x":192343.42000000086,"y":2582460.2000000011}},{"attributes":{"ID":159726,"DIS_CODE":0,"TOWNNAME":"安南區","LI":"淵西里","LIN":"2鄰","STREET":"安中路","SECT":"四段","MAREA":" ","LANE":"２９０巷","ALLEY":"３２５弄","HOUSE_NO":"１１１號","E_COORD97":165017.69,"N_COORD97":2550512.9399999999,"ADDRESS":"安中路四段２９０巷３２５弄１１１號","OBJECTID":159725},"geometry":{"x":165017.69000000134,"y":2550512.9399999995}},{"attributes":{"ID":159727,"DIS_CODE":0,"TOWNNAME":"安南區","LI":"淵西里","LIN":"2鄰","STREET":"安中路","SECT":"四段","MAREA":" ","LANE":"２９０巷","ALLEY":"３２５弄","HOUSE_NO":"１１３號","E_COORD97":165027.85999999999,"N_COORD97":2550521.29,"ADDRESS":"安中路四段２９０巷３２５弄１１３號","OBJECTID":159726},"geometry":{"x":165027.86000000127,"y":2550521.290000001}},{"attributes":{"ID":159728,"DIS_CODE":0,"TOWNNAME":"安南區","LI":"淵西里","LIN":"2鄰","STREET":"安中路","SECT":"四段","MAREA":" ","LANE":"２９０巷","ALLEY":"３２５弄","HOUSE_NO":"１１５號","E_COORD97":165032.38,"N_COORD97":2550517,"ADDRESS":"安中路四段２９０巷３２５弄１１５號","OBJECTID":159727},"geometry":{"x":165032.38000000082,"y":2550517.0000000037}},{"attributes":{"ID":159729,"DIS_CODE":0,"TOWNNAME":"安南區","LI":"淵西里","LIN":"2鄰","STREET":"安中路","SECT":"四段","MAREA":" ","LANE":"２９０巷","ALLEY":"３２５弄","HOUSE_NO":"１１７號","E_COORD97":165038.03,"N_COORD97":2550510.6800000002,"ADDRESS":"安中路四段２９０巷３２５弄１１７號","OBJECTID":159728},"geometry":{"x":165038.03000000026,"y":2550510.6799999997}},{"attributes":{"ID":159730,"DIS_CODE":0,"TOWNNAME":"中西區","LI":"藥王里","LIN":" ","STREET":"和真街","SECT":" ","MAREA":" ","LANE":" ","ALLEY":" ","HOUSE_NO":"３９號","E_COORD97":166934.25,"N_COORD97":2544521.7599999998,"ADDRESS":"和真街３９號","OBJECTID":159729},"geometry":{"x":166934.25000000093,"y":2544521.7600000016}},{"attributes":{"ID":159731,"DIS_CODE":0,"TOWNNAME":"中西區","LI":"藥王里","LIN":" ","STREET":"和真街","SECT":" ","MAREA":" ","LANE":" ","ALLEY":" ","HOUSE_NO":"５０號","E_COORD97":166932.47,"N_COORD97":2544566.5099999998,"ADDRESS":"和真街５０號","OBJECTID":159730},"geometry":{"x":166932.47000000067,"y":2544566.5100000035}},{"attributes":{"ID":159732,"DIS_CODE":0,"TOWNNAME":"白河區","LI":"詔安里","LIN":"5鄰","STREET":" ","SECT":" ","MAREA":"詔安厝","LANE":" ","ALLEY":" ","HOUSE_NO":"５８號","E_COORD97":189791.92999999999,"N_COORD97":2587982.8500000001,"ADDRESS":"詔安厝５８號","OBJECTID":159731},"geometry":{"x":189791.93000000063,"y":2587982.8499999996}},{"attributes":{"ID":159733,"DIS_CODE":0,"TOWNNAME":"中西區","LI":"民權里","LIN":"12鄰","STREET":"康樂街","SECT":" ","MAREA":" ","LANE":" ","ALLEY":" ","HOUSE_NO":"２１６號","E_COORD97":167587.87,"N_COORD97":2544241.5600000001,"ADDRESS":"康樂街２１６號","OBJECTID":159732},"geometry":{"x":167587.87000000104,"y":2544241.5600000042}},{"attributes":{"ID":159734,"DIS_CODE":0,"TOWNNAME":"安南區","LI":"淵西里","LIN":"2鄰","STREET":"安中路","SECT":"四段","MAREA":" ","LANE":"２９０巷","ALLEY":"３２５弄","HOUSE_NO":"１１９號","E_COORD97":165043,"N_COORD97":2550505.04,"ADDRESS":"安中路四段２９０巷３２５弄１１９號","OBJECTID":159733},"geometry":{"x":165043,"y":2550505.0399999991}},{"attributes":{"ID":159735,"DIS_CODE":0,"TOWNNAME":"安南區","LI":"淵西里","LIN":"2鄰","STREET":"安中路","SECT":"四段","MAREA":" ","LANE":"２９０巷","ALLEY":"３２５弄","HOUSE_NO":"１２１號","E_COORD97":165052.04000000001,"N_COORD97":2550520.3900000001,"ADDRESS":"安中路四段２９０巷３２５弄１２１號","OBJECTID":159734},"geometry":{"x":165052.04000000097,"y":2550520.3900000006}},{"attributes":{"ID":159736,"DIS_CODE":0,"TOWNNAME":"安南區","LI":"淵西里","LIN":"2鄰","STREET":"安中路","SECT":"四段","MAREA":" ","LANE":"２９０巷","ALLEY":"３２５弄","HOUSE_NO":"１２３號","E_COORD97":165048.20000000001,"N_COORD97":2550523.3199999998,"ADDRESS":"安中路四段２９０巷３２５弄１２３號","OBJECTID":159735},"geometry":{"x":165048.20000000019,"y":2550523.3200000022}},{"attributes":{"ID":159737,"DIS_CODE":0,"TOWNNAME":"安南區","LI":"淵西里","LIN":"2鄰","STREET":"安中路","SECT":"四段","MAREA":" ","LANE":"２９０巷","ALLEY":"３２５弄","HOUSE_NO":"１２５號","E_COORD97":165045.70999999999,"N_COORD97":2550528.0600000001,"ADDRESS":"安中路四段２９０巷３２５弄１２５號","OBJECTID":159736},"geometry":{"x":165045.71000000089,"y":2550528.0600000024}},{"attributes":{"ID":159738,"DIS_CODE":0,"TOWNNAME":"安南區","LI":"淵西里","LIN":"2鄰","STREET":"安中路","SECT":"四段","MAREA":" ","LANE":"２９０巷","ALLEY":"３２５弄","HOUSE_NO":"１２７號","E_COORD97":165042.32000000001,"N_COORD97":2550531.4500000002,"ADDRESS":"安中路四段２９０巷３２５弄１２７號","OBJECTID":159737},"geometry":{"x":165042.3200000003,"y":2550531.4500000011}},{"attributes":{"ID":159739,"DIS_CODE":0,"TOWNNAME":"安南區","LI":"淵西里","LIN":"2鄰","STREET":"安中路","SECT":"四段","MAREA":" ","LANE":"２９０巷","ALLEY":"３２５弄","HOUSE_NO":"１２９號","E_COORD97":165038.92999999999,"N_COORD97":2550535.29,"ADDRESS":"安中路四段２９０巷３２５弄１２９號","OBJECTID":159738},"geometry":{"x":165038.93000000063,"y":2550535.290000001}},{"attributes":{"ID":159740,"DIS_CODE":0,"TOWNNAME":"大內區","LI":"內江里","LIN":"12鄰","STREET":" ","SECT":" ","MAREA":"蒙正","LANE":" ","ALLEY":" ","HOUSE_NO":"１號之６","E_COORD97":185261.82999999999,"N_COORD97":2556598.2999999998,"ADDRESS":"蒙正１號之６","OBJECTID":159739},"geometry":{"x":185261.83000000101,"y":2556598.3000000026}},{"attributes":{"ID":159741,"DIS_CODE":0,"TOWNNAME":"大內區","LI":"內江里","LIN":"12鄰","STREET":" ","SECT":" ","MAREA":"蒙正","LANE":" ","ALLEY":" ","HOUSE_NO":"３號之７","E_COORD97":185315.10000000001,"N_COORD97":2556530.2999999998,"ADDRESS":"蒙正３號之７","OBJECTID":159740},"geometry":{"x":185315.10000000149,"y":2556530.3000000045}},{"attributes":{"ID":159742,"DIS_CODE":0,"TOWNNAME":"大內區","LI":"內江里","LIN":"12鄰","STREET":" ","SECT":" ","MAREA":"蒙正","LANE":" ","ALLEY":" ","HOUSE_NO":"８號之１","E_COORD97":185020.63,"N_COORD97":2556390.2999999998,"ADDRESS":"蒙正８號之１","OBJECTID":159741},"geometry":{"x":185020.63000000082,"y":2556390.3000000007}},{"attributes":{"ID":159743,"DIS_CODE":0,"TOWNNAME":"大內區","LI":"內江里","LIN":"12鄰","STREET":" ","SECT":" ","MAREA":"蒙正","LANE":" ","ALLEY":" ","HOUSE_NO":"１號之８","E_COORD97":185270.57000000001,"N_COORD97":2556569.2999999998,"ADDRESS":"蒙正１號之８","OBJECTID":159742},"geometry":{"x":185270.57000000123,"y":2556569.3000000007}},{"attributes":{"ID":159744,"DIS_CODE":0,"TOWNNAME":"大內區","LI":"內江里","LIN":"12鄰","STREET":" ","SECT":" ","MAREA":"蒙正","LANE":" ","ALLEY":" ","HOUSE_NO":"３號","E_COORD97":185331.29000000001,"N_COORD97":2556546.25,"ADDRESS":"蒙正３號","OBJECTID":159743},"geometry":{"x":185331.29000000097,"y":2556546.25}},{"attributes":{"ID":159745,"DIS_CODE":0,"TOWNNAME":"大內區","LI":"內江里","LIN":"12鄰","STREET":" ","SECT":" ","MAREA":"蒙正","LANE":" ","ALLEY":" ","HOUSE_NO":"５號","E_COORD97":185356.89000000001,"N_COORD97":2556452.25,"ADDRESS":"蒙正５號","OBJECTID":159744},"geometry":{"x":185356.88999999966,"y":2556452.2500000019}},{"attributes":{"ID":159746,"DIS_CODE":0,"TOWNNAME":"大內區","LI":"二溪里","LIN":"12鄰","STREET":" ","SECT":" ","MAREA":"其子瓦","LANE":" ","ALLEY":" ","HOUSE_NO":"２０號之３","E_COORD97":190503.95000000001,"N_COORD97":2557797.2999999998,"ADDRESS":"其子瓦２０號之３","OBJECTID":159745},"geometry":{"x":190503.95000000205,"y":2557797.3000000007}},{"attributes":{"ID":159747,"DIS_CODE":0,"TOWNNAME":"大內區","LI":"大內里","LIN":"12鄰","STREET":" ","SECT":" ","MAREA":"內庄","LANE":" ","ALLEY":" ","HOUSE_NO":"１３３號","E_COORD97":184776.98000000001,"N_COORD97":2557521.25,"ADDRESS":"內庄１３３號","OBJECTID":159746},"geometry":{"x":184776.98000000045,"y":2557521.2500000019}},{"attributes":{"ID":159748,"DIS_CODE":0,"TOWNNAME":"大內區","LI":"二溪里","LIN":"12鄰","STREET":" ","SECT":" ","MAREA":"其子瓦","LANE":" ","ALLEY":" ","HOUSE_NO":"２３號之１","E_COORD97":190623.45000000001,"N_COORD97":2557855.2999999998,"ADDRESS":"其子瓦２３號之１","OBJECTID":159747},"geometry":{"x":190623.45000000019,"y":2557855.3000000007}},{"attributes":{"ID":159749,"DIS_CODE":0,"TOWNNAME":"大內區","LI":"大內里","LIN":"12鄰","STREET":" ","SECT":" ","MAREA":"內庄","LANE":" ","ALLEY":" ","HOUSE_NO":"１２９號","E_COORD97":184755.98000000001,"N_COORD97":2557561.25,"ADDRESS":"內庄１２９號","OBJECTID":159748},"geometry":{"x":184755.98000000138,"y":2557561.2500000019}},{"attributes":{"ID":159750,"DIS_CODE":0,"TOWNNAME":"大內區","LI":"大內里","LIN":"12鄰","STREET":" ","SECT":" ","MAREA":"內庄","LANE":" ","ALLEY":" ","HOUSE_NO":"１３１號","E_COORD97":184747.17999999999,"N_COORD97":2557535.25,"ADDRESS":"內庄１３１號","OBJECTID":159749},"geometry":{"x":184747.18000000063,"y":2557535.25}},{"attributes":{"ID":159751,"DIS_CODE":0,"TOWNNAME":"中西區","LI":"協和里","LIN":"12鄰","STREET":"協和街","SECT":" ","MAREA":" ","LANE":" ","ALLEY":" ","HOUSE_NO":"２２５號","E_COORD97":167346.37,"N_COORD97":2544782.8999999999,"ADDRESS":"協和街２２５號","OBJECTID":159750},"geometry":{"x":167346.37000000197,"y":2544782.9000000022}},{"attributes":{"ID":159752,"DIS_CODE":0,"TOWNNAME":"中西區","LI":"協和里","LIN":"12鄰","STREET":"協和街","SECT":" ","MAREA":" ","LANE":" ","ALLEY":" ","HOUSE_NO":"２３３號","E_COORD97":167361.89999999999,"N_COORD97":2544797.0800000001,"ADDRESS":"協和街２３３號","OBJECTID":159751},"geometry":{"x":167361.9000000013,"y":2544797.0800000019}},{"attributes":{"ID":159753,"DIS_CODE":0,"TOWNNAME":"中西區","LI":"協和里","LIN":"12鄰","STREET":"協和街","SECT":" ","MAREA":" ","LANE":" ","ALLEY":" ","HOUSE_NO":"２３１號","E_COORD97":167359.72,"N_COORD97":2544794.1299999999,"ADDRESS":"協和街２３１號","OBJECTID":159752},"geometry":{"x":167359.71999999974,"y":2544794.129999999}},{"attributes":{"ID":159754,"DIS_CODE":0,"TOWNNAME":"白河區","LI":"昇安里","LIN":"5鄰","STREET":" ","SECT":" ","MAREA":"糞箕湖","LANE":" ","ALLEY":" ","HOUSE_NO":"６８之３號","E_COORD97":192234.76000000001,"N_COORD97":2582457.1000000001,"ADDRESS":"糞箕湖６８之３號","OBJECTID":159753},"geometry":{"x":192234.75999999978,"y":2582457.1000000015}},{"attributes":{"ID":159755,"DIS_CODE":0,"TOWNNAME":"安南區","LI":"淵西里","LIN":"2鄰","STREET":"安中路","SECT":"四段","MAREA":" ","LANE":"２９０巷","ALLEY":"３２５弄","HOUSE_NO":"５７號","E_COORD97":165077.23999999999,"N_COORD97":2550451.9900000002,"ADDRESS":"安中路四段２９０巷３２５弄５７號","OBJECTID":159754},"geometry":{"x":165077.24000000022,"y":2550451.9900000002}},{"attributes":{"ID":159756,"DIS_CODE":0,"TOWNNAME":"中西區","LI":"協和里","LIN":"12鄰","STREET":"中和街","SECT":" ","MAREA":" ","LANE":" ","ALLEY":" ","HOUSE_NO":"２３２號","E_COORD97":167335.17999999999,"N_COORD97":2544809.02,"ADDRESS":"中和街２３２號","OBJECTID":159755},"geometry":{"x":167335.1799999997,"y":2544809.0199999996}},{"attributes":{"ID":159757,"DIS_CODE":0,"TOWNNAME":"白河區","LI":"河東里","LIN":"5鄰","STREET":" ","SECT":" ","MAREA":"糞箕湖","LANE":" ","ALLEY":" ","HOUSE_NO":"６８號","E_COORD97":192260.26999999999,"N_COORD97":2582425.77,"ADDRESS":"糞箕湖６８號","OBJECTID":159756},"geometry":{"x":192260.26999999955,"y":2582425.7700000014}},{"attributes":{"ID":159758,"DIS_CODE":0,"TOWNNAME":"中西區","LI":"協和里","LIN":"12鄰","STREET":"中和街","SECT":" ","MAREA":" ","LANE":" ","ALLEY":" ","HOUSE_NO":"２２０號","E_COORD97":167321.04999999999,"N_COORD97":2544796.2999999998,"ADDRESS":"中和街２２０號","OBJECTID":159757},"geometry":{"x":167321.05000000168,"y":2544796.3000000026}},{"attributes":{"ID":159759,"DIS_CODE":0,"TOWNNAME":"中西區","LI":"協和里","LIN":"12鄰","STREET":"中和街","SECT":" ","MAREA":" ","LANE":" ","ALLEY":" ","HOUSE_NO":"２２２號","E_COORD97":167323.38,"N_COORD97":2544799.71,"ADDRESS":"中和街２２２號","OBJECTID":159758},"geometry":{"x":167323.37999999989,"y":2544799.7100000009}},{"attributes":{"ID":159760,"DIS_CODE":0,"TOWNNAME":"中西區","LI":"協和里","LIN":"12鄰","STREET":"文賢路","SECT":" ","MAREA":" ","LANE":" ","ALLEY":" ","HOUSE_NO":"１６９號","E_COORD97":167364.95999999999,"N_COORD97":2544806.3199999998,"ADDRESS":"文賢路１６９號","OBJECTID":159759},"geometry":{"x":167364.96000000089,"y":2544806.3200000022}},{"attributes":{"ID":159761,"DIS_CODE":0,"TOWNNAME":"中西區","LI":"協和里","LIN":"12鄰","STREET":"中和街","SECT":" ","MAREA":" ","LANE":" ","ALLEY":" ","HOUSE_NO":"２３０號","E_COORD97":167331.60999999999,"N_COORD97":2544806.23,"ADDRESS":"中和街２３０號","OBJECTID":159760},"geometry":{"x":167331.61000000127,"y":2544806.2300000042}},{"attributes":{"ID":159762,"DIS_CODE":0,"TOWNNAME":"安南區","LI":"淵西里","LIN":"2鄰","STREET":"安中路","SECT":"四段","MAREA":" ","LANE":"２９０巷","ALLEY":"３２５弄","HOUSE_NO":"５９號","E_COORD97":165081.09,"N_COORD97":2550454.7000000002,"ADDRESS":"安中路四段２９０巷３２５弄５９號","OBJECTID":159761},"geometry":{"x":165081.08999999985,"y":2550454.7000000011}},{"attributes":{"ID":159763,"DIS_CODE":0,"TOWNNAME":"安南區","LI":"淵西里","LIN":"2鄰","STREET":"安中路","SECT":"四段","MAREA":" ","LANE":"２９０巷","ALLEY":"３２５弄","HOUSE_NO":"６１號","E_COORD97":165085.14999999999,"N_COORD97":2550457.6299999999,"ADDRESS":"安中路四段２９０巷３２５弄６１號","OBJECTID":159762},"geometry":{"x":165085.15000000224,"y":2550457.6300000008}},{"attributes":{"ID":159764,"DIS_CODE":0,"TOWNNAME":"白河區","LI":"河東里","LIN":"5鄰","STREET":" ","SECT":" ","MAREA":"糞箕湖","LANE":" ","ALLEY":" ","HOUSE_NO":"７０之１１號","E_COORD97":192348.76000000001,"N_COORD97":2582459.8100000001,"ADDRESS":"糞箕湖７０之１１號","OBJECTID":159763},"geometry":{"x":192348.75999999978,"y":2582459.8100000024}},{"attributes":{"ID":159765,"DIS_CODE":0,"TOWNNAME":"安南區","LI":"淵西里","LIN":"2鄰","STREET":"安中路","SECT":"四段","MAREA":" ","LANE":"２９０巷","ALLEY":"３２５弄","HOUSE_NO":"６３號","E_COORD97":165094.87,"N_COORD97":2550465.0800000001,"ADDRESS":"安中路四段２９０巷３２５弄６３號","OBJECTID":159764},"geometry":{"x":165094.87000000011,"y":2550465.0800000001}},{"attributes":{"ID":159766,"DIS_CODE":0,"TOWNNAME":"白河區","LI":"河東里","LIN":"5鄰","STREET":" ","SECT":" ","MAREA":"糞箕湖","LANE":" ","ALLEY":" ","HOUSE_NO":"７０之１２號","E_COORD97":192353.38,"N_COORD97":2582459.27,"ADDRESS":"糞箕湖７０之１２號","OBJECTID":159765},"geometry":{"x":192353.37999999896,"y":2582459.2700000014}},{"attributes":{"ID":159767,"DIS_CODE":0,"TOWNNAME":"白河區","LI":"河東里","LIN":"5鄰","STREET":" ","SECT":" ","MAREA":"糞箕湖","LANE":" ","ALLEY":" ","HOUSE_NO":"７０之１３號","E_COORD97":192358.64000000001,"N_COORD97":2582459.1800000002,"ADDRESS":"糞箕湖７０之１３號","OBJECTID":159766},"geometry":{"x":192358.6400000006,"y":2582459.1799999978}},{"attributes":{"ID":159768,"DIS_CODE":0,"TOWNNAME":"安南區","LI":"淵西里","LIN":"2鄰","STREET":"安中路","SECT":"四段","MAREA":" ","LANE":"２９０巷","ALLEY":"３２５弄","HOUSE_NO":"６５號","E_COORD97":165091.48000000001,"N_COORD97":2550468.6899999999,"ADDRESS":"安中路四段２９０巷３２５弄６５號","OBJECTID":159767},"geometry":{"x":165091.48000000231,"y":2550468.6900000013}},{"attributes":{"ID":159769,"DIS_CODE":0,"TOWNNAME":"安南區","LI":"淵西里","LIN":"2鄰","STREET":"安中路","SECT":"四段","MAREA":" ","LANE":"２９０巷","ALLEY":"３２５弄","HOUSE_NO":"６７號","E_COORD97":165088.32000000001,"N_COORD97":2550472.3100000001,"ADDRESS":"安中路四段２９０巷３２５弄６７號","OBJECTID":159768},"geometry":{"x":165088.3200000003,"y":2550472.3100000024}},{"attributes":{"ID":159770,"DIS_CODE":0,"TOWNNAME":"永康區","LI":"中興里","LIN":"2鄰","STREET":"忠孝路","SECT":" ","MAREA":" ","LANE":"２３９巷","ALLEY":"９弄","HOUSE_NO":"２７號","E_COORD97":172008.01000000001,"N_COORD97":2544985.3599999999,"ADDRESS":"忠孝路２３９巷９弄２７號","OBJECTID":159769},"geometry":{"x":172008.00999999978,"y":2544985.3600000013}},{"attributes":{"ID":159771,"DIS_CODE":0,"TOWNNAME":"永康區","LI":"中興里","LIN":"2鄰","STREET":"忠孝路","SECT":" ","MAREA":" ","LANE":"２３９巷","ALLEY":"９弄","HOUSE_NO":"２５號","E_COORD97":172011.84,"N_COORD97":2544985.73,"ADDRESS":"忠孝路２３９巷９弄２５號","OBJECTID":159770},"geometry":{"x":172011.84000000078,"y":2544985.7300000004}},{"attributes":{"ID":159772,"DIS_CODE":0,"TOWNNAME":"永康區","LI":"中興里","LIN":"2鄰","STREET":"忠孝路","SECT":" ","MAREA":" ","LANE":"２３９巷","ALLEY":"９弄","HOUSE_NO":"２３號","E_COORD97":172015.84,"N_COORD97":2544986.6000000001,"ADDRESS":"忠孝路２３９巷９弄２３號","OBJECTID":159771},"geometry":{"x":172015.83999999985,"y":2544986.6000000015}},{"attributes":{"ID":159773,"DIS_CODE":0,"TOWNNAME":"中西區","LI":"協和里","LIN":"12鄰","STREET":"中和街","SECT":" ","MAREA":" ","LANE":" ","ALLEY":" ","HOUSE_NO":"２２８號","E_COORD97":167327.57000000001,"N_COORD97":2544803.4399999999,"ADDRESS":"中和街２２８號","OBJECTID":159772},"geometry":{"x":167327.5700000003,"y":2544803.4399999995}},{"attributes":{"ID":159774,"DIS_CODE":0,"TOWNNAME":"白河區","LI":"河東里","LIN":"5鄰","STREET":" ","SECT":" ","MAREA":"糞箕湖","LANE":" ","ALLEY":" ","HOUSE_NO":"７０之１４號","E_COORD97":192363.39000000001,"N_COORD97":2582459.02,"ADDRESS":"糞箕湖７０之１４號","OBJECTID":159773},"geometry":{"x":192363.39000000153,"y":2582459.0199999996}},{"attributes":{"ID":159775,"DIS_CODE":0,"TOWNNAME":"白河區","LI":"河東里","LIN":"5鄰","STREET":" ","SECT":" ","MAREA":"糞箕湖","LANE":" ","ALLEY":" ","HOUSE_NO":"７０之１５號","E_COORD97":192368.60999999999,"N_COORD97":2582458.25,"ADDRESS":"糞箕湖７０之１５號","OBJECTID":159774},"geometry":{"x":192368.61000000034,"y":2582458.25}},{"attributes":{"ID":159776,"DIS_CODE":0,"TOWNNAME":"白河區","LI":"河東里","LIN":"5鄰","STREET":" ","SECT":" ","MAREA":"糞箕湖","LANE":" ","ALLEY":" ","HOUSE_NO":"７０之１６號","E_COORD97":192373.35000000001,"N_COORD97":2582457.8500000001,"ADDRESS":"糞箕湖７０之１６號","OBJECTID":159775},"geometry":{"x":192373.34999999963,"y":2582457.8499999996}},{"attributes":{"ID":159777,"DIS_CODE":0,"TOWNNAME":"白河區","LI":"河東里","LIN":"5鄰","STREET":" ","SECT":" ","MAREA":"糞箕湖","LANE":" ","ALLEY":" ","HOUSE_NO":"７０之１７號","E_COORD97":192378.31,"N_COORD97":2582457.73,"ADDRESS":"糞箕湖７０之１７號","OBJECTID":159776},"geometry":{"x":192378.30999999959,"y":2582457.7300000023}},{"attributes":{"ID":159778,"DIS_CODE":0,"TOWNNAME":"白河區","LI":"河東里","LIN":"5鄰","STREET":" ","SECT":" ","MAREA":"糞箕湖","LANE":" ","ALLEY":" ","HOUSE_NO":"７０之１８號","E_COORD97":192383.60000000001,"N_COORD97":2582457.1499999999,"ADDRESS":"糞箕湖７０之１８號","OBJECTID":159777},"geometry":{"x":192383.59999999963,"y":2582457.1500000041}},{"attributes":{"ID":159779,"DIS_CODE":0,"TOWNNAME":"白河區","LI":"河東里","LIN":"5鄰","STREET":" ","SECT":" ","MAREA":"糞箕湖","LANE":" ","ALLEY":" ","HOUSE_NO":"７０之１９號","E_COORD97":192388.59,"N_COORD97":2582456.9199999999,"ADDRESS":"糞箕湖７０之１９號","OBJECTID":159778},"geometry":{"x":192388.58999999985,"y":2582456.9199999999}},{"attributes":{"ID":159780,"DIS_CODE":0,"TOWNNAME":"永康區","LI":"中興里","LIN":"2鄰","STREET":"忠孝路","SECT":" ","MAREA":" ","LANE":"２３９巷","ALLEY":"９弄","HOUSE_NO":"２２號","E_COORD97":171997.01999999999,"N_COORD97":2544997.5699999998,"ADDRESS":"忠孝路２３９巷９弄２２號","OBJECTID":159779},"geometry":{"x":171997.02000000048,"y":2544997.5700000022}},{"attributes":{"ID":159781,"DIS_CODE":0,"TOWNNAME":"永康區","LI":"中興里","LIN":"2鄰","STREET":"忠孝路","SECT":" ","MAREA":" ","LANE":"２３９巷","ALLEY":"９弄","HOUSE_NO":"２１號","E_COORD97":172019.70999999999,"N_COORD97":2544987.48,"ADDRESS":"忠孝路２３９巷９弄２１號","OBJECTID":159780},"geometry":{"x":172019.71000000089,"y":2544987.4799999986}},{"attributes":{"ID":159782,"DIS_CODE":0,"TOWNNAME":"永康區","LI":"五王里","LIN":"2鄰","STREET":"成功路","SECT":" ","MAREA":" ","LANE":"１７２巷","ALLEY":"８弄","HOUSE_NO":"２２號","E_COORD97":171500.63,"N_COORD97":2545574.71,"ADDRESS":"成功路１７２巷８弄２２號","OBJECTID":159781},"geometry":{"x":171500.62999999989,"y":2545574.7100000028}},{"attributes":{"ID":159783,"DIS_CODE":0,"TOWNNAME":"永康區","LI":"六合里","LIN":"2鄰","STREET":"新興街","SECT":" ","MAREA":" ","LANE":"３５巷","ALLEY":"１５弄","HOUSE_NO":"９號","E_COORD97":170965.12,"N_COORD97":2545880.2400000002,"ADDRESS":"新興街３５巷１５弄９號","OBJECTID":159782},"geometry":{"x":170965.12000000011,"y":2545880.2400000002}},{"attributes":{"ID":159784,"DIS_CODE":0,"TOWNNAME":"安南區","LI":"淵西里","LIN":"2鄰","STREET":"安中路","SECT":"四段","MAREA":" ","LANE":"２９０巷","ALLEY":"３２５弄","HOUSE_NO":"７１號","E_COORD97":165083.12,"N_COORD97":2550479.5299999998,"ADDRESS":"安中路四段２９０巷３２５弄７１號","OBJECTID":159783},"geometry":{"x":165083.12000000011,"y":2550479.5300000012}},{"attributes":{"ID":159785,"DIS_CODE":0,"TOWNNAME":"安南區","LI":"淵西里","LIN":"2鄰","STREET":"安中路","SECT":"四段","MAREA":" ","LANE":"２９０巷","ALLEY":"３２５弄","HOUSE_NO":"７３號","E_COORD97":165080.41,"N_COORD97":2550482.9199999999,"ADDRESS":"安中路四段２９０巷３２５弄７３號","OBJECTID":159784},"geometry":{"x":165080.41000000108,"y":2550482.9199999999}},{"attributes":{"ID":159786,"DIS_CODE":0,"TOWNNAME":"安南區","LI":"淵西里","LIN":"2鄰","STREET":"安中路","SECT":"四段","MAREA":" ","LANE":"２９０巷","ALLEY":"３２５弄","HOUSE_NO":"７５號","E_COORD97":165077.70000000001,"N_COORD97":2550486.75,"ADDRESS":"安中路四段２９０巷３２５弄７５號","OBJECTID":159785},"geometry":{"x":165077.70000000205,"y":2550486.75}},{"attributes":{"ID":159787,"DIS_CODE":0,"TOWNNAME":"安南區","LI":"淵西里","LIN":"2鄰","STREET":"安中路","SECT":"四段","MAREA":" ","LANE":"２９０巷","ALLEY":"３２５弄","HOUSE_NO":"７７號","E_COORD97":165074.53,"N_COORD97":2550490.3700000001,"ADDRESS":"安中路四段２９０巷３２５弄７７號","OBJECTID":159786},"geometry":{"x":165074.53000000119,"y":2550490.370000001}},{"attributes":{"ID":159788,"DIS_CODE":0,"TOWNNAME":"安南區","LI":"淵西里","LIN":"2鄰","STREET":"安中路","SECT":"四段","MAREA":" ","LANE":"２９０巷","ALLEY":"３２５弄","HOUSE_NO":"７９號","E_COORD97":165071.59,"N_COORD97":2550494.4300000002,"ADDRESS":"安中路四段２９０巷３２５弄７９號","OBJECTID":159787},"geometry":{"x":165071.59000000078,"y":2550494.4300000016}},{"attributes":{"ID":159789,"DIS_CODE":0,"TOWNNAME":"安南區","LI":"淵西里","LIN":"2鄰","STREET":"安中路","SECT":"四段","MAREA":" ","LANE":"２９０巷","ALLEY":"３２５弄","HOUSE_NO":"８１號","E_COORD97":165069.56,"N_COORD97":2550498.27,"ADDRESS":"安中路四段２９０巷３２５弄８１號","OBJECTID":159788},"geometry":{"x":165069.56000000145,"y":2550498.2700000014}},{"attributes":{"ID":159790,"DIS_CODE":0,"TOWNNAME":"安南區","LI":"淵西里","LIN":"2鄰","STREET":"安中路","SECT":"四段","MAREA":" ","LANE":"２９０巷","ALLEY":"３２５弄","HOUSE_NO":"８３號","E_COORD97":165065.94,"N_COORD97":2550501.4300000002,"ADDRESS":"安中路四段２９０巷３２５弄８３號","OBJECTID":159789},"geometry":{"x":165065.94000000041,"y":2550501.4300000016}},{"attributes":{"ID":159791,"DIS_CODE":0,"TOWNNAME":"安南區","LI":"淵西里","LIN":"2鄰","STREET":"安中路","SECT":"四段","MAREA":" ","LANE":"２９０巷","ALLEY":"３２５弄","HOUSE_NO":"８５號","E_COORD97":165063,"N_COORD97":2550505.7200000002,"ADDRESS":"安中路四段２９０巷３２５弄８５號","OBJECTID":159790},"geometry":{"x":165063,"y":2550505.7199999988}},{"attributes":{"ID":159792,"DIS_CODE":0,"TOWNNAME":"安南區","LI":"淵西里","LIN":"2鄰","STREET":"安中路","SECT":"四段","MAREA":" ","LANE":"２９０巷","ALLEY":"３２５弄","HOUSE_NO":"８７號","E_COORD97":165054.41,"N_COORD97":2550490.3700000001,"ADDRESS":"安中路四段２９０巷３２５弄８７號","OBJECTID":159791},"geometry":{"x":165054.41000000108,"y":2550490.370000001}},{"attributes":{"ID":159793,"DIS_CODE":0,"TOWNNAME":"安南區","LI":"淵西里","LIN":"2鄰","STREET":"安中路","SECT":"四段","MAREA":" ","LANE":"２９０巷","ALLEY":"３２５弄","HOUSE_NO":"８９號","E_COORD97":165059.39000000001,"N_COORD97":2550483.5899999999,"ADDRESS":"安中路四段２９０巷３２５弄８９號","OBJECTID":159792},"geometry":{"x":165059.3900000006,"y":2550483.5900000017}},{"attributes":{"ID":159794,"DIS_CODE":0,"TOWNNAME":"安南區","LI":"淵西里","LIN":"2鄰","STREET":"安中路","SECT":"四段","MAREA":" ","LANE":"２９０巷","ALLEY":"３２５弄","HOUSE_NO":"９１號","E_COORD97":165065.26000000001,"N_COORD97":2550478.3999999999,"ADDRESS":"安中路四段２９０巷３２５弄９１號","OBJECTID":159793},"geometry":{"x":165065.26000000071,"y":2550478.4000000022}},{"attributes":{"ID":159795,"DIS_CODE":0,"TOWNNAME":"安南區","LI":"淵西里","LIN":"2鄰","STREET":"安中路","SECT":"四段","MAREA":" ","LANE":"２９０巷","ALLEY":"３２５弄","HOUSE_NO":"９３號","E_COORD97":165069.56,"N_COORD97":2550472.3100000001,"ADDRESS":"安中路四段２９０巷３２５弄９３號","OBJECTID":159794},"geometry":{"x":165069.56000000145,"y":2550472.3100000024}},{"attributes":{"ID":159796,"DIS_CODE":0,"TOWNNAME":"安南區","LI":"淵西里","LIN":"2鄰","STREET":"安中路","SECT":"四段","MAREA":" ","LANE":"２９０巷","ALLEY":"３２５弄","HOUSE_NO":"９５號","E_COORD97":165073.39999999999,"N_COORD97":2550465.3100000001,"ADDRESS":"安中路四段２９０巷３２５弄９５號","OBJECTID":159795},"geometry":{"x":165073.4000000013,"y":2550465.3100000024}},{"attributes":{"ID":159797,"DIS_CODE":0,"TOWNNAME":"安南區","LI":"淵西里","LIN":"2鄰","STREET":"安中路","SECT":"四段","MAREA":" ","LANE":"２９０巷","ALLEY":"３２５弄","HOUSE_NO":"９７號","E_COORD97":165060.97,"N_COORD97":2550455.8300000001,"ADDRESS":"安中路四段２９０巷３２５弄９７號","OBJECTID":159796},"geometry":{"x":165060.97000000067,"y":2550455.8300000001}},{"attributes":{"ID":159798,"DIS_CODE":0,"TOWNNAME":"安南區","LI":"淵西里","LIN":"2鄰","STREET":"安中路","SECT":"四段","MAREA":" ","LANE":"２９０巷","ALLEY":"３２５弄","HOUSE_NO":"９９號","E_COORD97":165056.67000000001,"N_COORD97":2550461.25,"ADDRESS":"安中路四段２９０巷３２５弄９９號","OBJECTID":159797},"geometry":{"x":165056.66999999993,"y":2550461.2500000019}},{"attributes":{"ID":159799,"DIS_CODE":0,"TOWNNAME":"安南區","LI":"淵西里","LIN":"2鄰","STREET":"安中路","SECT":"四段","MAREA":" ","LANE":"２９０巷","ALLEY":"３２５弄","HOUSE_NO":"６９號","E_COORD97":165086.06,"N_COORD97":2550475.2400000002,"ADDRESS":"安中路四段２９０巷３２５弄６９號","OBJECTID":159798},"geometry":{"x":165086.05999999959,"y":2550475.2400000021}},{"attributes":{"ID":159800,"DIS_CODE":0,"TOWNNAME":"永康區","LI":"北灣里","LIN":"2鄰","STREET":"文賢街","SECT":" ","MAREA":" ","LANE":"１２２巷","ALLEY":"２７弄","HOUSE_NO":"２５號","E_COORD97":175451.01000000001,"N_COORD97":2545581,"ADDRESS":"文賢街１２２巷２７弄２５號","OBJECTID":159799},"geometry":{"x":175451.00999999978,"y":2545581.0000000019}},{"attributes":{"ID":159801,"DIS_CODE":0,"TOWNNAME":"永康區","LI":"北灣里","LIN":"2鄰","STREET":"文賢街","SECT":" ","MAREA":" ","LANE":"１２２巷","ALLEY":"２７弄","HOUSE_NO":"２７號","E_COORD97":175451.17999999999,"N_COORD97":2545585.8399999999,"ADDRESS":"文賢街１２２巷２７弄２７號","OBJECTID":159800},"geometry":{"x":175451.1799999997,"y":2545585.8400000017}}]}