{"displayFieldName":"TOWNNAME","fieldAliases":{"ID":"ID","DIS_CODE":"DIS_CODE","TOWNNAME":"TOWNNAME","LI":"LI","LIN":"LIN","STREET":"STREET","SECT":"SECT","MAREA":"MAREA","LANE":"LANE","ALLEY":"ALLEY","HOUSE_NO":"HOUSE_NO","E_COORD97":"E_COORD97","N_COORD97":"N_COORD97","ADDRESS":"ADDRESS","OBJECTID":"OBJECTID"},"geometryType":"esriGeometryPoint","spatialReference":{"wkid":102443,"latestWkid":3826},"fields":[{"name":"ID","type":"esriFieldTypeDouble","alias":"ID"},{"name":"DIS_CODE","type":"esriFieldTypeInteger","alias":"DIS_CODE"},{"name":"TOWNNAME","type":"esriFieldTypeString","alias":"TOWNNAME","length":8},{"name":"LI","type":"esriFieldTypeString","alias":"LI","length":8},{"name":"LIN","type":"esriFieldTypeString","alias":"LIN","length":12},{"name":"STREET","type":"esriFieldTypeString","alias":"STREET","length":20},{"name":"SECT","type":"esriFieldTypeString","alias":"SECT","length":8},{"name":"MAREA","type":"esriFieldTypeString","alias":"MAREA","length":12},{"name":"LANE","type":"esriFieldTypeString","alias":"LANE","length":10},{"name":"ALLEY","type":"esriFieldTypeString","alias":"ALLEY","length":10},{"name":"HOUSE_NO","type":"esriFieldTypeString","alias":"HOUSE_NO","length":20},{"name":"E_COORD97","type":"esriFieldTypeDouble","alias":"E_COORD97"},{"name":"N_COORD97","type":"esriFieldTypeDouble","alias":"N_COORD97"},{"name":"ADDRESS","type":"esriFieldTypeString","alias":"ADDRESS","length":50},{"name":"OBJECTID","type":"esriFieldTypeOID","alias":"OBJECTID"}],"features":[{"attributes":{"ID":143201,"DIS_CODE":0,"TOWNNAME":"佳里區","LI":"海澄里","LIN":"4鄰","STREET":" ","SECT":" ","MAREA":"番子寮","LANE":" ","ALLEY":" ","HOUSE_NO":"６號之９","E_COORD97":164184.38,"N_COORD97":2564642.77,"ADDRESS":"番子寮６號之９","OBJECTID":143201},"geometry":{"x":164184.37999999989,"y":2564642.7700000014}},{"attributes":{"ID":143202,"DIS_CODE":0,"TOWNNAME":"佳里區","LI":"海澄里","LIN":"4鄰","STREET":" ","SECT":" ","MAREA":"番子寮","LANE":" ","ALLEY":" ","HOUSE_NO":"６號","E_COORD97":164231.94,"N_COORD97":2564634.9300000002,"ADDRESS":"番子寮６號","OBJECTID":143202},"geometry":{"x":164231.94000000041,"y":2564634.9300000016}},{"attributes":{"ID":143203,"DIS_CODE":0,"TOWNNAME":"佳里區","LI":"海澄里","LIN":"4鄰","STREET":" ","SECT":" ","MAREA":"番子寮","LANE":" ","ALLEY":" ","HOUSE_NO":"８號","E_COORD97":164245.04999999999,"N_COORD97":2564654.6299999999,"ADDRESS":"番子寮８號","OBJECTID":143203},"geometry":{"x":164245.05000000075,"y":2564654.629999999}},{"attributes":{"ID":143204,"DIS_CODE":0,"TOWNNAME":"佳里區","LI":"海澄里","LIN":"4鄰","STREET":" ","SECT":" ","MAREA":"番子寮","LANE":" ","ALLEY":" ","HOUSE_NO":"９號之１３","E_COORD97":164572.16,"N_COORD97":2564684.6699999999,"ADDRESS":"番子寮９號之１３","OBJECTID":143204},"geometry":{"x":164572.16000000015,"y":2564684.6700000018}},{"attributes":{"ID":143205,"DIS_CODE":0,"TOWNNAME":"佳里區","LI":"海澄里","LIN":"4鄰","STREET":" ","SECT":" ","MAREA":"番子寮","LANE":" ","ALLEY":" ","HOUSE_NO":"９號之１５","E_COORD97":164636.67000000001,"N_COORD97":2564674.6600000001,"ADDRESS":"番子寮９號之１５","OBJECTID":143205},"geometry":{"x":164636.66999999993,"y":2564674.660000002}},{"attributes":{"ID":143206,"DIS_CODE":0,"TOWNNAME":"佳里區","LI":"海澄里","LIN":"4鄰","STREET":" ","SECT":" ","MAREA":"番子寮","LANE":" ","ALLEY":" ","HOUSE_NO":"９號之１","E_COORD97":164304.01000000001,"N_COORD97":2564686.8300000001,"ADDRESS":"番子寮９號之１","OBJECTID":143206},"geometry":{"x":164304.01000000164,"y":2564686.8300000019}},{"attributes":{"ID":143207,"DIS_CODE":0,"TOWNNAME":"佳里區","LI":"海澄里","LIN":"4鄰","STREET":" ","SECT":" ","MAREA":"番子寮","LANE":" ","ALLEY":" ","HOUSE_NO":"９號之２","E_COORD97":164243.92000000001,"N_COORD97":2564669.25,"ADDRESS":"番子寮９號之２","OBJECTID":143207},"geometry":{"x":164243.92000000086,"y":2564669.25}},{"attributes":{"ID":143208,"DIS_CODE":0,"TOWNNAME":"佳里區","LI":"海澄里","LIN":"4鄰","STREET":" ","SECT":" ","MAREA":"番子寮","LANE":" ","ALLEY":" ","HOUSE_NO":"９號之３","E_COORD97":164243.14999999999,"N_COORD97":2564677.1600000001,"ADDRESS":"番子寮９號之３","OBJECTID":143208},"geometry":{"x":164243.1500000013,"y":2564677.1600000001}},{"attributes":{"ID":143209,"DIS_CODE":0,"TOWNNAME":"佳里區","LI":"海澄里","LIN":"4鄰","STREET":" ","SECT":" ","MAREA":"番子寮","LANE":" ","ALLEY":" ","HOUSE_NO":"９號之８","E_COORD97":164406.47,"N_COORD97":2564674.6499999999,"ADDRESS":"番子寮９號之８","OBJECTID":143209},"geometry":{"x":164406.47000000067,"y":2564674.6500000041}},{"attributes":{"ID":143210,"DIS_CODE":0,"TOWNNAME":"南區","LI":"大忠里","LIN":"15鄰","STREET":"公英六街","SECT":" ","MAREA":" ","LANE":" ","ALLEY":" ","HOUSE_NO":"１７號","E_COORD97":169395.41,"N_COORD97":2541086.3999999999,"ADDRESS":"公英六街１７號","OBJECTID":143210},"geometry":{"x":169395.41000000015,"y":2541086.4000000022}},{"attributes":{"ID":143211,"DIS_CODE":0,"TOWNNAME":"南區","LI":"大忠里","LIN":"15鄰","STREET":"公英六街","SECT":" ","MAREA":" ","LANE":" ","ALLEY":" ","HOUSE_NO":"１８號","E_COORD97":169392.10999999999,"N_COORD97":2541104.5099999998,"ADDRESS":"公英六街１８號","OBJECTID":143211},"geometry":{"x":169392.11000000034,"y":2541104.5099999998}},{"attributes":{"ID":143212,"DIS_CODE":0,"TOWNNAME":"南區","LI":"大忠里","LIN":"15鄰","STREET":"公英六街","SECT":" ","MAREA":" ","LANE":" ","ALLEY":" ","HOUSE_NO":"１９號","E_COORD97":169388.70999999999,"N_COORD97":2541085.4500000002,"ADDRESS":"公英六街１９號","OBJECTID":143212},"geometry":{"x":169388.71000000089,"y":2541085.4500000011}},{"attributes":{"ID":143213,"DIS_CODE":0,"TOWNNAME":"善化區","LI":"光文里","LIN":"30鄰","STREET":" ","SECT":" ","MAREA":"北子店","LANE":" ","ALLEY":" ","HOUSE_NO":"５９５號","E_COORD97":179442.60999999999,"N_COORD97":2560191,"ADDRESS":"北子店５９５號","OBJECTID":143213},"geometry":{"x":179442.61000000127,"y":2560191.0000000019}},{"attributes":{"ID":143214,"DIS_CODE":0,"TOWNNAME":"善化區","LI":"光文里","LIN":"30鄰","STREET":" ","SECT":" ","MAREA":"北子店","LANE":" ","ALLEY":" ","HOUSE_NO":"５４３號","E_COORD97":179308.01999999999,"N_COORD97":2559905,"ADDRESS":"北子店５４３號","OBJECTID":143214},"geometry":{"x":179308.02000000048,"y":2559905.0000000037}},{"attributes":{"ID":143215,"DIS_CODE":0,"TOWNNAME":"善化區","LI":"光文里","LIN":"30鄰","STREET":" ","SECT":" ","MAREA":"北子店","LANE":" ","ALLEY":" ","HOUSE_NO":"５６３號","E_COORD97":179327.22,"N_COORD97":2559945.5,"ADDRESS":"北子店５６３號","OBJECTID":143215},"geometry":{"x":179327.22000000067,"y":2559945.5000000037}},{"attributes":{"ID":143216,"DIS_CODE":0,"TOWNNAME":"善化區","LI":"光文里","LIN":"30鄰","STREET":" ","SECT":" ","MAREA":"北子店","LANE":" ","ALLEY":" ","HOUSE_NO":"７０１號","E_COORD97":179642.91,"N_COORD97":2560611.25,"ADDRESS":"北子店７０１號","OBJECTID":143216},"geometry":{"x":179642.90999999922,"y":2560611.25}},{"attributes":{"ID":143217,"DIS_CODE":0,"TOWNNAME":"善化區","LI":"光文里","LIN":"30鄰","STREET":" ","SECT":" ","MAREA":"北子店","LANE":" ","ALLEY":" ","HOUSE_NO":"５５３號","E_COORD97":179317.53,"N_COORD97":2559925.25,"ADDRESS":"北子店５５３號","OBJECTID":143217},"geometry":{"x":179317.53000000119,"y":2559925.25}},{"attributes":{"ID":143218,"DIS_CODE":0,"TOWNNAME":"善化區","LI":"光文里","LIN":"30鄰","STREET":" ","SECT":" ","MAREA":"北子店","LANE":" ","ALLEY":" ","HOUSE_NO":"７１１號","E_COORD97":179735.97,"N_COORD97":2560940.25,"ADDRESS":"北子店７１１號","OBJECTID":143218},"geometry":{"x":179735.97000000067,"y":2560940.25}},{"attributes":{"ID":143219,"DIS_CODE":0,"TOWNNAME":"善化區","LI":"光文里","LIN":"30鄰","STREET":" ","SECT":" ","MAREA":"北子店","LANE":" ","ALLEY":" ","HOUSE_NO":"５５７號","E_COORD97":179321.37,"N_COORD97":2559933.25,"ADDRESS":"北子店５５７號","OBJECTID":143219},"geometry":{"x":179321.37000000104,"y":2559933.25}},{"attributes":{"ID":143220,"DIS_CODE":0,"TOWNNAME":"善化區","LI":"光文里","LIN":"30鄰","STREET":" ","SECT":" ","MAREA":"北子店","LANE":" ","ALLEY":" ","HOUSE_NO":"５４１號","E_COORD97":179306.42999999999,"N_COORD97":2559901.5,"ADDRESS":"北子店５４１號","OBJECTID":143220},"geometry":{"x":179306.4299999997,"y":2559901.5000000037}},{"attributes":{"ID":143221,"DIS_CODE":0,"TOWNNAME":"善化區","LI":"光文里","LIN":"30鄰","STREET":" ","SECT":" ","MAREA":"北子店","LANE":" ","ALLEY":" ","HOUSE_NO":"５０１號之１１","E_COORD97":179188.81,"N_COORD97":2559774.02,"ADDRESS":"北子店５０１號之１１","OBJECTID":143221},"geometry":{"x":179188.81000000145,"y":2559774.0199999996}},{"attributes":{"ID":143222,"DIS_CODE":0,"TOWNNAME":"善化區","LI":"光文里","LIN":"30鄰","STREET":" ","SECT":" ","MAREA":"北子店","LANE":" ","ALLEY":" ","HOUSE_NO":"５９３號","E_COORD97":179442.01999999999,"N_COORD97":2560186.5,"ADDRESS":"北子店５９３號","OBJECTID":143222},"geometry":{"x":179442.02000000048,"y":2560186.5000000019}},{"attributes":{"ID":143223,"DIS_CODE":0,"TOWNNAME":"善化區","LI":"光文里","LIN":"30鄰","STREET":" ","SECT":" ","MAREA":"北子店","LANE":" ","ALLEY":" ","HOUSE_NO":"５７３號","E_COORD97":179337.07999999999,"N_COORD97":2559966,"ADDRESS":"北子店５７３號","OBJECTID":143223},"geometry":{"x":179337.08000000101,"y":2559966.0000000037}},{"attributes":{"ID":143224,"DIS_CODE":0,"TOWNNAME":"善化區","LI":"光文里","LIN":"30鄰","STREET":" ","SECT":" ","MAREA":"北子店","LANE":" ","ALLEY":" ","HOUSE_NO":"５８３號","E_COORD97":179348.31,"N_COORD97":2559988,"ADDRESS":"北子店５８３號","OBJECTID":143224},"geometry":{"x":179348.31000000052,"y":2559988}},{"attributes":{"ID":143225,"DIS_CODE":0,"TOWNNAME":"善化區","LI":"光文里","LIN":"30鄰","STREET":" ","SECT":" ","MAREA":"北子店","LANE":" ","ALLEY":" ","HOUSE_NO":"５３１號","E_COORD97":179296.92000000001,"N_COORD97":2559881.75,"ADDRESS":"北子店５３１號","OBJECTID":143225},"geometry":{"x":179296.92000000179,"y":2559881.75}},{"attributes":{"ID":143226,"DIS_CODE":0,"TOWNNAME":"善化區","LI":"光文里","LIN":"30鄰","STREET":" ","SECT":" ","MAREA":"北子店","LANE":" ","ALLEY":" ","HOUSE_NO":"５７５號","E_COORD97":179339.38,"N_COORD97":2559970.75,"ADDRESS":"北子店５７５號","OBJECTID":143226},"geometry":{"x":179339.37999999989,"y":2559970.7499999981}},{"attributes":{"ID":143227,"DIS_CODE":0,"TOWNNAME":"善化區","LI":"光文里","LIN":"30鄰","STREET":" ","SECT":" ","MAREA":"北子店","LANE":" ","ALLEY":" ","HOUSE_NO":"５４５號","E_COORD97":179309.82999999999,"N_COORD97":2559908.5,"ADDRESS":"北子店５４５號","OBJECTID":143227},"geometry":{"x":179309.83000000101,"y":2559908.5000000019}},{"attributes":{"ID":143228,"DIS_CODE":0,"TOWNNAME":"善化區","LI":"光文里","LIN":"30鄰","STREET":" ","SECT":" ","MAREA":"北子店","LANE":" ","ALLEY":" ","HOUSE_NO":"６１１號","E_COORD97":179457.73000000001,"N_COORD97":2560283.25,"ADDRESS":"北子店６１１號","OBJECTID":143228},"geometry":{"x":179457.73000000045,"y":2560283.2500000019}},{"attributes":{"ID":143229,"DIS_CODE":0,"TOWNNAME":"東區","LI":"虎尾里","LIN":"22鄰","STREET":"東成街","SECT":" ","MAREA":" ","LANE":"１８２巷","ALLEY":"２弄","HOUSE_NO":"６號三樓","E_COORD97":171738.06,"N_COORD97":2542276.4199999999,"ADDRESS":"東成街１８２巷２弄６號三樓","OBJECTID":143229},"geometry":{"x":171738.05999999959,"y":2542276.4200000018}},{"attributes":{"ID":143230,"DIS_CODE":0,"TOWNNAME":"南區","LI":"大忠里","LIN":"15鄰","STREET":"公英六街","SECT":" ","MAREA":" ","LANE":" ","ALLEY":" ","HOUSE_NO":"１號","E_COORD97":169429.06,"N_COORD97":2541092.3100000001,"ADDRESS":"公英六街１號","OBJECTID":143230},"geometry":{"x":169429.05999999959,"y":2541092.3100000005}},{"attributes":{"ID":143231,"DIS_CODE":0,"TOWNNAME":"學甲區","LI":"三慶里","LIN":"30鄰","STREET":" ","SECT":" ","MAREA":"新芳","LANE":" ","ALLEY":" ","HOUSE_NO":"６０號","E_COORD97":167294.26999999999,"N_COORD97":2575276.3399999999,"ADDRESS":"新芳６０號","OBJECTID":143231},"geometry":{"x":167294.27000000048,"y":2575276.3399999999}},{"attributes":{"ID":143232,"DIS_CODE":0,"TOWNNAME":"東區","LI":"虎尾里","LIN":"22鄰","STREET":"東成街","SECT":" ","MAREA":" ","LANE":"１８２巷","ALLEY":"２弄","HOUSE_NO":"６號五樓","E_COORD97":171738.06,"N_COORD97":2542276.4199999999,"ADDRESS":"東成街１８２巷２弄６號五樓","OBJECTID":143232},"geometry":{"x":171738.05999999959,"y":2542276.4200000018}},{"attributes":{"ID":143233,"DIS_CODE":0,"TOWNNAME":"東區","LI":"虎尾里","LIN":"22鄰","STREET":"東成街","SECT":" ","MAREA":" ","LANE":"１８２巷","ALLEY":"２弄","HOUSE_NO":"８號二樓","E_COORD97":171729.5,"N_COORD97":2542275.1699999999,"ADDRESS":"東成街１８２巷２弄８號二樓","OBJECTID":143233},"geometry":{"x":171729.50000000093,"y":2542275.1700000018}},{"attributes":{"ID":143234,"DIS_CODE":0,"TOWNNAME":"東區","LI":"虎尾里","LIN":"22鄰","STREET":"東成街","SECT":" ","MAREA":" ","LANE":"１８２巷","ALLEY":"２弄","HOUSE_NO":"８號五樓","E_COORD97":171729.5,"N_COORD97":2542275.1699999999,"ADDRESS":"東成街１８２巷２弄８號五樓","OBJECTID":143234},"geometry":{"x":171729.50000000093,"y":2542275.1700000018}},{"attributes":{"ID":143235,"DIS_CODE":0,"TOWNNAME":"東區","LI":"虎尾里","LIN":"22鄰","STREET":"東成街","SECT":" ","MAREA":" ","LANE":"１８２巷","ALLEY":"２弄","HOUSE_NO":"８號四樓","E_COORD97":171729.5,"N_COORD97":2542275.1699999999,"ADDRESS":"東成街１８２巷２弄８號四樓","OBJECTID":143235},"geometry":{"x":171729.50000000093,"y":2542275.1700000018}},{"attributes":{"ID":143236,"DIS_CODE":0,"TOWNNAME":"東區","LI":"虎尾里","LIN":"22鄰","STREET":"東成街","SECT":" ","MAREA":" ","LANE":"１８２巷","ALLEY":"２弄","HOUSE_NO":"６號四樓","E_COORD97":171738.06,"N_COORD97":2542276.4199999999,"ADDRESS":"東成街１８２巷２弄６號四樓","OBJECTID":143236},"geometry":{"x":171738.05999999959,"y":2542276.4200000018}},{"attributes":{"ID":143237,"DIS_CODE":0,"TOWNNAME":"東區","LI":"虎尾里","LIN":"22鄰","STREET":"東成街","SECT":" ","MAREA":" ","LANE":"１８２巷","ALLEY":"２弄","HOUSE_NO":"８號三樓","E_COORD97":171729.5,"N_COORD97":2542275.1699999999,"ADDRESS":"東成街１８２巷２弄８號三樓","OBJECTID":143237},"geometry":{"x":171729.50000000093,"y":2542275.1700000018}},{"attributes":{"ID":143238,"DIS_CODE":0,"TOWNNAME":"東區","LI":"虎尾里","LIN":"22鄰","STREET":"東成街","SECT":" ","MAREA":" ","LANE":"１８２巷","ALLEY":"２弄","HOUSE_NO":"２號四樓","E_COORD97":171754.76999999999,"N_COORD97":2542277.1099999999,"ADDRESS":"東成街１８２巷２弄２號四樓","OBJECTID":143238},"geometry":{"x":171754.77000000048,"y":2542277.1100000013}},{"attributes":{"ID":143239,"DIS_CODE":0,"TOWNNAME":"永康區","LI":"復華里","LIN":"30鄰","STREET":"國華街","SECT":" ","MAREA":" ","LANE":" ","ALLEY":" ","HOUSE_NO":"１５６號","E_COORD97":172619.26000000001,"N_COORD97":2546282.5600000001,"ADDRESS":"國華街１５６號","OBJECTID":143239},"geometry":{"x":172619.26000000071,"y":2546282.5600000042}},{"attributes":{"ID":143240,"DIS_CODE":0,"TOWNNAME":"東區","LI":"虎尾里","LIN":"22鄰","STREET":"東成街","SECT":" ","MAREA":" ","LANE":"１８２巷","ALLEY":"２弄","HOUSE_NO":"６號二樓","E_COORD97":171738.06,"N_COORD97":2542276.4199999999,"ADDRESS":"東成街１８２巷２弄６號二樓","OBJECTID":143240},"geometry":{"x":171738.05999999959,"y":2542276.4200000018}},{"attributes":{"ID":143241,"DIS_CODE":0,"TOWNNAME":"安南區","LI":"安順里","LIN":"7鄰","STREET":"總安街","SECT":"一段","MAREA":" ","LANE":"１４６巷","ALLEY":"９２弄","HOUSE_NO":"１０號","E_COORD97":169697.17999999999,"N_COORD97":2550370.3700000001,"ADDRESS":"總安街一段１４６巷９２弄１０號","OBJECTID":143241},"geometry":{"x":169697.18000000063,"y":2550370.3700000029}},{"attributes":{"ID":143242,"DIS_CODE":0,"TOWNNAME":"安南區","LI":"安順里","LIN":"7鄰","STREET":"總安街","SECT":"一段","MAREA":" ","LANE":"１４６巷","ALLEY":"９２弄","HOUSE_NO":"６號","E_COORD97":169686.54000000001,"N_COORD97":2550372.1099999999,"ADDRESS":"總安街一段１４６巷９２弄６號","OBJECTID":143242},"geometry":{"x":169686.54000000097,"y":2550372.1099999994}},{"attributes":{"ID":143243,"DIS_CODE":0,"TOWNNAME":"永康區","LI":"龍潭里","LIN":"30鄰","STREET":"龍昌街","SECT":" ","MAREA":" ","LANE":" ","ALLEY":" ","HOUSE_NO":"５９號","E_COORD97":174984.20000000001,"N_COORD97":2547970.48,"ADDRESS":"龍昌街５９號","OBJECTID":143243},"geometry":{"x":174984.20000000019,"y":2547970.4800000004}},{"attributes":{"ID":143244,"DIS_CODE":0,"TOWNNAME":"安南區","LI":"鹿耳里","LIN":"5鄰","STREET":"北汕尾二路","SECT":" ","MAREA":" ","LANE":"６６１巷","ALLEY":"１９弄","HOUSE_NO":"４２號","E_COORD97":160305.04999999999,"N_COORD97":2548538.29,"ADDRESS":"北汕尾二路６６１巷１９弄４２號","OBJECTID":143244},"geometry":{"x":160305.05000000075,"y":2548538.290000001}},{"attributes":{"ID":143245,"DIS_CODE":0,"TOWNNAME":"東區","LI":"衛國里","LIN":"22鄰","STREET":"衛國街","SECT":" ","MAREA":" ","LANE":"１１４巷","ALLEY":"９弄","HOUSE_NO":"１０號之３三樓之７","E_COORD97":170501.85000000001,"N_COORD97":2543195.29,"ADDRESS":"衛國街１１４巷９弄１０號之３三樓之７","OBJECTID":143245},"geometry":{"x":170501.84999999963,"y":2543195.290000001}},{"attributes":{"ID":143246,"DIS_CODE":0,"TOWNNAME":"南區","LI":"郡南里","LIN":"4鄰","STREET":"新都路","SECT":" ","MAREA":" ","LANE":" ","ALLEY":" ","HOUSE_NO":"４４１號","E_COORD97":167269.57999999999,"N_COORD97":2540780.4300000002,"ADDRESS":"新都路４４１號","OBJECTID":143246},"geometry":{"x":167269.58000000007,"y":2540780.4300000016}},{"attributes":{"ID":143247,"DIS_CODE":0,"TOWNNAME":"東區","LI":"衛國里","LIN":"22鄰","STREET":"衛國街","SECT":" ","MAREA":" ","LANE":"１１４巷","ALLEY":"９弄","HOUSE_NO":"１０號之２二樓之１","E_COORD97":170505.17000000001,"N_COORD97":2543187.4900000002,"ADDRESS":"衛國街１１４巷９弄１０號之２二樓之１","OBJECTID":143247},"geometry":{"x":170505.16999999993,"y":2543187.4900000021}},{"attributes":{"ID":143248,"DIS_CODE":0,"TOWNNAME":"東區","LI":"衛國里","LIN":"22鄰","STREET":"衛國街","SECT":" ","MAREA":" ","LANE":"１１４巷","ALLEY":"９弄","HOUSE_NO":"１０號之２二樓之２","E_COORD97":170505.17000000001,"N_COORD97":2543187.4900000002,"ADDRESS":"衛國街１１４巷９弄１０號之２二樓之２","OBJECTID":143248},"geometry":{"x":170505.16999999993,"y":2543187.4900000021}},{"attributes":{"ID":143249,"DIS_CODE":0,"TOWNNAME":"東區","LI":"衛國里","LIN":"22鄰","STREET":"衛國街","SECT":" ","MAREA":" ","LANE":"１１４巷","ALLEY":"９弄","HOUSE_NO":"１０號之２二樓之３","E_COORD97":170505.17000000001,"N_COORD97":2543187.4900000002,"ADDRESS":"衛國街１１４巷９弄１０號之２二樓之３","OBJECTID":143249},"geometry":{"x":170505.16999999993,"y":2543187.4900000021}},{"attributes":{"ID":143250,"DIS_CODE":0,"TOWNNAME":"東區","LI":"衛國里","LIN":"22鄰","STREET":"衛國街","SECT":" ","MAREA":" ","LANE":"１１４巷","ALLEY":"９弄","HOUSE_NO":"１０號之２二樓之４","E_COORD97":170505.17000000001,"N_COORD97":2543187.4900000002,"ADDRESS":"衛國街１１４巷９弄１０號之２二樓之４","OBJECTID":143250},"geometry":{"x":170505.16999999993,"y":2543187.4900000021}},{"attributes":{"ID":143251,"DIS_CODE":0,"TOWNNAME":"南區","LI":"郡南里","LIN":"4鄰","STREET":"新都路","SECT":" ","MAREA":" ","LANE":" ","ALLEY":" ","HOUSE_NO":"４４３號","E_COORD97":167267.20000000001,"N_COORD97":2540780.29,"ADDRESS":"新都路４４３號","OBJECTID":143251},"geometry":{"x":167267.20000000019,"y":2540780.2900000028}},{"attributes":{"ID":143252,"DIS_CODE":0,"TOWNNAME":"南區","LI":"省躬里","LIN":" ","STREET":"省躬橫街","SECT":" ","MAREA":" ","LANE":" ","ALLEY":" ","HOUSE_NO":"２３號","E_COORD97":165719.91,"N_COORD97":2536922.3799999999,"ADDRESS":"省躬橫街２３號","OBJECTID":143252},"geometry":{"x":165719.91000000015,"y":2536922.3800000008}},{"attributes":{"ID":143253,"DIS_CODE":0,"TOWNNAME":"南區","LI":"郡南里","LIN":"4鄰","STREET":"新都路","SECT":" ","MAREA":" ","LANE":" ","ALLEY":" ","HOUSE_NO":"４４５號","E_COORD97":167263.29000000001,"N_COORD97":2540780.1499999999,"ADDRESS":"新都路４４５號","OBJECTID":143253},"geometry":{"x":167263.29000000004,"y":2540780.1500000022}},{"attributes":{"ID":143254,"DIS_CODE":0,"TOWNNAME":"南區","LI":"郡南里","LIN":"4鄰","STREET":"新都路","SECT":" ","MAREA":" ","LANE":" ","ALLEY":" ","HOUSE_NO":"４４７號","E_COORD97":167260.5,"N_COORD97":2540778.8999999999,"ADDRESS":"新都路４４７號","OBJECTID":143254},"geometry":{"x":167260.49999999907,"y":2540778.9000000022}},{"attributes":{"ID":143255,"DIS_CODE":0,"TOWNNAME":"南區","LI":"郡南里","LIN":"4鄰","STREET":"新都路","SECT":" ","MAREA":" ","LANE":" ","ALLEY":" ","HOUSE_NO":"４４９號","E_COORD97":167256.98000000001,"N_COORD97":2540779.6600000001,"ADDRESS":"新都路４４９號","OBJECTID":143255},"geometry":{"x":167256.98000000045,"y":2540779.660000002}},{"attributes":{"ID":143256,"DIS_CODE":0,"TOWNNAME":"南區","LI":"荔宅里","LIN":" ","STREET":"西門路","SECT":"一段","MAREA":" ","LANE":" ","ALLEY":" ","HOUSE_NO":"２４６號","E_COORD97":167752.89999999999,"N_COORD97":2541888.1000000001,"ADDRESS":"西門路一段２４６號","OBJECTID":143256},"geometry":{"x":167752.90000000037,"y":2541888.1000000015}},{"attributes":{"ID":143257,"DIS_CODE":0,"TOWNNAME":"南區","LI":"荔宅里","LIN":" ","STREET":"西門路","SECT":"一段","MAREA":" ","LANE":" ","ALLEY":" ","HOUSE_NO":"２６４號","E_COORD97":167751.54000000001,"N_COORD97":2541940.54,"ADDRESS":"西門路一段２６４號","OBJECTID":143257},"geometry":{"x":167751.54000000004,"y":2541940.5399999991}},{"attributes":{"ID":143258,"DIS_CODE":0,"TOWNNAME":"善化區","LI":"光文里","LIN":"30鄰","STREET":" ","SECT":" ","MAREA":"北子店","LANE":" ","ALLEY":" ","HOUSE_NO":"５８５號","E_COORD97":179348.72,"N_COORD97":2559994,"ADDRESS":"北子店５８５號","OBJECTID":143258},"geometry":{"x":179348.71999999974,"y":2559994.0000000019}},{"attributes":{"ID":143259,"DIS_CODE":0,"TOWNNAME":"善化區","LI":"溪美里","LIN":"22鄰","STREET":" ","SECT":" ","MAREA":"溪尾","LANE":" ","ALLEY":" ","HOUSE_NO":"１９３號之４","E_COORD97":176968.10000000001,"N_COORD97":2561181.52,"ADDRESS":"溪尾１９３號之４","OBJECTID":143259},"geometry":{"x":176968.10000000056,"y":2561181.5199999996}},{"attributes":{"ID":143260,"DIS_CODE":0,"TOWNNAME":"東區","LI":"衛國里","LIN":"22鄰","STREET":"衛國街","SECT":" ","MAREA":" ","LANE":"１１４巷","ALLEY":"９弄","HOUSE_NO":"１０號之２二樓之５","E_COORD97":170505.17000000001,"N_COORD97":2543187.4900000002,"ADDRESS":"衛國街１１４巷９弄１０號之２二樓之５","OBJECTID":143260},"geometry":{"x":170505.16999999993,"y":2543187.4900000021}},{"attributes":{"ID":143261,"DIS_CODE":0,"TOWNNAME":"東區","LI":"衛國里","LIN":"22鄰","STREET":"衛國街","SECT":" ","MAREA":" ","LANE":"１１４巷","ALLEY":"９弄","HOUSE_NO":"１０號之２三樓之１","E_COORD97":170505.17000000001,"N_COORD97":2543187.4900000002,"ADDRESS":"衛國街１１４巷９弄１０號之２三樓之１","OBJECTID":143261},"geometry":{"x":170505.16999999993,"y":2543187.4900000021}},{"attributes":{"ID":143262,"DIS_CODE":0,"TOWNNAME":"東區","LI":"衛國里","LIN":"22鄰","STREET":"衛國街","SECT":" ","MAREA":" ","LANE":"１１４巷","ALLEY":"９弄","HOUSE_NO":"１０號之２三樓之２","E_COORD97":170505.17000000001,"N_COORD97":2543187.4900000002,"ADDRESS":"衛國街１１４巷９弄１０號之２三樓之２","OBJECTID":143262},"geometry":{"x":170505.16999999993,"y":2543187.4900000021}},{"attributes":{"ID":143263,"DIS_CODE":0,"TOWNNAME":"東區","LI":"衛國里","LIN":"22鄰","STREET":"衛國街","SECT":" ","MAREA":" ","LANE":"１１４巷","ALLEY":"９弄","HOUSE_NO":"１０號之２三樓之３","E_COORD97":170505.17000000001,"N_COORD97":2543187.4900000002,"ADDRESS":"衛國街１１４巷９弄１０號之２三樓之３","OBJECTID":143263},"geometry":{"x":170505.16999999993,"y":2543187.4900000021}},{"attributes":{"ID":143264,"DIS_CODE":0,"TOWNNAME":"東區","LI":"衛國里","LIN":"22鄰","STREET":"衛國街","SECT":" ","MAREA":" ","LANE":"１１４巷","ALLEY":"９弄","HOUSE_NO":"１０號之２三樓之４","E_COORD97":170505.17000000001,"N_COORD97":2543187.4900000002,"ADDRESS":"衛國街１１４巷９弄１０號之２三樓之４","OBJECTID":143264},"geometry":{"x":170505.16999999993,"y":2543187.4900000021}},{"attributes":{"ID":143265,"DIS_CODE":0,"TOWNNAME":"善化區","LI":"溪美里","LIN":"22鄰","STREET":" ","SECT":" ","MAREA":"溪尾","LANE":" ","ALLEY":" ","HOUSE_NO":"１９６號之９","E_COORD97":177003.57999999999,"N_COORD97":2561076.52,"ADDRESS":"溪尾１９６號之９","OBJECTID":143265},"geometry":{"x":177003.58000000007,"y":2561076.5199999996}},{"attributes":{"ID":143266,"DIS_CODE":0,"TOWNNAME":"永康區","LI":"二王里","LIN":"30鄰","STREET":"中山南路","SECT":" ","MAREA":" ","LANE":"５１０巷","ALLEY":" ","HOUSE_NO":"１號之６","E_COORD97":172164,"N_COORD97":2546450.6000000001,"ADDRESS":"中山南路５１０巷１號之６","OBJECTID":143266},"geometry":{"x":172164,"y":2546450.6000000034}},{"attributes":{"ID":143267,"DIS_CODE":0,"TOWNNAME":"善化區","LI":"溪美里","LIN":"22鄰","STREET":" ","SECT":" ","MAREA":"溪尾","LANE":" ","ALLEY":" ","HOUSE_NO":"１９８號","E_COORD97":176966.73000000001,"N_COORD97":2561168.02,"ADDRESS":"溪尾１９８號","OBJECTID":143267},"geometry":{"x":176966.73000000138,"y":2561168.0199999996}},{"attributes":{"ID":143268,"DIS_CODE":0,"TOWNNAME":"南區","LI":"大忠里","LIN":"15鄰","STREET":"公英六街","SECT":" ","MAREA":" ","LANE":" ","ALLEY":" ","HOUSE_NO":"２０號","E_COORD97":169385.14000000001,"N_COORD97":2541102.27,"ADDRESS":"公英六街２０號","OBJECTID":143268},"geometry":{"x":169385.14000000153,"y":2541102.2699999996}},{"attributes":{"ID":143269,"DIS_CODE":0,"TOWNNAME":"善化區","LI":"溪美里","LIN":"22鄰","STREET":" ","SECT":" ","MAREA":"溪尾","LANE":" ","ALLEY":" ","HOUSE_NO":"１９２號","E_COORD97":176960.44,"N_COORD97":2561185.27,"ADDRESS":"溪尾１９２號","OBJECTID":143269},"geometry":{"x":176960.44000000134,"y":2561185.2700000014}},{"attributes":{"ID":143270,"DIS_CODE":0,"TOWNNAME":"善化區","LI":"溪美里","LIN":"22鄰","STREET":" ","SECT":" ","MAREA":"溪尾","LANE":" ","ALLEY":" ","HOUSE_NO":"５５９號","E_COORD97":177043.10999999999,"N_COORD97":2561283.77,"ADDRESS":"溪尾５５９號","OBJECTID":143270},"geometry":{"x":177043.1100000022,"y":2561283.7700000014}},{"attributes":{"ID":143271,"DIS_CODE":0,"TOWNNAME":"善化區","LI":"溪美里","LIN":"22鄰","STREET":" ","SECT":" ","MAREA":"溪尾","LANE":" ","ALLEY":" ","HOUSE_NO":"５８９號","E_COORD97":177047.66,"N_COORD97":2561178.02,"ADDRESS":"溪尾５８９號","OBJECTID":143271},"geometry":{"x":177047.66000000201,"y":2561178.0199999996}},{"attributes":{"ID":143272,"DIS_CODE":0,"TOWNNAME":"善化區","LI":"溪美里","LIN":"22鄰","STREET":" ","SECT":" ","MAREA":"溪尾","LANE":" ","ALLEY":" ","HOUSE_NO":"６０５號","E_COORD97":177069.07000000001,"N_COORD97":2561102.27,"ADDRESS":"溪尾６０５號","OBJECTID":143272},"geometry":{"x":177069.07000000123,"y":2561102.2699999996}},{"attributes":{"ID":143273,"DIS_CODE":0,"TOWNNAME":"善化區","LI":"溪美里","LIN":"22鄰","STREET":" ","SECT":" ","MAREA":"溪尾","LANE":" ","ALLEY":" ","HOUSE_NO":"３３７號","E_COORD97":176994.63,"N_COORD97":2561120.52,"ADDRESS":"溪尾３３７號","OBJECTID":143273},"geometry":{"x":176994.62999999989,"y":2561120.5199999996}},{"attributes":{"ID":143274,"DIS_CODE":0,"TOWNNAME":"南區","LI":"大忠里","LIN":"15鄰","STREET":"公英六街","SECT":" ","MAREA":" ","LANE":" ","ALLEY":" ","HOUSE_NO":"２１號","E_COORD97":169385.07999999999,"N_COORD97":2541085.0699999998,"ADDRESS":"公英六街２１號","OBJECTID":143274},"geometry":{"x":169385.08000000007,"y":2541085.0700000022}},{"attributes":{"ID":143275,"DIS_CODE":0,"TOWNNAME":"南區","LI":"大忠里","LIN":"15鄰","STREET":"公英六街","SECT":" ","MAREA":" ","LANE":" ","ALLEY":" ","HOUSE_NO":"２２號","E_COORD97":169380.64000000001,"N_COORD97":2541101.3700000001,"ADDRESS":"公英六街２２號","OBJECTID":143275},"geometry":{"x":169380.6400000006,"y":2541101.3700000029}},{"attributes":{"ID":143276,"DIS_CODE":0,"TOWNNAME":"南區","LI":"大忠里","LIN":"15鄰","STREET":"公英六街","SECT":" ","MAREA":" ","LANE":" ","ALLEY":" ","HOUSE_NO":"２３號","E_COORD97":169381.82999999999,"N_COORD97":2541084.6800000002,"ADDRESS":"公英六街２３號","OBJECTID":143276},"geometry":{"x":169381.83000000007,"y":2541084.6800000016}},{"attributes":{"ID":143277,"DIS_CODE":0,"TOWNNAME":"南區","LI":"大忠里","LIN":"15鄰","STREET":"公英六街","SECT":" ","MAREA":" ","LANE":" ","ALLEY":" ","HOUSE_NO":"２４號","E_COORD97":169375.92000000001,"N_COORD97":2541100.9199999999,"ADDRESS":"公英六街２４號","OBJECTID":143277},"geometry":{"x":169375.91999999993,"y":2541100.9199999999}},{"attributes":{"ID":143278,"DIS_CODE":0,"TOWNNAME":"南區","LI":"大忠里","LIN":"15鄰","STREET":"公英六街","SECT":" ","MAREA":" ","LANE":" ","ALLEY":" ","HOUSE_NO":"２５號","E_COORD97":169378.20000000001,"N_COORD97":2541083.9199999999,"ADDRESS":"公英六街２５號","OBJECTID":143278},"geometry":{"x":169378.20000000019,"y":2541083.9199999999}},{"attributes":{"ID":143279,"DIS_CODE":0,"TOWNNAME":"永康區","LI":"尚頂里","LIN":"30鄰","STREET":"中正南路","SECT":" ","MAREA":" ","LANE":" ","ALLEY":" ","HOUSE_NO":"２０５號","E_COORD97":169989.76999999999,"N_COORD97":2547256.25,"ADDRESS":"中正南路２０５號","OBJECTID":143279},"geometry":{"x":169989.77000000048,"y":2547256.25}},{"attributes":{"ID":143280,"DIS_CODE":0,"TOWNNAME":"永康區","LI":"二王里","LIN":"30鄰","STREET":"中山南路","SECT":" ","MAREA":" ","LANE":" ","ALLEY":" ","HOUSE_NO":"５１８號","E_COORD97":172113.95999999999,"N_COORD97":2546496.5800000001,"ADDRESS":"中山南路５１８號","OBJECTID":143280},"geometry":{"x":172113.95999999996,"y":2546496.5800000019}},{"attributes":{"ID":143281,"DIS_CODE":0,"TOWNNAME":"永康區","LI":"二王里","LIN":"30鄰","STREET":"中山南路","SECT":" ","MAREA":" ","LANE":" ","ALLEY":" ","HOUSE_NO":"５２８號","E_COORD97":172137.37,"N_COORD97":2546515.8599999999,"ADDRESS":"中山南路５２８號","OBJECTID":143281},"geometry":{"x":172137.37000000104,"y":2546515.8599999994}},{"attributes":{"ID":143282,"DIS_CODE":0,"TOWNNAME":"東區","LI":"衛國里","LIN":"22鄰","STREET":"衛國街","SECT":" ","MAREA":" ","LANE":"１１４巷","ALLEY":"９弄","HOUSE_NO":"１０號之２三樓之５","E_COORD97":170505.17000000001,"N_COORD97":2543187.4900000002,"ADDRESS":"衛國街１１４巷９弄１０號之２三樓之５","OBJECTID":143282},"geometry":{"x":170505.16999999993,"y":2543187.4900000021}},{"attributes":{"ID":143283,"DIS_CODE":0,"TOWNNAME":"東區","LI":"忠孝里","LIN":"30鄰","STREET":"崇明十街","SECT":" ","MAREA":" ","LANE":" ","ALLEY":" ","HOUSE_NO":"１５號","E_COORD97":170019.89000000001,"N_COORD97":2541752.6899999999,"ADDRESS":"崇明十街１５號","OBJECTID":143283},"geometry":{"x":170019.8900000006,"y":2541752.6899999995}},{"attributes":{"ID":143284,"DIS_CODE":0,"TOWNNAME":"東區","LI":"忠孝里","LIN":"30鄰","STREET":"崇明十街","SECT":" ","MAREA":" ","LANE":" ","ALLEY":" ","HOUSE_NO":"５５號","E_COORD97":170109.5,"N_COORD97":2541809.3399999999,"ADDRESS":"崇明十街５５號","OBJECTID":143284},"geometry":{"x":170109.5,"y":2541809.3400000017}},{"attributes":{"ID":143285,"DIS_CODE":0,"TOWNNAME":"仁德區","LI":"太子里","LIN":"30鄰","STREET":"中正路","SECT":"三段","MAREA":" ","LANE":" ","ALLEY":" ","HOUSE_NO":"５２６號","E_COORD97":173956.95000000001,"N_COORD97":2543155.27,"ADDRESS":"中正路三段５２６號","OBJECTID":143285},"geometry":{"x":173956.95000000019,"y":2543155.2700000014}},{"attributes":{"ID":143286,"DIS_CODE":0,"TOWNNAME":"仁德區","LI":"太子里","LIN":"30鄰","STREET":"中正路","SECT":"三段","MAREA":" ","LANE":" ","ALLEY":" ","HOUSE_NO":"５２８號","E_COORD97":173953.60000000001,"N_COORD97":2543159.02,"ADDRESS":"中正路三段５２８號","OBJECTID":143286},"geometry":{"x":173953.59999999963,"y":2543159.0200000033}},{"attributes":{"ID":143287,"DIS_CODE":0,"TOWNNAME":"南區","LI":"荔宅里","LIN":" ","STREET":"西門路","SECT":"一段","MAREA":" ","LANE":" ","ALLEY":" ","HOUSE_NO":"２８６號","E_COORD97":167753.67999999999,"N_COORD97":2542007.1299999999,"ADDRESS":"西門路一段２８６號","OBJECTID":143287},"geometry":{"x":167753.6799999997,"y":2542007.129999999}},{"attributes":{"ID":143288,"DIS_CODE":0,"TOWNNAME":"南區","LI":"郡南里","LIN":"4鄰","STREET":"新都路","SECT":" ","MAREA":" ","LANE":" ","ALLEY":" ","HOUSE_NO":"４５１號","E_COORD97":167253.70000000001,"N_COORD97":2540779.8199999998,"ADDRESS":"新都路４５１號","OBJECTID":143288},"geometry":{"x":167253.70000000019,"y":2540779.8200000003}},{"attributes":{"ID":143289,"DIS_CODE":0,"TOWNNAME":"東區","LI":"衛國里","LIN":"22鄰","STREET":"衛國街","SECT":" ","MAREA":" ","LANE":"１１４巷","ALLEY":"９弄","HOUSE_NO":"１０號之２三樓之６","E_COORD97":170505.17000000001,"N_COORD97":2543187.4900000002,"ADDRESS":"衛國街１１４巷９弄１０號之２三樓之６","OBJECTID":143289},"geometry":{"x":170505.16999999993,"y":2543187.4900000021}},{"attributes":{"ID":143290,"DIS_CODE":0,"TOWNNAME":"南區","LI":"郡南里","LIN":"4鄰","STREET":"新都路","SECT":" ","MAREA":" ","LANE":" ","ALLEY":" ","HOUSE_NO":"４５３號","E_COORD97":167252.54999999999,"N_COORD97":2540779.4199999999,"ADDRESS":"新都路４５３號","OBJECTID":143290},"geometry":{"x":167252.54999999981,"y":2540779.4199999999}},{"attributes":{"ID":143291,"DIS_CODE":0,"TOWNNAME":"新化區","LI":"太平里","LIN":"13鄰","STREET":"中正路","SECT":" ","MAREA":" ","LANE":" ","ALLEY":" ","HOUSE_NO":"６１５號","E_COORD97":178934.81,"N_COORD97":2548873.25,"ADDRESS":"中正路６１５號","OBJECTID":143291},"geometry":{"x":178934.81000000052,"y":2548873.25}},{"attributes":{"ID":143292,"DIS_CODE":0,"TOWNNAME":"東區","LI":"衛國里","LIN":"22鄰","STREET":"衛國街","SECT":" ","MAREA":" ","LANE":"１１４巷","ALLEY":"９弄","HOUSE_NO":"１０號之２四樓之１","E_COORD97":170505.17000000001,"N_COORD97":2543187.4900000002,"ADDRESS":"衛國街１１４巷９弄１０號之２四樓之１","OBJECTID":143292},"geometry":{"x":170505.16999999993,"y":2543187.4900000021}},{"attributes":{"ID":143293,"DIS_CODE":0,"TOWNNAME":"南區","LI":"省躬里","LIN":"8鄰","STREET":"省躬一街","SECT":" ","MAREA":" ","LANE":" ","ALLEY":" ","HOUSE_NO":"８號","E_COORD97":165774.23000000001,"N_COORD97":2537099.2200000002,"ADDRESS":"省躬一街８號","OBJECTID":143293},"geometry":{"x":165774.23000000045,"y":2537099.2200000007}},{"attributes":{"ID":143294,"DIS_CODE":0,"TOWNNAME":"東區","LI":"衛國里","LIN":"22鄰","STREET":"衛國街","SECT":" ","MAREA":" ","LANE":"１１４巷","ALLEY":"９弄","HOUSE_NO":"１０號之２四樓之２","E_COORD97":170505.17000000001,"N_COORD97":2543187.4900000002,"ADDRESS":"衛國街１１４巷９弄１０號之２四樓之２","OBJECTID":143294},"geometry":{"x":170505.16999999993,"y":2543187.4900000021}},{"attributes":{"ID":143295,"DIS_CODE":0,"TOWNNAME":"東區","LI":"衛國里","LIN":"22鄰","STREET":"衛國街","SECT":" ","MAREA":" ","LANE":"１１４巷","ALLEY":"９弄","HOUSE_NO":"１０號之２四樓之３","E_COORD97":170505.17000000001,"N_COORD97":2543187.4900000002,"ADDRESS":"衛國街１１４巷９弄１０號之２四樓之３","OBJECTID":143295},"geometry":{"x":170505.16999999993,"y":2543187.4900000021}},{"attributes":{"ID":143296,"DIS_CODE":0,"TOWNNAME":"東區","LI":"衛國里","LIN":"22鄰","STREET":"衛國街","SECT":" ","MAREA":" ","LANE":"１１４巷","ALLEY":"９弄","HOUSE_NO":"１０號之２四樓之４","E_COORD97":170505.17000000001,"N_COORD97":2543187.4900000002,"ADDRESS":"衛國街１１４巷９弄１０號之２四樓之４","OBJECTID":143296},"geometry":{"x":170505.16999999993,"y":2543187.4900000021}},{"attributes":{"ID":143297,"DIS_CODE":0,"TOWNNAME":"東區","LI":"衛國里","LIN":"22鄰","STREET":"衛國街","SECT":" ","MAREA":" ","LANE":"１１４巷","ALLEY":"９弄","HOUSE_NO":"１０號之２四樓之５","E_COORD97":170505.17000000001,"N_COORD97":2543187.4900000002,"ADDRESS":"衛國街１１４巷９弄１０號之２四樓之５","OBJECTID":143297},"geometry":{"x":170505.16999999993,"y":2543187.4900000021}},{"attributes":{"ID":143298,"DIS_CODE":0,"TOWNNAME":"東區","LI":"衛國里","LIN":"22鄰","STREET":"衛國街","SECT":" ","MAREA":" ","LANE":"１１４巷","ALLEY":"９弄","HOUSE_NO":"１０號之２四樓之６","E_COORD97":170505.17000000001,"N_COORD97":2543187.4900000002,"ADDRESS":"衛國街１１４巷９弄１０號之２四樓之６","OBJECTID":143298},"geometry":{"x":170505.16999999993,"y":2543187.4900000021}},{"attributes":{"ID":143299,"DIS_CODE":0,"TOWNNAME":"新化區","LI":"武安里","LIN":"8鄰","STREET":"和平街","SECT":" ","MAREA":" ","LANE":" ","ALLEY":" ","HOUSE_NO":"１１４號","E_COORD97":178927.62,"N_COORD97":2548148.25,"ADDRESS":"和平街１１４號","OBJECTID":143299},"geometry":{"x":178927.62000000011,"y":2548148.25}},{"attributes":{"ID":143300,"DIS_CODE":0,"TOWNNAME":"仁德區","LI":"仁愛里","LIN":"28鄰","STREET":"大同路","SECT":"三段","MAREA":" ","LANE":"３５８巷","ALLEY":" ","HOUSE_NO":"６２號","E_COORD97":169717.65700000001,"N_COORD97":2539409.5929999999,"ADDRESS":"大同路三段３５８巷６２號","OBJECTID":143300},"geometry":{"x":169717.65700000059,"y":2539409.5930000003}},{"attributes":{"ID":143301,"DIS_CODE":0,"TOWNNAME":"新化區","LI":"清水里","LIN":"8鄰","STREET":"忠孝路","SECT":" ","MAREA":" ","LANE":" ","ALLEY":" ","HOUSE_NO":"１１７號","E_COORD97":178707.22,"N_COORD97":2548612.25,"ADDRESS":"忠孝路１１７號","OBJECTID":143301},"geometry":{"x":178707.22000000067,"y":2548612.25}},{"attributes":{"ID":143302,"DIS_CODE":0,"TOWNNAME":"新市區","LI":"大社里","LIN":"30鄰","STREET":" ","SECT":" ","MAREA":"大社","LANE":" ","ALLEY":" ","HOUSE_NO":"９８５之１２號","E_COORD97":180266.20000000001,"N_COORD97":2553755.0499999998,"ADDRESS":"大社９８５之１２號","OBJECTID":143302},"geometry":{"x":180266.20000000019,"y":2553755.0500000045}},{"attributes":{"ID":143303,"DIS_CODE":0,"TOWNNAME":"新市區","LI":"大社里","LIN":"30鄰","STREET":" ","SECT":" ","MAREA":"大社","LANE":" ","ALLEY":" ","HOUSE_NO":"９９２之７號","E_COORD97":180283.20999999999,"N_COORD97":2553687.0499999998,"ADDRESS":"大社９９２之７號","OBJECTID":143303},"geometry":{"x":180283.20999999903,"y":2553687.0499999989}},{"attributes":{"ID":143304,"DIS_CODE":0,"TOWNNAME":"新市區","LI":"大社里","LIN":"30鄰","STREET":" ","SECT":" ","MAREA":"大社","LANE":" ","ALLEY":" ","HOUSE_NO":"９８５之１７號","E_COORD97":180242.98000000001,"N_COORD97":2553741.2999999998,"ADDRESS":"大社９８５之１７號","OBJECTID":143304},"geometry":{"x":180242.98000000231,"y":2553741.3000000026}},{"attributes":{"ID":143305,"DIS_CODE":0,"TOWNNAME":"佳里區","LI":"海澄里","LIN":"4鄰","STREET":" ","SECT":" ","MAREA":"番子寮","LANE":" ","ALLEY":" ","HOUSE_NO":"９號之９","E_COORD97":164420.82000000001,"N_COORD97":2564691.23,"ADDRESS":"番子寮９號之９","OBJECTID":143305},"geometry":{"x":164420.8200000003,"y":2564691.2300000023}},{"attributes":{"ID":143306,"DIS_CODE":0,"TOWNNAME":"佳里區","LI":"海澄里","LIN":"4鄰","STREET":" ","SECT":" ","MAREA":"番子寮","LANE":" ","ALLEY":" ","HOUSE_NO":"９號","E_COORD97":164207.78,"N_COORD97":2564679.3399999999,"ADDRESS":"番子寮９號","OBJECTID":143306},"geometry":{"x":164207.78000000119,"y":2564679.3400000036}},{"attributes":{"ID":143307,"DIS_CODE":0,"TOWNNAME":"佳里區","LI":"三協里","LIN":"4鄰","STREET":" ","SECT":" ","MAREA":"菜寮","LANE":" ","ALLEY":" ","HOUSE_NO":"２６號","E_COORD97":168053.57999999999,"N_COORD97":2563772.1600000001,"ADDRESS":"菜寮２６號","OBJECTID":143307},"geometry":{"x":168053.58000000194,"y":2563772.1600000039}},{"attributes":{"ID":143308,"DIS_CODE":0,"TOWNNAME":"東區","LI":"衛國里","LIN":"22鄰","STREET":"衛國街","SECT":" ","MAREA":" ","LANE":"１１４巷","ALLEY":"９弄","HOUSE_NO":"１０號之２五樓之１","E_COORD97":170505.17000000001,"N_COORD97":2543187.4900000002,"ADDRESS":"衛國街１１４巷９弄１０號之２五樓之１","OBJECTID":143308},"geometry":{"x":170505.16999999993,"y":2543187.4900000021}},{"attributes":{"ID":143309,"DIS_CODE":0,"TOWNNAME":"東區","LI":"衛國里","LIN":"22鄰","STREET":"衛國街","SECT":" ","MAREA":" ","LANE":"１１４巷","ALLEY":"９弄","HOUSE_NO":"１０號之２五樓之２","E_COORD97":170505.17000000001,"N_COORD97":2543187.4900000002,"ADDRESS":"衛國街１１４巷９弄１０號之２五樓之２","OBJECTID":143309},"geometry":{"x":170505.16999999993,"y":2543187.4900000021}},{"attributes":{"ID":143310,"DIS_CODE":0,"TOWNNAME":"東區","LI":"衛國里","LIN":"22鄰","STREET":"衛國街","SECT":" ","MAREA":" ","LANE":"１１４巷","ALLEY":"９弄","HOUSE_NO":"１０號之２五樓之３","E_COORD97":170505.17000000001,"N_COORD97":2543187.4900000002,"ADDRESS":"衛國街１１４巷９弄１０號之２五樓之３","OBJECTID":143310},"geometry":{"x":170505.16999999993,"y":2543187.4900000021}},{"attributes":{"ID":143311,"DIS_CODE":0,"TOWNNAME":"東區","LI":"衛國里","LIN":"22鄰","STREET":"衛國街","SECT":" ","MAREA":" ","LANE":"１１４巷","ALLEY":"９弄","HOUSE_NO":"１０號之２五樓之４","E_COORD97":170505.17000000001,"N_COORD97":2543187.4900000002,"ADDRESS":"衛國街１１４巷９弄１０號之２五樓之４","OBJECTID":143311},"geometry":{"x":170505.16999999993,"y":2543187.4900000021}},{"attributes":{"ID":143312,"DIS_CODE":0,"TOWNNAME":"東區","LI":"衛國里","LIN":"22鄰","STREET":"衛國街","SECT":" ","MAREA":" ","LANE":"１１４巷","ALLEY":"９弄","HOUSE_NO":"１０號之２五樓之５","E_COORD97":170505.17000000001,"N_COORD97":2543187.4900000002,"ADDRESS":"衛國街１１４巷９弄１０號之２五樓之５","OBJECTID":143312},"geometry":{"x":170505.16999999993,"y":2543187.4900000021}},{"attributes":{"ID":143313,"DIS_CODE":0,"TOWNNAME":"仁德區","LI":"太子里","LIN":"30鄰","STREET":"中正路","SECT":"三段","MAREA":" ","LANE":" ","ALLEY":" ","HOUSE_NO":"５３０號","E_COORD97":173949.17999999999,"N_COORD97":2543161.27,"ADDRESS":"中正路三段５３０號","OBJECTID":143313},"geometry":{"x":173949.1799999997,"y":2543161.2700000014}},{"attributes":{"ID":143314,"DIS_CODE":0,"TOWNNAME":"東區","LI":"衛國里","LIN":"22鄰","STREET":"衛國街","SECT":" ","MAREA":" ","LANE":"１１４巷","ALLEY":"９弄","HOUSE_NO":"１０號之２五樓之６","E_COORD97":170505.17000000001,"N_COORD97":2543187.4900000002,"ADDRESS":"衛國街１１４巷９弄１０號之２五樓之６","OBJECTID":143314},"geometry":{"x":170505.16999999993,"y":2543187.4900000021}},{"attributes":{"ID":143315,"DIS_CODE":0,"TOWNNAME":"東區","LI":"衛國里","LIN":"22鄰","STREET":"衛國街","SECT":" ","MAREA":" ","LANE":"１１４巷","ALLEY":"９弄","HOUSE_NO":"１０號之２六樓之１","E_COORD97":170505.17000000001,"N_COORD97":2543187.4900000002,"ADDRESS":"衛國街１１４巷９弄１０號之２六樓之１","OBJECTID":143315},"geometry":{"x":170505.16999999993,"y":2543187.4900000021}},{"attributes":{"ID":143316,"DIS_CODE":0,"TOWNNAME":"東區","LI":"衛國里","LIN":"22鄰","STREET":"衛國街","SECT":" ","MAREA":" ","LANE":"１１４巷","ALLEY":"９弄","HOUSE_NO":"１０號之２六樓之２","E_COORD97":170505.17000000001,"N_COORD97":2543187.4900000002,"ADDRESS":"衛國街１１４巷９弄１０號之２六樓之２","OBJECTID":143316},"geometry":{"x":170505.16999999993,"y":2543187.4900000021}},{"attributes":{"ID":143317,"DIS_CODE":0,"TOWNNAME":"東區","LI":"衛國里","LIN":"22鄰","STREET":"衛國街","SECT":" ","MAREA":" ","LANE":"１１４巷","ALLEY":"９弄","HOUSE_NO":"１０號之２六樓之３","E_COORD97":170505.17000000001,"N_COORD97":2543187.4900000002,"ADDRESS":"衛國街１１４巷９弄１０號之２六樓之３","OBJECTID":143317},"geometry":{"x":170505.16999999993,"y":2543187.4900000021}},{"attributes":{"ID":143318,"DIS_CODE":0,"TOWNNAME":"東區","LI":"衛國里","LIN":"22鄰","STREET":"衛國街","SECT":" ","MAREA":" ","LANE":"１１４巷","ALLEY":"９弄","HOUSE_NO":"１０號之２六樓之４","E_COORD97":170505.17000000001,"N_COORD97":2543187.4900000002,"ADDRESS":"衛國街１１４巷９弄１０號之２六樓之４","OBJECTID":143318},"geometry":{"x":170505.16999999993,"y":2543187.4900000021}},{"attributes":{"ID":143319,"DIS_CODE":0,"TOWNNAME":"仁德區","LI":"後壁里","LIN":"30鄰","STREET":"德洋一街","SECT":" ","MAREA":" ","LANE":" ","ALLEY":" ","HOUSE_NO":"２５號","E_COORD97":173096.39999999999,"N_COORD97":2539142.2599999998,"ADDRESS":"德洋一街２５號","OBJECTID":143319},"geometry":{"x":173096.39999999944,"y":2539142.2599999998}},{"attributes":{"ID":143320,"DIS_CODE":0,"TOWNNAME":"東區","LI":"衛國里","LIN":"22鄰","STREET":"衛國街","SECT":" ","MAREA":" ","LANE":"１１４巷","ALLEY":"９弄","HOUSE_NO":"１０號之２六樓之５","E_COORD97":170505.17000000001,"N_COORD97":2543187.4900000002,"ADDRESS":"衛國街１１４巷９弄１０號之２六樓之５","OBJECTID":143320},"geometry":{"x":170505.16999999993,"y":2543187.4900000021}},{"attributes":{"ID":143321,"DIS_CODE":0,"TOWNNAME":"東區","LI":"衛國里","LIN":"22鄰","STREET":"衛國街","SECT":" ","MAREA":" ","LANE":"１１４巷","ALLEY":"９弄","HOUSE_NO":"１０號之２六樓之６","E_COORD97":170505.17000000001,"N_COORD97":2543187.4900000002,"ADDRESS":"衛國街１１４巷９弄１０號之２六樓之６","OBJECTID":143321},"geometry":{"x":170505.16999999993,"y":2543187.4900000021}},{"attributes":{"ID":143322,"DIS_CODE":0,"TOWNNAME":"仁德區","LI":"後壁里","LIN":"30鄰","STREET":"德洋一街","SECT":" ","MAREA":" ","LANE":" ","ALLEY":" ","HOUSE_NO":"２７號","E_COORD97":173099.17999999999,"N_COORD97":2539145.5099999998,"ADDRESS":"德洋一街２７號","OBJECTID":143322},"geometry":{"x":173099.18000000063,"y":2539145.5100000016}},{"attributes":{"ID":143323,"DIS_CODE":0,"TOWNNAME":"東區","LI":"衛國里","LIN":"22鄰","STREET":"衛國街","SECT":" ","MAREA":" ","LANE":"１１４巷","ALLEY":"９弄","HOUSE_NO":"１０號之２七樓之１","E_COORD97":170505.17000000001,"N_COORD97":2543187.4900000002,"ADDRESS":"衛國街１１４巷９弄１０號之２七樓之１","OBJECTID":143323},"geometry":{"x":170505.16999999993,"y":2543187.4900000021}},{"attributes":{"ID":143324,"DIS_CODE":0,"TOWNNAME":"東區","LI":"衛國里","LIN":"22鄰","STREET":"衛國街","SECT":" ","MAREA":" ","LANE":"１１４巷","ALLEY":"９弄","HOUSE_NO":"１０號之２七樓之２","E_COORD97":170505.17000000001,"N_COORD97":2543187.4900000002,"ADDRESS":"衛國街１１４巷９弄１０號之２七樓之２","OBJECTID":143324},"geometry":{"x":170505.16999999993,"y":2543187.4900000021}},{"attributes":{"ID":143325,"DIS_CODE":0,"TOWNNAME":"永康區","LI":"大灣里","LIN":"22鄰","STREET":"大灣路","SECT":" ","MAREA":" ","LANE":"２１５巷","ALLEY":"４弄","HOUSE_NO":"１２號","E_COORD97":175003.09,"N_COORD97":2545261.6600000001,"ADDRESS":"大灣路２１５巷４弄１２號","OBJECTID":143325},"geometry":{"x":175003.08999999985,"y":2545261.660000002}},{"attributes":{"ID":143326,"DIS_CODE":0,"TOWNNAME":"仁德區","LI":"後壁里","LIN":"30鄰","STREET":"德洋一街","SECT":" ","MAREA":" ","LANE":" ","ALLEY":" ","HOUSE_NO":"３９號","E_COORD97":173120.10000000001,"N_COORD97":2539173.02,"ADDRESS":"德洋一街３９號","OBJECTID":143326},"geometry":{"x":173120.10000000056,"y":2539173.0200000014}},{"attributes":{"ID":143327,"DIS_CODE":0,"TOWNNAME":"仁德區","LI":"後壁里","LIN":"30鄰","STREET":"德洋一街","SECT":" ","MAREA":" ","LANE":" ","ALLEY":" ","HOUSE_NO":"２３號","E_COORD97":173093.04000000001,"N_COORD97":2539139.0099999998,"ADDRESS":"德洋一街２３號","OBJECTID":143327},"geometry":{"x":173093.04000000004,"y":2539139.0100000016}},{"attributes":{"ID":143328,"DIS_CODE":0,"TOWNNAME":"仁德區","LI":"後壁里","LIN":"30鄰","STREET":"德洋一街","SECT":" ","MAREA":" ","LANE":" ","ALLEY":" ","HOUSE_NO":"６５號","E_COORD97":173154.29000000001,"N_COORD97":2539218.5099999998,"ADDRESS":"德洋一街６５號","OBJECTID":143328},"geometry":{"x":173154.29000000004,"y":2539218.5099999998}},{"attributes":{"ID":143329,"DIS_CODE":0,"TOWNNAME":"仁德區","LI":"後壁里","LIN":"30鄰","STREET":"德洋一街","SECT":" ","MAREA":" ","LANE":" ","ALLEY":" ","HOUSE_NO":"２９號","E_COORD97":173101.45999999999,"N_COORD97":2539148.5099999998,"ADDRESS":"德洋一街２９號","OBJECTID":143329},"geometry":{"x":173101.46000000089,"y":2539148.5100000035}},{"attributes":{"ID":143330,"DIS_CODE":0,"TOWNNAME":"佳里區","LI":"三協里","LIN":"4鄰","STREET":" ","SECT":" ","MAREA":"菜寮","LANE":" ","ALLEY":" ","HOUSE_NO":"２７號","E_COORD97":168054.89999999999,"N_COORD97":2563791.9100000001,"ADDRESS":"菜寮２７號","OBJECTID":143330},"geometry":{"x":168054.89999999944,"y":2563791.910000002}},{"attributes":{"ID":143331,"DIS_CODE":0,"TOWNNAME":"佳里區","LI":"三協里","LIN":"4鄰","STREET":" ","SECT":" ","MAREA":"菜寮","LANE":" ","ALLEY":" ","HOUSE_NO":"２８號之１","E_COORD97":168091.26000000001,"N_COORD97":2563819.4700000002,"ADDRESS":"菜寮２８號之１","OBJECTID":143331},"geometry":{"x":168091.26000000071,"y":2563819.4700000025}},{"attributes":{"ID":143332,"DIS_CODE":0,"TOWNNAME":"佳里區","LI":"三協里","LIN":"4鄰","STREET":" ","SECT":" ","MAREA":"菜寮","LANE":" ","ALLEY":" ","HOUSE_NO":"２８號","E_COORD97":168056.89999999999,"N_COORD97":2563814.75,"ADDRESS":"菜寮２８號","OBJECTID":143332},"geometry":{"x":168056.9000000013,"y":2563814.75}},{"attributes":{"ID":143333,"DIS_CODE":0,"TOWNNAME":"佳里區","LI":"三協里","LIN":"4鄰","STREET":" ","SECT":" ","MAREA":"菜寮","LANE":" ","ALLEY":" ","HOUSE_NO":"２９號之１","E_COORD97":168119.07000000001,"N_COORD97":2563830.7400000002,"ADDRESS":"菜寮２９號之１","OBJECTID":143333},"geometry":{"x":168119.0700000003,"y":2563830.7400000021}},{"attributes":{"ID":143334,"DIS_CODE":0,"TOWNNAME":"佳里區","LI":"三協里","LIN":"4鄰","STREET":" ","SECT":" ","MAREA":"菜寮","LANE":" ","ALLEY":" ","HOUSE_NO":"３０號","E_COORD97":168151.23999999999,"N_COORD97":2563829.2599999998,"ADDRESS":"菜寮３０號","OBJECTID":143334},"geometry":{"x":168151.24000000115,"y":2563829.2600000016}},{"attributes":{"ID":143335,"DIS_CODE":0,"TOWNNAME":"佳里區","LI":"三協里","LIN":"4鄰","STREET":" ","SECT":" ","MAREA":"菜寮","LANE":" ","ALLEY":" ","HOUSE_NO":"３１號之１","E_COORD97":168049.78,"N_COORD97":2563854.4199999999,"ADDRESS":"菜寮３１號之１","OBJECTID":143335},"geometry":{"x":168049.78000000119,"y":2563854.4199999999}},{"attributes":{"ID":143336,"DIS_CODE":0,"TOWNNAME":"佳里區","LI":"三協里","LIN":"4鄰","STREET":" ","SECT":" ","MAREA":"菜寮","LANE":" ","ALLEY":" ","HOUSE_NO":"３１號之２","E_COORD97":168040.98000000001,"N_COORD97":2563837.48,"ADDRESS":"菜寮３１號之２","OBJECTID":143336},"geometry":{"x":168040.98000000231,"y":2563837.4800000004}},{"attributes":{"ID":143337,"DIS_CODE":0,"TOWNNAME":"佳里區","LI":"三協里","LIN":"4鄰","STREET":" ","SECT":" ","MAREA":"菜寮","LANE":" ","ALLEY":" ","HOUSE_NO":"３１號","E_COORD97":168058.34,"N_COORD97":2563841.6400000001,"ADDRESS":"菜寮３１號","OBJECTID":143337},"geometry":{"x":168058.34000000171,"y":2563841.6400000025}},{"attributes":{"ID":143338,"DIS_CODE":0,"TOWNNAME":"佳里區","LI":"三協里","LIN":"4鄰","STREET":" ","SECT":" ","MAREA":"菜寮","LANE":" ","ALLEY":" ","HOUSE_NO":"３２號","E_COORD97":168060.14999999999,"N_COORD97":2563875.7200000002,"ADDRESS":"菜寮３２號","OBJECTID":143338},"geometry":{"x":168060.15000000224,"y":2563875.7200000025}},{"attributes":{"ID":143339,"DIS_CODE":0,"TOWNNAME":"永康區","LI":"北灣里","LIN":"30鄰","STREET":"大同街","SECT":" ","MAREA":" ","LANE":" ","ALLEY":" ","HOUSE_NO":"２５號","E_COORD97":175286.89000000001,"N_COORD97":2545398.2999999998,"ADDRESS":"大同街２５號","OBJECTID":143339},"geometry":{"x":175286.88999999966,"y":2545398.3000000007}},{"attributes":{"ID":143340,"DIS_CODE":0,"TOWNNAME":"永康區","LI":"永康里","LIN":"30鄰","STREET":"永明街","SECT":" ","MAREA":" ","LANE":" ","ALLEY":" ","HOUSE_NO":"１２６號","E_COORD97":174192.63,"N_COORD97":2547216.6200000001,"ADDRESS":"永明街１２６號","OBJECTID":143340},"geometry":{"x":174192.62999999989,"y":2547216.620000001}},{"attributes":{"ID":143341,"DIS_CODE":0,"TOWNNAME":"永康區","LI":"永康里","LIN":"30鄰","STREET":"永明街","SECT":" ","MAREA":" ","LANE":" ","ALLEY":" ","HOUSE_NO":"１２０號","E_COORD97":174185.69,"N_COORD97":2547222.6800000002,"ADDRESS":"永明街１２０號","OBJECTID":143341},"geometry":{"x":174185.69000000041,"y":2547222.6799999997}},{"attributes":{"ID":143342,"DIS_CODE":0,"TOWNNAME":"佳里區","LI":"三協里","LIN":"4鄰","STREET":" ","SECT":" ","MAREA":"菜寮","LANE":" ","ALLEY":" ","HOUSE_NO":"３３號之１","E_COORD97":168053.14999999999,"N_COORD97":2563920.9900000002,"ADDRESS":"菜寮３３號之１","OBJECTID":143342},"geometry":{"x":168053.15000000037,"y":2563920.9900000002}},{"attributes":{"ID":143343,"DIS_CODE":0,"TOWNNAME":"永康區","LI":"永康里","LIN":"30鄰","STREET":"永明街","SECT":" ","MAREA":" ","LANE":" ","ALLEY":" ","HOUSE_NO":"１３６號","E_COORD97":174206.82999999999,"N_COORD97":2547203.9900000002,"ADDRESS":"永明街１３６號","OBJECTID":143343},"geometry":{"x":174206.83000000007,"y":2547203.9900000002}},{"attributes":{"ID":143344,"DIS_CODE":0,"TOWNNAME":"佳里區","LI":"三協里","LIN":"4鄰","STREET":" ","SECT":" ","MAREA":"菜寮","LANE":" ","ALLEY":" ","HOUSE_NO":"３４號之１","E_COORD97":167963.47,"N_COORD97":2564077.5299999998,"ADDRESS":"菜寮３４號之１","OBJECTID":143344},"geometry":{"x":167963.46999999974,"y":2564077.5300000031}},{"attributes":{"ID":143345,"DIS_CODE":0,"TOWNNAME":"東區","LI":"衛國里","LIN":"22鄰","STREET":"衛國街","SECT":" ","MAREA":" ","LANE":"１１４巷","ALLEY":"９弄","HOUSE_NO":"１０號之２七樓之３","E_COORD97":170505.17000000001,"N_COORD97":2543187.4900000002,"ADDRESS":"衛國街１１４巷９弄１０號之２七樓之３","OBJECTID":143345},"geometry":{"x":170505.16999999993,"y":2543187.4900000021}},{"attributes":{"ID":143346,"DIS_CODE":0,"TOWNNAME":"東區","LI":"衛國里","LIN":"22鄰","STREET":"衛國街","SECT":" ","MAREA":" ","LANE":"１１４巷","ALLEY":"９弄","HOUSE_NO":"１０號之２七樓之４","E_COORD97":170505.17000000001,"N_COORD97":2543187.4900000002,"ADDRESS":"衛國街１１４巷９弄１０號之２七樓之４","OBJECTID":143346},"geometry":{"x":170505.16999999993,"y":2543187.4900000021}},{"attributes":{"ID":143347,"DIS_CODE":0,"TOWNNAME":"東區","LI":"衛國里","LIN":"22鄰","STREET":"衛國街","SECT":" ","MAREA":" ","LANE":"１１４巷","ALLEY":"９弄","HOUSE_NO":"１０號之２七樓之５","E_COORD97":170505.17000000001,"N_COORD97":2543187.4900000002,"ADDRESS":"衛國街１１４巷９弄１０號之２七樓之５","OBJECTID":143347},"geometry":{"x":170505.16999999993,"y":2543187.4900000021}},{"attributes":{"ID":143348,"DIS_CODE":0,"TOWNNAME":"東區","LI":"衛國里","LIN":"22鄰","STREET":"衛國街","SECT":" ","MAREA":" ","LANE":"１１４巷","ALLEY":"９弄","HOUSE_NO":"１０號之２七樓之６","E_COORD97":170505.17000000001,"N_COORD97":2543187.4900000002,"ADDRESS":"衛國街１１４巷９弄１０號之２七樓之６","OBJECTID":143348},"geometry":{"x":170505.16999999993,"y":2543187.4900000021}},{"attributes":{"ID":143349,"DIS_CODE":0,"TOWNNAME":"佳里區","LI":"三協里","LIN":"4鄰","STREET":" ","SECT":" ","MAREA":"菜寮","LANE":" ","ALLEY":" ","HOUSE_NO":"３４號","E_COORD97":168025.45000000001,"N_COORD97":2563893.25,"ADDRESS":"菜寮３４號","OBJECTID":143349},"geometry":{"x":168025.45000000019,"y":2563893.25}},{"attributes":{"ID":143350,"DIS_CODE":0,"TOWNNAME":"東區","LI":"衛國里","LIN":"22鄰","STREET":"衛國街","SECT":" ","MAREA":" ","LANE":"１１４巷","ALLEY":"９弄","HOUSE_NO":"１０號之３二樓之１","E_COORD97":170501.85000000001,"N_COORD97":2543195.29,"ADDRESS":"衛國街１１４巷９弄１０號之３二樓之１","OBJECTID":143350},"geometry":{"x":170501.84999999963,"y":2543195.290000001}},{"attributes":{"ID":143351,"DIS_CODE":0,"TOWNNAME":"佳里區","LI":"三協里","LIN":"4鄰","STREET":" ","SECT":" ","MAREA":"菜寮","LANE":" ","ALLEY":" ","HOUSE_NO":"３５號","E_COORD97":168034.44,"N_COORD97":2563875.2200000002,"ADDRESS":"菜寮３５號","OBJECTID":143351},"geometry":{"x":168034.44000000227,"y":2563875.2200000025}},{"attributes":{"ID":143352,"DIS_CODE":0,"TOWNNAME":"佳里區","LI":"三協里","LIN":"4鄰","STREET":" ","SECT":" ","MAREA":"菜寮","LANE":" ","ALLEY":" ","HOUSE_NO":"３９號","E_COORD97":168031.06,"N_COORD97":2563838.71,"ADDRESS":"菜寮３９號","OBJECTID":143352},"geometry":{"x":168031.06000000145,"y":2563838.7100000028}},{"attributes":{"ID":143353,"DIS_CODE":0,"TOWNNAME":"東區","LI":"衛國里","LIN":"22鄰","STREET":"衛國街","SECT":" ","MAREA":" ","LANE":"１１４巷","ALLEY":"９弄","HOUSE_NO":"１０號之３二樓之２","E_COORD97":170501.85000000001,"N_COORD97":2543195.29,"ADDRESS":"衛國街１１４巷９弄１０號之３二樓之２","OBJECTID":143353},"geometry":{"x":170501.84999999963,"y":2543195.290000001}},{"attributes":{"ID":143354,"DIS_CODE":0,"TOWNNAME":"安定區","LI":"海寮里","LIN":"14鄰","STREET":" ","SECT":" ","MAREA":"海寮","LANE":" ","ALLEY":" ","HOUSE_NO":"１３２之１０２號","E_COORD97":168972.94,"N_COORD97":2555446.2999999998,"ADDRESS":"海寮１３２之１０２號","OBJECTID":143354},"geometry":{"x":168972.94000000041,"y":2555446.3000000026}},{"attributes":{"ID":143355,"DIS_CODE":0,"TOWNNAME":"安定區","LI":"六嘉里","LIN":"4鄰","STREET":" ","SECT":" ","MAREA":"六塊寮","LANE":" ","ALLEY":" ","HOUSE_NO":"３０號","E_COORD97":169969.62,"N_COORD97":2553369.27,"ADDRESS":"六塊寮３０號","OBJECTID":143355},"geometry":{"x":169969.62000000104,"y":2553369.2700000033}},{"attributes":{"ID":143356,"DIS_CODE":0,"TOWNNAME":"安定區","LI":"中沙里","LIN":"4鄰","STREET":" ","SECT":" ","MAREA":"中崙","LANE":" ","ALLEY":" ","HOUSE_NO":"１２７號之３","E_COORD97":169087.08552299999,"N_COORD97":2553172.6074700002,"ADDRESS":"中崙１２７號之３","OBJECTID":143356},"geometry":{"x":169087.08552300092,"y":2553172.6074660011}},{"attributes":{"ID":143357,"DIS_CODE":0,"TOWNNAME":"東區","LI":"衛國里","LIN":"22鄰","STREET":"衛國街","SECT":" ","MAREA":" ","LANE":"１１４巷","ALLEY":"９弄","HOUSE_NO":"１０號之３二樓之３","E_COORD97":170501.85000000001,"N_COORD97":2543195.29,"ADDRESS":"衛國街１１４巷９弄１０號之３二樓之３","OBJECTID":143357},"geometry":{"x":170501.84999999963,"y":2543195.290000001}},{"attributes":{"ID":143358,"DIS_CODE":0,"TOWNNAME":"安定區","LI":"保西里","LIN":"4鄰","STREET":" ","SECT":" ","MAREA":"安定","LANE":" ","ALLEY":" ","HOUSE_NO":"３５８號之１","E_COORD97":171711.12,"N_COORD97":2557701.3199999998,"ADDRESS":"安定３５８之１號","OBJECTID":143358},"geometry":{"x":171711.12000000011,"y":2557701.3200000003}},{"attributes":{"ID":143359,"DIS_CODE":0,"TOWNNAME":"歸仁區","LI":"新厝里","LIN":"24鄰","STREET":"大成路","SECT":" ","MAREA":" ","LANE":" ","ALLEY":" ","HOUSE_NO":"１６２號","E_COORD97":177724.11196000001,"N_COORD97":2540222.0263399999,"ADDRESS":"大成路１６２號","OBJECTID":143359},"geometry":{"x":177724.11196000129,"y":2540222.0263399985}},{"attributes":{"ID":143360,"DIS_CODE":0,"TOWNNAME":"東區","LI":"衛國里","LIN":"22鄰","STREET":"衛國街","SECT":" ","MAREA":" ","LANE":"１１４巷","ALLEY":"９弄","HOUSE_NO":"１０號之３二樓之４","E_COORD97":170501.85000000001,"N_COORD97":2543195.29,"ADDRESS":"衛國街１１４巷９弄１０號之３二樓之４","OBJECTID":143360},"geometry":{"x":170501.84999999963,"y":2543195.290000001}},{"attributes":{"ID":143361,"DIS_CODE":0,"TOWNNAME":"仁德區","LI":"仁愛里","LIN":"28鄰","STREET":"大同路","SECT":"三段","MAREA":" ","LANE":"３５８巷","ALLEY":" ","HOUSE_NO":"７０號","E_COORD97":169717.70699999999,"N_COORD97":2539396.4079999998,"ADDRESS":"大同路三段３５８巷７０號","OBJECTID":143361},"geometry":{"x":169717.70700000133,"y":2539396.4080000017}},{"attributes":{"ID":143362,"DIS_CODE":0,"TOWNNAME":"安定區","LI":"南安里","LIN":"4鄰","STREET":" ","SECT":" ","MAREA":"油車","LANE":" ","ALLEY":" ","HOUSE_NO":"３９之５號","E_COORD97":170675.85174700001,"N_COORD97":2555519.4863399998,"ADDRESS":"油車３９之５號","OBJECTID":143362},"geometry":{"x":170675.85174699966,"y":2555519.4863380026}},{"attributes":{"ID":143363,"DIS_CODE":0,"TOWNNAME":"安定區","LI":"港口里","LIN":"18鄰","STREET":" ","SECT":" ","MAREA":"港口","LANE":" ","ALLEY":" ","HOUSE_NO":"３８０之９號","E_COORD97":171404.29000000001,"N_COORD97":2555033.2999999998,"ADDRESS":"港口３８０之９號","OBJECTID":143363},"geometry":{"x":171404.29000000004,"y":2555033.3000000007}},{"attributes":{"ID":143364,"DIS_CODE":0,"TOWNNAME":"安定區","LI":"港口里","LIN":"20鄰","STREET":" ","SECT":" ","MAREA":"港口","LANE":" ","ALLEY":" ","HOUSE_NO":"３９３號","E_COORD97":171566.89000000001,"N_COORD97":2555003.25,"ADDRESS":"港口３９３號","OBJECTID":143364},"geometry":{"x":171566.89000000153,"y":2555003.25}},{"attributes":{"ID":143365,"DIS_CODE":0,"TOWNNAME":"安定區","LI":"海寮里","LIN":"14鄰","STREET":" ","SECT":" ","MAREA":"海寮","LANE":" ","ALLEY":" ","HOUSE_NO":"１３２之１２１號","E_COORD97":168991.73999999999,"N_COORD97":2555368.2999999998,"ADDRESS":"海寮１３２之１２１號","OBJECTID":143365},"geometry":{"x":168991.74000000209,"y":2555368.3000000026}},{"attributes":{"ID":143366,"DIS_CODE":0,"TOWNNAME":"安定區","LI":"海寮里","LIN":"14鄰","STREET":" ","SECT":" ","MAREA":"海寮","LANE":" ","ALLEY":" ","HOUSE_NO":"１３２之１２６號","E_COORD97":168996.54000000001,"N_COORD97":2555347.2999999998,"ADDRESS":"海寮１３２之１２６號","OBJECTID":143366},"geometry":{"x":168996.54000000097,"y":2555347.3000000026}},{"attributes":{"ID":143367,"DIS_CODE":0,"TOWNNAME":"安定區","LI":"安定里","LIN":"8鄰","STREET":" ","SECT":" ","MAREA":"安定","LANE":" ","ALLEY":" ","HOUSE_NO":"５８之１３號","E_COORD97":171925.42000000001,"N_COORD97":2558024.3199999998,"ADDRESS":"安定５８之１３號","OBJECTID":143367},"geometry":{"x":171925.41999999993,"y":2558024.3200000003}},{"attributes":{"ID":143368,"DIS_CODE":0,"TOWNNAME":"安定區","LI":"安定里","LIN":"8鄰","STREET":" ","SECT":" ","MAREA":"安定","LANE":" ","ALLEY":" ","HOUSE_NO":"５８號之４１","E_COORD97":171930.64999999999,"N_COORD97":2557986.3199999998,"ADDRESS":"安定５８號之４１","OBJECTID":143368},"geometry":{"x":171930.6500000013,"y":2557986.3200000003}},{"attributes":{"ID":143369,"DIS_CODE":0,"TOWNNAME":"安定區","LI":"六嘉里","LIN":"4鄰","STREET":" ","SECT":" ","MAREA":"六塊寮","LANE":" ","ALLEY":" ","HOUSE_NO":"２８號之３","E_COORD97":169995.14999999999,"N_COORD97":2553508.2999999998,"ADDRESS":"六塊寮２８號之３","OBJECTID":143369},"geometry":{"x":169995.1500000013,"y":2553508.3000000007}},{"attributes":{"ID":143370,"DIS_CODE":0,"TOWNNAME":"安定區","LI":"南安里","LIN":"4鄰","STREET":" ","SECT":" ","MAREA":"油車","LANE":" ","ALLEY":" ","HOUSE_NO":"３８之１２號","E_COORD97":170730.19,"N_COORD97":2555529.2999999998,"ADDRESS":"油車３８之１２號","OBJECTID":143370},"geometry":{"x":170730.19000000134,"y":2555529.3000000007}},{"attributes":{"ID":143371,"DIS_CODE":0,"TOWNNAME":"安定區","LI":"港尾里","LIN":"4鄰","STREET":" ","SECT":" ","MAREA":"港子尾","LANE":" ","ALLEY":" ","HOUSE_NO":"１０之２０號","E_COORD97":171576.73999999999,"N_COORD97":2556168.2999999998,"ADDRESS":"港子尾１０之２０號","OBJECTID":143371},"geometry":{"x":171576.73999999929,"y":2556168.3000000026}},{"attributes":{"ID":143372,"DIS_CODE":0,"TOWNNAME":"新市區","LI":"大社里","LIN":"30鄰","STREET":" ","SECT":" ","MAREA":"大社","LANE":" ","ALLEY":" ","HOUSE_NO":"９９７號","E_COORD97":180285.10000000001,"N_COORD97":2553519.71,"ADDRESS":"大社９９７號","OBJECTID":143372},"geometry":{"x":180285.09999999963,"y":2553519.7100000009}},{"attributes":{"ID":143373,"DIS_CODE":0,"TOWNNAME":"安定區","LI":"六嘉里","LIN":"4鄰","STREET":" ","SECT":" ","MAREA":"六塊寮","LANE":" ","ALLEY":" ","HOUSE_NO":"３０號之９","E_COORD97":169886.73999999999,"N_COORD97":2553267.2999999998,"ADDRESS":"六塊寮３０號之９","OBJECTID":143373},"geometry":{"x":169886.74000000209,"y":2553267.3000000007}},{"attributes":{"ID":143374,"DIS_CODE":0,"TOWNNAME":"安定區","LI":"港口里","LIN":"13鄰","STREET":" ","SECT":" ","MAREA":"港口","LANE":" ","ALLEY":" ","HOUSE_NO":"３１９之１號","E_COORD97":171208.39000000001,"N_COORD97":2554643.2999999998,"ADDRESS":"港口３１９之１號","OBJECTID":143374},"geometry":{"x":171208.38999999966,"y":2554643.3000000026}},{"attributes":{"ID":143375,"DIS_CODE":0,"TOWNNAME":"安定區","LI":"新吉里","LIN":"18鄰","STREET":" ","SECT":" ","MAREA":"新吉","LANE":" ","ALLEY":" ","HOUSE_NO":"２６９號","E_COORD97":168967.92000000001,"N_COORD97":2554050.25,"ADDRESS":"新吉２６９號","OBJECTID":143375},"geometry":{"x":168967.91999999993,"y":2554050.25}},{"attributes":{"ID":143376,"DIS_CODE":0,"TOWNNAME":"安定區","LI":"港南里","LIN":"13鄰","STREET":" ","SECT":" ","MAREA":"港口","LANE":" ","ALLEY":" ","HOUSE_NO":"１０３之２號","E_COORD97":171247.29000000001,"N_COORD97":2554432.2999999998,"ADDRESS":"港口１０３之２號","OBJECTID":143376},"geometry":{"x":171247.29000000004,"y":2554432.3000000026}},{"attributes":{"ID":143377,"DIS_CODE":0,"TOWNNAME":"安定區","LI":"港南里","LIN":"13鄰","STREET":" ","SECT":" ","MAREA":"港口","LANE":" ","ALLEY":" ","HOUSE_NO":"１０４之２號","E_COORD97":171270.29000000001,"N_COORD97":2554452.2999999998,"ADDRESS":"港口１０４之２號","OBJECTID":143377},"geometry":{"x":171270.29000000097,"y":2554452.3000000026}},{"attributes":{"ID":143378,"DIS_CODE":0,"TOWNNAME":"安定區","LI":"蘇厝里","LIN":"4鄰","STREET":" ","SECT":" ","MAREA":"蘇厝","LANE":" ","ALLEY":" ","HOUSE_NO":"３０８之１號","E_COORD97":173201.82000000001,"N_COORD97":2558581.2999999998,"ADDRESS":"蘇厝３０８之１號","OBJECTID":143378},"geometry":{"x":173201.8200000003,"y":2558581.3000000045}},{"attributes":{"ID":143379,"DIS_CODE":0,"TOWNNAME":"安定區","LI":"蘇厝里","LIN":"4鄰","STREET":" ","SECT":" ","MAREA":"蘇厝","LANE":" ","ALLEY":" ","HOUSE_NO":"３０９號之３","E_COORD97":173240.14999999999,"N_COORD97":2558592.2999999998,"ADDRESS":"蘇厝３０９號之３","OBJECTID":143379},"geometry":{"x":173240.15000000037,"y":2558592.3000000026}},{"attributes":{"ID":143380,"DIS_CODE":0,"TOWNNAME":"安定區","LI":"安加里","LIN":"4鄰","STREET":" ","SECT":" ","MAREA":"安定","LANE":" ","ALLEY":" ","HOUSE_NO":"１９２號","E_COORD97":171828.51999999999,"N_COORD97":2557709.3199999998,"ADDRESS":"安定１９２號","OBJECTID":143380},"geometry":{"x":171828.52000000142,"y":2557709.320000004}},{"attributes":{"ID":143381,"DIS_CODE":0,"TOWNNAME":"安定區","LI":"港南里","LIN":"18鄰","STREET":" ","SECT":" ","MAREA":"港口","LANE":" ","ALLEY":" ","HOUSE_NO":"２４４之２３號","E_COORD97":171755.64000000001,"N_COORD97":2554699.2999999998,"ADDRESS":"港口２４４之２３號","OBJECTID":143381},"geometry":{"x":171755.6400000006,"y":2554699.3000000045}},{"attributes":{"ID":143382,"DIS_CODE":0,"TOWNNAME":"安定區","LI":"港南里","LIN":"13鄰","STREET":" ","SECT":" ","MAREA":"港口","LANE":" ","ALLEY":" ","HOUSE_NO":"１０６號","E_COORD97":171309.48999999999,"N_COORD97":2554493.25,"ADDRESS":"港口１０６號","OBJECTID":143382},"geometry":{"x":171309.49000000115,"y":2554493.2500000019}},{"attributes":{"ID":143383,"DIS_CODE":0,"TOWNNAME":"安定區","LI":"新吉里","LIN":"14鄰","STREET":" ","SECT":" ","MAREA":"新吉","LANE":" ","ALLEY":" ","HOUSE_NO":"１２４之１１號","E_COORD97":169273.67000000001,"N_COORD97":2553886.2999999998,"ADDRESS":"新吉１２４之１１號","OBJECTID":143383},"geometry":{"x":169273.67000000086,"y":2553886.3000000026}},{"attributes":{"ID":143384,"DIS_CODE":0,"TOWNNAME":"安定區","LI":"港南里","LIN":"17鄰","STREET":" ","SECT":" ","MAREA":"港口","LANE":" ","ALLEY":" ","HOUSE_NO":"１４０號之２８","E_COORD97":171627.92000000001,"N_COORD97":2554476.2999999998,"ADDRESS":"港口１４０號之２８","OBJECTID":143384},"geometry":{"x":171627.92000000179,"y":2554476.3000000026}},{"attributes":{"ID":143385,"DIS_CODE":0,"TOWNNAME":"安定區","LI":"六嘉里","LIN":"4鄰","STREET":" ","SECT":" ","MAREA":"六塊寮","LANE":" ","ALLEY":" ","HOUSE_NO":"３０號之１４","E_COORD97":169869.73000000001,"N_COORD97":2553257.2999999998,"ADDRESS":"六塊寮３０號之１４","OBJECTID":143385},"geometry":{"x":169869.73000000045,"y":2553257.3000000007}},{"attributes":{"ID":143386,"DIS_CODE":0,"TOWNNAME":"安定區","LI":"港南里","LIN":"13鄰","STREET":" ","SECT":" ","MAREA":"港口","LANE":" ","ALLEY":" ","HOUSE_NO":"１０２之３號","E_COORD97":171221.19,"N_COORD97":2554415.2999999998,"ADDRESS":"港口１０２之３號","OBJECTID":143386},"geometry":{"x":171221.19000000041,"y":2554415.3000000026}},{"attributes":{"ID":143387,"DIS_CODE":0,"TOWNNAME":"安定區","LI":"蘇厝里","LIN":"4鄰","STREET":" ","SECT":" ","MAREA":"蘇厝","LANE":" ","ALLEY":" ","HOUSE_NO":"３１１號","E_COORD97":173203.42000000001,"N_COORD97":2558635.25,"ADDRESS":"蘇厝３１１號","OBJECTID":143387},"geometry":{"x":173203.42000000086,"y":2558635.2500000037}},{"attributes":{"ID":143388,"DIS_CODE":0,"TOWNNAME":"安定區","LI":"管寮里","LIN":"4鄰","STREET":" ","SECT":" ","MAREA":"管寮","LANE":" ","ALLEY":" ","HOUSE_NO":"３３號","E_COORD97":170061.76766700001,"N_COORD97":2556376.2135399999,"ADDRESS":"管寮３３號","OBJECTID":143388},"geometry":{"x":170061.76766700018,"y":2556376.2135410048}},{"attributes":{"ID":143389,"DIS_CODE":0,"TOWNNAME":"安定區","LI":"六嘉里","LIN":"4鄰","STREET":" ","SECT":" ","MAREA":"六塊寮","LANE":" ","ALLEY":" ","HOUSE_NO":"３０號之２０","E_COORD97":169894.04999999999,"N_COORD97":2553371.2999999998,"ADDRESS":"六塊寮３０號之２０","OBJECTID":143389},"geometry":{"x":169894.04999999981,"y":2553371.3000000026}},{"attributes":{"ID":143390,"DIS_CODE":0,"TOWNNAME":"安定區","LI":"海寮里","LIN":"14鄰","STREET":" ","SECT":" ","MAREA":"海寮","LANE":" ","ALLEY":" ","HOUSE_NO":"１３４之１８號","E_COORD97":168916.48999999999,"N_COORD97":2555438.2999999998,"ADDRESS":"海寮１３４之１８號","OBJECTID":143390},"geometry":{"x":168916.49000000022,"y":2555438.3000000045}},{"attributes":{"ID":143391,"DIS_CODE":0,"TOWNNAME":"安定區","LI":"新吉里","LIN":"18鄰","STREET":" ","SECT":" ","MAREA":"新吉","LANE":" ","ALLEY":" ","HOUSE_NO":"２７４號","E_COORD97":168947.51999999999,"N_COORD97":2554048.25,"ADDRESS":"新吉２７４號","OBJECTID":143391},"geometry":{"x":168947.52000000048,"y":2554048.2500000019}},{"attributes":{"ID":143392,"DIS_CODE":0,"TOWNNAME":"東區","LI":"衛國里","LIN":"22鄰","STREET":"衛國街","SECT":" ","MAREA":" ","LANE":"１１４巷","ALLEY":"９弄","HOUSE_NO":"１０號之３二樓之５","E_COORD97":170501.85000000001,"N_COORD97":2543195.29,"ADDRESS":"衛國街１１４巷９弄１０號之３二樓之５","OBJECTID":143392},"geometry":{"x":170501.84999999963,"y":2543195.290000001}},{"attributes":{"ID":143393,"DIS_CODE":0,"TOWNNAME":"東區","LI":"衛國里","LIN":"22鄰","STREET":"衛國街","SECT":" ","MAREA":" ","LANE":"１１４巷","ALLEY":"９弄","HOUSE_NO":"１０號之３二樓之６","E_COORD97":170501.85000000001,"N_COORD97":2543195.29,"ADDRESS":"衛國街１１４巷９弄１０號之３二樓之６","OBJECTID":143393},"geometry":{"x":170501.84999999963,"y":2543195.290000001}},{"attributes":{"ID":143394,"DIS_CODE":0,"TOWNNAME":"東區","LI":"衛國里","LIN":"22鄰","STREET":"衛國街","SECT":" ","MAREA":" ","LANE":"１１４巷","ALLEY":"９弄","HOUSE_NO":"１０號之３三樓之１","E_COORD97":170501.85000000001,"N_COORD97":2543195.29,"ADDRESS":"衛國街１１４巷９弄１０號之３三樓之１","OBJECTID":143394},"geometry":{"x":170501.84999999963,"y":2543195.290000001}},{"attributes":{"ID":143395,"DIS_CODE":0,"TOWNNAME":"東區","LI":"衛國里","LIN":"22鄰","STREET":"衛國街","SECT":" ","MAREA":" ","LANE":"１１４巷","ALLEY":"９弄","HOUSE_NO":"１０號之３三樓之２","E_COORD97":170501.85000000001,"N_COORD97":2543195.29,"ADDRESS":"衛國街１１４巷９弄１０號之３三樓之２","OBJECTID":143395},"geometry":{"x":170501.84999999963,"y":2543195.290000001}},{"attributes":{"ID":143396,"DIS_CODE":0,"TOWNNAME":"東區","LI":"衛國里","LIN":"22鄰","STREET":"衛國街","SECT":" ","MAREA":" ","LANE":"１１４巷","ALLEY":"９弄","HOUSE_NO":"１０號之３三樓之３","E_COORD97":170501.85000000001,"N_COORD97":2543195.29,"ADDRESS":"衛國街１１４巷９弄１０號之３三樓之３","OBJECTID":143396},"geometry":{"x":170501.84999999963,"y":2543195.290000001}},{"attributes":{"ID":143397,"DIS_CODE":0,"TOWNNAME":"東區","LI":"衛國里","LIN":"22鄰","STREET":"衛國街","SECT":" ","MAREA":" ","LANE":"１１４巷","ALLEY":"９弄","HOUSE_NO":"１０號之３三樓之４","E_COORD97":170501.85000000001,"N_COORD97":2543195.29,"ADDRESS":"衛國街１１４巷９弄１０號之３三樓之４","OBJECTID":143397},"geometry":{"x":170501.84999999963,"y":2543195.290000001}},{"attributes":{"ID":143398,"DIS_CODE":0,"TOWNNAME":"東區","LI":"衛國里","LIN":"22鄰","STREET":"衛國街","SECT":" ","MAREA":" ","LANE":"１１４巷","ALLEY":"９弄","HOUSE_NO":"１０號之３三樓之５","E_COORD97":170501.85000000001,"N_COORD97":2543195.29,"ADDRESS":"衛國街１１４巷９弄１０號之３三樓之５","OBJECTID":143398},"geometry":{"x":170501.84999999963,"y":2543195.290000001}},{"attributes":{"ID":143399,"DIS_CODE":0,"TOWNNAME":"東區","LI":"衛國里","LIN":"22鄰","STREET":"衛國街","SECT":" ","MAREA":" ","LANE":"１１４巷","ALLEY":"９弄","HOUSE_NO":"１０號之３三樓之６","E_COORD97":170501.85000000001,"N_COORD97":2543195.29,"ADDRESS":"衛國街１１４巷９弄１０號之３三樓之６","OBJECTID":143399},"geometry":{"x":170501.84999999963,"y":2543195.290000001}},{"attributes":{"ID":143400,"DIS_CODE":0,"TOWNNAME":"東區","LI":"衛國里","LIN":"22鄰","STREET":"衛國街","SECT":" ","MAREA":" ","LANE":"１１４巷","ALLEY":"９弄","HOUSE_NO":"１０號之３六樓之３","E_COORD97":170501.85000000001,"N_COORD97":2543195.29,"ADDRESS":"衛國街１１４巷９弄１０號之３六樓之３","OBJECTID":143400},"geometry":{"x":170501.84999999963,"y":2543195.290000001}}]}