{"displayFieldName":"TOWNNAME","fieldAliases":{"ID":"ID","DIS_CODE":"DIS_CODE","TOWNNAME":"TOWNNAME","LI":"LI","LIN":"LIN","STREET":"STREET","SECT":"SECT","MAREA":"MAREA","LANE":"LANE","ALLEY":"ALLEY","HOUSE_NO":"HOUSE_NO","E_COORD97":"E_COORD97","N_COORD97":"N_COORD97","ADDRESS":"ADDRESS","OBJECTID":"OBJECTID"},"geometryType":"esriGeometryPoint","spatialReference":{"wkid":102443,"latestWkid":3826},"fields":[{"name":"ID","type":"esriFieldTypeDouble","alias":"ID"},{"name":"DIS_CODE","type":"esriFieldTypeInteger","alias":"DIS_CODE"},{"name":"TOWNNAME","type":"esriFieldTypeString","alias":"TOWNNAME","length":8},{"name":"LI","type":"esriFieldTypeString","alias":"LI","length":8},{"name":"LIN","type":"esriFieldTypeString","alias":"LIN","length":12},{"name":"STREET","type":"esriFieldTypeString","alias":"STREET","length":20},{"name":"SECT","type":"esriFieldTypeString","alias":"SECT","length":8},{"name":"MAREA","type":"esriFieldTypeString","alias":"MAREA","length":12},{"name":"LANE","type":"esriFieldTypeString","alias":"LANE","length":10},{"name":"ALLEY","type":"esriFieldTypeString","alias":"ALLEY","length":10},{"name":"HOUSE_NO","type":"esriFieldTypeString","alias":"HOUSE_NO","length":20},{"name":"E_COORD97","type":"esriFieldTypeDouble","alias":"E_COORD97"},{"name":"N_COORD97","type":"esriFieldTypeDouble","alias":"N_COORD97"},{"name":"ADDRESS","type":"esriFieldTypeString","alias":"ADDRESS","length":50},{"name":"OBJECTID","type":"esriFieldTypeOID","alias":"OBJECTID"}],"features":[{"attributes":{"ID":282607,"DIS_CODE":0,"TOWNNAME":"永康區","LI":"永康里","LIN":"34鄰","STREET":"大同街","SECT":" ","MAREA":" ","LANE":"７８１巷","ALLEY":" ","HOUSE_NO":"２號","E_COORD97":174417.89999999999,"N_COORD97":2546948.25,"ADDRESS":"大同街７８１巷２號","OBJECTID":282601},"geometry":{"x":174417.9000000013,"y":2546948.2499999981}},{"attributes":{"ID":282608,"DIS_CODE":0,"TOWNNAME":"永康區","LI":"西勢里","LIN":"30鄰","STREET":"富強路","SECT":"一段","MAREA":" ","LANE":"２巷","ALLEY":" ","HOUSE_NO":"２３號三樓","E_COORD97":175472.92999999999,"N_COORD97":2545914.7799999998,"ADDRESS":"富強路一段２巷２３號三樓","OBJECTID":282602},"geometry":{"x":175472.93000000063,"y":2545914.7800000012}},{"attributes":{"ID":282609,"DIS_CODE":0,"TOWNNAME":"麻豆區","LI":"保安里","LIN":"14鄰","STREET":"民權路","SECT":" ","MAREA":" ","LANE":" ","ALLEY":" ","HOUSE_NO":"２號之６","E_COORD97":173355.57000000001,"N_COORD97":2564804.2999999998,"ADDRESS":"民權路２號之６","OBJECTID":282603},"geometry":{"x":173355.5700000003,"y":2564804.3000000026}},{"attributes":{"ID":282610,"DIS_CODE":0,"TOWNNAME":"麻豆區","LI":"保安里","LIN":"14鄰","STREET":"民權路","SECT":" ","MAREA":" ","LANE":" ","ALLEY":" ","HOUSE_NO":"２號之７","E_COORD97":173355.51999999999,"N_COORD97":2564807.9300000002,"ADDRESS":"民權路２號之７","OBJECTID":282604},"geometry":{"x":173355.51999999955,"y":2564807.9300000016}},{"attributes":{"ID":282611,"DIS_CODE":0,"TOWNNAME":"麻豆區","LI":"\u25A0江里","LIN":"14鄰","STREET":"民權路","SECT":" ","MAREA":" ","LANE":" ","ALLEY":" ","HOUSE_NO":"５９號","E_COORD97":173421.69,"N_COORD97":2564495.0600000001,"ADDRESS":"民權路５９號","OBJECTID":282605},"geometry":{"x":173421.68999999948,"y":2564495.0600000005}},{"attributes":{"ID":282612,"DIS_CODE":0,"TOWNNAME":"麻豆區","LI":"\u25A0江里","LIN":"14鄰","STREET":"民權路","SECT":" ","MAREA":" ","LANE":" ","ALLEY":" ","HOUSE_NO":"６１號之１","E_COORD97":173394.13,"N_COORD97":2564466.96,"ADDRESS":"民權路６１號之１","OBJECTID":282606},"geometry":{"x":173394.12999999989,"y":2564466.9600000028}},{"attributes":{"ID":282613,"DIS_CODE":0,"TOWNNAME":"麻豆區","LI":"\u25A0江里","LIN":"14鄰","STREET":"民權路","SECT":" ","MAREA":" ","LANE":" ","ALLEY":" ","HOUSE_NO":"６１號","E_COORD97":173431.95000000001,"N_COORD97":2564483.02,"ADDRESS":"民權路６１號","OBJECTID":282607},"geometry":{"x":173431.95000000112,"y":2564483.0199999996}},{"attributes":{"ID":282614,"DIS_CODE":0,"TOWNNAME":"麻豆區","LI":"\u25A0江里","LIN":"14鄰","STREET":"民權路","SECT":" ","MAREA":" ","LANE":" ","ALLEY":" ","HOUSE_NO":"６３號之１","E_COORD97":173458.20000000001,"N_COORD97":2564498.2000000002,"ADDRESS":"民權路６３號之１","OBJECTID":282608},"geometry":{"x":173458.20000000019,"y":2564498.2000000011}},{"attributes":{"ID":282615,"DIS_CODE":0,"TOWNNAME":"麻豆區","LI":"\u25A0江里","LIN":"14鄰","STREET":"民權路","SECT":" ","MAREA":" ","LANE":" ","ALLEY":" ","HOUSE_NO":"６３號之２","E_COORD97":173458.98999999999,"N_COORD97":2564493.4900000002,"ADDRESS":"民權路６３號之２","OBJECTID":282609},"geometry":{"x":173458.99000000115,"y":2564493.4900000021}},{"attributes":{"ID":282616,"DIS_CODE":0,"TOWNNAME":"麻豆區","LI":"\u25A0江里","LIN":"14鄰","STREET":"民權路","SECT":" ","MAREA":" ","LANE":" ","ALLEY":" ","HOUSE_NO":"６３號之３","E_COORD97":173460.42000000001,"N_COORD97":2564488.4700000002,"ADDRESS":"民權路６３號之３","OBJECTID":282610},"geometry":{"x":173460.42000000179,"y":2564488.4700000007}},{"attributes":{"ID":282617,"DIS_CODE":0,"TOWNNAME":"麻豆區","LI":"\u25A0江里","LIN":"14鄰","STREET":"民權路","SECT":" ","MAREA":" ","LANE":" ","ALLEY":" ","HOUSE_NO":"６３號之４","E_COORD97":173461.53,"N_COORD97":2564484.5299999998,"ADDRESS":"民權路６３號之４","OBJECTID":282611},"geometry":{"x":173461.53000000026,"y":2564484.5300000031}},{"attributes":{"ID":282618,"DIS_CODE":0,"TOWNNAME":"永康區","LI":"西灣里","LIN":"30鄰","STREET":"公園路","SECT":" ","MAREA":" ","LANE":"９３巷","ALLEY":" ","HOUSE_NO":"１７號三樓之２","E_COORD97":174263.29000000001,"N_COORD97":2545904.4199999999,"ADDRESS":"公園路９３巷１７號三樓之２","OBJECTID":282612},"geometry":{"x":174263.2900000019,"y":2545904.4200000018}},{"attributes":{"ID":282619,"DIS_CODE":0,"TOWNNAME":"永康區","LI":"西灣里","LIN":"30鄰","STREET":"公園路","SECT":" ","MAREA":" ","LANE":"９３巷","ALLEY":" ","HOUSE_NO":"１７號六樓之１","E_COORD97":174263.14999999999,"N_COORD97":2545904.4199999999,"ADDRESS":"公園路９３巷１７號六樓之１","OBJECTID":282613},"geometry":{"x":174263.1500000013,"y":2545904.4200000018}},{"attributes":{"ID":282620,"DIS_CODE":0,"TOWNNAME":"新化區","LI":"羊林里","LIN":"2鄰","STREET":" ","SECT":" ","MAREA":"\u25A0拔林","LANE":" ","ALLEY":" ","HOUSE_NO":"３８９號","E_COORD97":183642.92000000001,"N_COORD97":2551818.25,"ADDRESS":"\u25A0拔林３８９號","OBJECTID":282614},"geometry":{"x":183642.91999999993,"y":2551818.2500000019}},{"attributes":{"ID":282621,"DIS_CODE":0,"TOWNNAME":"新化區","LI":"全興里","LIN":"2鄰","STREET":" ","SECT":" ","MAREA":"竹子\u25A0","LANE":" ","ALLEY":" ","HOUSE_NO":"１９０號之１","E_COORD97":177716.16,"N_COORD97":2547701.2599999998,"ADDRESS":"竹子\u25A0１９０號之１","OBJECTID":282615},"geometry":{"x":177716.16000000108,"y":2547701.2600000016}},{"attributes":{"ID":282622,"DIS_CODE":0,"TOWNNAME":"新化區","LI":"全興里","LIN":"2鄰","STREET":" ","SECT":" ","MAREA":"竹子\u25A0","LANE":" ","ALLEY":" ","HOUSE_NO":"１９４號","E_COORD97":177740.42999999999,"N_COORD97":2547740.25,"ADDRESS":"竹子\u25A0１９４號","OBJECTID":282616},"geometry":{"x":177740.43000000156,"y":2547740.25}},{"attributes":{"ID":282623,"DIS_CODE":0,"TOWNNAME":"新化區","LI":"羊林里","LIN":"2鄰","STREET":" ","SECT":" ","MAREA":"\u25A0拔林","LANE":" ","ALLEY":" ","HOUSE_NO":"３８７號","E_COORD97":183636.62,"N_COORD97":2551791.25,"ADDRESS":"\u25A0拔林３８７號","OBJECTID":282617},"geometry":{"x":183636.62000000011,"y":2551791.2500000019}},{"attributes":{"ID":282624,"DIS_CODE":0,"TOWNNAME":"新化區","LI":"北勢里","LIN":"2鄰","STREET":" ","SECT":" ","MAREA":"北勢","LANE":" ","ALLEY":" ","HOUSE_NO":"２８號之２","E_COORD97":177489.09,"N_COORD97":2549545.2599999998,"ADDRESS":"北勢２８號之２","OBJECTID":282618},"geometry":{"x":177489.09000000078,"y":2549545.2600000035}},{"attributes":{"ID":282625,"DIS_CODE":0,"TOWNNAME":"新化區","LI":"全興里","LIN":"2鄰","STREET":" ","SECT":" ","MAREA":"竹子\u25A0","LANE":" ","ALLEY":" ","HOUSE_NO":"１９０號","E_COORD97":177702.73000000001,"N_COORD97":2547707.25,"ADDRESS":"竹子\u25A0１９０號","OBJECTID":282619},"geometry":{"x":177702.73000000138,"y":2547707.25}},{"attributes":{"ID":282626,"DIS_CODE":0,"TOWNNAME":"新化區","LI":"羊林里","LIN":"2鄰","STREET":" ","SECT":" ","MAREA":"\u25A0拔林","LANE":" ","ALLEY":" ","HOUSE_NO":"４０７號","E_COORD97":183719.51999999999,"N_COORD97":2551836.25,"ADDRESS":"\u25A0拔林４０７號","OBJECTID":282620},"geometry":{"x":183719.51999999955,"y":2551836.25}},{"attributes":{"ID":282627,"DIS_CODE":0,"TOWNNAME":"新化區","LI":"羊林里","LIN":"2鄰","STREET":" ","SECT":" ","MAREA":"\u25A0拔林","LANE":" ","ALLEY":" ","HOUSE_NO":"３９４號","E_COORD97":183696.72,"N_COORD97":2551805.25,"ADDRESS":"\u25A0拔林３９４號","OBJECTID":282621},"geometry":{"x":183696.71999999974,"y":2551805.25}},{"attributes":{"ID":282628,"DIS_CODE":0,"TOWNNAME":"新化區","LI":"羊林里","LIN":"2鄰","STREET":" ","SECT":" ","MAREA":"\u25A0拔林","LANE":" ","ALLEY":" ","HOUSE_NO":"４０９號","E_COORD97":183759.82000000001,"N_COORD97":2551842.25,"ADDRESS":"\u25A0拔林４０９號","OBJECTID":282622},"geometry":{"x":183759.82000000216,"y":2551842.2500000019}},{"attributes":{"ID":282629,"DIS_CODE":0,"TOWNNAME":"新化區","LI":"北勢里","LIN":"2鄰","STREET":" ","SECT":" ","MAREA":"北勢","LANE":" ","ALLEY":" ","HOUSE_NO":"２７號","E_COORD97":177457.13,"N_COORD97":2549521.2599999998,"ADDRESS":"北勢２７號","OBJECTID":282623},"geometry":{"x":177457.12999999989,"y":2549521.2599999979}},{"attributes":{"ID":282630,"DIS_CODE":0,"TOWNNAME":"新化區","LI":"北勢里","LIN":"2鄰","STREET":" ","SECT":" ","MAREA":"北勢","LANE":" ","ALLEY":" ","HOUSE_NO":"１９號之６","E_COORD97":177459.28,"N_COORD97":2549477.2599999998,"ADDRESS":"北勢１９號之６","OBJECTID":282624},"geometry":{"x":177459.28000000119,"y":2549477.2600000035}},{"attributes":{"ID":282631,"DIS_CODE":0,"TOWNNAME":"新化區","LI":"北勢里","LIN":"2鄰","STREET":" ","SECT":" ","MAREA":"北勢","LANE":" ","ALLEY":" ","HOUSE_NO":"１９號之２","E_COORD97":177445.98999999999,"N_COORD97":2549473.2599999998,"ADDRESS":"北勢１９號之２","OBJECTID":282625},"geometry":{"x":177445.99000000115,"y":2549473.2599999998}},{"attributes":{"ID":282632,"DIS_CODE":0,"TOWNNAME":"新化區","LI":"北勢里","LIN":"2鄰","STREET":" ","SECT":" ","MAREA":"北勢","LANE":" ","ALLEY":" ","HOUSE_NO":"１９號之２１","E_COORD97":177521.31,"N_COORD97":2549489.2599999998,"ADDRESS":"北勢１９號之２１","OBJECTID":282626},"geometry":{"x":177521.31000000052,"y":2549489.2599999998}},{"attributes":{"ID":282633,"DIS_CODE":0,"TOWNNAME":"新化區","LI":"豐榮里","LIN":"2鄰","STREET":" ","SECT":" ","MAREA":"洋子","LANE":" ","ALLEY":" ","HOUSE_NO":"３９號之２","E_COORD97":178073.88,"N_COORD97":2548258.2599999998,"ADDRESS":"洋子３９號之２","OBJECTID":282627},"geometry":{"x":178073.88000000082,"y":2548258.2600000016}},{"attributes":{"ID":282634,"DIS_CODE":0,"TOWNNAME":"新化區","LI":"崙頂里","LIN":"2鄰","STREET":" ","SECT":" ","MAREA":"崙子頂","LANE":" ","ALLEY":" ","HOUSE_NO":"７８號之１","E_COORD97":176864.70999999999,"N_COORD97":2546813.2599999998,"ADDRESS":"崙子頂７８號之１","OBJECTID":282628},"geometry":{"x":176864.71000000089,"y":2546813.2600000016}},{"attributes":{"ID":282635,"DIS_CODE":0,"TOWNNAME":"新化區","LI":"中央里","LIN":"2鄰","STREET":"信義路","SECT":" ","MAREA":" ","LANE":" ","ALLEY":" ","HOUSE_NO":"２８０號","E_COORD97":179012.82999999999,"N_COORD97":2548309.25,"ADDRESS":"信義路２８０號","OBJECTID":282629},"geometry":{"x":179012.83000000194,"y":2548309.2500000019}},{"attributes":{"ID":282636,"DIS_CODE":0,"TOWNNAME":"永康區","LI":"西勢里","LIN":"30鄰","STREET":"富強路","SECT":"一段","MAREA":" ","LANE":"２巷","ALLEY":" ","HOUSE_NO":"２７號四樓","E_COORD97":175482.12,"N_COORD97":2545907.0299999998,"ADDRESS":"富強路一段２巷２７號四樓","OBJECTID":282630},"geometry":{"x":175482.12000000104,"y":2545907.0299999993}},{"attributes":{"ID":282637,"DIS_CODE":0,"TOWNNAME":"永康區","LI":"復華里","LIN":"30鄰","STREET":"復華八街","SECT":" ","MAREA":" ","LANE":"４７巷","ALLEY":" ","HOUSE_NO":"４３號六樓之６","E_COORD97":172678.23000000001,"N_COORD97":2546351.2999999998,"ADDRESS":"復華八街４７巷４３號六樓之６","OBJECTID":282631},"geometry":{"x":172678.23000000045,"y":2546351.3000000007}},{"attributes":{"ID":282638,"DIS_CODE":0,"TOWNNAME":"永康區","LI":"復華里","LIN":"30鄰","STREET":"復華八街","SECT":" ","MAREA":" ","LANE":"４７巷","ALLEY":" ","HOUSE_NO":"４１號三樓之５","E_COORD97":172690.82000000001,"N_COORD97":2546351.2999999998,"ADDRESS":"復華八街４７巷４１號三樓之５","OBJECTID":282632},"geometry":{"x":172690.82000000123,"y":2546351.3000000007}},{"attributes":{"ID":282639,"DIS_CODE":0,"TOWNNAME":"永康區","LI":"永康里","LIN":"19鄰","STREET":"永中街","SECT":" ","MAREA":" ","LANE":"１６６巷","ALLEY":" ","HOUSE_NO":"２０號","E_COORD97":174062.06,"N_COORD97":2547274.6600000001,"ADDRESS":"永中街１６６巷２０號","OBJECTID":282633},"geometry":{"x":174062.05999999959,"y":2547274.6600000039}},{"attributes":{"ID":282640,"DIS_CODE":0,"TOWNNAME":"永康區","LI":"復華里","LIN":"30鄰","STREET":"復華八街","SECT":" ","MAREA":" ","LANE":"４７巷","ALLEY":" ","HOUSE_NO":"４３號四樓之６","E_COORD97":172678.23000000001,"N_COORD97":2546351.2999999998,"ADDRESS":"復華八街４７巷４３號四樓之６","OBJECTID":282634},"geometry":{"x":172678.23000000045,"y":2546351.3000000007}},{"attributes":{"ID":282641,"DIS_CODE":0,"TOWNNAME":"永康區","LI":"復華里","LIN":"30鄰","STREET":"復華八街","SECT":" ","MAREA":" ","LANE":"４７巷","ALLEY":" ","HOUSE_NO":"４１號二樓之２","E_COORD97":172690.79999999999,"N_COORD97":2546351.2999999998,"ADDRESS":"復華八街４７巷４１號二樓之２","OBJECTID":282635},"geometry":{"x":172690.79999999981,"y":2546351.3000000007}},{"attributes":{"ID":282642,"DIS_CODE":0,"TOWNNAME":"永康區","LI":"復華里","LIN":"30鄰","STREET":"復華八街","SECT":" ","MAREA":" ","LANE":"４７巷","ALLEY":" ","HOUSE_NO":"３７號底一樓之１","E_COORD97":172697.06,"N_COORD97":2546371.79,"ADDRESS":"復華八街４７巷３７號底一樓之１","OBJECTID":282636},"geometry":{"x":172697.06000000052,"y":2546371.790000001}},{"attributes":{"ID":282643,"DIS_CODE":0,"TOWNNAME":"永康區","LI":"復華里","LIN":"30鄰","STREET":"復華八街","SECT":" ","MAREA":" ","LANE":"４７巷","ALLEY":" ","HOUSE_NO":"４３號三樓之２","E_COORD97":172678.26000000001,"N_COORD97":2546351.2999999998,"ADDRESS":"復華八街４７巷４３號三樓之２","OBJECTID":282637},"geometry":{"x":172678.26000000164,"y":2546351.3000000007}},{"attributes":{"ID":282644,"DIS_CODE":0,"TOWNNAME":"永康區","LI":"甲頂里","LIN":"28鄰","STREET":"中央路","SECT":" ","MAREA":" ","LANE":"２３巷","ALLEY":" ","HOUSE_NO":"２８號","E_COORD97":169520.32000000001,"N_COORD97":2546989.4100000001,"ADDRESS":"中央路２３巷２８號","OBJECTID":282638},"geometry":{"x":169520.32000000123,"y":2546989.410000002}},{"attributes":{"ID":282645,"DIS_CODE":0,"TOWNNAME":"永康區","LI":"正強里","LIN":"36鄰","STREET":"正強街","SECT":" ","MAREA":" ","LANE":"３０７巷","ALLEY":" ","HOUSE_NO":"２６號","E_COORD97":173193.10000000001,"N_COORD97":2548118.1899999999,"ADDRESS":"正強街３０７巷２６號","OBJECTID":282639},"geometry":{"x":173193.10000000056,"y":2548118.1900000032}},{"attributes":{"ID":282646,"DIS_CODE":0,"TOWNNAME":"永康區","LI":"復華里","LIN":"30鄰","STREET":"復華八街","SECT":" ","MAREA":" ","LANE":"４７巷","ALLEY":" ","HOUSE_NO":"３９號","E_COORD97":172687.17000000001,"N_COORD97":2546371.77,"ADDRESS":"復華八街４７巷３９號","OBJECTID":282640},"geometry":{"x":172687.16999999993,"y":2546371.7700000014}},{"attributes":{"ID":282647,"DIS_CODE":0,"TOWNNAME":"永康區","LI":"大灣里","LIN":"30鄰","STREET":"民族路","SECT":" ","MAREA":" ","LANE":"１２６巷","ALLEY":" ","HOUSE_NO":"５６號","E_COORD97":175403.57000000001,"N_COORD97":2544891.7200000002,"ADDRESS":"民族路１２６巷５６號","OBJECTID":282641},"geometry":{"x":175403.5700000003,"y":2544891.7200000025}},{"attributes":{"ID":282648,"DIS_CODE":0,"TOWNNAME":"永康區","LI":"大灣里","LIN":"30鄰","STREET":"民族路","SECT":" ","MAREA":" ","LANE":"１２６巷","ALLEY":" ","HOUSE_NO":"７８號","E_COORD97":175415.59,"N_COORD97":2544860.04,"ADDRESS":"民族路１２６巷７８號","OBJECTID":282642},"geometry":{"x":175415.59000000078,"y":2544860.0399999991}},{"attributes":{"ID":282649,"DIS_CODE":0,"TOWNNAME":"七股區","LI":"七股里","LIN":"9鄰","STREET":" ","SECT":" ","MAREA":"七股","LANE":" ","ALLEY":" ","HOUSE_NO":"８２號","E_COORD97":160739.39999999999,"N_COORD97":2559432.27,"ADDRESS":"七股８２號","OBJECTID":282643},"geometry":{"x":160739.4000000013,"y":2559432.2700000014}},{"attributes":{"ID":282650,"DIS_CODE":0,"TOWNNAME":"永康區","LI":"大灣里","LIN":"30鄰","STREET":"民族路","SECT":" ","MAREA":" ","LANE":"１２６巷","ALLEY":" ","HOUSE_NO":"７２號","E_COORD97":175394.82000000001,"N_COORD97":2544847.2200000002,"ADDRESS":"民族路１２６巷７２號","OBJECTID":282644},"geometry":{"x":175394.8200000003,"y":2544847.2200000044}},{"attributes":{"ID":282651,"DIS_CODE":0,"TOWNNAME":"永康區","LI":"大灣里","LIN":"30鄰","STREET":"民族路","SECT":" ","MAREA":" ","LANE":"１２６巷","ALLEY":" ","HOUSE_NO":"４８號","E_COORD97":175390.97,"N_COORD97":2544911.21,"ADDRESS":"民族路１２６巷４８號","OBJECTID":282645},"geometry":{"x":175390.97000000067,"y":2544911.2100000009}},{"attributes":{"ID":282652,"DIS_CODE":0,"TOWNNAME":"永康區","LI":"大灣里","LIN":"30鄰","STREET":"民族路","SECT":" ","MAREA":" ","LANE":"１２６巷","ALLEY":" ","HOUSE_NO":"６６號","E_COORD97":175426.81,"N_COORD97":2544866.23,"ADDRESS":"民族路１２６巷６６號","OBJECTID":282646},"geometry":{"x":175426.80999999959,"y":2544866.2300000004}},{"attributes":{"ID":282653,"DIS_CODE":0,"TOWNNAME":"永康區","LI":"大灣里","LIN":"30鄰","STREET":"民族路","SECT":" ","MAREA":" ","LANE":"１２６巷","ALLEY":" ","HOUSE_NO":"６８號","E_COORD97":175405.75,"N_COORD97":2544853.48,"ADDRESS":"民族路１２６巷６８號","OBJECTID":282647},"geometry":{"x":175405.75,"y":2544853.4800000023}},{"attributes":{"ID":282654,"DIS_CODE":0,"TOWNNAME":"永康區","LI":"大灣里","LIN":"30鄰","STREET":"民族路","SECT":" ","MAREA":" ","LANE":"１２６巷","ALLEY":" ","HOUSE_NO":"７４號","E_COORD97":175390.56,"N_COORD97":2544843.2200000002,"ADDRESS":"民族路１２６巷７４號","OBJECTID":282648},"geometry":{"x":175390.56000000052,"y":2544843.2200000007}},{"attributes":{"ID":282655,"DIS_CODE":0,"TOWNNAME":"永康區","LI":"永康里","LIN":"25鄰","STREET":"中山北路","SECT":" ","MAREA":" ","LANE":"１２３巷","ALLEY":" ","HOUSE_NO":"１５號","E_COORD97":174133.39999999999,"N_COORD97":2547551.0499999998,"ADDRESS":"中山北路１２３巷１５號","OBJECTID":282649},"geometry":{"x":174133.40000000037,"y":2547551.0500000026}},{"attributes":{"ID":282656,"DIS_CODE":0,"TOWNNAME":"永康區","LI":"大灣里","LIN":"30鄰","STREET":"民族路","SECT":" ","MAREA":" ","LANE":"９６巷","ALLEY":" ","HOUSE_NO":"２號","E_COORD97":175356.59,"N_COORD97":2544825.7000000002,"ADDRESS":"民族路９６巷２號","OBJECTID":282650},"geometry":{"x":175356.59000000078,"y":2544825.700000003}},{"attributes":{"ID":282657,"DIS_CODE":0,"TOWNNAME":"永康區","LI":"大灣里","LIN":"30鄰","STREET":"民族路","SECT":" ","MAREA":" ","LANE":"１２６巷","ALLEY":" ","HOUSE_NO":"１６號","E_COORD97":175359.48999999999,"N_COORD97":2544917.7799999998,"ADDRESS":"民族路１２６巷１６號","OBJECTID":282651},"geometry":{"x":175359.49000000115,"y":2544917.7800000012}},{"attributes":{"ID":282658,"DIS_CODE":0,"TOWNNAME":"永康區","LI":"大灣里","LIN":"30鄰","STREET":"民族路","SECT":" ","MAREA":" ","LANE":"１２６巷","ALLEY":" ","HOUSE_NO":"１２號","E_COORD97":175349.14999999999,"N_COORD97":2544911.0299999998,"ADDRESS":"民族路１２６巷１２號","OBJECTID":282652},"geometry":{"x":175349.15000000037,"y":2544911.0299999993}},{"attributes":{"ID":282659,"DIS_CODE":0,"TOWNNAME":"永康區","LI":"永康里","LIN":"2鄰","STREET":"中山北路","SECT":" ","MAREA":" ","LANE":"３５巷","ALLEY":" ","HOUSE_NO":"８號","E_COORD97":173939.14999999999,"N_COORD97":2547427.4900000002,"ADDRESS":"中山北路３５巷８號","OBJECTID":282653},"geometry":{"x":173939.15000000224,"y":2547427.4900000002}},{"attributes":{"ID":282660,"DIS_CODE":0,"TOWNNAME":"永康區","LI":"永康里","LIN":"14鄰","STREET":"永中街","SECT":" ","MAREA":" ","LANE":"６０巷","ALLEY":" ","HOUSE_NO":"２０號","E_COORD97":173982.12,"N_COORD97":2547112.3599999999,"ADDRESS":"永中街６０巷２０號","OBJECTID":282654},"geometry":{"x":173982.12000000104,"y":2547112.3599999994}},{"attributes":{"ID":282661,"DIS_CODE":0,"TOWNNAME":"永康區","LI":"安康里","LIN":"17鄰","STREET":"中華路","SECT":" ","MAREA":" ","LANE":"６６１巷","ALLEY":" ","HOUSE_NO":"３號","E_COORD97":170974.12,"N_COORD97":2546208.5,"ADDRESS":"中華路６６１巷３號","OBJECTID":282655},"geometry":{"x":170974.12000000197,"y":2546208.5000000019}},{"attributes":{"ID":282662,"DIS_CODE":0,"TOWNNAME":"中西區","LI":"西湖里","LIN":"30鄰","STREET":"湖美街","SECT":" ","MAREA":" ","LANE":"１３８巷","ALLEY":" ","HOUSE_NO":"１號","E_COORD97":165964.84,"N_COORD97":2545029.73,"ADDRESS":"湖美街１３８巷１號","OBJECTID":282656},"geometry":{"x":165964.84000000171,"y":2545029.7300000004}},{"attributes":{"ID":282663,"DIS_CODE":0,"TOWNNAME":"新市區","LI":"新和里","LIN":"30鄰","STREET":"光華街","SECT":" ","MAREA":" ","LANE":"２１４巷","ALLEY":" ","HOUSE_NO":"２之１號","E_COORD97":177890.70000000001,"N_COORD97":2553016.25,"ADDRESS":"光華街２１４巷２之１號","OBJECTID":282657},"geometry":{"x":177890.70000000112,"y":2553016.25}},{"attributes":{"ID":282664,"DIS_CODE":0,"TOWNNAME":"新市區","LI":"新和里","LIN":"30鄰","STREET":"光華街","SECT":" ","MAREA":" ","LANE":"２１４巷","ALLEY":" ","HOUSE_NO":"８號","E_COORD97":177902.45000000001,"N_COORD97":2553016.75,"ADDRESS":"光華街２１４巷８號","OBJECTID":282658},"geometry":{"x":177902.45000000112,"y":2553016.75}},{"attributes":{"ID":282665,"DIS_CODE":0,"TOWNNAME":"新市區","LI":"新和里","LIN":"30鄰","STREET":"光華街","SECT":" ","MAREA":" ","LANE":"２１４巷","ALLEY":" ","HOUSE_NO":"１號","E_COORD97":177860.67999999999,"N_COORD97":2553024.5,"ADDRESS":"光華街２１４巷１號","OBJECTID":282659},"geometry":{"x":177860.67999999877,"y":2553024.5}},{"attributes":{"ID":282666,"DIS_CODE":0,"TOWNNAME":"永康區","LI":"大灣里","LIN":"30鄰","STREET":"民族路","SECT":" ","MAREA":" ","LANE":"１２６巷","ALLEY":" ","HOUSE_NO":"７６號","E_COORD97":175422.73999999999,"N_COORD97":2544862.98,"ADDRESS":"民族路１２６巷７６號","OBJECTID":282660},"geometry":{"x":175422.74000000022,"y":2544862.9800000023}},{"attributes":{"ID":282667,"DIS_CODE":0,"TOWNNAME":"永康區","LI":"大橋里","LIN":"30鄰","STREET":"中山南路","SECT":" ","MAREA":" ","LANE":"１９５巷","ALLEY":" ","HOUSE_NO":"１０８號","E_COORD97":171281.79999999999,"N_COORD97":2546613.25,"ADDRESS":"中山南路１９５巷１０８號","OBJECTID":282661},"geometry":{"x":171281.80000000075,"y":2546613.2500000019}},{"attributes":{"ID":282668,"DIS_CODE":0,"TOWNNAME":"永康區","LI":"安康里","LIN":"6鄰","STREET":"中華路","SECT":" ","MAREA":" ","LANE":"７２７巷","ALLEY":" ","HOUSE_NO":"６７號","E_COORD97":170674.19,"N_COORD97":2546317.2400000002,"ADDRESS":"中華路７２７巷６７號","OBJECTID":282662},"geometry":{"x":170674.19000000134,"y":2546317.2400000002}},{"attributes":{"ID":282669,"DIS_CODE":0,"TOWNNAME":"東區","LI":"德光里","LIN":"2鄰","STREET":"崇德路","SECT":" ","MAREA":" ","LANE":" ","ALLEY":" ","HOUSE_NO":"２６號","E_COORD97":169761.70999999999,"N_COORD97":2542484.8599999999,"ADDRESS":"崇德路２６號","OBJECTID":282663},"geometry":{"x":169761.71000000089,"y":2542484.8599999994}},{"attributes":{"ID":282670,"DIS_CODE":0,"TOWNNAME":"東區","LI":"中西里","LIN":"24鄰","STREET":"長榮路","SECT":"二段","MAREA":" ","LANE":" ","ALLEY":" ","HOUSE_NO":"２５４號","E_COORD97":170180.37,"N_COORD97":2543448.6699999999,"ADDRESS":"長榮路二段２５４號","OBJECTID":282664},"geometry":{"x":170180.37000000011,"y":2543448.6699999999}},{"attributes":{"ID":282671,"DIS_CODE":0,"TOWNNAME":"東區","LI":"中西里","LIN":"21鄰","STREET":"長榮路","SECT":"二段","MAREA":" ","LANE":" ","ALLEY":" ","HOUSE_NO":"３６號","E_COORD97":169957.32000000001,"N_COORD97":2543112.3399999999,"ADDRESS":"長榮路二段３６號","OBJECTID":282665},"geometry":{"x":169957.3200000003,"y":2543112.3399999999}},{"attributes":{"ID":282672,"DIS_CODE":0,"TOWNNAME":"東區","LI":"中西里","LIN":"23鄰","STREET":"長榮路","SECT":"二段","MAREA":" ","LANE":" ","ALLEY":" ","HOUSE_NO":"２８２號","E_COORD97":170165.64000000001,"N_COORD97":2543486.3900000001,"ADDRESS":"長榮路二段２８２號","OBJECTID":282666},"geometry":{"x":170165.6400000006,"y":2543486.3899999987}},{"attributes":{"ID":282673,"DIS_CODE":0,"TOWNNAME":"東區","LI":"中西里","LIN":"23鄰","STREET":"長榮路","SECT":"二段","MAREA":" ","LANE":" ","ALLEY":" ","HOUSE_NO":"２８４號","E_COORD97":170167.60000000001,"N_COORD97":2543490.9399999999,"ADDRESS":"長榮路二段２８４號","OBJECTID":282667},"geometry":{"x":170167.60000000056,"y":2543490.9399999995}},{"attributes":{"ID":282674,"DIS_CODE":0,"TOWNNAME":"東區","LI":"中西里","LIN":"23鄰","STREET":"長榮路","SECT":"二段","MAREA":" ","LANE":" ","ALLEY":" ","HOUSE_NO":"３１０號","E_COORD97":170202.62,"N_COORD97":2543548.02,"ADDRESS":"長榮路二段３１０號","OBJECTID":282668},"geometry":{"x":170202.62000000011,"y":2543548.0199999996}},{"attributes":{"ID":282675,"DIS_CODE":0,"TOWNNAME":"東區","LI":"中西里","LIN":"23鄰","STREET":"長榮路","SECT":"二段","MAREA":" ","LANE":" ","ALLEY":" ","HOUSE_NO":"３１４號","E_COORD97":170204.26999999999,"N_COORD97":2543560.75,"ADDRESS":"長榮路二段３１４號","OBJECTID":282669},"geometry":{"x":170204.26999999955,"y":2543560.75}},{"attributes":{"ID":282676,"DIS_CODE":0,"TOWNNAME":"東區","LI":"中西里","LIN":"23鄰","STREET":"長榮路","SECT":"二段","MAREA":" ","LANE":" ","ALLEY":" ","HOUSE_NO":"３１８號","E_COORD97":170205.06,"N_COORD97":2543575.3999999999,"ADDRESS":"長榮路二段３１８號","OBJECTID":282670},"geometry":{"x":170205.06000000052,"y":2543575.4000000022}},{"attributes":{"ID":282677,"DIS_CODE":0,"TOWNNAME":"東區","LI":"中西里","LIN":"22鄰","STREET":"長榮路","SECT":"二段","MAREA":" ","LANE":" ","ALLEY":" ","HOUSE_NO":"１１６號","E_COORD97":170035.73999999999,"N_COORD97":2543280.6899999999,"ADDRESS":"長榮路二段１１６號","OBJECTID":282671},"geometry":{"x":170035.74000000022,"y":2543280.6900000013}},{"attributes":{"ID":282678,"DIS_CODE":0,"TOWNNAME":"東區","LI":"東安里","LIN":"5鄰","STREET":"長榮路","SECT":"二段","MAREA":" ","LANE":" ","ALLEY":" ","HOUSE_NO":"２６號","E_COORD97":169951.73999999999,"N_COORD97":2543090.5099999998,"ADDRESS":"長榮路二段２６號","OBJECTID":282672},"geometry":{"x":169951.74000000115,"y":2543090.5099999998}},{"attributes":{"ID":282679,"DIS_CODE":0,"TOWNNAME":"東區","LI":"東安里","LIN":"5鄰","STREET":"長榮路","SECT":"二段","MAREA":" ","LANE":" ","ALLEY":" ","HOUSE_NO":"２８號","E_COORD97":169953.14999999999,"N_COORD97":2543094.0800000001,"ADDRESS":"長榮路二段２８號","OBJECTID":282673},"geometry":{"x":169953.15000000037,"y":2543094.0800000001}},{"attributes":{"ID":282680,"DIS_CODE":0,"TOWNNAME":"東區","LI":"東安里","LIN":"5鄰","STREET":"長榮路","SECT":"二段","MAREA":" ","LANE":" ","ALLEY":" ","HOUSE_NO":"３０號","E_COORD97":169955.89000000001,"N_COORD97":2543097.29,"ADDRESS":"長榮路二段３０號","OBJECTID":282674},"geometry":{"x":169955.88999999966,"y":2543097.290000001}},{"attributes":{"ID":282681,"DIS_CODE":0,"TOWNNAME":"東區","LI":"和平里","LIN":"16鄰","STREET":"仁和路","SECT":" ","MAREA":" ","LANE":" ","ALLEY":" ","HOUSE_NO":"７３號之４２","E_COORD97":171350.87,"N_COORD97":2541636.9199999999,"ADDRESS":"仁和路７３號之４２","OBJECTID":282675},"geometry":{"x":171350.87000000104,"y":2541636.9199999999}},{"attributes":{"ID":282682,"DIS_CODE":0,"TOWNNAME":"東區","LI":"和平里","LIN":"16鄰","STREET":"仁和路","SECT":" ","MAREA":" ","LANE":" ","ALLEY":" ","HOUSE_NO":"７３號之４５","E_COORD97":171358.98000000001,"N_COORD97":2541637.02,"ADDRESS":"仁和路７３號之４５","OBJECTID":282676},"geometry":{"x":171358.98000000138,"y":2541637.0200000033}},{"attributes":{"ID":282683,"DIS_CODE":0,"TOWNNAME":"永康區","LI":"復國里","LIN":"30鄰","STREET":"復國一路","SECT":" ","MAREA":" ","LANE":"１７３巷","ALLEY":" ","HOUSE_NO":"６號","E_COORD97":172694.57000000001,"N_COORD97":2545256.77,"ADDRESS":"復國一路１７３巷６號","OBJECTID":282677},"geometry":{"x":172694.5700000003,"y":2545256.7700000014}},{"attributes":{"ID":282684,"DIS_CODE":0,"TOWNNAME":"永康區","LI":"復華里","LIN":"30鄰","STREET":"復華八街","SECT":" ","MAREA":" ","LANE":"４７巷","ALLEY":" ","HOUSE_NO":"３７號","E_COORD97":172691.17000000001,"N_COORD97":2546371.77,"ADDRESS":"復華八街４７巷３７號","OBJECTID":282678},"geometry":{"x":172691.17000000086,"y":2546371.7700000014}},{"attributes":{"ID":282685,"DIS_CODE":0,"TOWNNAME":"永康區","LI":"復國里","LIN":"30鄰","STREET":"復國一路","SECT":" ","MAREA":" ","LANE":"１７３巷","ALLEY":" ","HOUSE_NO":"３６號","E_COORD97":172629.66,"N_COORD97":2545223.4100000001,"ADDRESS":"復國一路１７３巷３６號","OBJECTID":282679},"geometry":{"x":172629.66000000015,"y":2545223.410000002}},{"attributes":{"ID":282686,"DIS_CODE":0,"TOWNNAME":"永康區","LI":"復國里","LIN":"30鄰","STREET":"復國一路","SECT":" ","MAREA":" ","LANE":"１７３巷","ALLEY":" ","HOUSE_NO":"１８號","E_COORD97":172695.34,"N_COORD97":2545220.02,"ADDRESS":"復國一路１７３巷１８號","OBJECTID":282680},"geometry":{"x":172695.34000000078,"y":2545220.0199999996}},{"attributes":{"ID":282687,"DIS_CODE":0,"TOWNNAME":"永康區","LI":"復國里","LIN":"30鄰","STREET":"復國一路","SECT":" ","MAREA":" ","LANE":"１７３巷","ALLEY":" ","HOUSE_NO":"８號","E_COORD97":172694.35000000001,"N_COORD97":2545252.52,"ADDRESS":"復國一路１７３巷８號","OBJECTID":282681},"geometry":{"x":172694.35000000149,"y":2545252.5200000014}},{"attributes":{"ID":282688,"DIS_CODE":0,"TOWNNAME":"永康區","LI":"崑山里","LIN":"30鄰","STREET":"崑山街","SECT":" ","MAREA":" ","LANE":"１２３巷","ALLEY":" ","HOUSE_NO":"１３號","E_COORD97":173947.19,"N_COORD97":2544806.6099999999,"ADDRESS":"崑山街１２３巷１３號","OBJECTID":282682},"geometry":{"x":173947.18999999948,"y":2544806.6100000013}},{"attributes":{"ID":282689,"DIS_CODE":0,"TOWNNAME":"安南區","LI":"\u25A0南里","LIN":"30鄰","STREET":"安昌街","SECT":" ","MAREA":" ","LANE":"１７４巷","ALLEY":" ","HOUSE_NO":"１７１號","E_COORD97":170124.45999999999,"N_COORD97":2552082.4399999999,"ADDRESS":"安昌街１７４巷１７１號","OBJECTID":282683},"geometry":{"x":170124.46000000089,"y":2552082.4399999995}},{"attributes":{"ID":282690,"DIS_CODE":0,"TOWNNAME":"安南區","LI":"\u25A0南里","LIN":"30鄰","STREET":"安昌街","SECT":" ","MAREA":" ","LANE":"１７４巷","ALLEY":" ","HOUSE_NO":"１７３號","E_COORD97":170124.45999999999,"N_COORD97":2552078,"ADDRESS":"安昌街１７４巷１７３號","OBJECTID":282684},"geometry":{"x":170124.46000000089,"y":2552078.0000000019}},{"attributes":{"ID":282691,"DIS_CODE":0,"TOWNNAME":"安南區","LI":"\u25A0南里","LIN":"30鄰","STREET":"安昌街","SECT":" ","MAREA":" ","LANE":"１７４巷","ALLEY":" ","HOUSE_NO":"１７５號","E_COORD97":170124.64000000001,"N_COORD97":2552073.5600000001,"ADDRESS":"安昌街１７４巷１７５號","OBJECTID":282685},"geometry":{"x":170124.6400000006,"y":2552073.5600000024}},{"attributes":{"ID":282692,"DIS_CODE":0,"TOWNNAME":"安南區","LI":"\u25A0南里","LIN":"30鄰","STREET":"安昌街","SECT":" ","MAREA":" ","LANE":"１７４巷","ALLEY":" ","HOUSE_NO":"１７７號","E_COORD97":170124.82999999999,"N_COORD97":2552069.1200000001,"ADDRESS":"安昌街１７４巷１７７號","OBJECTID":282686},"geometry":{"x":170124.83000000007,"y":2552069.120000001}},{"attributes":{"ID":282693,"DIS_CODE":0,"TOWNNAME":"仁德區","LI":"仁德里","LIN":"38鄰","STREET":"文宏二街","SECT":" ","MAREA":" ","LANE":" ","ALLEY":" ","HOUSE_NO":"３１號","E_COORD97":172445.56834200001,"N_COORD97":2541728.0540499999,"ADDRESS":"文宏二街３１號","OBJECTID":282687},"geometry":{"x":172445.56834200211,"y":2541728.0540469997}},{"attributes":{"ID":282694,"DIS_CODE":0,"TOWNNAME":"安南區","LI":"\u25A0南里","LIN":"30鄰","STREET":"安昌街","SECT":" ","MAREA":" ","LANE":"１７４巷","ALLEY":" ","HOUSE_NO":"１７９號","E_COORD97":170124.82999999999,"N_COORD97":2552065.23,"ADDRESS":"安昌街１７４巷１７９號","OBJECTID":282688},"geometry":{"x":170124.83000000007,"y":2552065.2300000042}},{"attributes":{"ID":282695,"DIS_CODE":0,"TOWNNAME":"安南區","LI":"\u25A0南里","LIN":"30鄰","STREET":"安昌街","SECT":" ","MAREA":" ","LANE":"１７４巷","ALLEY":" ","HOUSE_NO":"１８１號","E_COORD97":170124.64000000001,"N_COORD97":2552060.9700000002,"ADDRESS":"安昌街１７４巷１８１號","OBJECTID":282689},"geometry":{"x":170124.6400000006,"y":2552060.9700000025}},{"attributes":{"ID":282696,"DIS_CODE":0,"TOWNNAME":"安南區","LI":"\u25A0南里","LIN":"30鄰","STREET":"安昌街","SECT":" ","MAREA":" ","LANE":"１７４巷","ALLEY":" ","HOUSE_NO":"１８３號","E_COORD97":170125.01000000001,"N_COORD97":2552056.5299999998,"ADDRESS":"安昌街１７４巷１８３號","OBJECTID":282690},"geometry":{"x":170125.00999999978,"y":2552056.5300000012}},{"attributes":{"ID":282697,"DIS_CODE":0,"TOWNNAME":"安南區","LI":"\u25A0南里","LIN":"30鄰","STREET":"安昌街","SECT":" ","MAREA":" ","LANE":"１７４巷","ALLEY":" ","HOUSE_NO":"１８５號","E_COORD97":170125.20000000001,"N_COORD97":2552052.6400000001,"ADDRESS":"安昌街１７４巷１８５號","OBJECTID":282691},"geometry":{"x":170125.20000000019,"y":2552052.6400000025}},{"attributes":{"ID":282698,"DIS_CODE":0,"TOWNNAME":"安南區","LI":"\u25A0南里","LIN":"30鄰","STREET":"安昌街","SECT":" ","MAREA":" ","LANE":"１７４巷","ALLEY":" ","HOUSE_NO":"１８７號","E_COORD97":170125.20000000001,"N_COORD97":2552048.2000000002,"ADDRESS":"安昌街１７４巷１８７號","OBJECTID":282692},"geometry":{"x":170125.20000000019,"y":2552048.2000000011}},{"attributes":{"ID":282699,"DIS_CODE":0,"TOWNNAME":"仁德區","LI":"太子里","LIN":"30鄰","STREET":"中正路","SECT":"三段","MAREA":" ","LANE":"５６６巷","ALLEY":" ","HOUSE_NO":"１號","E_COORD97":173947.14999999999,"N_COORD97":2543217.5299999998,"ADDRESS":"中正路三段５６６巷１號","OBJECTID":282693},"geometry":{"x":173947.15000000037,"y":2543217.5300000012}},{"attributes":{"ID":282700,"DIS_CODE":0,"TOWNNAME":"東區","LI":"後甲里","LIN":"30鄰","STREET":"建東街","SECT":" ","MAREA":" ","LANE":"８２巷","ALLEY":" ","HOUSE_NO":"３０號","E_COORD97":171824.45999999999,"N_COORD97":2543484.9300000002,"ADDRESS":"建東街８２巷３０號","OBJECTID":282694},"geometry":{"x":171824.46000000089,"y":2543484.9299999997}},{"attributes":{"ID":282701,"DIS_CODE":0,"TOWNNAME":"東區","LI":"和平里","LIN":"16鄰","STREET":"仁和路","SECT":" ","MAREA":" ","LANE":" ","ALLEY":" ","HOUSE_NO":"７３號之４６","E_COORD97":171363.29999999999,"N_COORD97":2541637.5499999998,"ADDRESS":"仁和路７３號之４６","OBJECTID":282695},"geometry":{"x":171363.29999999981,"y":2541637.5500000007}},{"attributes":{"ID":282702,"DIS_CODE":0,"TOWNNAME":"東區","LI":"和平里","LIN":"16鄰","STREET":"仁和路","SECT":" ","MAREA":" ","LANE":" ","ALLEY":" ","HOUSE_NO":"７３號之４８","E_COORD97":171370.89000000001,"N_COORD97":2541637.6499999999,"ADDRESS":"仁和路７３號之４８","OBJECTID":282696},"geometry":{"x":171370.8900000006,"y":2541637.6500000022}},{"attributes":{"ID":282703,"DIS_CODE":0,"TOWNNAME":"東區","LI":"後甲里","LIN":"30鄰","STREET":"建東街","SECT":" ","MAREA":" ","LANE":"８２巷","ALLEY":" ","HOUSE_NO":"３２號","E_COORD97":171829.20000000001,"N_COORD97":2543485.5600000001,"ADDRESS":"建東街８２巷３２號","OBJECTID":282697},"geometry":{"x":171829.20000000019,"y":2543485.5600000042}},{"attributes":{"ID":282704,"DIS_CODE":0,"TOWNNAME":"東區","LI":"後甲里","LIN":"30鄰","STREET":"建東街","SECT":" ","MAREA":" ","LANE":"８２巷","ALLEY":" ","HOUSE_NO":"３６號","E_COORD97":171840.88,"N_COORD97":2543486.1899999999,"ADDRESS":"建東街８２巷３６號","OBJECTID":282698},"geometry":{"x":171840.87999999989,"y":2543486.1899999995}},{"attributes":{"ID":282705,"DIS_CODE":0,"TOWNNAME":"東區","LI":"後甲里","LIN":"30鄰","STREET":"建東街","SECT":" ","MAREA":" ","LANE":"５４巷","ALLEY":" ","HOUSE_NO":"４３號","E_COORD97":171884.14000000001,"N_COORD97":2543485.8700000001,"ADDRESS":"建東街５４巷４３號","OBJECTID":282699},"geometry":{"x":171884.1400000006,"y":2543485.870000001}},{"attributes":{"ID":282706,"DIS_CODE":0,"TOWNNAME":"東區","LI":"後甲里","LIN":"30鄰","STREET":"建東街","SECT":" ","MAREA":" ","LANE":"５４巷","ALLEY":" ","HOUSE_NO":"４５號","E_COORD97":171885.07999999999,"N_COORD97":2543481.1400000001,"ADDRESS":"建東街５４巷４５號","OBJECTID":282700},"geometry":{"x":171885.08000000101,"y":2543481.1400000006}},{"attributes":{"ID":282707,"DIS_CODE":0,"TOWNNAME":"東區","LI":"後甲里","LIN":"30鄰","STREET":"建東街","SECT":" ","MAREA":" ","LANE":"５４巷","ALLEY":" ","HOUSE_NO":"５１號","E_COORD97":171897.39999999999,"N_COORD97":2543479.25,"ADDRESS":"建東街５４巷５１號","OBJECTID":282701},"geometry":{"x":171897.40000000037,"y":2543479.25}},{"attributes":{"ID":282708,"DIS_CODE":0,"TOWNNAME":"東區","LI":"後甲里","LIN":"30鄰","STREET":"建東街","SECT":" ","MAREA":" ","LANE":"５４巷","ALLEY":" ","HOUSE_NO":"５３號","E_COORD97":171903.70999999999,"N_COORD97":2543477.3599999999,"ADDRESS":"建東街５４巷５３號","OBJECTID":282702},"geometry":{"x":171903.70999999996,"y":2543477.3599999994}},{"attributes":{"ID":282709,"DIS_CODE":0,"TOWNNAME":"東區","LI":"後甲里","LIN":"30鄰","STREET":"建東街","SECT":" ","MAREA":" ","LANE":"５４巷","ALLEY":" ","HOUSE_NO":"５５號","E_COORD97":171909.70999999999,"N_COORD97":2543475.4700000002,"ADDRESS":"建東街５４巷５５號","OBJECTID":282703},"geometry":{"x":171909.71000000089,"y":2543475.4700000007}},{"attributes":{"ID":282710,"DIS_CODE":0,"TOWNNAME":"東區","LI":"後甲里","LIN":"30鄰","STREET":"建東街","SECT":" ","MAREA":" ","LANE":"５４巷","ALLEY":" ","HOUSE_NO":"４９號","E_COORD97":171886.03,"N_COORD97":2543471.6800000002,"ADDRESS":"建東街５４巷４９號","OBJECTID":282704},"geometry":{"x":171886.03000000026,"y":2543471.6800000016}},{"attributes":{"ID":282711,"DIS_CODE":0,"TOWNNAME":"東區","LI":"後甲里","LIN":"30鄰","STREET":"建東街","SECT":" ","MAREA":" ","LANE":"８２巷","ALLEY":" ","HOUSE_NO":"２０號","E_COORD97":171801.41,"N_COORD97":2543483.6699999999,"ADDRESS":"建東街８２巷２０號","OBJECTID":282705},"geometry":{"x":171801.41000000108,"y":2543483.6699999999}},{"attributes":{"ID":282712,"DIS_CODE":0,"TOWNNAME":"東區","LI":"後甲里","LIN":"30鄰","STREET":"建東街","SECT":" ","MAREA":" ","LANE":"８２巷","ALLEY":" ","HOUSE_NO":"２６號","E_COORD97":171814.67000000001,"N_COORD97":2543485.2400000002,"ADDRESS":"建東街８２巷２６號","OBJECTID":282706},"geometry":{"x":171814.67000000086,"y":2543485.2400000021}},{"attributes":{"ID":282713,"DIS_CODE":0,"TOWNNAME":"仁德區","LI":"後壁里","LIN":"30鄰","STREET":"德洋一街","SECT":" ","MAREA":" ","LANE":"３７巷","ALLEY":" ","HOUSE_NO":"３號","E_COORD97":173098.04000000001,"N_COORD97":2539174.02,"ADDRESS":"德洋一街３７巷３號","OBJECTID":282707},"geometry":{"x":173098.04000000004,"y":2539174.0199999996}},{"attributes":{"ID":282714,"DIS_CODE":0,"TOWNNAME":"永康區","LI":"五王里","LIN":"30鄰","STREET":"中山東路","SECT":" ","MAREA":" ","LANE":"１２０巷","ALLEY":" ","HOUSE_NO":"１６號","E_COORD97":171714.22,"N_COORD97":2545904.2799999998,"ADDRESS":"中山東路１２０巷１６號","OBJECTID":282708},"geometry":{"x":171714.22000000067,"y":2545904.2800000012}},{"attributes":{"ID":282715,"DIS_CODE":0,"TOWNNAME":"永康區","LI":"五王里","LIN":"30鄰","STREET":"中山東路","SECT":" ","MAREA":" ","LANE":"１２０巷","ALLEY":" ","HOUSE_NO":"１３號","E_COORD97":171680.25,"N_COORD97":2545856.5299999998,"ADDRESS":"中山東路１２０巷１３號","OBJECTID":282709},"geometry":{"x":171680.25000000093,"y":2545856.5299999993}},{"attributes":{"ID":282716,"DIS_CODE":0,"TOWNNAME":"安南區","LI":"安富里","LIN":"30鄰","STREET":"府安路","SECT":"五段","MAREA":" ","LANE":"２１８巷","ALLEY":" ","HOUSE_NO":"４３號","E_COORD97":167511.51000000001,"N_COORD97":2547066.5099999998,"ADDRESS":"府安路五段２１８巷４３號","OBJECTID":282710},"geometry":{"x":167511.51000000071,"y":2547066.5100000016}},{"attributes":{"ID":282717,"DIS_CODE":0,"TOWNNAME":"安南區","LI":"安富里","LIN":"30鄰","STREET":"府安路","SECT":"五段","MAREA":" ","LANE":"２１８巷","ALLEY":" ","HOUSE_NO":"４５號","E_COORD97":167510.23000000001,"N_COORD97":2547073.8599999999,"ADDRESS":"府安路五段２１８巷４５號","OBJECTID":282711},"geometry":{"x":167510.23000000045,"y":2547073.8600000013}},{"attributes":{"ID":282718,"DIS_CODE":0,"TOWNNAME":"安南區","LI":"安富里","LIN":"30鄰","STREET":"府安路","SECT":"五段","MAREA":" ","LANE":"２１８巷","ALLEY":" ","HOUSE_NO":"４７號","E_COORD97":167509.26999999999,"N_COORD97":2547084.3900000001,"ADDRESS":"府安路五段２１８巷４７號","OBJECTID":282712},"geometry":{"x":167509.27000000142,"y":2547084.3900000025}},{"attributes":{"ID":282719,"DIS_CODE":0,"TOWNNAME":"永康區","LI":"正強里","LIN":"30鄰","STREET":"正強街","SECT":" ","MAREA":" ","LANE":"２１５巷","ALLEY":" ","HOUSE_NO":"１５號","E_COORD97":173220.45000000001,"N_COORD97":2547685.5,"ADDRESS":"正強街２１５巷１５號","OBJECTID":282713},"geometry":{"x":173220.45000000112,"y":2547685.5}},{"attributes":{"ID":282720,"DIS_CODE":0,"TOWNNAME":"永康區","LI":"正強里","LIN":"30鄰","STREET":"正強街","SECT":" ","MAREA":" ","LANE":"２１５巷","ALLEY":" ","HOUSE_NO":"１７號","E_COORD97":173215.98999999999,"N_COORD97":2547685.1800000002,"ADDRESS":"正強街２１５巷１７號","OBJECTID":282714},"geometry":{"x":173215.98999999929,"y":2547685.1800000016}},{"attributes":{"ID":282721,"DIS_CODE":0,"TOWNNAME":"永康區","LI":"正強里","LIN":"30鄰","STREET":"正強街","SECT":" ","MAREA":" ","LANE":"２１５巷","ALLEY":" ","HOUSE_NO":"１９號","E_COORD97":173212.04000000001,"N_COORD97":2547684.7200000002,"ADDRESS":"正強街２１５巷１９號","OBJECTID":282715},"geometry":{"x":173212.04000000004,"y":2547684.7200000007}},{"attributes":{"ID":282722,"DIS_CODE":0,"TOWNNAME":"永康區","LI":"\u25A0行里","LIN":"30鄰","STREET":"竹林街","SECT":" ","MAREA":" ","LANE":"１４巷","ALLEY":" ","HOUSE_NO":"１２號","E_COORD97":172692.19,"N_COORD97":2548979.2400000002,"ADDRESS":"竹林街１４巷１２號","OBJECTID":282716},"geometry":{"x":172692.19000000041,"y":2548979.2400000002}},{"attributes":{"ID":282723,"DIS_CODE":0,"TOWNNAME":"永康區","LI":"東灣里","LIN":"30鄰","STREET":"民族路","SECT":" ","MAREA":" ","LANE":"１４５巷","ALLEY":" ","HOUSE_NO":"６１號","E_COORD97":175183.78,"N_COORD97":2544719.3599999999,"ADDRESS":"民族路１４５巷６１號","OBJECTID":282717},"geometry":{"x":175183.78000000026,"y":2544719.3599999975}},{"attributes":{"ID":282724,"DIS_CODE":0,"TOWNNAME":"東區","LI":"德光里","LIN":"2鄰","STREET":"崇德路","SECT":" ","MAREA":" ","LANE":" ","ALLEY":" ","HOUSE_NO":"２２號","E_COORD97":169758.69,"N_COORD97":2542492.7599999998,"ADDRESS":"崇德路２２號","OBJECTID":282718},"geometry":{"x":169758.69000000134,"y":2542492.7599999998}},{"attributes":{"ID":282725,"DIS_CODE":0,"TOWNNAME":"東區","LI":"德光里","LIN":"2鄰","STREET":"崇德路","SECT":" ","MAREA":" ","LANE":" ","ALLEY":" ","HOUSE_NO":"２４號","E_COORD97":169760.54999999999,"N_COORD97":2542488.8100000001,"ADDRESS":"崇德路２４號","OBJECTID":282719},"geometry":{"x":169760.55000000168,"y":2542488.8100000005}},{"attributes":{"ID":282726,"DIS_CODE":0,"TOWNNAME":"東區","LI":"德光里","LIN":"2鄰","STREET":"崇明一街","SECT":" ","MAREA":" ","LANE":" ","ALLEY":" ","HOUSE_NO":"５２號","E_COORD97":169699.78,"N_COORD97":2542473.3300000001,"ADDRESS":"崇明一街５２號","OBJECTID":282720},"geometry":{"x":169699.78000000026,"y":2542473.3300000019}},{"attributes":{"ID":282727,"DIS_CODE":0,"TOWNNAME":"東區","LI":"德光里","LIN":"2鄰","STREET":"崇明一街","SECT":" ","MAREA":" ","LANE":" ","ALLEY":" ","HOUSE_NO":"５４號","E_COORD97":169705.37,"N_COORD97":2542475.1400000001,"ADDRESS":"崇明一街５４號","OBJECTID":282721},"geometry":{"x":169705.37000000011,"y":2542475.1400000025}},{"attributes":{"ID":282728,"DIS_CODE":0,"TOWNNAME":"東區","LI":"德光里","LIN":"2鄰","STREET":"崇明一街","SECT":" ","MAREA":" ","LANE":" ","ALLEY":" ","HOUSE_NO":"５６號","E_COORD97":169709.75,"N_COORD97":2542476.79,"ADDRESS":"崇明一街５６號","OBJECTID":282722},"geometry":{"x":169709.75,"y":2542476.790000001}},{"attributes":{"ID":282729,"DIS_CODE":0,"TOWNNAME":"東區","LI":"德光里","LIN":"2鄰","STREET":"崇明一街","SECT":" ","MAREA":" ","LANE":" ","ALLEY":" ","HOUSE_NO":"５８號","E_COORD97":169713.82999999999,"N_COORD97":2542477.7000000002,"ADDRESS":"崇明一街５８號","OBJECTID":282723},"geometry":{"x":169713.83000000101,"y":2542477.7000000011}},{"attributes":{"ID":282730,"DIS_CODE":0,"TOWNNAME":"東區","LI":"德光里","LIN":"2鄰","STREET":"崇明一街","SECT":" ","MAREA":" ","LANE":" ","ALLEY":" ","HOUSE_NO":"６０號","E_COORD97":169717,"N_COORD97":2542478.75,"ADDRESS":"崇明一街６０號","OBJECTID":282724},"geometry":{"x":169717.00000000186,"y":2542478.75}},{"attributes":{"ID":282731,"DIS_CODE":0,"TOWNNAME":"永康區","LI":"復國里","LIN":"30鄰","STREET":"復國一路","SECT":" ","MAREA":" ","LANE":"１７３巷","ALLEY":" ","HOUSE_NO":"１０號","E_COORD97":172695.23000000001,"N_COORD97":2545248.27,"ADDRESS":"復國一路１７３巷１０號","OBJECTID":282725},"geometry":{"x":172695.23000000045,"y":2545248.2699999996}},{"attributes":{"ID":282732,"DIS_CODE":0,"TOWNNAME":"永康區","LI":"東灣里","LIN":"30鄰","STREET":"大灣一街","SECT":" ","MAREA":" ","LANE":"３６０巷","ALLEY":" ","HOUSE_NO":"２６號","E_COORD97":175180.78,"N_COORD97":2544749.2599999998,"ADDRESS":"大灣一街３６０巷２６號","OBJECTID":282726},"geometry":{"x":175180.78000000119,"y":2544749.2600000016}},{"attributes":{"ID":282733,"DIS_CODE":0,"TOWNNAME":"永康區","LI":"崑山里","LIN":"30鄰","STREET":"崑山街","SECT":" ","MAREA":" ","LANE":"１０３巷","ALLEY":" ","HOUSE_NO":"１４號","E_COORD97":173940.10999999999,"N_COORD97":2544776.1499999999,"ADDRESS":"崑山街１０３巷１４號","OBJECTID":282727},"geometry":{"x":173940.11000000034,"y":2544776.1499999985}},{"attributes":{"ID":282734,"DIS_CODE":0,"TOWNNAME":"東區","LI":"大福里","LIN":"2鄰","STREET":"榮譽街","SECT":" ","MAREA":" ","LANE":" ","ALLEY":" ","HOUSE_NO":"２３號","E_COORD97":169568.20000000001,"N_COORD97":2541626.9700000002,"ADDRESS":"榮譽街２３號","OBJECTID":282728},"geometry":{"x":169568.19999999925,"y":2541626.9700000007}},{"attributes":{"ID":282735,"DIS_CODE":0,"TOWNNAME":"東區","LI":"大福里","LIN":"2鄰","STREET":"榮譽街","SECT":" ","MAREA":" ","LANE":" ","ALLEY":" ","HOUSE_NO":"２７號","E_COORD97":169580.82000000001,"N_COORD97":2541638.5,"ADDRESS":"榮譽街２７號","OBJECTID":282729},"geometry":{"x":169580.8200000003,"y":2541638.5000000019}},{"attributes":{"ID":282736,"DIS_CODE":0,"TOWNNAME":"永康區","LI":"崑山里","LIN":"30鄰","STREET":"大仁街","SECT":" ","MAREA":" ","LANE":"１１４巷","ALLEY":" ","HOUSE_NO":"１０號","E_COORD97":173895.98000000001,"N_COORD97":2544826.6600000001,"ADDRESS":"大仁街１１４巷１０號","OBJECTID":282730},"geometry":{"x":173895.98000000045,"y":2544826.6599999983}},{"attributes":{"ID":282737,"DIS_CODE":0,"TOWNNAME":"永康區","LI":"崑山里","LIN":"30鄰","STREET":"大仁街","SECT":" ","MAREA":" ","LANE":"１１４巷","ALLEY":" ","HOUSE_NO":"８號","E_COORD97":173890.57000000001,"N_COORD97":2544827.9100000001,"ADDRESS":"大仁街１１４巷８號","OBJECTID":282731},"geometry":{"x":173890.57000000123,"y":2544827.9100000001}},{"attributes":{"ID":282738,"DIS_CODE":0,"TOWNNAME":"永康區","LI":"崑山里","LIN":"30鄰","STREET":"崑山街","SECT":" ","MAREA":" ","LANE":"１０３巷","ALLEY":" ","HOUSE_NO":"１８號","E_COORD97":173931.88,"N_COORD97":2544778.3399999999,"ADDRESS":"崑山街１０３巷１８號","OBJECTID":282732},"geometry":{"x":173931.88000000175,"y":2544778.3400000017}},{"attributes":{"ID":282739,"DIS_CODE":0,"TOWNNAME":"東區","LI":"大福里","LIN":"2鄰","STREET":"榮譽街","SECT":" ","MAREA":" ","LANE":" ","ALLEY":" ","HOUSE_NO":"２９號","E_COORD97":169586.85999999999,"N_COORD97":2541641.25,"ADDRESS":"榮譽街２９號","OBJECTID":282733},"geometry":{"x":169586.86000000127,"y":2541641.25}},{"attributes":{"ID":282740,"DIS_CODE":0,"TOWNNAME":"永康區","LI":"崑山里","LIN":"30鄰","STREET":"崑山街","SECT":" ","MAREA":" ","LANE":"１０３巷","ALLEY":" ","HOUSE_NO":"２３號","E_COORD97":173914.34,"N_COORD97":2544765.7799999998,"ADDRESS":"崑山街１０３巷２３號","OBJECTID":282734},"geometry":{"x":173914.33999999985,"y":2544765.7800000012}},{"attributes":{"ID":282741,"DIS_CODE":0,"TOWNNAME":"永康區","LI":"崑山里","LIN":"30鄰","STREET":"崑山街","SECT":" ","MAREA":" ","LANE":"１０３巷","ALLEY":" ","HOUSE_NO":"１９號","E_COORD97":173922.20000000001,"N_COORD97":2544763.2799999998,"ADDRESS":"崑山街１０３巷１９號","OBJECTID":282735},"geometry":{"x":173922.20000000112,"y":2544763.2799999993}},{"attributes":{"ID":282742,"DIS_CODE":0,"TOWNNAME":"永康區","LI":"崑山里","LIN":"30鄰","STREET":"崑山街","SECT":" ","MAREA":" ","LANE":"１０３巷","ALLEY":" ","HOUSE_NO":"１７號","E_COORD97":173926.14999999999,"N_COORD97":2544761.7799999998,"ADDRESS":"崑山街１０３巷１７號","OBJECTID":282736},"geometry":{"x":173926.1500000013,"y":2544761.7800000012}},{"attributes":{"ID":282743,"DIS_CODE":0,"TOWNNAME":"仁德區","LI":"成功里","LIN":"30鄰","STREET":"成功一街","SECT":" ","MAREA":" ","LANE":"３巷","ALLEY":" ","HOUSE_NO":"３號","E_COORD97":170565.60000000001,"N_COORD97":2540220.02,"ADDRESS":"成功一街３巷３號","OBJECTID":282737},"geometry":{"x":170565.60000000056,"y":2540220.0200000014}},{"attributes":{"ID":282744,"DIS_CODE":0,"TOWNNAME":"仁德區","LI":"後壁里","LIN":"30鄰","STREET":"德洋一街","SECT":" ","MAREA":" ","LANE":"３７巷","ALLEY":" ","HOUSE_NO":"１５號","E_COORD97":173078.54000000001,"N_COORD97":2539191.27,"ADDRESS":"德洋一街３７巷１５號","OBJECTID":282738},"geometry":{"x":173078.54000000097,"y":2539191.2700000014}},{"attributes":{"ID":282745,"DIS_CODE":0,"TOWNNAME":"永康區","LI":"復華里","LIN":"30鄰","STREET":"復華八街","SECT":" ","MAREA":" ","LANE":"４７巷","ALLEY":" ","HOUSE_NO":"６５號","E_COORD97":172662.89999999999,"N_COORD97":2546369.8999999999,"ADDRESS":"復華八街４７巷６５號","OBJECTID":282739},"geometry":{"x":172662.9000000013,"y":2546369.9000000004}},{"attributes":{"ID":282746,"DIS_CODE":0,"TOWNNAME":"永康區","LI":"龍潭里","LIN":"30鄰","STREET":"龍潭街","SECT":" ","MAREA":" ","LANE":"６８巷","ALLEY":" ","HOUSE_NO":"１１號","E_COORD97":174810.23999999999,"N_COORD97":2547905.3300000001,"ADDRESS":"龍潭街６８巷１１號","OBJECTID":282740},"geometry":{"x":174810.24000000115,"y":2547905.3300000019}},{"attributes":{"ID":282747,"DIS_CODE":0,"TOWNNAME":"永康區","LI":"龍潭里","LIN":"30鄰","STREET":"龍潭街","SECT":" ","MAREA":" ","LANE":"６８巷","ALLEY":" ","HOUSE_NO":"１３號","E_COORD97":174811.54000000001,"N_COORD97":2547909.4300000002,"ADDRESS":"龍潭街６８巷１３號","OBJECTID":282741},"geometry":{"x":174811.54000000097,"y":2547909.4299999997}},{"attributes":{"ID":282748,"DIS_CODE":0,"TOWNNAME":"永康區","LI":"龍潭里","LIN":"30鄰","STREET":"龍潭街","SECT":" ","MAREA":" ","LANE":"６８巷","ALLEY":" ","HOUSE_NO":"１５號","E_COORD97":174812.79000000001,"N_COORD97":2547913.6899999999,"ADDRESS":"龍潭街６８巷１５號","OBJECTID":282742},"geometry":{"x":174812.79000000097,"y":2547913.6899999995}},{"attributes":{"ID":282749,"DIS_CODE":0,"TOWNNAME":"東區","LI":"大福里","LIN":"2鄰","STREET":"榮譽街","SECT":" ","MAREA":" ","LANE":" ","ALLEY":" ","HOUSE_NO":"３１號","E_COORD97":169596.20999999999,"N_COORD97":2541644.27,"ADDRESS":"榮譽街３１號","OBJECTID":282743},"geometry":{"x":169596.20999999996,"y":2541644.2699999996}},{"attributes":{"ID":282750,"DIS_CODE":0,"TOWNNAME":"安南區","LI":"溪心里","LIN":"2鄰","STREET":"海佃路","SECT":"二段","MAREA":" ","LANE":" ","ALLEY":" ","HOUSE_NO":"６３７號","E_COORD97":166495.82999999999,"N_COORD97":2549527.2999999998,"ADDRESS":"海佃路二段６３７號","OBJECTID":282744},"geometry":{"x":166495.83000000101,"y":2549527.3000000007}},{"attributes":{"ID":282751,"DIS_CODE":0,"TOWNNAME":"安南區","LI":"安西里","LIN":"2鄰","STREET":"安和路","SECT":"一段","MAREA":" ","LANE":" ","ALLEY":" ","HOUSE_NO":"２３７之１號","E_COORD97":169294.17000000001,"N_COORD97":2547983.8100000001,"ADDRESS":"安和路一段２３７之１號","OBJECTID":282745},"geometry":{"x":169294.17000000086,"y":2547983.8100000024}},{"attributes":{"ID":282752,"DIS_CODE":0,"TOWNNAME":"安南區","LI":"城西里","LIN":"2鄰","STREET":"城西街","SECT":"三段","MAREA":" ","LANE":" ","ALLEY":" ","HOUSE_NO":"４６０號","E_COORD97":157249.85999999999,"N_COORD97":2550886.5699999998,"ADDRESS":"城西街三段４６０號","OBJECTID":282746},"geometry":{"x":157249.86000000034,"y":2550886.5700000022}},{"attributes":{"ID":282753,"DIS_CODE":0,"TOWNNAME":"仁德區","LI":"大甲里","LIN":"2鄰","STREET":"行大一街","SECT":" ","MAREA":" ","LANE":" ","ALLEY":" ","HOUSE_NO":"１１６號","E_COORD97":169934.35999999999,"N_COORD97":2534989.23,"ADDRESS":"行大一街１１６號","OBJECTID":282747},"geometry":{"x":169934.36000000127,"y":2534989.2300000023}},{"attributes":{"ID":282754,"DIS_CODE":0,"TOWNNAME":"仁德區","LI":"大甲里","LIN":"2鄰","STREET":"行大一街","SECT":" ","MAREA":" ","LANE":" ","ALLEY":" ","HOUSE_NO":"１０６號","E_COORD97":169947.26999999999,"N_COORD97":2534986.2400000002,"ADDRESS":"行大一街１０６號","OBJECTID":282748},"geometry":{"x":169947.27000000048,"y":2534986.2400000002}},{"attributes":{"ID":282755,"DIS_CODE":0,"TOWNNAME":"仁德區","LI":"三甲里","LIN":"2鄰","STREET":" ","SECT":" ","MAREA":"三甲子","LANE":" ","ALLEY":" ","HOUSE_NO":"２２號之２","E_COORD97":171974.85000000001,"N_COORD97":2537218.5499999998,"ADDRESS":"三甲子２２號之２","OBJECTID":282749},"geometry":{"x":171974.84999999963,"y":2537218.5500000007}},{"attributes":{"ID":282756,"DIS_CODE":0,"TOWNNAME":"仁德區","LI":"一甲里","LIN":"2鄰","STREET":"中正路","SECT":"三段","MAREA":" ","LANE":" ","ALLEY":" ","HOUSE_NO":"１６９號","E_COORD97":173471.10999999999,"N_COORD97":2541826.52,"ADDRESS":"中正路三段１６９號","OBJECTID":282750},"geometry":{"x":173471.11000000034,"y":2541826.5199999977}},{"attributes":{"ID":282757,"DIS_CODE":0,"TOWNNAME":"仁德區","LI":"一甲里","LIN":"2鄰","STREET":"忠義路","SECT":" ","MAREA":" ","LANE":" ","ALLEY":" ","HOUSE_NO":"６６２號","E_COORD97":173584.01999999999,"N_COORD97":2542230.2599999998,"ADDRESS":"忠義路６６２號","OBJECTID":282751},"geometry":{"x":173584.01999999955,"y":2542230.2600000016}},{"attributes":{"ID":282758,"DIS_CODE":0,"TOWNNAME":"永康區","LI":"龍潭里","LIN":"30鄰","STREET":"龍潭街","SECT":" ","MAREA":" ","LANE":"６８巷","ALLEY":" ","HOUSE_NO":"１７號","E_COORD97":174814.42000000001,"N_COORD97":2547917.8799999999,"ADDRESS":"龍潭街６８巷１７號","OBJECTID":282752},"geometry":{"x":174814.41999999993,"y":2547917.879999999}},{"attributes":{"ID":282759,"DIS_CODE":0,"TOWNNAME":"仁德區","LI":"大甲里","LIN":"2鄰","STREET":"行大一街","SECT":" ","MAREA":" ","LANE":" ","ALLEY":" ","HOUSE_NO":"２１１號","E_COORD97":169878.19,"N_COORD97":2534992.4900000002,"ADDRESS":"行大一街２１１號","OBJECTID":282753},"geometry":{"x":169878.19000000041,"y":2534992.4900000039}},{"attributes":{"ID":282760,"DIS_CODE":0,"TOWNNAME":"永康區","LI":"龍潭里","LIN":"30鄰","STREET":"龍潭街","SECT":" ","MAREA":" ","LANE":"６８巷","ALLEY":" ","HOUSE_NO":"１９號","E_COORD97":174815.91,"N_COORD97":2547921.7799999998,"ADDRESS":"龍潭街６８巷１９號","OBJECTID":282754},"geometry":{"x":174815.91000000108,"y":2547921.7800000012}},{"attributes":{"ID":282761,"DIS_CODE":0,"TOWNNAME":"仁德區","LI":"三甲里","LIN":"2鄰","STREET":" ","SECT":" ","MAREA":"三甲子","LANE":" ","ALLEY":" ","HOUSE_NO":"２１之６號","E_COORD97":171964.26000000001,"N_COORD97":2537166.29,"ADDRESS":"三甲子２１之６號","OBJECTID":282755},"geometry":{"x":171964.25999999978,"y":2537166.290000001}},{"attributes":{"ID":282762,"DIS_CODE":0,"TOWNNAME":"仁德區","LI":"三甲里","LIN":"2鄰","STREET":" ","SECT":" ","MAREA":"三甲子","LANE":" ","ALLEY":" ","HOUSE_NO":"２１號之２","E_COORD97":171948.22,"N_COORD97":2537159.29,"ADDRESS":"三甲子２１號之２","OBJECTID":282756},"geometry":{"x":171948.22000000067,"y":2537159.2900000028}},{"attributes":{"ID":282763,"DIS_CODE":0,"TOWNNAME":"仁德區","LI":"中洲里","LIN":"2鄰","STREET":" ","SECT":" ","MAREA":"中洲","LANE":" ","ALLEY":" ","HOUSE_NO":"１２號之６","E_COORD97":173270.54000000001,"N_COORD97":2534311.2999999998,"ADDRESS":"中洲１２號之６","OBJECTID":282757},"geometry":{"x":173270.54000000097,"y":2534311.3000000007}},{"attributes":{"ID":282764,"DIS_CODE":0,"TOWNNAME":"仁德區","LI":"中洲里","LIN":"2鄰","STREET":" ","SECT":" ","MAREA":"中洲","LANE":" ","ALLEY":" ","HOUSE_NO":"１２號之２","E_COORD97":173285.87,"N_COORD97":2534312.2999999998,"ADDRESS":"中洲１２號之２","OBJECTID":282758},"geometry":{"x":173285.87000000011,"y":2534312.3000000007}},{"attributes":{"ID":282765,"DIS_CODE":0,"TOWNNAME":"永康區","LI":"龍潭里","LIN":"30鄰","STREET":"龍潭街","SECT":" ","MAREA":" ","LANE":"６８巷","ALLEY":" ","HOUSE_NO":"１號","E_COORD97":174793.82999999999,"N_COORD97":2547885.8100000001,"ADDRESS":"龍潭街６８巷１號","OBJECTID":282759},"geometry":{"x":174793.83000000101,"y":2547885.8100000024}},{"attributes":{"ID":282766,"DIS_CODE":0,"TOWNNAME":"永康區","LI":"龍潭里","LIN":"30鄰","STREET":"龍潭街","SECT":" ","MAREA":" ","LANE":"６８巷","ALLEY":" ","HOUSE_NO":"２０號","E_COORD97":174825.14999999999,"N_COORD97":2547900.7599999998,"ADDRESS":"龍潭街６８巷２０號","OBJECTID":282760},"geometry":{"x":174825.15000000037,"y":2547900.7600000035}},{"attributes":{"ID":282767,"DIS_CODE":0,"TOWNNAME":"永康區","LI":"龍潭里","LIN":"30鄰","STREET":"龍潭街","SECT":" ","MAREA":" ","LANE":"６８巷","ALLEY":" ","HOUSE_NO":"２１號","E_COORD97":174816.84,"N_COORD97":2547925.73,"ADDRESS":"龍潭街６８巷２１號","OBJECTID":282761},"geometry":{"x":174816.83999999985,"y":2547925.7300000042}},{"attributes":{"ID":282768,"DIS_CODE":0,"TOWNNAME":"永康區","LI":"龍潭里","LIN":"30鄰","STREET":"龍潭街","SECT":" ","MAREA":" ","LANE":"６８巷","ALLEY":" ","HOUSE_NO":"２２號","E_COORD97":174832.10999999999,"N_COORD97":2547906.1200000001,"ADDRESS":"龍潭街６８巷２２號","OBJECTID":282762},"geometry":{"x":174832.11000000034,"y":2547906.120000001}},{"attributes":{"ID":282769,"DIS_CODE":0,"TOWNNAME":"永康區","LI":"龍潭里","LIN":"30鄰","STREET":"龍潭街","SECT":" ","MAREA":" ","LANE":"６８巷","ALLEY":" ","HOUSE_NO":"２３號","E_COORD97":174818.98999999999,"N_COORD97":2547931.6299999999,"ADDRESS":"龍潭街６８巷２３號","OBJECTID":282763},"geometry":{"x":174818.99000000022,"y":2547931.6300000027}},{"attributes":{"ID":282770,"DIS_CODE":0,"TOWNNAME":"永康區","LI":"龍潭里","LIN":"30鄰","STREET":"龍潭街","SECT":" ","MAREA":" ","LANE":"６８巷","ALLEY":" ","HOUSE_NO":"２６號","E_COORD97":174833.95000000001,"N_COORD97":2547911.5099999998,"ADDRESS":"龍潭街６８巷２６號","OBJECTID":282764},"geometry":{"x":174833.95000000112,"y":2547911.5099999998}},{"attributes":{"ID":282771,"DIS_CODE":0,"TOWNNAME":"永康區","LI":"龍潭里","LIN":"30鄰","STREET":"龍潭街","SECT":" ","MAREA":" ","LANE":"６８巷","ALLEY":" ","HOUSE_NO":"２８號","E_COORD97":174835.37,"N_COORD97":2547915.8500000001,"ADDRESS":"龍潭街６８巷２８號","OBJECTID":282765},"geometry":{"x":174835.37000000011,"y":2547915.8499999996}},{"attributes":{"ID":282772,"DIS_CODE":0,"TOWNNAME":"永康區","LI":"龍潭里","LIN":"30鄰","STREET":"龍潭街","SECT":" ","MAREA":" ","LANE":"６８巷","ALLEY":" ","HOUSE_NO":"２號","E_COORD97":174794.44,"N_COORD97":2547877.5800000001,"ADDRESS":"龍潭街６８巷２號","OBJECTID":282766},"geometry":{"x":174794.44000000041,"y":2547877.5800000001}},{"attributes":{"ID":282773,"DIS_CODE":0,"TOWNNAME":"永康區","LI":"龍潭里","LIN":"30鄰","STREET":"龍潭街","SECT":" ","MAREA":" ","LANE":"６８巷","ALLEY":" ","HOUSE_NO":"３０號","E_COORD97":174836.70999999999,"N_COORD97":2547920.1000000001,"ADDRESS":"龍潭街６８巷３０號","OBJECTID":282767},"geometry":{"x":174836.71000000183,"y":2547920.1000000015}},{"attributes":{"ID":282774,"DIS_CODE":0,"TOWNNAME":"永康區","LI":"埔園里","LIN":"30鄰","STREET":"八德街","SECT":" ","MAREA":" ","LANE":"１８１巷","ALLEY":" ","HOUSE_NO":"１５號","E_COORD97":173857.07000000001,"N_COORD97":2548435.1600000001,"ADDRESS":"八德街１８１巷１５號","OBJECTID":282768},"geometry":{"x":173857.07000000123,"y":2548435.160000002}},{"attributes":{"ID":282775,"DIS_CODE":0,"TOWNNAME":"永康區","LI":"埔園里","LIN":"30鄰","STREET":"八德街","SECT":" ","MAREA":" ","LANE":"１８１巷","ALLEY":" ","HOUSE_NO":"１７號","E_COORD97":173857.97,"N_COORD97":2548429.6299999999,"ADDRESS":"八德街１８１巷１７號","OBJECTID":282769},"geometry":{"x":173857.96999999974,"y":2548429.6300000027}},{"attributes":{"ID":282776,"DIS_CODE":0,"TOWNNAME":"仁德區","LI":"上崙里","LIN":"2鄰","STREET":"德崙路","SECT":" ","MAREA":" ","LANE":" ","ALLEY":" ","HOUSE_NO":"１９９號","E_COORD97":173665.17000000001,"N_COORD97":2538295.0099999998,"ADDRESS":"德崙路１９９號","OBJECTID":282770},"geometry":{"x":173665.16999999993,"y":2538295.0100000016}},{"attributes":{"ID":282777,"DIS_CODE":0,"TOWNNAME":"仁德區","LI":"上崙里","LIN":"2鄰","STREET":"德崙路","SECT":" ","MAREA":" ","LANE":" ","ALLEY":" ","HOUSE_NO":"１７７號","E_COORD97":173611.89999999999,"N_COORD97":2538337.52,"ADDRESS":"德崙路１７７號","OBJECTID":282771},"geometry":{"x":173611.90000000224,"y":2538337.5199999996}},{"attributes":{"ID":282778,"DIS_CODE":0,"TOWNNAME":"仁德區","LI":"大甲里","LIN":"2鄰","STREET":"行大一街","SECT":" ","MAREA":" ","LANE":" ","ALLEY":" ","HOUSE_NO":"１２６號","E_COORD97":169915.06,"N_COORD97":2534995.7400000002,"ADDRESS":"行大一街１２６號","OBJECTID":282772},"geometry":{"x":169915.06000000052,"y":2534995.7400000021}},{"attributes":{"ID":282779,"DIS_CODE":0,"TOWNNAME":"永康區","LI":"埔園里","LIN":"30鄰","STREET":"八德街","SECT":" ","MAREA":" ","LANE":"１８１巷","ALLEY":" ","HOUSE_NO":"１９號","E_COORD97":173858.32000000001,"N_COORD97":2548424.6800000002,"ADDRESS":"八德街１８１巷１９號","OBJECTID":282773},"geometry":{"x":173858.32000000123,"y":2548424.6800000016}},{"attributes":{"ID":282780,"DIS_CODE":0,"TOWNNAME":"永康區","LI":"埔園里","LIN":"30鄰","STREET":"八德街","SECT":" ","MAREA":" ","LANE":"１８１巷","ALLEY":" ","HOUSE_NO":"２１號","E_COORD97":173858.72,"N_COORD97":2548419.0600000001,"ADDRESS":"八德街１８１巷２１號","OBJECTID":282774},"geometry":{"x":173858.72000000067,"y":2548419.0600000024}},{"attributes":{"ID":282781,"DIS_CODE":0,"TOWNNAME":"仁德區","LI":"仁愛里","LIN":"2鄰","STREET":" ","SECT":" ","MAREA":"仁愛","LANE":" ","ALLEY":" ","HOUSE_NO":"２７號","E_COORD97":170345.06849999999,"N_COORD97":2540143.14628,"ADDRESS":"仁愛２７號","OBJECTID":282775},"geometry":{"x":170345.06850000005,"y":2540143.1462810021}},{"attributes":{"ID":282782,"DIS_CODE":0,"TOWNNAME":"仁德區","LI":"三甲里","LIN":"2鄰","STREET":" ","SECT":" ","MAREA":"三甲子","LANE":" ","ALLEY":" ","HOUSE_NO":"１８號","E_COORD97":172008.03,"N_COORD97":2537154.2400000002,"ADDRESS":"三甲子１８號","OBJECTID":282776},"geometry":{"x":172008.03000000119,"y":2537154.2400000021}},{"attributes":{"ID":282783,"DIS_CODE":0,"TOWNNAME":"仁德區","LI":"中生里","LIN":"2鄰","STREET":" ","SECT":" ","MAREA":"中洲","LANE":" ","ALLEY":" ","HOUSE_NO":"８５號","E_COORD97":173089.64999999999,"N_COORD97":2534283.7400000002,"ADDRESS":"中洲８５號","OBJECTID":282777},"geometry":{"x":173089.64999999944,"y":2534283.7400000021}},{"attributes":{"ID":282784,"DIS_CODE":0,"TOWNNAME":"仁德區","LI":"中洲里","LIN":"2鄰","STREET":" ","SECT":" ","MAREA":"中洲","LANE":" ","ALLEY":" ","HOUSE_NO":"１２號之５","E_COORD97":173314.98000000001,"N_COORD97":2534317.2999999998,"ADDRESS":"中洲１２號之５","OBJECTID":282778},"geometry":{"x":173314.98000000138,"y":2534317.3000000026}},{"attributes":{"ID":282785,"DIS_CODE":0,"TOWNNAME":"永康區","LI":"埔園里","LIN":"30鄰","STREET":"八德街","SECT":" ","MAREA":" ","LANE":"１８１巷","ALLEY":" ","HOUSE_NO":"３０號","E_COORD97":173831.01000000001,"N_COORD97":2548487.04,"ADDRESS":"八德街１８１巷３０號","OBJECTID":282779},"geometry":{"x":173831.01000000071,"y":2548487.0399999991}},{"attributes":{"ID":282786,"DIS_CODE":0,"TOWNNAME":"永康區","LI":"埔園里","LIN":"30鄰","STREET":"八德街","SECT":" ","MAREA":" ","LANE":"１８１巷","ALLEY":" ","HOUSE_NO":"３２號","E_COORD97":173838.35999999999,"N_COORD97":2548478.6400000001,"ADDRESS":"八德街１８１巷３２號","OBJECTID":282780},"geometry":{"x":173838.36000000127,"y":2548478.6399999987}},{"attributes":{"ID":282787,"DIS_CODE":0,"TOWNNAME":"永康區","LI":"埔園里","LIN":"30鄰","STREET":"八德街","SECT":" ","MAREA":" ","LANE":"１８１巷","ALLEY":" ","HOUSE_NO":"３６號","E_COORD97":173837.76000000001,"N_COORD97":2548474.3799999999,"ADDRESS":"八德街１８１巷３６號","OBJECTID":282781},"geometry":{"x":173837.76000000164,"y":2548474.379999999}},{"attributes":{"ID":282788,"DIS_CODE":0,"TOWNNAME":"永康區","LI":"埔園里","LIN":"30鄰","STREET":"八德街","SECT":" ","MAREA":" ","LANE":"１８１巷","ALLEY":" ","HOUSE_NO":"３８號","E_COORD97":173838.66,"N_COORD97":2548470.5499999998,"ADDRESS":"八德街１８１巷３８號","OBJECTID":282782},"geometry":{"x":173838.66000000201,"y":2548470.5500000026}},{"attributes":{"ID":282789,"DIS_CODE":0,"TOWNNAME":"永康區","LI":"埔園里","LIN":"30鄰","STREET":"八德街","SECT":" ","MAREA":" ","LANE":"１８１巷","ALLEY":" ","HOUSE_NO":"４０號","E_COORD97":173836.84,"N_COORD97":2548465.2999999998,"ADDRESS":"八德街１８１巷４０號","OBJECTID":282783},"geometry":{"x":173836.83999999985,"y":2548465.3000000026}},{"attributes":{"ID":282790,"DIS_CODE":0,"TOWNNAME":"歸仁區","LI":"辜厝里","LIN":"30鄰","STREET":"大順三街","SECT":" ","MAREA":" ","LANE":"７８巷","ALLEY":" ","HOUSE_NO":"６號","E_COORD97":177385.53,"N_COORD97":2540469.9500000002,"ADDRESS":"大順三街７８巷６號","OBJECTID":282784},"geometry":{"x":177385.53000000026,"y":2540469.9499999993}},{"attributes":{"ID":282791,"DIS_CODE":0,"TOWNNAME":"新營區","LI":"新北里","LIN":"30鄰","STREET":"新北街","SECT":" ","MAREA":" ","LANE":"１７０巷","ALLEY":" ","HOUSE_NO":"６號","E_COORD97":178696.44,"N_COORD97":2578983.1499999999,"ADDRESS":"新北街１７０巷６號","OBJECTID":282785},"geometry":{"x":178696.44000000041,"y":2578983.1500000022}},{"attributes":{"ID":282792,"DIS_CODE":0,"TOWNNAME":"玉井區","LI":"玉田里","LIN":"30鄰","STREET":"仁愛街","SECT":" ","MAREA":" ","LANE":"２９巷","ALLEY":" ","HOUSE_NO":"１號","E_COORD97":195464.94,"N_COORD97":2557627.2799999998,"ADDRESS":"仁愛街２９巷１號","OBJECTID":282786},"geometry":{"x":195464.94000000134,"y":2557627.2800000031}},{"attributes":{"ID":282793,"DIS_CODE":0,"TOWNNAME":"仁德區","LI":"太子里","LIN":"2鄰","STREET":"太子路","SECT":" ","MAREA":" ","LANE":" ","ALLEY":" ","HOUSE_NO":"２０６號","E_COORD97":174255,"N_COORD97":2543513.2599999998,"ADDRESS":"太子路２０６號","OBJECTID":282787},"geometry":{"x":174255.00000000186,"y":2543513.2599999998}},{"attributes":{"ID":282794,"DIS_CODE":0,"TOWNNAME":"新營區","LI":"民榮里","LIN":"30鄰","STREET":"太子路","SECT":" ","MAREA":" ","LANE":"４４巷","ALLEY":" ","HOUSE_NO":"４７號","E_COORD97":178076.37,"N_COORD97":2578031.5299999998,"ADDRESS":"太子路４４巷４７號","OBJECTID":282788},"geometry":{"x":178076.37000000011,"y":2578031.5299999993}},{"attributes":{"ID":282795,"DIS_CODE":0,"TOWNNAME":"仁德區","LI":"仁德里","LIN":"38鄰","STREET":"文宏二街","SECT":" ","MAREA":" ","LANE":" ","ALLEY":" ","HOUSE_NO":"２９號","E_COORD97":172444.932864,"N_COORD97":2541724.0323800002,"ADDRESS":"文宏二街２９號","OBJECTID":282789},"geometry":{"x":172444.93286400102,"y":2541724.0323829986}},{"attributes":{"ID":282796,"DIS_CODE":0,"TOWNNAME":"佳里區","LI":"龍安里","LIN":"2鄰","STREET":" ","SECT":" ","MAREA":"塭子內","LANE":" ","ALLEY":" ","HOUSE_NO":"１５號之１","E_COORD97":164372.28,"N_COORD97":2558392.9900000002,"ADDRESS":"塭子內１５號之１","OBJECTID":282790},"geometry":{"x":164372.28000000119,"y":2558392.9900000039}},{"attributes":{"ID":282797,"DIS_CODE":0,"TOWNNAME":"關廟區","LI":"龜洞里","LIN":"6鄰","STREET":"南雄南路","SECT":" ","MAREA":" ","LANE":" ","ALLEY":" ","HOUSE_NO":"９３５號","E_COORD97":182174.74042700001,"N_COORD97":2532348.7212700001,"ADDRESS":"南雄南路９３５號","OBJECTID":282791},"geometry":{"x":182174.74042700138,"y":2532348.7212719992}},{"attributes":{"ID":282798,"DIS_CODE":0,"TOWNNAME":"南區","LI":"大忠里","LIN":"30鄰","STREET":"中華南路","SECT":"一段","MAREA":" ","LANE":"１８６巷","ALLEY":" ","HOUSE_NO":"６號","E_COORD97":169105.92999999999,"N_COORD97":2541265.6400000001,"ADDRESS":"中華南路一段１８６巷６號","OBJECTID":282792},"geometry":{"x":169105.93000000063,"y":2541265.6400000025}},{"attributes":{"ID":282799,"DIS_CODE":0,"TOWNNAME":"北區","LI":"和順里","LIN":"30鄰","STREET":"臨安路","SECT":"二段","MAREA":" ","LANE":"１９５巷","ALLEY":" ","HOUSE_NO":"４號","E_COORD97":167919.06,"N_COORD97":2544952.6800000002,"ADDRESS":"臨安路二段１９５巷４號","OBJECTID":282793},"geometry":{"x":167919.05999999866,"y":2544952.6800000016}},{"attributes":{"ID":282800,"DIS_CODE":0,"TOWNNAME":"北區","LI":"和順里","LIN":"30鄰","STREET":"臨安路","SECT":"二段","MAREA":" ","LANE":"１９５巷","ALLEY":" ","HOUSE_NO":"５號","E_COORD97":167892.10000000001,"N_COORD97":2544956.5600000001,"ADDRESS":"臨安路二段１９５巷５號","OBJECTID":282794},"geometry":{"x":167892.10000000056,"y":2544956.5599999987}},{"attributes":{"ID":282801,"DIS_CODE":0,"TOWNNAME":"北區","LI":"和順里","LIN":"30鄰","STREET":"臨安路","SECT":"二段","MAREA":" ","LANE":"１９５巷","ALLEY":" ","HOUSE_NO":"６號","E_COORD97":167919.23999999999,"N_COORD97":2544956.6499999999,"ADDRESS":"臨安路二段１９５巷６號","OBJECTID":282795},"geometry":{"x":167919.24000000115,"y":2544956.6500000022}},{"attributes":{"ID":282802,"DIS_CODE":0,"TOWNNAME":"仁德區","LI":"仁義里","LIN":"2鄰","STREET":"義林二街","SECT":" ","MAREA":" ","LANE":" ","ALLEY":" ","HOUSE_NO":"８１號","E_COORD97":174113.32000000001,"N_COORD97":2541192.5099999998,"ADDRESS":"義林二街８１號","OBJECTID":282796},"geometry":{"x":174113.3200000003,"y":2541192.5099999998}},{"attributes":{"ID":282803,"DIS_CODE":0,"TOWNNAME":"佳里區","LI":"忠仁里","LIN":"2鄰","STREET":"新生路","SECT":" ","MAREA":" ","LANE":" ","ALLEY":" ","HOUSE_NO":"１１５號","E_COORD97":165832.09,"N_COORD97":2562287.8199999998,"ADDRESS":"新生路１１５號","OBJECTID":282797},"geometry":{"x":165832.08999999985,"y":2562287.8200000022}},{"attributes":{"ID":282804,"DIS_CODE":0,"TOWNNAME":"佳里區","LI":"龍安里","LIN":"2鄰","STREET":" ","SECT":" ","MAREA":"塭子內","LANE":" ","ALLEY":" ","HOUSE_NO":"１５號之２","E_COORD97":164362.85000000001,"N_COORD97":2558393.21,"ADDRESS":"塭子內１５號之２","OBJECTID":282798},"geometry":{"x":164362.85000000056,"y":2558393.2100000028}},{"attributes":{"ID":282805,"DIS_CODE":0,"TOWNNAME":"佳里區","LI":"龍安里","LIN":"2鄰","STREET":" ","SECT":" ","MAREA":"塭子內","LANE":" ","ALLEY":" ","HOUSE_NO":"１５號之３","E_COORD97":164382.48999999999,"N_COORD97":2558391.9100000001,"ADDRESS":"塭子內１５號之３","OBJECTID":282799},"geometry":{"x":164382.49000000209,"y":2558391.9100000001}},{"attributes":{"ID":282806,"DIS_CODE":0,"TOWNNAME":"佳里區","LI":"龍安里","LIN":"2鄰","STREET":" ","SECT":" ","MAREA":"塭子內","LANE":" ","ALLEY":" ","HOUSE_NO":"１５號之８","E_COORD97":164399.70000000001,"N_COORD97":2558389,"ADDRESS":"塭子內１５號之８","OBJECTID":282800},"geometry":{"x":164399.70000000205,"y":2558389}}]}