{"displayFieldName":"TOWNNAME","fieldAliases":{"ID":"ID","DIS_CODE":"DIS_CODE","TOWNNAME":"TOWNNAME","LI":"LI","LIN":"LIN","STREET":"STREET","SECT":"SECT","MAREA":"MAREA","LANE":"LANE","ALLEY":"ALLEY","HOUSE_NO":"HOUSE_NO","E_COORD97":"E_COORD97","N_COORD97":"N_COORD97","ADDRESS":"ADDRESS","OBJECTID":"OBJECTID"},"geometryType":"esriGeometryPoint","spatialReference":{"wkid":102443,"latestWkid":3826},"fields":[{"name":"ID","type":"esriFieldTypeDouble","alias":"ID"},{"name":"DIS_CODE","type":"esriFieldTypeInteger","alias":"DIS_CODE"},{"name":"TOWNNAME","type":"esriFieldTypeString","alias":"TOWNNAME","length":8},{"name":"LI","type":"esriFieldTypeString","alias":"LI","length":8},{"name":"LIN","type":"esriFieldTypeString","alias":"LIN","length":12},{"name":"STREET","type":"esriFieldTypeString","alias":"STREET","length":20},{"name":"SECT","type":"esriFieldTypeString","alias":"SECT","length":8},{"name":"MAREA","type":"esriFieldTypeString","alias":"MAREA","length":12},{"name":"LANE","type":"esriFieldTypeString","alias":"LANE","length":10},{"name":"ALLEY","type":"esriFieldTypeString","alias":"ALLEY","length":10},{"name":"HOUSE_NO","type":"esriFieldTypeString","alias":"HOUSE_NO","length":20},{"name":"E_COORD97","type":"esriFieldTypeDouble","alias":"E_COORD97"},{"name":"N_COORD97","type":"esriFieldTypeDouble","alias":"N_COORD97"},{"name":"ADDRESS","type":"esriFieldTypeString","alias":"ADDRESS","length":50},{"name":"OBJECTID","type":"esriFieldTypeOID","alias":"OBJECTID"}],"features":[{"attributes":{"ID":303809,"DIS_CODE":0,"TOWNNAME":"北區","LI":"興南里","LIN":"8鄰","STREET":"公園北路","SECT":" ","MAREA":" ","LANE":"１４４巷","ALLEY":" ","HOUSE_NO":"８號","E_COORD97":168895.20999999999,"N_COORD97":2545101.8300000001,"ADDRESS":"公園北路１４４巷８號","OBJECTID":303801},"geometry":{"x":168895.21000000089,"y":2545101.8300000019}},{"attributes":{"ID":303810,"DIS_CODE":0,"TOWNNAME":"佳里區","LI":"安西里","LIN":"55鄰","STREET":"佳安東路","SECT":" ","MAREA":" ","LANE":" ","ALLEY":" ","HOUSE_NO":"３０號六樓之１","E_COORD97":163753.38,"N_COORD97":2562320.1099999999,"ADDRESS":"佳安東路３０號六樓之１","OBJECTID":303802},"geometry":{"x":163753.37999999989,"y":2562320.1099999994}},{"attributes":{"ID":303811,"DIS_CODE":0,"TOWNNAME":"佳里區","LI":"安西里","LIN":"55鄰","STREET":"佳安東路","SECT":" ","MAREA":" ","LANE":" ","ALLEY":" ","HOUSE_NO":"３０號六樓之２","E_COORD97":163753.38,"N_COORD97":2562320.1099999999,"ADDRESS":"佳安東路３０號六樓之２","OBJECTID":303803},"geometry":{"x":163753.37999999989,"y":2562320.1099999994}},{"attributes":{"ID":303812,"DIS_CODE":0,"TOWNNAME":"佳里區","LI":"安西里","LIN":"55鄰","STREET":"佳安東路","SECT":" ","MAREA":" ","LANE":" ","ALLEY":" ","HOUSE_NO":"３０號四樓之１","E_COORD97":163753.38,"N_COORD97":2562320.1099999999,"ADDRESS":"佳安東路３０號四樓之１","OBJECTID":303804},"geometry":{"x":163753.37999999989,"y":2562320.1099999994}},{"attributes":{"ID":303813,"DIS_CODE":0,"TOWNNAME":"佳里區","LI":"安西里","LIN":"55鄰","STREET":"佳安東路","SECT":" ","MAREA":" ","LANE":" ","ALLEY":" ","HOUSE_NO":"３０號四樓之２","E_COORD97":163753.38,"N_COORD97":2562320.1099999999,"ADDRESS":"佳安東路３０號四樓之２","OBJECTID":303805},"geometry":{"x":163753.37999999989,"y":2562320.1099999994}},{"attributes":{"ID":303814,"DIS_CODE":0,"TOWNNAME":"佳里區","LI":"安西里","LIN":"55鄰","STREET":"佳安東路","SECT":" ","MAREA":" ","LANE":" ","ALLEY":" ","HOUSE_NO":"３２號七樓之１","E_COORD97":163754.29000000001,"N_COORD97":2562339.8100000001,"ADDRESS":"佳安東路３２號七樓之１","OBJECTID":303806},"geometry":{"x":163754.29000000004,"y":2562339.8100000005}},{"attributes":{"ID":303815,"DIS_CODE":0,"TOWNNAME":"佳里區","LI":"安西里","LIN":"55鄰","STREET":"佳安東路","SECT":" ","MAREA":" ","LANE":" ","ALLEY":" ","HOUSE_NO":"３２號七樓之２","E_COORD97":163754.29000000001,"N_COORD97":2562339.8100000001,"ADDRESS":"佳安東路３２號七樓之２","OBJECTID":303807},"geometry":{"x":163754.29000000004,"y":2562339.8100000005}},{"attributes":{"ID":303816,"DIS_CODE":0,"TOWNNAME":"佳里區","LI":"安西里","LIN":"55鄰","STREET":"佳安東路","SECT":" ","MAREA":" ","LANE":" ","ALLEY":" ","HOUSE_NO":"３２號九樓之１","E_COORD97":163754.29000000001,"N_COORD97":2562339.8100000001,"ADDRESS":"佳安東路３２號九樓之１","OBJECTID":303808},"geometry":{"x":163754.29000000004,"y":2562339.8100000005}},{"attributes":{"ID":303817,"DIS_CODE":0,"TOWNNAME":"佳里區","LI":"安西里","LIN":"55鄰","STREET":"佳安東路","SECT":" ","MAREA":" ","LANE":" ","ALLEY":" ","HOUSE_NO":"３２號九樓之２","E_COORD97":163754.29000000001,"N_COORD97":2562339.8100000001,"ADDRESS":"佳安東路３２號九樓之２","OBJECTID":303809},"geometry":{"x":163754.29000000004,"y":2562339.8100000005}},{"attributes":{"ID":303818,"DIS_CODE":0,"TOWNNAME":"佳里區","LI":"安西里","LIN":"55鄰","STREET":"佳安東路","SECT":" ","MAREA":" ","LANE":" ","ALLEY":" ","HOUSE_NO":"３２號二樓之１","E_COORD97":163754.29000000001,"N_COORD97":2562339.8100000001,"ADDRESS":"佳安東路３２號二樓之１","OBJECTID":303810},"geometry":{"x":163754.29000000004,"y":2562339.8100000005}},{"attributes":{"ID":303819,"DIS_CODE":0,"TOWNNAME":"後壁區","LI":"後壁里","LIN":"12鄰","STREET":" ","SECT":" ","MAREA":"後壁","LANE":" ","ALLEY":" ","HOUSE_NO":"３２５號","E_COORD97":185907.60000000001,"N_COORD97":2584735.7599999998,"ADDRESS":"後壁３２５號","OBJECTID":303811},"geometry":{"x":185907.59999999963,"y":2584735.7599999998}},{"attributes":{"ID":303820,"DIS_CODE":0,"TOWNNAME":"北區","LI":"三德里","LIN":"8鄰","STREET":"公園南路","SECT":" ","MAREA":" ","LANE":"２３３巷","ALLEY":" ","HOUSE_NO":"４９之１號","E_COORD97":168490.41,"N_COORD97":2544619.25,"ADDRESS":"公園南路２３３巷４９之１號","OBJECTID":303812},"geometry":{"x":168490.41000000201,"y":2544619.2500000037}},{"attributes":{"ID":303821,"DIS_CODE":0,"TOWNNAME":"北區","LI":"三德里","LIN":"8鄰","STREET":"公園南路","SECT":" ","MAREA":" ","LANE":"２３３巷","ALLEY":" ","HOUSE_NO":"４９之２號","E_COORD97":168488.32000000001,"N_COORD97":2544614.7799999998,"ADDRESS":"公園南路２３３巷４９之２號","OBJECTID":303813},"geometry":{"x":168488.32000000123,"y":2544614.7799999975}},{"attributes":{"ID":303822,"DIS_CODE":0,"TOWNNAME":"北區","LI":"三德里","LIN":"8鄰","STREET":"公園南路","SECT":" ","MAREA":" ","LANE":"２３３巷","ALLEY":" ","HOUSE_NO":"４９之３號","E_COORD97":168487.20000000001,"N_COORD97":2544611.2599999998,"ADDRESS":"公園南路２３３巷４９之３號","OBJECTID":303814},"geometry":{"x":168487.20000000112,"y":2544611.2599999998}},{"attributes":{"ID":303823,"DIS_CODE":0,"TOWNNAME":"北區","LI":"三德里","LIN":"8鄰","STREET":"公園南路","SECT":" ","MAREA":" ","LANE":"２３３巷","ALLEY":" ","HOUSE_NO":"４９號","E_COORD97":168493.29000000001,"N_COORD97":2544627.8900000001,"ADDRESS":"公園南路２３３巷４９號","OBJECTID":303815},"geometry":{"x":168493.29000000097,"y":2544627.8900000006}},{"attributes":{"ID":303824,"DIS_CODE":0,"TOWNNAME":"歸仁區","LI":"大廟里","LIN":"8鄰","STREET":"大廟一街","SECT":" ","MAREA":" ","LANE":"８３巷","ALLEY":" ","HOUSE_NO":"２號","E_COORD97":175834.67000000001,"N_COORD97":2543949.25,"ADDRESS":"大廟一街８３巷２號","OBJECTID":303816},"geometry":{"x":175834.66999999993,"y":2543949.2500000019}},{"attributes":{"ID":303825,"DIS_CODE":0,"TOWNNAME":"歸仁區","LI":"大廟里","LIN":"8鄰","STREET":"大廟一街","SECT":" ","MAREA":" ","LANE":"９３巷","ALLEY":" ","HOUSE_NO":"２３號","E_COORD97":175848.12,"N_COORD97":2543922.25,"ADDRESS":"大廟一街９３巷２３號","OBJECTID":303817},"geometry":{"x":175848.12000000104,"y":2543922.2500000019}},{"attributes":{"ID":303826,"DIS_CODE":0,"TOWNNAME":"歸仁區","LI":"武東里","LIN":"8鄰","STREET":"武東一街","SECT":" ","MAREA":" ","LANE":"４９巷","ALLEY":" ","HOUSE_NO":"５８號","E_COORD97":175806.89000000001,"N_COORD97":2535559.25,"ADDRESS":"武東一街４９巷５８號","OBJECTID":303818},"geometry":{"x":175806.8900000006,"y":2535559.25}},{"attributes":{"ID":303827,"DIS_CODE":0,"TOWNNAME":"歸仁區","LI":"武東里","LIN":"8鄰","STREET":"武東一街","SECT":" ","MAREA":" ","LANE":"４９巷","ALLEY":" ","HOUSE_NO":"５２號","E_COORD97":175790.48999999999,"N_COORD97":2535563.25,"ADDRESS":"武東一街４９巷５２號","OBJECTID":303819},"geometry":{"x":175790.49000000022,"y":2535563.25}},{"attributes":{"ID":303828,"DIS_CODE":0,"TOWNNAME":"歸仁區","LI":"武東里","LIN":"8鄰","STREET":"武東一街","SECT":" ","MAREA":" ","LANE":"４９巷","ALLEY":" ","HOUSE_NO":"５０號","E_COORD97":175781.29000000001,"N_COORD97":2535566.25,"ADDRESS":"武東一街４９巷５０號","OBJECTID":303820},"geometry":{"x":175781.29000000004,"y":2535566.25}},{"attributes":{"ID":303829,"DIS_CODE":0,"TOWNNAME":"歸仁區","LI":"大廟里","LIN":"8鄰","STREET":"大廟一街","SECT":" ","MAREA":" ","LANE":"９３巷","ALLEY":" ","HOUSE_NO":"３１號","E_COORD97":175863.42000000001,"N_COORD97":2543915.25,"ADDRESS":"大廟一街９３巷３１號","OBJECTID":303821},"geometry":{"x":175863.41999999993,"y":2543915.2500000019}},{"attributes":{"ID":303830,"DIS_CODE":0,"TOWNNAME":"歸仁區","LI":"武東里","LIN":"8鄰","STREET":"武東一街","SECT":" ","MAREA":" ","LANE":"４９巷","ALLEY":" ","HOUSE_NO":"２６號","E_COORD97":175691.89000000001,"N_COORD97":2535543.25,"ADDRESS":"武東一街４９巷２６號","OBJECTID":303822},"geometry":{"x":175691.8900000006,"y":2535543.2500000037}},{"attributes":{"ID":303831,"DIS_CODE":0,"TOWNNAME":"歸仁區","LI":"武東里","LIN":"8鄰","STREET":"武東一街","SECT":" ","MAREA":" ","LANE":"４９巷","ALLEY":" ","HOUSE_NO":"６２號","E_COORD97":175816.19,"N_COORD97":2535558.25,"ADDRESS":"武東一街４９巷６２號","OBJECTID":303823},"geometry":{"x":175816.19000000134,"y":2535558.2500000019}},{"attributes":{"ID":303832,"DIS_CODE":0,"TOWNNAME":"新營區","LI":"民榮里","LIN":"26鄰","STREET":"復興路","SECT":" ","MAREA":" ","LANE":"３０５巷","ALLEY":" ","HOUSE_NO":"４４號","E_COORD97":178525.48999999999,"N_COORD97":2578045.9700000002,"ADDRESS":"復興路３０５巷４４號","OBJECTID":303824},"geometry":{"x":178525.49000000209,"y":2578045.9700000007}},{"attributes":{"ID":303833,"DIS_CODE":0,"TOWNNAME":"白河區","LI":"內角里","LIN":"4鄰","STREET":" ","SECT":" ","MAREA":"內角","LANE":" ","ALLEY":" ","HOUSE_NO":"５５號","E_COORD97":192585.26999999999,"N_COORD97":2588428.0499999998,"ADDRESS":"內角５５號","OBJECTID":303825},"geometry":{"x":192585.27000000048,"y":2588428.0500000007}},{"attributes":{"ID":303834,"DIS_CODE":0,"TOWNNAME":"歸仁區","LI":"大廟里","LIN":"8鄰","STREET":"大廟一街","SECT":" ","MAREA":" ","LANE":"９３巷","ALLEY":" ","HOUSE_NO":"２５號","E_COORD97":175852.22,"N_COORD97":2543921.25,"ADDRESS":"大廟一街９３巷２５號","OBJECTID":303826},"geometry":{"x":175852.22000000067,"y":2543921.2500000019}},{"attributes":{"ID":303835,"DIS_CODE":0,"TOWNNAME":"歸仁區","LI":"武東里","LIN":"8鄰","STREET":"武東一街","SECT":" ","MAREA":" ","LANE":"４９巷","ALLEY":" ","HOUSE_NO":"６０號","E_COORD97":175811.98999999999,"N_COORD97":2535559.25,"ADDRESS":"武東一街４９巷６０號","OBJECTID":303827},"geometry":{"x":175811.99000000115,"y":2535559.25}},{"attributes":{"ID":303836,"DIS_CODE":0,"TOWNNAME":"歸仁區","LI":"大廟里","LIN":"8鄰","STREET":"大廟一街","SECT":" ","MAREA":" ","LANE":"９３巷","ALLEY":" ","HOUSE_NO":"２７號","E_COORD97":175855.32000000001,"N_COORD97":2543919.25,"ADDRESS":"大廟一街９３巷２７號","OBJECTID":303828},"geometry":{"x":175855.32000000123,"y":2543919.25}},{"attributes":{"ID":303837,"DIS_CODE":0,"TOWNNAME":"歸仁區","LI":"南興里","LIN":"8鄰","STREET":"文化十六街","SECT":" ","MAREA":" ","LANE":"５０巷","ALLEY":" ","HOUSE_NO":"１１號","E_COORD97":176069.34,"N_COORD97":2541321.3300000001,"ADDRESS":"文化十六街５０巷１１號","OBJECTID":303829},"geometry":{"x":176069.33999999985,"y":2541321.3300000019}},{"attributes":{"ID":303838,"DIS_CODE":0,"TOWNNAME":"中西區","LI":"福安里","LIN":"9鄰","STREET":"友愛街","SECT":" ","MAREA":" ","LANE":"１１５巷","ALLEY":" ","HOUSE_NO":"１號","E_COORD97":167952.82000000001,"N_COORD97":2543540.5899999999,"ADDRESS":"友愛街１１５巷１號","OBJECTID":303830},"geometry":{"x":167952.82000000123,"y":2543540.5899999999}},{"attributes":{"ID":303839,"DIS_CODE":0,"TOWNNAME":"中西區","LI":"銀同里","LIN":"1鄰","STREET":"開山路","SECT":" ","MAREA":" ","LANE":"１０９巷","ALLEY":" ","HOUSE_NO":"２號","E_COORD97":168751.97,"N_COORD97":2543332.8500000001,"ADDRESS":"開山路１０９巷２號","OBJECTID":303831},"geometry":{"x":168751.96999999974,"y":2543332.8499999996}},{"attributes":{"ID":303840,"DIS_CODE":0,"TOWNNAME":"中西區","LI":"銀同里","LIN":"1鄰","STREET":"開山路","SECT":" ","MAREA":" ","LANE":"１０９巷","ALLEY":" ","HOUSE_NO":"６號","E_COORD97":168752.14000000001,"N_COORD97":2543337.4900000002,"ADDRESS":"開山路１０９巷６號","OBJECTID":303832},"geometry":{"x":168752.13999999966,"y":2543337.4900000021}},{"attributes":{"ID":303841,"DIS_CODE":0,"TOWNNAME":"歸仁區","LI":"大廟里","LIN":"8鄰","STREET":"大廟一街","SECT":" ","MAREA":" ","LANE":"９３巷","ALLEY":" ","HOUSE_NO":"１５號","E_COORD97":175834.82000000001,"N_COORD97":2543930.25,"ADDRESS":"大廟一街９３巷１５號","OBJECTID":303833},"geometry":{"x":175834.82000000216,"y":2543930.25}},{"attributes":{"ID":303842,"DIS_CODE":0,"TOWNNAME":"南區","LI":"金華里","LIN":"8鄰","STREET":"金華路","SECT":"二段","MAREA":" ","LANE":"５７巷","ALLEY":" ","HOUSE_NO":"３９號","E_COORD97":166945.70999999999,"N_COORD97":2542106.8900000001,"ADDRESS":"金華路二段５７巷３９號","OBJECTID":303834},"geometry":{"x":166945.71000000089,"y":2542106.8900000043}},{"attributes":{"ID":303843,"DIS_CODE":0,"TOWNNAME":"南區","LI":"金華里","LIN":"8鄰","STREET":"金華路","SECT":"二段","MAREA":" ","LANE":"５７巷","ALLEY":" ","HOUSE_NO":"４１號","E_COORD97":166940.17999999999,"N_COORD97":2542107.71,"ADDRESS":"金華路二段５７巷４１號","OBJECTID":303835},"geometry":{"x":166940.1799999997,"y":2542107.7100000009}},{"attributes":{"ID":303844,"DIS_CODE":0,"TOWNNAME":"南區","LI":"金華里","LIN":"8鄰","STREET":"金華路","SECT":"二段","MAREA":" ","LANE":"５７巷","ALLEY":" ","HOUSE_NO":"４３號","E_COORD97":166934.92000000001,"N_COORD97":2542107.9900000002,"ADDRESS":"金華路二段５７巷４３號","OBJECTID":303836},"geometry":{"x":166934.91999999993,"y":2542107.9900000002}},{"attributes":{"ID":303845,"DIS_CODE":0,"TOWNNAME":"南區","LI":"金華里","LIN":"8鄰","STREET":"金華路","SECT":"二段","MAREA":" ","LANE":"５７巷","ALLEY":" ","HOUSE_NO":"４５號","E_COORD97":166931.32999999999,"N_COORD97":2542107.9900000002,"ADDRESS":"金華路二段５７巷４５號","OBJECTID":303837},"geometry":{"x":166931.33000000194,"y":2542107.9900000002}},{"attributes":{"ID":303846,"DIS_CODE":0,"TOWNNAME":"南區","LI":"金華里","LIN":"8鄰","STREET":"金華路","SECT":"二段","MAREA":" ","LANE":"５７巷","ALLEY":" ","HOUSE_NO":"４７號","E_COORD97":166926.63,"N_COORD97":2542109.1000000001,"ADDRESS":"金華路二段５７巷４７號","OBJECTID":303838},"geometry":{"x":166926.62999999989,"y":2542109.1000000015}},{"attributes":{"ID":303847,"DIS_CODE":0,"TOWNNAME":"南區","LI":"金華里","LIN":"8鄰","STREET":"金華路","SECT":"二段","MAREA":" ","LANE":"５７巷","ALLEY":" ","HOUSE_NO":"４９號","E_COORD97":166922.48000000001,"N_COORD97":2542109.1000000001,"ADDRESS":"金華路二段５７巷４９號","OBJECTID":303839},"geometry":{"x":166922.48000000138,"y":2542109.1000000015}},{"attributes":{"ID":303848,"DIS_CODE":0,"TOWNNAME":"南區","LI":"金華里","LIN":"8鄰","STREET":"金華路","SECT":"二段","MAREA":" ","LANE":"５７巷","ALLEY":" ","HOUSE_NO":"５１號","E_COORD97":166916.95000000001,"N_COORD97":2542109.6499999999,"ADDRESS":"金華路二段５７巷５１號","OBJECTID":303840},"geometry":{"x":166916.94999999925,"y":2542109.6500000022}},{"attributes":{"ID":303849,"DIS_CODE":0,"TOWNNAME":"南區","LI":"金華里","LIN":"8鄰","STREET":"金華路","SECT":"二段","MAREA":" ","LANE":"５７巷","ALLEY":" ","HOUSE_NO":"５３號","E_COORD97":166911.70000000001,"N_COORD97":2542109.9199999999,"ADDRESS":"金華路二段５７巷５３號","OBJECTID":303841},"geometry":{"x":166911.70000000019,"y":2542109.9200000018}},{"attributes":{"ID":303850,"DIS_CODE":0,"TOWNNAME":"新營區","LI":"民生里","LIN":"21鄰","STREET":"民生路","SECT":" ","MAREA":" ","LANE":"１６３巷","ALLEY":" ","HOUSE_NO":"７６號","E_COORD97":179082.5,"N_COORD97":2578599.23,"ADDRESS":"民生路１６３巷７６號","OBJECTID":303842},"geometry":{"x":179082.5,"y":2578599.2300000023}},{"attributes":{"ID":303851,"DIS_CODE":0,"TOWNNAME":"佳里區","LI":"安西里","LIN":"55鄰","STREET":"佳安東路","SECT":" ","MAREA":" ","LANE":" ","ALLEY":" ","HOUSE_NO":"３２號二樓之２","E_COORD97":163754.29000000001,"N_COORD97":2562339.8100000001,"ADDRESS":"佳安東路３２號二樓之２","OBJECTID":303843},"geometry":{"x":163754.29000000004,"y":2562339.8100000005}},{"attributes":{"ID":303852,"DIS_CODE":0,"TOWNNAME":"佳里區","LI":"安西里","LIN":"55鄰","STREET":"佳安東路","SECT":" ","MAREA":" ","LANE":" ","ALLEY":" ","HOUSE_NO":"３２號八樓之１","E_COORD97":163754.29000000001,"N_COORD97":2562339.8100000001,"ADDRESS":"佳安東路３２號八樓之１","OBJECTID":303844},"geometry":{"x":163754.29000000004,"y":2562339.8100000005}},{"attributes":{"ID":303853,"DIS_CODE":0,"TOWNNAME":"佳里區","LI":"安西里","LIN":"55鄰","STREET":"佳安東路","SECT":" ","MAREA":" ","LANE":" ","ALLEY":" ","HOUSE_NO":"３２號八樓之２","E_COORD97":163754.29000000001,"N_COORD97":2562339.8100000001,"ADDRESS":"佳安東路３２號八樓之２","OBJECTID":303845},"geometry":{"x":163754.29000000004,"y":2562339.8100000005}},{"attributes":{"ID":303854,"DIS_CODE":0,"TOWNNAME":"白河區","LI":"白河里","LIN":"11鄰","STREET":"中正路","SECT":" ","MAREA":" ","LANE":"６巷","ALLEY":" ","HOUSE_NO":"２號","E_COORD97":190317.70000000001,"N_COORD97":2583101.6200000001,"ADDRESS":"中正路６巷２號","OBJECTID":303846},"geometry":{"x":190317.70000000112,"y":2583101.620000001}},{"attributes":{"ID":303855,"DIS_CODE":0,"TOWNNAME":"白河區","LI":"白河里","LIN":"11鄰","STREET":"中正路","SECT":" ","MAREA":" ","LANE":"６巷","ALLEY":" ","HOUSE_NO":"３號","E_COORD97":190309.73999999999,"N_COORD97":2583112.6699999999,"ADDRESS":"中正路６巷３號","OBJECTID":303847},"geometry":{"x":190309.74000000022,"y":2583112.6699999999}},{"attributes":{"ID":303856,"DIS_CODE":0,"TOWNNAME":"白河區","LI":"秀祐里","LIN":"6鄰","STREET":"中正路","SECT":" ","MAREA":" ","LANE":"７３１巷","ALLEY":" ","HOUSE_NO":"１２之１號","E_COORD97":188670.92000000001,"N_COORD97":2582928.5299999998,"ADDRESS":"中正路７３１巷１２之１號","OBJECTID":303848},"geometry":{"x":188670.91999999993,"y":2582928.5300000012}},{"attributes":{"ID":303857,"DIS_CODE":0,"TOWNNAME":"白河區","LI":"秀祐里","LIN":"6鄰","STREET":"中正路","SECT":" ","MAREA":" ","LANE":"７３１巷","ALLEY":" ","HOUSE_NO":"１２號","E_COORD97":188665.57999999999,"N_COORD97":2582907.5699999998,"ADDRESS":"中正路７３１巷１２號","OBJECTID":303849},"geometry":{"x":188665.58000000101,"y":2582907.5700000003}},{"attributes":{"ID":303858,"DIS_CODE":0,"TOWNNAME":"白河區","LI":"秀祐里","LIN":"6鄰","STREET":"中正路","SECT":" ","MAREA":" ","LANE":"７３１巷","ALLEY":" ","HOUSE_NO":"１４號","E_COORD97":188666.89999999999,"N_COORD97":2582901.46,"ADDRESS":"中正路７３１巷１４號","OBJECTID":303850},"geometry":{"x":188666.90000000224,"y":2582901.4600000009}},{"attributes":{"ID":303859,"DIS_CODE":0,"TOWNNAME":"新營區","LI":"民榮里","LIN":"26鄰","STREET":"復興路","SECT":" ","MAREA":" ","LANE":"３０５巷","ALLEY":" ","HOUSE_NO":"１６號","E_COORD97":178491.89999999999,"N_COORD97":2578097.0600000001,"ADDRESS":"復興路３０５巷１６號","OBJECTID":303851},"geometry":{"x":178491.90000000037,"y":2578097.0600000005}},{"attributes":{"ID":303860,"DIS_CODE":0,"TOWNNAME":"南區","LI":"金華里","LIN":"8鄰","STREET":"金華路","SECT":"二段","MAREA":" ","LANE":"５７巷","ALLEY":" ","HOUSE_NO":"５５號","E_COORD97":166907.54999999999,"N_COORD97":2542110.75,"ADDRESS":"金華路二段５７巷５５號","OBJECTID":303852},"geometry":{"x":166907.55000000168,"y":2542110.7500000019}},{"attributes":{"ID":303861,"DIS_CODE":0,"TOWNNAME":"南區","LI":"金華里","LIN":"8鄰","STREET":"金華路","SECT":"二段","MAREA":" ","LANE":"５７巷","ALLEY":" ","HOUSE_NO":"５７號","E_COORD97":166901.19,"N_COORD97":2542111.0299999998,"ADDRESS":"金華路二段５７巷５７號","OBJECTID":303853},"geometry":{"x":166901.19000000134,"y":2542111.0300000031}},{"attributes":{"ID":303862,"DIS_CODE":0,"TOWNNAME":"南區","LI":"金華里","LIN":"8鄰","STREET":"金華路","SECT":"二段","MAREA":" ","LANE":"５７巷","ALLEY":" ","HOUSE_NO":"６１號","E_COORD97":166882.94,"N_COORD97":2542112.4100000001,"ADDRESS":"金華路二段５７巷６１號","OBJECTID":303854},"geometry":{"x":166882.94000000041,"y":2542112.4100000001}},{"attributes":{"ID":303863,"DIS_CODE":0,"TOWNNAME":"南區","LI":"金華里","LIN":"8鄰","STREET":"金華路","SECT":"二段","MAREA":" ","LANE":"５７巷","ALLEY":" ","HOUSE_NO":"６３號","E_COORD97":166878.51999999999,"N_COORD97":2542113.2400000002,"ADDRESS":"金華路二段５７巷６３號","OBJECTID":303855},"geometry":{"x":166878.52000000142,"y":2542113.2400000002}},{"attributes":{"ID":303864,"DIS_CODE":0,"TOWNNAME":"南區","LI":"金華里","LIN":"8鄰","STREET":"金華路","SECT":"二段","MAREA":" ","LANE":"５７巷","ALLEY":" ","HOUSE_NO":"６５號","E_COORD97":166872.98999999999,"N_COORD97":2542113.5099999998,"ADDRESS":"金華路二段５７巷６５號","OBJECTID":303856},"geometry":{"x":166872.99000000115,"y":2542113.5099999998}},{"attributes":{"ID":303865,"DIS_CODE":0,"TOWNNAME":"南區","LI":"金華里","LIN":"8鄰","STREET":"金華路","SECT":"二段","MAREA":" ","LANE":"５７巷","ALLEY":" ","HOUSE_NO":"６７號","E_COORD97":166868.01000000001,"N_COORD97":2542114.6200000001,"ADDRESS":"金華路二段５７巷６７號","OBJECTID":303857},"geometry":{"x":166868.00999999978,"y":2542114.620000001}},{"attributes":{"ID":303866,"DIS_CODE":0,"TOWNNAME":"南區","LI":"金華里","LIN":"8鄰","STREET":"金華路","SECT":"二段","MAREA":" ","LANE":"５７巷","ALLEY":" ","HOUSE_NO":"６９號","E_COORD97":166863.03,"N_COORD97":2542114.8900000001,"ADDRESS":"金華路二段５７巷６９號","OBJECTID":303858},"geometry":{"x":166863.03000000119,"y":2542114.8900000025}},{"attributes":{"ID":303867,"DIS_CODE":0,"TOWNNAME":"南區","LI":"金華里","LIN":"8鄰","STREET":"金華路","SECT":"二段","MAREA":" ","LANE":"５７巷","ALLEY":" ","HOUSE_NO":"４０號","E_COORD97":166947.09,"N_COORD97":2542128.4199999999,"ADDRESS":"金華路二段５７巷４０號","OBJECTID":303859},"geometry":{"x":166947.08999999985,"y":2542128.4199999999}},{"attributes":{"ID":303868,"DIS_CODE":0,"TOWNNAME":"南區","LI":"金華里","LIN":"8鄰","STREET":"金華路","SECT":"二段","MAREA":" ","LANE":"５７巷","ALLEY":" ","HOUSE_NO":"４２號","E_COORD97":166942.39000000001,"N_COORD97":2542127.3199999998,"ADDRESS":"金華路二段５７巷４２號","OBJECTID":303860},"geometry":{"x":166942.39000000153,"y":2542127.320000004}},{"attributes":{"ID":303869,"DIS_CODE":0,"TOWNNAME":"南區","LI":"金華里","LIN":"8鄰","STREET":"金華路","SECT":"二段","MAREA":" ","LANE":"５７巷","ALLEY":" ","HOUSE_NO":"４６號","E_COORD97":166932.70999999999,"N_COORD97":2542128.4199999999,"ADDRESS":"金華路二段５７巷４６號","OBJECTID":303861},"geometry":{"x":166932.71000000089,"y":2542128.4199999999}},{"attributes":{"ID":303870,"DIS_CODE":0,"TOWNNAME":"佳里區","LI":"安西里","LIN":"55鄰","STREET":"佳安東路","SECT":" ","MAREA":" ","LANE":" ","ALLEY":" ","HOUSE_NO":"３２號三樓之１","E_COORD97":163754.29000000001,"N_COORD97":2562339.8100000001,"ADDRESS":"佳安東路３２號三樓之１","OBJECTID":303862},"geometry":{"x":163754.29000000004,"y":2562339.8100000005}},{"attributes":{"ID":303871,"DIS_CODE":0,"TOWNNAME":"佳里區","LI":"安西里","LIN":"55鄰","STREET":"佳安東路","SECT":" ","MAREA":" ","LANE":" ","ALLEY":" ","HOUSE_NO":"３２號三樓之２","E_COORD97":163754.29000000001,"N_COORD97":2562339.8100000001,"ADDRESS":"佳安東路３２號三樓之２","OBJECTID":303863},"geometry":{"x":163754.29000000004,"y":2562339.8100000005}},{"attributes":{"ID":303872,"DIS_CODE":0,"TOWNNAME":"佳里區","LI":"安西里","LIN":"55鄰","STREET":"佳安東路","SECT":" ","MAREA":" ","LANE":" ","ALLEY":" ","HOUSE_NO":"３２號五樓之１","E_COORD97":163754.29000000001,"N_COORD97":2562339.8100000001,"ADDRESS":"佳安東路３２號五樓之１","OBJECTID":303864},"geometry":{"x":163754.29000000004,"y":2562339.8100000005}},{"attributes":{"ID":303873,"DIS_CODE":0,"TOWNNAME":"佳里區","LI":"安西里","LIN":"55鄰","STREET":"佳安東路","SECT":" ","MAREA":" ","LANE":" ","ALLEY":" ","HOUSE_NO":"３２號五樓之２","E_COORD97":163754.29000000001,"N_COORD97":2562339.8100000001,"ADDRESS":"佳安東路３２號五樓之２","OBJECTID":303865},"geometry":{"x":163754.29000000004,"y":2562339.8100000005}},{"attributes":{"ID":303874,"DIS_CODE":0,"TOWNNAME":"佳里區","LI":"安西里","LIN":"55鄰","STREET":"佳安東路","SECT":" ","MAREA":" ","LANE":" ","ALLEY":" ","HOUSE_NO":"３２號六樓之１","E_COORD97":163754.29000000001,"N_COORD97":2562339.8100000001,"ADDRESS":"佳安東路３２號六樓之１","OBJECTID":303866},"geometry":{"x":163754.29000000004,"y":2562339.8100000005}},{"attributes":{"ID":303875,"DIS_CODE":0,"TOWNNAME":"安南區","LI":"海西里","LIN":"8鄰","STREET":"海中街","SECT":" ","MAREA":" ","LANE":"７７巷","ALLEY":" ","HOUSE_NO":"５２號","E_COORD97":166282.75,"N_COORD97":2548889.04,"ADDRESS":"海中街７７巷５２號","OBJECTID":303867},"geometry":{"x":166282.75000000093,"y":2548889.040000001}},{"attributes":{"ID":303876,"DIS_CODE":0,"TOWNNAME":"安南區","LI":"海西里","LIN":"7鄰","STREET":"海中街","SECT":" ","MAREA":" ","LANE":"１２１巷","ALLEY":" ","HOUSE_NO":"３９號","E_COORD97":166301.26999999999,"N_COORD97":2548997.0600000001,"ADDRESS":"海中街１２１巷３９號","OBJECTID":303868},"geometry":{"x":166301.27000000048,"y":2548997.0600000005}},{"attributes":{"ID":303877,"DIS_CODE":0,"TOWNNAME":"安南區","LI":"海佃里","LIN":" ","STREET":"國安街","SECT":" ","MAREA":" ","LANE":"９２巷","ALLEY":" ","HOUSE_NO":"４號","E_COORD97":166915.23999999999,"N_COORD97":2547027.2400000002,"ADDRESS":"國安街９２巷４號","OBJECTID":303869},"geometry":{"x":166915.24000000115,"y":2547027.2400000021}},{"attributes":{"ID":303878,"DIS_CODE":0,"TOWNNAME":"安南區","LI":"海佃里","LIN":" ","STREET":"海佃路","SECT":"一段","MAREA":" ","LANE":"１７９巷","ALLEY":" ","HOUSE_NO":"２號","E_COORD97":167105.28,"N_COORD97":2547165.2799999998,"ADDRESS":"海佃路一段１７９巷２號","OBJECTID":303870},"geometry":{"x":167105.28000000119,"y":2547165.2800000012}},{"attributes":{"ID":303879,"DIS_CODE":0,"TOWNNAME":"安南區","LI":"海佃里","LIN":" ","STREET":"海佃路","SECT":"一段","MAREA":" ","LANE":"２１３巷","ALLEY":" ","HOUSE_NO":"４３號","E_COORD97":166997.54999999999,"N_COORD97":2547222.48,"ADDRESS":"海佃路一段２１３巷４３號","OBJECTID":303871},"geometry":{"x":166997.55000000075,"y":2547222.4800000023}},{"attributes":{"ID":303880,"DIS_CODE":0,"TOWNNAME":"安南區","LI":"海佃里","LIN":" ","STREET":"海佃路","SECT":"一段","MAREA":" ","LANE":"２２７巷","ALLEY":" ","HOUSE_NO":"５８號","E_COORD97":166955.64999999999,"N_COORD97":2547299.3399999999,"ADDRESS":"海佃路一段２２７巷５８號","OBJECTID":303872},"geometry":{"x":166955.6500000013,"y":2547299.3399999999}},{"attributes":{"ID":303881,"DIS_CODE":0,"TOWNNAME":"安南區","LI":"海佃里","LIN":"24鄰","STREET":"國安街","SECT":" ","MAREA":" ","LANE":"１５６巷","ALLEY":" ","HOUSE_NO":"１４４號","E_COORD97":166679.16,"N_COORD97":2547361.54,"ADDRESS":"國安街１５６巷１４４號","OBJECTID":303873},"geometry":{"x":166679.16000000015,"y":2547361.5399999991}},{"attributes":{"ID":303882,"DIS_CODE":0,"TOWNNAME":"安南區","LI":"海東里","LIN":" ","STREET":"海環街","SECT":" ","MAREA":" ","LANE":"３２巷","ALLEY":" ","HOUSE_NO":"２０號","E_COORD97":166649.89999999999,"N_COORD97":2548912,"ADDRESS":"海環街３２巷２０號","OBJECTID":303874},"geometry":{"x":166649.9000000013,"y":2548912}},{"attributes":{"ID":303883,"DIS_CODE":0,"TOWNNAME":"南區","LI":"金華里","LIN":"8鄰","STREET":"金華路","SECT":"二段","MAREA":" ","LANE":"５７巷","ALLEY":" ","HOUSE_NO":"４８號","E_COORD97":166928.29000000001,"N_COORD97":2542129.25,"ADDRESS":"金華路二段５７巷４８號","OBJECTID":303875},"geometry":{"x":166928.29000000097,"y":2542129.25}},{"attributes":{"ID":303884,"DIS_CODE":0,"TOWNNAME":"南區","LI":"金華里","LIN":"8鄰","STREET":"金華路","SECT":"二段","MAREA":" ","LANE":"６３巷","ALLEY":" ","HOUSE_NO":"３３號","E_COORD97":166916.67000000001,"N_COORD97":2542146.0899999999,"ADDRESS":"金華路二段６３巷３３號","OBJECTID":303876},"geometry":{"x":166916.66999999993,"y":2542146.0900000017}},{"attributes":{"ID":303885,"DIS_CODE":0,"TOWNNAME":"南區","LI":"金華里","LIN":"8鄰","STREET":"金華路","SECT":"二段","MAREA":" ","LANE":"６３巷","ALLEY":" ","HOUSE_NO":"３５號","E_COORD97":166909.20999999999,"N_COORD97":2542146.3700000001,"ADDRESS":"金華路二段６３巷３５號","OBJECTID":303877},"geometry":{"x":166909.20999999996,"y":2542146.370000001}},{"attributes":{"ID":303886,"DIS_CODE":0,"TOWNNAME":"南區","LI":"金華里","LIN":"8鄰","STREET":"金華路","SECT":"二段","MAREA":" ","LANE":"６３巷","ALLEY":" ","HOUSE_NO":"３７號","E_COORD97":166902.85000000001,"N_COORD97":2542147.4700000002,"ADDRESS":"金華路二段６３巷３７號","OBJECTID":303878},"geometry":{"x":166902.84999999963,"y":2542147.4700000025}},{"attributes":{"ID":303887,"DIS_CODE":0,"TOWNNAME":"南區","LI":"金華里","LIN":"8鄰","STREET":"金華路","SECT":"二段","MAREA":" ","LANE":"６３巷","ALLEY":" ","HOUSE_NO":"３９號","E_COORD97":166894.54999999999,"N_COORD97":2542148.8500000001,"ADDRESS":"金華路二段６３巷３９號","OBJECTID":303879},"geometry":{"x":166894.55000000075,"y":2542148.8499999996}},{"attributes":{"ID":303888,"DIS_CODE":0,"TOWNNAME":"南區","LI":"金華里","LIN":"8鄰","STREET":"金華路","SECT":"二段","MAREA":" ","LANE":"６３巷","ALLEY":" ","HOUSE_NO":"４１號","E_COORD97":166889.29999999999,"N_COORD97":2542148.8500000001,"ADDRESS":"金華路二段６３巷４１號","OBJECTID":303880},"geometry":{"x":166889.30000000075,"y":2542148.8499999996}},{"attributes":{"ID":303889,"DIS_CODE":0,"TOWNNAME":"佳里區","LI":"安西里","LIN":"55鄰","STREET":"佳安東路","SECT":" ","MAREA":" ","LANE":" ","ALLEY":" ","HOUSE_NO":"３２號六樓之２","E_COORD97":163754.29000000001,"N_COORD97":2562339.8100000001,"ADDRESS":"佳安東路３２號六樓之２","OBJECTID":303881},"geometry":{"x":163754.29000000004,"y":2562339.8100000005}},{"attributes":{"ID":303890,"DIS_CODE":0,"TOWNNAME":"佳里區","LI":"安西里","LIN":"55鄰","STREET":"佳安東路","SECT":" ","MAREA":" ","LANE":" ","ALLEY":" ","HOUSE_NO":"３２號四樓之１","E_COORD97":163754.29000000001,"N_COORD97":2562339.8100000001,"ADDRESS":"佳安東路３２號四樓之１","OBJECTID":303882},"geometry":{"x":163754.29000000004,"y":2562339.8100000005}},{"attributes":{"ID":303891,"DIS_CODE":0,"TOWNNAME":"佳里區","LI":"安西里","LIN":"55鄰","STREET":"佳安東路","SECT":" ","MAREA":" ","LANE":" ","ALLEY":" ","HOUSE_NO":"３２號四樓之２","E_COORD97":163754.29000000001,"N_COORD97":2562339.8100000001,"ADDRESS":"佳安東路３２號四樓之２","OBJECTID":303883},"geometry":{"x":163754.29000000004,"y":2562339.8100000005}},{"attributes":{"ID":303892,"DIS_CODE":0,"TOWNNAME":"佳里區","LI":"安西里","LIN":"55鄰","STREET":"佳安東路","SECT":" ","MAREA":" ","LANE":" ","ALLEY":" ","HOUSE_NO":"６號七樓之１","E_COORD97":163780.29000000001,"N_COORD97":2562359.77,"ADDRESS":"佳安東路６號七樓之１","OBJECTID":303884},"geometry":{"x":163780.29000000097,"y":2562359.7699999996}},{"attributes":{"ID":303893,"DIS_CODE":0,"TOWNNAME":"佳里區","LI":"安西里","LIN":"55鄰","STREET":"佳安東路","SECT":" ","MAREA":" ","LANE":" ","ALLEY":" ","HOUSE_NO":"６號七樓之２","E_COORD97":163780.29000000001,"N_COORD97":2562359.77,"ADDRESS":"佳安東路６號七樓之２","OBJECTID":303885},"geometry":{"x":163780.29000000097,"y":2562359.7699999996}},{"attributes":{"ID":303894,"DIS_CODE":0,"TOWNNAME":"佳里區","LI":"安西里","LIN":"55鄰","STREET":"佳安東路","SECT":" ","MAREA":" ","LANE":" ","ALLEY":" ","HOUSE_NO":"６號九樓之１","E_COORD97":163780.29000000001,"N_COORD97":2562359.77,"ADDRESS":"佳安東路６號九樓之１","OBJECTID":303886},"geometry":{"x":163780.29000000097,"y":2562359.7699999996}},{"attributes":{"ID":303895,"DIS_CODE":0,"TOWNNAME":"佳里區","LI":"安西里","LIN":"55鄰","STREET":"佳安東路","SECT":" ","MAREA":" ","LANE":" ","ALLEY":" ","HOUSE_NO":"６號九樓之２","E_COORD97":163780.29000000001,"N_COORD97":2562359.77,"ADDRESS":"佳安東路６號九樓之２","OBJECTID":303887},"geometry":{"x":163780.29000000097,"y":2562359.7699999996}},{"attributes":{"ID":303896,"DIS_CODE":0,"TOWNNAME":"佳里區","LI":"安西里","LIN":"55鄰","STREET":"佳安東路","SECT":" ","MAREA":" ","LANE":" ","ALLEY":" ","HOUSE_NO":"６號二樓之１","E_COORD97":163780.29000000001,"N_COORD97":2562359.77,"ADDRESS":"佳安東路６號二樓之１","OBJECTID":303888},"geometry":{"x":163780.29000000097,"y":2562359.7699999996}},{"attributes":{"ID":303897,"DIS_CODE":0,"TOWNNAME":"佳里區","LI":"安西里","LIN":"55鄰","STREET":"佳安東路","SECT":" ","MAREA":" ","LANE":" ","ALLEY":" ","HOUSE_NO":"６號二樓之２","E_COORD97":163780.29000000001,"N_COORD97":2562359.77,"ADDRESS":"佳安東路６號二樓之２","OBJECTID":303889},"geometry":{"x":163780.29000000097,"y":2562359.7699999996}},{"attributes":{"ID":303898,"DIS_CODE":0,"TOWNNAME":"白河區","LI":"內角里","LIN":"4鄰","STREET":" ","SECT":" ","MAREA":"內角","LANE":" ","ALLEY":" ","HOUSE_NO":"５６號","E_COORD97":192604.56,"N_COORD97":2588417.77,"ADDRESS":"內角５６號","OBJECTID":303890},"geometry":{"x":192604.56000000145,"y":2588417.7699999996}},{"attributes":{"ID":303899,"DIS_CODE":0,"TOWNNAME":"安南區","LI":"海東里","LIN":"16鄰","STREET":"海佃路","SECT":"二段","MAREA":" ","LANE":" ","ALLEY":" ","HOUSE_NO":"３４５號之５","E_COORD97":166745.32999999999,"N_COORD97":2548827.25,"ADDRESS":"海佃路二段３４５號之５","OBJECTID":303891},"geometry":{"x":166745.33000000101,"y":2548827.2500000019}},{"attributes":{"ID":303900,"DIS_CODE":0,"TOWNNAME":"安南區","LI":"海東里","LIN":" ","STREET":"海中街","SECT":" ","MAREA":" ","LANE":" ","ALLEY":" ","HOUSE_NO":"１５０號","E_COORD97":166341.07000000001,"N_COORD97":2549177.1200000001,"ADDRESS":"海中街１５０號","OBJECTID":303892},"geometry":{"x":166341.0700000003,"y":2549177.120000001}},{"attributes":{"ID":303901,"DIS_CODE":0,"TOWNNAME":"安南區","LI":"海東里","LIN":" ","STREET":"海中街","SECT":" ","MAREA":" ","LANE":"１３８巷","ALLEY":" ","HOUSE_NO":"１３號","E_COORD97":166387.73000000001,"N_COORD97":2549167.48,"ADDRESS":"海中街１３８巷１３號","OBJECTID":303893},"geometry":{"x":166387.73000000045,"y":2549167.4800000004}},{"attributes":{"ID":303902,"DIS_CODE":0,"TOWNNAME":"安南區","LI":"海東里","LIN":"24鄰","STREET":"同安路","SECT":" ","MAREA":" ","LANE":"１９５巷","ALLEY":" ","HOUSE_NO":"４號","E_COORD97":167128.22,"N_COORD97":2549160.9100000001,"ADDRESS":"同安路１９５巷４號","OBJECTID":303894},"geometry":{"x":167128.21999999881,"y":2549160.9100000001}},{"attributes":{"ID":303903,"DIS_CODE":0,"TOWNNAME":"安南區","LI":"海東里","LIN":"4鄰","STREET":"海中街","SECT":" ","MAREA":" ","LANE":"１６４巷","ALLEY":" ","HOUSE_NO":"１號","E_COORD97":166313.47,"N_COORD97":2549229.8599999999,"ADDRESS":"海中街１６４巷１號","OBJECTID":303895},"geometry":{"x":166313.47000000067,"y":2549229.8600000013}},{"attributes":{"ID":303904,"DIS_CODE":0,"TOWNNAME":"安南區","LI":"海東里","LIN":" ","STREET":"海佃路","SECT":"二段","MAREA":" ","LANE":"４１７巷","ALLEY":" ","HOUSE_NO":"１５號","E_COORD97":166673.89000000001,"N_COORD97":2548953.7000000002,"ADDRESS":"海佃路二段４１７巷１５號","OBJECTID":303896},"geometry":{"x":166673.88999999966,"y":2548953.6999999993}},{"attributes":{"ID":303905,"DIS_CODE":0,"TOWNNAME":"安南區","LI":"海東里","LIN":" ","STREET":"海中街","SECT":" ","MAREA":" ","LANE":" ","ALLEY":" ","HOUSE_NO":"７０號","E_COORD97":166422.07000000001,"N_COORD97":2548934.96,"ADDRESS":"海中街７０號","OBJECTID":303897},"geometry":{"x":166422.07000000123,"y":2548934.9600000046}},{"attributes":{"ID":303906,"DIS_CODE":0,"TOWNNAME":"安南區","LI":"海東里","LIN":" ","STREET":"海中街","SECT":" ","MAREA":" ","LANE":" ","ALLEY":" ","HOUSE_NO":"７６號","E_COORD97":166417.72,"N_COORD97":2548946.9399999999,"ADDRESS":"海中街７６號","OBJECTID":303898},"geometry":{"x":166417.71999999974,"y":2548946.9400000032}},{"attributes":{"ID":303907,"DIS_CODE":0,"TOWNNAME":"安南區","LI":"海東里","LIN":" ","STREET":"海佃路","SECT":"二段","MAREA":" ","LANE":" ","ALLEY":" ","HOUSE_NO":"３１５號","E_COORD97":166787.67000000001,"N_COORD97":2548717.3399999999,"ADDRESS":"海佃路二段３１５號","OBJECTID":303899},"geometry":{"x":166787.66999999993,"y":2548717.3400000036}},{"attributes":{"ID":303908,"DIS_CODE":0,"TOWNNAME":"安南區","LI":"海東里","LIN":" ","STREET":"海佃路","SECT":"二段","MAREA":" ","LANE":" ","ALLEY":" ","HOUSE_NO":"２８５號","E_COORD97":166804.82999999999,"N_COORD97":2548645.23,"ADDRESS":"海佃路二段２８５號","OBJECTID":303900},"geometry":{"x":166804.83000000101,"y":2548645.2300000023}},{"attributes":{"ID":303909,"DIS_CODE":0,"TOWNNAME":"安南區","LI":"海東里","LIN":" ","STREET":"海佃路","SECT":"二段","MAREA":" ","LANE":" ","ALLEY":" ","HOUSE_NO":"２３３之１號","E_COORD97":166859.97,"N_COORD97":2548454.23,"ADDRESS":"海佃路二段２３３之１號","OBJECTID":303901},"geometry":{"x":166859.96999999974,"y":2548454.2299999986}},{"attributes":{"ID":303910,"DIS_CODE":0,"TOWNNAME":"安南區","LI":"海東里","LIN":" ","STREET":"海佃路","SECT":"二段","MAREA":" ","LANE":" ","ALLEY":" ","HOUSE_NO":"６１０號","E_COORD97":166690,"N_COORD97":2549280.02,"ADDRESS":"海佃路二段６１０號","OBJECTID":303902},"geometry":{"x":166690.00000000093,"y":2549280.0200000014}},{"attributes":{"ID":303911,"DIS_CODE":0,"TOWNNAME":"安南區","LI":"海東里","LIN":" ","STREET":"海佃路","SECT":"二段","MAREA":" ","LANE":" ","ALLEY":" ","HOUSE_NO":"６０２號","E_COORD97":166700.22,"N_COORD97":2549265.1600000001,"ADDRESS":"海佃路二段６０２號","OBJECTID":303903},"geometry":{"x":166700.22000000067,"y":2549265.160000002}},{"attributes":{"ID":303912,"DIS_CODE":0,"TOWNNAME":"安南區","LI":"海南里","LIN":"7鄰","STREET":"府安路","SECT":"六段","MAREA":" ","LANE":"１０３巷","ALLEY":" ","HOUSE_NO":"１５號","E_COORD97":166711.48000000001,"N_COORD97":2546507.3500000001,"ADDRESS":"府安路六段１０３巷１５號","OBJECTID":303904},"geometry":{"x":166711.48000000045,"y":2546507.3500000015}},{"attributes":{"ID":303913,"DIS_CODE":0,"TOWNNAME":"安南區","LI":"海南里","LIN":"10鄰","STREET":"府安路","SECT":"七段","MAREA":" ","LANE":"１０巷","ALLEY":" ","HOUSE_NO":"９號","E_COORD97":166080.04000000001,"N_COORD97":2546071.2400000002,"ADDRESS":"府安路七段１０巷９號","OBJECTID":303905},"geometry":{"x":166080.04000000004,"y":2546071.2400000021}},{"attributes":{"ID":303914,"DIS_CODE":0,"TOWNNAME":"安南區","LI":"海南里","LIN":"10鄰","STREET":"府安路","SECT":"七段","MAREA":" ","LANE":"１０巷","ALLEY":" ","HOUSE_NO":"１１號","E_COORD97":166074.04000000001,"N_COORD97":2546079.46,"ADDRESS":"府安路七段１０巷１１號","OBJECTID":303906},"geometry":{"x":166074.04000000097,"y":2546079.4600000009}},{"attributes":{"ID":303915,"DIS_CODE":0,"TOWNNAME":"安南區","LI":"海南里","LIN":"10鄰","STREET":"府安路","SECT":"七段","MAREA":" ","LANE":"１０巷","ALLEY":" ","HOUSE_NO":"８號","E_COORD97":166106.95999999999,"N_COORD97":2546075.3999999999,"ADDRESS":"府安路七段１０巷８號","OBJECTID":303907},"geometry":{"x":166106.96000000089,"y":2546075.4000000004}},{"attributes":{"ID":303916,"DIS_CODE":0,"TOWNNAME":"安南區","LI":"海東里","LIN":"20鄰","STREET":"海佃路","SECT":"二段","MAREA":" ","LANE":" ","ALLEY":" ","HOUSE_NO":"２４１號之２","E_COORD97":166841.616289,"N_COORD97":2548546.91475,"ADDRESS":"海佃路二段２４１號之２","OBJECTID":303908},"geometry":{"x":166841.61628900096,"y":2548546.9147490002}},{"attributes":{"ID":303917,"DIS_CODE":0,"TOWNNAME":"安南區","LI":"海東里","LIN":" ","STREET":"海佃路","SECT":"二段","MAREA":" ","LANE":" ","ALLEY":" ","HOUSE_NO":"３６５之１號","E_COORD97":166752.561996,"N_COORD97":2548845.78792,"ADDRESS":"海佃路二段３６５之１號","OBJECTID":303909},"geometry":{"x":166752.56199599989,"y":2548845.7879210003}},{"attributes":{"ID":303918,"DIS_CODE":0,"TOWNNAME":"安南區","LI":"海南里","LIN":"10鄰","STREET":"府安路","SECT":"七段","MAREA":" ","LANE":"１０巷","ALLEY":" ","HOUSE_NO":"１０號","E_COORD97":166098.79000000001,"N_COORD97":2546083.9900000002,"ADDRESS":"府安路七段１０巷１０號","OBJECTID":303910},"geometry":{"x":166098.79000000004,"y":2546083.9900000021}},{"attributes":{"ID":303919,"DIS_CODE":0,"TOWNNAME":"南區","LI":"金華里","LIN":"8鄰","STREET":"金華路","SECT":"二段","MAREA":" ","LANE":"６３巷","ALLEY":" ","HOUSE_NO":"６３號","E_COORD97":166870.76999999999,"N_COORD97":2542146.6400000001,"ADDRESS":"金華路二段６３巷６３號","OBJECTID":303911},"geometry":{"x":166870.77000000048,"y":2542146.6400000025}},{"attributes":{"ID":303920,"DIS_CODE":0,"TOWNNAME":"南區","LI":"金華里","LIN":"8鄰","STREET":"金華路","SECT":"二段","MAREA":" ","LANE":"６３巷","ALLEY":" ","HOUSE_NO":"６５號","E_COORD97":166865.51999999999,"N_COORD97":2542146.9199999999,"ADDRESS":"金華路二段６３巷６５號","OBJECTID":303912},"geometry":{"x":166865.52000000048,"y":2542146.9200000018}},{"attributes":{"ID":303921,"DIS_CODE":0,"TOWNNAME":"新營區","LI":"民榮里","LIN":"5鄰","STREET":"和平路","SECT":" ","MAREA":" ","LANE":"３２巷","ALLEY":" ","HOUSE_NO":"２２號","E_COORD97":179332.54000000001,"N_COORD97":2577830.5699999998,"ADDRESS":"和平路３２巷２２號","OBJECTID":303913},"geometry":{"x":179332.54000000097,"y":2577830.5700000022}},{"attributes":{"ID":303922,"DIS_CODE":0,"TOWNNAME":"北區","LI":"勝安里","LIN":"8鄰","STREET":"開元路","SECT":" ","MAREA":" ","LANE":"７３巷","ALLEY":" ","HOUSE_NO":"７２號","E_COORD97":169886.62,"N_COORD97":2545402.23,"ADDRESS":"開元路７３巷７２號","OBJECTID":303914},"geometry":{"x":169886.62000000011,"y":2545402.2300000004}},{"attributes":{"ID":303923,"DIS_CODE":0,"TOWNNAME":"北區","LI":"華興里","LIN":"8鄰","STREET":"南園街","SECT":" ","MAREA":" ","LANE":"１１４巷","ALLEY":" ","HOUSE_NO":"２號","E_COORD97":170592.91,"N_COORD97":2545341.0699999998,"ADDRESS":"南園街１１４巷２號","OBJECTID":303915},"geometry":{"x":170592.91000000108,"y":2545341.0700000022}},{"attributes":{"ID":303924,"DIS_CODE":0,"TOWNNAME":"北區","LI":"華興里","LIN":"8鄰","STREET":"南園街","SECT":" ","MAREA":" ","LANE":"１１４巷","ALLEY":" ","HOUSE_NO":"３號","E_COORD97":170592.82999999999,"N_COORD97":2545322.8500000001,"ADDRESS":"南園街１１４巷３號","OBJECTID":303916},"geometry":{"x":170592.83000000194,"y":2545322.8499999996}},{"attributes":{"ID":303925,"DIS_CODE":0,"TOWNNAME":"關廟區","LI":"龜洞里","LIN":"8鄰","STREET":"官崙街","SECT":" ","MAREA":" ","LANE":"５６巷","ALLEY":" ","HOUSE_NO":"１號","E_COORD97":183458.98999999999,"N_COORD97":2533370.2999999998,"ADDRESS":"官崙街５６巷１號","OBJECTID":303917},"geometry":{"x":183458.99000000115,"y":2533370.3000000045}},{"attributes":{"ID":303926,"DIS_CODE":0,"TOWNNAME":"關廟區","LI":"龜洞里","LIN":"8鄰","STREET":"官崙街","SECT":" ","MAREA":" ","LANE":"５６巷","ALLEY":" ","HOUSE_NO":"１０號","E_COORD97":183445.19,"N_COORD97":2533378.2999999998,"ADDRESS":"官崙街５６巷１０號","OBJECTID":303918},"geometry":{"x":183445.19000000041,"y":2533378.3000000026}},{"attributes":{"ID":303927,"DIS_CODE":0,"TOWNNAME":"後壁區","LI":"竹新里","LIN":"9鄰","STREET":" ","SECT":" ","MAREA":"竹圍後","LANE":" ","ALLEY":" ","HOUSE_NO":"６８號","E_COORD97":178509.57000000001,"N_COORD97":2582355.04,"ADDRESS":"竹圍後６８號","OBJECTID":303919},"geometry":{"x":178509.5700000003,"y":2582355.040000001}},{"attributes":{"ID":303928,"DIS_CODE":0,"TOWNNAME":"關廟區","LI":"南花里","LIN":"8鄰","STREET":"四維街","SECT":" ","MAREA":" ","LANE":"２３１巷","ALLEY":" ","HOUSE_NO":"１７號","E_COORD97":181782.81,"N_COORD97":2540220.25,"ADDRESS":"四維街２３１巷１７號","OBJECTID":303920},"geometry":{"x":181782.81000000052,"y":2540220.25}},{"attributes":{"ID":303929,"DIS_CODE":0,"TOWNNAME":"佳里區","LI":"安西里","LIN":"55鄰","STREET":"佳安東路","SECT":" ","MAREA":" ","LANE":" ","ALLEY":" ","HOUSE_NO":"６號八樓之１","E_COORD97":163780.29000000001,"N_COORD97":2562359.77,"ADDRESS":"佳安東路６號八樓之１","OBJECTID":303921},"geometry":{"x":163780.29000000097,"y":2562359.7699999996}},{"attributes":{"ID":303930,"DIS_CODE":0,"TOWNNAME":"佳里區","LI":"安西里","LIN":"55鄰","STREET":"佳安東路","SECT":" ","MAREA":" ","LANE":" ","ALLEY":" ","HOUSE_NO":"６號八樓之２","E_COORD97":163780.29000000001,"N_COORD97":2562359.77,"ADDRESS":"佳安東路６號八樓之２","OBJECTID":303922},"geometry":{"x":163780.29000000097,"y":2562359.7699999996}},{"attributes":{"ID":303931,"DIS_CODE":0,"TOWNNAME":"佳里區","LI":"安西里","LIN":"55鄰","STREET":"佳安東路","SECT":" ","MAREA":" ","LANE":" ","ALLEY":" ","HOUSE_NO":"６號十樓之１","E_COORD97":163780.29000000001,"N_COORD97":2562359.77,"ADDRESS":"佳安東路６號十樓之１","OBJECTID":303923},"geometry":{"x":163780.29000000097,"y":2562359.7699999996}},{"attributes":{"ID":303932,"DIS_CODE":0,"TOWNNAME":"佳里區","LI":"安西里","LIN":"55鄰","STREET":"佳安東路","SECT":" ","MAREA":" ","LANE":" ","ALLEY":" ","HOUSE_NO":"６號十樓之２","E_COORD97":163780.29000000001,"N_COORD97":2562359.77,"ADDRESS":"佳安東路６號十樓之２","OBJECTID":303924},"geometry":{"x":163780.29000000097,"y":2562359.7699999996}},{"attributes":{"ID":303933,"DIS_CODE":0,"TOWNNAME":"佳里區","LI":"安西里","LIN":"55鄰","STREET":"佳安東路","SECT":" ","MAREA":" ","LANE":" ","ALLEY":" ","HOUSE_NO":"６號三樓之１","E_COORD97":163780.29000000001,"N_COORD97":2562359.77,"ADDRESS":"佳安東路６號三樓之１","OBJECTID":303925},"geometry":{"x":163780.29000000097,"y":2562359.7699999996}},{"attributes":{"ID":303934,"DIS_CODE":0,"TOWNNAME":"佳里區","LI":"安西里","LIN":"55鄰","STREET":"佳安東路","SECT":" ","MAREA":" ","LANE":" ","ALLEY":" ","HOUSE_NO":"６號三樓之２","E_COORD97":163780.29000000001,"N_COORD97":2562359.77,"ADDRESS":"佳安東路６號三樓之２","OBJECTID":303926},"geometry":{"x":163780.29000000097,"y":2562359.7699999996}},{"attributes":{"ID":303935,"DIS_CODE":0,"TOWNNAME":"佳里區","LI":"安西里","LIN":"55鄰","STREET":"佳安東路","SECT":" ","MAREA":" ","LANE":" ","ALLEY":" ","HOUSE_NO":"６號五樓之１","E_COORD97":163780.29000000001,"N_COORD97":2562359.77,"ADDRESS":"佳安東路６號五樓之１","OBJECTID":303927},"geometry":{"x":163780.29000000097,"y":2562359.7699999996}},{"attributes":{"ID":303936,"DIS_CODE":0,"TOWNNAME":"安南區","LI":"梅花里","LIN":" ","STREET":"安中路","SECT":"一段","MAREA":" ","LANE":"６１９巷","ALLEY":" ","HOUSE_NO":"７８號","E_COORD97":167759.04999999999,"N_COORD97":2548954.1699999999,"ADDRESS":"安中路一段６１９巷７８號","OBJECTID":303928},"geometry":{"x":167759.05000000075,"y":2548954.1700000018}},{"attributes":{"ID":303937,"DIS_CODE":0,"TOWNNAME":"安南區","LI":"梅花里","LIN":" ","STREET":"安中路","SECT":"一段","MAREA":" ","LANE":"６１９巷","ALLEY":" ","HOUSE_NO":"９０號之２","E_COORD97":167809.97,"N_COORD97":2548884.73,"ADDRESS":"安中路一段６１９巷９０號之２","OBJECTID":303929},"geometry":{"x":167809.97000000067,"y":2548884.7299999986}},{"attributes":{"ID":303938,"DIS_CODE":0,"TOWNNAME":"安南區","LI":"梅花里","LIN":" ","STREET":"安中路","SECT":"一段","MAREA":" ","LANE":"６１９巷","ALLEY":" ","HOUSE_NO":"７５號","E_COORD97":167775.69,"N_COORD97":2548933.7999999998,"ADDRESS":"安中路一段６１９巷７５號","OBJECTID":303930},"geometry":{"x":167775.69000000134,"y":2548933.8000000026}},{"attributes":{"ID":303939,"DIS_CODE":0,"TOWNNAME":"安南區","LI":"梅花里","LIN":" ","STREET":"安中路","SECT":"一段","MAREA":" ","LANE":"６３９巷","ALLEY":" ","HOUSE_NO":"３９號","E_COORD97":167746.91,"N_COORD97":2549052.1499999999,"ADDRESS":"安中路一段６３９巷３９號","OBJECTID":303931},"geometry":{"x":167746.91000000108,"y":2549052.1500000022}},{"attributes":{"ID":303940,"DIS_CODE":0,"TOWNNAME":"安南區","LI":"梅花里","LIN":" ","STREET":"安中路","SECT":"一段","MAREA":" ","LANE":"６３９巷","ALLEY":" ","HOUSE_NO":"７５號","E_COORD97":167727.12,"N_COORD97":2548968.5600000001,"ADDRESS":"安中路一段６３９巷７５號","OBJECTID":303932},"geometry":{"x":167727.12000000011,"y":2548968.5600000024}},{"attributes":{"ID":303941,"DIS_CODE":0,"TOWNNAME":"安南區","LI":"梅花里","LIN":" ","STREET":"安中路","SECT":"一段","MAREA":" ","LANE":"７５７巷","ALLEY":" ","HOUSE_NO":"２５號","E_COORD97":167403.82999999999,"N_COORD97":2549255.5299999998,"ADDRESS":"安中路一段７５７巷２５號","OBJECTID":303933},"geometry":{"x":167403.83000000007,"y":2549255.5300000012}},{"attributes":{"ID":303942,"DIS_CODE":0,"TOWNNAME":"安南區","LI":"梅花里","LIN":" ","STREET":"安中路","SECT":"一段","MAREA":" ","LANE":"３８２巷","ALLEY":" ","HOUSE_NO":"１５號","E_COORD97":167369.89999999999,"N_COORD97":2549341.1499999999,"ADDRESS":"安中路一段３８２巷１５號","OBJECTID":303934},"geometry":{"x":167369.90000000037,"y":2549341.1500000022}},{"attributes":{"ID":303943,"DIS_CODE":0,"TOWNNAME":"安南區","LI":"梅花里","LIN":" ","STREET":"安中路","SECT":"一段","MAREA":" ","LANE":"３４４巷","ALLEY":" ","HOUSE_NO":"５號","E_COORD97":167314.60999999999,"N_COORD97":2549268.4399999999,"ADDRESS":"安中路一段３４４巷５號","OBJECTID":303935},"geometry":{"x":167314.61000000127,"y":2549268.4399999995}},{"attributes":{"ID":303944,"DIS_CODE":0,"TOWNNAME":"安南區","LI":"梅花里","LIN":" ","STREET":"安中路","SECT":"一段","MAREA":" ","LANE":"３４４巷","ALLEY":" ","HOUSE_NO":"２３號","E_COORD97":167345.89000000001,"N_COORD97":2549242.6299999999,"ADDRESS":"安中路一段３４４巷２３號","OBJECTID":303936},"geometry":{"x":167345.89000000153,"y":2549242.629999999}},{"attributes":{"ID":303945,"DIS_CODE":0,"TOWNNAME":"關廟區","LI":"東勢里","LIN":"8鄰","STREET":"四維街","SECT":" ","MAREA":" ","LANE":"７２巷","ALLEY":" ","HOUSE_NO":"１９號","E_COORD97":181971.16,"N_COORD97":2539564.25,"ADDRESS":"四維街７２巷１９號","OBJECTID":303937},"geometry":{"x":181971.16000000108,"y":2539564.2500000037}},{"attributes":{"ID":303946,"DIS_CODE":0,"TOWNNAME":"關廟區","LI":"南花里","LIN":"8鄰","STREET":"四維街","SECT":" ","MAREA":" ","LANE":"２３１巷","ALLEY":" ","HOUSE_NO":"１２號","E_COORD97":181824.31,"N_COORD97":2540226.25,"ADDRESS":"四維街２３１巷１２號","OBJECTID":303938},"geometry":{"x":181824.30999999959,"y":2540226.2500000019}},{"attributes":{"ID":303947,"DIS_CODE":0,"TOWNNAME":"佳里區","LI":"安西里","LIN":"55鄰","STREET":"佳安東路","SECT":" ","MAREA":" ","LANE":" ","ALLEY":" ","HOUSE_NO":"６號五樓之２","E_COORD97":163780.29000000001,"N_COORD97":2562359.77,"ADDRESS":"佳安東路６號五樓之２","OBJECTID":303939},"geometry":{"x":163780.29000000097,"y":2562359.7699999996}},{"attributes":{"ID":303948,"DIS_CODE":0,"TOWNNAME":"佳里區","LI":"安西里","LIN":"55鄰","STREET":"佳安東路","SECT":" ","MAREA":" ","LANE":" ","ALLEY":" ","HOUSE_NO":"６號六樓之１","E_COORD97":163780.29000000001,"N_COORD97":2562359.77,"ADDRESS":"佳安東路６號六樓之１","OBJECTID":303940},"geometry":{"x":163780.29000000097,"y":2562359.7699999996}},{"attributes":{"ID":303949,"DIS_CODE":0,"TOWNNAME":"佳里區","LI":"安西里","LIN":"55鄰","STREET":"佳安東路","SECT":" ","MAREA":" ","LANE":" ","ALLEY":" ","HOUSE_NO":"６號六樓之２","E_COORD97":163780.29000000001,"N_COORD97":2562359.77,"ADDRESS":"佳安東路６號六樓之２","OBJECTID":303941},"geometry":{"x":163780.29000000097,"y":2562359.7699999996}},{"attributes":{"ID":303950,"DIS_CODE":0,"TOWNNAME":"佳里區","LI":"安西里","LIN":"55鄰","STREET":"佳安東路","SECT":" ","MAREA":" ","LANE":" ","ALLEY":" ","HOUSE_NO":"６號四樓之１","E_COORD97":163780.29000000001,"N_COORD97":2562359.77,"ADDRESS":"佳安東路６號四樓之１","OBJECTID":303942},"geometry":{"x":163780.29000000097,"y":2562359.7699999996}},{"attributes":{"ID":303951,"DIS_CODE":0,"TOWNNAME":"佳里區","LI":"安西里","LIN":"55鄰","STREET":"佳安東路","SECT":" ","MAREA":" ","LANE":" ","ALLEY":" ","HOUSE_NO":"６號四樓之２","E_COORD97":163780.29000000001,"N_COORD97":2562359.77,"ADDRESS":"佳安東路６號四樓之２","OBJECTID":303943},"geometry":{"x":163780.29000000097,"y":2562359.7699999996}},{"attributes":{"ID":303952,"DIS_CODE":0,"TOWNNAME":"佳里區","LI":"安西里","LIN":"55鄰","STREET":"佳安東路","SECT":" ","MAREA":" ","LANE":" ","ALLEY":" ","HOUSE_NO":"８號二樓","E_COORD97":163810.64000000001,"N_COORD97":2562359.1600000001,"ADDRESS":"佳安東路８號二樓","OBJECTID":303944},"geometry":{"x":163810.63999999966,"y":2562359.160000002}},{"attributes":{"ID":303953,"DIS_CODE":0,"TOWNNAME":"歸仁區","LI":"南保里","LIN":"55鄰","STREET":"民權南路","SECT":" ","MAREA":" ","LANE":" ","ALLEY":" ","HOUSE_NO":"１７６號","E_COORD97":176951.04000000001,"N_COORD97":2540399.29,"ADDRESS":"民權南路１７６號","OBJECTID":303945},"geometry":{"x":176951.04000000004,"y":2540399.2899999991}},{"attributes":{"ID":303954,"DIS_CODE":0,"TOWNNAME":"歸仁區","LI":"南保里","LIN":"55鄰","STREET":"民權南路","SECT":" ","MAREA":" ","LANE":" ","ALLEY":" ","HOUSE_NO":"１８４號","E_COORD97":176951.04000000001,"N_COORD97":2540383.29,"ADDRESS":"民權南路１８４號","OBJECTID":303946},"geometry":{"x":176951.04000000004,"y":2540383.2899999972}},{"attributes":{"ID":303955,"DIS_CODE":0,"TOWNNAME":"歸仁區","LI":"南保里","LIN":"55鄰","STREET":"民權南路","SECT":" ","MAREA":" ","LANE":" ","ALLEY":" ","HOUSE_NO":"１８８號","E_COORD97":176950.94,"N_COORD97":2540373.29,"ADDRESS":"民權南路１８８號","OBJECTID":303947},"geometry":{"x":176950.94000000041,"y":2540373.2900000028}},{"attributes":{"ID":303956,"DIS_CODE":0,"TOWNNAME":"歸仁區","LI":"南保里","LIN":"55鄰","STREET":"民權南路","SECT":" ","MAREA":" ","LANE":" ","ALLEY":" ","HOUSE_NO":"１８０號","E_COORD97":176951.04000000001,"N_COORD97":2540392.29,"ADDRESS":"民權南路１８０號","OBJECTID":303948},"geometry":{"x":176951.04000000004,"y":2540392.2899999991}},{"attributes":{"ID":303957,"DIS_CODE":0,"TOWNNAME":"歸仁區","LI":"南保里","LIN":"55鄰","STREET":"民權十二街","SECT":" ","MAREA":" ","LANE":" ","ALLEY":" ","HOUSE_NO":"３號","E_COORD97":176930.10999999999,"N_COORD97":2540401.52,"ADDRESS":"民權十二街３號","OBJECTID":303949},"geometry":{"x":176930.11000000127,"y":2540401.5199999996}},{"attributes":{"ID":303958,"DIS_CODE":0,"TOWNNAME":"安南區","LI":"淵中里","LIN":" ","STREET":"安中路","SECT":"四段","MAREA":" ","LANE":"９４巷","ALLEY":" ","HOUSE_NO":"３７號","E_COORD97":165193.23000000001,"N_COORD97":2550134.6400000001,"ADDRESS":"安中路四段９４巷３７號","OBJECTID":303950},"geometry":{"x":165193.23000000138,"y":2550134.6400000025}},{"attributes":{"ID":303959,"DIS_CODE":0,"TOWNNAME":"安南區","LI":"淵中里","LIN":" ","STREET":"安中路","SECT":"四段","MAREA":" ","LANE":"２９０巷","ALLEY":" ","HOUSE_NO":"２３４號","E_COORD97":165001.98000000001,"N_COORD97":2550245.1699999999,"ADDRESS":"安中路四段２９０巷２３４號","OBJECTID":303951},"geometry":{"x":165001.98000000138,"y":2550245.1700000018}},{"attributes":{"ID":303960,"DIS_CODE":0,"TOWNNAME":"後壁區","LI":"頂長里","LIN":"5鄰","STREET":" ","SECT":" ","MAREA":"長短樹","LANE":" ","ALLEY":" ","HOUSE_NO":"３７號","E_COORD97":181321.29000000001,"N_COORD97":2585013.1499999999,"ADDRESS":"長短樹３７號","OBJECTID":303952},"geometry":{"x":181321.29000000004,"y":2585013.1499999985}},{"attributes":{"ID":303961,"DIS_CODE":0,"TOWNNAME":"安南區","LI":"淵西里","LIN":" ","STREET":"安中路","SECT":"四段","MAREA":" ","LANE":"２１０巷","ALLEY":" ","HOUSE_NO":"４９號","E_COORD97":164870.75,"N_COORD97":2550214.4700000002,"ADDRESS":"安中路四段２１０巷４９號","OBJECTID":303953},"geometry":{"x":164870.75000000093,"y":2550214.4700000007}},{"attributes":{"ID":303962,"DIS_CODE":0,"TOWNNAME":"安南區","LI":"淵西里","LIN":" ","STREET":"安中路","SECT":"四段","MAREA":" ","LANE":"２４０巷","ALLEY":" ","HOUSE_NO":"１８號","E_COORD97":164716.92000000001,"N_COORD97":2550180.3199999998,"ADDRESS":"安中路四段２４０巷１８號","OBJECTID":303954},"geometry":{"x":164716.92000000086,"y":2550180.3200000022}},{"attributes":{"ID":303963,"DIS_CODE":0,"TOWNNAME":"安南區","LI":"淵西里","LIN":" ","STREET":"安中路","SECT":"四段","MAREA":" ","LANE":"２９０巷","ALLEY":" ","HOUSE_NO":"８９號","E_COORD97":164721.42999999999,"N_COORD97":2550291.0899999999,"ADDRESS":"安中路四段２９０巷８９號","OBJECTID":303955},"geometry":{"x":164721.43000000156,"y":2550291.0899999999}},{"attributes":{"ID":303964,"DIS_CODE":0,"TOWNNAME":"安南區","LI":"淵西里","LIN":" ","STREET":"安中路","SECT":"四段","MAREA":" ","LANE":"２９０巷","ALLEY":" ","HOUSE_NO":"１２６號","E_COORD97":164807.35000000001,"N_COORD97":2550257.0699999998,"ADDRESS":"安中路四段２９０巷１２６號","OBJECTID":303956},"geometry":{"x":164807.35000000056,"y":2550257.0700000022}},{"attributes":{"ID":303965,"DIS_CODE":0,"TOWNNAME":"安南區","LI":"淵西里","LIN":"4鄰","STREET":"安中路","SECT":"四段","MAREA":" ","LANE":"２９０巷","ALLEY":" ","HOUSE_NO":"１５９號","E_COORD97":164847.85999999999,"N_COORD97":2550267.6899999999,"ADDRESS":"安中路四段２９０巷１５９號","OBJECTID":303957},"geometry":{"x":164847.8599999994,"y":2550267.6900000032}},{"attributes":{"ID":303966,"DIS_CODE":0,"TOWNNAME":"關廟區","LI":"南花里","LIN":"8鄰","STREET":"四維街","SECT":" ","MAREA":" ","LANE":"２３１巷","ALLEY":" ","HOUSE_NO":"２８號","E_COORD97":181792.01000000001,"N_COORD97":2540229.25,"ADDRESS":"四維街２３１巷２８號","OBJECTID":303958},"geometry":{"x":181792.01000000071,"y":2540229.2500000019}},{"attributes":{"ID":303967,"DIS_CODE":0,"TOWNNAME":"關廟區","LI":"深坑里","LIN":"8鄰","STREET":"南雄路","SECT":"一段","MAREA":" ","LANE":"４９８巷","ALLEY":" ","HOUSE_NO":"１２號","E_COORD97":181692.07000000001,"N_COORD97":2537906.2999999998,"ADDRESS":"南雄路一段４９８巷１２號","OBJECTID":303959},"geometry":{"x":181692.07000000123,"y":2537906.3000000007}},{"attributes":{"ID":303968,"DIS_CODE":0,"TOWNNAME":"關廟區","LI":"五甲里","LIN":"8鄰","STREET":"五慧街","SECT":" ","MAREA":" ","LANE":"７２巷","ALLEY":" ","HOUSE_NO":"２號","E_COORD97":181109.82000000001,"N_COORD97":2539271.25,"ADDRESS":"五慧街７２巷２號","OBJECTID":303960},"geometry":{"x":181109.8200000003,"y":2539271.25}},{"attributes":{"ID":303969,"DIS_CODE":0,"TOWNNAME":"關廟區","LI":"龜洞里","LIN":"8鄰","STREET":"官崙街","SECT":" ","MAREA":" ","LANE":"５６巷","ALLEY":" ","HOUSE_NO":"２３號","E_COORD97":183414.79000000001,"N_COORD97":2533349.2999999998,"ADDRESS":"官崙街５６巷２３號","OBJECTID":303961},"geometry":{"x":183414.79000000004,"y":2533349.3000000007}},{"attributes":{"ID":303970,"DIS_CODE":0,"TOWNNAME":"關廟區","LI":"松腳里","LIN":"8鄰","STREET":"勝利街","SECT":" ","MAREA":" ","LANE":"１６巷","ALLEY":" ","HOUSE_NO":"２號","E_COORD97":181830.32000000001,"N_COORD97":2539774.2599999998,"ADDRESS":"勝利街１６巷２號","OBJECTID":303962},"geometry":{"x":181830.3200000003,"y":2539774.2600000035}},{"attributes":{"ID":303971,"DIS_CODE":0,"TOWNNAME":"關廟區","LI":"松腳里","LIN":"8鄰","STREET":"四維街","SECT":" ","MAREA":" ","LANE":"１３５巷","ALLEY":" ","HOUSE_NO":"１２號","E_COORD97":181830.01000000001,"N_COORD97":2539780.25,"ADDRESS":"四維街１３５巷１２號","OBJECTID":303963},"geometry":{"x":181830.00999999978,"y":2539780.25}},{"attributes":{"ID":303972,"DIS_CODE":0,"TOWNNAME":"關廟區","LI":"山西里","LIN":"8鄰","STREET":"成功路","SECT":" ","MAREA":" ","LANE":"５５８巷","ALLEY":" ","HOUSE_NO":"１號","E_COORD97":180796.98999999999,"N_COORD97":2540651.27,"ADDRESS":"成功路５５８巷１號","OBJECTID":303964},"geometry":{"x":180796.99000000209,"y":2540651.2699999996}},{"attributes":{"ID":303973,"DIS_CODE":0,"TOWNNAME":"關廟區","LI":"山西里","LIN":"8鄰","STREET":"文衡路","SECT":" ","MAREA":" ","LANE":"１９５巷","ALLEY":" ","HOUSE_NO":"１２號","E_COORD97":180860.81,"N_COORD97":2540696.3300000001,"ADDRESS":"文衡路１９５巷１２號","OBJECTID":303965},"geometry":{"x":180860.81000000052,"y":2540696.3300000038}},{"attributes":{"ID":303974,"DIS_CODE":0,"TOWNNAME":"關廟區","LI":"山西里","LIN":"8鄰","STREET":"文衡路","SECT":" ","MAREA":" ","LANE":"１９５巷","ALLEY":" ","HOUSE_NO":"７號","E_COORD97":180865.26000000001,"N_COORD97":2540678.3300000001,"ADDRESS":"文衡路１９５巷７號","OBJECTID":303966},"geometry":{"x":180865.25999999978,"y":2540678.3300000001}},{"attributes":{"ID":303975,"DIS_CODE":0,"TOWNNAME":"關廟區","LI":"山西里","LIN":"8鄰","STREET":"成功路","SECT":" ","MAREA":" ","LANE":"５５８巷","ALLEY":" ","HOUSE_NO":"３號","E_COORD97":180796.19,"N_COORD97":2540655.2599999998,"ADDRESS":"成功路５５８巷３號","OBJECTID":303967},"geometry":{"x":180796.19000000134,"y":2540655.2599999998}},{"attributes":{"ID":303976,"DIS_CODE":0,"TOWNNAME":"歸仁區","LI":"南保里","LIN":"55鄰","STREET":"民權十二街","SECT":" ","MAREA":" ","LANE":" ","ALLEY":" ","HOUSE_NO":"９號","E_COORD97":176915.98999999999,"N_COORD97":2540401.1200000001,"ADDRESS":"民權十二街９號","OBJECTID":303968},"geometry":{"x":176915.99000000022,"y":2540401.1200000029}},{"attributes":{"ID":303977,"DIS_CODE":0,"TOWNNAME":"歸仁區","LI":"南保里","LIN":"55鄰","STREET":"民權南路","SECT":" ","MAREA":" ","LANE":" ","ALLEY":" ","HOUSE_NO":"１９２號","E_COORD97":176942.06,"N_COORD97":2540362.7799999998,"ADDRESS":"民權南路１９２號","OBJECTID":303969},"geometry":{"x":176942.05999999959,"y":2540362.7799999993}},{"attributes":{"ID":303978,"DIS_CODE":0,"TOWNNAME":"仁德區","LI":"仁義里","LIN":"55鄰","STREET":"中正路","SECT":"二段","MAREA":" ","LANE":" ","ALLEY":" ","HOUSE_NO":"１１６８號","E_COORD97":173288.67000000001,"N_COORD97":2541260.0299999998,"ADDRESS":"中正路二段１１６８號","OBJECTID":303970},"geometry":{"x":173288.66999999993,"y":2541260.0299999975}},{"attributes":{"ID":303979,"DIS_CODE":0,"TOWNNAME":"仁德區","LI":"仁義里","LIN":"55鄰","STREET":"中正路","SECT":"二段","MAREA":" ","LANE":" ","ALLEY":" ","HOUSE_NO":"１１７２號","E_COORD97":173287.54000000001,"N_COORD97":2541267.5299999998,"ADDRESS":"中正路二段１１７２號","OBJECTID":303971},"geometry":{"x":173287.54000000097,"y":2541267.5300000012}},{"attributes":{"ID":303980,"DIS_CODE":0,"TOWNNAME":"仁德區","LI":"仁義里","LIN":"55鄰","STREET":"中正路","SECT":"二段","MAREA":" ","LANE":" ","ALLEY":" ","HOUSE_NO":"１１９０號","E_COORD97":173280.79000000001,"N_COORD97":2541318.77,"ADDRESS":"中正路二段１１９０號","OBJECTID":303972},"geometry":{"x":173280.79000000097,"y":2541318.7699999996}},{"attributes":{"ID":303981,"DIS_CODE":0,"TOWNNAME":"仁德區","LI":"仁義里","LIN":"55鄰","STREET":"中正路","SECT":"二段","MAREA":" ","LANE":" ","ALLEY":" ","HOUSE_NO":"１１８６號","E_COORD97":173284.70999999999,"N_COORD97":2541301.27,"ADDRESS":"中正路二段１１８６號","OBJECTID":303973},"geometry":{"x":173284.70999999996,"y":2541301.2699999996}},{"attributes":{"ID":303982,"DIS_CODE":0,"TOWNNAME":"仁德區","LI":"仁義里","LIN":"55鄰","STREET":"中正路","SECT":"二段","MAREA":" ","LANE":" ","ALLEY":" ","HOUSE_NO":"１１７０號","E_COORD97":173287.79000000001,"N_COORD97":2541264.0299999998,"ADDRESS":"中正路二段１１７０號","OBJECTID":303974},"geometry":{"x":173287.79000000004,"y":2541264.0300000012}},{"attributes":{"ID":303983,"DIS_CODE":0,"TOWNNAME":"仁德區","LI":"仁義里","LIN":"55鄰","STREET":"中正路","SECT":"二段","MAREA":" ","LANE":" ","ALLEY":" ","HOUSE_NO":"１１７４號","E_COORD97":173286.79000000001,"N_COORD97":2541272.0299999998,"ADDRESS":"中正路二段１１７４號","OBJECTID":303975},"geometry":{"x":173286.7900000019,"y":2541272.0300000012}},{"attributes":{"ID":303984,"DIS_CODE":0,"TOWNNAME":"安南區","LI":"淵西里","LIN":"10鄰","STREET":"安中路","SECT":"四段","MAREA":" ","LANE":"３２０巷","ALLEY":" ","HOUSE_NO":"１１號","E_COORD97":164417.28,"N_COORD97":2550314.1299999999,"ADDRESS":"安中路四段３２０巷１１號","OBJECTID":303976},"geometry":{"x":164417.28000000026,"y":2550314.129999999}},{"attributes":{"ID":303985,"DIS_CODE":0,"TOWNNAME":"安南區","LI":"淵西里","LIN":"10鄰","STREET":"安中路","SECT":"四段","MAREA":" ","LANE":"３２０巷","ALLEY":" ","HOUSE_NO":"２３號","E_COORD97":164437.98999999999,"N_COORD97":2550344.4300000002,"ADDRESS":"安中路四段３２０巷２３號","OBJECTID":303977},"geometry":{"x":164437.99000000022,"y":2550344.4300000016}},{"attributes":{"ID":303986,"DIS_CODE":0,"TOWNNAME":"安南區","LI":"淵東里","LIN":" ","STREET":"本原街","SECT":"三段","MAREA":" ","LANE":"２３１巷","ALLEY":" ","HOUSE_NO":"６號","E_COORD97":165401.95000000001,"N_COORD97":2550252.9900000002,"ADDRESS":"本原街三段２３１巷６號","OBJECTID":303978},"geometry":{"x":165401.95000000112,"y":2550252.9900000021}},{"attributes":{"ID":303987,"DIS_CODE":0,"TOWNNAME":"安南區","LI":"淵東里","LIN":" ","STREET":"本原街","SECT":"三段","MAREA":" ","LANE":"２３１巷","ALLEY":" ","HOUSE_NO":"１５號","E_COORD97":165417.19,"N_COORD97":2550260.04,"ADDRESS":"本原街三段２３１巷１５號","OBJECTID":303979},"geometry":{"x":165417.19000000227,"y":2550260.0399999991}},{"attributes":{"ID":303988,"DIS_CODE":0,"TOWNNAME":"安南區","LI":"淵東里","LIN":" ","STREET":"智安二街","SECT":" ","MAREA":" ","LANE":"１０３巷","ALLEY":" ","HOUSE_NO":"２號","E_COORD97":165609.01999999999,"N_COORD97":2550311.1699999999,"ADDRESS":"智安二街１０３巷２號","OBJECTID":303980},"geometry":{"x":165609.02000000142,"y":2550311.1699999999}},{"attributes":{"ID":303989,"DIS_CODE":0,"TOWNNAME":"安南區","LI":"淵東里","LIN":" ","STREET":"智安一街","SECT":" ","MAREA":" ","LANE":"１３巷","ALLEY":" ","HOUSE_NO":"１５號","E_COORD97":165640.34,"N_COORD97":2549995.6499999999,"ADDRESS":"智安一街１３巷１５號","OBJECTID":303981},"geometry":{"x":165640.33999999985,"y":2549995.6500000022}},{"attributes":{"ID":303990,"DIS_CODE":0,"TOWNNAME":"安南區","LI":"理想里","LIN":" ","STREET":"大安街","SECT":" ","MAREA":" ","LANE":"１１８巷","ALLEY":" ","HOUSE_NO":"１７號","E_COORD97":167091.87,"N_COORD97":2548059.3700000001,"ADDRESS":"大安街１１８巷１７號","OBJECTID":303982},"geometry":{"x":167091.87000000011,"y":2548059.370000001}},{"attributes":{"ID":303991,"DIS_CODE":0,"TOWNNAME":"安南區","LI":"理想里","LIN":" ","STREET":"大安街","SECT":" ","MAREA":" ","LANE":"１１８巷","ALLEY":" ","HOUSE_NO":"２４號","E_COORD97":167102.48000000001,"N_COORD97":2548036.4900000002,"ADDRESS":"大安街１１８巷２４號","OBJECTID":303983},"geometry":{"x":167102.48000000138,"y":2548036.4900000021}},{"attributes":{"ID":303992,"DIS_CODE":0,"TOWNNAME":"安南區","LI":"理想里","LIN":"13鄰","STREET":"大安街","SECT":" ","MAREA":" ","LANE":"５９巷","ALLEY":" ","HOUSE_NO":"６號","E_COORD97":167164.75,"N_COORD97":2548037.6000000001,"ADDRESS":"大安街５９巷６號","OBJECTID":303984},"geometry":{"x":167164.75000000093,"y":2548037.6000000034}},{"attributes":{"ID":303993,"DIS_CODE":0,"TOWNNAME":"安南區","LI":"理想里","LIN":"18鄰","STREET":"大安街","SECT":" ","MAREA":" ","LANE":"２５７巷","ALLEY":" ","HOUSE_NO":"２號","E_COORD97":167462.70999999999,"N_COORD97":2548465.0499999998,"ADDRESS":"大安街２５７巷２號","OBJECTID":303985},"geometry":{"x":167462.71000000089,"y":2548465.0500000007}},{"attributes":{"ID":303994,"DIS_CODE":0,"TOWNNAME":"關廟區","LI":"東勢里","LIN":"8鄰","STREET":"四維街","SECT":" ","MAREA":" ","LANE":"７２巷","ALLEY":" ","HOUSE_NO":"１５號","E_COORD97":181957.35999999999,"N_COORD97":2539565.25,"ADDRESS":"四維街７２巷１５號","OBJECTID":303986},"geometry":{"x":181957.36000000034,"y":2539565.2500000019}},{"attributes":{"ID":303995,"DIS_CODE":0,"TOWNNAME":"關廟區","LI":"北花里","LIN":"8鄰","STREET":"四維街","SECT":" ","MAREA":" ","LANE":"３８０巷","ALLEY":" ","HOUSE_NO":"２１號","E_COORD97":181946.01000000001,"N_COORD97":2540282.25,"ADDRESS":"四維街３８０巷２１號","OBJECTID":303987},"geometry":{"x":181946.01000000071,"y":2540282.25}},{"attributes":{"ID":303996,"DIS_CODE":0,"TOWNNAME":"關廟區","LI":"東勢里","LIN":"8鄰","STREET":"四維街","SECT":" ","MAREA":" ","LANE":"７２巷","ALLEY":" ","HOUSE_NO":"１６號","E_COORD97":181953.56,"N_COORD97":2539550.25,"ADDRESS":"四維街７２巷１６號","OBJECTID":303988},"geometry":{"x":181953.55999999866,"y":2539550.25}},{"attributes":{"ID":303997,"DIS_CODE":0,"TOWNNAME":"佳里區","LI":"安西里","LIN":"55鄰","STREET":"佳安東路","SECT":" ","MAREA":" ","LANE":" ","ALLEY":" ","HOUSE_NO":"２號","E_COORD97":163756.22,"N_COORD97":2562359.9199999999,"ADDRESS":"佳安東路２號","OBJECTID":303989},"geometry":{"x":163756.21999999974,"y":2562359.9200000037}},{"attributes":{"ID":303998,"DIS_CODE":0,"TOWNNAME":"佳里區","LI":"安西里","LIN":"55鄰","STREET":"佳安東路","SECT":" ","MAREA":" ","LANE":" ","ALLEY":" ","HOUSE_NO":"６號","E_COORD97":163780.29000000001,"N_COORD97":2562359.77,"ADDRESS":"佳安東路６號","OBJECTID":303990},"geometry":{"x":163780.29000000097,"y":2562359.7699999996}},{"attributes":{"ID":303999,"DIS_CODE":0,"TOWNNAME":"佳里區","LI":"安西里","LIN":"55鄰","STREET":"佳安東路","SECT":" ","MAREA":" ","LANE":" ","ALLEY":" ","HOUSE_NO":"８號","E_COORD97":163810.64000000001,"N_COORD97":2562359.1600000001,"ADDRESS":"佳安東路８號","OBJECTID":303991},"geometry":{"x":163810.63999999966,"y":2562359.160000002}},{"attributes":{"ID":304000,"DIS_CODE":0,"TOWNNAME":"歸仁區","LI":"南保里","LIN":"55鄰","STREET":"民權十二街","SECT":" ","MAREA":" ","LANE":" ","ALLEY":" ","HOUSE_NO":"７號","E_COORD97":176911.89000000001,"N_COORD97":2540401.3500000001,"ADDRESS":"民權十二街７號","OBJECTID":303992},"geometry":{"x":176911.8900000006,"y":2540401.3500000015}},{"attributes":{"ID":304001,"DIS_CODE":0,"TOWNNAME":"安平區","LI":"建平里","LIN":"28鄰","STREET":"建平九街","SECT":" ","MAREA":" ","LANE":" ","ALLEY":" ","HOUSE_NO":"７０－１號","E_COORD97":165978,"N_COORD97":2543543.46,"ADDRESS":"建平九街７０－１號","OBJECTID":303993},"geometry":{"x":165978.00000000093,"y":2543543.4600000009}},{"attributes":{"ID":304002,"DIS_CODE":0,"TOWNNAME":"安南區","LI":"砂崙里","LIN":"7鄰","STREET":"青砂街","SECT":"一段","MAREA":" ","LANE":" ","ALLEY":" ","HOUSE_NO":"６１６號","E_COORD97":160055.51000000001,"N_COORD97":2552739.6000000001,"ADDRESS":"青砂街一段６１６號","OBJECTID":303994},"geometry":{"x":160055.50999999978,"y":2552739.5999999978}},{"attributes":{"ID":304003,"DIS_CODE":0,"TOWNNAME":"安南區","LI":"城中里","LIN":"7鄰","STREET":"安中路","SECT":"六段","MAREA":" ","LANE":" ","ALLEY":" ","HOUSE_NO":"３３１號","E_COORD97":160764.39999999999,"N_COORD97":2551538.6200000001,"ADDRESS":"安中路六段３３１號","OBJECTID":303995},"geometry":{"x":160764.4000000013,"y":2551538.6200000029}},{"attributes":{"ID":304004,"DIS_CODE":0,"TOWNNAME":"安南區","LI":"城中里","LIN":"7鄰","STREET":"安中路","SECT":"六段","MAREA":" ","LANE":" ","ALLEY":" ","HOUSE_NO":"３３３號","E_COORD97":160761.85999999999,"N_COORD97":2551543.0600000001,"ADDRESS":"安中路六段３３３號","OBJECTID":303996},"geometry":{"x":160761.86000000034,"y":2551543.0600000005}},{"attributes":{"ID":304005,"DIS_CODE":0,"TOWNNAME":"中西區","LI":"西賢里","LIN":"7鄰","STREET":"和緯路","SECT":"五段","MAREA":" ","LANE":" ","ALLEY":" ","HOUSE_NO":"２８１號","E_COORD97":165894.54999999999,"N_COORD97":2545050.96,"ADDRESS":"和緯路五段２８１號","OBJECTID":303997},"geometry":{"x":165894.55000000075,"y":2545050.9600000028}},{"attributes":{"ID":304006,"DIS_CODE":0,"TOWNNAME":"中西區","LI":"西賢里","LIN":"7鄰","STREET":"和緯路","SECT":"五段","MAREA":" ","LANE":" ","ALLEY":" ","HOUSE_NO":"２７９號","E_COORD97":165900.64999999999,"N_COORD97":2545050.5800000001,"ADDRESS":"和緯路五段２７９號","OBJECTID":303998},"geometry":{"x":165900.6500000013,"y":2545050.5800000001}},{"attributes":{"ID":304007,"DIS_CODE":0,"TOWNNAME":"中西區","LI":"西賢里","LIN":"7鄰","STREET":"和緯路","SECT":"五段","MAREA":" ","LANE":" ","ALLEY":" ","HOUSE_NO":"２８３號","E_COORD97":165889.35000000001,"N_COORD97":2545051.4700000002,"ADDRESS":"和緯路五段２８３號","OBJECTID":303999},"geometry":{"x":165889.34999999963,"y":2545051.4700000007}},{"attributes":{"ID":304008,"DIS_CODE":0,"TOWNNAME":"安南區","LI":"理想里","LIN":"7鄰","STREET":"海佃路","SECT":"二段","MAREA":" ","LANE":"１７６巷","ALLEY":" ","HOUSE_NO":"２號","E_COORD97":167024.76000000001,"N_COORD97":2548184.75,"ADDRESS":"海佃路二段１７６巷２號","OBJECTID":304000},"geometry":{"x":167024.76000000164,"y":2548184.75}}]}