{"displayFieldName":"TOWNNAME","fieldAliases":{"ID":"ID","DIS_CODE":"DIS_CODE","TOWNNAME":"TOWNNAME","LI":"LI","LIN":"LIN","STREET":"STREET","SECT":"SECT","MAREA":"MAREA","LANE":"LANE","ALLEY":"ALLEY","HOUSE_NO":"HOUSE_NO","E_COORD97":"E_COORD97","N_COORD97":"N_COORD97","ADDRESS":"ADDRESS","OBJECTID":"OBJECTID"},"geometryType":"esriGeometryPoint","spatialReference":{"wkid":102443,"latestWkid":3826},"fields":[{"name":"ID","type":"esriFieldTypeDouble","alias":"ID"},{"name":"DIS_CODE","type":"esriFieldTypeInteger","alias":"DIS_CODE"},{"name":"TOWNNAME","type":"esriFieldTypeString","alias":"TOWNNAME","length":8},{"name":"LI","type":"esriFieldTypeString","alias":"LI","length":8},{"name":"LIN","type":"esriFieldTypeString","alias":"LIN","length":12},{"name":"STREET","type":"esriFieldTypeString","alias":"STREET","length":20},{"name":"SECT","type":"esriFieldTypeString","alias":"SECT","length":8},{"name":"MAREA","type":"esriFieldTypeString","alias":"MAREA","length":12},{"name":"LANE","type":"esriFieldTypeString","alias":"LANE","length":10},{"name":"ALLEY","type":"esriFieldTypeString","alias":"ALLEY","length":10},{"name":"HOUSE_NO","type":"esriFieldTypeString","alias":"HOUSE_NO","length":20},{"name":"E_COORD97","type":"esriFieldTypeDouble","alias":"E_COORD97"},{"name":"N_COORD97","type":"esriFieldTypeDouble","alias":"N_COORD97"},{"name":"ADDRESS","type":"esriFieldTypeString","alias":"ADDRESS","length":50},{"name":"OBJECTID","type":"esriFieldTypeOID","alias":"OBJECTID"}],"features":[{"attributes":{"ID":342210,"DIS_CODE":0,"TOWNNAME":"安南區","LI":"砂崙里","LIN":"5鄰","STREET":"青砂街","SECT":"一段","MAREA":" ","LANE":"６３３巷","ALLEY":" ","HOUSE_NO":"１號","E_COORD97":159927.85999999999,"N_COORD97":2552658.5600000001,"ADDRESS":"青砂街一段６３３巷１號","OBJECTID":342201},"geometry":{"x":159927.86000000034,"y":2552658.5600000005}},{"attributes":{"ID":342211,"DIS_CODE":0,"TOWNNAME":"安南區","LI":"砂崙里","LIN":"5鄰","STREET":"青砂街","SECT":"一段","MAREA":" ","LANE":"６３３巷","ALLEY":" ","HOUSE_NO":"１號之７","E_COORD97":159890.60000000001,"N_COORD97":2552644.9199999999,"ADDRESS":"青砂街一段６３３巷１號之７","OBJECTID":342202},"geometry":{"x":159890.60000000149,"y":2552644.9199999999}},{"attributes":{"ID":342212,"DIS_CODE":0,"TOWNNAME":"安南區","LI":"砂崙里","LIN":"5鄰","STREET":"青砂街","SECT":"一段","MAREA":" ","LANE":"６３３巷","ALLEY":" ","HOUSE_NO":"２號","E_COORD97":159918.81,"N_COORD97":2552701.4199999999,"ADDRESS":"青砂街一段６３３巷２號","OBJECTID":342203},"geometry":{"x":159918.80999999959,"y":2552701.4200000018}},{"attributes":{"ID":342213,"DIS_CODE":0,"TOWNNAME":"安南區","LI":"砂崙里","LIN":"5鄰","STREET":"青砂街","SECT":"一段","MAREA":" ","LANE":"６３３巷","ALLEY":" ","HOUSE_NO":"４０號","E_COORD97":159815.82999999999,"N_COORD97":2552683.3500000001,"ADDRESS":"青砂街一段６３３巷４０號","OBJECTID":342204},"geometry":{"x":159815.83000000007,"y":2552683.3499999996}},{"attributes":{"ID":342214,"DIS_CODE":0,"TOWNNAME":"安定區","LI":"海寮里","LIN":"5鄰","STREET":" ","SECT":" ","MAREA":"海寮","LANE":" ","ALLEY":" ","HOUSE_NO":"５４號","E_COORD97":169468.86413,"N_COORD97":2555378.8951300001,"ADDRESS":"海寮５４號","OBJECTID":342205},"geometry":{"x":169468.86412999965,"y":2555378.8951300047}},{"attributes":{"ID":342215,"DIS_CODE":0,"TOWNNAME":"安定區","LI":"中沙里","LIN":"5鄰","STREET":" ","SECT":" ","MAREA":"沙崙","LANE":" ","ALLEY":" ","HOUSE_NO":"１之７號","E_COORD97":168637.32999999999,"N_COORD97":2552273.2999999998,"ADDRESS":"沙崙１號之７","OBJECTID":342206},"geometry":{"x":168637.33000000101,"y":2552273.3000000026}},{"attributes":{"ID":342216,"DIS_CODE":0,"TOWNNAME":"安定區","LI":"港口里","LIN":"5鄰","STREET":" ","SECT":" ","MAREA":"港口","LANE":" ","ALLEY":" ","HOUSE_NO":"２６４之７號","E_COORD97":171508.69,"N_COORD97":2554692.2999999998,"ADDRESS":"港口２６４之７號","OBJECTID":342207},"geometry":{"x":171508.69000000134,"y":2554692.2999999989}},{"attributes":{"ID":342217,"DIS_CODE":0,"TOWNNAME":"安定區","LI":"管寮里","LIN":"5鄰","STREET":" ","SECT":" ","MAREA":"管寮","LANE":" ","ALLEY":" ","HOUSE_NO":"４９號","E_COORD97":169984.44,"N_COORD97":2556452.25,"ADDRESS":"管寮４９號","OBJECTID":342208},"geometry":{"x":169984.44000000134,"y":2556452.2500000019}},{"attributes":{"ID":342218,"DIS_CODE":0,"TOWNNAME":"安南區","LI":"砂崙里","LIN":"5鄰","STREET":"青砂街","SECT":"一段","MAREA":" ","LANE":"６３３巷","ALLEY":" ","HOUSE_NO":"４１號","E_COORD97":159844.41,"N_COORD97":2552650.9199999999,"ADDRESS":"青砂街一段６３３巷４１號","OBJECTID":342209},"geometry":{"x":159844.41000000015,"y":2552650.9200000018}},{"attributes":{"ID":342219,"DIS_CODE":0,"TOWNNAME":"安南區","LI":"砂崙里","LIN":"5鄰","STREET":"青砂街","SECT":"一段","MAREA":" ","LANE":"６３３巷","ALLEY":" ","HOUSE_NO":"４８號","E_COORD97":159795.13,"N_COORD97":2552682.7799999998,"ADDRESS":"青砂街一段６３３巷４８號","OBJECTID":342210},"geometry":{"x":159795.12999999989,"y":2552682.7799999993}},{"attributes":{"ID":342220,"DIS_CODE":0,"TOWNNAME":"安南區","LI":"砂崙里","LIN":"5鄰","STREET":"青砂街","SECT":"一段","MAREA":" ","LANE":"６３３巷","ALLEY":" ","HOUSE_NO":"６號","E_COORD97":159906.04999999999,"N_COORD97":2552695.1699999999,"ADDRESS":"青砂街一段６３３巷６號","OBJECTID":342211},"geometry":{"x":159906.04999999981,"y":2552695.1699999999}},{"attributes":{"ID":342221,"DIS_CODE":0,"TOWNNAME":"安南區","LI":"海東里","LIN":"5鄰","STREET":"海佃路","SECT":"二段","MAREA":" ","LANE":"５０９巷","ALLEY":" ","HOUSE_NO":"１０６號","E_COORD97":166403.70999999999,"N_COORD97":2549065.23,"ADDRESS":"海佃路二段５０９巷１０６號","OBJECTID":342212},"geometry":{"x":166403.71000000089,"y":2549065.2300000023}},{"attributes":{"ID":342222,"DIS_CODE":0,"TOWNNAME":"永康區","LI":"崑山里","LIN":" ","STREET":"大灣路","SECT":" ","MAREA":" ","LANE":" ","ALLEY":" ","HOUSE_NO":"９８５號","E_COORD97":173303.54000000001,"N_COORD97":2544335.75,"ADDRESS":"大灣路９８５號","OBJECTID":342213},"geometry":{"x":173303.54000000004,"y":2544335.7500000019}},{"attributes":{"ID":342223,"DIS_CODE":0,"TOWNNAME":"永康區","LI":"網寮里","LIN":" ","STREET":"永二街","SECT":" ","MAREA":" ","LANE":" ","ALLEY":" ","HOUSE_NO":"１６８號","E_COORD97":173405.76999999999,"N_COORD97":2546340.5,"ADDRESS":"永二街１６８號","OBJECTID":342214},"geometry":{"x":173405.77000000048,"y":2546340.5000000019}},{"attributes":{"ID":342224,"DIS_CODE":0,"TOWNNAME":"永康區","LI":"永康里","LIN":" ","STREET":"中山北路","SECT":" ","MAREA":" ","LANE":" ","ALLEY":" ","HOUSE_NO":"１６５號","E_COORD97":172319.06,"N_COORD97":2549119.6600000001,"ADDRESS":"中山北路１６５號","OBJECTID":342215},"geometry":{"x":172319.05999999959,"y":2549119.660000002}},{"attributes":{"ID":342225,"DIS_CODE":0,"TOWNNAME":"安定區","LI":"管寮里","LIN":"5鄰","STREET":" ","SECT":" ","MAREA":"管寮","LANE":" ","ALLEY":" ","HOUSE_NO":"４６之２號","E_COORD97":169952.14000000001,"N_COORD97":2556589.2999999998,"ADDRESS":"管寮４６之２號","OBJECTID":342216},"geometry":{"x":169952.13999999966,"y":2556589.3000000026}},{"attributes":{"ID":342226,"DIS_CODE":0,"TOWNNAME":"安定區","LI":"新吉里","LIN":"5鄰","STREET":" ","SECT":" ","MAREA":"新吉","LANE":" ","ALLEY":" ","HOUSE_NO":"３３之２號","E_COORD97":169361.76999999999,"N_COORD97":2554117.2999999998,"ADDRESS":"新吉３３之２號","OBJECTID":342217},"geometry":{"x":169361.76999999955,"y":2554117.3000000026}},{"attributes":{"ID":342227,"DIS_CODE":0,"TOWNNAME":"永康區","LI":"\u25A0洲里","LIN":"20鄰","STREET":"中正南路","SECT":" ","MAREA":" ","LANE":" ","ALLEY":" ","HOUSE_NO":"８２９號","E_COORD97":171752.89999999999,"N_COORD97":2549022.25,"ADDRESS":"中正南路８２９號","OBJECTID":342218},"geometry":{"x":171752.9000000013,"y":2549022.25}},{"attributes":{"ID":342228,"DIS_CODE":0,"TOWNNAME":"永康區","LI":"\u25A0洲里","LIN":"13鄰","STREET":"\u25A0洲一街","SECT":" ","MAREA":" ","LANE":" ","ALLEY":" ","HOUSE_NO":"６６號","E_COORD97":171589.35000000001,"N_COORD97":2549049.9900000002,"ADDRESS":"\u25A0洲一街６６號","OBJECTID":342219},"geometry":{"x":171589.35000000056,"y":2549049.9900000021}},{"attributes":{"ID":342229,"DIS_CODE":0,"TOWNNAME":"永康區","LI":"\u25A0洲里","LIN":"14鄰","STREET":"\u25A0洲一街","SECT":" ","MAREA":" ","LANE":" ","ALLEY":" ","HOUSE_NO":"５６號","E_COORD97":171577.98999999999,"N_COORD97":2549038.5,"ADDRESS":"\u25A0洲一街５６號","OBJECTID":342220},"geometry":{"x":171577.99000000022,"y":2549038.5000000037}},{"attributes":{"ID":342230,"DIS_CODE":0,"TOWNNAME":"永康區","LI":"永康里","LIN":" ","STREET":"永正路","SECT":" ","MAREA":" ","LANE":" ","ALLEY":" ","HOUSE_NO":"８１之５號","E_COORD97":173529.84,"N_COORD97":2547473.0499999998,"ADDRESS":"永正路８１之５號","OBJECTID":342221},"geometry":{"x":173529.83999999985,"y":2547473.0500000026}},{"attributes":{"ID":342231,"DIS_CODE":0,"TOWNNAME":"永康區","LI":"埔園里","LIN":" ","STREET":"中山路","SECT":" ","MAREA":" ","LANE":" ","ALLEY":" ","HOUSE_NO":"１００１號","E_COORD97":176969.78,"N_COORD97":2548211.54,"ADDRESS":"中山路１００１號","OBJECTID":342222},"geometry":{"x":176969.78000000119,"y":2548211.540000001}},{"attributes":{"ID":342232,"DIS_CODE":0,"TOWNNAME":"永康區","LI":"東灣里","LIN":" ","STREET":"大灣東路","SECT":" ","MAREA":" ","LANE":" ","ALLEY":" ","HOUSE_NO":"２２０之５號","E_COORD97":174793.07999999999,"N_COORD97":2544403.54,"ADDRESS":"大灣東路２２０之５號","OBJECTID":342223},"geometry":{"x":174793.08000000007,"y":2544403.540000001}},{"attributes":{"ID":342233,"DIS_CODE":0,"TOWNNAME":"永康區","LI":"勝利里","LIN":" ","STREET":"中華一路","SECT":" ","MAREA":" ","LANE":" ","ALLEY":" ","HOUSE_NO":"２２１號","E_COORD97":171406.57999999999,"N_COORD97":2544966,"ADDRESS":"中華一路２２１號","OBJECTID":342224},"geometry":{"x":171406.58000000194,"y":2544966}},{"attributes":{"ID":342234,"DIS_CODE":0,"TOWNNAME":"永康區","LI":"南灣里","LIN":" ","STREET":"南興路","SECT":" ","MAREA":" ","LANE":" ","ALLEY":" ","HOUSE_NO":"２１之３號","E_COORD97":174133.79000000001,"N_COORD97":2543988.4100000001,"ADDRESS":"南興路２１之３號","OBJECTID":342225},"geometry":{"x":174133.79000000004,"y":2543988.410000002}},{"attributes":{"ID":342235,"DIS_CODE":0,"TOWNNAME":"永康區","LI":"\u25A0洲里","LIN":"26鄰","STREET":"洲尾街","SECT":" ","MAREA":" ","LANE":" ","ALLEY":" ","HOUSE_NO":"２２９號","E_COORD97":170917.95999999999,"N_COORD97":2549088.5099999998,"ADDRESS":"洲尾街２２９號","OBJECTID":342226},"geometry":{"x":170917.96000000089,"y":2549088.5099999998}},{"attributes":{"ID":342236,"DIS_CODE":0,"TOWNNAME":"安定區","LI":"新吉里","LIN":"5鄰","STREET":" ","SECT":" ","MAREA":"新吉","LANE":" ","ALLEY":" ","HOUSE_NO":"３９號","E_COORD97":169300.547758,"N_COORD97":2554060.3855400002,"ADDRESS":"新吉３９號","OBJECTID":342227},"geometry":{"x":169300.54775799997,"y":2554060.385543}},{"attributes":{"ID":342237,"DIS_CODE":0,"TOWNNAME":"東區","LI":"裕聖里","LIN":"1鄰","STREET":"裕忠路","SECT":" ","MAREA":" ","LANE":" ","ALLEY":" ","HOUSE_NO":"２２９號","E_COORD97":172276.29000000001,"N_COORD97":2542528.6499999999,"ADDRESS":"裕忠路２２９號","OBJECTID":342228},"geometry":{"x":172276.29000000004,"y":2542528.6500000041}},{"attributes":{"ID":342238,"DIS_CODE":0,"TOWNNAME":"安定區","LI":"管寮里","LIN":"5鄰","STREET":" ","SECT":" ","MAREA":"管寮","LANE":" ","ALLEY":" ","HOUSE_NO":"４２之２號","E_COORD97":170084.34,"N_COORD97":2556569.2999999998,"ADDRESS":"管寮４２之２號","OBJECTID":342229},"geometry":{"x":170084.34000000078,"y":2556569.3000000007}},{"attributes":{"ID":342239,"DIS_CODE":0,"TOWNNAME":"新市區","LI":"大營里","LIN":"5鄰","STREET":" ","SECT":" ","MAREA":"大營","LANE":" ","ALLEY":" ","HOUSE_NO":"７０號","E_COORD97":179553.23000000001,"N_COORD97":2555568.5,"ADDRESS":"大營７０號","OBJECTID":342230},"geometry":{"x":179553.23000000138,"y":2555568.5000000037}},{"attributes":{"ID":342240,"DIS_CODE":0,"TOWNNAME":"新市區","LI":"三舍里","LIN":"5鄰","STREET":" ","SECT":" ","MAREA":"三舍","LANE":" ","ALLEY":" ","HOUSE_NO":"１１７號","E_COORD97":177943.89999999999,"N_COORD97":2554604.25,"ADDRESS":"三舍１１７號","OBJECTID":342231},"geometry":{"x":177943.9000000013,"y":2554604.2500000019}},{"attributes":{"ID":342241,"DIS_CODE":0,"TOWNNAME":"新市區","LI":"港墘里","LIN":"5鄰","STREET":"民族路","SECT":" ","MAREA":" ","LANE":"９７巷","ALLEY":" ","HOUSE_NO":"１７號","E_COORD97":178453.76999999999,"N_COORD97":2553533.29,"ADDRESS":"民族路９７巷１７號","OBJECTID":342232},"geometry":{"x":178453.77000000048,"y":2553533.2899999991}},{"attributes":{"ID":342242,"DIS_CODE":0,"TOWNNAME":"中西區","LI":"公正里","LIN":"1鄰","STREET":"北門路","SECT":"一段","MAREA":" ","LANE":"１６１巷","ALLEY":" ","HOUSE_NO":"１０號","E_COORD97":169174.76999999999,"N_COORD97":2544076.7799999998,"ADDRESS":"北門路一段１６１巷１０號","OBJECTID":342233},"geometry":{"x":169174.76999999955,"y":2544076.7800000012}},{"attributes":{"ID":342243,"DIS_CODE":0,"TOWNNAME":"新市區","LI":"大營里","LIN":"5鄰","STREET":" ","SECT":" ","MAREA":"大營","LANE":" ","ALLEY":" ","HOUSE_NO":"７７之１號","E_COORD97":179568.57000000001,"N_COORD97":2555498.7999999998,"ADDRESS":"大營７７之１號","OBJECTID":342234},"geometry":{"x":179568.5700000003,"y":2555498.8000000007}},{"attributes":{"ID":342244,"DIS_CODE":0,"TOWNNAME":"中西區","LI":"公正里","LIN":"1鄰","STREET":"北門路","SECT":"一段","MAREA":" ","LANE":"１６１巷","ALLEY":" ","HOUSE_NO":"３２號","E_COORD97":169149.10999999999,"N_COORD97":2544048.6600000001,"ADDRESS":"北門路一段１６１巷３２號","OBJECTID":342235},"geometry":{"x":169149.11000000127,"y":2544048.660000002}},{"attributes":{"ID":342245,"DIS_CODE":0,"TOWNNAME":"中西區","LI":"公正里","LIN":"1鄰","STREET":"北門路","SECT":"一段","MAREA":" ","LANE":"１６１巷","ALLEY":" ","HOUSE_NO":"３４號","E_COORD97":169144.94,"N_COORD97":2544048.0899999999,"ADDRESS":"北門路一段１６１巷３４號","OBJECTID":342236},"geometry":{"x":169144.94000000134,"y":2544048.0900000017}},{"attributes":{"ID":342246,"DIS_CODE":0,"TOWNNAME":"中西區","LI":"公正里","LIN":"1鄰","STREET":"北門路","SECT":"一段","MAREA":" ","LANE":"１６１巷","ALLEY":" ","HOUSE_NO":"３６號","E_COORD97":169134.81,"N_COORD97":2544061.6899999999,"ADDRESS":"北門路一段１６１巷３６號","OBJECTID":342237},"geometry":{"x":169134.81000000052,"y":2544061.6899999995}},{"attributes":{"ID":342247,"DIS_CODE":0,"TOWNNAME":"中西區","LI":"公正里","LIN":"1鄰","STREET":"北門路","SECT":"一段","MAREA":" ","LANE":"１６１巷","ALLEY":" ","HOUSE_NO":"６號","E_COORD97":169173.76999999999,"N_COORD97":2544066.3799999999,"ADDRESS":"北門路一段１６１巷６號","OBJECTID":342238},"geometry":{"x":169173.76999999862,"y":2544066.379999999}},{"attributes":{"ID":342248,"DIS_CODE":0,"TOWNNAME":"中西區","LI":"公正里","LIN":"1鄰","STREET":"北門路","SECT":"一段","MAREA":" ","LANE":"１６１巷","ALLEY":" ","HOUSE_NO":"８號","E_COORD97":169173.76999999999,"N_COORD97":2544070.7400000002,"ADDRESS":"北門路一段１６１巷８號","OBJECTID":342239},"geometry":{"x":169173.76999999862,"y":2544070.7400000021}},{"attributes":{"ID":342249,"DIS_CODE":0,"TOWNNAME":"中西區","LI":"萬昌里","LIN":"1鄰","STREET":"萬昌街","SECT":" ","MAREA":" ","LANE":"２０巷","ALLEY":" ","HOUSE_NO":"１號","E_COORD97":169019.73999999999,"N_COORD97":2543331.04,"ADDRESS":"萬昌街２０巷１號","OBJECTID":342240},"geometry":{"x":169019.74000000022,"y":2543331.0399999991}},{"attributes":{"ID":342250,"DIS_CODE":0,"TOWNNAME":"中西區","LI":"萬昌里","LIN":"1鄰","STREET":"萬昌街","SECT":" ","MAREA":" ","LANE":"２０巷","ALLEY":" ","HOUSE_NO":"２號","E_COORD97":169029.85999999999,"N_COORD97":2543338.6499999999,"ADDRESS":"萬昌街２０巷２號","OBJECTID":342241},"geometry":{"x":169029.8599999994,"y":2543338.6500000041}},{"attributes":{"ID":342251,"DIS_CODE":0,"TOWNNAME":"中西區","LI":"萬昌里","LIN":"1鄰","STREET":"萬昌街","SECT":" ","MAREA":" ","LANE":"２０巷","ALLEY":" ","HOUSE_NO":"３號","E_COORD97":169023.62,"N_COORD97":2543328.1299999999,"ADDRESS":"萬昌街２０巷３號","OBJECTID":342242},"geometry":{"x":169023.62000000104,"y":2543328.1300000008}},{"attributes":{"ID":342252,"DIS_CODE":0,"TOWNNAME":"中西區","LI":"萬昌里","LIN":"1鄰","STREET":"萬昌街","SECT":" ","MAREA":" ","LANE":"２０巷","ALLEY":" ","HOUSE_NO":"５號","E_COORD97":169026.67000000001,"N_COORD97":2543326.1899999999,"ADDRESS":"萬昌街２０巷５號","OBJECTID":342243},"geometry":{"x":169026.66999999993,"y":2543326.1899999995}},{"attributes":{"ID":342253,"DIS_CODE":0,"TOWNNAME":"中西區","LI":"萬昌里","LIN":"1鄰","STREET":"萬昌街","SECT":" ","MAREA":" ","LANE":"２０巷","ALLEY":" ","HOUSE_NO":"８號","E_COORD97":169034.44,"N_COORD97":2543333.25,"ADDRESS":"萬昌街２０巷８號","OBJECTID":342244},"geometry":{"x":169034.44000000041,"y":2543333.25}},{"attributes":{"ID":342254,"DIS_CODE":0,"TOWNNAME":"中西區","LI":"萬昌里","LIN":"1鄰","STREET":"萬昌街","SECT":" ","MAREA":" ","LANE":"２０巷","ALLEY":" ","HOUSE_NO":"９號","E_COORD97":169028.48000000001,"N_COORD97":2543342.8100000001,"ADDRESS":"萬昌街２０巷９號","OBJECTID":342245},"geometry":{"x":169028.48000000045,"y":2543342.8100000024}},{"attributes":{"ID":342255,"DIS_CODE":0,"TOWNNAME":"新化區","LI":"唪口里","LIN":"1鄰","STREET":"大德路","SECT":" ","MAREA":" ","LANE":"１６１巷","ALLEY":" ","HOUSE_NO":"４６號","E_COORD97":177845.48999999999,"N_COORD97":2549206.6899999999,"ADDRESS":"大德路１６１巷４６號","OBJECTID":342246},"geometry":{"x":177845.49000000022,"y":2549206.6900000013}},{"attributes":{"ID":342256,"DIS_CODE":0,"TOWNNAME":"安南區","LI":"青草里","LIN":"1鄰","STREET":"青砂街","SECT":"一段","MAREA":" ","LANE":"６９５巷","ALLEY":" ","HOUSE_NO":"１２２號","E_COORD97":159643.35000000001,"N_COORD97":2552836.5600000001,"ADDRESS":"青砂街一段６９５巷１２２號","OBJECTID":342247},"geometry":{"x":159643.35000000056,"y":2552836.5600000024}},{"attributes":{"ID":342257,"DIS_CODE":0,"TOWNNAME":"安南區","LI":"青草里","LIN":"1鄰","STREET":"青砂街","SECT":"一段","MAREA":" ","LANE":"６９５巷","ALLEY":" ","HOUSE_NO":"１２６號","E_COORD97":159634,"N_COORD97":2552868.7200000002,"ADDRESS":"青砂街一段６９５巷１２６號","OBJECTID":342248},"geometry":{"x":159634.00000000186,"y":2552868.7199999988}},{"attributes":{"ID":342258,"DIS_CODE":0,"TOWNNAME":"善化區","LI":"文正里","LIN":"1鄰","STREET":"進學路","SECT":" ","MAREA":" ","LANE":"國小巷","ALLEY":" ","HOUSE_NO":"７號","E_COORD97":177166.79999999999,"N_COORD97":2559372.75,"ADDRESS":"進學路國小巷７號","OBJECTID":342249},"geometry":{"x":177166.80000000168,"y":2559372.75}},{"attributes":{"ID":342259,"DIS_CODE":0,"TOWNNAME":"安南區","LI":"青草里","LIN":"1鄰","STREET":"青砂街","SECT":"一段","MAREA":" ","LANE":"６９５巷","ALLEY":" ","HOUSE_NO":"１３０號","E_COORD97":159611.97,"N_COORD97":2552864.9900000002,"ADDRESS":"青砂街一段６９５巷１３０號","OBJECTID":342250},"geometry":{"x":159611.9700000016,"y":2552864.9900000002}},{"attributes":{"ID":342260,"DIS_CODE":0,"TOWNNAME":"安南區","LI":"青草里","LIN":"1鄰","STREET":"青砂街","SECT":"一段","MAREA":" ","LANE":"６９５巷","ALLEY":" ","HOUSE_NO":"１３４號","E_COORD97":159629.84,"N_COORD97":2552816.6400000001,"ADDRESS":"青砂街一段６９５巷１３４號","OBJECTID":342251},"geometry":{"x":159629.84000000171,"y":2552816.6400000025}},{"attributes":{"ID":342261,"DIS_CODE":0,"TOWNNAME":"安南區","LI":"青草里","LIN":"1鄰","STREET":"青砂街","SECT":"一段","MAREA":" ","LANE":"６９５巷","ALLEY":" ","HOUSE_NO":"１４０號","E_COORD97":159603.87,"N_COORD97":2552827.0099999998,"ADDRESS":"青砂街一段６９５巷１４０號","OBJECTID":342252},"geometry":{"x":159603.87000000011,"y":2552827.0100000016}},{"attributes":{"ID":342262,"DIS_CODE":0,"TOWNNAME":"新化區","LI":"協興里","LIN":"15鄰","STREET":"大新路","SECT":" ","MAREA":" ","LANE":"１１１巷","ALLEY":" ","HOUSE_NO":"１５號","E_COORD97":178001.88,"N_COORD97":2548680.25,"ADDRESS":"大新路１１１巷１５號","OBJECTID":342253},"geometry":{"x":178001.87999999989,"y":2548680.25}},{"attributes":{"ID":342263,"DIS_CODE":0,"TOWNNAME":"安南區","LI":"青草里","LIN":"1鄰","STREET":"青砂街","SECT":"一段","MAREA":" ","LANE":"６９５巷","ALLEY":" ","HOUSE_NO":"１４２號","E_COORD97":159591.20000000001,"N_COORD97":2552824.3199999998,"ADDRESS":"青砂街一段６９５巷１４２號","OBJECTID":342254},"geometry":{"x":159591.20000000112,"y":2552824.3200000022}},{"attributes":{"ID":342264,"DIS_CODE":0,"TOWNNAME":"安南區","LI":"青草里","LIN":"1鄰","STREET":"青砂街","SECT":"一段","MAREA":" ","LANE":"６９５巷","ALLEY":" ","HOUSE_NO":"１４６號","E_COORD97":159572.70000000001,"N_COORD97":2552824.9100000001,"ADDRESS":"青砂街一段６９５巷１４６號","OBJECTID":342255},"geometry":{"x":159572.70000000019,"y":2552824.9100000001}},{"attributes":{"ID":342265,"DIS_CODE":0,"TOWNNAME":"安南區","LI":"青草里","LIN":"1鄰","STREET":"青砂街","SECT":"一段","MAREA":" ","LANE":"６９５巷","ALLEY":" ","HOUSE_NO":"１５６號","E_COORD97":159550.91,"N_COORD97":2552828.1699999999,"ADDRESS":"青砂街一段６９５巷１５６號","OBJECTID":342256},"geometry":{"x":159550.91000000015,"y":2552828.1700000018}},{"attributes":{"ID":342266,"DIS_CODE":0,"TOWNNAME":"安南區","LI":"青草里","LIN":"1鄰","STREET":"青砂街","SECT":"一段","MAREA":" ","LANE":"６９５巷","ALLEY":" ","HOUSE_NO":"１６４號","E_COORD97":159517.14000000001,"N_COORD97":2552823.8199999998,"ADDRESS":"青砂街一段６９５巷１６４號","OBJECTID":342257},"geometry":{"x":159517.13999999966,"y":2552823.820000004}},{"attributes":{"ID":342267,"DIS_CODE":0,"TOWNNAME":"安平區","LI":"建平里","LIN":"8鄰","STREET":"府前三街","SECT":" ","MAREA":" ","LANE":" ","ALLEY":" ","HOUSE_NO":"１２９號六樓之９","E_COORD97":166494.16,"N_COORD97":2543982.3300000001,"ADDRESS":"府前三街１２９號六樓之９","OBJECTID":342258},"geometry":{"x":166494.16000000108,"y":2543982.3300000019}},{"attributes":{"ID":342268,"DIS_CODE":0,"TOWNNAME":"新市區","LI":"新市里","LIN":"5鄰","STREET":"仁愛街","SECT":" ","MAREA":" ","LANE":" ","ALLEY":" ","HOUSE_NO":"３０１號","E_COORD97":177647.28,"N_COORD97":2553051.7799999998,"ADDRESS":"仁愛街３０１號","OBJECTID":342259},"geometry":{"x":177647.28000000119,"y":2553051.7800000012}},{"attributes":{"ID":342269,"DIS_CODE":0,"TOWNNAME":"東區","LI":"成大里","LIN":"5鄰","STREET":"育樂街","SECT":" ","MAREA":" ","LANE":"１９７巷","ALLEY":" ","HOUSE_NO":"３號","E_COORD97":169541.64000000001,"N_COORD97":2543788.2799999998,"ADDRESS":"育樂街１９７巷３號","OBJECTID":342260},"geometry":{"x":169541.6400000006,"y":2543788.2800000012}},{"attributes":{"ID":342270,"DIS_CODE":0,"TOWNNAME":"東區","LI":"成大里","LIN":"5鄰","STREET":"育樂街","SECT":" ","MAREA":" ","LANE":"１９７巷","ALLEY":" ","HOUSE_NO":"５號","E_COORD97":169547.67999999999,"N_COORD97":2543786.75,"ADDRESS":"育樂街１９７巷５號","OBJECTID":342261},"geometry":{"x":169547.68000000156,"y":2543786.7500000019}},{"attributes":{"ID":342271,"DIS_CODE":0,"TOWNNAME":"東區","LI":"成大里","LIN":"5鄰","STREET":"育樂街","SECT":" ","MAREA":" ","LANE":"１９７巷","ALLEY":" ","HOUSE_NO":"７號","E_COORD97":169552.28,"N_COORD97":2543785.5299999998,"ADDRESS":"育樂街１９７巷７號","OBJECTID":342262},"geometry":{"x":169552.28000000026,"y":2543785.5299999993}},{"attributes":{"ID":342272,"DIS_CODE":0,"TOWNNAME":"東區","LI":"成大里","LIN":"5鄰","STREET":"育樂街","SECT":" ","MAREA":" ","LANE":"１９７巷","ALLEY":" ","HOUSE_NO":"９號","E_COORD97":169563.94,"N_COORD97":2543783.6899999999,"ADDRESS":"育樂街１９７巷９號","OBJECTID":342263},"geometry":{"x":169563.94000000134,"y":2543783.6899999995}},{"attributes":{"ID":342273,"DIS_CODE":0,"TOWNNAME":"安南區","LI":"安東里","LIN":"5鄰","STREET":"安和路","SECT":"一段","MAREA":" ","LANE":"２８８巷","ALLEY":" ","HOUSE_NO":"６６號","E_COORD97":169449.95999999999,"N_COORD97":2548111.3900000001,"ADDRESS":"安和路一段２８８巷６６號","OBJECTID":342264},"geometry":{"x":169449.96000000089,"y":2548111.3900000025}},{"attributes":{"ID":342274,"DIS_CODE":0,"TOWNNAME":"安南區","LI":"安東里","LIN":"5鄰","STREET":"安和路","SECT":"一段","MAREA":" ","LANE":"２８８巷","ALLEY":" ","HOUSE_NO":"６８號","E_COORD97":169463.844266,"N_COORD97":2548110.5776499999,"ADDRESS":"安和路一段２８８巷６８號","OBJECTID":342265},"geometry":{"x":169463.8442660002,"y":2548110.577653002}},{"attributes":{"ID":342275,"DIS_CODE":0,"TOWNNAME":"安南區","LI":"青草里","LIN":"1鄰","STREET":"青砂街","SECT":"一段","MAREA":" ","LANE":"６９５巷","ALLEY":" ","HOUSE_NO":"１６８號","E_COORD97":159498.60999999999,"N_COORD97":2552823.8199999998,"ADDRESS":"青砂街一段６９５巷１６８號","OBJECTID":342266},"geometry":{"x":159498.61000000127,"y":2552823.820000004}},{"attributes":{"ID":342276,"DIS_CODE":0,"TOWNNAME":"安南區","LI":"青草里","LIN":"1鄰","STREET":"青砂街","SECT":"一段","MAREA":" ","LANE":"６９５巷","ALLEY":" ","HOUSE_NO":"１７１號","E_COORD97":159514.01999999999,"N_COORD97":2552780.71,"ADDRESS":"青砂街一段６９５巷１７１號","OBJECTID":342267},"geometry":{"x":159514.01999999955,"y":2552780.7100000009}},{"attributes":{"ID":342277,"DIS_CODE":0,"TOWNNAME":"安南區","LI":"青草里","LIN":"1鄰","STREET":"青砂街","SECT":"一段","MAREA":" ","LANE":"６９５巷","ALLEY":" ","HOUSE_NO":"１７４號","E_COORD97":159471.37,"N_COORD97":2552828.1699999999,"ADDRESS":"青砂街一段６９５巷１７４號","OBJECTID":342268},"geometry":{"x":159471.37000000011,"y":2552828.1700000018}},{"attributes":{"ID":342278,"DIS_CODE":0,"TOWNNAME":"安南區","LI":"青草里","LIN":"1鄰","STREET":"青砂街","SECT":"一段","MAREA":" ","LANE":"６９５巷","ALLEY":" ","HOUSE_NO":"１７５號","E_COORD97":159508.12,"N_COORD97":2552790.98,"ADDRESS":"青砂街一段６９５巷１７５號","OBJECTID":342269},"geometry":{"x":159508.12000000104,"y":2552790.9800000004}},{"attributes":{"ID":342279,"DIS_CODE":0,"TOWNNAME":"安南區","LI":"青草里","LIN":"1鄰","STREET":"青砂街","SECT":"一段","MAREA":" ","LANE":"６９５巷","ALLEY":" ","HOUSE_NO":"１８１號","E_COORD97":159487.06,"N_COORD97":2552781.8900000001,"ADDRESS":"青砂街一段６９５巷１８１號","OBJECTID":342270},"geometry":{"x":159487.05999999959,"y":2552781.8900000006}},{"attributes":{"ID":342280,"DIS_CODE":0,"TOWNNAME":"安南區","LI":"青草里","LIN":"1鄰","STREET":"青砂街","SECT":"一段","MAREA":" ","LANE":"６９５巷","ALLEY":" ","HOUSE_NO":"１８２號","E_COORD97":159460.59,"N_COORD97":2552766.2400000002,"ADDRESS":"青砂街一段６９５巷１８２號","OBJECTID":342271},"geometry":{"x":159460.59000000078,"y":2552766.2400000002}},{"attributes":{"ID":342281,"DIS_CODE":0,"TOWNNAME":"安南區","LI":"青草里","LIN":"1鄰","STREET":"青砂街","SECT":"一段","MAREA":" ","LANE":"６９５巷","ALLEY":" ","HOUSE_NO":"１８５號","E_COORD97":159489.75,"N_COORD97":2552770.6200000001,"ADDRESS":"青砂街一段６９５巷１８５號","OBJECTID":342272},"geometry":{"x":159489.74999999907,"y":2552770.620000001}},{"attributes":{"ID":342282,"DIS_CODE":0,"TOWNNAME":"安南區","LI":"青草里","LIN":"1鄰","STREET":"青砂街","SECT":"一段","MAREA":" ","LANE":"６９５巷","ALLEY":" ","HOUSE_NO":"２０１號","E_COORD97":159492.28,"N_COORD97":2552683.2400000002,"ADDRESS":"青砂街一段６９５巷２０１號","OBJECTID":342273},"geometry":{"x":159492.28000000119,"y":2552683.2400000021}},{"attributes":{"ID":342283,"DIS_CODE":0,"TOWNNAME":"安南區","LI":"青草里","LIN":"1鄰","STREET":"青砂街","SECT":"一段","MAREA":" ","LANE":"６９５巷","ALLEY":" ","HOUSE_NO":"２０５號","E_COORD97":159506.60999999999,"N_COORD97":2552655.5299999998,"ADDRESS":"青砂街一段６９５巷２０５號","OBJECTID":342274},"geometry":{"x":159506.61000000127,"y":2552655.5300000012}},{"attributes":{"ID":342284,"DIS_CODE":0,"TOWNNAME":"安南區","LI":"青草里","LIN":"1鄰","STREET":"青砂街","SECT":"一段","MAREA":" ","LANE":"６９５巷","ALLEY":" ","HOUSE_NO":"２０５號之１","E_COORD97":159498.17999999999,"N_COORD97":2552653.6800000002,"ADDRESS":"青砂街一段６９５巷２０５號之１","OBJECTID":342275},"geometry":{"x":159498.1799999997,"y":2552653.6799999997}},{"attributes":{"ID":342285,"DIS_CODE":0,"TOWNNAME":"安南區","LI":"青草里","LIN":"1鄰","STREET":"青砂街","SECT":"二段","MAREA":" ","LANE":"１０５巷","ALLEY":" ","HOUSE_NO":"８０號","E_COORD97":159507.32999999999,"N_COORD97":2552855.3700000001,"ADDRESS":"青砂街二段１０５巷８０號","OBJECTID":342276},"geometry":{"x":159507.33000000007,"y":2552855.3700000029}},{"attributes":{"ID":342286,"DIS_CODE":0,"TOWNNAME":"安南區","LI":"安和里","LIN":"1鄰","STREET":"安和路","SECT":"一段","MAREA":" ","LANE":"５２巷","ALLEY":" ","HOUSE_NO":"７５號","E_COORD97":169723.76000000001,"N_COORD97":2547605.7799999998,"ADDRESS":"安和路一段５２巷７５號","OBJECTID":342277},"geometry":{"x":169723.76000000071,"y":2547605.7800000012}},{"attributes":{"ID":342287,"DIS_CODE":0,"TOWNNAME":"安平區","LI":"建平里","LIN":"8鄰","STREET":"府前三街","SECT":" ","MAREA":" ","LANE":" ","ALLEY":" ","HOUSE_NO":"１２９號四樓之１","E_COORD97":166494.16,"N_COORD97":2543982.3300000001,"ADDRESS":"府前三街１２９號四樓之１","OBJECTID":342278},"geometry":{"x":166494.16000000108,"y":2543982.3300000019}},{"attributes":{"ID":342288,"DIS_CODE":0,"TOWNNAME":"六甲區","LI":"王爺里","LIN":"5鄰","STREET":" ","SECT":" ","MAREA":"水流東","LANE":" ","ALLEY":" ","HOUSE_NO":"２５號","E_COORD97":189519.38,"N_COORD97":2569653.4199999999,"ADDRESS":"水流東２５號","OBJECTID":342279},"geometry":{"x":189519.38000000082,"y":2569653.4200000018}},{"attributes":{"ID":342289,"DIS_CODE":0,"TOWNNAME":"安平區","LI":"建平里","LIN":"8鄰","STREET":"府前三街","SECT":" ","MAREA":" ","LANE":" ","ALLEY":" ","HOUSE_NO":"１２９號四樓之１０","E_COORD97":166494.16,"N_COORD97":2543982.3300000001,"ADDRESS":"府前三街１２９號四樓之１０","OBJECTID":342280},"geometry":{"x":166494.16000000108,"y":2543982.3300000019}},{"attributes":{"ID":342290,"DIS_CODE":0,"TOWNNAME":"安平區","LI":"建平里","LIN":"8鄰","STREET":"府前三街","SECT":" ","MAREA":" ","LANE":" ","ALLEY":" ","HOUSE_NO":"１２９號四樓之１１","E_COORD97":166494.16,"N_COORD97":2543982.3300000001,"ADDRESS":"府前三街１２９號四樓之１１","OBJECTID":342281},"geometry":{"x":166494.16000000108,"y":2543982.3300000019}},{"attributes":{"ID":342291,"DIS_CODE":0,"TOWNNAME":"安平區","LI":"建平里","LIN":"8鄰","STREET":"府前三街","SECT":" ","MAREA":" ","LANE":" ","ALLEY":" ","HOUSE_NO":"１２９號四樓之１２","E_COORD97":166494.16,"N_COORD97":2543982.3300000001,"ADDRESS":"府前三街１２９號四樓之１２","OBJECTID":342282},"geometry":{"x":166494.16000000108,"y":2543982.3300000019}},{"attributes":{"ID":342292,"DIS_CODE":0,"TOWNNAME":"安平區","LI":"建平里","LIN":"8鄰","STREET":"府前三街","SECT":" ","MAREA":" ","LANE":" ","ALLEY":" ","HOUSE_NO":"１２９號四樓之１３","E_COORD97":166494.16,"N_COORD97":2543982.3300000001,"ADDRESS":"府前三街１２９號四樓之１３","OBJECTID":342283},"geometry":{"x":166494.16000000108,"y":2543982.3300000019}},{"attributes":{"ID":342293,"DIS_CODE":0,"TOWNNAME":"安平區","LI":"建平里","LIN":"8鄰","STREET":"府前三街","SECT":" ","MAREA":" ","LANE":" ","ALLEY":" ","HOUSE_NO":"１２９號四樓之１４","E_COORD97":166494.16,"N_COORD97":2543982.3300000001,"ADDRESS":"府前三街１２９號四樓之１４","OBJECTID":342284},"geometry":{"x":166494.16000000108,"y":2543982.3300000019}},{"attributes":{"ID":342294,"DIS_CODE":0,"TOWNNAME":"安南區","LI":"安和里","LIN":"1鄰","STREET":"安和路","SECT":"一段","MAREA":" ","LANE":"５２巷","ALLEY":" ","HOUSE_NO":"７７號","E_COORD97":169726.75,"N_COORD97":2547607.54,"ADDRESS":"安和路一段５２巷７７號","OBJECTID":342285},"geometry":{"x":169726.75,"y":2547607.540000001}},{"attributes":{"ID":342295,"DIS_CODE":0,"TOWNNAME":"安南區","LI":"安和里","LIN":"1鄰","STREET":"安和路","SECT":"一段","MAREA":" ","LANE":"５２巷","ALLEY":" ","HOUSE_NO":"７９號","E_COORD97":169730.26999999999,"N_COORD97":2547609.1299999999,"ADDRESS":"安和路一段５２巷７９號","OBJECTID":342286},"geometry":{"x":169730.27000000048,"y":2547609.1299999971}},{"attributes":{"ID":342296,"DIS_CODE":0,"TOWNNAME":"安南區","LI":"安和里","LIN":"1鄰","STREET":"安和路","SECT":"一段","MAREA":" ","LANE":"５２巷","ALLEY":" ","HOUSE_NO":"８１號","E_COORD97":169733.79999999999,"N_COORD97":2547610.8900000001,"ADDRESS":"安和路一段５２巷８１號","OBJECTID":342287},"geometry":{"x":169733.80000000075,"y":2547610.8900000025}},{"attributes":{"ID":342297,"DIS_CODE":0,"TOWNNAME":"安南區","LI":"安和里","LIN":"1鄰","STREET":"安和路","SECT":"一段","MAREA":" ","LANE":"５２巷","ALLEY":" ","HOUSE_NO":"８３號","E_COORD97":169737.67000000001,"N_COORD97":2547612.29,"ADDRESS":"安和路一段５２巷８３號","OBJECTID":342288},"geometry":{"x":169737.66999999899,"y":2547612.290000001}},{"attributes":{"ID":342298,"DIS_CODE":0,"TOWNNAME":"安南區","LI":"安和里","LIN":"1鄰","STREET":"安和路","SECT":"一段","MAREA":" ","LANE":"５２巷","ALLEY":" ","HOUSE_NO":"８５號","E_COORD97":169741.54000000001,"N_COORD97":2547613.52,"ADDRESS":"安和路一段５２巷８５號","OBJECTID":342289},"geometry":{"x":169741.54000000004,"y":2547613.5199999996}},{"attributes":{"ID":342299,"DIS_CODE":0,"TOWNNAME":"安南區","LI":"安和里","LIN":"1鄰","STREET":"安和路","SECT":"一段","MAREA":" ","LANE":"５２巷","ALLEY":" ","HOUSE_NO":"８７號","E_COORD97":169745.06,"N_COORD97":2547614.9300000002,"ADDRESS":"安和路一段５２巷８７號","OBJECTID":342290},"geometry":{"x":169745.06000000052,"y":2547614.9300000034}},{"attributes":{"ID":342300,"DIS_CODE":0,"TOWNNAME":"安南區","LI":"安和里","LIN":"1鄰","STREET":"安和路","SECT":"一段","MAREA":" ","LANE":"５２巷","ALLEY":" ","HOUSE_NO":"９１號","E_COORD97":169751.57999999999,"N_COORD97":2547618.27,"ADDRESS":"安和路一段５２巷９１號","OBJECTID":342291},"geometry":{"x":169751.58000000007,"y":2547618.2699999996}},{"attributes":{"ID":342301,"DIS_CODE":0,"TOWNNAME":"安南區","LI":"安和里","LIN":"1鄰","STREET":"安和路","SECT":"一段","MAREA":" ","LANE":"５２巷","ALLEY":" ","HOUSE_NO":"９３號","E_COORD97":169755.45000000001,"N_COORD97":2547620.21,"ADDRESS":"安和路一段５２巷９３號","OBJECTID":342292},"geometry":{"x":169755.45000000112,"y":2547620.2100000009}},{"attributes":{"ID":342302,"DIS_CODE":0,"TOWNNAME":"安南區","LI":"安和里","LIN":"1鄰","STREET":"安和路","SECT":"一段","MAREA":" ","LANE":"５２巷","ALLEY":" ","HOUSE_NO":"９７號","E_COORD97":169762.5,"N_COORD97":2547623.2000000002,"ADDRESS":"安和路一段５２巷９７號","OBJECTID":342293},"geometry":{"x":169762.5,"y":2547623.2000000011}},{"attributes":{"ID":342303,"DIS_CODE":0,"TOWNNAME":"安南區","LI":"安和里","LIN":"1鄰","STREET":"安和路","SECT":"一段","MAREA":" ","LANE":"５２巷","ALLEY":" ","HOUSE_NO":"９９號","E_COORD97":169766.19,"N_COORD97":2547624.7799999998,"ADDRESS":"安和路一段５２巷９９號","OBJECTID":342294},"geometry":{"x":169766.19000000041,"y":2547624.7799999993}},{"attributes":{"ID":342304,"DIS_CODE":0,"TOWNNAME":"安南區","LI":"\u25A0南里","LIN":"1鄰","STREET":"環福街","SECT":" ","MAREA":" ","LANE":"５０巷","ALLEY":" ","HOUSE_NO":"１６號","E_COORD97":170208.01000000001,"N_COORD97":2552420.1600000001,"ADDRESS":"環福街５０巷１６號","OBJECTID":342295},"geometry":{"x":170208.00999999978,"y":2552420.1600000001}},{"attributes":{"ID":342305,"DIS_CODE":0,"TOWNNAME":"善化區","LI":"小新里","LIN":"1鄰","STREET":"成功路","SECT":" ","MAREA":" ","LANE":"５３巷","ALLEY":" ","HOUSE_NO":"７６號","E_COORD97":179967.67999999999,"N_COORD97":2558492,"ADDRESS":"成功路５３巷７６號","OBJECTID":342296},"geometry":{"x":179967.6799999997,"y":2558492.0000000019}},{"attributes":{"ID":342306,"DIS_CODE":0,"TOWNNAME":"善化區","LI":"小新里","LIN":"1鄰","STREET":"成功路","SECT":" ","MAREA":" ","LANE":"５３巷","ALLEY":" ","HOUSE_NO":"２４號","E_COORD97":180018.63,"N_COORD97":2558475.5,"ADDRESS":"成功路５３巷２４號","OBJECTID":342297},"geometry":{"x":180018.62999999989,"y":2558475.5000000019}},{"attributes":{"ID":342307,"DIS_CODE":0,"TOWNNAME":"善化區","LI":"小新里","LIN":"1鄰","STREET":"成功路","SECT":" ","MAREA":" ","LANE":"５３巷","ALLEY":" ","HOUSE_NO":"７１號","E_COORD97":179944.84,"N_COORD97":2558514,"ADDRESS":"成功路５３巷７１號","OBJECTID":342298},"geometry":{"x":179944.83999999892,"y":2558514}},{"attributes":{"ID":342308,"DIS_CODE":0,"TOWNNAME":"善化區","LI":"小新里","LIN":"1鄰","STREET":"成功路","SECT":" ","MAREA":" ","LANE":"５３巷","ALLEY":" ","HOUSE_NO":"７３號","E_COORD97":179936.44,"N_COORD97":2558516.5,"ADDRESS":"成功路５３巷７３號","OBJECTID":342299},"geometry":{"x":179936.44000000227,"y":2558516.5}},{"attributes":{"ID":342309,"DIS_CODE":0,"TOWNNAME":"善化區","LI":"小新里","LIN":"1鄰","STREET":"成功路","SECT":" ","MAREA":" ","LANE":"５３巷","ALLEY":" ","HOUSE_NO":"８９號","E_COORD97":179950.26000000001,"N_COORD97":2558468.5,"ADDRESS":"成功路５３巷８９號","OBJECTID":342300},"geometry":{"x":179950.25999999978,"y":2558468.5000000019}},{"attributes":{"ID":342310,"DIS_CODE":0,"TOWNNAME":"善化區","LI":"小新里","LIN":"1鄰","STREET":"成功路","SECT":" ","MAREA":" ","LANE":"５３巷","ALLEY":" ","HOUSE_NO":"８１號","E_COORD97":179945.88,"N_COORD97":2558498,"ADDRESS":"成功路５３巷８１號","OBJECTID":342301},"geometry":{"x":179945.87999999989,"y":2558498.0000000037}},{"attributes":{"ID":342311,"DIS_CODE":0,"TOWNNAME":"善化區","LI":"小新里","LIN":"1鄰","STREET":"成功路","SECT":" ","MAREA":" ","LANE":"５３巷","ALLEY":" ","HOUSE_NO":"９０號","E_COORD97":179945.95999999999,"N_COORD97":2558468.75,"ADDRESS":"成功路５３巷９０號","OBJECTID":342302},"geometry":{"x":179945.96000000183,"y":2558468.7499999981}},{"attributes":{"ID":342312,"DIS_CODE":0,"TOWNNAME":"善化區","LI":"小新里","LIN":"1鄰","STREET":"成功路","SECT":" ","MAREA":" ","LANE":"５３巷","ALLEY":" ","HOUSE_NO":"６８號","E_COORD97":179957.72,"N_COORD97":2558510.25,"ADDRESS":"成功路５３巷６８號","OBJECTID":342303},"geometry":{"x":179957.72000000067,"y":2558510.2500000019}},{"attributes":{"ID":342313,"DIS_CODE":0,"TOWNNAME":"善化區","LI":"文正里","LIN":"1鄰","STREET":"進學路","SECT":" ","MAREA":" ","LANE":"１０５巷","ALLEY":" ","HOUSE_NO":"１５號","E_COORD97":177092.20000000001,"N_COORD97":2559669.75,"ADDRESS":"進學路１０５巷１５號","OBJECTID":342304},"geometry":{"x":177092.20000000112,"y":2559669.7500000019}},{"attributes":{"ID":342314,"DIS_CODE":0,"TOWNNAME":"善化區","LI":"小新里","LIN":"1鄰","STREET":"成功路","SECT":" ","MAREA":" ","LANE":"５３巷","ALLEY":" ","HOUSE_NO":"７０號","E_COORD97":179949.04000000001,"N_COORD97":2558512.75,"ADDRESS":"成功路５３巷７０號","OBJECTID":342305},"geometry":{"x":179949.04000000097,"y":2558512.75}},{"attributes":{"ID":342315,"DIS_CODE":0,"TOWNNAME":"善化區","LI":"西關里","LIN":"1鄰","STREET":"三民路","SECT":" ","MAREA":" ","LANE":"５０巷","ALLEY":" ","HOUSE_NO":"１號","E_COORD97":177129.20000000001,"N_COORD97":2559015.7599999998,"ADDRESS":"三民路５０巷１號","OBJECTID":342306},"geometry":{"x":177129.20000000112,"y":2559015.7600000016}},{"attributes":{"ID":342316,"DIS_CODE":0,"TOWNNAME":"善化區","LI":"小新里","LIN":"1鄰","STREET":"成功路","SECT":" ","MAREA":" ","LANE":"５３巷","ALLEY":" ","HOUSE_NO":"８５號","E_COORD97":179932.28,"N_COORD97":2558502.25,"ADDRESS":"成功路５３巷８５號","OBJECTID":342307},"geometry":{"x":179932.28000000212,"y":2558502.25}},{"attributes":{"ID":342317,"DIS_CODE":0,"TOWNNAME":"善化區","LI":"小新里","LIN":"1鄰","STREET":"成功路","SECT":" ","MAREA":" ","LANE":"５３巷","ALLEY":" ","HOUSE_NO":"９１號","E_COORD97":179941.87,"N_COORD97":2558470.75,"ADDRESS":"成功路５３巷９１號","OBJECTID":342308},"geometry":{"x":179941.87000000104,"y":2558470.75}},{"attributes":{"ID":342318,"DIS_CODE":0,"TOWNNAME":"善化區","LI":"文正里","LIN":"1鄰","STREET":"進學路","SECT":" ","MAREA":" ","LANE":"７１巷","ALLEY":" ","HOUSE_NO":"４號","E_COORD97":177133.98000000001,"N_COORD97":2559568.75,"ADDRESS":"進學路７１巷４號","OBJECTID":342309},"geometry":{"x":177133.98000000231,"y":2559568.7500000019}},{"attributes":{"ID":342319,"DIS_CODE":0,"TOWNNAME":"善化區","LI":"文正里","LIN":"1鄰","STREET":"進學路","SECT":" ","MAREA":" ","LANE":"７９巷","ALLEY":" ","HOUSE_NO":"３號","E_COORD97":177124.95999999999,"N_COORD97":2559589.75,"ADDRESS":"進學路７９巷３號","OBJECTID":342310},"geometry":{"x":177124.95999999996,"y":2559589.75}},{"attributes":{"ID":342320,"DIS_CODE":0,"TOWNNAME":"善化區","LI":"小新里","LIN":"1鄰","STREET":"成功路","SECT":" ","MAREA":" ","LANE":"５３巷","ALLEY":" ","HOUSE_NO":"１１號","E_COORD97":180045.95999999999,"N_COORD97":2558535,"ADDRESS":"成功路５３巷１１號","OBJECTID":342311},"geometry":{"x":180045.96000000183,"y":2558535.0000000037}},{"attributes":{"ID":342321,"DIS_CODE":0,"TOWNNAME":"東區","LI":"裕聖里","LIN":"1鄰","STREET":"裕忠路","SECT":" ","MAREA":" ","LANE":" ","ALLEY":" ","HOUSE_NO":"２３１號","E_COORD97":172277.35999999999,"N_COORD97":2542523.8199999998,"ADDRESS":"裕忠路２３１號","OBJECTID":342312},"geometry":{"x":172277.36000000034,"y":2542523.820000004}},{"attributes":{"ID":342322,"DIS_CODE":0,"TOWNNAME":"安南區","LI":"溪墘里","LIN":"5鄰","STREET":"海佃路","SECT":"一段","MAREA":" ","LANE":"２４６巷","ALLEY":" ","HOUSE_NO":"４號","E_COORD97":167176.85000000001,"N_COORD97":2547315.3599999999,"ADDRESS":"海佃路一段２４６巷４號","OBJECTID":342313},"geometry":{"x":167176.85000000056,"y":2547315.3599999994}},{"attributes":{"ID":342323,"DIS_CODE":0,"TOWNNAME":"善化區","LI":"小新里","LIN":"1鄰","STREET":"成功路","SECT":" ","MAREA":" ","LANE":"５３巷","ALLEY":" ","HOUSE_NO":"４５號","E_COORD97":179991.85000000001,"N_COORD97":2558475,"ADDRESS":"成功路５３巷４５號","OBJECTID":342314},"geometry":{"x":179991.84999999963,"y":2558475.0000000019}},{"attributes":{"ID":342324,"DIS_CODE":0,"TOWNNAME":"善化區","LI":"小新里","LIN":"1鄰","STREET":"成功路","SECT":" ","MAREA":" ","LANE":"５３巷","ALLEY":" ","HOUSE_NO":"２３號","E_COORD97":180022.64999999999,"N_COORD97":2558474.5,"ADDRESS":"成功路５３巷２３號","OBJECTID":342315},"geometry":{"x":180022.65000000037,"y":2558474.5000000019}},{"attributes":{"ID":342325,"DIS_CODE":0,"TOWNNAME":"善化區","LI":"小新里","LIN":"1鄰","STREET":"成功路","SECT":" ","MAREA":" ","LANE":"５３巷","ALLEY":" ","HOUSE_NO":"１６號","E_COORD97":180023.20999999999,"N_COORD97":2558527.25,"ADDRESS":"成功路５３巷１６號","OBJECTID":342316},"geometry":{"x":180023.20999999996,"y":2558527.2500000019}},{"attributes":{"ID":342326,"DIS_CODE":0,"TOWNNAME":"善化區","LI":"小新里","LIN":"1鄰","STREET":"成功路","SECT":" ","MAREA":" ","LANE":"５３巷","ALLEY":" ","HOUSE_NO":"２２號","E_COORD97":180026.51999999999,"N_COORD97":2558473.25,"ADDRESS":"成功路５３巷２２號","OBJECTID":342317},"geometry":{"x":180026.52000000142,"y":2558473.2500000019}},{"attributes":{"ID":342327,"DIS_CODE":0,"TOWNNAME":"善化區","LI":"小新里","LIN":"1鄰","STREET":"成功路","SECT":" ","MAREA":" ","LANE":"５３巷","ALLEY":" ","HOUSE_NO":"１２號","E_COORD97":180040.62,"N_COORD97":2558522,"ADDRESS":"成功路５３巷１２號","OBJECTID":342318},"geometry":{"x":180040.62000000104,"y":2558522.0000000019}},{"attributes":{"ID":342328,"DIS_CODE":0,"TOWNNAME":"善化區","LI":"小新里","LIN":"1鄰","STREET":"成功路","SECT":" ","MAREA":" ","LANE":"５３巷","ALLEY":" ","HOUSE_NO":"１４號","E_COORD97":180032.72,"N_COORD97":2558524.75,"ADDRESS":"成功路５３巷１４號","OBJECTID":342319},"geometry":{"x":180032.72000000067,"y":2558524.7500000019}},{"attributes":{"ID":342329,"DIS_CODE":0,"TOWNNAME":"善化區","LI":"文正里","LIN":"1鄰","STREET":"進學路","SECT":" ","MAREA":" ","LANE":"國小巷","ALLEY":" ","HOUSE_NO":"１３號","E_COORD97":177153.54999999999,"N_COORD97":2559372.5,"ADDRESS":"進學路國小巷１３號","OBJECTID":342320},"geometry":{"x":177153.55000000075,"y":2559372.5000000037}},{"attributes":{"ID":342330,"DIS_CODE":0,"TOWNNAME":"善化區","LI":"文正里","LIN":"1鄰","STREET":"進學路","SECT":" ","MAREA":" ","LANE":"７１巷","ALLEY":" ","HOUSE_NO":"２０號","E_COORD97":177101.10000000001,"N_COORD97":2559563.25,"ADDRESS":"進學路７１巷２０號","OBJECTID":342321},"geometry":{"x":177101.09999999963,"y":2559563.25}},{"attributes":{"ID":342331,"DIS_CODE":0,"TOWNNAME":"善化區","LI":"文正里","LIN":"1鄰","STREET":"進學路","SECT":" ","MAREA":" ","LANE":"９９巷","ALLEY":" ","HOUSE_NO":"３０號","E_COORD97":177076.10999999999,"N_COORD97":2559642.25,"ADDRESS":"進學路９９巷３０號","OBJECTID":342322},"geometry":{"x":177076.11000000127,"y":2559642.2500000037}},{"attributes":{"ID":342332,"DIS_CODE":0,"TOWNNAME":"善化區","LI":"文正里","LIN":"1鄰","STREET":"進學路","SECT":" ","MAREA":" ","LANE":"７１巷","ALLEY":" ","HOUSE_NO":"２５號","E_COORD97":177091.75,"N_COORD97":2559550.5,"ADDRESS":"進學路７１巷２５號","OBJECTID":342323},"geometry":{"x":177091.75000000093,"y":2559550.5}},{"attributes":{"ID":342333,"DIS_CODE":0,"TOWNNAME":"將軍區","LI":"長沙里","LIN":"5鄰","STREET":" ","SECT":" ","MAREA":"長沙","LANE":" ","ALLEY":" ","HOUSE_NO":"３３號","E_COORD97":157311.75980999999,"N_COORD97":2568568.0463399999,"ADDRESS":"長沙３３號","OBJECTID":342324},"geometry":{"x":157311.75981000066,"y":2568568.0463389996}},{"attributes":{"ID":342334,"DIS_CODE":0,"TOWNNAME":"下營區","LI":"賀建里","LIN":"5鄰","STREET":" ","SECT":" ","MAREA":"麻豆寮","LANE":" ","ALLEY":" ","HOUSE_NO":"４６號之１","E_COORD97":177893.23999999999,"N_COORD97":2572649.0800000001,"ADDRESS":"麻豆寮４６號之１","OBJECTID":342325},"geometry":{"x":177893.24000000209,"y":2572649.0800000019}},{"attributes":{"ID":342335,"DIS_CODE":0,"TOWNNAME":"下營區","LI":"賀建里","LIN":"5鄰","STREET":" ","SECT":" ","MAREA":"麻豆寮","LANE":" ","ALLEY":" ","HOUSE_NO":"５１號","E_COORD97":177972.98000000001,"N_COORD97":2572605.4399999999,"ADDRESS":"麻豆寮５１號","OBJECTID":342326},"geometry":{"x":177972.97999999952,"y":2572605.4400000013}},{"attributes":{"ID":342336,"DIS_CODE":0,"TOWNNAME":"善化區","LI":"文正里","LIN":"1鄰","STREET":"進學路","SECT":" ","MAREA":" ","LANE":"７１巷","ALLEY":" ","HOUSE_NO":"１７號","E_COORD97":177110.97,"N_COORD97":2559552.5,"ADDRESS":"進學路７１巷１７號","OBJECTID":342327},"geometry":{"x":177110.96999999974,"y":2559552.5000000019}},{"attributes":{"ID":342337,"DIS_CODE":0,"TOWNNAME":"善化區","LI":"小新里","LIN":"1鄰","STREET":"成功路","SECT":" ","MAREA":" ","LANE":"５３巷","ALLEY":" ","HOUSE_NO":"１８號","E_COORD97":180018.35000000001,"N_COORD97":2558491,"ADDRESS":"成功路５３巷１８號","OBJECTID":342328},"geometry":{"x":180018.35000000056,"y":2558491.0000000037}},{"attributes":{"ID":342338,"DIS_CODE":0,"TOWNNAME":"善化區","LI":"小新里","LIN":"1鄰","STREET":"成功路","SECT":" ","MAREA":" ","LANE":"５３巷","ALLEY":" ","HOUSE_NO":"３４號","E_COORD97":180008.12,"N_COORD97":2558532,"ADDRESS":"成功路５３巷３４號","OBJECTID":342329},"geometry":{"x":180008.12000000104,"y":2558532.0000000019}},{"attributes":{"ID":342339,"DIS_CODE":0,"TOWNNAME":"善化區","LI":"小新里","LIN":"1鄰","STREET":"成功路","SECT":" ","MAREA":" ","LANE":"５３巷","ALLEY":" ","HOUSE_NO":"２９號","E_COORD97":180011.95999999999,"N_COORD97":2558439.5,"ADDRESS":"成功路５３巷２９號","OBJECTID":342330},"geometry":{"x":180011.95999999903,"y":2558439.5}},{"attributes":{"ID":342340,"DIS_CODE":0,"TOWNNAME":"下營區","LI":"賀建里","LIN":"5鄰","STREET":" ","SECT":" ","MAREA":"麻豆寮","LANE":" ","ALLEY":" ","HOUSE_NO":"５２號之１","E_COORD97":177946.26999999999,"N_COORD97":2572644.6800000002,"ADDRESS":"麻豆寮５２號之１","OBJECTID":342331},"geometry":{"x":177946.26999999955,"y":2572644.6800000016}},{"attributes":{"ID":342341,"DIS_CODE":0,"TOWNNAME":"安平區","LI":"建平里","LIN":"8鄰","STREET":"府前三街","SECT":" ","MAREA":" ","LANE":" ","ALLEY":" ","HOUSE_NO":"１２９號四樓之２","E_COORD97":166494.16,"N_COORD97":2543982.3300000001,"ADDRESS":"府前三街１２９號四樓之２","OBJECTID":342332},"geometry":{"x":166494.16000000108,"y":2543982.3300000019}},{"attributes":{"ID":342342,"DIS_CODE":0,"TOWNNAME":"下營區","LI":"賀建里","LIN":"5鄰","STREET":" ","SECT":" ","MAREA":"麻豆寮","LANE":" ","ALLEY":" ","HOUSE_NO":"５２號","E_COORD97":177947.72,"N_COORD97":2572602.3100000001,"ADDRESS":"麻豆寮５２號","OBJECTID":342333},"geometry":{"x":177947.72000000067,"y":2572602.3100000005}},{"attributes":{"ID":342343,"DIS_CODE":0,"TOWNNAME":"新營區","LI":"角帶里","LIN":"5鄰","STREET":" ","SECT":" ","MAREA":"角帶圍","LANE":" ","ALLEY":" ","HOUSE_NO":"６０號","E_COORD97":174777.23000000001,"N_COORD97":2575774.29,"ADDRESS":"角帶圍６０號","OBJECTID":342334},"geometry":{"x":174777.23000000045,"y":2575774.2899999991}},{"attributes":{"ID":342344,"DIS_CODE":0,"TOWNNAME":"新營區","LI":"護鎮里","LIN":"5鄰","STREET":" ","SECT":" ","MAREA":"後鎮","LANE":" ","ALLEY":" ","HOUSE_NO":"５９之２６號","E_COORD97":179028.28,"N_COORD97":2581231.98,"ADDRESS":"後鎮５９之２６號","OBJECTID":342335},"geometry":{"x":179028.28000000026,"y":2581231.9800000023}},{"attributes":{"ID":342345,"DIS_CODE":0,"TOWNNAME":"新營區","LI":"埤寮里","LIN":"5鄰","STREET":" ","SECT":" ","MAREA":"埤寮","LANE":" ","ALLEY":" ","HOUSE_NO":"４之１號","E_COORD97":180145.54999999999,"N_COORD97":2580991.8700000001,"ADDRESS":"埤寮４之１號","OBJECTID":342336},"geometry":{"x":180145.55000000075,"y":2580991.8700000029}},{"attributes":{"ID":342346,"DIS_CODE":0,"TOWNNAME":"新營區","LI":"新東里","LIN":"5鄰","STREET":"東大街","SECT":" ","MAREA":" ","LANE":"５２巷","ALLEY":" ","HOUSE_NO":"４７號","E_COORD97":181132.91,"N_COORD97":2579161,"ADDRESS":"東大街５２巷４７號","OBJECTID":342337},"geometry":{"x":181132.91000000015,"y":2579161}},{"attributes":{"ID":342347,"DIS_CODE":0,"TOWNNAME":"新營區","LI":"南紙里","LIN":"5鄰","STREET":"南紙街","SECT":" ","MAREA":" ","LANE":"２９巷","ALLEY":" ","HOUSE_NO":"３０號","E_COORD97":177907.17000000001,"N_COORD97":2577734.4399999999,"ADDRESS":"南紙街２９巷３０號","OBJECTID":342338},"geometry":{"x":177907.17000000086,"y":2577734.4399999976}},{"attributes":{"ID":342348,"DIS_CODE":0,"TOWNNAME":"安平區","LI":"文平里","LIN":"5鄰","STREET":"建平六街","SECT":" ","MAREA":" ","LANE":"８０巷","ALLEY":" ","HOUSE_NO":"１０８號","E_COORD97":166446.78,"N_COORD97":2543117.8599999999,"ADDRESS":"建平六街８０巷１０８號","OBJECTID":342339},"geometry":{"x":166446.78000000026,"y":2543117.8599999994}},{"attributes":{"ID":342349,"DIS_CODE":0,"TOWNNAME":"安平區","LI":"文平里","LIN":"5鄰","STREET":"建平六街","SECT":" ","MAREA":" ","LANE":"８０巷","ALLEY":" ","HOUSE_NO":"１０９號","E_COORD97":166420.37,"N_COORD97":2543119.0499999998,"ADDRESS":"建平六街８０巷１０９號","OBJECTID":342340},"geometry":{"x":166420.37000000011,"y":2543119.0500000007}},{"attributes":{"ID":342350,"DIS_CODE":0,"TOWNNAME":"善化區","LI":"文正里","LIN":"1鄰","STREET":"進學路","SECT":" ","MAREA":" ","LANE":"１０５巷","ALLEY":" ","HOUSE_NO":"７號","E_COORD97":177112.29999999999,"N_COORD97":2559673.5,"ADDRESS":"進學路１０５巷７號","OBJECTID":342341},"geometry":{"x":177112.29999999981,"y":2559673.5}},{"attributes":{"ID":342351,"DIS_CODE":0,"TOWNNAME":"善化區","LI":"文正里","LIN":"1鄰","STREET":"進學路","SECT":" ","MAREA":" ","LANE":"７１巷","ALLEY":" ","HOUSE_NO":"３２號","E_COORD97":177072.48999999999,"N_COORD97":2559560.75,"ADDRESS":"進學路７１巷３２號","OBJECTID":342342},"geometry":{"x":177072.49000000022,"y":2559560.7500000037}},{"attributes":{"ID":342352,"DIS_CODE":0,"TOWNNAME":"善化區","LI":"文正里","LIN":"1鄰","STREET":"進學路","SECT":" ","MAREA":" ","LANE":"７１巷","ALLEY":" ","HOUSE_NO":"６號","E_COORD97":177129.32000000001,"N_COORD97":2559568.5,"ADDRESS":"進學路７１巷６號","OBJECTID":342343},"geometry":{"x":177129.3200000003,"y":2559568.5}},{"attributes":{"ID":342353,"DIS_CODE":0,"TOWNNAME":"善化區","LI":"文正里","LIN":"1鄰","STREET":"進學路","SECT":" ","MAREA":" ","LANE":"７９巷","ALLEY":" ","HOUSE_NO":"１１號","E_COORD97":177094.04000000001,"N_COORD97":2559585.75,"ADDRESS":"進學路７９巷１１號","OBJECTID":342344},"geometry":{"x":177094.03999999911,"y":2559585.7500000019}},{"attributes":{"ID":342354,"DIS_CODE":0,"TOWNNAME":"善化區","LI":"小新里","LIN":"1鄰","STREET":"成功路","SECT":" ","MAREA":" ","LANE":"５３巷","ALLEY":" ","HOUSE_NO":"１０號","E_COORD97":180041.95999999999,"N_COORD97":2558536.25,"ADDRESS":"成功路５３巷１０號","OBJECTID":342345},"geometry":{"x":180041.95999999996,"y":2558536.25}},{"attributes":{"ID":342355,"DIS_CODE":0,"TOWNNAME":"善化區","LI":"小新里","LIN":"1鄰","STREET":"成功路","SECT":" ","MAREA":" ","LANE":"５３巷","ALLEY":" ","HOUSE_NO":"１９號","E_COORD97":180022.41,"N_COORD97":2558490,"ADDRESS":"成功路５３巷１９號","OBJECTID":342346},"geometry":{"x":180022.41000000015,"y":2558490}},{"attributes":{"ID":342356,"DIS_CODE":0,"TOWNNAME":"善化區","LI":"文正里","LIN":"1鄰","STREET":"進學路","SECT":" ","MAREA":" ","LANE":"７９巷","ALLEY":" ","HOUSE_NO":"６號","E_COORD97":177116.01000000001,"N_COORD97":2559588.5,"ADDRESS":"進學路７９巷６號","OBJECTID":342347},"geometry":{"x":177116.00999999885,"y":2559588.5}},{"attributes":{"ID":342357,"DIS_CODE":0,"TOWNNAME":"善化區","LI":"小新里","LIN":"1鄰","STREET":"成功路","SECT":" ","MAREA":" ","LANE":"５３巷","ALLEY":" ","HOUSE_NO":"３５號","E_COORD97":180007.88,"N_COORD97":2558527,"ADDRESS":"成功路５３巷３５號","OBJECTID":342348},"geometry":{"x":180007.88000000082,"y":2558527}},{"attributes":{"ID":342358,"DIS_CODE":0,"TOWNNAME":"善化區","LI":"文正里","LIN":"1鄰","STREET":"進學路","SECT":" ","MAREA":" ","LANE":"國小巷","ALLEY":" ","HOUSE_NO":"１２號","E_COORD97":177157.95999999999,"N_COORD97":2559398,"ADDRESS":"進學路國小巷１２號","OBJECTID":342349},"geometry":{"x":177157.96000000089,"y":2559398}},{"attributes":{"ID":342359,"DIS_CODE":0,"TOWNNAME":"善化區","LI":"文正里","LIN":"1鄰","STREET":"進學路","SECT":" ","MAREA":" ","LANE":"１０５巷","ALLEY":" ","HOUSE_NO":"１９號","E_COORD97":177077.54999999999,"N_COORD97":2559667,"ADDRESS":"進學路１０５巷１９號","OBJECTID":342350},"geometry":{"x":177077.55000000075,"y":2559667}},{"attributes":{"ID":342360,"DIS_CODE":0,"TOWNNAME":"安平區","LI":"建平里","LIN":"8鄰","STREET":"府前三街","SECT":" ","MAREA":" ","LANE":" ","ALLEY":" ","HOUSE_NO":"１２９號四樓之３","E_COORD97":166494.16,"N_COORD97":2543982.3300000001,"ADDRESS":"府前三街１２９號四樓之３","OBJECTID":342351},"geometry":{"x":166494.16000000108,"y":2543982.3300000019}},{"attributes":{"ID":342361,"DIS_CODE":0,"TOWNNAME":"安平區","LI":"建平里","LIN":"8鄰","STREET":"府前三街","SECT":" ","MAREA":" ","LANE":" ","ALLEY":" ","HOUSE_NO":"１２９號四樓之４","E_COORD97":166494.16,"N_COORD97":2543982.3300000001,"ADDRESS":"府前三街１２９號四樓之４","OBJECTID":342352},"geometry":{"x":166494.16000000108,"y":2543982.3300000019}},{"attributes":{"ID":342362,"DIS_CODE":0,"TOWNNAME":"安平區","LI":"建平里","LIN":"8鄰","STREET":"府前三街","SECT":" ","MAREA":" ","LANE":" ","ALLEY":" ","HOUSE_NO":"１２９號四樓之５","E_COORD97":166494.16,"N_COORD97":2543982.3300000001,"ADDRESS":"府前三街１２９號四樓之５","OBJECTID":342353},"geometry":{"x":166494.16000000108,"y":2543982.3300000019}},{"attributes":{"ID":342363,"DIS_CODE":0,"TOWNNAME":"安平區","LI":"建平里","LIN":"8鄰","STREET":"府前三街","SECT":" ","MAREA":" ","LANE":" ","ALLEY":" ","HOUSE_NO":"１２９號四樓之６","E_COORD97":166494.16,"N_COORD97":2543982.3300000001,"ADDRESS":"府前三街１２９號四樓之６","OBJECTID":342354},"geometry":{"x":166494.16000000108,"y":2543982.3300000019}},{"attributes":{"ID":342364,"DIS_CODE":0,"TOWNNAME":"新營區","LI":"護鎮里","LIN":"5鄰","STREET":" ","SECT":" ","MAREA":"後鎮","LANE":" ","ALLEY":" ","HOUSE_NO":"５９之１２號","E_COORD97":179126.39000000001,"N_COORD97":2581218.2200000002,"ADDRESS":"後鎮５９之１２號","OBJECTID":342355},"geometry":{"x":179126.3900000006,"y":2581218.2200000007}},{"attributes":{"ID":342365,"DIS_CODE":0,"TOWNNAME":"新營區","LI":"護鎮里","LIN":"5鄰","STREET":" ","SECT":" ","MAREA":"後鎮","LANE":" ","ALLEY":" ","HOUSE_NO":"５９之１７號","E_COORD97":179084.45999999999,"N_COORD97":2581218.4199999999,"ADDRESS":"後鎮５９之１７號","OBJECTID":342356},"geometry":{"x":179084.45999999996,"y":2581218.4200000018}},{"attributes":{"ID":342366,"DIS_CODE":0,"TOWNNAME":"新營區","LI":"鐵線里","LIN":"5鄰","STREET":" ","SECT":" ","MAREA":"鐵線橋","LANE":" ","ALLEY":" ","HOUSE_NO":"４８之１２號","E_COORD97":176087.32000000001,"N_COORD97":2573682.4300000002,"ADDRESS":"鐵線橋４８之１２號","OBJECTID":342357},"geometry":{"x":176087.32000000216,"y":2573682.4299999997}},{"attributes":{"ID":342367,"DIS_CODE":0,"TOWNNAME":"新營區","LI":"太南里","LIN":"5鄰","STREET":" ","SECT":" ","MAREA":"太子宮","LANE":" ","ALLEY":" ","HOUSE_NO":"２０７之１號","E_COORD97":176249.48000000001,"N_COORD97":2576870,"ADDRESS":"太子宮２０７之１號","OBJECTID":342358},"geometry":{"x":176249.48000000138,"y":2576869.9999999981}},{"attributes":{"ID":342368,"DIS_CODE":0,"TOWNNAME":"新營區","LI":"護鎮里","LIN":"5鄰","STREET":" ","SECT":" ","MAREA":"後鎮","LANE":" ","ALLEY":" ","HOUSE_NO":"５９之５號","E_COORD97":179080.04999999999,"N_COORD97":2581198.5,"ADDRESS":"後鎮５９之５號","OBJECTID":342359},"geometry":{"x":179080.04999999981,"y":2581198.5}},{"attributes":{"ID":342369,"DIS_CODE":0,"TOWNNAME":"新營區","LI":"護鎮里","LIN":"5鄰","STREET":" ","SECT":" ","MAREA":"後鎮","LANE":" ","ALLEY":" ","HOUSE_NO":"５９號之６","E_COORD97":179080.06,"N_COORD97":2581201.8199999998,"ADDRESS":"後鎮５９之６號","OBJECTID":342360},"geometry":{"x":179080.05999999959,"y":2581201.8200000022}},{"attributes":{"ID":342370,"DIS_CODE":0,"TOWNNAME":"新營區","LI":"護鎮里","LIN":"5鄰","STREET":" ","SECT":" ","MAREA":"後鎮","LANE":" ","ALLEY":" ","HOUSE_NO":"５９之１號","E_COORD97":179083.01999999999,"N_COORD97":2581179.6600000001,"ADDRESS":"後鎮５９之１號","OBJECTID":342361},"geometry":{"x":179083.02000000048,"y":2581179.660000002}},{"attributes":{"ID":342371,"DIS_CODE":0,"TOWNNAME":"新營區","LI":"護鎮里","LIN":"5鄰","STREET":" ","SECT":" ","MAREA":"後鎮","LANE":" ","ALLEY":" ","HOUSE_NO":"５９之１６號","E_COORD97":179093.67000000001,"N_COORD97":2581218.3799999999,"ADDRESS":"後鎮５９之１６號","OBJECTID":342362},"geometry":{"x":179093.67000000086,"y":2581218.379999999}},{"attributes":{"ID":342372,"DIS_CODE":0,"TOWNNAME":"新營區","LI":"護鎮里","LIN":"5鄰","STREET":" ","SECT":" ","MAREA":"後鎮","LANE":" ","ALLEY":" ","HOUSE_NO":"５９之２１號","E_COORD97":179055.85999999999,"N_COORD97":2581225.21,"ADDRESS":"後鎮５９之２１號","OBJECTID":342363},"geometry":{"x":179055.86000000127,"y":2581225.2100000009}},{"attributes":{"ID":342373,"DIS_CODE":0,"TOWNNAME":"新營區","LI":"護鎮里","LIN":"5鄰","STREET":" ","SECT":" ","MAREA":"後鎮","LANE":" ","ALLEY":" ","HOUSE_NO":"５９之８號","E_COORD97":179097.45999999999,"N_COORD97":2581203.9500000002,"ADDRESS":"後鎮５９之８號","OBJECTID":342364},"geometry":{"x":179097.46000000089,"y":2581203.9500000011}},{"attributes":{"ID":342374,"DIS_CODE":0,"TOWNNAME":"新營區","LI":"土庫里","LIN":"5鄰","STREET":" ","SECT":" ","MAREA":"土庫","LANE":" ","ALLEY":" ","HOUSE_NO":"４２號","E_COORD97":183340.70000000001,"N_COORD97":2579969.2999999998,"ADDRESS":"土庫４２號","OBJECTID":342365},"geometry":{"x":183340.70000000112,"y":2579969.3000000026}},{"attributes":{"ID":342375,"DIS_CODE":0,"TOWNNAME":"善化區","LI":"小新里","LIN":"1鄰","STREET":"成功路","SECT":" ","MAREA":" ","LANE":"５３巷","ALLEY":" ","HOUSE_NO":"５號","E_COORD97":180022.04999999999,"N_COORD97":2558542.25,"ADDRESS":"成功路５３巷５號","OBJECTID":342366},"geometry":{"x":180022.05000000075,"y":2558542.25}},{"attributes":{"ID":342376,"DIS_CODE":0,"TOWNNAME":"新營區","LI":"護鎮里","LIN":"5鄰","STREET":" ","SECT":" ","MAREA":"後鎮","LANE":" ","ALLEY":" ","HOUSE_NO":"５９之３號","E_COORD97":179083.07000000001,"N_COORD97":2581189.6200000001,"ADDRESS":"後鎮５９之３號","OBJECTID":342367},"geometry":{"x":179083.07000000123,"y":2581189.6199999992}},{"attributes":{"ID":342377,"DIS_CODE":0,"TOWNNAME":"新營區","LI":"土庫里","LIN":"5鄰","STREET":" ","SECT":" ","MAREA":"土庫","LANE":" ","ALLEY":" ","HOUSE_NO":"４４號","E_COORD97":183267.72,"N_COORD97":2579888.7799999998,"ADDRESS":"土庫４４號","OBJECTID":342368},"geometry":{"x":183267.71999999974,"y":2579888.7800000012}},{"attributes":{"ID":342378,"DIS_CODE":0,"TOWNNAME":"新營區","LI":"護鎮里","LIN":"5鄰","STREET":" ","SECT":" ","MAREA":"後鎮","LANE":" ","ALLEY":" ","HOUSE_NO":"５９之９號","E_COORD97":179105.64000000001,"N_COORD97":2581203.9100000001,"ADDRESS":"後鎮５９之９號","OBJECTID":342369},"geometry":{"x":179105.6400000006,"y":2581203.9100000039}},{"attributes":{"ID":342379,"DIS_CODE":0,"TOWNNAME":"新營區","LI":"護鎮里","LIN":"5鄰","STREET":" ","SECT":" ","MAREA":"後鎮","LANE":" ","ALLEY":" ","HOUSE_NO":"５９之１３號","E_COORD97":179117.20000000001,"N_COORD97":2581220.48,"ADDRESS":"後鎮５９之１３號","OBJECTID":342370},"geometry":{"x":179117.19999999925,"y":2581220.4799999986}},{"attributes":{"ID":342380,"DIS_CODE":0,"TOWNNAME":"新營區","LI":"護鎮里","LIN":"5鄰","STREET":" ","SECT":" ","MAREA":"後鎮","LANE":" ","ALLEY":" ","HOUSE_NO":"４８號","E_COORD97":179180.56,"N_COORD97":2581128.1899999999,"ADDRESS":"後鎮４８號","OBJECTID":342371},"geometry":{"x":179180.56000000052,"y":2581128.1900000013}},{"attributes":{"ID":342381,"DIS_CODE":0,"TOWNNAME":"新營區","LI":"護鎮里","LIN":"5鄰","STREET":" ","SECT":" ","MAREA":"後鎮","LANE":" ","ALLEY":" ","HOUSE_NO":"５９之４號","E_COORD97":179080.03,"N_COORD97":2581194.0699999998,"ADDRESS":"後鎮５９之４號","OBJECTID":342372},"geometry":{"x":179080.03000000119,"y":2581194.0700000022}},{"attributes":{"ID":342382,"DIS_CODE":0,"TOWNNAME":"新營區","LI":"新東里","LIN":"5鄰","STREET":"東大街","SECT":" ","MAREA":" ","LANE":"５２巷","ALLEY":" ","HOUSE_NO":"３５號","E_COORD97":181106.31,"N_COORD97":2579157.7999999998,"ADDRESS":"東大街５２巷３５號","OBJECTID":342373},"geometry":{"x":181106.31000000052,"y":2579157.8000000026}},{"attributes":{"ID":342383,"DIS_CODE":0,"TOWNNAME":"善化區","LI":"小新里","LIN":"1鄰","STREET":"成功路","SECT":" ","MAREA":" ","LANE":"５３巷","ALLEY":" ","HOUSE_NO":"２８號","E_COORD97":180015.85000000001,"N_COORD97":2558438.5,"ADDRESS":"成功路５３巷２８號","OBJECTID":342374},"geometry":{"x":180015.85000000149,"y":2558438.5}},{"attributes":{"ID":342384,"DIS_CODE":0,"TOWNNAME":"新營區","LI":"土庫里","LIN":"5鄰","STREET":" ","SECT":" ","MAREA":"土庫","LANE":" ","ALLEY":" ","HOUSE_NO":"５０號","E_COORD97":183256.39999999999,"N_COORD97":2579886.6200000001,"ADDRESS":"土庫５０號","OBJECTID":342375},"geometry":{"x":183256.4000000013,"y":2579886.620000001}},{"attributes":{"ID":342385,"DIS_CODE":0,"TOWNNAME":"善化區","LI":"小新里","LIN":"1鄰","STREET":"成功路","SECT":" ","MAREA":" ","LANE":"５３巷","ALLEY":" ","HOUSE_NO":"３１號","E_COORD97":180003.89999999999,"N_COORD97":2558442,"ADDRESS":"成功路５３巷３１號","OBJECTID":342376},"geometry":{"x":180003.90000000037,"y":2558442}},{"attributes":{"ID":342386,"DIS_CODE":0,"TOWNNAME":"新營區","LI":"護鎮里","LIN":"5鄰","STREET":" ","SECT":" ","MAREA":"後鎮","LANE":" ","ALLEY":" ","HOUSE_NO":"５９之２４號","E_COORD97":179038.5,"N_COORD97":2581229.7200000002,"ADDRESS":"後鎮５９之２４號","OBJECTID":342377},"geometry":{"x":179038.5,"y":2581229.7200000044}},{"attributes":{"ID":342387,"DIS_CODE":0,"TOWNNAME":"新營區","LI":"土庫里","LIN":"5鄰","STREET":" ","SECT":" ","MAREA":"土庫","LANE":" ","ALLEY":" ","HOUSE_NO":"４３之５號","E_COORD97":183412.98999999999,"N_COORD97":2580024.3999999999,"ADDRESS":"土庫４３之５號","OBJECTID":342378},"geometry":{"x":183412.99000000115,"y":2580024.4000000041}},{"attributes":{"ID":342388,"DIS_CODE":0,"TOWNNAME":"新營區","LI":"護鎮里","LIN":"5鄰","STREET":" ","SECT":" ","MAREA":"後鎮","LANE":" ","ALLEY":" ","HOUSE_NO":"５９之２３號","E_COORD97":179043.60000000001,"N_COORD97":2581228.5899999999,"ADDRESS":"後鎮５９之２３號","OBJECTID":342379},"geometry":{"x":179043.60000000056,"y":2581228.5899999999}},{"attributes":{"ID":342389,"DIS_CODE":0,"TOWNNAME":"善化區","LI":"小新里","LIN":"1鄰","STREET":"成功路","SECT":" ","MAREA":" ","LANE":"５３巷","ALLEY":" ","HOUSE_NO":"５２號","E_COORD97":179987.26000000001,"N_COORD97":2558539,"ADDRESS":"成功路５３巷５２號","OBJECTID":342380},"geometry":{"x":179987.25999999978,"y":2558539.0000000019}},{"attributes":{"ID":342390,"DIS_CODE":0,"TOWNNAME":"善化區","LI":"文正里","LIN":"1鄰","STREET":"進學路","SECT":" ","MAREA":" ","LANE":"１０５巷","ALLEY":" ","HOUSE_NO":"１７號","E_COORD97":177085.51000000001,"N_COORD97":2559668.75,"ADDRESS":"進學路１０５巷１７號","OBJECTID":342381},"geometry":{"x":177085.50999999885,"y":2559668.75}},{"attributes":{"ID":342391,"DIS_CODE":0,"TOWNNAME":"新營區","LI":"嘉芳里","LIN":"5鄰","STREET":" ","SECT":" ","MAREA":"茄苳腳","LANE":" ","ALLEY":" ","HOUSE_NO":"５８之８號","E_COORD97":176906.54000000001,"N_COORD97":2578441.54,"ADDRESS":"茄苳腳５８之８號","OBJECTID":342382},"geometry":{"x":176906.54000000097,"y":2578441.5399999991}},{"attributes":{"ID":342392,"DIS_CODE":0,"TOWNNAME":"安南區","LI":"長安里","LIN":"8鄰","STREET":"長溪路","SECT":"三段","MAREA":" ","LANE":" ","ALLEY":" ","HOUSE_NO":"４１３號","E_COORD97":167595.67000000001,"N_COORD97":2552070.1699999999,"ADDRESS":"長溪路三段４１３號","OBJECTID":342383},"geometry":{"x":167595.67000000086,"y":2552070.1699999999}},{"attributes":{"ID":342393,"DIS_CODE":0,"TOWNNAME":"善化區","LI":"文正里","LIN":"1鄰","STREET":"進學路","SECT":" ","MAREA":" ","LANE":"１０５巷","ALLEY":" ","HOUSE_NO":"１１號","E_COORD97":177103.01000000001,"N_COORD97":2559670.25,"ADDRESS":"進學路１０５巷１１號","OBJECTID":342384},"geometry":{"x":177103.01000000071,"y":2559670.2500000019}},{"attributes":{"ID":342394,"DIS_CODE":0,"TOWNNAME":"善化區","LI":"文昌里","LIN":"1鄰","STREET":"中興路","SECT":" ","MAREA":" ","LANE":"１６９巷","ALLEY":" ","HOUSE_NO":"５號","E_COORD97":177310.45000000001,"N_COORD97":2559015.25,"ADDRESS":"中興路１６９巷５號","OBJECTID":342385},"geometry":{"x":177310.45000000112,"y":2559015.2500000019}},{"attributes":{"ID":342395,"DIS_CODE":0,"TOWNNAME":"善化區","LI":"小新里","LIN":"1鄰","STREET":"成功路","SECT":" ","MAREA":" ","LANE":"５３巷","ALLEY":" ","HOUSE_NO":"３７號","E_COORD97":180005.17000000001,"N_COORD97":2558518.25,"ADDRESS":"成功路５３巷３７號","OBJECTID":342386},"geometry":{"x":180005.16999999993,"y":2558518.25}},{"attributes":{"ID":342396,"DIS_CODE":0,"TOWNNAME":"善化區","LI":"文正里","LIN":"1鄰","STREET":"進學路","SECT":" ","MAREA":" ","LANE":"７１巷","ALLEY":" ","HOUSE_NO":"３０號","E_COORD97":177078,"N_COORD97":2559560.5,"ADDRESS":"進學路７１巷３０號","OBJECTID":342387},"geometry":{"x":177078.00000000093,"y":2559560.5000000019}},{"attributes":{"ID":342397,"DIS_CODE":0,"TOWNNAME":"善化區","LI":"文正里","LIN":"1鄰","STREET":"進學路","SECT":" ","MAREA":" ","LANE":"７１巷","ALLEY":" ","HOUSE_NO":"３１號","E_COORD97":177077.57000000001,"N_COORD97":2559548.5,"ADDRESS":"進學路７１巷３１號","OBJECTID":342388},"geometry":{"x":177077.57000000123,"y":2559548.5}},{"attributes":{"ID":342398,"DIS_CODE":0,"TOWNNAME":"善化區","LI":"文正里","LIN":"1鄰","STREET":"進學路","SECT":" ","MAREA":" ","LANE":"７１巷","ALLEY":" ","HOUSE_NO":"２２號","E_COORD97":177096.23999999999,"N_COORD97":2559562.5,"ADDRESS":"進學路７１巷２２號","OBJECTID":342389},"geometry":{"x":177096.24000000022,"y":2559562.5000000037}},{"attributes":{"ID":342399,"DIS_CODE":0,"TOWNNAME":"善化區","LI":"東關里","LIN":"1鄰","STREET":"中正路","SECT":" ","MAREA":" ","LANE":"５３７巷","ALLEY":" ","HOUSE_NO":"１５號","E_COORD97":177590.75,"N_COORD97":2559168,"ADDRESS":"中正路５３７巷１５號","OBJECTID":342390},"geometry":{"x":177590.75,"y":2559168}},{"attributes":{"ID":342400,"DIS_CODE":0,"TOWNNAME":"東區","LI":"南聖里","LIN":"1鄰","STREET":"裕農路","SECT":" ","MAREA":" ","LANE":"６６８巷","ALLEY":" ","HOUSE_NO":"１１號","E_COORD97":171733.95000000001,"N_COORD97":2543181.79,"ADDRESS":"裕農路６６８巷１１號","OBJECTID":342391},"geometry":{"x":171733.95000000019,"y":2543181.790000001}},{"attributes":{"ID":342401,"DIS_CODE":0,"TOWNNAME":"六甲區","LI":"中社里","LIN":"5鄰","STREET":" ","SECT":" ","MAREA":"中社","LANE":" ","ALLEY":" ","HOUSE_NO":"１０１號","E_COORD97":181106.54999999999,"N_COORD97":2570802.4700000002,"ADDRESS":"中社１０１號","OBJECTID":342392},"geometry":{"x":181106.55000000075,"y":2570802.4700000044}},{"attributes":{"ID":342402,"DIS_CODE":0,"TOWNNAME":"東區","LI":"南聖里","LIN":"1鄰","STREET":"裕農路","SECT":" ","MAREA":" ","LANE":"６６８巷","ALLEY":" ","HOUSE_NO":"５號","E_COORD97":171734.84,"N_COORD97":2543193.4300000002,"ADDRESS":"裕農路６６８巷５號","OBJECTID":342393},"geometry":{"x":171734.83999999985,"y":2543193.4299999997}},{"attributes":{"ID":342403,"DIS_CODE":0,"TOWNNAME":"東區","LI":"南聖里","LIN":"1鄰","STREET":"裕農路","SECT":" ","MAREA":" ","LANE":"６６８巷","ALLEY":" ","HOUSE_NO":"７號","E_COORD97":171734.63,"N_COORD97":2543190.3500000001,"ADDRESS":"裕農路６６８巷７號","OBJECTID":342394},"geometry":{"x":171734.62999999989,"y":2543190.3499999996}},{"attributes":{"ID":342404,"DIS_CODE":0,"TOWNNAME":"東區","LI":"南聖里","LIN":"1鄰","STREET":"裕農路","SECT":" ","MAREA":" ","LANE":"６６８巷","ALLEY":" ","HOUSE_NO":"９號","E_COORD97":171734.29000000001,"N_COORD97":2543186.79,"ADDRESS":"裕農路６６８巷９號","OBJECTID":342395},"geometry":{"x":171734.29000000097,"y":2543186.7899999991}},{"attributes":{"ID":342405,"DIS_CODE":0,"TOWNNAME":"東區","LI":"崇誨里","LIN":"1鄰","STREET":"林森路","SECT":"二段","MAREA":" ","LANE":"１９２巷","ALLEY":" ","HOUSE_NO":"１０號之１","E_COORD97":170506.79999999999,"N_COORD97":2543303.3100000001,"ADDRESS":"林森路二段１９２巷１０號之１","OBJECTID":342396},"geometry":{"x":170506.80000000075,"y":2543303.3100000005}},{"attributes":{"ID":342406,"DIS_CODE":0,"TOWNNAME":"東區","LI":"崇誨里","LIN":"1鄰","STREET":"林森路","SECT":"二段","MAREA":" ","LANE":"１９２巷","ALLEY":" ","HOUSE_NO":"１２號","E_COORD97":170514.98999999999,"N_COORD97":2543305.1299999999,"ADDRESS":"林森路二段１９２巷１２號","OBJECTID":342397},"geometry":{"x":170514.99000000022,"y":2543305.1300000008}},{"attributes":{"ID":342407,"DIS_CODE":0,"TOWNNAME":"東區","LI":"崇誨里","LIN":"1鄰","STREET":"林森路","SECT":"二段","MAREA":" ","LANE":"１９２巷","ALLEY":" ","HOUSE_NO":"１４號之１","E_COORD97":170523.64000000001,"N_COORD97":2543306.7200000002,"ADDRESS":"林森路二段１９２巷１４號之１","OBJECTID":342398},"geometry":{"x":170523.63999999966,"y":2543306.7200000007}},{"attributes":{"ID":342408,"DIS_CODE":0,"TOWNNAME":"六甲區","LI":"中社里","LIN":"5鄰","STREET":" ","SECT":" ","MAREA":"中社","LANE":" ","ALLEY":" ","HOUSE_NO":"１１１號","E_COORD97":181122.34,"N_COORD97":2570765.8199999998,"ADDRESS":"中社１１１號","OBJECTID":342399},"geometry":{"x":181122.33999999985,"y":2570765.820000004}},{"attributes":{"ID":342409,"DIS_CODE":0,"TOWNNAME":"六甲區","LI":"中社里","LIN":"5鄰","STREET":" ","SECT":" ","MAREA":"中社","LANE":" ","ALLEY":" ","HOUSE_NO":"１１５號","E_COORD97":181125.20999999999,"N_COORD97":2570752.8100000001,"ADDRESS":"中社１１５號","OBJECTID":342400},"geometry":{"x":181125.20999999996,"y":2570752.8100000024}}]}