{"displayFieldName":"TOWNNAME","fieldAliases":{"ID":"ID","DIS_CODE":"DIS_CODE","TOWNNAME":"TOWNNAME","LI":"LI","LIN":"LIN","STREET":"STREET","SECT":"SECT","MAREA":"MAREA","LANE":"LANE","ALLEY":"ALLEY","HOUSE_NO":"HOUSE_NO","E_COORD97":"E_COORD97","N_COORD97":"N_COORD97","ADDRESS":"ADDRESS","OBJECTID":"OBJECTID"},"geometryType":"esriGeometryPoint","spatialReference":{"wkid":102443,"latestWkid":3826},"fields":[{"name":"ID","type":"esriFieldTypeDouble","alias":"ID"},{"name":"DIS_CODE","type":"esriFieldTypeInteger","alias":"DIS_CODE"},{"name":"TOWNNAME","type":"esriFieldTypeString","alias":"TOWNNAME","length":8},{"name":"LI","type":"esriFieldTypeString","alias":"LI","length":8},{"name":"LIN","type":"esriFieldTypeString","alias":"LIN","length":12},{"name":"STREET","type":"esriFieldTypeString","alias":"STREET","length":20},{"name":"SECT","type":"esriFieldTypeString","alias":"SECT","length":8},{"name":"MAREA","type":"esriFieldTypeString","alias":"MAREA","length":12},{"name":"LANE","type":"esriFieldTypeString","alias":"LANE","length":10},{"name":"ALLEY","type":"esriFieldTypeString","alias":"ALLEY","length":10},{"name":"HOUSE_NO","type":"esriFieldTypeString","alias":"HOUSE_NO","length":20},{"name":"E_COORD97","type":"esriFieldTypeDouble","alias":"E_COORD97"},{"name":"N_COORD97","type":"esriFieldTypeDouble","alias":"N_COORD97"},{"name":"ADDRESS","type":"esriFieldTypeString","alias":"ADDRESS","length":50},{"name":"OBJECTID","type":"esriFieldTypeOID","alias":"OBJECTID"}],"features":[{"attributes":{"ID":249005,"DIS_CODE":0,"TOWNNAME":"東區","LI":"大福里","LIN":"14鄰","STREET":"榮譽街","SECT":" ","MAREA":" ","LANE":"４７巷","ALLEY":" ","HOUSE_NO":"１２號","E_COORD97":169669.75,"N_COORD97":2541704.8700000001,"ADDRESS":"榮譽街４７巷１２號","OBJECTID":249001},"geometry":{"x":169669.75000000093,"y":2541704.8700000029}},{"attributes":{"ID":249006,"DIS_CODE":0,"TOWNNAME":"東區","LI":"大福里","LIN":"14鄰","STREET":"榮譽街","SECT":" ","MAREA":" ","LANE":"４７巷","ALLEY":" ","HOUSE_NO":"１３號","E_COORD97":169673.19,"N_COORD97":2541706.46,"ADDRESS":"榮譽街４７巷１３號","OBJECTID":249002},"geometry":{"x":169673.19000000041,"y":2541706.4600000046}},{"attributes":{"ID":249007,"DIS_CODE":0,"TOWNNAME":"官田區","LI":"渡頭里","LIN":"11鄰","STREET":" ","SECT":" ","MAREA":"渡子頭","LANE":" ","ALLEY":" ","HOUSE_NO":"８１號之４","E_COORD97":181044.79999999999,"N_COORD97":2563145.9199999999,"ADDRESS":"渡子頭８１號之４","OBJECTID":249003},"geometry":{"x":181044.79999999981,"y":2563145.9199999999}},{"attributes":{"ID":249008,"DIS_CODE":0,"TOWNNAME":"官田區","LI":"渡頭里","LIN":"11鄰","STREET":" ","SECT":" ","MAREA":"渡子頭","LANE":" ","ALLEY":" ","HOUSE_NO":"８１號","E_COORD97":181035.12,"N_COORD97":2563154.46,"ADDRESS":"渡子頭８１號","OBJECTID":249004},"geometry":{"x":181035.12000000197,"y":2563154.4600000028}},{"attributes":{"ID":249009,"DIS_CODE":0,"TOWNNAME":"官田區","LI":"渡頭里","LIN":"11鄰","STREET":" ","SECT":" ","MAREA":"渡子頭","LANE":" ","ALLEY":" ","HOUSE_NO":"８２號之１","E_COORD97":180977.98999999999,"N_COORD97":2563117.54,"ADDRESS":"渡子頭８２號之１","OBJECTID":249005},"geometry":{"x":180977.99000000022,"y":2563117.5400000028}},{"attributes":{"ID":249010,"DIS_CODE":0,"TOWNNAME":"官田區","LI":"渡頭里","LIN":"11鄰","STREET":" ","SECT":" ","MAREA":"渡子頭","LANE":" ","ALLEY":" ","HOUSE_NO":"８２號之２","E_COORD97":181000.70999999999,"N_COORD97":2563129.2200000002,"ADDRESS":"渡子頭８２號之２","OBJECTID":249006},"geometry":{"x":181000.71000000089,"y":2563129.2200000025}},{"attributes":{"ID":249011,"DIS_CODE":0,"TOWNNAME":"官田區","LI":"渡頭里","LIN":"11鄰","STREET":" ","SECT":" ","MAREA":"渡子頭","LANE":" ","ALLEY":" ","HOUSE_NO":"８２號","E_COORD97":181022.89000000001,"N_COORD97":2563149.54,"ADDRESS":"渡子頭８２號","OBJECTID":249007},"geometry":{"x":181022.8900000006,"y":2563149.540000001}},{"attributes":{"ID":249012,"DIS_CODE":0,"TOWNNAME":"官田區","LI":"渡頭里","LIN":"11鄰","STREET":" ","SECT":" ","MAREA":"渡子頭","LANE":" ","ALLEY":" ","HOUSE_NO":"８３號","E_COORD97":180949.81,"N_COORD97":2563137.6000000001,"ADDRESS":"渡子頭８３號","OBJECTID":249008},"geometry":{"x":180949.80999999959,"y":2563137.5999999996}},{"attributes":{"ID":249013,"DIS_CODE":0,"TOWNNAME":"東區","LI":"大福里","LIN":"14鄰","STREET":"榮譽街","SECT":" ","MAREA":" ","LANE":"４７巷","ALLEY":" ","HOUSE_NO":"１７號","E_COORD97":169667.10000000001,"N_COORD97":2541689.8199999998,"ADDRESS":"榮譽街４７巷１７號","OBJECTID":249009},"geometry":{"x":169667.10000000056,"y":2541689.820000004}},{"attributes":{"ID":249014,"DIS_CODE":0,"TOWNNAME":"歸仁區","LI":"歸仁里","LIN":"4鄰","STREET":"和平北街","SECT":" ","MAREA":" ","LANE":" ","ALLEY":" ","HOUSE_NO":"６９號","E_COORD97":177843.19,"N_COORD97":2541017.04,"ADDRESS":"和平北街６９號","OBJECTID":249010},"geometry":{"x":177843.19000000134,"y":2541017.040000001}},{"attributes":{"ID":249015,"DIS_CODE":0,"TOWNNAME":"佳里區","LI":"東寧里","LIN":"14鄰","STREET":"和平街","SECT":" ","MAREA":" ","LANE":" ","ALLEY":" ","HOUSE_NO":"５９號","E_COORD97":165926.10000000001,"N_COORD97":2562504.9300000002,"ADDRESS":"和平街５９號","OBJECTID":249011},"geometry":{"x":165926.10000000056,"y":2562504.9299999997}},{"attributes":{"ID":249016,"DIS_CODE":0,"TOWNNAME":"佳里區","LI":"東寧里","LIN":"14鄰","STREET":"和平街","SECT":" ","MAREA":" ","LANE":" ","ALLEY":" ","HOUSE_NO":"６１號","E_COORD97":165921.73000000001,"N_COORD97":2562505.1899999999,"ADDRESS":"和平街６１號","OBJECTID":249012},"geometry":{"x":165921.73000000045,"y":2562505.1899999995}},{"attributes":{"ID":249017,"DIS_CODE":0,"TOWNNAME":"佳里區","LI":"東寧里","LIN":"14鄰","STREET":"和平街","SECT":" ","MAREA":" ","LANE":" ","ALLEY":" ","HOUSE_NO":"６３號","E_COORD97":165917.5,"N_COORD97":2562505.1000000001,"ADDRESS":"和平街６３號","OBJECTID":249013},"geometry":{"x":165917.5,"y":2562505.1000000015}},{"attributes":{"ID":249018,"DIS_CODE":0,"TOWNNAME":"佳里區","LI":"東寧里","LIN":"14鄰","STREET":"和平街","SECT":" ","MAREA":" ","LANE":" ","ALLEY":" ","HOUSE_NO":"６５號","E_COORD97":165913.29000000001,"N_COORD97":2562505.1899999999,"ADDRESS":"和平街６５號","OBJECTID":249014},"geometry":{"x":165913.29000000097,"y":2562505.1899999995}},{"attributes":{"ID":249019,"DIS_CODE":0,"TOWNNAME":"安定區","LI":"六嘉里","LIN":"11鄰","STREET":" ","SECT":" ","MAREA":"六塊寮","LANE":" ","ALLEY":" ","HOUSE_NO":"８６號之４","E_COORD97":170324.67999999999,"N_COORD97":2553235.2999999998,"ADDRESS":"六塊寮８６號之４","OBJECTID":249015},"geometry":{"x":170324.68000000063,"y":2553235.3000000026}},{"attributes":{"ID":249020,"DIS_CODE":0,"TOWNNAME":"新市區","LI":"潭頂里","LIN":"11鄰","STREET":" ","SECT":" ","MAREA":"潭頂","LANE":" ","ALLEY":" ","HOUSE_NO":"３７１號","E_COORD97":180612.37,"N_COORD97":2552934.25,"ADDRESS":"潭頂３７１號","OBJECTID":249016},"geometry":{"x":180612.37000000011,"y":2552934.25}},{"attributes":{"ID":249021,"DIS_CODE":0,"TOWNNAME":"安定區","LI":"六嘉里","LIN":"11鄰","STREET":" ","SECT":" ","MAREA":"六塊寮","LANE":" ","ALLEY":" ","HOUSE_NO":"９０號之１","E_COORD97":170355.04999999999,"N_COORD97":2553295.2999999998,"ADDRESS":"六塊寮９０號之１","OBJECTID":249017},"geometry":{"x":170355.04999999981,"y":2553295.3000000007}},{"attributes":{"ID":249022,"DIS_CODE":0,"TOWNNAME":"永康區","LI":"五王里","LIN":"39鄰","STREET":"中華路","SECT":" ","MAREA":" ","LANE":"５７８巷","ALLEY":" ","HOUSE_NO":"１７號之９９","E_COORD97":171333.64999999999,"N_COORD97":2545989.54,"ADDRESS":"中華路５７８巷１７號之９９","OBJECTID":249018},"geometry":{"x":171333.65000000224,"y":2545989.5400000028}},{"attributes":{"ID":249023,"DIS_CODE":0,"TOWNNAME":"永康區","LI":"五王里","LIN":"39鄰","STREET":"中華路","SECT":" ","MAREA":" ","LANE":"５７８巷","ALLEY":" ","HOUSE_NO":"１７號之８９","E_COORD97":171333.64999999999,"N_COORD97":2545989.54,"ADDRESS":"中華路５７８巷１７號之８９","OBJECTID":249019},"geometry":{"x":171333.65000000224,"y":2545989.5400000028}},{"attributes":{"ID":249024,"DIS_CODE":0,"TOWNNAME":"安定區","LI":"保西里","LIN":"11鄰","STREET":" ","SECT":" ","MAREA":"安定","LANE":" ","ALLEY":" ","HOUSE_NO":"４３４號之１","E_COORD97":171646.45000000001,"N_COORD97":2557914.3199999998,"ADDRESS":"安定４３４號之１","OBJECTID":249020},"geometry":{"x":171646.45000000019,"y":2557914.3200000022}},{"attributes":{"ID":249025,"DIS_CODE":0,"TOWNNAME":"安定區","LI":"蘇厝里","LIN":"11鄰","STREET":" ","SECT":" ","MAREA":"蘇厝","LANE":" ","ALLEY":" ","HOUSE_NO":"３８６之１號","E_COORD97":173065.62,"N_COORD97":2558880.2999999998,"ADDRESS":"蘇厝３８６之１號","OBJECTID":249021},"geometry":{"x":173065.62000000011,"y":2558880.3000000026}},{"attributes":{"ID":249026,"DIS_CODE":0,"TOWNNAME":"安定區","LI":"港口里","LIN":"11鄰","STREET":" ","SECT":" ","MAREA":"港口","LANE":" ","ALLEY":" ","HOUSE_NO":"３１３號之１","E_COORD97":171322.03,"N_COORD97":2554598.2999999998,"ADDRESS":"港口３１３號之１","OBJECTID":249022},"geometry":{"x":171322.03000000026,"y":2554598.3000000026}},{"attributes":{"ID":249027,"DIS_CODE":0,"TOWNNAME":"新市區","LI":"潭頂里","LIN":"11鄰","STREET":" ","SECT":" ","MAREA":"潭頂","LANE":" ","ALLEY":" ","HOUSE_NO":"３６９號","E_COORD97":180606.706565,"N_COORD97":2552894.2020700001,"ADDRESS":"潭頂３６９號","OBJECTID":249023},"geometry":{"x":180606.70656500012,"y":2552894.2020690031}},{"attributes":{"ID":249028,"DIS_CODE":0,"TOWNNAME":"永康區","LI":"中興里","LIN":"22鄰","STREET":"中華路","SECT":" ","MAREA":" ","LANE":"２１２巷","ALLEY":" ","HOUSE_NO":"３３號","E_COORD97":171784.70000000001,"N_COORD97":2545023.2999999998,"ADDRESS":"中華路２１２巷３３號","OBJECTID":249024},"geometry":{"x":171784.70000000112,"y":2545023.3000000045}},{"attributes":{"ID":249029,"DIS_CODE":0,"TOWNNAME":"東區","LI":"大福里","LIN":"14鄰","STREET":"榮譽街","SECT":" ","MAREA":" ","LANE":"４７巷","ALLEY":" ","HOUSE_NO":"１８號","E_COORD97":169663.14000000001,"N_COORD97":2541687.1800000002,"ADDRESS":"榮譽街４７巷１８號","OBJECTID":249025},"geometry":{"x":169663.14000000153,"y":2541687.1800000016}},{"attributes":{"ID":249030,"DIS_CODE":0,"TOWNNAME":"東區","LI":"大福里","LIN":"14鄰","STREET":"榮譽街","SECT":" ","MAREA":" ","LANE":"４７巷","ALLEY":" ","HOUSE_NO":"１９號","E_COORD97":169657.32000000001,"N_COORD97":2541686.9100000001,"ADDRESS":"榮譽街４７巷１９號","OBJECTID":249026},"geometry":{"x":169657.31999999937,"y":2541686.910000002}},{"attributes":{"ID":249031,"DIS_CODE":0,"TOWNNAME":"東區","LI":"大福里","LIN":"14鄰","STREET":"榮譽街","SECT":" ","MAREA":" ","LANE":"４７巷","ALLEY":" ","HOUSE_NO":"４號","E_COORD97":169616.57999999999,"N_COORD97":2541705.46,"ADDRESS":"榮譽街４７巷４號","OBJECTID":249027},"geometry":{"x":169616.58000000194,"y":2541705.4600000009}},{"attributes":{"ID":249032,"DIS_CODE":0,"TOWNNAME":"新市區","LI":"潭頂里","LIN":"11鄰","STREET":" ","SECT":" ","MAREA":"潭頂","LANE":" ","ALLEY":" ","HOUSE_NO":"３６６號","E_COORD97":180636.84,"N_COORD97":2552959,"ADDRESS":"潭頂３６６號","OBJECTID":249028},"geometry":{"x":180636.84000000078,"y":2552959.0000000019}},{"attributes":{"ID":249033,"DIS_CODE":0,"TOWNNAME":"新市區","LI":"潭頂里","LIN":"11鄰","STREET":" ","SECT":" ","MAREA":"潭頂","LANE":" ","ALLEY":" ","HOUSE_NO":"３７７之２號","E_COORD97":180572.82999999999,"N_COORD97":2553006.0499999998,"ADDRESS":"潭頂３７７之２號","OBJECTID":249029},"geometry":{"x":180572.83000000101,"y":2553006.0500000045}},{"attributes":{"ID":249034,"DIS_CODE":0,"TOWNNAME":"中西區","LI":"民權里","LIN":"14鄰","STREET":"民族路","SECT":"三段","MAREA":" ","LANE":"１５１巷","ALLEY":" ","HOUSE_NO":"１１號","E_COORD97":167527.94,"N_COORD97":2544350.8999999999,"ADDRESS":"民族路三段１５１巷１１號","OBJECTID":249030},"geometry":{"x":167527.94000000134,"y":2544350.9000000041}},{"attributes":{"ID":249035,"DIS_CODE":0,"TOWNNAME":"新市區","LI":"潭頂里","LIN":"11鄰","STREET":" ","SECT":" ","MAREA":"潭頂","LANE":" ","ALLEY":" ","HOUSE_NO":"３７７之７號","E_COORD97":180574.12,"N_COORD97":2552988.2999999998,"ADDRESS":"潭頂３７７之７號","OBJECTID":249031},"geometry":{"x":180574.12000000104,"y":2552988.3000000026}},{"attributes":{"ID":249036,"DIS_CODE":0,"TOWNNAME":"中西區","LI":"民權里","LIN":"14鄰","STREET":"民族路","SECT":"三段","MAREA":" ","LANE":"１５１巷","ALLEY":" ","HOUSE_NO":"１號","E_COORD97":167544.22,"N_COORD97":2544360.9300000002,"ADDRESS":"民族路三段１５１巷１號","OBJECTID":249032},"geometry":{"x":167544.22000000067,"y":2544360.9300000016}},{"attributes":{"ID":249037,"DIS_CODE":0,"TOWNNAME":"中西區","LI":"民權里","LIN":"14鄰","STREET":"民族路","SECT":"三段","MAREA":" ","LANE":"１５１巷","ALLEY":" ","HOUSE_NO":"１號之１","E_COORD97":167549.79999999999,"N_COORD97":2544360.7599999998,"ADDRESS":"民族路三段１５１巷１號之１","OBJECTID":249033},"geometry":{"x":167549.79999999981,"y":2544360.7599999998}},{"attributes":{"ID":249038,"DIS_CODE":0,"TOWNNAME":"佳里區","LI":"東寧里","LIN":"14鄰","STREET":"和平街","SECT":" ","MAREA":" ","LANE":" ","ALLEY":" ","HOUSE_NO":"６７號","E_COORD97":165907.57000000001,"N_COORD97":2562507.27,"ADDRESS":"和平街６７號","OBJECTID":249034},"geometry":{"x":165907.56999999937,"y":2562507.2700000014}},{"attributes":{"ID":249039,"DIS_CODE":0,"TOWNNAME":"中西區","LI":"普濟里","LIN":"14鄰","STREET":"國華街","SECT":"三段","MAREA":" ","LANE":" ","ALLEY":" ","HOUSE_NO":"２６１號","E_COORD97":167963.54999999999,"N_COORD97":2544473.8999999999,"ADDRESS":"國華街三段２６１號","OBJECTID":249035},"geometry":{"x":167963.55000000168,"y":2544473.9000000022}},{"attributes":{"ID":249040,"DIS_CODE":0,"TOWNNAME":"中西區","LI":"普濟里","LIN":"14鄰","STREET":"國華街","SECT":"三段","MAREA":" ","LANE":" ","ALLEY":" ","HOUSE_NO":"２６３號","E_COORD97":167960.29999999999,"N_COORD97":2544472.21,"ADDRESS":"國華街三段２６３號","OBJECTID":249036},"geometry":{"x":167960.30000000168,"y":2544472.2100000028}},{"attributes":{"ID":249041,"DIS_CODE":0,"TOWNNAME":"永康區","LI":"五王里","LIN":"25鄰","STREET":"五福街","SECT":" ","MAREA":" ","LANE":" ","ALLEY":" ","HOUSE_NO":"４６號","E_COORD97":171355.92000000001,"N_COORD97":2545886.8100000001,"ADDRESS":"五福街４６號","OBJECTID":249037},"geometry":{"x":171355.91999999993,"y":2545886.8100000005}},{"attributes":{"ID":249042,"DIS_CODE":0,"TOWNNAME":"新市區","LI":"潭頂里","LIN":"11鄰","STREET":" ","SECT":" ","MAREA":"潭頂","LANE":" ","ALLEY":" ","HOUSE_NO":"３７７之６號","E_COORD97":180573.92000000001,"N_COORD97":2552991.7999999998,"ADDRESS":"潭頂３７７之６號","OBJECTID":249038},"geometry":{"x":180573.92000000086,"y":2552991.8000000026}},{"attributes":{"ID":249043,"DIS_CODE":0,"TOWNNAME":"新市區","LI":"潭頂里","LIN":"11鄰","STREET":" ","SECT":" ","MAREA":"潭頂","LANE":" ","ALLEY":" ","HOUSE_NO":"３６５號","E_COORD97":180643.14000000001,"N_COORD97":2552932,"ADDRESS":"潭頂３６５號","OBJECTID":249039},"geometry":{"x":180643.1400000006,"y":2552932.0000000019}},{"attributes":{"ID":249044,"DIS_CODE":0,"TOWNNAME":"新市區","LI":"豐華里","LIN":"11鄰","STREET":" ","SECT":" ","MAREA":"豐華","LANE":" ","ALLEY":" ","HOUSE_NO":"４７之１０２號","E_COORD97":174239.70999999999,"N_COORD97":2554516.7999999998,"ADDRESS":"豐華４７之１０２號","OBJECTID":249040},"geometry":{"x":174239.70999999996,"y":2554516.8000000026}},{"attributes":{"ID":249045,"DIS_CODE":0,"TOWNNAME":"新市區","LI":"潭頂里","LIN":"11鄰","STREET":" ","SECT":" ","MAREA":"潭頂","LANE":" ","ALLEY":" ","HOUSE_NO":"３７５之２０號","E_COORD97":180608.59,"N_COORD97":2553086.7999999998,"ADDRESS":"潭頂３７５之２０號","OBJECTID":249041},"geometry":{"x":180608.59000000078,"y":2553086.8000000026}},{"attributes":{"ID":249046,"DIS_CODE":0,"TOWNNAME":"善化區","LI":"胡厝里","LIN":"22鄰","STREET":" ","SECT":" ","MAREA":"烏橋","LANE":" ","ALLEY":" ","HOUSE_NO":"１號","E_COORD97":175436.56,"N_COORD97":2558903.25,"ADDRESS":"烏橋１號","OBJECTID":249042},"geometry":{"x":175436.55999999959,"y":2558903.2500000019}},{"attributes":{"ID":249047,"DIS_CODE":0,"TOWNNAME":"永康區","LI":"五王里","LIN":"22鄰","STREET":"成功路","SECT":" ","MAREA":" ","LANE":"２２８巷","ALLEY":" ","HOUSE_NO":"２３號","E_COORD97":171407.53,"N_COORD97":2545818.27,"ADDRESS":"成功路２２８巷２３號","OBJECTID":249043},"geometry":{"x":171407.53000000119,"y":2545818.2699999996}},{"attributes":{"ID":249048,"DIS_CODE":0,"TOWNNAME":"永康區","LI":"五王里","LIN":"38鄰","STREET":"中華路","SECT":" ","MAREA":" ","LANE":"５７８巷","ALLEY":" ","HOUSE_NO":"１７號之２６","E_COORD97":171333.67000000001,"N_COORD97":2545989.54,"ADDRESS":"中華路５７８巷１７號之２６","OBJECTID":249044},"geometry":{"x":171333.67000000086,"y":2545989.5400000028}},{"attributes":{"ID":249049,"DIS_CODE":0,"TOWNNAME":"永康區","LI":"王行里","LIN":"12鄰","STREET":"王行路","SECT":" ","MAREA":" ","LANE":"８６６巷","ALLEY":" ","HOUSE_NO":"２３號","E_COORD97":175948.98999999999,"N_COORD97":2549931.25,"ADDRESS":"王行路８６６巷２３號","OBJECTID":249045},"geometry":{"x":175948.99000000115,"y":2549931.25}},{"attributes":{"ID":249050,"DIS_CODE":0,"TOWNNAME":"新市區","LI":"豐華里","LIN":"11鄰","STREET":" ","SECT":" ","MAREA":"豐華","LANE":" ","ALLEY":" ","HOUSE_NO":"４７之９８號","E_COORD97":174221.92000000001,"N_COORD97":2554512.0499999998,"ADDRESS":"豐華４７之９８號","OBJECTID":249046},"geometry":{"x":174221.92000000086,"y":2554512.0500000026}},{"attributes":{"ID":249051,"DIS_CODE":0,"TOWNNAME":"新市區","LI":"潭頂里","LIN":"11鄰","STREET":" ","SECT":" ","MAREA":"潭頂","LANE":" ","ALLEY":" ","HOUSE_NO":"３７７之１０號","E_COORD97":180582.84,"N_COORD97":2552966.2999999998,"ADDRESS":"潭頂３７７之１０號","OBJECTID":249047},"geometry":{"x":180582.84000000078,"y":2552966.3000000007}},{"attributes":{"ID":249052,"DIS_CODE":0,"TOWNNAME":"新市區","LI":"潭頂里","LIN":"11鄰","STREET":" ","SECT":" ","MAREA":"潭頂","LANE":" ","ALLEY":" ","HOUSE_NO":"３６１號","E_COORD97":180629.56,"N_COORD97":2552892.75,"ADDRESS":"潭頂３６１號","OBJECTID":249048},"geometry":{"x":180629.55999999959,"y":2552892.7500000019}},{"attributes":{"ID":249053,"DIS_CODE":0,"TOWNNAME":"中西區","LI":"民權里","LIN":"14鄰","STREET":"民族路","SECT":"三段","MAREA":" ","LANE":"１５１巷","ALLEY":" ","HOUSE_NO":"３號","E_COORD97":167550.29000000001,"N_COORD97":2544356.3500000001,"ADDRESS":"民族路三段１５１巷３號","OBJECTID":249049},"geometry":{"x":167550.2900000019,"y":2544356.3499999996}},{"attributes":{"ID":249054,"DIS_CODE":0,"TOWNNAME":"中西區","LI":"民權里","LIN":"14鄰","STREET":"民族路","SECT":"三段","MAREA":" ","LANE":"１５１巷","ALLEY":" ","HOUSE_NO":"５號","E_COORD97":167550.85999999999,"N_COORD97":2544337.0699999998,"ADDRESS":"民族路三段１５１巷５號","OBJECTID":249050},"geometry":{"x":167550.86000000127,"y":2544337.0700000022}},{"attributes":{"ID":249055,"DIS_CODE":0,"TOWNNAME":"中西區","LI":"民權里","LIN":"14鄰","STREET":"民族路","SECT":"三段","MAREA":" ","LANE":"１５１巷","ALLEY":" ","HOUSE_NO":"７號","E_COORD97":167543.94,"N_COORD97":2544339.8199999998,"ADDRESS":"民族路三段１５１巷７號","OBJECTID":249051},"geometry":{"x":167543.94000000041,"y":2544339.8200000003}},{"attributes":{"ID":249056,"DIS_CODE":0,"TOWNNAME":"中西區","LI":"普濟里","LIN":"14鄰","STREET":"國華街","SECT":"三段","MAREA":" ","LANE":" ","ALLEY":" ","HOUSE_NO":"２６５號","E_COORD97":167967.39999999999,"N_COORD97":2544475.2999999998,"ADDRESS":"國華街三段２６５號","OBJECTID":249052},"geometry":{"x":167967.4000000013,"y":2544475.3000000026}},{"attributes":{"ID":249057,"DIS_CODE":0,"TOWNNAME":"中西區","LI":"大涼里","LIN":"14鄰","STREET":"府前路","SECT":"二段","MAREA":" ","LANE":" ","ALLEY":" ","HOUSE_NO":"２８６號","E_COORD97":166942.59,"N_COORD97":2543655.8199999998,"ADDRESS":"府前路二段２８６號","OBJECTID":249053},"geometry":{"x":166942.58999999985,"y":2543655.8200000003}},{"attributes":{"ID":249058,"DIS_CODE":0,"TOWNNAME":"中西區","LI":"大涼里","LIN":"14鄰","STREET":"府前路","SECT":"二段","MAREA":" ","LANE":" ","ALLEY":" ","HOUSE_NO":"２８８號","E_COORD97":166926.84,"N_COORD97":2543664.3100000001,"ADDRESS":"府前路二段２８８號","OBJECTID":249054},"geometry":{"x":166926.83999999985,"y":2543664.3100000024}},{"attributes":{"ID":249059,"DIS_CODE":0,"TOWNNAME":"永康區","LI":"中興里","LIN":"18鄰","STREET":"中華路","SECT":" ","MAREA":" ","LANE":"２８６巷","ALLEY":" ","HOUSE_NO":"７７號","E_COORD97":171721.89000000001,"N_COORD97":2545346.2400000002,"ADDRESS":"中華路２８６巷７７號","OBJECTID":249055},"geometry":{"x":171721.88999999966,"y":2545346.2400000021}},{"attributes":{"ID":249060,"DIS_CODE":0,"TOWNNAME":"永康區","LI":"五王里","LIN":"39鄰","STREET":"中華路","SECT":" ","MAREA":" ","LANE":"５７８巷","ALLEY":" ","HOUSE_NO":"１７號之６７","E_COORD97":171333.64999999999,"N_COORD97":2545989.54,"ADDRESS":"中華路５７８巷１７號之６７","OBJECTID":249056},"geometry":{"x":171333.65000000224,"y":2545989.5400000028}},{"attributes":{"ID":249061,"DIS_CODE":0,"TOWNNAME":"永康區","LI":"王行里","LIN":"12鄰","STREET":"王行路","SECT":" ","MAREA":" ","LANE":"８９８巷","ALLEY":" ","HOUSE_NO":"５７號","E_COORD97":175961.04999999999,"N_COORD97":2550084.9900000002,"ADDRESS":"王行路８９８巷５７號","OBJECTID":249057},"geometry":{"x":175961.04999999981,"y":2550084.9900000002}},{"attributes":{"ID":249062,"DIS_CODE":0,"TOWNNAME":"永康區","LI":"王行里","LIN":"16鄰","STREET":"王行路","SECT":" ","MAREA":" ","LANE":"６８巷","ALLEY":" ","HOUSE_NO":"３２號之１","E_COORD97":175836.95999999999,"N_COORD97":2548033.4900000002,"ADDRESS":"王行路６８巷３２號之１","OBJECTID":249058},"geometry":{"x":175836.96000000089,"y":2548033.4900000021}},{"attributes":{"ID":249063,"DIS_CODE":0,"TOWNNAME":"永康區","LI":"中興里","LIN":"11鄰","STREET":"中興街","SECT":" ","MAREA":" ","LANE":"１１巷","ALLEY":" ","HOUSE_NO":"２６號","E_COORD97":172051.57000000001,"N_COORD97":2545098.29,"ADDRESS":"中興街１１巷２６號","OBJECTID":249059},"geometry":{"x":172051.57000000123,"y":2545098.2899999991}},{"attributes":{"ID":249064,"DIS_CODE":0,"TOWNNAME":"永康區","LI":"北灣里","LIN":"11鄰","STREET":"大民街","SECT":" ","MAREA":" ","LANE":"１５８巷","ALLEY":" ","HOUSE_NO":"１１號","E_COORD97":175007.89000000001,"N_COORD97":2545690.54,"ADDRESS":"大民街１５８巷１１號","OBJECTID":249060},"geometry":{"x":175007.88999999873,"y":2545690.5399999991}},{"attributes":{"ID":249065,"DIS_CODE":0,"TOWNNAME":"永康區","LI":"王行里","LIN":"15鄰","STREET":"龍昌街","SECT":" ","MAREA":" ","LANE":"１０７巷","ALLEY":" ","HOUSE_NO":"３號","E_COORD97":174926.54999999999,"N_COORD97":2548120.4300000002,"ADDRESS":"龍昌街１０７巷３號","OBJECTID":249061},"geometry":{"x":174926.55000000075,"y":2548120.4300000016}},{"attributes":{"ID":249066,"DIS_CODE":0,"TOWNNAME":"北區","LI":"國姓里","LIN":"7鄰","STREET":"小北路","SECT":" ","MAREA":" ","LANE":"２７巷","ALLEY":" ","HOUSE_NO":"４號","E_COORD97":168773.10000000001,"N_COORD97":2545263.4500000002,"ADDRESS":"小北路２７巷４號","OBJECTID":249062},"geometry":{"x":168773.09999999963,"y":2545263.4499999993}},{"attributes":{"ID":249067,"DIS_CODE":0,"TOWNNAME":"永康區","LI":"東橋里","LIN":"14鄰","STREET":"東橋三路","SECT":" ","MAREA":" ","LANE":"１２９巷","ALLEY":" ","HOUSE_NO":"２６號","E_COORD97":171440.32999999999,"N_COORD97":2546727.4700000002,"ADDRESS":"東橋三路１２９巷２６號","OBJECTID":249063},"geometry":{"x":171440.33000000007,"y":2546727.4700000044}},{"attributes":{"ID":249068,"DIS_CODE":0,"TOWNNAME":"永康區","LI":"東橋里","LIN":"14鄰","STREET":"東橋三路","SECT":" ","MAREA":" ","LANE":"１２９巷","ALLEY":" ","HOUSE_NO":"３號","E_COORD97":171486.19,"N_COORD97":2546727.2799999998,"ADDRESS":"東橋三路１２９巷３號","OBJECTID":249064},"geometry":{"x":171486.19000000134,"y":2546727.2800000031}},{"attributes":{"ID":249069,"DIS_CODE":0,"TOWNNAME":"永康區","LI":"東橋里","LIN":"14鄰","STREET":"東橋三路","SECT":" ","MAREA":" ","LANE":"１２９巷","ALLEY":" ","HOUSE_NO":"５號","E_COORD97":171481.95999999999,"N_COORD97":2546724.8199999998,"ADDRESS":"東橋三路１２９巷５號","OBJECTID":249065},"geometry":{"x":171481.96000000183,"y":2546724.8200000022}},{"attributes":{"ID":249070,"DIS_CODE":0,"TOWNNAME":"永康區","LI":"東橋里","LIN":"14鄰","STREET":"東橋三路","SECT":" ","MAREA":" ","LANE":"１２９巷","ALLEY":" ","HOUSE_NO":"７號","E_COORD97":171477.73000000001,"N_COORD97":2546722.3500000001,"ADDRESS":"東橋三路１２９巷７號","OBJECTID":249066},"geometry":{"x":171477.73000000138,"y":2546722.3499999996}},{"attributes":{"ID":249071,"DIS_CODE":0,"TOWNNAME":"永康區","LI":"東橋里","LIN":"14鄰","STREET":"東橋三路","SECT":" ","MAREA":" ","LANE":"１２９巷","ALLEY":" ","HOUSE_NO":"９號","E_COORD97":171473.48999999999,"N_COORD97":2546719.8799999999,"ADDRESS":"東橋三路１２９巷９號","OBJECTID":249067},"geometry":{"x":171473.49000000209,"y":2546719.8800000008}},{"attributes":{"ID":249072,"DIS_CODE":0,"TOWNNAME":"永康區","LI":"東橋里","LIN":"14鄰","STREET":"東橋三路","SECT":" ","MAREA":" ","LANE":"１２９巷","ALLEY":" ","HOUSE_NO":"１１號","E_COORD97":171469.26000000001,"N_COORD97":2546717.4100000001,"ADDRESS":"東橋三路１２９巷１１號","OBJECTID":249068},"geometry":{"x":171469.25999999978,"y":2546717.410000002}},{"attributes":{"ID":249073,"DIS_CODE":0,"TOWNNAME":"永康區","LI":"東橋里","LIN":"14鄰","STREET":"東橋三路","SECT":" ","MAREA":" ","LANE":"１２９巷","ALLEY":" ","HOUSE_NO":"１３號","E_COORD97":171465.03,"N_COORD97":2546714.9399999999,"ADDRESS":"東橋三路１２９巷１３號","OBJECTID":249069},"geometry":{"x":171465.03000000119,"y":2546714.9399999995}},{"attributes":{"ID":249074,"DIS_CODE":0,"TOWNNAME":"永康區","LI":"東橋里","LIN":"14鄰","STREET":"東橋三路","SECT":" ","MAREA":" ","LANE":"１２９巷","ALLEY":" ","HOUSE_NO":"１５號","E_COORD97":171460.79000000001,"N_COORD97":2546712.48,"ADDRESS":"東橋三路１２９巷１５號","OBJECTID":249070},"geometry":{"x":171460.79000000004,"y":2546712.4800000004}},{"attributes":{"ID":249075,"DIS_CODE":0,"TOWNNAME":"永康區","LI":"東橋里","LIN":"14鄰","STREET":"東橋三路","SECT":" ","MAREA":" ","LANE":"１２９巷","ALLEY":" ","HOUSE_NO":"１７號","E_COORD97":171456.56,"N_COORD97":2546710.0099999998,"ADDRESS":"東橋三路１２９巷１７號","OBJECTID":249071},"geometry":{"x":171456.55999999959,"y":2546710.0100000016}},{"attributes":{"ID":249076,"DIS_CODE":0,"TOWNNAME":"中西區","LI":"大涼里","LIN":"14鄰","STREET":"府前路","SECT":"二段","MAREA":" ","LANE":" ","ALLEY":" ","HOUSE_NO":"２９０號","E_COORD97":166914.98000000001,"N_COORD97":2543662.3599999999,"ADDRESS":"府前路二段２９０號","OBJECTID":249072},"geometry":{"x":166914.98000000045,"y":2543662.3600000013}},{"attributes":{"ID":249077,"DIS_CODE":0,"TOWNNAME":"中西區","LI":"大涼里","LIN":"14鄰","STREET":"府前路","SECT":"二段","MAREA":" ","LANE":" ","ALLEY":" ","HOUSE_NO":"２９２號","E_COORD97":166905.76999999999,"N_COORD97":2543660.5899999999,"ADDRESS":"府前路二段２９２號","OBJECTID":249073},"geometry":{"x":166905.77000000142,"y":2543660.5900000036}},{"attributes":{"ID":249078,"DIS_CODE":0,"TOWNNAME":"中西區","LI":"大涼里","LIN":"14鄰","STREET":"府前路","SECT":"二段","MAREA":" ","LANE":" ","ALLEY":" ","HOUSE_NO":"２９４號","E_COORD97":166901.88,"N_COORD97":2543662.54,"ADDRESS":"府前路二段２９４號","OBJECTID":249074},"geometry":{"x":166901.88000000175,"y":2543662.5399999991}},{"attributes":{"ID":249079,"DIS_CODE":0,"TOWNNAME":"歸仁區","LI":"歸南里","LIN":"9鄰","STREET":"民生九街","SECT":" ","MAREA":" ","LANE":" ","ALLEY":" ","HOUSE_NO":"６７號","E_COORD97":176217.81,"N_COORD97":2540157.25,"ADDRESS":"民生九街６７號","OBJECTID":249075},"geometry":{"x":176217.81000000052,"y":2540157.2499999981}},{"attributes":{"ID":249080,"DIS_CODE":0,"TOWNNAME":"中西區","LI":"大涼里","LIN":"14鄰","STREET":"府前路","SECT":"二段","MAREA":" ","LANE":" ","ALLEY":" ","HOUSE_NO":"２９６號","E_COORD97":166894.09,"N_COORD97":2543664.48,"ADDRESS":"府前路二段２９６號","OBJECTID":249076},"geometry":{"x":166894.09000000078,"y":2543664.4800000004}},{"attributes":{"ID":249081,"DIS_CODE":0,"TOWNNAME":"中西區","LI":"大涼里","LIN":"14鄰","STREET":"府前路","SECT":"二段","MAREA":" ","LANE":" ","ALLEY":" ","HOUSE_NO":"２９８號","E_COORD97":166884,"N_COORD97":2543665.8999999999,"ADDRESS":"府前路二段２９８號","OBJECTID":249077},"geometry":{"x":166884,"y":2543665.9000000041}},{"attributes":{"ID":249082,"DIS_CODE":0,"TOWNNAME":"中西區","LI":"大涼里","LIN":"14鄰","STREET":"府前路","SECT":"二段","MAREA":" ","LANE":" ","ALLEY":" ","HOUSE_NO":"３００號","E_COORD97":166874.26000000001,"N_COORD97":2543666.25,"ADDRESS":"府前路二段３００號","OBJECTID":249078},"geometry":{"x":166874.26000000071,"y":2543666.25}},{"attributes":{"ID":249083,"DIS_CODE":0,"TOWNNAME":"新市區","LI":"潭頂里","LIN":"11鄰","STREET":" ","SECT":" ","MAREA":"潭頂","LANE":" ","ALLEY":" ","HOUSE_NO":"３７８號","E_COORD97":180589.64000000001,"N_COORD97":2552978.25,"ADDRESS":"潭頂３７８號","OBJECTID":249079},"geometry":{"x":180589.63999999966,"y":2552978.25}},{"attributes":{"ID":249084,"DIS_CODE":0,"TOWNNAME":"永康區","LI":"北灣里","LIN":"11鄰","STREET":"大灣七街","SECT":" ","MAREA":" ","LANE":"４５巷","ALLEY":" ","HOUSE_NO":"２６號","E_COORD97":175011.01999999999,"N_COORD97":2545664,"ADDRESS":"大灣七街４５巷２６號","OBJECTID":249080},"geometry":{"x":175011.02000000048,"y":2545664}},{"attributes":{"ID":249085,"DIS_CODE":0,"TOWNNAME":"永康區","LI":"北灣里","LIN":"11鄰","STREET":"大民街","SECT":" ","MAREA":" ","LANE":"１５８巷","ALLEY":" ","HOUSE_NO":"３號","E_COORD97":174970.10999999999,"N_COORD97":2545672.9199999999,"ADDRESS":"大民街１５８巷３號","OBJECTID":249081},"geometry":{"x":174970.11000000127,"y":2545672.9200000018}},{"attributes":{"ID":249086,"DIS_CODE":0,"TOWNNAME":"永康區","LI":"北灣里","LIN":"11鄰","STREET":"大灣七街","SECT":" ","MAREA":" ","LANE":"４５巷","ALLEY":" ","HOUSE_NO":"１２號","E_COORD97":175033.07999999999,"N_COORD97":2545653.7799999998,"ADDRESS":"大灣七街４５巷１２號","OBJECTID":249082},"geometry":{"x":175033.08000000101,"y":2545653.7800000012}},{"attributes":{"ID":249087,"DIS_CODE":0,"TOWNNAME":"永康區","LI":"北灣里","LIN":"11鄰","STREET":"大民街","SECT":" ","MAREA":" ","LANE":"１５８巷","ALLEY":" ","HOUSE_NO":"５號","E_COORD97":174981.63,"N_COORD97":2545683,"ADDRESS":"大民街１５８巷５號","OBJECTID":249083},"geometry":{"x":174981.63000000082,"y":2545683.0000000019}},{"attributes":{"ID":249088,"DIS_CODE":0,"TOWNNAME":"新化區","LI":"東榮里","LIN":"14鄰","STREET":"中興路","SECT":" ","MAREA":" ","LANE":"５９５巷","ALLEY":" ","HOUSE_NO":"３１號","E_COORD97":179842.06,"N_COORD97":2547848.25,"ADDRESS":"中興路５９５巷３１號","OBJECTID":249084},"geometry":{"x":179842.06000000052,"y":2547848.2500000019}},{"attributes":{"ID":249089,"DIS_CODE":0,"TOWNNAME":"新市區","LI":"潭頂里","LIN":"11鄰","STREET":" ","SECT":" ","MAREA":"潭頂","LANE":" ","ALLEY":" ","HOUSE_NO":"３７７之８號","E_COORD97":180574.37,"N_COORD97":2552984.5499999998,"ADDRESS":"潭頂３７７之８號","OBJECTID":249085},"geometry":{"x":180574.37000000104,"y":2552984.5500000007}},{"attributes":{"ID":249090,"DIS_CODE":0,"TOWNNAME":"新市區","LI":"潭頂里","LIN":"11鄰","STREET":" ","SECT":" ","MAREA":"潭頂","LANE":" ","ALLEY":" ","HOUSE_NO":"３７７之３號","E_COORD97":180573.17000000001,"N_COORD97":2553002.5499999998,"ADDRESS":"潭頂３７７之３號","OBJECTID":249086},"geometry":{"x":180573.16999999993,"y":2553002.5500000045}},{"attributes":{"ID":249091,"DIS_CODE":0,"TOWNNAME":"新化區","LI":"東榮里","LIN":"14鄰","STREET":"中興路","SECT":" ","MAREA":" ","LANE":"５８０巷","ALLEY":" ","HOUSE_NO":"５３號","E_COORD97":179843.26000000001,"N_COORD97":2548087.25,"ADDRESS":"中興路５８０巷５３號","OBJECTID":249087},"geometry":{"x":179843.25999999978,"y":2548087.25}},{"attributes":{"ID":249092,"DIS_CODE":0,"TOWNNAME":"新化區","LI":"東榮里","LIN":"14鄰","STREET":"中興路","SECT":" ","MAREA":" ","LANE":"５９５巷","ALLEY":" ","HOUSE_NO":"３號","E_COORD97":179840.51000000001,"N_COORD97":2547919.25,"ADDRESS":"中興路５９５巷３號","OBJECTID":249088},"geometry":{"x":179840.51000000071,"y":2547919.2500000019}},{"attributes":{"ID":249093,"DIS_CODE":0,"TOWNNAME":"新市區","LI":"潭頂里","LIN":"11鄰","STREET":" ","SECT":" ","MAREA":"潭頂","LANE":" ","ALLEY":" ","HOUSE_NO":"３７７之１２號","E_COORD97":180574.98000000001,"N_COORD97":2552965.0499999998,"ADDRESS":"潭頂３７７之１２號","OBJECTID":249089},"geometry":{"x":180574.98000000045,"y":2552965.0500000045}},{"attributes":{"ID":249094,"DIS_CODE":0,"TOWNNAME":"新市區","LI":"潭頂里","LIN":"11鄰","STREET":" ","SECT":" ","MAREA":"潭頂","LANE":" ","ALLEY":" ","HOUSE_NO":"３７７之９號","E_COORD97":180585.69,"N_COORD97":2552967.0499999998,"ADDRESS":"潭頂３７７之９號","OBJECTID":249090},"geometry":{"x":180585.69000000227,"y":2552967.0500000007}},{"attributes":{"ID":249095,"DIS_CODE":0,"TOWNNAME":"新市區","LI":"潭頂里","LIN":"11鄰","STREET":" ","SECT":" ","MAREA":"潭頂","LANE":" ","ALLEY":" ","HOUSE_NO":"３７７之１號","E_COORD97":180572.53,"N_COORD97":2553009.7999999998,"ADDRESS":"潭頂３７７之１號","OBJECTID":249091},"geometry":{"x":180572.53000000026,"y":2553009.8000000007}},{"attributes":{"ID":249096,"DIS_CODE":0,"TOWNNAME":"新市區","LI":"潭頂里","LIN":"11鄰","STREET":" ","SECT":" ","MAREA":"潭頂","LANE":" ","ALLEY":" ","HOUSE_NO":"３７７號","E_COORD97":180596.07999999999,"N_COORD97":2553002.75,"ADDRESS":"潭頂３７７號","OBJECTID":249092},"geometry":{"x":180596.07999999914,"y":2553002.75}},{"attributes":{"ID":249097,"DIS_CODE":0,"TOWNNAME":"新市區","LI":"潭頂里","LIN":"11鄰","STREET":" ","SECT":" ","MAREA":"潭頂","LANE":" ","ALLEY":" ","HOUSE_NO":"３７６號","E_COORD97":180566.34,"N_COORD97":2553040.25,"ADDRESS":"潭頂３７６號","OBJECTID":249093},"geometry":{"x":180566.33999999985,"y":2553040.25}},{"attributes":{"ID":249098,"DIS_CODE":0,"TOWNNAME":"南區","LI":"明興里","LIN":"13鄰","STREET":"金華路","SECT":"一段","MAREA":" ","LANE":"６０巷","ALLEY":" ","HOUSE_NO":"２７號","E_COORD97":166968.63,"N_COORD97":2540381.0600000001,"ADDRESS":"金華路一段６０巷２７號","OBJECTID":249094},"geometry":{"x":166968.63000000082,"y":2540381.0600000024}},{"attributes":{"ID":249099,"DIS_CODE":0,"TOWNNAME":"新化區","LI":"東榮里","LIN":"14鄰","STREET":"中興路","SECT":" ","MAREA":" ","LANE":"５９５巷","ALLEY":" ","HOUSE_NO":"３７號","E_COORD97":179842.26000000001,"N_COORD97":2547829.25,"ADDRESS":"中興路５９５巷３７號","OBJECTID":249095},"geometry":{"x":179842.26000000071,"y":2547829.25}},{"attributes":{"ID":249100,"DIS_CODE":0,"TOWNNAME":"新化區","LI":"東榮里","LIN":"14鄰","STREET":"中興路","SECT":" ","MAREA":" ","LANE":"５９５巷","ALLEY":" ","HOUSE_NO":"２９號","E_COORD97":179841.56,"N_COORD97":2547855.25,"ADDRESS":"中興路５９５巷２９號","OBJECTID":249096},"geometry":{"x":179841.56000000145,"y":2547855.2500000019}},{"attributes":{"ID":249101,"DIS_CODE":0,"TOWNNAME":"中西區","LI":"大涼里","LIN":"14鄰","STREET":"府前路","SECT":"二段","MAREA":" ","LANE":" ","ALLEY":" ","HOUSE_NO":"３１２號","E_COORD97":166851.60000000001,"N_COORD97":2543675.0899999999,"ADDRESS":"府前路二段３１２號","OBJECTID":249097},"geometry":{"x":166851.60000000056,"y":2543675.0900000017}},{"attributes":{"ID":249102,"DIS_CODE":0,"TOWNNAME":"中西區","LI":"大涼里","LIN":"14鄰","STREET":"府前路","SECT":"二段","MAREA":" ","LANE":" ","ALLEY":" ","HOUSE_NO":"３１４號","E_COORD97":166845.26000000001,"N_COORD97":2543677.1699999999,"ADDRESS":"府前路二段３１４號","OBJECTID":249098},"geometry":{"x":166845.26000000071,"y":2543677.1700000037}},{"attributes":{"ID":249103,"DIS_CODE":0,"TOWNNAME":"中西區","LI":"大涼里","LIN":"14鄰","STREET":"府前路","SECT":"二段","MAREA":" ","LANE":" ","ALLEY":" ","HOUSE_NO":"３１６號","E_COORD97":166840.64999999999,"N_COORD97":2543677.73,"ADDRESS":"府前路二段３１６號","OBJECTID":249099},"geometry":{"x":166840.65000000037,"y":2543677.7300000023}},{"attributes":{"ID":249104,"DIS_CODE":0,"TOWNNAME":"中西區","LI":"大涼里","LIN":"14鄰","STREET":"府前路","SECT":"二段","MAREA":" ","LANE":" ","ALLEY":" ","HOUSE_NO":"３２２號","E_COORD97":166825.92999999999,"N_COORD97":2543681.9900000002,"ADDRESS":"府前路二段３２２號","OBJECTID":249100},"geometry":{"x":166825.93000000063,"y":2543681.9900000039}},{"attributes":{"ID":249105,"DIS_CODE":0,"TOWNNAME":"永康區","LI":"五王里","LIN":"35鄰","STREET":"中華路","SECT":" ","MAREA":" ","LANE":"５７８巷","ALLEY":" ","HOUSE_NO":"１１號","E_COORD97":171258.20000000001,"N_COORD97":2545937.9900000002,"ADDRESS":"中華路５７８巷１１號","OBJECTID":249101},"geometry":{"x":171258.20000000019,"y":2545937.9900000021}},{"attributes":{"ID":249106,"DIS_CODE":0,"TOWNNAME":"新市區","LI":"潭頂里","LIN":"11鄰","STREET":" ","SECT":" ","MAREA":"潭頂","LANE":" ","ALLEY":" ","HOUSE_NO":"３７７之５號","E_COORD97":180573.48000000001,"N_COORD97":2552995.2999999998,"ADDRESS":"潭頂３７７之５號","OBJECTID":249102},"geometry":{"x":180573.48000000231,"y":2552995.3000000026}},{"attributes":{"ID":249107,"DIS_CODE":0,"TOWNNAME":"新市區","LI":"潭頂里","LIN":"11鄰","STREET":" ","SECT":" ","MAREA":"潭頂","LANE":" ","ALLEY":" ","HOUSE_NO":"３７５之１號","E_COORD97":180593.67000000001,"N_COORD97":2553023.7999999998,"ADDRESS":"潭頂３７５之１號","OBJECTID":249103},"geometry":{"x":180593.67000000179,"y":2553023.8000000007}},{"attributes":{"ID":249108,"DIS_CODE":0,"TOWNNAME":"永康區","LI":"正強里","LIN":"4鄰","STREET":"中正路","SECT":" ","MAREA":" ","LANE":"５５巷","ALLEY":" ","HOUSE_NO":"９號","E_COORD97":173580.45000000001,"N_COORD97":2547754.2999999998,"ADDRESS":"中正路５５巷９號","OBJECTID":249104},"geometry":{"x":173580.45000000019,"y":2547754.3000000007}},{"attributes":{"ID":249109,"DIS_CODE":0,"TOWNNAME":"新市區","LI":"豐華里","LIN":"11鄰","STREET":" ","SECT":" ","MAREA":"豐華","LANE":" ","ALLEY":" ","HOUSE_NO":"４７之７８號","E_COORD97":174187.39999999999,"N_COORD97":2554435.2999999998,"ADDRESS":"豐華４７之７８號","OBJECTID":249105},"geometry":{"x":174187.40000000037,"y":2554435.3000000026}},{"attributes":{"ID":249110,"DIS_CODE":0,"TOWNNAME":"永康區","LI":"中興里","LIN":"27鄰","STREET":"中興街","SECT":" ","MAREA":" ","LANE":"９１巷","ALLEY":" ","HOUSE_NO":"１１號","E_COORD97":172034.44,"N_COORD97":2545339.4900000002,"ADDRESS":"中興街９１巷１１號","OBJECTID":249106},"geometry":{"x":172034.44000000041,"y":2545339.4900000002}},{"attributes":{"ID":249111,"DIS_CODE":0,"TOWNNAME":"新市區","LI":"豐華里","LIN":"11鄰","STREET":" ","SECT":" ","MAREA":"豐華","LANE":" ","ALLEY":" ","HOUSE_NO":"４７之８１號","E_COORD97":174191.14999999999,"N_COORD97":2554447.7999999998,"ADDRESS":"豐華４７之８１號","OBJECTID":249107},"geometry":{"x":174191.15000000037,"y":2554447.8000000007}},{"attributes":{"ID":249112,"DIS_CODE":0,"TOWNNAME":"永康區","LI":"五王里","LIN":"3鄰","STREET":"中華二路","SECT":" ","MAREA":" ","LANE":"２０６巷","ALLEY":" ","HOUSE_NO":"５９號","E_COORD97":171585.81,"N_COORD97":2545623.2599999998,"ADDRESS":"中華二路２０６巷５９號","OBJECTID":249108},"geometry":{"x":171585.80999999866,"y":2545623.2600000016}},{"attributes":{"ID":249113,"DIS_CODE":0,"TOWNNAME":"永康區","LI":"五王里","LIN":"38鄰","STREET":"中華路","SECT":" ","MAREA":" ","LANE":"５７８巷","ALLEY":" ","HOUSE_NO":"１７號之２０","E_COORD97":171333.62,"N_COORD97":2545989.54,"ADDRESS":"中華路５７８巷１７號之２０","OBJECTID":249109},"geometry":{"x":171333.62000000104,"y":2545989.5400000028}},{"attributes":{"ID":249114,"DIS_CODE":0,"TOWNNAME":"新市區","LI":"豐華里","LIN":"11鄰","STREET":" ","SECT":" ","MAREA":"豐華","LANE":" ","ALLEY":" ","HOUSE_NO":"４７之７３號","E_COORD97":174179.70999999999,"N_COORD97":2554414.7999999998,"ADDRESS":"豐華４７之７３號","OBJECTID":249110},"geometry":{"x":174179.71000000089,"y":2554414.8000000026}},{"attributes":{"ID":249115,"DIS_CODE":0,"TOWNNAME":"新化區","LI":"東榮里","LIN":"14鄰","STREET":"中興路","SECT":" ","MAREA":" ","LANE":"５８０巷","ALLEY":" ","HOUSE_NO":"２５號","E_COORD97":179847.26000000001,"N_COORD97":2548032.25,"ADDRESS":"中興路５８０巷２５號","OBJECTID":249111},"geometry":{"x":179847.26000000071,"y":2548032.25}},{"attributes":{"ID":249116,"DIS_CODE":0,"TOWNNAME":"新化區","LI":"東榮里","LIN":"14鄰","STREET":"中興路","SECT":" ","MAREA":" ","LANE":"５８０巷","ALLEY":" ","HOUSE_NO":"１９號","E_COORD97":179847.35999999999,"N_COORD97":2548019.25,"ADDRESS":"中興路５８０巷１９號","OBJECTID":249112},"geometry":{"x":179847.36000000127,"y":2548019.25}},{"attributes":{"ID":249117,"DIS_CODE":0,"TOWNNAME":"新市區","LI":"豐華里","LIN":"11鄰","STREET":" ","SECT":" ","MAREA":"豐華","LANE":" ","ALLEY":" ","HOUSE_NO":"４７之８５號","E_COORD97":174197.01000000001,"N_COORD97":2554464.0499999998,"ADDRESS":"豐華４７之８５號","OBJECTID":249113},"geometry":{"x":174197.01000000164,"y":2554464.0500000026}},{"attributes":{"ID":249118,"DIS_CODE":0,"TOWNNAME":"新化區","LI":"東榮里","LIN":"14鄰","STREET":"中興路","SECT":" ","MAREA":" ","LANE":"５８０巷","ALLEY":" ","HOUSE_NO":"４３號","E_COORD97":179844.56,"N_COORD97":2548070.25,"ADDRESS":"中興路５８０巷４３號","OBJECTID":249114},"geometry":{"x":179844.55999999959,"y":2548070.25}},{"attributes":{"ID":249119,"DIS_CODE":0,"TOWNNAME":"安南區","LI":"溪頂里","LIN":"14鄰","STREET":"惠安街","SECT":" ","MAREA":" ","LANE":"１６１巷","ALLEY":" ","HOUSE_NO":"１０號","E_COORD97":168765.79000000001,"N_COORD97":2547333.1600000001,"ADDRESS":"惠安街１６１巷１０號","OBJECTID":249115},"geometry":{"x":168765.7900000019,"y":2547333.160000002}},{"attributes":{"ID":249120,"DIS_CODE":0,"TOWNNAME":"新市區","LI":"豐華里","LIN":"11鄰","STREET":" ","SECT":" ","MAREA":"豐華","LANE":" ","ALLEY":" ","HOUSE_NO":"４７之７６號","E_COORD97":174184.57000000001,"N_COORD97":2554427.5499999998,"ADDRESS":"豐華４７之７６號","OBJECTID":249116},"geometry":{"x":174184.5700000003,"y":2554427.5500000026}},{"attributes":{"ID":249121,"DIS_CODE":0,"TOWNNAME":"中西區","LI":"大涼里","LIN":"14鄰","STREET":"府前路","SECT":"二段","MAREA":" ","LANE":" ","ALLEY":" ","HOUSE_NO":"３７０號","E_COORD97":166797.73999999999,"N_COORD97":2543694.6499999999,"ADDRESS":"府前路二段３７０號","OBJECTID":249117},"geometry":{"x":166797.74000000022,"y":2543694.6500000041}},{"attributes":{"ID":249122,"DIS_CODE":0,"TOWNNAME":"中西區","LI":"大涼里","LIN":"14鄰","STREET":"府前路","SECT":"二段","MAREA":" ","LANE":" ","ALLEY":" ","HOUSE_NO":"３７８號","E_COORD97":166688.95999999999,"N_COORD97":2543722.4100000001,"ADDRESS":"府前路二段３７８號","OBJECTID":249118},"geometry":{"x":166688.95999999996,"y":2543722.4100000001}},{"attributes":{"ID":249123,"DIS_CODE":0,"TOWNNAME":"新市區","LI":"豐華里","LIN":"11鄰","STREET":" ","SECT":" ","MAREA":"豐華","LANE":" ","ALLEY":" ","HOUSE_NO":"４７之６９號","E_COORD97":174173.62,"N_COORD97":2554488.7999999998,"ADDRESS":"豐華４７之６９號","OBJECTID":249119},"geometry":{"x":174173.62000000104,"y":2554488.8000000007}},{"attributes":{"ID":249124,"DIS_CODE":0,"TOWNNAME":"中西區","LI":"大涼里","LIN":"14鄰","STREET":"府前路","SECT":"二段","MAREA":" ","LANE":" ","ALLEY":" ","HOUSE_NO":"３８０號","E_COORD97":166678.75,"N_COORD97":2543710.8700000001,"ADDRESS":"府前路二段３８０號","OBJECTID":249120},"geometry":{"x":166678.75,"y":2543710.8700000048}},{"attributes":{"ID":249125,"DIS_CODE":0,"TOWNNAME":"下營區","LI":"仁里里","LIN":"14鄰","STREET":"友愛街","SECT":" ","MAREA":" ","LANE":" ","ALLEY":" ","HOUSE_NO":"４２號","E_COORD97":174206.20000000001,"N_COORD97":2570404.04,"ADDRESS":"友愛街４２號","OBJECTID":249121},"geometry":{"x":174206.19999999925,"y":2570404.040000001}},{"attributes":{"ID":249126,"DIS_CODE":0,"TOWNNAME":"下營區","LI":"仁里里","LIN":"14鄰","STREET":"友愛街","SECT":" ","MAREA":" ","LANE":" ","ALLEY":" ","HOUSE_NO":"５６號","E_COORD97":174213.44,"N_COORD97":2570425.25,"ADDRESS":"友愛街５６號","OBJECTID":249122},"geometry":{"x":174213.44000000227,"y":2570425.25}},{"attributes":{"ID":249127,"DIS_CODE":0,"TOWNNAME":"下營區","LI":"仁里里","LIN":"14鄰","STREET":"友愛街","SECT":" ","MAREA":" ","LANE":" ","ALLEY":" ","HOUSE_NO":"５８號","E_COORD97":174212.76999999999,"N_COORD97":2570429.3999999999,"ADDRESS":"友愛街５８號","OBJECTID":249123},"geometry":{"x":174212.77000000048,"y":2570429.3999999985}},{"attributes":{"ID":249128,"DIS_CODE":0,"TOWNNAME":"永康區","LI":"五王里","LIN":"22鄰","STREET":"成功路","SECT":" ","MAREA":" ","LANE":"２２８巷","ALLEY":" ","HOUSE_NO":"３號","E_COORD97":171369.66,"N_COORD97":2545791.77,"ADDRESS":"成功路２２８巷３號","OBJECTID":249124},"geometry":{"x":171369.66000000108,"y":2545791.7700000033}},{"attributes":{"ID":249129,"DIS_CODE":0,"TOWNNAME":"永康區","LI":"五王里","LIN":"22鄰","STREET":"成功路","SECT":" ","MAREA":" ","LANE":"２２８巷","ALLEY":" ","HOUSE_NO":"３８號","E_COORD97":171443.95999999999,"N_COORD97":2545827.52,"ADDRESS":"成功路２２８巷３８號","OBJECTID":249125},"geometry":{"x":171443.95999999996,"y":2545827.5200000033}},{"attributes":{"ID":249130,"DIS_CODE":0,"TOWNNAME":"永康區","LI":"五王里","LIN":"39鄰","STREET":"中華路","SECT":" ","MAREA":" ","LANE":"５７８巷","ALLEY":" ","HOUSE_NO":"１７號之６６","E_COORD97":171333.67000000001,"N_COORD97":2545989.54,"ADDRESS":"中華路５７８巷１７號之６６","OBJECTID":249126},"geometry":{"x":171333.67000000086,"y":2545989.5400000028}},{"attributes":{"ID":249131,"DIS_CODE":0,"TOWNNAME":"永康區","LI":"王行里","LIN":"7鄰","STREET":"王行路","SECT":" ","MAREA":" ","LANE":"３９９巷","ALLEY":" ","HOUSE_NO":"１８號","E_COORD97":175367.34,"N_COORD97":2548733.0699999998,"ADDRESS":"王行路３９９巷１８號","OBJECTID":249127},"geometry":{"x":175367.33999999985,"y":2548733.0699999984}},{"attributes":{"ID":249132,"DIS_CODE":0,"TOWNNAME":"安南區","LI":"四草里","LIN":"5鄰","STREET":"大眾五街","SECT":" ","MAREA":" ","LANE":"９２巷","ALLEY":" ","HOUSE_NO":"２號","E_COORD97":160879.87570400001,"N_COORD97":2546153.8925999999,"ADDRESS":"大眾五街９２巷２號","OBJECTID":249128},"geometry":{"x":160879.87570399977,"y":2546153.8926030006}},{"attributes":{"ID":249133,"DIS_CODE":0,"TOWNNAME":"永康區","LI":"五王里","LIN":"37鄰","STREET":"中華路","SECT":" ","MAREA":" ","LANE":"５７８巷","ALLEY":" ","HOUSE_NO":"１５號之５","E_COORD97":171274.85000000001,"N_COORD97":2545965.79,"ADDRESS":"中華路５７８巷１５號之５","OBJECTID":249129},"geometry":{"x":171274.84999999963,"y":2545965.7899999991}},{"attributes":{"ID":249134,"DIS_CODE":0,"TOWNNAME":"東區","LI":"大智里","LIN":"11鄰","STREET":"長東街","SECT":" ","MAREA":" ","LANE":"１３１巷","ALLEY":" ","HOUSE_NO":"３３號","E_COORD97":171114.14000000001,"N_COORD97":2540222.75,"ADDRESS":"長東街１３１巷３３號","OBJECTID":249130},"geometry":{"x":171114.14000000153,"y":2540222.7500000019}},{"attributes":{"ID":249135,"DIS_CODE":0,"TOWNNAME":"東區","LI":"莊敬里","LIN":"11鄰","STREET":"中華東路","SECT":"一段","MAREA":" ","LANE":"１０巷","ALLEY":" ","HOUSE_NO":"１２號","E_COORD97":171474.23000000001,"N_COORD97":2544256.2799999998,"ADDRESS":"中華東路一段１０巷１２號","OBJECTID":249131},"geometry":{"x":171474.23000000138,"y":2544256.2800000012}},{"attributes":{"ID":249136,"DIS_CODE":0,"TOWNNAME":"安南區","LI":"溪頂里","LIN":"14鄰","STREET":"惠安街","SECT":" ","MAREA":" ","LANE":"１６１巷","ALLEY":" ","HOUSE_NO":"１１號","E_COORD97":168785.26000000001,"N_COORD97":2547349.2799999998,"ADDRESS":"惠安街１６１巷１１號","OBJECTID":249132},"geometry":{"x":168785.25999999978,"y":2547349.2800000012}},{"attributes":{"ID":249137,"DIS_CODE":0,"TOWNNAME":"安南區","LI":"溪頂里","LIN":"14鄰","STREET":"惠安街","SECT":" ","MAREA":" ","LANE":"１６１巷","ALLEY":" ","HOUSE_NO":"１２號","E_COORD97":168774.44,"N_COORD97":2547333.71,"ADDRESS":"惠安街１６１巷１２號","OBJECTID":249133},"geometry":{"x":168774.44000000041,"y":2547333.7100000028}},{"attributes":{"ID":249138,"DIS_CODE":0,"TOWNNAME":"安南區","LI":"溪頂里","LIN":"14鄰","STREET":"惠安街","SECT":" ","MAREA":" ","LANE":"１６１巷","ALLEY":" ","HOUSE_NO":"１３號","E_COORD97":168793.47,"N_COORD97":2547348.9100000001,"ADDRESS":"惠安街１６１巷１３號","OBJECTID":249134},"geometry":{"x":168793.47000000067,"y":2547348.910000002}},{"attributes":{"ID":249139,"DIS_CODE":0,"TOWNNAME":"安南區","LI":"溪頂里","LIN":"14鄰","STREET":"惠安街","SECT":" ","MAREA":" ","LANE":"１６１巷","ALLEY":" ","HOUSE_NO":"１５號","E_COORD97":168802.01000000001,"N_COORD97":2547349.6099999999,"ADDRESS":"惠安街１６１巷１５號","OBJECTID":249135},"geometry":{"x":168802.01000000071,"y":2547349.6100000013}},{"attributes":{"ID":249140,"DIS_CODE":0,"TOWNNAME":"安南區","LI":"溪頂里","LIN":"14鄰","STREET":"惠安街","SECT":" ","MAREA":" ","LANE":"１６１巷","ALLEY":" ","HOUSE_NO":"１７號","E_COORD97":168810.39000000001,"N_COORD97":2547349.79,"ADDRESS":"惠安街１６１巷１７號","OBJECTID":249136},"geometry":{"x":168810.39000000153,"y":2547349.7899999991}},{"attributes":{"ID":249141,"DIS_CODE":0,"TOWNNAME":"安南區","LI":"溪頂里","LIN":"14鄰","STREET":"惠安街","SECT":" ","MAREA":" ","LANE":"１６１巷","ALLEY":" ","HOUSE_NO":"１８號","E_COORD97":168787.22,"N_COORD97":2547333.9300000002,"ADDRESS":"惠安街１６１巷１８號","OBJECTID":249137},"geometry":{"x":168787.21999999974,"y":2547333.9300000016}},{"attributes":{"ID":249142,"DIS_CODE":0,"TOWNNAME":"安南區","LI":"溪頂里","LIN":"14鄰","STREET":"惠安街","SECT":" ","MAREA":" ","LANE":"１６１巷","ALLEY":" ","HOUSE_NO":"１號","E_COORD97":168741.73999999999,"N_COORD97":2547349.4100000001,"ADDRESS":"惠安街１６１巷１號","OBJECTID":249138},"geometry":{"x":168741.74000000022,"y":2547349.4100000001}},{"attributes":{"ID":249143,"DIS_CODE":0,"TOWNNAME":"下營區","LI":"仁里里","LIN":"14鄰","STREET":"友愛街","SECT":" ","MAREA":" ","LANE":" ","ALLEY":" ","HOUSE_NO":"６０號","E_COORD97":174212.07999999999,"N_COORD97":2570434.21,"ADDRESS":"友愛街６０號","OBJECTID":249139},"geometry":{"x":174212.08000000194,"y":2570434.2100000009}},{"attributes":{"ID":249144,"DIS_CODE":0,"TOWNNAME":"下營區","LI":"新興里","LIN":"14鄰","STREET":"文化街","SECT":" ","MAREA":" ","LANE":" ","ALLEY":" ","HOUSE_NO":"１４０之１號","E_COORD97":174761.84,"N_COORD97":2570543.1499999999,"ADDRESS":"文化街１４０之１號","OBJECTID":249140},"geometry":{"x":174761.84000000078,"y":2570543.1500000041}},{"attributes":{"ID":249145,"DIS_CODE":0,"TOWNNAME":"下營區","LI":"新興里","LIN":"14鄰","STREET":"文化街","SECT":" ","MAREA":" ","LANE":" ","ALLEY":" ","HOUSE_NO":"１４０之２號","E_COORD97":174762.76000000001,"N_COORD97":2570540.0499999998,"ADDRESS":"文化街１４０之２號","OBJECTID":249141},"geometry":{"x":174762.75999999978,"y":2570540.0500000007}},{"attributes":{"ID":249146,"DIS_CODE":0,"TOWNNAME":"下營區","LI":"新興里","LIN":"14鄰","STREET":"文化街","SECT":" ","MAREA":" ","LANE":" ","ALLEY":" ","HOUSE_NO":"１４２號","E_COORD97":174755.79999999999,"N_COORD97":2570555.1899999999,"ADDRESS":"文化街１４２號","OBJECTID":249142},"geometry":{"x":174755.79999999981,"y":2570555.1899999995}},{"attributes":{"ID":249147,"DIS_CODE":0,"TOWNNAME":"下營區","LI":"新興里","LIN":"14鄰","STREET":"文化街","SECT":" ","MAREA":" ","LANE":" ","ALLEY":" ","HOUSE_NO":"１４６號","E_COORD97":174757.04999999999,"N_COORD97":2570560.5699999998,"ADDRESS":"文化街１４６號","OBJECTID":249143},"geometry":{"x":174757.04999999981,"y":2570560.570000004}},{"attributes":{"ID":249148,"DIS_CODE":0,"TOWNNAME":"下營區","LI":"新興里","LIN":"14鄰","STREET":"文化街","SECT":" ","MAREA":" ","LANE":" ","ALLEY":" ","HOUSE_NO":"１５０號","E_COORD97":174755.87,"N_COORD97":2570564.5299999998,"ADDRESS":"文化街１５０號","OBJECTID":249144},"geometry":{"x":174755.87000000011,"y":2570564.5300000012}},{"attributes":{"ID":249149,"DIS_CODE":0,"TOWNNAME":"下營區","LI":"營前里","LIN":"14鄰","STREET":"文明街","SECT":" ","MAREA":" ","LANE":" ","ALLEY":" ","HOUSE_NO":"７２號","E_COORD97":174653.5,"N_COORD97":2570344.3199999998,"ADDRESS":"文明街７２號","OBJECTID":249145},"geometry":{"x":174653.50000000093,"y":2570344.3200000003}},{"attributes":{"ID":249150,"DIS_CODE":0,"TOWNNAME":"下營區","LI":"營前里","LIN":"14鄰","STREET":"文明街","SECT":" ","MAREA":" ","LANE":" ","ALLEY":" ","HOUSE_NO":"７６號","E_COORD97":174649.73000000001,"N_COORD97":2570343.4199999999,"ADDRESS":"文明街７６號","OBJECTID":249146},"geometry":{"x":174649.73000000045,"y":2570343.4199999999}},{"attributes":{"ID":249151,"DIS_CODE":0,"TOWNNAME":"下營區","LI":"新興里","LIN":"14鄰","STREET":"和平街","SECT":" ","MAREA":" ","LANE":" ","ALLEY":" ","HOUSE_NO":"１７號","E_COORD97":174693.16,"N_COORD97":2570657.5699999998,"ADDRESS":"和平街１７號","OBJECTID":249147},"geometry":{"x":174693.16000000201,"y":2570657.5700000003}},{"attributes":{"ID":249152,"DIS_CODE":0,"TOWNNAME":"永康區","LI":"王行里","LIN":"4鄰","STREET":"育樂街","SECT":" ","MAREA":" ","LANE":"１８８巷","ALLEY":" ","HOUSE_NO":"１２號","E_COORD97":175033.44,"N_COORD97":2548385.3700000001,"ADDRESS":"育樂街１８８巷１２號","OBJECTID":249148},"geometry":{"x":175033.44000000041,"y":2548385.370000001}},{"attributes":{"ID":249153,"DIS_CODE":0,"TOWNNAME":"永康區","LI":"五王里","LIN":"37鄰","STREET":"中華路","SECT":" ","MAREA":" ","LANE":"５７８巷","ALLEY":" ","HOUSE_NO":"１５號之１５","E_COORD97":171276.10000000001,"N_COORD97":2545965.79,"ADDRESS":"中華路５７８巷１５號之１５","OBJECTID":249149},"geometry":{"x":171276.10000000056,"y":2545965.7899999991}},{"attributes":{"ID":249154,"DIS_CODE":0,"TOWNNAME":"永康區","LI":"五王里","LIN":"23鄰","STREET":"成功路","SECT":" ","MAREA":" ","LANE":"２４４巷","ALLEY":" ","HOUSE_NO":"３８號","E_COORD97":171414.45000000001,"N_COORD97":2545859.5099999998,"ADDRESS":"成功路２４４巷３８號","OBJECTID":249150},"geometry":{"x":171414.45000000205,"y":2545859.5100000016}},{"attributes":{"ID":249155,"DIS_CODE":0,"TOWNNAME":"永康區","LI":"王行里","LIN":"16鄰","STREET":"王行路","SECT":" ","MAREA":" ","LANE":"６８巷","ALLEY":" ","HOUSE_NO":"６號","E_COORD97":175686.82000000001,"N_COORD97":2548012.9900000002,"ADDRESS":"王行路６８巷６號","OBJECTID":249151},"geometry":{"x":175686.8200000003,"y":2548012.9900000021}},{"attributes":{"ID":249156,"DIS_CODE":0,"TOWNNAME":"東區","LI":"莊敬里","LIN":"11鄰","STREET":"中華東路","SECT":"一段","MAREA":" ","LANE":"１０巷","ALLEY":" ","HOUSE_NO":"３０號","E_COORD97":171439.17000000001,"N_COORD97":2544261.9500000002,"ADDRESS":"中華東路一段１０巷３０號","OBJECTID":249152},"geometry":{"x":171439.16999999993,"y":2544261.9500000011}},{"attributes":{"ID":249157,"DIS_CODE":0,"TOWNNAME":"東區","LI":"莊敬里","LIN":"11鄰","STREET":"中華東路","SECT":"一段","MAREA":" ","LANE":"１０巷","ALLEY":" ","HOUSE_NO":"３２號","E_COORD97":171433.12,"N_COORD97":2544261.2999999998,"ADDRESS":"中華東路一段１０巷３２號","OBJECTID":249153},"geometry":{"x":171433.12000000011,"y":2544261.3000000026}},{"attributes":{"ID":249158,"DIS_CODE":0,"TOWNNAME":"安南區","LI":"溪頂里","LIN":"14鄰","STREET":"惠安街","SECT":" ","MAREA":" ","LANE":"１６１巷","ALLEY":" ","HOUSE_NO":"２０號","E_COORD97":168796.53,"N_COORD97":2547333.8199999998,"ADDRESS":"惠安街１６１巷２０號","OBJECTID":249154},"geometry":{"x":168796.53000000212,"y":2547333.8200000003}},{"attributes":{"ID":249159,"DIS_CODE":0,"TOWNNAME":"安南區","LI":"溪頂里","LIN":"14鄰","STREET":"惠安街","SECT":" ","MAREA":" ","LANE":"１６１巷","ALLEY":" ","HOUSE_NO":"２１號","E_COORD97":168827.35000000001,"N_COORD97":2547350.3999999999,"ADDRESS":"惠安街１６１巷２１號","OBJECTID":249155},"geometry":{"x":168827.34999999963,"y":2547350.4000000004}},{"attributes":{"ID":249160,"DIS_CODE":0,"TOWNNAME":"安南區","LI":"溪頂里","LIN":"14鄰","STREET":"惠安街","SECT":" ","MAREA":" ","LANE":"１６１巷","ALLEY":" ","HOUSE_NO":"２２號","E_COORD97":168796.76000000001,"N_COORD97":2547323.9700000002,"ADDRESS":"惠安街１６１巷２２號","OBJECTID":249156},"geometry":{"x":168796.76000000071,"y":2547323.9700000044}},{"attributes":{"ID":249161,"DIS_CODE":0,"TOWNNAME":"安南區","LI":"溪頂里","LIN":"14鄰","STREET":"惠安街","SECT":" ","MAREA":" ","LANE":"１６１巷","ALLEY":" ","HOUSE_NO":"２３號","E_COORD97":168836.45000000001,"N_COORD97":2547348.9700000002,"ADDRESS":"惠安街１６１巷２３號","OBJECTID":249157},"geometry":{"x":168836.45000000112,"y":2547348.9700000025}},{"attributes":{"ID":249162,"DIS_CODE":0,"TOWNNAME":"安南區","LI":"溪頂里","LIN":"14鄰","STREET":"惠安街","SECT":" ","MAREA":" ","LANE":"１６１巷","ALLEY":" ","HOUSE_NO":"２４號","E_COORD97":168808.62,"N_COORD97":2547324.7400000002,"ADDRESS":"惠安街１６１巷２４號","OBJECTID":249158},"geometry":{"x":168808.62000000011,"y":2547324.7400000002}},{"attributes":{"ID":249163,"DIS_CODE":0,"TOWNNAME":"安南區","LI":"溪頂里","LIN":"14鄰","STREET":"惠安街","SECT":" ","MAREA":" ","LANE":"１６１巷","ALLEY":" ","HOUSE_NO":"２５號","E_COORD97":168845.22,"N_COORD97":2547349.2999999998,"ADDRESS":"惠安街１６１巷２５號","OBJECTID":249159},"geometry":{"x":168845.21999999974,"y":2547349.3000000026}},{"attributes":{"ID":249164,"DIS_CODE":0,"TOWNNAME":"安南區","LI":"溪頂里","LIN":"14鄰","STREET":"惠安街","SECT":" ","MAREA":" ","LANE":"１６１巷","ALLEY":" ","HOUSE_NO":"２６號","E_COORD97":168808.95000000001,"N_COORD97":2547334.4900000002,"ADDRESS":"惠安街１６１巷２６號","OBJECTID":249160},"geometry":{"x":168808.95000000205,"y":2547334.4900000021}},{"attributes":{"ID":249165,"DIS_CODE":0,"TOWNNAME":"後壁區","LI":"菁寮里","LIN":"11鄰","STREET":" ","SECT":" ","MAREA":"菁寮","LANE":" ","ALLEY":" ","HOUSE_NO":"１２５號","E_COORD97":182012.82999999999,"N_COORD97":2586453.0299999998,"ADDRESS":"菁寮１２５號","OBJECTID":249161},"geometry":{"x":182012.83000000007,"y":2586453.0299999993}},{"attributes":{"ID":249166,"DIS_CODE":0,"TOWNNAME":"安南區","LI":"溪頂里","LIN":"14鄰","STREET":"惠安街","SECT":" ","MAREA":" ","LANE":"１６１巷","ALLEY":" ","HOUSE_NO":"２７號","E_COORD97":168852.82999999999,"N_COORD97":2547350.1299999999,"ADDRESS":"惠安街１６１巷２７號","OBJECTID":249162},"geometry":{"x":168852.83000000007,"y":2547350.129999999}},{"attributes":{"ID":249167,"DIS_CODE":0,"TOWNNAME":"安南區","LI":"溪頂里","LIN":"14鄰","STREET":"惠安街","SECT":" ","MAREA":" ","LANE":"１６１巷","ALLEY":" ","HOUSE_NO":"２９號","E_COORD97":168861.60000000001,"N_COORD97":2547349.1400000001,"ADDRESS":"惠安街１６１巷２９號","OBJECTID":249163},"geometry":{"x":168861.60000000149,"y":2547349.1400000006}},{"attributes":{"ID":249168,"DIS_CODE":0,"TOWNNAME":"安南區","LI":"溪頂里","LIN":"14鄰","STREET":"惠安街","SECT":" ","MAREA":" ","LANE":"１６１巷","ALLEY":" ","HOUSE_NO":"２號","E_COORD97":168744.06,"N_COORD97":2547333.27,"ADDRESS":"惠安街１６１巷２號","OBJECTID":249164},"geometry":{"x":168744.05999999959,"y":2547333.2699999996}},{"attributes":{"ID":249169,"DIS_CODE":0,"TOWNNAME":"安南區","LI":"溪頂里","LIN":"14鄰","STREET":"惠安街","SECT":" ","MAREA":" ","LANE":"１６１巷","ALLEY":" ","HOUSE_NO":"３０號","E_COORD97":168825.14000000001,"N_COORD97":2547335.1499999999,"ADDRESS":"惠安街１６１巷３０號","OBJECTID":249165},"geometry":{"x":168825.13999999966,"y":2547335.1500000004}},{"attributes":{"ID":249170,"DIS_CODE":0,"TOWNNAME":"安南區","LI":"溪頂里","LIN":"14鄰","STREET":"惠安街","SECT":" ","MAREA":" ","LANE":"１６１巷","ALLEY":" ","HOUSE_NO":"３１號","E_COORD97":168870.57000000001,"N_COORD97":2547349.7999999998,"ADDRESS":"惠安街１６１巷３１號","OBJECTID":249166},"geometry":{"x":168870.5700000003,"y":2547349.8000000026}},{"attributes":{"ID":249171,"DIS_CODE":0,"TOWNNAME":"安南區","LI":"溪頂里","LIN":"14鄰","STREET":"惠安街","SECT":" ","MAREA":" ","LANE":"１６１巷","ALLEY":" ","HOUSE_NO":"３２號","E_COORD97":168835.29000000001,"N_COORD97":2547334.4300000002,"ADDRESS":"惠安街１６１巷３２號","OBJECTID":249167},"geometry":{"x":168835.2900000019,"y":2547334.4300000016}},{"attributes":{"ID":249172,"DIS_CODE":0,"TOWNNAME":"安南區","LI":"溪頂里","LIN":"14鄰","STREET":"惠安街","SECT":" ","MAREA":" ","LANE":"１６１巷","ALLEY":" ","HOUSE_NO":"３３號","E_COORD97":168878.67999999999,"N_COORD97":2547350.1299999999,"ADDRESS":"惠安街１６１巷３３號","OBJECTID":249168},"geometry":{"x":168878.68000000063,"y":2547350.129999999}},{"attributes":{"ID":249173,"DIS_CODE":0,"TOWNNAME":"安南區","LI":"溪頂里","LIN":"14鄰","STREET":"惠安街","SECT":" ","MAREA":" ","LANE":"１６１巷","ALLEY":" ","HOUSE_NO":"３４號","E_COORD97":168843.63,"N_COORD97":2547334.1400000001,"ADDRESS":"惠安街１６１巷３４號","OBJECTID":249169},"geometry":{"x":168843.63000000082,"y":2547334.1400000025}},{"attributes":{"ID":249174,"DIS_CODE":0,"TOWNNAME":"下營區","LI":"新興里","LIN":"14鄰","STREET":"和平街","SECT":" ","MAREA":" ","LANE":" ","ALLEY":" ","HOUSE_NO":"１９號","E_COORD97":174691.85000000001,"N_COORD97":2570661.8900000001,"ADDRESS":"和平街１９號","OBJECTID":249170},"geometry":{"x":174691.85000000056,"y":2570661.8900000025}},{"attributes":{"ID":249175,"DIS_CODE":0,"TOWNNAME":"下營區","LI":"新興里","LIN":"14鄰","STREET":"和平街","SECT":" ","MAREA":" ","LANE":" ","ALLEY":" ","HOUSE_NO":"９號","E_COORD97":174700.44,"N_COORD97":2570638.6600000001,"ADDRESS":"和平街９號","OBJECTID":249171},"geometry":{"x":174700.44000000134,"y":2570638.660000002}},{"attributes":{"ID":249176,"DIS_CODE":0,"TOWNNAME":"歸仁區","LI":"歸南里","LIN":"13鄰","STREET":"民生南街","SECT":"二段","MAREA":" ","LANE":" ","ALLEY":" ","HOUSE_NO":"２７１號","E_COORD97":176083.35999999999,"N_COORD97":2539988.25,"ADDRESS":"民生南街二段２７１號","OBJECTID":249172},"geometry":{"x":176083.36000000034,"y":2539988.2500000037}},{"attributes":{"ID":249177,"DIS_CODE":0,"TOWNNAME":"歸仁區","LI":"歸仁里","LIN":"2鄰","STREET":"和平三街","SECT":" ","MAREA":" ","LANE":" ","ALLEY":" ","HOUSE_NO":"２８號","E_COORD97":177770.39000000001,"N_COORD97":2541018.04,"ADDRESS":"和平三街２８號","OBJECTID":249173},"geometry":{"x":177770.38999999966,"y":2541018.0399999991}},{"attributes":{"ID":249178,"DIS_CODE":0,"TOWNNAME":"歸仁區","LI":"新厝里","LIN":"18鄰","STREET":"中正南路","SECT":"一段","MAREA":" ","LANE":" ","ALLEY":" ","HOUSE_NO":"１５７號","E_COORD97":177445.13,"N_COORD97":2540400.2000000002,"ADDRESS":"中正南路一段１５７號","OBJECTID":249174},"geometry":{"x":177445.13000000082,"y":2540400.1999999993}},{"attributes":{"ID":249179,"DIS_CODE":0,"TOWNNAME":"永康區","LI":"勝利里","LIN":"14鄰","STREET":"勝利街","SECT":" ","MAREA":" ","LANE":" ","ALLEY":" ","HOUSE_NO":"９１號","E_COORD97":171340.53,"N_COORD97":2544838.75,"ADDRESS":"勝利街９１號","OBJECTID":249175},"geometry":{"x":171340.53000000026,"y":2544838.75}},{"attributes":{"ID":249180,"DIS_CODE":0,"TOWNNAME":"永康區","LI":"王行里","LIN":"4鄰","STREET":"育樂街","SECT":" ","MAREA":" ","LANE":"１４３巷","ALLEY":" ","HOUSE_NO":"１９號","E_COORD97":175098.76000000001,"N_COORD97":2548248.73,"ADDRESS":"育樂街１４３巷１９號","OBJECTID":249176},"geometry":{"x":175098.75999999885,"y":2548248.7300000023}},{"attributes":{"ID":249181,"DIS_CODE":0,"TOWNNAME":"永康區","LI":"王行里","LIN":"7鄰","STREET":"王行路","SECT":" ","MAREA":" ","LANE":"３５１巷","ALLEY":" ","HOUSE_NO":"７５號","E_COORD97":175349.98999999999,"N_COORD97":2548712.6600000001,"ADDRESS":"王行路３５１巷７５號","OBJECTID":249177},"geometry":{"x":175349.99000000022,"y":2548712.660000002}},{"attributes":{"ID":249182,"DIS_CODE":0,"TOWNNAME":"永康區","LI":"中興里","LIN":"15鄰","STREET":"中興街","SECT":" ","MAREA":" ","LANE":"９１巷","ALLEY":" ","HOUSE_NO":"６號","E_COORD97":172043.32000000001,"N_COORD97":2545358.48,"ADDRESS":"中興街９１巷６號","OBJECTID":249178},"geometry":{"x":172043.32000000123,"y":2545358.4800000023}},{"attributes":{"ID":249183,"DIS_CODE":0,"TOWNNAME":"永康區","LI":"五王里","LIN":"23鄰","STREET":"成功路","SECT":" ","MAREA":" ","LANE":"２４４巷","ALLEY":" ","HOUSE_NO":"６１號","E_COORD97":171444.07999999999,"N_COORD97":2545915.27,"ADDRESS":"成功路２４４巷６１號","OBJECTID":249179},"geometry":{"x":171444.08000000101,"y":2545915.2700000014}},{"attributes":{"ID":249184,"DIS_CODE":0,"TOWNNAME":"永康區","LI":"王行里","LIN":"4鄰","STREET":"育樂街","SECT":" ","MAREA":" ","LANE":"１４３巷","ALLEY":" ","HOUSE_NO":"２１號","E_COORD97":175099.51000000001,"N_COORD97":2548242.5699999998,"ADDRESS":"育樂街１４３巷２１號","OBJECTID":249180},"geometry":{"x":175099.51000000071,"y":2548242.5700000022}},{"attributes":{"ID":249185,"DIS_CODE":0,"TOWNNAME":"永康區","LI":"北灣里","LIN":"39鄰","STREET":"大同街","SECT":" ","MAREA":" ","LANE":"６２３巷","ALLEY":" ","HOUSE_NO":"８號","E_COORD97":174562.34,"N_COORD97":2546437.25,"ADDRESS":"大同街６２３巷８號","OBJECTID":249181},"geometry":{"x":174562.33999999985,"y":2546437.2500000019}},{"attributes":{"ID":249186,"DIS_CODE":0,"TOWNNAME":"永康區","LI":"北灣里","LIN":"14鄰","STREET":"大灣路","SECT":" ","MAREA":" ","LANE":"４４巷","ALLEY":" ","HOUSE_NO":"１０號","E_COORD97":175241.28,"N_COORD97":2545879.7599999998,"ADDRESS":"大灣路４４巷１０號","OBJECTID":249182},"geometry":{"x":175241.28000000026,"y":2545879.7599999998}},{"attributes":{"ID":249187,"DIS_CODE":0,"TOWNNAME":"永康區","LI":"王行里","LIN":"7鄰","STREET":"王行路","SECT":" ","MAREA":" ","LANE":"３５１巷","ALLEY":" ","HOUSE_NO":"７１號","E_COORD97":175319.01000000001,"N_COORD97":2548713,"ADDRESS":"王行路３５１巷７１號","OBJECTID":249183},"geometry":{"x":175319.00999999978,"y":2548712.9999999981}},{"attributes":{"ID":249188,"DIS_CODE":0,"TOWNNAME":"東區","LI":"東門里","LIN":"11鄰","STREET":"青年路","SECT":" ","MAREA":" ","LANE":" ","ALLEY":" ","HOUSE_NO":"３６０號","E_COORD97":169515.34,"N_COORD97":2543504.6099999999,"ADDRESS":"青年路３６０號","OBJECTID":249184},"geometry":{"x":169515.33999999985,"y":2543504.6100000013}},{"attributes":{"ID":249189,"DIS_CODE":0,"TOWNNAME":"東區","LI":"東門里","LIN":"11鄰","STREET":"青年路","SECT":" ","MAREA":" ","LANE":" ","ALLEY":" ","HOUSE_NO":"３６０號之１","E_COORD97":169450.45999999999,"N_COORD97":2543524.5600000001,"ADDRESS":"青年路３６０號之１","OBJECTID":249185},"geometry":{"x":169450.45999999996,"y":2543524.5600000005}},{"attributes":{"ID":249190,"DIS_CODE":0,"TOWNNAME":"東區","LI":"東門里","LIN":"11鄰","STREET":"青年路","SECT":" ","MAREA":" ","LANE":" ","ALLEY":" ","HOUSE_NO":"３６０號之１０","E_COORD97":169416.91,"N_COORD97":2543465.1800000002,"ADDRESS":"青年路３６０號之１０","OBJECTID":249186},"geometry":{"x":169416.91000000015,"y":2543465.1799999997}},{"attributes":{"ID":249191,"DIS_CODE":0,"TOWNNAME":"東區","LI":"東門里","LIN":"11鄰","STREET":"青年路","SECT":" ","MAREA":" ","LANE":" ","ALLEY":" ","HOUSE_NO":"３６０號之１１","E_COORD97":169399.39999999999,"N_COORD97":2543467.4900000002,"ADDRESS":"青年路３６０號之１１","OBJECTID":249187},"geometry":{"x":169399.40000000224,"y":2543467.4900000002}},{"attributes":{"ID":249192,"DIS_CODE":0,"TOWNNAME":"永康區","LI":"王行里","LIN":"14鄰","STREET":"經華路","SECT":" ","MAREA":" ","LANE":" ","ALLEY":" ","HOUSE_NO":"８號","E_COORD97":175221.28,"N_COORD97":2549470.2400000002,"ADDRESS":"經華路８號","OBJECTID":249188},"geometry":{"x":175221.28000000212,"y":2549470.2400000002}},{"attributes":{"ID":249193,"DIS_CODE":0,"TOWNNAME":"永康區","LI":"王行里","LIN":"15鄰","STREET":"龍昌街","SECT":" ","MAREA":" ","LANE":" ","ALLEY":" ","HOUSE_NO":"７７號","E_COORD97":174973.60999999999,"N_COORD97":2548089.5600000001,"ADDRESS":"龍昌街７７號","OBJECTID":249189},"geometry":{"x":174973.61000000127,"y":2548089.5600000042}},{"attributes":{"ID":249194,"DIS_CODE":0,"TOWNNAME":"永康區","LI":"五王里","LIN":"1鄰","STREET":"中華二路","SECT":" ","MAREA":" ","LANE":" ","ALLEY":" ","HOUSE_NO":"２２２號","E_COORD97":171562.39999999999,"N_COORD97":2545440.1899999999,"ADDRESS":"中華二路２２２號","OBJECTID":249190},"geometry":{"x":171562.40000000224,"y":2545440.1900000013}},{"attributes":{"ID":249195,"DIS_CODE":0,"TOWNNAME":"永康區","LI":"五王里","LIN":"28鄰","STREET":"五福街","SECT":" ","MAREA":" ","LANE":" ","ALLEY":" ","HOUSE_NO":"９６號","E_COORD97":171511.19,"N_COORD97":2545970.1600000001,"ADDRESS":"五福街９６號","OBJECTID":249191},"geometry":{"x":171511.18999999948,"y":2545970.160000002}},{"attributes":{"ID":249196,"DIS_CODE":0,"TOWNNAME":"東區","LI":"東門里","LIN":"11鄰","STREET":"青年路","SECT":" ","MAREA":" ","LANE":" ","ALLEY":" ","HOUSE_NO":"３６０號之１２","E_COORD97":169429.51000000001,"N_COORD97":2543434.4500000002,"ADDRESS":"青年路３６０號之１２","OBJECTID":249192},"geometry":{"x":169429.50999999978,"y":2543434.4500000011}},{"attributes":{"ID":249197,"DIS_CODE":0,"TOWNNAME":"永康區","LI":"王行里","LIN":"4鄰","STREET":"育樂街","SECT":" ","MAREA":" ","LANE":"１６７巷","ALLEY":" ","HOUSE_NO":"１７號","E_COORD97":175010.87,"N_COORD97":2548271.7000000002,"ADDRESS":"育樂街１６７巷１７號","OBJECTID":249193},"geometry":{"x":175010.87000000104,"y":2548271.7000000011}},{"attributes":{"ID":249198,"DIS_CODE":0,"TOWNNAME":"永康區","LI":"中興里","LIN":"5鄰","STREET":"中華路","SECT":" ","MAREA":" ","LANE":"２１４巷","ALLEY":" ","HOUSE_NO":"１５號","E_COORD97":171742.95999999999,"N_COORD97":2545064.4199999999,"ADDRESS":"中華路２１４巷１５號","OBJECTID":249194},"geometry":{"x":171742.96000000183,"y":2545064.4199999999}},{"attributes":{"ID":249199,"DIS_CODE":0,"TOWNNAME":"永康區","LI":"中興里","LIN":"20鄰","STREET":"中華路","SECT":" ","MAREA":" ","LANE":"２１６巷","ALLEY":" ","HOUSE_NO":"１１號","E_COORD97":171798.45000000001,"N_COORD97":2545157.29,"ADDRESS":"中華路２１６巷１１號","OBJECTID":249195},"geometry":{"x":171798.45000000019,"y":2545157.2900000028}},{"attributes":{"ID":249200,"DIS_CODE":0,"TOWNNAME":"七股區","LI":"大寮里","LIN":"1鄰","STREET":" ","SECT":" ","MAREA":"大寮","LANE":" ","ALLEY":" ","HOUSE_NO":"３號","E_COORD97":162906.89999999999,"N_COORD97":2560915.6099999999,"ADDRESS":"大寮３號","OBJECTID":249196},"geometry":{"x":162906.9000000013,"y":2560915.6099999994}},{"attributes":{"ID":249201,"DIS_CODE":0,"TOWNNAME":"安南區","LI":"溪頂里","LIN":"14鄰","STREET":"惠安街","SECT":" ","MAREA":" ","LANE":"１６１巷","ALLEY":" ","HOUSE_NO":"３５號","E_COORD97":168887.94,"N_COORD97":2547349.9700000002,"ADDRESS":"惠安街１６１巷３５號","OBJECTID":249197},"geometry":{"x":168887.94000000134,"y":2547349.9700000007}},{"attributes":{"ID":249202,"DIS_CODE":0,"TOWNNAME":"安南區","LI":"溪頂里","LIN":"14鄰","STREET":"惠安街","SECT":" ","MAREA":" ","LANE":"１６１巷","ALLEY":" ","HOUSE_NO":"３６號","E_COORD97":168852.23000000001,"N_COORD97":2547334.5499999998,"ADDRESS":"惠安街１６１巷３６號","OBJECTID":249198},"geometry":{"x":168852.23000000045,"y":2547334.5500000026}},{"attributes":{"ID":249203,"DIS_CODE":0,"TOWNNAME":"安南區","LI":"溪頂里","LIN":"14鄰","STREET":"惠安街","SECT":" ","MAREA":" ","LANE":"１６１巷","ALLEY":" ","HOUSE_NO":"３７號","E_COORD97":168896.20999999999,"N_COORD97":2547349.7999999998,"ADDRESS":"惠安街１６１巷３７號","OBJECTID":249199},"geometry":{"x":168896.20999999996,"y":2547349.8000000026}},{"attributes":{"ID":249204,"DIS_CODE":0,"TOWNNAME":"安南區","LI":"溪頂里","LIN":"14鄰","STREET":"惠安街","SECT":" ","MAREA":" ","LANE":"１６１巷","ALLEY":" ","HOUSE_NO":"３８號","E_COORD97":168860.29000000001,"N_COORD97":2547334.4100000001,"ADDRESS":"惠安街１６１巷３８號","OBJECTID":249200},"geometry":{"x":168860.29000000004,"y":2547334.410000002}}]}