{"displayFieldName":"TOWNNAME","fieldAliases":{"ID":"ID","DIS_CODE":"DIS_CODE","TOWNNAME":"TOWNNAME","LI":"LI","LIN":"LIN","STREET":"STREET","SECT":"SECT","MAREA":"MAREA","LANE":"LANE","ALLEY":"ALLEY","HOUSE_NO":"HOUSE_NO","E_COORD97":"E_COORD97","N_COORD97":"N_COORD97","ADDRESS":"ADDRESS","OBJECTID":"OBJECTID"},"geometryType":"esriGeometryPoint","spatialReference":{"wkid":102443,"latestWkid":3826},"fields":[{"name":"ID","type":"esriFieldTypeDouble","alias":"ID"},{"name":"DIS_CODE","type":"esriFieldTypeInteger","alias":"DIS_CODE"},{"name":"TOWNNAME","type":"esriFieldTypeString","alias":"TOWNNAME","length":8},{"name":"LI","type":"esriFieldTypeString","alias":"LI","length":8},{"name":"LIN","type":"esriFieldTypeString","alias":"LIN","length":12},{"name":"STREET","type":"esriFieldTypeString","alias":"STREET","length":20},{"name":"SECT","type":"esriFieldTypeString","alias":"SECT","length":8},{"name":"MAREA","type":"esriFieldTypeString","alias":"MAREA","length":12},{"name":"LANE","type":"esriFieldTypeString","alias":"LANE","length":10},{"name":"ALLEY","type":"esriFieldTypeString","alias":"ALLEY","length":10},{"name":"HOUSE_NO","type":"esriFieldTypeString","alias":"HOUSE_NO","length":20},{"name":"E_COORD97","type":"esriFieldTypeDouble","alias":"E_COORD97"},{"name":"N_COORD97","type":"esriFieldTypeDouble","alias":"N_COORD97"},{"name":"ADDRESS","type":"esriFieldTypeString","alias":"ADDRESS","length":50},{"name":"OBJECTID","type":"esriFieldTypeOID","alias":"OBJECTID"}],"features":[{"attributes":{"ID":554028,"DIS_CODE":0,"TOWNNAME":"北區","LI":"公園里","LIN":"21鄰","STREET":"公園路","SECT":" ","MAREA":" ","LANE":" ","ALLEY":" ","HOUSE_NO":"１３４號七樓之１０","E_COORD97":168781.78,"N_COORD97":2544406.4300000002,"ADDRESS":"公園路１３４號七樓之１０","OBJECTID":554001},"geometry":{"x":168781.78000000119,"y":2544406.4299999997}},{"attributes":{"ID":554029,"DIS_CODE":0,"TOWNNAME":"北區","LI":"公園里","LIN":"21鄰","STREET":"公園路","SECT":" ","MAREA":" ","LANE":" ","ALLEY":" ","HOUSE_NO":"１３４號七樓之１１","E_COORD97":168781.78,"N_COORD97":2544406.4300000002,"ADDRESS":"公園路１３４號七樓之１１","OBJECTID":554002},"geometry":{"x":168781.78000000119,"y":2544406.4299999997}},{"attributes":{"ID":554030,"DIS_CODE":0,"TOWNNAME":"北區","LI":"公園里","LIN":"21鄰","STREET":"公園路","SECT":" ","MAREA":" ","LANE":" ","ALLEY":" ","HOUSE_NO":"１３４號七樓之１２","E_COORD97":168781.78,"N_COORD97":2544406.4300000002,"ADDRESS":"公園路１３４號七樓之１２","OBJECTID":554003},"geometry":{"x":168781.78000000119,"y":2544406.4299999997}},{"attributes":{"ID":554031,"DIS_CODE":0,"TOWNNAME":"北區","LI":"公園里","LIN":"21鄰","STREET":"公園路","SECT":" ","MAREA":" ","LANE":" ","ALLEY":" ","HOUSE_NO":"１３４號七樓之１３","E_COORD97":168781.78,"N_COORD97":2544406.4300000002,"ADDRESS":"公園路１３４號七樓之１３","OBJECTID":554004},"geometry":{"x":168781.78000000119,"y":2544406.4299999997}},{"attributes":{"ID":554032,"DIS_CODE":0,"TOWNNAME":"北區","LI":"公園里","LIN":"21鄰","STREET":"公園路","SECT":" ","MAREA":" ","LANE":" ","ALLEY":" ","HOUSE_NO":"１３４號七樓之１４","E_COORD97":168781.78,"N_COORD97":2544406.4300000002,"ADDRESS":"公園路１３４號七樓之１４","OBJECTID":554005},"geometry":{"x":168781.78000000119,"y":2544406.4299999997}},{"attributes":{"ID":554033,"DIS_CODE":0,"TOWNNAME":"北區","LI":"公園里","LIN":"21鄰","STREET":"公園路","SECT":" ","MAREA":" ","LANE":" ","ALLEY":" ","HOUSE_NO":"１３４號七樓之１５","E_COORD97":168781.78,"N_COORD97":2544406.4300000002,"ADDRESS":"公園路１３４號七樓之１５","OBJECTID":554006},"geometry":{"x":168781.78000000119,"y":2544406.4299999997}},{"attributes":{"ID":554034,"DIS_CODE":0,"TOWNNAME":"北區","LI":"公園里","LIN":"21鄰","STREET":"公園路","SECT":" ","MAREA":" ","LANE":" ","ALLEY":" ","HOUSE_NO":"１３４號七樓之１６","E_COORD97":168781.78,"N_COORD97":2544406.4300000002,"ADDRESS":"公園路１３４號七樓之１６","OBJECTID":554007},"geometry":{"x":168781.78000000119,"y":2544406.4299999997}},{"attributes":{"ID":554035,"DIS_CODE":0,"TOWNNAME":"北區","LI":"公園里","LIN":"21鄰","STREET":"公園路","SECT":" ","MAREA":" ","LANE":" ","ALLEY":" ","HOUSE_NO":"１３４號七樓之１７","E_COORD97":168781.78,"N_COORD97":2544406.4300000002,"ADDRESS":"公園路１３４號七樓之１７","OBJECTID":554008},"geometry":{"x":168781.78000000119,"y":2544406.4299999997}},{"attributes":{"ID":554036,"DIS_CODE":0,"TOWNNAME":"北區","LI":"公園里","LIN":"21鄰","STREET":"公園路","SECT":" ","MAREA":" ","LANE":" ","ALLEY":" ","HOUSE_NO":"１３４號七樓之１８","E_COORD97":168781.78,"N_COORD97":2544406.4300000002,"ADDRESS":"公園路１３４號七樓之１８","OBJECTID":554009},"geometry":{"x":168781.78000000119,"y":2544406.4299999997}},{"attributes":{"ID":554037,"DIS_CODE":0,"TOWNNAME":"北區","LI":"公園里","LIN":"21鄰","STREET":"公園路","SECT":" ","MAREA":" ","LANE":" ","ALLEY":" ","HOUSE_NO":"１３４號七樓之１９","E_COORD97":168781.78,"N_COORD97":2544406.4300000002,"ADDRESS":"公園路１３４號七樓之１９","OBJECTID":554010},"geometry":{"x":168781.78000000119,"y":2544406.4299999997}},{"attributes":{"ID":554038,"DIS_CODE":0,"TOWNNAME":"北區","LI":"公園里","LIN":"21鄰","STREET":"公園路","SECT":" ","MAREA":" ","LANE":" ","ALLEY":" ","HOUSE_NO":"１３４號七樓之２","E_COORD97":168781.78,"N_COORD97":2544406.4300000002,"ADDRESS":"公園路１３４號七樓之２","OBJECTID":554011},"geometry":{"x":168781.78000000119,"y":2544406.4299999997}},{"attributes":{"ID":554039,"DIS_CODE":0,"TOWNNAME":"北區","LI":"公園里","LIN":"21鄰","STREET":"公園路","SECT":" ","MAREA":" ","LANE":" ","ALLEY":" ","HOUSE_NO":"１３４號七樓之２０","E_COORD97":168781.78,"N_COORD97":2544406.4300000002,"ADDRESS":"公園路１３４號七樓之２０","OBJECTID":554012},"geometry":{"x":168781.78000000119,"y":2544406.4299999997}},{"attributes":{"ID":554040,"DIS_CODE":0,"TOWNNAME":"北區","LI":"公園里","LIN":"21鄰","STREET":"公園路","SECT":" ","MAREA":" ","LANE":" ","ALLEY":" ","HOUSE_NO":"１３４號七樓之３","E_COORD97":168781.78,"N_COORD97":2544406.4300000002,"ADDRESS":"公園路１３４號七樓之３","OBJECTID":554013},"geometry":{"x":168781.78000000119,"y":2544406.4299999997}},{"attributes":{"ID":554041,"DIS_CODE":0,"TOWNNAME":"北區","LI":"公園里","LIN":"21鄰","STREET":"公園路","SECT":" ","MAREA":" ","LANE":" ","ALLEY":" ","HOUSE_NO":"１３４號七樓之４","E_COORD97":168781.78,"N_COORD97":2544406.4300000002,"ADDRESS":"公園路１３４號七樓之４","OBJECTID":554014},"geometry":{"x":168781.78000000119,"y":2544406.4299999997}},{"attributes":{"ID":554042,"DIS_CODE":0,"TOWNNAME":"北區","LI":"公園里","LIN":"21鄰","STREET":"公園路","SECT":" ","MAREA":" ","LANE":" ","ALLEY":" ","HOUSE_NO":"１３４號七樓之５","E_COORD97":168781.78,"N_COORD97":2544406.4300000002,"ADDRESS":"公園路１３４號七樓之５","OBJECTID":554015},"geometry":{"x":168781.78000000119,"y":2544406.4299999997}},{"attributes":{"ID":554043,"DIS_CODE":0,"TOWNNAME":"北區","LI":"公園里","LIN":"21鄰","STREET":"公園路","SECT":" ","MAREA":" ","LANE":" ","ALLEY":" ","HOUSE_NO":"１３４號七樓之６","E_COORD97":168781.78,"N_COORD97":2544406.4300000002,"ADDRESS":"公園路１３４號七樓之６","OBJECTID":554016},"geometry":{"x":168781.78000000119,"y":2544406.4299999997}},{"attributes":{"ID":554044,"DIS_CODE":0,"TOWNNAME":"北區","LI":"公園里","LIN":"21鄰","STREET":"公園路","SECT":" ","MAREA":" ","LANE":" ","ALLEY":" ","HOUSE_NO":"１３４號七樓之７","E_COORD97":168781.78,"N_COORD97":2544406.4300000002,"ADDRESS":"公園路１３４號七樓之７","OBJECTID":554017},"geometry":{"x":168781.78000000119,"y":2544406.4299999997}},{"attributes":{"ID":554045,"DIS_CODE":0,"TOWNNAME":"北區","LI":"公園里","LIN":"21鄰","STREET":"公園路","SECT":" ","MAREA":" ","LANE":" ","ALLEY":" ","HOUSE_NO":"１３４號七樓之８","E_COORD97":168781.78,"N_COORD97":2544406.4300000002,"ADDRESS":"公園路１３４號七樓之８","OBJECTID":554018},"geometry":{"x":168781.78000000119,"y":2544406.4299999997}},{"attributes":{"ID":554046,"DIS_CODE":0,"TOWNNAME":"北區","LI":"公園里","LIN":"21鄰","STREET":"公園路","SECT":" ","MAREA":" ","LANE":" ","ALLEY":" ","HOUSE_NO":"１３４號七樓之９","E_COORD97":168781.78,"N_COORD97":2544406.4300000002,"ADDRESS":"公園路１３４號七樓之９","OBJECTID":554019},"geometry":{"x":168781.78000000119,"y":2544406.4299999997}},{"attributes":{"ID":554047,"DIS_CODE":0,"TOWNNAME":"北區","LI":"公園里","LIN":"21鄰","STREET":"公園路","SECT":" ","MAREA":" ","LANE":" ","ALLEY":" ","HOUSE_NO":"１３４號九樓之１","E_COORD97":168781.78,"N_COORD97":2544406.4300000002,"ADDRESS":"公園路１３４號九樓之１","OBJECTID":554020},"geometry":{"x":168781.78000000119,"y":2544406.4299999997}},{"attributes":{"ID":554048,"DIS_CODE":0,"TOWNNAME":"北區","LI":"公園里","LIN":"21鄰","STREET":"公園路","SECT":" ","MAREA":" ","LANE":" ","ALLEY":" ","HOUSE_NO":"１３４號九樓之１０","E_COORD97":168781.78,"N_COORD97":2544406.4300000002,"ADDRESS":"公園路１３４號九樓之１０","OBJECTID":554021},"geometry":{"x":168781.78000000119,"y":2544406.4299999997}},{"attributes":{"ID":554049,"DIS_CODE":0,"TOWNNAME":"北區","LI":"公園里","LIN":"21鄰","STREET":"公園路","SECT":" ","MAREA":" ","LANE":" ","ALLEY":" ","HOUSE_NO":"１３４號九樓之１１","E_COORD97":168781.78,"N_COORD97":2544406.4300000002,"ADDRESS":"公園路１３４號九樓之１１","OBJECTID":554022},"geometry":{"x":168781.78000000119,"y":2544406.4299999997}},{"attributes":{"ID":554050,"DIS_CODE":0,"TOWNNAME":"北區","LI":"公園里","LIN":"21鄰","STREET":"公園路","SECT":" ","MAREA":" ","LANE":" ","ALLEY":" ","HOUSE_NO":"１３４號九樓之１２","E_COORD97":168781.78,"N_COORD97":2544406.4300000002,"ADDRESS":"公園路１３４號九樓之１２","OBJECTID":554023},"geometry":{"x":168781.78000000119,"y":2544406.4299999997}},{"attributes":{"ID":554051,"DIS_CODE":0,"TOWNNAME":"北區","LI":"公園里","LIN":"21鄰","STREET":"公園路","SECT":" ","MAREA":" ","LANE":" ","ALLEY":" ","HOUSE_NO":"１３４號九樓之１３","E_COORD97":168781.78,"N_COORD97":2544406.4300000002,"ADDRESS":"公園路１３４號九樓之１３","OBJECTID":554024},"geometry":{"x":168781.78000000119,"y":2544406.4299999997}},{"attributes":{"ID":554052,"DIS_CODE":0,"TOWNNAME":"東區","LI":"中西里","LIN":"32鄰","STREET":"林森路","SECT":"二段","MAREA":" ","LANE":" ","ALLEY":" ","HOUSE_NO":"１２３號之１１","E_COORD97":170413.5,"N_COORD97":2543423.71,"ADDRESS":"林森路二段１２３號之１１","OBJECTID":554025},"geometry":{"x":170413.5,"y":2543423.7100000046}},{"attributes":{"ID":554053,"DIS_CODE":0,"TOWNNAME":"東區","LI":"中西里","LIN":"32鄰","STREET":"林森路","SECT":"二段","MAREA":" ","LANE":" ","ALLEY":" ","HOUSE_NO":"１２５號之１","E_COORD97":170413.5,"N_COORD97":2543423.71,"ADDRESS":"林森路二段１２５號之１","OBJECTID":554026},"geometry":{"x":170413.5,"y":2543423.7100000046}},{"attributes":{"ID":554054,"DIS_CODE":0,"TOWNNAME":"東區","LI":"中西里","LIN":"32鄰","STREET":"林森路","SECT":"二段","MAREA":" ","LANE":" ","ALLEY":" ","HOUSE_NO":"１２５號之２","E_COORD97":170413.5,"N_COORD97":2543423.71,"ADDRESS":"林森路二段１２５號之２","OBJECTID":554027},"geometry":{"x":170413.5,"y":2543423.7100000046}},{"attributes":{"ID":554055,"DIS_CODE":0,"TOWNNAME":"東區","LI":"中西里","LIN":"32鄰","STREET":"林森路","SECT":"二段","MAREA":" ","LANE":" ","ALLEY":" ","HOUSE_NO":"１２５號之３","E_COORD97":170413.5,"N_COORD97":2543423.71,"ADDRESS":"林森路二段１２５號之３","OBJECTID":554028},"geometry":{"x":170413.5,"y":2543423.7100000046}},{"attributes":{"ID":554056,"DIS_CODE":0,"TOWNNAME":"北區","LI":"公園里","LIN":"21鄰","STREET":"公園路","SECT":" ","MAREA":" ","LANE":" ","ALLEY":" ","HOUSE_NO":"１３４號九樓之１４","E_COORD97":168781.78,"N_COORD97":2544406.4300000002,"ADDRESS":"公園路１３４號九樓之１４","OBJECTID":554029},"geometry":{"x":168781.78000000119,"y":2544406.4299999997}},{"attributes":{"ID":554057,"DIS_CODE":0,"TOWNNAME":"北區","LI":"公園里","LIN":"21鄰","STREET":"公園路","SECT":" ","MAREA":" ","LANE":" ","ALLEY":" ","HOUSE_NO":"１３４號九樓之１５","E_COORD97":168781.78,"N_COORD97":2544406.4300000002,"ADDRESS":"公園路１３４號九樓之１５","OBJECTID":554030},"geometry":{"x":168781.78000000119,"y":2544406.4299999997}},{"attributes":{"ID":554058,"DIS_CODE":0,"TOWNNAME":"北區","LI":"公園里","LIN":"21鄰","STREET":"公園路","SECT":" ","MAREA":" ","LANE":" ","ALLEY":" ","HOUSE_NO":"１３４號九樓之１７","E_COORD97":168781.78,"N_COORD97":2544406.4300000002,"ADDRESS":"公園路１３４號九樓之１７","OBJECTID":554031},"geometry":{"x":168781.78000000119,"y":2544406.4299999997}},{"attributes":{"ID":554059,"DIS_CODE":0,"TOWNNAME":"北區","LI":"公園里","LIN":"21鄰","STREET":"公園路","SECT":" ","MAREA":" ","LANE":" ","ALLEY":" ","HOUSE_NO":"１３４號九樓之１８","E_COORD97":168781.78,"N_COORD97":2544406.4300000002,"ADDRESS":"公園路１３４號九樓之１８","OBJECTID":554032},"geometry":{"x":168781.78000000119,"y":2544406.4299999997}},{"attributes":{"ID":554060,"DIS_CODE":0,"TOWNNAME":"北區","LI":"公園里","LIN":"21鄰","STREET":"公園路","SECT":" ","MAREA":" ","LANE":" ","ALLEY":" ","HOUSE_NO":"１３４號九樓之１９","E_COORD97":168781.78,"N_COORD97":2544406.4300000002,"ADDRESS":"公園路１３４號九樓之１９","OBJECTID":554033},"geometry":{"x":168781.78000000119,"y":2544406.4299999997}},{"attributes":{"ID":554061,"DIS_CODE":0,"TOWNNAME":"北區","LI":"公園里","LIN":"21鄰","STREET":"公園路","SECT":" ","MAREA":" ","LANE":" ","ALLEY":" ","HOUSE_NO":"１３４號九樓之２","E_COORD97":168781.78,"N_COORD97":2544406.4300000002,"ADDRESS":"公園路１３４號九樓之２","OBJECTID":554034},"geometry":{"x":168781.78000000119,"y":2544406.4299999997}},{"attributes":{"ID":554062,"DIS_CODE":0,"TOWNNAME":"北區","LI":"公園里","LIN":"21鄰","STREET":"公園路","SECT":" ","MAREA":" ","LANE":" ","ALLEY":" ","HOUSE_NO":"１３４號九樓之３","E_COORD97":168781.78,"N_COORD97":2544406.4300000002,"ADDRESS":"公園路１３４號九樓之３","OBJECTID":554035},"geometry":{"x":168781.78000000119,"y":2544406.4299999997}},{"attributes":{"ID":554063,"DIS_CODE":0,"TOWNNAME":"北區","LI":"公園里","LIN":"21鄰","STREET":"公園路","SECT":" ","MAREA":" ","LANE":" ","ALLEY":" ","HOUSE_NO":"１３４號九樓之４","E_COORD97":168781.78,"N_COORD97":2544406.4300000002,"ADDRESS":"公園路１３４號九樓之４","OBJECTID":554036},"geometry":{"x":168781.78000000119,"y":2544406.4299999997}},{"attributes":{"ID":554064,"DIS_CODE":0,"TOWNNAME":"北區","LI":"公園里","LIN":"21鄰","STREET":"公園路","SECT":" ","MAREA":" ","LANE":" ","ALLEY":" ","HOUSE_NO":"１３４號九樓之５","E_COORD97":168781.78,"N_COORD97":2544406.4300000002,"ADDRESS":"公園路１３４號九樓之５","OBJECTID":554037},"geometry":{"x":168781.78000000119,"y":2544406.4299999997}},{"attributes":{"ID":554065,"DIS_CODE":0,"TOWNNAME":"永康區","LI":"\u25A0行里","LIN":"7鄰","STREET":"中正路","SECT":" ","MAREA":" ","LANE":" ","ALLEY":" ","HOUSE_NO":"８１６號","E_COORD97":172195,"N_COORD97":2548711.1800000002,"ADDRESS":"中正路８１６號","OBJECTID":554038},"geometry":{"x":172195,"y":2548711.1799999997}},{"attributes":{"ID":554066,"DIS_CODE":0,"TOWNNAME":"北區","LI":"公園里","LIN":"21鄰","STREET":"公園路","SECT":" ","MAREA":" ","LANE":" ","ALLEY":" ","HOUSE_NO":"１３４號九樓之６","E_COORD97":168781.78,"N_COORD97":2544406.4300000002,"ADDRESS":"公園路１３４號九樓之６","OBJECTID":554039},"geometry":{"x":168781.78000000119,"y":2544406.4299999997}},{"attributes":{"ID":554067,"DIS_CODE":0,"TOWNNAME":"北區","LI":"公園里","LIN":"21鄰","STREET":"公園路","SECT":" ","MAREA":" ","LANE":" ","ALLEY":" ","HOUSE_NO":"１３４號九樓之７","E_COORD97":168781.78,"N_COORD97":2544406.4300000002,"ADDRESS":"公園路１３４號九樓之７","OBJECTID":554040},"geometry":{"x":168781.78000000119,"y":2544406.4299999997}},{"attributes":{"ID":554068,"DIS_CODE":0,"TOWNNAME":"北區","LI":"公園里","LIN":"21鄰","STREET":"公園路","SECT":" ","MAREA":" ","LANE":" ","ALLEY":" ","HOUSE_NO":"１３４號九樓之８","E_COORD97":168781.78,"N_COORD97":2544406.4300000002,"ADDRESS":"公園路１３４號九樓之８","OBJECTID":554041},"geometry":{"x":168781.78000000119,"y":2544406.4299999997}},{"attributes":{"ID":554069,"DIS_CODE":0,"TOWNNAME":"北區","LI":"公園里","LIN":"21鄰","STREET":"公園路","SECT":" ","MAREA":" ","LANE":" ","ALLEY":" ","HOUSE_NO":"１３４號九樓之９","E_COORD97":168781.78,"N_COORD97":2544406.4300000002,"ADDRESS":"公園路１３４號九樓之９","OBJECTID":554042},"geometry":{"x":168781.78000000119,"y":2544406.4299999997}},{"attributes":{"ID":554070,"DIS_CODE":0,"TOWNNAME":"北區","LI":"公園里","LIN":"21鄰","STREET":"公園路","SECT":" ","MAREA":" ","LANE":" ","ALLEY":" ","HOUSE_NO":"１３４號二樓之１","E_COORD97":168781.78,"N_COORD97":2544406.4300000002,"ADDRESS":"公園路１３４號二樓之１","OBJECTID":554043},"geometry":{"x":168781.78000000119,"y":2544406.4299999997}},{"attributes":{"ID":554071,"DIS_CODE":0,"TOWNNAME":"北區","LI":"公園里","LIN":"21鄰","STREET":"公園路","SECT":" ","MAREA":" ","LANE":" ","ALLEY":" ","HOUSE_NO":"１３４號二樓之１０","E_COORD97":168781.78,"N_COORD97":2544406.4300000002,"ADDRESS":"公園路１３４號二樓之１０","OBJECTID":554044},"geometry":{"x":168781.78000000119,"y":2544406.4299999997}},{"attributes":{"ID":554072,"DIS_CODE":0,"TOWNNAME":"北區","LI":"公園里","LIN":"21鄰","STREET":"公園路","SECT":" ","MAREA":" ","LANE":" ","ALLEY":" ","HOUSE_NO":"１３４號二樓之１１","E_COORD97":168781.78,"N_COORD97":2544406.4300000002,"ADDRESS":"公園路１３４號二樓之１１","OBJECTID":554045},"geometry":{"x":168781.78000000119,"y":2544406.4299999997}},{"attributes":{"ID":554073,"DIS_CODE":0,"TOWNNAME":"北區","LI":"公園里","LIN":"21鄰","STREET":"公園路","SECT":" ","MAREA":" ","LANE":" ","ALLEY":" ","HOUSE_NO":"１３４號二樓之１２","E_COORD97":168781.78,"N_COORD97":2544406.4300000002,"ADDRESS":"公園路１３４號二樓之１２","OBJECTID":554046},"geometry":{"x":168781.78000000119,"y":2544406.4299999997}},{"attributes":{"ID":554074,"DIS_CODE":0,"TOWNNAME":"北區","LI":"公園里","LIN":"21鄰","STREET":"公園路","SECT":" ","MAREA":" ","LANE":" ","ALLEY":" ","HOUSE_NO":"１３４號二樓之２","E_COORD97":168781.78,"N_COORD97":2544406.4300000002,"ADDRESS":"公園路１３４號二樓之２","OBJECTID":554047},"geometry":{"x":168781.78000000119,"y":2544406.4299999997}},{"attributes":{"ID":554075,"DIS_CODE":0,"TOWNNAME":"北區","LI":"公園里","LIN":"21鄰","STREET":"公園路","SECT":" ","MAREA":" ","LANE":" ","ALLEY":" ","HOUSE_NO":"１３４號二樓之３","E_COORD97":168781.78,"N_COORD97":2544406.4300000002,"ADDRESS":"公園路１３４號二樓之３","OBJECTID":554048},"geometry":{"x":168781.78000000119,"y":2544406.4299999997}},{"attributes":{"ID":554076,"DIS_CODE":0,"TOWNNAME":"北區","LI":"公園里","LIN":"21鄰","STREET":"公園路","SECT":" ","MAREA":" ","LANE":" ","ALLEY":" ","HOUSE_NO":"１３４號二樓之４","E_COORD97":168781.78,"N_COORD97":2544406.4300000002,"ADDRESS":"公園路１３４號二樓之４","OBJECTID":554049},"geometry":{"x":168781.78000000119,"y":2544406.4299999997}},{"attributes":{"ID":554077,"DIS_CODE":0,"TOWNNAME":"北區","LI":"公園里","LIN":"21鄰","STREET":"公園路","SECT":" ","MAREA":" ","LANE":" ","ALLEY":" ","HOUSE_NO":"１３４號二樓之５","E_COORD97":168781.78,"N_COORD97":2544406.4300000002,"ADDRESS":"公園路１３４號二樓之５","OBJECTID":554050},"geometry":{"x":168781.78000000119,"y":2544406.4299999997}},{"attributes":{"ID":554078,"DIS_CODE":0,"TOWNNAME":"北區","LI":"公園里","LIN":"21鄰","STREET":"公園路","SECT":" ","MAREA":" ","LANE":" ","ALLEY":" ","HOUSE_NO":"１３４號二樓之６","E_COORD97":168781.78,"N_COORD97":2544406.4300000002,"ADDRESS":"公園路１３４號二樓之６","OBJECTID":554051},"geometry":{"x":168781.78000000119,"y":2544406.4299999997}},{"attributes":{"ID":554079,"DIS_CODE":0,"TOWNNAME":"北區","LI":"公園里","LIN":"21鄰","STREET":"公園路","SECT":" ","MAREA":" ","LANE":" ","ALLEY":" ","HOUSE_NO":"１３４號二樓之７","E_COORD97":168781.78,"N_COORD97":2544406.4300000002,"ADDRESS":"公園路１３４號二樓之７","OBJECTID":554052},"geometry":{"x":168781.78000000119,"y":2544406.4299999997}},{"attributes":{"ID":554080,"DIS_CODE":0,"TOWNNAME":"北區","LI":"公園里","LIN":"21鄰","STREET":"公園路","SECT":" ","MAREA":" ","LANE":" ","ALLEY":" ","HOUSE_NO":"１３４號二樓之８","E_COORD97":168781.78,"N_COORD97":2544406.4300000002,"ADDRESS":"公園路１３４號二樓之８","OBJECTID":554053},"geometry":{"x":168781.78000000119,"y":2544406.4299999997}},{"attributes":{"ID":554081,"DIS_CODE":0,"TOWNNAME":"北區","LI":"公園里","LIN":"21鄰","STREET":"公園路","SECT":" ","MAREA":" ","LANE":" ","ALLEY":" ","HOUSE_NO":"１３４號二樓之９","E_COORD97":168781.78,"N_COORD97":2544406.4300000002,"ADDRESS":"公園路１３４號二樓之９","OBJECTID":554054},"geometry":{"x":168781.78000000119,"y":2544406.4299999997}},{"attributes":{"ID":554082,"DIS_CODE":0,"TOWNNAME":"北區","LI":"公園里","LIN":"21鄰","STREET":"公園路","SECT":" ","MAREA":" ","LANE":" ","ALLEY":" ","HOUSE_NO":"１３４號八樓之１","E_COORD97":168781.78,"N_COORD97":2544406.4300000002,"ADDRESS":"公園路１３４號八樓之１","OBJECTID":554055},"geometry":{"x":168781.78000000119,"y":2544406.4299999997}},{"attributes":{"ID":554083,"DIS_CODE":0,"TOWNNAME":"北區","LI":"公園里","LIN":"21鄰","STREET":"公園路","SECT":" ","MAREA":" ","LANE":" ","ALLEY":" ","HOUSE_NO":"１３４號八樓之１０","E_COORD97":168781.78,"N_COORD97":2544406.4300000002,"ADDRESS":"公園路１３４號八樓之１０","OBJECTID":554056},"geometry":{"x":168781.78000000119,"y":2544406.4299999997}},{"attributes":{"ID":554084,"DIS_CODE":0,"TOWNNAME":"北區","LI":"公園里","LIN":"21鄰","STREET":"公園路","SECT":" ","MAREA":" ","LANE":" ","ALLEY":" ","HOUSE_NO":"１３４號八樓之１１","E_COORD97":168781.78,"N_COORD97":2544406.4300000002,"ADDRESS":"公園路１３４號八樓之１１","OBJECTID":554057},"geometry":{"x":168781.78000000119,"y":2544406.4299999997}},{"attributes":{"ID":554085,"DIS_CODE":0,"TOWNNAME":"北區","LI":"公園里","LIN":"21鄰","STREET":"公園路","SECT":" ","MAREA":" ","LANE":" ","ALLEY":" ","HOUSE_NO":"１３４號八樓之１２","E_COORD97":168781.78,"N_COORD97":2544406.4300000002,"ADDRESS":"公園路１３４號八樓之１２","OBJECTID":554058},"geometry":{"x":168781.78000000119,"y":2544406.4299999997}},{"attributes":{"ID":554086,"DIS_CODE":0,"TOWNNAME":"北區","LI":"公園里","LIN":"21鄰","STREET":"公園路","SECT":" ","MAREA":" ","LANE":" ","ALLEY":" ","HOUSE_NO":"１３４號八樓之１３","E_COORD97":168781.78,"N_COORD97":2544406.4300000002,"ADDRESS":"公園路１３４號八樓之１３","OBJECTID":554059},"geometry":{"x":168781.78000000119,"y":2544406.4299999997}},{"attributes":{"ID":554087,"DIS_CODE":0,"TOWNNAME":"北區","LI":"公園里","LIN":"21鄰","STREET":"公園路","SECT":" ","MAREA":" ","LANE":" ","ALLEY":" ","HOUSE_NO":"１３４號八樓之１４","E_COORD97":168781.78,"N_COORD97":2544406.4300000002,"ADDRESS":"公園路１３４號八樓之１４","OBJECTID":554060},"geometry":{"x":168781.78000000119,"y":2544406.4299999997}},{"attributes":{"ID":554088,"DIS_CODE":0,"TOWNNAME":"北區","LI":"公園里","LIN":"21鄰","STREET":"公園路","SECT":" ","MAREA":" ","LANE":" ","ALLEY":" ","HOUSE_NO":"１３４號八樓之１５","E_COORD97":168781.78,"N_COORD97":2544406.4300000002,"ADDRESS":"公園路１３４號八樓之１５","OBJECTID":554061},"geometry":{"x":168781.78000000119,"y":2544406.4299999997}},{"attributes":{"ID":554089,"DIS_CODE":0,"TOWNNAME":"北區","LI":"公園里","LIN":"21鄰","STREET":"公園路","SECT":" ","MAREA":" ","LANE":" ","ALLEY":" ","HOUSE_NO":"１３４號八樓之１６","E_COORD97":168781.78,"N_COORD97":2544406.4300000002,"ADDRESS":"公園路１３４號八樓之１６","OBJECTID":554062},"geometry":{"x":168781.78000000119,"y":2544406.4299999997}},{"attributes":{"ID":554090,"DIS_CODE":0,"TOWNNAME":"北區","LI":"公園里","LIN":"21鄰","STREET":"公園路","SECT":" ","MAREA":" ","LANE":" ","ALLEY":" ","HOUSE_NO":"１３４號八樓之１７","E_COORD97":168781.78,"N_COORD97":2544406.4300000002,"ADDRESS":"公園路１３４號八樓之１７","OBJECTID":554063},"geometry":{"x":168781.78000000119,"y":2544406.4299999997}},{"attributes":{"ID":554091,"DIS_CODE":0,"TOWNNAME":"北區","LI":"公園里","LIN":"21鄰","STREET":"公園路","SECT":" ","MAREA":" ","LANE":" ","ALLEY":" ","HOUSE_NO":"１３４號八樓之１８","E_COORD97":168781.78,"N_COORD97":2544406.4300000002,"ADDRESS":"公園路１３４號八樓之１８","OBJECTID":554064},"geometry":{"x":168781.78000000119,"y":2544406.4299999997}},{"attributes":{"ID":554092,"DIS_CODE":0,"TOWNNAME":"北區","LI":"公園里","LIN":"21鄰","STREET":"公園路","SECT":" ","MAREA":" ","LANE":" ","ALLEY":" ","HOUSE_NO":"１３４號八樓之１９","E_COORD97":168781.78,"N_COORD97":2544406.4300000002,"ADDRESS":"公園路１３４號八樓之１９","OBJECTID":554065},"geometry":{"x":168781.78000000119,"y":2544406.4299999997}},{"attributes":{"ID":554093,"DIS_CODE":0,"TOWNNAME":"北區","LI":"公園里","LIN":"21鄰","STREET":"公園路","SECT":" ","MAREA":" ","LANE":" ","ALLEY":" ","HOUSE_NO":"１３４號八樓之２","E_COORD97":168781.78,"N_COORD97":2544406.4300000002,"ADDRESS":"公園路１３４號八樓之２","OBJECTID":554066},"geometry":{"x":168781.78000000119,"y":2544406.4299999997}},{"attributes":{"ID":554094,"DIS_CODE":0,"TOWNNAME":"北區","LI":"公園里","LIN":"21鄰","STREET":"公園路","SECT":" ","MAREA":" ","LANE":" ","ALLEY":" ","HOUSE_NO":"１３４號八樓之３","E_COORD97":168781.78,"N_COORD97":2544406.4300000002,"ADDRESS":"公園路１３４號八樓之３","OBJECTID":554067},"geometry":{"x":168781.78000000119,"y":2544406.4299999997}},{"attributes":{"ID":554095,"DIS_CODE":0,"TOWNNAME":"北區","LI":"公園里","LIN":"21鄰","STREET":"公園路","SECT":" ","MAREA":" ","LANE":" ","ALLEY":" ","HOUSE_NO":"１３４號八樓之４","E_COORD97":168781.78,"N_COORD97":2544406.4300000002,"ADDRESS":"公園路１３４號八樓之４","OBJECTID":554068},"geometry":{"x":168781.78000000119,"y":2544406.4299999997}},{"attributes":{"ID":554096,"DIS_CODE":0,"TOWNNAME":"北區","LI":"公園里","LIN":"21鄰","STREET":"公園路","SECT":" ","MAREA":" ","LANE":" ","ALLEY":" ","HOUSE_NO":"１３４號八樓之５","E_COORD97":168781.78,"N_COORD97":2544406.4300000002,"ADDRESS":"公園路１３４號八樓之５","OBJECTID":554069},"geometry":{"x":168781.78000000119,"y":2544406.4299999997}},{"attributes":{"ID":554097,"DIS_CODE":0,"TOWNNAME":"北區","LI":"公園里","LIN":"21鄰","STREET":"公園路","SECT":" ","MAREA":" ","LANE":" ","ALLEY":" ","HOUSE_NO":"１３４號八樓之６","E_COORD97":168781.78,"N_COORD97":2544406.4300000002,"ADDRESS":"公園路１３４號八樓之６","OBJECTID":554070},"geometry":{"x":168781.78000000119,"y":2544406.4299999997}},{"attributes":{"ID":554098,"DIS_CODE":0,"TOWNNAME":"北區","LI":"公園里","LIN":"21鄰","STREET":"公園路","SECT":" ","MAREA":" ","LANE":" ","ALLEY":" ","HOUSE_NO":"１３４號八樓之７","E_COORD97":168781.78,"N_COORD97":2544406.4300000002,"ADDRESS":"公園路１３４號八樓之７","OBJECTID":554071},"geometry":{"x":168781.78000000119,"y":2544406.4299999997}},{"attributes":{"ID":554099,"DIS_CODE":0,"TOWNNAME":"北區","LI":"公園里","LIN":"21鄰","STREET":"公園路","SECT":" ","MAREA":" ","LANE":" ","ALLEY":" ","HOUSE_NO":"１３４號八樓之８","E_COORD97":168781.78,"N_COORD97":2544406.4300000002,"ADDRESS":"公園路１３４號八樓之８","OBJECTID":554072},"geometry":{"x":168781.78000000119,"y":2544406.4299999997}},{"attributes":{"ID":554100,"DIS_CODE":0,"TOWNNAME":"北區","LI":"公園里","LIN":"21鄰","STREET":"公園路","SECT":" ","MAREA":" ","LANE":" ","ALLEY":" ","HOUSE_NO":"１３４號八樓之９","E_COORD97":168781.78,"N_COORD97":2544406.4300000002,"ADDRESS":"公園路１３４號八樓之９","OBJECTID":554073},"geometry":{"x":168781.78000000119,"y":2544406.4299999997}},{"attributes":{"ID":554101,"DIS_CODE":0,"TOWNNAME":"北區","LI":"公園里","LIN":"21鄰","STREET":"公園路","SECT":" ","MAREA":" ","LANE":" ","ALLEY":" ","HOUSE_NO":"１３４號十樓","E_COORD97":168781.78,"N_COORD97":2544406.4300000002,"ADDRESS":"公園路１３４號十樓","OBJECTID":554074},"geometry":{"x":168781.78000000119,"y":2544406.4299999997}},{"attributes":{"ID":554102,"DIS_CODE":0,"TOWNNAME":"北區","LI":"公園里","LIN":"21鄰","STREET":"公園路","SECT":" ","MAREA":" ","LANE":" ","ALLEY":" ","HOUSE_NO":"１３４號三樓之１","E_COORD97":168781.78,"N_COORD97":2544406.4300000002,"ADDRESS":"公園路１３４號三樓之１","OBJECTID":554075},"geometry":{"x":168781.78000000119,"y":2544406.4299999997}},{"attributes":{"ID":554103,"DIS_CODE":0,"TOWNNAME":"北區","LI":"公園里","LIN":"21鄰","STREET":"公園路","SECT":" ","MAREA":" ","LANE":" ","ALLEY":" ","HOUSE_NO":"１３４號三樓之１０","E_COORD97":168781.78,"N_COORD97":2544406.4300000002,"ADDRESS":"公園路１３４號三樓之１０","OBJECTID":554076},"geometry":{"x":168781.78000000119,"y":2544406.4299999997}},{"attributes":{"ID":554104,"DIS_CODE":0,"TOWNNAME":"北區","LI":"公園里","LIN":"21鄰","STREET":"公園路","SECT":" ","MAREA":" ","LANE":" ","ALLEY":" ","HOUSE_NO":"１３４號三樓之１１","E_COORD97":168781.78,"N_COORD97":2544406.4300000002,"ADDRESS":"公園路１３４號三樓之１１","OBJECTID":554077},"geometry":{"x":168781.78000000119,"y":2544406.4299999997}},{"attributes":{"ID":554105,"DIS_CODE":0,"TOWNNAME":"北區","LI":"公園里","LIN":"21鄰","STREET":"公園路","SECT":" ","MAREA":" ","LANE":" ","ALLEY":" ","HOUSE_NO":"１３４號三樓之１２","E_COORD97":168781.78,"N_COORD97":2544406.4300000002,"ADDRESS":"公園路１３４號三樓之１２","OBJECTID":554078},"geometry":{"x":168781.78000000119,"y":2544406.4299999997}},{"attributes":{"ID":554106,"DIS_CODE":0,"TOWNNAME":"北區","LI":"公園里","LIN":"21鄰","STREET":"公園路","SECT":" ","MAREA":" ","LANE":" ","ALLEY":" ","HOUSE_NO":"１３４號三樓之１３","E_COORD97":168781.78,"N_COORD97":2544406.4300000002,"ADDRESS":"公園路１３４號三樓之１３","OBJECTID":554079},"geometry":{"x":168781.78000000119,"y":2544406.4299999997}},{"attributes":{"ID":554107,"DIS_CODE":0,"TOWNNAME":"北區","LI":"公園里","LIN":"21鄰","STREET":"公園路","SECT":" ","MAREA":" ","LANE":" ","ALLEY":" ","HOUSE_NO":"１３４號三樓之２","E_COORD97":168781.78,"N_COORD97":2544406.4300000002,"ADDRESS":"公園路１３４號三樓之２","OBJECTID":554080},"geometry":{"x":168781.78000000119,"y":2544406.4299999997}},{"attributes":{"ID":554108,"DIS_CODE":0,"TOWNNAME":"永康區","LI":"西橋里","LIN":"19鄰","STREET":"大橋三街","SECT":" ","MAREA":" ","LANE":" ","ALLEY":" ","HOUSE_NO":"３７號之１３","E_COORD97":170537.67999999999,"N_COORD97":2546436.2999999998,"ADDRESS":"大橋三街３７號之１３","OBJECTID":554081},"geometry":{"x":170537.68000000156,"y":2546436.3000000007}},{"attributes":{"ID":554109,"DIS_CODE":0,"TOWNNAME":"永康區","LI":"西灣里","LIN":"12鄰","STREET":"大灣五街","SECT":" ","MAREA":" ","LANE":" ","ALLEY":" ","HOUSE_NO":"１７２號","E_COORD97":174482.62,"N_COORD97":2545324.5600000001,"ADDRESS":"大灣五街１７２號","OBJECTID":554082},"geometry":{"x":174482.62000000011,"y":2545324.5600000024}},{"attributes":{"ID":554110,"DIS_CODE":0,"TOWNNAME":"永康區","LI":"西橋里","LIN":"10鄰","STREET":"中華西街","SECT":" ","MAREA":" ","LANE":" ","ALLEY":" ","HOUSE_NO":"１１７號","E_COORD97":170677.37,"N_COORD97":2546167.8399999999,"ADDRESS":"中華西街１１７號","OBJECTID":554083},"geometry":{"x":170677.37000000197,"y":2546167.8400000036}},{"attributes":{"ID":554111,"DIS_CODE":0,"TOWNNAME":"仁德區","LI":"後壁里","LIN":"21鄰","STREET":"中正路","SECT":"二段","MAREA":" ","LANE":" ","ALLEY":" ","HOUSE_NO":"３３號","E_COORD97":173089.51000000001,"N_COORD97":2538316.02,"ADDRESS":"中正路二段３３號","OBJECTID":554084},"geometry":{"x":173089.50999999978,"y":2538316.0199999996}},{"attributes":{"ID":554112,"DIS_CODE":0,"TOWNNAME":"北區","LI":"公園里","LIN":"21鄰","STREET":"公園路","SECT":" ","MAREA":" ","LANE":" ","ALLEY":" ","HOUSE_NO":"１３４號三樓之３","E_COORD97":168781.78,"N_COORD97":2544406.4300000002,"ADDRESS":"公園路１３４號三樓之３","OBJECTID":554085},"geometry":{"x":168781.78000000119,"y":2544406.4299999997}},{"attributes":{"ID":554113,"DIS_CODE":0,"TOWNNAME":"北區","LI":"公園里","LIN":"21鄰","STREET":"公園路","SECT":" ","MAREA":" ","LANE":" ","ALLEY":" ","HOUSE_NO":"１３４號三樓之４","E_COORD97":168781.78,"N_COORD97":2544406.4300000002,"ADDRESS":"公園路１３４號三樓之４","OBJECTID":554086},"geometry":{"x":168781.78000000119,"y":2544406.4299999997}},{"attributes":{"ID":554114,"DIS_CODE":0,"TOWNNAME":"北區","LI":"公園里","LIN":"21鄰","STREET":"公園路","SECT":" ","MAREA":" ","LANE":" ","ALLEY":" ","HOUSE_NO":"１３４號三樓之５","E_COORD97":168781.78,"N_COORD97":2544406.4300000002,"ADDRESS":"公園路１３４號三樓之５","OBJECTID":554087},"geometry":{"x":168781.78000000119,"y":2544406.4299999997}},{"attributes":{"ID":554115,"DIS_CODE":0,"TOWNNAME":"北區","LI":"公園里","LIN":"21鄰","STREET":"公園路","SECT":" ","MAREA":" ","LANE":" ","ALLEY":" ","HOUSE_NO":"１３４號三樓之６","E_COORD97":168781.78,"N_COORD97":2544406.4300000002,"ADDRESS":"公園路１３４號三樓之６","OBJECTID":554088},"geometry":{"x":168781.78000000119,"y":2544406.4299999997}},{"attributes":{"ID":554116,"DIS_CODE":0,"TOWNNAME":"北區","LI":"公園里","LIN":"21鄰","STREET":"公園路","SECT":" ","MAREA":" ","LANE":" ","ALLEY":" ","HOUSE_NO":"１３４號三樓之７","E_COORD97":168781.78,"N_COORD97":2544406.4300000002,"ADDRESS":"公園路１３４號三樓之７","OBJECTID":554089},"geometry":{"x":168781.78000000119,"y":2544406.4299999997}},{"attributes":{"ID":554117,"DIS_CODE":0,"TOWNNAME":"北區","LI":"公園里","LIN":"21鄰","STREET":"公園路","SECT":" ","MAREA":" ","LANE":" ","ALLEY":" ","HOUSE_NO":"１３４號三樓之８","E_COORD97":168781.78,"N_COORD97":2544406.4300000002,"ADDRESS":"公園路１３４號三樓之８","OBJECTID":554090},"geometry":{"x":168781.78000000119,"y":2544406.4299999997}},{"attributes":{"ID":554118,"DIS_CODE":0,"TOWNNAME":"北區","LI":"公園里","LIN":"21鄰","STREET":"公園路","SECT":" ","MAREA":" ","LANE":" ","ALLEY":" ","HOUSE_NO":"１３４號三樓之９","E_COORD97":168781.78,"N_COORD97":2544406.4300000002,"ADDRESS":"公園路１３４號三樓之９","OBJECTID":554091},"geometry":{"x":168781.78000000119,"y":2544406.4299999997}},{"attributes":{"ID":554119,"DIS_CODE":0,"TOWNNAME":"北區","LI":"公園里","LIN":"21鄰","STREET":"公園路","SECT":" ","MAREA":" ","LANE":" ","ALLEY":" ","HOUSE_NO":"１３４號五樓之１","E_COORD97":168781.78,"N_COORD97":2544406.4300000002,"ADDRESS":"公園路１３４號五樓之１","OBJECTID":554092},"geometry":{"x":168781.78000000119,"y":2544406.4299999997}},{"attributes":{"ID":554120,"DIS_CODE":0,"TOWNNAME":"北區","LI":"公園里","LIN":"21鄰","STREET":"公園路","SECT":" ","MAREA":" ","LANE":" ","ALLEY":" ","HOUSE_NO":"１３４號五樓之１０","E_COORD97":168781.78,"N_COORD97":2544406.4300000002,"ADDRESS":"公園路１３４號五樓之１０","OBJECTID":554093},"geometry":{"x":168781.78000000119,"y":2544406.4299999997}},{"attributes":{"ID":554121,"DIS_CODE":0,"TOWNNAME":"北區","LI":"公園里","LIN":"21鄰","STREET":"公園路","SECT":" ","MAREA":" ","LANE":" ","ALLEY":" ","HOUSE_NO":"１３４號五樓之１１","E_COORD97":168781.78,"N_COORD97":2544406.4300000002,"ADDRESS":"公園路１３４號五樓之１１","OBJECTID":554094},"geometry":{"x":168781.78000000119,"y":2544406.4299999997}},{"attributes":{"ID":554122,"DIS_CODE":0,"TOWNNAME":"北區","LI":"公園里","LIN":"21鄰","STREET":"公園路","SECT":" ","MAREA":" ","LANE":" ","ALLEY":" ","HOUSE_NO":"１３４號五樓之１２","E_COORD97":168781.78,"N_COORD97":2544406.4300000002,"ADDRESS":"公園路１３４號五樓之１２","OBJECTID":554095},"geometry":{"x":168781.78000000119,"y":2544406.4299999997}},{"attributes":{"ID":554123,"DIS_CODE":0,"TOWNNAME":"北區","LI":"公園里","LIN":"21鄰","STREET":"公園路","SECT":" ","MAREA":" ","LANE":" ","ALLEY":" ","HOUSE_NO":"１３４號五樓之１５","E_COORD97":168781.78,"N_COORD97":2544406.4300000002,"ADDRESS":"公園路１３４號五樓之１５","OBJECTID":554096},"geometry":{"x":168781.78000000119,"y":2544406.4299999997}},{"attributes":{"ID":554124,"DIS_CODE":0,"TOWNNAME":"北區","LI":"公園里","LIN":"21鄰","STREET":"公園路","SECT":" ","MAREA":" ","LANE":" ","ALLEY":" ","HOUSE_NO":"１３４號五樓之１６","E_COORD97":168781.78,"N_COORD97":2544406.4300000002,"ADDRESS":"公園路１３４號五樓之１６","OBJECTID":554097},"geometry":{"x":168781.78000000119,"y":2544406.4299999997}},{"attributes":{"ID":554125,"DIS_CODE":0,"TOWNNAME":"北區","LI":"公園里","LIN":"21鄰","STREET":"公園路","SECT":" ","MAREA":" ","LANE":" ","ALLEY":" ","HOUSE_NO":"１３４號五樓之１７","E_COORD97":168781.78,"N_COORD97":2544406.4300000002,"ADDRESS":"公園路１３４號五樓之１７","OBJECTID":554098},"geometry":{"x":168781.78000000119,"y":2544406.4299999997}},{"attributes":{"ID":554126,"DIS_CODE":0,"TOWNNAME":"北區","LI":"公園里","LIN":"21鄰","STREET":"公園路","SECT":" ","MAREA":" ","LANE":" ","ALLEY":" ","HOUSE_NO":"１３４號五樓之１８","E_COORD97":168781.78,"N_COORD97":2544406.4300000002,"ADDRESS":"公園路１３４號五樓之１８","OBJECTID":554099},"geometry":{"x":168781.78000000119,"y":2544406.4299999997}},{"attributes":{"ID":554127,"DIS_CODE":0,"TOWNNAME":"北區","LI":"公園里","LIN":"21鄰","STREET":"公園路","SECT":" ","MAREA":" ","LANE":" ","ALLEY":" ","HOUSE_NO":"１３４號五樓之１９","E_COORD97":168781.78,"N_COORD97":2544406.4300000002,"ADDRESS":"公園路１３４號五樓之１９","OBJECTID":554100},"geometry":{"x":168781.78000000119,"y":2544406.4299999997}},{"attributes":{"ID":554128,"DIS_CODE":0,"TOWNNAME":"北區","LI":"公園里","LIN":"21鄰","STREET":"公園路","SECT":" ","MAREA":" ","LANE":" ","ALLEY":" ","HOUSE_NO":"１３４號五樓之２","E_COORD97":168781.78,"N_COORD97":2544406.4300000002,"ADDRESS":"公園路１３４號五樓之２","OBJECTID":554101},"geometry":{"x":168781.78000000119,"y":2544406.4299999997}},{"attributes":{"ID":554129,"DIS_CODE":0,"TOWNNAME":"永康區","LI":"西勢里","LIN":"21鄰","STREET":"富強路","SECT":"一段","MAREA":" ","LANE":" ","ALLEY":" ","HOUSE_NO":"２８號","E_COORD97":175414.42000000001,"N_COORD97":2546034.8700000001,"ADDRESS":"富強路一段２８號","OBJECTID":554102},"geometry":{"x":175414.41999999993,"y":2546034.8700000029}},{"attributes":{"ID":554130,"DIS_CODE":0,"TOWNNAME":"北區","LI":"公園里","LIN":"21鄰","STREET":"公園路","SECT":" ","MAREA":" ","LANE":" ","ALLEY":" ","HOUSE_NO":"１３４號五樓之２０","E_COORD97":168781.78,"N_COORD97":2544406.4300000002,"ADDRESS":"公園路１３４號五樓之２０","OBJECTID":554103},"geometry":{"x":168781.78000000119,"y":2544406.4299999997}},{"attributes":{"ID":554131,"DIS_CODE":0,"TOWNNAME":"北區","LI":"公園里","LIN":"21鄰","STREET":"公園路","SECT":" ","MAREA":" ","LANE":" ","ALLEY":" ","HOUSE_NO":"１３４號五樓之３","E_COORD97":168781.78,"N_COORD97":2544406.4300000002,"ADDRESS":"公園路１３４號五樓之３","OBJECTID":554104},"geometry":{"x":168781.78000000119,"y":2544406.4299999997}},{"attributes":{"ID":554132,"DIS_CODE":0,"TOWNNAME":"安平區","LI":"建平里","LIN":"21鄰","STREET":"怡平路","SECT":" ","MAREA":" ","LANE":" ","ALLEY":" ","HOUSE_NO":"５５號二樓","E_COORD97":166075.31,"N_COORD97":2543715.0600000001,"ADDRESS":"怡平路５５號二樓","OBJECTID":554105},"geometry":{"x":166075.31000000052,"y":2543715.0600000005}},{"attributes":{"ID":554133,"DIS_CODE":0,"TOWNNAME":"北區","LI":"公園里","LIN":"21鄰","STREET":"公園路","SECT":" ","MAREA":" ","LANE":" ","ALLEY":" ","HOUSE_NO":"１３４號五樓之４","E_COORD97":168781.78,"N_COORD97":2544406.4300000002,"ADDRESS":"公園路１３４號五樓之４","OBJECTID":554106},"geometry":{"x":168781.78000000119,"y":2544406.4299999997}},{"attributes":{"ID":554134,"DIS_CODE":0,"TOWNNAME":"北區","LI":"公園里","LIN":"21鄰","STREET":"公園路","SECT":" ","MAREA":" ","LANE":" ","ALLEY":" ","HOUSE_NO":"１３４號五樓之５","E_COORD97":168781.78,"N_COORD97":2544406.4300000002,"ADDRESS":"公園路１３４號五樓之５","OBJECTID":554107},"geometry":{"x":168781.78000000119,"y":2544406.4299999997}},{"attributes":{"ID":554135,"DIS_CODE":0,"TOWNNAME":"北區","LI":"公園里","LIN":"21鄰","STREET":"公園路","SECT":" ","MAREA":" ","LANE":" ","ALLEY":" ","HOUSE_NO":"１３４號五樓之６","E_COORD97":168781.78,"N_COORD97":2544406.4300000002,"ADDRESS":"公園路１３４號五樓之６","OBJECTID":554108},"geometry":{"x":168781.78000000119,"y":2544406.4299999997}},{"attributes":{"ID":554136,"DIS_CODE":0,"TOWNNAME":"北區","LI":"公園里","LIN":"21鄰","STREET":"公園路","SECT":" ","MAREA":" ","LANE":" ","ALLEY":" ","HOUSE_NO":"１３４號五樓之７","E_COORD97":168781.78,"N_COORD97":2544406.4300000002,"ADDRESS":"公園路１３４號五樓之７","OBJECTID":554109},"geometry":{"x":168781.78000000119,"y":2544406.4299999997}},{"attributes":{"ID":554137,"DIS_CODE":0,"TOWNNAME":"北區","LI":"公園里","LIN":"21鄰","STREET":"公園路","SECT":" ","MAREA":" ","LANE":" ","ALLEY":" ","HOUSE_NO":"１３４號五樓之８","E_COORD97":168781.78,"N_COORD97":2544406.4300000002,"ADDRESS":"公園路１３４號五樓之８","OBJECTID":554110},"geometry":{"x":168781.78000000119,"y":2544406.4299999997}},{"attributes":{"ID":554138,"DIS_CODE":0,"TOWNNAME":"北區","LI":"公園里","LIN":"21鄰","STREET":"公園路","SECT":" ","MAREA":" ","LANE":" ","ALLEY":" ","HOUSE_NO":"１３４號五樓之９","E_COORD97":168781.78,"N_COORD97":2544406.4300000002,"ADDRESS":"公園路１３４號五樓之９","OBJECTID":554111},"geometry":{"x":168781.78000000119,"y":2544406.4299999997}},{"attributes":{"ID":554139,"DIS_CODE":0,"TOWNNAME":"北區","LI":"公園里","LIN":"21鄰","STREET":"公園路","SECT":" ","MAREA":" ","LANE":" ","ALLEY":" ","HOUSE_NO":"１３４號六樓之１","E_COORD97":168781.78,"N_COORD97":2544406.4300000002,"ADDRESS":"公園路１３４號六樓之１","OBJECTID":554112},"geometry":{"x":168781.78000000119,"y":2544406.4299999997}},{"attributes":{"ID":554140,"DIS_CODE":0,"TOWNNAME":"北區","LI":"公園里","LIN":"21鄰","STREET":"公園路","SECT":" ","MAREA":" ","LANE":" ","ALLEY":" ","HOUSE_NO":"１３４號六樓之１０","E_COORD97":168781.78,"N_COORD97":2544406.4300000002,"ADDRESS":"公園路１３４號六樓之１０","OBJECTID":554113},"geometry":{"x":168781.78000000119,"y":2544406.4299999997}},{"attributes":{"ID":554141,"DIS_CODE":0,"TOWNNAME":"北區","LI":"公園里","LIN":"21鄰","STREET":"公園路","SECT":" ","MAREA":" ","LANE":" ","ALLEY":" ","HOUSE_NO":"１３４號六樓之１１","E_COORD97":168781.78,"N_COORD97":2544406.4300000002,"ADDRESS":"公園路１３４號六樓之１１","OBJECTID":554114},"geometry":{"x":168781.78000000119,"y":2544406.4299999997}},{"attributes":{"ID":554142,"DIS_CODE":0,"TOWNNAME":"北區","LI":"公園里","LIN":"21鄰","STREET":"公園路","SECT":" ","MAREA":" ","LANE":" ","ALLEY":" ","HOUSE_NO":"１３４號六樓之１２","E_COORD97":168781.78,"N_COORD97":2544406.4300000002,"ADDRESS":"公園路１３４號六樓之１２","OBJECTID":554115},"geometry":{"x":168781.78000000119,"y":2544406.4299999997}},{"attributes":{"ID":554143,"DIS_CODE":0,"TOWNNAME":"北區","LI":"公園里","LIN":"21鄰","STREET":"公園路","SECT":" ","MAREA":" ","LANE":" ","ALLEY":" ","HOUSE_NO":"１３４號六樓之１３","E_COORD97":168781.78,"N_COORD97":2544406.4300000002,"ADDRESS":"公園路１３４號六樓之１３","OBJECTID":554116},"geometry":{"x":168781.78000000119,"y":2544406.4299999997}},{"attributes":{"ID":554144,"DIS_CODE":0,"TOWNNAME":"北區","LI":"公園里","LIN":"21鄰","STREET":"公園路","SECT":" ","MAREA":" ","LANE":" ","ALLEY":" ","HOUSE_NO":"１３４號六樓之１４","E_COORD97":168781.78,"N_COORD97":2544406.4300000002,"ADDRESS":"公園路１３４號六樓之１４","OBJECTID":554117},"geometry":{"x":168781.78000000119,"y":2544406.4299999997}},{"attributes":{"ID":554145,"DIS_CODE":0,"TOWNNAME":"北區","LI":"公園里","LIN":"21鄰","STREET":"公園路","SECT":" ","MAREA":" ","LANE":" ","ALLEY":" ","HOUSE_NO":"１３４號六樓之１５","E_COORD97":168781.78,"N_COORD97":2544406.4300000002,"ADDRESS":"公園路１３４號六樓之１５","OBJECTID":554118},"geometry":{"x":168781.78000000119,"y":2544406.4299999997}},{"attributes":{"ID":554146,"DIS_CODE":0,"TOWNNAME":"北區","LI":"公園里","LIN":"21鄰","STREET":"公園路","SECT":" ","MAREA":" ","LANE":" ","ALLEY":" ","HOUSE_NO":"１３４號六樓之１６","E_COORD97":168781.78,"N_COORD97":2544406.4300000002,"ADDRESS":"公園路１３４號六樓之１６","OBJECTID":554119},"geometry":{"x":168781.78000000119,"y":2544406.4299999997}},{"attributes":{"ID":554147,"DIS_CODE":0,"TOWNNAME":"北區","LI":"公園里","LIN":"21鄰","STREET":"公園路","SECT":" ","MAREA":" ","LANE":" ","ALLEY":" ","HOUSE_NO":"１３４號六樓之１７","E_COORD97":168781.78,"N_COORD97":2544406.4300000002,"ADDRESS":"公園路１３４號六樓之１７","OBJECTID":554120},"geometry":{"x":168781.78000000119,"y":2544406.4299999997}},{"attributes":{"ID":554148,"DIS_CODE":0,"TOWNNAME":"北區","LI":"公園里","LIN":"21鄰","STREET":"公園路","SECT":" ","MAREA":" ","LANE":" ","ALLEY":" ","HOUSE_NO":"１３４號六樓之１８","E_COORD97":168781.78,"N_COORD97":2544406.4300000002,"ADDRESS":"公園路１３４號六樓之１８","OBJECTID":554121},"geometry":{"x":168781.78000000119,"y":2544406.4299999997}},{"attributes":{"ID":554149,"DIS_CODE":0,"TOWNNAME":"北區","LI":"公園里","LIN":"21鄰","STREET":"公園路","SECT":" ","MAREA":" ","LANE":" ","ALLEY":" ","HOUSE_NO":"１３４號六樓之１９","E_COORD97":168781.78,"N_COORD97":2544406.4300000002,"ADDRESS":"公園路１３４號六樓之１９","OBJECTID":554122},"geometry":{"x":168781.78000000119,"y":2544406.4299999997}},{"attributes":{"ID":554150,"DIS_CODE":0,"TOWNNAME":"北區","LI":"公園里","LIN":"21鄰","STREET":"公園路","SECT":" ","MAREA":" ","LANE":" ","ALLEY":" ","HOUSE_NO":"１３４號六樓之２","E_COORD97":168781.78,"N_COORD97":2544406.4300000002,"ADDRESS":"公園路１３４號六樓之２","OBJECTID":554123},"geometry":{"x":168781.78000000119,"y":2544406.4299999997}},{"attributes":{"ID":554151,"DIS_CODE":0,"TOWNNAME":"北區","LI":"公園里","LIN":"21鄰","STREET":"公園路","SECT":" ","MAREA":" ","LANE":" ","ALLEY":" ","HOUSE_NO":"１３４號六樓之２０","E_COORD97":168781.78,"N_COORD97":2544406.4300000002,"ADDRESS":"公園路１３４號六樓之２０","OBJECTID":554124},"geometry":{"x":168781.78000000119,"y":2544406.4299999997}},{"attributes":{"ID":554152,"DIS_CODE":0,"TOWNNAME":"永康區","LI":"西勢里","LIN":"23鄰","STREET":"富強路","SECT":"一段","MAREA":" ","LANE":" ","ALLEY":" ","HOUSE_NO":"１０６號之１","E_COORD97":175515.37,"N_COORD97":2546187.2799999998,"ADDRESS":"富強路一段１０６號之１","OBJECTID":554125},"geometry":{"x":175515.36999999918,"y":2546187.2799999993}},{"attributes":{"ID":554153,"DIS_CODE":0,"TOWNNAME":"永康區","LI":"甲頂里","LIN":"26鄰","STREET":"中央路","SECT":" ","MAREA":" ","LANE":" ","ALLEY":" ","HOUSE_NO":"３號","E_COORD97":169641.79000000001,"N_COORD97":2546964.3199999998,"ADDRESS":"中央路３號","OBJECTID":554126},"geometry":{"x":169641.79000000004,"y":2546964.3200000003}},{"attributes":{"ID":554154,"DIS_CODE":0,"TOWNNAME":"永康區","LI":"西橋里","LIN":"1鄰","STREET":"中山南路","SECT":" ","MAREA":" ","LANE":" ","ALLEY":" ","HOUSE_NO":"３３號","E_COORD97":170739.29000000001,"N_COORD97":2545808.75,"ADDRESS":"中山南路３３號","OBJECTID":554127},"geometry":{"x":170739.29000000097,"y":2545808.75}},{"attributes":{"ID":554155,"DIS_CODE":0,"TOWNNAME":"永康區","LI":"西橋里","LIN":"10鄰","STREET":"中華西街","SECT":" ","MAREA":" ","LANE":" ","ALLEY":" ","HOUSE_NO":"１１９號","E_COORD97":170674.87,"N_COORD97":2546172.5899999999,"ADDRESS":"中華西街１１９號","OBJECTID":554128},"geometry":{"x":170674.87000000011,"y":2546172.5899999999}},{"attributes":{"ID":554156,"DIS_CODE":0,"TOWNNAME":"北區","LI":"公園里","LIN":"21鄰","STREET":"公園路","SECT":" ","MAREA":" ","LANE":" ","ALLEY":" ","HOUSE_NO":"１３４號六樓之４","E_COORD97":168781.78,"N_COORD97":2544406.4300000002,"ADDRESS":"公園路１３４號六樓之４","OBJECTID":554129},"geometry":{"x":168781.78000000119,"y":2544406.4299999997}},{"attributes":{"ID":554157,"DIS_CODE":0,"TOWNNAME":"北區","LI":"公園里","LIN":"21鄰","STREET":"公園路","SECT":" ","MAREA":" ","LANE":" ","ALLEY":" ","HOUSE_NO":"１３４號六樓之５","E_COORD97":168781.78,"N_COORD97":2544406.4300000002,"ADDRESS":"公園路１３４號六樓之５","OBJECTID":554130},"geometry":{"x":168781.78000000119,"y":2544406.4299999997}},{"attributes":{"ID":554158,"DIS_CODE":0,"TOWNNAME":"北區","LI":"公園里","LIN":"21鄰","STREET":"公園路","SECT":" ","MAREA":" ","LANE":" ","ALLEY":" ","HOUSE_NO":"１３４號六樓之６","E_COORD97":168781.78,"N_COORD97":2544406.4300000002,"ADDRESS":"公園路１３４號六樓之６","OBJECTID":554131},"geometry":{"x":168781.78000000119,"y":2544406.4299999997}},{"attributes":{"ID":554159,"DIS_CODE":0,"TOWNNAME":"北區","LI":"公園里","LIN":"21鄰","STREET":"公園路","SECT":" ","MAREA":" ","LANE":" ","ALLEY":" ","HOUSE_NO":"１３４號六樓之７","E_COORD97":168781.78,"N_COORD97":2544406.4300000002,"ADDRESS":"公園路１３４號六樓之７","OBJECTID":554132},"geometry":{"x":168781.78000000119,"y":2544406.4299999997}},{"attributes":{"ID":554160,"DIS_CODE":0,"TOWNNAME":"北區","LI":"公園里","LIN":"21鄰","STREET":"公園路","SECT":" ","MAREA":" ","LANE":" ","ALLEY":" ","HOUSE_NO":"１３４號六樓之８","E_COORD97":168781.78,"N_COORD97":2544406.4300000002,"ADDRESS":"公園路１３４號六樓之８","OBJECTID":554133},"geometry":{"x":168781.78000000119,"y":2544406.4299999997}},{"attributes":{"ID":554161,"DIS_CODE":0,"TOWNNAME":"北區","LI":"公園里","LIN":"21鄰","STREET":"公園路","SECT":" ","MAREA":" ","LANE":" ","ALLEY":" ","HOUSE_NO":"１３４號六樓之９","E_COORD97":168781.78,"N_COORD97":2544406.4300000002,"ADDRESS":"公園路１３４號六樓之９","OBJECTID":554134},"geometry":{"x":168781.78000000119,"y":2544406.4299999997}},{"attributes":{"ID":554162,"DIS_CODE":0,"TOWNNAME":"北區","LI":"公園里","LIN":"21鄰","STREET":"公園路","SECT":" ","MAREA":" ","LANE":" ","ALLEY":" ","HOUSE_NO":"１３４號四樓之１","E_COORD97":168781.78,"N_COORD97":2544406.4300000002,"ADDRESS":"公園路１３４號四樓之１","OBJECTID":554135},"geometry":{"x":168781.78000000119,"y":2544406.4299999997}},{"attributes":{"ID":554163,"DIS_CODE":0,"TOWNNAME":"北區","LI":"公園里","LIN":"21鄰","STREET":"公園路","SECT":" ","MAREA":" ","LANE":" ","ALLEY":" ","HOUSE_NO":"１３４號四樓之１０","E_COORD97":168781.78,"N_COORD97":2544406.4300000002,"ADDRESS":"公園路１３４號四樓之１０","OBJECTID":554136},"geometry":{"x":168781.78000000119,"y":2544406.4299999997}},{"attributes":{"ID":554164,"DIS_CODE":0,"TOWNNAME":"北區","LI":"公園里","LIN":"21鄰","STREET":"公園路","SECT":" ","MAREA":" ","LANE":" ","ALLEY":" ","HOUSE_NO":"１３４號四樓之１１","E_COORD97":168781.78,"N_COORD97":2544406.4300000002,"ADDRESS":"公園路１３４號四樓之１１","OBJECTID":554137},"geometry":{"x":168781.78000000119,"y":2544406.4299999997}},{"attributes":{"ID":554165,"DIS_CODE":0,"TOWNNAME":"北區","LI":"公園里","LIN":"21鄰","STREET":"公園路","SECT":" ","MAREA":" ","LANE":" ","ALLEY":" ","HOUSE_NO":"１３４號四樓之１２","E_COORD97":168781.78,"N_COORD97":2544406.4300000002,"ADDRESS":"公園路１３４號四樓之１２","OBJECTID":554138},"geometry":{"x":168781.78000000119,"y":2544406.4299999997}},{"attributes":{"ID":554166,"DIS_CODE":0,"TOWNNAME":"北區","LI":"公園里","LIN":"21鄰","STREET":"公園路","SECT":" ","MAREA":" ","LANE":" ","ALLEY":" ","HOUSE_NO":"１３４號四樓之１３","E_COORD97":168781.78,"N_COORD97":2544406.4300000002,"ADDRESS":"公園路１３４號四樓之１３","OBJECTID":554139},"geometry":{"x":168781.78000000119,"y":2544406.4299999997}},{"attributes":{"ID":554167,"DIS_CODE":0,"TOWNNAME":"北區","LI":"公園里","LIN":"21鄰","STREET":"公園路","SECT":" ","MAREA":" ","LANE":" ","ALLEY":" ","HOUSE_NO":"１３４號四樓之１４","E_COORD97":168781.78,"N_COORD97":2544406.4300000002,"ADDRESS":"公園路１３４號四樓之１４","OBJECTID":554140},"geometry":{"x":168781.78000000119,"y":2544406.4299999997}},{"attributes":{"ID":554168,"DIS_CODE":0,"TOWNNAME":"北區","LI":"公園里","LIN":"21鄰","STREET":"公園路","SECT":" ","MAREA":" ","LANE":" ","ALLEY":" ","HOUSE_NO":"１３４號四樓之１５","E_COORD97":168781.78,"N_COORD97":2544406.4300000002,"ADDRESS":"公園路１３４號四樓之１５","OBJECTID":554141},"geometry":{"x":168781.78000000119,"y":2544406.4299999997}},{"attributes":{"ID":554169,"DIS_CODE":0,"TOWNNAME":"北區","LI":"公園里","LIN":"21鄰","STREET":"公園路","SECT":" ","MAREA":" ","LANE":" ","ALLEY":" ","HOUSE_NO":"１３４號四樓之１６","E_COORD97":168781.78,"N_COORD97":2544406.4300000002,"ADDRESS":"公園路１３４號四樓之１６","OBJECTID":554142},"geometry":{"x":168781.78000000119,"y":2544406.4299999997}},{"attributes":{"ID":554170,"DIS_CODE":0,"TOWNNAME":"北區","LI":"公園里","LIN":"21鄰","STREET":"公園路","SECT":" ","MAREA":" ","LANE":" ","ALLEY":" ","HOUSE_NO":"１３４號四樓之１７","E_COORD97":168781.78,"N_COORD97":2544406.4300000002,"ADDRESS":"公園路１３４號四樓之１７","OBJECTID":554143},"geometry":{"x":168781.78000000119,"y":2544406.4299999997}},{"attributes":{"ID":554171,"DIS_CODE":0,"TOWNNAME":"北區","LI":"公園里","LIN":"21鄰","STREET":"公園路","SECT":" ","MAREA":" ","LANE":" ","ALLEY":" ","HOUSE_NO":"１３４號四樓之１８","E_COORD97":168781.78,"N_COORD97":2544406.4300000002,"ADDRESS":"公園路１３４號四樓之１８","OBJECTID":554144},"geometry":{"x":168781.78000000119,"y":2544406.4299999997}},{"attributes":{"ID":554172,"DIS_CODE":0,"TOWNNAME":"北區","LI":"公園里","LIN":"21鄰","STREET":"公園路","SECT":" ","MAREA":" ","LANE":" ","ALLEY":" ","HOUSE_NO":"１３４號四樓之１９","E_COORD97":168781.78,"N_COORD97":2544406.4300000002,"ADDRESS":"公園路１３４號四樓之１９","OBJECTID":554145},"geometry":{"x":168781.78000000119,"y":2544406.4299999997}},{"attributes":{"ID":554173,"DIS_CODE":0,"TOWNNAME":"北區","LI":"公園里","LIN":"21鄰","STREET":"公園路","SECT":" ","MAREA":" ","LANE":" ","ALLEY":" ","HOUSE_NO":"１３４號四樓之２","E_COORD97":168781.78,"N_COORD97":2544406.4300000002,"ADDRESS":"公園路１３４號四樓之２","OBJECTID":554146},"geometry":{"x":168781.78000000119,"y":2544406.4299999997}},{"attributes":{"ID":554174,"DIS_CODE":0,"TOWNNAME":"北區","LI":"公園里","LIN":"21鄰","STREET":"公園路","SECT":" ","MAREA":" ","LANE":" ","ALLEY":" ","HOUSE_NO":"１３４號四樓之３","E_COORD97":168781.78,"N_COORD97":2544406.4300000002,"ADDRESS":"公園路１３４號四樓之３","OBJECTID":554147},"geometry":{"x":168781.78000000119,"y":2544406.4299999997}},{"attributes":{"ID":554175,"DIS_CODE":0,"TOWNNAME":"北區","LI":"公園里","LIN":"21鄰","STREET":"公園路","SECT":" ","MAREA":" ","LANE":" ","ALLEY":" ","HOUSE_NO":"１３４號四樓之４","E_COORD97":168781.78,"N_COORD97":2544406.4300000002,"ADDRESS":"公園路１３４號四樓之４","OBJECTID":554148},"geometry":{"x":168781.78000000119,"y":2544406.4299999997}},{"attributes":{"ID":554176,"DIS_CODE":0,"TOWNNAME":"北區","LI":"公園里","LIN":"21鄰","STREET":"公園路","SECT":" ","MAREA":" ","LANE":" ","ALLEY":" ","HOUSE_NO":"１３４號四樓之５","E_COORD97":168781.78,"N_COORD97":2544406.4300000002,"ADDRESS":"公園路１３４號四樓之５","OBJECTID":554149},"geometry":{"x":168781.78000000119,"y":2544406.4299999997}},{"attributes":{"ID":554177,"DIS_CODE":0,"TOWNNAME":"北區","LI":"公園里","LIN":"21鄰","STREET":"公園路","SECT":" ","MAREA":" ","LANE":" ","ALLEY":" ","HOUSE_NO":"１３４號四樓之６","E_COORD97":168781.78,"N_COORD97":2544406.4300000002,"ADDRESS":"公園路１３４號四樓之６","OBJECTID":554150},"geometry":{"x":168781.78000000119,"y":2544406.4299999997}},{"attributes":{"ID":554178,"DIS_CODE":0,"TOWNNAME":"北區","LI":"公園里","LIN":"21鄰","STREET":"公園路","SECT":" ","MAREA":" ","LANE":" ","ALLEY":" ","HOUSE_NO":"１３４號四樓之７","E_COORD97":168781.78,"N_COORD97":2544406.4300000002,"ADDRESS":"公園路１３４號四樓之７","OBJECTID":554151},"geometry":{"x":168781.78000000119,"y":2544406.4299999997}},{"attributes":{"ID":554179,"DIS_CODE":0,"TOWNNAME":"北區","LI":"公園里","LIN":"21鄰","STREET":"公園路","SECT":" ","MAREA":" ","LANE":" ","ALLEY":" ","HOUSE_NO":"１３４號四樓之８","E_COORD97":168781.78,"N_COORD97":2544406.4300000002,"ADDRESS":"公園路１３４號四樓之８","OBJECTID":554152},"geometry":{"x":168781.78000000119,"y":2544406.4299999997}},{"attributes":{"ID":554180,"DIS_CODE":0,"TOWNNAME":"北區","LI":"公園里","LIN":"21鄰","STREET":"公園路","SECT":" ","MAREA":" ","LANE":" ","ALLEY":" ","HOUSE_NO":"１３４號四樓之９","E_COORD97":168781.78,"N_COORD97":2544406.4300000002,"ADDRESS":"公園路１３４號四樓之９","OBJECTID":554153},"geometry":{"x":168781.78000000119,"y":2544406.4299999997}},{"attributes":{"ID":554181,"DIS_CODE":0,"TOWNNAME":"安平區","LI":"建平里","LIN":"21鄰","STREET":"平通路","SECT":" ","MAREA":" ","LANE":" ","ALLEY":" ","HOUSE_NO":"１２８號三樓之３","E_COORD97":165922.42000000001,"N_COORD97":2543732.46,"ADDRESS":"平通路１２８號三樓之３","OBJECTID":554154},"geometry":{"x":165922.42000000086,"y":2543732.4600000009}},{"attributes":{"ID":554182,"DIS_CODE":0,"TOWNNAME":"安平區","LI":"建平里","LIN":"21鄰","STREET":"平通路","SECT":" ","MAREA":" ","LANE":" ","ALLEY":" ","HOUSE_NO":"１２８號三樓之４","E_COORD97":165922.42000000001,"N_COORD97":2543732.46,"ADDRESS":"平通路１２８號三樓之４","OBJECTID":554155},"geometry":{"x":165922.42000000086,"y":2543732.4600000009}},{"attributes":{"ID":554183,"DIS_CODE":0,"TOWNNAME":"安平區","LI":"建平里","LIN":"21鄰","STREET":"平通路","SECT":" ","MAREA":" ","LANE":" ","ALLEY":" ","HOUSE_NO":"１２８號四樓之１","E_COORD97":165922.42000000001,"N_COORD97":2543732.46,"ADDRESS":"平通路１２８號四樓之１","OBJECTID":554156},"geometry":{"x":165922.42000000086,"y":2543732.4600000009}},{"attributes":{"ID":554184,"DIS_CODE":0,"TOWNNAME":"安平區","LI":"建平里","LIN":"21鄰","STREET":"平通路","SECT":" ","MAREA":" ","LANE":" ","ALLEY":" ","HOUSE_NO":"１２８號四樓之３","E_COORD97":165922.42000000001,"N_COORD97":2543732.46,"ADDRESS":"平通路１２８號四樓之３","OBJECTID":554157},"geometry":{"x":165922.42000000086,"y":2543732.4600000009}},{"attributes":{"ID":554185,"DIS_CODE":0,"TOWNNAME":"安平區","LI":"建平里","LIN":"21鄰","STREET":"平通路","SECT":" ","MAREA":" ","LANE":" ","ALLEY":" ","HOUSE_NO":"１２８號四樓之５","E_COORD97":165922.42000000001,"N_COORD97":2543732.46,"ADDRESS":"平通路１２８號四樓之５","OBJECTID":554158},"geometry":{"x":165922.42000000086,"y":2543732.4600000009}},{"attributes":{"ID":554186,"DIS_CODE":0,"TOWNNAME":"安平區","LI":"建平里","LIN":"21鄰","STREET":"平通路","SECT":" ","MAREA":" ","LANE":" ","ALLEY":" ","HOUSE_NO":"１２８號四樓之６","E_COORD97":165922.42000000001,"N_COORD97":2543732.46,"ADDRESS":"平通路１２８號四樓之６","OBJECTID":554159},"geometry":{"x":165922.42000000086,"y":2543732.4600000009}},{"attributes":{"ID":554187,"DIS_CODE":0,"TOWNNAME":"安平區","LI":"建平里","LIN":"21鄰","STREET":"平通路","SECT":" ","MAREA":" ","LANE":" ","ALLEY":" ","HOUSE_NO":"１２８號四樓之７","E_COORD97":165922.42000000001,"N_COORD97":2543732.46,"ADDRESS":"平通路１２８號四樓之７","OBJECTID":554160},"geometry":{"x":165922.42000000086,"y":2543732.4600000009}},{"attributes":{"ID":554188,"DIS_CODE":0,"TOWNNAME":"安平區","LI":"建平里","LIN":"21鄰","STREET":"平通路","SECT":" ","MAREA":" ","LANE":" ","ALLEY":" ","HOUSE_NO":"１２８號五樓之１","E_COORD97":165922.42000000001,"N_COORD97":2543732.46,"ADDRESS":"平通路１２８號五樓之１","OBJECTID":554161},"geometry":{"x":165922.42000000086,"y":2543732.4600000009}},{"attributes":{"ID":554189,"DIS_CODE":0,"TOWNNAME":"安平區","LI":"建平里","LIN":"21鄰","STREET":"平通路","SECT":" ","MAREA":" ","LANE":" ","ALLEY":" ","HOUSE_NO":"１２８號五樓之２","E_COORD97":165922.42000000001,"N_COORD97":2543732.46,"ADDRESS":"平通路１２８號五樓之２","OBJECTID":554162},"geometry":{"x":165922.42000000086,"y":2543732.4600000009}},{"attributes":{"ID":554190,"DIS_CODE":0,"TOWNNAME":"安平區","LI":"建平里","LIN":"21鄰","STREET":"平通路","SECT":" ","MAREA":" ","LANE":" ","ALLEY":" ","HOUSE_NO":"１２８號五樓之３","E_COORD97":165922.42000000001,"N_COORD97":2543732.46,"ADDRESS":"平通路１２８號五樓之３","OBJECTID":554163},"geometry":{"x":165922.42000000086,"y":2543732.4600000009}},{"attributes":{"ID":554191,"DIS_CODE":0,"TOWNNAME":"安平區","LI":"建平里","LIN":"21鄰","STREET":"平通路","SECT":" ","MAREA":" ","LANE":" ","ALLEY":" ","HOUSE_NO":"１２８號六樓之１","E_COORD97":165922.42000000001,"N_COORD97":2543732.46,"ADDRESS":"平通路１２８號六樓之１","OBJECTID":554164},"geometry":{"x":165922.42000000086,"y":2543732.4600000009}},{"attributes":{"ID":554192,"DIS_CODE":0,"TOWNNAME":"安平區","LI":"建平里","LIN":"21鄰","STREET":"平通路","SECT":" ","MAREA":" ","LANE":" ","ALLEY":" ","HOUSE_NO":"１２８號六樓之２","E_COORD97":165922.42000000001,"N_COORD97":2543732.46,"ADDRESS":"平通路１２８號六樓之２","OBJECTID":554165},"geometry":{"x":165922.42000000086,"y":2543732.4600000009}},{"attributes":{"ID":554193,"DIS_CODE":0,"TOWNNAME":"安平區","LI":"建平里","LIN":"21鄰","STREET":"平通路","SECT":" ","MAREA":" ","LANE":" ","ALLEY":" ","HOUSE_NO":"１２８號六樓之３","E_COORD97":165922.42000000001,"N_COORD97":2543732.46,"ADDRESS":"平通路１２８號六樓之３","OBJECTID":554166},"geometry":{"x":165922.42000000086,"y":2543732.4600000009}},{"attributes":{"ID":554194,"DIS_CODE":0,"TOWNNAME":"安平區","LI":"建平里","LIN":"21鄰","STREET":"平通路","SECT":" ","MAREA":" ","LANE":" ","ALLEY":" ","HOUSE_NO":"１２８號六樓之５","E_COORD97":165922.42000000001,"N_COORD97":2543732.46,"ADDRESS":"平通路１２８號六樓之５","OBJECTID":554167},"geometry":{"x":165922.42000000086,"y":2543732.4600000009}},{"attributes":{"ID":554195,"DIS_CODE":0,"TOWNNAME":"安平區","LI":"建平里","LIN":"21鄰","STREET":"平通路","SECT":" ","MAREA":" ","LANE":" ","ALLEY":" ","HOUSE_NO":"１２８號六樓之６","E_COORD97":165922.42000000001,"N_COORD97":2543732.46,"ADDRESS":"平通路１２８號六樓之６","OBJECTID":554168},"geometry":{"x":165922.42000000086,"y":2543732.4600000009}},{"attributes":{"ID":554196,"DIS_CODE":0,"TOWNNAME":"安平區","LI":"建平里","LIN":"21鄰","STREET":"平通路","SECT":" ","MAREA":" ","LANE":" ","ALLEY":" ","HOUSE_NO":"１２８號七樓之１","E_COORD97":165922.42000000001,"N_COORD97":2543732.46,"ADDRESS":"平通路１２８號七樓之１","OBJECTID":554169},"geometry":{"x":165922.42000000086,"y":2543732.4600000009}},{"attributes":{"ID":554197,"DIS_CODE":0,"TOWNNAME":"安平區","LI":"建平里","LIN":"21鄰","STREET":"平通路","SECT":" ","MAREA":" ","LANE":" ","ALLEY":" ","HOUSE_NO":"１２８號七樓之２","E_COORD97":165922.42000000001,"N_COORD97":2543732.46,"ADDRESS":"平通路１２８號七樓之２","OBJECTID":554170},"geometry":{"x":165922.42000000086,"y":2543732.4600000009}},{"attributes":{"ID":554198,"DIS_CODE":0,"TOWNNAME":"安平區","LI":"建平里","LIN":"21鄰","STREET":"平通路","SECT":" ","MAREA":" ","LANE":" ","ALLEY":" ","HOUSE_NO":"１２８號七樓之３","E_COORD97":165922.42000000001,"N_COORD97":2543732.46,"ADDRESS":"平通路１２８號七樓之３","OBJECTID":554171},"geometry":{"x":165922.42000000086,"y":2543732.4600000009}},{"attributes":{"ID":554199,"DIS_CODE":0,"TOWNNAME":"安平區","LI":"建平里","LIN":"21鄰","STREET":"平通路","SECT":" ","MAREA":" ","LANE":" ","ALLEY":" ","HOUSE_NO":"１２８號七樓之４","E_COORD97":165922.42000000001,"N_COORD97":2543732.46,"ADDRESS":"平通路１２８號七樓之４","OBJECTID":554172},"geometry":{"x":165922.42000000086,"y":2543732.4600000009}},{"attributes":{"ID":554200,"DIS_CODE":0,"TOWNNAME":"永康區","LI":"西勢里","LIN":"12鄰","STREET":"廣盛街","SECT":" ","MAREA":" ","LANE":" ","ALLEY":" ","HOUSE_NO":"１６６號","E_COORD97":176087.64999999999,"N_COORD97":2546688.6499999999,"ADDRESS":"廣盛街１６６號","OBJECTID":554173},"geometry":{"x":176087.6500000013,"y":2546688.6500000041}},{"attributes":{"ID":554201,"DIS_CODE":0,"TOWNNAME":"新營區","LI":"興業里","LIN":"21鄰","STREET":"中山路","SECT":" ","MAREA":" ","LANE":" ","ALLEY":" ","HOUSE_NO":"１１７號四樓之５","E_COORD97":180246.54999999999,"N_COORD97":2578201.7400000002,"ADDRESS":"中山路１１７號四樓之５","OBJECTID":554174},"geometry":{"x":180246.54999999981,"y":2578201.7400000021}},{"attributes":{"ID":554202,"DIS_CODE":0,"TOWNNAME":"新營區","LI":"興業里","LIN":"21鄰","STREET":"中山路","SECT":" ","MAREA":" ","LANE":" ","ALLEY":" ","HOUSE_NO":"１１７號三樓之１","E_COORD97":180246.39999999999,"N_COORD97":2578201.7400000002,"ADDRESS":"中山路１１７號三樓之１","OBJECTID":554175},"geometry":{"x":180246.40000000037,"y":2578201.7400000021}},{"attributes":{"ID":554203,"DIS_CODE":0,"TOWNNAME":"新營區","LI":"興業里","LIN":"21鄰","STREET":"中山路","SECT":" ","MAREA":" ","LANE":" ","ALLEY":" ","HOUSE_NO":"１１７號十樓之５","E_COORD97":180246.54999999999,"N_COORD97":2578201.7400000002,"ADDRESS":"中山路１１７號十樓之５","OBJECTID":554176},"geometry":{"x":180246.54999999981,"y":2578201.7400000021}},{"attributes":{"ID":554204,"DIS_CODE":0,"TOWNNAME":"新營區","LI":"興業里","LIN":"21鄰","STREET":"中山路","SECT":" ","MAREA":" ","LANE":" ","ALLEY":" ","HOUSE_NO":"１１７號三樓之４","E_COORD97":180246.42000000001,"N_COORD97":2578201.7400000002,"ADDRESS":"中山路１１７號三樓之４","OBJECTID":554177},"geometry":{"x":180246.42000000086,"y":2578201.7400000021}},{"attributes":{"ID":554205,"DIS_CODE":0,"TOWNNAME":"新營區","LI":"興業里","LIN":"21鄰","STREET":"中山路","SECT":" ","MAREA":" ","LANE":" ","ALLEY":" ","HOUSE_NO":"１１７號十樓之８","E_COORD97":180246.54000000001,"N_COORD97":2578201.7400000002,"ADDRESS":"中山路１１７號十樓之８","OBJECTID":554178},"geometry":{"x":180246.54000000004,"y":2578201.7400000021}},{"attributes":{"ID":554206,"DIS_CODE":0,"TOWNNAME":"新營區","LI":"興業里","LIN":"21鄰","STREET":"中山路","SECT":" ","MAREA":" ","LANE":" ","ALLEY":" ","HOUSE_NO":"１１７號五樓之２","E_COORD97":180246.53,"N_COORD97":2578201.7400000002,"ADDRESS":"中山路１１７號五樓之２","OBJECTID":554179},"geometry":{"x":180246.53000000119,"y":2578201.7400000021}},{"attributes":{"ID":554207,"DIS_CODE":0,"TOWNNAME":"新營區","LI":"興業里","LIN":"21鄰","STREET":"中山路","SECT":" ","MAREA":" ","LANE":" ","ALLEY":" ","HOUSE_NO":"１１７號四樓之８","E_COORD97":180246.54000000001,"N_COORD97":2578201.7400000002,"ADDRESS":"中山路１１７號四樓之８","OBJECTID":554180},"geometry":{"x":180246.54000000004,"y":2578201.7400000021}},{"attributes":{"ID":554208,"DIS_CODE":0,"TOWNNAME":"新營區","LI":"興業里","LIN":"21鄰","STREET":"中山路","SECT":" ","MAREA":" ","LANE":" ","ALLEY":" ","HOUSE_NO":"１１７號六樓之７","E_COORD97":180246.47,"N_COORD97":2578201.7400000002,"ADDRESS":"中山路１１７號六樓之７","OBJECTID":554181},"geometry":{"x":180246.47000000067,"y":2578201.7400000021}},{"attributes":{"ID":554209,"DIS_CODE":0,"TOWNNAME":"新營區","LI":"興業里","LIN":"21鄰","STREET":"中山路","SECT":" ","MAREA":" ","LANE":" ","ALLEY":" ","HOUSE_NO":"１１７號三樓之６","E_COORD97":180246.5,"N_COORD97":2578201.7400000002,"ADDRESS":"中山路１１７號三樓之６","OBJECTID":554182},"geometry":{"x":180246.50000000093,"y":2578201.7400000021}},{"attributes":{"ID":554210,"DIS_CODE":0,"TOWNNAME":"新營區","LI":"興業里","LIN":"21鄰","STREET":"中山路","SECT":" ","MAREA":" ","LANE":" ","ALLEY":" ","HOUSE_NO":"１１７號五樓之３","E_COORD97":180246.48999999999,"N_COORD97":2578201.7400000002,"ADDRESS":"中山路１１７號五樓之３","OBJECTID":554183},"geometry":{"x":180246.49000000115,"y":2578201.7400000021}},{"attributes":{"ID":554211,"DIS_CODE":0,"TOWNNAME":"新營區","LI":"興業里","LIN":"21鄰","STREET":"中山路","SECT":" ","MAREA":" ","LANE":" ","ALLEY":" ","HOUSE_NO":"１１７號五樓之８","E_COORD97":180246.54000000001,"N_COORD97":2578201.7400000002,"ADDRESS":"中山路１１７號五樓之８","OBJECTID":554184},"geometry":{"x":180246.54000000004,"y":2578201.7400000021}},{"attributes":{"ID":554212,"DIS_CODE":0,"TOWNNAME":"新營區","LI":"興業里","LIN":"21鄰","STREET":"中山路","SECT":" ","MAREA":" ","LANE":" ","ALLEY":" ","HOUSE_NO":"１１７號四樓之６","E_COORD97":180246.5,"N_COORD97":2578201.7400000002,"ADDRESS":"中山路１１７號四樓之６","OBJECTID":554185},"geometry":{"x":180246.50000000093,"y":2578201.7400000021}},{"attributes":{"ID":554213,"DIS_CODE":0,"TOWNNAME":"新營區","LI":"興業里","LIN":"21鄰","STREET":"中山路","SECT":" ","MAREA":" ","LANE":" ","ALLEY":" ","HOUSE_NO":"１１７號五樓之６","E_COORD97":180246.5,"N_COORD97":2578201.7400000002,"ADDRESS":"中山路１１７號五樓之６","OBJECTID":554186},"geometry":{"x":180246.50000000093,"y":2578201.7400000021}},{"attributes":{"ID":554214,"DIS_CODE":0,"TOWNNAME":"新營區","LI":"興業里","LIN":"21鄰","STREET":"中山路","SECT":" ","MAREA":" ","LANE":" ","ALLEY":" ","HOUSE_NO":"１１７號四樓之３","E_COORD97":180246.48999999999,"N_COORD97":2578201.7400000002,"ADDRESS":"中山路１１７號四樓之３","OBJECTID":554187},"geometry":{"x":180246.49000000115,"y":2578201.7400000021}},{"attributes":{"ID":554215,"DIS_CODE":0,"TOWNNAME":"新營區","LI":"興業里","LIN":"21鄰","STREET":"中山路","SECT":" ","MAREA":" ","LANE":" ","ALLEY":" ","HOUSE_NO":"１１７號六樓之６","E_COORD97":180246.5,"N_COORD97":2578201.7400000002,"ADDRESS":"中山路１１７號六樓之６","OBJECTID":554188},"geometry":{"x":180246.50000000093,"y":2578201.7400000021}},{"attributes":{"ID":554216,"DIS_CODE":0,"TOWNNAME":"新營區","LI":"興業里","LIN":"21鄰","STREET":"中山路","SECT":" ","MAREA":" ","LANE":" ","ALLEY":" ","HOUSE_NO":"１１７號十五樓之８","E_COORD97":180247.79000000001,"N_COORD97":2578201.7400000002,"ADDRESS":"中山路１１７號十五樓之８","OBJECTID":554189},"geometry":{"x":180247.79000000097,"y":2578201.7400000021}},{"attributes":{"ID":554217,"DIS_CODE":0,"TOWNNAME":"新營區","LI":"興業里","LIN":"21鄰","STREET":"中山路","SECT":" ","MAREA":" ","LANE":" ","ALLEY":" ","HOUSE_NO":"１１７號十四樓之２","E_COORD97":180247.78,"N_COORD97":2578201.7400000002,"ADDRESS":"中山路１１７號十四樓之２","OBJECTID":554190},"geometry":{"x":180247.78000000119,"y":2578201.7400000021}},{"attributes":{"ID":554218,"DIS_CODE":0,"TOWNNAME":"新營區","LI":"興業里","LIN":"21鄰","STREET":"中山路","SECT":" ","MAREA":" ","LANE":" ","ALLEY":" ","HOUSE_NO":"１１７號九樓之３","E_COORD97":180246.48999999999,"N_COORD97":2578201.7400000002,"ADDRESS":"中山路１１７號九樓之３","OBJECTID":554191},"geometry":{"x":180246.49000000115,"y":2578201.7400000021}},{"attributes":{"ID":554219,"DIS_CODE":0,"TOWNNAME":"新營區","LI":"興業里","LIN":"21鄰","STREET":"中山路","SECT":" ","MAREA":" ","LANE":" ","ALLEY":" ","HOUSE_NO":"１１７號八樓之２","E_COORD97":180246.53,"N_COORD97":2578201.7400000002,"ADDRESS":"中山路１１７號八樓之２","OBJECTID":554192},"geometry":{"x":180246.53000000119,"y":2578201.7400000021}},{"attributes":{"ID":554220,"DIS_CODE":0,"TOWNNAME":"新營區","LI":"興業里","LIN":"21鄰","STREET":"中山路","SECT":" ","MAREA":" ","LANE":" ","ALLEY":" ","HOUSE_NO":"１１７號九樓之４","E_COORD97":180246.42000000001,"N_COORD97":2578201.7400000002,"ADDRESS":"中山路１１７號九樓之４","OBJECTID":554193},"geometry":{"x":180246.42000000086,"y":2578201.7400000021}},{"attributes":{"ID":554221,"DIS_CODE":0,"TOWNNAME":"新營區","LI":"興業里","LIN":"21鄰","STREET":"中山路","SECT":" ","MAREA":" ","LANE":" ","ALLEY":" ","HOUSE_NO":"１１７號七樓之３","E_COORD97":180246.48999999999,"N_COORD97":2578201.7400000002,"ADDRESS":"中山路１１７號七樓之３","OBJECTID":554194},"geometry":{"x":180246.49000000115,"y":2578201.7400000021}},{"attributes":{"ID":554222,"DIS_CODE":0,"TOWNNAME":"安平區","LI":"建平里","LIN":"21鄰","STREET":"怡平路","SECT":" ","MAREA":" ","LANE":" ","ALLEY":" ","HOUSE_NO":"５５號四樓","E_COORD97":166075.31,"N_COORD97":2543715.0600000001,"ADDRESS":"怡平路５５號四樓","OBJECTID":554195},"geometry":{"x":166075.31000000052,"y":2543715.0600000005}},{"attributes":{"ID":554223,"DIS_CODE":0,"TOWNNAME":"安平區","LI":"建平里","LIN":"21鄰","STREET":"怡平路","SECT":" ","MAREA":" ","LANE":" ","ALLEY":" ","HOUSE_NO":"５５號五樓","E_COORD97":166075.31,"N_COORD97":2543715.0600000001,"ADDRESS":"怡平路５５號五樓","OBJECTID":554196},"geometry":{"x":166075.31000000052,"y":2543715.0600000005}},{"attributes":{"ID":554224,"DIS_CODE":0,"TOWNNAME":"安平區","LI":"建平里","LIN":"21鄰","STREET":"怡平路","SECT":" ","MAREA":" ","LANE":" ","ALLEY":" ","HOUSE_NO":"１號二樓之１","E_COORD97":166240.04999999999,"N_COORD97":2543695.75,"ADDRESS":"怡平路１號二樓之１","OBJECTID":554197},"geometry":{"x":166240.05000000075,"y":2543695.75}},{"attributes":{"ID":554225,"DIS_CODE":0,"TOWNNAME":"安平區","LI":"建平里","LIN":"21鄰","STREET":"怡平路","SECT":" ","MAREA":" ","LANE":" ","ALLEY":" ","HOUSE_NO":"１號二樓之２","E_COORD97":166240.04999999999,"N_COORD97":2543695.75,"ADDRESS":"怡平路１號二樓之２","OBJECTID":554198},"geometry":{"x":166240.05000000075,"y":2543695.75}},{"attributes":{"ID":554226,"DIS_CODE":0,"TOWNNAME":"安平區","LI":"建平里","LIN":"21鄰","STREET":"怡平路","SECT":" ","MAREA":" ","LANE":" ","ALLEY":" ","HOUSE_NO":"１號三樓之１","E_COORD97":166240.04999999999,"N_COORD97":2543695.75,"ADDRESS":"怡平路１號三樓之１","OBJECTID":554199},"geometry":{"x":166240.05000000075,"y":2543695.75}},{"attributes":{"ID":554227,"DIS_CODE":0,"TOWNNAME":"安平區","LI":"建平里","LIN":"21鄰","STREET":"怡平路","SECT":" ","MAREA":" ","LANE":" ","ALLEY":" ","HOUSE_NO":"１號三樓之２","E_COORD97":166240.04999999999,"N_COORD97":2543695.75,"ADDRESS":"怡平路１號三樓之２","OBJECTID":554200},"geometry":{"x":166240.05000000075,"y":2543695.75}}]}