{"displayFieldName":"TOWNNAME","fieldAliases":{"ID":"ID","DIS_CODE":"DIS_CODE","TOWNNAME":"TOWNNAME","LI":"LI","LIN":"LIN","STREET":"STREET","SECT":"SECT","MAREA":"MAREA","LANE":"LANE","ALLEY":"ALLEY","HOUSE_NO":"HOUSE_NO","E_COORD97":"E_COORD97","N_COORD97":"N_COORD97","ADDRESS":"ADDRESS","OBJECTID":"OBJECTID"},"geometryType":"esriGeometryPoint","spatialReference":{"wkid":102443,"latestWkid":3826},"fields":[{"name":"ID","type":"esriFieldTypeDouble","alias":"ID"},{"name":"DIS_CODE","type":"esriFieldTypeInteger","alias":"DIS_CODE"},{"name":"TOWNNAME","type":"esriFieldTypeString","alias":"TOWNNAME","length":8},{"name":"LI","type":"esriFieldTypeString","alias":"LI","length":8},{"name":"LIN","type":"esriFieldTypeString","alias":"LIN","length":12},{"name":"STREET","type":"esriFieldTypeString","alias":"STREET","length":20},{"name":"SECT","type":"esriFieldTypeString","alias":"SECT","length":8},{"name":"MAREA","type":"esriFieldTypeString","alias":"MAREA","length":12},{"name":"LANE","type":"esriFieldTypeString","alias":"LANE","length":10},{"name":"ALLEY","type":"esriFieldTypeString","alias":"ALLEY","length":10},{"name":"HOUSE_NO","type":"esriFieldTypeString","alias":"HOUSE_NO","length":20},{"name":"E_COORD97","type":"esriFieldTypeDouble","alias":"E_COORD97"},{"name":"N_COORD97","type":"esriFieldTypeDouble","alias":"N_COORD97"},{"name":"ADDRESS","type":"esriFieldTypeString","alias":"ADDRESS","length":50},{"name":"OBJECTID","type":"esriFieldTypeOID","alias":"OBJECTID"}],"features":[{"attributes":{"ID":455826,"DIS_CODE":0,"TOWNNAME":"東區","LI":"和平里","LIN":"1鄰","STREET":"仁和路","SECT":" ","MAREA":" ","LANE":" ","ALLEY":" ","HOUSE_NO":"３７號三樓","E_COORD97":171099.45000000001,"N_COORD97":2542097.2200000002,"ADDRESS":"仁和路３７號三樓","OBJECTID":455801},"geometry":{"x":171099.45000000112,"y":2542097.2200000007}},{"attributes":{"ID":455827,"DIS_CODE":0,"TOWNNAME":"中西區","LI":"西賢里","LIN":"32鄰","STREET":"西賢六街","SECT":" ","MAREA":" ","LANE":"１３巷","ALLEY":" ","HOUSE_NO":"３５號","E_COORD97":164998.53,"N_COORD97":2544697.3399999999,"ADDRESS":"西賢六街１３巷３５號","OBJECTID":455802},"geometry":{"x":164998.53000000026,"y":2544697.3400000017}},{"attributes":{"ID":455828,"DIS_CODE":0,"TOWNNAME":"中西區","LI":"西賢里","LIN":"32鄰","STREET":"西賢六街","SECT":" ","MAREA":" ","LANE":"１３巷","ALLEY":" ","HOUSE_NO":"３８號","E_COORD97":165041.04999999999,"N_COORD97":2544675.8199999998,"ADDRESS":"西賢六街１３巷３８號","OBJECTID":455803},"geometry":{"x":165041.05000000168,"y":2544675.8200000003}},{"attributes":{"ID":455829,"DIS_CODE":0,"TOWNNAME":"中西區","LI":"西賢里","LIN":"32鄰","STREET":"西賢六街","SECT":" ","MAREA":" ","LANE":"１３巷","ALLEY":" ","HOUSE_NO":"３９號","E_COORD97":164999.94,"N_COORD97":2544705.4700000002,"ADDRESS":"西賢六街１３巷３９號","OBJECTID":455804},"geometry":{"x":164999.93999999948,"y":2544705.4700000007}},{"attributes":{"ID":455830,"DIS_CODE":0,"TOWNNAME":"中西區","LI":"西賢里","LIN":"32鄰","STREET":"西賢六街","SECT":" ","MAREA":" ","LANE":"１３巷","ALLEY":" ","HOUSE_NO":"４０號","E_COORD97":165048.32999999999,"N_COORD97":2544673.77,"ADDRESS":"西賢六街１３巷４０號","OBJECTID":455805},"geometry":{"x":165048.33000000101,"y":2544673.7700000014}},{"attributes":{"ID":455831,"DIS_CODE":0,"TOWNNAME":"中西區","LI":"西賢里","LIN":"32鄰","STREET":"西賢六街","SECT":" ","MAREA":" ","LANE":"１３巷","ALLEY":" ","HOUSE_NO":"４１號","E_COORD97":165001.67000000001,"N_COORD97":2544711.0899999999,"ADDRESS":"西賢六街１３巷４１號","OBJECTID":455806},"geometry":{"x":165001.67000000086,"y":2544711.0899999999}},{"attributes":{"ID":455832,"DIS_CODE":0,"TOWNNAME":"中西區","LI":"西賢里","LIN":"32鄰","STREET":"西賢六街","SECT":" ","MAREA":" ","LANE":"１３巷","ALLEY":" ","HOUSE_NO":"５２號","E_COORD97":165017.22,"N_COORD97":2544693.0299999998,"ADDRESS":"西賢六街１３巷５２號","OBJECTID":455807},"geometry":{"x":165017.21999999974,"y":2544693.0299999993}},{"attributes":{"ID":455833,"DIS_CODE":0,"TOWNNAME":"中西區","LI":"西賢里","LIN":"32鄰","STREET":"西賢六街","SECT":" ","MAREA":" ","LANE":"１３巷","ALLEY":" ","HOUSE_NO":"５６號","E_COORD97":165017.54000000001,"N_COORD97":2544696.9100000001,"ADDRESS":"西賢六街１３巷５６號","OBJECTID":455808},"geometry":{"x":165017.53999999911,"y":2544696.910000002}},{"attributes":{"ID":455834,"DIS_CODE":0,"TOWNNAME":"中西區","LI":"西賢里","LIN":"32鄰","STREET":"西賢六街","SECT":" ","MAREA":" ","LANE":"１３巷","ALLEY":" ","HOUSE_NO":"５８號","E_COORD97":165018.62,"N_COORD97":2544701.4500000002,"ADDRESS":"西賢六街１３巷５８號","OBJECTID":455809},"geometry":{"x":165018.62000000011,"y":2544701.4499999993}},{"attributes":{"ID":455835,"DIS_CODE":0,"TOWNNAME":"中西區","LI":"西賢里","LIN":"32鄰","STREET":"西賢六街","SECT":" ","MAREA":" ","LANE":"１３巷","ALLEY":" ","HOUSE_NO":"６０號","E_COORD97":165020.23999999999,"N_COORD97":2544705.7599999998,"ADDRESS":"西賢六街１３巷６０號","OBJECTID":455810},"geometry":{"x":165020.24000000115,"y":2544705.7599999998}},{"attributes":{"ID":455836,"DIS_CODE":0,"TOWNNAME":"中西區","LI":"西賢里","LIN":"32鄰","STREET":"西賢六街","SECT":" ","MAREA":" ","LANE":"１３巷","ALLEY":" ","HOUSE_NO":"７０號","E_COORD97":165039.54000000001,"N_COORD97":2544706.73,"ADDRESS":"西賢六街１３巷７０號","OBJECTID":455811},"geometry":{"x":165039.54000000004,"y":2544706.7300000004}},{"attributes":{"ID":455837,"DIS_CODE":0,"TOWNNAME":"中西區","LI":"西賢里","LIN":"32鄰","STREET":"西賢六街","SECT":" ","MAREA":" ","LANE":"１３巷","ALLEY":" ","HOUSE_NO":"７２號","E_COORD97":165045.70000000001,"N_COORD97":2544704.6800000002,"ADDRESS":"西賢六街１３巷７２號","OBJECTID":455812},"geometry":{"x":165045.70000000112,"y":2544704.6800000016}},{"attributes":{"ID":455838,"DIS_CODE":0,"TOWNNAME":"中西區","LI":"西賢里","LIN":"32鄰","STREET":"西賢六街","SECT":" ","MAREA":" ","LANE":"１３巷","ALLEY":" ","HOUSE_NO":"７６號","E_COORD97":165053.37,"N_COORD97":2544705,"ADDRESS":"西賢六街１３巷７６號","OBJECTID":455813},"geometry":{"x":165053.37000000104,"y":2544705}},{"attributes":{"ID":455839,"DIS_CODE":0,"TOWNNAME":"永康區","LI":"崑山里","LIN":"32鄰","STREET":"崑山街","SECT":" ","MAREA":" ","LANE":"１１６巷","ALLEY":" ","HOUSE_NO":"２７號","E_COORD97":174066.62,"N_COORD97":2544784.77,"ADDRESS":"崑山街１１６巷２７號","OBJECTID":455814},"geometry":{"x":174066.62000000104,"y":2544784.7700000033}},{"attributes":{"ID":455840,"DIS_CODE":0,"TOWNNAME":"佳里區","LI":"安西里","LIN":"32鄰","STREET":"光華街","SECT":" ","MAREA":" ","LANE":"１３０巷","ALLEY":" ","HOUSE_NO":"１０號","E_COORD97":165069.54000000001,"N_COORD97":2562849.8999999999,"ADDRESS":"光華街１３０巷１０號","OBJECTID":455815},"geometry":{"x":165069.54000000004,"y":2562849.9000000022}},{"attributes":{"ID":455841,"DIS_CODE":0,"TOWNNAME":"佳里區","LI":"安西里","LIN":"32鄰","STREET":"光華街","SECT":" ","MAREA":" ","LANE":"１３０巷","ALLEY":" ","HOUSE_NO":"１２號","E_COORD97":165069.47,"N_COORD97":2562854.6000000001,"ADDRESS":"光華街１３０巷１２號","OBJECTID":455816},"geometry":{"x":165069.47000000067,"y":2562854.6000000015}},{"attributes":{"ID":455842,"DIS_CODE":0,"TOWNNAME":"佳里區","LI":"安西里","LIN":"32鄰","STREET":"光華街","SECT":" ","MAREA":" ","LANE":"１３０巷","ALLEY":" ","HOUSE_NO":"１４號","E_COORD97":165069.57000000001,"N_COORD97":2562859.3300000001,"ADDRESS":"光華街１３０巷１４號","OBJECTID":455817},"geometry":{"x":165069.5700000003,"y":2562859.3300000019}},{"attributes":{"ID":455843,"DIS_CODE":0,"TOWNNAME":"永康區","LI":"正強里","LIN":"32鄰","STREET":"中正路","SECT":" ","MAREA":" ","LANE":"２２２巷","ALLEY":" ","HOUSE_NO":"１號","E_COORD97":173334.76000000001,"N_COORD97":2547923.4900000002,"ADDRESS":"中正路２２２巷１號","OBJECTID":455818},"geometry":{"x":173334.76000000071,"y":2547923.4900000039}},{"attributes":{"ID":455844,"DIS_CODE":0,"TOWNNAME":"佳里區","LI":"安西里","LIN":"32鄰","STREET":"光華街","SECT":" ","MAREA":" ","LANE":"１３０巷","ALLEY":" ","HOUSE_NO":"８號","E_COORD97":165069.32000000001,"N_COORD97":2562845.7599999998,"ADDRESS":"光華街１３０巷８號","OBJECTID":455819},"geometry":{"x":165069.32000000123,"y":2562845.7600000035}},{"attributes":{"ID":455845,"DIS_CODE":0,"TOWNNAME":"佳里區","LI":"安西里","LIN":"32鄰","STREET":"安西路","SECT":" ","MAREA":" ","LANE":"２５７巷","ALLEY":" ","HOUSE_NO":"１０號","E_COORD97":165087.48999999999,"N_COORD97":2562857.1699999999,"ADDRESS":"安西路２５７巷１０號","OBJECTID":455820},"geometry":{"x":165087.49000000022,"y":2562857.1700000018}},{"attributes":{"ID":455846,"DIS_CODE":0,"TOWNNAME":"佳里區","LI":"安西里","LIN":"32鄰","STREET":"安西路","SECT":" ","MAREA":" ","LANE":"２７７巷","ALLEY":" ","HOUSE_NO":"１０號","E_COORD97":165107.64000000001,"N_COORD97":2562896.8700000001,"ADDRESS":"安西路２７７巷１０號","OBJECTID":455821},"geometry":{"x":165107.63999999966,"y":2562896.8699999992}},{"attributes":{"ID":455847,"DIS_CODE":0,"TOWNNAME":"佳里區","LI":"安西里","LIN":"32鄰","STREET":"安西路","SECT":" ","MAREA":" ","LANE":"２７７巷","ALLEY":" ","HOUSE_NO":"１１號","E_COORD97":165090.44,"N_COORD97":2562885.3799999999,"ADDRESS":"安西路２７７巷１１號","OBJECTID":455822},"geometry":{"x":165090.44000000134,"y":2562885.3800000008}},{"attributes":{"ID":455848,"DIS_CODE":0,"TOWNNAME":"佳里區","LI":"安西里","LIN":"32鄰","STREET":"安西路","SECT":" ","MAREA":" ","LANE":"２７７巷","ALLEY":" ","HOUSE_NO":"１２號","E_COORD97":165100.19,"N_COORD97":2562897.3399999999,"ADDRESS":"安西路２７７巷１２號","OBJECTID":455823},"geometry":{"x":165100.19000000227,"y":2562897.3400000017}},{"attributes":{"ID":455849,"DIS_CODE":0,"TOWNNAME":"佳里區","LI":"安西里","LIN":"32鄰","STREET":"安西路","SECT":" ","MAREA":" ","LANE":"２７７巷","ALLEY":" ","HOUSE_NO":"１３號","E_COORD97":165086.07999999999,"N_COORD97":2562885.21,"ADDRESS":"安西路２７７巷１３號","OBJECTID":455824},"geometry":{"x":165086.08000000007,"y":2562885.2100000028}},{"attributes":{"ID":455850,"DIS_CODE":0,"TOWNNAME":"佳里區","LI":"安西里","LIN":"32鄰","STREET":"安西路","SECT":" ","MAREA":" ","LANE":"２７７巷","ALLEY":" ","HOUSE_NO":"１５號","E_COORD97":165081.85999999999,"N_COORD97":2562885.1800000002,"ADDRESS":"安西路２７７巷１５號","OBJECTID":455825},"geometry":{"x":165081.8600000022,"y":2562885.1799999997}},{"attributes":{"ID":455851,"DIS_CODE":0,"TOWNNAME":"佳里區","LI":"安西里","LIN":"32鄰","STREET":"安西路","SECT":" ","MAREA":" ","LANE":"２７７巷","ALLEY":" ","HOUSE_NO":"１６號","E_COORD97":165092.76999999999,"N_COORD97":2562897.1400000001,"ADDRESS":"安西路２７７巷１６號","OBJECTID":455826},"geometry":{"x":165092.76999999955,"y":2562897.1400000006}},{"attributes":{"ID":455852,"DIS_CODE":0,"TOWNNAME":"佳里區","LI":"安西里","LIN":"32鄰","STREET":"安西路","SECT":" ","MAREA":" ","LANE":"２７７巷","ALLEY":" ","HOUSE_NO":"１８號","E_COORD97":165085.23999999999,"N_COORD97":2562897.3300000001,"ADDRESS":"安西路２７７巷１８號","OBJECTID":455827},"geometry":{"x":165085.24000000022,"y":2562897.3300000019}},{"attributes":{"ID":455853,"DIS_CODE":0,"TOWNNAME":"佳里區","LI":"安西里","LIN":"32鄰","STREET":"安西路","SECT":" ","MAREA":" ","LANE":"２７７巷","ALLEY":" ","HOUSE_NO":"１號","E_COORD97":165118.67999999999,"N_COORD97":2562885.4900000002,"ADDRESS":"安西路２７７巷１號","OBJECTID":455828},"geometry":{"x":165118.68000000063,"y":2562885.4900000039}},{"attributes":{"ID":455854,"DIS_CODE":0,"TOWNNAME":"佳里區","LI":"安西里","LIN":"32鄰","STREET":"安西路","SECT":" ","MAREA":" ","LANE":"２７７巷","ALLEY":" ","HOUSE_NO":"２０號","E_COORD97":165077.79000000001,"N_COORD97":2562896.75,"ADDRESS":"安西路２７７巷２０號","OBJECTID":455829},"geometry":{"x":165077.79000000097,"y":2562896.7500000037}},{"attributes":{"ID":455855,"DIS_CODE":0,"TOWNNAME":"佳里區","LI":"安西里","LIN":"32鄰","STREET":"安西路","SECT":" ","MAREA":" ","LANE":"２７７巷","ALLEY":" ","HOUSE_NO":"３號","E_COORD97":165113.76000000001,"N_COORD97":2562885.77,"ADDRESS":"安西路２７７巷３號","OBJECTID":455830},"geometry":{"x":165113.75999999978,"y":2562885.7699999977}},{"attributes":{"ID":455856,"DIS_CODE":0,"TOWNNAME":"佳里區","LI":"安西里","LIN":"32鄰","STREET":"安西路","SECT":" ","MAREA":" ","LANE":"２７７巷","ALLEY":" ","HOUSE_NO":"５號","E_COORD97":165108.42999999999,"N_COORD97":2562885.5699999998,"ADDRESS":"安西路２７７巷５號","OBJECTID":455831},"geometry":{"x":165108.43000000063,"y":2562885.5700000022}},{"attributes":{"ID":455857,"DIS_CODE":0,"TOWNNAME":"佳里區","LI":"安西里","LIN":"32鄰","STREET":"安西路","SECT":" ","MAREA":" ","LANE":"２７７巷","ALLEY":" ","HOUSE_NO":"６號","E_COORD97":165121.78,"N_COORD97":2562897.4100000001,"ADDRESS":"安西路２７７巷６號","OBJECTID":455832},"geometry":{"x":165121.78000000119,"y":2562897.410000002}},{"attributes":{"ID":455858,"DIS_CODE":0,"TOWNNAME":"佳里區","LI":"安西里","LIN":"32鄰","STREET":"安西路","SECT":" ","MAREA":" ","LANE":"２７７巷","ALLEY":" ","HOUSE_NO":"７號","E_COORD97":165101.07000000001,"N_COORD97":2562885.48,"ADDRESS":"安西路２７７巷７號","OBJECTID":455833},"geometry":{"x":165101.07000000123,"y":2562885.4800000042}},{"attributes":{"ID":455859,"DIS_CODE":0,"TOWNNAME":"佳里區","LI":"安西里","LIN":"32鄰","STREET":"安西路","SECT":" ","MAREA":" ","LANE":"２７７巷","ALLEY":" ","HOUSE_NO":"８號","E_COORD97":165114.03,"N_COORD97":2562897.1800000002,"ADDRESS":"安西路２７７巷８號","OBJECTID":455834},"geometry":{"x":165114.03000000026,"y":2562897.1800000034}},{"attributes":{"ID":455860,"DIS_CODE":0,"TOWNNAME":"東區","LI":"和平里","LIN":"1鄰","STREET":"仁和路","SECT":" ","MAREA":" ","LANE":" ","ALLEY":" ","HOUSE_NO":"３７號四樓","E_COORD97":171099.45000000001,"N_COORD97":2542097.2200000002,"ADDRESS":"仁和路３７號四樓","OBJECTID":455835},"geometry":{"x":171099.45000000112,"y":2542097.2200000007}},{"attributes":{"ID":455861,"DIS_CODE":0,"TOWNNAME":"安南區","LI":"安富里","LIN":"32鄰","STREET":"府安路","SECT":"五段","MAREA":" ","LANE":"１６２巷","ALLEY":" ","HOUSE_NO":"３８號","E_COORD97":167768.76999999999,"N_COORD97":2547114.2200000002,"ADDRESS":"府安路五段１６２巷３８號","OBJECTID":455836},"geometry":{"x":167768.77000000048,"y":2547114.2200000007}},{"attributes":{"ID":455862,"DIS_CODE":0,"TOWNNAME":"安南區","LI":"安富里","LIN":"32鄰","STREET":"府安路","SECT":"五段","MAREA":" ","LANE":"１６２巷","ALLEY":" ","HOUSE_NO":"３２號","E_COORD97":167770.29000000001,"N_COORD97":2547106.0899999999,"ADDRESS":"府安路五段１６２巷３２號","OBJECTID":455837},"geometry":{"x":167770.29000000004,"y":2547106.0900000017}},{"attributes":{"ID":455863,"DIS_CODE":0,"TOWNNAME":"安南區","LI":"安富里","LIN":"32鄰","STREET":"府安路","SECT":"五段","MAREA":" ","LANE":"１６２巷","ALLEY":" ","HOUSE_NO":"２２號","E_COORD97":167773.67999999999,"N_COORD97":2547088.3100000001,"ADDRESS":"府安路五段１６２巷２２號","OBJECTID":455838},"geometry":{"x":167773.6799999997,"y":2547088.3100000024}},{"attributes":{"ID":455864,"DIS_CODE":0,"TOWNNAME":"安南區","LI":"安富里","LIN":"32鄰","STREET":"府安路","SECT":"五段","MAREA":" ","LANE":"１６２巷","ALLEY":" ","HOUSE_NO":"２０號","E_COORD97":167774.85999999999,"N_COORD97":2547083.3999999999,"ADDRESS":"府安路五段１６２巷２０號","OBJECTID":455839},"geometry":{"x":167774.86000000034,"y":2547083.4000000041}},{"attributes":{"ID":455865,"DIS_CODE":0,"TOWNNAME":"安南區","LI":"安富里","LIN":"32鄰","STREET":"府安路","SECT":"五段","MAREA":" ","LANE":"１６２巷","ALLEY":" ","HOUSE_NO":"１８號","E_COORD97":167776.22,"N_COORD97":2547078.1499999999,"ADDRESS":"府安路五段１６２巷１８號","OBJECTID":455840},"geometry":{"x":167776.22000000067,"y":2547078.1499999985}},{"attributes":{"ID":455866,"DIS_CODE":0,"TOWNNAME":"安南區","LI":"安富里","LIN":"32鄰","STREET":"府安路","SECT":"五段","MAREA":" ","LANE":"１６２巷","ALLEY":" ","HOUSE_NO":"１６號","E_COORD97":167777.73999999999,"N_COORD97":2547072.0499999998,"ADDRESS":"府安路五段１６２巷１６號","OBJECTID":455841},"geometry":{"x":167777.74000000022,"y":2547072.0500000007}},{"attributes":{"ID":455867,"DIS_CODE":0,"TOWNNAME":"安南區","LI":"安富里","LIN":"32鄰","STREET":"府安路","SECT":"五段","MAREA":" ","LANE":"１６２巷","ALLEY":" ","HOUSE_NO":"１２號","E_COORD97":167778.76000000001,"N_COORD97":2547066.9700000002,"ADDRESS":"府安路五段１６２巷１２號","OBJECTID":455842},"geometry":{"x":167778.75999999978,"y":2547066.9700000025}},{"attributes":{"ID":455868,"DIS_CODE":0,"TOWNNAME":"安南區","LI":"安富里","LIN":"32鄰","STREET":"府安路","SECT":"五段","MAREA":" ","LANE":"１６２巷","ALLEY":" ","HOUSE_NO":"２號","E_COORD97":167782.98999999999,"N_COORD97":2547046.1499999999,"ADDRESS":"府安路五段１６２巷２號","OBJECTID":455843},"geometry":{"x":167782.99000000209,"y":2547046.1500000004}},{"attributes":{"ID":455869,"DIS_CODE":0,"TOWNNAME":"安南區","LI":"安富里","LIN":"32鄰","STREET":"府安路","SECT":"五段","MAREA":" ","LANE":"１６２巷","ALLEY":" ","HOUSE_NO":"４０號","E_COORD97":167768.09,"N_COORD97":2547118.4500000002,"ADDRESS":"府安路五段１６２巷４０號","OBJECTID":455844},"geometry":{"x":167768.08999999985,"y":2547118.4499999993}},{"attributes":{"ID":455870,"DIS_CODE":0,"TOWNNAME":"安南區","LI":"安富里","LIN":"32鄰","STREET":"府安路","SECT":"五段","MAREA":" ","LANE":"１６２巷","ALLEY":" ","HOUSE_NO":"４２號","E_COORD97":167767.25,"N_COORD97":2547123.5299999998,"ADDRESS":"府安路五段１６２巷４２號","OBJECTID":455845},"geometry":{"x":167767.25,"y":2547123.5300000012}},{"attributes":{"ID":455871,"DIS_CODE":0,"TOWNNAME":"安南區","LI":"安富里","LIN":"32鄰","STREET":"府安路","SECT":"五段","MAREA":" ","LANE":"１６２巷","ALLEY":" ","HOUSE_NO":"４６號","E_COORD97":167766.23000000001,"N_COORD97":2547128.7799999998,"ADDRESS":"府安路五段１６２巷４６號","OBJECTID":455846},"geometry":{"x":167766.23000000045,"y":2547128.7800000012}},{"attributes":{"ID":455872,"DIS_CODE":0,"TOWNNAME":"佳里區","LI":"安西里","LIN":"41鄰","STREET":"育善街","SECT":" ","MAREA":" ","LANE":"９７巷","ALLEY":" ","HOUSE_NO":"８號","E_COORD97":164927.57000000001,"N_COORD97":2562277.1699999999,"ADDRESS":"育善街９７巷８號","OBJECTID":455847},"geometry":{"x":164927.5700000003,"y":2562277.1700000018}},{"attributes":{"ID":455873,"DIS_CODE":0,"TOWNNAME":"安南區","LI":"安富里","LIN":"32鄰","STREET":"府安路","SECT":"五段","MAREA":" ","LANE":"１６２巷","ALLEY":" ","HOUSE_NO":"４８號","E_COORD97":167765.38,"N_COORD97":2547133.0099999998,"ADDRESS":"府安路五段１６２巷４８號","OBJECTID":455848},"geometry":{"x":167765.38000000082,"y":2547133.0100000035}},{"attributes":{"ID":455874,"DIS_CODE":0,"TOWNNAME":"安南區","LI":"安富里","LIN":"32鄰","STREET":"府安路","SECT":"五段","MAREA":" ","LANE":"１６２巷","ALLEY":" ","HOUSE_NO":"５０號","E_COORD97":167764.70999999999,"N_COORD97":2547137.25,"ADDRESS":"府安路五段１６２巷５０號","OBJECTID":455849},"geometry":{"x":167764.71000000089,"y":2547137.25}},{"attributes":{"ID":455875,"DIS_CODE":0,"TOWNNAME":"安南區","LI":"安富里","LIN":"32鄰","STREET":"府安路","SECT":"五段","MAREA":" ","LANE":"１６２巷","ALLEY":" ","HOUSE_NO":"５２號","E_COORD97":167764.03,"N_COORD97":2547141.48,"ADDRESS":"府安路五段１６２巷５２號","OBJECTID":455850},"geometry":{"x":167764.02999999933,"y":2547141.4800000023}},{"attributes":{"ID":455876,"DIS_CODE":0,"TOWNNAME":"安南區","LI":"安富里","LIN":"32鄰","STREET":"府安路","SECT":"五段","MAREA":" ","LANE":"１６２巷","ALLEY":" ","HOUSE_NO":"５８號","E_COORD97":167761.14999999999,"N_COORD97":2547152.3199999998,"ADDRESS":"府安路五段１６２巷５８號","OBJECTID":455851},"geometry":{"x":167761.15000000037,"y":2547152.3200000022}},{"attributes":{"ID":455877,"DIS_CODE":0,"TOWNNAME":"安南區","LI":"安富里","LIN":"32鄰","STREET":"府安路","SECT":"五段","MAREA":" ","LANE":"１６２巷","ALLEY":" ","HOUSE_NO":"６２號","E_COORD97":167758.95000000001,"N_COORD97":2547162.48,"ADDRESS":"府安路五段１６２巷６２號","OBJECTID":455852},"geometry":{"x":167758.95000000019,"y":2547162.4800000023}},{"attributes":{"ID":455878,"DIS_CODE":0,"TOWNNAME":"安南區","LI":"安富里","LIN":"32鄰","STREET":"府安路","SECT":"五段","MAREA":" ","LANE":"１６２巷","ALLEY":" ","HOUSE_NO":"６６號","E_COORD97":167757.92999999999,"N_COORD97":2547166.71,"ADDRESS":"府安路五段１６２巷６６號","OBJECTID":455853},"geometry":{"x":167757.93000000063,"y":2547166.7100000046}},{"attributes":{"ID":455879,"DIS_CODE":0,"TOWNNAME":"安南區","LI":"安富里","LIN":"32鄰","STREET":"府安路","SECT":"五段","MAREA":" ","LANE":"１６２巷","ALLEY":" ","HOUSE_NO":"６８號","E_COORD97":167757.09,"N_COORD97":2547170.9399999999,"ADDRESS":"府安路五段１６２巷６８號","OBJECTID":455854},"geometry":{"x":167757.09000000078,"y":2547170.9400000013}},{"attributes":{"ID":455880,"DIS_CODE":0,"TOWNNAME":"安南區","LI":"安富里","LIN":"32鄰","STREET":"府安路","SECT":"五段","MAREA":" ","LANE":"１６２巷","ALLEY":" ","HOUSE_NO":"７０號","E_COORD97":167756.07000000001,"N_COORD97":2547175.52,"ADDRESS":"府安路五段１６２巷７０號","OBJECTID":455855},"geometry":{"x":167756.07000000123,"y":2547175.5199999996}},{"attributes":{"ID":455881,"DIS_CODE":0,"TOWNNAME":"安南區","LI":"安富里","LIN":"32鄰","STREET":"府安路","SECT":"五段","MAREA":" ","LANE":"１６２巷","ALLEY":" ","HOUSE_NO":"７２號","E_COORD97":167757.67999999999,"N_COORD97":2547180.4199999999,"ADDRESS":"府安路五段１６２巷７２號","OBJECTID":455856},"geometry":{"x":167757.68000000063,"y":2547180.4199999999}},{"attributes":{"ID":455882,"DIS_CODE":0,"TOWNNAME":"永康區","LI":"正強里","LIN":"32鄰","STREET":"四維街","SECT":" ","MAREA":" ","LANE":"５巷","ALLEY":" ","HOUSE_NO":"１號","E_COORD97":173426.20000000001,"N_COORD97":2547937.21,"ADDRESS":"四維街５巷１號","OBJECTID":455857},"geometry":{"x":173426.20000000019,"y":2547937.2100000028}},{"attributes":{"ID":455883,"DIS_CODE":0,"TOWNNAME":"安南區","LI":"安富里","LIN":"32鄰","STREET":"府安路","SECT":"五段","MAREA":" ","LANE":"１６２巷","ALLEY":" ","HOUSE_NO":"７６號","E_COORD97":167755.60999999999,"N_COORD97":2547189.6200000001,"ADDRESS":"府安路五段１６２巷７６號","OBJECTID":455858},"geometry":{"x":167755.61000000127,"y":2547189.620000001}},{"attributes":{"ID":455884,"DIS_CODE":0,"TOWNNAME":"安南區","LI":"安富里","LIN":"32鄰","STREET":"府安路","SECT":"五段","MAREA":" ","LANE":"１６２巷","ALLEY":" ","HOUSE_NO":"７８號","E_COORD97":167754.34,"N_COORD97":2547196.4500000002,"ADDRESS":"府安路五段１６２巷７８號","OBJECTID":455859},"geometry":{"x":167754.33999999985,"y":2547196.4499999993}},{"attributes":{"ID":455885,"DIS_CODE":0,"TOWNNAME":"安南區","LI":"安富里","LIN":"32鄰","STREET":"府安路","SECT":"五段","MAREA":" ","LANE":"１６２巷","ALLEY":" ","HOUSE_NO":"８０號","E_COORD97":167752.76000000001,"N_COORD97":2547204.71,"ADDRESS":"府安路五段１６２巷８０號","OBJECTID":455860},"geometry":{"x":167752.75999999978,"y":2547204.7100000028}},{"attributes":{"ID":455886,"DIS_CODE":0,"TOWNNAME":"安南區","LI":"安富里","LIN":"32鄰","STREET":"府安路","SECT":"五段","MAREA":" ","LANE":"１６２巷","ALLEY":" ","HOUSE_NO":"８２號","E_COORD97":167750.53,"N_COORD97":2547212.48,"ADDRESS":"府安路五段１６２巷８２號","OBJECTID":455861},"geometry":{"x":167750.53000000212,"y":2547212.4800000023}},{"attributes":{"ID":455887,"DIS_CODE":0,"TOWNNAME":"安南區","LI":"安富里","LIN":"32鄰","STREET":"府安路","SECT":"五段","MAREA":" ","LANE":"１６２巷","ALLEY":" ","HOUSE_NO":"８６號","E_COORD97":167748.63,"N_COORD97":2547220.8999999999,"ADDRESS":"府安路五段１６２巷８６號","OBJECTID":455862},"geometry":{"x":167748.63000000082,"y":2547220.9000000004}},{"attributes":{"ID":455888,"DIS_CODE":0,"TOWNNAME":"安南區","LI":"安富里","LIN":"32鄰","STREET":"府安路","SECT":"五段","MAREA":" ","LANE":"１６２巷","ALLEY":" ","HOUSE_NO":"８８號","E_COORD97":167746.57000000001,"N_COORD97":2547229.6299999999,"ADDRESS":"府安路五段１６２巷８８號","OBJECTID":455863},"geometry":{"x":167746.5700000003,"y":2547229.6300000027}},{"attributes":{"ID":455889,"DIS_CODE":0,"TOWNNAME":"安南區","LI":"安富里","LIN":"32鄰","STREET":"府安路","SECT":"五段","MAREA":" ","LANE":"１６２巷","ALLEY":" ","HOUSE_NO":"１０２號","E_COORD97":167737.67999999999,"N_COORD97":2547270.5899999999,"ADDRESS":"府安路五段１６２巷１０２號","OBJECTID":455864},"geometry":{"x":167737.68000000063,"y":2547270.5899999999}},{"attributes":{"ID":455890,"DIS_CODE":0,"TOWNNAME":"安南區","LI":"安富里","LIN":"32鄰","STREET":"府安路","SECT":"五段","MAREA":" ","LANE":"１６２巷","ALLEY":" ","HOUSE_NO":"１００號","E_COORD97":167739.57999999999,"N_COORD97":2547263.9199999999,"ADDRESS":"府安路五段１６２巷１００號","OBJECTID":455865},"geometry":{"x":167739.58000000007,"y":2547263.9200000018}},{"attributes":{"ID":455891,"DIS_CODE":0,"TOWNNAME":"安南區","LI":"安富里","LIN":"32鄰","STREET":"府安路","SECT":"五段","MAREA":" ","LANE":"１６２巷","ALLEY":" ","HOUSE_NO":"９８號","E_COORD97":167740.85000000001,"N_COORD97":2547257.4100000001,"ADDRESS":"府安路五段１６２巷９８號","OBJECTID":455866},"geometry":{"x":167740.8499999987,"y":2547257.410000002}},{"attributes":{"ID":455892,"DIS_CODE":0,"TOWNNAME":"安南區","LI":"安富里","LIN":"32鄰","STREET":"府安路","SECT":"五段","MAREA":" ","LANE":"１６２巷","ALLEY":" ","HOUSE_NO":"９６號","E_COORD97":167742.28,"N_COORD97":2547250.8999999999,"ADDRESS":"府安路五段１６２巷９６號","OBJECTID":455867},"geometry":{"x":167742.28000000119,"y":2547250.9000000022}},{"attributes":{"ID":455893,"DIS_CODE":0,"TOWNNAME":"安南區","LI":"安富里","LIN":"32鄰","STREET":"府安路","SECT":"五段","MAREA":" ","LANE":"１６２巷","ALLEY":" ","HOUSE_NO":"９２號","E_COORD97":167743.39000000001,"N_COORD97":2547244.0800000001,"ADDRESS":"府安路五段１６２巷９２號","OBJECTID":455868},"geometry":{"x":167743.38999999966,"y":2547244.0800000001}},{"attributes":{"ID":455894,"DIS_CODE":0,"TOWNNAME":"安南區","LI":"安富里","LIN":"32鄰","STREET":"府安路","SECT":"五段","MAREA":" ","LANE":"１６２巷","ALLEY":" ","HOUSE_NO":"９０號","E_COORD97":167744.82000000001,"N_COORD97":2547236.46,"ADDRESS":"府安路五段１６２巷９０號","OBJECTID":455869},"geometry":{"x":167744.8200000003,"y":2547236.4600000028}},{"attributes":{"ID":455895,"DIS_CODE":0,"TOWNNAME":"安南區","LI":"安富里","LIN":"32鄰","STREET":"海佃路","SECT":"一段","MAREA":" ","LANE":"１５８巷","ALLEY":" ","HOUSE_NO":"１６２號","E_COORD97":167736.41,"N_COORD97":2547286.1499999999,"ADDRESS":"海佃路一段１５８巷１６２號","OBJECTID":455870},"geometry":{"x":167736.41000000108,"y":2547286.1500000022}},{"attributes":{"ID":455896,"DIS_CODE":0,"TOWNNAME":"安南區","LI":"安富里","LIN":"32鄰","STREET":"海佃路","SECT":"一段","MAREA":" ","LANE":"１５８巷","ALLEY":" ","HOUSE_NO":"１６６號","E_COORD97":167742.91,"N_COORD97":2547287.5699999998,"ADDRESS":"海佃路一段１５８巷１６６號","OBJECTID":455871},"geometry":{"x":167742.91000000201,"y":2547287.5700000003}},{"attributes":{"ID":455897,"DIS_CODE":0,"TOWNNAME":"中西區","LI":"西湖里","LIN":"32鄰","STREET":"湖美二街","SECT":" ","MAREA":" ","LANE":"１４２巷","ALLEY":" ","HOUSE_NO":"２０之５號","E_COORD97":166197.44,"N_COORD97":2544965.2200000002,"ADDRESS":"湖美二街１４２巷２０之５號","OBJECTID":455872},"geometry":{"x":166197.44000000134,"y":2544965.2200000007}},{"attributes":{"ID":455898,"DIS_CODE":0,"TOWNNAME":"中西區","LI":"西湖里","LIN":"32鄰","STREET":"湖美二街","SECT":" ","MAREA":" ","LANE":"１４２巷","ALLEY":" ","HOUSE_NO":"４６號","E_COORD97":166315.98999999999,"N_COORD97":2545054.4500000002,"ADDRESS":"湖美二街１４２巷４６號","OBJECTID":455873},"geometry":{"x":166315.99000000022,"y":2545054.450000003}},{"attributes":{"ID":455899,"DIS_CODE":0,"TOWNNAME":"中西區","LI":"西湖里","LIN":"32鄰","STREET":"湖美二街","SECT":" ","MAREA":" ","LANE":"１４２巷","ALLEY":" ","HOUSE_NO":"２３號","E_COORD97":166263.29000000001,"N_COORD97":2545044.29,"ADDRESS":"湖美二街１４２巷２３號","OBJECTID":455874},"geometry":{"x":166263.29000000004,"y":2545044.2899999991}},{"attributes":{"ID":455900,"DIS_CODE":0,"TOWNNAME":"永康區","LI":"正強里","LIN":"32鄰","STREET":"四維街","SECT":" ","MAREA":" ","LANE":"１９巷","ALLEY":" ","HOUSE_NO":"２號","E_COORD97":173404.92999999999,"N_COORD97":2547966.6400000001,"ADDRESS":"四維街１９巷２號","OBJECTID":455875},"geometry":{"x":173404.93000000063,"y":2547966.6400000006}},{"attributes":{"ID":455901,"DIS_CODE":0,"TOWNNAME":"永康區","LI":"正強里","LIN":"32鄰","STREET":"四維街","SECT":" ","MAREA":" ","LANE":"１９巷","ALLEY":" ","HOUSE_NO":"３號","E_COORD97":173415.28,"N_COORD97":2547961.7400000002,"ADDRESS":"四維街１９巷３號","OBJECTID":455876},"geometry":{"x":173415.28000000026,"y":2547961.7400000002}},{"attributes":{"ID":455902,"DIS_CODE":0,"TOWNNAME":"永康區","LI":"龍潭里","LIN":"32鄰","STREET":"龍國街","SECT":" ","MAREA":" ","LANE":"２４０巷","ALLEY":" ","HOUSE_NO":"１８號四樓","E_COORD97":174475.35000000001,"N_COORD97":2547976.3700000001,"ADDRESS":"龍國街２４０巷１８號四樓","OBJECTID":455877},"geometry":{"x":174475.34999999963,"y":2547976.3700000029}},{"attributes":{"ID":455903,"DIS_CODE":0,"TOWNNAME":"六甲區","LI":"龍湖里","LIN":"6鄰","STREET":"進化街","SECT":" ","MAREA":" ","LANE":" ","ALLEY":" ","HOUSE_NO":"８號","E_COORD97":183016.98999999999,"N_COORD97":2569273.7400000002,"ADDRESS":"進化街８號","OBJECTID":455878},"geometry":{"x":183016.99000000022,"y":2569273.7400000002}},{"attributes":{"ID":455904,"DIS_CODE":0,"TOWNNAME":"東區","LI":"小東里","LIN":"32鄰","STREET":"光明街","SECT":" ","MAREA":" ","LANE":"６６巷","ALLEY":" ","HOUSE_NO":"３９號三樓之４","E_COORD97":170820.35000000001,"N_COORD97":2544176.2999999998,"ADDRESS":"光明街６６巷３９號三樓之４","OBJECTID":455879},"geometry":{"x":170820.34999999963,"y":2544176.3000000026}},{"attributes":{"ID":455905,"DIS_CODE":0,"TOWNNAME":"東區","LI":"小東里","LIN":"32鄰","STREET":"光明街","SECT":" ","MAREA":" ","LANE":"６６巷","ALLEY":" ","HOUSE_NO":"３９號四樓之１１","E_COORD97":170820.35000000001,"N_COORD97":2544176.2999999998,"ADDRESS":"光明街６６巷３９號四樓之１１","OBJECTID":455880},"geometry":{"x":170820.34999999963,"y":2544176.3000000026}},{"attributes":{"ID":455906,"DIS_CODE":0,"TOWNNAME":"東區","LI":"小東里","LIN":"32鄰","STREET":"光明街","SECT":" ","MAREA":" ","LANE":"６６巷","ALLEY":" ","HOUSE_NO":"３９號五樓之１","E_COORD97":170820.35000000001,"N_COORD97":2544176.2999999998,"ADDRESS":"光明街６６巷３９號五樓之１","OBJECTID":455881},"geometry":{"x":170820.34999999963,"y":2544176.3000000026}},{"attributes":{"ID":455907,"DIS_CODE":0,"TOWNNAME":"東區","LI":"小東里","LIN":"32鄰","STREET":"光明街","SECT":" ","MAREA":" ","LANE":"６６巷","ALLEY":" ","HOUSE_NO":"３９號五樓之２","E_COORD97":170820.35000000001,"N_COORD97":2544176.2999999998,"ADDRESS":"光明街６６巷３９號五樓之２","OBJECTID":455882},"geometry":{"x":170820.34999999963,"y":2544176.3000000026}},{"attributes":{"ID":455908,"DIS_CODE":0,"TOWNNAME":"東區","LI":"小東里","LIN":"32鄰","STREET":"光明街","SECT":" ","MAREA":" ","LANE":"６６巷","ALLEY":" ","HOUSE_NO":"３９號七樓之１３","E_COORD97":170820.35000000001,"N_COORD97":2544176.2999999998,"ADDRESS":"光明街６６巷３９號七樓之１３","OBJECTID":455883},"geometry":{"x":170820.34999999963,"y":2544176.3000000026}},{"attributes":{"ID":455909,"DIS_CODE":0,"TOWNNAME":"東區","LI":"小東里","LIN":"32鄰","STREET":"光明街","SECT":" ","MAREA":" ","LANE":"６６巷","ALLEY":" ","HOUSE_NO":"３９號七樓之１４","E_COORD97":170820.35000000001,"N_COORD97":2544176.2999999998,"ADDRESS":"光明街６６巷３９號七樓之１４","OBJECTID":455884},"geometry":{"x":170820.34999999963,"y":2544176.3000000026}},{"attributes":{"ID":455910,"DIS_CODE":0,"TOWNNAME":"東區","LI":"小東里","LIN":"32鄰","STREET":"光明街","SECT":" ","MAREA":" ","LANE":"６６巷","ALLEY":" ","HOUSE_NO":"３９號七樓之１５","E_COORD97":170820.35000000001,"N_COORD97":2544176.2999999998,"ADDRESS":"光明街６６巷３９號七樓之１５","OBJECTID":455885},"geometry":{"x":170820.34999999963,"y":2544176.3000000026}},{"attributes":{"ID":455911,"DIS_CODE":0,"TOWNNAME":"東區","LI":"小東里","LIN":"32鄰","STREET":"光明街","SECT":" ","MAREA":" ","LANE":"６６巷","ALLEY":" ","HOUSE_NO":"３９號五樓之１４","E_COORD97":170820.35000000001,"N_COORD97":2544176.2999999998,"ADDRESS":"光明街６６巷３９號五樓之１４","OBJECTID":455886},"geometry":{"x":170820.34999999963,"y":2544176.3000000026}},{"attributes":{"ID":455912,"DIS_CODE":0,"TOWNNAME":"東區","LI":"小東里","LIN":"32鄰","STREET":"光明街","SECT":" ","MAREA":" ","LANE":"６６巷","ALLEY":" ","HOUSE_NO":"３９號六樓之１４","E_COORD97":170820.35000000001,"N_COORD97":2544176.2999999998,"ADDRESS":"光明街６６巷３９號六樓之１４","OBJECTID":455887},"geometry":{"x":170820.34999999963,"y":2544176.3000000026}},{"attributes":{"ID":455913,"DIS_CODE":0,"TOWNNAME":"東區","LI":"小東里","LIN":"32鄰","STREET":"光明街","SECT":" ","MAREA":" ","LANE":"６６巷","ALLEY":" ","HOUSE_NO":"３９號七樓之３","E_COORD97":170820.35000000001,"N_COORD97":2544176.2999999998,"ADDRESS":"光明街６６巷３９號七樓之３","OBJECTID":455888},"geometry":{"x":170820.34999999963,"y":2544176.3000000026}},{"attributes":{"ID":455914,"DIS_CODE":0,"TOWNNAME":"東區","LI":"小東里","LIN":"32鄰","STREET":"光明街","SECT":" ","MAREA":" ","LANE":"６６巷","ALLEY":" ","HOUSE_NO":"３９號七樓之１０","E_COORD97":170820.35000000001,"N_COORD97":2544176.2999999998,"ADDRESS":"光明街６６巷３９號七樓之１０","OBJECTID":455889},"geometry":{"x":170820.34999999963,"y":2544176.3000000026}},{"attributes":{"ID":455915,"DIS_CODE":0,"TOWNNAME":"東區","LI":"小東里","LIN":"32鄰","STREET":"光明街","SECT":" ","MAREA":" ","LANE":"６６巷","ALLEY":" ","HOUSE_NO":"３９號七樓之１","E_COORD97":170820.35000000001,"N_COORD97":2544176.2999999998,"ADDRESS":"光明街６６巷３９號七樓之１","OBJECTID":455890},"geometry":{"x":170820.34999999963,"y":2544176.3000000026}},{"attributes":{"ID":455916,"DIS_CODE":0,"TOWNNAME":"東區","LI":"小東里","LIN":"32鄰","STREET":"光明街","SECT":" ","MAREA":" ","LANE":"６６巷","ALLEY":" ","HOUSE_NO":"３９號七樓之１１","E_COORD97":170820.35000000001,"N_COORD97":2544176.2999999998,"ADDRESS":"光明街６６巷３９號七樓之１１","OBJECTID":455891},"geometry":{"x":170820.34999999963,"y":2544176.3000000026}},{"attributes":{"ID":455917,"DIS_CODE":0,"TOWNNAME":"東區","LI":"小東里","LIN":"32鄰","STREET":"光明街","SECT":" ","MAREA":" ","LANE":"６６巷","ALLEY":" ","HOUSE_NO":"３９號七樓之１２","E_COORD97":170820.35000000001,"N_COORD97":2544176.2999999998,"ADDRESS":"光明街６６巷３９號七樓之１２","OBJECTID":455892},"geometry":{"x":170820.34999999963,"y":2544176.3000000026}},{"attributes":{"ID":455918,"DIS_CODE":0,"TOWNNAME":"東區","LI":"小東里","LIN":"32鄰","STREET":"光明街","SECT":" ","MAREA":" ","LANE":"６６巷","ALLEY":" ","HOUSE_NO":"３９號七樓之２","E_COORD97":170820.35000000001,"N_COORD97":2544176.2999999998,"ADDRESS":"光明街６６巷３９號七樓之２","OBJECTID":455893},"geometry":{"x":170820.34999999963,"y":2544176.3000000026}},{"attributes":{"ID":455919,"DIS_CODE":0,"TOWNNAME":"東區","LI":"小東里","LIN":"32鄰","STREET":"光明街","SECT":" ","MAREA":" ","LANE":"６６巷","ALLEY":" ","HOUSE_NO":"３９號七樓之４","E_COORD97":170820.35000000001,"N_COORD97":2544176.2999999998,"ADDRESS":"光明街６６巷３９號七樓之４","OBJECTID":455894},"geometry":{"x":170820.34999999963,"y":2544176.3000000026}},{"attributes":{"ID":455920,"DIS_CODE":0,"TOWNNAME":"東區","LI":"小東里","LIN":"32鄰","STREET":"光明街","SECT":" ","MAREA":" ","LANE":"６６巷","ALLEY":" ","HOUSE_NO":"３９號七樓之５","E_COORD97":170820.35000000001,"N_COORD97":2544176.2999999998,"ADDRESS":"光明街６６巷３９號七樓之５","OBJECTID":455895},"geometry":{"x":170820.34999999963,"y":2544176.3000000026}},{"attributes":{"ID":455921,"DIS_CODE":0,"TOWNNAME":"東區","LI":"小東里","LIN":"32鄰","STREET":"光明街","SECT":" ","MAREA":" ","LANE":"６６巷","ALLEY":" ","HOUSE_NO":"３９號七樓之６","E_COORD97":170820.35000000001,"N_COORD97":2544176.2999999998,"ADDRESS":"光明街６６巷３９號七樓之６","OBJECTID":455896},"geometry":{"x":170820.34999999963,"y":2544176.3000000026}},{"attributes":{"ID":455922,"DIS_CODE":0,"TOWNNAME":"東區","LI":"小東里","LIN":"32鄰","STREET":"光明街","SECT":" ","MAREA":" ","LANE":"６６巷","ALLEY":" ","HOUSE_NO":"３９號七樓之７","E_COORD97":170820.35000000001,"N_COORD97":2544176.2999999998,"ADDRESS":"光明街６６巷３９號七樓之７","OBJECTID":455897},"geometry":{"x":170820.34999999963,"y":2544176.3000000026}},{"attributes":{"ID":455923,"DIS_CODE":0,"TOWNNAME":"東區","LI":"小東里","LIN":"32鄰","STREET":"光明街","SECT":" ","MAREA":" ","LANE":"６６巷","ALLEY":" ","HOUSE_NO":"３９號七樓之８","E_COORD97":170820.35000000001,"N_COORD97":2544176.2999999998,"ADDRESS":"光明街６６巷３９號七樓之８","OBJECTID":455898},"geometry":{"x":170820.34999999963,"y":2544176.3000000026}},{"attributes":{"ID":455924,"DIS_CODE":0,"TOWNNAME":"東區","LI":"小東里","LIN":"32鄰","STREET":"光明街","SECT":" ","MAREA":" ","LANE":"６６巷","ALLEY":" ","HOUSE_NO":"３９號七樓之９","E_COORD97":170820.35000000001,"N_COORD97":2544176.2999999998,"ADDRESS":"光明街６６巷３９號七樓之９","OBJECTID":455899},"geometry":{"x":170820.34999999963,"y":2544176.3000000026}},{"attributes":{"ID":455925,"DIS_CODE":0,"TOWNNAME":"東區","LI":"小東里","LIN":"32鄰","STREET":"光明街","SECT":" ","MAREA":" ","LANE":"６６巷","ALLEY":" ","HOUSE_NO":"３９號二樓之２","E_COORD97":170820.35000000001,"N_COORD97":2544176.2999999998,"ADDRESS":"光明街６６巷３９號二樓之２","OBJECTID":455900},"geometry":{"x":170820.34999999963,"y":2544176.3000000026}},{"attributes":{"ID":455926,"DIS_CODE":0,"TOWNNAME":"東區","LI":"小東里","LIN":"32鄰","STREET":"光明街","SECT":" ","MAREA":" ","LANE":"６６巷","ALLEY":" ","HOUSE_NO":"３９號二樓之３","E_COORD97":170820.35000000001,"N_COORD97":2544176.2999999998,"ADDRESS":"光明街６６巷３９號二樓之３","OBJECTID":455901},"geometry":{"x":170820.34999999963,"y":2544176.3000000026}},{"attributes":{"ID":455927,"DIS_CODE":0,"TOWNNAME":"東區","LI":"小東里","LIN":"32鄰","STREET":"光明街","SECT":" ","MAREA":" ","LANE":"６６巷","ALLEY":" ","HOUSE_NO":"３９號二樓之４","E_COORD97":170820.35000000001,"N_COORD97":2544176.2999999998,"ADDRESS":"光明街６６巷３９號二樓之４","OBJECTID":455902},"geometry":{"x":170820.34999999963,"y":2544176.3000000026}},{"attributes":{"ID":455928,"DIS_CODE":0,"TOWNNAME":"東區","LI":"小東里","LIN":"32鄰","STREET":"光明街","SECT":" ","MAREA":" ","LANE":"６６巷","ALLEY":" ","HOUSE_NO":"３９號二樓之５","E_COORD97":170820.35000000001,"N_COORD97":2544176.2999999998,"ADDRESS":"光明街６６巷３９號二樓之５","OBJECTID":455903},"geometry":{"x":170820.34999999963,"y":2544176.3000000026}},{"attributes":{"ID":455929,"DIS_CODE":0,"TOWNNAME":"東區","LI":"小東里","LIN":"32鄰","STREET":"光明街","SECT":" ","MAREA":" ","LANE":"６６巷","ALLEY":" ","HOUSE_NO":"３９號二樓之６","E_COORD97":170820.35000000001,"N_COORD97":2544176.2999999998,"ADDRESS":"光明街６６巷３９號二樓之６","OBJECTID":455904},"geometry":{"x":170820.34999999963,"y":2544176.3000000026}},{"attributes":{"ID":455930,"DIS_CODE":0,"TOWNNAME":"東區","LI":"小東里","LIN":"32鄰","STREET":"光明街","SECT":" ","MAREA":" ","LANE":"６６巷","ALLEY":" ","HOUSE_NO":"３９號二樓之７","E_COORD97":170820.35000000001,"N_COORD97":2544176.2999999998,"ADDRESS":"光明街６６巷３９號二樓之７","OBJECTID":455905},"geometry":{"x":170820.34999999963,"y":2544176.3000000026}},{"attributes":{"ID":455931,"DIS_CODE":0,"TOWNNAME":"東區","LI":"小東里","LIN":"32鄰","STREET":"光明街","SECT":" ","MAREA":" ","LANE":"６６巷","ALLEY":" ","HOUSE_NO":"３９號三樓之１","E_COORD97":170820.35000000001,"N_COORD97":2544176.2999999998,"ADDRESS":"光明街６６巷３９號三樓之１","OBJECTID":455906},"geometry":{"x":170820.34999999963,"y":2544176.3000000026}},{"attributes":{"ID":455932,"DIS_CODE":0,"TOWNNAME":"東區","LI":"小東里","LIN":"32鄰","STREET":"光明街","SECT":" ","MAREA":" ","LANE":"６６巷","ALLEY":" ","HOUSE_NO":"３９號三樓之２","E_COORD97":170820.35000000001,"N_COORD97":2544176.2999999998,"ADDRESS":"光明街６６巷３９號三樓之２","OBJECTID":455907},"geometry":{"x":170820.34999999963,"y":2544176.3000000026}},{"attributes":{"ID":455933,"DIS_CODE":0,"TOWNNAME":"東區","LI":"小東里","LIN":"32鄰","STREET":"光明街","SECT":" ","MAREA":" ","LANE":"６６巷","ALLEY":" ","HOUSE_NO":"３９號三樓之３","E_COORD97":170820.35000000001,"N_COORD97":2544176.2999999998,"ADDRESS":"光明街６６巷３９號三樓之３","OBJECTID":455908},"geometry":{"x":170820.34999999963,"y":2544176.3000000026}},{"attributes":{"ID":455934,"DIS_CODE":0,"TOWNNAME":"東區","LI":"小東里","LIN":"32鄰","STREET":"光明街","SECT":" ","MAREA":" ","LANE":"６６巷","ALLEY":" ","HOUSE_NO":"３９號三樓之５","E_COORD97":170820.35000000001,"N_COORD97":2544176.2999999998,"ADDRESS":"光明街６６巷３９號三樓之５","OBJECTID":455909},"geometry":{"x":170820.34999999963,"y":2544176.3000000026}},{"attributes":{"ID":455935,"DIS_CODE":0,"TOWNNAME":"東區","LI":"小東里","LIN":"32鄰","STREET":"光明街","SECT":" ","MAREA":" ","LANE":"６６巷","ALLEY":" ","HOUSE_NO":"３９號三樓之６","E_COORD97":170820.35000000001,"N_COORD97":2544176.2999999998,"ADDRESS":"光明街６６巷３９號三樓之６","OBJECTID":455910},"geometry":{"x":170820.34999999963,"y":2544176.3000000026}},{"attributes":{"ID":455936,"DIS_CODE":0,"TOWNNAME":"東區","LI":"小東里","LIN":"32鄰","STREET":"光明街","SECT":" ","MAREA":" ","LANE":"６６巷","ALLEY":" ","HOUSE_NO":"３９號三樓之７","E_COORD97":170820.35000000001,"N_COORD97":2544176.2999999998,"ADDRESS":"光明街６６巷３９號三樓之７","OBJECTID":455911},"geometry":{"x":170820.34999999963,"y":2544176.3000000026}},{"attributes":{"ID":455937,"DIS_CODE":0,"TOWNNAME":"東區","LI":"小東里","LIN":"32鄰","STREET":"光明街","SECT":" ","MAREA":" ","LANE":"６６巷","ALLEY":" ","HOUSE_NO":"３９號五樓之１０","E_COORD97":170820.35000000001,"N_COORD97":2544176.2999999998,"ADDRESS":"光明街６６巷３９號五樓之１０","OBJECTID":455912},"geometry":{"x":170820.34999999963,"y":2544176.3000000026}},{"attributes":{"ID":455938,"DIS_CODE":0,"TOWNNAME":"東區","LI":"小東里","LIN":"32鄰","STREET":"光明街","SECT":" ","MAREA":" ","LANE":"６６巷","ALLEY":" ","HOUSE_NO":"３９號五樓之１１","E_COORD97":170820.35000000001,"N_COORD97":2544176.2999999998,"ADDRESS":"光明街６６巷３９號五樓之１１","OBJECTID":455913},"geometry":{"x":170820.34999999963,"y":2544176.3000000026}},{"attributes":{"ID":455939,"DIS_CODE":0,"TOWNNAME":"東區","LI":"小東里","LIN":"32鄰","STREET":"光明街","SECT":" ","MAREA":" ","LANE":"６６巷","ALLEY":" ","HOUSE_NO":"３９號五樓之１２","E_COORD97":170820.35000000001,"N_COORD97":2544176.2999999998,"ADDRESS":"光明街６６巷３９號五樓之１２","OBJECTID":455914},"geometry":{"x":170820.34999999963,"y":2544176.3000000026}},{"attributes":{"ID":455940,"DIS_CODE":0,"TOWNNAME":"東區","LI":"小東里","LIN":"32鄰","STREET":"光明街","SECT":" ","MAREA":" ","LANE":"６６巷","ALLEY":" ","HOUSE_NO":"３９號五樓之１３","E_COORD97":170820.35000000001,"N_COORD97":2544176.2999999998,"ADDRESS":"光明街６６巷３９號五樓之１３","OBJECTID":455915},"geometry":{"x":170820.34999999963,"y":2544176.3000000026}},{"attributes":{"ID":455941,"DIS_CODE":0,"TOWNNAME":"東區","LI":"小東里","LIN":"32鄰","STREET":"光明街","SECT":" ","MAREA":" ","LANE":"６６巷","ALLEY":" ","HOUSE_NO":"３９號五樓之１５","E_COORD97":170820.35000000001,"N_COORD97":2544176.2999999998,"ADDRESS":"光明街６６巷３９號五樓之１５","OBJECTID":455916},"geometry":{"x":170820.34999999963,"y":2544176.3000000026}},{"attributes":{"ID":455942,"DIS_CODE":0,"TOWNNAME":"東區","LI":"小東里","LIN":"32鄰","STREET":"光明街","SECT":" ","MAREA":" ","LANE":"６６巷","ALLEY":" ","HOUSE_NO":"３９號五樓之３","E_COORD97":170820.35000000001,"N_COORD97":2544176.2999999998,"ADDRESS":"光明街６６巷３９號五樓之３","OBJECTID":455917},"geometry":{"x":170820.34999999963,"y":2544176.3000000026}},{"attributes":{"ID":455943,"DIS_CODE":0,"TOWNNAME":"東區","LI":"小東里","LIN":"32鄰","STREET":"光明街","SECT":" ","MAREA":" ","LANE":"６６巷","ALLEY":" ","HOUSE_NO":"３９號五樓之４","E_COORD97":170820.35000000001,"N_COORD97":2544176.2999999998,"ADDRESS":"光明街６６巷３９號五樓之４","OBJECTID":455918},"geometry":{"x":170820.34999999963,"y":2544176.3000000026}},{"attributes":{"ID":455944,"DIS_CODE":0,"TOWNNAME":"東區","LI":"小東里","LIN":"32鄰","STREET":"光明街","SECT":" ","MAREA":" ","LANE":"６６巷","ALLEY":" ","HOUSE_NO":"３９號五樓之５","E_COORD97":170820.35000000001,"N_COORD97":2544176.2999999998,"ADDRESS":"光明街６６巷３９號五樓之５","OBJECTID":455919},"geometry":{"x":170820.34999999963,"y":2544176.3000000026}},{"attributes":{"ID":455945,"DIS_CODE":0,"TOWNNAME":"東區","LI":"小東里","LIN":"32鄰","STREET":"光明街","SECT":" ","MAREA":" ","LANE":"６６巷","ALLEY":" ","HOUSE_NO":"３９號五樓之６","E_COORD97":170820.35000000001,"N_COORD97":2544176.2999999998,"ADDRESS":"光明街６６巷３９號五樓之６","OBJECTID":455920},"geometry":{"x":170820.34999999963,"y":2544176.3000000026}},{"attributes":{"ID":455946,"DIS_CODE":0,"TOWNNAME":"東區","LI":"小東里","LIN":"32鄰","STREET":"光明街","SECT":" ","MAREA":" ","LANE":"６６巷","ALLEY":" ","HOUSE_NO":"３９號五樓之７","E_COORD97":170820.35000000001,"N_COORD97":2544176.2999999998,"ADDRESS":"光明街６６巷３９號五樓之７","OBJECTID":455921},"geometry":{"x":170820.34999999963,"y":2544176.3000000026}},{"attributes":{"ID":455947,"DIS_CODE":0,"TOWNNAME":"東區","LI":"小東里","LIN":"32鄰","STREET":"光明街","SECT":" ","MAREA":" ","LANE":"６６巷","ALLEY":" ","HOUSE_NO":"３９號五樓之８","E_COORD97":170820.35000000001,"N_COORD97":2544176.2999999998,"ADDRESS":"光明街６６巷３９號五樓之８","OBJECTID":455922},"geometry":{"x":170820.34999999963,"y":2544176.3000000026}},{"attributes":{"ID":455948,"DIS_CODE":0,"TOWNNAME":"東區","LI":"小東里","LIN":"32鄰","STREET":"光明街","SECT":" ","MAREA":" ","LANE":"６６巷","ALLEY":" ","HOUSE_NO":"３９號五樓之９","E_COORD97":170820.35000000001,"N_COORD97":2544176.2999999998,"ADDRESS":"光明街６６巷３９號五樓之９","OBJECTID":455923},"geometry":{"x":170820.34999999963,"y":2544176.3000000026}},{"attributes":{"ID":455949,"DIS_CODE":0,"TOWNNAME":"東區","LI":"小東里","LIN":"32鄰","STREET":"光明街","SECT":" ","MAREA":" ","LANE":"６６巷","ALLEY":" ","HOUSE_NO":"３９號六樓之１","E_COORD97":170820.35000000001,"N_COORD97":2544176.2999999998,"ADDRESS":"光明街６６巷３９號六樓之１","OBJECTID":455924},"geometry":{"x":170820.34999999963,"y":2544176.3000000026}},{"attributes":{"ID":455950,"DIS_CODE":0,"TOWNNAME":"東區","LI":"小東里","LIN":"32鄰","STREET":"光明街","SECT":" ","MAREA":" ","LANE":"６６巷","ALLEY":" ","HOUSE_NO":"３９號六樓之１０","E_COORD97":170820.35000000001,"N_COORD97":2544176.2999999998,"ADDRESS":"光明街６６巷３９號六樓之１０","OBJECTID":455925},"geometry":{"x":170820.34999999963,"y":2544176.3000000026}},{"attributes":{"ID":455951,"DIS_CODE":0,"TOWNNAME":"東區","LI":"小東里","LIN":"32鄰","STREET":"光明街","SECT":" ","MAREA":" ","LANE":"６６巷","ALLEY":" ","HOUSE_NO":"３９號六樓之１１","E_COORD97":170820.35000000001,"N_COORD97":2544176.2999999998,"ADDRESS":"光明街６６巷３９號六樓之１１","OBJECTID":455926},"geometry":{"x":170820.34999999963,"y":2544176.3000000026}},{"attributes":{"ID":455952,"DIS_CODE":0,"TOWNNAME":"東區","LI":"小東里","LIN":"32鄰","STREET":"光明街","SECT":" ","MAREA":" ","LANE":"６６巷","ALLEY":" ","HOUSE_NO":"３９號六樓之１２","E_COORD97":170820.35000000001,"N_COORD97":2544176.2999999998,"ADDRESS":"光明街６６巷３９號六樓之１２","OBJECTID":455927},"geometry":{"x":170820.34999999963,"y":2544176.3000000026}},{"attributes":{"ID":455953,"DIS_CODE":0,"TOWNNAME":"東區","LI":"崇文里","LIN":"40鄰","STREET":"生產路","SECT":" ","MAREA":" ","LANE":" ","ALLEY":" ","HOUSE_NO":"２７５號四樓","E_COORD97":170911.67999999999,"N_COORD97":2540618.3100000001,"ADDRESS":"生產路２７５號四樓","OBJECTID":455928},"geometry":{"x":170911.6799999997,"y":2540618.3100000005}},{"attributes":{"ID":455954,"DIS_CODE":0,"TOWNNAME":"東區","LI":"小東里","LIN":"32鄰","STREET":"光明街","SECT":" ","MAREA":" ","LANE":"６６巷","ALLEY":" ","HOUSE_NO":"３９號六樓之１３","E_COORD97":170820.35000000001,"N_COORD97":2544176.2999999998,"ADDRESS":"光明街６６巷３９號六樓之１３","OBJECTID":455929},"geometry":{"x":170820.34999999963,"y":2544176.3000000026}},{"attributes":{"ID":455955,"DIS_CODE":0,"TOWNNAME":"東區","LI":"小東里","LIN":"32鄰","STREET":"光明街","SECT":" ","MAREA":" ","LANE":"６６巷","ALLEY":" ","HOUSE_NO":"３９號六樓之１５","E_COORD97":170820.35000000001,"N_COORD97":2544176.2999999998,"ADDRESS":"光明街６６巷３９號六樓之１５","OBJECTID":455930},"geometry":{"x":170820.34999999963,"y":2544176.3000000026}},{"attributes":{"ID":455956,"DIS_CODE":0,"TOWNNAME":"東區","LI":"小東里","LIN":"32鄰","STREET":"光明街","SECT":" ","MAREA":" ","LANE":"６６巷","ALLEY":" ","HOUSE_NO":"３９號六樓之２","E_COORD97":170820.35000000001,"N_COORD97":2544176.2999999998,"ADDRESS":"光明街６６巷３９號六樓之２","OBJECTID":455931},"geometry":{"x":170820.34999999963,"y":2544176.3000000026}},{"attributes":{"ID":455957,"DIS_CODE":0,"TOWNNAME":"東區","LI":"小東里","LIN":"32鄰","STREET":"光明街","SECT":" ","MAREA":" ","LANE":"６６巷","ALLEY":" ","HOUSE_NO":"３９號六樓之３","E_COORD97":170820.35000000001,"N_COORD97":2544176.2999999998,"ADDRESS":"光明街６６巷３９號六樓之３","OBJECTID":455932},"geometry":{"x":170820.34999999963,"y":2544176.3000000026}},{"attributes":{"ID":455958,"DIS_CODE":0,"TOWNNAME":"東區","LI":"小東里","LIN":"32鄰","STREET":"光明街","SECT":" ","MAREA":" ","LANE":"６６巷","ALLEY":" ","HOUSE_NO":"３９號六樓之４","E_COORD97":170820.35000000001,"N_COORD97":2544176.2999999998,"ADDRESS":"光明街６６巷３９號六樓之４","OBJECTID":455933},"geometry":{"x":170820.34999999963,"y":2544176.3000000026}},{"attributes":{"ID":455959,"DIS_CODE":0,"TOWNNAME":"東區","LI":"小東里","LIN":"32鄰","STREET":"光明街","SECT":" ","MAREA":" ","LANE":"６６巷","ALLEY":" ","HOUSE_NO":"３９號六樓之５","E_COORD97":170820.35000000001,"N_COORD97":2544176.2999999998,"ADDRESS":"光明街６６巷３９號六樓之５","OBJECTID":455934},"geometry":{"x":170820.34999999963,"y":2544176.3000000026}},{"attributes":{"ID":455960,"DIS_CODE":0,"TOWNNAME":"東區","LI":"小東里","LIN":"32鄰","STREET":"光明街","SECT":" ","MAREA":" ","LANE":"６６巷","ALLEY":" ","HOUSE_NO":"３９號六樓之６","E_COORD97":170820.35000000001,"N_COORD97":2544176.2999999998,"ADDRESS":"光明街６６巷３９號六樓之６","OBJECTID":455935},"geometry":{"x":170820.34999999963,"y":2544176.3000000026}},{"attributes":{"ID":455961,"DIS_CODE":0,"TOWNNAME":"東區","LI":"小東里","LIN":"32鄰","STREET":"光明街","SECT":" ","MAREA":" ","LANE":"６６巷","ALLEY":" ","HOUSE_NO":"３９號六樓之７","E_COORD97":170820.35000000001,"N_COORD97":2544176.2999999998,"ADDRESS":"光明街６６巷３９號六樓之７","OBJECTID":455936},"geometry":{"x":170820.34999999963,"y":2544176.3000000026}},{"attributes":{"ID":455962,"DIS_CODE":0,"TOWNNAME":"東區","LI":"小東里","LIN":"32鄰","STREET":"光明街","SECT":" ","MAREA":" ","LANE":"６６巷","ALLEY":" ","HOUSE_NO":"３９號六樓之８","E_COORD97":170820.35000000001,"N_COORD97":2544176.2999999998,"ADDRESS":"光明街６６巷３９號六樓之８","OBJECTID":455937},"geometry":{"x":170820.34999999963,"y":2544176.3000000026}},{"attributes":{"ID":455963,"DIS_CODE":0,"TOWNNAME":"東區","LI":"小東里","LIN":"32鄰","STREET":"光明街","SECT":" ","MAREA":" ","LANE":"６６巷","ALLEY":" ","HOUSE_NO":"３９號六樓之９","E_COORD97":170820.35000000001,"N_COORD97":2544176.2999999998,"ADDRESS":"光明街６６巷３９號六樓之９","OBJECTID":455938},"geometry":{"x":170820.34999999963,"y":2544176.3000000026}},{"attributes":{"ID":455964,"DIS_CODE":0,"TOWNNAME":"東區","LI":"小東里","LIN":"32鄰","STREET":"光明街","SECT":" ","MAREA":" ","LANE":"６６巷","ALLEY":" ","HOUSE_NO":"３９號四樓之１","E_COORD97":170820.35000000001,"N_COORD97":2544176.2999999998,"ADDRESS":"光明街６６巷３９號四樓之１","OBJECTID":455939},"geometry":{"x":170820.34999999963,"y":2544176.3000000026}},{"attributes":{"ID":455965,"DIS_CODE":0,"TOWNNAME":"東區","LI":"小東里","LIN":"32鄰","STREET":"光明街","SECT":" ","MAREA":" ","LANE":"６６巷","ALLEY":" ","HOUSE_NO":"３９號四樓之１０","E_COORD97":170820.35000000001,"N_COORD97":2544176.2999999998,"ADDRESS":"光明街６６巷３９號四樓之１０","OBJECTID":455940},"geometry":{"x":170820.34999999963,"y":2544176.3000000026}},{"attributes":{"ID":455966,"DIS_CODE":0,"TOWNNAME":"東區","LI":"小東里","LIN":"32鄰","STREET":"光明街","SECT":" ","MAREA":" ","LANE":"６６巷","ALLEY":" ","HOUSE_NO":"３９號四樓之１２","E_COORD97":170820.35000000001,"N_COORD97":2544176.2999999998,"ADDRESS":"光明街６６巷３９號四樓之１２","OBJECTID":455941},"geometry":{"x":170820.34999999963,"y":2544176.3000000026}},{"attributes":{"ID":455967,"DIS_CODE":0,"TOWNNAME":"東區","LI":"小東里","LIN":"32鄰","STREET":"光明街","SECT":" ","MAREA":" ","LANE":"６６巷","ALLEY":" ","HOUSE_NO":"３９號四樓之１３","E_COORD97":170820.35000000001,"N_COORD97":2544176.2999999998,"ADDRESS":"光明街６６巷３９號四樓之１３","OBJECTID":455942},"geometry":{"x":170820.34999999963,"y":2544176.3000000026}},{"attributes":{"ID":455968,"DIS_CODE":0,"TOWNNAME":"東區","LI":"小東里","LIN":"32鄰","STREET":"光明街","SECT":" ","MAREA":" ","LANE":"６６巷","ALLEY":" ","HOUSE_NO":"３９號四樓之１４","E_COORD97":170820.35000000001,"N_COORD97":2544176.2999999998,"ADDRESS":"光明街６６巷３９號四樓之１４","OBJECTID":455943},"geometry":{"x":170820.34999999963,"y":2544176.3000000026}},{"attributes":{"ID":455969,"DIS_CODE":0,"TOWNNAME":"東區","LI":"小東里","LIN":"32鄰","STREET":"光明街","SECT":" ","MAREA":" ","LANE":"６６巷","ALLEY":" ","HOUSE_NO":"３９號四樓之１５","E_COORD97":170820.35000000001,"N_COORD97":2544176.2999999998,"ADDRESS":"光明街６６巷３９號四樓之１５","OBJECTID":455944},"geometry":{"x":170820.34999999963,"y":2544176.3000000026}},{"attributes":{"ID":455970,"DIS_CODE":0,"TOWNNAME":"東區","LI":"小東里","LIN":"32鄰","STREET":"光明街","SECT":" ","MAREA":" ","LANE":"６６巷","ALLEY":" ","HOUSE_NO":"３９號四樓之２","E_COORD97":170820.35000000001,"N_COORD97":2544176.2999999998,"ADDRESS":"光明街６６巷３９號四樓之２","OBJECTID":455945},"geometry":{"x":170820.34999999963,"y":2544176.3000000026}},{"attributes":{"ID":455971,"DIS_CODE":0,"TOWNNAME":"東區","LI":"小東里","LIN":"32鄰","STREET":"光明街","SECT":" ","MAREA":" ","LANE":"６６巷","ALLEY":" ","HOUSE_NO":"３９號四樓之１６","E_COORD97":170820.35000000001,"N_COORD97":2544176.2999999998,"ADDRESS":"光明街６６巷３９號四樓之１６","OBJECTID":455946},"geometry":{"x":170820.34999999963,"y":2544176.3000000026}},{"attributes":{"ID":455972,"DIS_CODE":0,"TOWNNAME":"東區","LI":"小東里","LIN":"32鄰","STREET":"光明街","SECT":" ","MAREA":" ","LANE":"６６巷","ALLEY":" ","HOUSE_NO":"３９號四樓之５","E_COORD97":170820.35000000001,"N_COORD97":2544176.2999999998,"ADDRESS":"光明街６６巷３９號四樓之５","OBJECTID":455947},"geometry":{"x":170820.34999999963,"y":2544176.3000000026}},{"attributes":{"ID":455973,"DIS_CODE":0,"TOWNNAME":"永康區","LI":"正強里","LIN":"32鄰","STREET":"四維街","SECT":" ","MAREA":" ","LANE":"５巷","ALLEY":" ","HOUSE_NO":"２０號","E_COORD97":173405.5,"N_COORD97":2547936.6499999999,"ADDRESS":"四維街５巷２０號","OBJECTID":455948},"geometry":{"x":173405.5,"y":2547936.6500000022}},{"attributes":{"ID":455974,"DIS_CODE":0,"TOWNNAME":"東區","LI":"小東里","LIN":"32鄰","STREET":"光明街","SECT":" ","MAREA":" ","LANE":"６６巷","ALLEY":" ","HOUSE_NO":"３９號四樓之７","E_COORD97":170820.35000000001,"N_COORD97":2544176.2999999998,"ADDRESS":"光明街６６巷３９號四樓之７","OBJECTID":455949},"geometry":{"x":170820.34999999963,"y":2544176.3000000026}},{"attributes":{"ID":455975,"DIS_CODE":0,"TOWNNAME":"永康區","LI":"二王里","LIN":"32鄰","STREET":"中山南路","SECT":" ","MAREA":" ","LANE":"４９０巷","ALLEY":" ","HOUSE_NO":"２５號","E_COORD97":172164.59,"N_COORD97":2546361.48,"ADDRESS":"中山南路４９０巷２５號","OBJECTID":455950},"geometry":{"x":172164.59000000078,"y":2546361.4800000023}},{"attributes":{"ID":455976,"DIS_CODE":0,"TOWNNAME":"永康區","LI":"五王里","LIN":"32鄰","STREET":"中華路","SECT":" ","MAREA":" ","LANE":"５７８巷","ALLEY":" ","HOUSE_NO":"２號之４","E_COORD97":171248.20000000001,"N_COORD97":2545920.0499999998,"ADDRESS":"中華路５７８巷２號之４","OBJECTID":455951},"geometry":{"x":171248.20000000205,"y":2545920.0500000045}},{"attributes":{"ID":455977,"DIS_CODE":0,"TOWNNAME":"永康區","LI":"復華里","LIN":"32鄰","STREET":"國華街","SECT":" ","MAREA":" ","LANE":"１６２巷","ALLEY":" ","HOUSE_NO":"１４號","E_COORD97":172592.48000000001,"N_COORD97":2546332,"ADDRESS":"國華街１６２巷１４號","OBJECTID":455952},"geometry":{"x":172592.47999999952,"y":2546332}},{"attributes":{"ID":455978,"DIS_CODE":0,"TOWNNAME":"永康區","LI":"崑山里","LIN":"32鄰","STREET":"大灣路","SECT":" ","MAREA":" ","LANE":"７９８巷","ALLEY":" ","HOUSE_NO":"７２號","E_COORD97":174106.45999999999,"N_COORD97":2544779.8700000001,"ADDRESS":"大灣路７９８巷７２號","OBJECTID":455953},"geometry":{"x":174106.46000000089,"y":2544779.8700000029}},{"attributes":{"ID":455979,"DIS_CODE":0,"TOWNNAME":"永康區","LI":"復華里","LIN":"32鄰","STREET":"國華街","SECT":" ","MAREA":" ","LANE":"１２５巷","ALLEY":" ","HOUSE_NO":"１２號","E_COORD97":172562.87,"N_COORD97":2546279.4900000002,"ADDRESS":"國華街１２５巷１２號","OBJECTID":455954},"geometry":{"x":172562.87000000104,"y":2546279.4900000021}},{"attributes":{"ID":455980,"DIS_CODE":0,"TOWNNAME":"永康區","LI":"復華里","LIN":"32鄰","STREET":"國華街","SECT":" ","MAREA":" ","LANE":"１２５巷","ALLEY":" ","HOUSE_NO":"１６號","E_COORD97":172557.51000000001,"N_COORD97":2546270.9900000002,"ADDRESS":"國華街１２５巷１６號","OBJECTID":455955},"geometry":{"x":172557.50999999978,"y":2546270.9900000002}},{"attributes":{"ID":455981,"DIS_CODE":0,"TOWNNAME":"永康區","LI":"復國里","LIN":"32鄰","STREET":"復華一街","SECT":" ","MAREA":" ","LANE":"２８巷","ALLEY":" ","HOUSE_NO":"１２號","E_COORD97":172660.85000000001,"N_COORD97":2545165.2799999998,"ADDRESS":"復華一街２８巷１２號","OBJECTID":455956},"geometry":{"x":172660.85000000056,"y":2545165.2800000012}},{"attributes":{"ID":455982,"DIS_CODE":0,"TOWNNAME":"永康區","LI":"復華里","LIN":"32鄰","STREET":"國華街","SECT":" ","MAREA":" ","LANE":"１２７巷","ALLEY":" ","HOUSE_NO":"１３號","E_COORD97":172540.04000000001,"N_COORD97":2546282.2000000002,"ADDRESS":"國華街１２７巷１３號","OBJECTID":455957},"geometry":{"x":172540.04000000097,"y":2546282.1999999993}},{"attributes":{"ID":455983,"DIS_CODE":0,"TOWNNAME":"永康區","LI":"復華里","LIN":"32鄰","STREET":"國華街","SECT":" ","MAREA":" ","LANE":"１２７巷","ALLEY":" ","HOUSE_NO":"１１號","E_COORD97":172542.59,"N_COORD97":2546286.2000000002,"ADDRESS":"國華街１２７巷１１號","OBJECTID":455958},"geometry":{"x":172542.59000000078,"y":2546286.1999999993}},{"attributes":{"ID":455984,"DIS_CODE":0,"TOWNNAME":"永康區","LI":"復國里","LIN":"32鄰","STREET":"復華一街","SECT":" ","MAREA":" ","LANE":"１９巷","ALLEY":" ","HOUSE_NO":"１９號","E_COORD97":172652.75,"N_COORD97":2544991.0299999998,"ADDRESS":"復華一街１９巷１９號","OBJECTID":455959},"geometry":{"x":172652.75,"y":2544991.0300000012}},{"attributes":{"ID":455985,"DIS_CODE":0,"TOWNNAME":"永康區","LI":"埔園里","LIN":"32鄰","STREET":"龍埔街","SECT":" ","MAREA":" ","LANE":"２９１巷","ALLEY":" ","HOUSE_NO":"７號","E_COORD97":173950.97,"N_COORD97":2548281.75,"ADDRESS":"龍埔街２９１巷７號","OBJECTID":455960},"geometry":{"x":173950.96999999974,"y":2548281.7500000019}},{"attributes":{"ID":455986,"DIS_CODE":0,"TOWNNAME":"永康區","LI":"北灣里","LIN":"8鄰","STREET":"大同街","SECT":" ","MAREA":" ","LANE":"１２８巷","ALLEY":" ","HOUSE_NO":"６號","E_COORD97":175025.29000000001,"N_COORD97":2545557.6099999999,"ADDRESS":"大同街１２８巷６號","OBJECTID":455961},"geometry":{"x":175025.29000000004,"y":2545557.6099999994}},{"attributes":{"ID":455987,"DIS_CODE":0,"TOWNNAME":"安南區","LI":"\u25A0南里","LIN":"32鄰","STREET":"安昌街","SECT":" ","MAREA":" ","LANE":"１７４巷","ALLEY":" ","HOUSE_NO":"４７號","E_COORD97":170119.17999999999,"N_COORD97":2552322.0299999998,"ADDRESS":"安昌街１７４巷４７號","OBJECTID":455962},"geometry":{"x":170119.18000000063,"y":2552322.0299999993}},{"attributes":{"ID":455988,"DIS_CODE":0,"TOWNNAME":"安南區","LI":"\u25A0南里","LIN":"32鄰","STREET":"安昌街","SECT":" ","MAREA":" ","LANE":"１７４巷","ALLEY":" ","HOUSE_NO":"３１號","E_COORD97":170119.01999999999,"N_COORD97":2552366.9500000002,"ADDRESS":"安昌街１７４巷３１號","OBJECTID":455963},"geometry":{"x":170119.01999999955,"y":2552366.9499999993}},{"attributes":{"ID":455989,"DIS_CODE":0,"TOWNNAME":"安南區","LI":"\u25A0南里","LIN":"32鄰","STREET":"安昌街","SECT":" ","MAREA":" ","LANE":"１７４巷","ALLEY":" ","HOUSE_NO":"１號","E_COORD97":170111.53,"N_COORD97":2552448.6800000002,"ADDRESS":"安昌街１７４巷１號","OBJECTID":455964},"geometry":{"x":170111.53000000026,"y":2552448.6800000016}},{"attributes":{"ID":455990,"DIS_CODE":0,"TOWNNAME":"安南區","LI":"\u25A0南里","LIN":"32鄰","STREET":"安昌街","SECT":" ","MAREA":" ","LANE":"１７４巷","ALLEY":" ","HOUSE_NO":"２３號","E_COORD97":170120.42999999999,"N_COORD97":2552385.1800000002,"ADDRESS":"安昌街１７４巷２３號","OBJECTID":455965},"geometry":{"x":170120.42999999877,"y":2552385.1799999997}},{"attributes":{"ID":455991,"DIS_CODE":0,"TOWNNAME":"安南區","LI":"\u25A0南里","LIN":"32鄰","STREET":"安昌街","SECT":" ","MAREA":" ","LANE":"１７４巷","ALLEY":" ","HOUSE_NO":"２９號","E_COORD97":170118.54999999999,"N_COORD97":2552374.1899999999,"ADDRESS":"安昌街１７４巷２９號","OBJECTID":455966},"geometry":{"x":170118.55000000075,"y":2552374.1900000013}},{"attributes":{"ID":455992,"DIS_CODE":0,"TOWNNAME":"安南區","LI":"\u25A0南里","LIN":"32鄰","STREET":"安昌街","SECT":" ","MAREA":" ","LANE":"１７４巷","ALLEY":" ","HOUSE_NO":"５９號","E_COORD97":170121.12,"N_COORD97":2552291.4199999999,"ADDRESS":"安昌街１７４巷５９號","OBJECTID":455967},"geometry":{"x":170121.12000000011,"y":2552291.4200000018}},{"attributes":{"ID":455993,"DIS_CODE":0,"TOWNNAME":"永康區","LI":"龍潭里","LIN":"6鄰","STREET":"龍埔街","SECT":" ","MAREA":" ","LANE":" ","ALLEY":" ","HOUSE_NO":"２號","E_COORD97":174861.19,"N_COORD97":2548192,"ADDRESS":"龍埔街２號","OBJECTID":455968},"geometry":{"x":174861.19000000134,"y":2548192.0000000019}},{"attributes":{"ID":455994,"DIS_CODE":0,"TOWNNAME":"安南區","LI":"\u25A0南里","LIN":"32鄰","STREET":"安昌街","SECT":" ","MAREA":" ","LANE":"１７４巷","ALLEY":" ","HOUSE_NO":"５號","E_COORD97":170112,"N_COORD97":2552436.0600000001,"ADDRESS":"安昌街１７４巷５號","OBJECTID":455969},"geometry":{"x":170112.00000000186,"y":2552436.0600000042}},{"attributes":{"ID":455995,"DIS_CODE":0,"TOWNNAME":"安南區","LI":"\u25A0南里","LIN":"32鄰","STREET":"安昌街","SECT":" ","MAREA":" ","LANE":"１７４巷","ALLEY":" ","HOUSE_NO":"７號","E_COORD97":170110.12,"N_COORD97":2552427.8700000001,"ADDRESS":"安昌街１７４巷７號","OBJECTID":455970},"geometry":{"x":170110.12000000104,"y":2552427.8700000029}},{"attributes":{"ID":455996,"DIS_CODE":0,"TOWNNAME":"仁德區","LI":"後壁里","LIN":"32鄰","STREET":"德洋路","SECT":" ","MAREA":" ","LANE":"２２７巷","ALLEY":" ","HOUSE_NO":"３０號","E_COORD97":172472.26000000001,"N_COORD97":2539577.02,"ADDRESS":"德洋路２２７巷３０號","OBJECTID":455971},"geometry":{"x":172472.25999999978,"y":2539577.0200000014}},{"attributes":{"ID":455997,"DIS_CODE":0,"TOWNNAME":"仁德區","LI":"後壁里","LIN":"32鄰","STREET":"德洋路","SECT":" ","MAREA":" ","LANE":"２２７巷","ALLEY":" ","HOUSE_NO":"２４號","E_COORD97":172477.98999999999,"N_COORD97":2539565.2599999998,"ADDRESS":"德洋路２２７巷２４號","OBJECTID":455972},"geometry":{"x":172477.99000000022,"y":2539565.2600000016}},{"attributes":{"ID":455998,"DIS_CODE":0,"TOWNNAME":"仁德區","LI":"後壁里","LIN":"32鄰","STREET":"德洋路","SECT":" ","MAREA":" ","LANE":"２２７巷","ALLEY":" ","HOUSE_NO":"１６號","E_COORD97":172494.35999999999,"N_COORD97":2539558.0099999998,"ADDRESS":"德洋路２２７巷１６號","OBJECTID":455973},"geometry":{"x":172494.36000000034,"y":2539558.0099999998}},{"attributes":{"ID":455999,"DIS_CODE":0,"TOWNNAME":"仁德區","LI":"後壁里","LIN":"32鄰","STREET":"德洋路","SECT":" ","MAREA":" ","LANE":"２０５巷","ALLEY":" ","HOUSE_NO":"２２號","E_COORD97":172444.42999999999,"N_COORD97":2539522.7599999998,"ADDRESS":"德洋路２０５巷２２號","OBJECTID":455974},"geometry":{"x":172444.4299999997,"y":2539522.7599999998}},{"attributes":{"ID":456000,"DIS_CODE":0,"TOWNNAME":"永康區","LI":"埔園里","LIN":"32鄰","STREET":"龍埔街","SECT":" ","MAREA":" ","LANE":"２９１巷","ALLEY":" ","HOUSE_NO":"１０號","E_COORD97":173973.59,"N_COORD97":2548276.5,"ADDRESS":"龍埔街２９１巷１０號","OBJECTID":455975},"geometry":{"x":173973.59000000078,"y":2548276.5000000019}},{"attributes":{"ID":456001,"DIS_CODE":0,"TOWNNAME":"安南區","LI":"安富里","LIN":"32鄰","STREET":"府安路","SECT":"五段","MAREA":" ","LANE":"１５７巷","ALLEY":" ","HOUSE_NO":"１０號","E_COORD97":167800.5,"N_COORD97":2547097.9300000002,"ADDRESS":"府安路五段１５７巷１０號","OBJECTID":455976},"geometry":{"x":167800.50000000093,"y":2547097.9299999997}},{"attributes":{"ID":456002,"DIS_CODE":0,"TOWNNAME":"安南區","LI":"安富里","LIN":"32鄰","STREET":"府安路","SECT":"五段","MAREA":" ","LANE":"１５７巷","ALLEY":" ","HOUSE_NO":"１２號","E_COORD97":167799.12,"N_COORD97":2547105.1499999999,"ADDRESS":"府安路五段１５７巷１２號","OBJECTID":455977},"geometry":{"x":167799.12000000104,"y":2547105.1500000004}},{"attributes":{"ID":456003,"DIS_CODE":0,"TOWNNAME":"安南區","LI":"安富里","LIN":"32鄰","STREET":"府安路","SECT":"五段","MAREA":" ","LANE":"１５７巷","ALLEY":" ","HOUSE_NO":"１４號","E_COORD97":167797.06,"N_COORD97":2547112.02,"ADDRESS":"府安路五段１５７巷１４號","OBJECTID":455978},"geometry":{"x":167797.05999999866,"y":2547112.0199999977}},{"attributes":{"ID":456004,"DIS_CODE":0,"TOWNNAME":"安南區","LI":"安富里","LIN":"32鄰","STREET":"府安路","SECT":"五段","MAREA":" ","LANE":"１５７巷","ALLEY":" ","HOUSE_NO":"１９號","E_COORD97":167792.53,"N_COORD97":2547132.48,"ADDRESS":"府安路五段１５７巷１９號","OBJECTID":455979},"geometry":{"x":167792.53000000026,"y":2547132.4800000004}},{"attributes":{"ID":456005,"DIS_CODE":0,"TOWNNAME":"安南區","LI":"安富里","LIN":"32鄰","STREET":"府安路","SECT":"五段","MAREA":" ","LANE":"１５７巷","ALLEY":" ","HOUSE_NO":"２１號","E_COORD97":167791.84,"N_COORD97":2547137.2999999998,"ADDRESS":"府安路五段１５７巷２１號","OBJECTID":455980},"geometry":{"x":167791.83999999985,"y":2547137.3000000007}},{"attributes":{"ID":456006,"DIS_CODE":0,"TOWNNAME":"永康區","LI":"正強里","LIN":"32鄰","STREET":"四維街","SECT":" ","MAREA":" ","LANE":"５巷","ALLEY":" ","HOUSE_NO":"２２號","E_COORD97":173402.44,"N_COORD97":2547935.8199999998,"ADDRESS":"四維街５巷２２號","OBJECTID":455981},"geometry":{"x":173402.44000000041,"y":2547935.8200000022}},{"attributes":{"ID":456007,"DIS_CODE":0,"TOWNNAME":"安南區","LI":"安富里","LIN":"32鄰","STREET":"府安路","SECT":"五段","MAREA":" ","LANE":"１５７巷","ALLEY":" ","HOUSE_NO":"２３號","E_COORD97":167791.14999999999,"N_COORD97":2547142.7999999998,"ADDRESS":"府安路五段１５７巷２３號","OBJECTID":455982},"geometry":{"x":167791.1500000013,"y":2547142.8000000026}},{"attributes":{"ID":456008,"DIS_CODE":0,"TOWNNAME":"安南區","LI":"安富里","LIN":"32鄰","STREET":"府安路","SECT":"五段","MAREA":" ","LANE":"１５７巷","ALLEY":" ","HOUSE_NO":"２５號","E_COORD97":167790.12,"N_COORD97":2547146.9500000002,"ADDRESS":"府安路五段１５７巷２５號","OBJECTID":455983},"geometry":{"x":167790.12000000011,"y":2547146.9500000011}},{"attributes":{"ID":456009,"DIS_CODE":0,"TOWNNAME":"安南區","LI":"安富里","LIN":"32鄰","STREET":"府安路","SECT":"五段","MAREA":" ","LANE":"１５７巷","ALLEY":" ","HOUSE_NO":"２７號","E_COORD97":167788.73999999999,"N_COORD97":2547151.7599999998,"ADDRESS":"府安路五段１５７巷２７號","OBJECTID":455984},"geometry":{"x":167788.74000000115,"y":2547151.7600000035}},{"attributes":{"ID":456010,"DIS_CODE":0,"TOWNNAME":"安南區","LI":"安富里","LIN":"32鄰","STREET":"府安路","SECT":"五段","MAREA":" ","LANE":"１５７巷","ALLEY":" ","HOUSE_NO":"２９號","E_COORD97":167787.70999999999,"N_COORD97":2547156.23,"ADDRESS":"府安路五段１５７巷２９號","OBJECTID":455985},"geometry":{"x":167787.70999999996,"y":2547156.2300000023}},{"attributes":{"ID":456011,"DIS_CODE":0,"TOWNNAME":"安南區","LI":"安富里","LIN":"32鄰","STREET":"府安路","SECT":"五段","MAREA":" ","LANE":"１５７巷","ALLEY":" ","HOUSE_NO":"２號","E_COORD97":167807.39000000001,"N_COORD97":2547068.71,"ADDRESS":"府安路五段１５７巷２號","OBJECTID":455986},"geometry":{"x":167807.3900000006,"y":2547068.7100000028}},{"attributes":{"ID":456012,"DIS_CODE":0,"TOWNNAME":"安南區","LI":"安富里","LIN":"32鄰","STREET":"府安路","SECT":"五段","MAREA":" ","LANE":"１５７巷","ALLEY":" ","HOUSE_NO":"３３號","E_COORD97":167785.64000000001,"N_COORD97":2547165.1699999999,"ADDRESS":"府安路五段１５７巷３３號","OBJECTID":455987},"geometry":{"x":167785.6400000006,"y":2547165.1699999999}},{"attributes":{"ID":456013,"DIS_CODE":0,"TOWNNAME":"安南區","LI":"安富里","LIN":"32鄰","STREET":"府安路","SECT":"五段","MAREA":" ","LANE":"１５７巷","ALLEY":" ","HOUSE_NO":"３５號","E_COORD97":167784.60999999999,"N_COORD97":2547169.2999999998,"ADDRESS":"府安路五段１５７巷３５號","OBJECTID":455988},"geometry":{"x":167784.61000000127,"y":2547169.3000000045}},{"attributes":{"ID":456014,"DIS_CODE":0,"TOWNNAME":"安南區","LI":"安富里","LIN":"32鄰","STREET":"府安路","SECT":"五段","MAREA":" ","LANE":"１５７巷","ALLEY":" ","HOUSE_NO":"４１號","E_COORD97":167780.13,"N_COORD97":2547183.0499999998,"ADDRESS":"府安路五段１５７巷４１號","OBJECTID":455989},"geometry":{"x":167780.13000000175,"y":2547183.0500000007}},{"attributes":{"ID":456015,"DIS_CODE":0,"TOWNNAME":"安南區","LI":"安富里","LIN":"32鄰","STREET":"府安路","SECT":"五段","MAREA":" ","LANE":"１５７巷","ALLEY":" ","HOUSE_NO":"４５號","E_COORD97":167779.10000000001,"N_COORD97":2547193.46,"ADDRESS":"府安路五段１５７巷４５號","OBJECTID":455990},"geometry":{"x":167779.10000000056,"y":2547193.4600000028}},{"attributes":{"ID":456016,"DIS_CODE":0,"TOWNNAME":"安南區","LI":"安富里","LIN":"32鄰","STREET":"府安路","SECT":"五段","MAREA":" ","LANE":"１５７巷","ALLEY":" ","HOUSE_NO":"４９號","E_COORD97":167777.38,"N_COORD97":2547201.7200000002,"ADDRESS":"府安路五段１５７巷４９號","OBJECTID":455991},"geometry":{"x":167777.38000000082,"y":2547201.7200000025}},{"attributes":{"ID":456017,"DIS_CODE":0,"TOWNNAME":"安南區","LI":"安富里","LIN":"32鄰","STREET":"府安路","SECT":"五段","MAREA":" ","LANE":"１５７巷","ALLEY":" ","HOUSE_NO":"４號","E_COORD97":167805.67000000001,"N_COORD97":2547075.9199999999,"ADDRESS":"府安路五段１５７巷４號","OBJECTID":455992},"geometry":{"x":167805.67000000086,"y":2547075.9200000037}},{"attributes":{"ID":456018,"DIS_CODE":0,"TOWNNAME":"東區","LI":"崇文里","LIN":"40鄰","STREET":"生產路","SECT":" ","MAREA":" ","LANE":" ","ALLEY":" ","HOUSE_NO":"２７７號七樓","E_COORD97":170920.14000000001,"N_COORD97":2540618.3100000001,"ADDRESS":"生產路２７７號七樓","OBJECTID":455993},"geometry":{"x":170920.13999999966,"y":2540618.3100000005}},{"attributes":{"ID":456019,"DIS_CODE":0,"TOWNNAME":"安南區","LI":"安富里","LIN":"32鄰","STREET":"府安路","SECT":"五段","MAREA":" ","LANE":"１５７巷","ALLEY":" ","HOUSE_NO":"５１號","E_COORD97":167776,"N_COORD97":2547206.1899999999,"ADDRESS":"府安路五段１５７巷５１號","OBJECTID":455994},"geometry":{"x":167776.00000000186,"y":2547206.1900000032}},{"attributes":{"ID":456020,"DIS_CODE":0,"TOWNNAME":"安南區","LI":"安富里","LIN":"32鄰","STREET":"府安路","SECT":"五段","MAREA":" ","LANE":"１５７巷","ALLEY":" ","HOUSE_NO":"５３號","E_COORD97":167775.31,"N_COORD97":2547211.6899999999,"ADDRESS":"府安路五段１５７巷５３號","OBJECTID":455995},"geometry":{"x":167775.31000000052,"y":2547211.6899999995}},{"attributes":{"ID":456021,"DIS_CODE":0,"TOWNNAME":"安南區","LI":"安富里","LIN":"32鄰","STREET":"府安路","SECT":"五段","MAREA":" ","LANE":"１５７巷","ALLEY":" ","HOUSE_NO":"５５號","E_COORD97":167773.59,"N_COORD97":2547215.4700000002,"ADDRESS":"府安路五段１５７巷５５號","OBJECTID":455996},"geometry":{"x":167773.59000000171,"y":2547215.4700000044}},{"attributes":{"ID":456022,"DIS_CODE":0,"TOWNNAME":"安南區","LI":"安富里","LIN":"32鄰","STREET":"府安路","SECT":"五段","MAREA":" ","LANE":"１５７巷","ALLEY":" ","HOUSE_NO":"５９號","E_COORD97":167772.20999999999,"N_COORD97":2547224.75,"ADDRESS":"府安路五段１５７巷５９號","OBJECTID":455997},"geometry":{"x":167772.20999999996,"y":2547224.7500000019}},{"attributes":{"ID":456023,"DIS_CODE":0,"TOWNNAME":"安南區","LI":"安富里","LIN":"32鄰","STREET":"府安路","SECT":"五段","MAREA":" ","LANE":"１５７巷","ALLEY":" ","HOUSE_NO":"６１號","E_COORD97":167770.48999999999,"N_COORD97":2547229.9100000001,"ADDRESS":"府安路五段１５７巷６１號","OBJECTID":455998},"geometry":{"x":167770.49000000022,"y":2547229.910000002}},{"attributes":{"ID":456024,"DIS_CODE":0,"TOWNNAME":"安南區","LI":"安富里","LIN":"32鄰","STREET":"府安路","SECT":"五段","MAREA":" ","LANE":"１５７巷","ALLEY":" ","HOUSE_NO":"６３號","E_COORD97":167769.79999999999,"N_COORD97":2547234.3799999999,"ADDRESS":"府安路五段１５７巷６３號","OBJECTID":455999},"geometry":{"x":167769.79999999981,"y":2547234.3799999971}},{"attributes":{"ID":456025,"DIS_CODE":0,"TOWNNAME":"安南區","LI":"安富里","LIN":"32鄰","STREET":"府安路","SECT":"五段","MAREA":" ","LANE":"１５７巷","ALLEY":" ","HOUSE_NO":"６５號","E_COORD97":167769.45999999999,"N_COORD97":2547238.1600000001,"ADDRESS":"府安路五段１５７巷６５號","OBJECTID":456000},"geometry":{"x":167769.46000000183,"y":2547238.160000002}}]}