{"displayFieldName":"TOWNNAME","fieldAliases":{"ID":"ID","DIS_CODE":"DIS_CODE","TOWNNAME":"TOWNNAME","LI":"LI","LIN":"LIN","STREET":"STREET","SECT":"SECT","MAREA":"MAREA","LANE":"LANE","ALLEY":"ALLEY","HOUSE_NO":"HOUSE_NO","E_COORD97":"E_COORD97","N_COORD97":"N_COORD97","ADDRESS":"ADDRESS","OBJECTID":"OBJECTID"},"geometryType":"esriGeometryPoint","spatialReference":{"wkid":102443,"latestWkid":3826},"fields":[{"name":"ID","type":"esriFieldTypeDouble","alias":"ID"},{"name":"DIS_CODE","type":"esriFieldTypeInteger","alias":"DIS_CODE"},{"name":"TOWNNAME","type":"esriFieldTypeString","alias":"TOWNNAME","length":8},{"name":"LI","type":"esriFieldTypeString","alias":"LI","length":8},{"name":"LIN","type":"esriFieldTypeString","alias":"LIN","length":12},{"name":"STREET","type":"esriFieldTypeString","alias":"STREET","length":20},{"name":"SECT","type":"esriFieldTypeString","alias":"SECT","length":8},{"name":"MAREA","type":"esriFieldTypeString","alias":"MAREA","length":12},{"name":"LANE","type":"esriFieldTypeString","alias":"LANE","length":10},{"name":"ALLEY","type":"esriFieldTypeString","alias":"ALLEY","length":10},{"name":"HOUSE_NO","type":"esriFieldTypeString","alias":"HOUSE_NO","length":20},{"name":"E_COORD97","type":"esriFieldTypeDouble","alias":"E_COORD97"},{"name":"N_COORD97","type":"esriFieldTypeDouble","alias":"N_COORD97"},{"name":"ADDRESS","type":"esriFieldTypeString","alias":"ADDRESS","length":50},{"name":"OBJECTID","type":"esriFieldTypeOID","alias":"OBJECTID"}],"features":[{"attributes":{"ID":241805,"DIS_CODE":0,"TOWNNAME":"安平區","LI":"文平里","LIN":"24鄰","STREET":"永華二街","SECT":" ","MAREA":" ","LANE":"４０巷","ALLEY":" ","HOUSE_NO":"３１號","E_COORD97":166246.70999999999,"N_COORD97":2542907.8399999999,"ADDRESS":"永華二街４０巷３１號","OBJECTID":241801},"geometry":{"x":166246.70999999996,"y":2542907.8400000017}},{"attributes":{"ID":241806,"DIS_CODE":0,"TOWNNAME":"安平區","LI":"怡平里","LIN":"24鄰","STREET":"平通路","SECT":" ","MAREA":" ","LANE":"３３３巷","ALLEY":" ","HOUSE_NO":"９３號","E_COORD97":165715.38611699999,"N_COORD97":2543564.2865300002,"ADDRESS":"平通路３３３巷９３號","OBJECTID":241802},"geometry":{"x":165715.386117002,"y":2543564.286526002}},{"attributes":{"ID":241807,"DIS_CODE":0,"TOWNNAME":"安平區","LI":"怡平里","LIN":"24鄰","STREET":"平通路","SECT":" ","MAREA":" ","LANE":"３３３巷","ALLEY":" ","HOUSE_NO":"９５號","E_COORD97":165714.53848700001,"N_COORD97":2543559.4182000002,"ADDRESS":"平通路３３３巷９５號","OBJECTID":241803},"geometry":{"x":165714.53848700039,"y":2543559.4181960002}},{"attributes":{"ID":241808,"DIS_CODE":0,"TOWNNAME":"安平區","LI":"怡平里","LIN":"24鄰","STREET":"平通路","SECT":" ","MAREA":" ","LANE":"３３３巷","ALLEY":" ","HOUSE_NO":"１號","E_COORD97":165733.42000000001,"N_COORD97":2543687.4399999999,"ADDRESS":"平通路３３３巷１號","OBJECTID":241804},"geometry":{"x":165733.41999999993,"y":2543687.4399999995}},{"attributes":{"ID":241809,"DIS_CODE":0,"TOWNNAME":"安平區","LI":"怡平里","LIN":"24鄰","STREET":"平通路","SECT":" ","MAREA":" ","LANE":"３３３巷","ALLEY":" ","HOUSE_NO":"１１號","E_COORD97":165761.04000000001,"N_COORD97":2543683.9500000002,"ADDRESS":"平通路３３３巷１１號","OBJECTID":241805},"geometry":{"x":165761.04000000004,"y":2543683.9499999993}},{"attributes":{"ID":241810,"DIS_CODE":0,"TOWNNAME":"安平區","LI":"怡平里","LIN":"24鄰","STREET":"平通路","SECT":" ","MAREA":" ","LANE":"３３３巷","ALLEY":" ","HOUSE_NO":"１３號","E_COORD97":165759.13,"N_COORD97":2543666.1699999999,"ADDRESS":"平通路３３３巷１３號","OBJECTID":241806},"geometry":{"x":165759.12999999989,"y":2543666.1699999999}},{"attributes":{"ID":241811,"DIS_CODE":0,"TOWNNAME":"安平區","LI":"怡平里","LIN":"24鄰","STREET":"平通路","SECT":" ","MAREA":" ","LANE":"３３３巷","ALLEY":" ","HOUSE_NO":"１５號","E_COORD97":165752.94,"N_COORD97":2543667.1200000001,"ADDRESS":"平通路３３３巷１５號","OBJECTID":241807},"geometry":{"x":165752.94000000134,"y":2543667.120000001}},{"attributes":{"ID":241812,"DIS_CODE":0,"TOWNNAME":"安平區","LI":"怡平里","LIN":"24鄰","STREET":"平通路","SECT":" ","MAREA":" ","LANE":"３３３巷","ALLEY":" ","HOUSE_NO":"１７號","E_COORD97":165748.17999999999,"N_COORD97":2543667.4399999999,"ADDRESS":"平通路３３３巷１７號","OBJECTID":241808},"geometry":{"x":165748.1799999997,"y":2543667.4399999995}},{"attributes":{"ID":241813,"DIS_CODE":0,"TOWNNAME":"安平區","LI":"怡平里","LIN":"24鄰","STREET":"平通路","SECT":" ","MAREA":" ","LANE":"３３３巷","ALLEY":" ","HOUSE_NO":"１９號","E_COORD97":165742.14999999999,"N_COORD97":2543668.71,"ADDRESS":"平通路３３３巷１９號","OBJECTID":241809},"geometry":{"x":165742.15000000037,"y":2543668.7100000028}},{"attributes":{"ID":241814,"DIS_CODE":0,"TOWNNAME":"安平區","LI":"怡平里","LIN":"24鄰","STREET":"平通路","SECT":" ","MAREA":" ","LANE":"３３３巷","ALLEY":" ","HOUSE_NO":"２１號","E_COORD97":165736.91,"N_COORD97":2543668.5499999998,"ADDRESS":"平通路３３３巷２１號","OBJECTID":241810},"geometry":{"x":165736.91000000015,"y":2543668.5499999989}},{"attributes":{"ID":241815,"DIS_CODE":0,"TOWNNAME":"安平區","LI":"怡平里","LIN":"24鄰","STREET":"平通路","SECT":" ","MAREA":" ","LANE":"３３３巷","ALLEY":" ","HOUSE_NO":"２３號","E_COORD97":165731.51000000001,"N_COORD97":2543669.6600000001,"ADDRESS":"平通路３３３巷２３號","OBJECTID":241811},"geometry":{"x":165731.51000000071,"y":2543669.6600000001}},{"attributes":{"ID":241816,"DIS_CODE":0,"TOWNNAME":"安平區","LI":"怡平里","LIN":"24鄰","STREET":"平通路","SECT":" ","MAREA":" ","LANE":"３３３巷","ALLEY":" ","HOUSE_NO":"２５號","E_COORD97":165728.48999999999,"N_COORD97":2543657.4300000002,"ADDRESS":"平通路３３３巷２５號","OBJECTID":241812},"geometry":{"x":165728.49000000209,"y":2543657.4299999997}},{"attributes":{"ID":241817,"DIS_CODE":0,"TOWNNAME":"安平區","LI":"怡平里","LIN":"24鄰","STREET":"平通路","SECT":" ","MAREA":" ","LANE":"３３３巷","ALLEY":" ","HOUSE_NO":"２７號","E_COORD97":165735,"N_COORD97":2543655.8500000001,"ADDRESS":"平通路３３３巷２７號","OBJECTID":241813},"geometry":{"x":165735.00000000186,"y":2543655.8500000015}},{"attributes":{"ID":241818,"DIS_CODE":0,"TOWNNAME":"安平區","LI":"怡平里","LIN":"24鄰","STREET":"平通路","SECT":" ","MAREA":" ","LANE":"３３３巷","ALLEY":" ","HOUSE_NO":"２９號","E_COORD97":165740.72,"N_COORD97":2543655.6899999999,"ADDRESS":"平通路３３３巷２９號","OBJECTID":241814},"geometry":{"x":165740.72000000067,"y":2543655.6899999995}},{"attributes":{"ID":241819,"DIS_CODE":0,"TOWNNAME":"安平區","LI":"怡平里","LIN":"24鄰","STREET":"平通路","SECT":" ","MAREA":" ","LANE":"３３３巷","ALLEY":" ","HOUSE_NO":"３號","E_COORD97":165739.29000000001,"N_COORD97":2543686.7999999998,"ADDRESS":"平通路３３３巷３號","OBJECTID":241815},"geometry":{"x":165739.29000000004,"y":2543686.8000000007}},{"attributes":{"ID":241820,"DIS_CODE":0,"TOWNNAME":"安平區","LI":"怡平里","LIN":"24鄰","STREET":"平通路","SECT":" ","MAREA":" ","LANE":"３３３巷","ALLEY":" ","HOUSE_NO":"３１號","E_COORD97":165746.12,"N_COORD97":2543653.3100000001,"ADDRESS":"平通路３３３巷３１號","OBJECTID":241816},"geometry":{"x":165746.12000000197,"y":2543653.3100000042}},{"attributes":{"ID":241821,"DIS_CODE":0,"TOWNNAME":"安平區","LI":"怡平里","LIN":"24鄰","STREET":"平通路","SECT":" ","MAREA":" ","LANE":"３３３巷","ALLEY":" ","HOUSE_NO":"３３號","E_COORD97":165751.98999999999,"N_COORD97":2543654.5800000001,"ADDRESS":"平通路３３３巷３３號","OBJECTID":241817},"geometry":{"x":165751.99000000022,"y":2543654.5800000019}},{"attributes":{"ID":241822,"DIS_CODE":0,"TOWNNAME":"安平區","LI":"怡平里","LIN":"24鄰","STREET":"平通路","SECT":" ","MAREA":" ","LANE":"３３３巷","ALLEY":" ","HOUSE_NO":"３５號","E_COORD97":165758.34,"N_COORD97":2543654.4199999999,"ADDRESS":"平通路３３３巷３５號","OBJECTID":241818},"geometry":{"x":165758.34000000078,"y":2543654.4199999999}},{"attributes":{"ID":241823,"DIS_CODE":0,"TOWNNAME":"安平區","LI":"怡平里","LIN":"24鄰","STREET":"平通路","SECT":" ","MAREA":" ","LANE":"３３３巷","ALLEY":" ","HOUSE_NO":"３７號","E_COORD97":165755.48000000001,"N_COORD97":2543635.21,"ADDRESS":"平通路３３３巷３７號","OBJECTID":241819},"geometry":{"x":165755.48000000045,"y":2543635.2100000028}},{"attributes":{"ID":241824,"DIS_CODE":0,"TOWNNAME":"安平區","LI":"怡平里","LIN":"24鄰","STREET":"平通路","SECT":" ","MAREA":" ","LANE":"３３３巷","ALLEY":" ","HOUSE_NO":"３９號","E_COORD97":165748.97,"N_COORD97":2543636.1600000001,"ADDRESS":"平通路３３３巷３９號","OBJECTID":241820},"geometry":{"x":165748.97000000067,"y":2543636.1600000001}},{"attributes":{"ID":241825,"DIS_CODE":0,"TOWNNAME":"安平區","LI":"怡平里","LIN":"24鄰","STREET":"平通路","SECT":" ","MAREA":" ","LANE":"３３３巷","ALLEY":" ","HOUSE_NO":"４１號","E_COORD97":165743.42000000001,"N_COORD97":2543636.7999999998,"ADDRESS":"平通路３３３巷４１號","OBJECTID":241821},"geometry":{"x":165743.41999999993,"y":2543636.8000000026}},{"attributes":{"ID":241826,"DIS_CODE":0,"TOWNNAME":"安平區","LI":"怡平里","LIN":"24鄰","STREET":"平通路","SECT":" ","MAREA":" ","LANE":"３３３巷","ALLEY":" ","HOUSE_NO":"４３號","E_COORD97":165738.17999999999,"N_COORD97":2543638.23,"ADDRESS":"平通路３３３巷４３號","OBJECTID":241822},"geometry":{"x":165738.1799999997,"y":2543638.2300000023}},{"attributes":{"ID":241827,"DIS_CODE":0,"TOWNNAME":"安平區","LI":"怡平里","LIN":"24鄰","STREET":"平通路","SECT":" ","MAREA":" ","LANE":"３３３巷","ALLEY":" ","HOUSE_NO":"４５號","E_COORD97":165732.45999999999,"N_COORD97":2543637.5899999999,"ADDRESS":"平通路３３３巷４５號","OBJECTID":241823},"geometry":{"x":165732.46000000089,"y":2543637.5900000017}},{"attributes":{"ID":241828,"DIS_CODE":0,"TOWNNAME":"安平區","LI":"怡平里","LIN":"24鄰","STREET":"平通路","SECT":" ","MAREA":" ","LANE":"３３３巷","ALLEY":" ","HOUSE_NO":"４７號","E_COORD97":165725.95000000001,"N_COORD97":2543639.02,"ADDRESS":"平通路３３３巷４７號","OBJECTID":241824},"geometry":{"x":165725.95000000112,"y":2543639.0199999996}},{"attributes":{"ID":241829,"DIS_CODE":0,"TOWNNAME":"安平區","LI":"怡平里","LIN":"24鄰","STREET":"平通路","SECT":" ","MAREA":" ","LANE":"３３３巷","ALLEY":" ","HOUSE_NO":"５號","E_COORD97":165744.69,"N_COORD97":2543686.7999999998,"ADDRESS":"平通路３３３巷５號","OBJECTID":241825},"geometry":{"x":165744.69000000134,"y":2543686.8000000007}},{"attributes":{"ID":241830,"DIS_CODE":0,"TOWNNAME":"安平區","LI":"怡平里","LIN":"24鄰","STREET":"平通路","SECT":" ","MAREA":" ","LANE":"３３３巷","ALLEY":" ","HOUSE_NO":"７號","E_COORD97":165749.60999999999,"N_COORD97":2543685.2200000002,"ADDRESS":"平通路３３３巷７號","OBJECTID":241826},"geometry":{"x":165749.61000000034,"y":2543685.2200000025}},{"attributes":{"ID":241831,"DIS_CODE":0,"TOWNNAME":"安平區","LI":"怡平里","LIN":"24鄰","STREET":"平通路","SECT":" ","MAREA":" ","LANE":"３３３巷","ALLEY":" ","HOUSE_NO":"９號","E_COORD97":165755.64000000001,"N_COORD97":2543685.5299999998,"ADDRESS":"平通路３３３巷９號","OBJECTID":241827},"geometry":{"x":165755.64000000153,"y":2543685.5300000012}},{"attributes":{"ID":241832,"DIS_CODE":0,"TOWNNAME":"南區","LI":"明興里","LIN":"5鄰","STREET":"金華路","SECT":"一段","MAREA":" ","LANE":"２００巷","ALLEY":" ","HOUSE_NO":"１８號","E_COORD97":167012.34,"N_COORD97":2540770.1899999999,"ADDRESS":"金華路一段２００巷１８號","OBJECTID":241828},"geometry":{"x":167012.34000000171,"y":2540770.1899999995}},{"attributes":{"ID":241833,"DIS_CODE":0,"TOWNNAME":"東區","LI":"中西里","LIN":"14鄰","STREET":"東寧路","SECT":" ","MAREA":" ","LANE":" ","ALLEY":" ","HOUSE_NO":"５８號六樓之２","E_COORD97":170111.59,"N_COORD97":2543575.71,"ADDRESS":"東寧路５８號六樓之２","OBJECTID":241829},"geometry":{"x":170111.59000000078,"y":2543575.7100000009}},{"attributes":{"ID":241834,"DIS_CODE":0,"TOWNNAME":"永康區","LI":"大橋里","LIN":"26鄰","STREET":"大橋一街","SECT":" ","MAREA":" ","LANE":"２４７巷","ALLEY":" ","HOUSE_NO":"６８號","E_COORD97":171209.56,"N_COORD97":2546816.9900000002,"ADDRESS":"大橋一街２４７巷６８號","OBJECTID":241830},"geometry":{"x":171209.56000000145,"y":2546816.9900000002}},{"attributes":{"ID":241835,"DIS_CODE":0,"TOWNNAME":"新營區","LI":"新北里","LIN":"24鄰","STREET":"民生路","SECT":" ","MAREA":" ","LANE":"４２０巷","ALLEY":" ","HOUSE_NO":"４６號","E_COORD97":178921.53,"N_COORD97":2579363.04,"ADDRESS":"民生路４２０巷４６號","OBJECTID":241831},"geometry":{"x":178921.53000000026,"y":2579363.0399999991}},{"attributes":{"ID":241836,"DIS_CODE":0,"TOWNNAME":"新營區","LI":"新北里","LIN":"24鄰","STREET":"民生路","SECT":" ","MAREA":" ","LANE":"４２０巷","ALLEY":" ","HOUSE_NO":"２８號","E_COORD97":178883.73000000001,"N_COORD97":2579373.1899999999,"ADDRESS":"民生路４２０巷２８號","OBJECTID":241832},"geometry":{"x":178883.73000000138,"y":2579373.1899999995}},{"attributes":{"ID":241837,"DIS_CODE":0,"TOWNNAME":"東山區","LI":"東山里","LIN":"22鄰","STREET":" ","SECT":" ","MAREA":"東山","LANE":" ","ALLEY":" ","HOUSE_NO":"３１１號之１","E_COORD97":188865.13,"N_COORD97":2580488.1000000001,"ADDRESS":"東山３１１號之１","OBJECTID":241833},"geometry":{"x":188865.13000000082,"y":2580488.1000000015}},{"attributes":{"ID":241838,"DIS_CODE":0,"TOWNNAME":"新營區","LI":"南紙里","LIN":"24鄰","STREET":"南紙街","SECT":" ","MAREA":" ","LANE":"１１７巷","ALLEY":" ","HOUSE_NO":"５８號","E_COORD97":177953.85999999999,"N_COORD97":2577462.8900000001,"ADDRESS":"南紙街１１７巷５８號","OBJECTID":241834},"geometry":{"x":177953.86000000127,"y":2577462.8900000025}},{"attributes":{"ID":241839,"DIS_CODE":0,"TOWNNAME":"新營區","LI":"民生里","LIN":"24鄰","STREET":"民生路","SECT":" ","MAREA":" ","LANE":"１３９巷","ALLEY":" ","HOUSE_NO":"１７號","E_COORD97":179143.69,"N_COORD97":2578570.1400000001,"ADDRESS":"民生路１３９巷１７號","OBJECTID":241835},"geometry":{"x":179143.69000000134,"y":2578570.1400000025}},{"attributes":{"ID":241840,"DIS_CODE":0,"TOWNNAME":"新營區","LI":"民權里","LIN":"24鄰","STREET":"民治路","SECT":" ","MAREA":" ","LANE":"５３巷","ALLEY":" ","HOUSE_NO":"５號","E_COORD97":179686.47,"N_COORD97":2578753.6000000001,"ADDRESS":"民治路５３巷５號","OBJECTID":241836},"geometry":{"x":179686.47000000067,"y":2578753.5999999996}},{"attributes":{"ID":241841,"DIS_CODE":0,"TOWNNAME":"南區","LI":"新興里","LIN":"24鄰","STREET":"夏林路","SECT":" ","MAREA":" ","LANE":"２５６巷","ALLEY":" ","HOUSE_NO":"１１號","E_COORD97":167402.16,"N_COORD97":2542129.7799999998,"ADDRESS":"夏林路２５６巷１１號","OBJECTID":241837},"geometry":{"x":167402.16000000201,"y":2542129.7800000031}},{"attributes":{"ID":241842,"DIS_CODE":0,"TOWNNAME":"南區","LI":"新興里","LIN":"24鄰","STREET":"夏林路","SECT":" ","MAREA":" ","LANE":"２５６巷","ALLEY":" ","HOUSE_NO":"１３號","E_COORD97":167398.56,"N_COORD97":2542131.7799999998,"ADDRESS":"夏林路２５６巷１３號","OBJECTID":241838},"geometry":{"x":167398.55999999959,"y":2542131.7799999993}},{"attributes":{"ID":241843,"DIS_CODE":0,"TOWNNAME":"南區","LI":"新興里","LIN":"24鄰","STREET":"夏林路","SECT":" ","MAREA":" ","LANE":"２５６巷","ALLEY":" ","HOUSE_NO":"１５號","E_COORD97":167393.95999999999,"N_COORD97":2542133.98,"ADDRESS":"夏林路２５６巷１５號","OBJECTID":241839},"geometry":{"x":167393.95999999996,"y":2542133.9800000023}},{"attributes":{"ID":241844,"DIS_CODE":0,"TOWNNAME":"南區","LI":"新興里","LIN":"24鄰","STREET":"夏林路","SECT":" ","MAREA":" ","LANE":"２５６巷","ALLEY":" ","HOUSE_NO":"１７號","E_COORD97":167388.95000000001,"N_COORD97":2542135.3799999999,"ADDRESS":"夏林路２５６巷１７號","OBJECTID":241840},"geometry":{"x":167388.95000000112,"y":2542135.3799999971}},{"attributes":{"ID":241845,"DIS_CODE":0,"TOWNNAME":"南區","LI":"新興里","LIN":"24鄰","STREET":"夏林路","SECT":" ","MAREA":" ","LANE":"２５６巷","ALLEY":" ","HOUSE_NO":"１號","E_COORD97":167434.38,"N_COORD97":2542110.1899999999,"ADDRESS":"夏林路２５６巷１號","OBJECTID":241841},"geometry":{"x":167434.38000000082,"y":2542110.1900000032}},{"attributes":{"ID":241846,"DIS_CODE":0,"TOWNNAME":"東山區","LI":"東山里","LIN":"22鄰","STREET":" ","SECT":" ","MAREA":"東山","LANE":" ","ALLEY":" ","HOUSE_NO":"３１１號之２","E_COORD97":188860.54999999999,"N_COORD97":2580499.1400000001,"ADDRESS":"東山３１１號之２","OBJECTID":241842},"geometry":{"x":188860.55000000075,"y":2580499.1400000025}},{"attributes":{"ID":241847,"DIS_CODE":0,"TOWNNAME":"南區","LI":"新興里","LIN":"24鄰","STREET":"夏林路","SECT":" ","MAREA":" ","LANE":"２５６巷","ALLEY":" ","HOUSE_NO":"３號","E_COORD97":167428.98000000001,"N_COORD97":2542114.79,"ADDRESS":"夏林路２５６巷３號","OBJECTID":241843},"geometry":{"x":167428.98000000231,"y":2542114.7899999991}},{"attributes":{"ID":241848,"DIS_CODE":0,"TOWNNAME":"南區","LI":"新興里","LIN":"24鄰","STREET":"夏林路","SECT":" ","MAREA":" ","LANE":"２５６巷","ALLEY":" ","HOUSE_NO":"５號","E_COORD97":167422.78,"N_COORD97":2542117.79,"ADDRESS":"夏林路２５６巷５號","OBJECTID":241844},"geometry":{"x":167422.78000000026,"y":2542117.7899999991}},{"attributes":{"ID":241849,"DIS_CODE":0,"TOWNNAME":"東區","LI":"中西里","LIN":"14鄰","STREET":"東寧路","SECT":" ","MAREA":" ","LANE":" ","ALLEY":" ","HOUSE_NO":"５８號七樓","E_COORD97":170111.59,"N_COORD97":2543575.71,"ADDRESS":"東寧路５８號七樓","OBJECTID":241845},"geometry":{"x":170111.59000000078,"y":2543575.7100000009}},{"attributes":{"ID":241850,"DIS_CODE":0,"TOWNNAME":"永康區","LI":"三合里","LIN":"4鄰","STREET":"中華二路","SECT":" ","MAREA":" ","LANE":"８８巷","ALLEY":" ","HOUSE_NO":"３３號","E_COORD97":172071.09,"N_COORD97":2545559.7999999998,"ADDRESS":"中華二路８８巷３３號","OBJECTID":241846},"geometry":{"x":172071.09000000078,"y":2545559.8000000026}},{"attributes":{"ID":241851,"DIS_CODE":0,"TOWNNAME":"南區","LI":"新興里","LIN":"24鄰","STREET":"夏林路","SECT":" ","MAREA":" ","LANE":"２５６巷","ALLEY":" ","HOUSE_NO":"７號","E_COORD97":167416.37,"N_COORD97":2542121.5899999999,"ADDRESS":"夏林路２５６巷７號","OBJECTID":241847},"geometry":{"x":167416.37000000104,"y":2542121.5900000036}},{"attributes":{"ID":241852,"DIS_CODE":0,"TOWNNAME":"善化區","LI":"嘉南里","LIN":"9鄰","STREET":" ","SECT":" ","MAREA":"茄拔","LANE":" ","ALLEY":" ","HOUSE_NO":"１３４號","E_COORD97":181059.57000000001,"N_COORD97":2559607.0099999998,"ADDRESS":"茄拔１３４號","OBJECTID":241848},"geometry":{"x":181059.57000000123,"y":2559607.0100000016}},{"attributes":{"ID":241853,"DIS_CODE":0,"TOWNNAME":"南區","LI":"新興里","LIN":"24鄰","STREET":"夏林路","SECT":" ","MAREA":" ","LANE":"２５６巷","ALLEY":" ","HOUSE_NO":"９號","E_COORD97":167406.16,"N_COORD97":2542126.98,"ADDRESS":"夏林路２５６巷９號","OBJECTID":241849},"geometry":{"x":167406.16000000108,"y":2542126.9800000023}},{"attributes":{"ID":241854,"DIS_CODE":0,"TOWNNAME":"東區","LI":"中西里","LIN":"14鄰","STREET":"東寧路","SECT":" ","MAREA":" ","LANE":" ","ALLEY":" ","HOUSE_NO":"５８號七樓之１","E_COORD97":170111.59,"N_COORD97":2543575.71,"ADDRESS":"東寧路５８號七樓之１","OBJECTID":241850},"geometry":{"x":170111.59000000078,"y":2543575.7100000009}},{"attributes":{"ID":241855,"DIS_CODE":0,"TOWNNAME":"永康區","LI":"二王里","LIN":"5鄰","STREET":"永二街","SECT":" ","MAREA":" ","LANE":"３５８巷","ALLEY":" ","HOUSE_NO":"１３號","E_COORD97":172909.26000000001,"N_COORD97":2546723.2000000002,"ADDRESS":"永二街３５８巷１３號","OBJECTID":241851},"geometry":{"x":172909.26000000071,"y":2546723.1999999993}},{"attributes":{"ID":241856,"DIS_CODE":0,"TOWNNAME":"永康區","LI":"大橋里","LIN":"26鄰","STREET":"大橋一街","SECT":" ","MAREA":" ","LANE":"２４７巷","ALLEY":" ","HOUSE_NO":"４２號","E_COORD97":171249.39999999999,"N_COORD97":2546760.75,"ADDRESS":"大橋一街２４７巷４２號","OBJECTID":241852},"geometry":{"x":171249.4000000013,"y":2546760.75}},{"attributes":{"ID":241857,"DIS_CODE":0,"TOWNNAME":"歸仁區","LI":"後市里","LIN":"24鄰","STREET":"文化街","SECT":"二段","MAREA":" ","LANE":"３５巷","ALLEY":" ","HOUSE_NO":"５號","E_COORD97":177534.73999999999,"N_COORD97":2541048.2599999998,"ADDRESS":"文化街二段３５巷５號","OBJECTID":241853},"geometry":{"x":177534.74000000022,"y":2541048.2599999998}},{"attributes":{"ID":241858,"DIS_CODE":0,"TOWNNAME":"歸仁區","LI":"南興里","LIN":"24鄰","STREET":"文化二十街","SECT":" ","MAREA":" ","LANE":"１１２巷","ALLEY":" ","HOUSE_NO":"１８號","E_COORD97":175525.19,"N_COORD97":2541346.3300000001,"ADDRESS":"文化二十街１１２巷１８號","OBJECTID":241854},"geometry":{"x":175525.19000000041,"y":2541346.3300000001}},{"attributes":{"ID":241859,"DIS_CODE":0,"TOWNNAME":"北區","LI":"大和里","LIN":"24鄰","STREET":"大和路","SECT":" ","MAREA":" ","LANE":"３３０巷","ALLEY":" ","HOUSE_NO":"４１號","E_COORD97":167010.35999999999,"N_COORD97":2546165.6800000002,"ADDRESS":"大和路３３０巷４１號","OBJECTID":241855},"geometry":{"x":167010.36000000034,"y":2546165.6800000034}},{"attributes":{"ID":241860,"DIS_CODE":0,"TOWNNAME":"玉井區","LI":"玉田里","LIN":"24鄰","STREET":"中華路","SECT":" ","MAREA":" ","LANE":"１９２巷","ALLEY":" ","HOUSE_NO":"３２號","E_COORD97":195117.10000000001,"N_COORD97":2557778.2400000002,"ADDRESS":"中華路１９２巷３２號","OBJECTID":241856},"geometry":{"x":195117.10000000056,"y":2557778.2400000021}},{"attributes":{"ID":241861,"DIS_CODE":0,"TOWNNAME":"玉井區","LI":"玉田里","LIN":"24鄰","STREET":"中華路","SECT":" ","MAREA":" ","LANE":"１９２巷","ALLEY":" ","HOUSE_NO":"１８號","E_COORD97":195141.89999999999,"N_COORD97":2557784.2400000002,"ADDRESS":"中華路１９２巷１８號","OBJECTID":241857},"geometry":{"x":195141.90000000037,"y":2557784.2399999984}},{"attributes":{"ID":241862,"DIS_CODE":0,"TOWNNAME":"玉井區","LI":"玉田里","LIN":"24鄰","STREET":"中華路","SECT":" ","MAREA":" ","LANE":"１９２巷","ALLEY":" ","HOUSE_NO":"１０號","E_COORD97":195152.70999999999,"N_COORD97":2557794.2400000002,"ADDRESS":"中華路１９２巷１０號","OBJECTID":241858},"geometry":{"x":195152.70999999996,"y":2557794.2400000002}},{"attributes":{"ID":241863,"DIS_CODE":0,"TOWNNAME":"玉井區","LI":"玉田里","LIN":"24鄰","STREET":"中華路","SECT":" ","MAREA":" ","LANE":"１９２巷","ALLEY":" ","HOUSE_NO":"２號","E_COORD97":195166.85000000001,"N_COORD97":2557807.25,"ADDRESS":"中華路１９２巷２號","OBJECTID":241859},"geometry":{"x":195166.84999999963,"y":2557807.25}},{"attributes":{"ID":241864,"DIS_CODE":0,"TOWNNAME":"楠西區","LI":"楠西里","LIN":"24鄰","STREET":"中興路","SECT":" ","MAREA":" ","LANE":"６３巷","ALLEY":" ","HOUSE_NO":"２３號","E_COORD97":197125.07000000001,"N_COORD97":2564368.8900000001,"ADDRESS":"中興路６３巷２３號","OBJECTID":241860},"geometry":{"x":197125.07000000123,"y":2564368.8900000025}},{"attributes":{"ID":241865,"DIS_CODE":0,"TOWNNAME":"楠西區","LI":"楠西里","LIN":"24鄰","STREET":"中興路","SECT":" ","MAREA":" ","LANE":"６３巷","ALLEY":" ","HOUSE_NO":"５號","E_COORD97":197157.92000000001,"N_COORD97":2564362.8900000001,"ADDRESS":"中興路６３巷５號","OBJECTID":241861},"geometry":{"x":197157.92000000086,"y":2564362.8900000006}},{"attributes":{"ID":241866,"DIS_CODE":0,"TOWNNAME":"楠西區","LI":"楠西里","LIN":"24鄰","STREET":"中興路","SECT":" ","MAREA":" ","LANE":"６３巷","ALLEY":" ","HOUSE_NO":"７號","E_COORD97":197152.92000000001,"N_COORD97":2564363.8900000001,"ADDRESS":"中興路６３巷７號","OBJECTID":241862},"geometry":{"x":197152.92000000086,"y":2564363.8900000006}},{"attributes":{"ID":241867,"DIS_CODE":0,"TOWNNAME":"東區","LI":"中西里","LIN":"14鄰","STREET":"東寧路","SECT":" ","MAREA":" ","LANE":" ","ALLEY":" ","HOUSE_NO":"５８號七樓之２","E_COORD97":170111.59,"N_COORD97":2543575.71,"ADDRESS":"東寧路５８號七樓之２","OBJECTID":241863},"geometry":{"x":170111.59000000078,"y":2543575.7100000009}},{"attributes":{"ID":241868,"DIS_CODE":0,"TOWNNAME":"東區","LI":"中西里","LIN":"14鄰","STREET":"東寧路","SECT":" ","MAREA":" ","LANE":" ","ALLEY":" ","HOUSE_NO":"５８號八樓之１","E_COORD97":170111.59,"N_COORD97":2543575.71,"ADDRESS":"東寧路５８號八樓之１","OBJECTID":241864},"geometry":{"x":170111.59000000078,"y":2543575.7100000009}},{"attributes":{"ID":241869,"DIS_CODE":0,"TOWNNAME":"中西區","LI":"藥王里","LIN":"16鄰","STREET":"民權路","SECT":"三段","MAREA":" ","LANE":"４００巷","ALLEY":" ","HOUSE_NO":"１０號四樓","E_COORD97":166822.95999999999,"N_COORD97":2544440.6200000001,"ADDRESS":"民權路三段４００巷１０號四樓","OBJECTID":241865},"geometry":{"x":166822.95999999996,"y":2544440.620000001}},{"attributes":{"ID":241870,"DIS_CODE":0,"TOWNNAME":"中西區","LI":"藥王里","LIN":"16鄰","STREET":"民權路","SECT":"三段","MAREA":" ","LANE":"４００巷","ALLEY":" ","HOUSE_NO":"３２號八樓","E_COORD97":166816.34,"N_COORD97":2544492.29,"ADDRESS":"民權路三段４００巷３２號八樓","OBJECTID":241866},"geometry":{"x":166816.34000000078,"y":2544492.2899999991}},{"attributes":{"ID":241871,"DIS_CODE":0,"TOWNNAME":"永康區","LI":"復國里","LIN":"1鄰","STREET":"復國二路","SECT":" ","MAREA":" ","LANE":"１０巷","ALLEY":" ","HOUSE_NO":"７號","E_COORD97":172859.25,"N_COORD97":2544761.54,"ADDRESS":"復國二路１０巷７號","OBJECTID":241867},"geometry":{"x":172859.25,"y":2544761.5399999991}},{"attributes":{"ID":241872,"DIS_CODE":0,"TOWNNAME":"中西區","LI":"藥王里","LIN":"16鄰","STREET":"民權路","SECT":"三段","MAREA":" ","LANE":"４００巷","ALLEY":" ","HOUSE_NO":"３２號十樓","E_COORD97":166816.34,"N_COORD97":2544492.29,"ADDRESS":"民權路三段４００巷３２號十樓","OBJECTID":241868},"geometry":{"x":166816.34000000078,"y":2544492.2899999991}},{"attributes":{"ID":241873,"DIS_CODE":0,"TOWNNAME":"中西區","LI":"藥王里","LIN":"16鄰","STREET":"民權路","SECT":"三段","MAREA":" ","LANE":"４００巷","ALLEY":" ","HOUSE_NO":"３２號三樓","E_COORD97":166816.34,"N_COORD97":2544492.29,"ADDRESS":"民權路三段４００巷３２號三樓","OBJECTID":241869},"geometry":{"x":166816.34000000078,"y":2544492.2899999991}},{"attributes":{"ID":241874,"DIS_CODE":0,"TOWNNAME":"中西區","LI":"藥王里","LIN":"16鄰","STREET":"民權路","SECT":"三段","MAREA":" ","LANE":"４００巷","ALLEY":" ","HOUSE_NO":"３２號五樓","E_COORD97":166816.34,"N_COORD97":2544492.29,"ADDRESS":"民權路三段４００巷３２號五樓","OBJECTID":241870},"geometry":{"x":166816.34000000078,"y":2544492.2899999991}},{"attributes":{"ID":241875,"DIS_CODE":0,"TOWNNAME":"中西區","LI":"藥王里","LIN":"16鄰","STREET":"民權路","SECT":"三段","MAREA":" ","LANE":"４００巷","ALLEY":" ","HOUSE_NO":"３２號六樓","E_COORD97":166816.34,"N_COORD97":2544492.29,"ADDRESS":"民權路三段４００巷３２號六樓","OBJECTID":241871},"geometry":{"x":166816.34000000078,"y":2544492.2899999991}},{"attributes":{"ID":241876,"DIS_CODE":0,"TOWNNAME":"楠西區","LI":"楠西里","LIN":"24鄰","STREET":"中興路","SECT":" ","MAREA":" ","LANE":"６３巷","ALLEY":" ","HOUSE_NO":"１０號","E_COORD97":197170.16,"N_COORD97":2564372.25,"ADDRESS":"中興路６３巷１０號","OBJECTID":241872},"geometry":{"x":197170.16000000108,"y":2564372.2500000019}},{"attributes":{"ID":241877,"DIS_CODE":0,"TOWNNAME":"楠西區","LI":"楠西里","LIN":"24鄰","STREET":"中興路","SECT":" ","MAREA":" ","LANE":"６３巷","ALLEY":" ","HOUSE_NO":"２２號","E_COORD97":197150.06,"N_COORD97":2564377.25,"ADDRESS":"中興路６３巷２２號","OBJECTID":241873},"geometry":{"x":197150.06000000052,"y":2564377.25}},{"attributes":{"ID":241878,"DIS_CODE":0,"TOWNNAME":"楠西區","LI":"楠西里","LIN":"24鄰","STREET":"中興路","SECT":" ","MAREA":" ","LANE":"６３巷","ALLEY":" ","HOUSE_NO":"１８號","E_COORD97":197157.35999999999,"N_COORD97":2564375.2400000002,"ADDRESS":"中興路６３巷１８號","OBJECTID":241874},"geometry":{"x":197157.36000000127,"y":2564375.2400000039}},{"attributes":{"ID":241879,"DIS_CODE":0,"TOWNNAME":"楠西區","LI":"楠西里","LIN":"24鄰","STREET":"中興路","SECT":" ","MAREA":" ","LANE":"６３巷","ALLEY":" ","HOUSE_NO":"１６號","E_COORD97":197160.56,"N_COORD97":2564374.25,"ADDRESS":"中興路６３巷１６號","OBJECTID":241875},"geometry":{"x":197160.55999999959,"y":2564374.25}},{"attributes":{"ID":241880,"DIS_CODE":0,"TOWNNAME":"楠西區","LI":"楠西里","LIN":"24鄰","STREET":"中興路","SECT":" ","MAREA":" ","LANE":"６３巷","ALLEY":" ","HOUSE_NO":"１４號","E_COORD97":197163.76000000001,"N_COORD97":2564373.25,"ADDRESS":"中興路６３巷１４號","OBJECTID":241876},"geometry":{"x":197163.76000000071,"y":2564373.2500000019}},{"attributes":{"ID":241881,"DIS_CODE":0,"TOWNNAME":"楠西區","LI":"楠西里","LIN":"24鄰","STREET":"中興路","SECT":" ","MAREA":" ","LANE":"６３巷","ALLEY":" ","HOUSE_NO":"１５號","E_COORD97":197141.57000000001,"N_COORD97":2564365.8900000001,"ADDRESS":"中興路６３巷１５號","OBJECTID":241877},"geometry":{"x":197141.57000000216,"y":2564365.8900000025}},{"attributes":{"ID":241882,"DIS_CODE":0,"TOWNNAME":"新營區","LI":"民生里","LIN":"24鄰","STREET":"民生路","SECT":" ","MAREA":" ","LANE":"１３９巷","ALLEY":" ","HOUSE_NO":"２５號","E_COORD97":179127.38,"N_COORD97":2578564.6800000002,"ADDRESS":"民生路１３９巷２５號","OBJECTID":241878},"geometry":{"x":179127.37999999989,"y":2578564.6800000016}},{"attributes":{"ID":241883,"DIS_CODE":0,"TOWNNAME":"新營區","LI":"民榮里","LIN":"24鄰","STREET":"裕民路","SECT":" ","MAREA":" ","LANE":"１２巷","ALLEY":" ","HOUSE_NO":"１６號","E_COORD97":179083.51000000001,"N_COORD97":2577962.4399999999,"ADDRESS":"裕民路１２巷１６號","OBJECTID":241879},"geometry":{"x":179083.50999999978,"y":2577962.4400000013}},{"attributes":{"ID":241884,"DIS_CODE":0,"TOWNNAME":"新營區","LI":"南紙里","LIN":"24鄰","STREET":"南紙街","SECT":" ","MAREA":" ","LANE":"１１７巷","ALLEY":" ","HOUSE_NO":"６８號","E_COORD97":177975.32999999999,"N_COORD97":2577461.6699999999,"ADDRESS":"南紙街１１７巷６８號","OBJECTID":241880},"geometry":{"x":177975.32999999914,"y":2577461.6699999999}},{"attributes":{"ID":241885,"DIS_CODE":0,"TOWNNAME":"新營區","LI":"民榮里","LIN":"24鄰","STREET":"裕民路","SECT":" ","MAREA":" ","LANE":"１２巷","ALLEY":" ","HOUSE_NO":"１０號","E_COORD97":179097.82999999999,"N_COORD97":2577962.3700000001,"ADDRESS":"裕民路１２巷１０號","OBJECTID":241881},"geometry":{"x":179097.83000000101,"y":2577962.370000001}},{"attributes":{"ID":241886,"DIS_CODE":0,"TOWNNAME":"新營區","LI":"南紙里","LIN":"24鄰","STREET":"建業路","SECT":" ","MAREA":" ","LANE":"２６９巷","ALLEY":" ","HOUSE_NO":"１２號","E_COORD97":177974.14000000001,"N_COORD97":2577430.6699999999,"ADDRESS":"建業路２６９巷１２號","OBJECTID":241882},"geometry":{"x":177974.13999999966,"y":2577430.6699999999}},{"attributes":{"ID":241887,"DIS_CODE":0,"TOWNNAME":"新營區","LI":"民權里","LIN":"24鄰","STREET":"民治路","SECT":" ","MAREA":" ","LANE":"５３巷","ALLEY":" ","HOUSE_NO":"１之１７號","E_COORD97":179665.69,"N_COORD97":2578761.52,"ADDRESS":"民治路５３巷１之１７號","OBJECTID":241883},"geometry":{"x":179665.69000000134,"y":2578761.5200000033}},{"attributes":{"ID":241888,"DIS_CODE":0,"TOWNNAME":"新營區","LI":"民權里","LIN":"24鄰","STREET":"民治路","SECT":" ","MAREA":" ","LANE":"５３巷","ALLEY":" ","HOUSE_NO":"１之９號","E_COORD97":179668.70000000001,"N_COORD97":2578795.8300000001,"ADDRESS":"民治路５３巷１之９號","OBJECTID":241884},"geometry":{"x":179668.70000000112,"y":2578795.8300000001}},{"attributes":{"ID":241889,"DIS_CODE":0,"TOWNNAME":"東區","LI":"中西里","LIN":"14鄰","STREET":"東寧路","SECT":" ","MAREA":" ","LANE":" ","ALLEY":" ","HOUSE_NO":"５８號八樓之２","E_COORD97":170111.59,"N_COORD97":2543575.71,"ADDRESS":"東寧路５８號八樓之２","OBJECTID":241885},"geometry":{"x":170111.59000000078,"y":2543575.7100000009}},{"attributes":{"ID":241890,"DIS_CODE":0,"TOWNNAME":"東區","LI":"德高里","LIN":"11鄰","STREET":"崇善路","SECT":" ","MAREA":" ","LANE":"９１３巷","ALLEY":" ","HOUSE_NO":"３２號之３","E_COORD97":171443.39708600001,"N_COORD97":2540785.3435,"ADDRESS":"崇善路９１３巷３２號之３","OBJECTID":241886},"geometry":{"x":171443.397086001,"y":2540785.3434949983}},{"attributes":{"ID":241891,"DIS_CODE":0,"TOWNNAME":"東區","LI":"中西里","LIN":"14鄰","STREET":"東寧路","SECT":" ","MAREA":" ","LANE":" ","ALLEY":" ","HOUSE_NO":"５８號九樓之１","E_COORD97":170111.59,"N_COORD97":2543575.71,"ADDRESS":"東寧路５８號九樓之１","OBJECTID":241887},"geometry":{"x":170111.59000000078,"y":2543575.7100000009}},{"attributes":{"ID":241892,"DIS_CODE":0,"TOWNNAME":"東區","LI":"中西里","LIN":"14鄰","STREET":"東寧路","SECT":" ","MAREA":" ","LANE":" ","ALLEY":" ","HOUSE_NO":"５８號九樓之２","E_COORD97":170111.59,"N_COORD97":2543575.71,"ADDRESS":"東寧路５８號九樓之２","OBJECTID":241888},"geometry":{"x":170111.59000000078,"y":2543575.7100000009}},{"attributes":{"ID":241893,"DIS_CODE":0,"TOWNNAME":"東區","LI":"中西里","LIN":"14鄰","STREET":"東寧路","SECT":" ","MAREA":" ","LANE":" ","ALLEY":" ","HOUSE_NO":"５８號十樓","E_COORD97":170111.59,"N_COORD97":2543575.71,"ADDRESS":"東寧路５８號十樓","OBJECTID":241889},"geometry":{"x":170111.59000000078,"y":2543575.7100000009}},{"attributes":{"ID":241894,"DIS_CODE":0,"TOWNNAME":"東區","LI":"中西里","LIN":"14鄰","STREET":"東寧路","SECT":" ","MAREA":" ","LANE":" ","ALLEY":" ","HOUSE_NO":"５８號十樓之１","E_COORD97":170111.59,"N_COORD97":2543575.71,"ADDRESS":"東寧路５８號十樓之１","OBJECTID":241890},"geometry":{"x":170111.59000000078,"y":2543575.7100000009}},{"attributes":{"ID":241895,"DIS_CODE":0,"TOWNNAME":"東區","LI":"中西里","LIN":"14鄰","STREET":"東寧路","SECT":" ","MAREA":" ","LANE":" ","ALLEY":" ","HOUSE_NO":"５８號十樓之２","E_COORD97":170111.59,"N_COORD97":2543575.71,"ADDRESS":"東寧路５８號十樓之２","OBJECTID":241891},"geometry":{"x":170111.59000000078,"y":2543575.7100000009}},{"attributes":{"ID":241896,"DIS_CODE":0,"TOWNNAME":"東區","LI":"中西里","LIN":"14鄰","STREET":"東寧路","SECT":" ","MAREA":" ","LANE":" ","ALLEY":" ","HOUSE_NO":"５８號十一樓","E_COORD97":170111.59,"N_COORD97":2543575.71,"ADDRESS":"東寧路５８號十一樓","OBJECTID":241892},"geometry":{"x":170111.59000000078,"y":2543575.7100000009}},{"attributes":{"ID":241897,"DIS_CODE":0,"TOWNNAME":"新營區","LI":"新北里","LIN":"24鄰","STREET":"民生路","SECT":" ","MAREA":" ","LANE":"４２０巷","ALLEY":" ","HOUSE_NO":"２１號","E_COORD97":178855.20000000001,"N_COORD97":2579395.4700000002,"ADDRESS":"民生路４２０巷２１號","OBJECTID":241893},"geometry":{"x":178855.20000000112,"y":2579395.4700000007}},{"attributes":{"ID":241898,"DIS_CODE":0,"TOWNNAME":"北區","LI":"文元里","LIN":"24鄰","STREET":"文賢路","SECT":" ","MAREA":" ","LANE":"１１２２巷","ALLEY":" ","HOUSE_NO":"２６８號","E_COORD97":167889.54000000001,"N_COORD97":2546456.9199999999,"ADDRESS":"文賢路１１２２巷２６８號","OBJECTID":241894},"geometry":{"x":167889.54000000097,"y":2546456.9200000018}},{"attributes":{"ID":241899,"DIS_CODE":0,"TOWNNAME":"北區","LI":"文元里","LIN":"24鄰","STREET":"文賢路","SECT":" ","MAREA":" ","LANE":"１１２２巷","ALLEY":" ","HOUSE_NO":"２７０號","E_COORD97":167893.98999999999,"N_COORD97":2546453.8700000001,"ADDRESS":"文賢路１１２２巷２７０號","OBJECTID":241895},"geometry":{"x":167893.99000000115,"y":2546453.8700000048}},{"attributes":{"ID":241900,"DIS_CODE":0,"TOWNNAME":"北區","LI":"文元里","LIN":"24鄰","STREET":"文賢路","SECT":" ","MAREA":" ","LANE":"１１２２巷","ALLEY":" ","HOUSE_NO":"２７２號","E_COORD97":167898.94,"N_COORD97":2546457.5499999998,"ADDRESS":"文賢路１１２２巷２７２號","OBJECTID":241896},"geometry":{"x":167898.94000000227,"y":2546457.5500000007}},{"attributes":{"ID":241901,"DIS_CODE":0,"TOWNNAME":"北區","LI":"文元里","LIN":"24鄰","STREET":"文賢路","SECT":" ","MAREA":" ","LANE":"１１２２巷","ALLEY":" ","HOUSE_NO":"２７６號","E_COORD97":167904.01999999999,"N_COORD97":2546454.7599999998,"ADDRESS":"文賢路１１２２巷２７６號","OBJECTID":241897},"geometry":{"x":167904.01999999955,"y":2546454.7600000016}},{"attributes":{"ID":241902,"DIS_CODE":0,"TOWNNAME":"北區","LI":"文元里","LIN":"24鄰","STREET":"文賢路","SECT":" ","MAREA":" ","LANE":"１１２２巷","ALLEY":" ","HOUSE_NO":"２７８號","E_COORD97":167908.09,"N_COORD97":2546458.3100000001,"ADDRESS":"文賢路１１２２巷２７８號","OBJECTID":241898},"geometry":{"x":167908.09000000078,"y":2546458.3100000024}},{"attributes":{"ID":241903,"DIS_CODE":0,"TOWNNAME":"北區","LI":"三德里","LIN":"5鄰","STREET":"裕民街","SECT":" ","MAREA":" ","LANE":"７２巷","ALLEY":" ","HOUSE_NO":"４號","E_COORD97":168502.95999999999,"N_COORD97":2544490.0499999998,"ADDRESS":"裕民街７２巷４號","OBJECTID":241899},"geometry":{"x":168502.95999999996,"y":2544490.0500000026}},{"attributes":{"ID":241904,"DIS_CODE":0,"TOWNNAME":"北區","LI":"重興里","LIN":"24鄰","STREET":"東豐路","SECT":" ","MAREA":" ","LANE":"４５１巷","ALLEY":" ","HOUSE_NO":"３１號","E_COORD97":170806.60999999999,"N_COORD97":2544794.3300000001,"ADDRESS":"東豐路４５１巷３１號","OBJECTID":241900},"geometry":{"x":170806.6100000022,"y":2544794.3300000001}},{"attributes":{"ID":241905,"DIS_CODE":0,"TOWNNAME":"北區","LI":"重興里","LIN":"24鄰","STREET":"東豐路","SECT":" ","MAREA":" ","LANE":"４５１巷","ALLEY":" ","HOUSE_NO":"３３號","E_COORD97":170813.75,"N_COORD97":2544803.6699999999,"ADDRESS":"東豐路４５１巷３３號","OBJECTID":241901},"geometry":{"x":170813.75000000186,"y":2544803.6700000018}},{"attributes":{"ID":241906,"DIS_CODE":0,"TOWNNAME":"東區","LI":"富強里","LIN":"24鄰","STREET":"中華東路","SECT":"二段","MAREA":" ","LANE":"９６巷","ALLEY":" ","HOUSE_NO":"６號五樓","E_COORD97":171336.45999999999,"N_COORD97":2542885.3100000001,"ADDRESS":"中華東路二段９６巷６號五樓","OBJECTID":241902},"geometry":{"x":171336.46000000089,"y":2542885.3100000005}},{"attributes":{"ID":241907,"DIS_CODE":0,"TOWNNAME":"永康區","LI":"三合里","LIN":"24鄰","STREET":"南工街","SECT":" ","MAREA":" ","LANE":"２６７巷","ALLEY":" ","HOUSE_NO":"５０號四樓之５","E_COORD97":171844.35999999999,"N_COORD97":2545845.04,"ADDRESS":"南工街２６７巷５０號四樓之５","OBJECTID":241903},"geometry":{"x":171844.36000000127,"y":2545845.040000001}},{"attributes":{"ID":241908,"DIS_CODE":0,"TOWNNAME":"永康區","LI":"三合里","LIN":"24鄰","STREET":"南工街","SECT":" ","MAREA":" ","LANE":"２６７巷","ALLEY":" ","HOUSE_NO":"６６號十樓之６","E_COORD97":171848.01000000001,"N_COORD97":2545837.79,"ADDRESS":"南工街２６７巷６６號十樓之６","OBJECTID":241904},"geometry":{"x":171848.01000000071,"y":2545837.7899999991}},{"attributes":{"ID":241909,"DIS_CODE":0,"TOWNNAME":"永康區","LI":"三合里","LIN":"24鄰","STREET":"南工街","SECT":" ","MAREA":" ","LANE":"２６７巷","ALLEY":" ","HOUSE_NO":"５０號六樓之６","E_COORD97":171844.31,"N_COORD97":2545845.04,"ADDRESS":"南工街２６７巷５０號六樓之６","OBJECTID":241905},"geometry":{"x":171844.31000000052,"y":2545845.040000001}},{"attributes":{"ID":241910,"DIS_CODE":0,"TOWNNAME":"永康區","LI":"三合里","LIN":"24鄰","STREET":"南工街","SECT":" ","MAREA":" ","LANE":"２６７巷","ALLEY":" ","HOUSE_NO":"５０號七樓之１","E_COORD97":171844.20000000001,"N_COORD97":2545845.04,"ADDRESS":"南工街２６７巷５０號七樓之１","OBJECTID":241906},"geometry":{"x":171844.20000000019,"y":2545845.040000001}},{"attributes":{"ID":241911,"DIS_CODE":0,"TOWNNAME":"永康區","LI":"三合里","LIN":"24鄰","STREET":"南工街","SECT":" ","MAREA":" ","LANE":"２６７巷","ALLEY":" ","HOUSE_NO":"５０號五樓之２","E_COORD97":171844.34,"N_COORD97":2545845.04,"ADDRESS":"南工街２６７巷５０號五樓之２","OBJECTID":241907},"geometry":{"x":171844.34000000078,"y":2545845.040000001}},{"attributes":{"ID":241912,"DIS_CODE":0,"TOWNNAME":"永康區","LI":"三合里","LIN":"24鄰","STREET":"南工街","SECT":" ","MAREA":" ","LANE":"３１１巷","ALLEY":" ","HOUSE_NO":"７９號九樓之１","E_COORD97":171800.12,"N_COORD97":2545806.7999999998,"ADDRESS":"南工街３１１巷７９號九樓之１","OBJECTID":241908},"geometry":{"x":171800.12000000104,"y":2545806.8000000026}},{"attributes":{"ID":241913,"DIS_CODE":0,"TOWNNAME":"永康區","LI":"三合里","LIN":"24鄰","STREET":"南工街","SECT":" ","MAREA":" ","LANE":"３１１巷","ALLEY":" ","HOUSE_NO":"７９號十樓之１","E_COORD97":171800.12,"N_COORD97":2545806.7999999998,"ADDRESS":"南工街３１１巷７９號十樓之１","OBJECTID":241909},"geometry":{"x":171800.12000000104,"y":2545806.8000000026}},{"attributes":{"ID":241914,"DIS_CODE":0,"TOWNNAME":"永康區","LI":"三合里","LIN":"24鄰","STREET":"南工街","SECT":" ","MAREA":" ","LANE":"２６７巷","ALLEY":" ","HOUSE_NO":"４６號六樓之３","E_COORD97":171855.34,"N_COORD97":2545843.79,"ADDRESS":"南工街２６７巷４６號六樓之３","OBJECTID":241910},"geometry":{"x":171855.33999999985,"y":2545843.7899999991}},{"attributes":{"ID":241915,"DIS_CODE":0,"TOWNNAME":"永康區","LI":"三合里","LIN":"24鄰","STREET":"南工街","SECT":" ","MAREA":" ","LANE":"２６７巷","ALLEY":" ","HOUSE_NO":"６６號九樓之５","E_COORD97":171848.06,"N_COORD97":2545837.79,"ADDRESS":"南工街２６７巷６６號九樓之５","OBJECTID":241911},"geometry":{"x":171848.05999999959,"y":2545837.7899999991}},{"attributes":{"ID":241916,"DIS_CODE":0,"TOWNNAME":"北區","LI":"三德里","LIN":"5鄰","STREET":"忠義路","SECT":"三段","MAREA":" ","LANE":"３９巷","ALLEY":" ","HOUSE_NO":"１２號地下層","E_COORD97":168491.64000000001,"N_COORD97":2544454.3300000001,"ADDRESS":"忠義路三段３９巷１２號地下層","OBJECTID":241912},"geometry":{"x":168491.64000000153,"y":2544454.3300000019}},{"attributes":{"ID":241917,"DIS_CODE":0,"TOWNNAME":"北區","LI":"三德里","LIN":"5鄰","STREET":"忠義路","SECT":"三段","MAREA":" ","LANE":"３９巷","ALLEY":" ","HOUSE_NO":"１４號","E_COORD97":168485.23000000001,"N_COORD97":2544457.5899999999,"ADDRESS":"忠義路三段３９巷１４號","OBJECTID":241913},"geometry":{"x":168485.23000000231,"y":2544457.5900000036}},{"attributes":{"ID":241918,"DIS_CODE":0,"TOWNNAME":"北區","LI":"三德里","LIN":"5鄰","STREET":"忠義路","SECT":"三段","MAREA":" ","LANE":"３９巷","ALLEY":" ","HOUSE_NO":"１４號之１","E_COORD97":168492.73000000001,"N_COORD97":2544466.8500000001,"ADDRESS":"忠義路三段３９巷１４號之１","OBJECTID":241914},"geometry":{"x":168492.73000000138,"y":2544466.8500000015}},{"attributes":{"ID":241919,"DIS_CODE":0,"TOWNNAME":"北區","LI":"三德里","LIN":"5鄰","STREET":"忠義路","SECT":"三段","MAREA":" ","LANE":"３９巷","ALLEY":" ","HOUSE_NO":"１４號地下層","E_COORD97":168485.23000000001,"N_COORD97":2544457.5899999999,"ADDRESS":"忠義路三段３９巷１４號地下層","OBJECTID":241915},"geometry":{"x":168485.23000000231,"y":2544457.5900000036}},{"attributes":{"ID":241920,"DIS_CODE":0,"TOWNNAME":"北區","LI":"三德里","LIN":"5鄰","STREET":"忠義路","SECT":"三段","MAREA":" ","LANE":"３９巷","ALLEY":" ","HOUSE_NO":"２號","E_COORD97":168514.54999999999,"N_COORD97":2544467.3999999999,"ADDRESS":"忠義路三段３９巷２號","OBJECTID":241916},"geometry":{"x":168514.55000000168,"y":2544467.4000000022}},{"attributes":{"ID":241921,"DIS_CODE":0,"TOWNNAME":"北區","LI":"三德里","LIN":"5鄰","STREET":"忠義路","SECT":"三段","MAREA":" ","LANE":"３９巷","ALLEY":" ","HOUSE_NO":"４號","E_COORD97":168510.04999999999,"N_COORD97":2544461.4100000001,"ADDRESS":"忠義路三段３９巷４號","OBJECTID":241917},"geometry":{"x":168510.05000000075,"y":2544461.4100000001}},{"attributes":{"ID":241922,"DIS_CODE":0,"TOWNNAME":"北區","LI":"三德里","LIN":"5鄰","STREET":"忠義路","SECT":"三段","MAREA":" ","LANE":"３９巷","ALLEY":" ","HOUSE_NO":"６號","E_COORD97":168508.14000000001,"N_COORD97":2544457.5899999999,"ADDRESS":"忠義路三段３９巷６號","OBJECTID":241918},"geometry":{"x":168508.13999999966,"y":2544457.5900000036}},{"attributes":{"ID":241923,"DIS_CODE":0,"TOWNNAME":"北區","LI":"三德里","LIN":"5鄰","STREET":"忠義路","SECT":"三段","MAREA":" ","LANE":"３９巷","ALLEY":" ","HOUSE_NO":"８號","E_COORD97":168507.32000000001,"N_COORD97":2544454.6000000001,"ADDRESS":"忠義路三段３９巷８號","OBJECTID":241919},"geometry":{"x":168507.3200000003,"y":2544454.6000000015}},{"attributes":{"ID":241924,"DIS_CODE":0,"TOWNNAME":"北區","LI":"三德里","LIN":"5鄰","STREET":"裕民街","SECT":" ","MAREA":" ","LANE":"７２巷","ALLEY":" ","HOUSE_NO":"１０號","E_COORD97":168511.54999999999,"N_COORD97":2544482.7799999998,"ADDRESS":"裕民街７２巷１０號","OBJECTID":241920},"geometry":{"x":168511.55000000075,"y":2544482.7800000031}},{"attributes":{"ID":241925,"DIS_CODE":0,"TOWNNAME":"北區","LI":"三德里","LIN":"5鄰","STREET":"裕民街","SECT":" ","MAREA":" ","LANE":"７２巷","ALLEY":" ","HOUSE_NO":"１２號","E_COORD97":168516.73000000001,"N_COORD97":2544477.4700000002,"ADDRESS":"裕民街７２巷１２號","OBJECTID":241921},"geometry":{"x":168516.73000000045,"y":2544477.4700000025}},{"attributes":{"ID":241926,"DIS_CODE":0,"TOWNNAME":"北區","LI":"三德里","LIN":"5鄰","STREET":"裕民街","SECT":" ","MAREA":" ","LANE":"７２巷","ALLEY":" ","HOUSE_NO":"２號","E_COORD97":168500.51000000001,"N_COORD97":2544492.77,"ADDRESS":"裕民街７２巷２號","OBJECTID":241922},"geometry":{"x":168500.50999999978,"y":2544492.7699999996}},{"attributes":{"ID":241927,"DIS_CODE":0,"TOWNNAME":"北區","LI":"三德里","LIN":"5鄰","STREET":"裕民街","SECT":" ","MAREA":" ","LANE":"７２巷","ALLEY":" ","HOUSE_NO":"６號","E_COORD97":168505.28,"N_COORD97":2544487.8599999999,"ADDRESS":"裕民街７２巷６號","OBJECTID":241923},"geometry":{"x":168505.28000000119,"y":2544487.8599999994}},{"attributes":{"ID":241928,"DIS_CODE":0,"TOWNNAME":"永康區","LI":"三合里","LIN":"24鄰","STREET":"南工街","SECT":" ","MAREA":" ","LANE":"２６７巷","ALLEY":" ","HOUSE_NO":"６６號三樓之５","E_COORD97":171848.06,"N_COORD97":2545837.79,"ADDRESS":"南工街２６７巷６６號三樓之５","OBJECTID":241924},"geometry":{"x":171848.05999999959,"y":2545837.7899999991}},{"attributes":{"ID":241929,"DIS_CODE":0,"TOWNNAME":"永康區","LI":"三合里","LIN":"24鄰","STREET":"南工街","SECT":" ","MAREA":" ","LANE":"２６７巷","ALLEY":" ","HOUSE_NO":"５８號十樓之６","E_COORD97":171830.60999999999,"N_COORD97":2545838.54,"ADDRESS":"南工街２６７巷５８號十樓之６","OBJECTID":241925},"geometry":{"x":171830.61000000127,"y":2545838.540000001}},{"attributes":{"ID":241930,"DIS_CODE":0,"TOWNNAME":"永康區","LI":"三合里","LIN":"24鄰","STREET":"南工街","SECT":" ","MAREA":" ","LANE":"２６７巷","ALLEY":" ","HOUSE_NO":"６６號四樓之６","E_COORD97":171848.01000000001,"N_COORD97":2545837.79,"ADDRESS":"南工街２６７巷６６號四樓之６","OBJECTID":241926},"geometry":{"x":171848.01000000071,"y":2545837.7899999991}},{"attributes":{"ID":241931,"DIS_CODE":0,"TOWNNAME":"永康區","LI":"三合里","LIN":"24鄰","STREET":"南工街","SECT":" ","MAREA":" ","LANE":"２６７巷","ALLEY":" ","HOUSE_NO":"５０號九樓之５","E_COORD97":171844.35999999999,"N_COORD97":2545845.04,"ADDRESS":"南工街２６７巷５０號九樓之５","OBJECTID":241927},"geometry":{"x":171844.36000000127,"y":2545845.040000001}},{"attributes":{"ID":241932,"DIS_CODE":0,"TOWNNAME":"東區","LI":"富強里","LIN":"24鄰","STREET":"中華東路","SECT":"二段","MAREA":" ","LANE":"９６巷","ALLEY":" ","HOUSE_NO":"２號七樓","E_COORD97":171345.85000000001,"N_COORD97":2542886.8999999999,"ADDRESS":"中華東路二段９６巷２號七樓","OBJECTID":241928},"geometry":{"x":171345.84999999963,"y":2542886.9000000022}},{"attributes":{"ID":241933,"DIS_CODE":0,"TOWNNAME":"東區","LI":"富強里","LIN":"24鄰","STREET":"中華東路","SECT":"二段","MAREA":" ","LANE":"９６巷","ALLEY":" ","HOUSE_NO":"２號五樓","E_COORD97":171345.85000000001,"N_COORD97":2542886.8999999999,"ADDRESS":"中華東路二段９６巷２號五樓","OBJECTID":241929},"geometry":{"x":171345.84999999963,"y":2542886.9000000022}},{"attributes":{"ID":241934,"DIS_CODE":0,"TOWNNAME":"東區","LI":"富強里","LIN":"24鄰","STREET":"中華東路","SECT":"二段","MAREA":" ","LANE":"９６巷","ALLEY":" ","HOUSE_NO":"２號六樓之１","E_COORD97":171345.85000000001,"N_COORD97":2542886.8999999999,"ADDRESS":"中華東路二段９６巷２號六樓之１","OBJECTID":241930},"geometry":{"x":171345.84999999963,"y":2542886.9000000022}},{"attributes":{"ID":241935,"DIS_CODE":0,"TOWNNAME":"東區","LI":"富強里","LIN":"24鄰","STREET":"中華東路","SECT":"二段","MAREA":" ","LANE":"９６巷","ALLEY":" ","HOUSE_NO":"２號四樓","E_COORD97":171345.85000000001,"N_COORD97":2542886.8999999999,"ADDRESS":"中華東路二段９６巷２號四樓","OBJECTID":241931},"geometry":{"x":171345.84999999963,"y":2542886.9000000022}},{"attributes":{"ID":241936,"DIS_CODE":0,"TOWNNAME":"東區","LI":"富強里","LIN":"24鄰","STREET":"中華東路","SECT":"二段","MAREA":" ","LANE":"９６巷","ALLEY":" ","HOUSE_NO":"６號七樓之１","E_COORD97":171336.45999999999,"N_COORD97":2542885.3100000001,"ADDRESS":"中華東路二段９６巷６號七樓之１","OBJECTID":241932},"geometry":{"x":171336.46000000089,"y":2542885.3100000005}},{"attributes":{"ID":241937,"DIS_CODE":0,"TOWNNAME":"南區","LI":"府南里","LIN":"27鄰","STREET":"永成路","SECT":"三段","MAREA":" ","LANE":"５５１巷","ALLEY":" ","HOUSE_NO":"７號","E_COORD97":167469.484921,"N_COORD97":2541669.3879999998,"ADDRESS":"永成路三段５５１巷７號","OBJECTID":241933},"geometry":{"x":167469.4849210009,"y":2541669.3880010005}},{"attributes":{"ID":241938,"DIS_CODE":0,"TOWNNAME":"東區","LI":"富強里","LIN":"24鄰","STREET":"中華東路","SECT":"二段","MAREA":" ","LANE":"９６巷","ALLEY":" ","HOUSE_NO":"６號四樓之１","E_COORD97":171336.45999999999,"N_COORD97":2542885.3100000001,"ADDRESS":"中華東路二段９６巷６號四樓之１","OBJECTID":241934},"geometry":{"x":171336.46000000089,"y":2542885.3100000005}},{"attributes":{"ID":241939,"DIS_CODE":0,"TOWNNAME":"東區","LI":"富強里","LIN":"24鄰","STREET":"中華東路","SECT":"二段","MAREA":" ","LANE":"９６巷","ALLEY":" ","HOUSE_NO":"２號四樓之１","E_COORD97":171345.85000000001,"N_COORD97":2542886.8999999999,"ADDRESS":"中華東路二段９６巷２號四樓之１","OBJECTID":241935},"geometry":{"x":171345.84999999963,"y":2542886.9000000022}},{"attributes":{"ID":241940,"DIS_CODE":0,"TOWNNAME":"東區","LI":"富強里","LIN":"24鄰","STREET":"中華東路","SECT":"二段","MAREA":" ","LANE":"９６巷","ALLEY":" ","HOUSE_NO":"６號七樓","E_COORD97":171336.45999999999,"N_COORD97":2542885.3100000001,"ADDRESS":"中華東路二段９６巷６號七樓","OBJECTID":241936},"geometry":{"x":171336.46000000089,"y":2542885.3100000005}},{"attributes":{"ID":241941,"DIS_CODE":0,"TOWNNAME":"東區","LI":"富強里","LIN":"24鄰","STREET":"中華東路","SECT":"二段","MAREA":" ","LANE":"９６巷","ALLEY":" ","HOUSE_NO":"６號四樓","E_COORD97":171336.45999999999,"N_COORD97":2542885.3100000001,"ADDRESS":"中華東路二段９６巷６號四樓","OBJECTID":241937},"geometry":{"x":171336.46000000089,"y":2542885.3100000005}},{"attributes":{"ID":241942,"DIS_CODE":0,"TOWNNAME":"東區","LI":"富強里","LIN":"24鄰","STREET":"中華東路","SECT":"二段","MAREA":" ","LANE":"９６巷","ALLEY":" ","HOUSE_NO":"６號六樓之１","E_COORD97":171336.45999999999,"N_COORD97":2542885.3100000001,"ADDRESS":"中華東路二段９６巷６號六樓之１","OBJECTID":241938},"geometry":{"x":171336.46000000089,"y":2542885.3100000005}},{"attributes":{"ID":241943,"DIS_CODE":0,"TOWNNAME":"東區","LI":"富強里","LIN":"24鄰","STREET":"中華東路","SECT":"二段","MAREA":" ","LANE":"９６巷","ALLEY":" ","HOUSE_NO":"２號五樓之１","E_COORD97":171345.85000000001,"N_COORD97":2542886.8999999999,"ADDRESS":"中華東路二段９６巷２號五樓之１","OBJECTID":241939},"geometry":{"x":171345.84999999963,"y":2542886.9000000022}},{"attributes":{"ID":241944,"DIS_CODE":0,"TOWNNAME":"東區","LI":"富強里","LIN":"24鄰","STREET":"中華東路","SECT":"二段","MAREA":" ","LANE":"９６巷","ALLEY":" ","HOUSE_NO":"２號六樓","E_COORD97":171345.85000000001,"N_COORD97":2542886.8999999999,"ADDRESS":"中華東路二段９６巷２號六樓","OBJECTID":241940},"geometry":{"x":171345.84999999963,"y":2542886.9000000022}},{"attributes":{"ID":241945,"DIS_CODE":0,"TOWNNAME":"東區","LI":"富強里","LIN":"24鄰","STREET":"中華東路","SECT":"二段","MAREA":" ","LANE":"９６巷","ALLEY":" ","HOUSE_NO":"２號七樓之１","E_COORD97":171345.85000000001,"N_COORD97":2542886.8999999999,"ADDRESS":"中華東路二段９６巷２號七樓之１","OBJECTID":241941},"geometry":{"x":171345.84999999963,"y":2542886.9000000022}},{"attributes":{"ID":241946,"DIS_CODE":0,"TOWNNAME":"永康區","LI":"三合里","LIN":"24鄰","STREET":"南工街","SECT":" ","MAREA":" ","LANE":"２６７巷","ALLEY":" ","HOUSE_NO":"５８號十樓之２","E_COORD97":171830.64000000001,"N_COORD97":2545838.54,"ADDRESS":"南工街２６７巷５８號十樓之２","OBJECTID":241942},"geometry":{"x":171830.63999999966,"y":2545838.540000001}},{"attributes":{"ID":241947,"DIS_CODE":0,"TOWNNAME":"永康區","LI":"三合里","LIN":"24鄰","STREET":"南工街","SECT":" ","MAREA":" ","LANE":"２６７巷","ALLEY":" ","HOUSE_NO":"５８號八樓之１","E_COORD97":171830.5,"N_COORD97":2545838.54,"ADDRESS":"南工街２６７巷５８號八樓之１","OBJECTID":241943},"geometry":{"x":171830.5,"y":2545838.540000001}},{"attributes":{"ID":241948,"DIS_CODE":0,"TOWNNAME":"永康區","LI":"三合里","LIN":"24鄰","STREET":"南工街","SECT":" ","MAREA":" ","LANE":"２６７巷","ALLEY":" ","HOUSE_NO":"５０號九樓之６","E_COORD97":171844.31,"N_COORD97":2545845.04,"ADDRESS":"南工街２６７巷５０號九樓之６","OBJECTID":241944},"geometry":{"x":171844.31000000052,"y":2545845.040000001}},{"attributes":{"ID":241949,"DIS_CODE":0,"TOWNNAME":"永康區","LI":"三合里","LIN":"24鄰","STREET":"南工街","SECT":" ","MAREA":" ","LANE":"２６７巷","ALLEY":" ","HOUSE_NO":"６６號十一樓之３","E_COORD97":171849.25,"N_COORD97":2545837.79,"ADDRESS":"南工街２６７巷６６號十一樓之３","OBJECTID":241945},"geometry":{"x":171849.25,"y":2545837.7899999991}},{"attributes":{"ID":241950,"DIS_CODE":0,"TOWNNAME":"永康區","LI":"三合里","LIN":"24鄰","STREET":"南工街","SECT":" ","MAREA":" ","LANE":"２６７巷","ALLEY":" ","HOUSE_NO":"６６號八樓之７","E_COORD97":171847.98000000001,"N_COORD97":2545837.79,"ADDRESS":"南工街２６７巷６６號八樓之７","OBJECTID":241946},"geometry":{"x":171847.98000000045,"y":2545837.7899999991}},{"attributes":{"ID":241951,"DIS_CODE":0,"TOWNNAME":"永康區","LI":"三合里","LIN":"24鄰","STREET":"南工街","SECT":" ","MAREA":" ","LANE":"２６７巷","ALLEY":" ","HOUSE_NO":"５８號七樓之７","E_COORD97":171830.57999999999,"N_COORD97":2545838.54,"ADDRESS":"南工街２６７巷５８號七樓之７","OBJECTID":241947},"geometry":{"x":171830.58000000101,"y":2545838.540000001}},{"attributes":{"ID":241952,"DIS_CODE":0,"TOWNNAME":"永康區","LI":"三合里","LIN":"24鄰","STREET":"南工街","SECT":" ","MAREA":" ","LANE":"２６７巷","ALLEY":" ","HOUSE_NO":"５０號八樓之２","E_COORD97":171844.34,"N_COORD97":2545845.04,"ADDRESS":"南工街２６７巷５０號八樓之２","OBJECTID":241948},"geometry":{"x":171844.34000000078,"y":2545845.040000001}},{"attributes":{"ID":241953,"DIS_CODE":0,"TOWNNAME":"關廟區","LI":"深坑里","LIN":"14鄰","STREET":"深坑二街","SECT":" ","MAREA":" ","LANE":" ","ALLEY":" ","HOUSE_NO":"８３號","E_COORD97":181721.26999999999,"N_COORD97":2537427.2999999998,"ADDRESS":"深坑二街８３號","OBJECTID":241949},"geometry":{"x":181721.26999999955,"y":2537427.3000000007}},{"attributes":{"ID":241954,"DIS_CODE":0,"TOWNNAME":"永康區","LI":"三合里","LIN":"24鄰","STREET":"南工街","SECT":" ","MAREA":" ","LANE":"２６７巷","ALLEY":" ","HOUSE_NO":"５０號二樓之５","E_COORD97":171844.35999999999,"N_COORD97":2545845.04,"ADDRESS":"南工街２６７巷５０號二樓之５","OBJECTID":241950},"geometry":{"x":171844.36000000127,"y":2545845.040000001}},{"attributes":{"ID":241955,"DIS_CODE":0,"TOWNNAME":"永康區","LI":"三合里","LIN":"24鄰","STREET":"南工街","SECT":" ","MAREA":" ","LANE":"２６７巷","ALLEY":" ","HOUSE_NO":"６６號七樓之６","E_COORD97":171848.01000000001,"N_COORD97":2545837.79,"ADDRESS":"南工街２６７巷６６號七樓之６","OBJECTID":241951},"geometry":{"x":171848.01000000071,"y":2545837.7899999991}},{"attributes":{"ID":241956,"DIS_CODE":0,"TOWNNAME":"永康區","LI":"三合里","LIN":"24鄰","STREET":"南工街","SECT":" ","MAREA":" ","LANE":"２６７巷","ALLEY":" ","HOUSE_NO":"６６號八樓之５","E_COORD97":171848.06,"N_COORD97":2545837.79,"ADDRESS":"南工街２６７巷６６號八樓之５","OBJECTID":241952},"geometry":{"x":171848.05999999959,"y":2545837.7899999991}},{"attributes":{"ID":241957,"DIS_CODE":0,"TOWNNAME":"永康區","LI":"三合里","LIN":"24鄰","STREET":"南工街","SECT":" ","MAREA":" ","LANE":"２６７巷","ALLEY":" ","HOUSE_NO":"５８號三樓之３","E_COORD97":171830.60000000001,"N_COORD97":2545838.54,"ADDRESS":"南工街２６７巷５８號三樓之３","OBJECTID":241953},"geometry":{"x":171830.60000000056,"y":2545838.540000001}},{"attributes":{"ID":241958,"DIS_CODE":0,"TOWNNAME":"永康區","LI":"三合里","LIN":"24鄰","STREET":"南工街","SECT":" ","MAREA":" ","LANE":"２６７巷","ALLEY":" ","HOUSE_NO":"６６號十一樓之２","E_COORD97":171849.29000000001,"N_COORD97":2545837.79,"ADDRESS":"南工街２６７巷６６號十一樓之２","OBJECTID":241954},"geometry":{"x":171849.2900000019,"y":2545837.7899999991}},{"attributes":{"ID":241959,"DIS_CODE":0,"TOWNNAME":"永康區","LI":"三合里","LIN":"24鄰","STREET":"南工街","SECT":" ","MAREA":" ","LANE":"２６７巷","ALLEY":" ","HOUSE_NO":"５８號五樓之７","E_COORD97":171830.57999999999,"N_COORD97":2545838.54,"ADDRESS":"南工街２６７巷５８號五樓之７","OBJECTID":241955},"geometry":{"x":171830.58000000101,"y":2545838.540000001}},{"attributes":{"ID":241960,"DIS_CODE":0,"TOWNNAME":"永康區","LI":"三合里","LIN":"24鄰","STREET":"南工街","SECT":" ","MAREA":" ","LANE":"２６７巷","ALLEY":" ","HOUSE_NO":"５８號十樓之３","E_COORD97":171830.60000000001,"N_COORD97":2545838.54,"ADDRESS":"南工街２６７巷５８號十樓之３","OBJECTID":241956},"geometry":{"x":171830.60000000056,"y":2545838.540000001}},{"attributes":{"ID":241961,"DIS_CODE":0,"TOWNNAME":"永康區","LI":"三合里","LIN":"24鄰","STREET":"南工街","SECT":" ","MAREA":" ","LANE":"２６７巷","ALLEY":" ","HOUSE_NO":"５８號六樓之１","E_COORD97":171830.5,"N_COORD97":2545838.54,"ADDRESS":"南工街２６７巷５８號六樓之１","OBJECTID":241957},"geometry":{"x":171830.5,"y":2545838.540000001}},{"attributes":{"ID":241962,"DIS_CODE":0,"TOWNNAME":"永康區","LI":"三合里","LIN":"24鄰","STREET":"南工街","SECT":" ","MAREA":" ","LANE":"２６７巷","ALLEY":" ","HOUSE_NO":"５０號二樓之１","E_COORD97":171844.20000000001,"N_COORD97":2545845.04,"ADDRESS":"南工街２６７巷５０號二樓之１","OBJECTID":241958},"geometry":{"x":171844.20000000019,"y":2545845.040000001}},{"attributes":{"ID":241963,"DIS_CODE":0,"TOWNNAME":"永康區","LI":"三合里","LIN":"24鄰","STREET":"南工街","SECT":" ","MAREA":" ","LANE":"２６７巷","ALLEY":" ","HOUSE_NO":"６６號十一樓之１","E_COORD97":171849.14999999999,"N_COORD97":2545837.79,"ADDRESS":"南工街２６７巷６６號十一樓之１","OBJECTID":241959},"geometry":{"x":171849.1500000013,"y":2545837.7899999991}},{"attributes":{"ID":241964,"DIS_CODE":0,"TOWNNAME":"永康區","LI":"三合里","LIN":"24鄰","STREET":"南工街","SECT":" ","MAREA":" ","LANE":"２６７巷","ALLEY":" ","HOUSE_NO":"５８號八樓之５","E_COORD97":171830.66,"N_COORD97":2545838.54,"ADDRESS":"南工街２６７巷５８號八樓之５","OBJECTID":241960},"geometry":{"x":171830.66000000108,"y":2545838.540000001}},{"attributes":{"ID":241965,"DIS_CODE":0,"TOWNNAME":"永康區","LI":"三合里","LIN":"24鄰","STREET":"南工街","SECT":" ","MAREA":" ","LANE":"２６７巷","ALLEY":" ","HOUSE_NO":"５８號九樓之６","E_COORD97":171830.60999999999,"N_COORD97":2545838.54,"ADDRESS":"南工街２６７巷５８號九樓之６","OBJECTID":241961},"geometry":{"x":171830.61000000127,"y":2545838.540000001}},{"attributes":{"ID":241966,"DIS_CODE":0,"TOWNNAME":"永康區","LI":"三合里","LIN":"24鄰","STREET":"南工街","SECT":" ","MAREA":" ","LANE":"２６７巷","ALLEY":" ","HOUSE_NO":"５８號三樓之２","E_COORD97":171830.64000000001,"N_COORD97":2545838.54,"ADDRESS":"南工街２６７巷５８號三樓之２","OBJECTID":241962},"geometry":{"x":171830.63999999966,"y":2545838.540000001}},{"attributes":{"ID":241967,"DIS_CODE":0,"TOWNNAME":"永康區","LI":"三合里","LIN":"24鄰","STREET":"南工街","SECT":" ","MAREA":" ","LANE":"２６７巷","ALLEY":" ","HOUSE_NO":"５８號六樓之５","E_COORD97":171830.66,"N_COORD97":2545838.54,"ADDRESS":"南工街２６７巷５８號六樓之５","OBJECTID":241963},"geometry":{"x":171830.66000000108,"y":2545838.540000001}},{"attributes":{"ID":241968,"DIS_CODE":0,"TOWNNAME":"永康區","LI":"三合里","LIN":"24鄰","STREET":"南工街","SECT":" ","MAREA":" ","LANE":"２６７巷","ALLEY":" ","HOUSE_NO":"５８號二樓之６","E_COORD97":171830.60999999999,"N_COORD97":2545838.54,"ADDRESS":"南工街２６７巷５８號二樓之６","OBJECTID":241964},"geometry":{"x":171830.61000000127,"y":2545838.540000001}},{"attributes":{"ID":241969,"DIS_CODE":0,"TOWNNAME":"永康區","LI":"三合里","LIN":"24鄰","STREET":"南工街","SECT":" ","MAREA":" ","LANE":"２６７巷","ALLEY":" ","HOUSE_NO":"５８號四樓之６","E_COORD97":171830.60999999999,"N_COORD97":2545838.54,"ADDRESS":"南工街２６７巷５８號四樓之６","OBJECTID":241965},"geometry":{"x":171830.61000000127,"y":2545838.540000001}},{"attributes":{"ID":241970,"DIS_CODE":0,"TOWNNAME":"永康區","LI":"三合里","LIN":"24鄰","STREET":"南工街","SECT":" ","MAREA":" ","LANE":"２６７巷","ALLEY":" ","HOUSE_NO":"５８號十一樓之６","E_COORD97":171831.85999999999,"N_COORD97":2545838.54,"ADDRESS":"南工街２６７巷５８號十一樓之６","OBJECTID":241966},"geometry":{"x":171831.86000000034,"y":2545838.540000001}},{"attributes":{"ID":241971,"DIS_CODE":0,"TOWNNAME":"永康區","LI":"三合里","LIN":"24鄰","STREET":"南工街","SECT":" ","MAREA":" ","LANE":"２６７巷","ALLEY":" ","HOUSE_NO":"４６號十一樓之１","E_COORD97":171856.48999999999,"N_COORD97":2545843.79,"ADDRESS":"南工街２６７巷４６號十一樓之１","OBJECTID":241967},"geometry":{"x":171856.48999999929,"y":2545843.7899999991}},{"attributes":{"ID":241972,"DIS_CODE":0,"TOWNNAME":"永康區","LI":"三合里","LIN":"24鄰","STREET":"南工街","SECT":" ","MAREA":" ","LANE":"３１１巷","ALLEY":" ","HOUSE_NO":"７９號三樓之３","E_COORD97":171800.22,"N_COORD97":2545806.7999999998,"ADDRESS":"南工街３１１巷７９號三樓之３","OBJECTID":241968},"geometry":{"x":171800.2200000016,"y":2545806.8000000026}},{"attributes":{"ID":241973,"DIS_CODE":0,"TOWNNAME":"永康區","LI":"三合里","LIN":"24鄰","STREET":"南工街","SECT":" ","MAREA":" ","LANE":"２６７巷","ALLEY":" ","HOUSE_NO":"６６號十樓之５","E_COORD97":171848.06,"N_COORD97":2545837.79,"ADDRESS":"南工街２６７巷６６號十樓之５","OBJECTID":241969},"geometry":{"x":171848.05999999959,"y":2545837.7899999991}},{"attributes":{"ID":241974,"DIS_CODE":0,"TOWNNAME":"永康區","LI":"三合里","LIN":"24鄰","STREET":"南工街","SECT":" ","MAREA":" ","LANE":"３１１巷","ALLEY":" ","HOUSE_NO":"７９號六樓之３","E_COORD97":171800.22,"N_COORD97":2545806.7999999998,"ADDRESS":"南工街３１１巷７９號六樓之３","OBJECTID":241970},"geometry":{"x":171800.2200000016,"y":2545806.8000000026}},{"attributes":{"ID":241975,"DIS_CODE":0,"TOWNNAME":"仁德區","LI":"成功里","LIN":"20鄰","STREET":"成功一街","SECT":" ","MAREA":" ","LANE":"１３１巷","ALLEY":" ","HOUSE_NO":"２４號","E_COORD97":170622.07000000001,"N_COORD97":2539873.0099999998,"ADDRESS":"成功一街１３１巷２４號","OBJECTID":241971},"geometry":{"x":170622.07000000216,"y":2539873.0099999998}},{"attributes":{"ID":241976,"DIS_CODE":0,"TOWNNAME":"永康區","LI":"三合里","LIN":"24鄰","STREET":"南工街","SECT":" ","MAREA":" ","LANE":"２６７巷","ALLEY":" ","HOUSE_NO":"５０號十樓之１","E_COORD97":171844.20000000001,"N_COORD97":2545845.04,"ADDRESS":"南工街２６７巷５０號十樓之１","OBJECTID":241972},"geometry":{"x":171844.20000000019,"y":2545845.040000001}},{"attributes":{"ID":241977,"DIS_CODE":0,"TOWNNAME":"永康區","LI":"三合里","LIN":"24鄰","STREET":"南工街","SECT":" ","MAREA":" ","LANE":"２６７巷","ALLEY":" ","HOUSE_NO":"５０號四樓之６","E_COORD97":171844.31,"N_COORD97":2545845.04,"ADDRESS":"南工街２６７巷５０號四樓之６","OBJECTID":241973},"geometry":{"x":171844.31000000052,"y":2545845.040000001}},{"attributes":{"ID":241978,"DIS_CODE":0,"TOWNNAME":"東區","LI":"中西里","LIN":"14鄰","STREET":"東寧路","SECT":" ","MAREA":" ","LANE":" ","ALLEY":" ","HOUSE_NO":"５８號十一樓之１","E_COORD97":170111.59,"N_COORD97":2543575.71,"ADDRESS":"東寧路５８號十一樓之１","OBJECTID":241974},"geometry":{"x":170111.59000000078,"y":2543575.7100000009}},{"attributes":{"ID":241979,"DIS_CODE":0,"TOWNNAME":"東區","LI":"東聖里","LIN":"16鄰","STREET":"中華東路","SECT":"二段","MAREA":" ","LANE":"７３巷","ALLEY":" ","HOUSE_NO":"２號十三樓","E_COORD97":171454.13,"N_COORD97":2542990.02,"ADDRESS":"中華東路二段７３巷２號十三樓","OBJECTID":241975},"geometry":{"x":171454.13000000082,"y":2542990.0200000014}},{"attributes":{"ID":241980,"DIS_CODE":0,"TOWNNAME":"仁德區","LI":"仁義里","LIN":"39鄰","STREET":"仁義五街","SECT":" ","MAREA":" ","LANE":"４４巷","ALLEY":" ","HOUSE_NO":"４號","E_COORD97":173600.81,"N_COORD97":2540419.77,"ADDRESS":"仁義五街４４巷４號","OBJECTID":241976},"geometry":{"x":173600.80999999959,"y":2540419.7699999996}},{"attributes":{"ID":241981,"DIS_CODE":0,"TOWNNAME":"東區","LI":"崇成里","LIN":"14鄰","STREET":"崇明十六街","SECT":" ","MAREA":" ","LANE":" ","ALLEY":" ","HOUSE_NO":"４２號","E_COORD97":170725.66,"N_COORD97":2541280.8300000001,"ADDRESS":"崇明十六街４２號","OBJECTID":241977},"geometry":{"x":170725.66000000015,"y":2541280.8300000019}},{"attributes":{"ID":241982,"DIS_CODE":0,"TOWNNAME":"東區","LI":"中西里","LIN":"14鄰","STREET":"東寧路","SECT":" ","MAREA":" ","LANE":" ","ALLEY":" ","HOUSE_NO":"５８號十一樓之２","E_COORD97":170111.59,"N_COORD97":2543575.71,"ADDRESS":"東寧路５８號十一樓之２","OBJECTID":241978},"geometry":{"x":170111.59000000078,"y":2543575.7100000009}},{"attributes":{"ID":241983,"DIS_CODE":0,"TOWNNAME":"東山區","LI":"東山里","LIN":"22鄰","STREET":" ","SECT":" ","MAREA":"東山","LANE":" ","ALLEY":" ","HOUSE_NO":"３１１號","E_COORD97":188873.51000000001,"N_COORD97":2580477.0899999999,"ADDRESS":"東山３１１號","OBJECTID":241979},"geometry":{"x":188873.50999999978,"y":2580477.0900000036}},{"attributes":{"ID":241984,"DIS_CODE":0,"TOWNNAME":"東山區","LI":"東山里","LIN":"22鄰","STREET":" ","SECT":" ","MAREA":"東山","LANE":" ","ALLEY":" ","HOUSE_NO":"３１２號之１","E_COORD97":188836.79999999999,"N_COORD97":2580531,"ADDRESS":"東山３１２號之１","OBJECTID":241980},"geometry":{"x":188836.80000000075,"y":2580531}},{"attributes":{"ID":241985,"DIS_CODE":0,"TOWNNAME":"東山區","LI":"東山里","LIN":"22鄰","STREET":" ","SECT":" ","MAREA":"東山","LANE":" ","ALLEY":" ","HOUSE_NO":"３１２號之２","E_COORD97":188804.62,"N_COORD97":2580536.7000000002,"ADDRESS":"東山３１２號之２","OBJECTID":241981},"geometry":{"x":188804.62000000104,"y":2580536.700000003}},{"attributes":{"ID":241986,"DIS_CODE":0,"TOWNNAME":"東山區","LI":"東山里","LIN":"22鄰","STREET":" ","SECT":" ","MAREA":"東山","LANE":" ","ALLEY":" ","HOUSE_NO":"３１２號之５","E_COORD97":188804.92999999999,"N_COORD97":2580520.2400000002,"ADDRESS":"東山３１２號之５","OBJECTID":241982},"geometry":{"x":188804.93000000156,"y":2580520.2400000039}},{"attributes":{"ID":241987,"DIS_CODE":0,"TOWNNAME":"東區","LI":"中西里","LIN":"14鄰","STREET":"東寧路","SECT":" ","MAREA":" ","LANE":" ","ALLEY":" ","HOUSE_NO":"５８號十二樓","E_COORD97":170111.59,"N_COORD97":2543575.71,"ADDRESS":"東寧路５８號十二樓","OBJECTID":241983},"geometry":{"x":170111.59000000078,"y":2543575.7100000009}},{"attributes":{"ID":241988,"DIS_CODE":0,"TOWNNAME":"仁德區","LI":"太子里","LIN":"43鄰","STREET":"太子路","SECT":" ","MAREA":" ","LANE":"３１巷","ALLEY":" ","HOUSE_NO":"７５號","E_COORD97":175261.89000000001,"N_COORD97":2543076.25,"ADDRESS":"太子路３１巷７５號","OBJECTID":241984},"geometry":{"x":175261.88999999966,"y":2543076.25}},{"attributes":{"ID":241989,"DIS_CODE":0,"TOWNNAME":"永康區","LI":"三合里","LIN":"24鄰","STREET":"南工街","SECT":" ","MAREA":" ","LANE":"２６７巷","ALLEY":" ","HOUSE_NO":"５０號四樓之３","E_COORD97":171844.29999999999,"N_COORD97":2545845.04,"ADDRESS":"南工街２６７巷５０號四樓之３","OBJECTID":241985},"geometry":{"x":171844.30000000075,"y":2545845.040000001}},{"attributes":{"ID":241990,"DIS_CODE":0,"TOWNNAME":"中西區","LI":"西湖里","LIN":"24鄰","STREET":"湖美街","SECT":" ","MAREA":" ","LANE":"７０巷","ALLEY":" ","HOUSE_NO":"６號三樓之１","E_COORD97":165965.32999999999,"N_COORD97":2544744.7200000002,"ADDRESS":"湖美街７０巷６號三樓之１","OBJECTID":241986},"geometry":{"x":165965.33000000101,"y":2544744.7200000007}},{"attributes":{"ID":241991,"DIS_CODE":0,"TOWNNAME":"中西區","LI":"西湖里","LIN":"24鄰","STREET":"湖美街","SECT":" ","MAREA":" ","LANE":"７０巷","ALLEY":" ","HOUSE_NO":"６號三樓之２","E_COORD97":165954.35999999999,"N_COORD97":2544744.1899999999,"ADDRESS":"湖美街７０巷６號三樓之２","OBJECTID":241987},"geometry":{"x":165954.36000000034,"y":2544744.1899999995}},{"attributes":{"ID":241992,"DIS_CODE":0,"TOWNNAME":"中西區","LI":"西湖里","LIN":"24鄰","STREET":"湖美街","SECT":" ","MAREA":" ","LANE":"７０巷","ALLEY":" ","HOUSE_NO":"６號三樓之３","E_COORD97":165947.67999999999,"N_COORD97":2544736.4399999999,"ADDRESS":"湖美街７０巷６號三樓之３","OBJECTID":241988},"geometry":{"x":165947.68000000063,"y":2544736.4400000013}},{"attributes":{"ID":241993,"DIS_CODE":0,"TOWNNAME":"中西區","LI":"西湖里","LIN":"24鄰","STREET":"湖美街","SECT":" ","MAREA":" ","LANE":"７０巷","ALLEY":" ","HOUSE_NO":"６號三樓之５","E_COORD97":165947.94,"N_COORD97":2544728.96,"ADDRESS":"湖美街７０巷６號三樓之５","OBJECTID":241989},"geometry":{"x":165947.94000000134,"y":2544728.9600000028}},{"attributes":{"ID":241994,"DIS_CODE":0,"TOWNNAME":"中西區","LI":"西湖里","LIN":"24鄰","STREET":"湖美街","SECT":" ","MAREA":" ","LANE":"７０巷","ALLEY":" ","HOUSE_NO":"６號三樓之６","E_COORD97":165947.67999999999,"N_COORD97":2544723.3599999999,"ADDRESS":"湖美街７０巷６號三樓之６","OBJECTID":241990},"geometry":{"x":165947.68000000063,"y":2544723.3600000013}},{"attributes":{"ID":241995,"DIS_CODE":0,"TOWNNAME":"中西區","LI":"西湖里","LIN":"24鄰","STREET":"湖美街","SECT":" ","MAREA":" ","LANE":"７０巷","ALLEY":" ","HOUSE_NO":"６號四樓之１","E_COORD97":165965.32999999999,"N_COORD97":2544744.7200000002,"ADDRESS":"湖美街７０巷６號四樓之１","OBJECTID":241991},"geometry":{"x":165965.33000000101,"y":2544744.7200000007}},{"attributes":{"ID":241996,"DIS_CODE":0,"TOWNNAME":"中西區","LI":"西湖里","LIN":"24鄰","STREET":"湖美街","SECT":" ","MAREA":" ","LANE":"７０巷","ALLEY":" ","HOUSE_NO":"６號四樓之２","E_COORD97":165954.35999999999,"N_COORD97":2544744.1899999999,"ADDRESS":"湖美街７０巷６號四樓之２","OBJECTID":241992},"geometry":{"x":165954.36000000034,"y":2544744.1899999995}},{"attributes":{"ID":241997,"DIS_CODE":0,"TOWNNAME":"中西區","LI":"西湖里","LIN":"24鄰","STREET":"湖美街","SECT":" ","MAREA":" ","LANE":"７０巷","ALLEY":" ","HOUSE_NO":"６號四樓之３","E_COORD97":165947.67999999999,"N_COORD97":2544736.4399999999,"ADDRESS":"湖美街７０巷６號四樓之３","OBJECTID":241993},"geometry":{"x":165947.68000000063,"y":2544736.4400000013}},{"attributes":{"ID":241998,"DIS_CODE":0,"TOWNNAME":"東區","LI":"中西里","LIN":"14鄰","STREET":"東寧路","SECT":" ","MAREA":" ","LANE":" ","ALLEY":" ","HOUSE_NO":"５８號十二樓之１","E_COORD97":170111.59,"N_COORD97":2543575.71,"ADDRESS":"東寧路５８號十二樓之１","OBJECTID":241994},"geometry":{"x":170111.59000000078,"y":2543575.7100000009}},{"attributes":{"ID":241999,"DIS_CODE":0,"TOWNNAME":"中西區","LI":"西湖里","LIN":"24鄰","STREET":"湖美街","SECT":" ","MAREA":" ","LANE":"７０巷","ALLEY":" ","HOUSE_NO":"６號四樓之５","E_COORD97":165947.94,"N_COORD97":2544728.96,"ADDRESS":"湖美街７０巷６號四樓之５","OBJECTID":241995},"geometry":{"x":165947.94000000134,"y":2544728.9600000028}},{"attributes":{"ID":242000,"DIS_CODE":0,"TOWNNAME":"中西區","LI":"西湖里","LIN":"24鄰","STREET":"湖美街","SECT":" ","MAREA":" ","LANE":"７０巷","ALLEY":" ","HOUSE_NO":"６號四樓之６","E_COORD97":165947.67999999999,"N_COORD97":2544723.3599999999,"ADDRESS":"湖美街７０巷６號四樓之６","OBJECTID":241996},"geometry":{"x":165947.68000000063,"y":2544723.3600000013}},{"attributes":{"ID":242001,"DIS_CODE":0,"TOWNNAME":"中西區","LI":"西湖里","LIN":"24鄰","STREET":"湖美街","SECT":" ","MAREA":" ","LANE":"７０巷","ALLEY":" ","HOUSE_NO":"６號五樓之１","E_COORD97":165965.32999999999,"N_COORD97":2544744.7200000002,"ADDRESS":"湖美街７０巷６號五樓之１","OBJECTID":241997},"geometry":{"x":165965.33000000101,"y":2544744.7200000007}},{"attributes":{"ID":242002,"DIS_CODE":0,"TOWNNAME":"中西區","LI":"西湖里","LIN":"24鄰","STREET":"湖美街","SECT":" ","MAREA":" ","LANE":"７０巷","ALLEY":" ","HOUSE_NO":"６號五樓之２","E_COORD97":165954.35999999999,"N_COORD97":2544744.1899999999,"ADDRESS":"湖美街７０巷６號五樓之２","OBJECTID":241998},"geometry":{"x":165954.36000000034,"y":2544744.1899999995}},{"attributes":{"ID":242003,"DIS_CODE":0,"TOWNNAME":"中西區","LI":"西湖里","LIN":"24鄰","STREET":"湖美街","SECT":" ","MAREA":" ","LANE":"７０巷","ALLEY":" ","HOUSE_NO":"６號五樓之３","E_COORD97":165947.67999999999,"N_COORD97":2544736.4399999999,"ADDRESS":"湖美街７０巷６號五樓之３","OBJECTID":241999},"geometry":{"x":165947.68000000063,"y":2544736.4400000013}},{"attributes":{"ID":242004,"DIS_CODE":0,"TOWNNAME":"中西區","LI":"西湖里","LIN":"24鄰","STREET":"湖美街","SECT":" ","MAREA":" ","LANE":"７０巷","ALLEY":" ","HOUSE_NO":"６號五樓之５","E_COORD97":165947.94,"N_COORD97":2544728.96,"ADDRESS":"湖美街７０巷６號五樓之５","OBJECTID":242000},"geometry":{"x":165947.94000000134,"y":2544728.9600000028}}]}