{"displayFieldName":"TOWNNAME","fieldAliases":{"ID":"ID","DIS_CODE":"DIS_CODE","TOWNNAME":"TOWNNAME","LI":"LI","LIN":"LIN","STREET":"STREET","SECT":"SECT","MAREA":"MAREA","LANE":"LANE","ALLEY":"ALLEY","HOUSE_NO":"HOUSE_NO","E_COORD97":"E_COORD97","N_COORD97":"N_COORD97","ADDRESS":"ADDRESS","OBJECTID":"OBJECTID"},"geometryType":"esriGeometryPoint","spatialReference":{"wkid":102443,"latestWkid":3826},"fields":[{"name":"ID","type":"esriFieldTypeDouble","alias":"ID"},{"name":"DIS_CODE","type":"esriFieldTypeInteger","alias":"DIS_CODE"},{"name":"TOWNNAME","type":"esriFieldTypeString","alias":"TOWNNAME","length":8},{"name":"LI","type":"esriFieldTypeString","alias":"LI","length":8},{"name":"LIN","type":"esriFieldTypeString","alias":"LIN","length":12},{"name":"STREET","type":"esriFieldTypeString","alias":"STREET","length":20},{"name":"SECT","type":"esriFieldTypeString","alias":"SECT","length":8},{"name":"MAREA","type":"esriFieldTypeString","alias":"MAREA","length":12},{"name":"LANE","type":"esriFieldTypeString","alias":"LANE","length":10},{"name":"ALLEY","type":"esriFieldTypeString","alias":"ALLEY","length":10},{"name":"HOUSE_NO","type":"esriFieldTypeString","alias":"HOUSE_NO","length":20},{"name":"E_COORD97","type":"esriFieldTypeDouble","alias":"E_COORD97"},{"name":"N_COORD97","type":"esriFieldTypeDouble","alias":"N_COORD97"},{"name":"ADDRESS","type":"esriFieldTypeString","alias":"ADDRESS","length":50},{"name":"OBJECTID","type":"esriFieldTypeOID","alias":"OBJECTID"}],"features":[{"attributes":{"ID":505428,"DIS_CODE":0,"TOWNNAME":"安平區","LI":"建平里","LIN":"15鄰","STREET":"建平十二街","SECT":" ","MAREA":" ","LANE":" ","ALLEY":" ","HOUSE_NO":"８０號三樓之７","E_COORD97":166205.64999999999,"N_COORD97":2543969.6200000001,"ADDRESS":"建平十二街８０號三樓之７","OBJECTID":505401},"geometry":{"x":166205.65000000224,"y":2543969.620000001}},{"attributes":{"ID":505429,"DIS_CODE":0,"TOWNNAME":"安平區","LI":"建平里","LIN":"15鄰","STREET":"建平十二街","SECT":" ","MAREA":" ","LANE":" ","ALLEY":" ","HOUSE_NO":"８０號五樓之１","E_COORD97":166205.64999999999,"N_COORD97":2543969.6200000001,"ADDRESS":"建平十二街８０號五樓之１","OBJECTID":505402},"geometry":{"x":166205.65000000224,"y":2543969.620000001}},{"attributes":{"ID":505430,"DIS_CODE":0,"TOWNNAME":"安平區","LI":"建平里","LIN":"15鄰","STREET":"建平十二街","SECT":" ","MAREA":" ","LANE":" ","ALLEY":" ","HOUSE_NO":"８０號五樓之２","E_COORD97":166205.64999999999,"N_COORD97":2543969.6200000001,"ADDRESS":"建平十二街８０號五樓之２","OBJECTID":505403},"geometry":{"x":166205.65000000224,"y":2543969.620000001}},{"attributes":{"ID":505431,"DIS_CODE":0,"TOWNNAME":"安平區","LI":"建平里","LIN":"15鄰","STREET":"建平十二街","SECT":" ","MAREA":" ","LANE":" ","ALLEY":" ","HOUSE_NO":"８０號五樓之３","E_COORD97":166205.64999999999,"N_COORD97":2543969.6200000001,"ADDRESS":"建平十二街８０號五樓之３","OBJECTID":505404},"geometry":{"x":166205.65000000224,"y":2543969.620000001}},{"attributes":{"ID":505432,"DIS_CODE":0,"TOWNNAME":"善化區","LI":"文昌里","LIN":"15鄰","STREET":"永福路","SECT":" ","MAREA":" ","LANE":" ","ALLEY":" ","HOUSE_NO":"２５號二樓","E_COORD97":177605.85000000001,"N_COORD97":2558874.5,"ADDRESS":"永福路２５號二樓","OBJECTID":505405},"geometry":{"x":177605.85000000056,"y":2558874.5000000019}},{"attributes":{"ID":505433,"DIS_CODE":0,"TOWNNAME":"安平區","LI":"建平里","LIN":"15鄰","STREET":"建平十二街","SECT":" ","MAREA":" ","LANE":" ","ALLEY":" ","HOUSE_NO":"８０號五樓之４","E_COORD97":166205.64999999999,"N_COORD97":2543969.6200000001,"ADDRESS":"建平十二街８０號五樓之４","OBJECTID":505406},"geometry":{"x":166205.65000000224,"y":2543969.620000001}},{"attributes":{"ID":505434,"DIS_CODE":0,"TOWNNAME":"安平區","LI":"建平里","LIN":"15鄰","STREET":"建平十二街","SECT":" ","MAREA":" ","LANE":" ","ALLEY":" ","HOUSE_NO":"８０號五樓之５","E_COORD97":166205.64999999999,"N_COORD97":2543969.6200000001,"ADDRESS":"建平十二街８０號五樓之５","OBJECTID":505407},"geometry":{"x":166205.65000000224,"y":2543969.620000001}},{"attributes":{"ID":505435,"DIS_CODE":0,"TOWNNAME":"安平區","LI":"建平里","LIN":"15鄰","STREET":"建平十二街","SECT":" ","MAREA":" ","LANE":" ","ALLEY":" ","HOUSE_NO":"８０號五樓之６","E_COORD97":166205.64999999999,"N_COORD97":2543969.6200000001,"ADDRESS":"建平十二街８０號五樓之６","OBJECTID":505408},"geometry":{"x":166205.65000000224,"y":2543969.620000001}},{"attributes":{"ID":505436,"DIS_CODE":0,"TOWNNAME":"安平區","LI":"建平里","LIN":"15鄰","STREET":"建平十二街","SECT":" ","MAREA":" ","LANE":" ","ALLEY":" ","HOUSE_NO":"８０號五樓之７","E_COORD97":166205.64999999999,"N_COORD97":2543969.6200000001,"ADDRESS":"建平十二街８０號五樓之７","OBJECTID":505409},"geometry":{"x":166205.65000000224,"y":2543969.620000001}},{"attributes":{"ID":505437,"DIS_CODE":0,"TOWNNAME":"安平區","LI":"建平里","LIN":"15鄰","STREET":"建平十二街","SECT":" ","MAREA":" ","LANE":" ","ALLEY":" ","HOUSE_NO":"８０號六樓之１","E_COORD97":166205.64999999999,"N_COORD97":2543969.6200000001,"ADDRESS":"建平十二街８０號六樓之１","OBJECTID":505410},"geometry":{"x":166205.65000000224,"y":2543969.620000001}},{"attributes":{"ID":505438,"DIS_CODE":0,"TOWNNAME":"安平區","LI":"建平里","LIN":"15鄰","STREET":"建平十二街","SECT":" ","MAREA":" ","LANE":" ","ALLEY":" ","HOUSE_NO":"８０號六樓之２","E_COORD97":166205.64999999999,"N_COORD97":2543969.6200000001,"ADDRESS":"建平十二街８０號六樓之２","OBJECTID":505411},"geometry":{"x":166205.65000000224,"y":2543969.620000001}},{"attributes":{"ID":505439,"DIS_CODE":0,"TOWNNAME":"安平區","LI":"建平里","LIN":"15鄰","STREET":"建平十二街","SECT":" ","MAREA":" ","LANE":" ","ALLEY":" ","HOUSE_NO":"８０號六樓之３","E_COORD97":166205.64999999999,"N_COORD97":2543969.6200000001,"ADDRESS":"建平十二街８０號六樓之３","OBJECTID":505412},"geometry":{"x":166205.65000000224,"y":2543969.620000001}},{"attributes":{"ID":505440,"DIS_CODE":0,"TOWNNAME":"安平區","LI":"建平里","LIN":"15鄰","STREET":"建平十二街","SECT":" ","MAREA":" ","LANE":" ","ALLEY":" ","HOUSE_NO":"８０號六樓之４","E_COORD97":166205.64999999999,"N_COORD97":2543969.6200000001,"ADDRESS":"建平十二街８０號六樓之４","OBJECTID":505413},"geometry":{"x":166205.65000000224,"y":2543969.620000001}},{"attributes":{"ID":505441,"DIS_CODE":0,"TOWNNAME":"安平區","LI":"建平里","LIN":"15鄰","STREET":"建平十二街","SECT":" ","MAREA":" ","LANE":" ","ALLEY":" ","HOUSE_NO":"８０號六樓之５","E_COORD97":166205.64999999999,"N_COORD97":2543969.6200000001,"ADDRESS":"建平十二街８０號六樓之５","OBJECTID":505414},"geometry":{"x":166205.65000000224,"y":2543969.620000001}},{"attributes":{"ID":505442,"DIS_CODE":0,"TOWNNAME":"安平區","LI":"建平里","LIN":"15鄰","STREET":"建平十二街","SECT":" ","MAREA":" ","LANE":" ","ALLEY":" ","HOUSE_NO":"８０號六樓之６","E_COORD97":166205.64999999999,"N_COORD97":2543969.6200000001,"ADDRESS":"建平十二街８０號六樓之６","OBJECTID":505415},"geometry":{"x":166205.65000000224,"y":2543969.620000001}},{"attributes":{"ID":505443,"DIS_CODE":0,"TOWNNAME":"安平區","LI":"建平里","LIN":"15鄰","STREET":"建平十二街","SECT":" ","MAREA":" ","LANE":" ","ALLEY":" ","HOUSE_NO":"８０號六樓之７","E_COORD97":166205.64999999999,"N_COORD97":2543969.6200000001,"ADDRESS":"建平十二街８０號六樓之７","OBJECTID":505416},"geometry":{"x":166205.65000000224,"y":2543969.620000001}},{"attributes":{"ID":505444,"DIS_CODE":0,"TOWNNAME":"安平區","LI":"建平里","LIN":"15鄰","STREET":"建平十二街","SECT":" ","MAREA":" ","LANE":" ","ALLEY":" ","HOUSE_NO":"８０號四樓之１","E_COORD97":166205.64999999999,"N_COORD97":2543969.6200000001,"ADDRESS":"建平十二街８０號四樓之１","OBJECTID":505417},"geometry":{"x":166205.65000000224,"y":2543969.620000001}},{"attributes":{"ID":505445,"DIS_CODE":0,"TOWNNAME":"安平區","LI":"建平里","LIN":"15鄰","STREET":"建平十二街","SECT":" ","MAREA":" ","LANE":" ","ALLEY":" ","HOUSE_NO":"８０號四樓之２","E_COORD97":166205.64999999999,"N_COORD97":2543969.6200000001,"ADDRESS":"建平十二街８０號四樓之２","OBJECTID":505418},"geometry":{"x":166205.65000000224,"y":2543969.620000001}},{"attributes":{"ID":505446,"DIS_CODE":0,"TOWNNAME":"安平區","LI":"建平里","LIN":"15鄰","STREET":"建平十二街","SECT":" ","MAREA":" ","LANE":" ","ALLEY":" ","HOUSE_NO":"８０號四樓之３","E_COORD97":166205.64999999999,"N_COORD97":2543969.6200000001,"ADDRESS":"建平十二街８０號四樓之３","OBJECTID":505419},"geometry":{"x":166205.65000000224,"y":2543969.620000001}},{"attributes":{"ID":505447,"DIS_CODE":0,"TOWNNAME":"安平區","LI":"建平里","LIN":"15鄰","STREET":"建平十二街","SECT":" ","MAREA":" ","LANE":" ","ALLEY":" ","HOUSE_NO":"８０號四樓３之１","E_COORD97":166205.64999999999,"N_COORD97":2543969.6200000001,"ADDRESS":"建平十二街８０號四樓３之１","OBJECTID":505420},"geometry":{"x":166205.65000000224,"y":2543969.620000001}},{"attributes":{"ID":505448,"DIS_CODE":0,"TOWNNAME":"安平區","LI":"建平里","LIN":"15鄰","STREET":"建平十二街","SECT":" ","MAREA":" ","LANE":" ","ALLEY":" ","HOUSE_NO":"８０號四樓之５","E_COORD97":166205.64999999999,"N_COORD97":2543969.6200000001,"ADDRESS":"建平十二街８０號四樓之５","OBJECTID":505421},"geometry":{"x":166205.65000000224,"y":2543969.620000001}},{"attributes":{"ID":505449,"DIS_CODE":0,"TOWNNAME":"安平區","LI":"建平里","LIN":"15鄰","STREET":"建平十二街","SECT":" ","MAREA":" ","LANE":" ","ALLEY":" ","HOUSE_NO":"８０號四樓之６","E_COORD97":166205.64999999999,"N_COORD97":2543969.6200000001,"ADDRESS":"建平十二街８０號四樓之６","OBJECTID":505422},"geometry":{"x":166205.65000000224,"y":2543969.620000001}},{"attributes":{"ID":505450,"DIS_CODE":0,"TOWNNAME":"安平區","LI":"建平里","LIN":"15鄰","STREET":"建平十二街","SECT":" ","MAREA":" ","LANE":" ","ALLEY":" ","HOUSE_NO":"８０號四樓之７","E_COORD97":166205.64999999999,"N_COORD97":2543969.6200000001,"ADDRESS":"建平十二街８０號四樓之７","OBJECTID":505423},"geometry":{"x":166205.65000000224,"y":2543969.620000001}},{"attributes":{"ID":505451,"DIS_CODE":0,"TOWNNAME":"歸仁區","LI":"辜厝里","LIN":"15鄰","STREET":"中正南路","SECT":"一段","MAREA":" ","LANE":" ","ALLEY":" ","HOUSE_NO":"１１０號七樓之１","E_COORD97":177511.57999999999,"N_COORD97":2540503.7000000002,"ADDRESS":"中正南路一段１１０號七樓之１","OBJECTID":505424},"geometry":{"x":177511.58000000101,"y":2540503.7000000011}},{"attributes":{"ID":505452,"DIS_CODE":0,"TOWNNAME":"歸仁區","LI":"辜厝里","LIN":"15鄰","STREET":"中正南路","SECT":"一段","MAREA":" ","LANE":" ","ALLEY":" ","HOUSE_NO":"１１０號九樓之１","E_COORD97":177511.57999999999,"N_COORD97":2540503.7000000002,"ADDRESS":"中正南路一段１１０號九樓之１","OBJECTID":505425},"geometry":{"x":177511.58000000101,"y":2540503.7000000011}},{"attributes":{"ID":505453,"DIS_CODE":0,"TOWNNAME":"新化區","LI":"協興里","LIN":"15鄰","STREET":"大新路","SECT":" ","MAREA":" ","LANE":" ","ALLEY":" ","HOUSE_NO":"７９號六樓之５","E_COORD97":178083.14000000001,"N_COORD97":2548712.2599999998,"ADDRESS":"大新路７９號六樓之５","OBJECTID":505426},"geometry":{"x":178083.14000000153,"y":2548712.2600000016}},{"attributes":{"ID":505454,"DIS_CODE":0,"TOWNNAME":"新化區","LI":"協興里","LIN":"15鄰","STREET":"大新路","SECT":" ","MAREA":" ","LANE":" ","ALLEY":" ","HOUSE_NO":"７９號二樓之２","E_COORD97":178083.13,"N_COORD97":2548712.2599999998,"ADDRESS":"大新路７９號二樓之２","OBJECTID":505427},"geometry":{"x":178083.12999999989,"y":2548712.2600000016}},{"attributes":{"ID":505455,"DIS_CODE":0,"TOWNNAME":"新化區","LI":"協興里","LIN":"15鄰","STREET":"大新路","SECT":" ","MAREA":" ","LANE":" ","ALLEY":" ","HOUSE_NO":"７９號五樓之１","E_COORD97":178083.10999999999,"N_COORD97":2548712.2599999998,"ADDRESS":"大新路７９號五樓之１","OBJECTID":505428},"geometry":{"x":178083.11000000127,"y":2548712.2600000016}},{"attributes":{"ID":505456,"DIS_CODE":0,"TOWNNAME":"新化區","LI":"協興里","LIN":"15鄰","STREET":"大新路","SECT":" ","MAREA":" ","LANE":" ","ALLEY":" ","HOUSE_NO":"７９號二樓之３","E_COORD97":178083.13,"N_COORD97":2548712.2599999998,"ADDRESS":"大新路７９號二樓之３","OBJECTID":505429},"geometry":{"x":178083.12999999989,"y":2548712.2600000016}},{"attributes":{"ID":505457,"DIS_CODE":0,"TOWNNAME":"新化區","LI":"協興里","LIN":"15鄰","STREET":"大新路","SECT":" ","MAREA":" ","LANE":" ","ALLEY":" ","HOUSE_NO":"７９號六樓之１","E_COORD97":178083.10999999999,"N_COORD97":2548712.2599999998,"ADDRESS":"大新路７９號六樓之１","OBJECTID":505430},"geometry":{"x":178083.11000000127,"y":2548712.2600000016}},{"attributes":{"ID":505458,"DIS_CODE":0,"TOWNNAME":"新化區","LI":"協興里","LIN":"15鄰","STREET":"大新路","SECT":" ","MAREA":" ","LANE":" ","ALLEY":" ","HOUSE_NO":"７９號七樓之２","E_COORD97":178083.13,"N_COORD97":2548712.2599999998,"ADDRESS":"大新路７９號七樓之２","OBJECTID":505431},"geometry":{"x":178083.12999999989,"y":2548712.2600000016}},{"attributes":{"ID":505459,"DIS_CODE":0,"TOWNNAME":"新化區","LI":"協興里","LIN":"15鄰","STREET":"大新路","SECT":" ","MAREA":" ","LANE":" ","ALLEY":" ","HOUSE_NO":"７９號五樓之４","E_COORD97":178083.10999999999,"N_COORD97":2548712.2599999998,"ADDRESS":"大新路７９號五樓之４","OBJECTID":505432},"geometry":{"x":178083.11000000127,"y":2548712.2600000016}},{"attributes":{"ID":505460,"DIS_CODE":0,"TOWNNAME":"新化區","LI":"協興里","LIN":"15鄰","STREET":"大新路","SECT":" ","MAREA":" ","LANE":" ","ALLEY":" ","HOUSE_NO":"７９號七樓之１","E_COORD97":178083.10999999999,"N_COORD97":2548712.2599999998,"ADDRESS":"大新路７９號七樓之１","OBJECTID":505433},"geometry":{"x":178083.11000000127,"y":2548712.2600000016}},{"attributes":{"ID":505461,"DIS_CODE":0,"TOWNNAME":"新化區","LI":"協興里","LIN":"15鄰","STREET":"大新路","SECT":" ","MAREA":" ","LANE":" ","ALLEY":" ","HOUSE_NO":"７９號二樓之１","E_COORD97":178083.10999999999,"N_COORD97":2548712.2599999998,"ADDRESS":"大新路７９號二樓之１","OBJECTID":505434},"geometry":{"x":178083.11000000127,"y":2548712.2600000016}},{"attributes":{"ID":505462,"DIS_CODE":0,"TOWNNAME":"新化區","LI":"協興里","LIN":"15鄰","STREET":"大新路","SECT":" ","MAREA":" ","LANE":" ","ALLEY":" ","HOUSE_NO":"７９號六樓之２","E_COORD97":178083.13,"N_COORD97":2548712.2599999998,"ADDRESS":"大新路７９號六樓之２","OBJECTID":505435},"geometry":{"x":178083.12999999989,"y":2548712.2600000016}},{"attributes":{"ID":505463,"DIS_CODE":0,"TOWNNAME":"新化區","LI":"協興里","LIN":"15鄰","STREET":"大新路","SECT":" ","MAREA":" ","LANE":" ","ALLEY":" ","HOUSE_NO":"７９號七樓之３","E_COORD97":178083.13,"N_COORD97":2548712.2599999998,"ADDRESS":"大新路７９號七樓之３","OBJECTID":505436},"geometry":{"x":178083.12999999989,"y":2548712.2600000016}},{"attributes":{"ID":505464,"DIS_CODE":0,"TOWNNAME":"新化區","LI":"協興里","LIN":"15鄰","STREET":"大新路","SECT":" ","MAREA":" ","LANE":" ","ALLEY":" ","HOUSE_NO":"７９號三樓之２","E_COORD97":178083.13,"N_COORD97":2548712.2599999998,"ADDRESS":"大新路７９號三樓之２","OBJECTID":505437},"geometry":{"x":178083.12999999989,"y":2548712.2600000016}},{"attributes":{"ID":505465,"DIS_CODE":0,"TOWNNAME":"新化區","LI":"協興里","LIN":"15鄰","STREET":"大新路","SECT":" ","MAREA":" ","LANE":" ","ALLEY":" ","HOUSE_NO":"７９號四樓之２","E_COORD97":178083.13,"N_COORD97":2548712.2599999998,"ADDRESS":"大新路７９號四樓之２","OBJECTID":505438},"geometry":{"x":178083.12999999989,"y":2548712.2600000016}},{"attributes":{"ID":505466,"DIS_CODE":0,"TOWNNAME":"新化區","LI":"協興里","LIN":"15鄰","STREET":"大新路","SECT":" ","MAREA":" ","LANE":" ","ALLEY":" ","HOUSE_NO":"７９號四樓之６","E_COORD97":178083.13,"N_COORD97":2548712.2599999998,"ADDRESS":"大新路７９號四樓之６","OBJECTID":505439},"geometry":{"x":178083.12999999989,"y":2548712.2600000016}},{"attributes":{"ID":505467,"DIS_CODE":0,"TOWNNAME":"善化區","LI":"文昌里","LIN":"15鄰","STREET":"大信路","SECT":" ","MAREA":" ","LANE":" ","ALLEY":" ","HOUSE_NO":"６９號十樓","E_COORD97":177607.37,"N_COORD97":2558777.75,"ADDRESS":"大信路６９號十樓","OBJECTID":505440},"geometry":{"x":177607.37000000197,"y":2558777.7500000037}},{"attributes":{"ID":505468,"DIS_CODE":0,"TOWNNAME":"中西區","LI":"小西里","LIN":"15鄰","STREET":"府前路","SECT":"一段","MAREA":" ","LANE":" ","ALLEY":" ","HOUSE_NO":"３１３號一樓","E_COORD97":167995.78,"N_COORD97":2543380.77,"ADDRESS":"府前路一段３１３號一樓","OBJECTID":505441},"geometry":{"x":167995.78000000026,"y":2543380.7699999996}},{"attributes":{"ID":505469,"DIS_CODE":0,"TOWNNAME":"中西區","LI":"小西里","LIN":"15鄰","STREET":"府前路","SECT":"一段","MAREA":" ","LANE":" ","ALLEY":" ","HOUSE_NO":"３１３號二樓","E_COORD97":167995.78,"N_COORD97":2543380.77,"ADDRESS":"府前路一段３１３號二樓","OBJECTID":505442},"geometry":{"x":167995.78000000026,"y":2543380.7699999996}},{"attributes":{"ID":505470,"DIS_CODE":0,"TOWNNAME":"中西區","LI":"小西里","LIN":"15鄰","STREET":"府前路","SECT":"一段","MAREA":" ","LANE":" ","ALLEY":" ","HOUSE_NO":"３１３號三樓","E_COORD97":167995.78,"N_COORD97":2543380.77,"ADDRESS":"府前路一段３１３號三樓","OBJECTID":505443},"geometry":{"x":167995.78000000026,"y":2543380.7699999996}},{"attributes":{"ID":505471,"DIS_CODE":0,"TOWNNAME":"中西區","LI":"小西里","LIN":"15鄰","STREET":"府前路","SECT":"一段","MAREA":" ","LANE":" ","ALLEY":" ","HOUSE_NO":"３１３號四樓","E_COORD97":167995.78,"N_COORD97":2543380.77,"ADDRESS":"府前路一段３１３號四樓","OBJECTID":505444},"geometry":{"x":167995.78000000026,"y":2543380.7699999996}},{"attributes":{"ID":505472,"DIS_CODE":0,"TOWNNAME":"中西區","LI":"大南里","LIN":"15鄰","STREET":"忠義路","SECT":"一段","MAREA":" ","LANE":" ","ALLEY":" ","HOUSE_NO":"５０號一樓","E_COORD97":168175.04999999999,"N_COORD97":2542968.1499999999,"ADDRESS":"忠義路一段５０號一樓","OBJECTID":505445},"geometry":{"x":168175.04999999981,"y":2542968.1500000004}},{"attributes":{"ID":505473,"DIS_CODE":0,"TOWNNAME":"中西區","LI":"大南里","LIN":"15鄰","STREET":"忠義路","SECT":"一段","MAREA":" ","LANE":" ","ALLEY":" ","HOUSE_NO":"５０號五樓","E_COORD97":168175.04999999999,"N_COORD97":2542968.1499999999,"ADDRESS":"忠義路一段５０號五樓","OBJECTID":505446},"geometry":{"x":168175.04999999981,"y":2542968.1500000004}},{"attributes":{"ID":505474,"DIS_CODE":0,"TOWNNAME":"中西區","LI":"大南里","LIN":"15鄰","STREET":"忠義路","SECT":"一段","MAREA":" ","LANE":" ","ALLEY":" ","HOUSE_NO":"５０號四樓","E_COORD97":168175.04999999999,"N_COORD97":2542968.1499999999,"ADDRESS":"忠義路一段５０號四樓","OBJECTID":505447},"geometry":{"x":168175.04999999981,"y":2542968.1500000004}},{"attributes":{"ID":505475,"DIS_CODE":0,"TOWNNAME":"中西區","LI":"大南里","LIN":"15鄰","STREET":"忠義路","SECT":"一段","MAREA":" ","LANE":" ","ALLEY":" ","HOUSE_NO":"５２號一樓","E_COORD97":168176.45999999999,"N_COORD97":2542977.2999999998,"ADDRESS":"忠義路一段５２號一樓","OBJECTID":505448},"geometry":{"x":168176.46000000089,"y":2542977.3000000007}},{"attributes":{"ID":505476,"DIS_CODE":0,"TOWNNAME":"中西區","LI":"大南里","LIN":"15鄰","STREET":"忠義路","SECT":"一段","MAREA":" ","LANE":" ","ALLEY":" ","HOUSE_NO":"５２號二樓","E_COORD97":168176.45999999999,"N_COORD97":2542977.2999999998,"ADDRESS":"忠義路一段５２號二樓","OBJECTID":505449},"geometry":{"x":168176.46000000089,"y":2542977.3000000007}},{"attributes":{"ID":505477,"DIS_CODE":0,"TOWNNAME":"中西區","LI":"大南里","LIN":"15鄰","STREET":"忠義路","SECT":"一段","MAREA":" ","LANE":" ","ALLEY":" ","HOUSE_NO":"５２號三樓","E_COORD97":168176.45999999999,"N_COORD97":2542977.2999999998,"ADDRESS":"忠義路一段５２號三樓","OBJECTID":505450},"geometry":{"x":168176.46000000089,"y":2542977.3000000007}},{"attributes":{"ID":505478,"DIS_CODE":0,"TOWNNAME":"中西區","LI":"大南里","LIN":"15鄰","STREET":"忠義路","SECT":"一段","MAREA":" ","LANE":" ","ALLEY":" ","HOUSE_NO":"５２號五樓","E_COORD97":168176.45999999999,"N_COORD97":2542977.2999999998,"ADDRESS":"忠義路一段５２號五樓","OBJECTID":505451},"geometry":{"x":168176.46000000089,"y":2542977.3000000007}},{"attributes":{"ID":505479,"DIS_CODE":0,"TOWNNAME":"中西區","LI":"大南里","LIN":"15鄰","STREET":"忠義路","SECT":"一段","MAREA":" ","LANE":" ","ALLEY":" ","HOUSE_NO":"５２號四樓","E_COORD97":168176.45999999999,"N_COORD97":2542977.2999999998,"ADDRESS":"忠義路一段５２號四樓","OBJECTID":505452},"geometry":{"x":168176.46000000089,"y":2542977.3000000007}},{"attributes":{"ID":505480,"DIS_CODE":0,"TOWNNAME":"中西區","LI":"大南里","LIN":"15鄰","STREET":"樹林街","SECT":"二段","MAREA":" ","LANE":" ","ALLEY":" ","HOUSE_NO":"１４９號一樓","E_COORD97":168220.14000000001,"N_COORD97":2542962.1699999999,"ADDRESS":"樹林街二段１４９號一樓","OBJECTID":505453},"geometry":{"x":168220.13999999966,"y":2542962.1700000018}},{"attributes":{"ID":505481,"DIS_CODE":0,"TOWNNAME":"中西區","LI":"大南里","LIN":"15鄰","STREET":"樹林街","SECT":"二段","MAREA":" ","LANE":" ","ALLEY":" ","HOUSE_NO":"１４９號二樓","E_COORD97":168220.14000000001,"N_COORD97":2542962.1699999999,"ADDRESS":"樹林街二段１４９號二樓","OBJECTID":505454},"geometry":{"x":168220.13999999966,"y":2542962.1700000018}},{"attributes":{"ID":505482,"DIS_CODE":0,"TOWNNAME":"中西區","LI":"大南里","LIN":"15鄰","STREET":"樹林街","SECT":"二段","MAREA":" ","LANE":" ","ALLEY":" ","HOUSE_NO":"１４９號三樓","E_COORD97":168220.14000000001,"N_COORD97":2542962.1699999999,"ADDRESS":"樹林街二段１４９號三樓","OBJECTID":505455},"geometry":{"x":168220.13999999966,"y":2542962.1700000018}},{"attributes":{"ID":505483,"DIS_CODE":0,"TOWNNAME":"中西區","LI":"大南里","LIN":"15鄰","STREET":"樹林街","SECT":"二段","MAREA":" ","LANE":" ","ALLEY":" ","HOUSE_NO":"１４９號五樓","E_COORD97":168220.14000000001,"N_COORD97":2542962.1699999999,"ADDRESS":"樹林街二段１４９號五樓","OBJECTID":505456},"geometry":{"x":168220.13999999966,"y":2542962.1700000018}},{"attributes":{"ID":505484,"DIS_CODE":0,"TOWNNAME":"中西區","LI":"大南里","LIN":"15鄰","STREET":"樹林街","SECT":"二段","MAREA":" ","LANE":" ","ALLEY":" ","HOUSE_NO":"１４９號四樓","E_COORD97":168220.14000000001,"N_COORD97":2542962.1699999999,"ADDRESS":"樹林街二段１４９號四樓","OBJECTID":505457},"geometry":{"x":168220.13999999966,"y":2542962.1700000018}},{"attributes":{"ID":505485,"DIS_CODE":0,"TOWNNAME":"中西區","LI":"大南里","LIN":"15鄰","STREET":"樹林街","SECT":"二段","MAREA":" ","LANE":" ","ALLEY":" ","HOUSE_NO":"１５５號七樓之１","E_COORD97":168201.82000000001,"N_COORD97":2542965.3399999999,"ADDRESS":"樹林街二段１５５號七樓之１","OBJECTID":505458},"geometry":{"x":168201.82000000123,"y":2542965.3400000017}},{"attributes":{"ID":505486,"DIS_CODE":0,"TOWNNAME":"中西區","LI":"大南里","LIN":"15鄰","STREET":"樹林街","SECT":"二段","MAREA":" ","LANE":" ","ALLEY":" ","HOUSE_NO":"１５５號七樓之２","E_COORD97":168201.82000000001,"N_COORD97":2542965.3399999999,"ADDRESS":"樹林街二段１５５號七樓之２","OBJECTID":505459},"geometry":{"x":168201.82000000123,"y":2542965.3400000017}},{"attributes":{"ID":505487,"DIS_CODE":0,"TOWNNAME":"中西區","LI":"大南里","LIN":"15鄰","STREET":"樹林街","SECT":"二段","MAREA":" ","LANE":" ","ALLEY":" ","HOUSE_NO":"１５５號七樓之３","E_COORD97":168201.82000000001,"N_COORD97":2542965.3399999999,"ADDRESS":"樹林街二段１５５號七樓之３","OBJECTID":505460},"geometry":{"x":168201.82000000123,"y":2542965.3400000017}},{"attributes":{"ID":505488,"DIS_CODE":0,"TOWNNAME":"中西區","LI":"大南里","LIN":"15鄰","STREET":"樹林街","SECT":"二段","MAREA":" ","LANE":" ","ALLEY":" ","HOUSE_NO":"１５５號二樓","E_COORD97":168201.82000000001,"N_COORD97":2542965.3399999999,"ADDRESS":"樹林街二段１５５號二樓","OBJECTID":505461},"geometry":{"x":168201.82000000123,"y":2542965.3400000017}},{"attributes":{"ID":505489,"DIS_CODE":0,"TOWNNAME":"中西區","LI":"大南里","LIN":"15鄰","STREET":"樹林街","SECT":"二段","MAREA":" ","LANE":" ","ALLEY":" ","HOUSE_NO":"１５５號三樓之１","E_COORD97":168201.82000000001,"N_COORD97":2542965.3399999999,"ADDRESS":"樹林街二段１５５號三樓之１","OBJECTID":505462},"geometry":{"x":168201.82000000123,"y":2542965.3400000017}},{"attributes":{"ID":505490,"DIS_CODE":0,"TOWNNAME":"中西區","LI":"大南里","LIN":"15鄰","STREET":"樹林街","SECT":"二段","MAREA":" ","LANE":" ","ALLEY":" ","HOUSE_NO":"１５５號三樓之２","E_COORD97":168201.82000000001,"N_COORD97":2542965.3399999999,"ADDRESS":"樹林街二段１５５號三樓之２","OBJECTID":505463},"geometry":{"x":168201.82000000123,"y":2542965.3400000017}},{"attributes":{"ID":505491,"DIS_CODE":0,"TOWNNAME":"中西區","LI":"大南里","LIN":"15鄰","STREET":"樹林街","SECT":"二段","MAREA":" ","LANE":" ","ALLEY":" ","HOUSE_NO":"１５５號三樓之３","E_COORD97":168201.82000000001,"N_COORD97":2542965.3399999999,"ADDRESS":"樹林街二段１５５號三樓之３","OBJECTID":505464},"geometry":{"x":168201.82000000123,"y":2542965.3400000017}},{"attributes":{"ID":505492,"DIS_CODE":0,"TOWNNAME":"中西區","LI":"大南里","LIN":"15鄰","STREET":"樹林街","SECT":"二段","MAREA":" ","LANE":" ","ALLEY":" ","HOUSE_NO":"１５５號五樓之１","E_COORD97":168201.82000000001,"N_COORD97":2542965.3399999999,"ADDRESS":"樹林街二段１５５號五樓之１","OBJECTID":505465},"geometry":{"x":168201.82000000123,"y":2542965.3400000017}},{"attributes":{"ID":505493,"DIS_CODE":0,"TOWNNAME":"善化區","LI":"文昌里","LIN":"15鄰","STREET":"大信路","SECT":" ","MAREA":" ","LANE":" ","ALLEY":" ","HOUSE_NO":"６９號三樓","E_COORD97":177607.37,"N_COORD97":2558777.75,"ADDRESS":"大信路６９號三樓","OBJECTID":505466},"geometry":{"x":177607.37000000197,"y":2558777.7500000037}},{"attributes":{"ID":505494,"DIS_CODE":0,"TOWNNAME":"中西區","LI":"大南里","LIN":"15鄰","STREET":"樹林街","SECT":"二段","MAREA":" ","LANE":" ","ALLEY":" ","HOUSE_NO":"１５５號五樓之２","E_COORD97":168201.82000000001,"N_COORD97":2542965.3399999999,"ADDRESS":"樹林街二段１５５號五樓之２","OBJECTID":505467},"geometry":{"x":168201.82000000123,"y":2542965.3400000017}},{"attributes":{"ID":505495,"DIS_CODE":0,"TOWNNAME":"中西區","LI":"大南里","LIN":"15鄰","STREET":"樹林街","SECT":"二段","MAREA":" ","LANE":" ","ALLEY":" ","HOUSE_NO":"１５５號五樓之３","E_COORD97":168201.82000000001,"N_COORD97":2542965.3399999999,"ADDRESS":"樹林街二段１５５號五樓之３","OBJECTID":505468},"geometry":{"x":168201.82000000123,"y":2542965.3400000017}},{"attributes":{"ID":505496,"DIS_CODE":0,"TOWNNAME":"中西區","LI":"大南里","LIN":"15鄰","STREET":"樹林街","SECT":"二段","MAREA":" ","LANE":" ","ALLEY":" ","HOUSE_NO":"１５５號六樓之１","E_COORD97":168201.82000000001,"N_COORD97":2542965.3399999999,"ADDRESS":"樹林街二段１５５號六樓之１","OBJECTID":505469},"geometry":{"x":168201.82000000123,"y":2542965.3400000017}},{"attributes":{"ID":505497,"DIS_CODE":0,"TOWNNAME":"中西區","LI":"大南里","LIN":"15鄰","STREET":"樹林街","SECT":"二段","MAREA":" ","LANE":" ","ALLEY":" ","HOUSE_NO":"１５５號六樓之２","E_COORD97":168201.82000000001,"N_COORD97":2542965.3399999999,"ADDRESS":"樹林街二段１５５號六樓之２","OBJECTID":505470},"geometry":{"x":168201.82000000123,"y":2542965.3400000017}},{"attributes":{"ID":505498,"DIS_CODE":0,"TOWNNAME":"中西區","LI":"大南里","LIN":"15鄰","STREET":"樹林街","SECT":"二段","MAREA":" ","LANE":" ","ALLEY":" ","HOUSE_NO":"１５５號六樓之３","E_COORD97":168201.82000000001,"N_COORD97":2542965.3399999999,"ADDRESS":"樹林街二段１５５號六樓之３","OBJECTID":505471},"geometry":{"x":168201.82000000123,"y":2542965.3400000017}},{"attributes":{"ID":505499,"DIS_CODE":0,"TOWNNAME":"中西區","LI":"大南里","LIN":"15鄰","STREET":"樹林街","SECT":"二段","MAREA":" ","LANE":" ","ALLEY":" ","HOUSE_NO":"１５５號六樓之４","E_COORD97":168201.82000000001,"N_COORD97":2542965.3399999999,"ADDRESS":"樹林街二段１５５號六樓之４","OBJECTID":505472},"geometry":{"x":168201.82000000123,"y":2542965.3400000017}},{"attributes":{"ID":505500,"DIS_CODE":0,"TOWNNAME":"中西區","LI":"大南里","LIN":"15鄰","STREET":"樹林街","SECT":"二段","MAREA":" ","LANE":" ","ALLEY":" ","HOUSE_NO":"１５５號四樓之１","E_COORD97":168201.82000000001,"N_COORD97":2542965.3399999999,"ADDRESS":"樹林街二段１５５號四樓之１","OBJECTID":505473},"geometry":{"x":168201.82000000123,"y":2542965.3400000017}},{"attributes":{"ID":505501,"DIS_CODE":0,"TOWNNAME":"中西區","LI":"大南里","LIN":"15鄰","STREET":"樹林街","SECT":"二段","MAREA":" ","LANE":" ","ALLEY":" ","HOUSE_NO":"１５５號四樓之２","E_COORD97":168201.82000000001,"N_COORD97":2542965.3399999999,"ADDRESS":"樹林街二段１５５號四樓之２","OBJECTID":505474},"geometry":{"x":168201.82000000123,"y":2542965.3400000017}},{"attributes":{"ID":505502,"DIS_CODE":0,"TOWNNAME":"中西區","LI":"大南里","LIN":"15鄰","STREET":"樹林街","SECT":"二段","MAREA":" ","LANE":" ","ALLEY":" ","HOUSE_NO":"１５５號四樓之３","E_COORD97":168201.82000000001,"N_COORD97":2542965.3399999999,"ADDRESS":"樹林街二段１５５號四樓之３","OBJECTID":505475},"geometry":{"x":168201.82000000123,"y":2542965.3400000017}},{"attributes":{"ID":505503,"DIS_CODE":0,"TOWNNAME":"中西區","LI":"大南里","LIN":"15鄰","STREET":"樹林街","SECT":"二段","MAREA":" ","LANE":" ","ALLEY":" ","HOUSE_NO":"１５５號四樓之４","E_COORD97":168201.82000000001,"N_COORD97":2542965.3399999999,"ADDRESS":"樹林街二段１５５號四樓之４","OBJECTID":505476},"geometry":{"x":168201.82000000123,"y":2542965.3400000017}},{"attributes":{"ID":505504,"DIS_CODE":0,"TOWNNAME":"善化區","LI":"文昌里","LIN":"15鄰","STREET":"大信路","SECT":" ","MAREA":" ","LANE":" ","ALLEY":" ","HOUSE_NO":"６７號四樓之２","E_COORD97":177598.59,"N_COORD97":2558743.52,"ADDRESS":"大信路６７號四樓之２","OBJECTID":505477},"geometry":{"x":177598.58999999985,"y":2558743.5199999996}},{"attributes":{"ID":505505,"DIS_CODE":0,"TOWNNAME":"永康區","LI":"埔園里","LIN":"15鄰","STREET":"龍埔街","SECT":" ","MAREA":" ","LANE":" ","ALLEY":" ","HOUSE_NO":"５５０號五樓之３","E_COORD97":173517.20999999999,"N_COORD97":2548397.0499999998,"ADDRESS":"龍埔街５５０號五樓之３","OBJECTID":505478},"geometry":{"x":173517.20999999996,"y":2548397.0500000007}},{"attributes":{"ID":505506,"DIS_CODE":0,"TOWNNAME":"永康區","LI":"埔園里","LIN":"15鄰","STREET":"龍埔街","SECT":" ","MAREA":" ","LANE":" ","ALLEY":" ","HOUSE_NO":"５５０號三樓之４","E_COORD97":173517.14000000001,"N_COORD97":2548397.0499999998,"ADDRESS":"龍埔街５５０號三樓之４","OBJECTID":505479},"geometry":{"x":173517.13999999966,"y":2548397.0500000007}},{"attributes":{"ID":505507,"DIS_CODE":0,"TOWNNAME":"永康區","LI":"埔園里","LIN":"15鄰","STREET":"龍埔街","SECT":" ","MAREA":" ","LANE":" ","ALLEY":" ","HOUSE_NO":"５５２號八樓之１","E_COORD97":173503.53,"N_COORD97":2548395.5499999998,"ADDRESS":"龍埔街５５２號八樓之１","OBJECTID":505480},"geometry":{"x":173503.53000000026,"y":2548395.5500000026}},{"attributes":{"ID":505508,"DIS_CODE":0,"TOWNNAME":"永康區","LI":"埔園里","LIN":"15鄰","STREET":"龍埔街","SECT":" ","MAREA":" ","LANE":" ","ALLEY":" ","HOUSE_NO":"５５２號五樓之３","E_COORD97":173503.63,"N_COORD97":2548395.5499999998,"ADDRESS":"龍埔街５５２號五樓之３","OBJECTID":505481},"geometry":{"x":173503.63000000082,"y":2548395.5500000026}},{"attributes":{"ID":505509,"DIS_CODE":0,"TOWNNAME":"永康區","LI":"埔園里","LIN":"15鄰","STREET":"龍埔街","SECT":" ","MAREA":" ","LANE":" ","ALLEY":" ","HOUSE_NO":"５５２號六樓之３","E_COORD97":173503.63,"N_COORD97":2548395.5499999998,"ADDRESS":"龍埔街５５２號六樓之３","OBJECTID":505482},"geometry":{"x":173503.63000000082,"y":2548395.5500000026}},{"attributes":{"ID":505510,"DIS_CODE":0,"TOWNNAME":"永康區","LI":"埔園里","LIN":"15鄰","STREET":"龍埔街","SECT":" ","MAREA":" ","LANE":" ","ALLEY":" ","HOUSE_NO":"５５２號四樓之５","E_COORD97":173503.69,"N_COORD97":2548395.5499999998,"ADDRESS":"龍埔街５５２號四樓之５","OBJECTID":505483},"geometry":{"x":173503.69000000134,"y":2548395.5500000026}},{"attributes":{"ID":505511,"DIS_CODE":0,"TOWNNAME":"永康區","LI":"埔園里","LIN":"15鄰","STREET":"龍埔街","SECT":" ","MAREA":" ","LANE":" ","ALLEY":" ","HOUSE_NO":"５５０號八樓之４","E_COORD97":173517.14000000001,"N_COORD97":2548397.0499999998,"ADDRESS":"龍埔街５５０號八樓之４","OBJECTID":505484},"geometry":{"x":173517.13999999966,"y":2548397.0500000007}},{"attributes":{"ID":505512,"DIS_CODE":0,"TOWNNAME":"永康區","LI":"埔園里","LIN":"15鄰","STREET":"龍埔街","SECT":" ","MAREA":" ","LANE":" ","ALLEY":" ","HOUSE_NO":"５５０號八樓之５","E_COORD97":173517.26999999999,"N_COORD97":2548397.0499999998,"ADDRESS":"龍埔街５５０號八樓之５","OBJECTID":505485},"geometry":{"x":173517.27000000048,"y":2548397.0500000007}},{"attributes":{"ID":505513,"DIS_CODE":0,"TOWNNAME":"永康區","LI":"埔園里","LIN":"15鄰","STREET":"龍埔街","SECT":" ","MAREA":" ","LANE":" ","ALLEY":" ","HOUSE_NO":"５５２號六樓之５","E_COORD97":173503.56,"N_COORD97":2548395.5499999998,"ADDRESS":"龍埔街５５２號六樓之５","OBJECTID":505486},"geometry":{"x":173503.56000000052,"y":2548395.5500000026}},{"attributes":{"ID":505514,"DIS_CODE":0,"TOWNNAME":"永康區","LI":"埔園里","LIN":"15鄰","STREET":"龍埔街","SECT":" ","MAREA":" ","LANE":" ","ALLEY":" ","HOUSE_NO":"５５０號六樓之４","E_COORD97":173517.14000000001,"N_COORD97":2548397.0499999998,"ADDRESS":"龍埔街５５０號六樓之４","OBJECTID":505487},"geometry":{"x":173517.13999999966,"y":2548397.0500000007}},{"attributes":{"ID":505515,"DIS_CODE":0,"TOWNNAME":"永康區","LI":"埔園里","LIN":"15鄰","STREET":"龍埔街","SECT":" ","MAREA":" ","LANE":" ","ALLEY":" ","HOUSE_NO":"５５２號二樓之４","E_COORD97":173503.56,"N_COORD97":2548395.5499999998,"ADDRESS":"龍埔街５５２號二樓之４","OBJECTID":505488},"geometry":{"x":173503.56000000052,"y":2548395.5500000026}},{"attributes":{"ID":505516,"DIS_CODE":0,"TOWNNAME":"永康區","LI":"埔園里","LIN":"15鄰","STREET":"龍埔街","SECT":" ","MAREA":" ","LANE":" ","ALLEY":" ","HOUSE_NO":"５５０號三樓之１","E_COORD97":173517.10999999999,"N_COORD97":2548397.0499999998,"ADDRESS":"龍埔街５５０號三樓之１","OBJECTID":505489},"geometry":{"x":173517.1100000022,"y":2548397.0500000007}},{"attributes":{"ID":505517,"DIS_CODE":0,"TOWNNAME":"永康區","LI":"埔園里","LIN":"15鄰","STREET":"龍埔街","SECT":" ","MAREA":" ","LANE":" ","ALLEY":" ","HOUSE_NO":"５５０號七樓之５","E_COORD97":173517.26999999999,"N_COORD97":2548397.0499999998,"ADDRESS":"龍埔街５５０號七樓之５","OBJECTID":505490},"geometry":{"x":173517.27000000048,"y":2548397.0500000007}},{"attributes":{"ID":505518,"DIS_CODE":0,"TOWNNAME":"永康區","LI":"埔園里","LIN":"15鄰","STREET":"龍埔街","SECT":" ","MAREA":" ","LANE":" ","ALLEY":" ","HOUSE_NO":"５５０號六樓之２","E_COORD97":173517.25,"N_COORD97":2548397.0499999998,"ADDRESS":"龍埔街５５０號六樓之２","OBJECTID":505491},"geometry":{"x":173517.25,"y":2548397.0500000007}},{"attributes":{"ID":505519,"DIS_CODE":0,"TOWNNAME":"永康區","LI":"埔園里","LIN":"15鄰","STREET":"龍埔街","SECT":" ","MAREA":" ","LANE":" ","ALLEY":" ","HOUSE_NO":"５５０號四樓之６","E_COORD97":173517.22,"N_COORD97":2548397.0499999998,"ADDRESS":"龍埔街５５０號四樓之６","OBJECTID":505492},"geometry":{"x":173517.21999999974,"y":2548397.0500000007}},{"attributes":{"ID":505520,"DIS_CODE":0,"TOWNNAME":"永康區","LI":"埔園里","LIN":"15鄰","STREET":"龍埔街","SECT":" ","MAREA":" ","LANE":" ","ALLEY":" ","HOUSE_NO":"５５０號八樓之１","E_COORD97":173517.10999999999,"N_COORD97":2548397.0499999998,"ADDRESS":"龍埔街５５０號八樓之１","OBJECTID":505493},"geometry":{"x":173517.1100000022,"y":2548397.0500000007}},{"attributes":{"ID":505521,"DIS_CODE":0,"TOWNNAME":"永康區","LI":"埔園里","LIN":"15鄰","STREET":"龍埔街","SECT":" ","MAREA":" ","LANE":" ","ALLEY":" ","HOUSE_NO":"５５０號八樓之３","E_COORD97":173517.20999999999,"N_COORD97":2548397.0499999998,"ADDRESS":"龍埔街５５０號八樓之３","OBJECTID":505494},"geometry":{"x":173517.20999999996,"y":2548397.0500000007}},{"attributes":{"ID":505522,"DIS_CODE":0,"TOWNNAME":"永康區","LI":"埔園里","LIN":"15鄰","STREET":"龍埔街","SECT":" ","MAREA":" ","LANE":" ","ALLEY":" ","HOUSE_NO":"５５０號二樓之５","E_COORD97":173517.26999999999,"N_COORD97":2548397.0499999998,"ADDRESS":"龍埔街５５０號二樓之５","OBJECTID":505495},"geometry":{"x":173517.27000000048,"y":2548397.0500000007}},{"attributes":{"ID":505523,"DIS_CODE":0,"TOWNNAME":"永康區","LI":"埔園里","LIN":"15鄰","STREET":"龍埔街","SECT":" ","MAREA":" ","LANE":" ","ALLEY":" ","HOUSE_NO":"５５０號三樓之３","E_COORD97":173517.20999999999,"N_COORD97":2548397.0499999998,"ADDRESS":"龍埔街５５０號三樓之３","OBJECTID":505496},"geometry":{"x":173517.20999999996,"y":2548397.0500000007}},{"attributes":{"ID":505524,"DIS_CODE":0,"TOWNNAME":"永康區","LI":"埔園里","LIN":"15鄰","STREET":"龍埔街","SECT":" ","MAREA":" ","LANE":" ","ALLEY":" ","HOUSE_NO":"５５０號四樓之１","E_COORD97":173517.10999999999,"N_COORD97":2548397.0499999998,"ADDRESS":"龍埔街５５０號四樓之１","OBJECTID":505497},"geometry":{"x":173517.1100000022,"y":2548397.0500000007}},{"attributes":{"ID":505525,"DIS_CODE":0,"TOWNNAME":"永康區","LI":"埔園里","LIN":"15鄰","STREET":"龍埔街","SECT":" ","MAREA":" ","LANE":" ","ALLEY":" ","HOUSE_NO":"５５０號五樓之２","E_COORD97":173517.25,"N_COORD97":2548397.0499999998,"ADDRESS":"龍埔街５５０號五樓之２","OBJECTID":505498},"geometry":{"x":173517.25,"y":2548397.0500000007}},{"attributes":{"ID":505526,"DIS_CODE":0,"TOWNNAME":"永康區","LI":"埔園里","LIN":"15鄰","STREET":"龍埔街","SECT":" ","MAREA":" ","LANE":" ","ALLEY":" ","HOUSE_NO":"５５０號二樓之４","E_COORD97":173517.14000000001,"N_COORD97":2548397.0499999998,"ADDRESS":"龍埔街５５０號二樓之４","OBJECTID":505499},"geometry":{"x":173517.13999999966,"y":2548397.0500000007}},{"attributes":{"ID":505527,"DIS_CODE":0,"TOWNNAME":"永康區","LI":"埔園里","LIN":"15鄰","STREET":"龍埔街","SECT":" ","MAREA":" ","LANE":" ","ALLEY":" ","HOUSE_NO":"５５０號六樓之３","E_COORD97":173517.20999999999,"N_COORD97":2548397.0499999998,"ADDRESS":"龍埔街５５０號六樓之３","OBJECTID":505500},"geometry":{"x":173517.20999999996,"y":2548397.0500000007}},{"attributes":{"ID":505528,"DIS_CODE":0,"TOWNNAME":"永康區","LI":"埔園里","LIN":"15鄰","STREET":"龍埔街","SECT":" ","MAREA":" ","LANE":" ","ALLEY":" ","HOUSE_NO":"５５２號五樓之１","E_COORD97":173503.53,"N_COORD97":2548395.5499999998,"ADDRESS":"龍埔街５５２號五樓之１","OBJECTID":505501},"geometry":{"x":173503.53000000026,"y":2548395.5500000026}},{"attributes":{"ID":505529,"DIS_CODE":0,"TOWNNAME":"永康區","LI":"埔園里","LIN":"15鄰","STREET":"龍埔街","SECT":" ","MAREA":" ","LANE":" ","ALLEY":" ","HOUSE_NO":"５５０號三樓之２","E_COORD97":173517.25,"N_COORD97":2548397.0499999998,"ADDRESS":"龍埔街５５０號三樓之２","OBJECTID":505502},"geometry":{"x":173517.25,"y":2548397.0500000007}},{"attributes":{"ID":505530,"DIS_CODE":0,"TOWNNAME":"善化區","LI":"文昌里","LIN":"15鄰","STREET":"大信路","SECT":" ","MAREA":" ","LANE":" ","ALLEY":" ","HOUSE_NO":"７１號六樓","E_COORD97":177614.51000000001,"N_COORD97":2558770.25,"ADDRESS":"大信路７１號六樓","OBJECTID":505503},"geometry":{"x":177614.51000000164,"y":2558770.25}},{"attributes":{"ID":505531,"DIS_CODE":0,"TOWNNAME":"善化區","LI":"文昌里","LIN":"15鄰","STREET":"大信路","SECT":" ","MAREA":" ","LANE":" ","ALLEY":" ","HOUSE_NO":"７３號四樓","E_COORD97":177617.62,"N_COORD97":2558761.5,"ADDRESS":"大信路７３號四樓","OBJECTID":505504},"geometry":{"x":177617.62000000197,"y":2558761.5}},{"attributes":{"ID":505532,"DIS_CODE":0,"TOWNNAME":"善化區","LI":"文昌里","LIN":"15鄰","STREET":"大信路","SECT":" ","MAREA":" ","LANE":" ","ALLEY":" ","HOUSE_NO":"７１號十二樓","E_COORD97":177615.01000000001,"N_COORD97":2558770.25,"ADDRESS":"大信路７１號十二樓","OBJECTID":505505},"geometry":{"x":177615.01000000071,"y":2558770.25}},{"attributes":{"ID":505533,"DIS_CODE":0,"TOWNNAME":"善化區","LI":"文昌里","LIN":"15鄰","STREET":"大信路","SECT":" ","MAREA":" ","LANE":" ","ALLEY":" ","HOUSE_NO":"７３號十三樓","E_COORD97":177618.12,"N_COORD97":2558761.5,"ADDRESS":"大信路７３號十三樓","OBJECTID":505506},"geometry":{"x":177618.12000000104,"y":2558761.5}},{"attributes":{"ID":505534,"DIS_CODE":0,"TOWNNAME":"善化區","LI":"文昌里","LIN":"15鄰","STREET":"大信路","SECT":" ","MAREA":" ","LANE":" ","ALLEY":" ","HOUSE_NO":"６７號六樓","E_COORD97":177597.67999999999,"N_COORD97":2558743.5,"ADDRESS":"大信路６７號六樓","OBJECTID":505507},"geometry":{"x":177597.6799999997,"y":2558743.5000000019}},{"attributes":{"ID":505535,"DIS_CODE":0,"TOWNNAME":"善化區","LI":"文昌里","LIN":"15鄰","STREET":"大信路","SECT":" ","MAREA":" ","LANE":" ","ALLEY":" ","HOUSE_NO":"６７號八樓","E_COORD97":177597.67999999999,"N_COORD97":2558743.5,"ADDRESS":"大信路６７號八樓","OBJECTID":505508},"geometry":{"x":177597.6799999997,"y":2558743.5000000019}},{"attributes":{"ID":505536,"DIS_CODE":0,"TOWNNAME":"善化區","LI":"文昌里","LIN":"15鄰","STREET":"大信路","SECT":" ","MAREA":" ","LANE":" ","ALLEY":" ","HOUSE_NO":"６７號七樓之１","E_COORD97":177598.54000000001,"N_COORD97":2558743.52,"ADDRESS":"大信路６７號七樓之１","OBJECTID":505509},"geometry":{"x":177598.54000000004,"y":2558743.5199999996}},{"attributes":{"ID":505537,"DIS_CODE":0,"TOWNNAME":"新化區","LI":"協興里","LIN":"15鄰","STREET":"大新路","SECT":" ","MAREA":" ","LANE":" ","ALLEY":" ","HOUSE_NO":"７９號六樓之４","E_COORD97":178083.10999999999,"N_COORD97":2548712.2599999998,"ADDRESS":"大新路７９號六樓之４","OBJECTID":505510},"geometry":{"x":178083.11000000127,"y":2548712.2600000016}},{"attributes":{"ID":505538,"DIS_CODE":0,"TOWNNAME":"東區","LI":"文聖里","LIN":"15鄰","STREET":"裕興街","SECT":" ","MAREA":" ","LANE":" ","ALLEY":" ","HOUSE_NO":"２６７號二樓","E_COORD97":172509.56,"N_COORD97":2542658.1000000001,"ADDRESS":"裕興街２６７號二樓","OBJECTID":505511},"geometry":{"x":172509.55999999959,"y":2542658.1000000015}},{"attributes":{"ID":505539,"DIS_CODE":0,"TOWNNAME":"東區","LI":"文聖里","LIN":"15鄰","STREET":"裕興街","SECT":" ","MAREA":" ","LANE":" ","ALLEY":" ","HOUSE_NO":"２６７號三樓","E_COORD97":172509.56,"N_COORD97":2542658.1000000001,"ADDRESS":"裕興街２６７號三樓","OBJECTID":505512},"geometry":{"x":172509.55999999959,"y":2542658.1000000015}},{"attributes":{"ID":505540,"DIS_CODE":0,"TOWNNAME":"東區","LI":"文聖里","LIN":"15鄰","STREET":"裕興街","SECT":" ","MAREA":" ","LANE":" ","ALLEY":" ","HOUSE_NO":"２６７號四樓","E_COORD97":172509.56,"N_COORD97":2542658.1000000001,"ADDRESS":"裕興街２６７號四樓","OBJECTID":505513},"geometry":{"x":172509.55999999959,"y":2542658.1000000015}},{"attributes":{"ID":505541,"DIS_CODE":0,"TOWNNAME":"東區","LI":"泉南里","LIN":"15鄰","STREET":"長榮路","SECT":"一段","MAREA":" ","LANE":" ","ALLEY":" ","HOUSE_NO":"２０３號二樓","E_COORD97":169817.28,"N_COORD97":2542803.8199999998,"ADDRESS":"長榮路一段２０３號二樓","OBJECTID":505514},"geometry":{"x":169817.28000000119,"y":2542803.8200000003}},{"attributes":{"ID":505542,"DIS_CODE":0,"TOWNNAME":"東區","LI":"泉南里","LIN":"15鄰","STREET":"長榮路","SECT":"一段","MAREA":" ","LANE":" ","ALLEY":" ","HOUSE_NO":"２０３號三樓","E_COORD97":169817.28,"N_COORD97":2542803.8199999998,"ADDRESS":"長榮路一段２０３號三樓","OBJECTID":505515},"geometry":{"x":169817.28000000119,"y":2542803.8200000003}},{"attributes":{"ID":505543,"DIS_CODE":0,"TOWNNAME":"善化區","LI":"文昌里","LIN":"15鄰","STREET":"大信路","SECT":" ","MAREA":" ","LANE":" ","ALLEY":" ","HOUSE_NO":"６７號十三樓","E_COORD97":177598.17999999999,"N_COORD97":2558743.5,"ADDRESS":"大信路６７號十三樓","OBJECTID":505516},"geometry":{"x":177598.18000000063,"y":2558743.5000000019}},{"attributes":{"ID":505544,"DIS_CODE":0,"TOWNNAME":"善化區","LI":"文昌里","LIN":"15鄰","STREET":"大信路","SECT":" ","MAREA":" ","LANE":" ","ALLEY":" ","HOUSE_NO":"６７號八樓之１","E_COORD97":177598.54000000001,"N_COORD97":2558743.52,"ADDRESS":"大信路６７號八樓之１","OBJECTID":505517},"geometry":{"x":177598.54000000004,"y":2558743.5199999996}},{"attributes":{"ID":505545,"DIS_CODE":0,"TOWNNAME":"善化區","LI":"文昌里","LIN":"15鄰","STREET":"大信路","SECT":" ","MAREA":" ","LANE":" ","ALLEY":" ","HOUSE_NO":"６９號十一樓","E_COORD97":177607.87,"N_COORD97":2558777.75,"ADDRESS":"大信路６９號十一樓","OBJECTID":505518},"geometry":{"x":177607.87000000104,"y":2558777.7500000037}},{"attributes":{"ID":505546,"DIS_CODE":0,"TOWNNAME":"善化區","LI":"文昌里","LIN":"15鄰","STREET":"大信路","SECT":" ","MAREA":" ","LANE":" ","ALLEY":" ","HOUSE_NO":"６９號三樓之２","E_COORD97":177608.28,"N_COORD97":2558777.77,"ADDRESS":"大信路６９號三樓之２","OBJECTID":505519},"geometry":{"x":177608.28000000119,"y":2558777.7700000014}},{"attributes":{"ID":505547,"DIS_CODE":0,"TOWNNAME":"善化區","LI":"文昌里","LIN":"15鄰","STREET":"大信路","SECT":" ","MAREA":" ","LANE":" ","ALLEY":" ","HOUSE_NO":"６９號十二樓之１","E_COORD97":177608.73000000001,"N_COORD97":2558777.77,"ADDRESS":"大信路６９號十二樓之１","OBJECTID":505520},"geometry":{"x":177608.73000000231,"y":2558777.7700000014}},{"attributes":{"ID":505548,"DIS_CODE":0,"TOWNNAME":"善化區","LI":"文昌里","LIN":"15鄰","STREET":"大信路","SECT":" ","MAREA":" ","LANE":" ","ALLEY":" ","HOUSE_NO":"６９號九樓之２","E_COORD97":177608.28,"N_COORD97":2558777.77,"ADDRESS":"大信路６９號九樓之２","OBJECTID":505521},"geometry":{"x":177608.28000000119,"y":2558777.7700000014}},{"attributes":{"ID":505549,"DIS_CODE":0,"TOWNNAME":"善化區","LI":"文昌里","LIN":"15鄰","STREET":"大信路","SECT":" ","MAREA":" ","LANE":" ","ALLEY":" ","HOUSE_NO":"６５號七樓","E_COORD97":177596.48999999999,"N_COORD97":2558748,"ADDRESS":"大信路６５號七樓","OBJECTID":505522},"geometry":{"x":177596.49000000209,"y":2558748}},{"attributes":{"ID":505550,"DIS_CODE":0,"TOWNNAME":"善化區","LI":"文昌里","LIN":"15鄰","STREET":"大信路","SECT":" ","MAREA":" ","LANE":" ","ALLEY":" ","HOUSE_NO":"６７號七樓","E_COORD97":177597.67999999999,"N_COORD97":2558743.5,"ADDRESS":"大信路６７號七樓","OBJECTID":505523},"geometry":{"x":177597.6799999997,"y":2558743.5000000019}},{"attributes":{"ID":505551,"DIS_CODE":0,"TOWNNAME":"善化區","LI":"文昌里","LIN":"15鄰","STREET":"大信路","SECT":" ","MAREA":" ","LANE":" ","ALLEY":" ","HOUSE_NO":"６７號十二樓之２","E_COORD97":177599.09,"N_COORD97":2558743.52,"ADDRESS":"大信路６７號十二樓之２","OBJECTID":505524},"geometry":{"x":177599.09000000078,"y":2558743.5199999996}},{"attributes":{"ID":505552,"DIS_CODE":0,"TOWNNAME":"善化區","LI":"文昌里","LIN":"15鄰","STREET":"永福路","SECT":" ","MAREA":" ","LANE":" ","ALLEY":" ","HOUSE_NO":"２７號三樓","E_COORD97":177596.67000000001,"N_COORD97":2558870.75,"ADDRESS":"永福路２７號三樓","OBJECTID":505525},"geometry":{"x":177596.67000000179,"y":2558870.75}},{"attributes":{"ID":505553,"DIS_CODE":0,"TOWNNAME":"善化區","LI":"文昌里","LIN":"15鄰","STREET":"永福路","SECT":" ","MAREA":" ","LANE":" ","ALLEY":" ","HOUSE_NO":"３１號七樓","E_COORD97":177589.42000000001,"N_COORD97":2558888.75,"ADDRESS":"永福路３１號七樓","OBJECTID":505526},"geometry":{"x":177589.41999999993,"y":2558888.75}},{"attributes":{"ID":505554,"DIS_CODE":0,"TOWNNAME":"善化區","LI":"文昌里","LIN":"15鄰","STREET":"大信路","SECT":" ","MAREA":" ","LANE":" ","ALLEY":" ","HOUSE_NO":"６７號六樓之２","E_COORD97":177598.59,"N_COORD97":2558743.52,"ADDRESS":"大信路６７號六樓之２","OBJECTID":505527},"geometry":{"x":177598.58999999985,"y":2558743.5199999996}},{"attributes":{"ID":505555,"DIS_CODE":0,"TOWNNAME":"善化區","LI":"文昌里","LIN":"15鄰","STREET":"永福路","SECT":" ","MAREA":" ","LANE":" ","ALLEY":" ","HOUSE_NO":"２３號五樓","E_COORD97":177613.85999999999,"N_COORD97":2558882.5,"ADDRESS":"永福路２３號五樓","OBJECTID":505528},"geometry":{"x":177613.86000000034,"y":2558882.5000000019}},{"attributes":{"ID":505556,"DIS_CODE":0,"TOWNNAME":"善化區","LI":"文昌里","LIN":"15鄰","STREET":"大信路","SECT":" ","MAREA":" ","LANE":" ","ALLEY":" ","HOUSE_NO":"６９號二樓之２","E_COORD97":177608.28,"N_COORD97":2558777.77,"ADDRESS":"大信路６９號二樓之２","OBJECTID":505529},"geometry":{"x":177608.28000000119,"y":2558777.7700000014}},{"attributes":{"ID":505557,"DIS_CODE":0,"TOWNNAME":"善化區","LI":"文昌里","LIN":"15鄰","STREET":"大信路","SECT":" ","MAREA":" ","LANE":" ","ALLEY":" ","HOUSE_NO":"６５號十一樓","E_COORD97":177596.98999999999,"N_COORD97":2558748,"ADDRESS":"大信路６５號十一樓","OBJECTID":505530},"geometry":{"x":177596.99000000115,"y":2558748}},{"attributes":{"ID":505558,"DIS_CODE":0,"TOWNNAME":"善化區","LI":"文昌里","LIN":"15鄰","STREET":"永福路","SECT":" ","MAREA":" ","LANE":" ","ALLEY":" ","HOUSE_NO":"１３號五樓","E_COORD97":177616.12,"N_COORD97":2558898.25,"ADDRESS":"永福路１３號五樓","OBJECTID":505531},"geometry":{"x":177616.12000000104,"y":2558898.25}},{"attributes":{"ID":505559,"DIS_CODE":0,"TOWNNAME":"善化區","LI":"文昌里","LIN":"15鄰","STREET":"永福路","SECT":" ","MAREA":" ","LANE":" ","ALLEY":" ","HOUSE_NO":"３５號七樓","E_COORD97":177580.22,"N_COORD97":2558885.9900000002,"ADDRESS":"永福路３５號七樓","OBJECTID":505532},"geometry":{"x":177580.21999999974,"y":2558885.9900000021}},{"attributes":{"ID":505560,"DIS_CODE":0,"TOWNNAME":"善化區","LI":"文昌里","LIN":"15鄰","STREET":"永福路","SECT":" ","MAREA":" ","LANE":" ","ALLEY":" ","HOUSE_NO":"１７號五樓","E_COORD97":177607.39999999999,"N_COORD97":2558895.25,"ADDRESS":"永福路１７號五樓","OBJECTID":505533},"geometry":{"x":177607.40000000224,"y":2558895.25}},{"attributes":{"ID":505561,"DIS_CODE":0,"TOWNNAME":"善化區","LI":"文昌里","LIN":"15鄰","STREET":"大信路","SECT":" ","MAREA":" ","LANE":" ","ALLEY":" ","HOUSE_NO":"７３號九樓","E_COORD97":177617.62,"N_COORD97":2558761.5,"ADDRESS":"大信路７３號九樓","OBJECTID":505534},"geometry":{"x":177617.62000000197,"y":2558761.5}},{"attributes":{"ID":505562,"DIS_CODE":0,"TOWNNAME":"中西區","LI":"福安里","LIN":"15鄰","STREET":"中正路","SECT":" ","MAREA":" ","LANE":" ","ALLEY":" ","HOUSE_NO":"１１９號七樓","E_COORD97":167984.72,"N_COORD97":2543658.6400000001,"ADDRESS":"中正路１１９號七樓","OBJECTID":505535},"geometry":{"x":167984.72000000067,"y":2543658.6400000025}},{"attributes":{"ID":505563,"DIS_CODE":0,"TOWNNAME":"中西區","LI":"福安里","LIN":"15鄰","STREET":"中正路","SECT":" ","MAREA":" ","LANE":" ","ALLEY":" ","HOUSE_NO":"１１９號九樓","E_COORD97":167984.72,"N_COORD97":2543658.6400000001,"ADDRESS":"中正路１１９號九樓","OBJECTID":505536},"geometry":{"x":167984.72000000067,"y":2543658.6400000025}},{"attributes":{"ID":505564,"DIS_CODE":0,"TOWNNAME":"中西區","LI":"福安里","LIN":"15鄰","STREET":"中正路","SECT":" ","MAREA":" ","LANE":" ","ALLEY":" ","HOUSE_NO":"１１９號二樓","E_COORD97":167984.72,"N_COORD97":2543658.6400000001,"ADDRESS":"中正路１１９號二樓","OBJECTID":505537},"geometry":{"x":167984.72000000067,"y":2543658.6400000025}},{"attributes":{"ID":505565,"DIS_CODE":0,"TOWNNAME":"中西區","LI":"福安里","LIN":"15鄰","STREET":"中正路","SECT":" ","MAREA":" ","LANE":" ","ALLEY":" ","HOUSE_NO":"１１９號八樓","E_COORD97":167984.72,"N_COORD97":2543658.6400000001,"ADDRESS":"中正路１１９號八樓","OBJECTID":505538},"geometry":{"x":167984.72000000067,"y":2543658.6400000025}},{"attributes":{"ID":505566,"DIS_CODE":0,"TOWNNAME":"中西區","LI":"福安里","LIN":"15鄰","STREET":"中正路","SECT":" ","MAREA":" ","LANE":" ","ALLEY":" ","HOUSE_NO":"１１９號十一樓","E_COORD97":167984.72,"N_COORD97":2543658.6400000001,"ADDRESS":"中正路１１９號十一樓","OBJECTID":505539},"geometry":{"x":167984.72000000067,"y":2543658.6400000025}},{"attributes":{"ID":505567,"DIS_CODE":0,"TOWNNAME":"中西區","LI":"福安里","LIN":"15鄰","STREET":"中正路","SECT":" ","MAREA":" ","LANE":" ","ALLEY":" ","HOUSE_NO":"１１９號十二樓","E_COORD97":167984.72,"N_COORD97":2543658.6400000001,"ADDRESS":"中正路１１９號十二樓","OBJECTID":505540},"geometry":{"x":167984.72000000067,"y":2543658.6400000025}},{"attributes":{"ID":505568,"DIS_CODE":0,"TOWNNAME":"中西區","LI":"福安里","LIN":"15鄰","STREET":"中正路","SECT":" ","MAREA":" ","LANE":" ","ALLEY":" ","HOUSE_NO":"１１９號十樓","E_COORD97":167984.72,"N_COORD97":2543658.6400000001,"ADDRESS":"中正路１１９號十樓","OBJECTID":505541},"geometry":{"x":167984.72000000067,"y":2543658.6400000025}},{"attributes":{"ID":505569,"DIS_CODE":0,"TOWNNAME":"中西區","LI":"福安里","LIN":"15鄰","STREET":"中正路","SECT":" ","MAREA":" ","LANE":" ","ALLEY":" ","HOUSE_NO":"１１９號三樓","E_COORD97":167984.72,"N_COORD97":2543658.6400000001,"ADDRESS":"中正路１１９號三樓","OBJECTID":505542},"geometry":{"x":167984.72000000067,"y":2543658.6400000025}},{"attributes":{"ID":505570,"DIS_CODE":0,"TOWNNAME":"中西區","LI":"福安里","LIN":"15鄰","STREET":"中正路","SECT":" ","MAREA":" ","LANE":" ","ALLEY":" ","HOUSE_NO":"１１９號五樓","E_COORD97":167984.72,"N_COORD97":2543658.6400000001,"ADDRESS":"中正路１１９號五樓","OBJECTID":505543},"geometry":{"x":167984.72000000067,"y":2543658.6400000025}},{"attributes":{"ID":505571,"DIS_CODE":0,"TOWNNAME":"中西區","LI":"福安里","LIN":"15鄰","STREET":"中正路","SECT":" ","MAREA":" ","LANE":" ","ALLEY":" ","HOUSE_NO":"１１９號六樓","E_COORD97":167984.72,"N_COORD97":2543658.6400000001,"ADDRESS":"中正路１１９號六樓","OBJECTID":505544},"geometry":{"x":167984.72000000067,"y":2543658.6400000025}},{"attributes":{"ID":505572,"DIS_CODE":0,"TOWNNAME":"中西區","LI":"福安里","LIN":"15鄰","STREET":"中正路","SECT":" ","MAREA":" ","LANE":" ","ALLEY":" ","HOUSE_NO":"１１９號四樓","E_COORD97":167984.72,"N_COORD97":2543658.6400000001,"ADDRESS":"中正路１１９號四樓","OBJECTID":505545},"geometry":{"x":167984.72000000067,"y":2543658.6400000025}},{"attributes":{"ID":505573,"DIS_CODE":0,"TOWNNAME":"東區","LI":"小東里","LIN":"15鄰","STREET":"光明街","SECT":" ","MAREA":" ","LANE":" ","ALLEY":" ","HOUSE_NO":"７６號二樓之１","E_COORD97":170895.31,"N_COORD97":2544184.1899999999,"ADDRESS":"光明街７６號二樓之１","OBJECTID":505546},"geometry":{"x":170895.30999999959,"y":2544184.1899999995}},{"attributes":{"ID":505574,"DIS_CODE":0,"TOWNNAME":"東區","LI":"小東里","LIN":"15鄰","STREET":"光明街","SECT":" ","MAREA":" ","LANE":" ","ALLEY":" ","HOUSE_NO":"７６號三樓之１","E_COORD97":170895.31,"N_COORD97":2544184.1899999999,"ADDRESS":"光明街７６號三樓之１","OBJECTID":505547},"geometry":{"x":170895.30999999959,"y":2544184.1899999995}},{"attributes":{"ID":505575,"DIS_CODE":0,"TOWNNAME":"東區","LI":"小東里","LIN":"15鄰","STREET":"光明街","SECT":" ","MAREA":" ","LANE":" ","ALLEY":" ","HOUSE_NO":"７６號三樓之２","E_COORD97":170895.78,"N_COORD97":2544179.3399999999,"ADDRESS":"光明街７６號三樓之２","OBJECTID":505548},"geometry":{"x":170895.78000000119,"y":2544179.3400000017}},{"attributes":{"ID":505576,"DIS_CODE":0,"TOWNNAME":"東區","LI":"小東里","LIN":"15鄰","STREET":"光明街","SECT":" ","MAREA":" ","LANE":" ","ALLEY":" ","HOUSE_NO":"７６號五樓之１","E_COORD97":170895.31,"N_COORD97":2544184.1899999999,"ADDRESS":"光明街７６號五樓之１","OBJECTID":505549},"geometry":{"x":170895.30999999959,"y":2544184.1899999995}},{"attributes":{"ID":505577,"DIS_CODE":0,"TOWNNAME":"東區","LI":"小東里","LIN":"15鄰","STREET":"光明街","SECT":" ","MAREA":" ","LANE":" ","ALLEY":" ","HOUSE_NO":"７６號四樓之２","E_COORD97":170895.78,"N_COORD97":2544179.3399999999,"ADDRESS":"光明街７６號四樓之２","OBJECTID":505550},"geometry":{"x":170895.78000000119,"y":2544179.3400000017}},{"attributes":{"ID":505578,"DIS_CODE":0,"TOWNNAME":"東區","LI":"小東里","LIN":"15鄰","STREET":"光明街","SECT":" ","MAREA":" ","LANE":" ","ALLEY":" ","HOUSE_NO":"７６號二樓之２","E_COORD97":170895.78,"N_COORD97":2544179.3399999999,"ADDRESS":"光明街７６號二樓之２","OBJECTID":505551},"geometry":{"x":170895.78000000119,"y":2544179.3400000017}},{"attributes":{"ID":505579,"DIS_CODE":0,"TOWNNAME":"東區","LI":"文聖里","LIN":"20鄰","STREET":"裕信二街","SECT":" ","MAREA":" ","LANE":" ","ALLEY":" ","HOUSE_NO":"１２６號","E_COORD97":172799.87,"N_COORD97":2542671.6000000001,"ADDRESS":"裕信二街１２６號","OBJECTID":505552},"geometry":{"x":172799.87000000197,"y":2542671.6000000015}},{"attributes":{"ID":505580,"DIS_CODE":0,"TOWNNAME":"東區","LI":"小東里","LIN":"15鄰","STREET":"光明街","SECT":" ","MAREA":" ","LANE":" ","ALLEY":" ","HOUSE_NO":"７６號四樓之１","E_COORD97":170895.31,"N_COORD97":2544184.1899999999,"ADDRESS":"光明街７６號四樓之１","OBJECTID":505553},"geometry":{"x":170895.30999999959,"y":2544184.1899999995}},{"attributes":{"ID":505581,"DIS_CODE":0,"TOWNNAME":"東區","LI":"小東里","LIN":"15鄰","STREET":"光明街","SECT":" ","MAREA":" ","LANE":" ","ALLEY":" ","HOUSE_NO":"７６號五樓之２","E_COORD97":170895.78,"N_COORD97":2544179.3399999999,"ADDRESS":"光明街７６號五樓之２","OBJECTID":505554},"geometry":{"x":170895.78000000119,"y":2544179.3400000017}},{"attributes":{"ID":505582,"DIS_CODE":0,"TOWNNAME":"中西區","LI":"仙草里","LIN":"15鄰","STREET":"五妃街","SECT":" ","MAREA":" ","LANE":" ","ALLEY":" ","HOUSE_NO":"３０５號二樓之１","E_COORD97":167912.34,"N_COORD97":2542569.5299999998,"ADDRESS":"五妃街３０５號二樓之１","OBJECTID":505555},"geometry":{"x":167912.33999999985,"y":2542569.5300000012}},{"attributes":{"ID":505583,"DIS_CODE":0,"TOWNNAME":"中西區","LI":"仙草里","LIN":"15鄰","STREET":"五妃街","SECT":" ","MAREA":" ","LANE":" ","ALLEY":" ","HOUSE_NO":"３０５號二樓之２","E_COORD97":167912.34,"N_COORD97":2542569.5299999998,"ADDRESS":"五妃街３０５號二樓之２","OBJECTID":505556},"geometry":{"x":167912.33999999985,"y":2542569.5300000012}},{"attributes":{"ID":505584,"DIS_CODE":0,"TOWNNAME":"中西區","LI":"仙草里","LIN":"15鄰","STREET":"五妃街","SECT":" ","MAREA":" ","LANE":" ","ALLEY":" ","HOUSE_NO":"３０５號三樓之１","E_COORD97":167912.34,"N_COORD97":2542569.5299999998,"ADDRESS":"五妃街３０５號三樓之１","OBJECTID":505557},"geometry":{"x":167912.33999999985,"y":2542569.5300000012}},{"attributes":{"ID":505585,"DIS_CODE":0,"TOWNNAME":"中西區","LI":"仙草里","LIN":"15鄰","STREET":"五妃街","SECT":" ","MAREA":" ","LANE":" ","ALLEY":" ","HOUSE_NO":"３０５號三樓之２","E_COORD97":167912.34,"N_COORD97":2542569.5299999998,"ADDRESS":"五妃街３０５號三樓之２","OBJECTID":505558},"geometry":{"x":167912.33999999985,"y":2542569.5300000012}},{"attributes":{"ID":505586,"DIS_CODE":0,"TOWNNAME":"中西區","LI":"仙草里","LIN":"15鄰","STREET":"五妃街","SECT":" ","MAREA":" ","LANE":" ","ALLEY":" ","HOUSE_NO":"３０５號五樓之１","E_COORD97":167912.34,"N_COORD97":2542569.5299999998,"ADDRESS":"五妃街３０５號五樓之１","OBJECTID":505559},"geometry":{"x":167912.33999999985,"y":2542569.5300000012}},{"attributes":{"ID":505587,"DIS_CODE":0,"TOWNNAME":"中西區","LI":"仙草里","LIN":"15鄰","STREET":"五妃街","SECT":" ","MAREA":" ","LANE":" ","ALLEY":" ","HOUSE_NO":"３０５號五樓之２","E_COORD97":167912.34,"N_COORD97":2542569.5299999998,"ADDRESS":"五妃街３０５號五樓之２","OBJECTID":505560},"geometry":{"x":167912.33999999985,"y":2542569.5300000012}},{"attributes":{"ID":505588,"DIS_CODE":0,"TOWNNAME":"中西區","LI":"仙草里","LIN":"15鄰","STREET":"五妃街","SECT":" ","MAREA":" ","LANE":" ","ALLEY":" ","HOUSE_NO":"３０５號四樓之１","E_COORD97":167912.34,"N_COORD97":2542569.5299999998,"ADDRESS":"五妃街３０５號四樓之１","OBJECTID":505561},"geometry":{"x":167912.33999999985,"y":2542569.5300000012}},{"attributes":{"ID":505589,"DIS_CODE":0,"TOWNNAME":"中西區","LI":"仙草里","LIN":"15鄰","STREET":"五妃街","SECT":" ","MAREA":" ","LANE":" ","ALLEY":" ","HOUSE_NO":"３０５號四樓之２","E_COORD97":167912.34,"N_COORD97":2542569.5299999998,"ADDRESS":"五妃街３０５號四樓之２","OBJECTID":505562},"geometry":{"x":167912.33999999985,"y":2542569.5300000012}},{"attributes":{"ID":505590,"DIS_CODE":0,"TOWNNAME":"中西區","LI":"仙草里","LIN":"15鄰","STREET":"五妃街","SECT":" ","MAREA":" ","LANE":" ","ALLEY":" ","HOUSE_NO":"３１１號二樓之１","E_COORD97":167897.41,"N_COORD97":2542571.1800000002,"ADDRESS":"五妃街３１１號二樓之１","OBJECTID":505563},"geometry":{"x":167897.41000000108,"y":2542571.1799999997}},{"attributes":{"ID":505591,"DIS_CODE":0,"TOWNNAME":"中西區","LI":"仙草里","LIN":"15鄰","STREET":"五妃街","SECT":" ","MAREA":" ","LANE":" ","ALLEY":" ","HOUSE_NO":"３１１號二樓之２","E_COORD97":167897.41,"N_COORD97":2542571.1800000002,"ADDRESS":"五妃街３１１號二樓之２","OBJECTID":505564},"geometry":{"x":167897.41000000108,"y":2542571.1799999997}},{"attributes":{"ID":505592,"DIS_CODE":0,"TOWNNAME":"中西區","LI":"仙草里","LIN":"15鄰","STREET":"五妃街","SECT":" ","MAREA":" ","LANE":" ","ALLEY":" ","HOUSE_NO":"３１１號二樓之３","E_COORD97":167897.41,"N_COORD97":2542571.1800000002,"ADDRESS":"五妃街３１１號二樓之３","OBJECTID":505565},"geometry":{"x":167897.41000000108,"y":2542571.1799999997}},{"attributes":{"ID":505593,"DIS_CODE":0,"TOWNNAME":"中西區","LI":"仙草里","LIN":"15鄰","STREET":"五妃街","SECT":" ","MAREA":" ","LANE":" ","ALLEY":" ","HOUSE_NO":"３１１號二樓之４","E_COORD97":167897.41,"N_COORD97":2542571.1800000002,"ADDRESS":"五妃街３１１號二樓之４","OBJECTID":505566},"geometry":{"x":167897.41000000108,"y":2542571.1799999997}},{"attributes":{"ID":505594,"DIS_CODE":0,"TOWNNAME":"中西區","LI":"仙草里","LIN":"15鄰","STREET":"五妃街","SECT":" ","MAREA":" ","LANE":" ","ALLEY":" ","HOUSE_NO":"３１１號三樓之１","E_COORD97":167897.41,"N_COORD97":2542571.1800000002,"ADDRESS":"五妃街３１１號三樓之１","OBJECTID":505567},"geometry":{"x":167897.41000000108,"y":2542571.1799999997}},{"attributes":{"ID":505595,"DIS_CODE":0,"TOWNNAME":"中西區","LI":"仙草里","LIN":"15鄰","STREET":"五妃街","SECT":" ","MAREA":" ","LANE":" ","ALLEY":" ","HOUSE_NO":"３１１號三樓之２","E_COORD97":167897.41,"N_COORD97":2542571.1800000002,"ADDRESS":"五妃街３１１號三樓之２","OBJECTID":505568},"geometry":{"x":167897.41000000108,"y":2542571.1799999997}},{"attributes":{"ID":505596,"DIS_CODE":0,"TOWNNAME":"中西區","LI":"仙草里","LIN":"15鄰","STREET":"五妃街","SECT":" ","MAREA":" ","LANE":" ","ALLEY":" ","HOUSE_NO":"３１１號三樓之３","E_COORD97":167897.41,"N_COORD97":2542571.1800000002,"ADDRESS":"五妃街３１１號三樓之３","OBJECTID":505569},"geometry":{"x":167897.41000000108,"y":2542571.1799999997}},{"attributes":{"ID":505597,"DIS_CODE":0,"TOWNNAME":"中西區","LI":"仙草里","LIN":"15鄰","STREET":"五妃街","SECT":" ","MAREA":" ","LANE":" ","ALLEY":" ","HOUSE_NO":"３１１號三樓之４","E_COORD97":167897.41,"N_COORD97":2542571.1800000002,"ADDRESS":"五妃街３１１號三樓之４","OBJECTID":505570},"geometry":{"x":167897.41000000108,"y":2542571.1799999997}},{"attributes":{"ID":505598,"DIS_CODE":0,"TOWNNAME":"中西區","LI":"仙草里","LIN":"15鄰","STREET":"五妃街","SECT":" ","MAREA":" ","LANE":" ","ALLEY":" ","HOUSE_NO":"３１１號五樓之１","E_COORD97":167897.41,"N_COORD97":2542571.1800000002,"ADDRESS":"五妃街３１１號五樓之１","OBJECTID":505571},"geometry":{"x":167897.41000000108,"y":2542571.1799999997}},{"attributes":{"ID":505599,"DIS_CODE":0,"TOWNNAME":"中西區","LI":"仙草里","LIN":"15鄰","STREET":"五妃街","SECT":" ","MAREA":" ","LANE":" ","ALLEY":" ","HOUSE_NO":"３１１號五樓之２","E_COORD97":167897.41,"N_COORD97":2542571.1800000002,"ADDRESS":"五妃街３１１號五樓之２","OBJECTID":505572},"geometry":{"x":167897.41000000108,"y":2542571.1799999997}},{"attributes":{"ID":505600,"DIS_CODE":0,"TOWNNAME":"中西區","LI":"仙草里","LIN":"15鄰","STREET":"五妃街","SECT":" ","MAREA":" ","LANE":" ","ALLEY":" ","HOUSE_NO":"３１１號五樓之３","E_COORD97":167897.41,"N_COORD97":2542571.1800000002,"ADDRESS":"五妃街３１１號五樓之３","OBJECTID":505573},"geometry":{"x":167897.41000000108,"y":2542571.1799999997}},{"attributes":{"ID":505601,"DIS_CODE":0,"TOWNNAME":"中西區","LI":"仙草里","LIN":"15鄰","STREET":"五妃街","SECT":" ","MAREA":" ","LANE":" ","ALLEY":" ","HOUSE_NO":"３１１號五樓之４","E_COORD97":167897.41,"N_COORD97":2542571.1800000002,"ADDRESS":"五妃街３１１號五樓之４","OBJECTID":505574},"geometry":{"x":167897.41000000108,"y":2542571.1799999997}},{"attributes":{"ID":505602,"DIS_CODE":0,"TOWNNAME":"中西區","LI":"仙草里","LIN":"15鄰","STREET":"五妃街","SECT":" ","MAREA":" ","LANE":" ","ALLEY":" ","HOUSE_NO":"３１１號四樓之１","E_COORD97":167897.41,"N_COORD97":2542571.1800000002,"ADDRESS":"五妃街３１１號四樓之１","OBJECTID":505575},"geometry":{"x":167897.41000000108,"y":2542571.1799999997}},{"attributes":{"ID":505603,"DIS_CODE":0,"TOWNNAME":"中西區","LI":"仙草里","LIN":"15鄰","STREET":"五妃街","SECT":" ","MAREA":" ","LANE":" ","ALLEY":" ","HOUSE_NO":"３１１號四樓之２","E_COORD97":167897.41,"N_COORD97":2542571.1800000002,"ADDRESS":"五妃街３１１號四樓之２","OBJECTID":505576},"geometry":{"x":167897.41000000108,"y":2542571.1799999997}},{"attributes":{"ID":505604,"DIS_CODE":0,"TOWNNAME":"中西區","LI":"仙草里","LIN":"15鄰","STREET":"五妃街","SECT":" ","MAREA":" ","LANE":" ","ALLEY":" ","HOUSE_NO":"３１１號四樓之３","E_COORD97":167897.41,"N_COORD97":2542571.1800000002,"ADDRESS":"五妃街３１１號四樓之３","OBJECTID":505577},"geometry":{"x":167897.41000000108,"y":2542571.1799999997}},{"attributes":{"ID":505605,"DIS_CODE":0,"TOWNNAME":"中西區","LI":"仙草里","LIN":"15鄰","STREET":"五妃街","SECT":" ","MAREA":" ","LANE":" ","ALLEY":" ","HOUSE_NO":"３１１號四樓之４","E_COORD97":167897.41,"N_COORD97":2542571.1800000002,"ADDRESS":"五妃街３１１號四樓之４","OBJECTID":505578},"geometry":{"x":167897.41000000108,"y":2542571.1799999997}},{"attributes":{"ID":505606,"DIS_CODE":0,"TOWNNAME":"新化區","LI":"協興里","LIN":"15鄰","STREET":"大新路","SECT":" ","MAREA":" ","LANE":" ","ALLEY":" ","HOUSE_NO":"７９號五樓之２","E_COORD97":178083.13,"N_COORD97":2548712.2599999998,"ADDRESS":"大新路７９號五樓之２","OBJECTID":505579},"geometry":{"x":178083.12999999989,"y":2548712.2600000016}},{"attributes":{"ID":505607,"DIS_CODE":0,"TOWNNAME":"新化區","LI":"協興里","LIN":"15鄰","STREET":"大新路","SECT":" ","MAREA":" ","LANE":" ","ALLEY":" ","HOUSE_NO":"７９號三樓之４","E_COORD97":178083.10999999999,"N_COORD97":2548712.2599999998,"ADDRESS":"大新路７９號三樓之４","OBJECTID":505580},"geometry":{"x":178083.11000000127,"y":2548712.2600000016}},{"attributes":{"ID":505608,"DIS_CODE":0,"TOWNNAME":"新化區","LI":"協興里","LIN":"15鄰","STREET":"大新路","SECT":" ","MAREA":" ","LANE":" ","ALLEY":" ","HOUSE_NO":"７９號四樓之５","E_COORD97":178083.14000000001,"N_COORD97":2548712.2599999998,"ADDRESS":"大新路７９號四樓之５","OBJECTID":505581},"geometry":{"x":178083.14000000153,"y":2548712.2600000016}},{"attributes":{"ID":505609,"DIS_CODE":0,"TOWNNAME":"新化區","LI":"協興里","LIN":"15鄰","STREET":"大新路","SECT":" ","MAREA":" ","LANE":" ","ALLEY":" ","HOUSE_NO":"７９號三樓之３","E_COORD97":178083.13,"N_COORD97":2548712.2599999998,"ADDRESS":"大新路７９號三樓之３","OBJECTID":505582},"geometry":{"x":178083.12999999989,"y":2548712.2600000016}},{"attributes":{"ID":505610,"DIS_CODE":0,"TOWNNAME":"新化區","LI":"協興里","LIN":"15鄰","STREET":"大新路","SECT":" ","MAREA":" ","LANE":" ","ALLEY":" ","HOUSE_NO":"７９號七樓之５","E_COORD97":178083.14000000001,"N_COORD97":2548712.2599999998,"ADDRESS":"大新路７９號七樓之５","OBJECTID":505583},"geometry":{"x":178083.14000000153,"y":2548712.2600000016}},{"attributes":{"ID":505611,"DIS_CODE":0,"TOWNNAME":"新化區","LI":"協興里","LIN":"15鄰","STREET":"大新路","SECT":" ","MAREA":" ","LANE":" ","ALLEY":" ","HOUSE_NO":"７９號五樓之５","E_COORD97":178083.14000000001,"N_COORD97":2548712.2599999998,"ADDRESS":"大新路７９號五樓之５","OBJECTID":505584},"geometry":{"x":178083.14000000153,"y":2548712.2600000016}},{"attributes":{"ID":505612,"DIS_CODE":0,"TOWNNAME":"新化區","LI":"協興里","LIN":"15鄰","STREET":"大新路","SECT":" ","MAREA":" ","LANE":" ","ALLEY":" ","HOUSE_NO":"７９號七樓之４","E_COORD97":178083.10999999999,"N_COORD97":2548712.2599999998,"ADDRESS":"大新路７９號七樓之４","OBJECTID":505585},"geometry":{"x":178083.11000000127,"y":2548712.2600000016}},{"attributes":{"ID":505613,"DIS_CODE":0,"TOWNNAME":"新化區","LI":"協興里","LIN":"15鄰","STREET":"大新路","SECT":" ","MAREA":" ","LANE":" ","ALLEY":" ","HOUSE_NO":"７９號四樓之１","E_COORD97":178083.10999999999,"N_COORD97":2548712.2599999998,"ADDRESS":"大新路７９號四樓之１","OBJECTID":505586},"geometry":{"x":178083.11000000127,"y":2548712.2600000016}},{"attributes":{"ID":505614,"DIS_CODE":0,"TOWNNAME":"鹽水區","LI":"武廟里","LIN":"8鄰","STREET":"武廟路","SECT":" ","MAREA":" ","LANE":" ","ALLEY":" ","HOUSE_NO":"５１號","E_COORD97":174896.57000000001,"N_COORD97":2580153.5,"ADDRESS":"武廟路５１號","OBJECTID":505587},"geometry":{"x":174896.5700000003,"y":2580153.5000000019}},{"attributes":{"ID":505615,"DIS_CODE":0,"TOWNNAME":"鹽水區","LI":"武廟里","LIN":"8鄰","STREET":"武廟路","SECT":" ","MAREA":" ","LANE":" ","ALLEY":" ","HOUSE_NO":"５３號","E_COORD97":174896.89999999999,"N_COORD97":2580158.21,"ADDRESS":"武廟路５３號","OBJECTID":505588},"geometry":{"x":174896.90000000224,"y":2580158.209999999}},{"attributes":{"ID":505616,"DIS_CODE":0,"TOWNNAME":"鹽水區","LI":"武廟里","LIN":"8鄰","STREET":"武廟路","SECT":" ","MAREA":" ","LANE":" ","ALLEY":" ","HOUSE_NO":"５５號","E_COORD97":174896.82999999999,"N_COORD97":2580163.0499999998,"ADDRESS":"武廟路５５號","OBJECTID":505589},"geometry":{"x":174896.83000000007,"y":2580163.0500000026}},{"attributes":{"ID":505617,"DIS_CODE":0,"TOWNNAME":"鹽水區","LI":"武廟里","LIN":"8鄰","STREET":"武廟路","SECT":" ","MAREA":" ","LANE":" ","ALLEY":" ","HOUSE_NO":"５７號","E_COORD97":174897.10999999999,"N_COORD97":2580168.0299999998,"ADDRESS":"武廟路５７號","OBJECTID":505590},"geometry":{"x":174897.1100000022,"y":2580168.0300000031}},{"attributes":{"ID":505618,"DIS_CODE":0,"TOWNNAME":"鹽水區","LI":"武廟里","LIN":"8鄰","STREET":"武廟路","SECT":" ","MAREA":" ","LANE":" ","ALLEY":" ","HOUSE_NO":"５９號","E_COORD97":174897.22,"N_COORD97":2580173.7000000002,"ADDRESS":"武廟路５９號","OBJECTID":505591},"geometry":{"x":174897.21999999974,"y":2580173.700000003}},{"attributes":{"ID":505619,"DIS_CODE":0,"TOWNNAME":"鹽水區","LI":"武廟里","LIN":"8鄰","STREET":"武廟路","SECT":" ","MAREA":" ","LANE":" ","ALLEY":" ","HOUSE_NO":"６１號之１","E_COORD97":174898.91,"N_COORD97":2580198.48,"ADDRESS":"武廟路６１號之１","OBJECTID":505592},"geometry":{"x":174898.91000000108,"y":2580198.4800000023}},{"attributes":{"ID":505620,"DIS_CODE":0,"TOWNNAME":"安平區","LI":"育平里","LIN":"38鄰","STREET":"光州二街","SECT":" ","MAREA":" ","LANE":" ","ALLEY":" ","HOUSE_NO":"１４２號","E_COORD97":164401,"N_COORD97":2543058.1800000002,"ADDRESS":"光州二街１４２號","OBJECTID":505593},"geometry":{"x":164401.00000000093,"y":2543058.1799999997}},{"attributes":{"ID":505621,"DIS_CODE":0,"TOWNNAME":"安平區","LI":"育平里","LIN":"38鄰","STREET":"光州二街","SECT":" ","MAREA":" ","LANE":" ","ALLEY":" ","HOUSE_NO":"１４４號","E_COORD97":164415.39000000001,"N_COORD97":2543054.8500000001,"ADDRESS":"光州二街１４４號","OBJECTID":505594},"geometry":{"x":164415.3900000006,"y":2543054.8499999996}},{"attributes":{"ID":505622,"DIS_CODE":0,"TOWNNAME":"安平區","LI":"西門里","LIN":"8鄰","STREET":"安北路","SECT":" ","MAREA":" ","LANE":" ","ALLEY":" ","HOUSE_NO":"２１１號","E_COORD97":163819.67999999999,"N_COORD97":2544793.25,"ADDRESS":"安北路２１１號","OBJECTID":505595},"geometry":{"x":163819.68000000063,"y":2544793.2500000019}},{"attributes":{"ID":505623,"DIS_CODE":0,"TOWNNAME":"安平區","LI":"育平里","LIN":"37鄰","STREET":"育平三街","SECT":" ","MAREA":" ","LANE":" ","ALLEY":" ","HOUSE_NO":"３３號","E_COORD97":164467.62,"N_COORD97":2543171.6699999999,"ADDRESS":"育平三街３３號","OBJECTID":505596},"geometry":{"x":164467.62000000011,"y":2543171.6699999999}},{"attributes":{"ID":505624,"DIS_CODE":0,"TOWNNAME":"安平區","LI":"育平里","LIN":"37鄰","STREET":"府平路","SECT":" ","MAREA":" ","LANE":" ","ALLEY":" ","HOUSE_NO":"４３２號","E_COORD97":164493.72,"N_COORD97":2543132.7400000002,"ADDRESS":"府平路４３２號","OBJECTID":505597},"geometry":{"x":164493.71999999974,"y":2543132.7400000021}},{"attributes":{"ID":505625,"DIS_CODE":0,"TOWNNAME":"安平區","LI":"育平里","LIN":"38鄰","STREET":"光州二街","SECT":" ","MAREA":" ","LANE":" ","ALLEY":" ","HOUSE_NO":"１４６號","E_COORD97":164419.5,"N_COORD97":2543053.6800000002,"ADDRESS":"光州二街１４６號","OBJECTID":505598},"geometry":{"x":164419.50000000186,"y":2543053.6800000016}},{"attributes":{"ID":505626,"DIS_CODE":0,"TOWNNAME":"安平區","LI":"西門里","LIN":"12鄰","STREET":"古堡街","SECT":" ","MAREA":" ","LANE":" ","ALLEY":" ","HOUSE_NO":"１０７號","E_COORD97":163708.07000000001,"N_COORD97":2544855.1899999999,"ADDRESS":"古堡街１０７號","OBJECTID":505599},"geometry":{"x":163708.07000000123,"y":2544855.1899999995}},{"attributes":{"ID":505627,"DIS_CODE":0,"TOWNNAME":"安平區","LI":"育平里","LIN":"38鄰","STREET":"光州二街","SECT":" ","MAREA":" ","LANE":" ","ALLEY":" ","HOUSE_NO":"１４８號","E_COORD97":164424.39000000001,"N_COORD97":2543052.21,"ADDRESS":"光州二街１４８號","OBJECTID":505600},"geometry":{"x":164424.38999999966,"y":2543052.2100000028}}]}