{"displayFieldName":"TOWNNAME","fieldAliases":{"ID":"ID","DIS_CODE":"DIS_CODE","TOWNNAME":"TOWNNAME","LI":"LI","LIN":"LIN","STREET":"STREET","SECT":"SECT","MAREA":"MAREA","LANE":"LANE","ALLEY":"ALLEY","HOUSE_NO":"HOUSE_NO","E_COORD97":"E_COORD97","N_COORD97":"N_COORD97","ADDRESS":"ADDRESS","OBJECTID":"OBJECTID"},"geometryType":"esriGeometryPoint","spatialReference":{"wkid":102443,"latestWkid":3826},"fields":[{"name":"ID","type":"esriFieldTypeDouble","alias":"ID"},{"name":"DIS_CODE","type":"esriFieldTypeInteger","alias":"DIS_CODE"},{"name":"TOWNNAME","type":"esriFieldTypeString","alias":"TOWNNAME","length":8},{"name":"LI","type":"esriFieldTypeString","alias":"LI","length":8},{"name":"LIN","type":"esriFieldTypeString","alias":"LIN","length":12},{"name":"STREET","type":"esriFieldTypeString","alias":"STREET","length":20},{"name":"SECT","type":"esriFieldTypeString","alias":"SECT","length":8},{"name":"MAREA","type":"esriFieldTypeString","alias":"MAREA","length":12},{"name":"LANE","type":"esriFieldTypeString","alias":"LANE","length":10},{"name":"ALLEY","type":"esriFieldTypeString","alias":"ALLEY","length":10},{"name":"HOUSE_NO","type":"esriFieldTypeString","alias":"HOUSE_NO","length":20},{"name":"E_COORD97","type":"esriFieldTypeDouble","alias":"E_COORD97"},{"name":"N_COORD97","type":"esriFieldTypeDouble","alias":"N_COORD97"},{"name":"ADDRESS","type":"esriFieldTypeString","alias":"ADDRESS","length":50},{"name":"OBJECTID","type":"esriFieldTypeOID","alias":"OBJECTID"}],"features":[{"attributes":{"ID":296609,"DIS_CODE":0,"TOWNNAME":"新化區","LI":"太平里","LIN":"14鄰","STREET":"民權街","SECT":" ","MAREA":" ","LANE":" ","ALLEY":" ","HOUSE_NO":"１１８號","E_COORD97":178730.70999999999,"N_COORD97":2548793.25,"ADDRESS":"民權街１１８號","OBJECTID":296601},"geometry":{"x":178730.71000000089,"y":2548793.2500000019}},{"attributes":{"ID":296610,"DIS_CODE":0,"TOWNNAME":"新化區","LI":"太平里","LIN":"14鄰","STREET":"民權街","SECT":" ","MAREA":" ","LANE":" ","ALLEY":" ","HOUSE_NO":"１６２號","E_COORD97":178716.41,"N_COORD97":2548880.25,"ADDRESS":"民權街１６２號","OBJECTID":296602},"geometry":{"x":178716.41000000108,"y":2548880.25}},{"attributes":{"ID":296611,"DIS_CODE":0,"TOWNNAME":"新化區","LI":"太平里","LIN":"14鄰","STREET":"太平街","SECT":" ","MAREA":" ","LANE":" ","ALLEY":" ","HOUSE_NO":"６２號","E_COORD97":178764.37,"N_COORD97":2548779.25,"ADDRESS":"太平街６２號","OBJECTID":296603},"geometry":{"x":178764.37000000011,"y":2548779.2500000037}},{"attributes":{"ID":296612,"DIS_CODE":0,"TOWNNAME":"新化區","LI":"太平里","LIN":"14鄰","STREET":"民權街","SECT":" ","MAREA":" ","LANE":" ","ALLEY":" ","HOUSE_NO":"１３０號","E_COORD97":178744.01000000001,"N_COORD97":2548839.25,"ADDRESS":"民權街１３０號","OBJECTID":296604},"geometry":{"x":178744.01000000071,"y":2548839.25}},{"attributes":{"ID":296613,"DIS_CODE":0,"TOWNNAME":"新化區","LI":"協興里","LIN":"14鄰","STREET":"太平街","SECT":" ","MAREA":" ","LANE":" ","ALLEY":" ","HOUSE_NO":"１５４號之１","E_COORD97":178341.54999999999,"N_COORD97":2548688.2599999998,"ADDRESS":"太平街１５４號之１","OBJECTID":296605},"geometry":{"x":178341.55000000168,"y":2548688.2600000016}},{"attributes":{"ID":296614,"DIS_CODE":0,"TOWNNAME":"新化區","LI":"太平里","LIN":"14鄰","STREET":"民權街","SECT":" ","MAREA":" ","LANE":" ","ALLEY":" ","HOUSE_NO":"１２５號","E_COORD97":178710.31,"N_COORD97":2548815.25,"ADDRESS":"民權街１２５號","OBJECTID":296606},"geometry":{"x":178710.30999999959,"y":2548815.25}},{"attributes":{"ID":296615,"DIS_CODE":0,"TOWNNAME":"新化區","LI":"太平里","LIN":"14鄰","STREET":"民權街","SECT":" ","MAREA":" ","LANE":" ","ALLEY":" ","HOUSE_NO":"１４９號","E_COORD97":178704.20999999999,"N_COORD97":2548862.25,"ADDRESS":"民權街１４９號","OBJECTID":296607},"geometry":{"x":178704.21000000089,"y":2548862.2500000019}},{"attributes":{"ID":296616,"DIS_CODE":0,"TOWNNAME":"新化區","LI":"太平里","LIN":"14鄰","STREET":"民權街","SECT":" ","MAREA":" ","LANE":" ","ALLEY":" ","HOUSE_NO":"１４３號","E_COORD97":178702.70999999999,"N_COORD97":2548850.25,"ADDRESS":"民權街１４３號","OBJECTID":296608},"geometry":{"x":178702.70999999996,"y":2548850.2499999981}},{"attributes":{"ID":296617,"DIS_CODE":0,"TOWNNAME":"新化區","LI":"知義里","LIN":"14鄰","STREET":"復興路","SECT":" ","MAREA":" ","LANE":" ","ALLEY":" ","HOUSE_NO":"９０號","E_COORD97":179528.87,"N_COORD97":2547611.25,"ADDRESS":"復興路９０號","OBJECTID":296609},"geometry":{"x":179528.87000000011,"y":2547611.2500000019}},{"attributes":{"ID":296618,"DIS_CODE":0,"TOWNNAME":"新化區","LI":"太平里","LIN":"14鄰","STREET":"民權街","SECT":" ","MAREA":" ","LANE":" ","ALLEY":" ","HOUSE_NO":"１６６號","E_COORD97":178728.60999999999,"N_COORD97":2548895.25,"ADDRESS":"民權街１６６號","OBJECTID":296610},"geometry":{"x":178728.61000000127,"y":2548895.2500000019}},{"attributes":{"ID":296619,"DIS_CODE":0,"TOWNNAME":"安南區","LI":"安西里","LIN":"17鄰","STREET":"安通路","SECT":"四段","MAREA":" ","LANE":"１１９巷","ALLEY":" ","HOUSE_NO":"４號","E_COORD97":168742.09,"N_COORD97":2547779.1299999999,"ADDRESS":"安通路四段１１９巷４號","OBJECTID":296611},"geometry":{"x":168742.09000000078,"y":2547779.1300000008}},{"attributes":{"ID":296620,"DIS_CODE":0,"TOWNNAME":"安南區","LI":"安西里","LIN":"17鄰","STREET":"安通路","SECT":"四段","MAREA":" ","LANE":"１０９巷","ALLEY":" ","HOUSE_NO":"１１號","E_COORD97":168769.31,"N_COORD97":2547803.0699999998,"ADDRESS":"安通路四段１０９巷１１號","OBJECTID":296612},"geometry":{"x":168769.31000000052,"y":2547803.0700000003}},{"attributes":{"ID":296621,"DIS_CODE":0,"TOWNNAME":"安南區","LI":"安西里","LIN":"17鄰","STREET":"安通路","SECT":"四段","MAREA":" ","LANE":"１０９巷","ALLEY":" ","HOUSE_NO":"１５號","E_COORD97":168770.79000000001,"N_COORD97":2547814.29,"ADDRESS":"安通路四段１０９巷１５號","OBJECTID":296613},"geometry":{"x":168770.7900000019,"y":2547814.2899999991}},{"attributes":{"ID":296622,"DIS_CODE":0,"TOWNNAME":"安南區","LI":"安西里","LIN":"17鄰","STREET":"安通路","SECT":"四段","MAREA":" ","LANE":"１０９巷","ALLEY":" ","HOUSE_NO":"１７號","E_COORD97":168771.67999999999,"N_COORD97":2547820.7999999998,"ADDRESS":"安通路四段１０９巷１７號","OBJECTID":296614},"geometry":{"x":168771.68000000063,"y":2547820.8000000026}},{"attributes":{"ID":296623,"DIS_CODE":0,"TOWNNAME":"安南區","LI":"安西里","LIN":"17鄰","STREET":"安通路","SECT":"四段","MAREA":" ","LANE":"１０９巷","ALLEY":" ","HOUSE_NO":"１９號","E_COORD97":168771.09,"N_COORD97":2547827.2999999998,"ADDRESS":"安通路四段１０９巷１９號","OBJECTID":296615},"geometry":{"x":168771.09000000078,"y":2547827.3000000026}},{"attributes":{"ID":296624,"DIS_CODE":0,"TOWNNAME":"安南區","LI":"安西里","LIN":"17鄰","STREET":"安通路","SECT":"四段","MAREA":" ","LANE":"１０９巷","ALLEY":" ","HOUSE_NO":"１號","E_COORD97":168767.23999999999,"N_COORD97":2547773.2200000002,"ADDRESS":"安通路四段１０９巷１號","OBJECTID":296616},"geometry":{"x":168767.24000000022,"y":2547773.2200000044}},{"attributes":{"ID":296625,"DIS_CODE":0,"TOWNNAME":"安南區","LI":"安西里","LIN":"17鄰","STREET":"安通路","SECT":"四段","MAREA":" ","LANE":"１０９巷","ALLEY":" ","HOUSE_NO":"３號","E_COORD97":168768.42999999999,"N_COORD97":2547779.1299999999,"ADDRESS":"安通路四段１０９巷３號","OBJECTID":296617},"geometry":{"x":168768.43000000063,"y":2547779.1300000008}},{"attributes":{"ID":296626,"DIS_CODE":0,"TOWNNAME":"安南區","LI":"安西里","LIN":"17鄰","STREET":"安通路","SECT":"四段","MAREA":" ","LANE":"１０９巷","ALLEY":" ","HOUSE_NO":"５號","E_COORD97":168768.72,"N_COORD97":2547785.3399999999,"ADDRESS":"安通路四段１０９巷５號","OBJECTID":296618},"geometry":{"x":168768.71999999974,"y":2547785.3400000036}},{"attributes":{"ID":296627,"DIS_CODE":0,"TOWNNAME":"安南區","LI":"安西里","LIN":"17鄰","STREET":"安通路","SECT":"四段","MAREA":" ","LANE":"１０９巷","ALLEY":" ","HOUSE_NO":"７號","E_COORD97":168768.72,"N_COORD97":2547790.0600000001,"ADDRESS":"安通路四段１０９巷７號","OBJECTID":296619},"geometry":{"x":168768.71999999974,"y":2547790.0600000005}},{"attributes":{"ID":296628,"DIS_CODE":0,"TOWNNAME":"安南區","LI":"安西里","LIN":"17鄰","STREET":"安通路","SECT":"四段","MAREA":" ","LANE":"１０９巷","ALLEY":" ","HOUSE_NO":"９號","E_COORD97":168769.01999999999,"N_COORD97":2547797.1600000001,"ADDRESS":"安通路四段１０９巷９號","OBJECTID":296620},"geometry":{"x":168769.02000000048,"y":2547797.160000002}},{"attributes":{"ID":296629,"DIS_CODE":0,"TOWNNAME":"安南區","LI":"安西里","LIN":"17鄰","STREET":"安通路","SECT":"四段","MAREA":" ","LANE":"１１９巷","ALLEY":" ","HOUSE_NO":"１２號","E_COORD97":168745.04999999999,"N_COORD97":2547798.04,"ADDRESS":"安通路四段１１９巷１２號","OBJECTID":296621},"geometry":{"x":168745.05000000168,"y":2547798.040000001}},{"attributes":{"ID":296630,"DIS_CODE":0,"TOWNNAME":"安南區","LI":"安西里","LIN":"17鄰","STREET":"安通路","SECT":"四段","MAREA":" ","LANE":"１１９巷","ALLEY":" ","HOUSE_NO":"１４號","E_COORD97":168745.64000000001,"N_COORD97":2547802.46,"ADDRESS":"安通路四段１１９巷１４號","OBJECTID":296622},"geometry":{"x":168745.63999999966,"y":2547802.4600000046}},{"attributes":{"ID":296631,"DIS_CODE":0,"TOWNNAME":"安南區","LI":"安西里","LIN":"17鄰","STREET":"安通路","SECT":"四段","MAREA":" ","LANE":"１１９巷","ALLEY":" ","HOUSE_NO":"２號","E_COORD97":168740.32000000001,"N_COORD97":2547774.3999999999,"ADDRESS":"安通路四段１１９巷２號","OBJECTID":296623},"geometry":{"x":168740.32000000216,"y":2547774.4000000004}},{"attributes":{"ID":296632,"DIS_CODE":0,"TOWNNAME":"安南區","LI":"安西里","LIN":"17鄰","STREET":"安通路","SECT":"四段","MAREA":" ","LANE":"１１９巷","ALLEY":" ","HOUSE_NO":"６８號","E_COORD97":168763.82000000001,"N_COORD97":2547945.1499999999,"ADDRESS":"安通路四段１１９巷６８號","OBJECTID":296624},"geometry":{"x":168763.8200000003,"y":2547945.1500000004}},{"attributes":{"ID":296633,"DIS_CODE":0,"TOWNNAME":"安南區","LI":"安西里","LIN":"17鄰","STREET":"安通路","SECT":"四段","MAREA":" ","LANE":"１１９巷","ALLEY":" ","HOUSE_NO":"７０號","E_COORD97":168765.45000000001,"N_COORD97":2547951.3700000001,"ADDRESS":"安通路四段１１９巷７０號","OBJECTID":296625},"geometry":{"x":168765.45000000112,"y":2547951.370000001}},{"attributes":{"ID":296634,"DIS_CODE":0,"TOWNNAME":"安南區","LI":"安西里","LIN":"17鄰","STREET":"安通路","SECT":"四段","MAREA":" ","LANE":"１１９巷","ALLEY":" ","HOUSE_NO":"７２號","E_COORD97":168766.10999999999,"N_COORD97":2547957.9100000001,"ADDRESS":"安通路四段１１９巷７２號","OBJECTID":296626},"geometry":{"x":168766.11000000127,"y":2547957.9100000039}},{"attributes":{"ID":296635,"DIS_CODE":0,"TOWNNAME":"安南區","LI":"安西里","LIN":"17鄰","STREET":"安通路","SECT":"四段","MAREA":" ","LANE":"１１９巷","ALLEY":" ","HOUSE_NO":"２２號","E_COORD97":168748.44,"N_COORD97":2547820.79,"ADDRESS":"安通路四段１１９巷２２號","OBJECTID":296627},"geometry":{"x":168748.44000000134,"y":2547820.7899999991}},{"attributes":{"ID":296636,"DIS_CODE":0,"TOWNNAME":"安南區","LI":"溪北里","LIN":"17鄰","STREET":"文安街","SECT":" ","MAREA":" ","LANE":"１３３巷","ALLEY":" ","HOUSE_NO":"１０號","E_COORD97":169127.29999999999,"N_COORD97":2547393.1299999999,"ADDRESS":"文安街１３３巷１０號","OBJECTID":296628},"geometry":{"x":169127.30000000075,"y":2547393.1300000008}},{"attributes":{"ID":296637,"DIS_CODE":0,"TOWNNAME":"東區","LI":"成大里","LIN":"4鄰","STREET":"東寧路","SECT":"西段","MAREA":" ","LANE":"１８巷","ALLEY":" ","HOUSE_NO":"５號之５三樓","E_COORD97":169622.94,"N_COORD97":2543745.75,"ADDRESS":"東寧路西段１８巷５號之５三樓","OBJECTID":296629},"geometry":{"x":169622.94000000227,"y":2543745.7500000019}},{"attributes":{"ID":296638,"DIS_CODE":0,"TOWNNAME":"仁德區","LI":"太子里","LIN":"4鄰","STREET":"太子路","SECT":" ","MAREA":" ","LANE":"１９０巷","ALLEY":" ","HOUSE_NO":"３４號二樓","E_COORD97":174325.70000000001,"N_COORD97":2543676.5,"ADDRESS":"太子路１９０巷３４號二樓","OBJECTID":296630},"geometry":{"x":174325.70000000112,"y":2543676.5000000019}},{"attributes":{"ID":296639,"DIS_CODE":0,"TOWNNAME":"仁德區","LI":"太子里","LIN":"4鄰","STREET":"太子路","SECT":" ","MAREA":" ","LANE":"１９０巷","ALLEY":" ","HOUSE_NO":"３０號四樓","E_COORD97":174347.01999999999,"N_COORD97":2543674.25,"ADDRESS":"太子路１９０巷３０號四樓","OBJECTID":296631},"geometry":{"x":174347.01999999955,"y":2543674.2500000019}},{"attributes":{"ID":296640,"DIS_CODE":0,"TOWNNAME":"安南區","LI":"溪北里","LIN":"17鄰","STREET":"文安街","SECT":" ","MAREA":" ","LANE":"１３３巷","ALLEY":" ","HOUSE_NO":"１號","E_COORD97":169146.01999999999,"N_COORD97":2547412.8100000001,"ADDRESS":"文安街１３３巷１號","OBJECTID":296632},"geometry":{"x":169146.01999999955,"y":2547412.8099999987}},{"attributes":{"ID":296641,"DIS_CODE":0,"TOWNNAME":"安南區","LI":"溪北里","LIN":"17鄰","STREET":"文安街","SECT":" ","MAREA":" ","LANE":"１３３巷","ALLEY":" ","HOUSE_NO":"２號","E_COORD97":169125.54000000001,"N_COORD97":2547408.4500000002,"ADDRESS":"文安街１３３巷２號","OBJECTID":296633},"geometry":{"x":169125.54000000097,"y":2547408.4500000011}},{"attributes":{"ID":296642,"DIS_CODE":0,"TOWNNAME":"安南區","LI":"溪北里","LIN":"17鄰","STREET":"文安街","SECT":" ","MAREA":" ","LANE":"１３３巷","ALLEY":" ","HOUSE_NO":"３號","E_COORD97":169146.62,"N_COORD97":2547404.5499999998,"ADDRESS":"文安街１３３巷３號","OBJECTID":296634},"geometry":{"x":169146.62000000197,"y":2547404.5500000007}},{"attributes":{"ID":296643,"DIS_CODE":0,"TOWNNAME":"安南區","LI":"溪北里","LIN":"17鄰","STREET":"文安街","SECT":" ","MAREA":" ","LANE":"１３３巷","ALLEY":" ","HOUSE_NO":"４號","E_COORD97":169125.07999999999,"N_COORD97":2547403.75,"ADDRESS":"文安街１３３巷４號","OBJECTID":296635},"geometry":{"x":169125.08000000101,"y":2547403.7500000019}},{"attributes":{"ID":296644,"DIS_CODE":0,"TOWNNAME":"安南區","LI":"溪北里","LIN":"17鄰","STREET":"文安街","SECT":" ","MAREA":" ","LANE":"１３３巷","ALLEY":" ","HOUSE_NO":"６號","E_COORD97":169124.89999999999,"N_COORD97":2547400.4100000001,"ADDRESS":"文安街１３３巷６號","OBJECTID":296636},"geometry":{"x":169124.9000000013,"y":2547400.4100000001}},{"attributes":{"ID":296645,"DIS_CODE":0,"TOWNNAME":"安南區","LI":"溪北里","LIN":"17鄰","STREET":"文安街","SECT":" ","MAREA":" ","LANE":"１３３巷","ALLEY":" ","HOUSE_NO":"８號","E_COORD97":169127.20000000001,"N_COORD97":2547396.6299999999,"ADDRESS":"文安街１３３巷８號","OBJECTID":296637},"geometry":{"x":169127.20000000019,"y":2547396.6300000008}},{"attributes":{"ID":296646,"DIS_CODE":0,"TOWNNAME":"新化區","LI":"協興里","LIN":"14鄰","STREET":"太平街","SECT":" ","MAREA":" ","LANE":" ","ALLEY":" ","HOUSE_NO":"１５８號之４","E_COORD97":178287.66,"N_COORD97":2548697.2599999998,"ADDRESS":"太平街１５８號之４","OBJECTID":296638},"geometry":{"x":178287.66000000108,"y":2548697.2599999998}},{"attributes":{"ID":296647,"DIS_CODE":0,"TOWNNAME":"新化區","LI":"太平里","LIN":"14鄰","STREET":"民權街","SECT":" ","MAREA":" ","LANE":" ","ALLEY":" ","HOUSE_NO":"１２４號","E_COORD97":178727.81,"N_COORD97":2548812.25,"ADDRESS":"民權街１２４號","OBJECTID":296639},"geometry":{"x":178727.81000000145,"y":2548812.25}},{"attributes":{"ID":296648,"DIS_CODE":0,"TOWNNAME":"新化區","LI":"協興里","LIN":"14鄰","STREET":"太平街","SECT":" ","MAREA":" ","LANE":" ","ALLEY":" ","HOUSE_NO":"１５６號之１","E_COORD97":178326.64999999999,"N_COORD97":2548685.2599999998,"ADDRESS":"太平街１５６號之１","OBJECTID":296640},"geometry":{"x":178326.6500000013,"y":2548685.2600000016}},{"attributes":{"ID":296649,"DIS_CODE":0,"TOWNNAME":"仁德區","LI":"仁德里","LIN":"20鄰","STREET":"中山路","SECT":" ","MAREA":" ","LANE":"８７５巷","ALLEY":" ","HOUSE_NO":"３１號五樓","E_COORD97":172405.39000000001,"N_COORD97":2541446.0099999998,"ADDRESS":"中山路８７５巷３１號五樓","OBJECTID":296641},"geometry":{"x":172405.38999999966,"y":2541446.0099999998}},{"attributes":{"ID":296650,"DIS_CODE":0,"TOWNNAME":"安南區","LI":"淵中里","LIN":"17鄰","STREET":"安中路","SECT":"三段","MAREA":" ","LANE":"２６１巷","ALLEY":" ","HOUSE_NO":"３號","E_COORD97":165753.45000000001,"N_COORD97":2549826.3399999999,"ADDRESS":"安中路三段２６１巷３號","OBJECTID":296642},"geometry":{"x":165753.45000000019,"y":2549826.3400000036}},{"attributes":{"ID":296651,"DIS_CODE":0,"TOWNNAME":"歸仁區","LI":"後市里","LIN":"20鄰","STREET":"民族北街","SECT":" ","MAREA":" ","LANE":"１２巷","ALLEY":" ","HOUSE_NO":"１號","E_COORD97":177454.67999999999,"N_COORD97":2540876.25,"ADDRESS":"民族北街１２巷１號","OBJECTID":296643},"geometry":{"x":177454.68000000063,"y":2540876.2500000037}},{"attributes":{"ID":296652,"DIS_CODE":0,"TOWNNAME":"歸仁區","LI":"武東里","LIN":"7鄰","STREET":"武東一街","SECT":" ","MAREA":" ","LANE":"４８巷","ALLEY":" ","HOUSE_NO":"３９號","E_COORD97":175568.79000000001,"N_COORD97":2535315.25,"ADDRESS":"武東一街４８巷３９號","OBJECTID":296644},"geometry":{"x":175568.79000000097,"y":2535315.25}},{"attributes":{"ID":296653,"DIS_CODE":0,"TOWNNAME":"安南區","LI":"頂安里","LIN":"17鄰","STREET":"安中路","SECT":"一段","MAREA":" ","LANE":"３８８巷","ALLEY":" ","HOUSE_NO":"１０號","E_COORD97":168370.66,"N_COORD97":2548848.6899999999,"ADDRESS":"安中路一段３８８巷１０號","OBJECTID":296645},"geometry":{"x":168370.66000000108,"y":2548848.6899999995}},{"attributes":{"ID":296654,"DIS_CODE":0,"TOWNNAME":"安南區","LI":"頂安里","LIN":"17鄰","STREET":"安中路","SECT":"一段","MAREA":" ","LANE":"３８８巷","ALLEY":" ","HOUSE_NO":"１１號","E_COORD97":168370.32999999999,"N_COORD97":2548853.29,"ADDRESS":"安中路一段３８８巷１１號","OBJECTID":296646},"geometry":{"x":168370.33000000007,"y":2548853.290000001}},{"attributes":{"ID":296655,"DIS_CODE":0,"TOWNNAME":"安南區","LI":"頂安里","LIN":"17鄰","STREET":"安中路","SECT":"一段","MAREA":" ","LANE":"３８８巷","ALLEY":" ","HOUSE_NO":"１２號","E_COORD97":168370.98999999999,"N_COORD97":2548857.5600000001,"ADDRESS":"安中路一段３８８巷１２號","OBJECTID":296647},"geometry":{"x":168370.99000000022,"y":2548857.5600000005}},{"attributes":{"ID":296656,"DIS_CODE":0,"TOWNNAME":"安平區","LI":"平安里","LIN":"20鄰","STREET":"民權路","SECT":"四段","MAREA":" ","LANE":" ","ALLEY":" ","HOUSE_NO":"６８７號","E_COORD97":164884.51000000001,"N_COORD97":2544630.9300000002,"ADDRESS":"民權路四段６８７號","OBJECTID":296648},"geometry":{"x":164884.50999999978,"y":2544630.9299999997}},{"attributes":{"ID":296657,"DIS_CODE":0,"TOWNNAME":"永康區","LI":"埔園里","LIN":"5鄰","STREET":"中山路","SECT":" ","MAREA":" ","LANE":"１５８巷","ALLEY":" ","HOUSE_NO":"３４號五樓之２","E_COORD97":173879.53,"N_COORD97":2547820.04,"ADDRESS":"中山路１５８巷３４號五樓之２","OBJECTID":296649},"geometry":{"x":173879.53000000119,"y":2547820.0399999972}},{"attributes":{"ID":296658,"DIS_CODE":0,"TOWNNAME":"永康區","LI":"埔園里","LIN":"5鄰","STREET":"中山路","SECT":" ","MAREA":" ","LANE":"１５８巷","ALLEY":" ","HOUSE_NO":"３６號三樓","E_COORD97":173918.22,"N_COORD97":2547830,"ADDRESS":"中山路１５８巷３６號三樓","OBJECTID":296650},"geometry":{"x":173918.22000000067,"y":2547830}},{"attributes":{"ID":296659,"DIS_CODE":0,"TOWNNAME":"永康區","LI":"東灣里","LIN":"18鄰","STREET":"大灣三街","SECT":" ","MAREA":" ","LANE":"５７巷","ALLEY":" ","HOUSE_NO":"１１號六樓之１","E_COORD97":174967.64999999999,"N_COORD97":2544887.0499999998,"ADDRESS":"大灣三街５７巷１１號六樓之１","OBJECTID":296651},"geometry":{"x":174967.65000000037,"y":2544887.0500000026}},{"attributes":{"ID":296660,"DIS_CODE":0,"TOWNNAME":"永康區","LI":"神洲里","LIN":"13鄰","STREET":"忠孝路","SECT":" ","MAREA":" ","LANE":"７６巷","ALLEY":" ","HOUSE_NO":"５１號四樓","E_COORD97":172272.85999999999,"N_COORD97":2544983.9500000002,"ADDRESS":"忠孝路７６巷５１號四樓","OBJECTID":296652},"geometry":{"x":172272.8600000022,"y":2544983.9500000011}},{"attributes":{"ID":296661,"DIS_CODE":0,"TOWNNAME":"永康區","LI":"神洲里","LIN":"13鄰","STREET":"忠孝路","SECT":" ","MAREA":" ","LANE":"７６巷","ALLEY":" ","HOUSE_NO":"５１號五樓","E_COORD97":172272.85999999999,"N_COORD97":2544983.9500000002,"ADDRESS":"忠孝路７６巷５１號五樓","OBJECTID":296653},"geometry":{"x":172272.8600000022,"y":2544983.9500000011}},{"attributes":{"ID":296662,"DIS_CODE":0,"TOWNNAME":"永康區","LI":"埔園里","LIN":"24鄰","STREET":"中正路","SECT":" ","MAREA":" ","LANE":"１４８巷","ALLEY":" ","HOUSE_NO":"２號之４二樓","E_COORD97":173562.01000000001,"N_COORD97":2547921.54,"ADDRESS":"中正路１４８巷２號之４二樓","OBJECTID":296654},"geometry":{"x":173562.01000000071,"y":2547921.5399999991}},{"attributes":{"ID":296663,"DIS_CODE":0,"TOWNNAME":"永康區","LI":"埔園里","LIN":"24鄰","STREET":"中正路","SECT":" ","MAREA":" ","LANE":"１４８巷","ALLEY":" ","HOUSE_NO":"２號之２三樓","E_COORD97":173569.63,"N_COORD97":2547932.29,"ADDRESS":"中正路１４８巷２號之２三樓","OBJECTID":296655},"geometry":{"x":173569.63000000082,"y":2547932.2899999991}},{"attributes":{"ID":296664,"DIS_CODE":0,"TOWNNAME":"安南區","LI":"頂安里","LIN":"17鄰","STREET":"安中路","SECT":"一段","MAREA":" ","LANE":"３８８巷","ALLEY":" ","HOUSE_NO":"１３號","E_COORD97":168372.29999999999,"N_COORD97":2548862.1600000001,"ADDRESS":"安中路一段３８８巷１３號","OBJECTID":296656},"geometry":{"x":168372.30000000075,"y":2548862.160000002}},{"attributes":{"ID":296665,"DIS_CODE":0,"TOWNNAME":"安南區","LI":"頂安里","LIN":"17鄰","STREET":"安中路","SECT":"一段","MAREA":" ","LANE":"３８８巷","ALLEY":" ","HOUSE_NO":"１４號","E_COORD97":168369.67000000001,"N_COORD97":2548867.7400000002,"ADDRESS":"安中路一段３８８巷１４號","OBJECTID":296657},"geometry":{"x":168369.67000000179,"y":2548867.7400000039}},{"attributes":{"ID":296666,"DIS_CODE":0,"TOWNNAME":"安南區","LI":"頂安里","LIN":"17鄰","STREET":"安中路","SECT":"一段","MAREA":" ","LANE":"３８８巷","ALLEY":" ","HOUSE_NO":"１５號","E_COORD97":168370.66,"N_COORD97":2548872.0099999998,"ADDRESS":"安中路一段３８８巷１５號","OBJECTID":296658},"geometry":{"x":168370.66000000108,"y":2548872.0099999979}},{"attributes":{"ID":296667,"DIS_CODE":0,"TOWNNAME":"安南區","LI":"頂安里","LIN":"17鄰","STREET":"安中路","SECT":"一段","MAREA":" ","LANE":"３８８巷","ALLEY":" ","HOUSE_NO":"１６號","E_COORD97":168371.98000000001,"N_COORD97":2548875.9500000002,"ADDRESS":"安中路一段３８８巷１６號","OBJECTID":296659},"geometry":{"x":168371.98000000138,"y":2548875.9500000011}},{"attributes":{"ID":296668,"DIS_CODE":0,"TOWNNAME":"安南區","LI":"頂安里","LIN":"17鄰","STREET":"安中路","SECT":"一段","MAREA":" ","LANE":"３８８巷","ALLEY":" ","HOUSE_NO":"１７號","E_COORD97":168373.62,"N_COORD97":2548881.5299999998,"ADDRESS":"安中路一段３８８巷１７號","OBJECTID":296660},"geometry":{"x":168373.62000000197,"y":2548881.5299999975}},{"attributes":{"ID":296669,"DIS_CODE":0,"TOWNNAME":"安南區","LI":"頂安里","LIN":"17鄰","STREET":"安中路","SECT":"一段","MAREA":" ","LANE":"３８８巷","ALLEY":" ","HOUSE_NO":"１號","E_COORD97":168358.17000000001,"N_COORD97":2548800.75,"ADDRESS":"安中路一段３８８巷１號","OBJECTID":296661},"geometry":{"x":168358.17000000086,"y":2548800.7500000019}},{"attributes":{"ID":296670,"DIS_CODE":0,"TOWNNAME":"安南區","LI":"頂安里","LIN":"17鄰","STREET":"安中路","SECT":"一段","MAREA":" ","LANE":"３８８巷","ALLEY":" ","HOUSE_NO":"２號","E_COORD97":168359.48999999999,"N_COORD97":2548805.02,"ADDRESS":"安中路一段３８８巷２號","OBJECTID":296662},"geometry":{"x":168359.49000000209,"y":2548805.0200000014}},{"attributes":{"ID":296671,"DIS_CODE":0,"TOWNNAME":"安南區","LI":"頂安里","LIN":"17鄰","STREET":"安中路","SECT":"一段","MAREA":" ","LANE":"３８８巷","ALLEY":" ","HOUSE_NO":"３號","E_COORD97":168359.81,"N_COORD97":2548808.96,"ADDRESS":"安中路一段３８８巷３號","OBJECTID":296663},"geometry":{"x":168359.80999999866,"y":2548808.9600000009}},{"attributes":{"ID":296672,"DIS_CODE":0,"TOWNNAME":"安南區","LI":"頂安里","LIN":"17鄰","STREET":"安中路","SECT":"一段","MAREA":" ","LANE":"３８８巷","ALLEY":" ","HOUSE_NO":"４號","E_COORD97":168360.79999999999,"N_COORD97":2548812.8999999999,"ADDRESS":"安中路一段３８８巷４號","OBJECTID":296664},"geometry":{"x":168360.80000000075,"y":2548812.9000000022}},{"attributes":{"ID":296673,"DIS_CODE":0,"TOWNNAME":"安南區","LI":"頂安里","LIN":"17鄰","STREET":"安中路","SECT":"一段","MAREA":" ","LANE":"３８８巷","ALLEY":" ","HOUSE_NO":"５號","E_COORD97":168367.37,"N_COORD97":2548818.8100000001,"ADDRESS":"安中路一段３８８巷５號","OBJECTID":296665},"geometry":{"x":168367.37000000104,"y":2548818.8100000005}},{"attributes":{"ID":296674,"DIS_CODE":0,"TOWNNAME":"安平區","LI":"平安里","LIN":"20鄰","STREET":"民權路","SECT":"四段","MAREA":" ","LANE":" ","ALLEY":" ","HOUSE_NO":"６８９號","E_COORD97":164880.51999999999,"N_COORD97":2544633.04,"ADDRESS":"民權路四段６８９號","OBJECTID":296666},"geometry":{"x":164880.52000000048,"y":2544633.0399999972}},{"attributes":{"ID":296675,"DIS_CODE":0,"TOWNNAME":"安平區","LI":"平安里","LIN":"20鄰","STREET":"民權路","SECT":"四段","MAREA":" ","LANE":" ","ALLEY":" ","HOUSE_NO":"６９１號","E_COORD97":164876.98999999999,"N_COORD97":2544634.4500000002,"ADDRESS":"民權路四段６９１號","OBJECTID":296667},"geometry":{"x":164876.99000000022,"y":2544634.4500000011}},{"attributes":{"ID":296676,"DIS_CODE":0,"TOWNNAME":"新化區","LI":"協興里","LIN":"14鄰","STREET":"太平街","SECT":" ","MAREA":" ","LANE":" ","ALLEY":" ","HOUSE_NO":"１６２號","E_COORD97":178243.51999999999,"N_COORD97":2548690.25,"ADDRESS":"太平街１６２號","OBJECTID":296668},"geometry":{"x":178243.52000000048,"y":2548690.25}},{"attributes":{"ID":296677,"DIS_CODE":0,"TOWNNAME":"新化區","LI":"協興里","LIN":"14鄰","STREET":"太平街","SECT":" ","MAREA":" ","LANE":" ","ALLEY":" ","HOUSE_NO":"１６０號之４","E_COORD97":178244.95999999999,"N_COORD97":2548668.2599999998,"ADDRESS":"太平街１６０號之４","OBJECTID":296669},"geometry":{"x":178244.95999999996,"y":2548668.2600000016}},{"attributes":{"ID":296678,"DIS_CODE":0,"TOWNNAME":"新化區","LI":"知義里","LIN":"14鄰","STREET":"復興路","SECT":" ","MAREA":" ","LANE":" ","ALLEY":" ","HOUSE_NO":"１５號","E_COORD97":179595.26999999999,"N_COORD97":2547247.25,"ADDRESS":"復興路１５號","OBJECTID":296670},"geometry":{"x":179595.26999999955,"y":2547247.2500000019}},{"attributes":{"ID":296679,"DIS_CODE":0,"TOWNNAME":"新化區","LI":"協興里","LIN":"14鄰","STREET":"太平街","SECT":" ","MAREA":" ","LANE":" ","ALLEY":" ","HOUSE_NO":"１５８號之２","E_COORD97":178304.28,"N_COORD97":2548681.2599999998,"ADDRESS":"太平街１５８號之２","OBJECTID":296671},"geometry":{"x":178304.28000000026,"y":2548681.2600000016}},{"attributes":{"ID":296680,"DIS_CODE":0,"TOWNNAME":"新化區","LI":"知義里","LIN":"14鄰","STREET":"復興路","SECT":" ","MAREA":" ","LANE":" ","ALLEY":" ","HOUSE_NO":"９４號","E_COORD97":179526.87,"N_COORD97":2547620.25,"ADDRESS":"復興路９４號","OBJECTID":296672},"geometry":{"x":179526.87000000104,"y":2547620.2500000019}},{"attributes":{"ID":296681,"DIS_CODE":0,"TOWNNAME":"新化區","LI":"太平里","LIN":"14鄰","STREET":"民權街","SECT":" ","MAREA":" ","LANE":" ","ALLEY":" ","HOUSE_NO":"１２２號","E_COORD97":178728.81,"N_COORD97":2548804.25,"ADDRESS":"民權街１２２號","OBJECTID":296673},"geometry":{"x":178728.80999999959,"y":2548804.2500000019}},{"attributes":{"ID":296682,"DIS_CODE":0,"TOWNNAME":"安南區","LI":"頂安里","LIN":"17鄰","STREET":"安中路","SECT":"一段","MAREA":" ","LANE":"３８８巷","ALLEY":" ","HOUSE_NO":"６號","E_COORD97":168366.72,"N_COORD97":2548824.3900000001,"ADDRESS":"安中路一段３８８巷６號","OBJECTID":296674},"geometry":{"x":168366.71999999974,"y":2548824.3900000025}},{"attributes":{"ID":296683,"DIS_CODE":0,"TOWNNAME":"安南區","LI":"頂安里","LIN":"17鄰","STREET":"安中路","SECT":"一段","MAREA":" ","LANE":"３８８巷","ALLEY":" ","HOUSE_NO":"８號","E_COORD97":168369.67000000001,"N_COORD97":2548839.5,"ADDRESS":"安中路一段３８８巷８號","OBJECTID":296675},"geometry":{"x":168369.67000000179,"y":2548839.5000000019}},{"attributes":{"ID":296684,"DIS_CODE":0,"TOWNNAME":"安南區","LI":"頂安里","LIN":"17鄰","STREET":"安中路","SECT":"一段","MAREA":" ","LANE":"３８８巷","ALLEY":" ","HOUSE_NO":"９號","E_COORD97":168370,"N_COORD97":2548844.4199999999,"ADDRESS":"安中路一段３８８巷９號","OBJECTID":296676},"geometry":{"x":168370.00000000093,"y":2548844.4199999999}},{"attributes":{"ID":296685,"DIS_CODE":0,"TOWNNAME":"安南區","LI":"頂安里","LIN":"17鄰","STREET":"安中路","SECT":"一段","MAREA":" ","LANE":"４１０巷","ALLEY":" ","HOUSE_NO":"１號","E_COORD97":168319.16,"N_COORD97":2548826.6899999999,"ADDRESS":"安中路一段４１０巷１號","OBJECTID":296677},"geometry":{"x":168319.16000000201,"y":2548826.6900000032}},{"attributes":{"ID":296686,"DIS_CODE":0,"TOWNNAME":"安南區","LI":"頂安里","LIN":"17鄰","STREET":"安中路","SECT":"一段","MAREA":" ","LANE":"４１０巷","ALLEY":" ","HOUSE_NO":"２號","E_COORD97":168335.16,"N_COORD97":2548812.5699999998,"ADDRESS":"安中路一段４１０巷２號","OBJECTID":296678},"geometry":{"x":168335.16000000108,"y":2548812.5700000022}},{"attributes":{"ID":296687,"DIS_CODE":0,"TOWNNAME":"新化區","LI":"東榮里","LIN":"17鄰","STREET":"中興路","SECT":" ","MAREA":" ","LANE":"６７７巷","ALLEY":" ","HOUSE_NO":"６號","E_COORD97":179602.20999999999,"N_COORD97":2548017.25,"ADDRESS":"中興路６７７巷６號","OBJECTID":296679},"geometry":{"x":179602.21000000089,"y":2548017.2500000019}},{"attributes":{"ID":296688,"DIS_CODE":0,"TOWNNAME":"安南區","LI":"長安里","LIN":"17鄰","STREET":"長溪路","SECT":"三段","MAREA":" ","LANE":"１５１巷","ALLEY":" ","HOUSE_NO":"１２號","E_COORD97":167891.62,"N_COORD97":2551493.2799999998,"ADDRESS":"長溪路三段１５１巷１２號","OBJECTID":296680},"geometry":{"x":167891.62000000011,"y":2551493.2799999993}},{"attributes":{"ID":296689,"DIS_CODE":0,"TOWNNAME":"安南區","LI":"長安里","LIN":"17鄰","STREET":"長溪路","SECT":"三段","MAREA":" ","LANE":"１５１巷","ALLEY":" ","HOUSE_NO":"１０號","E_COORD97":167895.07000000001,"N_COORD97":2551494.1400000001,"ADDRESS":"長溪路三段１５１巷１０號","OBJECTID":296681},"geometry":{"x":167895.07000000123,"y":2551494.1400000025}},{"attributes":{"ID":296690,"DIS_CODE":0,"TOWNNAME":"安南區","LI":"長安里","LIN":"17鄰","STREET":"長溪路","SECT":"三段","MAREA":" ","LANE":"１５１巷","ALLEY":" ","HOUSE_NO":"１６號","E_COORD97":167888.01999999999,"N_COORD97":2551492.1299999999,"ADDRESS":"長溪路三段１５１巷１６號","OBJECTID":296682},"geometry":{"x":167888.02000000048,"y":2551492.1300000008}},{"attributes":{"ID":296691,"DIS_CODE":0,"TOWNNAME":"安南區","LI":"長安里","LIN":"17鄰","STREET":"長溪路","SECT":"三段","MAREA":" ","LANE":"１５１巷","ALLEY":" ","HOUSE_NO":"１８號","E_COORD97":167884.70999999999,"N_COORD97":2551491.1200000001,"ADDRESS":"長溪路三段１５１巷１８號","OBJECTID":296683},"geometry":{"x":167884.71000000183,"y":2551491.1200000029}},{"attributes":{"ID":296692,"DIS_CODE":0,"TOWNNAME":"安南區","LI":"長安里","LIN":"17鄰","STREET":"長溪路","SECT":"三段","MAREA":" ","LANE":"１５１巷","ALLEY":" ","HOUSE_NO":"２０號","E_COORD97":167880.97,"N_COORD97":2551489.9700000002,"ADDRESS":"長溪路三段１５１巷２０號","OBJECTID":296684},"geometry":{"x":167880.9700000016,"y":2551489.9700000007}},{"attributes":{"ID":296693,"DIS_CODE":0,"TOWNNAME":"安南區","LI":"長安里","LIN":"17鄰","STREET":"長溪路","SECT":"三段","MAREA":" ","LANE":"１５１巷","ALLEY":" ","HOUSE_NO":"２２號","E_COORD97":167877.51999999999,"N_COORD97":2551488.8199999998,"ADDRESS":"長溪路三段１５１巷２２號","OBJECTID":296685},"geometry":{"x":167877.52000000048,"y":2551488.8200000022}},{"attributes":{"ID":296694,"DIS_CODE":0,"TOWNNAME":"安南區","LI":"長安里","LIN":"17鄰","STREET":"長溪路","SECT":"三段","MAREA":" ","LANE":"１５１巷","ALLEY":" ","HOUSE_NO":"２６號","E_COORD97":167874.07000000001,"N_COORD97":2551487.96,"ADDRESS":"長溪路三段１５１巷２６號","OBJECTID":296686},"geometry":{"x":167874.07000000216,"y":2551487.9600000046}},{"attributes":{"ID":296695,"DIS_CODE":0,"TOWNNAME":"安南區","LI":"長安里","LIN":"17鄰","STREET":"長溪路","SECT":"三段","MAREA":" ","LANE":"１５１巷","ALLEY":" ","HOUSE_NO":"２８號","E_COORD97":167870.76000000001,"N_COORD97":2551487.1000000001,"ADDRESS":"長溪路三段１５１巷２８號","OBJECTID":296687},"geometry":{"x":167870.76000000071,"y":2551487.0999999996}},{"attributes":{"ID":296696,"DIS_CODE":0,"TOWNNAME":"安南區","LI":"長安里","LIN":"17鄰","STREET":"長溪路","SECT":"三段","MAREA":" ","LANE":"１５１巷","ALLEY":" ","HOUSE_NO":"３０號","E_COORD97":167867.01999999999,"N_COORD97":2551485.9399999999,"ADDRESS":"長溪路三段１５１巷３０號","OBJECTID":296688},"geometry":{"x":167867.02000000048,"y":2551485.9399999995}},{"attributes":{"ID":296697,"DIS_CODE":0,"TOWNNAME":"安南區","LI":"長安里","LIN":"17鄰","STREET":"長溪路","SECT":"三段","MAREA":" ","LANE":"１５１巷","ALLEY":" ","HOUSE_NO":"３２號","E_COORD97":167862.98999999999,"N_COORD97":2551484.9399999999,"ADDRESS":"長溪路三段１５１巷３２號","OBJECTID":296689},"geometry":{"x":167862.99000000115,"y":2551484.9399999995}},{"attributes":{"ID":296698,"DIS_CODE":0,"TOWNNAME":"安南區","LI":"淵東里","LIN":"17鄰","STREET":"仁安路","SECT":" ","MAREA":" ","LANE":"１９４巷","ALLEY":" ","HOUSE_NO":"１３號","E_COORD97":165836.76000000001,"N_COORD97":2550123.0099999998,"ADDRESS":"仁安路１９４巷１３號","OBJECTID":296690},"geometry":{"x":165836.76000000071,"y":2550123.0099999979}},{"attributes":{"ID":296699,"DIS_CODE":0,"TOWNNAME":"安南區","LI":"淵東里","LIN":"17鄰","STREET":"仁安路","SECT":" ","MAREA":" ","LANE":"１９４巷","ALLEY":" ","HOUSE_NO":"１０號","E_COORD97":165818.82000000001,"N_COORD97":2550132.3799999999,"ADDRESS":"仁安路１９４巷１０號","OBJECTID":296691},"geometry":{"x":165818.8200000003,"y":2550132.379999999}},{"attributes":{"ID":296700,"DIS_CODE":0,"TOWNNAME":"安南區","LI":"淵東里","LIN":"17鄰","STREET":"仁安路","SECT":" ","MAREA":" ","LANE":"１９４巷","ALLEY":" ","HOUSE_NO":"１１號","E_COORD97":165835.81,"N_COORD97":2550127.7799999998,"ADDRESS":"仁安路１９４巷１１號","OBJECTID":296692},"geometry":{"x":165835.81000000145,"y":2550127.7800000031}},{"attributes":{"ID":296701,"DIS_CODE":0,"TOWNNAME":"安南區","LI":"淵東里","LIN":"17鄰","STREET":"仁安路","SECT":" ","MAREA":" ","LANE":"１９４巷","ALLEY":" ","HOUSE_NO":"１２號","E_COORD97":165820.09,"N_COORD97":2550129.52,"ADDRESS":"仁安路１９４巷１２號","OBJECTID":296693},"geometry":{"x":165820.08999999985,"y":2550129.5199999977}},{"attributes":{"ID":296702,"DIS_CODE":0,"TOWNNAME":"安南區","LI":"淵東里","LIN":"17鄰","STREET":"仁安路","SECT":" ","MAREA":" ","LANE":"１９４巷","ALLEY":" ","HOUSE_NO":"１６號","E_COORD97":165821.51999999999,"N_COORD97":2550126.0299999998,"ADDRESS":"仁安路１９４巷１６號","OBJECTID":296694},"geometry":{"x":165821.52000000048,"y":2550126.0300000031}},{"attributes":{"ID":296703,"DIS_CODE":0,"TOWNNAME":"安南區","LI":"淵東里","LIN":"17鄰","STREET":"仁安路","SECT":" ","MAREA":" ","LANE":"１９４巷","ALLEY":" ","HOUSE_NO":"１８號","E_COORD97":165822.47,"N_COORD97":2550122.3799999999,"ADDRESS":"仁安路１９４巷１８號","OBJECTID":296695},"geometry":{"x":165822.46999999974,"y":2550122.379999999}},{"attributes":{"ID":296704,"DIS_CODE":0,"TOWNNAME":"安南區","LI":"淵東里","LIN":"17鄰","STREET":"仁安路","SECT":" ","MAREA":" ","LANE":"１９４巷","ALLEY":" ","HOUSE_NO":"９號","E_COORD97":165834.06,"N_COORD97":2550132.54,"ADDRESS":"仁安路１９４巷９號","OBJECTID":296696},"geometry":{"x":165834.06000000145,"y":2550132.5400000028}},{"attributes":{"ID":296705,"DIS_CODE":0,"TOWNNAME":"安南區","LI":"淵東里","LIN":"17鄰","STREET":"仁安路","SECT":" ","MAREA":" ","LANE":"１９４巷","ALLEY":" ","HOUSE_NO":"５號","E_COORD97":165831.20000000001,"N_COORD97":2550140.79,"ADDRESS":"仁安路１９４巷５號","OBJECTID":296697},"geometry":{"x":165831.20000000112,"y":2550140.7899999972}},{"attributes":{"ID":296706,"DIS_CODE":0,"TOWNNAME":"安南區","LI":"淵東里","LIN":"17鄰","STREET":"仁安路","SECT":" ","MAREA":" ","LANE":"１９４巷","ALLEY":" ","HOUSE_NO":"７號","E_COORD97":165831.84,"N_COORD97":2550137.1400000001,"ADDRESS":"仁安路１９４巷７號","OBJECTID":296698},"geometry":{"x":165831.83999999985,"y":2550137.1400000025}},{"attributes":{"ID":296707,"DIS_CODE":0,"TOWNNAME":"安南區","LI":"長安里","LIN":"17鄰","STREET":"長溪路","SECT":"三段","MAREA":" ","LANE":"１５１巷","ALLEY":" ","HOUSE_NO":"２３號","E_COORD97":167877.34,"N_COORD97":2551466.0099999998,"ADDRESS":"長溪路三段１５１巷２３號","OBJECTID":296699},"geometry":{"x":167877.34000000078,"y":2551466.0100000035}},{"attributes":{"ID":296708,"DIS_CODE":0,"TOWNNAME":"西港區","LI":"西港里","LIN":"9鄰","STREET":" ","SECT":" ","MAREA":"西港","LANE":" ","ALLEY":" ","HOUSE_NO":"１２號之８二樓之１","E_COORD97":168456.03,"N_COORD97":2558046.4700000002,"ADDRESS":"西港１２號之８二樓之１","OBJECTID":296700},"geometry":{"x":168456.03000000119,"y":2558046.4700000007}},{"attributes":{"ID":296709,"DIS_CODE":0,"TOWNNAME":"南區","LI":"明興里","LIN":"21鄰","STREET":"金華路","SECT":"一段","MAREA":" ","LANE":"１５４巷","ALLEY":" ","HOUSE_NO":"３０號二樓之１","E_COORD97":167030.79999999999,"N_COORD97":2540627.6000000001,"ADDRESS":"金華路一段１５４巷３０號二樓之１","OBJECTID":296701},"geometry":{"x":167030.79999999981,"y":2540627.6000000015}},{"attributes":{"ID":296710,"DIS_CODE":0,"TOWNNAME":"南區","LI":"明興里","LIN":"21鄰","STREET":"金華路","SECT":"一段","MAREA":" ","LANE":"１５４巷","ALLEY":" ","HOUSE_NO":"３０號二樓之２","E_COORD97":167030.79999999999,"N_COORD97":2540627.6000000001,"ADDRESS":"金華路一段１５４巷３０號二樓之２","OBJECTID":296702},"geometry":{"x":167030.79999999981,"y":2540627.6000000015}},{"attributes":{"ID":296711,"DIS_CODE":0,"TOWNNAME":"南區","LI":"明興里","LIN":"21鄰","STREET":"金華路","SECT":"一段","MAREA":" ","LANE":"１５４巷","ALLEY":" ","HOUSE_NO":"３６號二樓","E_COORD97":167048.17999999999,"N_COORD97":2540626.75,"ADDRESS":"金華路一段１５４巷３６號二樓","OBJECTID":296703},"geometry":{"x":167048.1799999997,"y":2540626.7500000019}},{"attributes":{"ID":296712,"DIS_CODE":0,"TOWNNAME":"安南區","LI":"長安里","LIN":"17鄰","STREET":"長溪路","SECT":"三段","MAREA":" ","LANE":"１５１巷","ALLEY":" ","HOUSE_NO":"２１號","E_COORD97":167880.64999999999,"N_COORD97":2551466.7799999998,"ADDRESS":"長溪路三段１５１巷２１號","OBJECTID":296704},"geometry":{"x":167880.6500000013,"y":2551466.7800000031}},{"attributes":{"ID":296713,"DIS_CODE":0,"TOWNNAME":"安南區","LI":"長安里","LIN":"17鄰","STREET":"長溪路","SECT":"三段","MAREA":" ","LANE":"１５１巷","ALLEY":" ","HOUSE_NO":"２５號","E_COORD97":167873.41,"N_COORD97":2551464.6200000001,"ADDRESS":"長溪路三段１５１巷２５號","OBJECTID":296705},"geometry":{"x":167873.41000000201,"y":2551464.6200000029}},{"attributes":{"ID":296714,"DIS_CODE":0,"TOWNNAME":"安南區","LI":"長安里","LIN":"17鄰","STREET":"長溪路","SECT":"三段","MAREA":" ","LANE":"１５１巷","ALLEY":" ","HOUSE_NO":"１９號","E_COORD97":167884.32999999999,"N_COORD97":2551468.1699999999,"ADDRESS":"長溪路三段１５１巷１９號","OBJECTID":296706},"geometry":{"x":167884.33000000101,"y":2551468.1700000037}},{"attributes":{"ID":296715,"DIS_CODE":0,"TOWNNAME":"安南區","LI":"長安里","LIN":"17鄰","STREET":"長溪路","SECT":"三段","MAREA":" ","LANE":"１５１巷","ALLEY":" ","HOUSE_NO":"１７號","E_COORD97":167887.76000000001,"N_COORD97":2551469.3199999998,"ADDRESS":"長溪路三段１５１巷１７號","OBJECTID":296707},"geometry":{"x":167887.76000000071,"y":2551469.3200000022}},{"attributes":{"ID":296716,"DIS_CODE":0,"TOWNNAME":"安南區","LI":"長安里","LIN":"17鄰","STREET":"長溪路","SECT":"三段","MAREA":" ","LANE":"１５１巷","ALLEY":" ","HOUSE_NO":"１５號","E_COORD97":167891.06,"N_COORD97":2551470.3300000001,"ADDRESS":"長溪路三段１５１巷１５號","OBJECTID":296708},"geometry":{"x":167891.06000000052,"y":2551470.3300000001}},{"attributes":{"ID":296717,"DIS_CODE":0,"TOWNNAME":"安南區","LI":"長安里","LIN":"17鄰","STREET":"長溪路","SECT":"三段","MAREA":" ","LANE":"１５１巷","ALLEY":" ","HOUSE_NO":"１５之１號","E_COORD97":167894.35999999999,"N_COORD97":2551471.3500000001,"ADDRESS":"長溪路三段１５１巷１５之１號","OBJECTID":296709},"geometry":{"x":167894.36000000127,"y":2551471.3500000015}},{"attributes":{"ID":296718,"DIS_CODE":0,"TOWNNAME":"南區","LI":"白雪里","LIN":"17鄰","STREET":"新都路","SECT":" ","MAREA":" ","LANE":"６１２巷","ALLEY":" ","HOUSE_NO":"１號","E_COORD97":166824.19,"N_COORD97":2540916.6899999999,"ADDRESS":"新都路６１２巷１號","OBJECTID":296710},"geometry":{"x":166824.19000000227,"y":2540916.6900000032}},{"attributes":{"ID":296719,"DIS_CODE":0,"TOWNNAME":"南區","LI":"白雪里","LIN":"17鄰","STREET":"新都路","SECT":" ","MAREA":" ","LANE":"６１２巷","ALLEY":" ","HOUSE_NO":"３號","E_COORD97":166824.19,"N_COORD97":2540924.5499999998,"ADDRESS":"新都路６１２巷３號","OBJECTID":296711},"geometry":{"x":166824.19000000227,"y":2540924.5500000007}},{"attributes":{"ID":296720,"DIS_CODE":0,"TOWNNAME":"南區","LI":"白雪里","LIN":"17鄰","STREET":"新都路","SECT":" ","MAREA":" ","LANE":"６１２巷","ALLEY":" ","HOUSE_NO":"５號","E_COORD97":166822.14000000001,"N_COORD97":2540934.1499999999,"ADDRESS":"新都路６１２巷５號","OBJECTID":296712},"geometry":{"x":166822.1400000006,"y":2540934.1500000004}},{"attributes":{"ID":296721,"DIS_CODE":0,"TOWNNAME":"南區","LI":"白雪里","LIN":"17鄰","STREET":"新都路","SECT":" ","MAREA":" ","LANE":"６１２巷","ALLEY":" ","HOUSE_NO":"１５號","E_COORD97":166841.51999999999,"N_COORD97":2540944.6600000001,"ADDRESS":"新都路６１２巷１５號","OBJECTID":296713},"geometry":{"x":166841.52000000048,"y":2540944.6599999983}},{"attributes":{"ID":296722,"DIS_CODE":0,"TOWNNAME":"南區","LI":"白雪里","LIN":"17鄰","STREET":"新都路","SECT":" ","MAREA":" ","LANE":"６１２巷","ALLEY":" ","HOUSE_NO":"１７號","E_COORD97":166840.22,"N_COORD97":2540949.29,"ADDRESS":"新都路６１２巷１７號","OBJECTID":296714},"geometry":{"x":166840.2200000016,"y":2540949.2899999991}},{"attributes":{"ID":296723,"DIS_CODE":0,"TOWNNAME":"南區","LI":"白雪里","LIN":"17鄰","STREET":"新都路","SECT":" ","MAREA":" ","LANE":"６１２巷","ALLEY":" ","HOUSE_NO":"１９號","E_COORD97":166837.26000000001,"N_COORD97":2540955.4900000002,"ADDRESS":"新都路６１２巷１９號","OBJECTID":296715},"geometry":{"x":166837.26000000071,"y":2540955.4900000002}},{"attributes":{"ID":296724,"DIS_CODE":0,"TOWNNAME":"南區","LI":"白雪里","LIN":"17鄰","STREET":"新都路","SECT":" ","MAREA":" ","LANE":"６１２巷","ALLEY":" ","HOUSE_NO":"２１號","E_COORD97":166836.14999999999,"N_COORD97":2540959.9300000002,"ADDRESS":"新都路６１２巷２１號","OBJECTID":296716},"geometry":{"x":166836.15000000224,"y":2540959.9300000016}},{"attributes":{"ID":296725,"DIS_CODE":0,"TOWNNAME":"南區","LI":"白雪里","LIN":"17鄰","STREET":"新都路","SECT":" ","MAREA":" ","LANE":"６１２巷","ALLEY":" ","HOUSE_NO":"２３號","E_COORD97":166836.14999999999,"N_COORD97":2540970.1200000001,"ADDRESS":"新都路６１２巷２３號","OBJECTID":296717},"geometry":{"x":166836.15000000224,"y":2540970.1200000029}},{"attributes":{"ID":296726,"DIS_CODE":0,"TOWNNAME":"新化區","LI":"知義里","LIN":"14鄰","STREET":"中正路","SECT":" ","MAREA":" ","LANE":" ","ALLEY":" ","HOUSE_NO":"１３２號","E_COORD97":179134.51000000001,"N_COORD97":2547492.25,"ADDRESS":"中正路１３２號","OBJECTID":296718},"geometry":{"x":179134.50999999978,"y":2547492.2500000019}},{"attributes":{"ID":296727,"DIS_CODE":0,"TOWNNAME":"安南區","LI":"佃東里","LIN":"14鄰","STREET":"公學路","SECT":"二段","MAREA":" ","LANE":" ","ALLEY":" ","HOUSE_NO":"２６６之６０號","E_COORD97":167058.34,"N_COORD97":2552091.3399999999,"ADDRESS":"公學路二段２６６之６０號","OBJECTID":296719},"geometry":{"x":167058.34000000078,"y":2552091.3400000017}},{"attributes":{"ID":296728,"DIS_CODE":0,"TOWNNAME":"安平區","LI":"平安里","LIN":"20鄰","STREET":"民權路","SECT":"四段","MAREA":" ","LANE":" ","ALLEY":" ","HOUSE_NO":"６９３號","E_COORD97":164871.82999999999,"N_COORD97":2544636.0899999999,"ADDRESS":"民權路四段６９３號","OBJECTID":296720},"geometry":{"x":164871.83000000101,"y":2544636.0899999999}},{"attributes":{"ID":296729,"DIS_CODE":0,"TOWNNAME":"安平區","LI":"平安里","LIN":"20鄰","STREET":"民權路","SECT":"四段","MAREA":" ","LANE":" ","ALLEY":" ","HOUSE_NO":"６９５號","E_COORD97":164868.29999999999,"N_COORD97":2544637.5,"ADDRESS":"民權路四段６９５號","OBJECTID":296721},"geometry":{"x":164868.30000000075,"y":2544637.5}},{"attributes":{"ID":296730,"DIS_CODE":0,"TOWNNAME":"東區","LI":"成大里","LIN":"4鄰","STREET":"東寧路","SECT":"西段","MAREA":" ","LANE":"１８巷","ALLEY":" ","HOUSE_NO":"５號之２四樓","E_COORD97":169631.72,"N_COORD97":2543725.3999999999,"ADDRESS":"東寧路西段１８巷５號之２四樓","OBJECTID":296722},"geometry":{"x":169631.71999999974,"y":2543725.4000000004}},{"attributes":{"ID":296731,"DIS_CODE":0,"TOWNNAME":"東區","LI":"成大里","LIN":" ","STREET":"民族路","SECT":"一段","MAREA":" ","LANE":"１８巷","ALLEY":" ","HOUSE_NO":"１８號四樓之１","E_COORD97":169560.76000000001,"N_COORD97":2543917.6200000001,"ADDRESS":"民族路一段１８巷１８號四樓之１","OBJECTID":296723},"geometry":{"x":169560.76000000164,"y":2543917.6200000029}},{"attributes":{"ID":296732,"DIS_CODE":0,"TOWNNAME":"東區","LI":"東安里","LIN":" ","STREET":"長榮路","SECT":"二段","MAREA":" ","LANE":"３２巷","ALLEY":" ","HOUSE_NO":"１０４號三樓","E_COORD97":170184.06,"N_COORD97":2543171,"ADDRESS":"長榮路二段３２巷１０４號三樓","OBJECTID":296724},"geometry":{"x":170184.06000000145,"y":2543171.0000000019}},{"attributes":{"ID":296733,"DIS_CODE":0,"TOWNNAME":"西港區","LI":"南海里","LIN":"14鄰","STREET":" ","SECT":" ","MAREA":"南海埔","LANE":" ","ALLEY":" ","HOUSE_NO":"１２７號之１５四樓之","E_COORD97":167441.35000000001,"N_COORD97":2557279.4900000002,"ADDRESS":"南海埔１２７號之１５四樓之２","OBJECTID":296725},"geometry":{"x":167441.35000000056,"y":2557279.4900000002}},{"attributes":{"ID":296734,"DIS_CODE":0,"TOWNNAME":"西港區","LI":"南海里","LIN":"14鄰","STREET":" ","SECT":" ","MAREA":"南海埔","LANE":" ","ALLEY":" ","HOUSE_NO":"１２７號之１５四樓之","E_COORD97":167441.35000000001,"N_COORD97":2557279.4900000002,"ADDRESS":"南海埔１２７號之１５四樓之３","OBJECTID":296726},"geometry":{"x":167441.35000000056,"y":2557279.4900000002}},{"attributes":{"ID":296735,"DIS_CODE":0,"TOWNNAME":"西港區","LI":"南海里","LIN":"14鄰","STREET":" ","SECT":" ","MAREA":"南海埔","LANE":" ","ALLEY":" ","HOUSE_NO":"１２７號之１６二樓之","E_COORD97":167442.84,"N_COORD97":2557302.54,"ADDRESS":"南海埔１２７號之１６二樓之１","OBJECTID":296727},"geometry":{"x":167442.83999999892,"y":2557302.5399999991}},{"attributes":{"ID":296736,"DIS_CODE":0,"TOWNNAME":"西港區","LI":"南海里","LIN":"14鄰","STREET":" ","SECT":" ","MAREA":"南海埔","LANE":" ","ALLEY":" ","HOUSE_NO":"１２７號之１６二樓之","E_COORD97":167442.84,"N_COORD97":2557302.54,"ADDRESS":"南海埔１２７號之１６二樓之２","OBJECTID":296728},"geometry":{"x":167442.83999999892,"y":2557302.5399999991}},{"attributes":{"ID":296737,"DIS_CODE":0,"TOWNNAME":"西港區","LI":"南海里","LIN":"14鄰","STREET":" ","SECT":" ","MAREA":"南海埔","LANE":" ","ALLEY":" ","HOUSE_NO":"１２７號之１６三樓之","E_COORD97":167442.84,"N_COORD97":2557302.54,"ADDRESS":"南海埔１２７號之１６三樓之１","OBJECTID":296729},"geometry":{"x":167442.83999999892,"y":2557302.5399999991}},{"attributes":{"ID":296738,"DIS_CODE":0,"TOWNNAME":"東區","LI":"泉南里","LIN":" ","STREET":"光華街","SECT":" ","MAREA":" ","LANE":"２２９巷","ALLEY":" ","HOUSE_NO":"２３號三樓之１","E_COORD97":169463.70000000001,"N_COORD97":2542934.4199999999,"ADDRESS":"光華街２２９巷２３號三樓之１","OBJECTID":296730},"geometry":{"x":169463.70000000112,"y":2542934.4200000018}},{"attributes":{"ID":296739,"DIS_CODE":0,"TOWNNAME":"東區","LI":"崇善里","LIN":" ","STREET":"崇善十一街","SECT":" ","MAREA":" ","LANE":"１２巷","ALLEY":" ","HOUSE_NO":"２４號地下樓","E_COORD97":171195.01999999999,"N_COORD97":2541103.6400000001,"ADDRESS":"崇善十一街１２巷２４號地下樓","OBJECTID":296731},"geometry":{"x":171195.02000000048,"y":2541103.6400000006}},{"attributes":{"ID":296740,"DIS_CODE":0,"TOWNNAME":"南區","LI":"白雪里","LIN":"17鄰","STREET":"新都路","SECT":" ","MAREA":" ","LANE":"６１２巷","ALLEY":" ","HOUSE_NO":"２５號","E_COORD97":166841.34,"N_COORD97":2540976.04,"ADDRESS":"新都路６１２巷２５號","OBJECTID":296732},"geometry":{"x":166841.34000000078,"y":2540976.040000001}},{"attributes":{"ID":296741,"DIS_CODE":0,"TOWNNAME":"南區","LI":"白雪里","LIN":"17鄰","STREET":"新都路","SECT":" ","MAREA":" ","LANE":"６１２巷","ALLEY":" ","HOUSE_NO":"２７號","E_COORD97":166848.57000000001,"N_COORD97":2540982.3399999999,"ADDRESS":"新都路６１２巷２７號","OBJECTID":296733},"geometry":{"x":166848.57000000216,"y":2540982.3399999999}},{"attributes":{"ID":296742,"DIS_CODE":0,"TOWNNAME":"南區","LI":"白雪里","LIN":"17鄰","STREET":"新都路","SECT":" ","MAREA":" ","LANE":"６１２巷","ALLEY":" ","HOUSE_NO":"２９號","E_COORD97":166844.31,"N_COORD97":2540987.8999999999,"ADDRESS":"新都路６１２巷２９號","OBJECTID":296734},"geometry":{"x":166844.30999999866,"y":2540987.9000000022}},{"attributes":{"ID":296743,"DIS_CODE":0,"TOWNNAME":"南區","LI":"白雪里","LIN":"17鄰","STREET":"新都路","SECT":" ","MAREA":" ","LANE":"６１２巷","ALLEY":" ","HOUSE_NO":"３１號","E_COORD97":166850.98000000001,"N_COORD97":2540991.9700000002,"ADDRESS":"新都路６１２巷３１號","OBJECTID":296735},"geometry":{"x":166850.98000000231,"y":2540991.9700000025}},{"attributes":{"ID":296744,"DIS_CODE":0,"TOWNNAME":"南區","LI":"白雪里","LIN":"17鄰","STREET":"新都路","SECT":" ","MAREA":" ","LANE":"６１２巷","ALLEY":" ","HOUSE_NO":"３３號","E_COORD97":166846.35000000001,"N_COORD97":2540996.2999999998,"ADDRESS":"新都路６１２巷３３號","OBJECTID":296736},"geometry":{"x":166846.35000000056,"y":2540996.3000000026}},{"attributes":{"ID":296745,"DIS_CODE":0,"TOWNNAME":"南區","LI":"白雪里","LIN":"17鄰","STREET":"新都路","SECT":" ","MAREA":" ","LANE":"６１２巷","ALLEY":" ","HOUSE_NO":"３５號","E_COORD97":166849.87,"N_COORD97":2541002.9700000002,"ADDRESS":"新都路６１２巷３５號","OBJECTID":296737},"geometry":{"x":166849.87000000104,"y":2541002.9700000007}},{"attributes":{"ID":296746,"DIS_CODE":0,"TOWNNAME":"南區","LI":"白雪里","LIN":"17鄰","STREET":"新都路","SECT":" ","MAREA":" ","LANE":"６１２巷","ALLEY":" ","HOUSE_NO":"３７號","E_COORD97":166861.78,"N_COORD97":2541005.8399999999,"ADDRESS":"新都路６１２巷３７號","OBJECTID":296738},"geometry":{"x":166861.78000000026,"y":2541005.8400000017}},{"attributes":{"ID":296747,"DIS_CODE":0,"TOWNNAME":"安平區","LI":"平安里","LIN":"20鄰","STREET":"民權路","SECT":"四段","MAREA":" ","LANE":" ","ALLEY":" ","HOUSE_NO":"６９７號","E_COORD97":164863.60000000001,"N_COORD97":2544639.3799999999,"ADDRESS":"民權路四段６９７號","OBJECTID":296739},"geometry":{"x":164863.59999999963,"y":2544639.379999999}},{"attributes":{"ID":296748,"DIS_CODE":0,"TOWNNAME":"安平區","LI":"平安里","LIN":"20鄰","STREET":"民權路","SECT":"四段","MAREA":" ","LANE":" ","ALLEY":" ","HOUSE_NO":"６９９號","E_COORD97":164859.38,"N_COORD97":2544640.79,"ADDRESS":"民權路四段６９９號","OBJECTID":296740},"geometry":{"x":164859.38000000082,"y":2544640.7899999991}},{"attributes":{"ID":296749,"DIS_CODE":0,"TOWNNAME":"安平區","LI":"平安里","LIN":"20鄰","STREET":"民權路","SECT":"四段","MAREA":" ","LANE":" ","ALLEY":" ","HOUSE_NO":"７０１號","E_COORD97":164855.14999999999,"N_COORD97":2544642.2000000002,"ADDRESS":"民權路四段７０１號","OBJECTID":296741},"geometry":{"x":164855.1500000013,"y":2544642.1999999993}},{"attributes":{"ID":296750,"DIS_CODE":0,"TOWNNAME":"安平區","LI":"平安里","LIN":"20鄰","STREET":"民權路","SECT":"四段","MAREA":" ","LANE":" ","ALLEY":" ","HOUSE_NO":"７０３號","E_COORD97":164851.39000000001,"N_COORD97":2544643.8399999999,"ADDRESS":"民權路四段７０３號","OBJECTID":296742},"geometry":{"x":164851.38999999966,"y":2544643.8400000017}},{"attributes":{"ID":296751,"DIS_CODE":0,"TOWNNAME":"安平區","LI":"平安里","LIN":"20鄰","STREET":"民權路","SECT":"四段","MAREA":" ","LANE":" ","ALLEY":" ","HOUSE_NO":"７０５號","E_COORD97":164846.92000000001,"N_COORD97":2544645.25,"ADDRESS":"民權路四段７０５號","OBJECTID":296743},"geometry":{"x":164846.91999999993,"y":2544645.25}},{"attributes":{"ID":296752,"DIS_CODE":0,"TOWNNAME":"東區","LI":"東門里","LIN":"1鄰","STREET":"東門路","SECT":"一段","MAREA":" ","LANE":" ","ALLEY":" ","HOUSE_NO":"９號","E_COORD97":169187.59,"N_COORD97":2543324.9100000001,"ADDRESS":"東門路一段９號","OBJECTID":296744},"geometry":{"x":169187.59000000078,"y":2543324.9100000001}},{"attributes":{"ID":296753,"DIS_CODE":0,"TOWNNAME":"南區","LI":"府南里","LIN":"10鄰","STREET":"永成路","SECT":"三段","MAREA":" ","LANE":"３５７巷","ALLEY":" ","HOUSE_NO":"１６號","E_COORD97":167428.02508600001,"N_COORD97":2541260.4369700002,"ADDRESS":"永成路三段３５７巷１６號","OBJECTID":296745},"geometry":{"x":167428.02508600149,"y":2541260.4369730018}},{"attributes":{"ID":296754,"DIS_CODE":0,"TOWNNAME":"東區","LI":"復興里","LIN":"21鄰","STREET":"自由路","SECT":"三段","MAREA":" ","LANE":" ","ALLEY":" ","HOUSE_NO":"３００號六樓之２","E_COORD97":171831.75,"N_COORD97":2542416.2999999998,"ADDRESS":"自由路三段３００號六樓之２","OBJECTID":296746},"geometry":{"x":171831.75,"y":2542416.3000000026}},{"attributes":{"ID":296755,"DIS_CODE":0,"TOWNNAME":"南區","LI":"白雪里","LIN":"17鄰","STREET":"新都路","SECT":" ","MAREA":" ","LANE":"６１２巷","ALLEY":" ","HOUSE_NO":"３９號","E_COORD97":166864.48999999999,"N_COORD97":2541008.2999999998,"ADDRESS":"新都路６１２巷３９號","OBJECTID":296747},"geometry":{"x":166864.49000000115,"y":2541008.3000000007}},{"attributes":{"ID":296756,"DIS_CODE":0,"TOWNNAME":"南區","LI":"白雪里","LIN":"17鄰","STREET":"新都路","SECT":" ","MAREA":" ","LANE":"６１２巷","ALLEY":" ","HOUSE_NO":"４５號","E_COORD97":166879.53,"N_COORD97":2541012.8399999999,"ADDRESS":"新都路６１２巷４５號","OBJECTID":296748},"geometry":{"x":166879.53000000119,"y":2541012.8399999999}},{"attributes":{"ID":296757,"DIS_CODE":0,"TOWNNAME":"南區","LI":"光明里","LIN":"17鄰","STREET":"新建路","SECT":" ","MAREA":" ","LANE":"１７巷","ALLEY":" ","HOUSE_NO":"１２號","E_COORD97":166548.54000000001,"N_COORD97":2541489.75,"ADDRESS":"新建路１７巷１２號","OBJECTID":296749},"geometry":{"x":166548.54000000097,"y":2541489.7499999981}},{"attributes":{"ID":296758,"DIS_CODE":0,"TOWNNAME":"南區","LI":"光明里","LIN":"17鄰","STREET":"新建路","SECT":" ","MAREA":" ","LANE":"１７巷","ALLEY":" ","HOUSE_NO":"１４號","E_COORD97":166557.85999999999,"N_COORD97":2541489.5899999999,"ADDRESS":"新建路１７巷１４號","OBJECTID":296750},"geometry":{"x":166557.86000000034,"y":2541489.5899999999}},{"attributes":{"ID":296759,"DIS_CODE":0,"TOWNNAME":"南區","LI":"光明里","LIN":"17鄰","STREET":"新建路","SECT":" ","MAREA":" ","LANE":"１７巷","ALLEY":" ","HOUSE_NO":"１６號","E_COORD97":166565.85999999999,"N_COORD97":2541490.4100000001,"ADDRESS":"新建路１７巷１６號","OBJECTID":296751},"geometry":{"x":166565.86000000127,"y":2541490.410000002}},{"attributes":{"ID":296760,"DIS_CODE":0,"TOWNNAME":"南區","LI":"光明里","LIN":"17鄰","STREET":"新建路","SECT":" ","MAREA":" ","LANE":"１７巷","ALLEY":" ","HOUSE_NO":"３號","E_COORD97":166487.60999999999,"N_COORD97":2541516.2400000002,"ADDRESS":"新建路１７巷３號","OBJECTID":296752},"geometry":{"x":166487.61000000127,"y":2541516.2400000002}},{"attributes":{"ID":296761,"DIS_CODE":0,"TOWNNAME":"南區","LI":"光明里","LIN":"17鄰","STREET":"新建路","SECT":" ","MAREA":" ","LANE":"１７巷","ALLEY":" ","HOUSE_NO":"１１號","E_COORD97":166523.22,"N_COORD97":2541515.75,"ADDRESS":"新建路１７巷１１號","OBJECTID":296753},"geometry":{"x":166523.2200000016,"y":2541515.75}},{"attributes":{"ID":296762,"DIS_CODE":0,"TOWNNAME":"南區","LI":"府南里","LIN":"17鄰","STREET":"大成路","SECT":"二段","MAREA":" ","LANE":"１７７巷","ALLEY":" ","HOUSE_NO":"１７號","E_COORD97":167259.66,"N_COORD97":2541692.23,"ADDRESS":"大成路二段１７７巷１７號","OBJECTID":296754},"geometry":{"x":167259.66000000201,"y":2541692.2300000023}},{"attributes":{"ID":296763,"DIS_CODE":0,"TOWNNAME":"南區","LI":"府南里","LIN":"17鄰","STREET":"大成路","SECT":"二段","MAREA":" ","LANE":"１７７巷","ALLEY":" ","HOUSE_NO":"１９號","E_COORD97":167262.66,"N_COORD97":2541690.71,"ADDRESS":"大成路二段１７７巷１９號","OBJECTID":296755},"geometry":{"x":167262.66000000015,"y":2541690.7100000009}},{"attributes":{"ID":296764,"DIS_CODE":0,"TOWNNAME":"安平區","LI":"平安里","LIN":"20鄰","STREET":"民權路","SECT":"四段","MAREA":" ","LANE":" ","ALLEY":" ","HOUSE_NO":"７０７號","E_COORD97":164843.87,"N_COORD97":2544647.1299999999,"ADDRESS":"民權路四段７０７號","OBJECTID":296756},"geometry":{"x":164843.87000000011,"y":2544647.1300000008}},{"attributes":{"ID":296765,"DIS_CODE":0,"TOWNNAME":"安平區","LI":"平安里","LIN":"20鄰","STREET":"民權路","SECT":"四段","MAREA":" ","LANE":" ","ALLEY":" ","HOUSE_NO":"７０９號","E_COORD97":164839.17000000001,"N_COORD97":2544648.77,"ADDRESS":"民權路四段７０９號","OBJECTID":296757},"geometry":{"x":164839.17000000086,"y":2544648.7699999996}},{"attributes":{"ID":296766,"DIS_CODE":0,"TOWNNAME":"南區","LI":"府南里","LIN":"17鄰","STREET":"大成路","SECT":"二段","MAREA":" ","LANE":"１７７巷","ALLEY":" ","HOUSE_NO":"１號","E_COORD97":167228.95000000001,"N_COORD97":2541705.5,"ADDRESS":"大成路二段１７７巷１號","OBJECTID":296758},"geometry":{"x":167228.95000000205,"y":2541705.5000000037}},{"attributes":{"ID":296767,"DIS_CODE":0,"TOWNNAME":"南區","LI":"府南里","LIN":"17鄰","STREET":"大成路","SECT":"二段","MAREA":" ","LANE":"１７７巷","ALLEY":" ","HOUSE_NO":"２１號","E_COORD97":167267.12,"N_COORD97":2541689.3500000001,"ADDRESS":"大成路二段１７７巷２１號","OBJECTID":296759},"geometry":{"x":167267.12000000104,"y":2541689.3500000015}},{"attributes":{"ID":296768,"DIS_CODE":0,"TOWNNAME":"南區","LI":"府南里","LIN":"17鄰","STREET":"大成路","SECT":"二段","MAREA":" ","LANE":"１７７巷","ALLEY":" ","HOUSE_NO":"２３號","E_COORD97":167271.14000000001,"N_COORD97":2541687.98,"ADDRESS":"大成路二段１７７巷２３號","OBJECTID":296760},"geometry":{"x":167271.14000000153,"y":2541687.9800000004}},{"attributes":{"ID":296769,"DIS_CODE":0,"TOWNNAME":"南區","LI":"府南里","LIN":"17鄰","STREET":"大成路","SECT":"二段","MAREA":" ","LANE":"１７７巷","ALLEY":" ","HOUSE_NO":"２５號","E_COORD97":167275.67000000001,"N_COORD97":2541686.3300000001,"ADDRESS":"大成路二段１７７巷２５號","OBJECTID":296761},"geometry":{"x":167275.66999999993,"y":2541686.3300000038}},{"attributes":{"ID":296770,"DIS_CODE":0,"TOWNNAME":"南區","LI":"府南里","LIN":"17鄰","STREET":"大成路","SECT":"二段","MAREA":" ","LANE":"１７７巷","ALLEY":" ","HOUSE_NO":"２７號","E_COORD97":167278.98000000001,"N_COORD97":2541684.9700000002,"ADDRESS":"大成路二段１７７巷２７號","OBJECTID":296762},"geometry":{"x":167278.98000000138,"y":2541684.9700000007}},{"attributes":{"ID":296771,"DIS_CODE":0,"TOWNNAME":"歸仁區","LI":"八甲里","LIN":"4鄰","STREET":"大光街","SECT":" ","MAREA":" ","LANE":"９０巷","ALLEY":" ","HOUSE_NO":"１９號","E_COORD97":178038.22,"N_COORD97":2541786.6099999999,"ADDRESS":"大光街９０巷１９號","OBJECTID":296763},"geometry":{"x":178038.21999999974,"y":2541786.6100000013}},{"attributes":{"ID":296772,"DIS_CODE":0,"TOWNNAME":"歸仁區","LI":"八甲里","LIN":"18鄰","STREET":"忠孝北路","SECT":" ","MAREA":" ","LANE":"２８４巷","ALLEY":" ","HOUSE_NO":"１０號","E_COORD97":177972.57999999999,"N_COORD97":2541471.25,"ADDRESS":"忠孝北路２８４巷１０號","OBJECTID":296764},"geometry":{"x":177972.58000000101,"y":2541471.2500000019}},{"attributes":{"ID":296773,"DIS_CODE":0,"TOWNNAME":"安南區","LI":"理想里","LIN":"17鄰","STREET":"大安街","SECT":" ","MAREA":" ","LANE":"２１５巷","ALLEY":" ","HOUSE_NO":"１８號","E_COORD97":167364.76999999999,"N_COORD97":2548388.3700000001,"ADDRESS":"大安街２１５巷１８號","OBJECTID":296765},"geometry":{"x":167364.76999999955,"y":2548388.370000001}},{"attributes":{"ID":296774,"DIS_CODE":0,"TOWNNAME":"安南區","LI":"理想里","LIN":"17鄰","STREET":"大安街","SECT":" ","MAREA":" ","LANE":"２１５巷","ALLEY":" ","HOUSE_NO":"２２號","E_COORD97":167369.37,"N_COORD97":2548398.21,"ADDRESS":"大安街２１５巷２２號","OBJECTID":296766},"geometry":{"x":167369.37000000011,"y":2548398.2100000028}},{"attributes":{"ID":296775,"DIS_CODE":0,"TOWNNAME":"安南區","LI":"理想里","LIN":"17鄰","STREET":"大安街","SECT":" ","MAREA":" ","LANE":"２１５巷","ALLEY":" ","HOUSE_NO":"２６號","E_COORD97":167371.60000000001,"N_COORD97":2548400.9100000001,"ADDRESS":"大安街２１５巷２６號","OBJECTID":296767},"geometry":{"x":167371.60000000056,"y":2548400.9100000001}},{"attributes":{"ID":296776,"DIS_CODE":0,"TOWNNAME":"安南區","LI":"理想里","LIN":"17鄰","STREET":"大安街","SECT":" ","MAREA":" ","LANE":"２１５巷","ALLEY":" ","HOUSE_NO":"２８號","E_COORD97":167373.82000000001,"N_COORD97":2548404.8799999999,"ADDRESS":"大安街２１５巷２８號","OBJECTID":296768},"geometry":{"x":167373.8200000003,"y":2548404.8800000008}},{"attributes":{"ID":296777,"DIS_CODE":0,"TOWNNAME":"安南區","LI":"理想里","LIN":"17鄰","STREET":"大安街","SECT":" ","MAREA":" ","LANE":"２１５巷","ALLEY":" ","HOUSE_NO":"３０號","E_COORD97":167377.63,"N_COORD97":2548408.6899999999,"ADDRESS":"大安街２１５巷３０號","OBJECTID":296769},"geometry":{"x":167377.62999999989,"y":2548408.6899999995}},{"attributes":{"ID":296778,"DIS_CODE":0,"TOWNNAME":"安南區","LI":"理想里","LIN":"17鄰","STREET":"大安街","SECT":" ","MAREA":" ","LANE":"２１５巷","ALLEY":" ","HOUSE_NO":"２０號","E_COORD97":167367.47,"N_COORD97":2548394.0800000001,"ADDRESS":"大安街２１５巷２０號","OBJECTID":296770},"geometry":{"x":167367.47000000067,"y":2548394.0800000038}},{"attributes":{"ID":296779,"DIS_CODE":0,"TOWNNAME":"仁德區","LI":"成功里","LIN":"17鄰","STREET":"全福路","SECT":" ","MAREA":" ","LANE":"８０巷","ALLEY":" ","HOUSE_NO":"５號","E_COORD97":171034.10999999999,"N_COORD97":2539286.25,"ADDRESS":"全福路８０巷５號","OBJECTID":296771},"geometry":{"x":171034.11000000127,"y":2539286.2500000037}},{"attributes":{"ID":296780,"DIS_CODE":0,"TOWNNAME":"仁德區","LI":"後壁里","LIN":"17鄰","STREET":"德善路","SECT":" ","MAREA":" ","LANE":"１２巷","ALLEY":" ","HOUSE_NO":"３號","E_COORD97":173283.10000000001,"N_COORD97":2538867.27,"ADDRESS":"德善路１２巷３號","OBJECTID":296772},"geometry":{"x":173283.10000000056,"y":2538867.2699999996}},{"attributes":{"ID":296781,"DIS_CODE":0,"TOWNNAME":"仁德區","LI":"一甲里","LIN":"17鄰","STREET":"忠義路","SECT":" ","MAREA":" ","LANE":"２５１巷","ALLEY":" ","HOUSE_NO":"５９號","E_COORD97":173831.67000000001,"N_COORD97":2541684.52,"ADDRESS":"忠義路２５１巷５９號","OBJECTID":296773},"geometry":{"x":173831.67000000179,"y":2541684.5200000033}},{"attributes":{"ID":296782,"DIS_CODE":0,"TOWNNAME":"仁德區","LI":"新田里","LIN":"17鄰","STREET":"民安路","SECT":"二段","MAREA":" ","LANE":"６３巷","ALLEY":" ","HOUSE_NO":"３２號","E_COORD97":173482.48000000001,"N_COORD97":2539272.8199999998,"ADDRESS":"民安路二段６３巷３２號","OBJECTID":296774},"geometry":{"x":173482.47999999952,"y":2539272.8200000022}},{"attributes":{"ID":296783,"DIS_CODE":0,"TOWNNAME":"仁德區","LI":"上崙里","LIN":"17鄰","STREET":"德崙路","SECT":" ","MAREA":" ","LANE":"３４６巷","ALLEY":" ","HOUSE_NO":"２號","E_COORD97":173954.17999999999,"N_COORD97":2538091.5099999998,"ADDRESS":"德崙路３４６巷２號","OBJECTID":296775},"geometry":{"x":173954.18000000063,"y":2538091.5100000016}},{"attributes":{"ID":296784,"DIS_CODE":0,"TOWNNAME":"西港區","LI":"西港里","LIN":"17鄰","STREET":"中山路","SECT":" ","MAREA":" ","LANE":"２４６巷","ALLEY":" ","HOUSE_NO":"３號","E_COORD97":168448.38,"N_COORD97":2557826.0299999998,"ADDRESS":"中山路２４６巷３號","OBJECTID":296776},"geometry":{"x":168448.38000000082,"y":2557826.0300000012}},{"attributes":{"ID":296785,"DIS_CODE":0,"TOWNNAME":"永康區","LI":"埔園里","LIN":"17鄰","STREET":"中山路","SECT":" ","MAREA":" ","LANE":"３８３巷","ALLEY":" ","HOUSE_NO":"２８號","E_COORD97":173438.09,"N_COORD97":2548512.75,"ADDRESS":"中山路３８３巷２８號","OBJECTID":296777},"geometry":{"x":173438.08999999985,"y":2548512.7500000019}},{"attributes":{"ID":296786,"DIS_CODE":0,"TOWNNAME":"永康區","LI":"西勢里","LIN":"17鄰","STREET":"富強路","SECT":"一段","MAREA":" ","LANE":"２５４巷","ALLEY":" ","HOUSE_NO":"８１號","E_COORD97":175788.98999999999,"N_COORD97":2546310.1400000001,"ADDRESS":"富強路一段２５４巷８１號","OBJECTID":296778},"geometry":{"x":175788.99000000022,"y":2546310.1400000025}},{"attributes":{"ID":296787,"DIS_CODE":0,"TOWNNAME":"永康區","LI":"網寮里","LIN":"17鄰","STREET":"永興路","SECT":" ","MAREA":" ","LANE":"３９７巷","ALLEY":" ","HOUSE_NO":"８號","E_COORD97":173325.48000000001,"N_COORD97":2546846.25,"ADDRESS":"永興路３９７巷８號","OBJECTID":296779},"geometry":{"x":173325.48000000138,"y":2546846.25}},{"attributes":{"ID":296788,"DIS_CODE":0,"TOWNNAME":"永康區","LI":"西橋里","LIN":"17鄰","STREET":"大橋一街","SECT":" ","MAREA":" ","LANE":"３１巷","ALLEY":" ","HOUSE_NO":"５１號","E_COORD97":170587.89999999999,"N_COORD97":2546399.7400000002,"ADDRESS":"大橋一街３１巷５１號","OBJECTID":296780},"geometry":{"x":170587.9000000013,"y":2546399.7400000039}},{"attributes":{"ID":296789,"DIS_CODE":0,"TOWNNAME":"永康區","LI":"埔園里","LIN":"17鄰","STREET":"龍埔街","SECT":" ","MAREA":" ","LANE":"５６２巷","ALLEY":" ","HOUSE_NO":"３２號","E_COORD97":173449.62,"N_COORD97":2548479.25,"ADDRESS":"龍埔街５６２巷３２號","OBJECTID":296781},"geometry":{"x":173449.62000000104,"y":2548479.25}},{"attributes":{"ID":296790,"DIS_CODE":0,"TOWNNAME":"永康區","LI":"埔園里","LIN":"17鄰","STREET":"中山路","SECT":" ","MAREA":" ","LANE":"３８３巷","ALLEY":" ","HOUSE_NO":"５號之４","E_COORD97":173476.92999999999,"N_COORD97":2548486.5499999998,"ADDRESS":"中山路３８３巷５號之４","OBJECTID":296782},"geometry":{"x":173476.92999999877,"y":2548486.5500000045}},{"attributes":{"ID":296791,"DIS_CODE":0,"TOWNNAME":"永康區","LI":"埔園里","LIN":"17鄰","STREET":"中山路","SECT":" ","MAREA":" ","LANE":"３８３巷","ALLEY":" ","HOUSE_NO":"２６號","E_COORD97":173445.69,"N_COORD97":2548514.25,"ADDRESS":"中山路３８３巷２６號","OBJECTID":296783},"geometry":{"x":173445.69000000134,"y":2548514.25}},{"attributes":{"ID":296792,"DIS_CODE":0,"TOWNNAME":"永康區","LI":"\u25A0洲里","LIN":"32鄰","STREET":"正南八街","SECT":" ","MAREA":" ","LANE":" ","ALLEY":" ","HOUSE_NO":"９１號","E_COORD97":171213.25609000001,"N_COORD97":2548939.9415000002,"ADDRESS":"正南八街９１號","OBJECTID":296784},"geometry":{"x":171213.2560900012,"y":2548939.9414970018}},{"attributes":{"ID":296793,"DIS_CODE":0,"TOWNNAME":"永康區","LI":"埔園里","LIN":"17鄰","STREET":"龍埔街","SECT":" ","MAREA":" ","LANE":"５６２巷","ALLEY":" ","HOUSE_NO":"４６號","E_COORD97":173435.20999999999,"N_COORD97":2548530.5699999998,"ADDRESS":"龍埔街５６２巷４６號","OBJECTID":296785},"geometry":{"x":173435.21000000089,"y":2548530.5700000022}},{"attributes":{"ID":296794,"DIS_CODE":0,"TOWNNAME":"永康區","LI":"烏竹里","LIN":"17鄰","STREET":"龍橋街","SECT":" ","MAREA":" ","LANE":"２５３巷","ALLEY":" ","HOUSE_NO":"３１號","E_COORD97":174502.62,"N_COORD97":2548866.4300000002,"ADDRESS":"龍橋街２５３巷３１號","OBJECTID":296786},"geometry":{"x":174502.62000000011,"y":2548866.4300000016}},{"attributes":{"ID":296795,"DIS_CODE":0,"TOWNNAME":"永康區","LI":"埔園里","LIN":"17鄰","STREET":"龍埔街","SECT":" ","MAREA":" ","LANE":"５６２巷","ALLEY":" ","HOUSE_NO":"４５號","E_COORD97":173415.67999999999,"N_COORD97":2548523,"ADDRESS":"龍埔街５６２巷４５號","OBJECTID":296787},"geometry":{"x":173415.6799999997,"y":2548523}},{"attributes":{"ID":296796,"DIS_CODE":0,"TOWNNAME":"永康區","LI":"埔園里","LIN":"17鄰","STREET":"龍埔街","SECT":" ","MAREA":" ","LANE":"５６２巷","ALLEY":" ","HOUSE_NO":"４２號","E_COORD97":173443.76000000001,"N_COORD97":2548503.25,"ADDRESS":"龍埔街５６２巷４２號","OBJECTID":296788},"geometry":{"x":173443.75999999978,"y":2548503.25}},{"attributes":{"ID":296797,"DIS_CODE":0,"TOWNNAME":"永康區","LI":"埔園里","LIN":"17鄰","STREET":"龍埔街","SECT":" ","MAREA":" ","LANE":"５６２巷","ALLEY":" ","HOUSE_NO":"３９號","E_COORD97":173425.04999999999,"N_COORD97":2548493.5600000001,"ADDRESS":"龍埔街５６２巷３９號","OBJECTID":296789},"geometry":{"x":173425.04999999981,"y":2548493.5600000024}},{"attributes":{"ID":296798,"DIS_CODE":0,"TOWNNAME":"南區","LI":"開南里","LIN":"6鄰","STREET":"中華西路","SECT":"一段","MAREA":" ","LANE":"１８巷","ALLEY":" ","HOUSE_NO":"２號五樓","E_COORD97":166332.26000000001,"N_COORD97":2540636.9300000002,"ADDRESS":"中華西路一段１８巷２號五樓","OBJECTID":296790},"geometry":{"x":166332.25999999978,"y":2540636.9299999997}},{"attributes":{"ID":296799,"DIS_CODE":0,"TOWNNAME":"永康區","LI":"埔園里","LIN":"24鄰","STREET":"中正路","SECT":" ","MAREA":" ","LANE":"１４８巷","ALLEY":" ","HOUSE_NO":"２號之３三樓","E_COORD97":173569.95999999999,"N_COORD97":2547924.04,"ADDRESS":"中正路１４８巷２號之３三樓","OBJECTID":296791},"geometry":{"x":173569.95999999996,"y":2547924.0399999991}},{"attributes":{"ID":296800,"DIS_CODE":0,"TOWNNAME":"永康區","LI":"神洲里","LIN":"12鄰","STREET":"忠孝路","SECT":" ","MAREA":" ","LANE":"１５２巷","ALLEY":" ","HOUSE_NO":"２８號二樓","E_COORD97":172206.73999999999,"N_COORD97":2545072.2599999998,"ADDRESS":"忠孝路１５２巷２８號二樓","OBJECTID":296792},"geometry":{"x":172206.74000000022,"y":2545072.2599999998}},{"attributes":{"ID":296801,"DIS_CODE":0,"TOWNNAME":"永康區","LI":"埔園里","LIN":"9鄰","STREET":"中山路","SECT":" ","MAREA":" ","LANE":"１０１巷","ALLEY":" ","HOUSE_NO":"２號之１六樓之２","E_COORD97":173738.35999999999,"N_COORD97":2547819.29,"ADDRESS":"中山路１０１巷２號之１六樓之２","OBJECTID":296793},"geometry":{"x":173738.36000000127,"y":2547819.290000001}},{"attributes":{"ID":296802,"DIS_CODE":0,"TOWNNAME":"永康區","LI":"神洲里","LIN":"13鄰","STREET":"忠孝路","SECT":" ","MAREA":" ","LANE":"７６巷","ALLEY":" ","HOUSE_NO":"５３號三樓","E_COORD97":172273.26000000001,"N_COORD97":2544991.3599999999,"ADDRESS":"忠孝路７６巷５３號三樓","OBJECTID":296794},"geometry":{"x":172273.26000000071,"y":2544991.3600000013}},{"attributes":{"ID":296803,"DIS_CODE":0,"TOWNNAME":"永康區","LI":"崑山里","LIN":"20鄰","STREET":"崑山街","SECT":" ","MAREA":" ","LANE":"２１巷","ALLEY":" ","HOUSE_NO":"１９號六樓之１","E_COORD97":173867.75,"N_COORD97":2544557.3599999999,"ADDRESS":"崑山街２１巷１９號六樓之１","OBJECTID":296795},"geometry":{"x":173867.75,"y":2544557.3600000013}},{"attributes":{"ID":296804,"DIS_CODE":0,"TOWNNAME":"永康區","LI":"神洲里","LIN":"13鄰","STREET":"忠孝路","SECT":" ","MAREA":" ","LANE":"７６巷","ALLEY":" ","HOUSE_NO":"５３號五樓","E_COORD97":172273.26000000001,"N_COORD97":2544991.3599999999,"ADDRESS":"忠孝路７６巷５３號五樓","OBJECTID":296796},"geometry":{"x":172273.26000000071,"y":2544991.3600000013}},{"attributes":{"ID":296805,"DIS_CODE":0,"TOWNNAME":"安平區","LI":"平安里","LIN":"20鄰","STREET":"民權路","SECT":"四段","MAREA":" ","LANE":" ","ALLEY":" ","HOUSE_NO":"７１１號","E_COORD97":164834.70999999999,"N_COORD97":2544649.9399999999,"ADDRESS":"民權路四段７１１號","OBJECTID":296797},"geometry":{"x":164834.70999999996,"y":2544649.9399999995}},{"attributes":{"ID":296806,"DIS_CODE":0,"TOWNNAME":"安平區","LI":"平安里","LIN":"20鄰","STREET":"民權路","SECT":"四段","MAREA":" ","LANE":" ","ALLEY":" ","HOUSE_NO":"７１３號","E_COORD97":164830.25,"N_COORD97":2544651.8199999998,"ADDRESS":"民權路四段７１３號","OBJECTID":296798},"geometry":{"x":164830.25000000093,"y":2544651.8200000003}},{"attributes":{"ID":296807,"DIS_CODE":0,"TOWNNAME":"東區","LI":"德光里","LIN":"14鄰","STREET":"德光街","SECT":" ","MAREA":" ","LANE":" ","ALLEY":" ","HOUSE_NO":"７２號","E_COORD97":170209.95000000001,"N_COORD97":2542332.3199999998,"ADDRESS":"德光街７２號","OBJECTID":296799},"geometry":{"x":170209.95000000019,"y":2542332.3200000003}},{"attributes":{"ID":296808,"DIS_CODE":0,"TOWNNAME":"東區","LI":"德光里","LIN":"14鄰","STREET":"德光街","SECT":" ","MAREA":" ","LANE":" ","ALLEY":" ","HOUSE_NO":"７４號","E_COORD97":170206.66,"N_COORD97":2542327.5299999998,"ADDRESS":"德光街７４號","OBJECTID":296800},"geometry":{"x":170206.66000000108,"y":2542327.5299999993}}]}