{"displayFieldName":"TOWNNAME","fieldAliases":{"ID":"ID","DIS_CODE":"DIS_CODE","TOWNNAME":"TOWNNAME","LI":"LI","LIN":"LIN","STREET":"STREET","SECT":"SECT","MAREA":"MAREA","LANE":"LANE","ALLEY":"ALLEY","HOUSE_NO":"HOUSE_NO","E_COORD97":"E_COORD97","N_COORD97":"N_COORD97","ADDRESS":"ADDRESS","OBJECTID":"OBJECTID"},"geometryType":"esriGeometryPoint","spatialReference":{"wkid":102443,"latestWkid":3826},"fields":[{"name":"ID","type":"esriFieldTypeDouble","alias":"ID"},{"name":"DIS_CODE","type":"esriFieldTypeInteger","alias":"DIS_CODE"},{"name":"TOWNNAME","type":"esriFieldTypeString","alias":"TOWNNAME","length":8},{"name":"LI","type":"esriFieldTypeString","alias":"LI","length":8},{"name":"LIN","type":"esriFieldTypeString","alias":"LIN","length":12},{"name":"STREET","type":"esriFieldTypeString","alias":"STREET","length":20},{"name":"SECT","type":"esriFieldTypeString","alias":"SECT","length":8},{"name":"MAREA","type":"esriFieldTypeString","alias":"MAREA","length":12},{"name":"LANE","type":"esriFieldTypeString","alias":"LANE","length":10},{"name":"ALLEY","type":"esriFieldTypeString","alias":"ALLEY","length":10},{"name":"HOUSE_NO","type":"esriFieldTypeString","alias":"HOUSE_NO","length":20},{"name":"E_COORD97","type":"esriFieldTypeDouble","alias":"E_COORD97"},{"name":"N_COORD97","type":"esriFieldTypeDouble","alias":"N_COORD97"},{"name":"ADDRESS","type":"esriFieldTypeString","alias":"ADDRESS","length":50},{"name":"OBJECTID","type":"esriFieldTypeOID","alias":"OBJECTID"}],"features":[{"attributes":{"ID":662028,"DIS_CODE":0,"TOWNNAME":"安南區","LI":"淵中里","LIN":"1鄰","STREET":"安中路","SECT":"三段","MAREA":" ","LANE":"３２９巷","ALLEY":" ","HOUSE_NO":"２號","E_COORD97":165642.18066099999,"N_COORD97":2549886.8460599999,"ADDRESS":"安中路三段３２９巷２號","OBJECTID":662001},"geometry":{"x":165642.18066100031,"y":2549886.8460580017}},{"attributes":{"ID":662029,"DIS_CODE":0,"TOWNNAME":"安南區","LI":"淵中里","LIN":"1鄰","STREET":"安中路","SECT":"三段","MAREA":" ","LANE":"３２９巷","ALLEY":" ","HOUSE_NO":"１號","E_COORD97":165657.42931199999,"N_COORD97":2549884.3060599999,"ADDRESS":"安中路三段３２９巷１號","OBJECTID":662002},"geometry":{"x":165657.42931200005,"y":2549884.3060600013}},{"attributes":{"ID":662030,"DIS_CODE":0,"TOWNNAME":"安南區","LI":"淵中里","LIN":"1鄰","STREET":"安中路","SECT":"三段","MAREA":" ","LANE":"３２９巷","ALLEY":" ","HOUSE_NO":"３號","E_COORD97":165654.676083,"N_COORD97":2549878.8027300001,"ADDRESS":"安中路三段３２９巷３號","OBJECTID":662003},"geometry":{"x":165654.67608300038,"y":2549878.8027290013}},{"attributes":{"ID":662031,"DIS_CODE":0,"TOWNNAME":"安南區","LI":"淵中里","LIN":"1鄰","STREET":"安中路","SECT":"三段","MAREA":" ","LANE":"３２９巷","ALLEY":" ","HOUSE_NO":"５號","E_COORD97":165652.98178900001,"N_COORD97":2549872.8760700002,"ADDRESS":"安中路三段３２９巷５號","OBJECTID":662004},"geometry":{"x":165652.98178900033,"y":2549872.8760659993}},{"attributes":{"ID":662032,"DIS_CODE":0,"TOWNNAME":"安南區","LI":"淵中里","LIN":"1鄰","STREET":"安中路","SECT":"三段","MAREA":" ","LANE":"３２９巷","ALLEY":" ","HOUSE_NO":"７號","E_COORD97":165651.07570799999,"N_COORD97":2549864.4093999998,"ADDRESS":"安中路三段３２９巷７號","OBJECTID":662005},"geometry":{"x":165651.07570800092,"y":2549864.4094040003}},{"attributes":{"ID":662033,"DIS_CODE":0,"TOWNNAME":"安南區","LI":"淵中里","LIN":"1鄰","STREET":"安中路","SECT":"三段","MAREA":" ","LANE":"３２９巷","ALLEY":" ","HOUSE_NO":"９號","E_COORD97":165649.381413,"N_COORD97":2549858.0594100002,"ADDRESS":"安中路三段３２９巷９號","OBJECTID":662006},"geometry":{"x":165649.3814129997,"y":2549858.0594070014}},{"attributes":{"ID":662034,"DIS_CODE":0,"TOWNNAME":"安南區","LI":"淵中里","LIN":"1鄰","STREET":"安中路","SECT":"三段","MAREA":" ","LANE":"３２９巷","ALLEY":" ","HOUSE_NO":"１１號","E_COORD97":165648.11069199999,"N_COORD97":2549851.9210799998,"ADDRESS":"安中路三段３２９巷１１號","OBJECTID":662007},"geometry":{"x":165648.11069200002,"y":2549851.9210769981}},{"attributes":{"ID":662035,"DIS_CODE":0,"TOWNNAME":"安南區","LI":"淵中里","LIN":"1鄰","STREET":"安中路","SECT":"三段","MAREA":" ","LANE":"３２９巷","ALLEY":" ","HOUSE_NO":"１３號","E_COORD97":165646.83997100001,"N_COORD97":2549846.6294100001,"ADDRESS":"安中路三段３２９巷１３號","OBJECTID":662008},"geometry":{"x":165646.83997100033,"y":2549846.6294129994}},{"attributes":{"ID":662036,"DIS_CODE":0,"TOWNNAME":"善化區","LI":"嘉北里","LIN":"4鄰","STREET":" ","SECT":" ","MAREA":"茄拔","LANE":" ","ALLEY":" ","HOUSE_NO":"３３號","E_COORD97":181086.425116,"N_COORD97":2559764.6949100001,"ADDRESS":"茄拔３３號","OBJECTID":662009},"geometry":{"x":181086.42511599977,"y":2559764.694910001}},{"attributes":{"ID":662037,"DIS_CODE":0,"TOWNNAME":"仁德區","LI":"太子里","LIN":"32鄰","STREET":"太子南路","SECT":" ","MAREA":" ","LANE":" ","ALLEY":" ","HOUSE_NO":"６８號","E_COORD97":173940.00928900001,"N_COORD97":2543349.8830200001,"ADDRESS":"太子南路６８號","OBJECTID":662010},"geometry":{"x":173940.00928900018,"y":2543349.8830169998}},{"attributes":{"ID":662038,"DIS_CODE":0,"TOWNNAME":"仁德區","LI":"太子里","LIN":"32鄰","STREET":"太子南路","SECT":" ","MAREA":" ","LANE":" ","ALLEY":" ","HOUSE_NO":"６６號","E_COORD97":173939.797517,"N_COORD97":2543344.06219,"ADDRESS":"太子南路６６號","OBJECTID":662011},"geometry":{"x":173939.79751699977,"y":2543344.0621869992}},{"attributes":{"ID":662039,"DIS_CODE":0,"TOWNNAME":"仁德區","LI":"太子里","LIN":"32鄰","STREET":"太子南路","SECT":" ","MAREA":" ","LANE":" ","ALLEY":" ","HOUSE_NO":"５８號","E_COORD97":173942.338781,"N_COORD97":2543326.1763599999,"ADDRESS":"太子南路５８號","OBJECTID":662012},"geometry":{"x":173942.33878100011,"y":2543326.1763630025}},{"attributes":{"ID":662040,"DIS_CODE":0,"TOWNNAME":"仁德區","LI":"太子里","LIN":"32鄰","STREET":"太子南路","SECT":" ","MAREA":" ","LANE":" ","ALLEY":" ","HOUSE_NO":"５２號","E_COORD97":173944.880045,"N_COORD97":2543311.7830400001,"ADDRESS":"太子南路５２號","OBJECTID":662013},"geometry":{"x":173944.88004500046,"y":2543311.7830370031}},{"attributes":{"ID":662041,"DIS_CODE":0,"TOWNNAME":"善化區","LI":"嘉北里","LIN":"6鄰","STREET":" ","SECT":" ","MAREA":"茄拔","LANE":" ","ALLEY":" ","HOUSE_NO":"１６２號之２","E_COORD97":181043.44104999999,"N_COORD97":2559817.9025900001,"ADDRESS":"茄拔１６２號之２","OBJECTID":662014},"geometry":{"x":181043.44104999956,"y":2559817.9025899991}},{"attributes":{"ID":662042,"DIS_CODE":0,"TOWNNAME":"善化區","LI":"嘉北里","LIN":"6鄰","STREET":" ","SECT":" ","MAREA":"茄拔","LANE":" ","ALLEY":" ","HOUSE_NO":"１６２號之１","E_COORD97":181039.36497,"N_COORD97":2559819.1196699999,"ADDRESS":"茄拔１６２號之１","OBJECTID":662015},"geometry":{"x":181039.36497000139,"y":2559819.1196700018}},{"attributes":{"ID":662043,"DIS_CODE":0,"TOWNNAME":"善化區","LI":"嘉北里","LIN":"6鄰","STREET":" ","SECT":" ","MAREA":"茄拔","LANE":" ","ALLEY":" ","HOUSE_NO":"１６２號之３","E_COORD97":181041.05893,"N_COORD97":2559802.6096800002,"ADDRESS":"茄拔１６２號之３","OBJECTID":662016},"geometry":{"x":181041.05893000029,"y":2559802.6096800007}},{"attributes":{"ID":662044,"DIS_CODE":0,"TOWNNAME":"善化區","LI":"嘉北里","LIN":"6鄰","STREET":" ","SECT":" ","MAREA":"茄拔","LANE":" ","ALLEY":" ","HOUSE_NO":"１６６號","E_COORD97":181078.114157,"N_COORD97":2559828.90925,"ADDRESS":"茄拔１６６號","OBJECTID":662017},"geometry":{"x":181078.11415700056,"y":2559828.9092500042}},{"attributes":{"ID":662045,"DIS_CODE":0,"TOWNNAME":"善化區","LI":"嘉北里","LIN":"6鄰","STREET":" ","SECT":" ","MAREA":"茄拔","LANE":" ","ALLEY":" ","HOUSE_NO":"１６７號之２","E_COORD97":181084.25472999999,"N_COORD97":2559865.7392299999,"ADDRESS":"茄拔１６７號之２","OBJECTID":662018},"geometry":{"x":181084.25473000202,"y":2559865.7392300013}},{"attributes":{"ID":662046,"DIS_CODE":0,"TOWNNAME":"善化區","LI":"嘉北里","LIN":"8鄰","STREET":" ","SECT":" ","MAREA":"茄拔","LANE":" ","ALLEY":" ","HOUSE_NO":"１８５號之３","E_COORD97":181093.88909000001,"N_COORD97":2560142.0699100001,"ADDRESS":"茄拔１８５號之３","OBJECTID":662019},"geometry":{"x":181093.88908999972,"y":2560142.0699100029}},{"attributes":{"ID":662047,"DIS_CODE":0,"TOWNNAME":"善化區","LI":"嘉北里","LIN":"12鄰","STREET":" ","SECT":" ","MAREA":"茄拔","LANE":" ","ALLEY":" ","HOUSE_NO":"２２８號","E_COORD97":180984.62911099999,"N_COORD97":2559914.9252499999,"ADDRESS":"茄拔２２８號","OBJECTID":662020},"geometry":{"x":180984.62911100034,"y":2559914.9252460022}},{"attributes":{"ID":662048,"DIS_CODE":0,"TOWNNAME":"善化區","LI":"嘉北里","LIN":"12鄰","STREET":" ","SECT":" ","MAREA":"茄拔","LANE":" ","ALLEY":" ","HOUSE_NO":"２２８號之１９","E_COORD97":180976.95337999999,"N_COORD97":2559922.96857,"ADDRESS":"茄拔２２８號之１９","OBJECTID":662021},"geometry":{"x":180976.95338000078,"y":2559922.9685699996}},{"attributes":{"ID":662049,"DIS_CODE":0,"TOWNNAME":"善化區","LI":"嘉北里","LIN":"12鄰","STREET":" ","SECT":" ","MAREA":"茄拔","LANE":" ","ALLEY":" ","HOUSE_NO":"２２８號之１８","E_COORD97":180962.29010000001,"N_COORD97":2559929.6625199998,"ADDRESS":"茄拔２２８號之１８","OBJECTID":662022},"geometry":{"x":180962.29009999987,"y":2559929.6625200007}},{"attributes":{"ID":662050,"DIS_CODE":0,"TOWNNAME":"善化區","LI":"小新里","LIN":"21鄰","STREET":"成功路","SECT":" ","MAREA":" ","LANE":" ","ALLEY":" ","HOUSE_NO":"１號之５","E_COORD97":180512.38196999999,"N_COORD97":2558412.30773,"ADDRESS":"成功路１號之５","OBJECTID":662023},"geometry":{"x":180512.38197000045,"y":2558412.3077300005}},{"attributes":{"ID":662051,"DIS_CODE":0,"TOWNNAME":"善化區","LI":"小新里","LIN":"21鄰","STREET":"成功路","SECT":" ","MAREA":" ","LANE":" ","ALLEY":" ","HOUSE_NO":"１之３號","E_COORD97":180425.46298000001,"N_COORD97":2558408.0743999998,"ADDRESS":"成功路１之３號","OBJECTID":662024},"geometry":{"x":180425.46298000123,"y":2558408.0743990019}},{"attributes":{"ID":662052,"DIS_CODE":0,"TOWNNAME":"安南區","LI":"淵西里","LIN":"9鄰","STREET":"安中路","SECT":"四段","MAREA":" ","LANE":"３０６巷","ALLEY":" ","HOUSE_NO":"３５號","E_COORD97":164565.96300600001,"N_COORD97":2550297.7257699999,"ADDRESS":"安中路四段３０６巷３５號","OBJECTID":662025},"geometry":{"x":164565.96300600097,"y":2550297.7257690001}},{"attributes":{"ID":662053,"DIS_CODE":0,"TOWNNAME":"安南區","LI":"淵西里","LIN":"11鄰","STREET":"安中路","SECT":"四段","MAREA":" ","LANE":"２９０巷","ALLEY":" ","HOUSE_NO":"１６４號","E_COORD97":164896.64894700001,"N_COORD97":2550249.7832999998,"ADDRESS":"安中路四段２９０巷１６４號","OBJECTID":662026},"geometry":{"x":164896.64894699957,"y":2550249.783295}},{"attributes":{"ID":662054,"DIS_CODE":0,"TOWNNAME":"安南區","LI":"淵西里","LIN":"11鄰","STREET":"安中路","SECT":"四段","MAREA":" ","LANE":"２９０巷","ALLEY":"８０弄","HOUSE_NO":"４７號","E_COORD97":164796.02382100001,"N_COORD97":2550226.39414,"ADDRESS":"安中路四段２９０巷８０弄４７號","OBJECTID":662027},"geometry":{"x":164796.02382100001,"y":2550226.3941410016}},{"attributes":{"ID":662055,"DIS_CODE":0,"TOWNNAME":"安南區","LI":"淵西里","LIN":"11鄰","STREET":"安中路","SECT":"四段","MAREA":" ","LANE":"２９０巷","ALLEY":"８０弄","HOUSE_NO":"６３號","E_COORD97":164823.563329,"N_COORD97":2550241.2108,"ADDRESS":"安中路四段２９０巷８０弄６３號","OBJECTID":662028},"geometry":{"x":164823.56332900096,"y":2550241.2107999995}},{"attributes":{"ID":662056,"DIS_CODE":0,"TOWNNAME":"安南區","LI":"淵西里","LIN":"11鄰","STREET":"安中路","SECT":"四段","MAREA":" ","LANE":"２９０巷","ALLEY":"８０弄","HOUSE_NO":"１９號之２","E_COORD97":164725.77158999999,"N_COORD97":2550199.0759200002,"ADDRESS":"安中路四段２９０巷８０弄１９號之２","OBJECTID":662029},"geometry":{"x":164725.77159000002,"y":2550199.0759200025}},{"attributes":{"ID":662057,"DIS_CODE":0,"TOWNNAME":"山上區","LI":"明和里","LIN":"21鄰","STREET":" ","SECT":" ","MAREA":"北勢洲","LANE":" ","ALLEY":" ","HOUSE_NO":"２４之３號","E_COORD97":182202.11754800001,"N_COORD97":2556822.5846699998,"ADDRESS":"北勢洲２４之３號","OBJECTID":662030},"geometry":{"x":182202.117548001,"y":2556822.5846680012}},{"attributes":{"ID":662058,"DIS_CODE":0,"TOWNNAME":"安南區","LI":"淵西里","LIN":"5鄰","STREET":"安中路","SECT":"四段","MAREA":" ","LANE":"３２０巷","ALLEY":"１６３弄","HOUSE_NO":"１１號","E_COORD97":164855.48256999999,"N_COORD97":2550339.4240799998,"ADDRESS":"安中路四段３２０巷１６３弄１１號","OBJECTID":662031},"geometry":{"x":164855.48257000092,"y":2550339.4240799993}},{"attributes":{"ID":662059,"DIS_CODE":0,"TOWNNAME":"安南區","LI":"淵西里","LIN":"5鄰","STREET":"安中路","SECT":"四段","MAREA":" ","LANE":"３２０巷","ALLEY":"１６３弄","HOUSE_NO":"１４號","E_COORD97":164867.98126999999,"N_COORD97":2550339.6357499999,"ADDRESS":"安中路四段３２０巷１６３弄１４號","OBJECTID":662032},"geometry":{"x":164867.98127000127,"y":2550339.6357470006}},{"attributes":{"ID":662060,"DIS_CODE":0,"TOWNNAME":"安南區","LI":"淵西里","LIN":"5鄰","STREET":"安中路","SECT":"四段","MAREA":" ","LANE":"３２０巷","ALLEY":"１６３弄","HOUSE_NO":"３２號之２","E_COORD97":164881.11549699999,"N_COORD97":2550350.04048,"ADDRESS":"安中路四段３２０巷１６３弄３２號之２","OBJECTID":662033},"geometry":{"x":164881.11549699958,"y":2550350.040481003}},{"attributes":{"ID":662061,"DIS_CODE":0,"TOWNNAME":"六甲區","LI":"二甲里","LIN":"18鄰","STREET":"和平街","SECT":" ","MAREA":" ","LANE":"４４７巷","ALLEY":" ","HOUSE_NO":"３０７號","E_COORD97":181876.213854,"N_COORD97":2570249.0591000002,"ADDRESS":"和平街４４７巷３０７號","OBJECTID":662034},"geometry":{"x":181876.21385400183,"y":2570249.0590969995}},{"attributes":{"ID":662062,"DIS_CODE":0,"TOWNNAME":"下營區","LI":"茅港里","LIN":"6鄰","STREET":" ","SECT":" ","MAREA":"茅港尾","LANE":" ","ALLEY":" ","HOUSE_NO":"１５２之１０號","E_COORD97":176880.987081,"N_COORD97":2568561.26908,"ADDRESS":"茅港尾１５２之１０號","OBJECTID":662035},"geometry":{"x":176880.98708099965,"y":2568561.2690760009}},{"attributes":{"ID":662063,"DIS_CODE":0,"TOWNNAME":"下營區","LI":"茅港里","LIN":"6鄰","STREET":" ","SECT":" ","MAREA":"茅港尾","LANE":" ","ALLEY":" ","HOUSE_NO":"１５２之８號","E_COORD97":176865.10150300001,"N_COORD97":2568568.88907,"ADDRESS":"茅港尾１５２之８號","OBJECTID":662036},"geometry":{"x":176865.10150299873,"y":2568568.8890720028}},{"attributes":{"ID":662064,"DIS_CODE":0,"TOWNNAME":"新營區","LI":"延平里","LIN":"2鄰","STREET":"延平路","SECT":" ","MAREA":" ","LANE":" ","ALLEY":" ","HOUSE_NO":"２８號","E_COORD97":179783.38266999999,"N_COORD97":2577863.45444,"ADDRESS":"延平路２８號","OBJECTID":662037},"geometry":{"x":179783.3826700002,"y":2577863.4544390012}},{"attributes":{"ID":662065,"DIS_CODE":0,"TOWNNAME":"善化區","LI":"嘉北里","LIN":"12鄰","STREET":" ","SECT":" ","MAREA":"茄拔","LANE":" ","ALLEY":" ","HOUSE_NO":"２８３號之３","E_COORD97":180972.55841,"N_COORD97":2559789.26743,"ADDRESS":"茄拔２８３號之３","OBJECTID":662038},"geometry":{"x":180972.55841000006,"y":2559789.26743}},{"attributes":{"ID":662066,"DIS_CODE":0,"TOWNNAME":"安南區","LI":"淵西里","LIN":"9鄰","STREET":"安中路","SECT":"四段","MAREA":" ","LANE":"２９０巷","ALLEY":"５７弄","HOUSE_NO":"１２號","E_COORD97":164617.406223,"N_COORD97":2550329.1582499999,"ADDRESS":"安中路四段２９０巷５７弄１２號","OBJECTID":662039},"geometry":{"x":164617.40622300003,"y":2550329.1582520008}},{"attributes":{"ID":662067,"DIS_CODE":0,"TOWNNAME":"龍崎區","LI":"土崎里","LIN":"9鄰","STREET":" ","SECT":" ","MAREA":"尖\u25A0","LANE":" ","ALLEY":" ","HOUSE_NO":"９號","E_COORD97":188905.352797,"N_COORD97":2543359.4080099999,"ADDRESS":"尖\u25A0９號","OBJECTID":662040},"geometry":{"x":188905.35279700067,"y":2543359.408011999}},{"attributes":{"ID":662068,"DIS_CODE":0,"TOWNNAME":"龍崎區","LI":"土崎里","LIN":"9鄰","STREET":" ","SECT":" ","MAREA":"尖\u25A0","LANE":" ","ALLEY":" ","HOUSE_NO":"１０號","E_COORD97":188929.49545399999,"N_COORD97":2543398.5663200002,"ADDRESS":"尖\u25A0１０號","OBJECTID":662041},"geometry":{"x":188929.49545400031,"y":2543398.5663239993}},{"attributes":{"ID":662069,"DIS_CODE":0,"TOWNNAME":"龍崎區","LI":"土崎里","LIN":"5鄰","STREET":" ","SECT":" ","MAREA":"土崎","LANE":" ","ALLEY":" ","HOUSE_NO":"７號","E_COORD97":187717.27991700001,"N_COORD97":2542422.2543500001,"ADDRESS":"土崎７號","OBJECTID":662042},"geometry":{"x":187717.27991700079,"y":2542422.2543510012}},{"attributes":{"ID":662070,"DIS_CODE":0,"TOWNNAME":"龍崎區","LI":"土崎里","LIN":"5鄰","STREET":" ","SECT":" ","MAREA":"土崎","LANE":" ","ALLEY":" ","HOUSE_NO":"１號","E_COORD97":187658.61749500001,"N_COORD97":2542517.3984699999,"ADDRESS":"土崎１號","OBJECTID":662043},"geometry":{"x":187658.61749500036,"y":2542517.3984660022}},{"attributes":{"ID":662071,"DIS_CODE":0,"TOWNNAME":"龍崎區","LI":"土崎里","LIN":"6鄰","STREET":" ","SECT":" ","MAREA":"土崎","LANE":" ","ALLEY":" ","HOUSE_NO":"２０號","E_COORD97":188285.05592300001,"N_COORD97":2542718.7991900002,"ADDRESS":"土崎２０號","OBJECTID":662044},"geometry":{"x":188285.05592300091,"y":2542718.7991909999}},{"attributes":{"ID":662072,"DIS_CODE":0,"TOWNNAME":"龍崎區","LI":"土崎里","LIN":"7鄰","STREET":" ","SECT":" ","MAREA":"土崎","LANE":" ","ALLEY":" ","HOUSE_NO":"２４號","E_COORD97":188186.579294,"N_COORD97":2542692.6583699998,"ADDRESS":"土崎２４號","OBJECTID":662045},"geometry":{"x":188186.57929400075,"y":2542692.6583719999}},{"attributes":{"ID":662073,"DIS_CODE":0,"TOWNNAME":"龍崎區","LI":"土崎里","LIN":"7鄰","STREET":" ","SECT":" ","MAREA":"土崎","LANE":" ","ALLEY":" ","HOUSE_NO":"３３號","E_COORD97":188308.139692,"N_COORD97":2542506.9209699999,"ADDRESS":"土崎３３號","OBJECTID":662046},"geometry":{"x":188308.13969200104,"y":2542506.9209720027}},{"attributes":{"ID":662074,"DIS_CODE":0,"TOWNNAME":"龍崎區","LI":"土崎里","LIN":"7鄰","STREET":" ","SECT":" ","MAREA":"土崎","LANE":" ","ALLEY":" ","HOUSE_NO":"３３之１號","E_COORD97":188280.82036899999,"N_COORD97":2542519.1976299998,"ADDRESS":"土崎３３之１號","OBJECTID":662047},"geometry":{"x":188280.82036900055,"y":2542519.1976320017}},{"attributes":{"ID":662075,"DIS_CODE":0,"TOWNNAME":"龍崎區","LI":"土崎里","LIN":"8鄰","STREET":" ","SECT":" ","MAREA":"土崎","LANE":" ","ALLEY":" ","HOUSE_NO":"３５號","E_COORD97":188250.95971299999,"N_COORD97":2542507.5559700001,"ADDRESS":"土崎３５號","OBJECTID":662048},"geometry":{"x":188250.95971300174,"y":2542507.5559720024}},{"attributes":{"ID":662076,"DIS_CODE":0,"TOWNNAME":"龍崎區","LI":"土崎里","LIN":"8鄰","STREET":" ","SECT":" ","MAREA":"土崎","LANE":" ","ALLEY":" ","HOUSE_NO":"３５之１號","E_COORD97":188242.91216099999,"N_COORD97":2542491.25765,"ADDRESS":"土崎３５之１號","OBJECTID":662049},"geometry":{"x":188242.91216100007,"y":2542491.2576470021}},{"attributes":{"ID":662077,"DIS_CODE":0,"TOWNNAME":"龍崎區","LI":"土崎里","LIN":"8鄰","STREET":" ","SECT":" ","MAREA":"土崎","LANE":" ","ALLEY":" ","HOUSE_NO":"３９號","E_COORD97":188112.03354400001,"N_COORD97":2542197.0411399999,"ADDRESS":"土崎３９號","OBJECTID":662050},"geometry":{"x":188112.03354400117,"y":2542197.041139001}},{"attributes":{"ID":662078,"DIS_CODE":0,"TOWNNAME":"龍崎區","LI":"土崎里","LIN":"8鄰","STREET":" ","SECT":" ","MAREA":"土崎","LANE":" ","ALLEY":" ","HOUSE_NO":"４０號","E_COORD97":188101.444659,"N_COORD97":2542172.4878199999,"ADDRESS":"土崎４０號","OBJECTID":662051},"geometry":{"x":188101.44465900026,"y":2542172.4878190029}},{"attributes":{"ID":662079,"DIS_CODE":0,"TOWNNAME":"龍崎區","LI":"土崎里","LIN":"8鄰","STREET":" ","SECT":" ","MAREA":"土崎","LANE":" ","ALLEY":" ","HOUSE_NO":"４０之１號","E_COORD97":188089.16155300001,"N_COORD97":2542191.11448,"ADDRESS":"土崎４０之１號","OBJECTID":662052},"geometry":{"x":188089.16155300103,"y":2542191.1144760009}},{"attributes":{"ID":662080,"DIS_CODE":0,"TOWNNAME":"龍崎區","LI":"土崎里","LIN":"8鄰","STREET":" ","SECT":" ","MAREA":"土崎","LANE":" ","ALLEY":" ","HOUSE_NO":"４２之１號","E_COORD97":188830.38349199999,"N_COORD97":2542475.2768199998,"ADDRESS":"土崎４２之１號","OBJECTID":662053},"geometry":{"x":188830.38349199947,"y":2542475.2768219989}},{"attributes":{"ID":662081,"DIS_CODE":0,"TOWNNAME":"龍崎區","LI":"土崎里","LIN":"4鄰","STREET":" ","SECT":" ","MAREA":"礁坑子","LANE":" ","ALLEY":" ","HOUSE_NO":"１７之１號","E_COORD97":188411.91076299999,"N_COORD97":2542949.0924,"ADDRESS":"礁坑子１７之１號","OBJECTID":662054},"geometry":{"x":188411.91076300014,"y":2542949.0923999995}},{"attributes":{"ID":662082,"DIS_CODE":0,"TOWNNAME":"龍崎區","LI":"土崎里","LIN":"4鄰","STREET":" ","SECT":" ","MAREA":"礁坑子","LANE":" ","ALLEY":" ","HOUSE_NO":"１６之１號","E_COORD97":188293.73880799999,"N_COORD97":2542954.5957300002,"ADDRESS":"礁坑子１６之１號","OBJECTID":662055},"geometry":{"x":188293.73880800139,"y":2542954.595730003}},{"attributes":{"ID":662083,"DIS_CODE":0,"TOWNNAME":"龍崎區","LI":"土崎里","LIN":"4鄰","STREET":" ","SECT":" ","MAREA":"礁坑子","LANE":" ","ALLEY":" ","HOUSE_NO":"２２號","E_COORD97":188304.327693,"N_COORD97":2542688.21337,"ADDRESS":"礁坑子２２號","OBJECTID":662056},"geometry":{"x":188304.3276930023,"y":2542688.213374}},{"attributes":{"ID":662084,"DIS_CODE":0,"TOWNNAME":"龍崎區","LI":"土崎里","LIN":"3鄰","STREET":" ","SECT":" ","MAREA":"礁坑子","LANE":" ","ALLEY":" ","HOUSE_NO":"４號","E_COORD97":187727.233469,"N_COORD97":2542534.6492900001,"ADDRESS":"礁坑子４號","OBJECTID":662057},"geometry":{"x":187727.23346900009,"y":2542534.649290001}},{"attributes":{"ID":662085,"DIS_CODE":0,"TOWNNAME":"龍崎區","LI":"土崎里","LIN":"3鄰","STREET":" ","SECT":" ","MAREA":"礁坑子","LANE":" ","ALLEY":" ","HOUSE_NO":"９號","E_COORD97":187688.47815099999,"N_COORD97":2542871.93994,"ADDRESS":"礁坑子９號","OBJECTID":662058},"geometry":{"x":187688.47815100197,"y":2542871.9399420023}},{"attributes":{"ID":662086,"DIS_CODE":0,"TOWNNAME":"玉井區","LI":"三和里","LIN":"2鄰","STREET":" ","SECT":" ","MAREA":"三和","LANE":" ","ALLEY":" ","HOUSE_NO":"２９號","E_COORD97":194727.47069099999,"N_COORD97":2556915.34424,"ADDRESS":"三和２９號","OBJECTID":662059},"geometry":{"x":194727.47069100011,"y":2556915.3442369998}},{"attributes":{"ID":662087,"DIS_CODE":0,"TOWNNAME":"玉井區","LI":"三和里","LIN":"2鄰","STREET":" ","SECT":" ","MAREA":"三和","LANE":" ","ALLEY":" ","HOUSE_NO":"２２號之１","E_COORD97":194630.44933500001,"N_COORD97":2556962.33421,"ADDRESS":"三和２２號之１","OBJECTID":662060},"geometry":{"x":194630.44933499955,"y":2556962.3342120014}},{"attributes":{"ID":662088,"DIS_CODE":0,"TOWNNAME":"玉井區","LI":"三和里","LIN":"1鄰","STREET":" ","SECT":" ","MAREA":"三和","LANE":" ","ALLEY":" ","HOUSE_NO":"３號之１５","E_COORD97":194583.527435,"N_COORD97":2557247.0257299999,"ADDRESS":"三和３號之１５","OBJECTID":662061},"geometry":{"x":194583.52743500005,"y":2557247.0257249996}},{"attributes":{"ID":662089,"DIS_CODE":0,"TOWNNAME":"玉井區","LI":"三和里","LIN":"1鄰","STREET":" ","SECT":" ","MAREA":"三和","LANE":" ","ALLEY":" ","HOUSE_NO":"７之６９號","E_COORD97":194285.260908,"N_COORD97":2556873.2225899999,"ADDRESS":"三和７之６９號","OBJECTID":662062},"geometry":{"x":194285.2609080011,"y":2556873.222593002}},{"attributes":{"ID":662090,"DIS_CODE":0,"TOWNNAME":"玉井區","LI":"沙田里","LIN":"9鄰","STREET":" ","SECT":" ","MAREA":"沙田","LANE":" ","ALLEY":" ","HOUSE_NO":"３７之１２號","E_COORD97":196852.07448800001,"N_COORD97":2556133.5704000001,"ADDRESS":"沙田３７之１２號","OBJECTID":662063},"geometry":{"x":196852.07448800094,"y":2556133.5704009999}},{"attributes":{"ID":662091,"DIS_CODE":0,"TOWNNAME":"玉井區","LI":"沙田里","LIN":"9鄰","STREET":" ","SECT":" ","MAREA":"沙田","LANE":" ","ALLEY":" ","HOUSE_NO":"３７之６號","E_COORD97":196941.48253899999,"N_COORD97":2556092.50709,"ADDRESS":"沙田３７之６號","OBJECTID":662064},"geometry":{"x":196941.48253900092,"y":2556092.5070900023}},{"attributes":{"ID":662092,"DIS_CODE":0,"TOWNNAME":"玉井區","LI":"沙田里","LIN":"9鄰","STREET":" ","SECT":" ","MAREA":"沙田","LANE":" ","ALLEY":" ","HOUSE_NO":"４０號之１","E_COORD97":197031.94992700001,"N_COORD97":2556656.9159499998,"ADDRESS":"沙田４０號之１","OBJECTID":662065},"geometry":{"x":197031.94992700126,"y":2556656.9159520008}},{"attributes":{"ID":662093,"DIS_CODE":0,"TOWNNAME":"玉井區","LI":"沙田里","LIN":"7鄰","STREET":" ","SECT":" ","MAREA":"沙田","LANE":" ","ALLEY":" ","HOUSE_NO":"７４之１號","E_COORD97":199173.94106400001,"N_COORD97":2556580.83819,"ADDRESS":"沙田７４之１號","OBJECTID":662066},"geometry":{"x":199173.94106400106,"y":2556580.8381890021}},{"attributes":{"ID":662094,"DIS_CODE":0,"TOWNNAME":"玉井區","LI":"沙田里","LIN":"7鄰","STREET":" ","SECT":" ","MAREA":"沙田","LANE":" ","ALLEY":" ","HOUSE_NO":"７４號","E_COORD97":199237.925025,"N_COORD97":2556530.6732200002,"ADDRESS":"沙田７４號","OBJECTID":662067},"geometry":{"x":199237.92502500117,"y":2556530.6732160021}},{"attributes":{"ID":662095,"DIS_CODE":0,"TOWNNAME":"官田區","LI":"官田里","LIN":"7鄰","STREET":" ","SECT":" ","MAREA":"官田","LANE":" ","ALLEY":" ","HOUSE_NO":"５９號之９６","E_COORD97":184079.11900000001,"N_COORD97":2565725.4360000002,"ADDRESS":"官田５９號之９６","OBJECTID":662068},"geometry":{"x":184079.11900000088,"y":2565725.4360000025}},{"attributes":{"ID":662096,"DIS_CODE":0,"TOWNNAME":"官田區","LI":"官田里","LIN":"12鄰","STREET":" ","SECT":" ","MAREA":"官田","LANE":" ","ALLEY":" ","HOUSE_NO":"１２０號","E_COORD97":182376.202834,"N_COORD97":2565060.63166,"ADDRESS":"官田１２０號","OBJECTID":662069},"geometry":{"x":182376.20283400174,"y":2565060.6316600014}},{"attributes":{"ID":662097,"DIS_CODE":0,"TOWNNAME":"官田區","LI":"官田里","LIN":"12鄰","STREET":" ","SECT":" ","MAREA":"官田","LANE":" ","ALLEY":" ","HOUSE_NO":"１２１號","E_COORD97":182378.32157999999,"N_COORD97":2565058.30333,"ADDRESS":"官田１２１號","OBJECTID":662070},"geometry":{"x":182378.32158000022,"y":2565058.303328}},{"attributes":{"ID":662098,"DIS_CODE":0,"TOWNNAME":"新市區","LI":"新和里","LIN":"44鄰","STREET":"民權路","SECT":" ","MAREA":" ","LANE":"３０巷","ALLEY":" ","HOUSE_NO":"２號","E_COORD97":177277.44902199999,"N_COORD97":2553127.2807499999,"ADDRESS":"民權路３０巷２號","OBJECTID":662071},"geometry":{"x":177277.44902199972,"y":2553127.2807459999}},{"attributes":{"ID":662099,"DIS_CODE":0,"TOWNNAME":"新市區","LI":"新和里","LIN":"44鄰","STREET":"民權路","SECT":" ","MAREA":" ","LANE":"３０巷","ALLEY":" ","HOUSE_NO":"４號","E_COORD97":177278.93247100001,"N_COORD97":2553124.3174100001,"ADDRESS":"民權路３０巷４號","OBJECTID":662072},"geometry":{"x":177278.93247099966,"y":2553124.3174140025}},{"attributes":{"ID":662100,"DIS_CODE":0,"TOWNNAME":"新市區","LI":"新和里","LIN":"48鄰","STREET":"和平街","SECT":" ","MAREA":" ","LANE":"１３８巷","ALLEY":" ","HOUSE_NO":"１５號","E_COORD97":177474.959687,"N_COORD97":2553388.79477,"ADDRESS":"和平街１３８巷１５號","OBJECTID":662073},"geometry":{"x":177474.95968700107,"y":2553388.7947710007}},{"attributes":{"ID":662101,"DIS_CODE":0,"TOWNNAME":"仁德區","LI":"上崙里","LIN":"23鄰","STREET":"德崙路","SECT":" ","MAREA":" ","LANE":"１３８巷","ALLEY":" ","HOUSE_NO":"８５號","E_COORD97":173422.843131,"N_COORD97":2538279.50697,"ADDRESS":"德崙路１３８巷８５號","OBJECTID":662074},"geometry":{"x":173422.84313100018,"y":2538279.5069660004}},{"attributes":{"ID":662102,"DIS_CODE":0,"TOWNNAME":"新市區","LI":"新和里","LIN":"40鄰","STREET":"信義街","SECT":" ","MAREA":" ","LANE":" ","ALLEY":" ","HOUSE_NO":"７０號","E_COORD97":177268.07150399999,"N_COORD97":2552884.4462899999,"ADDRESS":"信義街７０號","OBJECTID":662075},"geometry":{"x":177268.07150400057,"y":2552884.4462940022}},{"attributes":{"ID":662103,"DIS_CODE":0,"TOWNNAME":"白河區","LI":"汴頭里","LIN":"3鄰","STREET":" ","SECT":" ","MAREA":"林子內","LANE":" ","ALLEY":" ","HOUSE_NO":"２７之３號","E_COORD97":195138.18226,"N_COORD97":2584944.3302500001,"ADDRESS":"林子內２７之３號","OBJECTID":662076},"geometry":{"x":195138.18226000015,"y":2584944.3302490003}},{"attributes":{"ID":662104,"DIS_CODE":0,"TOWNNAME":"善化區","LI":"嘉北里","LIN":"1鄰","STREET":" ","SECT":" ","MAREA":"茄拔","LANE":" ","ALLEY":" ","HOUSE_NO":"１號之１７","E_COORD97":180830.69305999999,"N_COORD97":2560264.42197,"ADDRESS":"茄拔１號之１７","OBJECTID":662077},"geometry":{"x":180830.69306000136,"y":2560264.4219700005}},{"attributes":{"ID":662105,"DIS_CODE":0,"TOWNNAME":"善化區","LI":"嘉北里","LIN":"12鄰","STREET":" ","SECT":" ","MAREA":"茄拔","LANE":" ","ALLEY":" ","HOUSE_NO":"２８２號之１０","E_COORD97":180699.19993,"N_COORD97":2559736.10225,"ADDRESS":"茄拔２８２號之１０","OBJECTID":662078},"geometry":{"x":180699.19993000105,"y":2559736.1022500042}},{"attributes":{"ID":662106,"DIS_CODE":0,"TOWNNAME":"善化區","LI":"嘉北里","LIN":"12鄰","STREET":" ","SECT":" ","MAREA":"茄拔","LANE":" ","ALLEY":" ","HOUSE_NO":"２８４號之２","E_COORD97":180966.10345,"N_COORD97":2559769.17515,"ADDRESS":"茄拔２８４號之２","OBJECTID":662079},"geometry":{"x":180966.10345000029,"y":2559769.1751499996}},{"attributes":{"ID":662107,"DIS_CODE":0,"TOWNNAME":"善化區","LI":"嘉北里","LIN":"13鄰","STREET":" ","SECT":" ","MAREA":"茄拔","LANE":" ","ALLEY":" ","HOUSE_NO":"３０１號","E_COORD97":180903.32130800001,"N_COORD97":2559646.91126,"ADDRESS":"茄拔３０１號","OBJECTID":662080},"geometry":{"x":180903.32130800001,"y":2559646.9112650026}},{"attributes":{"ID":662108,"DIS_CODE":0,"TOWNNAME":"學甲區","LI":"平和里","LIN":"21鄰","STREET":" ","SECT":" ","MAREA":"西平寮","LANE":" ","ALLEY":" ","HOUSE_NO":"１５號之１７","E_COORD97":169414.337184,"N_COORD97":2573305.93181,"ADDRESS":"西平寮１５號之１７","OBJECTID":662081},"geometry":{"x":169414.33718399983,"y":2573305.9318070021}},{"attributes":{"ID":662109,"DIS_CODE":0,"TOWNNAME":"善化區","LI":"嘉北里","LIN":"13鄰","STREET":" ","SECT":" ","MAREA":"茄拔","LANE":" ","ALLEY":" ","HOUSE_NO":"３５２號之１","E_COORD97":180630.17134,"N_COORD97":2559681.99499,"ADDRESS":"茄拔３５２號之１","OBJECTID":662082},"geometry":{"x":180630.17134000082,"y":2559681.9949900005}},{"attributes":{"ID":662110,"DIS_CODE":0,"TOWNNAME":"善化區","LI":"嘉北里","LIN":"13鄰","STREET":" ","SECT":" ","MAREA":"茄拔","LANE":" ","ALLEY":" ","HOUSE_NO":"３６５號之１","E_COORD97":180531.71030000001,"N_COORD97":2559678.1320799999,"ADDRESS":"茄拔３６５號之１","OBJECTID":662083},"geometry":{"x":180531.71030000038,"y":2559678.1320799999}},{"attributes":{"ID":662111,"DIS_CODE":0,"TOWNNAME":"善化區","LI":"嘉北里","LIN":"13鄰","STREET":" ","SECT":" ","MAREA":"茄拔","LANE":" ","ALLEY":" ","HOUSE_NO":"３６６號","E_COORD97":180530.863331,"N_COORD97":2559683.8470800002,"ADDRESS":"茄拔３６６號","OBJECTID":662084},"geometry":{"x":180530.86333100125,"y":2559683.847078003}},{"attributes":{"ID":662112,"DIS_CODE":0,"TOWNNAME":"安南區","LI":"海西里","LIN":"10鄰","STREET":"海環街","SECT":" ","MAREA":" ","LANE":"１４６巷","ALLEY":" ","HOUSE_NO":"４２之１號","E_COORD97":166348.76144599999,"N_COORD97":2548704.8250699998,"ADDRESS":"海環街１４６巷４２之１號","OBJECTID":662085},"geometry":{"x":166348.76144600101,"y":2548704.8250650018}},{"attributes":{"ID":662113,"DIS_CODE":0,"TOWNNAME":"安南區","LI":"四草里","LIN":"3鄰","STREET":"大眾路","SECT":" ","MAREA":" ","LANE":" ","ALLEY":" ","HOUSE_NO":"３９０號","E_COORD97":161284.522172,"N_COORD97":2546723.5120700002,"ADDRESS":"大眾路３９０號","OBJECTID":662086},"geometry":{"x":161284.52217200026,"y":2546723.5120680016}},{"attributes":{"ID":662114,"DIS_CODE":0,"TOWNNAME":"善化區","LI":"坐駕里","LIN":"23鄰","STREET":" ","SECT":" ","MAREA":"坐駕","LANE":" ","ALLEY":" ","HOUSE_NO":"２０號之１６","E_COORD97":178599.21325999999,"N_COORD97":2558048.5856900001,"ADDRESS":"坐駕２０號之１６","OBJECTID":662087},"geometry":{"x":178599.21326000057,"y":2558048.5856899992}},{"attributes":{"ID":662115,"DIS_CODE":0,"TOWNNAME":"善化區","LI":"坐駕里","LIN":"24鄰","STREET":" ","SECT":" ","MAREA":"坐駕","LANE":" ","ALLEY":" ","HOUSE_NO":"２６號","E_COORD97":178733.38394100001,"N_COORD97":2558031.5994500001,"ADDRESS":"坐駕２６號","OBJECTID":662088},"geometry":{"x":178733.38394100219,"y":2558031.5994520001}},{"attributes":{"ID":662116,"DIS_CODE":0,"TOWNNAME":"善化區","LI":"坐駕里","LIN":"5鄰","STREET":" ","SECT":" ","MAREA":"坐駕","LANE":" ","ALLEY":" ","HOUSE_NO":"４０號之１０","E_COORD97":178623.99301000001,"N_COORD97":2558444.24339,"ADDRESS":"坐駕４０號之１０","OBJECTID":662089},"geometry":{"x":178623.99301000033,"y":2558444.2433899995}},{"attributes":{"ID":662117,"DIS_CODE":0,"TOWNNAME":"善化區","LI":"坐駕里","LIN":"19鄰","STREET":" ","SECT":" ","MAREA":"坐駕","LANE":" ","ALLEY":" ","HOUSE_NO":"３３號之１","E_COORD97":178813.33567999999,"N_COORD97":2558480.6235799999,"ADDRESS":"坐駕３３號之１","OBJECTID":662090},"geometry":{"x":178813.33568000048,"y":2558480.6235800013}},{"attributes":{"ID":662118,"DIS_CODE":0,"TOWNNAME":"善化區","LI":"坐駕里","LIN":"19鄰","STREET":" ","SECT":" ","MAREA":"坐駕","LANE":" ","ALLEY":" ","HOUSE_NO":"３３號","E_COORD97":178830.332051,"N_COORD97":2558483.9573300001,"ADDRESS":"坐駕３３號","OBJECTID":662091},"geometry":{"x":178830.33205099963,"y":2558483.9573330022}},{"attributes":{"ID":662119,"DIS_CODE":0,"TOWNNAME":"官田區","LI":"嘉南里","LIN":"4鄰","STREET":" ","SECT":" ","MAREA":"嘉南","LANE":" ","ALLEY":" ","HOUSE_NO":"３４號之１２","E_COORD97":184884.25192499999,"N_COORD97":2568065.89652,"ADDRESS":"嘉南３４號之１２","OBJECTID":662092},"geometry":{"x":184884.25192499999,"y":2568065.8965210002}},{"attributes":{"ID":662120,"DIS_CODE":0,"TOWNNAME":"善化區","LI":"坐駕里","LIN":"17鄰","STREET":"中正路","SECT":" ","MAREA":" ","LANE":"１８８巷","ALLEY":" ","HOUSE_NO":"３５號之１","E_COORD97":177876.87927999999,"N_COORD97":2558324.69203,"ADDRESS":"中正路１８８巷３５號之１","OBJECTID":662093},"geometry":{"x":177876.87927999999,"y":2558324.6920299996}},{"attributes":{"ID":662121,"DIS_CODE":0,"TOWNNAME":"東區","LI":"泉南里","LIN":"3鄰","STREET":"光華街","SECT":" ","MAREA":" ","LANE":" ","ALLEY":" ","HOUSE_NO":"１７８號","E_COORD97":169500.39735799999,"N_COORD97":2543047.0279299999,"ADDRESS":"光華街１７８號","OBJECTID":662094},"geometry":{"x":169500.39735800121,"y":2543047.0279290006}},{"attributes":{"ID":662122,"DIS_CODE":0,"TOWNNAME":"東區","LI":"泉南里","LIN":"13鄰","STREET":"光華街","SECT":" ","MAREA":" ","LANE":"２７５巷","ALLEY":"１弄","HOUSE_NO":"８號","E_COORD97":169432.38589999999,"N_COORD97":2543015.5954499999,"ADDRESS":"光華街２７５巷１弄８號","OBJECTID":662095},"geometry":{"x":169432.38590000104,"y":2543015.5954460036}},{"attributes":{"ID":662123,"DIS_CODE":0,"TOWNNAME":"東區","LI":"泉南里","LIN":"30鄰","STREET":"光華街","SECT":" ","MAREA":" ","LANE":"２２９巷","ALLEY":"２７弄","HOUSE_NO":"４號","E_COORD97":169481.540599,"N_COORD97":2542915.15967,"ADDRESS":"光華街２２９巷２７弄４號","OBJECTID":662096},"geometry":{"x":169481.54059900157,"y":2542915.159667002}},{"attributes":{"ID":662124,"DIS_CODE":0,"TOWNNAME":"善化區","LI":"坐駕里","LIN":"16鄰","STREET":"大成路","SECT":" ","MAREA":" ","LANE":" ","ALLEY":" ","HOUSE_NO":"８３號之１","E_COORD97":178730.05416999999,"N_COORD97":2558867.9485200001,"ADDRESS":"大成路８３號之１","OBJECTID":662097},"geometry":{"x":178730.05416999944,"y":2558867.9485200047}},{"attributes":{"ID":662125,"DIS_CODE":0,"TOWNNAME":"後壁區","LI":"嘉苳里","LIN":"1鄰","STREET":" ","SECT":" ","MAREA":"下茄苳","LANE":" ","ALLEY":" ","HOUSE_NO":"１２號","E_COORD97":185284.021462,"N_COORD97":2583513.3487200001,"ADDRESS":"下茄苳１２號","OBJECTID":662098},"geometry":{"x":185284.02146200091,"y":2583513.348724002}},{"attributes":{"ID":662126,"DIS_CODE":0,"TOWNNAME":"永康區","LI":"北灣里","LIN":"21鄰","STREET":"大同街","SECT":" ","MAREA":" ","LANE":"３８０巷","ALLEY":"７７弄","HOUSE_NO":"４６號","E_COORD97":174950.91380000001,"N_COORD97":2546002.56525,"ADDRESS":"大同街３８０巷７７弄４６號","OBJECTID":662099},"geometry":{"x":174950.91380000021,"y":2546002.5652469993}},{"attributes":{"ID":662127,"DIS_CODE":0,"TOWNNAME":"永康區","LI":"北灣里","LIN":"21鄰","STREET":"大同街","SECT":" ","MAREA":" ","LANE":"３８０巷","ALLEY":"７７弄","HOUSE_NO":"４８號","E_COORD97":174949.64209199999,"N_COORD97":2546000.4485800001,"ADDRESS":"大同街３８０巷７７弄４８號","OBJECTID":662100},"geometry":{"x":174949.64209200162,"y":2546000.4485809989}},{"attributes":{"ID":662128,"DIS_CODE":0,"TOWNNAME":"永康區","LI":"北灣里","LIN":"21鄰","STREET":"大同街","SECT":" ","MAREA":" ","LANE":"３８０巷","ALLEY":"７７弄","HOUSE_NO":"５０號","E_COORD97":174948.37038400001,"N_COORD97":2545998.5435799998,"ADDRESS":"大同街３８０巷７７弄５０號","OBJECTID":662101},"geometry":{"x":174948.37038400024,"y":2545998.5435830038}},{"attributes":{"ID":662129,"DIS_CODE":0,"TOWNNAME":"永康區","LI":"北灣里","LIN":"13鄰","STREET":"大灣路","SECT":" ","MAREA":" ","LANE":"４０巷","ALLEY":" ","HOUSE_NO":"５號","E_COORD97":175284.949039,"N_COORD97":2545896.4144700002,"ADDRESS":"大灣路４０巷５號","OBJECTID":662102},"geometry":{"x":175284.94903900009,"y":2545896.4144710042}},{"attributes":{"ID":662130,"DIS_CODE":0,"TOWNNAME":"後壁區","LI":"嘉苳里","LIN":"3鄰","STREET":" ","SECT":" ","MAREA":"下茄苳","LANE":" ","ALLEY":" ","HOUSE_NO":"３３號","E_COORD97":185223.934025,"N_COORD97":2583443.92209,"ADDRESS":"下茄苳３３號","OBJECTID":662103},"geometry":{"x":185223.93402500078,"y":2583443.9220950026}},{"attributes":{"ID":662131,"DIS_CODE":0,"TOWNNAME":"後壁區","LI":"嘉苳里","LIN":"5鄰","STREET":" ","SECT":" ","MAREA":"下茄苳","LANE":" ","ALLEY":" ","HOUSE_NO":"５８號之５","E_COORD97":185028.75173399999,"N_COORD97":2583181.34974,"ADDRESS":"下茄苳５８號之５","OBJECTID":662104},"geometry":{"x":185028.7517339997,"y":2583181.3497370016}},{"attributes":{"ID":662132,"DIS_CODE":0,"TOWNNAME":"永康區","LI":"北灣里","LIN":"13鄰","STREET":"大灣路","SECT":" ","MAREA":" ","LANE":"４０巷","ALLEY":" ","HOUSE_NO":"７號","E_COORD97":175280.880749,"N_COORD97":2545899.8011400001,"ADDRESS":"大灣路４０巷７號","OBJECTID":662105},"geometry":{"x":175280.88074900117,"y":2545899.8011360001}},{"attributes":{"ID":662133,"DIS_CODE":0,"TOWNNAME":"後壁區","LI":"新嘉里","LIN":"12鄰","STREET":" ","SECT":" ","MAREA":"白沙屯","LANE":" ","ALLEY":" ","HOUSE_NO":"１２０號之１１","E_COORD97":179683.57352000001,"N_COORD97":2585519.9612199999,"ADDRESS":"白沙屯１２０號之１１","OBJECTID":662106},"geometry":{"x":179683.57352000196,"y":2585519.9612160008}},{"attributes":{"ID":662134,"DIS_CODE":0,"TOWNNAME":"後壁區","LI":"新嘉里","LIN":"13鄰","STREET":" ","SECT":" ","MAREA":"白沙屯","LANE":" ","ALLEY":" ","HOUSE_NO":"１３８號","E_COORD97":179666.155597,"N_COORD97":2585409.9369399999,"ADDRESS":"白沙屯１３８號","OBJECTID":662107},"geometry":{"x":179666.15559699945,"y":2585409.9369430002}},{"attributes":{"ID":662135,"DIS_CODE":0,"TOWNNAME":"後壁區","LI":"新嘉里","LIN":"1鄰","STREET":" ","SECT":" ","MAREA":"白沙屯","LANE":" ","ALLEY":" ","HOUSE_NO":"１號之２８","E_COORD97":180906.215604,"N_COORD97":2586633.6871199999,"ADDRESS":"白沙屯１號之２８","OBJECTID":662108},"geometry":{"x":180906.21560400166,"y":2586633.6871150006}},{"attributes":{"ID":662136,"DIS_CODE":0,"TOWNNAME":"後壁區","LI":"新嘉里","LIN":"22鄰","STREET":" ","SECT":" ","MAREA":"白沙屯","LANE":" ","ALLEY":" ","HOUSE_NO":"２３６號","E_COORD97":179001.73936899999,"N_COORD97":2585685.2092900001,"ADDRESS":"白沙屯２３６號","OBJECTID":662109},"geometry":{"x":179001.73936900124,"y":2585685.2092940025}},{"attributes":{"ID":662137,"DIS_CODE":0,"TOWNNAME":"後壁區","LI":"頂安里","LIN":"10鄰","STREET":" ","SECT":" ","MAREA":"頂寮","LANE":" ","ALLEY":" ","HOUSE_NO":"２２７號之１８","E_COORD97":184160.401683,"N_COORD97":2582754.1420300002,"ADDRESS":"頂寮２２７號之１８","OBJECTID":662110},"geometry":{"x":184160.40168299992,"y":2582754.1420290023}},{"attributes":{"ID":662138,"DIS_CODE":0,"TOWNNAME":"後壁區","LI":"福安里","LIN":"14鄰","STREET":" ","SECT":" ","MAREA":"下寮","LANE":" ","ALLEY":" ","HOUSE_NO":"１６２號","E_COORD97":183963.81213899999,"N_COORD97":2580981.8093599998,"ADDRESS":"下寮１６２號","OBJECTID":662111},"geometry":{"x":183963.81213899981,"y":2580981.8093609996}},{"attributes":{"ID":662139,"DIS_CODE":0,"TOWNNAME":"後壁區","LI":"福安里","LIN":"14鄰","STREET":" ","SECT":" ","MAREA":"下寮","LANE":" ","ALLEY":" ","HOUSE_NO":"１５９號","E_COORD97":183964.60494399999,"N_COORD97":2580963.3223299999,"ADDRESS":"下寮１５９號","OBJECTID":662112},"geometry":{"x":183964.60494400095,"y":2580963.3223300017}},{"attributes":{"ID":662140,"DIS_CODE":0,"TOWNNAME":"後壁區","LI":"新東里","LIN":"9鄰","STREET":" ","SECT":" ","MAREA":"新港東","LANE":" ","ALLEY":" ","HOUSE_NO":"１００號之８","E_COORD97":181905.25243600001,"N_COORD97":2582272.62249,"ADDRESS":"新港東１００號之８","OBJECTID":662113},"geometry":{"x":181905.25243600085,"y":2582272.6224850044}},{"attributes":{"ID":662141,"DIS_CODE":0,"TOWNNAME":"關廟區","LI":"五甲里","LIN":"11鄰","STREET":"五甲路","SECT":" ","MAREA":" ","LANE":" ","ALLEY":" ","HOUSE_NO":"２４０號","E_COORD97":180963.43601199999,"N_COORD97":2538894.9207199998,"ADDRESS":"五甲路２４０號","OBJECTID":662114},"geometry":{"x":180963.43601199985,"y":2538894.9207150042}},{"attributes":{"ID":662142,"DIS_CODE":0,"TOWNNAME":"仁德區","LI":"仁德里","LIN":"25鄰","STREET":"淨修街","SECT":" ","MAREA":" ","LANE":"１７５巷","ALLEY":" ","HOUSE_NO":"２１號","E_COORD97":171961.70884400001,"N_COORD97":2541284.3215899998,"ADDRESS":"淨修街１７５巷２１號","OBJECTID":662115},"geometry":{"x":171961.7088440014,"y":2541284.321587}},{"attributes":{"ID":662143,"DIS_CODE":0,"TOWNNAME":"歸仁區","LI":"大廟里","LIN":"3鄰","STREET":"西埔三街","SECT":" ","MAREA":" ","LANE":"５２巷","ALLEY":" ","HOUSE_NO":"１０１號","E_COORD97":176460.638473,"N_COORD97":2543995.96618,"ADDRESS":"西埔三街５２巷１０１號","OBJECTID":662116},"geometry":{"x":176460.63847300131,"y":2543995.9661759995}},{"attributes":{"ID":662144,"DIS_CODE":0,"TOWNNAME":"歸仁區","LI":"大廟里","LIN":"3鄰","STREET":"西埔三街","SECT":" ","MAREA":" ","LANE":"５２巷","ALLEY":" ","HOUSE_NO":"９９號","E_COORD97":176501.34479999999,"N_COORD97":2543993.0028499998,"ADDRESS":"西埔三街５２巷９９號","OBJECTID":662117},"geometry":{"x":176501.34480000008,"y":2543993.0028450023}},{"attributes":{"ID":662145,"DIS_CODE":0,"TOWNNAME":"永康區","LI":"北灣里","LIN":"21鄰","STREET":"大同街","SECT":" ","MAREA":" ","LANE":"３８０巷","ALLEY":" ","HOUSE_NO":"８１號","E_COORD97":174922.30037499999,"N_COORD97":2545959.5969400001,"ADDRESS":"大同街３８０巷８１號","OBJECTID":662118},"geometry":{"x":174922.30037500057,"y":2545959.5969370045}},{"attributes":{"ID":662146,"DIS_CODE":0,"TOWNNAME":"永康區","LI":"北灣里","LIN":"21鄰","STREET":"大同街","SECT":" ","MAREA":" ","LANE":"３８０巷","ALLEY":" ","HOUSE_NO":"８３號","E_COORD97":174925.47964400001,"N_COORD97":2545956.6336099999,"ADDRESS":"大同街３８０巷８３號","OBJECTID":662119},"geometry":{"x":174925.47964400053,"y":2545956.6336050015}},{"attributes":{"ID":662147,"DIS_CODE":0,"TOWNNAME":"永康區","LI":"北灣里","LIN":"21鄰","STREET":"大同街","SECT":" ","MAREA":" ","LANE":"３８０巷","ALLEY":" ","HOUSE_NO":"８５號","E_COORD97":174928.658914,"N_COORD97":2545952.6119400002,"ADDRESS":"大同街３８０巷８５號","OBJECTID":662120},"geometry":{"x":174928.6589139998,"y":2545952.6119410004}},{"attributes":{"ID":662148,"DIS_CODE":0,"TOWNNAME":"永康區","LI":"北灣里","LIN":"13鄰","STREET":"大灣路","SECT":" ","MAREA":" ","LANE":"４０巷","ALLEY":" ","HOUSE_NO":"９號","E_COORD97":175276.047085,"N_COORD97":2545903.3994700001,"ADDRESS":"大灣路４０巷９號","OBJECTID":662121},"geometry":{"x":175276.04708499927,"y":2545903.3994669989}},{"attributes":{"ID":662149,"DIS_CODE":0,"TOWNNAME":"永康區","LI":"正強里","LIN":"21鄰","STREET":"中正路","SECT":" ","MAREA":" ","LANE":" ","ALLEY":" ","HOUSE_NO":"１１１號","E_COORD97":173448.814977,"N_COORD97":2547875.17924,"ADDRESS":"中正路１１１號","OBJECTID":662122},"geometry":{"x":173448.8149769986,"y":2547875.1792360004}},{"attributes":{"ID":662150,"DIS_CODE":0,"TOWNNAME":"佳里區","LI":"建南里","LIN":"18鄰","STREET":"平等街","SECT":" ","MAREA":" ","LANE":" ","ALLEY":" ","HOUSE_NO":"１７２號","E_COORD97":165700.62948800001,"N_COORD97":2561884.9214699999,"ADDRESS":"平等街１７２號","OBJECTID":662123},"geometry":{"x":165700.62948800065,"y":2561884.9214740004}},{"attributes":{"ID":662151,"DIS_CODE":0,"TOWNNAME":"永康區","LI":"西勢里","LIN":"2鄰","STREET":"富強路","SECT":"二段","MAREA":" ","LANE":"１９巷","ALLEY":" ","HOUSE_NO":"３１號","E_COORD97":175589.016714,"N_COORD97":2546856.5162999998,"ADDRESS":"富強路二段１９巷３１號","OBJECTID":662124},"geometry":{"x":175589.01671400014,"y":2546856.5163029991}},{"attributes":{"ID":662152,"DIS_CODE":0,"TOWNNAME":"永康區","LI":"西勢里","LIN":"2鄰","STREET":"富強路","SECT":"二段","MAREA":" ","LANE":"１９巷","ALLEY":" ","HOUSE_NO":"３３號","E_COORD97":175585.62549400001,"N_COORD97":2546859.6913000001,"ADDRESS":"富強路二段１９巷３３號","OBJECTID":662125},"geometry":{"x":175585.62549399957,"y":2546859.6913020033}},{"attributes":{"ID":662153,"DIS_CODE":0,"TOWNNAME":"永康區","LI":"西勢里","LIN":"2鄰","STREET":"富強路","SECT":"二段","MAREA":" ","LANE":"１９巷","ALLEY":" ","HOUSE_NO":"３５號","E_COORD97":175582.870127,"N_COORD97":2546861.5962999999,"ADDRESS":"富強路二段１９巷３５號","OBJECTID":662126},"geometry":{"x":175582.87012700085,"y":2546861.5963010024}},{"attributes":{"ID":662154,"DIS_CODE":0,"TOWNNAME":"善化區","LI":"西關里","LIN":"2鄰","STREET":"中華路","SECT":" ","MAREA":" ","LANE":" ","ALLEY":" ","HOUSE_NO":"１４１號","E_COORD97":177211.24420399999,"N_COORD97":2559012.3388,"ADDRESS":"中華路１４１號","OBJECTID":662127},"geometry":{"x":177211.24420399964,"y":2559012.3388000019}},{"attributes":{"ID":662155,"DIS_CODE":0,"TOWNNAME":"善化區","LI":"西關里","LIN":"2鄰","STREET":"中華路","SECT":" ","MAREA":" ","LANE":" ","ALLEY":" ","HOUSE_NO":"１４３號","E_COORD97":177211.66803,"N_COORD97":2559019.3237999999,"ADDRESS":"中華路１４３號","OBJECTID":662128},"geometry":{"x":177211.66803000029,"y":2559019.3237960003}},{"attributes":{"ID":662156,"DIS_CODE":0,"TOWNNAME":"善化區","LI":"西關里","LIN":"2鄰","STREET":"中華路","SECT":" ","MAREA":" ","LANE":" ","ALLEY":" ","HOUSE_NO":"１４５號","E_COORD97":177211.87994300001,"N_COORD97":2559024.4037899999,"ADDRESS":"中華路１４５號","OBJECTID":662129},"geometry":{"x":177211.87994300108,"y":2559024.4037929997}},{"attributes":{"ID":662157,"DIS_CODE":0,"TOWNNAME":"善化區","LI":"西關里","LIN":"2鄰","STREET":"中華路","SECT":" ","MAREA":" ","LANE":" ","ALLEY":" ","HOUSE_NO":"１４７號","E_COORD97":177212.30376899999,"N_COORD97":2559029.2721199999,"ADDRESS":"中華路１４７號","OBJECTID":662130},"geometry":{"x":177212.30376899987,"y":2559029.2721240018}},{"attributes":{"ID":662158,"DIS_CODE":0,"TOWNNAME":"善化區","LI":"西關里","LIN":"2鄰","STREET":"中華路","SECT":" ","MAREA":" ","LANE":" ","ALLEY":" ","HOUSE_NO":"１４９號","E_COORD97":177212.93950899999,"N_COORD97":2559034.1404599999,"ADDRESS":"中華路１４９號","OBJECTID":662131},"geometry":{"x":177212.9395089997,"y":2559034.1404550001}},{"attributes":{"ID":662159,"DIS_CODE":0,"TOWNNAME":"善化區","LI":"西關里","LIN":"2鄰","STREET":"中華路","SECT":" ","MAREA":" ","LANE":" ","ALLEY":" ","HOUSE_NO":"１４９之１號","E_COORD97":177213.363335,"N_COORD97":2559038.7971199998,"ADDRESS":"中華路１４９之１號","OBJECTID":662132},"geometry":{"x":177213.36333500035,"y":2559038.7971190009}},{"attributes":{"ID":662160,"DIS_CODE":0,"TOWNNAME":"善化區","LI":"西關里","LIN":"2鄰","STREET":"中華路","SECT":" ","MAREA":" ","LANE":" ","ALLEY":" ","HOUSE_NO":"１４９之２號","E_COORD97":177213.999075,"N_COORD97":2559044.0887799999,"ADDRESS":"中華路１４９之２號","OBJECTID":662133},"geometry":{"x":177213.99907500111,"y":2559044.0887830015}},{"attributes":{"ID":662161,"DIS_CODE":0,"TOWNNAME":"善化區","LI":"西關里","LIN":"2鄰","STREET":"中興路","SECT":" ","MAREA":" ","LANE":" ","ALLEY":" ","HOUSE_NO":"１９１號","E_COORD97":177205.94637399999,"N_COORD97":2559044.7237800001,"ADDRESS":"中興路１９１號","OBJECTID":662134},"geometry":{"x":177205.94637400005,"y":2559044.7237820011}},{"attributes":{"ID":662162,"DIS_CODE":0,"TOWNNAME":"善化區","LI":"西關里","LIN":"2鄰","STREET":"中興路","SECT":" ","MAREA":" ","LANE":" ","ALLEY":" ","HOUSE_NO":"１９３號","E_COORD97":177200.86045800001,"N_COORD97":2559045.57045,"ADDRESS":"中興路１９３號","OBJECTID":662135},"geometry":{"x":177200.86045799963,"y":2559045.5704490021}},{"attributes":{"ID":662163,"DIS_CODE":0,"TOWNNAME":"北區","LI":"華興里","LIN":"1鄰","STREET":"開元路","SECT":" ","MAREA":" ","LANE":" ","ALLEY":" ","HOUSE_NO":"２８０號之１","E_COORD97":170291.59425699999,"N_COORD97":2545427.7936100001,"ADDRESS":"開元路２８０之１號","OBJECTID":662136},"geometry":{"x":170291.59425700177,"y":2545427.7936080024}},{"attributes":{"ID":662164,"DIS_CODE":0,"TOWNNAME":"善化區","LI":"西關里","LIN":"2鄰","STREET":"中興路","SECT":" ","MAREA":" ","LANE":" ","ALLEY":" ","HOUSE_NO":"１９９號","E_COORD97":177183.059752,"N_COORD97":2559048.11045,"ADDRESS":"中興路１９９號","OBJECTID":662137},"geometry":{"x":177183.05975199956,"y":2559048.1104470026}},{"attributes":{"ID":662165,"DIS_CODE":0,"TOWNNAME":"善化區","LI":"西關里","LIN":"2鄰","STREET":"中興路","SECT":" ","MAREA":" ","LANE":" ","ALLEY":" ","HOUSE_NO":"２０１號","E_COORD97":177176.27853099999,"N_COORD97":2559048.7454499998,"ADDRESS":"中興路２０１號","OBJECTID":662138},"geometry":{"x":177176.27853100095,"y":2559048.7454470024}},{"attributes":{"ID":662166,"DIS_CODE":0,"TOWNNAME":"善化區","LI":"西關里","LIN":"2鄰","STREET":"中華路","SECT":" ","MAREA":" ","LANE":"１３７巷","ALLEY":" ","HOUSE_NO":"６號","E_COORD97":177191.96010500001,"N_COORD97":2559009.6200899999,"ADDRESS":"中華路１３７巷６號","OBJECTID":662139},"geometry":{"x":177191.96010500193,"y":2559009.6200910006}},{"attributes":{"ID":662167,"DIS_CODE":0,"TOWNNAME":"善化區","LI":"西關里","LIN":"2鄰","STREET":"中華路","SECT":" ","MAREA":" ","LANE":"１３７巷","ALLEY":" ","HOUSE_NO":"８號","E_COORD97":177187.29801500001,"N_COORD97":2559010.8571299999,"ADDRESS":"中華路１３７巷８號","OBJECTID":662140},"geometry":{"x":177187.29801500123,"y":2559010.8571340013}},{"attributes":{"ID":662168,"DIS_CODE":0,"TOWNNAME":"善化區","LI":"西關里","LIN":"2鄰","STREET":"中華路","SECT":" ","MAREA":" ","LANE":"１３７巷","ALLEY":" ","HOUSE_NO":"１０號","E_COORD97":177182.212099,"N_COORD97":2559011.7037999998,"ADDRESS":"中華路１３７巷１０號","OBJECTID":662141},"geometry":{"x":177182.21209900081,"y":2559011.7038000021}},{"attributes":{"ID":662169,"DIS_CODE":0,"TOWNNAME":"善化區","LI":"西關里","LIN":"2鄰","STREET":"中華路","SECT":" ","MAREA":" ","LANE":"１３７巷","ALLEY":" ","HOUSE_NO":"１２號","E_COORD97":177177.12618299999,"N_COORD97":2559012.3388,"ADDRESS":"中華路１３７巷１２號","OBJECTID":662142},"geometry":{"x":177177.12618300039,"y":2559012.3388000019}},{"attributes":{"ID":662170,"DIS_CODE":0,"TOWNNAME":"善化區","LI":"西關里","LIN":"2鄰","STREET":"中華路","SECT":" ","MAREA":" ","LANE":"１３７巷","ALLEY":" ","HOUSE_NO":"１６號","E_COORD97":177172.88792000001,"N_COORD97":2559013.1854699999,"ADDRESS":"中華路１３７巷１６號","OBJECTID":662143},"geometry":{"x":177172.88792000059,"y":2559013.1854659989}},{"attributes":{"ID":662171,"DIS_CODE":0,"TOWNNAME":"善化區","LI":"西關里","LIN":"2鄰","STREET":"中華路","SECT":" ","MAREA":" ","LANE":"１３７巷","ALLEY":" ","HOUSE_NO":"１８號","E_COORD97":177167.59009099999,"N_COORD97":2559014.0321300002,"ADDRESS":"中華路１３７巷１８號","OBJECTID":662144},"geometry":{"x":177167.59009100124,"y":2559014.0321319997}},{"attributes":{"ID":662172,"DIS_CODE":0,"TOWNNAME":"北區","LI":"華興里","LIN":"1鄰","STREET":"開元路","SECT":" ","MAREA":" ","LANE":" ","ALLEY":" ","HOUSE_NO":"２９８號","E_COORD97":170334.37029699999,"N_COORD97":2545462.2540000002,"ADDRESS":"開元路２９８號","OBJECTID":662145},"geometry":{"x":170334.37029699981,"y":2545462.253998002}},{"attributes":{"ID":662173,"DIS_CODE":0,"TOWNNAME":"北區","LI":"華興里","LIN":"1鄰","STREET":"開元路","SECT":" ","MAREA":" ","LANE":" ","ALLEY":" ","HOUSE_NO":"２９６號","E_COORD97":170327.37960399999,"N_COORD97":2545458.3381699999,"ADDRESS":"開元路２９６號","OBJECTID":662146},"geometry":{"x":170327.37960399967,"y":2545458.3381670024}},{"attributes":{"ID":662174,"DIS_CODE":0,"TOWNNAME":"玉井區","LI":"竹圍里","LIN":"12鄰","STREET":" ","SECT":" ","MAREA":"竹圍","LANE":" ","ALLEY":" ","HOUSE_NO":"１２７之１號","E_COORD97":196774.59422200001,"N_COORD97":2559126.8178300001,"ADDRESS":"竹圍１２７之１號","OBJECTID":662147},"geometry":{"x":196774.59422199987,"y":2559126.8178279996}},{"attributes":{"ID":662175,"DIS_CODE":0,"TOWNNAME":"玉井區","LI":"竹圍里","LIN":"13鄰","STREET":" ","SECT":" ","MAREA":"竹圍","LANE":" ","ALLEY":" ","HOUSE_NO":"１３３號","E_COORD97":196808.91674399999,"N_COORD97":2559222.91444,"ADDRESS":"竹圍１３３號","OBJECTID":662148},"geometry":{"x":196808.91674400028,"y":2559222.914443003}},{"attributes":{"ID":662176,"DIS_CODE":0,"TOWNNAME":"玉井區","LI":"沙田里","LIN":"6鄰","STREET":" ","SECT":" ","MAREA":"沙田","LANE":" ","ALLEY":" ","HOUSE_NO":"５８號之６","E_COORD97":198209.360388,"N_COORD97":2556416.7451200001,"ADDRESS":"沙田５８號之６","OBJECTID":662149},"geometry":{"x":198209.3603880005,"y":2556416.7451249994}},{"attributes":{"ID":662177,"DIS_CODE":0,"TOWNNAME":"永康區","LI":"西勢里","LIN":"2鄰","STREET":"富強路","SECT":"二段","MAREA":" ","LANE":"１９巷","ALLEY":" ","HOUSE_NO":"３７號","E_COORD97":175579.90280899999,"N_COORD97":2546864.34797,"ADDRESS":"富強路二段１９巷３７號","OBJECTID":662150},"geometry":{"x":175579.90280899964,"y":2546864.3479660042}},{"attributes":{"ID":662178,"DIS_CODE":0,"TOWNNAME":"永康區","LI":"西勢里","LIN":"2鄰","STREET":"富強路","SECT":"二段","MAREA":" ","LANE":"１９巷","ALLEY":" ","HOUSE_NO":"３９號","E_COORD97":175577.571344,"N_COORD97":2546867.5229600002,"ADDRESS":"富強路二段１９巷３９號","OBJECTID":662151},"geometry":{"x":175577.57134400029,"y":2546867.5229640026}},{"attributes":{"ID":662179,"DIS_CODE":0,"TOWNNAME":"玉井區","LI":"沙田里","LIN":"7鄰","STREET":" ","SECT":" ","MAREA":"沙田","LANE":" ","ALLEY":" ","HOUSE_NO":"６７之２號","E_COORD97":198653.85823400001,"N_COORD97":2556306.46685,"ADDRESS":"沙田６７之２號","OBJECTID":662152},"geometry":{"x":198653.85823400225,"y":2556306.4668510016}},{"attributes":{"ID":662180,"DIS_CODE":0,"TOWNNAME":"永康區","LI":"西勢里","LIN":"2鄰","STREET":"富強路","SECT":"二段","MAREA":" ","LANE":"１９巷","ALLEY":" ","HOUSE_NO":"４１號","E_COORD97":175574.39207500001,"N_COORD97":2546869.8513000002,"ADDRESS":"富強路二段１９巷４１號","OBJECTID":662153},"geometry":{"x":175574.39207500033,"y":2546869.851296002}},{"attributes":{"ID":662181,"DIS_CODE":0,"TOWNNAME":"玉井區","LI":"沙田里","LIN":"7鄰","STREET":" ","SECT":" ","MAREA":"沙田","LANE":" ","ALLEY":" ","HOUSE_NO":"６７之２號","E_COORD97":198653.85823400001,"N_COORD97":2556306.46685,"ADDRESS":"沙田６７之２號","OBJECTID":662154},"geometry":{"x":198653.85823400225,"y":2556306.4668510016}},{"attributes":{"ID":662182,"DIS_CODE":0,"TOWNNAME":"永康區","LI":"西勢里","LIN":"2鄰","STREET":"富強路","SECT":"二段","MAREA":" ","LANE":"１９巷","ALLEY":" ","HOUSE_NO":"４３號","E_COORD97":175571.84865900001,"N_COORD97":2546872.6029599998,"ADDRESS":"富強路二段１９巷４３號","OBJECTID":662155},"geometry":{"x":175571.84865900036,"y":2546872.6029610019}},{"attributes":{"ID":662183,"DIS_CODE":0,"TOWNNAME":"玉井區","LI":"沙田里","LIN":"7鄰","STREET":" ","SECT":" ","MAREA":"沙田","LANE":" ","ALLEY":" ","HOUSE_NO":"６７號之１","E_COORD97":198642.62926099999,"N_COORD97":2556323.82351,"ADDRESS":"沙田６７號之１","OBJECTID":662156},"geometry":{"x":198642.62926100008,"y":2556323.823509004}},{"attributes":{"ID":662184,"DIS_CODE":0,"TOWNNAME":"永康區","LI":"西勢里","LIN":"2鄰","STREET":"富強路","SECT":"二段","MAREA":" ","LANE":"１９巷","ALLEY":" ","HOUSE_NO":"４５號","E_COORD97":175569.94109800001,"N_COORD97":2546875.56629,"ADDRESS":"富強路二段１９巷４５號","OBJECTID":662157},"geometry":{"x":175569.94109799992,"y":2546875.5662930012}},{"attributes":{"ID":662185,"DIS_CODE":0,"TOWNNAME":"永康區","LI":"西勢里","LIN":"2鄰","STREET":"富強路","SECT":"二段","MAREA":" ","LANE":"１９巷","ALLEY":" ","HOUSE_NO":"４７號","E_COORD97":175559.55548400001,"N_COORD97":2546876.2012900002,"ADDRESS":"富強路二段１９巷４７號","OBJECTID":662158},"geometry":{"x":175559.55548400059,"y":2546876.201293001}},{"attributes":{"ID":662186,"DIS_CODE":0,"TOWNNAME":"永康區","LI":"西勢里","LIN":"2鄰","STREET":"富強路","SECT":"二段","MAREA":" ","LANE":"１９巷","ALLEY":" ","HOUSE_NO":"４９號","E_COORD97":175553.40889699999,"N_COORD97":2546875.56629,"ADDRESS":"富強路二段１９巷４９號","OBJECTID":662159},"geometry":{"x":175553.4088970013,"y":2546875.5662930012}},{"attributes":{"ID":662187,"DIS_CODE":0,"TOWNNAME":"永康區","LI":"西勢里","LIN":"2鄰","STREET":"富強路","SECT":"二段","MAREA":" ","LANE":"１９巷","ALLEY":" ","HOUSE_NO":"５１號","E_COORD97":175546.20255300001,"N_COORD97":2546875.1429599999,"ADDRESS":"富強路二段１９巷５１號","OBJECTID":662160},"geometry":{"x":175546.20255300216,"y":2546875.1429600026}},{"attributes":{"ID":662188,"DIS_CODE":0,"TOWNNAME":"永康區","LI":"西勢里","LIN":"2鄰","STREET":"富強路","SECT":"二段","MAREA":" ","LANE":"１９巷","ALLEY":" ","HOUSE_NO":"５３號","E_COORD97":175557.85987399999,"N_COORD97":2546884.4562900001,"ADDRESS":"富強路二段１９巷５３號","OBJECTID":662161},"geometry":{"x":175557.85987400077,"y":2546884.4562880043}},{"attributes":{"ID":662189,"DIS_CODE":0,"TOWNNAME":"善化區","LI":"坐駕里","LIN":"17鄰","STREET":"中正路","SECT":" ","MAREA":" ","LANE":"１８８巷","ALLEY":" ","HOUSE_NO":"３５號","E_COORD97":177887.615407,"N_COORD97":2558311.3112699999,"ADDRESS":"中正路１８８巷３５號","OBJECTID":662162},"geometry":{"x":177887.6154070003,"y":2558311.3112669978}},{"attributes":{"ID":662190,"DIS_CODE":0,"TOWNNAME":"永康區","LI":"西灣里","LIN":"21鄰","STREET":"永大路","SECT":"二段","MAREA":" ","LANE":" ","ALLEY":" ","HOUSE_NO":"２６７號","E_COORD97":174386.67001,"N_COORD97":2545493.93933,"ADDRESS":"永大路二段２６７號","OBJECTID":662163},"geometry":{"x":174386.67001000047,"y":2545493.9393310044}},{"attributes":{"ID":662191,"DIS_CODE":0,"TOWNNAME":"永康區","LI":"西灣里","LIN":"43鄰","STREET":"永華路","SECT":" ","MAREA":" ","LANE":"１５９巷","ALLEY":" ","HOUSE_NO":"１９號","E_COORD97":174001.76645900001,"N_COORD97":2545515.42349,"ADDRESS":"永華路１５９巷１９號","OBJECTID":662164},"geometry":{"x":174001.76645900123,"y":2545515.4234859999}},{"attributes":{"ID":662192,"DIS_CODE":0,"TOWNNAME":"永康區","LI":"東灣里","LIN":"26鄰","STREET":"大灣一街","SECT":" ","MAREA":" ","LANE":" ","ALLEY":" ","HOUSE_NO":"２１８號","E_COORD97":174872.886279,"N_COORD97":2544568.2156600002,"ADDRESS":"大灣一街２１８號","OBJECTID":662165},"geometry":{"x":174872.8862790009,"y":2544568.2156640012}},{"attributes":{"ID":662193,"DIS_CODE":0,"TOWNNAME":"永康區","LI":"東灣里","LIN":"26鄰","STREET":"大灣一街","SECT":" ","MAREA":" ","LANE":" ","ALLEY":" ","HOUSE_NO":"２１６號","E_COORD97":174865.46798300001,"N_COORD97":2544570.5440000002,"ADDRESS":"大灣一街２１６號","OBJECTID":662166},"geometry":{"x":174865.46798300091,"y":2544570.5439960044}},{"attributes":{"ID":662194,"DIS_CODE":0,"TOWNNAME":"新市區","LI":"港墘里","LIN":"21鄰","STREET":"華美街","SECT":" ","MAREA":" ","LANE":"７巷","ALLEY":" ","HOUSE_NO":"１０號","E_COORD97":178049.847507,"N_COORD97":2552795.1799400002,"ADDRESS":"華美街７巷１０號","OBJECTID":662167},"geometry":{"x":178049.84750699997,"y":2552795.1799410023}},{"attributes":{"ID":662195,"DIS_CODE":0,"TOWNNAME":"佳里區","LI":"建南里","LIN":"5鄰","STREET":"公園路","SECT":" ","MAREA":" ","LANE":" ","ALLEY":" ","HOUSE_NO":"１９０號","E_COORD97":165324.810252,"N_COORD97":2561902.8679,"ADDRESS":"公園路１９０號","OBJECTID":662168},"geometry":{"x":165324.81025199965,"y":2561902.8678959981}},{"attributes":{"ID":662196,"DIS_CODE":0,"TOWNNAME":"新市區","LI":"港墘里","LIN":"21鄰","STREET":"華美街","SECT":" ","MAREA":" ","LANE":"７巷","ALLEY":" ","HOUSE_NO":"１２號","E_COORD97":178045.82202600001,"N_COORD97":2552795.1799400002,"ADDRESS":"華美街７巷１２號","OBJECTID":662169},"geometry":{"x":178045.82202600129,"y":2552795.1799410023}},{"attributes":{"ID":662197,"DIS_CODE":0,"TOWNNAME":"新市區","LI":"港墘里","LIN":"21鄰","STREET":"華美街","SECT":" ","MAREA":" ","LANE":"７巷","ALLEY":" ","HOUSE_NO":"１６號","E_COORD97":178041.37281,"N_COORD97":2552794.9682700001,"ADDRESS":"華美街７巷１６號","OBJECTID":662170},"geometry":{"x":178041.37281000055,"y":2552794.968274001}},{"attributes":{"ID":662198,"DIS_CODE":0,"TOWNNAME":"新市區","LI":"港墘里","LIN":"21鄰","STREET":"華美街","SECT":" ","MAREA":" ","LANE":"７巷","ALLEY":" ","HOUSE_NO":"１８號","E_COORD97":178035.86425700001,"N_COORD97":2552794.3332799999,"ADDRESS":"華美街７巷１８號","OBJECTID":662171},"geometry":{"x":178035.86425700132,"y":2552794.3332749996}},{"attributes":{"ID":662199,"DIS_CODE":0,"TOWNNAME":"新市區","LI":"港墘里","LIN":"21鄰","STREET":"華美街","SECT":" ","MAREA":" ","LANE":"７巷","ALLEY":" ","HOUSE_NO":"２０號","E_COORD97":178030.35570399999,"N_COORD97":2552793.48661,"ADDRESS":"華美街７巷２０號","OBJECTID":662172},"geometry":{"x":178030.35570400022,"y":2552793.4866080042}},{"attributes":{"ID":662200,"DIS_CODE":0,"TOWNNAME":"新市區","LI":"港墘里","LIN":"21鄰","STREET":"華美街","SECT":" ","MAREA":" ","LANE":"７巷","ALLEY":" ","HOUSE_NO":"２２號","E_COORD97":178024.84715099999,"N_COORD97":2552792.8516099998,"ADDRESS":"華美街７巷２２號","OBJECTID":662173},"geometry":{"x":178024.84715100098,"y":2552792.8516089991}},{"attributes":{"ID":662201,"DIS_CODE":0,"TOWNNAME":"新市區","LI":"港墘里","LIN":"22鄰","STREET":"南昌街","SECT":" ","MAREA":" ","LANE":" ","ALLEY":" ","HOUSE_NO":"２號","E_COORD97":178008.95709499999,"N_COORD97":2552791.3699400001,"ADDRESS":"南昌街２號","OBJECTID":662174},"geometry":{"x":178008.95709499996,"y":2552791.3699430022}},{"attributes":{"ID":662202,"DIS_CODE":0,"TOWNNAME":"新市區","LI":"港墘里","LIN":"22鄰","STREET":"南昌街","SECT":" ","MAREA":" ","LANE":" ","ALLEY":" ","HOUSE_NO":"６號","E_COORD97":178008.32149199999,"N_COORD97":2552797.08494,"ADDRESS":"南昌街６號","OBJECTID":662175},"geometry":{"x":178008.32149200141,"y":2552797.0849400014}},{"attributes":{"ID":662203,"DIS_CODE":0,"TOWNNAME":"新市區","LI":"港墘里","LIN":"22鄰","STREET":"南昌街","SECT":" ","MAREA":" ","LANE":" ","ALLEY":" ","HOUSE_NO":"８號","E_COORD97":178007.47402299999,"N_COORD97":2552803.0115999999,"ADDRESS":"南昌街８號","OBJECTID":662176},"geometry":{"x":178007.47402300034,"y":2552803.0116030015}},{"attributes":{"ID":662204,"DIS_CODE":0,"TOWNNAME":"安南區","LI":"溪心里","LIN":"11鄰","STREET":"智安四街","SECT":" ","MAREA":" ","LANE":" ","ALLEY":" ","HOUSE_NO":"１７號","E_COORD97":166342.02491199999,"N_COORD97":2550055.0131299999,"ADDRESS":"智安四街１７號","OBJECTID":662177},"geometry":{"x":166342.02491200063,"y":2550055.0131330024}},{"attributes":{"ID":662205,"DIS_CODE":0,"TOWNNAME":"安南區","LI":"溪心里","LIN":"11鄰","STREET":"智安四街","SECT":" ","MAREA":" ","LANE":" ","ALLEY":" ","HOUSE_NO":"１９號","E_COORD97":166338.84727599999,"N_COORD97":2550059.6697999998,"ADDRESS":"智安四街１９號","OBJECTID":662178},"geometry":{"x":166338.84727600031,"y":2550059.6697969977}},{"attributes":{"ID":662206,"DIS_CODE":0,"TOWNNAME":"安南區","LI":"溪心里","LIN":"11鄰","STREET":"智安四街","SECT":" ","MAREA":" ","LANE":" ","ALLEY":" ","HOUSE_NO":"２１號","E_COORD97":166336.51701000001,"N_COORD97":2550063.0564600001,"ADDRESS":"智安四街２１號","OBJECTID":662179},"geometry":{"x":166336.51701000147,"y":2550063.0564620029}},{"attributes":{"ID":662207,"DIS_CODE":0,"TOWNNAME":"安南區","LI":"溪心里","LIN":"11鄰","STREET":"智安四街","SECT":" ","MAREA":" ","LANE":" ","ALLEY":" ","HOUSE_NO":"１５號","E_COORD97":166343.93149300001,"N_COORD97":2550051.4147999999,"ADDRESS":"智安四街１５號","OBJECTID":662180},"geometry":{"x":166343.93149300013,"y":2550051.4148019999}},{"attributes":{"ID":662208,"DIS_CODE":0,"TOWNNAME":"安南區","LI":"溪心里","LIN":"11鄰","STREET":"仁安八街","SECT":" ","MAREA":" ","LANE":" ","ALLEY":" ","HOUSE_NO":"４３號","E_COORD97":166276.35377700001,"N_COORD97":2549947.4865199998,"ADDRESS":"仁安八街４３號","OBJECTID":662181},"geometry":{"x":166276.35377699975,"y":2549947.4865240008}},{"attributes":{"ID":662209,"DIS_CODE":0,"TOWNNAME":"玉井區","LI":"望明里","LIN":"16鄰","STREET":" ","SECT":" ","MAREA":"望明","LANE":" ","ALLEY":" ","HOUSE_NO":"１６３號之１","E_COORD97":191757.987643,"N_COORD97":2555458.2965199999,"ADDRESS":"望明１６３號之１","OBJECTID":662182},"geometry":{"x":191757.9876430016,"y":2555458.2965149991}},{"attributes":{"ID":662210,"DIS_CODE":0,"TOWNNAME":"安南區","LI":"淵東里","LIN":"4鄰","STREET":"仁安路","SECT":" ","MAREA":" ","LANE":" ","ALLEY":" ","HOUSE_NO":"２０３號","E_COORD97":165927.764669,"N_COORD97":2550255.4269099999,"ADDRESS":"仁安路２０３號","OBJECTID":662183},"geometry":{"x":165927.7646690011,"y":2550255.4269090015}},{"attributes":{"ID":662211,"DIS_CODE":0,"TOWNNAME":"玉井區","LI":"望明里","LIN":"16鄰","STREET":" ","SECT":" ","MAREA":"望明","LANE":" ","ALLEY":" ","HOUSE_NO":"１６３號","E_COORD97":191749.937836,"N_COORD97":2555473.3248399999,"ADDRESS":"望明１６３號","OBJECTID":662184},"geometry":{"x":191749.93783599976,"y":2555473.3248399999}},{"attributes":{"ID":662212,"DIS_CODE":0,"TOWNNAME":"安南區","LI":"淵東里","LIN":"4鄰","STREET":"海佃路","SECT":"三段","MAREA":" ","LANE":" ","ALLEY":" ","HOUSE_NO":"２４３號","E_COORD97":165937.93310299999,"N_COORD97":2550261.3535699998,"ADDRESS":"海佃路三段２４３號","OBJECTID":662185},"geometry":{"x":165937.93310300168,"y":2550261.353571998}},{"attributes":{"ID":662213,"DIS_CODE":0,"TOWNNAME":"安南區","LI":"淵東里","LIN":"4鄰","STREET":"海佃路","SECT":"三段","MAREA":" ","LANE":" ","ALLEY":" ","HOUSE_NO":"２４５號","E_COORD97":165934.33178199999,"N_COORD97":2550266.4335699999,"ADDRESS":"海佃路三段２４５號","OBJECTID":662186},"geometry":{"x":165934.33178200107,"y":2550266.4335689973}},{"attributes":{"ID":662214,"DIS_CODE":0,"TOWNNAME":"安南區","LI":"淵東里","LIN":"4鄰","STREET":"海佃路","SECT":"三段","MAREA":" ","LANE":" ","ALLEY":" ","HOUSE_NO":"２４７號","E_COORD97":165931.15414699999,"N_COORD97":2550269.1852299999,"ADDRESS":"海佃路三段２４７號","OBJECTID":662187},"geometry":{"x":165931.15414700098,"y":2550269.185233999}},{"attributes":{"ID":662215,"DIS_CODE":0,"TOWNNAME":"安南區","LI":"淵東里","LIN":"4鄰","STREET":"海佃路","SECT":"三段","MAREA":" ","LANE":" ","ALLEY":" ","HOUSE_NO":"２４９號","E_COORD97":165927.34098400001,"N_COORD97":2550272.1485700002,"ADDRESS":"海佃路三段２４９號","OBJECTID":662188},"geometry":{"x":165927.34098400082,"y":2550272.148566002}},{"attributes":{"ID":662216,"DIS_CODE":0,"TOWNNAME":"安南區","LI":"淵東里","LIN":"4鄰","STREET":"海佃路","SECT":"三段","MAREA":" ","LANE":" ","ALLEY":" ","HOUSE_NO":"２５１號","E_COORD97":165924.58703299999,"N_COORD97":2550274.05357,"ADDRESS":"海佃路三段２５１號","OBJECTID":662189},"geometry":{"x":165924.58703300077,"y":2550274.0535650011}},{"attributes":{"ID":662217,"DIS_CODE":0,"TOWNNAME":"安南區","LI":"淵東里","LIN":"4鄰","STREET":"海佃路","SECT":"三段","MAREA":" ","LANE":" ","ALLEY":" ","HOUSE_NO":"２５５號","E_COORD97":165919.92650100001,"N_COORD97":2550280.40356,"ADDRESS":"海佃路三段２５５號","OBJECTID":662190},"geometry":{"x":165919.92650100123,"y":2550280.403562}},{"attributes":{"ID":662218,"DIS_CODE":0,"TOWNNAME":"安南區","LI":"淵東里","LIN":"4鄰","STREET":"海佃路","SECT":"三段","MAREA":" ","LANE":" ","ALLEY":" ","HOUSE_NO":"２５９號","E_COORD97":165914.4186,"N_COORD97":2550286.9652200001,"ADDRESS":"海佃路三段２５９號","OBJECTID":662191},"geometry":{"x":165914.41860000137,"y":2550286.9652249999}},{"attributes":{"ID":662219,"DIS_CODE":0,"TOWNNAME":"麻豆區","LI":"中興里","LIN":"15鄰","STREET":"三民路","SECT":" ","MAREA":" ","LANE":" ","ALLEY":" ","HOUSE_NO":"５２號之２","E_COORD97":172782.306587,"N_COORD97":2564468.0910899998,"ADDRESS":"三民路５２號之２","OBJECTID":662192},"geometry":{"x":172782.30658700038,"y":2564468.0910870042}},{"attributes":{"ID":662220,"DIS_CODE":0,"TOWNNAME":"關廟區","LI":"關廟里","LIN":"14鄰","STREET":"民生街","SECT":" ","MAREA":" ","LANE":"１１５巷","ALLEY":"２２弄","HOUSE_NO":"１３號","E_COORD97":180591.75007800001,"N_COORD97":2539682.5430299998,"ADDRESS":"民生街１１５巷２２弄１３號","OBJECTID":662193},"geometry":{"x":180591.75007800106,"y":2539682.5430270005}},{"attributes":{"ID":662221,"DIS_CODE":0,"TOWNNAME":"佳里區","LI":"鎮山里","LIN":"6鄰","STREET":"平等東街","SECT":" ","MAREA":" ","LANE":"３５巷","ALLEY":" ","HOUSE_NO":"１５號","E_COORD97":166288.475144,"N_COORD97":2561937.7928800001,"ADDRESS":"平等東街３５巷１５號","OBJECTID":662194},"geometry":{"x":166288.47514400072,"y":2561937.7928770017}},{"attributes":{"ID":662222,"DIS_CODE":0,"TOWNNAME":"佳里區","LI":"鎮山里","LIN":"6鄰","STREET":"平等東街","SECT":" ","MAREA":" ","LANE":"３５巷","ALLEY":" ","HOUSE_NO":"１７號","E_COORD97":166288.68702400001,"N_COORD97":2561933.3478799998,"ADDRESS":"平等東街３５巷１７號","OBJECTID":662195},"geometry":{"x":166288.68702400103,"y":2561933.3478800021}},{"attributes":{"ID":662223,"DIS_CODE":0,"TOWNNAME":"麻豆區","LI":"南勢里","LIN":"14鄰","STREET":" ","SECT":" ","MAREA":"南勢","LANE":" ","ALLEY":" ","HOUSE_NO":"２８號之２","E_COORD97":174377.77116500001,"N_COORD97":2565016.0566599998,"ADDRESS":"南勢２８號之２","OBJECTID":662196},"geometry":{"x":174377.77116500027,"y":2565016.056660004}},{"attributes":{"ID":662224,"DIS_CODE":0,"TOWNNAME":"善化區","LI":"六德里","LIN":"4鄰","STREET":" ","SECT":" ","MAREA":"六分寮","LANE":" ","ALLEY":" ","HOUSE_NO":"２２６之１號","E_COORD97":178703.63062000001,"N_COORD97":2561717.5120799998,"ADDRESS":"六分寮２２６之１號","OBJECTID":662197},"geometry":{"x":178703.63062000088,"y":2561717.5120790005}},{"attributes":{"ID":662225,"DIS_CODE":0,"TOWNNAME":"北區","LI":"仁愛里","LIN":"3鄰","STREET":"勝利路","SECT":" ","MAREA":" ","LANE":"２０６巷","ALLEY":" ","HOUSE_NO":"１２號","E_COORD97":169984.67339499999,"N_COORD97":2544979.9485200001,"ADDRESS":"勝利路２０６巷１２號","OBJECTID":662198},"geometry":{"x":169984.6733950004,"y":2544979.9485219996}},{"attributes":{"ID":662226,"DIS_CODE":0,"TOWNNAME":"北區","LI":"大道里","LIN":"3鄰","STREET":"大武街","SECT":" ","MAREA":" ","LANE":"２巷","ALLEY":" ","HOUSE_NO":"３８號","E_COORD97":169648.69644299999,"N_COORD97":2545489.9590799999,"ADDRESS":"大武街２巷３８號","OBJECTID":662199},"geometry":{"x":169648.69644300081,"y":2545489.9590799995}},{"attributes":{"ID":662227,"DIS_CODE":0,"TOWNNAME":"安南區","LI":"公親里","LIN":"2鄰","STREET":"公學路","SECT":"一段","MAREA":" ","LANE":" ","ALLEY":" ","HOUSE_NO":"２５８號","E_COORD97":167958.34916799999,"N_COORD97":2553006.2657099999,"ADDRESS":"公學路一段２５８號","OBJECTID":662200},"geometry":{"x":167958.34916800167,"y":2553006.2657060008}}]}