{"displayFieldName":"TOWNNAME","fieldAliases":{"ID":"ID","DIS_CODE":"DIS_CODE","TOWNNAME":"TOWNNAME","LI":"LI","LIN":"LIN","STREET":"STREET","SECT":"SECT","MAREA":"MAREA","LANE":"LANE","ALLEY":"ALLEY","HOUSE_NO":"HOUSE_NO","E_COORD97":"E_COORD97","N_COORD97":"N_COORD97","ADDRESS":"ADDRESS","OBJECTID":"OBJECTID"},"geometryType":"esriGeometryPoint","spatialReference":{"wkid":102443,"latestWkid":3826},"fields":[{"name":"ID","type":"esriFieldTypeDouble","alias":"ID"},{"name":"DIS_CODE","type":"esriFieldTypeInteger","alias":"DIS_CODE"},{"name":"TOWNNAME","type":"esriFieldTypeString","alias":"TOWNNAME","length":8},{"name":"LI","type":"esriFieldTypeString","alias":"LI","length":8},{"name":"LIN","type":"esriFieldTypeString","alias":"LIN","length":12},{"name":"STREET","type":"esriFieldTypeString","alias":"STREET","length":20},{"name":"SECT","type":"esriFieldTypeString","alias":"SECT","length":8},{"name":"MAREA","type":"esriFieldTypeString","alias":"MAREA","length":12},{"name":"LANE","type":"esriFieldTypeString","alias":"LANE","length":10},{"name":"ALLEY","type":"esriFieldTypeString","alias":"ALLEY","length":10},{"name":"HOUSE_NO","type":"esriFieldTypeString","alias":"HOUSE_NO","length":20},{"name":"E_COORD97","type":"esriFieldTypeDouble","alias":"E_COORD97"},{"name":"N_COORD97","type":"esriFieldTypeDouble","alias":"N_COORD97"},{"name":"ADDRESS","type":"esriFieldTypeString","alias":"ADDRESS","length":50},{"name":"OBJECTID","type":"esriFieldTypeOID","alias":"OBJECTID"}],"features":[{"attributes":{"ID":265405,"DIS_CODE":0,"TOWNNAME":"安南區","LI":"頂安里","LIN":"13鄰","STREET":"安中路","SECT":"一段","MAREA":" ","LANE":"３７９巷","ALLEY":" ","HOUSE_NO":"３１號","E_COORD97":168363.13,"N_COORD97":2548675.1299999999,"ADDRESS":"安中路一段３７９巷３１號","OBJECTID":265401},"geometry":{"x":168363.13000000175,"y":2548675.1300000008}},{"attributes":{"ID":265406,"DIS_CODE":0,"TOWNNAME":"安南區","LI":"安慶里","LIN":"13鄰","STREET":"培安路","SECT":" ","MAREA":" ","LANE":"２８５巷","ALLEY":" ","HOUSE_NO":"２７號","E_COORD97":169413.76000000001,"N_COORD97":2548867.6800000002,"ADDRESS":"培安路２８５巷２７號","OBJECTID":265402},"geometry":{"x":169413.76000000071,"y":2548867.6800000034}},{"attributes":{"ID":265407,"DIS_CODE":0,"TOWNNAME":"安南區","LI":"安慶里","LIN":"13鄰","STREET":"培安路","SECT":" ","MAREA":" ","LANE":"２８５巷","ALLEY":" ","HOUSE_NO":"２９號","E_COORD97":169417.57000000001,"N_COORD97":2548866.73,"ADDRESS":"培安路２８５巷２９號","OBJECTID":265403},"geometry":{"x":169417.57000000123,"y":2548866.7300000004}},{"attributes":{"ID":265408,"DIS_CODE":0,"TOWNNAME":"永康區","LI":"勝利里","LIN":"22鄰","STREET":"勝華街","SECT":" ","MAREA":" ","LANE":" ","ALLEY":" ","HOUSE_NO":"３３號","E_COORD97":171477.23999999999,"N_COORD97":2545201.1000000001,"ADDRESS":"勝華街３３號","OBJECTID":265404},"geometry":{"x":171477.24000000115,"y":2545201.1000000015}},{"attributes":{"ID":265409,"DIS_CODE":0,"TOWNNAME":"官田區","LI":"隆本里","LIN":"22鄰","STREET":"勝利路","SECT":" ","MAREA":" ","LANE":" ","ALLEY":" ","HOUSE_NO":"１０６號","E_COORD97":180019.35999999999,"N_COORD97":2566025.73,"ADDRESS":"勝利路１０６號","OBJECTID":265405},"geometry":{"x":180019.36000000034,"y":2566025.7300000004}},{"attributes":{"ID":265410,"DIS_CODE":0,"TOWNNAME":"官田區","LI":"隆本里","LIN":"22鄰","STREET":"勝利路","SECT":" ","MAREA":" ","LANE":" ","ALLEY":" ","HOUSE_NO":"１０８號","E_COORD97":180024.59,"N_COORD97":2566031.21,"ADDRESS":"勝利路１０８號","OBJECTID":265406},"geometry":{"x":180024.59000000171,"y":2566031.2100000028}},{"attributes":{"ID":265411,"DIS_CODE":0,"TOWNNAME":"官田區","LI":"隆本里","LIN":"22鄰","STREET":"勝利路","SECT":" ","MAREA":" ","LANE":" ","ALLEY":" ","HOUSE_NO":"１１８號","E_COORD97":180032.67000000001,"N_COORD97":2566035.3700000001,"ADDRESS":"勝利路１１８號","OBJECTID":265407},"geometry":{"x":180032.67000000179,"y":2566035.370000001}},{"attributes":{"ID":265412,"DIS_CODE":0,"TOWNNAME":"官田區","LI":"隆本里","LIN":"22鄰","STREET":"勝利路","SECT":" ","MAREA":" ","LANE":" ","ALLEY":" ","HOUSE_NO":"１２０號","E_COORD97":180039.04999999999,"N_COORD97":2566036.5499999998,"ADDRESS":"勝利路１２０號","OBJECTID":265408},"geometry":{"x":180039.05000000075,"y":2566036.5500000026}},{"attributes":{"ID":265413,"DIS_CODE":0,"TOWNNAME":"官田區","LI":"隆本里","LIN":"22鄰","STREET":"勝利路","SECT":" ","MAREA":" ","LANE":" ","ALLEY":" ","HOUSE_NO":"１２２號","E_COORD97":180042.29000000001,"N_COORD97":2566039.3100000001,"ADDRESS":"勝利路１２２號","OBJECTID":265409},"geometry":{"x":180042.29000000097,"y":2566039.3100000005}},{"attributes":{"ID":265414,"DIS_CODE":0,"TOWNNAME":"安南區","LI":"安慶里","LIN":"13鄰","STREET":"培安路","SECT":" ","MAREA":" ","LANE":"２８５巷","ALLEY":" ","HOUSE_NO":"４３號","E_COORD97":169447.73999999999,"N_COORD97":2548857.8399999999,"ADDRESS":"培安路２８５巷４３號","OBJECTID":265410},"geometry":{"x":169447.74000000209,"y":2548857.8400000017}},{"attributes":{"ID":265415,"DIS_CODE":0,"TOWNNAME":"安南區","LI":"安慶里","LIN":"13鄰","STREET":"培安路","SECT":" ","MAREA":" ","LANE":"２８５巷","ALLEY":" ","HOUSE_NO":"４１號","E_COORD97":169442.01999999999,"N_COORD97":2548859.1099999999,"ADDRESS":"培安路２８５巷４１號","OBJECTID":265411},"geometry":{"x":169442.02000000048,"y":2548859.1100000013}},{"attributes":{"ID":265416,"DIS_CODE":0,"TOWNNAME":"安南區","LI":"安慶里","LIN":"13鄰","STREET":"培安路","SECT":" ","MAREA":" ","LANE":"２８５巷","ALLEY":" ","HOUSE_NO":"３９號","E_COORD97":169437.73000000001,"N_COORD97":2548860.5299999998,"ADDRESS":"培安路２８５巷３９號","OBJECTID":265412},"geometry":{"x":169437.72999999952,"y":2548860.5299999993}},{"attributes":{"ID":265417,"DIS_CODE":0,"TOWNNAME":"安南區","LI":"頂安里","LIN":"13鄰","STREET":"安中路","SECT":"一段","MAREA":" ","LANE":"３７９巷","ALLEY":" ","HOUSE_NO":"３５號","E_COORD97":168362.86944099999,"N_COORD97":2548666.2926400001,"ADDRESS":"安中路一段３７９巷３５號","OBJECTID":265413},"geometry":{"x":168362.86944100168,"y":2548666.2926360015}},{"attributes":{"ID":265418,"DIS_CODE":0,"TOWNNAME":"安南區","LI":"安慶里","LIN":"13鄰","STREET":"培安路","SECT":" ","MAREA":" ","LANE":"２８５巷","ALLEY":" ","HOUSE_NO":"３１號","E_COORD97":169421.22,"N_COORD97":2548865.6099999999,"ADDRESS":"培安路２８５巷３１號","OBJECTID":265414},"geometry":{"x":169421.21999999974,"y":2548865.6100000013}},{"attributes":{"ID":265419,"DIS_CODE":0,"TOWNNAME":"安南區","LI":"安慶里","LIN":"13鄰","STREET":"培安路","SECT":" ","MAREA":" ","LANE":"２８５巷","ALLEY":" ","HOUSE_NO":"３３號","E_COORD97":169425.82999999999,"N_COORD97":2548864.5,"ADDRESS":"培安路２８５巷３３號","OBJECTID":265415},"geometry":{"x":169425.83000000007,"y":2548864.5}},{"attributes":{"ID":265420,"DIS_CODE":0,"TOWNNAME":"官田區","LI":"隆本里","LIN":"22鄰","STREET":"勝利路","SECT":" ","MAREA":" ","LANE":" ","ALLEY":" ","HOUSE_NO":"１２６號之１","E_COORD97":180048.60000000001,"N_COORD97":2566054.6499999999,"ADDRESS":"勝利路１２６號之１","OBJECTID":265416},"geometry":{"x":180048.60000000056,"y":2566054.6500000022}},{"attributes":{"ID":265421,"DIS_CODE":0,"TOWNNAME":"官田區","LI":"隆本里","LIN":"22鄰","STREET":"勝利路","SECT":" ","MAREA":" ","LANE":" ","ALLEY":" ","HOUSE_NO":"１２６號之２","E_COORD97":180052.14999999999,"N_COORD97":2566057.27,"ADDRESS":"勝利路１２６號之２","OBJECTID":265417},"geometry":{"x":180052.1500000013,"y":2566057.2700000014}},{"attributes":{"ID":265422,"DIS_CODE":0,"TOWNNAME":"安南區","LI":"安慶里","LIN":"13鄰","STREET":"培安路","SECT":" ","MAREA":" ","LANE":"２８５巷","ALLEY":" ","HOUSE_NO":"３５號","E_COORD97":169429.95999999999,"N_COORD97":2548862.7599999998,"ADDRESS":"培安路２８５巷３５號","OBJECTID":265418},"geometry":{"x":169429.95999999996,"y":2548862.7599999998}},{"attributes":{"ID":265423,"DIS_CODE":0,"TOWNNAME":"安南區","LI":"安慶里","LIN":"13鄰","STREET":"培安路","SECT":" ","MAREA":" ","LANE":"２８５巷","ALLEY":" ","HOUSE_NO":"３７號","E_COORD97":169433.92000000001,"N_COORD97":2548861.7999999998,"ADDRESS":"培安路２８５巷３７號","OBJECTID":265419},"geometry":{"x":169433.91999999993,"y":2548861.8000000026}},{"attributes":{"ID":265424,"DIS_CODE":0,"TOWNNAME":"南區","LI":"府南里","LIN":"13鄰","STREET":"永成路","SECT":"三段","MAREA":" ","LANE":"３７２巷","ALLEY":" ","HOUSE_NO":"４３號","E_COORD97":167610.42999999999,"N_COORD97":2541001.5299999998,"ADDRESS":"永成路三段３７２巷４３號","OBJECTID":265420},"geometry":{"x":167610.43000000063,"y":2541001.5299999993}},{"attributes":{"ID":265425,"DIS_CODE":0,"TOWNNAME":"南區","LI":"府南里","LIN":"13鄰","STREET":"永成路","SECT":"三段","MAREA":" ","LANE":"３７２巷","ALLEY":" ","HOUSE_NO":"４５號","E_COORD97":167613.92999999999,"N_COORD97":2541002.7999999998,"ADDRESS":"永成路三段３７２巷４５號","OBJECTID":265421},"geometry":{"x":167613.93000000063,"y":2541002.8000000026}},{"attributes":{"ID":265426,"DIS_CODE":0,"TOWNNAME":"南區","LI":"府南里","LIN":"13鄰","STREET":"永成路","SECT":"三段","MAREA":" ","LANE":"３７２巷","ALLEY":" ","HOUSE_NO":"４７號","E_COORD97":167617.89000000001,"N_COORD97":2541004.23,"ADDRESS":"永成路三段３７２巷４７號","OBJECTID":265422},"geometry":{"x":167617.88999999966,"y":2541004.2300000004}},{"attributes":{"ID":265427,"DIS_CODE":0,"TOWNNAME":"永康區","LI":"復華里","LIN":"34鄰","STREET":"復國一路","SECT":" ","MAREA":" ","LANE":"４７５巷","ALLEY":" ","HOUSE_NO":"３２號","E_COORD97":172543.44,"N_COORD97":2546051.27,"ADDRESS":"復國一路４７５巷３２號","OBJECTID":265423},"geometry":{"x":172543.44000000041,"y":2546051.2699999996}},{"attributes":{"ID":265428,"DIS_CODE":0,"TOWNNAME":"永康區","LI":"\u25A0洲里","LIN":"34鄰","STREET":"洲尾街","SECT":" ","MAREA":" ","LANE":"１９１巷","ALLEY":" ","HOUSE_NO":"７號","E_COORD97":170851.85000000001,"N_COORD97":2548975.9199999999,"ADDRESS":"洲尾街１９１巷７號","OBJECTID":265424},"geometry":{"x":170851.85000000056,"y":2548975.9200000018}},{"attributes":{"ID":265429,"DIS_CODE":0,"TOWNNAME":"永康區","LI":"\u25A0洲里","LIN":"34鄰","STREET":"洲尾街","SECT":" ","MAREA":" ","LANE":"１９１巷","ALLEY":" ","HOUSE_NO":"２１號","E_COORD97":170781.89999999999,"N_COORD97":2548996.7599999998,"ADDRESS":"洲尾街１９１巷２１號","OBJECTID":265425},"geometry":{"x":170781.90000000037,"y":2548996.7600000016}},{"attributes":{"ID":265430,"DIS_CODE":0,"TOWNNAME":"永康區","LI":"\u25A0洲里","LIN":"34鄰","STREET":"洲尾街","SECT":" ","MAREA":" ","LANE":"１９１巷","ALLEY":" ","HOUSE_NO":"８號","E_COORD97":170793.88,"N_COORD97":2549007.0099999998,"ADDRESS":"洲尾街１９１巷８號","OBJECTID":265426},"geometry":{"x":170793.87999999989,"y":2549007.0099999998}},{"attributes":{"ID":265431,"DIS_CODE":0,"TOWNNAME":"永康區","LI":"\u25A0洲里","LIN":"34鄰","STREET":"洲尾街","SECT":" ","MAREA":" ","LANE":"１９１巷","ALLEY":" ","HOUSE_NO":"１２號","E_COORD97":170787.42999999999,"N_COORD97":2549010.2599999998,"ADDRESS":"洲尾街１９１巷１２號","OBJECTID":265427},"geometry":{"x":170787.43000000063,"y":2549010.2600000016}},{"attributes":{"ID":265432,"DIS_CODE":0,"TOWNNAME":"永康區","LI":"二王里","LIN":"34鄰","STREET":"中山南路","SECT":" ","MAREA":" ","LANE":"４９０巷","ALLEY":" ","HOUSE_NO":"１０號之１６","E_COORD97":172160.66,"N_COORD97":2546350.2400000002,"ADDRESS":"中山南路４９０巷１０號之１６","OBJECTID":265428},"geometry":{"x":172160.66000000108,"y":2546350.2400000021}},{"attributes":{"ID":265433,"DIS_CODE":0,"TOWNNAME":"永康區","LI":"二王里","LIN":"34鄰","STREET":"中山南路","SECT":" ","MAREA":" ","LANE":"４９０巷","ALLEY":" ","HOUSE_NO":"１０號之５","E_COORD97":172119.23999999999,"N_COORD97":2546373.54,"ADDRESS":"中山南路４９０巷１０號之５","OBJECTID":265429},"geometry":{"x":172119.23999999929,"y":2546373.540000001}},{"attributes":{"ID":265434,"DIS_CODE":0,"TOWNNAME":"永康區","LI":"二王里","LIN":"34鄰","STREET":"中山南路","SECT":" ","MAREA":" ","LANE":"４９０巷","ALLEY":" ","HOUSE_NO":"１０號之１７","E_COORD97":172164.20999999999,"N_COORD97":2546348.7400000002,"ADDRESS":"中山南路４９０巷１０號之１７","OBJECTID":265430},"geometry":{"x":172164.20999999996,"y":2546348.7400000039}},{"attributes":{"ID":265435,"DIS_CODE":0,"TOWNNAME":"仁德區","LI":"成功里","LIN":"34鄰","STREET":"成功一街","SECT":" ","MAREA":" ","LANE":"５７巷","ALLEY":" ","HOUSE_NO":"１３號","E_COORD97":170589.62,"N_COORD97":2540084.2599999998,"ADDRESS":"成功一街５７巷１３號","OBJECTID":265431},"geometry":{"x":170589.62000000104,"y":2540084.2600000016}},{"attributes":{"ID":265436,"DIS_CODE":0,"TOWNNAME":"仁德區","LI":"成功里","LIN":"34鄰","STREET":"成功一街","SECT":" ","MAREA":" ","LANE":"５７巷","ALLEY":" ","HOUSE_NO":"５號","E_COORD97":170568.76000000001,"N_COORD97":2540083.7599999998,"ADDRESS":"成功一街５７巷５號","OBJECTID":265432},"geometry":{"x":170568.75999999978,"y":2540083.7600000016}},{"attributes":{"ID":265437,"DIS_CODE":0,"TOWNNAME":"永康區","LI":"復華里","LIN":"34鄰","STREET":"復國一路","SECT":" ","MAREA":" ","LANE":"４７５巷","ALLEY":" ","HOUSE_NO":"５４號","E_COORD97":172543.28,"N_COORD97":2546008.5299999998,"ADDRESS":"復國一路４７５巷５４號","OBJECTID":265433},"geometry":{"x":172543.28000000119,"y":2546008.5299999993}},{"attributes":{"ID":265438,"DIS_CODE":0,"TOWNNAME":"南區","LI":"日新里","LIN":"7鄰","STREET":"利南街","SECT":" ","MAREA":" ","LANE":" ","ALLEY":" ","HOUSE_NO":"１３６號","E_COORD97":166927.67999999999,"N_COORD97":2541386.46,"ADDRESS":"利南街１３６號","OBJECTID":265434},"geometry":{"x":166927.6799999997,"y":2541386.4600000009}},{"attributes":{"ID":265439,"DIS_CODE":0,"TOWNNAME":"東區","LI":"大福里","LIN":"15鄰","STREET":"立德六路","SECT":" ","MAREA":" ","LANE":" ","ALLEY":" ","HOUSE_NO":"６號","E_COORD97":169511.82999999999,"N_COORD97":2541851.7400000002,"ADDRESS":"立德六路６號","OBJECTID":265435},"geometry":{"x":169511.83000000101,"y":2541851.7400000002}},{"attributes":{"ID":265440,"DIS_CODE":0,"TOWNNAME":"南區","LI":"竹溪里","LIN":"1鄰","STREET":"竹溪街","SECT":" ","MAREA":" ","LANE":" ","ALLEY":" ","HOUSE_NO":"１８號","E_COORD97":168981.13,"N_COORD97":2542375.3700000001,"ADDRESS":"竹溪街１８號","OBJECTID":265436},"geometry":{"x":168981.12999999989,"y":2542375.3700000048}},{"attributes":{"ID":265441,"DIS_CODE":0,"TOWNNAME":"南區","LI":"廣州里","LIN":"1鄰","STREET":"福吉路","SECT":" ","MAREA":" ","LANE":" ","ALLEY":" ","HOUSE_NO":"３５號","E_COORD97":167357.23000000001,"N_COORD97":2542588.2200000002,"ADDRESS":"福吉路３５號","OBJECTID":265437},"geometry":{"x":167357.23000000045,"y":2542588.2200000007}},{"attributes":{"ID":265442,"DIS_CODE":0,"TOWNNAME":"南區","LI":"光明里","LIN":"6鄰","STREET":"利南街","SECT":" ","MAREA":" ","LANE":" ","ALLEY":" ","HOUSE_NO":"２３７號","E_COORD97":166705.57000000001,"N_COORD97":2541672.2400000002,"ADDRESS":"利南街２３７號","OBJECTID":265438},"geometry":{"x":166705.5700000003,"y":2541672.2400000002}},{"attributes":{"ID":265443,"DIS_CODE":0,"TOWNNAME":"南區","LI":"白雪里","LIN":"4鄰","STREET":"利南街","SECT":" ","MAREA":" ","LANE":" ","ALLEY":" ","HOUSE_NO":"７５號","E_COORD97":166753.37,"N_COORD97":2541164.8999999999,"ADDRESS":"利南街７５號","OBJECTID":265439},"geometry":{"x":166753.37000000104,"y":2541164.9000000022}},{"attributes":{"ID":265444,"DIS_CODE":0,"TOWNNAME":"永康區","LI":"復華里","LIN":"34鄰","STREET":"復國一路","SECT":" ","MAREA":" ","LANE":"４７５巷","ALLEY":" ","HOUSE_NO":"４６號","E_COORD97":172543.28,"N_COORD97":2546025.7799999998,"ADDRESS":"復國一路４７５巷４６號","OBJECTID":265440},"geometry":{"x":172543.28000000119,"y":2546025.7800000012}},{"attributes":{"ID":265445,"DIS_CODE":0,"TOWNNAME":"永康區","LI":"復華里","LIN":"34鄰","STREET":"復國一路","SECT":" ","MAREA":" ","LANE":"４７５巷","ALLEY":" ","HOUSE_NO":"４８號","E_COORD97":172543.28,"N_COORD97":2546021.5299999998,"ADDRESS":"復國一路４７５巷４８號","OBJECTID":265441},"geometry":{"x":172543.28000000119,"y":2546021.5300000012}},{"attributes":{"ID":265446,"DIS_CODE":0,"TOWNNAME":"永康區","LI":"復華里","LIN":"34鄰","STREET":"復國一路","SECT":" ","MAREA":" ","LANE":"４７５巷","ALLEY":" ","HOUSE_NO":"３６號","E_COORD97":172543.44,"N_COORD97":2546043.77,"ADDRESS":"復國一路４７５巷３６號","OBJECTID":265442},"geometry":{"x":172543.44000000041,"y":2546043.7700000014}},{"attributes":{"ID":265447,"DIS_CODE":0,"TOWNNAME":"永康區","LI":"復華里","LIN":"34鄰","STREET":"復國一路","SECT":" ","MAREA":" ","LANE":"４７５巷","ALLEY":" ","HOUSE_NO":"３８號","E_COORD97":172543.45999999999,"N_COORD97":2546038.7799999998,"ADDRESS":"復國一路４７５巷３８號","OBJECTID":265443},"geometry":{"x":172543.46000000089,"y":2546038.7800000031}},{"attributes":{"ID":265448,"DIS_CODE":0,"TOWNNAME":"永康區","LI":"復華里","LIN":"34鄰","STREET":"復國一路","SECT":" ","MAREA":" ","LANE":"４７５巷","ALLEY":" ","HOUSE_NO":"５２號","E_COORD97":172543.28,"N_COORD97":2546012.7799999998,"ADDRESS":"復國一路４７５巷５２號","OBJECTID":265444},"geometry":{"x":172543.28000000119,"y":2546012.7800000012}},{"attributes":{"ID":265449,"DIS_CODE":0,"TOWNNAME":"永康區","LI":"復華里","LIN":"34鄰","STREET":"復國一路","SECT":" ","MAREA":" ","LANE":"４７５巷","ALLEY":" ","HOUSE_NO":"３４號","E_COORD97":172543.44,"N_COORD97":2546047.27,"ADDRESS":"復國一路４７５巷３４號","OBJECTID":265445},"geometry":{"x":172543.44000000041,"y":2546047.2700000014}},{"attributes":{"ID":265450,"DIS_CODE":0,"TOWNNAME":"永康區","LI":"二王里","LIN":"34鄰","STREET":"中山南路","SECT":" ","MAREA":" ","LANE":"４９０巷","ALLEY":" ","HOUSE_NO":"１０號之６","E_COORD97":172122.48999999999,"N_COORD97":2546371.29,"ADDRESS":"中山南路４９０巷１０號之６","OBJECTID":265446},"geometry":{"x":172122.49000000022,"y":2546371.290000001}},{"attributes":{"ID":265451,"DIS_CODE":0,"TOWNNAME":"永康區","LI":"二王里","LIN":"34鄰","STREET":"中山南路","SECT":" ","MAREA":" ","LANE":"４９０巷","ALLEY":" ","HOUSE_NO":"１０號之１８","E_COORD97":172167.82999999999,"N_COORD97":2546347.2400000002,"ADDRESS":"中山南路４９０巷１０號之１８","OBJECTID":265447},"geometry":{"x":172167.83000000194,"y":2546347.2400000002}},{"attributes":{"ID":265452,"DIS_CODE":0,"TOWNNAME":"永康區","LI":"二王里","LIN":"34鄰","STREET":"中山南路","SECT":" ","MAREA":" ","LANE":"４９０巷","ALLEY":" ","HOUSE_NO":"１０號之１１","E_COORD97":172141.03,"N_COORD97":2546359.79,"ADDRESS":"中山南路４９０巷１０號之１１","OBJECTID":265448},"geometry":{"x":172141.02999999933,"y":2546359.7899999991}},{"attributes":{"ID":265453,"DIS_CODE":0,"TOWNNAME":"永康區","LI":"五王里","LIN":"34鄰","STREET":"五福街","SECT":" ","MAREA":" ","LANE":"３３巷","ALLEY":" ","HOUSE_NO":"２０號","E_COORD97":171309.35000000001,"N_COORD97":2545944.4900000002,"ADDRESS":"五福街３３巷２０號","OBJECTID":265449},"geometry":{"x":171309.35000000149,"y":2545944.4900000021}},{"attributes":{"ID":265454,"DIS_CODE":0,"TOWNNAME":"永康區","LI":"二王里","LIN":"34鄰","STREET":"中山南路","SECT":" ","MAREA":" ","LANE":"４９０巷","ALLEY":" ","HOUSE_NO":"８號","E_COORD97":172096,"N_COORD97":2546388,"ADDRESS":"中山南路４９０巷８號","OBJECTID":265450},"geometry":{"x":172096.00000000093,"y":2546388.0000000019}},{"attributes":{"ID":265455,"DIS_CODE":0,"TOWNNAME":"永康區","LI":"二王里","LIN":"34鄰","STREET":"中山南路","SECT":" ","MAREA":" ","LANE":"４９０巷","ALLEY":" ","HOUSE_NO":"１０號之１４","E_COORD97":172152.79000000001,"N_COORD97":2546353.73,"ADDRESS":"中山南路４９０巷１０號之１４","OBJECTID":265451},"geometry":{"x":172152.7900000019,"y":2546353.7300000023}},{"attributes":{"ID":265456,"DIS_CODE":0,"TOWNNAME":"永康區","LI":"二王里","LIN":"34鄰","STREET":"中山南路","SECT":" ","MAREA":" ","LANE":"４９０巷","ALLEY":" ","HOUSE_NO":"１０號之２","E_COORD97":172109.41,"N_COORD97":2546380.54,"ADDRESS":"中山南路４９０巷１０號之２","OBJECTID":265452},"geometry":{"x":172109.41000000015,"y":2546380.540000001}},{"attributes":{"ID":265457,"DIS_CODE":0,"TOWNNAME":"永康區","LI":"二王里","LIN":"34鄰","STREET":"中山南路","SECT":" ","MAREA":" ","LANE":"４９０巷","ALLEY":" ","HOUSE_NO":"１０號之３","E_COORD97":172112.48999999999,"N_COORD97":2546378.29,"ADDRESS":"中山南路４９０巷１０號之３","OBJECTID":265453},"geometry":{"x":172112.49000000209,"y":2546378.290000001}},{"attributes":{"ID":265458,"DIS_CODE":0,"TOWNNAME":"永康區","LI":"\u25A0洲里","LIN":"34鄰","STREET":"洲尾街","SECT":" ","MAREA":" ","LANE":"１９１巷","ALLEY":" ","HOUSE_NO":"２號","E_COORD97":170876.51999999999,"N_COORD97":2548983.5,"ADDRESS":"洲尾街１９１巷２號","OBJECTID":265454},"geometry":{"x":170876.52000000048,"y":2548983.5}},{"attributes":{"ID":265459,"DIS_CODE":0,"TOWNNAME":"南區","LI":"白雪里","LIN":"18鄰","STREET":"新都路","SECT":" ","MAREA":" ","LANE":" ","ALLEY":" ","HOUSE_NO":"５８８之１號","E_COORD97":166919.82000000001,"N_COORD97":2540904.1299999999,"ADDRESS":"新都路５８８之１號","OBJECTID":265455},"geometry":{"x":166919.82000000216,"y":2540904.1300000008}},{"attributes":{"ID":265460,"DIS_CODE":0,"TOWNNAME":"仁德區","LI":"後壁里","LIN":"22鄰","STREET":"中正路","SECT":"二段","MAREA":" ","LANE":" ","ALLEY":" ","HOUSE_NO":"１２７號","E_COORD97":173178.66,"N_COORD97":2538560.0299999998,"ADDRESS":"中正路二段１２７號","OBJECTID":265456},"geometry":{"x":173178.66000000015,"y":2538560.0299999993}},{"attributes":{"ID":265461,"DIS_CODE":0,"TOWNNAME":"永康區","LI":"埔園里","LIN":"34鄰","STREET":"八德街","SECT":" ","MAREA":" ","LANE":"８８巷","ALLEY":" ","HOUSE_NO":"１０號","E_COORD97":174193.63,"N_COORD97":2548552.5099999998,"ADDRESS":"八德街８８巷１０號","OBJECTID":265457},"geometry":{"x":174193.63000000082,"y":2548552.5099999998}},{"attributes":{"ID":265462,"DIS_CODE":0,"TOWNNAME":"仁德區","LI":"成功里","LIN":"22鄰","STREET":"保生路","SECT":" ","MAREA":" ","LANE":" ","ALLEY":" ","HOUSE_NO":"５１號","E_COORD97":170784.26999999999,"N_COORD97":2539775.5,"ADDRESS":"保生路５１號","OBJECTID":265458},"geometry":{"x":170784.27000000142,"y":2539775.5}},{"attributes":{"ID":265463,"DIS_CODE":0,"TOWNNAME":"仁德區","LI":"後壁里","LIN":"22鄰","STREET":"中正路","SECT":"二段","MAREA":" ","LANE":" ","ALLEY":" ","HOUSE_NO":"１４５號","E_COORD97":173192.91,"N_COORD97":2538604.02,"ADDRESS":"中正路二段１４５號","OBJECTID":265459},"geometry":{"x":173192.91000000201,"y":2538604.0200000014}},{"attributes":{"ID":265464,"DIS_CODE":0,"TOWNNAME":"永康區","LI":"埔園里","LIN":"34鄰","STREET":"龍中街","SECT":" ","MAREA":" ","LANE":"６５１巷","ALLEY":" ","HOUSE_NO":"２號","E_COORD97":174268.79000000001,"N_COORD97":2548942.7999999998,"ADDRESS":"龍中街６５１巷２號","OBJECTID":265460},"geometry":{"x":174268.79000000097,"y":2548942.8000000026}},{"attributes":{"ID":265465,"DIS_CODE":0,"TOWNNAME":"永康區","LI":"埔園里","LIN":"34鄰","STREET":"龍中街","SECT":" ","MAREA":" ","LANE":"６５１巷","ALLEY":" ","HOUSE_NO":"６號","E_COORD97":174263.60000000001,"N_COORD97":2548943.1800000002,"ADDRESS":"龍中街６５１巷６號","OBJECTID":265461},"geometry":{"x":174263.59999999963,"y":2548943.1800000016}},{"attributes":{"ID":265466,"DIS_CODE":0,"TOWNNAME":"永康區","LI":"埔園里","LIN":"34鄰","STREET":"龍中街","SECT":" ","MAREA":" ","LANE":"６５１巷","ALLEY":" ","HOUSE_NO":"１０號","E_COORD97":174255.25,"N_COORD97":2548944.3399999999,"ADDRESS":"龍中街６５１巷１０號","OBJECTID":265462},"geometry":{"x":174255.25000000093,"y":2548944.3399999999}},{"attributes":{"ID":265467,"DIS_CODE":0,"TOWNNAME":"仁德區","LI":"後壁里","LIN":"34鄰","STREET":"德洋二街","SECT":" ","MAREA":" ","LANE":"３１巷","ALLEY":" ","HOUSE_NO":"１號","E_COORD97":172406.01000000001,"N_COORD97":2539398.27,"ADDRESS":"德洋二街３１巷１號","OBJECTID":265463},"geometry":{"x":172406.01000000071,"y":2539398.2700000014}},{"attributes":{"ID":265468,"DIS_CODE":0,"TOWNNAME":"新市區","LI":"新和里","LIN":"34鄰","STREET":"仁愛街","SECT":" ","MAREA":" ","LANE":"２０５巷","ALLEY":" ","HOUSE_NO":"１９號","E_COORD97":177543.59,"N_COORD97":2552807.7799999998,"ADDRESS":"仁愛街２０５巷１９號","OBJECTID":265464},"geometry":{"x":177543.59000000078,"y":2552807.7800000012}},{"attributes":{"ID":265469,"DIS_CODE":0,"TOWNNAME":"新市區","LI":"新和里","LIN":"34鄰","STREET":"仁愛街","SECT":" ","MAREA":" ","LANE":"２０５巷","ALLEY":" ","HOUSE_NO":"４０號","E_COORD97":177497.54000000001,"N_COORD97":2552820.5299999998,"ADDRESS":"仁愛街２０５巷４０號","OBJECTID":265465},"geometry":{"x":177497.53999999911,"y":2552820.5299999993}},{"attributes":{"ID":265470,"DIS_CODE":0,"TOWNNAME":"新市區","LI":"新和里","LIN":"34鄰","STREET":"仁愛街","SECT":" ","MAREA":" ","LANE":"２０５巷","ALLEY":" ","HOUSE_NO":"１２號","E_COORD97":177546.89000000001,"N_COORD97":2552818.0299999998,"ADDRESS":"仁愛街２０５巷１２號","OBJECTID":265466},"geometry":{"x":177546.88999999966,"y":2552818.0300000031}},{"attributes":{"ID":265471,"DIS_CODE":0,"TOWNNAME":"新市區","LI":"新和里","LIN":"34鄰","STREET":"仁愛街","SECT":" ","MAREA":" ","LANE":"１８９巷","ALLEY":" ","HOUSE_NO":"２０號","E_COORD97":177536.70000000001,"N_COORD97":2552768.5299999998,"ADDRESS":"仁愛街１８９巷２０號","OBJECTID":265467},"geometry":{"x":177536.70000000019,"y":2552768.5300000012}},{"attributes":{"ID":265472,"DIS_CODE":0,"TOWNNAME":"新市區","LI":"新和里","LIN":"34鄰","STREET":"仁愛街","SECT":" ","MAREA":" ","LANE":"２０５巷","ALLEY":" ","HOUSE_NO":"２４號","E_COORD97":177519.29000000001,"N_COORD97":2552819.7799999998,"ADDRESS":"仁愛街２０５巷２４號","OBJECTID":265468},"geometry":{"x":177519.29000000004,"y":2552819.7800000031}},{"attributes":{"ID":265473,"DIS_CODE":0,"TOWNNAME":"永康區","LI":"五王里","LIN":"34鄰","STREET":"五福街","SECT":" ","MAREA":" ","LANE":"３３巷","ALLEY":" ","HOUSE_NO":"１２號","E_COORD97":171316.35000000001,"N_COORD97":2545930.75,"ADDRESS":"五福街３３巷１２號","OBJECTID":265469},"geometry":{"x":171316.35000000056,"y":2545930.75}},{"attributes":{"ID":265474,"DIS_CODE":0,"TOWNNAME":"永康區","LI":"正強里","LIN":"34鄰","STREET":"四維街","SECT":" ","MAREA":" ","LANE":"１４９巷","ALLEY":" ","HOUSE_NO":"２１號","E_COORD97":173227.38,"N_COORD97":2548377.1299999999,"ADDRESS":"四維街１４９巷２１號","OBJECTID":265470},"geometry":{"x":173227.38000000082,"y":2548377.1300000008}},{"attributes":{"ID":265475,"DIS_CODE":0,"TOWNNAME":"永康區","LI":"正強里","LIN":"34鄰","STREET":"四維街","SECT":" ","MAREA":" ","LANE":"１４９巷","ALLEY":" ","HOUSE_NO":"２２號","E_COORD97":173227.23000000001,"N_COORD97":2548380.8900000001,"ADDRESS":"四維街１４９巷２２號","OBJECTID":265471},"geometry":{"x":173227.23000000138,"y":2548380.8900000006}},{"attributes":{"ID":265476,"DIS_CODE":0,"TOWNNAME":"永康區","LI":"正強里","LIN":"34鄰","STREET":"四維街","SECT":" ","MAREA":" ","LANE":"１４９巷","ALLEY":" ","HOUSE_NO":"２號","E_COORD97":173279.41,"N_COORD97":2548339.2799999998,"ADDRESS":"四維街１４９巷２號","OBJECTID":265472},"geometry":{"x":173279.41000000201,"y":2548339.2800000012}},{"attributes":{"ID":265477,"DIS_CODE":0,"TOWNNAME":"永康區","LI":"正強里","LIN":"34鄰","STREET":"四維街","SECT":" ","MAREA":" ","LANE":"１４９巷","ALLEY":" ","HOUSE_NO":"２０號","E_COORD97":173229.45999999999,"N_COORD97":2548373.1400000001,"ADDRESS":"四維街１４９巷２０號","OBJECTID":265473},"geometry":{"x":173229.45999999996,"y":2548373.1400000006}},{"attributes":{"ID":265478,"DIS_CODE":0,"TOWNNAME":"永康區","LI":"大灣里","LIN":"22鄰","STREET":"民族路","SECT":" ","MAREA":" ","LANE":" ","ALLEY":" ","HOUSE_NO":"３１０號","E_COORD97":174959.39999999999,"N_COORD97":2545273.79,"ADDRESS":"民族路３１０號","OBJECTID":265474},"geometry":{"x":174959.39999999944,"y":2545273.790000001}},{"attributes":{"ID":265479,"DIS_CODE":0,"TOWNNAME":"永康區","LI":"正強里","LIN":"34鄰","STREET":"四維街","SECT":" ","MAREA":" ","LANE":"１４９巷","ALLEY":" ","HOUSE_NO":"３８號","E_COORD97":173224.13,"N_COORD97":2548329.9900000002,"ADDRESS":"四維街１４９巷３８號","OBJECTID":265475},"geometry":{"x":173224.13000000082,"y":2548329.9900000002}},{"attributes":{"ID":265480,"DIS_CODE":0,"TOWNNAME":"永康區","LI":"正強里","LIN":"34鄰","STREET":"四維街","SECT":" ","MAREA":" ","LANE":"１４９巷","ALLEY":" ","HOUSE_NO":"３９號","E_COORD97":173225.03,"N_COORD97":2548325.2400000002,"ADDRESS":"四維街１４９巷３９號","OBJECTID":265476},"geometry":{"x":173225.03000000119,"y":2548325.2400000039}},{"attributes":{"ID":265481,"DIS_CODE":0,"TOWNNAME":"永康區","LI":"五王里","LIN":"34鄰","STREET":"五福街","SECT":" ","MAREA":" ","LANE":"３３巷","ALLEY":" ","HOUSE_NO":"１３號","E_COORD97":171303.06,"N_COORD97":2545933.5,"ADDRESS":"五福街３３巷１３號","OBJECTID":265477},"geometry":{"x":171303.06000000052,"y":2545933.5000000019}},{"attributes":{"ID":265482,"DIS_CODE":0,"TOWNNAME":"永康區","LI":"正強里","LIN":"34鄰","STREET":"四維街","SECT":" ","MAREA":" ","LANE":"１４９巷","ALLEY":" ","HOUSE_NO":"１９號","E_COORD97":173229.92999999999,"N_COORD97":2548369.6299999999,"ADDRESS":"四維街１４９巷１９號","OBJECTID":265478},"geometry":{"x":173229.93000000063,"y":2548369.6300000008}},{"attributes":{"ID":265483,"DIS_CODE":0,"TOWNNAME":"永康區","LI":"正強里","LIN":"34鄰","STREET":"四維街","SECT":" ","MAREA":" ","LANE":"１４９巷","ALLEY":" ","HOUSE_NO":"１０號","E_COORD97":173238.51000000001,"N_COORD97":2548333.9100000001,"ADDRESS":"四維街１４９巷１０號","OBJECTID":265479},"geometry":{"x":173238.50999999978,"y":2548333.9100000001}},{"attributes":{"ID":265484,"DIS_CODE":0,"TOWNNAME":"永康區","LI":"正強里","LIN":"34鄰","STREET":"四維街","SECT":" ","MAREA":" ","LANE":"１４９巷","ALLEY":" ","HOUSE_NO":"３６號","E_COORD97":173220.17999999999,"N_COORD97":2548346.2400000002,"ADDRESS":"四維街１４９巷３６號","OBJECTID":265480},"geometry":{"x":173220.18000000063,"y":2548346.2400000021}},{"attributes":{"ID":265485,"DIS_CODE":0,"TOWNNAME":"永康區","LI":"正強里","LIN":"34鄰","STREET":"四維街","SECT":" ","MAREA":" ","LANE":"１４９巷","ALLEY":" ","HOUSE_NO":"２５號","E_COORD97":173223.48000000001,"N_COORD97":2548392.3900000001,"ADDRESS":"四維街１４９巷２５號","OBJECTID":265481},"geometry":{"x":173223.48000000138,"y":2548392.3900000043}},{"attributes":{"ID":265486,"DIS_CODE":0,"TOWNNAME":"新市區","LI":"新和里","LIN":"34鄰","STREET":"仁愛街","SECT":" ","MAREA":" ","LANE":"２０５巷","ALLEY":" ","HOUSE_NO":"３５號","E_COORD97":177510.39000000001,"N_COORD97":2552809.2799999998,"ADDRESS":"仁愛街２０５巷３５號","OBJECTID":265482},"geometry":{"x":177510.3900000006,"y":2552809.2799999975}},{"attributes":{"ID":265487,"DIS_CODE":0,"TOWNNAME":"永康區","LI":"埔園里","LIN":"34鄰","STREET":"永大路","SECT":"三段","MAREA":" ","LANE":"５６０巷","ALLEY":" ","HOUSE_NO":"８號","E_COORD97":174135.73999999999,"N_COORD97":2548608.0699999998,"ADDRESS":"永大路三段５６０巷８號","OBJECTID":265483},"geometry":{"x":174135.74000000115,"y":2548608.070000004}},{"attributes":{"ID":265488,"DIS_CODE":0,"TOWNNAME":"永康區","LI":"埔園里","LIN":"34鄰","STREET":"永大路","SECT":"三段","MAREA":" ","LANE":"５６０巷","ALLEY":" ","HOUSE_NO":"１０號","E_COORD97":174140.29999999999,"N_COORD97":2548611.3700000001,"ADDRESS":"永大路三段５６０巷１０號","OBJECTID":265484},"geometry":{"x":174140.29999999981,"y":2548611.3700000029}},{"attributes":{"ID":265489,"DIS_CODE":0,"TOWNNAME":"永康區","LI":"埔園里","LIN":"34鄰","STREET":"永大路","SECT":"三段","MAREA":" ","LANE":"５６０巷","ALLEY":" ","HOUSE_NO":"１２號","E_COORD97":174145.25,"N_COORD97":2548609.21,"ADDRESS":"永大路三段５６０巷１２號","OBJECTID":265485},"geometry":{"x":174145.25000000093,"y":2548609.2100000028}},{"attributes":{"ID":265490,"DIS_CODE":0,"TOWNNAME":"永康區","LI":"埔園里","LIN":"34鄰","STREET":"永大路","SECT":"三段","MAREA":" ","LANE":"５６０巷","ALLEY":" ","HOUSE_NO":"１６號","E_COORD97":174149.42999999999,"N_COORD97":2548606.5800000001,"ADDRESS":"永大路三段５６０巷１６號","OBJECTID":265486},"geometry":{"x":174149.4299999997,"y":2548606.5800000001}},{"attributes":{"ID":265491,"DIS_CODE":0,"TOWNNAME":"永康區","LI":"中興里","LIN":"22鄰","STREET":"中華路","SECT":" ","MAREA":" ","LANE":" ","ALLEY":" ","HOUSE_NO":"２０２號之２０","E_COORD97":171638.73000000001,"N_COORD97":2545025.54,"ADDRESS":"中華路２０２號之２０","OBJECTID":265487},"geometry":{"x":171638.73000000138,"y":2545025.5399999991}},{"attributes":{"ID":265492,"DIS_CODE":0,"TOWNNAME":"永康區","LI":"中興里","LIN":"22鄰","STREET":"中華路","SECT":" ","MAREA":" ","LANE":" ","ALLEY":" ","HOUSE_NO":"１９６號之１６","E_COORD97":171634.60999999999,"N_COORD97":2544991.2999999998,"ADDRESS":"中華路１９６號之１６","OBJECTID":265488},"geometry":{"x":171634.61000000127,"y":2544991.3000000007}},{"attributes":{"ID":265493,"DIS_CODE":0,"TOWNNAME":"永康區","LI":"埔園里","LIN":"34鄰","STREET":"永大路","SECT":"三段","MAREA":" ","LANE":"６１８巷","ALLEY":" ","HOUSE_NO":"２號","E_COORD97":174071.85000000001,"N_COORD97":2548724.79,"ADDRESS":"永大路三段６１８巷２號","OBJECTID":265489},"geometry":{"x":174071.84999999963,"y":2548724.790000001}},{"attributes":{"ID":265494,"DIS_CODE":0,"TOWNNAME":"白河區","LI":"白河里","LIN":"14鄰","STREET":"中興街","SECT":" ","MAREA":" ","LANE":" ","ALLEY":" ","HOUSE_NO":"８之１號","E_COORD97":190321.82999999999,"N_COORD97":2583154.0499999998,"ADDRESS":"中興街８之１號","OBJECTID":265490},"geometry":{"x":190321.83000000101,"y":2583154.0500000026}},{"attributes":{"ID":265495,"DIS_CODE":0,"TOWNNAME":"永康區","LI":"中興里","LIN":"22鄰","STREET":"中華路","SECT":" ","MAREA":" ","LANE":" ","ALLEY":" ","HOUSE_NO":"１９６號之２","E_COORD97":171633.39000000001,"N_COORD97":2544991.2999999998,"ADDRESS":"中華路１９６號之２","OBJECTID":265491},"geometry":{"x":171633.3900000006,"y":2544991.3000000007}},{"attributes":{"ID":265496,"DIS_CODE":0,"TOWNNAME":"永康區","LI":"埔園里","LIN":"34鄰","STREET":"永大路","SECT":"三段","MAREA":" ","LANE":"６１８巷","ALLEY":" ","HOUSE_NO":"６號","E_COORD97":174076.82000000001,"N_COORD97":2548727.1600000001,"ADDRESS":"永大路三段６１８巷６號","OBJECTID":265492},"geometry":{"x":174076.82000000216,"y":2548727.160000002}},{"attributes":{"ID":265497,"DIS_CODE":0,"TOWNNAME":"永康區","LI":"埔園里","LIN":"34鄰","STREET":"永大路","SECT":"三段","MAREA":" ","LANE":"６１８巷","ALLEY":" ","HOUSE_NO":"８號","E_COORD97":174080.44,"N_COORD97":2548728.3900000001,"ADDRESS":"永大路三段６１８巷８號","OBJECTID":265493},"geometry":{"x":174080.44000000041,"y":2548728.3900000025}},{"attributes":{"ID":265498,"DIS_CODE":0,"TOWNNAME":"永康區","LI":"埔園里","LIN":"34鄰","STREET":"永大路","SECT":"三段","MAREA":" ","LANE":"６１８巷","ALLEY":" ","HOUSE_NO":"１０號","E_COORD97":174086.19,"N_COORD97":2548726.8100000001,"ADDRESS":"永大路三段６１８巷１０號","OBJECTID":265494},"geometry":{"x":174086.18999999948,"y":2548726.8100000024}},{"attributes":{"ID":265499,"DIS_CODE":0,"TOWNNAME":"永康區","LI":"埔園里","LIN":"34鄰","STREET":"永大路","SECT":"三段","MAREA":" ","LANE":"６１８巷","ALLEY":" ","HOUSE_NO":"１２號","E_COORD97":174101.89000000001,"N_COORD97":2548723.2000000002,"ADDRESS":"永大路三段６１８巷１２號","OBJECTID":265495},"geometry":{"x":174101.8900000006,"y":2548723.1999999993}},{"attributes":{"ID":265500,"DIS_CODE":0,"TOWNNAME":"永康區","LI":"埔園里","LIN":"34鄰","STREET":"永大路","SECT":"三段","MAREA":" ","LANE":"６１８巷","ALLEY":" ","HOUSE_NO":"１６號","E_COORD97":174109.01000000001,"N_COORD97":2548722.0099999998,"ADDRESS":"永大路三段６１８巷１６號","OBJECTID":265496},"geometry":{"x":174109.01000000071,"y":2548722.0099999998}},{"attributes":{"ID":265501,"DIS_CODE":0,"TOWNNAME":"永康區","LI":"埔園里","LIN":"34鄰","STREET":"永大路","SECT":"三段","MAREA":" ","LANE":"６１８巷","ALLEY":" ","HOUSE_NO":"１８號","E_COORD97":174113.19,"N_COORD97":2548721.4700000002,"ADDRESS":"永大路三段６１８巷１８號","OBJECTID":265497},"geometry":{"x":174113.19000000041,"y":2548721.4700000025}},{"attributes":{"ID":265502,"DIS_CODE":0,"TOWNNAME":"永康區","LI":"埔園里","LIN":"34鄰","STREET":"永大路","SECT":"三段","MAREA":" ","LANE":"６１８巷","ALLEY":" ","HOUSE_NO":"２０號","E_COORD97":174117.37,"N_COORD97":2548720.9199999999,"ADDRESS":"永大路三段６１８巷２０號","OBJECTID":265498},"geometry":{"x":174117.37000000104,"y":2548720.9200000018}},{"attributes":{"ID":265503,"DIS_CODE":0,"TOWNNAME":"永康區","LI":"埔園里","LIN":"34鄰","STREET":"永大路","SECT":"三段","MAREA":" ","LANE":"６１８巷","ALLEY":" ","HOUSE_NO":"２２號","E_COORD97":174121.54999999999,"N_COORD97":2548720.3799999999,"ADDRESS":"永大路三段６１８巷２２號","OBJECTID":265499},"geometry":{"x":174121.54999999981,"y":2548720.3800000008}},{"attributes":{"ID":265504,"DIS_CODE":0,"TOWNNAME":"永康區","LI":"埔園里","LIN":"34鄰","STREET":"永大路","SECT":"三段","MAREA":" ","LANE":"６１８巷","ALLEY":" ","HOUSE_NO":"２６號","E_COORD97":174125.73000000001,"N_COORD97":2548719.8399999999,"ADDRESS":"永大路三段６１８巷２６號","OBJECTID":265500},"geometry":{"x":174125.73000000138,"y":2548719.8399999999}},{"attributes":{"ID":265505,"DIS_CODE":0,"TOWNNAME":"永康區","LI":"埔園里","LIN":"34鄰","STREET":"永大路","SECT":"三段","MAREA":" ","LANE":"６１８巷","ALLEY":" ","HOUSE_NO":"２８號","E_COORD97":174129.89999999999,"N_COORD97":2548719.2999999998,"ADDRESS":"永大路三段６１８巷２８號","OBJECTID":265501},"geometry":{"x":174129.90000000037,"y":2548719.3000000026}},{"attributes":{"ID":265506,"DIS_CODE":0,"TOWNNAME":"永康區","LI":"埔園里","LIN":"34鄰","STREET":"永大路","SECT":"三段","MAREA":" ","LANE":"６１８巷","ALLEY":" ","HOUSE_NO":"３０號","E_COORD97":174134.13,"N_COORD97":2548718.75,"ADDRESS":"永大路三段６１８巷３０號","OBJECTID":265502},"geometry":{"x":174134.13000000082,"y":2548718.7500000019}},{"attributes":{"ID":265507,"DIS_CODE":0,"TOWNNAME":"永康區","LI":"正強里","LIN":"34鄰","STREET":"四維街","SECT":" ","MAREA":" ","LANE":"１４９巷","ALLEY":" ","HOUSE_NO":"２４號","E_COORD97":173224.34,"N_COORD97":2548388.3900000001,"ADDRESS":"四維街１４９巷２４號","OBJECTID":265503},"geometry":{"x":173224.34000000078,"y":2548388.3900000006}},{"attributes":{"ID":265508,"DIS_CODE":0,"TOWNNAME":"永康區","LI":"南灣里","LIN":"34鄰","STREET":"南灣街","SECT":" ","MAREA":" ","LANE":"９９巷","ALLEY":" ","HOUSE_NO":"３２號","E_COORD97":174263.26000000001,"N_COORD97":2544929.5099999998,"ADDRESS":"南灣街９９巷３２號","OBJECTID":265504},"geometry":{"x":174263.26000000164,"y":2544929.5100000016}},{"attributes":{"ID":265509,"DIS_CODE":0,"TOWNNAME":"永康區","LI":"正強里","LIN":"34鄰","STREET":"四維街","SECT":" ","MAREA":" ","LANE":"１４９巷","ALLEY":" ","HOUSE_NO":"３５號","E_COORD97":173218.32000000001,"N_COORD97":2548350.4900000002,"ADDRESS":"四維街１４９巷３５號","OBJECTID":265505},"geometry":{"x":173218.3200000003,"y":2548350.4899999984}},{"attributes":{"ID":265510,"DIS_CODE":0,"TOWNNAME":"永康區","LI":"勝利里","LIN":"34鄰","STREET":"勝利街","SECT":" ","MAREA":" ","LANE":"１巷","ALLEY":" ","HOUSE_NO":"３１號","E_COORD97":171023.39999999999,"N_COORD97":2544649.5099999998,"ADDRESS":"勝利街１巷３１號","OBJECTID":265506},"geometry":{"x":171023.40000000224,"y":2544649.5099999998}},{"attributes":{"ID":265511,"DIS_CODE":0,"TOWNNAME":"永康區","LI":"埔園里","LIN":"34鄰","STREET":"八德街","SECT":" ","MAREA":" ","LANE":"２６巷","ALLEY":" ","HOUSE_NO":"４０號","E_COORD97":174314.94,"N_COORD97":2548591.25,"ADDRESS":"八德街２６巷４０號","OBJECTID":265507},"geometry":{"x":174314.94000000041,"y":2548591.25}},{"attributes":{"ID":265512,"DIS_CODE":0,"TOWNNAME":"永康區","LI":"勝利里","LIN":"34鄰","STREET":"勝利街","SECT":" ","MAREA":" ","LANE":"１巷","ALLEY":" ","HOUSE_NO":"１７號","E_COORD97":171069.57000000001,"N_COORD97":2544604.25,"ADDRESS":"勝利街１巷１７號","OBJECTID":265508},"geometry":{"x":171069.57000000216,"y":2544604.25}},{"attributes":{"ID":265513,"DIS_CODE":0,"TOWNNAME":"永康區","LI":"勝利里","LIN":"34鄰","STREET":"勝利街","SECT":" ","MAREA":" ","LANE":"１巷","ALLEY":" ","HOUSE_NO":"２２號","E_COORD97":171054.14999999999,"N_COORD97":2544617.75,"ADDRESS":"勝利街１巷２２號","OBJECTID":265509},"geometry":{"x":171054.1500000013,"y":2544617.75}},{"attributes":{"ID":265514,"DIS_CODE":0,"TOWNNAME":"永康區","LI":"勝利里","LIN":"34鄰","STREET":"勝利街","SECT":" ","MAREA":" ","LANE":"１巷","ALLEY":" ","HOUSE_NO":"２７號","E_COORD97":171038.56,"N_COORD97":2544631.5,"ADDRESS":"勝利街１巷２７號","OBJECTID":265510},"geometry":{"x":171038.56000000052,"y":2544631.5000000019}},{"attributes":{"ID":265515,"DIS_CODE":0,"TOWNNAME":"東區","LI":"大同里","LIN":"34鄰","STREET":"大同路","SECT":"一段","MAREA":" ","LANE":"１７５巷","ALLEY":" ","HOUSE_NO":"１１８號","E_COORD97":169361.13,"N_COORD97":2542662.73,"ADDRESS":"大同路一段１７５巷１１８號","OBJECTID":265511},"geometry":{"x":169361.12999999989,"y":2542662.7300000004}},{"attributes":{"ID":265516,"DIS_CODE":0,"TOWNNAME":"東區","LI":"大同里","LIN":"34鄰","STREET":"大同路","SECT":"一段","MAREA":" ","LANE":"１７５巷","ALLEY":" ","HOUSE_NO":"１２０號","E_COORD97":169363.45000000001,"N_COORD97":2542659.8300000001,"ADDRESS":"大同路一段１７５巷１２０號","OBJECTID":265512},"geometry":{"x":169363.45000000112,"y":2542659.8300000019}},{"attributes":{"ID":265517,"DIS_CODE":0,"TOWNNAME":"東區","LI":"大同里","LIN":"34鄰","STREET":"大同路","SECT":"一段","MAREA":" ","LANE":"１７５巷","ALLEY":" ","HOUSE_NO":"１２２號","E_COORD97":169365.34,"N_COORD97":2542657.5099999998,"ADDRESS":"大同路一段１７５巷１２２號","OBJECTID":265513},"geometry":{"x":169365.34000000171,"y":2542657.5100000035}},{"attributes":{"ID":265518,"DIS_CODE":0,"TOWNNAME":"東區","LI":"大同里","LIN":"34鄰","STREET":"大同路","SECT":"一段","MAREA":" ","LANE":"１７５巷","ALLEY":" ","HOUSE_NO":"１２４號","E_COORD97":169367.37,"N_COORD97":2542653.8900000001,"ADDRESS":"大同路一段１７５巷１２４號","OBJECTID":265514},"geometry":{"x":169367.37000000104,"y":2542653.8900000025}},{"attributes":{"ID":265519,"DIS_CODE":0,"TOWNNAME":"東區","LI":"大同里","LIN":"34鄰","STREET":"大同路","SECT":"一段","MAREA":" ","LANE":"１７５巷","ALLEY":" ","HOUSE_NO":"１２６號","E_COORD97":169369.39999999999,"N_COORD97":2542651.1299999999,"ADDRESS":"大同路一段１７５巷１２６號","OBJECTID":265515},"geometry":{"x":169369.4000000013,"y":2542651.129999999}},{"attributes":{"ID":265520,"DIS_CODE":0,"TOWNNAME":"東區","LI":"大同里","LIN":"34鄰","STREET":"大同路","SECT":"一段","MAREA":" ","LANE":"１７５巷","ALLEY":" ","HOUSE_NO":"１２８號","E_COORD97":169371.29000000001,"N_COORD97":2542647.6499999999,"ADDRESS":"大同路一段１７５巷１２８號","OBJECTID":265516},"geometry":{"x":169371.29000000097,"y":2542647.6500000022}},{"attributes":{"ID":265521,"DIS_CODE":0,"TOWNNAME":"東區","LI":"大同里","LIN":"34鄰","STREET":"大同路","SECT":"一段","MAREA":" ","LANE":"１７５巷","ALLEY":" ","HOUSE_NO":"１３０號","E_COORD97":169372.59,"N_COORD97":2542645.3399999999,"ADDRESS":"大同路一段１７５巷１３０號","OBJECTID":265517},"geometry":{"x":169372.59000000078,"y":2542645.3400000036}},{"attributes":{"ID":265522,"DIS_CODE":0,"TOWNNAME":"東區","LI":"大同里","LIN":"34鄰","STREET":"大同路","SECT":"一段","MAREA":" ","LANE":"１７５巷","ALLEY":" ","HOUSE_NO":"１３０號之１","E_COORD97":169379.70000000001,"N_COORD97":2542640.2599999998,"ADDRESS":"大同路一段１７５巷１３０號之１","OBJECTID":265518},"geometry":{"x":169379.70000000019,"y":2542640.2600000016}},{"attributes":{"ID":265523,"DIS_CODE":0,"TOWNNAME":"東區","LI":"大同里","LIN":"34鄰","STREET":"大同路","SECT":"一段","MAREA":" ","LANE":"１７５巷","ALLEY":" ","HOUSE_NO":"１０２之１號","E_COORD97":169345.60999999999,"N_COORD97":2542691.0699999998,"ADDRESS":"大同路一段１７５巷１０２之１號","OBJECTID":265519},"geometry":{"x":169345.61000000127,"y":2542691.0700000003}},{"attributes":{"ID":265524,"DIS_CODE":0,"TOWNNAME":"東區","LI":"大同里","LIN":"34鄰","STREET":"大同路","SECT":"一段","MAREA":" ","LANE":"１７５巷","ALLEY":" ","HOUSE_NO":"１０２號","E_COORD97":169343,"N_COORD97":2542683.6800000002,"ADDRESS":"大同路一段１７５巷１０２號","OBJECTID":265520},"geometry":{"x":169343.00000000093,"y":2542683.6800000034}},{"attributes":{"ID":265525,"DIS_CODE":0,"TOWNNAME":"東區","LI":"大同里","LIN":"34鄰","STREET":"大同路","SECT":"一段","MAREA":" ","LANE":"１７５巷","ALLEY":" ","HOUSE_NO":"１０８號","E_COORD97":169347.92999999999,"N_COORD97":2542681.3599999999,"ADDRESS":"大同路一段１７５巷１０８號","OBJECTID":265521},"geometry":{"x":169347.93000000063,"y":2542681.3599999994}},{"attributes":{"ID":265526,"DIS_CODE":0,"TOWNNAME":"白河區","LI":"永安里","LIN":"4鄰","STREET":"五福街","SECT":" ","MAREA":" ","LANE":" ","ALLEY":" ","HOUSE_NO":"２１號","E_COORD97":190032.66,"N_COORD97":2583065.6699999999,"ADDRESS":"五福街２１號","OBJECTID":265522},"geometry":{"x":190032.66000000015,"y":2583065.6699999999}},{"attributes":{"ID":265527,"DIS_CODE":0,"TOWNNAME":"安南區","LI":"安富里","LIN":"22鄰","STREET":"郡安路","SECT":"五段","MAREA":" ","LANE":"１７８巷","ALLEY":" ","HOUSE_NO":"７５號","E_COORD97":167564.79999999999,"N_COORD97":2547553.9399999999,"ADDRESS":"郡安路五段１７８巷７５號","OBJECTID":265523},"geometry":{"x":167564.79999999981,"y":2547553.9400000013}},{"attributes":{"ID":265528,"DIS_CODE":0,"TOWNNAME":"白河區","LI":"永安里","LIN":"6鄰","STREET":"五福街","SECT":" ","MAREA":" ","LANE":" ","ALLEY":" ","HOUSE_NO":"６０號","E_COORD97":189889.64000000001,"N_COORD97":2583060.6400000001,"ADDRESS":"五福街６０號","OBJECTID":265524},"geometry":{"x":189889.63999999966,"y":2583060.6400000043}},{"attributes":{"ID":265529,"DIS_CODE":0,"TOWNNAME":"白河區","LI":"永安里","LIN":"6鄰","STREET":"五福街","SECT":" ","MAREA":" ","LANE":" ","ALLEY":" ","HOUSE_NO":"６１號","E_COORD97":189890.45999999999,"N_COORD97":2583044.0899999999,"ADDRESS":"五福街６１號","OBJECTID":265525},"geometry":{"x":189890.46000000089,"y":2583044.0900000017}},{"attributes":{"ID":265530,"DIS_CODE":0,"TOWNNAME":"白河區","LI":"永安里","LIN":"6鄰","STREET":"五福街","SECT":" ","MAREA":" ","LANE":" ","ALLEY":" ","HOUSE_NO":"７７號","E_COORD97":189856.5,"N_COORD97":2583042.9199999999,"ADDRESS":"五福街７７號","OBJECTID":265526},"geometry":{"x":189856.50000000093,"y":2583042.9199999999}},{"attributes":{"ID":265531,"DIS_CODE":0,"TOWNNAME":"白河區","LI":"永安里","LIN":"6鄰","STREET":"五福街","SECT":" ","MAREA":" ","LANE":" ","ALLEY":" ","HOUSE_NO":"７９號","E_COORD97":189852.07999999999,"N_COORD97":2583042.0699999998,"ADDRESS":"五福街７９號","OBJECTID":265527},"geometry":{"x":189852.08000000101,"y":2583042.0700000022}},{"attributes":{"ID":265532,"DIS_CODE":0,"TOWNNAME":"白河區","LI":"永安里","LIN":"6鄰","STREET":"五福街","SECT":" ","MAREA":" ","LANE":" ","ALLEY":" ","HOUSE_NO":"８１號","E_COORD97":189847.72,"N_COORD97":2583041.5600000001,"ADDRESS":"五福街８１號","OBJECTID":265528},"geometry":{"x":189847.72000000067,"y":2583041.5600000024}},{"attributes":{"ID":265533,"DIS_CODE":0,"TOWNNAME":"白河區","LI":"永安里","LIN":"6鄰","STREET":"五福街","SECT":" ","MAREA":" ","LANE":" ","ALLEY":" ","HOUSE_NO":"８３號","E_COORD97":189842.88,"N_COORD97":2583040.8799999999,"ADDRESS":"五福街８３號","OBJECTID":265529},"geometry":{"x":189842.88000000175,"y":2583040.8800000008}},{"attributes":{"ID":265534,"DIS_CODE":0,"TOWNNAME":"白河區","LI":"永安里","LIN":"6鄰","STREET":"五福街","SECT":" ","MAREA":" ","LANE":" ","ALLEY":" ","HOUSE_NO":"８５號","E_COORD97":189838.79999999999,"N_COORD97":2583040.2799999998,"ADDRESS":"五福街８５號","OBJECTID":265530},"geometry":{"x":189838.80000000075,"y":2583040.2799999993}},{"attributes":{"ID":265535,"DIS_CODE":0,"TOWNNAME":"白河區","LI":"永安里","LIN":"6鄰","STREET":"五福街","SECT":" ","MAREA":" ","LANE":" ","ALLEY":" ","HOUSE_NO":"８７號","E_COORD97":189835.29999999999,"N_COORD97":2583039.3500000001,"ADDRESS":"五福街８７號","OBJECTID":265531},"geometry":{"x":189835.30000000075,"y":2583039.3500000015}},{"attributes":{"ID":265536,"DIS_CODE":0,"TOWNNAME":"東區","LI":"大同里","LIN":"34鄰","STREET":"大同路","SECT":"一段","MAREA":" ","LANE":"１７５巷","ALLEY":" ","HOUSE_NO":"１１０號","E_COORD97":169349.09,"N_COORD97":2542677.7400000002,"ADDRESS":"大同路一段１７５巷１１０號","OBJECTID":265532},"geometry":{"x":169349.09000000078,"y":2542677.7400000021}},{"attributes":{"ID":265537,"DIS_CODE":0,"TOWNNAME":"東區","LI":"大同里","LIN":"34鄰","STREET":"大同路","SECT":"一段","MAREA":" ","LANE":"１７５巷","ALLEY":" ","HOUSE_NO":"１１２號","E_COORD97":169351.12,"N_COORD97":2542674.5499999998,"ADDRESS":"大同路一段１７５巷１１２號","OBJECTID":265533},"geometry":{"x":169351.12000000011,"y":2542674.5500000007}},{"attributes":{"ID":265538,"DIS_CODE":0,"TOWNNAME":"永康區","LI":"勝利里","LIN":"22鄰","STREET":"勝華街","SECT":" ","MAREA":" ","LANE":" ","ALLEY":" ","HOUSE_NO":"１５號","E_COORD97":171519.84,"N_COORD97":2545197.4199999999,"ADDRESS":"勝華街１５號","OBJECTID":265534},"geometry":{"x":171519.84000000171,"y":2545197.4199999999}},{"attributes":{"ID":265539,"DIS_CODE":0,"TOWNNAME":"永康區","LI":"崑山里","LIN":"22鄰","STREET":"國光二街","SECT":" ","MAREA":" ","LANE":" ","ALLEY":" ","HOUSE_NO":"４３號","E_COORD97":173967.82000000001,"N_COORD97":2544688.25,"ADDRESS":"國光二街４３號","OBJECTID":265535},"geometry":{"x":173967.8200000003,"y":2544688.2500000019}},{"attributes":{"ID":265540,"DIS_CODE":0,"TOWNNAME":"東區","LI":"大同里","LIN":"34鄰","STREET":"大同路","SECT":"一段","MAREA":" ","LANE":"１７５巷","ALLEY":" ","HOUSE_NO":"１１４號","E_COORD97":169354.01999999999,"N_COORD97":2542668.75,"ADDRESS":"大同路一段１７５巷１１４號","OBJECTID":265536},"geometry":{"x":169354.02000000048,"y":2542668.75}},{"attributes":{"ID":265541,"DIS_CODE":0,"TOWNNAME":"永康區","LI":"崑山里","LIN":"22鄰","STREET":"國光二街","SECT":" ","MAREA":" ","LANE":" ","ALLEY":" ","HOUSE_NO":"３７號","E_COORD97":173988.03,"N_COORD97":2544682.25,"ADDRESS":"國光二街３７號","OBJECTID":265537},"geometry":{"x":173988.03000000119,"y":2544682.25}},{"attributes":{"ID":265542,"DIS_CODE":0,"TOWNNAME":"永康區","LI":"網寮里","LIN":"22鄰","STREET":"文化路","SECT":" ","MAREA":" ","LANE":" ","ALLEY":" ","HOUSE_NO":"１７６之１號","E_COORD97":173774.97,"N_COORD97":2546198.2400000002,"ADDRESS":"文化路１７６之１號","OBJECTID":265538},"geometry":{"x":173774.96999999974,"y":2546198.2400000002}},{"attributes":{"ID":265543,"DIS_CODE":0,"TOWNNAME":"永康區","LI":"五王里","LIN":"34鄰","STREET":"五福街","SECT":" ","MAREA":" ","LANE":"３３巷","ALLEY":" ","HOUSE_NO":"５號","E_COORD97":171310.76000000001,"N_COORD97":2545917.75,"ADDRESS":"五福街３３巷５號","OBJECTID":265539},"geometry":{"x":171310.76000000071,"y":2545917.7500000037}},{"attributes":{"ID":265544,"DIS_CODE":0,"TOWNNAME":"永康區","LI":"網寮里","LIN":"22鄰","STREET":"文化路","SECT":" ","MAREA":" ","LANE":" ","ALLEY":" ","HOUSE_NO":"１７８號","E_COORD97":173771.16,"N_COORD97":2546197.25,"ADDRESS":"文化路１７８號","OBJECTID":265540},"geometry":{"x":173771.16000000108,"y":2546197.2500000019}},{"attributes":{"ID":265545,"DIS_CODE":0,"TOWNNAME":"永康區","LI":"網寮里","LIN":"22鄰","STREET":"文化路","SECT":" ","MAREA":" ","LANE":" ","ALLEY":" ","HOUSE_NO":"１８０號","E_COORD97":173767.41,"N_COORD97":2546195.6200000001,"ADDRESS":"文化路１８０號","OBJECTID":265541},"geometry":{"x":173767.40999999922,"y":2546195.6200000029}},{"attributes":{"ID":265546,"DIS_CODE":0,"TOWNNAME":"永康區","LI":"埔園里","LIN":"34鄰","STREET":"八德街","SECT":" ","MAREA":" ","LANE":"８８巷","ALLEY":" ","HOUSE_NO":"１９號","E_COORD97":174156.85000000001,"N_COORD97":2548562.3799999999,"ADDRESS":"八德街８８巷１９號","OBJECTID":265542},"geometry":{"x":174156.84999999963,"y":2548562.379999999}},{"attributes":{"ID":265547,"DIS_CODE":0,"TOWNNAME":"永康區","LI":"龍潭里","LIN":"34鄰","STREET":"龍埔街","SECT":" ","MAREA":" ","LANE":"１８１巷","ALLEY":" ","HOUSE_NO":"１８號","E_COORD97":174449.51000000001,"N_COORD97":2547336.75,"ADDRESS":"龍埔街１８１巷１８號","OBJECTID":265543},"geometry":{"x":174449.50999999885,"y":2547336.75}},{"attributes":{"ID":265548,"DIS_CODE":0,"TOWNNAME":"學甲區","LI":"三慶里","LIN":"2鄰","STREET":" ","SECT":" ","MAREA":"頂洲","LANE":" ","ALLEY":" ","HOUSE_NO":"２７號","E_COORD97":168632.59,"N_COORD97":2576471.6400000001,"ADDRESS":"頂洲２７號","OBJECTID":265544},"geometry":{"x":168632.58999999985,"y":2576471.6400000006}},{"attributes":{"ID":265549,"DIS_CODE":0,"TOWNNAME":"永康區","LI":"埔園里","LIN":"34鄰","STREET":"八德街","SECT":" ","MAREA":" ","LANE":"８８巷","ALLEY":" ","HOUSE_NO":"２９號","E_COORD97":174166.03,"N_COORD97":2548587.5800000001,"ADDRESS":"八德街８８巷２９號","OBJECTID":265545},"geometry":{"x":174166.03000000119,"y":2548587.5800000019}},{"attributes":{"ID":265550,"DIS_CODE":0,"TOWNNAME":"永康區","LI":"正強里","LIN":"34鄰","STREET":"四維街","SECT":" ","MAREA":" ","LANE":"１４９巷","ALLEY":" ","HOUSE_NO":"３１號","E_COORD97":173216.70000000001,"N_COORD97":2548374.1400000001,"ADDRESS":"四維街１４９巷３１號","OBJECTID":265546},"geometry":{"x":173216.70000000112,"y":2548374.1400000025}},{"attributes":{"ID":265551,"DIS_CODE":0,"TOWNNAME":"永康區","LI":"網寮里","LIN":"22鄰","STREET":"文化路","SECT":" ","MAREA":" ","LANE":" ","ALLEY":" ","HOUSE_NO":"１８２號","E_COORD97":173763.28,"N_COORD97":2546194.73,"ADDRESS":"文化路１８２號","OBJECTID":265547},"geometry":{"x":173763.28000000026,"y":2546194.7300000004}},{"attributes":{"ID":265552,"DIS_CODE":0,"TOWNNAME":"仁德區","LI":"後壁里","LIN":"34鄰","STREET":"德洋二街","SECT":" ","MAREA":" ","LANE":"３９巷","ALLEY":" ","HOUSE_NO":"１３號","E_COORD97":172338.23999999999,"N_COORD97":2539419.7599999998,"ADDRESS":"德洋二街３９巷１３號","OBJECTID":265548},"geometry":{"x":172338.24000000115,"y":2539419.7600000016}},{"attributes":{"ID":265553,"DIS_CODE":0,"TOWNNAME":"仁德區","LI":"後壁里","LIN":"34鄰","STREET":"德洋二街","SECT":" ","MAREA":" ","LANE":"１１巷","ALLEY":" ","HOUSE_NO":"９號","E_COORD97":172474.01000000001,"N_COORD97":2539367.02,"ADDRESS":"德洋二街１１巷９號","OBJECTID":265549},"geometry":{"x":172474.00999999978,"y":2539367.0199999996}},{"attributes":{"ID":265554,"DIS_CODE":0,"TOWNNAME":"仁德區","LI":"後壁里","LIN":"34鄰","STREET":"德洋二街","SECT":" ","MAREA":" ","LANE":"２５巷","ALLEY":" ","HOUSE_NO":"３號","E_COORD97":172421.67000000001,"N_COORD97":2539388.02,"ADDRESS":"德洋二街２５巷３號","OBJECTID":265550},"geometry":{"x":172421.67000000086,"y":2539388.0199999996}},{"attributes":{"ID":265555,"DIS_CODE":0,"TOWNNAME":"仁德區","LI":"後壁里","LIN":"34鄰","STREET":"德洋二街","SECT":" ","MAREA":" ","LANE":"５巷","ALLEY":" ","HOUSE_NO":"８之１號","E_COORD97":172490.78,"N_COORD97":2539348.79,"ADDRESS":"德洋二街５巷８之１號","OBJECTID":265551},"geometry":{"x":172490.78000000119,"y":2539348.7899999991}},{"attributes":{"ID":265556,"DIS_CODE":0,"TOWNNAME":"東區","LI":"中西里","LIN":"22鄰","STREET":"長榮路","SECT":"二段","MAREA":" ","LANE":" ","ALLEY":" ","HOUSE_NO":"１７８號","E_COORD97":170101.51999999999,"N_COORD97":2543401.3900000001,"ADDRESS":"長榮路二段１７８號","OBJECTID":265552},"geometry":{"x":170101.52000000048,"y":2543401.3900000006}},{"attributes":{"ID":265557,"DIS_CODE":0,"TOWNNAME":"東區","LI":"中西里","LIN":"22鄰","STREET":"長榮路","SECT":"二段","MAREA":" ","LANE":" ","ALLEY":" ","HOUSE_NO":"１７６號","E_COORD97":170096.64000000001,"N_COORD97":2543395.8500000001,"ADDRESS":"長榮路二段１７６號","OBJECTID":265553},"geometry":{"x":170096.63999999966,"y":2543395.8500000015}},{"attributes":{"ID":265558,"DIS_CODE":0,"TOWNNAME":"南區","LI":"白雪里","LIN":"18鄰","STREET":"新都路","SECT":" ","MAREA":" ","LANE":" ","ALLEY":" ","HOUSE_NO":"５８８號","E_COORD97":166926.01000000001,"N_COORD97":2540901.5899999999,"ADDRESS":"新都路５８８號","OBJECTID":265554},"geometry":{"x":166926.00999999978,"y":2540901.5900000017}},{"attributes":{"ID":265559,"DIS_CODE":0,"TOWNNAME":"南區","LI":"文華里","LIN":"18鄰","STREET":"德南街","SECT":" ","MAREA":" ","LANE":" ","ALLEY":" ","HOUSE_NO":"３號之１","E_COORD97":166914.45000000001,"N_COORD97":2543162.21,"ADDRESS":"德南街３號之１","OBJECTID":265555},"geometry":{"x":166914.45000000112,"y":2543162.2100000009}},{"attributes":{"ID":265560,"DIS_CODE":0,"TOWNNAME":"南區","LI":"田寮里","LIN":"25鄰","STREET":"夏林路","SECT":" ","MAREA":" ","LANE":" ","ALLEY":" ","HOUSE_NO":"３９９號","E_COORD97":167510.70000000001,"N_COORD97":2541817.1400000001,"ADDRESS":"夏林路３９９號","OBJECTID":265556},"geometry":{"x":167510.70000000112,"y":2541817.1400000025}},{"attributes":{"ID":265561,"DIS_CODE":0,"TOWNNAME":"南區","LI":"田寮里","LIN":"25鄰","STREET":"夏林路","SECT":" ","MAREA":" ","LANE":" ","ALLEY":" ","HOUSE_NO":"３９７號","E_COORD97":167512.13,"N_COORD97":2541820.3199999998,"ADDRESS":"夏林路３９７號","OBJECTID":265557},"geometry":{"x":167512.13000000175,"y":2541820.3200000022}},{"attributes":{"ID":265562,"DIS_CODE":0,"TOWNNAME":"南區","LI":"田寮里","LIN":"25鄰","STREET":"夏林路","SECT":" ","MAREA":" ","LANE":" ","ALLEY":" ","HOUSE_NO":"３９５號","E_COORD97":167513.72,"N_COORD97":2541823.9700000002,"ADDRESS":"夏林路３９５號","OBJECTID":265558},"geometry":{"x":167513.72000000067,"y":2541823.9700000007}},{"attributes":{"ID":265563,"DIS_CODE":0,"TOWNNAME":"仁德區","LI":"後壁里","LIN":"34鄰","STREET":"德洋二街","SECT":" ","MAREA":" ","LANE":"５巷","ALLEY":" ","HOUSE_NO":"４號","E_COORD97":172493.82000000001,"N_COORD97":2539365.02,"ADDRESS":"德洋二街５巷４號","OBJECTID":265559},"geometry":{"x":172493.82000000123,"y":2539365.0199999977}},{"attributes":{"ID":265564,"DIS_CODE":0,"TOWNNAME":"仁德區","LI":"後壁里","LIN":"34鄰","STREET":"德洋二街","SECT":" ","MAREA":" ","LANE":"２５巷","ALLEY":" ","HOUSE_NO":"１號","E_COORD97":172422.91,"N_COORD97":2539392.52,"ADDRESS":"德洋二街２５巷１號","OBJECTID":265560},"geometry":{"x":172422.91000000015,"y":2539392.5200000033}},{"attributes":{"ID":265565,"DIS_CODE":0,"TOWNNAME":"中西區","LI":"西湖里","LIN":"34鄰","STREET":"西湖街","SECT":" ","MAREA":" ","LANE":"５９巷","ALLEY":" ","HOUSE_NO":"２號","E_COORD97":166433.84,"N_COORD97":2544885.52,"ADDRESS":"西湖街５９巷２號","OBJECTID":265561},"geometry":{"x":166433.83999999985,"y":2544885.5200000014}},{"attributes":{"ID":265566,"DIS_CODE":0,"TOWNNAME":"中西區","LI":"西湖里","LIN":"34鄰","STREET":"西湖街","SECT":" ","MAREA":" ","LANE":"５９巷","ALLEY":" ","HOUSE_NO":"６號","E_COORD97":166434.09,"N_COORD97":2544879.9300000002,"ADDRESS":"西湖街５９巷６號","OBJECTID":265562},"geometry":{"x":166434.08999999985,"y":2544879.9300000016}},{"attributes":{"ID":265567,"DIS_CODE":0,"TOWNNAME":"中西區","LI":"西湖里","LIN":"34鄰","STREET":"西湖街","SECT":" ","MAREA":" ","LANE":"５９巷","ALLEY":" ","HOUSE_NO":"８號","E_COORD97":166434.09,"N_COORD97":2544875.8700000001,"ADDRESS":"西湖街５９巷８號","OBJECTID":265563},"geometry":{"x":166434.08999999985,"y":2544875.870000001}},{"attributes":{"ID":265568,"DIS_CODE":0,"TOWNNAME":"中西區","LI":"西湖里","LIN":"34鄰","STREET":"西湖街","SECT":" ","MAREA":" ","LANE":"５９巷","ALLEY":" ","HOUSE_NO":"１０號","E_COORD97":166434.09,"N_COORD97":2544871.2999999998,"ADDRESS":"西湖街５９巷１０號","OBJECTID":265564},"geometry":{"x":166434.08999999985,"y":2544871.3000000026}},{"attributes":{"ID":265569,"DIS_CODE":0,"TOWNNAME":"中西區","LI":"西湖里","LIN":"34鄰","STREET":"西湖街","SECT":" ","MAREA":" ","LANE":"５９巷","ALLEY":" ","HOUSE_NO":"１２號","E_COORD97":166434.35000000001,"N_COORD97":2544860.1200000001,"ADDRESS":"西湖街５９巷１２號","OBJECTID":265565},"geometry":{"x":166434.35000000056,"y":2544860.1200000029}},{"attributes":{"ID":265570,"DIS_CODE":0,"TOWNNAME":"中西區","LI":"西湖里","LIN":"34鄰","STREET":"西湖街","SECT":" ","MAREA":" ","LANE":"５９巷","ALLEY":" ","HOUSE_NO":"１６號","E_COORD97":166434.60000000001,"N_COORD97":2544855.5499999998,"ADDRESS":"西湖街５９巷１６號","OBJECTID":265566},"geometry":{"x":166434.60000000056,"y":2544855.5500000045}},{"attributes":{"ID":265571,"DIS_CODE":0,"TOWNNAME":"中西區","LI":"西湖里","LIN":"34鄰","STREET":"西湖街","SECT":" ","MAREA":" ","LANE":"５９巷","ALLEY":" ","HOUSE_NO":"２２號","E_COORD97":166435.10999999999,"N_COORD97":2544843.3599999999,"ADDRESS":"西湖街５９巷２２號","OBJECTID":265567},"geometry":{"x":166435.11000000127,"y":2544843.3599999994}},{"attributes":{"ID":265572,"DIS_CODE":0,"TOWNNAME":"中西區","LI":"西湖里","LIN":"34鄰","STREET":"西湖街","SECT":" ","MAREA":" ","LANE":"５９巷","ALLEY":" ","HOUSE_NO":"２６號","E_COORD97":166435.35999999999,"N_COORD97":2544838.5299999998,"ADDRESS":"西湖街５９巷２６號","OBJECTID":265568},"geometry":{"x":166435.36000000127,"y":2544838.5300000012}},{"attributes":{"ID":265573,"DIS_CODE":0,"TOWNNAME":"新市區","LI":"新和里","LIN":"34鄰","STREET":"仁愛街","SECT":" ","MAREA":" ","LANE":"１８９巷","ALLEY":" ","HOUSE_NO":"２之１號","E_COORD97":177573.84,"N_COORD97":2552770.5499999998,"ADDRESS":"仁愛街１８９巷２之１號","OBJECTID":265569},"geometry":{"x":177573.84000000078,"y":2552770.5500000007}},{"attributes":{"ID":265574,"DIS_CODE":0,"TOWNNAME":"新市區","LI":"新和里","LIN":"34鄰","STREET":"仁愛街","SECT":" ","MAREA":" ","LANE":"１８９巷","ALLEY":" ","HOUSE_NO":"６號","E_COORD97":177566.89000000001,"N_COORD97":2552770.2799999998,"ADDRESS":"仁愛街１８９巷６號","OBJECTID":265570},"geometry":{"x":177566.8900000006,"y":2552770.2800000012}},{"attributes":{"ID":265575,"DIS_CODE":0,"TOWNNAME":"新市區","LI":"新和里","LIN":"34鄰","STREET":"仁愛街","SECT":" ","MAREA":" ","LANE":"２０５巷","ALLEY":" ","HOUSE_NO":"２８號","E_COORD97":177510.39000000001,"N_COORD97":2552820.2799999998,"ADDRESS":"仁愛街２０５巷２８號","OBJECTID":265571},"geometry":{"x":177510.3900000006,"y":2552820.2800000012}},{"attributes":{"ID":265576,"DIS_CODE":0,"TOWNNAME":"新市區","LI":"新和里","LIN":"34鄰","STREET":"仁愛街","SECT":" ","MAREA":" ","LANE":"１８９巷","ALLEY":" ","HOUSE_NO":"２８號","E_COORD97":177516.79000000001,"N_COORD97":2552765.7799999998,"ADDRESS":"仁愛街１８９巷２８號","OBJECTID":265572},"geometry":{"x":177516.79000000097,"y":2552765.7800000012}},{"attributes":{"ID":265577,"DIS_CODE":0,"TOWNNAME":"安南區","LI":"安富里","LIN":"34鄰","STREET":"府安路","SECT":"五段","MAREA":" ","LANE":"２２３巷","ALLEY":" ","HOUSE_NO":"１８號","E_COORD97":167515.98000000001,"N_COORD97":2546967.27,"ADDRESS":"府安路五段２２３巷１８號","OBJECTID":265573},"geometry":{"x":167515.98000000138,"y":2546967.2699999996}},{"attributes":{"ID":265578,"DIS_CODE":0,"TOWNNAME":"安南區","LI":"安富里","LIN":"34鄰","STREET":"府安路","SECT":"五段","MAREA":" ","LANE":"２２３巷","ALLEY":" ","HOUSE_NO":"１９號","E_COORD97":167489.76000000001,"N_COORD97":2546962.7999999998,"ADDRESS":"府安路五段２２３巷１９號","OBJECTID":265574},"geometry":{"x":167489.76000000071,"y":2546962.8000000026}},{"attributes":{"ID":265579,"DIS_CODE":0,"TOWNNAME":"安南區","LI":"安富里","LIN":"34鄰","STREET":"府安路","SECT":"五段","MAREA":" ","LANE":"２２３巷","ALLEY":" ","HOUSE_NO":"１號","E_COORD97":167496.48000000001,"N_COORD97":2546922.25,"ADDRESS":"府安路五段２２３巷１號","OBJECTID":265575},"geometry":{"x":167496.48000000045,"y":2546922.2500000019}},{"attributes":{"ID":265580,"DIS_CODE":0,"TOWNNAME":"安南區","LI":"安富里","LIN":"34鄰","STREET":"府安路","SECT":"五段","MAREA":" ","LANE":"２２３巷","ALLEY":" ","HOUSE_NO":"２０號","E_COORD97":167514.38,"N_COORD97":2546972.0600000001,"ADDRESS":"府安路五段２２３巷２０號","OBJECTID":265576},"geometry":{"x":167514.38000000082,"y":2546972.0600000024}},{"attributes":{"ID":265581,"DIS_CODE":0,"TOWNNAME":"安南區","LI":"安富里","LIN":"34鄰","STREET":"府安路","SECT":"五段","MAREA":" ","LANE":"２２３巷","ALLEY":" ","HOUSE_NO":"２１號","E_COORD97":167488.48000000001,"N_COORD97":2546966.6299999999,"ADDRESS":"府安路五段２２３巷２１號","OBJECTID":265577},"geometry":{"x":167488.48000000231,"y":2546966.6300000008}},{"attributes":{"ID":265582,"DIS_CODE":0,"TOWNNAME":"南區","LI":"田寮里","LIN":"25鄰","STREET":"夏林路","SECT":" ","MAREA":" ","LANE":" ","ALLEY":" ","HOUSE_NO":"３９３號","E_COORD97":167515.31,"N_COORD97":2541826.6699999999,"ADDRESS":"夏林路３９３號","OBJECTID":265578},"geometry":{"x":167515.30999999959,"y":2541826.6700000018}},{"attributes":{"ID":265583,"DIS_CODE":0,"TOWNNAME":"永康區","LI":"網寮里","LIN":"4鄰","STREET":"永二街","SECT":" ","MAREA":" ","LANE":" ","ALLEY":" ","HOUSE_NO":"１０６號","E_COORD97":173517.91,"N_COORD97":2546487.3999999999,"ADDRESS":"永二街１０６號","OBJECTID":265579},"geometry":{"x":173517.91000000015,"y":2546487.4000000022}},{"attributes":{"ID":265584,"DIS_CODE":0,"TOWNNAME":"白河區","LI":"內角里","LIN":"5鄰","STREET":" ","SECT":" ","MAREA":"內角","LANE":" ","ALLEY":" ","HOUSE_NO":"６０之２號","E_COORD97":192556.98000000001,"N_COORD97":2588473.6099999999,"ADDRESS":"內角６０之２號","OBJECTID":265580},"geometry":{"x":192556.98000000138,"y":2588473.6099999994}},{"attributes":{"ID":265585,"DIS_CODE":0,"TOWNNAME":"白河區","LI":"內角里","LIN":"5鄰","STREET":" ","SECT":" ","MAREA":"內角","LANE":" ","ALLEY":" ","HOUSE_NO":"６０號","E_COORD97":192554.81,"N_COORD97":2588480.5699999998,"ADDRESS":"內角６０號","OBJECTID":265581},"geometry":{"x":192554.80999999959,"y":2588480.5700000003}},{"attributes":{"ID":265586,"DIS_CODE":0,"TOWNNAME":"安南區","LI":"安富里","LIN":"34鄰","STREET":"府安路","SECT":"五段","MAREA":" ","LANE":"２２３巷","ALLEY":" ","HOUSE_NO":"２號","E_COORD97":167521.73999999999,"N_COORD97":2546936.2999999998,"ADDRESS":"府安路五段２２３巷２號","OBJECTID":265582},"geometry":{"x":167521.74000000022,"y":2546936.3000000026}},{"attributes":{"ID":265587,"DIS_CODE":0,"TOWNNAME":"安南區","LI":"安富里","LIN":"34鄰","STREET":"府安路","SECT":"五段","MAREA":" ","LANE":"２２３巷","ALLEY":" ","HOUSE_NO":"４６號","E_COORD97":167500.95000000001,"N_COORD97":2547053.8100000001,"ADDRESS":"府安路五段２２３巷４６號","OBJECTID":265583},"geometry":{"x":167500.95000000112,"y":2547053.8100000042}},{"attributes":{"ID":265588,"DIS_CODE":0,"TOWNNAME":"安南區","LI":"安富里","LIN":"34鄰","STREET":"府安路","SECT":"五段","MAREA":" ","LANE":"２２３巷","ALLEY":" ","HOUSE_NO":"４７號","E_COORD97":167473.45000000001,"N_COORD97":2547048.9700000002,"ADDRESS":"府安路五段２２３巷４７號","OBJECTID":265584},"geometry":{"x":167473.45000000112,"y":2547048.9700000007}},{"attributes":{"ID":265589,"DIS_CODE":0,"TOWNNAME":"安南區","LI":"安富里","LIN":"34鄰","STREET":"府安路","SECT":"五段","MAREA":" ","LANE":"２２３巷","ALLEY":" ","HOUSE_NO":"４８號","E_COORD97":167499.98999999999,"N_COORD97":2547057.3199999998,"ADDRESS":"府安路五段２２３巷４８號","OBJECTID":265585},"geometry":{"x":167499.99000000209,"y":2547057.3200000022}},{"attributes":{"ID":265590,"DIS_CODE":0,"TOWNNAME":"永康區","LI":"埔園里","LIN":"34鄰","STREET":"八德街","SECT":" ","MAREA":" ","LANE":"２６巷","ALLEY":" ","HOUSE_NO":"２號","E_COORD97":174315.48999999999,"N_COORD97":2548523,"ADDRESS":"八德街２６巷２號","OBJECTID":265586},"geometry":{"x":174315.49000000022,"y":2548523}},{"attributes":{"ID":265591,"DIS_CODE":0,"TOWNNAME":"安南區","LI":"鳳凰里","LIN":"22鄰","STREET":"安中路","SECT":"一段","MAREA":" ","LANE":" ","ALLEY":" ","HOUSE_NO":"８３６號","E_COORD97":167442.78,"N_COORD97":2549365.23,"ADDRESS":"安中路一段８３６號","OBJECTID":265587},"geometry":{"x":167442.78000000119,"y":2549365.2300000004}},{"attributes":{"ID":265592,"DIS_CODE":0,"TOWNNAME":"南區","LI":"大忠里","LIN":"39鄰","STREET":"國民路","SECT":" ","MAREA":" ","LANE":" ","ALLEY":" ","HOUSE_NO":"２９１之２號","E_COORD97":168912.01000000001,"N_COORD97":2541113.0600000001,"ADDRESS":"國民路２９１之２號","OBJECTID":265588},"geometry":{"x":168912.01000000071,"y":2541113.0600000024}},{"attributes":{"ID":265593,"DIS_CODE":0,"TOWNNAME":"南區","LI":"新昌里","LIN":"8鄰","STREET":"國華街","SECT":"一段","MAREA":" ","LANE":" ","ALLEY":" ","HOUSE_NO":"６１之１號","E_COORD97":167602.12,"N_COORD97":2542712.1000000001,"ADDRESS":"國華街一段６１之１號","OBJECTID":265589},"geometry":{"x":167602.12000000011,"y":2542712.1000000015}},{"attributes":{"ID":265594,"DIS_CODE":0,"TOWNNAME":"南區","LI":"佛壇里","LIN":"18鄰","STREET":"灣裡路","SECT":" ","MAREA":" ","LANE":" ","ALLEY":" ","HOUSE_NO":"５６３號","E_COORD97":166192.12,"N_COORD97":2535518.5899999999,"ADDRESS":"灣裡路５６３號","OBJECTID":265590},"geometry":{"x":166192.12000000104,"y":2535518.5900000017}},{"attributes":{"ID":265595,"DIS_CODE":0,"TOWNNAME":"南區","LI":"佛壇里","LIN":"15鄰","STREET":"灣裡路","SECT":" ","MAREA":" ","LANE":" ","ALLEY":" ","HOUSE_NO":"６１６號","E_COORD97":166099.17000000001,"N_COORD97":2535603.73,"ADDRESS":"灣裡路６１６號","OBJECTID":265591},"geometry":{"x":166099.16999999993,"y":2535603.7300000004}},{"attributes":{"ID":265596,"DIS_CODE":0,"TOWNNAME":"永康區","LI":"埔園里","LIN":"34鄰","STREET":"八德街","SECT":" ","MAREA":" ","LANE":"２６巷","ALLEY":" ","HOUSE_NO":"３０號","E_COORD97":174315.57000000001,"N_COORD97":2548573.7400000002,"ADDRESS":"八德街２６巷３０號","OBJECTID":265592},"geometry":{"x":174315.5700000003,"y":2548573.7400000021}},{"attributes":{"ID":265597,"DIS_CODE":0,"TOWNNAME":"永康區","LI":"埔園里","LIN":"34鄰","STREET":"八德街","SECT":" ","MAREA":" ","LANE":"２６巷","ALLEY":" ","HOUSE_NO":"１６號","E_COORD97":174315.53,"N_COORD97":2548547.9900000002,"ADDRESS":"八德街２６巷１６號","OBJECTID":265593},"geometry":{"x":174315.53000000026,"y":2548547.9900000021}},{"attributes":{"ID":265598,"DIS_CODE":0,"TOWNNAME":"永康區","LI":"埔園里","LIN":"34鄰","STREET":"八德街","SECT":" ","MAREA":" ","LANE":"２６巷","ALLEY":" ","HOUSE_NO":"５號","E_COORD97":174297.38,"N_COORD97":2548562.2599999998,"ADDRESS":"八德街２６巷５號","OBJECTID":265594},"geometry":{"x":174297.37999999989,"y":2548562.2600000016}},{"attributes":{"ID":265599,"DIS_CODE":0,"TOWNNAME":"永康區","LI":"埔園里","LIN":"34鄰","STREET":"八德街","SECT":" ","MAREA":" ","LANE":"２６巷","ALLEY":" ","HOUSE_NO":"２６號","E_COORD97":174314.89000000001,"N_COORD97":2548564.9900000002,"ADDRESS":"八德街２６巷２６號","OBJECTID":265595},"geometry":{"x":174314.8900000006,"y":2548564.9900000021}},{"attributes":{"ID":265600,"DIS_CODE":0,"TOWNNAME":"永康區","LI":"埔園里","LIN":"34鄰","STREET":"八德街","SECT":" ","MAREA":" ","LANE":"２６巷","ALLEY":" ","HOUSE_NO":"３號","E_COORD97":174292.73999999999,"N_COORD97":2548542.52,"ADDRESS":"八德街２６巷３號","OBJECTID":265596},"geometry":{"x":174292.74000000115,"y":2548542.5199999996}},{"attributes":{"ID":265601,"DIS_CODE":0,"TOWNNAME":"永康區","LI":"埔園里","LIN":"34鄰","STREET":"八德街","SECT":" ","MAREA":" ","LANE":"２６巷","ALLEY":" ","HOUSE_NO":"２２號","E_COORD97":174315.59,"N_COORD97":2548560.9900000002,"ADDRESS":"八德街２６巷２２號","OBJECTID":265597},"geometry":{"x":174315.59000000078,"y":2548560.9900000039}},{"attributes":{"ID":265602,"DIS_CODE":0,"TOWNNAME":"永康區","LI":"南灣里","LIN":"34鄰","STREET":"南灣街","SECT":" ","MAREA":" ","LANE":"９９巷","ALLEY":" ","HOUSE_NO":"２２號","E_COORD97":174297.67999999999,"N_COORD97":2544907.7599999998,"ADDRESS":"南灣街９９巷２２號","OBJECTID":265598},"geometry":{"x":174297.68000000063,"y":2544907.7600000016}},{"attributes":{"ID":265603,"DIS_CODE":0,"TOWNNAME":"永康區","LI":"南灣里","LIN":"34鄰","STREET":"南灣街","SECT":" ","MAREA":" ","LANE":"９９巷","ALLEY":" ","HOUSE_NO":"１５號","E_COORD97":174322.12,"N_COORD97":2544903.27,"ADDRESS":"南灣街９９巷１５號","OBJECTID":265599},"geometry":{"x":174322.12000000197,"y":2544903.2699999977}},{"attributes":{"ID":265604,"DIS_CODE":0,"TOWNNAME":"七股區","LI":"大寮里","LIN":"3鄰","STREET":" ","SECT":" ","MAREA":"大寮","LANE":" ","ALLEY":" ","HOUSE_NO":"３０號","E_COORD97":163040.29000000001,"N_COORD97":2561064.6899999999,"ADDRESS":"大寮３０號","OBJECTID":265600},"geometry":{"x":163040.29000000004,"y":2561064.6899999995}}]}