{"displayFieldName":"TOWNNAME","fieldAliases":{"ID":"ID","DIS_CODE":"DIS_CODE","TOWNNAME":"TOWNNAME","LI":"LI","LIN":"LIN","STREET":"STREET","SECT":"SECT","MAREA":"MAREA","LANE":"LANE","ALLEY":"ALLEY","HOUSE_NO":"HOUSE_NO","E_COORD97":"E_COORD97","N_COORD97":"N_COORD97","ADDRESS":"ADDRESS","OBJECTID":"OBJECTID"},"geometryType":"esriGeometryPoint","spatialReference":{"wkid":102443,"latestWkid":3826},"fields":[{"name":"ID","type":"esriFieldTypeDouble","alias":"ID"},{"name":"DIS_CODE","type":"esriFieldTypeInteger","alias":"DIS_CODE"},{"name":"TOWNNAME","type":"esriFieldTypeString","alias":"TOWNNAME","length":8},{"name":"LI","type":"esriFieldTypeString","alias":"LI","length":8},{"name":"LIN","type":"esriFieldTypeString","alias":"LIN","length":12},{"name":"STREET","type":"esriFieldTypeString","alias":"STREET","length":20},{"name":"SECT","type":"esriFieldTypeString","alias":"SECT","length":8},{"name":"MAREA","type":"esriFieldTypeString","alias":"MAREA","length":12},{"name":"LANE","type":"esriFieldTypeString","alias":"LANE","length":10},{"name":"ALLEY","type":"esriFieldTypeString","alias":"ALLEY","length":10},{"name":"HOUSE_NO","type":"esriFieldTypeString","alias":"HOUSE_NO","length":20},{"name":"E_COORD97","type":"esriFieldTypeDouble","alias":"E_COORD97"},{"name":"N_COORD97","type":"esriFieldTypeDouble","alias":"N_COORD97"},{"name":"ADDRESS","type":"esriFieldTypeString","alias":"ADDRESS","length":50},{"name":"OBJECTID","type":"esriFieldTypeOID","alias":"OBJECTID"}],"features":[{"attributes":{"ID":663828,"DIS_CODE":0,"TOWNNAME":"南區","LI":"明德里","LIN":"13鄰","STREET":"大成路","SECT":"一段","MAREA":" ","LANE":"３０巷","ALLEY":" ","HOUSE_NO":"３２號","E_COORD97":168303.78363300001,"N_COORD97":2541780.5916599999,"ADDRESS":"大成路一段３０巷３２號","OBJECTID":663801},"geometry":{"x":168303.78363300115,"y":2541780.5916610025}},{"attributes":{"ID":663829,"DIS_CODE":0,"TOWNNAME":"南區","LI":"明德里","LIN":"13鄰","STREET":"大成路","SECT":"一段","MAREA":" ","LANE":"３０巷","ALLEY":" ","HOUSE_NO":"３６號","E_COORD97":168311.61927299999,"N_COORD97":2541780.80333,"ADDRESS":"大成路一段３０巷３６號","OBJECTID":663802},"geometry":{"x":168311.6192730004,"y":2541780.8033269998}},{"attributes":{"ID":663830,"DIS_CODE":0,"TOWNNAME":"南區","LI":"明德里","LIN":"13鄰","STREET":"大成路","SECT":"一段","MAREA":" ","LANE":"３０巷","ALLEY":" ","HOUSE_NO":"２５號","E_COORD97":168154.48292099999,"N_COORD97":2541781.4383299998,"ADDRESS":"大成路一段３０巷２５號","OBJECTID":663803},"geometry":{"x":168154.48292100057,"y":2541781.4383269995}},{"attributes":{"ID":663831,"DIS_CODE":0,"TOWNNAME":"南區","LI":"明德里","LIN":"13鄰","STREET":"大成路","SECT":"一段","MAREA":" ","LANE":"３０巷","ALLEY":" ","HOUSE_NO":"２７號","E_COORD97":168158.718402,"N_COORD97":2541782.07333,"ADDRESS":"大成路一段３０巷２７號","OBJECTID":663804},"geometry":{"x":168158.71840200201,"y":2541782.0733259991}},{"attributes":{"ID":663832,"DIS_CODE":0,"TOWNNAME":"南區","LI":"明德里","LIN":"13鄰","STREET":"大成路","SECT":"一段","MAREA":" ","LANE":"３０巷","ALLEY":" ","HOUSE_NO":"２９號","E_COORD97":168162.53033499999,"N_COORD97":2541781.4383299998,"ADDRESS":"大成路一段３０巷２９號","OBJECTID":663805},"geometry":{"x":168162.53033499978,"y":2541781.4383269995}},{"attributes":{"ID":663833,"DIS_CODE":0,"TOWNNAME":"南區","LI":"明德里","LIN":"13鄰","STREET":"大成路","SECT":"一段","MAREA":" ","LANE":"３０巷","ALLEY":" ","HOUSE_NO":"３１號","E_COORD97":168166.765816,"N_COORD97":2541781.2266600002,"ADDRESS":"大成路一段３０巷３１號","OBJECTID":663806},"geometry":{"x":168166.76581600122,"y":2541781.226660002}},{"attributes":{"ID":663834,"DIS_CODE":0,"TOWNNAME":"南區","LI":"明德里","LIN":"13鄰","STREET":"大成路","SECT":"一段","MAREA":" ","LANE":"３０巷","ALLEY":" ","HOUSE_NO":"３３號","E_COORD97":168171.636619,"N_COORD97":2541782.07333,"ADDRESS":"大成路一段３０巷３３號","OBJECTID":663807},"geometry":{"x":168171.63661899976,"y":2541782.0733259991}},{"attributes":{"ID":663835,"DIS_CODE":0,"TOWNNAME":"南區","LI":"明德里","LIN":"13鄰","STREET":"大成路","SECT":"一段","MAREA":" ","LANE":"３０巷","ALLEY":" ","HOUSE_NO":"３５號","E_COORD97":168176.507423,"N_COORD97":2541782.2849900001,"ADDRESS":"大成路一段３０巷３５號","OBJECTID":663808},"geometry":{"x":168176.50742300041,"y":2541782.2849930003}},{"attributes":{"ID":663836,"DIS_CODE":0,"TOWNNAME":"南區","LI":"明德里","LIN":"13鄰","STREET":"大成路","SECT":"一段","MAREA":" ","LANE":"３０巷","ALLEY":" ","HOUSE_NO":"３７號","E_COORD97":168182.22532200001,"N_COORD97":2541781.6499899998,"ADDRESS":"大成路一段３０巷３７號","OBJECTID":663809},"geometry":{"x":168182.22532199975,"y":2541781.6499930006}},{"attributes":{"ID":663837,"DIS_CODE":0,"TOWNNAME":"南區","LI":"明德里","LIN":"13鄰","STREET":"大成路","SECT":"一段","MAREA":" ","LANE":"３０巷","ALLEY":" ","HOUSE_NO":"３９號","E_COORD97":168186.88435199999,"N_COORD97":2541781.4383299998,"ADDRESS":"大成路一段３０巷３９號","OBJECTID":663810},"geometry":{"x":168186.88435200136,"y":2541781.4383269995}},{"attributes":{"ID":663838,"DIS_CODE":0,"TOWNNAME":"南區","LI":"明德里","LIN":"13鄰","STREET":"大成路","SECT":"一段","MAREA":" ","LANE":"３０巷","ALLEY":" ","HOUSE_NO":"４１號","E_COORD97":168192.39047700001,"N_COORD97":2541781.8616599999,"ADDRESS":"大成路一段３０巷４１號","OBJECTID":663811},"geometry":{"x":168192.3904769998,"y":2541781.8616600018}},{"attributes":{"ID":663839,"DIS_CODE":0,"TOWNNAME":"南區","LI":"明德里","LIN":"13鄰","STREET":"大成路","SECT":"一段","MAREA":" ","LANE":"３０巷","ALLEY":" ","HOUSE_NO":"４３號","E_COORD97":168197.04950699999,"N_COORD97":2541781.6499899998,"ADDRESS":"大成路一段３０巷４３號","OBJECTID":663812},"geometry":{"x":168197.04950699955,"y":2541781.6499930006}},{"attributes":{"ID":663840,"DIS_CODE":0,"TOWNNAME":"南區","LI":"明德里","LIN":"13鄰","STREET":"大成路","SECT":"一段","MAREA":" ","LANE":"３０巷","ALLEY":" ","HOUSE_NO":"４５號","E_COORD97":168203.40272799999,"N_COORD97":2541782.07333,"ADDRESS":"大成路一段３０巷４５號","OBJECTID":663813},"geometry":{"x":168203.40272800066,"y":2541782.0733259991}},{"attributes":{"ID":663841,"DIS_CODE":0,"TOWNNAME":"南區","LI":"明德里","LIN":"13鄰","STREET":"大成路","SECT":"一段","MAREA":" ","LANE":"３０巷","ALLEY":" ","HOUSE_NO":"４７號","E_COORD97":168210.17949800001,"N_COORD97":2541781.8616599999,"ADDRESS":"大成路一段３０巷４７號","OBJECTID":663814},"geometry":{"x":168210.179498001,"y":2541781.8616600018}},{"attributes":{"ID":663842,"DIS_CODE":0,"TOWNNAME":"南區","LI":"明德里","LIN":"13鄰","STREET":"大成路","SECT":"一段","MAREA":" ","LANE":"３０巷","ALLEY":" ","HOUSE_NO":"４９號","E_COORD97":168211.66191699999,"N_COORD97":2541793.5033200001,"ADDRESS":"大成路一段３０巷４９號","OBJECTID":663815},"geometry":{"x":168211.66191700008,"y":2541793.5033200011}},{"attributes":{"ID":663843,"DIS_CODE":0,"TOWNNAME":"南區","LI":"明德里","LIN":"13鄰","STREET":"大成路","SECT":"一段","MAREA":" ","LANE":"３０巷","ALLEY":" ","HOUSE_NO":"５１號","E_COORD97":168203.61450200001,"N_COORD97":2541794.1383199999,"ADDRESS":"大成路一段３０巷５１號","OBJECTID":663816},"geometry":{"x":168203.61450199969,"y":2541794.1383200008}},{"attributes":{"ID":663844,"DIS_CODE":0,"TOWNNAME":"南區","LI":"明德里","LIN":"13鄰","STREET":"大成路","SECT":"一段","MAREA":" ","LANE":"３０巷","ALLEY":" ","HOUSE_NO":"５３號","E_COORD97":168197.26128100001,"N_COORD97":2541795.1966499998,"ADDRESS":"大成路一段３０巷５３號","OBJECTID":663817},"geometry":{"x":168197.26128100045,"y":2541795.1966530047}},{"attributes":{"ID":663845,"DIS_CODE":0,"TOWNNAME":"南區","LI":"明德里","LIN":"13鄰","STREET":"大成路","SECT":"一段","MAREA":" ","LANE":"３０巷","ALLEY":" ","HOUSE_NO":"５５號","E_COORD97":168191.75515499999,"N_COORD97":2541795.61999,"ADDRESS":"大成路一段３０巷５５號","OBJECTID":663818},"geometry":{"x":168191.7551549999,"y":2541795.6199860033}},{"attributes":{"ID":663846,"DIS_CODE":0,"TOWNNAME":"南區","LI":"明德里","LIN":"13鄰","STREET":"大成路","SECT":"一段","MAREA":" ","LANE":"３０巷","ALLEY":" ","HOUSE_NO":"５７號","E_COORD97":168187.51967400001,"N_COORD97":2541796.0433200002,"ADDRESS":"大成路一段３０巷５７號","OBJECTID":663819},"geometry":{"x":168187.51967400126,"y":2541796.0433190018}},{"attributes":{"ID":663847,"DIS_CODE":0,"TOWNNAME":"南區","LI":"明德里","LIN":"13鄰","STREET":"大成路","SECT":"一段","MAREA":" ","LANE":"３０巷","ALLEY":" ","HOUSE_NO":"５９號","E_COORD97":168181.166452,"N_COORD97":2541796.2549899998,"ADDRESS":"大成路一段３０巷５９號","OBJECTID":663820},"geometry":{"x":168181.16645200085,"y":2541796.2549850028}},{"attributes":{"ID":663848,"DIS_CODE":0,"TOWNNAME":"仁德區","LI":"仁義里","LIN":"21鄰","STREET":"中山路","SECT":" ","MAREA":" ","LANE":" ","ALLEY":" ","HOUSE_NO":"３６４號","E_COORD97":173864.95194500001,"N_COORD97":2541274.4013700001,"ADDRESS":"中山路３６４號","OBJECTID":663821},"geometry":{"x":173864.95194500126,"y":2541274.4013679996}},{"attributes":{"ID":663849,"DIS_CODE":0,"TOWNNAME":"南區","LI":"明德里","LIN":"13鄰","STREET":"大成路","SECT":"一段","MAREA":" ","LANE":"３０巷","ALLEY":" ","HOUSE_NO":"６１號","E_COORD97":168176.08387500001,"N_COORD97":2541796.5724800001,"ADDRESS":"大成路一段３０巷６１號","OBJECTID":663822},"geometry":{"x":168176.08387500141,"y":2541796.5724849999}},{"attributes":{"ID":663850,"DIS_CODE":0,"TOWNNAME":"南區","LI":"明德里","LIN":"13鄰","STREET":"大成路","SECT":"一段","MAREA":" ","LANE":"３０巷","ALLEY":" ","HOUSE_NO":"６３號","E_COORD97":168171.848394,"N_COORD97":2541796.14915,"ADDRESS":"大成路一段３０巷６３號","OBJECTID":663823},"geometry":{"x":168171.84839399997,"y":2541796.1491520014}},{"attributes":{"ID":663851,"DIS_CODE":0,"TOWNNAME":"南區","LI":"明德里","LIN":"13鄰","STREET":"大成路","SECT":"一段","MAREA":" ","LANE":"３０巷","ALLEY":" ","HOUSE_NO":"６５號","E_COORD97":168166.97758999999,"N_COORD97":2541795.9374899999,"ADDRESS":"大成路一段３０巷６５號","OBJECTID":663824},"geometry":{"x":168166.97759000119,"y":2541795.9374860004}},{"attributes":{"ID":663852,"DIS_CODE":0,"TOWNNAME":"南區","LI":"明德里","LIN":"13鄰","STREET":"大成路","SECT":"一段","MAREA":" ","LANE":"３０巷","ALLEY":" ","HOUSE_NO":"６７號","E_COORD97":168162.106787,"N_COORD97":2541795.7258199998,"ADDRESS":"大成路一段３０巷６７號","OBJECTID":663825},"geometry":{"x":168162.10678700078,"y":2541795.7258189991}},{"attributes":{"ID":663853,"DIS_CODE":0,"TOWNNAME":"南區","LI":"明德里","LIN":"13鄰","STREET":"大成路","SECT":"一段","MAREA":" ","LANE":"３０巷","ALLEY":" ","HOUSE_NO":"６９號","E_COORD97":168158.93017599999,"N_COORD97":2541795.3024900001,"ADDRESS":"大成路一段３０巷６９號","OBJECTID":663826},"geometry":{"x":168158.93017600011,"y":2541795.3024860006}},{"attributes":{"ID":663854,"DIS_CODE":0,"TOWNNAME":"南區","LI":"明德里","LIN":"13鄰","STREET":"大成路","SECT":"一段","MAREA":" ","LANE":"３０巷","ALLEY":" ","HOUSE_NO":"７１號","E_COORD97":168155.541791,"N_COORD97":2541795.7258199998,"ADDRESS":"大成路一段３０巷７１號","OBJECTID":663827},"geometry":{"x":168155.54179100133,"y":2541795.7258189991}},{"attributes":{"ID":663855,"DIS_CODE":0,"TOWNNAME":"南區","LI":"明德里","LIN":"13鄰","STREET":"大成路","SECT":"一段","MAREA":" ","LANE":"３０巷","ALLEY":" ","HOUSE_NO":"３８號","E_COORD97":168321.149106,"N_COORD97":2541792.55082,"ADDRESS":"大成路一段３０巷３８號","OBJECTID":663828},"geometry":{"x":168321.14910600055,"y":2541792.5508209988}},{"attributes":{"ID":663856,"DIS_CODE":0,"TOWNNAME":"南區","LI":"明德里","LIN":"13鄰","STREET":"大成路","SECT":"一段","MAREA":" ","LANE":"３０巷","ALLEY":" ","HOUSE_NO":"４０號","E_COORD97":168314.160562,"N_COORD97":2541792.7624900001,"ADDRESS":"大成路一段３０巷４０號","OBJECTID":663829},"geometry":{"x":168314.16056200024,"y":2541792.7624870017}},{"attributes":{"ID":663857,"DIS_CODE":0,"TOWNNAME":"南區","LI":"明德里","LIN":"13鄰","STREET":"大成路","SECT":"一段","MAREA":" ","LANE":"３０巷","ALLEY":" ","HOUSE_NO":"４２號","E_COORD97":168307.17201800001,"N_COORD97":2541794.0324900001,"ADDRESS":"大成路一段３０巷４２號","OBJECTID":663830},"geometry":{"x":168307.17201799992,"y":2541794.0324870013}},{"attributes":{"ID":663858,"DIS_CODE":0,"TOWNNAME":"南區","LI":"明德里","LIN":"13鄰","STREET":"大成路","SECT":"一段","MAREA":" ","LANE":"３０巷","ALLEY":" ","HOUSE_NO":"４６號","E_COORD97":168300.81879600001,"N_COORD97":2541794.2441500002,"ADDRESS":"大成路一段３０巷４６號","OBJECTID":663831},"geometry":{"x":168300.81879600231,"y":2541794.2441530023}},{"attributes":{"ID":663859,"DIS_CODE":0,"TOWNNAME":"南區","LI":"明德里","LIN":"13鄰","STREET":"大成路","SECT":"一段","MAREA":" ","LANE":"３０巷","ALLEY":" ","HOUSE_NO":"４８號","E_COORD97":168295.31267000001,"N_COORD97":2541794.4558199998,"ADDRESS":"大成路一段３０巷４８號","OBJECTID":663832},"geometry":{"x":168295.3126699999,"y":2541794.4558199998}},{"attributes":{"ID":663860,"DIS_CODE":0,"TOWNNAME":"南區","LI":"明德里","LIN":"13鄰","STREET":"大成路","SECT":"一段","MAREA":" ","LANE":"３０巷","ALLEY":" ","HOUSE_NO":"５０號","E_COORD97":168289.594771,"N_COORD97":2541794.8791499999,"ADDRESS":"大成路一段３０巷５０號","OBJECTID":663833},"geometry":{"x":168289.59477100056,"y":2541794.8791530021}},{"attributes":{"ID":663861,"DIS_CODE":0,"TOWNNAME":"南區","LI":"明德里","LIN":"13鄰","STREET":"大成路","SECT":"一段","MAREA":" ","LANE":"３０巷","ALLEY":" ","HOUSE_NO":"５２號","E_COORD97":168284.723967,"N_COORD97":2541795.9374899999,"ADDRESS":"大成路一段３０巷５２號","OBJECTID":663834},"geometry":{"x":168284.72396699991,"y":2541795.9374860004}},{"attributes":{"ID":663862,"DIS_CODE":0,"TOWNNAME":"南區","LI":"明德里","LIN":"13鄰","STREET":"大成路","SECT":"一段","MAREA":" ","LANE":"３０巷","ALLEY":" ","HOUSE_NO":"５６號","E_COORD97":168279.00606799999,"N_COORD97":2541795.3024900001,"ADDRESS":"大成路一段３０巷５６號","OBJECTID":663835},"geometry":{"x":168279.00606800057,"y":2541795.3024860006}},{"attributes":{"ID":663863,"DIS_CODE":0,"TOWNNAME":"南區","LI":"明德里","LIN":"13鄰","STREET":"大成路","SECT":"一段","MAREA":" ","LANE":"３０巷","ALLEY":" ","HOUSE_NO":"５８號","E_COORD97":168273.49994199999,"N_COORD97":2541795.5141500002,"ADDRESS":"大成路一段３０巷５８號","OBJECTID":663836},"geometry":{"x":168273.49994200002,"y":2541795.5141530018}},{"attributes":{"ID":663864,"DIS_CODE":0,"TOWNNAME":"南區","LI":"明德里","LIN":"13鄰","STREET":"大成路","SECT":"一段","MAREA":" ","LANE":"３０巷","ALLEY":" ","HOUSE_NO":"６０號","E_COORD97":168267.35849399999,"N_COORD97":2541796.14915,"ADDRESS":"大成路一段３０巷６０號","OBJECTID":663837},"geometry":{"x":168267.35849400051,"y":2541796.1491520014}},{"attributes":{"ID":663865,"DIS_CODE":0,"TOWNNAME":"南區","LI":"明德里","LIN":"13鄰","STREET":"大成路","SECT":"一段","MAREA":" ","LANE":"３０巷","ALLEY":" ","HOUSE_NO":"６２號","E_COORD97":168262.69946500001,"N_COORD97":2541796.5724800001,"ADDRESS":"大成路一段３０巷６２號","OBJECTID":663838},"geometry":{"x":168262.69946500007,"y":2541796.5724849999}},{"attributes":{"ID":663866,"DIS_CODE":0,"TOWNNAME":"南區","LI":"明德里","LIN":"13鄰","STREET":"大成路","SECT":"一段","MAREA":" ","LANE":"３０巷","ALLEY":" ","HOUSE_NO":"６６號","E_COORD97":168256.558017,"N_COORD97":2541796.5724800001,"ADDRESS":"大成路一段３０巷６６號","OBJECTID":663839},"geometry":{"x":168256.55801700056,"y":2541796.5724849999}},{"attributes":{"ID":663867,"DIS_CODE":0,"TOWNNAME":"南區","LI":"明德里","LIN":"13鄰","STREET":"大成路","SECT":"一段","MAREA":" ","LANE":"３０巷","ALLEY":" ","HOUSE_NO":"６８號","E_COORD97":168252.53430999999,"N_COORD97":2541796.7841500002,"ADDRESS":"大成路一段３０巷６８號","OBJECTID":663840},"geometry":{"x":168252.53430999909,"y":2541796.7841520011}},{"attributes":{"ID":663868,"DIS_CODE":0,"TOWNNAME":"南區","LI":"明德里","LIN":"13鄰","STREET":"大成路","SECT":"一段","MAREA":" ","LANE":"３０巷","ALLEY":" ","HOUSE_NO":"７０號","E_COORD97":168247.45173299999,"N_COORD97":2541796.7841500002,"ADDRESS":"大成路一段３０巷７０號","OBJECTID":663841},"geometry":{"x":168247.45173299965,"y":2541796.7841520011}},{"attributes":{"ID":663869,"DIS_CODE":0,"TOWNNAME":"南區","LI":"明德里","LIN":"13鄰","STREET":"大成路","SECT":"一段","MAREA":" ","LANE":"３０巷","ALLEY":" ","HOUSE_NO":"７２號","E_COORD97":168242.36915499999,"N_COORD97":2541796.7841500002,"ADDRESS":"大成路一段３０巷７２號","OBJECTID":663842},"geometry":{"x":168242.3691550009,"y":2541796.7841520011}},{"attributes":{"ID":663870,"DIS_CODE":0,"TOWNNAME":"南區","LI":"明德里","LIN":"13鄰","STREET":"大成路","SECT":"一段","MAREA":" ","LANE":"３０巷","ALLEY":" ","HOUSE_NO":"７６號","E_COORD97":168236.86303000001,"N_COORD97":2541796.9958199998,"ADDRESS":"大成路一段３０巷７６號","OBJECTID":663843},"geometry":{"x":168236.86303000059,"y":2541796.995818004}},{"attributes":{"ID":663871,"DIS_CODE":0,"TOWNNAME":"麻豆區","LI":"安西里","LIN":"1鄰","STREET":" ","SECT":" ","MAREA":"東溪洲","LANE":" ","ALLEY":" ","HOUSE_NO":"２號之３０","E_COORD97":172560.24164699999,"N_COORD97":2561326.6469299998,"ADDRESS":"東溪洲２號之３０","OBJECTID":663844},"geometry":{"x":172560.24164700136,"y":2561326.6469260007}},{"attributes":{"ID":663872,"DIS_CODE":0,"TOWNNAME":"新化區","LI":"\u25A0拔里","LIN":"7鄰","STREET":" ","SECT":" ","MAREA":"\u25A0拔林","LANE":" ","ALLEY":" ","HOUSE_NO":"２８５號之３","E_COORD97":183614.54829000001,"N_COORD97":2551859.3486600001,"ADDRESS":"\u25A0拔林２８５號之３","OBJECTID":663845},"geometry":{"x":183614.54829000216,"y":2551859.3486599997}},{"attributes":{"ID":663873,"DIS_CODE":0,"TOWNNAME":"新化區","LI":"\u25A0拔里","LIN":"4鄰","STREET":" ","SECT":" ","MAREA":"\u25A0拔林","LANE":" ","ALLEY":" ","HOUSE_NO":"１６７號","E_COORD97":183897.60316999999,"N_COORD97":2552089.5360400002,"ADDRESS":"\u25A0拔林１６７號","OBJECTID":663846},"geometry":{"x":183897.60317000095,"y":2552089.5360399988}},{"attributes":{"ID":663874,"DIS_CODE":0,"TOWNNAME":"新化區","LI":"\u25A0拔里","LIN":"1鄰","STREET":" ","SECT":" ","MAREA":"\u25A0拔林","LANE":" ","ALLEY":" ","HOUSE_NO":"２２號之１","E_COORD97":183277.46723000001,"N_COORD97":2551888.55865,"ADDRESS":"\u25A0拔林２２號之１","OBJECTID":663847},"geometry":{"x":183277.4672299996,"y":2551888.55865}},{"attributes":{"ID":663875,"DIS_CODE":0,"TOWNNAME":"新化區","LI":"\u25A0拔里","LIN":"1鄰","STREET":" ","SECT":" ","MAREA":"\u25A0拔林","LANE":" ","ALLEY":" ","HOUSE_NO":"３８號之１２","E_COORD97":182476.18465000001,"N_COORD97":2552246.3809600002,"ADDRESS":"\u25A0拔林３８號之１２","OBJECTID":663848},"geometry":{"x":182476.18465000112,"y":2552246.3809600007}},{"attributes":{"ID":663876,"DIS_CODE":0,"TOWNNAME":"新化區","LI":"\u25A0拔里","LIN":"10鄰","STREET":" ","SECT":" ","MAREA":"牧場","LANE":" ","ALLEY":" ","HOUSE_NO":"７２號之８","E_COORD97":182117.01558100001,"N_COORD97":2551541.1078599999,"ADDRESS":"牧場７２號之８","OBJECTID":663849},"geometry":{"x":182117.0155810006,"y":2551541.1078570038}},{"attributes":{"ID":663877,"DIS_CODE":0,"TOWNNAME":"新化區","LI":"\u25A0拔里","LIN":"1鄰","STREET":" ","SECT":" ","MAREA":"\u25A0拔林","LANE":" ","ALLEY":" ","HOUSE_NO":"３２號之８","E_COORD97":182944.993457,"N_COORD97":2551997.2492800001,"ADDRESS":"\u25A0拔林３２號之８","OBJECTID":663850},"geometry":{"x":182944.99345700163,"y":2551997.2492769994}},{"attributes":{"ID":663878,"DIS_CODE":0,"TOWNNAME":"新化區","LI":"\u25A0拔里","LIN":"2鄰","STREET":" ","SECT":" ","MAREA":"\u25A0拔林","LANE":" ","ALLEY":" ","HOUSE_NO":"８９號之１８","E_COORD97":183034.296026,"N_COORD97":2552481.3841300001,"ADDRESS":"\u25A0拔林８９號之１８","OBJECTID":663851},"geometry":{"x":183034.29602599982,"y":2552481.384126002}},{"attributes":{"ID":663879,"DIS_CODE":0,"TOWNNAME":"新化區","LI":"\u25A0拔里","LIN":"10鄰","STREET":" ","SECT":" ","MAREA":"\u25A0拔林","LANE":" ","ALLEY":" ","HOUSE_NO":"４２號之１１","E_COORD97":183185.569364,"N_COORD97":2552063.3426899998,"ADDRESS":"\u25A0拔林４２號之１１","OBJECTID":663852},"geometry":{"x":183185.56936400011,"y":2552063.342685001}},{"attributes":{"ID":663880,"DIS_CODE":0,"TOWNNAME":"新化區","LI":"\u25A0拔里","LIN":"2鄰","STREET":" ","SECT":" ","MAREA":"\u25A0拔林","LANE":" ","ALLEY":" ","HOUSE_NO":"８９號之３６","E_COORD97":182984.71905000001,"N_COORD97":2552552.0807599998,"ADDRESS":"\u25A0拔林８９號之３６","OBJECTID":663853},"geometry":{"x":182984.71905000135,"y":2552552.0807550009}},{"attributes":{"ID":663881,"DIS_CODE":0,"TOWNNAME":"新化區","LI":"\u25A0拔里","LIN":"2鄰","STREET":" ","SECT":" ","MAREA":"\u25A0拔林","LANE":" ","ALLEY":" ","HOUSE_NO":"８９號之２６","E_COORD97":183013.74488700001,"N_COORD97":2552608.17239,"ADDRESS":"\u25A0拔林８９號之２６","OBJECTID":663854},"geometry":{"x":183013.74488699995,"y":2552608.1723910011}},{"attributes":{"ID":663882,"DIS_CODE":0,"TOWNNAME":"新化區","LI":"\u25A0拔里","LIN":"2鄰","STREET":" ","SECT":" ","MAREA":"\u25A0拔林","LANE":" ","ALLEY":" ","HOUSE_NO":"１號之８","E_COORD97":182702.29978,"N_COORD97":2551682.2370600002,"ADDRESS":"\u25A0拔林１號之８","OBJECTID":663855},"geometry":{"x":182702.29978000093,"y":2551682.2370580006}},{"attributes":{"ID":663883,"DIS_CODE":0,"TOWNNAME":"新化區","LI":"\u25A0拔里","LIN":"1鄰","STREET":" ","SECT":" ","MAREA":"\u25A0拔林","LANE":" ","ALLEY":" ","HOUSE_NO":"２３號之１６","E_COORD97":183392.140098,"N_COORD97":2551936.1310899998,"ADDRESS":"\u25A0拔林２３號之１６","OBJECTID":663856},"geometry":{"x":183392.14009800088,"y":2551936.1310870033}},{"attributes":{"ID":663884,"DIS_CODE":0,"TOWNNAME":"新化區","LI":"\u25A0拔里","LIN":"2鄰","STREET":" ","SECT":" ","MAREA":"\u25A0拔林","LANE":" ","ALLEY":" ","HOUSE_NO":"８９號之１５","E_COORD97":183031.75361700001,"N_COORD97":2552501.8099500001,"ADDRESS":"\u25A0拔林８９號之１５","OBJECTID":663857},"geometry":{"x":183031.75361700077,"y":2552501.8099489994}},{"attributes":{"ID":663885,"DIS_CODE":0,"TOWNNAME":"新化區","LI":"\u25A0拔里","LIN":"2鄰","STREET":" ","SECT":" ","MAREA":"\u25A0拔林","LANE":" ","ALLEY":" ","HOUSE_NO":"８９號之２１","E_COORD97":183088.05746000001,"N_COORD97":2552541.6560999998,"ADDRESS":"\u25A0拔林８９號之２１","OBJECTID":663858},"geometry":{"x":183088.05745999981,"y":2552541.6561020017}},{"attributes":{"ID":663886,"DIS_CODE":0,"TOWNNAME":"新化區","LI":"\u25A0拔里","LIN":"1鄰","STREET":" ","SECT":" ","MAREA":"\u25A0拔林","LANE":" ","ALLEY":" ","HOUSE_NO":"１號之７（農業資料室","E_COORD97":182587.414747,"N_COORD97":2551769.6553400001,"ADDRESS":"\u25A0拔林１號之７（農業資料室）","OBJECTID":663859},"geometry":{"x":182587.41474700067,"y":2551769.6553440019}},{"attributes":{"ID":663887,"DIS_CODE":0,"TOWNNAME":"新化區","LI":"\u25A0拔里","LIN":"1鄰","STREET":" ","SECT":" ","MAREA":"\u25A0拔林","LANE":" ","ALLEY":" ","HOUSE_NO":"３６號之１９","E_COORD97":183025.132836,"N_COORD97":2552028.2060400001,"ADDRESS":"\u25A0拔林３６號之１９","OBJECTID":663860},"geometry":{"x":183025.13283600006,"y":2552028.2060380001}},{"attributes":{"ID":663888,"DIS_CODE":0,"TOWNNAME":"新化區","LI":"羊林里","LIN":"6鄰","STREET":" ","SECT":" ","MAREA":"\u25A0拔林","LANE":" ","ALLEY":" ","HOUSE_NO":"５００號之３","E_COORD97":183287.21283400001,"N_COORD97":2551562.22212,"ADDRESS":"\u25A0拔林５００號之３","OBJECTID":663861},"geometry":{"x":183287.21283399966,"y":2551562.2221230026}},{"attributes":{"ID":663889,"DIS_CODE":0,"TOWNNAME":"新化區","LI":"羊林里","LIN":"6鄰","STREET":" ","SECT":" ","MAREA":"\u25A0拔林","LANE":" ","ALLEY":" ","HOUSE_NO":"５００號之５","E_COORD97":183310.30638299999,"N_COORD97":2551545.6063000001,"ADDRESS":"\u25A0拔林５００號之５","OBJECTID":663862},"geometry":{"x":183310.30638299976,"y":2551545.6062980015}},{"attributes":{"ID":663890,"DIS_CODE":0,"TOWNNAME":"新化區","LI":"中央里","LIN":"5鄰","STREET":"和平街","SECT":" ","MAREA":" ","LANE":" ","ALLEY":" ","HOUSE_NO":"１９２號之２","E_COORD97":178897.10803,"N_COORD97":2548371.5605100002,"ADDRESS":"和平街１９２號之２","OBJECTID":663863},"geometry":{"x":178897.10802999977,"y":2548371.5605100021}},{"attributes":{"ID":663891,"DIS_CODE":0,"TOWNNAME":"新化區","LI":"羊林里","LIN":"3鄰","STREET":" ","SECT":" ","MAREA":"\u25A0拔林","LANE":" ","ALLEY":" ","HOUSE_NO":"４３２號之２","E_COORD97":183783.40633100001,"N_COORD97":2551563.5979599999,"ADDRESS":"\u25A0拔林４３２號之２","OBJECTID":663864},"geometry":{"x":183783.40633100085,"y":2551563.5979549997}},{"attributes":{"ID":663892,"DIS_CODE":0,"TOWNNAME":"新化區","LI":"中央里","LIN":"6鄰","STREET":"信義路","SECT":" ","MAREA":" ","LANE":" ","ALLEY":" ","HOUSE_NO":"３３８號之２","E_COORD97":178877.61623000001,"N_COORD97":2548309.85971,"ADDRESS":"信義路３３８號之２","OBJECTID":663865},"geometry":{"x":178877.61622999981,"y":2548309.8597100023}},{"attributes":{"ID":663893,"DIS_CODE":0,"TOWNNAME":"新化區","LI":"\u25A0拔里","LIN":"1鄰","STREET":" ","SECT":" ","MAREA":"\u25A0拔林","LANE":" ","ALLEY":" ","HOUSE_NO":"１號之２０","E_COORD97":182639.74600000001,"N_COORD97":2551655.1437400002,"ADDRESS":"\u25A0拔林１號之２０","OBJECTID":663866},"geometry":{"x":182639.74600000028,"y":2551655.1437390037}},{"attributes":{"ID":663894,"DIS_CODE":0,"TOWNNAME":"新化區","LI":"\u25A0拔里","LIN":"1鄰","STREET":" ","SECT":" ","MAREA":"\u25A0拔林","LANE":" ","ALLEY":" ","HOUSE_NO":"２號之３","E_COORD97":182814.74848800001,"N_COORD97":2551897.8194400002,"ADDRESS":"\u25A0拔林２號之３","OBJECTID":663867},"geometry":{"x":182814.74848799873,"y":2551897.8194410037}},{"attributes":{"ID":663895,"DIS_CODE":0,"TOWNNAME":"新化區","LI":"\u25A0拔里","LIN":"1鄰","STREET":" ","SECT":" ","MAREA":"\u25A0拔林","LANE":" ","ALLEY":" ","HOUSE_NO":"２號之６","E_COORD97":182786.25216900001,"N_COORD97":2551900.83531,"ADDRESS":"\u25A0拔林２號之６","OBJECTID":663868},"geometry":{"x":182786.25216900185,"y":2551900.8353130016}},{"attributes":{"ID":663896,"DIS_CODE":0,"TOWNNAME":"新化區","LI":"\u25A0拔里","LIN":"1鄰","STREET":" ","SECT":" ","MAREA":"\u25A0拔林","LANE":" ","ALLEY":" ","HOUSE_NO":"５號之１","E_COORD97":182921.423583,"N_COORD97":2551843.4736799998,"ADDRESS":"\u25A0拔林５號之１","OBJECTID":663869},"geometry":{"x":182921.4235830009,"y":2551843.473677}},{"attributes":{"ID":663897,"DIS_CODE":0,"TOWNNAME":"新化區","LI":"\u25A0拔里","LIN":"1鄰","STREET":" ","SECT":" ","MAREA":"\u25A0拔林","LANE":" ","ALLEY":" ","HOUSE_NO":"６號","E_COORD97":182903.20298500001,"N_COORD97":2551818.07369,"ADDRESS":"\u25A0拔林６號","OBJECTID":663870},"geometry":{"x":182903.20298499987,"y":2551818.0736909993}},{"attributes":{"ID":663898,"DIS_CODE":0,"TOWNNAME":"新化區","LI":"\u25A0拔里","LIN":"1鄰","STREET":" ","SECT":" ","MAREA":"\u25A0拔林","LANE":" ","ALLEY":" ","HOUSE_NO":"１４號之３","E_COORD97":183105.748238,"N_COORD97":2551830.2445200002,"ADDRESS":"\u25A0拔林１４號之３","OBJECTID":663871},"geometry":{"x":183105.74823800102,"y":2551830.2445180025}},{"attributes":{"ID":663899,"DIS_CODE":0,"TOWNNAME":"新化區","LI":"\u25A0拔里","LIN":"1鄰","STREET":" ","SECT":" ","MAREA":"\u25A0拔林","LANE":" ","ALLEY":" ","HOUSE_NO":"２５號之６","E_COORD97":182909.02948999999,"N_COORD97":2551890.2519899998,"ADDRESS":"\u25A0拔林２５號之６","OBJECTID":663872},"geometry":{"x":182909.02949000057,"y":2551890.2519850004}},{"attributes":{"ID":663900,"DIS_CODE":0,"TOWNNAME":"新化區","LI":"\u25A0拔里","LIN":"1鄰","STREET":" ","SECT":" ","MAREA":"\u25A0拔林","LANE":" ","ALLEY":" ","HOUSE_NO":"２６號","E_COORD97":183109.24420099999,"N_COORD97":2551944.54446,"ADDRESS":"\u25A0拔林２６號","OBJECTID":663873},"geometry":{"x":183109.24420099892,"y":2551944.5444560014}},{"attributes":{"ID":663901,"DIS_CODE":0,"TOWNNAME":"新化區","LI":"\u25A0拔里","LIN":"1鄰","STREET":" ","SECT":" ","MAREA":"\u25A0拔林","LANE":" ","ALLEY":" ","HOUSE_NO":"２９號","E_COORD97":183197.59291499999,"N_COORD97":2551939.5702900002,"ADDRESS":"\u25A0拔林２９號","OBJECTID":663874},"geometry":{"x":183197.59291500039,"y":2551939.5702919997}},{"attributes":{"ID":663902,"DIS_CODE":0,"TOWNNAME":"新化區","LI":"\u25A0拔里","LIN":"1鄰","STREET":" ","SECT":" ","MAREA":"\u25A0拔林","LANE":" ","ALLEY":" ","HOUSE_NO":"２８號","E_COORD97":183214.75417599999,"N_COORD97":2551938.3002900002,"ADDRESS":"\u25A0拔林２８號","OBJECTID":663875},"geometry":{"x":183214.75417600013,"y":2551938.3002930041}},{"attributes":{"ID":663903,"DIS_CODE":0,"TOWNNAME":"新化區","LI":"\u25A0拔里","LIN":"1鄰","STREET":" ","SECT":" ","MAREA":"\u25A0拔林","LANE":" ","ALLEY":" ","HOUSE_NO":"２８號之３","E_COORD97":183092.08293999999,"N_COORD97":2551979.25777,"ADDRESS":"\u25A0拔林２８號之３","OBJECTID":663876},"geometry":{"x":183092.08294000197,"y":2551979.257771004}},{"attributes":{"ID":663904,"DIS_CODE":0,"TOWNNAME":"新化區","LI":"\u25A0拔里","LIN":"1鄰","STREET":" ","SECT":" ","MAREA":"\u25A0拔林","LANE":" ","ALLEY":" ","HOUSE_NO":"２９號之１","E_COORD97":183121.74437900001,"N_COORD97":2551971.32027,"ADDRESS":"\u25A0拔林２９號之１","OBJECTID":663877},"geometry":{"x":183121.74437899981,"y":2551971.3202750031}},{"attributes":{"ID":663905,"DIS_CODE":0,"TOWNNAME":"新化區","LI":"\u25A0拔里","LIN":"1鄰","STREET":" ","SECT":" ","MAREA":"\u25A0拔林","LANE":" ","ALLEY":" ","HOUSE_NO":"３０號之８","E_COORD97":183167.71960899999,"N_COORD97":2551917.6628,"ADDRESS":"\u25A0拔林３０號之８","OBJECTID":663878},"geometry":{"x":183167.71960900072,"y":2551917.6628040001}},{"attributes":{"ID":663906,"DIS_CODE":0,"TOWNNAME":"新化區","LI":"\u25A0拔里","LIN":"1鄰","STREET":" ","SECT":" ","MAREA":"\u25A0拔林","LANE":" ","ALLEY":" ","HOUSE_NO":"３０號","E_COORD97":183087.63372499999,"N_COORD97":2551916.2869699998,"ADDRESS":"\u25A0拔林３０號","OBJECTID":663879},"geometry":{"x":183087.63372500055,"y":2551916.286971001}},{"attributes":{"ID":663907,"DIS_CODE":0,"TOWNNAME":"新化區","LI":"\u25A0拔里","LIN":"1鄰","STREET":" ","SECT":" ","MAREA":"\u25A0拔林","LANE":" ","ALLEY":" ","HOUSE_NO":"３５號之３","E_COORD97":182033.168974,"N_COORD97":2552288.6615800001,"ADDRESS":"\u25A0拔林３５號之３","OBJECTID":663880},"geometry":{"x":182033.16897400003,"y":2552288.6615800019}},{"attributes":{"ID":663908,"DIS_CODE":0,"TOWNNAME":"關廟區","LI":"埤頭里","LIN":"4鄰","STREET":"保東一街","SECT":" ","MAREA":" ","LANE":" ","ALLEY":" ","HOUSE_NO":"３３０號","E_COORD97":178648.58513600001,"N_COORD97":2543216.8928299998,"ADDRESS":"保東一街３３０號","OBJECTID":663881},"geometry":{"x":178648.585136001,"y":2543216.8928319998}},{"attributes":{"ID":663909,"DIS_CODE":0,"TOWNNAME":"永康區","LI":"埔園里","LIN":"34鄰","STREET":"永大路","SECT":"三段","MAREA":" ","LANE":"６１８巷","ALLEY":"５５弄","HOUSE_NO":"８號","E_COORD97":174093.441842,"N_COORD97":2548756.3352199998,"ADDRESS":"永大路三段６１８巷５５弄８號","OBJECTID":663882},"geometry":{"x":174093.441842,"y":2548756.3352160025}},{"attributes":{"ID":663910,"DIS_CODE":0,"TOWNNAME":"西港區","LI":"慶安里","LIN":"8鄰","STREET":"新興街","SECT":" ","MAREA":" ","LANE":"１３９巷","ALLEY":" ","HOUSE_NO":"１２號","E_COORD97":168123.46397300001,"N_COORD97":2558300.1106099999,"ADDRESS":"新興街１３９巷１２號","OBJECTID":663883},"geometry":{"x":168123.46397300065,"y":2558300.1106060017}},{"attributes":{"ID":663911,"DIS_CODE":0,"TOWNNAME":"西港區","LI":"慶安里","LIN":"28鄰","STREET":"新興街","SECT":" ","MAREA":" ","LANE":"１５巷","ALLEY":" ","HOUSE_NO":"５號","E_COORD97":168164.98361600001,"N_COORD97":2557744.4438100001,"ADDRESS":"新興街１５巷５號","OBJECTID":663884},"geometry":{"x":168164.98361600097,"y":2557744.443808997}},{"attributes":{"ID":663912,"DIS_CODE":0,"TOWNNAME":"西港區","LI":"慶安里","LIN":"28鄰","STREET":"新興街","SECT":" ","MAREA":" ","LANE":"１５巷","ALLEY":" ","HOUSE_NO":"５之５號","E_COORD97":168185.10793299999,"N_COORD97":2557731.11723,"ADDRESS":"新興街１５巷５之５號","OBJECTID":663885},"geometry":{"x":168185.10793299973,"y":2557731.1172350012}},{"attributes":{"ID":663913,"DIS_CODE":0,"TOWNNAME":"西港區","LI":"慶安里","LIN":"28鄰","STREET":"新興街","SECT":" ","MAREA":" ","LANE":"１５巷","ALLEY":" ","HOUSE_NO":"５之１號","E_COORD97":168160.95875300001,"N_COORD97":2557739.79556,"ADDRESS":"新興街１５巷５之１號","OBJECTID":663886},"geometry":{"x":168160.95875300001,"y":2557739.7955640033}},{"attributes":{"ID":663914,"DIS_CODE":0,"TOWNNAME":"西港區","LI":"慶安里","LIN":"28鄰","STREET":"新興街","SECT":" ","MAREA":" ","LANE":"１５巷","ALLEY":" ","HOUSE_NO":"５之８號","E_COORD97":168192.52215500001,"N_COORD97":2557719.67882,"ADDRESS":"新興街１５巷５之８號","OBJECTID":663887},"geometry":{"x":168192.52215500083,"y":2557719.6788220014}},{"attributes":{"ID":663915,"DIS_CODE":0,"TOWNNAME":"西港區","LI":"慶安里","LIN":"28鄰","STREET":"新興街","SECT":" ","MAREA":" ","LANE":"１５巷","ALLEY":" ","HOUSE_NO":"５之７號","E_COORD97":168190.61564100001,"N_COORD97":2557723.0654899999,"ADDRESS":"新興街１５巷５之７號","OBJECTID":663888},"geometry":{"x":168190.61564099975,"y":2557723.065487003}},{"attributes":{"ID":663916,"DIS_CODE":0,"TOWNNAME":"西港區","LI":"慶安里","LIN":"28鄰","STREET":"新興街","SECT":" ","MAREA":" ","LANE":"１５巷","ALLEY":" ","HOUSE_NO":"５之６號","E_COORD97":168187.64995200001,"N_COORD97":2557726.4605700001,"ADDRESS":"新興街１５巷５之６號","OBJECTID":663889},"geometry":{"x":168187.64995200094,"y":2557726.4605710004}},{"attributes":{"ID":663917,"DIS_CODE":0,"TOWNNAME":"西港區","LI":"慶安里","LIN":"28鄰","STREET":"新興街","SECT":" ","MAREA":" ","LANE":"１５巷","ALLEY":" ","HOUSE_NO":"５之３號","E_COORD97":168178.752886,"N_COORD97":2557734.0805700002,"ADDRESS":"新興街１５巷５之３號","OBJECTID":663890},"geometry":{"x":168178.75288600009,"y":2557734.0805670042}},{"attributes":{"ID":663918,"DIS_CODE":0,"TOWNNAME":"西港區","LI":"慶安里","LIN":"28鄰","STREET":"新興街","SECT":" ","MAREA":" ","LANE":"１５巷","ALLEY":" ","HOUSE_NO":"５之２號","E_COORD97":168178.54105100001,"N_COORD97":2557738.3054800001,"ADDRESS":"新興街１５巷５之２號","OBJECTID":663891},"geometry":{"x":168178.54105100222,"y":2557738.3054790013}},{"attributes":{"ID":663919,"DIS_CODE":0,"TOWNNAME":"西港區","LI":"慶安里","LIN":"3鄰","STREET":" ","SECT":" ","MAREA":"中州","LANE":" ","ALLEY":" ","HOUSE_NO":"２１之３２號","E_COORD97":167274.217795,"N_COORD97":2559393.3262499999,"ADDRESS":"中州２１之３２號","OBJECTID":663892},"geometry":{"x":167274.21779500041,"y":2559393.3262510002}},{"attributes":{"ID":663920,"DIS_CODE":0,"TOWNNAME":"新市區","LI":"永就里","LIN":"6鄰","STREET":" ","SECT":" ","MAREA":"永就","LANE":" ","ALLEY":" ","HOUSE_NO":"６７之１０號","E_COORD97":177629.31517099999,"N_COORD97":2551468.76981,"ADDRESS":"永就６７之１０號","OBJECTID":663893},"geometry":{"x":177629.31517100055,"y":2551468.7698120009}},{"attributes":{"ID":663921,"DIS_CODE":0,"TOWNNAME":"新化區","LI":"\u25A0拔里","LIN":"5鄰","STREET":" ","SECT":" ","MAREA":"\u25A0拔林","LANE":" ","ALLEY":" ","HOUSE_NO":"２５０號之２","E_COORD97":183662.112685,"N_COORD97":2551873.3188100001,"ADDRESS":"\u25A0拔林２５０號之２","OBJECTID":663894},"geometry":{"x":183662.11268499959,"y":2551873.3188120015}},{"attributes":{"ID":663922,"DIS_CODE":0,"TOWNNAME":"新化區","LI":"\u25A0拔里","LIN":"5鄰","STREET":" ","SECT":" ","MAREA":"\u25A0拔林","LANE":" ","ALLEY":" ","HOUSE_NO":"２５２號之６","E_COORD97":183623.02299600001,"N_COORD97":2551908.3494799999,"ADDRESS":"\u25A0拔林２５２號之６","OBJECTID":663895},"geometry":{"x":183623.02299600001,"y":2551908.349476004}},{"attributes":{"ID":663923,"DIS_CODE":0,"TOWNNAME":"新化區","LI":"\u25A0拔里","LIN":"5鄰","STREET":" ","SECT":" ","MAREA":"\u25A0拔林","LANE":" ","ALLEY":" ","HOUSE_NO":"２５５號","E_COORD97":183637.853715,"N_COORD97":2551888.34699,"ADDRESS":"\u25A0拔林２５５號","OBJECTID":663896},"geometry":{"x":183637.85371499881,"y":2551888.3469859995}},{"attributes":{"ID":663924,"DIS_CODE":0,"TOWNNAME":"新化區","LI":"\u25A0拔里","LIN":"5鄰","STREET":" ","SECT":" ","MAREA":"\u25A0拔林","LANE":" ","ALLEY":" ","HOUSE_NO":"２２８號之５","E_COORD97":183660.94726399999,"N_COORD97":2551908.1378100002,"ADDRESS":"\u25A0拔林２２８號之５","OBJECTID":663897},"geometry":{"x":183660.94726399984,"y":2551908.1378090028}},{"attributes":{"ID":663925,"DIS_CODE":0,"TOWNNAME":"新化區","LI":"\u25A0拔里","LIN":"6鄰","STREET":" ","SECT":" ","MAREA":"\u25A0拔林","LANE":" ","ALLEY":" ","HOUSE_NO":"２４０號之６","E_COORD97":183541.03030000001,"N_COORD97":2551947.82528,"ADDRESS":"\u25A0拔林２４０號之６","OBJECTID":663898},"geometry":{"x":183541.03029999975,"y":2551947.8252800032}},{"attributes":{"ID":663926,"DIS_CODE":0,"TOWNNAME":"新化區","LI":"\u25A0拔里","LIN":"6鄰","STREET":" ","SECT":" ","MAREA":"\u25A0拔林","LANE":" ","ALLEY":" ","HOUSE_NO":"２４３號之１","E_COORD97":183534.51530599999,"N_COORD97":2551965.4465999999,"ADDRESS":"\u25A0拔林２４３號之１","OBJECTID":663899},"geometry":{"x":183534.5153060006,"y":2551965.446603002}},{"attributes":{"ID":663927,"DIS_CODE":0,"TOWNNAME":"安平區","LI":"文平里","LIN":"19鄰","STREET":"建平一街","SECT":" ","MAREA":" ","LANE":" ","ALLEY":" ","HOUSE_NO":"５８號","E_COORD97":165926.44313199999,"N_COORD97":2542754.12096,"ADDRESS":"建平一街５８號","OBJECTID":663900},"geometry":{"x":165926.44313200004,"y":2542754.1209650002}},{"attributes":{"ID":663928,"DIS_CODE":0,"TOWNNAME":"安平區","LI":"平通里","LIN":"32鄰","STREET":"育平七街","SECT":" ","MAREA":" ","LANE":" ","ALLEY":" ","HOUSE_NO":"１２３之１號","E_COORD97":164410.24479699999,"N_COORD97":2543759.3254200001,"ADDRESS":"育平七街１２３之１號","OBJECTID":663901},"geometry":{"x":164410.24479700066,"y":2543759.3254219983}},{"attributes":{"ID":663929,"DIS_CODE":0,"TOWNNAME":"安平區","LI":"平通里","LIN":"32鄰","STREET":"育平七街","SECT":" ","MAREA":" ","LANE":" ","ALLEY":" ","HOUSE_NO":"１２３號","E_COORD97":164409.60907400001,"N_COORD97":2543759.3254200001,"ADDRESS":"育平七街１２３號","OBJECTID":663902},"geometry":{"x":164409.60907399934,"y":2543759.3254219983}},{"attributes":{"ID":663930,"DIS_CODE":0,"TOWNNAME":"安平區","LI":"平通里","LIN":"32鄰","STREET":"育平七街","SECT":" ","MAREA":" ","LANE":" ","ALLEY":" ","HOUSE_NO":"１２３號二樓","E_COORD97":164409.60907400001,"N_COORD97":2543759.3254200001,"ADDRESS":"育平七街１２３號二樓","OBJECTID":663903},"geometry":{"x":164409.60907399934,"y":2543759.3254219983}},{"attributes":{"ID":663931,"DIS_CODE":0,"TOWNNAME":"安平區","LI":"平通里","LIN":"32鄰","STREET":"育平七街","SECT":" ","MAREA":" ","LANE":" ","ALLEY":" ","HOUSE_NO":"１２３號三樓之１","E_COORD97":164409.60907400001,"N_COORD97":2543759.3254200001,"ADDRESS":"育平七街１２３號三樓之１","OBJECTID":663904},"geometry":{"x":164409.60907399934,"y":2543759.3254219983}},{"attributes":{"ID":663932,"DIS_CODE":0,"TOWNNAME":"安平區","LI":"平通里","LIN":"32鄰","STREET":"育平七街","SECT":" ","MAREA":" ","LANE":" ","ALLEY":" ","HOUSE_NO":"１２３號三樓之２","E_COORD97":164409.60907400001,"N_COORD97":2543759.3254200001,"ADDRESS":"育平七街１２３號三樓之２","OBJECTID":663905},"geometry":{"x":164409.60907399934,"y":2543759.3254219983}},{"attributes":{"ID":663933,"DIS_CODE":0,"TOWNNAME":"安平區","LI":"平通里","LIN":"32鄰","STREET":"育平七街","SECT":" ","MAREA":" ","LANE":" ","ALLEY":" ","HOUSE_NO":"１２３號三樓之３","E_COORD97":164409.60907400001,"N_COORD97":2543759.3254200001,"ADDRESS":"育平七街１２３號三樓之３","OBJECTID":663906},"geometry":{"x":164409.60907399934,"y":2543759.3254219983}},{"attributes":{"ID":663934,"DIS_CODE":0,"TOWNNAME":"安平區","LI":"平通里","LIN":"32鄰","STREET":"育平七街","SECT":" ","MAREA":" ","LANE":" ","ALLEY":" ","HOUSE_NO":"１２３號三樓之５","E_COORD97":164409.60907400001,"N_COORD97":2543759.3254200001,"ADDRESS":"育平七街１２３號三樓之５","OBJECTID":663907},"geometry":{"x":164409.60907399934,"y":2543759.3254219983}},{"attributes":{"ID":663935,"DIS_CODE":0,"TOWNNAME":"安平區","LI":"平通里","LIN":"32鄰","STREET":"育平七街","SECT":" ","MAREA":" ","LANE":" ","ALLEY":" ","HOUSE_NO":"１２３號三樓之６","E_COORD97":164409.60907400001,"N_COORD97":2543759.3254200001,"ADDRESS":"育平七街１２３號三樓之６","OBJECTID":663908},"geometry":{"x":164409.60907399934,"y":2543759.3254219983}},{"attributes":{"ID":663936,"DIS_CODE":0,"TOWNNAME":"安平區","LI":"平通里","LIN":"32鄰","STREET":"育平七街","SECT":" ","MAREA":" ","LANE":" ","ALLEY":" ","HOUSE_NO":"１２３號四樓之１","E_COORD97":164409.60907400001,"N_COORD97":2543759.3254200001,"ADDRESS":"育平七街１２３號四樓之１","OBJECTID":663909},"geometry":{"x":164409.60907399934,"y":2543759.3254219983}},{"attributes":{"ID":663937,"DIS_CODE":0,"TOWNNAME":"安平區","LI":"平通里","LIN":"32鄰","STREET":"育平七街","SECT":" ","MAREA":" ","LANE":" ","ALLEY":" ","HOUSE_NO":"１２３號四樓之２","E_COORD97":164409.60907400001,"N_COORD97":2543759.3254200001,"ADDRESS":"育平七街１２３號四樓之２","OBJECTID":663910},"geometry":{"x":164409.60907399934,"y":2543759.3254219983}},{"attributes":{"ID":663938,"DIS_CODE":0,"TOWNNAME":"安平區","LI":"平通里","LIN":"32鄰","STREET":"育平七街","SECT":" ","MAREA":" ","LANE":" ","ALLEY":" ","HOUSE_NO":"１２３號四樓之３","E_COORD97":164409.60907400001,"N_COORD97":2543759.3254200001,"ADDRESS":"育平七街１２３號四樓之３","OBJECTID":663911},"geometry":{"x":164409.60907399934,"y":2543759.3254219983}},{"attributes":{"ID":663939,"DIS_CODE":0,"TOWNNAME":"安平區","LI":"平通里","LIN":"32鄰","STREET":"育平七街","SECT":" ","MAREA":" ","LANE":" ","ALLEY":" ","HOUSE_NO":"１２３號四樓之５","E_COORD97":164409.60907400001,"N_COORD97":2543759.3254200001,"ADDRESS":"育平七街１２３號四樓之５","OBJECTID":663912},"geometry":{"x":164409.60907399934,"y":2543759.3254219983}},{"attributes":{"ID":663940,"DIS_CODE":0,"TOWNNAME":"安平區","LI":"平通里","LIN":"32鄰","STREET":"育平七街","SECT":" ","MAREA":" ","LANE":" ","ALLEY":" ","HOUSE_NO":"１２３號四樓之６","E_COORD97":164409.60907400001,"N_COORD97":2543759.3254200001,"ADDRESS":"育平七街１２３號四樓之６","OBJECTID":663913},"geometry":{"x":164409.60907399934,"y":2543759.3254219983}},{"attributes":{"ID":663941,"DIS_CODE":0,"TOWNNAME":"安平區","LI":"平通里","LIN":"32鄰","STREET":"育平七街","SECT":" ","MAREA":" ","LANE":" ","ALLEY":" ","HOUSE_NO":"１２３號五樓之１","E_COORD97":164409.60907400001,"N_COORD97":2543759.3254200001,"ADDRESS":"育平七街１２３號五樓之１","OBJECTID":663914},"geometry":{"x":164409.60907399934,"y":2543759.3254219983}},{"attributes":{"ID":663942,"DIS_CODE":0,"TOWNNAME":"安平區","LI":"平通里","LIN":"32鄰","STREET":"育平七街","SECT":" ","MAREA":" ","LANE":" ","ALLEY":" ","HOUSE_NO":"１２３號五樓之２","E_COORD97":164409.60907400001,"N_COORD97":2543759.3254200001,"ADDRESS":"育平七街１２３號五樓之２","OBJECTID":663915},"geometry":{"x":164409.60907399934,"y":2543759.3254219983}},{"attributes":{"ID":663943,"DIS_CODE":0,"TOWNNAME":"安平區","LI":"平通里","LIN":"32鄰","STREET":"育平七街","SECT":" ","MAREA":" ","LANE":" ","ALLEY":" ","HOUSE_NO":"１２３號五樓之３","E_COORD97":164409.60907400001,"N_COORD97":2543759.3254200001,"ADDRESS":"育平七街１２３號五樓之３","OBJECTID":663916},"geometry":{"x":164409.60907399934,"y":2543759.3254219983}},{"attributes":{"ID":663944,"DIS_CODE":0,"TOWNNAME":"安平區","LI":"平通里","LIN":"32鄰","STREET":"育平七街","SECT":" ","MAREA":" ","LANE":" ","ALLEY":" ","HOUSE_NO":"１２３號五樓之５","E_COORD97":164409.60907400001,"N_COORD97":2543759.3254200001,"ADDRESS":"育平七街１２３號五樓之５","OBJECTID":663917},"geometry":{"x":164409.60907399934,"y":2543759.3254219983}},{"attributes":{"ID":663945,"DIS_CODE":0,"TOWNNAME":"安平區","LI":"平通里","LIN":"32鄰","STREET":"育平七街","SECT":" ","MAREA":" ","LANE":" ","ALLEY":" ","HOUSE_NO":"１２３號六樓之１","E_COORD97":164409.60907400001,"N_COORD97":2543759.3254200001,"ADDRESS":"育平七街１２３號六樓之１","OBJECTID":663918},"geometry":{"x":164409.60907399934,"y":2543759.3254219983}},{"attributes":{"ID":663946,"DIS_CODE":0,"TOWNNAME":"安平區","LI":"平通里","LIN":"32鄰","STREET":"育平七街","SECT":" ","MAREA":" ","LANE":" ","ALLEY":" ","HOUSE_NO":"１２３號六樓之２","E_COORD97":164409.60907400001,"N_COORD97":2543759.3254200001,"ADDRESS":"育平七街１２３號六樓之２","OBJECTID":663919},"geometry":{"x":164409.60907399934,"y":2543759.3254219983}},{"attributes":{"ID":663947,"DIS_CODE":0,"TOWNNAME":"安平區","LI":"平通里","LIN":"32鄰","STREET":"育平七街","SECT":" ","MAREA":" ","LANE":" ","ALLEY":" ","HOUSE_NO":"１２３號六樓之３","E_COORD97":164409.60907400001,"N_COORD97":2543759.3254200001,"ADDRESS":"育平七街１２３號六樓之３","OBJECTID":663920},"geometry":{"x":164409.60907399934,"y":2543759.3254219983}},{"attributes":{"ID":663948,"DIS_CODE":0,"TOWNNAME":"安平區","LI":"平通里","LIN":"32鄰","STREET":"育平七街","SECT":" ","MAREA":" ","LANE":" ","ALLEY":" ","HOUSE_NO":"１２３號六樓之５","E_COORD97":164409.60907400001,"N_COORD97":2543759.3254200001,"ADDRESS":"育平七街１２３號六樓之５","OBJECTID":663921},"geometry":{"x":164409.60907399934,"y":2543759.3254219983}},{"attributes":{"ID":663949,"DIS_CODE":0,"TOWNNAME":"安平區","LI":"平通里","LIN":"32鄰","STREET":"育平七街","SECT":" ","MAREA":" ","LANE":" ","ALLEY":" ","HOUSE_NO":"１２３號六樓之６","E_COORD97":164409.60907400001,"N_COORD97":2543759.3254200001,"ADDRESS":"育平七街１２３號六樓之６","OBJECTID":663922},"geometry":{"x":164409.60907399934,"y":2543759.3254219983}},{"attributes":{"ID":663950,"DIS_CODE":0,"TOWNNAME":"安平區","LI":"平通里","LIN":"32鄰","STREET":"育平七街","SECT":" ","MAREA":" ","LANE":" ","ALLEY":" ","HOUSE_NO":"１２３號七樓之１","E_COORD97":164409.60907400001,"N_COORD97":2543759.3254200001,"ADDRESS":"育平七街１２３號七樓之１","OBJECTID":663923},"geometry":{"x":164409.60907399934,"y":2543759.3254219983}},{"attributes":{"ID":663951,"DIS_CODE":0,"TOWNNAME":"安平區","LI":"平通里","LIN":"32鄰","STREET":"育平七街","SECT":" ","MAREA":" ","LANE":" ","ALLEY":" ","HOUSE_NO":"１２３號七樓之２","E_COORD97":164409.60907400001,"N_COORD97":2543759.3254200001,"ADDRESS":"育平七街１２３號七樓之２","OBJECTID":663924},"geometry":{"x":164409.60907399934,"y":2543759.3254219983}},{"attributes":{"ID":663952,"DIS_CODE":0,"TOWNNAME":"安平區","LI":"平通里","LIN":"32鄰","STREET":"育平七街","SECT":" ","MAREA":" ","LANE":" ","ALLEY":" ","HOUSE_NO":"１２３號七樓之３","E_COORD97":164409.60907400001,"N_COORD97":2543759.3254200001,"ADDRESS":"育平七街１２３號七樓之３","OBJECTID":663925},"geometry":{"x":164409.60907399934,"y":2543759.3254219983}},{"attributes":{"ID":663953,"DIS_CODE":0,"TOWNNAME":"安平區","LI":"平通里","LIN":"32鄰","STREET":"育平七街","SECT":" ","MAREA":" ","LANE":" ","ALLEY":" ","HOUSE_NO":"１２３號七樓之５","E_COORD97":164409.60907400001,"N_COORD97":2543759.3254200001,"ADDRESS":"育平七街１２３號七樓之５","OBJECTID":663926},"geometry":{"x":164409.60907399934,"y":2543759.3254219983}},{"attributes":{"ID":663954,"DIS_CODE":0,"TOWNNAME":"安平區","LI":"平通里","LIN":"32鄰","STREET":"育平七街","SECT":" ","MAREA":" ","LANE":" ","ALLEY":" ","HOUSE_NO":"１２３號八樓之１","E_COORD97":164409.60907400001,"N_COORD97":2543759.3254200001,"ADDRESS":"育平七街１２３號八樓之１","OBJECTID":663927},"geometry":{"x":164409.60907399934,"y":2543759.3254219983}},{"attributes":{"ID":663955,"DIS_CODE":0,"TOWNNAME":"安平區","LI":"平通里","LIN":"32鄰","STREET":"育平七街","SECT":" ","MAREA":" ","LANE":" ","ALLEY":" ","HOUSE_NO":"１２３號八樓之２","E_COORD97":164409.60907400001,"N_COORD97":2543759.3254200001,"ADDRESS":"育平七街１２３號八樓之２","OBJECTID":663928},"geometry":{"x":164409.60907399934,"y":2543759.3254219983}},{"attributes":{"ID":663956,"DIS_CODE":0,"TOWNNAME":"安平區","LI":"平通里","LIN":"32鄰","STREET":"育平七街","SECT":" ","MAREA":" ","LANE":" ","ALLEY":" ","HOUSE_NO":"１２３號八樓之３","E_COORD97":164409.60907400001,"N_COORD97":2543759.3254200001,"ADDRESS":"育平七街１２３號八樓之３","OBJECTID":663929},"geometry":{"x":164409.60907399934,"y":2543759.3254219983}},{"attributes":{"ID":663957,"DIS_CODE":0,"TOWNNAME":"安平區","LI":"平通里","LIN":"32鄰","STREET":"育平七街","SECT":" ","MAREA":" ","LANE":" ","ALLEY":" ","HOUSE_NO":"１２３號九樓之１","E_COORD97":164409.60907400001,"N_COORD97":2543759.3254200001,"ADDRESS":"育平七街１２３號九樓之１","OBJECTID":663930},"geometry":{"x":164409.60907399934,"y":2543759.3254219983}},{"attributes":{"ID":663958,"DIS_CODE":0,"TOWNNAME":"安平區","LI":"平通里","LIN":"32鄰","STREET":"育平七街","SECT":" ","MAREA":" ","LANE":" ","ALLEY":" ","HOUSE_NO":"１２３號九樓之２","E_COORD97":164409.60907400001,"N_COORD97":2543759.3254200001,"ADDRESS":"育平七街１２３號九樓之２","OBJECTID":663931},"geometry":{"x":164409.60907399934,"y":2543759.3254219983}},{"attributes":{"ID":663959,"DIS_CODE":0,"TOWNNAME":"安平區","LI":"平通里","LIN":"32鄰","STREET":"育平七街","SECT":" ","MAREA":" ","LANE":" ","ALLEY":" ","HOUSE_NO":"１２３號九樓之３","E_COORD97":164409.60907400001,"N_COORD97":2543759.3254200001,"ADDRESS":"育平七街１２３號九樓之３","OBJECTID":663932},"geometry":{"x":164409.60907399934,"y":2543759.3254219983}},{"attributes":{"ID":663960,"DIS_CODE":0,"TOWNNAME":"安平區","LI":"平通里","LIN":"32鄰","STREET":"育平七街","SECT":" ","MAREA":" ","LANE":" ","ALLEY":" ","HOUSE_NO":"１２３號十樓之１","E_COORD97":164409.60907400001,"N_COORD97":2543759.3254200001,"ADDRESS":"育平七街１２３號十樓之１","OBJECTID":663933},"geometry":{"x":164409.60907399934,"y":2543759.3254219983}},{"attributes":{"ID":663961,"DIS_CODE":0,"TOWNNAME":"安平區","LI":"平通里","LIN":"32鄰","STREET":"育平七街","SECT":" ","MAREA":" ","LANE":" ","ALLEY":" ","HOUSE_NO":"１２３號十樓之２","E_COORD97":164409.60907400001,"N_COORD97":2543759.3254200001,"ADDRESS":"育平七街１２３號十樓之２","OBJECTID":663934},"geometry":{"x":164409.60907399934,"y":2543759.3254219983}},{"attributes":{"ID":663962,"DIS_CODE":0,"TOWNNAME":"安平區","LI":"平通里","LIN":"32鄰","STREET":"育平七街","SECT":" ","MAREA":" ","LANE":" ","ALLEY":" ","HOUSE_NO":"１２３號十樓之３","E_COORD97":164409.60907400001,"N_COORD97":2543759.3254200001,"ADDRESS":"育平七街１２３號十樓之３","OBJECTID":663935},"geometry":{"x":164409.60907399934,"y":2543759.3254219983}},{"attributes":{"ID":663963,"DIS_CODE":0,"TOWNNAME":"安平區","LI":"平通里","LIN":"32鄰","STREET":"育平七街","SECT":" ","MAREA":" ","LANE":" ","ALLEY":" ","HOUSE_NO":"１２３號十樓之５","E_COORD97":164409.60907400001,"N_COORD97":2543759.3254200001,"ADDRESS":"育平七街１２３號十樓之５","OBJECTID":663936},"geometry":{"x":164409.60907399934,"y":2543759.3254219983}},{"attributes":{"ID":663964,"DIS_CODE":0,"TOWNNAME":"安平區","LI":"平通里","LIN":"32鄰","STREET":"育平七街","SECT":" ","MAREA":" ","LANE":" ","ALLEY":" ","HOUSE_NO":"１２３號十一樓之１","E_COORD97":164409.60907400001,"N_COORD97":2543759.3254200001,"ADDRESS":"育平七街１２３號十一樓之１","OBJECTID":663937},"geometry":{"x":164409.60907399934,"y":2543759.3254219983}},{"attributes":{"ID":663965,"DIS_CODE":0,"TOWNNAME":"安平區","LI":"平通里","LIN":"32鄰","STREET":"育平七街","SECT":" ","MAREA":" ","LANE":" ","ALLEY":" ","HOUSE_NO":"１２３號十一樓之２","E_COORD97":164409.60907400001,"N_COORD97":2543759.3254200001,"ADDRESS":"育平七街１２３號十一樓之２","OBJECTID":663938},"geometry":{"x":164409.60907399934,"y":2543759.3254219983}},{"attributes":{"ID":663966,"DIS_CODE":0,"TOWNNAME":"安平區","LI":"平通里","LIN":"32鄰","STREET":"育平七街","SECT":" ","MAREA":" ","LANE":" ","ALLEY":" ","HOUSE_NO":"１２３號十一樓之３","E_COORD97":164409.60907400001,"N_COORD97":2543759.3254200001,"ADDRESS":"育平七街１２３號十一樓之３","OBJECTID":663939},"geometry":{"x":164409.60907399934,"y":2543759.3254219983}},{"attributes":{"ID":663967,"DIS_CODE":0,"TOWNNAME":"安平區","LI":"平通里","LIN":"32鄰","STREET":"育平七街","SECT":" ","MAREA":" ","LANE":" ","ALLEY":" ","HOUSE_NO":"１２３號十一樓之５","E_COORD97":164409.60907400001,"N_COORD97":2543759.3254200001,"ADDRESS":"育平七街１２３號十一樓之５","OBJECTID":663940},"geometry":{"x":164409.60907399934,"y":2543759.3254219983}},{"attributes":{"ID":663968,"DIS_CODE":0,"TOWNNAME":"安平區","LI":"平通里","LIN":"32鄰","STREET":"育平七街","SECT":" ","MAREA":" ","LANE":" ","ALLEY":" ","HOUSE_NO":"１２３號十二樓之１","E_COORD97":164409.60907400001,"N_COORD97":2543759.3254200001,"ADDRESS":"育平七街１２３號十二樓之１","OBJECTID":663941},"geometry":{"x":164409.60907399934,"y":2543759.3254219983}},{"attributes":{"ID":663969,"DIS_CODE":0,"TOWNNAME":"安平區","LI":"平通里","LIN":"32鄰","STREET":"育平七街","SECT":" ","MAREA":" ","LANE":" ","ALLEY":" ","HOUSE_NO":"１２３號十二樓之２","E_COORD97":164409.60907400001,"N_COORD97":2543759.3254200001,"ADDRESS":"育平七街１２３號十二樓之２","OBJECTID":663942},"geometry":{"x":164409.60907399934,"y":2543759.3254219983}},{"attributes":{"ID":663970,"DIS_CODE":0,"TOWNNAME":"安平區","LI":"平通里","LIN":"32鄰","STREET":"育平七街","SECT":" ","MAREA":" ","LANE":" ","ALLEY":" ","HOUSE_NO":"１２３號十二樓之３","E_COORD97":164409.60907400001,"N_COORD97":2543759.3254200001,"ADDRESS":"育平七街１２３號十二樓之３","OBJECTID":663943},"geometry":{"x":164409.60907399934,"y":2543759.3254219983}},{"attributes":{"ID":663971,"DIS_CODE":0,"TOWNNAME":"安平區","LI":"平通里","LIN":"32鄰","STREET":"育平七街","SECT":" ","MAREA":" ","LANE":" ","ALLEY":" ","HOUSE_NO":"１２３號十二樓之５","E_COORD97":164409.60907400001,"N_COORD97":2543759.3254200001,"ADDRESS":"育平七街１２３號十二樓之５","OBJECTID":663944},"geometry":{"x":164409.60907399934,"y":2543759.3254219983}},{"attributes":{"ID":663972,"DIS_CODE":0,"TOWNNAME":"安平區","LI":"平通里","LIN":"32鄰","STREET":"育平七街","SECT":" ","MAREA":" ","LANE":" ","ALLEY":" ","HOUSE_NO":"１２３號十三樓之１","E_COORD97":164409.60907400001,"N_COORD97":2543759.3254200001,"ADDRESS":"育平七街１２３號十三樓之１","OBJECTID":663945},"geometry":{"x":164409.60907399934,"y":2543759.3254219983}},{"attributes":{"ID":663973,"DIS_CODE":0,"TOWNNAME":"安平區","LI":"平通里","LIN":"32鄰","STREET":"育平七街","SECT":" ","MAREA":" ","LANE":" ","ALLEY":" ","HOUSE_NO":"１２３號十三樓之２","E_COORD97":164409.60907400001,"N_COORD97":2543759.3254200001,"ADDRESS":"育平七街１２３號十三樓之２","OBJECTID":663946},"geometry":{"x":164409.60907399934,"y":2543759.3254219983}},{"attributes":{"ID":663974,"DIS_CODE":0,"TOWNNAME":"安平區","LI":"平通里","LIN":"32鄰","STREET":"育平七街","SECT":" ","MAREA":" ","LANE":" ","ALLEY":" ","HOUSE_NO":"１２３號十三樓之３","E_COORD97":164409.60907400001,"N_COORD97":2543759.3254200001,"ADDRESS":"育平七街１２３號十三樓之３","OBJECTID":663947},"geometry":{"x":164409.60907399934,"y":2543759.3254219983}},{"attributes":{"ID":663975,"DIS_CODE":0,"TOWNNAME":"安平區","LI":"平通里","LIN":"32鄰","STREET":"育平七街","SECT":" ","MAREA":" ","LANE":" ","ALLEY":" ","HOUSE_NO":"１２３號十四樓之１","E_COORD97":164409.60907400001,"N_COORD97":2543759.3254200001,"ADDRESS":"育平七街１２３號十四樓之１","OBJECTID":663948},"geometry":{"x":164409.60907399934,"y":2543759.3254219983}},{"attributes":{"ID":663976,"DIS_CODE":0,"TOWNNAME":"安平區","LI":"平通里","LIN":"32鄰","STREET":"育平七街","SECT":" ","MAREA":" ","LANE":" ","ALLEY":" ","HOUSE_NO":"１２３號十四樓之２","E_COORD97":164409.60907400001,"N_COORD97":2543759.3254200001,"ADDRESS":"育平七街１２３號十四樓之２","OBJECTID":663949},"geometry":{"x":164409.60907399934,"y":2543759.3254219983}},{"attributes":{"ID":663977,"DIS_CODE":0,"TOWNNAME":"安平區","LI":"平通里","LIN":"32鄰","STREET":"育平七街","SECT":" ","MAREA":" ","LANE":" ","ALLEY":" ","HOUSE_NO":"１２３號十四樓之３","E_COORD97":164409.60907400001,"N_COORD97":2543759.3254200001,"ADDRESS":"育平七街１２３號十四樓之３","OBJECTID":663950},"geometry":{"x":164409.60907399934,"y":2543759.3254219983}},{"attributes":{"ID":663978,"DIS_CODE":0,"TOWNNAME":"安平區","LI":"平通里","LIN":"32鄰","STREET":"育平七街","SECT":" ","MAREA":" ","LANE":" ","ALLEY":" ","HOUSE_NO":"１２３號十四樓之５","E_COORD97":164409.60907400001,"N_COORD97":2543759.3254200001,"ADDRESS":"育平七街１２３號十四樓之５","OBJECTID":663951},"geometry":{"x":164409.60907399934,"y":2543759.3254219983}},{"attributes":{"ID":663979,"DIS_CODE":0,"TOWNNAME":"安平區","LI":"平通里","LIN":"32鄰","STREET":"育平七街","SECT":" ","MAREA":" ","LANE":" ","ALLEY":" ","HOUSE_NO":"１２３號十五樓之１","E_COORD97":164409.60907400001,"N_COORD97":2543759.3254200001,"ADDRESS":"育平七街１２３號十五樓之１","OBJECTID":663952},"geometry":{"x":164409.60907399934,"y":2543759.3254219983}},{"attributes":{"ID":663980,"DIS_CODE":0,"TOWNNAME":"安平區","LI":"平通里","LIN":"32鄰","STREET":"育平七街","SECT":" ","MAREA":" ","LANE":" ","ALLEY":" ","HOUSE_NO":"１２３號十五樓之２","E_COORD97":164409.60907400001,"N_COORD97":2543759.3254200001,"ADDRESS":"育平七街１２３號十五樓之２","OBJECTID":663953},"geometry":{"x":164409.60907399934,"y":2543759.3254219983}},{"attributes":{"ID":663981,"DIS_CODE":0,"TOWNNAME":"安平區","LI":"平通里","LIN":"32鄰","STREET":"育平七街","SECT":" ","MAREA":" ","LANE":" ","ALLEY":" ","HOUSE_NO":"１２３號十五樓之３","E_COORD97":164409.60907400001,"N_COORD97":2543759.3254200001,"ADDRESS":"育平七街１２３號十五樓之３","OBJECTID":663954},"geometry":{"x":164409.60907399934,"y":2543759.3254219983}},{"attributes":{"ID":663982,"DIS_CODE":0,"TOWNNAME":"安平區","LI":"平通里","LIN":"32鄰","STREET":"育平七街","SECT":" ","MAREA":" ","LANE":" ","ALLEY":" ","HOUSE_NO":"１２３號十五樓之５","E_COORD97":164409.60907400001,"N_COORD97":2543759.3254200001,"ADDRESS":"育平七街１２３號十五樓之５","OBJECTID":663955},"geometry":{"x":164409.60907399934,"y":2543759.3254219983}},{"attributes":{"ID":663983,"DIS_CODE":0,"TOWNNAME":"安平區","LI":"平通里","LIN":"32鄰","STREET":"育平七街","SECT":" ","MAREA":" ","LANE":" ","ALLEY":" ","HOUSE_NO":"１２３之２號","E_COORD97":164410.03288899999,"N_COORD97":2543759.7487599999,"ADDRESS":"育平七街１２３之２號","OBJECTID":663956},"geometry":{"x":164410.03288900107,"y":2543759.7487550024}},{"attributes":{"ID":663984,"DIS_CODE":0,"TOWNNAME":"安平區","LI":"怡平里","LIN":"13鄰","STREET":"華平路","SECT":" ","MAREA":" ","LANE":" ","ALLEY":" ","HOUSE_NO":"６７６之１號","E_COORD97":165522.97120599999,"N_COORD97":2544114.2902299999,"ADDRESS":"華平路６７６之１號","OBJECTID":663957},"geometry":{"x":165522.97120600007,"y":2544114.2902300023}},{"attributes":{"ID":663985,"DIS_CODE":0,"TOWNNAME":"安平區","LI":"怡平里","LIN":"13鄰","STREET":"華平路","SECT":" ","MAREA":" ","LANE":" ","ALLEY":" ","HOUSE_NO":"６７６號","E_COORD97":165521.27594600001,"N_COORD97":2544108.36357,"ADDRESS":"華平路６７６號","OBJECTID":663958},"geometry":{"x":165521.27594600059,"y":2544108.3635670003}},{"attributes":{"ID":663986,"DIS_CODE":0,"TOWNNAME":"南區","LI":"建南里","LIN":"3鄰","STREET":"德興路","SECT":" ","MAREA":" ","LANE":"２４７巷","ALLEY":" ","HOUSE_NO":"２１號","E_COORD97":167283.77121199999,"N_COORD97":2540073.8646800001,"ADDRESS":"德興路２４７巷２１號","OBJECTID":663959},"geometry":{"x":167283.7712120004,"y":2540073.8646800015}},{"attributes":{"ID":663987,"DIS_CODE":0,"TOWNNAME":"南區","LI":"建南里","LIN":"9鄰","STREET":"興隆路","SECT":" ","MAREA":" ","LANE":"３０２巷","ALLEY":" ","HOUSE_NO":"２號","E_COORD97":166853.65809700001,"N_COORD97":2539993.6430600001,"ADDRESS":"興隆路３０２巷２號","OBJECTID":663960},"geometry":{"x":166853.65809699986,"y":2539993.6430560015}},{"attributes":{"ID":663988,"DIS_CODE":0,"TOWNNAME":"南區","LI":"建南里","LIN":"9鄰","STREET":"興隆路","SECT":" ","MAREA":" ","LANE":"３０２巷","ALLEY":" ","HOUSE_NO":"６號","E_COORD97":166859.79954499999,"N_COORD97":2539993.43139,"ADDRESS":"興隆路３０２巷６號","OBJECTID":663961},"geometry":{"x":166859.79954500031,"y":2539993.4313900042}},{"attributes":{"ID":663989,"DIS_CODE":0,"TOWNNAME":"南區","LI":"建南里","LIN":"9鄰","STREET":"興隆路","SECT":" ","MAREA":" ","LANE":"３０２巷","ALLEY":" ","HOUSE_NO":"８號","E_COORD97":166865.517445,"N_COORD97":2539993.8547200002,"ADDRESS":"興隆路３０２巷８號","OBJECTID":663962},"geometry":{"x":166865.51744500082,"y":2539993.8547230028}},{"attributes":{"ID":663990,"DIS_CODE":0,"TOWNNAME":"南區","LI":"建南里","LIN":"9鄰","STREET":"興隆路","SECT":" ","MAREA":" ","LANE":"３０２巷","ALLEY":" ","HOUSE_NO":"１０號","E_COORD97":166871.02356999999,"N_COORD97":2539993.2197199999,"ADDRESS":"興隆路３０２巷１０號","OBJECTID":663963},"geometry":{"x":166871.02357000206,"y":2539993.219723003}},{"attributes":{"ID":663991,"DIS_CODE":0,"TOWNNAME":"南區","LI":"建南里","LIN":"9鄰","STREET":"興隆路","SECT":" ","MAREA":" ","LANE":"３０２巷","ALLEY":" ","HOUSE_NO":"１２號","E_COORD97":166877.165018,"N_COORD97":2539993.2197199999,"ADDRESS":"興隆路３０２巷１２號","OBJECTID":663964},"geometry":{"x":166877.16501799971,"y":2539993.219723003}},{"attributes":{"ID":663992,"DIS_CODE":0,"TOWNNAME":"南區","LI":"建南里","LIN":"9鄰","STREET":"興隆路","SECT":" ","MAREA":" ","LANE":"３０２巷","ALLEY":" ","HOUSE_NO":"１６號","E_COORD97":166884.15356199999,"N_COORD97":2539993.0080599999,"ADDRESS":"興隆路３０２巷１６號","OBJECTID":663965},"geometry":{"x":166884.15356200002,"y":2539993.0080570001}},{"attributes":{"ID":663993,"DIS_CODE":0,"TOWNNAME":"南區","LI":"建南里","LIN":"9鄰","STREET":"興隆路","SECT":" ","MAREA":" ","LANE":"３０２巷","ALLEY":" ","HOUSE_NO":"１８號","E_COORD97":166892.41274999999,"N_COORD97":2539992.7963899998,"ADDRESS":"興隆路３０２巷１８號","OBJECTID":663966},"geometry":{"x":166892.412750002,"y":2539992.7963899989}},{"attributes":{"ID":663994,"DIS_CODE":0,"TOWNNAME":"南區","LI":"建南里","LIN":"9鄰","STREET":"興隆路","SECT":" ","MAREA":" ","LANE":"３０２巷","ALLEY":" ","HOUSE_NO":"２０號","E_COORD97":166898.554198,"N_COORD97":2539992.5847200002,"ADDRESS":"興隆路３０２巷２０號","OBJECTID":663967},"geometry":{"x":166898.55419799965,"y":2539992.5847240016}},{"attributes":{"ID":663995,"DIS_CODE":0,"TOWNNAME":"南區","LI":"建南里","LIN":"9鄰","STREET":"興隆路","SECT":" ","MAREA":" ","LANE":"３０２巷","ALLEY":" ","HOUSE_NO":"２２號","E_COORD97":166906.601612,"N_COORD97":2539992.3730600001,"ADDRESS":"興隆路３０２巷２２號","OBJECTID":663968},"geometry":{"x":166906.60161200073,"y":2539992.3730570003}},{"attributes":{"ID":663996,"DIS_CODE":0,"TOWNNAME":"南區","LI":"建南里","LIN":"9鄰","STREET":"興隆路","SECT":" ","MAREA":" ","LANE":"３０２巷","ALLEY":" ","HOUSE_NO":"２６號","E_COORD97":166914.22547800001,"N_COORD97":2539992.3730600001,"ADDRESS":"興隆路３０２巷２６號","OBJECTID":663969},"geometry":{"x":166914.22547800094,"y":2539992.3730570003}},{"attributes":{"ID":663997,"DIS_CODE":0,"TOWNNAME":"南區","LI":"建南里","LIN":"9鄰","STREET":"興隆路","SECT":" ","MAREA":" ","LANE":"３０２巷","ALLEY":" ","HOUSE_NO":"２８號","E_COORD97":166920.79047400001,"N_COORD97":2539991.9497199999,"ADDRESS":"興隆路３０２巷２８號","OBJECTID":663970},"geometry":{"x":166920.79047400225,"y":2539991.9497240018}},{"attributes":{"ID":663998,"DIS_CODE":0,"TOWNNAME":"歸仁區","LI":"六甲里","LIN":"12鄰","STREET":"凱旋路","SECT":"三段","MAREA":" ","LANE":" ","ALLEY":" ","HOUSE_NO":"２８５號（農業資材室","E_COORD97":175856.11814599999,"N_COORD97":2538921.2237200001,"ADDRESS":"凱旋路三段２８５號（農業資材室）","OBJECTID":663971},"geometry":{"x":175856.11814600043,"y":2538921.2237250023}},{"attributes":{"ID":663999,"DIS_CODE":0,"TOWNNAME":"南區","LI":"建南里","LIN":"23鄰","STREET":"永成路","SECT":"二段","MAREA":" ","LANE":" ","ALLEY":" ","HOUSE_NO":"６２７之６號","E_COORD97":167480.93286199999,"N_COORD97":2539228.7859700001,"ADDRESS":"永成路二段６２７之６號","OBJECTID":663972},"geometry":{"x":167480.93286200054,"y":2539228.785969004}},{"attributes":{"ID":664000,"DIS_CODE":0,"TOWNNAME":"安平區","LI":"億載里","LIN":"4鄰","STREET":"安億路","SECT":" ","MAREA":" ","LANE":" ","ALLEY":" ","HOUSE_NO":"２３２號","E_COORD97":163729.17401399999,"N_COORD97":2543821.97872,"ADDRESS":"安億路２３２號","OBJECTID":663973},"geometry":{"x":163729.17401400022,"y":2543821.9787210003}},{"attributes":{"ID":664001,"DIS_CODE":0,"TOWNNAME":"南區","LI":"建南里","LIN":"23鄰","STREET":"永成路","SECT":"二段","MAREA":" ","LANE":" ","ALLEY":" ","HOUSE_NO":"６２７之５號","E_COORD97":167480.509314,"N_COORD97":2539224.3409699998,"ADDRESS":"永成路二段６２７之５號","OBJECTID":663974},"geometry":{"x":167480.50931399968,"y":2539224.3409719989}},{"attributes":{"ID":664002,"DIS_CODE":0,"TOWNNAME":"南區","LI":"建南里","LIN":"23鄰","STREET":"永成路","SECT":"二段","MAREA":" ","LANE":" ","ALLEY":" ","HOUSE_NO":"６２７之３號","E_COORD97":167480.72108799999,"N_COORD97":2539219.89597,"ADDRESS":"永成路二段６２７之３號","OBJECTID":663975},"geometry":{"x":167480.72108799964,"y":2539219.8959740009}},{"attributes":{"ID":664003,"DIS_CODE":0,"TOWNNAME":"南區","LI":"建南里","LIN":"23鄰","STREET":"永成路","SECT":"二段","MAREA":" ","LANE":" ","ALLEY":" ","HOUSE_NO":"６２７之２號","E_COORD97":167480.509314,"N_COORD97":2539215.2393100001,"ADDRESS":"永成路二段６２７之２號","OBJECTID":663976},"geometry":{"x":167480.50931399968,"y":2539215.2393100001}},{"attributes":{"ID":664004,"DIS_CODE":0,"TOWNNAME":"南區","LI":"建南里","LIN":"23鄰","STREET":"永成路","SECT":"二段","MAREA":" ","LANE":" ","ALLEY":" ","HOUSE_NO":"６２７之１號","E_COORD97":167480.93286199999,"N_COORD97":2539211.21765,"ADDRESS":"永成路二段６２７之１號","OBJECTID":663977},"geometry":{"x":167480.93286200054,"y":2539211.2176450025}},{"attributes":{"ID":664005,"DIS_CODE":0,"TOWNNAME":"南區","LI":"建南里","LIN":"23鄰","STREET":"永成路","SECT":"二段","MAREA":" ","LANE":" ","ALLEY":" ","HOUSE_NO":"６２７號","E_COORD97":167480.29754,"N_COORD97":2539207.1959799998,"ADDRESS":"永成路二段６２７號","OBJECTID":663978},"geometry":{"x":167480.29754000064,"y":2539207.1959810015}},{"attributes":{"ID":664006,"DIS_CODE":0,"TOWNNAME":"安平區","LI":"國平里","LIN":"13鄰","STREET":"建平一街","SECT":" ","MAREA":" ","LANE":" ","ALLEY":" ","HOUSE_NO":"２５９號","E_COORD97":165432.062878,"N_COORD97":2542795.1842800002,"ADDRESS":"建平一街２５９號","OBJECTID":663979},"geometry":{"x":165432.06287800055,"y":2542795.1842759997}},{"attributes":{"ID":664007,"DIS_CODE":0,"TOWNNAME":"仁德區","LI":"上崙里","LIN":"11鄰","STREET":"德善路","SECT":" ","MAREA":" ","LANE":" ","ALLEY":" ","HOUSE_NO":"４６９號","E_COORD97":174046.652887,"N_COORD97":2538161.0581999999,"ADDRESS":"德善路４６９號","OBJECTID":663980},"geometry":{"x":174046.6528870007,"y":2538161.058201002}},{"attributes":{"ID":664008,"DIS_CODE":0,"TOWNNAME":"安平區","LI":"億載里","LIN":"15鄰","STREET":"光州路","SECT":" ","MAREA":" ","LANE":" ","ALLEY":" ","HOUSE_NO":"６８號","E_COORD97":163952.312637,"N_COORD97":2543176.3957400001,"ADDRESS":"光州路６８號","OBJECTID":663981},"geometry":{"x":163952.31263700034,"y":2543176.3957369998}},{"attributes":{"ID":664009,"DIS_CODE":0,"TOWNNAME":"新化區","LI":"\u25A0拔里","LIN":"6鄰","STREET":" ","SECT":" ","MAREA":"\u25A0拔林","LANE":" ","ALLEY":" ","HOUSE_NO":"２４５號","E_COORD97":183554.64271099999,"N_COORD97":2551966.92827,"ADDRESS":"\u25A0拔林２４５號","OBJECTID":663982},"geometry":{"x":183554.64271100052,"y":2551966.9282689989}},{"attributes":{"ID":664010,"DIS_CODE":0,"TOWNNAME":"新化區","LI":"\u25A0拔里","LIN":"6鄰","STREET":" ","SECT":" ","MAREA":"\u25A0拔林","LANE":" ","ALLEY":" ","HOUSE_NO":"２４６號","E_COORD97":183530.489825,"N_COORD97":2551959.3082699999,"ADDRESS":"\u25A0拔林２４６號","OBJECTID":663983},"geometry":{"x":183530.48982500099,"y":2551959.3082730006}},{"attributes":{"ID":664011,"DIS_CODE":0,"TOWNNAME":"歸仁區","LI":"七甲里","LIN":"2鄰","STREET":"中正北路","SECT":"二段","MAREA":" ","LANE":"４１７巷","ALLEY":" ","HOUSE_NO":"１３３號","E_COORD97":177247.181969,"N_COORD97":2543016.7086499999,"ADDRESS":"中正北路二段４１７巷１３３號","OBJECTID":663984},"geometry":{"x":177247.18196900096,"y":2543016.708649002}},{"attributes":{"ID":664012,"DIS_CODE":0,"TOWNNAME":"新化區","LI":"\u25A0拔里","LIN":"6鄰","STREET":" ","SECT":" ","MAREA":"\u25A0拔林","LANE":" ","ALLEY":" ","HOUSE_NO":"２４６號之５","E_COORD97":183531.54916200001,"N_COORD97":2551953.8049400002,"ADDRESS":"\u25A0拔林２４６號之５","OBJECTID":663985},"geometry":{"x":183531.54916200042,"y":2551953.8049430028}},{"attributes":{"ID":664013,"DIS_CODE":0,"TOWNNAME":"南區","LI":"建南里","LIN":"19鄰","STREET":"明興路","SECT":" ","MAREA":" ","LANE":"３２１巷","ALLEY":" ","HOUSE_NO":"３號","E_COORD97":166399.40273900001,"N_COORD97":2539059.0293899998,"ADDRESS":"明興路３２１巷３號","OBJECTID":663986},"geometry":{"x":166399.40273900051,"y":2539059.0293940045}},{"attributes":{"ID":664014,"DIS_CODE":0,"TOWNNAME":"安平區","LI":"建平里","LIN":"27鄰","STREET":"建平八街","SECT":" ","MAREA":" ","LANE":"１０８巷","ALLEY":" ","HOUSE_NO":"３７號","E_COORD97":165841.680123,"N_COORD97":2543681.8554600002,"ADDRESS":"建平八街１０８巷３７號","OBJECTID":663987},"geometry":{"x":165841.68012300134,"y":2543681.855464004}},{"attributes":{"ID":664015,"DIS_CODE":0,"TOWNNAME":"安平區","LI":"億載里","LIN":"17鄰","STREET":"平豐路","SECT":" ","MAREA":" ","LANE":"４３巷","ALLEY":" ","HOUSE_NO":"３７號","E_COORD97":164250.25461599999,"N_COORD97":2542988.2241699998,"ADDRESS":"平豐路４３巷３７號","OBJECTID":663988},"geometry":{"x":164250.25461600162,"y":2542988.2241720036}},{"attributes":{"ID":664016,"DIS_CODE":0,"TOWNNAME":"南區","LI":"建南里","LIN":"3鄰","STREET":"德興路","SECT":" ","MAREA":" ","LANE":"２４７巷","ALLEY":" ","HOUSE_NO":"３２號","E_COORD97":167302.61910400001,"N_COORD97":2540052.69802,"ADDRESS":"德興路２４７巷３２號","OBJECTID":663989},"geometry":{"x":167302.61910399981,"y":2540052.698024001}},{"attributes":{"ID":664017,"DIS_CODE":0,"TOWNNAME":"南區","LI":"建南里","LIN":"3鄰","STREET":"德興路","SECT":" ","MAREA":" ","LANE":"２４７巷","ALLEY":" ","HOUSE_NO":"３６號","E_COORD97":167308.33700299999,"N_COORD97":2540052.48636,"ADDRESS":"德興路２４７巷３６號","OBJECTID":663990},"geometry":{"x":167308.33700300101,"y":2540052.4863580018}},{"attributes":{"ID":664018,"DIS_CODE":0,"TOWNNAME":"南區","LI":"建南里","LIN":"3鄰","STREET":"德興路","SECT":" ","MAREA":" ","LANE":"２４７巷","ALLEY":" ","HOUSE_NO":"３８號","E_COORD97":167315.11377299999,"N_COORD97":2540052.48636,"ADDRESS":"德興路２４７巷３８號","OBJECTID":663991},"geometry":{"x":167315.11377300043,"y":2540052.4863580018}},{"attributes":{"ID":664019,"DIS_CODE":0,"TOWNNAME":"安平區","LI":"建平里","LIN":"17鄰","STREET":"建平十一街","SECT":" ","MAREA":" ","LANE":" ","ALLEY":" ","HOUSE_NO":"１００號","E_COORD97":166172.25586,"N_COORD97":2543928.0236599999,"ADDRESS":"建平十一街１００號","OBJECTID":663992},"geometry":{"x":166172.25586000178,"y":2543928.0236640014}},{"attributes":{"ID":664020,"DIS_CODE":0,"TOWNNAME":"安平區","LI":"建平里","LIN":"17鄰","STREET":"建平十一街","SECT":" ","MAREA":" ","LANE":" ","ALLEY":" ","HOUSE_NO":"１０２號","E_COORD97":166164.83909699999,"N_COORD97":2543929.29366,"ADDRESS":"建平十一街１０２號","OBJECTID":663993},"geometry":{"x":166164.83909699973,"y":2543929.2936630007}},{"attributes":{"ID":664021,"DIS_CODE":0,"TOWNNAME":"新化區","LI":"\u25A0拔里","LIN":"6鄰","STREET":" ","SECT":" ","MAREA":"\u25A0拔林","LANE":" ","ALLEY":" ","HOUSE_NO":"２６７號之４","E_COORD97":183532.820366,"N_COORD97":2551930.3099600002,"ADDRESS":"\u25A0拔林２６７號之４","OBJECTID":663994},"geometry":{"x":183532.82036599983,"y":2551930.3099560011}},{"attributes":{"ID":664022,"DIS_CODE":0,"TOWNNAME":"新化區","LI":"\u25A0拔里","LIN":"6鄰","STREET":" ","SECT":" ","MAREA":"\u25A0拔林","LANE":" ","ALLEY":" ","HOUSE_NO":"２６９號之１","E_COORD97":183552.10030200001,"N_COORD97":2551901.2058000001,"ADDRESS":"\u25A0拔林２６９號之１","OBJECTID":663995},"geometry":{"x":183552.1003019996,"y":2551901.2058050018}},{"attributes":{"ID":664023,"DIS_CODE":0,"TOWNNAME":"新化區","LI":"\u25A0拔里","LIN":"6鄰","STREET":" ","SECT":" ","MAREA":"\u25A0拔林","LANE":" ","ALLEY":" ","HOUSE_NO":"２６９號之２","E_COORD97":183551.464699,"N_COORD97":2551886.6008100002,"ADDRESS":"\u25A0拔林２６９號之２","OBJECTID":663996},"geometry":{"x":183551.46469900012,"y":2551886.6008129995}},{"attributes":{"ID":664024,"DIS_CODE":0,"TOWNNAME":"南區","LI":"建南里","LIN":"19鄰","STREET":"明興路","SECT":" ","MAREA":" ","LANE":" ","ALLEY":" ","HOUSE_NO":"２１５之２號","E_COORD97":166603.05524300001,"N_COORD97":2539783.3946099998,"ADDRESS":"明興路２１５之２號","OBJECTID":663997},"geometry":{"x":166603.05524300132,"y":2539783.3946090024}},{"attributes":{"ID":664025,"DIS_CODE":0,"TOWNNAME":"新化區","LI":"\u25A0拔里","LIN":"6鄰","STREET":" ","SECT":" ","MAREA":"\u25A0拔林","LANE":" ","ALLEY":" ","HOUSE_NO":"２７１號之２","E_COORD97":183535.99837799999,"N_COORD97":2551864.3758299998,"ADDRESS":"\u25A0拔林２７１號之２","OBJECTID":663998},"geometry":{"x":183535.99837800022,"y":2551864.3758249991}},{"attributes":{"ID":664026,"DIS_CODE":0,"TOWNNAME":"新化區","LI":"\u25A0拔里","LIN":"7鄰","STREET":" ","SECT":" ","MAREA":"\u25A0拔林","LANE":" ","ALLEY":" ","HOUSE_NO":"２７９號","E_COORD97":183506.76067399999,"N_COORD97":2551811.7766900002,"ADDRESS":"\u25A0拔林２７９號","OBJECTID":663999},"geometry":{"x":183506.76067400072,"y":2551811.7766860016}},{"attributes":{"ID":664027,"DIS_CODE":0,"TOWNNAME":"新化區","LI":"\u25A0拔里","LIN":"7鄰","STREET":" ","SECT":" ","MAREA":"\u25A0拔林","LANE":" ","ALLEY":" ","HOUSE_NO":"２８０號","E_COORD97":183520.32018899999,"N_COORD97":2551797.1716900002,"ADDRESS":"\u25A0拔林２８０號","OBJECTID":664000},"geometry":{"x":183520.32018900104,"y":2551797.1716939993}}]}