{"displayFieldName":"TOWNNAME","fieldAliases":{"ID":"ID","DIS_CODE":"DIS_CODE","TOWNNAME":"TOWNNAME","LI":"LI","LIN":"LIN","STREET":"STREET","SECT":"SECT","MAREA":"MAREA","LANE":"LANE","ALLEY":"ALLEY","HOUSE_NO":"HOUSE_NO","E_COORD97":"E_COORD97","N_COORD97":"N_COORD97","ADDRESS":"ADDRESS","OBJECTID":"OBJECTID"},"geometryType":"esriGeometryPoint","spatialReference":{"wkid":102443,"latestWkid":3826},"fields":[{"name":"ID","type":"esriFieldTypeDouble","alias":"ID"},{"name":"DIS_CODE","type":"esriFieldTypeInteger","alias":"DIS_CODE"},{"name":"TOWNNAME","type":"esriFieldTypeString","alias":"TOWNNAME","length":8},{"name":"LI","type":"esriFieldTypeString","alias":"LI","length":8},{"name":"LIN","type":"esriFieldTypeString","alias":"LIN","length":12},{"name":"STREET","type":"esriFieldTypeString","alias":"STREET","length":20},{"name":"SECT","type":"esriFieldTypeString","alias":"SECT","length":8},{"name":"MAREA","type":"esriFieldTypeString","alias":"MAREA","length":12},{"name":"LANE","type":"esriFieldTypeString","alias":"LANE","length":10},{"name":"ALLEY","type":"esriFieldTypeString","alias":"ALLEY","length":10},{"name":"HOUSE_NO","type":"esriFieldTypeString","alias":"HOUSE_NO","length":20},{"name":"E_COORD97","type":"esriFieldTypeDouble","alias":"E_COORD97"},{"name":"N_COORD97","type":"esriFieldTypeDouble","alias":"N_COORD97"},{"name":"ADDRESS","type":"esriFieldTypeString","alias":"ADDRESS","length":50},{"name":"OBJECTID","type":"esriFieldTypeOID","alias":"OBJECTID"}],"features":[{"attributes":{"ID":455626,"DIS_CODE":0,"TOWNNAME":"安平區","LI":"育平里","LIN":"32鄰","STREET":"府平路","SECT":" ","MAREA":" ","LANE":"２６７巷","ALLEY":" ","HOUSE_NO":"９號","E_COORD97":164631.76999999999,"N_COORD97":2543058.8599999999,"ADDRESS":"府平路２６７巷９號","OBJECTID":455601},"geometry":{"x":164631.76999999955,"y":2543058.8600000013}},{"attributes":{"ID":455627,"DIS_CODE":0,"TOWNNAME":"安平區","LI":"育平里","LIN":"32鄰","STREET":"府平路","SECT":" ","MAREA":" ","LANE":"２４５巷","ALLEY":" ","HOUSE_NO":"１號","E_COORD97":164670.16,"N_COORD97":2543064.02,"ADDRESS":"府平路２４５巷１號","OBJECTID":455602},"geometry":{"x":164670.16000000108,"y":2543064.0199999977}},{"attributes":{"ID":455628,"DIS_CODE":0,"TOWNNAME":"安平區","LI":"育平里","LIN":"32鄰","STREET":"府平路","SECT":" ","MAREA":" ","LANE":"２４５巷","ALLEY":" ","HOUSE_NO":"３號","E_COORD97":164675.23999999999,"N_COORD97":2543063.7000000002,"ADDRESS":"府平路２４５巷３號","OBJECTID":455603},"geometry":{"x":164675.24000000022,"y":2543063.7000000011}},{"attributes":{"ID":455629,"DIS_CODE":0,"TOWNNAME":"安平區","LI":"育平里","LIN":"32鄰","STREET":"府平路","SECT":" ","MAREA":" ","LANE":"２４５巷","ALLEY":" ","HOUSE_NO":"５號","E_COORD97":164679.04999999999,"N_COORD97":2543061.9500000002,"ADDRESS":"府平路２４５巷５號","OBJECTID":455604},"geometry":{"x":164679.05000000075,"y":2543061.9500000011}},{"attributes":{"ID":455630,"DIS_CODE":0,"TOWNNAME":"安平區","LI":"育平里","LIN":"32鄰","STREET":"府平路","SECT":" ","MAREA":" ","LANE":"２４５巷","ALLEY":" ","HOUSE_NO":"７號","E_COORD97":164684.60999999999,"N_COORD97":2543061.3199999998,"ADDRESS":"府平路２４５巷７號","OBJECTID":455605},"geometry":{"x":164684.61000000034,"y":2543061.3200000003}},{"attributes":{"ID":455631,"DIS_CODE":0,"TOWNNAME":"安平區","LI":"育平里","LIN":"32鄰","STREET":"府平路","SECT":" ","MAREA":" ","LANE":"２４５巷","ALLEY":" ","HOUSE_NO":"９號","E_COORD97":164688.26000000001,"N_COORD97":2543059.1000000001,"ADDRESS":"府平路２４５巷９號","OBJECTID":455606},"geometry":{"x":164688.25999999978,"y":2543059.0999999996}},{"attributes":{"ID":455632,"DIS_CODE":0,"TOWNNAME":"安平區","LI":"育平里","LIN":"32鄰","STREET":"府平路","SECT":" ","MAREA":" ","LANE":"２４５巷","ALLEY":" ","HOUSE_NO":"１１號","E_COORD97":164691.91,"N_COORD97":2543060.21,"ADDRESS":"府平路２４５巷１１號","OBJECTID":455607},"geometry":{"x":164691.91000000108,"y":2543060.2100000009}},{"attributes":{"ID":455633,"DIS_CODE":0,"TOWNNAME":"安平區","LI":"育平里","LIN":"32鄰","STREET":"府平路","SECT":" ","MAREA":" ","LANE":"２４５巷","ALLEY":" ","HOUSE_NO":"１３號","E_COORD97":164697.47,"N_COORD97":2543060.0499999998,"ADDRESS":"府平路２４５巷１３號","OBJECTID":455608},"geometry":{"x":164697.4700000016,"y":2543060.0500000026}},{"attributes":{"ID":455634,"DIS_CODE":0,"TOWNNAME":"安平區","LI":"育平里","LIN":"32鄰","STREET":"府平路","SECT":" ","MAREA":" ","LANE":"２４５巷","ALLEY":" ","HOUSE_NO":"１５號","E_COORD97":164693.5,"N_COORD97":2543046.0800000001,"ADDRESS":"府平路２４５巷１５號","OBJECTID":455609},"geometry":{"x":164693.5,"y":2543046.0800000001}},{"attributes":{"ID":455635,"DIS_CODE":0,"TOWNNAME":"安平區","LI":"育平里","LIN":"32鄰","STREET":"府平路","SECT":" ","MAREA":" ","LANE":"２４５巷","ALLEY":" ","HOUSE_NO":"１７號","E_COORD97":164689.69,"N_COORD97":2543045.29,"ADDRESS":"府平路２４５巷１７號","OBJECTID":455610},"geometry":{"x":164689.69000000041,"y":2543045.290000001}},{"attributes":{"ID":455636,"DIS_CODE":0,"TOWNNAME":"安平區","LI":"育平里","LIN":"32鄰","STREET":"府平路","SECT":" ","MAREA":" ","LANE":"２４５巷","ALLEY":" ","HOUSE_NO":"１９號","E_COORD97":164685.56,"N_COORD97":2543048.1400000001,"ADDRESS":"府平路２４５巷１９號","OBJECTID":455611},"geometry":{"x":164685.56000000052,"y":2543048.1400000025}},{"attributes":{"ID":455637,"DIS_CODE":0,"TOWNNAME":"歸仁區","LI":"南保里","LIN":"32鄰","STREET":"民權八街","SECT":" ","MAREA":" ","LANE":"７０巷","ALLEY":" ","HOUSE_NO":"９號","E_COORD97":176766.01000000001,"N_COORD97":2541034.25,"ADDRESS":"民權八街７０巷９號","OBJECTID":455612},"geometry":{"x":176766.01000000071,"y":2541034.25}},{"attributes":{"ID":455638,"DIS_CODE":0,"TOWNNAME":"安平區","LI":"育平里","LIN":"32鄰","STREET":"府平路","SECT":" ","MAREA":" ","LANE":"２４５巷","ALLEY":" ","HOUSE_NO":"２１號","E_COORD97":164681.12,"N_COORD97":2543047.8300000001,"ADDRESS":"府平路２４５巷２１號","OBJECTID":455613},"geometry":{"x":164681.12000000011,"y":2543047.8300000001}},{"attributes":{"ID":455639,"DIS_CODE":0,"TOWNNAME":"安平區","LI":"育平里","LIN":"32鄰","STREET":"府平路","SECT":" ","MAREA":" ","LANE":"２４５巷","ALLEY":" ","HOUSE_NO":"２３號","E_COORD97":164676.35000000001,"N_COORD97":2543047.8300000001,"ADDRESS":"府平路２４５巷２３號","OBJECTID":455614},"geometry":{"x":164676.35000000056,"y":2543047.8300000001}},{"attributes":{"ID":455640,"DIS_CODE":0,"TOWNNAME":"安平區","LI":"育平里","LIN":"32鄰","STREET":"府平路","SECT":" ","MAREA":" ","LANE":"２４５巷","ALLEY":" ","HOUSE_NO":"２５號","E_COORD97":164671.75,"N_COORD97":2543050.0499999998,"ADDRESS":"府平路２４５巷２５號","OBJECTID":455615},"geometry":{"x":164671.75,"y":2543050.0500000007}},{"attributes":{"ID":455641,"DIS_CODE":0,"TOWNNAME":"安平區","LI":"育平里","LIN":"32鄰","STREET":"府平路","SECT":" ","MAREA":" ","LANE":"２４５巷","ALLEY":" ","HOUSE_NO":"２７號","E_COORD97":164668.57999999999,"N_COORD97":2543051.48,"ADDRESS":"府平路２４５巷２７號","OBJECTID":455616},"geometry":{"x":164668.58000000101,"y":2543051.4800000004}},{"attributes":{"ID":455642,"DIS_CODE":0,"TOWNNAME":"安平區","LI":"育平里","LIN":"32鄰","STREET":"府平路","SECT":" ","MAREA":" ","LANE":"２４５巷","ALLEY":" ","HOUSE_NO":"２９號","E_COORD97":164665.72,"N_COORD97":2543033.3799999999,"ADDRESS":"府平路２４５巷２９號","OBJECTID":455617},"geometry":{"x":164665.72000000067,"y":2543033.379999999}},{"attributes":{"ID":455643,"DIS_CODE":0,"TOWNNAME":"安平區","LI":"育平里","LIN":"32鄰","STREET":"府平路","SECT":" ","MAREA":" ","LANE":"２４５巷","ALLEY":" ","HOUSE_NO":"３１號","E_COORD97":164670.48000000001,"N_COORD97":2543032.27,"ADDRESS":"府平路２４５巷３１號","OBJECTID":455618},"geometry":{"x":164670.48000000045,"y":2543032.2700000014}},{"attributes":{"ID":455644,"DIS_CODE":0,"TOWNNAME":"六甲區","LI":"龍湖里","LIN":"6鄰","STREET":"進化街","SECT":" ","MAREA":" ","LANE":" ","ALLEY":" ","HOUSE_NO":"６號","E_COORD97":183012.88,"N_COORD97":2569268.4700000002,"ADDRESS":"進化街６號","OBJECTID":455619},"geometry":{"x":183012.87999999896,"y":2569268.4700000007}},{"attributes":{"ID":455645,"DIS_CODE":0,"TOWNNAME":"安平區","LI":"育平里","LIN":"32鄰","STREET":"府平路","SECT":" ","MAREA":" ","LANE":"２４５巷","ALLEY":" ","HOUSE_NO":"３３號","E_COORD97":164676.04000000001,"N_COORD97":2543030.52,"ADDRESS":"府平路２４５巷３３號","OBJECTID":455620},"geometry":{"x":164676.04000000097,"y":2543030.5200000033}},{"attributes":{"ID":455646,"DIS_CODE":0,"TOWNNAME":"安平區","LI":"育平里","LIN":"32鄰","STREET":"府平路","SECT":" ","MAREA":" ","LANE":"２４５巷","ALLEY":" ","HOUSE_NO":"３５號","E_COORD97":164679.53,"N_COORD97":2543029.73,"ADDRESS":"府平路２４５巷３５號","OBJECTID":455621},"geometry":{"x":164679.53000000119,"y":2543029.7300000042}},{"attributes":{"ID":455647,"DIS_CODE":0,"TOWNNAME":"安平區","LI":"育平里","LIN":"32鄰","STREET":"府平路","SECT":" ","MAREA":" ","LANE":"２４５巷","ALLEY":" ","HOUSE_NO":"３７號","E_COORD97":164685.23999999999,"N_COORD97":2543027.98,"ADDRESS":"府平路２４５巷３７號","OBJECTID":455622},"geometry":{"x":164685.24000000022,"y":2543027.9800000042}},{"attributes":{"ID":455648,"DIS_CODE":0,"TOWNNAME":"安平區","LI":"育平里","LIN":"32鄰","STREET":"府平路","SECT":" ","MAREA":" ","LANE":"２４５巷","ALLEY":" ","HOUSE_NO":"３９號","E_COORD97":164689.85000000001,"N_COORD97":2543026.5499999998,"ADDRESS":"府平路２４５巷３９號","OBJECTID":455623},"geometry":{"x":164689.85000000056,"y":2543026.5500000007}},{"attributes":{"ID":455649,"DIS_CODE":0,"TOWNNAME":"安平區","LI":"育平里","LIN":"32鄰","STREET":"府平路","SECT":" ","MAREA":" ","LANE":"２４５巷","ALLEY":" ","HOUSE_NO":"４１號","E_COORD97":164687.78,"N_COORD97":2543013.0600000001,"ADDRESS":"府平路２４５巷４１號","OBJECTID":455624},"geometry":{"x":164687.78000000119,"y":2543013.0600000005}},{"attributes":{"ID":455650,"DIS_CODE":0,"TOWNNAME":"安平區","LI":"育平里","LIN":"32鄰","STREET":"府平路","SECT":" ","MAREA":" ","LANE":"２４５巷","ALLEY":" ","HOUSE_NO":"４３號","E_COORD97":164682.39000000001,"N_COORD97":2543014.4900000002,"ADDRESS":"府平路２４５巷４３號","OBJECTID":455625},"geometry":{"x":164682.38999999966,"y":2543014.4900000039}},{"attributes":{"ID":455651,"DIS_CODE":0,"TOWNNAME":"安平區","LI":"育平里","LIN":"32鄰","STREET":"府平路","SECT":" ","MAREA":" ","LANE":"２４５巷","ALLEY":" ","HOUSE_NO":"４５號","E_COORD97":164677.47,"N_COORD97":2543016.23,"ADDRESS":"府平路２４５巷４５號","OBJECTID":455626},"geometry":{"x":164677.47000000067,"y":2543016.2300000042}},{"attributes":{"ID":455652,"DIS_CODE":0,"TOWNNAME":"安平區","LI":"育平里","LIN":"32鄰","STREET":"府平路","SECT":" ","MAREA":" ","LANE":"２４５巷","ALLEY":" ","HOUSE_NO":"４７號","E_COORD97":164673.01999999999,"N_COORD97":2543016.71,"ADDRESS":"府平路２４５巷４７號","OBJECTID":455627},"geometry":{"x":164673.01999999862,"y":2543016.7100000046}},{"attributes":{"ID":455653,"DIS_CODE":0,"TOWNNAME":"安平區","LI":"育平里","LIN":"32鄰","STREET":"府平路","SECT":" ","MAREA":" ","LANE":"２４５巷","ALLEY":" ","HOUSE_NO":"４９號","E_COORD97":164667.94,"N_COORD97":2543017.3500000001,"ADDRESS":"府平路２４５巷４９號","OBJECTID":455628},"geometry":{"x":164667.94000000227,"y":2543017.3499999996}},{"attributes":{"ID":455654,"DIS_CODE":0,"TOWNNAME":"安平區","LI":"育平里","LIN":"32鄰","STREET":"府平路","SECT":" ","MAREA":" ","LANE":"２４５巷","ALLEY":" ","HOUSE_NO":"５１號","E_COORD97":164662.23000000001,"N_COORD97":2543020.52,"ADDRESS":"府平路２４５巷５１號","OBJECTID":455629},"geometry":{"x":164662.23000000045,"y":2543020.5200000014}},{"attributes":{"ID":455655,"DIS_CODE":0,"TOWNNAME":"安平區","LI":"育平里","LIN":"32鄰","STREET":"府平路","SECT":" ","MAREA":" ","LANE":"２４５巷","ALLEY":" ","HOUSE_NO":"５３號","E_COORD97":164657.29999999999,"N_COORD97":2543004.1699999999,"ADDRESS":"府平路２４５巷５３號","OBJECTID":455630},"geometry":{"x":164657.29999999981,"y":2543004.1700000018}},{"attributes":{"ID":455656,"DIS_CODE":0,"TOWNNAME":"安平區","LI":"育平里","LIN":"32鄰","STREET":"府平路","SECT":" ","MAREA":" ","LANE":"２４５巷","ALLEY":" ","HOUSE_NO":"５５號","E_COORD97":164664.45000000001,"N_COORD97":2543002.8999999999,"ADDRESS":"府平路２４５巷５５號","OBJECTID":455631},"geometry":{"x":164664.45000000112,"y":2543002.9000000022}},{"attributes":{"ID":455657,"DIS_CODE":0,"TOWNNAME":"安平區","LI":"育平里","LIN":"32鄰","STREET":"府平路","SECT":" ","MAREA":" ","LANE":"２４５巷","ALLEY":" ","HOUSE_NO":"５７號","E_COORD97":164668.26000000001,"N_COORD97":2543001.4700000002,"ADDRESS":"府平路２４５巷５７號","OBJECTID":455632},"geometry":{"x":164668.25999999885,"y":2543001.4700000044}},{"attributes":{"ID":455658,"DIS_CODE":0,"TOWNNAME":"安平區","LI":"育平里","LIN":"32鄰","STREET":"府平路","SECT":" ","MAREA":" ","LANE":"２４５巷","ALLEY":" ","HOUSE_NO":"５９號","E_COORD97":164673.81,"N_COORD97":2543001.79,"ADDRESS":"府平路２４５巷５９號","OBJECTID":455633},"geometry":{"x":164673.80999999959,"y":2543001.790000001}},{"attributes":{"ID":455659,"DIS_CODE":0,"TOWNNAME":"安平區","LI":"育平里","LIN":"32鄰","STREET":"府平路","SECT":" ","MAREA":" ","LANE":"２４５巷","ALLEY":" ","HOUSE_NO":"６１號","E_COORD97":164679.37,"N_COORD97":2543000.8399999999,"ADDRESS":"府平路２４５巷６１號","OBJECTID":455634},"geometry":{"x":164679.37000000011,"y":2543000.8399999999}},{"attributes":{"ID":455660,"DIS_CODE":0,"TOWNNAME":"安平區","LI":"育平里","LIN":"32鄰","STREET":"府平路","SECT":" ","MAREA":" ","LANE":"２４５巷","ALLEY":" ","HOUSE_NO":"６３號","E_COORD97":164684.45000000001,"N_COORD97":2542998.9300000002,"ADDRESS":"府平路２４５巷６３號","OBJECTID":455635},"geometry":{"x":164684.45000000205,"y":2542998.9299999997}},{"attributes":{"ID":455661,"DIS_CODE":0,"TOWNNAME":"安平區","LI":"育平里","LIN":"32鄰","STREET":"府平路","SECT":" ","MAREA":" ","LANE":"２４５巷","ALLEY":" ","HOUSE_NO":"６５號","E_COORD97":164681.78,"N_COORD97":2542985.4399999999,"ADDRESS":"府平路２４５巷６５號","OBJECTID":455636},"geometry":{"x":164681.78000000026,"y":2542985.4399999995}},{"attributes":{"ID":455662,"DIS_CODE":0,"TOWNNAME":"安平區","LI":"育平里","LIN":"32鄰","STREET":"府平路","SECT":" ","MAREA":" ","LANE":"２４５巷","ALLEY":" ","HOUSE_NO":"６７號","E_COORD97":164677.14999999999,"N_COORD97":2542986.8900000001,"ADDRESS":"府平路２４５巷６７號","OBJECTID":455637},"geometry":{"x":164677.1500000013,"y":2542986.8900000006}},{"attributes":{"ID":455663,"DIS_CODE":0,"TOWNNAME":"安平區","LI":"育平里","LIN":"32鄰","STREET":"府平路","SECT":" ","MAREA":" ","LANE":"２４５巷","ALLEY":" ","HOUSE_NO":"６９號","E_COORD97":164671.85999999999,"N_COORD97":2542987.1600000001,"ADDRESS":"府平路２４５巷６９號","OBJECTID":455638},"geometry":{"x":164671.86000000127,"y":2542987.160000002}},{"attributes":{"ID":455664,"DIS_CODE":0,"TOWNNAME":"安平區","LI":"育平里","LIN":"32鄰","STREET":"府平路","SECT":" ","MAREA":" ","LANE":"２４５巷","ALLEY":" ","HOUSE_NO":"７１號","E_COORD97":164665.76999999999,"N_COORD97":2542989.27,"ADDRESS":"府平路２４５巷７１號","OBJECTID":455639},"geometry":{"x":164665.76999999955,"y":2542989.2700000014}},{"attributes":{"ID":455665,"DIS_CODE":0,"TOWNNAME":"安平區","LI":"育平里","LIN":"32鄰","STREET":"府平路","SECT":" ","MAREA":" ","LANE":"２４５巷","ALLEY":" ","HOUSE_NO":"７３號","E_COORD97":164660.88,"N_COORD97":2542990.73,"ADDRESS":"府平路２４５巷７３號","OBJECTID":455640},"geometry":{"x":164660.88000000175,"y":2542990.7300000023}},{"attributes":{"ID":455666,"DIS_CODE":0,"TOWNNAME":"安平區","LI":"育平里","LIN":"32鄰","STREET":"府平路","SECT":" ","MAREA":" ","LANE":"２４５巷","ALLEY":" ","HOUSE_NO":"７５號","E_COORD97":164656.64000000001,"N_COORD97":2542990.9900000002,"ADDRESS":"府平路２４５巷７５號","OBJECTID":455641},"geometry":{"x":164656.63999999966,"y":2542990.9900000021}},{"attributes":{"ID":455667,"DIS_CODE":0,"TOWNNAME":"歸仁區","LI":"南保里","LIN":"32鄰","STREET":"民權八街","SECT":" ","MAREA":" ","LANE":"７０巷","ALLEY":" ","HOUSE_NO":"２２號","E_COORD97":176797.06,"N_COORD97":2541040.25,"ADDRESS":"民權八街７０巷２２號","OBJECTID":455642},"geometry":{"x":176797.06000000052,"y":2541040.2500000019}},{"attributes":{"ID":455668,"DIS_CODE":0,"TOWNNAME":"歸仁區","LI":"南保里","LIN":"32鄰","STREET":"民權八街","SECT":" ","MAREA":" ","LANE":"７０巷","ALLEY":" ","HOUSE_NO":"８號","E_COORD97":176794.60999999999,"N_COORD97":2541006.25,"ADDRESS":"民權八街７０巷８號","OBJECTID":455643},"geometry":{"x":176794.61000000127,"y":2541006.2500000019}},{"attributes":{"ID":455669,"DIS_CODE":0,"TOWNNAME":"北區","LI":"大港里","LIN":"32鄰","STREET":"大興街","SECT":" ","MAREA":" ","LANE":"５２８巷","ALLEY":" ","HOUSE_NO":"１６號","E_COORD97":165998.75,"N_COORD97":2545507.0800000001,"ADDRESS":"大興街５２８巷１６號","OBJECTID":455644},"geometry":{"x":165998.75,"y":2545507.0800000001}},{"attributes":{"ID":455670,"DIS_CODE":0,"TOWNNAME":"北區","LI":"大港里","LIN":"32鄰","STREET":"大興街","SECT":" ","MAREA":" ","LANE":"５２８巷","ALLEY":" ","HOUSE_NO":"１６之１號","E_COORD97":166003.66,"N_COORD97":2545509.5299999998,"ADDRESS":"大興街５２８巷１６之１號","OBJECTID":455645},"geometry":{"x":166003.66000000201,"y":2545509.5300000012}},{"attributes":{"ID":455671,"DIS_CODE":0,"TOWNNAME":"北區","LI":"大港里","LIN":"32鄰","STREET":"大興街","SECT":" ","MAREA":" ","LANE":"５２８巷","ALLEY":" ","HOUSE_NO":"１６之２號","E_COORD97":166009.06,"N_COORD97":2545512.1499999999,"ADDRESS":"大興街５２８巷１６之２號","OBJECTID":455646},"geometry":{"x":166009.06000000052,"y":2545512.1500000041}},{"attributes":{"ID":455672,"DIS_CODE":0,"TOWNNAME":"北區","LI":"大港里","LIN":"32鄰","STREET":"大興街","SECT":" ","MAREA":" ","LANE":"５２８巷","ALLEY":" ","HOUSE_NO":"１６之３號","E_COORD97":166013.81,"N_COORD97":2545515.2599999998,"ADDRESS":"大興街５２８巷１６之３號","OBJECTID":455647},"geometry":{"x":166013.81000000145,"y":2545515.2600000016}},{"attributes":{"ID":455673,"DIS_CODE":0,"TOWNNAME":"北區","LI":"大港里","LIN":"32鄰","STREET":"大興街","SECT":" ","MAREA":" ","LANE":"５２８巷","ALLEY":" ","HOUSE_NO":"１８號","E_COORD97":165992.51999999999,"N_COORD97":2545520.5,"ADDRESS":"大興街５２８巷１８號","OBJECTID":455648},"geometry":{"x":165992.52000000048,"y":2545520.5000000019}},{"attributes":{"ID":455674,"DIS_CODE":0,"TOWNNAME":"北區","LI":"大港里","LIN":"32鄰","STREET":"大興街","SECT":" ","MAREA":" ","LANE":"５２８巷","ALLEY":" ","HOUSE_NO":"１８之１號","E_COORD97":165997.76000000001,"N_COORD97":2545522.6299999999,"ADDRESS":"大興街５２８巷１８之１號","OBJECTID":455649},"geometry":{"x":165997.76000000071,"y":2545522.629999999}},{"attributes":{"ID":455675,"DIS_CODE":0,"TOWNNAME":"北區","LI":"大港里","LIN":"32鄰","STREET":"大興街","SECT":" ","MAREA":" ","LANE":"５２８巷","ALLEY":" ","HOUSE_NO":"１８之２號","E_COORD97":166002.84,"N_COORD97":2545525.4100000001,"ADDRESS":"大興街５２８巷１８之２號","OBJECTID":455650},"geometry":{"x":166002.84000000078,"y":2545525.4100000001}},{"attributes":{"ID":455676,"DIS_CODE":0,"TOWNNAME":"北區","LI":"大港里","LIN":"32鄰","STREET":"大興街","SECT":" ","MAREA":" ","LANE":"５２８巷","ALLEY":" ","HOUSE_NO":"１８之３號","E_COORD97":166007.91,"N_COORD97":2545528.3599999999,"ADDRESS":"大興街５２８巷１８之３號","OBJECTID":455651},"geometry":{"x":166007.91000000015,"y":2545528.3599999994}},{"attributes":{"ID":455677,"DIS_CODE":0,"TOWNNAME":"永康區","LI":"南灣里","LIN":"32鄰","STREET":"大灣一街","SECT":" ","MAREA":" ","LANE":"４５巷","ALLEY":" ","HOUSE_NO":"３３號","E_COORD97":174349.94,"N_COORD97":2544844.7200000002,"ADDRESS":"大灣一街４５巷３３號","OBJECTID":455652},"geometry":{"x":174349.94000000041,"y":2544844.7200000025}},{"attributes":{"ID":455678,"DIS_CODE":0,"TOWNNAME":"永康區","LI":"埔園里","LIN":"32鄰","STREET":"龍埔街","SECT":" ","MAREA":" ","LANE":"２８３巷","ALLEY":" ","HOUSE_NO":"２９號","E_COORD97":174039.56,"N_COORD97":2548232.9900000002,"ADDRESS":"龍埔街２８３巷２９號","OBJECTID":455653},"geometry":{"x":174039.56000000052,"y":2548232.9900000021}},{"attributes":{"ID":455679,"DIS_CODE":0,"TOWNNAME":"永康區","LI":"埔園里","LIN":"32鄰","STREET":"龍埔街","SECT":" ","MAREA":" ","LANE":"２８３巷","ALLEY":" ","HOUSE_NO":"１９號","E_COORD97":174041.82999999999,"N_COORD97":2548253.9900000002,"ADDRESS":"龍埔街２８３巷１９號","OBJECTID":455654},"geometry":{"x":174041.83000000007,"y":2548253.9900000021}},{"attributes":{"ID":455680,"DIS_CODE":0,"TOWNNAME":"永康區","LI":"埔園里","LIN":"32鄰","STREET":"龍埔街","SECT":" ","MAREA":" ","LANE":"２８３巷","ALLEY":" ","HOUSE_NO":"３９號","E_COORD97":174036.64999999999,"N_COORD97":2548212.75,"ADDRESS":"龍埔街２８３巷３９號","OBJECTID":455655},"geometry":{"x":174036.65000000037,"y":2548212.75}},{"attributes":{"ID":455681,"DIS_CODE":0,"TOWNNAME":"永康區","LI":"埔園里","LIN":"32鄰","STREET":"龍埔街","SECT":" ","MAREA":" ","LANE":"２８３巷","ALLEY":" ","HOUSE_NO":"３５號","E_COORD97":174037.76000000001,"N_COORD97":2548221.2400000002,"ADDRESS":"龍埔街２８３巷３５號","OBJECTID":455656},"geometry":{"x":174037.76000000164,"y":2548221.2400000021}},{"attributes":{"ID":455682,"DIS_CODE":0,"TOWNNAME":"永康區","LI":"埔園里","LIN":"32鄰","STREET":"龍埔街","SECT":" ","MAREA":" ","LANE":"２８３巷","ALLEY":" ","HOUSE_NO":"４８號","E_COORD97":174023.14999999999,"N_COORD97":2548218.4900000002,"ADDRESS":"龍埔街２８３巷４８號","OBJECTID":455657},"geometry":{"x":174023.15000000037,"y":2548218.4900000039}},{"attributes":{"ID":455683,"DIS_CODE":0,"TOWNNAME":"永康區","LI":"南灣里","LIN":"32鄰","STREET":"大灣一街","SECT":" ","MAREA":" ","LANE":"４５巷","ALLEY":" ","HOUSE_NO":"１１號","E_COORD97":174329.94,"N_COORD97":2544816.2599999998,"ADDRESS":"大灣一街４５巷１１號","OBJECTID":455658},"geometry":{"x":174329.94000000041,"y":2544816.2600000016}},{"attributes":{"ID":455684,"DIS_CODE":0,"TOWNNAME":"永康區","LI":"埔園里","LIN":"32鄰","STREET":"龍埔街","SECT":" ","MAREA":" ","LANE":"２８３巷","ALLEY":" ","HOUSE_NO":"３６號","E_COORD97":174025.39999999999,"N_COORD97":2548238.9900000002,"ADDRESS":"龍埔街２８３巷３６號","OBJECTID":455659},"geometry":{"x":174025.39999999944,"y":2548238.9900000039}},{"attributes":{"ID":455685,"DIS_CODE":0,"TOWNNAME":"永康區","LI":"東灣里","LIN":"32鄰","STREET":"大灣一街","SECT":" ","MAREA":" ","LANE":"３３６巷","ALLEY":" ","HOUSE_NO":"２號","E_COORD97":175081.16,"N_COORD97":2544726.3300000001,"ADDRESS":"大灣一街３３６巷２號","OBJECTID":455660},"geometry":{"x":175081.15999999922,"y":2544726.3300000001}},{"attributes":{"ID":455686,"DIS_CODE":0,"TOWNNAME":"永康區","LI":"東灣里","LIN":"32鄰","STREET":"大灣一街","SECT":" ","MAREA":" ","LANE":"３３６巷","ALLEY":" ","HOUSE_NO":"１２號","E_COORD97":175092.59,"N_COORD97":2544711.0299999998,"ADDRESS":"大灣一街３３６巷１２號","OBJECTID":455661},"geometry":{"x":175092.58999999985,"y":2544711.0299999993}},{"attributes":{"ID":455687,"DIS_CODE":0,"TOWNNAME":"永康區","LI":"東灣里","LIN":"32鄰","STREET":"大灣一街","SECT":" ","MAREA":" ","LANE":"３３６巷","ALLEY":" ","HOUSE_NO":"１號","E_COORD97":175093.69,"N_COORD97":2544740.0299999998,"ADDRESS":"大灣一街３３６巷１號","OBJECTID":455662},"geometry":{"x":175093.69000000134,"y":2544740.0300000012}},{"attributes":{"ID":455688,"DIS_CODE":0,"TOWNNAME":"永康區","LI":"東灣里","LIN":"32鄰","STREET":"大灣一街","SECT":" ","MAREA":" ","LANE":"３１２巷","ALLEY":" ","HOUSE_NO":"２１號","E_COORD97":175080.62,"N_COORD97":2544671.7200000002,"ADDRESS":"大灣一街３１２巷２１號","OBJECTID":455663},"geometry":{"x":175080.62000000104,"y":2544671.7200000025}},{"attributes":{"ID":455689,"DIS_CODE":0,"TOWNNAME":"永康區","LI":"東灣里","LIN":"32鄰","STREET":"大灣一街","SECT":" ","MAREA":" ","LANE":"３３６巷","ALLEY":" ","HOUSE_NO":"１９號","E_COORD97":175114.5,"N_COORD97":2544709.7799999998,"ADDRESS":"大灣一街３３６巷１９號","OBJECTID":455664},"geometry":{"x":175114.50000000186,"y":2544709.7800000031}},{"attributes":{"ID":455690,"DIS_CODE":0,"TOWNNAME":"永康區","LI":"埔園里","LIN":"32鄰","STREET":"龍埔街","SECT":" ","MAREA":" ","LANE":"２８３巷","ALLEY":" ","HOUSE_NO":"２８號","E_COORD97":174026.81,"N_COORD97":2548251.2400000002,"ADDRESS":"龍埔街２８３巷２８號","OBJECTID":455665},"geometry":{"x":174026.80999999959,"y":2548251.2400000021}},{"attributes":{"ID":455691,"DIS_CODE":0,"TOWNNAME":"永康區","LI":"埔園里","LIN":"32鄰","STREET":"龍埔街","SECT":" ","MAREA":" ","LANE":"２８３巷","ALLEY":" ","HOUSE_NO":"５０號","E_COORD97":174022.39999999999,"N_COORD97":2548214.5,"ADDRESS":"龍埔街２８３巷５０號","OBJECTID":455666},"geometry":{"x":174022.4000000013,"y":2548214.4999999981}},{"attributes":{"ID":455692,"DIS_CODE":0,"TOWNNAME":"永康區","LI":"東灣里","LIN":"32鄰","STREET":"大灣一街","SECT":" ","MAREA":" ","LANE":"３３６巷","ALLEY":" ","HOUSE_NO":"３０號","E_COORD97":175106.85000000001,"N_COORD97":2544689.04,"ADDRESS":"大灣一街３３６巷３０號","OBJECTID":455667},"geometry":{"x":175106.85000000056,"y":2544689.040000001}},{"attributes":{"ID":455693,"DIS_CODE":0,"TOWNNAME":"永康區","LI":"埔園里","LIN":"32鄰","STREET":"龍埔街","SECT":" ","MAREA":" ","LANE":"２８３巷","ALLEY":" ","HOUSE_NO":"１２號","E_COORD97":174029.39999999999,"N_COORD97":2548276,"ADDRESS":"龍埔街２８３巷１２號","OBJECTID":455668},"geometry":{"x":174029.4000000013,"y":2548276.0000000037}},{"attributes":{"ID":455694,"DIS_CODE":0,"TOWNNAME":"永康區","LI":"埔園里","LIN":"32鄰","STREET":"龍埔街","SECT":" ","MAREA":" ","LANE":"２８３巷","ALLEY":" ","HOUSE_NO":"２６號","E_COORD97":174027.23999999999,"N_COORD97":2548255.4900000002,"ADDRESS":"龍埔街２８３巷２６號","OBJECTID":455669},"geometry":{"x":174027.24000000115,"y":2548255.4899999984}},{"attributes":{"ID":455695,"DIS_CODE":0,"TOWNNAME":"永康區","LI":"埔園里","LIN":"32鄰","STREET":"龍埔街","SECT":" ","MAREA":" ","LANE":"２９１巷","ALLEY":" ","HOUSE_NO":"５號","E_COORD97":173952.13,"N_COORD97":2548289.75,"ADDRESS":"龍埔街２９１巷５號","OBJECTID":455670},"geometry":{"x":173952.12999999896,"y":2548289.75}},{"attributes":{"ID":455696,"DIS_CODE":0,"TOWNNAME":"永康區","LI":"南灣里","LIN":"32鄰","STREET":"大灣一街","SECT":" ","MAREA":" ","LANE":"３７巷","ALLEY":" ","HOUSE_NO":"３號","E_COORD97":174290.92000000001,"N_COORD97":2544814.6400000001,"ADDRESS":"大灣一街３７巷３號","OBJECTID":455671},"geometry":{"x":174290.91999999899,"y":2544814.6400000025}},{"attributes":{"ID":455697,"DIS_CODE":0,"TOWNNAME":"東區","LI":"虎尾里","LIN":"32鄰","STREET":"東成街","SECT":" ","MAREA":" ","LANE":"１４２巷","ALLEY":" ","HOUSE_NO":"５３號","E_COORD97":171686.41,"N_COORD97":2542137.7799999998,"ADDRESS":"東成街１４２巷５３號","OBJECTID":455672},"geometry":{"x":171686.41000000108,"y":2542137.7800000012}},{"attributes":{"ID":455698,"DIS_CODE":0,"TOWNNAME":"東區","LI":"虎尾里","LIN":"32鄰","STREET":"東成街","SECT":" ","MAREA":" ","LANE":"１４２巷","ALLEY":" ","HOUSE_NO":"５５號","E_COORD97":171693.22,"N_COORD97":2542138.5699999998,"ADDRESS":"東成街１４２巷５５號","OBJECTID":455673},"geometry":{"x":171693.21999999974,"y":2542138.5700000003}},{"attributes":{"ID":455699,"DIS_CODE":0,"TOWNNAME":"東區","LI":"虎尾里","LIN":"32鄰","STREET":"東成街","SECT":" ","MAREA":" ","LANE":"１４２巷","ALLEY":" ","HOUSE_NO":"５７號","E_COORD97":171699.5,"N_COORD97":2542139.0899999999,"ADDRESS":"東成街１４２巷５７號","OBJECTID":455674},"geometry":{"x":171699.5,"y":2542139.0900000017}},{"attributes":{"ID":455700,"DIS_CODE":0,"TOWNNAME":"東區","LI":"虎尾里","LIN":"32鄰","STREET":"東成街","SECT":" ","MAREA":" ","LANE":"１４２巷","ALLEY":" ","HOUSE_NO":"５９號","E_COORD97":171705.79000000001,"N_COORD97":2542139.0899999999,"ADDRESS":"東成街１４２巷５９號","OBJECTID":455675},"geometry":{"x":171705.79000000097,"y":2542139.0900000017}},{"attributes":{"ID":455701,"DIS_CODE":0,"TOWNNAME":"東區","LI":"虎尾里","LIN":"32鄰","STREET":"東成街","SECT":" ","MAREA":" ","LANE":"１４２巷","ALLEY":" ","HOUSE_NO":"６１號","E_COORD97":171712.85999999999,"N_COORD97":2542139.0899999999,"ADDRESS":"東成街１４２巷６１號","OBJECTID":455676},"geometry":{"x":171712.86000000034,"y":2542139.0900000017}},{"attributes":{"ID":455702,"DIS_CODE":0,"TOWNNAME":"永康區","LI":"東灣里","LIN":"32鄰","STREET":"大灣一街","SECT":" ","MAREA":" ","LANE":"３３６巷","ALLEY":" ","HOUSE_NO":"５號","E_COORD97":175098.04999999999,"N_COORD97":2544733.2799999998,"ADDRESS":"大灣一街３３６巷５號","OBJECTID":455677},"geometry":{"x":175098.04999999981,"y":2544733.2799999993}},{"attributes":{"ID":455703,"DIS_CODE":0,"TOWNNAME":"永康區","LI":"東灣里","LIN":"32鄰","STREET":"大灣一街","SECT":" ","MAREA":" ","LANE":"３３６巷","ALLEY":" ","HOUSE_NO":"１７號","E_COORD97":175112.29999999999,"N_COORD97":2544713.0299999998,"ADDRESS":"大灣一街３３６巷１７號","OBJECTID":455678},"geometry":{"x":175112.30000000168,"y":2544713.0300000012}},{"attributes":{"ID":455704,"DIS_CODE":0,"TOWNNAME":"永康區","LI":"埔園里","LIN":"32鄰","STREET":"龍埔街","SECT":" ","MAREA":" ","LANE":"２８３巷","ALLEY":" ","HOUSE_NO":"１１號","E_COORD97":174044.45000000001,"N_COORD97":2548270.25,"ADDRESS":"龍埔街２８３巷１１號","OBJECTID":455679},"geometry":{"x":174044.45000000019,"y":2548270.25}},{"attributes":{"ID":455705,"DIS_CODE":0,"TOWNNAME":"永康區","LI":"埔園里","LIN":"32鄰","STREET":"龍埔街","SECT":" ","MAREA":" ","LANE":"２８３巷","ALLEY":" ","HOUSE_NO":"１７號","E_COORD97":174042.81,"N_COORD97":2548257.7400000002,"ADDRESS":"龍埔街２８３巷１７號","OBJECTID":455680},"geometry":{"x":174042.81000000052,"y":2548257.7400000021}},{"attributes":{"ID":455706,"DIS_CODE":0,"TOWNNAME":"永康區","LI":"埔園里","LIN":"32鄰","STREET":"龍埔街","SECT":" ","MAREA":" ","LANE":"２８３巷","ALLEY":" ","HOUSE_NO":"２７號","E_COORD97":174040.01000000001,"N_COORD97":2548237.2400000002,"ADDRESS":"龍埔街２８３巷２７號","OBJECTID":455681},"geometry":{"x":174040.01000000071,"y":2548237.2400000039}},{"attributes":{"ID":455707,"DIS_CODE":0,"TOWNNAME":"永康區","LI":"南灣里","LIN":"32鄰","STREET":"大灣一街","SECT":" ","MAREA":" ","LANE":"３７巷","ALLEY":" ","HOUSE_NO":"１號","E_COORD97":174289.62,"N_COORD97":2544810.8900000001,"ADDRESS":"大灣一街３７巷１號","OBJECTID":455682},"geometry":{"x":174289.62000000011,"y":2544810.8900000006}},{"attributes":{"ID":455708,"DIS_CODE":0,"TOWNNAME":"安南區","LI":"州北里","LIN":"32鄰","STREET":"北安路","SECT":"四段","MAREA":" ","LANE":"５４８巷","ALLEY":" ","HOUSE_NO":"１９號","E_COORD97":169610.19,"N_COORD97":2551919.3300000001,"ADDRESS":"北安路四段５４８巷１９號","OBJECTID":455683},"geometry":{"x":169610.19000000041,"y":2551919.3300000019}},{"attributes":{"ID":455709,"DIS_CODE":0,"TOWNNAME":"安南區","LI":"州北里","LIN":"32鄰","STREET":"北安路","SECT":"四段","MAREA":" ","LANE":"５４８巷","ALLEY":" ","HOUSE_NO":"１號","E_COORD97":169573.5,"N_COORD97":2551905.46,"ADDRESS":"北安路四段５４８巷１號","OBJECTID":455684},"geometry":{"x":169573.50000000093,"y":2551905.4600000028}},{"attributes":{"ID":455710,"DIS_CODE":0,"TOWNNAME":"安南區","LI":"州北里","LIN":"32鄰","STREET":"北安路","SECT":"四段","MAREA":" ","LANE":"５４８巷","ALLEY":" ","HOUSE_NO":"２１號","E_COORD97":169614.57000000001,"N_COORD97":2551920.7599999998,"ADDRESS":"北安路四段５４８巷２１號","OBJECTID":455685},"geometry":{"x":169614.5700000003,"y":2551920.7599999998}},{"attributes":{"ID":455711,"DIS_CODE":0,"TOWNNAME":"安南區","LI":"州北里","LIN":"32鄰","STREET":"北安路","SECT":"四段","MAREA":" ","LANE":"５４８巷","ALLEY":" ","HOUSE_NO":"３號","E_COORD97":169578.09,"N_COORD97":2551907.0099999998,"ADDRESS":"北安路四段５４８巷３號","OBJECTID":455686},"geometry":{"x":169578.08999999985,"y":2551907.0100000016}},{"attributes":{"ID":455712,"DIS_CODE":0,"TOWNNAME":"安南區","LI":"州北里","LIN":"32鄰","STREET":"北安路","SECT":"四段","MAREA":" ","LANE":"５４８巷","ALLEY":" ","HOUSE_NO":"５號","E_COORD97":169581.53,"N_COORD97":2551908.6499999999,"ADDRESS":"北安路四段５４８巷５號","OBJECTID":455687},"geometry":{"x":169581.53000000119,"y":2551908.6500000004}},{"attributes":{"ID":455713,"DIS_CODE":0,"TOWNNAME":"安南區","LI":"州北里","LIN":"32鄰","STREET":"北安路","SECT":"四段","MAREA":" ","LANE":"５４８巷","ALLEY":" ","HOUSE_NO":"６號","E_COORD97":169575.48000000001,"N_COORD97":2551880.29,"ADDRESS":"北安路四段５４８巷６號","OBJECTID":455688},"geometry":{"x":169575.48000000138,"y":2551880.2900000028}},{"attributes":{"ID":455714,"DIS_CODE":0,"TOWNNAME":"安南區","LI":"州北里","LIN":"32鄰","STREET":"北安路","SECT":"四段","MAREA":" ","LANE":"５４８巷","ALLEY":" ","HOUSE_NO":"７號","E_COORD97":169585.62,"N_COORD97":2551910.4500000002,"ADDRESS":"北安路四段５４８巷７號","OBJECTID":455689},"geometry":{"x":169585.61999999918,"y":2551910.4500000011}},{"attributes":{"ID":455715,"DIS_CODE":0,"TOWNNAME":"安南區","LI":"州北里","LIN":"32鄰","STREET":"北安路","SECT":"四段","MAREA":" ","LANE":"５４８巷","ALLEY":" ","HOUSE_NO":"８號","E_COORD97":169580.48999999999,"N_COORD97":2551882.3199999998,"ADDRESS":"北安路四段５４８巷８號","OBJECTID":455690},"geometry":{"x":169580.49000000115,"y":2551882.3200000022}},{"attributes":{"ID":455716,"DIS_CODE":0,"TOWNNAME":"安南區","LI":"州北里","LIN":"32鄰","STREET":"北安路","SECT":"四段","MAREA":" ","LANE":"５４８巷","ALLEY":" ","HOUSE_NO":"９號","E_COORD97":169589.64000000001,"N_COORD97":2551911.8399999999,"ADDRESS":"北安路四段５４８巷９號","OBJECTID":455691},"geometry":{"x":169589.63999999966,"y":2551911.8400000017}},{"attributes":{"ID":455717,"DIS_CODE":0,"TOWNNAME":"安南區","LI":"州北里","LIN":"32鄰","STREET":"北安路","SECT":"四段","MAREA":" ","LANE":"５４８巷","ALLEY":" ","HOUSE_NO":"１１號","E_COORD97":169593.98999999999,"N_COORD97":2551912.8900000001,"ADDRESS":"北安路四段５４８巷１１號","OBJECTID":455692},"geometry":{"x":169593.99000000115,"y":2551912.8900000025}},{"attributes":{"ID":455718,"DIS_CODE":0,"TOWNNAME":"安南區","LI":"州北里","LIN":"32鄰","STREET":"北安路","SECT":"四段","MAREA":" ","LANE":"５４８巷","ALLEY":" ","HOUSE_NO":"１３號","E_COORD97":169598.04999999999,"N_COORD97":2551914.4199999999,"ADDRESS":"北安路四段５４８巷１３號","OBJECTID":455693},"geometry":{"x":169598.05000000075,"y":2551914.4200000018}},{"attributes":{"ID":455719,"DIS_CODE":0,"TOWNNAME":"永康區","LI":"\u25A0洲里","LIN":"32鄰","STREET":"\u25A0行路","SECT":" ","MAREA":" ","LANE":"３３０巷","ALLEY":" ","HOUSE_NO":"２號","E_COORD97":170998.20999999999,"N_COORD97":2548961.1499999999,"ADDRESS":"\u25A0行路３３０巷２號","OBJECTID":455694},"geometry":{"x":170998.20999999996,"y":2548961.1500000022}},{"attributes":{"ID":455720,"DIS_CODE":0,"TOWNNAME":"永康區","LI":"\u25A0洲里","LIN":"32鄰","STREET":"\u25A0行路","SECT":" ","MAREA":" ","LANE":"３２８巷","ALLEY":" ","HOUSE_NO":"３號","E_COORD97":171027.73000000001,"N_COORD97":2548971.1899999999,"ADDRESS":"\u25A0行路３２８巷３號","OBJECTID":455695},"geometry":{"x":171027.73000000045,"y":2548971.1899999995}},{"attributes":{"ID":455721,"DIS_CODE":0,"TOWNNAME":"永康區","LI":"\u25A0洲里","LIN":"32鄰","STREET":"\u25A0行路","SECT":" ","MAREA":" ","LANE":"３３０巷","ALLEY":" ","HOUSE_NO":"１０號","E_COORD97":170999.97,"N_COORD97":2548978.77,"ADDRESS":"\u25A0行路３３０巷１０號","OBJECTID":455696},"geometry":{"x":170999.96999999974,"y":2548978.7700000033}},{"attributes":{"ID":455722,"DIS_CODE":0,"TOWNNAME":"永康區","LI":"\u25A0行里","LIN":"32鄰","STREET":"三村一街","SECT":" ","MAREA":" ","LANE":"１３８巷","ALLEY":" ","HOUSE_NO":"６６號","E_COORD97":172095.64999999999,"N_COORD97":2549377.4900000002,"ADDRESS":"三村一街１３８巷６６號","OBJECTID":455697},"geometry":{"x":172095.65000000037,"y":2549377.4900000002}},{"attributes":{"ID":455723,"DIS_CODE":0,"TOWNNAME":"安南區","LI":"安富里","LIN":"32鄰","STREET":"海佃路","SECT":"一段","MAREA":" ","LANE":"１５８巷","ALLEY":" ","HOUSE_NO":"１７０號","E_COORD97":167753.94,"N_COORD97":2547280.0299999998,"ADDRESS":"海佃路一段１５８巷１７０號","OBJECTID":455698},"geometry":{"x":167753.94000000041,"y":2547280.0299999993}},{"attributes":{"ID":455724,"DIS_CODE":0,"TOWNNAME":"安南區","LI":"安富里","LIN":"32鄰","STREET":"海佃路","SECT":"一段","MAREA":" ","LANE":"１５８巷","ALLEY":" ","HOUSE_NO":"１７２號","E_COORD97":167758.63,"N_COORD97":2547278.3100000001,"ADDRESS":"海佃路一段１５８巷１７２號","OBJECTID":455699},"geometry":{"x":167758.63000000082,"y":2547278.3100000024}},{"attributes":{"ID":455725,"DIS_CODE":0,"TOWNNAME":"安南區","LI":"安富里","LIN":"32鄰","STREET":"海佃路","SECT":"一段","MAREA":" ","LANE":"１５８巷","ALLEY":" ","HOUSE_NO":"１８２號","E_COORD97":167785.64000000001,"N_COORD97":2547284.4100000001,"ADDRESS":"海佃路一段１５８巷１８２號","OBJECTID":455700},"geometry":{"x":167785.6400000006,"y":2547284.410000002}},{"attributes":{"ID":455726,"DIS_CODE":0,"TOWNNAME":"安南區","LI":"安富里","LIN":"32鄰","STREET":"海佃路","SECT":"一段","MAREA":" ","LANE":"１５８巷","ALLEY":" ","HOUSE_NO":"１８６號","E_COORD97":167795.63,"N_COORD97":2547288.2000000002,"ADDRESS":"海佃路一段１５８巷１８６號","OBJECTID":455701},"geometry":{"x":167795.63000000082,"y":2547288.2000000011}},{"attributes":{"ID":455727,"DIS_CODE":0,"TOWNNAME":"安南區","LI":"安富里","LIN":"32鄰","STREET":"海佃路","SECT":"一段","MAREA":" ","LANE":"１５８巷","ALLEY":" ","HOUSE_NO":"１９０號","E_COORD97":167809.06,"N_COORD97":2547289.5800000001,"ADDRESS":"海佃路一段１５８巷１９０號","OBJECTID":455702},"geometry":{"x":167809.06000000145,"y":2547289.5800000019}},{"attributes":{"ID":455728,"DIS_CODE":0,"TOWNNAME":"安南區","LI":"安富里","LIN":"32鄰","STREET":"海佃路","SECT":"一段","MAREA":" ","LANE":"１５８巷","ALLEY":" ","HOUSE_NO":"１９４號","E_COORD97":167817.66,"N_COORD97":2547292.6699999999,"ADDRESS":"海佃路一段１５８巷１９４號","OBJECTID":455703},"geometry":{"x":167817.66000000108,"y":2547292.6700000018}},{"attributes":{"ID":455729,"DIS_CODE":0,"TOWNNAME":"安南區","LI":"安富里","LIN":"32鄰","STREET":"海佃路","SECT":"一段","MAREA":" ","LANE":"１５８巷","ALLEY":" ","HOUSE_NO":"１９８號","E_COORD97":167826.62,"N_COORD97":2547292.6699999999,"ADDRESS":"海佃路一段１５８巷１９８號","OBJECTID":455704},"geometry":{"x":167826.62000000104,"y":2547292.6700000018}},{"attributes":{"ID":455730,"DIS_CODE":0,"TOWNNAME":"永康區","LI":"\u25A0行里","LIN":"32鄰","STREET":"三村一街","SECT":" ","MAREA":" ","LANE":"１３８巷","ALLEY":" ","HOUSE_NO":"１２號","E_COORD97":172052.88,"N_COORD97":2549273.7400000002,"ADDRESS":"三村一街１３８巷１２號","OBJECTID":455705},"geometry":{"x":172052.87999999989,"y":2549273.7400000002}},{"attributes":{"ID":455731,"DIS_CODE":0,"TOWNNAME":"東區","LI":"虎尾里","LIN":"32鄰","STREET":"東成街","SECT":" ","MAREA":" ","LANE":"１４２巷","ALLEY":" ","HOUSE_NO":"２５號","E_COORD97":171680.31,"N_COORD97":2542206.9199999999,"ADDRESS":"東成街１４２巷２５號","OBJECTID":455706},"geometry":{"x":171680.30999999959,"y":2542206.9199999999}},{"attributes":{"ID":455732,"DIS_CODE":0,"TOWNNAME":"東區","LI":"虎尾里","LIN":"32鄰","STREET":"東成街","SECT":" ","MAREA":" ","LANE":"１４２巷","ALLEY":" ","HOUSE_NO":"２７號","E_COORD97":171681.23999999999,"N_COORD97":2542202.6400000001,"ADDRESS":"東成街１４２巷２７號","OBJECTID":455707},"geometry":{"x":171681.24000000022,"y":2542202.6400000006}},{"attributes":{"ID":455733,"DIS_CODE":0,"TOWNNAME":"東區","LI":"虎尾里","LIN":"32鄰","STREET":"東成街","SECT":" ","MAREA":" ","LANE":"１４２巷","ALLEY":" ","HOUSE_NO":"２９號","E_COORD97":171681.79999999999,"N_COORD97":2542198.3599999999,"ADDRESS":"東成街１４２巷２９號","OBJECTID":455708},"geometry":{"x":171681.80000000075,"y":2542198.3600000013}},{"attributes":{"ID":455734,"DIS_CODE":0,"TOWNNAME":"東區","LI":"虎尾里","LIN":"32鄰","STREET":"東成街","SECT":" ","MAREA":" ","LANE":"１４２巷","ALLEY":" ","HOUSE_NO":"３１號","E_COORD97":171682.73000000001,"N_COORD97":2542194.8199999998,"ADDRESS":"東成街１４２巷３１號","OBJECTID":455709},"geometry":{"x":171682.73000000138,"y":2542194.8199999984}},{"attributes":{"ID":455735,"DIS_CODE":0,"TOWNNAME":"東區","LI":"虎尾里","LIN":"32鄰","STREET":"東成街","SECT":" ","MAREA":" ","LANE":"１４２巷","ALLEY":" ","HOUSE_NO":"３３號","E_COORD97":171682.92000000001,"N_COORD97":2542190.7200000002,"ADDRESS":"東成街１４２巷３３號","OBJECTID":455710},"geometry":{"x":171682.92000000086,"y":2542190.7200000025}},{"attributes":{"ID":455736,"DIS_CODE":0,"TOWNNAME":"東區","LI":"虎尾里","LIN":"32鄰","STREET":"東成街","SECT":" ","MAREA":" ","LANE":"１４２巷","ALLEY":" ","HOUSE_NO":"３５號","E_COORD97":171683.67000000001,"N_COORD97":2542186.6299999999,"ADDRESS":"東成街１４２巷３５號","OBJECTID":455711},"geometry":{"x":171683.66999999993,"y":2542186.629999999}},{"attributes":{"ID":455737,"DIS_CODE":0,"TOWNNAME":"東區","LI":"虎尾里","LIN":"32鄰","STREET":"東成街","SECT":" ","MAREA":" ","LANE":"１４２巷","ALLEY":" ","HOUSE_NO":"３７號","E_COORD97":171684.41,"N_COORD97":2542182.5299999998,"ADDRESS":"東成街１４２巷３７號","OBJECTID":455712},"geometry":{"x":171684.41000000108,"y":2542182.5300000031}},{"attributes":{"ID":455738,"DIS_CODE":0,"TOWNNAME":"東區","LI":"虎尾里","LIN":"32鄰","STREET":"東成街","SECT":" ","MAREA":" ","LANE":"１４２巷","ALLEY":" ","HOUSE_NO":"３９號","E_COORD97":171685.53,"N_COORD97":2542178.4399999999,"ADDRESS":"東成街１４２巷３９號","OBJECTID":455713},"geometry":{"x":171685.53000000119,"y":2542178.4399999995}},{"attributes":{"ID":455739,"DIS_CODE":0,"TOWNNAME":"東區","LI":"虎尾里","LIN":"32鄰","STREET":"東成街","SECT":" ","MAREA":" ","LANE":"１４２巷","ALLEY":" ","HOUSE_NO":"４３號","E_COORD97":171688.51000000001,"N_COORD97":2542164.8799999999,"ADDRESS":"東成街１４２巷４３號","OBJECTID":455714},"geometry":{"x":171688.51000000071,"y":2542164.879999999}},{"attributes":{"ID":455740,"DIS_CODE":0,"TOWNNAME":"東區","LI":"虎尾里","LIN":"32鄰","STREET":"東成街","SECT":" ","MAREA":" ","LANE":"１４２巷","ALLEY":" ","HOUSE_NO":"４５號","E_COORD97":171688.88,"N_COORD97":2542160.04,"ADDRESS":"東成街１４２巷４５號","OBJECTID":455715},"geometry":{"x":171688.87999999989,"y":2542160.0399999991}},{"attributes":{"ID":455741,"DIS_CODE":0,"TOWNNAME":"東區","LI":"虎尾里","LIN":"32鄰","STREET":"東成街","SECT":" ","MAREA":" ","LANE":"１４２巷","ALLEY":" ","HOUSE_NO":"４７號","E_COORD97":171689.44,"N_COORD97":2542155.5699999998,"ADDRESS":"東成街１４２巷４７號","OBJECTID":455716},"geometry":{"x":171689.44000000134,"y":2542155.5700000003}},{"attributes":{"ID":455742,"DIS_CODE":0,"TOWNNAME":"東區","LI":"虎尾里","LIN":"32鄰","STREET":"東成街","SECT":" ","MAREA":" ","LANE":"１４２巷","ALLEY":" ","HOUSE_NO":"４９號","E_COORD97":171689.82000000001,"N_COORD97":2542150.3599999999,"ADDRESS":"東成街１４２巷４９號","OBJECTID":455717},"geometry":{"x":171689.8200000003,"y":2542150.3600000013}},{"attributes":{"ID":455743,"DIS_CODE":0,"TOWNNAME":"安南區","LI":"安富里","LIN":"32鄰","STREET":"府安路","SECT":"五段","MAREA":" ","LANE":"１５７巷","ALLEY":" ","HOUSE_NO":"５７號","E_COORD97":167773.23999999999,"N_COORD97":2547220.6200000001,"ADDRESS":"府安路五段１５７巷５７號","OBJECTID":455718},"geometry":{"x":167773.24000000115,"y":2547220.620000001}},{"attributes":{"ID":455744,"DIS_CODE":0,"TOWNNAME":"永康區","LI":"\u25A0洲里","LIN":"32鄰","STREET":"洲尾街","SECT":" ","MAREA":" ","LANE":"７４巷","ALLEY":" ","HOUSE_NO":"６號","E_COORD97":170959.38,"N_COORD97":2548960.2599999998,"ADDRESS":"洲尾街７４巷６號","OBJECTID":455719},"geometry":{"x":170959.37999999989,"y":2548960.2600000016}},{"attributes":{"ID":455745,"DIS_CODE":0,"TOWNNAME":"永康區","LI":"\u25A0洲里","LIN":"32鄰","STREET":"洲尾街","SECT":" ","MAREA":" ","LANE":"７４巷","ALLEY":" ","HOUSE_NO":"１６號","E_COORD97":170957.28,"N_COORD97":2548997.0800000001,"ADDRESS":"洲尾街７４巷１６號","OBJECTID":455720},"geometry":{"x":170957.28000000026,"y":2548997.0800000001}},{"attributes":{"ID":455746,"DIS_CODE":0,"TOWNNAME":"仁德區","LI":"仁德里","LIN":"32鄰","STREET":"中山路","SECT":" ","MAREA":" ","LANE":"６４０巷","ALLEY":" ","HOUSE_NO":"１４號","E_COORD97":173133.07000000001,"N_COORD97":2541467.75,"ADDRESS":"中山路６４０巷１４號","OBJECTID":455721},"geometry":{"x":173133.07000000123,"y":2541467.7500000019}},{"attributes":{"ID":455747,"DIS_CODE":0,"TOWNNAME":"仁德區","LI":"仁德里","LIN":"32鄰","STREET":"中山路","SECT":" ","MAREA":" ","LANE":"６４０巷","ALLEY":" ","HOUSE_NO":"８號","E_COORD97":173131.20999999999,"N_COORD97":2541449.75,"ADDRESS":"中山路６４０巷８號","OBJECTID":455722},"geometry":{"x":173131.20999999903,"y":2541449.7500000019}},{"attributes":{"ID":455748,"DIS_CODE":0,"TOWNNAME":"仁德區","LI":"仁德里","LIN":"32鄰","STREET":"中山路","SECT":" ","MAREA":" ","LANE":"６４０巷","ALLEY":" ","HOUSE_NO":"１０號","E_COORD97":173132.56,"N_COORD97":2541456,"ADDRESS":"中山路６４０巷１０號","OBJECTID":455723},"geometry":{"x":173132.56000000052,"y":2541456.0000000019}},{"attributes":{"ID":455749,"DIS_CODE":0,"TOWNNAME":"東區","LI":"東明里","LIN":"32鄰","STREET":"東寧路","SECT":" ","MAREA":" ","LANE":"２０１巷","ALLEY":" ","HOUSE_NO":"１０１號","E_COORD97":170642.66,"N_COORD97":2543732.8500000001,"ADDRESS":"東寧路２０１巷１０１號","OBJECTID":455724},"geometry":{"x":170642.66000000015,"y":2543732.8499999996}},{"attributes":{"ID":455750,"DIS_CODE":0,"TOWNNAME":"東區","LI":"東明里","LIN":"32鄰","STREET":"東寧路","SECT":" ","MAREA":" ","LANE":"２０１巷","ALLEY":" ","HOUSE_NO":"１０３號","E_COORD97":170643.84,"N_COORD97":2543735.9100000001,"ADDRESS":"東寧路２０１巷１０３號","OBJECTID":455725},"geometry":{"x":170643.84000000078,"y":2543735.9100000001}},{"attributes":{"ID":455751,"DIS_CODE":0,"TOWNNAME":"東區","LI":"東明里","LIN":"32鄰","STREET":"東寧路","SECT":" ","MAREA":" ","LANE":"２０１巷","ALLEY":" ","HOUSE_NO":"１０５號","E_COORD97":170644.54999999999,"N_COORD97":2543741.1000000001,"ADDRESS":"東寧路２０１巷１０５號","OBJECTID":455726},"geometry":{"x":170644.54999999981,"y":2543741.0999999996}},{"attributes":{"ID":455752,"DIS_CODE":0,"TOWNNAME":"東區","LI":"東明里","LIN":"32鄰","STREET":"東寧路","SECT":" ","MAREA":" ","LANE":"２０１巷","ALLEY":" ","HOUSE_NO":"１０７號","E_COORD97":170646.20000000001,"N_COORD97":2543745.3399999999,"ADDRESS":"東寧路２０１巷１０７號","OBJECTID":455727},"geometry":{"x":170646.20000000019,"y":2543745.3400000017}},{"attributes":{"ID":455753,"DIS_CODE":0,"TOWNNAME":"佳里區","LI":"安西里","LIN":"32鄰","STREET":"安西路","SECT":" ","MAREA":" ","LANE":"２７７巷","ALLEY":" ","HOUSE_NO":"２號","E_COORD97":165128.54999999999,"N_COORD97":2562896.9900000002,"ADDRESS":"安西路２７７巷２號","OBJECTID":455728},"geometry":{"x":165128.54999999981,"y":2562896.9900000021}},{"attributes":{"ID":455754,"DIS_CODE":0,"TOWNNAME":"東區","LI":"東明里","LIN":"32鄰","STREET":"東寧路","SECT":" ","MAREA":" ","LANE":"２０１巷","ALLEY":" ","HOUSE_NO":"１０９號","E_COORD97":170646.20000000001,"N_COORD97":2543750.5299999998,"ADDRESS":"東寧路２０１巷１０９號","OBJECTID":455729},"geometry":{"x":170646.20000000019,"y":2543750.5299999993}},{"attributes":{"ID":455755,"DIS_CODE":0,"TOWNNAME":"東區","LI":"東明里","LIN":"32鄰","STREET":"東寧路","SECT":" ","MAREA":" ","LANE":"２０１巷","ALLEY":" ","HOUSE_NO":"１１１號","E_COORD97":170646.91,"N_COORD97":2543753.3599999999,"ADDRESS":"東寧路２０１巷１１１號","OBJECTID":455730},"geometry":{"x":170646.91000000108,"y":2543753.3600000031}},{"attributes":{"ID":455756,"DIS_CODE":0,"TOWNNAME":"東區","LI":"東明里","LIN":"32鄰","STREET":"東寧路","SECT":" ","MAREA":" ","LANE":"２０１巷","ALLEY":" ","HOUSE_NO":"１１３號","E_COORD97":170648.09,"N_COORD97":2543758.7799999998,"ADDRESS":"東寧路２０１巷１１３號","OBJECTID":455731},"geometry":{"x":170648.08999999985,"y":2543758.7800000012}},{"attributes":{"ID":455757,"DIS_CODE":0,"TOWNNAME":"東區","LI":"東明里","LIN":"32鄰","STREET":"東寧路","SECT":" ","MAREA":" ","LANE":"２０１巷","ALLEY":" ","HOUSE_NO":"１１５號","E_COORD97":170648.56,"N_COORD97":2543763.5,"ADDRESS":"東寧路２０１巷１１５號","OBJECTID":455732},"geometry":{"x":170648.56000000145,"y":2543763.5000000019}},{"attributes":{"ID":455758,"DIS_CODE":0,"TOWNNAME":"東區","LI":"東明里","LIN":"32鄰","STREET":"東寧路","SECT":" ","MAREA":" ","LANE":"２０１巷","ALLEY":" ","HOUSE_NO":"１１７號","E_COORD97":170650.92000000001,"N_COORD97":2543767.5099999998,"ADDRESS":"東寧路２０１巷１１７號","OBJECTID":455733},"geometry":{"x":170650.91999999993,"y":2543767.5100000016}},{"attributes":{"ID":455759,"DIS_CODE":0,"TOWNNAME":"東區","LI":"東明里","LIN":"32鄰","STREET":"東寧路","SECT":" ","MAREA":" ","LANE":"２０１巷","ALLEY":" ","HOUSE_NO":"１１９號","E_COORD97":170650.20999999999,"N_COORD97":2543771.75,"ADDRESS":"東寧路２０１巷１１９號","OBJECTID":455734},"geometry":{"x":170650.21000000089,"y":2543771.7500000037}},{"attributes":{"ID":455760,"DIS_CODE":0,"TOWNNAME":"東區","LI":"東明里","LIN":"32鄰","STREET":"東寧路","SECT":" ","MAREA":" ","LANE":"２０１巷","ALLEY":" ","HOUSE_NO":"１２１號","E_COORD97":170650.45000000001,"N_COORD97":2543776.4700000002,"ADDRESS":"東寧路２０１巷１２１號","OBJECTID":455735},"geometry":{"x":170650.45000000112,"y":2543776.4700000007}},{"attributes":{"ID":455761,"DIS_CODE":0,"TOWNNAME":"東區","LI":"東明里","LIN":"32鄰","STREET":"東寧路","SECT":" ","MAREA":" ","LANE":"２０１巷","ALLEY":" ","HOUSE_NO":"５１號","E_COORD97":170616.92999999999,"N_COORD97":2543626.25,"ADDRESS":"東寧路２０１巷５１號","OBJECTID":455736},"geometry":{"x":170616.9299999997,"y":2543626.2500000019}},{"attributes":{"ID":455762,"DIS_CODE":0,"TOWNNAME":"東區","LI":"東明里","LIN":"32鄰","STREET":"東寧路","SECT":" ","MAREA":" ","LANE":"２０１巷","ALLEY":" ","HOUSE_NO":"５３號","E_COORD97":170618.10999999999,"N_COORD97":2543630.2599999998,"ADDRESS":"東寧路２０１巷５３號","OBJECTID":455737},"geometry":{"x":170618.11000000034,"y":2543630.2600000016}},{"attributes":{"ID":455763,"DIS_CODE":0,"TOWNNAME":"東區","LI":"東明里","LIN":"32鄰","STREET":"東寧路","SECT":" ","MAREA":" ","LANE":"２０１巷","ALLEY":" ","HOUSE_NO":"５５號","E_COORD97":170620.47,"N_COORD97":2543634.9700000002,"ADDRESS":"東寧路２０１巷５５號","OBJECTID":455738},"geometry":{"x":170620.4700000016,"y":2543634.9700000007}},{"attributes":{"ID":455764,"DIS_CODE":0,"TOWNNAME":"東區","LI":"東明里","LIN":"32鄰","STREET":"東寧路","SECT":" ","MAREA":" ","LANE":"２０１巷","ALLEY":" ","HOUSE_NO":"５７號","E_COORD97":170621.64999999999,"N_COORD97":2543638.7400000002,"ADDRESS":"東寧路２０１巷５７號","OBJECTID":455739},"geometry":{"x":170621.65000000224,"y":2543638.7400000002}},{"attributes":{"ID":455765,"DIS_CODE":0,"TOWNNAME":"東區","LI":"東明里","LIN":"32鄰","STREET":"東寧路","SECT":" ","MAREA":" ","LANE":"２０１巷","ALLEY":" ","HOUSE_NO":"５９號","E_COORD97":170622.12,"N_COORD97":2543643.2200000002,"ADDRESS":"東寧路２０１巷５９號","OBJECTID":455740},"geometry":{"x":170622.12000000104,"y":2543643.2200000007}},{"attributes":{"ID":455766,"DIS_CODE":0,"TOWNNAME":"東區","LI":"東明里","LIN":"32鄰","STREET":"東寧路","SECT":" ","MAREA":" ","LANE":"２０１巷","ALLEY":" ","HOUSE_NO":"６１號","E_COORD97":170623.29999999999,"N_COORD97":2543647.4700000002,"ADDRESS":"東寧路２０１巷６１號","OBJECTID":455741},"geometry":{"x":170623.30000000168,"y":2543647.4700000007}},{"attributes":{"ID":455767,"DIS_CODE":0,"TOWNNAME":"東區","LI":"東明里","LIN":"32鄰","STREET":"東寧路","SECT":" ","MAREA":" ","LANE":"２０１巷","ALLEY":" ","HOUSE_NO":"６３號","E_COORD97":170624.72,"N_COORD97":2543650.5299999998,"ADDRESS":"東寧路２０１巷６３號","OBJECTID":455742},"geometry":{"x":170624.71999999974,"y":2543650.5300000031}},{"attributes":{"ID":455768,"DIS_CODE":0,"TOWNNAME":"東區","LI":"東明里","LIN":"32鄰","STREET":"東寧路","SECT":" ","MAREA":" ","LANE":"２０１巷","ALLEY":" ","HOUSE_NO":"６５號","E_COORD97":170625.19,"N_COORD97":2543654.54,"ADDRESS":"東寧路２０１巷６５號","OBJECTID":455743},"geometry":{"x":170625.19000000134,"y":2543654.540000001}},{"attributes":{"ID":455769,"DIS_CODE":0,"TOWNNAME":"東區","LI":"東明里","LIN":"32鄰","STREET":"東寧路","SECT":" ","MAREA":" ","LANE":"２０１巷","ALLEY":" ","HOUSE_NO":"６７號","E_COORD97":170626.37,"N_COORD97":2543658.79,"ADDRESS":"東寧路２０１巷６７號","OBJECTID":455744},"geometry":{"x":170626.37000000011,"y":2543658.7900000028}},{"attributes":{"ID":455770,"DIS_CODE":0,"TOWNNAME":"東區","LI":"東明里","LIN":"32鄰","STREET":"東寧路","SECT":" ","MAREA":" ","LANE":"２０１巷","ALLEY":" ","HOUSE_NO":"６９號","E_COORD97":170626.37,"N_COORD97":2543663.98,"ADDRESS":"東寧路２０１巷６９號","OBJECTID":455745},"geometry":{"x":170626.37000000011,"y":2543663.9800000004}},{"attributes":{"ID":455771,"DIS_CODE":0,"TOWNNAME":"東區","LI":"東明里","LIN":"32鄰","STREET":"東寧路","SECT":" ","MAREA":" ","LANE":"２０１巷","ALLEY":" ","HOUSE_NO":"７１號","E_COORD97":170628.03,"N_COORD97":2543669.1600000001,"ADDRESS":"東寧路２０１巷７１號","OBJECTID":455746},"geometry":{"x":170628.03000000119,"y":2543669.1600000001}},{"attributes":{"ID":455772,"DIS_CODE":0,"TOWNNAME":"東區","LI":"東明里","LIN":"32鄰","STREET":"東寧路","SECT":" ","MAREA":" ","LANE":"２０１巷","ALLEY":" ","HOUSE_NO":"７３號","E_COORD97":170629.44,"N_COORD97":2543672.23,"ADDRESS":"東寧路２０１巷７３號","OBJECTID":455747},"geometry":{"x":170629.44000000041,"y":2543672.2300000023}},{"attributes":{"ID":455773,"DIS_CODE":0,"TOWNNAME":"東區","LI":"東明里","LIN":"32鄰","STREET":"東寧路","SECT":" ","MAREA":" ","LANE":"２０１巷","ALLEY":" ","HOUSE_NO":"７５號","E_COORD97":170630.62,"N_COORD97":2543676.4700000002,"ADDRESS":"東寧路２０１巷７５號","OBJECTID":455748},"geometry":{"x":170630.62000000104,"y":2543676.4700000025}},{"attributes":{"ID":455774,"DIS_CODE":0,"TOWNNAME":"東區","LI":"東明里","LIN":"32鄰","STREET":"東寧路","SECT":" ","MAREA":" ","LANE":"２０１巷","ALLEY":" ","HOUSE_NO":"７７號","E_COORD97":170631.57000000001,"N_COORD97":2543680.48,"ADDRESS":"東寧路２０１巷７７號","OBJECTID":455749},"geometry":{"x":170631.5700000003,"y":2543680.4800000023}},{"attributes":{"ID":455775,"DIS_CODE":0,"TOWNNAME":"東區","LI":"東明里","LIN":"32鄰","STREET":"東寧路","SECT":" ","MAREA":" ","LANE":"２０１巷","ALLEY":" ","HOUSE_NO":"７９號","E_COORD97":170633.45000000001,"N_COORD97":2543685.2000000002,"ADDRESS":"東寧路２０１巷７９號","OBJECTID":455750},"geometry":{"x":170633.45000000112,"y":2543685.1999999993}},{"attributes":{"ID":455776,"DIS_CODE":0,"TOWNNAME":"東區","LI":"東明里","LIN":"32鄰","STREET":"東寧路","SECT":" ","MAREA":" ","LANE":"２０１巷","ALLEY":" ","HOUSE_NO":"８１號","E_COORD97":170633.92999999999,"N_COORD97":2543689.9100000001,"ADDRESS":"東寧路２０１巷８１號","OBJECTID":455751},"geometry":{"x":170633.9299999997,"y":2543689.910000002}},{"attributes":{"ID":455777,"DIS_CODE":0,"TOWNNAME":"東區","LI":"東明里","LIN":"32鄰","STREET":"東寧路","SECT":" ","MAREA":" ","LANE":"２０１巷","ALLEY":" ","HOUSE_NO":"８３號","E_COORD97":170634.63,"N_COORD97":2543692.7400000002,"ADDRESS":"東寧路２０１巷８３號","OBJECTID":455752},"geometry":{"x":170634.62999999896,"y":2543692.7400000002}},{"attributes":{"ID":455778,"DIS_CODE":0,"TOWNNAME":"東區","LI":"東明里","LIN":"32鄰","STREET":"東寧路","SECT":" ","MAREA":" ","LANE":"２０１巷","ALLEY":" ","HOUSE_NO":"８５號","E_COORD97":170635.81,"N_COORD97":2543698.1699999999,"ADDRESS":"東寧路２０１巷８５號","OBJECTID":455753},"geometry":{"x":170635.80999999959,"y":2543698.1700000018}},{"attributes":{"ID":455779,"DIS_CODE":0,"TOWNNAME":"東區","LI":"東明里","LIN":"32鄰","STREET":"東寧路","SECT":" ","MAREA":" ","LANE":"２０１巷","ALLEY":" ","HOUSE_NO":"８７號","E_COORD97":170637.47,"N_COORD97":2543702.4100000001,"ADDRESS":"東寧路２０１巷８７號","OBJECTID":455754},"geometry":{"x":170637.4700000016,"y":2543702.4100000001}},{"attributes":{"ID":455780,"DIS_CODE":0,"TOWNNAME":"東區","LI":"東明里","LIN":"32鄰","STREET":"東寧路","SECT":" ","MAREA":" ","LANE":"２０１巷","ALLEY":" ","HOUSE_NO":"８９號","E_COORD97":170636.98999999999,"N_COORD97":2543707.1299999999,"ADDRESS":"東寧路２０１巷８９號","OBJECTID":455755},"geometry":{"x":170636.99000000022,"y":2543707.1300000027}},{"attributes":{"ID":455781,"DIS_CODE":0,"TOWNNAME":"東區","LI":"東明里","LIN":"32鄰","STREET":"東寧路","SECT":" ","MAREA":" ","LANE":"２０１巷","ALLEY":" ","HOUSE_NO":"９１號","E_COORD97":170638.88,"N_COORD97":2543710.6600000001,"ADDRESS":"東寧路２０１巷９１號","OBJECTID":455756},"geometry":{"x":170638.88000000082,"y":2543710.6600000001}},{"attributes":{"ID":455782,"DIS_CODE":0,"TOWNNAME":"東區","LI":"東明里","LIN":"32鄰","STREET":"東寧路","SECT":" ","MAREA":" ","LANE":"２０１巷","ALLEY":" ","HOUSE_NO":"９３號","E_COORD97":170638.64999999999,"N_COORD97":2543715.8700000001,"ADDRESS":"東寧路２０１巷９３號","OBJECTID":455757},"geometry":{"x":170638.6500000013,"y":2543715.8700000029}},{"attributes":{"ID":455783,"DIS_CODE":0,"TOWNNAME":"東區","LI":"東明里","LIN":"32鄰","STREET":"東寧路","SECT":" ","MAREA":" ","LANE":"２０１巷","ALLEY":" ","HOUSE_NO":"９７號","E_COORD97":170641.01000000001,"N_COORD97":2543723.4100000001,"ADDRESS":"東寧路２０１巷９７號","OBJECTID":455758},"geometry":{"x":170641.01000000071,"y":2543723.4100000039}},{"attributes":{"ID":455784,"DIS_CODE":0,"TOWNNAME":"東區","LI":"東明里","LIN":"32鄰","STREET":"東寧路","SECT":" ","MAREA":" ","LANE":"２０１巷","ALLEY":" ","HOUSE_NO":"９９號","E_COORD97":170642.19,"N_COORD97":2543728.6000000001,"ADDRESS":"東寧路２０１巷９９號","OBJECTID":455759},"geometry":{"x":170642.19000000134,"y":2543728.6000000015}},{"attributes":{"ID":455785,"DIS_CODE":0,"TOWNNAME":"永康區","LI":"復華里","LIN":"32鄰","STREET":"復華十街","SECT":" ","MAREA":" ","LANE":"４５巷","ALLEY":" ","HOUSE_NO":"１３號","E_COORD97":172594.39999999999,"N_COORD97":2546372.3300000001,"ADDRESS":"復華十街４５巷１３號","OBJECTID":455760},"geometry":{"x":172594.40000000037,"y":2546372.3300000019}},{"attributes":{"ID":455786,"DIS_CODE":0,"TOWNNAME":"永康區","LI":"復華里","LIN":"32鄰","STREET":"復華十街","SECT":" ","MAREA":" ","LANE":"３９巷","ALLEY":" ","HOUSE_NO":"１１號","E_COORD97":172604.32000000001,"N_COORD97":2546351.2799999998,"ADDRESS":"復華十街３９巷１１號","OBJECTID":455761},"geometry":{"x":172604.32000000123,"y":2546351.2800000012}},{"attributes":{"ID":455787,"DIS_CODE":0,"TOWNNAME":"永康區","LI":"復華里","LIN":"32鄰","STREET":"復華十街","SECT":" ","MAREA":" ","LANE":"３９巷","ALLEY":" ","HOUSE_NO":"１號","E_COORD97":172625.37,"N_COORD97":2546351.2799999998,"ADDRESS":"復華十街３９巷１號","OBJECTID":455762},"geometry":{"x":172625.37000000104,"y":2546351.2800000012}},{"attributes":{"ID":455788,"DIS_CODE":0,"TOWNNAME":"永康區","LI":"復華里","LIN":"32鄰","STREET":"國華街","SECT":" ","MAREA":" ","LANE":"１２５巷","ALLEY":" ","HOUSE_NO":"１４號","E_COORD97":172560.47,"N_COORD97":2546275.2400000002,"ADDRESS":"國華街１２５巷１４號","OBJECTID":455763},"geometry":{"x":172560.47000000067,"y":2546275.2400000021}},{"attributes":{"ID":455789,"DIS_CODE":0,"TOWNNAME":"永康區","LI":"復華里","LIN":"32鄰","STREET":"國華街","SECT":" ","MAREA":" ","LANE":"１２５巷","ALLEY":" ","HOUSE_NO":"１號","E_COORD97":172585.06,"N_COORD97":2546287.9900000002,"ADDRESS":"國華街１２５巷１號","OBJECTID":455764},"geometry":{"x":172585.06000000052,"y":2546287.9900000002}},{"attributes":{"ID":455790,"DIS_CODE":0,"TOWNNAME":"東區","LI":"泉南里","LIN":"32鄰","STREET":"府連路","SECT":" ","MAREA":" ","LANE":"３２６巷","ALLEY":" ","HOUSE_NO":"１６號","E_COORD97":169559.89999999999,"N_COORD97":2542761.8100000001,"ADDRESS":"府連路３２６巷１６號","OBJECTID":455765},"geometry":{"x":169559.90000000037,"y":2542761.8100000024}},{"attributes":{"ID":455791,"DIS_CODE":0,"TOWNNAME":"東區","LI":"泉南里","LIN":"32鄰","STREET":"府連路","SECT":" ","MAREA":" ","LANE":"３２６巷","ALLEY":" ","HOUSE_NO":"１８號","E_COORD97":169559.45999999999,"N_COORD97":2542754.77,"ADDRESS":"府連路３２６巷１８號","OBJECTID":455766},"geometry":{"x":169559.46000000183,"y":2542754.7700000014}},{"attributes":{"ID":455792,"DIS_CODE":0,"TOWNNAME":"東區","LI":"泉南里","LIN":"32鄰","STREET":"府連路","SECT":" ","MAREA":" ","LANE":"３２６巷","ALLEY":" ","HOUSE_NO":"２０號","E_COORD97":169558.79999999999,"N_COORD97":2542749.2799999998,"ADDRESS":"府連路３２６巷２０號","OBJECTID":455767},"geometry":{"x":169558.80000000168,"y":2542749.2799999993}},{"attributes":{"ID":455793,"DIS_CODE":0,"TOWNNAME":"善化區","LI":"北關里","LIN":"8鄰","STREET":"進學路","SECT":" ","MAREA":" ","LANE":"５８巷","ALLEY":" ","HOUSE_NO":"７號","E_COORD97":177286.66,"N_COORD97":2559308.75,"ADDRESS":"進學路５８巷７號","OBJECTID":455768},"geometry":{"x":177286.66000000201,"y":2559308.75}},{"attributes":{"ID":455794,"DIS_CODE":0,"TOWNNAME":"東區","LI":"泉南里","LIN":"32鄰","STREET":"府連路","SECT":" ","MAREA":" ","LANE":"３２６巷","ALLEY":" ","HOUSE_NO":"２２號","E_COORD97":169558.79999999999,"N_COORD97":2542744.4399999999,"ADDRESS":"府連路３２６巷２２號","OBJECTID":455769},"geometry":{"x":169558.80000000168,"y":2542744.4399999995}},{"attributes":{"ID":455795,"DIS_CODE":0,"TOWNNAME":"東區","LI":"泉南里","LIN":"32鄰","STREET":"府連路","SECT":" ","MAREA":" ","LANE":"３２６巷","ALLEY":" ","HOUSE_NO":"２４號","E_COORD97":169558.14000000001,"N_COORD97":2542739.3799999999,"ADDRESS":"府連路３２６巷２４號","OBJECTID":455770},"geometry":{"x":169558.1400000006,"y":2542739.3800000008}},{"attributes":{"ID":455796,"DIS_CODE":0,"TOWNNAME":"東區","LI":"泉南里","LIN":"32鄰","STREET":"府連路","SECT":" ","MAREA":" ","LANE":"３２６巷","ALLEY":" ","HOUSE_NO":"２６號","E_COORD97":169558.35999999999,"N_COORD97":2542732.3500000001,"ADDRESS":"府連路３２６巷２６號","OBJECTID":455771},"geometry":{"x":169558.36000000034,"y":2542732.3499999996}},{"attributes":{"ID":455797,"DIS_CODE":0,"TOWNNAME":"東區","LI":"泉南里","LIN":"32鄰","STREET":"府連路","SECT":" ","MAREA":" ","LANE":"３２６巷","ALLEY":" ","HOUSE_NO":"２８號","E_COORD97":169557.70000000001,"N_COORD97":2542728.3900000001,"ADDRESS":"府連路３２６巷２８號","OBJECTID":455772},"geometry":{"x":169557.70000000019,"y":2542728.3900000025}},{"attributes":{"ID":455798,"DIS_CODE":0,"TOWNNAME":"東區","LI":"泉南里","LIN":"32鄰","STREET":"府連路","SECT":" ","MAREA":" ","LANE":"３２６巷","ALLEY":" ","HOUSE_NO":"３８號","E_COORD97":169549.34,"N_COORD97":2542699.3700000001,"ADDRESS":"府連路３２６巷３８號","OBJECTID":455773},"geometry":{"x":169549.33999999985,"y":2542699.370000001}},{"attributes":{"ID":455799,"DIS_CODE":0,"TOWNNAME":"東區","LI":"泉南里","LIN":"32鄰","STREET":"府連路","SECT":" ","MAREA":" ","LANE":"３２６巷","ALLEY":" ","HOUSE_NO":"４０號","E_COORD97":169548.45999999999,"N_COORD97":2542694.3100000001,"ADDRESS":"府連路３２６巷４０號","OBJECTID":455774},"geometry":{"x":169548.46000000089,"y":2542694.3100000024}},{"attributes":{"ID":455800,"DIS_CODE":0,"TOWNNAME":"仁德區","LI":"成功里","LIN":"32鄰","STREET":"成功一街","SECT":" ","MAREA":" ","LANE":"２９巷","ALLEY":" ","HOUSE_NO":"２號","E_COORD97":170550.23000000001,"N_COORD97":2540137.02,"ADDRESS":"成功一街２９巷２號","OBJECTID":455775},"geometry":{"x":170550.23000000138,"y":2540137.0199999996}},{"attributes":{"ID":455801,"DIS_CODE":0,"TOWNNAME":"仁德區","LI":"後壁里","LIN":"32鄰","STREET":"德洋路","SECT":" ","MAREA":" ","LANE":"２２７巷","ALLEY":" ","HOUSE_NO":"２０號","E_COORD97":172486.29000000001,"N_COORD97":2539561.5099999998,"ADDRESS":"德洋路２２７巷２０號","OBJECTID":455776},"geometry":{"x":172486.29000000004,"y":2539561.5099999998}},{"attributes":{"ID":455802,"DIS_CODE":0,"TOWNNAME":"仁德區","LI":"成功里","LIN":"32鄰","STREET":"成功一街","SECT":" ","MAREA":" ","LANE":"２９巷","ALLEY":" ","HOUSE_NO":"５號","E_COORD97":170563.57999999999,"N_COORD97":2540148.2599999998,"ADDRESS":"成功一街２９巷５號","OBJECTID":455777},"geometry":{"x":170563.58000000007,"y":2540148.2600000016}},{"attributes":{"ID":455803,"DIS_CODE":0,"TOWNNAME":"仁德區","LI":"後壁里","LIN":"32鄰","STREET":"德洋路","SECT":" ","MAREA":" ","LANE":"２２７巷","ALLEY":" ","HOUSE_NO":"６號","E_COORD97":172513.85000000001,"N_COORD97":2539549.0099999998,"ADDRESS":"德洋路２２７巷６號","OBJECTID":455778},"geometry":{"x":172513.84999999963,"y":2539549.0100000016}},{"attributes":{"ID":455804,"DIS_CODE":0,"TOWNNAME":"仁德區","LI":"後壁里","LIN":"32鄰","STREET":"德洋路","SECT":" ","MAREA":" ","LANE":"２２７巷","ALLEY":" ","HOUSE_NO":"３號","E_COORD97":172477.76999999999,"N_COORD97":2539546.7599999998,"ADDRESS":"德洋路２２７巷３號","OBJECTID":455779},"geometry":{"x":172477.77000000142,"y":2539546.7599999979}},{"attributes":{"ID":455805,"DIS_CODE":0,"TOWNNAME":"新市區","LI":"新和里","LIN":"32鄰","STREET":"華興街","SECT":" ","MAREA":" ","LANE":"１５巷","ALLEY":" ","HOUSE_NO":"２號之１","E_COORD97":177795.39999999999,"N_COORD97":2552945.0499999998,"ADDRESS":"華興街１５巷２號之１","OBJECTID":455780},"geometry":{"x":177795.40000000037,"y":2552945.0500000045}},{"attributes":{"ID":455806,"DIS_CODE":0,"TOWNNAME":"新市區","LI":"新和里","LIN":"32鄰","STREET":"華興街","SECT":" ","MAREA":" ","LANE":"１５巷","ALLEY":" ","HOUSE_NO":"３號","E_COORD97":177800.76000000001,"N_COORD97":2552950.5,"ADDRESS":"華興街１５巷３號","OBJECTID":455781},"geometry":{"x":177800.75999999978,"y":2552950.5}},{"attributes":{"ID":455807,"DIS_CODE":0,"TOWNNAME":"新市區","LI":"新和里","LIN":"32鄰","STREET":"華興街","SECT":" ","MAREA":" ","LANE":"１５巷","ALLEY":" ","HOUSE_NO":"２之３號","E_COORD97":177793.79000000001,"N_COORD97":2552935.25,"ADDRESS":"華興街１５巷２之３號","OBJECTID":455782},"geometry":{"x":177793.79000000004,"y":2552935.25}},{"attributes":{"ID":455808,"DIS_CODE":0,"TOWNNAME":"東區","LI":"大智里","LIN":"32鄰","STREET":"德東街","SECT":" ","MAREA":" ","LANE":"２３５巷","ALLEY":" ","HOUSE_NO":"２１號","E_COORD97":171385.82999999999,"N_COORD97":2540315,"ADDRESS":"德東街２３５巷２１號","OBJECTID":455783},"geometry":{"x":171385.83000000007,"y":2540314.9999999981}},{"attributes":{"ID":455809,"DIS_CODE":0,"TOWNNAME":"東區","LI":"大智里","LIN":"32鄰","STREET":"德東街","SECT":" ","MAREA":" ","LANE":"２３５巷","ALLEY":" ","HOUSE_NO":"２５號","E_COORD97":171369.22,"N_COORD97":2540316.1200000001,"ADDRESS":"德東街２３５巷２５號","OBJECTID":455784},"geometry":{"x":171369.21999999974,"y":2540316.1200000029}},{"attributes":{"ID":455810,"DIS_CODE":0,"TOWNNAME":"東區","LI":"大智里","LIN":"32鄰","STREET":"德東街","SECT":" ","MAREA":" ","LANE":"２３５巷","ALLEY":" ","HOUSE_NO":"２７號","E_COORD97":171358.89000000001,"N_COORD97":2540316.6800000002,"ADDRESS":"德東街２３５巷２７號","OBJECTID":455785},"geometry":{"x":171358.8900000006,"y":2540316.6799999997}},{"attributes":{"ID":455811,"DIS_CODE":0,"TOWNNAME":"東區","LI":"大智里","LIN":"32鄰","STREET":"德東街","SECT":" ","MAREA":" ","LANE":"２３５巷","ALLEY":" ","HOUSE_NO":"２９號","E_COORD97":171351.03,"N_COORD97":2540316.5699999998,"ADDRESS":"德東街２３５巷２９號","OBJECTID":455786},"geometry":{"x":171351.03000000026,"y":2540316.5700000022}},{"attributes":{"ID":455812,"DIS_CODE":0,"TOWNNAME":"東區","LI":"大智里","LIN":"32鄰","STREET":"德東街","SECT":" ","MAREA":" ","LANE":"２３５巷","ALLEY":" ","HOUSE_NO":"３１號","E_COORD97":171351.25,"N_COORD97":2540327.5600000001,"ADDRESS":"德東街２３５巷３１號","OBJECTID":455787},"geometry":{"x":171351.25000000093,"y":2540327.5600000005}},{"attributes":{"ID":455813,"DIS_CODE":0,"TOWNNAME":"東區","LI":"大智里","LIN":"32鄰","STREET":"德東街","SECT":" ","MAREA":" ","LANE":"２３５巷","ALLEY":" ","HOUSE_NO":"３３號","E_COORD97":171351.59,"N_COORD97":2540338.5600000001,"ADDRESS":"德東街２３５巷３３號","OBJECTID":455788},"geometry":{"x":171351.58999999985,"y":2540338.5600000005}},{"attributes":{"ID":455814,"DIS_CODE":0,"TOWNNAME":"東區","LI":"大智里","LIN":"32鄰","STREET":"德東街","SECT":" ","MAREA":" ","LANE":"２３５巷","ALLEY":" ","HOUSE_NO":"３５號","E_COORD97":171351.59,"N_COORD97":2540348.54,"ADDRESS":"德東街２３５巷３５號","OBJECTID":455789},"geometry":{"x":171351.58999999985,"y":2540348.540000001}},{"attributes":{"ID":455815,"DIS_CODE":0,"TOWNNAME":"東區","LI":"大智里","LIN":"32鄰","STREET":"德東街","SECT":" ","MAREA":" ","LANE":"２３５巷","ALLEY":" ","HOUSE_NO":"３７號","E_COORD97":171358.54999999999,"N_COORD97":2540348.6499999999,"ADDRESS":"德東街２３５巷３７號","OBJECTID":455790},"geometry":{"x":171358.54999999981,"y":2540348.6500000041}},{"attributes":{"ID":455816,"DIS_CODE":0,"TOWNNAME":"東區","LI":"大智里","LIN":"32鄰","STREET":"德東街","SECT":" ","MAREA":" ","LANE":"２３５巷","ALLEY":" ","HOUSE_NO":"３９號","E_COORD97":171371.23999999999,"N_COORD97":2540349.21,"ADDRESS":"德東街２３５巷３９號","OBJECTID":455791},"geometry":{"x":171371.24000000022,"y":2540349.2100000028}},{"attributes":{"ID":455817,"DIS_CODE":0,"TOWNNAME":"東區","LI":"大智里","LIN":"32鄰","STREET":"德東街","SECT":" ","MAREA":" ","LANE":"２３５巷","ALLEY":" ","HOUSE_NO":"４１號","E_COORD97":171376.17999999999,"N_COORD97":2540349.21,"ADDRESS":"德東街２３５巷４１號","OBJECTID":455792},"geometry":{"x":171376.1799999997,"y":2540349.2100000028}},{"attributes":{"ID":455818,"DIS_CODE":0,"TOWNNAME":"東區","LI":"大智里","LIN":"32鄰","STREET":"德東街","SECT":" ","MAREA":" ","LANE":"２３５巷","ALLEY":" ","HOUSE_NO":"４３號","E_COORD97":171381.23000000001,"N_COORD97":2540349.1000000001,"ADDRESS":"德東街２３５巷４３號","OBJECTID":455793},"geometry":{"x":171381.23000000138,"y":2540349.1000000015}},{"attributes":{"ID":455819,"DIS_CODE":0,"TOWNNAME":"東區","LI":"大智里","LIN":"32鄰","STREET":"德東街","SECT":" ","MAREA":" ","LANE":"２３５巷","ALLEY":" ","HOUSE_NO":"４５號","E_COORD97":171386.84,"N_COORD97":2540344.9500000002,"ADDRESS":"德東街２３５巷４５號","OBJECTID":455794},"geometry":{"x":171386.83999999985,"y":2540344.9499999993}},{"attributes":{"ID":455820,"DIS_CODE":0,"TOWNNAME":"中西區","LI":"西賢里","LIN":"32鄰","STREET":"西賢六街","SECT":" ","MAREA":" ","LANE":"１３巷","ALLEY":" ","HOUSE_NO":"２８號","E_COORD97":165014.63,"N_COORD97":2544678.1800000002,"ADDRESS":"西賢六街１３巷２８號","OBJECTID":455795},"geometry":{"x":165014.62999999989,"y":2544678.1800000016}},{"attributes":{"ID":455821,"DIS_CODE":0,"TOWNNAME":"中西區","LI":"西賢里","LIN":"32鄰","STREET":"西賢六街","SECT":" ","MAREA":" ","LANE":"１３巷","ALLEY":" ","HOUSE_NO":"２９號","E_COORD97":164994.79000000001,"N_COORD97":2544682.2400000002,"ADDRESS":"西賢六街１３巷２９號","OBJECTID":455796},"geometry":{"x":164994.79000000004,"y":2544682.2400000021}},{"attributes":{"ID":455822,"DIS_CODE":0,"TOWNNAME":"中西區","LI":"西賢里","LIN":"32鄰","STREET":"西賢六街","SECT":" ","MAREA":" ","LANE":"１３巷","ALLEY":" ","HOUSE_NO":"３０號","E_COORD97":165015.44,"N_COORD97":2544683.2200000002,"ADDRESS":"西賢六街１３巷３０號","OBJECTID":455797},"geometry":{"x":165015.44000000227,"y":2544683.2200000007}},{"attributes":{"ID":455823,"DIS_CODE":0,"TOWNNAME":"中西區","LI":"西賢里","LIN":"32鄰","STREET":"西賢六街","SECT":" ","MAREA":" ","LANE":"１３巷","ALLEY":" ","HOUSE_NO":"３１號","E_COORD97":164996.09,"N_COORD97":2544687.6000000001,"ADDRESS":"西賢六街１３巷３１號","OBJECTID":455798},"geometry":{"x":164996.08999999985,"y":2544687.6000000034}},{"attributes":{"ID":455824,"DIS_CODE":0,"TOWNNAME":"中西區","LI":"西賢里","LIN":"32鄰","STREET":"西賢六街","SECT":" ","MAREA":" ","LANE":"１３巷","ALLEY":" ","HOUSE_NO":"３２號","E_COORD97":165028.53,"N_COORD97":2544677.4100000001,"ADDRESS":"西賢六街１３巷３２號","OBJECTID":455799},"geometry":{"x":165028.53000000119,"y":2544677.410000002}},{"attributes":{"ID":455825,"DIS_CODE":0,"TOWNNAME":"中西區","LI":"西賢里","LIN":"32鄰","STREET":"西賢六街","SECT":" ","MAREA":" ","LANE":"１３巷","ALLEY":" ","HOUSE_NO":"３３號","E_COORD97":164997.23000000001,"N_COORD97":2544692.4700000002,"ADDRESS":"西賢六街１３巷３３號","OBJECTID":455800},"geometry":{"x":164997.23000000138,"y":2544692.4700000007}}]}