{"displayFieldName":"TOWNNAME","fieldAliases":{"ID":"ID","DIS_CODE":"DIS_CODE","TOWNNAME":"TOWNNAME","LI":"LI","LIN":"LIN","STREET":"STREET","SECT":"SECT","MAREA":"MAREA","LANE":"LANE","ALLEY":"ALLEY","HOUSE_NO":"HOUSE_NO","E_COORD97":"E_COORD97","N_COORD97":"N_COORD97","ADDRESS":"ADDRESS","OBJECTID":"OBJECTID"},"geometryType":"esriGeometryPoint","spatialReference":{"wkid":102443,"latestWkid":3826},"fields":[{"name":"ID","type":"esriFieldTypeDouble","alias":"ID"},{"name":"DIS_CODE","type":"esriFieldTypeInteger","alias":"DIS_CODE"},{"name":"TOWNNAME","type":"esriFieldTypeString","alias":"TOWNNAME","length":8},{"name":"LI","type":"esriFieldTypeString","alias":"LI","length":8},{"name":"LIN","type":"esriFieldTypeString","alias":"LIN","length":12},{"name":"STREET","type":"esriFieldTypeString","alias":"STREET","length":20},{"name":"SECT","type":"esriFieldTypeString","alias":"SECT","length":8},{"name":"MAREA","type":"esriFieldTypeString","alias":"MAREA","length":12},{"name":"LANE","type":"esriFieldTypeString","alias":"LANE","length":10},{"name":"ALLEY","type":"esriFieldTypeString","alias":"ALLEY","length":10},{"name":"HOUSE_NO","type":"esriFieldTypeString","alias":"HOUSE_NO","length":20},{"name":"E_COORD97","type":"esriFieldTypeDouble","alias":"E_COORD97"},{"name":"N_COORD97","type":"esriFieldTypeDouble","alias":"N_COORD97"},{"name":"ADDRESS","type":"esriFieldTypeString","alias":"ADDRESS","length":50},{"name":"OBJECTID","type":"esriFieldTypeOID","alias":"OBJECTID"}],"features":[{"attributes":{"ID":162402,"DIS_CODE":0,"TOWNNAME":"學甲區","LI":"光華里","LIN":"18鄰","STREET":" ","SECT":" ","MAREA":"新筏子頭","LANE":" ","ALLEY":" ","HOUSE_NO":"１０８號","E_COORD97":164985.16,"N_COORD97":2571667.9700000002,"ADDRESS":"新筏子頭１０８號","OBJECTID":162401},"geometry":{"x":164985.16000000108,"y":2571667.9700000025}},{"attributes":{"ID":162403,"DIS_CODE":0,"TOWNNAME":"學甲區","LI":"光華里","LIN":"18鄰","STREET":" ","SECT":" ","MAREA":"新筏子頭","LANE":" ","ALLEY":" ","HOUSE_NO":"１０９號","E_COORD97":164988.73999999999,"N_COORD97":2571664.1600000001,"ADDRESS":"新筏子頭１０９號","OBJECTID":162402},"geometry":{"x":164988.74000000022,"y":2571664.1600000001}},{"attributes":{"ID":162404,"DIS_CODE":0,"TOWNNAME":"學甲區","LI":"光華里","LIN":"18鄰","STREET":" ","SECT":" ","MAREA":"新筏子頭","LANE":" ","ALLEY":" ","HOUSE_NO":"１１２號","E_COORD97":164995.89999999999,"N_COORD97":2571656.8199999998,"ADDRESS":"新筏子頭１１２號","OBJECTID":162403},"geometry":{"x":164995.9000000013,"y":2571656.8200000003}},{"attributes":{"ID":162405,"DIS_CODE":0,"TOWNNAME":"學甲區","LI":"光華里","LIN":"18鄰","STREET":" ","SECT":" ","MAREA":"新筏子頭","LANE":" ","ALLEY":" ","HOUSE_NO":"１１５號","E_COORD97":165006.57000000001,"N_COORD97":2571647.3999999999,"ADDRESS":"新筏子頭１１５號","OBJECTID":162404},"geometry":{"x":165006.57000000123,"y":2571647.4000000022}},{"attributes":{"ID":162406,"DIS_CODE":0,"TOWNNAME":"學甲區","LI":"光華里","LIN":"18鄰","STREET":" ","SECT":" ","MAREA":"新筏子頭","LANE":" ","ALLEY":" ","HOUSE_NO":"１１８號","E_COORD97":165035.97,"N_COORD97":2571643.7999999998,"ADDRESS":"新筏子頭１１８號","OBJECTID":162405},"geometry":{"x":165035.96999999974,"y":2571643.8000000007}},{"attributes":{"ID":162407,"DIS_CODE":0,"TOWNNAME":"學甲區","LI":"光華里","LIN":"18鄰","STREET":" ","SECT":" ","MAREA":"新筏子頭","LANE":" ","ALLEY":" ","HOUSE_NO":"１２０號","E_COORD97":164919.29999999999,"N_COORD97":2571685.4100000001,"ADDRESS":"新筏子頭１２０號","OBJECTID":162406},"geometry":{"x":164919.30000000075,"y":2571685.410000002}},{"attributes":{"ID":162408,"DIS_CODE":0,"TOWNNAME":"學甲區","LI":"光華里","LIN":"18鄰","STREET":" ","SECT":" ","MAREA":"新筏子頭","LANE":" ","ALLEY":" ","HOUSE_NO":"１２１號","E_COORD97":164912.85000000001,"N_COORD97":2571683.3100000001,"ADDRESS":"新筏子頭１２１號","OBJECTID":162407},"geometry":{"x":164912.84999999963,"y":2571683.3100000005}},{"attributes":{"ID":162409,"DIS_CODE":0,"TOWNNAME":"學甲區","LI":"光華里","LIN":"18鄰","STREET":" ","SECT":" ","MAREA":"新筏子頭","LANE":" ","ALLEY":" ","HOUSE_NO":"１２４號","E_COORD97":164936.70999999999,"N_COORD97":2571672.52,"ADDRESS":"新筏子頭１２４號","OBJECTID":162408},"geometry":{"x":164936.71000000183,"y":2571672.5200000014}},{"attributes":{"ID":162410,"DIS_CODE":0,"TOWNNAME":"學甲區","LI":"光華里","LIN":"18鄰","STREET":" ","SECT":" ","MAREA":"新筏子頭","LANE":" ","ALLEY":" ","HOUSE_NO":"１２６號","E_COORD97":164941.70000000001,"N_COORD97":2571662.96,"ADDRESS":"新筏子頭１２６號","OBJECTID":162409},"geometry":{"x":164941.70000000019,"y":2571662.9600000009}},{"attributes":{"ID":162411,"DIS_CODE":0,"TOWNNAME":"學甲區","LI":"光華里","LIN":"18鄰","STREET":" ","SECT":" ","MAREA":"新筏子頭","LANE":" ","ALLEY":" ","HOUSE_NO":"１２９號","E_COORD97":164895.42000000001,"N_COORD97":2571660.27,"ADDRESS":"新筏子頭１２９號","OBJECTID":162410},"geometry":{"x":164895.42000000086,"y":2571660.2700000033}},{"attributes":{"ID":162412,"DIS_CODE":0,"TOWNNAME":"學甲區","LI":"光華里","LIN":"18鄰","STREET":" ","SECT":" ","MAREA":"新筏子頭","LANE":" ","ALLEY":" ","HOUSE_NO":"１３０號","E_COORD97":164958.60999999999,"N_COORD97":2571649.8799999999,"ADDRESS":"新筏子頭１３０號","OBJECTID":162411},"geometry":{"x":164958.61000000127,"y":2571649.8800000008}},{"attributes":{"ID":162413,"DIS_CODE":0,"TOWNNAME":"學甲區","LI":"光華里","LIN":"18鄰","STREET":" ","SECT":" ","MAREA":"新筏子頭","LANE":" ","ALLEY":" ","HOUSE_NO":"１３８號","E_COORD97":164965.97,"N_COORD97":2571643.4399999999,"ADDRESS":"新筏子頭１３８號","OBJECTID":162412},"geometry":{"x":164965.97000000067,"y":2571643.4400000013}},{"attributes":{"ID":162414,"DIS_CODE":0,"TOWNNAME":"學甲區","LI":"光華里","LIN":"18鄰","STREET":" ","SECT":" ","MAREA":"新筏子頭","LANE":" ","ALLEY":" ","HOUSE_NO":"１４３號","E_COORD97":164986.48000000001,"N_COORD97":2571627.6400000001,"ADDRESS":"新筏子頭１４３號","OBJECTID":162413},"geometry":{"x":164986.48000000138,"y":2571627.6400000006}},{"attributes":{"ID":162415,"DIS_CODE":0,"TOWNNAME":"學甲區","LI":"光華里","LIN":"18鄰","STREET":" ","SECT":" ","MAREA":"新筏子頭","LANE":" ","ALLEY":" ","HOUSE_NO":"１４６號","E_COORD97":164938.23000000001,"N_COORD97":2571631.2599999998,"ADDRESS":"新筏子頭１４６號","OBJECTID":162414},"geometry":{"x":164938.23000000045,"y":2571631.2600000016}},{"attributes":{"ID":162416,"DIS_CODE":0,"TOWNNAME":"學甲區","LI":"光華里","LIN":"18鄰","STREET":" ","SECT":" ","MAREA":"新筏子頭","LANE":" ","ALLEY":" ","HOUSE_NO":"１４９號","E_COORD97":164943.89999999999,"N_COORD97":2571616.77,"ADDRESS":"新筏子頭１４９號","OBJECTID":162415},"geometry":{"x":164943.90000000037,"y":2571616.7700000014}},{"attributes":{"ID":162417,"DIS_CODE":0,"TOWNNAME":"學甲區","LI":"光華里","LIN":"18鄰","STREET":" ","SECT":" ","MAREA":"新筏子頭","LANE":" ","ALLEY":" ","HOUSE_NO":"１５０號","E_COORD97":164948.04000000001,"N_COORD97":2571613.5699999998,"ADDRESS":"新筏子頭１５０號","OBJECTID":162416},"geometry":{"x":164948.03999999911,"y":2571613.5700000003}},{"attributes":{"ID":162418,"DIS_CODE":0,"TOWNNAME":"東區","LI":"富強里","LIN":"27鄰","STREET":"東門路","SECT":"二段","MAREA":" ","LANE":"３０１巷","ALLEY":"８０弄","HOUSE_NO":"２９號","E_COORD97":170951.34,"N_COORD97":2542630.23,"ADDRESS":"東門路二段３０１巷８０弄２９號","OBJECTID":162417},"geometry":{"x":170951.33999999985,"y":2542630.2300000023}},{"attributes":{"ID":162419,"DIS_CODE":0,"TOWNNAME":"東區","LI":"富強里","LIN":"27鄰","STREET":"東門路","SECT":"二段","MAREA":" ","LANE":"３０１巷","ALLEY":"８０弄","HOUSE_NO":"９號","E_COORD97":170941.5,"N_COORD97":2542698.98,"ADDRESS":"東門路二段３０１巷８０弄９號","OBJECTID":162418},"geometry":{"x":170941.50000000093,"y":2542698.9799999986}},{"attributes":{"ID":162420,"DIS_CODE":0,"TOWNNAME":"東區","LI":"富強里","LIN":"27鄰","STREET":"裕農路","SECT":" ","MAREA":" ","LANE":"２８８巷","ALLEY":"７０弄","HOUSE_NO":"４１號之１","E_COORD97":170955.60000000001,"N_COORD97":2542821.2599999998,"ADDRESS":"裕農路２８８巷７０弄４１號之１","OBJECTID":162419},"geometry":{"x":170955.60000000056,"y":2542821.2599999998}},{"attributes":{"ID":162421,"DIS_CODE":0,"TOWNNAME":"東區","LI":"東明里","LIN":"25鄰","STREET":"東安路","SECT":" ","MAREA":" ","LANE":"３０巷","ALLEY":"１０弄","HOUSE_NO":"１６號","E_COORD97":170716.63,"N_COORD97":2543507.0699999998,"ADDRESS":"東安路３０巷１０弄１６號","OBJECTID":162420},"geometry":{"x":170716.63000000082,"y":2543507.0700000003}},{"attributes":{"ID":162422,"DIS_CODE":0,"TOWNNAME":"下營區","LI":"賀建里","LIN":"18鄰","STREET":" ","SECT":" ","MAREA":"火燒珠","LANE":" ","ALLEY":" ","HOUSE_NO":"３１號","E_COORD97":176696.95000000001,"N_COORD97":2572880.7200000002,"ADDRESS":"火燒珠３１號","OBJECTID":162421},"geometry":{"x":176696.95000000112,"y":2572880.7200000007}},{"attributes":{"ID":162423,"DIS_CODE":0,"TOWNNAME":"東區","LI":"東明里","LIN":"25鄰","STREET":"東安路","SECT":" ","MAREA":" ","LANE":"３０巷","ALLEY":"１０弄","HOUSE_NO":"１８號","E_COORD97":170729.20999999999,"N_COORD97":2543504.2999999998,"ADDRESS":"東安路３０巷１０弄１８號","OBJECTID":162422},"geometry":{"x":170729.21000000183,"y":2543504.3000000045}},{"attributes":{"ID":162424,"DIS_CODE":0,"TOWNNAME":"東區","LI":"東明里","LIN":"25鄰","STREET":"東安路","SECT":" ","MAREA":" ","LANE":"３０巷","ALLEY":"１０弄","HOUSE_NO":"２０號","E_COORD97":170740.03,"N_COORD97":2543502.54,"ADDRESS":"東安路３０巷１０弄２０號","OBJECTID":162423},"geometry":{"x":170740.03000000119,"y":2543502.540000001}},{"attributes":{"ID":162425,"DIS_CODE":0,"TOWNNAME":"東區","LI":"東明里","LIN":"25鄰","STREET":"東安路","SECT":" ","MAREA":" ","LANE":"３０巷","ALLEY":"１０弄","HOUSE_NO":"２４號","E_COORD97":170755.88,"N_COORD97":2543498.77,"ADDRESS":"東安路３０巷１０弄２４號","OBJECTID":162424},"geometry":{"x":170755.88000000082,"y":2543498.7699999996}},{"attributes":{"ID":162426,"DIS_CODE":0,"TOWNNAME":"東區","LI":"東明里","LIN":"25鄰","STREET":"東安路","SECT":" ","MAREA":" ","LANE":"３０巷","ALLEY":"１０弄","HOUSE_NO":"２６號","E_COORD97":170766.25,"N_COORD97":2543496.6699999999,"ADDRESS":"東安路３０巷１０弄２６號","OBJECTID":162425},"geometry":{"x":170766.25000000186,"y":2543496.6699999999}},{"attributes":{"ID":162427,"DIS_CODE":0,"TOWNNAME":"安南區","LI":"國安里","LIN":"4鄰","STREET":"國安街","SECT":" ","MAREA":" ","LANE":"１５６巷","ALLEY":"１４１弄","HOUSE_NO":"１０號","E_COORD97":166617.29999999999,"N_COORD97":2547351.8300000001,"ADDRESS":"國安街１５６巷１４１弄１０號","OBJECTID":162426},"geometry":{"x":166617.29999999981,"y":2547351.8300000019}},{"attributes":{"ID":162428,"DIS_CODE":0,"TOWNNAME":"安南區","LI":"國安里","LIN":"4鄰","STREET":"國安街","SECT":" ","MAREA":" ","LANE":"１５６巷","ALLEY":"１４１弄","HOUSE_NO":"１２號","E_COORD97":166611.25,"N_COORD97":2547353.1299999999,"ADDRESS":"國安街１５６巷１４１弄１２號","OBJECTID":162427},"geometry":{"x":166611.24999999907,"y":2547353.1300000008}},{"attributes":{"ID":162429,"DIS_CODE":0,"TOWNNAME":"安南區","LI":"國安里","LIN":"4鄰","STREET":"國安街","SECT":" ","MAREA":" ","LANE":"１５６巷","ALLEY":"１４１弄","HOUSE_NO":"１４號","E_COORD97":166605.63,"N_COORD97":2547351.8999999999,"ADDRESS":"國安街１５６巷１４１弄１４號","OBJECTID":162428},"geometry":{"x":166605.63000000082,"y":2547351.9000000022}},{"attributes":{"ID":162430,"DIS_CODE":0,"TOWNNAME":"安南區","LI":"國安里","LIN":"4鄰","STREET":"國安街","SECT":" ","MAREA":" ","LANE":"１５６巷","ALLEY":"１４１弄","HOUSE_NO":"１６號","E_COORD97":166599.44,"N_COORD97":2547352.6600000001,"ADDRESS":"國安街１５６巷１４１弄１６號","OBJECTID":162429},"geometry":{"x":166599.44000000134,"y":2547352.6600000039}},{"attributes":{"ID":162431,"DIS_CODE":0,"TOWNNAME":"安南區","LI":"國安里","LIN":"4鄰","STREET":"國安街","SECT":" ","MAREA":" ","LANE":"１５６巷","ALLEY":"１４１弄","HOUSE_NO":"１８號","E_COORD97":166594.64000000001,"N_COORD97":2547349.3799999999,"ADDRESS":"國安街１５６巷１４１弄１８號","OBJECTID":162430},"geometry":{"x":166594.63999999966,"y":2547349.379999999}},{"attributes":{"ID":162432,"DIS_CODE":0,"TOWNNAME":"安南區","LI":"國安里","LIN":"4鄰","STREET":"國安街","SECT":" ","MAREA":" ","LANE":"１５６巷","ALLEY":"１４１弄","HOUSE_NO":"２０號","E_COORD97":166589.35999999999,"N_COORD97":2547348.8399999999,"ADDRESS":"國安街１５６巷１４１弄２０號","OBJECTID":162431},"geometry":{"x":166589.36000000127,"y":2547348.8400000017}},{"attributes":{"ID":162433,"DIS_CODE":0,"TOWNNAME":"永康區","LI":"南灣里","LIN":"25鄰","STREET":"立興街","SECT":" ","MAREA":" ","LANE":" ","ALLEY":" ","HOUSE_NO":"６８號","E_COORD97":174571.29000000001,"N_COORD97":2544825.0499999998,"ADDRESS":"立興街６８號","OBJECTID":162432},"geometry":{"x":174571.29000000004,"y":2544825.0500000045}},{"attributes":{"ID":162434,"DIS_CODE":0,"TOWNNAME":"永康區","LI":"烏竹里","LIN":"8鄰","STREET":"竹園二街","SECT":" ","MAREA":" ","LANE":" ","ALLEY":" ","HOUSE_NO":"６８號","E_COORD97":174351.04999999999,"N_COORD97":2549153.4900000002,"ADDRESS":"竹園二街６８號","OBJECTID":162433},"geometry":{"x":174351.05000000168,"y":2549153.4900000002}},{"attributes":{"ID":162435,"DIS_CODE":0,"TOWNNAME":"安南區","LI":"國安里","LIN":"4鄰","STREET":"國安街","SECT":" ","MAREA":" ","LANE":"１５６巷","ALLEY":"１４１弄","HOUSE_NO":"２２號","E_COORD97":166583.38,"N_COORD97":2547347.4399999999,"ADDRESS":"國安街１５６巷１４１弄２２號","OBJECTID":162434},"geometry":{"x":166583.38000000082,"y":2547347.4400000013}},{"attributes":{"ID":162436,"DIS_CODE":0,"TOWNNAME":"永康區","LI":"烏竹里","LIN":"6鄰","STREET":"龍橋街","SECT":" ","MAREA":" ","LANE":" ","ALLEY":" ","HOUSE_NO":"４７６號","E_COORD97":174416.66,"N_COORD97":2549351.3100000001,"ADDRESS":"龍橋街４７６號","OBJECTID":162435},"geometry":{"x":174416.65999999922,"y":2549351.3100000005}},{"attributes":{"ID":162437,"DIS_CODE":0,"TOWNNAME":"永康區","LI":"埔園里","LIN":"33鄰","STREET":"自強路","SECT":" ","MAREA":" ","LANE":" ","ALLEY":" ","HOUSE_NO":"５１５號","E_COORD97":174013.79999999999,"N_COORD97":2548184.96,"ADDRESS":"自強路５１５號","OBJECTID":162436},"geometry":{"x":174013.80000000168,"y":2548184.9600000009}},{"attributes":{"ID":162438,"DIS_CODE":0,"TOWNNAME":"中西區","LI":"法華里","LIN":"12鄰","STREET":"健康路","SECT":"一段","MAREA":" ","LANE":" ","ALLEY":" ","HOUSE_NO":"１０２號七樓","E_COORD97":168906.60999999999,"N_COORD97":2542448.1800000002,"ADDRESS":"健康路一段１０２號七樓","OBJECTID":162437},"geometry":{"x":168906.61000000127,"y":2542448.1799999997}},{"attributes":{"ID":162439,"DIS_CODE":0,"TOWNNAME":"安南區","LI":"國安里","LIN":"4鄰","STREET":"國安街","SECT":" ","MAREA":" ","LANE":"１５６巷","ALLEY":"１４１弄","HOUSE_NO":"２４號","E_COORD97":166577.73999999999,"N_COORD97":2547344.4100000001,"ADDRESS":"國安街１５６巷１４１弄２４號","OBJECTID":162438},"geometry":{"x":166577.74000000209,"y":2547344.4100000039}},{"attributes":{"ID":162440,"DIS_CODE":0,"TOWNNAME":"安南區","LI":"國安里","LIN":"4鄰","STREET":"國安街","SECT":" ","MAREA":" ","LANE":"１５６巷","ALLEY":"１４１弄","HOUSE_NO":"２６號","E_COORD97":166571.32000000001,"N_COORD97":2547345.3199999998,"ADDRESS":"國安街１５６巷１４１弄２６號","OBJECTID":162439},"geometry":{"x":166571.32000000123,"y":2547345.3200000022}},{"attributes":{"ID":162441,"DIS_CODE":0,"TOWNNAME":"安南區","LI":"國安里","LIN":"4鄰","STREET":"國安街","SECT":" ","MAREA":" ","LANE":"１５６巷","ALLEY":"１４１弄","HOUSE_NO":"２號","E_COORD97":166639.98000000001,"N_COORD97":2547357.98,"ADDRESS":"國安街１５６巷１４１弄２號","OBJECTID":162440},"geometry":{"x":166639.98000000045,"y":2547357.9800000023}},{"attributes":{"ID":162442,"DIS_CODE":0,"TOWNNAME":"安南區","LI":"國安里","LIN":"4鄰","STREET":"國安街","SECT":" ","MAREA":" ","LANE":"１５６巷","ALLEY":"１４１弄","HOUSE_NO":"２之１號","E_COORD97":166634.04000000001,"N_COORD97":2547357.98,"ADDRESS":"國安街１５６巷１４１弄２之１號","OBJECTID":162441},"geometry":{"x":166634.04000000004,"y":2547357.9800000023}},{"attributes":{"ID":162443,"DIS_CODE":0,"TOWNNAME":"安南區","LI":"國安里","LIN":"11鄰","STREET":"國安街","SECT":" ","MAREA":" ","LANE":"２１０巷","ALLEY":"１７５弄","HOUSE_NO":"９號","E_COORD97":166504.70999999999,"N_COORD97":2547373.3999999999,"ADDRESS":"國安街２１０巷１７５弄９號","OBJECTID":162442},"geometry":{"x":166504.70999999903,"y":2547373.4000000004}},{"attributes":{"ID":162444,"DIS_CODE":0,"TOWNNAME":"善化區","LI":"坐駕里","LIN":"17鄰","STREET":"興華路","SECT":" ","MAREA":" ","LANE":"２６１巷","ALLEY":"１弄","HOUSE_NO":"８號","E_COORD97":177896.70999999999,"N_COORD97":2558458.75,"ADDRESS":"興華路２６１巷１弄８號","OBJECTID":162443},"geometry":{"x":177896.71000000089,"y":2558458.7500000037}},{"attributes":{"ID":162445,"DIS_CODE":0,"TOWNNAME":"永康區","LI":"復興里","LIN":"4鄰","STREET":"復興路","SECT":" ","MAREA":" ","LANE":"４２３巷","ALLEY":"８５弄","HOUSE_NO":"１６號","E_COORD97":172270.29000000001,"N_COORD97":2544188.27,"ADDRESS":"復興路４２３巷８５弄１６號","OBJECTID":162444},"geometry":{"x":172270.29000000097,"y":2544188.2700000033}},{"attributes":{"ID":162446,"DIS_CODE":0,"TOWNNAME":"永康區","LI":"復華里","LIN":"34鄰","STREET":"復國一路","SECT":" ","MAREA":" ","LANE":"４７５巷","ALLEY":"６０弄","HOUSE_NO":"１４號","E_COORD97":172513.95000000001,"N_COORD97":2546021.8399999999,"ADDRESS":"復國一路４７５巷６０弄１４號","OBJECTID":162445},"geometry":{"x":172513.95000000019,"y":2546021.839999998}},{"attributes":{"ID":162447,"DIS_CODE":0,"TOWNNAME":"永康區","LI":"復華里","LIN":"41鄰","STREET":"復華七街","SECT":" ","MAREA":" ","LANE":"３２巷","ALLEY":"２２弄","HOUSE_NO":"４１號","E_COORD97":172571.75,"N_COORD97":2545895.2999999998,"ADDRESS":"復華七街３２巷２２弄４１號","OBJECTID":162446},"geometry":{"x":172571.75000000186,"y":2545895.3000000026}},{"attributes":{"ID":162448,"DIS_CODE":0,"TOWNNAME":"永康區","LI":"網寮里","LIN":"18鄰","STREET":"永二街","SECT":" ","MAREA":" ","LANE":"１９３巷","ALLEY":"１弄","HOUSE_NO":"１０號","E_COORD97":173482.47,"N_COORD97":2546325.5099999998,"ADDRESS":"永二街１９３巷１弄１０號","OBJECTID":162447},"geometry":{"x":173482.47000000067,"y":2546325.5099999998}},{"attributes":{"ID":162449,"DIS_CODE":0,"TOWNNAME":"永康區","LI":"復華里","LIN":"40鄰","STREET":"復華七街","SECT":" ","MAREA":" ","LANE":"３２巷","ALLEY":"２２弄","HOUSE_NO":"９號","E_COORD97":172663.85999999999,"N_COORD97":2545902.9100000001,"ADDRESS":"復華七街３２巷２２弄９號","OBJECTID":162448},"geometry":{"x":172663.86000000034,"y":2545902.9100000001}},{"attributes":{"ID":162450,"DIS_CODE":0,"TOWNNAME":"永康區","LI":"復華里","LIN":"40鄰","STREET":"復華七街","SECT":" ","MAREA":" ","LANE":"３２巷","ALLEY":"２２弄","HOUSE_NO":"２號","E_COORD97":172676.70000000001,"N_COORD97":2545921.0299999998,"ADDRESS":"復華七街３２巷２２弄２號","OBJECTID":162449},"geometry":{"x":172676.70000000019,"y":2545921.0299999993}},{"attributes":{"ID":162451,"DIS_CODE":0,"TOWNNAME":"永康區","LI":"復華里","LIN":"34鄰","STREET":"復國一路","SECT":" ","MAREA":" ","LANE":"４７５巷","ALLEY":"６０弄","HOUSE_NO":"１０號","E_COORD97":172513.95000000001,"N_COORD97":2546013.0899999999,"ADDRESS":"復國一路４７５巷６０弄１０號","OBJECTID":162450},"geometry":{"x":172513.95000000019,"y":2546013.0899999999}},{"attributes":{"ID":162452,"DIS_CODE":0,"TOWNNAME":"永康區","LI":"網寮里","LIN":"20鄰","STREET":"大灣路","SECT":" ","MAREA":" ","LANE":"９４２巷","ALLEY":"６４１弄","HOUSE_NO":"７７號","E_COORD97":173494.64999999999,"N_COORD97":2545976.6699999999,"ADDRESS":"大灣路９４２巷６４１弄７７號","OBJECTID":162451},"geometry":{"x":173494.65000000037,"y":2545976.6700000018}},{"attributes":{"ID":162453,"DIS_CODE":0,"TOWNNAME":"永康區","LI":"復華里","LIN":"41鄰","STREET":"復華七街","SECT":" ","MAREA":" ","LANE":"３２巷","ALLEY":"２２弄","HOUSE_NO":"２１號","E_COORD97":172635.04999999999,"N_COORD97":2545903.5099999998,"ADDRESS":"復華七街３２巷２２弄２１號","OBJECTID":162452},"geometry":{"x":172635.04999999981,"y":2545903.5100000016}},{"attributes":{"ID":162454,"DIS_CODE":0,"TOWNNAME":"永康區","LI":"網寮里","LIN":"18鄰","STREET":"永二街","SECT":" ","MAREA":" ","LANE":"１９３巷","ALLEY":"１弄","HOUSE_NO":"４號","E_COORD97":173473.82999999999,"N_COORD97":2546312.5099999998,"ADDRESS":"永二街１９３巷１弄４號","OBJECTID":162453},"geometry":{"x":173473.83000000101,"y":2546312.5100000035}},{"attributes":{"ID":162455,"DIS_CODE":0,"TOWNNAME":"永康區","LI":"復華里","LIN":"26鄰","STREET":"復華八街","SECT":" ","MAREA":" ","LANE":"５１巷","ALLEY":"３７弄","HOUSE_NO":"３號","E_COORD97":172711.23999999999,"N_COORD97":2546415.8599999999,"ADDRESS":"復華八街５１巷３７弄３號","OBJECTID":162454},"geometry":{"x":172711.24000000115,"y":2546415.8600000013}},{"attributes":{"ID":162456,"DIS_CODE":0,"TOWNNAME":"永康區","LI":"勝利里","LIN":"32鄰","STREET":"勝利街","SECT":" ","MAREA":" ","LANE":"３０巷","ALLEY":"７弄","HOUSE_NO":"７８號","E_COORD97":171501.64000000001,"N_COORD97":2544543.2599999998,"ADDRESS":"勝利街３０巷７弄７８號","OBJECTID":162455},"geometry":{"x":171501.63999999966,"y":2544543.2599999998}},{"attributes":{"ID":162457,"DIS_CODE":0,"TOWNNAME":"中西區","LI":"郡王里","LIN":"4鄰","STREET":"開山路","SECT":" ","MAREA":" ","LANE":" ","ALLEY":" ","HOUSE_NO":"１９８號","E_COORD97":168943.85999999999,"N_COORD97":2543001.29,"ADDRESS":"開山路１９８號","OBJECTID":162456},"geometry":{"x":168943.86000000127,"y":2543001.290000001}},{"attributes":{"ID":162458,"DIS_CODE":0,"TOWNNAME":"學甲區","LI":"光華里","LIN":"18鄰","STREET":" ","SECT":" ","MAREA":"新筏子頭","LANE":" ","ALLEY":" ","HOUSE_NO":"１５１號","E_COORD97":164951.92999999999,"N_COORD97":2571610.3500000001,"ADDRESS":"新筏子頭１５１號","OBJECTID":162457},"geometry":{"x":164951.93000000156,"y":2571610.3500000015}},{"attributes":{"ID":162459,"DIS_CODE":0,"TOWNNAME":"學甲區","LI":"光華里","LIN":"18鄰","STREET":" ","SECT":" ","MAREA":"新筏子頭","LANE":" ","ALLEY":" ","HOUSE_NO":"１５２號","E_COORD97":164956.32999999999,"N_COORD97":2571607.1699999999,"ADDRESS":"新筏子頭１５２號","OBJECTID":162458},"geometry":{"x":164956.33000000194,"y":2571607.1700000037}},{"attributes":{"ID":162460,"DIS_CODE":0,"TOWNNAME":"學甲區","LI":"光華里","LIN":"18鄰","STREET":" ","SECT":" ","MAREA":"新筏子頭","LANE":" ","ALLEY":" ","HOUSE_NO":"１５６號","E_COORD97":164886.34,"N_COORD97":2571632.4500000002,"ADDRESS":"新筏子頭１５６號","OBJECTID":162459},"geometry":{"x":164886.33999999985,"y":2571632.4500000011}},{"attributes":{"ID":162461,"DIS_CODE":0,"TOWNNAME":"學甲區","LI":"光華里","LIN":"18鄰","STREET":" ","SECT":" ","MAREA":"新筏子頭","LANE":" ","ALLEY":" ","HOUSE_NO":"１６０號","E_COORD97":164904.42999999999,"N_COORD97":2571623.25,"ADDRESS":"新筏子頭１６０號","OBJECTID":162460},"geometry":{"x":164904.43000000156,"y":2571623.25}},{"attributes":{"ID":162462,"DIS_CODE":0,"TOWNNAME":"學甲區","LI":"光華里","LIN":"18鄰","STREET":" ","SECT":" ","MAREA":"新筏子頭","LANE":" ","ALLEY":" ","HOUSE_NO":"１６１號","E_COORD97":164908.60999999999,"N_COORD97":2571619.0800000001,"ADDRESS":"新筏子頭１６１號","OBJECTID":162461},"geometry":{"x":164908.61000000034,"y":2571619.0800000019}},{"attributes":{"ID":162463,"DIS_CODE":0,"TOWNNAME":"學甲區","LI":"光華里","LIN":"18鄰","STREET":" ","SECT":" ","MAREA":"新筏子頭","LANE":" ","ALLEY":" ","HOUSE_NO":"１６３號","E_COORD97":164919.42999999999,"N_COORD97":2571606.5800000001,"ADDRESS":"新筏子頭１６３號","OBJECTID":162462},"geometry":{"x":164919.4299999997,"y":2571606.5800000001}},{"attributes":{"ID":162464,"DIS_CODE":0,"TOWNNAME":"學甲區","LI":"光華里","LIN":"18鄰","STREET":" ","SECT":" ","MAREA":"新筏子頭","LANE":" ","ALLEY":" ","HOUSE_NO":"１６８號","E_COORD97":164934.51999999999,"N_COORD97":2571586.6000000001,"ADDRESS":"新筏子頭１６８號","OBJECTID":162463},"geometry":{"x":164934.52000000048,"y":2571586.5999999996}},{"attributes":{"ID":162465,"DIS_CODE":0,"TOWNNAME":"學甲區","LI":"光華里","LIN":"18鄰","STREET":" ","SECT":" ","MAREA":"新筏子頭","LANE":" ","ALLEY":" ","HOUSE_NO":"１７１號","E_COORD97":164947.47,"N_COORD97":2571578.3300000001,"ADDRESS":"新筏子頭１７１號","OBJECTID":162464},"geometry":{"x":164947.46999999974,"y":2571578.3300000001}},{"attributes":{"ID":162466,"DIS_CODE":0,"TOWNNAME":"學甲區","LI":"光華里","LIN":"18鄰","STREET":" ","SECT":" ","MAREA":"新筏子頭","LANE":" ","ALLEY":" ","HOUSE_NO":"８６號之１","E_COORD97":164859.04999999999,"N_COORD97":2571663.1600000001,"ADDRESS":"新筏子頭８６號之１","OBJECTID":162465},"geometry":{"x":164859.04999999981,"y":2571663.160000002}},{"attributes":{"ID":162467,"DIS_CODE":0,"TOWNNAME":"學甲區","LI":"光華里","LIN":"18鄰","STREET":" ","SECT":" ","MAREA":"新筏子頭","LANE":" ","ALLEY":" ","HOUSE_NO":"９７號","E_COORD97":164950.91,"N_COORD97":2571716.73,"ADDRESS":"新筏子頭９７號","OBJECTID":162466},"geometry":{"x":164950.91000000201,"y":2571716.7300000023}},{"attributes":{"ID":162468,"DIS_CODE":0,"TOWNNAME":"學甲區","LI":"光華里","LIN":"18鄰","STREET":" ","SECT":" ","MAREA":"新筏子頭","LANE":" ","ALLEY":" ","HOUSE_NO":"９９號","E_COORD97":164943.22,"N_COORD97":2571709.4199999999,"ADDRESS":"新筏子頭９９號","OBJECTID":162467},"geometry":{"x":164943.2200000016,"y":2571709.4199999999}},{"attributes":{"ID":162469,"DIS_CODE":0,"TOWNNAME":"學甲區","LI":"平和里","LIN":"18鄰","STREET":" ","SECT":" ","MAREA":"學甲寮","LANE":" ","ALLEY":" ","HOUSE_NO":"１８３號之１","E_COORD97":169633.06,"N_COORD97":2573103.9399999999,"ADDRESS":"學甲寮１８３號之１","OBJECTID":162468},"geometry":{"x":169633.06000000145,"y":2573103.9400000013}},{"attributes":{"ID":162470,"DIS_CODE":0,"TOWNNAME":"學甲區","LI":"平和里","LIN":"18鄰","STREET":" ","SECT":" ","MAREA":"學甲寮","LANE":" ","ALLEY":" ","HOUSE_NO":"１８３號之２","E_COORD97":169644.82000000001,"N_COORD97":2573118.4500000002,"ADDRESS":"學甲寮１８３號之２","OBJECTID":162469},"geometry":{"x":169644.8200000003,"y":2573118.4499999993}},{"attributes":{"ID":162471,"DIS_CODE":0,"TOWNNAME":"學甲區","LI":"平和里","LIN":"18鄰","STREET":" ","SECT":" ","MAREA":"學甲寮","LANE":" ","ALLEY":" ","HOUSE_NO":"１８３號之３","E_COORD97":169650.64999999999,"N_COORD97":2573119.7200000002,"ADDRESS":"學甲寮１８３號之３","OBJECTID":162470},"geometry":{"x":169650.6500000013,"y":2573119.7200000044}},{"attributes":{"ID":162472,"DIS_CODE":0,"TOWNNAME":"學甲區","LI":"平和里","LIN":"18鄰","STREET":" ","SECT":" ","MAREA":"學甲寮","LANE":" ","ALLEY":" ","HOUSE_NO":"１８５號","E_COORD97":169592.39999999999,"N_COORD97":2573101.3700000001,"ADDRESS":"學甲寮１８５號","OBJECTID":162471},"geometry":{"x":169592.40000000037,"y":2573101.370000001}},{"attributes":{"ID":162473,"DIS_CODE":0,"TOWNNAME":"學甲區","LI":"平和里","LIN":"18鄰","STREET":" ","SECT":" ","MAREA":"學甲寮","LANE":" ","ALLEY":" ","HOUSE_NO":"１８６號","E_COORD97":169575.34,"N_COORD97":2573091.3199999998,"ADDRESS":"學甲寮１８６號","OBJECTID":162472},"geometry":{"x":169575.33999999892,"y":2573091.3199999984}},{"attributes":{"ID":162474,"DIS_CODE":0,"TOWNNAME":"學甲區","LI":"平和里","LIN":"18鄰","STREET":" ","SECT":" ","MAREA":"學甲寮","LANE":" ","ALLEY":" ","HOUSE_NO":"１８７號","E_COORD97":169611.54999999999,"N_COORD97":2573133.1200000001,"ADDRESS":"學甲寮１８７號","OBJECTID":162473},"geometry":{"x":169611.55000000075,"y":2573133.120000001}},{"attributes":{"ID":162475,"DIS_CODE":0,"TOWNNAME":"學甲區","LI":"平和里","LIN":"18鄰","STREET":" ","SECT":" ","MAREA":"學甲寮","LANE":" ","ALLEY":" ","HOUSE_NO":"１８８號之１","E_COORD97":169619.87,"N_COORD97":2573152.1499999999,"ADDRESS":"學甲寮１８８號之１","OBJECTID":162474},"geometry":{"x":169619.87000000104,"y":2573152.1500000004}},{"attributes":{"ID":162476,"DIS_CODE":0,"TOWNNAME":"學甲區","LI":"平和里","LIN":"18鄰","STREET":" ","SECT":" ","MAREA":"學甲寮","LANE":" ","ALLEY":" ","HOUSE_NO":"１８８號","E_COORD97":169612.64999999999,"N_COORD97":2573158.8799999999,"ADDRESS":"學甲寮１８８號","OBJECTID":162475},"geometry":{"x":169612.65000000037,"y":2573158.8800000008}},{"attributes":{"ID":162477,"DIS_CODE":0,"TOWNNAME":"學甲區","LI":"平和里","LIN":"18鄰","STREET":" ","SECT":" ","MAREA":"學甲寮","LANE":" ","ALLEY":" ","HOUSE_NO":"１８９號","E_COORD97":169612.14000000001,"N_COORD97":2573177.5800000001,"ADDRESS":"學甲寮１８９號","OBJECTID":162476},"geometry":{"x":169612.13999999873,"y":2573177.5800000038}},{"attributes":{"ID":162478,"DIS_CODE":0,"TOWNNAME":"學甲區","LI":"平和里","LIN":"18鄰","STREET":" ","SECT":" ","MAREA":"學甲寮","LANE":" ","ALLEY":" ","HOUSE_NO":"１９０號","E_COORD97":169583.84,"N_COORD97":2573139.46,"ADDRESS":"學甲寮１９０號","OBJECTID":162477},"geometry":{"x":169583.83999999892,"y":2573139.4600000028}},{"attributes":{"ID":162479,"DIS_CODE":0,"TOWNNAME":"佳里區","LI":"佳化里","LIN":"18鄰","STREET":" ","SECT":" ","MAREA":"佳里興","LANE":" ","ALLEY":" ","HOUSE_NO":"１７４號之８","E_COORD97":167253.63,"N_COORD97":2565032.2200000002,"ADDRESS":"佳里興１７４號之８","OBJECTID":162478},"geometry":{"x":167253.63000000082,"y":2565032.2200000007}},{"attributes":{"ID":162480,"DIS_CODE":0,"TOWNNAME":"佳里區","LI":"佳化里","LIN":"18鄰","STREET":" ","SECT":" ","MAREA":"佳里興","LANE":" ","ALLEY":" ","HOUSE_NO":"１７４號","E_COORD97":167260.16,"N_COORD97":2565053.5299999998,"ADDRESS":"佳里興１７４號","OBJECTID":162479},"geometry":{"x":167260.16000000108,"y":2565053.5299999993}},{"attributes":{"ID":162481,"DIS_CODE":0,"TOWNNAME":"佳里區","LI":"佳化里","LIN":"18鄰","STREET":" ","SECT":" ","MAREA":"佳里興","LANE":" ","ALLEY":" ","HOUSE_NO":"１７６號之１","E_COORD97":167239.63,"N_COORD97":2565031.7599999998,"ADDRESS":"佳里興１７６號之１","OBJECTID":162480},"geometry":{"x":167239.63000000082,"y":2565031.7599999998}},{"attributes":{"ID":162482,"DIS_CODE":0,"TOWNNAME":"佳里區","LI":"佳化里","LIN":"18鄰","STREET":" ","SECT":" ","MAREA":"佳里興","LANE":" ","ALLEY":" ","HOUSE_NO":"１７６號","E_COORD97":167225.04999999999,"N_COORD97":2565057.4700000002,"ADDRESS":"佳里興１７６號","OBJECTID":162481},"geometry":{"x":167225.05000000075,"y":2565057.4700000007}},{"attributes":{"ID":162483,"DIS_CODE":0,"TOWNNAME":"佳里區","LI":"佳化里","LIN":"18鄰","STREET":" ","SECT":" ","MAREA":"佳里興","LANE":" ","ALLEY":" ","HOUSE_NO":"１７７號","E_COORD97":167232.13,"N_COORD97":2565080.52,"ADDRESS":"佳里興１７７號","OBJECTID":162482},"geometry":{"x":167232.12999999989,"y":2565080.5199999996}},{"attributes":{"ID":162484,"DIS_CODE":0,"TOWNNAME":"佳里區","LI":"佳化里","LIN":"18鄰","STREET":" ","SECT":" ","MAREA":"佳里興","LANE":" ","ALLEY":" ","HOUSE_NO":"１７９號之１","E_COORD97":167186.89000000001,"N_COORD97":2565054.3399999999,"ADDRESS":"佳里興１７９號之１","OBJECTID":162483},"geometry":{"x":167186.8900000006,"y":2565054.3399999999}},{"attributes":{"ID":162485,"DIS_CODE":0,"TOWNNAME":"佳里區","LI":"佳化里","LIN":"18鄰","STREET":" ","SECT":" ","MAREA":"佳里興","LANE":" ","ALLEY":" ","HOUSE_NO":"１７９號之２","E_COORD97":167179.23000000001,"N_COORD97":2565049.0899999999,"ADDRESS":"佳里興１７９號之２","OBJECTID":162484},"geometry":{"x":167179.23000000045,"y":2565049.0899999999}},{"attributes":{"ID":162486,"DIS_CODE":0,"TOWNNAME":"佳里區","LI":"佳化里","LIN":"18鄰","STREET":" ","SECT":" ","MAREA":"佳里興","LANE":" ","ALLEY":" ","HOUSE_NO":"１７９號","E_COORD97":167172.51999999999,"N_COORD97":2565068,"ADDRESS":"佳里興１７９號","OBJECTID":162485},"geometry":{"x":167172.52000000048,"y":2565068}},{"attributes":{"ID":162487,"DIS_CODE":0,"TOWNNAME":"佳里區","LI":"興化里","LIN":"18鄰","STREET":" ","SECT":" ","MAREA":"佳里興","LANE":" ","ALLEY":" ","HOUSE_NO":"５７０號之３","E_COORD97":166739.35999999999,"N_COORD97":2565177.4199999999,"ADDRESS":"佳里興５７０號之３","OBJECTID":162486},"geometry":{"x":166739.36000000034,"y":2565177.4200000037}},{"attributes":{"ID":162488,"DIS_CODE":0,"TOWNNAME":"佳里區","LI":"興化里","LIN":"18鄰","STREET":" ","SECT":" ","MAREA":"佳里興","LANE":" ","ALLEY":" ","HOUSE_NO":"５７０號之４","E_COORD97":166740.34,"N_COORD97":2565181.46,"ADDRESS":"佳里興５７０號之４","OBJECTID":162487},"geometry":{"x":166740.33999999985,"y":2565181.4600000046}},{"attributes":{"ID":162489,"DIS_CODE":0,"TOWNNAME":"佳里區","LI":"興化里","LIN":"18鄰","STREET":" ","SECT":" ","MAREA":"佳里興","LANE":" ","ALLEY":" ","HOUSE_NO":"５７０號之５","E_COORD97":166741.10000000001,"N_COORD97":2565186.1600000001,"ADDRESS":"佳里興５７０號之５","OBJECTID":162488},"geometry":{"x":166741.10000000056,"y":2565186.1600000039}},{"attributes":{"ID":162490,"DIS_CODE":0,"TOWNNAME":"佳里區","LI":"興化里","LIN":"18鄰","STREET":" ","SECT":" ","MAREA":"佳里興","LANE":" ","ALLEY":" ","HOUSE_NO":"５７０號之６","E_COORD97":166742.04999999999,"N_COORD97":2565190.1000000001,"ADDRESS":"佳里興５７０號之６","OBJECTID":162489},"geometry":{"x":166742.05000000075,"y":2565190.1000000015}},{"attributes":{"ID":162491,"DIS_CODE":0,"TOWNNAME":"佳里區","LI":"興化里","LIN":"18鄰","STREET":" ","SECT":" ","MAREA":"佳里興","LANE":" ","ALLEY":" ","HOUSE_NO":"５７０號之７","E_COORD97":166743.04000000001,"N_COORD97":2565193.8799999999,"ADDRESS":"佳里興５７０號之７","OBJECTID":162490},"geometry":{"x":166743.04000000004,"y":2565193.8800000008}},{"attributes":{"ID":162492,"DIS_CODE":0,"TOWNNAME":"佳里區","LI":"興化里","LIN":"18鄰","STREET":" ","SECT":" ","MAREA":"佳里興","LANE":" ","ALLEY":" ","HOUSE_NO":"５７０號之９","E_COORD97":166750.57999999999,"N_COORD97":2565199.4100000001,"ADDRESS":"佳里興５７０號之９","OBJECTID":162491},"geometry":{"x":166750.58000000101,"y":2565199.410000002}},{"attributes":{"ID":162493,"DIS_CODE":0,"TOWNNAME":"佳里區","LI":"興化里","LIN":"18鄰","STREET":" ","SECT":" ","MAREA":"佳里興","LANE":" ","ALLEY":" ","HOUSE_NO":"５７１號之２０","E_COORD97":166627.13,"N_COORD97":2564889.7599999998,"ADDRESS":"佳里興５７１號之２０","OBJECTID":162492},"geometry":{"x":166627.12999999989,"y":2564889.7599999979}},{"attributes":{"ID":162494,"DIS_CODE":0,"TOWNNAME":"佳里區","LI":"興化里","LIN":"18鄰","STREET":" ","SECT":" ","MAREA":"佳里興","LANE":" ","ALLEY":" ","HOUSE_NO":"５７１號之２４","E_COORD97":166594.70999999999,"N_COORD97":2564864.3700000001,"ADDRESS":"佳里興５７１號之２４","OBJECTID":162493},"geometry":{"x":166594.71000000183,"y":2564864.3700000029}},{"attributes":{"ID":162495,"DIS_CODE":0,"TOWNNAME":"佳里區","LI":"興化里","LIN":"18鄰","STREET":" ","SECT":" ","MAREA":"佳里興","LANE":" ","ALLEY":" ","HOUSE_NO":"５７１號之３０","E_COORD97":166753.87,"N_COORD97":2564917.79,"ADDRESS":"佳里興５７１號之３０","OBJECTID":162494},"geometry":{"x":166753.87000000104,"y":2564917.790000001}},{"attributes":{"ID":162496,"DIS_CODE":0,"TOWNNAME":"佳里區","LI":"興化里","LIN":"18鄰","STREET":" ","SECT":" ","MAREA":"佳里興","LANE":" ","ALLEY":" ","HOUSE_NO":"５７１號之３","E_COORD97":166663.54000000001,"N_COORD97":2565044.2400000002,"ADDRESS":"佳里興５７１號之３","OBJECTID":162495},"geometry":{"x":166663.53999999911,"y":2565044.2400000021}},{"attributes":{"ID":162497,"DIS_CODE":0,"TOWNNAME":"佳里區","LI":"興化里","LIN":"18鄰","STREET":" ","SECT":" ","MAREA":"佳里興","LANE":" ","ALLEY":" ","HOUSE_NO":"５７１號之４０","E_COORD97":166889.42000000001,"N_COORD97":2565068.25,"ADDRESS":"佳里興５７１號之４０","OBJECTID":162496},"geometry":{"x":166889.41999999993,"y":2565068.2500000019}},{"attributes":{"ID":162498,"DIS_CODE":0,"TOWNNAME":"佳里區","LI":"興化里","LIN":"18鄰","STREET":" ","SECT":" ","MAREA":"佳里興","LANE":" ","ALLEY":" ","HOUSE_NO":"５７１號之４","E_COORD97":166647.60000000001,"N_COORD97":2565012.21,"ADDRESS":"佳里興５７１號之４","OBJECTID":162497},"geometry":{"x":166647.60000000149,"y":2565012.2100000009}},{"attributes":{"ID":162499,"DIS_CODE":0,"TOWNNAME":"佳里區","LI":"興化里","LIN":"18鄰","STREET":" ","SECT":" ","MAREA":"佳里興","LANE":" ","ALLEY":" ","HOUSE_NO":"５７１號之５０","E_COORD97":166973.45999999999,"N_COORD97":2565050.9700000002,"ADDRESS":"佳里興５７１號之５０","OBJECTID":162498},"geometry":{"x":166973.46000000089,"y":2565050.9700000007}},{"attributes":{"ID":162500,"DIS_CODE":0,"TOWNNAME":"佳里區","LI":"興化里","LIN":"18鄰","STREET":" ","SECT":" ","MAREA":"佳里興","LANE":" ","ALLEY":" ","HOUSE_NO":"４９２號之６","E_COORD97":166791.20000000001,"N_COORD97":2565303.8100000001,"ADDRESS":"佳里興４９２號之６","OBJECTID":162499},"geometry":{"x":166791.20000000019,"y":2565303.8100000005}},{"attributes":{"ID":162501,"DIS_CODE":0,"TOWNNAME":"佳里區","LI":"興化里","LIN":"18鄰","STREET":" ","SECT":" ","MAREA":"佳里興","LANE":" ","ALLEY":" ","HOUSE_NO":"５７０號之１０","E_COORD97":166746.91,"N_COORD97":2565205.04,"ADDRESS":"佳里興５７０號之１０","OBJECTID":162500},"geometry":{"x":166746.91000000015,"y":2565205.0399999991}},{"attributes":{"ID":162502,"DIS_CODE":0,"TOWNNAME":"佳里區","LI":"興化里","LIN":"18鄰","STREET":" ","SECT":" ","MAREA":"佳里興","LANE":" ","ALLEY":" ","HOUSE_NO":"５７０號之１５","E_COORD97":166754.95999999999,"N_COORD97":2565223.9399999999,"ADDRESS":"佳里興５７０號之１５","OBJECTID":162501},"geometry":{"x":166754.95999999996,"y":2565223.9399999976}},{"attributes":{"ID":162503,"DIS_CODE":0,"TOWNNAME":"佳里區","LI":"興化里","LIN":"18鄰","STREET":" ","SECT":" ","MAREA":"佳里興","LANE":" ","ALLEY":" ","HOUSE_NO":"５７０號之１６","E_COORD97":166755.81,"N_COORD97":2565227.5299999998,"ADDRESS":"佳里興５７０號之１６","OBJECTID":162502},"geometry":{"x":166755.80999999959,"y":2565227.5300000012}},{"attributes":{"ID":162504,"DIS_CODE":0,"TOWNNAME":"佳里區","LI":"興化里","LIN":"18鄰","STREET":" ","SECT":" ","MAREA":"佳里興","LANE":" ","ALLEY":" ","HOUSE_NO":"５７０號之１７","E_COORD97":166758,"N_COORD97":2565233.21,"ADDRESS":"佳里興５７０號之１７","OBJECTID":162503},"geometry":{"x":166758,"y":2565233.2100000009}},{"attributes":{"ID":162505,"DIS_CODE":0,"TOWNNAME":"佳里區","LI":"興化里","LIN":"18鄰","STREET":" ","SECT":" ","MAREA":"佳里興","LANE":" ","ALLEY":" ","HOUSE_NO":"５７０號之１９","E_COORD97":166862,"N_COORD97":2565383.6400000001,"ADDRESS":"佳里興５７０號之１９","OBJECTID":162504},"geometry":{"x":166862,"y":2565383.6400000025}},{"attributes":{"ID":162506,"DIS_CODE":0,"TOWNNAME":"佳里區","LI":"興化里","LIN":"18鄰","STREET":" ","SECT":" ","MAREA":"佳里興","LANE":" ","ALLEY":" ","HOUSE_NO":"５７０號之１","E_COORD97":166735.26000000001,"N_COORD97":2565162.04,"ADDRESS":"佳里興５７０號之１","OBJECTID":162505},"geometry":{"x":166735.26000000071,"y":2565162.0400000028}},{"attributes":{"ID":162507,"DIS_CODE":0,"TOWNNAME":"佳里區","LI":"興化里","LIN":"18鄰","STREET":" ","SECT":" ","MAREA":"佳里興","LANE":" ","ALLEY":" ","HOUSE_NO":"５７０號之２","E_COORD97":166738.04000000001,"N_COORD97":2565173.6299999999,"ADDRESS":"佳里興５７０號之２","OBJECTID":162506},"geometry":{"x":166738.04000000004,"y":2565173.629999999}},{"attributes":{"ID":162508,"DIS_CODE":0,"TOWNNAME":"佳里區","LI":"興化里","LIN":"18鄰","STREET":" ","SECT":" ","MAREA":"佳里興","LANE":" ","ALLEY":" ","HOUSE_NO":"５７０號之３０","E_COORD97":167014.59,"N_COORD97":2565263.0600000001,"ADDRESS":"佳里興５７０號之３０","OBJECTID":162507},"geometry":{"x":167014.59000000078,"y":2565263.0600000024}},{"attributes":{"ID":162509,"DIS_CODE":0,"TOWNNAME":"下營區","LI":"賀建里","LIN":"18鄰","STREET":" ","SECT":" ","MAREA":"火燒珠","LANE":" ","ALLEY":" ","HOUSE_NO":"２９號之６","E_COORD97":176895.29999999999,"N_COORD97":2572895.8700000001,"ADDRESS":"火燒珠２９號之６","OBJECTID":162508},"geometry":{"x":176895.29999999981,"y":2572895.8700000029}},{"attributes":{"ID":162510,"DIS_CODE":0,"TOWNNAME":"下營區","LI":"賀建里","LIN":"18鄰","STREET":" ","SECT":" ","MAREA":"火燒珠","LANE":" ","ALLEY":" ","HOUSE_NO":"２９號之７","E_COORD97":176900.5,"N_COORD97":2572893.4399999999,"ADDRESS":"火燒珠２９號之７","OBJECTID":162509},"geometry":{"x":176900.5,"y":2572893.4400000032}},{"attributes":{"ID":162511,"DIS_CODE":0,"TOWNNAME":"下營區","LI":"賀建里","LIN":"18鄰","STREET":" ","SECT":" ","MAREA":"火燒珠","LANE":" ","ALLEY":" ","HOUSE_NO":"２９號之８","E_COORD97":176758.04999999999,"N_COORD97":2572888.1000000001,"ADDRESS":"火燒珠２９號之８","OBJECTID":162510},"geometry":{"x":176758.04999999981,"y":2572888.0999999996}},{"attributes":{"ID":162512,"DIS_CODE":0,"TOWNNAME":"下營區","LI":"賀建里","LIN":"18鄰","STREET":" ","SECT":" ","MAREA":"火燒珠","LANE":" ","ALLEY":" ","HOUSE_NO":"２９號之９","E_COORD97":176751.73000000001,"N_COORD97":2572888.8700000001,"ADDRESS":"火燒珠２９號之９","OBJECTID":162511},"geometry":{"x":176751.73000000138,"y":2572888.8700000029}},{"attributes":{"ID":162513,"DIS_CODE":0,"TOWNNAME":"下營區","LI":"賀建里","LIN":"18鄰","STREET":" ","SECT":" ","MAREA":"火燒珠","LANE":" ","ALLEY":" ","HOUSE_NO":"２９號","E_COORD97":176785.14999999999,"N_COORD97":2572936.1499999999,"ADDRESS":"火燒珠２９號","OBJECTID":162512},"geometry":{"x":176785.14999999944,"y":2572936.1500000004}},{"attributes":{"ID":162514,"DIS_CODE":0,"TOWNNAME":"下營區","LI":"賀建里","LIN":"18鄰","STREET":" ","SECT":" ","MAREA":"火燒珠","LANE":" ","ALLEY":" ","HOUSE_NO":"３０號之３","E_COORD97":176692.5,"N_COORD97":2572908.3999999999,"ADDRESS":"火燒珠３０號之３","OBJECTID":162513},"geometry":{"x":176692.5,"y":2572908.4000000022}},{"attributes":{"ID":162515,"DIS_CODE":0,"TOWNNAME":"下營區","LI":"賀建里","LIN":"18鄰","STREET":" ","SECT":" ","MAREA":"火燒珠","LANE":" ","ALLEY":" ","HOUSE_NO":"３０號之５","E_COORD97":176733.54000000001,"N_COORD97":2572918.5699999998,"ADDRESS":"火燒珠３０號之５","OBJECTID":162514},"geometry":{"x":176733.54000000097,"y":2572918.5700000022}},{"attributes":{"ID":162516,"DIS_CODE":0,"TOWNNAME":"下營區","LI":"賀建里","LIN":"18鄰","STREET":" ","SECT":" ","MAREA":"火燒珠","LANE":" ","ALLEY":" ","HOUSE_NO":"３０號之６","E_COORD97":176732.97,"N_COORD97":2572913.5699999998,"ADDRESS":"火燒珠３０號之６","OBJECTID":162515},"geometry":{"x":176732.96999999974,"y":2572913.570000004}},{"attributes":{"ID":162517,"DIS_CODE":0,"TOWNNAME":"下營區","LI":"賀建里","LIN":"18鄰","STREET":" ","SECT":" ","MAREA":"火燒珠","LANE":" ","ALLEY":" ","HOUSE_NO":"３０號之７","E_COORD97":176732.79999999999,"N_COORD97":2572909.7400000002,"ADDRESS":"火燒珠３０號之７","OBJECTID":162516},"geometry":{"x":176732.80000000168,"y":2572909.7400000021}},{"attributes":{"ID":162518,"DIS_CODE":0,"TOWNNAME":"下營區","LI":"賀建里","LIN":"18鄰","STREET":" ","SECT":" ","MAREA":"火燒珠","LANE":" ","ALLEY":" ","HOUSE_NO":"３０號之８","E_COORD97":176732.92000000001,"N_COORD97":2572904.2400000002,"ADDRESS":"火燒珠３０號之８","OBJECTID":162517},"geometry":{"x":176732.92000000086,"y":2572904.2400000002}},{"attributes":{"ID":162519,"DIS_CODE":0,"TOWNNAME":"下營區","LI":"賀建里","LIN":"18鄰","STREET":" ","SECT":" ","MAREA":"火燒珠","LANE":" ","ALLEY":" ","HOUSE_NO":"３０號之９","E_COORD97":176732.62,"N_COORD97":2572899,"ADDRESS":"火燒珠３０號之９","OBJECTID":162518},"geometry":{"x":176732.62000000197,"y":2572899}},{"attributes":{"ID":162520,"DIS_CODE":0,"TOWNNAME":"下營區","LI":"賀建里","LIN":"18鄰","STREET":" ","SECT":" ","MAREA":"火燒珠","LANE":" ","ALLEY":" ","HOUSE_NO":"３０號","E_COORD97":176716.34,"N_COORD97":2572817.4700000002,"ADDRESS":"火燒珠３０號","OBJECTID":162519},"geometry":{"x":176716.34000000078,"y":2572817.4700000025}},{"attributes":{"ID":162521,"DIS_CODE":0,"TOWNNAME":"東區","LI":"崇信里","LIN":"24鄰","STREET":"崇善一街","SECT":" ","MAREA":" ","LANE":" ","ALLEY":" ","HOUSE_NO":"８０號十一樓","E_COORD97":170834.92000000001,"N_COORD97":2542294.98,"ADDRESS":"崇善一街８０號十一樓","OBJECTID":162520},"geometry":{"x":170834.92000000086,"y":2542294.9800000004}},{"attributes":{"ID":162522,"DIS_CODE":0,"TOWNNAME":"下營區","LI":"紅厝里","LIN":"18鄰","STREET":" ","SECT":" ","MAREA":"紅毛厝","LANE":" ","ALLEY":" ","HOUSE_NO":"１３２號之５","E_COORD97":175153.69,"N_COORD97":2571487.4700000002,"ADDRESS":"紅毛厝１３２號之５","OBJECTID":162521},"geometry":{"x":175153.69000000041,"y":2571487.4700000044}},{"attributes":{"ID":162523,"DIS_CODE":0,"TOWNNAME":"下營區","LI":"紅厝里","LIN":"18鄰","STREET":" ","SECT":" ","MAREA":"紅毛厝","LANE":" ","ALLEY":" ","HOUSE_NO":"１３２號之６","E_COORD97":175153.10000000001,"N_COORD97":2571491.4900000002,"ADDRESS":"紅毛厝１３２號之６","OBJECTID":162522},"geometry":{"x":175153.10000000056,"y":2571491.4900000021}},{"attributes":{"ID":162524,"DIS_CODE":0,"TOWNNAME":"下營區","LI":"紅厝里","LIN":"18鄰","STREET":" ","SECT":" ","MAREA":"紅毛厝","LANE":" ","ALLEY":" ","HOUSE_NO":"１３２號之７","E_COORD97":175152.45000000001,"N_COORD97":2571495.8399999999,"ADDRESS":"紅毛厝１３２號之７","OBJECTID":162523},"geometry":{"x":175152.45000000112,"y":2571495.8399999999}},{"attributes":{"ID":162525,"DIS_CODE":0,"TOWNNAME":"下營區","LI":"紅厝里","LIN":"18鄰","STREET":" ","SECT":" ","MAREA":"紅毛厝","LANE":" ","ALLEY":" ","HOUSE_NO":"１３２號之８","E_COORD97":175151.37,"N_COORD97":2571499.1800000002,"ADDRESS":"紅毛厝１３２號之８","OBJECTID":162524},"geometry":{"x":175151.37000000104,"y":2571499.1800000016}},{"attributes":{"ID":162526,"DIS_CODE":0,"TOWNNAME":"下營區","LI":"紅厝里","LIN":"18鄰","STREET":" ","SECT":" ","MAREA":"紅毛厝","LANE":" ","ALLEY":" ","HOUSE_NO":"１３２號","E_COORD97":175159.70000000001,"N_COORD97":2571454,"ADDRESS":"紅毛厝１３２號","OBJECTID":162525},"geometry":{"x":175159.70000000112,"y":2571454.0000000019}},{"attributes":{"ID":162527,"DIS_CODE":0,"TOWNNAME":"下營區","LI":"紅厝里","LIN":"18鄰","STREET":" ","SECT":" ","MAREA":"紅毛厝","LANE":" ","ALLEY":" ","HOUSE_NO":"１３３號","E_COORD97":175150.97,"N_COORD97":2571528.1099999999,"ADDRESS":"紅毛厝１３３號","OBJECTID":162526},"geometry":{"x":175150.96999999974,"y":2571528.1099999994}},{"attributes":{"ID":162528,"DIS_CODE":0,"TOWNNAME":"下營區","LI":"紅厝里","LIN":"18鄰","STREET":" ","SECT":" ","MAREA":"紅毛厝","LANE":" ","ALLEY":" ","HOUSE_NO":"１３４號之１","E_COORD97":175176.22,"N_COORD97":2571524.52,"ADDRESS":"紅毛厝１３４號之１","OBJECTID":162527},"geometry":{"x":175176.22000000067,"y":2571524.5200000014}},{"attributes":{"ID":162529,"DIS_CODE":0,"TOWNNAME":"下營區","LI":"紅厝里","LIN":"18鄰","STREET":" ","SECT":" ","MAREA":"紅毛厝","LANE":" ","ALLEY":" ","HOUSE_NO":"１３４號","E_COORD97":175219.67000000001,"N_COORD97":2571384.7400000002,"ADDRESS":"紅毛厝１３４號","OBJECTID":162528},"geometry":{"x":175219.66999999993,"y":2571384.7400000021}},{"attributes":{"ID":162530,"DIS_CODE":0,"TOWNNAME":"下營區","LI":"紅厝里","LIN":"18鄰","STREET":" ","SECT":" ","MAREA":"紅毛厝","LANE":" ","ALLEY":" ","HOUSE_NO":"１３５之１０號","E_COORD97":175363.54000000001,"N_COORD97":2571495.54,"ADDRESS":"紅毛厝１３５之１０號","OBJECTID":162529},"geometry":{"x":175363.54000000097,"y":2571495.5400000028}},{"attributes":{"ID":162531,"DIS_CODE":0,"TOWNNAME":"下營區","LI":"紅厝里","LIN":"18鄰","STREET":" ","SECT":" ","MAREA":"紅毛厝","LANE":" ","ALLEY":" ","HOUSE_NO":"１３５號之１","E_COORD97":175253.51000000001,"N_COORD97":2571516.3799999999,"ADDRESS":"紅毛厝１３５號之１","OBJECTID":162530},"geometry":{"x":175253.51000000071,"y":2571516.3799999971}},{"attributes":{"ID":162532,"DIS_CODE":0,"TOWNNAME":"下營區","LI":"紅厝里","LIN":"18鄰","STREET":" ","SECT":" ","MAREA":"紅毛厝","LANE":" ","ALLEY":" ","HOUSE_NO":"１３５號之２","E_COORD97":175249.81,"N_COORD97":2571508.46,"ADDRESS":"紅毛厝１３５號之２","OBJECTID":162531},"geometry":{"x":175249.81000000052,"y":2571508.4600000028}},{"attributes":{"ID":162533,"DIS_CODE":0,"TOWNNAME":"下營區","LI":"紅厝里","LIN":"18鄰","STREET":" ","SECT":" ","MAREA":"紅毛厝","LANE":" ","ALLEY":" ","HOUSE_NO":"１３５號之３","E_COORD97":175233.04000000001,"N_COORD97":2571515.52,"ADDRESS":"紅毛厝１３５號之３","OBJECTID":162532},"geometry":{"x":175233.04000000097,"y":2571515.5199999996}},{"attributes":{"ID":162534,"DIS_CODE":0,"TOWNNAME":"下營區","LI":"紅厝里","LIN":"18鄰","STREET":" ","SECT":" ","MAREA":"紅毛厝","LANE":" ","ALLEY":" ","HOUSE_NO":"１３５號之６","E_COORD97":175297.25,"N_COORD97":2571500.2999999998,"ADDRESS":"紅毛厝１３５號之６","OBJECTID":162533},"geometry":{"x":175297.25,"y":2571500.3000000026}},{"attributes":{"ID":162535,"DIS_CODE":0,"TOWNNAME":"永康區","LI":"復華里","LIN":"21鄰","STREET":"國華街","SECT":" ","MAREA":" ","LANE":"１３２巷","ALLEY":"１０弄","HOUSE_NO":"１８號","E_COORD97":172896.94335300001,"N_COORD97":2546350.7885599998,"ADDRESS":"國華街１３２巷１０弄１８號","OBJECTID":162534},"geometry":{"x":172896.94335300103,"y":2546350.7885630019}},{"attributes":{"ID":162536,"DIS_CODE":0,"TOWNNAME":"下營區","LI":"紅厝里","LIN":"18鄰","STREET":" ","SECT":" ","MAREA":"紅毛厝","LANE":" ","ALLEY":" ","HOUSE_NO":"１３５號","E_COORD97":175312,"N_COORD97":2571512.79,"ADDRESS":"紅毛厝１３５號","OBJECTID":162535},"geometry":{"x":175312,"y":2571512.7899999991}},{"attributes":{"ID":162537,"DIS_CODE":0,"TOWNNAME":"下營區","LI":"紅厝里","LIN":"18鄰","STREET":" ","SECT":" ","MAREA":"紅毛厝","LANE":" ","ALLEY":" ","HOUSE_NO":"１３６號之２","E_COORD97":175564.79999999999,"N_COORD97":2571544.1800000002,"ADDRESS":"紅毛厝１３６號之２","OBJECTID":162536},"geometry":{"x":175564.80000000168,"y":2571544.1799999997}},{"attributes":{"ID":162538,"DIS_CODE":0,"TOWNNAME":"下營區","LI":"紅厝里","LIN":"18鄰","STREET":" ","SECT":" ","MAREA":"紅毛厝","LANE":" ","ALLEY":" ","HOUSE_NO":"１３６號之６","E_COORD97":175608.32999999999,"N_COORD97":2571529.27,"ADDRESS":"紅毛厝１３６號之６","OBJECTID":162537},"geometry":{"x":175608.33000000007,"y":2571529.2700000014}},{"attributes":{"ID":162539,"DIS_CODE":0,"TOWNNAME":"下營區","LI":"紅厝里","LIN":"18鄰","STREET":" ","SECT":" ","MAREA":"紅毛厝","LANE":" ","ALLEY":" ","HOUSE_NO":"１３６號","E_COORD97":175548.56,"N_COORD97":2571547.0600000001,"ADDRESS":"紅毛厝１３６號","OBJECTID":162538},"geometry":{"x":175548.55999999959,"y":2571547.0600000005}},{"attributes":{"ID":162540,"DIS_CODE":0,"TOWNNAME":"下營區","LI":"紅厝里","LIN":"18鄰","STREET":" ","SECT":" ","MAREA":"紅毛厝","LANE":" ","ALLEY":" ","HOUSE_NO":"１３７號","E_COORD97":175260.54000000001,"N_COORD97":2571470.73,"ADDRESS":"紅毛厝１３７號","OBJECTID":162539},"geometry":{"x":175260.54000000097,"y":2571470.7300000004}},{"attributes":{"ID":162541,"DIS_CODE":0,"TOWNNAME":"下營區","LI":"紅厝里","LIN":"18鄰","STREET":" ","SECT":" ","MAREA":"紅毛厝","LANE":" ","ALLEY":" ","HOUSE_NO":"１３８號之１０","E_COORD97":175356.89000000001,"N_COORD97":2571552.8399999999,"ADDRESS":"紅毛厝１３８號之１０","OBJECTID":162540},"geometry":{"x":175356.88999999966,"y":2571552.8400000017}},{"attributes":{"ID":162542,"DIS_CODE":0,"TOWNNAME":"下營區","LI":"紅厝里","LIN":"18鄰","STREET":" ","SECT":" ","MAREA":"紅毛厝","LANE":" ","ALLEY":" ","HOUSE_NO":"１３８號之５","E_COORD97":175487.92000000001,"N_COORD97":2571507.8100000001,"ADDRESS":"紅毛厝１３８號之５","OBJECTID":162541},"geometry":{"x":175487.92000000179,"y":2571507.8100000005}},{"attributes":{"ID":162543,"DIS_CODE":0,"TOWNNAME":"下營區","LI":"紅厝里","LIN":"18鄰","STREET":" ","SECT":" ","MAREA":"紅毛厝","LANE":" ","ALLEY":" ","HOUSE_NO":"１３８號","E_COORD97":175529.59,"N_COORD97":2571543.2000000002,"ADDRESS":"紅毛厝１３８號","OBJECTID":162542},"geometry":{"x":175529.59000000078,"y":2571543.2000000011}},{"attributes":{"ID":162544,"DIS_CODE":0,"TOWNNAME":"下營區","LI":"紅厝里","LIN":"18鄰","STREET":" ","SECT":" ","MAREA":"紅毛厝","LANE":" ","ALLEY":" ","HOUSE_NO":"１３９號之１０","E_COORD97":175553.67999999999,"N_COORD97":2571407.9399999999,"ADDRESS":"紅毛厝１３９號之１０","OBJECTID":162543},"geometry":{"x":175553.68000000156,"y":2571407.9399999976}},{"attributes":{"ID":162545,"DIS_CODE":0,"TOWNNAME":"下營區","LI":"紅厝里","LIN":"18鄰","STREET":" ","SECT":" ","MAREA":"紅毛厝","LANE":" ","ALLEY":" ","HOUSE_NO":"１３９號","E_COORD97":175798.56,"N_COORD97":2571500.2799999998,"ADDRESS":"紅毛厝１３９號","OBJECTID":162544},"geometry":{"x":175798.56000000145,"y":2571500.2799999993}},{"attributes":{"ID":162546,"DIS_CODE":0,"TOWNNAME":"將軍區","LI":"西和里","LIN":"18鄰","STREET":" ","SECT":" ","MAREA":"西湖","LANE":" ","ALLEY":" ","HOUSE_NO":"３５之１號","E_COORD97":163180.60000000001,"N_COORD97":2566112.3900000001,"ADDRESS":"西湖３５之１號","OBJECTID":162545},"geometry":{"x":163180.59999999963,"y":2566112.3900000006}},{"attributes":{"ID":162547,"DIS_CODE":0,"TOWNNAME":"將軍區","LI":"西和里","LIN":"18鄰","STREET":" ","SECT":" ","MAREA":"西湖","LANE":" ","ALLEY":" ","HOUSE_NO":"３５號","E_COORD97":163197.5,"N_COORD97":2566115.1600000001,"ADDRESS":"西湖３５號","OBJECTID":162546},"geometry":{"x":163197.50000000093,"y":2566115.1600000039}},{"attributes":{"ID":162548,"DIS_CODE":0,"TOWNNAME":"將軍區","LI":"西和里","LIN":"18鄰","STREET":" ","SECT":" ","MAREA":"西湖","LANE":" ","ALLEY":" ","HOUSE_NO":"３６號","E_COORD97":163166.94,"N_COORD97":2566113.2999999998,"ADDRESS":"西湖３６號","OBJECTID":162547},"geometry":{"x":163166.94000000041,"y":2566113.3000000007}},{"attributes":{"ID":162549,"DIS_CODE":0,"TOWNNAME":"將軍區","LI":"西和里","LIN":"18鄰","STREET":" ","SECT":" ","MAREA":"西湖","LANE":" ","ALLEY":" ","HOUSE_NO":"３７號","E_COORD97":163165.31,"N_COORD97":2566127.8500000001,"ADDRESS":"西湖３７號","OBJECTID":162548},"geometry":{"x":163165.30999999959,"y":2566127.8500000015}},{"attributes":{"ID":162550,"DIS_CODE":0,"TOWNNAME":"將軍區","LI":"西和里","LIN":"18鄰","STREET":" ","SECT":" ","MAREA":"西湖","LANE":" ","ALLEY":" ","HOUSE_NO":"３８號","E_COORD97":163157.14000000001,"N_COORD97":2566153.48,"ADDRESS":"西湖３８號","OBJECTID":162549},"geometry":{"x":163157.1400000006,"y":2566153.4800000004}},{"attributes":{"ID":162551,"DIS_CODE":0,"TOWNNAME":"將軍區","LI":"西和里","LIN":"18鄰","STREET":" ","SECT":" ","MAREA":"西湖","LANE":" ","ALLEY":" ","HOUSE_NO":"３９號","E_COORD97":163114.70000000001,"N_COORD97":2566167.4700000002,"ADDRESS":"西湖３９號","OBJECTID":162550},"geometry":{"x":163114.70000000205,"y":2566167.4699999988}},{"attributes":{"ID":162552,"DIS_CODE":0,"TOWNNAME":"將軍區","LI":"西和里","LIN":"18鄰","STREET":" ","SECT":" ","MAREA":"西湖","LANE":" ","ALLEY":" ","HOUSE_NO":"４１之２號","E_COORD97":163137.07000000001,"N_COORD97":2566118.4100000001,"ADDRESS":"西湖４１之２號","OBJECTID":162551},"geometry":{"x":163137.0700000003,"y":2566118.410000002}},{"attributes":{"ID":162553,"DIS_CODE":0,"TOWNNAME":"將軍區","LI":"西和里","LIN":"18鄰","STREET":" ","SECT":" ","MAREA":"西湖","LANE":" ","ALLEY":" ","HOUSE_NO":"４１號","E_COORD97":163139.03,"N_COORD97":2566145.02,"ADDRESS":"西湖４１號","OBJECTID":162552},"geometry":{"x":163139.03000000026,"y":2566145.0199999996}},{"attributes":{"ID":162554,"DIS_CODE":0,"TOWNNAME":"永康區","LI":"二王里","LIN":"12鄰","STREET":"永二街","SECT":" ","MAREA":" ","LANE":" ","ALLEY":" ","HOUSE_NO":"４２５號四樓之３","E_COORD97":172780.82999999999,"N_COORD97":2546590.2000000002,"ADDRESS":"永二街４２５號四樓之３","OBJECTID":162553},"geometry":{"x":172780.83000000007,"y":2546590.2000000011}},{"attributes":{"ID":162555,"DIS_CODE":0,"TOWNNAME":"永康區","LI":"復興里","LIN":"24鄰","STREET":"復興路","SECT":" ","MAREA":" ","LANE":"３５６巷","ALLEY":"８０弄","HOUSE_NO":"６５號","E_COORD97":172429.92000000001,"N_COORD97":2544591.27,"ADDRESS":"復興路３５６巷８０弄６５號","OBJECTID":162554},"geometry":{"x":172429.92000000086,"y":2544591.2699999977}},{"attributes":{"ID":162556,"DIS_CODE":0,"TOWNNAME":"永康區","LI":"復興里","LIN":"18鄰","STREET":"復興路","SECT":" ","MAREA":" ","LANE":"３５６巷","ALLEY":"７１弄","HOUSE_NO":"１４號","E_COORD97":172314.45000000001,"N_COORD97":2544519.27,"ADDRESS":"復興路３５６巷７１弄１４號","OBJECTID":162555},"geometry":{"x":172314.45000000205,"y":2544519.2699999996}},{"attributes":{"ID":162557,"DIS_CODE":0,"TOWNNAME":"將軍區","LI":"西和里","LIN":"18鄰","STREET":" ","SECT":" ","MAREA":"西湖","LANE":" ","ALLEY":" ","HOUSE_NO":"４２之１號","E_COORD97":163116.45000000001,"N_COORD97":2566128.3199999998,"ADDRESS":"西湖４２之１號","OBJECTID":162556},"geometry":{"x":163116.45000000205,"y":2566128.3200000022}},{"attributes":{"ID":162558,"DIS_CODE":0,"TOWNNAME":"將軍區","LI":"西和里","LIN":"18鄰","STREET":" ","SECT":" ","MAREA":"西湖","LANE":" ","ALLEY":" ","HOUSE_NO":"４２號","E_COORD97":163116.73999999999,"N_COORD97":2566137.1400000001,"ADDRESS":"西湖４２號","OBJECTID":162557},"geometry":{"x":163116.74000000115,"y":2566137.1400000025}},{"attributes":{"ID":162559,"DIS_CODE":0,"TOWNNAME":"將軍區","LI":"西和里","LIN":"18鄰","STREET":" ","SECT":" ","MAREA":"西湖","LANE":" ","ALLEY":" ","HOUSE_NO":"４３號","E_COORD97":163118.35000000001,"N_COORD97":2566114.5600000001,"ADDRESS":"西湖４３號","OBJECTID":162558},"geometry":{"x":163118.35000000056,"y":2566114.5600000005}},{"attributes":{"ID":162560,"DIS_CODE":0,"TOWNNAME":"將軍區","LI":"苓和里","LIN":"18鄰","STREET":" ","SECT":" ","MAREA":"忠寮","LANE":" ","ALLEY":" ","HOUSE_NO":"５４號","E_COORD97":164272.51000000001,"N_COORD97":2569137.1800000002,"ADDRESS":"忠寮５４號","OBJECTID":162559},"geometry":{"x":164272.51000000071,"y":2569137.1799999997}},{"attributes":{"ID":162561,"DIS_CODE":0,"TOWNNAME":"將軍區","LI":"苓和里","LIN":"18鄰","STREET":" ","SECT":" ","MAREA":"忠寮","LANE":" ","ALLEY":" ","HOUSE_NO":"５５號","E_COORD97":164286.97,"N_COORD97":2569149.6499999999,"ADDRESS":"忠寮５５號","OBJECTID":162560},"geometry":{"x":164286.96999999974,"y":2569149.6500000041}},{"attributes":{"ID":162562,"DIS_CODE":0,"TOWNNAME":"永康區","LI":"網寮里","LIN":"18鄰","STREET":"永二街","SECT":" ","MAREA":" ","LANE":"１９３巷","ALLEY":"２弄","HOUSE_NO":"１１號","E_COORD97":173454.23999999999,"N_COORD97":2546285,"ADDRESS":"永二街１９３巷２弄１１號","OBJECTID":162561},"geometry":{"x":173454.24000000115,"y":2546285}},{"attributes":{"ID":162563,"DIS_CODE":0,"TOWNNAME":"中西區","LI":"大涼里","LIN":"12鄰","STREET":"金城街","SECT":" ","MAREA":" ","LANE":" ","ALLEY":" ","HOUSE_NO":"１號二樓","E_COORD97":167014.64000000001,"N_COORD97":2543678.7999999998,"ADDRESS":"金城街１號二樓","OBJECTID":162562},"geometry":{"x":167014.63999999966,"y":2543678.8000000026}},{"attributes":{"ID":162564,"DIS_CODE":0,"TOWNNAME":"將軍區","LI":"苓和里","LIN":"18鄰","STREET":" ","SECT":" ","MAREA":"忠寮","LANE":" ","ALLEY":" ","HOUSE_NO":"６１號","E_COORD97":164307.78,"N_COORD97":2569109.5099999998,"ADDRESS":"忠寮６１號","OBJECTID":162563},"geometry":{"x":164307.78000000212,"y":2569109.5100000035}},{"attributes":{"ID":162565,"DIS_CODE":0,"TOWNNAME":"將軍區","LI":"嘉昌里","LIN":"18鄰","STREET":" ","SECT":" ","MAREA":"昌平","LANE":" ","ALLEY":" ","HOUSE_NO":"５６號","E_COORD97":163504.57000000001,"N_COORD97":2567398.3399999999,"ADDRESS":"昌平５６號","OBJECTID":162564},"geometry":{"x":163504.57000000123,"y":2567398.3400000036}},{"attributes":{"ID":162566,"DIS_CODE":0,"TOWNNAME":"永康區","LI":"網寮里","LIN":"18鄰","STREET":"永二街","SECT":" ","MAREA":" ","LANE":"１９３巷","ALLEY":"１弄","HOUSE_NO":"６號","E_COORD97":173476.01000000001,"N_COORD97":2546316.7599999998,"ADDRESS":"永二街１９３巷１弄６號","OBJECTID":162565},"geometry":{"x":173476.00999999978,"y":2546316.7599999998}},{"attributes":{"ID":162567,"DIS_CODE":0,"TOWNNAME":"將軍區","LI":"忠興里","LIN":"18鄰","STREET":" ","SECT":" ","MAREA":"忠興","LANE":" ","ALLEY":" ","HOUSE_NO":"１８０之１０號","E_COORD97":163963.57000000001,"N_COORD97":2566809.0800000001,"ADDRESS":"忠興１８０之１０號","OBJECTID":162566},"geometry":{"x":163963.57000000123,"y":2566809.0800000001}},{"attributes":{"ID":162568,"DIS_CODE":0,"TOWNNAME":"將軍區","LI":"忠興里","LIN":"18鄰","STREET":" ","SECT":" ","MAREA":"忠興","LANE":" ","ALLEY":" ","HOUSE_NO":"１８０之１１號","E_COORD97":163938.48999999999,"N_COORD97":2566845.6299999999,"ADDRESS":"忠興１８０之１１號","OBJECTID":162567},"geometry":{"x":163938.49000000115,"y":2566845.629999999}},{"attributes":{"ID":162569,"DIS_CODE":0,"TOWNNAME":"將軍區","LI":"忠興里","LIN":"18鄰","STREET":" ","SECT":" ","MAREA":"忠興","LANE":" ","ALLEY":" ","HOUSE_NO":"１８０之１２號","E_COORD97":163938.67999999999,"N_COORD97":2566841.02,"ADDRESS":"忠興１８０之１２號","OBJECTID":162568},"geometry":{"x":163938.68000000063,"y":2566841.0200000033}},{"attributes":{"ID":162570,"DIS_CODE":0,"TOWNNAME":"將軍區","LI":"忠興里","LIN":"18鄰","STREET":" ","SECT":" ","MAREA":"忠興","LANE":" ","ALLEY":" ","HOUSE_NO":"１８０之１３號","E_COORD97":163939.67999999999,"N_COORD97":2566836.04,"ADDRESS":"忠興１８０之１３號","OBJECTID":162569},"geometry":{"x":163939.6799999997,"y":2566836.0399999991}},{"attributes":{"ID":162571,"DIS_CODE":0,"TOWNNAME":"永康區","LI":"復華里","LIN":"21鄰","STREET":"國華街","SECT":" ","MAREA":" ","LANE":"１３２巷","ALLEY":"１０弄","HOUSE_NO":"１５號","E_COORD97":172898.02030400001,"N_COORD97":2546358.3200699999,"ADDRESS":"國華街１３２巷１０弄１５號","OBJECTID":162570},"geometry":{"x":172898.02030400094,"y":2546358.3200710043}},{"attributes":{"ID":162572,"DIS_CODE":0,"TOWNNAME":"將軍區","LI":"忠興里","LIN":"18鄰","STREET":" ","SECT":" ","MAREA":"忠興","LANE":" ","ALLEY":" ","HOUSE_NO":"１８０之１４號","E_COORD97":163940.10000000001,"N_COORD97":2566831.6800000002,"ADDRESS":"忠興１８０之１４號","OBJECTID":162571},"geometry":{"x":163940.09999999963,"y":2566831.6799999997}},{"attributes":{"ID":162573,"DIS_CODE":0,"TOWNNAME":"將軍區","LI":"忠興里","LIN":"18鄰","STREET":" ","SECT":" ","MAREA":"忠興","LANE":" ","ALLEY":" ","HOUSE_NO":"１８０之１５號","E_COORD97":163940.42999999999,"N_COORD97":2566827.4500000002,"ADDRESS":"忠興１８０之１５號","OBJECTID":162572},"geometry":{"x":163940.43000000063,"y":2566827.450000003}},{"attributes":{"ID":162574,"DIS_CODE":0,"TOWNNAME":"將軍區","LI":"忠興里","LIN":"18鄰","STREET":" ","SECT":" ","MAREA":"忠興","LANE":" ","ALLEY":" ","HOUSE_NO":"１８０之１６號","E_COORD97":163940.73999999999,"N_COORD97":2566822.8799999999,"ADDRESS":"忠興１８０之１６號","OBJECTID":162573},"geometry":{"x":163940.74000000115,"y":2566822.879999999}},{"attributes":{"ID":162575,"DIS_CODE":0,"TOWNNAME":"將軍區","LI":"忠興里","LIN":"18鄰","STREET":" ","SECT":" ","MAREA":"忠興","LANE":" ","ALLEY":" ","HOUSE_NO":"１８０之１７號","E_COORD97":163941.41,"N_COORD97":2566818.5099999998,"ADDRESS":"忠興１８０之１７號","OBJECTID":162574},"geometry":{"x":163941.41000000015,"y":2566818.5100000016}},{"attributes":{"ID":162576,"DIS_CODE":0,"TOWNNAME":"將軍區","LI":"忠興里","LIN":"18鄰","STREET":" ","SECT":" ","MAREA":"忠興","LANE":" ","ALLEY":" ","HOUSE_NO":"１８０之１號","E_COORD97":163960.82000000001,"N_COORD97":2566847.3300000001,"ADDRESS":"忠興１８０之１號","OBJECTID":162575},"geometry":{"x":163960.8200000003,"y":2566847.3300000019}},{"attributes":{"ID":162577,"DIS_CODE":0,"TOWNNAME":"將軍區","LI":"忠興里","LIN":"18鄰","STREET":" ","SECT":" ","MAREA":"忠興","LANE":" ","ALLEY":" ","HOUSE_NO":"１８０之２１號","E_COORD97":163963.67000000001,"N_COORD97":2566804.6699999999,"ADDRESS":"忠興１８０之２１號","OBJECTID":162576},"geometry":{"x":163963.66999999993,"y":2566804.6699999999}},{"attributes":{"ID":162578,"DIS_CODE":0,"TOWNNAME":"將軍區","LI":"忠興里","LIN":"18鄰","STREET":" ","SECT":" ","MAREA":"忠興","LANE":" ","ALLEY":" ","HOUSE_NO":"１８０之２２號","E_COORD97":163964.01999999999,"N_COORD97":2566800.7999999998,"ADDRESS":"忠興１８０之２２號","OBJECTID":162577},"geometry":{"x":163964.01999999955,"y":2566800.8000000026}},{"attributes":{"ID":162579,"DIS_CODE":0,"TOWNNAME":"將軍區","LI":"忠興里","LIN":"18鄰","STREET":" ","SECT":" ","MAREA":"忠興","LANE":" ","ALLEY":" ","HOUSE_NO":"１８０之２３號","E_COORD97":163964.39999999999,"N_COORD97":2566796.3500000001,"ADDRESS":"忠興１８０之２３號","OBJECTID":162578},"geometry":{"x":163964.39999999944,"y":2566796.3499999996}},{"attributes":{"ID":162580,"DIS_CODE":0,"TOWNNAME":"將軍區","LI":"忠興里","LIN":"18鄰","STREET":" ","SECT":" ","MAREA":"忠興","LANE":" ","ALLEY":" ","HOUSE_NO":"１８０之２４號","E_COORD97":163965.29000000001,"N_COORD97":2566792.0899999999,"ADDRESS":"忠興１８０之２４號","OBJECTID":162579},"geometry":{"x":163965.29000000097,"y":2566792.0899999999}},{"attributes":{"ID":162581,"DIS_CODE":0,"TOWNNAME":"將軍區","LI":"忠興里","LIN":"18鄰","STREET":" ","SECT":" ","MAREA":"忠興","LANE":" ","ALLEY":" ","HOUSE_NO":"１８０之２５號","E_COORD97":163965.92999999999,"N_COORD97":2566786.8100000001,"ADDRESS":"忠興１８０之２５號","OBJECTID":162580},"geometry":{"x":163965.93000000063,"y":2566786.8100000024}},{"attributes":{"ID":162582,"DIS_CODE":0,"TOWNNAME":"將軍區","LI":"忠興里","LIN":"18鄰","STREET":" ","SECT":" ","MAREA":"忠興","LANE":" ","ALLEY":" ","HOUSE_NO":"１８０之２７號","E_COORD97":163984.53,"N_COORD97":2566795.9700000002,"ADDRESS":"忠興１８０之２７號","OBJECTID":162581},"geometry":{"x":163984.53000000119,"y":2566795.9700000025}},{"attributes":{"ID":162583,"DIS_CODE":0,"TOWNNAME":"將軍區","LI":"忠興里","LIN":"18鄰","STREET":" ","SECT":" ","MAREA":"忠興","LANE":" ","ALLEY":" ","HOUSE_NO":"１８０之２８號","E_COORD97":163989.12,"N_COORD97":2566796.0099999998,"ADDRESS":"忠興１８０之２８號","OBJECTID":162582},"geometry":{"x":163989.12000000011,"y":2566796.0099999998}},{"attributes":{"ID":162584,"DIS_CODE":0,"TOWNNAME":"將軍區","LI":"忠興里","LIN":"18鄰","STREET":" ","SECT":" ","MAREA":"忠興","LANE":" ","ALLEY":" ","HOUSE_NO":"１８０之２９號","E_COORD97":163967,"N_COORD97":2566767.1699999999,"ADDRESS":"忠興１８０之２９號","OBJECTID":162583},"geometry":{"x":163967.00000000093,"y":2566767.1700000018}},{"attributes":{"ID":162585,"DIS_CODE":0,"TOWNNAME":"永康區","LI":"復興里","LIN":"24鄰","STREET":"復興路","SECT":" ","MAREA":" ","LANE":"３５６巷","ALLEY":"８０弄","HOUSE_NO":"３９號","E_COORD97":172398.34,"N_COORD97":2544555.0299999998,"ADDRESS":"復興路３５６巷８０弄３９號","OBJECTID":162584},"geometry":{"x":172398.34000000078,"y":2544555.0299999993}},{"attributes":{"ID":162586,"DIS_CODE":0,"TOWNNAME":"將軍區","LI":"忠興里","LIN":"18鄰","STREET":" ","SECT":" ","MAREA":"忠興","LANE":" ","ALLEY":" ","HOUSE_NO":"１８０之２號","E_COORD97":163961.10999999999,"N_COORD97":2566842.73,"ADDRESS":"忠興１８０之２號","OBJECTID":162585},"geometry":{"x":163961.11000000034,"y":2566842.7300000004}},{"attributes":{"ID":162587,"DIS_CODE":0,"TOWNNAME":"將軍區","LI":"忠興里","LIN":"18鄰","STREET":" ","SECT":" ","MAREA":"忠興","LANE":" ","ALLEY":" ","HOUSE_NO":"１８０之３０號","E_COORD97":163967.35999999999,"N_COORD97":2566761.6200000001,"ADDRESS":"忠興１８０之３０號","OBJECTID":162586},"geometry":{"x":163967.36000000034,"y":2566761.6200000029}},{"attributes":{"ID":162588,"DIS_CODE":0,"TOWNNAME":"將軍區","LI":"忠興里","LIN":"18鄰","STREET":" ","SECT":" ","MAREA":"忠興","LANE":" ","ALLEY":" ","HOUSE_NO":"１８１號","E_COORD97":163951.47,"N_COORD97":2566894.4700000002,"ADDRESS":"忠興１８１號","OBJECTID":162587},"geometry":{"x":163951.4700000016,"y":2566894.4700000025}},{"attributes":{"ID":162589,"DIS_CODE":0,"TOWNNAME":"永康區","LI":"復華里","LIN":"39鄰","STREET":"復華七街","SECT":" ","MAREA":" ","LANE":"３２巷","ALLEY":"１弄","HOUSE_NO":"３號","E_COORD97":172707.62,"N_COORD97":2545970.0699999998,"ADDRESS":"復華七街３２巷１弄３號","OBJECTID":162588},"geometry":{"x":172707.62000000011,"y":2545970.070000004}},{"attributes":{"ID":162590,"DIS_CODE":0,"TOWNNAME":"將軍區","LI":"忠興里","LIN":"18鄰","STREET":" ","SECT":" ","MAREA":"忠興","LANE":" ","ALLEY":" ","HOUSE_NO":"１８０之３１號","E_COORD97":163967.84,"N_COORD97":2566757.6200000001,"ADDRESS":"忠興１８０之３１號","OBJECTID":162589},"geometry":{"x":163967.84000000171,"y":2566757.6200000029}},{"attributes":{"ID":162591,"DIS_CODE":0,"TOWNNAME":"將軍區","LI":"忠興里","LIN":"18鄰","STREET":" ","SECT":" ","MAREA":"忠興","LANE":" ","ALLEY":" ","HOUSE_NO":"１８０之３２號","E_COORD97":163968.26000000001,"N_COORD97":2566753.5299999998,"ADDRESS":"忠興１８０之３２號","OBJECTID":162590},"geometry":{"x":163968.26000000164,"y":2566753.5300000012}},{"attributes":{"ID":162592,"DIS_CODE":0,"TOWNNAME":"將軍區","LI":"忠興里","LIN":"18鄰","STREET":" ","SECT":" ","MAREA":"忠興","LANE":" ","ALLEY":" ","HOUSE_NO":"１８０之３３號","E_COORD97":163968.57000000001,"N_COORD97":2566749.2999999998,"ADDRESS":"忠興１８０之３３號","OBJECTID":162591},"geometry":{"x":163968.57000000123,"y":2566749.3000000026}},{"attributes":{"ID":162593,"DIS_CODE":0,"TOWNNAME":"將軍區","LI":"忠興里","LIN":"18鄰","STREET":" ","SECT":" ","MAREA":"忠興","LANE":" ","ALLEY":" ","HOUSE_NO":"１８０之３４號","E_COORD97":163969.53,"N_COORD97":2566745.0800000001,"ADDRESS":"忠興１８０之３４號","OBJECTID":162592},"geometry":{"x":163969.53000000026,"y":2566745.0800000001}},{"attributes":{"ID":162594,"DIS_CODE":0,"TOWNNAME":"將軍區","LI":"忠興里","LIN":"18鄰","STREET":" ","SECT":" ","MAREA":"忠興","LANE":" ","ALLEY":" ","HOUSE_NO":"１８０之３５號","E_COORD97":163988.20999999999,"N_COORD97":2566771.1099999999,"ADDRESS":"忠興１８０之３５號","OBJECTID":162593},"geometry":{"x":163988.21000000089,"y":2566771.1099999994}},{"attributes":{"ID":162595,"DIS_CODE":0,"TOWNNAME":"將軍區","LI":"忠興里","LIN":"18鄰","STREET":" ","SECT":" ","MAREA":"忠興","LANE":" ","ALLEY":" ","HOUSE_NO":"１８０之３６號","E_COORD97":163992.48000000001,"N_COORD97":2566754.8799999999,"ADDRESS":"忠興１８０之３６號","OBJECTID":162594},"geometry":{"x":163992.48000000045,"y":2566754.879999999}},{"attributes":{"ID":162596,"DIS_CODE":0,"TOWNNAME":"將軍區","LI":"忠興里","LIN":"18鄰","STREET":" ","SECT":" ","MAREA":"忠興","LANE":" ","ALLEY":" ","HOUSE_NO":"１８０之３７號","E_COORD97":163998.39999999999,"N_COORD97":2566747.2599999998,"ADDRESS":"忠興１８０之３７號","OBJECTID":162595},"geometry":{"x":163998.40000000224,"y":2566747.2599999998}},{"attributes":{"ID":162597,"DIS_CODE":0,"TOWNNAME":"將軍區","LI":"忠興里","LIN":"18鄰","STREET":" ","SECT":" ","MAREA":"忠興","LANE":" ","ALLEY":" ","HOUSE_NO":"１８０之３８號","E_COORD97":163998.34,"N_COORD97":2566751.9199999999,"ADDRESS":"忠興１８０之３８號","OBJECTID":162596},"geometry":{"x":163998.34000000171,"y":2566751.9200000018}},{"attributes":{"ID":162598,"DIS_CODE":0,"TOWNNAME":"將軍區","LI":"忠興里","LIN":"18鄰","STREET":" ","SECT":" ","MAREA":"忠興","LANE":" ","ALLEY":" ","HOUSE_NO":"１８０之３９號","E_COORD97":163998.23999999999,"N_COORD97":2566756.3799999999,"ADDRESS":"忠興１８０之３９號","OBJECTID":162597},"geometry":{"x":163998.24000000115,"y":2566756.3800000027}},{"attributes":{"ID":162599,"DIS_CODE":0,"TOWNNAME":"將軍區","LI":"忠興里","LIN":"18鄰","STREET":" ","SECT":" ","MAREA":"忠興","LANE":" ","ALLEY":" ","HOUSE_NO":"１８０之３號","E_COORD97":163961.82999999999,"N_COORD97":2566838.21,"ADDRESS":"忠興１８０之３號","OBJECTID":162598},"geometry":{"x":163961.83000000101,"y":2566838.2100000028}},{"attributes":{"ID":162600,"DIS_CODE":0,"TOWNNAME":"將軍區","LI":"忠興里","LIN":"18鄰","STREET":" ","SECT":" ","MAREA":"忠興","LANE":" ","ALLEY":" ","HOUSE_NO":"１８０之４０號","E_COORD97":163998.23999999999,"N_COORD97":2566760.98,"ADDRESS":"忠興１８０之４０號","OBJECTID":162599},"geometry":{"x":163998.24000000115,"y":2566760.9800000042}},{"attributes":{"ID":162601,"DIS_CODE":0,"TOWNNAME":"將軍區","LI":"忠興里","LIN":"18鄰","STREET":" ","SECT":" ","MAREA":"忠興","LANE":" ","ALLEY":" ","HOUSE_NO":"１８０之４１號","E_COORD97":163998.14000000001,"N_COORD97":2566768.1800000002,"ADDRESS":"忠興１８０之４１號","OBJECTID":162600},"geometry":{"x":163998.1400000006,"y":2566768.1799999997}}]}