{"displayFieldName":"TOWNNAME","fieldAliases":{"ID":"ID","DIS_CODE":"DIS_CODE","TOWNNAME":"TOWNNAME","LI":"LI","LIN":"LIN","STREET":"STREET","SECT":"SECT","MAREA":"MAREA","LANE":"LANE","ALLEY":"ALLEY","HOUSE_NO":"HOUSE_NO","E_COORD97":"E_COORD97","N_COORD97":"N_COORD97","ADDRESS":"ADDRESS","OBJECTID":"OBJECTID"},"geometryType":"esriGeometryPoint","spatialReference":{"wkid":102443,"latestWkid":3826},"fields":[{"name":"ID","type":"esriFieldTypeDouble","alias":"ID"},{"name":"DIS_CODE","type":"esriFieldTypeInteger","alias":"DIS_CODE"},{"name":"TOWNNAME","type":"esriFieldTypeString","alias":"TOWNNAME","length":8},{"name":"LI","type":"esriFieldTypeString","alias":"LI","length":8},{"name":"LIN","type":"esriFieldTypeString","alias":"LIN","length":12},{"name":"STREET","type":"esriFieldTypeString","alias":"STREET","length":20},{"name":"SECT","type":"esriFieldTypeString","alias":"SECT","length":8},{"name":"MAREA","type":"esriFieldTypeString","alias":"MAREA","length":12},{"name":"LANE","type":"esriFieldTypeString","alias":"LANE","length":10},{"name":"ALLEY","type":"esriFieldTypeString","alias":"ALLEY","length":10},{"name":"HOUSE_NO","type":"esriFieldTypeString","alias":"HOUSE_NO","length":20},{"name":"E_COORD97","type":"esriFieldTypeDouble","alias":"E_COORD97"},{"name":"N_COORD97","type":"esriFieldTypeDouble","alias":"N_COORD97"},{"name":"ADDRESS","type":"esriFieldTypeString","alias":"ADDRESS","length":50},{"name":"OBJECTID","type":"esriFieldTypeOID","alias":"OBJECTID"}],"features":[{"attributes":{"ID":592828,"DIS_CODE":0,"TOWNNAME":"學甲區","LI":"仁得里","LIN":"11鄰","STREET":"四維街","SECT":" ","MAREA":" ","LANE":" ","ALLEY":" ","HOUSE_NO":"１３７號","E_COORD97":165872.07999999999,"N_COORD97":2569814.6099999999,"ADDRESS":"四維街１３７號","OBJECTID":592801},"geometry":{"x":165872.08000000101,"y":2569814.6100000013}},{"attributes":{"ID":592829,"DIS_CODE":0,"TOWNNAME":"學甲區","LI":"仁得里","LIN":"11鄰","STREET":"四維街","SECT":" ","MAREA":" ","LANE":" ","ALLEY":" ","HOUSE_NO":"１３９號","E_COORD97":165867.89999999999,"N_COORD97":2569815.73,"ADDRESS":"四維街１３９號","OBJECTID":592802},"geometry":{"x":165867.90000000037,"y":2569815.7300000004}},{"attributes":{"ID":592830,"DIS_CODE":0,"TOWNNAME":"歸仁區","LI":"看東里","LIN":"11鄰","STREET":"忠孝南路","SECT":" ","MAREA":" ","LANE":" ","ALLEY":" ","HOUSE_NO":"１２３號","E_COORD97":178565.42999999999,"N_COORD97":2540341.7200000002,"ADDRESS":"忠孝南路１２３號","OBJECTID":592803},"geometry":{"x":178565.4299999997,"y":2540341.7200000044}},{"attributes":{"ID":592831,"DIS_CODE":0,"TOWNNAME":"歸仁區","LI":"後市里","LIN":"11鄰","STREET":"民權七街","SECT":" ","MAREA":" ","LANE":" ","ALLEY":" ","HOUSE_NO":"１７號","E_COORD97":177038.19,"N_COORD97":2540731.25,"ADDRESS":"民權七街１７號","OBJECTID":592804},"geometry":{"x":177038.19000000134,"y":2540731.2500000019}},{"attributes":{"ID":592832,"DIS_CODE":0,"TOWNNAME":"歸仁區","LI":"後市里","LIN":"11鄰","STREET":"民權七街","SECT":" ","MAREA":" ","LANE":" ","ALLEY":" ","HOUSE_NO":"１１號","E_COORD97":177025.89000000001,"N_COORD97":2540732.25,"ADDRESS":"民權七街１１號","OBJECTID":592805},"geometry":{"x":177025.8900000006,"y":2540732.25}},{"attributes":{"ID":592833,"DIS_CODE":0,"TOWNNAME":"歸仁區","LI":"南保里","LIN":"11鄰","STREET":"文化街","SECT":"三段","MAREA":" ","LANE":" ","ALLEY":" ","HOUSE_NO":"１６６號","E_COORD97":176584.32000000001,"N_COORD97":2541200.2599999998,"ADDRESS":"文化街三段１６６號","OBJECTID":592806},"geometry":{"x":176584.32000000123,"y":2541200.2599999998}},{"attributes":{"ID":592834,"DIS_CODE":0,"TOWNNAME":"仁德區","LI":"田厝里","LIN":"7鄰","STREET":"中正路","SECT":"一段","MAREA":" ","LANE":" ","ALLEY":" ","HOUSE_NO":"６２９號","E_COORD97":172948.19,"N_COORD97":2537942.5299999998,"ADDRESS":"中正路一段６２９號","OBJECTID":592807},"geometry":{"x":172948.19000000041,"y":2537942.5300000012}},{"attributes":{"ID":592835,"DIS_CODE":0,"TOWNNAME":"仁德區","LI":"田厝里","LIN":"7鄰","STREET":"保安路","SECT":"二段","MAREA":" ","LANE":" ","ALLEY":" ","HOUSE_NO":"６３７號","E_COORD97":172816.10000000001,"N_COORD97":2537606.8199999998,"ADDRESS":"保安路二段６３７號","OBJECTID":592808},"geometry":{"x":172816.09999999963,"y":2537606.8200000003}},{"attributes":{"ID":592836,"DIS_CODE":0,"TOWNNAME":"仁德區","LI":"仁德里","LIN":"35鄰","STREET":"裕華三街","SECT":" ","MAREA":" ","LANE":" ","ALLEY":" ","HOUSE_NO":"２９５號","E_COORD97":172844.32999999999,"N_COORD97":2541789.75,"ADDRESS":"裕華三街２９５號","OBJECTID":592809},"geometry":{"x":172844.33000000101,"y":2541789.7500000019}},{"attributes":{"ID":592837,"DIS_CODE":0,"TOWNNAME":"仁德區","LI":"仁德里","LIN":"19鄰","STREET":"文華路","SECT":"三段","MAREA":" ","LANE":" ","ALLEY":" ","HOUSE_NO":"３１６號","E_COORD97":172338.28,"N_COORD97":2540814.3300000001,"ADDRESS":"文華路三段３１６號","OBJECTID":592810},"geometry":{"x":172338.28000000119,"y":2540814.3300000001}},{"attributes":{"ID":592838,"DIS_CODE":0,"TOWNNAME":"歸仁區","LI":"新厝里","LIN":"11鄰","STREET":"公園路","SECT":" ","MAREA":" ","LANE":" ","ALLEY":" ","HOUSE_NO":"２１４號","E_COORD97":177720.23000000001,"N_COORD97":2540427,"ADDRESS":"公園路２１４號","OBJECTID":592811},"geometry":{"x":177720.23000000045,"y":2540427.0000000037}},{"attributes":{"ID":592839,"DIS_CODE":0,"TOWNNAME":"歸仁區","LI":"新厝里","LIN":"11鄰","STREET":"公園路","SECT":" ","MAREA":" ","LANE":" ","ALLEY":" ","HOUSE_NO":"２２４號","E_COORD97":177699.73000000001,"N_COORD97":2540420,"ADDRESS":"公園路２２４號","OBJECTID":592812},"geometry":{"x":177699.73000000045,"y":2540420}},{"attributes":{"ID":592840,"DIS_CODE":0,"TOWNNAME":"歸仁區","LI":"看西里","LIN":"11鄰","STREET":"成功六街","SECT":" ","MAREA":" ","LANE":" ","ALLEY":" ","HOUSE_NO":"６８號","E_COORD97":178401.82999999999,"N_COORD97":2540250.8300000001,"ADDRESS":"成功六街６８號","OBJECTID":592813},"geometry":{"x":178401.83000000007,"y":2540250.8300000001}},{"attributes":{"ID":592841,"DIS_CODE":0,"TOWNNAME":"歸仁區","LI":"新厝里","LIN":"11鄰","STREET":"公園路","SECT":" ","MAREA":" ","LANE":" ","ALLEY":" ","HOUSE_NO":"２２６號","E_COORD97":177694.53,"N_COORD97":2540418,"ADDRESS":"公園路２２６號","OBJECTID":592814},"geometry":{"x":177694.53000000212,"y":2540418.0000000019}},{"attributes":{"ID":592842,"DIS_CODE":0,"TOWNNAME":"歸仁區","LI":"後市里","LIN":"11鄰","STREET":"民權五街","SECT":" ","MAREA":" ","LANE":" ","ALLEY":" ","HOUSE_NO":"２號","E_COORD97":177016.42000000001,"N_COORD97":2540778.29,"ADDRESS":"民權五街２號","OBJECTID":592815},"geometry":{"x":177016.41999999993,"y":2540778.290000001}},{"attributes":{"ID":592843,"DIS_CODE":0,"TOWNNAME":"歸仁區","LI":"歸仁里","LIN":"11鄰","STREET":"信義北路","SECT":" ","MAREA":" ","LANE":" ","ALLEY":" ","HOUSE_NO":"７７號","E_COORD97":177960.51000000001,"N_COORD97":2540972.48,"ADDRESS":"信義北路７７號","OBJECTID":592816},"geometry":{"x":177960.51000000071,"y":2540972.4800000004}},{"attributes":{"ID":592844,"DIS_CODE":0,"TOWNNAME":"歸仁區","LI":"崙頂里","LIN":"11鄰","STREET":"成功路","SECT":"二段","MAREA":" ","LANE":" ","ALLEY":" ","HOUSE_NO":"１０１號","E_COORD97":178070.09,"N_COORD97":2539764.3799999999,"ADDRESS":"成功路二段１０１號","OBJECTID":592817},"geometry":{"x":178070.09000000171,"y":2539764.379999999}},{"attributes":{"ID":592845,"DIS_CODE":0,"TOWNNAME":"歸仁區","LI":"許厝里","LIN":"11鄰","STREET":"公園路","SECT":" ","MAREA":" ","LANE":" ","ALLEY":" ","HOUSE_NO":"４５號","E_COORD97":178153.07000000001,"N_COORD97":2540560.1000000001,"ADDRESS":"公園路４５號","OBJECTID":592818},"geometry":{"x":178153.0700000003,"y":2540560.0999999996}},{"attributes":{"ID":592846,"DIS_CODE":0,"TOWNNAME":"歸仁區","LI":"歸仁里","LIN":"11鄰","STREET":"信義北路","SECT":" ","MAREA":" ","LANE":" ","ALLEY":" ","HOUSE_NO":"６９號","E_COORD97":177983.01000000001,"N_COORD97":2540963.48,"ADDRESS":"信義北路６９號","OBJECTID":592819},"geometry":{"x":177983.01000000071,"y":2540963.4800000042}},{"attributes":{"ID":592847,"DIS_CODE":0,"TOWNNAME":"歸仁區","LI":"後市里","LIN":"11鄰","STREET":"民權五街","SECT":" ","MAREA":" ","LANE":" ","ALLEY":" ","HOUSE_NO":"２０號","E_COORD97":177044.59,"N_COORD97":2540769.25,"ADDRESS":"民權五街２０號","OBJECTID":592820},"geometry":{"x":177044.59000000171,"y":2540769.2500000019}},{"attributes":{"ID":592848,"DIS_CODE":0,"TOWNNAME":"歸仁區","LI":"崙頂里","LIN":"11鄰","STREET":"成功路","SECT":"二段","MAREA":" ","LANE":" ","ALLEY":" ","HOUSE_NO":"１０７號","E_COORD97":178058.79000000001,"N_COORD97":2539757.3799999999,"ADDRESS":"成功路二段１０７號","OBJECTID":592821},"geometry":{"x":178058.7900000019,"y":2539757.379999999}},{"attributes":{"ID":592849,"DIS_CODE":0,"TOWNNAME":"歸仁區","LI":"崙頂里","LIN":"11鄰","STREET":"成功路","SECT":"二段","MAREA":" ","LANE":" ","ALLEY":" ","HOUSE_NO":"９９號","E_COORD97":178072.94,"N_COORD97":2539766.3799999999,"ADDRESS":"成功路二段９９號","OBJECTID":592822},"geometry":{"x":178072.94000000041,"y":2539766.3800000008}},{"attributes":{"ID":592850,"DIS_CODE":0,"TOWNNAME":"歸仁區","LI":"崙頂里","LIN":"11鄰","STREET":"成功路","SECT":"二段","MAREA":" ","LANE":" ","ALLEY":" ","HOUSE_NO":"１１３號","E_COORD97":178047.39000000001,"N_COORD97":2539751.3799999999,"ADDRESS":"成功路二段１１３號","OBJECTID":592823},"geometry":{"x":178047.38999999873,"y":2539751.379999999}},{"attributes":{"ID":592851,"DIS_CODE":0,"TOWNNAME":"歸仁區","LI":"後市里","LIN":"11鄰","STREET":"民權南路","SECT":" ","MAREA":" ","LANE":" ","ALLEY":" ","HOUSE_NO":"９號","E_COORD97":176987.94,"N_COORD97":2540774.25,"ADDRESS":"民權南路９號","OBJECTID":592824},"geometry":{"x":176987.94000000041,"y":2540774.25}},{"attributes":{"ID":592852,"DIS_CODE":0,"TOWNNAME":"歸仁區","LI":"後市里","LIN":"11鄰","STREET":"民權五街","SECT":" ","MAREA":" ","LANE":" ","ALLEY":" ","HOUSE_NO":"１６號","E_COORD97":177036.39000000001,"N_COORD97":2540769.25,"ADDRESS":"民權五街１６號","OBJECTID":592825},"geometry":{"x":177036.38999999966,"y":2540769.2500000019}},{"attributes":{"ID":592853,"DIS_CODE":0,"TOWNNAME":"仁德區","LI":"仁德里","LIN":"39鄰","STREET":"文宏路","SECT":" ","MAREA":" ","LANE":" ","ALLEY":" ","HOUSE_NO":"１４０號","E_COORD97":172426.89999999999,"N_COORD97":2541806.8199999998,"ADDRESS":"文宏路１４０號","OBJECTID":592826},"geometry":{"x":172426.90000000224,"y":2541806.8200000003}},{"attributes":{"ID":592854,"DIS_CODE":0,"TOWNNAME":"仁德區","LI":"仁德里","LIN":"17鄰","STREET":"文華路","SECT":"三段","MAREA":" ","LANE":" ","ALLEY":" ","HOUSE_NO":"５２５號","E_COORD97":172447.62,"N_COORD97":2541473.5800000001,"ADDRESS":"文華路三段５２５號","OBJECTID":592827},"geometry":{"x":172447.62000000104,"y":2541473.5800000001}},{"attributes":{"ID":592855,"DIS_CODE":0,"TOWNNAME":"仁德區","LI":"仁德里","LIN":"12鄰","STREET":"四維街","SECT":" ","MAREA":" ","LANE":" ","ALLEY":" ","HOUSE_NO":"５４號","E_COORD97":173202.10999999999,"N_COORD97":2541530.7400000002,"ADDRESS":"四維街５４號","OBJECTID":592828},"geometry":{"x":173202.11000000127,"y":2541530.7399999984}},{"attributes":{"ID":592856,"DIS_CODE":0,"TOWNNAME":"歸仁區","LI":"崙頂里","LIN":"11鄰","STREET":"成功路","SECT":"二段","MAREA":" ","LANE":" ","ALLEY":" ","HOUSE_NO":"１１５號","E_COORD97":178043.29000000001,"N_COORD97":2539749.3799999999,"ADDRESS":"成功路二段１１５號","OBJECTID":592829},"geometry":{"x":178043.29000000004,"y":2539749.3800000008}},{"attributes":{"ID":592857,"DIS_CODE":0,"TOWNNAME":"仁德區","LI":"仁德里","LIN":"17鄰","STREET":"文華路","SECT":"三段","MAREA":" ","LANE":" ","ALLEY":" ","HOUSE_NO":"４３７號","E_COORD97":172398.47,"N_COORD97":2541236.0800000001,"ADDRESS":"文華路三段４３７號","OBJECTID":592830},"geometry":{"x":172398.46999999974,"y":2541236.0800000001}},{"attributes":{"ID":592858,"DIS_CODE":0,"TOWNNAME":"仁德區","LI":"後壁里","LIN":"1鄰","STREET":"中正路","SECT":"二段","MAREA":" ","LANE":" ","ALLEY":" ","HOUSE_NO":"３４６號","E_COORD97":173268.70999999999,"N_COORD97":2539123.27,"ADDRESS":"中正路二段３４６號","OBJECTID":592831},"geometry":{"x":173268.71000000183,"y":2539123.2700000014}},{"attributes":{"ID":592859,"DIS_CODE":0,"TOWNNAME":"仁德區","LI":"保安里","LIN":"20鄰","STREET":"文賢路","SECT":"一段","MAREA":" ","LANE":" ","ALLEY":" ","HOUSE_NO":"５７２號","E_COORD97":171118.17999999999,"N_COORD97":2536863.5699999998,"ADDRESS":"文賢路一段５７２號","OBJECTID":592832},"geometry":{"x":171118.1799999997,"y":2536863.570000004}},{"attributes":{"ID":592860,"DIS_CODE":0,"TOWNNAME":"北區","LI":"永祥里","LIN":"11鄰","STREET":"實踐街","SECT":" ","MAREA":" ","LANE":" ","ALLEY":" ","HOUSE_NO":"７３號","E_COORD97":169955.85999999999,"N_COORD97":2546019.4399999999,"ADDRESS":"實踐街７３號","OBJECTID":592833},"geometry":{"x":169955.86000000127,"y":2546019.4399999995}},{"attributes":{"ID":592861,"DIS_CODE":0,"TOWNNAME":"北區","LI":"永祥里","LIN":"11鄰","STREET":"實踐街","SECT":" ","MAREA":" ","LANE":" ","ALLEY":" ","HOUSE_NO":"７５號","E_COORD97":169960.10000000001,"N_COORD97":2546019.5800000001,"ADDRESS":"實踐街７５號","OBJECTID":592834},"geometry":{"x":169960.10000000149,"y":2546019.5800000001}},{"attributes":{"ID":592862,"DIS_CODE":0,"TOWNNAME":"北區","LI":"永祥里","LIN":"11鄰","STREET":"實踐街","SECT":" ","MAREA":" ","LANE":" ","ALLEY":" ","HOUSE_NO":"７７號","E_COORD97":169964.76999999999,"N_COORD97":2546019,"ADDRESS":"實踐街７７號","OBJECTID":592835},"geometry":{"x":169964.76999999955,"y":2546019.0000000019}},{"attributes":{"ID":592863,"DIS_CODE":0,"TOWNNAME":"北區","LI":"永祥里","LIN":"11鄰","STREET":"實踐街","SECT":" ","MAREA":" ","LANE":" ","ALLEY":" ","HOUSE_NO":"７９號","E_COORD97":169969.59,"N_COORD97":2546018.2000000002,"ADDRESS":"實踐街７９號","OBJECTID":592836},"geometry":{"x":169969.59000000078,"y":2546018.1999999993}},{"attributes":{"ID":592864,"DIS_CODE":0,"TOWNNAME":"北區","LI":"永祥里","LIN":"11鄰","STREET":"實踐街","SECT":" ","MAREA":" ","LANE":" ","ALLEY":" ","HOUSE_NO":"８１號","E_COORD97":169975.64000000001,"N_COORD97":2546018.1200000001,"ADDRESS":"實踐街８１號","OBJECTID":592837},"geometry":{"x":169975.6400000006,"y":2546018.1200000048}},{"attributes":{"ID":592865,"DIS_CODE":0,"TOWNNAME":"北區","LI":"永祥里","LIN":"11鄰","STREET":"實踐街","SECT":" ","MAREA":" ","LANE":" ","ALLEY":" ","HOUSE_NO":"８３號","E_COORD97":169981.70000000001,"N_COORD97":2546018.0499999998,"ADDRESS":"實踐街８３號","OBJECTID":592838},"geometry":{"x":169981.70000000019,"y":2546018.0499999989}},{"attributes":{"ID":592866,"DIS_CODE":0,"TOWNNAME":"仁德區","LI":"仁德里","LIN":"3鄰","STREET":"仁中六街","SECT":" ","MAREA":" ","LANE":" ","ALLEY":" ","HOUSE_NO":"７３號","E_COORD97":173316.06,"N_COORD97":2540380.7400000002,"ADDRESS":"仁中六街７３號","OBJECTID":592839},"geometry":{"x":173316.05999999959,"y":2540380.7400000002}},{"attributes":{"ID":592867,"DIS_CODE":0,"TOWNNAME":"仁德區","LI":"保安里","LIN":"13鄰","STREET":"二仁路","SECT":"一段","MAREA":" ","LANE":" ","ALLEY":" ","HOUSE_NO":"８２之１號","E_COORD97":170488.92000000001,"N_COORD97":2535818.54,"ADDRESS":"二仁路一段８２之１號","OBJECTID":592840},"geometry":{"x":170488.92000000086,"y":2535818.5400000028}},{"attributes":{"ID":592868,"DIS_CODE":0,"TOWNNAME":"仁德區","LI":"太子里","LIN":"1鄰","STREET":"太子路","SECT":" ","MAREA":" ","LANE":" ","ALLEY":" ","HOUSE_NO":"２５２號","E_COORD97":174134.29000000001,"N_COORD97":2543511.2599999998,"ADDRESS":"太子路２５２號","OBJECTID":592841},"geometry":{"x":174134.28999999911,"y":2543511.2600000016}},{"attributes":{"ID":592869,"DIS_CODE":0,"TOWNNAME":"仁德區","LI":"仁德里","LIN":"19鄰","STREET":"文華路","SECT":"三段","MAREA":" ","LANE":" ","ALLEY":" ","HOUSE_NO":"１６９號","E_COORD97":172199.42999999999,"N_COORD97":2540398.0800000001,"ADDRESS":"文華路三段１６９號","OBJECTID":592842},"geometry":{"x":172199.43000000063,"y":2540398.0800000001}},{"attributes":{"ID":592870,"DIS_CODE":0,"TOWNNAME":"安平區","LI":"平通里","LIN":"11鄰","STREET":"健康三街","SECT":" ","MAREA":" ","LANE":" ","ALLEY":" ","HOUSE_NO":"４６２號","E_COORD97":164847.51999999999,"N_COORD97":2543915.1299999999,"ADDRESS":"健康三街４６２號","OBJECTID":592843},"geometry":{"x":164847.51999999955,"y":2543915.1300000008}},{"attributes":{"ID":592871,"DIS_CODE":0,"TOWNNAME":"安平區","LI":"平通里","LIN":"11鄰","STREET":"健康三街","SECT":" ","MAREA":" ","LANE":" ","ALLEY":" ","HOUSE_NO":"４６６號","E_COORD97":164843.22,"N_COORD97":2543922.21,"ADDRESS":"健康三街４６６號","OBJECTID":592844},"geometry":{"x":164843.2200000016,"y":2543922.2100000046}},{"attributes":{"ID":592872,"DIS_CODE":0,"TOWNNAME":"安平區","LI":"平通里","LIN":"11鄰","STREET":"健康三街","SECT":" ","MAREA":" ","LANE":" ","ALLEY":" ","HOUSE_NO":"４６８號","E_COORD97":164844.66,"N_COORD97":2543926.9700000002,"ADDRESS":"健康三街４６８號","OBJECTID":592845},"geometry":{"x":164844.66000000108,"y":2543926.9700000044}},{"attributes":{"ID":592873,"DIS_CODE":0,"TOWNNAME":"安平區","LI":"平通里","LIN":"11鄰","STREET":"健康三街","SECT":" ","MAREA":" ","LANE":" ","ALLEY":" ","HOUSE_NO":"４７０號","E_COORD97":164845.29000000001,"N_COORD97":2543931.2799999998,"ADDRESS":"健康三街４７０號","OBJECTID":592846},"geometry":{"x":164845.29000000097,"y":2543931.2800000012}},{"attributes":{"ID":592874,"DIS_CODE":0,"TOWNNAME":"安平區","LI":"億載里","LIN":"11鄰","STREET":"郡平路","SECT":" ","MAREA":" ","LANE":" ","ALLEY":" ","HOUSE_NO":"３８８之２號","E_COORD97":164027.82000000001,"N_COORD97":2543375.75,"ADDRESS":"郡平路３８８之２號","OBJECTID":592847},"geometry":{"x":164027.82000000216,"y":2543375.7500000019}},{"attributes":{"ID":592875,"DIS_CODE":0,"TOWNNAME":"安平區","LI":"石門里","LIN":"11鄰","STREET":"平生路","SECT":" ","MAREA":" ","LANE":" ","ALLEY":" ","HOUSE_NO":"８１號之１","E_COORD97":164343.01000000001,"N_COORD97":2544701.7799999998,"ADDRESS":"平生路８１號之１","OBJECTID":592848},"geometry":{"x":164343.01000000164,"y":2544701.7799999993}},{"attributes":{"ID":592876,"DIS_CODE":0,"TOWNNAME":"安平區","LI":"金城里","LIN":"11鄰","STREET":"同平路","SECT":" ","MAREA":" ","LANE":" ","ALLEY":" ","HOUSE_NO":"１８０號","E_COORD97":163124.04999999999,"N_COORD97":2543934.8100000001,"ADDRESS":"同平路１８０號","OBJECTID":592849},"geometry":{"x":163124.05000000075,"y":2543934.8100000042}},{"attributes":{"ID":592877,"DIS_CODE":0,"TOWNNAME":"安平區","LI":"金城里","LIN":"11鄰","STREET":"同平路","SECT":" ","MAREA":" ","LANE":" ","ALLEY":" ","HOUSE_NO":"１７８號","E_COORD97":163126.89999999999,"N_COORD97":2543938.5,"ADDRESS":"同平路１７８號","OBJECTID":592850},"geometry":{"x":163126.90000000037,"y":2543938.5}},{"attributes":{"ID":592878,"DIS_CODE":0,"TOWNNAME":"仁德區","LI":"太子里","LIN":"19鄰","STREET":"太子路","SECT":" ","MAREA":" ","LANE":" ","ALLEY":" ","HOUSE_NO":"３５２之１號","E_COORD97":173871.57999999999,"N_COORD97":2543533.0499999998,"ADDRESS":"太子路３５２之１號","OBJECTID":592851},"geometry":{"x":173871.58000000101,"y":2543533.0500000045}},{"attributes":{"ID":592879,"DIS_CODE":0,"TOWNNAME":"安平區","LI":"金城里","LIN":"11鄰","STREET":"同平路","SECT":" ","MAREA":" ","LANE":" ","ALLEY":" ","HOUSE_NO":"１７６號","E_COORD97":163129.57999999999,"N_COORD97":2543943.1800000002,"ADDRESS":"同平路１７６號","OBJECTID":592852},"geometry":{"x":163129.58000000101,"y":2543943.1799999997}},{"attributes":{"ID":592880,"DIS_CODE":0,"TOWNNAME":"安平區","LI":"億載里","LIN":"11鄰","STREET":"郡平路","SECT":" ","MAREA":" ","LANE":" ","ALLEY":" ","HOUSE_NO":"３８８之１號","E_COORD97":164029.53,"N_COORD97":2543373.9500000002,"ADDRESS":"郡平路３８８之１號","OBJECTID":592853},"geometry":{"x":164029.52999999933,"y":2543373.9500000011}},{"attributes":{"ID":592881,"DIS_CODE":0,"TOWNNAME":"安平區","LI":"建平里","LIN":"11鄰","STREET":"建平十五街","SECT":" ","MAREA":" ","LANE":" ","ALLEY":" ","HOUSE_NO":"１４０號","E_COORD97":166044.88,"N_COORD97":2544144.3199999998,"ADDRESS":"建平十五街１４０號","OBJECTID":592854},"geometry":{"x":166044.88000000082,"y":2544144.320000004}},{"attributes":{"ID":592882,"DIS_CODE":0,"TOWNNAME":"安平區","LI":"建平里","LIN":"11鄰","STREET":"建平十五街","SECT":" ","MAREA":" ","LANE":" ","ALLEY":" ","HOUSE_NO":"８８號","E_COORD97":166097.51999999999,"N_COORD97":2544141.6099999999,"ADDRESS":"建平十五街８８號","OBJECTID":592855},"geometry":{"x":166097.52000000048,"y":2544141.6100000031}},{"attributes":{"ID":592883,"DIS_CODE":0,"TOWNNAME":"安平區","LI":"建平里","LIN":"11鄰","STREET":"慶平路","SECT":" ","MAREA":" ","LANE":" ","ALLEY":" ","HOUSE_NO":"１５９號","E_COORD97":166039.76000000001,"N_COORD97":2544171.29,"ADDRESS":"慶平路１５９號","OBJECTID":592856},"geometry":{"x":166039.76000000164,"y":2544171.290000001}},{"attributes":{"ID":592884,"DIS_CODE":0,"TOWNNAME":"安平區","LI":"建平里","LIN":"11鄰","STREET":"建平十五街","SECT":" ","MAREA":" ","LANE":" ","ALLEY":" ","HOUSE_NO":"４６號","E_COORD97":166232.89999999999,"N_COORD97":2544120.0800000001,"ADDRESS":"建平十五街４６號","OBJECTID":592857},"geometry":{"x":166232.9000000013,"y":2544120.0800000019}},{"attributes":{"ID":592885,"DIS_CODE":0,"TOWNNAME":"安平區","LI":"建平里","LIN":"11鄰","STREET":"建平十五街","SECT":" ","MAREA":" ","LANE":" ","ALLEY":" ","HOUSE_NO":"５０號","E_COORD97":166225.89000000001,"N_COORD97":2544120.6099999999,"ADDRESS":"建平十五街５０號","OBJECTID":592858},"geometry":{"x":166225.8900000006,"y":2544120.6099999994}},{"attributes":{"ID":592886,"DIS_CODE":0,"TOWNNAME":"安平區","LI":"建平里","LIN":"11鄰","STREET":"建平十五街","SECT":" ","MAREA":" ","LANE":" ","ALLEY":" ","HOUSE_NO":"４８號","E_COORD97":166228.92999999999,"N_COORD97":2544120.48,"ADDRESS":"建平十五街４８號","OBJECTID":592859},"geometry":{"x":166228.93000000063,"y":2544120.4800000023}},{"attributes":{"ID":592887,"DIS_CODE":0,"TOWNNAME":"安平區","LI":"建平里","LIN":"11鄰","STREET":"建平十五街","SECT":" ","MAREA":" ","LANE":" ","ALLEY":" ","HOUSE_NO":"５２號","E_COORD97":166221.26000000001,"N_COORD97":2544120.0800000001,"ADDRESS":"建平十五街５２號","OBJECTID":592860},"geometry":{"x":166221.26000000164,"y":2544120.0800000019}},{"attributes":{"ID":592888,"DIS_CODE":0,"TOWNNAME":"安平區","LI":"文平里","LIN":"11鄰","STREET":"建平七街","SECT":" ","MAREA":" ","LANE":" ","ALLEY":" ","HOUSE_NO":"２９１號","E_COORD97":165833.91,"N_COORD97":2543275.2799999998,"ADDRESS":"建平七街２９１號","OBJECTID":592861},"geometry":{"x":165833.90999999922,"y":2543275.2799999993}},{"attributes":{"ID":592889,"DIS_CODE":0,"TOWNNAME":"安平區","LI":"建平里","LIN":"11鄰","STREET":"建平十五街","SECT":" ","MAREA":" ","LANE":" ","ALLEY":" ","HOUSE_NO":"７號","E_COORD97":166305.88,"N_COORD97":2544095.9399999999,"ADDRESS":"建平十五街７號","OBJECTID":592862},"geometry":{"x":166305.88000000082,"y":2544095.9400000013}},{"attributes":{"ID":592890,"DIS_CODE":0,"TOWNNAME":"新營區","LI":"新東里","LIN":"11鄰","STREET":"東泰八街","SECT":" ","MAREA":" ","LANE":" ","ALLEY":" ","HOUSE_NO":"１６號","E_COORD97":181192.78,"N_COORD97":2579736.5899999999,"ADDRESS":"東泰八街１６號","OBJECTID":592863},"geometry":{"x":181192.78000000026,"y":2579736.5899999999}},{"attributes":{"ID":592891,"DIS_CODE":0,"TOWNNAME":"新營區","LI":"好平里","LIN":"11鄰","STREET":"中原街","SECT":" ","MAREA":" ","LANE":" ","ALLEY":" ","HOUSE_NO":"１６號","E_COORD97":179490.79000000001,"N_COORD97":2577999.2599999998,"ADDRESS":"中原街１６號","OBJECTID":592864},"geometry":{"x":179490.79000000004,"y":2577999.2599999998}},{"attributes":{"ID":592892,"DIS_CODE":0,"TOWNNAME":"新營區","LI":"民生里","LIN":"11鄰","STREET":"民生路","SECT":" ","MAREA":" ","LANE":" ","ALLEY":" ","HOUSE_NO":"４３之５號","E_COORD97":179270.06,"N_COORD97":2578359.1800000002,"ADDRESS":"民生路４３之５號","OBJECTID":592865},"geometry":{"x":179270.05999999866,"y":2578359.1799999997}},{"attributes":{"ID":592893,"DIS_CODE":0,"TOWNNAME":"新營區","LI":"民榮里","LIN":"11鄰","STREET":"復興路","SECT":" ","MAREA":" ","LANE":" ","ALLEY":" ","HOUSE_NO":"１４９號","E_COORD97":179242.51999999999,"N_COORD97":2578012.6299999999,"ADDRESS":"復興路１４９號","OBJECTID":592866},"geometry":{"x":179242.51999999955,"y":2578012.629999999}},{"attributes":{"ID":592894,"DIS_CODE":0,"TOWNNAME":"新營區","LI":"王公里","LIN":"11鄰","STREET":"義和街","SECT":" ","MAREA":" ","LANE":" ","ALLEY":" ","HOUSE_NO":"３４號","E_COORD97":180358.14999999999,"N_COORD97":2579056.0899999999,"ADDRESS":"義和街３４號","OBJECTID":592867},"geometry":{"x":180358.15000000037,"y":2579056.089999998}},{"attributes":{"ID":592895,"DIS_CODE":0,"TOWNNAME":"新營區","LI":"忠政里","LIN":"11鄰","STREET":"中正路","SECT":" ","MAREA":" ","LANE":" ","ALLEY":" ","HOUSE_NO":"５５號之１４","E_COORD97":179963.54000000001,"N_COORD97":2579473.3199999998,"ADDRESS":"中正路５５號之１４","OBJECTID":592868},"geometry":{"x":179963.54000000004,"y":2579473.3200000022}},{"attributes":{"ID":592896,"DIS_CODE":0,"TOWNNAME":"新營區","LI":"三仙里","LIN":"11鄰","STREET":"中華路","SECT":" ","MAREA":" ","LANE":" ","ALLEY":" ","HOUSE_NO":"３６號之１","E_COORD97":179698.63,"N_COORD97":2578215.3900000001,"ADDRESS":"中華路３６號之１","OBJECTID":592869},"geometry":{"x":179698.62999999989,"y":2578215.3900000025}},{"attributes":{"ID":592897,"DIS_CODE":0,"TOWNNAME":"仁德區","LI":"仁德里","LIN":"4鄰","STREET":"仁中六街","SECT":" ","MAREA":" ","LANE":" ","ALLEY":" ","HOUSE_NO":"１３７號","E_COORD97":173306.51000000001,"N_COORD97":2540460.4900000002,"ADDRESS":"仁中六街１３７號","OBJECTID":592870},"geometry":{"x":173306.50999999978,"y":2540460.4900000002}},{"attributes":{"ID":592898,"DIS_CODE":0,"TOWNNAME":"仁德區","LI":"仁德里","LIN":"35鄰","STREET":"文山路","SECT":" ","MAREA":" ","LANE":" ","ALLEY":" ","HOUSE_NO":"５９號","E_COORD97":172852.59,"N_COORD97":2541710.3199999998,"ADDRESS":"文山路５９號","OBJECTID":592871},"geometry":{"x":172852.59000000078,"y":2541710.320000004}},{"attributes":{"ID":592899,"DIS_CODE":0,"TOWNNAME":"新營區","LI":"忠政里","LIN":"11鄰","STREET":"中正路","SECT":" ","MAREA":" ","LANE":" ","ALLEY":" ","HOUSE_NO":"５５之７號","E_COORD97":179990.23000000001,"N_COORD97":2579468.7599999998,"ADDRESS":"中正路５５之７號","OBJECTID":592872},"geometry":{"x":179990.23000000045,"y":2579468.7600000035}},{"attributes":{"ID":592900,"DIS_CODE":0,"TOWNNAME":"新營區","LI":"忠政里","LIN":"11鄰","STREET":"中正路","SECT":" ","MAREA":" ","LANE":" ","ALLEY":" ","HOUSE_NO":"５５號之１９","E_COORD97":179977.87,"N_COORD97":2579462.1699999999,"ADDRESS":"中正路５５號之１９","OBJECTID":592873},"geometry":{"x":179977.87000000104,"y":2579462.1699999999}},{"attributes":{"ID":592901,"DIS_CODE":0,"TOWNNAME":"新營區","LI":"民權里","LIN":"11鄰","STREET":"中華路","SECT":" ","MAREA":" ","LANE":" ","ALLEY":" ","HOUSE_NO":"１４號之１０","E_COORD97":179896.45999999999,"N_COORD97":2578263.1800000002,"ADDRESS":"中華路１４號之１０","OBJECTID":592874},"geometry":{"x":179896.45999999996,"y":2578263.1800000016}},{"attributes":{"ID":592902,"DIS_CODE":0,"TOWNNAME":"新營區","LI":"三仙里","LIN":"11鄰","STREET":"中華路","SECT":" ","MAREA":" ","LANE":" ","ALLEY":" ","HOUSE_NO":"４２號","E_COORD97":179663.72,"N_COORD97":2578211.0699999998,"ADDRESS":"中華路４２號","OBJECTID":592875},"geometry":{"x":179663.71999999974,"y":2578211.0700000003}},{"attributes":{"ID":592903,"DIS_CODE":0,"TOWNNAME":"南區","LI":"新興里","LIN":"11鄰","STREET":"西門路","SECT":"一段","MAREA":" ","LANE":" ","ALLEY":" ","HOUSE_NO":"４０１號","E_COORD97":167715.12,"N_COORD97":2542285.96,"ADDRESS":"西門路一段４０１號","OBJECTID":592876},"geometry":{"x":167715.12000000011,"y":2542285.959999999}},{"attributes":{"ID":592904,"DIS_CODE":0,"TOWNNAME":"南區","LI":"新興里","LIN":"11鄰","STREET":"西門路","SECT":"一段","MAREA":" ","LANE":" ","ALLEY":" ","HOUSE_NO":"４０３號","E_COORD97":167714.76000000001,"N_COORD97":2542287.75,"ADDRESS":"西門路一段４０３號","OBJECTID":592877},"geometry":{"x":167714.76000000071,"y":2542287.7500000019}},{"attributes":{"ID":592905,"DIS_CODE":0,"TOWNNAME":"南區","LI":"新興里","LIN":"11鄰","STREET":"西門路","SECT":"一段","MAREA":" ","LANE":" ","ALLEY":" ","HOUSE_NO":"４０５號","E_COORD97":167713.69,"N_COORD97":2542292.7599999998,"ADDRESS":"西門路一段４０５號","OBJECTID":592878},"geometry":{"x":167713.69000000041,"y":2542292.7599999998}},{"attributes":{"ID":592906,"DIS_CODE":0,"TOWNNAME":"南區","LI":"新興里","LIN":"11鄰","STREET":"西門路","SECT":"一段","MAREA":" ","LANE":" ","ALLEY":" ","HOUSE_NO":"４０７號","E_COORD97":167714.04999999999,"N_COORD97":2542297.0600000001,"ADDRESS":"西門路一段４０７號","OBJECTID":592879},"geometry":{"x":167714.04999999981,"y":2542297.0600000005}},{"attributes":{"ID":592907,"DIS_CODE":0,"TOWNNAME":"南區","LI":"新興里","LIN":"11鄰","STREET":"西門路","SECT":"一段","MAREA":" ","LANE":" ","ALLEY":" ","HOUSE_NO":"４２５號","E_COORD97":167714.41,"N_COORD97":2542344.71,"ADDRESS":"西門路一段４２５號","OBJECTID":592880},"geometry":{"x":167714.41000000108,"y":2542344.7100000009}},{"attributes":{"ID":592908,"DIS_CODE":0,"TOWNNAME":"南區","LI":"新興里","LIN":"11鄰","STREET":"西門路","SECT":"一段","MAREA":" ","LANE":" ","ALLEY":" ","HOUSE_NO":"４２７號","E_COORD97":167714.04999999999,"N_COORD97":2542349.0099999998,"ADDRESS":"西門路一段４２７號","OBJECTID":592881},"geometry":{"x":167714.04999999981,"y":2542349.0100000035}},{"attributes":{"ID":592909,"DIS_CODE":0,"TOWNNAME":"南區","LI":"新興里","LIN":"11鄰","STREET":"西門路","SECT":"一段","MAREA":" ","LANE":" ","ALLEY":" ","HOUSE_NO":"４３３號","E_COORD97":167712.25,"N_COORD97":2542365.3199999998,"ADDRESS":"西門路一段４３３號","OBJECTID":592882},"geometry":{"x":167712.25000000093,"y":2542365.3200000022}},{"attributes":{"ID":592910,"DIS_CODE":0,"TOWNNAME":"南區","LI":"新興里","LIN":"11鄰","STREET":"西門路","SECT":"一段","MAREA":" ","LANE":" ","ALLEY":" ","HOUSE_NO":"４３５號","E_COORD97":167711.17999999999,"N_COORD97":2542373.2000000002,"ADDRESS":"西門路一段４３５號","OBJECTID":592883},"geometry":{"x":167711.1799999997,"y":2542373.1999999993}},{"attributes":{"ID":592911,"DIS_CODE":0,"TOWNNAME":"南區","LI":"新興里","LIN":"11鄰","STREET":"西門路","SECT":"一段","MAREA":" ","LANE":" ","ALLEY":" ","HOUSE_NO":"４３７號","E_COORD97":167711.17999999999,"N_COORD97":2542378.21,"ADDRESS":"西門路一段４３７號","OBJECTID":592884},"geometry":{"x":167711.1799999997,"y":2542378.2100000009}},{"attributes":{"ID":592912,"DIS_CODE":0,"TOWNNAME":"南區","LI":"新興里","LIN":"11鄰","STREET":"西門路","SECT":"一段","MAREA":" ","LANE":" ","ALLEY":" ","HOUSE_NO":"４３９號","E_COORD97":167710.82000000001,"N_COORD97":2542383.23,"ADDRESS":"西門路一段４３９號","OBJECTID":592885},"geometry":{"x":167710.8200000003,"y":2542383.2300000023}},{"attributes":{"ID":592913,"DIS_CODE":0,"TOWNNAME":"南區","LI":"新興里","LIN":"11鄰","STREET":"西門路","SECT":"一段","MAREA":" ","LANE":" ","ALLEY":" ","HOUSE_NO":"４３９號之１","E_COORD97":167711.54000000001,"N_COORD97":2542388.25,"ADDRESS":"西門路一段４３９號之１","OBJECTID":592886},"geometry":{"x":167711.54000000097,"y":2542388.2499999981}},{"attributes":{"ID":592914,"DIS_CODE":0,"TOWNNAME":"南區","LI":"新興里","LIN":"11鄰","STREET":"西門路","SECT":"一段","MAREA":" ","LANE":" ","ALLEY":" ","HOUSE_NO":"４３９號之２","E_COORD97":167710.82000000001,"N_COORD97":2542392.8999999999,"ADDRESS":"西門路一段４３９號之２","OBJECTID":592887},"geometry":{"x":167710.8200000003,"y":2542392.9000000004}},{"attributes":{"ID":592915,"DIS_CODE":0,"TOWNNAME":"南區","LI":"新興里","LIN":"11鄰","STREET":"西門路","SECT":"一段","MAREA":" ","LANE":" ","ALLEY":" ","HOUSE_NO":"４３９號之３","E_COORD97":167709.73999999999,"N_COORD97":2542397.9199999999,"ADDRESS":"西門路一段４３９號之３","OBJECTID":592888},"geometry":{"x":167709.74000000022,"y":2542397.9200000018}},{"attributes":{"ID":592916,"DIS_CODE":0,"TOWNNAME":"仁德區","LI":"仁德里","LIN":"35鄰","STREET":"文山路","SECT":" ","MAREA":" ","LANE":" ","ALLEY":" ","HOUSE_NO":"１３９號","E_COORD97":172806.84,"N_COORD97":2541723.8199999998,"ADDRESS":"文山路１３９號","OBJECTID":592889},"geometry":{"x":172806.84000000078,"y":2541723.820000004}},{"attributes":{"ID":592917,"DIS_CODE":0,"TOWNNAME":"仁德區","LI":"仁義里","LIN":"36鄰","STREET":"勝利路","SECT":" ","MAREA":" ","LANE":" ","ALLEY":" ","HOUSE_NO":"９７號","E_COORD97":173722.20999999999,"N_COORD97":2539868,"ADDRESS":"勝利路９７號","OBJECTID":592890},"geometry":{"x":173722.20999999996,"y":2539868.0000000019}},{"attributes":{"ID":592918,"DIS_CODE":0,"TOWNNAME":"仁德區","LI":"仁義里","LIN":"35鄰","STREET":"中正路","SECT":"二段","MAREA":" ","LANE":" ","ALLEY":" ","HOUSE_NO":"６９０號","E_COORD97":173401.98000000001,"N_COORD97":2539932.02,"ADDRESS":"中正路二段６９０號","OBJECTID":592891},"geometry":{"x":173401.98000000138,"y":2539932.0200000014}},{"attributes":{"ID":592919,"DIS_CODE":0,"TOWNNAME":"仁德區","LI":"太子里","LIN":"6鄰","STREET":"長興二街","SECT":" ","MAREA":" ","LANE":" ","ALLEY":" ","HOUSE_NO":"６５號","E_COORD97":174243.57000000001,"N_COORD97":2543685.75,"ADDRESS":"長興二街６５號","OBJECTID":592892},"geometry":{"x":174243.57000000123,"y":2543685.75}},{"attributes":{"ID":592920,"DIS_CODE":0,"TOWNNAME":"仁德區","LI":"保安里","LIN":"12鄰","STREET":"開發六路","SECT":" ","MAREA":" ","LANE":" ","ALLEY":" ","HOUSE_NO":"２９號","E_COORD97":173139.67999999999,"N_COORD97":2535896.2599999998,"ADDRESS":"開發六路２９號","OBJECTID":592893},"geometry":{"x":173139.68000000156,"y":2535896.2600000016}},{"attributes":{"ID":592921,"DIS_CODE":0,"TOWNNAME":"北區","LI":"延平里","LIN":"11鄰","STREET":"公園路","SECT":" ","MAREA":" ","LANE":" ","ALLEY":" ","HOUSE_NO":"７９０號","E_COORD97":169151.54000000001,"N_COORD97":2545789.2400000002,"ADDRESS":"公園路７９０號","OBJECTID":592894},"geometry":{"x":169151.54000000004,"y":2545789.2400000039}},{"attributes":{"ID":592922,"DIS_CODE":0,"TOWNNAME":"北區","LI":"延平里","LIN":"11鄰","STREET":"公園路","SECT":" ","MAREA":" ","LANE":" ","ALLEY":" ","HOUSE_NO":"７９２號","E_COORD97":169152.67000000001,"N_COORD97":2545793.8599999999,"ADDRESS":"公園路７９２號","OBJECTID":592895},"geometry":{"x":169152.66999999993,"y":2545793.8599999994}},{"attributes":{"ID":592923,"DIS_CODE":0,"TOWNNAME":"北區","LI":"延平里","LIN":"11鄰","STREET":"公園路","SECT":" ","MAREA":" ","LANE":" ","ALLEY":" ","HOUSE_NO":"７９４號","E_COORD97":169153.92999999999,"N_COORD97":2545797.79,"ADDRESS":"公園路７９４號","OBJECTID":592896},"geometry":{"x":169153.9299999997,"y":2545797.7900000028}},{"attributes":{"ID":592924,"DIS_CODE":0,"TOWNNAME":"北區","LI":"延平里","LIN":"11鄰","STREET":"公園路","SECT":" ","MAREA":" ","LANE":" ","ALLEY":" ","HOUSE_NO":"７９８號","E_COORD97":169162.20999999999,"N_COORD97":2545814.8900000001,"ADDRESS":"公園路７９８號","OBJECTID":592897},"geometry":{"x":169162.20999999996,"y":2545814.8900000006}},{"attributes":{"ID":592925,"DIS_CODE":0,"TOWNNAME":"安平區","LI":"金城里","LIN":"11鄰","STREET":"世平路","SECT":" ","MAREA":" ","LANE":" ","ALLEY":" ","HOUSE_NO":"１０號之１０","E_COORD97":163004.10999999999,"N_COORD97":2543946.8100000001,"ADDRESS":"世平路１０號之１０","OBJECTID":592898},"geometry":{"x":163004.11000000127,"y":2543946.8100000005}},{"attributes":{"ID":592926,"DIS_CODE":0,"TOWNNAME":"玉井區","LI":"玉田里","LIN":"11鄰","STREET":"民主街","SECT":" ","MAREA":" ","LANE":" ","ALLEY":" ","HOUSE_NO":"２８號","E_COORD97":194856.84,"N_COORD97":2558039.29,"ADDRESS":"民主街２８號","OBJECTID":592899},"geometry":{"x":194856.83999999985,"y":2558039.2899999991}},{"attributes":{"ID":592927,"DIS_CODE":0,"TOWNNAME":"歸仁區","LI":"大潭里","LIN":"11鄰","STREET":"中正南路","SECT":"三段","MAREA":" ","LANE":" ","ALLEY":" ","HOUSE_NO":"２８２號","E_COORD97":175126.39999999999,"N_COORD97":2534675.2799999998,"ADDRESS":"中正南路三段２８２號","OBJECTID":592900},"geometry":{"x":175126.4000000013,"y":2534675.2800000012}},{"attributes":{"ID":592928,"DIS_CODE":0,"TOWNNAME":"歸仁區","LI":"歸南里","LIN":"11鄰","STREET":"民生南街","SECT":"二段","MAREA":" ","LANE":" ","ALLEY":" ","HOUSE_NO":"２０７號","E_COORD97":176096.94,"N_COORD97":2540124.29,"ADDRESS":"民生南街二段２０７號","OBJECTID":592901},"geometry":{"x":176096.94000000134,"y":2540124.2899999991}},{"attributes":{"ID":592929,"DIS_CODE":0,"TOWNNAME":"歸仁區","LI":"崙頂里","LIN":"11鄰","STREET":"成功路","SECT":"二段","MAREA":" ","LANE":" ","ALLEY":" ","HOUSE_NO":"１４９號","E_COORD97":177954.17999999999,"N_COORD97":2539700.25,"ADDRESS":"成功路二段１４９號","OBJECTID":592902},"geometry":{"x":177954.18000000063,"y":2539700.2500000019}},{"attributes":{"ID":592930,"DIS_CODE":0,"TOWNNAME":"歸仁區","LI":"南保里","LIN":"11鄰","STREET":"文化街","SECT":"三段","MAREA":" ","LANE":" ","ALLEY":" ","HOUSE_NO":"１５８號","E_COORD97":176629.14000000001,"N_COORD97":2541207.3300000001,"ADDRESS":"文化街三段１５８號","OBJECTID":592903},"geometry":{"x":176629.1400000006,"y":2541207.3300000001}},{"attributes":{"ID":592931,"DIS_CODE":0,"TOWNNAME":"歸仁區","LI":"許厝里","LIN":"11鄰","STREET":"信義南路","SECT":" ","MAREA":" ","LANE":" ","ALLEY":" ","HOUSE_NO":"１０９號","E_COORD97":178139.81,"N_COORD97":2540434.1000000001,"ADDRESS":"信義南路１０９號","OBJECTID":592904},"geometry":{"x":178139.81000000052,"y":2540434.1000000015}},{"attributes":{"ID":592932,"DIS_CODE":0,"TOWNNAME":"歸仁區","LI":"南興里","LIN":"11鄰","STREET":"民生二街","SECT":" ","MAREA":" ","LANE":" ","ALLEY":" ","HOUSE_NO":"１４０號","E_COORD97":176044.14000000001,"N_COORD97":2541347.29,"ADDRESS":"民生二街１４０號","OBJECTID":592905},"geometry":{"x":176044.1400000006,"y":2541347.290000001}},{"attributes":{"ID":592933,"DIS_CODE":0,"TOWNNAME":"歸仁區","LI":"文化里","LIN":"11鄰","STREET":"文化北街","SECT":" ","MAREA":" ","LANE":" ","ALLEY":" ","HOUSE_NO":"６０號","E_COORD97":177323.85999999999,"N_COORD97":2541407.3399999999,"ADDRESS":"文化北街６０號","OBJECTID":592906},"geometry":{"x":177323.86000000034,"y":2541407.3399999999}},{"attributes":{"ID":592934,"DIS_CODE":0,"TOWNNAME":"歸仁區","LI":"新厝里","LIN":"11鄰","STREET":"公園十街","SECT":" ","MAREA":" ","LANE":" ","ALLEY":" ","HOUSE_NO":"１８號","E_COORD97":177673.53,"N_COORD97":2540475.25,"ADDRESS":"公園十街１８號","OBJECTID":592907},"geometry":{"x":177673.53000000026,"y":2540475.25}},{"attributes":{"ID":592935,"DIS_CODE":0,"TOWNNAME":"歸仁區","LI":"南興里","LIN":"11鄰","STREET":"民生二街","SECT":" ","MAREA":" ","LANE":" ","ALLEY":" ","HOUSE_NO":"１５０號","E_COORD97":176022.54000000001,"N_COORD97":2541347.29,"ADDRESS":"民生二街１５０號","OBJECTID":592908},"geometry":{"x":176022.54000000004,"y":2541347.290000001}},{"attributes":{"ID":592936,"DIS_CODE":0,"TOWNNAME":"歸仁區","LI":"新厝里","LIN":"11鄰","STREET":"公園路","SECT":" ","MAREA":" ","LANE":" ","ALLEY":" ","HOUSE_NO":"２２０號","E_COORD97":177708.92999999999,"N_COORD97":2540423,"ADDRESS":"公園路２２０號","OBJECTID":592909},"geometry":{"x":177708.93000000063,"y":2540423}},{"attributes":{"ID":592937,"DIS_CODE":0,"TOWNNAME":"歸仁區","LI":"大廟里","LIN":"11鄰","STREET":"大廟六街","SECT":" ","MAREA":" ","LANE":" ","ALLEY":" ","HOUSE_NO":"３０之２號","E_COORD97":176021.38,"N_COORD97":2544226.1299999999,"ADDRESS":"大廟六街３０之２號","OBJECTID":592910},"geometry":{"x":176021.37999999989,"y":2544226.1300000008}},{"attributes":{"ID":592938,"DIS_CODE":0,"TOWNNAME":"歸仁區","LI":"大廟里","LIN":"11鄰","STREET":"大廟五街","SECT":" ","MAREA":" ","LANE":" ","ALLEY":" ","HOUSE_NO":"１４號","E_COORD97":175930.67000000001,"N_COORD97":2544177.2400000002,"ADDRESS":"大廟五街１４號","OBJECTID":592911},"geometry":{"x":175930.67000000086,"y":2544177.2400000002}},{"attributes":{"ID":592939,"DIS_CODE":0,"TOWNNAME":"歸仁區","LI":"南保里","LIN":"11鄰","STREET":"文化街","SECT":"三段","MAREA":" ","LANE":" ","ALLEY":" ","HOUSE_NO":"１７２號","E_COORD97":176579.94,"N_COORD97":2541199.3300000001,"ADDRESS":"文化街三段１７２號","OBJECTID":592912},"geometry":{"x":176579.94000000227,"y":2541199.3300000019}},{"attributes":{"ID":592940,"DIS_CODE":0,"TOWNNAME":"歸仁區","LI":"文化里","LIN":"11鄰","STREET":"文化北街","SECT":" ","MAREA":" ","LANE":" ","ALLEY":" ","HOUSE_NO":"６６號","E_COORD97":177311.56,"N_COORD97":2541408.3399999999,"ADDRESS":"文化北街６６號","OBJECTID":592913},"geometry":{"x":177311.55999999959,"y":2541408.3400000017}},{"attributes":{"ID":592941,"DIS_CODE":0,"TOWNNAME":"歸仁區","LI":"大廟里","LIN":"11鄰","STREET":"大廟六街","SECT":" ","MAREA":" ","LANE":" ","ALLEY":" ","HOUSE_NO":"３０之８號","E_COORD97":176014.07999999999,"N_COORD97":2544203.1299999999,"ADDRESS":"大廟六街３０之８號","OBJECTID":592914},"geometry":{"x":176014.08000000194,"y":2544203.1300000008}},{"attributes":{"ID":592942,"DIS_CODE":0,"TOWNNAME":"歸仁區","LI":"大廟里","LIN":"11鄰","STREET":"保大路","SECT":"三段","MAREA":" ","LANE":" ","ALLEY":" ","HOUSE_NO":"１６２號","E_COORD97":176020.17000000001,"N_COORD97":2544135.2799999998,"ADDRESS":"保大路三段１６２號","OBJECTID":592915},"geometry":{"x":176020.17000000179,"y":2544135.2799999993}},{"attributes":{"ID":592943,"DIS_CODE":0,"TOWNNAME":"歸仁區","LI":"後市里","LIN":"11鄰","STREET":"民權七街","SECT":" ","MAREA":" ","LANE":" ","ALLEY":" ","HOUSE_NO":"１９號","E_COORD97":177042.29000000001,"N_COORD97":2540731.25,"ADDRESS":"民權七街１９號","OBJECTID":592916},"geometry":{"x":177042.29000000097,"y":2540731.2500000019}},{"attributes":{"ID":592944,"DIS_CODE":0,"TOWNNAME":"歸仁區","LI":"歸仁里","LIN":"11鄰","STREET":"信義北路","SECT":" ","MAREA":" ","LANE":" ","ALLEY":" ","HOUSE_NO":"６５號","E_COORD97":177975.70999999999,"N_COORD97":2540936.48,"ADDRESS":"信義北路６５號","OBJECTID":592917},"geometry":{"x":177975.70999999996,"y":2540936.4800000042}},{"attributes":{"ID":592945,"DIS_CODE":0,"TOWNNAME":"歸仁區","LI":"大潭里","LIN":"11鄰","STREET":"大潭二街","SECT":" ","MAREA":" ","LANE":" ","ALLEY":" ","HOUSE_NO":"２５號","E_COORD97":175048.85999999999,"N_COORD97":2534677.25,"ADDRESS":"大潭二街２５號","OBJECTID":592918},"geometry":{"x":175048.86000000034,"y":2534677.25}},{"attributes":{"ID":592946,"DIS_CODE":0,"TOWNNAME":"歸仁區","LI":"許厝里","LIN":"11鄰","STREET":"信義南路","SECT":" ","MAREA":" ","LANE":" ","ALLEY":" ","HOUSE_NO":"１０５號","E_COORD97":178140.81,"N_COORD97":2540443.1000000001,"ADDRESS":"信義南路１０５號","OBJECTID":592919},"geometry":{"x":178140.80999999959,"y":2540443.1000000034}},{"attributes":{"ID":592947,"DIS_CODE":0,"TOWNNAME":"歸仁區","LI":"文化里","LIN":"11鄰","STREET":"文化北街","SECT":" ","MAREA":" ","LANE":" ","ALLEY":" ","HOUSE_NO":"３６號","E_COORD97":177367.95999999999,"N_COORD97":2541404.3399999999,"ADDRESS":"文化北街３６號","OBJECTID":592920},"geometry":{"x":177367.96000000089,"y":2541404.3400000036}},{"attributes":{"ID":592948,"DIS_CODE":0,"TOWNNAME":"歸仁區","LI":"七甲里","LIN":"11鄰","STREET":"大德路","SECT":" ","MAREA":" ","LANE":" ","ALLEY":" ","HOUSE_NO":"１０２０號","E_COORD97":176096.51999999999,"N_COORD97":2541571.27,"ADDRESS":"大德路１０２０號","OBJECTID":592921},"geometry":{"x":176096.51999999955,"y":2541571.2700000014}},{"attributes":{"ID":592949,"DIS_CODE":0,"TOWNNAME":"歸仁區","LI":"後市里","LIN":"11鄰","STREET":"民權南路","SECT":" ","MAREA":" ","LANE":" ","ALLEY":" ","HOUSE_NO":"２１號","E_COORD97":176992.87,"N_COORD97":2540743.29,"ADDRESS":"民權南路２１號","OBJECTID":592922},"geometry":{"x":176992.87000000011,"y":2540743.290000001}},{"attributes":{"ID":592950,"DIS_CODE":0,"TOWNNAME":"玉井區","LI":"玉田里","LIN":"11鄰","STREET":"太子街","SECT":" ","MAREA":" ","LANE":" ","ALLEY":" ","HOUSE_NO":"２８號","E_COORD97":194811.79000000001,"N_COORD97":2558014.2599999998,"ADDRESS":"太子街２８號","OBJECTID":592923},"geometry":{"x":194811.79000000004,"y":2558014.2600000035}},{"attributes":{"ID":592951,"DIS_CODE":0,"TOWNNAME":"玉井區","LI":"玉田里","LIN":"11鄰","STREET":"民主街","SECT":" ","MAREA":" ","LANE":" ","ALLEY":" ","HOUSE_NO":"３０號","E_COORD97":194869.23999999999,"N_COORD97":2558031.29,"ADDRESS":"民主街３０號","OBJECTID":592924},"geometry":{"x":194869.24000000115,"y":2558031.290000001}},{"attributes":{"ID":592952,"DIS_CODE":0,"TOWNNAME":"玉井區","LI":"玉田里","LIN":"11鄰","STREET":"太子街","SECT":" ","MAREA":" ","LANE":" ","ALLEY":" ","HOUSE_NO":"２２號","E_COORD97":194809.89000000001,"N_COORD97":2558002.25,"ADDRESS":"太子街２２號","OBJECTID":592925},"geometry":{"x":194809.8900000006,"y":2558002.2500000019}},{"attributes":{"ID":592953,"DIS_CODE":0,"TOWNNAME":"玉井區","LI":"玉田里","LIN":"11鄰","STREET":"民主街","SECT":" ","MAREA":" ","LANE":" ","ALLEY":" ","HOUSE_NO":"４號","E_COORD97":194816.38,"N_COORD97":2558021.29,"ADDRESS":"民主街４號","OBJECTID":592926},"geometry":{"x":194816.37999999989,"y":2558021.290000001}},{"attributes":{"ID":592954,"DIS_CODE":0,"TOWNNAME":"玉井區","LI":"玉田里","LIN":"11鄰","STREET":"太子街","SECT":" ","MAREA":" ","LANE":" ","ALLEY":" ","HOUSE_NO":"２６號","E_COORD97":194809.59,"N_COORD97":2558010.2599999998,"ADDRESS":"太子街２６號","OBJECTID":592927},"geometry":{"x":194809.58999999985,"y":2558010.2599999998}},{"attributes":{"ID":592955,"DIS_CODE":0,"TOWNNAME":"玉井區","LI":"玉田里","LIN":"11鄰","STREET":"民主街","SECT":" ","MAREA":" ","LANE":" ","ALLEY":" ","HOUSE_NO":"２２號","E_COORD97":194833.92999999999,"N_COORD97":2558044.29,"ADDRESS":"民主街２２號","OBJECTID":592928},"geometry":{"x":194833.9299999997,"y":2558044.290000001}},{"attributes":{"ID":592956,"DIS_CODE":0,"TOWNNAME":"玉井區","LI":"玉田里","LIN":"11鄰","STREET":"民主街","SECT":" ","MAREA":" ","LANE":" ","ALLEY":" ","HOUSE_NO":"６號","E_COORD97":194819.48999999999,"N_COORD97":2558025.29,"ADDRESS":"民主街６號","OBJECTID":592929},"geometry":{"x":194819.48999999929,"y":2558025.290000001}},{"attributes":{"ID":592957,"DIS_CODE":0,"TOWNNAME":"北區","LI":"文元里","LIN":"11鄰","STREET":"文賢路","SECT":" ","MAREA":" ","LANE":" ","ALLEY":" ","HOUSE_NO":"１０８４號","E_COORD97":167356.92999999999,"N_COORD97":2546210.73,"ADDRESS":"文賢路１０８４號","OBJECTID":592930},"geometry":{"x":167356.9299999997,"y":2546210.7300000023}},{"attributes":{"ID":592958,"DIS_CODE":0,"TOWNNAME":"北區","LI":"文元里","LIN":"11鄰","STREET":"文賢路","SECT":" ","MAREA":" ","LANE":" ","ALLEY":" ","HOUSE_NO":"１０９２號","E_COORD97":167355.91,"N_COORD97":2546234.1099999999,"ADDRESS":"文賢路１０９２號","OBJECTID":592931},"geometry":{"x":167355.91000000015,"y":2546234.1100000013}},{"attributes":{"ID":592959,"DIS_CODE":0,"TOWNNAME":"學甲區","LI":"慈福里","LIN":"11鄰","STREET":"民生路","SECT":" ","MAREA":" ","LANE":" ","ALLEY":" ","HOUSE_NO":"２６號之１","E_COORD97":166492.79999999999,"N_COORD97":2570265.6200000001,"ADDRESS":"民生路２６號之１","OBJECTID":592932},"geometry":{"x":166492.80000000075,"y":2570265.620000001}},{"attributes":{"ID":592960,"DIS_CODE":0,"TOWNNAME":"學甲區","LI":"慈福里","LIN":"11鄰","STREET":"民生路","SECT":" ","MAREA":" ","LANE":" ","ALLEY":" ","HOUSE_NO":"２６號之２","E_COORD97":166494.07000000001,"N_COORD97":2570269.98,"ADDRESS":"民生路２６號之２","OBJECTID":592933},"geometry":{"x":166494.0700000003,"y":2570269.9800000042}},{"attributes":{"ID":592961,"DIS_CODE":0,"TOWNNAME":"學甲區","LI":"慈福里","LIN":"11鄰","STREET":"民生路","SECT":" ","MAREA":" ","LANE":" ","ALLEY":" ","HOUSE_NO":"２６號","E_COORD97":166492.73000000001,"N_COORD97":2570260.6699999999,"ADDRESS":"民生路２６號","OBJECTID":592934},"geometry":{"x":166492.73000000045,"y":2570260.6699999999}},{"attributes":{"ID":592962,"DIS_CODE":0,"TOWNNAME":"學甲區","LI":"慈福里","LIN":"11鄰","STREET":"民生路","SECT":" ","MAREA":" ","LANE":" ","ALLEY":" ","HOUSE_NO":"２８號","E_COORD97":166496.88,"N_COORD97":2570275.3199999998,"ADDRESS":"民生路２８號","OBJECTID":592935},"geometry":{"x":166496.88000000175,"y":2570275.3200000022}},{"attributes":{"ID":592963,"DIS_CODE":0,"TOWNNAME":"學甲區","LI":"新達里","LIN":"11鄰","STREET":"民族路","SECT":" ","MAREA":" ","LANE":" ","ALLEY":" ","HOUSE_NO":"１００號","E_COORD97":166708.42000000001,"N_COORD97":2570662.7400000002,"ADDRESS":"民族路１００號","OBJECTID":592936},"geometry":{"x":166708.42000000179,"y":2570662.7400000021}},{"attributes":{"ID":592964,"DIS_CODE":0,"TOWNNAME":"學甲區","LI":"新達里","LIN":"11鄰","STREET":"民族路","SECT":" ","MAREA":" ","LANE":" ","ALLEY":" ","HOUSE_NO":"１０２號","E_COORD97":166707.57000000001,"N_COORD97":2570658.3900000001,"ADDRESS":"民族路１０２號","OBJECTID":592937},"geometry":{"x":166707.5700000003,"y":2570658.3900000025}},{"attributes":{"ID":592965,"DIS_CODE":0,"TOWNNAME":"學甲區","LI":"新達里","LIN":"11鄰","STREET":"民族路","SECT":" ","MAREA":" ","LANE":" ","ALLEY":" ","HOUSE_NO":"１０４號","E_COORD97":166706.70999999999,"N_COORD97":2570654.04,"ADDRESS":"民族路１０４號","OBJECTID":592938},"geometry":{"x":166706.71000000089,"y":2570654.0399999991}},{"attributes":{"ID":592966,"DIS_CODE":0,"TOWNNAME":"學甲區","LI":"新達里","LIN":"11鄰","STREET":"民族路","SECT":" ","MAREA":" ","LANE":" ","ALLEY":" ","HOUSE_NO":"１０６號","E_COORD97":166705.85000000001,"N_COORD97":2570649.6899999999,"ADDRESS":"民族路１０６號","OBJECTID":592939},"geometry":{"x":166705.85000000056,"y":2570649.6899999995}},{"attributes":{"ID":592967,"DIS_CODE":0,"TOWNNAME":"學甲區","LI":"新達里","LIN":"11鄰","STREET":"民族路","SECT":" ","MAREA":" ","LANE":" ","ALLEY":" ","HOUSE_NO":"１０８號","E_COORD97":166704.98999999999,"N_COORD97":2570645.3399999999,"ADDRESS":"民族路１０８號","OBJECTID":592940},"geometry":{"x":166704.99000000209,"y":2570645.3399999999}},{"attributes":{"ID":592968,"DIS_CODE":0,"TOWNNAME":"學甲區","LI":"新達里","LIN":"11鄰","STREET":"民族路","SECT":" ","MAREA":" ","LANE":" ","ALLEY":" ","HOUSE_NO":"１１０號","E_COORD97":166704.13,"N_COORD97":2570640.9900000002,"ADDRESS":"民族路１１０號","OBJECTID":592941},"geometry":{"x":166704.13000000082,"y":2570640.9900000002}},{"attributes":{"ID":592969,"DIS_CODE":0,"TOWNNAME":"學甲區","LI":"新達里","LIN":"11鄰","STREET":"民族路","SECT":" ","MAREA":" ","LANE":" ","ALLEY":" ","HOUSE_NO":"１１２號","E_COORD97":166703.26999999999,"N_COORD97":2570636.6400000001,"ADDRESS":"民族路１１２號","OBJECTID":592942},"geometry":{"x":166703.26999999955,"y":2570636.6400000025}},{"attributes":{"ID":592970,"DIS_CODE":0,"TOWNNAME":"學甲區","LI":"新達里","LIN":"11鄰","STREET":"民族路","SECT":" ","MAREA":" ","LANE":" ","ALLEY":" ","HOUSE_NO":"１１４號","E_COORD97":166702.42000000001,"N_COORD97":2570632.29,"ADDRESS":"民族路１１４號","OBJECTID":592943},"geometry":{"x":166702.42000000086,"y":2570632.2900000028}},{"attributes":{"ID":592971,"DIS_CODE":0,"TOWNNAME":"學甲區","LI":"新達里","LIN":"11鄰","STREET":"民族路","SECT":" ","MAREA":" ","LANE":" ","ALLEY":" ","HOUSE_NO":"１１６號","E_COORD97":166701.56,"N_COORD97":2570627.9399999999,"ADDRESS":"民族路１１６號","OBJECTID":592944},"geometry":{"x":166701.55999999959,"y":2570627.9399999995}},{"attributes":{"ID":592972,"DIS_CODE":0,"TOWNNAME":"學甲區","LI":"新達里","LIN":"11鄰","STREET":"民族路","SECT":" ","MAREA":" ","LANE":" ","ALLEY":" ","HOUSE_NO":"１１８號","E_COORD97":166699.89999999999,"N_COORD97":2570623.6600000001,"ADDRESS":"民族路１１８號","OBJECTID":592945},"geometry":{"x":166699.90000000037,"y":2570623.6600000001}},{"attributes":{"ID":592973,"DIS_CODE":0,"TOWNNAME":"學甲區","LI":"新達里","LIN":"11鄰","STREET":"民族路","SECT":" ","MAREA":" ","LANE":" ","ALLEY":" ","HOUSE_NO":"１２０號","E_COORD97":166699.04000000001,"N_COORD97":2570619.3100000001,"ADDRESS":"民族路１２０號","OBJECTID":592946},"geometry":{"x":166699.04000000004,"y":2570619.3100000005}},{"attributes":{"ID":592974,"DIS_CODE":0,"TOWNNAME":"學甲區","LI":"新達里","LIN":"11鄰","STREET":"民族路","SECT":" ","MAREA":" ","LANE":" ","ALLEY":" ","HOUSE_NO":"１２２號","E_COORD97":166698.17999999999,"N_COORD97":2570614.96,"ADDRESS":"民族路１２２號","OBJECTID":592947},"geometry":{"x":166698.18000000063,"y":2570614.9600000009}},{"attributes":{"ID":592975,"DIS_CODE":0,"TOWNNAME":"學甲區","LI":"新達里","LIN":"11鄰","STREET":"民族路","SECT":" ","MAREA":" ","LANE":" ","ALLEY":" ","HOUSE_NO":"１２４號","E_COORD97":166697.04000000001,"N_COORD97":2570610.79,"ADDRESS":"民族路１２４號","OBJECTID":592948},"geometry":{"x":166697.04000000004,"y":2570610.7899999991}},{"attributes":{"ID":592976,"DIS_CODE":0,"TOWNNAME":"學甲區","LI":"新達里","LIN":"11鄰","STREET":"民族路","SECT":" ","MAREA":" ","LANE":" ","ALLEY":" ","HOUSE_NO":"１２６號","E_COORD97":166696.17999999999,"N_COORD97":2570606.4399999999,"ADDRESS":"民族路１２６號","OBJECTID":592949},"geometry":{"x":166696.17999999877,"y":2570606.4399999995}},{"attributes":{"ID":592977,"DIS_CODE":0,"TOWNNAME":"學甲區","LI":"新達里","LIN":"11鄰","STREET":"民族路","SECT":" ","MAREA":" ","LANE":" ","ALLEY":" ","HOUSE_NO":"９８號","E_COORD97":166709.28,"N_COORD97":2570667.0899999999,"ADDRESS":"民族路９８號","OBJECTID":592950},"geometry":{"x":166709.28000000026,"y":2570667.0899999999}},{"attributes":{"ID":592978,"DIS_CODE":0,"TOWNNAME":"學甲區","LI":"仁得里","LIN":"11鄰","STREET":"民權路","SECT":" ","MAREA":" ","LANE":" ","ALLEY":" ","HOUSE_NO":"７６號","E_COORD97":166016.41,"N_COORD97":2570186.9399999999,"ADDRESS":"民權路７６號","OBJECTID":592951},"geometry":{"x":166016.41000000015,"y":2570186.9399999995}},{"attributes":{"ID":592979,"DIS_CODE":0,"TOWNNAME":"學甲區","LI":"明宜里","LIN":"11鄰","STREET":"和平路","SECT":" ","MAREA":" ","LANE":" ","ALLEY":" ","HOUSE_NO":"２８９號","E_COORD97":165989.70000000001,"N_COORD97":2570461.3799999999,"ADDRESS":"和平路２８９號","OBJECTID":592952},"geometry":{"x":165989.70000000205,"y":2570461.379999999}},{"attributes":{"ID":592980,"DIS_CODE":0,"TOWNNAME":"學甲區","LI":"明宜里","LIN":"11鄰","STREET":"和平路","SECT":" ","MAREA":" ","LANE":" ","ALLEY":" ","HOUSE_NO":"２９１號","E_COORD97":165990.14999999999,"N_COORD97":2570465.3199999998,"ADDRESS":"和平路２９１號","OBJECTID":592953},"geometry":{"x":165990.14999999944,"y":2570465.3200000022}},{"attributes":{"ID":592981,"DIS_CODE":0,"TOWNNAME":"學甲區","LI":"明宜里","LIN":"11鄰","STREET":"和平路","SECT":" ","MAREA":" ","LANE":" ","ALLEY":" ","HOUSE_NO":"２９９號","E_COORD97":165984.98999999999,"N_COORD97":2570489.7799999998,"ADDRESS":"和平路２９９號","OBJECTID":592954},"geometry":{"x":165984.99000000115,"y":2570489.7799999993}},{"attributes":{"ID":592982,"DIS_CODE":0,"TOWNNAME":"學甲區","LI":"明宜里","LIN":"11鄰","STREET":"和平路","SECT":" ","MAREA":" ","LANE":" ","ALLEY":" ","HOUSE_NO":"３０３號","E_COORD97":165993.28,"N_COORD97":2570494.5699999998,"ADDRESS":"和平路３０３號","OBJECTID":592955},"geometry":{"x":165993.28000000119,"y":2570494.5700000003}},{"attributes":{"ID":592983,"DIS_CODE":0,"TOWNNAME":"學甲區","LI":"明宜里","LIN":"11鄰","STREET":"和平路","SECT":" ","MAREA":" ","LANE":" ","ALLEY":" ","HOUSE_NO":"３０５號","E_COORD97":165995.89000000001,"N_COORD97":2570499.75,"ADDRESS":"和平路３０５號","OBJECTID":592956},"geometry":{"x":165995.88999999966,"y":2570499.75}},{"attributes":{"ID":592984,"DIS_CODE":0,"TOWNNAME":"學甲區","LI":"仁得里","LIN":"11鄰","STREET":"建國路","SECT":" ","MAREA":" ","LANE":" ","ALLEY":" ","HOUSE_NO":"８６號","E_COORD97":165960.07999999999,"N_COORD97":2570075.6299999999,"ADDRESS":"建國路８６號","OBJECTID":592957},"geometry":{"x":165960.08000000101,"y":2570075.629999999}},{"attributes":{"ID":592985,"DIS_CODE":0,"TOWNNAME":"學甲區","LI":"明宜里","LIN":"11鄰","STREET":"宮西路","SECT":" ","MAREA":" ","LANE":" ","ALLEY":" ","HOUSE_NO":"３６號","E_COORD97":165929.82999999999,"N_COORD97":2570454.8100000001,"ADDRESS":"宮西路３６號","OBJECTID":592958},"geometry":{"x":165929.83000000101,"y":2570454.8100000024}},{"attributes":{"ID":592986,"DIS_CODE":0,"TOWNNAME":"北區","LI":"新勝里","LIN":"11鄰","STREET":"長榮路","SECT":"五段","MAREA":" ","LANE":" ","ALLEY":" ","HOUSE_NO":"１４１號","E_COORD97":170065.95999999999,"N_COORD97":2545697.9100000001,"ADDRESS":"長榮路五段１４１號","OBJECTID":592959},"geometry":{"x":170065.95999999996,"y":2545697.910000002}},{"attributes":{"ID":592987,"DIS_CODE":0,"TOWNNAME":"北區","LI":"新勝里","LIN":"11鄰","STREET":"長榮路","SECT":"五段","MAREA":" ","LANE":" ","ALLEY":" ","HOUSE_NO":"１４３號","E_COORD97":170065.44,"N_COORD97":2545702.6699999999,"ADDRESS":"長榮路五段１４３號","OBJECTID":592960},"geometry":{"x":170065.44000000134,"y":2545702.6700000018}},{"attributes":{"ID":592988,"DIS_CODE":0,"TOWNNAME":"北區","LI":"新勝里","LIN":"11鄰","STREET":"長榮路","SECT":"五段","MAREA":" ","LANE":" ","ALLEY":" ","HOUSE_NO":"１４５號","E_COORD97":170064.92000000001,"N_COORD97":2545706.2599999998,"ADDRESS":"長榮路五段１４５號","OBJECTID":592961},"geometry":{"x":170064.92000000179,"y":2545706.2599999998}},{"attributes":{"ID":592989,"DIS_CODE":0,"TOWNNAME":"北區","LI":"六甲里","LIN":"11鄰","STREET":"西門路","SECT":"四段","MAREA":" ","LANE":" ","ALLEY":" ","HOUSE_NO":"２０２號","E_COORD97":168866.39999999999,"N_COORD97":2545661.3300000001,"ADDRESS":"西門路四段２０２號","OBJECTID":592962},"geometry":{"x":168866.40000000037,"y":2545661.3300000019}},{"attributes":{"ID":592990,"DIS_CODE":0,"TOWNNAME":"北區","LI":"六甲里","LIN":"11鄰","STREET":"西門路","SECT":"四段","MAREA":" ","LANE":" ","ALLEY":" ","HOUSE_NO":"２０４號","E_COORD97":168867.88,"N_COORD97":2545666.1699999999,"ADDRESS":"西門路四段２０４號","OBJECTID":592963},"geometry":{"x":168867.87999999989,"y":2545666.1699999999}},{"attributes":{"ID":592991,"DIS_CODE":0,"TOWNNAME":"北區","LI":"六甲里","LIN":"11鄰","STREET":"西門路","SECT":"四段","MAREA":" ","LANE":" ","ALLEY":" ","HOUSE_NO":"２０６號","E_COORD97":168868.72,"N_COORD97":2545669.54,"ADDRESS":"西門路四段２０６號","OBJECTID":592964},"geometry":{"x":168868.71999999974,"y":2545669.5399999991}},{"attributes":{"ID":592992,"DIS_CODE":0,"TOWNNAME":"北區","LI":"六甲里","LIN":"11鄰","STREET":"西門路","SECT":"四段","MAREA":" ","LANE":" ","ALLEY":" ","HOUSE_NO":"２０８號","E_COORD97":168870.41,"N_COORD97":2545673.7599999998,"ADDRESS":"西門路四段２０８號","OBJECTID":592965},"geometry":{"x":168870.41000000108,"y":2545673.7600000016}},{"attributes":{"ID":592993,"DIS_CODE":0,"TOWNNAME":"北區","LI":"六甲里","LIN":"11鄰","STREET":"西門路","SECT":"四段","MAREA":" ","LANE":" ","ALLEY":" ","HOUSE_NO":"２１０號","E_COORD97":168872.51999999999,"N_COORD97":2545677.7599999998,"ADDRESS":"西門路四段２１０號","OBJECTID":592966},"geometry":{"x":168872.52000000048,"y":2545677.7600000016}},{"attributes":{"ID":592994,"DIS_CODE":0,"TOWNNAME":"北區","LI":"六甲里","LIN":"11鄰","STREET":"西門路","SECT":"四段","MAREA":" ","LANE":" ","ALLEY":" ","HOUSE_NO":"２１２號","E_COORD97":168874.42000000001,"N_COORD97":2545684.5,"ADDRESS":"西門路四段２１２號","OBJECTID":592967},"geometry":{"x":168874.41999999993,"y":2545684.5}},{"attributes":{"ID":592995,"DIS_CODE":0,"TOWNNAME":"北區","LI":"六甲里","LIN":"11鄰","STREET":"西門路","SECT":"四段","MAREA":" ","LANE":" ","ALLEY":" ","HOUSE_NO":"２１４號","E_COORD97":168875.10000000001,"N_COORD97":2545689.7000000002,"ADDRESS":"西門路四段２１４號","OBJECTID":592968},"geometry":{"x":168875.10000000149,"y":2545689.6999999993}},{"attributes":{"ID":592996,"DIS_CODE":0,"TOWNNAME":"北區","LI":"六甲里","LIN":"11鄰","STREET":"西門路","SECT":"四段","MAREA":" ","LANE":" ","ALLEY":" ","HOUSE_NO":"２１６號","E_COORD97":168876.16,"N_COORD97":2545694.3300000001,"ADDRESS":"西門路四段２１６號","OBJECTID":592969},"geometry":{"x":168876.16000000015,"y":2545694.3300000019}},{"attributes":{"ID":592997,"DIS_CODE":0,"TOWNNAME":"北區","LI":"六甲里","LIN":"11鄰","STREET":"西門路","SECT":"四段","MAREA":" ","LANE":" ","ALLEY":" ","HOUSE_NO":"２１８號","E_COORD97":168878.06,"N_COORD97":2545697.9100000001,"ADDRESS":"西門路四段２１８號","OBJECTID":592970},"geometry":{"x":168878.05999999959,"y":2545697.910000002}},{"attributes":{"ID":592998,"DIS_CODE":0,"TOWNNAME":"北區","LI":"六甲里","LIN":"11鄰","STREET":"西門路","SECT":"四段","MAREA":" ","LANE":" ","ALLEY":" ","HOUSE_NO":"２２４號","E_COORD97":168883.32999999999,"N_COORD97":2545712.2400000002,"ADDRESS":"西門路四段２２４號","OBJECTID":592971},"geometry":{"x":168883.33000000007,"y":2545712.2400000021}},{"attributes":{"ID":592999,"DIS_CODE":0,"TOWNNAME":"北區","LI":"六甲里","LIN":"11鄰","STREET":"西門路","SECT":"四段","MAREA":" ","LANE":" ","ALLEY":" ","HOUSE_NO":"２３２號","E_COORD97":168892.82999999999,"N_COORD97":2545739.7799999998,"ADDRESS":"西門路四段２３２號","OBJECTID":592972},"geometry":{"x":168892.83000000101,"y":2545739.7799999993}},{"attributes":{"ID":593000,"DIS_CODE":0,"TOWNNAME":"北區","LI":"六甲里","LIN":"11鄰","STREET":"西門路","SECT":"四段","MAREA":" ","LANE":" ","ALLEY":" ","HOUSE_NO":"２５２號","E_COORD97":168919.81,"N_COORD97":2545805.21,"ADDRESS":"西門路四段２５２號","OBJECTID":592973},"geometry":{"x":168919.81000000052,"y":2545805.2100000028}},{"attributes":{"ID":593001,"DIS_CODE":0,"TOWNNAME":"北區","LI":"六甲里","LIN":"11鄰","STREET":"西門路","SECT":"四段","MAREA":" ","LANE":" ","ALLEY":" ","HOUSE_NO":"２６２號","E_COORD97":168930.45000000001,"N_COORD97":2545825.6899999999,"ADDRESS":"西門路四段２６２號","OBJECTID":592974},"geometry":{"x":168930.45000000019,"y":2545825.6899999995}},{"attributes":{"ID":593002,"DIS_CODE":0,"TOWNNAME":"北區","LI":"六甲里","LIN":"11鄰","STREET":"西門路","SECT":"四段","MAREA":" ","LANE":" ","ALLEY":" ","HOUSE_NO":"２６８號","E_COORD97":168933.48000000001,"N_COORD97":2545847.3100000001,"ADDRESS":"西門路四段２６８號","OBJECTID":592975},"geometry":{"x":168933.48000000138,"y":2545847.3100000024}},{"attributes":{"ID":593003,"DIS_CODE":0,"TOWNNAME":"北區","LI":"六甲里","LIN":"11鄰","STREET":"西門路","SECT":"四段","MAREA":" ","LANE":" ","ALLEY":" ","HOUSE_NO":"２７４號","E_COORD97":168937.66,"N_COORD97":2545862.8700000001,"ADDRESS":"西門路四段２７４號","OBJECTID":592976},"geometry":{"x":168937.66000000015,"y":2545862.870000001}},{"attributes":{"ID":593004,"DIS_CODE":0,"TOWNNAME":"歸仁區","LI":"南保里","LIN":"11鄰","STREET":"文化街","SECT":"三段","MAREA":" ","LANE":" ","ALLEY":" ","HOUSE_NO":"１７４號","E_COORD97":176574.84,"N_COORD97":2541198.3300000001,"ADDRESS":"文化街三段１７４號","OBJECTID":592977},"geometry":{"x":176574.84000000171,"y":2541198.3300000019}},{"attributes":{"ID":593005,"DIS_CODE":0,"TOWNNAME":"歸仁區","LI":"七甲里","LIN":"11鄰","STREET":"大德路","SECT":" ","MAREA":" ","LANE":" ","ALLEY":" ","HOUSE_NO":"１０３２號","E_COORD97":175989.92000000001,"N_COORD97":2541568.27,"ADDRESS":"大德路１０３２號","OBJECTID":592978},"geometry":{"x":175989.92000000086,"y":2541568.2700000014}},{"attributes":{"ID":593006,"DIS_CODE":0,"TOWNNAME":"歸仁區","LI":"大廟里","LIN":"11鄰","STREET":"保大路","SECT":"三段","MAREA":" ","LANE":" ","ALLEY":" ","HOUSE_NO":"１８８號","E_COORD97":175959.67000000001,"N_COORD97":2544143.2799999998,"ADDRESS":"保大路三段１８８號","OBJECTID":592979},"geometry":{"x":175959.67000000086,"y":2544143.2799999993}},{"attributes":{"ID":593007,"DIS_CODE":0,"TOWNNAME":"歸仁區","LI":"大潭里","LIN":"11鄰","STREET":"大潭二街","SECT":" ","MAREA":" ","LANE":" ","ALLEY":" ","HOUSE_NO":"３７號","E_COORD97":175021.06,"N_COORD97":2534653.25,"ADDRESS":"大潭二街３７號","OBJECTID":592980},"geometry":{"x":175021.06000000052,"y":2534653.25}},{"attributes":{"ID":593008,"DIS_CODE":0,"TOWNNAME":"歸仁區","LI":"七甲里","LIN":"11鄰","STREET":"大德路","SECT":" ","MAREA":" ","LANE":" ","ALLEY":" ","HOUSE_NO":"１１２０號","E_COORD97":175751.92000000001,"N_COORD97":2541559.27,"ADDRESS":"大德路１１２０號","OBJECTID":592981},"geometry":{"x":175751.91999999993,"y":2541559.2699999996}},{"attributes":{"ID":593009,"DIS_CODE":0,"TOWNNAME":"歸仁區","LI":"八甲里","LIN":"11鄰","STREET":"大光一街","SECT":" ","MAREA":" ","LANE":" ","ALLEY":" ","HOUSE_NO":"９２號","E_COORD97":177874.42000000001,"N_COORD97":2541935.6099999999,"ADDRESS":"大光一街９２號","OBJECTID":592982},"geometry":{"x":177874.41999999993,"y":2541935.6100000013}},{"attributes":{"ID":593010,"DIS_CODE":0,"TOWNNAME":"歸仁區","LI":"八甲里","LIN":"11鄰","STREET":"大光一街","SECT":" ","MAREA":" ","LANE":" ","ALLEY":" ","HOUSE_NO":"９０號","E_COORD97":177857.92000000001,"N_COORD97":2541924.6099999999,"ADDRESS":"大光一街９０號","OBJECTID":592983},"geometry":{"x":177857.92000000086,"y":2541924.6100000013}},{"attributes":{"ID":593011,"DIS_CODE":0,"TOWNNAME":"歸仁區","LI":"七甲里","LIN":"11鄰","STREET":"丁厝街","SECT":" ","MAREA":" ","LANE":" ","ALLEY":" ","HOUSE_NO":"３３號","E_COORD97":176022.89000000001,"N_COORD97":2541917.25,"ADDRESS":"丁厝街３３號","OBJECTID":592984},"geometry":{"x":176022.88999999966,"y":2541917.2500000037}},{"attributes":{"ID":593012,"DIS_CODE":0,"TOWNNAME":"歸仁區","LI":"七甲里","LIN":"11鄰","STREET":"丁厝街","SECT":" ","MAREA":" ","LANE":" ","ALLEY":" ","HOUSE_NO":"１０７號","E_COORD97":175880.73999999999,"N_COORD97":2541940.25,"ADDRESS":"丁厝街１０７號","OBJECTID":592985},"geometry":{"x":175880.74000000022,"y":2541940.25}},{"attributes":{"ID":593013,"DIS_CODE":0,"TOWNNAME":"歸仁區","LI":"大廟里","LIN":"11鄰","STREET":"大廟五街","SECT":" ","MAREA":" ","LANE":" ","ALLEY":" ","HOUSE_NO":"１０號","E_COORD97":175925.57000000001,"N_COORD97":2544169.25,"ADDRESS":"大廟五街１０號","OBJECTID":592986},"geometry":{"x":175925.5700000003,"y":2544169.2500000019}},{"attributes":{"ID":593014,"DIS_CODE":0,"TOWNNAME":"歸仁區","LI":"大廟里","LIN":"11鄰","STREET":"保大路","SECT":"三段","MAREA":" ","LANE":" ","ALLEY":" ","HOUSE_NO":"１８０號","E_COORD97":175977.07000000001,"N_COORD97":2544137.2799999998,"ADDRESS":"保大路三段１８０號","OBJECTID":592987},"geometry":{"x":175977.07000000216,"y":2544137.2800000012}},{"attributes":{"ID":593015,"DIS_CODE":0,"TOWNNAME":"歸仁區","LI":"大廟里","LIN":"11鄰","STREET":"大廟六街","SECT":" ","MAREA":" ","LANE":" ","ALLEY":" ","HOUSE_NO":"３０之３號","E_COORD97":176019.28,"N_COORD97":2544221.1299999999,"ADDRESS":"大廟六街３０之３號","OBJECTID":592988},"geometry":{"x":176019.28000000026,"y":2544221.129999999}},{"attributes":{"ID":593016,"DIS_CODE":0,"TOWNNAME":"歸仁區","LI":"大廟里","LIN":"11鄰","STREET":"保大路","SECT":"三段","MAREA":" ","LANE":" ","ALLEY":" ","HOUSE_NO":"１９８號","E_COORD97":175932.07000000001,"N_COORD97":2544153.2799999998,"ADDRESS":"保大路三段１９８號","OBJECTID":592989},"geometry":{"x":175932.07000000123,"y":2544153.2799999993}},{"attributes":{"ID":593017,"DIS_CODE":0,"TOWNNAME":"歸仁區","LI":"八甲里","LIN":"11鄰","STREET":"大光一街","SECT":" ","MAREA":" ","LANE":" ","ALLEY":" ","HOUSE_NO":"８８號","E_COORD97":177855.82000000001,"N_COORD97":2541916.6099999999,"ADDRESS":"大光一街８８號","OBJECTID":592990},"geometry":{"x":177855.82000000123,"y":2541916.6099999994}},{"attributes":{"ID":593018,"DIS_CODE":0,"TOWNNAME":"歸仁區","LI":"大廟里","LIN":"11鄰","STREET":"大廟五街","SECT":" ","MAREA":" ","LANE":" ","ALLEY":" ","HOUSE_NO":"１６號","E_COORD97":175932.76999999999,"N_COORD97":2544181.25,"ADDRESS":"大廟五街１６號","OBJECTID":592991},"geometry":{"x":175932.77000000048,"y":2544181.25}},{"attributes":{"ID":593019,"DIS_CODE":0,"TOWNNAME":"歸仁區","LI":"七甲里","LIN":"11鄰","STREET":"大德路","SECT":" ","MAREA":" ","LANE":" ","ALLEY":" ","HOUSE_NO":"１０２６號","E_COORD97":176053.51999999999,"N_COORD97":2541575.27,"ADDRESS":"大德路１０２６號","OBJECTID":592992},"geometry":{"x":176053.52000000048,"y":2541575.2700000014}},{"attributes":{"ID":593020,"DIS_CODE":0,"TOWNNAME":"歸仁區","LI":"大潭里","LIN":"11鄰","STREET":"大潭二街","SECT":" ","MAREA":" ","LANE":" ","ALLEY":" ","HOUSE_NO":"２９號","E_COORD97":175023.16,"N_COORD97":2534664.25,"ADDRESS":"大潭二街２９號","OBJECTID":592993},"geometry":{"x":175023.16000000015,"y":2534664.25}},{"attributes":{"ID":593021,"DIS_CODE":0,"TOWNNAME":"歸仁區","LI":"大潭里","LIN":"11鄰","STREET":"大潭二街","SECT":" ","MAREA":" ","LANE":" ","ALLEY":" ","HOUSE_NO":"４３號","E_COORD97":175030.26000000001,"N_COORD97":2534643.25,"ADDRESS":"大潭二街４３號","OBJECTID":592994},"geometry":{"x":175030.25999999978,"y":2534643.25}},{"attributes":{"ID":593022,"DIS_CODE":0,"TOWNNAME":"歸仁區","LI":"武東里","LIN":"11鄰","STREET":"中正南路","SECT":"二段","MAREA":" ","LANE":" ","ALLEY":" ","HOUSE_NO":"２５６號","E_COORD97":175385.01000000001,"N_COORD97":2535310.2799999998,"ADDRESS":"中正南路二段２５６號","OBJECTID":592995},"geometry":{"x":175385.00999999978,"y":2535310.2799999993}},{"attributes":{"ID":593023,"DIS_CODE":0,"TOWNNAME":"歸仁區","LI":"大潭里","LIN":"11鄰","STREET":"大潭二街","SECT":" ","MAREA":" ","LANE":" ","ALLEY":" ","HOUSE_NO":"１７號","E_COORD97":175073.56,"N_COORD97":2534690.25,"ADDRESS":"大潭二街１７號","OBJECTID":592996},"geometry":{"x":175073.56000000052,"y":2534690.2500000019}},{"attributes":{"ID":593024,"DIS_CODE":0,"TOWNNAME":"歸仁區","LI":"七甲里","LIN":"11鄰","STREET":"大德路","SECT":" ","MAREA":" ","LANE":" ","ALLEY":" ","HOUSE_NO":"１０５２號","E_COORD97":175877.22,"N_COORD97":2541589.27,"ADDRESS":"大德路１０５２號","OBJECTID":592997},"geometry":{"x":175877.2200000016,"y":2541589.2700000014}},{"attributes":{"ID":593025,"DIS_CODE":0,"TOWNNAME":"歸仁區","LI":"大潭里","LIN":"11鄰","STREET":"大潭二街","SECT":" ","MAREA":" ","LANE":" ","ALLEY":" ","HOUSE_NO":"４１號","E_COORD97":175035.45999999999,"N_COORD97":2534650.25,"ADDRESS":"大潭二街４１號","OBJECTID":592998},"geometry":{"x":175035.46000000089,"y":2534650.25}},{"attributes":{"ID":593026,"DIS_CODE":0,"TOWNNAME":"歸仁區","LI":"七甲里","LIN":"11鄰","STREET":"大德路","SECT":" ","MAREA":" ","LANE":" ","ALLEY":" ","HOUSE_NO":"１１６６之１號","E_COORD97":175604.81,"N_COORD97":2541561,"ADDRESS":"大德路１１６６之１號","OBJECTID":592999},"geometry":{"x":175604.80999999959,"y":2541561.0000000019}},{"attributes":{"ID":593027,"DIS_CODE":0,"TOWNNAME":"歸仁區","LI":"七甲里","LIN":"11鄰","STREET":"大德路","SECT":" ","MAREA":" ","LANE":" ","ALLEY":" ","HOUSE_NO":"１０１６號","E_COORD97":176115.01999999999,"N_COORD97":2541578.27,"ADDRESS":"大德路１０１６號","OBJECTID":593000},"geometry":{"x":176115.01999999955,"y":2541578.2700000014}}]}