{"displayFieldName":"TOWNNAME","fieldAliases":{"ID":"ID","DIS_CODE":"DIS_CODE","TOWNNAME":"TOWNNAME","LI":"LI","LIN":"LIN","STREET":"STREET","SECT":"SECT","MAREA":"MAREA","LANE":"LANE","ALLEY":"ALLEY","HOUSE_NO":"HOUSE_NO","E_COORD97":"E_COORD97","N_COORD97":"N_COORD97","ADDRESS":"ADDRESS","OBJECTID":"OBJECTID"},"geometryType":"esriGeometryPoint","spatialReference":{"wkid":102443,"latestWkid":3826},"fields":[{"name":"ID","type":"esriFieldTypeDouble","alias":"ID"},{"name":"DIS_CODE","type":"esriFieldTypeInteger","alias":"DIS_CODE"},{"name":"TOWNNAME","type":"esriFieldTypeString","alias":"TOWNNAME","length":8},{"name":"LI","type":"esriFieldTypeString","alias":"LI","length":8},{"name":"LIN","type":"esriFieldTypeString","alias":"LIN","length":12},{"name":"STREET","type":"esriFieldTypeString","alias":"STREET","length":20},{"name":"SECT","type":"esriFieldTypeString","alias":"SECT","length":8},{"name":"MAREA","type":"esriFieldTypeString","alias":"MAREA","length":12},{"name":"LANE","type":"esriFieldTypeString","alias":"LANE","length":10},{"name":"ALLEY","type":"esriFieldTypeString","alias":"ALLEY","length":10},{"name":"HOUSE_NO","type":"esriFieldTypeString","alias":"HOUSE_NO","length":20},{"name":"E_COORD97","type":"esriFieldTypeDouble","alias":"E_COORD97"},{"name":"N_COORD97","type":"esriFieldTypeDouble","alias":"N_COORD97"},{"name":"ADDRESS","type":"esriFieldTypeString","alias":"ADDRESS","length":50},{"name":"OBJECTID","type":"esriFieldTypeOID","alias":"OBJECTID"}],"features":[{"attributes":{"ID":62401,"DIS_CODE":0,"TOWNNAME":"東區","LI":"大同里","LIN":"31鄰","STREET":"大同路","SECT":"一段","MAREA":" ","LANE":"１７５巷","ALLEY":"１５８弄","HOUSE_NO":"１號","E_COORD97":169384.85000000001,"N_COORD97":2542581.6699999999,"ADDRESS":"大同路一段１７５巷１５８弄１號","OBJECTID":62401},"geometry":{"x":169384.84999999963,"y":2542581.6699999999}},{"attributes":{"ID":62402,"DIS_CODE":0,"TOWNNAME":"東山區","LI":"東山里","LIN":" ","STREET":"中興路","SECT":" ","MAREA":" ","LANE":" ","ALLEY":" ","HOUSE_NO":"１４１號","E_COORD97":188952.76000000001,"N_COORD97":2580399.25,"ADDRESS":"中興路１４１號","OBJECTID":62402},"geometry":{"x":188952.76000000071,"y":2580399.2500000019}},{"attributes":{"ID":62403,"DIS_CODE":0,"TOWNNAME":"東區","LI":"大同里","LIN":"31鄰","STREET":"大同路","SECT":"一段","MAREA":" ","LANE":"１７５巷","ALLEY":"１５８弄","HOUSE_NO":"２號","E_COORD97":169383.04999999999,"N_COORD97":2542585.2599999998,"ADDRESS":"大同路一段１７５巷１５８弄２號","OBJECTID":62403},"geometry":{"x":169383.05000000075,"y":2542585.2600000016}},{"attributes":{"ID":62404,"DIS_CODE":0,"TOWNNAME":"東山區","LI":"東中里","LIN":" ","STREET":"永安街","SECT":" ","MAREA":" ","LANE":" ","ALLEY":" ","HOUSE_NO":"１６號","E_COORD97":188658.32000000001,"N_COORD97":2579644.1299999999,"ADDRESS":"永安街１６號","OBJECTID":62404},"geometry":{"x":188658.3200000003,"y":2579644.129999999}},{"attributes":{"ID":62405,"DIS_CODE":0,"TOWNNAME":"東區","LI":"大同里","LIN":"31鄰","STREET":"大同路","SECT":"一段","MAREA":" ","LANE":"１７５巷","ALLEY":"１５８弄","HOUSE_NO":"３號","E_COORD97":169381.48000000001,"N_COORD97":2542587.8399999999,"ADDRESS":"大同路一段１７５巷１５８弄３號","OBJECTID":62405},"geometry":{"x":169381.48000000045,"y":2542587.8400000036}},{"attributes":{"ID":62406,"DIS_CODE":0,"TOWNNAME":"麻豆區","LI":"麻口里","LIN":"8鄰","STREET":" ","SECT":" ","MAREA":"麻豆口","LANE":" ","ALLEY":" ","HOUSE_NO":"７４號","E_COORD97":169857.95999999999,"N_COORD97":2564334.7999999998,"ADDRESS":"麻豆口７４號","OBJECTID":62406},"geometry":{"x":169857.96000000183,"y":2564334.8000000045}},{"attributes":{"ID":62407,"DIS_CODE":0,"TOWNNAME":"新營區","LI":"民榮里","LIN":" ","STREET":"復興路","SECT":" ","MAREA":" ","LANE":" ","ALLEY":" ","HOUSE_NO":"１５７之２０號","E_COORD97":179054.98000000001,"N_COORD97":2578010.27,"ADDRESS":"復興路１５７之２０號","OBJECTID":62407},"geometry":{"x":179054.98000000138,"y":2578010.2699999977}},{"attributes":{"ID":62408,"DIS_CODE":0,"TOWNNAME":"新營區","LI":"三仙里","LIN":"26鄰","STREET":"育德三街","SECT":" ","MAREA":" ","LANE":" ","ALLEY":" ","HOUSE_NO":"６號","E_COORD97":179570.03,"N_COORD97":2579004.4399999999,"ADDRESS":"育德三街６號","OBJECTID":62408},"geometry":{"x":179570.03000000119,"y":2579004.4399999995}},{"attributes":{"ID":62409,"DIS_CODE":0,"TOWNNAME":"新營區","LI":"大宏里","LIN":"17鄰","STREET":"三民路","SECT":" ","MAREA":" ","LANE":" ","ALLEY":" ","HOUSE_NO":"４６之２３號","E_COORD97":180346.14999999999,"N_COORD97":2578536.8199999998,"ADDRESS":"三民路４６之２３號","OBJECTID":62409},"geometry":{"x":180346.15000000037,"y":2578536.8200000022}},{"attributes":{"ID":62410,"DIS_CODE":0,"TOWNNAME":"新營區","LI":"民榮里","LIN":" ","STREET":"復興路","SECT":" ","MAREA":" ","LANE":" ","ALLEY":" ","HOUSE_NO":"１６７之１４號","E_COORD97":178949.01000000001,"N_COORD97":2577882.3100000001,"ADDRESS":"復興路１６７之１４號","OBJECTID":62410},"geometry":{"x":178949.01000000071,"y":2577882.3100000042}},{"attributes":{"ID":62411,"DIS_CODE":0,"TOWNNAME":"東區","LI":"大同里","LIN":"31鄰","STREET":"大同路","SECT":"一段","MAREA":" ","LANE":"１７５巷","ALLEY":"１５８弄","HOUSE_NO":"４號","E_COORD97":169378.67999999999,"N_COORD97":2542590.6400000001,"ADDRESS":"大同路一段１７５巷１５８弄４號","OBJECTID":62411},"geometry":{"x":169378.68000000063,"y":2542590.6400000025}},{"attributes":{"ID":62412,"DIS_CODE":0,"TOWNNAME":"東區","LI":"大同里","LIN":"31鄰","STREET":"大同路","SECT":"一段","MAREA":" ","LANE":"１７５巷","ALLEY":"１５８弄","HOUSE_NO":"５號","E_COORD97":169377.09,"N_COORD97":2542595.4199999999,"ADDRESS":"大同路一段１７５巷１５８弄５號","OBJECTID":62412},"geometry":{"x":169377.09000000171,"y":2542595.4200000018}},{"attributes":{"ID":62413,"DIS_CODE":0,"TOWNNAME":"東區","LI":"大同里","LIN":"31鄰","STREET":"大同路","SECT":"一段","MAREA":" ","LANE":"１７５巷","ALLEY":"１５８弄","HOUSE_NO":"６號","E_COORD97":169373.75,"N_COORD97":2542599.04,"ADDRESS":"大同路一段１７５巷１５８弄６號","OBJECTID":62413},"geometry":{"x":169373.75,"y":2542599.0400000028}},{"attributes":{"ID":62414,"DIS_CODE":0,"TOWNNAME":"東區","LI":"大同里","LIN":"31鄰","STREET":"大同路","SECT":"一段","MAREA":" ","LANE":"１７５巷","ALLEY":"１５８弄","HOUSE_NO":"７號","E_COORD97":169364.17999999999,"N_COORD97":2542594.3999999999,"ADDRESS":"大同路一段１７５巷１５８弄７號","OBJECTID":62414},"geometry":{"x":169364.1799999997,"y":2542594.3999999985}},{"attributes":{"ID":62415,"DIS_CODE":0,"TOWNNAME":"東區","LI":"大同里","LIN":"31鄰","STREET":"大同路","SECT":"一段","MAREA":" ","LANE":"１７５巷","ALLEY":"１５８弄","HOUSE_NO":"８號","E_COORD97":169366.44,"N_COORD97":2542588.8399999999,"ADDRESS":"大同路一段１７５巷１５８弄８號","OBJECTID":62415},"geometry":{"x":169366.44000000041,"y":2542588.8400000017}},{"attributes":{"ID":62416,"DIS_CODE":0,"TOWNNAME":"東區","LI":"大同里","LIN":"31鄰","STREET":"大同路","SECT":"一段","MAREA":" ","LANE":"１７５巷","ALLEY":"１５８弄","HOUSE_NO":"９號","E_COORD97":169369.35999999999,"N_COORD97":2542584.6899999999,"ADDRESS":"大同路一段１７５巷１５８弄９號","OBJECTID":62416},"geometry":{"x":169369.36000000127,"y":2542584.6899999976}},{"attributes":{"ID":62417,"DIS_CODE":0,"TOWNNAME":"東區","LI":"大同里","LIN":"31鄰","STREET":"大同路","SECT":"一段","MAREA":" ","LANE":"１７５巷","ALLEY":"１６６弄","HOUSE_NO":"１號","E_COORD97":169365.76999999999,"N_COORD97":2542570.6800000002,"ADDRESS":"大同路一段１７５巷１６６弄１號","OBJECTID":62417},"geometry":{"x":169365.77000000048,"y":2542570.6799999997}},{"attributes":{"ID":62418,"DIS_CODE":0,"TOWNNAME":"東區","LI":"大同里","LIN":"31鄰","STREET":"大同路","SECT":"一段","MAREA":" ","LANE":"１７５巷","ALLEY":"１６６弄","HOUSE_NO":"２號","E_COORD97":169362.73999999999,"N_COORD97":2542575.8399999999,"ADDRESS":"大同路一段１７５巷１６６弄２號","OBJECTID":62418},"geometry":{"x":169362.74000000022,"y":2542575.8399999999}},{"attributes":{"ID":62419,"DIS_CODE":0,"TOWNNAME":"東區","LI":"大同里","LIN":"31鄰","STREET":"大同路","SECT":"一段","MAREA":" ","LANE":"１７５巷","ALLEY":"１６６弄","HOUSE_NO":"３號","E_COORD97":169358.47,"N_COORD97":2542580.8799999999,"ADDRESS":"大同路一段１７５巷１６６弄３號","OBJECTID":62419},"geometry":{"x":169358.46999999974,"y":2542580.8800000008}},{"attributes":{"ID":62420,"DIS_CODE":0,"TOWNNAME":"佳里區","LI":"安西里","LIN":"31鄰","STREET":"光華街","SECT":" ","MAREA":" ","LANE":"１３０巷","ALLEY":"４８弄","HOUSE_NO":"９號","E_COORD97":165088.78,"N_COORD97":2563005.9399999999,"ADDRESS":"光華街１３０巷４８弄９號","OBJECTID":62420},"geometry":{"x":165088.78000000026,"y":2563005.9399999995}},{"attributes":{"ID":62421,"DIS_CODE":0,"TOWNNAME":"東區","LI":"大同里","LIN":"31鄰","STREET":"大同路","SECT":"一段","MAREA":" ","LANE":"１７５巷","ALLEY":"１６６弄","HOUSE_NO":"４號","E_COORD97":169354.54000000001,"N_COORD97":2542585.9300000002,"ADDRESS":"大同路一段１７５巷１６６弄４號","OBJECTID":62421},"geometry":{"x":169354.54000000097,"y":2542585.9299999997}},{"attributes":{"ID":62422,"DIS_CODE":0,"TOWNNAME":"東區","LI":"大同里","LIN":"31鄰","STREET":"大同路","SECT":"一段","MAREA":" ","LANE":"１７５巷","ALLEY":"１６６弄","HOUSE_NO":"５號","E_COORD97":169344.78,"N_COORD97":2542580.1000000001,"ADDRESS":"大同路一段１７５巷１６６弄５號","OBJECTID":62422},"geometry":{"x":169344.78000000119,"y":2542580.1000000015}},{"attributes":{"ID":62423,"DIS_CODE":0,"TOWNNAME":"東區","LI":"大同里","LIN":"31鄰","STREET":"大同路","SECT":"一段","MAREA":" ","LANE":"１７５巷","ALLEY":"１６６弄","HOUSE_NO":"６號","E_COORD97":169347.14000000001,"N_COORD97":2542575.27,"ADDRESS":"大同路一段１７５巷１６６弄６號","OBJECTID":62423},"geometry":{"x":169347.13999999966,"y":2542575.2700000014}},{"attributes":{"ID":62424,"DIS_CODE":0,"TOWNNAME":"東區","LI":"大同里","LIN":"31鄰","STREET":"大同路","SECT":"一段","MAREA":" ","LANE":"１７５巷","ALLEY":"１６６弄","HOUSE_NO":"７號","E_COORD97":169350.62,"N_COORD97":2542569.4399999999,"ADDRESS":"大同路一段１７５巷１６６弄７號","OBJECTID":62424},"geometry":{"x":169350.62000000104,"y":2542569.4399999976}},{"attributes":{"ID":62425,"DIS_CODE":0,"TOWNNAME":"東區","LI":"大同里","LIN":"31鄰","STREET":"大同路","SECT":"一段","MAREA":" ","LANE":"１７５巷","ALLEY":"１６６弄","HOUSE_NO":"８號","E_COORD97":169353.76000000001,"N_COORD97":2542564.1699999999,"ADDRESS":"大同路一段１７５巷１６６弄８號","OBJECTID":62425},"geometry":{"x":169353.75999999885,"y":2542564.1699999999}},{"attributes":{"ID":62426,"DIS_CODE":0,"TOWNNAME":"楠西區","LI":"楠西里","LIN":" ","STREET":"茄拔路","SECT":" ","MAREA":" ","LANE":" ","ALLEY":" ","HOUSE_NO":"４３號","E_COORD97":197142.09,"N_COORD97":2563803.2799999998,"ADDRESS":"茄拔路４３號","OBJECTID":62426},"geometry":{"x":197142.08999999985,"y":2563803.2799999993}},{"attributes":{"ID":62427,"DIS_CODE":0,"TOWNNAME":"楠西區","LI":"東勢里","LIN":" ","STREET":"中正路","SECT":" ","MAREA":" ","LANE":" ","ALLEY":" ","HOUSE_NO":"１６９號","E_COORD97":197353.95999999999,"N_COORD97":2563877.25,"ADDRESS":"中正路１６９號","OBJECTID":62427},"geometry":{"x":197353.96000000183,"y":2563877.2500000019}},{"attributes":{"ID":62428,"DIS_CODE":0,"TOWNNAME":"楠西區","LI":"楠西里","LIN":" ","STREET":"中正路","SECT":" ","MAREA":" ","LANE":" ","ALLEY":" ","HOUSE_NO":"４９號","E_COORD97":197189.81,"N_COORD97":2564088.25,"ADDRESS":"中正路４９號","OBJECTID":62428},"geometry":{"x":197189.80999999959,"y":2564088.2500000019}},{"attributes":{"ID":62429,"DIS_CODE":0,"TOWNNAME":"東山區","LI":"東中里","LIN":" ","STREET":"中興路","SECT":" ","MAREA":" ","LANE":" ","ALLEY":" ","HOUSE_NO":"１１０號","E_COORD97":188985.85000000001,"N_COORD97":2580264.6099999999,"ADDRESS":"中興路１１０號","OBJECTID":62429},"geometry":{"x":188985.85000000056,"y":2580264.6099999994}},{"attributes":{"ID":62430,"DIS_CODE":0,"TOWNNAME":"東山區","LI":"東中里","LIN":" ","STREET":"中興路","SECT":" ","MAREA":" ","LANE":" ","ALLEY":" ","HOUSE_NO":"１１４號","E_COORD97":188984.98999999999,"N_COORD97":2580273,"ADDRESS":"中興路１１４號","OBJECTID":62430},"geometry":{"x":188984.99000000115,"y":2580273}},{"attributes":{"ID":62431,"DIS_CODE":0,"TOWNNAME":"東山區","LI":"東山里","LIN":" ","STREET":"中興路","SECT":" ","MAREA":" ","LANE":" ","ALLEY":" ","HOUSE_NO":"１３１號","E_COORD97":188955.91,"N_COORD97":2580379.3100000001,"ADDRESS":"中興路１３１號","OBJECTID":62431},"geometry":{"x":188955.91000000015,"y":2580379.3100000024}},{"attributes":{"ID":62432,"DIS_CODE":0,"TOWNNAME":"東山區","LI":"東山里","LIN":" ","STREET":"中興路","SECT":" ","MAREA":" ","LANE":" ","ALLEY":" ","HOUSE_NO":"１３５號","E_COORD97":188956.07999999999,"N_COORD97":2580384.7200000002,"ADDRESS":"中興路１３５號","OBJECTID":62432},"geometry":{"x":188956.08000000007,"y":2580384.7200000007}},{"attributes":{"ID":62433,"DIS_CODE":0,"TOWNNAME":"東山區","LI":"東山里","LIN":" ","STREET":"中興路","SECT":" ","MAREA":" ","LANE":" ","ALLEY":" ","HOUSE_NO":"１３７號","E_COORD97":188956.01000000001,"N_COORD97":2580390.0699999998,"ADDRESS":"中興路１３７號","OBJECTID":62433},"geometry":{"x":188956.01000000071,"y":2580390.0700000022}},{"attributes":{"ID":62434,"DIS_CODE":0,"TOWNNAME":"將軍區","LI":"忠興里","LIN":"6鄰","STREET":" ","SECT":" ","MAREA":"忠興","LANE":" ","ALLEY":" ","HOUSE_NO":"７２號","E_COORD97":163789.73000000001,"N_COORD97":2566980.8999999999,"ADDRESS":"忠興７２號","OBJECTID":62434},"geometry":{"x":163789.73000000138,"y":2566980.9000000004}},{"attributes":{"ID":62435,"DIS_CODE":0,"TOWNNAME":"東山區","LI":"東山里","LIN":" ","STREET":"中興路","SECT":" ","MAREA":" ","LANE":" ","ALLEY":" ","HOUSE_NO":"１６８號","E_COORD97":188982.85000000001,"N_COORD97":2580403.9199999999,"ADDRESS":"中興路１６８號","OBJECTID":62435},"geometry":{"x":188982.84999999963,"y":2580403.9200000018}},{"attributes":{"ID":62436,"DIS_CODE":0,"TOWNNAME":"東山區","LI":"東中里","LIN":" ","STREET":"中興路","SECT":" ","MAREA":" ","LANE":" ","ALLEY":" ","HOUSE_NO":"９０號","E_COORD97":188995.73999999999,"N_COORD97":2580222.3999999999,"ADDRESS":"中興路９０號","OBJECTID":62436},"geometry":{"x":188995.74000000115,"y":2580222.4000000022}},{"attributes":{"ID":62437,"DIS_CODE":0,"TOWNNAME":"東山區","LI":"東中里","LIN":" ","STREET":"東仁街","SECT":" ","MAREA":" ","LANE":" ","ALLEY":" ","HOUSE_NO":"７９之１號","E_COORD97":188757.45999999999,"N_COORD97":2579863.23,"ADDRESS":"東仁街７９之１號","OBJECTID":62437},"geometry":{"x":188757.45999999903,"y":2579863.2300000023}},{"attributes":{"ID":62438,"DIS_CODE":0,"TOWNNAME":"永康區","LI":"正強里","LIN":"31鄰","STREET":"自強路","SECT":" ","MAREA":" ","LANE":"２５５巷","ALLEY":"４２弄","HOUSE_NO":"１號之１３","E_COORD97":173121.06,"N_COORD97":2547625.29,"ADDRESS":"自強路２５５巷４２弄１號之１３","OBJECTID":62438},"geometry":{"x":173121.05999999959,"y":2547625.2900000028}},{"attributes":{"ID":62439,"DIS_CODE":0,"TOWNNAME":"安平區","LI":"石門里","LIN":"8鄰","STREET":"安北路","SECT":" ","MAREA":" ","LANE":" ","ALLEY":" ","HOUSE_NO":"５２號","E_COORD97":164563.67000000001,"N_COORD97":2544621.7799999998,"ADDRESS":"安北路５２號","OBJECTID":62439},"geometry":{"x":164563.66999999993,"y":2544621.7800000031}},{"attributes":{"ID":62440,"DIS_CODE":0,"TOWNNAME":"新營區","LI":"嘉芳里","LIN":"5鄰","STREET":" ","SECT":" ","MAREA":"茄苳腳","LANE":" ","ALLEY":" ","HOUSE_NO":"５７號之１７","E_COORD97":176886.20000000001,"N_COORD97":2578419.5,"ADDRESS":"茄苳腳５７之１７號","OBJECTID":62440},"geometry":{"x":176886.20000000019,"y":2578419.4999999981}},{"attributes":{"ID":62441,"DIS_CODE":0,"TOWNNAME":"永康區","LI":"正強里","LIN":"31鄰","STREET":"自強路","SECT":" ","MAREA":" ","LANE":"２５５巷","ALLEY":"４２弄","HOUSE_NO":"１號之２","E_COORD97":173119.85000000001,"N_COORD97":2547625.29,"ADDRESS":"自強路２５５巷４２弄１號之２","OBJECTID":62441},"geometry":{"x":173119.85000000149,"y":2547625.2900000028}},{"attributes":{"ID":62442,"DIS_CODE":0,"TOWNNAME":"永康區","LI":"西灣里","LIN":"31鄰","STREET":"公園路","SECT":" ","MAREA":" ","LANE":"９３巷","ALLEY":"６弄","HOUSE_NO":"２３號","E_COORD97":174201.84,"N_COORD97":2545902.5699999998,"ADDRESS":"公園路９３巷６弄２３號","OBJECTID":62442},"geometry":{"x":174201.84000000078,"y":2545902.570000004}},{"attributes":{"ID":62443,"DIS_CODE":0,"TOWNNAME":"永康區","LI":"建國里","LIN":"31鄰","STREET":"復興路","SECT":" ","MAREA":" ","LANE":"７１巷","ALLEY":"１１２弄","HOUSE_NO":"５４號","E_COORD97":172714.89999999999,"N_COORD97":2543661.5899999999,"ADDRESS":"復興路７１巷１１２弄５４號","OBJECTID":62443},"geometry":{"x":172714.90000000037,"y":2543661.5900000017}},{"attributes":{"ID":62444,"DIS_CODE":0,"TOWNNAME":"永康區","LI":"永康里","LIN":"31鄰","STREET":"聖龍街","SECT":" ","MAREA":" ","LANE":"１８６巷","ALLEY":"３弄","HOUSE_NO":"２０號","E_COORD97":174277.44,"N_COORD97":2547796.3999999999,"ADDRESS":"聖龍街１８６巷３弄２０號","OBJECTID":62444},"geometry":{"x":174277.44000000041,"y":2547796.4000000022}},{"attributes":{"ID":62445,"DIS_CODE":0,"TOWNNAME":"永康區","LI":"西勢里","LIN":"31鄰","STREET":"富強路","SECT":"一段","MAREA":" ","LANE":"９３巷","ALLEY":"１０弄","HOUSE_NO":"２４號","E_COORD97":175467.54000000001,"N_COORD97":2546279.52,"ADDRESS":"富強路一段９３巷１０弄２４號","OBJECTID":62445},"geometry":{"x":175467.54000000097,"y":2546279.5200000014}},{"attributes":{"ID":62446,"DIS_CODE":0,"TOWNNAME":"永康區","LI":"西勢里","LIN":"31鄰","STREET":"富強路","SECT":"一段","MAREA":" ","LANE":"９３巷","ALLEY":"１０弄","HOUSE_NO":"３２號","E_COORD97":175476.35000000001,"N_COORD97":2546294.77,"ADDRESS":"富強路一段９３巷１０弄３２號","OBJECTID":62446},"geometry":{"x":175476.35000000056,"y":2546294.7700000014}},{"attributes":{"ID":62447,"DIS_CODE":0,"TOWNNAME":"安南區","LI":"\u25A0南里","LIN":"31鄰","STREET":"安昌街","SECT":" ","MAREA":" ","LANE":"１７４巷","ALLEY":"１９１弄","HOUSE_NO":"１１３號","E_COORD97":170228.69,"N_COORD97":2552061.98,"ADDRESS":"安昌街１７４巷１９１弄１１３號","OBJECTID":62447},"geometry":{"x":170228.69000000134,"y":2552061.9800000004}},{"attributes":{"ID":62448,"DIS_CODE":0,"TOWNNAME":"安南區","LI":"\u25A0南里","LIN":"31鄰","STREET":"安昌街","SECT":" ","MAREA":" ","LANE":"１７４巷","ALLEY":"１９１弄","HOUSE_NO":"１１５號","E_COORD97":170229.09,"N_COORD97":2552056.3300000001,"ADDRESS":"安昌街１７４巷１９１弄１１５號","OBJECTID":62448},"geometry":{"x":170229.08999999985,"y":2552056.3300000001}},{"attributes":{"ID":62449,"DIS_CODE":0,"TOWNNAME":"安南區","LI":"\u25A0南里","LIN":"31鄰","STREET":"安昌街","SECT":" ","MAREA":" ","LANE":"１７４巷","ALLEY":"１９１弄","HOUSE_NO":"１１７號","E_COORD97":170229.09,"N_COORD97":2552052.29,"ADDRESS":"安昌街１７４巷１９１弄１１７號","OBJECTID":62449},"geometry":{"x":170229.08999999985,"y":2552052.2899999991}},{"attributes":{"ID":62450,"DIS_CODE":0,"TOWNNAME":"安南區","LI":"\u25A0南里","LIN":"31鄰","STREET":"安昌街","SECT":" ","MAREA":" ","LANE":"１７４巷","ALLEY":"１９１弄","HOUSE_NO":"１１９號","E_COORD97":170229.09,"N_COORD97":2552047.6400000001,"ADDRESS":"安昌街１７４巷１９１弄１１９號","OBJECTID":62450},"geometry":{"x":170229.08999999985,"y":2552047.6400000006}},{"attributes":{"ID":62451,"DIS_CODE":0,"TOWNNAME":"安南區","LI":"\u25A0南里","LIN":"31鄰","STREET":"安昌街","SECT":" ","MAREA":" ","LANE":"１７４巷","ALLEY":"１９１弄","HOUSE_NO":"１２１號","E_COORD97":170229.70000000001,"N_COORD97":2552042.1899999999,"ADDRESS":"安昌街１７４巷１９１弄１２１號","OBJECTID":62451},"geometry":{"x":170229.70000000112,"y":2552042.1900000013}},{"attributes":{"ID":62452,"DIS_CODE":0,"TOWNNAME":"安南區","LI":"\u25A0南里","LIN":"31鄰","STREET":"安昌街","SECT":" ","MAREA":" ","LANE":"１７４巷","ALLEY":"１９１弄","HOUSE_NO":"１１１之１號","E_COORD97":170228.70000000001,"N_COORD97":2552066.9199999999,"ADDRESS":"安昌街１７４巷１９１弄１１１之１號","OBJECTID":62452},"geometry":{"x":170228.70000000019,"y":2552066.9200000037}},{"attributes":{"ID":62453,"DIS_CODE":0,"TOWNNAME":"安南區","LI":"州北里","LIN":"31鄰","STREET":"安昌街","SECT":" ","MAREA":" ","LANE":"１１９巷","ALLEY":"３１弄","HOUSE_NO":"１號","E_COORD97":169874.34,"N_COORD97":2552275.1099999999,"ADDRESS":"安昌街１１９巷３１弄１號","OBJECTID":62453},"geometry":{"x":169874.34000000078,"y":2552275.1100000031}},{"attributes":{"ID":62454,"DIS_CODE":0,"TOWNNAME":"安南區","LI":"州北里","LIN":"31鄰","STREET":"安昌街","SECT":" ","MAREA":" ","LANE":"１１９巷","ALLEY":"３１弄","HOUSE_NO":"２號","E_COORD97":169859.84,"N_COORD97":2552276.1099999999,"ADDRESS":"安昌街１１９巷３１弄２號","OBJECTID":62454},"geometry":{"x":169859.83999999985,"y":2552276.1100000013}},{"attributes":{"ID":62455,"DIS_CODE":0,"TOWNNAME":"安南區","LI":"州北里","LIN":"31鄰","STREET":"安昌街","SECT":" ","MAREA":" ","LANE":"１１９巷","ALLEY":"３１弄","HOUSE_NO":"３號","E_COORD97":169874.34,"N_COORD97":2552269.73,"ADDRESS":"安昌街１１９巷３１弄３號","OBJECTID":62455},"geometry":{"x":169874.34000000078,"y":2552269.7300000023}},{"attributes":{"ID":62456,"DIS_CODE":0,"TOWNNAME":"安南區","LI":"州北里","LIN":"31鄰","STREET":"安昌街","SECT":" ","MAREA":" ","LANE":"１１９巷","ALLEY":"３１弄","HOUSE_NO":"５號","E_COORD97":169874.35999999999,"N_COORD97":2552264.9500000002,"ADDRESS":"安昌街１１９巷３１弄５號","OBJECTID":62456},"geometry":{"x":169874.36000000127,"y":2552264.9499999993}},{"attributes":{"ID":62457,"DIS_CODE":0,"TOWNNAME":"安南區","LI":"州北里","LIN":"31鄰","STREET":"安昌街","SECT":" ","MAREA":" ","LANE":"１１９巷","ALLEY":"３１弄","HOUSE_NO":"６號","E_COORD97":169859.53,"N_COORD97":2552269.5600000001,"ADDRESS":"安昌街１１９巷３１弄６號","OBJECTID":62457},"geometry":{"x":169859.53000000212,"y":2552269.5599999987}},{"attributes":{"ID":62458,"DIS_CODE":0,"TOWNNAME":"安南區","LI":"州北里","LIN":"31鄰","STREET":"安昌街","SECT":" ","MAREA":" ","LANE":"１１９巷","ALLEY":"３１弄","HOUSE_NO":"７號","E_COORD97":169874.35999999999,"N_COORD97":2552260.6099999999,"ADDRESS":"安昌街１１９巷３１弄７號","OBJECTID":62458},"geometry":{"x":169874.36000000127,"y":2552260.6099999994}},{"attributes":{"ID":62459,"DIS_CODE":0,"TOWNNAME":"安南區","LI":"州北里","LIN":"31鄰","STREET":"安昌街","SECT":" ","MAREA":" ","LANE":"１１９巷","ALLEY":"３１弄","HOUSE_NO":"８號","E_COORD97":169859.23000000001,"N_COORD97":2552264.2799999998,"ADDRESS":"安昌街１１９巷３１弄８號","OBJECTID":62459},"geometry":{"x":169859.23000000045,"y":2552264.2800000012}},{"attributes":{"ID":62460,"DIS_CODE":0,"TOWNNAME":"安南區","LI":"州北里","LIN":"31鄰","STREET":"安昌街","SECT":" ","MAREA":" ","LANE":"１１９巷","ALLEY":"３１弄","HOUSE_NO":"９號","E_COORD97":169874.42999999999,"N_COORD97":2552255.8100000001,"ADDRESS":"安昌街１１９巷３１弄９號","OBJECTID":62460},"geometry":{"x":169874.4299999997,"y":2552255.8100000024}},{"attributes":{"ID":62461,"DIS_CODE":0,"TOWNNAME":"安南區","LI":"州北里","LIN":"31鄰","STREET":"安昌街","SECT":" ","MAREA":" ","LANE":"１１９巷","ALLEY":"３１弄","HOUSE_NO":"１０號","E_COORD97":169859.53,"N_COORD97":2552259.9399999999,"ADDRESS":"安昌街１１９巷３１弄１０號","OBJECTID":62461},"geometry":{"x":169859.53000000212,"y":2552259.9400000013}},{"attributes":{"ID":62462,"DIS_CODE":0,"TOWNNAME":"仁德區","LI":"上崙里","LIN":"10鄰","STREET":"德善路","SECT":" ","MAREA":" ","LANE":"３０５巷","ALLEY":"１３弄","HOUSE_NO":"７０號","E_COORD97":174036,"N_COORD97":2538432.04,"ADDRESS":"德善路３０５巷１３弄７０號","OBJECTID":62462},"geometry":{"x":174036,"y":2538432.0399999972}},{"attributes":{"ID":62463,"DIS_CODE":0,"TOWNNAME":"安南區","LI":"州北里","LIN":"31鄰","STREET":"安昌街","SECT":" ","MAREA":" ","LANE":"１１９巷","ALLEY":"３１弄","HOUSE_NO":"１１號","E_COORD97":169874.60999999999,"N_COORD97":2552251.3999999999,"ADDRESS":"安昌街１１９巷３１弄１１號","OBJECTID":62463},"geometry":{"x":169874.61000000127,"y":2552251.4000000022}},{"attributes":{"ID":62464,"DIS_CODE":0,"TOWNNAME":"安南區","LI":"州北里","LIN":"31鄰","STREET":"安昌街","SECT":" ","MAREA":" ","LANE":"１１９巷","ALLEY":"３１弄","HOUSE_NO":"１２號","E_COORD97":169859.92000000001,"N_COORD97":2552255.5600000001,"ADDRESS":"安昌街１１９巷３１弄１２號","OBJECTID":62464},"geometry":{"x":169859.92000000179,"y":2552255.5600000005}},{"attributes":{"ID":62465,"DIS_CODE":0,"TOWNNAME":"安南區","LI":"州北里","LIN":"31鄰","STREET":"安昌街","SECT":" ","MAREA":" ","LANE":"１１９巷","ALLEY":"３１弄","HOUSE_NO":"１３號","E_COORD97":169874.75,"N_COORD97":2552247.1099999999,"ADDRESS":"安昌街１１９巷３１弄１３號","OBJECTID":62465},"geometry":{"x":169874.75000000093,"y":2552247.1099999994}},{"attributes":{"ID":62466,"DIS_CODE":0,"TOWNNAME":"西港區","LI":"西港里","LIN":"1鄰","STREET":" ","SECT":" ","MAREA":"中州","LANE":" ","ALLEY":" ","HOUSE_NO":"２５號之３０","E_COORD97":167915.41,"N_COORD97":2559587.48,"ADDRESS":"中州２５號之３０","OBJECTID":62466},"geometry":{"x":167915.41000000015,"y":2559587.4800000023}},{"attributes":{"ID":62467,"DIS_CODE":0,"TOWNNAME":"西港區","LI":"西港里","LIN":"1鄰","STREET":" ","SECT":" ","MAREA":"中州","LANE":" ","ALLEY":" ","HOUSE_NO":"２５號之３１","E_COORD97":167913.22,"N_COORD97":2559590.5899999999,"ADDRESS":"中州２５號之３１","OBJECTID":62467},"geometry":{"x":167913.2200000016,"y":2559590.5899999999}},{"attributes":{"ID":62468,"DIS_CODE":0,"TOWNNAME":"西港區","LI":"西港里","LIN":"1鄰","STREET":" ","SECT":" ","MAREA":"中州","LANE":" ","ALLEY":" ","HOUSE_NO":"２５號之３２","E_COORD97":167910.29000000001,"N_COORD97":2559594.6299999999,"ADDRESS":"中州２５號之３２","OBJECTID":62468},"geometry":{"x":167910.29000000097,"y":2559594.6300000008}},{"attributes":{"ID":62469,"DIS_CODE":0,"TOWNNAME":"西港區","LI":"西港里","LIN":"1鄰","STREET":" ","SECT":" ","MAREA":"中州","LANE":" ","ALLEY":" ","HOUSE_NO":"２５號之３３","E_COORD97":167907.70000000001,"N_COORD97":2559598.2799999998,"ADDRESS":"中州２５號之３３","OBJECTID":62469},"geometry":{"x":167907.70000000112,"y":2559598.2800000012}},{"attributes":{"ID":62470,"DIS_CODE":0,"TOWNNAME":"西港區","LI":"西港里","LIN":"1鄰","STREET":" ","SECT":" ","MAREA":"中州","LANE":" ","ALLEY":" ","HOUSE_NO":"２５號之３４","E_COORD97":167904.78,"N_COORD97":2559602.3300000001,"ADDRESS":"中州２５號之３４","OBJECTID":62470},"geometry":{"x":167904.77999999933,"y":2559602.3300000019}},{"attributes":{"ID":62471,"DIS_CODE":0,"TOWNNAME":"西港區","LI":"西港里","LIN":"1鄰","STREET":" ","SECT":" ","MAREA":"中州","LANE":" ","ALLEY":" ","HOUSE_NO":"２５號之３５","E_COORD97":167901.75,"N_COORD97":2559606.4399999999,"ADDRESS":"中州２５號之３５","OBJECTID":62471},"geometry":{"x":167901.75000000093,"y":2559606.4400000032}},{"attributes":{"ID":62472,"DIS_CODE":0,"TOWNNAME":"西港區","LI":"西港里","LIN":"1鄰","STREET":" ","SECT":" ","MAREA":"中州","LANE":" ","ALLEY":" ","HOUSE_NO":"２５號之３６","E_COORD97":167898.82999999999,"N_COORD97":2559610.4700000002,"ADDRESS":"中州２５號之３６","OBJECTID":62472},"geometry":{"x":167898.83000000007,"y":2559610.4699999988}},{"attributes":{"ID":62473,"DIS_CODE":0,"TOWNNAME":"西港區","LI":"西港里","LIN":"1鄰","STREET":" ","SECT":" ","MAREA":"中州","LANE":" ","ALLEY":" ","HOUSE_NO":"２５號之３７","E_COORD97":167895.89999999999,"N_COORD97":2559614.5299999998,"ADDRESS":"中州２５號之３７","OBJECTID":62473},"geometry":{"x":167895.9000000013,"y":2559614.5299999993}},{"attributes":{"ID":62474,"DIS_CODE":0,"TOWNNAME":"西港區","LI":"西港里","LIN":"1鄰","STREET":" ","SECT":" ","MAREA":"中州","LANE":" ","ALLEY":" ","HOUSE_NO":"２５號之３８","E_COORD97":167892.98000000001,"N_COORD97":2559618.5800000001,"ADDRESS":"中州２５號之３８","OBJECTID":62474},"geometry":{"x":167892.98000000045,"y":2559618.5800000001}},{"attributes":{"ID":62475,"DIS_CODE":0,"TOWNNAME":"安南區","LI":"州北里","LIN":"31鄰","STREET":"安昌街","SECT":" ","MAREA":" ","LANE":"１１９巷","ALLEY":"３１弄","HOUSE_NO":"１５號","E_COORD97":169874.82000000001,"N_COORD97":2552243.0699999998,"ADDRESS":"安昌街１１９巷３１弄１５號","OBJECTID":62475},"geometry":{"x":169874.82000000123,"y":2552243.0700000022}},{"attributes":{"ID":62476,"DIS_CODE":0,"TOWNNAME":"安南區","LI":"州北里","LIN":"31鄰","STREET":"安昌街","SECT":" ","MAREA":" ","LANE":"１１９巷","ALLEY":"３１弄","HOUSE_NO":"１６號","E_COORD97":169859.69,"N_COORD97":2552250.5299999998,"ADDRESS":"安昌街１１９巷３１弄１６號","OBJECTID":62476},"geometry":{"x":169859.69000000041,"y":2552250.5299999993}},{"attributes":{"ID":62477,"DIS_CODE":0,"TOWNNAME":"安南區","LI":"州北里","LIN":"31鄰","STREET":"安昌街","SECT":" ","MAREA":" ","LANE":"１１９巷","ALLEY":"３１弄","HOUSE_NO":"１８號","E_COORD97":169859.60999999999,"N_COORD97":2552247.2599999998,"ADDRESS":"安昌街１１９巷３１弄１８號","OBJECTID":62477},"geometry":{"x":169859.61000000127,"y":2552247.2600000035}},{"attributes":{"ID":62478,"DIS_CODE":0,"TOWNNAME":"安南區","LI":"州北里","LIN":"31鄰","STREET":"安昌街","SECT":" ","MAREA":" ","LANE":"１１９巷","ALLEY":"３１弄","HOUSE_NO":"２０號","E_COORD97":169860.07000000001,"N_COORD97":2552242.54,"ADDRESS":"安昌街１１９巷３１弄２０號","OBJECTID":62478},"geometry":{"x":169860.0700000003,"y":2552242.540000001}},{"attributes":{"ID":62479,"DIS_CODE":0,"TOWNNAME":"永康區","LI":"北灣里","LIN":"31鄰","STREET":"大同街","SECT":" ","MAREA":" ","LANE":"３３巷","ALLEY":"１６弄","HOUSE_NO":"１６號","E_COORD97":175221.29999999999,"N_COORD97":2545375.0600000001,"ADDRESS":"大同街３３巷１６弄１６號","OBJECTID":62479},"geometry":{"x":175221.30000000075,"y":2545375.0600000024}},{"attributes":{"ID":62480,"DIS_CODE":0,"TOWNNAME":"永康區","LI":"正強里","LIN":"31鄰","STREET":"自強路","SECT":" ","MAREA":" ","LANE":"２５５巷","ALLEY":"４２弄","HOUSE_NO":"１號之２７","E_COORD97":173121.04000000001,"N_COORD97":2547625.29,"ADDRESS":"自強路２５５巷４２弄１號之２７","OBJECTID":62480},"geometry":{"x":173121.04000000097,"y":2547625.2900000028}},{"attributes":{"ID":62481,"DIS_CODE":0,"TOWNNAME":"永康區","LI":"西灣里","LIN":"31鄰","STREET":"公園路","SECT":" ","MAREA":" ","LANE":"９３巷","ALLEY":"６弄","HOUSE_NO":"１９號","E_COORD97":174209.67999999999,"N_COORD97":2545904.3199999998,"ADDRESS":"公園路９３巷６弄１９號","OBJECTID":62481},"geometry":{"x":174209.68000000063,"y":2545904.320000004}},{"attributes":{"ID":62482,"DIS_CODE":0,"TOWNNAME":"永康區","LI":"建國里","LIN":"31鄰","STREET":"復興路","SECT":" ","MAREA":" ","LANE":"７１巷","ALLEY":"１１２弄","HOUSE_NO":"６５號","E_COORD97":172669.32000000001,"N_COORD97":2543651.1800000002,"ADDRESS":"復興路７１巷１１２弄６５號","OBJECTID":62482},"geometry":{"x":172669.3200000003,"y":2543651.1800000016}},{"attributes":{"ID":62483,"DIS_CODE":0,"TOWNNAME":"永康區","LI":"西灣里","LIN":"31鄰","STREET":"公園路","SECT":" ","MAREA":" ","LANE":"９３巷","ALLEY":"６弄","HOUSE_NO":"２２號","E_COORD97":174202.23999999999,"N_COORD97":2545922.6699999999,"ADDRESS":"公園路９３巷６弄２２號","OBJECTID":62483},"geometry":{"x":174202.24000000022,"y":2545922.6700000018}},{"attributes":{"ID":62484,"DIS_CODE":0,"TOWNNAME":"永康區","LI":"建國里","LIN":"31鄰","STREET":"復興路","SECT":" ","MAREA":" ","LANE":"７１巷","ALLEY":"１１２弄","HOUSE_NO":"６１號","E_COORD97":172676.63,"N_COORD97":2543651.6800000002,"ADDRESS":"復興路７１巷１１２弄６１號","OBJECTID":62484},"geometry":{"x":172676.62999999989,"y":2543651.6799999997}},{"attributes":{"ID":62485,"DIS_CODE":0,"TOWNNAME":"永康區","LI":"建國里","LIN":"31鄰","STREET":"復興路","SECT":" ","MAREA":" ","LANE":"７１巷","ALLEY":"１１２弄","HOUSE_NO":"６３號","E_COORD97":172673.07999999999,"N_COORD97":2543651.4300000002,"ADDRESS":"復興路７１巷１１２弄６３號","OBJECTID":62485},"geometry":{"x":172673.08000000101,"y":2543651.4300000034}},{"attributes":{"ID":62486,"DIS_CODE":0,"TOWNNAME":"永康區","LI":"建國里","LIN":"31鄰","STREET":"復興路","SECT":" ","MAREA":" ","LANE":"７１巷","ALLEY":"１１２弄","HOUSE_NO":"６０號","E_COORD97":172609.57000000001,"N_COORD97":2543644,"ADDRESS":"復興路７１巷１１２弄６０號","OBJECTID":62486},"geometry":{"x":172609.57000000123,"y":2543644}},{"attributes":{"ID":62487,"DIS_CODE":0,"TOWNNAME":"永康區","LI":"建國里","LIN":"31鄰","STREET":"復興路","SECT":" ","MAREA":" ","LANE":"７１巷","ALLEY":"１１２弄","HOUSE_NO":"６７號","E_COORD97":172666.07000000001,"N_COORD97":2543651.1800000002,"ADDRESS":"復興路７１巷１１２弄６７號","OBJECTID":62487},"geometry":{"x":172666.0700000003,"y":2543651.1800000016}},{"attributes":{"ID":62488,"DIS_CODE":0,"TOWNNAME":"永康區","LI":"建國里","LIN":"31鄰","STREET":"復興路","SECT":" ","MAREA":" ","LANE":"７１巷","ALLEY":"１１２弄","HOUSE_NO":"６２號","E_COORD97":172598.23000000001,"N_COORD97":2543648.23,"ADDRESS":"復興路７１巷１１２弄６２號","OBJECTID":62488},"geometry":{"x":172598.23000000138,"y":2543648.2300000023}},{"attributes":{"ID":62489,"DIS_CODE":0,"TOWNNAME":"安南區","LI":"州北里","LIN":"31鄰","STREET":"安昌街","SECT":" ","MAREA":" ","LANE":"１１９巷","ALLEY":"３６弄","HOUSE_NO":"１號","E_COORD97":169861.14000000001,"N_COORD97":2552289.6499999999,"ADDRESS":"安昌街１１９巷３６弄１號","OBJECTID":62489},"geometry":{"x":169861.13999999966,"y":2552289.6500000022}},{"attributes":{"ID":62490,"DIS_CODE":0,"TOWNNAME":"安南區","LI":"州北里","LIN":"31鄰","STREET":"安昌街","SECT":" ","MAREA":" ","LANE":"１１９巷","ALLEY":"３６弄","HOUSE_NO":"２號","E_COORD97":169873.26999999999,"N_COORD97":2552290.0299999998,"ADDRESS":"安昌街１１９巷３６弄２號","OBJECTID":62490},"geometry":{"x":169873.26999999955,"y":2552290.0300000012}},{"attributes":{"ID":62491,"DIS_CODE":0,"TOWNNAME":"安南區","LI":"州北里","LIN":"31鄰","STREET":"安昌街","SECT":" ","MAREA":" ","LANE":"１１９巷","ALLEY":"３６弄","HOUSE_NO":"３號","E_COORD97":169861.22,"N_COORD97":2552296.1299999999,"ADDRESS":"安昌街１１９巷３６弄３號","OBJECTID":62491},"geometry":{"x":169861.22000000067,"y":2552296.1300000008}},{"attributes":{"ID":62492,"DIS_CODE":0,"TOWNNAME":"安南區","LI":"州北里","LIN":"31鄰","STREET":"安昌街","SECT":" ","MAREA":" ","LANE":"１１９巷","ALLEY":"３６弄","HOUSE_NO":"５號","E_COORD97":169860.76000000001,"N_COORD97":2552301.1499999999,"ADDRESS":"安昌街１１９巷３６弄５號","OBJECTID":62492},"geometry":{"x":169860.76000000164,"y":2552301.1500000022}},{"attributes":{"ID":62493,"DIS_CODE":0,"TOWNNAME":"安南區","LI":"州北里","LIN":"31鄰","STREET":"安昌街","SECT":" ","MAREA":" ","LANE":"１１９巷","ALLEY":"３６弄","HOUSE_NO":"６號","E_COORD97":169872.95999999999,"N_COORD97":2552295.4399999999,"ADDRESS":"安昌街１１９巷３６弄６號","OBJECTID":62493},"geometry":{"x":169872.95999999996,"y":2552295.4399999995}},{"attributes":{"ID":62494,"DIS_CODE":0,"TOWNNAME":"安南區","LI":"州北里","LIN":"31鄰","STREET":"安昌街","SECT":" ","MAREA":" ","LANE":"１１９巷","ALLEY":"３６弄","HOUSE_NO":"７號","E_COORD97":169860.07999999999,"N_COORD97":2552305.46,"ADDRESS":"安昌街１１９巷３６弄７號","OBJECTID":62494},"geometry":{"x":169860.08000000007,"y":2552305.4600000028}},{"attributes":{"ID":62495,"DIS_CODE":0,"TOWNNAME":"安南區","LI":"州北里","LIN":"31鄰","STREET":"安昌街","SECT":" ","MAREA":" ","LANE":"１１９巷","ALLEY":"３６弄","HOUSE_NO":"８號","E_COORD97":169873.04000000001,"N_COORD97":2552300.9300000002,"ADDRESS":"安昌街１１９巷３６弄８號","OBJECTID":62495},"geometry":{"x":169873.04000000097,"y":2552300.9300000016}},{"attributes":{"ID":62496,"DIS_CODE":0,"TOWNNAME":"西港區","LI":"慶安里","LIN":"1鄰","STREET":" ","SECT":" ","MAREA":"中州","LANE":" ","ALLEY":" ","HOUSE_NO":"３號之１８","E_COORD97":166855.31,"N_COORD97":2559695.1899999999,"ADDRESS":"中州３號之１８","OBJECTID":62496},"geometry":{"x":166855.31000000052,"y":2559695.1899999995}},{"attributes":{"ID":62497,"DIS_CODE":0,"TOWNNAME":"北區","LI":"大仁里","LIN":"8鄰","STREET":"北門路","SECT":"二段","MAREA":" ","LANE":"２３１巷","ALLEY":" ","HOUSE_NO":"３號","E_COORD97":169485.32000000001,"N_COORD97":2545300.1000000001,"ADDRESS":"北門路二段２３１巷３號","OBJECTID":62497},"geometry":{"x":169485.32000000123,"y":2545300.0999999996}},{"attributes":{"ID":62498,"DIS_CODE":0,"TOWNNAME":"北區","LI":"大仁里","LIN":"8鄰","STREET":"北門路","SECT":"二段","MAREA":" ","LANE":" ","ALLEY":" ","HOUSE_NO":"２３３號","E_COORD97":169515.13,"N_COORD97":2545294.77,"ADDRESS":"北門路二段２３３號","OBJECTID":62498},"geometry":{"x":169515.12999999989,"y":2545294.7700000014}},{"attributes":{"ID":62499,"DIS_CODE":0,"TOWNNAME":"北區","LI":"大仁里","LIN":"8鄰","STREET":"北門路","SECT":"二段","MAREA":" ","LANE":" ","ALLEY":" ","HOUSE_NO":"２３５號","E_COORD97":169516.62,"N_COORD97":2545299.8100000001,"ADDRESS":"北門路二段２３５號","OBJECTID":62499},"geometry":{"x":169516.62000000104,"y":2545299.8100000005}},{"attributes":{"ID":62500,"DIS_CODE":0,"TOWNNAME":"新營區","LI":"民生里","LIN":"25鄰","STREET":"民治路","SECT":" ","MAREA":" ","LANE":" ","ALLEY":" ","HOUSE_NO":"８５號","E_COORD97":179059.32000000001,"N_COORD97":2578663.5699999998,"ADDRESS":"民治路８５號","OBJECTID":62500},"geometry":{"x":179059.32000000123,"y":2578663.570000004}},{"attributes":{"ID":62501,"DIS_CODE":0,"TOWNNAME":"新營區","LI":"民生里","LIN":"13鄰","STREET":"復興路","SECT":" ","MAREA":" ","LANE":" ","ALLEY":" ","HOUSE_NO":"２４０號","E_COORD97":178865.53,"N_COORD97":2578091.9500000002,"ADDRESS":"復興路２４０號","OBJECTID":62501},"geometry":{"x":178865.53000000026,"y":2578091.9500000011}},{"attributes":{"ID":62502,"DIS_CODE":0,"TOWNNAME":"學甲區","LI":"明宜里","LIN":"15鄰","STREET":"中山路","SECT":" ","MAREA":" ","LANE":" ","ALLEY":" ","HOUSE_NO":"１２６號","E_COORD97":166101.04999999999,"N_COORD97":2570523.8399999999,"ADDRESS":"中山路１２６號","OBJECTID":62502},"geometry":{"x":166101.05000000075,"y":2570523.8399999999}},{"attributes":{"ID":62503,"DIS_CODE":0,"TOWNNAME":"學甲區","LI":"明宜里","LIN":"15鄰","STREET":"中山路","SECT":" ","MAREA":" ","LANE":" ","ALLEY":" ","HOUSE_NO":"１２８號","E_COORD97":166095.42000000001,"N_COORD97":2570522.9199999999,"ADDRESS":"中山路１２８號","OBJECTID":62503},"geometry":{"x":166095.42000000086,"y":2570522.9199999999}},{"attributes":{"ID":62504,"DIS_CODE":0,"TOWNNAME":"安南區","LI":"州北里","LIN":"31鄰","STREET":"安昌街","SECT":" ","MAREA":" ","LANE":"１１９巷","ALLEY":"３６弄","HOUSE_NO":"９號","E_COORD97":169859.39000000001,"N_COORD97":2552309.3399999999,"ADDRESS":"安昌街１１９巷３６弄９號","OBJECTID":62504},"geometry":{"x":169859.38999999966,"y":2552309.3400000017}},{"attributes":{"ID":62505,"DIS_CODE":0,"TOWNNAME":"西港區","LI":"西港里","LIN":"1鄰","STREET":" ","SECT":" ","MAREA":"中州","LANE":" ","ALLEY":" ","HOUSE_NO":"２５號之３９","E_COORD97":167889.84,"N_COORD97":2559623.2000000002,"ADDRESS":"中州２５號之３９","OBJECTID":62505},"geometry":{"x":167889.83999999985,"y":2559623.1999999993}},{"attributes":{"ID":62506,"DIS_CODE":0,"TOWNNAME":"西港區","LI":"西港里","LIN":"1鄰","STREET":" ","SECT":" ","MAREA":"中州","LANE":" ","ALLEY":" ","HOUSE_NO":"２５號之４０","E_COORD97":167886.91,"N_COORD97":2559627.2400000002,"ADDRESS":"中州２５號之４０","OBJECTID":62506},"geometry":{"x":167886.91000000201,"y":2559627.2400000002}},{"attributes":{"ID":62507,"DIS_CODE":0,"TOWNNAME":"西港區","LI":"西港里","LIN":"1鄰","STREET":" ","SECT":" ","MAREA":"中州","LANE":" ","ALLEY":" ","HOUSE_NO":"２５號之４１","E_COORD97":167883.45000000001,"N_COORD97":2559631.5800000001,"ADDRESS":"中州２５號之４１","OBJECTID":62507},"geometry":{"x":167883.45000000112,"y":2559631.5800000001}},{"attributes":{"ID":62508,"DIS_CODE":0,"TOWNNAME":"西港區","LI":"西港里","LIN":"1鄰","STREET":" ","SECT":" ","MAREA":"中州","LANE":" ","ALLEY":" ","HOUSE_NO":"２５號之４２","E_COORD97":167880.29000000001,"N_COORD97":2559636.0499999998,"ADDRESS":"中州２５號之４２","OBJECTID":62508},"geometry":{"x":167880.29000000004,"y":2559636.0500000007}},{"attributes":{"ID":62509,"DIS_CODE":0,"TOWNNAME":"西港區","LI":"西港里","LIN":"1鄰","STREET":" ","SECT":" ","MAREA":"中州","LANE":" ","ALLEY":" ","HOUSE_NO":"２５號之４３","E_COORD97":167877.35999999999,"N_COORD97":2559640.0899999999,"ADDRESS":"中州２５號之４３","OBJECTID":62509},"geometry":{"x":167877.3600000022,"y":2559640.0900000017}},{"attributes":{"ID":62510,"DIS_CODE":0,"TOWNNAME":"西港區","LI":"西港里","LIN":"1鄰","STREET":" ","SECT":" ","MAREA":"中州","LANE":" ","ALLEY":" ","HOUSE_NO":"２５號之４５","E_COORD97":167869.98999999999,"N_COORD97":2559631.4399999999,"ADDRESS":"中州２５號之４５","OBJECTID":62510},"geometry":{"x":167869.99000000115,"y":2559631.4400000013}},{"attributes":{"ID":62511,"DIS_CODE":0,"TOWNNAME":"西港區","LI":"西港里","LIN":"1鄰","STREET":" ","SECT":" ","MAREA":"中州","LANE":" ","ALLEY":" ","HOUSE_NO":"２５號之４６","E_COORD97":167866.26000000001,"N_COORD97":2559628.5,"ADDRESS":"中州２５號之４６","OBJECTID":62511},"geometry":{"x":167866.26000000071,"y":2559628.5}},{"attributes":{"ID":62512,"DIS_CODE":0,"TOWNNAME":"西港區","LI":"西港里","LIN":"1鄰","STREET":" ","SECT":" ","MAREA":"中州","LANE":" ","ALLEY":" ","HOUSE_NO":"２５號之４７","E_COORD97":167862.42999999999,"N_COORD97":2559626.0600000001,"ADDRESS":"中州２５號之４７","OBJECTID":62512},"geometry":{"x":167862.42999999877,"y":2559626.0600000005}},{"attributes":{"ID":62513,"DIS_CODE":0,"TOWNNAME":"西港區","LI":"西港里","LIN":"1鄰","STREET":" ","SECT":" ","MAREA":"中州","LANE":" ","ALLEY":" ","HOUSE_NO":"２５號之４８","E_COORD97":167858.62,"N_COORD97":2559623.3599999999,"ADDRESS":"中州２５號之４８","OBJECTID":62513},"geometry":{"x":167858.62000000104,"y":2559623.3599999994}},{"attributes":{"ID":62514,"DIS_CODE":0,"TOWNNAME":"西港區","LI":"西港里","LIN":"1鄰","STREET":" ","SECT":" ","MAREA":"中州","LANE":" ","ALLEY":" ","HOUSE_NO":"２５號之４９","E_COORD97":167854.79999999999,"N_COORD97":2559620.8700000001,"ADDRESS":"中州２５號之４９","OBJECTID":62514},"geometry":{"x":167854.79999999981,"y":2559620.870000001}},{"attributes":{"ID":62515,"DIS_CODE":0,"TOWNNAME":"西港區","LI":"西港里","LIN":"1鄰","STREET":" ","SECT":" ","MAREA":"中州","LANE":" ","ALLEY":" ","HOUSE_NO":"２５號之５０","E_COORD97":167850.62,"N_COORD97":2559618.5499999998,"ADDRESS":"中州２５號之５０","OBJECTID":62515},"geometry":{"x":167850.62000000104,"y":2559618.5500000026}},{"attributes":{"ID":62516,"DIS_CODE":0,"TOWNNAME":"西港區","LI":"西港里","LIN":"1鄰","STREET":" ","SECT":" ","MAREA":"中州","LANE":" ","ALLEY":" ","HOUSE_NO":"２５號之５１","E_COORD97":167846.79999999999,"N_COORD97":2559615.8100000001,"ADDRESS":"中州２５號之５１","OBJECTID":62516},"geometry":{"x":167846.80000000075,"y":2559615.8100000024}},{"attributes":{"ID":62517,"DIS_CODE":0,"TOWNNAME":"西港區","LI":"西港里","LIN":"1鄰","STREET":" ","SECT":" ","MAREA":"中州","LANE":" ","ALLEY":" ","HOUSE_NO":"２５號之５","E_COORD97":167832.60999999999,"N_COORD97":2559610.6299999999,"ADDRESS":"中州２５號之５","OBJECTID":62517},"geometry":{"x":167832.61000000034,"y":2559610.629999999}},{"attributes":{"ID":62518,"DIS_CODE":0,"TOWNNAME":"西港區","LI":"西港里","LIN":"1鄰","STREET":" ","SECT":" ","MAREA":"中州","LANE":" ","ALLEY":" ","HOUSE_NO":"２５號之６","E_COORD97":167835.12,"N_COORD97":2559606.5,"ADDRESS":"中州２５號之６","OBJECTID":62518},"geometry":{"x":167835.12000000104,"y":2559606.5000000037}},{"attributes":{"ID":62519,"DIS_CODE":0,"TOWNNAME":"西港區","LI":"西港里","LIN":"1鄰","STREET":" ","SECT":" ","MAREA":"中州","LANE":" ","ALLEY":" ","HOUSE_NO":"２５號之７","E_COORD97":167837.66,"N_COORD97":2559603.0800000001,"ADDRESS":"中州２５號之７","OBJECTID":62519},"geometry":{"x":167837.65999999922,"y":2559603.0800000019}},{"attributes":{"ID":62520,"DIS_CODE":0,"TOWNNAME":"西港區","LI":"西港里","LIN":"1鄰","STREET":" ","SECT":" ","MAREA":"中州","LANE":" ","ALLEY":" ","HOUSE_NO":"２５號之８","E_COORD97":167840.35000000001,"N_COORD97":2559599.29,"ADDRESS":"中州２５號之８","OBJECTID":62520},"geometry":{"x":167840.34999999963,"y":2559599.2899999991}},{"attributes":{"ID":62521,"DIS_CODE":0,"TOWNNAME":"安南區","LI":"州北里","LIN":"31鄰","STREET":"安昌街","SECT":" ","MAREA":" ","LANE":"１１９巷","ALLEY":"３６弄","HOUSE_NO":"１０號","E_COORD97":169873.04000000001,"N_COORD97":2552305.3100000001,"ADDRESS":"安昌街１１９巷３６弄１０號","OBJECTID":62521},"geometry":{"x":169873.04000000097,"y":2552305.3100000042}},{"attributes":{"ID":62522,"DIS_CODE":0,"TOWNNAME":"西港區","LI":"西港里","LIN":"1鄰","STREET":" ","SECT":" ","MAREA":"中州","LANE":" ","ALLEY":" ","HOUSE_NO":"２５號之９","E_COORD97":167843,"N_COORD97":2559595.8399999999,"ADDRESS":"中州２５號之９","OBJECTID":62522},"geometry":{"x":167843,"y":2559595.8399999999}},{"attributes":{"ID":62523,"DIS_CODE":0,"TOWNNAME":"麻豆區","LI":"\u25A0江里","LIN":"8鄰","STREET":"民權路","SECT":" ","MAREA":" ","LANE":" ","ALLEY":" ","HOUSE_NO":"７０號之２２","E_COORD97":173465.79999999999,"N_COORD97":2564266.8500000001,"ADDRESS":"民權路７０號之２２","OBJECTID":62523},"geometry":{"x":173465.79999999981,"y":2564266.8500000015}},{"attributes":{"ID":62524,"DIS_CODE":0,"TOWNNAME":"西港區","LI":"慶安里","LIN":"1鄰","STREET":" ","SECT":" ","MAREA":"中州","LANE":" ","ALLEY":" ","HOUSE_NO":"２號","E_COORD97":166790.37,"N_COORD97":2559689.2799999998,"ADDRESS":"中州２號","OBJECTID":62524},"geometry":{"x":166790.37000000197,"y":2559689.2800000012}},{"attributes":{"ID":62525,"DIS_CODE":0,"TOWNNAME":"西港區","LI":"慶安里","LIN":"1鄰","STREET":" ","SECT":" ","MAREA":"中州","LANE":" ","ALLEY":" ","HOUSE_NO":"３號之１０","E_COORD97":166849.82999999999,"N_COORD97":2559746.1699999999,"ADDRESS":"中州３號之１０","OBJECTID":62525},"geometry":{"x":166849.82999999914,"y":2559746.1699999999}},{"attributes":{"ID":62526,"DIS_CODE":0,"TOWNNAME":"西港區","LI":"慶安里","LIN":"1鄰","STREET":" ","SECT":" ","MAREA":"中州","LANE":" ","ALLEY":" ","HOUSE_NO":"３號之１１","E_COORD97":166854.60999999999,"N_COORD97":2559726.96,"ADDRESS":"中州３號之１１","OBJECTID":62526},"geometry":{"x":166854.61000000034,"y":2559726.9600000028}},{"attributes":{"ID":62527,"DIS_CODE":0,"TOWNNAME":"西港區","LI":"慶安里","LIN":"1鄰","STREET":" ","SECT":" ","MAREA":"中州","LANE":" ","ALLEY":" ","HOUSE_NO":"３號之１２","E_COORD97":166854.70999999999,"N_COORD97":2559722.4199999999,"ADDRESS":"中州３號之１２","OBJECTID":62527},"geometry":{"x":166854.71000000089,"y":2559722.4200000037}},{"attributes":{"ID":62528,"DIS_CODE":0,"TOWNNAME":"西港區","LI":"慶安里","LIN":"1鄰","STREET":" ","SECT":" ","MAREA":"中州","LANE":" ","ALLEY":" ","HOUSE_NO":"３號之１３","E_COORD97":166854.81,"N_COORD97":2559717.8900000001,"ADDRESS":"中州３號之１３","OBJECTID":62528},"geometry":{"x":166854.81000000052,"y":2559717.8900000025}},{"attributes":{"ID":62529,"DIS_CODE":0,"TOWNNAME":"西港區","LI":"慶安里","LIN":"1鄰","STREET":" ","SECT":" ","MAREA":"中州","LANE":" ","ALLEY":" ","HOUSE_NO":"３號之１４","E_COORD97":166854.91,"N_COORD97":2559713.3500000001,"ADDRESS":"中州３號之１４","OBJECTID":62529},"geometry":{"x":166854.91000000108,"y":2559713.3500000015}},{"attributes":{"ID":62530,"DIS_CODE":0,"TOWNNAME":"西港區","LI":"慶安里","LIN":"1鄰","STREET":" ","SECT":" ","MAREA":"中州","LANE":" ","ALLEY":" ","HOUSE_NO":"３號之１５","E_COORD97":166855.01000000001,"N_COORD97":2559708.8100000001,"ADDRESS":"中州３號之１５","OBJECTID":62530},"geometry":{"x":166855.00999999978,"y":2559708.8100000005}},{"attributes":{"ID":62531,"DIS_CODE":0,"TOWNNAME":"西港區","LI":"慶安里","LIN":"1鄰","STREET":" ","SECT":" ","MAREA":"中州","LANE":" ","ALLEY":" ","HOUSE_NO":"３號之１６","E_COORD97":166855.10999999999,"N_COORD97":2559704.27,"ADDRESS":"中州３號之１６","OBJECTID":62531},"geometry":{"x":166855.1100000022,"y":2559704.2699999996}},{"attributes":{"ID":62532,"DIS_CODE":0,"TOWNNAME":"西港區","LI":"慶安里","LIN":"1鄰","STREET":" ","SECT":" ","MAREA":"中州","LANE":" ","ALLEY":" ","HOUSE_NO":"３號之１７","E_COORD97":166855.20999999999,"N_COORD97":2559699.73,"ADDRESS":"中州３號之１７","OBJECTID":62532},"geometry":{"x":166855.20999999996,"y":2559699.7300000004}},{"attributes":{"ID":62533,"DIS_CODE":0,"TOWNNAME":"西港區","LI":"慶安里","LIN":"1鄰","STREET":" ","SECT":" ","MAREA":"中州","LANE":" ","ALLEY":" ","HOUSE_NO":"３號之１９","E_COORD97":166855.41,"N_COORD97":2559690.6600000001,"ADDRESS":"中州３號之１９","OBJECTID":62533},"geometry":{"x":166855.41000000015,"y":2559690.660000002}},{"attributes":{"ID":62534,"DIS_CODE":0,"TOWNNAME":"西港區","LI":"慶安里","LIN":"1鄰","STREET":" ","SECT":" ","MAREA":"中州","LANE":" ","ALLEY":" ","HOUSE_NO":"３號之２０","E_COORD97":166855.51000000001,"N_COORD97":2559686.1200000001,"ADDRESS":"中州３號之２０","OBJECTID":62534},"geometry":{"x":166855.51000000071,"y":2559686.1200000029}},{"attributes":{"ID":62535,"DIS_CODE":0,"TOWNNAME":"西港區","LI":"慶安里","LIN":"1鄰","STREET":" ","SECT":" ","MAREA":"中州","LANE":" ","ALLEY":" ","HOUSE_NO":"３號之２１","E_COORD97":166855.60999999999,"N_COORD97":2559681.5800000001,"ADDRESS":"中州３號之２１","OBJECTID":62535},"geometry":{"x":166855.61000000127,"y":2559681.5800000019}},{"attributes":{"ID":62536,"DIS_CODE":0,"TOWNNAME":"西港區","LI":"慶安里","LIN":"1鄰","STREET":" ","SECT":" ","MAREA":"中州","LANE":" ","ALLEY":" ","HOUSE_NO":"３號之９","E_COORD97":166854.98999999999,"N_COORD97":2559746.8100000001,"ADDRESS":"中州３號之９","OBJECTID":62536},"geometry":{"x":166854.99000000022,"y":2559746.8100000005}},{"attributes":{"ID":62537,"DIS_CODE":0,"TOWNNAME":"西港區","LI":"南海里","LIN":"1鄰","STREET":" ","SECT":" ","MAREA":"南海埔","LANE":" ","ALLEY":" ","HOUSE_NO":"１０號之３","E_COORD97":167806.35999999999,"N_COORD97":2557566.5600000001,"ADDRESS":"南海埔１０號之３","OBJECTID":62537},"geometry":{"x":167806.36000000127,"y":2557566.5600000024}},{"attributes":{"ID":62538,"DIS_CODE":0,"TOWNNAME":"麻豆區","LI":"港尾里","LIN":"8鄰","STREET":" ","SECT":" ","MAREA":"港子尾","LANE":" ","ALLEY":" ","HOUSE_NO":"４２號","E_COORD97":168461.75,"N_COORD97":2567224.77,"ADDRESS":"港子尾４２號","OBJECTID":62538},"geometry":{"x":168461.75,"y":2567224.7699999996}},{"attributes":{"ID":62539,"DIS_CODE":0,"TOWNNAME":"西港區","LI":"南海里","LIN":"1鄰","STREET":" ","SECT":" ","MAREA":"南海埔","LANE":" ","ALLEY":" ","HOUSE_NO":"１０號","E_COORD97":167824.89000000001,"N_COORD97":2557578.1600000001,"ADDRESS":"南海埔１０號","OBJECTID":62539},"geometry":{"x":167824.88999999966,"y":2557578.1600000039}},{"attributes":{"ID":62540,"DIS_CODE":0,"TOWNNAME":"西港區","LI":"南海里","LIN":"1鄰","STREET":" ","SECT":" ","MAREA":"南海埔","LANE":" ","ALLEY":" ","HOUSE_NO":"１１號","E_COORD97":167807.64000000001,"N_COORD97":2557557.0299999998,"ADDRESS":"南海埔１１號","OBJECTID":62540},"geometry":{"x":167807.6400000006,"y":2557557.0299999993}},{"attributes":{"ID":62541,"DIS_CODE":0,"TOWNNAME":"西港區","LI":"南海里","LIN":"1鄰","STREET":" ","SECT":" ","MAREA":"南海埔","LANE":" ","ALLEY":" ","HOUSE_NO":"４號之１０","E_COORD97":167815.26000000001,"N_COORD97":2557772.7599999998,"ADDRESS":"南海埔４號之１０","OBJECTID":62541},"geometry":{"x":167815.26000000071,"y":2557772.7599999998}},{"attributes":{"ID":62542,"DIS_CODE":0,"TOWNNAME":"西港區","LI":"南海里","LIN":"1鄰","STREET":" ","SECT":" ","MAREA":"南海埔","LANE":" ","ALLEY":" ","HOUSE_NO":"４號之１１","E_COORD97":167815.32000000001,"N_COORD97":2557777.25,"ADDRESS":"南海埔４號之１１","OBJECTID":62542},"geometry":{"x":167815.32000000123,"y":2557777.2500000037}},{"attributes":{"ID":62543,"DIS_CODE":0,"TOWNNAME":"西港區","LI":"南海里","LIN":"1鄰","STREET":" ","SECT":" ","MAREA":"南海埔","LANE":" ","ALLEY":" ","HOUSE_NO":"４號之１２","E_COORD97":167815.44,"N_COORD97":2557782.54,"ADDRESS":"南海埔４號之１２","OBJECTID":62543},"geometry":{"x":167815.44000000041,"y":2557782.540000001}},{"attributes":{"ID":62544,"DIS_CODE":0,"TOWNNAME":"西港區","LI":"南海里","LIN":"1鄰","STREET":" ","SECT":" ","MAREA":"南海埔","LANE":" ","ALLEY":" ","HOUSE_NO":"４號之１３","E_COORD97":167833,"N_COORD97":2557781.73,"ADDRESS":"南海埔４號之１３","OBJECTID":62544},"geometry":{"x":167833,"y":2557781.7300000023}},{"attributes":{"ID":62545,"DIS_CODE":0,"TOWNNAME":"西港區","LI":"南海里","LIN":"1鄰","STREET":" ","SECT":" ","MAREA":"南海埔","LANE":" ","ALLEY":" ","HOUSE_NO":"４號之１４","E_COORD97":167832.97,"N_COORD97":2557758.8599999999,"ADDRESS":"南海埔４號之１４","OBJECTID":62545},"geometry":{"x":167832.96999999974,"y":2557758.8600000031}},{"attributes":{"ID":62546,"DIS_CODE":0,"TOWNNAME":"安南區","LI":"州北里","LIN":"31鄰","STREET":"安昌街","SECT":" ","MAREA":" ","LANE":"１１９巷","ALLEY":"３６弄","HOUSE_NO":"１１號","E_COORD97":169859.09,"N_COORD97":2552314.25,"ADDRESS":"安昌街１１９巷３６弄１１號","OBJECTID":62546},"geometry":{"x":169859.09000000078,"y":2552314.25}},{"attributes":{"ID":62547,"DIS_CODE":0,"TOWNNAME":"西港區","LI":"南海里","LIN":"1鄰","STREET":" ","SECT":" ","MAREA":"南海埔","LANE":" ","ALLEY":" ","HOUSE_NO":"４號之１５","E_COORD97":167837.44,"N_COORD97":2557781.6800000002,"ADDRESS":"南海埔４號之１５","OBJECTID":62547},"geometry":{"x":167837.44000000041,"y":2557781.6800000016}},{"attributes":{"ID":62548,"DIS_CODE":0,"TOWNNAME":"西港區","LI":"南海里","LIN":"1鄰","STREET":" ","SECT":" ","MAREA":"南海埔","LANE":" ","ALLEY":" ","HOUSE_NO":"４號之１６","E_COORD97":167837.37,"N_COORD97":2557759.3900000001,"ADDRESS":"南海埔４號之１６","OBJECTID":62548},"geometry":{"x":167837.37000000011,"y":2557759.3900000006}},{"attributes":{"ID":62549,"DIS_CODE":0,"TOWNNAME":"西港區","LI":"南海里","LIN":"1鄰","STREET":" ","SECT":" ","MAREA":"南海埔","LANE":" ","ALLEY":" ","HOUSE_NO":"４號之１７","E_COORD97":167841.84,"N_COORD97":2557782.3100000001,"ADDRESS":"南海埔４號之１７","OBJECTID":62549},"geometry":{"x":167841.84000000078,"y":2557782.3100000024}},{"attributes":{"ID":62550,"DIS_CODE":0,"TOWNNAME":"西港區","LI":"南海里","LIN":"1鄰","STREET":" ","SECT":" ","MAREA":"南海埔","LANE":" ","ALLEY":" ","HOUSE_NO":"４號之１８","E_COORD97":167842.22,"N_COORD97":2557760.2400000002,"ADDRESS":"南海埔４號之１８","OBJECTID":62550},"geometry":{"x":167842.22000000067,"y":2557760.2400000002}},{"attributes":{"ID":62551,"DIS_CODE":0,"TOWNNAME":"西港區","LI":"南海里","LIN":"1鄰","STREET":" ","SECT":" ","MAREA":"南海埔","LANE":" ","ALLEY":" ","HOUSE_NO":"４號之１９","E_COORD97":167845.95000000001,"N_COORD97":2557782.7799999998,"ADDRESS":"南海埔４號之１９","OBJECTID":62551},"geometry":{"x":167845.95000000205,"y":2557782.7799999993}},{"attributes":{"ID":62552,"DIS_CODE":0,"TOWNNAME":"西港區","LI":"南海里","LIN":"1鄰","STREET":" ","SECT":" ","MAREA":"南海埔","LANE":" ","ALLEY":" ","HOUSE_NO":"４號之１","E_COORD97":167815.12,"N_COORD97":2557724.1299999999,"ADDRESS":"南海埔４號之１","OBJECTID":62552},"geometry":{"x":167815.12000000011,"y":2557724.1300000008}},{"attributes":{"ID":62553,"DIS_CODE":0,"TOWNNAME":"西港區","LI":"南海里","LIN":"1鄰","STREET":" ","SECT":" ","MAREA":"南海埔","LANE":" ","ALLEY":" ","HOUSE_NO":"４號之２０","E_COORD97":167846.07000000001,"N_COORD97":2557760.7599999998,"ADDRESS":"南海埔４號之２０","OBJECTID":62553},"geometry":{"x":167846.07000000123,"y":2557760.7600000016}},{"attributes":{"ID":62554,"DIS_CODE":0,"TOWNNAME":"西港區","LI":"南海里","LIN":"1鄰","STREET":" ","SECT":" ","MAREA":"南海埔","LANE":" ","ALLEY":" ","HOUSE_NO":"４號之２１","E_COORD97":167850.22,"N_COORD97":2557782.9900000002,"ADDRESS":"南海埔４號之２１","OBJECTID":62554},"geometry":{"x":167850.21999999974,"y":2557782.9900000021}},{"attributes":{"ID":62555,"DIS_CODE":0,"TOWNNAME":"西港區","LI":"南海里","LIN":"1鄰","STREET":" ","SECT":" ","MAREA":"南海埔","LANE":" ","ALLEY":" ","HOUSE_NO":"４號之２２","E_COORD97":167850.60000000001,"N_COORD97":2557761.0299999998,"ADDRESS":"南海埔４號之２２","OBJECTID":62555},"geometry":{"x":167850.59999999963,"y":2557761.0300000031}},{"attributes":{"ID":62556,"DIS_CODE":0,"TOWNNAME":"西港區","LI":"南海里","LIN":"1鄰","STREET":" ","SECT":" ","MAREA":"南海埔","LANE":" ","ALLEY":" ","HOUSE_NO":"４號之２３","E_COORD97":167854.60999999999,"N_COORD97":2557783.3199999998,"ADDRESS":"南海埔４號之２３","OBJECTID":62556},"geometry":{"x":167854.61000000034,"y":2557783.3200000003}},{"attributes":{"ID":62557,"DIS_CODE":0,"TOWNNAME":"西港區","LI":"南海里","LIN":"1鄰","STREET":" ","SECT":" ","MAREA":"南海埔","LANE":" ","ALLEY":" ","HOUSE_NO":"４號之２４","E_COORD97":167855.07999999999,"N_COORD97":2557761.77,"ADDRESS":"南海埔４號之２４","OBJECTID":62557},"geometry":{"x":167855.07999999914,"y":2557761.7699999996}},{"attributes":{"ID":62558,"DIS_CODE":0,"TOWNNAME":"西港區","LI":"南海里","LIN":"1鄰","STREET":" ","SECT":" ","MAREA":"南海埔","LANE":" ","ALLEY":" ","HOUSE_NO":"４號之２","E_COORD97":167815.29000000001,"N_COORD97":2557716.4199999999,"ADDRESS":"南海埔４號之２","OBJECTID":62558},"geometry":{"x":167815.29000000097,"y":2557716.4200000018}},{"attributes":{"ID":62559,"DIS_CODE":0,"TOWNNAME":"西港區","LI":"南海里","LIN":"1鄰","STREET":" ","SECT":" ","MAREA":"南海埔","LANE":" ","ALLEY":" ","HOUSE_NO":"４號之３６","E_COORD97":167879.54000000001,"N_COORD97":2557814.75,"ADDRESS":"南海埔４號之３６","OBJECTID":62559},"geometry":{"x":167879.54000000097,"y":2557814.7500000037}},{"attributes":{"ID":62560,"DIS_CODE":0,"TOWNNAME":"西港區","LI":"南海里","LIN":"1鄰","STREET":" ","SECT":" ","MAREA":"南海埔","LANE":" ","ALLEY":" ","HOUSE_NO":"４號之３","E_COORD97":167815.32999999999,"N_COORD97":2557735.75,"ADDRESS":"南海埔４號之３","OBJECTID":62560},"geometry":{"x":167815.33000000007,"y":2557735.75}},{"attributes":{"ID":62561,"DIS_CODE":0,"TOWNNAME":"西港區","LI":"南海里","LIN":"1鄰","STREET":" ","SECT":" ","MAREA":"南海埔","LANE":" ","ALLEY":" ","HOUSE_NO":"４號之５","E_COORD97":167815.17999999999,"N_COORD97":2557749.52,"ADDRESS":"南海埔４號之５","OBJECTID":62561},"geometry":{"x":167815.18000000156,"y":2557749.5200000014}},{"attributes":{"ID":62562,"DIS_CODE":0,"TOWNNAME":"西港區","LI":"南海里","LIN":"1鄰","STREET":" ","SECT":" ","MAREA":"南海埔","LANE":" ","ALLEY":" ","HOUSE_NO":"４號之６","E_COORD97":167814.01999999999,"N_COORD97":2557754.4199999999,"ADDRESS":"南海埔４號之６","OBJECTID":62562},"geometry":{"x":167814.01999999955,"y":2557754.4199999999}},{"attributes":{"ID":62563,"DIS_CODE":0,"TOWNNAME":"西港區","LI":"南海里","LIN":"1鄰","STREET":" ","SECT":" ","MAREA":"南海埔","LANE":" ","ALLEY":" ","HOUSE_NO":"４號之７","E_COORD97":167814.26000000001,"N_COORD97":2557759.0600000001,"ADDRESS":"南海埔４號之７","OBJECTID":62563},"geometry":{"x":167814.25999999978,"y":2557759.0600000042}},{"attributes":{"ID":62564,"DIS_CODE":0,"TOWNNAME":"西港區","LI":"南海里","LIN":"1鄰","STREET":" ","SECT":" ","MAREA":"南海埔","LANE":" ","ALLEY":" ","HOUSE_NO":"４號之８","E_COORD97":167814.53,"N_COORD97":2557763.77,"ADDRESS":"南海埔４號之８","OBJECTID":62564},"geometry":{"x":167814.53000000026,"y":2557763.7700000014}},{"attributes":{"ID":62565,"DIS_CODE":0,"TOWNNAME":"西港區","LI":"南海里","LIN":"1鄰","STREET":" ","SECT":" ","MAREA":"南海埔","LANE":" ","ALLEY":" ","HOUSE_NO":"４號之９","E_COORD97":167814.94,"N_COORD97":2557768.25,"ADDRESS":"南海埔４號之９","OBJECTID":62565},"geometry":{"x":167814.94000000041,"y":2557768.2500000019}},{"attributes":{"ID":62566,"DIS_CODE":0,"TOWNNAME":"西港區","LI":"南海里","LIN":"1鄰","STREET":" ","SECT":" ","MAREA":"南海埔","LANE":" ","ALLEY":" ","HOUSE_NO":"５號之１","E_COORD97":167811.70000000001,"N_COORD97":2557701.0299999998,"ADDRESS":"南海埔５號之１","OBJECTID":62566},"geometry":{"x":167811.70000000019,"y":2557701.0300000012}},{"attributes":{"ID":62567,"DIS_CODE":0,"TOWNNAME":"西港區","LI":"南海里","LIN":"1鄰","STREET":" ","SECT":" ","MAREA":"南海埔","LANE":" ","ALLEY":" ","HOUSE_NO":"５號之２","E_COORD97":167829.82000000001,"N_COORD97":2557667.7000000002,"ADDRESS":"南海埔５號之２","OBJECTID":62567},"geometry":{"x":167829.8200000003,"y":2557667.6999999993}},{"attributes":{"ID":62568,"DIS_CODE":0,"TOWNNAME":"西港區","LI":"南海里","LIN":"1鄰","STREET":" ","SECT":" ","MAREA":"南海埔","LANE":" ","ALLEY":" ","HOUSE_NO":"５號","E_COORD97":167827.38,"N_COORD97":2557708.2799999998,"ADDRESS":"南海埔５號","OBJECTID":62568},"geometry":{"x":167827.37999999896,"y":2557708.2799999993}},{"attributes":{"ID":62569,"DIS_CODE":0,"TOWNNAME":"西港區","LI":"南海里","LIN":"1鄰","STREET":" ","SECT":" ","MAREA":"南海埔","LANE":" ","ALLEY":" ","HOUSE_NO":"６號之１","E_COORD97":167833.60000000001,"N_COORD97":2557638.3599999999,"ADDRESS":"南海埔６號之１","OBJECTID":62569},"geometry":{"x":167833.59999999963,"y":2557638.3600000013}},{"attributes":{"ID":62570,"DIS_CODE":0,"TOWNNAME":"西港區","LI":"南海里","LIN":"1鄰","STREET":" ","SECT":" ","MAREA":"南海埔","LANE":" ","ALLEY":" ","HOUSE_NO":"７號","E_COORD97":167822.23000000001,"N_COORD97":2557632.73,"ADDRESS":"南海埔７號","OBJECTID":62570},"geometry":{"x":167822.22999999952,"y":2557632.7300000023}},{"attributes":{"ID":62571,"DIS_CODE":0,"TOWNNAME":"新市區","LI":"大社里","LIN":"1鄰","STREET":" ","SECT":" ","MAREA":"大社","LANE":" ","ALLEY":" ","HOUSE_NO":"５１號","E_COORD97":180288.01000000001,"N_COORD97":2554216.5,"ADDRESS":"大社５１號","OBJECTID":62571},"geometry":{"x":180288.01000000071,"y":2554216.5000000019}},{"attributes":{"ID":62572,"DIS_CODE":0,"TOWNNAME":"西港區","LI":"南海里","LIN":"1鄰","STREET":" ","SECT":" ","MAREA":"南海埔","LANE":" ","ALLEY":" ","HOUSE_NO":"９號之１","E_COORD97":167838.07000000001,"N_COORD97":2557576.2000000002,"ADDRESS":"南海埔９號之１","OBJECTID":62572},"geometry":{"x":167838.0700000003,"y":2557576.1999999993}},{"attributes":{"ID":62573,"DIS_CODE":0,"TOWNNAME":"西港區","LI":"營西里","LIN":"1鄰","STREET":" ","SECT":" ","MAREA":"後營","LANE":" ","ALLEY":" ","HOUSE_NO":"２號之１２","E_COORD97":169502.51999999999,"N_COORD97":2559909.1099999999,"ADDRESS":"後營２號之１２","OBJECTID":62573},"geometry":{"x":169502.51999999955,"y":2559909.1099999994}},{"attributes":{"ID":62574,"DIS_CODE":0,"TOWNNAME":"西港區","LI":"營西里","LIN":"1鄰","STREET":" ","SECT":" ","MAREA":"後營","LANE":" ","ALLEY":" ","HOUSE_NO":"２號之１３","E_COORD97":169500.76999999999,"N_COORD97":2559904,"ADDRESS":"後營２號之１３","OBJECTID":62574},"geometry":{"x":169500.76999999955,"y":2559904}},{"attributes":{"ID":62575,"DIS_CODE":0,"TOWNNAME":"西港區","LI":"營西里","LIN":"1鄰","STREET":" ","SECT":" ","MAREA":"後營","LANE":" ","ALLEY":" ","HOUSE_NO":"２之１５號","E_COORD97":169488.87,"N_COORD97":2559926.6899999999,"ADDRESS":"後營２之１５號","OBJECTID":62575},"geometry":{"x":169488.87000000011,"y":2559926.6900000032}},{"attributes":{"ID":62576,"DIS_CODE":0,"TOWNNAME":"西港區","LI":"營西里","LIN":"1鄰","STREET":" ","SECT":" ","MAREA":"後營","LANE":" ","ALLEY":" ","HOUSE_NO":"２號之１９","E_COORD97":169591.60999999999,"N_COORD97":2559791.2200000002,"ADDRESS":"後營２號之１９","OBJECTID":62576},"geometry":{"x":169591.61000000127,"y":2559791.2200000007}},{"attributes":{"ID":62577,"DIS_CODE":0,"TOWNNAME":"新營區","LI":"埤寮里","LIN":"4鄰","STREET":" ","SECT":" ","MAREA":"許丑","LANE":" ","ALLEY":" ","HOUSE_NO":"４２之２０號","E_COORD97":179783.85000000001,"N_COORD97":2580964.7999999998,"ADDRESS":"許丑４２之２０號","OBJECTID":62577},"geometry":{"x":179783.85000000056,"y":2580964.8000000045}},{"attributes":{"ID":62578,"DIS_CODE":0,"TOWNNAME":"安南區","LI":"州北里","LIN":"31鄰","STREET":"安昌街","SECT":" ","MAREA":" ","LANE":"１１９巷","ALLEY":"３６弄","HOUSE_NO":"１２號","E_COORD97":169872.81,"N_COORD97":2552309.8799999999,"ADDRESS":"安昌街１１９巷３６弄１２號","OBJECTID":62578},"geometry":{"x":169872.81000000052,"y":2552309.8799999971}},{"attributes":{"ID":62579,"DIS_CODE":0,"TOWNNAME":"安南區","LI":"州北里","LIN":"31鄰","STREET":"安昌街","SECT":" ","MAREA":" ","LANE":"１１９巷","ALLEY":"３６弄","HOUSE_NO":"１３號","E_COORD97":169859.01000000001,"N_COORD97":2552318.3700000001,"ADDRESS":"安昌街１１９巷３６弄１３號","OBJECTID":62579},"geometry":{"x":169859.01000000164,"y":2552318.370000001}},{"attributes":{"ID":62580,"DIS_CODE":0,"TOWNNAME":"安南區","LI":"州北里","LIN":"31鄰","STREET":"安昌街","SECT":" ","MAREA":" ","LANE":"１１９巷","ALLEY":"３６弄","HOUSE_NO":"１５號","E_COORD97":169858.85999999999,"N_COORD97":2552323.5499999998,"ADDRESS":"安昌街１１９巷３６弄１５號","OBJECTID":62580},"geometry":{"x":169858.8599999994,"y":2552323.5500000007}},{"attributes":{"ID":62581,"DIS_CODE":0,"TOWNNAME":"安南區","LI":"州北里","LIN":"31鄰","STREET":"安昌街","SECT":" ","MAREA":" ","LANE":"１１９巷","ALLEY":"３６弄","HOUSE_NO":"１６號","E_COORD97":169872.73999999999,"N_COORD97":2552314.0699999998,"ADDRESS":"安昌街１１９巷３６弄１６號","OBJECTID":62581},"geometry":{"x":169872.74000000022,"y":2552314.0700000022}},{"attributes":{"ID":62582,"DIS_CODE":0,"TOWNNAME":"安南區","LI":"州北里","LIN":"31鄰","STREET":"安昌街","SECT":" ","MAREA":" ","LANE":"１１９巷","ALLEY":"３６弄","HOUSE_NO":"１８號","E_COORD97":169872.59,"N_COORD97":2552318.4100000001,"ADDRESS":"安昌街１１９巷３６弄１８號","OBJECTID":62582},"geometry":{"x":169872.59000000078,"y":2552318.410000002}},{"attributes":{"ID":62583,"DIS_CODE":0,"TOWNNAME":"安南區","LI":"州北里","LIN":"31鄰","STREET":"安昌街","SECT":" ","MAREA":" ","LANE":"１１９巷","ALLEY":"３６弄","HOUSE_NO":"２０號","E_COORD97":169873.12,"N_COORD97":2552323.3900000001,"ADDRESS":"安昌街１１９巷３６弄２０號","OBJECTID":62583},"geometry":{"x":169873.12000000011,"y":2552323.3900000025}},{"attributes":{"ID":62584,"DIS_CODE":0,"TOWNNAME":"永康區","LI":"西灣里","LIN":"31鄰","STREET":"公園路","SECT":" ","MAREA":" ","LANE":"９３巷","ALLEY":"１２弄","HOUSE_NO":"１０號","E_COORD97":174236.5,"N_COORD97":2545875.4199999999,"ADDRESS":"公園路９３巷１２弄１０號","OBJECTID":62584},"geometry":{"x":174236.50000000093,"y":2545875.4199999999}},{"attributes":{"ID":62585,"DIS_CODE":0,"TOWNNAME":"永康區","LI":"西灣里","LIN":"31鄰","STREET":"公園路","SECT":" ","MAREA":" ","LANE":"９３巷","ALLEY":"１２弄","HOUSE_NO":"８號","E_COORD97":174239.85999999999,"N_COORD97":2545876.5800000001,"ADDRESS":"公園路９３巷１２弄８號","OBJECTID":62585},"geometry":{"x":174239.86000000127,"y":2545876.5800000019}},{"attributes":{"ID":62586,"DIS_CODE":0,"TOWNNAME":"永康區","LI":"西灣里","LIN":"31鄰","STREET":"公園路","SECT":" ","MAREA":" ","LANE":"９３巷","ALLEY":"６弄","HOUSE_NO":"２５號","E_COORD97":174197.95000000001,"N_COORD97":2545901.8199999998,"ADDRESS":"公園路９３巷６弄２５號","OBJECTID":62586},"geometry":{"x":174197.95000000205,"y":2545901.8200000022}},{"attributes":{"ID":62587,"DIS_CODE":0,"TOWNNAME":"永康區","LI":"西灣里","LIN":"31鄰","STREET":"公園路","SECT":" ","MAREA":" ","LANE":"９３巷","ALLEY":"６弄","HOUSE_NO":"２１號","E_COORD97":174205.84,"N_COORD97":2545903.5699999998,"ADDRESS":"公園路９３巷６弄２１號","OBJECTID":62587},"geometry":{"x":174205.84000000078,"y":2545903.5700000022}},{"attributes":{"ID":62588,"DIS_CODE":0,"TOWNNAME":"永康區","LI":"西灣里","LIN":"31鄰","STREET":"公園路","SECT":" ","MAREA":" ","LANE":"９３巷","ALLEY":"１２弄","HOUSE_NO":"１２之２號","E_COORD97":174225.89000000001,"N_COORD97":2545872.54,"ADDRESS":"公園路９３巷１２弄１２之２號","OBJECTID":62588},"geometry":{"x":174225.88999999966,"y":2545872.5399999991}},{"attributes":{"ID":62589,"DIS_CODE":0,"TOWNNAME":"永康區","LI":"西灣里","LIN":"31鄰","STREET":"公園路","SECT":" ","MAREA":" ","LANE":"９３巷","ALLEY":"６弄","HOUSE_NO":"２０號","E_COORD97":174209.78,"N_COORD97":2545924.1699999999,"ADDRESS":"公園路９３巷６弄２０號","OBJECTID":62589},"geometry":{"x":174209.78000000119,"y":2545924.1699999999}},{"attributes":{"ID":62590,"DIS_CODE":0,"TOWNNAME":"永康區","LI":"西灣里","LIN":"31鄰","STREET":"公園路","SECT":" ","MAREA":" ","LANE":"９３巷","ALLEY":"６弄","HOUSE_NO":"１１號","E_COORD97":174225.10000000001,"N_COORD97":2545908.8199999998,"ADDRESS":"公園路９３巷６弄１１號","OBJECTID":62590},"geometry":{"x":174225.10000000149,"y":2545908.8200000022}},{"attributes":{"ID":62591,"DIS_CODE":0,"TOWNNAME":"永康區","LI":"西灣里","LIN":"31鄰","STREET":"公園路","SECT":" ","MAREA":" ","LANE":"９３巷","ALLEY":"１２弄","HOUSE_NO":"１６號","E_COORD97":174210.64999999999,"N_COORD97":2545869.75,"ADDRESS":"公園路９３巷１２弄１６號","OBJECTID":62591},"geometry":{"x":174210.6500000013,"y":2545869.75}},{"attributes":{"ID":62592,"DIS_CODE":0,"TOWNNAME":"永康區","LI":"西灣里","LIN":"31鄰","STREET":"公園路","SECT":" ","MAREA":" ","LANE":"９３巷","ALLEY":"１２弄","HOUSE_NO":"１２號","E_COORD97":174231.82999999999,"N_COORD97":2545874.3700000001,"ADDRESS":"公園路９３巷１２弄１２號","OBJECTID":62592},"geometry":{"x":174231.83000000007,"y":2545874.3700000029}},{"attributes":{"ID":62593,"DIS_CODE":0,"TOWNNAME":"永康區","LI":"北灣里","LIN":"31鄰","STREET":"大同街","SECT":" ","MAREA":" ","LANE":"３３巷","ALLEY":"１６弄","HOUSE_NO":"６號","E_COORD97":175236.07000000001,"N_COORD97":2545372.3100000001,"ADDRESS":"大同街３３巷１６弄６號","OBJECTID":62593},"geometry":{"x":175236.0700000003,"y":2545372.3100000042}},{"attributes":{"ID":62594,"DIS_CODE":0,"TOWNNAME":"永康區","LI":"正強里","LIN":"31鄰","STREET":"自強路","SECT":" ","MAREA":" ","LANE":"２５５巷","ALLEY":"４２弄","HOUSE_NO":"４號","E_COORD97":173150.16,"N_COORD97":2547633.2400000002,"ADDRESS":"自強路２５５巷４２弄４號","OBJECTID":62594},"geometry":{"x":173150.16000000015,"y":2547633.2400000002}},{"attributes":{"ID":62595,"DIS_CODE":0,"TOWNNAME":"西港區","LI":"營西里","LIN":"1鄰","STREET":" ","SECT":" ","MAREA":"後營","LANE":" ","ALLEY":" ","HOUSE_NO":"２號之１","E_COORD97":169462.10999999999,"N_COORD97":2560062.1899999999,"ADDRESS":"後營２號之１","OBJECTID":62595},"geometry":{"x":169462.11000000034,"y":2560062.1900000032}},{"attributes":{"ID":62596,"DIS_CODE":0,"TOWNNAME":"西港區","LI":"營西里","LIN":"1鄰","STREET":" ","SECT":" ","MAREA":"後營","LANE":" ","ALLEY":" ","HOUSE_NO":"２號之２０","E_COORD97":169628.81,"N_COORD97":2559770.9199999999,"ADDRESS":"後營２號之２０","OBJECTID":62596},"geometry":{"x":169628.80999999959,"y":2559770.9200000018}},{"attributes":{"ID":62597,"DIS_CODE":0,"TOWNNAME":"西港區","LI":"營西里","LIN":"1鄰","STREET":" ","SECT":" ","MAREA":"後營","LANE":" ","ALLEY":" ","HOUSE_NO":"２號之２１","E_COORD97":169429.70999999999,"N_COORD97":2560004.79,"ADDRESS":"後營２號之２１","OBJECTID":62597},"geometry":{"x":169429.71000000089,"y":2560004.790000001}},{"attributes":{"ID":62598,"DIS_CODE":0,"TOWNNAME":"西港區","LI":"營西里","LIN":"1鄰","STREET":" ","SECT":" ","MAREA":"後營","LANE":" ","ALLEY":" ","HOUSE_NO":"２號之２２","E_COORD97":168553.32000000001,"N_COORD97":2559758.5899999999,"ADDRESS":"後營２號之２２","OBJECTID":62598},"geometry":{"x":168553.3200000003,"y":2559758.5900000017}},{"attributes":{"ID":62599,"DIS_CODE":0,"TOWNNAME":"西港區","LI":"營西里","LIN":"1鄰","STREET":" ","SECT":" ","MAREA":"後營","LANE":" ","ALLEY":" ","HOUSE_NO":"２號之２３","E_COORD97":168687.23999999999,"N_COORD97":2560110.4700000002,"ADDRESS":"後營２號之２３","OBJECTID":62599},"geometry":{"x":168687.24000000115,"y":2560110.4700000025}},{"attributes":{"ID":62600,"DIS_CODE":0,"TOWNNAME":"新市區","LI":"三舍里","LIN":"1鄰","STREET":" ","SECT":" ","MAREA":"三舍","LANE":" ","ALLEY":" ","HOUSE_NO":"２８之８號","E_COORD97":177840.34,"N_COORD97":2554362.5499999998,"ADDRESS":"三舍２８之８號","OBJECTID":62600},"geometry":{"x":177840.34000000078,"y":2554362.5500000026}}]}