{"displayFieldName":"TOWNNAME","fieldAliases":{"ID":"ID","DIS_CODE":"DIS_CODE","TOWNNAME":"TOWNNAME","LI":"LI","LIN":"LIN","STREET":"STREET","SECT":"SECT","MAREA":"MAREA","LANE":"LANE","ALLEY":"ALLEY","HOUSE_NO":"HOUSE_NO","E_COORD97":"E_COORD97","N_COORD97":"N_COORD97","ADDRESS":"ADDRESS","OBJECTID":"OBJECTID"},"geometryType":"esriGeometryPoint","spatialReference":{"wkid":102443,"latestWkid":3826},"fields":[{"name":"ID","type":"esriFieldTypeDouble","alias":"ID"},{"name":"DIS_CODE","type":"esriFieldTypeInteger","alias":"DIS_CODE"},{"name":"TOWNNAME","type":"esriFieldTypeString","alias":"TOWNNAME","length":8},{"name":"LI","type":"esriFieldTypeString","alias":"LI","length":8},{"name":"LIN","type":"esriFieldTypeString","alias":"LIN","length":12},{"name":"STREET","type":"esriFieldTypeString","alias":"STREET","length":20},{"name":"SECT","type":"esriFieldTypeString","alias":"SECT","length":8},{"name":"MAREA","type":"esriFieldTypeString","alias":"MAREA","length":12},{"name":"LANE","type":"esriFieldTypeString","alias":"LANE","length":10},{"name":"ALLEY","type":"esriFieldTypeString","alias":"ALLEY","length":10},{"name":"HOUSE_NO","type":"esriFieldTypeString","alias":"HOUSE_NO","length":20},{"name":"E_COORD97","type":"esriFieldTypeDouble","alias":"E_COORD97"},{"name":"N_COORD97","type":"esriFieldTypeDouble","alias":"N_COORD97"},{"name":"ADDRESS","type":"esriFieldTypeString","alias":"ADDRESS","length":50},{"name":"OBJECTID","type":"esriFieldTypeOID","alias":"OBJECTID"}],"features":[{"attributes":{"ID":120201,"DIS_CODE":0,"TOWNNAME":"麻豆區","LI":"大山里","LIN":"1鄰","STREET":" ","SECT":" ","MAREA":"大山\u25A0","LANE":" ","ALLEY":" ","HOUSE_NO":"５號之２","E_COORD97":170183.17999999999,"N_COORD97":2565920.9500000002,"ADDRESS":"大山\u25A0５號之２","OBJECTID":120201},"geometry":{"x":170183.17999999877,"y":2565920.9499999993}},{"attributes":{"ID":120202,"DIS_CODE":0,"TOWNNAME":"麻豆區","LI":"大山里","LIN":"1鄰","STREET":" ","SECT":" ","MAREA":"大山\u25A0","LANE":" ","ALLEY":" ","HOUSE_NO":"１０號之１１","E_COORD97":170306.59,"N_COORD97":2565850.5,"ADDRESS":"大山\u25A0１０號之１１","OBJECTID":120202},"geometry":{"x":170306.59000000078,"y":2565850.5}},{"attributes":{"ID":120203,"DIS_CODE":0,"TOWNNAME":"麻豆區","LI":"大山里","LIN":"1鄰","STREET":" ","SECT":" ","MAREA":"大山\u25A0","LANE":" ","ALLEY":" ","HOUSE_NO":"１０號之１２","E_COORD97":170316.06,"N_COORD97":2565855.0600000001,"ADDRESS":"大山\u25A0１０號之１２","OBJECTID":120203},"geometry":{"x":170316.05999999866,"y":2565855.0600000042}},{"attributes":{"ID":120204,"DIS_CODE":0,"TOWNNAME":"永康區","LI":"安康里","LIN":"16鄰","STREET":"中華路","SECT":" ","MAREA":" ","LANE":"６１９巷","ALLEY":"８８弄","HOUSE_NO":"３７號","E_COORD97":170845.04000000001,"N_COORD97":2546066.2400000002,"ADDRESS":"中華路６１９巷８８弄３７號","OBJECTID":120204},"geometry":{"x":170845.04000000004,"y":2546066.2400000002}},{"attributes":{"ID":120205,"DIS_CODE":0,"TOWNNAME":"麻豆區","LI":"大山里","LIN":"1鄰","STREET":" ","SECT":" ","MAREA":"大山\u25A0","LANE":" ","ALLEY":" ","HOUSE_NO":"１０號之１３","E_COORD97":170316.14999999999,"N_COORD97":2565850.6200000001,"ADDRESS":"大山\u25A0１０號之１３","OBJECTID":120205},"geometry":{"x":170316.15000000037,"y":2565850.620000001}},{"attributes":{"ID":120206,"DIS_CODE":0,"TOWNNAME":"麻豆區","LI":"大山里","LIN":"1鄰","STREET":" ","SECT":" ","MAREA":"大山\u25A0","LANE":" ","ALLEY":" ","HOUSE_NO":"１０號之１４","E_COORD97":170316.25,"N_COORD97":2565846.1800000002,"ADDRESS":"大山\u25A0１０號之１４","OBJECTID":120206},"geometry":{"x":170316.25,"y":2565846.1799999997}},{"attributes":{"ID":120207,"DIS_CODE":0,"TOWNNAME":"麻豆區","LI":"大山里","LIN":"1鄰","STREET":" ","SECT":" ","MAREA":"大山\u25A0","LANE":" ","ALLEY":" ","HOUSE_NO":"１０號之１５","E_COORD97":170316.35000000001,"N_COORD97":2565841.73,"ADDRESS":"大山\u25A0１０號之１５","OBJECTID":120207},"geometry":{"x":170316.35000000056,"y":2565841.7300000023}},{"attributes":{"ID":120208,"DIS_CODE":0,"TOWNNAME":"麻豆區","LI":"大山里","LIN":"1鄰","STREET":" ","SECT":" ","MAREA":"大山\u25A0","LANE":" ","ALLEY":" ","HOUSE_NO":"１０號之１６","E_COORD97":170305.51999999999,"N_COORD97":2565834.04,"ADDRESS":"大山\u25A0１０號之１６","OBJECTID":120208},"geometry":{"x":170305.51999999955,"y":2565834.040000001}},{"attributes":{"ID":120209,"DIS_CODE":0,"TOWNNAME":"麻豆區","LI":"大山里","LIN":"1鄰","STREET":" ","SECT":" ","MAREA":"大山\u25A0","LANE":" ","ALLEY":" ","HOUSE_NO":"１０號之１７","E_COORD97":170300.35999999999,"N_COORD97":2565834.0600000001,"ADDRESS":"大山\u25A0１０號之１７","OBJECTID":120209},"geometry":{"x":170300.36000000127,"y":2565834.0600000005}},{"attributes":{"ID":120210,"DIS_CODE":0,"TOWNNAME":"新營區","LI":"新北里","LIN":"31鄰","STREET":"新北六街","SECT":" ","MAREA":" ","LANE":" ","ALLEY":" ","HOUSE_NO":"７９號","E_COORD97":178819.75,"N_COORD97":2579051.23,"ADDRESS":"新北六街７９號","OBJECTID":120210},"geometry":{"x":178819.75,"y":2579051.2300000004}},{"attributes":{"ID":120211,"DIS_CODE":0,"TOWNNAME":"新營區","LI":"新北里","LIN":"31鄰","STREET":"新北六街","SECT":" ","MAREA":" ","LANE":" ","ALLEY":" ","HOUSE_NO":"６３號","E_COORD97":178781.85999999999,"N_COORD97":2579046.98,"ADDRESS":"新北六街６３號","OBJECTID":120211},"geometry":{"x":178781.86000000034,"y":2579046.9800000004}},{"attributes":{"ID":120212,"DIS_CODE":0,"TOWNNAME":"新營區","LI":"三仙里","LIN":"31鄰","STREET":"育德街","SECT":" ","MAREA":" ","LANE":" ","ALLEY":" ","HOUSE_NO":"１２９號","E_COORD97":179590.16,"N_COORD97":2579271.25,"ADDRESS":"育德街１２９號","OBJECTID":120212},"geometry":{"x":179590.16000000015,"y":2579271.25}},{"attributes":{"ID":120213,"DIS_CODE":0,"TOWNNAME":"新化區","LI":"東榮里","LIN":"31鄰","STREET":"中正路","SECT":" ","MAREA":" ","LANE":" ","ALLEY":" ","HOUSE_NO":"３３８號","E_COORD97":179120.70999999999,"N_COORD97":2548289.25,"ADDRESS":"中正路３３８號","OBJECTID":120213},"geometry":{"x":179120.71000000089,"y":2548289.2500000019}},{"attributes":{"ID":120214,"DIS_CODE":0,"TOWNNAME":"永康區","LI":"安康里","LIN":"16鄰","STREET":"中華路","SECT":" ","MAREA":" ","LANE":"６１９巷","ALLEY":"８８弄","HOUSE_NO":"６７之２號","E_COORD97":170902.54000000001,"N_COORD97":2546117.5499999998,"ADDRESS":"中華路６１９巷８８弄６７之２號","OBJECTID":120214},"geometry":{"x":170902.54000000004,"y":2546117.5500000026}},{"attributes":{"ID":120215,"DIS_CODE":0,"TOWNNAME":"永康區","LI":"正強里","LIN":"16鄰","STREET":"自強路","SECT":" ","MAREA":" ","LANE":"１８８巷","ALLEY":"２弄","HOUSE_NO":"１２號","E_COORD97":173159.38,"N_COORD97":2547469.71,"ADDRESS":"自強路１８８巷２弄１２號","OBJECTID":120215},"geometry":{"x":173159.38000000082,"y":2547469.7100000028}},{"attributes":{"ID":120216,"DIS_CODE":0,"TOWNNAME":"歸仁區","LI":"許厝里","LIN":"31鄰","STREET":"和平南街","SECT":" ","MAREA":" ","LANE":" ","ALLEY":" ","HOUSE_NO":"３１號","E_COORD97":177829.70999999999,"N_COORD97":2540659.5299999998,"ADDRESS":"和平南街３１號","OBJECTID":120216},"geometry":{"x":177829.70999999996,"y":2540659.5299999993}},{"attributes":{"ID":120217,"DIS_CODE":0,"TOWNNAME":"永康區","LI":"安康里","LIN":"16鄰","STREET":"中華路","SECT":" ","MAREA":" ","LANE":"６１９巷","ALLEY":"８８弄","HOUSE_NO":"７１號","E_COORD97":170932.14999999999,"N_COORD97":2546116.25,"ADDRESS":"中華路６１９巷８８弄７１號","OBJECTID":120217},"geometry":{"x":170932.1500000013,"y":2546116.25}},{"attributes":{"ID":120218,"DIS_CODE":0,"TOWNNAME":"永康區","LI":"正強里","LIN":"16鄰","STREET":"自強路","SECT":" ","MAREA":" ","LANE":"１８８巷","ALLEY":"２弄","HOUSE_NO":"１４號","E_COORD97":173155.48999999999,"N_COORD97":2547469.21,"ADDRESS":"自強路１８８巷２弄１４號","OBJECTID":120218},"geometry":{"x":173155.49000000115,"y":2547469.2100000028}},{"attributes":{"ID":120219,"DIS_CODE":0,"TOWNNAME":"麻豆區","LI":"大山里","LIN":"8鄰","STREET":" ","SECT":" ","MAREA":"大山\u25A0","LANE":" ","ALLEY":" ","HOUSE_NO":"１號之４９","E_COORD97":170365.31,"N_COORD97":2565625.73,"ADDRESS":"大山\u25A0１號之４９","OBJECTID":120219},"geometry":{"x":170365.31000000145,"y":2565625.7300000004}},{"attributes":{"ID":120220,"DIS_CODE":0,"TOWNNAME":"永康區","LI":"正強里","LIN":"16鄰","STREET":"自強路","SECT":" ","MAREA":" ","LANE":"１８８巷","ALLEY":"２弄","HOUSE_NO":"８號","E_COORD97":173166.44,"N_COORD97":2547470.71,"ADDRESS":"自強路１８８巷２弄８號","OBJECTID":120220},"geometry":{"x":173166.44000000134,"y":2547470.7100000009}},{"attributes":{"ID":120221,"DIS_CODE":0,"TOWNNAME":"永康區","LI":"正強里","LIN":"16鄰","STREET":"自強路","SECT":" ","MAREA":" ","LANE":"１８８巷","ALLEY":"２弄","HOUSE_NO":"４號","E_COORD97":173174.38,"N_COORD97":2547471.96,"ADDRESS":"自強路１８８巷２弄４號","OBJECTID":120221},"geometry":{"x":173174.38000000082,"y":2547471.9600000009}},{"attributes":{"ID":120222,"DIS_CODE":0,"TOWNNAME":"永康區","LI":"安康里","LIN":"16鄰","STREET":"中華路","SECT":" ","MAREA":" ","LANE":"６１９巷","ALLEY":"８８弄","HOUSE_NO":"６７之５號","E_COORD97":170908.44,"N_COORD97":2546128.0499999998,"ADDRESS":"中華路６１９巷８８弄６７之５號","OBJECTID":120222},"geometry":{"x":170908.44000000134,"y":2546128.0500000026}},{"attributes":{"ID":120223,"DIS_CODE":0,"TOWNNAME":"永康區","LI":"安康里","LIN":"16鄰","STREET":"中華路","SECT":" ","MAREA":" ","LANE":"６１９巷","ALLEY":"８８弄","HOUSE_NO":"６７之３號","E_COORD97":170899.29000000001,"N_COORD97":2546123.2999999998,"ADDRESS":"中華路６１９巷８８弄６７之３號","OBJECTID":120223},"geometry":{"x":170899.29000000004,"y":2546123.3000000026}},{"attributes":{"ID":120224,"DIS_CODE":0,"TOWNNAME":"安南區","LI":"頂安里","LIN":"16鄰","STREET":"安中路","SECT":"一段","MAREA":" ","LANE":"２２０巷","ALLEY":"７弄","HOUSE_NO":"１７號","E_COORD97":168631.72,"N_COORD97":2548651.4199999999,"ADDRESS":"安中路一段２２０巷７弄１７號","OBJECTID":120224},"geometry":{"x":168631.71999999974,"y":2548651.4199999999}},{"attributes":{"ID":120225,"DIS_CODE":0,"TOWNNAME":"麻豆區","LI":"大山里","LIN":"1鄰","STREET":" ","SECT":" ","MAREA":"大山\u25A0","LANE":" ","ALLEY":" ","HOUSE_NO":"１０號之１８","E_COORD97":170295.20000000001,"N_COORD97":2565834.0800000001,"ADDRESS":"大山\u25A0１０號之１８","OBJECTID":120225},"geometry":{"x":170295.20000000019,"y":2565834.0800000038}},{"attributes":{"ID":120226,"DIS_CODE":0,"TOWNNAME":"麻豆區","LI":"大山里","LIN":"1鄰","STREET":" ","SECT":" ","MAREA":"大山\u25A0","LANE":" ","ALLEY":" ","HOUSE_NO":"１０號之１９","E_COORD97":170290.04000000001,"N_COORD97":2565834.1099999999,"ADDRESS":"大山\u25A0１０號之１９","OBJECTID":120226},"geometry":{"x":170290.04000000097,"y":2565834.1100000013}},{"attributes":{"ID":120227,"DIS_CODE":0,"TOWNNAME":"麻豆區","LI":"大山里","LIN":"1鄰","STREET":" ","SECT":" ","MAREA":"大山\u25A0","LANE":" ","ALLEY":" ","HOUSE_NO":"１０號之１","E_COORD97":170317.31,"N_COORD97":2565873.73,"ADDRESS":"大山\u25A0１０號之１","OBJECTID":120227},"geometry":{"x":170317.30999999959,"y":2565873.7300000004}},{"attributes":{"ID":120228,"DIS_CODE":0,"TOWNNAME":"麻豆區","LI":"大山里","LIN":"1鄰","STREET":" ","SECT":" ","MAREA":"大山\u25A0","LANE":" ","ALLEY":" ","HOUSE_NO":"１０號之２０","E_COORD97":170315.41,"N_COORD97":2565904.1099999999,"ADDRESS":"大山\u25A0１０號之２０","OBJECTID":120228},"geometry":{"x":170315.41000000015,"y":2565904.1099999975}},{"attributes":{"ID":120229,"DIS_CODE":0,"TOWNNAME":"麻豆區","LI":"大山里","LIN":"1鄰","STREET":" ","SECT":" ","MAREA":"大山\u25A0","LANE":" ","ALLEY":" ","HOUSE_NO":"１０號之２１","E_COORD97":170315.37,"N_COORD97":2565908.2999999998,"ADDRESS":"大山\u25A0１０號之２１","OBJECTID":120229},"geometry":{"x":170315.37000000104,"y":2565908.3000000026}},{"attributes":{"ID":120230,"DIS_CODE":0,"TOWNNAME":"麻豆區","LI":"大山里","LIN":"1鄰","STREET":" ","SECT":" ","MAREA":"大山\u25A0","LANE":" ","ALLEY":" ","HOUSE_NO":"１０號之２２","E_COORD97":170315.32000000001,"N_COORD97":2565912.4900000002,"ADDRESS":"大山\u25A0１０號之２２","OBJECTID":120230},"geometry":{"x":170315.32000000123,"y":2565912.4900000002}},{"attributes":{"ID":120231,"DIS_CODE":0,"TOWNNAME":"麻豆區","LI":"大山里","LIN":"1鄰","STREET":" ","SECT":" ","MAREA":"大山\u25A0","LANE":" ","ALLEY":" ","HOUSE_NO":"１０號之２３","E_COORD97":170315.28,"N_COORD97":2565916.6899999999,"ADDRESS":"大山\u25A0１０號之２３","OBJECTID":120231},"geometry":{"x":170315.27999999933,"y":2565916.6899999995}},{"attributes":{"ID":120232,"DIS_CODE":0,"TOWNNAME":"麻豆區","LI":"大山里","LIN":"1鄰","STREET":" ","SECT":" ","MAREA":"大山\u25A0","LANE":" ","ALLEY":" ","HOUSE_NO":"１０號之２５","E_COORD97":170315.23999999999,"N_COORD97":2565921.7799999998,"ADDRESS":"大山\u25A0１０號之２５","OBJECTID":120232},"geometry":{"x":170315.24000000022,"y":2565921.7800000012}},{"attributes":{"ID":120233,"DIS_CODE":0,"TOWNNAME":"麻豆區","LI":"大山里","LIN":"1鄰","STREET":" ","SECT":" ","MAREA":"大山\u25A0","LANE":" ","ALLEY":" ","HOUSE_NO":"１０號之２６","E_COORD97":170315.20000000001,"N_COORD97":2565925.9700000002,"ADDRESS":"大山\u25A0１０號之２６","OBJECTID":120233},"geometry":{"x":170315.20000000019,"y":2565925.9700000007}},{"attributes":{"ID":120234,"DIS_CODE":0,"TOWNNAME":"麻豆區","LI":"大山里","LIN":"1鄰","STREET":" ","SECT":" ","MAREA":"大山\u25A0","LANE":" ","ALLEY":" ","HOUSE_NO":"１０號之２７","E_COORD97":170315.14999999999,"N_COORD97":2565930.1600000001,"ADDRESS":"大山\u25A0１０號之２７","OBJECTID":120234},"geometry":{"x":170315.1500000013,"y":2565930.160000002}},{"attributes":{"ID":120235,"DIS_CODE":0,"TOWNNAME":"麻豆區","LI":"大山里","LIN":"1鄰","STREET":" ","SECT":" ","MAREA":"大山\u25A0","LANE":" ","ALLEY":" ","HOUSE_NO":"１０號之２８","E_COORD97":170315.10999999999,"N_COORD97":2565934.3599999999,"ADDRESS":"大山\u25A0１０號之２８","OBJECTID":120235},"geometry":{"x":170315.11000000127,"y":2565934.3600000013}},{"attributes":{"ID":120236,"DIS_CODE":0,"TOWNNAME":"麻豆區","LI":"大山里","LIN":"1鄰","STREET":" ","SECT":" ","MAREA":"大山\u25A0","LANE":" ","ALLEY":" ","HOUSE_NO":"１０號之２９","E_COORD97":170304.87,"N_COORD97":2565920.27,"ADDRESS":"大山\u25A0１０號之２９","OBJECTID":120236},"geometry":{"x":170304.87000000104,"y":2565920.2700000033}},{"attributes":{"ID":120237,"DIS_CODE":0,"TOWNNAME":"麻豆區","LI":"大山里","LIN":"1鄰","STREET":" ","SECT":" ","MAREA":"大山\u25A0","LANE":" ","ALLEY":" ","HOUSE_NO":"１０號之２","E_COORD97":170317.38,"N_COORD97":2565869.3700000001,"ADDRESS":"大山\u25A0１０號之２","OBJECTID":120237},"geometry":{"x":170317.37999999989,"y":2565869.370000001}},{"attributes":{"ID":120238,"DIS_CODE":0,"TOWNNAME":"麻豆區","LI":"大山里","LIN":"1鄰","STREET":" ","SECT":" ","MAREA":"大山\u25A0","LANE":" ","ALLEY":" ","HOUSE_NO":"１０號之３０","E_COORD97":170300.62,"N_COORD97":2565920.2000000002,"ADDRESS":"大山\u25A0１０號之３０","OBJECTID":120238},"geometry":{"x":170300.62000000011,"y":2565920.1999999993}},{"attributes":{"ID":120239,"DIS_CODE":0,"TOWNNAME":"安南區","LI":"頂安里","LIN":"16鄰","STREET":"安中路","SECT":"一段","MAREA":" ","LANE":"２２０巷","ALLEY":"７弄","HOUSE_NO":"１８號","E_COORD97":168639.78,"N_COORD97":2548662.1499999999,"ADDRESS":"安中路一段２２０巷７弄１８號","OBJECTID":120239},"geometry":{"x":168639.78000000026,"y":2548662.1500000022}},{"attributes":{"ID":120240,"DIS_CODE":0,"TOWNNAME":"安平區","LI":"國平里","LIN":"31鄰","STREET":"健康三街","SECT":" ","MAREA":" ","LANE":" ","ALLEY":" ","HOUSE_NO":"２號","E_COORD97":164699.37,"N_COORD97":2542871.3700000001,"ADDRESS":"健康三街２號","OBJECTID":120240},"geometry":{"x":164699.37000000011,"y":2542871.3700000029}},{"attributes":{"ID":120241,"DIS_CODE":0,"TOWNNAME":"麻豆區","LI":"大山里","LIN":"1鄰","STREET":" ","SECT":" ","MAREA":"大山\u25A0","LANE":" ","ALLEY":" ","HOUSE_NO":"１０號之３１","E_COORD97":170296.37,"N_COORD97":2565920.1400000001,"ADDRESS":"大山\u25A0１０號之３１","OBJECTID":120241},"geometry":{"x":170296.37000000104,"y":2565920.1400000025}},{"attributes":{"ID":120242,"DIS_CODE":0,"TOWNNAME":"麻豆區","LI":"大山里","LIN":"1鄰","STREET":" ","SECT":" ","MAREA":"大山\u25A0","LANE":" ","ALLEY":" ","HOUSE_NO":"１０號之３２","E_COORD97":170292.12,"N_COORD97":2565920.0699999998,"ADDRESS":"大山\u25A0１０號之３２","OBJECTID":120242},"geometry":{"x":170292.12000000011,"y":2565920.0700000022}},{"attributes":{"ID":120243,"DIS_CODE":0,"TOWNNAME":"麻豆區","LI":"大山里","LIN":"1鄰","STREET":" ","SECT":" ","MAREA":"大山\u25A0","LANE":" ","ALLEY":" ","HOUSE_NO":"１０號之３","E_COORD97":170317.45999999999,"N_COORD97":2565865.0099999998,"ADDRESS":"大山\u25A0１０號之３","OBJECTID":120243},"geometry":{"x":170317.46000000089,"y":2565865.0100000035}},{"attributes":{"ID":120244,"DIS_CODE":0,"TOWNNAME":"永康區","LI":"龍潭里","LIN":"31鄰","STREET":"中山北路","SECT":" ","MAREA":" ","LANE":" ","ALLEY":" ","HOUSE_NO":"２２８號之２","E_COORD97":174567.37,"N_COORD97":2547598.6000000001,"ADDRESS":"中山北路２２８號之２","OBJECTID":120244},"geometry":{"x":174567.37000000011,"y":2547598.5999999996}},{"attributes":{"ID":120245,"DIS_CODE":0,"TOWNNAME":"安南區","LI":"頂安里","LIN":"16鄰","STREET":"安中路","SECT":"一段","MAREA":" ","LANE":"２２０巷","ALLEY":"７弄","HOUSE_NO":"１９號","E_COORD97":168630.04000000001,"N_COORD97":2548647.3900000001,"ADDRESS":"安中路一段２２０巷７弄１９號","OBJECTID":120245},"geometry":{"x":168630.0400000019,"y":2548647.3900000025}},{"attributes":{"ID":120246,"DIS_CODE":0,"TOWNNAME":"佳里區","LI":"龍安里","LIN":"10鄰","STREET":" ","SECT":" ","MAREA":"塭子內","LANE":" ","ALLEY":" ","HOUSE_NO":"９９號","E_COORD97":164568.01999999999,"N_COORD97":2558180.1600000001,"ADDRESS":"塭子內９９號","OBJECTID":120246},"geometry":{"x":164568.02000000142,"y":2558180.1600000001}},{"attributes":{"ID":120247,"DIS_CODE":0,"TOWNNAME":"安南區","LI":"頂安里","LIN":"16鄰","STREET":"安中路","SECT":"一段","MAREA":" ","LANE":"２２０巷","ALLEY":"７弄","HOUSE_NO":"２０號","E_COORD97":168635.07999999999,"N_COORD97":2548664.1699999999,"ADDRESS":"安中路一段２２０巷７弄２０號","OBJECTID":120247},"geometry":{"x":168635.08000000101,"y":2548664.1699999999}},{"attributes":{"ID":120248,"DIS_CODE":0,"TOWNNAME":"永康區","LI":"龍潭里","LIN":"31鄰","STREET":"中山北路","SECT":" ","MAREA":" ","LANE":" ","ALLEY":" ","HOUSE_NO":"２０３號","E_COORD97":174325.79999999999,"N_COORD97":2547557.1899999999,"ADDRESS":"中山北路２０３號","OBJECTID":120248},"geometry":{"x":174325.80000000075,"y":2547557.1899999995}},{"attributes":{"ID":120249,"DIS_CODE":0,"TOWNNAME":"中西區","LI":"西賢里","LIN":"31鄰","STREET":"民權路","SECT":"四段","MAREA":" ","LANE":" ","ALLEY":" ","HOUSE_NO":"７３０號","E_COORD97":164641.48999999999,"N_COORD97":2544752.02,"ADDRESS":"民權路四段７３０號","OBJECTID":120249},"geometry":{"x":164641.49000000022,"y":2544752.0199999996}},{"attributes":{"ID":120250,"DIS_CODE":0,"TOWNNAME":"安南區","LI":"頂安里","LIN":"16鄰","STREET":"安中路","SECT":"一段","MAREA":" ","LANE":"２２０巷","ALLEY":"７弄","HOUSE_NO":"２１號","E_COORD97":168628.03,"N_COORD97":2548642.6899999999,"ADDRESS":"安中路一段２２０巷７弄２１號","OBJECTID":120250},"geometry":{"x":168628.03000000026,"y":2548642.6899999995}},{"attributes":{"ID":120251,"DIS_CODE":0,"TOWNNAME":"東區","LI":"成大里","LIN":"31鄰","STREET":"北門路","SECT":"二段","MAREA":" ","LANE":" ","ALLEY":" ","HOUSE_NO":"２８號","E_COORD97":169359.84,"N_COORD97":2544556.6400000001,"ADDRESS":"北門路二段２８號","OBJECTID":120251},"geometry":{"x":169359.83999999985,"y":2544556.6400000025}},{"attributes":{"ID":120252,"DIS_CODE":0,"TOWNNAME":"安南區","LI":"頂安里","LIN":"16鄰","STREET":"安中路","SECT":"一段","MAREA":" ","LANE":"２２０巷","ALLEY":"７弄","HOUSE_NO":"２３號","E_COORD97":168626.01000000001,"N_COORD97":2548638.3300000001,"ADDRESS":"安中路一段２２０巷７弄２３號","OBJECTID":120252},"geometry":{"x":168626.00999999978,"y":2548638.3300000001}},{"attributes":{"ID":120253,"DIS_CODE":0,"TOWNNAME":"安南區","LI":"頂安里","LIN":"16鄰","STREET":"安中路","SECT":"一段","MAREA":" ","LANE":"２２０巷","ALLEY":"７弄","HOUSE_NO":"２５號","E_COORD97":168621.98000000001,"N_COORD97":2548635.6499999999,"ADDRESS":"安中路一段２２０巷７弄２５號","OBJECTID":120253},"geometry":{"x":168621.98000000045,"y":2548635.6500000022}},{"attributes":{"ID":120254,"DIS_CODE":0,"TOWNNAME":"安南區","LI":"頂安里","LIN":"16鄰","STREET":"安中路","SECT":"一段","MAREA":" ","LANE":"２２０巷","ALLEY":"７弄","HOUSE_NO":"２７號","E_COORD97":168619.97,"N_COORD97":2548631.29,"ADDRESS":"安中路一段２２０巷７弄２７號","OBJECTID":120254},"geometry":{"x":168619.96999999881,"y":2548631.2899999991}},{"attributes":{"ID":120255,"DIS_CODE":0,"TOWNNAME":"安南區","LI":"頂安里","LIN":"16鄰","STREET":"安中路","SECT":"一段","MAREA":" ","LANE":"２２０巷","ALLEY":"７弄","HOUSE_NO":"２９號","E_COORD97":168603.51000000001,"N_COORD97":2548642.6899999999,"ADDRESS":"安中路一段２２０巷７弄２９號","OBJECTID":120255},"geometry":{"x":168603.51000000071,"y":2548642.6899999995}},{"attributes":{"ID":120256,"DIS_CODE":0,"TOWNNAME":"永康區","LI":"大灣里","LIN":"31鄰","STREET":"文賢街","SECT":" ","MAREA":" ","LANE":" ","ALLEY":" ","HOUSE_NO":"６２號","E_COORD97":175319.29000000001,"N_COORD97":2545067.5800000001,"ADDRESS":"文賢街６２號","OBJECTID":120256},"geometry":{"x":175319.2900000019,"y":2545067.5800000001}},{"attributes":{"ID":120257,"DIS_CODE":0,"TOWNNAME":"仁德區","LI":"仁義里","LIN":"31鄰","STREET":"正義二街","SECT":" ","MAREA":" ","LANE":" ","ALLEY":" ","HOUSE_NO":"８０號","E_COORD97":173599.34,"N_COORD97":2541564.77,"ADDRESS":"正義二街８０號","OBJECTID":120257},"geometry":{"x":173599.33999999985,"y":2541564.7700000014}},{"attributes":{"ID":120258,"DIS_CODE":0,"TOWNNAME":"安南區","LI":" ","LIN":" ","STREET":"安通路","SECT":"五段","MAREA":" ","LANE":" ","ALLEY":" ","HOUSE_NO":"８１之９１號","E_COORD97":168323.07000000001,"N_COORD97":2547810.6699999999,"ADDRESS":"安通路五段８１之９１號","OBJECTID":120258},"geometry":{"x":168323.0700000003,"y":2547810.6700000018}},{"attributes":{"ID":120259,"DIS_CODE":0,"TOWNNAME":"安南區","LI":" ","LIN":" ","STREET":"安通路","SECT":"五段","MAREA":" ","LANE":" ","ALLEY":" ","HOUSE_NO":"８１之９２號","E_COORD97":168319.42000000001,"N_COORD97":2547810.6699999999,"ADDRESS":"安通路五段８１之９２號","OBJECTID":120259},"geometry":{"x":168319.42000000086,"y":2547810.6700000018}},{"attributes":{"ID":120260,"DIS_CODE":0,"TOWNNAME":"安南區","LI":"頂安里","LIN":"16鄰","STREET":"安中路","SECT":"一段","MAREA":" ","LANE":"２２０巷","ALLEY":"７弄","HOUSE_NO":"３１號","E_COORD97":168606.54000000001,"N_COORD97":2548645.71,"ADDRESS":"安中路一段２２０巷７弄３１號","OBJECTID":120260},"geometry":{"x":168606.54000000097,"y":2548645.7100000028}},{"attributes":{"ID":120261,"DIS_CODE":0,"TOWNNAME":"安南區","LI":"頂安里","LIN":"16鄰","STREET":"安中路","SECT":"一段","MAREA":" ","LANE":"２２０巷","ALLEY":"７弄","HOUSE_NO":"３５號","E_COORD97":168610.89999999999,"N_COORD97":2548654.4399999999,"ADDRESS":"安中路一段２２０巷７弄３５號","OBJECTID":120261},"geometry":{"x":168610.90000000037,"y":2548654.4399999995}},{"attributes":{"ID":120262,"DIS_CODE":0,"TOWNNAME":"安南區","LI":"頂安里","LIN":"16鄰","STREET":"安中路","SECT":"一段","MAREA":" ","LANE":"２２０巷","ALLEY":"７弄","HOUSE_NO":"３７號","E_COORD97":168613.25,"N_COORD97":2548657.46,"ADDRESS":"安中路一段２２０巷７弄３７號","OBJECTID":120262},"geometry":{"x":168613.24999999907,"y":2548657.4600000028}},{"attributes":{"ID":120263,"DIS_CODE":0,"TOWNNAME":"安南區","LI":"頂安里","LIN":"16鄰","STREET":"安中路","SECT":"一段","MAREA":" ","LANE":"２２０巷","ALLEY":"７弄","HOUSE_NO":"３９號","E_COORD97":168615.60000000001,"N_COORD97":2548662.1499999999,"ADDRESS":"安中路一段２２０巷７弄３９號","OBJECTID":120263},"geometry":{"x":168615.5999999987,"y":2548662.1500000022}},{"attributes":{"ID":120264,"DIS_CODE":0,"TOWNNAME":"安南區","LI":"頂安里","LIN":"16鄰","STREET":"安中路","SECT":"一段","MAREA":" ","LANE":"２２０巷","ALLEY":"７弄","HOUSE_NO":"４１號","E_COORD97":168604.51999999999,"N_COORD97":2548659.1299999999,"ADDRESS":"安中路一段２２０巷７弄４１號","OBJECTID":120264},"geometry":{"x":168604.52000000048,"y":2548659.129999999}},{"attributes":{"ID":120265,"DIS_CODE":0,"TOWNNAME":"安南區","LI":"頂安里","LIN":"16鄰","STREET":"安中路","SECT":"一段","MAREA":" ","LANE":"２２０巷","ALLEY":"７弄","HOUSE_NO":"３３號","E_COORD97":168608.20999999999,"N_COORD97":2548650.4100000001,"ADDRESS":"安中路一段２２０巷７弄３３號","OBJECTID":120265},"geometry":{"x":168608.20999999996,"y":2548650.410000002}},{"attributes":{"ID":120266,"DIS_CODE":0,"TOWNNAME":"安南區","LI":"長安里","LIN":"16鄰","STREET":"長溪路","SECT":"三段","MAREA":" ","LANE":"３７３巷","ALLEY":"２１弄","HOUSE_NO":"１７５號","E_COORD97":167511.42000000001,"N_COORD97":2551601.9199999999,"ADDRESS":"長溪路三段３７３巷２１弄１７５號","OBJECTID":120266},"geometry":{"x":167511.41999999993,"y":2551601.9199999999}},{"attributes":{"ID":120267,"DIS_CODE":0,"TOWNNAME":"安南區","LI":"長安里","LIN":"16鄰","STREET":"長溪路","SECT":"三段","MAREA":" ","LANE":"３７３巷","ALLEY":"２１弄","HOUSE_NO":"１７７號","E_COORD97":167507.03,"N_COORD97":2551599.4700000002,"ADDRESS":"長溪路三段３７３巷２１弄１７７號","OBJECTID":120267},"geometry":{"x":167507.03000000119,"y":2551599.4700000044}},{"attributes":{"ID":120268,"DIS_CODE":0,"TOWNNAME":"安南區","LI":"學東里","LIN":"16鄰","STREET":"城北路","SECT":" ","MAREA":" ","LANE":"８６６巷","ALLEY":"１０５弄","HOUSE_NO":"１５號","E_COORD97":161120.45999999999,"N_COORD97":2553135.9100000001,"ADDRESS":"城北路８６６巷１０５弄１５號","OBJECTID":120268},"geometry":{"x":161120.45999999996,"y":2553135.910000002}},{"attributes":{"ID":120269,"DIS_CODE":0,"TOWNNAME":"後壁區","LI":"仕安里","LIN":" ","STREET":" ","SECT":" ","MAREA":"下長","LANE":" ","ALLEY":" ","HOUSE_NO":"１號","E_COORD97":180746.57000000001,"N_COORD97":2583960.98,"ADDRESS":"下長１號","OBJECTID":120269},"geometry":{"x":180746.5700000003,"y":2583960.9800000023}},{"attributes":{"ID":120270,"DIS_CODE":0,"TOWNNAME":"麻豆區","LI":"大山里","LIN":"1鄰","STREET":" ","SECT":" ","MAREA":"大山\u25A0","LANE":" ","ALLEY":" ","HOUSE_NO":"１０號之４","E_COORD97":170306.42999999999,"N_COORD97":2565869.4399999999,"ADDRESS":"大山\u25A0１０號之４","OBJECTID":120270},"geometry":{"x":170306.4299999997,"y":2565869.4400000013}},{"attributes":{"ID":120271,"DIS_CODE":0,"TOWNNAME":"麻豆區","LI":"大山里","LIN":"1鄰","STREET":" ","SECT":" ","MAREA":"大山\u25A0","LANE":" ","ALLEY":" ","HOUSE_NO":"１０號之５","E_COORD97":170301.45000000001,"N_COORD97":2565869.4399999999,"ADDRESS":"大山\u25A0１０號之５","OBJECTID":120271},"geometry":{"x":170301.45000000112,"y":2565869.4400000013}},{"attributes":{"ID":120272,"DIS_CODE":0,"TOWNNAME":"麻豆區","LI":"大山里","LIN":"1鄰","STREET":" ","SECT":" ","MAREA":"大山\u25A0","LANE":" ","ALLEY":" ","HOUSE_NO":"１０號之６","E_COORD97":170296.45999999999,"N_COORD97":2565869.4399999999,"ADDRESS":"大山\u25A0１０號之６","OBJECTID":120272},"geometry":{"x":170296.45999999996,"y":2565869.4400000013}},{"attributes":{"ID":120273,"DIS_CODE":0,"TOWNNAME":"麻豆區","LI":"大山里","LIN":"1鄰","STREET":" ","SECT":" ","MAREA":"大山\u25A0","LANE":" ","ALLEY":" ","HOUSE_NO":"１０號之７","E_COORD97":170291.48000000001,"N_COORD97":2565869.4399999999,"ADDRESS":"大山\u25A0１０號之７","OBJECTID":120273},"geometry":{"x":170291.48000000045,"y":2565869.4400000013}},{"attributes":{"ID":120274,"DIS_CODE":0,"TOWNNAME":"麻豆區","LI":"大山里","LIN":"1鄰","STREET":" ","SECT":" ","MAREA":"大山\u25A0","LANE":" ","ALLEY":" ","HOUSE_NO":"１０號之８","E_COORD97":170292.53,"N_COORD97":2565850.3900000001,"ADDRESS":"大山\u25A0１０號之８","OBJECTID":120274},"geometry":{"x":170292.53000000026,"y":2565850.3900000025}},{"attributes":{"ID":120275,"DIS_CODE":0,"TOWNNAME":"安南區","LI":"學東里","LIN":"16鄰","STREET":"城北路","SECT":" ","MAREA":" ","LANE":"８６６巷","ALLEY":"１０５弄","HOUSE_NO":"１７號","E_COORD97":161119.98999999999,"N_COORD97":2553131.46,"ADDRESS":"城北路８６６巷１０５弄１７號","OBJECTID":120275},"geometry":{"x":161119.99000000115,"y":2553131.4600000009}},{"attributes":{"ID":120276,"DIS_CODE":0,"TOWNNAME":"安南區","LI":"學東里","LIN":"16鄰","STREET":"城北路","SECT":" ","MAREA":" ","LANE":"８６６巷","ALLEY":"１０５弄","HOUSE_NO":"１９號","E_COORD97":161119.29000000001,"N_COORD97":2553126.0800000001,"ADDRESS":"城北路８６６巷１０５弄１９號","OBJECTID":120276},"geometry":{"x":161119.29000000097,"y":2553126.0800000001}},{"attributes":{"ID":120277,"DIS_CODE":0,"TOWNNAME":"安南區","LI":"學東里","LIN":"16鄰","STREET":"城北路","SECT":" ","MAREA":" ","LANE":"８６６巷","ALLEY":"１０５弄","HOUSE_NO":"２１號","E_COORD97":161118.35000000001,"N_COORD97":2553121.3900000001,"ADDRESS":"城北路８６６巷１０５弄２１號","OBJECTID":120277},"geometry":{"x":161118.35000000056,"y":2553121.3900000006}},{"attributes":{"ID":120278,"DIS_CODE":0,"TOWNNAME":"安南區","LI":"學東里","LIN":"16鄰","STREET":"城北路","SECT":" ","MAREA":" ","LANE":"８６６巷","ALLEY":"１０５弄","HOUSE_NO":"２３號","E_COORD97":161117.41,"N_COORD97":2553116.71,"ADDRESS":"城北路８６６巷１０５弄２３號","OBJECTID":120278},"geometry":{"x":161117.41000000015,"y":2553116.7100000046}},{"attributes":{"ID":120279,"DIS_CODE":0,"TOWNNAME":"安南區","LI":"學東里","LIN":"16鄰","STREET":"城北路","SECT":" ","MAREA":" ","LANE":"８６６巷","ALLEY":"１０５弄","HOUSE_NO":"２５號","E_COORD97":161116.23999999999,"N_COORD97":2553113.1899999999,"ADDRESS":"城北路８６６巷１０５弄２５號","OBJECTID":120279},"geometry":{"x":161116.24000000115,"y":2553113.1900000013}},{"attributes":{"ID":120280,"DIS_CODE":0,"TOWNNAME":"安南區","LI":"學東里","LIN":"16鄰","STREET":"城北路","SECT":" ","MAREA":" ","LANE":"８６６巷","ALLEY":"１０５弄","HOUSE_NO":"２７號","E_COORD97":161115.76999999999,"N_COORD97":2553109.21,"ADDRESS":"城北路８６６巷１０５弄２７號","OBJECTID":120280},"geometry":{"x":161115.77000000048,"y":2553109.2100000009}},{"attributes":{"ID":120281,"DIS_CODE":0,"TOWNNAME":"安南區","LI":"學東里","LIN":"16鄰","STREET":"城北路","SECT":" ","MAREA":" ","LANE":"８６６巷","ALLEY":"１０５弄","HOUSE_NO":"２９號","E_COORD97":161114.82999999999,"N_COORD97":2553104.29,"ADDRESS":"城北路８６６巷１０５弄２９號","OBJECTID":120281},"geometry":{"x":161114.83000000007,"y":2553104.2900000028}},{"attributes":{"ID":120282,"DIS_CODE":0,"TOWNNAME":"安南區","LI":"學東里","LIN":"16鄰","STREET":"城北路","SECT":" ","MAREA":" ","LANE":"８６６巷","ALLEY":"１０５弄","HOUSE_NO":"３１號","E_COORD97":161112.72,"N_COORD97":2553091.9900000002,"ADDRESS":"城北路８６６巷１０５弄３１號","OBJECTID":120282},"geometry":{"x":161112.72000000067,"y":2553091.9900000021}},{"attributes":{"ID":120283,"DIS_CODE":0,"TOWNNAME":"安南區","LI":"學東里","LIN":"16鄰","STREET":"城北路","SECT":" ","MAREA":" ","LANE":"８６６巷","ALLEY":"１０５弄","HOUSE_NO":"３３號","E_COORD97":161111.62,"N_COORD97":2553089.0600000001,"ADDRESS":"城北路８６６巷１０５弄３３號","OBJECTID":120283},"geometry":{"x":161111.62000000104,"y":2553089.0600000005}},{"attributes":{"ID":120284,"DIS_CODE":0,"TOWNNAME":"安南區","LI":"學東里","LIN":"16鄰","STREET":"城北路","SECT":" ","MAREA":" ","LANE":"８６６巷","ALLEY":"１０５弄","HOUSE_NO":"３５號","E_COORD97":161111.62,"N_COORD97":2553084.5299999998,"ADDRESS":"城北路８６６巷１０５弄３５號","OBJECTID":120284},"geometry":{"x":161111.62000000104,"y":2553084.5299999993}},{"attributes":{"ID":120285,"DIS_CODE":0,"TOWNNAME":"安南區","LI":"學東里","LIN":"16鄰","STREET":"城北路","SECT":" ","MAREA":" ","LANE":"８６６巷","ALLEY":"１０５弄","HOUSE_NO":"３７號","E_COORD97":161110.70999999999,"N_COORD97":2553080.6099999999,"ADDRESS":"城北路８６６巷１０５弄３７號","OBJECTID":120285},"geometry":{"x":161110.71000000183,"y":2553080.6099999994}},{"attributes":{"ID":120286,"DIS_CODE":0,"TOWNNAME":"安南區","LI":"學東里","LIN":"16鄰","STREET":"城北路","SECT":" ","MAREA":" ","LANE":"８６６巷","ALLEY":"１０５弄","HOUSE_NO":"３９號","E_COORD97":161109.5,"N_COORD97":2553076.3799999999,"ADDRESS":"城北路８６６巷１０５弄３９號","OBJECTID":120286},"geometry":{"x":161109.50000000093,"y":2553076.3800000027}},{"attributes":{"ID":120287,"DIS_CODE":0,"TOWNNAME":"安南區","LI":"學東里","LIN":"16鄰","STREET":"城北路","SECT":" ","MAREA":" ","LANE":"８６６巷","ALLEY":"１０５弄","HOUSE_NO":"４１號","E_COORD97":161108.60000000001,"N_COORD97":2553073.0600000001,"ADDRESS":"城北路８６６巷１０５弄４１號","OBJECTID":120287},"geometry":{"x":161108.59999999963,"y":2553073.0599999987}},{"attributes":{"ID":120288,"DIS_CODE":0,"TOWNNAME":"安南區","LI":"學東里","LIN":"16鄰","STREET":"城北路","SECT":" ","MAREA":" ","LANE":"８６６巷","ALLEY":"１０５弄","HOUSE_NO":"４３號","E_COORD97":161108.29000000001,"N_COORD97":2553068.8300000001,"ADDRESS":"城北路８６６巷１０５弄４３號","OBJECTID":120288},"geometry":{"x":161108.29000000004,"y":2553068.8300000019}},{"attributes":{"ID":120289,"DIS_CODE":0,"TOWNNAME":"安南區","LI":"安順里","LIN":"16鄰","STREET":"總安街","SECT":"一段","MAREA":" ","LANE":"１１０巷","ALLEY":"７１弄","HOUSE_NO":"１０號","E_COORD97":169709.73999999999,"N_COORD97":2550327.0099999998,"ADDRESS":"總安街一段１１０巷７１弄１０號","OBJECTID":120289},"geometry":{"x":169709.74000000022,"y":2550327.0100000016}},{"attributes":{"ID":120290,"DIS_CODE":0,"TOWNNAME":"安南區","LI":"安順里","LIN":"16鄰","STREET":"總安街","SECT":"一段","MAREA":" ","LANE":"１１０巷","ALLEY":"７１弄","HOUSE_NO":"１２號","E_COORD97":169704.98000000001,"N_COORD97":2550327.4500000002,"ADDRESS":"總安街一段１１０巷７１弄１２號","OBJECTID":120290},"geometry":{"x":169704.98000000045,"y":2550327.4500000011}},{"attributes":{"ID":120291,"DIS_CODE":0,"TOWNNAME":"安南區","LI":"安順里","LIN":"16鄰","STREET":"總安街","SECT":"一段","MAREA":" ","LANE":"１１０巷","ALLEY":"７１弄","HOUSE_NO":"１４號","E_COORD97":169701.26000000001,"N_COORD97":2550328.0499999998,"ADDRESS":"總安街一段１１０巷７１弄１４號","OBJECTID":120291},"geometry":{"x":169701.25999999885,"y":2550328.0500000026}},{"attributes":{"ID":120292,"DIS_CODE":0,"TOWNNAME":"安南區","LI":"安順里","LIN":"16鄰","STREET":"總安街","SECT":"一段","MAREA":" ","LANE":"１１０巷","ALLEY":"７１弄","HOUSE_NO":"１６號","E_COORD97":169696.04999999999,"N_COORD97":2550327.75,"ADDRESS":"總安街一段１１０巷７１弄１６號","OBJECTID":120292},"geometry":{"x":169696.05000000168,"y":2550327.75}},{"attributes":{"ID":120293,"DIS_CODE":0,"TOWNNAME":"安南區","LI":"安順里","LIN":"16鄰","STREET":"總安街","SECT":"一段","MAREA":" ","LANE":"１１０巷","ALLEY":"７１弄","HOUSE_NO":"２號","E_COORD97":169726.70000000001,"N_COORD97":2550324.3300000001,"ADDRESS":"總安街一段１１０巷７１弄２號","OBJECTID":120293},"geometry":{"x":169726.70000000112,"y":2550324.3300000001}},{"attributes":{"ID":120294,"DIS_CODE":0,"TOWNNAME":"安南區","LI":"安順里","LIN":"16鄰","STREET":"總安街","SECT":"一段","MAREA":" ","LANE":"１１０巷","ALLEY":"７１弄","HOUSE_NO":"４號","E_COORD97":169722.38,"N_COORD97":2550324.48,"ADDRESS":"總安街一段１１０巷７１弄４號","OBJECTID":120294},"geometry":{"x":169722.37999999989,"y":2550324.4800000023}},{"attributes":{"ID":120295,"DIS_CODE":0,"TOWNNAME":"安南區","LI":"安順里","LIN":"16鄰","STREET":"總安街","SECT":"一段","MAREA":" ","LANE":"１１０巷","ALLEY":"７１弄","HOUSE_NO":"６號","E_COORD97":169718.07000000001,"N_COORD97":2550325.3700000001,"ADDRESS":"總安街一段１１０巷７１弄６號","OBJECTID":120295},"geometry":{"x":169718.0700000003,"y":2550325.3699999992}},{"attributes":{"ID":120296,"DIS_CODE":0,"TOWNNAME":"安南區","LI":"安順里","LIN":"16鄰","STREET":"總安街","SECT":"一段","MAREA":" ","LANE":"１１０巷","ALLEY":"７１弄","HOUSE_NO":"８號","E_COORD97":169713.45999999999,"N_COORD97":2550326.1200000001,"ADDRESS":"總安街一段１１０巷７１弄８號","OBJECTID":120296},"geometry":{"x":169713.45999999996,"y":2550326.120000001}},{"attributes":{"ID":120297,"DIS_CODE":0,"TOWNNAME":"安南區","LI":"安順里","LIN":"16鄰","STREET":"總安街","SECT":"一段","MAREA":" ","LANE":"１１０巷","ALLEY":"８６弄","HOUSE_NO":"１１號","E_COORD97":169794.98999999999,"N_COORD97":2550313.9300000002,"ADDRESS":"總安街一段１１０巷８６弄１１號","OBJECTID":120297},"geometry":{"x":169794.99000000022,"y":2550313.9300000016}},{"attributes":{"ID":120298,"DIS_CODE":0,"TOWNNAME":"安南區","LI":"安順里","LIN":"16鄰","STREET":"總安街","SECT":"一段","MAREA":" ","LANE":"１１０巷","ALLEY":"８６弄","HOUSE_NO":"３號","E_COORD97":169777.59,"N_COORD97":2550315.27,"ADDRESS":"總安街一段１１０巷８６弄３號","OBJECTID":120298},"geometry":{"x":169777.59000000078,"y":2550315.2700000014}},{"attributes":{"ID":120299,"DIS_CODE":0,"TOWNNAME":"安南區","LI":"安順里","LIN":"16鄰","STREET":"總安街","SECT":"一段","MAREA":" ","LANE":"１１０巷","ALLEY":"８６弄","HOUSE_NO":"５號","E_COORD97":169782.20000000001,"N_COORD97":2550315.5699999998,"ADDRESS":"總安街一段１１０巷８６弄５號","OBJECTID":120299},"geometry":{"x":169782.20000000112,"y":2550315.5700000003}},{"attributes":{"ID":120300,"DIS_CODE":0,"TOWNNAME":"安南區","LI":"安順里","LIN":"16鄰","STREET":"總安街","SECT":"一段","MAREA":" ","LANE":"１１０巷","ALLEY":"８６弄","HOUSE_NO":"７號","E_COORD97":169786.22,"N_COORD97":2550314.8199999998,"ADDRESS":"總安街一段１１０巷８６弄７號","OBJECTID":120300},"geometry":{"x":169786.21999999974,"y":2550314.820000004}},{"attributes":{"ID":120301,"DIS_CODE":0,"TOWNNAME":"安南區","LI":"安順里","LIN":"16鄰","STREET":"總安街","SECT":"一段","MAREA":" ","LANE":"１１０巷","ALLEY":"８６弄","HOUSE_NO":"９號","E_COORD97":169790.67999999999,"N_COORD97":2550314.8199999998,"ADDRESS":"總安街一段１１０巷８６弄９號","OBJECTID":120301},"geometry":{"x":169790.68000000063,"y":2550314.820000004}},{"attributes":{"ID":120302,"DIS_CODE":0,"TOWNNAME":"安南區","LI":"安順里","LIN":"16鄰","STREET":"總安街","SECT":"一段","MAREA":" ","LANE":"１１０巷","ALLEY":"９６弄","HOUSE_NO":"１０號","E_COORD97":169796.19,"N_COORD97":2550351.9300000002,"ADDRESS":"總安街一段１１０巷９６弄１０號","OBJECTID":120302},"geometry":{"x":169796.19000000134,"y":2550351.9300000016}},{"attributes":{"ID":120303,"DIS_CODE":0,"TOWNNAME":"關廟區","LI":"田中里","LIN":"9鄰","STREET":"南雄南路","SECT":" ","MAREA":" ","LANE":"６５９巷","ALLEY":" ","HOUSE_NO":"２２號","E_COORD97":183489.44,"N_COORD97":2533477.2999999998,"ADDRESS":"南雄南路６５９巷２２號","OBJECTID":120303},"geometry":{"x":183489.44000000227,"y":2533477.3000000007}},{"attributes":{"ID":120304,"DIS_CODE":0,"TOWNNAME":"安南區","LI":"安順里","LIN":"16鄰","STREET":"總安街","SECT":"一段","MAREA":" ","LANE":"１１０巷","ALLEY":"９６弄","HOUSE_NO":"１１號","E_COORD97":169805.10999999999,"N_COORD97":2550382.1600000001,"ADDRESS":"總安街一段１１０巷９６弄１１號","OBJECTID":120304},"geometry":{"x":169805.11000000127,"y":2550382.1600000001}},{"attributes":{"ID":120305,"DIS_CODE":0,"TOWNNAME":"安南區","LI":"安順里","LIN":"16鄰","STREET":"總安街","SECT":"一段","MAREA":" ","LANE":"１１０巷","ALLEY":"９６弄","HOUSE_NO":"１２號","E_COORD97":169800.5,"N_COORD97":2550350.7400000002,"ADDRESS":"總安街一段１１０巷９６弄１２號","OBJECTID":120305},"geometry":{"x":169800.50000000093,"y":2550350.7400000021}},{"attributes":{"ID":120306,"DIS_CODE":0,"TOWNNAME":"安南區","LI":"安順里","LIN":"16鄰","STREET":"總安街","SECT":"一段","MAREA":" ","LANE":"１１０巷","ALLEY":"９６弄","HOUSE_NO":"１號","E_COORD97":169783.69,"N_COORD97":2550384.3900000001,"ADDRESS":"總安街一段１１０巷９６弄１號","OBJECTID":120306},"geometry":{"x":169783.69000000041,"y":2550384.3900000006}},{"attributes":{"ID":120307,"DIS_CODE":0,"TOWNNAME":"安南區","LI":"安順里","LIN":"16鄰","STREET":"總安街","SECT":"一段","MAREA":" ","LANE":"１１０巷","ALLEY":"９６弄","HOUSE_NO":"２號","E_COORD97":169778.92999999999,"N_COORD97":2550353.1200000001,"ADDRESS":"總安街一段１１０巷９６弄２號","OBJECTID":120307},"geometry":{"x":169778.93000000063,"y":2550353.120000001}},{"attributes":{"ID":120308,"DIS_CODE":0,"TOWNNAME":"安南區","LI":" ","LIN":" ","STREET":"安通路","SECT":"五段","MAREA":" ","LANE":" ","ALLEY":" ","HOUSE_NO":"８１之９３號","E_COORD97":168315.92999999999,"N_COORD97":2547810.3500000001,"ADDRESS":"安通路五段８１之９３號","OBJECTID":120308},"geometry":{"x":168315.93000000063,"y":2547810.3499999996}},{"attributes":{"ID":120309,"DIS_CODE":0,"TOWNNAME":"安南區","LI":" ","LIN":" ","STREET":"安通路","SECT":"五段","MAREA":" ","LANE":" ","ALLEY":" ","HOUSE_NO":"８１之９４號","E_COORD97":168312.44,"N_COORD97":2547810.3500000001,"ADDRESS":"安通路五段８１之９４號","OBJECTID":120309},"geometry":{"x":168312.44000000227,"y":2547810.3499999996}},{"attributes":{"ID":120310,"DIS_CODE":0,"TOWNNAME":"安南區","LI":" ","LIN":" ","STREET":"安通路","SECT":"五段","MAREA":" ","LANE":" ","ALLEY":" ","HOUSE_NO":"８１之９５號","E_COORD97":168308.95000000001,"N_COORD97":2547810.0299999998,"ADDRESS":"安通路五段８１之９５號","OBJECTID":120310},"geometry":{"x":168308.95000000112,"y":2547810.0299999993}},{"attributes":{"ID":120311,"DIS_CODE":0,"TOWNNAME":"安南區","LI":" ","LIN":" ","STREET":"安通路","SECT":"五段","MAREA":" ","LANE":" ","ALLEY":" ","HOUSE_NO":"８１之９６號","E_COORD97":168305.60999999999,"N_COORD97":2547809.71,"ADDRESS":"安通路五段８１之９６號","OBJECTID":120311},"geometry":{"x":168305.61000000034,"y":2547809.7100000009}},{"attributes":{"ID":120312,"DIS_CODE":0,"TOWNNAME":"安南區","LI":" ","LIN":" ","STREET":"安通路","SECT":"五段","MAREA":" ","LANE":" ","ALLEY":" ","HOUSE_NO":"８１之９７號","E_COORD97":168301.79999999999,"N_COORD97":2547809.3999999999,"ADDRESS":"安通路五段８１之９７號","OBJECTID":120312},"geometry":{"x":168301.79999999981,"y":2547809.4000000022}},{"attributes":{"ID":120313,"DIS_CODE":0,"TOWNNAME":"安南區","LI":"安順里","LIN":"16鄰","STREET":"總安街","SECT":"一段","MAREA":" ","LANE":"１１０巷","ALLEY":"９６弄","HOUSE_NO":"３號","E_COORD97":169788,"N_COORD97":2550384.2400000002,"ADDRESS":"總安街一段１１０巷９６弄３號","OBJECTID":120313},"geometry":{"x":169787.99999999907,"y":2550384.2400000021}},{"attributes":{"ID":120314,"DIS_CODE":0,"TOWNNAME":"安南區","LI":"安順里","LIN":"16鄰","STREET":"總安街","SECT":"一段","MAREA":" ","LANE":"１１０巷","ALLEY":"９６弄","HOUSE_NO":"４號","E_COORD97":169783.23999999999,"N_COORD97":2550353.4100000001,"ADDRESS":"總安街一段１１０巷９６弄４號","OBJECTID":120314},"geometry":{"x":169783.23999999929,"y":2550353.4100000001}},{"attributes":{"ID":120315,"DIS_CODE":0,"TOWNNAME":"安南區","LI":"安順里","LIN":"16鄰","STREET":"總安街","SECT":"一段","MAREA":" ","LANE":"１１０巷","ALLEY":"９６弄","HOUSE_NO":"５號","E_COORD97":169792.32000000001,"N_COORD97":2550383.5,"ADDRESS":"總安街一段１１０巷９６弄５號","OBJECTID":120315},"geometry":{"x":169792.3200000003,"y":2550383.5}},{"attributes":{"ID":120316,"DIS_CODE":0,"TOWNNAME":"安南區","LI":"安順里","LIN":"16鄰","STREET":"總安街","SECT":"一段","MAREA":" ","LANE":"１１０巷","ALLEY":"９６弄","HOUSE_NO":"６號","E_COORD97":169787.10999999999,"N_COORD97":2550353.1200000001,"ADDRESS":"總安街一段１１０巷９６弄６號","OBJECTID":120316},"geometry":{"x":169787.11000000034,"y":2550353.120000001}},{"attributes":{"ID":120317,"DIS_CODE":0,"TOWNNAME":"安南區","LI":"安順里","LIN":"16鄰","STREET":"總安街","SECT":"一段","MAREA":" ","LANE":"１１０巷","ALLEY":"９６弄","HOUSE_NO":"７號","E_COORD97":169796.92999999999,"N_COORD97":2550383.2000000002,"ADDRESS":"總安街一段１１０巷９６弄７號","OBJECTID":120317},"geometry":{"x":169796.93000000063,"y":2550383.2000000011}},{"attributes":{"ID":120318,"DIS_CODE":0,"TOWNNAME":"安南區","LI":"安順里","LIN":"16鄰","STREET":"總安街","SECT":"一段","MAREA":" ","LANE":"１１０巷","ALLEY":"９６弄","HOUSE_NO":"８號","E_COORD97":169791.72,"N_COORD97":2550352.52,"ADDRESS":"總安街一段１１０巷９６弄８號","OBJECTID":120318},"geometry":{"x":169791.72000000067,"y":2550352.5199999996}},{"attributes":{"ID":120319,"DIS_CODE":0,"TOWNNAME":"安南區","LI":"安順里","LIN":"16鄰","STREET":"總安街","SECT":"一段","MAREA":" ","LANE":"１１０巷","ALLEY":"９６弄","HOUSE_NO":"９號","E_COORD97":169801.54000000001,"N_COORD97":2550382.9100000001,"ADDRESS":"總安街一段１１０巷９６弄９號","OBJECTID":120319},"geometry":{"x":169801.5400000019,"y":2550382.910000002}},{"attributes":{"ID":120320,"DIS_CODE":0,"TOWNNAME":"安南區","LI":"安順里","LIN":"16鄰","STREET":"總安街","SECT":"一段","MAREA":" ","LANE":"１１０巷","ALLEY":"９７弄","HOUSE_NO":"１０號","E_COORD97":169747.98999999999,"N_COORD97":2550354.8999999999,"ADDRESS":"總安街一段１１０巷９７弄１０號","OBJECTID":120320},"geometry":{"x":169747.99000000115,"y":2550354.8999999985}},{"attributes":{"ID":120321,"DIS_CODE":0,"TOWNNAME":"安南區","LI":"安順里","LIN":"16鄰","STREET":"總安街","SECT":"一段","MAREA":" ","LANE":"１１０巷","ALLEY":"９７弄","HOUSE_NO":"１１號","E_COORD97":169751.70000000001,"N_COORD97":2550387.0699999998,"ADDRESS":"總安街一段１１０巷９７弄１１號","OBJECTID":120321},"geometry":{"x":169751.70000000112,"y":2550387.0700000003}},{"attributes":{"ID":120322,"DIS_CODE":0,"TOWNNAME":"安南區","LI":"安順里","LIN":"16鄰","STREET":"總安街","SECT":"一段","MAREA":" ","LANE":"１１０巷","ALLEY":"９７弄","HOUSE_NO":"１號","E_COORD97":169773.42000000001,"N_COORD97":2550385.8799999999,"ADDRESS":"總安街一段１１０巷９７弄１號","OBJECTID":120322},"geometry":{"x":169773.42000000179,"y":2550385.8800000008}},{"attributes":{"ID":120323,"DIS_CODE":0,"TOWNNAME":"安南區","LI":"安順里","LIN":"16鄰","STREET":"總安街","SECT":"一段","MAREA":" ","LANE":"１１０巷","ALLEY":"９７弄","HOUSE_NO":"２號","E_COORD97":169766.28,"N_COORD97":2550353.79,"ADDRESS":"總安街一段１１０巷９７弄２號","OBJECTID":120323},"geometry":{"x":169766.28000000212,"y":2550353.7899999991}},{"attributes":{"ID":120324,"DIS_CODE":0,"TOWNNAME":"安南區","LI":"安順里","LIN":"16鄰","STREET":"總安街","SECT":"一段","MAREA":" ","LANE":"１１０巷","ALLEY":"９７弄","HOUSE_NO":"３號","E_COORD97":169768.95999999999,"N_COORD97":2550386.6200000001,"ADDRESS":"總安街一段１１０巷９７弄３號","OBJECTID":120324},"geometry":{"x":169768.95999999996,"y":2550386.620000001}},{"attributes":{"ID":120325,"DIS_CODE":0,"TOWNNAME":"安南區","LI":"安順里","LIN":"16鄰","STREET":"總安街","SECT":"一段","MAREA":" ","LANE":"１１０巷","ALLEY":"９７弄","HOUSE_NO":"５號","E_COORD97":169764.79999999999,"N_COORD97":2550386.77,"ADDRESS":"總安街一段１１０巷９７弄５號","OBJECTID":120325},"geometry":{"x":169764.79999999981,"y":2550386.7700000014}},{"attributes":{"ID":120326,"DIS_CODE":0,"TOWNNAME":"安南區","LI":"安順里","LIN":"16鄰","STREET":"總安街","SECT":"一段","MAREA":" ","LANE":"１１０巷","ALLEY":"９７弄","HOUSE_NO":"６號","E_COORD97":169757.35999999999,"N_COORD97":2550355.9399999999,"ADDRESS":"總安街一段１１０巷９７弄６號","OBJECTID":120326},"geometry":{"x":169757.3600000022,"y":2550355.9399999995}},{"attributes":{"ID":120327,"DIS_CODE":0,"TOWNNAME":"安南區","LI":"安順里","LIN":"16鄰","STREET":"總安街","SECT":"一段","MAREA":" ","LANE":"１１０巷","ALLEY":"９７弄","HOUSE_NO":"７號","E_COORD97":169760.48000000001,"N_COORD97":2550386.4700000002,"ADDRESS":"總安街一段１１０巷９７弄７號","OBJECTID":120327},"geometry":{"x":169760.48000000138,"y":2550386.4700000025}},{"attributes":{"ID":120328,"DIS_CODE":0,"TOWNNAME":"安南區","LI":"安順里","LIN":"16鄰","STREET":"總安街","SECT":"一段","MAREA":" ","LANE":"１１０巷","ALLEY":"９７弄","HOUSE_NO":"８號","E_COORD97":169752.89000000001,"N_COORD97":2550354.6000000001,"ADDRESS":"總安街一段１１０巷９７弄８號","OBJECTID":120328},"geometry":{"x":169752.89000000153,"y":2550354.6000000015}},{"attributes":{"ID":120329,"DIS_CODE":0,"TOWNNAME":"安南區","LI":"安順里","LIN":"16鄰","STREET":"總安街","SECT":"一段","MAREA":" ","LANE":"１１０巷","ALLEY":"９７弄","HOUSE_NO":"９號","E_COORD97":169756.91,"N_COORD97":2550386.77,"ADDRESS":"總安街一段１１０巷９７弄９號","OBJECTID":120329},"geometry":{"x":169756.91000000108,"y":2550386.7700000014}},{"attributes":{"ID":120330,"DIS_CODE":0,"TOWNNAME":"安南區","LI":"佃東里","LIN":"16鄰","STREET":"海佃路","SECT":"四段","MAREA":" ","LANE":"３８８巷","ALLEY":"１３４弄","HOUSE_NO":"３２號之３","E_COORD97":165723.82000000001,"N_COORD97":2551761.8799999999,"ADDRESS":"海佃路四段３８８巷１３４弄３２號之３","OBJECTID":120330},"geometry":{"x":165723.8200000003,"y":2551761.8800000008}},{"attributes":{"ID":120331,"DIS_CODE":0,"TOWNNAME":"南區","LI":"同安里","LIN":"16鄰","STREET":"明興路","SECT":" ","MAREA":" ","LANE":"１４２５巷","ALLEY":"１４弄","HOUSE_NO":"１號","E_COORD97":166421.42000000001,"N_COORD97":2535748,"ADDRESS":"明興路１４２５巷１４弄１號","OBJECTID":120331},"geometry":{"x":166421.41999999993,"y":2535748}},{"attributes":{"ID":120332,"DIS_CODE":0,"TOWNNAME":"南區","LI":"同安里","LIN":"16鄰","STREET":"明興路","SECT":" ","MAREA":" ","LANE":"１４２５巷","ALLEY":"１４弄","HOUSE_NO":"３號","E_COORD97":166420.64999999999,"N_COORD97":2535743.8500000001,"ADDRESS":"明興路１４２５巷１４弄３號","OBJECTID":120332},"geometry":{"x":166420.65000000037,"y":2535743.8500000015}},{"attributes":{"ID":120333,"DIS_CODE":0,"TOWNNAME":"南區","LI":"同安里","LIN":"16鄰","STREET":"明興路","SECT":" ","MAREA":" ","LANE":"１４２５巷","ALLEY":"１４弄","HOUSE_NO":"５號","E_COORD97":166419.95000000001,"N_COORD97":2535740.6499999999,"ADDRESS":"明興路１４２５巷１４弄５號","OBJECTID":120333},"geometry":{"x":166419.95000000019,"y":2535740.6500000004}},{"attributes":{"ID":120334,"DIS_CODE":0,"TOWNNAME":"南區","LI":"同安里","LIN":"16鄰","STREET":"明興路","SECT":" ","MAREA":" ","LANE":"１４２５巷","ALLEY":"１４弄","HOUSE_NO":"７號","E_COORD97":166418.91,"N_COORD97":2535735.98,"ADDRESS":"明興路１４２５巷１４弄７號","OBJECTID":120334},"geometry":{"x":166418.91000000201,"y":2535735.9800000023}},{"attributes":{"ID":120335,"DIS_CODE":0,"TOWNNAME":"南區","LI":"同安里","LIN":"16鄰","STREET":"明興路","SECT":" ","MAREA":" ","LANE":"１４２５巷","ALLEY":"１４弄","HOUSE_NO":"９號","E_COORD97":166418.48000000001,"N_COORD97":2535732.6099999999,"ADDRESS":"明興路１４２５巷１４弄９號","OBJECTID":120335},"geometry":{"x":166418.48000000045,"y":2535732.6099999994}},{"attributes":{"ID":120336,"DIS_CODE":0,"TOWNNAME":"南區","LI":"同安里","LIN":"16鄰","STREET":"明興路","SECT":" ","MAREA":" ","LANE":"１４２５巷","ALLEY":"１４弄","HOUSE_NO":"１１號","E_COORD97":166416.92000000001,"N_COORD97":2535729.1600000001,"ADDRESS":"明興路１４２５巷１４弄１１號","OBJECTID":120336},"geometry":{"x":166416.92000000179,"y":2535729.1600000001}},{"attributes":{"ID":120337,"DIS_CODE":0,"TOWNNAME":"南區","LI":"同安里","LIN":"16鄰","STREET":"明興路","SECT":" ","MAREA":" ","LANE":"１４２５巷","ALLEY":"１４弄","HOUSE_NO":"１３號","E_COORD97":166416.23000000001,"N_COORD97":2535723.9700000002,"ADDRESS":"明興路１４２５巷１４弄１３號","OBJECTID":120337},"geometry":{"x":166416.23000000045,"y":2535723.9700000007}},{"attributes":{"ID":120338,"DIS_CODE":0,"TOWNNAME":"永康區","LI":"勝利里","LIN":"16鄰","STREET":"勝利街","SECT":" ","MAREA":" ","LANE":"１０７巷","ALLEY":"６３弄","HOUSE_NO":"５號","E_COORD97":171195.54000000001,"N_COORD97":2544912.25,"ADDRESS":"勝利街１０７巷６３弄５號","OBJECTID":120338},"geometry":{"x":171195.54000000097,"y":2544912.2500000019}},{"attributes":{"ID":120339,"DIS_CODE":0,"TOWNNAME":"南區","LI":"同安里","LIN":"16鄰","STREET":"明興路","SECT":" ","MAREA":" ","LANE":"１４２５巷","ALLEY":"１４弄","HOUSE_NO":"１５號","E_COORD97":166415.45000000001,"N_COORD97":2535719.0600000001,"ADDRESS":"明興路１４２５巷１４弄１５號","OBJECTID":120339},"geometry":{"x":166415.45000000112,"y":2535719.0600000024}},{"attributes":{"ID":120340,"DIS_CODE":0,"TOWNNAME":"南區","LI":"同安里","LIN":"16鄰","STREET":"明興路","SECT":" ","MAREA":" ","LANE":"１４２５巷","ALLEY":"１７弄","HOUSE_NO":"２號","E_COORD97":166419.64000000001,"N_COORD97":2535778.8399999999,"ADDRESS":"明興路１４２５巷１７弄２號","OBJECTID":120340},"geometry":{"x":166419.63999999966,"y":2535778.8399999999}},{"attributes":{"ID":120341,"DIS_CODE":0,"TOWNNAME":"南區","LI":"同安里","LIN":"16鄰","STREET":"明興路","SECT":" ","MAREA":" ","LANE":"１４２５巷","ALLEY":"１７弄","HOUSE_NO":"３號","E_COORD97":166403.89000000001,"N_COORD97":2535787.4900000002,"ADDRESS":"明興路１４２５巷１７弄３號","OBJECTID":120341},"geometry":{"x":166403.8900000006,"y":2535787.4900000021}},{"attributes":{"ID":120342,"DIS_CODE":0,"TOWNNAME":"南區","LI":"同安里","LIN":"16鄰","STREET":"明興路","SECT":" ","MAREA":" ","LANE":"１４２５巷","ALLEY":"１７弄","HOUSE_NO":"４號","E_COORD97":166419.98999999999,"N_COORD97":2535783.77,"ADDRESS":"明興路１４２５巷１７弄４號","OBJECTID":120342},"geometry":{"x":166419.98999999929,"y":2535783.7700000014}},{"attributes":{"ID":120343,"DIS_CODE":0,"TOWNNAME":"南區","LI":"同安里","LIN":"16鄰","STREET":"明興路","SECT":" ","MAREA":" ","LANE":"１４２５巷","ALLEY":"１７弄","HOUSE_NO":"６號","E_COORD97":166418.87,"N_COORD97":2535790.9500000002,"ADDRESS":"明興路１４２５巷１７弄６號","OBJECTID":120343},"geometry":{"x":166418.87000000011,"y":2535790.9499999993}},{"attributes":{"ID":120344,"DIS_CODE":0,"TOWNNAME":"南區","LI":"同安里","LIN":"16鄰","STREET":"明興路","SECT":" ","MAREA":" ","LANE":"１４２５巷","ALLEY":"１７弄","HOUSE_NO":"１號","E_COORD97":166398.35000000001,"N_COORD97":2535783.5099999998,"ADDRESS":"明興路１４２５巷１７弄１號","OBJECTID":120344},"geometry":{"x":166398.35000000149,"y":2535783.5100000016}},{"attributes":{"ID":120345,"DIS_CODE":0,"TOWNNAME":"南區","LI":"府南里","LIN":"16鄰","STREET":"大成路","SECT":"二段","MAREA":" ","LANE":"２２３巷","ALLEY":"１弄","HOUSE_NO":"１０號","E_COORD97":167175.19,"N_COORD97":2541694.1400000001,"ADDRESS":"大成路二段２２３巷１弄１０號","OBJECTID":120345},"geometry":{"x":167175.19000000134,"y":2541694.1400000006}},{"attributes":{"ID":120346,"DIS_CODE":0,"TOWNNAME":"南區","LI":"府南里","LIN":"16鄰","STREET":"大成路","SECT":"二段","MAREA":" ","LANE":"２２３巷","ALLEY":"１弄","HOUSE_NO":"１２號","E_COORD97":167179.29999999999,"N_COORD97":2541692.5,"ADDRESS":"大成路二段２２３巷１弄１２號","OBJECTID":120346},"geometry":{"x":167179.30000000075,"y":2541692.5000000019}},{"attributes":{"ID":120347,"DIS_CODE":0,"TOWNNAME":"南區","LI":"府南里","LIN":"16鄰","STREET":"大成路","SECT":"二段","MAREA":" ","LANE":"２２３巷","ALLEY":"１弄","HOUSE_NO":"１４號","E_COORD97":167184.69,"N_COORD97":2541690.5800000001,"ADDRESS":"大成路二段２２３巷１弄１４號","OBJECTID":120347},"geometry":{"x":167184.69000000041,"y":2541690.5800000001}},{"attributes":{"ID":120348,"DIS_CODE":0,"TOWNNAME":"南區","LI":"府南里","LIN":"16鄰","STREET":"大成路","SECT":"二段","MAREA":" ","LANE":"２２３巷","ALLEY":"１弄","HOUSE_NO":"１５號","E_COORD97":167192.04000000001,"N_COORD97":2541697.6699999999,"ADDRESS":"大成路二段２２３巷１弄１５號","OBJECTID":120348},"geometry":{"x":167192.04000000004,"y":2541697.6700000018}},{"attributes":{"ID":120349,"DIS_CODE":0,"TOWNNAME":"南區","LI":"府南里","LIN":"16鄰","STREET":"大成路","SECT":"二段","MAREA":" ","LANE":"２２３巷","ALLEY":"１弄","HOUSE_NO":"１６號","E_COORD97":167189.01999999999,"N_COORD97":2541689.0899999999,"ADDRESS":"大成路二段２２３巷１弄１６號","OBJECTID":120349},"geometry":{"x":167189.02000000048,"y":2541689.0900000017}},{"attributes":{"ID":120350,"DIS_CODE":0,"TOWNNAME":"後壁區","LI":"福安里","LIN":" ","STREET":" ","SECT":" ","MAREA":"下寮","LANE":" ","ALLEY":" ","HOUSE_NO":"２號","E_COORD97":184297.57999999999,"N_COORD97":2581120.4900000002,"ADDRESS":"下寮２號","OBJECTID":120350},"geometry":{"x":184297.58000000101,"y":2581120.4900000002}},{"attributes":{"ID":120351,"DIS_CODE":0,"TOWNNAME":"永康區","LI":"復國里","LIN":"31鄰","STREET":"復國一路","SECT":" ","MAREA":" ","LANE":" ","ALLEY":" ","HOUSE_NO":"１６３號","E_COORD97":172708.04000000001,"N_COORD97":2545192.0299999998,"ADDRESS":"復國一路１６３號","OBJECTID":120351},"geometry":{"x":172708.04000000004,"y":2545192.0299999993}},{"attributes":{"ID":120352,"DIS_CODE":0,"TOWNNAME":"麻豆區","LI":"大山里","LIN":"1鄰","STREET":" ","SECT":" ","MAREA":"大山\u25A0","LANE":" ","ALLEY":" ","HOUSE_NO":"１０號之９","E_COORD97":170297.26000000001,"N_COORD97":2565850.4500000002,"ADDRESS":"大山\u25A0１０號之９","OBJECTID":120352},"geometry":{"x":170297.25999999978,"y":2565850.4499999993}},{"attributes":{"ID":120353,"DIS_CODE":0,"TOWNNAME":"永康區","LI":"復國里","LIN":"31鄰","STREET":"復國一路","SECT":" ","MAREA":" ","LANE":" ","ALLEY":" ","HOUSE_NO":"１４９號","E_COORD97":172705.44,"N_COORD97":2545147.52,"ADDRESS":"復國一路１４９號","OBJECTID":120353},"geometry":{"x":172705.44000000134,"y":2545147.5200000014}},{"attributes":{"ID":120354,"DIS_CODE":0,"TOWNNAME":"麻豆區","LI":"大山里","LIN":"1鄰","STREET":" ","SECT":" ","MAREA":"大山\u25A0","LANE":" ","ALLEY":" ","HOUSE_NO":"１０號","E_COORD97":170317.23000000001,"N_COORD97":2565878.0899999999,"ADDRESS":"大山\u25A0１０號","OBJECTID":120354},"geometry":{"x":170317.23000000045,"y":2565878.0900000036}},{"attributes":{"ID":120355,"DIS_CODE":0,"TOWNNAME":"永康區","LI":"復國里","LIN":"31鄰","STREET":"復國一路","SECT":" ","MAREA":" ","LANE":" ","ALLEY":" ","HOUSE_NO":"１６７號","E_COORD97":172707.14000000001,"N_COORD97":2545183.2799999998,"ADDRESS":"復國一路１６７號","OBJECTID":120355},"geometry":{"x":172707.13999999966,"y":2545183.2799999993}},{"attributes":{"ID":120356,"DIS_CODE":0,"TOWNNAME":"永康區","LI":"復國里","LIN":"31鄰","STREET":"復國一路","SECT":" ","MAREA":" ","LANE":" ","ALLEY":" ","HOUSE_NO":"１３３號","E_COORD97":172706.04000000001,"N_COORD97":2545110.77,"ADDRESS":"復國一路１３３號","OBJECTID":120356},"geometry":{"x":172706.04000000097,"y":2545110.7700000014}},{"attributes":{"ID":120357,"DIS_CODE":0,"TOWNNAME":"永康區","LI":"復國里","LIN":"31鄰","STREET":"復國一路","SECT":" ","MAREA":" ","LANE":" ","ALLEY":" ","HOUSE_NO":"１４７號","E_COORD97":172707.54999999999,"N_COORD97":2545142.77,"ADDRESS":"復國一路１４７號","OBJECTID":120357},"geometry":{"x":172707.55000000075,"y":2545142.7699999996}},{"attributes":{"ID":120358,"DIS_CODE":0,"TOWNNAME":"永康區","LI":"復國里","LIN":"31鄰","STREET":"復國一路","SECT":" ","MAREA":" ","LANE":" ","ALLEY":" ","HOUSE_NO":"１７１號","E_COORD97":172706.19,"N_COORD97":2545174.5299999998,"ADDRESS":"復國一路１７１號","OBJECTID":120358},"geometry":{"x":172706.19000000041,"y":2545174.5299999993}},{"attributes":{"ID":120359,"DIS_CODE":0,"TOWNNAME":"麻豆區","LI":"大山里","LIN":"1鄰","STREET":" ","SECT":" ","MAREA":"大山\u25A0","LANE":" ","ALLEY":" ","HOUSE_NO":"２號之１","E_COORD97":170162.89000000001,"N_COORD97":2565870,"ADDRESS":"大山\u25A0２號之１","OBJECTID":120359},"geometry":{"x":170162.88999999966,"y":2565870.0000000019}},{"attributes":{"ID":120360,"DIS_CODE":0,"TOWNNAME":"麻豆區","LI":"大山里","LIN":"1鄰","STREET":" ","SECT":" ","MAREA":"大山\u25A0","LANE":" ","ALLEY":" ","HOUSE_NO":"２號之２","E_COORD97":170177.10000000001,"N_COORD97":2565823.79,"ADDRESS":"大山\u25A0２號之２","OBJECTID":120360},"geometry":{"x":170177.10000000056,"y":2565823.7899999991}},{"attributes":{"ID":120361,"DIS_CODE":0,"TOWNNAME":"麻豆區","LI":"大山里","LIN":"1鄰","STREET":" ","SECT":" ","MAREA":"大山\u25A0","LANE":" ","ALLEY":" ","HOUSE_NO":"２號","E_COORD97":170164.38,"N_COORD97":2565842.23,"ADDRESS":"大山\u25A0２號","OBJECTID":120361},"geometry":{"x":170164.37999999989,"y":2565842.2300000004}},{"attributes":{"ID":120362,"DIS_CODE":0,"TOWNNAME":"麻豆區","LI":"大山里","LIN":"1鄰","STREET":" ","SECT":" ","MAREA":"大山\u25A0","LANE":" ","ALLEY":" ","HOUSE_NO":"３號之１","E_COORD97":170164.95999999999,"N_COORD97":2565892.46,"ADDRESS":"大山\u25A0３號之１","OBJECTID":120362},"geometry":{"x":170164.96000000089,"y":2565892.4600000009}},{"attributes":{"ID":120363,"DIS_CODE":0,"TOWNNAME":"麻豆區","LI":"大山里","LIN":"1鄰","STREET":" ","SECT":" ","MAREA":"大山\u25A0","LANE":" ","ALLEY":" ","HOUSE_NO":"３號之５","E_COORD97":170163.09,"N_COORD97":2565910.8399999999,"ADDRESS":"大山\u25A0３號之５","OBJECTID":120363},"geometry":{"x":170163.08999999985,"y":2565910.8400000017}},{"attributes":{"ID":120364,"DIS_CODE":0,"TOWNNAME":"麻豆區","LI":"大山里","LIN":"1鄰","STREET":" ","SECT":" ","MAREA":"大山\u25A0","LANE":" ","ALLEY":" ","HOUSE_NO":"３號之６","E_COORD97":170162.45000000001,"N_COORD97":2565915.98,"ADDRESS":"大山\u25A0３號之６","OBJECTID":120364},"geometry":{"x":170162.45000000112,"y":2565915.9800000004}},{"attributes":{"ID":120365,"DIS_CODE":0,"TOWNNAME":"永康區","LI":"龍潭里","LIN":"31鄰","STREET":"中山北路","SECT":" ","MAREA":" ","LANE":" ","ALLEY":" ","HOUSE_NO":"１８８號","E_COORD97":174347.79999999999,"N_COORD97":2547533.96,"ADDRESS":"中山北路１８８號","OBJECTID":120365},"geometry":{"x":174347.80000000075,"y":2547533.9600000009}},{"attributes":{"ID":120366,"DIS_CODE":0,"TOWNNAME":"麻豆區","LI":"大山里","LIN":"1鄰","STREET":" ","SECT":" ","MAREA":"大山\u25A0","LANE":" ","ALLEY":" ","HOUSE_NO":"３號之９","E_COORD97":170162.07999999999,"N_COORD97":2565927.96,"ADDRESS":"大山\u25A0３號之９","OBJECTID":120366},"geometry":{"x":170162.08000000007,"y":2565927.9600000028}},{"attributes":{"ID":120367,"DIS_CODE":0,"TOWNNAME":"麻豆區","LI":"大山里","LIN":"1鄰","STREET":" ","SECT":" ","MAREA":"大山\u25A0","LANE":" ","ALLEY":" ","HOUSE_NO":"３號","E_COORD97":170162.06,"N_COORD97":2565901.7599999998,"ADDRESS":"大山\u25A0３號","OBJECTID":120367},"geometry":{"x":170162.06000000145,"y":2565901.7600000016}},{"attributes":{"ID":120368,"DIS_CODE":0,"TOWNNAME":"麻豆區","LI":"大山里","LIN":"1鄰","STREET":" ","SECT":" ","MAREA":"大山\u25A0","LANE":" ","ALLEY":" ","HOUSE_NO":"７號","E_COORD97":170234.92999999999,"N_COORD97":2565896.5600000001,"ADDRESS":"大山\u25A0７號","OBJECTID":120368},"geometry":{"x":170234.93000000063,"y":2565896.5600000024}},{"attributes":{"ID":120369,"DIS_CODE":0,"TOWNNAME":"麻豆區","LI":"大山里","LIN":"1鄰","STREET":" ","SECT":" ","MAREA":"大山\u25A0","LANE":" ","ALLEY":" ","HOUSE_NO":"８號之１","E_COORD97":170231.35000000001,"N_COORD97":2565930.5899999999,"ADDRESS":"大山\u25A0８號之１","OBJECTID":120369},"geometry":{"x":170231.35000000056,"y":2565930.5899999999}},{"attributes":{"ID":120370,"DIS_CODE":0,"TOWNNAME":"永康區","LI":"龍潭里","LIN":"31鄰","STREET":"中山北路","SECT":" ","MAREA":" ","LANE":" ","ALLEY":" ","HOUSE_NO":"２１４號","E_COORD97":174419.26999999999,"N_COORD97":2547540.9500000002,"ADDRESS":"中山北路２１４號","OBJECTID":120370},"geometry":{"x":174419.27000000048,"y":2547540.9500000011}},{"attributes":{"ID":120371,"DIS_CODE":0,"TOWNNAME":"永康區","LI":"龍潭里","LIN":"31鄰","STREET":"龍中街","SECT":" ","MAREA":" ","LANE":" ","ALLEY":" ","HOUSE_NO":"２０號","E_COORD97":174387.42999999999,"N_COORD97":2547760.9700000002,"ADDRESS":"龍中街２０號","OBJECTID":120371},"geometry":{"x":174387.43000000156,"y":2547760.9700000007}},{"attributes":{"ID":120372,"DIS_CODE":0,"TOWNNAME":"永康區","LI":"龍潭里","LIN":"31鄰","STREET":"中山北路","SECT":" ","MAREA":" ","LANE":" ","ALLEY":" ","HOUSE_NO":"２０６號","E_COORD97":174370.29000000001,"N_COORD97":2547543.1699999999,"ADDRESS":"中山北路２０６號","OBJECTID":120372},"geometry":{"x":174370.29000000097,"y":2547543.1700000018}},{"attributes":{"ID":120373,"DIS_CODE":0,"TOWNNAME":"南區","LI":"府南里","LIN":"16鄰","STREET":"大成路","SECT":"二段","MAREA":" ","LANE":"２２３巷","ALLEY":"１弄","HOUSE_NO":"１７號","E_COORD97":167196.97,"N_COORD97":2541697.3900000001,"ADDRESS":"大成路二段２２３巷１弄１７號","OBJECTID":120373},"geometry":{"x":167196.96999999974,"y":2541697.3900000025}},{"attributes":{"ID":120374,"DIS_CODE":0,"TOWNNAME":"學甲區","LI":"秀昌里","LIN":"6鄰","STREET":" ","SECT":" ","MAREA":"一秀","LANE":" ","ALLEY":" ","HOUSE_NO":"６９號","E_COORD97":165736.13,"N_COORD97":2570851.3399999999,"ADDRESS":"一秀６９號","OBJECTID":120374},"geometry":{"x":165736.13000000082,"y":2570851.3400000017}},{"attributes":{"ID":120375,"DIS_CODE":0,"TOWNNAME":"永康區","LI":"龍潭里","LIN":"31鄰","STREET":"中山北路","SECT":" ","MAREA":" ","LANE":" ","ALLEY":" ","HOUSE_NO":"２０９號","E_COORD97":174338.10999999999,"N_COORD97":2547562.6899999999,"ADDRESS":"中山北路２０９號","OBJECTID":120375},"geometry":{"x":174338.11000000127,"y":2547562.6900000013}},{"attributes":{"ID":120376,"DIS_CODE":0,"TOWNNAME":"麻豆區","LI":"大山里","LIN":"1鄰","STREET":" ","SECT":" ","MAREA":"大山\u25A0","LANE":" ","ALLEY":" ","HOUSE_NO":"８號","E_COORD97":170241.16,"N_COORD97":2565923.4900000002,"ADDRESS":"大山\u25A0８號","OBJECTID":120376},"geometry":{"x":170241.16000000015,"y":2565923.4900000021}},{"attributes":{"ID":120377,"DIS_CODE":0,"TOWNNAME":"南區","LI":"府南里","LIN":"16鄰","STREET":"大成路","SECT":"二段","MAREA":" ","LANE":"２２３巷","ALLEY":"１弄","HOUSE_NO":"１８號","E_COORD97":167192.76999999999,"N_COORD97":2541688.0800000001,"ADDRESS":"大成路二段２２３巷１弄１８號","OBJECTID":120377},"geometry":{"x":167192.77000000048,"y":2541688.0800000038}},{"attributes":{"ID":120378,"DIS_CODE":0,"TOWNNAME":"麻豆區","LI":"大山里","LIN":"5鄰","STREET":" ","SECT":" ","MAREA":"大山\u25A0","LANE":" ","ALLEY":" ","HOUSE_NO":"５４號","E_COORD97":170196.89999999999,"N_COORD97":2566211.0699999998,"ADDRESS":"大山\u25A0５４號","OBJECTID":120378},"geometry":{"x":170196.90000000037,"y":2566211.0700000022}},{"attributes":{"ID":120379,"DIS_CODE":0,"TOWNNAME":"麻豆區","LI":"大山里","LIN":"5鄰","STREET":" ","SECT":" ","MAREA":"大山\u25A0","LANE":" ","ALLEY":" ","HOUSE_NO":"５５號","E_COORD97":170206.13,"N_COORD97":2566234.4100000001,"ADDRESS":"大山\u25A0５５號","OBJECTID":120379},"geometry":{"x":170206.13000000082,"y":2566234.4100000001}},{"attributes":{"ID":120380,"DIS_CODE":0,"TOWNNAME":"永康區","LI":"龍潭里","LIN":"31鄰","STREET":"中山北路","SECT":" ","MAREA":" ","LANE":" ","ALLEY":" ","HOUSE_NO":"２２８號之４","E_COORD97":174583.01000000001,"N_COORD97":2547603.8500000001,"ADDRESS":"中山北路２２８號之４","OBJECTID":120380},"geometry":{"x":174583.00999999978,"y":2547603.8499999996}},{"attributes":{"ID":120381,"DIS_CODE":0,"TOWNNAME":"南區","LI":"府南里","LIN":"16鄰","STREET":"大成路","SECT":"二段","MAREA":" ","LANE":"２２３巷","ALLEY":"１弄","HOUSE_NO":"１９號","E_COORD97":167201.07999999999,"N_COORD97":2541696.02,"ADDRESS":"大成路二段２２３巷１弄１９號","OBJECTID":120381},"geometry":{"x":167201.08000000101,"y":2541696.0200000014}},{"attributes":{"ID":120382,"DIS_CODE":0,"TOWNNAME":"永康區","LI":"龍潭里","LIN":"31鄰","STREET":"中山北路","SECT":" ","MAREA":" ","LANE":" ","ALLEY":" ","HOUSE_NO":"１９９號","E_COORD97":174317.41,"N_COORD97":2547555.1899999999,"ADDRESS":"中山北路１９９號","OBJECTID":120382},"geometry":{"x":174317.41000000108,"y":2547555.1900000032}},{"attributes":{"ID":120383,"DIS_CODE":0,"TOWNNAME":"南區","LI":"府南里","LIN":"16鄰","STREET":"大成路","SECT":"二段","MAREA":" ","LANE":"２２３巷","ALLEY":"１弄","HOUSE_NO":"１號","E_COORD97":167160.60000000001,"N_COORD97":2541708.3399999999,"ADDRESS":"大成路二段２２３巷１弄１號","OBJECTID":120383},"geometry":{"x":167160.59999999963,"y":2541708.3399999999}},{"attributes":{"ID":120384,"DIS_CODE":0,"TOWNNAME":"南區","LI":"府南里","LIN":"16鄰","STREET":"大成路","SECT":"二段","MAREA":" ","LANE":"２２３巷","ALLEY":"１弄","HOUSE_NO":"２０號","E_COORD97":167196.88,"N_COORD97":2541686.2599999998,"ADDRESS":"大成路二段２２３巷１弄２０號","OBJECTID":120384},"geometry":{"x":167196.88000000175,"y":2541686.2600000035}},{"attributes":{"ID":120385,"DIS_CODE":0,"TOWNNAME":"永康區","LI":"龍潭里","LIN":"31鄰","STREET":"中山北路","SECT":" ","MAREA":" ","LANE":" ","ALLEY":" ","HOUSE_NO":"１９０號","E_COORD97":174373.75,"N_COORD97":2547499.9900000002,"ADDRESS":"中山北路１９０號","OBJECTID":120385},"geometry":{"x":174373.75000000186,"y":2547499.9900000021}},{"attributes":{"ID":120386,"DIS_CODE":0,"TOWNNAME":"麻豆區","LI":"大山里","LIN":"5鄰","STREET":" ","SECT":" ","MAREA":"大山\u25A0","LANE":" ","ALLEY":" ","HOUSE_NO":"５７號","E_COORD97":170181.32999999999,"N_COORD97":2566195.2000000002,"ADDRESS":"大山\u25A0５７號","OBJECTID":120386},"geometry":{"x":170181.33000000101,"y":2566195.200000003}},{"attributes":{"ID":120387,"DIS_CODE":0,"TOWNNAME":"南區","LI":"府南里","LIN":"16鄰","STREET":"大成路","SECT":"二段","MAREA":" ","LANE":"２２３巷","ALLEY":"１弄","HOUSE_NO":"２１號","E_COORD97":167206.38,"N_COORD97":2541694.6499999999,"ADDRESS":"大成路二段２２３巷１弄２１號","OBJECTID":120387},"geometry":{"x":167206.37999999989,"y":2541694.6500000041}},{"attributes":{"ID":120388,"DIS_CODE":0,"TOWNNAME":"南區","LI":"府南里","LIN":"16鄰","STREET":"大成路","SECT":"二段","MAREA":" ","LANE":"２２３巷","ALLEY":"１弄","HOUSE_NO":"２２號","E_COORD97":167201.17000000001,"N_COORD97":2541685.1600000001,"ADDRESS":"大成路二段２２３巷１弄２２號","OBJECTID":120388},"geometry":{"x":167201.16999999993,"y":2541685.160000002}},{"attributes":{"ID":120389,"DIS_CODE":0,"TOWNNAME":"麻豆區","LI":"大山里","LIN":"8鄰","STREET":" ","SECT":" ","MAREA":"大山\u25A0","LANE":" ","ALLEY":" ","HOUSE_NO":"１之１１號","E_COORD97":170387.70000000001,"N_COORD97":2565667.3199999998,"ADDRESS":"大山\u25A0１之１１號","OBJECTID":120389},"geometry":{"x":170387.70000000112,"y":2565667.3200000022}},{"attributes":{"ID":120390,"DIS_CODE":0,"TOWNNAME":"南區","LI":"府南里","LIN":"16鄰","STREET":"大成路","SECT":"二段","MAREA":" ","LANE":"２２３巷","ALLEY":"１弄","HOUSE_NO":"２４號","E_COORD97":167205.47,"N_COORD97":2541683.79,"ADDRESS":"大成路二段２２３巷１弄２４號","OBJECTID":120390},"geometry":{"x":167205.46999999974,"y":2541683.7899999991}},{"attributes":{"ID":120391,"DIS_CODE":0,"TOWNNAME":"南區","LI":"府南里","LIN":"16鄰","STREET":"大成路","SECT":"二段","MAREA":" ","LANE":"２２３巷","ALLEY":"１弄","HOUSE_NO":"２６號","E_COORD97":167209.67000000001,"N_COORD97":2541682.0600000001,"ADDRESS":"大成路二段２２３巷１弄２６號","OBJECTID":120391},"geometry":{"x":167209.66999999993,"y":2541682.0600000024}},{"attributes":{"ID":120392,"DIS_CODE":0,"TOWNNAME":"麻豆區","LI":"大山里","LIN":"8鄰","STREET":" ","SECT":" ","MAREA":"大山\u25A0","LANE":" ","ALLEY":" ","HOUSE_NO":"１號之１２","E_COORD97":170392.60999999999,"N_COORD97":2565667.5099999998,"ADDRESS":"大山\u25A0１號之１２","OBJECTID":120392},"geometry":{"x":170392.61000000034,"y":2565667.5099999998}},{"attributes":{"ID":120393,"DIS_CODE":0,"TOWNNAME":"麻豆區","LI":"大山里","LIN":"8鄰","STREET":" ","SECT":" ","MAREA":"大山\u25A0","LANE":" ","ALLEY":" ","HOUSE_NO":"１號之１３","E_COORD97":170397.14000000001,"N_COORD97":2565667.4500000002,"ADDRESS":"大山\u25A0１號之１３","OBJECTID":120393},"geometry":{"x":170397.14000000153,"y":2565667.4499999993}},{"attributes":{"ID":120394,"DIS_CODE":0,"TOWNNAME":"麻豆區","LI":"大山里","LIN":"8鄰","STREET":" ","SECT":" ","MAREA":"大山\u25A0","LANE":" ","ALLEY":" ","HOUSE_NO":"１之１４號","E_COORD97":170401.67000000001,"N_COORD97":2565667.3199999998,"ADDRESS":"大山\u25A0１之１４號","OBJECTID":120394},"geometry":{"x":170401.66999999993,"y":2565667.3200000022}},{"attributes":{"ID":120395,"DIS_CODE":0,"TOWNNAME":"麻豆區","LI":"大山里","LIN":"8鄰","STREET":" ","SECT":" ","MAREA":"大山\u25A0","LANE":" ","ALLEY":" ","HOUSE_NO":"１號之１４","E_COORD97":170401.67000000001,"N_COORD97":2565667.3199999998,"ADDRESS":"大山\u25A0１號之１４","OBJECTID":120395},"geometry":{"x":170401.66999999993,"y":2565667.3200000022}},{"attributes":{"ID":120396,"DIS_CODE":0,"TOWNNAME":"麻豆區","LI":"大山里","LIN":"8鄰","STREET":" ","SECT":" ","MAREA":"大山\u25A0","LANE":" ","ALLEY":" ","HOUSE_NO":"１號之１６","E_COORD97":170405.28,"N_COORD97":2565667.7200000002,"ADDRESS":"大山\u25A0１號之１６","OBJECTID":120396},"geometry":{"x":170405.28000000212,"y":2565667.7200000044}},{"attributes":{"ID":120397,"DIS_CODE":0,"TOWNNAME":"麻豆區","LI":"大山里","LIN":"8鄰","STREET":" ","SECT":" ","MAREA":"大山\u25A0","LANE":" ","ALLEY":" ","HOUSE_NO":"１號之１９","E_COORD97":170428.97,"N_COORD97":2565670.29,"ADDRESS":"大山\u25A0１號之１９","OBJECTID":120397},"geometry":{"x":170428.9700000016,"y":2565670.290000001}},{"attributes":{"ID":120398,"DIS_CODE":0,"TOWNNAME":"麻豆區","LI":"大山里","LIN":"8鄰","STREET":" ","SECT":" ","MAREA":"大山\u25A0","LANE":" ","ALLEY":" ","HOUSE_NO":"１號之２２","E_COORD97":170441.13,"N_COORD97":2565670.52,"ADDRESS":"大山\u25A0１號之２２","OBJECTID":120398},"geometry":{"x":170441.12999999989,"y":2565670.5199999996}},{"attributes":{"ID":120399,"DIS_CODE":0,"TOWNNAME":"麻豆區","LI":"大山里","LIN":"8鄰","STREET":" ","SECT":" ","MAREA":"大山\u25A0","LANE":" ","ALLEY":" ","HOUSE_NO":"１號之２６","E_COORD97":170451.95999999999,"N_COORD97":2565671.5699999998,"ADDRESS":"大山\u25A0１號之２６","OBJECTID":120399},"geometry":{"x":170451.96000000089,"y":2565671.570000004}},{"attributes":{"ID":120400,"DIS_CODE":0,"TOWNNAME":"南區","LI":"府南里","LIN":"16鄰","STREET":"大成路","SECT":"二段","MAREA":" ","LANE":"２２３巷","ALLEY":"１弄","HOUSE_NO":"２號","E_COORD97":167150.60999999999,"N_COORD97":2541701.6299999999,"ADDRESS":"大成路二段２２３巷１弄２號","OBJECTID":120400},"geometry":{"x":167150.61000000127,"y":2541701.629999999}}]}