{"displayFieldName":"TOWNNAME","fieldAliases":{"ID":"ID","DIS_CODE":"DIS_CODE","TOWNNAME":"TOWNNAME","LI":"LI","LIN":"LIN","STREET":"STREET","SECT":"SECT","MAREA":"MAREA","LANE":"LANE","ALLEY":"ALLEY","HOUSE_NO":"HOUSE_NO","E_COORD97":"E_COORD97","N_COORD97":"N_COORD97","ADDRESS":"ADDRESS","OBJECTID":"OBJECTID"},"geometryType":"esriGeometryPoint","spatialReference":{"wkid":102443,"latestWkid":3826},"fields":[{"name":"ID","type":"esriFieldTypeDouble","alias":"ID"},{"name":"DIS_CODE","type":"esriFieldTypeInteger","alias":"DIS_CODE"},{"name":"TOWNNAME","type":"esriFieldTypeString","alias":"TOWNNAME","length":8},{"name":"LI","type":"esriFieldTypeString","alias":"LI","length":8},{"name":"LIN","type":"esriFieldTypeString","alias":"LIN","length":12},{"name":"STREET","type":"esriFieldTypeString","alias":"STREET","length":20},{"name":"SECT","type":"esriFieldTypeString","alias":"SECT","length":8},{"name":"MAREA","type":"esriFieldTypeString","alias":"MAREA","length":12},{"name":"LANE","type":"esriFieldTypeString","alias":"LANE","length":10},{"name":"ALLEY","type":"esriFieldTypeString","alias":"ALLEY","length":10},{"name":"HOUSE_NO","type":"esriFieldTypeString","alias":"HOUSE_NO","length":20},{"name":"E_COORD97","type":"esriFieldTypeDouble","alias":"E_COORD97"},{"name":"N_COORD97","type":"esriFieldTypeDouble","alias":"N_COORD97"},{"name":"ADDRESS","type":"esriFieldTypeString","alias":"ADDRESS","length":50},{"name":"OBJECTID","type":"esriFieldTypeOID","alias":"OBJECTID"}],"features":[{"attributes":{"ID":345010,"DIS_CODE":0,"TOWNNAME":"西港區","LI":"後營里","LIN":"5鄰","STREET":" ","SECT":" ","MAREA":"後營","LANE":" ","ALLEY":" ","HOUSE_NO":"１８８號之３","E_COORD97":169916.53,"N_COORD97":2560301.23,"ADDRESS":"後營１８８號之３","OBJECTID":345001},"geometry":{"x":169916.53000000026,"y":2560301.2300000023}},{"attributes":{"ID":345011,"DIS_CODE":0,"TOWNNAME":"新市區","LI":"大社里","LIN":"5鄰","STREET":" ","SECT":" ","MAREA":"大社","LANE":" ","ALLEY":" ","HOUSE_NO":"２２３之１０號","E_COORD97":180128.85000000001,"N_COORD97":2554399.7999999998,"ADDRESS":"大社２２３之１０號","OBJECTID":345002},"geometry":{"x":180128.84999999963,"y":2554399.8000000007}},{"attributes":{"ID":345012,"DIS_CODE":0,"TOWNNAME":"新市區","LI":"大社里","LIN":"5鄰","STREET":" ","SECT":" ","MAREA":"大社","LANE":" ","ALLEY":" ","HOUSE_NO":"２３７號","E_COORD97":180195.87,"N_COORD97":2554434,"ADDRESS":"大社２３７號","OBJECTID":345003},"geometry":{"x":180195.87000000197,"y":2554434.0000000019}},{"attributes":{"ID":345013,"DIS_CODE":0,"TOWNNAME":"新市區","LI":"大社里","LIN":"5鄰","STREET":" ","SECT":" ","MAREA":"大社","LANE":" ","ALLEY":" ","HOUSE_NO":"２２３之６號","E_COORD97":180116.85000000001,"N_COORD97":2554385.5499999998,"ADDRESS":"大社２２３之６號","OBJECTID":345004},"geometry":{"x":180116.84999999963,"y":2554385.5499999989}},{"attributes":{"ID":345014,"DIS_CODE":0,"TOWNNAME":"新市區","LI":"大社里","LIN":"5鄰","STREET":" ","SECT":" ","MAREA":"大社","LANE":" ","ALLEY":" ","HOUSE_NO":"２４６號","E_COORD97":180160.76000000001,"N_COORD97":2554460.25,"ADDRESS":"大社２４６號","OBJECTID":345005},"geometry":{"x":180160.76000000164,"y":2554460.25}},{"attributes":{"ID":345015,"DIS_CODE":0,"TOWNNAME":"新市區","LI":"大營里","LIN":"5鄰","STREET":" ","SECT":" ","MAREA":"大營","LANE":" ","ALLEY":" ","HOUSE_NO":"７８之２１號","E_COORD97":179659.95000000001,"N_COORD97":2555488.5499999998,"ADDRESS":"大營７８之２１號","OBJECTID":345006},"geometry":{"x":179659.95000000112,"y":2555488.5500000026}},{"attributes":{"ID":345016,"DIS_CODE":0,"TOWNNAME":"新市區","LI":"大營里","LIN":"5鄰","STREET":" ","SECT":" ","MAREA":"大營","LANE":" ","ALLEY":" ","HOUSE_NO":"７６之７號","E_COORD97":179540.04000000001,"N_COORD97":2555483.5499999998,"ADDRESS":"大營７６之７號","OBJECTID":345007},"geometry":{"x":179540.04000000004,"y":2555483.5500000007}},{"attributes":{"ID":345017,"DIS_CODE":0,"TOWNNAME":"新市區","LI":"大營里","LIN":"5鄰","STREET":" ","SECT":" ","MAREA":"大營","LANE":" ","ALLEY":" ","HOUSE_NO":"７８之３４號","E_COORD97":179655.79000000001,"N_COORD97":2555444.2999999998,"ADDRESS":"大營７８之３４號","OBJECTID":345008},"geometry":{"x":179655.79000000097,"y":2555444.3000000007}},{"attributes":{"ID":345018,"DIS_CODE":0,"TOWNNAME":"歸仁區","LI":"後市里","LIN":"31鄰","STREET":"民族北街","SECT":" ","MAREA":" ","LANE":"３１巷","ALLEY":" ","HOUSE_NO":"２號","E_COORD97":177404.92999999999,"N_COORD97":2540927.75,"ADDRESS":"民族北街３１巷２號","OBJECTID":345009},"geometry":{"x":177404.93000000063,"y":2540927.7500000019}},{"attributes":{"ID":345019,"DIS_CODE":0,"TOWNNAME":"新市區","LI":"豐華里","LIN":"5鄰","STREET":" ","SECT":" ","MAREA":"豐華","LANE":" ","ALLEY":" ","HOUSE_NO":"３６之３號","E_COORD97":173754.42000000001,"N_COORD97":2554343.2999999998,"ADDRESS":"豐華３６之３號","OBJECTID":345010},"geometry":{"x":173754.42000000086,"y":2554343.3000000045}},{"attributes":{"ID":345020,"DIS_CODE":0,"TOWNNAME":"新市區","LI":"社內里","LIN":"5鄰","STREET":" ","SECT":" ","MAREA":"社內","LANE":" ","ALLEY":" ","HOUSE_NO":"５７之１號","E_COORD97":176674.35999999999,"N_COORD97":2552556.0499999998,"ADDRESS":"社內５７之１號","OBJECTID":345011},"geometry":{"x":176674.36000000127,"y":2552556.0500000026}},{"attributes":{"ID":345021,"DIS_CODE":0,"TOWNNAME":"歸仁區","LI":"六甲里","LIN":"31鄰","STREET":"民生十二街","SECT":" ","MAREA":" ","LANE":"１５５巷","ALLEY":" ","HOUSE_NO":"７號","E_COORD97":175675.50102,"N_COORD97":2539428.0065899999,"ADDRESS":"民生十二街１５５巷７號","OBJECTID":345012},"geometry":{"x":175675.50102000032,"y":2539428.0065940004}},{"attributes":{"ID":345022,"DIS_CODE":0,"TOWNNAME":"新市區","LI":"社內里","LIN":"5鄰","STREET":" ","SECT":" ","MAREA":"社內","LANE":" ","ALLEY":" ","HOUSE_NO":"５５號","E_COORD97":176597.28,"N_COORD97":2552533.75,"ADDRESS":"社內５５號","OBJECTID":345013},"geometry":{"x":176597.28000000026,"y":2552533.7500000019}},{"attributes":{"ID":345023,"DIS_CODE":0,"TOWNNAME":"新市區","LI":"社內里","LIN":"5鄰","STREET":" ","SECT":" ","MAREA":"社內","LANE":" ","ALLEY":" ","HOUSE_NO":"５４號","E_COORD97":176618.26000000001,"N_COORD97":2552599.5,"ADDRESS":"社內５４號","OBJECTID":345014},"geometry":{"x":176618.26000000071,"y":2552599.5000000019}},{"attributes":{"ID":345024,"DIS_CODE":0,"TOWNNAME":"歸仁區","LI":"六甲里","LIN":"31鄰","STREET":"民生十二街","SECT":" ","MAREA":" ","LANE":"１５５巷","ALLEY":" ","HOUSE_NO":"１７號","E_COORD97":175673.41,"N_COORD97":2539401,"ADDRESS":"民生十二街１５５巷１７號","OBJECTID":345015},"geometry":{"x":175673.41000000108,"y":2539401.0000000019}},{"attributes":{"ID":345025,"DIS_CODE":0,"TOWNNAME":"歸仁區","LI":"六甲里","LIN":"31鄰","STREET":"民生十二街","SECT":" ","MAREA":" ","LANE":"１５５巷","ALLEY":" ","HOUSE_NO":"１０號","E_COORD97":175661.83557200001,"N_COORD97":2539429.6999300001,"ADDRESS":"民生十二街１５５巷１０號","OBJECTID":345016},"geometry":{"x":175661.83557199966,"y":2539429.699926002}},{"attributes":{"ID":345026,"DIS_CODE":0,"TOWNNAME":"新市區","LI":"社內里","LIN":"5鄰","STREET":" ","SECT":" ","MAREA":"社內","LANE":" ","ALLEY":" ","HOUSE_NO":"５３之３號","E_COORD97":176559.12,"N_COORD97":2552637.5499999998,"ADDRESS":"社內５３之３號","OBJECTID":345017},"geometry":{"x":176559.12000000011,"y":2552637.5500000026}},{"attributes":{"ID":345027,"DIS_CODE":0,"TOWNNAME":"歸仁區","LI":"六甲里","LIN":"31鄰","STREET":"民生十二街","SECT":" ","MAREA":" ","LANE":"１５５巷","ALLEY":" ","HOUSE_NO":"１５號","E_COORD97":175674.865418,"N_COORD97":2539406.7341,"ADDRESS":"民生十二街１５５巷１５號","OBJECTID":345018},"geometry":{"x":175674.86541800015,"y":2539406.7341050021}},{"attributes":{"ID":345028,"DIS_CODE":0,"TOWNNAME":"歸仁區","LI":"六甲里","LIN":"31鄰","STREET":"民生十二街","SECT":" ","MAREA":" ","LANE":"１５５巷","ALLEY":" ","HOUSE_NO":"３０號","E_COORD97":175654.102411,"N_COORD97":2539377.1007900001,"ADDRESS":"民生十二街１５５巷３０號","OBJECTID":345019},"geometry":{"x":175654.10241100006,"y":2539377.1007880028}},{"attributes":{"ID":345029,"DIS_CODE":0,"TOWNNAME":"歸仁區","LI":"六甲里","LIN":"31鄰","STREET":"民生十二街","SECT":" ","MAREA":" ","LANE":"１５５巷","ALLEY":" ","HOUSE_NO":"２４號","E_COORD97":175655.585483,"N_COORD97":2539393.0816100002,"ADDRESS":"民生十二街１５５巷２４號","OBJECTID":345020},"geometry":{"x":175655.58548300061,"y":2539393.0816120021}},{"attributes":{"ID":345030,"DIS_CODE":0,"TOWNNAME":"歸仁區","LI":"六甲里","LIN":"31鄰","STREET":"民生十二街","SECT":" ","MAREA":" ","LANE":"１５５巷","ALLEY":" ","HOUSE_NO":"１６號","E_COORD97":175660.35250000001,"N_COORD97":2539413.93077,"ADDRESS":"民生十二街１５５巷１６號","OBJECTID":345021},"geometry":{"x":175660.35249999911,"y":2539413.9307680018}},{"attributes":{"ID":345031,"DIS_CODE":0,"TOWNNAME":"歸仁區","LI":"六甲里","LIN":"31鄰","STREET":"民生十二街","SECT":" ","MAREA":" ","LANE":"１５５巷","ALLEY":" ","HOUSE_NO":"１３號","E_COORD97":175675.51000000001,"N_COORD97":2539411,"ADDRESS":"民生十二街１５５巷１３號","OBJECTID":345022},"geometry":{"x":175675.51000000071,"y":2539411.0000000019}},{"attributes":{"ID":345032,"DIS_CODE":0,"TOWNNAME":"歸仁區","LI":"六甲里","LIN":"31鄰","STREET":"民生十二街","SECT":" ","MAREA":" ","LANE":"１５５巷","ALLEY":" ","HOUSE_NO":"３號","E_COORD97":175676.45999999999,"N_COORD97":2539438,"ADDRESS":"民生十二街１５５巷３號","OBJECTID":345023},"geometry":{"x":175676.46000000089,"y":2539438.0000000019}},{"attributes":{"ID":345033,"DIS_CODE":0,"TOWNNAME":"歸仁區","LI":"六甲里","LIN":"31鄰","STREET":"民生十二街","SECT":" ","MAREA":" ","LANE":"１５５巷","ALLEY":" ","HOUSE_NO":"１２號","E_COORD97":175661.41183699999,"N_COORD97":2539424.3024300002,"ADDRESS":"民生十二街１５５巷１２號","OBJECTID":345024},"geometry":{"x":175661.4118370004,"y":2539424.3024290018}},{"attributes":{"ID":345034,"DIS_CODE":0,"TOWNNAME":"新營區","LI":"民榮里","LIN":"31鄰","STREET":"太子路","SECT":" ","MAREA":" ","LANE":"３３巷","ALLEY":" ","HOUSE_NO":"２之１號","E_COORD97":178392.92000000001,"N_COORD97":2578085.4199999999,"ADDRESS":"太子路３３巷２之１號","OBJECTID":345025},"geometry":{"x":178392.91999999993,"y":2578085.4200000018}},{"attributes":{"ID":345035,"DIS_CODE":0,"TOWNNAME":"新營區","LI":"民榮里","LIN":"31鄰","STREET":"太子路","SECT":" ","MAREA":" ","LANE":"５３巷","ALLEY":" ","HOUSE_NO":"２９號","E_COORD97":178366.47,"N_COORD97":2577951.4900000002,"ADDRESS":"太子路５３巷２９號","OBJECTID":345026},"geometry":{"x":178366.47000000067,"y":2577951.4900000002}},{"attributes":{"ID":345036,"DIS_CODE":0,"TOWNNAME":"新營區","LI":"忠政里","LIN":"31鄰","STREET":"府西路","SECT":" ","MAREA":" ","LANE":"６３巷","ALLEY":" ","HOUSE_NO":"１４號","E_COORD97":179761.94,"N_COORD97":2579094.3399999999,"ADDRESS":"府西路６３巷１４號","OBJECTID":345027},"geometry":{"x":179761.94000000134,"y":2579094.3399999999}},{"attributes":{"ID":345037,"DIS_CODE":0,"TOWNNAME":"新營區","LI":"忠政里","LIN":"31鄰","STREET":"府西路","SECT":" ","MAREA":" ","LANE":"４７巷","ALLEY":" ","HOUSE_NO":"１０號","E_COORD97":179775.069594,"N_COORD97":2579036.3337699999,"ADDRESS":"府西路４７巷１０號","OBJECTID":345028},"geometry":{"x":179775.0695940014,"y":2579036.3337720037}},{"attributes":{"ID":345038,"DIS_CODE":0,"TOWNNAME":"新營區","LI":"忠政里","LIN":"31鄰","STREET":"府西路","SECT":" ","MAREA":" ","LANE":"７７巷","ALLEY":" ","HOUSE_NO":"２３號","E_COORD97":179730.53,"N_COORD97":2579141.0099999998,"ADDRESS":"府西路７７巷２３號","OBJECTID":345029},"geometry":{"x":179730.53000000212,"y":2579141.0099999998}},{"attributes":{"ID":345039,"DIS_CODE":0,"TOWNNAME":"北區","LI":"和順里","LIN":"31鄰","STREET":"臨安路","SECT":"二段","MAREA":" ","LANE":"１６９巷","ALLEY":" ","HOUSE_NO":"２２號","E_COORD97":167852.14000000001,"N_COORD97":2544966.2200000002,"ADDRESS":"臨安路二段１６９巷２２號","OBJECTID":345030},"geometry":{"x":167852.13999999966,"y":2544966.2200000044}},{"attributes":{"ID":345040,"DIS_CODE":0,"TOWNNAME":"北區","LI":"和順里","LIN":"31鄰","STREET":"臨安路","SECT":"二段","MAREA":" ","LANE":"１６９巷","ALLEY":" ","HOUSE_NO":"２３號","E_COORD97":167825.07999999999,"N_COORD97":2544961.29,"ADDRESS":"臨安路二段１６９巷２３號","OBJECTID":345031},"geometry":{"x":167825.08000000101,"y":2544961.290000001}},{"attributes":{"ID":345041,"DIS_CODE":0,"TOWNNAME":"北區","LI":"和順里","LIN":"31鄰","STREET":"臨安路","SECT":"二段","MAREA":" ","LANE":"１６９巷","ALLEY":" ","HOUSE_NO":"２４號","E_COORD97":167852.17999999999,"N_COORD97":2544969.9300000002,"ADDRESS":"臨安路二段１６９巷２４號","OBJECTID":345032},"geometry":{"x":167852.1799999997,"y":2544969.9299999997}},{"attributes":{"ID":345042,"DIS_CODE":0,"TOWNNAME":"北區","LI":"和順里","LIN":"31鄰","STREET":"臨安路","SECT":"二段","MAREA":" ","LANE":"１６９巷","ALLEY":" ","HOUSE_NO":"２５號","E_COORD97":167824.64000000001,"N_COORD97":2544965.3599999999,"ADDRESS":"臨安路二段１６９巷２５號","OBJECTID":345033},"geometry":{"x":167824.6400000006,"y":2544965.3600000013}},{"attributes":{"ID":345043,"DIS_CODE":0,"TOWNNAME":"北區","LI":"和順里","LIN":"31鄰","STREET":"臨安路","SECT":"二段","MAREA":" ","LANE":"１６９巷","ALLEY":" ","HOUSE_NO":"２６號","E_COORD97":167851.82999999999,"N_COORD97":2544973.8999999999,"ADDRESS":"臨安路二段１６９巷２６號","OBJECTID":345034},"geometry":{"x":167851.83000000194,"y":2544973.9000000004}},{"attributes":{"ID":345044,"DIS_CODE":0,"TOWNNAME":"北區","LI":"和順里","LIN":"31鄰","STREET":"臨安路","SECT":"二段","MAREA":" ","LANE":"１６９巷","ALLEY":" ","HOUSE_NO":"２７號","E_COORD97":167824.64000000001,"N_COORD97":2544969.4300000002,"ADDRESS":"臨安路二段１６９巷２７號","OBJECTID":345035},"geometry":{"x":167824.6400000006,"y":2544969.4299999997}},{"attributes":{"ID":345045,"DIS_CODE":0,"TOWNNAME":"北區","LI":"和順里","LIN":"31鄰","STREET":"臨安路","SECT":"二段","MAREA":" ","LANE":"１６９巷","ALLEY":" ","HOUSE_NO":"２８號","E_COORD97":167851.66,"N_COORD97":2544978.8999999999,"ADDRESS":"臨安路二段１６９巷２８號","OBJECTID":345036},"geometry":{"x":167851.66000000108,"y":2544978.9000000022}},{"attributes":{"ID":345046,"DIS_CODE":0,"TOWNNAME":"北區","LI":"和順里","LIN":"31鄰","STREET":"臨安路","SECT":"二段","MAREA":" ","LANE":"１６９巷","ALLEY":" ","HOUSE_NO":"２號","E_COORD97":167850.51999999999,"N_COORD97":2544917.5600000001,"ADDRESS":"臨安路二段１６９巷２號","OBJECTID":345037},"geometry":{"x":167850.52000000048,"y":2544917.5600000024}},{"attributes":{"ID":345047,"DIS_CODE":0,"TOWNNAME":"北區","LI":"和順里","LIN":"31鄰","STREET":"臨安路","SECT":"二段","MAREA":" ","LANE":"１６９巷","ALLEY":" ","HOUSE_NO":"３０號","E_COORD97":167851.32000000001,"N_COORD97":2544982.8700000001,"ADDRESS":"臨安路二段１６９巷３０號","OBJECTID":345038},"geometry":{"x":167851.3200000003,"y":2544982.8700000029}},{"attributes":{"ID":345048,"DIS_CODE":0,"TOWNNAME":"北區","LI":"和順里","LIN":"31鄰","STREET":"臨安路","SECT":"二段","MAREA":" ","LANE":"１６９巷","ALLEY":" ","HOUSE_NO":"３１號","E_COORD97":167825.02015900001,"N_COORD97":2544979.6946999999,"ADDRESS":"臨安路二段１６９巷３１號","OBJECTID":345039},"geometry":{"x":167825.0201589996,"y":2544979.6947010029}},{"attributes":{"ID":345049,"DIS_CODE":0,"TOWNNAME":"北區","LI":"和順里","LIN":"31鄰","STREET":"臨安路","SECT":"二段","MAREA":" ","LANE":"１６９巷","ALLEY":" ","HOUSE_NO":"３２號","E_COORD97":167851.14000000001,"N_COORD97":2544987.1800000002,"ADDRESS":"臨安路二段１６９巷３２號","OBJECTID":345040},"geometry":{"x":167851.1400000006,"y":2544987.1800000016}},{"attributes":{"ID":345050,"DIS_CODE":0,"TOWNNAME":"北區","LI":"和順里","LIN":"31鄰","STREET":"臨安路","SECT":"二段","MAREA":" ","LANE":"１６９巷","ALLEY":" ","HOUSE_NO":"４號","E_COORD97":167860.22,"N_COORD97":2544943.52,"ADDRESS":"臨安路二段１６９巷４號","OBJECTID":345041},"geometry":{"x":167860.21999999974,"y":2544943.5200000014}},{"attributes":{"ID":345051,"DIS_CODE":0,"TOWNNAME":"北區","LI":"和順里","LIN":"31鄰","STREET":"臨安路","SECT":"二段","MAREA":" ","LANE":"１６９巷","ALLEY":" ","HOUSE_NO":"１號","E_COORD97":167826.73999999999,"N_COORD97":2544915.6899999999,"ADDRESS":"臨安路二段１６９巷１號","OBJECTID":345042},"geometry":{"x":167826.74000000022,"y":2544915.6900000013}},{"attributes":{"ID":345052,"DIS_CODE":0,"TOWNNAME":"北區","LI":"和順里","LIN":"31鄰","STREET":"臨安路","SECT":"二段","MAREA":" ","LANE":"１６９巷","ALLEY":" ","HOUSE_NO":"３號","E_COORD97":167826.51000000001,"N_COORD97":2544919.8700000001,"ADDRESS":"臨安路二段１６９巷３號","OBJECTID":345043},"geometry":{"x":167826.51000000164,"y":2544919.870000001}},{"attributes":{"ID":345053,"DIS_CODE":0,"TOWNNAME":"仁德區","LI":"後壁里","LIN":"31鄰","STREET":"德洋路","SECT":" ","MAREA":" ","LANE":"１８０巷","ALLEY":" ","HOUSE_NO":"８號三樓之６","E_COORD97":172561.54999999999,"N_COORD97":2539457.04,"ADDRESS":"德洋路１８０巷８號三樓之６","OBJECTID":345044},"geometry":{"x":172561.55000000075,"y":2539457.040000001}},{"attributes":{"ID":345054,"DIS_CODE":0,"TOWNNAME":"仁德區","LI":"新田里","LIN":"10鄰","STREET":"北保路","SECT":" ","MAREA":" ","LANE":"９５巷","ALLEY":" ","HOUSE_NO":"５號","E_COORD97":173250.76000000001,"N_COORD97":2539553.9900000002,"ADDRESS":"北保路９５巷５號","OBJECTID":345045},"geometry":{"x":173250.75999999978,"y":2539553.9900000021}},{"attributes":{"ID":345055,"DIS_CODE":0,"TOWNNAME":"仁德區","LI":"後壁里","LIN":"31鄰","STREET":"德洋路","SECT":" ","MAREA":" ","LANE":"１８０巷","ALLEY":" ","HOUSE_NO":"８號六樓之３","E_COORD97":172561.54000000001,"N_COORD97":2539457.04,"ADDRESS":"德洋路１８０巷８號六樓之３","OBJECTID":345046},"geometry":{"x":172561.54000000097,"y":2539457.040000001}},{"attributes":{"ID":345056,"DIS_CODE":0,"TOWNNAME":"仁德區","LI":"後壁里","LIN":"31鄰","STREET":"德洋路","SECT":" ","MAREA":" ","LANE":"１８０巷","ALLEY":" ","HOUSE_NO":"８號二樓之１","E_COORD97":172561.44,"N_COORD97":2539457.04,"ADDRESS":"德洋路１８０巷８號二樓之１","OBJECTID":345047},"geometry":{"x":172561.44000000134,"y":2539457.040000001}},{"attributes":{"ID":345057,"DIS_CODE":0,"TOWNNAME":"仁德區","LI":"後壁里","LIN":"31鄰","STREET":"德洋路","SECT":" ","MAREA":" ","LANE":"１８０巷","ALLEY":" ","HOUSE_NO":"２８號四樓之１","E_COORD97":172588.32000000001,"N_COORD97":2539547.54,"ADDRESS":"德洋路１８０巷２８號四樓之１","OBJECTID":345048},"geometry":{"x":172588.31999999937,"y":2539547.5399999972}},{"attributes":{"ID":345058,"DIS_CODE":0,"TOWNNAME":"仁德區","LI":"後壁里","LIN":"31鄰","STREET":"德洋路","SECT":" ","MAREA":" ","LANE":"１８０巷","ALLEY":" ","HOUSE_NO":"８號二樓之６","E_COORD97":172561.54999999999,"N_COORD97":2539457.04,"ADDRESS":"德洋路１８０巷８號二樓之６","OBJECTID":345049},"geometry":{"x":172561.55000000075,"y":2539457.040000001}},{"attributes":{"ID":345059,"DIS_CODE":0,"TOWNNAME":"中西區","LI":"仙草里","LIN":"5鄰","STREET":"五妃街","SECT":" ","MAREA":" ","LANE":"２８０巷","ALLEY":" ","HOUSE_NO":"２１號","E_COORD97":167886.51000000001,"N_COORD97":2542653.2000000002,"ADDRESS":"五妃街２８０巷２１號","OBJECTID":345050},"geometry":{"x":167886.51000000071,"y":2542653.2000000011}},{"attributes":{"ID":345060,"DIS_CODE":0,"TOWNNAME":"中西區","LI":"仙草里","LIN":"5鄰","STREET":"五妃街","SECT":" ","MAREA":" ","LANE":"２８０巷","ALLEY":" ","HOUSE_NO":"７號","E_COORD97":167886.91,"N_COORD97":2542625.7999999998,"ADDRESS":"五妃街２８０巷７號","OBJECTID":345051},"geometry":{"x":167886.91000000201,"y":2542625.8000000007}},{"attributes":{"ID":345061,"DIS_CODE":0,"TOWNNAME":"中西區","LI":"仙草里","LIN":"5鄰","STREET":"五妃街","SECT":" ","MAREA":" ","LANE":"２８０巷","ALLEY":" ","HOUSE_NO":"９號","E_COORD97":167887.31,"N_COORD97":2542629.71,"ADDRESS":"五妃街２８０巷９號","OBJECTID":345052},"geometry":{"x":167887.31000000052,"y":2542629.7100000009}},{"attributes":{"ID":345062,"DIS_CODE":0,"TOWNNAME":"中西區","LI":"仙草里","LIN":"5鄰","STREET":"五妃街","SECT":" ","MAREA":" ","LANE":"３２２巷","ALLEY":" ","HOUSE_NO":"３３號","E_COORD97":167871.22,"N_COORD97":2542631.6899999999,"ADDRESS":"五妃街３２２巷３３號","OBJECTID":345053},"geometry":{"x":167871.22000000067,"y":2542631.6899999995}},{"attributes":{"ID":345063,"DIS_CODE":0,"TOWNNAME":"中西區","LI":"仙草里","LIN":"5鄰","STREET":"五妃街","SECT":" ","MAREA":" ","LANE":"３２２巷","ALLEY":" ","HOUSE_NO":"３５號","E_COORD97":167876.97,"N_COORD97":2542629.71,"ADDRESS":"五妃街３２２巷３５號","OBJECTID":345054},"geometry":{"x":167876.96999999974,"y":2542629.7100000009}},{"attributes":{"ID":345064,"DIS_CODE":0,"TOWNNAME":"中西區","LI":"小西里","LIN":"5鄰","STREET":"府前路","SECT":"一段","MAREA":" ","LANE":"３７１巷","ALLEY":" ","HOUSE_NO":"３１號","E_COORD97":167869.20999999999,"N_COORD97":2543289.7400000002,"ADDRESS":"府前路一段３７１巷３１號","OBJECTID":345055},"geometry":{"x":167869.20999999996,"y":2543289.7400000002}},{"attributes":{"ID":345065,"DIS_CODE":0,"TOWNNAME":"中西區","LI":"小西里","LIN":"5鄰","STREET":"府前路","SECT":"一段","MAREA":" ","LANE":"３７１巷","ALLEY":" ","HOUSE_NO":"２１號","E_COORD97":167871.78,"N_COORD97":2543319.5600000001,"ADDRESS":"府前路一段３７１巷２１號","OBJECTID":345056},"geometry":{"x":167871.78000000119,"y":2543319.5600000024}},{"attributes":{"ID":345066,"DIS_CODE":0,"TOWNNAME":"中西區","LI":"小西里","LIN":"5鄰","STREET":"府前路","SECT":"一段","MAREA":" ","LANE":"３７１巷","ALLEY":" ","HOUSE_NO":"２３號","E_COORD97":167873.98999999999,"N_COORD97":2543312.7999999998,"ADDRESS":"府前路一段３７１巷２３號","OBJECTID":345057},"geometry":{"x":167873.99000000022,"y":2543312.8000000007}},{"attributes":{"ID":345067,"DIS_CODE":0,"TOWNNAME":"仁德區","LI":"後壁里","LIN":"31鄰","STREET":"德洋路","SECT":" ","MAREA":" ","LANE":"１８０巷","ALLEY":" ","HOUSE_NO":"８號六樓之６","E_COORD97":172561.54999999999,"N_COORD97":2539457.04,"ADDRESS":"德洋路１８０巷８號六樓之６","OBJECTID":345058},"geometry":{"x":172561.55000000075,"y":2539457.040000001}},{"attributes":{"ID":345068,"DIS_CODE":0,"TOWNNAME":"仁德區","LI":"後壁里","LIN":"31鄰","STREET":"德洋路","SECT":" ","MAREA":" ","LANE":"１８０巷","ALLEY":" ","HOUSE_NO":"２８號四樓之２","E_COORD97":172588.45999999999,"N_COORD97":2539547.54,"ADDRESS":"德洋路１８０巷２８號四樓之２","OBJECTID":345059},"geometry":{"x":172588.45999999996,"y":2539547.5399999972}},{"attributes":{"ID":345069,"DIS_CODE":0,"TOWNNAME":"仁德區","LI":"後壁里","LIN":"31鄰","STREET":"德洋路","SECT":" ","MAREA":" ","LANE":"１８０巷","ALLEY":" ","HOUSE_NO":"２８號六樓之２","E_COORD97":172588.45999999999,"N_COORD97":2539547.54,"ADDRESS":"德洋路１８０巷２８號六樓之２","OBJECTID":345060},"geometry":{"x":172588.45999999996,"y":2539547.5399999972}},{"attributes":{"ID":345070,"DIS_CODE":0,"TOWNNAME":"仁德區","LI":"後壁里","LIN":"31鄰","STREET":"德洋路","SECT":" ","MAREA":" ","LANE":"１８０巷","ALLEY":" ","HOUSE_NO":"２８號四樓之６","E_COORD97":172588.42999999999,"N_COORD97":2539547.54,"ADDRESS":"德洋路１８０巷２８號四樓之６","OBJECTID":345061},"geometry":{"x":172588.4299999997,"y":2539547.5399999972}},{"attributes":{"ID":345071,"DIS_CODE":0,"TOWNNAME":"仁德區","LI":"後壁里","LIN":"31鄰","STREET":"德洋路","SECT":" ","MAREA":" ","LANE":"１８０巷","ALLEY":" ","HOUSE_NO":"２８號二樓之３","E_COORD97":172588.42000000001,"N_COORD97":2539547.54,"ADDRESS":"德洋路１８０巷２８號二樓之３","OBJECTID":345062},"geometry":{"x":172588.41999999993,"y":2539547.5399999972}},{"attributes":{"ID":345072,"DIS_CODE":0,"TOWNNAME":"仁德區","LI":"後壁里","LIN":"31鄰","STREET":"德洋路","SECT":" ","MAREA":" ","LANE":"１８０巷","ALLEY":" ","HOUSE_NO":"８號四樓之６","E_COORD97":172561.54999999999,"N_COORD97":2539457.04,"ADDRESS":"德洋路１８０巷８號四樓之６","OBJECTID":345063},"geometry":{"x":172561.55000000075,"y":2539457.040000001}},{"attributes":{"ID":345073,"DIS_CODE":0,"TOWNNAME":"仁德區","LI":"後壁里","LIN":"31鄰","STREET":"德洋路","SECT":" ","MAREA":" ","LANE":"１８０巷","ALLEY":" ","HOUSE_NO":"２８號二樓之２","E_COORD97":172588.45999999999,"N_COORD97":2539547.54,"ADDRESS":"德洋路１８０巷２８號二樓之２","OBJECTID":345064},"geometry":{"x":172588.45999999996,"y":2539547.5399999972}},{"attributes":{"ID":345074,"DIS_CODE":0,"TOWNNAME":"仁德區","LI":"後壁里","LIN":"31鄰","STREET":"德洋路","SECT":" ","MAREA":" ","LANE":"１８０巷","ALLEY":" ","HOUSE_NO":"２８號二樓之６","E_COORD97":172588.42999999999,"N_COORD97":2539547.54,"ADDRESS":"德洋路１８０巷２８號二樓之６","OBJECTID":345065},"geometry":{"x":172588.4299999997,"y":2539547.5399999972}},{"attributes":{"ID":345075,"DIS_CODE":0,"TOWNNAME":"仁德區","LI":"後壁里","LIN":"31鄰","STREET":"德洋路","SECT":" ","MAREA":" ","LANE":"１８０巷","ALLEY":" ","HOUSE_NO":"８號四樓之５","E_COORD97":172561.60000000001,"N_COORD97":2539457.04,"ADDRESS":"德洋路１８０巷８號四樓之５","OBJECTID":345066},"geometry":{"x":172561.59999999963,"y":2539457.040000001}},{"attributes":{"ID":345076,"DIS_CODE":0,"TOWNNAME":"中西區","LI":"三民里","LIN":"8鄰","STREET":"民權路","SECT":"二段","MAREA":" ","LANE":" ","ALLEY":" ","HOUSE_NO":"１１７號二樓","E_COORD97":168409.29999999999,"N_COORD97":2543905.2999999998,"ADDRESS":"民權路二段１１７號二樓","OBJECTID":345067},"geometry":{"x":168409.29999999888,"y":2543905.3000000026}},{"attributes":{"ID":345077,"DIS_CODE":0,"TOWNNAME":"中西區","LI":"三民里","LIN":"8鄰","STREET":"民權路","SECT":"二段","MAREA":" ","LANE":" ","ALLEY":" ","HOUSE_NO":"１１７號三樓","E_COORD97":168409.29999999999,"N_COORD97":2543905.2999999998,"ADDRESS":"民權路二段１１７號三樓","OBJECTID":345068},"geometry":{"x":168409.29999999888,"y":2543905.3000000026}},{"attributes":{"ID":345078,"DIS_CODE":0,"TOWNNAME":"中西區","LI":"三民里","LIN":"8鄰","STREET":"民權路","SECT":"二段","MAREA":" ","LANE":" ","ALLEY":" ","HOUSE_NO":"１１７號四樓","E_COORD97":168409.29999999999,"N_COORD97":2543905.2999999998,"ADDRESS":"民權路二段１１７號四樓","OBJECTID":345069},"geometry":{"x":168409.29999999888,"y":2543905.3000000026}},{"attributes":{"ID":345079,"DIS_CODE":0,"TOWNNAME":"新化區","LI":"北勢里","LIN":"8鄰","STREET":"永新路","SECT":" ","MAREA":" ","LANE":" ","ALLEY":" ","HOUSE_NO":"３７號五樓之２","E_COORD97":177802.42999999999,"N_COORD97":2550963.2999999998,"ADDRESS":"永新路３７號五樓之２","OBJECTID":345070},"geometry":{"x":177802.4299999997,"y":2550963.3000000045}},{"attributes":{"ID":345080,"DIS_CODE":0,"TOWNNAME":"新化區","LI":"北勢里","LIN":"8鄰","STREET":"永新路","SECT":" ","MAREA":" ","LANE":" ","ALLEY":" ","HOUSE_NO":"４７號二樓之１","E_COORD97":177802.29999999999,"N_COORD97":2550963.2999999998,"ADDRESS":"永新路４７號二樓之１","OBJECTID":345071},"geometry":{"x":177802.29999999981,"y":2550963.3000000045}},{"attributes":{"ID":345081,"DIS_CODE":0,"TOWNNAME":"新化區","LI":"北勢里","LIN":"8鄰","STREET":"永新路","SECT":" ","MAREA":" ","LANE":" ","ALLEY":" ","HOUSE_NO":"４７號五樓之３","E_COORD97":177802.39999999999,"N_COORD97":2550963.2999999998,"ADDRESS":"永新路４７號五樓之３","OBJECTID":345072},"geometry":{"x":177802.40000000224,"y":2550963.3000000045}},{"attributes":{"ID":345082,"DIS_CODE":0,"TOWNNAME":"新化區","LI":"北勢里","LIN":"8鄰","STREET":"永新路","SECT":" ","MAREA":" ","LANE":" ","ALLEY":" ","HOUSE_NO":"３７號四樓之２","E_COORD97":177802.42999999999,"N_COORD97":2550963.2999999998,"ADDRESS":"永新路３７號四樓之２","OBJECTID":345073},"geometry":{"x":177802.4299999997,"y":2550963.3000000045}},{"attributes":{"ID":345083,"DIS_CODE":0,"TOWNNAME":"新化區","LI":"北勢里","LIN":"8鄰","STREET":"永新路","SECT":" ","MAREA":" ","LANE":" ","ALLEY":" ","HOUSE_NO":"４７號七樓之１","E_COORD97":177802.29999999999,"N_COORD97":2550963.2999999998,"ADDRESS":"永新路４７號七樓之１","OBJECTID":345074},"geometry":{"x":177802.29999999981,"y":2550963.3000000045}},{"attributes":{"ID":345084,"DIS_CODE":0,"TOWNNAME":"山上區","LI":"玉\u25A0里","LIN":"5鄰","STREET":" ","SECT":" ","MAREA":"中坑","LANE":" ","ALLEY":" ","HOUSE_NO":"９號","E_COORD97":187729.41,"N_COORD97":2554760.2799999998,"ADDRESS":"中坑９號","OBJECTID":345075},"geometry":{"x":187729.41000000108,"y":2554760.2800000012}},{"attributes":{"ID":345085,"DIS_CODE":0,"TOWNNAME":"中西區","LI":"大南里","LIN":"5鄰","STREET":"健康路","SECT":"一段","MAREA":" ","LANE":"３２８巷","ALLEY":" ","HOUSE_NO":"８之１號","E_COORD97":168221.23000000001,"N_COORD97":2542529.04,"ADDRESS":"健康路一段３２８巷８之１號","OBJECTID":345076},"geometry":{"x":168221.23000000138,"y":2542529.040000001}},{"attributes":{"ID":345086,"DIS_CODE":0,"TOWNNAME":"安南區","LI":"海西里","LIN":"5鄰","STREET":"海中街","SECT":" ","MAREA":" ","LANE":"１２１巷","ALLEY":" ","HOUSE_NO":"１１２號","E_COORD97":166180.32999999999,"N_COORD97":2548949.79,"ADDRESS":"海中街１２１巷１１２號","OBJECTID":345077},"geometry":{"x":166180.33000000194,"y":2548949.7899999991}},{"attributes":{"ID":345087,"DIS_CODE":0,"TOWNNAME":"安南區","LI":"海西里","LIN":"5鄰","STREET":"海中街","SECT":" ","MAREA":" ","LANE":"１２１巷","ALLEY":" ","HOUSE_NO":"１２０號","E_COORD97":166156.04000000001,"N_COORD97":2548963.1800000002,"ADDRESS":"海中街１２１巷１２０號","OBJECTID":345078},"geometry":{"x":166156.04000000004,"y":2548963.1800000016}},{"attributes":{"ID":345088,"DIS_CODE":0,"TOWNNAME":"安南區","LI":"海西里","LIN":"5鄰","STREET":"海中街","SECT":" ","MAREA":" ","LANE":"１２１巷","ALLEY":" ","HOUSE_NO":"９０號","E_COORD97":166208.81,"N_COORD97":2549022.5699999998,"ADDRESS":"海中街１２１巷９０號","OBJECTID":345079},"geometry":{"x":166208.81000000145,"y":2549022.5700000022}},{"attributes":{"ID":345089,"DIS_CODE":0,"TOWNNAME":"安南區","LI":"海西里","LIN":"5鄰","STREET":"海中街","SECT":" ","MAREA":" ","LANE":"１２１巷","ALLEY":" ","HOUSE_NO":"９６號","E_COORD97":166207.56,"N_COORD97":2548991.2000000002,"ADDRESS":"海中街１２１巷９６號","OBJECTID":345080},"geometry":{"x":166207.56000000052,"y":2548991.1999999993}},{"attributes":{"ID":345090,"DIS_CODE":0,"TOWNNAME":"安南區","LI":"海西里","LIN":"5鄰","STREET":"海中街","SECT":" ","MAREA":" ","LANE":"１６９巷","ALLEY":" ","HOUSE_NO":"７９號","E_COORD97":166202.10999999999,"N_COORD97":2549030.52,"ADDRESS":"海中街１６９巷７９號","OBJECTID":345081},"geometry":{"x":166202.11000000034,"y":2549030.5199999996}},{"attributes":{"ID":345091,"DIS_CODE":0,"TOWNNAME":"安南區","LI":"海西里","LIN":"5鄰","STREET":"海中街","SECT":" ","MAREA":" ","LANE":"１６９巷","ALLEY":" ","HOUSE_NO":"８７號","E_COORD97":166179.07999999999,"N_COORD97":2549015.46,"ADDRESS":"海中街１６９巷８７號","OBJECTID":345082},"geometry":{"x":166179.08000000101,"y":2549015.4600000009}},{"attributes":{"ID":345092,"DIS_CODE":0,"TOWNNAME":"安南區","LI":"溪心里","LIN":"5鄰","STREET":"本原街","SECT":"二段","MAREA":" ","LANE":"１０６巷","ALLEY":" ","HOUSE_NO":"３５號","E_COORD97":166877.98999999999,"N_COORD97":2550873.04,"ADDRESS":"本原街二段１０６巷３５號","OBJECTID":345083},"geometry":{"x":166877.99000000115,"y":2550873.040000001}},{"attributes":{"ID":345093,"DIS_CODE":0,"TOWNNAME":"仁德區","LI":"後壁里","LIN":"31鄰","STREET":"德洋路","SECT":" ","MAREA":" ","LANE":"１８０巷","ALLEY":" ","HOUSE_NO":"８號六樓之１","E_COORD97":172561.44,"N_COORD97":2539457.04,"ADDRESS":"德洋路１８０巷８號六樓之１","OBJECTID":345084},"geometry":{"x":172561.44000000134,"y":2539457.040000001}},{"attributes":{"ID":345094,"DIS_CODE":0,"TOWNNAME":"仁德區","LI":"後壁里","LIN":"31鄰","STREET":"德洋路","SECT":" ","MAREA":" ","LANE":"１８０巷","ALLEY":" ","HOUSE_NO":"２８號五樓之３","E_COORD97":172588.42000000001,"N_COORD97":2539547.54,"ADDRESS":"德洋路１８０巷２８號五樓之３","OBJECTID":345085},"geometry":{"x":172588.41999999993,"y":2539547.5399999972}},{"attributes":{"ID":345095,"DIS_CODE":0,"TOWNNAME":"仁德區","LI":"後壁里","LIN":"31鄰","STREET":"德洋路","SECT":" ","MAREA":" ","LANE":"１８０巷","ALLEY":" ","HOUSE_NO":"２８號六樓之４","E_COORD97":172588.35000000001,"N_COORD97":2539547.54,"ADDRESS":"德洋路１８０巷２８號六樓之４","OBJECTID":345086},"geometry":{"x":172588.35000000056,"y":2539547.5399999972}},{"attributes":{"ID":345096,"DIS_CODE":0,"TOWNNAME":"仁德區","LI":"後壁里","LIN":"31鄰","STREET":"德洋路","SECT":" ","MAREA":" ","LANE":"１８０巷","ALLEY":" ","HOUSE_NO":"２８號五樓之５","E_COORD97":172588.48000000001,"N_COORD97":2539547.54,"ADDRESS":"德洋路１８０巷２８號五樓之５","OBJECTID":345087},"geometry":{"x":172588.48000000045,"y":2539547.5399999972}},{"attributes":{"ID":345097,"DIS_CODE":0,"TOWNNAME":"仁德區","LI":"後壁里","LIN":"31鄰","STREET":"德洋路","SECT":" ","MAREA":" ","LANE":"１８０巷","ALLEY":" ","HOUSE_NO":"２８號四樓之３","E_COORD97":172588.42000000001,"N_COORD97":2539547.54,"ADDRESS":"德洋路１８０巷２８號四樓之３","OBJECTID":345088},"geometry":{"x":172588.41999999993,"y":2539547.5399999972}},{"attributes":{"ID":345098,"DIS_CODE":0,"TOWNNAME":"仁德區","LI":"後壁里","LIN":"31鄰","STREET":"德洋路","SECT":" ","MAREA":" ","LANE":"１８０巷","ALLEY":" ","HOUSE_NO":"８號二樓之３","E_COORD97":172561.54000000001,"N_COORD97":2539457.04,"ADDRESS":"德洋路１８０巷８號二樓之３","OBJECTID":345089},"geometry":{"x":172561.54000000097,"y":2539457.040000001}},{"attributes":{"ID":345099,"DIS_CODE":0,"TOWNNAME":"仁德區","LI":"後壁里","LIN":"31鄰","STREET":"德洋路","SECT":" ","MAREA":" ","LANE":"１８０巷","ALLEY":" ","HOUSE_NO":"２８號三樓之３","E_COORD97":172588.42000000001,"N_COORD97":2539547.54,"ADDRESS":"德洋路１８０巷２８號三樓之３","OBJECTID":345090},"geometry":{"x":172588.41999999993,"y":2539547.5399999972}},{"attributes":{"ID":345100,"DIS_CODE":0,"TOWNNAME":"仁德區","LI":"後壁里","LIN":"31鄰","STREET":"德洋路","SECT":" ","MAREA":" ","LANE":"１８０巷","ALLEY":" ","HOUSE_NO":"８號二樓之５","E_COORD97":172561.60000000001,"N_COORD97":2539457.04,"ADDRESS":"德洋路１８０巷８號二樓之５","OBJECTID":345091},"geometry":{"x":172561.59999999963,"y":2539457.040000001}},{"attributes":{"ID":345101,"DIS_CODE":0,"TOWNNAME":"東區","LI":"小東里","LIN":"31鄰","STREET":"東安路","SECT":" ","MAREA":" ","LANE":"２５１巷","ALLEY":" ","HOUSE_NO":"５１號二樓","E_COORD97":170653.5,"N_COORD97":2544106.5699999998,"ADDRESS":"東安路２５１巷５１號二樓","OBJECTID":345092},"geometry":{"x":170653.50000000093,"y":2544106.5700000022}},{"attributes":{"ID":345102,"DIS_CODE":0,"TOWNNAME":"東區","LI":"小東里","LIN":"31鄰","STREET":"東安路","SECT":" ","MAREA":" ","LANE":"２５１巷","ALLEY":" ","HOUSE_NO":"５１號二樓之１","E_COORD97":170653.5,"N_COORD97":2544106.5699999998,"ADDRESS":"東安路２５１巷５１號二樓之１","OBJECTID":345093},"geometry":{"x":170653.50000000093,"y":2544106.5700000022}},{"attributes":{"ID":345103,"DIS_CODE":0,"TOWNNAME":"新化區","LI":"北勢里","LIN":"8鄰","STREET":"永新路","SECT":" ","MAREA":" ","LANE":" ","ALLEY":" ","HOUSE_NO":"４７號二樓之２","E_COORD97":177802.42999999999,"N_COORD97":2550963.2999999998,"ADDRESS":"永新路４７號二樓之２","OBJECTID":345094},"geometry":{"x":177802.4299999997,"y":2550963.3000000045}},{"attributes":{"ID":345104,"DIS_CODE":0,"TOWNNAME":"新化區","LI":"北勢里","LIN":"8鄰","STREET":"永新路","SECT":" ","MAREA":" ","LANE":" ","ALLEY":" ","HOUSE_NO":"３７號五樓之１","E_COORD97":177802.29999999999,"N_COORD97":2550963.2999999998,"ADDRESS":"永新路３７號五樓之１","OBJECTID":345095},"geometry":{"x":177802.29999999981,"y":2550963.3000000045}},{"attributes":{"ID":345105,"DIS_CODE":0,"TOWNNAME":"新化區","LI":"北勢里","LIN":"8鄰","STREET":"永新路","SECT":" ","MAREA":" ","LANE":" ","ALLEY":" ","HOUSE_NO":"３７號四樓之１","E_COORD97":177802.29999999999,"N_COORD97":2550963.2999999998,"ADDRESS":"永新路３７號四樓之１","OBJECTID":345096},"geometry":{"x":177802.29999999981,"y":2550963.3000000045}},{"attributes":{"ID":345106,"DIS_CODE":0,"TOWNNAME":"新化區","LI":"北勢里","LIN":"8鄰","STREET":"永新路","SECT":" ","MAREA":" ","LANE":" ","ALLEY":" ","HOUSE_NO":"３７號五樓之３","E_COORD97":177802.39999999999,"N_COORD97":2550963.2999999998,"ADDRESS":"永新路３７號五樓之３","OBJECTID":345097},"geometry":{"x":177802.40000000224,"y":2550963.3000000045}},{"attributes":{"ID":345107,"DIS_CODE":0,"TOWNNAME":"新化區","LI":"北勢里","LIN":"8鄰","STREET":"永新路","SECT":" ","MAREA":" ","LANE":" ","ALLEY":" ","HOUSE_NO":"３７號六樓之３","E_COORD97":177802.39999999999,"N_COORD97":2550963.2999999998,"ADDRESS":"永新路３７號六樓之３","OBJECTID":345098},"geometry":{"x":177802.40000000224,"y":2550963.3000000045}},{"attributes":{"ID":345108,"DIS_CODE":0,"TOWNNAME":"新化區","LI":"北勢里","LIN":"8鄰","STREET":"永新路","SECT":" ","MAREA":" ","LANE":" ","ALLEY":" ","HOUSE_NO":"４７號三樓之１","E_COORD97":177802.29999999999,"N_COORD97":2550963.2999999998,"ADDRESS":"永新路４７號三樓之１","OBJECTID":345099},"geometry":{"x":177802.29999999981,"y":2550963.3000000045}},{"attributes":{"ID":345109,"DIS_CODE":0,"TOWNNAME":"新化區","LI":"北勢里","LIN":"8鄰","STREET":"永新路","SECT":" ","MAREA":" ","LANE":" ","ALLEY":" ","HOUSE_NO":"３７號六樓之１","E_COORD97":177802.29999999999,"N_COORD97":2550963.2999999998,"ADDRESS":"永新路３７號六樓之１","OBJECTID":345100},"geometry":{"x":177802.29999999981,"y":2550963.3000000045}},{"attributes":{"ID":345110,"DIS_CODE":0,"TOWNNAME":"新化區","LI":"北勢里","LIN":"8鄰","STREET":"永新路","SECT":" ","MAREA":" ","LANE":" ","ALLEY":" ","HOUSE_NO":"４７號五樓之２","E_COORD97":177802.42999999999,"N_COORD97":2550963.2999999998,"ADDRESS":"永新路４７號五樓之２","OBJECTID":345101},"geometry":{"x":177802.4299999997,"y":2550963.3000000045}},{"attributes":{"ID":345111,"DIS_CODE":0,"TOWNNAME":"新化區","LI":"北勢里","LIN":"8鄰","STREET":"永新路","SECT":" ","MAREA":" ","LANE":" ","ALLEY":" ","HOUSE_NO":"３７號四樓之３","E_COORD97":177802.39999999999,"N_COORD97":2550963.2999999998,"ADDRESS":"永新路３７號四樓之３","OBJECTID":345102},"geometry":{"x":177802.40000000224,"y":2550963.3000000045}},{"attributes":{"ID":345112,"DIS_CODE":0,"TOWNNAME":"安南區","LI":"溪心里","LIN":"5鄰","STREET":"本原街","SECT":"二段","MAREA":" ","LANE":"１０６巷","ALLEY":" ","HOUSE_NO":"３９號","E_COORD97":166879.66,"N_COORD97":2550887.5099999998,"ADDRESS":"本原街二段１０６巷３９號","OBJECTID":345103},"geometry":{"x":166879.66000000015,"y":2550887.5100000016}},{"attributes":{"ID":345113,"DIS_CODE":0,"TOWNNAME":"安南區","LI":"溪心里","LIN":"5鄰","STREET":"本原街","SECT":"二段","MAREA":" ","LANE":"１０６巷","ALLEY":" ","HOUSE_NO":"６號","E_COORD97":166829.66,"N_COORD97":2550789.79,"ADDRESS":"本原街二段１０６巷６號","OBJECTID":345104},"geometry":{"x":166829.66000000108,"y":2550789.790000001}},{"attributes":{"ID":345114,"DIS_CODE":0,"TOWNNAME":"安南區","LI":"佃東里","LIN":"5鄰","STREET":"公學路","SECT":"四段","MAREA":" ","LANE":"１２２巷","ALLEY":" ","HOUSE_NO":"１５號","E_COORD97":165580.92000000001,"N_COORD97":2552122.7599999998,"ADDRESS":"公學路四段１２２巷１５號","OBJECTID":345105},"geometry":{"x":165580.91999999993,"y":2552122.7600000016}},{"attributes":{"ID":345115,"DIS_CODE":0,"TOWNNAME":"安南區","LI":"佃東里","LIN":"5鄰","STREET":"公學路","SECT":"四段","MAREA":" ","LANE":"１２２巷","ALLEY":" ","HOUSE_NO":"１７號","E_COORD97":165580.75,"N_COORD97":2552127.23,"ADDRESS":"公學路四段１２２巷１７號","OBJECTID":345106},"geometry":{"x":165580.75000000186,"y":2552127.2300000023}},{"attributes":{"ID":345116,"DIS_CODE":0,"TOWNNAME":"安南區","LI":"佃東里","LIN":"5鄰","STREET":"公學路","SECT":"四段","MAREA":" ","LANE":"１２２巷","ALLEY":" ","HOUSE_NO":"２１號","E_COORD97":165586.92000000001,"N_COORD97":2552145.0299999998,"ADDRESS":"公學路四段１２２巷２１號","OBJECTID":345107},"geometry":{"x":165586.92000000086,"y":2552145.0299999993}},{"attributes":{"ID":345117,"DIS_CODE":0,"TOWNNAME":"安南區","LI":"佃西里","LIN":"5鄰","STREET":"公學路","SECT":"四段","MAREA":" ","LANE":"１２６巷","ALLEY":" ","HOUSE_NO":"１１４號","E_COORD97":165327.29999999999,"N_COORD97":2551926.4100000001,"ADDRESS":"公學路四段１２６巷１１４號","OBJECTID":345108},"geometry":{"x":165327.29999999981,"y":2551926.4100000001}},{"attributes":{"ID":345118,"DIS_CODE":0,"TOWNNAME":"安南區","LI":"佃西里","LIN":"5鄰","STREET":"公學路","SECT":"四段","MAREA":" ","LANE":"１２６巷","ALLEY":" ","HOUSE_NO":"１２０號","E_COORD97":165315.82999999999,"N_COORD97":2551921.71,"ADDRESS":"公學路四段１２６巷１２０號","OBJECTID":345109},"geometry":{"x":165315.83000000194,"y":2551921.7100000009}},{"attributes":{"ID":345119,"DIS_CODE":0,"TOWNNAME":"安南區","LI":"佃西里","LIN":"5鄰","STREET":"公學路","SECT":"四段","MAREA":" ","LANE":"１２６巷","ALLEY":" ","HOUSE_NO":"１２４號","E_COORD97":165298.17000000001,"N_COORD97":2551910.3100000001,"ADDRESS":"公學路四段１２６巷１２４號","OBJECTID":345110},"geometry":{"x":165298.17000000179,"y":2551910.3100000024}},{"attributes":{"ID":345120,"DIS_CODE":0,"TOWNNAME":"安南區","LI":"佃西里","LIN":"5鄰","STREET":"公學路","SECT":"四段","MAREA":" ","LANE":"１２６巷","ALLEY":" ","HOUSE_NO":"１２５號","E_COORD97":165316.57000000001,"N_COORD97":2551895.2400000002,"ADDRESS":"公學路四段１２６巷１２５號","OBJECTID":345111},"geometry":{"x":165316.57000000123,"y":2551895.2400000039}},{"attributes":{"ID":345121,"DIS_CODE":0,"TOWNNAME":"安南區","LI":"佃西里","LIN":"5鄰","STREET":"公學路","SECT":"四段","MAREA":" ","LANE":"１２６巷","ALLEY":" ","HOUSE_NO":"１２６號","E_COORD97":165309.92999999999,"N_COORD97":2551908.9100000001,"ADDRESS":"公學路四段１２６巷１２６號","OBJECTID":345112},"geometry":{"x":165309.93000000063,"y":2551908.910000002}},{"attributes":{"ID":345122,"DIS_CODE":0,"TOWNNAME":"安南區","LI":"佃西里","LIN":"5鄰","STREET":"公學路","SECT":"四段","MAREA":" ","LANE":"２３４巷","ALLEY":" ","HOUSE_NO":"５０號","E_COORD97":165309.26999999999,"N_COORD97":2551863.9399999999,"ADDRESS":"公學路四段２３４巷５０號","OBJECTID":345113},"geometry":{"x":165309.27000000048,"y":2551863.9400000013}},{"attributes":{"ID":345123,"DIS_CODE":0,"TOWNNAME":"佳里區","LI":"鎮山里","LIN":"1鄰","STREET":"四安街","SECT":" ","MAREA":" ","LANE":" ","ALLEY":" ","HOUSE_NO":"５６號","E_COORD97":165813.14000000001,"N_COORD97":2561836.8999999999,"ADDRESS":"四安街５６號","OBJECTID":345114},"geometry":{"x":165813.13999999966,"y":2561836.9000000004}},{"attributes":{"ID":345124,"DIS_CODE":0,"TOWNNAME":"佳里區","LI":"鎮山里","LIN":"1鄰","STREET":"四安街","SECT":" ","MAREA":" ","LANE":" ","ALLEY":" ","HOUSE_NO":"５號","E_COORD97":165888.29000000001,"N_COORD97":2561852.8399999999,"ADDRESS":"四安街５號","OBJECTID":345115},"geometry":{"x":165888.29000000004,"y":2561852.8400000017}},{"attributes":{"ID":345125,"DIS_CODE":0,"TOWNNAME":"南區","LI":"大恩里","LIN":"4鄰","STREET":"國民路","SECT":" ","MAREA":" ","LANE":" ","ALLEY":" ","HOUSE_NO":"１５２號","E_COORD97":169206.22,"N_COORD97":2540907.52,"ADDRESS":"國民路１５２號","OBJECTID":345116},"geometry":{"x":169206.21999999974,"y":2540907.5199999996}},{"attributes":{"ID":345126,"DIS_CODE":0,"TOWNNAME":"佳里區","LI":"鎮山里","LIN":"1鄰","STREET":"四安街","SECT":" ","MAREA":" ","LANE":" ","ALLEY":" ","HOUSE_NO":"１０號","E_COORD97":165883.60000000001,"N_COORD97":2561869.5600000001,"ADDRESS":"四安街１０號","OBJECTID":345117},"geometry":{"x":165883.60000000056,"y":2561869.5600000024}},{"attributes":{"ID":345127,"DIS_CODE":0,"TOWNNAME":"佳里區","LI":"鎮山里","LIN":"1鄰","STREET":"四安街","SECT":" ","MAREA":" ","LANE":" ","ALLEY":" ","HOUSE_NO":"１１號","E_COORD97":165893.73000000001,"N_COORD97":2561831.2799999998,"ADDRESS":"四安街１１號","OBJECTID":345118},"geometry":{"x":165893.73000000138,"y":2561831.2800000031}},{"attributes":{"ID":345128,"DIS_CODE":0,"TOWNNAME":"佳里區","LI":"鎮山里","LIN":"1鄰","STREET":"四安街","SECT":" ","MAREA":" ","LANE":" ","ALLEY":" ","HOUSE_NO":"１２號","E_COORD97":165879.41,"N_COORD97":2561868.4399999999,"ADDRESS":"四安街１２號","OBJECTID":345119},"geometry":{"x":165879.41000000015,"y":2561868.4400000013}},{"attributes":{"ID":345129,"DIS_CODE":0,"TOWNNAME":"佳里區","LI":"鎮山里","LIN":"1鄰","STREET":"四安街","SECT":" ","MAREA":" ","LANE":" ","ALLEY":" ","HOUSE_NO":"１３號","E_COORD97":165894.64999999999,"N_COORD97":2561827.4199999999,"ADDRESS":"四安街１３號","OBJECTID":345120},"geometry":{"x":165894.65000000037,"y":2561827.4199999981}},{"attributes":{"ID":345130,"DIS_CODE":0,"TOWNNAME":"佳里區","LI":"鎮山里","LIN":"1鄰","STREET":"四安街","SECT":" ","MAREA":" ","LANE":" ","ALLEY":" ","HOUSE_NO":"３２號","E_COORD97":165847.45999999999,"N_COORD97":2561854.6400000001,"ADDRESS":"四安街３２號","OBJECTID":345121},"geometry":{"x":165847.46000000089,"y":2561854.6400000025}},{"attributes":{"ID":345131,"DIS_CODE":0,"TOWNNAME":"佳里區","LI":"鎮山里","LIN":"1鄰","STREET":"四安街","SECT":" ","MAREA":" ","LANE":" ","ALLEY":" ","HOUSE_NO":"３６號","E_COORD97":165843.26999999999,"N_COORD97":2561853.5099999998,"ADDRESS":"四安街３６號","OBJECTID":345122},"geometry":{"x":165843.27000000048,"y":2561853.5099999998}},{"attributes":{"ID":345132,"DIS_CODE":0,"TOWNNAME":"佳里區","LI":"鎮山里","LIN":"1鄰","STREET":"四安街","SECT":" ","MAREA":" ","LANE":" ","ALLEY":" ","HOUSE_NO":"３８號","E_COORD97":165839.47,"N_COORD97":2561852.2400000002,"ADDRESS":"四安街３８號","OBJECTID":345123},"geometry":{"x":165839.46999999974,"y":2561852.2400000002}},{"attributes":{"ID":345133,"DIS_CODE":0,"TOWNNAME":"佳里區","LI":"鎮山里","LIN":"1鄰","STREET":"四安街","SECT":" ","MAREA":" ","LANE":" ","ALLEY":" ","HOUSE_NO":"４７號","E_COORD97":165838.60999999999,"N_COORD97":2561833.02,"ADDRESS":"四安街４７號","OBJECTID":345124},"geometry":{"x":165838.61000000127,"y":2561833.0199999996}},{"attributes":{"ID":345134,"DIS_CODE":0,"TOWNNAME":"佳里區","LI":"鎮山里","LIN":"1鄰","STREET":"四安街","SECT":" ","MAREA":" ","LANE":" ","ALLEY":" ","HOUSE_NO":"４９號","E_COORD97":165831.59,"N_COORD97":2561829.79,"ADDRESS":"四安街４９號","OBJECTID":345125},"geometry":{"x":165831.59000000078,"y":2561829.7899999991}},{"attributes":{"ID":345135,"DIS_CODE":0,"TOWNNAME":"佳里區","LI":"鎮山里","LIN":"1鄰","STREET":"四安街","SECT":" ","MAREA":" ","LANE":" ","ALLEY":" ","HOUSE_NO":"５１號","E_COORD97":165827.89000000001,"N_COORD97":2561827.71,"ADDRESS":"四安街５１號","OBJECTID":345126},"geometry":{"x":165827.88999999966,"y":2561827.7100000028}},{"attributes":{"ID":345136,"DIS_CODE":0,"TOWNNAME":"佳里區","LI":"鎮山里","LIN":"1鄰","STREET":"四安街","SECT":" ","MAREA":" ","LANE":" ","ALLEY":" ","HOUSE_NO":"５２號","E_COORD97":165817.45999999999,"N_COORD97":2561838.79,"ADDRESS":"四安街５２號","OBJECTID":345127},"geometry":{"x":165817.45999999996,"y":2561838.790000001}},{"attributes":{"ID":345137,"DIS_CODE":0,"TOWNNAME":"東區","LI":"小東里","LIN":"31鄰","STREET":"東安路","SECT":" ","MAREA":" ","LANE":"２５１巷","ALLEY":" ","HOUSE_NO":"５１號二樓之２","E_COORD97":170653.5,"N_COORD97":2544106.5699999998,"ADDRESS":"東安路２５１巷５１號二樓之２","OBJECTID":345128},"geometry":{"x":170653.50000000093,"y":2544106.5700000022}},{"attributes":{"ID":345138,"DIS_CODE":0,"TOWNNAME":"東區","LI":"小東里","LIN":"31鄰","STREET":"東安路","SECT":" ","MAREA":" ","LANE":"２５１巷","ALLEY":" ","HOUSE_NO":"５１號三樓之２","E_COORD97":170653.5,"N_COORD97":2544106.5699999998,"ADDRESS":"東安路２５１巷５１號三樓之２","OBJECTID":345129},"geometry":{"x":170653.50000000093,"y":2544106.5700000022}},{"attributes":{"ID":345139,"DIS_CODE":0,"TOWNNAME":"東區","LI":"小東里","LIN":"31鄰","STREET":"東安路","SECT":" ","MAREA":" ","LANE":"２５１巷","ALLEY":" ","HOUSE_NO":"５１號四樓","E_COORD97":170653.5,"N_COORD97":2544106.5699999998,"ADDRESS":"東安路２５１巷５１號四樓","OBJECTID":345130},"geometry":{"x":170653.50000000093,"y":2544106.5700000022}},{"attributes":{"ID":345140,"DIS_CODE":0,"TOWNNAME":"東區","LI":"小東里","LIN":"31鄰","STREET":"東安路","SECT":" ","MAREA":" ","LANE":"２５１巷","ALLEY":" ","HOUSE_NO":"５１號四樓之１","E_COORD97":170653.5,"N_COORD97":2544106.5699999998,"ADDRESS":"東安路２５１巷５１號四樓之１","OBJECTID":345131},"geometry":{"x":170653.50000000093,"y":2544106.5700000022}},{"attributes":{"ID":345141,"DIS_CODE":0,"TOWNNAME":"東區","LI":"小東里","LIN":"31鄰","STREET":"東安路","SECT":" ","MAREA":" ","LANE":"２５１巷","ALLEY":" ","HOUSE_NO":"５１號四樓之２","E_COORD97":170653.5,"N_COORD97":2544106.5699999998,"ADDRESS":"東安路２５１巷５１號四樓之２","OBJECTID":345132},"geometry":{"x":170653.50000000093,"y":2544106.5700000022}},{"attributes":{"ID":345142,"DIS_CODE":0,"TOWNNAME":"東區","LI":"小東里","LIN":"31鄰","STREET":"東安路","SECT":" ","MAREA":" ","LANE":"２５１巷","ALLEY":" ","HOUSE_NO":"５１號五樓之２","E_COORD97":170653.5,"N_COORD97":2544106.5699999998,"ADDRESS":"東安路２５１巷５１號五樓之２","OBJECTID":345133},"geometry":{"x":170653.50000000093,"y":2544106.5700000022}},{"attributes":{"ID":345143,"DIS_CODE":0,"TOWNNAME":"東區","LI":"小東里","LIN":"31鄰","STREET":"東安路","SECT":" ","MAREA":" ","LANE":"２５１巷","ALLEY":" ","HOUSE_NO":"５１號六樓","E_COORD97":170653.5,"N_COORD97":2544106.5699999998,"ADDRESS":"東安路２５１巷５１號六樓","OBJECTID":345134},"geometry":{"x":170653.50000000093,"y":2544106.5700000022}},{"attributes":{"ID":345144,"DIS_CODE":0,"TOWNNAME":"東區","LI":"小東里","LIN":"31鄰","STREET":"東安路","SECT":" ","MAREA":" ","LANE":"２５１巷","ALLEY":" ","HOUSE_NO":"５１號六樓之２","E_COORD97":170653.5,"N_COORD97":2544106.5699999998,"ADDRESS":"東安路２５１巷５１號六樓之２","OBJECTID":345135},"geometry":{"x":170653.50000000093,"y":2544106.5700000022}},{"attributes":{"ID":345145,"DIS_CODE":0,"TOWNNAME":"東區","LI":"小東里","LIN":"31鄰","STREET":"東安路","SECT":" ","MAREA":" ","LANE":"２５１巷","ALLEY":" ","HOUSE_NO":"５１號七樓","E_COORD97":170653.5,"N_COORD97":2544106.5699999998,"ADDRESS":"東安路２５１巷５１號七樓","OBJECTID":345136},"geometry":{"x":170653.50000000093,"y":2544106.5700000022}},{"attributes":{"ID":345146,"DIS_CODE":0,"TOWNNAME":"東區","LI":"小東里","LIN":"31鄰","STREET":"東安路","SECT":" ","MAREA":" ","LANE":"２５１巷","ALLEY":" ","HOUSE_NO":"５１號七樓之２","E_COORD97":170653.5,"N_COORD97":2544106.5699999998,"ADDRESS":"東安路２５１巷５１號七樓之２","OBJECTID":345137},"geometry":{"x":170653.50000000093,"y":2544106.5700000022}},{"attributes":{"ID":345147,"DIS_CODE":0,"TOWNNAME":"東區","LI":"小東里","LIN":"31鄰","STREET":"東安路","SECT":" ","MAREA":" ","LANE":"２５１巷","ALLEY":" ","HOUSE_NO":"５１號八樓","E_COORD97":170653.5,"N_COORD97":2544106.5699999998,"ADDRESS":"東安路２５１巷５１號八樓","OBJECTID":345138},"geometry":{"x":170653.50000000093,"y":2544106.5700000022}},{"attributes":{"ID":345148,"DIS_CODE":0,"TOWNNAME":"東區","LI":"小東里","LIN":"31鄰","STREET":"東安路","SECT":" ","MAREA":" ","LANE":"２５１巷","ALLEY":" ","HOUSE_NO":"５１號八樓之１","E_COORD97":170653.5,"N_COORD97":2544106.5699999998,"ADDRESS":"東安路２５１巷５１號八樓之１","OBJECTID":345139},"geometry":{"x":170653.50000000093,"y":2544106.5700000022}},{"attributes":{"ID":345149,"DIS_CODE":0,"TOWNNAME":"東區","LI":"小東里","LIN":"31鄰","STREET":"東安路","SECT":" ","MAREA":" ","LANE":"２５１巷","ALLEY":" ","HOUSE_NO":"５１號八樓之２","E_COORD97":170653.5,"N_COORD97":2544106.5699999998,"ADDRESS":"東安路２５１巷５１號八樓之２","OBJECTID":345140},"geometry":{"x":170653.50000000093,"y":2544106.5700000022}},{"attributes":{"ID":345150,"DIS_CODE":0,"TOWNNAME":"東區","LI":"小東里","LIN":"31鄰","STREET":"東安路","SECT":" ","MAREA":" ","LANE":"２５１巷","ALLEY":" ","HOUSE_NO":"５５號二樓","E_COORD97":170633.57000000001,"N_COORD97":2544106.8900000001,"ADDRESS":"東安路２５１巷５５號二樓","OBJECTID":345141},"geometry":{"x":170633.5700000003,"y":2544106.8900000043}},{"attributes":{"ID":345151,"DIS_CODE":0,"TOWNNAME":"東區","LI":"小東里","LIN":"31鄰","STREET":"東安路","SECT":" ","MAREA":" ","LANE":"２５１巷","ALLEY":" ","HOUSE_NO":"５５號二樓之１","E_COORD97":170633.57000000001,"N_COORD97":2544106.8900000001,"ADDRESS":"東安路２５１巷５５號二樓之１","OBJECTID":345142},"geometry":{"x":170633.5700000003,"y":2544106.8900000043}},{"attributes":{"ID":345152,"DIS_CODE":0,"TOWNNAME":"東區","LI":"小東里","LIN":"31鄰","STREET":"東安路","SECT":" ","MAREA":" ","LANE":"２５１巷","ALLEY":" ","HOUSE_NO":"５５號二樓之２","E_COORD97":170633.57000000001,"N_COORD97":2544106.8900000001,"ADDRESS":"東安路２５１巷５５號二樓之２","OBJECTID":345143},"geometry":{"x":170633.5700000003,"y":2544106.8900000043}},{"attributes":{"ID":345153,"DIS_CODE":0,"TOWNNAME":"東區","LI":"小東里","LIN":"31鄰","STREET":"東安路","SECT":" ","MAREA":" ","LANE":"２５１巷","ALLEY":" ","HOUSE_NO":"５５號三樓","E_COORD97":170633.57000000001,"N_COORD97":2544106.8900000001,"ADDRESS":"東安路２５１巷５５號三樓","OBJECTID":345144},"geometry":{"x":170633.5700000003,"y":2544106.8900000043}},{"attributes":{"ID":345154,"DIS_CODE":0,"TOWNNAME":"東區","LI":"小東里","LIN":"31鄰","STREET":"東安路","SECT":" ","MAREA":" ","LANE":"２５１巷","ALLEY":" ","HOUSE_NO":"５５號四樓","E_COORD97":170633.57000000001,"N_COORD97":2544106.8900000001,"ADDRESS":"東安路２５１巷５５號四樓","OBJECTID":345145},"geometry":{"x":170633.5700000003,"y":2544106.8900000043}},{"attributes":{"ID":345155,"DIS_CODE":0,"TOWNNAME":"東區","LI":"小東里","LIN":"31鄰","STREET":"東安路","SECT":" ","MAREA":" ","LANE":"２５１巷","ALLEY":" ","HOUSE_NO":"５５號四樓之１","E_COORD97":170633.57000000001,"N_COORD97":2544106.8900000001,"ADDRESS":"東安路２５１巷５５號四樓之１","OBJECTID":345146},"geometry":{"x":170633.5700000003,"y":2544106.8900000043}},{"attributes":{"ID":345156,"DIS_CODE":0,"TOWNNAME":"東區","LI":"小東里","LIN":"31鄰","STREET":"東安路","SECT":" ","MAREA":" ","LANE":"２５１巷","ALLEY":" ","HOUSE_NO":"５５號四樓之２","E_COORD97":170633.57000000001,"N_COORD97":2544106.8900000001,"ADDRESS":"東安路２５１巷５５號四樓之２","OBJECTID":345147},"geometry":{"x":170633.5700000003,"y":2544106.8900000043}},{"attributes":{"ID":345157,"DIS_CODE":0,"TOWNNAME":"東區","LI":"小東里","LIN":"31鄰","STREET":"東安路","SECT":" ","MAREA":" ","LANE":"２５１巷","ALLEY":" ","HOUSE_NO":"５５號五樓","E_COORD97":170633.57000000001,"N_COORD97":2544106.8900000001,"ADDRESS":"東安路２５１巷５５號五樓","OBJECTID":345148},"geometry":{"x":170633.5700000003,"y":2544106.8900000043}},{"attributes":{"ID":345158,"DIS_CODE":0,"TOWNNAME":"東區","LI":"小東里","LIN":"31鄰","STREET":"東安路","SECT":" ","MAREA":" ","LANE":"２５１巷","ALLEY":" ","HOUSE_NO":"５５號六樓","E_COORD97":170633.57000000001,"N_COORD97":2544106.8900000001,"ADDRESS":"東安路２５１巷５５號六樓","OBJECTID":345149},"geometry":{"x":170633.5700000003,"y":2544106.8900000043}},{"attributes":{"ID":345159,"DIS_CODE":0,"TOWNNAME":"東區","LI":"小東里","LIN":"31鄰","STREET":"東安路","SECT":" ","MAREA":" ","LANE":"２５１巷","ALLEY":" ","HOUSE_NO":"５５號六樓之１","E_COORD97":170633.57000000001,"N_COORD97":2544106.8900000001,"ADDRESS":"東安路２５１巷５５號六樓之１","OBJECTID":345150},"geometry":{"x":170633.5700000003,"y":2544106.8900000043}},{"attributes":{"ID":345160,"DIS_CODE":0,"TOWNNAME":"東區","LI":"小東里","LIN":"31鄰","STREET":"東安路","SECT":" ","MAREA":" ","LANE":"２５１巷","ALLEY":" ","HOUSE_NO":"５５號六樓之２","E_COORD97":170633.57000000001,"N_COORD97":2544106.8900000001,"ADDRESS":"東安路２５１巷５５號六樓之２","OBJECTID":345151},"geometry":{"x":170633.5700000003,"y":2544106.8900000043}},{"attributes":{"ID":345161,"DIS_CODE":0,"TOWNNAME":"東區","LI":"小東里","LIN":"31鄰","STREET":"東安路","SECT":" ","MAREA":" ","LANE":"２５１巷","ALLEY":" ","HOUSE_NO":"５５號七樓","E_COORD97":170633.57000000001,"N_COORD97":2544106.8900000001,"ADDRESS":"東安路２５１巷５５號七樓","OBJECTID":345152},"geometry":{"x":170633.5700000003,"y":2544106.8900000043}},{"attributes":{"ID":345162,"DIS_CODE":0,"TOWNNAME":"仁德區","LI":"後壁里","LIN":"31鄰","STREET":"德洋路","SECT":" ","MAREA":" ","LANE":"１８０巷","ALLEY":" ","HOUSE_NO":"８號三樓之２","E_COORD97":172561.57999999999,"N_COORD97":2539457.04,"ADDRESS":"德洋路１８０巷８號三樓之２","OBJECTID":345153},"geometry":{"x":172561.58000000101,"y":2539457.040000001}},{"attributes":{"ID":345163,"DIS_CODE":0,"TOWNNAME":"仁德區","LI":"後壁里","LIN":"31鄰","STREET":"德洋路","SECT":" ","MAREA":" ","LANE":"１８０巷","ALLEY":" ","HOUSE_NO":"８號三樓之５","E_COORD97":172561.60000000001,"N_COORD97":2539457.04,"ADDRESS":"德洋路１８０巷８號三樓之５","OBJECTID":345154},"geometry":{"x":172561.59999999963,"y":2539457.040000001}},{"attributes":{"ID":345164,"DIS_CODE":0,"TOWNNAME":"仁德區","LI":"後壁里","LIN":"31鄰","STREET":"德洋路","SECT":" ","MAREA":" ","LANE":"１８０巷","ALLEY":" ","HOUSE_NO":"８號五樓之１","E_COORD97":172561.44,"N_COORD97":2539457.04,"ADDRESS":"德洋路１８０巷８號五樓之１","OBJECTID":345155},"geometry":{"x":172561.44000000134,"y":2539457.040000001}},{"attributes":{"ID":345165,"DIS_CODE":0,"TOWNNAME":"仁德區","LI":"後壁里","LIN":"31鄰","STREET":"德洋路","SECT":" ","MAREA":" ","LANE":"１８０巷","ALLEY":" ","HOUSE_NO":"２８號五樓之１","E_COORD97":172588.32000000001,"N_COORD97":2539547.54,"ADDRESS":"德洋路１８０巷２８號五樓之１","OBJECTID":345156},"geometry":{"x":172588.31999999937,"y":2539547.5399999972}},{"attributes":{"ID":345166,"DIS_CODE":0,"TOWNNAME":"仁德區","LI":"後壁里","LIN":"31鄰","STREET":"德洋路","SECT":" ","MAREA":" ","LANE":"１８０巷","ALLEY":" ","HOUSE_NO":"２８號二樓之１","E_COORD97":172588.32000000001,"N_COORD97":2539547.54,"ADDRESS":"德洋路１８０巷２８號二樓之１","OBJECTID":345157},"geometry":{"x":172588.31999999937,"y":2539547.5399999972}},{"attributes":{"ID":345167,"DIS_CODE":0,"TOWNNAME":"仁德區","LI":"後壁里","LIN":"31鄰","STREET":"德洋路","SECT":" ","MAREA":" ","LANE":"１８０巷","ALLEY":" ","HOUSE_NO":"８號四樓之３之１","E_COORD97":172563.94,"N_COORD97":2539457.04,"ADDRESS":"德洋路１８０巷８號四樓之３之１","OBJECTID":345158},"geometry":{"x":172563.94000000227,"y":2539457.040000001}},{"attributes":{"ID":345168,"DIS_CODE":0,"TOWNNAME":"仁德區","LI":"後壁里","LIN":"31鄰","STREET":"德洋路","SECT":" ","MAREA":" ","LANE":"１８０巷","ALLEY":" ","HOUSE_NO":"２８號六樓之１","E_COORD97":172588.32000000001,"N_COORD97":2539547.54,"ADDRESS":"德洋路１８０巷２８號六樓之１","OBJECTID":345159},"geometry":{"x":172588.31999999937,"y":2539547.5399999972}},{"attributes":{"ID":345169,"DIS_CODE":0,"TOWNNAME":"仁德區","LI":"後壁里","LIN":"31鄰","STREET":"德洋路","SECT":" ","MAREA":" ","LANE":"１８０巷","ALLEY":" ","HOUSE_NO":"２８號三樓之５","E_COORD97":172588.48000000001,"N_COORD97":2539547.54,"ADDRESS":"德洋路１８０巷２８號三樓之５","OBJECTID":345160},"geometry":{"x":172588.48000000045,"y":2539547.5399999972}},{"attributes":{"ID":345170,"DIS_CODE":0,"TOWNNAME":"仁德區","LI":"後壁里","LIN":"31鄰","STREET":"德洋路","SECT":" ","MAREA":" ","LANE":"１８０巷","ALLEY":" ","HOUSE_NO":"８號二樓之４","E_COORD97":172561.47,"N_COORD97":2539457.04,"ADDRESS":"德洋路１８０巷８號二樓之４","OBJECTID":345161},"geometry":{"x":172561.4700000016,"y":2539457.040000001}},{"attributes":{"ID":345171,"DIS_CODE":0,"TOWNNAME":"仁德區","LI":"後壁里","LIN":"31鄰","STREET":"德洋路","SECT":" ","MAREA":" ","LANE":"１８０巷","ALLEY":" ","HOUSE_NO":"２８號六樓之３","E_COORD97":172588.42000000001,"N_COORD97":2539547.54,"ADDRESS":"德洋路１８０巷２８號六樓之３","OBJECTID":345162},"geometry":{"x":172588.41999999993,"y":2539547.5399999972}},{"attributes":{"ID":345172,"DIS_CODE":0,"TOWNNAME":"仁德區","LI":"後壁里","LIN":"31鄰","STREET":"德洋路","SECT":" ","MAREA":" ","LANE":"１８０巷","ALLEY":" ","HOUSE_NO":"２８號五樓之６","E_COORD97":172588.42999999999,"N_COORD97":2539547.54,"ADDRESS":"德洋路１８０巷２８號五樓之６","OBJECTID":345163},"geometry":{"x":172588.4299999997,"y":2539547.5399999972}},{"attributes":{"ID":345173,"DIS_CODE":0,"TOWNNAME":"仁德區","LI":"後壁里","LIN":"31鄰","STREET":"德洋路","SECT":" ","MAREA":" ","LANE":"１８０巷","ALLEY":" ","HOUSE_NO":"２８號三樓之２","E_COORD97":172588.45999999999,"N_COORD97":2539547.54,"ADDRESS":"德洋路１８０巷２８號三樓之２","OBJECTID":345164},"geometry":{"x":172588.45999999996,"y":2539547.5399999972}},{"attributes":{"ID":345174,"DIS_CODE":0,"TOWNNAME":"仁德區","LI":"後壁里","LIN":"31鄰","STREET":"德洋路","SECT":" ","MAREA":" ","LANE":"１８０巷","ALLEY":" ","HOUSE_NO":"８號四樓之３","E_COORD97":172561.54000000001,"N_COORD97":2539457.04,"ADDRESS":"德洋路１８０巷８號四樓之３","OBJECTID":345165},"geometry":{"x":172561.54000000097,"y":2539457.040000001}},{"attributes":{"ID":345175,"DIS_CODE":0,"TOWNNAME":"仁德區","LI":"後壁里","LIN":"31鄰","STREET":"德洋路","SECT":" ","MAREA":" ","LANE":"１８０巷","ALLEY":" ","HOUSE_NO":"８號五樓之２","E_COORD97":172561.57999999999,"N_COORD97":2539457.04,"ADDRESS":"德洋路１８０巷８號五樓之２","OBJECTID":345166},"geometry":{"x":172561.58000000101,"y":2539457.040000001}},{"attributes":{"ID":345176,"DIS_CODE":0,"TOWNNAME":"仁德區","LI":"後壁里","LIN":"31鄰","STREET":"德洋路","SECT":" ","MAREA":" ","LANE":"１８０巷","ALLEY":" ","HOUSE_NO":"２８號二樓之４","E_COORD97":172588.35000000001,"N_COORD97":2539547.54,"ADDRESS":"德洋路１８０巷２８號二樓之４","OBJECTID":345167},"geometry":{"x":172588.35000000056,"y":2539547.5399999972}},{"attributes":{"ID":345177,"DIS_CODE":0,"TOWNNAME":"仁德區","LI":"後壁里","LIN":"31鄰","STREET":"德洋路","SECT":" ","MAREA":" ","LANE":"１８０巷","ALLEY":" ","HOUSE_NO":"８號二樓之２","E_COORD97":172561.57999999999,"N_COORD97":2539457.04,"ADDRESS":"德洋路１８０巷８號二樓之２","OBJECTID":345168},"geometry":{"x":172561.58000000101,"y":2539457.040000001}},{"attributes":{"ID":345178,"DIS_CODE":0,"TOWNNAME":"仁德區","LI":"後壁里","LIN":"31鄰","STREET":"德洋路","SECT":" ","MAREA":" ","LANE":"１８０巷","ALLEY":" ","HOUSE_NO":"８號六樓之５","E_COORD97":172561.60000000001,"N_COORD97":2539457.04,"ADDRESS":"德洋路１８０巷８號六樓之５","OBJECTID":345169},"geometry":{"x":172561.59999999963,"y":2539457.040000001}},{"attributes":{"ID":345179,"DIS_CODE":0,"TOWNNAME":"仁德區","LI":"後壁里","LIN":"31鄰","STREET":"德洋路","SECT":" ","MAREA":" ","LANE":"１８０巷","ALLEY":" ","HOUSE_NO":"２８號五樓之４","E_COORD97":172588.35000000001,"N_COORD97":2539547.54,"ADDRESS":"德洋路１８０巷２８號五樓之４","OBJECTID":345170},"geometry":{"x":172588.35000000056,"y":2539547.5399999972}},{"attributes":{"ID":345180,"DIS_CODE":0,"TOWNNAME":"仁德區","LI":"後壁里","LIN":"31鄰","STREET":"德洋路","SECT":" ","MAREA":" ","LANE":"１８０巷","ALLEY":" ","HOUSE_NO":"８號五樓之６","E_COORD97":172561.54999999999,"N_COORD97":2539457.04,"ADDRESS":"德洋路１８０巷８號五樓之６","OBJECTID":345171},"geometry":{"x":172561.55000000075,"y":2539457.040000001}},{"attributes":{"ID":345181,"DIS_CODE":0,"TOWNNAME":"仁德區","LI":"後壁里","LIN":"31鄰","STREET":"德洋路","SECT":" ","MAREA":" ","LANE":"１８０巷","ALLEY":" ","HOUSE_NO":"８號五樓之５","E_COORD97":172561.60000000001,"N_COORD97":2539457.04,"ADDRESS":"德洋路１８０巷８號五樓之５","OBJECTID":345172},"geometry":{"x":172561.59999999963,"y":2539457.040000001}},{"attributes":{"ID":345182,"DIS_CODE":0,"TOWNNAME":"東區","LI":"虎尾里","LIN":"31鄰","STREET":"自由路","SECT":"三段","MAREA":" ","LANE":" ","ALLEY":" ","HOUSE_NO":"１０號八樓之１","E_COORD97":171835.88,"N_COORD97":2541863.52,"ADDRESS":"自由路三段１０號八樓之１","OBJECTID":345173},"geometry":{"x":171835.87999999989,"y":2541863.5199999996}},{"attributes":{"ID":345183,"DIS_CODE":0,"TOWNNAME":"東區","LI":"虎尾里","LIN":"31鄰","STREET":"自由路","SECT":"三段","MAREA":" ","LANE":" ","ALLEY":" ","HOUSE_NO":"１０號八樓之２","E_COORD97":171835.88,"N_COORD97":2541863.52,"ADDRESS":"自由路三段１０號八樓之２","OBJECTID":345174},"geometry":{"x":171835.87999999989,"y":2541863.5199999996}},{"attributes":{"ID":345184,"DIS_CODE":0,"TOWNNAME":"東區","LI":"虎尾里","LIN":"31鄰","STREET":"自由路","SECT":"三段","MAREA":" ","LANE":" ","ALLEY":" ","HOUSE_NO":"１０號十一樓","E_COORD97":171835.88,"N_COORD97":2541863.52,"ADDRESS":"自由路三段１０號十一樓","OBJECTID":345175},"geometry":{"x":171835.87999999989,"y":2541863.5199999996}},{"attributes":{"ID":345185,"DIS_CODE":0,"TOWNNAME":"東區","LI":"虎尾里","LIN":"31鄰","STREET":"自由路","SECT":"三段","MAREA":" ","LANE":" ","ALLEY":" ","HOUSE_NO":"１０號十一樓之１","E_COORD97":171835.88,"N_COORD97":2541863.52,"ADDRESS":"自由路三段１０號十一樓之１","OBJECTID":345176},"geometry":{"x":171835.87999999989,"y":2541863.5199999996}},{"attributes":{"ID":345186,"DIS_CODE":0,"TOWNNAME":"東區","LI":"虎尾里","LIN":"31鄰","STREET":"自由路","SECT":"三段","MAREA":" ","LANE":" ","ALLEY":" ","HOUSE_NO":"１０號十一樓之２","E_COORD97":171835.88,"N_COORD97":2541863.52,"ADDRESS":"自由路三段１０號十一樓之２","OBJECTID":345177},"geometry":{"x":171835.87999999989,"y":2541863.5199999996}},{"attributes":{"ID":345187,"DIS_CODE":0,"TOWNNAME":"東區","LI":"虎尾里","LIN":"31鄰","STREET":"自由路","SECT":"三段","MAREA":" ","LANE":" ","ALLEY":" ","HOUSE_NO":"１０號十二樓","E_COORD97":171835.88,"N_COORD97":2541863.52,"ADDRESS":"自由路三段１０號十二樓","OBJECTID":345178},"geometry":{"x":171835.87999999989,"y":2541863.5199999996}},{"attributes":{"ID":345188,"DIS_CODE":0,"TOWNNAME":"東區","LI":"虎尾里","LIN":"31鄰","STREET":"自由路","SECT":"三段","MAREA":" ","LANE":" ","ALLEY":" ","HOUSE_NO":"１０號十二樓之１","E_COORD97":171835.88,"N_COORD97":2541863.52,"ADDRESS":"自由路三段１０號十二樓之１","OBJECTID":345179},"geometry":{"x":171835.87999999989,"y":2541863.5199999996}},{"attributes":{"ID":345189,"DIS_CODE":0,"TOWNNAME":"南區","LI":"喜南里","LIN":"5鄰","STREET":"喜樹路","SECT":" ","MAREA":" ","LANE":"３０２巷","ALLEY":" ","HOUSE_NO":"２１號","E_COORD97":165629.45999999999,"N_COORD97":2537798.54,"ADDRESS":"喜樹路３０２巷２１號","OBJECTID":345180},"geometry":{"x":165629.45999999996,"y":2537798.5400000028}},{"attributes":{"ID":345190,"DIS_CODE":0,"TOWNNAME":"南區","LI":"喜南里","LIN":"5鄰","STREET":"喜樹路","SECT":" ","MAREA":" ","LANE":"３０２巷","ALLEY":" ","HOUSE_NO":"２３號","E_COORD97":165640.01999999999,"N_COORD97":2537790.5699999998,"ADDRESS":"喜樹路３０２巷２３號","OBJECTID":345181},"geometry":{"x":165640.02000000048,"y":2537790.5700000022}},{"attributes":{"ID":345191,"DIS_CODE":0,"TOWNNAME":"南區","LI":"喜南里","LIN":"5鄰","STREET":"喜樹路","SECT":" ","MAREA":" ","LANE":"３０２巷","ALLEY":" ","HOUSE_NO":"３１號","E_COORD97":165593.48000000001,"N_COORD97":2537780.6800000002,"ADDRESS":"喜樹路３０２巷３１號","OBJECTID":345182},"geometry":{"x":165593.48000000138,"y":2537780.6799999997}},{"attributes":{"ID":345192,"DIS_CODE":0,"TOWNNAME":"南區","LI":"喜南里","LIN":"5鄰","STREET":"喜樹路","SECT":" ","MAREA":" ","LANE":"３０２巷","ALLEY":" ","HOUSE_NO":"３３號","E_COORD97":165588.17000000001,"N_COORD97":2537774.1800000002,"ADDRESS":"喜樹路３０２巷３３號","OBJECTID":345183},"geometry":{"x":165588.17000000086,"y":2537774.1800000034}},{"attributes":{"ID":345193,"DIS_CODE":0,"TOWNNAME":"南區","LI":"喜南里","LIN":"5鄰","STREET":"喜樹路","SECT":" ","MAREA":" ","LANE":"３０２巷","ALLEY":" ","HOUSE_NO":"３５號","E_COORD97":165578.04000000001,"N_COORD97":2537768.1499999999,"ADDRESS":"喜樹路３０２巷３５號","OBJECTID":345184},"geometry":{"x":165578.04000000004,"y":2537768.1499999985}},{"attributes":{"ID":345194,"DIS_CODE":0,"TOWNNAME":"南區","LI":"喜南里","LIN":"5鄰","STREET":"喜樹路","SECT":" ","MAREA":" ","LANE":"３０２巷","ALLEY":" ","HOUSE_NO":"３６號","E_COORD97":165586.10999999999,"N_COORD97":2537786.6400000001,"ADDRESS":"喜樹路３０２巷３６號","OBJECTID":345185},"geometry":{"x":165586.11000000127,"y":2537786.6400000025}},{"attributes":{"ID":345195,"DIS_CODE":0,"TOWNNAME":"南區","LI":"喜南里","LIN":"5鄰","STREET":"喜樹路","SECT":" ","MAREA":" ","LANE":"３０２巷","ALLEY":" ","HOUSE_NO":"３７號","E_COORD97":165580.92999999999,"N_COORD97":2537765.7400000002,"ADDRESS":"喜樹路３０２巷３７號","OBJECTID":345186},"geometry":{"x":165580.93000000156,"y":2537765.7400000021}},{"attributes":{"ID":345196,"DIS_CODE":0,"TOWNNAME":"南區","LI":"喜南里","LIN":"5鄰","STREET":"喜樹路","SECT":" ","MAREA":" ","LANE":"３０２巷","ALLEY":" ","HOUSE_NO":"３８號","E_COORD97":165579.38,"N_COORD97":2537780.48,"ADDRESS":"喜樹路３０２巷３８號","OBJECTID":345187},"geometry":{"x":165579.37999999989,"y":2537780.4800000023}},{"attributes":{"ID":345197,"DIS_CODE":0,"TOWNNAME":"永康區","LI":"神洲里","LIN":"5鄰","STREET":"忠孝路","SECT":" ","MAREA":" ","LANE":"３８巷","ALLEY":" ","HOUSE_NO":"１３號","E_COORD97":172144.60999999999,"N_COORD97":2544709.6200000001,"ADDRESS":"忠孝路３８巷１３號","OBJECTID":345188},"geometry":{"x":172144.61000000127,"y":2544709.6200000048}},{"attributes":{"ID":345198,"DIS_CODE":0,"TOWNNAME":"東區","LI":"虎尾里","LIN":"31鄰","STREET":"自由路","SECT":"三段","MAREA":" ","LANE":" ","ALLEY":" ","HOUSE_NO":"１０號十二樓之２","E_COORD97":171835.88,"N_COORD97":2541863.52,"ADDRESS":"自由路三段１０號十二樓之２","OBJECTID":345189},"geometry":{"x":171835.87999999989,"y":2541863.5199999996}},{"attributes":{"ID":345199,"DIS_CODE":0,"TOWNNAME":"新化區","LI":"北勢里","LIN":"8鄰","STREET":"永新路","SECT":" ","MAREA":" ","LANE":" ","ALLEY":" ","HOUSE_NO":"４７號四樓之１","E_COORD97":177802.29999999999,"N_COORD97":2550963.2999999998,"ADDRESS":"永新路４７號四樓之１","OBJECTID":345190},"geometry":{"x":177802.29999999981,"y":2550963.3000000045}},{"attributes":{"ID":345200,"DIS_CODE":0,"TOWNNAME":"新化區","LI":"北勢里","LIN":"8鄰","STREET":"永新路","SECT":" ","MAREA":" ","LANE":" ","ALLEY":" ","HOUSE_NO":"４７號四樓之２","E_COORD97":177802.42999999999,"N_COORD97":2550963.2999999998,"ADDRESS":"永新路４７號四樓之２","OBJECTID":345191},"geometry":{"x":177802.4299999997,"y":2550963.3000000045}},{"attributes":{"ID":345201,"DIS_CODE":0,"TOWNNAME":"新化區","LI":"北勢里","LIN":"8鄰","STREET":"永新路","SECT":" ","MAREA":" ","LANE":" ","ALLEY":" ","HOUSE_NO":"４７號六樓之１","E_COORD97":177802.29999999999,"N_COORD97":2550963.2999999998,"ADDRESS":"永新路４７號六樓之１","OBJECTID":345192},"geometry":{"x":177802.29999999981,"y":2550963.3000000045}},{"attributes":{"ID":345202,"DIS_CODE":0,"TOWNNAME":"新化區","LI":"北勢里","LIN":"8鄰","STREET":"永新路","SECT":" ","MAREA":" ","LANE":" ","ALLEY":" ","HOUSE_NO":"４７號四樓之３","E_COORD97":177802.39999999999,"N_COORD97":2550963.2999999998,"ADDRESS":"永新路４７號四樓之３","OBJECTID":345193},"geometry":{"x":177802.40000000224,"y":2550963.3000000045}},{"attributes":{"ID":345203,"DIS_CODE":0,"TOWNNAME":"安南區","LI":"城中里","LIN":"8鄰","STREET":"城西街","SECT":"一段","MAREA":" ","LANE":" ","ALLEY":" ","HOUSE_NO":"２０號三樓","E_COORD97":160771.64999999999,"N_COORD97":2551483.7000000002,"ADDRESS":"城西街一段２０號三樓","OBJECTID":345194},"geometry":{"x":160771.65000000037,"y":2551483.6999999993}},{"attributes":{"ID":345204,"DIS_CODE":0,"TOWNNAME":"東區","LI":"中西里","LIN":"8鄰","STREET":"勝利路","SECT":" ","MAREA":" ","LANE":" ","ALLEY":" ","HOUSE_NO":"２０號之１１二樓","E_COORD97":169867.04000000001,"N_COORD97":2543420.9100000001,"ADDRESS":"勝利路２０號之１１二樓","OBJECTID":345195},"geometry":{"x":169867.04000000004,"y":2543420.9100000001}},{"attributes":{"ID":345205,"DIS_CODE":0,"TOWNNAME":"東區","LI":"中西里","LIN":"8鄰","STREET":"勝利路","SECT":" ","MAREA":" ","LANE":" ","ALLEY":" ","HOUSE_NO":"２０號之１１三樓","E_COORD97":169867.04000000001,"N_COORD97":2543420.9100000001,"ADDRESS":"勝利路２０號之１１三樓","OBJECTID":345196},"geometry":{"x":169867.04000000004,"y":2543420.9100000001}},{"attributes":{"ID":345206,"DIS_CODE":0,"TOWNNAME":"東區","LI":"中西里","LIN":"8鄰","STREET":"勝利路","SECT":" ","MAREA":" ","LANE":" ","ALLEY":" ","HOUSE_NO":"２０號之１２二樓","E_COORD97":169873.47,"N_COORD97":2543423.1099999999,"ADDRESS":"勝利路２０號之１２二樓","OBJECTID":345197},"geometry":{"x":169873.47000000067,"y":2543423.1100000013}},{"attributes":{"ID":345207,"DIS_CODE":0,"TOWNNAME":"東區","LI":"中西里","LIN":"8鄰","STREET":"勝利路","SECT":" ","MAREA":" ","LANE":" ","ALLEY":" ","HOUSE_NO":"２０號之１１四樓","E_COORD97":169867.04000000001,"N_COORD97":2543420.9100000001,"ADDRESS":"勝利路２０號之１１四樓","OBJECTID":345198},"geometry":{"x":169867.04000000004,"y":2543420.9100000001}},{"attributes":{"ID":345208,"DIS_CODE":0,"TOWNNAME":"佳里區","LI":"鎮山里","LIN":"1鄰","STREET":"四安街","SECT":" ","MAREA":" ","LANE":" ","ALLEY":" ","HOUSE_NO":"５３號","E_COORD97":165824.42000000001,"N_COORD97":2561825.8300000001,"ADDRESS":"四安街５３號","OBJECTID":345199},"geometry":{"x":165824.41999999993,"y":2561825.8300000019}},{"attributes":{"ID":345209,"DIS_CODE":0,"TOWNNAME":"永康區","LI":"埔園里","LIN":"5鄰","STREET":"中山路","SECT":" ","MAREA":" ","LANE":"１５８巷","ALLEY":" ","HOUSE_NO":"２６號之１","E_COORD97":173852.34,"N_COORD97":2547837.3300000001,"ADDRESS":"中山路１５８巷２６號之１","OBJECTID":345200},"geometry":{"x":173852.33999999892,"y":2547837.3300000019}}]}