{"displayFieldName":"TOWNNAME","fieldAliases":{"ID":"ID","DIS_CODE":"DIS_CODE","TOWNNAME":"TOWNNAME","LI":"LI","LIN":"LIN","STREET":"STREET","SECT":"SECT","MAREA":"MAREA","LANE":"LANE","ALLEY":"ALLEY","HOUSE_NO":"HOUSE_NO","E_COORD97":"E_COORD97","N_COORD97":"N_COORD97","ADDRESS":"ADDRESS","OBJECTID":"OBJECTID"},"geometryType":"esriGeometryPoint","spatialReference":{"wkid":102443,"latestWkid":3826},"fields":[{"name":"ID","type":"esriFieldTypeDouble","alias":"ID"},{"name":"DIS_CODE","type":"esriFieldTypeInteger","alias":"DIS_CODE"},{"name":"TOWNNAME","type":"esriFieldTypeString","alias":"TOWNNAME","length":8},{"name":"LI","type":"esriFieldTypeString","alias":"LI","length":8},{"name":"LIN","type":"esriFieldTypeString","alias":"LIN","length":12},{"name":"STREET","type":"esriFieldTypeString","alias":"STREET","length":20},{"name":"SECT","type":"esriFieldTypeString","alias":"SECT","length":8},{"name":"MAREA","type":"esriFieldTypeString","alias":"MAREA","length":12},{"name":"LANE","type":"esriFieldTypeString","alias":"LANE","length":10},{"name":"ALLEY","type":"esriFieldTypeString","alias":"ALLEY","length":10},{"name":"HOUSE_NO","type":"esriFieldTypeString","alias":"HOUSE_NO","length":20},{"name":"E_COORD97","type":"esriFieldTypeDouble","alias":"E_COORD97"},{"name":"N_COORD97","type":"esriFieldTypeDouble","alias":"N_COORD97"},{"name":"ADDRESS","type":"esriFieldTypeString","alias":"ADDRESS","length":50},{"name":"OBJECTID","type":"esriFieldTypeOID","alias":"OBJECTID"}],"features":[{"attributes":{"ID":559428,"DIS_CODE":0,"TOWNNAME":"東區","LI":"裕聖里","LIN":"9鄰","STREET":"裕信六街","SECT":" ","MAREA":" ","LANE":" ","ALLEY":" ","HOUSE_NO":"１１號","E_COORD97":172608.97,"N_COORD97":2541952.4100000001,"ADDRESS":"裕信六街１１號","OBJECTID":559401},"geometry":{"x":172608.9700000016,"y":2541952.4100000001}},{"attributes":{"ID":559429,"DIS_CODE":0,"TOWNNAME":"東區","LI":"裕聖里","LIN":"9鄰","STREET":"裕信六街","SECT":" ","MAREA":" ","LANE":" ","ALLEY":" ","HOUSE_NO":"１３號","E_COORD97":172610.75,"N_COORD97":2541959.98,"ADDRESS":"裕信六街１３號","OBJECTID":559402},"geometry":{"x":172610.75000000186,"y":2541959.9800000042}},{"attributes":{"ID":559430,"DIS_CODE":0,"TOWNNAME":"東區","LI":"裕聖里","LIN":"9鄰","STREET":"裕信六街","SECT":" ","MAREA":" ","LANE":" ","ALLEY":" ","HOUSE_NO":"１５號","E_COORD97":172612.35999999999,"N_COORD97":2541967.3900000001,"ADDRESS":"裕信六街１５號","OBJECTID":559403},"geometry":{"x":172612.36000000127,"y":2541967.3899999987}},{"attributes":{"ID":559431,"DIS_CODE":0,"TOWNNAME":"東區","LI":"裕聖里","LIN":"9鄰","STREET":"裕信六街","SECT":" ","MAREA":" ","LANE":" ","ALLEY":" ","HOUSE_NO":"１７號","E_COORD97":172613.81,"N_COORD97":2541974.48,"ADDRESS":"裕信六街１７號","OBJECTID":559404},"geometry":{"x":172613.81000000052,"y":2541974.4800000023}},{"attributes":{"ID":559432,"DIS_CODE":0,"TOWNNAME":"東區","LI":"裕聖里","LIN":"9鄰","STREET":"裕信六街","SECT":" ","MAREA":" ","LANE":" ","ALLEY":" ","HOUSE_NO":"１９號","E_COORD97":172616.23000000001,"N_COORD97":2541980.77,"ADDRESS":"裕信六街１９號","OBJECTID":559405},"geometry":{"x":172616.22999999952,"y":2541980.7699999977}},{"attributes":{"ID":559433,"DIS_CODE":0,"TOWNNAME":"東區","LI":"裕聖里","LIN":"9鄰","STREET":"裕信六街","SECT":" ","MAREA":" ","LANE":" ","ALLEY":" ","HOUSE_NO":"１號","E_COORD97":172599.59,"N_COORD97":2541908.6299999999,"ADDRESS":"裕信六街１號","OBJECTID":559406},"geometry":{"x":172599.58999999892,"y":2541908.629999999}},{"attributes":{"ID":559434,"DIS_CODE":0,"TOWNNAME":"東區","LI":"裕聖里","LIN":"9鄰","STREET":"裕信六街","SECT":" ","MAREA":" ","LANE":" ","ALLEY":" ","HOUSE_NO":"３號","E_COORD97":172601.67999999999,"N_COORD97":2541917.4399999999,"ADDRESS":"裕信六街３號","OBJECTID":559407},"geometry":{"x":172601.6799999997,"y":2541917.4399999995}},{"attributes":{"ID":559435,"DIS_CODE":0,"TOWNNAME":"東區","LI":"裕聖里","LIN":"9鄰","STREET":"裕信六街","SECT":" ","MAREA":" ","LANE":" ","ALLEY":" ","HOUSE_NO":"５號","E_COORD97":172602.53,"N_COORD97":2541927.4300000002,"ADDRESS":"裕信六街５號","OBJECTID":559408},"geometry":{"x":172602.53000000119,"y":2541927.4300000016}},{"attributes":{"ID":559436,"DIS_CODE":0,"TOWNNAME":"東區","LI":"裕聖里","LIN":"9鄰","STREET":"裕信六街","SECT":" ","MAREA":" ","LANE":" ","ALLEY":" ","HOUSE_NO":"７號","E_COORD97":172604.76000000001,"N_COORD97":2541935.46,"ADDRESS":"裕信六街７號","OBJECTID":559409},"geometry":{"x":172604.75999999978,"y":2541935.4600000009}},{"attributes":{"ID":559437,"DIS_CODE":0,"TOWNNAME":"東區","LI":"裕聖里","LIN":"9鄰","STREET":"裕信六街","SECT":" ","MAREA":" ","LANE":" ","ALLEY":" ","HOUSE_NO":"９號","E_COORD97":172607.35999999999,"N_COORD97":2541944.3500000001,"ADDRESS":"裕信六街９號","OBJECTID":559410},"geometry":{"x":172607.36000000127,"y":2541944.3500000015}},{"attributes":{"ID":559438,"DIS_CODE":0,"TOWNNAME":"永康區","LI":"尚頂里","LIN":"8鄰","STREET":"中正二街","SECT":" ","MAREA":" ","LANE":" ","ALLEY":" ","HOUSE_NO":"５０號","E_COORD97":170967.67999999999,"N_COORD97":2547423.4500000002,"ADDRESS":"中正二街５０號","OBJECTID":559411},"geometry":{"x":170967.6799999997,"y":2547423.4499999993}},{"attributes":{"ID":559439,"DIS_CODE":0,"TOWNNAME":"永康區","LI":"西橋里","LIN":"24鄰","STREET":"大橋三街","SECT":" ","MAREA":" ","LANE":" ","ALLEY":" ","HOUSE_NO":"６１號","E_COORD97":170601.51000000001,"N_COORD97":2546533.25,"ADDRESS":"大橋三街６１號","OBJECTID":559412},"geometry":{"x":170601.51000000164,"y":2546533.25}},{"attributes":{"ID":559440,"DIS_CODE":0,"TOWNNAME":"麻豆區","LI":"東角里","LIN":"9鄰","STREET":"興中路","SECT":" ","MAREA":" ","LANE":" ","ALLEY":" ","HOUSE_NO":"２０５號之１２","E_COORD97":173757.29000000001,"N_COORD97":2564843.5699999998,"ADDRESS":"興中路２０５號之１２","OBJECTID":559413},"geometry":{"x":173757.29000000004,"y":2564843.5700000003}},{"attributes":{"ID":559441,"DIS_CODE":0,"TOWNNAME":"麻豆區","LI":"東角里","LIN":"9鄰","STREET":"興中路","SECT":" ","MAREA":" ","LANE":" ","ALLEY":" ","HOUSE_NO":"２０５號之１","E_COORD97":173703.17999999999,"N_COORD97":2564833.48,"ADDRESS":"興中路２０５號之１","OBJECTID":559414},"geometry":{"x":173703.18000000063,"y":2564833.4800000004}},{"attributes":{"ID":559442,"DIS_CODE":0,"TOWNNAME":"永康區","LI":"西灣里","LIN":"42鄰","STREET":"國光六街","SECT":" ","MAREA":" ","LANE":" ","ALLEY":" ","HOUSE_NO":"９２號","E_COORD97":174025.45000000001,"N_COORD97":2545359.1099999999,"ADDRESS":"國光六街９２號","OBJECTID":559415},"geometry":{"x":174025.45000000112,"y":2545359.1100000013}},{"attributes":{"ID":559443,"DIS_CODE":0,"TOWNNAME":"麻豆區","LI":"東角里","LIN":"9鄰","STREET":"興中路","SECT":" ","MAREA":" ","LANE":" ","ALLEY":" ","HOUSE_NO":"２０５號之２","E_COORD97":173713.70999999999,"N_COORD97":2564833.3900000001,"ADDRESS":"興中路２０５號之２","OBJECTID":559416},"geometry":{"x":173713.70999999996,"y":2564833.3900000025}},{"attributes":{"ID":559444,"DIS_CODE":0,"TOWNNAME":"麻豆區","LI":"東角里","LIN":"9鄰","STREET":"興中路","SECT":" ","MAREA":" ","LANE":" ","ALLEY":" ","HOUSE_NO":"２０５號之３","E_COORD97":173717.60000000001,"N_COORD97":2564833.8500000001,"ADDRESS":"興中路２０５號之３","OBJECTID":559417},"geometry":{"x":173717.59999999963,"y":2564833.8499999996}},{"attributes":{"ID":559445,"DIS_CODE":0,"TOWNNAME":"麻豆區","LI":"東角里","LIN":"9鄰","STREET":"興中路","SECT":" ","MAREA":" ","LANE":" ","ALLEY":" ","HOUSE_NO":"２０５號之４","E_COORD97":173721.79000000001,"N_COORD97":2564834.3399999999,"ADDRESS":"興中路２０５號之４","OBJECTID":559418},"geometry":{"x":173721.79000000004,"y":2564834.3399999999}},{"attributes":{"ID":559446,"DIS_CODE":0,"TOWNNAME":"麻豆區","LI":"東角里","LIN":"9鄰","STREET":"興中路","SECT":" ","MAREA":" ","LANE":" ","ALLEY":" ","HOUSE_NO":"２０５號之５","E_COORD97":173726.53,"N_COORD97":2564834.73,"ADDRESS":"興中路２０５號之５","OBJECTID":559419},"geometry":{"x":173726.53000000119,"y":2564834.7300000023}},{"attributes":{"ID":559447,"DIS_CODE":0,"TOWNNAME":"麻豆區","LI":"東角里","LIN":"9鄰","STREET":"興中路","SECT":" ","MAREA":" ","LANE":" ","ALLEY":" ","HOUSE_NO":"２０５號之６","E_COORD97":173730.89999999999,"N_COORD97":2564835.4700000002,"ADDRESS":"興中路２０５號之６","OBJECTID":559420},"geometry":{"x":173730.9000000013,"y":2564835.4700000044}},{"attributes":{"ID":559448,"DIS_CODE":0,"TOWNNAME":"麻豆區","LI":"東角里","LIN":"9鄰","STREET":"興中路","SECT":" ","MAREA":" ","LANE":" ","ALLEY":" ","HOUSE_NO":"２０５號之７","E_COORD97":173734.63,"N_COORD97":2564836.1000000001,"ADDRESS":"興中路２０５號之７","OBJECTID":559421},"geometry":{"x":173734.62999999989,"y":2564836.0999999996}},{"attributes":{"ID":559449,"DIS_CODE":0,"TOWNNAME":"麻豆區","LI":"東角里","LIN":"9鄰","STREET":"興中路","SECT":" ","MAREA":" ","LANE":" ","ALLEY":" ","HOUSE_NO":"２０５號之８","E_COORD97":173739.5,"N_COORD97":2564837.3100000001,"ADDRESS":"興中路２０５號之８","OBJECTID":559422},"geometry":{"x":173739.49999999907,"y":2564837.3100000024}},{"attributes":{"ID":559450,"DIS_CODE":0,"TOWNNAME":"麻豆區","LI":"東角里","LIN":"9鄰","STREET":"興中路","SECT":" ","MAREA":" ","LANE":" ","ALLEY":" ","HOUSE_NO":"２０５號之９","E_COORD97":173744.35999999999,"N_COORD97":2564838.4100000001,"ADDRESS":"興中路２０５號之９","OBJECTID":559423},"geometry":{"x":173744.3600000022,"y":2564838.4099999983}},{"attributes":{"ID":559451,"DIS_CODE":0,"TOWNNAME":"麻豆區","LI":"東角里","LIN":"9鄰","STREET":"興中路","SECT":" ","MAREA":" ","LANE":" ","ALLEY":" ","HOUSE_NO":"２０９號","E_COORD97":173800.64000000001,"N_COORD97":2564828.5,"ADDRESS":"興中路２０９號","OBJECTID":559424},"geometry":{"x":173800.63999999966,"y":2564828.5000000019}},{"attributes":{"ID":559452,"DIS_CODE":0,"TOWNNAME":"麻豆區","LI":"東角里","LIN":"9鄰","STREET":"興中路","SECT":" ","MAREA":" ","LANE":" ","ALLEY":" ","HOUSE_NO":"２１１號之１","E_COORD97":173885.84,"N_COORD97":2564830.3100000001,"ADDRESS":"興中路２１１號之１","OBJECTID":559425},"geometry":{"x":173885.83999999985,"y":2564830.3100000024}},{"attributes":{"ID":559453,"DIS_CODE":0,"TOWNNAME":"麻豆區","LI":"東角里","LIN":"9鄰","STREET":"興中路","SECT":" ","MAREA":" ","LANE":" ","ALLEY":" ","HOUSE_NO":"２１１號之２","E_COORD97":173890.39999999999,"N_COORD97":2564831.3799999999,"ADDRESS":"興中路２１１號之２","OBJECTID":559426},"geometry":{"x":173890.4000000013,"y":2564831.3800000008}},{"attributes":{"ID":559454,"DIS_CODE":0,"TOWNNAME":"麻豆區","LI":"東角里","LIN":"9鄰","STREET":"興中路","SECT":" ","MAREA":" ","LANE":" ","ALLEY":" ","HOUSE_NO":"２１１號之３","E_COORD97":173894.66,"N_COORD97":2564832.29,"ADDRESS":"興中路２１１號之３","OBJECTID":559427},"geometry":{"x":173894.66000000201,"y":2564832.290000001}},{"attributes":{"ID":559455,"DIS_CODE":0,"TOWNNAME":"麻豆區","LI":"東角里","LIN":"9鄰","STREET":"興中路","SECT":" ","MAREA":" ","LANE":" ","ALLEY":" ","HOUSE_NO":"２１１號之４","E_COORD97":173898.42999999999,"N_COORD97":2564832.6699999999,"ADDRESS":"興中路２１１號之４","OBJECTID":559428},"geometry":{"x":173898.4299999997,"y":2564832.6699999999}},{"attributes":{"ID":559456,"DIS_CODE":0,"TOWNNAME":"麻豆區","LI":"東角里","LIN":"9鄰","STREET":"興中路","SECT":" ","MAREA":" ","LANE":" ","ALLEY":" ","HOUSE_NO":"２１１號之５","E_COORD97":173903.67000000001,"N_COORD97":2564833.7999999998,"ADDRESS":"興中路２１１號之５","OBJECTID":559429},"geometry":{"x":173903.66999999993,"y":2564833.8000000026}},{"attributes":{"ID":559457,"DIS_CODE":0,"TOWNNAME":"麻豆區","LI":"東角里","LIN":"9鄰","STREET":"興中路","SECT":" ","MAREA":" ","LANE":" ","ALLEY":" ","HOUSE_NO":"２１１號之９","E_COORD97":173916.26000000001,"N_COORD97":2564832.9900000002,"ADDRESS":"興中路２１１號之９","OBJECTID":559430},"geometry":{"x":173916.26000000071,"y":2564832.9900000021}},{"attributes":{"ID":559458,"DIS_CODE":0,"TOWNNAME":"麻豆區","LI":"東角里","LIN":"9鄰","STREET":"興中路","SECT":" ","MAREA":" ","LANE":" ","ALLEY":" ","HOUSE_NO":"２１５號之１","E_COORD97":173926.95000000001,"N_COORD97":2564832.8199999998,"ADDRESS":"興中路２１５號之１","OBJECTID":559431},"geometry":{"x":173926.95000000112,"y":2564832.8200000022}},{"attributes":{"ID":559459,"DIS_CODE":0,"TOWNNAME":"麻豆區","LI":"東角里","LIN":"9鄰","STREET":"興中路","SECT":" ","MAREA":" ","LANE":" ","ALLEY":" ","HOUSE_NO":"２１５號之２","E_COORD97":173931.45000000001,"N_COORD97":2564833.23,"ADDRESS":"興中路２１５號之２","OBJECTID":559432},"geometry":{"x":173931.45000000019,"y":2564833.2300000042}},{"attributes":{"ID":559460,"DIS_CODE":0,"TOWNNAME":"麻豆區","LI":"東角里","LIN":"9鄰","STREET":"興中路","SECT":" ","MAREA":" ","LANE":" ","ALLEY":" ","HOUSE_NO":"２１５號之３","E_COORD97":173936.09,"N_COORD97":2564833.4900000002,"ADDRESS":"興中路２１５號之３","OBJECTID":559433},"geometry":{"x":173936.09000000078,"y":2564833.4900000002}},{"attributes":{"ID":559461,"DIS_CODE":0,"TOWNNAME":"麻豆區","LI":"東角里","LIN":"9鄰","STREET":"興中路","SECT":" ","MAREA":" ","LANE":" ","ALLEY":" ","HOUSE_NO":"２１５號之５","E_COORD97":173926.42999999999,"N_COORD97":2564843.4900000002,"ADDRESS":"興中路２１５號之５","OBJECTID":559434},"geometry":{"x":173926.43000000063,"y":2564843.4900000002}},{"attributes":{"ID":559462,"DIS_CODE":0,"TOWNNAME":"麻豆區","LI":"東角里","LIN":"9鄰","STREET":"興中路","SECT":" ","MAREA":" ","LANE":" ","ALLEY":" ","HOUSE_NO":"２１５號之６","E_COORD97":173926.51000000001,"N_COORD97":2564847.6200000001,"ADDRESS":"興中路２１５號之６","OBJECTID":559435},"geometry":{"x":173926.51000000071,"y":2564847.620000001}},{"attributes":{"ID":559463,"DIS_CODE":0,"TOWNNAME":"麻豆區","LI":"東角里","LIN":"9鄰","STREET":"興中路","SECT":" ","MAREA":" ","LANE":" ","ALLEY":" ","HOUSE_NO":"２１５號之７","E_COORD97":173926.82000000001,"N_COORD97":2564852.3500000001,"ADDRESS":"興中路２１５號之７","OBJECTID":559436},"geometry":{"x":173926.8200000003,"y":2564852.3500000015}},{"attributes":{"ID":559464,"DIS_CODE":0,"TOWNNAME":"麻豆區","LI":"東角里","LIN":"9鄰","STREET":"興中路","SECT":" ","MAREA":" ","LANE":" ","ALLEY":" ","HOUSE_NO":"２１５號","E_COORD97":173922.78,"N_COORD97":2564832.9500000002,"ADDRESS":"興中路２１５號","OBJECTID":559437},"geometry":{"x":173922.78000000212,"y":2564832.9499999993}},{"attributes":{"ID":559465,"DIS_CODE":0,"TOWNNAME":"麻豆區","LI":"東角里","LIN":"9鄰","STREET":"興中路","SECT":" ","MAREA":" ","LANE":" ","ALLEY":" ","HOUSE_NO":"２１７號之１","E_COORD97":173949.56,"N_COORD97":2564832.2200000002,"ADDRESS":"興中路２１７號之１","OBJECTID":559438},"geometry":{"x":173949.56000000052,"y":2564832.2200000007}},{"attributes":{"ID":559466,"DIS_CODE":0,"TOWNNAME":"永康區","LI":"尚頂里","LIN":"25鄰","STREET":"南台街","SECT":" ","MAREA":" ","LANE":" ","ALLEY":" ","HOUSE_NO":"１８６號","E_COORD97":170030.72,"N_COORD97":2547052.6899999999,"ADDRESS":"南台街１８６號","OBJECTID":559439},"geometry":{"x":170030.72000000067,"y":2547052.6899999995}},{"attributes":{"ID":559467,"DIS_CODE":0,"TOWNNAME":"麻豆區","LI":"東角里","LIN":"9鄰","STREET":"興中路","SECT":" ","MAREA":" ","LANE":" ","ALLEY":" ","HOUSE_NO":"２１７號之７","E_COORD97":173947.22,"N_COORD97":2564851.7999999998,"ADDRESS":"興中路２１７號之７","OBJECTID":559440},"geometry":{"x":173947.21999999974,"y":2564851.8000000007}},{"attributes":{"ID":559468,"DIS_CODE":0,"TOWNNAME":"麻豆區","LI":"東角里","LIN":"9鄰","STREET":"興中路","SECT":" ","MAREA":" ","LANE":" ","ALLEY":" ","HOUSE_NO":"２１７號之８","E_COORD97":173947.14000000001,"N_COORD97":2564856.6899999999,"ADDRESS":"興中路２１７號之８","OBJECTID":559441},"geometry":{"x":173947.1400000006,"y":2564856.6900000013}},{"attributes":{"ID":559469,"DIS_CODE":0,"TOWNNAME":"麻豆區","LI":"東角里","LIN":"9鄰","STREET":"興中路","SECT":" ","MAREA":" ","LANE":" ","ALLEY":" ","HOUSE_NO":"２１７號","E_COORD97":173945.17000000001,"N_COORD97":2564832.4500000002,"ADDRESS":"興中路２１７號","OBJECTID":559442},"geometry":{"x":173945.17000000179,"y":2564832.4499999993}},{"attributes":{"ID":559470,"DIS_CODE":0,"TOWNNAME":"麻豆區","LI":"東角里","LIN":"9鄰","STREET":"興中路","SECT":" ","MAREA":" ","LANE":" ","ALLEY":" ","HOUSE_NO":"２１９號","E_COORD97":173971.09,"N_COORD97":2564844.2999999998,"ADDRESS":"興中路２１９號","OBJECTID":559443},"geometry":{"x":173971.09000000171,"y":2564844.3000000026}},{"attributes":{"ID":559471,"DIS_CODE":0,"TOWNNAME":"麻豆區","LI":"東角里","LIN":"9鄰","STREET":"興中路","SECT":" ","MAREA":" ","LANE":" ","ALLEY":" ","HOUSE_NO":"２２１號","E_COORD97":174006.62,"N_COORD97":2564833.5600000001,"ADDRESS":"興中路２２１號","OBJECTID":559444},"geometry":{"x":174006.62000000011,"y":2564833.5600000005}},{"attributes":{"ID":559472,"DIS_CODE":0,"TOWNNAME":"麻豆區","LI":"東角里","LIN":"9鄰","STREET":"興中路","SECT":" ","MAREA":" ","LANE":" ","ALLEY":" ","HOUSE_NO":"２２５號之１","E_COORD97":173999.81,"N_COORD97":2564898.48,"ADDRESS":"興中路２２５號之１","OBJECTID":559445},"geometry":{"x":173999.81000000145,"y":2564898.4800000004}},{"attributes":{"ID":559473,"DIS_CODE":0,"TOWNNAME":"麻豆區","LI":"東角里","LIN":"9鄰","STREET":"興中路","SECT":" ","MAREA":" ","LANE":" ","ALLEY":" ","HOUSE_NO":"２２５號之２","E_COORD97":174002.13,"N_COORD97":2564893.8500000001,"ADDRESS":"興中路２２５號之２","OBJECTID":559446},"geometry":{"x":174002.13000000082,"y":2564893.8500000015}},{"attributes":{"ID":559474,"DIS_CODE":0,"TOWNNAME":"麻豆區","LI":"東角里","LIN":"9鄰","STREET":"興中路","SECT":" ","MAREA":" ","LANE":" ","ALLEY":" ","HOUSE_NO":"２２５號之３","E_COORD97":174010.04000000001,"N_COORD97":2564891.7999999998,"ADDRESS":"興中路２２５號之３","OBJECTID":559447},"geometry":{"x":174010.04000000004,"y":2564891.8000000026}},{"attributes":{"ID":559475,"DIS_CODE":0,"TOWNNAME":"麻豆區","LI":"東角里","LIN":"9鄰","STREET":"興中路","SECT":" ","MAREA":" ","LANE":" ","ALLEY":" ","HOUSE_NO":"２２５號之５","E_COORD97":174025.92999999999,"N_COORD97":2564903.79,"ADDRESS":"興中路２２５號之５","OBJECTID":559448},"geometry":{"x":174025.9299999997,"y":2564903.790000001}},{"attributes":{"ID":559476,"DIS_CODE":0,"TOWNNAME":"麻豆區","LI":"東角里","LIN":"9鄰","STREET":"興中路","SECT":" ","MAREA":" ","LANE":" ","ALLEY":" ","HOUSE_NO":"２２５號之６","E_COORD97":174028.82000000001,"N_COORD97":2564898.1400000001,"ADDRESS":"興中路２２５號之６","OBJECTID":559449},"geometry":{"x":174028.8200000003,"y":2564898.1400000006}},{"attributes":{"ID":559477,"DIS_CODE":0,"TOWNNAME":"麻豆區","LI":"東角里","LIN":"9鄰","STREET":"興中路","SECT":" ","MAREA":" ","LANE":" ","ALLEY":" ","HOUSE_NO":"２２５號","E_COORD97":174051.03,"N_COORD97":2564888.7799999998,"ADDRESS":"興中路２２５號","OBJECTID":559450},"geometry":{"x":174051.03000000026,"y":2564888.7799999993}},{"attributes":{"ID":559478,"DIS_CODE":0,"TOWNNAME":"麻豆區","LI":"東角里","LIN":"9鄰","STREET":"興中路","SECT":" ","MAREA":" ","LANE":" ","ALLEY":" ","HOUSE_NO":"２２９號之１","E_COORD97":174040.19,"N_COORD97":2564853.52,"ADDRESS":"興中路２２９號之１","OBJECTID":559451},"geometry":{"x":174040.19000000041,"y":2564853.5199999996}},{"attributes":{"ID":559479,"DIS_CODE":0,"TOWNNAME":"麻豆區","LI":"東角里","LIN":"9鄰","STREET":"興中路","SECT":" ","MAREA":" ","LANE":" ","ALLEY":" ","HOUSE_NO":"２２９號之２","E_COORD97":174038.87,"N_COORD97":2564859.7999999998,"ADDRESS":"興中路２２９號之２","OBJECTID":559452},"geometry":{"x":174038.86999999918,"y":2564859.8000000007}},{"attributes":{"ID":559480,"DIS_CODE":0,"TOWNNAME":"麻豆區","LI":"東角里","LIN":"9鄰","STREET":"興中路","SECT":" ","MAREA":" ","LANE":" ","ALLEY":" ","HOUSE_NO":"２２９號之３","E_COORD97":174056.95000000001,"N_COORD97":2564864.7400000002,"ADDRESS":"興中路２２９號之３","OBJECTID":559453},"geometry":{"x":174056.95000000019,"y":2564864.7400000021}},{"attributes":{"ID":559481,"DIS_CODE":0,"TOWNNAME":"麻豆區","LI":"東角里","LIN":"9鄰","STREET":"興中路","SECT":" ","MAREA":" ","LANE":" ","ALLEY":" ","HOUSE_NO":"２２９號之５","E_COORD97":174066.76000000001,"N_COORD97":2564864.7400000002,"ADDRESS":"興中路２２９號之５","OBJECTID":559454},"geometry":{"x":174066.76000000071,"y":2564864.7400000021}},{"attributes":{"ID":559482,"DIS_CODE":0,"TOWNNAME":"麻豆區","LI":"東角里","LIN":"9鄰","STREET":"興中路","SECT":" ","MAREA":" ","LANE":" ","ALLEY":" ","HOUSE_NO":"２３３號","E_COORD97":174079.64999999999,"N_COORD97":2564825.1200000001,"ADDRESS":"興中路２３３號","OBJECTID":559455},"geometry":{"x":174079.64999999944,"y":2564825.1200000029}},{"attributes":{"ID":559483,"DIS_CODE":0,"TOWNNAME":"麻豆區","LI":"東角里","LIN":"9鄰","STREET":"興中路","SECT":" ","MAREA":" ","LANE":" ","ALLEY":" ","HOUSE_NO":"２３５號","E_COORD97":174087.69,"N_COORD97":2564824.52,"ADDRESS":"興中路２３５號","OBJECTID":559456},"geometry":{"x":174087.69000000041,"y":2564824.5200000014}},{"attributes":{"ID":559484,"DIS_CODE":0,"TOWNNAME":"麻豆區","LI":"東角里","LIN":"9鄰","STREET":"興中路","SECT":" ","MAREA":" ","LANE":" ","ALLEY":" ","HOUSE_NO":"２４１號","E_COORD97":174111.82000000001,"N_COORD97":2564824.4900000002,"ADDRESS":"興中路２４１號","OBJECTID":559457},"geometry":{"x":174111.8200000003,"y":2564824.4900000039}},{"attributes":{"ID":559485,"DIS_CODE":0,"TOWNNAME":"麻豆區","LI":"東角里","LIN":"9鄰","STREET":"興中路","SECT":" ","MAREA":" ","LANE":" ","ALLEY":" ","HOUSE_NO":"２４３號","E_COORD97":174117.38,"N_COORD97":2564824.6800000002,"ADDRESS":"興中路２４３號","OBJECTID":559458},"geometry":{"x":174117.38000000082,"y":2564824.6799999997}},{"attributes":{"ID":559486,"DIS_CODE":0,"TOWNNAME":"麻豆區","LI":"東角里","LIN":"9鄰","STREET":"興中路","SECT":" ","MAREA":" ","LANE":" ","ALLEY":" ","HOUSE_NO":"２４５號","E_COORD97":174121.97,"N_COORD97":2564824.7599999998,"ADDRESS":"興中路２４５號","OBJECTID":559459},"geometry":{"x":174121.96999999974,"y":2564824.7599999998}},{"attributes":{"ID":559487,"DIS_CODE":0,"TOWNNAME":"麻豆區","LI":"東角里","LIN":"9鄰","STREET":"興中路","SECT":" ","MAREA":" ","LANE":" ","ALLEY":" ","HOUSE_NO":"２５７號","E_COORD97":174149.63,"N_COORD97":2564823.3199999998,"ADDRESS":"興中路２５７號","OBJECTID":559460},"geometry":{"x":174149.63000000082,"y":2564823.3200000022}},{"attributes":{"ID":559488,"DIS_CODE":0,"TOWNNAME":"麻豆區","LI":"東角里","LIN":"9鄰","STREET":"興中路","SECT":" ","MAREA":" ","LANE":" ","ALLEY":" ","HOUSE_NO":"２６１號","E_COORD97":174160.62,"N_COORD97":2564823.25,"ADDRESS":"興中路２６１號","OBJECTID":559461},"geometry":{"x":174160.62000000011,"y":2564823.2500000019}},{"attributes":{"ID":559489,"DIS_CODE":0,"TOWNNAME":"麻豆區","LI":"東角里","LIN":"9鄰","STREET":"興中路","SECT":" ","MAREA":" ","LANE":" ","ALLEY":" ","HOUSE_NO":"２６３號","E_COORD97":174166.10999999999,"N_COORD97":2564823.21,"ADDRESS":"興中路２６３號","OBJECTID":559462},"geometry":{"x":174166.11000000034,"y":2564823.2100000009}},{"attributes":{"ID":559490,"DIS_CODE":0,"TOWNNAME":"永康區","LI":"尚頂里","LIN":"5鄰","STREET":"正南一街","SECT":" ","MAREA":" ","LANE":" ","ALLEY":" ","HOUSE_NO":"１４７號","E_COORD97":170778.45000000001,"N_COORD97":2547266.79,"ADDRESS":"正南一街１４７號","OBJECTID":559463},"geometry":{"x":170778.45000000019,"y":2547266.790000001}},{"attributes":{"ID":559491,"DIS_CODE":0,"TOWNNAME":"麻豆區","LI":"東角里","LIN":"9鄰","STREET":"興中路","SECT":" ","MAREA":" ","LANE":" ","ALLEY":" ","HOUSE_NO":"２６５號","E_COORD97":174171.60000000001,"N_COORD97":2564823.1699999999,"ADDRESS":"興中路２６５號","OBJECTID":559464},"geometry":{"x":174171.60000000056,"y":2564823.1700000037}},{"attributes":{"ID":559492,"DIS_CODE":0,"TOWNNAME":"麻豆區","LI":"東角里","LIN":"9鄰","STREET":"興中路","SECT":" ","MAREA":" ","LANE":" ","ALLEY":" ","HOUSE_NO":"２６７號","E_COORD97":174177.09,"N_COORD97":2564823.1400000001,"ADDRESS":"興中路２６７號","OBJECTID":559465},"geometry":{"x":174177.08999999985,"y":2564823.1400000006}},{"attributes":{"ID":559493,"DIS_CODE":0,"TOWNNAME":"永康區","LI":"尚頂里","LIN":"5鄰","STREET":"\u25A0信街","SECT":" ","MAREA":" ","LANE":" ","ALLEY":" ","HOUSE_NO":"６２號","E_COORD97":170875.75,"N_COORD97":2547498.6299999999,"ADDRESS":"\u25A0信街６２號","OBJECTID":559466},"geometry":{"x":170875.75,"y":2547498.6300000008}},{"attributes":{"ID":559494,"DIS_CODE":0,"TOWNNAME":"永康區","LI":"西橋里","LIN":"18鄰","STREET":"大橋三街","SECT":" ","MAREA":" ","LANE":" ","ALLEY":" ","HOUSE_NO":"５２號","E_COORD97":170586.42999999999,"N_COORD97":2546487.7400000002,"ADDRESS":"大橋三街５２號","OBJECTID":559467},"geometry":{"x":170586.4299999997,"y":2546487.7400000039}},{"attributes":{"ID":559495,"DIS_CODE":0,"TOWNNAME":"永康區","LI":"西灣里","LIN":"48鄰","STREET":"永華路","SECT":" ","MAREA":" ","LANE":" ","ALLEY":" ","HOUSE_NO":"２６９號","E_COORD97":174056.23999999999,"N_COORD97":2545811.1299999999,"ADDRESS":"永華路２６９號","OBJECTID":559468},"geometry":{"x":174056.24000000022,"y":2545811.129999999}},{"attributes":{"ID":559496,"DIS_CODE":0,"TOWNNAME":"下營區","LI":"下營里","LIN":"9鄰","STREET":"中山路","SECT":"一段","MAREA":" ","LANE":" ","ALLEY":" ","HOUSE_NO":"１３號","E_COORD97":174421.23000000001,"N_COORD97":2570493.27,"ADDRESS":"中山路一段１３號","OBJECTID":559469},"geometry":{"x":174421.23000000045,"y":2570493.2699999996}},{"attributes":{"ID":559497,"DIS_CODE":0,"TOWNNAME":"下營區","LI":"下營里","LIN":"9鄰","STREET":"中山路","SECT":"一段","MAREA":" ","LANE":" ","ALLEY":" ","HOUSE_NO":"１５號","E_COORD97":174425.54999999999,"N_COORD97":2570494.21,"ADDRESS":"中山路一段１５號","OBJECTID":559470},"geometry":{"x":174425.54999999888,"y":2570494.2100000009}},{"attributes":{"ID":559498,"DIS_CODE":0,"TOWNNAME":"下營區","LI":"下營里","LIN":"9鄰","STREET":"中山路","SECT":"一段","MAREA":" ","LANE":" ","ALLEY":" ","HOUSE_NO":"１７號","E_COORD97":174429.20000000001,"N_COORD97":2570495.3500000001,"ADDRESS":"中山路一段１７號","OBJECTID":559471},"geometry":{"x":174429.20000000112,"y":2570495.3499999996}},{"attributes":{"ID":559499,"DIS_CODE":0,"TOWNNAME":"下營區","LI":"下營里","LIN":"9鄰","STREET":"中山路","SECT":"一段","MAREA":" ","LANE":" ","ALLEY":" ","HOUSE_NO":"１９號","E_COORD97":174433.17999999999,"N_COORD97":2570496.5099999998,"ADDRESS":"中山路一段１９號","OBJECTID":559472},"geometry":{"x":174433.18000000156,"y":2570496.5100000016}},{"attributes":{"ID":559500,"DIS_CODE":0,"TOWNNAME":"下營區","LI":"下營里","LIN":"9鄰","STREET":"中山路","SECT":"一段","MAREA":" ","LANE":" ","ALLEY":" ","HOUSE_NO":"２１號","E_COORD97":174437.10999999999,"N_COORD97":2570497.5699999998,"ADDRESS":"中山路一段２１號","OBJECTID":559473},"geometry":{"x":174437.11000000034,"y":2570497.5700000022}},{"attributes":{"ID":559501,"DIS_CODE":0,"TOWNNAME":"下營區","LI":"下營里","LIN":"9鄰","STREET":"中山路","SECT":"一段","MAREA":" ","LANE":" ","ALLEY":" ","HOUSE_NO":"２３號","E_COORD97":174441.32999999999,"N_COORD97":2570498.7999999998,"ADDRESS":"中山路一段２３號","OBJECTID":559474},"geometry":{"x":174441.33000000101,"y":2570498.8000000026}},{"attributes":{"ID":559502,"DIS_CODE":0,"TOWNNAME":"下營區","LI":"下營里","LIN":"9鄰","STREET":"中山路","SECT":"一段","MAREA":" ","LANE":" ","ALLEY":" ","HOUSE_NO":"２５號","E_COORD97":174445.98000000001,"N_COORD97":2570500.4199999999,"ADDRESS":"中山路一段２５號","OBJECTID":559475},"geometry":{"x":174445.98000000138,"y":2570500.4200000037}},{"attributes":{"ID":559503,"DIS_CODE":0,"TOWNNAME":"下營區","LI":"下營里","LIN":"9鄰","STREET":"中山路","SECT":"一段","MAREA":" ","LANE":" ","ALLEY":" ","HOUSE_NO":"２７號","E_COORD97":174449.88,"N_COORD97":2570501.79,"ADDRESS":"中山路一段２７號","OBJECTID":559476},"geometry":{"x":174449.87999999989,"y":2570501.790000001}},{"attributes":{"ID":559504,"DIS_CODE":0,"TOWNNAME":"下營區","LI":"下營里","LIN":"9鄰","STREET":"中山路","SECT":"一段","MAREA":" ","LANE":" ","ALLEY":" ","HOUSE_NO":"２９號","E_COORD97":174433.37,"N_COORD97":2570521.5899999999,"ADDRESS":"中山路一段２９號","OBJECTID":559477},"geometry":{"x":174433.37000000011,"y":2570521.5899999999}},{"attributes":{"ID":559505,"DIS_CODE":0,"TOWNNAME":"下營區","LI":"下營里","LIN":"9鄰","STREET":"中山路","SECT":"一段","MAREA":" ","LANE":" ","ALLEY":" ","HOUSE_NO":"３１號","E_COORD97":174444.95999999999,"N_COORD97":2570520.02,"ADDRESS":"中山路一段３１號","OBJECTID":559478},"geometry":{"x":174444.95999999903,"y":2570520.0200000014}},{"attributes":{"ID":559506,"DIS_CODE":0,"TOWNNAME":"下營區","LI":"下營里","LIN":"9鄰","STREET":"中山路","SECT":"一段","MAREA":" ","LANE":" ","ALLEY":" ","HOUSE_NO":"３３號","E_COORD97":174457.23000000001,"N_COORD97":2570504.6299999999,"ADDRESS":"中山路一段３３號","OBJECTID":559479},"geometry":{"x":174457.23000000231,"y":2570504.6300000027}},{"attributes":{"ID":559507,"DIS_CODE":0,"TOWNNAME":"下營區","LI":"下營里","LIN":"9鄰","STREET":"中山路","SECT":"一段","MAREA":" ","LANE":" ","ALLEY":" ","HOUSE_NO":"３５號","E_COORD97":174461.04000000001,"N_COORD97":2570505.75,"ADDRESS":"中山路一段３５號","OBJECTID":559480},"geometry":{"x":174461.04000000004,"y":2570505.7500000019}},{"attributes":{"ID":559508,"DIS_CODE":0,"TOWNNAME":"下營區","LI":"下營里","LIN":"9鄰","STREET":"中山路","SECT":"一段","MAREA":" ","LANE":" ","ALLEY":" ","HOUSE_NO":"３７號","E_COORD97":174465.5,"N_COORD97":2570507.2000000002,"ADDRESS":"中山路一段３７號","OBJECTID":559481},"geometry":{"x":174465.50000000093,"y":2570507.1999999993}},{"attributes":{"ID":559509,"DIS_CODE":0,"TOWNNAME":"下營區","LI":"下營里","LIN":"9鄰","STREET":"中山路","SECT":"一段","MAREA":" ","LANE":" ","ALLEY":" ","HOUSE_NO":"３９號","E_COORD97":174470.37,"N_COORD97":2570508.2000000002,"ADDRESS":"中山路一段３９號","OBJECTID":559482},"geometry":{"x":174470.37000000104,"y":2570508.2000000011}},{"attributes":{"ID":559510,"DIS_CODE":0,"TOWNNAME":"永康區","LI":"尚頂里","LIN":"12鄰","STREET":"尚頂路","SECT":" ","MAREA":" ","LANE":" ","ALLEY":" ","HOUSE_NO":"５５號","E_COORD97":171176.53,"N_COORD97":2547475.3799999999,"ADDRESS":"尚頂路５５號","OBJECTID":559483},"geometry":{"x":171176.53000000212,"y":2547475.3800000027}},{"attributes":{"ID":559511,"DIS_CODE":0,"TOWNNAME":"下營區","LI":"營前里","LIN":"9鄰","STREET":"中山路","SECT":"二段","MAREA":" ","LANE":" ","ALLEY":" ","HOUSE_NO":"１２５號","E_COORD97":174497.12,"N_COORD97":2570164.48,"ADDRESS":"中山路二段１２５號","OBJECTID":559484},"geometry":{"x":174497.12000000104,"y":2570164.4799999986}},{"attributes":{"ID":559512,"DIS_CODE":0,"TOWNNAME":"下營區","LI":"營前里","LIN":"9鄰","STREET":"中山路","SECT":"二段","MAREA":" ","LANE":" ","ALLEY":" ","HOUSE_NO":"１２９號","E_COORD97":174501.47,"N_COORD97":2570144.98,"ADDRESS":"中山路二段１２９號","OBJECTID":559485},"geometry":{"x":174501.47000000067,"y":2570144.9800000023}},{"attributes":{"ID":559513,"DIS_CODE":0,"TOWNNAME":"下營區","LI":"後街里","LIN":"9鄰","STREET":"中正北路","SECT":" ","MAREA":" ","LANE":" ","ALLEY":" ","HOUSE_NO":"７９號","E_COORD97":174445.51000000001,"N_COORD97":2570712.7200000002,"ADDRESS":"中正北路７９號","OBJECTID":559486},"geometry":{"x":174445.50999999978,"y":2570712.7200000044}},{"attributes":{"ID":559514,"DIS_CODE":0,"TOWNNAME":"下營區","LI":"後街里","LIN":"9鄰","STREET":"中正北路","SECT":" ","MAREA":" ","LANE":" ","ALLEY":" ","HOUSE_NO":"８９號","E_COORD97":174442.23999999999,"N_COORD97":2570729.4100000001,"ADDRESS":"中正北路８９號","OBJECTID":559487},"geometry":{"x":174442.24000000115,"y":2570729.4100000001}},{"attributes":{"ID":559515,"DIS_CODE":0,"TOWNNAME":"下營區","LI":"後街里","LIN":"9鄰","STREET":"中正北路","SECT":" ","MAREA":" ","LANE":" ","ALLEY":" ","HOUSE_NO":"９５號","E_COORD97":174435.10999999999,"N_COORD97":2570740.4500000002,"ADDRESS":"中正北路９５號","OBJECTID":559488},"geometry":{"x":174435.11000000034,"y":2570740.4500000011}},{"attributes":{"ID":559516,"DIS_CODE":0,"TOWNNAME":"下營區","LI":"後街里","LIN":"9鄰","STREET":"中正北路","SECT":" ","MAREA":" ","LANE":" ","ALLEY":" ","HOUSE_NO":"９７號","E_COORD97":174432.64000000001,"N_COORD97":2570746.5499999998,"ADDRESS":"中正北路９７號","OBJECTID":559489},"geometry":{"x":174432.63999999966,"y":2570746.5500000007}},{"attributes":{"ID":559517,"DIS_CODE":0,"TOWNNAME":"永康區","LI":"西灣里","LIN":"37鄰","STREET":"國光七街","SECT":" ","MAREA":" ","LANE":" ","ALLEY":" ","HOUSE_NO":"４２號","E_COORD97":174191.95000000001,"N_COORD97":2545538.25,"ADDRESS":"國光七街４２號","OBJECTID":559490},"geometry":{"x":174191.95000000019,"y":2545538.2500000037}},{"attributes":{"ID":559518,"DIS_CODE":0,"TOWNNAME":"永康區","LI":"東灣里","LIN":"9鄰","STREET":"大灣路","SECT":" ","MAREA":" ","LANE":" ","ALLEY":" ","HOUSE_NO":"４７４號","E_COORD97":174734.07000000001,"N_COORD97":2544909.9900000002,"ADDRESS":"大灣路４７４號","OBJECTID":559491},"geometry":{"x":174734.0700000003,"y":2544909.9900000021}},{"attributes":{"ID":559519,"DIS_CODE":0,"TOWNNAME":"永康區","LI":"南灣里","LIN":"9鄰","STREET":"大灣路","SECT":" ","MAREA":" ","LANE":" ","ALLEY":" ","HOUSE_NO":"６２７號","E_COORD97":174183.13,"N_COORD97":2544513.0099999998,"ADDRESS":"大灣路６２７號","OBJECTID":559492},"geometry":{"x":174183.13000000082,"y":2544513.0100000016}},{"attributes":{"ID":559520,"DIS_CODE":0,"TOWNNAME":"永康區","LI":"西灣里","LIN":"9鄰","STREET":"永大路","SECT":"二段","MAREA":" ","LANE":" ","ALLEY":" ","HOUSE_NO":"４３８號","E_COORD97":174368.31,"N_COORD97":2545253.9300000002,"ADDRESS":"永大路二段４３８號","OBJECTID":559493},"geometry":{"x":174368.31000000052,"y":2545253.9299999997}},{"attributes":{"ID":559521,"DIS_CODE":0,"TOWNNAME":"永康區","LI":"西灣里","LIN":"9鄰","STREET":"永大路","SECT":"二段","MAREA":" ","LANE":" ","ALLEY":" ","HOUSE_NO":"４４８號","E_COORD97":174378.84,"N_COORD97":2545271.9500000002,"ADDRESS":"永大路二段４４８號","OBJECTID":559494},"geometry":{"x":174378.83999999985,"y":2545271.9500000011}},{"attributes":{"ID":559522,"DIS_CODE":0,"TOWNNAME":"永康區","LI":"西灣里","LIN":"9鄰","STREET":"永大路","SECT":"二段","MAREA":" ","LANE":" ","ALLEY":" ","HOUSE_NO":"４７０號","E_COORD97":174408.06,"N_COORD97":2545312.52,"ADDRESS":"永大路二段４７０號","OBJECTID":559495},"geometry":{"x":174408.05999999959,"y":2545312.5200000014}},{"attributes":{"ID":559523,"DIS_CODE":0,"TOWNNAME":"永康區","LI":"西灣里","LIN":"9鄰","STREET":"永大路","SECT":"二段","MAREA":" ","LANE":" ","ALLEY":" ","HOUSE_NO":"４６６號","E_COORD97":174398.17999999999,"N_COORD97":2545296.3700000001,"ADDRESS":"永大路二段４６６號","OBJECTID":559496},"geometry":{"x":174398.18000000063,"y":2545296.370000001}},{"attributes":{"ID":559524,"DIS_CODE":0,"TOWNNAME":"永康區","LI":"正強里","LIN":"9鄰","STREET":"正義街","SECT":" ","MAREA":" ","LANE":" ","ALLEY":" ","HOUSE_NO":"９８號","E_COORD97":173431.12,"N_COORD97":2547578.02,"ADDRESS":"正義街９８號","OBJECTID":559497},"geometry":{"x":173431.12000000104,"y":2547578.0200000014}},{"attributes":{"ID":559525,"DIS_CODE":0,"TOWNNAME":"永康區","LI":"王行里","LIN":"9鄰","STREET":"王行路","SECT":" ","MAREA":" ","LANE":" ","ALLEY":" ","HOUSE_NO":"３８６號之３","E_COORD97":175434.10999999999,"N_COORD97":2548612.2400000002,"ADDRESS":"王行路３８６號之３","OBJECTID":559498},"geometry":{"x":175434.11000000034,"y":2548612.2400000002}},{"attributes":{"ID":559526,"DIS_CODE":0,"TOWNNAME":"永康區","LI":"正強里","LIN":"9鄰","STREET":"正義街","SECT":" ","MAREA":" ","LANE":" ","ALLEY":" ","HOUSE_NO":"１３２號","E_COORD97":173359.62,"N_COORD97":2547543.5099999998,"ADDRESS":"正義街１３２號","OBJECTID":559499},"geometry":{"x":173359.62000000104,"y":2547543.5100000016}},{"attributes":{"ID":559527,"DIS_CODE":0,"TOWNNAME":"安南區","LI":"海東里","LIN":"9鄰","STREET":"安吉路","SECT":"一段","MAREA":" ","LANE":" ","ALLEY":" ","HOUSE_NO":"１１８之１號","E_COORD97":166798.32999999999,"N_COORD97":2549309.9300000002,"ADDRESS":"安吉路一段１１８之１號","OBJECTID":559500},"geometry":{"x":166798.33000000007,"y":2549309.9300000034}},{"attributes":{"ID":559528,"DIS_CODE":0,"TOWNNAME":"安南區","LI":"溪心里","LIN":"9鄰","STREET":"海中街","SECT":" ","MAREA":" ","LANE":" ","ALLEY":" ","HOUSE_NO":"１８２號","E_COORD97":166296.79999999999,"N_COORD97":2549287.0899999999,"ADDRESS":"海中街１８２號","OBJECTID":559501},"geometry":{"x":166296.79999999981,"y":2549287.0899999999}},{"attributes":{"ID":559529,"DIS_CODE":0,"TOWNNAME":"永康區","LI":"西灣里","LIN":"45鄰","STREET":"永華路","SECT":" ","MAREA":" ","LANE":" ","ALLEY":" ","HOUSE_NO":"２１９號","E_COORD97":174080.35000000001,"N_COORD97":2545684.8500000001,"ADDRESS":"永華路２１９號","OBJECTID":559502},"geometry":{"x":174080.34999999963,"y":2545684.8499999996}},{"attributes":{"ID":559530,"DIS_CODE":0,"TOWNNAME":"歸仁區","LI":"看西里","LIN":"22鄰","STREET":"成功七街","SECT":" ","MAREA":" ","LANE":" ","ALLEY":" ","HOUSE_NO":"５０號","E_COORD97":178257.85999999999,"N_COORD97":2539816.3599999999,"ADDRESS":"成功七街５０號","OBJECTID":559503},"geometry":{"x":178257.86000000034,"y":2539816.3599999994}},{"attributes":{"ID":559531,"DIS_CODE":0,"TOWNNAME":"歸仁區","LI":"看西里","LIN":"22鄰","STREET":"成功七街","SECT":" ","MAREA":" ","LANE":" ","ALLEY":" ","HOUSE_NO":"５７號","E_COORD97":178288.66,"N_COORD97":2539806.3599999999,"ADDRESS":"成功七街５７號","OBJECTID":559504},"geometry":{"x":178288.66000000201,"y":2539806.3599999994}},{"attributes":{"ID":559532,"DIS_CODE":0,"TOWNNAME":"歸仁區","LI":"許厝里","LIN":"22鄰","STREET":"大仁街","SECT":" ","MAREA":" ","LANE":" ","ALLEY":" ","HOUSE_NO":"７８號","E_COORD97":178100.12,"N_COORD97":2540929.1099999999,"ADDRESS":"大仁街７８號","OBJECTID":559505},"geometry":{"x":178100.12000000011,"y":2540929.1100000013}},{"attributes":{"ID":559533,"DIS_CODE":0,"TOWNNAME":"歸仁區","LI":"許厝里","LIN":"22鄰","STREET":"大仁街","SECT":" ","MAREA":" ","LANE":" ","ALLEY":" ","HOUSE_NO":"９２號","E_COORD97":178124.82000000001,"N_COORD97":2540955.1099999999,"ADDRESS":"大仁街９２號","OBJECTID":559506},"geometry":{"x":178124.81999999937,"y":2540955.1100000013}},{"attributes":{"ID":559534,"DIS_CODE":0,"TOWNNAME":"歸仁區","LI":"看西里","LIN":"22鄰","STREET":"成功七街","SECT":" ","MAREA":" ","LANE":" ","ALLEY":" ","HOUSE_NO":"３８號","E_COORD97":178271.26000000001,"N_COORD97":2539824.3599999999,"ADDRESS":"成功七街３８號","OBJECTID":559507},"geometry":{"x":178271.26000000071,"y":2539824.3600000013}},{"attributes":{"ID":559535,"DIS_CODE":0,"TOWNNAME":"歸仁區","LI":"許厝里","LIN":"22鄰","STREET":"大仁街","SECT":" ","MAREA":" ","LANE":" ","ALLEY":" ","HOUSE_NO":"９８號","E_COORD97":178134.12,"N_COORD97":2540962.1099999999,"ADDRESS":"大仁街９８號","OBJECTID":559508},"geometry":{"x":178134.12000000011,"y":2540962.1100000013}},{"attributes":{"ID":559536,"DIS_CODE":0,"TOWNNAME":"歸仁區","LI":"看西里","LIN":"22鄰","STREET":"成功七街","SECT":" ","MAREA":" ","LANE":" ","ALLEY":" ","HOUSE_NO":"６９號","E_COORD97":178269.16,"N_COORD97":2539799.3599999999,"ADDRESS":"成功七街６９號","OBJECTID":559509},"geometry":{"x":178269.16000000015,"y":2539799.3599999994}},{"attributes":{"ID":559537,"DIS_CODE":0,"TOWNNAME":"歸仁區","LI":"許厝里","LIN":"22鄰","STREET":"大仁街","SECT":" ","MAREA":" ","LANE":" ","ALLEY":" ","HOUSE_NO":"１００號","E_COORD97":178137.47,"N_COORD97":2540966.1000000001,"ADDRESS":"大仁街１００號","OBJECTID":559510},"geometry":{"x":178137.47000000067,"y":2540966.1000000015}},{"attributes":{"ID":559538,"DIS_CODE":0,"TOWNNAME":"歸仁區","LI":"許厝里","LIN":"22鄰","STREET":"大仁街","SECT":" ","MAREA":" ","LANE":" ","ALLEY":" ","HOUSE_NO":"８０號","E_COORD97":178104.22,"N_COORD97":2540931.1099999999,"ADDRESS":"大仁街８０號","OBJECTID":559511},"geometry":{"x":178104.21999999974,"y":2540931.1100000031}},{"attributes":{"ID":559539,"DIS_CODE":0,"TOWNNAME":"歸仁區","LI":"許厝里","LIN":"22鄰","STREET":"大仁街","SECT":" ","MAREA":" ","LANE":" ","ALLEY":" ","HOUSE_NO":"６４號","E_COORD97":178062.38,"N_COORD97":2540899.23,"ADDRESS":"大仁街６４號","OBJECTID":559512},"geometry":{"x":178062.37999999989,"y":2540899.2300000004}},{"attributes":{"ID":559540,"DIS_CODE":0,"TOWNNAME":"歸仁區","LI":"許厝里","LIN":"22鄰","STREET":"大仁街","SECT":" ","MAREA":" ","LANE":" ","ALLEY":" ","HOUSE_NO":"１０８號","E_COORD97":178149.76999999999,"N_COORD97":2540975.1099999999,"ADDRESS":"大仁街１０８號","OBJECTID":559513},"geometry":{"x":178149.76999999862,"y":2540975.1100000031}},{"attributes":{"ID":559541,"DIS_CODE":0,"TOWNNAME":"歸仁區","LI":"許厝里","LIN":"22鄰","STREET":"大仁街","SECT":" ","MAREA":" ","LANE":" ","ALLEY":" ","HOUSE_NO":"１１６號","E_COORD97":178161.17000000001,"N_COORD97":2540987.1099999999,"ADDRESS":"大仁街１１６號","OBJECTID":559514},"geometry":{"x":178161.17000000179,"y":2540987.1099999994}},{"attributes":{"ID":559542,"DIS_CODE":0,"TOWNNAME":"歸仁區","LI":"許厝里","LIN":"22鄰","STREET":"大仁街","SECT":" ","MAREA":" ","LANE":" ","ALLEY":" ","HOUSE_NO":"６２號","E_COORD97":178055.17999999999,"N_COORD97":2540893.23,"ADDRESS":"大仁街６２號","OBJECTID":559515},"geometry":{"x":178055.1799999997,"y":2540893.2300000004}},{"attributes":{"ID":559543,"DIS_CODE":0,"TOWNNAME":"歸仁區","LI":"許厝里","LIN":"22鄰","STREET":"大仁街","SECT":" ","MAREA":" ","LANE":" ","ALLEY":" ","HOUSE_NO":"１１８號","E_COORD97":178164.17000000001,"N_COORD97":2540989.1099999999,"ADDRESS":"大仁街１１８號","OBJECTID":559516},"geometry":{"x":178164.16999999993,"y":2540989.1100000013}},{"attributes":{"ID":559544,"DIS_CODE":0,"TOWNNAME":"永康區","LI":"\u25A0行里","LIN":"26鄰","STREET":"中正南路","SECT":" ","MAREA":" ","LANE":" ","ALLEY":" ","HOUSE_NO":"４８０號","E_COORD97":171253.12,"N_COORD97":2548502.5899999999,"ADDRESS":"中正南路４８０號","OBJECTID":559517},"geometry":{"x":171253.12000000011,"y":2548502.5900000017}},{"attributes":{"ID":559545,"DIS_CODE":0,"TOWNNAME":"永康區","LI":"五王里","LIN":" ","STREET":"中華路","SECT":" ","MAREA":" ","LANE":" ","ALLEY":" ","HOUSE_NO":"４０８號","E_COORD97":171396.73999999999,"N_COORD97":2545600.75,"ADDRESS":"中華路４０８號","OBJECTID":559518},"geometry":{"x":171396.74000000022,"y":2545600.7500000019}},{"attributes":{"ID":559546,"DIS_CODE":0,"TOWNNAME":"永康區","LI":"\u25A0行里","LIN":"31鄰","STREET":"仁愛街","SECT":" ","MAREA":" ","LANE":" ","ALLEY":" ","HOUSE_NO":"５６號","E_COORD97":171982.34,"N_COORD97":2549274.77,"ADDRESS":"仁愛街５６號","OBJECTID":559519},"geometry":{"x":171982.33999999985,"y":2549274.7700000014}},{"attributes":{"ID":559547,"DIS_CODE":0,"TOWNNAME":"永康區","LI":"五王里","LIN":" ","STREET":"成功路","SECT":" ","MAREA":" ","LANE":" ","ALLEY":" ","HOUSE_NO":"２之３號","E_COORD97":171923.62,"N_COORD97":2545468.04,"ADDRESS":"成功路２之３號","OBJECTID":559520},"geometry":{"x":171923.62000000104,"y":2545468.040000001}},{"attributes":{"ID":559548,"DIS_CODE":0,"TOWNNAME":"永康區","LI":"烏竹里","LIN":"5鄰","STREET":"烏竹街","SECT":" ","MAREA":" ","LANE":" ","ALLEY":" ","HOUSE_NO":"５８號","E_COORD97":174502.5,"N_COORD97":2549343.0899999999,"ADDRESS":"烏竹街５８號","OBJECTID":559521},"geometry":{"x":174502.50000000186,"y":2549343.0900000036}},{"attributes":{"ID":559549,"DIS_CODE":0,"TOWNNAME":"安南區","LI":"城北里","LIN":"9鄰","STREET":"城北路","SECT":" ","MAREA":" ","LANE":" ","ALLEY":" ","HOUSE_NO":"１５之２號","E_COORD97":160863.13,"N_COORD97":2551509.8999999999,"ADDRESS":"城北路１５之２號","OBJECTID":559522},"geometry":{"x":160863.12999999989,"y":2551509.9000000004}},{"attributes":{"ID":559550,"DIS_CODE":0,"TOWNNAME":"安南區","LI":"城北里","LIN":"9鄰","STREET":"尊安街","SECT":" ","MAREA":" ","LANE":" ","ALLEY":" ","HOUSE_NO":"３１號","E_COORD97":160862.70999999999,"N_COORD97":2551593.02,"ADDRESS":"尊安街３１號","OBJECTID":559523},"geometry":{"x":160862.70999999996,"y":2551593.0199999996}},{"attributes":{"ID":559551,"DIS_CODE":0,"TOWNNAME":"安南區","LI":"城北里","LIN":"9鄰","STREET":"城安東街","SECT":" ","MAREA":" ","LANE":" ","ALLEY":" ","HOUSE_NO":"１５號","E_COORD97":160825.35000000001,"N_COORD97":2551589.6099999999,"ADDRESS":"城安東街１５號","OBJECTID":559524},"geometry":{"x":160825.35000000056,"y":2551589.6099999994}},{"attributes":{"ID":559552,"DIS_CODE":0,"TOWNNAME":"安南區","LI":"佃西里","LIN":"9鄰","STREET":"海佃路","SECT":"四段","MAREA":" ","LANE":" ","ALLEY":" ","HOUSE_NO":"５５１號之１","E_COORD97":165174.04000000001,"N_COORD97":2551654.7400000002,"ADDRESS":"海佃路四段５５１號之１","OBJECTID":559525},"geometry":{"x":165174.04000000097,"y":2551654.7400000039}},{"attributes":{"ID":559553,"DIS_CODE":0,"TOWNNAME":"安南區","LI":"顯宮里","LIN":"9鄰","STREET":"媽祖宮一街","SECT":" ","MAREA":" ","LANE":" ","ALLEY":" ","HOUSE_NO":"９６之６號","E_COORD97":160427,"N_COORD97":2548637.71,"ADDRESS":"媽祖宮一街９６之６號","OBJECTID":559526},"geometry":{"x":160427,"y":2548637.7100000009}},{"attributes":{"ID":559554,"DIS_CODE":0,"TOWNNAME":"安南區","LI":"頂安里","LIN":"9鄰","STREET":"頂安街","SECT":" ","MAREA":" ","LANE":" ","ALLEY":" ","HOUSE_NO":"２６６號","E_COORD97":169115.97,"N_COORD97":2549397.4399999999,"ADDRESS":"頂安街２６６號","OBJECTID":559527},"geometry":{"x":169115.96999999974,"y":2549397.4399999995}},{"attributes":{"ID":559555,"DIS_CODE":0,"TOWNNAME":"安南區","LI":"頂安里","LIN":"9鄰","STREET":"頂安街","SECT":" ","MAREA":" ","LANE":" ","ALLEY":" ","HOUSE_NO":"２６８號","E_COORD97":169111.26999999999,"N_COORD97":2549397.6899999999,"ADDRESS":"頂安街２６８號","OBJECTID":559528},"geometry":{"x":169111.27000000142,"y":2549397.6900000013}},{"attributes":{"ID":559556,"DIS_CODE":0,"TOWNNAME":"安南區","LI":"頂安里","LIN":"9鄰","STREET":"頂安街","SECT":" ","MAREA":" ","LANE":" ","ALLEY":" ","HOUSE_NO":"２７０號","E_COORD97":169107.20000000001,"N_COORD97":2549397.8199999998,"ADDRESS":"頂安街２７０號","OBJECTID":559529},"geometry":{"x":169107.20000000205,"y":2549397.8200000022}},{"attributes":{"ID":559557,"DIS_CODE":0,"TOWNNAME":"安南區","LI":"頂安里","LIN":"9鄰","STREET":"頂安街","SECT":" ","MAREA":" ","LANE":" ","ALLEY":" ","HOUSE_NO":"２７２號","E_COORD97":169103.39000000001,"N_COORD97":2549398.0800000001,"ADDRESS":"頂安街２７２號","OBJECTID":559530},"geometry":{"x":169103.38999999966,"y":2549398.0800000019}},{"attributes":{"ID":559558,"DIS_CODE":0,"TOWNNAME":"安南區","LI":"頂安里","LIN":"9鄰","STREET":"頂安街","SECT":" ","MAREA":" ","LANE":" ","ALLEY":" ","HOUSE_NO":"２７８號","E_COORD97":169096.79000000001,"N_COORD97":2549398.0800000001,"ADDRESS":"頂安街２７８號","OBJECTID":559531},"geometry":{"x":169096.79000000097,"y":2549398.0800000019}},{"attributes":{"ID":559559,"DIS_CODE":0,"TOWNNAME":"安南區","LI":"頂安里","LIN":"9鄰","STREET":"頂安街","SECT":" ","MAREA":" ","LANE":" ","ALLEY":" ","HOUSE_NO":"２８０號","E_COORD97":169093.60999999999,"N_COORD97":2549398.0800000001,"ADDRESS":"頂安街２８０號","OBJECTID":559532},"geometry":{"x":169093.61000000034,"y":2549398.0800000019}},{"attributes":{"ID":559560,"DIS_CODE":0,"TOWNNAME":"安南區","LI":"頂安里","LIN":"9鄰","STREET":"頂安街","SECT":" ","MAREA":" ","LANE":" ","ALLEY":" ","HOUSE_NO":"２８２號","E_COORD97":169090.44,"N_COORD97":2549397.9500000002,"ADDRESS":"頂安街２８２號","OBJECTID":559533},"geometry":{"x":169090.43999999948,"y":2549397.9500000011}},{"attributes":{"ID":559561,"DIS_CODE":0,"TOWNNAME":"安南區","LI":"頂安里","LIN":"9鄰","STREET":"頂安街","SECT":" ","MAREA":" ","LANE":" ","ALLEY":" ","HOUSE_NO":"２８６號","E_COORD97":169087.39000000001,"N_COORD97":2549397.8199999998,"ADDRESS":"頂安街２８６號","OBJECTID":559534},"geometry":{"x":169087.3900000006,"y":2549397.8200000022}},{"attributes":{"ID":559562,"DIS_CODE":0,"TOWNNAME":"東區","LI":"成大里","LIN":"9鄰","STREET":"民族路","SECT":"一段","MAREA":" ","LANE":" ","ALLEY":" ","HOUSE_NO":"２２號","E_COORD97":169527.85000000001,"N_COORD97":2543873.4700000002,"ADDRESS":"民族路一段２２號","OBJECTID":559535},"geometry":{"x":169527.85000000056,"y":2543873.4700000025}},{"attributes":{"ID":559563,"DIS_CODE":0,"TOWNNAME":"東區","LI":"成大里","LIN":"9鄰","STREET":"民族路","SECT":"一段","MAREA":" ","LANE":" ","ALLEY":" ","HOUSE_NO":"２４號","E_COORD97":169523.69,"N_COORD97":2543875.25,"ADDRESS":"民族路一段２４號","OBJECTID":559536},"geometry":{"x":169523.69000000041,"y":2543875.25}},{"attributes":{"ID":559564,"DIS_CODE":0,"TOWNNAME":"東區","LI":"成大里","LIN":"9鄰","STREET":"民族路","SECT":"一段","MAREA":" ","LANE":" ","ALLEY":" ","HOUSE_NO":"２６號","E_COORD97":169519.72,"N_COORD97":2543873.8599999999,"ADDRESS":"民族路一段２６號","OBJECTID":559537},"geometry":{"x":169519.71999999974,"y":2543873.8599999994}},{"attributes":{"ID":559565,"DIS_CODE":0,"TOWNNAME":"東區","LI":"成大里","LIN":"9鄰","STREET":"民族路","SECT":"一段","MAREA":" ","LANE":" ","ALLEY":" ","HOUSE_NO":"２８號","E_COORD97":169515.16,"N_COORD97":2543874.6600000001,"ADDRESS":"民族路一段２８號","OBJECTID":559538},"geometry":{"x":169515.16000000015,"y":2543874.660000002}},{"attributes":{"ID":559566,"DIS_CODE":0,"TOWNNAME":"東區","LI":"成大里","LIN":"9鄰","STREET":"民族路","SECT":"一段","MAREA":" ","LANE":" ","ALLEY":" ","HOUSE_NO":"３０號","E_COORD97":169516.75,"N_COORD97":2543886.54,"ADDRESS":"民族路一段３０號","OBJECTID":559539},"geometry":{"x":169516.75,"y":2543886.5399999991}},{"attributes":{"ID":559567,"DIS_CODE":0,"TOWNNAME":"東區","LI":"成大里","LIN":"9鄰","STREET":"民族路","SECT":"一段","MAREA":" ","LANE":" ","ALLEY":" ","HOUSE_NO":"３２號","E_COORD97":169517.34,"N_COORD97":2543891.6800000002,"ADDRESS":"民族路一段３２號","OBJECTID":559540},"geometry":{"x":169517.33999999985,"y":2543891.6800000016}},{"attributes":{"ID":559568,"DIS_CODE":0,"TOWNNAME":"東區","LI":"成大里","LIN":"9鄰","STREET":"民族路","SECT":"一段","MAREA":" ","LANE":" ","ALLEY":" ","HOUSE_NO":"３４號","E_COORD97":169517.54000000001,"N_COORD97":2543895.4399999999,"ADDRESS":"民族路一段３４號","OBJECTID":559541},"geometry":{"x":169517.54000000004,"y":2543895.4400000032}},{"attributes":{"ID":559569,"DIS_CODE":0,"TOWNNAME":"東區","LI":"成大里","LIN":"9鄰","STREET":"民族路","SECT":"一段","MAREA":" ","LANE":" ","ALLEY":" ","HOUSE_NO":"３６號","E_COORD97":169517.94,"N_COORD97":2543899.6000000001,"ADDRESS":"民族路一段３６號","OBJECTID":559542},"geometry":{"x":169517.94000000134,"y":2543899.5999999996}},{"attributes":{"ID":559570,"DIS_CODE":0,"TOWNNAME":"東區","LI":"成大里","LIN":"9鄰","STREET":"民族路","SECT":"一段","MAREA":" ","LANE":" ","ALLEY":" ","HOUSE_NO":"３８號","E_COORD97":169518.53,"N_COORD97":2543904.9500000002,"ADDRESS":"民族路一段３８號","OBJECTID":559543},"geometry":{"x":169518.53000000026,"y":2543904.9499999974}},{"attributes":{"ID":559571,"DIS_CODE":0,"TOWNNAME":"東區","LI":"成大里","LIN":"9鄰","STREET":"民族路","SECT":"一段","MAREA":" ","LANE":" ","ALLEY":" ","HOUSE_NO":"４０號","E_COORD97":169518.14000000001,"N_COORD97":2543909.1099999999,"ADDRESS":"民族路一段４０號","OBJECTID":559544},"geometry":{"x":169518.1400000006,"y":2543909.1100000013}},{"attributes":{"ID":559572,"DIS_CODE":0,"TOWNNAME":"東區","LI":"成大里","LIN":"9鄰","STREET":"民族路","SECT":"一段","MAREA":" ","LANE":" ","ALLEY":" ","HOUSE_NO":"４２號","E_COORD97":169519.13,"N_COORD97":2543913.8599999999,"ADDRESS":"民族路一段４２號","OBJECTID":559545},"geometry":{"x":169519.12999999989,"y":2543913.8600000013}},{"attributes":{"ID":559573,"DIS_CODE":0,"TOWNNAME":"東區","LI":"成大里","LIN":"9鄰","STREET":"民族路","SECT":"一段","MAREA":" ","LANE":" ","ALLEY":" ","HOUSE_NO":"４６號","E_COORD97":169518.92999999999,"N_COORD97":2543923.1600000001,"ADDRESS":"民族路一段４６號","OBJECTID":559546},"geometry":{"x":169518.93000000063,"y":2543923.160000002}},{"attributes":{"ID":559574,"DIS_CODE":0,"TOWNNAME":"東區","LI":"成大里","LIN":"9鄰","STREET":"民族路","SECT":"一段","MAREA":" ","LANE":" ","ALLEY":" ","HOUSE_NO":"４８號","E_COORD97":169518.53,"N_COORD97":2543927.1200000001,"ADDRESS":"民族路一段４８號","OBJECTID":559547},"geometry":{"x":169518.53000000026,"y":2543927.1200000029}},{"attributes":{"ID":559575,"DIS_CODE":0,"TOWNNAME":"永康區","LI":"\u25A0行里","LIN":"27鄰","STREET":"中正南路","SECT":" ","MAREA":" ","LANE":" ","ALLEY":" ","HOUSE_NO":"３４６號","E_COORD97":170845.98999999999,"N_COORD97":2548054.3300000001,"ADDRESS":"中正南路３４６號","OBJECTID":559548},"geometry":{"x":170845.99000000022,"y":2548054.3300000019}},{"attributes":{"ID":559576,"DIS_CODE":0,"TOWNNAME":"永康區","LI":"\u25A0洲里","LIN":"7鄰","STREET":"三村二街","SECT":" ","MAREA":" ","LANE":" ","ALLEY":" ","HOUSE_NO":"２６號","E_COORD97":171941.45000000001,"N_COORD97":2549431.75,"ADDRESS":"三村二街２６號","OBJECTID":559549},"geometry":{"x":171941.44999999925,"y":2549431.7500000019}},{"attributes":{"ID":559577,"DIS_CODE":0,"TOWNNAME":"永康區","LI":"復國里","LIN":" ","STREET":"復國一路","SECT":" ","MAREA":" ","LANE":" ","ALLEY":" ","HOUSE_NO":"２７１號","E_COORD97":172733.26000000001,"N_COORD97":2545482.0299999998,"ADDRESS":"復國一路２７１號","OBJECTID":559550},"geometry":{"x":172733.25999999978,"y":2545482.0300000012}},{"attributes":{"ID":559578,"DIS_CODE":0,"TOWNNAME":"永康區","LI":"\u25A0洲里","LIN":"25鄰","STREET":"中正南路","SECT":" ","MAREA":" ","LANE":" ","ALLEY":" ","HOUSE_NO":"４６５號","E_COORD97":170852.73000000001,"N_COORD97":2548115.3999999999,"ADDRESS":"中正南路４６５號","OBJECTID":559551},"geometry":{"x":170852.73000000045,"y":2548115.4000000022}},{"attributes":{"ID":559579,"DIS_CODE":0,"TOWNNAME":"永康區","LI":"\u25A0行里","LIN":"28鄰","STREET":"中正三街","SECT":" ","MAREA":" ","LANE":" ","ALLEY":" ","HOUSE_NO":"２０５號","E_COORD97":172691.53,"N_COORD97":2548779.0499999998,"ADDRESS":"中正三街２０５號","OBJECTID":559552},"geometry":{"x":172691.53000000026,"y":2548779.0500000026}},{"attributes":{"ID":559580,"DIS_CODE":0,"TOWNNAME":"官田區","LI":"隆田里","LIN":"9鄰","STREET":"大同街","SECT":" ","MAREA":" ","LANE":" ","ALLEY":" ","HOUSE_NO":"３７號","E_COORD97":180103.01999999999,"N_COORD97":2565905.48,"ADDRESS":"大同街３７號","OBJECTID":559553},"geometry":{"x":180103.02000000048,"y":2565905.4800000004}},{"attributes":{"ID":559581,"DIS_CODE":0,"TOWNNAME":"官田區","LI":"隆田里","LIN":"9鄰","STREET":"大同街","SECT":" ","MAREA":" ","LANE":" ","ALLEY":" ","HOUSE_NO":"３９號","E_COORD97":180098.76999999999,"N_COORD97":2565904.7799999998,"ADDRESS":"大同街３９號","OBJECTID":559554},"geometry":{"x":180098.76999999955,"y":2565904.7800000012}},{"attributes":{"ID":559582,"DIS_CODE":0,"TOWNNAME":"官田區","LI":"隆田里","LIN":"9鄰","STREET":"大同街","SECT":" ","MAREA":" ","LANE":" ","ALLEY":" ","HOUSE_NO":"４１號","E_COORD97":180095.04999999999,"N_COORD97":2565904.8999999999,"ADDRESS":"大同街４１號","OBJECTID":559555},"geometry":{"x":180095.05000000075,"y":2565904.9000000022}},{"attributes":{"ID":559583,"DIS_CODE":0,"TOWNNAME":"官田區","LI":"隆田里","LIN":"9鄰","STREET":"大同街","SECT":" ","MAREA":" ","LANE":" ","ALLEY":" ","HOUSE_NO":"４７號","E_COORD97":180052.92000000001,"N_COORD97":2565905.8700000001,"ADDRESS":"大同街４７號","OBJECTID":559556},"geometry":{"x":180052.92000000179,"y":2565905.8700000029}},{"attributes":{"ID":559584,"DIS_CODE":0,"TOWNNAME":"永康區","LI":"\u25A0行里","LIN":"34鄰","STREET":"新行街","SECT":" ","MAREA":" ","LANE":" ","ALLEY":" ","HOUSE_NO":"１５６號","E_COORD97":172414.10000000001,"N_COORD97":2549062.4199999999,"ADDRESS":"新行街１５６號","OBJECTID":559557},"geometry":{"x":172414.09999999963,"y":2549062.4199999999}},{"attributes":{"ID":559585,"DIS_CODE":0,"TOWNNAME":"中西區","LI":"銀同里","LIN":"9鄰","STREET":"開山路","SECT":" ","MAREA":" ","LANE":" ","ALLEY":" ","HOUSE_NO":"５１號","E_COORD97":168657.04000000001,"N_COORD97":2543465.1099999999,"ADDRESS":"開山路５１號","OBJECTID":559558},"geometry":{"x":168657.04000000004,"y":2543465.1100000013}},{"attributes":{"ID":559586,"DIS_CODE":0,"TOWNNAME":"中西區","LI":"公正里","LIN":"9鄰","STREET":"萬昌街","SECT":" ","MAREA":" ","LANE":" ","ALLEY":" ","HOUSE_NO":"１５１號","E_COORD97":169079.98000000001,"N_COORD97":2543842.7999999998,"ADDRESS":"萬昌街１５１號","OBJECTID":559559},"geometry":{"x":169079.98000000045,"y":2543842.8000000007}},{"attributes":{"ID":559587,"DIS_CODE":0,"TOWNNAME":"安南區","LI":"安順里","LIN":"9鄰","STREET":"安和路","SECT":"四段","MAREA":" ","LANE":" ","ALLEY":" ","HOUSE_NO":"１０７號","E_COORD97":169915.25,"N_COORD97":2550361.52,"ADDRESS":"安和路四段１０７號","OBJECTID":559560},"geometry":{"x":169915.25000000186,"y":2550361.5200000014}},{"attributes":{"ID":559588,"DIS_CODE":0,"TOWNNAME":"安南區","LI":"安順里","LIN":"9鄰","STREET":"安和路","SECT":"四段","MAREA":" ","LANE":" ","ALLEY":" ","HOUSE_NO":"１０９號","E_COORD97":169914.79000000001,"N_COORD97":2550365.6200000001,"ADDRESS":"安和路四段１０９號","OBJECTID":559561},"geometry":{"x":169914.79000000004,"y":2550365.6200000029}},{"attributes":{"ID":559589,"DIS_CODE":0,"TOWNNAME":"安南區","LI":"安順里","LIN":"9鄰","STREET":"安和路","SECT":"四段","MAREA":" ","LANE":" ","ALLEY":" ","HOUSE_NO":"１２３號","E_COORD97":169915.47,"N_COORD97":2550395.4500000002,"ADDRESS":"安和路四段１２３號","OBJECTID":559562},"geometry":{"x":169915.47000000067,"y":2550395.4500000011}},{"attributes":{"ID":559590,"DIS_CODE":0,"TOWNNAME":"安南區","LI":"安順里","LIN":"9鄰","STREET":"安和路","SECT":"四段","MAREA":" ","LANE":" ","ALLEY":" ","HOUSE_NO":"１２７號","E_COORD97":169914.01999999999,"N_COORD97":2550408.1400000001,"ADDRESS":"安和路四段１２７號","OBJECTID":559563},"geometry":{"x":169914.01999999955,"y":2550408.1400000043}},{"attributes":{"ID":559591,"DIS_CODE":0,"TOWNNAME":"永康區","LI":"埔園里","LIN":" ","STREET":"中正路","SECT":" ","MAREA":" ","LANE":" ","ALLEY":" ","HOUSE_NO":"１４６號","E_COORD97":173482.51999999999,"N_COORD97":2547907.4900000002,"ADDRESS":"中正路１４６號","OBJECTID":559564},"geometry":{"x":173482.51999999955,"y":2547907.4900000021}},{"attributes":{"ID":559592,"DIS_CODE":0,"TOWNNAME":"永康區","LI":"埔園里","LIN":" ","STREET":"中正路","SECT":" ","MAREA":" ","LANE":" ","ALLEY":" ","HOUSE_NO":"２５號","E_COORD97":173664.97,"N_COORD97":2547732.8799999999,"ADDRESS":"中正路２５號","OBJECTID":559565},"geometry":{"x":173664.9700000016,"y":2547732.8799999971}},{"attributes":{"ID":559593,"DIS_CODE":0,"TOWNNAME":"安南區","LI":"安順里","LIN":"9鄰","STREET":"安和路","SECT":"四段","MAREA":" ","LANE":" ","ALLEY":" ","HOUSE_NO":"１３３號","E_COORD97":169912.04000000001,"N_COORD97":2550417.1600000001,"ADDRESS":"安和路四段１３３號","OBJECTID":559566},"geometry":{"x":169912.04000000097,"y":2550417.1600000001}},{"attributes":{"ID":559594,"DIS_CODE":0,"TOWNNAME":"安南區","LI":"安順里","LIN":"9鄰","STREET":"安和路","SECT":"四段","MAREA":" ","LANE":" ","ALLEY":" ","HOUSE_NO":"９５號","E_COORD97":169917.53,"N_COORD97":2550332.9300000002,"ADDRESS":"安和路四段９５號","OBJECTID":559567},"geometry":{"x":169917.53000000119,"y":2550332.9299999997}},{"attributes":{"ID":559595,"DIS_CODE":0,"TOWNNAME":"永康區","LI":"崑山里","LIN":" ","STREET":"國光三街","SECT":" ","MAREA":" ","LANE":" ","ALLEY":" ","HOUSE_NO":"３２號","E_COORD97":174065.57000000001,"N_COORD97":2544898.77,"ADDRESS":"國光三街３２號","OBJECTID":559568},"geometry":{"x":174065.57000000123,"y":2544898.7699999996}},{"attributes":{"ID":559596,"DIS_CODE":0,"TOWNNAME":"白河區","LI":"庄內里","LIN":"9鄰","STREET":"自立街","SECT":" ","MAREA":" ","LANE":" ","ALLEY":" ","HOUSE_NO":"１５７號","E_COORD97":190916.44,"N_COORD97":2583540.77,"ADDRESS":"自立街１５７號","OBJECTID":559569},"geometry":{"x":190916.44000000134,"y":2583540.7700000014}},{"attributes":{"ID":559597,"DIS_CODE":0,"TOWNNAME":"永康區","LI":"\u25A0行里","LIN":"7鄰","STREET":"中正路","SECT":" ","MAREA":" ","LANE":" ","ALLEY":" ","HOUSE_NO":"７２２號","E_COORD97":172404.60000000001,"N_COORD97":2548493.7999999998,"ADDRESS":"中正路７２２號","OBJECTID":559570},"geometry":{"x":172404.60000000056,"y":2548493.8000000007}},{"attributes":{"ID":559598,"DIS_CODE":0,"TOWNNAME":"永康區","LI":"永康里","LIN":"9鄰","STREET":"永中街","SECT":" ","MAREA":" ","LANE":" ","ALLEY":" ","HOUSE_NO":"５１號","E_COORD97":173916.70000000001,"N_COORD97":2547196.7400000002,"ADDRESS":"永中街５１號","OBJECTID":559571},"geometry":{"x":173916.70000000112,"y":2547196.7400000021}},{"attributes":{"ID":559599,"DIS_CODE":0,"TOWNNAME":"永康區","LI":"永康里","LIN":"9鄰","STREET":"永康街","SECT":" ","MAREA":" ","LANE":" ","ALLEY":" ","HOUSE_NO":"６３號","E_COORD97":173808.23000000001,"N_COORD97":2547193.9900000002,"ADDRESS":"永康街６３號","OBJECTID":559572},"geometry":{"x":173808.23000000138,"y":2547193.9900000002}},{"attributes":{"ID":559600,"DIS_CODE":0,"TOWNNAME":"永康區","LI":"五王里","LIN":" ","STREET":"成功路","SECT":" ","MAREA":" ","LANE":" ","ALLEY":" ","HOUSE_NO":"１００號","E_COORD97":171453.32000000001,"N_COORD97":2545606.3500000001,"ADDRESS":"成功路１００號","OBJECTID":559573},"geometry":{"x":171453.32000000123,"y":2545606.3500000015}},{"attributes":{"ID":559601,"DIS_CODE":0,"TOWNNAME":"永康區","LI":"正強里","LIN":"9鄰","STREET":"自強路","SECT":" ","MAREA":" ","LANE":" ","ALLEY":" ","HOUSE_NO":"２９６號","E_COORD97":173349.23999999999,"N_COORD97":2547640.2999999998,"ADDRESS":"自強路２９６號","OBJECTID":559574},"geometry":{"x":173349.24000000022,"y":2547640.2999999989}},{"attributes":{"ID":559602,"DIS_CODE":0,"TOWNNAME":"永康區","LI":"正強里","LIN":"9鄰","STREET":"自強路","SECT":" ","MAREA":" ","LANE":" ","ALLEY":" ","HOUSE_NO":"２９０號","E_COORD97":173339.29999999999,"N_COORD97":2547632.7999999998,"ADDRESS":"自強路２９０號","OBJECTID":559575},"geometry":{"x":173339.30000000075,"y":2547632.8000000007}},{"attributes":{"ID":559603,"DIS_CODE":0,"TOWNNAME":"永康區","LI":"正強里","LIN":"9鄰","STREET":"自強路","SECT":" ","MAREA":" ","LANE":" ","ALLEY":" ","HOUSE_NO":"３１２號","E_COORD97":173374.79999999999,"N_COORD97":2547659.8100000001,"ADDRESS":"自強路３１２號","OBJECTID":559576},"geometry":{"x":173374.80000000075,"y":2547659.8100000005}},{"attributes":{"ID":559604,"DIS_CODE":0,"TOWNNAME":"永康區","LI":"正強里","LIN":"9鄰","STREET":"自強路","SECT":" ","MAREA":" ","LANE":" ","ALLEY":" ","HOUSE_NO":"３００號","E_COORD97":173355.79999999999,"N_COORD97":2547645.2999999998,"ADDRESS":"自強路３００號","OBJECTID":559577},"geometry":{"x":173355.79999999981,"y":2547645.3000000026}},{"attributes":{"ID":559605,"DIS_CODE":0,"TOWNNAME":"永康區","LI":"王行里","LIN":"9鄰","STREET":"王行路","SECT":" ","MAREA":" ","LANE":" ","ALLEY":" ","HOUSE_NO":"３９８號","E_COORD97":175433.12,"N_COORD97":2548651.9500000002,"ADDRESS":"王行路３９８號","OBJECTID":559578},"geometry":{"x":175433.12000000104,"y":2548651.9500000011}},{"attributes":{"ID":559606,"DIS_CODE":0,"TOWNNAME":"永康區","LI":"王行里","LIN":"9鄰","STREET":"王行路","SECT":" ","MAREA":" ","LANE":" ","ALLEY":" ","HOUSE_NO":"４６４號","E_COORD97":175468.75,"N_COORD97":2548884.3399999999,"ADDRESS":"王行路４６４號","OBJECTID":559579},"geometry":{"x":175468.75000000186,"y":2548884.3400000017}},{"attributes":{"ID":559607,"DIS_CODE":0,"TOWNNAME":"永康區","LI":"王行里","LIN":"9鄰","STREET":"王行路","SECT":" ","MAREA":" ","LANE":" ","ALLEY":" ","HOUSE_NO":"３８６號","E_COORD97":175432.32999999999,"N_COORD97":2548599.1899999999,"ADDRESS":"王行路３８６號","OBJECTID":559580},"geometry":{"x":175432.33000000007,"y":2548599.1899999976}},{"attributes":{"ID":559608,"DIS_CODE":0,"TOWNNAME":"新營區","LI":"永生里","LIN":"9鄰","STREET":"康樂街","SECT":" ","MAREA":" ","LANE":" ","ALLEY":" ","HOUSE_NO":"１之６號五樓","E_COORD97":180073.12,"N_COORD97":2577919.04,"ADDRESS":"康樂街１之６號五樓","OBJECTID":559581},"geometry":{"x":180073.12000000011,"y":2577919.0399999991}},{"attributes":{"ID":559609,"DIS_CODE":0,"TOWNNAME":"南區","LI":"新昌里","LIN":"9鄰","STREET":"府緯街","SECT":" ","MAREA":" ","LANE":" ","ALLEY":" ","HOUSE_NO":"８６號七樓之７","E_COORD97":167675.04000000001,"N_COORD97":2542745.9900000002,"ADDRESS":"府緯街８６號七樓之７","OBJECTID":559582},"geometry":{"x":167675.04000000004,"y":2542745.9900000002}},{"attributes":{"ID":559610,"DIS_CODE":0,"TOWNNAME":"南區","LI":"新昌里","LIN":"9鄰","STREET":"府緯街","SECT":" ","MAREA":" ","LANE":" ","ALLEY":" ","HOUSE_NO":"８６號二樓之１","E_COORD97":167675.04000000001,"N_COORD97":2542745.9900000002,"ADDRESS":"府緯街８６號二樓之１","OBJECTID":559583},"geometry":{"x":167675.04000000004,"y":2542745.9900000002}},{"attributes":{"ID":559611,"DIS_CODE":0,"TOWNNAME":"南區","LI":"新昌里","LIN":"9鄰","STREET":"府緯街","SECT":" ","MAREA":" ","LANE":" ","ALLEY":" ","HOUSE_NO":"８６號二樓之２","E_COORD97":167675.04000000001,"N_COORD97":2542745.9900000002,"ADDRESS":"府緯街８６號二樓之２","OBJECTID":559584},"geometry":{"x":167675.04000000004,"y":2542745.9900000002}},{"attributes":{"ID":559612,"DIS_CODE":0,"TOWNNAME":"南區","LI":"新昌里","LIN":"9鄰","STREET":"府緯街","SECT":" ","MAREA":" ","LANE":" ","ALLEY":" ","HOUSE_NO":"８６號二樓之３","E_COORD97":167675.04000000001,"N_COORD97":2542745.9900000002,"ADDRESS":"府緯街８６號二樓之３","OBJECTID":559585},"geometry":{"x":167675.04000000004,"y":2542745.9900000002}},{"attributes":{"ID":559613,"DIS_CODE":0,"TOWNNAME":"南區","LI":"新昌里","LIN":"9鄰","STREET":"府緯街","SECT":" ","MAREA":" ","LANE":" ","ALLEY":" ","HOUSE_NO":"８６號二樓之５","E_COORD97":167675.04000000001,"N_COORD97":2542745.9900000002,"ADDRESS":"府緯街８６號二樓之５","OBJECTID":559586},"geometry":{"x":167675.04000000004,"y":2542745.9900000002}},{"attributes":{"ID":559614,"DIS_CODE":0,"TOWNNAME":"南區","LI":"新昌里","LIN":"9鄰","STREET":"府緯街","SECT":" ","MAREA":" ","LANE":" ","ALLEY":" ","HOUSE_NO":"８６號八樓之１","E_COORD97":167675.04000000001,"N_COORD97":2542745.9900000002,"ADDRESS":"府緯街８６號八樓之１","OBJECTID":559587},"geometry":{"x":167675.04000000004,"y":2542745.9900000002}},{"attributes":{"ID":559615,"DIS_CODE":0,"TOWNNAME":"南區","LI":"新昌里","LIN":"9鄰","STREET":"府緯街","SECT":" ","MAREA":" ","LANE":" ","ALLEY":" ","HOUSE_NO":"８６號八樓之２","E_COORD97":167675.04000000001,"N_COORD97":2542745.9900000002,"ADDRESS":"府緯街８６號八樓之２","OBJECTID":559588},"geometry":{"x":167675.04000000004,"y":2542745.9900000002}},{"attributes":{"ID":559616,"DIS_CODE":0,"TOWNNAME":"南區","LI":"新昌里","LIN":"9鄰","STREET":"府緯街","SECT":" ","MAREA":" ","LANE":" ","ALLEY":" ","HOUSE_NO":"８６號八樓之３","E_COORD97":167675.04000000001,"N_COORD97":2542745.9900000002,"ADDRESS":"府緯街８６號八樓之３","OBJECTID":559589},"geometry":{"x":167675.04000000004,"y":2542745.9900000002}},{"attributes":{"ID":559617,"DIS_CODE":0,"TOWNNAME":"南區","LI":"新昌里","LIN":"9鄰","STREET":"府緯街","SECT":" ","MAREA":" ","LANE":" ","ALLEY":" ","HOUSE_NO":"８６號八樓之５","E_COORD97":167675.04000000001,"N_COORD97":2542745.9900000002,"ADDRESS":"府緯街８６號八樓之５","OBJECTID":559590},"geometry":{"x":167675.04000000004,"y":2542745.9900000002}},{"attributes":{"ID":559618,"DIS_CODE":0,"TOWNNAME":"南區","LI":"新昌里","LIN":"9鄰","STREET":"府緯街","SECT":" ","MAREA":" ","LANE":" ","ALLEY":" ","HOUSE_NO":"８６號八樓之６","E_COORD97":167675.04000000001,"N_COORD97":2542745.9900000002,"ADDRESS":"府緯街８６號八樓之６","OBJECTID":559591},"geometry":{"x":167675.04000000004,"y":2542745.9900000002}},{"attributes":{"ID":559619,"DIS_CODE":0,"TOWNNAME":"南區","LI":"新昌里","LIN":"9鄰","STREET":"府緯街","SECT":" ","MAREA":" ","LANE":" ","ALLEY":" ","HOUSE_NO":"８６號八樓之７","E_COORD97":167675.04000000001,"N_COORD97":2542745.9900000002,"ADDRESS":"府緯街８６號八樓之７","OBJECTID":559592},"geometry":{"x":167675.04000000004,"y":2542745.9900000002}},{"attributes":{"ID":559620,"DIS_CODE":0,"TOWNNAME":"南區","LI":"新昌里","LIN":"9鄰","STREET":"府緯街","SECT":" ","MAREA":" ","LANE":" ","ALLEY":" ","HOUSE_NO":"８６號八樓之８","E_COORD97":167675.04000000001,"N_COORD97":2542745.9900000002,"ADDRESS":"府緯街８６號八樓之８","OBJECTID":559593},"geometry":{"x":167675.04000000004,"y":2542745.9900000002}},{"attributes":{"ID":559621,"DIS_CODE":0,"TOWNNAME":"南區","LI":"新昌里","LIN":"9鄰","STREET":"府緯街","SECT":" ","MAREA":" ","LANE":" ","ALLEY":" ","HOUSE_NO":"８６號三樓之１","E_COORD97":167675.04000000001,"N_COORD97":2542745.9900000002,"ADDRESS":"府緯街８６號三樓之１","OBJECTID":559594},"geometry":{"x":167675.04000000004,"y":2542745.9900000002}},{"attributes":{"ID":559622,"DIS_CODE":0,"TOWNNAME":"南區","LI":"新昌里","LIN":"9鄰","STREET":"府緯街","SECT":" ","MAREA":" ","LANE":" ","ALLEY":" ","HOUSE_NO":"８６號六樓之６","E_COORD97":167675.04000000001,"N_COORD97":2542745.9900000002,"ADDRESS":"府緯街８６號六樓之６","OBJECTID":559595},"geometry":{"x":167675.04000000004,"y":2542745.9900000002}},{"attributes":{"ID":559623,"DIS_CODE":0,"TOWNNAME":"南區","LI":"新昌里","LIN":"9鄰","STREET":"府緯街","SECT":" ","MAREA":" ","LANE":" ","ALLEY":" ","HOUSE_NO":"８６號六樓之７","E_COORD97":167675.04000000001,"N_COORD97":2542745.9900000002,"ADDRESS":"府緯街８６號六樓之７","OBJECTID":559596},"geometry":{"x":167675.04000000004,"y":2542745.9900000002}},{"attributes":{"ID":559624,"DIS_CODE":0,"TOWNNAME":"南區","LI":"新昌里","LIN":"9鄰","STREET":"府緯街","SECT":" ","MAREA":" ","LANE":" ","ALLEY":" ","HOUSE_NO":"８６號六樓之８","E_COORD97":167675.04000000001,"N_COORD97":2542745.9900000002,"ADDRESS":"府緯街８６號六樓之８","OBJECTID":559597},"geometry":{"x":167675.04000000004,"y":2542745.9900000002}},{"attributes":{"ID":559625,"DIS_CODE":0,"TOWNNAME":"南區","LI":"新昌里","LIN":"9鄰","STREET":"府緯街","SECT":" ","MAREA":" ","LANE":" ","ALLEY":" ","HOUSE_NO":"８６號六樓之９","E_COORD97":167675.04000000001,"N_COORD97":2542745.9900000002,"ADDRESS":"府緯街８６號六樓之９","OBJECTID":559598},"geometry":{"x":167675.04000000004,"y":2542745.9900000002}},{"attributes":{"ID":559626,"DIS_CODE":0,"TOWNNAME":"南區","LI":"新昌里","LIN":"9鄰","STREET":"府緯街","SECT":" ","MAREA":" ","LANE":" ","ALLEY":" ","HOUSE_NO":"８６號四樓之１","E_COORD97":167675.04000000001,"N_COORD97":2542745.9900000002,"ADDRESS":"府緯街８６號四樓之１","OBJECTID":559599},"geometry":{"x":167675.04000000004,"y":2542745.9900000002}},{"attributes":{"ID":559627,"DIS_CODE":0,"TOWNNAME":"南區","LI":"新昌里","LIN":"9鄰","STREET":"府緯街","SECT":" ","MAREA":" ","LANE":" ","ALLEY":" ","HOUSE_NO":"８６號四樓之１０","E_COORD97":167675.04000000001,"N_COORD97":2542745.9900000002,"ADDRESS":"府緯街８６號四樓之１０","OBJECTID":559600},"geometry":{"x":167675.04000000004,"y":2542745.9900000002}}]}