{"displayFieldName":"TOWNNAME","fieldAliases":{"ID":"ID","DIS_CODE":"DIS_CODE","TOWNNAME":"TOWNNAME","LI":"LI","LIN":"LIN","STREET":"STREET","SECT":"SECT","MAREA":"MAREA","LANE":"LANE","ALLEY":"ALLEY","HOUSE_NO":"HOUSE_NO","E_COORD97":"E_COORD97","N_COORD97":"N_COORD97","ADDRESS":"ADDRESS","OBJECTID":"OBJECTID"},"geometryType":"esriGeometryPoint","spatialReference":{"wkid":102443,"latestWkid":3826},"fields":[{"name":"ID","type":"esriFieldTypeDouble","alias":"ID"},{"name":"DIS_CODE","type":"esriFieldTypeInteger","alias":"DIS_CODE"},{"name":"TOWNNAME","type":"esriFieldTypeString","alias":"TOWNNAME","length":8},{"name":"LI","type":"esriFieldTypeString","alias":"LI","length":8},{"name":"LIN","type":"esriFieldTypeString","alias":"LIN","length":12},{"name":"STREET","type":"esriFieldTypeString","alias":"STREET","length":20},{"name":"SECT","type":"esriFieldTypeString","alias":"SECT","length":8},{"name":"MAREA","type":"esriFieldTypeString","alias":"MAREA","length":12},{"name":"LANE","type":"esriFieldTypeString","alias":"LANE","length":10},{"name":"ALLEY","type":"esriFieldTypeString","alias":"ALLEY","length":10},{"name":"HOUSE_NO","type":"esriFieldTypeString","alias":"HOUSE_NO","length":20},{"name":"E_COORD97","type":"esriFieldTypeDouble","alias":"E_COORD97"},{"name":"N_COORD97","type":"esriFieldTypeDouble","alias":"N_COORD97"},{"name":"ADDRESS","type":"esriFieldTypeString","alias":"ADDRESS","length":50},{"name":"OBJECTID","type":"esriFieldTypeOID","alias":"OBJECTID"}],"features":[{"attributes":{"ID":53201,"DIS_CODE":0,"TOWNNAME":"七股區","LI":"龍山里","LIN":"1鄰","STREET":" ","SECT":" ","MAREA":"龍山","LANE":" ","ALLEY":" ","HOUSE_NO":"９號之１６","E_COORD97":159619.04999999999,"N_COORD97":2559797.2599999998,"ADDRESS":"龍山９號之１６","OBJECTID":53201},"geometry":{"x":159619.04999999981,"y":2559797.2599999998}},{"attributes":{"ID":53202,"DIS_CODE":0,"TOWNNAME":"七股區","LI":"龍山里","LIN":"1鄰","STREET":" ","SECT":" ","MAREA":"龍山","LANE":" ","ALLEY":" ","HOUSE_NO":"９號之１７","E_COORD97":159620.51999999999,"N_COORD97":2559801.3700000001,"ADDRESS":"龍山９號之１７","OBJECTID":53202},"geometry":{"x":159620.52000000048,"y":2559801.370000001}},{"attributes":{"ID":53203,"DIS_CODE":0,"TOWNNAME":"南區","LI":"明德里","LIN":"3鄰","STREET":"大同路","SECT":"一段","MAREA":" ","LANE":" ","ALLEY":" ","HOUSE_NO":"１５８號","E_COORD97":167891.42000000001,"N_COORD97":2541749.4300000002,"ADDRESS":"大同路一段１５８號","OBJECTID":53203},"geometry":{"x":167891.41999999993,"y":2541749.4300000034}},{"attributes":{"ID":53204,"DIS_CODE":0,"TOWNNAME":"南區","LI":"明德里","LIN":"3鄰","STREET":"大同路","SECT":"一段","MAREA":" ","LANE":" ","ALLEY":" ","HOUSE_NO":"１６２號","E_COORD97":167882.81,"N_COORD97":2541749.1699999999,"ADDRESS":"大同路一段１６２號","OBJECTID":53204},"geometry":{"x":167882.80999999959,"y":2541749.1700000018}},{"attributes":{"ID":53205,"DIS_CODE":0,"TOWNNAME":"南區","LI":"明德里","LIN":"3鄰","STREET":"大同路","SECT":"一段","MAREA":" ","LANE":" ","ALLEY":" ","HOUSE_NO":"１６４號","E_COORD97":167877.85999999999,"N_COORD97":2541748.6499999999,"ADDRESS":"大同路一段１６４號","OBJECTID":53205},"geometry":{"x":167877.86000000127,"y":2541748.6500000041}},{"attributes":{"ID":53206,"DIS_CODE":0,"TOWNNAME":"下營區","LI":"營前里","LIN":" ","STREET":"中正南路","SECT":" ","MAREA":" ","LANE":" ","ALLEY":" ","HOUSE_NO":"１４３號","E_COORD97":174678.57999999999,"N_COORD97":2570135.2400000002,"ADDRESS":"中正南路１４３號","OBJECTID":53206},"geometry":{"x":174678.58000000101,"y":2570135.2400000002}},{"attributes":{"ID":53207,"DIS_CODE":0,"TOWNNAME":"下營區","LI":"下營里","LIN":" ","STREET":"中正南路","SECT":" ","MAREA":" ","LANE":" ","ALLEY":" ","HOUSE_NO":"１７號","E_COORD97":174577.44,"N_COORD97":2570462.6299999999,"ADDRESS":"中正南路１７號","OBJECTID":53207},"geometry":{"x":174577.44000000041,"y":2570462.629999999}},{"attributes":{"ID":53208,"DIS_CODE":0,"TOWNNAME":"下營區","LI":"下營里","LIN":" ","STREET":"中正南路","SECT":" ","MAREA":" ","LANE":" ","ALLEY":" ","HOUSE_NO":"１９號","E_COORD97":174578.64000000001,"N_COORD97":2570459.21,"ADDRESS":"中正南路１９號","OBJECTID":53208},"geometry":{"x":174578.63999999966,"y":2570459.2100000028}},{"attributes":{"ID":53209,"DIS_CODE":0,"TOWNNAME":"下營區","LI":"營前里","LIN":" ","STREET":"中正南路","SECT":" ","MAREA":" ","LANE":" ","ALLEY":" ","HOUSE_NO":"２３４號","E_COORD97":174714.04000000001,"N_COORD97":2569955.71,"ADDRESS":"中正南路２３４號","OBJECTID":53209},"geometry":{"x":174714.03999999911,"y":2569955.7100000009}},{"attributes":{"ID":53210,"DIS_CODE":0,"TOWNNAME":"下營區","LI":"營前里","LIN":" ","STREET":"中正南路","SECT":" ","MAREA":" ","LANE":" ","ALLEY":" ","HOUSE_NO":"８８之１號","E_COORD97":174608.03,"N_COORD97":2570264.04,"ADDRESS":"中正南路８８之１號","OBJECTID":53210},"geometry":{"x":174608.03000000119,"y":2570264.0399999991}},{"attributes":{"ID":53211,"DIS_CODE":0,"TOWNNAME":"下營區","LI":"營前里","LIN":" ","STREET":"仁愛街","SECT":" ","MAREA":" ","LANE":" ","ALLEY":" ","HOUSE_NO":"５號","E_COORD97":174740.5,"N_COORD97":2570070.4500000002,"ADDRESS":"仁愛街５號","OBJECTID":53211},"geometry":{"x":174740.50000000093,"y":2570070.4499999993}},{"attributes":{"ID":53212,"DIS_CODE":0,"TOWNNAME":"下營區","LI":"仁里里","LIN":" ","STREET":"公園路","SECT":" ","MAREA":" ","LANE":" ","ALLEY":" ","HOUSE_NO":"１２號","E_COORD97":174363.62,"N_COORD97":2570365.7200000002,"ADDRESS":"公園路１２號","OBJECTID":53212},"geometry":{"x":174363.62000000011,"y":2570365.7200000007}},{"attributes":{"ID":53213,"DIS_CODE":0,"TOWNNAME":"下營區","LI":"仁里里","LIN":" ","STREET":"公園路","SECT":" ","MAREA":" ","LANE":" ","ALLEY":" ","HOUSE_NO":"５０號","E_COORD97":174303.45999999999,"N_COORD97":2570350.6099999999,"ADDRESS":"公園路５０號","OBJECTID":53213},"geometry":{"x":174303.46000000089,"y":2570350.6100000013}},{"attributes":{"ID":53214,"DIS_CODE":0,"TOWNNAME":"下營區","LI":"仁里里","LIN":" ","STREET":"公園路","SECT":" ","MAREA":" ","LANE":" ","ALLEY":" ","HOUSE_NO":"７０號","E_COORD97":174266.51000000001,"N_COORD97":2570338.4100000001,"ADDRESS":"公園路７０號","OBJECTID":53214},"geometry":{"x":174266.51000000164,"y":2570338.410000002}},{"attributes":{"ID":53215,"DIS_CODE":0,"TOWNNAME":"下營區","LI":"營前里","LIN":" ","STREET":"文化街","SECT":" ","MAREA":" ","LANE":" ","ALLEY":" ","HOUSE_NO":"１１０號","E_COORD97":174785.17999999999,"N_COORD97":2570471.7599999998,"ADDRESS":"文化街１１０號","OBJECTID":53215},"geometry":{"x":174785.1799999997,"y":2570471.7600000016}},{"attributes":{"ID":53216,"DIS_CODE":0,"TOWNNAME":"下營區","LI":"營前里","LIN":" ","STREET":"文明街","SECT":" ","MAREA":" ","LANE":" ","ALLEY":" ","HOUSE_NO":"３９號","E_COORD97":174755.64999999999,"N_COORD97":2570302.7999999998,"ADDRESS":"文明街３９號","OBJECTID":53216},"geometry":{"x":174755.65000000037,"y":2570302.8000000026}},{"attributes":{"ID":53217,"DIS_CODE":0,"TOWNNAME":"西港區","LI":"西港里","LIN":"13鄰","STREET":" ","SECT":" ","MAREA":"西港","LANE":" ","ALLEY":" ","HOUSE_NO":"５０號之１６二樓１","E_COORD97":168633.66,"N_COORD97":2557895.8999999999,"ADDRESS":"西港５０號之１６二樓１","OBJECTID":53217},"geometry":{"x":168633.66000000015,"y":2557895.9000000022}},{"attributes":{"ID":53218,"DIS_CODE":0,"TOWNNAME":"安南區","LI":"國安里","LIN":"1鄰","STREET":"國安街","SECT":" ","MAREA":" ","LANE":"１５６巷","ALLEY":"１５弄","HOUSE_NO":"８號之５","E_COORD97":166668.03,"N_COORD97":2547059.6099999999,"ADDRESS":"國安街１５６巷１５弄８號之５","OBJECTID":53218},"geometry":{"x":166668.03000000119,"y":2547059.6099999994}},{"attributes":{"ID":53219,"DIS_CODE":0,"TOWNNAME":"安南區","LI":"海南里","LIN":"1鄰","STREET":"府安路","SECT":"六段","MAREA":" ","LANE":"１０３巷","ALLEY":"１１１弄","HOUSE_NO":"８號","E_COORD97":166641.23000000001,"N_COORD97":2546778.2200000002,"ADDRESS":"府安路六段１０３巷１１１弄８號","OBJECTID":53219},"geometry":{"x":166641.23000000138,"y":2546778.2200000007}},{"attributes":{"ID":53220,"DIS_CODE":0,"TOWNNAME":"永康區","LI":"二王里","LIN":"1鄰","STREET":"二王路","SECT":" ","MAREA":" ","LANE":"２７巷","ALLEY":"１２弄","HOUSE_NO":"３號","E_COORD97":173053.98000000001,"N_COORD97":2546780.1000000001,"ADDRESS":"二王路２７巷１２弄３號","OBJECTID":53220},"geometry":{"x":173053.98000000138,"y":2546780.1000000015}},{"attributes":{"ID":53221,"DIS_CODE":0,"TOWNNAME":"西港區","LI":"西港里","LIN":"13鄰","STREET":" ","SECT":" ","MAREA":"西港","LANE":" ","ALLEY":" ","HOUSE_NO":"５０號之１６二樓二","E_COORD97":168633.66,"N_COORD97":2557895.8999999999,"ADDRESS":"西港５０號之１６二樓二","OBJECTID":53221},"geometry":{"x":168633.66000000015,"y":2557895.9000000022}},{"attributes":{"ID":53222,"DIS_CODE":0,"TOWNNAME":"永康區","LI":"二王里","LIN":"1鄰","STREET":"二王路","SECT":" ","MAREA":" ","LANE":"２７巷","ALLEY":"１２弄","HOUSE_NO":"９號","E_COORD97":173056.88,"N_COORD97":2546762.1099999999,"ADDRESS":"二王路２７巷１２弄９號","OBJECTID":53222},"geometry":{"x":173056.87999999989,"y":2546762.1099999975}},{"attributes":{"ID":53223,"DIS_CODE":0,"TOWNNAME":"永康區","LI":"西橋里","LIN":"1鄰","STREET":"中山南路","SECT":" ","MAREA":" ","LANE":"４３巷","ALLEY":"７弄","HOUSE_NO":"１號","E_COORD97":170724.12,"N_COORD97":2545837.8500000001,"ADDRESS":"中山南路４３巷７弄１號","OBJECTID":53223},"geometry":{"x":170724.12000000011,"y":2545837.8499999996}},{"attributes":{"ID":53224,"DIS_CODE":0,"TOWNNAME":"永康區","LI":"二王里","LIN":"1鄰","STREET":"二王路","SECT":" ","MAREA":" ","LANE":"２７巷","ALLEY":"１２弄","HOUSE_NO":"２１號","E_COORD97":173063.29999999999,"N_COORD97":2546725.1099999999,"ADDRESS":"二王路２７巷１２弄２１號","OBJECTID":53224},"geometry":{"x":173063.30000000075,"y":2546725.1100000031}},{"attributes":{"ID":53225,"DIS_CODE":0,"TOWNNAME":"永康區","LI":"二王里","LIN":"1鄰","STREET":"二王路","SECT":" ","MAREA":" ","LANE":"２７巷","ALLEY":"２２弄","HOUSE_NO":"２０號","E_COORD97":173080.45000000001,"N_COORD97":2546759.7200000002,"ADDRESS":"二王路２７巷２２弄２０號","OBJECTID":53225},"geometry":{"x":173080.45000000019,"y":2546759.7200000044}},{"attributes":{"ID":53226,"DIS_CODE":0,"TOWNNAME":"北區","LI":"文元里","LIN":"3鄰","STREET":"文賢路","SECT":" ","MAREA":" ","LANE":"１１２２巷","ALLEY":" ","HOUSE_NO":"９７號","E_COORD97":167631.07000000001,"N_COORD97":2546374.0699999998,"ADDRESS":"文賢路１１２２巷９７號","OBJECTID":53226},"geometry":{"x":167631.0700000003,"y":2546374.0700000022}},{"attributes":{"ID":53227,"DIS_CODE":0,"TOWNNAME":"麻豆區","LI":"穀興里","LIN":"13鄰","STREET":"中山路","SECT":" ","MAREA":" ","LANE":" ","ALLEY":" ","HOUSE_NO":"７９號","E_COORD97":172831.45000000001,"N_COORD97":2564810.7400000002,"ADDRESS":"中山路７９號","OBJECTID":53227},"geometry":{"x":172831.44999999925,"y":2564810.7400000021}},{"attributes":{"ID":53228,"DIS_CODE":0,"TOWNNAME":"麻豆區","LI":"穀興里","LIN":"13鄰","STREET":"中山路","SECT":" ","MAREA":" ","LANE":" ","ALLEY":" ","HOUSE_NO":"８１號","E_COORD97":172828.76999999999,"N_COORD97":2564811.1000000001,"ADDRESS":"中山路８１號","OBJECTID":53228},"geometry":{"x":172828.77000000142,"y":2564811.1000000015}},{"attributes":{"ID":53229,"DIS_CODE":0,"TOWNNAME":"學甲區","LI":"明宜里","LIN":"13鄰","STREET":"中山路","SECT":" ","MAREA":" ","LANE":" ","ALLEY":" ","HOUSE_NO":"１２１號之１","E_COORD97":166081.26000000001,"N_COORD97":2570491.7400000002,"ADDRESS":"中山路１２１號之１","OBJECTID":53229},"geometry":{"x":166081.26000000071,"y":2570491.7400000039}},{"attributes":{"ID":53230,"DIS_CODE":0,"TOWNNAME":"鹽水區","LI":"河南里","LIN":"13鄰","STREET":" ","SECT":" ","MAREA":"?頭港","LANE":" ","ALLEY":" ","HOUSE_NO":"１１０號","E_COORD97":172651.78,"N_COORD97":2572508.4300000002,"ADDRESS":"?頭港１１０號","OBJECTID":53230},"geometry":{"x":172651.78000000119,"y":2572508.4300000016}},{"attributes":{"ID":53231,"DIS_CODE":0,"TOWNNAME":"鹽水區","LI":"河南里","LIN":"13鄰","STREET":" ","SECT":" ","MAREA":"?頭港","LANE":" ","ALLEY":" ","HOUSE_NO":"１１１號之１","E_COORD97":172627.57000000001,"N_COORD97":2572449.8100000001,"ADDRESS":"?頭港１１１號之１","OBJECTID":53231},"geometry":{"x":172627.57000000123,"y":2572449.8100000005}},{"attributes":{"ID":53232,"DIS_CODE":0,"TOWNNAME":"鹽水區","LI":"河南里","LIN":"13鄰","STREET":" ","SECT":" ","MAREA":"?頭港","LANE":" ","ALLEY":" ","HOUSE_NO":"１１１號之２","E_COORD97":172629.87,"N_COORD97":2572405.5600000001,"ADDRESS":"?頭港１１１號之２","OBJECTID":53232},"geometry":{"x":172629.87000000011,"y":2572405.5600000024}},{"attributes":{"ID":53233,"DIS_CODE":0,"TOWNNAME":"下營區","LI":"後街里","LIN":" ","STREET":"水池街","SECT":" ","MAREA":" ","LANE":" ","ALLEY":" ","HOUSE_NO":"１２２之１號","E_COORD97":174516.07000000001,"N_COORD97":2571107.1600000001,"ADDRESS":"水池街１２２之１號","OBJECTID":53233},"geometry":{"x":174516.07000000123,"y":2571107.160000002}},{"attributes":{"ID":53234,"DIS_CODE":0,"TOWNNAME":"永康區","LI":"二王里","LIN":"1鄰","STREET":"二王路","SECT":" ","MAREA":" ","LANE":"２７巷","ALLEY":"１２弄","HOUSE_NO":"１２號","E_COORD97":173049.97,"N_COORD97":2546758.9700000002,"ADDRESS":"二王路２７巷１２弄１２號","OBJECTID":53234},"geometry":{"x":173049.97000000067,"y":2546758.9700000025}},{"attributes":{"ID":53235,"DIS_CODE":0,"TOWNNAME":"永康區","LI":"二王里","LIN":"1鄰","STREET":"二王路","SECT":" ","MAREA":" ","LANE":"２７巷","ALLEY":"１２弄","HOUSE_NO":"３１號","E_COORD97":173067.73999999999,"N_COORD97":2546694.8500000001,"ADDRESS":"二王路２７巷１２弄３１號","OBJECTID":53235},"geometry":{"x":173067.74000000115,"y":2546694.8499999996}},{"attributes":{"ID":53236,"DIS_CODE":0,"TOWNNAME":"永康區","LI":"二王里","LIN":"1鄰","STREET":"二王路","SECT":" ","MAREA":" ","LANE":"２７巷","ALLEY":"１２弄","HOUSE_NO":"２８號","E_COORD97":173055.14000000001,"N_COORD97":2546722.2200000002,"ADDRESS":"二王路２７巷１２弄２８號","OBJECTID":53236},"geometry":{"x":173055.14000000153,"y":2546722.2200000044}},{"attributes":{"ID":53237,"DIS_CODE":0,"TOWNNAME":"永康區","LI":"二王里","LIN":"1鄰","STREET":"二王路","SECT":" ","MAREA":" ","LANE":"２７巷","ALLEY":"２２弄","HOUSE_NO":"１８號","E_COORD97":173079.17000000001,"N_COORD97":2546765.5099999998,"ADDRESS":"二王路２７巷２２弄１８號","OBJECTID":53237},"geometry":{"x":173079.17000000086,"y":2546765.5099999998}},{"attributes":{"ID":53238,"DIS_CODE":0,"TOWNNAME":"永康區","LI":"二王里","LIN":"1鄰","STREET":"二王路","SECT":" ","MAREA":" ","LANE":"２７巷","ALLEY":"１２弄","HOUSE_NO":"８號","E_COORD97":173048.06,"N_COORD97":2546771.96,"ADDRESS":"二王路２７巷１２弄８號","OBJECTID":53238},"geometry":{"x":173048.05999999959,"y":2546771.9600000028}},{"attributes":{"ID":53239,"DIS_CODE":0,"TOWNNAME":"永康區","LI":"二王里","LIN":"1鄰","STREET":"二王路","SECT":" ","MAREA":" ","LANE":"２７巷","ALLEY":"１２弄","HOUSE_NO":"３８號","E_COORD97":173058.48000000001,"N_COORD97":2546697.96,"ADDRESS":"二王路２７巷１２弄３８號","OBJECTID":53239},"geometry":{"x":173058.48000000045,"y":2546697.9600000028}},{"attributes":{"ID":53240,"DIS_CODE":0,"TOWNNAME":"永康區","LI":"二王里","LIN":"1鄰","STREET":"二王路","SECT":" ","MAREA":" ","LANE":"２７巷","ALLEY":"１２弄","HOUSE_NO":"１０號","E_COORD97":173049.29999999999,"N_COORD97":2546764.96,"ADDRESS":"二王路２７巷１２弄１０號","OBJECTID":53240},"geometry":{"x":173049.30000000075,"y":2546764.9600000046}},{"attributes":{"ID":53241,"DIS_CODE":0,"TOWNNAME":"北區","LI":"勝安里","LIN":"5鄰","STREET":"開元路","SECT":" ","MAREA":" ","LANE":" ","ALLEY":" ","HOUSE_NO":"１３１號","E_COORD97":169854.84,"N_COORD97":2545242.9900000002,"ADDRESS":"開元路１３１號","OBJECTID":53241},"geometry":{"x":169854.83999999985,"y":2545242.9900000021}},{"attributes":{"ID":53242,"DIS_CODE":0,"TOWNNAME":"永康區","LI":"二王里","LIN":"1鄰","STREET":"二王路","SECT":" ","MAREA":" ","LANE":"２７巷","ALLEY":"１２弄","HOUSE_NO":"１８號","E_COORD97":173051.94,"N_COORD97":2546746.9700000002,"ADDRESS":"二王路２７巷１２弄１８號","OBJECTID":53242},"geometry":{"x":173051.94000000041,"y":2546746.9700000007}},{"attributes":{"ID":53243,"DIS_CODE":0,"TOWNNAME":"永康區","LI":"二王里","LIN":"1鄰","STREET":"二王路","SECT":" ","MAREA":" ","LANE":"２７巷","ALLEY":"２２弄","HOUSE_NO":"４１號","E_COORD97":173104.51734799999,"N_COORD97":2546695.3474499998,"ADDRESS":"二王路２７巷２２弄４１號","OBJECTID":53243},"geometry":{"x":173104.51734799985,"y":2546695.3474530019}},{"attributes":{"ID":53244,"DIS_CODE":0,"TOWNNAME":"安平區","LI":"國平里","LIN":"7鄰","STREET":"建平三街","SECT":" ","MAREA":" ","LANE":"１８７巷","ALLEY":" ","HOUSE_NO":"１號","E_COORD97":165457.54000000001,"N_COORD97":2542972.5099999998,"ADDRESS":"建平三街１８７巷１號","OBJECTID":53244},"geometry":{"x":165457.54000000097,"y":2542972.5099999998}},{"attributes":{"ID":53245,"DIS_CODE":0,"TOWNNAME":"東區","LI":"虎尾里","LIN":"8鄰","STREET":"東成街","SECT":" ","MAREA":" ","LANE":"１４２巷","ALLEY":" ","HOUSE_NO":"２６號","E_COORD97":171655.95000000001,"N_COORD97":2542210.5,"ADDRESS":"東成街１４２巷２６號","OBJECTID":53245},"geometry":{"x":171655.95000000019,"y":2542210.5000000037}},{"attributes":{"ID":53246,"DIS_CODE":0,"TOWNNAME":"下營區","LI":"營前里","LIN":" ","STREET":"民生街","SECT":" ","MAREA":" ","LANE":" ","ALLEY":" ","HOUSE_NO":"６５號","E_COORD97":174470.91,"N_COORD97":2570324.1899999999,"ADDRESS":"民生街６５號","OBJECTID":53246},"geometry":{"x":174470.90999999922,"y":2570324.1899999995}},{"attributes":{"ID":53247,"DIS_CODE":0,"TOWNNAME":"下營區","LI":"下營里","LIN":" ","STREET":"民族一街","SECT":" ","MAREA":" ","LANE":" ","ALLEY":" ","HOUSE_NO":"６６號","E_COORD97":174381.39000000001,"N_COORD97":2570547.1800000002,"ADDRESS":"民族一街６６號","OBJECTID":53247},"geometry":{"x":174381.3900000006,"y":2570547.1800000016}},{"attributes":{"ID":53248,"DIS_CODE":0,"TOWNNAME":"下營區","LI":"後街里","LIN":" ","STREET":"民權一街","SECT":" ","MAREA":" ","LANE":" ","ALLEY":" ","HOUSE_NO":"１１６號","E_COORD97":174430.22,"N_COORD97":2570655.8999999999,"ADDRESS":"民權一街１１６號","OBJECTID":53248},"geometry":{"x":174430.22000000067,"y":2570655.9000000004}},{"attributes":{"ID":53249,"DIS_CODE":0,"TOWNNAME":"下營區","LI":"營前里","LIN":" ","STREET":"民權二街","SECT":" ","MAREA":" ","LANE":" ","ALLEY":" ","HOUSE_NO":"４８號","E_COORD97":174602.64000000001,"N_COORD97":2570070.0099999998,"ADDRESS":"民權二街４８號","OBJECTID":53249},"geometry":{"x":174602.63999999966,"y":2570070.0100000016}},{"attributes":{"ID":53250,"DIS_CODE":0,"TOWNNAME":"官田區","LI":"社子里","LIN":"13鄰","STREET":" ","SECT":" ","MAREA":"六\u25A0","LANE":" ","ALLEY":" ","HOUSE_NO":"２３號","E_COORD97":185394.23999999999,"N_COORD97":2562922.1499999999,"ADDRESS":"六\u25A0２３號","OBJECTID":53250},"geometry":{"x":185394.23999999929,"y":2562922.1500000022}},{"attributes":{"ID":53251,"DIS_CODE":0,"TOWNNAME":"麻豆區","LI":"港尾里","LIN":"7鄰","STREET":" ","SECT":" ","MAREA":"港子尾","LANE":" ","ALLEY":" ","HOUSE_NO":"２５號之１","E_COORD97":168563.079283,"N_COORD97":2567174.6581999999,"ADDRESS":"港子尾２５號之１","OBJECTID":53251},"geometry":{"x":168563.07928300183,"y":2567174.658195002}},{"attributes":{"ID":53252,"DIS_CODE":0,"TOWNNAME":"官田區","LI":"社子里","LIN":"13鄰","STREET":" ","SECT":" ","MAREA":"六\u25A0","LANE":" ","ALLEY":" ","HOUSE_NO":"２０號","E_COORD97":185333.72,"N_COORD97":2562971.52,"ADDRESS":"六\u25A0２０號","OBJECTID":53252},"geometry":{"x":185333.72000000067,"y":2562971.5199999996}},{"attributes":{"ID":53253,"DIS_CODE":0,"TOWNNAME":"官田區","LI":"社子里","LIN":"13鄰","STREET":" ","SECT":" ","MAREA":"六\u25A0","LANE":" ","ALLEY":" ","HOUSE_NO":"２１號","E_COORD97":185552.07000000001,"N_COORD97":2563065.5800000001,"ADDRESS":"六\u25A0２１號","OBJECTID":53253},"geometry":{"x":185552.07000000123,"y":2563065.5800000019}},{"attributes":{"ID":53254,"DIS_CODE":0,"TOWNNAME":"官田區","LI":"社子里","LIN":"13鄰","STREET":" ","SECT":" ","MAREA":"六\u25A0","LANE":" ","ALLEY":" ","HOUSE_NO":"２２號","E_COORD97":185379.42999999999,"N_COORD97":2562936.8799999999,"ADDRESS":"六\u25A0２２號","OBJECTID":53254},"geometry":{"x":185379.43000000063,"y":2562936.8800000008}},{"attributes":{"ID":53255,"DIS_CODE":0,"TOWNNAME":"官田區","LI":"社子里","LIN":"13鄰","STREET":" ","SECT":" ","MAREA":"六\u25A0","LANE":" ","ALLEY":" ","HOUSE_NO":"２３號之２","E_COORD97":185378.39999999999,"N_COORD97":2562913.7400000002,"ADDRESS":"六\u25A0２３號之２","OBJECTID":53255},"geometry":{"x":185378.4000000013,"y":2562913.7400000002}},{"attributes":{"ID":53256,"DIS_CODE":0,"TOWNNAME":"安平區","LI":"億載里","LIN":"7鄰","STREET":"光州六街","SECT":" ","MAREA":" ","LANE":" ","ALLEY":" ","HOUSE_NO":"１７０號","E_COORD97":163953.78,"N_COORD97":2543541.1899999999,"ADDRESS":"光州六街１７０號","OBJECTID":53256},"geometry":{"x":163953.78000000119,"y":2543541.1900000032}},{"attributes":{"ID":53257,"DIS_CODE":0,"TOWNNAME":"安平區","LI":"華平里","LIN":"7鄰","STREET":"華平路","SECT":" ","MAREA":" ","LANE":" ","ALLEY":" ","HOUSE_NO":"５４５號","E_COORD97":165463.79000000001,"N_COORD97":2543916.9900000002,"ADDRESS":"華平路５４５號","OBJECTID":53257},"geometry":{"x":165463.79000000097,"y":2543916.9900000021}},{"attributes":{"ID":53258,"DIS_CODE":0,"TOWNNAME":"永康區","LI":"\u25A0行里","LIN":"8鄰","STREET":"中正一街","SECT":" ","MAREA":" ","LANE":" ","ALLEY":" ","HOUSE_NO":"２９號","E_COORD97":172758.22,"N_COORD97":2548350.2400000002,"ADDRESS":"中正一街２９號","OBJECTID":53258},"geometry":{"x":172758.22000000067,"y":2548350.2400000021}},{"attributes":{"ID":53259,"DIS_CODE":0,"TOWNNAME":"永康區","LI":"中華里","LIN":"8鄰","STREET":"忠勇街","SECT":" ","MAREA":" ","LANE":" ","ALLEY":" ","HOUSE_NO":"５８號","E_COORD97":171899.54000000001,"N_COORD97":2544486.23,"ADDRESS":"忠勇街５８號","OBJECTID":53259},"geometry":{"x":171899.54000000004,"y":2544486.2300000004}},{"attributes":{"ID":53260,"DIS_CODE":0,"TOWNNAME":"東區","LI":"虎尾里","LIN":"8鄰","STREET":"富農街","SECT":"一段","MAREA":" ","LANE":"４８巷","ALLEY":" ","HOUSE_NO":"２０號","E_COORD97":171625.19,"N_COORD97":2542131.21,"ADDRESS":"富農街一段４８巷２０號","OBJECTID":53260},"geometry":{"x":171625.19000000134,"y":2542131.2100000009}},{"attributes":{"ID":53261,"DIS_CODE":0,"TOWNNAME":"東區","LI":"虎尾里","LIN":"8鄰","STREET":"富農街","SECT":"一段","MAREA":" ","LANE":"４８巷","ALLEY":" ","HOUSE_NO":"３６號","E_COORD97":171659.48999999999,"N_COORD97":2542140.0699999998,"ADDRESS":"富農街一段４８巷３６號","OBJECTID":53261},"geometry":{"x":171659.49000000022,"y":2542140.0700000022}},{"attributes":{"ID":53262,"DIS_CODE":0,"TOWNNAME":"永康區","LI":"龍潭里","LIN":"8鄰","STREET":"龍埔街","SECT":" ","MAREA":" ","LANE":"４６巷","ALLEY":" ","HOUSE_NO":"８號","E_COORD97":174783.64999999999,"N_COORD97":2548274.5,"ADDRESS":"龍埔街４６巷８號","OBJECTID":53262},"geometry":{"x":174783.6500000013,"y":2548274.5}},{"attributes":{"ID":53263,"DIS_CODE":0,"TOWNNAME":"永康區","LI":"網寮里","LIN":"8鄰","STREET":"永二街","SECT":" ","MAREA":" ","LANE":"２４４巷","ALLEY":" ","HOUSE_NO":"１號之９","E_COORD97":173252.79999999999,"N_COORD97":2546370.6000000001,"ADDRESS":"永二街２４４巷１號之９","OBJECTID":53263},"geometry":{"x":173252.80000000075,"y":2546370.6000000015}},{"attributes":{"ID":53264,"DIS_CODE":0,"TOWNNAME":"永康區","LI":"二王里","LIN":"1鄰","STREET":"二王路","SECT":" ","MAREA":" ","LANE":"２７巷","ALLEY":"１２弄","HOUSE_NO":"４０號","E_COORD97":173059.39000000001,"N_COORD97":2546691.71,"ADDRESS":"二王路２７巷１２弄４０號","OBJECTID":53264},"geometry":{"x":173059.3900000006,"y":2546691.7100000009}},{"attributes":{"ID":53265,"DIS_CODE":0,"TOWNNAME":"永康區","LI":"二王里","LIN":"1鄰","STREET":"二王路","SECT":" ","MAREA":" ","LANE":"２７巷","ALLEY":"１２弄","HOUSE_NO":"３３號","E_COORD97":173068.48000000001,"N_COORD97":2546688.8500000001,"ADDRESS":"二王路２７巷１２弄３３號","OBJECTID":53265},"geometry":{"x":173068.48000000045,"y":2546688.8499999996}},{"attributes":{"ID":53266,"DIS_CODE":0,"TOWNNAME":"永康區","LI":"二王里","LIN":"1鄰","STREET":"二王路","SECT":" ","MAREA":" ","LANE":"２７巷","ALLEY":"１２弄","HOUSE_NO":"２０號","E_COORD97":173052.45000000001,"N_COORD97":2546740.4700000002,"ADDRESS":"二王路２７巷１２弄２０號","OBJECTID":53266},"geometry":{"x":173052.45000000112,"y":2546740.4700000007}},{"attributes":{"ID":53267,"DIS_CODE":0,"TOWNNAME":"七股區","LI":"龍山里","LIN":"1鄰","STREET":" ","SECT":" ","MAREA":"龍山","LANE":" ","ALLEY":" ","HOUSE_NO":"９號之１８","E_COORD97":159622.28,"N_COORD97":2559804.8999999999,"ADDRESS":"龍山９號之１８","OBJECTID":53267},"geometry":{"x":159622.28000000212,"y":2559804.9000000022}},{"attributes":{"ID":53268,"DIS_CODE":0,"TOWNNAME":"七股區","LI":"龍山里","LIN":"1鄰","STREET":" ","SECT":" ","MAREA":"龍山","LANE":" ","ALLEY":" ","HOUSE_NO":"９號之１９","E_COORD97":159623.39000000001,"N_COORD97":2559809.3300000001,"ADDRESS":"龍山９號之１９","OBJECTID":53268},"geometry":{"x":159623.38999999966,"y":2559809.3300000019}},{"attributes":{"ID":53269,"DIS_CODE":0,"TOWNNAME":"七股區","LI":"龍山里","LIN":"1鄰","STREET":" ","SECT":" ","MAREA":"龍山","LANE":" ","ALLEY":" ","HOUSE_NO":"９號之１","E_COORD97":159570.44,"N_COORD97":2559775.6499999999,"ADDRESS":"龍山９號之１","OBJECTID":53269},"geometry":{"x":159570.44000000227,"y":2559775.6500000022}},{"attributes":{"ID":53270,"DIS_CODE":0,"TOWNNAME":"七股區","LI":"龍山里","LIN":"1鄰","STREET":" ","SECT":" ","MAREA":"龍山","LANE":" ","ALLEY":" ","HOUSE_NO":"９號之２０","E_COORD97":159624.48999999999,"N_COORD97":2559812.8599999999,"ADDRESS":"龍山９號之２０","OBJECTID":53270},"geometry":{"x":159624.49000000115,"y":2559812.8599999994}},{"attributes":{"ID":53271,"DIS_CODE":0,"TOWNNAME":"七股區","LI":"龍山里","LIN":"1鄰","STREET":" ","SECT":" ","MAREA":"龍山","LANE":" ","ALLEY":" ","HOUSE_NO":"９號之２１","E_COORD97":159625.59,"N_COORD97":2559816.6000000001,"ADDRESS":"龍山９號之２１","OBJECTID":53271},"geometry":{"x":159625.58999999985,"y":2559816.6000000015}},{"attributes":{"ID":53272,"DIS_CODE":0,"TOWNNAME":"七股區","LI":"龍山里","LIN":"1鄰","STREET":" ","SECT":" ","MAREA":"龍山","LANE":" ","ALLEY":" ","HOUSE_NO":"９號之２２","E_COORD97":159627.29000000001,"N_COORD97":2559820.6600000001,"ADDRESS":"龍山９號之２２","OBJECTID":53272},"geometry":{"x":159627.29000000097,"y":2559820.660000002}},{"attributes":{"ID":53273,"DIS_CODE":0,"TOWNNAME":"永康區","LI":"二王里","LIN":"1鄰","STREET":"二王路","SECT":" ","MAREA":" ","LANE":"２７巷","ALLEY":"１２弄","HOUSE_NO":"３５號","E_COORD97":173069.45000000001,"N_COORD97":2546682.8500000001,"ADDRESS":"二王路２７巷１２弄３５號","OBJECTID":53273},"geometry":{"x":173069.45000000112,"y":2546682.8500000034}},{"attributes":{"ID":53274,"DIS_CODE":0,"TOWNNAME":"永康區","LI":"勝利里","LIN":"1鄰","STREET":"勝利街","SECT":" ","MAREA":" ","LANE":"１巷","ALLEY":"１１弄","HOUSE_NO":"３５號","E_COORD97":171055.60000000001,"N_COORD97":2544665.0099999998,"ADDRESS":"勝利街１巷１１弄３５號","OBJECTID":53274},"geometry":{"x":171055.60000000056,"y":2544665.0100000016}},{"attributes":{"ID":53275,"DIS_CODE":0,"TOWNNAME":"永康區","LI":"勝利里","LIN":"1鄰","STREET":"勝利街","SECT":" ","MAREA":" ","LANE":"１巷","ALLEY":"１１弄","HOUSE_NO":"１２號","E_COORD97":171128.60000000001,"N_COORD97":2544622,"ADDRESS":"勝利街１巷１１弄１２號","OBJECTID":53275},"geometry":{"x":171128.60000000056,"y":2544622.0000000019}},{"attributes":{"ID":53276,"DIS_CODE":0,"TOWNNAME":"永康區","LI":"西勢里","LIN":"1鄰","STREET":"富強路","SECT":"二段","MAREA":" ","LANE":"１９巷","ALLEY":"１４弄","HOUSE_NO":"２號","E_COORD97":175646.29000000001,"N_COORD97":2546856.2599999998,"ADDRESS":"富強路二段１９巷１４弄２號","OBJECTID":53276},"geometry":{"x":175646.29000000004,"y":2546856.2599999998}},{"attributes":{"ID":53277,"DIS_CODE":0,"TOWNNAME":"七股區","LI":"龍山里","LIN":"1鄰","STREET":" ","SECT":" ","MAREA":"龍山","LANE":" ","ALLEY":" ","HOUSE_NO":"９號之２５","E_COORD97":159580.70999999999,"N_COORD97":2559792.3199999998,"ADDRESS":"龍山９號之２５","OBJECTID":53277},"geometry":{"x":159580.71000000089,"y":2559792.3200000022}},{"attributes":{"ID":53278,"DIS_CODE":0,"TOWNNAME":"永康區","LI":"西橋里","LIN":"1鄰","STREET":"中山南路","SECT":" ","MAREA":" ","LANE":"４３巷","ALLEY":"７弄","HOUSE_NO":"３號","E_COORD97":170720.60999999999,"N_COORD97":2545834.6000000001,"ADDRESS":"中山南路４３巷７弄３號","OBJECTID":53278},"geometry":{"x":170720.61000000127,"y":2545834.6000000015}},{"attributes":{"ID":53279,"DIS_CODE":0,"TOWNNAME":"七股區","LI":"龍山里","LIN":"1鄰","STREET":" ","SECT":" ","MAREA":"龍山","LANE":" ","ALLEY":" ","HOUSE_NO":"９號之２","E_COORD97":159621.34,"N_COORD97":2559767.3999999999,"ADDRESS":"龍山９號之２","OBJECTID":53279},"geometry":{"x":159621.34000000171,"y":2559767.4000000022}},{"attributes":{"ID":53280,"DIS_CODE":0,"TOWNNAME":"七股區","LI":"龍山里","LIN":"1鄰","STREET":" ","SECT":" ","MAREA":"龍山","LANE":" ","ALLEY":" ","HOUSE_NO":"９號之３","E_COORD97":159616.81,"N_COORD97":2559768.1400000001,"ADDRESS":"龍山９號之３","OBJECTID":53280},"geometry":{"x":159616.81000000052,"y":2559768.1400000006}},{"attributes":{"ID":53281,"DIS_CODE":0,"TOWNNAME":"七股區","LI":"龍山里","LIN":"1鄰","STREET":" ","SECT":" ","MAREA":"龍山","LANE":" ","ALLEY":" ","HOUSE_NO":"９號之４","E_COORD97":159612.70999999999,"N_COORD97":2559768.7000000002,"ADDRESS":"龍山９號之４","OBJECTID":53281},"geometry":{"x":159612.71000000089,"y":2559768.7000000011}},{"attributes":{"ID":53282,"DIS_CODE":0,"TOWNNAME":"七股區","LI":"龍山里","LIN":"1鄰","STREET":" ","SECT":" ","MAREA":"龍山","LANE":" ","ALLEY":" ","HOUSE_NO":"９號之５","E_COORD97":159608.88,"N_COORD97":2559769.1699999999,"ADDRESS":"龍山９號之５","OBJECTID":53282},"geometry":{"x":159608.87999999989,"y":2559769.1700000018}},{"attributes":{"ID":53283,"DIS_CODE":0,"TOWNNAME":"七股區","LI":"龍山里","LIN":"1鄰","STREET":" ","SECT":" ","MAREA":"龍山","LANE":" ","ALLEY":" ","HOUSE_NO":"９號之６","E_COORD97":159604.70999999999,"N_COORD97":2559769.9700000002,"ADDRESS":"龍山９號之６","OBJECTID":53283},"geometry":{"x":159604.70999999996,"y":2559769.9700000044}},{"attributes":{"ID":53284,"DIS_CODE":0,"TOWNNAME":"永康區","LI":"二王里","LIN":"1鄰","STREET":"二王路","SECT":" ","MAREA":" ","LANE":"２７巷","ALLEY":"１２弄","HOUSE_NO":"２９號","E_COORD97":173066.67000000001,"N_COORD97":2546701.3500000001,"ADDRESS":"二王路２７巷１２弄２９號","OBJECTID":53284},"geometry":{"x":173066.66999999993,"y":2546701.3500000015}},{"attributes":{"ID":53285,"DIS_CODE":0,"TOWNNAME":"永康區","LI":"二王里","LIN":"1鄰","STREET":"二王路","SECT":" ","MAREA":" ","LANE":"２７巷","ALLEY":"１２弄","HOUSE_NO":"３６號","E_COORD97":173057.79999999999,"N_COORD97":2546703.71,"ADDRESS":"二王路２７巷１２弄３６號","OBJECTID":53285},"geometry":{"x":173057.80000000075,"y":2546703.7100000028}},{"attributes":{"ID":53286,"DIS_CODE":0,"TOWNNAME":"永康區","LI":"二王里","LIN":"1鄰","STREET":"二王路","SECT":" ","MAREA":" ","LANE":"２７巷","ALLEY":"１２弄","HOUSE_NO":"６號","E_COORD97":173047.17000000001,"N_COORD97":2546777.21,"ADDRESS":"二王路２７巷１２弄６號","OBJECTID":53286},"geometry":{"x":173047.17000000086,"y":2546777.2100000028}},{"attributes":{"ID":53287,"DIS_CODE":0,"TOWNNAME":"永康區","LI":"二王里","LIN":"1鄰","STREET":"二王路","SECT":" ","MAREA":" ","LANE":"２７巷","ALLEY":"１２弄","HOUSE_NO":"４６號","E_COORD97":173060.95999999999,"N_COORD97":2546679.96,"ADDRESS":"二王路２７巷１２弄４６號","OBJECTID":53287},"geometry":{"x":173060.95999999996,"y":2546679.959999999}},{"attributes":{"ID":53288,"DIS_CODE":0,"TOWNNAME":"七股區","LI":"龍山里","LIN":"1鄰","STREET":" ","SECT":" ","MAREA":"龍山","LANE":" ","ALLEY":" ","HOUSE_NO":"９號之７","E_COORD97":159600.54000000001,"N_COORD97":2559770.77,"ADDRESS":"龍山９號之７","OBJECTID":53288},"geometry":{"x":159600.54000000097,"y":2559770.7700000014}},{"attributes":{"ID":53289,"DIS_CODE":0,"TOWNNAME":"中西區","LI":"天后里","LIN":"8鄰","STREET":"民族路","SECT":"二段","MAREA":" ","LANE":" ","ALLEY":" ","HOUSE_NO":"４１３號","E_COORD97":168058.73000000001,"N_COORD97":2544206.3599999999,"ADDRESS":"民族路二段４１３號","OBJECTID":53289},"geometry":{"x":168058.73000000138,"y":2544206.3599999994}},{"attributes":{"ID":53290,"DIS_CODE":0,"TOWNNAME":"中西區","LI":"天后里","LIN":"8鄰","STREET":"民族路","SECT":"二段","MAREA":" ","LANE":" ","ALLEY":" ","HOUSE_NO":"４１５號","E_COORD97":168055.23999999999,"N_COORD97":2544207.2999999998,"ADDRESS":"民族路二段４１５號","OBJECTID":53290},"geometry":{"x":168055.24000000022,"y":2544207.3000000026}},{"attributes":{"ID":53291,"DIS_CODE":0,"TOWNNAME":"中西區","LI":"天后里","LIN":"8鄰","STREET":"民族路","SECT":"二段","MAREA":" ","LANE":" ","ALLEY":" ","HOUSE_NO":"４１７號","E_COORD97":168048.79999999999,"N_COORD97":2544210.9199999999,"ADDRESS":"民族路二段４１７號","OBJECTID":53291},"geometry":{"x":168048.80000000075,"y":2544210.9199999981}},{"attributes":{"ID":53292,"DIS_CODE":0,"TOWNNAME":"中西區","LI":"天后里","LIN":"8鄰","STREET":"西門路","SECT":"二段","MAREA":" ","LANE":" ","ALLEY":" ","HOUSE_NO":"３０２號","E_COORD97":167985.82000000001,"N_COORD97":2544153.9399999999,"ADDRESS":"西門路二段３０２號","OBJECTID":53292},"geometry":{"x":167985.8200000003,"y":2544153.9400000013}},{"attributes":{"ID":53293,"DIS_CODE":0,"TOWNNAME":"中西區","LI":"天后里","LIN":"8鄰","STREET":"西門路","SECT":"二段","MAREA":" ","LANE":" ","ALLEY":" ","HOUSE_NO":"３０４號","E_COORD97":167988.20999999999,"N_COORD97":2544159.6600000001,"ADDRESS":"西門路二段３０４號","OBJECTID":53293},"geometry":{"x":167988.21000000183,"y":2544159.660000002}},{"attributes":{"ID":53294,"DIS_CODE":0,"TOWNNAME":"中西區","LI":"天后里","LIN":"8鄰","STREET":"西門路","SECT":"二段","MAREA":" ","LANE":" ","ALLEY":" ","HOUSE_NO":"３０６號","E_COORD97":167992.98000000001,"N_COORD97":2544167.77,"ADDRESS":"西門路二段３０６號","OBJECTID":53294},"geometry":{"x":167992.98000000045,"y":2544167.7700000033}},{"attributes":{"ID":53295,"DIS_CODE":0,"TOWNNAME":"中西區","LI":"天后里","LIN":"8鄰","STREET":"西門路","SECT":"二段","MAREA":" ","LANE":" ","ALLEY":" ","HOUSE_NO":"３０８號","E_COORD97":168002.51999999999,"N_COORD97":2544172.77,"ADDRESS":"西門路二段３０８號","OBJECTID":53295},"geometry":{"x":168002.52000000142,"y":2544172.7700000014}},{"attributes":{"ID":53296,"DIS_CODE":0,"TOWNNAME":"中西區","LI":"天后里","LIN":"8鄰","STREET":"西門路","SECT":"二段","MAREA":" ","LANE":" ","ALLEY":" ","HOUSE_NO":"３１０號","E_COORD97":168005.14000000001,"N_COORD97":2544166.8100000001,"ADDRESS":"西門路二段３１０號","OBJECTID":53296},"geometry":{"x":168005.14000000153,"y":2544166.8100000005}},{"attributes":{"ID":53297,"DIS_CODE":0,"TOWNNAME":"中西區","LI":"天后里","LIN":"8鄰","STREET":"西門路","SECT":"二段","MAREA":" ","LANE":" ","ALLEY":" ","HOUSE_NO":"３１４號","E_COORD97":168022.32000000001,"N_COORD97":2544176.8100000001,"ADDRESS":"西門路二段３１４號","OBJECTID":53297},"geometry":{"x":168022.32000000123,"y":2544176.8100000024}},{"attributes":{"ID":53298,"DIS_CODE":0,"TOWNNAME":"七股區","LI":"龍山里","LIN":"1鄰","STREET":" ","SECT":" ","MAREA":"龍山","LANE":" ","ALLEY":" ","HOUSE_NO":"９號之８","E_COORD97":159596.37,"N_COORD97":2559771.5800000001,"ADDRESS":"龍山９號之８","OBJECTID":53298},"geometry":{"x":159596.37000000104,"y":2559771.5800000001}},{"attributes":{"ID":53299,"DIS_CODE":0,"TOWNNAME":"大內區","LI":"內郭里","LIN":"8鄰","STREET":" ","SECT":" ","MAREA":"後堀","LANE":" ","ALLEY":" ","HOUSE_NO":"１９號之１","E_COORD97":185610.19,"N_COORD97":2557533.3199999998,"ADDRESS":"後堀１９號之１","OBJECTID":53299},"geometry":{"x":185610.19000000227,"y":2557533.320000004}},{"attributes":{"ID":53300,"DIS_CODE":0,"TOWNNAME":"大內區","LI":"內郭里","LIN":"8鄰","STREET":" ","SECT":" ","MAREA":"後堀","LANE":" ","ALLEY":" ","HOUSE_NO":"１９號之２","E_COORD97":185647.73000000001,"N_COORD97":2557473.3199999998,"ADDRESS":"後堀１９號之２","OBJECTID":53300},"geometry":{"x":185647.73000000138,"y":2557473.3200000022}},{"attributes":{"ID":53301,"DIS_CODE":0,"TOWNNAME":"大內區","LI":"內郭里","LIN":"8鄰","STREET":" ","SECT":" ","MAREA":"後堀","LANE":" ","ALLEY":" ","HOUSE_NO":"２０號","E_COORD97":185691.35999999999,"N_COORD97":2557498.3199999998,"ADDRESS":"後堀２０號","OBJECTID":53301},"geometry":{"x":185691.36000000034,"y":2557498.3200000003}},{"attributes":{"ID":53302,"DIS_CODE":0,"TOWNNAME":"大內區","LI":"內郭里","LIN":"8鄰","STREET":" ","SECT":" ","MAREA":"後堀","LANE":" ","ALLEY":" ","HOUSE_NO":"１２號","E_COORD97":185598.85999999999,"N_COORD97":2557437.3199999998,"ADDRESS":"後堀１２號","OBJECTID":53302},"geometry":{"x":185598.8600000022,"y":2557437.3200000003}},{"attributes":{"ID":53303,"DIS_CODE":0,"TOWNNAME":"永康區","LI":"二王里","LIN":"1鄰","STREET":"二王路","SECT":" ","MAREA":" ","LANE":"２７巷","ALLEY":"１２弄","HOUSE_NO":"１６號","E_COORD97":173051.04000000001,"N_COORD97":2546752.9700000002,"ADDRESS":"二王路２７巷１２弄１６號","OBJECTID":53303},"geometry":{"x":173051.03999999911,"y":2546752.9700000007}},{"attributes":{"ID":53304,"DIS_CODE":0,"TOWNNAME":"永康區","LI":"二王里","LIN":"1鄰","STREET":"二王路","SECT":" ","MAREA":" ","LANE":"２７巷","ALLEY":"１２弄","HOUSE_NO":"４２號","E_COORD97":173060.28,"N_COORD97":2546685.46,"ADDRESS":"二王路２７巷１２弄４２號","OBJECTID":53304},"geometry":{"x":173060.28000000119,"y":2546685.4600000009}},{"attributes":{"ID":53305,"DIS_CODE":0,"TOWNNAME":"永康區","LI":"二王里","LIN":"1鄰","STREET":"二王路","SECT":" ","MAREA":" ","LANE":"２７巷","ALLEY":"１２弄","HOUSE_NO":"２２號","E_COORD97":173053.56,"N_COORD97":2546734.2200000002,"ADDRESS":"二王路２７巷１２弄２２號","OBJECTID":53305},"geometry":{"x":173053.55999999959,"y":2546734.2200000007}},{"attributes":{"ID":53306,"DIS_CODE":0,"TOWNNAME":"安南區","LI":"海南里","LIN":"1鄰","STREET":"府安路","SECT":"六段","MAREA":" ","LANE":"１０３巷","ALLEY":"１１１弄","HOUSE_NO":"３６號","E_COORD97":166548.60999999999,"N_COORD97":2546762.2999999998,"ADDRESS":"府安路六段１０３巷１１１弄３６號","OBJECTID":53306},"geometry":{"x":166548.61000000127,"y":2546762.3000000045}},{"attributes":{"ID":53307,"DIS_CODE":0,"TOWNNAME":"安南區","LI":"海南里","LIN":"1鄰","STREET":"府安路","SECT":"六段","MAREA":" ","LANE":"１０３巷","ALLEY":"１１１弄","HOUSE_NO":"３２號","E_COORD97":166560.84,"N_COORD97":2546763.5299999998,"ADDRESS":"府安路六段１０３巷１１１弄３２號","OBJECTID":53307},"geometry":{"x":166560.83999999985,"y":2546763.5300000012}},{"attributes":{"ID":53308,"DIS_CODE":0,"TOWNNAME":"安南區","LI":"城東里","LIN":"1鄰","STREET":"城北路","SECT":" ","MAREA":" ","LANE":"１３８巷","ALLEY":"１０１弄","HOUSE_NO":"２８號","E_COORD97":161195.60000000001,"N_COORD97":2551816.6499999999,"ADDRESS":"城北路１３８巷１０１弄２８號","OBJECTID":53308},"geometry":{"x":161195.59999999963,"y":2551816.6500000004}},{"attributes":{"ID":53309,"DIS_CODE":0,"TOWNNAME":"大內區","LI":"大內里","LIN":"8鄰","STREET":" ","SECT":" ","MAREA":"內庄","LANE":" ","ALLEY":" ","HOUSE_NO":"９３號之２","E_COORD97":184675.70000000001,"N_COORD97":2557507.2999999998,"ADDRESS":"內庄９３號之２","OBJECTID":53309},"geometry":{"x":184675.69999999925,"y":2557507.3000000026}},{"attributes":{"ID":53310,"DIS_CODE":0,"TOWNNAME":"大內區","LI":"二溪里","LIN":"8鄰","STREET":" ","SECT":" ","MAREA":"二重溪","LANE":" ","ALLEY":" ","HOUSE_NO":"２１６號","E_COORD97":188793.34,"N_COORD97":2559628.3100000001,"ADDRESS":"二重溪２１６號","OBJECTID":53310},"geometry":{"x":188793.33999999985,"y":2559628.3100000005}},{"attributes":{"ID":53311,"DIS_CODE":0,"TOWNNAME":"大內區","LI":"大內里","LIN":"8鄰","STREET":" ","SECT":" ","MAREA":"內庄","LANE":" ","ALLEY":" ","HOUSE_NO":"９２號","E_COORD97":184691.42999999999,"N_COORD97":2557529.25,"ADDRESS":"內庄９２號","OBJECTID":53311},"geometry":{"x":184691.43000000063,"y":2557529.25}},{"attributes":{"ID":53312,"DIS_CODE":0,"TOWNNAME":"北區","LI":"勝安里","LIN":"5鄰","STREET":"開元路","SECT":" ","MAREA":" ","LANE":" ","ALLEY":" ","HOUSE_NO":"１３３號","E_COORD97":169857.32999999999,"N_COORD97":2545243.96,"ADDRESS":"開元路１３３號","OBJECTID":53312},"geometry":{"x":169857.33000000101,"y":2545243.9600000028}},{"attributes":{"ID":53313,"DIS_CODE":0,"TOWNNAME":"北區","LI":"勝安里","LIN":"5鄰","STREET":"開元路","SECT":" ","MAREA":" ","LANE":" ","ALLEY":" ","HOUSE_NO":"１３５號","E_COORD97":169861.01000000001,"N_COORD97":2545245.8799999999,"ADDRESS":"開元路１３５號","OBJECTID":53313},"geometry":{"x":169861.01000000071,"y":2545245.8800000008}},{"attributes":{"ID":53314,"DIS_CODE":0,"TOWNNAME":"大內區","LI":"二溪里","LIN":"8鄰","STREET":" ","SECT":" ","MAREA":"二重溪","LANE":" ","ALLEY":" ","HOUSE_NO":"２１５號","E_COORD97":188758.04000000001,"N_COORD97":2559765.2999999998,"ADDRESS":"二重溪２１５號","OBJECTID":53314},"geometry":{"x":188758.04000000004,"y":2559765.3000000026}},{"attributes":{"ID":53315,"DIS_CODE":0,"TOWNNAME":"大內區","LI":"二溪里","LIN":"8鄰","STREET":" ","SECT":" ","MAREA":"二重溪","LANE":" ","ALLEY":" ","HOUSE_NO":"２２５之２號","E_COORD97":188773.44,"N_COORD97":2560170.3100000001,"ADDRESS":"二重溪２２５之２號","OBJECTID":53315},"geometry":{"x":188773.44000000227,"y":2560170.3100000005}},{"attributes":{"ID":53316,"DIS_CODE":0,"TOWNNAME":"大內區","LI":"二溪里","LIN":"8鄰","STREET":" ","SECT":" ","MAREA":"二重溪","LANE":" ","ALLEY":" ","HOUSE_NO":"２２１號","E_COORD97":188796.14000000001,"N_COORD97":2560121.3100000001,"ADDRESS":"二重溪２２１號","OBJECTID":53316},"geometry":{"x":188796.13999999966,"y":2560121.3100000024}},{"attributes":{"ID":53317,"DIS_CODE":0,"TOWNNAME":"北區","LI":"勝安里","LIN":"5鄰","STREET":"開元路","SECT":" ","MAREA":" ","LANE":" ","ALLEY":" ","HOUSE_NO":"１３７號","E_COORD97":169864.26999999999,"N_COORD97":2545246.9500000002,"ADDRESS":"開元路１３７號","OBJECTID":53317},"geometry":{"x":169864.27000000048,"y":2545246.9499999993}},{"attributes":{"ID":53318,"DIS_CODE":0,"TOWNNAME":"北區","LI":"勝安里","LIN":"5鄰","STREET":"開元路","SECT":" ","MAREA":" ","LANE":" ","ALLEY":" ","HOUSE_NO":"１３９號","E_COORD97":169867.89999999999,"N_COORD97":2545248.3700000001,"ADDRESS":"開元路１３９號","OBJECTID":53318},"geometry":{"x":169867.9000000013,"y":2545248.3700000029}},{"attributes":{"ID":53319,"DIS_CODE":0,"TOWNNAME":"北區","LI":"勝安里","LIN":"5鄰","STREET":"開元路","SECT":" ","MAREA":" ","LANE":" ","ALLEY":" ","HOUSE_NO":"１４７號","E_COORD97":169896.14000000001,"N_COORD97":2545268.9399999999,"ADDRESS":"開元路１４７號","OBJECTID":53319},"geometry":{"x":169896.1400000006,"y":2545268.9400000013}},{"attributes":{"ID":53320,"DIS_CODE":0,"TOWNNAME":"安南區","LI":"溪東里","LIN":"8鄰","STREET":"府安路","SECT":"五段","MAREA":" ","LANE":" ","ALLEY":" ","HOUSE_NO":"３９號","E_COORD97":168352.57000000001,"N_COORD97":2547203.02,"ADDRESS":"府安路五段３９號","OBJECTID":53320},"geometry":{"x":168352.57000000123,"y":2547203.0199999996}},{"attributes":{"ID":53321,"DIS_CODE":0,"TOWNNAME":"大內區","LI":"內郭里","LIN":"8鄰","STREET":" ","SECT":" ","MAREA":"後堀","LANE":" ","ALLEY":" ","HOUSE_NO":"１３之５號","E_COORD97":185627.35999999999,"N_COORD97":2557452.3199999998,"ADDRESS":"後堀１３之５號","OBJECTID":53321},"geometry":{"x":185627.36000000034,"y":2557452.3200000022}},{"attributes":{"ID":53322,"DIS_CODE":0,"TOWNNAME":"七股區","LI":"龍山里","LIN":"1鄰","STREET":" ","SECT":" ","MAREA":"龍山","LANE":" ","ALLEY":" ","HOUSE_NO":"９號之９","E_COORD97":159592.20000000001,"N_COORD97":2559772.3799999999,"ADDRESS":"龍山９號之９","OBJECTID":53322},"geometry":{"x":159592.20000000205,"y":2559772.3800000027}},{"attributes":{"ID":53323,"DIS_CODE":0,"TOWNNAME":"將軍區","LI":"三吉里","LIN":"1鄰","STREET":" ","SECT":" ","MAREA":"三吉","LANE":" ","ALLEY":" ","HOUSE_NO":"１之２號","E_COORD97":161411.67999999999,"N_COORD97":2567763.6000000001,"ADDRESS":"三吉１之２號","OBJECTID":53323},"geometry":{"x":161411.6799999997,"y":2567763.6000000015}},{"attributes":{"ID":53324,"DIS_CODE":0,"TOWNNAME":"將軍區","LI":"三吉里","LIN":"1鄰","STREET":" ","SECT":" ","MAREA":"三吉","LANE":" ","ALLEY":" ","HOUSE_NO":"１號","E_COORD97":161388.37,"N_COORD97":2567760.1000000001,"ADDRESS":"三吉１號","OBJECTID":53324},"geometry":{"x":161388.37000000104,"y":2567760.1000000015}},{"attributes":{"ID":53325,"DIS_CODE":0,"TOWNNAME":"將軍區","LI":"三吉里","LIN":"1鄰","STREET":" ","SECT":" ","MAREA":"三吉","LANE":" ","ALLEY":" ","HOUSE_NO":"２之１號","E_COORD97":161408.98999999999,"N_COORD97":2567732.79,"ADDRESS":"三吉２之１號","OBJECTID":53325},"geometry":{"x":161408.98999999929,"y":2567732.7899999991}},{"attributes":{"ID":53326,"DIS_CODE":0,"TOWNNAME":"安南區","LI":"城東里","LIN":"1鄰","STREET":"城北路","SECT":" ","MAREA":" ","LANE":"１３８巷","ALLEY":"１０１弄","HOUSE_NO":"１８號","E_COORD97":161202.14999999999,"N_COORD97":2551795.7599999998,"ADDRESS":"城北路１３８巷１０１弄１８號","OBJECTID":53326},"geometry":{"x":161202.1500000013,"y":2551795.7599999998}},{"attributes":{"ID":53327,"DIS_CODE":0,"TOWNNAME":"安南區","LI":"城東里","LIN":"1鄰","STREET":"城北路","SECT":" ","MAREA":" ","LANE":"１３８巷","ALLEY":"１０１弄","HOUSE_NO":"２０號","E_COORD97":161200.89000000001,"N_COORD97":2551800.29,"ADDRESS":"城北路１３８巷１０１弄２０號","OBJECTID":53327},"geometry":{"x":161200.8900000006,"y":2551800.290000001}},{"attributes":{"ID":53328,"DIS_CODE":0,"TOWNNAME":"安南區","LI":"城東里","LIN":"1鄰","STREET":"城北路","SECT":" ","MAREA":" ","LANE":"１３８巷","ALLEY":"１０１弄","HOUSE_NO":"２２號","E_COORD97":161200.64000000001,"N_COORD97":2551804.0699999998,"ADDRESS":"城北路１３８巷１０１弄２２號","OBJECTID":53328},"geometry":{"x":161200.64000000153,"y":2551804.0700000003}},{"attributes":{"ID":53329,"DIS_CODE":0,"TOWNNAME":"安南區","LI":"城東里","LIN":"1鄰","STREET":"城北路","SECT":" ","MAREA":" ","LANE":"１３８巷","ALLEY":"１０１弄","HOUSE_NO":"２４號","E_COORD97":161198.23999999999,"N_COORD97":2551807.8399999999,"ADDRESS":"城北路１３８巷１０１弄２４號","OBJECTID":53329},"geometry":{"x":161198.24000000022,"y":2551807.8399999999}},{"attributes":{"ID":53330,"DIS_CODE":0,"TOWNNAME":"安南區","LI":"城東里","LIN":"1鄰","STREET":"城北路","SECT":" ","MAREA":" ","LANE":"１３８巷","ALLEY":"１０１弄","HOUSE_NO":"２６號","E_COORD97":161196.85999999999,"N_COORD97":2551811.9900000002,"ADDRESS":"城北路１３８巷１０１弄２６號","OBJECTID":53330},"geometry":{"x":161196.86000000127,"y":2551811.9899999984}},{"attributes":{"ID":53331,"DIS_CODE":0,"TOWNNAME":"安南區","LI":"城東里","LIN":"1鄰","STREET":"城北路","SECT":" ","MAREA":" ","LANE":"１３８巷","ALLEY":"１０１弄","HOUSE_NO":"３０號","E_COORD97":161193.32999999999,"N_COORD97":2551820.0499999998,"ADDRESS":"城北路１３８巷１０１弄３０號","OBJECTID":53331},"geometry":{"x":161193.33000000101,"y":2551820.0500000026}},{"attributes":{"ID":53332,"DIS_CODE":0,"TOWNNAME":"安南區","LI":"佃西里","LIN":"1鄰","STREET":"海佃路","SECT":"四段","MAREA":" ","LANE":"３８８巷","ALLEY":"６７弄","HOUSE_NO":"８號","E_COORD97":165558.04000000001,"N_COORD97":2551759.4700000002,"ADDRESS":"海佃路四段３８８巷６７弄８號","OBJECTID":53332},"geometry":{"x":165558.04000000004,"y":2551759.4700000025}},{"attributes":{"ID":53333,"DIS_CODE":0,"TOWNNAME":"安南區","LI":"州北里","LIN":"1鄰","STREET":"安和路","SECT":"五段","MAREA":" ","LANE":"８１巷","ALLEY":"６４弄","HOUSE_NO":"６號","E_COORD97":169753.19,"N_COORD97":2551688.5499999998,"ADDRESS":"安和路五段８１巷６４弄６號","OBJECTID":53333},"geometry":{"x":169753.19000000041,"y":2551688.5500000026}},{"attributes":{"ID":53334,"DIS_CODE":0,"TOWNNAME":"安南區","LI":"州北里","LIN":"1鄰","STREET":"安和路","SECT":"五段","MAREA":" ","LANE":"８１巷","ALLEY":"６４弄","HOUSE_NO":"８號","E_COORD97":169749.42999999999,"N_COORD97":2551685.7799999998,"ADDRESS":"安和路五段８１巷６４弄８號","OBJECTID":53334},"geometry":{"x":169749.43000000156,"y":2551685.7799999993}},{"attributes":{"ID":53335,"DIS_CODE":0,"TOWNNAME":"安南區","LI":"淵東里","LIN":"1鄰","STREET":"本原街","SECT":"三段","MAREA":" ","LANE":"１３４巷","ALLEY":"２０弄","HOUSE_NO":"１０號","E_COORD97":165630.47,"N_COORD97":2550472.8599999999,"ADDRESS":"本原街三段１３４巷２０弄１０號","OBJECTID":53335},"geometry":{"x":165630.47000000067,"y":2550472.8599999975}},{"attributes":{"ID":53336,"DIS_CODE":0,"TOWNNAME":"安南區","LI":"淵東里","LIN":"1鄰","STREET":"本原街","SECT":"三段","MAREA":" ","LANE":"１３４巷","ALLEY":"２０弄","HOUSE_NO":"１２號","E_COORD97":165625.81,"N_COORD97":2550473.3799999999,"ADDRESS":"本原街三段１３４巷２０弄１２號","OBJECTID":53336},"geometry":{"x":165625.81000000052,"y":2550473.3800000008}},{"attributes":{"ID":53337,"DIS_CODE":0,"TOWNNAME":"安南區","LI":"淵東里","LIN":"1鄰","STREET":"本原街","SECT":"三段","MAREA":" ","LANE":"１３４巷","ALLEY":"２０弄","HOUSE_NO":"１４號","E_COORD97":165634.23999999999,"N_COORD97":2550485.6099999999,"ADDRESS":"本原街三段１３４巷２０弄１４號","OBJECTID":53337},"geometry":{"x":165634.24000000115,"y":2550485.6100000013}},{"attributes":{"ID":53338,"DIS_CODE":0,"TOWNNAME":"安南區","LI":"淵東里","LIN":"1鄰","STREET":"本原街","SECT":"三段","MAREA":" ","LANE":"１３４巷","ALLEY":"２０弄","HOUSE_NO":"１５號","E_COORD97":165605.04000000001,"N_COORD97":2550485.48,"ADDRESS":"本原街三段１３４巷２０弄１５號","OBJECTID":53338},"geometry":{"x":165605.04000000004,"y":2550485.4800000004}},{"attributes":{"ID":53339,"DIS_CODE":0,"TOWNNAME":"安南區","LI":"淵東里","LIN":"1鄰","STREET":"本原街","SECT":"三段","MAREA":" ","LANE":"１３４巷","ALLEY":"２０弄","HOUSE_NO":"１６號","E_COORD97":165636.47,"N_COORD97":2550490.5600000001,"ADDRESS":"本原街三段１３４巷２０弄１６號","OBJECTID":53339},"geometry":{"x":165636.46999999881,"y":2550490.5600000024}},{"attributes":{"ID":53340,"DIS_CODE":0,"TOWNNAME":"將軍區","LI":"三吉里","LIN":"1鄰","STREET":" ","SECT":" ","MAREA":"三吉","LANE":" ","ALLEY":" ","HOUSE_NO":"２號","E_COORD97":161388.89999999999,"N_COORD97":2567738.29,"ADDRESS":"三吉２號","OBJECTID":53340},"geometry":{"x":161388.90000000037,"y":2567738.290000001}},{"attributes":{"ID":53341,"DIS_CODE":0,"TOWNNAME":"白河區","LI":"竹門里","LIN":"1鄰","STREET":" ","SECT":" ","MAREA":"竹子門","LANE":" ","ALLEY":" ","HOUSE_NO":"１２號","E_COORD97":193578.97,"N_COORD97":2585969.9900000002,"ADDRESS":"竹子門１２號","OBJECTID":53341},"geometry":{"x":193578.97000000067,"y":2585969.9900000002}},{"attributes":{"ID":53342,"DIS_CODE":0,"TOWNNAME":"白河區","LI":"竹門里","LIN":"1鄰","STREET":" ","SECT":" ","MAREA":"竹子門","LANE":" ","ALLEY":" ","HOUSE_NO":"１３號","E_COORD97":193592.84,"N_COORD97":2585966.4700000002,"ADDRESS":"竹子門１３號","OBJECTID":53342},"geometry":{"x":193592.83999999892,"y":2585966.4700000007}},{"attributes":{"ID":53343,"DIS_CODE":0,"TOWNNAME":"白河區","LI":"竹門里","LIN":"1鄰","STREET":" ","SECT":" ","MAREA":"竹子門","LANE":" ","ALLEY":" ","HOUSE_NO":"１４之１號","E_COORD97":193663.51999999999,"N_COORD97":2585959.6299999999,"ADDRESS":"竹子門１４之１號","OBJECTID":53343},"geometry":{"x":193663.51999999955,"y":2585959.629999999}},{"attributes":{"ID":53344,"DIS_CODE":0,"TOWNNAME":"永康區","LI":"\u25A0洲里","LIN":"8鄰","STREET":"\u25A0行路","SECT":" ","MAREA":" ","LANE":" ","ALLEY":" ","HOUSE_NO":"７號","E_COORD97":171796.76999999999,"N_COORD97":2549082.9900000002,"ADDRESS":"\u25A0行路７號","OBJECTID":53344},"geometry":{"x":171796.77000000048,"y":2549082.9900000039}},{"attributes":{"ID":53345,"DIS_CODE":0,"TOWNNAME":"安南區","LI":"淵東里","LIN":"1鄰","STREET":"本原街","SECT":"三段","MAREA":" ","LANE":"１３４巷","ALLEY":"２０弄","HOUSE_NO":"１７號","E_COORD97":165606.69,"N_COORD97":2550490.4399999999,"ADDRESS":"本原街三段１３４巷２０弄１７號","OBJECTID":53345},"geometry":{"x":165606.69000000041,"y":2550490.4400000013}},{"attributes":{"ID":53346,"DIS_CODE":0,"TOWNNAME":"安南區","LI":"淵東里","LIN":"1鄰","STREET":"本原街","SECT":"三段","MAREA":" ","LANE":"１３４巷","ALLEY":"２０弄","HOUSE_NO":"１８號","E_COORD97":165638.20000000001,"N_COORD97":2550495,"ADDRESS":"本原街三段１３４巷２０弄１８號","OBJECTID":53346},"geometry":{"x":165638.20000000019,"y":2550495}},{"attributes":{"ID":53347,"DIS_CODE":0,"TOWNNAME":"安南區","LI":"淵東里","LIN":"1鄰","STREET":"本原街","SECT":"三段","MAREA":" ","LANE":"１３４巷","ALLEY":"２０弄","HOUSE_NO":"１９號","E_COORD97":165607.69,"N_COORD97":2550495.3799999999,"ADDRESS":"本原街三段１３４巷２０弄１９號","OBJECTID":53347},"geometry":{"x":165607.69000000134,"y":2550495.379999999}},{"attributes":{"ID":53348,"DIS_CODE":0,"TOWNNAME":"安南區","LI":"淵東里","LIN":"1鄰","STREET":"本原街","SECT":"三段","MAREA":" ","LANE":"１３４巷","ALLEY":"２０弄","HOUSE_NO":"２０號","E_COORD97":165640.17999999999,"N_COORD97":2550499.7000000002,"ADDRESS":"本原街三段１３４巷２０弄２０號","OBJECTID":53348},"geometry":{"x":165640.18000000156,"y":2550499.6999999993}},{"attributes":{"ID":53349,"DIS_CODE":0,"TOWNNAME":"安南區","LI":"淵東里","LIN":"1鄰","STREET":"本原街","SECT":"三段","MAREA":" ","LANE":"１３４巷","ALLEY":"２０弄","HOUSE_NO":"２１號","E_COORD97":165609.34,"N_COORD97":2550499.3599999999,"ADDRESS":"本原街三段１３４巷２０弄２１號","OBJECTID":53349},"geometry":{"x":165609.34000000078,"y":2550499.3599999994}},{"attributes":{"ID":53350,"DIS_CODE":0,"TOWNNAME":"安南區","LI":"淵東里","LIN":"1鄰","STREET":"本原街","SECT":"三段","MAREA":" ","LANE":"１３４巷","ALLEY":"２０弄","HOUSE_NO":"２３號","E_COORD97":165611.32999999999,"N_COORD97":2550504.3100000001,"ADDRESS":"本原街三段１３４巷２０弄２３號","OBJECTID":53350},"geometry":{"x":165611.33000000101,"y":2550504.3100000005}},{"attributes":{"ID":53351,"DIS_CODE":0,"TOWNNAME":"中西區","LI":"文賢里","LIN":"8鄰","STREET":"和善街","SECT":" ","MAREA":" ","LANE":" ","ALLEY":" ","HOUSE_NO":"７６號","E_COORD97":166983.64999999999,"N_COORD97":2544738.4700000002,"ADDRESS":"和善街７６號","OBJECTID":53351},"geometry":{"x":166983.65000000224,"y":2544738.4700000025}},{"attributes":{"ID":53352,"DIS_CODE":0,"TOWNNAME":"中西區","LI":"文賢里","LIN":"8鄰","STREET":"和善街","SECT":" ","MAREA":" ","LANE":" ","ALLEY":" ","HOUSE_NO":"７８號","E_COORD97":166981.10000000001,"N_COORD97":2544743.4700000002,"ADDRESS":"和善街７８號","OBJECTID":53352},"geometry":{"x":166981.09999999963,"y":2544743.4700000007}},{"attributes":{"ID":53353,"DIS_CODE":0,"TOWNNAME":"中西區","LI":"文賢里","LIN":"8鄰","STREET":"和善街","SECT":" ","MAREA":" ","LANE":" ","ALLEY":" ","HOUSE_NO":"８０號","E_COORD97":166977.89999999999,"N_COORD97":2544747.9300000002,"ADDRESS":"和善街８０號","OBJECTID":53353},"geometry":{"x":166977.90000000037,"y":2544747.9300000016}},{"attributes":{"ID":53354,"DIS_CODE":0,"TOWNNAME":"安南區","LI":"淵東里","LIN":"1鄰","STREET":"本原街","SECT":"三段","MAREA":" ","LANE":"１３４巷","ALLEY":"２０弄","HOUSE_NO":"２５號","E_COORD97":165612.32000000001,"N_COORD97":2550508.6099999999,"ADDRESS":"本原街三段１３４巷２０弄２５號","OBJECTID":53354},"geometry":{"x":165612.3200000003,"y":2550508.6100000031}},{"attributes":{"ID":53355,"DIS_CODE":0,"TOWNNAME":"新市區","LI":"港墘里","LIN":"1鄰","STREET":"大同街","SECT":" ","MAREA":" ","LANE":"２９巷","ALLEY":"１弄","HOUSE_NO":"２號","E_COORD97":178470.48000000001,"N_COORD97":2553583.75,"ADDRESS":"大同街２９巷１弄２號","OBJECTID":53355},"geometry":{"x":178470.48000000138,"y":2553583.7500000019}},{"attributes":{"ID":53356,"DIS_CODE":0,"TOWNNAME":"仁德區","LI":"保安里","LIN":"1鄰","STREET":"文賢路","SECT":"一段","MAREA":" ","LANE":"５２９巷","ALLEY":"１３弄","HOUSE_NO":"５號","E_COORD97":171164.70999999999,"N_COORD97":2537128.8300000001,"ADDRESS":"文賢路一段５２９巷１３弄５號","OBJECTID":53356},"geometry":{"x":171164.70999999996,"y":2537128.8300000001}},{"attributes":{"ID":53357,"DIS_CODE":0,"TOWNNAME":"仁德區","LI":"成功里","LIN":"1鄰","STREET":"保生東路","SECT":" ","MAREA":" ","LANE":"１３８巷","ALLEY":"２８弄","HOUSE_NO":"１號","E_COORD97":171254.87,"N_COORD97":2539556.6499999999,"ADDRESS":"保生東路１３８巷２８弄１號","OBJECTID":53357},"geometry":{"x":171254.87000000011,"y":2539556.6500000022}},{"attributes":{"ID":53358,"DIS_CODE":0,"TOWNNAME":"仁德區","LI":"新田里","LIN":"1鄰","STREET":"新田二街","SECT":" ","MAREA":" ","LANE":"１３８巷","ALLEY":"２０弄","HOUSE_NO":"６號","E_COORD97":174969.70999999999,"N_COORD97":2540005.6200000001,"ADDRESS":"新田二街１３８巷２０弄６號","OBJECTID":53358},"geometry":{"x":174969.71000000089,"y":2540005.620000001}},{"attributes":{"ID":53359,"DIS_CODE":0,"TOWNNAME":"仁德區","LI":"成功里","LIN":"1鄰","STREET":"保生東路","SECT":" ","MAREA":" ","LANE":"１３８巷","ALLEY":"２８弄","HOUSE_NO":"８號","E_COORD97":171245.56,"N_COORD97":2539549.3999999999,"ADDRESS":"保生東路１３８巷２８弄８號","OBJECTID":53359},"geometry":{"x":171245.56000000052,"y":2539549.4000000004}},{"attributes":{"ID":53360,"DIS_CODE":0,"TOWNNAME":"仁德區","LI":"新田里","LIN":"1鄰","STREET":"新田二街","SECT":" ","MAREA":" ","LANE":"１２０巷","ALLEY":"２２弄","HOUSE_NO":"２１號","E_COORD97":175017.17999999999,"N_COORD97":2539981.2400000002,"ADDRESS":"新田二街１２０巷２２弄２１號","OBJECTID":53360},"geometry":{"x":175017.1799999997,"y":2539981.2400000002}},{"attributes":{"ID":53361,"DIS_CODE":0,"TOWNNAME":"仁德區","LI":"新田里","LIN":"1鄰","STREET":"新田二街","SECT":" ","MAREA":" ","LANE":"１２０巷","ALLEY":"２２弄","HOUSE_NO":"１５號","E_COORD97":174998.98000000001,"N_COORD97":2539977.2000000002,"ADDRESS":"新田二街１２０巷２２弄１５號","OBJECTID":53361},"geometry":{"x":174998.98000000045,"y":2539977.1999999974}},{"attributes":{"ID":53362,"DIS_CODE":0,"TOWNNAME":"新市區","LI":"港墘里","LIN":"1鄰","STREET":"大同街","SECT":" ","MAREA":" ","LANE":"２９巷","ALLEY":"１弄","HOUSE_NO":"３號","E_COORD97":178472.87,"N_COORD97":2553580,"ADDRESS":"大同街２９巷１弄３號","OBJECTID":53362},"geometry":{"x":178472.87000000011,"y":2553580.0000000019}},{"attributes":{"ID":53363,"DIS_CODE":0,"TOWNNAME":"永康區","LI":"王行里","LIN":"1鄰","STREET":"王行路","SECT":" ","MAREA":" ","LANE":"２０８巷","ALLEY":"１９弄","HOUSE_NO":"３號","E_COORD97":175719.44,"N_COORD97":2548182.4199999999,"ADDRESS":"王行路２０８巷１９弄３號","OBJECTID":53363},"geometry":{"x":175719.44000000134,"y":2548182.4200000018}},{"attributes":{"ID":53364,"DIS_CODE":0,"TOWNNAME":"永康區","LI":"王行里","LIN":"1鄰","STREET":"中山北路","SECT":" ","MAREA":" ","LANE":"４９９巷","ALLEY":"２弄","HOUSE_NO":"３號","E_COORD97":175280.37,"N_COORD97":2547833.8199999998,"ADDRESS":"中山北路４９９巷２弄３號","OBJECTID":53364},"geometry":{"x":175280.37000000104,"y":2547833.8200000022}},{"attributes":{"ID":53365,"DIS_CODE":0,"TOWNNAME":"永康區","LI":"正強里","LIN":"1鄰","STREET":"中正路","SECT":" ","MAREA":" ","LANE":"１巷","ALLEY":"１弄","HOUSE_NO":"２３號","E_COORD97":173692.51000000001,"N_COORD97":2547589,"ADDRESS":"中正路１巷１弄２３號","OBJECTID":53365},"geometry":{"x":173692.51000000071,"y":2547589.0000000019}},{"attributes":{"ID":53366,"DIS_CODE":0,"TOWNNAME":"永康區","LI":"北灣里","LIN":"1鄰","STREET":"大灣路","SECT":" ","MAREA":" ","LANE":"１１９巷","ALLEY":"２２弄","HOUSE_NO":"１０號","E_COORD97":175191.64999999999,"N_COORD97":2545463.6000000001,"ADDRESS":"大灣路１１９巷２２弄１０號","OBJECTID":53366},"geometry":{"x":175191.64999999944,"y":2545463.5999999996}},{"attributes":{"ID":53367,"DIS_CODE":0,"TOWNNAME":"下營區","LI":"營前里","LIN":" ","STREET":"民權二街","SECT":" ","MAREA":" ","LANE":" ","ALLEY":" ","HOUSE_NO":"６號","E_COORD97":174664.04999999999,"N_COORD97":2570019.23,"ADDRESS":"民權二街６號","OBJECTID":53367},"geometry":{"x":174664.04999999981,"y":2570019.2300000004}},{"attributes":{"ID":53368,"DIS_CODE":0,"TOWNNAME":"下營區","LI":"營前里","LIN":" ","STREET":"民權二街","SECT":" ","MAREA":" ","LANE":" ","ALLEY":" ","HOUSE_NO":"７７號","E_COORD97":174546.53,"N_COORD97":2570286.27,"ADDRESS":"民權二街７７號","OBJECTID":53368},"geometry":{"x":174546.52999999933,"y":2570286.2699999996}},{"attributes":{"ID":53369,"DIS_CODE":0,"TOWNNAME":"下營區","LI":"宅內里","LIN":" ","STREET":"玄德街","SECT":" ","MAREA":" ","LANE":" ","ALLEY":" ","HOUSE_NO":"３７號","E_COORD97":174332.70999999999,"N_COORD97":2570577.7200000002,"ADDRESS":"玄德街３７號","OBJECTID":53369},"geometry":{"x":174332.70999999996,"y":2570577.7200000025}},{"attributes":{"ID":53370,"DIS_CODE":0,"TOWNNAME":"下營區","LI":"新興里","LIN":" ","STREET":"自由街","SECT":" ","MAREA":" ","LANE":" ","ALLEY":" ","HOUSE_NO":"７２號","E_COORD97":174798.29999999999,"N_COORD97":2570817.9700000002,"ADDRESS":"自由街７２號","OBJECTID":53370},"geometry":{"x":174798.29999999981,"y":2570817.9700000007}},{"attributes":{"ID":53371,"DIS_CODE":0,"TOWNNAME":"下營區","LI":"後街里","LIN":" ","STREET":"東興二街","SECT":" ","MAREA":" ","LANE":" ","ALLEY":" ","HOUSE_NO":"１１號","E_COORD97":174714.98000000001,"N_COORD97":2570861.5899999999,"ADDRESS":"東興二街１１號","OBJECTID":53371},"geometry":{"x":174714.98000000231,"y":2570861.5900000036}},{"attributes":{"ID":53372,"DIS_CODE":0,"TOWNNAME":"永康區","LI":"王行里","LIN":"1鄰","STREET":"中山北路","SECT":" ","MAREA":" ","LANE":"４９９巷","ALLEY":"２４弄","HOUSE_NO":"３６號","E_COORD97":175346.82999999999,"N_COORD97":2548240.6000000001,"ADDRESS":"中山北路４９９巷２４弄３６號","OBJECTID":53372},"geometry":{"x":175346.83000000101,"y":2548240.5999999978}},{"attributes":{"ID":53373,"DIS_CODE":0,"TOWNNAME":"永康區","LI":"王行里","LIN":"1鄰","STREET":"中山北路","SECT":" ","MAREA":" ","LANE":"４９９巷","ALLEY":"１２０弄","HOUSE_NO":"４２號","E_COORD97":175435.48000000001,"N_COORD97":2548039.8300000001,"ADDRESS":"中山北路４９９巷１２０弄４２號","OBJECTID":53373},"geometry":{"x":175435.48000000231,"y":2548039.8300000038}},{"attributes":{"ID":53374,"DIS_CODE":0,"TOWNNAME":"永康區","LI":"王行里","LIN":"1鄰","STREET":"中山北路","SECT":" ","MAREA":" ","LANE":"４９９巷","ALLEY":"２４弄","HOUSE_NO":"１６號","E_COORD97":175294.51999999999,"N_COORD97":2548230.2400000002,"ADDRESS":"中山北路４９９巷２４弄１６號","OBJECTID":53374},"geometry":{"x":175294.51999999955,"y":2548230.2400000039}},{"attributes":{"ID":53375,"DIS_CODE":0,"TOWNNAME":"永康區","LI":"正強里","LIN":"1鄰","STREET":"中正路","SECT":" ","MAREA":" ","LANE":"１巷","ALLEY":"１弄","HOUSE_NO":"２４號","E_COORD97":173688.91,"N_COORD97":2547587.75,"ADDRESS":"中正路１巷１弄２４號","OBJECTID":53375},"geometry":{"x":173688.91000000015,"y":2547587.75}},{"attributes":{"ID":53376,"DIS_CODE":0,"TOWNNAME":"永康區","LI":"三民里","LIN":"8鄰","STREET":"仁愛街","SECT":" ","MAREA":" ","LANE":" ","ALLEY":" ","HOUSE_NO":"３８９號","E_COORD97":172430.12,"N_COORD97":2550361.0299999998,"ADDRESS":"仁愛街３８９號","OBJECTID":53376},"geometry":{"x":172430.11999999918,"y":2550361.0300000012}},{"attributes":{"ID":53377,"DIS_CODE":0,"TOWNNAME":"永康區","LI":"王行里","LIN":"1鄰","STREET":"中山北路","SECT":" ","MAREA":" ","LANE":"４９９巷","ALLEY":"２弄","HOUSE_NO":"５號","E_COORD97":175361.59,"N_COORD97":2547850.4900000002,"ADDRESS":"中山北路４９９巷２弄５號","OBJECTID":53377},"geometry":{"x":175361.59000000078,"y":2547850.4900000021}},{"attributes":{"ID":53378,"DIS_CODE":0,"TOWNNAME":"永康區","LI":"王行里","LIN":"1鄰","STREET":"中山北路","SECT":" ","MAREA":" ","LANE":"４９９巷","ALLEY":"２４弄","HOUSE_NO":"９９號","E_COORD97":175515.62,"N_COORD97":2548291.5,"ADDRESS":"中山北路４９９巷２４弄９９號","OBJECTID":53378},"geometry":{"x":175515.62000000104,"y":2548291.5}},{"attributes":{"ID":53379,"DIS_CODE":0,"TOWNNAME":"永康區","LI":"永康里","LIN":"1鄰","STREET":"永埔街","SECT":" ","MAREA":" ","LANE":"３３巷","ALLEY":"２８弄","HOUSE_NO":"２號","E_COORD97":173951.64999999999,"N_COORD97":2547543.2400000002,"ADDRESS":"永埔街３３巷２８弄２號","OBJECTID":53379},"geometry":{"x":173951.6500000013,"y":2547543.2400000021}},{"attributes":{"ID":53380,"DIS_CODE":0,"TOWNNAME":"永康區","LI":"北灣里","LIN":"1鄰","STREET":"大灣路","SECT":" ","MAREA":" ","LANE":"１１９巷","ALLEY":"２２弄","HOUSE_NO":"６號","E_COORD97":175187.91,"N_COORD97":2545478.1099999999,"ADDRESS":"大灣路１１９巷２２弄６號","OBJECTID":53380},"geometry":{"x":175187.91000000015,"y":2545478.1100000013}},{"attributes":{"ID":53381,"DIS_CODE":0,"TOWNNAME":"永康區","LI":"王行里","LIN":"1鄰","STREET":"中山北路","SECT":" ","MAREA":" ","LANE":"４９９巷","ALLEY":"２４弄","HOUSE_NO":"３８號","E_COORD97":175374.76999999999,"N_COORD97":2548236.3500000001,"ADDRESS":"中山北路４９９巷２４弄３８號","OBJECTID":53381},"geometry":{"x":175374.76999999862,"y":2548236.3500000015}},{"attributes":{"ID":53382,"DIS_CODE":0,"TOWNNAME":"永康區","LI":"北灣里","LIN":"1鄰","STREET":"大灣路","SECT":" ","MAREA":" ","LANE":"１１９巷","ALLEY":"２２弄","HOUSE_NO":"８號","E_COORD97":175189.16,"N_COORD97":2545470.6000000001,"ADDRESS":"大灣路１１９巷２２弄８號","OBJECTID":53382},"geometry":{"x":175189.16000000015,"y":2545470.5999999978}},{"attributes":{"ID":53383,"DIS_CODE":0,"TOWNNAME":"永康區","LI":"王行里","LIN":"1鄰","STREET":"中山北路","SECT":" ","MAREA":" ","LANE":"４９９巷","ALLEY":"２弄","HOUSE_NO":"１２號","E_COORD97":175317.29000000001,"N_COORD97":2547802.4399999999,"ADDRESS":"中山北路４９９巷２弄１２號","OBJECTID":53383},"geometry":{"x":175317.29000000004,"y":2547802.4400000013}},{"attributes":{"ID":53384,"DIS_CODE":0,"TOWNNAME":"永康區","LI":"五王里","LIN":"1鄰","STREET":"中華二路","SECT":" ","MAREA":" ","LANE":"２０６巷","ALLEY":"１５弄","HOUSE_NO":"２０號","E_COORD97":171535.35000000001,"N_COORD97":2545512.2599999998,"ADDRESS":"中華二路２０６巷１５弄２０號","OBJECTID":53384},"geometry":{"x":171535.35000000056,"y":2545512.2600000016}},{"attributes":{"ID":53385,"DIS_CODE":0,"TOWNNAME":"南區","LI":"興農里","LIN":"8鄰","STREET":"灣裡路","SECT":" ","MAREA":" ","LANE":"２６３巷","ALLEY":"７３弄","HOUSE_NO":"２８號之１","E_COORD97":166456.01000000001,"N_COORD97":2536378.3399999999,"ADDRESS":"灣裡路２６３巷７３弄２８號之１","OBJECTID":53385},"geometry":{"x":166456.00999999978,"y":2536378.3399999999}},{"attributes":{"ID":53386,"DIS_CODE":0,"TOWNNAME":"南區","LI":"同安里","LIN":"8鄰","STREET":"灣裡路","SECT":" ","MAREA":" ","LANE":"３３３巷","ALLEY":"４弄","HOUSE_NO":"１０號之１","E_COORD97":166238.14000000001,"N_COORD97":2536224.2400000002,"ADDRESS":"灣裡路３３３巷４弄１０號之１","OBJECTID":53386},"geometry":{"x":166238.13999999966,"y":2536224.2400000002}},{"attributes":{"ID":53387,"DIS_CODE":0,"TOWNNAME":"南區","LI":"同安里","LIN":"8鄰","STREET":"灣裡路","SECT":" ","MAREA":" ","LANE":"３３３巷","ALLEY":"４弄","HOUSE_NO":"１０號之２","E_COORD97":166235.81,"N_COORD97":2536218.75,"ADDRESS":"灣裡路３３３巷４弄１０號之２","OBJECTID":53387},"geometry":{"x":166235.81000000145,"y":2536218.7500000019}},{"attributes":{"ID":53388,"DIS_CODE":0,"TOWNNAME":"永康區","LI":"五王里","LIN":"1鄰","STREET":"中華二路","SECT":" ","MAREA":" ","LANE":"２０６巷","ALLEY":"１５弄","HOUSE_NO":"３號","E_COORD97":171561.45999999999,"N_COORD97":2545500.8300000001,"ADDRESS":"中華二路２０６巷１５弄３號","OBJECTID":53388},"geometry":{"x":171561.45999999903,"y":2545500.8300000019}},{"attributes":{"ID":53389,"DIS_CODE":0,"TOWNNAME":"永康區","LI":"五王里","LIN":"1鄰","STREET":"中華二路","SECT":" ","MAREA":" ","LANE":"２０６巷","ALLEY":"１５弄","HOUSE_NO":"１６號","E_COORD97":171545.35999999999,"N_COORD97":2545513.2599999998,"ADDRESS":"中華二路２０６巷１５弄１６號","OBJECTID":53389},"geometry":{"x":171545.36000000034,"y":2545513.2599999998}},{"attributes":{"ID":53390,"DIS_CODE":0,"TOWNNAME":"永康區","LI":"王行里","LIN":"1鄰","STREET":"王行路","SECT":" ","MAREA":" ","LANE":"２０８巷","ALLEY":"１２弄","HOUSE_NO":"７號","E_COORD97":175742.34,"N_COORD97":2548112.4399999999,"ADDRESS":"王行路２０８巷１２弄７號","OBJECTID":53390},"geometry":{"x":175742.33999999985,"y":2548112.4399999995}},{"attributes":{"ID":53391,"DIS_CODE":0,"TOWNNAME":"永康區","LI":"五王里","LIN":"1鄰","STREET":"中華二路","SECT":" ","MAREA":" ","LANE":"２０６巷","ALLEY":"１５弄","HOUSE_NO":"６號","E_COORD97":171561.70999999999,"N_COORD97":2545515.7599999998,"ADDRESS":"中華二路２０６巷１５弄６號","OBJECTID":53391},"geometry":{"x":171561.71000000089,"y":2545515.7599999998}},{"attributes":{"ID":53392,"DIS_CODE":0,"TOWNNAME":"永康區","LI":"五王里","LIN":"1鄰","STREET":"中華二路","SECT":" ","MAREA":" ","LANE":"２０６巷","ALLEY":"１５弄","HOUSE_NO":"２號","E_COORD97":171566.42000000001,"N_COORD97":2545516.0099999998,"ADDRESS":"中華二路２０６巷１５弄２號","OBJECTID":53392},"geometry":{"x":171566.41999999993,"y":2545516.0100000016}},{"attributes":{"ID":53393,"DIS_CODE":0,"TOWNNAME":"永康區","LI":"五王里","LIN":"1鄰","STREET":"中華二路","SECT":" ","MAREA":" ","LANE":"２０６巷","ALLEY":"１５弄","HOUSE_NO":"１８號","E_COORD97":171540.67999999999,"N_COORD97":2545512.7599999998,"ADDRESS":"中華二路２０６巷１５弄１８號","OBJECTID":53393},"geometry":{"x":171540.6799999997,"y":2545512.7599999998}},{"attributes":{"ID":53394,"DIS_CODE":0,"TOWNNAME":"永康區","LI":"五王里","LIN":"1鄰","STREET":"中華二路","SECT":" ","MAREA":" ","LANE":"２０６巷","ALLEY":"１５弄","HOUSE_NO":"１１號","E_COORD97":171540.63,"N_COORD97":2545499.0800000001,"ADDRESS":"中華二路２０６巷１５弄１１號","OBJECTID":53394},"geometry":{"x":171540.63000000082,"y":2545499.0800000019}},{"attributes":{"ID":53395,"DIS_CODE":0,"TOWNNAME":"永康區","LI":"\u25A0洲里","LIN":"8鄰","STREET":"\u25A0行路","SECT":" ","MAREA":" ","LANE":" ","ALLEY":" ","HOUSE_NO":"１９號之１","E_COORD97":171766.07000000001,"N_COORD97":2549104.3700000001,"ADDRESS":"\u25A0行路１９號之１","OBJECTID":53395},"geometry":{"x":171766.0700000003,"y":2549104.370000001}},{"attributes":{"ID":53396,"DIS_CODE":0,"TOWNNAME":"永康區","LI":"\u25A0洲里","LIN":"8鄰","STREET":"中正南路","SECT":" ","MAREA":" ","LANE":" ","ALLEY":" ","HOUSE_NO":"８６５號","E_COORD97":171802.51999999999,"N_COORD97":2549068.4900000002,"ADDRESS":"中正南路８６５號","OBJECTID":53396},"geometry":{"x":171802.51999999955,"y":2549068.4900000002}},{"attributes":{"ID":53397,"DIS_CODE":0,"TOWNNAME":"麻豆區","LI":"大埕里","LIN":"8鄰","STREET":" ","SECT":" ","MAREA":"大埕","LANE":" ","ALLEY":" ","HOUSE_NO":"１４號","E_COORD97":173350.57000000001,"N_COORD97":2565294.0899999999,"ADDRESS":"大埕１４號","OBJECTID":53397},"geometry":{"x":173350.5700000003,"y":2565294.0899999999}},{"attributes":{"ID":53398,"DIS_CODE":0,"TOWNNAME":"麻豆區","LI":"大埕里","LIN":"8鄰","STREET":" ","SECT":" ","MAREA":"大埕","LANE":" ","ALLEY":" ","HOUSE_NO":"１９號","E_COORD97":173163.09,"N_COORD97":2565257.8900000001,"ADDRESS":"大埕１９號","OBJECTID":53398},"geometry":{"x":173163.09000000078,"y":2565257.8900000006}},{"attributes":{"ID":53399,"DIS_CODE":0,"TOWNNAME":"白河區","LI":"竹門里","LIN":"1鄰","STREET":" ","SECT":" ","MAREA":"竹子門","LANE":" ","ALLEY":" ","HOUSE_NO":"１之１號","E_COORD97":193679.70000000001,"N_COORD97":2585847.9100000001,"ADDRESS":"竹子門１之１號","OBJECTID":53399},"geometry":{"x":193679.70000000112,"y":2585847.9100000001}},{"attributes":{"ID":53400,"DIS_CODE":0,"TOWNNAME":"白河區","LI":"竹門里","LIN":"1鄰","STREET":" ","SECT":" ","MAREA":"竹子門","LANE":" ","ALLEY":" ","HOUSE_NO":"１號","E_COORD97":193664.73000000001,"N_COORD97":2585842.6400000001,"ADDRESS":"竹子門１號","OBJECTID":53400},"geometry":{"x":193664.73000000045,"y":2585842.6400000006}}]}