{"displayFieldName":"TOWNNAME","fieldAliases":{"ID":"ID","DIS_CODE":"DIS_CODE","TOWNNAME":"TOWNNAME","LI":"LI","LIN":"LIN","STREET":"STREET","SECT":"SECT","MAREA":"MAREA","LANE":"LANE","ALLEY":"ALLEY","HOUSE_NO":"HOUSE_NO","E_COORD97":"E_COORD97","N_COORD97":"N_COORD97","ADDRESS":"ADDRESS","OBJECTID":"OBJECTID"},"geometryType":"esriGeometryPoint","spatialReference":{"wkid":102443,"latestWkid":3826},"fields":[{"name":"ID","type":"esriFieldTypeDouble","alias":"ID"},{"name":"DIS_CODE","type":"esriFieldTypeInteger","alias":"DIS_CODE"},{"name":"TOWNNAME","type":"esriFieldTypeString","alias":"TOWNNAME","length":8},{"name":"LI","type":"esriFieldTypeString","alias":"LI","length":8},{"name":"LIN","type":"esriFieldTypeString","alias":"LIN","length":12},{"name":"STREET","type":"esriFieldTypeString","alias":"STREET","length":20},{"name":"SECT","type":"esriFieldTypeString","alias":"SECT","length":8},{"name":"MAREA","type":"esriFieldTypeString","alias":"MAREA","length":12},{"name":"LANE","type":"esriFieldTypeString","alias":"LANE","length":10},{"name":"ALLEY","type":"esriFieldTypeString","alias":"ALLEY","length":10},{"name":"HOUSE_NO","type":"esriFieldTypeString","alias":"HOUSE_NO","length":20},{"name":"E_COORD97","type":"esriFieldTypeDouble","alias":"E_COORD97"},{"name":"N_COORD97","type":"esriFieldTypeDouble","alias":"N_COORD97"},{"name":"ADDRESS","type":"esriFieldTypeString","alias":"ADDRESS","length":50},{"name":"OBJECTID","type":"esriFieldTypeOID","alias":"OBJECTID"}],"features":[{"attributes":{"ID":284007,"DIS_CODE":0,"TOWNNAME":"北區","LI":"成功里","LIN":"19鄰","STREET":"北成路","SECT":" ","MAREA":" ","LANE":"１２８巷","ALLEY":" ","HOUSE_NO":"４７號五樓","E_COORD97":168963.45999999999,"N_COORD97":2546812.5,"ADDRESS":"北成路１２８巷４７號五樓","OBJECTID":284001},"geometry":{"x":168963.46000000089,"y":2546812.5000000019}},{"attributes":{"ID":284008,"DIS_CODE":0,"TOWNNAME":"北區","LI":"成功里","LIN":"19鄰","STREET":"北成路","SECT":" ","MAREA":" ","LANE":"１２８巷","ALLEY":" ","HOUSE_NO":"４７號四樓","E_COORD97":168963.45999999999,"N_COORD97":2546812.5,"ADDRESS":"北成路１２８巷４７號四樓","OBJECTID":284002},"geometry":{"x":168963.46000000089,"y":2546812.5000000019}},{"attributes":{"ID":284009,"DIS_CODE":0,"TOWNNAME":"永康區","LI":"龍潭里","LIN":"42鄰","STREET":"永平街","SECT":" ","MAREA":" ","LANE":" ","ALLEY":" ","HOUSE_NO":"７６７號","E_COORD97":174623.38,"N_COORD97":2547098.7400000002,"ADDRESS":"永平街７６７號","OBJECTID":284003},"geometry":{"x":174623.37999999896,"y":2547098.7400000021}},{"attributes":{"ID":284010,"DIS_CODE":0,"TOWNNAME":"善化區","LI":"牛庄里","LIN":"2鄰","STREET":" ","SECT":" ","MAREA":"牛庄","LANE":" ","ALLEY":" ","HOUSE_NO":"４７之１號","E_COORD97":180268.97,"N_COORD97":2559894.02,"ADDRESS":"牛庄４７之１號","OBJECTID":284004},"geometry":{"x":180268.96999999974,"y":2559894.0200000033}},{"attributes":{"ID":284011,"DIS_CODE":0,"TOWNNAME":"善化區","LI":"牛庄里","LIN":"2鄰","STREET":" ","SECT":" ","MAREA":"牛庄","LANE":" ","ALLEY":" ","HOUSE_NO":"２３之５號","E_COORD97":180296.48999999999,"N_COORD97":2559853.02,"ADDRESS":"牛庄２３之５號","OBJECTID":284005},"geometry":{"x":180296.49000000022,"y":2559853.0199999996}},{"attributes":{"ID":284012,"DIS_CODE":0,"TOWNNAME":"善化區","LI":"小新里","LIN":"2鄰","STREET":" ","SECT":" ","MAREA":"小新營","LANE":" ","ALLEY":" ","HOUSE_NO":"１３之６１號","E_COORD97":179812.29999999999,"N_COORD97":2558557.77,"ADDRESS":"小新營１３之６１號","OBJECTID":284006},"geometry":{"x":179812.29999999981,"y":2558557.7700000014}},{"attributes":{"ID":284013,"DIS_CODE":0,"TOWNNAME":"善化區","LI":"牛庄里","LIN":"2鄰","STREET":" ","SECT":" ","MAREA":"牛庄","LANE":" ","ALLEY":" ","HOUSE_NO":"２８號之８","E_COORD97":180404.07999999999,"N_COORD97":2559855.52,"ADDRESS":"牛庄２８號之８","OBJECTID":284007},"geometry":{"x":180404.08000000007,"y":2559855.5199999996}},{"attributes":{"ID":284014,"DIS_CODE":0,"TOWNNAME":"安南區","LI":"四草里","LIN":"2鄰","STREET":"大眾六街","SECT":" ","MAREA":" ","LANE":" ","ALLEY":" ","HOUSE_NO":"２０２號","E_COORD97":160280.338648,"N_COORD97":2546836.89561,"ADDRESS":"大眾六街２０２號","OBJECTID":284008},"geometry":{"x":160280.33864800166,"y":2546836.8956150003}},{"attributes":{"ID":284015,"DIS_CODE":0,"TOWNNAME":"北區","LI":"成功里","LIN":"19鄰","STREET":"北成路","SECT":" ","MAREA":" ","LANE":"１２８巷","ALLEY":" ","HOUSE_NO":"４９號二樓","E_COORD97":168966.67999999999,"N_COORD97":2546818.9300000002,"ADDRESS":"北成路１２８巷４９號二樓","OBJECTID":284009},"geometry":{"x":168966.68000000063,"y":2546818.9300000016}},{"attributes":{"ID":284016,"DIS_CODE":0,"TOWNNAME":"北區","LI":"成功里","LIN":"19鄰","STREET":"北成路","SECT":" ","MAREA":" ","LANE":"１２８巷","ALLEY":" ","HOUSE_NO":"４９號三樓","E_COORD97":168966.67999999999,"N_COORD97":2546818.9300000002,"ADDRESS":"北成路１２８巷４９號三樓","OBJECTID":284010},"geometry":{"x":168966.68000000063,"y":2546818.9300000016}},{"attributes":{"ID":284017,"DIS_CODE":0,"TOWNNAME":"北區","LI":"成功里","LIN":"19鄰","STREET":"北成路","SECT":" ","MAREA":" ","LANE":"１２８巷","ALLEY":" ","HOUSE_NO":"４９號五樓","E_COORD97":168966.67999999999,"N_COORD97":2546818.9300000002,"ADDRESS":"北成路１２８巷４９號五樓","OBJECTID":284011},"geometry":{"x":168966.68000000063,"y":2546818.9300000016}},{"attributes":{"ID":284018,"DIS_CODE":0,"TOWNNAME":"北區","LI":"成功里","LIN":"19鄰","STREET":"北成路","SECT":" ","MAREA":" ","LANE":"１２８巷","ALLEY":" ","HOUSE_NO":"４９號四樓","E_COORD97":168966.67999999999,"N_COORD97":2546818.9300000002,"ADDRESS":"北成路１２８巷４９號四樓","OBJECTID":284012},"geometry":{"x":168966.68000000063,"y":2546818.9300000016}},{"attributes":{"ID":284019,"DIS_CODE":0,"TOWNNAME":"北區","LI":"成功里","LIN":"19鄰","STREET":"北成路","SECT":" ","MAREA":" ","LANE":"１２８巷","ALLEY":" ","HOUSE_NO":"５１號二樓","E_COORD97":168971.37,"N_COORD97":2546825.3700000001,"ADDRESS":"北成路１２８巷５１號二樓","OBJECTID":284013},"geometry":{"x":168971.37000000011,"y":2546825.370000001}},{"attributes":{"ID":284020,"DIS_CODE":0,"TOWNNAME":"北區","LI":"成功里","LIN":"19鄰","STREET":"北成路","SECT":" ","MAREA":" ","LANE":"１２８巷","ALLEY":" ","HOUSE_NO":"５１號三樓","E_COORD97":168971.37,"N_COORD97":2546825.3700000001,"ADDRESS":"北成路１２８巷５１號三樓","OBJECTID":284014},"geometry":{"x":168971.37000000011,"y":2546825.370000001}},{"attributes":{"ID":284021,"DIS_CODE":0,"TOWNNAME":"北區","LI":"成功里","LIN":"19鄰","STREET":"北成路","SECT":" ","MAREA":" ","LANE":"１２８巷","ALLEY":" ","HOUSE_NO":"５１號五樓","E_COORD97":168971.37,"N_COORD97":2546825.3700000001,"ADDRESS":"北成路１２８巷５１號五樓","OBJECTID":284015},"geometry":{"x":168971.37000000011,"y":2546825.370000001}},{"attributes":{"ID":284022,"DIS_CODE":0,"TOWNNAME":"北區","LI":"成功里","LIN":"19鄰","STREET":"北成路","SECT":" ","MAREA":" ","LANE":"１２８巷","ALLEY":" ","HOUSE_NO":"５１號四樓","E_COORD97":168971.37,"N_COORD97":2546825.3700000001,"ADDRESS":"北成路１２８巷５１號四樓","OBJECTID":284016},"geometry":{"x":168971.37000000011,"y":2546825.370000001}},{"attributes":{"ID":284023,"DIS_CODE":0,"TOWNNAME":"北區","LI":"成功里","LIN":"19鄰","STREET":"北成路","SECT":" ","MAREA":" ","LANE":"１２８巷","ALLEY":" ","HOUSE_NO":"５３號二樓","E_COORD97":168974.59,"N_COORD97":2546831.7999999998,"ADDRESS":"北成路１２８巷５３號二樓","OBJECTID":284017},"geometry":{"x":168974.58999999985,"y":2546831.8000000026}},{"attributes":{"ID":284024,"DIS_CODE":0,"TOWNNAME":"北區","LI":"成功里","LIN":"19鄰","STREET":"北成路","SECT":" ","MAREA":" ","LANE":"１２８巷","ALLEY":" ","HOUSE_NO":"５３號三樓","E_COORD97":168974.59,"N_COORD97":2546831.7999999998,"ADDRESS":"北成路１２８巷５３號三樓","OBJECTID":284018},"geometry":{"x":168974.58999999985,"y":2546831.8000000026}},{"attributes":{"ID":284025,"DIS_CODE":0,"TOWNNAME":"善化區","LI":"什乃里","LIN":"2鄰","STREET":" ","SECT":" ","MAREA":"什乃","LANE":" ","ALLEY":" ","HOUSE_NO":"１９號之２","E_COORD97":176164.51999999999,"N_COORD97":2560634.27,"ADDRESS":"什乃１９號之２","OBJECTID":284019},"geometry":{"x":176164.51999999955,"y":2560634.2699999996}},{"attributes":{"ID":284026,"DIS_CODE":0,"TOWNNAME":"善化區","LI":"六分里","LIN":"2鄰","STREET":" ","SECT":" ","MAREA":"六分寮","LANE":" ","ALLEY":" ","HOUSE_NO":"４１０號","E_COORD97":178164.5,"N_COORD97":2561364.75,"ADDRESS":"六分寮４１０號","OBJECTID":284020},"geometry":{"x":178164.50000000093,"y":2561364.7500000019}},{"attributes":{"ID":284027,"DIS_CODE":0,"TOWNNAME":"善化區","LI":"溪美里","LIN":"2鄰","STREET":" ","SECT":" ","MAREA":"溪尾","LANE":" ","ALLEY":" ","HOUSE_NO":"６５２號","E_COORD97":177072.54999999999,"N_COORD97":2560864.27,"ADDRESS":"溪尾６５２號","OBJECTID":284021},"geometry":{"x":177072.55000000075,"y":2560864.2699999996}},{"attributes":{"ID":284028,"DIS_CODE":0,"TOWNNAME":"北區","LI":"成功里","LIN":"19鄰","STREET":"北成路","SECT":" ","MAREA":" ","LANE":"１２８巷","ALLEY":" ","HOUSE_NO":"５３號五樓","E_COORD97":168974.59,"N_COORD97":2546831.7999999998,"ADDRESS":"北成路１２８巷５３號五樓","OBJECTID":284022},"geometry":{"x":168974.58999999985,"y":2546831.8000000026}},{"attributes":{"ID":284029,"DIS_CODE":0,"TOWNNAME":"安南區","LI":"長安里","LIN":"19鄰","STREET":"公學路","SECT":"二段","MAREA":" ","LANE":"１９０巷","ALLEY":" ","HOUSE_NO":"１９號","E_COORD97":167533.45000000001,"N_COORD97":2552229.8300000001,"ADDRESS":"公學路二段１９０巷１９號","OBJECTID":284023},"geometry":{"x":167533.45000000019,"y":2552229.8300000001}},{"attributes":{"ID":284030,"DIS_CODE":0,"TOWNNAME":"仁德區","LI":"仁義里","LIN":"34鄰","STREET":"正義三街","SECT":" ","MAREA":" ","LANE":" ","ALLEY":" ","HOUSE_NO":"１５０號六樓","E_COORD97":173812.26000000001,"N_COORD97":2541622.7599999998,"ADDRESS":"正義三街１５０號六樓","OBJECTID":284024},"geometry":{"x":173812.26000000164,"y":2541622.7600000016}},{"attributes":{"ID":284031,"DIS_CODE":0,"TOWNNAME":"善化區","LI":"嘉南里","LIN":"2鄰","STREET":" ","SECT":" ","MAREA":"茄拔","LANE":" ","ALLEY":" ","HOUSE_NO":"６５號","E_COORD97":181056.09,"N_COORD97":2559368.5099999998,"ADDRESS":"茄拔６５號","OBJECTID":284025},"geometry":{"x":181056.09000000078,"y":2559368.5099999998}},{"attributes":{"ID":284032,"DIS_CODE":0,"TOWNNAME":"善化區","LI":"什乃里","LIN":"2鄰","STREET":" ","SECT":" ","MAREA":"什乃","LANE":" ","ALLEY":" ","HOUSE_NO":"２１之１４號","E_COORD97":176126.88,"N_COORD97":2560671.77,"ADDRESS":"什乃２１之１４號","OBJECTID":284026},"geometry":{"x":176126.87999999989,"y":2560671.7699999996}},{"attributes":{"ID":284033,"DIS_CODE":0,"TOWNNAME":"善化區","LI":"東昌里","LIN":"2鄰","STREET":" ","SECT":" ","MAREA":"東勢寮","LANE":" ","ALLEY":" ","HOUSE_NO":"２０號之５","E_COORD97":180851.82000000001,"N_COORD97":2561921.02,"ADDRESS":"東勢寮２０號之５","OBJECTID":284027},"geometry":{"x":180851.8200000003,"y":2561921.0199999996}},{"attributes":{"ID":284034,"DIS_CODE":0,"TOWNNAME":"善化區","LI":"嘉南里","LIN":"2鄰","STREET":" ","SECT":" ","MAREA":"茄拔","LANE":" ","ALLEY":" ","HOUSE_NO":"６８號","E_COORD97":181006.79999999999,"N_COORD97":2559357.5099999998,"ADDRESS":"茄拔６８號","OBJECTID":284028},"geometry":{"x":181006.80000000075,"y":2559357.5099999998}},{"attributes":{"ID":284035,"DIS_CODE":0,"TOWNNAME":"善化區","LI":"胡家里","LIN":"2鄰","STREET":" ","SECT":" ","MAREA":"胡厝寮","LANE":" ","ALLEY":" ","HOUSE_NO":"１３號之６","E_COORD97":175565.25,"N_COORD97":2560789.27,"ADDRESS":"胡厝寮１３號之６","OBJECTID":284029},"geometry":{"x":175565.24999999907,"y":2560789.2699999996}},{"attributes":{"ID":284036,"DIS_CODE":0,"TOWNNAME":"安南區","LI":"\u25A0南里","LIN":"19鄰","STREET":"安昌街","SECT":" ","MAREA":" ","LANE":"１０６巷","ALLEY":" ","HOUSE_NO":"５３號","E_COORD97":170095.01000000001,"N_COORD97":2552022.6099999999,"ADDRESS":"安昌街１０６巷５３號","OBJECTID":284030},"geometry":{"x":170095.01000000071,"y":2552022.6099999994}},{"attributes":{"ID":284037,"DIS_CODE":0,"TOWNNAME":"安南區","LI":"\u25A0南里","LIN":"19鄰","STREET":"安昌街","SECT":" ","MAREA":" ","LANE":"１０６巷","ALLEY":" ","HOUSE_NO":"５５號","E_COORD97":170099.14999999999,"N_COORD97":2552022.1299999999,"ADDRESS":"安昌街１０６巷５５號","OBJECTID":284031},"geometry":{"x":170099.15000000037,"y":2552022.129999999}},{"attributes":{"ID":284038,"DIS_CODE":0,"TOWNNAME":"善化區","LI":"什乃里","LIN":"2鄰","STREET":" ","SECT":" ","MAREA":"什乃","LANE":" ","ALLEY":" ","HOUSE_NO":"２１號之３４","E_COORD97":176126.73000000001,"N_COORD97":2560667.02,"ADDRESS":"什乃２１號之３４","OBJECTID":284032},"geometry":{"x":176126.73000000045,"y":2560667.0200000033}},{"attributes":{"ID":284039,"DIS_CODE":0,"TOWNNAME":"善化區","LI":"六德里","LIN":"2鄰","STREET":" ","SECT":" ","MAREA":"六分寮","LANE":" ","ALLEY":" ","HOUSE_NO":"２１０號之１","E_COORD97":178712.85000000001,"N_COORD97":2561783.02,"ADDRESS":"六分寮２１０號之１","OBJECTID":284033},"geometry":{"x":178712.85000000056,"y":2561783.0200000014}},{"attributes":{"ID":284040,"DIS_CODE":0,"TOWNNAME":"善化區","LI":"六分里","LIN":"2鄰","STREET":" ","SECT":" ","MAREA":"六分寮","LANE":" ","ALLEY":" ","HOUSE_NO":"３９５號","E_COORD97":178145,"N_COORD97":2561290.25,"ADDRESS":"六分寮３９５號","OBJECTID":284034},"geometry":{"x":178145,"y":2561290.2500000019}},{"attributes":{"ID":284041,"DIS_CODE":0,"TOWNNAME":"善化區","LI":"小新里","LIN":"2鄰","STREET":" ","SECT":" ","MAREA":"小新營","LANE":" ","ALLEY":" ","HOUSE_NO":"１３之６０號","E_COORD97":179810.94,"N_COORD97":2558552.52,"ADDRESS":"小新營１３之６０號","OBJECTID":284035},"geometry":{"x":179810.94000000227,"y":2558552.5200000014}},{"attributes":{"ID":284042,"DIS_CODE":0,"TOWNNAME":"善化區","LI":"什乃里","LIN":"2鄰","STREET":" ","SECT":" ","MAREA":"什乃","LANE":" ","ALLEY":" ","HOUSE_NO":"２１之３０號","E_COORD97":175910.12,"N_COORD97":2560668.52,"ADDRESS":"什乃２１之３０號","OBJECTID":284036},"geometry":{"x":175910.12000000011,"y":2560668.5200000014}},{"attributes":{"ID":284043,"DIS_CODE":0,"TOWNNAME":"善化區","LI":"六德里","LIN":"2鄰","STREET":" ","SECT":" ","MAREA":"六分寮","LANE":" ","ALLEY":" ","HOUSE_NO":"２１４號之１","E_COORD97":178661.60000000001,"N_COORD97":2561731.02,"ADDRESS":"六分寮２１４號之１","OBJECTID":284037},"geometry":{"x":178661.60000000056,"y":2561731.0199999996}},{"attributes":{"ID":284044,"DIS_CODE":0,"TOWNNAME":"善化區","LI":"嘉南里","LIN":"2鄰","STREET":" ","SECT":" ","MAREA":"茄拔","LANE":" ","ALLEY":" ","HOUSE_NO":"６４號之２","E_COORD97":181105.60000000001,"N_COORD97":2559329.52,"ADDRESS":"茄拔６４號之２","OBJECTID":284038},"geometry":{"x":181105.59999999963,"y":2559329.5199999996}},{"attributes":{"ID":284045,"DIS_CODE":0,"TOWNNAME":"善化區","LI":"小新里","LIN":"2鄰","STREET":" ","SECT":" ","MAREA":"小新營","LANE":" ","ALLEY":" ","HOUSE_NO":"１１號","E_COORD97":179887.14999999999,"N_COORD97":2558401.75,"ADDRESS":"小新營１１號","OBJECTID":284039},"geometry":{"x":179887.15000000037,"y":2558401.7500000019}},{"attributes":{"ID":284046,"DIS_CODE":0,"TOWNNAME":"善化區","LI":"嘉南里","LIN":"2鄰","STREET":" ","SECT":" ","MAREA":"茄拔","LANE":" ","ALLEY":" ","HOUSE_NO":"３５３號","E_COORD97":180698.75,"N_COORD97":2559028.5099999998,"ADDRESS":"茄拔３５３號","OBJECTID":284040},"geometry":{"x":180698.75000000093,"y":2559028.5099999998}},{"attributes":{"ID":284047,"DIS_CODE":0,"TOWNNAME":"善化區","LI":"什乃里","LIN":"2鄰","STREET":" ","SECT":" ","MAREA":"什乃","LANE":" ","ALLEY":" ","HOUSE_NO":"２１之１６號","E_COORD97":176126.51999999999,"N_COORD97":2560662.27,"ADDRESS":"什乃２１之１６號","OBJECTID":284041},"geometry":{"x":176126.52000000048,"y":2560662.2700000014}},{"attributes":{"ID":284048,"DIS_CODE":0,"TOWNNAME":"善化區","LI":"六分里","LIN":"2鄰","STREET":" ","SECT":" ","MAREA":"六分寮","LANE":" ","ALLEY":" ","HOUSE_NO":"４６１號","E_COORD97":178065.70999999999,"N_COORD97":2561198.75,"ADDRESS":"六分寮４６１號","OBJECTID":284042},"geometry":{"x":178065.70999999996,"y":2561198.7500000019}},{"attributes":{"ID":284049,"DIS_CODE":0,"TOWNNAME":"善化區","LI":"六分里","LIN":"2鄰","STREET":" ","SECT":" ","MAREA":"六分寮","LANE":" ","ALLEY":" ","HOUSE_NO":"５之５號","E_COORD97":178243.87,"N_COORD97":2561290.52,"ADDRESS":"六分寮５之５號","OBJECTID":284043},"geometry":{"x":178243.87000000104,"y":2561290.5199999996}},{"attributes":{"ID":284050,"DIS_CODE":0,"TOWNNAME":"善化區","LI":"六分里","LIN":"2鄰","STREET":" ","SECT":" ","MAREA":"六分寮","LANE":" ","ALLEY":" ","HOUSE_NO":"３９８號","E_COORD97":178166.82000000001,"N_COORD97":2561304,"ADDRESS":"六分寮３９８號","OBJECTID":284044},"geometry":{"x":178166.8200000003,"y":2561304}},{"attributes":{"ID":284051,"DIS_CODE":0,"TOWNNAME":"善化區","LI":"六分里","LIN":"2鄰","STREET":" ","SECT":" ","MAREA":"六分寮","LANE":" ","ALLEY":" ","HOUSE_NO":"６號","E_COORD97":178256.17999999999,"N_COORD97":2561229,"ADDRESS":"六分寮６號","OBJECTID":284045},"geometry":{"x":178256.18000000063,"y":2561229}},{"attributes":{"ID":284052,"DIS_CODE":0,"TOWNNAME":"善化區","LI":"六分里","LIN":"2鄰","STREET":" ","SECT":" ","MAREA":"六分寮","LANE":" ","ALLEY":" ","HOUSE_NO":"５之７號","E_COORD97":178234.66,"N_COORD97":2561286.77,"ADDRESS":"六分寮５之７號","OBJECTID":284046},"geometry":{"x":178234.66000000108,"y":2561286.7700000014}},{"attributes":{"ID":284053,"DIS_CODE":0,"TOWNNAME":"善化區","LI":"六分里","LIN":"2鄰","STREET":" ","SECT":" ","MAREA":"六分寮","LANE":" ","ALLEY":" ","HOUSE_NO":"６號之３５","E_COORD97":178175.73999999999,"N_COORD97":2560900.77,"ADDRESS":"六分寮６號之３５","OBJECTID":284047},"geometry":{"x":178175.74000000022,"y":2560900.7700000014}},{"attributes":{"ID":284054,"DIS_CODE":0,"TOWNNAME":"善化區","LI":"小新里","LIN":"2鄰","STREET":" ","SECT":" ","MAREA":"小新營","LANE":" ","ALLEY":" ","HOUSE_NO":"１３號之７","E_COORD97":179821.35000000001,"N_COORD97":2558497.27,"ADDRESS":"小新營１３號之７","OBJECTID":284048},"geometry":{"x":179821.35000000056,"y":2558497.2699999996}},{"attributes":{"ID":284055,"DIS_CODE":0,"TOWNNAME":"善化區","LI":"小新里","LIN":"2鄰","STREET":" ","SECT":" ","MAREA":"小新營","LANE":" ","ALLEY":" ","HOUSE_NO":"１３之５３號","E_COORD97":179798.79000000001,"N_COORD97":2558515.02,"ADDRESS":"小新營１３之５３號","OBJECTID":284049},"geometry":{"x":179798.79000000097,"y":2558515.0200000014}},{"attributes":{"ID":284056,"DIS_CODE":0,"TOWNNAME":"善化區","LI":"小新里","LIN":"2鄰","STREET":" ","SECT":" ","MAREA":"小新營","LANE":" ","ALLEY":" ","HOUSE_NO":"１２號","E_COORD97":179856.35000000001,"N_COORD97":2558410.25,"ADDRESS":"小新營１２號","OBJECTID":284050},"geometry":{"x":179856.34999999963,"y":2558410.25}},{"attributes":{"ID":284057,"DIS_CODE":0,"TOWNNAME":"善化區","LI":"什乃里","LIN":"2鄰","STREET":" ","SECT":" ","MAREA":"什乃","LANE":" ","ALLEY":" ","HOUSE_NO":"２１之２７號","E_COORD97":176103.10000000001,"N_COORD97":2560645.02,"ADDRESS":"什乃２１之２７號","OBJECTID":284051},"geometry":{"x":176103.09999999963,"y":2560645.0199999996}},{"attributes":{"ID":284058,"DIS_CODE":0,"TOWNNAME":"善化區","LI":"什乃里","LIN":"2鄰","STREET":" ","SECT":" ","MAREA":"什乃","LANE":" ","ALLEY":" ","HOUSE_NO":"１８號之２３","E_COORD97":176150.85999999999,"N_COORD97":2560710.27,"ADDRESS":"什乃１８號之２３","OBJECTID":284052},"geometry":{"x":176150.86000000034,"y":2560710.2700000014}},{"attributes":{"ID":284059,"DIS_CODE":0,"TOWNNAME":"善化區","LI":"牛庄里","LIN":"2鄰","STREET":" ","SECT":" ","MAREA":"牛庄","LANE":" ","ALLEY":" ","HOUSE_NO":"２７號之３３","E_COORD97":180567.22,"N_COORD97":2559839.02,"ADDRESS":"牛庄２７號之３３","OBJECTID":284053},"geometry":{"x":180567.21999999974,"y":2559839.0199999996}},{"attributes":{"ID":284060,"DIS_CODE":0,"TOWNNAME":"善化區","LI":"什乃里","LIN":"2鄰","STREET":" ","SECT":" ","MAREA":"什乃","LANE":" ","ALLEY":" ","HOUSE_NO":"２２之６號","E_COORD97":176102.60999999999,"N_COORD97":2560599.27,"ADDRESS":"什乃２２之６號","OBJECTID":284054},"geometry":{"x":176102.61000000127,"y":2560599.2699999996}},{"attributes":{"ID":284061,"DIS_CODE":0,"TOWNNAME":"善化區","LI":"什乃里","LIN":"2鄰","STREET":" ","SECT":" ","MAREA":"什乃","LANE":" ","ALLEY":" ","HOUSE_NO":"１８號之２５","E_COORD97":176312.14999999999,"N_COORD97":2560937.52,"ADDRESS":"什乃１８號之２５","OBJECTID":284055},"geometry":{"x":176312.15000000037,"y":2560937.5199999996}},{"attributes":{"ID":284062,"DIS_CODE":0,"TOWNNAME":"善化區","LI":"什乃里","LIN":"2鄰","STREET":" ","SECT":" ","MAREA":"什乃","LANE":" ","ALLEY":" ","HOUSE_NO":"２０號","E_COORD97":176147.51999999999,"N_COORD97":2560632,"ADDRESS":"什乃２０號","OBJECTID":284056},"geometry":{"x":176147.51999999955,"y":2560632.0000000019}},{"attributes":{"ID":284063,"DIS_CODE":0,"TOWNNAME":"善化區","LI":"什乃里","LIN":"2鄰","STREET":" ","SECT":" ","MAREA":"什乃","LANE":" ","ALLEY":" ","HOUSE_NO":"２１之２號","E_COORD97":176165.70999999999,"N_COORD97":2560669.52,"ADDRESS":"什乃２１之２號","OBJECTID":284057},"geometry":{"x":176165.71000000183,"y":2560669.5199999996}},{"attributes":{"ID":284064,"DIS_CODE":0,"TOWNNAME":"善化區","LI":"牛庄里","LIN":"2鄰","STREET":" ","SECT":" ","MAREA":"牛庄","LANE":" ","ALLEY":" ","HOUSE_NO":"２６之４號","E_COORD97":180302.95999999999,"N_COORD97":2559756.77,"ADDRESS":"牛庄２６之４號","OBJECTID":284058},"geometry":{"x":180302.95999999996,"y":2559756.7700000033}},{"attributes":{"ID":284065,"DIS_CODE":0,"TOWNNAME":"善化區","LI":"牛庄里","LIN":"2鄰","STREET":" ","SECT":" ","MAREA":"牛庄","LANE":" ","ALLEY":" ","HOUSE_NO":"２７號之２５","E_COORD97":180530.72,"N_COORD97":2559736.52,"ADDRESS":"牛庄２７號之２５","OBJECTID":284059},"geometry":{"x":180530.72000000067,"y":2559736.5199999996}},{"attributes":{"ID":284066,"DIS_CODE":0,"TOWNNAME":"善化區","LI":"什乃里","LIN":"2鄰","STREET":" ","SECT":" ","MAREA":"什乃","LANE":" ","ALLEY":" ","HOUSE_NO":"２１之２６號","E_COORD97":176099.16,"N_COORD97":2560798.02,"ADDRESS":"什乃２１之２６號","OBJECTID":284060},"geometry":{"x":176099.16000000108,"y":2560798.0199999996}},{"attributes":{"ID":284067,"DIS_CODE":0,"TOWNNAME":"善化區","LI":"牛庄里","LIN":"2鄰","STREET":" ","SECT":" ","MAREA":"牛庄","LANE":" ","ALLEY":" ","HOUSE_NO":"２４號","E_COORD97":180338.32000000001,"N_COORD97":2559873.25,"ADDRESS":"牛庄２４號","OBJECTID":284061},"geometry":{"x":180338.3200000003,"y":2559873.2500000019}},{"attributes":{"ID":284068,"DIS_CODE":0,"TOWNNAME":"善化區","LI":"什乃里","LIN":"2鄰","STREET":" ","SECT":" ","MAREA":"什乃","LANE":" ","ALLEY":" ","HOUSE_NO":"１９號之５","E_COORD97":176191.73000000001,"N_COORD97":2560688.52,"ADDRESS":"什乃１９號之５","OBJECTID":284062},"geometry":{"x":176191.73000000138,"y":2560688.5200000014}},{"attributes":{"ID":284069,"DIS_CODE":0,"TOWNNAME":"善化區","LI":"什乃里","LIN":"2鄰","STREET":" ","SECT":" ","MAREA":"什乃","LANE":" ","ALLEY":" ","HOUSE_NO":"１８號之５","E_COORD97":176223.70999999999,"N_COORD97":2560703.27,"ADDRESS":"什乃１８號之５","OBJECTID":284063},"geometry":{"x":176223.71000000089,"y":2560703.2700000014}},{"attributes":{"ID":284070,"DIS_CODE":0,"TOWNNAME":"善化區","LI":"什乃里","LIN":"2鄰","STREET":" ","SECT":" ","MAREA":"什乃","LANE":" ","ALLEY":" ","HOUSE_NO":"２１之３５號","E_COORD97":176167.79999999999,"N_COORD97":2560674.02,"ADDRESS":"什乃２１之３５號","OBJECTID":284064},"geometry":{"x":176167.79999999981,"y":2560674.0200000033}},{"attributes":{"ID":284071,"DIS_CODE":0,"TOWNNAME":"善化區","LI":"什乃里","LIN":"2鄰","STREET":" ","SECT":" ","MAREA":"什乃","LANE":" ","ALLEY":" ","HOUSE_NO":"２１之１８號","E_COORD97":176126.13,"N_COORD97":2560652.77,"ADDRESS":"什乃２１之１８號","OBJECTID":284065},"geometry":{"x":176126.13000000082,"y":2560652.7700000014}},{"attributes":{"ID":284072,"DIS_CODE":0,"TOWNNAME":"善化區","LI":"牛庄里","LIN":"2鄰","STREET":" ","SECT":" ","MAREA":"牛庄","LANE":" ","ALLEY":" ","HOUSE_NO":"２７號之２９","E_COORD97":180501.54999999999,"N_COORD97":2559805.77,"ADDRESS":"牛庄２７號之２９","OBJECTID":284066},"geometry":{"x":180501.55000000075,"y":2559805.7700000014}},{"attributes":{"ID":284073,"DIS_CODE":0,"TOWNNAME":"善化區","LI":"牛庄里","LIN":"2鄰","STREET":" ","SECT":" ","MAREA":"牛庄","LANE":" ","ALLEY":" ","HOUSE_NO":"２６號之３１","E_COORD97":180369.20999999999,"N_COORD97":2559666.5099999998,"ADDRESS":"牛庄２６號之３１","OBJECTID":284067},"geometry":{"x":180369.20999999996,"y":2559666.5099999998}},{"attributes":{"ID":284074,"DIS_CODE":0,"TOWNNAME":"善化區","LI":"小新里","LIN":"2鄰","STREET":" ","SECT":" ","MAREA":"小新營","LANE":" ","ALLEY":" ","HOUSE_NO":"１３之６３號","E_COORD97":179815.51999999999,"N_COORD97":2558568.27,"ADDRESS":"小新營１３之６３號","OBJECTID":284068},"geometry":{"x":179815.51999999955,"y":2558568.2700000014}},{"attributes":{"ID":284075,"DIS_CODE":0,"TOWNNAME":"善化區","LI":"什乃里","LIN":"2鄰","STREET":" ","SECT":" ","MAREA":"什乃","LANE":" ","ALLEY":" ","HOUSE_NO":"２１之８號","E_COORD97":176144.29000000001,"N_COORD97":2560669.77,"ADDRESS":"什乃２１之８號","OBJECTID":284069},"geometry":{"x":176144.29000000004,"y":2560669.7700000014}},{"attributes":{"ID":284076,"DIS_CODE":0,"TOWNNAME":"善化區","LI":"什乃里","LIN":"2鄰","STREET":" ","SECT":" ","MAREA":"什乃","LANE":" ","ALLEY":" ","HOUSE_NO":"２１號之３２","E_COORD97":176102.20000000001,"N_COORD97":2560629.52,"ADDRESS":"什乃２１號之３２","OBJECTID":284070},"geometry":{"x":176102.20000000112,"y":2560629.5199999977}},{"attributes":{"ID":284077,"DIS_CODE":0,"TOWNNAME":"善化區","LI":"牛庄里","LIN":"2鄰","STREET":" ","SECT":" ","MAREA":"牛庄","LANE":" ","ALLEY":" ","HOUSE_NO":"２６之１５號","E_COORD97":180369.97,"N_COORD97":2559760.52,"ADDRESS":"牛庄２６之１５號","OBJECTID":284071},"geometry":{"x":180369.97000000067,"y":2559760.5199999996}},{"attributes":{"ID":284078,"DIS_CODE":0,"TOWNNAME":"善化區","LI":"牛庄里","LIN":"2鄰","STREET":" ","SECT":" ","MAREA":"牛庄","LANE":" ","ALLEY":" ","HOUSE_NO":"２７之４號","E_COORD97":180384.10999999999,"N_COORD97":2559786.52,"ADDRESS":"牛庄２７之４號","OBJECTID":284072},"geometry":{"x":180384.11000000034,"y":2559786.5200000014}},{"attributes":{"ID":284079,"DIS_CODE":0,"TOWNNAME":"善化區","LI":"小新里","LIN":"2鄰","STREET":" ","SECT":" ","MAREA":"小新營","LANE":" ","ALLEY":" ","HOUSE_NO":"１３之５２號","E_COORD97":179797.01999999999,"N_COORD97":2558509.52,"ADDRESS":"小新營１３之５２號","OBJECTID":284073},"geometry":{"x":179797.01999999955,"y":2558509.5199999996}},{"attributes":{"ID":284080,"DIS_CODE":0,"TOWNNAME":"善化區","LI":"什乃里","LIN":"2鄰","STREET":" ","SECT":" ","MAREA":"什乃","LANE":" ","ALLEY":" ","HOUSE_NO":"２１之６號","E_COORD97":176164.95999999999,"N_COORD97":2560651.27,"ADDRESS":"什乃２１之６號","OBJECTID":284074},"geometry":{"x":176164.95999999996,"y":2560651.2699999996}},{"attributes":{"ID":284081,"DIS_CODE":0,"TOWNNAME":"善化區","LI":"牛庄里","LIN":"2鄰","STREET":" ","SECT":" ","MAREA":"牛庄","LANE":" ","ALLEY":" ","HOUSE_NO":"２６之２０號","E_COORD97":180392.51999999999,"N_COORD97":2559762.02,"ADDRESS":"牛庄２６之２０號","OBJECTID":284075},"geometry":{"x":180392.51999999862,"y":2559762.0200000033}},{"attributes":{"ID":284082,"DIS_CODE":0,"TOWNNAME":"善化區","LI":"什乃里","LIN":"2鄰","STREET":" ","SECT":" ","MAREA":"什乃","LANE":" ","ALLEY":" ","HOUSE_NO":"２２號","E_COORD97":176140.04000000001,"N_COORD97":2560617.25,"ADDRESS":"什乃２２號","OBJECTID":284076},"geometry":{"x":176140.04000000097,"y":2560617.25}},{"attributes":{"ID":284083,"DIS_CODE":0,"TOWNNAME":"永康區","LI":"埔園里","LIN":"19鄰","STREET":"四維街","SECT":" ","MAREA":" ","LANE":"１４０巷","ALLEY":" ","HOUSE_NO":"２２號","E_COORD97":173393.23000000001,"N_COORD97":2548300.25,"ADDRESS":"四維街１４０巷２２號","OBJECTID":284077},"geometry":{"x":173393.23000000138,"y":2548300.25}},{"attributes":{"ID":284084,"DIS_CODE":0,"TOWNNAME":"永康區","LI":"崑山里","LIN":"19鄰","STREET":"大灣路","SECT":" ","MAREA":" ","LANE":"７９８巷","ALLEY":" ","HOUSE_NO":"１２號","E_COORD97":174022.45000000001,"N_COORD97":2544554.46,"ADDRESS":"大灣路７９８巷１２號","OBJECTID":284078},"geometry":{"x":174022.45000000019,"y":2544554.4600000046}},{"attributes":{"ID":284085,"DIS_CODE":0,"TOWNNAME":"善化區","LI":"牛庄里","LIN":"2鄰","STREET":" ","SECT":" ","MAREA":"牛庄","LANE":" ","ALLEY":" ","HOUSE_NO":"２７之１號","E_COORD97":180382.5,"N_COORD97":2559795.52,"ADDRESS":"牛庄２７之１號","OBJECTID":284079},"geometry":{"x":180382.5,"y":2559795.5199999977}},{"attributes":{"ID":284086,"DIS_CODE":0,"TOWNNAME":"善化區","LI":"六德里","LIN":"2鄰","STREET":" ","SECT":" ","MAREA":"六分寮","LANE":" ","ALLEY":" ","HOUSE_NO":"２１４號之４","E_COORD97":178651.91,"N_COORD97":2561720.52,"ADDRESS":"六分寮２１４號之４","OBJECTID":284080},"geometry":{"x":178651.91000000108,"y":2561720.5199999996}},{"attributes":{"ID":284087,"DIS_CODE":0,"TOWNNAME":"善化區","LI":"小新里","LIN":"2鄰","STREET":" ","SECT":" ","MAREA":"小新營","LANE":" ","ALLEY":" ","HOUSE_NO":"１３號之２７","E_COORD97":179862.35000000001,"N_COORD97":2558572.52,"ADDRESS":"小新營１３號之２７","OBJECTID":284081},"geometry":{"x":179862.35000000056,"y":2558572.5200000014}},{"attributes":{"ID":284088,"DIS_CODE":0,"TOWNNAME":"善化區","LI":"什乃里","LIN":"2鄰","STREET":" ","SECT":" ","MAREA":"什乃","LANE":" ","ALLEY":" ","HOUSE_NO":"２０號之１","E_COORD97":176138.64999999999,"N_COORD97":2560635.77,"ADDRESS":"什乃２０號之１","OBJECTID":284082},"geometry":{"x":176138.65000000037,"y":2560635.7700000014}},{"attributes":{"ID":284089,"DIS_CODE":0,"TOWNNAME":"善化區","LI":"小新里","LIN":"2鄰","STREET":" ","SECT":" ","MAREA":"小新營","LANE":" ","ALLEY":" ","HOUSE_NO":"１０號之４","E_COORD97":179902.20000000001,"N_COORD97":2558460.02,"ADDRESS":"小新營１０號之４","OBJECTID":284083},"geometry":{"x":179902.20000000205,"y":2558460.0200000033}},{"attributes":{"ID":284090,"DIS_CODE":0,"TOWNNAME":"善化區","LI":"牛庄里","LIN":"2鄰","STREET":" ","SECT":" ","MAREA":"牛庄","LANE":" ","ALLEY":" ","HOUSE_NO":"２６號之２２","E_COORD97":180389.57000000001,"N_COORD97":2559717.52,"ADDRESS":"牛庄２６號之２２","OBJECTID":284084},"geometry":{"x":180389.56999999937,"y":2559717.5199999977}},{"attributes":{"ID":284091,"DIS_CODE":0,"TOWNNAME":"善化區","LI":"小新里","LIN":"2鄰","STREET":" ","SECT":" ","MAREA":"小新營","LANE":" ","ALLEY":" ","HOUSE_NO":"１０號之２１","E_COORD97":179843.73999999999,"N_COORD97":2558443.52,"ADDRESS":"小新營１０號之２１","OBJECTID":284085},"geometry":{"x":179843.74000000022,"y":2558443.5200000014}},{"attributes":{"ID":284092,"DIS_CODE":0,"TOWNNAME":"善化區","LI":"牛庄里","LIN":"2鄰","STREET":" ","SECT":" ","MAREA":"牛庄","LANE":" ","ALLEY":" ","HOUSE_NO":"２６之６號","E_COORD97":180338.76999999999,"N_COORD97":2559816.27,"ADDRESS":"牛庄２６之６號","OBJECTID":284086},"geometry":{"x":180338.77000000048,"y":2559816.2699999996}},{"attributes":{"ID":284093,"DIS_CODE":0,"TOWNNAME":"善化區","LI":"六德里","LIN":"2鄰","STREET":" ","SECT":" ","MAREA":"六分寮","LANE":" ","ALLEY":" ","HOUSE_NO":"２１４號之２","E_COORD97":178679.35000000001,"N_COORD97":2561728.02,"ADDRESS":"六分寮２１４號之２","OBJECTID":284087},"geometry":{"x":178679.34999999963,"y":2561728.0199999977}},{"attributes":{"ID":284094,"DIS_CODE":0,"TOWNNAME":"仁德區","LI":"中洲里","LIN":"2鄰","STREET":" ","SECT":" ","MAREA":"中洲","LANE":" ","ALLEY":" ","HOUSE_NO":"１６號之２","E_COORD97":173323.72,"N_COORD97":2534409.2999999998,"ADDRESS":"中洲１６號之２","OBJECTID":284088},"geometry":{"x":173323.71999999974,"y":2534409.3000000026}},{"attributes":{"ID":284095,"DIS_CODE":0,"TOWNNAME":"永康區","LI":"埔園里","LIN":"19鄰","STREET":"四維街","SECT":" ","MAREA":" ","LANE":"１４０巷","ALLEY":" ","HOUSE_NO":"２８號","E_COORD97":173397.98000000001,"N_COORD97":2548288.5,"ADDRESS":"四維街１４０巷２８號","OBJECTID":284089},"geometry":{"x":173397.98000000138,"y":2548288.5}},{"attributes":{"ID":284096,"DIS_CODE":0,"TOWNNAME":"佳里區","LI":"六安里","LIN":"19鄰","STREET":"延平路","SECT":" ","MAREA":" ","LANE":"５７７巷","ALLEY":" ","HOUSE_NO":"１３號","E_COORD97":165883.26000000001,"N_COORD97":2563523.3500000001,"ADDRESS":"延平路５７７巷１３號","OBJECTID":284090},"geometry":{"x":165883.25999999978,"y":2563523.3500000015}},{"attributes":{"ID":284097,"DIS_CODE":0,"TOWNNAME":"佳里區","LI":"六安里","LIN":"19鄰","STREET":"延平路","SECT":" ","MAREA":" ","LANE":"５７７巷","ALLEY":" ","HOUSE_NO":"１５號","E_COORD97":165877.66,"N_COORD97":2563524.04,"ADDRESS":"延平路５７７巷１５號","OBJECTID":284091},"geometry":{"x":165877.66000000015,"y":2563524.0399999991}},{"attributes":{"ID":284098,"DIS_CODE":0,"TOWNNAME":"佳里區","LI":"六安里","LIN":"19鄰","STREET":"延平路","SECT":" ","MAREA":" ","LANE":"５７７巷","ALLEY":" ","HOUSE_NO":"１７號","E_COORD97":165870.89999999999,"N_COORD97":2563525.0899999999,"ADDRESS":"延平路５７７巷１７號","OBJECTID":284092},"geometry":{"x":165870.90000000037,"y":2563525.0900000036}},{"attributes":{"ID":284099,"DIS_CODE":0,"TOWNNAME":"東區","LI":"後甲里","LIN":"20鄰","STREET":"裕農路","SECT":" ","MAREA":" ","LANE":"７７１巷","ALLEY":" ","HOUSE_NO":"６號","E_COORD97":171904.76999999999,"N_COORD97":2543295.8199999998,"ADDRESS":"裕農路７７１巷６號","OBJECTID":284093},"geometry":{"x":171904.77000000142,"y":2543295.8200000003}},{"attributes":{"ID":284100,"DIS_CODE":0,"TOWNNAME":"佳里區","LI":"六安里","LIN":"19鄰","STREET":"延平路","SECT":" ","MAREA":" ","LANE":"５７７巷","ALLEY":" ","HOUSE_NO":"１９號","E_COORD97":165865.07999999999,"N_COORD97":2563525.9199999999,"ADDRESS":"延平路５７７巷１９號","OBJECTID":284094},"geometry":{"x":165865.08000000194,"y":2563525.9199999981}},{"attributes":{"ID":284101,"DIS_CODE":0,"TOWNNAME":"佳里區","LI":"六安里","LIN":"19鄰","STREET":"延平路","SECT":" ","MAREA":" ","LANE":"５７７巷","ALLEY":" ","HOUSE_NO":"７號","E_COORD97":165903.17000000001,"N_COORD97":2563520.2799999998,"ADDRESS":"延平路５７７巷７號","OBJECTID":284095},"geometry":{"x":165903.17000000179,"y":2563520.2800000012}},{"attributes":{"ID":284102,"DIS_CODE":0,"TOWNNAME":"佳里區","LI":"六安里","LIN":"19鄰","STREET":"延平路","SECT":" ","MAREA":" ","LANE":"５７７巷","ALLEY":" ","HOUSE_NO":"９號","E_COORD97":165896.28,"N_COORD97":2563521.1899999999,"ADDRESS":"延平路５７７巷９號","OBJECTID":284096},"geometry":{"x":165896.28000000119,"y":2563521.1900000013}},{"attributes":{"ID":284103,"DIS_CODE":0,"TOWNNAME":"東區","LI":"崇學里","LIN":"19鄰","STREET":"崇德四街","SECT":" ","MAREA":" ","LANE":"７巷","ALLEY":" ","HOUSE_NO":"２５號","E_COORD97":170508.26000000001,"N_COORD97":2542011.2200000002,"ADDRESS":"崇德四街７巷２５號","OBJECTID":284097},"geometry":{"x":170508.26000000164,"y":2542011.2200000025}},{"attributes":{"ID":284104,"DIS_CODE":0,"TOWNNAME":"東區","LI":"崇學里","LIN":"19鄰","STREET":"崇德四街","SECT":" ","MAREA":" ","LANE":"７巷","ALLEY":" ","HOUSE_NO":"２７號","E_COORD97":170505.01999999999,"N_COORD97":2542013.6800000002,"ADDRESS":"崇德四街７巷２７號","OBJECTID":284098},"geometry":{"x":170505.02000000048,"y":2542013.6800000016}},{"attributes":{"ID":284105,"DIS_CODE":0,"TOWNNAME":"東區","LI":"崇學里","LIN":"19鄰","STREET":"崇德四街","SECT":" ","MAREA":" ","LANE":"７巷","ALLEY":" ","HOUSE_NO":"２９號","E_COORD97":170502.78,"N_COORD97":2542017.25,"ADDRESS":"崇德四街７巷２９號","OBJECTID":284099},"geometry":{"x":170502.78000000026,"y":2542017.25}},{"attributes":{"ID":284106,"DIS_CODE":0,"TOWNNAME":"永康區","LI":"\u25A0行里","LIN":"42鄰","STREET":"永安二街","SECT":" ","MAREA":" ","LANE":" ","ALLEY":" ","HOUSE_NO":"１５號","E_COORD97":172457.34,"N_COORD97":2549596.8300000001,"ADDRESS":"永安二街１５號","OBJECTID":284100},"geometry":{"x":172457.34000000171,"y":2549596.8300000019}},{"attributes":{"ID":284107,"DIS_CODE":0,"TOWNNAME":"東區","LI":"崇學里","LIN":"19鄰","STREET":"崇德四街","SECT":" ","MAREA":" ","LANE":"７巷","ALLEY":" ","HOUSE_NO":"３１號","E_COORD97":170499.76000000001,"N_COORD97":2542020.04,"ADDRESS":"崇德四街７巷３１號","OBJECTID":284101},"geometry":{"x":170499.76000000164,"y":2542020.040000001}},{"attributes":{"ID":284108,"DIS_CODE":0,"TOWNNAME":"永康區","LI":"永康里","LIN":"19鄰","STREET":"永中街","SECT":" ","MAREA":" ","LANE":"１６６巷","ALLEY":" ","HOUSE_NO":"８號","E_COORD97":174029.23999999999,"N_COORD97":2547294.79,"ADDRESS":"永中街１６６巷８號","OBJECTID":284102},"geometry":{"x":174029.24000000022,"y":2547294.7899999991}},{"attributes":{"ID":284109,"DIS_CODE":0,"TOWNNAME":"安南區","LI":"安慶里","LIN":"19鄰","STREET":"安中路","SECT":"一段","MAREA":" ","LANE":"１８９巷","ALLEY":" ","HOUSE_NO":"６９號","E_COORD97":168784.70000000001,"N_COORD97":2548297.7599999998,"ADDRESS":"安中路一段１８９巷６９號","OBJECTID":284103},"geometry":{"x":168784.70000000019,"y":2548297.7600000035}},{"attributes":{"ID":284110,"DIS_CODE":0,"TOWNNAME":"安南區","LI":"溪墘里","LIN":"19鄰","STREET":"海佃路","SECT":"一段","MAREA":" ","LANE":"４００巷","ALLEY":" ","HOUSE_NO":"２２號","E_COORD97":167138.89999999999,"N_COORD97":2547667.9300000002,"ADDRESS":"海佃路一段４００巷２２號","OBJECTID":284104},"geometry":{"x":167138.90000000037,"y":2547667.9299999997}},{"attributes":{"ID":284111,"DIS_CODE":0,"TOWNNAME":"安南區","LI":"州南里","LIN":"19鄰","STREET":"安和路","SECT":"四段","MAREA":" ","LANE":"２７４巷","ALLEY":" ","HOUSE_NO":"５７號","E_COORD97":170071.32000000001,"N_COORD97":2550769.4100000001,"ADDRESS":"安和路四段２７４巷５７號","OBJECTID":284105},"geometry":{"x":170071.32000000123,"y":2550769.410000002}},{"attributes":{"ID":284112,"DIS_CODE":0,"TOWNNAME":"安南區","LI":"州南里","LIN":"19鄰","STREET":"安和路","SECT":"四段","MAREA":" ","LANE":"２７４巷","ALLEY":" ","HOUSE_NO":"６１號","E_COORD97":170079.01999999999,"N_COORD97":2550771,"ADDRESS":"安和路四段２７４巷６１號","OBJECTID":284106},"geometry":{"x":170079.01999999862,"y":2550771.0000000037}},{"attributes":{"ID":284113,"DIS_CODE":0,"TOWNNAME":"安南區","LI":"州南里","LIN":"19鄰","STREET":"安和路","SECT":"四段","MAREA":" ","LANE":"２７４巷","ALLEY":" ","HOUSE_NO":"６３號","E_COORD97":170086.70999999999,"N_COORD97":2550770.73,"ADDRESS":"安和路四段２７４巷６３號","OBJECTID":284107},"geometry":{"x":170086.71000000183,"y":2550770.7300000023}},{"attributes":{"ID":284114,"DIS_CODE":0,"TOWNNAME":"安南區","LI":"州南里","LIN":"19鄰","STREET":"安和路","SECT":"四段","MAREA":" ","LANE":"２７４巷","ALLEY":" ","HOUSE_NO":"６５號","E_COORD97":170091.17000000001,"N_COORD97":2550771.0800000001,"ADDRESS":"安和路四段２７４巷６５號","OBJECTID":284108},"geometry":{"x":170091.17000000086,"y":2550771.0800000019}},{"attributes":{"ID":284115,"DIS_CODE":0,"TOWNNAME":"安南區","LI":"州南里","LIN":"19鄰","STREET":"安和路","SECT":"四段","MAREA":" ","LANE":"２７４巷","ALLEY":" ","HOUSE_NO":"６７號","E_COORD97":170094.76999999999,"N_COORD97":2550770.7599999998,"ADDRESS":"安和路四段２７４巷６７號","OBJECTID":284109},"geometry":{"x":170094.77000000048,"y":2550770.7600000016}},{"attributes":{"ID":284116,"DIS_CODE":0,"TOWNNAME":"安南區","LI":"安東里","LIN":"19鄰","STREET":"安和路","SECT":"一段","MAREA":" ","LANE":"４９６巷","ALLEY":" ","HOUSE_NO":"１９號","E_COORD97":169510.64000000001,"N_COORD97":2548454.6899999999,"ADDRESS":"安和路一段４９６巷１９號","OBJECTID":284110},"geometry":{"x":169510.64000000153,"y":2548454.6900000013}},{"attributes":{"ID":284117,"DIS_CODE":0,"TOWNNAME":"六甲區","LI":"六甲里","LIN":"19鄰","STREET":"仁愛街","SECT":" ","MAREA":" ","LANE":"８３巷","ALLEY":" ","HOUSE_NO":"６號","E_COORD97":183824.64999999999,"N_COORD97":2570097.02,"ADDRESS":"仁愛街８３巷６號","OBJECTID":284111},"geometry":{"x":183824.65000000037,"y":2570097.0200000014}},{"attributes":{"ID":284118,"DIS_CODE":0,"TOWNNAME":"東區","LI":"莊敬里","LIN":"7鄰","STREET":"東光路","SECT":"二段","MAREA":" ","LANE":"１２１巷","ALLEY":" ","HOUSE_NO":"１３號","E_COORD97":171174.64000000001,"N_COORD97":2544237.1899999999,"ADDRESS":"東光路二段１２１巷１３號","OBJECTID":284112},"geometry":{"x":171174.63999999966,"y":2544237.1900000013}},{"attributes":{"ID":284119,"DIS_CODE":0,"TOWNNAME":"新營區","LI":"民榮里","LIN":"19鄰","STREET":"裕民路","SECT":" ","MAREA":" ","LANE":"５８巷","ALLEY":" ","HOUSE_NO":"３８之１號","E_COORD97":179034.42999999999,"N_COORD97":2577853.1000000001,"ADDRESS":"裕民路５８巷３８之１號","OBJECTID":284113},"geometry":{"x":179034.43000000063,"y":2577853.1000000015}},{"attributes":{"ID":284120,"DIS_CODE":0,"TOWNNAME":"新營區","LI":"南紙里","LIN":"19鄰","STREET":"太子路","SECT":" ","MAREA":" ","LANE":"２３８巷","ALLEY":" ","HOUSE_NO":"３９號","E_COORD97":177770.04000000001,"N_COORD97":2577930.0299999998,"ADDRESS":"太子路２３８巷３９號","OBJECTID":284114},"geometry":{"x":177770.04000000004,"y":2577930.0299999993}},{"attributes":{"ID":284121,"DIS_CODE":0,"TOWNNAME":"東區","LI":"圍下里","LIN":"19鄰","STREET":"慶東街","SECT":" ","MAREA":" ","LANE":"１２７巷","ALLEY":" ","HOUSE_NO":"１０號","E_COORD97":169611.84,"N_COORD97":2543402.1400000001,"ADDRESS":"慶東街１２７巷１０號","OBJECTID":284115},"geometry":{"x":169611.84000000078,"y":2543402.1400000006}},{"attributes":{"ID":284122,"DIS_CODE":0,"TOWNNAME":"新營區","LI":"王公里","LIN":"19鄰","STREET":"民族路","SECT":" ","MAREA":" ","LANE":"１１４巷","ALLEY":" ","HOUSE_NO":"３號","E_COORD97":180384.28,"N_COORD97":2579222.0800000001,"ADDRESS":"民族路１１４巷３號","OBJECTID":284116},"geometry":{"x":180384.28000000026,"y":2579222.0800000001}},{"attributes":{"ID":284123,"DIS_CODE":0,"TOWNNAME":"六甲區","LI":"甲南里","LIN":"19鄰","STREET":"文化街","SECT":" ","MAREA":" ","LANE":"４２巷","ALLEY":" ","HOUSE_NO":"１０號","E_COORD97":183845.01000000001,"N_COORD97":2569870.4100000001,"ADDRESS":"文化街４２巷１０號","OBJECTID":284117},"geometry":{"x":183845.01000000071,"y":2569870.410000002}},{"attributes":{"ID":284124,"DIS_CODE":0,"TOWNNAME":"六甲區","LI":"甲南里","LIN":"19鄰","STREET":"文化街","SECT":" ","MAREA":" ","LANE":"４２巷","ALLEY":" ","HOUSE_NO":"１２號","E_COORD97":183845.88,"N_COORD97":2569875.8100000001,"ADDRESS":"文化街４２巷１２號","OBJECTID":284118},"geometry":{"x":183845.88000000082,"y":2569875.8100000024}},{"attributes":{"ID":284125,"DIS_CODE":0,"TOWNNAME":"六甲區","LI":"甲南里","LIN":"19鄰","STREET":"文化街","SECT":" ","MAREA":" ","LANE":"４２巷","ALLEY":" ","HOUSE_NO":"１４號","E_COORD97":183856.64000000001,"N_COORD97":2569884.4500000002,"ADDRESS":"文化街４２巷１４號","OBJECTID":284119},"geometry":{"x":183856.63999999966,"y":2569884.4499999993}},{"attributes":{"ID":284126,"DIS_CODE":0,"TOWNNAME":"六甲區","LI":"甲南里","LIN":"19鄰","STREET":"文化街","SECT":" ","MAREA":" ","LANE":"４２巷","ALLEY":" ","HOUSE_NO":"４號","E_COORD97":183847.78380899999,"N_COORD97":2569856.1091100001,"ADDRESS":"文化街４２巷４號","OBJECTID":284120},"geometry":{"x":183847.78380900156,"y":2569856.1091069989}},{"attributes":{"ID":284127,"DIS_CODE":0,"TOWNNAME":"六甲區","LI":"甲南里","LIN":"19鄰","STREET":"文化街","SECT":" ","MAREA":" ","LANE":"４２巷","ALLEY":" ","HOUSE_NO":"８號","E_COORD97":183844.87,"N_COORD97":2569865.2400000002,"ADDRESS":"文化街４２巷８號","OBJECTID":284121},"geometry":{"x":183844.87000000011,"y":2569865.2400000021}},{"attributes":{"ID":284128,"DIS_CODE":0,"TOWNNAME":"柳營區","LI":"八翁里","LIN":"19鄰","STREET":"仁愛路","SECT":" ","MAREA":" ","LANE":"１６１巷","ALLEY":" ","HOUSE_NO":"８５號","E_COORD97":178731.82999999999,"N_COORD97":2575263.9300000002,"ADDRESS":"仁愛路１６１巷８５號","OBJECTID":284122},"geometry":{"x":178731.83000000101,"y":2575263.9300000016}},{"attributes":{"ID":284129,"DIS_CODE":0,"TOWNNAME":"南區","LI":"郡南里","LIN":"19鄰","STREET":"德興路","SECT":" ","MAREA":" ","LANE":"１７７巷","ALLEY":" ","HOUSE_NO":"２號","E_COORD97":167239.39999999999,"N_COORD97":2540348.2400000002,"ADDRESS":"德興路１７７巷２號","OBJECTID":284123},"geometry":{"x":167239.40000000037,"y":2540348.2400000021}},{"attributes":{"ID":284130,"DIS_CODE":0,"TOWNNAME":"歸仁區","LI":"六甲里","LIN":"19鄰","STREET":"六甲三街","SECT":" ","MAREA":" ","LANE":"１４６巷","ALLEY":" ","HOUSE_NO":"７９號","E_COORD97":175143.92551299999,"N_COORD97":2539074.1001900001,"ADDRESS":"六甲三街１４６巷７９號","OBJECTID":284124},"geometry":{"x":175143.92551300023,"y":2539074.1001930013}},{"attributes":{"ID":284131,"DIS_CODE":0,"TOWNNAME":"南區","LI":"田寮里","LIN":"19鄰","STREET":"西門路","SECT":"一段","MAREA":" ","LANE":"２２３巷","ALLEY":" ","HOUSE_NO":"１１號","E_COORD97":167676.95999999999,"N_COORD97":2541777.8199999998,"ADDRESS":"西門路一段２２３巷１１號","OBJECTID":284125},"geometry":{"x":167676.96000000089,"y":2541777.8199999984}},{"attributes":{"ID":284132,"DIS_CODE":0,"TOWNNAME":"安南區","LI":"總頭里","LIN":"2鄰","STREET":"總安街","SECT":"二段","MAREA":" ","LANE":" ","ALLEY":" ","HOUSE_NO":"３３７號","E_COORD97":168357.5,"N_COORD97":2550482.71,"ADDRESS":"總安街二段３３７號","OBJECTID":284126},"geometry":{"x":168357.50000000186,"y":2550482.7100000046}},{"attributes":{"ID":284133,"DIS_CODE":0,"TOWNNAME":"安南區","LI":"總頭里","LIN":"2鄰","STREET":"總安街","SECT":"二段","MAREA":" ","LANE":" ","ALLEY":" ","HOUSE_NO":"３３９號","E_COORD97":168352.41,"N_COORD97":2550481.75,"ADDRESS":"總安街二段３３９號","OBJECTID":284127},"geometry":{"x":168352.41000000015,"y":2550481.7500000019}},{"attributes":{"ID":284134,"DIS_CODE":0,"TOWNNAME":"南區","LI":"田寮里","LIN":"19鄰","STREET":"西門路","SECT":"一段","MAREA":" ","LANE":"２２３巷","ALLEY":" ","HOUSE_NO":"１２號","E_COORD97":167661.64000000001,"N_COORD97":2541813.0699999998,"ADDRESS":"西門路一段２２３巷１２號","OBJECTID":284128},"geometry":{"x":167661.6400000006,"y":2541813.0700000003}},{"attributes":{"ID":284135,"DIS_CODE":0,"TOWNNAME":"南區","LI":"田寮里","LIN":"19鄰","STREET":"西門路","SECT":"一段","MAREA":" ","LANE":"２２３巷","ALLEY":" ","HOUSE_NO":"１３號","E_COORD97":167676.78,"N_COORD97":2541785.3799999999,"ADDRESS":"西門路一段２２３巷１３號","OBJECTID":284129},"geometry":{"x":167676.78000000119,"y":2541785.379999999}},{"attributes":{"ID":284136,"DIS_CODE":0,"TOWNNAME":"南區","LI":"田寮里","LIN":"19鄰","STREET":"西門路","SECT":"一段","MAREA":" ","LANE":"２２３巷","ALLEY":" ","HOUSE_NO":"１４號","E_COORD97":167653.60000000001,"N_COORD97":2541813.3900000001,"ADDRESS":"西門路一段２２３巷１４號","OBJECTID":284130},"geometry":{"x":167653.60000000056,"y":2541813.3900000025}},{"attributes":{"ID":284137,"DIS_CODE":0,"TOWNNAME":"南區","LI":"田寮里","LIN":"19鄰","STREET":"西門路","SECT":"一段","MAREA":" ","LANE":"２２３巷","ALLEY":" ","HOUSE_NO":"１５號","E_COORD97":167676.59,"N_COORD97":2541792.7599999998,"ADDRESS":"西門路一段２２３巷１５號","OBJECTID":284131},"geometry":{"x":167676.58999999985,"y":2541792.7600000016}},{"attributes":{"ID":284138,"DIS_CODE":0,"TOWNNAME":"南區","LI":"田寮里","LIN":"19鄰","STREET":"西門路","SECT":"一段","MAREA":" ","LANE":"２２３巷","ALLEY":" ","HOUSE_NO":"１６號","E_COORD97":167646.38,"N_COORD97":2541813.23,"ADDRESS":"西門路一段２２３巷１６號","OBJECTID":284132},"geometry":{"x":167646.38000000082,"y":2541813.2300000023}},{"attributes":{"ID":284139,"DIS_CODE":0,"TOWNNAME":"南區","LI":"田寮里","LIN":"19鄰","STREET":"西門路","SECT":"一段","MAREA":" ","LANE":"２２３巷","ALLEY":" ","HOUSE_NO":"１７號","E_COORD97":167663.10000000001,"N_COORD97":2541792.3900000001,"ADDRESS":"西門路一段２２３巷１７號","OBJECTID":284133},"geometry":{"x":167663.10000000149,"y":2541792.3900000025}},{"attributes":{"ID":284140,"DIS_CODE":0,"TOWNNAME":"新營區","LI":"土庫里","LIN":"1鄰","STREET":" ","SECT":" ","MAREA":"土庫","LANE":" ","ALLEY":" ","HOUSE_NO":"１號之３","E_COORD97":183083.71496300001,"N_COORD97":2579941.2860699999,"ADDRESS":"土庫１號之３","OBJECTID":284134},"geometry":{"x":183083.71496300027,"y":2579941.2860670015}},{"attributes":{"ID":284141,"DIS_CODE":0,"TOWNNAME":"南區","LI":"田寮里","LIN":"19鄰","STREET":"西門路","SECT":"一段","MAREA":" ","LANE":"２２３巷","ALLEY":" ","HOUSE_NO":"１８號","E_COORD97":167638.82999999999,"N_COORD97":2541812.8999999999,"ADDRESS":"西門路一段２２３巷１８號","OBJECTID":284135},"geometry":{"x":167638.83000000101,"y":2541812.9000000022}},{"attributes":{"ID":284142,"DIS_CODE":0,"TOWNNAME":"南區","LI":"田寮里","LIN":"19鄰","STREET":"西門路","SECT":"一段","MAREA":" ","LANE":"２２３巷","ALLEY":" ","HOUSE_NO":"１９號","E_COORD97":167663.66,"N_COORD97":2541785.9399999999,"ADDRESS":"西門路一段２２３巷１９號","OBJECTID":284136},"geometry":{"x":167663.66000000108,"y":2541785.9399999995}},{"attributes":{"ID":284143,"DIS_CODE":0,"TOWNNAME":"南區","LI":"田寮里","LIN":"19鄰","STREET":"西門路","SECT":"一段","MAREA":" ","LANE":"２２３巷","ALLEY":" ","HOUSE_NO":"１號","E_COORD97":167697.47,"N_COORD97":2541792.21,"ADDRESS":"西門路一段２２３巷１號","OBJECTID":284137},"geometry":{"x":167697.46999999974,"y":2541792.2100000009}},{"attributes":{"ID":284144,"DIS_CODE":0,"TOWNNAME":"南區","LI":"田寮里","LIN":"19鄰","STREET":"西門路","SECT":"一段","MAREA":" ","LANE":"２２３巷","ALLEY":" ","HOUSE_NO":"２０號","E_COORD97":167581.92000000001,"N_COORD97":2541845.6000000001,"ADDRESS":"西門路一段２２３巷２０號","OBJECTID":284138},"geometry":{"x":167581.92000000086,"y":2541845.5999999996}},{"attributes":{"ID":284145,"DIS_CODE":0,"TOWNNAME":"南區","LI":"田寮里","LIN":"19鄰","STREET":"西門路","SECT":"一段","MAREA":" ","LANE":"２２３巷","ALLEY":" ","HOUSE_NO":"２０號地下層","E_COORD97":167581.92000000001,"N_COORD97":2541845.6000000001,"ADDRESS":"西門路一段２２３巷２０號地下層","OBJECTID":284139},"geometry":{"x":167581.92000000086,"y":2541845.5999999996}},{"attributes":{"ID":284146,"DIS_CODE":0,"TOWNNAME":"玉井區","LI":"玉井里","LIN":"19鄰","STREET":"太子街","SECT":" ","MAREA":" ","LANE":"４４巷","ALLEY":" ","HOUSE_NO":"１４號","E_COORD97":194825.23000000001,"N_COORD97":2558069.25,"ADDRESS":"太子街４４巷１４號","OBJECTID":284140},"geometry":{"x":194825.23000000138,"y":2558069.2500000019}},{"attributes":{"ID":284147,"DIS_CODE":0,"TOWNNAME":"安平區","LI":"港仔里","LIN":"19鄰","STREET":"安平路","SECT":" ","MAREA":" ","LANE":"１６９巷","ALLEY":" ","HOUSE_NO":"２號","E_COORD97":164068.25,"N_COORD97":2544527.9199999999,"ADDRESS":"安平路１６９巷２號","OBJECTID":284141},"geometry":{"x":164068.25,"y":2544527.9200000018}},{"attributes":{"ID":284148,"DIS_CODE":0,"TOWNNAME":"安平區","LI":"港仔里","LIN":"19鄰","STREET":"安平路","SECT":" ","MAREA":" ","LANE":"１６９巷","ALLEY":" ","HOUSE_NO":"４號","E_COORD97":164076.82999999999,"N_COORD97":2544526.6099999999,"ADDRESS":"安平路１６９巷４號","OBJECTID":284142},"geometry":{"x":164076.83000000101,"y":2544526.6099999994}},{"attributes":{"ID":284149,"DIS_CODE":0,"TOWNNAME":"安平區","LI":"港仔里","LIN":"19鄰","STREET":"安平路","SECT":" ","MAREA":" ","LANE":"１６９巷","ALLEY":" ","HOUSE_NO":"４號之１","E_COORD97":164078.20999999999,"N_COORD97":2544522.6699999999,"ADDRESS":"安平路１６９巷４號之１","OBJECTID":284143},"geometry":{"x":164078.20999999996,"y":2544522.6700000018}},{"attributes":{"ID":284150,"DIS_CODE":0,"TOWNNAME":"安平區","LI":"港仔里","LIN":"19鄰","STREET":"安平路","SECT":" ","MAREA":" ","LANE":"１６９巷","ALLEY":" ","HOUSE_NO":"４號之２","E_COORD97":164076,"N_COORD97":2544518.2599999998,"ADDRESS":"安平路１６９巷４號之２","OBJECTID":284144},"geometry":{"x":164076.00000000093,"y":2544518.2600000016}},{"attributes":{"ID":284151,"DIS_CODE":0,"TOWNNAME":"新營區","LI":"南紙里","LIN":"19鄰","STREET":"太子路","SECT":" ","MAREA":" ","LANE":"２３８巷","ALLEY":" ","HOUSE_NO":"２３號","E_COORD97":177780.07999999999,"N_COORD97":2577895.6499999999,"ADDRESS":"太子路２３８巷２３號","OBJECTID":284145},"geometry":{"x":177780.08000000007,"y":2577895.6500000004}},{"attributes":{"ID":284152,"DIS_CODE":0,"TOWNNAME":"新營區","LI":"南紙里","LIN":"19鄰","STREET":"太子路","SECT":" ","MAREA":" ","LANE":"２３８巷","ALLEY":" ","HOUSE_NO":"３號","E_COORD97":177788.85999999999,"N_COORD97":2577852.3999999999,"ADDRESS":"太子路２３８巷３號","OBJECTID":284146},"geometry":{"x":177788.86000000034,"y":2577852.4000000022}},{"attributes":{"ID":284153,"DIS_CODE":0,"TOWNNAME":"新營區","LI":"南紙里","LIN":"19鄰","STREET":"太子路","SECT":" ","MAREA":" ","LANE":"２３８巷","ALLEY":" ","HOUSE_NO":"２７號","E_COORD97":177778.07000000001,"N_COORD97":2577904.52,"ADDRESS":"太子路２３８巷２７號","OBJECTID":284147},"geometry":{"x":177778.07000000123,"y":2577904.5200000014}},{"attributes":{"ID":284154,"DIS_CODE":0,"TOWNNAME":"新營區","LI":"王公里","LIN":"19鄰","STREET":"民族路","SECT":" ","MAREA":" ","LANE":"１１４巷","ALLEY":" ","HOUSE_NO":"９號","E_COORD97":180387.29000000001,"N_COORD97":2579235.3500000001,"ADDRESS":"民族路１１４巷９號","OBJECTID":284148},"geometry":{"x":180387.29000000004,"y":2579235.3500000015}},{"attributes":{"ID":284155,"DIS_CODE":0,"TOWNNAME":"新營區","LI":"南紙里","LIN":"19鄰","STREET":"太子路","SECT":" ","MAREA":" ","LANE":"２３８巷","ALLEY":" ","HOUSE_NO":"４３號","E_COORD97":177768.01999999999,"N_COORD97":2577938.8900000001,"ADDRESS":"太子路２３８巷４３號","OBJECTID":284149},"geometry":{"x":177768.01999999955,"y":2577938.8900000006}},{"attributes":{"ID":284156,"DIS_CODE":0,"TOWNNAME":"新營區","LI":"南紙里","LIN":"19鄰","STREET":"太子路","SECT":" ","MAREA":" ","LANE":"２３８巷","ALLEY":" ","HOUSE_NO":"２５號","E_COORD97":177779.07999999999,"N_COORD97":2577901.1899999999,"ADDRESS":"太子路２３８巷２５號","OBJECTID":284150},"geometry":{"x":177779.08000000101,"y":2577901.1899999995}},{"attributes":{"ID":284157,"DIS_CODE":0,"TOWNNAME":"佳里區","LI":"鎮山里","LIN":"1鄰","STREET":"四安街","SECT":" ","MAREA":" ","LANE":" ","ALLEY":" ","HOUSE_NO":"１號","E_COORD97":165896.54999999999,"N_COORD97":2561856.04,"ADDRESS":"四安街１號","OBJECTID":284151},"geometry":{"x":165896.54999999981,"y":2561856.0399999991}},{"attributes":{"ID":284158,"DIS_CODE":0,"TOWNNAME":"新營區","LI":"南紙里","LIN":"19鄰","STREET":"太子路","SECT":" ","MAREA":" ","LANE":"２３８巷","ALLEY":" ","HOUSE_NO":"３５號","E_COORD97":177773.06,"N_COORD97":2577921.1499999999,"ADDRESS":"太子路２３８巷３５號","OBJECTID":284152},"geometry":{"x":177773.05999999959,"y":2577921.1500000022}},{"attributes":{"ID":284159,"DIS_CODE":0,"TOWNNAME":"新營區","LI":"王公里","LIN":"19鄰","STREET":"民族路","SECT":" ","MAREA":" ","LANE":"１１４巷","ALLEY":" ","HOUSE_NO":"４１號","E_COORD97":180462.20000000001,"N_COORD97":2579217.29,"ADDRESS":"民族路１１４巷４１號","OBJECTID":284153},"geometry":{"x":180462.20000000112,"y":2579217.290000001}},{"attributes":{"ID":284160,"DIS_CODE":0,"TOWNNAME":"新營區","LI":"王公里","LIN":"19鄰","STREET":"民族路","SECT":" ","MAREA":" ","LANE":"１１４巷","ALLEY":" ","HOUSE_NO":"１７號","E_COORD97":180403.84,"N_COORD97":2579220.8799999999,"ADDRESS":"民族路１１４巷１７號","OBJECTID":284154},"geometry":{"x":180403.83999999985,"y":2579220.8800000008}},{"attributes":{"ID":284161,"DIS_CODE":0,"TOWNNAME":"新營區","LI":"民生里","LIN":"19鄰","STREET":"進修街","SECT":" ","MAREA":" ","LANE":"２９巷","ALLEY":" ","HOUSE_NO":"５１號","E_COORD97":178878.32999999999,"N_COORD97":2578472.8500000001,"ADDRESS":"進修街２９巷５１號","OBJECTID":284155},"geometry":{"x":178878.33000000007,"y":2578472.8499999996}},{"attributes":{"ID":284162,"DIS_CODE":0,"TOWNNAME":"新營區","LI":"新北里","LIN":"19鄰","STREET":"民生路","SECT":" ","MAREA":" ","LANE":"２２６巷","ALLEY":" ","HOUSE_NO":"２之１號","E_COORD97":179066.59,"N_COORD97":2579066.71,"ADDRESS":"民生路２２６巷２之１號","OBJECTID":284156},"geometry":{"x":179066.58999999985,"y":2579066.7100000046}},{"attributes":{"ID":284163,"DIS_CODE":0,"TOWNNAME":"歸仁區","LI":"大潭里","LIN":"19鄰","STREET":"中正南路","SECT":"三段","MAREA":" ","LANE":"９６巷","ALLEY":" ","HOUSE_NO":"８５號","E_COORD97":175103.70999999999,"N_COORD97":2534959.2799999998,"ADDRESS":"中正南路三段９６巷８５號","OBJECTID":284157},"geometry":{"x":175103.70999999996,"y":2534959.2800000031}},{"attributes":{"ID":284164,"DIS_CODE":0,"TOWNNAME":"歸仁區","LI":"大廟里","LIN":"19鄰","STREET":"大廟一街","SECT":" ","MAREA":" ","LANE":"２８巷","ALLEY":" ","HOUSE_NO":"３８號","E_COORD97":175753.22,"N_COORD97":2544227.25,"ADDRESS":"大廟一街２８巷３８號","OBJECTID":284158},"geometry":{"x":175753.21999999974,"y":2544227.2500000019}},{"attributes":{"ID":284165,"DIS_CODE":0,"TOWNNAME":"歸仁區","LI":"大潭里","LIN":"19鄰","STREET":"中正南路","SECT":"三段","MAREA":" ","LANE":"９６巷","ALLEY":" ","HOUSE_NO":"７３號","E_COORD97":175094.60999999999,"N_COORD97":2534992.2799999998,"ADDRESS":"中正南路三段９６巷７３號","OBJECTID":284159},"geometry":{"x":175094.61000000034,"y":2534992.2799999993}},{"attributes":{"ID":284166,"DIS_CODE":0,"TOWNNAME":"歸仁區","LI":"大潭里","LIN":"19鄰","STREET":"中正南路","SECT":"三段","MAREA":" ","LANE":"９６巷","ALLEY":" ","HOUSE_NO":"８號","E_COORD97":175247.26000000001,"N_COORD97":2535003.2799999998,"ADDRESS":"中正南路三段９６巷８號","OBJECTID":284160},"geometry":{"x":175247.25999999978,"y":2535003.2800000031}},{"attributes":{"ID":284167,"DIS_CODE":0,"TOWNNAME":"柳營區","LI":"東昇里","LIN":"19鄰","STREET":"建國路","SECT":" ","MAREA":" ","LANE":"６２巷","ALLEY":" ","HOUSE_NO":"１１號","E_COORD97":180548.98000000001,"N_COORD97":2575201.8300000001,"ADDRESS":"建國路６２巷１１號","OBJECTID":284161},"geometry":{"x":180548.98000000045,"y":2575201.8300000001}},{"attributes":{"ID":284168,"DIS_CODE":0,"TOWNNAME":"柳營區","LI":"東昇里","LIN":"19鄰","STREET":"建國路","SECT":" ","MAREA":" ","LANE":"６２巷","ALLEY":" ","HOUSE_NO":"７號","E_COORD97":180538.16,"N_COORD97":2575202.0499999998,"ADDRESS":"建國路６２巷７號","OBJECTID":284162},"geometry":{"x":180538.16000000201,"y":2575202.0500000007}},{"attributes":{"ID":284169,"DIS_CODE":0,"TOWNNAME":"柳營區","LI":"東昇里","LIN":"19鄰","STREET":"建國路","SECT":" ","MAREA":" ","LANE":"６２巷","ALLEY":" ","HOUSE_NO":"９號","E_COORD97":180543.57000000001,"N_COORD97":2575201.9399999999,"ADDRESS":"建國路６２巷９號","OBJECTID":284163},"geometry":{"x":180543.5700000003,"y":2575201.9400000032}},{"attributes":{"ID":284170,"DIS_CODE":0,"TOWNNAME":"柳營區","LI":"光福里","LIN":"19鄰","STREET":"柳營路","SECT":"二段","MAREA":" ","LANE":"２５２巷","ALLEY":" ","HOUSE_NO":"１１號","E_COORD97":179655.67999999999,"N_COORD97":2575620.7200000002,"ADDRESS":"柳營路二段２５２巷１１號","OBJECTID":284164},"geometry":{"x":179655.6799999997,"y":2575620.7200000007}},{"attributes":{"ID":284171,"DIS_CODE":0,"TOWNNAME":"柳營區","LI":"篤農里","LIN":"19鄰","STREET":"義士路","SECT":"一段","MAREA":" ","LANE":"６３１巷","ALLEY":" ","HOUSE_NO":"１號","E_COORD97":185520.25,"N_COORD97":2575869.7200000002,"ADDRESS":"義士路一段６３１巷１號","OBJECTID":284165},"geometry":{"x":185520.25000000093,"y":2575869.7200000025}},{"attributes":{"ID":284172,"DIS_CODE":0,"TOWNNAME":"東區","LI":"關聖里","LIN":" ","STREET":"裕農路","SECT":" ","MAREA":" ","LANE":"６６８巷","ALLEY":" ","HOUSE_NO":"４６號之１０","E_COORD97":171745.76000000001,"N_COORD97":2542987.1699999999,"ADDRESS":"裕農路６６８巷４６號之１０","OBJECTID":284166},"geometry":{"x":171745.76000000164,"y":2542987.1700000018}},{"attributes":{"ID":284173,"DIS_CODE":0,"TOWNNAME":"東區","LI":"關聖里","LIN":" ","STREET":"富農街","SECT":"二段","MAREA":" ","LANE":"９２巷","ALLEY":" ","HOUSE_NO":"１３號","E_COORD97":171699.89999999999,"N_COORD97":2543040.0600000001,"ADDRESS":"富農街二段９２巷１３號","OBJECTID":284167},"geometry":{"x":171699.9000000013,"y":2543040.0600000005}},{"attributes":{"ID":284174,"DIS_CODE":0,"TOWNNAME":"柳營區","LI":"篤農里","LIN":"19鄰","STREET":"義士路","SECT":"一段","MAREA":" ","LANE":"８０２巷","ALLEY":" ","HOUSE_NO":"１６號","E_COORD97":185409.10000000001,"N_COORD97":2576011.4199999999,"ADDRESS":"義士路一段８０２巷１６號","OBJECTID":284168},"geometry":{"x":185409.09999999963,"y":2576011.4199999999}},{"attributes":{"ID":284175,"DIS_CODE":0,"TOWNNAME":"柳營區","LI":"篤農里","LIN":"19鄰","STREET":"義士路","SECT":"一段","MAREA":" ","LANE":"８０２巷","ALLEY":" ","HOUSE_NO":"１８號","E_COORD97":185409.95000000001,"N_COORD97":2576018.6099999999,"ADDRESS":"義士路一段８０２巷１８號","OBJECTID":284169},"geometry":{"x":185409.95000000205,"y":2576018.6100000013}},{"attributes":{"ID":284176,"DIS_CODE":0,"TOWNNAME":"柳營區","LI":"篤農里","LIN":"19鄰","STREET":"義士路","SECT":"一段","MAREA":" ","LANE":"８０２巷","ALLEY":" ","HOUSE_NO":"１號","E_COORD97":185374.76999999999,"N_COORD97":2575991.4500000002,"ADDRESS":"義士路一段８０２巷１號","OBJECTID":284170},"geometry":{"x":185374.77000000142,"y":2575991.4499999974}},{"attributes":{"ID":284177,"DIS_CODE":0,"TOWNNAME":"歸仁區","LI":"大廟里","LIN":"19鄰","STREET":"大廟一街","SECT":" ","MAREA":" ","LANE":"２８巷","ALLEY":" ","HOUSE_NO":"７號","E_COORD97":175803.67000000001,"N_COORD97":2544100.25,"ADDRESS":"大廟一街２８巷７號","OBJECTID":284171},"geometry":{"x":175803.67000000086,"y":2544100.25}},{"attributes":{"ID":284178,"DIS_CODE":0,"TOWNNAME":"歸仁區","LI":"大潭里","LIN":"19鄰","STREET":"中正南路","SECT":"三段","MAREA":" ","LANE":"９６巷","ALLEY":" ","HOUSE_NO":"８９號","E_COORD97":175116.01000000001,"N_COORD97":2534962.2799999998,"ADDRESS":"中正南路三段９６巷８９號","OBJECTID":284172},"geometry":{"x":175116.01000000071,"y":2534962.2799999975}},{"attributes":{"ID":284179,"DIS_CODE":0,"TOWNNAME":"永康區","LI":"龍潭里","LIN":"43鄰","STREET":"國民路","SECT":" ","MAREA":" ","LANE":" ","ALLEY":" ","HOUSE_NO":"２２９號","E_COORD97":174530.16,"N_COORD97":2547017.5099999998,"ADDRESS":"國民路２２９號","OBJECTID":284173},"geometry":{"x":174530.16000000015,"y":2547017.5099999979}},{"attributes":{"ID":284180,"DIS_CODE":0,"TOWNNAME":"官田區","LI":"西庄里","LIN":"2鄰","STREET":" ","SECT":" ","MAREA":"西庄","LANE":" ","ALLEY":" ","HOUSE_NO":"１２號","E_COORD97":177869.79999999999,"N_COORD97":2565085.7999999998,"ADDRESS":"西庄１２號","OBJECTID":284174},"geometry":{"x":177869.79999999981,"y":2565085.8000000007}},{"attributes":{"ID":284181,"DIS_CODE":0,"TOWNNAME":"官田區","LI":"東庄里","LIN":"2鄰","STREET":" ","SECT":" ","MAREA":"西庄","LANE":" ","ALLEY":" ","HOUSE_NO":"１１４號之２","E_COORD97":177796.20999999999,"N_COORD97":2565215.52,"ADDRESS":"西庄１１４號之２","OBJECTID":284175},"geometry":{"x":177796.20999999996,"y":2565215.5199999996}},{"attributes":{"ID":284182,"DIS_CODE":0,"TOWNNAME":"關廟區","LI":"香洋里","LIN":"19鄰","STREET":"中央路","SECT":" ","MAREA":" ","LANE":"７９巷","ALLEY":" ","HOUSE_NO":"３號","E_COORD97":181460.60999999999,"N_COORD97":2539953.3199999998,"ADDRESS":"中央路７９巷３號","OBJECTID":284176},"geometry":{"x":181460.61000000034,"y":2539953.3200000003}},{"attributes":{"ID":284183,"DIS_CODE":0,"TOWNNAME":"北區","LI":"華興里","LIN":"19鄰","STREET":"南園街","SECT":" ","MAREA":" ","LANE":"１５３巷","ALLEY":" ","HOUSE_NO":"１０號","E_COORD97":170646.28,"N_COORD97":2545188.5,"ADDRESS":"南園街１５３巷１０號","OBJECTID":284177},"geometry":{"x":170646.28000000119,"y":2545188.5000000019}},{"attributes":{"ID":284184,"DIS_CODE":0,"TOWNNAME":"北區","LI":"開元里","LIN":"19鄰","STREET":"長榮路","SECT":"五段","MAREA":" ","LANE":"７６巷","ALLEY":" ","HOUSE_NO":"６號","E_COORD97":170104.20000000001,"N_COORD97":2545695.8100000001,"ADDRESS":"長榮路五段７６巷６號","OBJECTID":284178},"geometry":{"x":170104.20000000112,"y":2545695.8100000024}},{"attributes":{"ID":284185,"DIS_CODE":0,"TOWNNAME":"北區","LI":"開元里","LIN":"19鄰","STREET":"長榮路","SECT":"五段","MAREA":" ","LANE":"７６巷","ALLEY":" ","HOUSE_NO":"７號","E_COORD97":170111.5,"N_COORD97":2545703.7799999998,"ADDRESS":"長榮路五段７６巷７號","OBJECTID":284179},"geometry":{"x":170111.5,"y":2545703.7800000012}},{"attributes":{"ID":284186,"DIS_CODE":0,"TOWNNAME":"北區","LI":"開元里","LIN":"19鄰","STREET":"長榮路","SECT":"五段","MAREA":" ","LANE":"８２巷","ALLEY":" ","HOUSE_NO":"１號","E_COORD97":170093.5,"N_COORD97":2545733.2599999998,"ADDRESS":"長榮路五段８２巷１號","OBJECTID":284180},"geometry":{"x":170093.50000000093,"y":2545733.2599999998}},{"attributes":{"ID":284187,"DIS_CODE":0,"TOWNNAME":"北區","LI":"開元里","LIN":"19鄰","STREET":"長榮路","SECT":"五段","MAREA":" ","LANE":"８２巷","ALLEY":" ","HOUSE_NO":"２號","E_COORD97":170094.37,"N_COORD97":2545727.5699999998,"ADDRESS":"長榮路五段８２巷２號","OBJECTID":284181},"geometry":{"x":170094.37000000197,"y":2545727.5700000022}},{"attributes":{"ID":284188,"DIS_CODE":0,"TOWNNAME":"北區","LI":"開元里","LIN":"19鄰","STREET":"長榮路","SECT":"五段","MAREA":" ","LANE":"８２巷","ALLEY":" ","HOUSE_NO":"３號","E_COORD97":170098.29000000001,"N_COORD97":2545734.02,"ADDRESS":"長榮路五段８２巷３號","OBJECTID":284182},"geometry":{"x":170098.29000000097,"y":2545734.0200000014}},{"attributes":{"ID":284189,"DIS_CODE":0,"TOWNNAME":"北區","LI":"開元里","LIN":"19鄰","STREET":"長榮路","SECT":"五段","MAREA":" ","LANE":"８２巷","ALLEY":" ","HOUSE_NO":"４號","E_COORD97":170098.62,"N_COORD97":2545728.4399999999,"ADDRESS":"長榮路五段８２巷４號","OBJECTID":284183},"geometry":{"x":170098.62000000011,"y":2545728.4399999995}},{"attributes":{"ID":284190,"DIS_CODE":0,"TOWNNAME":"南區","LI":"金華里","LIN":"19鄰","STREET":"惠南街","SECT":" ","MAREA":" ","LANE":"８４巷","ALLEY":" ","HOUSE_NO":"３３號","E_COORD97":166818.22,"N_COORD97":2542351.6000000001,"ADDRESS":"惠南街８４巷３３號","OBJECTID":284184},"geometry":{"x":166818.2200000016,"y":2542351.6000000034}},{"attributes":{"ID":284191,"DIS_CODE":0,"TOWNNAME":"南區","LI":"金華里","LIN":"19鄰","STREET":"惠南街","SECT":" ","MAREA":" ","LANE":"８４巷","ALLEY":" ","HOUSE_NO":"３５號","E_COORD97":166819.82999999999,"N_COORD97":2542345.8999999999,"ADDRESS":"惠南街８４巷３５號","OBJECTID":284185},"geometry":{"x":166819.83000000101,"y":2542345.9000000004}},{"attributes":{"ID":284192,"DIS_CODE":0,"TOWNNAME":"南區","LI":"金華里","LIN":"19鄰","STREET":"惠南街","SECT":" ","MAREA":" ","LANE":"８４巷","ALLEY":" ","HOUSE_NO":"３７號","E_COORD97":166820.14999999999,"N_COORD97":2542341.0800000001,"ADDRESS":"惠南街８４巷３７號","OBJECTID":284186},"geometry":{"x":166820.15000000037,"y":2542341.0800000001}},{"attributes":{"ID":284193,"DIS_CODE":0,"TOWNNAME":"東區","LI":"成大里","LIN":"31鄰","STREET":"北門路","SECT":"二段","MAREA":" ","LANE":" ","ALLEY":" ","HOUSE_NO":"６號","E_COORD97":169285.10999999999,"N_COORD97":2544257.4900000002,"ADDRESS":"北門路二段６號","OBJECTID":284187},"geometry":{"x":169285.11000000127,"y":2544257.4900000002}},{"attributes":{"ID":284194,"DIS_CODE":0,"TOWNNAME":"仁德區","LI":"仁愛里","LIN":"2鄰","STREET":" ","SECT":" ","MAREA":"仁愛","LANE":" ","ALLEY":" ","HOUSE_NO":"２３號","E_COORD97":170345.06849999999,"N_COORD97":2540157.0104399999,"ADDRESS":"仁愛２３號","OBJECTID":284188},"geometry":{"x":170345.06850000005,"y":2540157.0104399994}},{"attributes":{"ID":284195,"DIS_CODE":0,"TOWNNAME":"仁德區","LI":"中洲里","LIN":"2鄰","STREET":" ","SECT":" ","MAREA":"中洲","LANE":" ","ALLEY":" ","HOUSE_NO":"１２號之４","E_COORD97":173310.39999999999,"N_COORD97":2534316.5499999998,"ADDRESS":"中洲１２號之４","OBJECTID":284189},"geometry":{"x":173310.4000000013,"y":2534316.5500000007}},{"attributes":{"ID":284196,"DIS_CODE":0,"TOWNNAME":"南區","LI":"金華里","LIN":"19鄰","STREET":"惠南街","SECT":" ","MAREA":" ","LANE":"８４巷","ALLEY":" ","HOUSE_NO":"３９號","E_COORD97":166820.14999999999,"N_COORD97":2542334.5,"ADDRESS":"惠南街８４巷３９號","OBJECTID":284190},"geometry":{"x":166820.15000000037,"y":2542334.5}},{"attributes":{"ID":284197,"DIS_CODE":0,"TOWNNAME":"仁德區","LI":"中洲里","LIN":"2鄰","STREET":" ","SECT":" ","MAREA":"中洲","LANE":" ","ALLEY":" ","HOUSE_NO":"１４號","E_COORD97":173310.76999999999,"N_COORD97":2534349.9900000002,"ADDRESS":"中洲１４號","OBJECTID":284191},"geometry":{"x":173310.77000000048,"y":2534349.9900000021}},{"attributes":{"ID":284198,"DIS_CODE":0,"TOWNNAME":"仁德區","LI":"中洲里","LIN":"2鄰","STREET":" ","SECT":" ","MAREA":"中洲","LANE":" ","ALLEY":" ","HOUSE_NO":"１２號之８","E_COORD97":173279.29000000001,"N_COORD97":2534311.0499999998,"ADDRESS":"中洲１２號之８","OBJECTID":284192},"geometry":{"x":173279.29000000004,"y":2534311.0499999989}},{"attributes":{"ID":284199,"DIS_CODE":0,"TOWNNAME":"鹽水區","LI":"岸內里","LIN":"19鄰","STREET":"北門路","SECT":" ","MAREA":" ","LANE":"１巷","ALLEY":" ","HOUSE_NO":"３７號","E_COORD97":175051.29000000001,"N_COORD97":2580444.5699999998,"ADDRESS":"北門路１巷３７號","OBJECTID":284193},"geometry":{"x":175051.29000000004,"y":2580444.5700000022}},{"attributes":{"ID":284200,"DIS_CODE":0,"TOWNNAME":"仁德區","LI":"中洲里","LIN":"2鄰","STREET":" ","SECT":" ","MAREA":"中洲","LANE":" ","ALLEY":" ","HOUSE_NO":"１０號","E_COORD97":173358.89999999999,"N_COORD97":2534356.4900000002,"ADDRESS":"中洲１０號","OBJECTID":284194},"geometry":{"x":173358.90000000037,"y":2534356.4900000021}},{"attributes":{"ID":284201,"DIS_CODE":0,"TOWNNAME":"仁德區","LI":"大甲里","LIN":"2鄰","STREET":"行大一街","SECT":" ","MAREA":" ","LANE":" ","ALLEY":" ","HOUSE_NO":"２４５號","E_COORD97":169764.42000000001,"N_COORD97":2535020,"ADDRESS":"行大一街２４５號","OBJECTID":284195},"geometry":{"x":169764.41999999993,"y":2535020.0000000019}},{"attributes":{"ID":284202,"DIS_CODE":0,"TOWNNAME":"仁德區","LI":"一甲里","LIN":"2鄰","STREET":"中正路","SECT":"三段","MAREA":" ","LANE":" ","ALLEY":" ","HOUSE_NO":"１５７號","E_COORD97":173459.07000000001,"N_COORD97":2541797.27,"ADDRESS":"中正路三段１５７號","OBJECTID":284196},"geometry":{"x":173459.0700000003,"y":2541797.2699999996}},{"attributes":{"ID":284203,"DIS_CODE":0,"TOWNNAME":"鹽水區","LI":"岸內里","LIN":"19鄰","STREET":"北門路","SECT":" ","MAREA":" ","LANE":"１巷","ALLEY":" ","HOUSE_NO":"３８號","E_COORD97":175050.73000000001,"N_COORD97":2580448.7400000002,"ADDRESS":"北門路１巷３８號","OBJECTID":284197},"geometry":{"x":175050.73000000231,"y":2580448.7400000002}},{"attributes":{"ID":284204,"DIS_CODE":0,"TOWNNAME":"鹽水區","LI":"岸內里","LIN":"19鄰","STREET":"北門路","SECT":" ","MAREA":" ","LANE":"１巷","ALLEY":" ","HOUSE_NO":"３９號","E_COORD97":175050.76000000001,"N_COORD97":2580452.5,"ADDRESS":"北門路１巷３９號","OBJECTID":284198},"geometry":{"x":175050.75999999978,"y":2580452.5}},{"attributes":{"ID":284205,"DIS_CODE":0,"TOWNNAME":"鹽水區","LI":"岸內里","LIN":"19鄰","STREET":"北門路","SECT":" ","MAREA":" ","LANE":"１巷","ALLEY":" ","HOUSE_NO":"４１號","E_COORD97":175048.98999999999,"N_COORD97":2580461.1499999999,"ADDRESS":"北門路１巷４１號","OBJECTID":284199},"geometry":{"x":175048.99000000115,"y":2580461.1500000022}},{"attributes":{"ID":284206,"DIS_CODE":0,"TOWNNAME":"鹽水區","LI":"岸內里","LIN":"19鄰","STREET":"北門路","SECT":" ","MAREA":" ","LANE":"１巷","ALLEY":" ","HOUSE_NO":"４２號","E_COORD97":175049.04000000001,"N_COORD97":2580465.6200000001,"ADDRESS":"北門路１巷４２號","OBJECTID":284200},"geometry":{"x":175049.04000000004,"y":2580465.6200000029}}]}