{"displayFieldName":"TOWNNAME","fieldAliases":{"ID":"ID","DIS_CODE":"DIS_CODE","TOWNNAME":"TOWNNAME","LI":"LI","LIN":"LIN","STREET":"STREET","SECT":"SECT","MAREA":"MAREA","LANE":"LANE","ALLEY":"ALLEY","HOUSE_NO":"HOUSE_NO","E_COORD97":"E_COORD97","N_COORD97":"N_COORD97","ADDRESS":"ADDRESS","OBJECTID":"OBJECTID"},"geometryType":"esriGeometryPoint","spatialReference":{"wkid":102443,"latestWkid":3826},"fields":[{"name":"ID","type":"esriFieldTypeDouble","alias":"ID"},{"name":"DIS_CODE","type":"esriFieldTypeInteger","alias":"DIS_CODE"},{"name":"TOWNNAME","type":"esriFieldTypeString","alias":"TOWNNAME","length":8},{"name":"LI","type":"esriFieldTypeString","alias":"LI","length":8},{"name":"LIN","type":"esriFieldTypeString","alias":"LIN","length":12},{"name":"STREET","type":"esriFieldTypeString","alias":"STREET","length":20},{"name":"SECT","type":"esriFieldTypeString","alias":"SECT","length":8},{"name":"MAREA","type":"esriFieldTypeString","alias":"MAREA","length":12},{"name":"LANE","type":"esriFieldTypeString","alias":"LANE","length":10},{"name":"ALLEY","type":"esriFieldTypeString","alias":"ALLEY","length":10},{"name":"HOUSE_NO","type":"esriFieldTypeString","alias":"HOUSE_NO","length":20},{"name":"E_COORD97","type":"esriFieldTypeDouble","alias":"E_COORD97"},{"name":"N_COORD97","type":"esriFieldTypeDouble","alias":"N_COORD97"},{"name":"ADDRESS","type":"esriFieldTypeString","alias":"ADDRESS","length":50},{"name":"OBJECTID","type":"esriFieldTypeOID","alias":"OBJECTID"}],"features":[{"attributes":{"ID":461826,"DIS_CODE":0,"TOWNNAME":"佳里區","LI":"東寧里","LIN":"20鄰","STREET":"信義二街","SECT":" ","MAREA":" ","LANE":" ","ALLEY":" ","HOUSE_NO":"５６號","E_COORD97":166107.06,"N_COORD97":2562626.5899999999,"ADDRESS":"信義二街５６號","OBJECTID":461801},"geometry":{"x":166107.06000000145,"y":2562626.5900000036}},{"attributes":{"ID":461827,"DIS_CODE":0,"TOWNNAME":"佳里區","LI":"東寧里","LIN":"20鄰","STREET":"信義二街","SECT":" ","MAREA":" ","LANE":" ","ALLEY":" ","HOUSE_NO":"６０號","E_COORD97":166104.60000000001,"N_COORD97":2562637.1200000001,"ADDRESS":"信義二街６０號","OBJECTID":461802},"geometry":{"x":166104.59999999963,"y":2562637.120000001}},{"attributes":{"ID":461828,"DIS_CODE":0,"TOWNNAME":"佳里區","LI":"東寧里","LIN":"20鄰","STREET":"信義二街","SECT":" ","MAREA":" ","LANE":" ","ALLEY":" ","HOUSE_NO":"６２號","E_COORD97":166104.07000000001,"N_COORD97":2562640.9199999999,"ADDRESS":"信義二街６２號","OBJECTID":461803},"geometry":{"x":166104.0700000003,"y":2562640.9199999999}},{"attributes":{"ID":461829,"DIS_CODE":0,"TOWNNAME":"安南區","LI":"安順里","LIN":"20鄰","STREET":"培安四街","SECT":" ","MAREA":" ","LANE":" ","ALLEY":" ","HOUSE_NO":"１１號","E_COORD97":169433.17000000001,"N_COORD97":2549884.2200000002,"ADDRESS":"培安四街１１號","OBJECTID":461804},"geometry":{"x":169433.17000000086,"y":2549884.2200000007}},{"attributes":{"ID":461830,"DIS_CODE":0,"TOWNNAME":"安南區","LI":"安順里","LIN":"20鄰","STREET":"培安四街","SECT":" ","MAREA":" ","LANE":" ","ALLEY":" ","HOUSE_NO":"１３號","E_COORD97":169435.95000000001,"N_COORD97":2549880.27,"ADDRESS":"培安四街１３號","OBJECTID":461805},"geometry":{"x":169435.94999999925,"y":2549880.2699999977}},{"attributes":{"ID":461831,"DIS_CODE":0,"TOWNNAME":"安南區","LI":"安順里","LIN":"20鄰","STREET":"培安四街","SECT":" ","MAREA":" ","LANE":" ","ALLEY":" ","HOUSE_NO":"１５號","E_COORD97":169439.44,"N_COORD97":2549877.4900000002,"ADDRESS":"培安四街１５號","OBJECTID":461806},"geometry":{"x":169439.44000000041,"y":2549877.4900000021}},{"attributes":{"ID":461832,"DIS_CODE":0,"TOWNNAME":"安南區","LI":"安順里","LIN":"20鄰","STREET":"培安四街","SECT":" ","MAREA":" ","LANE":" ","ALLEY":" ","HOUSE_NO":"１７號","E_COORD97":169442.45999999999,"N_COORD97":2549873.77,"ADDRESS":"培安四街１７號","OBJECTID":461807},"geometry":{"x":169442.45999999903,"y":2549873.7700000033}},{"attributes":{"ID":461833,"DIS_CODE":0,"TOWNNAME":"佳里區","LI":"鎮山里","LIN":"20鄰","STREET":"鎮山街","SECT":" ","MAREA":" ","LANE":" ","ALLEY":" ","HOUSE_NO":"３１６號","E_COORD97":166220.35999999999,"N_COORD97":2560764.7999999998,"ADDRESS":"鎮山街３１６號","OBJECTID":461808},"geometry":{"x":166220.36000000034,"y":2560764.8000000045}},{"attributes":{"ID":461834,"DIS_CODE":0,"TOWNNAME":"東區","LI":"崇學里","LIN":"20鄰","STREET":"崇德路","SECT":" ","MAREA":" ","LANE":" ","ALLEY":" ","HOUSE_NO":"３０８號","E_COORD97":170334.28,"N_COORD97":2541933.1400000001,"ADDRESS":"崇德路３０８號","OBJECTID":461809},"geometry":{"x":170334.28000000119,"y":2541933.1400000025}},{"attributes":{"ID":461835,"DIS_CODE":0,"TOWNNAME":"東區","LI":"崇學里","LIN":"20鄰","STREET":"崇德路","SECT":" ","MAREA":" ","LANE":" ","ALLEY":" ","HOUSE_NO":"３１０號","E_COORD97":170338.78,"N_COORD97":2541929.96,"ADDRESS":"崇德路３１０號","OBJECTID":461810},"geometry":{"x":170338.78000000026,"y":2541929.959999999}},{"attributes":{"ID":461836,"DIS_CODE":0,"TOWNNAME":"東區","LI":"崇學里","LIN":"20鄰","STREET":"崇德路","SECT":" ","MAREA":" ","LANE":" ","ALLEY":" ","HOUSE_NO":"３１２號","E_COORD97":170343.26999999999,"N_COORD97":2541926.9700000002,"ADDRESS":"崇德路３１２號","OBJECTID":461811},"geometry":{"x":170343.26999999955,"y":2541926.9700000025}},{"attributes":{"ID":461837,"DIS_CODE":0,"TOWNNAME":"東區","LI":"崇學里","LIN":"20鄰","STREET":"崇德路","SECT":" ","MAREA":" ","LANE":" ","ALLEY":" ","HOUSE_NO":"３１４號","E_COORD97":170347.95999999999,"N_COORD97":2541923.6000000001,"ADDRESS":"崇德路３１４號","OBJECTID":461812},"geometry":{"x":170347.96000000089,"y":2541923.5999999996}},{"attributes":{"ID":461838,"DIS_CODE":0,"TOWNNAME":"東區","LI":"崇學里","LIN":"20鄰","STREET":"崇德路","SECT":" ","MAREA":" ","LANE":" ","ALLEY":" ","HOUSE_NO":"３１６號","E_COORD97":170352.82999999999,"N_COORD97":2541920.23,"ADDRESS":"崇德路３１６號","OBJECTID":461813},"geometry":{"x":170352.83000000101,"y":2541920.2300000004}},{"attributes":{"ID":461839,"DIS_CODE":0,"TOWNNAME":"東區","LI":"崇學里","LIN":"20鄰","STREET":"崇德路","SECT":" ","MAREA":" ","LANE":" ","ALLEY":" ","HOUSE_NO":"３１８號","E_COORD97":170356.95000000001,"N_COORD97":2541917.98,"ADDRESS":"崇德路３１８號","OBJECTID":461814},"geometry":{"x":170356.95000000112,"y":2541917.9800000004}},{"attributes":{"ID":461840,"DIS_CODE":0,"TOWNNAME":"東區","LI":"崇學里","LIN":"20鄰","STREET":"崇德路","SECT":" ","MAREA":" ","LANE":" ","ALLEY":" ","HOUSE_NO":"３２０號","E_COORD97":170360.51000000001,"N_COORD97":2541914.9900000002,"ADDRESS":"崇德路３２０號","OBJECTID":461815},"geometry":{"x":170360.50999999978,"y":2541914.9900000002}},{"attributes":{"ID":461841,"DIS_CODE":0,"TOWNNAME":"東區","LI":"崇學里","LIN":"20鄰","STREET":"崇德路","SECT":" ","MAREA":" ","LANE":" ","ALLEY":" ","HOUSE_NO":"３２２號","E_COORD97":170363.88,"N_COORD97":2541911.9900000002,"ADDRESS":"崇德路３２２號","OBJECTID":461816},"geometry":{"x":170363.88000000082,"y":2541911.9900000002}},{"attributes":{"ID":461842,"DIS_CODE":0,"TOWNNAME":"佳里區","LI":"鎮山里","LIN":"20鄰","STREET":"鎮山街","SECT":" ","MAREA":" ","LANE":" ","ALLEY":" ","HOUSE_NO":"３１８號","E_COORD97":166212.17999999999,"N_COORD97":2560764.29,"ADDRESS":"鎮山街３１８號","OBJECTID":461817},"geometry":{"x":166212.18000000063,"y":2560764.290000001}},{"attributes":{"ID":461843,"DIS_CODE":0,"TOWNNAME":"安南區","LI":"溪墘里","LIN":"20鄰","STREET":"海佃路","SECT":"一段","MAREA":" ","LANE":" ","ALLEY":" ","HOUSE_NO":"４０２號","E_COORD97":167073.42999999999,"N_COORD97":2547669.8199999998,"ADDRESS":"海佃路一段４０２號","OBJECTID":461818},"geometry":{"x":167073.43000000063,"y":2547669.8200000003}},{"attributes":{"ID":461844,"DIS_CODE":0,"TOWNNAME":"安南區","LI":"溪墘里","LIN":"20鄰","STREET":"海佃路","SECT":"一段","MAREA":" ","LANE":" ","ALLEY":" ","HOUSE_NO":"４０６號","E_COORD97":167069.01000000001,"N_COORD97":2547676.8300000001,"ADDRESS":"海佃路一段４０６號","OBJECTID":461819},"geometry":{"x":167069.01000000071,"y":2547676.8300000038}},{"attributes":{"ID":461845,"DIS_CODE":0,"TOWNNAME":"安南區","LI":"溪墘里","LIN":"20鄰","STREET":"海佃路","SECT":"一段","MAREA":" ","LANE":" ","ALLEY":" ","HOUSE_NO":"４１４號","E_COORD97":167067.01999999999,"N_COORD97":2547681.96,"ADDRESS":"海佃路一段４１４號","OBJECTID":461820},"geometry":{"x":167067.02000000048,"y":2547681.9600000028}},{"attributes":{"ID":461846,"DIS_CODE":0,"TOWNNAME":"安南區","LI":"溪墘里","LIN":"20鄰","STREET":"海佃路","SECT":"一段","MAREA":" ","LANE":" ","ALLEY":" ","HOUSE_NO":"４１６號","E_COORD97":167064.94,"N_COORD97":2547690.4900000002,"ADDRESS":"海佃路一段４１６號","OBJECTID":461821},"geometry":{"x":167064.94000000227,"y":2547690.4900000021}},{"attributes":{"ID":461847,"DIS_CODE":0,"TOWNNAME":"安南區","LI":"溪墘里","LIN":"20鄰","STREET":"海佃路","SECT":"一段","MAREA":" ","LANE":" ","ALLEY":" ","HOUSE_NO":"４１８號","E_COORD97":167062.95999999999,"N_COORD97":2547697.6099999999,"ADDRESS":"海佃路一段４１８號","OBJECTID":461822},"geometry":{"x":167062.96000000089,"y":2547697.6099999994}},{"attributes":{"ID":461848,"DIS_CODE":0,"TOWNNAME":"下營區","LI":"新興里","LIN":"20鄰","STREET":"慈惠街","SECT":" ","MAREA":" ","LANE":" ","ALLEY":" ","HOUSE_NO":"１０７號","E_COORD97":174910.37,"N_COORD97":2570599.8700000001,"ADDRESS":"慈惠街１０７號","OBJECTID":461823},"geometry":{"x":174910.37000000197,"y":2570599.8699999992}},{"attributes":{"ID":461849,"DIS_CODE":0,"TOWNNAME":"下營區","LI":"新興里","LIN":"20鄰","STREET":"慈惠街","SECT":" ","MAREA":" ","LANE":" ","ALLEY":" ","HOUSE_NO":"１０９號","E_COORD97":174905.57000000001,"N_COORD97":2570600.23,"ADDRESS":"慈惠街１０９號","OBJECTID":461824},"geometry":{"x":174905.5700000003,"y":2570600.2300000042}},{"attributes":{"ID":461850,"DIS_CODE":0,"TOWNNAME":"下營區","LI":"新興里","LIN":"20鄰","STREET":"慈惠街","SECT":" ","MAREA":" ","LANE":" ","ALLEY":" ","HOUSE_NO":"１１１號","E_COORD97":174901.73000000001,"N_COORD97":2570600.4500000002,"ADDRESS":"慈惠街１１１號","OBJECTID":461825},"geometry":{"x":174901.73000000138,"y":2570600.4499999993}},{"attributes":{"ID":461851,"DIS_CODE":0,"TOWNNAME":"下營區","LI":"新興里","LIN":"20鄰","STREET":"慈惠街","SECT":" ","MAREA":" ","LANE":" ","ALLEY":" ","HOUSE_NO":"１１３號","E_COORD97":174896.78,"N_COORD97":2570600.9100000001,"ADDRESS":"慈惠街１１３號","OBJECTID":461826},"geometry":{"x":174896.78000000026,"y":2570600.9100000001}},{"attributes":{"ID":461852,"DIS_CODE":0,"TOWNNAME":"下營區","LI":"新興里","LIN":"20鄰","STREET":"慈惠街","SECT":" ","MAREA":" ","LANE":" ","ALLEY":" ","HOUSE_NO":"１１７號","E_COORD97":174889.17000000001,"N_COORD97":2570601.5299999998,"ADDRESS":"慈惠街１１７號","OBJECTID":461827},"geometry":{"x":174889.16999999993,"y":2570601.5300000012}},{"attributes":{"ID":461853,"DIS_CODE":0,"TOWNNAME":"下營區","LI":"新興里","LIN":"20鄰","STREET":"慈惠街","SECT":" ","MAREA":" ","LANE":" ","ALLEY":" ","HOUSE_NO":"１１９號","E_COORD97":174884.95000000001,"N_COORD97":2570601.5299999998,"ADDRESS":"慈惠街１１９號","OBJECTID":461828},"geometry":{"x":174884.95000000112,"y":2570601.5300000012}},{"attributes":{"ID":461854,"DIS_CODE":0,"TOWNNAME":"下營區","LI":"新興里","LIN":"20鄰","STREET":"慈惠街","SECT":" ","MAREA":" ","LANE":" ","ALLEY":" ","HOUSE_NO":"１２３號","E_COORD97":174876.76999999999,"N_COORD97":2570601.5,"ADDRESS":"慈惠街１２３號","OBJECTID":461829},"geometry":{"x":174876.77000000048,"y":2570601.5000000037}},{"attributes":{"ID":461855,"DIS_CODE":0,"TOWNNAME":"下營區","LI":"新興里","LIN":"20鄰","STREET":"慈惠街","SECT":" ","MAREA":" ","LANE":" ","ALLEY":" ","HOUSE_NO":"１２５號","E_COORD97":174866.54999999999,"N_COORD97":2570602,"ADDRESS":"慈惠街１２５號","OBJECTID":461830},"geometry":{"x":174866.55000000075,"y":2570602.0000000019}},{"attributes":{"ID":461856,"DIS_CODE":0,"TOWNNAME":"下營區","LI":"新興里","LIN":"20鄰","STREET":"慈惠街","SECT":" ","MAREA":" ","LANE":" ","ALLEY":" ","HOUSE_NO":"１２８號","E_COORD97":174903.66,"N_COORD97":2570637.2799999998,"ADDRESS":"慈惠街１２８號","OBJECTID":461831},"geometry":{"x":174903.66000000108,"y":2570637.2800000012}},{"attributes":{"ID":461857,"DIS_CODE":0,"TOWNNAME":"下營區","LI":"新興里","LIN":"20鄰","STREET":"慈惠街","SECT":" ","MAREA":" ","LANE":" ","ALLEY":" ","HOUSE_NO":"１２９號","E_COORD97":174839.57999999999,"N_COORD97":2570601.1499999999,"ADDRESS":"慈惠街１２９號","OBJECTID":461832},"geometry":{"x":174839.58000000101,"y":2570601.1500000022}},{"attributes":{"ID":461858,"DIS_CODE":0,"TOWNNAME":"下營區","LI":"新興里","LIN":"20鄰","STREET":"慈惠街","SECT":" ","MAREA":" ","LANE":" ","ALLEY":" ","HOUSE_NO":"１３１號","E_COORD97":174823.32000000001,"N_COORD97":2570608.5,"ADDRESS":"慈惠街１３１號","OBJECTID":461833},"geometry":{"x":174823.32000000123,"y":2570608.5000000019}},{"attributes":{"ID":461859,"DIS_CODE":0,"TOWNNAME":"下營區","LI":"新興里","LIN":"20鄰","STREET":"慈惠街","SECT":" ","MAREA":" ","LANE":" ","ALLEY":" ","HOUSE_NO":"１３８號","E_COORD97":174891,"N_COORD97":2570618.7200000002,"ADDRESS":"慈惠街１３８號","OBJECTID":461834},"geometry":{"x":174891.00000000093,"y":2570618.7200000025}},{"attributes":{"ID":461860,"DIS_CODE":0,"TOWNNAME":"新營區","LI":"新東里","LIN":"20鄰","STREET":"東學路","SECT":" ","MAREA":" ","LANE":" ","ALLEY":" ","HOUSE_NO":"４１號","E_COORD97":180865.92999999999,"N_COORD97":2579375.98,"ADDRESS":"東學路４１號","OBJECTID":461835},"geometry":{"x":180865.9299999997,"y":2579375.9800000004}},{"attributes":{"ID":461861,"DIS_CODE":0,"TOWNNAME":"安平區","LI":"西門里","LIN":"20鄰","STREET":"大平路","SECT":" ","MAREA":" ","LANE":" ","ALLEY":" ","HOUSE_NO":"１３號","E_COORD97":163183.73999999999,"N_COORD97":2544476.3300000001,"ADDRESS":"大平路１３號","OBJECTID":461836},"geometry":{"x":163183.74000000022,"y":2544476.3300000038}},{"attributes":{"ID":461862,"DIS_CODE":0,"TOWNNAME":"安平區","LI":"西門里","LIN":"20鄰","STREET":"大平路","SECT":" ","MAREA":" ","LANE":" ","ALLEY":" ","HOUSE_NO":"１５號","E_COORD97":163184.88,"N_COORD97":2544472.8199999998,"ADDRESS":"大平路１５號","OBJECTID":461837},"geometry":{"x":163184.88000000082,"y":2544472.8200000003}},{"attributes":{"ID":461863,"DIS_CODE":0,"TOWNNAME":"安平區","LI":"西門里","LIN":"20鄰","STREET":"大平路","SECT":" ","MAREA":" ","LANE":" ","ALLEY":" ","HOUSE_NO":"１７號","E_COORD97":163186.12,"N_COORD97":2544467.96,"ADDRESS":"大平路１７號","OBJECTID":461838},"geometry":{"x":163186.12000000011,"y":2544467.9600000009}},{"attributes":{"ID":461864,"DIS_CODE":0,"TOWNNAME":"安平區","LI":"西門里","LIN":"20鄰","STREET":"大平路","SECT":" ","MAREA":" ","LANE":" ","ALLEY":" ","HOUSE_NO":"３號","E_COORD97":163179.19,"N_COORD97":2544497.5299999998,"ADDRESS":"大平路３號","OBJECTID":461839},"geometry":{"x":163179.19000000041,"y":2544497.5299999993}},{"attributes":{"ID":461865,"DIS_CODE":0,"TOWNNAME":"安平區","LI":"西門里","LIN":"20鄰","STREET":"大平路","SECT":" ","MAREA":" ","LANE":" ","ALLEY":" ","HOUSE_NO":"５號","E_COORD97":163180.22,"N_COORD97":2544494.2200000002,"ADDRESS":"大平路５號","OBJECTID":461840},"geometry":{"x":163180.2200000016,"y":2544494.2200000007}},{"attributes":{"ID":461866,"DIS_CODE":0,"TOWNNAME":"安平區","LI":"西門里","LIN":"20鄰","STREET":"大平路","SECT":" ","MAREA":" ","LANE":" ","ALLEY":" ","HOUSE_NO":"７號","E_COORD97":163180.95000000001,"N_COORD97":2544489.3599999999,"ADDRESS":"大平路７號","OBJECTID":461841},"geometry":{"x":163180.95000000205,"y":2544489.3600000013}},{"attributes":{"ID":461867,"DIS_CODE":0,"TOWNNAME":"安平區","LI":"西門里","LIN":"20鄰","STREET":"安北路","SECT":" ","MAREA":" ","LANE":" ","ALLEY":" ","HOUSE_NO":"４０５號","E_COORD97":163266.01000000001,"N_COORD97":2544550,"ADDRESS":"安北路４０５號","OBJECTID":461842},"geometry":{"x":163266.00999999978,"y":2544550.0000000037}},{"attributes":{"ID":461868,"DIS_CODE":0,"TOWNNAME":"安平區","LI":"西門里","LIN":"20鄰","STREET":"安北路","SECT":" ","MAREA":" ","LANE":" ","ALLEY":" ","HOUSE_NO":"４０７號","E_COORD97":163261.26000000001,"N_COORD97":2544547.6299999999,"ADDRESS":"安北路４０７號","OBJECTID":461843},"geometry":{"x":163261.25999999885,"y":2544547.6299999971}},{"attributes":{"ID":461869,"DIS_CODE":0,"TOWNNAME":"安平區","LI":"西門里","LIN":"20鄰","STREET":"安北路","SECT":" ","MAREA":" ","LANE":" ","ALLEY":" ","HOUSE_NO":"４０９號","E_COORD97":163256.94,"N_COORD97":2544546.5499999998,"ADDRESS":"安北路４０９號","OBJECTID":461844},"geometry":{"x":163256.94000000041,"y":2544546.5499999989}},{"attributes":{"ID":461870,"DIS_CODE":0,"TOWNNAME":"安平區","LI":"西門里","LIN":"20鄰","STREET":"安北路","SECT":" ","MAREA":" ","LANE":" ","ALLEY":" ","HOUSE_NO":"４１１號","E_COORD97":163253.26999999999,"N_COORD97":2544544.8199999998,"ADDRESS":"安北路４１１號","OBJECTID":461845},"geometry":{"x":163253.27000000048,"y":2544544.8200000022}},{"attributes":{"ID":461871,"DIS_CODE":0,"TOWNNAME":"安平區","LI":"西門里","LIN":"20鄰","STREET":"安北路","SECT":" ","MAREA":" ","LANE":" ","ALLEY":" ","HOUSE_NO":"４１３號","E_COORD97":163249.60000000001,"N_COORD97":2544543.5299999998,"ADDRESS":"安北路４１３號","OBJECTID":461846},"geometry":{"x":163249.59999999963,"y":2544543.5300000012}},{"attributes":{"ID":461872,"DIS_CODE":0,"TOWNNAME":"安平區","LI":"西門里","LIN":"20鄰","STREET":"安北路","SECT":" ","MAREA":" ","LANE":" ","ALLEY":" ","HOUSE_NO":"４１５號","E_COORD97":163245.70999999999,"N_COORD97":2544541.5899999999,"ADDRESS":"安北路４１５號","OBJECTID":461847},"geometry":{"x":163245.71000000089,"y":2544541.5899999999}},{"attributes":{"ID":461873,"DIS_CODE":0,"TOWNNAME":"安平區","LI":"西門里","LIN":"20鄰","STREET":"安北路","SECT":" ","MAREA":" ","LANE":" ","ALLEY":" ","HOUSE_NO":"４１７號","E_COORD97":163241.82999999999,"N_COORD97":2544539.6499999999,"ADDRESS":"安北路４１７號","OBJECTID":461848},"geometry":{"x":163241.83000000007,"y":2544539.6500000022}},{"attributes":{"ID":461874,"DIS_CODE":0,"TOWNNAME":"安平區","LI":"西門里","LIN":"20鄰","STREET":"安北路","SECT":" ","MAREA":" ","LANE":" ","ALLEY":" ","HOUSE_NO":"４１９號","E_COORD97":163237.29000000001,"N_COORD97":2544538.1400000001,"ADDRESS":"安北路４１９號","OBJECTID":461849},"geometry":{"x":163237.29000000004,"y":2544538.1400000006}},{"attributes":{"ID":461875,"DIS_CODE":0,"TOWNNAME":"安平區","LI":"西門里","LIN":"20鄰","STREET":"安北路","SECT":" ","MAREA":" ","LANE":" ","ALLEY":" ","HOUSE_NO":"４２１號","E_COORD97":163233.41,"N_COORD97":2544536.2000000002,"ADDRESS":"安北路４２１號","OBJECTID":461850},"geometry":{"x":163233.41000000015,"y":2544536.1999999993}},{"attributes":{"ID":461876,"DIS_CODE":0,"TOWNNAME":"安平區","LI":"西門里","LIN":"20鄰","STREET":"安北路","SECT":" ","MAREA":" ","LANE":" ","ALLEY":" ","HOUSE_NO":"４４３號","E_COORD97":163189.85000000001,"N_COORD97":2544515.5600000001,"ADDRESS":"安北路４４３號","OBJECTID":461851},"geometry":{"x":163189.85000000056,"y":2544515.5600000005}},{"attributes":{"ID":461877,"DIS_CODE":0,"TOWNNAME":"安平區","LI":"西門里","LIN":"20鄰","STREET":"安北路","SECT":" ","MAREA":" ","LANE":" ","ALLEY":" ","HOUSE_NO":"４４５號","E_COORD97":163178.67000000001,"N_COORD97":2544508.7400000002,"ADDRESS":"安北路４４５號","OBJECTID":461852},"geometry":{"x":163178.66999999993,"y":2544508.7400000021}},{"attributes":{"ID":461878,"DIS_CODE":0,"TOWNNAME":"新營區","LI":"新南里","LIN":"20鄰","STREET":"復興路","SECT":" ","MAREA":" ","LANE":" ","ALLEY":" ","HOUSE_NO":"３９６號","E_COORD97":178481.48000000001,"N_COORD97":2578204.5499999998,"ADDRESS":"復興路３９６號","OBJECTID":461853},"geometry":{"x":178481.48000000045,"y":2578204.5500000026}},{"attributes":{"ID":461879,"DIS_CODE":0,"TOWNNAME":"新營區","LI":"新南里","LIN":"20鄰","STREET":"民治路","SECT":" ","MAREA":" ","LANE":" ","ALLEY":" ","HOUSE_NO":"３９８號之５","E_COORD97":178612.95000000001,"N_COORD97":2578265.9900000002,"ADDRESS":"民治路３９８號之５","OBJECTID":461854},"geometry":{"x":178612.95000000112,"y":2578265.9900000002}},{"attributes":{"ID":461880,"DIS_CODE":0,"TOWNNAME":"六甲區","LI":"六甲里","LIN":"20鄰","STREET":"仁愛街","SECT":" ","MAREA":" ","LANE":" ","ALLEY":" ","HOUSE_NO":"１０７號","E_COORD97":183864.82000000001,"N_COORD97":2570142.7400000002,"ADDRESS":"仁愛街１０７號","OBJECTID":461855},"geometry":{"x":183864.82000000216,"y":2570142.7400000021}},{"attributes":{"ID":461881,"DIS_CODE":0,"TOWNNAME":"六甲區","LI":"六甲里","LIN":"20鄰","STREET":"仁愛街","SECT":" ","MAREA":" ","LANE":" ","ALLEY":" ","HOUSE_NO":"１０９號","E_COORD97":183864.98999999999,"N_COORD97":2570146.9199999999,"ADDRESS":"仁愛街１０９號","OBJECTID":461856},"geometry":{"x":183864.99000000022,"y":2570146.9199999999}},{"attributes":{"ID":461882,"DIS_CODE":0,"TOWNNAME":"六甲區","LI":"六甲里","LIN":"20鄰","STREET":"仁愛街","SECT":" ","MAREA":" ","LANE":" ","ALLEY":" ","HOUSE_NO":"１１１號","E_COORD97":183862.73000000001,"N_COORD97":2570150.96,"ADDRESS":"仁愛街１１１號","OBJECTID":461857},"geometry":{"x":183862.73000000138,"y":2570150.9600000009}},{"attributes":{"ID":461883,"DIS_CODE":0,"TOWNNAME":"六甲區","LI":"六甲里","LIN":"20鄰","STREET":"仁愛街","SECT":" ","MAREA":" ","LANE":" ","ALLEY":" ","HOUSE_NO":"１１３號","E_COORD97":183863.10000000001,"N_COORD97":2570154.52,"ADDRESS":"仁愛街１１３號","OBJECTID":461858},"geometry":{"x":183863.09999999963,"y":2570154.5200000014}},{"attributes":{"ID":461884,"DIS_CODE":0,"TOWNNAME":"六甲區","LI":"六甲里","LIN":"20鄰","STREET":"仁愛街","SECT":" ","MAREA":" ","LANE":" ","ALLEY":" ","HOUSE_NO":"１１５號","E_COORD97":183863.01000000001,"N_COORD97":2570158.5299999998,"ADDRESS":"仁愛街１１５號","OBJECTID":461859},"geometry":{"x":183863.01000000164,"y":2570158.5299999993}},{"attributes":{"ID":461885,"DIS_CODE":0,"TOWNNAME":"六甲區","LI":"六甲里","LIN":"20鄰","STREET":"仁愛街","SECT":" ","MAREA":" ","LANE":" ","ALLEY":" ","HOUSE_NO":"１１７號","E_COORD97":183863.51000000001,"N_COORD97":2570163.3599999999,"ADDRESS":"仁愛街１１７號","OBJECTID":461860},"geometry":{"x":183863.51000000071,"y":2570163.3599999994}},{"attributes":{"ID":461886,"DIS_CODE":0,"TOWNNAME":"六甲區","LI":"六甲里","LIN":"20鄰","STREET":"仁愛街","SECT":" ","MAREA":" ","LANE":" ","ALLEY":" ","HOUSE_NO":"１１９號","E_COORD97":183863.85999999999,"N_COORD97":2570168.5499999998,"ADDRESS":"仁愛街１１９號","OBJECTID":461861},"geometry":{"x":183863.86000000034,"y":2570168.5500000026}},{"attributes":{"ID":461887,"DIS_CODE":0,"TOWNNAME":"六甲區","LI":"甲南里","LIN":"20鄰","STREET":"仁愛街","SECT":" ","MAREA":" ","LANE":" ","ALLEY":" ","HOUSE_NO":"１１號","E_COORD97":183872.67000000001,"N_COORD97":2569890.3199999998,"ADDRESS":"仁愛街１１號","OBJECTID":461862},"geometry":{"x":183872.67000000086,"y":2569890.3200000003}},{"attributes":{"ID":461888,"DIS_CODE":0,"TOWNNAME":"六甲區","LI":"六甲里","LIN":"20鄰","STREET":"仁愛街","SECT":" ","MAREA":" ","LANE":" ","ALLEY":" ","HOUSE_NO":"１２１號","E_COORD97":183864.60999999999,"N_COORD97":2570173.1699999999,"ADDRESS":"仁愛街１２１號","OBJECTID":461863},"geometry":{"x":183864.6100000022,"y":2570173.1700000037}},{"attributes":{"ID":461889,"DIS_CODE":0,"TOWNNAME":"六甲區","LI":"六甲里","LIN":"20鄰","STREET":"仁愛街","SECT":" ","MAREA":" ","LANE":" ","ALLEY":" ","HOUSE_NO":"１２３之１號","E_COORD97":183865.67000000001,"N_COORD97":2570181.0699999998,"ADDRESS":"仁愛街１２３之１號","OBJECTID":461864},"geometry":{"x":183865.67000000086,"y":2570181.070000004}},{"attributes":{"ID":461890,"DIS_CODE":0,"TOWNNAME":"六甲區","LI":"六甲里","LIN":"20鄰","STREET":"仁愛街","SECT":" ","MAREA":" ","LANE":" ","ALLEY":" ","HOUSE_NO":"１２３號","E_COORD97":183864.89000000001,"N_COORD97":2570177.5299999998,"ADDRESS":"仁愛街１２３號","OBJECTID":461865},"geometry":{"x":183864.88999999966,"y":2570177.5300000012}},{"attributes":{"ID":461891,"DIS_CODE":0,"TOWNNAME":"六甲區","LI":"六甲里","LIN":"20鄰","STREET":"仁愛街","SECT":" ","MAREA":" ","LANE":" ","ALLEY":" ","HOUSE_NO":"１２９號","E_COORD97":183868.67999999999,"N_COORD97":2570191.1400000001,"ADDRESS":"仁愛街１２９號","OBJECTID":461866},"geometry":{"x":183868.68000000063,"y":2570191.1400000043}},{"attributes":{"ID":461892,"DIS_CODE":0,"TOWNNAME":"六甲區","LI":"甲南里","LIN":"20鄰","STREET":"仁愛街","SECT":" ","MAREA":" ","LANE":" ","ALLEY":" ","HOUSE_NO":"１２號","E_COORD97":183896.35999999999,"N_COORD97":2569878.27,"ADDRESS":"仁愛街１２號","OBJECTID":461867},"geometry":{"x":183896.36000000034,"y":2569878.2700000014}},{"attributes":{"ID":461893,"DIS_CODE":0,"TOWNNAME":"六甲區","LI":"六甲里","LIN":"20鄰","STREET":"仁愛街","SECT":" ","MAREA":" ","LANE":" ","ALLEY":" ","HOUSE_NO":"１３１號","E_COORD97":183869.45000000001,"N_COORD97":2570201.1499999999,"ADDRESS":"仁愛街１３１號","OBJECTID":461868},"geometry":{"x":183869.45000000112,"y":2570201.1500000022}},{"attributes":{"ID":461894,"DIS_CODE":0,"TOWNNAME":"六甲區","LI":"六甲里","LIN":"20鄰","STREET":"仁愛街","SECT":" ","MAREA":" ","LANE":" ","ALLEY":" ","HOUSE_NO":"１３３號","E_COORD97":183870.04999999999,"N_COORD97":2570206.0899999999,"ADDRESS":"仁愛街１３３號","OBJECTID":461869},"geometry":{"x":183870.05000000075,"y":2570206.0899999999}},{"attributes":{"ID":461895,"DIS_CODE":0,"TOWNNAME":"六甲區","LI":"甲南里","LIN":"20鄰","STREET":"仁愛街","SECT":" ","MAREA":" ","LANE":" ","ALLEY":" ","HOUSE_NO":"２４號","E_COORD97":183886.45000000001,"N_COORD97":2569910.73,"ADDRESS":"仁愛街２４號","OBJECTID":461870},"geometry":{"x":183886.45000000112,"y":2569910.7300000004}},{"attributes":{"ID":461896,"DIS_CODE":0,"TOWNNAME":"新營區","LI":"大宏里","LIN":"20鄰","STREET":"三民路","SECT":" ","MAREA":" ","LANE":" ","ALLEY":" ","HOUSE_NO":"３７之５號","E_COORD97":180425.42999999999,"N_COORD97":2578476.6400000001,"ADDRESS":"三民路３７之５號","OBJECTID":461871},"geometry":{"x":180425.4299999997,"y":2578476.6400000006}},{"attributes":{"ID":461897,"DIS_CODE":0,"TOWNNAME":"柳營區","LI":"太康里","LIN":"20鄰","STREET":"中山東路","SECT":"二段","MAREA":" ","LANE":" ","ALLEY":" ","HOUSE_NO":"２２０之１號","E_COORD97":182762.01000000001,"N_COORD97":2575218.29,"ADDRESS":"中山東路二段２２０之１號","OBJECTID":461872},"geometry":{"x":182762.00999999978,"y":2575218.2899999991}},{"attributes":{"ID":461898,"DIS_CODE":0,"TOWNNAME":"柳營區","LI":"太康里","LIN":"20鄰","STREET":"中山東路","SECT":"二段","MAREA":" ","LANE":" ","ALLEY":" ","HOUSE_NO":"３１６號","E_COORD97":182643.35999999999,"N_COORD97":2575252.5299999998,"ADDRESS":"中山東路二段３１６號","OBJECTID":461873},"geometry":{"x":182643.36000000034,"y":2575252.5300000012}},{"attributes":{"ID":461899,"DIS_CODE":0,"TOWNNAME":"柳營區","LI":"太康里","LIN":"20鄰","STREET":"中山東路","SECT":"二段","MAREA":" ","LANE":" ","ALLEY":" ","HOUSE_NO":"３２２號","E_COORD97":182652.73000000001,"N_COORD97":2575259.0600000001,"ADDRESS":"中山東路二段３２２號","OBJECTID":461874},"geometry":{"x":182652.73000000045,"y":2575259.0600000005}},{"attributes":{"ID":461900,"DIS_CODE":0,"TOWNNAME":"柳營區","LI":"太康里","LIN":"20鄰","STREET":"中山東路","SECT":"二段","MAREA":" ","LANE":" ","ALLEY":" ","HOUSE_NO":"３２６號","E_COORD97":182634.75,"N_COORD97":2575272.8500000001,"ADDRESS":"中山東路二段３２６號","OBJECTID":461875},"geometry":{"x":182634.75000000093,"y":2575272.8499999996}},{"attributes":{"ID":461901,"DIS_CODE":0,"TOWNNAME":"柳營區","LI":"太康里","LIN":"20鄰","STREET":"中山東路","SECT":"二段","MAREA":" ","LANE":" ","ALLEY":" ","HOUSE_NO":"３８０號","E_COORD97":182612.60000000001,"N_COORD97":2575288.5600000001,"ADDRESS":"中山東路二段３８０號","OBJECTID":461876},"geometry":{"x":182612.59999999963,"y":2575288.5600000024}},{"attributes":{"ID":461902,"DIS_CODE":0,"TOWNNAME":"柳營區","LI":"太康里","LIN":"20鄰","STREET":"中山東路","SECT":"二段","MAREA":" ","LANE":" ","ALLEY":" ","HOUSE_NO":"３８８號","E_COORD97":182600.97,"N_COORD97":2575288.5600000001,"ADDRESS":"中山東路二段３８８號","OBJECTID":461877},"geometry":{"x":182600.97000000067,"y":2575288.5600000024}},{"attributes":{"ID":461903,"DIS_CODE":0,"TOWNNAME":"柳營區","LI":"太康里","LIN":"20鄰","STREET":"中山東路","SECT":"二段","MAREA":" ","LANE":" ","ALLEY":" ","HOUSE_NO":"３９６號","E_COORD97":182594.26999999999,"N_COORD97":2575304.1299999999,"ADDRESS":"中山東路二段３９６號","OBJECTID":461878},"geometry":{"x":182594.26999999955,"y":2575304.129999999}},{"attributes":{"ID":461904,"DIS_CODE":0,"TOWNNAME":"柳營區","LI":"太康里","LIN":"20鄰","STREET":"中山東路","SECT":"二段","MAREA":" ","LANE":" ","ALLEY":" ","HOUSE_NO":"４０２號","E_COORD97":182576.56,"N_COORD97":2575307.7999999998,"ADDRESS":"中山東路二段４０２號","OBJECTID":461879},"geometry":{"x":182576.56000000052,"y":2575307.8000000007}},{"attributes":{"ID":461905,"DIS_CODE":0,"TOWNNAME":"柳營區","LI":"太康里","LIN":"20鄰","STREET":"中山東路","SECT":"二段","MAREA":" ","LANE":" ","ALLEY":" ","HOUSE_NO":"４１２號","E_COORD97":182561.37,"N_COORD97":2575309.2599999998,"ADDRESS":"中山東路二段４１２號","OBJECTID":461880},"geometry":{"x":182561.37000000104,"y":2575309.2600000016}},{"attributes":{"ID":461906,"DIS_CODE":0,"TOWNNAME":"柳營區","LI":"太康里","LIN":"20鄰","STREET":"中山東路","SECT":"二段","MAREA":" ","LANE":" ","ALLEY":" ","HOUSE_NO":"４１８號","E_COORD97":182547.07000000001,"N_COORD97":2575294.6099999999,"ADDRESS":"中山東路二段４１８號","OBJECTID":461881},"geometry":{"x":182547.0700000003,"y":2575294.6099999994}},{"attributes":{"ID":461907,"DIS_CODE":0,"TOWNNAME":"柳營區","LI":"太康里","LIN":"20鄰","STREET":"中山東路","SECT":"二段","MAREA":" ","LANE":" ","ALLEY":" ","HOUSE_NO":"４２０號","E_COORD97":182542.56,"N_COORD97":2575301.1600000001,"ADDRESS":"中山東路二段４２０號","OBJECTID":461882},"geometry":{"x":182542.56000000052,"y":2575301.160000002}},{"attributes":{"ID":461908,"DIS_CODE":0,"TOWNNAME":"柳營區","LI":"太康里","LIN":"20鄰","STREET":"中山東路","SECT":"二段","MAREA":" ","LANE":" ","ALLEY":" ","HOUSE_NO":"４２２號","E_COORD97":182537.98000000001,"N_COORD97":2575302.8300000001,"ADDRESS":"中山東路二段４２２號","OBJECTID":461883},"geometry":{"x":182537.98000000045,"y":2575302.8300000019}},{"attributes":{"ID":461909,"DIS_CODE":0,"TOWNNAME":"柳營區","LI":"太康里","LIN":"20鄰","STREET":"中山東路","SECT":"二段","MAREA":" ","LANE":" ","ALLEY":" ","HOUSE_NO":"４２６號","E_COORD97":182532.03,"N_COORD97":2575304.6800000002,"ADDRESS":"中山東路二段４２６號","OBJECTID":461884},"geometry":{"x":182532.03000000026,"y":2575304.6799999997}},{"attributes":{"ID":461910,"DIS_CODE":0,"TOWNNAME":"柳營區","LI":"太康里","LIN":"20鄰","STREET":"中山東路","SECT":"二段","MAREA":" ","LANE":" ","ALLEY":" ","HOUSE_NO":"４３３號","E_COORD97":182505.87,"N_COORD97":2575275.3999999999,"ADDRESS":"中山東路二段４３３號","OBJECTID":461885},"geometry":{"x":182505.87000000011,"y":2575275.4000000022}},{"attributes":{"ID":461911,"DIS_CODE":0,"TOWNNAME":"柳營區","LI":"太康里","LIN":"20鄰","STREET":"中山東路","SECT":"二段","MAREA":" ","LANE":" ","ALLEY":" ","HOUSE_NO":"４４２號","E_COORD97":182497.76999999999,"N_COORD97":2575318.21,"ADDRESS":"中山東路二段４４２號","OBJECTID":461886},"geometry":{"x":182497.76999999955,"y":2575318.2100000028}},{"attributes":{"ID":461912,"DIS_CODE":0,"TOWNNAME":"柳營區","LI":"太康里","LIN":"20鄰","STREET":"中山東路","SECT":"二段","MAREA":" ","LANE":" ","ALLEY":" ","HOUSE_NO":"４７８號","E_COORD97":182434.54999999999,"N_COORD97":2575344.1800000002,"ADDRESS":"中山東路二段４７８號","OBJECTID":461887},"geometry":{"x":182434.55000000075,"y":2575344.1800000016}},{"attributes":{"ID":461913,"DIS_CODE":0,"TOWNNAME":"柳營區","LI":"太康里","LIN":"20鄰","STREET":"中山東路","SECT":"二段","MAREA":" ","LANE":" ","ALLEY":" ","HOUSE_NO":"４８８號","E_COORD97":182421.88,"N_COORD97":2575329.9199999999,"ADDRESS":"中山東路二段４８８號","OBJECTID":461888},"geometry":{"x":182421.88000000082,"y":2575329.9199999999}},{"attributes":{"ID":461914,"DIS_CODE":0,"TOWNNAME":"柳營區","LI":"太康里","LIN":"20鄰","STREET":"中山東路","SECT":"二段","MAREA":" ","LANE":" ","ALLEY":" ","HOUSE_NO":"５１７號","E_COORD97":182107.70999999999,"N_COORD97":2575359.6400000001,"ADDRESS":"中山東路二段５１７號","OBJECTID":461889},"geometry":{"x":182107.71000000089,"y":2575359.6400000006}},{"attributes":{"ID":461915,"DIS_CODE":0,"TOWNNAME":"柳營區","LI":"太康里","LIN":"20鄰","STREET":"中山東路","SECT":"二段","MAREA":" ","LANE":" ","ALLEY":" ","HOUSE_NO":"６４２號","E_COORD97":182222.35000000001,"N_COORD97":2575424.5,"ADDRESS":"中山東路二段６４２號","OBJECTID":461890},"geometry":{"x":182222.34999999963,"y":2575424.5}},{"attributes":{"ID":461916,"DIS_CODE":0,"TOWNNAME":"柳營區","LI":"太康里","LIN":"20鄰","STREET":"中山東路","SECT":"二段","MAREA":" ","LANE":" ","ALLEY":" ","HOUSE_NO":"７３２號","E_COORD97":182047.98999999999,"N_COORD97":2575384.0299999998,"ADDRESS":"中山東路二段７３２號","OBJECTID":461891},"geometry":{"x":182047.99000000209,"y":2575384.0299999993}},{"attributes":{"ID":461917,"DIS_CODE":0,"TOWNNAME":"柳營區","LI":"太康里","LIN":"20鄰","STREET":"中山東路","SECT":"二段","MAREA":" ","LANE":" ","ALLEY":" ","HOUSE_NO":"８７６號","E_COORD97":181795.62,"N_COORD97":2575386.6000000001,"ADDRESS":"中山東路二段８７６號","OBJECTID":461892},"geometry":{"x":181795.62000000011,"y":2575386.5999999996}},{"attributes":{"ID":461918,"DIS_CODE":0,"TOWNNAME":"柳營區","LI":"太康里","LIN":"20鄰","STREET":"中山東路","SECT":"二段","MAREA":" ","LANE":" ","ALLEY":" ","HOUSE_NO":"８７８號","E_COORD97":181795.51999999999,"N_COORD97":2575392.29,"ADDRESS":"中山東路二段８７８號","OBJECTID":461893},"geometry":{"x":181795.51999999955,"y":2575392.2899999972}},{"attributes":{"ID":461919,"DIS_CODE":0,"TOWNNAME":"柳營區","LI":"太康里","LIN":"20鄰","STREET":"中山東路","SECT":"二段","MAREA":" ","LANE":" ","ALLEY":" ","HOUSE_NO":"８８０號","E_COORD97":181795.48000000001,"N_COORD97":2575397.4199999999,"ADDRESS":"中山東路二段８８０號","OBJECTID":461894},"geometry":{"x":181795.48000000045,"y":2575397.4200000018}},{"attributes":{"ID":461920,"DIS_CODE":0,"TOWNNAME":"柳營區","LI":"太康里","LIN":"20鄰","STREET":"中山東路","SECT":"二段","MAREA":" ","LANE":" ","ALLEY":" ","HOUSE_NO":"８８２號","E_COORD97":181795.14000000001,"N_COORD97":2575402.7000000002,"ADDRESS":"中山東路二段８８２號","OBJECTID":461895},"geometry":{"x":181795.13999999966,"y":2575402.6999999993}},{"attributes":{"ID":461921,"DIS_CODE":0,"TOWNNAME":"柳營區","LI":"太康里","LIN":"20鄰","STREET":"中山東路","SECT":"二段","MAREA":" ","LANE":" ","ALLEY":" ","HOUSE_NO":"８８６號","E_COORD97":181795.14999999999,"N_COORD97":2575407.5800000001,"ADDRESS":"中山東路二段８８６號","OBJECTID":461896},"geometry":{"x":181795.1500000013,"y":2575407.5800000001}},{"attributes":{"ID":461922,"DIS_CODE":0,"TOWNNAME":"安南區","LI":"新順里","LIN":"1鄰","STREET":"培安二街","SECT":" ","MAREA":" ","LANE":" ","ALLEY":" ","HOUSE_NO":"２號","E_COORD97":169395.95000000001,"N_COORD97":2549611.1899999999,"ADDRESS":"培安二街２號","OBJECTID":461897},"geometry":{"x":169395.95000000112,"y":2549611.1900000013}},{"attributes":{"ID":461923,"DIS_CODE":0,"TOWNNAME":"柳營區","LI":"士林里","LIN":"20鄰","STREET":"育英街","SECT":" ","MAREA":" ","LANE":" ","ALLEY":" ","HOUSE_NO":"８１號","E_COORD97":179442.01000000001,"N_COORD97":2574886.2599999998,"ADDRESS":"育英街８１號","OBJECTID":461898},"geometry":{"x":179442.01000000164,"y":2574886.2600000016}},{"attributes":{"ID":461924,"DIS_CODE":0,"TOWNNAME":"柳營區","LI":"士林里","LIN":"20鄰","STREET":"育英街","SECT":" ","MAREA":" ","LANE":" ","ALLEY":" ","HOUSE_NO":"８３號","E_COORD97":179437.97,"N_COORD97":2574886.1600000001,"ADDRESS":"育英街８３號","OBJECTID":461899},"geometry":{"x":179437.96999999974,"y":2574886.1600000039}},{"attributes":{"ID":461925,"DIS_CODE":0,"TOWNNAME":"柳營區","LI":"士林里","LIN":"20鄰","STREET":"育英街","SECT":" ","MAREA":" ","LANE":" ","ALLEY":" ","HOUSE_NO":"８５號","E_COORD97":179433.95999999999,"N_COORD97":2574886.0499999998,"ADDRESS":"育英街８５號","OBJECTID":461900},"geometry":{"x":179433.96000000183,"y":2574886.0500000007}},{"attributes":{"ID":461926,"DIS_CODE":0,"TOWNNAME":"柳營區","LI":"士林里","LIN":"20鄰","STREET":"育英街","SECT":" ","MAREA":" ","LANE":" ","ALLEY":" ","HOUSE_NO":"８７號","E_COORD97":179429.81,"N_COORD97":2574886.3399999999,"ADDRESS":"育英街８７號","OBJECTID":461901},"geometry":{"x":179429.81000000052,"y":2574886.3399999999}},{"attributes":{"ID":461927,"DIS_CODE":0,"TOWNNAME":"柳營區","LI":"士林里","LIN":"20鄰","STREET":"育英街","SECT":" ","MAREA":" ","LANE":" ","ALLEY":" ","HOUSE_NO":"８９號","E_COORD97":179424.95000000001,"N_COORD97":2574885.98,"ADDRESS":"育英街８９號","OBJECTID":461902},"geometry":{"x":179424.95000000112,"y":2574885.9800000004}},{"attributes":{"ID":461928,"DIS_CODE":0,"TOWNNAME":"柳營區","LI":"士林里","LIN":"20鄰","STREET":"育英街","SECT":" ","MAREA":" ","LANE":" ","ALLEY":" ","HOUSE_NO":"９１號","E_COORD97":179420.73000000001,"N_COORD97":2574886.2599999998,"ADDRESS":"育英街９１號","OBJECTID":461903},"geometry":{"x":179420.72999999952,"y":2574886.2600000016}},{"attributes":{"ID":461929,"DIS_CODE":0,"TOWNNAME":"柳營區","LI":"士林里","LIN":"20鄰","STREET":"育英街","SECT":" ","MAREA":" ","LANE":" ","ALLEY":" ","HOUSE_NO":"９３號","E_COORD97":179416.97,"N_COORD97":2574886.1200000001,"ADDRESS":"育英街９３號","OBJECTID":461904},"geometry":{"x":179416.97000000067,"y":2574886.120000001}},{"attributes":{"ID":461930,"DIS_CODE":0,"TOWNNAME":"柳營區","LI":"士林里","LIN":"20鄰","STREET":"育英街","SECT":" ","MAREA":" ","LANE":" ","ALLEY":" ","HOUSE_NO":"９５號","E_COORD97":179412.14999999999,"N_COORD97":2574886.23,"ADDRESS":"育英街９５號","OBJECTID":461905},"geometry":{"x":179412.15000000037,"y":2574886.2300000023}},{"attributes":{"ID":461931,"DIS_CODE":0,"TOWNNAME":"柳營區","LI":"士林里","LIN":"20鄰","STREET":"育英街","SECT":" ","MAREA":" ","LANE":" ","ALLEY":" ","HOUSE_NO":"９７號","E_COORD97":179408.59,"N_COORD97":2574886.5099999998,"ADDRESS":"育英街９７號","OBJECTID":461906},"geometry":{"x":179408.58999999985,"y":2574886.5100000035}},{"attributes":{"ID":461932,"DIS_CODE":0,"TOWNNAME":"柳營區","LI":"士林里","LIN":"20鄰","STREET":"育英街","SECT":" ","MAREA":" ","LANE":" ","ALLEY":" ","HOUSE_NO":"９９號","E_COORD97":179403.94,"N_COORD97":2574886.52,"ADDRESS":"育英街９９號","OBJECTID":461907},"geometry":{"x":179403.94000000041,"y":2574886.5200000033}},{"attributes":{"ID":461933,"DIS_CODE":0,"TOWNNAME":"南區","LI":"彰南里","LIN":"20鄰","STREET":"新平路","SECT":" ","MAREA":" ","LANE":" ","ALLEY":" ","HOUSE_NO":"１１號","E_COORD97":165724.48999999999,"N_COORD97":2540544.8599999999,"ADDRESS":"新平路１１號","OBJECTID":461908},"geometry":{"x":165724.49000000022,"y":2540544.8599999994}},{"attributes":{"ID":461934,"DIS_CODE":0,"TOWNNAME":"南區","LI":"彰南里","LIN":"20鄰","STREET":"新平路","SECT":" ","MAREA":" ","LANE":" ","ALLEY":" ","HOUSE_NO":"２７號","E_COORD97":165597.48000000001,"N_COORD97":2540469.2599999998,"ADDRESS":"新平路２７號","OBJECTID":461909},"geometry":{"x":165597.48000000045,"y":2540469.2600000035}},{"attributes":{"ID":461935,"DIS_CODE":0,"TOWNNAME":"南區","LI":"彰南里","LIN":"20鄰","STREET":"新平路","SECT":" ","MAREA":" ","LANE":" ","ALLEY":" ","HOUSE_NO":"２９號","E_COORD97":165509.13,"N_COORD97":2540509.5299999998,"ADDRESS":"新平路２９號","OBJECTID":461910},"geometry":{"x":165509.13000000082,"y":2540509.5299999993}},{"attributes":{"ID":461936,"DIS_CODE":0,"TOWNNAME":"南區","LI":"彰南里","LIN":"20鄰","STREET":"新平路","SECT":" ","MAREA":" ","LANE":" ","ALLEY":" ","HOUSE_NO":"３１號","E_COORD97":165552.28,"N_COORD97":2540538.8199999998,"ADDRESS":"新平路３１號","OBJECTID":461911},"geometry":{"x":165552.28000000119,"y":2540538.8200000003}},{"attributes":{"ID":461937,"DIS_CODE":0,"TOWNNAME":"南區","LI":"彰南里","LIN":"20鄰","STREET":"新平路","SECT":" ","MAREA":" ","LANE":" ","ALLEY":" ","HOUSE_NO":"９號","E_COORD97":165831.31,"N_COORD97":2540544.8599999999,"ADDRESS":"新平路９號","OBJECTID":461912},"geometry":{"x":165831.31000000052,"y":2540544.8599999994}},{"attributes":{"ID":461938,"DIS_CODE":0,"TOWNNAME":"南區","LI":"彰南里","LIN":"20鄰","STREET":"新樂路","SECT":" ","MAREA":" ","LANE":" ","ALLEY":" ","HOUSE_NO":"１０４號","E_COORD97":165511.98000000001,"N_COORD97":2540553.5800000001,"ADDRESS":"新樂路１０４號","OBJECTID":461913},"geometry":{"x":165511.98000000138,"y":2540553.5800000019}},{"attributes":{"ID":461939,"DIS_CODE":0,"TOWNNAME":"南區","LI":"彰南里","LIN":"20鄰","STREET":"新樂路","SECT":" ","MAREA":" ","LANE":" ","ALLEY":" ","HOUSE_NO":"７２號","E_COORD97":165264.42000000001,"N_COORD97":2540995.5299999998,"ADDRESS":"新樂路７２號","OBJECTID":461914},"geometry":{"x":165264.42000000086,"y":2540995.5299999975}},{"attributes":{"ID":461940,"DIS_CODE":0,"TOWNNAME":"南區","LI":"彰南里","LIN":"20鄰","STREET":"新樂路","SECT":" ","MAREA":" ","LANE":" ","ALLEY":" ","HOUSE_NO":"７６號","E_COORD97":165315.32999999999,"N_COORD97":2540941.3300000001,"ADDRESS":"新樂路７６號","OBJECTID":461915},"geometry":{"x":165315.33000000007,"y":2540941.3300000019}},{"attributes":{"ID":461941,"DIS_CODE":0,"TOWNNAME":"南區","LI":"彰南里","LIN":"20鄰","STREET":"新樂路","SECT":" ","MAREA":" ","LANE":" ","ALLEY":" ","HOUSE_NO":"７８號","E_COORD97":165332.85999999999,"N_COORD97":2540912.1400000001,"ADDRESS":"新樂路７８號","OBJECTID":461916},"geometry":{"x":165332.8600000022,"y":2540912.1400000025}},{"attributes":{"ID":461942,"DIS_CODE":0,"TOWNNAME":"南區","LI":"彰南里","LIN":"20鄰","STREET":"新樂路","SECT":" ","MAREA":" ","LANE":" ","ALLEY":" ","HOUSE_NO":"９２號","E_COORD97":165421.10000000001,"N_COORD97":2540786.1099999999,"ADDRESS":"新樂路９２號","OBJECTID":461917},"geometry":{"x":165421.10000000056,"y":2540786.1100000013}},{"attributes":{"ID":461943,"DIS_CODE":0,"TOWNNAME":"南區","LI":"彰南里","LIN":"20鄰","STREET":"新樂路","SECT":" ","MAREA":" ","LANE":" ","ALLEY":" ","HOUSE_NO":"９６號","E_COORD97":165439.42000000001,"N_COORD97":2540711.1800000002,"ADDRESS":"新樂路９６號","OBJECTID":461918},"geometry":{"x":165439.42000000086,"y":2540711.1800000016}},{"attributes":{"ID":461944,"DIS_CODE":0,"TOWNNAME":"南區","LI":"彰南里","LIN":"20鄰","STREET":"新樂路","SECT":" ","MAREA":" ","LANE":" ","ALLEY":" ","HOUSE_NO":"９６號之１","E_COORD97":165479.73000000001,"N_COORD97":2540679.04,"ADDRESS":"新樂路９６號之１","OBJECTID":461919},"geometry":{"x":165479.73000000138,"y":2540679.0399999991}},{"attributes":{"ID":461945,"DIS_CODE":0,"TOWNNAME":"南區","LI":"文南里","LIN":"20鄰","STREET":"仁南街","SECT":" ","MAREA":" ","LANE":" ","ALLEY":" ","HOUSE_NO":"３４號","E_COORD97":166385.85999999999,"N_COORD97":2542642.9500000002,"ADDRESS":"仁南街３４號","OBJECTID":461920},"geometry":{"x":166385.86000000127,"y":2542642.9499999993}},{"attributes":{"ID":461946,"DIS_CODE":0,"TOWNNAME":"南區","LI":"文南里","LIN":"20鄰","STREET":"仁南街","SECT":" ","MAREA":" ","LANE":" ","ALLEY":" ","HOUSE_NO":"３６號","E_COORD97":166386.67999999999,"N_COORD97":2542648.7000000002,"ADDRESS":"仁南街３６號","OBJECTID":461921},"geometry":{"x":166386.68000000063,"y":2542648.6999999993}},{"attributes":{"ID":461947,"DIS_CODE":0,"TOWNNAME":"南區","LI":"郡南里","LIN":"20鄰","STREET":"中華南路","SECT":"二段","MAREA":" ","LANE":" ","ALLEY":" ","HOUSE_NO":"３０號","E_COORD97":167434.26999999999,"N_COORD97":2540343.25,"ADDRESS":"中華南路二段３０號","OBJECTID":461922},"geometry":{"x":167434.26999999955,"y":2540343.25}},{"attributes":{"ID":461948,"DIS_CODE":0,"TOWNNAME":"南區","LI":"文南里","LIN":"20鄰","STREET":"中華西路","SECT":"一段","MAREA":" ","LANE":" ","ALLEY":" ","HOUSE_NO":"１７５號","E_COORD97":166532.23000000001,"N_COORD97":2542615.3399999999,"ADDRESS":"中華西路一段１７５號","OBJECTID":461923},"geometry":{"x":166532.23000000231,"y":2542615.3400000017}},{"attributes":{"ID":461949,"DIS_CODE":0,"TOWNNAME":"歸仁區","LI":"六甲里","LIN":"20鄰","STREET":"中正南路","SECT":"一段","MAREA":" ","LANE":" ","ALLEY":" ","HOUSE_NO":"７１４號","E_COORD97":176479.73999999999,"N_COORD97":2539740.77,"ADDRESS":"中正南路一段７１４號","OBJECTID":461924},"geometry":{"x":176479.74000000115,"y":2539740.7700000014}},{"attributes":{"ID":461950,"DIS_CODE":0,"TOWNNAME":"歸仁區","LI":"六甲里","LIN":"20鄰","STREET":"中正南路","SECT":"一段","MAREA":" ","LANE":" ","ALLEY":" ","HOUSE_NO":"７２２號","E_COORD97":176473.50010800001,"N_COORD97":2539720.39763,"ADDRESS":"中正南路一段７２２號","OBJECTID":461925},"geometry":{"x":176473.50010800082,"y":2539720.3976280037}},{"attributes":{"ID":461951,"DIS_CODE":0,"TOWNNAME":"玉井區","LI":"玉井里","LIN":"20鄰","STREET":"太子街","SECT":" ","MAREA":" ","LANE":" ","ALLEY":" ","HOUSE_NO":"７７號","E_COORD97":194763.59,"N_COORD97":2558083.25,"ADDRESS":"太子街７７號","OBJECTID":461926},"geometry":{"x":194763.58999999985,"y":2558083.2500000019}},{"attributes":{"ID":461952,"DIS_CODE":0,"TOWNNAME":"南區","LI":"大林里","LIN":"20鄰","STREET":"大林路","SECT":" ","MAREA":" ","LANE":" ","ALLEY":" ","HOUSE_NO":"１１３號","E_COORD97":169120.32999999999,"N_COORD97":2541752.7400000002,"ADDRESS":"大林路１１３號","OBJECTID":461927},"geometry":{"x":169120.33000000101,"y":2541752.7400000021}},{"attributes":{"ID":461953,"DIS_CODE":0,"TOWNNAME":"南區","LI":"大林里","LIN":"20鄰","STREET":"大林路","SECT":" ","MAREA":" ","LANE":" ","ALLEY":" ","HOUSE_NO":"１４３號","E_COORD97":169060.42000000001,"N_COORD97":2541714.4300000002,"ADDRESS":"大林路１４３號","OBJECTID":461928},"geometry":{"x":169060.42000000086,"y":2541714.4299999997}},{"attributes":{"ID":461954,"DIS_CODE":0,"TOWNNAME":"南區","LI":"大林里","LIN":"20鄰","STREET":"大林路","SECT":" ","MAREA":" ","LANE":" ","ALLEY":" ","HOUSE_NO":"１６１號","E_COORD97":169026.04999999999,"N_COORD97":2541712.3999999999,"ADDRESS":"大林路１６１號","OBJECTID":461929},"geometry":{"x":169026.04999999981,"y":2541712.4000000004}},{"attributes":{"ID":461955,"DIS_CODE":0,"TOWNNAME":"南區","LI":"大林里","LIN":"20鄰","STREET":"大林路","SECT":" ","MAREA":" ","LANE":" ","ALLEY":" ","HOUSE_NO":"１９３號","E_COORD97":168962.26999999999,"N_COORD97":2541682.4199999999,"ADDRESS":"大林路１９３號","OBJECTID":461930},"geometry":{"x":168962.27000000048,"y":2541682.4200000018}},{"attributes":{"ID":461956,"DIS_CODE":0,"TOWNNAME":"玉井區","LI":"玉田里","LIN":"20鄰","STREET":"民族路","SECT":" ","MAREA":" ","LANE":" ","ALLEY":" ","HOUSE_NO":"１１８號","E_COORD97":195214.78,"N_COORD97":2558091.2799999998,"ADDRESS":"民族路１１８號","OBJECTID":461931},"geometry":{"x":195214.78000000119,"y":2558091.2799999993}},{"attributes":{"ID":461957,"DIS_CODE":0,"TOWNNAME":"玉井區","LI":"玉田里","LIN":"20鄰","STREET":"民族路","SECT":" ","MAREA":" ","LANE":" ","ALLEY":" ","HOUSE_NO":"１０２號","E_COORD97":195234.79000000001,"N_COORD97":2558008.29,"ADDRESS":"民族路１０２號","OBJECTID":461932},"geometry":{"x":195234.79000000097,"y":2558008.290000001}},{"attributes":{"ID":461958,"DIS_CODE":0,"TOWNNAME":"玉井區","LI":"玉田里","LIN":"20鄰","STREET":"中山路","SECT":" ","MAREA":" ","LANE":" ","ALLEY":" ","HOUSE_NO":"１６３號","E_COORD97":195285.56,"N_COORD97":2558012.25,"ADDRESS":"中山路１６３號","OBJECTID":461933},"geometry":{"x":195285.55999999959,"y":2558012.2500000019}},{"attributes":{"ID":461959,"DIS_CODE":0,"TOWNNAME":"玉井區","LI":"玉井里","LIN":"20鄰","STREET":"民主街","SECT":" ","MAREA":" ","LANE":" ","ALLEY":" ","HOUSE_NO":"１１號之３","E_COORD97":194771.26999999999,"N_COORD97":2558019.2999999998,"ADDRESS":"民主街１１號之３","OBJECTID":461934},"geometry":{"x":194771.27000000142,"y":2558019.3000000026}},{"attributes":{"ID":461960,"DIS_CODE":0,"TOWNNAME":"玉井區","LI":"玉田里","LIN":"20鄰","STREET":"中山路","SECT":" ","MAREA":" ","LANE":" ","ALLEY":" ","HOUSE_NO":"１４５號","E_COORD97":195287.54999999999,"N_COORD97":2557962.2400000002,"ADDRESS":"中山路１４５號","OBJECTID":461935},"geometry":{"x":195287.54999999981,"y":2557962.2400000021}},{"attributes":{"ID":461961,"DIS_CODE":0,"TOWNNAME":"歸仁區","LI":"南興里","LIN":"20鄰","STREET":"文化街","SECT":"三段","MAREA":" ","LANE":" ","ALLEY":" ","HOUSE_NO":"５６８號","E_COORD97":175691.42000000001,"N_COORD97":2541244.2599999998,"ADDRESS":"文化街三段５６８號","OBJECTID":461936},"geometry":{"x":175691.42000000086,"y":2541244.2599999998}},{"attributes":{"ID":461962,"DIS_CODE":0,"TOWNNAME":"玉井區","LI":"玉田里","LIN":"20鄰","STREET":"中山路","SECT":" ","MAREA":" ","LANE":" ","ALLEY":" ","HOUSE_NO":"２１３號","E_COORD97":195259.35000000001,"N_COORD97":2558090.2400000002,"ADDRESS":"中山路２１３號","OBJECTID":461937},"geometry":{"x":195259.35000000056,"y":2558090.2400000021}},{"attributes":{"ID":461963,"DIS_CODE":0,"TOWNNAME":"玉井區","LI":"玉田里","LIN":"20鄰","STREET":"中山路","SECT":" ","MAREA":" ","LANE":" ","ALLEY":" ","HOUSE_NO":"１８５號","E_COORD97":195286.95999999999,"N_COORD97":2558024.25,"ADDRESS":"中山路１８５號","OBJECTID":461938},"geometry":{"x":195286.95999999996,"y":2558024.25}},{"attributes":{"ID":461964,"DIS_CODE":0,"TOWNNAME":"玉井區","LI":"玉井里","LIN":"20鄰","STREET":"太子街","SECT":" ","MAREA":" ","LANE":" ","ALLEY":" ","HOUSE_NO":"６７號","E_COORD97":194772.09,"N_COORD97":2558069.25,"ADDRESS":"太子街６７號","OBJECTID":461939},"geometry":{"x":194772.08999999985,"y":2558069.2500000019}},{"attributes":{"ID":461965,"DIS_CODE":0,"TOWNNAME":"玉井區","LI":"玉井里","LIN":"20鄰","STREET":"中正路","SECT":" ","MAREA":" ","LANE":" ","ALLEY":" ","HOUSE_NO":"３４號","E_COORD97":194705,"N_COORD97":2558029.25,"ADDRESS":"中正路３４號","OBJECTID":461940},"geometry":{"x":194705,"y":2558029.2500000019}},{"attributes":{"ID":461966,"DIS_CODE":0,"TOWNNAME":"玉井區","LI":"玉田里","LIN":"20鄰","STREET":"中山路","SECT":" ","MAREA":" ","LANE":" ","ALLEY":" ","HOUSE_NO":"１９１號","E_COORD97":195284.45999999999,"N_COORD97":2558043.25,"ADDRESS":"中山路１９１號","OBJECTID":461941},"geometry":{"x":195284.46000000089,"y":2558043.2500000019}},{"attributes":{"ID":461967,"DIS_CODE":0,"TOWNNAME":"玉井區","LI":"玉田里","LIN":"20鄰","STREET":"中山路","SECT":" ","MAREA":" ","LANE":" ","ALLEY":" ","HOUSE_NO":"２２１號","E_COORD97":195223.85000000001,"N_COORD97":2558091.2400000002,"ADDRESS":"中山路２２１號","OBJECTID":461942},"geometry":{"x":195223.85000000056,"y":2558091.2400000002}},{"attributes":{"ID":461968,"DIS_CODE":0,"TOWNNAME":"玉井區","LI":"玉田里","LIN":"20鄰","STREET":"中山路","SECT":" ","MAREA":" ","LANE":" ","ALLEY":" ","HOUSE_NO":"１９５號","E_COORD97":195284.26000000001,"N_COORD97":2558051.25,"ADDRESS":"中山路１９５號","OBJECTID":461943},"geometry":{"x":195284.26000000071,"y":2558051.25}},{"attributes":{"ID":461969,"DIS_CODE":0,"TOWNNAME":"歸仁區","LI":"歸仁里","LIN":"20鄰","STREET":"大仁二街","SECT":" ","MAREA":" ","LANE":" ","ALLEY":" ","HOUSE_NO":"３０號","E_COORD97":178124.34,"N_COORD97":2541108.1099999999,"ADDRESS":"大仁二街３０號","OBJECTID":461944},"geometry":{"x":178124.34000000171,"y":2541108.1100000013}},{"attributes":{"ID":461970,"DIS_CODE":0,"TOWNNAME":"歸仁區","LI":"新厝里","LIN":"20鄰","STREET":"大成八街","SECT":" ","MAREA":" ","LANE":" ","ALLEY":" ","HOUSE_NO":"６號","E_COORD97":177667.89000000001,"N_COORD97":2540274.1800000002,"ADDRESS":"大成八街６號","OBJECTID":461945},"geometry":{"x":177667.89000000153,"y":2540274.1800000016}},{"attributes":{"ID":461971,"DIS_CODE":0,"TOWNNAME":"歸仁區","LI":"文化里","LIN":"20鄰","STREET":"大德路","SECT":" ","MAREA":" ","LANE":" ","ALLEY":" ","HOUSE_NO":"２３３號","E_COORD97":177175.57000000001,"N_COORD97":2541495.3300000001,"ADDRESS":"大德路２３３號","OBJECTID":461946},"geometry":{"x":177175.57000000216,"y":2541495.3300000001}},{"attributes":{"ID":461972,"DIS_CODE":0,"TOWNNAME":"歸仁區","LI":"文化里","LIN":"20鄰","STREET":"大德路","SECT":" ","MAREA":" ","LANE":" ","ALLEY":" ","HOUSE_NO":"２３１號","E_COORD97":177175.57000000001,"N_COORD97":2541495.3300000001,"ADDRESS":"大德路２３１號","OBJECTID":461947},"geometry":{"x":177175.57000000216,"y":2541495.3300000001}},{"attributes":{"ID":461973,"DIS_CODE":0,"TOWNNAME":"歸仁區","LI":"新厝里","LIN":"20鄰","STREET":"大成路","SECT":" ","MAREA":" ","LANE":" ","ALLEY":" ","HOUSE_NO":"１０４號","E_COORD97":177678.54000000001,"N_COORD97":2540298.1800000002,"ADDRESS":"大成路１０４號","OBJECTID":461948},"geometry":{"x":177678.54000000004,"y":2540298.1800000016}},{"attributes":{"ID":461974,"DIS_CODE":0,"TOWNNAME":"麻豆區","LI":"\u25A0江里","LIN":"20鄰","STREET":"民生路","SECT":" ","MAREA":" ","LANE":" ","ALLEY":" ","HOUSE_NO":"１８號之１","E_COORD97":173578.51999999999,"N_COORD97":2564703.02,"ADDRESS":"民生路１８號之１","OBJECTID":461949},"geometry":{"x":173578.52000000048,"y":2564703.0200000014}},{"attributes":{"ID":461975,"DIS_CODE":0,"TOWNNAME":"麻豆區","LI":"\u25A0江里","LIN":"20鄰","STREET":"民生路","SECT":" ","MAREA":" ","LANE":" ","ALLEY":" ","HOUSE_NO":"１８號之３","E_COORD97":173581.82999999999,"N_COORD97":2564686.25,"ADDRESS":"民生路１８號之３","OBJECTID":461950},"geometry":{"x":173581.83000000101,"y":2564686.25}},{"attributes":{"ID":461976,"DIS_CODE":0,"TOWNNAME":"麻豆區","LI":"\u25A0江里","LIN":"20鄰","STREET":"民生路","SECT":" ","MAREA":" ","LANE":" ","ALLEY":" ","HOUSE_NO":"１８號","E_COORD97":173557.07999999999,"N_COORD97":2564675.1299999999,"ADDRESS":"民生路１８號","OBJECTID":461951},"geometry":{"x":173557.08000000007,"y":2564675.129999999}},{"attributes":{"ID":461977,"DIS_CODE":0,"TOWNNAME":"麻豆區","LI":"\u25A0江里","LIN":"20鄰","STREET":"民生路","SECT":" ","MAREA":" ","LANE":" ","ALLEY":" ","HOUSE_NO":"２０號","E_COORD97":173545.70999999999,"N_COORD97":2564644.23,"ADDRESS":"民生路２０號","OBJECTID":461952},"geometry":{"x":173545.71000000089,"y":2564644.2300000023}},{"attributes":{"ID":461978,"DIS_CODE":0,"TOWNNAME":"麻豆區","LI":"\u25A0江里","LIN":"20鄰","STREET":"民生路","SECT":" ","MAREA":" ","LANE":" ","ALLEY":" ","HOUSE_NO":"２２號","E_COORD97":173571.04999999999,"N_COORD97":2564657.9100000001,"ADDRESS":"民生路２２號","OBJECTID":461953},"geometry":{"x":173571.04999999981,"y":2564657.9100000001}},{"attributes":{"ID":461979,"DIS_CODE":0,"TOWNNAME":"麻豆區","LI":"\u25A0江里","LIN":"20鄰","STREET":"民生路","SECT":" ","MAREA":" ","LANE":" ","ALLEY":" ","HOUSE_NO":"２４號","E_COORD97":173618.97,"N_COORD97":2564673.21,"ADDRESS":"民生路２４號","OBJECTID":461954},"geometry":{"x":173618.96999999974,"y":2564673.2100000009}},{"attributes":{"ID":461980,"DIS_CODE":0,"TOWNNAME":"北區","LI":"中樓里","LIN":"20鄰","STREET":"勝利路","SECT":" ","MAREA":" ","LANE":" ","ALLEY":" ","HOUSE_NO":"４４３號","E_COORD97":169916.73999999999,"N_COORD97":2545070.8799999999,"ADDRESS":"勝利路４４３號","OBJECTID":461955},"geometry":{"x":169916.74000000022,"y":2545070.879999999}},{"attributes":{"ID":461981,"DIS_CODE":0,"TOWNNAME":"北區","LI":"中樓里","LIN":"20鄰","STREET":"勝利路","SECT":" ","MAREA":" ","LANE":" ","ALLEY":" ","HOUSE_NO":"４４５號","E_COORD97":169916.01999999999,"N_COORD97":2545075.2000000002,"ADDRESS":"勝利路４４５號","OBJECTID":461956},"geometry":{"x":169916.01999999955,"y":2545075.1999999993}},{"attributes":{"ID":461982,"DIS_CODE":0,"TOWNNAME":"北區","LI":"中樓里","LIN":"20鄰","STREET":"勝利路","SECT":" ","MAREA":" ","LANE":" ","ALLEY":" ","HOUSE_NO":"４４７號","E_COORD97":169915.60999999999,"N_COORD97":2545079.8599999999,"ADDRESS":"勝利路４４７號","OBJECTID":461957},"geometry":{"x":169915.61000000127,"y":2545079.8600000013}},{"attributes":{"ID":461983,"DIS_CODE":0,"TOWNNAME":"北區","LI":"中樓里","LIN":"20鄰","STREET":"勝利路","SECT":" ","MAREA":" ","LANE":" ","ALLEY":" ","HOUSE_NO":"４４７號之１","E_COORD97":169915.70999999999,"N_COORD97":2545085.0099999998,"ADDRESS":"勝利路４４７號之１","OBJECTID":461958},"geometry":{"x":169915.71000000089,"y":2545085.0100000035}},{"attributes":{"ID":461984,"DIS_CODE":0,"TOWNNAME":"北區","LI":"中樓里","LIN":"20鄰","STREET":"勝利路","SECT":" ","MAREA":" ","LANE":" ","ALLEY":" ","HOUSE_NO":"４５１號","E_COORD97":169915.60999999999,"N_COORD97":2545089.4300000002,"ADDRESS":"勝利路４５１號","OBJECTID":461959},"geometry":{"x":169915.61000000127,"y":2545089.4300000016}},{"attributes":{"ID":461985,"DIS_CODE":0,"TOWNNAME":"北區","LI":"中樓里","LIN":"20鄰","STREET":"勝利路","SECT":" ","MAREA":" ","LANE":" ","ALLEY":" ","HOUSE_NO":"４５３號","E_COORD97":169915.92000000001,"N_COORD97":2545093.8500000001,"ADDRESS":"勝利路４５３號","OBJECTID":461960},"geometry":{"x":169915.92000000086,"y":2545093.8500000015}},{"attributes":{"ID":461986,"DIS_CODE":0,"TOWNNAME":"北區","LI":"中樓里","LIN":"20鄰","STREET":"勝利路","SECT":" ","MAREA":" ","LANE":" ","ALLEY":" ","HOUSE_NO":"４５５號","E_COORD97":169916.22,"N_COORD97":2545099.5,"ADDRESS":"勝利路４５５號","OBJECTID":461961},"geometry":{"x":169916.21999999974,"y":2545099.5000000019}},{"attributes":{"ID":461987,"DIS_CODE":0,"TOWNNAME":"北區","LI":"中樓里","LIN":"20鄰","STREET":"勝利路","SECT":" ","MAREA":" ","LANE":" ","ALLEY":" ","HOUSE_NO":"４５７號","E_COORD97":169914.98999999999,"N_COORD97":2545103.52,"ADDRESS":"勝利路４５７號","OBJECTID":461962},"geometry":{"x":169914.99000000022,"y":2545103.5199999996}},{"attributes":{"ID":461988,"DIS_CODE":0,"TOWNNAME":"北區","LI":"中樓里","LIN":"20鄰","STREET":"勝利路","SECT":" ","MAREA":" ","LANE":" ","ALLEY":" ","HOUSE_NO":"４５９號","E_COORD97":169914.26999999999,"N_COORD97":2545107.5299999998,"ADDRESS":"勝利路４５９號","OBJECTID":461963},"geometry":{"x":169914.26999999955,"y":2545107.5299999993}},{"attributes":{"ID":461989,"DIS_CODE":0,"TOWNNAME":"北區","LI":"中樓里","LIN":"20鄰","STREET":"勝利路","SECT":" ","MAREA":" ","LANE":" ","ALLEY":" ","HOUSE_NO":"４６１號","E_COORD97":169912.72,"N_COORD97":2545117.1299999999,"ADDRESS":"勝利路４６１號","OBJECTID":461964},"geometry":{"x":169912.71999999974,"y":2545117.1299999971}},{"attributes":{"ID":461990,"DIS_CODE":0,"TOWNNAME":"北區","LI":"中樓里","LIN":"20鄰","STREET":"勝利路","SECT":" ","MAREA":" ","LANE":" ","ALLEY":" ","HOUSE_NO":"４６３號","E_COORD97":169911.07999999999,"N_COORD97":2545126.4900000002,"ADDRESS":"勝利路４６３號","OBJECTID":461965},"geometry":{"x":169911.08000000007,"y":2545126.4900000039}},{"attributes":{"ID":461991,"DIS_CODE":0,"TOWNNAME":"北區","LI":"中樓里","LIN":"20鄰","STREET":"勝利路","SECT":" ","MAREA":" ","LANE":" ","ALLEY":" ","HOUSE_NO":"４６５號","E_COORD97":169909.73999999999,"N_COORD97":2545132.5499999998,"ADDRESS":"勝利路４６５號","OBJECTID":461966},"geometry":{"x":169909.74000000022,"y":2545132.5500000007}},{"attributes":{"ID":461992,"DIS_CODE":0,"TOWNNAME":"北區","LI":"中樓里","LIN":"20鄰","STREET":"勝利路","SECT":" ","MAREA":" ","LANE":" ","ALLEY":" ","HOUSE_NO":"４６９號","E_COORD97":169906.95999999999,"N_COORD97":2545146.2599999998,"ADDRESS":"勝利路４６９號","OBJECTID":461967},"geometry":{"x":169906.95999999903,"y":2545146.2599999998}},{"attributes":{"ID":461993,"DIS_CODE":0,"TOWNNAME":"北區","LI":"中樓里","LIN":"20鄰","STREET":"勝利路","SECT":" ","MAREA":" ","LANE":" ","ALLEY":" ","HOUSE_NO":"４６９號之１","E_COORD97":169905.42000000001,"N_COORD97":2545152.6400000001,"ADDRESS":"勝利路４６９號之１","OBJECTID":461968},"geometry":{"x":169905.41999999993,"y":2545152.6400000006}},{"attributes":{"ID":461994,"DIS_CODE":0,"TOWNNAME":"北區","LI":"中樓里","LIN":"20鄰","STREET":"勝利路","SECT":" ","MAREA":" ","LANE":" ","ALLEY":" ","HOUSE_NO":"４７１號","E_COORD97":169904.17999999999,"N_COORD97":2545159.0800000001,"ADDRESS":"勝利路４７１號","OBJECTID":461969},"geometry":{"x":169904.18000000063,"y":2545159.0800000001}},{"attributes":{"ID":461995,"DIS_CODE":0,"TOWNNAME":"北區","LI":"中樓里","LIN":"20鄰","STREET":"勝利路","SECT":" ","MAREA":" ","LANE":" ","ALLEY":" ","HOUSE_NO":"４７３號","E_COORD97":169902.95000000001,"N_COORD97":2545162.5699999998,"ADDRESS":"勝利路４７３號","OBJECTID":461970},"geometry":{"x":169902.95000000112,"y":2545162.5700000003}},{"attributes":{"ID":461996,"DIS_CODE":0,"TOWNNAME":"北區","LI":"中樓里","LIN":"20鄰","STREET":"勝利路","SECT":" ","MAREA":" ","LANE":" ","ALLEY":" ","HOUSE_NO":"４７５號","E_COORD97":169900.98999999999,"N_COORD97":2545167.9199999999,"ADDRESS":"勝利路４７５號","OBJECTID":461971},"geometry":{"x":169900.99000000115,"y":2545167.9200000018}},{"attributes":{"ID":461997,"DIS_CODE":0,"TOWNNAME":"北區","LI":"中樓里","LIN":"20鄰","STREET":"勝利路","SECT":" ","MAREA":" ","LANE":" ","ALLEY":" ","HOUSE_NO":"４７７號","E_COORD97":169899.54999999999,"N_COORD97":2545173.0600000001,"ADDRESS":"勝利路４７７號","OBJECTID":461972},"geometry":{"x":169899.55000000168,"y":2545173.0600000005}},{"attributes":{"ID":461998,"DIS_CODE":0,"TOWNNAME":"北區","LI":"中樓里","LIN":"20鄰","STREET":"勝利路","SECT":" ","MAREA":" ","LANE":" ","ALLEY":" ","HOUSE_NO":"４７９號","E_COORD97":169897.29000000001,"N_COORD97":2545177.3799999999,"ADDRESS":"勝利路４７９號","OBJECTID":461973},"geometry":{"x":169897.29000000004,"y":2545177.3800000008}},{"attributes":{"ID":461999,"DIS_CODE":0,"TOWNNAME":"北區","LI":"中樓里","LIN":"20鄰","STREET":"勝利路","SECT":" ","MAREA":" ","LANE":" ","ALLEY":" ","HOUSE_NO":"４８１號","E_COORD97":169895.84,"N_COORD97":2545181.3100000001,"ADDRESS":"勝利路４８１號","OBJECTID":461974},"geometry":{"x":169895.84000000171,"y":2545181.3100000005}},{"attributes":{"ID":462000,"DIS_CODE":0,"TOWNNAME":"北區","LI":"中樓里","LIN":"20鄰","STREET":"勝利路","SECT":" ","MAREA":" ","LANE":" ","ALLEY":" ","HOUSE_NO":"４８３號","E_COORD97":169894.81,"N_COORD97":2545185.5499999998,"ADDRESS":"勝利路４８３號","OBJECTID":461975},"geometry":{"x":169894.81000000052,"y":2545185.5500000026}},{"attributes":{"ID":462001,"DIS_CODE":0,"TOWNNAME":"北區","LI":"中樓里","LIN":"20鄰","STREET":"勝利路","SECT":" ","MAREA":" ","LANE":" ","ALLEY":" ","HOUSE_NO":"４８３號之１","E_COORD97":169893.57999999999,"N_COORD97":2545189.77,"ADDRESS":"勝利路４８３號之１","OBJECTID":461976},"geometry":{"x":169893.58000000101,"y":2545189.7700000014}},{"attributes":{"ID":462002,"DIS_CODE":0,"TOWNNAME":"北區","LI":"中樓里","LIN":"20鄰","STREET":"勝利路","SECT":" ","MAREA":" ","LANE":" ","ALLEY":" ","HOUSE_NO":"４８５號","E_COORD97":169892.64999999999,"N_COORD97":2545193.7799999998,"ADDRESS":"勝利路４８５號","OBJECTID":461977},"geometry":{"x":169892.65000000224,"y":2545193.7799999993}},{"attributes":{"ID":462003,"DIS_CODE":0,"TOWNNAME":"北區","LI":"中樓里","LIN":"20鄰","STREET":"勝利路","SECT":" ","MAREA":" ","LANE":" ","ALLEY":" ","HOUSE_NO":"４８７號","E_COORD97":169890.89999999999,"N_COORD97":2545197.6899999999,"ADDRESS":"勝利路４８７號","OBJECTID":461978},"geometry":{"x":169890.90000000224,"y":2545197.6899999995}},{"attributes":{"ID":462004,"DIS_CODE":0,"TOWNNAME":"北區","LI":"中樓里","LIN":"20鄰","STREET":"勝利路","SECT":" ","MAREA":" ","LANE":" ","ALLEY":" ","HOUSE_NO":"４８９號","E_COORD97":169889.04999999999,"N_COORD97":2545201.3700000001,"ADDRESS":"勝利路４８９號","OBJECTID":461979},"geometry":{"x":169889.04999999981,"y":2545201.370000001}},{"attributes":{"ID":462005,"DIS_CODE":0,"TOWNNAME":"北區","LI":"中樓里","LIN":"20鄰","STREET":"勝利路","SECT":" ","MAREA":" ","LANE":" ","ALLEY":" ","HOUSE_NO":"４９１號","E_COORD97":169887.62,"N_COORD97":2545205.9300000002,"ADDRESS":"勝利路４９１號","OBJECTID":461980},"geometry":{"x":169887.62000000104,"y":2545205.9300000016}},{"attributes":{"ID":462006,"DIS_CODE":0,"TOWNNAME":"北區","LI":"中樓里","LIN":"20鄰","STREET":"勝利路","SECT":" ","MAREA":" ","LANE":" ","ALLEY":" ","HOUSE_NO":"４９３號","E_COORD97":169886.38,"N_COORD97":2545210.25,"ADDRESS":"勝利路４９３號","OBJECTID":461981},"geometry":{"x":169886.37999999989,"y":2545210.2500000019}},{"attributes":{"ID":462007,"DIS_CODE":0,"TOWNNAME":"北區","LI":"中樓里","LIN":"20鄰","STREET":"勝利路","SECT":" ","MAREA":" ","LANE":" ","ALLEY":" ","HOUSE_NO":"４９５號","E_COORD97":169885.56,"N_COORD97":2545213.9500000002,"ADDRESS":"勝利路４９５號","OBJECTID":461982},"geometry":{"x":169885.56000000145,"y":2545213.950000003}},{"attributes":{"ID":462008,"DIS_CODE":0,"TOWNNAME":"北區","LI":"正覺里","LIN":"20鄰","STREET":"公園路","SECT":" ","MAREA":" ","LANE":" ","ALLEY":" ","HOUSE_NO":"６２１號","E_COORD97":169361.09,"N_COORD97":2546182,"ADDRESS":"公園路６２１號","OBJECTID":461983},"geometry":{"x":169361.08999999985,"y":2546182.0000000019}},{"attributes":{"ID":462009,"DIS_CODE":0,"TOWNNAME":"北區","LI":"正覺里","LIN":"20鄰","STREET":"公園路","SECT":" ","MAREA":" ","LANE":" ","ALLEY":" ","HOUSE_NO":"６２３號","E_COORD97":169363.84,"N_COORD97":2546185.5699999998,"ADDRESS":"公園路６２３號","OBJECTID":461984},"geometry":{"x":169363.84000000078,"y":2546185.5700000003}},{"attributes":{"ID":462010,"DIS_CODE":0,"TOWNNAME":"北區","LI":"正覺里","LIN":"20鄰","STREET":"公園路","SECT":" ","MAREA":" ","LANE":" ","ALLEY":" ","HOUSE_NO":"６２５號","E_COORD97":169367.51000000001,"N_COORD97":2546189.79,"ADDRESS":"公園路６２５號","OBJECTID":461985},"geometry":{"x":169367.51000000164,"y":2546189.7899999991}},{"attributes":{"ID":462011,"DIS_CODE":0,"TOWNNAME":"北區","LI":"正覺里","LIN":"20鄰","STREET":"公園路","SECT":" ","MAREA":" ","LANE":" ","ALLEY":" ","HOUSE_NO":"６２７號","E_COORD97":169369.72,"N_COORD97":2546193.9500000002,"ADDRESS":"公園路６２７號","OBJECTID":461986},"geometry":{"x":169369.72000000067,"y":2546193.9500000011}},{"attributes":{"ID":462012,"DIS_CODE":0,"TOWNNAME":"北區","LI":"正覺里","LIN":"20鄰","STREET":"公園路","SECT":" ","MAREA":" ","LANE":" ","ALLEY":" ","HOUSE_NO":"６２９號","E_COORD97":169373.54999999999,"N_COORD97":2546197.1899999999,"ADDRESS":"公園路６２９號","OBJECTID":461987},"geometry":{"x":169373.54999999981,"y":2546197.1900000013}},{"attributes":{"ID":462013,"DIS_CODE":0,"TOWNNAME":"北區","LI":"正覺里","LIN":"20鄰","STREET":"公園路","SECT":" ","MAREA":" ","LANE":" ","ALLEY":" ","HOUSE_NO":"６３１號","E_COORD97":169375.95999999999,"N_COORD97":2546200.1000000001,"ADDRESS":"公園路６３１號","OBJECTID":461988},"geometry":{"x":169375.95999999996,"y":2546200.1000000015}},{"attributes":{"ID":462014,"DIS_CODE":0,"TOWNNAME":"北區","LI":"正覺里","LIN":"20鄰","STREET":"公園路","SECT":" ","MAREA":" ","LANE":" ","ALLEY":" ","HOUSE_NO":"６３３號","E_COORD97":169378.79000000001,"N_COORD97":2546204.6699999999,"ADDRESS":"公園路６３３號","OBJECTID":461989},"geometry":{"x":169378.79000000004,"y":2546204.6700000018}},{"attributes":{"ID":462015,"DIS_CODE":0,"TOWNNAME":"北區","LI":"正覺里","LIN":"20鄰","STREET":"公園路","SECT":" ","MAREA":" ","LANE":" ","ALLEY":" ","HOUSE_NO":"６３５號","E_COORD97":169383.53,"N_COORD97":2546208.3300000001,"ADDRESS":"公園路６３５號","OBJECTID":461990},"geometry":{"x":169383.53000000119,"y":2546208.3300000001}},{"attributes":{"ID":462016,"DIS_CODE":0,"TOWNNAME":"北區","LI":"正覺里","LIN":"20鄰","STREET":"公園路","SECT":" ","MAREA":" ","LANE":" ","ALLEY":" ","HOUSE_NO":"６３７號","E_COORD97":169385.28,"N_COORD97":2546213.48,"ADDRESS":"公園路６３７號","OBJECTID":461991},"geometry":{"x":169385.28000000119,"y":2546213.4800000004}},{"attributes":{"ID":462017,"DIS_CODE":0,"TOWNNAME":"北區","LI":"正覺里","LIN":"20鄰","STREET":"公園路","SECT":" ","MAREA":" ","LANE":" ","ALLEY":" ","HOUSE_NO":"６３７號之１","E_COORD97":169387.20999999999,"N_COORD97":2546215.5099999998,"ADDRESS":"公園路６３７號之１","OBJECTID":461992},"geometry":{"x":169387.21000000089,"y":2546215.5100000016}},{"attributes":{"ID":462018,"DIS_CODE":0,"TOWNNAME":"北區","LI":"正覺里","LIN":"20鄰","STREET":"公園路","SECT":" ","MAREA":" ","LANE":" ","ALLEY":" ","HOUSE_NO":"６３９號","E_COORD97":169389.04000000001,"N_COORD97":2546219.6499999999,"ADDRESS":"公園路６３９號","OBJECTID":461993},"geometry":{"x":169389.04000000004,"y":2546219.6500000004}},{"attributes":{"ID":462019,"DIS_CODE":0,"TOWNNAME":"北區","LI":"正覺里","LIN":"20鄰","STREET":"公園路","SECT":" ","MAREA":" ","LANE":" ","ALLEY":" ","HOUSE_NO":"６４１號","E_COORD97":169393.70000000001,"N_COORD97":2546224.7999999998,"ADDRESS":"公園路６４１號","OBJECTID":461994},"geometry":{"x":169393.70000000205,"y":2546224.8000000026}},{"attributes":{"ID":462020,"DIS_CODE":0,"TOWNNAME":"北區","LI":"正覺里","LIN":"20鄰","STREET":"公園路","SECT":" ","MAREA":" ","LANE":" ","ALLEY":" ","HOUSE_NO":"６４１號之１","E_COORD97":169396.78,"N_COORD97":2546227.5499999998,"ADDRESS":"公園路６４１號之１","OBJECTID":461995},"geometry":{"x":169396.78000000119,"y":2546227.5500000007}},{"attributes":{"ID":462021,"DIS_CODE":0,"TOWNNAME":"北區","LI":"正覺里","LIN":"20鄰","STREET":"公園路","SECT":" ","MAREA":" ","LANE":" ","ALLEY":" ","HOUSE_NO":"６４３號","E_COORD97":169399.19,"N_COORD97":2546230.54,"ADDRESS":"公園路６４３號","OBJECTID":461996},"geometry":{"x":169399.19000000227,"y":2546230.540000001}},{"attributes":{"ID":462022,"DIS_CODE":0,"TOWNNAME":"北區","LI":"正覺里","LIN":"20鄰","STREET":"公園路","SECT":" ","MAREA":" ","LANE":" ","ALLEY":" ","HOUSE_NO":"６４３號之１","E_COORD97":169385.13,"N_COORD97":2546240.54,"ADDRESS":"公園路６４３號之１","OBJECTID":461997},"geometry":{"x":169385.12999999989,"y":2546240.5400000028}},{"attributes":{"ID":462023,"DIS_CODE":0,"TOWNNAME":"北區","LI":"正覺里","LIN":"20鄰","STREET":"公園路","SECT":" ","MAREA":" ","LANE":" ","ALLEY":" ","HOUSE_NO":"６４５號","E_COORD97":169400.94,"N_COORD97":2546235.6899999999,"ADDRESS":"公園路６４５號","OBJECTID":461998},"geometry":{"x":169400.94000000134,"y":2546235.6899999995}},{"attributes":{"ID":462024,"DIS_CODE":0,"TOWNNAME":"北區","LI":"正覺里","LIN":"20鄰","STREET":"公園路","SECT":" ","MAREA":" ","LANE":" ","ALLEY":" ","HOUSE_NO":"６４７號","E_COORD97":169402.26999999999,"N_COORD97":2546239.71,"ADDRESS":"公園路６４７號","OBJECTID":461999},"geometry":{"x":169402.26999999955,"y":2546239.7100000009}},{"attributes":{"ID":462025,"DIS_CODE":0,"TOWNNAME":"北區","LI":"正覺里","LIN":"20鄰","STREET":"公園路","SECT":" ","MAREA":" ","LANE":" ","ALLEY":" ","HOUSE_NO":"６４７號之１","E_COORD97":169405.92999999999,"N_COORD97":2546244.3700000001,"ADDRESS":"公園路６４７號之１","OBJECTID":462000},"geometry":{"x":169405.93000000063,"y":2546244.3700000029}}]}