{"displayFieldName":"TOWNNAME","fieldAliases":{"ID":"ID","DIS_CODE":"DIS_CODE","TOWNNAME":"TOWNNAME","LI":"LI","LIN":"LIN","STREET":"STREET","SECT":"SECT","MAREA":"MAREA","LANE":"LANE","ALLEY":"ALLEY","HOUSE_NO":"HOUSE_NO","E_COORD97":"E_COORD97","N_COORD97":"N_COORD97","ADDRESS":"ADDRESS","OBJECTID":"OBJECTID"},"geometryType":"esriGeometryPoint","spatialReference":{"wkid":102443,"latestWkid":3826},"fields":[{"name":"ID","type":"esriFieldTypeDouble","alias":"ID"},{"name":"DIS_CODE","type":"esriFieldTypeInteger","alias":"DIS_CODE"},{"name":"TOWNNAME","type":"esriFieldTypeString","alias":"TOWNNAME","length":8},{"name":"LI","type":"esriFieldTypeString","alias":"LI","length":8},{"name":"LIN","type":"esriFieldTypeString","alias":"LIN","length":12},{"name":"STREET","type":"esriFieldTypeString","alias":"STREET","length":20},{"name":"SECT","type":"esriFieldTypeString","alias":"SECT","length":8},{"name":"MAREA","type":"esriFieldTypeString","alias":"MAREA","length":12},{"name":"LANE","type":"esriFieldTypeString","alias":"LANE","length":10},{"name":"ALLEY","type":"esriFieldTypeString","alias":"ALLEY","length":10},{"name":"HOUSE_NO","type":"esriFieldTypeString","alias":"HOUSE_NO","length":20},{"name":"E_COORD97","type":"esriFieldTypeDouble","alias":"E_COORD97"},{"name":"N_COORD97","type":"esriFieldTypeDouble","alias":"N_COORD97"},{"name":"ADDRESS","type":"esriFieldTypeString","alias":"ADDRESS","length":50},{"name":"OBJECTID","type":"esriFieldTypeOID","alias":"OBJECTID"}],"features":[{"attributes":{"ID":21801,"DIS_CODE":0,"TOWNNAME":"中西區","LI":"光賢里","LIN":"14鄰","STREET":"武聖路","SECT":" ","MAREA":" ","LANE":"６９巷","ALLEY":"４０弄","HOUSE_NO":"３０號五樓之６","E_COORD97":166628.06,"N_COORD97":2545203.8599999999,"ADDRESS":"武聖路６９巷４０弄３０號五樓之６","OBJECTID":21801},"geometry":{"x":166628.06000000052,"y":2545203.8599999994}},{"attributes":{"ID":21802,"DIS_CODE":0,"TOWNNAME":"中西區","LI":"光賢里","LIN":"14鄰","STREET":"武聖路","SECT":" ","MAREA":" ","LANE":"６９巷","ALLEY":"４０弄","HOUSE_NO":"３０號五樓之７","E_COORD97":166628.06,"N_COORD97":2545203.8599999999,"ADDRESS":"武聖路６９巷４０弄３０號五樓之７","OBJECTID":21802},"geometry":{"x":166628.06000000052,"y":2545203.8599999994}},{"attributes":{"ID":21803,"DIS_CODE":0,"TOWNNAME":"中西區","LI":"光賢里","LIN":"14鄰","STREET":"武聖路","SECT":" ","MAREA":" ","LANE":"６９巷","ALLEY":"４０弄","HOUSE_NO":"３０號五樓之８","E_COORD97":166628.06,"N_COORD97":2545203.8599999999,"ADDRESS":"武聖路６９巷４０弄３０號五樓之８","OBJECTID":21803},"geometry":{"x":166628.06000000052,"y":2545203.8599999994}},{"attributes":{"ID":21804,"DIS_CODE":0,"TOWNNAME":"中西區","LI":"光賢里","LIN":"14鄰","STREET":"武聖路","SECT":" ","MAREA":" ","LANE":"６９巷","ALLEY":"４０弄","HOUSE_NO":"３０號五樓之９","E_COORD97":166628.06,"N_COORD97":2545203.8599999999,"ADDRESS":"武聖路６９巷４０弄３０號五樓之９","OBJECTID":21804},"geometry":{"x":166628.06000000052,"y":2545203.8599999994}},{"attributes":{"ID":21805,"DIS_CODE":0,"TOWNNAME":"中西區","LI":"光賢里","LIN":"14鄰","STREET":"武聖路","SECT":" ","MAREA":" ","LANE":"６９巷","ALLEY":"４０弄","HOUSE_NO":"３０號六樓之１","E_COORD97":166628.06,"N_COORD97":2545203.8599999999,"ADDRESS":"武聖路６９巷４０弄３０號六樓之１","OBJECTID":21805},"geometry":{"x":166628.06000000052,"y":2545203.8599999994}},{"attributes":{"ID":21806,"DIS_CODE":0,"TOWNNAME":"中西區","LI":"光賢里","LIN":"14鄰","STREET":"武聖路","SECT":" ","MAREA":" ","LANE":"６９巷","ALLEY":"４０弄","HOUSE_NO":"３０號六樓之１０","E_COORD97":166628.06,"N_COORD97":2545203.8599999999,"ADDRESS":"武聖路６９巷４０弄３０號六樓之１０","OBJECTID":21806},"geometry":{"x":166628.06000000052,"y":2545203.8599999994}},{"attributes":{"ID":21807,"DIS_CODE":0,"TOWNNAME":"中西區","LI":"光賢里","LIN":"14鄰","STREET":"武聖路","SECT":" ","MAREA":" ","LANE":"６９巷","ALLEY":"４０弄","HOUSE_NO":"３０號六樓之１１","E_COORD97":166628.06,"N_COORD97":2545203.8599999999,"ADDRESS":"武聖路６９巷４０弄３０號六樓之１１","OBJECTID":21807},"geometry":{"x":166628.06000000052,"y":2545203.8599999994}},{"attributes":{"ID":21808,"DIS_CODE":0,"TOWNNAME":"中西區","LI":"光賢里","LIN":"14鄰","STREET":"武聖路","SECT":" ","MAREA":" ","LANE":"６９巷","ALLEY":"４０弄","HOUSE_NO":"３０號六樓之１２","E_COORD97":166628.06,"N_COORD97":2545203.8599999999,"ADDRESS":"武聖路６９巷４０弄３０號六樓之１２","OBJECTID":21808},"geometry":{"x":166628.06000000052,"y":2545203.8599999994}},{"attributes":{"ID":21809,"DIS_CODE":0,"TOWNNAME":"善化區","LI":"光文里","LIN":"24鄰","STREET":"信義路","SECT":" ","MAREA":" ","LANE":" ","ALLEY":" ","HOUSE_NO":"１７６號","E_COORD97":178230.12,"N_COORD97":2559166.5,"ADDRESS":"信義路１７６號","OBJECTID":21809},"geometry":{"x":178230.12000000104,"y":2559166.5000000019}},{"attributes":{"ID":21810,"DIS_CODE":0,"TOWNNAME":"東區","LI":"忠孝里","LIN":"24鄰","STREET":"崇明五街","SECT":" ","MAREA":" ","LANE":" ","ALLEY":" ","HOUSE_NO":"５號","E_COORD97":169585.26999999999,"N_COORD97":2542243.6699999999,"ADDRESS":"崇明五街５號","OBJECTID":21810},"geometry":{"x":169585.26999999955,"y":2542243.6700000018}},{"attributes":{"ID":21811,"DIS_CODE":0,"TOWNNAME":"西港區","LI":"後營里","LIN":"17鄰","STREET":" ","SECT":" ","MAREA":"後營","LANE":" ","ALLEY":" ","HOUSE_NO":"３５５之６號","E_COORD97":170257.23000000001,"N_COORD97":2559989.3100000001,"ADDRESS":"後營３５５之６號","OBJECTID":21811},"geometry":{"x":170257.23000000138,"y":2559989.3100000024}},{"attributes":{"ID":21812,"DIS_CODE":0,"TOWNNAME":"西港區","LI":"後營里","LIN":"17鄰","STREET":" ","SECT":" ","MAREA":"後營","LANE":" ","ALLEY":" ","HOUSE_NO":"３５７號","E_COORD97":170228.04000000001,"N_COORD97":2559969.96,"ADDRESS":"後營３５７號","OBJECTID":21812},"geometry":{"x":170228.04000000004,"y":2559969.9600000009}},{"attributes":{"ID":21813,"DIS_CODE":0,"TOWNNAME":"西港區","LI":"後營里","LIN":"17鄰","STREET":" ","SECT":" ","MAREA":"後營","LANE":" ","ALLEY":" ","HOUSE_NO":"３６０之２號","E_COORD97":170189.56,"N_COORD97":2559942.0699999998,"ADDRESS":"後營３６０之２號","OBJECTID":21813},"geometry":{"x":170189.56000000052,"y":2559942.070000004}},{"attributes":{"ID":21814,"DIS_CODE":0,"TOWNNAME":"西港區","LI":"後營里","LIN":"17鄰","STREET":" ","SECT":" ","MAREA":"後營","LANE":" ","ALLEY":" ","HOUSE_NO":"３６０之３號","E_COORD97":170183.57000000001,"N_COORD97":2559938.6499999999,"ADDRESS":"後營３６０之３號","OBJECTID":21814},"geometry":{"x":170183.57000000123,"y":2559938.6500000022}},{"attributes":{"ID":21815,"DIS_CODE":0,"TOWNNAME":"東區","LI":"忠孝里","LIN":"24鄰","STREET":"崇明四街","SECT":" ","MAREA":" ","LANE":" ","ALLEY":" ","HOUSE_NO":"１０號","E_COORD97":169580.29999999999,"N_COORD97":2542274.8900000001,"ADDRESS":"崇明四街１０號","OBJECTID":21815},"geometry":{"x":169580.29999999981,"y":2542274.8900000006}},{"attributes":{"ID":21816,"DIS_CODE":0,"TOWNNAME":"東區","LI":"忠孝里","LIN":"24鄰","STREET":"崇明四街","SECT":" ","MAREA":" ","LANE":" ","ALLEY":" ","HOUSE_NO":"４號","E_COORD97":169565.39000000001,"N_COORD97":2542269.7200000002,"ADDRESS":"崇明四街４號","OBJECTID":21816},"geometry":{"x":169565.3900000006,"y":2542269.7200000007}},{"attributes":{"ID":21817,"DIS_CODE":0,"TOWNNAME":"西港區","LI":"後營里","LIN":"17鄰","STREET":" ","SECT":" ","MAREA":"後營","LANE":" ","ALLEY":" ","HOUSE_NO":"３６０號","E_COORD97":170208.07000000001,"N_COORD97":2559933.5699999998,"ADDRESS":"後營３６０號","OBJECTID":21817},"geometry":{"x":170208.0700000003,"y":2559933.5700000003}},{"attributes":{"ID":21818,"DIS_CODE":0,"TOWNNAME":"中西區","LI":"光賢里","LIN":"14鄰","STREET":"武聖路","SECT":" ","MAREA":" ","LANE":"６９巷","ALLEY":"４０弄","HOUSE_NO":"３０號六樓之１３","E_COORD97":166628.06,"N_COORD97":2545203.8599999999,"ADDRESS":"武聖路６９巷４０弄３０號六樓之１３","OBJECTID":21818},"geometry":{"x":166628.06000000052,"y":2545203.8599999994}},{"attributes":{"ID":21819,"DIS_CODE":0,"TOWNNAME":"西港區","LI":"後營里","LIN":"17鄰","STREET":" ","SECT":" ","MAREA":"後營","LANE":" ","ALLEY":" ","HOUSE_NO":"３６１號之１","E_COORD97":170151.20000000001,"N_COORD97":2559921.25,"ADDRESS":"後營３６１號之１","OBJECTID":21819},"geometry":{"x":170151.20000000019,"y":2559921.2500000019}},{"attributes":{"ID":21820,"DIS_CODE":0,"TOWNNAME":"西港區","LI":"後營里","LIN":"17鄰","STREET":" ","SECT":" ","MAREA":"後營","LANE":" ","ALLEY":" ","HOUSE_NO":"３６１號","E_COORD97":170155.54999999999,"N_COORD97":2559923.5299999998,"ADDRESS":"後營３６１號","OBJECTID":21820},"geometry":{"x":170155.55000000168,"y":2559923.5299999993}},{"attributes":{"ID":21821,"DIS_CODE":0,"TOWNNAME":"新市區","LI":"大營里","LIN":"17鄰","STREET":" ","SECT":" ","MAREA":"大營","LANE":" ","ALLEY":" ","HOUSE_NO":"３３１之２號","E_COORD97":179125.98000000001,"N_COORD97":2554838.7999999998,"ADDRESS":"大營３３１之２號","OBJECTID":21821},"geometry":{"x":179125.98000000231,"y":2554838.8000000026}},{"attributes":{"ID":21822,"DIS_CODE":0,"TOWNNAME":"新市區","LI":"大營里","LIN":"17鄰","STREET":" ","SECT":" ","MAREA":"大營","LANE":" ","ALLEY":" ","HOUSE_NO":"３３１號","E_COORD97":179136.88,"N_COORD97":2554906,"ADDRESS":"大營３３１號","OBJECTID":21822},"geometry":{"x":179136.88000000082,"y":2554906}},{"attributes":{"ID":21823,"DIS_CODE":0,"TOWNNAME":"北區","LI":"華興里","LIN":"1鄰","STREET":"開南街","SECT":" ","MAREA":" ","LANE":" ","ALLEY":" ","HOUSE_NO":"５號","E_COORD97":170296.16,"N_COORD97":2545392.8599999999,"ADDRESS":"開南街５號","OBJECTID":21823},"geometry":{"x":170296.16000000108,"y":2545392.8599999994}},{"attributes":{"ID":21824,"DIS_CODE":0,"TOWNNAME":"中西區","LI":"光賢里","LIN":"14鄰","STREET":"武聖路","SECT":" ","MAREA":" ","LANE":"６９巷","ALLEY":"４０弄","HOUSE_NO":"３０號六樓之１４","E_COORD97":166628.06,"N_COORD97":2545203.8599999999,"ADDRESS":"武聖路６９巷４０弄３０號六樓之１４","OBJECTID":21824},"geometry":{"x":166628.06000000052,"y":2545203.8599999994}},{"attributes":{"ID":21825,"DIS_CODE":0,"TOWNNAME":"新市區","LI":"大營里","LIN":"17鄰","STREET":" ","SECT":" ","MAREA":"大營","LANE":" ","ALLEY":" ","HOUSE_NO":"３１２號","E_COORD97":179287.63,"N_COORD97":2555396.75,"ADDRESS":"大營３１２號","OBJECTID":21825},"geometry":{"x":179287.63000000082,"y":2555396.75}},{"attributes":{"ID":21826,"DIS_CODE":0,"TOWNNAME":"中西區","LI":"光賢里","LIN":"14鄰","STREET":"武聖路","SECT":" ","MAREA":" ","LANE":"６９巷","ALLEY":"４０弄","HOUSE_NO":"３０號六樓之１５","E_COORD97":166628.06,"N_COORD97":2545203.8599999999,"ADDRESS":"武聖路６９巷４０弄３０號六樓之１５","OBJECTID":21826},"geometry":{"x":166628.06000000052,"y":2545203.8599999994}},{"attributes":{"ID":21827,"DIS_CODE":0,"TOWNNAME":"新市區","LI":"大營里","LIN":"17鄰","STREET":" ","SECT":" ","MAREA":"大營","LANE":" ","ALLEY":" ","HOUSE_NO":"３２５號","E_COORD97":179140.89999999999,"N_COORD97":2555273.5,"ADDRESS":"大營３２５號","OBJECTID":21827},"geometry":{"x":179140.90000000037,"y":2555273.5000000037}},{"attributes":{"ID":21828,"DIS_CODE":0,"TOWNNAME":"中西區","LI":"光賢里","LIN":"14鄰","STREET":"武聖路","SECT":" ","MAREA":" ","LANE":"６９巷","ALLEY":"４０弄","HOUSE_NO":"３０號六樓之１６","E_COORD97":166628.06,"N_COORD97":2545203.8599999999,"ADDRESS":"武聖路６９巷４０弄３０號六樓之１６","OBJECTID":21828},"geometry":{"x":166628.06000000052,"y":2545203.8599999994}},{"attributes":{"ID":21829,"DIS_CODE":0,"TOWNNAME":"中西區","LI":"光賢里","LIN":"14鄰","STREET":"武聖路","SECT":" ","MAREA":" ","LANE":"６９巷","ALLEY":"４０弄","HOUSE_NO":"３０號六樓之１７","E_COORD97":166628.06,"N_COORD97":2545203.8599999999,"ADDRESS":"武聖路６９巷４０弄３０號六樓之１７","OBJECTID":21829},"geometry":{"x":166628.06000000052,"y":2545203.8599999994}},{"attributes":{"ID":21830,"DIS_CODE":0,"TOWNNAME":"新市區","LI":"大營里","LIN":"17鄰","STREET":" ","SECT":" ","MAREA":"大營","LANE":" ","ALLEY":" ","HOUSE_NO":"３２１號","E_COORD97":179236.45000000001,"N_COORD97":2555366,"ADDRESS":"大營３２１號","OBJECTID":21830},"geometry":{"x":179236.45000000112,"y":2555366.0000000019}},{"attributes":{"ID":21831,"DIS_CODE":0,"TOWNNAME":"新市區","LI":"大營里","LIN":"17鄰","STREET":" ","SECT":" ","MAREA":"大營","LANE":" ","ALLEY":" ","HOUSE_NO":"３０８之１號","E_COORD97":179231.95999999999,"N_COORD97":2555433.5499999998,"ADDRESS":"大營３０８之１號","OBJECTID":21831},"geometry":{"x":179231.95999999996,"y":2555433.5500000045}},{"attributes":{"ID":21832,"DIS_CODE":0,"TOWNNAME":"中西區","LI":"光賢里","LIN":"14鄰","STREET":"武聖路","SECT":" ","MAREA":" ","LANE":"６９巷","ALLEY":"４０弄","HOUSE_NO":"３０號六樓之１８","E_COORD97":166628.06,"N_COORD97":2545203.8599999999,"ADDRESS":"武聖路６９巷４０弄３０號六樓之１８","OBJECTID":21832},"geometry":{"x":166628.06000000052,"y":2545203.8599999994}},{"attributes":{"ID":21833,"DIS_CODE":0,"TOWNNAME":"中西區","LI":"光賢里","LIN":"14鄰","STREET":"武聖路","SECT":" ","MAREA":" ","LANE":"６９巷","ALLEY":"４０弄","HOUSE_NO":"３０號六樓之１９","E_COORD97":166628.06,"N_COORD97":2545203.8599999999,"ADDRESS":"武聖路６９巷４０弄３０號六樓之１９","OBJECTID":21833},"geometry":{"x":166628.06000000052,"y":2545203.8599999994}},{"attributes":{"ID":21834,"DIS_CODE":0,"TOWNNAME":"中西區","LI":"光賢里","LIN":"14鄰","STREET":"武聖路","SECT":" ","MAREA":" ","LANE":"６９巷","ALLEY":"４０弄","HOUSE_NO":"３０號六樓之２","E_COORD97":166628.06,"N_COORD97":2545203.8599999999,"ADDRESS":"武聖路６９巷４０弄３０號六樓之２","OBJECTID":21834},"geometry":{"x":166628.06000000052,"y":2545203.8599999994}},{"attributes":{"ID":21835,"DIS_CODE":0,"TOWNNAME":"中西區","LI":"光賢里","LIN":"14鄰","STREET":"武聖路","SECT":" ","MAREA":" ","LANE":"６９巷","ALLEY":"４０弄","HOUSE_NO":"３０號六樓之３","E_COORD97":166628.06,"N_COORD97":2545203.8599999999,"ADDRESS":"武聖路６９巷４０弄３０號六樓之３","OBJECTID":21835},"geometry":{"x":166628.06000000052,"y":2545203.8599999994}},{"attributes":{"ID":21836,"DIS_CODE":0,"TOWNNAME":"中西區","LI":"光賢里","LIN":"14鄰","STREET":"武聖路","SECT":" ","MAREA":" ","LANE":"６９巷","ALLEY":"４０弄","HOUSE_NO":"３０號六樓之４","E_COORD97":166628.06,"N_COORD97":2545203.8599999999,"ADDRESS":"武聖路６９巷４０弄３０號六樓之４","OBJECTID":21836},"geometry":{"x":166628.06000000052,"y":2545203.8599999994}},{"attributes":{"ID":21837,"DIS_CODE":0,"TOWNNAME":"永康區","LI":"西灣里","LIN":"24鄰","STREET":"永大路","SECT":"二段","MAREA":" ","LANE":" ","ALLEY":" ","HOUSE_NO":"２７９號","E_COORD97":174396.64999999999,"N_COORD97":2545528.6600000001,"ADDRESS":"永大路二段２７９號","OBJECTID":21837},"geometry":{"x":174396.64999999944,"y":2545528.6600000039}},{"attributes":{"ID":21838,"DIS_CODE":0,"TOWNNAME":"永康區","LI":"西橋里","LIN":"24鄰","STREET":"大橋三街","SECT":" ","MAREA":" ","LANE":" ","ALLEY":" ","HOUSE_NO":"６３號","E_COORD97":170603.76000000001,"N_COORD97":2546536.75,"ADDRESS":"大橋三街６３號","OBJECTID":21838},"geometry":{"x":170603.76000000071,"y":2546536.75}},{"attributes":{"ID":21839,"DIS_CODE":0,"TOWNNAME":"永康區","LI":"西灣里","LIN":"24鄰","STREET":"永大路","SECT":"二段","MAREA":" ","LANE":" ","ALLEY":" ","HOUSE_NO":"３２３號","E_COORD97":174423.57999999999,"N_COORD97":2545626.5299999998,"ADDRESS":"永大路二段３２３號","OBJECTID":21839},"geometry":{"x":174423.58000000007,"y":2545626.5299999993}},{"attributes":{"ID":21840,"DIS_CODE":0,"TOWNNAME":"永康區","LI":"西灣里","LIN":"24鄰","STREET":"永大路","SECT":"二段","MAREA":" ","LANE":" ","ALLEY":" ","HOUSE_NO":"２８１號","E_COORD97":174397.62,"N_COORD97":2545532.9100000001,"ADDRESS":"永大路二段２８１號","OBJECTID":21840},"geometry":{"x":174397.62000000011,"y":2545532.9100000001}},{"attributes":{"ID":21841,"DIS_CODE":0,"TOWNNAME":"新市區","LI":"大營里","LIN":"17鄰","STREET":" ","SECT":" ","MAREA":"大營","LANE":" ","ALLEY":" ","HOUSE_NO":"３１９號","E_COORD97":179247.60000000001,"N_COORD97":2555345.25,"ADDRESS":"大營３１９號","OBJECTID":21841},"geometry":{"x":179247.59999999963,"y":2555345.25}},{"attributes":{"ID":21842,"DIS_CODE":0,"TOWNNAME":"永康區","LI":"西灣里","LIN":"24鄰","STREET":"永大路","SECT":"二段","MAREA":" ","LANE":" ","ALLEY":" ","HOUSE_NO":"３２１號","E_COORD97":174422.69,"N_COORD97":2545622.7799999998,"ADDRESS":"永大路二段３２１號","OBJECTID":21842},"geometry":{"x":174422.69000000134,"y":2545622.7800000012}},{"attributes":{"ID":21843,"DIS_CODE":0,"TOWNNAME":"新市區","LI":"大營里","LIN":"17鄰","STREET":" ","SECT":" ","MAREA":"大營","LANE":" ","ALLEY":" ","HOUSE_NO":"３２３號","E_COORD97":179183.42999999999,"N_COORD97":2555357,"ADDRESS":"大營３２３號","OBJECTID":21843},"geometry":{"x":179183.43000000063,"y":2555357}},{"attributes":{"ID":21844,"DIS_CODE":0,"TOWNNAME":"永康區","LI":"西灣里","LIN":"24鄰","STREET":"國光七街","SECT":" ","MAREA":" ","LANE":" ","ALLEY":" ","HOUSE_NO":"２號之３","E_COORD97":174357.04999999999,"N_COORD97":2545522.0499999998,"ADDRESS":"國光七街２號之３","OBJECTID":21844},"geometry":{"x":174357.04999999981,"y":2545522.0500000007}},{"attributes":{"ID":21845,"DIS_CODE":0,"TOWNNAME":"永康區","LI":"\u25A0洲里","LIN":"24鄰","STREET":"中正南路","SECT":" ","MAREA":" ","LANE":" ","ALLEY":" ","HOUSE_NO":"４８１號","E_COORD97":170875.67999999999,"N_COORD97":2548140.3999999999,"ADDRESS":"中正南路４８１號","OBJECTID":21845},"geometry":{"x":170875.68000000063,"y":2548140.4000000004}},{"attributes":{"ID":21846,"DIS_CODE":0,"TOWNNAME":"永康區","LI":"\u25A0洲里","LIN":"24鄰","STREET":"中正南路","SECT":" ","MAREA":" ","LANE":" ","ALLEY":" ","HOUSE_NO":"４８３號","E_COORD97":170878.17999999999,"N_COORD97":2548143.1499999999,"ADDRESS":"中正南路４８３號","OBJECTID":21846},"geometry":{"x":170878.17999999877,"y":2548143.1500000041}},{"attributes":{"ID":21847,"DIS_CODE":0,"TOWNNAME":"永康區","LI":"\u25A0行里","LIN":"24鄰","STREET":"中正南路","SECT":" ","MAREA":" ","LANE":" ","ALLEY":" ","HOUSE_NO":"６４０號","E_COORD97":171502.64999999999,"N_COORD97":2548745.7400000002,"ADDRESS":"中正南路６４０號","OBJECTID":21847},"geometry":{"x":171502.65000000037,"y":2548745.7400000039}},{"attributes":{"ID":21848,"DIS_CODE":0,"TOWNNAME":"永康區","LI":"\u25A0洲里","LIN":"24鄰","STREET":"正南二街","SECT":" ","MAREA":" ","LANE":" ","ALLEY":" ","HOUSE_NO":"１０６號","E_COORD97":170698.35999999999,"N_COORD97":2548419.3500000001,"ADDRESS":"正南二街１０６號","OBJECTID":21848},"geometry":{"x":170698.36000000127,"y":2548419.3500000015}},{"attributes":{"ID":21849,"DIS_CODE":0,"TOWNNAME":"麻豆區","LI":"南勢里","LIN":"24鄰","STREET":" ","SECT":" ","MAREA":"南勢","LANE":" ","ALLEY":" ","HOUSE_NO":"７５號之１","E_COORD97":174832.95999999999,"N_COORD97":2564894.0499999998,"ADDRESS":"南勢７５號之１","OBJECTID":21849},"geometry":{"x":174832.95999999996,"y":2564894.0500000026}},{"attributes":{"ID":21850,"DIS_CODE":0,"TOWNNAME":"麻豆區","LI":"南勢里","LIN":"24鄰","STREET":" ","SECT":" ","MAREA":"南勢","LANE":" ","ALLEY":" ","HOUSE_NO":"７５號之２","E_COORD97":174820.14999999999,"N_COORD97":2564910.6699999999,"ADDRESS":"南勢７５號之２","OBJECTID":21850},"geometry":{"x":174820.15000000037,"y":2564910.6699999999}},{"attributes":{"ID":21851,"DIS_CODE":0,"TOWNNAME":"中西區","LI":"光賢里","LIN":"14鄰","STREET":"武聖路","SECT":" ","MAREA":" ","LANE":"６９巷","ALLEY":"４０弄","HOUSE_NO":"３０號六樓之５","E_COORD97":166628.06,"N_COORD97":2545203.8599999999,"ADDRESS":"武聖路６９巷４０弄３０號六樓之５","OBJECTID":21851},"geometry":{"x":166628.06000000052,"y":2545203.8599999994}},{"attributes":{"ID":21852,"DIS_CODE":0,"TOWNNAME":"中西區","LI":"光賢里","LIN":"14鄰","STREET":"武聖路","SECT":" ","MAREA":" ","LANE":"６９巷","ALLEY":"４０弄","HOUSE_NO":"３０號六樓之６","E_COORD97":166628.06,"N_COORD97":2545203.8599999999,"ADDRESS":"武聖路６９巷４０弄３０號六樓之６","OBJECTID":21852},"geometry":{"x":166628.06000000052,"y":2545203.8599999994}},{"attributes":{"ID":21853,"DIS_CODE":0,"TOWNNAME":"麻豆區","LI":"南勢里","LIN":"24鄰","STREET":" ","SECT":" ","MAREA":"南勢","LANE":" ","ALLEY":" ","HOUSE_NO":"７５號","E_COORD97":174798.88,"N_COORD97":2564900.48,"ADDRESS":"南勢７５號","OBJECTID":21853},"geometry":{"x":174798.88000000082,"y":2564900.4800000023}},{"attributes":{"ID":21854,"DIS_CODE":0,"TOWNNAME":"中西區","LI":"光賢里","LIN":"14鄰","STREET":"武聖路","SECT":" ","MAREA":" ","LANE":"６９巷","ALLEY":"４０弄","HOUSE_NO":"３０號六樓之７","E_COORD97":166628.06,"N_COORD97":2545203.8599999999,"ADDRESS":"武聖路６９巷４０弄３０號六樓之７","OBJECTID":21854},"geometry":{"x":166628.06000000052,"y":2545203.8599999994}},{"attributes":{"ID":21855,"DIS_CODE":0,"TOWNNAME":"中西區","LI":"光賢里","LIN":"14鄰","STREET":"武聖路","SECT":" ","MAREA":" ","LANE":"６９巷","ALLEY":"４０弄","HOUSE_NO":"３０號六樓之８","E_COORD97":166628.06,"N_COORD97":2545203.8599999999,"ADDRESS":"武聖路６９巷４０弄３０號六樓之８","OBJECTID":21855},"geometry":{"x":166628.06000000052,"y":2545203.8599999994}},{"attributes":{"ID":21856,"DIS_CODE":0,"TOWNNAME":"麻豆區","LI":"南勢里","LIN":"24鄰","STREET":" ","SECT":" ","MAREA":"南勢","LANE":" ","ALLEY":" ","HOUSE_NO":"７６號","E_COORD97":174787.92000000001,"N_COORD97":2564906.5800000001,"ADDRESS":"南勢７６號","OBJECTID":21856},"geometry":{"x":174787.92000000086,"y":2564906.5800000019}},{"attributes":{"ID":21857,"DIS_CODE":0,"TOWNNAME":"中西區","LI":"光賢里","LIN":"14鄰","STREET":"武聖路","SECT":" ","MAREA":" ","LANE":"６９巷","ALLEY":"４０弄","HOUSE_NO":"３０號六樓之９","E_COORD97":166628.06,"N_COORD97":2545203.8599999999,"ADDRESS":"武聖路６９巷４０弄３０號六樓之９","OBJECTID":21857},"geometry":{"x":166628.06000000052,"y":2545203.8599999994}},{"attributes":{"ID":21858,"DIS_CODE":0,"TOWNNAME":"永康區","LI":"\u25A0洲里","LIN":"24鄰","STREET":"正南二街","SECT":" ","MAREA":" ","LANE":" ","ALLEY":" ","HOUSE_NO":"１００號","E_COORD97":170710.76000000001,"N_COORD97":2548408.6000000001,"ADDRESS":"正南二街１００號","OBJECTID":21858},"geometry":{"x":170710.76000000071,"y":2548408.6000000015}},{"attributes":{"ID":21859,"DIS_CODE":0,"TOWNNAME":"麻豆區","LI":"南勢里","LIN":"24鄰","STREET":" ","SECT":" ","MAREA":"南勢","LANE":" ","ALLEY":" ","HOUSE_NO":"７７號","E_COORD97":174798.20000000001,"N_COORD97":2564947.1099999999,"ADDRESS":"南勢７７號","OBJECTID":21859},"geometry":{"x":174798.20000000112,"y":2564947.1099999994}},{"attributes":{"ID":21860,"DIS_CODE":0,"TOWNNAME":"麻豆區","LI":"南勢里","LIN":"24鄰","STREET":" ","SECT":" ","MAREA":"南勢","LANE":" ","ALLEY":" ","HOUSE_NO":"７９號之１","E_COORD97":174697.39000000001,"N_COORD97":2564989.1600000001,"ADDRESS":"南勢７９號之１","OBJECTID":21860},"geometry":{"x":174697.38999999966,"y":2564989.1599999983}},{"attributes":{"ID":21861,"DIS_CODE":0,"TOWNNAME":"麻豆區","LI":"南勢里","LIN":"24鄰","STREET":" ","SECT":" ","MAREA":"南勢","LANE":" ","ALLEY":" ","HOUSE_NO":"７９號","E_COORD97":174712.51999999999,"N_COORD97":2564955.3900000001,"ADDRESS":"南勢７９號","OBJECTID":21861},"geometry":{"x":174712.52000000048,"y":2564955.3900000025}},{"attributes":{"ID":21862,"DIS_CODE":0,"TOWNNAME":"麻豆區","LI":"南勢里","LIN":"24鄰","STREET":" ","SECT":" ","MAREA":"南勢","LANE":" ","ALLEY":" ","HOUSE_NO":"８１號之１","E_COORD97":174678.84,"N_COORD97":2564920.8900000001,"ADDRESS":"南勢８１號之１","OBJECTID":21862},"geometry":{"x":174678.83999999985,"y":2564920.8900000025}},{"attributes":{"ID":21863,"DIS_CODE":0,"TOWNNAME":"麻豆區","LI":"南勢里","LIN":"24鄰","STREET":" ","SECT":" ","MAREA":"南勢","LANE":" ","ALLEY":" ","HOUSE_NO":"８１號","E_COORD97":174686.57000000001,"N_COORD97":2564949.25,"ADDRESS":"南勢８１號","OBJECTID":21863},"geometry":{"x":174686.5700000003,"y":2564949.2500000019}},{"attributes":{"ID":21864,"DIS_CODE":0,"TOWNNAME":"永康區","LI":"\u25A0洲里","LIN":"24鄰","STREET":"中正南路","SECT":" ","MAREA":" ","LANE":" ","ALLEY":" ","HOUSE_NO":"５２３號","E_COORD97":170948.62,"N_COORD97":2548229.2400000002,"ADDRESS":"中正南路５２３號","OBJECTID":21864},"geometry":{"x":170948.62000000197,"y":2548229.2400000002}},{"attributes":{"ID":21865,"DIS_CODE":0,"TOWNNAME":"永康區","LI":"\u25A0洲里","LIN":"24鄰","STREET":"中正南路","SECT":" ","MAREA":" ","LANE":" ","ALLEY":" ","HOUSE_NO":"４８５號","E_COORD97":170881.26999999999,"N_COORD97":2548146.3999999999,"ADDRESS":"中正南路４８５號","OBJECTID":21865},"geometry":{"x":170881.27000000048,"y":2548146.4000000004}},{"attributes":{"ID":21866,"DIS_CODE":0,"TOWNNAME":"永康區","LI":"網寮里","LIN":"24鄰","STREET":"永大一路","SECT":" ","MAREA":" ","LANE":" ","ALLEY":" ","HOUSE_NO":"２０２號","E_COORD97":173770.51000000001,"N_COORD97":2546351.9399999999,"ADDRESS":"永大一路２０２號","OBJECTID":21866},"geometry":{"x":173770.51000000071,"y":2546351.9399999995}},{"attributes":{"ID":21867,"DIS_CODE":0,"TOWNNAME":"永康區","LI":"網寮里","LIN":"24鄰","STREET":"永大一路","SECT":" ","MAREA":" ","LANE":" ","ALLEY":" ","HOUSE_NO":"２００號","E_COORD97":173774.76999999999,"N_COORD97":2546353.1899999999,"ADDRESS":"永大一路２００號","OBJECTID":21867},"geometry":{"x":173774.77000000048,"y":2546353.1900000013}},{"attributes":{"ID":21868,"DIS_CODE":0,"TOWNNAME":"麻豆區","LI":"南勢里","LIN":"24鄰","STREET":" ","SECT":" ","MAREA":"南勢","LANE":" ","ALLEY":" ","HOUSE_NO":"８２號之２","E_COORD97":174576.62,"N_COORD97":2565009.29,"ADDRESS":"南勢８２號之２","OBJECTID":21868},"geometry":{"x":174576.62000000104,"y":2565009.290000001}},{"attributes":{"ID":21869,"DIS_CODE":0,"TOWNNAME":"麻豆區","LI":"南勢里","LIN":"24鄰","STREET":" ","SECT":" ","MAREA":"南勢","LANE":" ","ALLEY":" ","HOUSE_NO":"８４號之３","E_COORD97":174723.14000000001,"N_COORD97":2565077.71,"ADDRESS":"南勢８４號之３","OBJECTID":21869},"geometry":{"x":174723.13999999873,"y":2565077.7100000009}},{"attributes":{"ID":21870,"DIS_CODE":0,"TOWNNAME":"中西區","LI":"光賢里","LIN":"14鄰","STREET":"武聖路","SECT":" ","MAREA":" ","LANE":"６９巷","ALLEY":"４０弄","HOUSE_NO":"３０號四樓之１","E_COORD97":166628.06,"N_COORD97":2545203.8599999999,"ADDRESS":"武聖路６９巷４０弄３０號四樓之１","OBJECTID":21870},"geometry":{"x":166628.06000000052,"y":2545203.8599999994}},{"attributes":{"ID":21871,"DIS_CODE":0,"TOWNNAME":"麻豆區","LI":"南勢里","LIN":"24鄰","STREET":" ","SECT":" ","MAREA":"南勢","LANE":" ","ALLEY":" ","HOUSE_NO":"８４號之４","E_COORD97":174704.94,"N_COORD97":2565075.6000000001,"ADDRESS":"南勢８４號之４","OBJECTID":21871},"geometry":{"x":174704.93999999948,"y":2565075.6000000015}},{"attributes":{"ID":21872,"DIS_CODE":0,"TOWNNAME":"中西區","LI":"光賢里","LIN":"14鄰","STREET":"武聖路","SECT":" ","MAREA":" ","LANE":"６９巷","ALLEY":"４０弄","HOUSE_NO":"３０號四樓之１０","E_COORD97":166628.06,"N_COORD97":2545203.8599999999,"ADDRESS":"武聖路６９巷４０弄３０號四樓之１０","OBJECTID":21872},"geometry":{"x":166628.06000000052,"y":2545203.8599999994}},{"attributes":{"ID":21873,"DIS_CODE":0,"TOWNNAME":"中西區","LI":"光賢里","LIN":"14鄰","STREET":"武聖路","SECT":" ","MAREA":" ","LANE":"６９巷","ALLEY":"４０弄","HOUSE_NO":"３０號四樓之１１","E_COORD97":166628.06,"N_COORD97":2545203.8599999999,"ADDRESS":"武聖路６９巷４０弄３０號四樓之１１","OBJECTID":21873},"geometry":{"x":166628.06000000052,"y":2545203.8599999994}},{"attributes":{"ID":21874,"DIS_CODE":0,"TOWNNAME":"中西區","LI":"光賢里","LIN":"14鄰","STREET":"武聖路","SECT":" ","MAREA":" ","LANE":"６９巷","ALLEY":"４０弄","HOUSE_NO":"３０號四樓之１２","E_COORD97":166628.06,"N_COORD97":2545203.8599999999,"ADDRESS":"武聖路６９巷４０弄３０號四樓之１２","OBJECTID":21874},"geometry":{"x":166628.06000000052,"y":2545203.8599999994}},{"attributes":{"ID":21875,"DIS_CODE":0,"TOWNNAME":"中西區","LI":"光賢里","LIN":"14鄰","STREET":"武聖路","SECT":" ","MAREA":" ","LANE":"６９巷","ALLEY":"４０弄","HOUSE_NO":"３０號四樓之１３","E_COORD97":166628.06,"N_COORD97":2545203.8599999999,"ADDRESS":"武聖路６９巷４０弄３０號四樓之１３","OBJECTID":21875},"geometry":{"x":166628.06000000052,"y":2545203.8599999994}},{"attributes":{"ID":21876,"DIS_CODE":0,"TOWNNAME":"中西區","LI":"光賢里","LIN":"14鄰","STREET":"武聖路","SECT":" ","MAREA":" ","LANE":"６９巷","ALLEY":"４０弄","HOUSE_NO":"３０號四樓之１４","E_COORD97":166628.06,"N_COORD97":2545203.8599999999,"ADDRESS":"武聖路６９巷４０弄３０號四樓之１４","OBJECTID":21876},"geometry":{"x":166628.06000000052,"y":2545203.8599999994}},{"attributes":{"ID":21877,"DIS_CODE":0,"TOWNNAME":"中西區","LI":"光賢里","LIN":"14鄰","STREET":"武聖路","SECT":" ","MAREA":" ","LANE":"６９巷","ALLEY":"４０弄","HOUSE_NO":"３０號四樓之１５","E_COORD97":166628.06,"N_COORD97":2545203.8599999999,"ADDRESS":"武聖路６９巷４０弄３０號四樓之１５","OBJECTID":21877},"geometry":{"x":166628.06000000052,"y":2545203.8599999994}},{"attributes":{"ID":21878,"DIS_CODE":0,"TOWNNAME":"中西區","LI":"光賢里","LIN":"14鄰","STREET":"武聖路","SECT":" ","MAREA":" ","LANE":"６９巷","ALLEY":"４０弄","HOUSE_NO":"３０號四樓之１６","E_COORD97":166628.06,"N_COORD97":2545203.8599999999,"ADDRESS":"武聖路６９巷４０弄３０號四樓之１６","OBJECTID":21878},"geometry":{"x":166628.06000000052,"y":2545203.8599999994}},{"attributes":{"ID":21879,"DIS_CODE":0,"TOWNNAME":"中西區","LI":"光賢里","LIN":"14鄰","STREET":"武聖路","SECT":" ","MAREA":" ","LANE":"６９巷","ALLEY":"４０弄","HOUSE_NO":"３０號四樓之１７","E_COORD97":166628.06,"N_COORD97":2545203.8599999999,"ADDRESS":"武聖路６９巷４０弄３０號四樓之１７","OBJECTID":21879},"geometry":{"x":166628.06000000052,"y":2545203.8599999994}},{"attributes":{"ID":21880,"DIS_CODE":0,"TOWNNAME":"中西區","LI":"光賢里","LIN":"14鄰","STREET":"武聖路","SECT":" ","MAREA":" ","LANE":"６９巷","ALLEY":"４０弄","HOUSE_NO":"３０號四樓之１８","E_COORD97":166628.06,"N_COORD97":2545203.8599999999,"ADDRESS":"武聖路６９巷４０弄３０號四樓之１８","OBJECTID":21880},"geometry":{"x":166628.06000000052,"y":2545203.8599999994}},{"attributes":{"ID":21881,"DIS_CODE":0,"TOWNNAME":"麻豆區","LI":"南勢里","LIN":"24鄰","STREET":" ","SECT":" ","MAREA":"南勢","LANE":" ","ALLEY":" ","HOUSE_NO":"８４號之５","E_COORD97":174695.25,"N_COORD97":2565077.25,"ADDRESS":"南勢８４號之５","OBJECTID":21881},"geometry":{"x":174695.25,"y":2565077.2500000019}},{"attributes":{"ID":21882,"DIS_CODE":0,"TOWNNAME":"東區","LI":"忠孝里","LIN":"14鄰","STREET":"榮譽街","SECT":" ","MAREA":" ","LANE":"１２３巷","ALLEY":"１弄","HOUSE_NO":"１２號五樓","E_COORD97":169854.54000000001,"N_COORD97":2541794.96,"ADDRESS":"榮譽街１２３巷１弄１２號五樓","OBJECTID":21882},"geometry":{"x":169854.54000000097,"y":2541794.9600000028}},{"attributes":{"ID":21883,"DIS_CODE":0,"TOWNNAME":"中西區","LI":"光賢里","LIN":"14鄰","STREET":"武聖路","SECT":" ","MAREA":" ","LANE":"６９巷","ALLEY":"４０弄","HOUSE_NO":"３０號四樓之１９","E_COORD97":166628.06,"N_COORD97":2545203.8599999999,"ADDRESS":"武聖路６９巷４０弄３０號四樓之１９","OBJECTID":21883},"geometry":{"x":166628.06000000052,"y":2545203.8599999994}},{"attributes":{"ID":21884,"DIS_CODE":0,"TOWNNAME":"中西區","LI":"光賢里","LIN":"14鄰","STREET":"武聖路","SECT":" ","MAREA":" ","LANE":"６９巷","ALLEY":"４０弄","HOUSE_NO":"３０號四樓之２","E_COORD97":166628.06,"N_COORD97":2545203.8599999999,"ADDRESS":"武聖路６９巷４０弄３０號四樓之２","OBJECTID":21884},"geometry":{"x":166628.06000000052,"y":2545203.8599999994}},{"attributes":{"ID":21885,"DIS_CODE":0,"TOWNNAME":"麻豆區","LI":"南勢里","LIN":"24鄰","STREET":" ","SECT":" ","MAREA":"南勢","LANE":" ","ALLEY":" ","HOUSE_NO":"８４號之６","E_COORD97":174728.57999999999,"N_COORD97":2565068.5,"ADDRESS":"南勢８４號之６","OBJECTID":21885},"geometry":{"x":174728.58000000007,"y":2565068.5000000037}},{"attributes":{"ID":21886,"DIS_CODE":0,"TOWNNAME":"中西區","LI":"光賢里","LIN":"14鄰","STREET":"武聖路","SECT":" ","MAREA":" ","LANE":"６９巷","ALLEY":"４０弄","HOUSE_NO":"３０號四樓之２０","E_COORD97":166628.06,"N_COORD97":2545203.8599999999,"ADDRESS":"武聖路６９巷４０弄３０號四樓之２０","OBJECTID":21886},"geometry":{"x":166628.06000000052,"y":2545203.8599999994}},{"attributes":{"ID":21887,"DIS_CODE":0,"TOWNNAME":"中西區","LI":"光賢里","LIN":"14鄰","STREET":"武聖路","SECT":" ","MAREA":" ","LANE":"６９巷","ALLEY":"４０弄","HOUSE_NO":"３０號四樓之２１","E_COORD97":166628.06,"N_COORD97":2545203.8599999999,"ADDRESS":"武聖路６９巷４０弄３０號四樓之２１","OBJECTID":21887},"geometry":{"x":166628.06000000052,"y":2545203.8599999994}},{"attributes":{"ID":21888,"DIS_CODE":0,"TOWNNAME":"中西區","LI":"光賢里","LIN":"14鄰","STREET":"武聖路","SECT":" ","MAREA":" ","LANE":"６９巷","ALLEY":"４０弄","HOUSE_NO":"３０號四樓之３","E_COORD97":166628.06,"N_COORD97":2545203.8599999999,"ADDRESS":"武聖路６９巷４０弄３０號四樓之３","OBJECTID":21888},"geometry":{"x":166628.06000000052,"y":2545203.8599999994}},{"attributes":{"ID":21889,"DIS_CODE":0,"TOWNNAME":"新營區","LI":"忠政里","LIN":"20鄰","STREET":"府西路","SECT":" ","MAREA":" ","LANE":"２５７巷","ALLEY":" ","HOUSE_NO":"９號","E_COORD97":179754.17999999999,"N_COORD97":2579669.1499999999,"ADDRESS":"府西路２５７巷９號","OBJECTID":21889},"geometry":{"x":179754.17999999877,"y":2579669.1500000004}},{"attributes":{"ID":21890,"DIS_CODE":0,"TOWNNAME":"新營區","LI":"新南里","LIN":"20鄰","STREET":"復興路","SECT":" ","MAREA":" ","LANE":" ","ALLEY":" ","HOUSE_NO":"５３０號","E_COORD97":178198.63,"N_COORD97":2578318.8799999999,"ADDRESS":"復興路５３０號","OBJECTID":21890},"geometry":{"x":178198.63000000175,"y":2578318.8800000008}},{"attributes":{"ID":21891,"DIS_CODE":0,"TOWNNAME":"新營區","LI":"新南里","LIN":"13鄰","STREET":"長榮路","SECT":"二段","MAREA":" ","LANE":" ","ALLEY":" ","HOUSE_NO":"７７５號","E_COORD97":178477.06,"N_COORD97":2579207.9199999999,"ADDRESS":"長榮路二段７７５號","OBJECTID":21891},"geometry":{"x":178477.06000000052,"y":2579207.9200000018}},{"attributes":{"ID":21892,"DIS_CODE":0,"TOWNNAME":"麻豆區","LI":"南勢里","LIN":"24鄰","STREET":" ","SECT":" ","MAREA":"南勢","LANE":" ","ALLEY":" ","HOUSE_NO":"８４號之７","E_COORD97":174729.17999999999,"N_COORD97":2565064.0699999998,"ADDRESS":"南勢８４號之７","OBJECTID":21892},"geometry":{"x":174729.1799999997,"y":2565064.0700000003}},{"attributes":{"ID":21893,"DIS_CODE":0,"TOWNNAME":"中西區","LI":"光賢里","LIN":"14鄰","STREET":"武聖路","SECT":" ","MAREA":" ","LANE":"６９巷","ALLEY":"４０弄","HOUSE_NO":"３０號四樓之４","E_COORD97":166628.06,"N_COORD97":2545203.8599999999,"ADDRESS":"武聖路６９巷４０弄３０號四樓之４","OBJECTID":21893},"geometry":{"x":166628.06000000052,"y":2545203.8599999994}},{"attributes":{"ID":21894,"DIS_CODE":0,"TOWNNAME":"仁德區","LI":"仁愛里","LIN":"24鄰","STREET":" ","SECT":" ","MAREA":"仁愛","LANE":" ","ALLEY":" ","HOUSE_NO":"４９９號","E_COORD97":170017.97903700001,"N_COORD97":2540127.3362599998,"ADDRESS":"仁愛４９９號","OBJECTID":21894},"geometry":{"x":170017.97903700173,"y":2540127.3362610023}},{"attributes":{"ID":21895,"DIS_CODE":0,"TOWNNAME":"仁德區","LI":"仁愛里","LIN":"24鄰","STREET":" ","SECT":" ","MAREA":"仁愛","LANE":" ","ALLEY":" ","HOUSE_NO":"５１１號","E_COORD97":170045.38660299999,"N_COORD97":2540051.5254099998,"ADDRESS":"仁愛５１１號","OBJECTID":21895},"geometry":{"x":170045.38660300151,"y":2540051.525413001}},{"attributes":{"ID":21896,"DIS_CODE":0,"TOWNNAME":"中西區","LI":"光賢里","LIN":"14鄰","STREET":"武聖路","SECT":" ","MAREA":" ","LANE":"６９巷","ALLEY":"４０弄","HOUSE_NO":"３０號四樓之５","E_COORD97":166628.06,"N_COORD97":2545203.8599999999,"ADDRESS":"武聖路６９巷４０弄３０號四樓之５","OBJECTID":21896},"geometry":{"x":166628.06000000052,"y":2545203.8599999994}},{"attributes":{"ID":21897,"DIS_CODE":0,"TOWNNAME":"新市區","LI":"大社里","LIN":"17鄰","STREET":" ","SECT":" ","MAREA":"大社","LANE":" ","ALLEY":" ","HOUSE_NO":"７４２號","E_COORD97":180046.45999999999,"N_COORD97":2554250.5,"ADDRESS":"大社７４２號","OBJECTID":21897},"geometry":{"x":180046.46000000089,"y":2554250.5000000019}},{"attributes":{"ID":21898,"DIS_CODE":0,"TOWNNAME":"中西區","LI":"光賢里","LIN":"14鄰","STREET":"武聖路","SECT":" ","MAREA":" ","LANE":"６９巷","ALLEY":"４０弄","HOUSE_NO":"３０號四樓之６","E_COORD97":166628.06,"N_COORD97":2545203.8599999999,"ADDRESS":"武聖路６９巷４０弄３０號四樓之６","OBJECTID":21898},"geometry":{"x":166628.06000000052,"y":2545203.8599999994}},{"attributes":{"ID":21899,"DIS_CODE":0,"TOWNNAME":"中西區","LI":"光賢里","LIN":"14鄰","STREET":"武聖路","SECT":" ","MAREA":" ","LANE":"６９巷","ALLEY":"４０弄","HOUSE_NO":"３０號四樓之７","E_COORD97":166628.06,"N_COORD97":2545203.8599999999,"ADDRESS":"武聖路６９巷４０弄３０號四樓之７","OBJECTID":21899},"geometry":{"x":166628.06000000052,"y":2545203.8599999994}},{"attributes":{"ID":21900,"DIS_CODE":0,"TOWNNAME":"新市區","LI":"大營里","LIN":"17鄰","STREET":" ","SECT":" ","MAREA":"大營","LANE":" ","ALLEY":" ","HOUSE_NO":"３２２號","E_COORD97":179216.89999999999,"N_COORD97":2555389.25,"ADDRESS":"大營３２２號","OBJECTID":21900},"geometry":{"x":179216.9000000013,"y":2555389.25}},{"attributes":{"ID":21901,"DIS_CODE":0,"TOWNNAME":"中西區","LI":"光賢里","LIN":"14鄰","STREET":"武聖路","SECT":" ","MAREA":" ","LANE":"６９巷","ALLEY":"４０弄","HOUSE_NO":"３０號四樓之８","E_COORD97":166628.06,"N_COORD97":2545203.8599999999,"ADDRESS":"武聖路６９巷４０弄３０號四樓之８","OBJECTID":21901},"geometry":{"x":166628.06000000052,"y":2545203.8599999994}},{"attributes":{"ID":21902,"DIS_CODE":0,"TOWNNAME":"中西區","LI":"光賢里","LIN":"14鄰","STREET":"武聖路","SECT":" ","MAREA":" ","LANE":"６９巷","ALLEY":"４０弄","HOUSE_NO":"３０號四樓之９","E_COORD97":166628.06,"N_COORD97":2545203.8599999999,"ADDRESS":"武聖路６９巷４０弄３０號四樓之９","OBJECTID":21902},"geometry":{"x":166628.06000000052,"y":2545203.8599999994}},{"attributes":{"ID":21903,"DIS_CODE":0,"TOWNNAME":"永康區","LI":"神洲里","LIN":"14鄰","STREET":"忠孝路","SECT":" ","MAREA":" ","LANE":"７６巷","ALLEY":"６３弄","HOUSE_NO":"１７號二樓","E_COORD97":172238.72,"N_COORD97":2544998.2599999998,"ADDRESS":"忠孝路７６巷６３弄１７號二樓","OBJECTID":21903},"geometry":{"x":172238.71999999974,"y":2544998.2599999998}},{"attributes":{"ID":21904,"DIS_CODE":0,"TOWNNAME":"新市區","LI":"社內里","LIN":"17鄰","STREET":" ","SECT":" ","MAREA":"社內","LANE":" ","ALLEY":" ","HOUSE_NO":"１８３之１１號","E_COORD97":175998.39000000001,"N_COORD97":2552955.0499999998,"ADDRESS":"社內１８３之１１號","OBJECTID":21904},"geometry":{"x":175998.3900000006,"y":2552955.0500000045}},{"attributes":{"ID":21905,"DIS_CODE":0,"TOWNNAME":"新市區","LI":"社內里","LIN":"17鄰","STREET":" ","SECT":" ","MAREA":"社內","LANE":" ","ALLEY":" ","HOUSE_NO":"１８３號","E_COORD97":175959.04000000001,"N_COORD97":2552948.25,"ADDRESS":"社內１８３號","OBJECTID":21905},"geometry":{"x":175959.04000000097,"y":2552948.25}},{"attributes":{"ID":21906,"DIS_CODE":0,"TOWNNAME":"永康區","LI":"五王里","LIN":"14鄰","STREET":"中華二路","SECT":" ","MAREA":" ","LANE":"２０６巷","ALLEY":"６８弄","HOUSE_NO":"５１號五樓之２","E_COORD97":171637.81,"N_COORD97":2545715.3399999999,"ADDRESS":"中華二路２０６巷６８弄５１號五樓之２","OBJECTID":21906},"geometry":{"x":171637.80999999959,"y":2545715.3399999999}},{"attributes":{"ID":21907,"DIS_CODE":0,"TOWNNAME":"新市區","LI":"社內里","LIN":"17鄰","STREET":" ","SECT":" ","MAREA":"社內","LANE":" ","ALLEY":" ","HOUSE_NO":"１７８號","E_COORD97":176041.82999999999,"N_COORD97":2552912.5,"ADDRESS":"社內１７８號","OBJECTID":21907},"geometry":{"x":176041.83000000101,"y":2552912.5}},{"attributes":{"ID":21908,"DIS_CODE":0,"TOWNNAME":"永康區","LI":"五王里","LIN":"14鄰","STREET":"中華二路","SECT":" ","MAREA":" ","LANE":"２０６巷","ALLEY":"６８弄","HOUSE_NO":"５９號三樓之３","E_COORD97":171642.53,"N_COORD97":2545698.0899999999,"ADDRESS":"中華二路２０６巷６８弄５９號三樓之３","OBJECTID":21908},"geometry":{"x":171642.53000000026,"y":2545698.089999998}},{"attributes":{"ID":21909,"DIS_CODE":0,"TOWNNAME":"新市區","LI":"社內里","LIN":"17鄰","STREET":" ","SECT":" ","MAREA":"社內","LANE":" ","ALLEY":" ","HOUSE_NO":"１８３之３６號","E_COORD97":175989.39000000001,"N_COORD97":2552937.5499999998,"ADDRESS":"社內１８３之３６號","OBJECTID":21909},"geometry":{"x":175989.38999999966,"y":2552937.5500000007}},{"attributes":{"ID":21910,"DIS_CODE":0,"TOWNNAME":"永康區","LI":"五王里","LIN":"14鄰","STREET":"中華二路","SECT":" ","MAREA":" ","LANE":"２０６巷","ALLEY":"６８弄","HOUSE_NO":"６７號四樓之３","E_COORD97":171647.28,"N_COORD97":2545680.5899999999,"ADDRESS":"中華二路２０６巷６８弄６７號四樓之３","OBJECTID":21910},"geometry":{"x":171647.28000000026,"y":2545680.5899999999}},{"attributes":{"ID":21911,"DIS_CODE":0,"TOWNNAME":"仁德區","LI":"仁義里","LIN":"24鄰","STREET":"中清路","SECT":" ","MAREA":" ","LANE":" ","ALLEY":" ","HOUSE_NO":"１３３號","E_COORD97":173715.81,"N_COORD97":2541453.5499999998,"ADDRESS":"中清路１３３號","OBJECTID":21911},"geometry":{"x":173715.81000000052,"y":2541453.5500000007}},{"attributes":{"ID":21912,"DIS_CODE":0,"TOWNNAME":"新市區","LI":"社內里","LIN":"17鄰","STREET":" ","SECT":" ","MAREA":"社內","LANE":" ","ALLEY":" ","HOUSE_NO":"１７８之９號","E_COORD97":176035.76000000001,"N_COORD97":2552991.0499999998,"ADDRESS":"社內１７８之９號","OBJECTID":21912},"geometry":{"x":176035.75999999978,"y":2552991.0500000007}},{"attributes":{"ID":21913,"DIS_CODE":0,"TOWNNAME":"新市區","LI":"社內里","LIN":"17鄰","STREET":" ","SECT":" ","MAREA":"社內","LANE":" ","ALLEY":" ","HOUSE_NO":"１８３之９號","E_COORD97":175993.20000000001,"N_COORD97":2552954.7999999998,"ADDRESS":"社內１８３之９號","OBJECTID":21913},"geometry":{"x":175993.20000000112,"y":2552954.8000000026}},{"attributes":{"ID":21914,"DIS_CODE":0,"TOWNNAME":"新市區","LI":"社內里","LIN":"17鄰","STREET":" ","SECT":" ","MAREA":"社內","LANE":" ","ALLEY":" ","HOUSE_NO":"１８４之６６號","E_COORD97":175346.45000000001,"N_COORD97":2552686.7999999998,"ADDRESS":"社內１８４之６６號","OBJECTID":21914},"geometry":{"x":175346.45000000019,"y":2552686.8000000026}},{"attributes":{"ID":21915,"DIS_CODE":0,"TOWNNAME":"新市區","LI":"社內里","LIN":"17鄰","STREET":" ","SECT":" ","MAREA":"社內","LANE":" ","ALLEY":" ","HOUSE_NO":"１８２號","E_COORD97":175978.57999999999,"N_COORD97":2553014,"ADDRESS":"社內１８２號","OBJECTID":21915},"geometry":{"x":175978.58000000194,"y":2553014}},{"attributes":{"ID":21916,"DIS_CODE":0,"TOWNNAME":"新市區","LI":"社內里","LIN":"17鄰","STREET":" ","SECT":" ","MAREA":"社內","LANE":" ","ALLEY":" ","HOUSE_NO":"１７４號","E_COORD97":176093.84,"N_COORD97":2552875.25,"ADDRESS":"社內１７４號","OBJECTID":21916},"geometry":{"x":176093.84000000078,"y":2552875.2500000019}},{"attributes":{"ID":21917,"DIS_CODE":0,"TOWNNAME":"新市區","LI":"社內里","LIN":"17鄰","STREET":" ","SECT":" ","MAREA":"社內","LANE":" ","ALLEY":" ","HOUSE_NO":"１７８之６號","E_COORD97":176033.25,"N_COORD97":2552964.0499999998,"ADDRESS":"社內１７８之６號","OBJECTID":21917},"geometry":{"x":176033.25000000186,"y":2552964.0500000007}},{"attributes":{"ID":21918,"DIS_CODE":0,"TOWNNAME":"新市區","LI":"社內里","LIN":"17鄰","STREET":" ","SECT":" ","MAREA":"社內","LANE":" ","ALLEY":" ","HOUSE_NO":"１８１號","E_COORD97":175996.04000000001,"N_COORD97":2553007.25,"ADDRESS":"社內１８１號","OBJECTID":21918},"geometry":{"x":175996.04000000097,"y":2553007.2500000037}},{"attributes":{"ID":21919,"DIS_CODE":0,"TOWNNAME":"新市區","LI":"社內里","LIN":"17鄰","STREET":" ","SECT":" ","MAREA":"社內","LANE":" ","ALLEY":" ","HOUSE_NO":"１８３之１３號","E_COORD97":176002.95000000001,"N_COORD97":2552955.2999999998,"ADDRESS":"社內１８３之１３號","OBJECTID":21919},"geometry":{"x":176002.95000000019,"y":2552955.3000000007}},{"attributes":{"ID":21920,"DIS_CODE":0,"TOWNNAME":"新市區","LI":"社內里","LIN":"17鄰","STREET":" ","SECT":" ","MAREA":"社內","LANE":" ","ALLEY":" ","HOUSE_NO":"１８１之６號","E_COORD97":176015.54000000001,"N_COORD97":2552994.7999999998,"ADDRESS":"社內１８１之６號","OBJECTID":21920},"geometry":{"x":176015.54000000004,"y":2552994.8000000026}},{"attributes":{"ID":21921,"DIS_CODE":0,"TOWNNAME":"新市區","LI":"社內里","LIN":"17鄰","STREET":" ","SECT":" ","MAREA":"社內","LANE":" ","ALLEY":" ","HOUSE_NO":"１８１之８號","E_COORD97":176015.84,"N_COORD97":2552989.5499999998,"ADDRESS":"社內１８１之８號","OBJECTID":21921},"geometry":{"x":176015.84000000078,"y":2552989.5500000026}},{"attributes":{"ID":21922,"DIS_CODE":0,"TOWNNAME":"北區","LI":"六甲里","LIN":"4鄰","STREET":"公園路","SECT":" ","MAREA":" ","LANE":" ","ALLEY":" ","HOUSE_NO":"５４３號","E_COORD97":169072.51000000001,"N_COORD97":2545617.3399999999,"ADDRESS":"公園路５４３號","OBJECTID":21922},"geometry":{"x":169072.51000000164,"y":2545617.3399999999}},{"attributes":{"ID":21923,"DIS_CODE":0,"TOWNNAME":"永康區","LI":"神洲里","LIN":"14鄰","STREET":"忠孝路","SECT":" ","MAREA":" ","LANE":"７６巷","ALLEY":"６３弄","HOUSE_NO":"２７號四樓","E_COORD97":172210.88,"N_COORD97":2545021.1000000001,"ADDRESS":"忠孝路７６巷６３弄２７號四樓","OBJECTID":21923},"geometry":{"x":172210.87999999989,"y":2545021.1000000015}},{"attributes":{"ID":21924,"DIS_CODE":0,"TOWNNAME":"永康區","LI":"神洲里","LIN":"14鄰","STREET":"忠孝路","SECT":" ","MAREA":" ","LANE":"７６巷","ALLEY":"６３弄","HOUSE_NO":"２７號二樓","E_COORD97":172210.88,"N_COORD97":2545021.1000000001,"ADDRESS":"忠孝路７６巷６３弄２７號二樓","OBJECTID":21924},"geometry":{"x":172210.87999999989,"y":2545021.1000000015}},{"attributes":{"ID":21925,"DIS_CODE":0,"TOWNNAME":"永康區","LI":"神洲里","LIN":"14鄰","STREET":"忠孝路","SECT":" ","MAREA":" ","LANE":"７６巷","ALLEY":"４９弄","HOUSE_NO":"４號三樓","E_COORD97":172208.23000000001,"N_COORD97":2545008.1000000001,"ADDRESS":"忠孝路７６巷４９弄４號三樓","OBJECTID":21925},"geometry":{"x":172208.23000000138,"y":2545008.0999999996}},{"attributes":{"ID":21926,"DIS_CODE":0,"TOWNNAME":"永康區","LI":"神洲里","LIN":"14鄰","STREET":"忠孝路","SECT":" ","MAREA":" ","LANE":"７６巷","ALLEY":"４９弄","HOUSE_NO":"４號二樓","E_COORD97":172208.23000000001,"N_COORD97":2545008.1000000001,"ADDRESS":"忠孝路７６巷４９弄４號二樓","OBJECTID":21926},"geometry":{"x":172208.23000000138,"y":2545008.0999999996}},{"attributes":{"ID":21927,"DIS_CODE":0,"TOWNNAME":"永康區","LI":"五王里","LIN":"14鄰","STREET":"中華二路","SECT":" ","MAREA":" ","LANE":"２０６巷","ALLEY":"６８弄","HOUSE_NO":"５９號四樓之２","E_COORD97":171642.56,"N_COORD97":2545698.0899999999,"ADDRESS":"中華二路２０６巷６８弄５９號四樓之２","OBJECTID":21927},"geometry":{"x":171642.56000000052,"y":2545698.089999998}},{"attributes":{"ID":21928,"DIS_CODE":0,"TOWNNAME":"永康區","LI":"五王里","LIN":"14鄰","STREET":"中華二路","SECT":" ","MAREA":" ","LANE":"２０６巷","ALLEY":"６８弄","HOUSE_NO":"６７號三樓之３","E_COORD97":171647.28,"N_COORD97":2545680.5899999999,"ADDRESS":"中華二路２０６巷６８弄６７號三樓之３","OBJECTID":21928},"geometry":{"x":171647.28000000026,"y":2545680.5899999999}},{"attributes":{"ID":21929,"DIS_CODE":0,"TOWNNAME":"永康區","LI":"五王里","LIN":"14鄰","STREET":"中華二路","SECT":" ","MAREA":" ","LANE":"２０６巷","ALLEY":"６８弄","HOUSE_NO":"６７號五樓之２","E_COORD97":171647.31,"N_COORD97":2545680.5899999999,"ADDRESS":"中華二路２０６巷６８弄６７號五樓之２","OBJECTID":21929},"geometry":{"x":171647.31000000052,"y":2545680.5899999999}},{"attributes":{"ID":21930,"DIS_CODE":0,"TOWNNAME":"永康區","LI":"五王里","LIN":"14鄰","STREET":"中華二路","SECT":" ","MAREA":" ","LANE":"２０６巷","ALLEY":"６８弄","HOUSE_NO":"４３號三樓之３","E_COORD97":171633.16,"N_COORD97":2545733.0800000001,"ADDRESS":"中華二路２０６巷６８弄４３號三樓之３","OBJECTID":21930},"geometry":{"x":171633.15999999922,"y":2545733.0800000019}},{"attributes":{"ID":21931,"DIS_CODE":0,"TOWNNAME":"永康區","LI":"五王里","LIN":"14鄰","STREET":"中華二路","SECT":" ","MAREA":" ","LANE":"２０６巷","ALLEY":"６８弄","HOUSE_NO":"４３號五樓之３","E_COORD97":171633.16,"N_COORD97":2545733.0800000001,"ADDRESS":"中華二路２０６巷６８弄４３號五樓之３","OBJECTID":21931},"geometry":{"x":171633.15999999922,"y":2545733.0800000019}},{"attributes":{"ID":21932,"DIS_CODE":0,"TOWNNAME":"永康區","LI":"五王里","LIN":"14鄰","STREET":"中華二路","SECT":" ","MAREA":" ","LANE":"２０６巷","ALLEY":"６８弄","HOUSE_NO":"４３號三樓之２","E_COORD97":171633.19,"N_COORD97":2545733.0800000001,"ADDRESS":"中華二路２０６巷６８弄４３號三樓之２","OBJECTID":21932},"geometry":{"x":171633.19000000041,"y":2545733.0800000019}},{"attributes":{"ID":21933,"DIS_CODE":0,"TOWNNAME":"永康區","LI":"五王里","LIN":"14鄰","STREET":"中華二路","SECT":" ","MAREA":" ","LANE":"２０６巷","ALLEY":"６８弄","HOUSE_NO":"５９號五樓之１","E_COORD97":171642.42999999999,"N_COORD97":2545698.0899999999,"ADDRESS":"中華二路２０６巷６８弄５９號五樓之１","OBJECTID":21933},"geometry":{"x":171642.4299999997,"y":2545698.089999998}},{"attributes":{"ID":21934,"DIS_CODE":0,"TOWNNAME":"永康區","LI":"五王里","LIN":"14鄰","STREET":"中華二路","SECT":" ","MAREA":" ","LANE":"２０６巷","ALLEY":"６８弄","HOUSE_NO":"６７號四樓之２","E_COORD97":171647.31,"N_COORD97":2545680.5899999999,"ADDRESS":"中華二路２０６巷６８弄６７號四樓之２","OBJECTID":21934},"geometry":{"x":171647.31000000052,"y":2545680.5899999999}},{"attributes":{"ID":21935,"DIS_CODE":0,"TOWNNAME":"永康區","LI":"五王里","LIN":"14鄰","STREET":"中華二路","SECT":" ","MAREA":" ","LANE":"２０６巷","ALLEY":"６８弄","HOUSE_NO":"５１號五樓之１","E_COORD97":171637.67999999999,"N_COORD97":2545715.3399999999,"ADDRESS":"中華二路２０６巷６８弄５１號五樓之１","OBJECTID":21935},"geometry":{"x":171637.68000000156,"y":2545715.3399999999}},{"attributes":{"ID":21936,"DIS_CODE":0,"TOWNNAME":"永康區","LI":"五王里","LIN":"14鄰","STREET":"中華二路","SECT":" ","MAREA":" ","LANE":"２０６巷","ALLEY":"６８弄","HOUSE_NO":"６７號三樓之２","E_COORD97":171647.31,"N_COORD97":2545680.5899999999,"ADDRESS":"中華二路２０６巷６８弄６７號三樓之２","OBJECTID":21936},"geometry":{"x":171647.31000000052,"y":2545680.5899999999}},{"attributes":{"ID":21937,"DIS_CODE":0,"TOWNNAME":"永康區","LI":"五王里","LIN":"14鄰","STREET":"中華二路","SECT":" ","MAREA":" ","LANE":"２０６巷","ALLEY":"６８弄","HOUSE_NO":"５１號四樓之３","E_COORD97":171637.78,"N_COORD97":2545715.3399999999,"ADDRESS":"中華二路２０６巷６８弄５１號四樓之３","OBJECTID":21937},"geometry":{"x":171637.78000000212,"y":2545715.3399999999}},{"attributes":{"ID":21938,"DIS_CODE":0,"TOWNNAME":"永康區","LI":"五王里","LIN":"14鄰","STREET":"中華二路","SECT":" ","MAREA":" ","LANE":"２０６巷","ALLEY":"６８弄","HOUSE_NO":"６７號三樓之１","E_COORD97":171647.17999999999,"N_COORD97":2545680.5899999999,"ADDRESS":"中華二路２０６巷６８弄６７號三樓之１","OBJECTID":21938},"geometry":{"x":171647.1799999997,"y":2545680.5899999999}},{"attributes":{"ID":21939,"DIS_CODE":0,"TOWNNAME":"永康區","LI":"五王里","LIN":"14鄰","STREET":"中華二路","SECT":" ","MAREA":" ","LANE":"２０６巷","ALLEY":"６８弄","HOUSE_NO":"５９號五樓之２","E_COORD97":171642.56,"N_COORD97":2545698.0899999999,"ADDRESS":"中華二路２０６巷６８弄５９號五樓之２","OBJECTID":21939},"geometry":{"x":171642.56000000052,"y":2545698.089999998}},{"attributes":{"ID":21940,"DIS_CODE":0,"TOWNNAME":"永康區","LI":"五王里","LIN":"14鄰","STREET":"中華二路","SECT":" ","MAREA":" ","LANE":"２０６巷","ALLEY":"６８弄","HOUSE_NO":"６７號四樓之１","E_COORD97":171647.17999999999,"N_COORD97":2545680.5899999999,"ADDRESS":"中華二路２０６巷６８弄６７號四樓之１","OBJECTID":21940},"geometry":{"x":171647.1799999997,"y":2545680.5899999999}},{"attributes":{"ID":21941,"DIS_CODE":0,"TOWNNAME":"永康區","LI":"神洲里","LIN":"14鄰","STREET":"忠孝路","SECT":" ","MAREA":" ","LANE":"７６巷","ALLEY":"６３弄","HOUSE_NO":"１５號五樓","E_COORD97":172235.47,"N_COORD97":2544992.4199999999,"ADDRESS":"忠孝路７６巷６３弄１５號五樓","OBJECTID":21941},"geometry":{"x":172235.46999999974,"y":2544992.4200000018}},{"attributes":{"ID":21942,"DIS_CODE":0,"TOWNNAME":"永康區","LI":"神洲里","LIN":"14鄰","STREET":"忠孝路","SECT":" ","MAREA":" ","LANE":"７６巷","ALLEY":"６３弄","HOUSE_NO":"１３號五樓","E_COORD97":172237.35000000001,"N_COORD97":2544984.6400000001,"ADDRESS":"忠孝路７６巷６３弄１３號五樓","OBJECTID":21942},"geometry":{"x":172237.35000000056,"y":2544984.6400000025}},{"attributes":{"ID":21943,"DIS_CODE":0,"TOWNNAME":"永康區","LI":"神洲里","LIN":"14鄰","STREET":"忠孝路","SECT":" ","MAREA":" ","LANE":"７６巷","ALLEY":"４９弄","HOUSE_NO":"２號四樓","E_COORD97":172223.26999999999,"N_COORD97":2545006.1000000001,"ADDRESS":"忠孝路７６巷４９弄２號四樓","OBJECTID":21943},"geometry":{"x":172223.26999999955,"y":2545006.0999999996}},{"attributes":{"ID":21944,"DIS_CODE":0,"TOWNNAME":"永康區","LI":"神洲里","LIN":"14鄰","STREET":"忠孝路","SECT":" ","MAREA":" ","LANE":"７６巷","ALLEY":"６３弄","HOUSE_NO":"２７號五樓","E_COORD97":172210.88,"N_COORD97":2545021.1000000001,"ADDRESS":"忠孝路７６巷６３弄２７號五樓","OBJECTID":21944},"geometry":{"x":172210.87999999989,"y":2545021.1000000015}},{"attributes":{"ID":21945,"DIS_CODE":0,"TOWNNAME":"永康區","LI":"神洲里","LIN":"14鄰","STREET":"忠孝路","SECT":" ","MAREA":" ","LANE":"７６巷","ALLEY":"６３弄","HOUSE_NO":"２５號四樓","E_COORD97":172224.89000000001,"N_COORD97":2545020.8500000001,"ADDRESS":"忠孝路７６巷６３弄２５號四樓","OBJECTID":21945},"geometry":{"x":172224.8900000006,"y":2545020.8499999996}},{"attributes":{"ID":21946,"DIS_CODE":0,"TOWNNAME":"永康區","LI":"神洲里","LIN":"14鄰","STREET":"忠孝路","SECT":" ","MAREA":" ","LANE":"７６巷","ALLEY":"４９弄","HOUSE_NO":"２號二樓","E_COORD97":172223.26999999999,"N_COORD97":2545006.1000000001,"ADDRESS":"忠孝路７６巷４９弄２號二樓","OBJECTID":21946},"geometry":{"x":172223.26999999955,"y":2545006.0999999996}},{"attributes":{"ID":21947,"DIS_CODE":0,"TOWNNAME":"永康區","LI":"神洲里","LIN":"14鄰","STREET":"忠孝路","SECT":" ","MAREA":" ","LANE":"７６巷","ALLEY":"６３弄","HOUSE_NO":"１３號三樓","E_COORD97":172237.35000000001,"N_COORD97":2544984.6400000001,"ADDRESS":"忠孝路７６巷６３弄１３號三樓","OBJECTID":21947},"geometry":{"x":172237.35000000056,"y":2544984.6400000025}},{"attributes":{"ID":21948,"DIS_CODE":0,"TOWNNAME":"東區","LI":"忠孝里","LIN":"14鄰","STREET":"榮譽街","SECT":" ","MAREA":" ","LANE":"１２３巷","ALLEY":"１弄","HOUSE_NO":"２號三樓","E_COORD97":169872.29999999999,"N_COORD97":2541803.75,"ADDRESS":"榮譽街１２３巷１弄２號三樓","OBJECTID":21948},"geometry":{"x":169872.30000000168,"y":2541803.75}},{"attributes":{"ID":21949,"DIS_CODE":0,"TOWNNAME":"東區","LI":"忠孝里","LIN":"14鄰","STREET":"榮譽街","SECT":" ","MAREA":" ","LANE":"１２３巷","ALLEY":"１弄","HOUSE_NO":"２號三樓之１","E_COORD97":169872.29999999999,"N_COORD97":2541803.75,"ADDRESS":"榮譽街１２３巷１弄２號三樓之１","OBJECTID":21949},"geometry":{"x":169872.30000000168,"y":2541803.75}},{"attributes":{"ID":21950,"DIS_CODE":0,"TOWNNAME":"東區","LI":"忠孝里","LIN":"14鄰","STREET":"榮譽街","SECT":" ","MAREA":" ","LANE":"１２３巷","ALLEY":"１弄","HOUSE_NO":"２號四樓","E_COORD97":169872.29999999999,"N_COORD97":2541803.75,"ADDRESS":"榮譽街１２３巷１弄２號四樓","OBJECTID":21950},"geometry":{"x":169872.30000000168,"y":2541803.75}},{"attributes":{"ID":21951,"DIS_CODE":0,"TOWNNAME":"東區","LI":"忠孝里","LIN":"14鄰","STREET":"榮譽街","SECT":" ","MAREA":" ","LANE":"１２３巷","ALLEY":"１弄","HOUSE_NO":"２號四樓之１","E_COORD97":169872.29999999999,"N_COORD97":2541803.75,"ADDRESS":"榮譽街１２３巷１弄２號四樓之１","OBJECTID":21951},"geometry":{"x":169872.30000000168,"y":2541803.75}},{"attributes":{"ID":21952,"DIS_CODE":0,"TOWNNAME":"東區","LI":"忠孝里","LIN":"14鄰","STREET":"榮譽街","SECT":" ","MAREA":" ","LANE":"１２３巷","ALLEY":"１弄","HOUSE_NO":"２號五樓","E_COORD97":169872.29999999999,"N_COORD97":2541803.75,"ADDRESS":"榮譽街１２３巷１弄２號五樓","OBJECTID":21952},"geometry":{"x":169872.30000000168,"y":2541803.75}},{"attributes":{"ID":21953,"DIS_CODE":0,"TOWNNAME":"東區","LI":"忠孝里","LIN":"14鄰","STREET":"榮譽街","SECT":" ","MAREA":" ","LANE":"１２３巷","ALLEY":"１弄","HOUSE_NO":"２號五樓之１","E_COORD97":169872.29999999999,"N_COORD97":2541803.75,"ADDRESS":"榮譽街１２３巷１弄２號五樓之１","OBJECTID":21953},"geometry":{"x":169872.30000000168,"y":2541803.75}},{"attributes":{"ID":21954,"DIS_CODE":0,"TOWNNAME":"東區","LI":"忠孝里","LIN":"14鄰","STREET":"榮譽街","SECT":" ","MAREA":" ","LANE":"１２３巷","ALLEY":"１弄","HOUSE_NO":"２號六樓","E_COORD97":169872.29999999999,"N_COORD97":2541803.75,"ADDRESS":"榮譽街１２３巷１弄２號六樓","OBJECTID":21954},"geometry":{"x":169872.30000000168,"y":2541803.75}},{"attributes":{"ID":21955,"DIS_CODE":0,"TOWNNAME":"東區","LI":"忠孝里","LIN":"14鄰","STREET":"榮譽街","SECT":" ","MAREA":" ","LANE":"１２３巷","ALLEY":"１弄","HOUSE_NO":"２號六樓之１","E_COORD97":169872.29999999999,"N_COORD97":2541803.75,"ADDRESS":"榮譽街１２３巷１弄２號六樓之１","OBJECTID":21955},"geometry":{"x":169872.30000000168,"y":2541803.75}},{"attributes":{"ID":21956,"DIS_CODE":0,"TOWNNAME":"東區","LI":"忠孝里","LIN":"14鄰","STREET":"榮譽街","SECT":" ","MAREA":" ","LANE":"１２３巷","ALLEY":"１弄","HOUSE_NO":"２號七樓","E_COORD97":169872.29999999999,"N_COORD97":2541803.75,"ADDRESS":"榮譽街１２３巷１弄２號七樓","OBJECTID":21956},"geometry":{"x":169872.30000000168,"y":2541803.75}},{"attributes":{"ID":21957,"DIS_CODE":0,"TOWNNAME":"東區","LI":"忠孝里","LIN":"14鄰","STREET":"榮譽街","SECT":" ","MAREA":" ","LANE":"１２３巷","ALLEY":"１弄","HOUSE_NO":"２號七樓之１","E_COORD97":169872.29999999999,"N_COORD97":2541803.75,"ADDRESS":"榮譽街１２３巷１弄２號七樓之１","OBJECTID":21957},"geometry":{"x":169872.30000000168,"y":2541803.75}},{"attributes":{"ID":21958,"DIS_CODE":0,"TOWNNAME":"東區","LI":"忠孝里","LIN":"14鄰","STREET":"榮譽街","SECT":" ","MAREA":" ","LANE":"１２３巷","ALLEY":"１弄","HOUSE_NO":"２號八樓","E_COORD97":169872.29999999999,"N_COORD97":2541803.75,"ADDRESS":"榮譽街１２３巷１弄２號八樓","OBJECTID":21958},"geometry":{"x":169872.30000000168,"y":2541803.75}},{"attributes":{"ID":21959,"DIS_CODE":0,"TOWNNAME":"東區","LI":"忠孝里","LIN":"14鄰","STREET":"榮譽街","SECT":" ","MAREA":" ","LANE":"１２３巷","ALLEY":"１弄","HOUSE_NO":"２號八樓之１","E_COORD97":169872.29999999999,"N_COORD97":2541803.75,"ADDRESS":"榮譽街１２３巷１弄２號八樓之１","OBJECTID":21959},"geometry":{"x":169872.30000000168,"y":2541803.75}},{"attributes":{"ID":21960,"DIS_CODE":0,"TOWNNAME":"東區","LI":"忠孝里","LIN":"14鄰","STREET":"榮譽街","SECT":" ","MAREA":" ","LANE":"１２３巷","ALLEY":"１弄","HOUSE_NO":"１２號三樓","E_COORD97":169854.54000000001,"N_COORD97":2541794.96,"ADDRESS":"榮譽街１２３巷１弄１２號三樓","OBJECTID":21960},"geometry":{"x":169854.54000000097,"y":2541794.9600000028}},{"attributes":{"ID":21961,"DIS_CODE":0,"TOWNNAME":"東區","LI":"忠孝里","LIN":"14鄰","STREET":"榮譽街","SECT":" ","MAREA":" ","LANE":"１２３巷","ALLEY":"１弄","HOUSE_NO":"１２號三樓之１","E_COORD97":169854.54000000001,"N_COORD97":2541794.96,"ADDRESS":"榮譽街１２３巷１弄１２號三樓之１","OBJECTID":21961},"geometry":{"x":169854.54000000097,"y":2541794.9600000028}},{"attributes":{"ID":21962,"DIS_CODE":0,"TOWNNAME":"仁德區","LI":"仁義里","LIN":"24鄰","STREET":"中清路","SECT":" ","MAREA":" ","LANE":"１５５巷","ALLEY":" ","HOUSE_NO":"１號","E_COORD97":173700.32000000001,"N_COORD97":2541497.29,"ADDRESS":"中清路１５５巷１號","OBJECTID":21962},"geometry":{"x":173700.3200000003,"y":2541497.2899999991}},{"attributes":{"ID":21963,"DIS_CODE":0,"TOWNNAME":"東區","LI":"和平里","LIN":"20鄰","STREET":"文化一街","SECT":" ","MAREA":" ","LANE":" ","ALLEY":" ","HOUSE_NO":"１２２號","E_COORD97":171193.91,"N_COORD97":2541967.3799999999,"ADDRESS":"文化一街１２２號","OBJECTID":21963},"geometry":{"x":171193.91000000015,"y":2541967.3800000008}},{"attributes":{"ID":21964,"DIS_CODE":0,"TOWNNAME":"東區","LI":"和平里","LIN":"20鄰","STREET":"文化一街","SECT":" ","MAREA":" ","LANE":" ","ALLEY":" ","HOUSE_NO":"１２６號","E_COORD97":171199.14999999999,"N_COORD97":2541967.8700000001,"ADDRESS":"文化一街１２６號","OBJECTID":21964},"geometry":{"x":171199.15000000037,"y":2541967.870000001}},{"attributes":{"ID":21965,"DIS_CODE":0,"TOWNNAME":"東區","LI":"和平里","LIN":"20鄰","STREET":"文化一街","SECT":" ","MAREA":" ","LANE":" ","ALLEY":" ","HOUSE_NO":"１３０號","E_COORD97":171211.10000000001,"N_COORD97":2541969.6699999999,"ADDRESS":"文化一街１３０號","OBJECTID":21965},"geometry":{"x":171211.10000000149,"y":2541969.6700000018}},{"attributes":{"ID":21966,"DIS_CODE":0,"TOWNNAME":"東區","LI":"和平里","LIN":"20鄰","STREET":"文化一街","SECT":" ","MAREA":" ","LANE":" ","ALLEY":" ","HOUSE_NO":"１３６號","E_COORD97":171234.17999999999,"N_COORD97":2541971.96,"ADDRESS":"文化一街１３６號","OBJECTID":21966},"geometry":{"x":171234.17999999877,"y":2541971.9600000028}},{"attributes":{"ID":21967,"DIS_CODE":0,"TOWNNAME":"東區","LI":"和平里","LIN":"20鄰","STREET":"文化一街","SECT":" ","MAREA":" ","LANE":" ","ALLEY":" ","HOUSE_NO":"１０６號","E_COORD97":171214.70000000001,"N_COORD97":2541982.6000000001,"ADDRESS":"文化一街１０６號","OBJECTID":21967},"geometry":{"x":171214.70000000112,"y":2541982.6000000015}},{"attributes":{"ID":21968,"DIS_CODE":0,"TOWNNAME":"東區","LI":"和平里","LIN":"20鄰","STREET":"文化一街","SECT":" ","MAREA":" ","LANE":" ","ALLEY":" ","HOUSE_NO":"１３２號","E_COORD97":171216.98999999999,"N_COORD97":2541970.1600000001,"ADDRESS":"文化一街１３２號","OBJECTID":21968},"geometry":{"x":171216.99000000022,"y":2541970.160000002}},{"attributes":{"ID":21969,"DIS_CODE":0,"TOWNNAME":"東區","LI":"和平里","LIN":"20鄰","STREET":"文化路","SECT":" ","MAREA":" ","LANE":" ","ALLEY":" ","HOUSE_NO":"５１號","E_COORD97":171198.32999999999,"N_COORD97":2541946.75,"ADDRESS":"文化路５１號","OBJECTID":21969},"geometry":{"x":171198.33000000101,"y":2541946.75}},{"attributes":{"ID":21970,"DIS_CODE":0,"TOWNNAME":"東區","LI":"和平里","LIN":"20鄰","STREET":"文化路","SECT":" ","MAREA":" ","LANE":" ","ALLEY":" ","HOUSE_NO":"５３號","E_COORD97":171203.23999999999,"N_COORD97":2541948.2200000002,"ADDRESS":"文化路５３號","OBJECTID":21970},"geometry":{"x":171203.24000000022,"y":2541948.2200000007}},{"attributes":{"ID":21971,"DIS_CODE":0,"TOWNNAME":"東區","LI":"和平里","LIN":"20鄰","STREET":"文化路","SECT":" ","MAREA":" ","LANE":" ","ALLEY":" ","HOUSE_NO":"５５號","E_COORD97":171209.13,"N_COORD97":2541950.6800000002,"ADDRESS":"文化路５５號","OBJECTID":21971},"geometry":{"x":171209.12999999989,"y":2541950.6799999997}},{"attributes":{"ID":21972,"DIS_CODE":0,"TOWNNAME":"東區","LI":"和平里","LIN":"20鄰","STREET":"文化路","SECT":" ","MAREA":" ","LANE":" ","ALLEY":" ","HOUSE_NO":"５９號","E_COORD97":171221.57999999999,"N_COORD97":2541951.9900000002,"ADDRESS":"文化路５９號","OBJECTID":21972},"geometry":{"x":171221.58000000007,"y":2541951.9900000002}},{"attributes":{"ID":21973,"DIS_CODE":0,"TOWNNAME":"東區","LI":"和平里","LIN":"20鄰","STREET":"文化一街","SECT":" ","MAREA":" ","LANE":" ","ALLEY":" ","HOUSE_NO":"１５８號","E_COORD97":171248.42999999999,"N_COORD97":2541897.9100000001,"ADDRESS":"文化一街１５８號","OBJECTID":21973},"geometry":{"x":171248.43000000063,"y":2541897.9100000001}},{"attributes":{"ID":21974,"DIS_CODE":0,"TOWNNAME":"東區","LI":"和平里","LIN":"20鄰","STREET":"文化一街","SECT":" ","MAREA":" ","LANE":" ","ALLEY":" ","HOUSE_NO":"１６０號","E_COORD97":171250.39000000001,"N_COORD97":2541891.8599999999,"ADDRESS":"文化一街１６０號","OBJECTID":21974},"geometry":{"x":171250.3900000006,"y":2541891.8599999975}},{"attributes":{"ID":21975,"DIS_CODE":0,"TOWNNAME":"東區","LI":"和平里","LIN":"20鄰","STREET":"文化一街","SECT":" ","MAREA":" ","LANE":" ","ALLEY":" ","HOUSE_NO":"１６２號","E_COORD97":171251.04999999999,"N_COORD97":2541886.7799999998,"ADDRESS":"文化一街１６２號","OBJECTID":21975},"geometry":{"x":171251.05000000075,"y":2541886.7800000012}},{"attributes":{"ID":21976,"DIS_CODE":0,"TOWNNAME":"東區","LI":"和平里","LIN":"20鄰","STREET":"文化一街","SECT":" ","MAREA":" ","LANE":" ","ALLEY":" ","HOUSE_NO":"１６６號","E_COORD97":171253.67000000001,"N_COORD97":2541877.7799999998,"ADDRESS":"文化一街１６６號","OBJECTID":21976},"geometry":{"x":171253.67000000086,"y":2541877.7799999993}},{"attributes":{"ID":21977,"DIS_CODE":0,"TOWNNAME":"東區","LI":"文聖里","LIN":"20鄰","STREET":"裕文路","SECT":" ","MAREA":" ","LANE":" ","ALLEY":" ","HOUSE_NO":"３３３號","E_COORD97":172792.89999999999,"N_COORD97":2542536.7400000002,"ADDRESS":"裕文路３３３號","OBJECTID":21977},"geometry":{"x":172792.90000000037,"y":2542536.7400000002}},{"attributes":{"ID":21978,"DIS_CODE":0,"TOWNNAME":"東區","LI":"文聖里","LIN":"20鄰","STREET":"裕文路","SECT":" ","MAREA":" ","LANE":" ","ALLEY":" ","HOUSE_NO":"３２３號","E_COORD97":172766.01999999999,"N_COORD97":2542537.1699999999,"ADDRESS":"裕文路３２３號","OBJECTID":21978},"geometry":{"x":172766.02000000142,"y":2542537.1699999999}},{"attributes":{"ID":21979,"DIS_CODE":0,"TOWNNAME":"東區","LI":"文聖里","LIN":"20鄰","STREET":"裕文路","SECT":" ","MAREA":" ","LANE":" ","ALLEY":" ","HOUSE_NO":"３２５號","E_COORD97":172770.23999999999,"N_COORD97":2542537.3100000001,"ADDRESS":"裕文路３２５號","OBJECTID":21979},"geometry":{"x":172770.24000000209,"y":2542537.3100000005}},{"attributes":{"ID":21980,"DIS_CODE":0,"TOWNNAME":"東區","LI":"文聖里","LIN":"20鄰","STREET":"裕文路","SECT":" ","MAREA":" ","LANE":" ","ALLEY":" ","HOUSE_NO":"３２９號","E_COORD97":172780.51999999999,"N_COORD97":2542537.3100000001,"ADDRESS":"裕文路３２９號","OBJECTID":21980},"geometry":{"x":172780.51999999955,"y":2542537.3100000005}},{"attributes":{"ID":21981,"DIS_CODE":0,"TOWNNAME":"東區","LI":"文聖里","LIN":"20鄰","STREET":"裕文路","SECT":" ","MAREA":" ","LANE":" ","ALLEY":" ","HOUSE_NO":"３３１號","E_COORD97":172786.14000000001,"N_COORD97":2542536.8900000001,"ADDRESS":"裕文路３３１號","OBJECTID":21981},"geometry":{"x":172786.1400000006,"y":2542536.8900000006}},{"attributes":{"ID":21982,"DIS_CODE":0,"TOWNNAME":"東區","LI":"忠孝里","LIN":"14鄰","STREET":"榮譽街","SECT":" ","MAREA":" ","LANE":"１２３巷","ALLEY":"１弄","HOUSE_NO":"１２號四樓","E_COORD97":169854.54000000001,"N_COORD97":2541794.96,"ADDRESS":"榮譽街１２３巷１弄１２號四樓","OBJECTID":21982},"geometry":{"x":169854.54000000097,"y":2541794.9600000028}},{"attributes":{"ID":21983,"DIS_CODE":0,"TOWNNAME":"東區","LI":"忠孝里","LIN":"14鄰","STREET":"榮譽街","SECT":" ","MAREA":" ","LANE":"１２３巷","ALLEY":"１弄","HOUSE_NO":"１２號四樓之１","E_COORD97":169854.54000000001,"N_COORD97":2541794.96,"ADDRESS":"榮譽街１２３巷１弄１２號四樓之１","OBJECTID":21983},"geometry":{"x":169854.54000000097,"y":2541794.9600000028}},{"attributes":{"ID":21984,"DIS_CODE":0,"TOWNNAME":"東區","LI":"忠孝里","LIN":"14鄰","STREET":"榮譽街","SECT":" ","MAREA":" ","LANE":"１２３巷","ALLEY":"１弄","HOUSE_NO":"１２號五樓之１","E_COORD97":169854.54000000001,"N_COORD97":2541794.96,"ADDRESS":"榮譽街１２３巷１弄１２號五樓之１","OBJECTID":21984},"geometry":{"x":169854.54000000097,"y":2541794.9600000028}},{"attributes":{"ID":21985,"DIS_CODE":0,"TOWNNAME":"東區","LI":"忠孝里","LIN":"14鄰","STREET":"榮譽街","SECT":" ","MAREA":" ","LANE":"１２３巷","ALLEY":"１弄","HOUSE_NO":"１２號六樓","E_COORD97":169854.54000000001,"N_COORD97":2541794.96,"ADDRESS":"榮譽街１２３巷１弄１２號六樓","OBJECTID":21985},"geometry":{"x":169854.54000000097,"y":2541794.9600000028}},{"attributes":{"ID":21986,"DIS_CODE":0,"TOWNNAME":"東區","LI":"忠孝里","LIN":"14鄰","STREET":"榮譽街","SECT":" ","MAREA":" ","LANE":"１２３巷","ALLEY":"１弄","HOUSE_NO":"１２號六樓之１","E_COORD97":169854.54000000001,"N_COORD97":2541794.96,"ADDRESS":"榮譽街１２３巷１弄１２號六樓之１","OBJECTID":21986},"geometry":{"x":169854.54000000097,"y":2541794.9600000028}},{"attributes":{"ID":21987,"DIS_CODE":0,"TOWNNAME":"東區","LI":"忠孝里","LIN":"14鄰","STREET":"榮譽街","SECT":" ","MAREA":" ","LANE":"１２３巷","ALLEY":"１弄","HOUSE_NO":"１２號七樓","E_COORD97":169854.54000000001,"N_COORD97":2541794.96,"ADDRESS":"榮譽街１２３巷１弄１２號七樓","OBJECTID":21987},"geometry":{"x":169854.54000000097,"y":2541794.9600000028}},{"attributes":{"ID":21988,"DIS_CODE":0,"TOWNNAME":"東區","LI":"忠孝里","LIN":"14鄰","STREET":"榮譽街","SECT":" ","MAREA":" ","LANE":"１２３巷","ALLEY":"１弄","HOUSE_NO":"１２號七樓之１","E_COORD97":169854.54000000001,"N_COORD97":2541794.96,"ADDRESS":"榮譽街１２３巷１弄１２號七樓之１","OBJECTID":21988},"geometry":{"x":169854.54000000097,"y":2541794.9600000028}},{"attributes":{"ID":21989,"DIS_CODE":0,"TOWNNAME":"東區","LI":"忠孝里","LIN":"14鄰","STREET":"榮譽街","SECT":" ","MAREA":" ","LANE":"１２３巷","ALLEY":"１弄","HOUSE_NO":"１２號八樓","E_COORD97":169854.54000000001,"N_COORD97":2541794.96,"ADDRESS":"榮譽街１２３巷１弄１２號八樓","OBJECTID":21989},"geometry":{"x":169854.54000000097,"y":2541794.9600000028}},{"attributes":{"ID":21990,"DIS_CODE":0,"TOWNNAME":"東區","LI":"忠孝里","LIN":"14鄰","STREET":"榮譽街","SECT":" ","MAREA":" ","LANE":"１２３巷","ALLEY":"１弄","HOUSE_NO":"１２號八樓之１","E_COORD97":169854.54000000001,"N_COORD97":2541794.96,"ADDRESS":"榮譽街１２３巷１弄１２號八樓之１","OBJECTID":21990},"geometry":{"x":169854.54000000097,"y":2541794.9600000028}},{"attributes":{"ID":21991,"DIS_CODE":0,"TOWNNAME":"永康區","LI":"安康里","LIN":"14鄰","STREET":"中華路","SECT":" ","MAREA":" ","LANE":"６１９巷","ALLEY":"８８弄","HOUSE_NO":"２４號一樓之１２","E_COORD97":170872.73000000001,"N_COORD97":2546063.54,"ADDRESS":"中華路６１９巷８８弄２４號一樓之１２","OBJECTID":21991},"geometry":{"x":170872.73000000138,"y":2546063.5399999991}},{"attributes":{"ID":21992,"DIS_CODE":0,"TOWNNAME":"善化區","LI":"小新里","LIN":"17鄰","STREET":" ","SECT":" ","MAREA":"小新營","LANE":" ","ALLEY":" ","HOUSE_NO":"１４１號之９","E_COORD97":179995.43300399999,"N_COORD97":2558120.7168999999,"ADDRESS":"小新營１４１號之９","OBJECTID":21992},"geometry":{"x":179995.43300400209,"y":2558120.7169000003}},{"attributes":{"ID":21993,"DIS_CODE":0,"TOWNNAME":"永康區","LI":"\u25A0洲里","LIN":"24鄰","STREET":"正南二街","SECT":" ","MAREA":" ","LANE":"８６巷","ALLEY":" ","HOUSE_NO":"２９號","E_COORD97":170777.95000000001,"N_COORD97":2548509.5,"ADDRESS":"正南二街８６巷２９號","OBJECTID":21993},"geometry":{"x":170777.95000000019,"y":2548509.4999999981}},{"attributes":{"ID":21994,"DIS_CODE":0,"TOWNNAME":"安南區","LI":"新順里","LIN":"24鄰","STREET":"景安街","SECT":" ","MAREA":" ","LANE":" ","ALLEY":" ","HOUSE_NO":"１２５號","E_COORD97":169396.41,"N_COORD97":2549158.5800000001,"ADDRESS":"景安街１２５號","OBJECTID":21994},"geometry":{"x":169396.41000000108,"y":2549158.5800000001}},{"attributes":{"ID":21995,"DIS_CODE":0,"TOWNNAME":"善化區","LI":"胡家里","LIN":"17鄰","STREET":" ","SECT":" ","MAREA":"胡厝寮","LANE":" ","ALLEY":" ","HOUSE_NO":"１６４之３號","E_COORD97":175189.20999999999,"N_COORD97":2560656.02,"ADDRESS":"胡厝寮１６４之３號","OBJECTID":21995},"geometry":{"x":175189.21000000183,"y":2560656.0199999996}},{"attributes":{"ID":21996,"DIS_CODE":0,"TOWNNAME":"永康區","LI":"\u25A0洲里","LIN":"24鄰","STREET":"正南二街","SECT":" ","MAREA":" ","LANE":" ","ALLEY":" ","HOUSE_NO":"９８號","E_COORD97":170715.31,"N_COORD97":2548403.8500000001,"ADDRESS":"正南二街９８號","OBJECTID":21996},"geometry":{"x":170715.31000000052,"y":2548403.8499999996}},{"attributes":{"ID":21997,"DIS_CODE":0,"TOWNNAME":"永康區","LI":"\u25A0洲里","LIN":"24鄰","STREET":"正南二街","SECT":" ","MAREA":" ","LANE":" ","ALLEY":" ","HOUSE_NO":"１０８號","E_COORD97":170692.35000000001,"N_COORD97":2548424.0800000001,"ADDRESS":"正南二街１０８號","OBJECTID":21997},"geometry":{"x":170692.35000000149,"y":2548424.0800000001}},{"attributes":{"ID":21998,"DIS_CODE":0,"TOWNNAME":"永康區","LI":"\u25A0行里","LIN":"24鄰","STREET":"中正南路","SECT":" ","MAREA":" ","LANE":" ","ALLEY":" ","HOUSE_NO":"６４０號之３","E_COORD97":171515.54999999999,"N_COORD97":2548756.29,"ADDRESS":"中正南路６４０號之３","OBJECTID":21998},"geometry":{"x":171515.55000000075,"y":2548756.2899999991}},{"attributes":{"ID":21999,"DIS_CODE":0,"TOWNNAME":"善化區","LI":"胡厝里","LIN":"17鄰","STREET":" ","SECT":" ","MAREA":"西衛","LANE":" ","ALLEY":" ","HOUSE_NO":"７之２８號","E_COORD97":174410.59,"N_COORD97":2559452.52,"ADDRESS":"西衛７之２８號","OBJECTID":21999},"geometry":{"x":174410.59000000078,"y":2559452.5199999996}},{"attributes":{"ID":22000,"DIS_CODE":0,"TOWNNAME":"善化區","LI":"胡家里","LIN":"17鄰","STREET":" ","SECT":" ","MAREA":"胡厝寮","LANE":" ","ALLEY":" ","HOUSE_NO":"１５６號之１","E_COORD97":175202.01999999999,"N_COORD97":2560701.52,"ADDRESS":"胡厝寮１５６號之１","OBJECTID":22000},"geometry":{"x":175202.02000000142,"y":2560701.5200000014}}]}