{"displayFieldName":"TOWNNAME","fieldAliases":{"ID":"ID","DIS_CODE":"DIS_CODE","TOWNNAME":"TOWNNAME","LI":"LI","LIN":"LIN","STREET":"STREET","SECT":"SECT","MAREA":"MAREA","LANE":"LANE","ALLEY":"ALLEY","HOUSE_NO":"HOUSE_NO","E_COORD97":"E_COORD97","N_COORD97":"N_COORD97","ADDRESS":"ADDRESS","OBJECTID":"OBJECTID"},"geometryType":"esriGeometryPoint","spatialReference":{"wkid":102443,"latestWkid":3826},"fields":[{"name":"ID","type":"esriFieldTypeDouble","alias":"ID"},{"name":"DIS_CODE","type":"esriFieldTypeInteger","alias":"DIS_CODE"},{"name":"TOWNNAME","type":"esriFieldTypeString","alias":"TOWNNAME","length":8},{"name":"LI","type":"esriFieldTypeString","alias":"LI","length":8},{"name":"LIN","type":"esriFieldTypeString","alias":"LIN","length":12},{"name":"STREET","type":"esriFieldTypeString","alias":"STREET","length":20},{"name":"SECT","type":"esriFieldTypeString","alias":"SECT","length":8},{"name":"MAREA","type":"esriFieldTypeString","alias":"MAREA","length":12},{"name":"LANE","type":"esriFieldTypeString","alias":"LANE","length":10},{"name":"ALLEY","type":"esriFieldTypeString","alias":"ALLEY","length":10},{"name":"HOUSE_NO","type":"esriFieldTypeString","alias":"HOUSE_NO","length":20},{"name":"E_COORD97","type":"esriFieldTypeDouble","alias":"E_COORD97"},{"name":"N_COORD97","type":"esriFieldTypeDouble","alias":"N_COORD97"},{"name":"ADDRESS","type":"esriFieldTypeString","alias":"ADDRESS","length":50},{"name":"OBJECTID","type":"esriFieldTypeOID","alias":"OBJECTID"}],"features":[{"attributes":{"ID":33801,"DIS_CODE":0,"TOWNNAME":"新市區","LI":"社內里","LIN":"7鄰","STREET":" ","SECT":" ","MAREA":"社內","LANE":" ","ALLEY":" ","HOUSE_NO":"７１之１號","E_COORD97":176580.12,"N_COORD97":2552780.7999999998,"ADDRESS":"社內７１之１號","OBJECTID":33801},"geometry":{"x":176580.12000000197,"y":2552780.8000000026}},{"attributes":{"ID":33802,"DIS_CODE":0,"TOWNNAME":"新市區","LI":"港墘里","LIN":"7鄰","STREET":" ","SECT":" ","MAREA":"店頂","LANE":" ","ALLEY":" ","HOUSE_NO":"３２號","E_COORD97":179560.39999999999,"N_COORD97":2553148,"ADDRESS":"店頂３２號","OBJECTID":33802},"geometry":{"x":179560.40000000224,"y":2553148.0000000037}},{"attributes":{"ID":33803,"DIS_CODE":0,"TOWNNAME":"永康區","LI":"五王里","LIN":"8鄰","STREET":"中山東路","SECT":" ","MAREA":" ","LANE":"２１８巷","ALLEY":"２３弄","HOUSE_NO":"２５號四樓之３","E_COORD97":171733.64000000001,"N_COORD97":2545666.6200000001,"ADDRESS":"中山東路２１８巷２３弄２５號四樓之３","OBJECTID":33803},"geometry":{"x":171733.6400000006,"y":2545666.6200000029}},{"attributes":{"ID":33804,"DIS_CODE":0,"TOWNNAME":"永康區","LI":"五王里","LIN":"8鄰","STREET":"中山東路","SECT":" ","MAREA":" ","LANE":"２１８巷","ALLEY":"２３弄","HOUSE_NO":"２５號四樓之１","E_COORD97":171733.54000000001,"N_COORD97":2545666.6200000001,"ADDRESS":"中山東路２１８巷２３弄２５號四樓之１","OBJECTID":33804},"geometry":{"x":171733.54000000004,"y":2545666.6200000029}},{"attributes":{"ID":33805,"DIS_CODE":0,"TOWNNAME":"永康區","LI":"五王里","LIN":"8鄰","STREET":"中山東路","SECT":" ","MAREA":" ","LANE":"２１８巷","ALLEY":"２３弄","HOUSE_NO":"２５號三樓之３","E_COORD97":171733.64000000001,"N_COORD97":2545666.6200000001,"ADDRESS":"中山東路２１８巷２３弄２５號三樓之３","OBJECTID":33805},"geometry":{"x":171733.6400000006,"y":2545666.6200000029}},{"attributes":{"ID":33806,"DIS_CODE":0,"TOWNNAME":"永康區","LI":"五王里","LIN":"8鄰","STREET":"中山東路","SECT":" ","MAREA":" ","LANE":"２１８巷","ALLEY":"２３弄","HOUSE_NO":"４１號五樓之２","E_COORD97":171742.20999999999,"N_COORD97":2545632.1200000001,"ADDRESS":"中山東路２１８巷２３弄４１號五樓之２","OBJECTID":33806},"geometry":{"x":171742.20999999996,"y":2545632.1200000029}},{"attributes":{"ID":33807,"DIS_CODE":0,"TOWNNAME":"永康區","LI":"五王里","LIN":"8鄰","STREET":"中山東路","SECT":" ","MAREA":" ","LANE":"２１８巷","ALLEY":"２３弄","HOUSE_NO":"３３號五樓之３","E_COORD97":171737.73000000001,"N_COORD97":2545649.8700000001,"ADDRESS":"中山東路２１８巷２３弄３３號五樓之３","OBJECTID":33807},"geometry":{"x":171737.73000000045,"y":2545649.870000001}},{"attributes":{"ID":33808,"DIS_CODE":0,"TOWNNAME":"永康區","LI":"五王里","LIN":"8鄰","STREET":"中山東路","SECT":" ","MAREA":" ","LANE":"２１８巷","ALLEY":"２３弄","HOUSE_NO":"３３號三樓之１","E_COORD97":171737.63,"N_COORD97":2545649.8700000001,"ADDRESS":"中山東路２１８巷２３弄３３號三樓之１","OBJECTID":33808},"geometry":{"x":171737.62999999989,"y":2545649.870000001}},{"attributes":{"ID":33809,"DIS_CODE":0,"TOWNNAME":"永康區","LI":"五王里","LIN":"8鄰","STREET":"中山東路","SECT":" ","MAREA":" ","LANE":"２１８巷","ALLEY":"２３弄","HOUSE_NO":"２５號五樓之１","E_COORD97":171733.54000000001,"N_COORD97":2545666.6200000001,"ADDRESS":"中山東路２１８巷２３弄２５號五樓之１","OBJECTID":33809},"geometry":{"x":171733.54000000004,"y":2545666.6200000029}},{"attributes":{"ID":33810,"DIS_CODE":0,"TOWNNAME":"永康區","LI":"五王里","LIN":"8鄰","STREET":"中山東路","SECT":" ","MAREA":" ","LANE":"２１８巷","ALLEY":"２３弄","HOUSE_NO":"４１號五樓之３","E_COORD97":171742.17999999999,"N_COORD97":2545632.1200000001,"ADDRESS":"中山東路２１８巷２３弄４１號五樓之３","OBJECTID":33810},"geometry":{"x":171742.1799999997,"y":2545632.1200000029}},{"attributes":{"ID":33811,"DIS_CODE":0,"TOWNNAME":"永康區","LI":"五王里","LIN":"8鄰","STREET":"中山東路","SECT":" ","MAREA":" ","LANE":"２１８巷","ALLEY":"２３弄","HOUSE_NO":"３３號五樓之２","E_COORD97":171737.76000000001,"N_COORD97":2545649.8700000001,"ADDRESS":"中山東路２１８巷２３弄３３號五樓之２","OBJECTID":33811},"geometry":{"x":171737.76000000071,"y":2545649.870000001}},{"attributes":{"ID":33812,"DIS_CODE":0,"TOWNNAME":"東區","LI":"富強里","LIN":"28鄰","STREET":"東門路","SECT":"二段","MAREA":" ","LANE":"３６５巷","ALLEY":"３４弄","HOUSE_NO":"１號二樓","E_COORD97":170875.84,"N_COORD97":2542688.4199999999,"ADDRESS":"東門路二段３６５巷３４弄１號二樓","OBJECTID":33812},"geometry":{"x":170875.84000000078,"y":2542688.4199999999}},{"attributes":{"ID":33813,"DIS_CODE":0,"TOWNNAME":"永康區","LI":"五王里","LIN":"8鄰","STREET":"中山東路","SECT":" ","MAREA":" ","LANE":"２１８巷","ALLEY":"２３弄","HOUSE_NO":"４１號五樓之１","E_COORD97":171742.07999999999,"N_COORD97":2545632.1200000001,"ADDRESS":"中山東路２１８巷２３弄４１號五樓之１","OBJECTID":33813},"geometry":{"x":171742.08000000007,"y":2545632.1200000029}},{"attributes":{"ID":33814,"DIS_CODE":0,"TOWNNAME":"永康區","LI":"五王里","LIN":"8鄰","STREET":"中山東路","SECT":" ","MAREA":" ","LANE":"２１８巷","ALLEY":"２３弄","HOUSE_NO":"２５號五樓之３","E_COORD97":171733.64000000001,"N_COORD97":2545666.6200000001,"ADDRESS":"中山東路２１８巷２３弄２５號五樓之３","OBJECTID":33814},"geometry":{"x":171733.6400000006,"y":2545666.6200000029}},{"attributes":{"ID":33815,"DIS_CODE":0,"TOWNNAME":"永康區","LI":"五王里","LIN":"8鄰","STREET":"中山東路","SECT":" ","MAREA":" ","LANE":"２１８巷","ALLEY":"２３弄","HOUSE_NO":"４１號四樓之２","E_COORD97":171742.20999999999,"N_COORD97":2545632.1200000001,"ADDRESS":"中山東路２１８巷２３弄４１號四樓之２","OBJECTID":33815},"geometry":{"x":171742.20999999996,"y":2545632.1200000029}},{"attributes":{"ID":33816,"DIS_CODE":0,"TOWNNAME":"佳里區","LI":"鎮山里","LIN":"8鄰","STREET":"信義一街","SECT":" ","MAREA":" ","LANE":"２１巷","ALLEY":"１８弄","HOUSE_NO":"１６號","E_COORD97":166335.70999999999,"N_COORD97":2561576.8300000001,"ADDRESS":"信義一街２１巷１８弄１６號","OBJECTID":33816},"geometry":{"x":166335.71000000089,"y":2561576.8300000001}},{"attributes":{"ID":33817,"DIS_CODE":0,"TOWNNAME":"永康區","LI":"五王里","LIN":"8鄰","STREET":"中山東路","SECT":" ","MAREA":" ","LANE":"２１８巷","ALLEY":"２３弄","HOUSE_NO":"３３號五樓之１","E_COORD97":171737.63,"N_COORD97":2545649.8700000001,"ADDRESS":"中山東路２１８巷２３弄３３號五樓之１","OBJECTID":33817},"geometry":{"x":171737.62999999989,"y":2545649.870000001}},{"attributes":{"ID":33818,"DIS_CODE":0,"TOWNNAME":"北區","LI":"正風里","LIN":"8鄰","STREET":"公園路","SECT":" ","MAREA":" ","LANE":"９９４巷","ALLEY":"５弄","HOUSE_NO":"２４號","E_COORD97":169609.88,"N_COORD97":2546371.8799999999,"ADDRESS":"公園路９９４巷５弄２４號","OBJECTID":33818},"geometry":{"x":169609.88000000082,"y":2546371.879999999}},{"attributes":{"ID":33819,"DIS_CODE":0,"TOWNNAME":"永康區","LI":"五王里","LIN":"8鄰","STREET":"中山東路","SECT":" ","MAREA":" ","LANE":"２１８巷","ALLEY":"２３弄","HOUSE_NO":"２５號五樓之２","E_COORD97":171733.67000000001,"N_COORD97":2545666.6200000001,"ADDRESS":"中山東路２１８巷２３弄２５號五樓之２","OBJECTID":33819},"geometry":{"x":171733.67000000086,"y":2545666.6200000029}},{"attributes":{"ID":33820,"DIS_CODE":0,"TOWNNAME":"七股區","LI":"十份里","LIN":"7鄰","STREET":" ","SECT":" ","MAREA":"十份","LANE":" ","ALLEY":" ","HOUSE_NO":"７０號之６","E_COORD97":157732.23000000001,"N_COORD97":2555032.3300000001,"ADDRESS":"十份７０號之６","OBJECTID":33820},"geometry":{"x":157732.23000000045,"y":2555032.3300000019}},{"attributes":{"ID":33821,"DIS_CODE":0,"TOWNNAME":"永康區","LI":"五王里","LIN":"8鄰","STREET":"中山東路","SECT":" ","MAREA":" ","LANE":"２１８巷","ALLEY":"２３弄","HOUSE_NO":"３３號三樓之３","E_COORD97":171737.73000000001,"N_COORD97":2545649.8700000001,"ADDRESS":"中山東路２１８巷２３弄３３號三樓之３","OBJECTID":33821},"geometry":{"x":171737.73000000045,"y":2545649.870000001}},{"attributes":{"ID":33822,"DIS_CODE":0,"TOWNNAME":"永康區","LI":"五王里","LIN":"8鄰","STREET":"中山東路","SECT":" ","MAREA":" ","LANE":"２１８巷","ALLEY":"２３弄","HOUSE_NO":"３３號四樓之３","E_COORD97":171737.73000000001,"N_COORD97":2545649.8700000001,"ADDRESS":"中山東路２１８巷２３弄３３號四樓之３","OBJECTID":33822},"geometry":{"x":171737.73000000045,"y":2545649.870000001}},{"attributes":{"ID":33823,"DIS_CODE":0,"TOWNNAME":"永康區","LI":"五王里","LIN":"8鄰","STREET":"中山東路","SECT":" ","MAREA":" ","LANE":"２１８巷","ALLEY":"２３弄","HOUSE_NO":"２５號三樓之２","E_COORD97":171733.67000000001,"N_COORD97":2545666.6200000001,"ADDRESS":"中山東路２１８巷２３弄２５號三樓之２","OBJECTID":33823},"geometry":{"x":171733.67000000086,"y":2545666.6200000029}},{"attributes":{"ID":33824,"DIS_CODE":0,"TOWNNAME":"安南區","LI":"溪心里","LIN":"15鄰","STREET":"仁安一街","SECT":" ","MAREA":" ","LANE":"２０７巷","ALLEY":"１弄","HOUSE_NO":"２號","E_COORD97":165899.13,"N_COORD97":2550427.5099999998,"ADDRESS":"仁安一街２０７巷１弄２號","OBJECTID":33824},"geometry":{"x":165899.13000000082,"y":2550427.5099999998}},{"attributes":{"ID":33825,"DIS_CODE":0,"TOWNNAME":"永康區","LI":"五王里","LIN":"8鄰","STREET":"中山東路","SECT":" ","MAREA":" ","LANE":"２１８巷","ALLEY":"２３弄","HOUSE_NO":"４１號三樓之３","E_COORD97":171742.17999999999,"N_COORD97":2545632.1200000001,"ADDRESS":"中山東路２１８巷２３弄４１號三樓之３","OBJECTID":33825},"geometry":{"x":171742.1799999997,"y":2545632.1200000029}},{"attributes":{"ID":33826,"DIS_CODE":0,"TOWNNAME":"北區","LI":"振興里","LIN":"8鄰","STREET":"開元路","SECT":" ","MAREA":" ","LANE":"１４８巷","ALLEY":"４３弄","HOUSE_NO":"４８號五樓之２","E_COORD97":170158.29999999999,"N_COORD97":2545106.7000000002,"ADDRESS":"開元路１４８巷４３弄４８號五樓之２","OBJECTID":33826},"geometry":{"x":170158.29999999981,"y":2545106.6999999993}},{"attributes":{"ID":33827,"DIS_CODE":0,"TOWNNAME":"北區","LI":"振興里","LIN":"8鄰","STREET":"開元路","SECT":" ","MAREA":" ","LANE":"１４８巷","ALLEY":"４３弄","HOUSE_NO":"４８號四樓之１","E_COORD97":170158.29999999999,"N_COORD97":2545106.7000000002,"ADDRESS":"開元路１４８巷４３弄４８號四樓之１","OBJECTID":33827},"geometry":{"x":170158.29999999981,"y":2545106.6999999993}},{"attributes":{"ID":33828,"DIS_CODE":0,"TOWNNAME":"北區","LI":"振興里","LIN":"8鄰","STREET":"開元路","SECT":" ","MAREA":" ","LANE":"１４８巷","ALLEY":"４３弄","HOUSE_NO":"４８號四樓之２","E_COORD97":170158.29999999999,"N_COORD97":2545106.7000000002,"ADDRESS":"開元路１４８巷４３弄４８號四樓之２","OBJECTID":33828},"geometry":{"x":170158.29999999981,"y":2545106.6999999993}},{"attributes":{"ID":33829,"DIS_CODE":0,"TOWNNAME":"北區","LI":"振興里","LIN":"8鄰","STREET":"開元路","SECT":" ","MAREA":" ","LANE":"１４８巷","ALLEY":"４３弄","HOUSE_NO":"２９號三樓之１","E_COORD97":170155.03,"N_COORD97":2545125.1200000001,"ADDRESS":"開元路１４８巷４３弄２９號三樓之１","OBJECTID":33829},"geometry":{"x":170155.03000000119,"y":2545125.120000001}},{"attributes":{"ID":33830,"DIS_CODE":0,"TOWNNAME":"北區","LI":"振興里","LIN":"8鄰","STREET":"開元路","SECT":" ","MAREA":" ","LANE":"１４８巷","ALLEY":"４３弄","HOUSE_NO":"２９號四樓之２","E_COORD97":170155.03,"N_COORD97":2545125.1200000001,"ADDRESS":"開元路１４８巷４３弄２９號四樓之２","OBJECTID":33830},"geometry":{"x":170155.03000000119,"y":2545125.120000001}},{"attributes":{"ID":33831,"DIS_CODE":0,"TOWNNAME":"南區","LI":"金華里","LIN":"11鄰","STREET":"金華路","SECT":"二段","MAREA":" ","LANE":"１４７巷","ALLEY":"３７弄","HOUSE_NO":"１０號","E_COORD97":166902.17000000001,"N_COORD97":2542353.0699999998,"ADDRESS":"金華路二段１４７巷３７弄１０號","OBJECTID":33831},"geometry":{"x":166902.17000000086,"y":2542353.0700000022}},{"attributes":{"ID":33832,"DIS_CODE":0,"TOWNNAME":"北區","LI":"振興里","LIN":"8鄰","STREET":"開元路","SECT":" ","MAREA":" ","LANE":"１４８巷","ALLEY":"４３弄","HOUSE_NO":"４２號二樓之１","E_COORD97":170159.60999999999,"N_COORD97":2545103.2200000002,"ADDRESS":"開元路１４８巷４３弄４２號二樓之１","OBJECTID":33832},"geometry":{"x":170159.61000000127,"y":2545103.2200000025}},{"attributes":{"ID":33833,"DIS_CODE":0,"TOWNNAME":"北區","LI":"振興里","LIN":"8鄰","STREET":"開元路","SECT":" ","MAREA":" ","LANE":"１４８巷","ALLEY":"４３弄","HOUSE_NO":"４２號二樓之２","E_COORD97":170159.60999999999,"N_COORD97":2545103.2200000002,"ADDRESS":"開元路１４８巷４３弄４２號二樓之２","OBJECTID":33833},"geometry":{"x":170159.61000000127,"y":2545103.2200000025}},{"attributes":{"ID":33834,"DIS_CODE":0,"TOWNNAME":"北區","LI":"振興里","LIN":"8鄰","STREET":"開元路","SECT":" ","MAREA":" ","LANE":"１４８巷","ALLEY":"４３弄","HOUSE_NO":"４２號三樓之１","E_COORD97":170159.60999999999,"N_COORD97":2545103.2200000002,"ADDRESS":"開元路１４８巷４３弄４２號三樓之１","OBJECTID":33834},"geometry":{"x":170159.61000000127,"y":2545103.2200000025}},{"attributes":{"ID":33835,"DIS_CODE":0,"TOWNNAME":"北區","LI":"振興里","LIN":"8鄰","STREET":"開元路","SECT":" ","MAREA":" ","LANE":"１４８巷","ALLEY":"４３弄","HOUSE_NO":"４２號三樓之２","E_COORD97":170159.60999999999,"N_COORD97":2545103.2200000002,"ADDRESS":"開元路１４８巷４３弄４２號三樓之２","OBJECTID":33835},"geometry":{"x":170159.61000000127,"y":2545103.2200000025}},{"attributes":{"ID":33836,"DIS_CODE":0,"TOWNNAME":"北區","LI":"振興里","LIN":"8鄰","STREET":"開元路","SECT":" ","MAREA":" ","LANE":"１４８巷","ALLEY":"４３弄","HOUSE_NO":"４２號五樓之１","E_COORD97":170159.60999999999,"N_COORD97":2545103.2200000002,"ADDRESS":"開元路１４８巷４３弄４２號五樓之１","OBJECTID":33836},"geometry":{"x":170159.61000000127,"y":2545103.2200000025}},{"attributes":{"ID":33837,"DIS_CODE":0,"TOWNNAME":"北區","LI":"振興里","LIN":"8鄰","STREET":"開元路","SECT":" ","MAREA":" ","LANE":"１４８巷","ALLEY":"４３弄","HOUSE_NO":"４２號五樓之２","E_COORD97":170159.60999999999,"N_COORD97":2545103.2200000002,"ADDRESS":"開元路１４８巷４３弄４２號五樓之２","OBJECTID":33837},"geometry":{"x":170159.61000000127,"y":2545103.2200000025}},{"attributes":{"ID":33838,"DIS_CODE":0,"TOWNNAME":"北區","LI":"振興里","LIN":"8鄰","STREET":"開元路","SECT":" ","MAREA":" ","LANE":"１４８巷","ALLEY":"４３弄","HOUSE_NO":"４２號四樓之１","E_COORD97":170159.60999999999,"N_COORD97":2545103.2200000002,"ADDRESS":"開元路１４８巷４３弄４２號四樓之１","OBJECTID":33838},"geometry":{"x":170159.61000000127,"y":2545103.2200000025}},{"attributes":{"ID":33839,"DIS_CODE":0,"TOWNNAME":"北區","LI":"振興里","LIN":"8鄰","STREET":"開元路","SECT":" ","MAREA":" ","LANE":"１４８巷","ALLEY":"４３弄","HOUSE_NO":"４２號四樓之２","E_COORD97":170159.60999999999,"N_COORD97":2545103.2200000002,"ADDRESS":"開元路１４８巷４３弄４２號四樓之２","OBJECTID":33839},"geometry":{"x":170159.61000000127,"y":2545103.2200000025}},{"attributes":{"ID":33840,"DIS_CODE":0,"TOWNNAME":"南區","LI":"文華里","LIN":"8鄰","STREET":"金華路","SECT":"二段","MAREA":" ","LANE":"３４５巷","ALLEY":"８弄","HOUSE_NO":"１３號二樓","E_COORD97":167083.31,"N_COORD97":2542985.1200000001,"ADDRESS":"金華路二段３４５巷８弄１３號二樓","OBJECTID":33840},"geometry":{"x":167083.30999999959,"y":2542985.1200000029}},{"attributes":{"ID":33841,"DIS_CODE":0,"TOWNNAME":"南區","LI":"文華里","LIN":"8鄰","STREET":"金華路","SECT":"二段","MAREA":" ","LANE":"３４５巷","ALLEY":"８弄","HOUSE_NO":"１３號三樓","E_COORD97":167083.31,"N_COORD97":2542985.1200000001,"ADDRESS":"金華路二段３４５巷８弄１３號三樓","OBJECTID":33841},"geometry":{"x":167083.30999999959,"y":2542985.1200000029}},{"attributes":{"ID":33842,"DIS_CODE":0,"TOWNNAME":"新市區","LI":"永就里","LIN":"7鄰","STREET":" ","SECT":" ","MAREA":"永就","LANE":" ","ALLEY":" ","HOUSE_NO":"７２之１號","E_COORD97":177607.87,"N_COORD97":2551424.5499999998,"ADDRESS":"永就７２之１號","OBJECTID":33842},"geometry":{"x":177607.87000000104,"y":2551424.5500000007}},{"attributes":{"ID":33843,"DIS_CODE":0,"TOWNNAME":"新市區","LI":"港墘里","LIN":"7鄰","STREET":" ","SECT":" ","MAREA":"店頂","LANE":" ","ALLEY":" ","HOUSE_NO":"３之５號","E_COORD97":179005.20999999999,"N_COORD97":2553260.7999999998,"ADDRESS":"店頂３之５號","OBJECTID":33843},"geometry":{"x":179005.21000000183,"y":2553260.8000000007}},{"attributes":{"ID":33844,"DIS_CODE":0,"TOWNNAME":"南區","LI":"文華里","LIN":"8鄰","STREET":"金華路","SECT":"二段","MAREA":" ","LANE":"３４５巷","ALLEY":"８弄","HOUSE_NO":"１３號四樓","E_COORD97":167083.31,"N_COORD97":2542985.1200000001,"ADDRESS":"金華路二段３４５巷８弄１３號四樓","OBJECTID":33844},"geometry":{"x":167083.30999999959,"y":2542985.1200000029}},{"attributes":{"ID":33845,"DIS_CODE":0,"TOWNNAME":"南區","LI":"文華里","LIN":"8鄰","STREET":"金華路","SECT":"二段","MAREA":" ","LANE":"３４５巷","ALLEY":"８弄","HOUSE_NO":"１３號五樓","E_COORD97":167083.31,"N_COORD97":2542985.1200000001,"ADDRESS":"金華路二段３４５巷８弄１３號五樓","OBJECTID":33845},"geometry":{"x":167083.30999999959,"y":2542985.1200000029}},{"attributes":{"ID":33846,"DIS_CODE":0,"TOWNNAME":"南區","LI":"文華里","LIN":"8鄰","STREET":"金華路","SECT":"二段","MAREA":" ","LANE":"３４５巷","ALLEY":"８弄","HOUSE_NO":"１５號二樓","E_COORD97":167083.39999999999,"N_COORD97":2542989.4300000002,"ADDRESS":"金華路二段３４５巷８弄１５號二樓","OBJECTID":33846},"geometry":{"x":167083.40000000037,"y":2542989.4299999997}},{"attributes":{"ID":33847,"DIS_CODE":0,"TOWNNAME":"關廟區","LI":"香洋里","LIN":"17鄰","STREET":"中央路","SECT":" ","MAREA":" ","LANE":"２２巷","ALLEY":"７弄","HOUSE_NO":"２號","E_COORD97":181540.794009,"N_COORD97":2540080.5913399998,"ADDRESS":"中央路２２巷７弄２號","OBJECTID":33847},"geometry":{"x":181540.79400900006,"y":2540080.5913389996}},{"attributes":{"ID":33848,"DIS_CODE":0,"TOWNNAME":"七股區","LI":"十份里","LIN":"7鄰","STREET":" ","SECT":" ","MAREA":"十份","LANE":" ","ALLEY":" ","HOUSE_NO":"７０號之８","E_COORD97":157717.82999999999,"N_COORD97":2555043.8999999999,"ADDRESS":"十份７０號之８","OBJECTID":33848},"geometry":{"x":157717.82999999914,"y":2555043.8999999985}},{"attributes":{"ID":33849,"DIS_CODE":0,"TOWNNAME":"南區","LI":"文華里","LIN":"8鄰","STREET":"金華路","SECT":"二段","MAREA":" ","LANE":"３４５巷","ALLEY":"８弄","HOUSE_NO":"１５號三樓","E_COORD97":167083.39999999999,"N_COORD97":2542989.4300000002,"ADDRESS":"金華路二段３４５巷８弄１５號三樓","OBJECTID":33849},"geometry":{"x":167083.40000000037,"y":2542989.4299999997}},{"attributes":{"ID":33850,"DIS_CODE":0,"TOWNNAME":"歸仁區","LI":"辜厝里","LIN":"4鄰","STREET":"民族南街","SECT":" ","MAREA":" ","LANE":"１８巷","ALLEY":"２７弄","HOUSE_NO":"１１號","E_COORD97":177368.12825099999,"N_COORD97":2540716.5989199998,"ADDRESS":"民族南街１８巷２７弄１１號","OBJECTID":33850},"geometry":{"x":177368.12825100124,"y":2540716.5989190023}},{"attributes":{"ID":33851,"DIS_CODE":0,"TOWNNAME":"新市區","LI":"社內里","LIN":"7鄰","STREET":" ","SECT":" ","MAREA":"社內","LANE":" ","ALLEY":" ","HOUSE_NO":"６８之１號","E_COORD97":176624.70000000001,"N_COORD97":2552744.7999999998,"ADDRESS":"社內６８之１號","OBJECTID":33851},"geometry":{"x":176624.70000000019,"y":2552744.8000000007}},{"attributes":{"ID":33852,"DIS_CODE":0,"TOWNNAME":"七股區","LI":"大寮里","LIN":"7鄰","STREET":" ","SECT":" ","MAREA":"大寮","LANE":" ","ALLEY":" ","HOUSE_NO":"１０９號","E_COORD97":163297.38,"N_COORD97":2560817.6600000001,"ADDRESS":"大寮１０９號","OBJECTID":33852},"geometry":{"x":163297.37999999989,"y":2560817.6600000001}},{"attributes":{"ID":33853,"DIS_CODE":0,"TOWNNAME":"南區","LI":"文華里","LIN":"8鄰","STREET":"金華路","SECT":"二段","MAREA":" ","LANE":"３４５巷","ALLEY":"８弄","HOUSE_NO":"１５號四樓","E_COORD97":167083.39999999999,"N_COORD97":2542989.4300000002,"ADDRESS":"金華路二段３４５巷８弄１５號四樓","OBJECTID":33853},"geometry":{"x":167083.40000000037,"y":2542989.4299999997}},{"attributes":{"ID":33854,"DIS_CODE":0,"TOWNNAME":"新市區","LI":"社內里","LIN":"7鄰","STREET":" ","SECT":" ","MAREA":"社內","LANE":" ","ALLEY":" ","HOUSE_NO":"７３之２２號","E_COORD97":176677.32999999999,"N_COORD97":2552784.5499999998,"ADDRESS":"社內７３之２２號","OBJECTID":33854},"geometry":{"x":176677.33000000101,"y":2552784.5500000007}},{"attributes":{"ID":33855,"DIS_CODE":0,"TOWNNAME":"新市區","LI":"港墘里","LIN":"7鄰","STREET":" ","SECT":" ","MAREA":"店頂","LANE":" ","ALLEY":" ","HOUSE_NO":"９號","E_COORD97":179103.48999999999,"N_COORD97":2553135.25,"ADDRESS":"店頂９號","OBJECTID":33855},"geometry":{"x":179103.49000000209,"y":2553135.25}},{"attributes":{"ID":33856,"DIS_CODE":0,"TOWNNAME":"新市區","LI":"大營里","LIN":"7鄰","STREET":" ","SECT":" ","MAREA":"大營","LANE":" ","ALLEY":" ","HOUSE_NO":"１５６號","E_COORD97":179528.60000000001,"N_COORD97":2555449.5,"ADDRESS":"大營１５６號","OBJECTID":33856},"geometry":{"x":179528.59999999963,"y":2555449.5}},{"attributes":{"ID":33857,"DIS_CODE":0,"TOWNNAME":"新市區","LI":"港墘里","LIN":"7鄰","STREET":" ","SECT":" ","MAREA":"店頂","LANE":" ","ALLEY":" ","HOUSE_NO":"１１號","E_COORD97":179120.67999999999,"N_COORD97":2553150,"ADDRESS":"店頂１１號","OBJECTID":33857},"geometry":{"x":179120.68000000063,"y":2553150}},{"attributes":{"ID":33858,"DIS_CODE":0,"TOWNNAME":"南區","LI":"文華里","LIN":"8鄰","STREET":"金華路","SECT":"二段","MAREA":" ","LANE":"３４５巷","ALLEY":"８弄","HOUSE_NO":"１５號五樓","E_COORD97":167083.39999999999,"N_COORD97":2542989.4300000002,"ADDRESS":"金華路二段３４５巷８弄１５號五樓","OBJECTID":33858},"geometry":{"x":167083.40000000037,"y":2542989.4299999997}},{"attributes":{"ID":33859,"DIS_CODE":0,"TOWNNAME":"南區","LI":"松安里","LIN":"14鄰","STREET":"灣裡路","SECT":" ","MAREA":" ","LANE":"２８２巷","ALLEY":"１１０弄","HOUSE_NO":"１０７號","E_COORD97":166036.04999999999,"N_COORD97":2536006.1699999999,"ADDRESS":"灣裡路２８２巷１１０弄１０７號","OBJECTID":33859},"geometry":{"x":166036.04999999888,"y":2536006.1700000018}},{"attributes":{"ID":33860,"DIS_CODE":0,"TOWNNAME":"南區","LI":"松安里","LIN":"14鄰","STREET":"灣裡路","SECT":" ","MAREA":" ","LANE":"２８２巷","ALLEY":"１１０弄","HOUSE_NO":"１１號","E_COORD97":165977.45999999999,"N_COORD97":2536133.4700000002,"ADDRESS":"灣裡路２８２巷１１０弄１１號","OBJECTID":33860},"geometry":{"x":165977.45999999903,"y":2536133.4700000025}},{"attributes":{"ID":33861,"DIS_CODE":0,"TOWNNAME":"麻豆區","LI":"保安里","LIN":"14鄰","STREET":"興中路","SECT":" ","MAREA":" ","LANE":" ","ALLEY":" ","HOUSE_NO":"１０６號３樓之１","E_COORD97":173344.04000000001,"N_COORD97":2564808.9300000002,"ADDRESS":"興中路１０６號３樓之１","OBJECTID":33861},"geometry":{"x":173344.04000000004,"y":2564808.9300000016}},{"attributes":{"ID":33862,"DIS_CODE":0,"TOWNNAME":"麻豆區","LI":"保安里","LIN":"14鄰","STREET":"興中路","SECT":" ","MAREA":" ","LANE":" ","ALLEY":" ","HOUSE_NO":"１０６號３樓之２","E_COORD97":173344.04000000001,"N_COORD97":2564808.9300000002,"ADDRESS":"興中路１０６號３樓之２","OBJECTID":33862},"geometry":{"x":173344.04000000004,"y":2564808.9300000016}},{"attributes":{"ID":33863,"DIS_CODE":0,"TOWNNAME":"新市區","LI":"港墘里","LIN":"7鄰","STREET":" ","SECT":" ","MAREA":"店頂","LANE":" ","ALLEY":" ","HOUSE_NO":"３６號","E_COORD97":179700.84,"N_COORD97":2553187.25,"ADDRESS":"店頂３６號","OBJECTID":33863},"geometry":{"x":179700.84000000171,"y":2553187.2500000019}},{"attributes":{"ID":33864,"DIS_CODE":0,"TOWNNAME":"新市區","LI":"永就里","LIN":"7鄰","STREET":" ","SECT":" ","MAREA":"永就","LANE":" ","ALLEY":" ","HOUSE_NO":"７１之８號","E_COORD97":177598.54000000001,"N_COORD97":2551360.0499999998,"ADDRESS":"永就７１之８號","OBJECTID":33864},"geometry":{"x":177598.54000000004,"y":2551360.0500000007}},{"attributes":{"ID":33865,"DIS_CODE":0,"TOWNNAME":"新市區","LI":"港墘里","LIN":"7鄰","STREET":" ","SECT":" ","MAREA":"店頂","LANE":" ","ALLEY":" ","HOUSE_NO":"４１號","E_COORD97":179162.37,"N_COORD97":2553158.75,"ADDRESS":"店頂４１號","OBJECTID":33865},"geometry":{"x":179162.37000000104,"y":2553158.75}},{"attributes":{"ID":33866,"DIS_CODE":0,"TOWNNAME":"新市區","LI":"大營里","LIN":"7鄰","STREET":" ","SECT":" ","MAREA":"大營","LANE":" ","ALLEY":" ","HOUSE_NO":"１５６之６號","E_COORD97":179503.79000000001,"N_COORD97":2555441.0499999998,"ADDRESS":"大營１５６之６號","OBJECTID":33866},"geometry":{"x":179503.79000000097,"y":2555441.0500000026}},{"attributes":{"ID":33867,"DIS_CODE":0,"TOWNNAME":"新市區","LI":"永就里","LIN":"7鄰","STREET":" ","SECT":" ","MAREA":"永就","LANE":" ","ALLEY":" ","HOUSE_NO":"７５之２號","E_COORD97":177643.34,"N_COORD97":2551499.2999999998,"ADDRESS":"永就７５之２號","OBJECTID":33867},"geometry":{"x":177643.34000000078,"y":2551499.3000000026}},{"attributes":{"ID":33868,"DIS_CODE":0,"TOWNNAME":"新市區","LI":"港墘里","LIN":"7鄰","STREET":" ","SECT":" ","MAREA":"店頂","LANE":" ","ALLEY":" ","HOUSE_NO":"１７號","E_COORD97":179149.59,"N_COORD97":2553099.25,"ADDRESS":"店頂１７號","OBJECTID":33868},"geometry":{"x":179149.58999999985,"y":2553099.2500000019}},{"attributes":{"ID":33869,"DIS_CODE":0,"TOWNNAME":"新市區","LI":"三舍里","LIN":"7鄰","STREET":" ","SECT":" ","MAREA":"三舍","LANE":" ","ALLEY":" ","HOUSE_NO":"１６８之２號","E_COORD97":177766.48000000001,"N_COORD97":2554449.7999999998,"ADDRESS":"三舍１６８之２號","OBJECTID":33869},"geometry":{"x":177766.48000000138,"y":2554449.8000000026}},{"attributes":{"ID":33870,"DIS_CODE":0,"TOWNNAME":"新市區","LI":"港墘里","LIN":"7鄰","STREET":" ","SECT":" ","MAREA":"店頂","LANE":" ","ALLEY":" ","HOUSE_NO":"１之１１號","E_COORD97":179076.07000000001,"N_COORD97":2553095.0499999998,"ADDRESS":"店頂１之１１號","OBJECTID":33870},"geometry":{"x":179076.07000000123,"y":2553095.0500000026}},{"attributes":{"ID":33871,"DIS_CODE":0,"TOWNNAME":"新市區","LI":"社內里","LIN":"7鄰","STREET":" ","SECT":" ","MAREA":"社內","LANE":" ","ALLEY":" ","HOUSE_NO":"７３之７號","E_COORD97":176676.84,"N_COORD97":2552766.7999999998,"ADDRESS":"社內７３之７號","OBJECTID":33871},"geometry":{"x":176676.84000000078,"y":2552766.8000000045}},{"attributes":{"ID":33872,"DIS_CODE":0,"TOWNNAME":"七股區","LI":"七股里","LIN":"7鄰","STREET":" ","SECT":" ","MAREA":"七股","LANE":" ","ALLEY":" ","HOUSE_NO":"６５號之１","E_COORD97":160813.92000000001,"N_COORD97":2559470.4700000002,"ADDRESS":"七股６５號之１","OBJECTID":33872},"geometry":{"x":160813.91999999993,"y":2559470.4700000007}},{"attributes":{"ID":33873,"DIS_CODE":0,"TOWNNAME":"七股區","LI":"七股里","LIN":"7鄰","STREET":" ","SECT":" ","MAREA":"七股","LANE":" ","ALLEY":" ","HOUSE_NO":"６５號","E_COORD97":160824.89000000001,"N_COORD97":2559456.9900000002,"ADDRESS":"七股６５號","OBJECTID":33873},"geometry":{"x":160824.8900000006,"y":2559456.9900000002}},{"attributes":{"ID":33874,"DIS_CODE":0,"TOWNNAME":"七股區","LI":"七股里","LIN":"7鄰","STREET":" ","SECT":" ","MAREA":"七股","LANE":" ","ALLEY":" ","HOUSE_NO":"６６號","E_COORD97":160826.51999999999,"N_COORD97":2559430.9399999999,"ADDRESS":"七股６６號","OBJECTID":33874},"geometry":{"x":160826.51999999955,"y":2559430.9400000013}},{"attributes":{"ID":33875,"DIS_CODE":0,"TOWNNAME":"七股區","LI":"七股里","LIN":"7鄰","STREET":" ","SECT":" ","MAREA":"七股","LANE":" ","ALLEY":" ","HOUSE_NO":"６７號之１","E_COORD97":160832.38,"N_COORD97":2559388.3799999999,"ADDRESS":"七股６７號之１","OBJECTID":33875},"geometry":{"x":160832.37999999989,"y":2559388.379999999}},{"attributes":{"ID":33876,"DIS_CODE":0,"TOWNNAME":"七股區","LI":"七股里","LIN":"7鄰","STREET":" ","SECT":" ","MAREA":"七股","LANE":" ","ALLEY":" ","HOUSE_NO":"６７號","E_COORD97":160832.59,"N_COORD97":2559413.8100000001,"ADDRESS":"七股６７號","OBJECTID":33876},"geometry":{"x":160832.58999999985,"y":2559413.8100000005}},{"attributes":{"ID":33877,"DIS_CODE":0,"TOWNNAME":"七股區","LI":"七股里","LIN":"7鄰","STREET":" ","SECT":" ","MAREA":"七股","LANE":" ","ALLEY":" ","HOUSE_NO":"６８號之１","E_COORD97":160819.70999999999,"N_COORD97":2559370.2799999998,"ADDRESS":"七股６８號之１","OBJECTID":33877},"geometry":{"x":160819.71000000089,"y":2559370.2800000012}},{"attributes":{"ID":33878,"DIS_CODE":0,"TOWNNAME":"七股區","LI":"七股里","LIN":"7鄰","STREET":" ","SECT":" ","MAREA":"七股","LANE":" ","ALLEY":" ","HOUSE_NO":"６８號","E_COORD97":160834.85000000001,"N_COORD97":2559364.9399999999,"ADDRESS":"七股６８號","OBJECTID":33878},"geometry":{"x":160834.85000000149,"y":2559364.9399999995}},{"attributes":{"ID":33879,"DIS_CODE":0,"TOWNNAME":"七股區","LI":"七股里","LIN":"7鄰","STREET":" ","SECT":" ","MAREA":"七股","LANE":" ","ALLEY":" ","HOUSE_NO":"６９號","E_COORD97":160848.37,"N_COORD97":2559407.4300000002,"ADDRESS":"七股６９號","OBJECTID":33879},"geometry":{"x":160848.37000000011,"y":2559407.4300000016}},{"attributes":{"ID":33880,"DIS_CODE":0,"TOWNNAME":"七股區","LI":"七股里","LIN":"7鄰","STREET":" ","SECT":" ","MAREA":"七股","LANE":" ","ALLEY":" ","HOUSE_NO":"７０號","E_COORD97":160804.16,"N_COORD97":2559409.2200000002,"ADDRESS":"七股７０號","OBJECTID":33880},"geometry":{"x":160804.16000000015,"y":2559409.2200000044}},{"attributes":{"ID":33881,"DIS_CODE":0,"TOWNNAME":"七股區","LI":"七股里","LIN":"7鄰","STREET":" ","SECT":" ","MAREA":"七股","LANE":" ","ALLEY":" ","HOUSE_NO":"７１號","E_COORD97":160785.95999999999,"N_COORD97":2559402.9900000002,"ADDRESS":"七股７１號","OBJECTID":33881},"geometry":{"x":160785.96000000089,"y":2559402.9900000002}},{"attributes":{"ID":33882,"DIS_CODE":0,"TOWNNAME":"七股區","LI":"十份里","LIN":"7鄰","STREET":" ","SECT":" ","MAREA":"十份","LANE":" ","ALLEY":" ","HOUSE_NO":"６８號之１","E_COORD97":157856.57000000001,"N_COORD97":2555012,"ADDRESS":"十份６８號之１","OBJECTID":33882},"geometry":{"x":157856.5700000003,"y":2555012}},{"attributes":{"ID":33883,"DIS_CODE":0,"TOWNNAME":"七股區","LI":"十份里","LIN":"7鄰","STREET":" ","SECT":" ","MAREA":"十份","LANE":" ","ALLEY":" ","HOUSE_NO":"６８號之２","E_COORD97":157884.23999999999,"N_COORD97":2555011.4500000002,"ADDRESS":"十份６８號之２","OBJECTID":33883},"geometry":{"x":157884.24000000022,"y":2555011.4499999993}},{"attributes":{"ID":33884,"DIS_CODE":0,"TOWNNAME":"七股區","LI":"十份里","LIN":"7鄰","STREET":" ","SECT":" ","MAREA":"十份","LANE":" ","ALLEY":" ","HOUSE_NO":"６８號之３","E_COORD97":157859.82999999999,"N_COORD97":2555033.8100000001,"ADDRESS":"十份６８號之３","OBJECTID":33884},"geometry":{"x":157859.83000000007,"y":2555033.8100000005}},{"attributes":{"ID":33885,"DIS_CODE":0,"TOWNNAME":"七股區","LI":"十份里","LIN":"7鄰","STREET":" ","SECT":" ","MAREA":"十份","LANE":" ","ALLEY":" ","HOUSE_NO":"６８號","E_COORD97":157929.20999999999,"N_COORD97":2555019.2599999998,"ADDRESS":"十份６８號","OBJECTID":33885},"geometry":{"x":157929.21000000089,"y":2555019.2599999998}},{"attributes":{"ID":33886,"DIS_CODE":0,"TOWNNAME":"佳里區","LI":"六安里","LIN":"7鄰","STREET":" ","SECT":" ","MAREA":"六安","LANE":" ","ALLEY":" ","HOUSE_NO":"５５號之１","E_COORD97":166036.01999999999,"N_COORD97":2562815.9700000002,"ADDRESS":"六安５５號之１","OBJECTID":33886},"geometry":{"x":166036.02000000142,"y":2562815.9700000025}},{"attributes":{"ID":33887,"DIS_CODE":0,"TOWNNAME":"七股區","LI":"三股里","LIN":"7鄰","STREET":" ","SECT":" ","MAREA":"三股","LANE":" ","ALLEY":" ","HOUSE_NO":"８０號","E_COORD97":159803.35000000001,"N_COORD97":2555848.5299999998,"ADDRESS":"三股８０號","OBJECTID":33887},"geometry":{"x":159803.34999999963,"y":2555848.5299999993}},{"attributes":{"ID":33888,"DIS_CODE":0,"TOWNNAME":"七股區","LI":"三股里","LIN":"7鄰","STREET":" ","SECT":" ","MAREA":"三股","LANE":" ","ALLEY":" ","HOUSE_NO":"８１號","E_COORD97":159794.5,"N_COORD97":2555859.2200000002,"ADDRESS":"三股８１號","OBJECTID":33888},"geometry":{"x":159794.5,"y":2555859.2200000044}},{"attributes":{"ID":33889,"DIS_CODE":0,"TOWNNAME":"南區","LI":"南華里","LIN":"8鄰","STREET":"中華南路","SECT":"二段","MAREA":" ","LANE":"４００巷","ALLEY":"４弄","HOUSE_NO":"１１號二樓","E_COORD97":166474.95999999999,"N_COORD97":2540381.0099999998,"ADDRESS":"中華南路二段４００巷４弄１１號二樓","OBJECTID":33889},"geometry":{"x":166474.96000000089,"y":2540381.0099999998}},{"attributes":{"ID":33890,"DIS_CODE":0,"TOWNNAME":"七股區","LI":"大寮里","LIN":"7鄰","STREET":" ","SECT":" ","MAREA":"大寮","LANE":" ","ALLEY":" ","HOUSE_NO":"１１０號","E_COORD97":163252.20999999999,"N_COORD97":2560818.1299999999,"ADDRESS":"大寮１１０號","OBJECTID":33890},"geometry":{"x":163252.21000000089,"y":2560818.1300000027}},{"attributes":{"ID":33891,"DIS_CODE":0,"TOWNNAME":"七股區","LI":"大寮里","LIN":"7鄰","STREET":" ","SECT":" ","MAREA":"大寮","LANE":" ","ALLEY":" ","HOUSE_NO":"１１１號之１","E_COORD97":163243.39999999999,"N_COORD97":2560798.2400000002,"ADDRESS":"大寮１１１號之１","OBJECTID":33891},"geometry":{"x":163243.40000000037,"y":2560798.2399999984}},{"attributes":{"ID":33892,"DIS_CODE":0,"TOWNNAME":"七股區","LI":"大寮里","LIN":"7鄰","STREET":" ","SECT":" ","MAREA":"大寮","LANE":" ","ALLEY":" ","HOUSE_NO":"１１１號","E_COORD97":163266.84,"N_COORD97":2560813.5899999999,"ADDRESS":"大寮１１１號","OBJECTID":33892},"geometry":{"x":163266.83999999985,"y":2560813.5900000017}},{"attributes":{"ID":33893,"DIS_CODE":0,"TOWNNAME":"七股區","LI":"大寮里","LIN":"7鄰","STREET":" ","SECT":" ","MAREA":"大寮","LANE":" ","ALLEY":" ","HOUSE_NO":"１１２號","E_COORD97":163262.45999999999,"N_COORD97":2560776.75,"ADDRESS":"大寮１１２號","OBJECTID":33893},"geometry":{"x":163262.46000000089,"y":2560776.75}},{"attributes":{"ID":33894,"DIS_CODE":0,"TOWNNAME":"七股區","LI":"大寮里","LIN":"7鄰","STREET":" ","SECT":" ","MAREA":"大寮","LANE":" ","ALLEY":" ","HOUSE_NO":"５９號之１","E_COORD97":163177.01000000001,"N_COORD97":2560875.4500000002,"ADDRESS":"大寮５９號之１","OBJECTID":33894},"geometry":{"x":163177.01000000071,"y":2560875.4500000011}},{"attributes":{"ID":33895,"DIS_CODE":0,"TOWNNAME":"七股區","LI":"大寮里","LIN":"7鄰","STREET":" ","SECT":" ","MAREA":"大寮","LANE":" ","ALLEY":" ","HOUSE_NO":"５９號之２","E_COORD97":163171.91,"N_COORD97":2560878.9700000002,"ADDRESS":"大寮５９號之２","OBJECTID":33895},"geometry":{"x":163171.91000000015,"y":2560878.9700000044}},{"attributes":{"ID":33896,"DIS_CODE":0,"TOWNNAME":"七股區","LI":"大寮里","LIN":"7鄰","STREET":" ","SECT":" ","MAREA":"大寮","LANE":" ","ALLEY":" ","HOUSE_NO":"５９號","E_COORD97":163180.41,"N_COORD97":2560874.1699999999,"ADDRESS":"大寮５９號","OBJECTID":33896},"geometry":{"x":163180.41000000015,"y":2560874.1700000018}},{"attributes":{"ID":33897,"DIS_CODE":0,"TOWNNAME":"七股區","LI":"大寮里","LIN":"7鄰","STREET":" ","SECT":" ","MAREA":"大寮","LANE":" ","ALLEY":" ","HOUSE_NO":"６０號","E_COORD97":163167.28,"N_COORD97":2560846.4900000002,"ADDRESS":"大寮６０號","OBJECTID":33897},"geometry":{"x":163167.28000000119,"y":2560846.4900000002}},{"attributes":{"ID":33898,"DIS_CODE":0,"TOWNNAME":"七股區","LI":"大寮里","LIN":"7鄰","STREET":" ","SECT":" ","MAREA":"大寮","LANE":" ","ALLEY":" ","HOUSE_NO":"６３號之１","E_COORD97":163181.32999999999,"N_COORD97":2560837.0800000001,"ADDRESS":"大寮６３號之１","OBJECTID":33898},"geometry":{"x":163181.33000000007,"y":2560837.0800000019}},{"attributes":{"ID":33899,"DIS_CODE":0,"TOWNNAME":"七股區","LI":"大寮里","LIN":"7鄰","STREET":" ","SECT":" ","MAREA":"大寮","LANE":" ","ALLEY":" ","HOUSE_NO":"６３號之２","E_COORD97":163210.12,"N_COORD97":2560842.7599999998,"ADDRESS":"大寮６３號之２","OBJECTID":33899},"geometry":{"x":163210.12000000197,"y":2560842.7600000016}},{"attributes":{"ID":33900,"DIS_CODE":0,"TOWNNAME":"七股區","LI":"大寮里","LIN":"7鄰","STREET":" ","SECT":" ","MAREA":"大寮","LANE":" ","ALLEY":" ","HOUSE_NO":"６３號","E_COORD97":163190.62,"N_COORD97":2560842.9700000002,"ADDRESS":"大寮６３號","OBJECTID":33900},"geometry":{"x":163190.62000000011,"y":2560842.9700000025}},{"attributes":{"ID":33901,"DIS_CODE":0,"TOWNNAME":"玉井區","LI":"望明里","LIN":"1鄰","STREET":" ","SECT":" ","MAREA":"望明","LANE":" ","ALLEY":" ","HOUSE_NO":"７號","E_COORD97":194393.09,"N_COORD97":2556127.2400000002,"ADDRESS":"望明７號","OBJECTID":33901},"geometry":{"x":194393.09000000171,"y":2556127.2400000021}},{"attributes":{"ID":33902,"DIS_CODE":0,"TOWNNAME":"玉井區","LI":"望明里","LIN":"6鄰","STREET":" ","SECT":" ","MAREA":"望明","LANE":" ","ALLEY":" ","HOUSE_NO":"６５號","E_COORD97":194270.23000000001,"N_COORD97":2556097.2400000002,"ADDRESS":"望明６５號","OBJECTID":33902},"geometry":{"x":194270.23000000045,"y":2556097.2400000021}},{"attributes":{"ID":33903,"DIS_CODE":0,"TOWNNAME":"七股區","LI":"大寮里","LIN":"7鄰","STREET":" ","SECT":" ","MAREA":"大寮","LANE":" ","ALLEY":" ","HOUSE_NO":"６４號","E_COORD97":163205.94,"N_COORD97":2560829.3300000001,"ADDRESS":"大寮６４號","OBJECTID":33903},"geometry":{"x":163205.94000000041,"y":2560829.3300000019}},{"attributes":{"ID":33904,"DIS_CODE":0,"TOWNNAME":"七股區","LI":"大寮里","LIN":"7鄰","STREET":" ","SECT":" ","MAREA":"大寮","LANE":" ","ALLEY":" ","HOUSE_NO":"６５號","E_COORD97":163229.14000000001,"N_COORD97":2560816.2599999998,"ADDRESS":"大寮６５號","OBJECTID":33904},"geometry":{"x":163229.13999999966,"y":2560816.2600000016}},{"attributes":{"ID":33905,"DIS_CODE":0,"TOWNNAME":"七股區","LI":"大寮里","LIN":"7鄰","STREET":" ","SECT":" ","MAREA":"大寮","LANE":" ","ALLEY":" ","HOUSE_NO":"６６號","E_COORD97":163224.17000000001,"N_COORD97":2560809.0899999999,"ADDRESS":"大寮６６號","OBJECTID":33905},"geometry":{"x":163224.16999999993,"y":2560809.089999998}},{"attributes":{"ID":33906,"DIS_CODE":0,"TOWNNAME":"七股區","LI":"大寮里","LIN":"7鄰","STREET":" ","SECT":" ","MAREA":"大寮","LANE":" ","ALLEY":" ","HOUSE_NO":"６７號","E_COORD97":163228.67999999999,"N_COORD97":2560863.48,"ADDRESS":"大寮６７號","OBJECTID":33906},"geometry":{"x":163228.68000000063,"y":2560863.4800000004}},{"attributes":{"ID":33907,"DIS_CODE":0,"TOWNNAME":"七股區","LI":"大寮里","LIN":"7鄰","STREET":" ","SECT":" ","MAREA":"大寮","LANE":" ","ALLEY":" ","HOUSE_NO":"６８號之１","E_COORD97":163206.42999999999,"N_COORD97":2560873.5600000001,"ADDRESS":"大寮６８號之１","OBJECTID":33907},"geometry":{"x":163206.43000000063,"y":2560873.5600000005}},{"attributes":{"ID":33908,"DIS_CODE":0,"TOWNNAME":"七股區","LI":"大寮里","LIN":"7鄰","STREET":" ","SECT":" ","MAREA":"大寮","LANE":" ","ALLEY":" ","HOUSE_NO":"６８號","E_COORD97":163225.73000000001,"N_COORD97":2560884.7599999998,"ADDRESS":"大寮６８號","OBJECTID":33908},"geometry":{"x":163225.73000000138,"y":2560884.7599999998}},{"attributes":{"ID":33909,"DIS_CODE":0,"TOWNNAME":"七股區","LI":"大埕里","LIN":"7鄰","STREET":" ","SECT":" ","MAREA":"大埕","LANE":" ","ALLEY":" ","HOUSE_NO":"２２３號","E_COORD97":162122.42999999999,"N_COORD97":2560613.7200000002,"ADDRESS":"大埕２２３號","OBJECTID":33909},"geometry":{"x":162122.4299999997,"y":2560613.7200000025}},{"attributes":{"ID":33910,"DIS_CODE":0,"TOWNNAME":"七股區","LI":"大埕里","LIN":"7鄰","STREET":" ","SECT":" ","MAREA":"大埕","LANE":" ","ALLEY":" ","HOUSE_NO":"２２４號","E_COORD97":162125.17999999999,"N_COORD97":2560652.46,"ADDRESS":"大埕２２４號","OBJECTID":33910},"geometry":{"x":162125.18000000063,"y":2560652.4600000028}},{"attributes":{"ID":33911,"DIS_CODE":0,"TOWNNAME":"七股區","LI":"大埕里","LIN":"7鄰","STREET":" ","SECT":" ","MAREA":"大埕","LANE":" ","ALLEY":" ","HOUSE_NO":"２２５號","E_COORD97":162134.78,"N_COORD97":2560669.1000000001,"ADDRESS":"大埕２２５號","OBJECTID":33911},"geometry":{"x":162134.78000000119,"y":2560669.0999999996}},{"attributes":{"ID":33912,"DIS_CODE":0,"TOWNNAME":"七股區","LI":"大埕里","LIN":"7鄰","STREET":" ","SECT":" ","MAREA":"大埕","LANE":" ","ALLEY":" ","HOUSE_NO":"２２６號之１","E_COORD97":162155.67999999999,"N_COORD97":2560672.2400000002,"ADDRESS":"大埕２２６號之１","OBJECTID":33912},"geometry":{"x":162155.68000000063,"y":2560672.2400000002}},{"attributes":{"ID":33913,"DIS_CODE":0,"TOWNNAME":"七股區","LI":"大埕里","LIN":"7鄰","STREET":" ","SECT":" ","MAREA":"大埕","LANE":" ","ALLEY":" ","HOUSE_NO":"２２７號","E_COORD97":162173.75,"N_COORD97":2560668.3300000001,"ADDRESS":"大埕２２７號","OBJECTID":33913},"geometry":{"x":162173.75000000093,"y":2560668.3300000001}},{"attributes":{"ID":33914,"DIS_CODE":0,"TOWNNAME":"七股區","LI":"大埕里","LIN":"7鄰","STREET":" ","SECT":" ","MAREA":"大埕","LANE":" ","ALLEY":" ","HOUSE_NO":"２２８號","E_COORD97":162195.42999999999,"N_COORD97":2560668.5800000001,"ADDRESS":"大埕２２８號","OBJECTID":33914},"geometry":{"x":162195.42999999877,"y":2560668.5800000019}},{"attributes":{"ID":33915,"DIS_CODE":0,"TOWNNAME":"七股區","LI":"中寮里","LIN":"7鄰","STREET":" ","SECT":" ","MAREA":"中寮","LANE":" ","ALLEY":" ","HOUSE_NO":"５４號","E_COORD97":158674.45000000001,"N_COORD97":2561704.3500000001,"ADDRESS":"中寮５４號","OBJECTID":33915},"geometry":{"x":158674.45000000019,"y":2561704.3499999996}},{"attributes":{"ID":33916,"DIS_CODE":0,"TOWNNAME":"七股區","LI":"中寮里","LIN":"7鄰","STREET":" ","SECT":" ","MAREA":"中寮","LANE":" ","ALLEY":" ","HOUSE_NO":"５５號之１","E_COORD97":158690.35000000001,"N_COORD97":2561717.0099999998,"ADDRESS":"中寮５５號之１","OBJECTID":33916},"geometry":{"x":158690.35000000149,"y":2561717.0099999998}},{"attributes":{"ID":33917,"DIS_CODE":0,"TOWNNAME":"七股區","LI":"中寮里","LIN":"7鄰","STREET":" ","SECT":" ","MAREA":"中寮","LANE":" ","ALLEY":" ","HOUSE_NO":"５６號之１","E_COORD97":158707.57999999999,"N_COORD97":2561717.4900000002,"ADDRESS":"中寮５６號之１","OBJECTID":33917},"geometry":{"x":158707.58000000007,"y":2561717.4900000002}},{"attributes":{"ID":33918,"DIS_CODE":0,"TOWNNAME":"七股區","LI":"中寮里","LIN":"7鄰","STREET":" ","SECT":" ","MAREA":"中寮","LANE":" ","ALLEY":" ","HOUSE_NO":"５７號之２","E_COORD97":158768.98000000001,"N_COORD97":2561717.2999999998,"ADDRESS":"中寮５７號之２","OBJECTID":33918},"geometry":{"x":158768.98000000138,"y":2561717.3000000045}},{"attributes":{"ID":33919,"DIS_CODE":0,"TOWNNAME":"七股區","LI":"中寮里","LIN":"7鄰","STREET":" ","SECT":" ","MAREA":"中寮","LANE":" ","ALLEY":" ","HOUSE_NO":"５７號之３","E_COORD97":158756.57000000001,"N_COORD97":2561716.1099999999,"ADDRESS":"中寮５７號之３","OBJECTID":33919},"geometry":{"x":158756.5700000003,"y":2561716.1099999994}},{"attributes":{"ID":33920,"DIS_CODE":0,"TOWNNAME":"七股區","LI":"中寮里","LIN":"7鄰","STREET":" ","SECT":" ","MAREA":"中寮","LANE":" ","ALLEY":" ","HOUSE_NO":"５７號之４","E_COORD97":158751.84,"N_COORD97":2561714.4700000002,"ADDRESS":"中寮５７號之４","OBJECTID":33920},"geometry":{"x":158751.84000000078,"y":2561714.4700000007}},{"attributes":{"ID":33921,"DIS_CODE":0,"TOWNNAME":"七股區","LI":"中寮里","LIN":"7鄰","STREET":" ","SECT":" ","MAREA":"中寮","LANE":" ","ALLEY":" ","HOUSE_NO":"５７號之５","E_COORD97":158738.01000000001,"N_COORD97":2561710.7200000002,"ADDRESS":"中寮５７號之５","OBJECTID":33921},"geometry":{"x":158738.00999999978,"y":2561710.7200000007}},{"attributes":{"ID":33922,"DIS_CODE":0,"TOWNNAME":"七股區","LI":"中寮里","LIN":"7鄰","STREET":" ","SECT":" ","MAREA":"中寮","LANE":" ","ALLEY":" ","HOUSE_NO":"５７號之６","E_COORD97":158733.92999999999,"N_COORD97":2561709.3599999999,"ADDRESS":"中寮５７號之６","OBJECTID":33922},"geometry":{"x":158733.93000000156,"y":2561709.3600000013}},{"attributes":{"ID":33923,"DIS_CODE":0,"TOWNNAME":"七股區","LI":"中寮里","LIN":"7鄰","STREET":" ","SECT":" ","MAREA":"中寮","LANE":" ","ALLEY":" ","HOUSE_NO":"５８號","E_COORD97":158753.93342099999,"N_COORD97":2561681.5882899999,"ADDRESS":"中寮５８號","OBJECTID":33923},"geometry":{"x":158753.93342099991,"y":2561681.5882860012}},{"attributes":{"ID":33924,"DIS_CODE":0,"TOWNNAME":"七股區","LI":"中寮里","LIN":"7鄰","STREET":" ","SECT":" ","MAREA":"中寮","LANE":" ","ALLEY":" ","HOUSE_NO":"５９號","E_COORD97":158780.60000000001,"N_COORD97":2561675.46,"ADDRESS":"中寮５９號","OBJECTID":33924},"geometry":{"x":158780.60000000056,"y":2561675.4600000009}},{"attributes":{"ID":33925,"DIS_CODE":0,"TOWNNAME":"七股區","LI":"大潭里","LIN":"7鄰","STREET":" ","SECT":" ","MAREA":"台潭","LANE":" ","ALLEY":" ","HOUSE_NO":"８０號","E_COORD97":161058.69,"N_COORD97":2565507.7999999998,"ADDRESS":"台潭８０號","OBJECTID":33925},"geometry":{"x":161058.69000000227,"y":2565507.8000000045}},{"attributes":{"ID":33926,"DIS_CODE":0,"TOWNNAME":"七股區","LI":"大潭里","LIN":"7鄰","STREET":" ","SECT":" ","MAREA":"台潭","LANE":" ","ALLEY":" ","HOUSE_NO":"８３號","E_COORD97":161056.51000000001,"N_COORD97":2565547.5299999998,"ADDRESS":"台潭８３號","OBJECTID":33926},"geometry":{"x":161056.51000000071,"y":2565547.5299999993}},{"attributes":{"ID":33927,"DIS_CODE":0,"TOWNNAME":"七股區","LI":"永吉里","LIN":"7鄰","STREET":" ","SECT":" ","MAREA":"永吉","LANE":" ","ALLEY":" ","HOUSE_NO":"７４號之１","E_COORD97":160784.67999999999,"N_COORD97":2554844.02,"ADDRESS":"永吉７４號之１","OBJECTID":33927},"geometry":{"x":160784.6799999997,"y":2554844.0200000014}},{"attributes":{"ID":33928,"DIS_CODE":0,"TOWNNAME":"七股區","LI":"永吉里","LIN":"7鄰","STREET":" ","SECT":" ","MAREA":"永吉","LANE":" ","ALLEY":" ","HOUSE_NO":"７４號","E_COORD97":160762.67000000001,"N_COORD97":2554838.3599999999,"ADDRESS":"永吉７４號","OBJECTID":33928},"geometry":{"x":160762.66999999993,"y":2554838.3599999994}},{"attributes":{"ID":33929,"DIS_CODE":0,"TOWNNAME":"七股區","LI":"永吉里","LIN":"7鄰","STREET":" ","SECT":" ","MAREA":"永吉","LANE":" ","ALLEY":" ","HOUSE_NO":"７５號之３","E_COORD97":160744.45000000001,"N_COORD97":2554836.52,"ADDRESS":"永吉７５號之３","OBJECTID":33929},"geometry":{"x":160744.45000000019,"y":2554836.5200000014}},{"attributes":{"ID":33930,"DIS_CODE":0,"TOWNNAME":"七股區","LI":"永吉里","LIN":"7鄰","STREET":" ","SECT":" ","MAREA":"永吉","LANE":" ","ALLEY":" ","HOUSE_NO":"７６號之１","E_COORD97":160728.78,"N_COORD97":2554834.9199999999,"ADDRESS":"永吉７６號之１","OBJECTID":33930},"geometry":{"x":160728.78000000026,"y":2554834.9200000018}},{"attributes":{"ID":33931,"DIS_CODE":0,"TOWNNAME":"七股區","LI":"永吉里","LIN":"7鄰","STREET":" ","SECT":" ","MAREA":"永吉","LANE":" ","ALLEY":" ","HOUSE_NO":"７６號","E_COORD97":160733.16,"N_COORD97":2554834.1600000001,"ADDRESS":"永吉７６號","OBJECTID":33931},"geometry":{"x":160733.16000000201,"y":2554834.1600000001}},{"attributes":{"ID":33932,"DIS_CODE":0,"TOWNNAME":"七股區","LI":"永吉里","LIN":"7鄰","STREET":" ","SECT":" ","MAREA":"永吉","LANE":" ","ALLEY":" ","HOUSE_NO":"７７號之２","E_COORD97":160682.44,"N_COORD97":2554825.9300000002,"ADDRESS":"永吉７７號之２","OBJECTID":33932},"geometry":{"x":160682.44000000227,"y":2554825.9299999978}},{"attributes":{"ID":33933,"DIS_CODE":0,"TOWNNAME":"七股區","LI":"永吉里","LIN":"7鄰","STREET":" ","SECT":" ","MAREA":"永吉","LANE":" ","ALLEY":" ","HOUSE_NO":"７８號之１","E_COORD97":160706.10999999999,"N_COORD97":2554842.9500000002,"ADDRESS":"永吉７８號之１","OBJECTID":33933},"geometry":{"x":160706.11000000034,"y":2554842.9500000011}},{"attributes":{"ID":33934,"DIS_CODE":0,"TOWNNAME":"七股區","LI":"永吉里","LIN":"7鄰","STREET":" ","SECT":" ","MAREA":"永吉","LANE":" ","ALLEY":" ","HOUSE_NO":"７８號之２","E_COORD97":160711.01999999999,"N_COORD97":2554877.48,"ADDRESS":"永吉７８號之２","OBJECTID":33934},"geometry":{"x":160711.01999999955,"y":2554877.4800000042}},{"attributes":{"ID":33935,"DIS_CODE":0,"TOWNNAME":"七股區","LI":"永吉里","LIN":"7鄰","STREET":" ","SECT":" ","MAREA":"永吉","LANE":" ","ALLEY":" ","HOUSE_NO":"７８號之３","E_COORD97":160712.13,"N_COORD97":2554841.3300000001,"ADDRESS":"永吉７８號之３","OBJECTID":33935},"geometry":{"x":160712.12999999989,"y":2554841.3300000019}},{"attributes":{"ID":33936,"DIS_CODE":0,"TOWNNAME":"七股區","LI":"永吉里","LIN":"7鄰","STREET":" ","SECT":" ","MAREA":"永吉","LANE":" ","ALLEY":" ","HOUSE_NO":"７８號","E_COORD97":160700.70999999999,"N_COORD97":2554845,"ADDRESS":"永吉７８號","OBJECTID":33936},"geometry":{"x":160700.71000000089,"y":2554845}},{"attributes":{"ID":33937,"DIS_CODE":0,"TOWNNAME":"七股區","LI":"永吉里","LIN":"7鄰","STREET":" ","SECT":" ","MAREA":"永吉","LANE":" ","ALLEY":" ","HOUSE_NO":"７９號之１","E_COORD97":160708.03,"N_COORD97":2554906.9399999999,"ADDRESS":"永吉７９號之１","OBJECTID":33937},"geometry":{"x":160708.03000000026,"y":2554906.9399999995}},{"attributes":{"ID":33938,"DIS_CODE":0,"TOWNNAME":"七股區","LI":"永吉里","LIN":"7鄰","STREET":" ","SECT":" ","MAREA":"永吉","LANE":" ","ALLEY":" ","HOUSE_NO":"７９號之２","E_COORD97":160689.56,"N_COORD97":2554845.02,"ADDRESS":"永吉７９號之２","OBJECTID":33938},"geometry":{"x":160689.56000000052,"y":2554845.0199999996}},{"attributes":{"ID":33939,"DIS_CODE":0,"TOWNNAME":"七股區","LI":"永吉里","LIN":"7鄰","STREET":" ","SECT":" ","MAREA":"永吉","LANE":" ","ALLEY":" ","HOUSE_NO":"７９號","E_COORD97":160695.88,"N_COORD97":2554886.3799999999,"ADDRESS":"永吉７９號","OBJECTID":33939},"geometry":{"x":160695.88000000175,"y":2554886.379999999}},{"attributes":{"ID":33940,"DIS_CODE":0,"TOWNNAME":"七股區","LI":"永吉里","LIN":"7鄰","STREET":" ","SECT":" ","MAREA":"永吉","LANE":" ","ALLEY":" ","HOUSE_NO":"８０號","E_COORD97":160677.29000000001,"N_COORD97":2554883.0499999998,"ADDRESS":"永吉８０號","OBJECTID":33940},"geometry":{"x":160677.29000000004,"y":2554883.0500000007}},{"attributes":{"ID":33941,"DIS_CODE":0,"TOWNNAME":"七股區","LI":"永吉里","LIN":"7鄰","STREET":" ","SECT":" ","MAREA":"永吉","LANE":" ","ALLEY":" ","HOUSE_NO":"８１號","E_COORD97":160657.28,"N_COORD97":2554886.1699999999,"ADDRESS":"永吉８１號","OBJECTID":33941},"geometry":{"x":160657.28000000026,"y":2554886.1700000018}},{"attributes":{"ID":33942,"DIS_CODE":0,"TOWNNAME":"七股區","LI":"玉成里","LIN":"7鄰","STREET":" ","SECT":" ","MAREA":"玉成","LANE":" ","ALLEY":" ","HOUSE_NO":"６５號之１","E_COORD97":161066.32000000001,"N_COORD97":2559748.5899999999,"ADDRESS":"玉成６５號之１","OBJECTID":33942},"geometry":{"x":161066.32000000216,"y":2559748.5900000017}},{"attributes":{"ID":33943,"DIS_CODE":0,"TOWNNAME":"七股區","LI":"玉成里","LIN":"7鄰","STREET":" ","SECT":" ","MAREA":"玉成","LANE":" ","ALLEY":" ","HOUSE_NO":"６５號","E_COORD97":161069.45999999999,"N_COORD97":2559745.0299999998,"ADDRESS":"玉成６５號","OBJECTID":33943},"geometry":{"x":161069.45999999996,"y":2559745.0300000012}},{"attributes":{"ID":33944,"DIS_CODE":0,"TOWNNAME":"七股區","LI":"玉成里","LIN":"7鄰","STREET":" ","SECT":" ","MAREA":"玉成","LANE":" ","ALLEY":" ","HOUSE_NO":"６６號","E_COORD97":161084.81,"N_COORD97":2559732.6600000001,"ADDRESS":"玉成６６號","OBJECTID":33944},"geometry":{"x":161084.81000000052,"y":2559732.6600000001}},{"attributes":{"ID":33945,"DIS_CODE":0,"TOWNNAME":"七股區","LI":"玉成里","LIN":"7鄰","STREET":" ","SECT":" ","MAREA":"玉成","LANE":" ","ALLEY":" ","HOUSE_NO":"６７號之１","E_COORD97":161083.63,"N_COORD97":2559661.8199999998,"ADDRESS":"玉成６７號之１","OBJECTID":33945},"geometry":{"x":161083.62999999989,"y":2559661.8200000003}},{"attributes":{"ID":33946,"DIS_CODE":0,"TOWNNAME":"七股區","LI":"玉成里","LIN":"7鄰","STREET":" ","SECT":" ","MAREA":"玉成","LANE":" ","ALLEY":" ","HOUSE_NO":"６７號","E_COORD97":161065.41,"N_COORD97":2559729.6600000001,"ADDRESS":"玉成６７號","OBJECTID":33946},"geometry":{"x":161065.41000000201,"y":2559729.6600000001}},{"attributes":{"ID":33947,"DIS_CODE":0,"TOWNNAME":"七股區","LI":"玉成里","LIN":"7鄰","STREET":" ","SECT":" ","MAREA":"玉成","LANE":" ","ALLEY":" ","HOUSE_NO":"６９號","E_COORD97":160997.84846099999,"N_COORD97":2559798.3605900002,"ADDRESS":"玉成６９號","OBJECTID":33947},"geometry":{"x":160997.84846100025,"y":2559798.3605889976}},{"attributes":{"ID":33948,"DIS_CODE":0,"TOWNNAME":"七股區","LI":"玉成里","LIN":"7鄰","STREET":" ","SECT":" ","MAREA":"玉成","LANE":" ","ALLEY":" ","HOUSE_NO":"７０號之１","E_COORD97":161026.44,"N_COORD97":2559768.3300000001,"ADDRESS":"玉成７０號之１","OBJECTID":33948},"geometry":{"x":161026.43999999948,"y":2559768.3300000019}},{"attributes":{"ID":33949,"DIS_CODE":0,"TOWNNAME":"七股區","LI":"玉成里","LIN":"7鄰","STREET":" ","SECT":" ","MAREA":"玉成","LANE":" ","ALLEY":" ","HOUSE_NO":"７１號","E_COORD97":161042.70999999999,"N_COORD97":2559775.4100000001,"ADDRESS":"玉成７１號","OBJECTID":33949},"geometry":{"x":161042.70999999996,"y":2559775.4100000001}},{"attributes":{"ID":33950,"DIS_CODE":0,"TOWNNAME":"七股區","LI":"竹港里","LIN":"7鄰","STREET":" ","SECT":" ","MAREA":"竹港","LANE":" ","ALLEY":" ","HOUSE_NO":"６０號","E_COORD97":165021.87,"N_COORD97":2556781.3599999999,"ADDRESS":"竹港６０號","OBJECTID":33950},"geometry":{"x":165021.87000000011,"y":2556781.3599999994}},{"attributes":{"ID":33951,"DIS_CODE":0,"TOWNNAME":"七股區","LI":"竹港里","LIN":"7鄰","STREET":" ","SECT":" ","MAREA":"竹港","LANE":" ","ALLEY":" ","HOUSE_NO":"６１號","E_COORD97":165006.39000000001,"N_COORD97":2556780.4300000002,"ADDRESS":"竹港６１號","OBJECTID":33951},"geometry":{"x":165006.39000000153,"y":2556780.4300000016}},{"attributes":{"ID":33952,"DIS_CODE":0,"TOWNNAME":"七股區","LI":"竹港里","LIN":"7鄰","STREET":" ","SECT":" ","MAREA":"竹港","LANE":" ","ALLEY":" ","HOUSE_NO":"６２號之１","E_COORD97":164970.10999999999,"N_COORD97":2556788.2200000002,"ADDRESS":"竹港６２號之１","OBJECTID":33952},"geometry":{"x":164970.1100000022,"y":2556788.2200000044}},{"attributes":{"ID":33953,"DIS_CODE":0,"TOWNNAME":"七股區","LI":"竹港里","LIN":"7鄰","STREET":" ","SECT":" ","MAREA":"竹港","LANE":" ","ALLEY":" ","HOUSE_NO":"６６號之５","E_COORD97":164959.91,"N_COORD97":2556716.0600000001,"ADDRESS":"竹港６６號之５","OBJECTID":33953},"geometry":{"x":164959.91000000108,"y":2556716.0600000024}},{"attributes":{"ID":33954,"DIS_CODE":0,"TOWNNAME":"七股區","LI":"竹港里","LIN":"7鄰","STREET":" ","SECT":" ","MAREA":"竹港","LANE":" ","ALLEY":" ","HOUSE_NO":"６６號之６","E_COORD97":164964.31,"N_COORD97":2556715.8599999999,"ADDRESS":"竹港６６號之６","OBJECTID":33954},"geometry":{"x":164964.30999999959,"y":2556715.8600000013}},{"attributes":{"ID":33955,"DIS_CODE":0,"TOWNNAME":"七股區","LI":"竹港里","LIN":"7鄰","STREET":" ","SECT":" ","MAREA":"竹港","LANE":" ","ALLEY":" ","HOUSE_NO":"６６號之７","E_COORD97":164968.70999999999,"N_COORD97":2556715.6499999999,"ADDRESS":"竹港６６號之７","OBJECTID":33955},"geometry":{"x":164968.70999999996,"y":2556715.6500000004}},{"attributes":{"ID":33956,"DIS_CODE":0,"TOWNNAME":"七股區","LI":"竹港里","LIN":"7鄰","STREET":" ","SECT":" ","MAREA":"竹港","LANE":" ","ALLEY":" ","HOUSE_NO":"６６號之８","E_COORD97":164973.10999999999,"N_COORD97":2556715.4500000002,"ADDRESS":"竹港６６號之８","OBJECTID":33956},"geometry":{"x":164973.11000000034,"y":2556715.4500000011}},{"attributes":{"ID":33957,"DIS_CODE":0,"TOWNNAME":"七股區","LI":"竹港里","LIN":"7鄰","STREET":" ","SECT":" ","MAREA":"竹港","LANE":" ","ALLEY":" ","HOUSE_NO":"６６號之９","E_COORD97":164980.10999999999,"N_COORD97":2556722.0899999999,"ADDRESS":"竹港６６號之９","OBJECTID":33957},"geometry":{"x":164980.1099999994,"y":2556722.0900000017}},{"attributes":{"ID":33958,"DIS_CODE":0,"TOWNNAME":"七股區","LI":"竹港里","LIN":"7鄰","STREET":" ","SECT":" ","MAREA":"竹港","LANE":" ","ALLEY":" ","HOUSE_NO":"６６號","E_COORD97":164942.31,"N_COORD97":2556716.8599999999,"ADDRESS":"竹港６６號","OBJECTID":33958},"geometry":{"x":164942.30999999866,"y":2556716.8599999994}},{"attributes":{"ID":33959,"DIS_CODE":0,"TOWNNAME":"七股區","LI":"竹港里","LIN":"7鄰","STREET":" ","SECT":" ","MAREA":"竹港","LANE":" ","ALLEY":" ","HOUSE_NO":"６７號之１０","E_COORD97":164972.48999999999,"N_COORD97":2556696.77,"ADDRESS":"竹港６７號之１０","OBJECTID":33959},"geometry":{"x":164972.49000000209,"y":2556696.7700000014}},{"attributes":{"ID":33960,"DIS_CODE":0,"TOWNNAME":"七股區","LI":"竹港里","LIN":"7鄰","STREET":" ","SECT":" ","MAREA":"竹港","LANE":" ","ALLEY":" ","HOUSE_NO":"６７號之１１","E_COORD97":164976.51000000001,"N_COORD97":2556696.8500000001,"ADDRESS":"竹港６７號之１１","OBJECTID":33960},"geometry":{"x":164976.50999999978,"y":2556696.8499999996}},{"attributes":{"ID":33961,"DIS_CODE":0,"TOWNNAME":"七股區","LI":"竹港里","LIN":"7鄰","STREET":" ","SECT":" ","MAREA":"竹港","LANE":" ","ALLEY":" ","HOUSE_NO":"６７號之１２","E_COORD97":164980.53,"N_COORD97":2556696.9300000002,"ADDRESS":"竹港６７號之１２","OBJECTID":33961},"geometry":{"x":164980.52999999933,"y":2556696.9299999997}},{"attributes":{"ID":33962,"DIS_CODE":0,"TOWNNAME":"七股區","LI":"竹港里","LIN":"7鄰","STREET":" ","SECT":" ","MAREA":"竹港","LANE":" ","ALLEY":" ","HOUSE_NO":"６７號之１","E_COORD97":164938.78,"N_COORD97":2556694.9100000001,"ADDRESS":"竹港６７號之１","OBJECTID":33962},"geometry":{"x":164938.78000000119,"y":2556694.9100000039}},{"attributes":{"ID":33963,"DIS_CODE":0,"TOWNNAME":"七股區","LI":"竹港里","LIN":"7鄰","STREET":" ","SECT":" ","MAREA":"竹港","LANE":" ","ALLEY":" ","HOUSE_NO":"６７號之２","E_COORD97":164943.07000000001,"N_COORD97":2556695.1400000001,"ADDRESS":"竹港６７號之２","OBJECTID":33963},"geometry":{"x":164943.07000000216,"y":2556695.1400000025}},{"attributes":{"ID":33964,"DIS_CODE":0,"TOWNNAME":"七股區","LI":"竹港里","LIN":"7鄰","STREET":" ","SECT":" ","MAREA":"竹港","LANE":" ","ALLEY":" ","HOUSE_NO":"６７號之３","E_COORD97":164947.37,"N_COORD97":2556695.3599999999,"ADDRESS":"竹港６７號之３","OBJECTID":33964},"geometry":{"x":164947.37000000011,"y":2556695.3600000013}},{"attributes":{"ID":33965,"DIS_CODE":0,"TOWNNAME":"七股區","LI":"竹港里","LIN":"7鄰","STREET":" ","SECT":" ","MAREA":"竹港","LANE":" ","ALLEY":" ","HOUSE_NO":"６７號之５","E_COORD97":164951.66,"N_COORD97":2556695.5800000001,"ADDRESS":"竹港６７號之５","OBJECTID":33965},"geometry":{"x":164951.66000000108,"y":2556695.5800000001}},{"attributes":{"ID":33966,"DIS_CODE":0,"TOWNNAME":"南區","LI":"南華里","LIN":"8鄰","STREET":"中華南路","SECT":"二段","MAREA":" ","LANE":"４００巷","ALLEY":"４弄","HOUSE_NO":"１１號三樓","E_COORD97":166474.95999999999,"N_COORD97":2540381.0099999998,"ADDRESS":"中華南路二段４００巷４弄１１號三樓","OBJECTID":33966},"geometry":{"x":166474.96000000089,"y":2540381.0099999998}},{"attributes":{"ID":33967,"DIS_CODE":0,"TOWNNAME":"南區","LI":"南華里","LIN":"8鄰","STREET":"中華南路","SECT":"二段","MAREA":" ","LANE":"４００巷","ALLEY":"４弄","HOUSE_NO":"１１號五樓","E_COORD97":166474.95999999999,"N_COORD97":2540381.0099999998,"ADDRESS":"中華南路二段４００巷４弄１１號五樓","OBJECTID":33967},"geometry":{"x":166474.96000000089,"y":2540381.0099999998}},{"attributes":{"ID":33968,"DIS_CODE":0,"TOWNNAME":"南區","LI":"南華里","LIN":"8鄰","STREET":"中華南路","SECT":"二段","MAREA":" ","LANE":"４００巷","ALLEY":"４弄","HOUSE_NO":"１１號四樓","E_COORD97":166474.95999999999,"N_COORD97":2540381.0099999998,"ADDRESS":"中華南路二段４００巷４弄１１號四樓","OBJECTID":33968},"geometry":{"x":166474.96000000089,"y":2540381.0099999998}},{"attributes":{"ID":33969,"DIS_CODE":0,"TOWNNAME":"南區","LI":"南華里","LIN":"8鄰","STREET":"中華南路","SECT":"二段","MAREA":" ","LANE":"４００巷","ALLEY":"４弄","HOUSE_NO":"１３號二樓","E_COORD97":166461.95999999999,"N_COORD97":2540388.0299999998,"ADDRESS":"中華南路二段４００巷４弄１３號二樓","OBJECTID":33969},"geometry":{"x":166461.95999999996,"y":2540388.0299999993}},{"attributes":{"ID":33970,"DIS_CODE":0,"TOWNNAME":"南區","LI":"南華里","LIN":"8鄰","STREET":"中華南路","SECT":"二段","MAREA":" ","LANE":"４００巷","ALLEY":"４弄","HOUSE_NO":"１３號三樓","E_COORD97":166461.95999999999,"N_COORD97":2540388.0299999998,"ADDRESS":"中華南路二段４００巷４弄１３號三樓","OBJECTID":33970},"geometry":{"x":166461.95999999996,"y":2540388.0299999993}},{"attributes":{"ID":33971,"DIS_CODE":0,"TOWNNAME":"七股區","LI":"竹港里","LIN":"7鄰","STREET":" ","SECT":" ","MAREA":"竹港","LANE":" ","ALLEY":" ","HOUSE_NO":"６７號之６","E_COORD97":164955.95999999999,"N_COORD97":2556695.7999999998,"ADDRESS":"竹港６７號之６","OBJECTID":33971},"geometry":{"x":164955.96000000089,"y":2556695.8000000007}},{"attributes":{"ID":33972,"DIS_CODE":0,"TOWNNAME":"七股區","LI":"竹港里","LIN":"7鄰","STREET":" ","SECT":" ","MAREA":"竹港","LANE":" ","ALLEY":" ","HOUSE_NO":"６７號之７","E_COORD97":164960.26000000001,"N_COORD97":2556696.02,"ADDRESS":"竹港６７號之７","OBJECTID":33972},"geometry":{"x":164960.26000000071,"y":2556696.0199999996}},{"attributes":{"ID":33973,"DIS_CODE":0,"TOWNNAME":"麻豆區","LI":"寮\u25A0里","LIN":"7鄰","STREET":" ","SECT":" ","MAREA":"寮子\u25A0","LANE":" ","ALLEY":" ","HOUSE_NO":"５９號之３","E_COORD97":176868.22,"N_COORD97":2565201.8700000001,"ADDRESS":"寮子\u25A0５９號之３","OBJECTID":33973},"geometry":{"x":176868.21999999974,"y":2565201.870000001}},{"attributes":{"ID":33974,"DIS_CODE":0,"TOWNNAME":"南區","LI":"南華里","LIN":"8鄰","STREET":"中華南路","SECT":"二段","MAREA":" ","LANE":"４００巷","ALLEY":"４弄","HOUSE_NO":"１３號五樓","E_COORD97":166461.95999999999,"N_COORD97":2540388.0299999998,"ADDRESS":"中華南路二段４００巷４弄１３號五樓","OBJECTID":33974},"geometry":{"x":166461.95999999996,"y":2540388.0299999993}},{"attributes":{"ID":33975,"DIS_CODE":0,"TOWNNAME":"麻豆區","LI":"寮\u25A0里","LIN":"7鄰","STREET":" ","SECT":" ","MAREA":"寮子\u25A0","LANE":" ","ALLEY":" ","HOUSE_NO":"５９號之４","E_COORD97":176864.20000000001,"N_COORD97":2565202.6800000002,"ADDRESS":"寮子\u25A0５９號之４","OBJECTID":33975},"geometry":{"x":176864.20000000019,"y":2565202.6800000034}},{"attributes":{"ID":33976,"DIS_CODE":0,"TOWNNAME":"麻豆區","LI":"寮\u25A0里","LIN":"7鄰","STREET":" ","SECT":" ","MAREA":"寮子\u25A0","LANE":" ","ALLEY":" ","HOUSE_NO":"５９號之６","E_COORD97":176856.39000000001,"N_COORD97":2565204.7599999998,"ADDRESS":"寮子\u25A0５９號之６","OBJECTID":33976},"geometry":{"x":176856.3900000006,"y":2565204.7599999998}},{"attributes":{"ID":33977,"DIS_CODE":0,"TOWNNAME":"麻豆區","LI":"寮\u25A0里","LIN":"7鄰","STREET":" ","SECT":" ","MAREA":"寮子\u25A0","LANE":" ","ALLEY":" ","HOUSE_NO":"５９號","E_COORD97":176879.37,"N_COORD97":2565190.79,"ADDRESS":"寮子\u25A0５９號","OBJECTID":33977},"geometry":{"x":176879.37000000011,"y":2565190.7900000028}},{"attributes":{"ID":33978,"DIS_CODE":0,"TOWNNAME":"北門區","LI":"中樞里","LIN":"7鄰","STREET":" ","SECT":" ","MAREA":"溪底寮","LANE":" ","ALLEY":" ","HOUSE_NO":"５６之１５號","E_COORD97":160836.84,"N_COORD97":2572005.2400000002,"ADDRESS":"溪底寮５６之１５號","OBJECTID":33978},"geometry":{"x":160836.84000000171,"y":2572005.2400000021}},{"attributes":{"ID":33979,"DIS_CODE":0,"TOWNNAME":"北門區","LI":"中樞里","LIN":"7鄰","STREET":" ","SECT":" ","MAREA":"溪底寮","LANE":" ","ALLEY":" ","HOUSE_NO":"５６號之１５","E_COORD97":160836.84,"N_COORD97":2572005.2400000002,"ADDRESS":"溪底寮５６號之１５","OBJECTID":33979},"geometry":{"x":160836.84000000171,"y":2572005.2400000021}},{"attributes":{"ID":33980,"DIS_CODE":0,"TOWNNAME":"北門區","LI":"中樞里","LIN":"7鄰","STREET":" ","SECT":" ","MAREA":"溪底寮","LANE":" ","ALLEY":" ","HOUSE_NO":"５６號之１","E_COORD97":160744.19,"N_COORD97":2571706.7999999998,"ADDRESS":"溪底寮５６號之１","OBJECTID":33980},"geometry":{"x":160744.19000000134,"y":2571706.8000000026}},{"attributes":{"ID":33981,"DIS_CODE":0,"TOWNNAME":"東區","LI":"富強里","LIN":"28鄰","STREET":"東門路","SECT":"二段","MAREA":" ","LANE":"３６５巷","ALLEY":"３４弄","HOUSE_NO":"３號五樓","E_COORD97":170882.94,"N_COORD97":2542689.4700000002,"ADDRESS":"東門路二段３６５巷３４弄３號五樓","OBJECTID":33981},"geometry":{"x":170882.94000000134,"y":2542689.4700000044}},{"attributes":{"ID":33982,"DIS_CODE":0,"TOWNNAME":"北門區","LI":"中樞里","LIN":"7鄰","STREET":" ","SECT":" ","MAREA":"溪底寮","LANE":" ","ALLEY":" ","HOUSE_NO":"５６之２０號","E_COORD97":160673.13,"N_COORD97":2572006.2799999998,"ADDRESS":"溪底寮５６之２０號","OBJECTID":33982},"geometry":{"x":160673.12999999989,"y":2572006.2800000012}},{"attributes":{"ID":33983,"DIS_CODE":0,"TOWNNAME":"北門區","LI":"中樞里","LIN":"7鄰","STREET":" ","SECT":" ","MAREA":"溪底寮","LANE":" ","ALLEY":" ","HOUSE_NO":"５６號之２０","E_COORD97":160673.13,"N_COORD97":2572006.2799999998,"ADDRESS":"溪底寮５６號之２０","OBJECTID":33983},"geometry":{"x":160673.12999999989,"y":2572006.2800000012}},{"attributes":{"ID":33984,"DIS_CODE":0,"TOWNNAME":"北門區","LI":"中樞里","LIN":"7鄰","STREET":" ","SECT":" ","MAREA":"溪底寮","LANE":" ","ALLEY":" ","HOUSE_NO":"５６號之２","E_COORD97":160912.62,"N_COORD97":2572402.4500000002,"ADDRESS":"溪底寮５６號之２","OBJECTID":33984},"geometry":{"x":160912.62000000011,"y":2572402.4500000011}},{"attributes":{"ID":33985,"DIS_CODE":0,"TOWNNAME":"北門區","LI":"中樞里","LIN":"7鄰","STREET":" ","SECT":" ","MAREA":"溪底寮","LANE":" ","ALLEY":" ","HOUSE_NO":"５６號之３","E_COORD97":160899.78,"N_COORD97":2572266.6800000002,"ADDRESS":"溪底寮５６號之３","OBJECTID":33985},"geometry":{"x":160899.78000000026,"y":2572266.6799999997}},{"attributes":{"ID":33986,"DIS_CODE":0,"TOWNNAME":"北門區","LI":"中樞里","LIN":"7鄰","STREET":" ","SECT":" ","MAREA":"溪底寮","LANE":" ","ALLEY":" ","HOUSE_NO":"５６號","E_COORD97":160888.48000000001,"N_COORD97":2571283.7200000002,"ADDRESS":"溪底寮５６號","OBJECTID":33986},"geometry":{"x":160888.48000000045,"y":2571283.7200000025}},{"attributes":{"ID":33987,"DIS_CODE":0,"TOWNNAME":"北門區","LI":"中樞里","LIN":"7鄰","STREET":" ","SECT":" ","MAREA":"溪底寮","LANE":" ","ALLEY":" ","HOUSE_NO":"５７號之１","E_COORD97":160931.44,"N_COORD97":2571274.5699999998,"ADDRESS":"溪底寮５７號之１","OBJECTID":33987},"geometry":{"x":160931.44000000041,"y":2571274.5700000003}},{"attributes":{"ID":33988,"DIS_CODE":0,"TOWNNAME":"北門區","LI":"中樞里","LIN":"7鄰","STREET":" ","SECT":" ","MAREA":"溪底寮","LANE":" ","ALLEY":" ","HOUSE_NO":"５７號","E_COORD97":160935.23000000001,"N_COORD97":2571289.1400000001,"ADDRESS":"溪底寮５７號","OBJECTID":33988},"geometry":{"x":160935.23000000138,"y":2571289.1399999987}},{"attributes":{"ID":33989,"DIS_CODE":0,"TOWNNAME":"官田區","LI":"二鎮里","LIN":"7鄰","STREET":" ","SECT":" ","MAREA":"二鎮","LANE":" ","ALLEY":" ","HOUSE_NO":"５８號之２","E_COORD97":181381.56,"N_COORD97":2568330.9500000002,"ADDRESS":"二鎮５８號之２","OBJECTID":33989},"geometry":{"x":181381.55999999959,"y":2568330.9500000011}},{"attributes":{"ID":33990,"DIS_CODE":0,"TOWNNAME":"官田區","LI":"二鎮里","LIN":"7鄰","STREET":" ","SECT":" ","MAREA":"二鎮","LANE":" ","ALLEY":" ","HOUSE_NO":"５８號之３","E_COORD97":181385.26000000001,"N_COORD97":2568332.2000000002,"ADDRESS":"二鎮５８號之３","OBJECTID":33990},"geometry":{"x":181385.26000000071,"y":2568332.2000000011}},{"attributes":{"ID":33991,"DIS_CODE":0,"TOWNNAME":"官田區","LI":"二鎮里","LIN":"7鄰","STREET":" ","SECT":" ","MAREA":"二鎮","LANE":" ","ALLEY":" ","HOUSE_NO":"５８號之４","E_COORD97":181388.10999999999,"N_COORD97":2568333.6000000001,"ADDRESS":"二鎮５８號之４","OBJECTID":33991},"geometry":{"x":181388.11000000127,"y":2568333.6000000015}},{"attributes":{"ID":33992,"DIS_CODE":0,"TOWNNAME":"官田區","LI":"二鎮里","LIN":"7鄰","STREET":" ","SECT":" ","MAREA":"二鎮","LANE":" ","ALLEY":" ","HOUSE_NO":"５８號之５","E_COORD97":181391.10000000001,"N_COORD97":2568334.6200000001,"ADDRESS":"二鎮５８號之５","OBJECTID":33992},"geometry":{"x":181391.10000000056,"y":2568334.6200000029}},{"attributes":{"ID":33993,"DIS_CODE":0,"TOWNNAME":"官田區","LI":"二鎮里","LIN":"7鄰","STREET":" ","SECT":" ","MAREA":"二鎮","LANE":" ","ALLEY":" ","HOUSE_NO":"５８號","E_COORD97":181380.19,"N_COORD97":2568354.48,"ADDRESS":"二鎮５８號","OBJECTID":33993},"geometry":{"x":181380.19000000041,"y":2568354.4800000042}},{"attributes":{"ID":33994,"DIS_CODE":0,"TOWNNAME":"官田區","LI":"二鎮里","LIN":"7鄰","STREET":" ","SECT":" ","MAREA":"二鎮","LANE":" ","ALLEY":" ","HOUSE_NO":"６０號之１","E_COORD97":181401.47,"N_COORD97":2568340.75,"ADDRESS":"二鎮６０號之１","OBJECTID":33994},"geometry":{"x":181401.46999999974,"y":2568340.75}},{"attributes":{"ID":33995,"DIS_CODE":0,"TOWNNAME":"官田區","LI":"二鎮里","LIN":"7鄰","STREET":" ","SECT":" ","MAREA":"二鎮","LANE":" ","ALLEY":" ","HOUSE_NO":"６０號之２","E_COORD97":181404.85999999999,"N_COORD97":2568342.6099999999,"ADDRESS":"二鎮６０號之２","OBJECTID":33995},"geometry":{"x":181404.8600000022,"y":2568342.6100000013}},{"attributes":{"ID":33996,"DIS_CODE":0,"TOWNNAME":"官田區","LI":"二鎮里","LIN":"7鄰","STREET":" ","SECT":" ","MAREA":"二鎮","LANE":" ","ALLEY":" ","HOUSE_NO":"６０號之３","E_COORD97":181408.44,"N_COORD97":2568344.1499999999,"ADDRESS":"二鎮６０號之３","OBJECTID":33996},"geometry":{"x":181408.44000000134,"y":2568344.1500000022}},{"attributes":{"ID":33997,"DIS_CODE":0,"TOWNNAME":"官田區","LI":"二鎮里","LIN":"7鄰","STREET":" ","SECT":" ","MAREA":"二鎮","LANE":" ","ALLEY":" ","HOUSE_NO":"６０號之４","E_COORD97":181411.57000000001,"N_COORD97":2568345.9700000002,"ADDRESS":"二鎮６０號之４","OBJECTID":33997},"geometry":{"x":181411.5700000003,"y":2568345.9700000025}},{"attributes":{"ID":33998,"DIS_CODE":0,"TOWNNAME":"官田區","LI":"二鎮里","LIN":"7鄰","STREET":" ","SECT":" ","MAREA":"二鎮","LANE":" ","ALLEY":" ","HOUSE_NO":"６０號之５","E_COORD97":181414.41,"N_COORD97":2568347.0499999998,"ADDRESS":"二鎮６０號之５","OBJECTID":33998},"geometry":{"x":181414.40999999922,"y":2568347.0499999989}},{"attributes":{"ID":33999,"DIS_CODE":0,"TOWNNAME":"官田區","LI":"二鎮里","LIN":"7鄰","STREET":" ","SECT":" ","MAREA":"二鎮","LANE":" ","ALLEY":" ","HOUSE_NO":"６０號之６","E_COORD97":181417.51000000001,"N_COORD97":2568348.6499999999,"ADDRESS":"二鎮６０號之６","OBJECTID":33999},"geometry":{"x":181417.51000000071,"y":2568348.6500000004}},{"attributes":{"ID":34000,"DIS_CODE":0,"TOWNNAME":"官田區","LI":"二鎮里","LIN":"7鄰","STREET":" ","SECT":" ","MAREA":"二鎮","LANE":" ","ALLEY":" ","HOUSE_NO":"６０號之７","E_COORD97":181421.89999999999,"N_COORD97":2568348.04,"ADDRESS":"二鎮６０號之７","OBJECTID":34000},"geometry":{"x":181421.9000000013,"y":2568348.0399999991}}]}