{"displayFieldName":"TOWNNAME","fieldAliases":{"ID":"ID","DIS_CODE":"DIS_CODE","TOWNNAME":"TOWNNAME","LI":"LI","LIN":"LIN","STREET":"STREET","SECT":"SECT","MAREA":"MAREA","LANE":"LANE","ALLEY":"ALLEY","HOUSE_NO":"HOUSE_NO","E_COORD97":"E_COORD97","N_COORD97":"N_COORD97","ADDRESS":"ADDRESS","OBJECTID":"OBJECTID"},"geometryType":"esriGeometryPoint","spatialReference":{"wkid":102443,"latestWkid":3826},"fields":[{"name":"ID","type":"esriFieldTypeDouble","alias":"ID"},{"name":"DIS_CODE","type":"esriFieldTypeInteger","alias":"DIS_CODE"},{"name":"TOWNNAME","type":"esriFieldTypeString","alias":"TOWNNAME","length":8},{"name":"LI","type":"esriFieldTypeString","alias":"LI","length":8},{"name":"LIN","type":"esriFieldTypeString","alias":"LIN","length":12},{"name":"STREET","type":"esriFieldTypeString","alias":"STREET","length":20},{"name":"SECT","type":"esriFieldTypeString","alias":"SECT","length":8},{"name":"MAREA","type":"esriFieldTypeString","alias":"MAREA","length":12},{"name":"LANE","type":"esriFieldTypeString","alias":"LANE","length":10},{"name":"ALLEY","type":"esriFieldTypeString","alias":"ALLEY","length":10},{"name":"HOUSE_NO","type":"esriFieldTypeString","alias":"HOUSE_NO","length":20},{"name":"E_COORD97","type":"esriFieldTypeDouble","alias":"E_COORD97"},{"name":"N_COORD97","type":"esriFieldTypeDouble","alias":"N_COORD97"},{"name":"ADDRESS","type":"esriFieldTypeString","alias":"ADDRESS","length":50},{"name":"OBJECTID","type":"esriFieldTypeOID","alias":"OBJECTID"}],"features":[{"attributes":{"ID":150402,"DIS_CODE":0,"TOWNNAME":"東山區","LI":"東山里","LIN":"20鄰","STREET":" ","SECT":" ","MAREA":"東山","LANE":" ","ALLEY":" ","HOUSE_NO":"２９３號之１","E_COORD97":188954.70999999999,"N_COORD97":2580537.8599999999,"ADDRESS":"東山２９３號之１","OBJECTID":150401},"geometry":{"x":188954.71000000089,"y":2580537.8599999994}},{"attributes":{"ID":150403,"DIS_CODE":0,"TOWNNAME":"東山區","LI":"東山里","LIN":"20鄰","STREET":" ","SECT":" ","MAREA":"東山","LANE":" ","ALLEY":" ","HOUSE_NO":"２９３號","E_COORD97":188966.57000000001,"N_COORD97":2580537.7799999998,"ADDRESS":"東山２９３號","OBJECTID":150402},"geometry":{"x":188966.5700000003,"y":2580537.7799999993}},{"attributes":{"ID":150404,"DIS_CODE":0,"TOWNNAME":"東山區","LI":"東山里","LIN":"20鄰","STREET":" ","SECT":" ","MAREA":"東山","LANE":" ","ALLEY":" ","HOUSE_NO":"２９４號","E_COORD97":188944.14000000001,"N_COORD97":2580539.1699999999,"ADDRESS":"東山２９４號","OBJECTID":150403},"geometry":{"x":188944.14000000153,"y":2580539.1699999999}},{"attributes":{"ID":150405,"DIS_CODE":0,"TOWNNAME":"東山區","LI":"東中里","LIN":"20鄰","STREET":" ","SECT":" ","MAREA":"東山市場","LANE":" ","ALLEY":" ","HOUSE_NO":"１１號","E_COORD97":188924.16,"N_COORD97":2580149.2200000002,"ADDRESS":"東山市場１１號","OBJECTID":150404},"geometry":{"x":188924.16000000201,"y":2580149.2200000025}},{"attributes":{"ID":150406,"DIS_CODE":0,"TOWNNAME":"東山區","LI":"東中里","LIN":"20鄰","STREET":" ","SECT":" ","MAREA":"東山市場","LANE":" ","ALLEY":" ","HOUSE_NO":"１３號","E_COORD97":188919.42000000001,"N_COORD97":2580148.0600000001,"ADDRESS":"東山市場１３號","OBJECTID":150405},"geometry":{"x":188919.42000000086,"y":2580148.0600000005}},{"attributes":{"ID":150407,"DIS_CODE":0,"TOWNNAME":"東山區","LI":"東中里","LIN":"20鄰","STREET":" ","SECT":" ","MAREA":"東山市場","LANE":" ","ALLEY":" ","HOUSE_NO":"５號","E_COORD97":188939.57000000001,"N_COORD97":2580154.75,"ADDRESS":"東山市場５號","OBJECTID":150406},"geometry":{"x":188939.5700000003,"y":2580154.7500000019}},{"attributes":{"ID":150408,"DIS_CODE":0,"TOWNNAME":"東山區","LI":"東中里","LIN":"20鄰","STREET":" ","SECT":" ","MAREA":"東山市場","LANE":" ","ALLEY":" ","HOUSE_NO":"９號","E_COORD97":188927.51999999999,"N_COORD97":2580150.3999999999,"ADDRESS":"東山市場９號","OBJECTID":150407},"geometry":{"x":188927.51999999955,"y":2580150.4000000022}},{"attributes":{"ID":150409,"DIS_CODE":0,"TOWNNAME":"永康區","LI":"大灣里","LIN":"19鄰","STREET":"大灣路","SECT":" ","MAREA":" ","LANE":" ","ALLEY":" ","HOUSE_NO":"３８２號","E_COORD97":174814.14000000001,"N_COORD97":2545073.5299999998,"ADDRESS":"大灣路３８２號","OBJECTID":150408},"geometry":{"x":174814.13999999966,"y":2545073.5299999993}},{"attributes":{"ID":150410,"DIS_CODE":0,"TOWNNAME":"永康區","LI":"崑山里","LIN":"19鄰","STREET":"大仁街","SECT":" ","MAREA":" ","LANE":" ","ALLEY":" ","HOUSE_NO":"７號","E_COORD97":173803.22,"N_COORD97":2544505.4300000002,"ADDRESS":"大仁街７號","OBJECTID":150409},"geometry":{"x":173803.21999999974,"y":2544505.4299999997}},{"attributes":{"ID":150411,"DIS_CODE":0,"TOWNNAME":"仁德區","LI":"一甲里","LIN":"3鄰","STREET":"中正路","SECT":"三段","MAREA":" ","LANE":"１３６巷","ALLEY":"１８弄","HOUSE_NO":"８號","E_COORD97":173473.59,"N_COORD97":2541673.7400000002,"ADDRESS":"中正路三段１３６巷１８弄８號","OBJECTID":150410},"geometry":{"x":173473.58999999985,"y":2541673.7400000021}},{"attributes":{"ID":150412,"DIS_CODE":0,"TOWNNAME":"仁德區","LI":"一甲里","LIN":"3鄰","STREET":"中正路","SECT":"三段","MAREA":" ","LANE":"１３６巷","ALLEY":"１８弄","HOUSE_NO":"９號","E_COORD97":173482.69,"N_COORD97":2541661.1899999999,"ADDRESS":"中正路三段１３６巷１８弄９號","OBJECTID":150411},"geometry":{"x":173482.68999999948,"y":2541661.1899999995}},{"attributes":{"ID":150413,"DIS_CODE":0,"TOWNNAME":"仁德區","LI":"太子里","LIN":"3鄰","STREET":"太子路","SECT":" ","MAREA":" ","LANE":"１９０巷","ALLEY":"２３弄","HOUSE_NO":"２１號","E_COORD97":174255.94,"N_COORD97":2543578.7200000002,"ADDRESS":"太子路１９０巷２３弄２１號","OBJECTID":150412},"geometry":{"x":174255.94000000134,"y":2543578.7200000007}},{"attributes":{"ID":150414,"DIS_CODE":0,"TOWNNAME":"仁德區","LI":"太子里","LIN":"3鄰","STREET":"太子路","SECT":" ","MAREA":" ","LANE":"１９０巷","ALLEY":"２３弄","HOUSE_NO":"２３號","E_COORD97":174251.75,"N_COORD97":2543578.5899999999,"ADDRESS":"太子路１９０巷２３弄２３號","OBJECTID":150413},"geometry":{"x":174251.75000000093,"y":2543578.5899999999}},{"attributes":{"ID":150415,"DIS_CODE":0,"TOWNNAME":"仁德區","LI":"太子里","LIN":"3鄰","STREET":"太子路","SECT":" ","MAREA":" ","LANE":"１９０巷","ALLEY":"２３弄","HOUSE_NO":"２５號","E_COORD97":174247.48000000001,"N_COORD97":2543578.1699999999,"ADDRESS":"太子路１９０巷２３弄２５號","OBJECTID":150414},"geometry":{"x":174247.48000000138,"y":2543578.1699999999}},{"attributes":{"ID":150416,"DIS_CODE":0,"TOWNNAME":"永康區","LI":"崑山里","LIN":"19鄰","STREET":"大仁街","SECT":" ","MAREA":" ","LANE":" ","ALLEY":" ","HOUSE_NO":"５號","E_COORD97":173804.26999999999,"N_COORD97":2544500.6800000002,"ADDRESS":"大仁街５號","OBJECTID":150415},"geometry":{"x":173804.27000000048,"y":2544500.6800000034}},{"attributes":{"ID":150417,"DIS_CODE":0,"TOWNNAME":"永康區","LI":"崑山里","LIN":"19鄰","STREET":"大仁街","SECT":" ","MAREA":" ","LANE":" ","ALLEY":" ","HOUSE_NO":"９之１號","E_COORD97":173803.85999999999,"N_COORD97":2544514.6600000001,"ADDRESS":"大仁街９之１號","OBJECTID":150416},"geometry":{"x":173803.86000000127,"y":2544514.6599999983}},{"attributes":{"ID":150418,"DIS_CODE":0,"TOWNNAME":"永康區","LI":"崑山里","LIN":"19鄰","STREET":"崑山街","SECT":" ","MAREA":" ","LANE":" ","ALLEY":" ","HOUSE_NO":"２０號","E_COORD97":173932.88,"N_COORD97":2544575.1400000001,"ADDRESS":"崑山街２０號","OBJECTID":150417},"geometry":{"x":173932.87999999989,"y":2544575.1400000006}},{"attributes":{"ID":150419,"DIS_CODE":0,"TOWNNAME":"安南區","LI":"安富里","LIN":"19鄰","STREET":"安富街","SECT":" ","MAREA":" ","LANE":" ","ALLEY":" ","HOUSE_NO":"１８５號","E_COORD97":167730.82999999999,"N_COORD97":2547467.2999999998,"ADDRESS":"安富街１８５號","OBJECTID":150418},"geometry":{"x":167730.83000000007,"y":2547467.3000000007}},{"attributes":{"ID":150420,"DIS_CODE":0,"TOWNNAME":"仁德區","LI":"太子里","LIN":"3鄰","STREET":"太子路","SECT":" ","MAREA":" ","LANE":"１９０巷","ALLEY":"２３弄","HOUSE_NO":"２７號","E_COORD97":174242.67000000001,"N_COORD97":2543578.02,"ADDRESS":"太子路１９０巷２３弄２７號","OBJECTID":150419},"geometry":{"x":174242.67000000086,"y":2543578.0199999996}},{"attributes":{"ID":150421,"DIS_CODE":0,"TOWNNAME":"安南區","LI":"安富里","LIN":"19鄰","STREET":"安富街","SECT":" ","MAREA":" ","LANE":" ","ALLEY":" ","HOUSE_NO":"１８３號","E_COORD97":167735.42000000001,"N_COORD97":2547470.7400000002,"ADDRESS":"安富街１８３號","OBJECTID":150420},"geometry":{"x":167735.41999999993,"y":2547470.7400000039}},{"attributes":{"ID":150422,"DIS_CODE":0,"TOWNNAME":"安南區","LI":"安富里","LIN":"19鄰","STREET":"安富街","SECT":" ","MAREA":" ","LANE":" ","ALLEY":" ","HOUSE_NO":"１８７號","E_COORD97":167726.01000000001,"N_COORD97":2547468.9100000001,"ADDRESS":"安富街１８７號","OBJECTID":150421},"geometry":{"x":167726.00999999978,"y":2547468.9100000001}},{"attributes":{"ID":150423,"DIS_CODE":0,"TOWNNAME":"安南區","LI":"安富里","LIN":"19鄰","STREET":"安富街","SECT":" ","MAREA":" ","LANE":" ","ALLEY":" ","HOUSE_NO":"１８９號","E_COORD97":167721.64999999999,"N_COORD97":2547465.7000000002,"ADDRESS":"安富街１８９號","OBJECTID":150422},"geometry":{"x":167721.6500000013,"y":2547465.6999999993}},{"attributes":{"ID":150424,"DIS_CODE":0,"TOWNNAME":"安南區","LI":"溪心里","LIN":"3鄰","STREET":"海佃路","SECT":"三段","MAREA":" ","LANE":"４８巷","ALLEY":"５８弄","HOUSE_NO":"１１號","E_COORD97":166424.26999999999,"N_COORD97":2549947.1699999999,"ADDRESS":"海佃路三段４８巷５８弄１１號","OBJECTID":150423},"geometry":{"x":166424.27000000142,"y":2549947.1700000018}},{"attributes":{"ID":150425,"DIS_CODE":0,"TOWNNAME":"安南區","LI":"安富里","LIN":"19鄰","STREET":"安富街","SECT":" ","MAREA":" ","LANE":" ","ALLEY":" ","HOUSE_NO":"１９１號","E_COORD97":167716.38,"N_COORD97":2547466.6200000001,"ADDRESS":"安富街１９１號","OBJECTID":150424},"geometry":{"x":167716.38000000082,"y":2547466.6200000029}},{"attributes":{"ID":150426,"DIS_CODE":0,"TOWNNAME":"東山區","LI":"東正里","LIN":"20鄰","STREET":" ","SECT":" ","MAREA":"東勢","LANE":" ","ALLEY":" ","HOUSE_NO":"１３８號之２","E_COORD97":189329.07999999999,"N_COORD97":2580360.4900000002,"ADDRESS":"東勢１３８號之２","OBJECTID":150425},"geometry":{"x":189329.08000000007,"y":2580360.4900000021}},{"attributes":{"ID":150427,"DIS_CODE":0,"TOWNNAME":"東山區","LI":"聖賢里","LIN":"20鄰","STREET":" ","SECT":" ","MAREA":"頂窩","LANE":" ","ALLEY":" ","HOUSE_NO":"５６號之１","E_COORD97":183250.48999999999,"N_COORD97":2578696.4500000002,"ADDRESS":"頂窩５６號之１","OBJECTID":150426},"geometry":{"x":183250.49000000115,"y":2578696.4499999993}},{"attributes":{"ID":150428,"DIS_CODE":0,"TOWNNAME":"安南區","LI":"溪心里","LIN":"3鄰","STREET":"海佃路","SECT":"三段","MAREA":" ","LANE":"４８巷","ALLEY":"５８弄","HOUSE_NO":"１號","E_COORD97":166399.17000000001,"N_COORD97":2549958.8799999999,"ADDRESS":"海佃路三段４８巷５８弄１號","OBJECTID":150427},"geometry":{"x":166399.16999999993,"y":2549958.879999999}},{"attributes":{"ID":150429,"DIS_CODE":0,"TOWNNAME":"安南區","LI":"溪心里","LIN":"3鄰","STREET":"海佃路","SECT":"三段","MAREA":" ","LANE":"４８巷","ALLEY":"５８弄","HOUSE_NO":"３號","E_COORD97":166403.53,"N_COORD97":2549955.4199999999,"ADDRESS":"海佃路三段４８巷５８弄３號","OBJECTID":150428},"geometry":{"x":166403.53000000119,"y":2549955.4200000018}},{"attributes":{"ID":150430,"DIS_CODE":0,"TOWNNAME":"安南區","LI":"溪心里","LIN":"3鄰","STREET":"海佃路","SECT":"三段","MAREA":" ","LANE":"４８巷","ALLEY":"５８弄","HOUSE_NO":"５號","E_COORD97":166412.39000000001,"N_COORD97":2549956.48,"ADDRESS":"海佃路三段４８巷５８弄５號","OBJECTID":150429},"geometry":{"x":166412.3900000006,"y":2549956.4800000004}},{"attributes":{"ID":150431,"DIS_CODE":0,"TOWNNAME":"安南區","LI":"溪心里","LIN":"3鄰","STREET":"海佃路","SECT":"三段","MAREA":" ","LANE":"４８巷","ALLEY":"５８弄","HOUSE_NO":"７號","E_COORD97":166415.39999999999,"N_COORD97":2549954.3700000001,"ADDRESS":"海佃路三段４８巷５８弄７號","OBJECTID":150430},"geometry":{"x":166415.40000000037,"y":2549954.370000001}},{"attributes":{"ID":150432,"DIS_CODE":0,"TOWNNAME":"安南區","LI":"安富里","LIN":"19鄰","STREET":"安富街","SECT":" ","MAREA":" ","LANE":" ","ALLEY":" ","HOUSE_NO":"１９３號","E_COORD97":167711.79000000001,"N_COORD97":2547468.2200000002,"ADDRESS":"安富街１９３號","OBJECTID":150431},"geometry":{"x":167711.79000000097,"y":2547468.2200000044}},{"attributes":{"ID":150433,"DIS_CODE":0,"TOWNNAME":"東山區","LI":"聖賢里","LIN":"20鄰","STREET":" ","SECT":" ","MAREA":"頂窩","LANE":" ","ALLEY":" ","HOUSE_NO":"５６號之４","E_COORD97":183237.82000000001,"N_COORD97":2578684.02,"ADDRESS":"頂窩５６號之４","OBJECTID":150432},"geometry":{"x":183237.82000000123,"y":2578684.0200000014}},{"attributes":{"ID":150434,"DIS_CODE":0,"TOWNNAME":"東山區","LI":"聖賢里","LIN":"20鄰","STREET":" ","SECT":" ","MAREA":"頂窩","LANE":" ","ALLEY":" ","HOUSE_NO":"５６號之６","E_COORD97":183225.70000000001,"N_COORD97":2578731.79,"ADDRESS":"頂窩５６號之６","OBJECTID":150433},"geometry":{"x":183225.70000000019,"y":2578731.7899999972}},{"attributes":{"ID":150435,"DIS_CODE":0,"TOWNNAME":"東山區","LI":"聖賢里","LIN":"20鄰","STREET":" ","SECT":" ","MAREA":"頂窩","LANE":" ","ALLEY":" ","HOUSE_NO":"５６號之７","E_COORD97":183222.53,"N_COORD97":2578685.1899999999,"ADDRESS":"頂窩５６號之７","OBJECTID":150434},"geometry":{"x":183222.53000000212,"y":2578685.1899999995}},{"attributes":{"ID":150436,"DIS_CODE":0,"TOWNNAME":"東山區","LI":"聖賢里","LIN":"20鄰","STREET":" ","SECT":" ","MAREA":"頂窩","LANE":" ","ALLEY":" ","HOUSE_NO":"５６號之８","E_COORD97":183286.53,"N_COORD97":2578711.25,"ADDRESS":"頂窩５６號之８","OBJECTID":150435},"geometry":{"x":183286.53000000026,"y":2578711.25}},{"attributes":{"ID":150437,"DIS_CODE":0,"TOWNNAME":"東山區","LI":"聖賢里","LIN":"20鄰","STREET":" ","SECT":" ","MAREA":"頂窩","LANE":" ","ALLEY":" ","HOUSE_NO":"５６號之９","E_COORD97":183205.89999999999,"N_COORD97":2578683.3300000001,"ADDRESS":"頂窩５６號之９","OBJECTID":150436},"geometry":{"x":183205.90000000037,"y":2578683.3300000019}},{"attributes":{"ID":150438,"DIS_CODE":0,"TOWNNAME":"東山區","LI":"聖賢里","LIN":"20鄰","STREET":" ","SECT":" ","MAREA":"頂窩","LANE":" ","ALLEY":" ","HOUSE_NO":"５６號","E_COORD97":183274.10000000001,"N_COORD97":2578694.8999999999,"ADDRESS":"頂窩５６號","OBJECTID":150437},"geometry":{"x":183274.10000000149,"y":2578694.9000000004}},{"attributes":{"ID":150439,"DIS_CODE":0,"TOWNNAME":"東山區","LI":"聖賢里","LIN":"20鄰","STREET":" ","SECT":" ","MAREA":"頂窩","LANE":" ","ALLEY":" ","HOUSE_NO":"５７號之１０","E_COORD97":183291.87,"N_COORD97":2578767.1499999999,"ADDRESS":"頂窩５７號之１０","OBJECTID":150438},"geometry":{"x":183291.87000000104,"y":2578767.1500000004}},{"attributes":{"ID":150440,"DIS_CODE":0,"TOWNNAME":"東山區","LI":"聖賢里","LIN":"20鄰","STREET":" ","SECT":" ","MAREA":"頂窩","LANE":" ","ALLEY":" ","HOUSE_NO":"５７號之１","E_COORD97":183287.51999999999,"N_COORD97":2578752,"ADDRESS":"頂窩５７號之１","OBJECTID":150439},"geometry":{"x":183287.51999999955,"y":2578752.0000000037}},{"attributes":{"ID":150441,"DIS_CODE":0,"TOWNNAME":"東山區","LI":"聖賢里","LIN":"20鄰","STREET":" ","SECT":" ","MAREA":"頂窩","LANE":" ","ALLEY":" ","HOUSE_NO":"５７號之２","E_COORD97":183318.23000000001,"N_COORD97":2578745.9199999999,"ADDRESS":"頂窩５７號之２","OBJECTID":150440},"geometry":{"x":183318.23000000138,"y":2578745.9200000018}},{"attributes":{"ID":150442,"DIS_CODE":0,"TOWNNAME":"東山區","LI":"聖賢里","LIN":"20鄰","STREET":" ","SECT":" ","MAREA":"頂窩","LANE":" ","ALLEY":" ","HOUSE_NO":"５７號之３","E_COORD97":183328.45000000001,"N_COORD97":2578737.27,"ADDRESS":"頂窩５７號之３","OBJECTID":150441},"geometry":{"x":183328.45000000112,"y":2578737.2700000014}},{"attributes":{"ID":150443,"DIS_CODE":0,"TOWNNAME":"安南區","LI":"溪心里","LIN":"3鄰","STREET":"海佃路","SECT":"三段","MAREA":" ","LANE":"４８巷","ALLEY":"５８弄","HOUSE_NO":"９號","E_COORD97":166419.31,"N_COORD97":2549951.2200000002,"ADDRESS":"海佃路三段４８巷５８弄９號","OBJECTID":150442},"geometry":{"x":166419.31000000052,"y":2549951.2200000025}},{"attributes":{"ID":150444,"DIS_CODE":0,"TOWNNAME":"安南區","LI":"安慶里","LIN":"3鄰","STREET":"長溪路","SECT":"一段","MAREA":" ","LANE":"１６８巷","ALLEY":"１３１弄","HOUSE_NO":"１１號","E_COORD97":168996.17999999999,"N_COORD97":2548835.3999999999,"ADDRESS":"長溪路一段１６８巷１３１弄１１號","OBJECTID":150443},"geometry":{"x":168996.1799999997,"y":2548835.4000000004}},{"attributes":{"ID":150445,"DIS_CODE":0,"TOWNNAME":"安南區","LI":"安慶里","LIN":"3鄰","STREET":"長溪路","SECT":"一段","MAREA":" ","LANE":"１６８巷","ALLEY":"１３１弄","HOUSE_NO":"１２號","E_COORD97":169042.35999999999,"N_COORD97":2548869.1800000002,"ADDRESS":"長溪路一段１６８巷１３１弄１２號","OBJECTID":150444},"geometry":{"x":169042.36000000127,"y":2548869.1800000016}},{"attributes":{"ID":150446,"DIS_CODE":0,"TOWNNAME":"安南區","LI":"安慶里","LIN":"3鄰","STREET":"長溪路","SECT":"一段","MAREA":" ","LANE":"１６８巷","ALLEY":"１３１弄","HOUSE_NO":"１３號","E_COORD97":168992.54999999999,"N_COORD97":2548835.3999999999,"ADDRESS":"長溪路一段１６８巷１３１弄１３號","OBJECTID":150445},"geometry":{"x":168992.55000000168,"y":2548835.4000000004}},{"attributes":{"ID":150447,"DIS_CODE":0,"TOWNNAME":"安南區","LI":"安慶里","LIN":"3鄰","STREET":"長溪路","SECT":"一段","MAREA":" ","LANE":"１６８巷","ALLEY":"１３１弄","HOUSE_NO":"１５號","E_COORD97":168988.81,"N_COORD97":2548836.1800000002,"ADDRESS":"長溪路一段１６８巷１３１弄１５號","OBJECTID":150446},"geometry":{"x":168988.81000000145,"y":2548836.1799999997}},{"attributes":{"ID":150448,"DIS_CODE":0,"TOWNNAME":"安南區","LI":"安慶里","LIN":"3鄰","STREET":"長溪路","SECT":"一段","MAREA":" ","LANE":"１６８巷","ALLEY":"１３１弄","HOUSE_NO":"１６號","E_COORD97":169028.04000000001,"N_COORD97":2548866.3700000001,"ADDRESS":"長溪路一段１６８巷１３１弄１６號","OBJECTID":150447},"geometry":{"x":169028.04000000004,"y":2548866.370000001}},{"attributes":{"ID":150449,"DIS_CODE":0,"TOWNNAME":"安南區","LI":"安慶里","LIN":"3鄰","STREET":"長溪路","SECT":"一段","MAREA":" ","LANE":"１６８巷","ALLEY":"１３１弄","HOUSE_NO":"１７號","E_COORD97":168995.01000000001,"N_COORD97":2548821.3599999999,"ADDRESS":"長溪路一段１６８巷１３１弄１７號","OBJECTID":150448},"geometry":{"x":168995.01000000071,"y":2548821.3599999994}},{"attributes":{"ID":150450,"DIS_CODE":0,"TOWNNAME":"安南區","LI":"安慶里","LIN":"3鄰","STREET":"長溪路","SECT":"一段","MAREA":" ","LANE":"１６８巷","ALLEY":"１３１弄","HOUSE_NO":"１９號","E_COORD97":168995.72,"N_COORD97":2548816.1299999999,"ADDRESS":"長溪路一段１６８巷１３１弄１９號","OBJECTID":150449},"geometry":{"x":168995.71999999974,"y":2548816.1300000027}},{"attributes":{"ID":150451,"DIS_CODE":0,"TOWNNAME":"安南區","LI":"安慶里","LIN":"3鄰","STREET":"長溪路","SECT":"一段","MAREA":" ","LANE":"１６８巷","ALLEY":"１３１弄","HOUSE_NO":"１號","E_COORD97":169015.56,"N_COORD97":2548835.98,"ADDRESS":"長溪路一段１６８巷１３１弄１號","OBJECTID":150450},"geometry":{"x":169015.55999999959,"y":2548835.9800000042}},{"attributes":{"ID":150452,"DIS_CODE":0,"TOWNNAME":"安南區","LI":"安慶里","LIN":"3鄰","STREET":"長溪路","SECT":"一段","MAREA":" ","LANE":"１６８巷","ALLEY":"１３１弄","HOUSE_NO":"２０號","E_COORD97":169018.70000000001,"N_COORD97":2548867.6400000001,"ADDRESS":"長溪路一段１６８巷１３１弄２０號","OBJECTID":150451},"geometry":{"x":169018.70000000019,"y":2548867.6400000006}},{"attributes":{"ID":150453,"DIS_CODE":0,"TOWNNAME":"安南區","LI":"安慶里","LIN":"3鄰","STREET":"長溪路","SECT":"一段","MAREA":" ","LANE":"１６８巷","ALLEY":"１３１弄","HOUSE_NO":"２１號","E_COORD97":169006.84,"N_COORD97":2548817.6600000001,"ADDRESS":"長溪路一段１６８巷１３１弄２１號","OBJECTID":150452},"geometry":{"x":169006.83999999985,"y":2548817.660000002}},{"attributes":{"ID":150454,"DIS_CODE":0,"TOWNNAME":"安南區","LI":"安慶里","LIN":"3鄰","STREET":"長溪路","SECT":"一段","MAREA":" ","LANE":"１６８巷","ALLEY":"１３１弄","HOUSE_NO":"２２號","E_COORD97":169022.62,"N_COORD97":2548882.4700000002,"ADDRESS":"長溪路一段１６８巷１３１弄２２號","OBJECTID":150453},"geometry":{"x":169022.62000000011,"y":2548882.4700000007}},{"attributes":{"ID":150455,"DIS_CODE":0,"TOWNNAME":"安南區","LI":"安慶里","LIN":"3鄰","STREET":"長溪路","SECT":"一段","MAREA":" ","LANE":"１６８巷","ALLEY":"１３１弄","HOUSE_NO":"２３號","E_COORD97":169014.14000000001,"N_COORD97":2548818.27,"ADDRESS":"長溪路一段１６８巷１３１弄２３號","OBJECTID":150454},"geometry":{"x":169014.1400000006,"y":2548818.2699999996}},{"attributes":{"ID":150456,"DIS_CODE":0,"TOWNNAME":"安南區","LI":"安慶里","LIN":"3鄰","STREET":"長溪路","SECT":"一段","MAREA":" ","LANE":"１６８巷","ALLEY":"１３１弄","HOUSE_NO":"２４號","E_COORD97":169012.48000000001,"N_COORD97":2548899.2000000002,"ADDRESS":"長溪路一段１６８巷１３１弄２４號","OBJECTID":150455},"geometry":{"x":169012.48000000231,"y":2548899.1999999993}},{"attributes":{"ID":150457,"DIS_CODE":0,"TOWNNAME":"安南區","LI":"安慶里","LIN":"3鄰","STREET":"長溪路","SECT":"一段","MAREA":" ","LANE":"１６８巷","ALLEY":"１３１弄","HOUSE_NO":"２５號","E_COORD97":169015.01999999999,"N_COORD97":2548803.3100000001,"ADDRESS":"長溪路一段１６８巷１３１弄２５號","OBJECTID":150456},"geometry":{"x":169015.02000000048,"y":2548803.3100000042}},{"attributes":{"ID":150458,"DIS_CODE":0,"TOWNNAME":"東山區","LI":"聖賢里","LIN":"20鄰","STREET":" ","SECT":" ","MAREA":"頂窩","LANE":" ","ALLEY":" ","HOUSE_NO":"５７號之４","E_COORD97":183332.20999999999,"N_COORD97":2578707.73,"ADDRESS":"頂窩５７號之４","OBJECTID":150457},"geometry":{"x":183332.20999999996,"y":2578707.7300000023}},{"attributes":{"ID":150459,"DIS_CODE":0,"TOWNNAME":"東山區","LI":"聖賢里","LIN":"20鄰","STREET":" ","SECT":" ","MAREA":"頂窩","LANE":" ","ALLEY":" ","HOUSE_NO":"５７號之６","E_COORD97":183270.42000000001,"N_COORD97":2578754.9399999999,"ADDRESS":"頂窩５７號之６","OBJECTID":150458},"geometry":{"x":183270.42000000179,"y":2578754.9399999976}},{"attributes":{"ID":150460,"DIS_CODE":0,"TOWNNAME":"安南區","LI":"安慶里","LIN":"3鄰","STREET":"長溪路","SECT":"一段","MAREA":" ","LANE":"１６８巷","ALLEY":"１３１弄","HOUSE_NO":"２６號","E_COORD97":169013.73999999999,"N_COORD97":2548907.5499999998,"ADDRESS":"長溪路一段１６８巷１３１弄２６號","OBJECTID":150459},"geometry":{"x":169013.74000000209,"y":2548907.5500000026}},{"attributes":{"ID":150461,"DIS_CODE":0,"TOWNNAME":"安南區","LI":"安慶里","LIN":"3鄰","STREET":"長溪路","SECT":"一段","MAREA":" ","LANE":"１６８巷","ALLEY":"１３１弄","HOUSE_NO":"２７號","E_COORD97":169007.60999999999,"N_COORD97":2548802.96,"ADDRESS":"長溪路一段１６８巷１３１弄２７號","OBJECTID":150460},"geometry":{"x":169007.61000000034,"y":2548802.9600000028}},{"attributes":{"ID":150462,"DIS_CODE":0,"TOWNNAME":"安南區","LI":"安慶里","LIN":"3鄰","STREET":"長溪路","SECT":"一段","MAREA":" ","LANE":"１６８巷","ALLEY":"１３１弄","HOUSE_NO":"２８號","E_COORD97":168997.60000000001,"N_COORD97":2548913.1099999999,"ADDRESS":"長溪路一段１６８巷１３１弄２８號","OBJECTID":150461},"geometry":{"x":168997.60000000056,"y":2548913.1100000013}},{"attributes":{"ID":150463,"DIS_CODE":0,"TOWNNAME":"安南區","LI":"安慶里","LIN":"3鄰","STREET":"長溪路","SECT":"一段","MAREA":" ","LANE":"１６８巷","ALLEY":"１３１弄","HOUSE_NO":"２９號","E_COORD97":168996.07000000001,"N_COORD97":2548805.6699999999,"ADDRESS":"長溪路一段１６８巷１３１弄２９號","OBJECTID":150462},"geometry":{"x":168996.0700000003,"y":2548805.6699999999}},{"attributes":{"ID":150464,"DIS_CODE":0,"TOWNNAME":"安南區","LI":"安慶里","LIN":"3鄰","STREET":"長溪路","SECT":"一段","MAREA":" ","LANE":"１６８巷","ALLEY":"１３１弄","HOUSE_NO":"３０號","E_COORD97":168999.89000000001,"N_COORD97":2548879.2599999998,"ADDRESS":"長溪路一段１６８巷１３１弄３０號","OBJECTID":150463},"geometry":{"x":168999.88999999966,"y":2548879.2599999998}},{"attributes":{"ID":150465,"DIS_CODE":0,"TOWNNAME":"安南區","LI":"安慶里","LIN":"3鄰","STREET":"長溪路","SECT":"一段","MAREA":" ","LANE":"１６８巷","ALLEY":"１３１弄","HOUSE_NO":"３１號","E_COORD97":168996.01000000001,"N_COORD97":2548800.0099999998,"ADDRESS":"長溪路一段１６８巷１３１弄３１號","OBJECTID":150464},"geometry":{"x":168996.00999999978,"y":2548800.0099999998}},{"attributes":{"ID":150466,"DIS_CODE":0,"TOWNNAME":"安南區","LI":"鳳凰里","LIN":"3鄰","STREET":"安中路","SECT":"一段","MAREA":" ","LANE":"５６０巷","ALLEY":"７弄","HOUSE_NO":"７號","E_COORD97":167990.629678,"N_COORD97":2549063.45309,"ADDRESS":"安中路一段５６０巷７弄７號","OBJECTID":150465},"geometry":{"x":167990.6296780007,"y":2549063.4530880041}},{"attributes":{"ID":150467,"DIS_CODE":0,"TOWNNAME":"安南區","LI":"安慶里","LIN":"3鄰","STREET":"長溪路","SECT":"一段","MAREA":" ","LANE":"１６８巷","ALLEY":"１３１弄","HOUSE_NO":"３３號","E_COORD97":169003.60000000001,"N_COORD97":2548783.3500000001,"ADDRESS":"長溪路一段１６８巷１３１弄３３號","OBJECTID":150466},"geometry":{"x":169003.59999999963,"y":2548783.3499999996}},{"attributes":{"ID":150468,"DIS_CODE":0,"TOWNNAME":"仁德區","LI":"仁愛里","LIN":"28鄰","STREET":"大同路","SECT":"三段","MAREA":" ","LANE":"３５８巷","ALLEY":" ","HOUSE_NO":"５２號","E_COORD97":169717.62700000001,"N_COORD97":2539428.6699999999,"ADDRESS":"大同路三段３５８巷５２號","OBJECTID":150467},"geometry":{"x":169717.62700000033,"y":2539428.6699999999}},{"attributes":{"ID":150469,"DIS_CODE":0,"TOWNNAME":"安南區","LI":"安慶里","LIN":"3鄰","STREET":"長溪路","SECT":"一段","MAREA":" ","LANE":"１６８巷","ALLEY":"１３１弄","HOUSE_NO":"３５號","E_COORD97":168995.70999999999,"N_COORD97":2548783.9300000002,"ADDRESS":"長溪路一段１６８巷１３１弄３５號","OBJECTID":150468},"geometry":{"x":168995.71000000089,"y":2548783.9299999997}},{"attributes":{"ID":150470,"DIS_CODE":0,"TOWNNAME":"安南區","LI":"安慶里","LIN":"3鄰","STREET":"長溪路","SECT":"一段","MAREA":" ","LANE":"１６８巷","ALLEY":"１３１弄","HOUSE_NO":"３號","E_COORD97":169011.54000000001,"N_COORD97":2548835.8500000001,"ADDRESS":"長溪路一段１６８巷１３１弄３號","OBJECTID":150469},"geometry":{"x":169011.5400000019,"y":2548835.8500000034}},{"attributes":{"ID":150471,"DIS_CODE":0,"TOWNNAME":"安南區","LI":"安慶里","LIN":"3鄰","STREET":"長溪路","SECT":"一段","MAREA":" ","LANE":"１６８巷","ALLEY":"１３１弄","HOUSE_NO":"５號","E_COORD97":169007.72,"N_COORD97":2548835.5899999999,"ADDRESS":"長溪路一段１６８巷１３１弄５號","OBJECTID":150470},"geometry":{"x":169007.71999999974,"y":2548835.5900000017}},{"attributes":{"ID":150472,"DIS_CODE":0,"TOWNNAME":"安南區","LI":"安慶里","LIN":"3鄰","STREET":"長溪路","SECT":"一段","MAREA":" ","LANE":"１６８巷","ALLEY":"１３１弄","HOUSE_NO":"６號","E_COORD97":169062.23999999999,"N_COORD97":2548870.7799999998,"ADDRESS":"長溪路一段１６８巷１３１弄６號","OBJECTID":150471},"geometry":{"x":169062.24000000022,"y":2548870.7800000012}},{"attributes":{"ID":150473,"DIS_CODE":0,"TOWNNAME":"安南區","LI":"安慶里","LIN":"3鄰","STREET":"長溪路","SECT":"一段","MAREA":" ","LANE":"１６８巷","ALLEY":"１３１弄","HOUSE_NO":"７號","E_COORD97":169004.09,"N_COORD97":2548835.5899999999,"ADDRESS":"長溪路一段１６８巷１３１弄７號","OBJECTID":150472},"geometry":{"x":169004.08999999892,"y":2548835.5900000017}},{"attributes":{"ID":150474,"DIS_CODE":0,"TOWNNAME":"安南區","LI":"安慶里","LIN":"3鄰","STREET":"長溪路","SECT":"一段","MAREA":" ","LANE":"１６８巷","ALLEY":"１３１弄","HOUSE_NO":"９號","E_COORD97":169000.26000000001,"N_COORD97":2548835.7200000002,"ADDRESS":"長溪路一段１６８巷１３１弄９號","OBJECTID":150473},"geometry":{"x":169000.26000000071,"y":2548835.7200000025}},{"attributes":{"ID":150475,"DIS_CODE":0,"TOWNNAME":"安南區","LI":"安慶里","LIN":"3鄰","STREET":"長溪路","SECT":"一段","MAREA":" ","LANE":"１６８巷","ALLEY":"１７５弄","HOUSE_NO":"１５號","E_COORD97":169024.39000000001,"N_COORD97":2548938.3700000001,"ADDRESS":"長溪路一段１６８巷１７５弄１５號","OBJECTID":150474},"geometry":{"x":169024.3900000006,"y":2548938.370000001}},{"attributes":{"ID":150476,"DIS_CODE":0,"TOWNNAME":"新市區","LI":"港墘里","LIN":"3鄰","STREET":"三民街","SECT":" ","MAREA":" ","LANE":"５０巷","ALLEY":"１０弄","HOUSE_NO":"１６號","E_COORD97":178548.89999999999,"N_COORD97":2553393.04,"ADDRESS":"三民街５０巷１０弄１６號","OBJECTID":150475},"geometry":{"x":178548.9000000013,"y":2553393.0399999991}},{"attributes":{"ID":150477,"DIS_CODE":0,"TOWNNAME":"新市區","LI":"港墘里","LIN":"3鄰","STREET":"三民街","SECT":" ","MAREA":" ","LANE":"５０巷","ALLEY":"１０弄","HOUSE_NO":"５號","E_COORD97":178542.92999999999,"N_COORD97":2553420.29,"ADDRESS":"三民街５０巷１０弄５號","OBJECTID":150476},"geometry":{"x":178542.93000000063,"y":2553420.290000001}},{"attributes":{"ID":150478,"DIS_CODE":0,"TOWNNAME":"新市區","LI":"港墘里","LIN":"3鄰","STREET":"三民街","SECT":" ","MAREA":" ","LANE":"５０巷","ALLEY":"１０弄","HOUSE_NO":"２３號","E_COORD97":178560.67000000001,"N_COORD97":2553401.29,"ADDRESS":"三民街５０巷１０弄２３號","OBJECTID":150477},"geometry":{"x":178560.66999999993,"y":2553401.2899999991}},{"attributes":{"ID":150479,"DIS_CODE":0,"TOWNNAME":"新市區","LI":"港墘里","LIN":"3鄰","STREET":"三民街","SECT":" ","MAREA":" ","LANE":"５０巷","ALLEY":"１０弄","HOUSE_NO":"１３號","E_COORD97":178566.48999999999,"N_COORD97":2553434.79,"ADDRESS":"三民街５０巷１０弄１３號","OBJECTID":150478},"geometry":{"x":178566.49000000115,"y":2553434.7899999991}},{"attributes":{"ID":150480,"DIS_CODE":0,"TOWNNAME":"新市區","LI":"港墘里","LIN":"3鄰","STREET":"三民街","SECT":" ","MAREA":" ","LANE":"５０巷","ALLEY":"１０弄","HOUSE_NO":"３號","E_COORD97":178540.42999999999,"N_COORD97":2553422.29,"ADDRESS":"三民街５０巷１０弄３號","OBJECTID":150479},"geometry":{"x":178540.42999999877,"y":2553422.2899999991}},{"attributes":{"ID":150481,"DIS_CODE":0,"TOWNNAME":"安南區","LI":"溪東里","LIN":"19鄰","STREET":"郡安路","SECT":"五段","MAREA":" ","LANE":" ","ALLEY":" ","HOUSE_NO":"１１號","E_COORD97":168374.70000000001,"N_COORD97":2547648.4399999999,"ADDRESS":"郡安路五段１１號","OBJECTID":150480},"geometry":{"x":168374.70000000019,"y":2547648.4400000032}},{"attributes":{"ID":150482,"DIS_CODE":0,"TOWNNAME":"安南區","LI":"溪東里","LIN":"19鄰","STREET":"郡安路","SECT":"五段","MAREA":" ","LANE":" ","ALLEY":" ","HOUSE_NO":"１２號","E_COORD97":168367.95999999999,"N_COORD97":2547647.0699999998,"ADDRESS":"郡安路五段１２號","OBJECTID":150481},"geometry":{"x":168367.96000000089,"y":2547647.0700000003}},{"attributes":{"ID":150483,"DIS_CODE":0,"TOWNNAME":"永康區","LI":"崑山里","LIN":"19鄰","STREET":"大灣路","SECT":" ","MAREA":" ","LANE":" ","ALLEY":" ","HOUSE_NO":"７８８之１號","E_COORD97":174036.13,"N_COORD97":2544510.4900000002,"ADDRESS":"大灣路７８８之１號","OBJECTID":150482},"geometry":{"x":174036.12999999989,"y":2544510.4900000021}},{"attributes":{"ID":150484,"DIS_CODE":0,"TOWNNAME":"永康區","LI":"崑山里","LIN":"19鄰","STREET":"大灣路","SECT":" ","MAREA":" ","LANE":" ","ALLEY":" ","HOUSE_NO":"８２０號","E_COORD97":173964.26999999999,"N_COORD97":2544497.4300000002,"ADDRESS":"大灣路８２０號","OBJECTID":150483},"geometry":{"x":173964.26999999955,"y":2544497.4299999997}},{"attributes":{"ID":150485,"DIS_CODE":0,"TOWNNAME":"東山區","LI":"聖賢里","LIN":"20鄰","STREET":" ","SECT":" ","MAREA":"頂窩","LANE":" ","ALLEY":" ","HOUSE_NO":"５７號之９","E_COORD97":183343.48000000001,"N_COORD97":2578777.1099999999,"ADDRESS":"頂窩５７號之９","OBJECTID":150484},"geometry":{"x":183343.48000000231,"y":2578777.1099999994}},{"attributes":{"ID":150486,"DIS_CODE":0,"TOWNNAME":"新市區","LI":"港墘里","LIN":"3鄰","STREET":"三民街","SECT":" ","MAREA":" ","LANE":"５０巷","ALLEY":"１０弄","HOUSE_NO":"７號","E_COORD97":178546.34,"N_COORD97":2553417.54,"ADDRESS":"三民街５０巷１０弄７號","OBJECTID":150485},"geometry":{"x":178546.33999999892,"y":2553417.5399999972}},{"attributes":{"ID":150487,"DIS_CODE":0,"TOWNNAME":"永康區","LI":"崑山里","LIN":"19鄰","STREET":"國光一街","SECT":" ","MAREA":" ","LANE":" ","ALLEY":" ","HOUSE_NO":"１９號","E_COORD97":173969.62,"N_COORD97":2544584.8900000001,"ADDRESS":"國光一街１９號","OBJECTID":150486},"geometry":{"x":173969.62000000104,"y":2544584.8899999987}},{"attributes":{"ID":150488,"DIS_CODE":0,"TOWNNAME":"東山區","LI":"聖賢里","LIN":"20鄰","STREET":" ","SECT":" ","MAREA":"頂窩","LANE":" ","ALLEY":" ","HOUSE_NO":"５８號之１","E_COORD97":183298.45999999999,"N_COORD97":2578657.4900000002,"ADDRESS":"頂窩５８號之１","OBJECTID":150487},"geometry":{"x":183298.45999999996,"y":2578657.4900000039}},{"attributes":{"ID":150489,"DIS_CODE":0,"TOWNNAME":"安南區","LI":"海東里","LIN":"3鄰","STREET":"海環街","SECT":" ","MAREA":" ","LANE":"５７２巷","ALLEY":"１弄","HOUSE_NO":"２號","E_COORD97":166380.25,"N_COORD97":2549220.1400000001,"ADDRESS":"海環街５７２巷１弄２號","OBJECTID":150488},"geometry":{"x":166380.25,"y":2549220.1400000006}},{"attributes":{"ID":150490,"DIS_CODE":0,"TOWNNAME":"仁德區","LI":"仁德里","LIN":"3鄰","STREET":"仁中七街","SECT":" ","MAREA":" ","LANE":" ","ALLEY":" ","HOUSE_NO":"１４９號","E_COORD97":173209.29977700001,"N_COORD97":2540387.5301799998,"ADDRESS":"仁中七街１４９號","OBJECTID":150489},"geometry":{"x":173209.29977700114,"y":2540387.5301790014}},{"attributes":{"ID":150491,"DIS_CODE":0,"TOWNNAME":"安南區","LI":"海東里","LIN":"3鄰","STREET":"海環街","SECT":" ","MAREA":" ","LANE":"５７２巷","ALLEY":"１弄","HOUSE_NO":"６號","E_COORD97":166384.54999999999,"N_COORD97":2549220.4100000001,"ADDRESS":"海環街５７２巷１弄６號","OBJECTID":150490},"geometry":{"x":166384.54999999981,"y":2549220.410000002}},{"attributes":{"ID":150492,"DIS_CODE":0,"TOWNNAME":"東山區","LI":"聖賢里","LIN":"20鄰","STREET":" ","SECT":" ","MAREA":"頂窩","LANE":" ","ALLEY":" ","HOUSE_NO":"５９號之３","E_COORD97":183396.01999999999,"N_COORD97":2578697.9100000001,"ADDRESS":"頂窩５９號之３","OBJECTID":150491},"geometry":{"x":183396.01999999955,"y":2578697.9100000001}},{"attributes":{"ID":150493,"DIS_CODE":0,"TOWNNAME":"南區","LI":"府南里","LIN":"12鄰","STREET":"永成路","SECT":"三段","MAREA":" ","LANE":" ","ALLEY":" ","HOUSE_NO":"４０２號","E_COORD97":167510.86031799999,"N_COORD97":2541038.7554199998,"ADDRESS":"永成路三段４０２號","OBJECTID":150492},"geometry":{"x":167510.86031800043,"y":2541038.7554150019}},{"attributes":{"ID":150494,"DIS_CODE":0,"TOWNNAME":"東山區","LI":"聖賢里","LIN":"20鄰","STREET":" ","SECT":" ","MAREA":"頂窩","LANE":" ","ALLEY":" ","HOUSE_NO":"６１號之８","E_COORD97":183331.67999999999,"N_COORD97":2578609.75,"ADDRESS":"頂窩６１號之８","OBJECTID":150493},"geometry":{"x":183331.68000000063,"y":2578609.75}},{"attributes":{"ID":150495,"DIS_CODE":0,"TOWNNAME":"永康區","LI":"崑山里","LIN":"19鄰","STREET":"大灣路","SECT":" ","MAREA":" ","LANE":" ","ALLEY":" ","HOUSE_NO":"８２８號","E_COORD97":173919.87,"N_COORD97":2544489.9500000002,"ADDRESS":"大灣路８２８號","OBJECTID":150494},"geometry":{"x":173919.87000000011,"y":2544489.9500000011}},{"attributes":{"ID":150496,"DIS_CODE":0,"TOWNNAME":"東山區","LI":"聖賢里","LIN":"20鄰","STREET":" ","SECT":" ","MAREA":"頂窩","LANE":" ","ALLEY":" ","HOUSE_NO":"６１號之９","E_COORD97":183326.92999999999,"N_COORD97":2578611.0499999998,"ADDRESS":"頂窩６１號之９","OBJECTID":150495},"geometry":{"x":183326.9299999997,"y":2578611.0500000026}},{"attributes":{"ID":150497,"DIS_CODE":0,"TOWNNAME":"東山區","LI":"聖賢里","LIN":"20鄰","STREET":" ","SECT":" ","MAREA":"頂窩","LANE":" ","ALLEY":" ","HOUSE_NO":"６１號","E_COORD97":183328.91,"N_COORD97":2578630.6200000001,"ADDRESS":"頂窩６１號","OBJECTID":150496},"geometry":{"x":183328.91000000108,"y":2578630.6200000029}},{"attributes":{"ID":150498,"DIS_CODE":0,"TOWNNAME":"東山區","LI":"聖賢里","LIN":"20鄰","STREET":" ","SECT":" ","MAREA":"頂窩","LANE":" ","ALLEY":" ","HOUSE_NO":"６２號之１５","E_COORD97":183715.60999999999,"N_COORD97":2578630.9199999999,"ADDRESS":"頂窩６２號之１５","OBJECTID":150497},"geometry":{"x":183715.61000000127,"y":2578630.9200000018}},{"attributes":{"ID":150499,"DIS_CODE":0,"TOWNNAME":"東山區","LI":"聖賢里","LIN":"20鄰","STREET":" ","SECT":" ","MAREA":"頂窩","LANE":" ","ALLEY":" ","HOUSE_NO":"６２號之１６","E_COORD97":183729.28,"N_COORD97":2578621.4700000002,"ADDRESS":"頂窩６２號之１６","OBJECTID":150498},"geometry":{"x":183729.28000000026,"y":2578621.4700000025}},{"attributes":{"ID":150500,"DIS_CODE":0,"TOWNNAME":"東山區","LI":"聖賢里","LIN":"20鄰","STREET":" ","SECT":" ","MAREA":"頂窩","LANE":" ","ALLEY":" ","HOUSE_NO":"６２號之１７","E_COORD97":183425.57000000001,"N_COORD97":2578604.3500000001,"ADDRESS":"頂窩６２號之１７","OBJECTID":150499},"geometry":{"x":183425.5700000003,"y":2578604.3500000015}},{"attributes":{"ID":150501,"DIS_CODE":0,"TOWNNAME":"東山區","LI":"聖賢里","LIN":"20鄰","STREET":" ","SECT":" ","MAREA":"頂窩","LANE":" ","ALLEY":" ","HOUSE_NO":"６２號之１８","E_COORD97":183590.73000000001,"N_COORD97":2578586.1200000001,"ADDRESS":"頂窩６２號之１８","OBJECTID":150500},"geometry":{"x":183590.73000000045,"y":2578586.1200000048}},{"attributes":{"ID":150502,"DIS_CODE":0,"TOWNNAME":"東山區","LI":"聖賢里","LIN":"20鄰","STREET":" ","SECT":" ","MAREA":"頂窩","LANE":" ","ALLEY":" ","HOUSE_NO":"６２號之１９","E_COORD97":183601.82000000001,"N_COORD97":2578587.6600000001,"ADDRESS":"頂窩６２號之１９","OBJECTID":150501},"geometry":{"x":183601.8200000003,"y":2578587.6600000001}},{"attributes":{"ID":150503,"DIS_CODE":0,"TOWNNAME":"安南區","LI":"海東里","LIN":"3鄰","STREET":"海環街","SECT":" ","MAREA":" ","LANE":"５７２巷","ALLEY":"１弄","HOUSE_NO":"８號","E_COORD97":166389.06,"N_COORD97":2549221.1400000001,"ADDRESS":"海環街５７２巷１弄８號","OBJECTID":150502},"geometry":{"x":166389.06000000052,"y":2549221.1399999987}},{"attributes":{"ID":150504,"DIS_CODE":0,"TOWNNAME":"安南區","LI":"海東里","LIN":"3鄰","STREET":"海環街","SECT":" ","MAREA":" ","LANE":"５７２巷","ALLEY":"１弄","HOUSE_NO":"１０號","E_COORD97":166393.29999999999,"N_COORD97":2549222.2000000002,"ADDRESS":"海環街５７２巷１弄１０號","OBJECTID":150503},"geometry":{"x":166393.29999999981,"y":2549222.1999999993}},{"attributes":{"ID":150505,"DIS_CODE":0,"TOWNNAME":"安南區","LI":"海東里","LIN":"3鄰","STREET":"海環街","SECT":" ","MAREA":" ","LANE":"５７２巷","ALLEY":"１弄","HOUSE_NO":"１２號","E_COORD97":166397.42999999999,"N_COORD97":2549223.3900000001,"ADDRESS":"海環街５７２巷１弄１２號","OBJECTID":150504},"geometry":{"x":166397.4299999997,"y":2549223.3900000025}},{"attributes":{"ID":150506,"DIS_CODE":0,"TOWNNAME":"安南區","LI":"海東里","LIN":"3鄰","STREET":"海環街","SECT":" ","MAREA":" ","LANE":"５７２巷","ALLEY":"１弄","HOUSE_NO":"１６號","E_COORD97":166405.12,"N_COORD97":2549224.6499999999,"ADDRESS":"海環街５７２巷１弄１６號","OBJECTID":150505},"geometry":{"x":166405.12000000011,"y":2549224.6500000041}},{"attributes":{"ID":150507,"DIS_CODE":0,"TOWNNAME":"安南區","LI":"溪心里","LIN":"3鄰","STREET":"海佃路","SECT":"三段","MAREA":" ","LANE":"４８巷","ALLEY":"６０弄","HOUSE_NO":"２號","E_COORD97":166404.73000000001,"N_COORD97":2549968.3399999999,"ADDRESS":"海佃路三段４８巷６０弄２號","OBJECTID":150506},"geometry":{"x":166404.73000000045,"y":2549968.339999998}},{"attributes":{"ID":150508,"DIS_CODE":0,"TOWNNAME":"永康區","LI":"崑山里","LIN":"19鄰","STREET":"崑山街","SECT":" ","MAREA":" ","LANE":" ","ALLEY":" ","HOUSE_NO":"８號","E_COORD97":173932.87,"N_COORD97":2544555.1299999999,"ADDRESS":"崑山街８號","OBJECTID":150507},"geometry":{"x":173932.87000000104,"y":2544555.1300000008}},{"attributes":{"ID":150509,"DIS_CODE":0,"TOWNNAME":"永康區","LI":"崑山里","LIN":"19鄰","STREET":"大灣路","SECT":" ","MAREA":" ","LANE":" ","ALLEY":" ","HOUSE_NO":"８２４號","E_COORD97":173955.92999999999,"N_COORD97":2544498.6400000001,"ADDRESS":"大灣路８２４號","OBJECTID":150508},"geometry":{"x":173955.9299999997,"y":2544498.6400000043}},{"attributes":{"ID":150510,"DIS_CODE":0,"TOWNNAME":"東山區","LI":"聖賢里","LIN":"20鄰","STREET":" ","SECT":" ","MAREA":"頂窩","LANE":" ","ALLEY":" ","HOUSE_NO":"６２號之１","E_COORD97":183448.01000000001,"N_COORD97":2578589.4199999999,"ADDRESS":"頂窩６２號之１","OBJECTID":150509},"geometry":{"x":183448.01000000071,"y":2578589.4199999981}},{"attributes":{"ID":150511,"DIS_CODE":0,"TOWNNAME":"東山區","LI":"聖賢里","LIN":"20鄰","STREET":" ","SECT":" ","MAREA":"頂窩","LANE":" ","ALLEY":" ","HOUSE_NO":"６２號之２","E_COORD97":183400.81,"N_COORD97":2578585.9700000002,"ADDRESS":"頂窩６２號之２","OBJECTID":150510},"geometry":{"x":183400.80999999959,"y":2578585.9700000007}},{"attributes":{"ID":150512,"DIS_CODE":0,"TOWNNAME":"東山區","LI":"聖賢里","LIN":"20鄰","STREET":" ","SECT":" ","MAREA":"頂窩","LANE":" ","ALLEY":" ","HOUSE_NO":"６２號之８","E_COORD97":183410.10000000001,"N_COORD97":2578583.0499999998,"ADDRESS":"頂窩６２號之８","OBJECTID":150511},"geometry":{"x":183410.10000000056,"y":2578583.0500000045}},{"attributes":{"ID":150513,"DIS_CODE":0,"TOWNNAME":"東山區","LI":"聖賢里","LIN":"20鄰","STREET":" ","SECT":" ","MAREA":"頂窩","LANE":" ","ALLEY":" ","HOUSE_NO":"６２號","E_COORD97":183365.57999999999,"N_COORD97":2578596.46,"ADDRESS":"頂窩６２號","OBJECTID":150512},"geometry":{"x":183365.58000000007,"y":2578596.4600000009}},{"attributes":{"ID":150514,"DIS_CODE":0,"TOWNNAME":"東山區","LI":"聖賢里","LIN":"20鄰","STREET":" ","SECT":" ","MAREA":"頂窩","LANE":" ","ALLEY":" ","HOUSE_NO":"６３號之１","E_COORD97":183277.37,"N_COORD97":2578809,"ADDRESS":"頂窩６３號之１","OBJECTID":150513},"geometry":{"x":183277.37000000011,"y":2578809}},{"attributes":{"ID":150515,"DIS_CODE":0,"TOWNNAME":"東山區","LI":"聖賢里","LIN":"20鄰","STREET":" ","SECT":" ","MAREA":"頂窩","LANE":" ","ALLEY":" ","HOUSE_NO":"６３號之２","E_COORD97":183264.54999999999,"N_COORD97":2578829.1600000001,"ADDRESS":"頂窩６３號之２","OBJECTID":150514},"geometry":{"x":183264.55000000075,"y":2578829.1600000039}},{"attributes":{"ID":150516,"DIS_CODE":0,"TOWNNAME":"東山區","LI":"聖賢里","LIN":"20鄰","STREET":" ","SECT":" ","MAREA":"頂窩","LANE":" ","ALLEY":" ","HOUSE_NO":"６３號之５","E_COORD97":183222.81,"N_COORD97":2578770.9199999999,"ADDRESS":"頂窩６３號之５","OBJECTID":150515},"geometry":{"x":183222.80999999959,"y":2578770.9200000018}},{"attributes":{"ID":150517,"DIS_CODE":0,"TOWNNAME":"東山區","LI":"聖賢里","LIN":"20鄰","STREET":" ","SECT":" ","MAREA":"頂窩","LANE":" ","ALLEY":" ","HOUSE_NO":"６３號","E_COORD97":183407.98999999999,"N_COORD97":2578835.0299999998,"ADDRESS":"頂窩６３號","OBJECTID":150516},"geometry":{"x":183407.99000000115,"y":2578835.0299999993}},{"attributes":{"ID":150518,"DIS_CODE":0,"TOWNNAME":"東山區","LI":"聖賢里","LIN":"20鄰","STREET":" ","SECT":" ","MAREA":"頂窩","LANE":" ","ALLEY":" ","HOUSE_NO":"６４號之５","E_COORD97":183318.28,"N_COORD97":2578790.77,"ADDRESS":"頂窩６４號之５","OBJECTID":150517},"geometry":{"x":183318.28000000119,"y":2578790.7700000014}},{"attributes":{"ID":150519,"DIS_CODE":0,"TOWNNAME":"永康區","LI":"烏竹里","LIN":"19鄰","STREET":"自強路","SECT":" ","MAREA":" ","LANE":" ","ALLEY":" ","HOUSE_NO":"７３９號","E_COORD97":174417.84,"N_COORD97":2548521.3100000001,"ADDRESS":"自強路７３９號","OBJECTID":150518},"geometry":{"x":174417.83999999985,"y":2548521.3100000005}},{"attributes":{"ID":150520,"DIS_CODE":0,"TOWNNAME":"永康區","LI":"崑山里","LIN":"19鄰","STREET":"大灣路","SECT":" ","MAREA":" ","LANE":" ","ALLEY":" ","HOUSE_NO":"８３２號","E_COORD97":173911.94,"N_COORD97":2544487.1000000001,"ADDRESS":"大灣路８３２號","OBJECTID":150519},"geometry":{"x":173911.94000000134,"y":2544487.0999999996}},{"attributes":{"ID":150521,"DIS_CODE":0,"TOWNNAME":"永康區","LI":"安康里","LIN":"19鄰","STREET":"中華西街","SECT":" ","MAREA":" ","LANE":" ","ALLEY":" ","HOUSE_NO":"１０６號","E_COORD97":170727.64999999999,"N_COORD97":2546114.8900000001,"ADDRESS":"中華西街１０６號","OBJECTID":150520},"geometry":{"x":170727.65000000037,"y":2546114.8900000025}},{"attributes":{"ID":150522,"DIS_CODE":0,"TOWNNAME":"東山區","LI":"聖賢里","LIN":"20鄰","STREET":" ","SECT":" ","MAREA":"頂窩","LANE":" ","ALLEY":" ","HOUSE_NO":"６９號之１","E_COORD97":183782.70999999999,"N_COORD97":2578657.6400000001,"ADDRESS":"頂窩６９號之１","OBJECTID":150521},"geometry":{"x":183782.71000000089,"y":2578657.6400000025}},{"attributes":{"ID":150523,"DIS_CODE":0,"TOWNNAME":"東山區","LI":"聖賢里","LIN":"20鄰","STREET":" ","SECT":" ","MAREA":"頂窩","LANE":" ","ALLEY":" ","HOUSE_NO":"６９號之２","E_COORD97":183783.17999999999,"N_COORD97":2578661.8799999999,"ADDRESS":"頂窩６９號之２","OBJECTID":150522},"geometry":{"x":183783.1799999997,"y":2578661.879999999}},{"attributes":{"ID":150524,"DIS_CODE":0,"TOWNNAME":"東山區","LI":"聖賢里","LIN":"20鄰","STREET":" ","SECT":" ","MAREA":"頂窩","LANE":" ","ALLEY":" ","HOUSE_NO":"６９號之３","E_COORD97":183783.17000000001,"N_COORD97":2578666.9199999999,"ADDRESS":"頂窩６９號之３","OBJECTID":150523},"geometry":{"x":183783.17000000086,"y":2578666.9199999999}},{"attributes":{"ID":150525,"DIS_CODE":0,"TOWNNAME":"東山區","LI":"聖賢里","LIN":"20鄰","STREET":" ","SECT":" ","MAREA":"頂窩","LANE":" ","ALLEY":" ","HOUSE_NO":"６９號之４","E_COORD97":183783.81,"N_COORD97":2578671.4399999999,"ADDRESS":"頂窩６９號之４","OBJECTID":150524},"geometry":{"x":183783.80999999959,"y":2578671.4400000013}},{"attributes":{"ID":150526,"DIS_CODE":0,"TOWNNAME":"東山區","LI":"聖賢里","LIN":"20鄰","STREET":" ","SECT":" ","MAREA":"頂窩","LANE":" ","ALLEY":" ","HOUSE_NO":"６９號之５","E_COORD97":183783.75,"N_COORD97":2578675.9900000002,"ADDRESS":"頂窩６９號之５","OBJECTID":150525},"geometry":{"x":183783.75000000186,"y":2578675.9900000002}},{"attributes":{"ID":150527,"DIS_CODE":0,"TOWNNAME":"東山區","LI":"聖賢里","LIN":"20鄰","STREET":" ","SECT":" ","MAREA":"頂窩","LANE":" ","ALLEY":" ","HOUSE_NO":"６９號之６","E_COORD97":183784.23000000001,"N_COORD97":2578680.4199999999,"ADDRESS":"頂窩６９號之６","OBJECTID":150526},"geometry":{"x":183784.23000000231,"y":2578680.4199999999}},{"attributes":{"ID":150528,"DIS_CODE":0,"TOWNNAME":"東山區","LI":"聖賢里","LIN":"20鄰","STREET":" ","SECT":" ","MAREA":"頂窩","LANE":" ","ALLEY":" ","HOUSE_NO":"６９號之７","E_COORD97":183784.39000000001,"N_COORD97":2578684.8599999999,"ADDRESS":"頂窩６９號之７","OBJECTID":150527},"geometry":{"x":183784.3900000006,"y":2578684.8600000013}},{"attributes":{"ID":150529,"DIS_CODE":0,"TOWNNAME":"東山區","LI":"聖賢里","LIN":"20鄰","STREET":" ","SECT":" ","MAREA":"頂窩","LANE":" ","ALLEY":" ","HOUSE_NO":"６９號之８","E_COORD97":183784.85000000001,"N_COORD97":2578689.79,"ADDRESS":"頂窩６９號之８","OBJECTID":150528},"geometry":{"x":183784.85000000056,"y":2578689.7899999991}},{"attributes":{"ID":150530,"DIS_CODE":0,"TOWNNAME":"東山區","LI":"聖賢里","LIN":"20鄰","STREET":" ","SECT":" ","MAREA":"頂窩","LANE":" ","ALLEY":" ","HOUSE_NO":"６９號之９","E_COORD97":183675.48999999999,"N_COORD97":2578676.5,"ADDRESS":"頂窩６９號之９","OBJECTID":150529},"geometry":{"x":183675.49000000209,"y":2578676.5}},{"attributes":{"ID":150531,"DIS_CODE":0,"TOWNNAME":"東山區","LI":"聖賢里","LIN":"20鄰","STREET":" ","SECT":" ","MAREA":"頂窩","LANE":" ","ALLEY":" ","HOUSE_NO":"６９號","E_COORD97":183873.72,"N_COORD97":2578712.0800000001,"ADDRESS":"頂窩６９號","OBJECTID":150530},"geometry":{"x":183873.72000000067,"y":2578712.0800000019}},{"attributes":{"ID":150532,"DIS_CODE":0,"TOWNNAME":"東山區","LI":"東中里","LIN":"20鄰","STREET":" ","SECT":" ","MAREA":"東山市場","LANE":" ","ALLEY":" ","HOUSE_NO":"１６號","E_COORD97":188925.16,"N_COORD97":2580164.6000000001,"ADDRESS":"東山市場１６號","OBJECTID":150531},"geometry":{"x":188925.16000000015,"y":2580164.6000000034}},{"attributes":{"ID":150533,"DIS_CODE":0,"TOWNNAME":"東山區","LI":"東中里","LIN":"20鄰","STREET":" ","SECT":" ","MAREA":"東山市場","LANE":" ","ALLEY":" ","HOUSE_NO":"１７號","E_COORD97":188918.20000000001,"N_COORD97":2580167.1099999999,"ADDRESS":"東山市場１７號","OBJECTID":150532},"geometry":{"x":188918.20000000019,"y":2580167.1099999994}},{"attributes":{"ID":150534,"DIS_CODE":0,"TOWNNAME":"東山區","LI":"東中里","LIN":"20鄰","STREET":" ","SECT":" ","MAREA":"東山市場","LANE":" ","ALLEY":" ","HOUSE_NO":"１８號","E_COORD97":188925.25,"N_COORD97":2580168.6200000001,"ADDRESS":"東山市場１８號","OBJECTID":150533},"geometry":{"x":188925.25000000186,"y":2580168.620000001}},{"attributes":{"ID":150535,"DIS_CODE":0,"TOWNNAME":"東山區","LI":"東中里","LIN":"20鄰","STREET":" ","SECT":" ","MAREA":"東山市場","LANE":" ","ALLEY":" ","HOUSE_NO":"１９號","E_COORD97":188918.44,"N_COORD97":2580170.7799999998,"ADDRESS":"東山市場１９號","OBJECTID":150534},"geometry":{"x":188918.44000000041,"y":2580170.7800000012}},{"attributes":{"ID":150536,"DIS_CODE":0,"TOWNNAME":"東山區","LI":"東中里","LIN":"20鄰","STREET":" ","SECT":" ","MAREA":"東山市場","LANE":" ","ALLEY":" ","HOUSE_NO":"１號","E_COORD97":188949.53,"N_COORD97":2580157.8199999998,"ADDRESS":"東山市場１號","OBJECTID":150535},"geometry":{"x":188949.53000000119,"y":2580157.8200000022}},{"attributes":{"ID":150537,"DIS_CODE":0,"TOWNNAME":"東山區","LI":"東中里","LIN":"20鄰","STREET":" ","SECT":" ","MAREA":"東山市場","LANE":" ","ALLEY":" ","HOUSE_NO":"２０號","E_COORD97":188924.92999999999,"N_COORD97":2580172.04,"ADDRESS":"東山市場２０號","OBJECTID":150536},"geometry":{"x":188924.9299999997,"y":2580172.040000001}},{"attributes":{"ID":150538,"DIS_CODE":0,"TOWNNAME":"東山區","LI":"東中里","LIN":"20鄰","STREET":" ","SECT":" ","MAREA":"東山市場","LANE":" ","ALLEY":" ","HOUSE_NO":"２１號","E_COORD97":188917.94,"N_COORD97":2580174.1699999999,"ADDRESS":"東山市場２１號","OBJECTID":150537},"geometry":{"x":188917.94000000134,"y":2580174.1699999999}},{"attributes":{"ID":150539,"DIS_CODE":0,"TOWNNAME":"東山區","LI":"東中里","LIN":"20鄰","STREET":" ","SECT":" ","MAREA":"東山市場","LANE":" ","ALLEY":" ","HOUSE_NO":"２２號","E_COORD97":188925.03,"N_COORD97":2580175.5,"ADDRESS":"東山市場２２號","OBJECTID":150538},"geometry":{"x":188925.03000000026,"y":2580175.5}},{"attributes":{"ID":150540,"DIS_CODE":0,"TOWNNAME":"東山區","LI":"東中里","LIN":"20鄰","STREET":" ","SECT":" ","MAREA":"東山市場","LANE":" ","ALLEY":" ","HOUSE_NO":"２３號","E_COORD97":188918.25,"N_COORD97":2580181.2999999998,"ADDRESS":"東山市場２３號","OBJECTID":150539},"geometry":{"x":188918.24999999907,"y":2580181.3000000045}},{"attributes":{"ID":150541,"DIS_CODE":0,"TOWNNAME":"東山區","LI":"東中里","LIN":"20鄰","STREET":" ","SECT":" ","MAREA":"東山市場","LANE":" ","ALLEY":" ","HOUSE_NO":"２４號","E_COORD97":188924.54999999999,"N_COORD97":2580183.04,"ADDRESS":"東山市場２４號","OBJECTID":150540},"geometry":{"x":188924.55000000168,"y":2580183.040000001}},{"attributes":{"ID":150542,"DIS_CODE":0,"TOWNNAME":"東山區","LI":"東中里","LIN":"20鄰","STREET":" ","SECT":" ","MAREA":"東山市場","LANE":" ","ALLEY":" ","HOUSE_NO":"２５號","E_COORD97":188917.72,"N_COORD97":2580185.29,"ADDRESS":"東山市場２５號","OBJECTID":150541},"geometry":{"x":188917.71999999974,"y":2580185.2899999991}},{"attributes":{"ID":150543,"DIS_CODE":0,"TOWNNAME":"東山區","LI":"東中里","LIN":"20鄰","STREET":" ","SECT":" ","MAREA":"東山市場","LANE":" ","ALLEY":" ","HOUSE_NO":"２６號","E_COORD97":188924.34,"N_COORD97":2580186.48,"ADDRESS":"東山市場２６號","OBJECTID":150542},"geometry":{"x":188924.34000000171,"y":2580186.4799999986}},{"attributes":{"ID":150544,"DIS_CODE":0,"TOWNNAME":"東山區","LI":"東中里","LIN":"20鄰","STREET":" ","SECT":" ","MAREA":"東山市場","LANE":" ","ALLEY":" ","HOUSE_NO":"２７號","E_COORD97":188917.76000000001,"N_COORD97":2580188.96,"ADDRESS":"東山市場２７號","OBJECTID":150543},"geometry":{"x":188917.75999999978,"y":2580188.9600000009}},{"attributes":{"ID":150545,"DIS_CODE":0,"TOWNNAME":"東山區","LI":"東中里","LIN":"20鄰","STREET":" ","SECT":" ","MAREA":"東山市場","LANE":" ","ALLEY":" ","HOUSE_NO":"２８號","E_COORD97":188924.29999999999,"N_COORD97":2580190.2999999998,"ADDRESS":"東山市場２８號","OBJECTID":150544},"geometry":{"x":188924.29999999981,"y":2580190.3000000007}},{"attributes":{"ID":150546,"DIS_CODE":0,"TOWNNAME":"東山區","LI":"東中里","LIN":"20鄰","STREET":" ","SECT":" ","MAREA":"東山市場","LANE":" ","ALLEY":" ","HOUSE_NO":"２９號","E_COORD97":188917.60999999999,"N_COORD97":2580192.8100000001,"ADDRESS":"東山市場２９號","OBJECTID":150545},"geometry":{"x":188917.61000000034,"y":2580192.8100000024}},{"attributes":{"ID":150547,"DIS_CODE":0,"TOWNNAME":"東山區","LI":"東中里","LIN":"20鄰","STREET":" ","SECT":" ","MAREA":"東山市場","LANE":" ","ALLEY":" ","HOUSE_NO":"２號","E_COORD97":188942.25,"N_COORD97":2580172.3799999999,"ADDRESS":"東山市場２號","OBJECTID":150546},"geometry":{"x":188942.25000000093,"y":2580172.3800000027}},{"attributes":{"ID":150548,"DIS_CODE":0,"TOWNNAME":"東山區","LI":"東中里","LIN":"20鄰","STREET":" ","SECT":" ","MAREA":"東山市場","LANE":" ","ALLEY":" ","HOUSE_NO":"３０號","E_COORD97":188924.20000000001,"N_COORD97":2580194.25,"ADDRESS":"東山市場３０號","OBJECTID":150547},"geometry":{"x":188924.20000000112,"y":2580194.2499999981}},{"attributes":{"ID":150549,"DIS_CODE":0,"TOWNNAME":"東山區","LI":"東中里","LIN":"20鄰","STREET":" ","SECT":" ","MAREA":"東山市場","LANE":" ","ALLEY":" ","HOUSE_NO":"３號","E_COORD97":188944.76999999999,"N_COORD97":2580156.79,"ADDRESS":"東山市場３號","OBJECTID":150548},"geometry":{"x":188944.76999999862,"y":2580156.790000001}},{"attributes":{"ID":150550,"DIS_CODE":0,"TOWNNAME":"東山區","LI":"東中里","LIN":"20鄰","STREET":" ","SECT":" ","MAREA":"東山市場","LANE":" ","ALLEY":" ","HOUSE_NO":"４號","E_COORD97":188938.76999999999,"N_COORD97":2580171.0299999998,"ADDRESS":"東山市場４號","OBJECTID":150549},"geometry":{"x":188938.77000000048,"y":2580171.0299999993}},{"attributes":{"ID":150551,"DIS_CODE":0,"TOWNNAME":"安南區","LI":"新順里","LIN":"3鄰","STREET":"安和路","SECT":"二段","MAREA":" ","LANE":"３１８巷","ALLEY":"３８弄","HOUSE_NO":"１２號","E_COORD97":169819.31,"N_COORD97":2549214.4900000002,"ADDRESS":"安和路二段３１８巷３８弄１２號","OBJECTID":150550},"geometry":{"x":169819.30999999959,"y":2549214.4900000002}},{"attributes":{"ID":150552,"DIS_CODE":0,"TOWNNAME":"安南區","LI":"長安里","LIN":"3鄰","STREET":"長溪路","SECT":"三段","MAREA":" ","LANE":"３７３巷","ALLEY":"２１弄","HOUSE_NO":"１６２號","E_COORD97":167449.82000000001,"N_COORD97":2551812.0699999998,"ADDRESS":"長溪路三段３７３巷２１弄１６２號","OBJECTID":150551},"geometry":{"x":167449.8200000003,"y":2551812.0700000022}},{"attributes":{"ID":150553,"DIS_CODE":0,"TOWNNAME":"安南區","LI":"長安里","LIN":"3鄰","STREET":"長溪路","SECT":"三段","MAREA":" ","LANE":"３７３巷","ALLEY":"２１弄","HOUSE_NO":"１６４號","E_COORD97":167453.01999999999,"N_COORD97":2551809.1000000001,"ADDRESS":"長溪路三段３７３巷２１弄１６４號","OBJECTID":150552},"geometry":{"x":167453.01999999955,"y":2551809.1000000015}},{"attributes":{"ID":150554,"DIS_CODE":0,"TOWNNAME":"永康區","LI":"甲頂里","LIN":"3鄰","STREET":"中正南路","SECT":" ","MAREA":" ","LANE":"１６８巷","ALLEY":"２弄","HOUSE_NO":"６號","E_COORD97":169863.85000000001,"N_COORD97":2546978.9900000002,"ADDRESS":"中正南路１６８巷２弄６號","OBJECTID":150553},"geometry":{"x":169863.85000000056,"y":2546978.9900000021}},{"attributes":{"ID":150555,"DIS_CODE":0,"TOWNNAME":"佳里區","LI":"營頂里","LIN":"5鄰","STREET":" ","SECT":" ","MAREA":"營頂","LANE":" ","ALLEY":" ","HOUSE_NO":"５６號","E_COORD97":166961.73999999999,"N_COORD97":2566648.6400000001,"ADDRESS":"營頂５６號","OBJECTID":150554},"geometry":{"x":166961.74000000022,"y":2566648.6400000025}},{"attributes":{"ID":150556,"DIS_CODE":0,"TOWNNAME":"永康區","LI":"東橋里","LIN":"3鄰","STREET":"大橋一街","SECT":" ","MAREA":" ","LANE":"３２４巷","ALLEY":"２５弄","HOUSE_NO":"５號","E_COORD97":171374.92000000001,"N_COORD97":2546635.54,"ADDRESS":"大橋一街３２４巷２５弄５號","OBJECTID":150555},"geometry":{"x":171374.91999999993,"y":2546635.5399999991}},{"attributes":{"ID":150557,"DIS_CODE":0,"TOWNNAME":"永康區","LI":"東橋里","LIN":"3鄰","STREET":"大橋一街","SECT":" ","MAREA":" ","LANE":"３２４巷","ALLEY":"２５弄","HOUSE_NO":"３號","E_COORD97":171370.78,"N_COORD97":2546633.29,"ADDRESS":"大橋一街３２４巷２５弄３號","OBJECTID":150556},"geometry":{"x":171370.78000000026,"y":2546633.290000001}},{"attributes":{"ID":150558,"DIS_CODE":0,"TOWNNAME":"安南區","LI":"新順里","LIN":"3鄰","STREET":"安和路","SECT":"二段","MAREA":" ","LANE":"３１８巷","ALLEY":"３８弄","HOUSE_NO":"１９號","E_COORD97":169846.48999999999,"N_COORD97":2549235.7200000002,"ADDRESS":"安和路二段３１８巷３８弄１９號","OBJECTID":150557},"geometry":{"x":169846.49000000115,"y":2549235.7200000025}},{"attributes":{"ID":150559,"DIS_CODE":0,"TOWNNAME":"安南區","LI":"淵東里","LIN":"3鄰","STREET":"本原街","SECT":"三段","MAREA":" ","LANE":"２３４巷","ALLEY":"１０６弄","HOUSE_NO":"４１號","E_COORD97":165294.89999999999,"N_COORD97":2550650.25,"ADDRESS":"本原街三段２３４巷１０６弄４１號","OBJECTID":150558},"geometry":{"x":165294.90000000037,"y":2550650.25}},{"attributes":{"ID":150560,"DIS_CODE":0,"TOWNNAME":"安南區","LI":"淵東里","LIN":"3鄰","STREET":"本原街","SECT":"三段","MAREA":" ","LANE":"２３４巷","ALLEY":"１０６弄","HOUSE_NO":"４３號","E_COORD97":165292.39999999999,"N_COORD97":2550656.1299999999,"ADDRESS":"本原街三段２３４巷１０６弄４３號","OBJECTID":150559},"geometry":{"x":165292.4000000013,"y":2550656.129999999}},{"attributes":{"ID":150561,"DIS_CODE":0,"TOWNNAME":"安南區","LI":"淵東里","LIN":"3鄰","STREET":"本原街","SECT":"三段","MAREA":" ","LANE":"２３４巷","ALLEY":"１０６弄","HOUSE_NO":"４５號","E_COORD97":165291.66,"N_COORD97":2550659.6600000001,"ADDRESS":"本原街三段２３４巷１０６弄４５號","OBJECTID":150560},"geometry":{"x":165291.66000000201,"y":2550659.660000002}},{"attributes":{"ID":150562,"DIS_CODE":0,"TOWNNAME":"西港區","LI":"港東里","LIN":"19鄰","STREET":" ","SECT":" ","MAREA":"八份","LANE":" ","ALLEY":" ","HOUSE_NO":"６４號之１","E_COORD97":170105.04000000001,"N_COORD97":2558553.9199999999,"ADDRESS":"八份６４號之１","OBJECTID":150561},"geometry":{"x":170105.04000000097,"y":2558553.9200000018}},{"attributes":{"ID":150563,"DIS_CODE":0,"TOWNNAME":"安南區","LI":"淵東里","LIN":"3鄰","STREET":"本原街","SECT":"三段","MAREA":" ","LANE":"２３４巷","ALLEY":"１０６弄","HOUSE_NO":"４７號","E_COORD97":165289.45000000001,"N_COORD97":2550663.7799999998,"ADDRESS":"本原街三段２３４巷１０６弄４７號","OBJECTID":150562},"geometry":{"x":165289.45000000019,"y":2550663.7800000012}},{"attributes":{"ID":150564,"DIS_CODE":0,"TOWNNAME":"安南區","LI":"淵東里","LIN":"3鄰","STREET":"本原街","SECT":"三段","MAREA":" ","LANE":"２３４巷","ALLEY":"１０６弄","HOUSE_NO":"４９號","E_COORD97":165287.23999999999,"N_COORD97":2550668,"ADDRESS":"本原街三段２３４巷１０６弄４９號","OBJECTID":150563},"geometry":{"x":165287.24000000022,"y":2550668}},{"attributes":{"ID":150565,"DIS_CODE":0,"TOWNNAME":"安南區","LI":"淵東里","LIN":"3鄰","STREET":"本原街","SECT":"三段","MAREA":" ","LANE":"２３４巷","ALLEY":"１０６弄","HOUSE_NO":"５１號","E_COORD97":165285.95999999999,"N_COORD97":2550671.7400000002,"ADDRESS":"本原街三段２３４巷１０６弄５１號","OBJECTID":150564},"geometry":{"x":165285.96000000183,"y":2550671.7400000021}},{"attributes":{"ID":150566,"DIS_CODE":0,"TOWNNAME":"安南區","LI":"淵東里","LIN":"3鄰","STREET":"本原街","SECT":"三段","MAREA":" ","LANE":"２３４巷","ALLEY":"１０６弄","HOUSE_NO":"５３號","E_COORD97":165284.29000000001,"N_COORD97":2550676.1200000001,"ADDRESS":"本原街三段２３４巷１０６弄５３號","OBJECTID":150565},"geometry":{"x":165284.29000000097,"y":2550676.120000001}},{"attributes":{"ID":150567,"DIS_CODE":0,"TOWNNAME":"安南區","LI":"淵東里","LIN":"3鄰","STREET":"本原街","SECT":"三段","MAREA":" ","LANE":"２３４巷","ALLEY":"１０６弄","HOUSE_NO":"５５號","E_COORD97":165281.98000000001,"N_COORD97":2550680.5699999998,"ADDRESS":"本原街三段２３４巷１０６弄５５號","OBJECTID":150566},"geometry":{"x":165281.98000000138,"y":2550680.5700000022}},{"attributes":{"ID":150568,"DIS_CODE":0,"TOWNNAME":"安南區","LI":"淵東里","LIN":"3鄰","STREET":"本原街","SECT":"三段","MAREA":" ","LANE":"２３４巷","ALLEY":"１０６弄","HOUSE_NO":"５７號","E_COORD97":165280.63,"N_COORD97":2550684.8900000001,"ADDRESS":"本原街三段２３４巷１０６弄５７號","OBJECTID":150567},"geometry":{"x":165280.62999999989,"y":2550684.8900000025}},{"attributes":{"ID":150569,"DIS_CODE":0,"TOWNNAME":"安南區","LI":"淵東里","LIN":"3鄰","STREET":"本原街","SECT":"三段","MAREA":" ","LANE":"２３４巷","ALLEY":"１０６弄","HOUSE_NO":"５９號","E_COORD97":165279.26000000001,"N_COORD97":2550689.02,"ADDRESS":"本原街三段２３４巷１０６弄５９號","OBJECTID":150568},"geometry":{"x":165279.26000000071,"y":2550689.0200000033}},{"attributes":{"ID":150570,"DIS_CODE":0,"TOWNNAME":"安南區","LI":"淵東里","LIN":"3鄰","STREET":"本原街","SECT":"三段","MAREA":" ","LANE":"２３４巷","ALLEY":"１０６弄","HOUSE_NO":"６１號","E_COORD97":165315.51999999999,"N_COORD97":2550666.1299999999,"ADDRESS":"本原街三段２３４巷１０６弄６１號","OBJECTID":150569},"geometry":{"x":165315.51999999862,"y":2550666.129999999}},{"attributes":{"ID":150571,"DIS_CODE":0,"TOWNNAME":"中西區","LI":"藥王里","LIN":"19鄰","STREET":"永和街","SECT":" ","MAREA":" ","LANE":" ","ALLEY":" ","HOUSE_NO":"４２號","E_COORD97":166975.39999999999,"N_COORD97":2544547.75,"ADDRESS":"永和街４２號","OBJECTID":150570},"geometry":{"x":166975.4000000013,"y":2544547.75}},{"attributes":{"ID":150572,"DIS_CODE":0,"TOWNNAME":"東區","LI":"大智里","LIN":"19鄰","STREET":"崇善十四街","SECT":" ","MAREA":" ","LANE":" ","ALLEY":" ","HOUSE_NO":"６８號","E_COORD97":171246.19,"N_COORD97":2540606.8199999998,"ADDRESS":"崇善十四街６８號","OBJECTID":150571},"geometry":{"x":171246.19000000041,"y":2540606.8200000003}},{"attributes":{"ID":150573,"DIS_CODE":0,"TOWNNAME":"東區","LI":"大智里","LIN":"19鄰","STREET":"崇善十四街","SECT":" ","MAREA":" ","LANE":" ","ALLEY":" ","HOUSE_NO":"５０號","E_COORD97":171280.62,"N_COORD97":2540621.7999999998,"ADDRESS":"崇善十四街５０號","OBJECTID":150572},"geometry":{"x":171280.62000000011,"y":2540621.8000000007}},{"attributes":{"ID":150574,"DIS_CODE":0,"TOWNNAME":"東區","LI":"大智里","LIN":"19鄰","STREET":"崇善十四街","SECT":" ","MAREA":" ","LANE":" ","ALLEY":" ","HOUSE_NO":"３４號","E_COORD97":171312.09,"N_COORD97":2540636.27,"ADDRESS":"崇善十四街３４號","OBJECTID":150573},"geometry":{"x":171312.09000000078,"y":2540636.2700000014}},{"attributes":{"ID":150575,"DIS_CODE":0,"TOWNNAME":"東區","LI":"大智里","LIN":"19鄰","STREET":"崇善十四街","SECT":" ","MAREA":" ","LANE":" ","ALLEY":" ","HOUSE_NO":"３６號","E_COORD97":171309.06,"N_COORD97":2540633.77,"ADDRESS":"崇善十四街３６號","OBJECTID":150574},"geometry":{"x":171309.05999999959,"y":2540633.7699999996}},{"attributes":{"ID":150576,"DIS_CODE":0,"TOWNNAME":"東區","LI":"大智里","LIN":"19鄰","STREET":"崇善十四街","SECT":" ","MAREA":" ","LANE":" ","ALLEY":" ","HOUSE_NO":"３７號","E_COORD97":171277.98999999999,"N_COORD97":2540602.73,"ADDRESS":"崇善十四街３７號","OBJECTID":150575},"geometry":{"x":171277.99000000022,"y":2540602.7300000023}},{"attributes":{"ID":150577,"DIS_CODE":0,"TOWNNAME":"東區","LI":"大智里","LIN":"19鄰","STREET":"崇善十四街","SECT":" ","MAREA":" ","LANE":" ","ALLEY":" ","HOUSE_NO":"３８號","E_COORD97":171304.19,"N_COORD97":2540632.4500000002,"ADDRESS":"崇善十四街３８號","OBJECTID":150576},"geometry":{"x":171304.19000000041,"y":2540632.4499999993}},{"attributes":{"ID":150578,"DIS_CODE":0,"TOWNNAME":"東區","LI":"大智里","LIN":"19鄰","STREET":"崇善十四街","SECT":" ","MAREA":" ","LANE":" ","ALLEY":" ","HOUSE_NO":"４０號","E_COORD97":171300.89999999999,"N_COORD97":2540630.3500000001,"ADDRESS":"崇善十四街４０號","OBJECTID":150577},"geometry":{"x":171300.90000000037,"y":2540630.3499999996}},{"attributes":{"ID":150579,"DIS_CODE":0,"TOWNNAME":"東區","LI":"東安里","LIN":"21鄰","STREET":"衛國街","SECT":" ","MAREA":" ","LANE":" ","ALLEY":" ","HOUSE_NO":"２４號","E_COORD97":170253.5,"N_COORD97":2543011.8700000001,"ADDRESS":"衛國街２４號","OBJECTID":150578},"geometry":{"x":170253.5,"y":2543011.870000001}},{"attributes":{"ID":150580,"DIS_CODE":0,"TOWNNAME":"東區","LI":"東安里","LIN":"21鄰","STREET":"衛國街","SECT":" ","MAREA":" ","LANE":" ","ALLEY":" ","HOUSE_NO":"２６號","E_COORD97":170255.5,"N_COORD97":2543016.5,"ADDRESS":"衛國街２６號","OBJECTID":150579},"geometry":{"x":170255.5,"y":2543016.5}},{"attributes":{"ID":150581,"DIS_CODE":0,"TOWNNAME":"東區","LI":"東安里","LIN":"21鄰","STREET":"衛國街","SECT":" ","MAREA":" ","LANE":" ","ALLEY":" ","HOUSE_NO":"３０號","E_COORD97":170255.59,"N_COORD97":2543023.21,"ADDRESS":"衛國街３０號","OBJECTID":150580},"geometry":{"x":170255.59000000078,"y":2543023.2100000009}},{"attributes":{"ID":150582,"DIS_CODE":0,"TOWNNAME":"東區","LI":"東安里","LIN":"21鄰","STREET":"衛國街","SECT":" ","MAREA":" ","LANE":" ","ALLEY":" ","HOUSE_NO":"３２號","E_COORD97":170258.39999999999,"N_COORD97":2543027.02,"ADDRESS":"衛國街３２號","OBJECTID":150581},"geometry":{"x":170258.40000000037,"y":2543027.0200000033}},{"attributes":{"ID":150583,"DIS_CODE":0,"TOWNNAME":"東區","LI":"東安里","LIN":"21鄰","STREET":"衛國街","SECT":" ","MAREA":" ","LANE":" ","ALLEY":" ","HOUSE_NO":"３４號","E_COORD97":170257.76999999999,"N_COORD97":2543032.2400000002,"ADDRESS":"衛國街３４號","OBJECTID":150582},"geometry":{"x":170257.77000000048,"y":2543032.2400000002}},{"attributes":{"ID":150584,"DIS_CODE":0,"TOWNNAME":"安南區","LI":"淵東里","LIN":"3鄰","STREET":"本原街","SECT":"三段","MAREA":" ","LANE":"２３４巷","ALLEY":"１０６弄","HOUSE_NO":"６３號","E_COORD97":165313.60999999999,"N_COORD97":2550669.96,"ADDRESS":"本原街三段２３４巷１０６弄６３號","OBJECTID":150583},"geometry":{"x":165313.61000000034,"y":2550669.9600000009}},{"attributes":{"ID":150585,"DIS_CODE":0,"TOWNNAME":"東區","LI":"東安里","LIN":"16鄰","STREET":"衛國街","SECT":" ","MAREA":" ","LANE":" ","ALLEY":" ","HOUSE_NO":"１５號","E_COORD97":170237.94,"N_COORD97":2542993.6099999999,"ADDRESS":"衛國街１５號","OBJECTID":150584},"geometry":{"x":170237.94000000041,"y":2542993.6100000013}},{"attributes":{"ID":150586,"DIS_CODE":0,"TOWNNAME":"東區","LI":"東安里","LIN":"16鄰","STREET":"衛國街","SECT":" ","MAREA":" ","LANE":" ","ALLEY":" ","HOUSE_NO":"１７號","E_COORD97":170239.20999999999,"N_COORD97":2542997.8700000001,"ADDRESS":"衛國街１７號","OBJECTID":150585},"geometry":{"x":170239.20999999903,"y":2542997.870000001}},{"attributes":{"ID":150587,"DIS_CODE":0,"TOWNNAME":"安南區","LI":"淵東里","LIN":"3鄰","STREET":"本原街","SECT":"三段","MAREA":" ","LANE":"２３４巷","ALLEY":"１０６弄","HOUSE_NO":"６５號","E_COORD97":165311.84,"N_COORD97":2550674.2200000002,"ADDRESS":"本原街三段２３４巷１０６弄６５號","OBJECTID":150586},"geometry":{"x":165311.83999999985,"y":2550674.2200000007}},{"attributes":{"ID":150588,"DIS_CODE":0,"TOWNNAME":"安南區","LI":"淵東里","LIN":"3鄰","STREET":"本原街","SECT":"三段","MAREA":" ","LANE":"２３４巷","ALLEY":"１０６弄","HOUSE_NO":"６７號","E_COORD97":165309.63,"N_COORD97":2550677.8999999999,"ADDRESS":"本原街三段２３４巷１０６弄６７號","OBJECTID":150587},"geometry":{"x":165309.62999999989,"y":2550677.9000000022}},{"attributes":{"ID":150589,"DIS_CODE":0,"TOWNNAME":"安南區","LI":"淵東里","LIN":"3鄰","STREET":"本原街","SECT":"三段","MAREA":" ","LANE":"２３４巷","ALLEY":"１０６弄","HOUSE_NO":"６９號","E_COORD97":165307.57000000001,"N_COORD97":2550682.1600000001,"ADDRESS":"本原街三段２３４巷１０６弄６９號","OBJECTID":150588},"geometry":{"x":165307.57000000216,"y":2550682.1600000039}},{"attributes":{"ID":150590,"DIS_CODE":0,"TOWNNAME":"安南區","LI":"淵東里","LIN":"3鄰","STREET":"本原街","SECT":"三段","MAREA":" ","LANE":"２３４巷","ALLEY":"１０６弄","HOUSE_NO":"７１號","E_COORD97":165306.25,"N_COORD97":2550685.98,"ADDRESS":"本原街三段２３４巷１０６弄７１號","OBJECTID":150589},"geometry":{"x":165306.25000000093,"y":2550685.9800000004}},{"attributes":{"ID":150591,"DIS_CODE":0,"TOWNNAME":"安南區","LI":"淵東里","LIN":"3鄰","STREET":"本原街","SECT":"三段","MAREA":" ","LANE":"２３４巷","ALLEY":"１０６弄","HOUSE_NO":"７３號","E_COORD97":165304.29000000001,"N_COORD97":2550690.5899999999,"ADDRESS":"本原街三段２３４巷１０６弄７３號","OBJECTID":150590},"geometry":{"x":165304.29000000097,"y":2550690.5900000017}},{"attributes":{"ID":150592,"DIS_CODE":0,"TOWNNAME":"安南區","LI":"淵東里","LIN":"3鄰","STREET":"本原街","SECT":"三段","MAREA":" ","LANE":"２３４巷","ALLEY":"１０６弄","HOUSE_NO":"７５號","E_COORD97":165302.60999999999,"N_COORD97":2550695.0600000001,"ADDRESS":"本原街三段２３４巷１０６弄７５號","OBJECTID":150591},"geometry":{"x":165302.61000000127,"y":2550695.0600000005}},{"attributes":{"ID":150593,"DIS_CODE":0,"TOWNNAME":"安南區","LI":"長安里","LIN":"3鄰","STREET":"長溪路","SECT":"三段","MAREA":" ","LANE":"４０５巷","ALLEY":"４０弄","HOUSE_NO":"２５１號","E_COORD97":167331.41,"N_COORD97":2551740.7799999998,"ADDRESS":"長溪路三段４０５巷４０弄２５１號","OBJECTID":150592},"geometry":{"x":167331.41000000108,"y":2551740.7799999993}},{"attributes":{"ID":150594,"DIS_CODE":0,"TOWNNAME":"安南區","LI":"長安里","LIN":"3鄰","STREET":"長溪路","SECT":"三段","MAREA":" ","LANE":"４０５巷","ALLEY":"４０弄","HOUSE_NO":"２５３號","E_COORD97":167335.16,"N_COORD97":2551742.8900000001,"ADDRESS":"長溪路三段４０５巷４０弄２５３號","OBJECTID":150593},"geometry":{"x":167335.16000000015,"y":2551742.8900000025}},{"attributes":{"ID":150595,"DIS_CODE":0,"TOWNNAME":"安南區","LI":"長安里","LIN":"3鄰","STREET":"長溪路","SECT":"三段","MAREA":" ","LANE":"４０５巷","ALLEY":"４０弄","HOUSE_NO":"２５５號","E_COORD97":167338.22,"N_COORD97":2551745.0600000001,"ADDRESS":"長溪路三段４０５巷４０弄２５５號","OBJECTID":150594},"geometry":{"x":167338.21999999974,"y":2551745.0600000024}},{"attributes":{"ID":150596,"DIS_CODE":0,"TOWNNAME":"仁德區","LI":"仁愛里","LIN":"28鄰","STREET":"大同路","SECT":"三段","MAREA":" ","LANE":"３５８巷","ALLEY":" ","HOUSE_NO":"８８號","E_COORD97":169719.45499999999,"N_COORD97":2539349.6200000001,"ADDRESS":"大同路三段３５８巷８８號","OBJECTID":150595},"geometry":{"x":169719.45500000101,"y":2539349.6200000029}},{"attributes":{"ID":150597,"DIS_CODE":0,"TOWNNAME":"東區","LI":"東安里","LIN":"16鄰","STREET":"衛國街","SECT":" ","MAREA":" ","LANE":" ","ALLEY":" ","HOUSE_NO":"１９號","E_COORD97":170239.42999999999,"N_COORD97":2543004.6800000002,"ADDRESS":"衛國街１９號","OBJECTID":150596},"geometry":{"x":170239.43000000063,"y":2543004.6799999997}},{"attributes":{"ID":150598,"DIS_CODE":0,"TOWNNAME":"東山區","LI":"東中里","LIN":"20鄰","STREET":" ","SECT":" ","MAREA":"東山市場","LANE":" ","ALLEY":" ","HOUSE_NO":"６號","E_COORD97":188935.04999999999,"N_COORD97":2580169.6800000002,"ADDRESS":"東山市場６號","OBJECTID":150597},"geometry":{"x":188935.05000000075,"y":2580169.6799999997}},{"attributes":{"ID":150599,"DIS_CODE":0,"TOWNNAME":"東山區","LI":"東中里","LIN":"20鄰","STREET":" ","SECT":" ","MAREA":"東山市場","LANE":" ","ALLEY":" ","HOUSE_NO":"７號","E_COORD97":188931.20000000001,"N_COORD97":2580151.25,"ADDRESS":"東山市場７號","OBJECTID":150598},"geometry":{"x":188931.20000000112,"y":2580151.2500000019}},{"attributes":{"ID":150600,"DIS_CODE":0,"TOWNNAME":"東山區","LI":"東中里","LIN":"20鄰","STREET":" ","SECT":" ","MAREA":"東山市場","LANE":" ","ALLEY":" ","HOUSE_NO":"８號","E_COORD97":188930.88,"N_COORD97":2580160.6099999999,"ADDRESS":"東山市場８號","OBJECTID":150599},"geometry":{"x":188930.88000000175,"y":2580160.6099999994}},{"attributes":{"ID":150601,"DIS_CODE":0,"TOWNNAME":"安定區","LI":"港口里","LIN":"20鄰","STREET":" ","SECT":" ","MAREA":"港口","LANE":" ","ALLEY":" ","HOUSE_NO":"３９９之６５號","E_COORD97":171555.73999999999,"N_COORD97":2554934.2999999998,"ADDRESS":"港口３９９之６５號","OBJECTID":150600},"geometry":{"x":171555.74000000022,"y":2554934.3000000026}}]}