{"displayFieldName":"TOWNNAME","fieldAliases":{"ID":"ID","DIS_CODE":"DIS_CODE","TOWNNAME":"TOWNNAME","LI":"LI","LIN":"LIN","STREET":"STREET","SECT":"SECT","MAREA":"MAREA","LANE":"LANE","ALLEY":"ALLEY","HOUSE_NO":"HOUSE_NO","E_COORD97":"E_COORD97","N_COORD97":"N_COORD97","ADDRESS":"ADDRESS","OBJECTID":"OBJECTID"},"geometryType":"esriGeometryPoint","spatialReference":{"wkid":102443,"latestWkid":3826},"fields":[{"name":"ID","type":"esriFieldTypeDouble","alias":"ID"},{"name":"DIS_CODE","type":"esriFieldTypeInteger","alias":"DIS_CODE"},{"name":"TOWNNAME","type":"esriFieldTypeString","alias":"TOWNNAME","length":8},{"name":"LI","type":"esriFieldTypeString","alias":"LI","length":8},{"name":"LIN","type":"esriFieldTypeString","alias":"LIN","length":12},{"name":"STREET","type":"esriFieldTypeString","alias":"STREET","length":20},{"name":"SECT","type":"esriFieldTypeString","alias":"SECT","length":8},{"name":"MAREA","type":"esriFieldTypeString","alias":"MAREA","length":12},{"name":"LANE","type":"esriFieldTypeString","alias":"LANE","length":10},{"name":"ALLEY","type":"esriFieldTypeString","alias":"ALLEY","length":10},{"name":"HOUSE_NO","type":"esriFieldTypeString","alias":"HOUSE_NO","length":20},{"name":"E_COORD97","type":"esriFieldTypeDouble","alias":"E_COORD97"},{"name":"N_COORD97","type":"esriFieldTypeDouble","alias":"N_COORD97"},{"name":"ADDRESS","type":"esriFieldTypeString","alias":"ADDRESS","length":50},{"name":"OBJECTID","type":"esriFieldTypeOID","alias":"OBJECTID"}],"features":[{"attributes":{"ID":81001,"DIS_CODE":0,"TOWNNAME":"鹽水區","LI":"竹埔里","LIN":"1鄰","STREET":" ","SECT":" ","MAREA":"竹子腳","LANE":" ","ALLEY":" ","HOUSE_NO":"１號之１２","E_COORD97":172989.48999999999,"N_COORD97":2574657.3799999999,"ADDRESS":"竹子腳１號之１２","OBJECTID":81001},"geometry":{"x":172989.49000000115,"y":2574657.3800000008}},{"attributes":{"ID":81002,"DIS_CODE":0,"TOWNNAME":"鹽水區","LI":"竹埔里","LIN":"1鄰","STREET":" ","SECT":" ","MAREA":"竹子腳","LANE":" ","ALLEY":" ","HOUSE_NO":"１之１４號","E_COORD97":173020.17999999999,"N_COORD97":2574990.6800000002,"ADDRESS":"竹子腳１之１４號","OBJECTID":81002},"geometry":{"x":173020.1799999997,"y":2574990.6800000034}},{"attributes":{"ID":81003,"DIS_CODE":0,"TOWNNAME":"鹽水區","LI":"竹埔里","LIN":"1鄰","STREET":" ","SECT":" ","MAREA":"竹子腳","LANE":" ","ALLEY":" ","HOUSE_NO":"１號之２","E_COORD97":172929.04000000001,"N_COORD97":2575121.8500000001,"ADDRESS":"竹子腳１號之２","OBJECTID":81003},"geometry":{"x":172929.0400000019,"y":2575121.8500000015}},{"attributes":{"ID":81004,"DIS_CODE":0,"TOWNNAME":"鹽水區","LI":"竹埔里","LIN":"1鄰","STREET":" ","SECT":" ","MAREA":"竹子腳","LANE":" ","ALLEY":" ","HOUSE_NO":"１號之３","E_COORD97":173000.07000000001,"N_COORD97":2575054.54,"ADDRESS":"竹子腳１號之３","OBJECTID":81004},"geometry":{"x":173000.0700000003,"y":2575054.5399999991}},{"attributes":{"ID":81005,"DIS_CODE":0,"TOWNNAME":"鹽水區","LI":"竹埔里","LIN":"1鄰","STREET":" ","SECT":" ","MAREA":"竹子腳","LANE":" ","ALLEY":" ","HOUSE_NO":"１號之６","E_COORD97":172860.82000000001,"N_COORD97":2574704.8999999999,"ADDRESS":"竹子腳１號之６","OBJECTID":81005},"geometry":{"x":172860.8200000003,"y":2574704.9000000041}},{"attributes":{"ID":81006,"DIS_CODE":0,"TOWNNAME":"鹽水區","LI":"竹埔里","LIN":"1鄰","STREET":" ","SECT":" ","MAREA":"竹子腳","LANE":" ","ALLEY":" ","HOUSE_NO":"１號之７","E_COORD97":172968.10999999999,"N_COORD97":2574667.8799999999,"ADDRESS":"竹子腳１號之７","OBJECTID":81006},"geometry":{"x":172968.11000000127,"y":2574667.8800000008}},{"attributes":{"ID":81007,"DIS_CODE":0,"TOWNNAME":"鹽水區","LI":"竹埔里","LIN":"1鄰","STREET":" ","SECT":" ","MAREA":"竹子腳","LANE":" ","ALLEY":" ","HOUSE_NO":"１號之８","E_COORD97":172974.48999999999,"N_COORD97":2574665.0800000001,"ADDRESS":"竹子腳１號之８","OBJECTID":81007},"geometry":{"x":172974.49000000115,"y":2574665.0800000001}},{"attributes":{"ID":81008,"DIS_CODE":0,"TOWNNAME":"鹽水區","LI":"竹埔里","LIN":"1鄰","STREET":" ","SECT":" ","MAREA":"竹子腳","LANE":" ","ALLEY":" ","HOUSE_NO":"１號之９","E_COORD97":172978.57999999999,"N_COORD97":2574662.9100000001,"ADDRESS":"竹子腳１號之９","OBJECTID":81008},"geometry":{"x":172978.58000000101,"y":2574662.9100000001}},{"attributes":{"ID":81009,"DIS_CODE":0,"TOWNNAME":"鹽水區","LI":"竹埔里","LIN":"1鄰","STREET":" ","SECT":" ","MAREA":"竹子腳","LANE":" ","ALLEY":" ","HOUSE_NO":"１號","E_COORD97":173026.37,"N_COORD97":2574666.3399999999,"ADDRESS":"竹子腳１號","OBJECTID":81009},"geometry":{"x":173026.37000000011,"y":2574666.3399999999}},{"attributes":{"ID":81010,"DIS_CODE":0,"TOWNNAME":"鹽水區","LI":"竹埔里","LIN":"1鄰","STREET":" ","SECT":" ","MAREA":"竹子腳","LANE":" ","ALLEY":" ","HOUSE_NO":"２號之１０","E_COORD97":173140.39000000001,"N_COORD97":2574800.71,"ADDRESS":"竹子腳２號之１０","OBJECTID":81010},"geometry":{"x":173140.3900000006,"y":2574800.7100000009}},{"attributes":{"ID":81011,"DIS_CODE":0,"TOWNNAME":"鹽水區","LI":"竹埔里","LIN":"1鄰","STREET":" ","SECT":" ","MAREA":"竹子腳","LANE":" ","ALLEY":" ","HOUSE_NO":"２之１１號","E_COORD97":173104.59,"N_COORD97":2574796.04,"ADDRESS":"竹子腳２之１１號","OBJECTID":81011},"geometry":{"x":173104.58999999985,"y":2574796.0399999991}},{"attributes":{"ID":81012,"DIS_CODE":0,"TOWNNAME":"鹽水區","LI":"竹埔里","LIN":"1鄰","STREET":" ","SECT":" ","MAREA":"竹子腳","LANE":" ","ALLEY":" ","HOUSE_NO":"２號之１２","E_COORD97":173074.12,"N_COORD97":2574718.1600000001,"ADDRESS":"竹子腳２號之１２","OBJECTID":81012},"geometry":{"x":173074.12000000011,"y":2574718.1600000001}},{"attributes":{"ID":81013,"DIS_CODE":0,"TOWNNAME":"仁德區","LI":"成功里","LIN":"44鄰","STREET":"文賢路","SECT":"一段","MAREA":" ","LANE":"８１巷","ALLEY":"１３弄","HOUSE_NO":"７號","E_COORD97":170251.85000000001,"N_COORD97":2538228.3300000001,"ADDRESS":"文賢路一段８１巷１３弄７號","OBJECTID":81013},"geometry":{"x":170251.85000000056,"y":2538228.3300000019}},{"attributes":{"ID":81014,"DIS_CODE":0,"TOWNNAME":"仁德區","LI":"成功里","LIN":"44鄰","STREET":"文賢路","SECT":"一段","MAREA":" ","LANE":"８１巷","ALLEY":"１３弄","HOUSE_NO":"９號","E_COORD97":170256.73999999999,"N_COORD97":2538230.8300000001,"ADDRESS":"文賢路一段８１巷１３弄９號","OBJECTID":81014},"geometry":{"x":170256.74000000115,"y":2538230.8300000001}},{"attributes":{"ID":81015,"DIS_CODE":0,"TOWNNAME":"歸仁區","LI":"南保里","LIN":"44鄰","STREET":"民權十街","SECT":" ","MAREA":" ","LANE":"６３巷","ALLEY":"７弄","HOUSE_NO":"８號","E_COORD97":176810.16,"N_COORD97":2540696.2999999998,"ADDRESS":"民權十街６３巷７弄８號","OBJECTID":81015},"geometry":{"x":176810.16000000015,"y":2540696.3000000007}},{"attributes":{"ID":81016,"DIS_CODE":0,"TOWNNAME":"歸仁區","LI":"南保里","LIN":"44鄰","STREET":"民權十街","SECT":" ","MAREA":" ","LANE":"６３巷","ALLEY":"７弄","HOUSE_NO":"１號","E_COORD97":176804.06,"N_COORD97":2540710.2999999998,"ADDRESS":"民權十街６３巷７弄１號","OBJECTID":81016},"geometry":{"x":176804.06000000052,"y":2540710.3000000007}},{"attributes":{"ID":81017,"DIS_CODE":0,"TOWNNAME":"歸仁區","LI":"南保里","LIN":"44鄰","STREET":"民權十街","SECT":" ","MAREA":" ","LANE":"６３巷","ALLEY":"７弄","HOUSE_NO":"６號","E_COORD97":176806.06,"N_COORD97":2540696.2999999998,"ADDRESS":"民權十街６３巷７弄６號","OBJECTID":81017},"geometry":{"x":176806.06000000052,"y":2540696.3000000007}},{"attributes":{"ID":81018,"DIS_CODE":0,"TOWNNAME":"鹽水區","LI":"岸內里","LIN":"1鄰","STREET":" ","SECT":" ","MAREA":"蔦松腳","LANE":" ","ALLEY":" ","HOUSE_NO":"４之６號","E_COORD97":176218.06,"N_COORD97":2581753.8500000001,"ADDRESS":"蔦松腳４之６號","OBJECTID":81018},"geometry":{"x":176218.05999999959,"y":2581753.8500000015}},{"attributes":{"ID":81019,"DIS_CODE":0,"TOWNNAME":"歸仁區","LI":"南保里","LIN":"44鄰","STREET":"民權十街","SECT":" ","MAREA":" ","LANE":"６３巷","ALLEY":"１７弄","HOUSE_NO":"３號","E_COORD97":176789.81,"N_COORD97":2540671.2999999998,"ADDRESS":"民權十街６３巷１７弄３號","OBJECTID":81019},"geometry":{"x":176789.80999999959,"y":2540671.3000000026}},{"attributes":{"ID":81020,"DIS_CODE":0,"TOWNNAME":"歸仁區","LI":"南保里","LIN":"44鄰","STREET":"民權十街","SECT":" ","MAREA":" ","LANE":"６３巷","ALLEY":"７弄","HOUSE_NO":"１０號","E_COORD97":176815.51000000001,"N_COORD97":2540696.2999999998,"ADDRESS":"民權十街６３巷７弄１０號","OBJECTID":81020},"geometry":{"x":176815.50999999978,"y":2540696.3000000007}},{"attributes":{"ID":81021,"DIS_CODE":0,"TOWNNAME":"歸仁區","LI":"後市里","LIN":"44鄰","STREET":"民權北路","SECT":" ","MAREA":" ","LANE":"４８巷","ALLEY":"３弄","HOUSE_NO":"８號","E_COORD97":177038.82999999999,"N_COORD97":2541035.75,"ADDRESS":"民權北路４８巷３弄８號","OBJECTID":81021},"geometry":{"x":177038.83000000101,"y":2541035.7500000037}},{"attributes":{"ID":81022,"DIS_CODE":0,"TOWNNAME":"後壁區","LI":"後壁里","LIN":"1鄰","STREET":" ","SECT":" ","MAREA":"後壁","LANE":" ","ALLEY":" ","HOUSE_NO":"６號","E_COORD97":184759.85999999999,"N_COORD97":2584917.2599999998,"ADDRESS":"後壁６號","OBJECTID":81022},"geometry":{"x":184759.86000000127,"y":2584917.2600000035}},{"attributes":{"ID":81023,"DIS_CODE":0,"TOWNNAME":"歸仁區","LI":"南保里","LIN":"44鄰","STREET":"民權十街","SECT":" ","MAREA":" ","LANE":"６３巷","ALLEY":"１７弄","HOUSE_NO":"１３號","E_COORD97":176811.56,"N_COORD97":2540671.2999999998,"ADDRESS":"民權十街６３巷１７弄１３號","OBJECTID":81023},"geometry":{"x":176811.55999999959,"y":2540671.3000000026}},{"attributes":{"ID":81024,"DIS_CODE":0,"TOWNNAME":"歸仁區","LI":"南保里","LIN":"44鄰","STREET":"民權十街","SECT":" ","MAREA":" ","LANE":"６３巷","ALLEY":"１７弄","HOUSE_NO":"５號","E_COORD97":176794.91,"N_COORD97":2540671.2999999998,"ADDRESS":"民權十街６３巷１７弄５號","OBJECTID":81024},"geometry":{"x":176794.91000000015,"y":2540671.3000000026}},{"attributes":{"ID":81025,"DIS_CODE":0,"TOWNNAME":"歸仁區","LI":"南保里","LIN":"44鄰","STREET":"民權十街","SECT":" ","MAREA":" ","LANE":"６３巷","ALLEY":"１７弄","HOUSE_NO":"１１號","E_COORD97":176806.45999999999,"N_COORD97":2540671.2999999998,"ADDRESS":"民權十街６３巷１７弄１１號","OBJECTID":81025},"geometry":{"x":176806.46000000183,"y":2540671.3000000026}},{"attributes":{"ID":81026,"DIS_CODE":0,"TOWNNAME":"歸仁區","LI":"南保里","LIN":"44鄰","STREET":"民權十街","SECT":" ","MAREA":" ","LANE":"６３巷","ALLEY":"７弄","HOUSE_NO":"３號","E_COORD97":176809.26000000001,"N_COORD97":2540710.2999999998,"ADDRESS":"民權十街６３巷７弄３號","OBJECTID":81026},"geometry":{"x":176809.26000000164,"y":2540710.3000000007}},{"attributes":{"ID":81027,"DIS_CODE":0,"TOWNNAME":"歸仁區","LI":"南保里","LIN":"44鄰","STREET":"民權十街","SECT":" ","MAREA":" ","LANE":"６３巷","ALLEY":"７弄","HOUSE_NO":"２號","E_COORD97":176800.95999999999,"N_COORD97":2540697.2999999998,"ADDRESS":"民權十街６３巷７弄２號","OBJECTID":81027},"geometry":{"x":176800.95999999996,"y":2540697.3000000045}},{"attributes":{"ID":81028,"DIS_CODE":0,"TOWNNAME":"歸仁區","LI":"南保里","LIN":"44鄰","STREET":"民權十街","SECT":" ","MAREA":" ","LANE":"６３巷","ALLEY":"１７弄","HOUSE_NO":"７號","E_COORD97":176799.01000000001,"N_COORD97":2540671.2999999998,"ADDRESS":"民權十街６３巷１７弄７號","OBJECTID":81028},"geometry":{"x":176799.00999999885,"y":2540671.3000000026}},{"attributes":{"ID":81029,"DIS_CODE":0,"TOWNNAME":"歸仁區","LI":"南保里","LIN":"44鄰","STREET":"民權十街","SECT":" ","MAREA":" ","LANE":"６３巷","ALLEY":"１７弄","HOUSE_NO":"１５號","E_COORD97":176815.66,"N_COORD97":2540671.2999999998,"ADDRESS":"民權十街６３巷１７弄１５號","OBJECTID":81029},"geometry":{"x":176815.66000000108,"y":2540671.3000000026}},{"attributes":{"ID":81030,"DIS_CODE":0,"TOWNNAME":"歸仁區","LI":"南保里","LIN":"44鄰","STREET":"民權十街","SECT":" ","MAREA":" ","LANE":"６３巷","ALLEY":"１７弄","HOUSE_NO":"９號","E_COORD97":176802.10999999999,"N_COORD97":2540671.2999999998,"ADDRESS":"民權十街６３巷１７弄９號","OBJECTID":81030},"geometry":{"x":176802.11000000034,"y":2540671.3000000026}},{"attributes":{"ID":81031,"DIS_CODE":0,"TOWNNAME":"永康區","LI":"成功里","LIN":"44鄰","STREET":"中華路","SECT":" ","MAREA":" ","LANE":"１５４巷","ALLEY":"２弄","HOUSE_NO":"５號","E_COORD97":171674.57000000001,"N_COORD97":2544855,"ADDRESS":"中華路１５４巷２弄５號","OBJECTID":81031},"geometry":{"x":171674.5700000003,"y":2544855.0000000037}},{"attributes":{"ID":81032,"DIS_CODE":0,"TOWNNAME":"永康區","LI":"成功里","LIN":"44鄰","STREET":"中華路","SECT":" ","MAREA":" ","LANE":"１５４巷","ALLEY":"２弄","HOUSE_NO":"７號","E_COORD97":171645.29999999999,"N_COORD97":2544832.7400000002,"ADDRESS":"中華路１５４巷２弄７號","OBJECTID":81032},"geometry":{"x":171645.29999999981,"y":2544832.7400000002}},{"attributes":{"ID":81033,"DIS_CODE":0,"TOWNNAME":"永康區","LI":"成功里","LIN":"44鄰","STREET":"中華路","SECT":" ","MAREA":" ","LANE":"１５４巷","ALLEY":"２弄","HOUSE_NO":"６號","E_COORD97":171647.32000000001,"N_COORD97":2544838.2400000002,"ADDRESS":"中華路１５４巷２弄６號","OBJECTID":81033},"geometry":{"x":171647.3200000003,"y":2544838.2400000021}},{"attributes":{"ID":81034,"DIS_CODE":0,"TOWNNAME":"鹽水區","LI":"竹埔里","LIN":"1鄰","STREET":" ","SECT":" ","MAREA":"竹子腳","LANE":" ","ALLEY":" ","HOUSE_NO":"２號之１","E_COORD97":173070.51999999999,"N_COORD97":2574687.6299999999,"ADDRESS":"竹子腳２號之１","OBJECTID":81034},"geometry":{"x":173070.51999999955,"y":2574687.629999999}},{"attributes":{"ID":81035,"DIS_CODE":0,"TOWNNAME":"仁德區","LI":"仁義里","LIN":"44鄰","STREET":"中正路","SECT":"二段","MAREA":" ","LANE":"１０３４巷","ALLEY":"３１弄","HOUSE_NO":"５號","E_COORD97":173471.06,"N_COORD97":2540922.27,"ADDRESS":"中正路二段１０３４巷３１弄５號","OBJECTID":81035},"geometry":{"x":173471.06000000145,"y":2540922.2699999996}},{"attributes":{"ID":81036,"DIS_CODE":0,"TOWNNAME":"仁德區","LI":"仁義里","LIN":"44鄰","STREET":"中正路","SECT":"二段","MAREA":" ","LANE":"１０３４巷","ALLEY":"３１弄","HOUSE_NO":"６號","E_COORD97":173483.03,"N_COORD97":2540923.77,"ADDRESS":"中正路二段１０３４巷３１弄６號","OBJECTID":81036},"geometry":{"x":173483.03000000026,"y":2540923.7700000014}},{"attributes":{"ID":81037,"DIS_CODE":0,"TOWNNAME":"仁德區","LI":"仁義里","LIN":"44鄰","STREET":"中正路","SECT":"二段","MAREA":" ","LANE":"１０３４巷","ALLEY":"４７弄","HOUSE_NO":"４號","E_COORD97":173528.14000000001,"N_COORD97":2540923.7799999998,"ADDRESS":"中正路二段１０３４巷４７弄４號","OBJECTID":81037},"geometry":{"x":173528.14000000153,"y":2540923.7800000012}},{"attributes":{"ID":81038,"DIS_CODE":0,"TOWNNAME":"永康區","LI":"二王里","LIN":"44鄰","STREET":"南工街","SECT":" ","MAREA":" ","LANE":"２１４巷","ALLEY":"３０弄","HOUSE_NO":"３號","E_COORD97":172085.37,"N_COORD97":2546047.3700000001,"ADDRESS":"南工街２１４巷３０弄３號","OBJECTID":81038},"geometry":{"x":172085.37000000011,"y":2546047.3700000029}},{"attributes":{"ID":81039,"DIS_CODE":0,"TOWNNAME":"永康區","LI":"二王里","LIN":"44鄰","STREET":"南工街","SECT":" ","MAREA":" ","LANE":"２１４巷","ALLEY":"３２弄","HOUSE_NO":"２２號","E_COORD97":172126.64000000001,"N_COORD97":2546074.04,"ADDRESS":"南工街２１４巷３２弄２２號","OBJECTID":81039},"geometry":{"x":172126.6400000006,"y":2546074.0399999972}},{"attributes":{"ID":81040,"DIS_CODE":0,"TOWNNAME":"永康區","LI":"二王里","LIN":"44鄰","STREET":"南工街","SECT":" ","MAREA":" ","LANE":"２１４巷","ALLEY":"３０弄","HOUSE_NO":"２３號","E_COORD97":172165.92999999999,"N_COORD97":2546073.1699999999,"ADDRESS":"南工街２１４巷３０弄２３號","OBJECTID":81040},"geometry":{"x":172165.9299999997,"y":2546073.1699999999}},{"attributes":{"ID":81041,"DIS_CODE":0,"TOWNNAME":"永康區","LI":"西灣里","LIN":"44鄰","STREET":"大灣路","SECT":" ","MAREA":" ","LANE":"９４２巷","ALLEY":"４１８弄","HOUSE_NO":"１３號","E_COORD97":174015.01000000001,"N_COORD97":2545576.0299999998,"ADDRESS":"大灣路９４２巷４１８弄１３號","OBJECTID":81041},"geometry":{"x":174015.00999999978,"y":2545576.0300000031}},{"attributes":{"ID":81042,"DIS_CODE":0,"TOWNNAME":"永康區","LI":"西灣里","LIN":"44鄰","STREET":"大灣路","SECT":" ","MAREA":" ","LANE":"９４２巷","ALLEY":"４１８弄","HOUSE_NO":"３號","E_COORD97":173991,"N_COORD97":2545573.2000000002,"ADDRESS":"大灣路９４２巷４１８弄３號","OBJECTID":81042},"geometry":{"x":173991.00000000093,"y":2545573.2000000011}},{"attributes":{"ID":81043,"DIS_CODE":0,"TOWNNAME":"永康區","LI":"西灣里","LIN":"44鄰","STREET":"大灣路","SECT":" ","MAREA":" ","LANE":"９４２巷","ALLEY":"４１８弄","HOUSE_NO":"９號","E_COORD97":174004.41,"N_COORD97":2545574.9100000001,"ADDRESS":"大灣路９４２巷４１８弄９號","OBJECTID":81043},"geometry":{"x":174004.41000000015,"y":2545574.910000002}},{"attributes":{"ID":81044,"DIS_CODE":0,"TOWNNAME":"永康區","LI":"西灣里","LIN":"44鄰","STREET":"大灣路","SECT":" ","MAREA":" ","LANE":"９４２巷","ALLEY":"５６１弄","HOUSE_NO":"５１號","E_COORD97":173833.39999999999,"N_COORD97":2545602.9199999999,"ADDRESS":"大灣路９４２巷５６１弄５１號","OBJECTID":81044},"geometry":{"x":173833.40000000037,"y":2545602.9200000018}},{"attributes":{"ID":81045,"DIS_CODE":0,"TOWNNAME":"永康區","LI":"西灣里","LIN":"44鄰","STREET":"大灣路","SECT":" ","MAREA":" ","LANE":"９４２巷","ALLEY":"４１８弄","HOUSE_NO":"１號之１","E_COORD97":173984.39999999999,"N_COORD97":2545571.75,"ADDRESS":"大灣路９４２巷４１８弄１號之１","OBJECTID":81045},"geometry":{"x":173984.40000000037,"y":2545571.7499999981}},{"attributes":{"ID":81046,"DIS_CODE":0,"TOWNNAME":"永康區","LI":"西灣里","LIN":"44鄰","STREET":"大灣路","SECT":" ","MAREA":" ","LANE":"９４２巷","ALLEY":"４１８弄","HOUSE_NO":"１１號","E_COORD97":174010.54999999999,"N_COORD97":2545575.5699999998,"ADDRESS":"大灣路９４２巷４１８弄１１號","OBJECTID":81046},"geometry":{"x":174010.55000000075,"y":2545575.5700000003}},{"attributes":{"ID":81047,"DIS_CODE":0,"TOWNNAME":"永康區","LI":"西灣里","LIN":"44鄰","STREET":"大灣路","SECT":" ","MAREA":" ","LANE":"９４２巷","ALLEY":"４１８弄","HOUSE_NO":"６號","E_COORD97":173992.14999999999,"N_COORD97":2545555.98,"ADDRESS":"大灣路９４２巷４１８弄６號","OBJECTID":81047},"geometry":{"x":173992.1500000013,"y":2545555.9800000004}},{"attributes":{"ID":81048,"DIS_CODE":0,"TOWNNAME":"永康區","LI":"西灣里","LIN":"44鄰","STREET":"大灣路","SECT":" ","MAREA":" ","LANE":"９４２巷","ALLEY":"４１８弄","HOUSE_NO":"５號","E_COORD97":173995.39999999999,"N_COORD97":2545573.9500000002,"ADDRESS":"大灣路９４２巷４１８弄５號","OBJECTID":81048},"geometry":{"x":173995.4000000013,"y":2545573.9500000011}},{"attributes":{"ID":81049,"DIS_CODE":0,"TOWNNAME":"永康區","LI":"西灣里","LIN":"44鄰","STREET":"大灣路","SECT":" ","MAREA":" ","LANE":"９４２巷","ALLEY":"５６１弄","HOUSE_NO":"５號","E_COORD97":173920.85000000001,"N_COORD97":2545592.8500000001,"ADDRESS":"大灣路９４２巷５６１弄５號","OBJECTID":81049},"geometry":{"x":173920.84999999963,"y":2545592.8500000015}},{"attributes":{"ID":81050,"DIS_CODE":0,"TOWNNAME":"仁德區","LI":"仁義里","LIN":"44鄰","STREET":"中正路","SECT":"二段","MAREA":" ","LANE":"１０３４巷","ALLEY":"３１弄","HOUSE_NO":"８號","E_COORD97":173479.39000000001,"N_COORD97":2540928.27,"ADDRESS":"中正路二段１０３４巷３１弄８號","OBJECTID":81050},"geometry":{"x":173479.3900000006,"y":2540928.2699999996}},{"attributes":{"ID":81051,"DIS_CODE":0,"TOWNNAME":"仁德區","LI":"仁義里","LIN":"44鄰","STREET":"中正路","SECT":"二段","MAREA":" ","LANE":"１０３４巷","ALLEY":"３１弄","HOUSE_NO":"４號","E_COORD97":173484.35999999999,"N_COORD97":2540918.77,"ADDRESS":"中正路二段１０３４巷３１弄４號","OBJECTID":81051},"geometry":{"x":173484.36000000034,"y":2540918.7699999996}},{"attributes":{"ID":81052,"DIS_CODE":0,"TOWNNAME":"北區","LI":"永祥里","LIN":"12鄰","STREET":"實踐街","SECT":" ","MAREA":" ","LANE":"１０３巷","ALLEY":"７弄","HOUSE_NO":"２號","E_COORD97":170054.01999999999,"N_COORD97":2546045.9399999999,"ADDRESS":"實踐街１０３巷７弄２號","OBJECTID":81052},"geometry":{"x":170054.02000000048,"y":2546045.9400000013}},{"attributes":{"ID":81053,"DIS_CODE":0,"TOWNNAME":"南區","LI":"大恩里","LIN":"12鄰","STREET":"國民路","SECT":" ","MAREA":" ","LANE":"１６５巷","ALLEY":"２２弄","HOUSE_NO":"２４號","E_COORD97":169092.44,"N_COORD97":2540850.1699999999,"ADDRESS":"國民路１６５巷２２弄２４號","OBJECTID":81053},"geometry":{"x":169092.44000000134,"y":2540850.1700000018}},{"attributes":{"ID":81054,"DIS_CODE":0,"TOWNNAME":"南區","LI":"南都里","LIN":"12鄰","STREET":"中華南路","SECT":"二段","MAREA":" ","LANE":"３１５巷","ALLEY":"３弄","HOUSE_NO":"１１號","E_COORD97":166517.57000000001,"N_COORD97":2540205.7799999998,"ADDRESS":"中華南路二段３１５巷３弄１１號","OBJECTID":81054},"geometry":{"x":166517.5700000003,"y":2540205.7799999993}},{"attributes":{"ID":81055,"DIS_CODE":0,"TOWNNAME":"南區","LI":"南都里","LIN":"12鄰","STREET":"中華南路","SECT":"二段","MAREA":" ","LANE":"３１５巷","ALLEY":"３弄","HOUSE_NO":"１３號","E_COORD97":166527.17999999999,"N_COORD97":2540205.4900000002,"ADDRESS":"中華南路二段３１５巷３弄１３號","OBJECTID":81055},"geometry":{"x":166527.18000000063,"y":2540205.4900000002}},{"attributes":{"ID":81056,"DIS_CODE":0,"TOWNNAME":"南區","LI":"南都里","LIN":"12鄰","STREET":"中華南路","SECT":"二段","MAREA":" ","LANE":"３１５巷","ALLEY":"３弄","HOUSE_NO":"１５號","E_COORD97":166535.95000000001,"N_COORD97":2540206.0600000001,"ADDRESS":"中華南路二段３１５巷３弄１５號","OBJECTID":81056},"geometry":{"x":166535.95000000112,"y":2540206.0600000005}},{"attributes":{"ID":81057,"DIS_CODE":0,"TOWNNAME":"南區","LI":"南都里","LIN":"12鄰","STREET":"中華南路","SECT":"二段","MAREA":" ","LANE":"３１５巷","ALLEY":"３弄","HOUSE_NO":"１號","E_COORD97":166476.29000000001,"N_COORD97":2540205.7799999998,"ADDRESS":"中華南路二段３１５巷３弄１號","OBJECTID":81057},"geometry":{"x":166476.29000000097,"y":2540205.7799999993}},{"attributes":{"ID":81058,"DIS_CODE":0,"TOWNNAME":"南區","LI":"南都里","LIN":"12鄰","STREET":"中華南路","SECT":"二段","MAREA":" ","LANE":"３１５巷","ALLEY":"３弄","HOUSE_NO":"３號","E_COORD97":166483.64000000001,"N_COORD97":2540205.4900000002,"ADDRESS":"中華南路二段３１５巷３弄３號","OBJECTID":81058},"geometry":{"x":166483.6400000006,"y":2540205.4900000002}},{"attributes":{"ID":81059,"DIS_CODE":0,"TOWNNAME":"南區","LI":"南都里","LIN":"12鄰","STREET":"中華南路","SECT":"二段","MAREA":" ","LANE":"３１５巷","ALLEY":"３弄","HOUSE_NO":"５號","E_COORD97":166492.97,"N_COORD97":2540205.7799999998,"ADDRESS":"中華南路二段３１５巷３弄５號","OBJECTID":81059},"geometry":{"x":166492.97000000067,"y":2540205.7799999993}},{"attributes":{"ID":81060,"DIS_CODE":0,"TOWNNAME":"南區","LI":"南都里","LIN":"12鄰","STREET":"中華南路","SECT":"二段","MAREA":" ","LANE":"３１５巷","ALLEY":"３弄","HOUSE_NO":"７號","E_COORD97":166500.04000000001,"N_COORD97":2540205.7799999998,"ADDRESS":"中華南路二段３１５巷３弄７號","OBJECTID":81060},"geometry":{"x":166500.04000000097,"y":2540205.7799999993}},{"attributes":{"ID":81061,"DIS_CODE":0,"TOWNNAME":"南區","LI":"南都里","LIN":"12鄰","STREET":"中華南路","SECT":"二段","MAREA":" ","LANE":"３１５巷","ALLEY":"３弄","HOUSE_NO":"９號","E_COORD97":166509.92999999999,"N_COORD97":2540205.7799999998,"ADDRESS":"中華南路二段３１５巷３弄９號","OBJECTID":81061},"geometry":{"x":166509.93000000156,"y":2540205.7799999993}},{"attributes":{"ID":81062,"DIS_CODE":0,"TOWNNAME":"南區","LI":"新生里","LIN":"12鄰","STREET":"大同路","SECT":"二段","MAREA":" ","LANE":"１３６巷","ALLEY":"５弄","HOUSE_NO":"２號","E_COORD97":169236.95999999999,"N_COORD97":2542133.5,"ADDRESS":"大同路二段１３６巷５弄２號","OBJECTID":81062},"geometry":{"x":169236.95999999996,"y":2542133.5000000019}},{"attributes":{"ID":81063,"DIS_CODE":0,"TOWNNAME":"南區","LI":"新生里","LIN":"12鄰","STREET":"大同路","SECT":"二段","MAREA":" ","LANE":"１３６巷","ALLEY":"５弄","HOUSE_NO":"６號","E_COORD97":169239.97,"N_COORD97":2542124.0899999999,"ADDRESS":"大同路二段１３６巷５弄６號","OBJECTID":81063},"geometry":{"x":169239.96999999974,"y":2542124.0899999999}},{"attributes":{"ID":81064,"DIS_CODE":0,"TOWNNAME":"北區","LI":"延平里","LIN":"15鄰","STREET":"公園路","SECT":" ","MAREA":" ","LANE":" ","ALLEY":" ","HOUSE_NO":"８３６號","E_COORD97":169222.26999999999,"N_COORD97":2545953.8999999999,"ADDRESS":"公園路８３６號","OBJECTID":81064},"geometry":{"x":169222.26999999955,"y":2545953.9000000004}},{"attributes":{"ID":81065,"DIS_CODE":0,"TOWNNAME":"南區","LI":"新生里","LIN":"12鄰","STREET":"大同路","SECT":"二段","MAREA":" ","LANE":"１３６巷","ALLEY":"５弄","HOUSE_NO":"８號","E_COORD97":169242.25,"N_COORD97":2542113.0299999998,"ADDRESS":"大同路二段１３６巷５弄８號","OBJECTID":81065},"geometry":{"x":169242.25000000186,"y":2542113.0299999993}},{"attributes":{"ID":81066,"DIS_CODE":0,"TOWNNAME":"南區","LI":"新生里","LIN":"12鄰","STREET":"大同路","SECT":"二段","MAREA":" ","LANE":"１３６巷","ALLEY":"５弄","HOUSE_NO":"１０號","E_COORD97":169244.85999999999,"N_COORD97":2542104.7000000002,"ADDRESS":"大同路二段１３６巷５弄１０號","OBJECTID":81066},"geometry":{"x":169244.86000000034,"y":2542104.7000000011}},{"attributes":{"ID":81067,"DIS_CODE":0,"TOWNNAME":"北區","LI":"文元里","LIN":"12鄰","STREET":"文賢路","SECT":" ","MAREA":" ","LANE":"１１２２巷","ALLEY":"１１弄","HOUSE_NO":"２２號","E_COORD97":167391.54000000001,"N_COORD97":2546396.71,"ADDRESS":"文賢路１１２２巷１１弄２２號","OBJECTID":81067},"geometry":{"x":167391.54000000097,"y":2546396.7100000009}},{"attributes":{"ID":81068,"DIS_CODE":0,"TOWNNAME":"北區","LI":"文元里","LIN":"12鄰","STREET":"文賢路","SECT":" ","MAREA":" ","LANE":"１１２２巷","ALLEY":"１１弄","HOUSE_NO":"２０號","E_COORD97":167391.92000000001,"N_COORD97":2546392.27,"ADDRESS":"文賢路１１２２巷１１弄２０號","OBJECTID":81068},"geometry":{"x":167391.92000000086,"y":2546392.2700000014}},{"attributes":{"ID":81069,"DIS_CODE":0,"TOWNNAME":"新營區","LI":"嘉芳里","LIN":"12鄰","STREET":"復興路","SECT":" ","MAREA":" ","LANE":"８０３巷","ALLEY":"２４弄","HOUSE_NO":"９號","E_COORD97":177075.81,"N_COORD97":2578481.6099999999,"ADDRESS":"復興路８０３巷２４弄９號","OBJECTID":81069},"geometry":{"x":177075.80999999959,"y":2578481.6099999994}},{"attributes":{"ID":81070,"DIS_CODE":0,"TOWNNAME":"南區","LI":"文華里","LIN":"12鄰","STREET":"金華路","SECT":"二段","MAREA":" ","LANE":"３４５巷","ALLEY":"４４弄","HOUSE_NO":"３號","E_COORD97":166996.84,"N_COORD97":2542965.3799999999,"ADDRESS":"金華路二段３４５巷４４弄３號","OBJECTID":81070},"geometry":{"x":166996.83999999985,"y":2542965.379999999}},{"attributes":{"ID":81071,"DIS_CODE":0,"TOWNNAME":"南區","LI":"文華里","LIN":"12鄰","STREET":"金華路","SECT":"二段","MAREA":" ","LANE":"３４５巷","ALLEY":"４４弄","HOUSE_NO":"５號","E_COORD97":166997.82999999999,"N_COORD97":2542969.9399999999,"ADDRESS":"金華路二段３４５巷４４弄５號","OBJECTID":81071},"geometry":{"x":166997.83000000101,"y":2542969.9400000032}},{"attributes":{"ID":81072,"DIS_CODE":0,"TOWNNAME":"南區","LI":"文華里","LIN":"12鄰","STREET":"金華路","SECT":"二段","MAREA":" ","LANE":"３４５巷","ALLEY":"４４弄","HOUSE_NO":"９號","E_COORD97":166997.56,"N_COORD97":2542978.1899999999,"ADDRESS":"金華路二段３４５巷４４弄９號","OBJECTID":81072},"geometry":{"x":166997.56000000052,"y":2542978.1900000032}},{"attributes":{"ID":81073,"DIS_CODE":0,"TOWNNAME":"北區","LI":"正風里","LIN":"12鄰","STREET":"長榮路","SECT":"五段","MAREA":" ","LANE":"４５２巷","ALLEY":"６弄","HOUSE_NO":"１２號","E_COORD97":169445.32999999999,"N_COORD97":2545989.6200000001,"ADDRESS":"長榮路五段４５２巷６弄１２號","OBJECTID":81073},"geometry":{"x":169445.33000000194,"y":2545989.620000001}},{"attributes":{"ID":81074,"DIS_CODE":0,"TOWNNAME":"北區","LI":"正風里","LIN":"12鄰","STREET":"長榮路","SECT":"五段","MAREA":" ","LANE":"４５２巷","ALLEY":"６弄","HOUSE_NO":"１３號","E_COORD97":169456.53,"N_COORD97":2546006.71,"ADDRESS":"長榮路五段４５２巷６弄１３號","OBJECTID":81074},"geometry":{"x":169456.53000000119,"y":2546006.7100000009}},{"attributes":{"ID":81075,"DIS_CODE":0,"TOWNNAME":"北區","LI":"正風里","LIN":"12鄰","STREET":"長榮路","SECT":"五段","MAREA":" ","LANE":"４５２巷","ALLEY":"６弄","HOUSE_NO":"１４號","E_COORD97":169448.82999999999,"N_COORD97":2545989.3100000001,"ADDRESS":"長榮路五段４５２巷６弄１４號","OBJECTID":81075},"geometry":{"x":169448.83000000101,"y":2545989.3100000042}},{"attributes":{"ID":81076,"DIS_CODE":0,"TOWNNAME":"北區","LI":"正風里","LIN":"12鄰","STREET":"長榮路","SECT":"五段","MAREA":" ","LANE":"４５２巷","ALLEY":"６弄","HOUSE_NO":"１５號","E_COORD97":169459.51000000001,"N_COORD97":2546006.3999999999,"ADDRESS":"長榮路五段４５２巷６弄１５號","OBJECTID":81076},"geometry":{"x":169459.51000000071,"y":2546006.4000000022}},{"attributes":{"ID":81077,"DIS_CODE":0,"TOWNNAME":"北區","LI":"正風里","LIN":"12鄰","STREET":"長榮路","SECT":"五段","MAREA":" ","LANE":"４５２巷","ALLEY":"６弄","HOUSE_NO":"１６號","E_COORD97":169452.73000000001,"N_COORD97":2545989.21,"ADDRESS":"長榮路五段４５２巷６弄１６號","OBJECTID":81077},"geometry":{"x":169452.73000000045,"y":2545989.2100000009}},{"attributes":{"ID":81078,"DIS_CODE":0,"TOWNNAME":"新營區","LI":"嘉芳里","LIN":"12鄰","STREET":"復興路","SECT":" ","MAREA":" ","LANE":"８０３巷","ALLEY":"３４弄","HOUSE_NO":"４號","E_COORD97":177097.32999999999,"N_COORD97":2578468.21,"ADDRESS":"復興路８０３巷３４弄４號","OBJECTID":81078},"geometry":{"x":177097.33000000194,"y":2578468.2100000028}},{"attributes":{"ID":81079,"DIS_CODE":0,"TOWNNAME":"鹽水區","LI":"岸內里","LIN":"1鄰","STREET":" ","SECT":" ","MAREA":"蔦松腳","LANE":" ","ALLEY":" ","HOUSE_NO":"４號","E_COORD97":175795.5,"N_COORD97":2581585.0899999999,"ADDRESS":"蔦松腳４號","OBJECTID":81079},"geometry":{"x":175795.5,"y":2581585.0899999999}},{"attributes":{"ID":81080,"DIS_CODE":0,"TOWNNAME":"新營區","LI":"嘉芳里","LIN":"12鄰","STREET":"復興路","SECT":" ","MAREA":" ","LANE":"８０３巷","ALLEY":"３４弄","HOUSE_NO":"１４號","E_COORD97":177066.76000000001,"N_COORD97":2578462.8300000001,"ADDRESS":"復興路８０３巷３４弄１４號","OBJECTID":81080},"geometry":{"x":177066.75999999978,"y":2578462.8300000019}},{"attributes":{"ID":81081,"DIS_CODE":0,"TOWNNAME":"新營區","LI":"嘉芳里","LIN":"12鄰","STREET":"復興路","SECT":" ","MAREA":" ","LANE":"８０３巷","ALLEY":"２４弄","HOUSE_NO":"１１號","E_COORD97":177070.94,"N_COORD97":2578480.5299999998,"ADDRESS":"復興路８０３巷２４弄１１號","OBJECTID":81081},"geometry":{"x":177070.94000000041,"y":2578480.5300000012}},{"attributes":{"ID":81082,"DIS_CODE":0,"TOWNNAME":"北區","LI":"國興里","LIN":"12鄰","STREET":"開元路","SECT":" ","MAREA":" ","LANE":"３９４巷","ALLEY":"２７弄","HOUSE_NO":"３４號","E_COORD97":170672.32999999999,"N_COORD97":2545634.9500000002,"ADDRESS":"開元路３９４巷２７弄３４號","OBJECTID":81082},"geometry":{"x":170672.33000000007,"y":2545634.9500000011}},{"attributes":{"ID":81083,"DIS_CODE":0,"TOWNNAME":"新營區","LI":"嘉芳里","LIN":"12鄰","STREET":"復興路","SECT":" ","MAREA":" ","LANE":"８０３巷","ALLEY":"３４弄","HOUSE_NO":"１２號","E_COORD97":177072.89999999999,"N_COORD97":2578463.9100000001,"ADDRESS":"復興路８０３巷３４弄１２號","OBJECTID":81083},"geometry":{"x":177072.90000000037,"y":2578463.9100000001}},{"attributes":{"ID":81084,"DIS_CODE":0,"TOWNNAME":"北區","LI":"正覺里","LIN":"12鄰","STREET":"北安路","SECT":"一段","MAREA":" ","LANE":"５６巷","ALLEY":"６弄","HOUSE_NO":"１號","E_COORD97":169232.45000000001,"N_COORD97":2546282.1699999999,"ADDRESS":"北安路一段５６巷６弄１號","OBJECTID":81084},"geometry":{"x":169232.45000000019,"y":2546282.1700000018}},{"attributes":{"ID":81085,"DIS_CODE":0,"TOWNNAME":"北區","LI":"正覺里","LIN":"12鄰","STREET":"北安路","SECT":"一段","MAREA":" ","LANE":"５６巷","ALLEY":"６弄","HOUSE_NO":"２號","E_COORD97":169221.73000000001,"N_COORD97":2546263.9700000002,"ADDRESS":"北安路一段５６巷６弄２號","OBJECTID":81085},"geometry":{"x":169221.73000000045,"y":2546263.9700000025}},{"attributes":{"ID":81086,"DIS_CODE":0,"TOWNNAME":"北區","LI":"正覺里","LIN":"12鄰","STREET":"北安路","SECT":"一段","MAREA":" ","LANE":"５６巷","ALLEY":"６弄","HOUSE_NO":"３號","E_COORD97":169236.45000000001,"N_COORD97":2546280.2599999998,"ADDRESS":"北安路一段５６巷６弄３號","OBJECTID":81086},"geometry":{"x":169236.45000000112,"y":2546280.2600000035}},{"attributes":{"ID":81087,"DIS_CODE":0,"TOWNNAME":"北區","LI":"正覺里","LIN":"12鄰","STREET":"北安路","SECT":"一段","MAREA":" ","LANE":"５６巷","ALLEY":"６弄","HOUSE_NO":"５號","E_COORD97":169240.64999999999,"N_COORD97":2546277.3999999999,"ADDRESS":"北安路一段５６巷６弄５號","OBJECTID":81087},"geometry":{"x":169240.6500000013,"y":2546277.4000000022}},{"attributes":{"ID":81088,"DIS_CODE":0,"TOWNNAME":"北區","LI":"長德里","LIN":"12鄰","STREET":"長北街","SECT":" ","MAREA":" ","LANE":"２１０巷","ALLEY":"６弄","HOUSE_NO":"１０號","E_COORD97":168593.34,"N_COORD97":2545001.48,"ADDRESS":"長北街２１０巷６弄１０號","OBJECTID":81088},"geometry":{"x":168593.33999999985,"y":2545001.4800000042}},{"attributes":{"ID":81089,"DIS_CODE":0,"TOWNNAME":"北區","LI":"長德里","LIN":"12鄰","STREET":"長北街","SECT":" ","MAREA":" ","LANE":"２１０巷","ALLEY":"６弄","HOUSE_NO":"１１號","E_COORD97":168604.76999999999,"N_COORD97":2544991.1000000001,"ADDRESS":"長北街２１０巷６弄１１號","OBJECTID":81089},"geometry":{"x":168604.77000000048,"y":2544991.1000000015}},{"attributes":{"ID":81090,"DIS_CODE":0,"TOWNNAME":"北區","LI":"長德里","LIN":"12鄰","STREET":"長北街","SECT":" ","MAREA":" ","LANE":"２１０巷","ALLEY":"６弄","HOUSE_NO":"１２號","E_COORD97":168591.26000000001,"N_COORD97":2544997.6800000002,"ADDRESS":"長北街２１０巷６弄１２號","OBJECTID":81090},"geometry":{"x":168591.26000000071,"y":2544997.6799999997}},{"attributes":{"ID":81091,"DIS_CODE":0,"TOWNNAME":"北區","LI":"長德里","LIN":"12鄰","STREET":"長北街","SECT":" ","MAREA":" ","LANE":"２１０巷","ALLEY":"６弄","HOUSE_NO":"１３號","E_COORD97":168604.42000000001,"N_COORD97":2544987.6400000001,"ADDRESS":"長北街２１０巷６弄１３號","OBJECTID":81091},"geometry":{"x":168604.42000000086,"y":2544987.6400000025}},{"attributes":{"ID":81092,"DIS_CODE":0,"TOWNNAME":"北區","LI":"長德里","LIN":"12鄰","STREET":"長北街","SECT":" ","MAREA":" ","LANE":"２１０巷","ALLEY":"６弄","HOUSE_NO":"１４號","E_COORD97":168589.17999999999,"N_COORD97":2544993.8700000001,"ADDRESS":"長北街２１０巷６弄１４號","OBJECTID":81092},"geometry":{"x":168589.1799999997,"y":2544993.8700000029}},{"attributes":{"ID":81093,"DIS_CODE":0,"TOWNNAME":"北區","LI":"長德里","LIN":"12鄰","STREET":"長北街","SECT":" ","MAREA":" ","LANE":"２１０巷","ALLEY":"６弄","HOUSE_NO":"１５號","E_COORD97":168600.60999999999,"N_COORD97":2544983.8399999999,"ADDRESS":"長北街２１０巷６弄１５號","OBJECTID":81093},"geometry":{"x":168600.61000000034,"y":2544983.8399999999}},{"attributes":{"ID":81094,"DIS_CODE":0,"TOWNNAME":"北區","LI":"長德里","LIN":"12鄰","STREET":"長北街","SECT":" ","MAREA":" ","LANE":"２１０巷","ALLEY":"６弄","HOUSE_NO":"１６號","E_COORD97":168588.82999999999,"N_COORD97":2544989.7200000002,"ADDRESS":"長北街２１０巷６弄１６號","OBJECTID":81094},"geometry":{"x":168588.83000000007,"y":2544989.7200000044}},{"attributes":{"ID":81095,"DIS_CODE":0,"TOWNNAME":"北區","LI":"長德里","LIN":"12鄰","STREET":"長北街","SECT":" ","MAREA":" ","LANE":"２１０巷","ALLEY":"６弄","HOUSE_NO":"１７號","E_COORD97":168598.53,"N_COORD97":2544980.0299999998,"ADDRESS":"長北街２１０巷６弄１７號","OBJECTID":81095},"geometry":{"x":168598.53000000119,"y":2544980.0300000012}},{"attributes":{"ID":81096,"DIS_CODE":0,"TOWNNAME":"北區","LI":"長德里","LIN":"12鄰","STREET":"長北街","SECT":" ","MAREA":" ","LANE":"２１０巷","ALLEY":"６弄","HOUSE_NO":"１號","E_COORD97":168616.89999999999,"N_COORD97":2545010.1299999999,"ADDRESS":"長北街２１０巷６弄１號","OBJECTID":81096},"geometry":{"x":168616.9000000013,"y":2545010.1300000008}},{"attributes":{"ID":81097,"DIS_CODE":0,"TOWNNAME":"北區","LI":"長德里","LIN":"12鄰","STREET":"長北街","SECT":" ","MAREA":" ","LANE":"２１０巷","ALLEY":"６弄","HOUSE_NO":"２號","E_COORD97":168601.64999999999,"N_COORD97":2545017.3999999999,"ADDRESS":"長北街２１０巷６弄２號","OBJECTID":81097},"geometry":{"x":168601.6500000013,"y":2545017.4000000004}},{"attributes":{"ID":81098,"DIS_CODE":0,"TOWNNAME":"北區","LI":"長德里","LIN":"12鄰","STREET":"長北街","SECT":" ","MAREA":" ","LANE":"２１０巷","ALLEY":"６弄","HOUSE_NO":"３號","E_COORD97":168613.78,"N_COORD97":2545006.3300000001,"ADDRESS":"長北街２１０巷６弄３號","OBJECTID":81098},"geometry":{"x":168613.78000000119,"y":2545006.3300000019}},{"attributes":{"ID":81099,"DIS_CODE":0,"TOWNNAME":"北區","LI":"長德里","LIN":"12鄰","STREET":"長北街","SECT":" ","MAREA":" ","LANE":"２１０巷","ALLEY":"６弄","HOUSE_NO":"４號","E_COORD97":168598.88,"N_COORD97":2545013.25,"ADDRESS":"長北街２１０巷６弄４號","OBJECTID":81099},"geometry":{"x":168598.88000000175,"y":2545013.2500000019}},{"attributes":{"ID":81100,"DIS_CODE":0,"TOWNNAME":"安平區","LI":"平安里","LIN":"12鄰","STREET":"安平路","SECT":" ","MAREA":" ","LANE":"５００巷","ALLEY":"２５弄","HOUSE_NO":"１０號","E_COORD97":165122.89000000001,"N_COORD97":2544457.4300000002,"ADDRESS":"安平路５００巷２５弄１０號","OBJECTID":81100},"geometry":{"x":165122.88999999966,"y":2544457.4299999997}},{"attributes":{"ID":81101,"DIS_CODE":0,"TOWNNAME":"安平區","LI":"平安里","LIN":"12鄰","STREET":"安平路","SECT":" ","MAREA":" ","LANE":"５００巷","ALLEY":"２５弄","HOUSE_NO":"１２號","E_COORD97":165119.53,"N_COORD97":2544458.8100000001,"ADDRESS":"安平路５００巷２５弄１２號","OBJECTID":81101},"geometry":{"x":165119.52999999933,"y":2544458.8100000005}},{"attributes":{"ID":81102,"DIS_CODE":0,"TOWNNAME":"安平區","LI":"平安里","LIN":"12鄰","STREET":"安平路","SECT":" ","MAREA":" ","LANE":"５００巷","ALLEY":"２５弄","HOUSE_NO":"１３號","E_COORD97":165102.14999999999,"N_COORD97":2544446.6699999999,"ADDRESS":"安平路５００巷２５弄１３號","OBJECTID":81102},"geometry":{"x":165102.1500000013,"y":2544446.6699999981}},{"attributes":{"ID":81103,"DIS_CODE":0,"TOWNNAME":"安平區","LI":"平安里","LIN":"12鄰","STREET":"安平路","SECT":" ","MAREA":" ","LANE":"５００巷","ALLEY":"２５弄","HOUSE_NO":"１４號","E_COORD97":165115.85000000001,"N_COORD97":2544459.27,"ADDRESS":"安平路５００巷２５弄１４號","OBJECTID":81103},"geometry":{"x":165115.85000000056,"y":2544459.2700000033}},{"attributes":{"ID":81104,"DIS_CODE":0,"TOWNNAME":"安平區","LI":"平安里","LIN":"12鄰","STREET":"安平路","SECT":" ","MAREA":" ","LANE":"５００巷","ALLEY":"２５弄","HOUSE_NO":"１５號","E_COORD97":165097.48999999999,"N_COORD97":2544449.9399999999,"ADDRESS":"安平路５００巷２５弄１５號","OBJECTID":81104},"geometry":{"x":165097.49000000022,"y":2544449.9399999995}},{"attributes":{"ID":81105,"DIS_CODE":0,"TOWNNAME":"安平區","LI":"平安里","LIN":"12鄰","STREET":"安平路","SECT":" ","MAREA":" ","LANE":"５００巷","ALLEY":"２５弄","HOUSE_NO":"１６號","E_COORD97":165112.17999999999,"N_COORD97":2544459.73,"ADDRESS":"安平路５００巷２５弄１６號","OBJECTID":81105},"geometry":{"x":165112.1799999997,"y":2544459.7300000004}},{"attributes":{"ID":81106,"DIS_CODE":0,"TOWNNAME":"安平區","LI":"平安里","LIN":"12鄰","STREET":"安平路","SECT":" ","MAREA":" ","LANE":"５００巷","ALLEY":"２５弄","HOUSE_NO":"１７號","E_COORD97":165093.66,"N_COORD97":2544451.3100000001,"ADDRESS":"安平路５００巷２５弄１７號","OBJECTID":81106},"geometry":{"x":165093.66000000108,"y":2544451.3100000024}},{"attributes":{"ID":81107,"DIS_CODE":0,"TOWNNAME":"仁德區","LI":"上崙里","LIN":"10鄰","STREET":"德善路","SECT":" ","MAREA":" ","LANE":"３０５巷","ALLEY":"１３弄","HOUSE_NO":"１０５號","E_COORD97":174099.29000000001,"N_COORD97":2538369.9700000002,"ADDRESS":"德善路３０５巷１３弄１０５號","OBJECTID":81107},"geometry":{"x":174099.29000000097,"y":2538369.9700000044}},{"attributes":{"ID":81108,"DIS_CODE":0,"TOWNNAME":"仁德區","LI":"上崙里","LIN":"10鄰","STREET":"德善路","SECT":" ","MAREA":" ","LANE":"３０５巷","ALLEY":"１３弄","HOUSE_NO":"９５號","E_COORD97":174065.35000000001,"N_COORD97":2538382.96,"ADDRESS":"德善路３０５巷１３弄９５號","OBJECTID":81108},"geometry":{"x":174065.34999999963,"y":2538382.9600000009}},{"attributes":{"ID":81109,"DIS_CODE":0,"TOWNNAME":"仁德區","LI":"仁義里","LIN":"10鄰","STREET":"仁義一街","SECT":" ","MAREA":" ","LANE":"７６巷","ALLEY":"１弄","HOUSE_NO":"１號","E_COORD97":173487.70999999999,"N_COORD97":2541156.6800000002,"ADDRESS":"仁義一街７６巷１弄１號","OBJECTID":81109},"geometry":{"x":173487.71000000089,"y":2541156.6799999997}},{"attributes":{"ID":81110,"DIS_CODE":0,"TOWNNAME":"北區","LI":"開元里","LIN":"12鄰","STREET":"北園街","SECT":" ","MAREA":" ","LANE":"８７巷","ALLEY":"１８７弄","HOUSE_NO":"２號","E_COORD97":170147.85000000001,"N_COORD97":2546040.5699999998,"ADDRESS":"北園街８７巷１８７弄２號","OBJECTID":81110},"geometry":{"x":170147.84999999963,"y":2546040.5700000003}},{"attributes":{"ID":81111,"DIS_CODE":0,"TOWNNAME":"北區","LI":"開元里","LIN":"12鄰","STREET":"北園街","SECT":" ","MAREA":" ","LANE":"８７巷","ALLEY":"１８７弄","HOUSE_NO":"３號","E_COORD97":170142.42999999999,"N_COORD97":2546029.3700000001,"ADDRESS":"北園街８７巷１８７弄３號","OBJECTID":81111},"geometry":{"x":170142.4299999997,"y":2546029.370000001}},{"attributes":{"ID":81112,"DIS_CODE":0,"TOWNNAME":"南區","LI":"興農里","LIN":"12鄰","STREET":"明興路","SECT":" ","MAREA":" ","LANE":"１０８７巷","ALLEY":"７弄","HOUSE_NO":"５號","E_COORD97":166513.76999999999,"N_COORD97":2536692.5499999998,"ADDRESS":"明興路１０８７巷７弄５號","OBJECTID":81112},"geometry":{"x":166513.76999999955,"y":2536692.5500000026}},{"attributes":{"ID":81113,"DIS_CODE":0,"TOWNNAME":"南區","LI":"興農里","LIN":"12鄰","STREET":"明興路","SECT":" ","MAREA":" ","LANE":"１０８７巷","ALLEY":"７弄","HOUSE_NO":"６號","E_COORD97":166517.64000000001,"N_COORD97":2536678.27,"ADDRESS":"明興路１０８７巷７弄６號","OBJECTID":81113},"geometry":{"x":166517.6400000006,"y":2536678.2700000033}},{"attributes":{"ID":81114,"DIS_CODE":0,"TOWNNAME":"南區","LI":"興農里","LIN":"12鄰","STREET":"明興路","SECT":" ","MAREA":" ","LANE":"１０８７巷","ALLEY":"７弄","HOUSE_NO":"７號","E_COORD97":166517.64000000001,"N_COORD97":2536696.4199999999,"ADDRESS":"明興路１０８７巷７弄７號","OBJECTID":81114},"geometry":{"x":166517.6400000006,"y":2536696.4199999999}},{"attributes":{"ID":81115,"DIS_CODE":0,"TOWNNAME":"西港區","LI":"永樂里","LIN":"1鄰","STREET":" ","SECT":" ","MAREA":"大塭寮","LANE":" ","ALLEY":" ","HOUSE_NO":"１號之５","E_COORD97":165967.94,"N_COORD97":2556492.48,"ADDRESS":"大塭寮１號之５","OBJECTID":81115},"geometry":{"x":165967.93999999948,"y":2556492.4800000023}},{"attributes":{"ID":81116,"DIS_CODE":0,"TOWNNAME":"南區","LI":"興農里","LIN":"12鄰","STREET":"明興路","SECT":" ","MAREA":" ","LANE":"１０８７巷","ALLEY":"７弄","HOUSE_NO":"８號","E_COORD97":166520.92000000001,"N_COORD97":2536681.25,"ADDRESS":"明興路１０８７巷７弄８號","OBJECTID":81116},"geometry":{"x":166520.92000000086,"y":2536681.25}},{"attributes":{"ID":81117,"DIS_CODE":0,"TOWNNAME":"南區","LI":"興農里","LIN":"12鄰","STREET":"明興路","SECT":" ","MAREA":" ","LANE":"１０８７巷","ALLEY":"７弄","HOUSE_NO":"９號","E_COORD97":166522.10999999999,"N_COORD97":2536694.04,"ADDRESS":"明興路１０８７巷７弄９號","OBJECTID":81117},"geometry":{"x":166522.11000000034,"y":2536694.040000001}},{"attributes":{"ID":81118,"DIS_CODE":0,"TOWNNAME":"新營區","LI":"南紙里","LIN":"12鄰","STREET":"太子路","SECT":" ","MAREA":" ","LANE":"１５３巷","ALLEY":"５６弄","HOUSE_NO":"５號","E_COORD97":177947.60999999999,"N_COORD97":2577697.7000000002,"ADDRESS":"太子路１５３巷５６弄５號","OBJECTID":81118},"geometry":{"x":177947.61000000034,"y":2577697.6999999993}},{"attributes":{"ID":81119,"DIS_CODE":0,"TOWNNAME":"新化區","LI":"豐榮里","LIN":"12鄰","STREET":"正新路","SECT":" ","MAREA":" ","LANE":"９５巷","ALLEY":"４３弄","HOUSE_NO":"６號","E_COORD97":178590.82000000001,"N_COORD97":2547947.25,"ADDRESS":"正新路９５巷４３弄６號","OBJECTID":81119},"geometry":{"x":178590.8200000003,"y":2547947.25}},{"attributes":{"ID":81120,"DIS_CODE":0,"TOWNNAME":"南區","LI":"日新里","LIN":"12鄰","STREET":"新興路","SECT":" ","MAREA":" ","LANE":"４８１巷","ALLEY":"８弄","HOUSE_NO":"１７號","E_COORD97":166760.01000000001,"N_COORD97":2541689.4300000002,"ADDRESS":"新興路４８１巷８弄１７號","OBJECTID":81120},"geometry":{"x":166760.00999999978,"y":2541689.4300000016}},{"attributes":{"ID":81121,"DIS_CODE":0,"TOWNNAME":"南區","LI":"日新里","LIN":"12鄰","STREET":"新興路","SECT":" ","MAREA":" ","LANE":"４８１巷","ALLEY":"８弄","HOUSE_NO":"１６號","E_COORD97":166763.20999999999,"N_COORD97":2541707.8500000001,"ADDRESS":"新興路４８１巷８弄１６號","OBJECTID":81121},"geometry":{"x":166763.21000000089,"y":2541707.8499999996}},{"attributes":{"ID":81122,"DIS_CODE":0,"TOWNNAME":"永康區","LI":"光復里","LIN":"12鄰","STREET":"復興路","SECT":" ","MAREA":" ","LANE":"２４６巷","ALLEY":"１０弄","HOUSE_NO":"２０號","E_COORD97":172439.32999999999,"N_COORD97":2544528.02,"ADDRESS":"復興路２４６巷１０弄２０號","OBJECTID":81122},"geometry":{"x":172439.33000000101,"y":2544528.0199999996}},{"attributes":{"ID":81123,"DIS_CODE":0,"TOWNNAME":"永康區","LI":"光復里","LIN":"12鄰","STREET":"復興路","SECT":" ","MAREA":" ","LANE":"２４６巷","ALLEY":"１０弄","HOUSE_NO":"４號","E_COORD97":172397.37,"N_COORD97":2544490.77,"ADDRESS":"復興路２４６巷１０弄４號","OBJECTID":81123},"geometry":{"x":172397.37000000011,"y":2544490.7700000014}},{"attributes":{"ID":81124,"DIS_CODE":0,"TOWNNAME":"永康區","LI":"成功里","LIN":"12鄰","STREET":"忠孝路","SECT":" ","MAREA":" ","LANE":"２０３巷","ALLEY":"４２弄","HOUSE_NO":"８號","E_COORD97":171974.97,"N_COORD97":2544914.2400000002,"ADDRESS":"忠孝路２０３巷４２弄８號","OBJECTID":81124},"geometry":{"x":171974.9700000016,"y":2544914.2400000002}},{"attributes":{"ID":81125,"DIS_CODE":0,"TOWNNAME":"永康區","LI":"成功里","LIN":"12鄰","STREET":"忠孝路","SECT":" ","MAREA":" ","LANE":"２０３巷","ALLEY":"２５弄","HOUSE_NO":"６號","E_COORD97":171968.81,"N_COORD97":2544854.7400000002,"ADDRESS":"忠孝路２０３巷２５弄６號","OBJECTID":81125},"geometry":{"x":171968.80999999959,"y":2544854.7400000021}},{"attributes":{"ID":81126,"DIS_CODE":0,"TOWNNAME":"仁德區","LI":"後壁里","LIN":"12鄰","STREET":"德善路","SECT":" ","MAREA":" ","LANE":"２４０巷","ALLEY":"２９弄","HOUSE_NO":"１號","E_COORD97":173857.94,"N_COORD97":2538600.0099999998,"ADDRESS":"德善路２４０巷２９弄１號","OBJECTID":81126},"geometry":{"x":173857.94000000134,"y":2538600.0100000016}},{"attributes":{"ID":81127,"DIS_CODE":0,"TOWNNAME":"東區","LI":"和平里","LIN":"12鄰","STREET":"東門路","SECT":"三段","MAREA":" ","LANE":"２２６巷","ALLEY":"９７弄","HOUSE_NO":"４８號","E_COORD97":171458.57999999999,"N_COORD97":2541743.1600000001,"ADDRESS":"東門路三段２２６巷９７弄４８號","OBJECTID":81127},"geometry":{"x":171458.58000000007,"y":2541743.160000002}},{"attributes":{"ID":81128,"DIS_CODE":0,"TOWNNAME":"東區","LI":"和平里","LIN":"12鄰","STREET":"東門路","SECT":"三段","MAREA":" ","LANE":"２２６巷","ALLEY":"９７弄","HOUSE_NO":"４９號","E_COORD97":171511.82000000001,"N_COORD97":2541741.7200000002,"ADDRESS":"東門路三段２２６巷９７弄４９號","OBJECTID":81128},"geometry":{"x":171511.8200000003,"y":2541741.7200000044}},{"attributes":{"ID":81129,"DIS_CODE":0,"TOWNNAME":"東區","LI":"和平里","LIN":"12鄰","STREET":"東門路","SECT":"三段","MAREA":" ","LANE":"２２６巷","ALLEY":"９７弄","HOUSE_NO":"５０號","E_COORD97":171452.20999999999,"N_COORD97":2541743.4300000002,"ADDRESS":"東門路三段２２６巷９７弄５０號","OBJECTID":81129},"geometry":{"x":171452.20999999996,"y":2541743.4300000016}},{"attributes":{"ID":81130,"DIS_CODE":0,"TOWNNAME":"東區","LI":"和平里","LIN":"12鄰","STREET":"東門路","SECT":"三段","MAREA":" ","LANE":"２２６巷","ALLEY":"９７弄","HOUSE_NO":"５１號","E_COORD97":171518.19,"N_COORD97":2541741.7200000002,"ADDRESS":"東門路三段２２６巷９７弄５１號","OBJECTID":81130},"geometry":{"x":171518.19000000227,"y":2541741.7200000044}},{"attributes":{"ID":81131,"DIS_CODE":0,"TOWNNAME":"東區","LI":"和平里","LIN":"12鄰","STREET":"東門路","SECT":"三段","MAREA":" ","LANE":"２２６巷","ALLEY":"９７弄","HOUSE_NO":"５２號","E_COORD97":171447.5,"N_COORD97":2541743.02,"ADDRESS":"東門路三段２２６巷９７弄５２號","OBJECTID":81131},"geometry":{"x":171447.5,"y":2541743.0200000014}},{"attributes":{"ID":81132,"DIS_CODE":0,"TOWNNAME":"東區","LI":"和平里","LIN":"12鄰","STREET":"東門路","SECT":"三段","MAREA":" ","LANE":"２２６巷","ALLEY":"９７弄","HOUSE_NO":"５４號","E_COORD97":171439.04999999999,"N_COORD97":2541743.71,"ADDRESS":"東門路三段２２６巷９７弄５４號","OBJECTID":81132},"geometry":{"x":171439.05000000075,"y":2541743.7100000028}},{"attributes":{"ID":81133,"DIS_CODE":0,"TOWNNAME":"東區","LI":"和平里","LIN":"12鄰","STREET":"東門路","SECT":"三段","MAREA":" ","LANE":"２２６巷","ALLEY":"９７弄","HOUSE_NO":"５６號","E_COORD97":171432.12,"N_COORD97":2541744.1299999999,"ADDRESS":"東門路三段２２６巷９７弄５６號","OBJECTID":81133},"geometry":{"x":171432.12000000104,"y":2541744.1300000027}},{"attributes":{"ID":81134,"DIS_CODE":0,"TOWNNAME":"東區","LI":"和平里","LIN":"12鄰","STREET":"東門路","SECT":"三段","MAREA":" ","LANE":"２２６巷","ALLEY":"９７弄","HOUSE_NO":"５７號","E_COORD97":171487.73000000001,"N_COORD97":2541713.46,"ADDRESS":"東門路三段２２６巷９７弄５７號","OBJECTID":81134},"geometry":{"x":171487.73000000138,"y":2541713.4600000046}},{"attributes":{"ID":81135,"DIS_CODE":0,"TOWNNAME":"東區","LI":"和平里","LIN":"12鄰","STREET":"東門路","SECT":"三段","MAREA":" ","LANE":"２２６巷","ALLEY":"９７弄","HOUSE_NO":"５８號","E_COORD97":171425.34,"N_COORD97":2541744.3999999999,"ADDRESS":"東門路三段２２６巷９７弄５８號","OBJECTID":81135},"geometry":{"x":171425.34000000078,"y":2541744.4000000022}},{"attributes":{"ID":81136,"DIS_CODE":0,"TOWNNAME":"東區","LI":"和平里","LIN":"12鄰","STREET":"東門路","SECT":"三段","MAREA":" ","LANE":"２２６巷","ALLEY":"９７弄","HOUSE_NO":"５９號","E_COORD97":171493.26999999999,"N_COORD97":2541713.3199999998,"ADDRESS":"東門路三段２２６巷９７弄５９號","OBJECTID":81136},"geometry":{"x":171493.27000000048,"y":2541713.3199999984}},{"attributes":{"ID":81137,"DIS_CODE":0,"TOWNNAME":"東區","LI":"和平里","LIN":"12鄰","STREET":"東門路","SECT":"三段","MAREA":" ","LANE":"２２６巷","ALLEY":"９７弄","HOUSE_NO":"６１號","E_COORD97":171512.79999999999,"N_COORD97":2541713.46,"ADDRESS":"東門路三段２２６巷９７弄６１號","OBJECTID":81137},"geometry":{"x":171512.79999999981,"y":2541713.4600000046}},{"attributes":{"ID":81138,"DIS_CODE":0,"TOWNNAME":"東區","LI":"和平里","LIN":"12鄰","STREET":"東門路","SECT":"三段","MAREA":" ","LANE":"２２６巷","ALLEY":"９７弄","HOUSE_NO":"６３號","E_COORD97":171522.63,"N_COORD97":2541713.1800000002,"ADDRESS":"東門路三段２２６巷９７弄６３號","OBJECTID":81138},"geometry":{"x":171522.62999999989,"y":2541713.1799999997}},{"attributes":{"ID":81139,"DIS_CODE":0,"TOWNNAME":"東區","LI":"和平里","LIN":"12鄰","STREET":"東門路","SECT":"三段","MAREA":" ","LANE":"２２６巷","ALLEY":"９７弄","HOUSE_NO":"７０號","E_COORD97":171451.64999999999,"N_COORD97":2541712.8100000001,"ADDRESS":"東門路三段２２６巷９７弄７０號","OBJECTID":81139},"geometry":{"x":171451.65000000037,"y":2541712.8100000005}},{"attributes":{"ID":81140,"DIS_CODE":0,"TOWNNAME":"東區","LI":"和平里","LIN":"12鄰","STREET":"東門路","SECT":"三段","MAREA":" ","LANE":"２２６巷","ALLEY":"９７弄","HOUSE_NO":"７２號","E_COORD97":171444.73000000001,"N_COORD97":2541712.8100000001,"ADDRESS":"東門路三段２２６巷９７弄７２號","OBJECTID":81140},"geometry":{"x":171444.73000000045,"y":2541712.8100000005}},{"attributes":{"ID":81141,"DIS_CODE":0,"TOWNNAME":"東區","LI":"和平里","LIN":"12鄰","STREET":"東門路","SECT":"三段","MAREA":" ","LANE":"２２６巷","ALLEY":"９７弄","HOUSE_NO":"７４號","E_COORD97":171437.10999999999,"N_COORD97":2541713.2200000002,"ADDRESS":"東門路三段２２６巷９７弄７４號","OBJECTID":81141},"geometry":{"x":171437.1100000022,"y":2541713.2200000007}},{"attributes":{"ID":81142,"DIS_CODE":0,"TOWNNAME":"東區","LI":"和平里","LIN":"12鄰","STREET":"東門路","SECT":"三段","MAREA":" ","LANE":"２２６巷","ALLEY":"９７弄","HOUSE_NO":"７５號","E_COORD97":171493.69,"N_COORD97":2541694.3700000001,"ADDRESS":"東門路三段２２６巷９７弄７５號","OBJECTID":81142},"geometry":{"x":171493.69000000041,"y":2541694.3700000029}},{"attributes":{"ID":81143,"DIS_CODE":0,"TOWNNAME":"東區","LI":"和平里","LIN":"12鄰","STREET":"東門路","SECT":"三段","MAREA":" ","LANE":"２２６巷","ALLEY":"９７弄","HOUSE_NO":"７６號","E_COORD97":171425.89000000001,"N_COORD97":2541714.6099999999,"ADDRESS":"東門路三段２２６巷９７弄７６號","OBJECTID":81143},"geometry":{"x":171425.88999999966,"y":2541714.6100000013}},{"attributes":{"ID":81144,"DIS_CODE":0,"TOWNNAME":"東區","LI":"和平里","LIN":"12鄰","STREET":"東門路","SECT":"三段","MAREA":" ","LANE":"２２６巷","ALLEY":"９７弄","HOUSE_NO":"７７號","E_COORD97":171488.29000000001,"N_COORD97":2541694.79,"ADDRESS":"東門路三段２２６巷９７弄７７號","OBJECTID":81144},"geometry":{"x":171488.2900000019,"y":2541694.7899999991}},{"attributes":{"ID":81145,"DIS_CODE":0,"TOWNNAME":"鹽水區","LI":"竹埔里","LIN":"1鄰","STREET":" ","SECT":" ","MAREA":"竹子腳","LANE":" ","ALLEY":" ","HOUSE_NO":"２號之２","E_COORD97":173079.12,"N_COORD97":2574608.1699999999,"ADDRESS":"竹子腳２號之２","OBJECTID":81145},"geometry":{"x":173079.12000000011,"y":2574608.1700000018}},{"attributes":{"ID":81146,"DIS_CODE":0,"TOWNNAME":"鹽水區","LI":"竹埔里","LIN":"1鄰","STREET":" ","SECT":" ","MAREA":"竹子腳","LANE":" ","ALLEY":" ","HOUSE_NO":"２號之３","E_COORD97":173049.51000000001,"N_COORD97":2574787.5099999998,"ADDRESS":"竹子腳２號之３","OBJECTID":81146},"geometry":{"x":173049.51000000164,"y":2574787.5099999998}},{"attributes":{"ID":81147,"DIS_CODE":0,"TOWNNAME":"鹽水區","LI":"竹埔里","LIN":"1鄰","STREET":" ","SECT":" ","MAREA":"竹子腳","LANE":" ","ALLEY":" ","HOUSE_NO":"２號之４","E_COORD97":173063.57999999999,"N_COORD97":2574802.9700000002,"ADDRESS":"竹子腳２號之４","OBJECTID":81147},"geometry":{"x":173063.58000000101,"y":2574802.9700000044}},{"attributes":{"ID":81148,"DIS_CODE":0,"TOWNNAME":"鹽水區","LI":"竹埔里","LIN":"1鄰","STREET":" ","SECT":" ","MAREA":"竹子腳","LANE":" ","ALLEY":" ","HOUSE_NO":"２號之５","E_COORD97":173081.44,"N_COORD97":2574833.6200000001,"ADDRESS":"竹子腳２號之５","OBJECTID":81148},"geometry":{"x":173081.44000000134,"y":2574833.6200000029}},{"attributes":{"ID":81149,"DIS_CODE":0,"TOWNNAME":"鹽水區","LI":"竹埔里","LIN":"1鄰","STREET":" ","SECT":" ","MAREA":"竹子腳","LANE":" ","ALLEY":" ","HOUSE_NO":"２號之６","E_COORD97":173118.79000000001,"N_COORD97":2574800.0800000001,"ADDRESS":"竹子腳２號之６","OBJECTID":81149},"geometry":{"x":173118.79000000004,"y":2574800.0800000001}},{"attributes":{"ID":81150,"DIS_CODE":0,"TOWNNAME":"鹽水區","LI":"竹埔里","LIN":"1鄰","STREET":" ","SECT":" ","MAREA":"竹子腳","LANE":" ","ALLEY":" ","HOUSE_NO":"２號之７","E_COORD97":173062.97,"N_COORD97":2574760.4199999999,"ADDRESS":"竹子腳２號之７","OBJECTID":81150},"geometry":{"x":173062.96999999974,"y":2574760.4199999999}},{"attributes":{"ID":81151,"DIS_CODE":0,"TOWNNAME":"七股區","LI":"?榔里","LIN":"1鄰","STREET":" ","SECT":" ","MAREA":"?榔","LANE":" ","ALLEY":" ","HOUSE_NO":"２號","E_COORD97":162264.28,"N_COORD97":2555387.3700000001,"ADDRESS":"?榔２號","OBJECTID":81151},"geometry":{"x":162264.28000000026,"y":2555387.3700000048}},{"attributes":{"ID":81152,"DIS_CODE":0,"TOWNNAME":"鹽水區","LI":"竹埔里","LIN":"1鄰","STREET":" ","SECT":" ","MAREA":"竹子腳","LANE":" ","ALLEY":" ","HOUSE_NO":"２號之８","E_COORD97":173123.07999999999,"N_COORD97":2574799.98,"ADDRESS":"竹子腳２號之８","OBJECTID":81152},"geometry":{"x":173123.08000000007,"y":2574799.9800000023}},{"attributes":{"ID":81153,"DIS_CODE":0,"TOWNNAME":"鹽水區","LI":"竹埔里","LIN":"1鄰","STREET":" ","SECT":" ","MAREA":"竹子腳","LANE":" ","ALLEY":" ","HOUSE_NO":"２號之９","E_COORD97":173072.54000000001,"N_COORD97":2574732.46,"ADDRESS":"竹子腳２號之９","OBJECTID":81153},"geometry":{"x":173072.54000000004,"y":2574732.4600000028}},{"attributes":{"ID":81154,"DIS_CODE":0,"TOWNNAME":"東區","LI":"和平里","LIN":"12鄰","STREET":"東門路","SECT":"三段","MAREA":" ","LANE":"２２６巷","ALLEY":"９７弄","HOUSE_NO":"７８號","E_COORD97":171416.75,"N_COORD97":2541714.3300000001,"ADDRESS":"東門路三段２２６巷９７弄７８號","OBJECTID":81154},"geometry":{"x":171416.75,"y":2541714.3300000019}},{"attributes":{"ID":81155,"DIS_CODE":0,"TOWNNAME":"東區","LI":"和平里","LIN":"12鄰","STREET":"東門路","SECT":"三段","MAREA":" ","LANE":"２２６巷","ALLEY":"９７弄","HOUSE_NO":"７９號","E_COORD97":171486.57000000001,"N_COORD97":2541668.6099999999,"ADDRESS":"東門路三段２２６巷９７弄７９號","OBJECTID":81155},"geometry":{"x":171486.57000000216,"y":2541668.6099999994}},{"attributes":{"ID":81156,"DIS_CODE":0,"TOWNNAME":"東區","LI":"和平里","LIN":"12鄰","STREET":"東門路","SECT":"三段","MAREA":" ","LANE":"２２６巷","ALLEY":"９７弄","HOUSE_NO":"８１號","E_COORD97":171494.81,"N_COORD97":2541668.3599999999,"ADDRESS":"東門路三段２２６巷９７弄８１號","OBJECTID":81156},"geometry":{"x":171494.81000000052,"y":2541668.3600000031}},{"attributes":{"ID":81157,"DIS_CODE":0,"TOWNNAME":"鹽水區","LI":"竹埔里","LIN":"1鄰","STREET":" ","SECT":" ","MAREA":"竹子腳","LANE":" ","ALLEY":" ","HOUSE_NO":"２號","E_COORD97":173074.60999999999,"N_COORD97":2574651.3199999998,"ADDRESS":"竹子腳２號","OBJECTID":81157},"geometry":{"x":173074.6099999994,"y":2574651.320000004}},{"attributes":{"ID":81158,"DIS_CODE":0,"TOWNNAME":"鹽水區","LI":"竹埔里","LIN":"1鄰","STREET":" ","SECT":" ","MAREA":"竹子腳","LANE":" ","ALLEY":" ","HOUSE_NO":"３號之１","E_COORD97":173062.94,"N_COORD97":2574586.1000000001,"ADDRESS":"竹子腳３號之１","OBJECTID":81158},"geometry":{"x":173062.94000000134,"y":2574586.0999999996}},{"attributes":{"ID":81159,"DIS_CODE":0,"TOWNNAME":"東區","LI":"和平里","LIN":"12鄰","STREET":"東門路","SECT":"三段","MAREA":" ","LANE":"２２６巷","ALLEY":"９７弄","HOUSE_NO":"８８號","E_COORD97":171433.35999999999,"N_COORD97":2541693.3799999999,"ADDRESS":"東門路三段２２６巷９７弄８８號","OBJECTID":81159},"geometry":{"x":171433.36000000034,"y":2541693.379999999}},{"attributes":{"ID":81160,"DIS_CODE":0,"TOWNNAME":"東區","LI":"和平里","LIN":"12鄰","STREET":"東門路","SECT":"三段","MAREA":" ","LANE":"２２６巷","ALLEY":"９７弄","HOUSE_NO":"９７號","E_COORD97":171519.31,"N_COORD97":2541642.8300000001,"ADDRESS":"東門路三段２２６巷９７弄９７號","OBJECTID":81160},"geometry":{"x":171519.30999999959,"y":2541642.8300000019}},{"attributes":{"ID":81161,"DIS_CODE":0,"TOWNNAME":"鹽水區","LI":"竹埔里","LIN":"1鄰","STREET":" ","SECT":" ","MAREA":"竹子腳","LANE":" ","ALLEY":" ","HOUSE_NO":"３號之２","E_COORD97":173062.06,"N_COORD97":2574581.71,"ADDRESS":"竹子腳３號之２","OBJECTID":81161},"geometry":{"x":173062.05999999959,"y":2574581.7100000028}},{"attributes":{"ID":81162,"DIS_CODE":0,"TOWNNAME":"鹽水區","LI":"竹埔里","LIN":"1鄰","STREET":" ","SECT":" ","MAREA":"竹子腳","LANE":" ","ALLEY":" ","HOUSE_NO":"３號之３","E_COORD97":173061.37,"N_COORD97":2574577.6000000001,"ADDRESS":"竹子腳３號之３","OBJECTID":81162},"geometry":{"x":173061.37000000104,"y":2574577.6000000015}},{"attributes":{"ID":81163,"DIS_CODE":0,"TOWNNAME":"鹽水區","LI":"竹埔里","LIN":"1鄰","STREET":" ","SECT":" ","MAREA":"竹子腳","LANE":" ","ALLEY":" ","HOUSE_NO":"３號之４","E_COORD97":173060.26999999999,"N_COORD97":2574573.5800000001,"ADDRESS":"竹子腳３號之４","OBJECTID":81163},"geometry":{"x":173060.26999999955,"y":2574573.5800000001}},{"attributes":{"ID":81164,"DIS_CODE":0,"TOWNNAME":"鹽水區","LI":"竹埔里","LIN":"1鄰","STREET":" ","SECT":" ","MAREA":"竹子腳","LANE":" ","ALLEY":" ","HOUSE_NO":"３之５號","E_COORD97":173067.35000000001,"N_COORD97":2574554.98,"ADDRESS":"竹子腳３之５號","OBJECTID":81164},"geometry":{"x":173067.35000000149,"y":2574554.9799999986}},{"attributes":{"ID":81165,"DIS_CODE":0,"TOWNNAME":"鹽水區","LI":"竹埔里","LIN":"1鄰","STREET":" ","SECT":" ","MAREA":"竹子腳","LANE":" ","ALLEY":" ","HOUSE_NO":"４０號","E_COORD97":173002.81,"N_COORD97":2574475.1200000001,"ADDRESS":"竹子腳４０號","OBJECTID":81165},"geometry":{"x":173002.80999999959,"y":2574475.1200000029}},{"attributes":{"ID":81166,"DIS_CODE":0,"TOWNNAME":"鹽水區","LI":"竹埔里","LIN":"1鄰","STREET":" ","SECT":" ","MAREA":"竹子腳","LANE":" ","ALLEY":" ","HOUSE_NO":"４１號之１","E_COORD97":173003.62,"N_COORD97":2574491.77,"ADDRESS":"竹子腳４１號之１","OBJECTID":81166},"geometry":{"x":173003.62000000104,"y":2574491.7700000014}},{"attributes":{"ID":81167,"DIS_CODE":0,"TOWNNAME":"安南區","LI":"州北里","LIN":"12鄰","STREET":"安和路","SECT":"五段","MAREA":" ","LANE":"１７１巷","ALLEY":"５８弄","HOUSE_NO":"１０號","E_COORD97":169715.97,"N_COORD97":2551847.3900000001,"ADDRESS":"安和路五段１７１巷５８弄１０號","OBJECTID":81167},"geometry":{"x":169715.97000000067,"y":2551847.3900000043}},{"attributes":{"ID":81168,"DIS_CODE":0,"TOWNNAME":"鹽水區","LI":"竹埔里","LIN":"1鄰","STREET":" ","SECT":" ","MAREA":"竹子腳","LANE":" ","ALLEY":" ","HOUSE_NO":"４１號之２","E_COORD97":173006.97,"N_COORD97":2574498.0600000001,"ADDRESS":"竹子腳４１號之２","OBJECTID":81168},"geometry":{"x":173006.96999999974,"y":2574498.0600000024}},{"attributes":{"ID":81169,"DIS_CODE":0,"TOWNNAME":"鹽水區","LI":"竹埔里","LIN":"1鄰","STREET":" ","SECT":" ","MAREA":"竹子腳","LANE":" ","ALLEY":" ","HOUSE_NO":"４１號","E_COORD97":173016.45999999999,"N_COORD97":2574509.98,"ADDRESS":"竹子腳４１號","OBJECTID":81169},"geometry":{"x":173016.46000000089,"y":2574509.9800000004}},{"attributes":{"ID":81170,"DIS_CODE":0,"TOWNNAME":"鹽水區","LI":"竹埔里","LIN":"1鄰","STREET":" ","SECT":" ","MAREA":"竹子腳","LANE":" ","ALLEY":" ","HOUSE_NO":"４２號","E_COORD97":172993.78,"N_COORD97":2574500.9300000002,"ADDRESS":"竹子腳４２號","OBJECTID":81170},"geometry":{"x":172993.78000000212,"y":2574500.9300000016}},{"attributes":{"ID":81171,"DIS_CODE":0,"TOWNNAME":"鹽水區","LI":"竹埔里","LIN":"1鄰","STREET":" ","SECT":" ","MAREA":"竹子腳","LANE":" ","ALLEY":" ","HOUSE_NO":"４７號","E_COORD97":173020.39999999999,"N_COORD97":2574544.4300000002,"ADDRESS":"竹子腳４７號","OBJECTID":81171},"geometry":{"x":173020.4000000013,"y":2574544.4299999978}},{"attributes":{"ID":81172,"DIS_CODE":0,"TOWNNAME":"安南區","LI":"州北里","LIN":"12鄰","STREET":"安和路","SECT":"五段","MAREA":" ","LANE":"１７１巷","ALLEY":"７２弄","HOUSE_NO":"３１號","E_COORD97":169641.73999999999,"N_COORD97":2551865.9700000002,"ADDRESS":"安和路五段１７１巷７２弄３１號","OBJECTID":81172},"geometry":{"x":169641.74000000115,"y":2551865.9700000007}},{"attributes":{"ID":81173,"DIS_CODE":0,"TOWNNAME":"安南區","LI":"佃東里","LIN":"12鄰","STREET":"海佃路","SECT":"四段","MAREA":" ","LANE":"３８８巷","ALLEY":"１６４弄","HOUSE_NO":"１９號","E_COORD97":165717.14000000001,"N_COORD97":2551940.0099999998,"ADDRESS":"海佃路四段３８８巷１６４弄１９號","OBJECTID":81173},"geometry":{"x":165717.1400000006,"y":2551940.0099999998}},{"attributes":{"ID":81174,"DIS_CODE":0,"TOWNNAME":"安南區","LI":"南興里","LIN":"12鄰","STREET":"公學路","SECT":"五段","MAREA":" ","LANE":"５２７巷","ALLEY":"１２弄","HOUSE_NO":"２２號","E_COORD97":163946,"N_COORD97":2552568.71,"ADDRESS":"公學路五段５２７巷１２弄２２號","OBJECTID":81174},"geometry":{"x":163946,"y":2552568.7100000028}},{"attributes":{"ID":81175,"DIS_CODE":0,"TOWNNAME":"永康區","LI":"三合里","LIN":"12鄰","STREET":"南工街","SECT":" ","MAREA":" ","LANE":"２４７巷","ALLEY":"３３弄","HOUSE_NO":"１號","E_COORD97":171968.85999999999,"N_COORD97":2545813.77,"ADDRESS":"南工街２４７巷３３弄１號","OBJECTID":81175},"geometry":{"x":171968.86000000034,"y":2545813.7699999996}},{"attributes":{"ID":81176,"DIS_CODE":0,"TOWNNAME":"安南區","LI":"南興里","LIN":"12鄰","STREET":"公學路","SECT":"五段","MAREA":" ","LANE":"５２７巷","ALLEY":"１２弄","HOUSE_NO":"２０號","E_COORD97":163952.95000000001,"N_COORD97":2552567.8399999999,"ADDRESS":"公學路五段５２７巷１２弄２０號","OBJECTID":81176},"geometry":{"x":163952.95000000112,"y":2552567.8399999999}},{"attributes":{"ID":81177,"DIS_CODE":0,"TOWNNAME":"安南區","LI":"南興里","LIN":"12鄰","STREET":"公學路","SECT":"五段","MAREA":" ","LANE":"５２７巷","ALLEY":"１２弄","HOUSE_NO":"１６號","E_COORD97":163973.79999999999,"N_COORD97":2552566.54,"ADDRESS":"公學路五段５２７巷１２弄１６號","OBJECTID":81177},"geometry":{"x":163973.80000000075,"y":2552566.5399999972}},{"attributes":{"ID":81178,"DIS_CODE":0,"TOWNNAME":"安南區","LI":"南興里","LIN":"12鄰","STREET":"公學路","SECT":"五段","MAREA":" ","LANE":"５２７巷","ALLEY":"１２弄","HOUSE_NO":"１４號","E_COORD97":163984.22,"N_COORD97":2552566.96,"ADDRESS":"公學路五段５２７巷１２弄１４號","OBJECTID":81178},"geometry":{"x":163984.22000000067,"y":2552566.9600000028}},{"attributes":{"ID":81179,"DIS_CODE":0,"TOWNNAME":"安南區","LI":"南興里","LIN":"12鄰","STREET":"公學路","SECT":"五段","MAREA":" ","LANE":"５２７巷","ALLEY":"１２弄","HOUSE_NO":"１２號","E_COORD97":163994.20999999999,"N_COORD97":2552567.4100000001,"ADDRESS":"公學路五段５２７巷１２弄１２號","OBJECTID":81179},"geometry":{"x":163994.21000000183,"y":2552567.4100000001}},{"attributes":{"ID":81180,"DIS_CODE":0,"TOWNNAME":"安南區","LI":"南興里","LIN":"12鄰","STREET":"公學路","SECT":"五段","MAREA":" ","LANE":"５２７巷","ALLEY":"１２弄","HOUSE_NO":"１０號","E_COORD97":164001.60000000001,"N_COORD97":2552566.1099999999,"ADDRESS":"公學路五段５２７巷１２弄１０號","OBJECTID":81180},"geometry":{"x":164001.60000000056,"y":2552566.1099999994}},{"attributes":{"ID":81181,"DIS_CODE":0,"TOWNNAME":"安南區","LI":"南興里","LIN":"12鄰","STREET":"公學路","SECT":"五段","MAREA":" ","LANE":"５２７巷","ALLEY":"１２弄","HOUSE_NO":"８號","E_COORD97":164011.14999999999,"N_COORD97":2552564.7999999998,"ADDRESS":"公學路五段５２７巷１２弄８號","OBJECTID":81181},"geometry":{"x":164011.1500000013,"y":2552564.8000000026}},{"attributes":{"ID":81182,"DIS_CODE":0,"TOWNNAME":"安南區","LI":"南興里","LIN":"12鄰","STREET":"公學路","SECT":"五段","MAREA":" ","LANE":"５２７巷","ALLEY":"１２弄","HOUSE_NO":"６號","E_COORD97":164021.14000000001,"N_COORD97":2552568.71,"ADDRESS":"公學路五段５２７巷１２弄６號","OBJECTID":81182},"geometry":{"x":164021.13999999966,"y":2552568.7100000028}},{"attributes":{"ID":81183,"DIS_CODE":0,"TOWNNAME":"安南區","LI":"南興里","LIN":"12鄰","STREET":"公學路","SECT":"五段","MAREA":" ","LANE":"５２７巷","ALLEY":"２弄","HOUSE_NO":"２５號","E_COORD97":163943.39999999999,"N_COORD97":2552589.96,"ADDRESS":"公學路五段５２７巷２弄２５號","OBJECTID":81183},"geometry":{"x":163943.40000000037,"y":2552589.9600000028}},{"attributes":{"ID":81184,"DIS_CODE":0,"TOWNNAME":"安南區","LI":"南興里","LIN":"12鄰","STREET":"公學路","SECT":"五段","MAREA":" ","LANE":"５２７巷","ALLEY":"２弄","HOUSE_NO":"２３號","E_COORD97":163953.82000000001,"N_COORD97":2552590.3999999999,"ADDRESS":"公學路五段５２７巷２弄２３號","OBJECTID":81184},"geometry":{"x":163953.82000000123,"y":2552590.4000000022}},{"attributes":{"ID":81185,"DIS_CODE":0,"TOWNNAME":"安南區","LI":"城東里","LIN":"12鄰","STREET":"城北路","SECT":" ","MAREA":" ","LANE":"１１２巷","ALLEY":"７５弄","HOUSE_NO":"４號","E_COORD97":161204.31,"N_COORD97":2551673.5899999999,"ADDRESS":"城北路１１２巷７５弄４號","OBJECTID":81185},"geometry":{"x":161204.30999999959,"y":2551673.5900000017}},{"attributes":{"ID":81186,"DIS_CODE":0,"TOWNNAME":"安南區","LI":"城東里","LIN":"12鄰","STREET":"城北路","SECT":" ","MAREA":" ","LANE":"１１２巷","ALLEY":"７５弄","HOUSE_NO":"２０號","E_COORD97":161207.25,"N_COORD97":2551705.1400000001,"ADDRESS":"城北路１１２巷７５弄２０號","OBJECTID":81186},"geometry":{"x":161207.25000000093,"y":2551705.1400000006}},{"attributes":{"ID":81187,"DIS_CODE":0,"TOWNNAME":"安南區","LI":"佃東里","LIN":"12鄰","STREET":"海佃路","SECT":"四段","MAREA":" ","LANE":"３８８巷","ALLEY":"１３４弄","HOUSE_NO":"２１號之１","E_COORD97":165693.12,"N_COORD97":2551892.6600000001,"ADDRESS":"海佃路四段３８８巷１３４弄２１號之１","OBJECTID":81187},"geometry":{"x":165693.12000000011,"y":2551892.6600000039}},{"attributes":{"ID":81188,"DIS_CODE":0,"TOWNNAME":"安南區","LI":"城中里","LIN":"7鄰","STREET":"安中路","SECT":"六段","MAREA":" ","LANE":" ","ALLEY":" ","HOUSE_NO":"６１９號","E_COORD97":160755.42999999999,"N_COORD97":2551545.3599999999,"ADDRESS":"安中路六段６１９號","OBJECTID":81188},"geometry":{"x":160755.43000000063,"y":2551545.3600000013}},{"attributes":{"ID":81189,"DIS_CODE":0,"TOWNNAME":"安南區","LI":"安順里","LIN":"12鄰","STREET":"安和路","SECT":"四段","MAREA":" ","LANE":"３６巷","ALLEY":"２００弄","HOUSE_NO":"６０號","E_COORD97":170362.97,"N_COORD97":2549963.5899999999,"ADDRESS":"安和路四段３６巷２００弄６０號","OBJECTID":81189},"geometry":{"x":170362.97000000067,"y":2549963.5900000036}},{"attributes":{"ID":81190,"DIS_CODE":0,"TOWNNAME":"安南區","LI":"學東里","LIN":"12鄰","STREET":"公學路","SECT":"六段","MAREA":" ","LANE":"７２１巷","ALLEY":"９３弄","HOUSE_NO":"８０號","E_COORD97":161946.67999999999,"N_COORD97":2552867.6000000001,"ADDRESS":"公學路六段７２１巷９３弄８０號","OBJECTID":81190},"geometry":{"x":161946.68000000063,"y":2552867.5999999996}},{"attributes":{"ID":81191,"DIS_CODE":0,"TOWNNAME":"安南區","LI":"淵東里","LIN":"12鄰","STREET":"海佃路","SECT":"四段","MAREA":" ","LANE":"５５巷","ALLEY":"４８弄","HOUSE_NO":"９２號","E_COORD97":165547.45999999999,"N_COORD97":2550734.71,"ADDRESS":"海佃路四段５５巷４８弄９２號","OBJECTID":81191},"geometry":{"x":165547.46000000089,"y":2550734.7100000028}},{"attributes":{"ID":81192,"DIS_CODE":0,"TOWNNAME":"安南區","LI":"淵東里","LIN":"12鄰","STREET":"海佃路","SECT":"四段","MAREA":" ","LANE":"５５巷","ALLEY":"４８弄","HOUSE_NO":"９６號","E_COORD97":165547.45999999999,"N_COORD97":2550740.4300000002,"ADDRESS":"海佃路四段５５巷４８弄９６號","OBJECTID":81192},"geometry":{"x":165547.46000000089,"y":2550740.4299999997}},{"attributes":{"ID":81193,"DIS_CODE":0,"TOWNNAME":"安南區","LI":"淵東里","LIN":"12鄰","STREET":"海佃路","SECT":"四段","MAREA":" ","LANE":"５５巷","ALLEY":"４８弄","HOUSE_NO":"９８號","E_COORD97":165547.14999999999,"N_COORD97":2550746.4399999999,"ADDRESS":"海佃路四段５５巷４８弄９８號","OBJECTID":81193},"geometry":{"x":165547.15000000037,"y":2550746.4399999995}},{"attributes":{"ID":81194,"DIS_CODE":0,"TOWNNAME":"安南區","LI":"淵東里","LIN":"12鄰","STREET":"海佃路","SECT":"四段","MAREA":" ","LANE":"５５巷","ALLEY":"４８弄","HOUSE_NO":"１００號","E_COORD97":165547.45999999999,"N_COORD97":2550752.75,"ADDRESS":"海佃路四段５５巷４８弄１００號","OBJECTID":81194},"geometry":{"x":165547.46000000089,"y":2550752.7500000019}},{"attributes":{"ID":81195,"DIS_CODE":0,"TOWNNAME":"安南區","LI":"淵東里","LIN":"12鄰","STREET":"海佃路","SECT":"四段","MAREA":" ","LANE":"５５巷","ALLEY":"４８弄","HOUSE_NO":"１０２號","E_COORD97":165561.01000000001,"N_COORD97":2550757.5600000001,"ADDRESS":"海佃路四段５５巷４８弄１０２號","OBJECTID":81195},"geometry":{"x":165561.00999999978,"y":2550757.5600000042}},{"attributes":{"ID":81196,"DIS_CODE":0,"TOWNNAME":"安南區","LI":"淵東里","LIN":"12鄰","STREET":"海佃路","SECT":"四段","MAREA":" ","LANE":"５５巷","ALLEY":"４８弄","HOUSE_NO":"１０６號","E_COORD97":165565.82000000001,"N_COORD97":2550757.5600000001,"ADDRESS":"海佃路四段５５巷４８弄１０６號","OBJECTID":81196},"geometry":{"x":165565.82000000123,"y":2550757.5600000042}},{"attributes":{"ID":81197,"DIS_CODE":0,"TOWNNAME":"鹽水區","LI":"竹埔里","LIN":"1鄰","STREET":" ","SECT":" ","MAREA":"竹子腳","LANE":" ","ALLEY":" ","HOUSE_NO":"４８號","E_COORD97":173024.51999999999,"N_COORD97":2574571.71,"ADDRESS":"竹子腳４８號","OBJECTID":81197},"geometry":{"x":173024.51999999955,"y":2574571.7100000028}},{"attributes":{"ID":81198,"DIS_CODE":0,"TOWNNAME":"鹽水區","LI":"竹埔里","LIN":"1鄰","STREET":" ","SECT":" ","MAREA":"竹子腳","LANE":" ","ALLEY":" ","HOUSE_NO":"４號","E_COORD97":173050.32999999999,"N_COORD97":2574520.2200000002,"ADDRESS":"竹子腳４號","OBJECTID":81198},"geometry":{"x":173050.33000000007,"y":2574520.2200000025}},{"attributes":{"ID":81199,"DIS_CODE":0,"TOWNNAME":"鹽水區","LI":"竹埔里","LIN":"1鄰","STREET":" ","SECT":" ","MAREA":"竹子腳","LANE":" ","ALLEY":" ","HOUSE_NO":"５號","E_COORD97":173050.62,"N_COORD97":2574510.0699999998,"ADDRESS":"竹子腳５號","OBJECTID":81199},"geometry":{"x":173050.62000000197,"y":2574510.0700000003}},{"attributes":{"ID":81200,"DIS_CODE":0,"TOWNNAME":"安南區","LI":"淵東里","LIN":"12鄰","STREET":"海佃路","SECT":"四段","MAREA":" ","LANE":"５５巷","ALLEY":"４８弄","HOUSE_NO":"１０８號","E_COORD97":165569.14000000001,"N_COORD97":2550759.0699999998,"ADDRESS":"海佃路四段５５巷４８弄１０８號","OBJECTID":81200},"geometry":{"x":165569.14000000153,"y":2550759.0700000022}}]}