{"displayFieldName":"TOWNNAME","fieldAliases":{"ID":"ID","DIS_CODE":"DIS_CODE","TOWNNAME":"TOWNNAME","LI":"LI","LIN":"LIN","STREET":"STREET","SECT":"SECT","MAREA":"MAREA","LANE":"LANE","ALLEY":"ALLEY","HOUSE_NO":"HOUSE_NO","E_COORD97":"E_COORD97","N_COORD97":"N_COORD97","ADDRESS":"ADDRESS","OBJECTID":"OBJECTID"},"geometryType":"esriGeometryPoint","spatialReference":{"wkid":102443,"latestWkid":3826},"fields":[{"name":"ID","type":"esriFieldTypeDouble","alias":"ID"},{"name":"DIS_CODE","type":"esriFieldTypeInteger","alias":"DIS_CODE"},{"name":"TOWNNAME","type":"esriFieldTypeString","alias":"TOWNNAME","length":8},{"name":"LI","type":"esriFieldTypeString","alias":"LI","length":8},{"name":"LIN","type":"esriFieldTypeString","alias":"LIN","length":12},{"name":"STREET","type":"esriFieldTypeString","alias":"STREET","length":20},{"name":"SECT","type":"esriFieldTypeString","alias":"SECT","length":8},{"name":"MAREA","type":"esriFieldTypeString","alias":"MAREA","length":12},{"name":"LANE","type":"esriFieldTypeString","alias":"LANE","length":10},{"name":"ALLEY","type":"esriFieldTypeString","alias":"ALLEY","length":10},{"name":"HOUSE_NO","type":"esriFieldTypeString","alias":"HOUSE_NO","length":20},{"name":"E_COORD97","type":"esriFieldTypeDouble","alias":"E_COORD97"},{"name":"N_COORD97","type":"esriFieldTypeDouble","alias":"N_COORD97"},{"name":"ADDRESS","type":"esriFieldTypeString","alias":"ADDRESS","length":50},{"name":"OBJECTID","type":"esriFieldTypeOID","alias":"OBJECTID"}],"features":[{"attributes":{"ID":374811,"DIS_CODE":0,"TOWNNAME":"安南區","LI":"總頭里","LIN":"1鄰","STREET":"長溪路","SECT":"二段","MAREA":" ","LANE":"４７０巷","ALLEY":" ","HOUSE_NO":"１０號","E_COORD97":168315.42000000001,"N_COORD97":2550356.2400000002,"ADDRESS":"長溪路二段４７０巷１０號","OBJECTID":374801},"geometry":{"x":168315.42000000179,"y":2550356.2400000039}},{"attributes":{"ID":374812,"DIS_CODE":0,"TOWNNAME":"安南區","LI":"總頭里","LIN":"1鄰","STREET":"長溪路","SECT":"二段","MAREA":" ","LANE":"４７０巷","ALLEY":" ","HOUSE_NO":"１１號","E_COORD97":168308.79999999999,"N_COORD97":2550376.6099999999,"ADDRESS":"長溪路二段４７０巷１１號","OBJECTID":374802},"geometry":{"x":168308.79999999981,"y":2550376.6100000031}},{"attributes":{"ID":374813,"DIS_CODE":0,"TOWNNAME":"安南區","LI":"總頭里","LIN":"1鄰","STREET":"長溪路","SECT":"二段","MAREA":" ","LANE":"４７０巷","ALLEY":" ","HOUSE_NO":"１２號","E_COORD97":168319.82999999999,"N_COORD97":2550353.4900000002,"ADDRESS":"長溪路二段４７０巷１２號","OBJECTID":374803},"geometry":{"x":168319.83000000101,"y":2550353.4900000002}},{"attributes":{"ID":374814,"DIS_CODE":0,"TOWNNAME":"北區","LI":"大道里","LIN":"10鄰","STREET":"北門路","SECT":"二段","MAREA":" ","LANE":"５２７巷","ALLEY":" ","HOUSE_NO":"５號九樓之１","E_COORD97":169612.04000000001,"N_COORD97":2545606.1200000001,"ADDRESS":"北門路二段５２７巷５號九樓之１","OBJECTID":374804},"geometry":{"x":169612.04000000097,"y":2545606.1200000029}},{"attributes":{"ID":374815,"DIS_CODE":0,"TOWNNAME":"北區","LI":"大道里","LIN":"10鄰","STREET":"北門路","SECT":"二段","MAREA":" ","LANE":"５２７巷","ALLEY":" ","HOUSE_NO":"５號九樓之２","E_COORD97":169612.04000000001,"N_COORD97":2545606.1200000001,"ADDRESS":"北門路二段５２７巷５號九樓之２","OBJECTID":374805},"geometry":{"x":169612.04000000097,"y":2545606.1200000029}},{"attributes":{"ID":374816,"DIS_CODE":0,"TOWNNAME":"北區","LI":"大道里","LIN":"10鄰","STREET":"北門路","SECT":"二段","MAREA":" ","LANE":"５２７巷","ALLEY":" ","HOUSE_NO":"５號十樓之１","E_COORD97":169612.04000000001,"N_COORD97":2545606.1200000001,"ADDRESS":"北門路二段５２７巷５號十樓之１","OBJECTID":374806},"geometry":{"x":169612.04000000097,"y":2545606.1200000029}},{"attributes":{"ID":374817,"DIS_CODE":0,"TOWNNAME":"北區","LI":"大道里","LIN":"10鄰","STREET":"北門路","SECT":"二段","MAREA":" ","LANE":"５２７巷","ALLEY":" ","HOUSE_NO":"５號十樓之２","E_COORD97":169612.04000000001,"N_COORD97":2545606.1200000001,"ADDRESS":"北門路二段５２７巷５號十樓之２","OBJECTID":374807},"geometry":{"x":169612.04000000097,"y":2545606.1200000029}},{"attributes":{"ID":374818,"DIS_CODE":0,"TOWNNAME":"安南區","LI":"安順里","LIN":"13鄰","STREET":"育安街","SECT":" ","MAREA":" ","LANE":" ","ALLEY":" ","HOUSE_NO":"２６８號","E_COORD97":169606.89999999999,"N_COORD97":2550119.1099999999,"ADDRESS":"育安街２６８號","OBJECTID":374808},"geometry":{"x":169606.9000000013,"y":2550119.1100000013}},{"attributes":{"ID":374819,"DIS_CODE":0,"TOWNNAME":"安平區","LI":"平安里","LIN":"9鄰","STREET":"安平路","SECT":" ","MAREA":" ","LANE":"４２６巷","ALLEY":" ","HOUSE_NO":"３２號之２","E_COORD97":165406.66630400001,"N_COORD97":2544399.3433699999,"ADDRESS":"安平路４２６巷３２號之２","OBJECTID":374809},"geometry":{"x":165406.66630399972,"y":2544399.3433680031}},{"attributes":{"ID":374820,"DIS_CODE":0,"TOWNNAME":"北區","LI":"大道里","LIN":"10鄰","STREET":"北門路","SECT":"二段","MAREA":" ","LANE":"５２７巷","ALLEY":" ","HOUSE_NO":"５號十一樓之１","E_COORD97":169612.04000000001,"N_COORD97":2545606.1200000001,"ADDRESS":"北門路二段５２７巷５號十一樓之１","OBJECTID":374810},"geometry":{"x":169612.04000000097,"y":2545606.1200000029}},{"attributes":{"ID":374821,"DIS_CODE":0,"TOWNNAME":"北區","LI":"大道里","LIN":"10鄰","STREET":"北門路","SECT":"二段","MAREA":" ","LANE":"５２７巷","ALLEY":" ","HOUSE_NO":"５號十一樓之２","E_COORD97":169612.04000000001,"N_COORD97":2545606.1200000001,"ADDRESS":"北門路二段５２７巷５號十一樓之２","OBJECTID":374811},"geometry":{"x":169612.04000000097,"y":2545606.1200000029}},{"attributes":{"ID":374822,"DIS_CODE":0,"TOWNNAME":"北區","LI":"光武里","LIN":"10鄰","STREET":"北門路","SECT":"二段","MAREA":" ","LANE":"５４７巷","ALLEY":" ","HOUSE_NO":"２８號二樓之１","E_COORD97":169615.53,"N_COORD97":2545718.1200000001,"ADDRESS":"北門路二段５４７巷２８號二樓之１","OBJECTID":374812},"geometry":{"x":169615.53000000119,"y":2545718.120000001}},{"attributes":{"ID":374823,"DIS_CODE":0,"TOWNNAME":"北區","LI":"光武里","LIN":"10鄰","STREET":"北門路","SECT":"二段","MAREA":" ","LANE":"５４７巷","ALLEY":" ","HOUSE_NO":"２８號二樓之２","E_COORD97":169615.53,"N_COORD97":2545718.1200000001,"ADDRESS":"北門路二段５４７巷２８號二樓之２","OBJECTID":374813},"geometry":{"x":169615.53000000119,"y":2545718.120000001}},{"attributes":{"ID":374824,"DIS_CODE":0,"TOWNNAME":"北區","LI":"光武里","LIN":"10鄰","STREET":"北門路","SECT":"二段","MAREA":" ","LANE":"５４７巷","ALLEY":" ","HOUSE_NO":"２８號三樓之１","E_COORD97":169615.53,"N_COORD97":2545718.1200000001,"ADDRESS":"北門路二段５４７巷２８號三樓之１","OBJECTID":374814},"geometry":{"x":169615.53000000119,"y":2545718.120000001}},{"attributes":{"ID":374825,"DIS_CODE":0,"TOWNNAME":"北區","LI":"光武里","LIN":"10鄰","STREET":"北門路","SECT":"二段","MAREA":" ","LANE":"５４７巷","ALLEY":" ","HOUSE_NO":"２８號四樓之１","E_COORD97":169615.53,"N_COORD97":2545718.1200000001,"ADDRESS":"北門路二段５４７巷２８號四樓之１","OBJECTID":374815},"geometry":{"x":169615.53000000119,"y":2545718.120000001}},{"attributes":{"ID":374826,"DIS_CODE":0,"TOWNNAME":"北區","LI":"光武里","LIN":"10鄰","STREET":"北門路","SECT":"二段","MAREA":" ","LANE":"５４７巷","ALLEY":" ","HOUSE_NO":"２８號五樓之１","E_COORD97":169615.53,"N_COORD97":2545718.1200000001,"ADDRESS":"北門路二段５４７巷２８號五樓之１","OBJECTID":374816},"geometry":{"x":169615.53000000119,"y":2545718.120000001}},{"attributes":{"ID":374827,"DIS_CODE":0,"TOWNNAME":"北區","LI":"光武里","LIN":"10鄰","STREET":"北門路","SECT":"二段","MAREA":" ","LANE":"５４７巷","ALLEY":" ","HOUSE_NO":"２８號六樓之１","E_COORD97":169615.53,"N_COORD97":2545718.1200000001,"ADDRESS":"北門路二段５４７巷２８號六樓之１","OBJECTID":374817},"geometry":{"x":169615.53000000119,"y":2545718.120000001}},{"attributes":{"ID":374828,"DIS_CODE":0,"TOWNNAME":"北區","LI":"光武里","LIN":"10鄰","STREET":"北門路","SECT":"二段","MAREA":" ","LANE":"５４７巷","ALLEY":" ","HOUSE_NO":"２８號七樓之１","E_COORD97":169615.53,"N_COORD97":2545718.1200000001,"ADDRESS":"北門路二段５４７巷２８號七樓之１","OBJECTID":374818},"geometry":{"x":169615.53000000119,"y":2545718.120000001}},{"attributes":{"ID":374829,"DIS_CODE":0,"TOWNNAME":"北區","LI":"光武里","LIN":"10鄰","STREET":"北門路","SECT":"二段","MAREA":" ","LANE":"５４７巷","ALLEY":" ","HOUSE_NO":"２８號八樓之１","E_COORD97":169615.53,"N_COORD97":2545718.1200000001,"ADDRESS":"北門路二段５４７巷２８號八樓之１","OBJECTID":374819},"geometry":{"x":169615.53000000119,"y":2545718.120000001}},{"attributes":{"ID":374830,"DIS_CODE":0,"TOWNNAME":"北區","LI":"光武里","LIN":"10鄰","STREET":"北門路","SECT":"二段","MAREA":" ","LANE":"５４７巷","ALLEY":" ","HOUSE_NO":"２８號九樓之１","E_COORD97":169615.53,"N_COORD97":2545718.1200000001,"ADDRESS":"北門路二段５４７巷２８號九樓之１","OBJECTID":374820},"geometry":{"x":169615.53000000119,"y":2545718.120000001}},{"attributes":{"ID":374831,"DIS_CODE":0,"TOWNNAME":"北區","LI":"光武里","LIN":"10鄰","STREET":"北門路","SECT":"二段","MAREA":" ","LANE":"５４７巷","ALLEY":" ","HOUSE_NO":"２８號十樓之１","E_COORD97":169615.53,"N_COORD97":2545718.1200000001,"ADDRESS":"北門路二段５４７巷２８號十樓之１","OBJECTID":374821},"geometry":{"x":169615.53000000119,"y":2545718.120000001}},{"attributes":{"ID":374832,"DIS_CODE":0,"TOWNNAME":"北區","LI":"光武里","LIN":"10鄰","STREET":"北門路","SECT":"二段","MAREA":" ","LANE":"５４７巷","ALLEY":" ","HOUSE_NO":"２８號三樓之２","E_COORD97":169615.53,"N_COORD97":2545718.1200000001,"ADDRESS":"北門路二段５４７巷２８號三樓之２","OBJECTID":374822},"geometry":{"x":169615.53000000119,"y":2545718.120000001}},{"attributes":{"ID":374833,"DIS_CODE":0,"TOWNNAME":"北區","LI":"光武里","LIN":"10鄰","STREET":"北門路","SECT":"二段","MAREA":" ","LANE":"５４７巷","ALLEY":" ","HOUSE_NO":"２８號四樓之２","E_COORD97":169615.53,"N_COORD97":2545718.1200000001,"ADDRESS":"北門路二段５４７巷２８號四樓之２","OBJECTID":374823},"geometry":{"x":169615.53000000119,"y":2545718.120000001}},{"attributes":{"ID":374834,"DIS_CODE":0,"TOWNNAME":"北區","LI":"光武里","LIN":"10鄰","STREET":"北門路","SECT":"二段","MAREA":" ","LANE":"５４７巷","ALLEY":" ","HOUSE_NO":"２８號五樓之２","E_COORD97":169615.53,"N_COORD97":2545718.1200000001,"ADDRESS":"北門路二段５４７巷２８號五樓之２","OBJECTID":374824},"geometry":{"x":169615.53000000119,"y":2545718.120000001}},{"attributes":{"ID":374835,"DIS_CODE":0,"TOWNNAME":"北區","LI":"光武里","LIN":"10鄰","STREET":"北門路","SECT":"二段","MAREA":" ","LANE":"５４７巷","ALLEY":" ","HOUSE_NO":"２８號六樓之２","E_COORD97":169615.53,"N_COORD97":2545718.1200000001,"ADDRESS":"北門路二段５４７巷２８號六樓之２","OBJECTID":374825},"geometry":{"x":169615.53000000119,"y":2545718.120000001}},{"attributes":{"ID":374836,"DIS_CODE":0,"TOWNNAME":"北區","LI":"大豐里","LIN":"10鄰","STREET":"和緯路","SECT":"四段","MAREA":" ","LANE":"９５巷","ALLEY":" ","HOUSE_NO":"４９號五樓","E_COORD97":167115.23999999999,"N_COORD97":2545327.9900000002,"ADDRESS":"和緯路四段９５巷４９號五樓","OBJECTID":374826},"geometry":{"x":167115.24000000209,"y":2545327.9900000021}},{"attributes":{"ID":374837,"DIS_CODE":0,"TOWNNAME":"北區","LI":"光武里","LIN":"10鄰","STREET":"北門路","SECT":"二段","MAREA":" ","LANE":"５４７巷","ALLEY":" ","HOUSE_NO":"２８號七樓之２","E_COORD97":169615.53,"N_COORD97":2545718.1200000001,"ADDRESS":"北門路二段５４７巷２８號七樓之２","OBJECTID":374827},"geometry":{"x":169615.53000000119,"y":2545718.120000001}},{"attributes":{"ID":374838,"DIS_CODE":0,"TOWNNAME":"北區","LI":"光武里","LIN":"10鄰","STREET":"北門路","SECT":"二段","MAREA":" ","LANE":"５４７巷","ALLEY":" ","HOUSE_NO":"２８號八樓之２","E_COORD97":169615.53,"N_COORD97":2545718.1200000001,"ADDRESS":"北門路二段５４７巷２８號八樓之２","OBJECTID":374828},"geometry":{"x":169615.53000000119,"y":2545718.120000001}},{"attributes":{"ID":374839,"DIS_CODE":0,"TOWNNAME":"北區","LI":"光武里","LIN":"10鄰","STREET":"北門路","SECT":"二段","MAREA":" ","LANE":"５４７巷","ALLEY":" ","HOUSE_NO":"２８號九樓之２","E_COORD97":169615.53,"N_COORD97":2545718.1200000001,"ADDRESS":"北門路二段５４７巷２８號九樓之２","OBJECTID":374829},"geometry":{"x":169615.53000000119,"y":2545718.120000001}},{"attributes":{"ID":374840,"DIS_CODE":0,"TOWNNAME":"北區","LI":"光武里","LIN":"10鄰","STREET":"北門路","SECT":"二段","MAREA":" ","LANE":"５４７巷","ALLEY":" ","HOUSE_NO":"２８號十樓之２","E_COORD97":169615.53,"N_COORD97":2545718.1200000001,"ADDRESS":"北門路二段５４７巷２８號十樓之２","OBJECTID":374830},"geometry":{"x":169615.53000000119,"y":2545718.120000001}},{"attributes":{"ID":374841,"DIS_CODE":0,"TOWNNAME":"中西區","LI":"三合里","LIN":"10鄰","STREET":"忠孝街","SECT":" ","MAREA":" ","LANE":"９３巷","ALLEY":" ","HOUSE_NO":"４５號","E_COORD97":167599.12,"N_COORD97":2544575.71,"ADDRESS":"忠孝街９３巷４５號","OBJECTID":374831},"geometry":{"x":167599.12000000104,"y":2544575.7100000009}},{"attributes":{"ID":374842,"DIS_CODE":0,"TOWNNAME":"北區","LI":"光武里","LIN":"10鄰","STREET":"北門路","SECT":"二段","MAREA":" ","LANE":"５４７巷","ALLEY":" ","HOUSE_NO":"２８號三樓之３","E_COORD97":169615.53,"N_COORD97":2545718.1200000001,"ADDRESS":"北門路二段５４７巷２８號三樓之３","OBJECTID":374832},"geometry":{"x":169615.53000000119,"y":2545718.120000001}},{"attributes":{"ID":374843,"DIS_CODE":0,"TOWNNAME":"北區","LI":"光武里","LIN":"10鄰","STREET":"北門路","SECT":"二段","MAREA":" ","LANE":"５４７巷","ALLEY":" ","HOUSE_NO":"２８號四樓之３","E_COORD97":169615.53,"N_COORD97":2545718.1200000001,"ADDRESS":"北門路二段５４７巷２８號四樓之３","OBJECTID":374833},"geometry":{"x":169615.53000000119,"y":2545718.120000001}},{"attributes":{"ID":374844,"DIS_CODE":0,"TOWNNAME":"北區","LI":"光武里","LIN":"10鄰","STREET":"北門路","SECT":"二段","MAREA":" ","LANE":"５４７巷","ALLEY":" ","HOUSE_NO":"２８號五樓之３","E_COORD97":169615.53,"N_COORD97":2545718.1200000001,"ADDRESS":"北門路二段５４７巷２８號五樓之３","OBJECTID":374834},"geometry":{"x":169615.53000000119,"y":2545718.120000001}},{"attributes":{"ID":374845,"DIS_CODE":0,"TOWNNAME":"北區","LI":"光武里","LIN":"10鄰","STREET":"北門路","SECT":"二段","MAREA":" ","LANE":"５４７巷","ALLEY":" ","HOUSE_NO":"２８號六樓之３","E_COORD97":169615.53,"N_COORD97":2545718.1200000001,"ADDRESS":"北門路二段５４７巷２８號六樓之３","OBJECTID":374835},"geometry":{"x":169615.53000000119,"y":2545718.120000001}},{"attributes":{"ID":374846,"DIS_CODE":0,"TOWNNAME":"北區","LI":"光武里","LIN":"10鄰","STREET":"北門路","SECT":"二段","MAREA":" ","LANE":"５４７巷","ALLEY":" ","HOUSE_NO":"２８號七樓之３","E_COORD97":169615.53,"N_COORD97":2545718.1200000001,"ADDRESS":"北門路二段５４７巷２８號七樓之３","OBJECTID":374836},"geometry":{"x":169615.53000000119,"y":2545718.120000001}},{"attributes":{"ID":374847,"DIS_CODE":0,"TOWNNAME":"安南區","LI":"安順里","LIN":"13鄰","STREET":"育安街","SECT":" ","MAREA":" ","LANE":" ","ALLEY":" ","HOUSE_NO":"２７０號","E_COORD97":169607.42000000001,"N_COORD97":2550123.2599999998,"ADDRESS":"育安街２７０號","OBJECTID":374837},"geometry":{"x":169607.42000000086,"y":2550123.2599999998}},{"attributes":{"ID":374848,"DIS_CODE":0,"TOWNNAME":"北區","LI":"光武里","LIN":"10鄰","STREET":"北門路","SECT":"二段","MAREA":" ","LANE":"５４７巷","ALLEY":" ","HOUSE_NO":"２８號八樓之３","E_COORD97":169615.53,"N_COORD97":2545718.1200000001,"ADDRESS":"北門路二段５４７巷２８號八樓之３","OBJECTID":374838},"geometry":{"x":169615.53000000119,"y":2545718.120000001}},{"attributes":{"ID":374849,"DIS_CODE":0,"TOWNNAME":"北區","LI":"光武里","LIN":"10鄰","STREET":"北門路","SECT":"二段","MAREA":" ","LANE":"５４７巷","ALLEY":" ","HOUSE_NO":"２８號九樓之３","E_COORD97":169615.53,"N_COORD97":2545718.1200000001,"ADDRESS":"北門路二段５４７巷２８號九樓之３","OBJECTID":374839},"geometry":{"x":169615.53000000119,"y":2545718.120000001}},{"attributes":{"ID":374850,"DIS_CODE":0,"TOWNNAME":"北區","LI":"光武里","LIN":"10鄰","STREET":"北門路","SECT":"二段","MAREA":" ","LANE":"５４７巷","ALLEY":" ","HOUSE_NO":"２８號十樓之３","E_COORD97":169615.53,"N_COORD97":2545718.1200000001,"ADDRESS":"北門路二段５４７巷２８號十樓之３","OBJECTID":374840},"geometry":{"x":169615.53000000119,"y":2545718.120000001}},{"attributes":{"ID":374851,"DIS_CODE":0,"TOWNNAME":"北區","LI":"光武里","LIN":"10鄰","STREET":"北門路","SECT":"二段","MAREA":" ","LANE":"５４７巷","ALLEY":" ","HOUSE_NO":"２８號三樓之５","E_COORD97":169615.53,"N_COORD97":2545718.1200000001,"ADDRESS":"北門路二段５４７巷２８號三樓之５","OBJECTID":374841},"geometry":{"x":169615.53000000119,"y":2545718.120000001}},{"attributes":{"ID":374852,"DIS_CODE":0,"TOWNNAME":"北區","LI":"光武里","LIN":"10鄰","STREET":"北門路","SECT":"二段","MAREA":" ","LANE":"５４７巷","ALLEY":" ","HOUSE_NO":"２８號四樓之５","E_COORD97":169615.53,"N_COORD97":2545718.1200000001,"ADDRESS":"北門路二段５４７巷２８號四樓之５","OBJECTID":374842},"geometry":{"x":169615.53000000119,"y":2545718.120000001}},{"attributes":{"ID":374853,"DIS_CODE":0,"TOWNNAME":"北區","LI":"光武里","LIN":"10鄰","STREET":"北門路","SECT":"二段","MAREA":" ","LANE":"５４７巷","ALLEY":" ","HOUSE_NO":"２８號五樓之５","E_COORD97":169615.53,"N_COORD97":2545718.1200000001,"ADDRESS":"北門路二段５４７巷２８號五樓之５","OBJECTID":374843},"geometry":{"x":169615.53000000119,"y":2545718.120000001}},{"attributes":{"ID":374854,"DIS_CODE":0,"TOWNNAME":"北區","LI":"光武里","LIN":"10鄰","STREET":"北門路","SECT":"二段","MAREA":" ","LANE":"５４７巷","ALLEY":" ","HOUSE_NO":"２８號六樓之５","E_COORD97":169615.53,"N_COORD97":2545718.1200000001,"ADDRESS":"北門路二段５４７巷２８號六樓之５","OBJECTID":374844},"geometry":{"x":169615.53000000119,"y":2545718.120000001}},{"attributes":{"ID":374855,"DIS_CODE":0,"TOWNNAME":"永康區","LI":"龍潭里","LIN":"10鄰","STREET":"龍潭街","SECT":" ","MAREA":" ","LANE":"１５１巷","ALLEY":" ","HOUSE_NO":"９號","E_COORD97":174848.32000000001,"N_COORD97":2548253.7799999998,"ADDRESS":"龍潭街１５１巷９號","OBJECTID":374845},"geometry":{"x":174848.32000000123,"y":2548253.7800000012}},{"attributes":{"ID":374856,"DIS_CODE":0,"TOWNNAME":"北區","LI":"光武里","LIN":"10鄰","STREET":"北門路","SECT":"二段","MAREA":" ","LANE":"５４７巷","ALLEY":" ","HOUSE_NO":"２８號七樓之５","E_COORD97":169615.53,"N_COORD97":2545718.1200000001,"ADDRESS":"北門路二段５４７巷２８號七樓之５","OBJECTID":374846},"geometry":{"x":169615.53000000119,"y":2545718.120000001}},{"attributes":{"ID":374857,"DIS_CODE":0,"TOWNNAME":"北區","LI":"光武里","LIN":"10鄰","STREET":"北門路","SECT":"二段","MAREA":" ","LANE":"５４７巷","ALLEY":" ","HOUSE_NO":"２８號八樓之５","E_COORD97":169615.53,"N_COORD97":2545718.1200000001,"ADDRESS":"北門路二段５４７巷２８號八樓之５","OBJECTID":374847},"geometry":{"x":169615.53000000119,"y":2545718.120000001}},{"attributes":{"ID":374858,"DIS_CODE":0,"TOWNNAME":"北區","LI":"光武里","LIN":"10鄰","STREET":"北門路","SECT":"二段","MAREA":" ","LANE":"５４７巷","ALLEY":" ","HOUSE_NO":"２８號九樓之５","E_COORD97":169615.53,"N_COORD97":2545718.1200000001,"ADDRESS":"北門路二段５４７巷２８號九樓之５","OBJECTID":374848},"geometry":{"x":169615.53000000119,"y":2545718.120000001}},{"attributes":{"ID":374859,"DIS_CODE":0,"TOWNNAME":"北區","LI":"光武里","LIN":"10鄰","STREET":"北門路","SECT":"二段","MAREA":" ","LANE":"５４７巷","ALLEY":" ","HOUSE_NO":"２８號十樓之５","E_COORD97":169615.53,"N_COORD97":2545718.1200000001,"ADDRESS":"北門路二段５４７巷２８號十樓之５","OBJECTID":374849},"geometry":{"x":169615.53000000119,"y":2545718.120000001}},{"attributes":{"ID":374860,"DIS_CODE":0,"TOWNNAME":"北區","LI":"大豐里","LIN":"10鄰","STREET":"和緯路","SECT":"四段","MAREA":" ","LANE":"９５巷","ALLEY":" ","HOUSE_NO":"４７號二樓","E_COORD97":167116.56,"N_COORD97":2545337.0499999998,"ADDRESS":"和緯路四段９５巷４７號二樓","OBJECTID":374850},"geometry":{"x":167116.55999999959,"y":2545337.0500000026}},{"attributes":{"ID":374861,"DIS_CODE":0,"TOWNNAME":"北區","LI":"大豐里","LIN":"10鄰","STREET":"和緯路","SECT":"四段","MAREA":" ","LANE":"９５巷","ALLEY":" ","HOUSE_NO":"４７號三樓","E_COORD97":167116.56,"N_COORD97":2545337.0499999998,"ADDRESS":"和緯路四段９５巷４７號三樓","OBJECTID":374851},"geometry":{"x":167116.55999999959,"y":2545337.0500000026}},{"attributes":{"ID":374862,"DIS_CODE":0,"TOWNNAME":"北區","LI":"大豐里","LIN":"10鄰","STREET":"和緯路","SECT":"四段","MAREA":" ","LANE":"９５巷","ALLEY":" ","HOUSE_NO":"４７號五樓","E_COORD97":167116.56,"N_COORD97":2545337.0499999998,"ADDRESS":"和緯路四段９５巷４７號五樓","OBJECTID":374852},"geometry":{"x":167116.55999999959,"y":2545337.0500000026}},{"attributes":{"ID":374863,"DIS_CODE":0,"TOWNNAME":"北區","LI":"大豐里","LIN":"10鄰","STREET":"和緯路","SECT":"四段","MAREA":" ","LANE":"９５巷","ALLEY":" ","HOUSE_NO":"４７號四樓","E_COORD97":167116.56,"N_COORD97":2545337.0499999998,"ADDRESS":"和緯路四段９５巷４７號四樓","OBJECTID":374853},"geometry":{"x":167116.55999999959,"y":2545337.0500000026}},{"attributes":{"ID":374864,"DIS_CODE":0,"TOWNNAME":"北區","LI":"大豐里","LIN":"10鄰","STREET":"和緯路","SECT":"四段","MAREA":" ","LANE":"９５巷","ALLEY":" ","HOUSE_NO":"４９號二樓","E_COORD97":167115.23999999999,"N_COORD97":2545327.9900000002,"ADDRESS":"和緯路四段９５巷４９號二樓","OBJECTID":374854},"geometry":{"x":167115.24000000209,"y":2545327.9900000021}},{"attributes":{"ID":374865,"DIS_CODE":0,"TOWNNAME":"北區","LI":"大豐里","LIN":"10鄰","STREET":"和緯路","SECT":"四段","MAREA":" ","LANE":"９５巷","ALLEY":" ","HOUSE_NO":"４９號三樓","E_COORD97":167115.23999999999,"N_COORD97":2545327.9900000002,"ADDRESS":"和緯路四段９５巷４９號三樓","OBJECTID":374855},"geometry":{"x":167115.24000000209,"y":2545327.9900000021}},{"attributes":{"ID":374866,"DIS_CODE":0,"TOWNNAME":"北區","LI":"大豐里","LIN":"10鄰","STREET":"和緯路","SECT":"四段","MAREA":" ","LANE":"９５巷","ALLEY":" ","HOUSE_NO":"４９號四樓","E_COORD97":167115.23999999999,"N_COORD97":2545327.9900000002,"ADDRESS":"和緯路四段９５巷４９號四樓","OBJECTID":374856},"geometry":{"x":167115.24000000209,"y":2545327.9900000021}},{"attributes":{"ID":374867,"DIS_CODE":0,"TOWNNAME":"北區","LI":"大豐里","LIN":"10鄰","STREET":"和緯路","SECT":"四段","MAREA":" ","LANE":"９５巷","ALLEY":" ","HOUSE_NO":"５１號二樓","E_COORD97":167114.44,"N_COORD97":2545324.7999999998,"ADDRESS":"和緯路四段９５巷５１號二樓","OBJECTID":374857},"geometry":{"x":167114.44000000134,"y":2545324.8000000045}},{"attributes":{"ID":374868,"DIS_CODE":0,"TOWNNAME":"北區","LI":"大豐里","LIN":"10鄰","STREET":"和緯路","SECT":"四段","MAREA":" ","LANE":"９５巷","ALLEY":" ","HOUSE_NO":"５１號三樓","E_COORD97":167114.44,"N_COORD97":2545324.7999999998,"ADDRESS":"和緯路四段９５巷５１號三樓","OBJECTID":374858},"geometry":{"x":167114.44000000134,"y":2545324.8000000045}},{"attributes":{"ID":374869,"DIS_CODE":0,"TOWNNAME":"北區","LI":"大豐里","LIN":"10鄰","STREET":"和緯路","SECT":"四段","MAREA":" ","LANE":"９５巷","ALLEY":" ","HOUSE_NO":"５１號五樓","E_COORD97":167114.44,"N_COORD97":2545324.7999999998,"ADDRESS":"和緯路四段９５巷５１號五樓","OBJECTID":374859},"geometry":{"x":167114.44000000134,"y":2545324.8000000045}},{"attributes":{"ID":374870,"DIS_CODE":0,"TOWNNAME":"北區","LI":"大豐里","LIN":"10鄰","STREET":"和緯路","SECT":"四段","MAREA":" ","LANE":"９５巷","ALLEY":" ","HOUSE_NO":"５１號四樓","E_COORD97":167114.44,"N_COORD97":2545324.7999999998,"ADDRESS":"和緯路四段９５巷５１號四樓","OBJECTID":374860},"geometry":{"x":167114.44000000134,"y":2545324.8000000045}},{"attributes":{"ID":374871,"DIS_CODE":0,"TOWNNAME":"北區","LI":"大豐里","LIN":"10鄰","STREET":"和緯路","SECT":"四段","MAREA":" ","LANE":"９５巷","ALLEY":" ","HOUSE_NO":"５３號二樓","E_COORD97":167113.57000000001,"N_COORD97":2545315.8599999999,"ADDRESS":"和緯路四段９５巷５３號二樓","OBJECTID":374861},"geometry":{"x":167113.57000000123,"y":2545315.8599999994}},{"attributes":{"ID":374872,"DIS_CODE":0,"TOWNNAME":"北區","LI":"大豐里","LIN":"10鄰","STREET":"和緯路","SECT":"四段","MAREA":" ","LANE":"９５巷","ALLEY":" ","HOUSE_NO":"５３號三樓","E_COORD97":167113.57000000001,"N_COORD97":2545315.8599999999,"ADDRESS":"和緯路四段９５巷５３號三樓","OBJECTID":374862},"geometry":{"x":167113.57000000123,"y":2545315.8599999994}},{"attributes":{"ID":374873,"DIS_CODE":0,"TOWNNAME":"北區","LI":"大豐里","LIN":"10鄰","STREET":"和緯路","SECT":"四段","MAREA":" ","LANE":"９５巷","ALLEY":" ","HOUSE_NO":"５３號五樓","E_COORD97":167113.57000000001,"N_COORD97":2545315.8599999999,"ADDRESS":"和緯路四段９５巷５３號五樓","OBJECTID":374863},"geometry":{"x":167113.57000000123,"y":2545315.8599999994}},{"attributes":{"ID":374874,"DIS_CODE":0,"TOWNNAME":"北區","LI":"大豐里","LIN":"10鄰","STREET":"和緯路","SECT":"四段","MAREA":" ","LANE":"９５巷","ALLEY":" ","HOUSE_NO":"５３號四樓","E_COORD97":167113.57000000001,"N_COORD97":2545315.8599999999,"ADDRESS":"和緯路四段９５巷５３號四樓","OBJECTID":374864},"geometry":{"x":167113.57000000123,"y":2545315.8599999994}},{"attributes":{"ID":374875,"DIS_CODE":0,"TOWNNAME":"北區","LI":"大豐里","LIN":"10鄰","STREET":"和緯路","SECT":"四段","MAREA":" ","LANE":"９５巷","ALLEY":" ","HOUSE_NO":"５５號二樓","E_COORD97":167112.95000000001,"N_COORD97":2545311.1200000001,"ADDRESS":"和緯路四段９５巷５５號二樓","OBJECTID":374865},"geometry":{"x":167112.95000000019,"y":2545311.1200000029}},{"attributes":{"ID":374876,"DIS_CODE":0,"TOWNNAME":"北區","LI":"大豐里","LIN":"10鄰","STREET":"和緯路","SECT":"四段","MAREA":" ","LANE":"９５巷","ALLEY":" ","HOUSE_NO":"５５號三樓","E_COORD97":167112.95000000001,"N_COORD97":2545311.1200000001,"ADDRESS":"和緯路四段９５巷５５號三樓","OBJECTID":374866},"geometry":{"x":167112.95000000019,"y":2545311.1200000029}},{"attributes":{"ID":374877,"DIS_CODE":0,"TOWNNAME":"北區","LI":"大豐里","LIN":"10鄰","STREET":"和緯路","SECT":"四段","MAREA":" ","LANE":"９５巷","ALLEY":" ","HOUSE_NO":"５５號五樓","E_COORD97":167112.95000000001,"N_COORD97":2545311.1200000001,"ADDRESS":"和緯路四段９５巷５５號五樓","OBJECTID":374867},"geometry":{"x":167112.95000000019,"y":2545311.1200000029}},{"attributes":{"ID":374878,"DIS_CODE":0,"TOWNNAME":"北區","LI":"大豐里","LIN":"10鄰","STREET":"和緯路","SECT":"四段","MAREA":" ","LANE":"９５巷","ALLEY":" ","HOUSE_NO":"５５號四樓","E_COORD97":167112.95000000001,"N_COORD97":2545311.1200000001,"ADDRESS":"和緯路四段９５巷５５號四樓","OBJECTID":374868},"geometry":{"x":167112.95000000019,"y":2545311.1200000029}},{"attributes":{"ID":374879,"DIS_CODE":0,"TOWNNAME":"北區","LI":"大豐里","LIN":"10鄰","STREET":"和緯路","SECT":"四段","MAREA":" ","LANE":"９５巷","ALLEY":" ","HOUSE_NO":"５７號二樓","E_COORD97":167111.72,"N_COORD97":2545301.9100000001,"ADDRESS":"和緯路四段９５巷５７號二樓","OBJECTID":374869},"geometry":{"x":167111.72000000067,"y":2545301.9100000001}},{"attributes":{"ID":374880,"DIS_CODE":0,"TOWNNAME":"北區","LI":"大豐里","LIN":"10鄰","STREET":"和緯路","SECT":"四段","MAREA":" ","LANE":"９５巷","ALLEY":" ","HOUSE_NO":"５７號三樓","E_COORD97":167111.72,"N_COORD97":2545301.9100000001,"ADDRESS":"和緯路四段９５巷５７號三樓","OBJECTID":374870},"geometry":{"x":167111.72000000067,"y":2545301.9100000001}},{"attributes":{"ID":374881,"DIS_CODE":0,"TOWNNAME":"北區","LI":"大豐里","LIN":"10鄰","STREET":"和緯路","SECT":"四段","MAREA":" ","LANE":"９５巷","ALLEY":" ","HOUSE_NO":"５７號五樓","E_COORD97":167111.72,"N_COORD97":2545301.9100000001,"ADDRESS":"和緯路四段９５巷５７號五樓","OBJECTID":374871},"geometry":{"x":167111.72000000067,"y":2545301.9100000001}},{"attributes":{"ID":374882,"DIS_CODE":0,"TOWNNAME":"北區","LI":"大豐里","LIN":"10鄰","STREET":"和緯路","SECT":"四段","MAREA":" ","LANE":"９５巷","ALLEY":" ","HOUSE_NO":"５７號四樓","E_COORD97":167111.72,"N_COORD97":2545301.9100000001,"ADDRESS":"和緯路四段９５巷５７號四樓","OBJECTID":374872},"geometry":{"x":167111.72000000067,"y":2545301.9100000001}},{"attributes":{"ID":374883,"DIS_CODE":0,"TOWNNAME":"北區","LI":"大豐里","LIN":"10鄰","STREET":"和緯路","SECT":"四段","MAREA":" ","LANE":"９５巷","ALLEY":" ","HOUSE_NO":"５９號二樓","E_COORD97":167110.48999999999,"N_COORD97":2545294.25,"ADDRESS":"和緯路四段９５巷５９號二樓","OBJECTID":374873},"geometry":{"x":167110.49000000115,"y":2545294.2500000019}},{"attributes":{"ID":374884,"DIS_CODE":0,"TOWNNAME":"北區","LI":"大豐里","LIN":"10鄰","STREET":"和緯路","SECT":"四段","MAREA":" ","LANE":"９５巷","ALLEY":" ","HOUSE_NO":"５９號三樓","E_COORD97":167110.48999999999,"N_COORD97":2545294.25,"ADDRESS":"和緯路四段９５巷５９號三樓","OBJECTID":374874},"geometry":{"x":167110.49000000115,"y":2545294.2500000019}},{"attributes":{"ID":374885,"DIS_CODE":0,"TOWNNAME":"北區","LI":"大豐里","LIN":"10鄰","STREET":"和緯路","SECT":"四段","MAREA":" ","LANE":"９５巷","ALLEY":" ","HOUSE_NO":"５９號五樓","E_COORD97":167110.48999999999,"N_COORD97":2545294.25,"ADDRESS":"和緯路四段９５巷５９號五樓","OBJECTID":374875},"geometry":{"x":167110.49000000115,"y":2545294.2500000019}},{"attributes":{"ID":374886,"DIS_CODE":0,"TOWNNAME":"北區","LI":"大豐里","LIN":"10鄰","STREET":"和緯路","SECT":"四段","MAREA":" ","LANE":"９５巷","ALLEY":" ","HOUSE_NO":"６１號二樓","E_COORD97":167109.25,"N_COORD97":2545288.75,"ADDRESS":"和緯路四段９５巷６１號二樓","OBJECTID":374876},"geometry":{"x":167109.25,"y":2545288.7500000019}},{"attributes":{"ID":374887,"DIS_CODE":0,"TOWNNAME":"北區","LI":"大豐里","LIN":"10鄰","STREET":"和緯路","SECT":"四段","MAREA":" ","LANE":"９５巷","ALLEY":" ","HOUSE_NO":"６１號三樓","E_COORD97":167109.25,"N_COORD97":2545288.75,"ADDRESS":"和緯路四段９５巷６１號三樓","OBJECTID":374877},"geometry":{"x":167109.25,"y":2545288.7500000019}},{"attributes":{"ID":374888,"DIS_CODE":0,"TOWNNAME":"北區","LI":"大豐里","LIN":"10鄰","STREET":"和緯路","SECT":"四段","MAREA":" ","LANE":"９５巷","ALLEY":" ","HOUSE_NO":"６１號五樓","E_COORD97":167109.25,"N_COORD97":2545288.75,"ADDRESS":"和緯路四段９５巷６１號五樓","OBJECTID":374878},"geometry":{"x":167109.25,"y":2545288.7500000019}},{"attributes":{"ID":374889,"DIS_CODE":0,"TOWNNAME":"北區","LI":"大豐里","LIN":"10鄰","STREET":"和緯路","SECT":"四段","MAREA":" ","LANE":"９５巷","ALLEY":" ","HOUSE_NO":"６１號四樓","E_COORD97":167109.25,"N_COORD97":2545288.75,"ADDRESS":"和緯路四段９５巷６１號四樓","OBJECTID":374879},"geometry":{"x":167109.25,"y":2545288.7500000019}},{"attributes":{"ID":374890,"DIS_CODE":0,"TOWNNAME":"北區","LI":"大豐里","LIN":"10鄰","STREET":"和緯路","SECT":"四段","MAREA":" ","LANE":"９５巷","ALLEY":" ","HOUSE_NO":"６３號二樓","E_COORD97":167108.60999999999,"N_COORD97":2545285.1000000001,"ADDRESS":"和緯路四段９５巷６３號二樓","OBJECTID":374880},"geometry":{"x":167108.61000000034,"y":2545285.1000000015}},{"attributes":{"ID":374891,"DIS_CODE":0,"TOWNNAME":"北區","LI":"大豐里","LIN":"10鄰","STREET":"和緯路","SECT":"四段","MAREA":" ","LANE":"９５巷","ALLEY":" ","HOUSE_NO":"６３號三樓","E_COORD97":167108.60999999999,"N_COORD97":2545285.1000000001,"ADDRESS":"和緯路四段９５巷６３號三樓","OBJECTID":374881},"geometry":{"x":167108.61000000034,"y":2545285.1000000015}},{"attributes":{"ID":374892,"DIS_CODE":0,"TOWNNAME":"安南區","LI":"原佃里","LIN":"1鄰","STREET":"本原街","SECT":"一段","MAREA":" ","LANE":"９７巷","ALLEY":" ","HOUSE_NO":"２００號","E_COORD97":167850.63,"N_COORD97":2549750.0699999998,"ADDRESS":"本原街一段９７巷２００號","OBJECTID":374882},"geometry":{"x":167850.62999999989,"y":2549750.0700000003}},{"attributes":{"ID":374893,"DIS_CODE":0,"TOWNNAME":"北區","LI":"大豐里","LIN":"10鄰","STREET":"和緯路","SECT":"四段","MAREA":" ","LANE":"９５巷","ALLEY":" ","HOUSE_NO":"６３號五樓","E_COORD97":167108.60999999999,"N_COORD97":2545285.1000000001,"ADDRESS":"和緯路四段９５巷６３號五樓","OBJECTID":374883},"geometry":{"x":167108.61000000034,"y":2545285.1000000015}},{"attributes":{"ID":374894,"DIS_CODE":0,"TOWNNAME":"北區","LI":"大豐里","LIN":"10鄰","STREET":"和緯路","SECT":"四段","MAREA":" ","LANE":"９５巷","ALLEY":" ","HOUSE_NO":"６３號四樓","E_COORD97":167108.60999999999,"N_COORD97":2545285.1000000001,"ADDRESS":"和緯路四段９５巷６３號四樓","OBJECTID":374884},"geometry":{"x":167108.61000000034,"y":2545285.1000000015}},{"attributes":{"ID":374895,"DIS_CODE":0,"TOWNNAME":"北區","LI":"大豐里","LIN":"10鄰","STREET":"和緯路","SECT":"四段","MAREA":" ","LANE":"９５巷","ALLEY":" ","HOUSE_NO":"６５號二樓","E_COORD97":167107.73000000001,"N_COORD97":2545275.8799999999,"ADDRESS":"和緯路四段９５巷６５號二樓","OBJECTID":374885},"geometry":{"x":167107.73000000138,"y":2545275.8800000008}},{"attributes":{"ID":374896,"DIS_CODE":0,"TOWNNAME":"北區","LI":"大豐里","LIN":"10鄰","STREET":"和緯路","SECT":"四段","MAREA":" ","LANE":"９５巷","ALLEY":" ","HOUSE_NO":"６５號三樓","E_COORD97":167107.73000000001,"N_COORD97":2545275.8799999999,"ADDRESS":"和緯路四段９５巷６５號三樓","OBJECTID":374886},"geometry":{"x":167107.73000000138,"y":2545275.8800000008}},{"attributes":{"ID":374897,"DIS_CODE":0,"TOWNNAME":"北區","LI":"大豐里","LIN":"10鄰","STREET":"和緯路","SECT":"四段","MAREA":" ","LANE":"９５巷","ALLEY":" ","HOUSE_NO":"６５號五樓","E_COORD97":167107.73000000001,"N_COORD97":2545275.8799999999,"ADDRESS":"和緯路四段９５巷６５號五樓","OBJECTID":374887},"geometry":{"x":167107.73000000138,"y":2545275.8800000008}},{"attributes":{"ID":374898,"DIS_CODE":0,"TOWNNAME":"北區","LI":"大豐里","LIN":"10鄰","STREET":"和緯路","SECT":"四段","MAREA":" ","LANE":"９５巷","ALLEY":" ","HOUSE_NO":"６５號四樓","E_COORD97":167107.73000000001,"N_COORD97":2545275.8799999999,"ADDRESS":"和緯路四段９５巷６５號四樓","OBJECTID":374888},"geometry":{"x":167107.73000000138,"y":2545275.8800000008}},{"attributes":{"ID":374899,"DIS_CODE":0,"TOWNNAME":"北區","LI":"大豐里","LIN":"10鄰","STREET":"和緯路","SECT":"四段","MAREA":" ","LANE":"９５巷","ALLEY":" ","HOUSE_NO":"５９號四樓","E_COORD97":167110.48999999999,"N_COORD97":2545294.25,"ADDRESS":"和緯路四段９５巷５９號四樓","OBJECTID":374889},"geometry":{"x":167110.49000000115,"y":2545294.2500000019}},{"attributes":{"ID":374900,"DIS_CODE":0,"TOWNNAME":"北區","LI":"振興里","LIN":"10鄰","STREET":"長榮路","SECT":"四段","MAREA":" ","LANE":"１３５巷","ALLEY":" ","HOUSE_NO":"１９號三樓之１","E_COORD97":170198.56,"N_COORD97":2545107.25,"ADDRESS":"長榮路四段１３５巷１９號三樓之１","OBJECTID":374890},"geometry":{"x":170198.55999999959,"y":2545107.2499999981}},{"attributes":{"ID":374901,"DIS_CODE":0,"TOWNNAME":"北區","LI":"振興里","LIN":"10鄰","STREET":"長榮路","SECT":"四段","MAREA":" ","LANE":"１３５巷","ALLEY":" ","HOUSE_NO":"１９號三樓之２","E_COORD97":170198.56,"N_COORD97":2545107.25,"ADDRESS":"長榮路四段１３５巷１９號三樓之２","OBJECTID":374891},"geometry":{"x":170198.55999999959,"y":2545107.2499999981}},{"attributes":{"ID":374902,"DIS_CODE":0,"TOWNNAME":"北區","LI":"振興里","LIN":"10鄰","STREET":"長榮路","SECT":"四段","MAREA":" ","LANE":"１３５巷","ALLEY":" ","HOUSE_NO":"１９號五樓之１","E_COORD97":170198.56,"N_COORD97":2545107.25,"ADDRESS":"長榮路四段１３５巷１９號五樓之１","OBJECTID":374892},"geometry":{"x":170198.55999999959,"y":2545107.2499999981}},{"attributes":{"ID":374903,"DIS_CODE":0,"TOWNNAME":"北區","LI":"振興里","LIN":"10鄰","STREET":"長榮路","SECT":"四段","MAREA":" ","LANE":"１３５巷","ALLEY":" ","HOUSE_NO":"１９號五樓之２","E_COORD97":170198.56,"N_COORD97":2545107.25,"ADDRESS":"長榮路四段１３５巷１９號五樓之２","OBJECTID":374893},"geometry":{"x":170198.55999999959,"y":2545107.2499999981}},{"attributes":{"ID":374904,"DIS_CODE":0,"TOWNNAME":"北區","LI":"振興里","LIN":"10鄰","STREET":"長榮路","SECT":"四段","MAREA":" ","LANE":"１３５巷","ALLEY":" ","HOUSE_NO":"１９號四樓之１","E_COORD97":170198.56,"N_COORD97":2545107.25,"ADDRESS":"長榮路四段１３５巷１９號四樓之１","OBJECTID":374894},"geometry":{"x":170198.55999999959,"y":2545107.2499999981}},{"attributes":{"ID":374905,"DIS_CODE":0,"TOWNNAME":"北區","LI":"振興里","LIN":"10鄰","STREET":"長榮路","SECT":"四段","MAREA":" ","LANE":"１３５巷","ALLEY":" ","HOUSE_NO":"１９號四樓之２","E_COORD97":170198.56,"N_COORD97":2545107.25,"ADDRESS":"長榮路四段１３５巷１９號四樓之２","OBJECTID":374895},"geometry":{"x":170198.55999999959,"y":2545107.2499999981}},{"attributes":{"ID":374906,"DIS_CODE":0,"TOWNNAME":"北區","LI":"振興里","LIN":"10鄰","STREET":"長榮路","SECT":"四段","MAREA":" ","LANE":"１３５巷","ALLEY":" ","HOUSE_NO":"２１號三樓之１","E_COORD97":170192.89000000001,"N_COORD97":2545104.75,"ADDRESS":"長榮路四段１３５巷２１號三樓之１","OBJECTID":374896},"geometry":{"x":170192.88999999966,"y":2545104.7500000019}},{"attributes":{"ID":374907,"DIS_CODE":0,"TOWNNAME":"北區","LI":"振興里","LIN":"10鄰","STREET":"長榮路","SECT":"四段","MAREA":" ","LANE":"１３５巷","ALLEY":" ","HOUSE_NO":"２１號三樓之２","E_COORD97":170192.89000000001,"N_COORD97":2545104.75,"ADDRESS":"長榮路四段１３５巷２１號三樓之２","OBJECTID":374897},"geometry":{"x":170192.88999999966,"y":2545104.7500000019}},{"attributes":{"ID":374908,"DIS_CODE":0,"TOWNNAME":"北區","LI":"振興里","LIN":"10鄰","STREET":"長榮路","SECT":"四段","MAREA":" ","LANE":"１３５巷","ALLEY":" ","HOUSE_NO":"２１號五樓之１","E_COORD97":170192.89000000001,"N_COORD97":2545104.75,"ADDRESS":"長榮路四段１３５巷２１號五樓之１","OBJECTID":374898},"geometry":{"x":170192.88999999966,"y":2545104.7500000019}},{"attributes":{"ID":374909,"DIS_CODE":0,"TOWNNAME":"北區","LI":"振興里","LIN":"10鄰","STREET":"長榮路","SECT":"四段","MAREA":" ","LANE":"１３５巷","ALLEY":" ","HOUSE_NO":"２１號五樓之２","E_COORD97":170192.89000000001,"N_COORD97":2545104.75,"ADDRESS":"長榮路四段１３５巷２１號五樓之２","OBJECTID":374899},"geometry":{"x":170192.88999999966,"y":2545104.7500000019}},{"attributes":{"ID":374910,"DIS_CODE":0,"TOWNNAME":"北區","LI":"振興里","LIN":"10鄰","STREET":"長榮路","SECT":"四段","MAREA":" ","LANE":"１３５巷","ALLEY":" ","HOUSE_NO":"２１號四樓之１","E_COORD97":170192.89000000001,"N_COORD97":2545104.75,"ADDRESS":"長榮路四段１３５巷２１號四樓之１","OBJECTID":374900},"geometry":{"x":170192.88999999966,"y":2545104.7500000019}},{"attributes":{"ID":374911,"DIS_CODE":0,"TOWNNAME":"北區","LI":"振興里","LIN":"10鄰","STREET":"長榮路","SECT":"四段","MAREA":" ","LANE":"１３５巷","ALLEY":" ","HOUSE_NO":"２１號四樓之２","E_COORD97":170192.89000000001,"N_COORD97":2545104.75,"ADDRESS":"長榮路四段１３５巷２１號四樓之２","OBJECTID":374901},"geometry":{"x":170192.88999999966,"y":2545104.7500000019}},{"attributes":{"ID":374912,"DIS_CODE":0,"TOWNNAME":"北區","LI":"國姓里","LIN":"10鄰","STREET":"小北路","SECT":" ","MAREA":" ","LANE":"２７巷","ALLEY":" ","HOUSE_NO":"２０號二樓之１","E_COORD97":168860.32999999999,"N_COORD97":2545345.5899999999,"ADDRESS":"小北路２７巷２０號二樓之１","OBJECTID":374902},"geometry":{"x":168860.32999999914,"y":2545345.589999998}},{"attributes":{"ID":374913,"DIS_CODE":0,"TOWNNAME":"北區","LI":"國姓里","LIN":"10鄰","STREET":"小北路","SECT":" ","MAREA":" ","LANE":"２７巷","ALLEY":" ","HOUSE_NO":"２０號二樓之２","E_COORD97":168860.32999999999,"N_COORD97":2545345.5899999999,"ADDRESS":"小北路２７巷２０號二樓之２","OBJECTID":374903},"geometry":{"x":168860.32999999914,"y":2545345.589999998}},{"attributes":{"ID":374914,"DIS_CODE":0,"TOWNNAME":"北區","LI":"國姓里","LIN":"10鄰","STREET":"小北路","SECT":" ","MAREA":" ","LANE":"２７巷","ALLEY":" ","HOUSE_NO":"２０號二樓之３","E_COORD97":168860.32999999999,"N_COORD97":2545345.5899999999,"ADDRESS":"小北路２７巷２０號二樓之３","OBJECTID":374904},"geometry":{"x":168860.32999999914,"y":2545345.589999998}},{"attributes":{"ID":374915,"DIS_CODE":0,"TOWNNAME":"北區","LI":"國姓里","LIN":"10鄰","STREET":"小北路","SECT":" ","MAREA":" ","LANE":"２７巷","ALLEY":" ","HOUSE_NO":"２０號二樓之４","E_COORD97":168860.32999999999,"N_COORD97":2545345.5899999999,"ADDRESS":"小北路２７巷２０號二樓之４","OBJECTID":374905},"geometry":{"x":168860.32999999914,"y":2545345.589999998}},{"attributes":{"ID":374916,"DIS_CODE":0,"TOWNNAME":"北區","LI":"國姓里","LIN":"10鄰","STREET":"小北路","SECT":" ","MAREA":" ","LANE":"２７巷","ALLEY":" ","HOUSE_NO":"２０號二樓之５","E_COORD97":168860.32999999999,"N_COORD97":2545345.5899999999,"ADDRESS":"小北路２７巷２０號二樓之５","OBJECTID":374906},"geometry":{"x":168860.32999999914,"y":2545345.589999998}},{"attributes":{"ID":374917,"DIS_CODE":0,"TOWNNAME":"北區","LI":"國姓里","LIN":"10鄰","STREET":"小北路","SECT":" ","MAREA":" ","LANE":"２７巷","ALLEY":" ","HOUSE_NO":"２０號二樓之６","E_COORD97":168860.32999999999,"N_COORD97":2545345.5899999999,"ADDRESS":"小北路２７巷２０號二樓之６","OBJECTID":374907},"geometry":{"x":168860.32999999914,"y":2545345.589999998}},{"attributes":{"ID":374918,"DIS_CODE":0,"TOWNNAME":"北區","LI":"國姓里","LIN":"10鄰","STREET":"小北路","SECT":" ","MAREA":" ","LANE":"２７巷","ALLEY":" ","HOUSE_NO":"２０號二樓之７","E_COORD97":168860.32999999999,"N_COORD97":2545345.5899999999,"ADDRESS":"小北路２７巷２０號二樓之７","OBJECTID":374908},"geometry":{"x":168860.32999999914,"y":2545345.589999998}},{"attributes":{"ID":374919,"DIS_CODE":0,"TOWNNAME":"北區","LI":"國姓里","LIN":"10鄰","STREET":"小北路","SECT":" ","MAREA":" ","LANE":"２７巷","ALLEY":" ","HOUSE_NO":"２０號二樓之８","E_COORD97":168860.32999999999,"N_COORD97":2545345.5899999999,"ADDRESS":"小北路２７巷２０號二樓之８","OBJECTID":374909},"geometry":{"x":168860.32999999914,"y":2545345.589999998}},{"attributes":{"ID":374920,"DIS_CODE":0,"TOWNNAME":"北區","LI":"國姓里","LIN":"10鄰","STREET":"小北路","SECT":" ","MAREA":" ","LANE":"２７巷","ALLEY":" ","HOUSE_NO":"２０號三樓之１","E_COORD97":168860.32999999999,"N_COORD97":2545345.5899999999,"ADDRESS":"小北路２７巷２０號三樓之１","OBJECTID":374910},"geometry":{"x":168860.32999999914,"y":2545345.589999998}},{"attributes":{"ID":374921,"DIS_CODE":0,"TOWNNAME":"北區","LI":"國姓里","LIN":"10鄰","STREET":"小北路","SECT":" ","MAREA":" ","LANE":"２７巷","ALLEY":" ","HOUSE_NO":"２０號三樓之２","E_COORD97":168860.32999999999,"N_COORD97":2545345.5899999999,"ADDRESS":"小北路２７巷２０號三樓之２","OBJECTID":374911},"geometry":{"x":168860.32999999914,"y":2545345.589999998}},{"attributes":{"ID":374922,"DIS_CODE":0,"TOWNNAME":"北區","LI":"國姓里","LIN":"10鄰","STREET":"小北路","SECT":" ","MAREA":" ","LANE":"２７巷","ALLEY":" ","HOUSE_NO":"２０號三樓之３","E_COORD97":168860.32999999999,"N_COORD97":2545345.5899999999,"ADDRESS":"小北路２７巷２０號三樓之３","OBJECTID":374912},"geometry":{"x":168860.32999999914,"y":2545345.589999998}},{"attributes":{"ID":374923,"DIS_CODE":0,"TOWNNAME":"北區","LI":"國姓里","LIN":"10鄰","STREET":"小北路","SECT":" ","MAREA":" ","LANE":"２７巷","ALLEY":" ","HOUSE_NO":"２０號三樓之４","E_COORD97":168860.32999999999,"N_COORD97":2545345.5899999999,"ADDRESS":"小北路２７巷２０號三樓之４","OBJECTID":374913},"geometry":{"x":168860.32999999914,"y":2545345.589999998}},{"attributes":{"ID":374924,"DIS_CODE":0,"TOWNNAME":"北區","LI":"國姓里","LIN":"10鄰","STREET":"小北路","SECT":" ","MAREA":" ","LANE":"２７巷","ALLEY":" ","HOUSE_NO":"２０號三樓之５","E_COORD97":168860.32999999999,"N_COORD97":2545345.5899999999,"ADDRESS":"小北路２７巷２０號三樓之５","OBJECTID":374914},"geometry":{"x":168860.32999999914,"y":2545345.589999998}},{"attributes":{"ID":374925,"DIS_CODE":0,"TOWNNAME":"北區","LI":"國姓里","LIN":"10鄰","STREET":"小北路","SECT":" ","MAREA":" ","LANE":"２７巷","ALLEY":" ","HOUSE_NO":"２０號三樓之６","E_COORD97":168860.32999999999,"N_COORD97":2545345.5899999999,"ADDRESS":"小北路２７巷２０號三樓之６","OBJECTID":374915},"geometry":{"x":168860.32999999914,"y":2545345.589999998}},{"attributes":{"ID":374926,"DIS_CODE":0,"TOWNNAME":"北區","LI":"國姓里","LIN":"10鄰","STREET":"小北路","SECT":" ","MAREA":" ","LANE":"２７巷","ALLEY":" ","HOUSE_NO":"２０號三樓之７","E_COORD97":168860.32999999999,"N_COORD97":2545345.5899999999,"ADDRESS":"小北路２７巷２０號三樓之７","OBJECTID":374916},"geometry":{"x":168860.32999999914,"y":2545345.589999998}},{"attributes":{"ID":374927,"DIS_CODE":0,"TOWNNAME":"北區","LI":"國姓里","LIN":"10鄰","STREET":"小北路","SECT":" ","MAREA":" ","LANE":"２７巷","ALLEY":" ","HOUSE_NO":"２０號三樓之８","E_COORD97":168860.32999999999,"N_COORD97":2545345.5899999999,"ADDRESS":"小北路２７巷２０號三樓之８","OBJECTID":374917},"geometry":{"x":168860.32999999914,"y":2545345.589999998}},{"attributes":{"ID":374928,"DIS_CODE":0,"TOWNNAME":"北區","LI":"國姓里","LIN":"10鄰","STREET":"小北路","SECT":" ","MAREA":" ","LANE":"２７巷","ALLEY":" ","HOUSE_NO":"２０號五樓之１","E_COORD97":168860.32999999999,"N_COORD97":2545345.5899999999,"ADDRESS":"小北路２７巷２０號五樓之１","OBJECTID":374918},"geometry":{"x":168860.32999999914,"y":2545345.589999998}},{"attributes":{"ID":374929,"DIS_CODE":0,"TOWNNAME":"北區","LI":"國姓里","LIN":"10鄰","STREET":"小北路","SECT":" ","MAREA":" ","LANE":"２７巷","ALLEY":" ","HOUSE_NO":"２０號五樓之２","E_COORD97":168860.32999999999,"N_COORD97":2545345.5899999999,"ADDRESS":"小北路２７巷２０號五樓之２","OBJECTID":374919},"geometry":{"x":168860.32999999914,"y":2545345.589999998}},{"attributes":{"ID":374930,"DIS_CODE":0,"TOWNNAME":"北區","LI":"國姓里","LIN":"10鄰","STREET":"小北路","SECT":" ","MAREA":" ","LANE":"２７巷","ALLEY":" ","HOUSE_NO":"２０號五樓之３","E_COORD97":168860.32999999999,"N_COORD97":2545345.5899999999,"ADDRESS":"小北路２７巷２０號五樓之３","OBJECTID":374920},"geometry":{"x":168860.32999999914,"y":2545345.589999998}},{"attributes":{"ID":374931,"DIS_CODE":0,"TOWNNAME":"北區","LI":"國姓里","LIN":"10鄰","STREET":"小北路","SECT":" ","MAREA":" ","LANE":"２７巷","ALLEY":" ","HOUSE_NO":"２０號五樓之４","E_COORD97":168860.32999999999,"N_COORD97":2545345.5899999999,"ADDRESS":"小北路２７巷２０號五樓之４","OBJECTID":374921},"geometry":{"x":168860.32999999914,"y":2545345.589999998}},{"attributes":{"ID":374932,"DIS_CODE":0,"TOWNNAME":"北區","LI":"國姓里","LIN":"10鄰","STREET":"小北路","SECT":" ","MAREA":" ","LANE":"２７巷","ALLEY":" ","HOUSE_NO":"２０號五樓之５","E_COORD97":168860.32999999999,"N_COORD97":2545345.5899999999,"ADDRESS":"小北路２７巷２０號五樓之５","OBJECTID":374922},"geometry":{"x":168860.32999999914,"y":2545345.589999998}},{"attributes":{"ID":374933,"DIS_CODE":0,"TOWNNAME":"北區","LI":"國姓里","LIN":"10鄰","STREET":"小北路","SECT":" ","MAREA":" ","LANE":"２７巷","ALLEY":" ","HOUSE_NO":"２０號五樓之６","E_COORD97":168860.32999999999,"N_COORD97":2545345.5899999999,"ADDRESS":"小北路２７巷２０號五樓之６","OBJECTID":374923},"geometry":{"x":168860.32999999914,"y":2545345.589999998}},{"attributes":{"ID":374934,"DIS_CODE":0,"TOWNNAME":"北區","LI":"國姓里","LIN":"10鄰","STREET":"小北路","SECT":" ","MAREA":" ","LANE":"２７巷","ALLEY":" ","HOUSE_NO":"２０號五樓之７","E_COORD97":168860.32999999999,"N_COORD97":2545345.5899999999,"ADDRESS":"小北路２７巷２０號五樓之７","OBJECTID":374924},"geometry":{"x":168860.32999999914,"y":2545345.589999998}},{"attributes":{"ID":374935,"DIS_CODE":0,"TOWNNAME":"北區","LI":"國姓里","LIN":"10鄰","STREET":"小北路","SECT":" ","MAREA":" ","LANE":"２７巷","ALLEY":" ","HOUSE_NO":"２０號五樓之８","E_COORD97":168860.32999999999,"N_COORD97":2545345.5899999999,"ADDRESS":"小北路２７巷２０號五樓之８","OBJECTID":374925},"geometry":{"x":168860.32999999914,"y":2545345.589999998}},{"attributes":{"ID":374936,"DIS_CODE":0,"TOWNNAME":"北區","LI":"國姓里","LIN":"10鄰","STREET":"小北路","SECT":" ","MAREA":" ","LANE":"２７巷","ALLEY":" ","HOUSE_NO":"２０號四樓之１","E_COORD97":168860.32999999999,"N_COORD97":2545345.5899999999,"ADDRESS":"小北路２７巷２０號四樓之１","OBJECTID":374926},"geometry":{"x":168860.32999999914,"y":2545345.589999998}},{"attributes":{"ID":374937,"DIS_CODE":0,"TOWNNAME":"北區","LI":"國姓里","LIN":"10鄰","STREET":"小北路","SECT":" ","MAREA":" ","LANE":"２７巷","ALLEY":" ","HOUSE_NO":"２０號四樓之２","E_COORD97":168860.32999999999,"N_COORD97":2545345.5899999999,"ADDRESS":"小北路２７巷２０號四樓之２","OBJECTID":374927},"geometry":{"x":168860.32999999914,"y":2545345.589999998}},{"attributes":{"ID":374938,"DIS_CODE":0,"TOWNNAME":"北區","LI":"國姓里","LIN":"10鄰","STREET":"小北路","SECT":" ","MAREA":" ","LANE":"２７巷","ALLEY":" ","HOUSE_NO":"２０號四樓之３","E_COORD97":168860.32999999999,"N_COORD97":2545345.5899999999,"ADDRESS":"小北路２７巷２０號四樓之３","OBJECTID":374928},"geometry":{"x":168860.32999999914,"y":2545345.589999998}},{"attributes":{"ID":374939,"DIS_CODE":0,"TOWNNAME":"北區","LI":"國姓里","LIN":"10鄰","STREET":"小北路","SECT":" ","MAREA":" ","LANE":"２７巷","ALLEY":" ","HOUSE_NO":"２０號四樓之４","E_COORD97":168860.32999999999,"N_COORD97":2545345.5899999999,"ADDRESS":"小北路２７巷２０號四樓之４","OBJECTID":374929},"geometry":{"x":168860.32999999914,"y":2545345.589999998}},{"attributes":{"ID":374940,"DIS_CODE":0,"TOWNNAME":"北區","LI":"國姓里","LIN":"10鄰","STREET":"小北路","SECT":" ","MAREA":" ","LANE":"２７巷","ALLEY":" ","HOUSE_NO":"２０號四樓之５","E_COORD97":168860.32999999999,"N_COORD97":2545345.5899999999,"ADDRESS":"小北路２７巷２０號四樓之５","OBJECTID":374930},"geometry":{"x":168860.32999999914,"y":2545345.589999998}},{"attributes":{"ID":374941,"DIS_CODE":0,"TOWNNAME":"北區","LI":"國姓里","LIN":"10鄰","STREET":"小北路","SECT":" ","MAREA":" ","LANE":"２７巷","ALLEY":" ","HOUSE_NO":"２０號四樓之６","E_COORD97":168860.32999999999,"N_COORD97":2545345.5899999999,"ADDRESS":"小北路２７巷２０號四樓之６","OBJECTID":374931},"geometry":{"x":168860.32999999914,"y":2545345.589999998}},{"attributes":{"ID":374942,"DIS_CODE":0,"TOWNNAME":"北區","LI":"國姓里","LIN":"10鄰","STREET":"小北路","SECT":" ","MAREA":" ","LANE":"２７巷","ALLEY":" ","HOUSE_NO":"２０號四樓之７","E_COORD97":168860.32999999999,"N_COORD97":2545345.5899999999,"ADDRESS":"小北路２７巷２０號四樓之７","OBJECTID":374932},"geometry":{"x":168860.32999999914,"y":2545345.589999998}},{"attributes":{"ID":374943,"DIS_CODE":0,"TOWNNAME":"北區","LI":"國姓里","LIN":"10鄰","STREET":"小北路","SECT":" ","MAREA":" ","LANE":"２７巷","ALLEY":" ","HOUSE_NO":"２０號四樓之８","E_COORD97":168860.32999999999,"N_COORD97":2545345.5899999999,"ADDRESS":"小北路２７巷２０號四樓之８","OBJECTID":374933},"geometry":{"x":168860.32999999914,"y":2545345.589999998}},{"attributes":{"ID":374944,"DIS_CODE":0,"TOWNNAME":"南區","LI":"文華里","LIN":"10鄰","STREET":"建南路","SECT":" ","MAREA":" ","LANE":"１０２巷","ALLEY":" ","HOUSE_NO":"１３號二樓之１","E_COORD97":167073.60000000001,"N_COORD97":2542903.4199999999,"ADDRESS":"建南路１０２巷１３號二樓之１","OBJECTID":374934},"geometry":{"x":167073.60000000056,"y":2542903.4200000018}},{"attributes":{"ID":374945,"DIS_CODE":0,"TOWNNAME":"南區","LI":"文華里","LIN":"10鄰","STREET":"建南路","SECT":" ","MAREA":" ","LANE":"１０２巷","ALLEY":" ","HOUSE_NO":"１３號二樓之２","E_COORD97":167073.60000000001,"N_COORD97":2542903.4199999999,"ADDRESS":"建南路１０２巷１３號二樓之２","OBJECTID":374935},"geometry":{"x":167073.60000000056,"y":2542903.4200000018}},{"attributes":{"ID":374946,"DIS_CODE":0,"TOWNNAME":"南區","LI":"文華里","LIN":"10鄰","STREET":"建南路","SECT":" ","MAREA":" ","LANE":"１０２巷","ALLEY":" ","HOUSE_NO":"１３號三樓之１","E_COORD97":167073.60000000001,"N_COORD97":2542903.4199999999,"ADDRESS":"建南路１０２巷１３號三樓之１","OBJECTID":374936},"geometry":{"x":167073.60000000056,"y":2542903.4200000018}},{"attributes":{"ID":374947,"DIS_CODE":0,"TOWNNAME":"南區","LI":"文華里","LIN":"10鄰","STREET":"建南路","SECT":" ","MAREA":" ","LANE":"１０２巷","ALLEY":" ","HOUSE_NO":"１３號三樓之２","E_COORD97":167073.60000000001,"N_COORD97":2542903.4199999999,"ADDRESS":"建南路１０２巷１３號三樓之２","OBJECTID":374937},"geometry":{"x":167073.60000000056,"y":2542903.4200000018}},{"attributes":{"ID":374948,"DIS_CODE":0,"TOWNNAME":"南區","LI":"文華里","LIN":"10鄰","STREET":"建南路","SECT":" ","MAREA":" ","LANE":"１０２巷","ALLEY":" ","HOUSE_NO":"１３號三樓之３","E_COORD97":167073.60000000001,"N_COORD97":2542903.4199999999,"ADDRESS":"建南路１０２巷１３號三樓之３","OBJECTID":374938},"geometry":{"x":167073.60000000056,"y":2542903.4200000018}},{"attributes":{"ID":374949,"DIS_CODE":0,"TOWNNAME":"南區","LI":"文華里","LIN":"10鄰","STREET":"建南路","SECT":" ","MAREA":" ","LANE":"１０２巷","ALLEY":" ","HOUSE_NO":"１３號五樓之１","E_COORD97":167073.60000000001,"N_COORD97":2542903.4199999999,"ADDRESS":"建南路１０２巷１３號五樓之１","OBJECTID":374939},"geometry":{"x":167073.60000000056,"y":2542903.4200000018}},{"attributes":{"ID":374950,"DIS_CODE":0,"TOWNNAME":"南區","LI":"文華里","LIN":"10鄰","STREET":"建南路","SECT":" ","MAREA":" ","LANE":"１０２巷","ALLEY":" ","HOUSE_NO":"１３號五樓之２","E_COORD97":167073.60000000001,"N_COORD97":2542903.4199999999,"ADDRESS":"建南路１０２巷１３號五樓之２","OBJECTID":374940},"geometry":{"x":167073.60000000056,"y":2542903.4200000018}},{"attributes":{"ID":374951,"DIS_CODE":0,"TOWNNAME":"南區","LI":"文華里","LIN":"10鄰","STREET":"建南路","SECT":" ","MAREA":" ","LANE":"１０２巷","ALLEY":" ","HOUSE_NO":"１３號五樓之３","E_COORD97":167073.60000000001,"N_COORD97":2542903.4199999999,"ADDRESS":"建南路１０２巷１３號五樓之３","OBJECTID":374941},"geometry":{"x":167073.60000000056,"y":2542903.4200000018}},{"attributes":{"ID":374952,"DIS_CODE":0,"TOWNNAME":"南區","LI":"文華里","LIN":"10鄰","STREET":"建南路","SECT":" ","MAREA":" ","LANE":"１０２巷","ALLEY":" ","HOUSE_NO":"１３號四樓之１","E_COORD97":167073.60000000001,"N_COORD97":2542903.4199999999,"ADDRESS":"建南路１０２巷１３號四樓之１","OBJECTID":374942},"geometry":{"x":167073.60000000056,"y":2542903.4200000018}},{"attributes":{"ID":374953,"DIS_CODE":0,"TOWNNAME":"南區","LI":"文華里","LIN":"10鄰","STREET":"建南路","SECT":" ","MAREA":" ","LANE":"１０２巷","ALLEY":" ","HOUSE_NO":"１３號四樓之２","E_COORD97":167073.60000000001,"N_COORD97":2542903.4199999999,"ADDRESS":"建南路１０２巷１３號四樓之２","OBJECTID":374943},"geometry":{"x":167073.60000000056,"y":2542903.4200000018}},{"attributes":{"ID":374954,"DIS_CODE":0,"TOWNNAME":"下營區","LI":"宅內里","LIN":"10鄰","STREET":"玄德街","SECT":" ","MAREA":" ","LANE":"４３巷","ALLEY":" ","HOUSE_NO":"９號","E_COORD97":174298.45999999999,"N_COORD97":2570580.9199999999,"ADDRESS":"玄德街４３巷９號","OBJECTID":374944},"geometry":{"x":174298.45999999996,"y":2570580.9199999999}},{"attributes":{"ID":374955,"DIS_CODE":0,"TOWNNAME":"南區","LI":"文華里","LIN":"10鄰","STREET":"建南路","SECT":" ","MAREA":" ","LANE":"１０２巷","ALLEY":" ","HOUSE_NO":"１３號三樓","E_COORD97":167073.60000000001,"N_COORD97":2542903.4199999999,"ADDRESS":"建南路１０２巷１３號三樓","OBJECTID":374945},"geometry":{"x":167073.60000000056,"y":2542903.4200000018}},{"attributes":{"ID":374956,"DIS_CODE":0,"TOWNNAME":"歸仁區","LI":"辜厝里","LIN":"10鄰","STREET":"中正南路","SECT":"一段","MAREA":" ","LANE":"７６巷","ALLEY":" ","HOUSE_NO":"１９號六樓之５","E_COORD97":177517.51000000001,"N_COORD97":2540570.6000000001,"ADDRESS":"中正南路一段７６巷１９號六樓之５","OBJECTID":374946},"geometry":{"x":177517.50999999978,"y":2540570.5999999996}},{"attributes":{"ID":374957,"DIS_CODE":0,"TOWNNAME":"歸仁區","LI":"辜厝里","LIN":"10鄰","STREET":"中正南路","SECT":"一段","MAREA":" ","LANE":"７６巷","ALLEY":" ","HOUSE_NO":"１９號四樓之１","E_COORD97":177517.48000000001,"N_COORD97":2540570.6000000001,"ADDRESS":"中正南路一段７６巷１９號四樓之１","OBJECTID":374947},"geometry":{"x":177517.48000000138,"y":2540570.5999999996}},{"attributes":{"ID":374958,"DIS_CODE":0,"TOWNNAME":"歸仁區","LI":"辜厝里","LIN":"10鄰","STREET":"中正南路","SECT":"一段","MAREA":" ","LANE":"７６巷","ALLEY":" ","HOUSE_NO":"１９號四樓之５","E_COORD97":177517.51000000001,"N_COORD97":2540570.6000000001,"ADDRESS":"中正南路一段７６巷１９號四樓之５","OBJECTID":374948},"geometry":{"x":177517.50999999978,"y":2540570.5999999996}},{"attributes":{"ID":374959,"DIS_CODE":0,"TOWNNAME":"歸仁區","LI":"辜厝里","LIN":"10鄰","STREET":"中正南路","SECT":"一段","MAREA":" ","LANE":"７６巷","ALLEY":" ","HOUSE_NO":"１９號七樓之１","E_COORD97":177517.48000000001,"N_COORD97":2540570.6000000001,"ADDRESS":"中正南路一段７６巷１９號七樓之１","OBJECTID":374949},"geometry":{"x":177517.48000000138,"y":2540570.5999999996}},{"attributes":{"ID":374960,"DIS_CODE":0,"TOWNNAME":"歸仁區","LI":"辜厝里","LIN":"10鄰","STREET":"中正南路","SECT":"一段","MAREA":" ","LANE":"７６巷","ALLEY":" ","HOUSE_NO":"１９號五樓之３","E_COORD97":177517.5,"N_COORD97":2540570.6000000001,"ADDRESS":"中正南路一段７６巷１９號五樓之３","OBJECTID":374950},"geometry":{"x":177517.5,"y":2540570.5999999996}},{"attributes":{"ID":374961,"DIS_CODE":0,"TOWNNAME":"歸仁區","LI":"辜厝里","LIN":"10鄰","STREET":"中正南路","SECT":"一段","MAREA":" ","LANE":"７６巷","ALLEY":" ","HOUSE_NO":"１９號四樓之３","E_COORD97":177517.5,"N_COORD97":2540570.6000000001,"ADDRESS":"中正南路一段７６巷１９號四樓之３","OBJECTID":374951},"geometry":{"x":177517.5,"y":2540570.5999999996}},{"attributes":{"ID":374962,"DIS_CODE":0,"TOWNNAME":"北區","LI":"正覺里","LIN":"10鄰","STREET":"公園路","SECT":" ","MAREA":" ","LANE":"５９７巷","ALLEY":" ","HOUSE_NO":"２號二樓之１","E_COORD97":169263.35000000001,"N_COORD97":2546117.02,"ADDRESS":"公園路５９７巷２號二樓之１","OBJECTID":374952},"geometry":{"x":169263.35000000149,"y":2546117.0200000014}},{"attributes":{"ID":374963,"DIS_CODE":0,"TOWNNAME":"北區","LI":"正覺里","LIN":"10鄰","STREET":"公園路","SECT":" ","MAREA":" ","LANE":"５９７巷","ALLEY":" ","HOUSE_NO":"２號二樓之１０","E_COORD97":169263.35000000001,"N_COORD97":2546117.02,"ADDRESS":"公園路５９７巷２號二樓之１０","OBJECTID":374953},"geometry":{"x":169263.35000000149,"y":2546117.0200000014}},{"attributes":{"ID":374964,"DIS_CODE":0,"TOWNNAME":"北區","LI":"正覺里","LIN":"10鄰","STREET":"公園路","SECT":" ","MAREA":" ","LANE":"５９７巷","ALLEY":" ","HOUSE_NO":"２號二樓之１１","E_COORD97":169263.35000000001,"N_COORD97":2546117.02,"ADDRESS":"公園路５９７巷２號二樓之１１","OBJECTID":374954},"geometry":{"x":169263.35000000149,"y":2546117.0200000014}},{"attributes":{"ID":374965,"DIS_CODE":0,"TOWNNAME":"北區","LI":"正覺里","LIN":"10鄰","STREET":"公園路","SECT":" ","MAREA":" ","LANE":"５９７巷","ALLEY":" ","HOUSE_NO":"２號二樓之１２","E_COORD97":169263.35000000001,"N_COORD97":2546117.02,"ADDRESS":"公園路５９７巷２號二樓之１２","OBJECTID":374955},"geometry":{"x":169263.35000000149,"y":2546117.0200000014}},{"attributes":{"ID":374966,"DIS_CODE":0,"TOWNNAME":"北區","LI":"正覺里","LIN":"10鄰","STREET":"公園路","SECT":" ","MAREA":" ","LANE":"５９７巷","ALLEY":" ","HOUSE_NO":"２號二樓之２","E_COORD97":169263.35000000001,"N_COORD97":2546117.02,"ADDRESS":"公園路５９７巷２號二樓之２","OBJECTID":374956},"geometry":{"x":169263.35000000149,"y":2546117.0200000014}},{"attributes":{"ID":374967,"DIS_CODE":0,"TOWNNAME":"北區","LI":"正覺里","LIN":"10鄰","STREET":"公園路","SECT":" ","MAREA":" ","LANE":"５９７巷","ALLEY":" ","HOUSE_NO":"２號二樓之３","E_COORD97":169263.35000000001,"N_COORD97":2546117.02,"ADDRESS":"公園路５９７巷２號二樓之３","OBJECTID":374957},"geometry":{"x":169263.35000000149,"y":2546117.0200000014}},{"attributes":{"ID":374968,"DIS_CODE":0,"TOWNNAME":"北區","LI":"正覺里","LIN":"10鄰","STREET":"公園路","SECT":" ","MAREA":" ","LANE":"５９７巷","ALLEY":" ","HOUSE_NO":"２號二樓之４","E_COORD97":169263.35000000001,"N_COORD97":2546117.02,"ADDRESS":"公園路５９７巷２號二樓之４","OBJECTID":374958},"geometry":{"x":169263.35000000149,"y":2546117.0200000014}},{"attributes":{"ID":374969,"DIS_CODE":0,"TOWNNAME":"北區","LI":"正覺里","LIN":"10鄰","STREET":"公園路","SECT":" ","MAREA":" ","LANE":"５９７巷","ALLEY":" ","HOUSE_NO":"２號二樓之５","E_COORD97":169263.35000000001,"N_COORD97":2546117.02,"ADDRESS":"公園路５９７巷２號二樓之５","OBJECTID":374959},"geometry":{"x":169263.35000000149,"y":2546117.0200000014}},{"attributes":{"ID":374970,"DIS_CODE":0,"TOWNNAME":"北區","LI":"正覺里","LIN":"10鄰","STREET":"公園路","SECT":" ","MAREA":" ","LANE":"５９７巷","ALLEY":" ","HOUSE_NO":"２號二樓之６","E_COORD97":169263.35000000001,"N_COORD97":2546117.02,"ADDRESS":"公園路５９７巷２號二樓之６","OBJECTID":374960},"geometry":{"x":169263.35000000149,"y":2546117.0200000014}},{"attributes":{"ID":374971,"DIS_CODE":0,"TOWNNAME":"北區","LI":"正覺里","LIN":"10鄰","STREET":"公園路","SECT":" ","MAREA":" ","LANE":"５９７巷","ALLEY":" ","HOUSE_NO":"２號二樓之７","E_COORD97":169263.35000000001,"N_COORD97":2546117.02,"ADDRESS":"公園路５９７巷２號二樓之７","OBJECTID":374961},"geometry":{"x":169263.35000000149,"y":2546117.0200000014}},{"attributes":{"ID":374972,"DIS_CODE":0,"TOWNNAME":"北區","LI":"正覺里","LIN":"10鄰","STREET":"公園路","SECT":" ","MAREA":" ","LANE":"５９７巷","ALLEY":" ","HOUSE_NO":"２號二樓之８","E_COORD97":169263.35000000001,"N_COORD97":2546117.02,"ADDRESS":"公園路５９７巷２號二樓之８","OBJECTID":374962},"geometry":{"x":169263.35000000149,"y":2546117.0200000014}},{"attributes":{"ID":374973,"DIS_CODE":0,"TOWNNAME":"北區","LI":"正覺里","LIN":"10鄰","STREET":"公園路","SECT":" ","MAREA":" ","LANE":"５９７巷","ALLEY":" ","HOUSE_NO":"２號二樓之９","E_COORD97":169263.35000000001,"N_COORD97":2546117.02,"ADDRESS":"公園路５９７巷２號二樓之９","OBJECTID":374963},"geometry":{"x":169263.35000000149,"y":2546117.0200000014}},{"attributes":{"ID":374974,"DIS_CODE":0,"TOWNNAME":"北區","LI":"正覺里","LIN":"10鄰","STREET":"公園路","SECT":" ","MAREA":" ","LANE":"５９７巷","ALLEY":" ","HOUSE_NO":"２號三樓之１","E_COORD97":169263.35000000001,"N_COORD97":2546117.02,"ADDRESS":"公園路５９７巷２號三樓之１","OBJECTID":374964},"geometry":{"x":169263.35000000149,"y":2546117.0200000014}},{"attributes":{"ID":374975,"DIS_CODE":0,"TOWNNAME":"北區","LI":"正覺里","LIN":"10鄰","STREET":"公園路","SECT":" ","MAREA":" ","LANE":"５９７巷","ALLEY":" ","HOUSE_NO":"２號三樓之１０","E_COORD97":169263.35000000001,"N_COORD97":2546117.02,"ADDRESS":"公園路５９７巷２號三樓之１０","OBJECTID":374965},"geometry":{"x":169263.35000000149,"y":2546117.0200000014}},{"attributes":{"ID":374976,"DIS_CODE":0,"TOWNNAME":"北區","LI":"正覺里","LIN":"10鄰","STREET":"公園路","SECT":" ","MAREA":" ","LANE":"５９７巷","ALLEY":" ","HOUSE_NO":"２號三樓之１１","E_COORD97":169263.35000000001,"N_COORD97":2546117.02,"ADDRESS":"公園路５９７巷２號三樓之１１","OBJECTID":374966},"geometry":{"x":169263.35000000149,"y":2546117.0200000014}},{"attributes":{"ID":374977,"DIS_CODE":0,"TOWNNAME":"北區","LI":"正覺里","LIN":"10鄰","STREET":"公園路","SECT":" ","MAREA":" ","LANE":"５９７巷","ALLEY":" ","HOUSE_NO":"２號三樓之１２","E_COORD97":169263.35000000001,"N_COORD97":2546117.02,"ADDRESS":"公園路５９７巷２號三樓之１２","OBJECTID":374967},"geometry":{"x":169263.35000000149,"y":2546117.0200000014}},{"attributes":{"ID":374978,"DIS_CODE":0,"TOWNNAME":"北區","LI":"正覺里","LIN":"10鄰","STREET":"公園路","SECT":" ","MAREA":" ","LANE":"５９７巷","ALLEY":" ","HOUSE_NO":"２號三樓之２","E_COORD97":169263.35000000001,"N_COORD97":2546117.02,"ADDRESS":"公園路５９７巷２號三樓之２","OBJECTID":374968},"geometry":{"x":169263.35000000149,"y":2546117.0200000014}},{"attributes":{"ID":374979,"DIS_CODE":0,"TOWNNAME":"北區","LI":"正覺里","LIN":"10鄰","STREET":"公園路","SECT":" ","MAREA":" ","LANE":"５９７巷","ALLEY":" ","HOUSE_NO":"２號三樓之３","E_COORD97":169263.35000000001,"N_COORD97":2546117.02,"ADDRESS":"公園路５９７巷２號三樓之３","OBJECTID":374969},"geometry":{"x":169263.35000000149,"y":2546117.0200000014}},{"attributes":{"ID":374980,"DIS_CODE":0,"TOWNNAME":"北區","LI":"正覺里","LIN":"10鄰","STREET":"公園路","SECT":" ","MAREA":" ","LANE":"５９７巷","ALLEY":" ","HOUSE_NO":"２號三樓之４","E_COORD97":169263.35000000001,"N_COORD97":2546117.02,"ADDRESS":"公園路５９７巷２號三樓之４","OBJECTID":374970},"geometry":{"x":169263.35000000149,"y":2546117.0200000014}},{"attributes":{"ID":374981,"DIS_CODE":0,"TOWNNAME":"北區","LI":"正覺里","LIN":"10鄰","STREET":"公園路","SECT":" ","MAREA":" ","LANE":"５９７巷","ALLEY":" ","HOUSE_NO":"２號三樓之５","E_COORD97":169263.35000000001,"N_COORD97":2546117.02,"ADDRESS":"公園路５９７巷２號三樓之５","OBJECTID":374971},"geometry":{"x":169263.35000000149,"y":2546117.0200000014}},{"attributes":{"ID":374982,"DIS_CODE":0,"TOWNNAME":"北區","LI":"正覺里","LIN":"10鄰","STREET":"公園路","SECT":" ","MAREA":" ","LANE":"５９７巷","ALLEY":" ","HOUSE_NO":"２號三樓之６","E_COORD97":169263.35000000001,"N_COORD97":2546117.02,"ADDRESS":"公園路５９７巷２號三樓之６","OBJECTID":374972},"geometry":{"x":169263.35000000149,"y":2546117.0200000014}},{"attributes":{"ID":374983,"DIS_CODE":0,"TOWNNAME":"北區","LI":"正覺里","LIN":"10鄰","STREET":"公園路","SECT":" ","MAREA":" ","LANE":"５９７巷","ALLEY":" ","HOUSE_NO":"２號三樓之７","E_COORD97":169263.35000000001,"N_COORD97":2546117.02,"ADDRESS":"公園路５９７巷２號三樓之７","OBJECTID":374973},"geometry":{"x":169263.35000000149,"y":2546117.0200000014}},{"attributes":{"ID":374984,"DIS_CODE":0,"TOWNNAME":"北區","LI":"正覺里","LIN":"10鄰","STREET":"公園路","SECT":" ","MAREA":" ","LANE":"５９７巷","ALLEY":" ","HOUSE_NO":"２號三樓之８","E_COORD97":169263.35000000001,"N_COORD97":2546117.02,"ADDRESS":"公園路５９７巷２號三樓之８","OBJECTID":374974},"geometry":{"x":169263.35000000149,"y":2546117.0200000014}},{"attributes":{"ID":374985,"DIS_CODE":0,"TOWNNAME":"北區","LI":"正覺里","LIN":"10鄰","STREET":"公園路","SECT":" ","MAREA":" ","LANE":"５９７巷","ALLEY":" ","HOUSE_NO":"２號三樓之９","E_COORD97":169263.35000000001,"N_COORD97":2546117.02,"ADDRESS":"公園路５９７巷２號三樓之９","OBJECTID":374975},"geometry":{"x":169263.35000000149,"y":2546117.0200000014}},{"attributes":{"ID":374986,"DIS_CODE":0,"TOWNNAME":"北區","LI":"正覺里","LIN":"10鄰","STREET":"公園路","SECT":" ","MAREA":" ","LANE":"５９７巷","ALLEY":" ","HOUSE_NO":"２號五樓之１","E_COORD97":169263.35000000001,"N_COORD97":2546117.02,"ADDRESS":"公園路５９７巷２號五樓之１","OBJECTID":374976},"geometry":{"x":169263.35000000149,"y":2546117.0200000014}},{"attributes":{"ID":374987,"DIS_CODE":0,"TOWNNAME":"北區","LI":"正覺里","LIN":"10鄰","STREET":"公園路","SECT":" ","MAREA":" ","LANE":"５９７巷","ALLEY":" ","HOUSE_NO":"２號五樓之１０","E_COORD97":169263.35000000001,"N_COORD97":2546117.02,"ADDRESS":"公園路５９７巷２號五樓之１０","OBJECTID":374977},"geometry":{"x":169263.35000000149,"y":2546117.0200000014}},{"attributes":{"ID":374988,"DIS_CODE":0,"TOWNNAME":"北區","LI":"正覺里","LIN":"10鄰","STREET":"公園路","SECT":" ","MAREA":" ","LANE":"５９７巷","ALLEY":" ","HOUSE_NO":"２號五樓之１１","E_COORD97":169263.35000000001,"N_COORD97":2546117.02,"ADDRESS":"公園路５９７巷２號五樓之１１","OBJECTID":374978},"geometry":{"x":169263.35000000149,"y":2546117.0200000014}},{"attributes":{"ID":374989,"DIS_CODE":0,"TOWNNAME":"北區","LI":"正覺里","LIN":"10鄰","STREET":"公園路","SECT":" ","MAREA":" ","LANE":"５９７巷","ALLEY":" ","HOUSE_NO":"２號五樓之１２","E_COORD97":169263.35000000001,"N_COORD97":2546117.02,"ADDRESS":"公園路５９７巷２號五樓之１２","OBJECTID":374979},"geometry":{"x":169263.35000000149,"y":2546117.0200000014}},{"attributes":{"ID":374990,"DIS_CODE":0,"TOWNNAME":"北區","LI":"正覺里","LIN":"10鄰","STREET":"公園路","SECT":" ","MAREA":" ","LANE":"５９７巷","ALLEY":" ","HOUSE_NO":"２號五樓之１３","E_COORD97":169263.35000000001,"N_COORD97":2546117.02,"ADDRESS":"公園路５９７巷２號五樓之１３","OBJECTID":374980},"geometry":{"x":169263.35000000149,"y":2546117.0200000014}},{"attributes":{"ID":374991,"DIS_CODE":0,"TOWNNAME":"北區","LI":"正覺里","LIN":"10鄰","STREET":"公園路","SECT":" ","MAREA":" ","LANE":"５９７巷","ALLEY":" ","HOUSE_NO":"２號五樓之１４","E_COORD97":169263.35000000001,"N_COORD97":2546117.02,"ADDRESS":"公園路５９７巷２號五樓之１４","OBJECTID":374981},"geometry":{"x":169263.35000000149,"y":2546117.0200000014}},{"attributes":{"ID":374992,"DIS_CODE":0,"TOWNNAME":"北區","LI":"正覺里","LIN":"10鄰","STREET":"公園路","SECT":" ","MAREA":" ","LANE":"５９７巷","ALLEY":" ","HOUSE_NO":"２號五樓之１５","E_COORD97":169263.35000000001,"N_COORD97":2546117.02,"ADDRESS":"公園路５９７巷２號五樓之１５","OBJECTID":374982},"geometry":{"x":169263.35000000149,"y":2546117.0200000014}},{"attributes":{"ID":374993,"DIS_CODE":0,"TOWNNAME":"北區","LI":"正覺里","LIN":"10鄰","STREET":"公園路","SECT":" ","MAREA":" ","LANE":"５９７巷","ALLEY":" ","HOUSE_NO":"２號五樓之１６","E_COORD97":169263.35000000001,"N_COORD97":2546117.02,"ADDRESS":"公園路５９７巷２號五樓之１６","OBJECTID":374983},"geometry":{"x":169263.35000000149,"y":2546117.0200000014}},{"attributes":{"ID":374994,"DIS_CODE":0,"TOWNNAME":"北區","LI":"正覺里","LIN":"10鄰","STREET":"公園路","SECT":" ","MAREA":" ","LANE":"５９７巷","ALLEY":" ","HOUSE_NO":"２號五樓之１７","E_COORD97":169263.35000000001,"N_COORD97":2546117.02,"ADDRESS":"公園路５９７巷２號五樓之１７","OBJECTID":374984},"geometry":{"x":169263.35000000149,"y":2546117.0200000014}},{"attributes":{"ID":374995,"DIS_CODE":0,"TOWNNAME":"北區","LI":"正覺里","LIN":"10鄰","STREET":"公園路","SECT":" ","MAREA":" ","LANE":"５９７巷","ALLEY":" ","HOUSE_NO":"２號五樓之１８","E_COORD97":169263.35000000001,"N_COORD97":2546117.02,"ADDRESS":"公園路５９７巷２號五樓之１８","OBJECTID":374985},"geometry":{"x":169263.35000000149,"y":2546117.0200000014}},{"attributes":{"ID":374996,"DIS_CODE":0,"TOWNNAME":"北區","LI":"正覺里","LIN":"10鄰","STREET":"公園路","SECT":" ","MAREA":" ","LANE":"５９７巷","ALLEY":" ","HOUSE_NO":"２號五樓之１９","E_COORD97":169263.35000000001,"N_COORD97":2546117.02,"ADDRESS":"公園路５９７巷２號五樓之１９","OBJECTID":374986},"geometry":{"x":169263.35000000149,"y":2546117.0200000014}},{"attributes":{"ID":374997,"DIS_CODE":0,"TOWNNAME":"北區","LI":"正覺里","LIN":"10鄰","STREET":"公園路","SECT":" ","MAREA":" ","LANE":"５９７巷","ALLEY":" ","HOUSE_NO":"２號五樓之２","E_COORD97":169263.35000000001,"N_COORD97":2546117.02,"ADDRESS":"公園路５９７巷２號五樓之２","OBJECTID":374987},"geometry":{"x":169263.35000000149,"y":2546117.0200000014}},{"attributes":{"ID":374998,"DIS_CODE":0,"TOWNNAME":"北區","LI":"正覺里","LIN":"10鄰","STREET":"公園路","SECT":" ","MAREA":" ","LANE":"５９７巷","ALLEY":" ","HOUSE_NO":"２號五樓之２０","E_COORD97":169263.35000000001,"N_COORD97":2546117.02,"ADDRESS":"公園路５９７巷２號五樓之２０","OBJECTID":374988},"geometry":{"x":169263.35000000149,"y":2546117.0200000014}},{"attributes":{"ID":374999,"DIS_CODE":0,"TOWNNAME":"北區","LI":"正覺里","LIN":"10鄰","STREET":"公園路","SECT":" ","MAREA":" ","LANE":"５９７巷","ALLEY":" ","HOUSE_NO":"２號五樓之２１","E_COORD97":169263.35000000001,"N_COORD97":2546117.02,"ADDRESS":"公園路５９７巷２號五樓之２１","OBJECTID":374989},"geometry":{"x":169263.35000000149,"y":2546117.0200000014}},{"attributes":{"ID":375000,"DIS_CODE":0,"TOWNNAME":"北區","LI":"正覺里","LIN":"10鄰","STREET":"公園路","SECT":" ","MAREA":" ","LANE":"５９７巷","ALLEY":" ","HOUSE_NO":"２號五樓之２２","E_COORD97":169263.35000000001,"N_COORD97":2546117.02,"ADDRESS":"公園路５９７巷２號五樓之２２","OBJECTID":374990},"geometry":{"x":169263.35000000149,"y":2546117.0200000014}},{"attributes":{"ID":375001,"DIS_CODE":0,"TOWNNAME":"北區","LI":"正覺里","LIN":"10鄰","STREET":"公園路","SECT":" ","MAREA":" ","LANE":"５９７巷","ALLEY":" ","HOUSE_NO":"２號五樓之２３","E_COORD97":169263.35000000001,"N_COORD97":2546117.02,"ADDRESS":"公園路５９７巷２號五樓之２３","OBJECTID":374991},"geometry":{"x":169263.35000000149,"y":2546117.0200000014}},{"attributes":{"ID":375002,"DIS_CODE":0,"TOWNNAME":"北區","LI":"正覺里","LIN":"10鄰","STREET":"公園路","SECT":" ","MAREA":" ","LANE":"５９７巷","ALLEY":" ","HOUSE_NO":"２號五樓之２４","E_COORD97":169263.35000000001,"N_COORD97":2546117.02,"ADDRESS":"公園路５９７巷２號五樓之２４","OBJECTID":374992},"geometry":{"x":169263.35000000149,"y":2546117.0200000014}},{"attributes":{"ID":375003,"DIS_CODE":0,"TOWNNAME":"北區","LI":"正覺里","LIN":"10鄰","STREET":"公園路","SECT":" ","MAREA":" ","LANE":"５９７巷","ALLEY":" ","HOUSE_NO":"２號五樓之３","E_COORD97":169263.35000000001,"N_COORD97":2546117.02,"ADDRESS":"公園路５９７巷２號五樓之３","OBJECTID":374993},"geometry":{"x":169263.35000000149,"y":2546117.0200000014}},{"attributes":{"ID":375004,"DIS_CODE":0,"TOWNNAME":"北區","LI":"正覺里","LIN":"10鄰","STREET":"公園路","SECT":" ","MAREA":" ","LANE":"５９７巷","ALLEY":" ","HOUSE_NO":"２號五樓之４","E_COORD97":169263.35000000001,"N_COORD97":2546117.02,"ADDRESS":"公園路５９７巷２號五樓之４","OBJECTID":374994},"geometry":{"x":169263.35000000149,"y":2546117.0200000014}},{"attributes":{"ID":375005,"DIS_CODE":0,"TOWNNAME":"北區","LI":"正覺里","LIN":"10鄰","STREET":"公園路","SECT":" ","MAREA":" ","LANE":"５９７巷","ALLEY":" ","HOUSE_NO":"２號五樓之５","E_COORD97":169263.35000000001,"N_COORD97":2546117.02,"ADDRESS":"公園路５９７巷２號五樓之５","OBJECTID":374995},"geometry":{"x":169263.35000000149,"y":2546117.0200000014}},{"attributes":{"ID":375006,"DIS_CODE":0,"TOWNNAME":"北區","LI":"正覺里","LIN":"10鄰","STREET":"公園路","SECT":" ","MAREA":" ","LANE":"５９７巷","ALLEY":" ","HOUSE_NO":"２號四樓之８","E_COORD97":169263.35000000001,"N_COORD97":2546117.02,"ADDRESS":"公園路５９７巷２號四樓之８","OBJECTID":374996},"geometry":{"x":169263.35000000149,"y":2546117.0200000014}},{"attributes":{"ID":375007,"DIS_CODE":0,"TOWNNAME":"北區","LI":"正覺里","LIN":"10鄰","STREET":"公園路","SECT":" ","MAREA":" ","LANE":"５９７巷","ALLEY":" ","HOUSE_NO":"２號四樓之９","E_COORD97":169263.35000000001,"N_COORD97":2546117.02,"ADDRESS":"公園路５９７巷２號四樓之９","OBJECTID":374997},"geometry":{"x":169263.35000000149,"y":2546117.0200000014}},{"attributes":{"ID":375008,"DIS_CODE":0,"TOWNNAME":"安南區","LI":"淵東里","LIN":"5鄰","STREET":"本原街","SECT":"三段","MAREA":" ","LANE":"１３６巷","ALLEY":" ","HOUSE_NO":"２８號","E_COORD97":165501.79000000001,"N_COORD97":2550391.79,"ADDRESS":"本原街三段１３６巷２８號","OBJECTID":374998},"geometry":{"x":165501.79000000004,"y":2550391.7900000028}},{"attributes":{"ID":375009,"DIS_CODE":0,"TOWNNAME":"善化區","LI":"西關里","LIN":"13鄰","STREET":"興農路","SECT":" ","MAREA":" ","LANE":"６９巷","ALLEY":" ","HOUSE_NO":"５８號","E_COORD97":176378.82000000001,"N_COORD97":2558923.5099999998,"ADDRESS":"興農路６９巷５８號","OBJECTID":374999},"geometry":{"x":176378.82000000216,"y":2558923.5099999998}},{"attributes":{"ID":375010,"DIS_CODE":0,"TOWNNAME":"北區","LI":"興南里","LIN":"10鄰","STREET":"西門路","SECT":"四段","MAREA":" ","LANE":"１６巷","ALLEY":" ","HOUSE_NO":"５１號二樓","E_COORD97":168857.48999999999,"N_COORD97":2545098.2400000002,"ADDRESS":"西門路四段１６巷５１號二樓","OBJECTID":375000},"geometry":{"x":168857.49000000022,"y":2545098.2400000021}}]}