{"displayFieldName":"TOWNNAME","fieldAliases":{"ID":"ID","DIS_CODE":"DIS_CODE","TOWNNAME":"TOWNNAME","LI":"LI","LIN":"LIN","STREET":"STREET","SECT":"SECT","MAREA":"MAREA","LANE":"LANE","ALLEY":"ALLEY","HOUSE_NO":"HOUSE_NO","E_COORD97":"E_COORD97","N_COORD97":"N_COORD97","ADDRESS":"ADDRESS","OBJECTID":"OBJECTID"},"geometryType":"esriGeometryPoint","spatialReference":{"wkid":102443,"latestWkid":3826},"fields":[{"name":"ID","type":"esriFieldTypeDouble","alias":"ID"},{"name":"DIS_CODE","type":"esriFieldTypeInteger","alias":"DIS_CODE"},{"name":"TOWNNAME","type":"esriFieldTypeString","alias":"TOWNNAME","length":8},{"name":"LI","type":"esriFieldTypeString","alias":"LI","length":8},{"name":"LIN","type":"esriFieldTypeString","alias":"LIN","length":12},{"name":"STREET","type":"esriFieldTypeString","alias":"STREET","length":20},{"name":"SECT","type":"esriFieldTypeString","alias":"SECT","length":8},{"name":"MAREA","type":"esriFieldTypeString","alias":"MAREA","length":12},{"name":"LANE","type":"esriFieldTypeString","alias":"LANE","length":10},{"name":"ALLEY","type":"esriFieldTypeString","alias":"ALLEY","length":10},{"name":"HOUSE_NO","type":"esriFieldTypeString","alias":"HOUSE_NO","length":20},{"name":"E_COORD97","type":"esriFieldTypeDouble","alias":"E_COORD97"},{"name":"N_COORD97","type":"esriFieldTypeDouble","alias":"N_COORD97"},{"name":"ADDRESS","type":"esriFieldTypeString","alias":"ADDRESS","length":50},{"name":"OBJECTID","type":"esriFieldTypeOID","alias":"OBJECTID"}],"features":[{"attributes":{"ID":148602,"DIS_CODE":0,"TOWNNAME":"官田區","LI":"官田里","LIN":"26鄰","STREET":" ","SECT":" ","MAREA":"官田","LANE":" ","ALLEY":" ","HOUSE_NO":"４０４號之１４","E_COORD97":182315.06,"N_COORD97":2565444.1200000001,"ADDRESS":"官田４０４號之１４","OBJECTID":148601},"geometry":{"x":182315.06000000052,"y":2565444.120000001}},{"attributes":{"ID":148603,"DIS_CODE":0,"TOWNNAME":"安南區","LI":"海南里","LIN":"3鄰","STREET":"府安路","SECT":"六段","MAREA":" ","LANE":"１０３巷","ALLEY":"８７弄","HOUSE_NO":"１號","E_COORD97":166678.17999999999,"N_COORD97":2546696.5,"ADDRESS":"府安路六段１０３巷８７弄１號","OBJECTID":148602},"geometry":{"x":166678.18000000063,"y":2546696.5000000019}},{"attributes":{"ID":148604,"DIS_CODE":0,"TOWNNAME":"安南區","LI":"海南里","LIN":"3鄰","STREET":"府安路","SECT":"六段","MAREA":" ","LANE":"１０３巷","ALLEY":"８７弄","HOUSE_NO":"２０號","E_COORD97":166615.44,"N_COORD97":2546701.96,"ADDRESS":"府安路六段１０３巷８７弄２０號","OBJECTID":148603},"geometry":{"x":166615.44000000041,"y":2546701.9600000028}},{"attributes":{"ID":148605,"DIS_CODE":0,"TOWNNAME":"安南區","LI":"海南里","LIN":"3鄰","STREET":"府安路","SECT":"六段","MAREA":" ","LANE":"１０３巷","ALLEY":"８７弄","HOUSE_NO":"２１號","E_COORD97":166610.92000000001,"N_COORD97":2546684.7799999998,"ADDRESS":"府安路六段１０３巷８７弄２１號","OBJECTID":148604},"geometry":{"x":166610.92000000086,"y":2546684.7800000012}},{"attributes":{"ID":148606,"DIS_CODE":0,"TOWNNAME":"安南區","LI":"海南里","LIN":"3鄰","STREET":"府安路","SECT":"六段","MAREA":" ","LANE":"１０３巷","ALLEY":"８７弄","HOUSE_NO":"２２號","E_COORD97":166607.92000000001,"N_COORD97":2546700.8500000001,"ADDRESS":"府安路六段１０３巷８７弄２２號","OBJECTID":148605},"geometry":{"x":166607.91999999993,"y":2546700.8500000015}},{"attributes":{"ID":148607,"DIS_CODE":0,"TOWNNAME":"安南區","LI":"海南里","LIN":"3鄰","STREET":"府安路","SECT":"六段","MAREA":" ","LANE":"１０３巷","ALLEY":"８７弄","HOUSE_NO":"２３號","E_COORD97":166602.88,"N_COORD97":2546684.0099999998,"ADDRESS":"府安路六段１０３巷８７弄２３號","OBJECTID":148606},"geometry":{"x":166602.87999999989,"y":2546684.0099999998}},{"attributes":{"ID":148608,"DIS_CODE":0,"TOWNNAME":"安南區","LI":"海南里","LIN":"3鄰","STREET":"府安路","SECT":"六段","MAREA":" ","LANE":"１０３巷","ALLEY":"８７弄","HOUSE_NO":"２４號","E_COORD97":166600.82000000001,"N_COORD97":2546699.2200000002,"ADDRESS":"府安路六段１０３巷８７弄２４號","OBJECTID":148607},"geometry":{"x":166600.8200000003,"y":2546699.2200000025}},{"attributes":{"ID":148609,"DIS_CODE":0,"TOWNNAME":"安南區","LI":"海南里","LIN":"3鄰","STREET":"府安路","SECT":"六段","MAREA":" ","LANE":"１０３巷","ALLEY":"８７弄","HOUSE_NO":"２５號","E_COORD97":166597.29000000001,"N_COORD97":2546682.4199999999,"ADDRESS":"府安路六段１０３巷８７弄２５號","OBJECTID":148608},"geometry":{"x":166597.29000000004,"y":2546682.4199999999}},{"attributes":{"ID":148610,"DIS_CODE":0,"TOWNNAME":"安南區","LI":"海南里","LIN":"3鄰","STREET":"府安路","SECT":"六段","MAREA":" ","LANE":"１０３巷","ALLEY":"８７弄","HOUSE_NO":"２６號","E_COORD97":166594.67000000001,"N_COORD97":2546698.2000000002,"ADDRESS":"府安路六段１０３巷８７弄２６號","OBJECTID":148609},"geometry":{"x":166594.66999999993,"y":2546698.2000000011}},{"attributes":{"ID":148611,"DIS_CODE":0,"TOWNNAME":"安南區","LI":"海南里","LIN":"3鄰","STREET":"府安路","SECT":"六段","MAREA":" ","LANE":"１０３巷","ALLEY":"８７弄","HOUSE_NO":"２７號","E_COORD97":166590.53,"N_COORD97":2546681.2200000002,"ADDRESS":"府安路六段１０３巷８７弄２７號","OBJECTID":148610},"geometry":{"x":166590.53000000026,"y":2546681.2200000007}},{"attributes":{"ID":148612,"DIS_CODE":0,"TOWNNAME":"安南區","LI":"海南里","LIN":"3鄰","STREET":"府安路","SECT":"六段","MAREA":" ","LANE":"１０３巷","ALLEY":"８７弄","HOUSE_NO":"２８號","E_COORD97":166588.60000000001,"N_COORD97":2546695.8100000001,"ADDRESS":"府安路六段１０３巷８７弄２８號","OBJECTID":148611},"geometry":{"x":166588.60000000056,"y":2546695.8100000024}},{"attributes":{"ID":148613,"DIS_CODE":0,"TOWNNAME":"安南區","LI":"海南里","LIN":"3鄰","STREET":"府安路","SECT":"六段","MAREA":" ","LANE":"１０３巷","ALLEY":"８７弄","HOUSE_NO":"２９號","E_COORD97":166583.26999999999,"N_COORD97":2546680.1099999999,"ADDRESS":"府安路六段１０３巷８７弄２９號","OBJECTID":148612},"geometry":{"x":166583.26999999955,"y":2546680.1099999994}},{"attributes":{"ID":148614,"DIS_CODE":0,"TOWNNAME":"安南區","LI":"海南里","LIN":"3鄰","STREET":"府安路","SECT":"六段","MAREA":" ","LANE":"１０３巷","ALLEY":"８７弄","HOUSE_NO":"３０號","E_COORD97":166581.32999999999,"N_COORD97":2546695.7200000002,"ADDRESS":"府安路六段１０３巷８７弄３０號","OBJECTID":148613},"geometry":{"x":166581.33000000007,"y":2546695.7200000025}},{"attributes":{"ID":148615,"DIS_CODE":0,"TOWNNAME":"安南區","LI":"海南里","LIN":"3鄰","STREET":"府安路","SECT":"六段","MAREA":" ","LANE":"１０３巷","ALLEY":"８７弄","HOUSE_NO":"３１號","E_COORD97":166577.37,"N_COORD97":2546678.6600000001,"ADDRESS":"府安路六段１０３巷８７弄３１號","OBJECTID":148614},"geometry":{"x":166577.37000000104,"y":2546678.660000002}},{"attributes":{"ID":148616,"DIS_CODE":0,"TOWNNAME":"安南區","LI":"海南里","LIN":"3鄰","STREET":"府安路","SECT":"六段","MAREA":" ","LANE":"１０３巷","ALLEY":"８７弄","HOUSE_NO":"３２號","E_COORD97":166574.06,"N_COORD97":2546694.3500000001,"ADDRESS":"府安路六段１０３巷８７弄３２號","OBJECTID":148615},"geometry":{"x":166574.06000000052,"y":2546694.3500000015}},{"attributes":{"ID":148617,"DIS_CODE":0,"TOWNNAME":"安南區","LI":"海南里","LIN":"3鄰","STREET":"府安路","SECT":"六段","MAREA":" ","LANE":"１０３巷","ALLEY":"８７弄","HOUSE_NO":"３３號","E_COORD97":166570.87,"N_COORD97":2546678.3199999998,"ADDRESS":"府安路六段１０３巷８７弄３３號","OBJECTID":148616},"geometry":{"x":166570.87000000011,"y":2546678.3200000022}},{"attributes":{"ID":148618,"DIS_CODE":0,"TOWNNAME":"官田區","LI":"官田里","LIN":"26鄰","STREET":" ","SECT":" ","MAREA":"官田","LANE":" ","ALLEY":" ","HOUSE_NO":"４０４號之１５","E_COORD97":182311.04999999999,"N_COORD97":2565445.8500000001,"ADDRESS":"官田４０４號之１５","OBJECTID":148617},"geometry":{"x":182311.04999999981,"y":2565445.8500000015}},{"attributes":{"ID":148619,"DIS_CODE":0,"TOWNNAME":"官田區","LI":"官田里","LIN":"26鄰","STREET":" ","SECT":" ","MAREA":"官田","LANE":" ","ALLEY":" ","HOUSE_NO":"４０４號之１６","E_COORD97":182307.03,"N_COORD97":2565447.5899999999,"ADDRESS":"官田４０４號之１６","OBJECTID":148618},"geometry":{"x":182307.03000000026,"y":2565447.5900000017}},{"attributes":{"ID":148620,"DIS_CODE":0,"TOWNNAME":"官田區","LI":"官田里","LIN":"26鄰","STREET":" ","SECT":" ","MAREA":"官田","LANE":" ","ALLEY":" ","HOUSE_NO":"４０４號之１７","E_COORD97":182314.04000000001,"N_COORD97":2565435.7999999998,"ADDRESS":"官田４０４號之１７","OBJECTID":148619},"geometry":{"x":182314.04000000097,"y":2565435.8000000007}},{"attributes":{"ID":148621,"DIS_CODE":0,"TOWNNAME":"安南區","LI":"海南里","LIN":"3鄰","STREET":"府安路","SECT":"六段","MAREA":" ","LANE":"１０３巷","ALLEY":"８７弄","HOUSE_NO":"３４號","E_COORD97":166568.67999999999,"N_COORD97":2546692.2999999998,"ADDRESS":"府安路六段１０３巷８７弄３４號","OBJECTID":148620},"geometry":{"x":166568.6799999997,"y":2546692.3000000026}},{"attributes":{"ID":148622,"DIS_CODE":0,"TOWNNAME":"下營區","LI":"宅內里","LIN":"19鄰","STREET":"人和三街","SECT":" ","MAREA":" ","LANE":" ","ALLEY":" ","HOUSE_NO":"１８號","E_COORD97":174358.03,"N_COORD97":2570745.9199999999,"ADDRESS":"人和三街１８號","OBJECTID":148621},"geometry":{"x":174358.03000000026,"y":2570745.9200000018}},{"attributes":{"ID":148623,"DIS_CODE":0,"TOWNNAME":"官田區","LI":"官田里","LIN":"26鄰","STREET":" ","SECT":" ","MAREA":"官田","LANE":" ","ALLEY":" ","HOUSE_NO":"４０４號之１８","E_COORD97":182312.32999999999,"N_COORD97":2565431.7200000002,"ADDRESS":"官田４０４號之１８","OBJECTID":148622},"geometry":{"x":182312.33000000101,"y":2565431.7200000025}},{"attributes":{"ID":148624,"DIS_CODE":0,"TOWNNAME":"官田區","LI":"官田里","LIN":"26鄰","STREET":" ","SECT":" ","MAREA":"官田","LANE":" ","ALLEY":" ","HOUSE_NO":"４０４號之１９","E_COORD97":182310.63,"N_COORD97":2565427.6400000001,"ADDRESS":"官田４０４號之１９","OBJECTID":148623},"geometry":{"x":182310.62999999989,"y":2565427.6400000043}},{"attributes":{"ID":148625,"DIS_CODE":0,"TOWNNAME":"官田區","LI":"官田里","LIN":"26鄰","STREET":" ","SECT":" ","MAREA":"官田","LANE":" ","ALLEY":" ","HOUSE_NO":"４０４號之１","E_COORD97":182326.23999999999,"N_COORD97":2565479.4500000002,"ADDRESS":"官田４０４號之１","OBJECTID":148624},"geometry":{"x":182326.24000000115,"y":2565479.4500000011}},{"attributes":{"ID":148626,"DIS_CODE":0,"TOWNNAME":"官田區","LI":"官田里","LIN":"26鄰","STREET":" ","SECT":" ","MAREA":"官田","LANE":" ","ALLEY":" ","HOUSE_NO":"４０４號之２０","E_COORD97":182309,"N_COORD97":2565423.6200000001,"ADDRESS":"官田４０４號之２０","OBJECTID":148625},"geometry":{"x":182309.00000000093,"y":2565423.620000001}},{"attributes":{"ID":148627,"DIS_CODE":0,"TOWNNAME":"官田區","LI":"官田里","LIN":"26鄰","STREET":" ","SECT":" ","MAREA":"官田","LANE":" ","ALLEY":" ","HOUSE_NO":"４０４號","E_COORD97":182329.98999999999,"N_COORD97":2565512.54,"ADDRESS":"官田４０４號","OBJECTID":148626},"geometry":{"x":182329.99000000115,"y":2565512.540000001}},{"attributes":{"ID":148628,"DIS_CODE":0,"TOWNNAME":"安南區","LI":"海南里","LIN":"3鄰","STREET":"府安路","SECT":"六段","MAREA":" ","LANE":"１０３巷","ALLEY":"８７弄","HOUSE_NO":"３５號","E_COORD97":166564.79999999999,"N_COORD97":2546676.5299999998,"ADDRESS":"府安路六段１０３巷８７弄３５號","OBJECTID":148627},"geometry":{"x":166564.79999999981,"y":2546676.5299999993}},{"attributes":{"ID":148629,"DIS_CODE":0,"TOWNNAME":"安南區","LI":"海南里","LIN":"3鄰","STREET":"府安路","SECT":"六段","MAREA":" ","LANE":"１０３巷","ALLEY":"８７弄","HOUSE_NO":"３６號","E_COORD97":166561.48999999999,"N_COORD97":2546691.8799999999,"ADDRESS":"府安路六段１０３巷８７弄３６號","OBJECTID":148628},"geometry":{"x":166561.49000000115,"y":2546691.879999999}},{"attributes":{"ID":148630,"DIS_CODE":0,"TOWNNAME":"安南區","LI":"海南里","LIN":"3鄰","STREET":"府安路","SECT":"六段","MAREA":" ","LANE":"１０３巷","ALLEY":"８７弄","HOUSE_NO":"４號","E_COORD97":166668.51000000001,"N_COORD97":2546710.0899999999,"ADDRESS":"府安路六段１０３巷８７弄４號","OBJECTID":148629},"geometry":{"x":166668.50999999978,"y":2546710.0900000017}},{"attributes":{"ID":148631,"DIS_CODE":0,"TOWNNAME":"安南區","LI":"海南里","LIN":"3鄰","STREET":"府安路","SECT":"六段","MAREA":" ","LANE":"１０３巷","ALLEY":"８７弄","HOUSE_NO":"５號","E_COORD97":166663.47,"N_COORD97":2546693.8599999999,"ADDRESS":"府安路六段１０３巷８７弄５號","OBJECTID":148630},"geometry":{"x":166663.46999999974,"y":2546693.8600000013}},{"attributes":{"ID":148632,"DIS_CODE":0,"TOWNNAME":"安南區","LI":"海南里","LIN":"3鄰","STREET":"府安路","SECT":"六段","MAREA":" ","LANE":"１０３巷","ALLEY":"８７弄","HOUSE_NO":"６號","E_COORD97":166660.56,"N_COORD97":2546709.8300000001,"ADDRESS":"府安路六段１０３巷８７弄６號","OBJECTID":148631},"geometry":{"x":166660.55999999959,"y":2546709.8300000001}},{"attributes":{"ID":148633,"DIS_CODE":0,"TOWNNAME":"官田區","LI":"官田里","LIN":"8鄰","STREET":" ","SECT":" ","MAREA":"官田","LANE":" ","ALLEY":" ","HOUSE_NO":"６８號","E_COORD97":182458.38,"N_COORD97":2565159.7599999998,"ADDRESS":"官田６８號","OBJECTID":148632},"geometry":{"x":182458.37999999989,"y":2565159.7599999998}},{"attributes":{"ID":148634,"DIS_CODE":0,"TOWNNAME":"安南區","LI":"海南里","LIN":"3鄰","STREET":"府安路","SECT":"六段","MAREA":" ","LANE":"１０３巷","ALLEY":"８７弄","HOUSE_NO":"７號","E_COORD97":166657.39999999999,"N_COORD97":2546692.9199999999,"ADDRESS":"府安路六段１０３巷８７弄７號","OBJECTID":148633},"geometry":{"x":166657.40000000037,"y":2546692.9200000037}},{"attributes":{"ID":148635,"DIS_CODE":0,"TOWNNAME":"安南區","LI":"海南里","LIN":"3鄰","STREET":"府安路","SECT":"六段","MAREA":" ","LANE":"１０３巷","ALLEY":"８７弄","HOUSE_NO":"８號","E_COORD97":166654.48999999999,"N_COORD97":2546707.8599999999,"ADDRESS":"府安路六段１０３巷８７弄８號","OBJECTID":148634},"geometry":{"x":166654.49000000115,"y":2546707.8600000013}},{"attributes":{"ID":148636,"DIS_CODE":0,"TOWNNAME":"東區","LI":"崇誨里","LIN":"3鄰","STREET":"林森路","SECT":"二段","MAREA":" ","LANE":"１９２巷","ALLEY":"２４弄","HOUSE_NO":"２５號之２","E_COORD97":170591.19,"N_COORD97":2543255.8100000001,"ADDRESS":"林森路二段１９２巷２４弄２５號之２","OBJECTID":148635},"geometry":{"x":170591.19000000134,"y":2543255.8100000005}},{"attributes":{"ID":148637,"DIS_CODE":0,"TOWNNAME":"東區","LI":"大德里","LIN":"16鄰","STREET":"立德十一路","SECT":" ","MAREA":" ","LANE":"５５巷","ALLEY":"１４弄","HOUSE_NO":"１０號","E_COORD97":169531.84,"N_COORD97":2542131.3799999999,"ADDRESS":"立德十一路５５巷１４弄１０號","OBJECTID":148636},"geometry":{"x":169531.84000000078,"y":2542131.379999999}},{"attributes":{"ID":148638,"DIS_CODE":0,"TOWNNAME":"東區","LI":"大德里","LIN":"16鄰","STREET":"立德十一路","SECT":" ","MAREA":" ","LANE":"５５巷","ALLEY":"１４弄","HOUSE_NO":"１１號","E_COORD97":169541.70999999999,"N_COORD97":2542153.1499999999,"ADDRESS":"立德十一路５５巷１４弄１１號","OBJECTID":148637},"geometry":{"x":169541.71000000089,"y":2542153.1500000022}},{"attributes":{"ID":148639,"DIS_CODE":0,"TOWNNAME":"東區","LI":"大德里","LIN":"16鄰","STREET":"立德十一路","SECT":" ","MAREA":" ","LANE":"５５巷","ALLEY":"１４弄","HOUSE_NO":"１號","E_COORD97":169518.16,"N_COORD97":2542147.7400000002,"ADDRESS":"立德十一路５５巷１４弄１號","OBJECTID":148638},"geometry":{"x":169518.16000000108,"y":2542147.7399999984}},{"attributes":{"ID":148640,"DIS_CODE":0,"TOWNNAME":"東區","LI":"大德里","LIN":"16鄰","STREET":"立德十一路","SECT":" ","MAREA":" ","LANE":"５５巷","ALLEY":"１４弄","HOUSE_NO":"３號","E_COORD97":169522.29999999999,"N_COORD97":2542148.0600000001,"ADDRESS":"立德十一路５５巷１４弄３號","OBJECTID":148639},"geometry":{"x":169522.30000000075,"y":2542148.0600000005}},{"attributes":{"ID":148641,"DIS_CODE":0,"TOWNNAME":"東區","LI":"大德里","LIN":"16鄰","STREET":"立德十一路","SECT":" ","MAREA":" ","LANE":"５５巷","ALLEY":"１４弄","HOUSE_NO":"５號","E_COORD97":169528.01999999999,"N_COORD97":2542148.3799999999,"ADDRESS":"立德十一路５５巷１４弄５號","OBJECTID":148640},"geometry":{"x":169528.01999999955,"y":2542148.379999999}},{"attributes":{"ID":148642,"DIS_CODE":0,"TOWNNAME":"東區","LI":"大德里","LIN":"16鄰","STREET":"立德十一路","SECT":" ","MAREA":" ","LANE":"５５巷","ALLEY":"１４弄","HOUSE_NO":"６號","E_COORD97":169513.38,"N_COORD97":2542127.8900000001,"ADDRESS":"立德十一路５５巷１４弄６號","OBJECTID":148641},"geometry":{"x":169513.37999999989,"y":2542127.8900000025}},{"attributes":{"ID":148643,"DIS_CODE":0,"TOWNNAME":"東區","LI":"大德里","LIN":"16鄰","STREET":"立德十一路","SECT":" ","MAREA":" ","LANE":"５５巷","ALLEY":"１４弄","HOUSE_NO":"７號","E_COORD97":169532.16,"N_COORD97":2542149.9700000002,"ADDRESS":"立德十一路５５巷１４弄７號","OBJECTID":148642},"geometry":{"x":169532.16000000015,"y":2542149.9700000007}},{"attributes":{"ID":148644,"DIS_CODE":0,"TOWNNAME":"東區","LI":"大德里","LIN":"16鄰","STREET":"立德十一路","SECT":" ","MAREA":" ","LANE":"５５巷","ALLEY":"１４弄","HOUSE_NO":"８號","E_COORD97":169524.51999999999,"N_COORD97":2542129.1600000001,"ADDRESS":"立德十一路５５巷１４弄８號","OBJECTID":148643},"geometry":{"x":169524.51999999955,"y":2542129.160000002}},{"attributes":{"ID":148645,"DIS_CODE":0,"TOWNNAME":"官田區","LI":"官田里","LIN":"26鄰","STREET":" ","SECT":" ","MAREA":"官田","LANE":" ","ALLEY":" ","HOUSE_NO":"４０５號","E_COORD97":182334.14999999999,"N_COORD97":2565551.52,"ADDRESS":"官田４０５號","OBJECTID":148644},"geometry":{"x":182334.1500000013,"y":2565551.5199999996}},{"attributes":{"ID":148646,"DIS_CODE":0,"TOWNNAME":"官田區","LI":"拔林里","LIN":"4鄰","STREET":" ","SECT":" ","MAREA":"拔子林","LANE":" ","ALLEY":" ","HOUSE_NO":"２４號之２","E_COORD97":180602.98999999999,"N_COORD97":2563590.52,"ADDRESS":"拔子林２４號之２","OBJECTID":148645},"geometry":{"x":180602.99000000022,"y":2563590.5200000014}},{"attributes":{"ID":148647,"DIS_CODE":0,"TOWNNAME":"官田區","LI":"拔林里","LIN":"4鄰","STREET":" ","SECT":" ","MAREA":"拔子林","LANE":" ","ALLEY":" ","HOUSE_NO":"２４號","E_COORD97":180621.17999999999,"N_COORD97":2563607.1800000002,"ADDRESS":"拔子林２４號","OBJECTID":148646},"geometry":{"x":180621.18000000063,"y":2563607.1800000016}},{"attributes":{"ID":148648,"DIS_CODE":0,"TOWNNAME":"官田區","LI":"拔林里","LIN":"4鄰","STREET":" ","SECT":" ","MAREA":"拔子林","LANE":" ","ALLEY":" ","HOUSE_NO":"２５號之２","E_COORD97":180585.23999999999,"N_COORD97":2563579.6499999999,"ADDRESS":"拔子林２５號之２","OBJECTID":148647},"geometry":{"x":180585.24000000115,"y":2563579.6500000022}},{"attributes":{"ID":148649,"DIS_CODE":0,"TOWNNAME":"官田區","LI":"拔林里","LIN":"4鄰","STREET":" ","SECT":" ","MAREA":"拔子林","LANE":" ","ALLEY":" ","HOUSE_NO":"２５號","E_COORD97":180584.67000000001,"N_COORD97":2563589.4399999999,"ADDRESS":"拔子林２５號","OBJECTID":148648},"geometry":{"x":180584.66999999993,"y":2563589.4399999995}},{"attributes":{"ID":148650,"DIS_CODE":0,"TOWNNAME":"官田區","LI":"拔林里","LIN":"4鄰","STREET":" ","SECT":" ","MAREA":"拔子林","LANE":" ","ALLEY":" ","HOUSE_NO":"２６號之１","E_COORD97":180591.42000000001,"N_COORD97":2563608.8100000001,"ADDRESS":"拔子林２６號之１","OBJECTID":148649},"geometry":{"x":180591.41999999993,"y":2563608.8100000042}},{"attributes":{"ID":148651,"DIS_CODE":0,"TOWNNAME":"東區","LI":"大德里","LIN":"16鄰","STREET":"立德十一路","SECT":" ","MAREA":" ","LANE":"５５巷","ALLEY":"１４弄","HOUSE_NO":"９號","E_COORD97":169536.29999999999,"N_COORD97":2542150.9199999999,"ADDRESS":"立德十一路５５巷１４弄９號","OBJECTID":148650},"geometry":{"x":169536.29999999981,"y":2542150.9200000018}},{"attributes":{"ID":148652,"DIS_CODE":0,"TOWNNAME":"東區","LI":"崇誨里","LIN":"3鄰","STREET":"林森路","SECT":"二段","MAREA":" ","LANE":"１９２巷","ALLEY":"２４弄","HOUSE_NO":"２１號","E_COORD97":170606.67000000001,"N_COORD97":2543265.1200000001,"ADDRESS":"林森路二段１９２巷２４弄２１號","OBJECTID":148651},"geometry":{"x":170606.66999999993,"y":2543265.1200000048}},{"attributes":{"ID":148653,"DIS_CODE":0,"TOWNNAME":"東區","LI":"崇誨里","LIN":"3鄰","STREET":"林森路","SECT":"二段","MAREA":" ","LANE":"１９２巷","ALLEY":"２４弄","HOUSE_NO":"２３號","E_COORD97":170599.48000000001,"N_COORD97":2543264.02,"ADDRESS":"林森路二段１９２巷２４弄２３號","OBJECTID":148652},"geometry":{"x":170599.48000000138,"y":2543264.0199999977}},{"attributes":{"ID":148654,"DIS_CODE":0,"TOWNNAME":"仁德區","LI":"仁愛里","LIN":"28鄰","STREET":"大同路","SECT":"三段","MAREA":" ","LANE":"４５６巷","ALLEY":" ","HOUSE_NO":"１５號","E_COORD97":169733.77308099999,"N_COORD97":2539280.8199999998,"ADDRESS":"大同路三段４５６巷１５號","OBJECTID":148653},"geometry":{"x":169733.77308099996,"y":2539280.8200000022}},{"attributes":{"ID":148655,"DIS_CODE":0,"TOWNNAME":"官田區","LI":"拔林里","LIN":"4鄰","STREET":" ","SECT":" ","MAREA":"拔子林","LANE":" ","ALLEY":" ","HOUSE_NO":"２６號","E_COORD97":180574.07999999999,"N_COORD97":2563610.9500000002,"ADDRESS":"拔子林２６號","OBJECTID":148654},"geometry":{"x":180574.07999999914,"y":2563610.9500000011}},{"attributes":{"ID":148656,"DIS_CODE":0,"TOWNNAME":"官田區","LI":"拔林里","LIN":"4鄰","STREET":" ","SECT":" ","MAREA":"拔子林","LANE":" ","ALLEY":" ","HOUSE_NO":"２７號","E_COORD97":180603.53,"N_COORD97":2563637.7599999998,"ADDRESS":"拔子林２７號","OBJECTID":148655},"geometry":{"x":180603.53000000212,"y":2563637.7599999998}},{"attributes":{"ID":148657,"DIS_CODE":0,"TOWNNAME":"東區","LI":"崇誨里","LIN":"3鄰","STREET":"林森路","SECT":"二段","MAREA":" ","LANE":"１９２巷","ALLEY":"２４弄","HOUSE_NO":"２７號之１","E_COORD97":170592.91,"N_COORD97":2543248.9399999999,"ADDRESS":"林森路二段１９２巷２４弄２７號之１","OBJECTID":148656},"geometry":{"x":170592.91000000108,"y":2543248.9400000013}},{"attributes":{"ID":148658,"DIS_CODE":0,"TOWNNAME":"西港區","LI":"南海里","LIN":"7鄰","STREET":" ","SECT":" ","MAREA":"南海埔","LANE":" ","ALLEY":" ","HOUSE_NO":"５７號","E_COORD97":167479.82000000001,"N_COORD97":2557440.5800000001,"ADDRESS":"南海埔５７號","OBJECTID":148657},"geometry":{"x":167479.82000000123,"y":2557440.5800000019}},{"attributes":{"ID":148659,"DIS_CODE":0,"TOWNNAME":"新市區","LI":"大營里","LIN":"19鄰","STREET":" ","SECT":" ","MAREA":"豐榮","LANE":" ","ALLEY":" ","HOUSE_NO":"４３之１號","E_COORD97":178768.89999999999,"N_COORD97":2554334.2999999998,"ADDRESS":"豐榮４３之１號","OBJECTID":148658},"geometry":{"x":178768.9000000013,"y":2554334.3000000026}},{"attributes":{"ID":148660,"DIS_CODE":0,"TOWNNAME":"新市區","LI":"大營里","LIN":"19鄰","STREET":" ","SECT":" ","MAREA":"豐榮","LANE":" ","ALLEY":" ","HOUSE_NO":"３０之３號","E_COORD97":178833.60000000001,"N_COORD97":2554424.5499999998,"ADDRESS":"豐榮３０之３號","OBJECTID":148659},"geometry":{"x":178833.59999999963,"y":2554424.5500000026}},{"attributes":{"ID":148661,"DIS_CODE":0,"TOWNNAME":"新市區","LI":"大營里","LIN":"19鄰","STREET":" ","SECT":" ","MAREA":"豐榮","LANE":" ","ALLEY":" ","HOUSE_NO":"３０之７號","E_COORD97":178832.04000000001,"N_COORD97":2554450.0499999998,"ADDRESS":"豐榮３０之７號","OBJECTID":148660},"geometry":{"x":178832.04000000097,"y":2554450.0500000045}},{"attributes":{"ID":148662,"DIS_CODE":0,"TOWNNAME":"東區","LI":"崇誨里","LIN":"3鄰","STREET":"林森路","SECT":"二段","MAREA":" ","LANE":"１９２巷","ALLEY":"２４弄","HOUSE_NO":"２９號之１","E_COORD97":170603.23000000001,"N_COORD97":2543245.3500000001,"ADDRESS":"林森路二段１９２巷２４弄２９號之１","OBJECTID":148661},"geometry":{"x":170603.23000000138,"y":2543245.3500000034}},{"attributes":{"ID":148663,"DIS_CODE":0,"TOWNNAME":"東區","LI":"崇誨里","LIN":"3鄰","STREET":"林森路","SECT":"二段","MAREA":" ","LANE":"１９２巷","ALLEY":"２４弄","HOUSE_NO":"３１號之１","E_COORD97":170610.42000000001,"N_COORD97":2543246.29,"ADDRESS":"林森路二段１９２巷２４弄３１號之１","OBJECTID":148662},"geometry":{"x":170610.41999999993,"y":2543246.290000001}},{"attributes":{"ID":148664,"DIS_CODE":0,"TOWNNAME":"東區","LI":"莊敬里","LIN":"3鄰","STREET":"小東路","SECT":" ","MAREA":" ","LANE":"２５４巷","ALLEY":"１８弄","HOUSE_NO":"２號","E_COORD97":171127.57000000001,"N_COORD97":2544284.8700000001,"ADDRESS":"小東路２５４巷１８弄２號","OBJECTID":148663},"geometry":{"x":171127.57000000123,"y":2544284.8700000029}},{"attributes":{"ID":148665,"DIS_CODE":0,"TOWNNAME":"新市區","LI":"大營里","LIN":"19鄰","STREET":" ","SECT":" ","MAREA":"豐榮","LANE":" ","ALLEY":" ","HOUSE_NO":"４３之４５號","E_COORD97":178739.10000000001,"N_COORD97":2554297.2999999998,"ADDRESS":"豐榮４３之４５號","OBJECTID":148664},"geometry":{"x":178739.09999999963,"y":2554297.3000000026}},{"attributes":{"ID":148666,"DIS_CODE":0,"TOWNNAME":"新市區","LI":"大營里","LIN":"19鄰","STREET":" ","SECT":" ","MAREA":"豐榮","LANE":" ","ALLEY":" ","HOUSE_NO":"４３之４１號","E_COORD97":178732.51999999999,"N_COORD97":2554291.7999999998,"ADDRESS":"豐榮４３之４１號","OBJECTID":148665},"geometry":{"x":178732.51999999955,"y":2554291.8000000007}},{"attributes":{"ID":148667,"DIS_CODE":0,"TOWNNAME":"新市區","LI":"大營里","LIN":"19鄰","STREET":" ","SECT":" ","MAREA":"豐榮","LANE":" ","ALLEY":" ","HOUSE_NO":"４１號","E_COORD97":178800.98000000001,"N_COORD97":2554348,"ADDRESS":"豐榮４１號","OBJECTID":148666},"geometry":{"x":178800.98000000138,"y":2554348.0000000037}},{"attributes":{"ID":148668,"DIS_CODE":0,"TOWNNAME":"新市區","LI":"大營里","LIN":"19鄰","STREET":" ","SECT":" ","MAREA":"豐榮","LANE":" ","ALLEY":" ","HOUSE_NO":"４３之３６號","E_COORD97":178739.48999999999,"N_COORD97":2554328.5499999998,"ADDRESS":"豐榮４３之３６號","OBJECTID":148667},"geometry":{"x":178739.49000000115,"y":2554328.5500000026}},{"attributes":{"ID":148669,"DIS_CODE":0,"TOWNNAME":"下營區","LI":"賀建里","LIN":"12鄰","STREET":" ","SECT":" ","MAREA":"洲子","LANE":" ","ALLEY":" ","HOUSE_NO":"６號","E_COORD97":177309.39999999999,"N_COORD97":2572051.1200000001,"ADDRESS":"洲子６號","OBJECTID":148668},"geometry":{"x":177309.4000000013,"y":2572051.120000001}},{"attributes":{"ID":148670,"DIS_CODE":0,"TOWNNAME":"新市區","LI":"大營里","LIN":"19鄰","STREET":" ","SECT":" ","MAREA":"豐榮","LANE":" ","ALLEY":" ","HOUSE_NO":"４２之７號","E_COORD97":178816.48999999999,"N_COORD97":2554330.7999999998,"ADDRESS":"豐榮４２之７號","OBJECTID":148669},"geometry":{"x":178816.49000000022,"y":2554330.8000000026}},{"attributes":{"ID":148671,"DIS_CODE":0,"TOWNNAME":"官田區","LI":"拔林里","LIN":"4鄰","STREET":" ","SECT":" ","MAREA":"拔子林","LANE":" ","ALLEY":" ","HOUSE_NO":"２８號之１","E_COORD97":180537.42999999999,"N_COORD97":2563603.9300000002,"ADDRESS":"拔子林２８號之１","OBJECTID":148670},"geometry":{"x":180537.43000000156,"y":2563603.9300000034}},{"attributes":{"ID":148672,"DIS_CODE":0,"TOWNNAME":"官田區","LI":"拔林里","LIN":"4鄰","STREET":" ","SECT":" ","MAREA":"拔子林","LANE":" ","ALLEY":" ","HOUSE_NO":"２８號之２","E_COORD97":180537.23000000001,"N_COORD97":2563639.21,"ADDRESS":"拔子林２８號之２","OBJECTID":148671},"geometry":{"x":180537.23000000045,"y":2563639.2100000009}},{"attributes":{"ID":148673,"DIS_CODE":0,"TOWNNAME":"官田區","LI":"拔林里","LIN":"4鄰","STREET":" ","SECT":" ","MAREA":"拔子林","LANE":" ","ALLEY":" ","HOUSE_NO":"２８號之３","E_COORD97":180579.73000000001,"N_COORD97":2563637.2799999998,"ADDRESS":"拔子林２８號之３","OBJECTID":148672},"geometry":{"x":180579.73000000045,"y":2563637.2799999993}},{"attributes":{"ID":148674,"DIS_CODE":0,"TOWNNAME":"官田區","LI":"拔林里","LIN":"4鄰","STREET":" ","SECT":" ","MAREA":"拔子林","LANE":" ","ALLEY":" ","HOUSE_NO":"２９號之１","E_COORD97":180547.48000000001,"N_COORD97":2563731.98,"ADDRESS":"拔子林２９號之１","OBJECTID":148673},"geometry":{"x":180547.48000000045,"y":2563731.9800000004}},{"attributes":{"ID":148675,"DIS_CODE":0,"TOWNNAME":"官田區","LI":"拔林里","LIN":"4鄰","STREET":" ","SECT":" ","MAREA":"拔子林","LANE":" ","ALLEY":" ","HOUSE_NO":"２９號之２","E_COORD97":180534.95999999999,"N_COORD97":2563675.7200000002,"ADDRESS":"拔子林２９號之２","OBJECTID":148674},"geometry":{"x":180534.96000000089,"y":2563675.7200000025}},{"attributes":{"ID":148676,"DIS_CODE":0,"TOWNNAME":"官田區","LI":"拔林里","LIN":"4鄰","STREET":" ","SECT":" ","MAREA":"拔子林","LANE":" ","ALLEY":" ","HOUSE_NO":"３０號","E_COORD97":180587.94,"N_COORD97":2563668.27,"ADDRESS":"拔子林３０號","OBJECTID":148675},"geometry":{"x":180587.94000000134,"y":2563668.2699999996}},{"attributes":{"ID":148677,"DIS_CODE":0,"TOWNNAME":"官田區","LI":"拔林里","LIN":"4鄰","STREET":" ","SECT":" ","MAREA":"拔子林","LANE":" ","ALLEY":" ","HOUSE_NO":"３１號之１","E_COORD97":180568.42000000001,"N_COORD97":2563684.0899999999,"ADDRESS":"拔子林３１號之１","OBJECTID":148676},"geometry":{"x":180568.42000000179,"y":2563684.089999998}},{"attributes":{"ID":148678,"DIS_CODE":0,"TOWNNAME":"新化區","LI":"唪口里","LIN":"8鄰","STREET":" ","SECT":" ","MAREA":"唪口","LANE":" ","ALLEY":" ","HOUSE_NO":"９８號","E_COORD97":177934,"N_COORD97":2549038.25,"ADDRESS":"唪口９８號","OBJECTID":148677},"geometry":{"x":177934.00000000093,"y":2549038.2500000019}},{"attributes":{"ID":148679,"DIS_CODE":0,"TOWNNAME":"官田區","LI":"拔林里","LIN":"1鄰","STREET":" ","SECT":" ","MAREA":"拔子林","LANE":" ","ALLEY":" ","HOUSE_NO":"２號","E_COORD97":180680.92999999999,"N_COORD97":2563571.8700000001,"ADDRESS":"拔子林２號","OBJECTID":148678},"geometry":{"x":180680.9299999997,"y":2563571.8700000048}},{"attributes":{"ID":148680,"DIS_CODE":0,"TOWNNAME":"官田區","LI":"拔林里","LIN":"6鄰","STREET":" ","SECT":" ","MAREA":"拔子林","LANE":" ","ALLEY":" ","HOUSE_NO":"４５號之２５","E_COORD97":180954.82000000001,"N_COORD97":2564540.5800000001,"ADDRESS":"拔子林４５號之２５","OBJECTID":148679},"geometry":{"x":180954.82000000123,"y":2564540.5800000019}},{"attributes":{"ID":148681,"DIS_CODE":0,"TOWNNAME":"官田區","LI":"拔林里","LIN":"6鄰","STREET":" ","SECT":" ","MAREA":"拔子林","LANE":" ","ALLEY":" ","HOUSE_NO":"４５號之８","E_COORD97":180977.29000000001,"N_COORD97":2564705.8799999999,"ADDRESS":"拔子林４５號之８","OBJECTID":148680},"geometry":{"x":180977.29000000004,"y":2564705.8800000008}},{"attributes":{"ID":148682,"DIS_CODE":0,"TOWNNAME":"官田區","LI":"官田里","LIN":"8鄰","STREET":" ","SECT":" ","MAREA":"官田","LANE":" ","ALLEY":" ","HOUSE_NO":"６６號","E_COORD97":182510.95000000001,"N_COORD97":2565120.8399999999,"ADDRESS":"官田６６號","OBJECTID":148681},"geometry":{"x":182510.94999999925,"y":2565120.8400000017}},{"attributes":{"ID":148683,"DIS_CODE":0,"TOWNNAME":"新市區","LI":"大營里","LIN":"19鄰","STREET":" ","SECT":" ","MAREA":"豐榮","LANE":" ","ALLEY":" ","HOUSE_NO":"４３之２８號","E_COORD97":178713.35000000001,"N_COORD97":2554306.7999999998,"ADDRESS":"豐榮４３之２８號","OBJECTID":148682},"geometry":{"x":178713.34999999963,"y":2554306.8000000026}},{"attributes":{"ID":148684,"DIS_CODE":0,"TOWNNAME":"新市區","LI":"大營里","LIN":"19鄰","STREET":" ","SECT":" ","MAREA":"豐榮","LANE":" ","ALLEY":" ","HOUSE_NO":"３８之１號","E_COORD97":178715.89999999999,"N_COORD97":2554445.7999999998,"ADDRESS":"豐榮３８之１號","OBJECTID":148683},"geometry":{"x":178715.90000000037,"y":2554445.8000000026}},{"attributes":{"ID":148685,"DIS_CODE":0,"TOWNNAME":"新市區","LI":"大營里","LIN":"19鄰","STREET":" ","SECT":" ","MAREA":"豐榮","LANE":" ","ALLEY":" ","HOUSE_NO":"３０之４號","E_COORD97":178832.20000000001,"N_COORD97":2554429.0499999998,"ADDRESS":"豐榮３０之４號","OBJECTID":148684},"geometry":{"x":178832.20000000019,"y":2554429.0500000007}},{"attributes":{"ID":148686,"DIS_CODE":0,"TOWNNAME":"新市區","LI":"大營里","LIN":"19鄰","STREET":" ","SECT":" ","MAREA":"豐榮","LANE":" ","ALLEY":" ","HOUSE_NO":"４３之３２號","E_COORD97":178725.48999999999,"N_COORD97":2554318.0499999998,"ADDRESS":"豐榮４３之３２號","OBJECTID":148685},"geometry":{"x":178725.49000000209,"y":2554318.0500000045}},{"attributes":{"ID":148687,"DIS_CODE":0,"TOWNNAME":"新市區","LI":"大營里","LIN":"19鄰","STREET":" ","SECT":" ","MAREA":"豐榮","LANE":" ","ALLEY":" ","HOUSE_NO":"３２號","E_COORD97":178821.89999999999,"N_COORD97":2554375.5,"ADDRESS":"豐榮３２號","OBJECTID":148686},"geometry":{"x":178821.9000000013,"y":2554375.5000000019}},{"attributes":{"ID":148688,"DIS_CODE":0,"TOWNNAME":"新市區","LI":"大營里","LIN":"19鄰","STREET":" ","SECT":" ","MAREA":"豐榮","LANE":" ","ALLEY":" ","HOUSE_NO":"４３之５１號","E_COORD97":178748.45000000001,"N_COORD97":2554305.5499999998,"ADDRESS":"豐榮４３之５１號","OBJECTID":148687},"geometry":{"x":178748.45000000112,"y":2554305.5500000026}},{"attributes":{"ID":148689,"DIS_CODE":0,"TOWNNAME":"新市區","LI":"大營里","LIN":"19鄰","STREET":" ","SECT":" ","MAREA":"豐榮","LANE":" ","ALLEY":" ","HOUSE_NO":"４３之３８號","E_COORD97":178747.89999999999,"N_COORD97":2554335.0499999998,"ADDRESS":"豐榮４３之３８號","OBJECTID":148688},"geometry":{"x":178747.90000000037,"y":2554335.0500000045}},{"attributes":{"ID":148690,"DIS_CODE":0,"TOWNNAME":"新市區","LI":"大營里","LIN":"19鄰","STREET":" ","SECT":" ","MAREA":"豐榮","LANE":" ","ALLEY":" ","HOUSE_NO":"４３之３０號","E_COORD97":178719.73999999999,"N_COORD97":2554312.5499999998,"ADDRESS":"豐榮４３之３０號","OBJECTID":148689},"geometry":{"x":178719.74000000022,"y":2554312.5500000026}},{"attributes":{"ID":148691,"DIS_CODE":0,"TOWNNAME":"東區","LI":"虎尾里","LIN":"3鄰","STREET":"東門路","SECT":"三段","MAREA":" ","LANE":"１７９巷","ALLEY":"１４７弄","HOUSE_NO":"８號","E_COORD97":171785.84,"N_COORD97":2542091.7000000002,"ADDRESS":"東門路三段１７９巷１４７弄８號","OBJECTID":148690},"geometry":{"x":171785.83999999985,"y":2542091.6999999993}},{"attributes":{"ID":148692,"DIS_CODE":0,"TOWNNAME":"東區","LI":"虎尾里","LIN":"3鄰","STREET":"東門路","SECT":"三段","MAREA":" ","LANE":"１７９巷","ALLEY":"１４７弄","HOUSE_NO":"８之１號","E_COORD97":171793.26000000001,"N_COORD97":2542090.1299999999,"ADDRESS":"東門路三段１７９巷１４７弄８之１號","OBJECTID":148691},"geometry":{"x":171793.26000000164,"y":2542090.1300000008}},{"attributes":{"ID":148693,"DIS_CODE":0,"TOWNNAME":"東區","LI":"虎尾里","LIN":"3鄰","STREET":"東門路","SECT":"三段","MAREA":" ","LANE":"１７９巷","ALLEY":"１４７弄","HOUSE_NO":"８之２號","E_COORD97":171800.28,"N_COORD97":2542091.75,"ADDRESS":"東門路三段１７９巷１４７弄８之２號","OBJECTID":148692},"geometry":{"x":171800.27999999933,"y":2542091.75}},{"attributes":{"ID":148694,"DIS_CODE":0,"TOWNNAME":"東區","LI":"虎尾里","LIN":"3鄰","STREET":"東門路","SECT":"三段","MAREA":" ","LANE":"１７９巷","ALLEY":"１４７弄","HOUSE_NO":"１６號","E_COORD97":171799.73000000001,"N_COORD97":2542108.6899999999,"ADDRESS":"東門路三段１７９巷１４７弄１６號","OBJECTID":148693},"geometry":{"x":171799.73000000138,"y":2542108.6899999995}},{"attributes":{"ID":148695,"DIS_CODE":0,"TOWNNAME":"新市區","LI":"大營里","LIN":"19鄰","STREET":" ","SECT":" ","MAREA":"豐榮","LANE":" ","ALLEY":" ","HOUSE_NO":"４３之５０號","E_COORD97":178751.89999999999,"N_COORD97":2554289.7999999998,"ADDRESS":"豐榮４３之５０號","OBJECTID":148694},"geometry":{"x":178751.9000000013,"y":2554289.8000000026}},{"attributes":{"ID":148696,"DIS_CODE":0,"TOWNNAME":"新市區","LI":"大營里","LIN":"19鄰","STREET":" ","SECT":" ","MAREA":"豐榮","LANE":" ","ALLEY":" ","HOUSE_NO":"４３之４號","E_COORD97":178777.89999999999,"N_COORD97":2554324.7999999998,"ADDRESS":"豐榮４３之４號","OBJECTID":148695},"geometry":{"x":178777.9000000013,"y":2554324.8000000007}},{"attributes":{"ID":148697,"DIS_CODE":0,"TOWNNAME":"新市區","LI":"大營里","LIN":"19鄰","STREET":" ","SECT":" ","MAREA":"豐榮","LANE":" ","ALLEY":" ","HOUSE_NO":"４３之２５號","E_COORD97":178772.54000000001,"N_COORD97":2554254.5499999998,"ADDRESS":"豐榮４３之２５號","OBJECTID":148696},"geometry":{"x":178772.5400000019,"y":2554254.5500000026}},{"attributes":{"ID":148698,"DIS_CODE":0,"TOWNNAME":"新市區","LI":"大營里","LIN":"19鄰","STREET":" ","SECT":" ","MAREA":"豐榮","LANE":" ","ALLEY":" ","HOUSE_NO":"３８之４號","E_COORD97":178773.10000000001,"N_COORD97":2554446.0499999998,"ADDRESS":"豐榮３８之４號","OBJECTID":148697},"geometry":{"x":178773.09999999963,"y":2554446.0500000007}},{"attributes":{"ID":148699,"DIS_CODE":0,"TOWNNAME":"新市區","LI":"大營里","LIN":"19鄰","STREET":" ","SECT":" ","MAREA":"豐榮","LANE":" ","ALLEY":" ","HOUSE_NO":"４３之２７號","E_COORD97":178710.35000000001,"N_COORD97":2554304.2999999998,"ADDRESS":"豐榮４３之２７號","OBJECTID":148698},"geometry":{"x":178710.34999999963,"y":2554304.3000000026}},{"attributes":{"ID":148700,"DIS_CODE":0,"TOWNNAME":"官田區","LI":"拔林里","LIN":"7鄰","STREET":" ","SECT":" ","MAREA":"拔子林","LANE":" ","ALLEY":" ","HOUSE_NO":"５２號之１","E_COORD97":180695.66,"N_COORD97":2563754.8399999999,"ADDRESS":"拔子林５２號之１","OBJECTID":148699},"geometry":{"x":180695.65999999922,"y":2563754.8400000017}},{"attributes":{"ID":148701,"DIS_CODE":0,"TOWNNAME":"永康區","LI":"東橋里","LIN":"15鄰","STREET":"東橋五路","SECT":" ","MAREA":" ","LANE":" ","ALLEY":" ","HOUSE_NO":"８６號","E_COORD97":171738.26000000001,"N_COORD97":2546722.2599999998,"ADDRESS":"東橋五路８６號","OBJECTID":148700},"geometry":{"x":171738.25999999978,"y":2546722.2600000016}},{"attributes":{"ID":148702,"DIS_CODE":0,"TOWNNAME":"永康區","LI":"網寮里","LIN":"15鄰","STREET":"永興路","SECT":" ","MAREA":" ","LANE":" ","ALLEY":" ","HOUSE_NO":"３３１號","E_COORD97":173479.72,"N_COORD97":2546772.79,"ADDRESS":"永興路３３１號","OBJECTID":148701},"geometry":{"x":173479.71999999974,"y":2546772.7899999991}},{"attributes":{"ID":148703,"DIS_CODE":0,"TOWNNAME":"永康區","LI":"網寮里","LIN":"15鄰","STREET":"永興路","SECT":" ","MAREA":" ","LANE":" ","ALLEY":" ","HOUSE_NO":"３２５號","E_COORD97":173490.76000000001,"N_COORD97":2546762.7799999998,"ADDRESS":"永興路３２５號","OBJECTID":148702},"geometry":{"x":173490.76000000071,"y":2546762.7799999993}},{"attributes":{"ID":148704,"DIS_CODE":0,"TOWNNAME":"永康區","LI":"網寮里","LIN":"15鄰","STREET":"永興路","SECT":" ","MAREA":" ","LANE":" ","ALLEY":" ","HOUSE_NO":"３２９號","E_COORD97":173482.32000000001,"N_COORD97":2546766.5899999999,"ADDRESS":"永興路３２９號","OBJECTID":148703},"geometry":{"x":173482.32000000123,"y":2546766.5900000017}},{"attributes":{"ID":148705,"DIS_CODE":0,"TOWNNAME":"永康區","LI":"網寮里","LIN":"15鄰","STREET":"永興路","SECT":" ","MAREA":" ","LANE":" ","ALLEY":" ","HOUSE_NO":"３２３號","E_COORD97":173495.79000000001,"N_COORD97":2546764.25,"ADDRESS":"永興路３２３號","OBJECTID":148704},"geometry":{"x":173495.79000000097,"y":2546764.25}},{"attributes":{"ID":148706,"DIS_CODE":0,"TOWNNAME":"永康區","LI":"東橋里","LIN":"15鄰","STREET":"東橋五路","SECT":" ","MAREA":" ","LANE":" ","ALLEY":" ","HOUSE_NO":"９２號","E_COORD97":171729.06,"N_COORD97":2546742.3399999999,"ADDRESS":"東橋五路９２號","OBJECTID":148705},"geometry":{"x":171729.06000000052,"y":2546742.3400000017}},{"attributes":{"ID":148707,"DIS_CODE":0,"TOWNNAME":"東區","LI":"虎尾里","LIN":"3鄰","STREET":"東門路","SECT":"三段","MAREA":" ","LANE":"１７９巷","ALLEY":"１４７弄","HOUSE_NO":"１８號","E_COORD97":171791.44,"N_COORD97":2542107.21,"ADDRESS":"東門路三段１７９巷１４７弄１８號","OBJECTID":148706},"geometry":{"x":171791.44000000134,"y":2542107.2100000009}},{"attributes":{"ID":148708,"DIS_CODE":0,"TOWNNAME":"永康區","LI":"五王里","LIN":"3鄰","STREET":"中華二路","SECT":" ","MAREA":" ","LANE":"２０６巷","ALLEY":"５１弄","HOUSE_NO":"１１號","E_COORD97":171557,"N_COORD97":2545587.6200000001,"ADDRESS":"中華二路２０６巷５１弄１１號","OBJECTID":148707},"geometry":{"x":171557.00000000093,"y":2545587.6200000048}},{"attributes":{"ID":148709,"DIS_CODE":0,"TOWNNAME":"東區","LI":"大同里","LIN":"24鄰","STREET":"大同路","SECT":"一段","MAREA":" ","LANE":"２４１巷","ALLEY":"６弄","HOUSE_NO":"１０號","E_COORD97":169185.56,"N_COORD97":2542603.7400000002,"ADDRESS":"大同路一段２４１巷６弄１０號","OBJECTID":148708},"geometry":{"x":169185.56000000145,"y":2542603.7400000021}},{"attributes":{"ID":148710,"DIS_CODE":0,"TOWNNAME":"東區","LI":"大同里","LIN":"24鄰","STREET":"大同路","SECT":"一段","MAREA":" ","LANE":"２４１巷","ALLEY":"６弄","HOUSE_NO":"１２號","E_COORD97":169196.63,"N_COORD97":2542609.0499999998,"ADDRESS":"大同路一段２４１巷６弄１２號","OBJECTID":148709},"geometry":{"x":169196.62999999989,"y":2542609.0500000026}},{"attributes":{"ID":148711,"DIS_CODE":0,"TOWNNAME":"東區","LI":"大同里","LIN":"24鄰","STREET":"大同路","SECT":"一段","MAREA":" ","LANE":"２４１巷","ALLEY":"６弄","HOUSE_NO":"２４號","E_COORD97":169235.82999999999,"N_COORD97":2542595.29,"ADDRESS":"大同路一段２４１巷６弄２４號","OBJECTID":148710},"geometry":{"x":169235.83000000101,"y":2542595.290000001}},{"attributes":{"ID":148712,"DIS_CODE":0,"TOWNNAME":"東區","LI":"大同里","LIN":"24鄰","STREET":"大同路","SECT":"一段","MAREA":" ","LANE":"２４１巷","ALLEY":"６弄","HOUSE_NO":"２６號","E_COORD97":169232.92999999999,"N_COORD97":2542594.27,"ADDRESS":"大同路一段２４１巷６弄２６號","OBJECTID":148711},"geometry":{"x":169232.93000000063,"y":2542594.2699999996}},{"attributes":{"ID":148713,"DIS_CODE":0,"TOWNNAME":"東區","LI":"大同里","LIN":"24鄰","STREET":"大同路","SECT":"一段","MAREA":" ","LANE":"２４１巷","ALLEY":"６弄","HOUSE_NO":"２７號","E_COORD97":169234.53,"N_COORD97":2542616.1000000001,"ADDRESS":"大同路一段２４１巷６弄２７號","OBJECTID":148712},"geometry":{"x":169234.53000000119,"y":2542616.1000000034}},{"attributes":{"ID":148714,"DIS_CODE":0,"TOWNNAME":"東區","LI":"大同里","LIN":"24鄰","STREET":"大同路","SECT":"一段","MAREA":" ","LANE":"２４１巷","ALLEY":"６弄","HOUSE_NO":"２８號","E_COORD97":169227.42000000001,"N_COORD97":2542593.3999999999,"ADDRESS":"大同路一段２４１巷６弄２８號","OBJECTID":148713},"geometry":{"x":169227.41999999899,"y":2542593.4000000004}},{"attributes":{"ID":148715,"DIS_CODE":0,"TOWNNAME":"東區","LI":"大同里","LIN":"24鄰","STREET":"大同路","SECT":"一段","MAREA":" ","LANE":"２４１巷","ALLEY":"６弄","HOUSE_NO":"２９號","E_COORD97":169238.45000000001,"N_COORD97":2542611.3199999998,"ADDRESS":"大同路一段２４１巷６弄２９號","OBJECTID":148714},"geometry":{"x":169238.45000000112,"y":2542611.3200000003}},{"attributes":{"ID":148716,"DIS_CODE":0,"TOWNNAME":"東區","LI":"大同里","LIN":"24鄰","STREET":"大同路","SECT":"一段","MAREA":" ","LANE":"２４１巷","ALLEY":"６弄","HOUSE_NO":"２號","E_COORD97":169177.60000000001,"N_COORD97":2542630.9500000002,"ADDRESS":"大同路一段２４１巷６弄２號","OBJECTID":148715},"geometry":{"x":169177.60000000056,"y":2542630.9500000011}},{"attributes":{"ID":148717,"DIS_CODE":0,"TOWNNAME":"東區","LI":"大同里","LIN":"24鄰","STREET":"大同路","SECT":"一段","MAREA":" ","LANE":"２４１巷","ALLEY":"６弄","HOUSE_NO":"３０號","E_COORD97":169222.94,"N_COORD97":2542588.4700000002,"ADDRESS":"大同路一段２４１巷６弄３０號","OBJECTID":148716},"geometry":{"x":169222.94000000134,"y":2542588.4700000025}},{"attributes":{"ID":148718,"DIS_CODE":0,"TOWNNAME":"東區","LI":"大同里","LIN":"24鄰","STREET":"大同路","SECT":"一段","MAREA":" ","LANE":"２４１巷","ALLEY":"６弄","HOUSE_NO":"３１號","E_COORD97":169245.41,"N_COORD97":2542606.3900000001,"ADDRESS":"大同路一段２４１巷６弄３１號","OBJECTID":148717},"geometry":{"x":169245.41000000108,"y":2542606.3900000025}},{"attributes":{"ID":148719,"DIS_CODE":0,"TOWNNAME":"東區","LI":"大同里","LIN":"24鄰","STREET":"大同路","SECT":"一段","MAREA":" ","LANE":"２４１巷","ALLEY":"６弄","HOUSE_NO":"３２號","E_COORD97":169219.69,"N_COORD97":2542584.8900000001,"ADDRESS":"大同路一段２４１巷６弄３２號","OBJECTID":148718},"geometry":{"x":169219.69000000134,"y":2542584.8900000043}},{"attributes":{"ID":148720,"DIS_CODE":0,"TOWNNAME":"東區","LI":"大同里","LIN":"24鄰","STREET":"大同路","SECT":"一段","MAREA":" ","LANE":"２４１巷","ALLEY":"６弄","HOUSE_NO":"３４號","E_COORD97":169218.84,"N_COORD97":2542579.25,"ADDRESS":"大同路一段２４１巷６弄３４號","OBJECTID":148719},"geometry":{"x":169218.83999999985,"y":2542579.2500000019}},{"attributes":{"ID":148721,"DIS_CODE":0,"TOWNNAME":"東區","LI":"大同里","LIN":"24鄰","STREET":"大同路","SECT":"一段","MAREA":" ","LANE":"２４１巷","ALLEY":"６弄","HOUSE_NO":"３５號","E_COORD97":169253.95999999999,"N_COORD97":2542614.5,"ADDRESS":"大同路一段２４１巷６弄３５號","OBJECTID":148720},"geometry":{"x":169253.95999999996,"y":2542614.5000000019}},{"attributes":{"ID":148722,"DIS_CODE":0,"TOWNNAME":"東區","LI":"大同里","LIN":"24鄰","STREET":"大同路","SECT":"一段","MAREA":" ","LANE":"２４１巷","ALLEY":"６弄","HOUSE_NO":"３６號","E_COORD97":169221.79000000001,"N_COORD97":2542574.1499999999,"ADDRESS":"大同路一段２４１巷６弄３６號","OBJECTID":148721},"geometry":{"x":169221.7900000019,"y":2542574.1500000022}},{"attributes":{"ID":148723,"DIS_CODE":0,"TOWNNAME":"東區","LI":"大同里","LIN":"24鄰","STREET":"大同路","SECT":"一段","MAREA":" ","LANE":"２４１巷","ALLEY":"６弄","HOUSE_NO":"３７號","E_COORD97":169256.42999999999,"N_COORD97":2542618.4199999999,"ADDRESS":"大同路一段２４１巷６弄３７號","OBJECTID":148722},"geometry":{"x":169256.43000000063,"y":2542618.4200000018}},{"attributes":{"ID":148724,"DIS_CODE":0,"TOWNNAME":"東區","LI":"大同里","LIN":"24鄰","STREET":"大同路","SECT":"一段","MAREA":" ","LANE":"２４１巷","ALLEY":"６弄","HOUSE_NO":"３８號","E_COORD97":169229.64000000001,"N_COORD97":2542563.02,"ADDRESS":"大同路一段２４１巷６弄３８號","OBJECTID":148723},"geometry":{"x":169229.6400000006,"y":2542563.0200000014}},{"attributes":{"ID":148725,"DIS_CODE":0,"TOWNNAME":"東區","LI":"大同里","LIN":"24鄰","STREET":"大同路","SECT":"一段","MAREA":" ","LANE":"２４１巷","ALLEY":"６弄","HOUSE_NO":"３９號","E_COORD97":169276.01000000001,"N_COORD97":2542596.8799999999,"ADDRESS":"大同路一段２４１巷６弄３９號","OBJECTID":148724},"geometry":{"x":169276.01000000164,"y":2542596.8800000027}},{"attributes":{"ID":148726,"DIS_CODE":0,"TOWNNAME":"東區","LI":"大同里","LIN":"24鄰","STREET":"大同路","SECT":"一段","MAREA":" ","LANE":"２４１巷","ALLEY":"６弄","HOUSE_NO":"４０號","E_COORD97":169224.5,"N_COORD97":2542571.8500000001,"ADDRESS":"大同路一段２４１巷６弄４０號","OBJECTID":148725},"geometry":{"x":169224.5,"y":2542571.8500000015}},{"attributes":{"ID":148727,"DIS_CODE":0,"TOWNNAME":"東區","LI":"大同里","LIN":"24鄰","STREET":"大同路","SECT":"一段","MAREA":" ","LANE":"２４１巷","ALLEY":"６弄","HOUSE_NO":"４１號","E_COORD97":169266.57999999999,"N_COORD97":2542595,"ADDRESS":"大同路一段２４１巷６弄４１號","OBJECTID":148726},"geometry":{"x":169266.58000000007,"y":2542595.0000000019}},{"attributes":{"ID":148728,"DIS_CODE":0,"TOWNNAME":"東區","LI":"大同里","LIN":"24鄰","STREET":"大同路","SECT":"一段","MAREA":" ","LANE":"２４１巷","ALLEY":"６弄","HOUSE_NO":"４２號","E_COORD97":169233.95999999999,"N_COORD97":2542576.1600000001,"ADDRESS":"大同路一段２４１巷６弄４２號","OBJECTID":148727},"geometry":{"x":169233.95999999903,"y":2542576.160000002}},{"attributes":{"ID":148729,"DIS_CODE":0,"TOWNNAME":"東區","LI":"大同里","LIN":"24鄰","STREET":"大同路","SECT":"一段","MAREA":" ","LANE":"２４１巷","ALLEY":"６弄","HOUSE_NO":"４３號","E_COORD97":169261.51000000001,"N_COORD97":2542594.1299999999,"ADDRESS":"大同路一段２４１巷６弄４３號","OBJECTID":148728},"geometry":{"x":169261.50999999978,"y":2542594.129999999}},{"attributes":{"ID":148730,"DIS_CODE":0,"TOWNNAME":"東區","LI":"大同里","LIN":"24鄰","STREET":"大同路","SECT":"一段","MAREA":" ","LANE":"２４１巷","ALLEY":"６弄","HOUSE_NO":"４４號","E_COORD97":169238.26999999999,"N_COORD97":2542578.2200000002,"ADDRESS":"大同路一段２４１巷６弄４４號","OBJECTID":148729},"geometry":{"x":169238.27000000142,"y":2542578.2200000007}},{"attributes":{"ID":148731,"DIS_CODE":0,"TOWNNAME":"東區","LI":"大同里","LIN":"24鄰","STREET":"大同路","SECT":"一段","MAREA":" ","LANE":"２４１巷","ALLEY":"６弄","HOUSE_NO":"４５號","E_COORD97":169259.63,"N_COORD97":2542587.0600000001,"ADDRESS":"大同路一段２４１巷６弄４５號","OBJECTID":148730},"geometry":{"x":169259.62999999989,"y":2542587.0600000042}},{"attributes":{"ID":148732,"DIS_CODE":0,"TOWNNAME":"東區","LI":"大同里","LIN":"24鄰","STREET":"大同路","SECT":"一段","MAREA":" ","LANE":"２４１巷","ALLEY":"６弄","HOUSE_NO":"４６號","E_COORD97":169242.59,"N_COORD97":2542579.6499999999,"ADDRESS":"大同路一段２４１巷６弄４６號","OBJECTID":148731},"geometry":{"x":169242.58999999985,"y":2542579.6500000022}},{"attributes":{"ID":148733,"DIS_CODE":0,"TOWNNAME":"東區","LI":"大同里","LIN":"24鄰","STREET":"大同路","SECT":"一段","MAREA":" ","LANE":"２４１巷","ALLEY":"６弄","HOUSE_NO":"４８號","E_COORD97":169246.29000000001,"N_COORD97":2542582.5299999998,"ADDRESS":"大同路一段２４１巷６弄４８號","OBJECTID":148732},"geometry":{"x":169246.29000000004,"y":2542582.5300000031}},{"attributes":{"ID":148734,"DIS_CODE":0,"TOWNNAME":"東區","LI":"大同里","LIN":"24鄰","STREET":"大同路","SECT":"一段","MAREA":" ","LANE":"２４１巷","ALLEY":"６弄","HOUSE_NO":"４號","E_COORD97":169168.51999999999,"N_COORD97":2542630.5099999998,"ADDRESS":"大同路一段２４１巷６弄４號","OBJECTID":148733},"geometry":{"x":169168.51999999955,"y":2542630.5100000035}},{"attributes":{"ID":148735,"DIS_CODE":0,"TOWNNAME":"永康區","LI":"網寮里","LIN":"15鄰","STREET":"永興路","SECT":" ","MAREA":" ","LANE":" ","ALLEY":" ","HOUSE_NO":"３３５號","E_COORD97":173469.57000000001,"N_COORD97":2546776.4700000002,"ADDRESS":"永興路３３５號","OBJECTID":148734},"geometry":{"x":173469.5700000003,"y":2546776.4700000007}},{"attributes":{"ID":148736,"DIS_CODE":0,"TOWNNAME":"永康區","LI":"正強里","LIN":"3鄰","STREET":"中正路","SECT":" ","MAREA":" ","LANE":"１巷","ALLEY":"２０弄","HOUSE_NO":"２２號","E_COORD97":173595.5,"N_COORD97":2547634.4900000002,"ADDRESS":"中正路１巷２０弄２２號","OBJECTID":148735},"geometry":{"x":173595.50000000186,"y":2547634.4900000002}},{"attributes":{"ID":148737,"DIS_CODE":0,"TOWNNAME":"東區","LI":"大同里","LIN":"24鄰","STREET":"大同路","SECT":"一段","MAREA":" ","LANE":"２４１巷","ALLEY":"６弄","HOUSE_NO":"６號","E_COORD97":169175.38,"N_COORD97":2542612.5899999999,"ADDRESS":"大同路一段２４１巷６弄６號","OBJECTID":148736},"geometry":{"x":169175.38000000082,"y":2542612.5899999999}},{"attributes":{"ID":148738,"DIS_CODE":0,"TOWNNAME":"東區","LI":"大同里","LIN":"24鄰","STREET":"大同路","SECT":"一段","MAREA":" ","LANE":"２４１巷","ALLEY":"６弄","HOUSE_NO":"８號","E_COORD97":169178.70000000001,"N_COORD97":2542603.0800000001,"ADDRESS":"大同路一段２４１巷６弄８號","OBJECTID":148737},"geometry":{"x":169178.70000000112,"y":2542603.0800000038}},{"attributes":{"ID":148739,"DIS_CODE":0,"TOWNNAME":"永康區","LI":"蔦松里","LIN":"3鄰","STREET":"蔦松二街","SECT":" ","MAREA":" ","LANE":"１２４巷","ALLEY":"３５弄","HOUSE_NO":"９號","E_COORD97":173943.57000000001,"N_COORD97":2549312.75,"ADDRESS":"蔦松二街１２４巷３５弄９號","OBJECTID":148738},"geometry":{"x":173943.57000000123,"y":2549312.7500000019}},{"attributes":{"ID":148740,"DIS_CODE":0,"TOWNNAME":"永康區","LI":"新樹里","LIN":"3鄰","STREET":"中山北路","SECT":" ","MAREA":" ","LANE":"６３４巷","ALLEY":"１８弄","HOUSE_NO":"８號","E_COORD97":176029.79000000001,"N_COORD97":2547763.3599999999,"ADDRESS":"中山北路６３４巷１８弄８號","OBJECTID":148739},"geometry":{"x":176029.79000000097,"y":2547763.3599999994}},{"attributes":{"ID":148741,"DIS_CODE":0,"TOWNNAME":"永康區","LI":"新樹里","LIN":"3鄰","STREET":"中山北路","SECT":" ","MAREA":" ","LANE":"６３４巷","ALLEY":"１８弄","HOUSE_NO":"６號","E_COORD97":176030.10000000001,"N_COORD97":2547779.8599999999,"ADDRESS":"中山北路６３４巷１８弄６號","OBJECTID":148740},"geometry":{"x":176030.09999999963,"y":2547779.8599999994}},{"attributes":{"ID":148742,"DIS_CODE":0,"TOWNNAME":"永康區","LI":"新樹里","LIN":"3鄰","STREET":"中山北路","SECT":" ","MAREA":" ","LANE":"６３４巷","ALLEY":"１８弄","HOUSE_NO":"９號","E_COORD97":176046.25,"N_COORD97":2547779.3300000001,"ADDRESS":"中山北路６３４巷１８弄９號","OBJECTID":148741},"geometry":{"x":176046.25,"y":2547779.3300000019}},{"attributes":{"ID":148743,"DIS_CODE":0,"TOWNNAME":"永康區","LI":"龍潭里","LIN":"3鄰","STREET":"龍國街","SECT":" ","MAREA":" ","LANE":"３０９巷","ALLEY":"３弄","HOUSE_NO":"９號","E_COORD97":174664.13,"N_COORD97":2548062.3599999999,"ADDRESS":"龍國街３０９巷３弄９號","OBJECTID":148742},"geometry":{"x":174664.13000000175,"y":2548062.3599999975}},{"attributes":{"ID":148744,"DIS_CODE":0,"TOWNNAME":"永康區","LI":"龍潭里","LIN":"3鄰","STREET":"龍潭街","SECT":" ","MAREA":" ","LANE":"８９巷","ALLEY":"１６弄","HOUSE_NO":"１０號","E_COORD97":174730.53,"N_COORD97":2548104.6899999999,"ADDRESS":"龍潭街８９巷１６弄１０號","OBJECTID":148743},"geometry":{"x":174730.53000000119,"y":2548104.6900000032}},{"attributes":{"ID":148745,"DIS_CODE":0,"TOWNNAME":"永康區","LI":"新樹里","LIN":"3鄰","STREET":"中山北路","SECT":" ","MAREA":" ","LANE":"６３４巷","ALLEY":"１８弄","HOUSE_NO":"４號","E_COORD97":176029.91,"N_COORD97":2547797.3599999999,"ADDRESS":"中山北路６３４巷１８弄４號","OBJECTID":148744},"geometry":{"x":176029.91000000015,"y":2547797.3599999994}},{"attributes":{"ID":148746,"DIS_CODE":0,"TOWNNAME":"永康區","LI":"復興里","LIN":"3鄰","STREET":"復興路","SECT":" ","MAREA":" ","LANE":"２７７巷","ALLEY":"３４弄","HOUSE_NO":"１號","E_COORD97":172333.60000000001,"N_COORD97":2544165.4100000001,"ADDRESS":"復興路２７７巷３４弄１號","OBJECTID":148745},"geometry":{"x":172333.60000000056,"y":2544165.410000002}},{"attributes":{"ID":148747,"DIS_CODE":0,"TOWNNAME":"永康區","LI":"復興里","LIN":"3鄰","STREET":"復興路","SECT":" ","MAREA":" ","LANE":"２７７巷","ALLEY":"７８弄","HOUSE_NO":"２號","E_COORD97":172331.39999999999,"N_COORD97":2544121.02,"ADDRESS":"復興路２７７巷７８弄２號","OBJECTID":148746},"geometry":{"x":172331.40000000037,"y":2544121.0199999996}},{"attributes":{"ID":148748,"DIS_CODE":0,"TOWNNAME":"仁德區","LI":"土庫里","LIN":"3鄰","STREET":"土庫路","SECT":" ","MAREA":" ","LANE":"２００巷","ALLEY":"２４弄","HOUSE_NO":"３號","E_COORD97":174217.76000000001,"N_COORD97":2542913.5,"ADDRESS":"土庫路２００巷２４弄３號","OBJECTID":148747},"geometry":{"x":174217.76000000071,"y":2542913.5000000019}},{"attributes":{"ID":148749,"DIS_CODE":0,"TOWNNAME":"仁德區","LI":"太子里","LIN":"3鄰","STREET":"太子路","SECT":" ","MAREA":" ","LANE":"１９０巷","ALLEY":"２３弄","HOUSE_NO":"１７號","E_COORD97":174266.09,"N_COORD97":2543574.5,"ADDRESS":"太子路１９０巷２３弄１７號","OBJECTID":148748},"geometry":{"x":174266.09000000171,"y":2543574.5000000019}},{"attributes":{"ID":148750,"DIS_CODE":0,"TOWNNAME":"仁德區","LI":"太子里","LIN":"3鄰","STREET":"太子路","SECT":" ","MAREA":" ","LANE":"１９０巷","ALLEY":"２３弄","HOUSE_NO":"２６號","E_COORD97":174248.51000000001,"N_COORD97":2543592.1000000001,"ADDRESS":"太子路１９０巷２３弄２６號","OBJECTID":148749},"geometry":{"x":174248.51000000071,"y":2543592.0999999996}},{"attributes":{"ID":148751,"DIS_CODE":0,"TOWNNAME":"仁德區","LI":"太子里","LIN":"3鄰","STREET":"太子路","SECT":" ","MAREA":" ","LANE":"１９０巷","ALLEY":"２３弄","HOUSE_NO":"８號","E_COORD97":174290.79999999999,"N_COORD97":2543595.3500000001,"ADDRESS":"太子路１９０巷２３弄８號","OBJECTID":148750},"geometry":{"x":174290.80000000075,"y":2543595.3500000015}},{"attributes":{"ID":148752,"DIS_CODE":0,"TOWNNAME":"仁德區","LI":"太子里","LIN":"3鄰","STREET":"太子路","SECT":" ","MAREA":" ","LANE":"１９０巷","ALLEY":"２３弄","HOUSE_NO":"９號","E_COORD97":174281.60000000001,"N_COORD97":2543576,"ADDRESS":"太子路１９０巷２３弄９號","OBJECTID":148751},"geometry":{"x":174281.60000000056,"y":2543576}},{"attributes":{"ID":148753,"DIS_CODE":0,"TOWNNAME":"仁德區","LI":"太子里","LIN":"3鄰","STREET":"太子路","SECT":" ","MAREA":" ","LANE":"１９０巷","ALLEY":"２３弄","HOUSE_NO":"６號","E_COORD97":174294.79999999999,"N_COORD97":2543595.6000000001,"ADDRESS":"太子路１９０巷２３弄６號","OBJECTID":148752},"geometry":{"x":174294.79999999981,"y":2543595.5999999996}},{"attributes":{"ID":148754,"DIS_CODE":0,"TOWNNAME":"仁德區","LI":"太子里","LIN":"3鄰","STREET":"太子路","SECT":" ","MAREA":" ","LANE":"１９０巷","ALLEY":"２３弄","HOUSE_NO":"４號","E_COORD97":174299.16,"N_COORD97":2543596.3500000001,"ADDRESS":"太子路１９０巷２３弄４號","OBJECTID":148753},"geometry":{"x":174299.16000000015,"y":2543596.3499999996}},{"attributes":{"ID":148755,"DIS_CODE":0,"TOWNNAME":"仁德區","LI":"太子里","LIN":"3鄰","STREET":"太子路","SECT":" ","MAREA":" ","LANE":"１９０巷","ALLEY":"２３弄","HOUSE_NO":"８之１號","E_COORD97":174288.85000000001,"N_COORD97":2543594.8900000001,"ADDRESS":"太子路１９０巷２３弄８之１號","OBJECTID":148754},"geometry":{"x":174288.84999999963,"y":2543594.8899999987}},{"attributes":{"ID":148756,"DIS_CODE":0,"TOWNNAME":"仁德區","LI":"太子里","LIN":"3鄰","STREET":"太子路","SECT":" ","MAREA":" ","LANE":"１９０巷","ALLEY":"２３弄","HOUSE_NO":"３號","E_COORD97":174295.06,"N_COORD97":2543581.75,"ADDRESS":"太子路１９０巷２３弄３號","OBJECTID":148755},"geometry":{"x":174295.06000000052,"y":2543581.7500000037}},{"attributes":{"ID":148757,"DIS_CODE":0,"TOWNNAME":"仁德區","LI":"太子里","LIN":"3鄰","STREET":"太子路","SECT":" ","MAREA":" ","LANE":"１９０巷","ALLEY":"２３弄","HOUSE_NO":"２４號","E_COORD97":174253.20999999999,"N_COORD97":2543592.3500000001,"ADDRESS":"太子路１９０巷２３弄２４號","OBJECTID":148756},"geometry":{"x":174253.20999999996,"y":2543592.3500000015}},{"attributes":{"ID":148758,"DIS_CODE":0,"TOWNNAME":"仁德區","LI":"太子里","LIN":"3鄰","STREET":"太子路","SECT":" ","MAREA":" ","LANE":"１９０巷","ALLEY":"２３弄","HOUSE_NO":"７號","E_COORD97":174286.34,"N_COORD97":2543576.75,"ADDRESS":"太子路１９０巷２３弄７號","OBJECTID":148757},"geometry":{"x":174286.34000000171,"y":2543576.75}},{"attributes":{"ID":148759,"DIS_CODE":0,"TOWNNAME":"仁德區","LI":"太子里","LIN":"3鄰","STREET":"太子路","SECT":" ","MAREA":" ","LANE":"１９０巷","ALLEY":"２３弄","HOUSE_NO":"３０號","E_COORD97":174237.76000000001,"N_COORD97":2543592.6000000001,"ADDRESS":"太子路１９０巷２３弄３０號","OBJECTID":148758},"geometry":{"x":174237.76000000164,"y":2543592.6000000034}},{"attributes":{"ID":148760,"DIS_CODE":0,"TOWNNAME":"東區","LI":"小東里","LIN":"6鄰","STREET":"光明街","SECT":" ","MAREA":" ","LANE":" ","ALLEY":" ","HOUSE_NO":"４５號之１","E_COORD97":170899.95999999999,"N_COORD97":2544393.2200000002,"ADDRESS":"光明街４５號之１","OBJECTID":148759},"geometry":{"x":170899.95999999996,"y":2544393.2200000044}},{"attributes":{"ID":148761,"DIS_CODE":0,"TOWNNAME":"東區","LI":"小東里","LIN":"6鄰","STREET":"光明街","SECT":" ","MAREA":" ","LANE":" ","ALLEY":" ","HOUSE_NO":"４３號之１","E_COORD97":170900.85999999999,"N_COORD97":2544411.54,"ADDRESS":"光明街４３號之１","OBJECTID":148760},"geometry":{"x":170900.86000000034,"y":2544411.5399999991}},{"attributes":{"ID":148762,"DIS_CODE":0,"TOWNNAME":"東區","LI":"小東里","LIN":"14鄰","STREET":"光明街","SECT":" ","MAREA":" ","LANE":" ","ALLEY":" ","HOUSE_NO":"１３７號","E_COORD97":170913.97,"N_COORD97":2544276.96,"ADDRESS":"光明街１３７號","OBJECTID":148761},"geometry":{"x":170913.97000000067,"y":2544276.9600000028}},{"attributes":{"ID":148763,"DIS_CODE":0,"TOWNNAME":"東區","LI":"小東里","LIN":"7鄰","STREET":"光明街","SECT":" ","MAREA":" ","LANE":" ","ALLEY":" ","HOUSE_NO":"２０３號","E_COORD97":170930.79000000001,"N_COORD97":2544045.6400000001,"ADDRESS":"光明街２０３號","OBJECTID":148762},"geometry":{"x":170930.79000000097,"y":2544045.6400000025}},{"attributes":{"ID":148764,"DIS_CODE":0,"TOWNNAME":"東區","LI":"小東里","LIN":"7鄰","STREET":"光明街","SECT":" ","MAREA":" ","LANE":" ","ALLEY":" ","HOUSE_NO":"１８７號","E_COORD97":170927.60999999999,"N_COORD97":2544131.1099999999,"ADDRESS":"光明街１８７號","OBJECTID":148763},"geometry":{"x":170927.61000000127,"y":2544131.1099999975}},{"attributes":{"ID":148765,"DIS_CODE":0,"TOWNNAME":"東區","LI":"小東里","LIN":"15鄰","STREET":"光明街","SECT":" ","MAREA":" ","LANE":" ","ALLEY":" ","HOUSE_NO":"７０號","E_COORD97":170892.64000000001,"N_COORD97":2544207.5299999998,"ADDRESS":"光明街７０號","OBJECTID":148764},"geometry":{"x":170892.6400000006,"y":2544207.5300000012}},{"attributes":{"ID":148766,"DIS_CODE":0,"TOWNNAME":"東區","LI":"小東里","LIN":"4鄰","STREET":"光明街","SECT":" ","MAREA":" ","LANE":" ","ALLEY":" ","HOUSE_NO":"６號","E_COORD97":170864.73000000001,"N_COORD97":2544441.3999999999,"ADDRESS":"光明街６號","OBJECTID":148765},"geometry":{"x":170864.73000000045,"y":2544441.4000000004}},{"attributes":{"ID":148767,"DIS_CODE":0,"TOWNNAME":"東區","LI":"小東里","LIN":"4鄰","STREET":"光明街","SECT":" ","MAREA":" ","LANE":" ","ALLEY":" ","HOUSE_NO":"８號","E_COORD97":170865.63,"N_COORD97":2544437.1899999999,"ADDRESS":"光明街８號","OBJECTID":148766},"geometry":{"x":170865.63000000082,"y":2544437.1900000013}},{"attributes":{"ID":148768,"DIS_CODE":0,"TOWNNAME":"安南區","LI":"頂安里","LIN":"19鄰","STREET":"北安路","SECT":"三段","MAREA":" ","LANE":" ","ALLEY":" ","HOUSE_NO":"３９８號","E_COORD97":168984.17000000001,"N_COORD97":2549670.79,"ADDRESS":"北安路三段３９８號","OBJECTID":148767},"geometry":{"x":168984.17000000086,"y":2549670.790000001}},{"attributes":{"ID":148769,"DIS_CODE":0,"TOWNNAME":"安南區","LI":"頂安里","LIN":"19鄰","STREET":"北安路","SECT":"三段","MAREA":" ","LANE":" ","ALLEY":" ","HOUSE_NO":"４０２號","E_COORD97":169010.82999999999,"N_COORD97":2549719.1099999999,"ADDRESS":"北安路三段４０２號","OBJECTID":148768},"geometry":{"x":169010.83000000007,"y":2549719.1100000013}},{"attributes":{"ID":148770,"DIS_CODE":0,"TOWNNAME":"安南區","LI":"新順里","LIN":"19鄰","STREET":"安豐六街","SECT":" ","MAREA":" ","LANE":" ","ALLEY":" ","HOUSE_NO":"１２號","E_COORD97":169302.10999999999,"N_COORD97":2549682.6000000001,"ADDRESS":"安豐六街１２號","OBJECTID":148769},"geometry":{"x":169302.11000000034,"y":2549682.6000000015}},{"attributes":{"ID":148771,"DIS_CODE":0,"TOWNNAME":"安南區","LI":"新順里","LIN":"19鄰","STREET":"安豐六街","SECT":" ","MAREA":" ","LANE":" ","ALLEY":" ","HOUSE_NO":"１４號","E_COORD97":169306.29000000001,"N_COORD97":2549680.7000000002,"ADDRESS":"安豐六街１４號","OBJECTID":148770},"geometry":{"x":169306.29000000004,"y":2549680.700000003}},{"attributes":{"ID":148772,"DIS_CODE":0,"TOWNNAME":"安南區","LI":"新順里","LIN":"19鄰","STREET":"安豐六街","SECT":" ","MAREA":" ","LANE":" ","ALLEY":" ","HOUSE_NO":"１６號","E_COORD97":169311.62,"N_COORD97":2549682.98,"ADDRESS":"安豐六街１６號","OBJECTID":148771},"geometry":{"x":169311.62000000104,"y":2549682.9800000004}},{"attributes":{"ID":148773,"DIS_CODE":0,"TOWNNAME":"官田區","LI":"拔林里","LIN":"7鄰","STREET":" ","SECT":" ","MAREA":"拔子林","LANE":" ","ALLEY":" ","HOUSE_NO":"５３號","E_COORD97":180685.92999999999,"N_COORD97":2563697.48,"ADDRESS":"拔子林５３號","OBJECTID":148772},"geometry":{"x":180685.9299999997,"y":2563697.4800000023}},{"attributes":{"ID":148774,"DIS_CODE":0,"TOWNNAME":"官田區","LI":"拔林里","LIN":"7鄰","STREET":" ","SECT":" ","MAREA":"拔子林","LANE":" ","ALLEY":" ","HOUSE_NO":"５４號","E_COORD97":180716.92000000001,"N_COORD97":2563713.6800000002,"ADDRESS":"拔子林５４號","OBJECTID":148773},"geometry":{"x":180716.91999999993,"y":2563713.6799999997}},{"attributes":{"ID":148775,"DIS_CODE":0,"TOWNNAME":"官田區","LI":"拔林里","LIN":"7鄰","STREET":" ","SECT":" ","MAREA":"拔子林","LANE":" ","ALLEY":" ","HOUSE_NO":"５５號","E_COORD97":180711.14999999999,"N_COORD97":2563701.23,"ADDRESS":"拔子林５５號","OBJECTID":148774},"geometry":{"x":180711.15000000037,"y":2563701.2300000023}},{"attributes":{"ID":148776,"DIS_CODE":0,"TOWNNAME":"官田區","LI":"拔林里","LIN":"7鄰","STREET":" ","SECT":" ","MAREA":"拔子林","LANE":" ","ALLEY":" ","HOUSE_NO":"５６號","E_COORD97":180737.57999999999,"N_COORD97":2563719.79,"ADDRESS":"拔子林５６號","OBJECTID":148775},"geometry":{"x":180737.58000000101,"y":2563719.790000001}},{"attributes":{"ID":148777,"DIS_CODE":0,"TOWNNAME":"官田區","LI":"拔林里","LIN":"7鄰","STREET":" ","SECT":" ","MAREA":"拔子林","LANE":" ","ALLEY":" ","HOUSE_NO":"５７號","E_COORD97":180759.09,"N_COORD97":2563726.2999999998,"ADDRESS":"拔子林５７號","OBJECTID":148776},"geometry":{"x":180759.09000000078,"y":2563726.3000000007}},{"attributes":{"ID":148778,"DIS_CODE":0,"TOWNNAME":"官田區","LI":"拔林里","LIN":"1鄰","STREET":" ","SECT":" ","MAREA":"拔子林","LANE":" ","ALLEY":" ","HOUSE_NO":"１０號","E_COORD97":180699.60505499999,"N_COORD97":2563637.38674,"ADDRESS":"拔子林１０號","OBJECTID":148777},"geometry":{"x":180699.6050549997,"y":2563637.3867380023}},{"attributes":{"ID":148779,"DIS_CODE":0,"TOWNNAME":"官田區","LI":"拔林里","LIN":"1鄰","STREET":" ","SECT":" ","MAREA":"拔子林","LANE":" ","ALLEY":" ","HOUSE_NO":"４號","E_COORD97":180663.07000000001,"N_COORD97":2563585.5800000001,"ADDRESS":"拔子林４號","OBJECTID":148778},"geometry":{"x":180663.07000000123,"y":2563585.5800000001}},{"attributes":{"ID":148780,"DIS_CODE":0,"TOWNNAME":"官田區","LI":"拔林里","LIN":"6鄰","STREET":" ","SECT":" ","MAREA":"拔子林","LANE":" ","ALLEY":" ","HOUSE_NO":"４７號","E_COORD97":180747.60999999999,"N_COORD97":2563797.5800000001,"ADDRESS":"拔子林４７號","OBJECTID":148779},"geometry":{"x":180747.61000000127,"y":2563797.5800000019}},{"attributes":{"ID":148781,"DIS_CODE":0,"TOWNNAME":"官田區","LI":"拔林里","LIN":"6鄰","STREET":" ","SECT":" ","MAREA":"拔子林","LANE":" ","ALLEY":" ","HOUSE_NO":"４８號之１","E_COORD97":180755.45999999999,"N_COORD97":2563772.2999999998,"ADDRESS":"拔子林４８號之１","OBJECTID":148780},"geometry":{"x":180755.45999999996,"y":2563772.3000000026}},{"attributes":{"ID":148782,"DIS_CODE":0,"TOWNNAME":"官田區","LI":"拔林里","LIN":"6鄰","STREET":" ","SECT":" ","MAREA":"拔子林","LANE":" ","ALLEY":" ","HOUSE_NO":"４８號","E_COORD97":180780.20000000001,"N_COORD97":2563780.6600000001,"ADDRESS":"拔子林４８號","OBJECTID":148781},"geometry":{"x":180780.19999999925,"y":2563780.660000002}},{"attributes":{"ID":148783,"DIS_CODE":0,"TOWNNAME":"官田區","LI":"拔林里","LIN":"6鄰","STREET":" ","SECT":" ","MAREA":"拔子林","LANE":" ","ALLEY":" ","HOUSE_NO":"４９號","E_COORD97":180706.31,"N_COORD97":2563777.6499999999,"ADDRESS":"拔子林４９號","OBJECTID":148782},"geometry":{"x":180706.31000000052,"y":2563777.6500000022}},{"attributes":{"ID":148784,"DIS_CODE":0,"TOWNNAME":"官田區","LI":"拔林里","LIN":"6鄰","STREET":" ","SECT":" ","MAREA":"拔子林","LANE":" ","ALLEY":" ","HOUSE_NO":"５０號","E_COORD97":180733.89999999999,"N_COORD97":2563769.98,"ADDRESS":"拔子林５０號","OBJECTID":148783},"geometry":{"x":180733.9000000013,"y":2563769.9800000004}},{"attributes":{"ID":148785,"DIS_CODE":0,"TOWNNAME":"新營區","LI":"新東里","LIN":"26鄰","STREET":"東興五街","SECT":" ","MAREA":" ","LANE":" ","ALLEY":" ","HOUSE_NO":"４３號","E_COORD97":180630.686472,"N_COORD97":2579511.6376700001,"ADDRESS":"東興五街４３號","OBJECTID":148784},"geometry":{"x":180630.68647200149,"y":2579511.6376660001}},{"attributes":{"ID":148786,"DIS_CODE":0,"TOWNNAME":"官田區","LI":"拔林里","LIN":"6鄰","STREET":" ","SECT":" ","MAREA":"拔子林","LANE":" ","ALLEY":" ","HOUSE_NO":"５１號","E_COORD97":180730.78,"N_COORD97":2563727.2799999998,"ADDRESS":"拔子林５１號","OBJECTID":148785},"geometry":{"x":180730.78000000212,"y":2563727.2800000012}},{"attributes":{"ID":148787,"DIS_CODE":0,"TOWNNAME":"官田區","LI":"拔林里","LIN":"2鄰","STREET":" ","SECT":" ","MAREA":"拔子林","LANE":" ","ALLEY":" ","HOUSE_NO":"１１號之１","E_COORD97":180667.56,"N_COORD97":2563653.8199999998,"ADDRESS":"拔子林１１號之１","OBJECTID":148786},"geometry":{"x":180667.56000000052,"y":2563653.8200000022}},{"attributes":{"ID":148788,"DIS_CODE":0,"TOWNNAME":"官田區","LI":"社子里","LIN":"4鄰","STREET":" ","SECT":" ","MAREA":"社子","LANE":" ","ALLEY":" ","HOUSE_NO":"２２號","E_COORD97":185080.12,"N_COORD97":2564205.4900000002,"ADDRESS":"社子２２號","OBJECTID":148787},"geometry":{"x":185080.12000000104,"y":2564205.4900000021}},{"attributes":{"ID":148789,"DIS_CODE":0,"TOWNNAME":"官田區","LI":"社子里","LIN":"4鄰","STREET":" ","SECT":" ","MAREA":"社子","LANE":" ","ALLEY":" ","HOUSE_NO":"２３號之１０","E_COORD97":185007.04999999999,"N_COORD97":2564565.5,"ADDRESS":"社子２３號之１０","OBJECTID":148788},"geometry":{"x":185007.05000000168,"y":2564565.5}},{"attributes":{"ID":148790,"DIS_CODE":0,"TOWNNAME":"仁德區","LI":"太子里","LIN":"3鄰","STREET":"太子路","SECT":" ","MAREA":" ","LANE":"１９０巷","ALLEY":"２３弄","HOUSE_NO":"１１號","E_COORD97":174278.59,"N_COORD97":2543575.75,"ADDRESS":"太子路１９０巷２３弄１１號","OBJECTID":148789},"geometry":{"x":174278.59000000078,"y":2543575.7500000019}},{"attributes":{"ID":148791,"DIS_CODE":0,"TOWNNAME":"仁德區","LI":"太子里","LIN":"3鄰","STREET":"太子路","SECT":" ","MAREA":" ","LANE":"１９０巷","ALLEY":"２３弄","HOUSE_NO":"１６號","E_COORD97":174271.48000000001,"N_COORD97":2543593.6000000001,"ADDRESS":"太子路１９０巷２３弄１６號","OBJECTID":148790},"geometry":{"x":174271.48000000138,"y":2543593.6000000015}},{"attributes":{"ID":148792,"DIS_CODE":0,"TOWNNAME":"仁德區","LI":"太子里","LIN":"3鄰","STREET":"太子路","SECT":" ","MAREA":" ","LANE":"１９０巷","ALLEY":"２３弄","HOUSE_NO":"１９號","E_COORD97":174261.04999999999,"N_COORD97":2543574,"ADDRESS":"太子路１９０巷２３弄１９號","OBJECTID":148791},"geometry":{"x":174261.04999999981,"y":2543574.0000000019}},{"attributes":{"ID":148793,"DIS_CODE":0,"TOWNNAME":"仁德區","LI":"太子里","LIN":"3鄰","STREET":"太子路","SECT":" ","MAREA":" ","LANE":"１９０巷","ALLEY":"２３弄","HOUSE_NO":"１８號","E_COORD97":174266.57000000001,"N_COORD97":2543592.8500000001,"ADDRESS":"太子路１９０巷２３弄１８號","OBJECTID":148792},"geometry":{"x":174266.56999999937,"y":2543592.8499999996}},{"attributes":{"ID":148794,"DIS_CODE":0,"TOWNNAME":"安南區","LI":"溪心里","LIN":"3鄰","STREET":"安中路","SECT":"二段","MAREA":" ","LANE":"１３８巷","ALLEY":"１７弄","HOUSE_NO":"５１號","E_COORD97":166686.82999999999,"N_COORD97":2549710.5600000001,"ADDRESS":"安中路二段１３８巷１７弄５１號","OBJECTID":148793},"geometry":{"x":166686.83000000007,"y":2549710.5600000024}},{"attributes":{"ID":148795,"DIS_CODE":0,"TOWNNAME":"安南區","LI":"溪心里","LIN":"3鄰","STREET":"安中路","SECT":"二段","MAREA":" ","LANE":"１３８巷","ALLEY":"１７弄","HOUSE_NO":"５３號","E_COORD97":166678.51000000001,"N_COORD97":2549714.4700000002,"ADDRESS":"安中路二段１３８巷１７弄５３號","OBJECTID":148794},"geometry":{"x":166678.50999999978,"y":2549714.4700000044}},{"attributes":{"ID":148796,"DIS_CODE":0,"TOWNNAME":"安南區","LI":"溪心里","LIN":"3鄰","STREET":"安中路","SECT":"二段","MAREA":" ","LANE":"１３８巷","ALLEY":"１７弄","HOUSE_NO":"２號","E_COORD97":166776.85000000001,"N_COORD97":2549715.96,"ADDRESS":"安中路二段１３８巷１７弄２號","OBJECTID":148795},"geometry":{"x":166776.85000000056,"y":2549715.9600000028}},{"attributes":{"ID":148797,"DIS_CODE":0,"TOWNNAME":"安南區","LI":"溪心里","LIN":"3鄰","STREET":"安中路","SECT":"二段","MAREA":" ","LANE":"１３８巷","ALLEY":"１７弄","HOUSE_NO":"６號","E_COORD97":166774.14000000001,"N_COORD97":2549721.79,"ADDRESS":"安中路二段１３８巷１７弄６號","OBJECTID":148796},"geometry":{"x":166774.13999999966,"y":2549721.790000001}},{"attributes":{"ID":148798,"DIS_CODE":0,"TOWNNAME":"安南區","LI":"溪心里","LIN":"3鄰","STREET":"安中路","SECT":"二段","MAREA":" ","LANE":"１３８巷","ALLEY":"１７弄","HOUSE_NO":"８號","E_COORD97":166769.97,"N_COORD97":2549722.6000000001,"ADDRESS":"安中路二段１３８巷１７弄８號","OBJECTID":148797},"geometry":{"x":166769.96999999974,"y":2549722.6000000034}},{"attributes":{"ID":148799,"DIS_CODE":0,"TOWNNAME":"安南區","LI":"新順里","LIN":"19鄰","STREET":"安豐六街","SECT":" ","MAREA":" ","LANE":" ","ALLEY":" ","HOUSE_NO":"１８號","E_COORD97":169316.56,"N_COORD97":2549680.3199999998,"ADDRESS":"安豐六街１８號","OBJECTID":148798},"geometry":{"x":169316.56000000052,"y":2549680.3200000003}},{"attributes":{"ID":148800,"DIS_CODE":0,"TOWNNAME":"官田區","LI":"社子里","LIN":"4鄰","STREET":" ","SECT":" ","MAREA":"社子","LANE":" ","ALLEY":" ","HOUSE_NO":"２３號之１５","E_COORD97":184905.37,"N_COORD97":2564533.8199999998,"ADDRESS":"社子２３號之１５","OBJECTID":148799},"geometry":{"x":184905.37000000104,"y":2564533.8200000003}},{"attributes":{"ID":148801,"DIS_CODE":0,"TOWNNAME":"官田區","LI":"社子里","LIN":"4鄰","STREET":" ","SECT":" ","MAREA":"社子","LANE":" ","ALLEY":" ","HOUSE_NO":"２３號之１６","E_COORD97":184898.42999999999,"N_COORD97":2564531.6099999999,"ADDRESS":"社子２３號之１６","OBJECTID":148800},"geometry":{"x":184898.4299999997,"y":2564531.6100000013}}]}