{"displayFieldName":"TOWNNAME","fieldAliases":{"ID":"ID","DIS_CODE":"DIS_CODE","TOWNNAME":"TOWNNAME","LI":"LI","LIN":"LIN","STREET":"STREET","SECT":"SECT","MAREA":"MAREA","LANE":"LANE","ALLEY":"ALLEY","HOUSE_NO":"HOUSE_NO","E_COORD97":"E_COORD97","N_COORD97":"N_COORD97","ADDRESS":"ADDRESS","OBJECTID":"OBJECTID"},"geometryType":"esriGeometryPoint","spatialReference":{"wkid":102443,"latestWkid":3826},"fields":[{"name":"ID","type":"esriFieldTypeDouble","alias":"ID"},{"name":"DIS_CODE","type":"esriFieldTypeInteger","alias":"DIS_CODE"},{"name":"TOWNNAME","type":"esriFieldTypeString","alias":"TOWNNAME","length":8},{"name":"LI","type":"esriFieldTypeString","alias":"LI","length":8},{"name":"LIN","type":"esriFieldTypeString","alias":"LIN","length":12},{"name":"STREET","type":"esriFieldTypeString","alias":"STREET","length":20},{"name":"SECT","type":"esriFieldTypeString","alias":"SECT","length":8},{"name":"MAREA","type":"esriFieldTypeString","alias":"MAREA","length":12},{"name":"LANE","type":"esriFieldTypeString","alias":"LANE","length":10},{"name":"ALLEY","type":"esriFieldTypeString","alias":"ALLEY","length":10},{"name":"HOUSE_NO","type":"esriFieldTypeString","alias":"HOUSE_NO","length":20},{"name":"E_COORD97","type":"esriFieldTypeDouble","alias":"E_COORD97"},{"name":"N_COORD97","type":"esriFieldTypeDouble","alias":"N_COORD97"},{"name":"ADDRESS","type":"esriFieldTypeString","alias":"ADDRESS","length":50},{"name":"OBJECTID","type":"esriFieldTypeOID","alias":"OBJECTID"}],"features":[{"attributes":{"ID":378811,"DIS_CODE":0,"TOWNNAME":"仁德區","LI":"保安里","LIN":"21鄰","STREET":"文賢一街","SECT":" ","MAREA":" ","LANE":"１巷","ALLEY":" ","HOUSE_NO":"５號","E_COORD97":171101.51000000001,"N_COORD97":2536698.8300000001,"ADDRESS":"文賢一街１巷５號","OBJECTID":378801},"geometry":{"x":171101.50999999885,"y":2536698.8300000038}},{"attributes":{"ID":378812,"DIS_CODE":0,"TOWNNAME":"中西區","LI":"五妃里","LIN":"18鄰","STREET":"南門路","SECT":" ","MAREA":" ","LANE":"１８７巷","ALLEY":" ","HOUSE_NO":"３號","E_COORD97":168465.17999999999,"N_COORD97":2542897.0099999998,"ADDRESS":"南門路１８７巷３號","OBJECTID":378802},"geometry":{"x":168465.18000000063,"y":2542897.0099999998}},{"attributes":{"ID":378813,"DIS_CODE":0,"TOWNNAME":"中西區","LI":"五妃里","LIN":"18鄰","STREET":"南門路","SECT":" ","MAREA":" ","LANE":"１８７巷","ALLEY":" ","HOUSE_NO":"５號","E_COORD97":168471.31,"N_COORD97":2542895.2200000002,"ADDRESS":"南門路１８７巷５號","OBJECTID":378803},"geometry":{"x":168471.30999999959,"y":2542895.2200000025}},{"attributes":{"ID":378814,"DIS_CODE":0,"TOWNNAME":"中西區","LI":"五妃里","LIN":"18鄰","STREET":"南門路","SECT":" ","MAREA":" ","LANE":"１８７巷","ALLEY":" ","HOUSE_NO":"７號","E_COORD97":168478.07999999999,"N_COORD97":2542894.3300000001,"ADDRESS":"南門路１８７巷７號","OBJECTID":378804},"geometry":{"x":168478.08000000101,"y":2542894.3300000019}},{"attributes":{"ID":378815,"DIS_CODE":0,"TOWNNAME":"中西區","LI":"五妃里","LIN":"18鄰","STREET":"南門路","SECT":" ","MAREA":" ","LANE":"１８７巷","ALLEY":" ","HOUSE_NO":"９號","E_COORD97":168488.42000000001,"N_COORD97":2542892.9300000002,"ADDRESS":"南門路１８７巷９號","OBJECTID":378805},"geometry":{"x":168488.42000000179,"y":2542892.9300000016}},{"attributes":{"ID":378816,"DIS_CODE":0,"TOWNNAME":"永康區","LI":"大灣里","LIN":"21鄰","STREET":"大灣路","SECT":" ","MAREA":" ","LANE":"３５６巷","ALLEY":" ","HOUSE_NO":"３７號","E_COORD97":174762.92999999999,"N_COORD97":2545208.9900000002,"ADDRESS":"大灣路３５６巷３７號","OBJECTID":378806},"geometry":{"x":174762.9299999997,"y":2545208.9900000021}},{"attributes":{"ID":378817,"DIS_CODE":0,"TOWNNAME":"永康區","LI":"中興里","LIN":"21鄰","STREET":"中華路","SECT":" ","MAREA":" ","LANE":"２１６巷","ALLEY":" ","HOUSE_NO":"５２號","E_COORD97":171875.20000000001,"N_COORD97":2545147.5699999998,"ADDRESS":"中華路２１６巷５２號","OBJECTID":378807},"geometry":{"x":171875.20000000019,"y":2545147.5700000022}},{"attributes":{"ID":378818,"DIS_CODE":0,"TOWNNAME":"永康區","LI":"大橋里","LIN":"21鄰","STREET":"大橋一街","SECT":" ","MAREA":" ","LANE":"２２３巷","ALLEY":" ","HOUSE_NO":"３３號","E_COORD97":171157.72,"N_COORD97":2546729.3100000001,"ADDRESS":"大橋一街２２３巷３３號","OBJECTID":378808},"geometry":{"x":171157.7200000016,"y":2546729.3100000024}},{"attributes":{"ID":378819,"DIS_CODE":0,"TOWNNAME":"永康區","LI":"西灣里","LIN":"21鄰","STREET":"永大路","SECT":"二段","MAREA":" ","LANE":"１９７巷","ALLEY":" ","HOUSE_NO":"１號","E_COORD97":174311.92000000001,"N_COORD97":2545292.3700000001,"ADDRESS":"永大路二段１９７巷１號","OBJECTID":378809},"geometry":{"x":174311.92000000086,"y":2545292.3700000029}},{"attributes":{"ID":378820,"DIS_CODE":0,"TOWNNAME":"永康區","LI":"西灣里","LIN":"21鄰","STREET":"永大路","SECT":"二段","MAREA":" ","LANE":"１９７巷","ALLEY":" ","HOUSE_NO":"３號","E_COORD97":174307.54000000001,"N_COORD97":2545293.8100000001,"ADDRESS":"永大路二段１９７巷３號","OBJECTID":378810},"geometry":{"x":174307.54000000097,"y":2545293.8100000005}},{"attributes":{"ID":378821,"DIS_CODE":0,"TOWNNAME":"永康區","LI":"西灣里","LIN":"21鄰","STREET":"永大路","SECT":"二段","MAREA":" ","LANE":"１９７巷","ALLEY":" ","HOUSE_NO":"５號","E_COORD97":174303.45000000001,"N_COORD97":2545295.1699999999,"ADDRESS":"永大路二段１９７巷５號","OBJECTID":378811},"geometry":{"x":174303.45000000112,"y":2545295.1700000018}},{"attributes":{"ID":378822,"DIS_CODE":0,"TOWNNAME":"中西區","LI":"西賢里","LIN":"21鄰","STREET":"西賢一街","SECT":" ","MAREA":" ","LANE":"１８７巷","ALLEY":" ","HOUSE_NO":"１１８號","E_COORD97":165631.51000000001,"N_COORD97":2544984.5800000001,"ADDRESS":"西賢一街１８７巷１１８號","OBJECTID":378812},"geometry":{"x":165631.51000000071,"y":2544984.5800000019}},{"attributes":{"ID":378823,"DIS_CODE":0,"TOWNNAME":"中西區","LI":"西賢里","LIN":"21鄰","STREET":"西賢一街","SECT":" ","MAREA":" ","LANE":"１８７巷","ALLEY":" ","HOUSE_NO":"１２０號","E_COORD97":165632.14999999999,"N_COORD97":2544999.6000000001,"ADDRESS":"西賢一街１８７巷１２０號","OBJECTID":378813},"geometry":{"x":165632.15000000037,"y":2544999.6000000034}},{"attributes":{"ID":378824,"DIS_CODE":0,"TOWNNAME":"中西區","LI":"西賢里","LIN":"21鄰","STREET":"西賢一街","SECT":" ","MAREA":" ","LANE":"１８７巷","ALLEY":" ","HOUSE_NO":"１２２號","E_COORD97":165628.48999999999,"N_COORD97":2544999.1400000001,"ADDRESS":"西賢一街１８７巷１２２號","OBJECTID":378814},"geometry":{"x":165628.49000000209,"y":2544999.1400000006}},{"attributes":{"ID":378825,"DIS_CODE":0,"TOWNNAME":"新化區","LI":"清水里","LIN":"8鄰","STREET":"民權街","SECT":" ","MAREA":" ","LANE":"６１巷","ALLEY":" ","HOUSE_NO":"３號","E_COORD97":178725.35999999999,"N_COORD97":2548573.25,"ADDRESS":"民權街６１巷３號","OBJECTID":378815},"geometry":{"x":178725.36000000127,"y":2548573.2500000019}},{"attributes":{"ID":378826,"DIS_CODE":0,"TOWNNAME":"中西區","LI":"西賢里","LIN":"21鄰","STREET":"西賢一街","SECT":" ","MAREA":" ","LANE":"１８７巷","ALLEY":" ","HOUSE_NO":"１２６號","E_COORD97":165624.82000000001,"N_COORD97":2544998.4100000001,"ADDRESS":"西賢一街１８７巷１２６號","OBJECTID":378816},"geometry":{"x":165624.82000000123,"y":2544998.410000002}},{"attributes":{"ID":378827,"DIS_CODE":0,"TOWNNAME":"中西區","LI":"西賢里","LIN":"21鄰","STREET":"西賢一街","SECT":" ","MAREA":" ","LANE":"１８７巷","ALLEY":" ","HOUSE_NO":"１３０號","E_COORD97":165615.82999999999,"N_COORD97":2544997.4900000002,"ADDRESS":"西賢一街１８７巷１３０號","OBJECTID":378817},"geometry":{"x":165615.83000000194,"y":2544997.4900000039}},{"attributes":{"ID":378828,"DIS_CODE":0,"TOWNNAME":"中西區","LI":"公正里","LIN":"1鄰","STREET":"北門路","SECT":"一段","MAREA":" ","LANE":"１４１巷","ALLEY":" ","HOUSE_NO":"２號","E_COORD97":169168.64000000001,"N_COORD97":2543985.3900000001,"ADDRESS":"北門路一段１４１巷２號","OBJECTID":378818},"geometry":{"x":169168.6400000006,"y":2543985.3900000025}},{"attributes":{"ID":378829,"DIS_CODE":0,"TOWNNAME":"中西區","LI":"公正里","LIN":"1鄰","STREET":"北門路","SECT":"一段","MAREA":" ","LANE":"１４１巷","ALLEY":" ","HOUSE_NO":"８號","E_COORD97":169144.37,"N_COORD97":2543985.3900000001,"ADDRESS":"北門路一段１４１巷８號","OBJECTID":378819},"geometry":{"x":169144.37000000011,"y":2543985.3900000025}},{"attributes":{"ID":378830,"DIS_CODE":0,"TOWNNAME":"中西區","LI":"西賢里","LIN":"21鄰","STREET":"西賢一街","SECT":" ","MAREA":" ","LANE":"１８７巷","ALLEY":" ","HOUSE_NO":"１３２號","E_COORD97":165611.14999999999,"N_COORD97":2544999.0499999998,"ADDRESS":"西賢一街１８７巷１３２號","OBJECTID":378820},"geometry":{"x":165611.1500000013,"y":2544999.0500000026}},{"attributes":{"ID":378831,"DIS_CODE":0,"TOWNNAME":"中西區","LI":"西賢里","LIN":"21鄰","STREET":"西賢一街","SECT":" ","MAREA":" ","LANE":"１８７巷","ALLEY":" ","HOUSE_NO":"１３６號","E_COORD97":165606.57000000001,"N_COORD97":2544999.5099999998,"ADDRESS":"西賢一街１８７巷１３６號","OBJECTID":378821},"geometry":{"x":165606.57000000123,"y":2544999.5099999998}},{"attributes":{"ID":378832,"DIS_CODE":0,"TOWNNAME":"中西區","LI":"西賢里","LIN":"21鄰","STREET":"西賢一街","SECT":" ","MAREA":" ","LANE":"１８７巷","ALLEY":" ","HOUSE_NO":"１３８號","E_COORD97":165601.39000000001,"N_COORD97":2545001.4399999999,"ADDRESS":"西賢一街１８７巷１３８號","OBJECTID":378822},"geometry":{"x":165601.39000000153,"y":2545001.4400000013}},{"attributes":{"ID":378833,"DIS_CODE":0,"TOWNNAME":"中西區","LI":"西賢里","LIN":"21鄰","STREET":"西賢一街","SECT":" ","MAREA":" ","LANE":"１８７巷","ALLEY":" ","HOUSE_NO":"１４０號","E_COORD97":165596.35000000001,"N_COORD97":2545001.4399999999,"ADDRESS":"西賢一街１８７巷１４０號","OBJECTID":378823},"geometry":{"x":165596.34999999963,"y":2545001.4400000013}},{"attributes":{"ID":378834,"DIS_CODE":0,"TOWNNAME":"中西區","LI":"西賢里","LIN":"21鄰","STREET":"西賢一街","SECT":" ","MAREA":" ","LANE":"１８７巷","ALLEY":" ","HOUSE_NO":"１４２號","E_COORD97":165592.67999999999,"N_COORD97":2545001.3500000001,"ADDRESS":"西賢一街１８７巷１４２號","OBJECTID":378824},"geometry":{"x":165592.68000000156,"y":2545001.3500000034}},{"attributes":{"ID":378835,"DIS_CODE":0,"TOWNNAME":"中西區","LI":"西賢里","LIN":"21鄰","STREET":"西賢一街","SECT":" ","MAREA":" ","LANE":"１８７巷","ALLEY":" ","HOUSE_NO":"１４６號","E_COORD97":165588.10000000001,"N_COORD97":2545001.71,"ADDRESS":"西賢一街１８７巷１４６號","OBJECTID":378825},"geometry":{"x":165588.10000000149,"y":2545001.7100000028}},{"attributes":{"ID":378836,"DIS_CODE":0,"TOWNNAME":"中西區","LI":"西賢里","LIN":"21鄰","STREET":"西賢一街","SECT":" ","MAREA":" ","LANE":"１８７巷","ALLEY":" ","HOUSE_NO":"１４８號","E_COORD97":165583.60000000001,"N_COORD97":2545002.0800000001,"ADDRESS":"西賢一街１８７巷１４８號","OBJECTID":378826},"geometry":{"x":165583.60000000056,"y":2545002.0800000001}},{"attributes":{"ID":378837,"DIS_CODE":0,"TOWNNAME":"中西區","LI":"西賢里","LIN":"21鄰","STREET":"西賢一街","SECT":" ","MAREA":" ","LANE":"１８７巷","ALLEY":" ","HOUSE_NO":"１５０號","E_COORD97":165579.10999999999,"N_COORD97":2545002.1699999999,"ADDRESS":"西賢一街１８７巷１５０號","OBJECTID":378827},"geometry":{"x":165579.11000000127,"y":2545002.1699999999}},{"attributes":{"ID":378838,"DIS_CODE":0,"TOWNNAME":"中西區","LI":"西賢里","LIN":"21鄰","STREET":"西賢一街","SECT":" ","MAREA":" ","LANE":"１８７巷","ALLEY":" ","HOUSE_NO":"１５２號","E_COORD97":165575.35000000001,"N_COORD97":2545002.8100000001,"ADDRESS":"西賢一街１８７巷１５２號","OBJECTID":378828},"geometry":{"x":165575.35000000056,"y":2545002.8100000024}},{"attributes":{"ID":378839,"DIS_CODE":0,"TOWNNAME":"中西區","LI":"西賢里","LIN":"21鄰","STREET":"西賢一街","SECT":" ","MAREA":" ","LANE":"１８７巷","ALLEY":" ","HOUSE_NO":"１５６號","E_COORD97":165569.85000000001,"N_COORD97":2545001.71,"ADDRESS":"西賢一街１８７巷１５６號","OBJECTID":378829},"geometry":{"x":165569.85000000056,"y":2545001.7100000028}},{"attributes":{"ID":378840,"DIS_CODE":0,"TOWNNAME":"東區","LI":"大智里","LIN":"21鄰","STREET":"崇善十五街","SECT":" ","MAREA":" ","LANE":"３３巷","ALLEY":" ","HOUSE_NO":"５６號","E_COORD97":171313.64000000001,"N_COORD97":2540466.8500000001,"ADDRESS":"崇善十五街３３巷５６號","OBJECTID":378830},"geometry":{"x":171313.63999999966,"y":2540466.8499999996}},{"attributes":{"ID":378841,"DIS_CODE":0,"TOWNNAME":"東區","LI":"大學里","LIN":"21鄰","STREET":"長榮路","SECT":"三段","MAREA":" ","LANE":"８６巷","ALLEY":" ","HOUSE_NO":"２號地下層","E_COORD97":170354.82999999999,"N_COORD97":2543842.7400000002,"ADDRESS":"長榮路三段８６巷２號地下層","OBJECTID":378831},"geometry":{"x":170354.83000000007,"y":2543842.7400000002}},{"attributes":{"ID":378842,"DIS_CODE":0,"TOWNNAME":"中西區","LI":"公正里","LIN":"4鄰","STREET":"中山路","SECT":" ","MAREA":" ","LANE":"１６４巷","ALLEY":" ","HOUSE_NO":"５號","E_COORD97":169035.75,"N_COORD97":2543935.25,"ADDRESS":"中山路１６４巷５號","OBJECTID":378832},"geometry":{"x":169035.75000000093,"y":2543935.2500000019}},{"attributes":{"ID":378843,"DIS_CODE":0,"TOWNNAME":"中西區","LI":"公正里","LIN":"4鄰","STREET":"北門路","SECT":"一段","MAREA":" ","LANE":"１２３巷","ALLEY":" ","HOUSE_NO":"３８號","E_COORD97":169088.79999999999,"N_COORD97":2543968.2799999998,"ADDRESS":"北門路一段１２３巷３８號","OBJECTID":378833},"geometry":{"x":169088.79999999981,"y":2543968.2800000012}},{"attributes":{"ID":378844,"DIS_CODE":0,"TOWNNAME":"中西區","LI":"公正里","LIN":"1鄰","STREET":"北門路","SECT":"一段","MAREA":" ","LANE":"１４１巷","ALLEY":" ","HOUSE_NO":"４號","E_COORD97":169163.14000000001,"N_COORD97":2543985.96,"ADDRESS":"北門路一段１４１巷４號","OBJECTID":378834},"geometry":{"x":169163.1400000006,"y":2543985.9600000028}},{"attributes":{"ID":378845,"DIS_CODE":0,"TOWNNAME":"中西區","LI":"公正里","LIN":"1鄰","STREET":"北門路","SECT":"一段","MAREA":" ","LANE":"１４１巷","ALLEY":" ","HOUSE_NO":"６號","E_COORD97":169153.85000000001,"N_COORD97":2543985.77,"ADDRESS":"北門路一段１４１巷６號","OBJECTID":378835},"geometry":{"x":169153.85000000056,"y":2543985.7700000014}},{"attributes":{"ID":378846,"DIS_CODE":0,"TOWNNAME":"中西區","LI":"公正里","LIN":"4鄰","STREET":"北門路","SECT":"一段","MAREA":" ","LANE":"１２３巷","ALLEY":" ","HOUSE_NO":"５２號","E_COORD97":169076.39999999999,"N_COORD97":2543952.9700000002,"ADDRESS":"北門路一段１２３巷５２號","OBJECTID":378836},"geometry":{"x":169076.40000000037,"y":2543952.9700000007}},{"attributes":{"ID":378847,"DIS_CODE":0,"TOWNNAME":"中西區","LI":"公正里","LIN":"4鄰","STREET":"北門路","SECT":"一段","MAREA":" ","LANE":"１２３巷","ALLEY":" ","HOUSE_NO":"５４號","E_COORD97":169070.73000000001,"N_COORD97":2543943.8799999999,"ADDRESS":"北門路一段１２３巷５４號","OBJECTID":378837},"geometry":{"x":169070.73000000138,"y":2543943.8800000008}},{"attributes":{"ID":378848,"DIS_CODE":0,"TOWNNAME":"中西區","LI":"公正里","LIN":"4鄰","STREET":"北門路","SECT":"一段","MAREA":" ","LANE":"１２３巷","ALLEY":" ","HOUSE_NO":"５６號","E_COORD97":169067.48999999999,"N_COORD97":2543943.4700000002,"ADDRESS":"北門路一段１２３巷５６號","OBJECTID":378838},"geometry":{"x":169067.49000000022,"y":2543943.4700000007}},{"attributes":{"ID":378849,"DIS_CODE":0,"TOWNNAME":"中西區","LI":"公正里","LIN":"4鄰","STREET":"北門路","SECT":"一段","MAREA":" ","LANE":"１２３巷","ALLEY":" ","HOUSE_NO":"５８號","E_COORD97":169053.32000000001,"N_COORD97":2543941.04,"ADDRESS":"北門路一段１２３巷５８號","OBJECTID":378839},"geometry":{"x":169053.3200000003,"y":2543941.0399999991}},{"attributes":{"ID":378850,"DIS_CODE":0,"TOWNNAME":"中西區","LI":"公正里","LIN":"4鄰","STREET":"北門路","SECT":"一段","MAREA":" ","LANE":"１２３巷","ALLEY":" ","HOUSE_NO":"６０號","E_COORD97":169046.95000000001,"N_COORD97":2543936.27,"ADDRESS":"北門路一段１２３巷６０號","OBJECTID":378840},"geometry":{"x":169046.95000000112,"y":2543936.2699999996}},{"attributes":{"ID":378851,"DIS_CODE":0,"TOWNNAME":"中西區","LI":"公正里","LIN":"4鄰","STREET":"北門路","SECT":"一段","MAREA":" ","LANE":"１２３巷","ALLEY":" ","HOUSE_NO":"６０號底層","E_COORD97":169046.95000000001,"N_COORD97":2543936.27,"ADDRESS":"北門路一段１２３巷６０號底層","OBJECTID":378841},"geometry":{"x":169046.95000000112,"y":2543936.2699999996}},{"attributes":{"ID":378852,"DIS_CODE":0,"TOWNNAME":"中西區","LI":"公正里","LIN":"4鄰","STREET":"北門路","SECT":"一段","MAREA":" ","LANE":"１２３巷","ALLEY":" ","HOUSE_NO":"６２號","E_COORD97":169034.07000000001,"N_COORD97":2543931.5600000001,"ADDRESS":"北門路一段１２３巷６２號","OBJECTID":378842},"geometry":{"x":169034.07000000123,"y":2543931.5600000005}},{"attributes":{"ID":378853,"DIS_CODE":0,"TOWNNAME":"中西區","LI":"建國里","LIN":"21鄰","STREET":"新美街","SECT":" ","MAREA":" ","LANE":"５０巷","ALLEY":" ","HOUSE_NO":"９號","E_COORD97":168056,"N_COORD97":2543970.8700000001,"ADDRESS":"新美街５０巷９號","OBJECTID":378843},"geometry":{"x":168056.00000000093,"y":2543970.870000001}},{"attributes":{"ID":378854,"DIS_CODE":0,"TOWNNAME":"中西區","LI":"公正里","LIN":"1鄰","STREET":"北門路","SECT":"一段","MAREA":" ","LANE":"１６１巷","ALLEY":" ","HOUSE_NO":"１６號","E_COORD97":169161.01000000001,"N_COORD97":2544077.1200000001,"ADDRESS":"北門路一段１６１巷１６號","OBJECTID":378844},"geometry":{"x":169161.01000000071,"y":2544077.120000001}},{"attributes":{"ID":378855,"DIS_CODE":0,"TOWNNAME":"中西區","LI":"公正里","LIN":"1鄰","STREET":"北門路","SECT":"一段","MAREA":" ","LANE":"１６１巷","ALLEY":" ","HOUSE_NO":"１８號","E_COORD97":169162.01000000001,"N_COORD97":2544074.1000000001,"ADDRESS":"北門路一段１６１巷１８號","OBJECTID":378845},"geometry":{"x":169162.00999999978,"y":2544074.1000000034}},{"attributes":{"ID":378856,"DIS_CODE":0,"TOWNNAME":"中西區","LI":"公正里","LIN":"1鄰","STREET":"北門路","SECT":"一段","MAREA":" ","LANE":"１６１巷","ALLEY":" ","HOUSE_NO":"２０號","E_COORD97":169161.01000000001,"N_COORD97":2544070.0699999998,"ADDRESS":"北門路一段１６１巷２０號","OBJECTID":378846},"geometry":{"x":169161.01000000071,"y":2544070.0700000003}},{"attributes":{"ID":378857,"DIS_CODE":0,"TOWNNAME":"中西區","LI":"公正里","LIN":"1鄰","STREET":"北門路","SECT":"一段","MAREA":" ","LANE":"１６１巷","ALLEY":" ","HOUSE_NO":"２２號","E_COORD97":169159.66,"N_COORD97":2544067.0499999998,"ADDRESS":"北門路一段１６１巷２２號","OBJECTID":378847},"geometry":{"x":169159.66000000015,"y":2544067.0500000026}},{"attributes":{"ID":378858,"DIS_CODE":0,"TOWNNAME":"中西區","LI":"公正里","LIN":"1鄰","STREET":"北門路","SECT":"一段","MAREA":" ","LANE":"１６１巷","ALLEY":" ","HOUSE_NO":"２４號","E_COORD97":169160,"N_COORD97":2544063.0299999998,"ADDRESS":"北門路一段１６１巷２４號","OBJECTID":378848},"geometry":{"x":169160.00000000093,"y":2544063.0299999993}},{"attributes":{"ID":378859,"DIS_CODE":0,"TOWNNAME":"中西區","LI":"公正里","LIN":"1鄰","STREET":"北門路","SECT":"一段","MAREA":" ","LANE":"１６１巷","ALLEY":" ","HOUSE_NO":"２６號","E_COORD97":169166.94,"N_COORD97":2544048.0899999999,"ADDRESS":"北門路一段１６１巷２６號","OBJECTID":378849},"geometry":{"x":169166.94000000227,"y":2544048.0900000017}},{"attributes":{"ID":378860,"DIS_CODE":0,"TOWNNAME":"中西區","LI":"公正里","LIN":"1鄰","STREET":"北門路","SECT":"一段","MAREA":" ","LANE":"１６１巷","ALLEY":" ","HOUSE_NO":"２８號","E_COORD97":169161.82000000001,"N_COORD97":2544046.5699999998,"ADDRESS":"北門路一段１６１巷２８號","OBJECTID":378850},"geometry":{"x":169161.8200000003,"y":2544046.5700000003}},{"attributes":{"ID":378861,"DIS_CODE":0,"TOWNNAME":"中西區","LI":"公正里","LIN":"1鄰","STREET":"北門路","SECT":"一段","MAREA":" ","LANE":"１６１巷","ALLEY":" ","HOUSE_NO":"２號","E_COORD97":169176.12,"N_COORD97":2544045.9300000002,"ADDRESS":"北門路一段１６１巷２號","OBJECTID":378851},"geometry":{"x":169176.12000000104,"y":2544045.9300000016}},{"attributes":{"ID":378862,"DIS_CODE":0,"TOWNNAME":"中西區","LI":"公正里","LIN":"1鄰","STREET":"北門路","SECT":"一段","MAREA":" ","LANE":"１６１巷","ALLEY":" ","HOUSE_NO":"３０號","E_COORD97":169154.98999999999,"N_COORD97":2544048.2799999998,"ADDRESS":"北門路一段１６１巷３０號","OBJECTID":378852},"geometry":{"x":169154.99000000115,"y":2544048.2799999993}},{"attributes":{"ID":378863,"DIS_CODE":0,"TOWNNAME":"中西區","LI":"公正里","LIN":"1鄰","STREET":"北門路","SECT":"一段","MAREA":" ","LANE":"１６１巷","ALLEY":" ","HOUSE_NO":"４號","E_COORD97":169173.76999999999,"N_COORD97":2544061.3500000001,"ADDRESS":"北門路一段１６１巷４號","OBJECTID":378853},"geometry":{"x":169173.76999999862,"y":2544061.3499999996}},{"attributes":{"ID":378864,"DIS_CODE":0,"TOWNNAME":"安南區","LI":"溪墘里","LIN":"21鄰","STREET":"安寧街","SECT":" ","MAREA":" ","LANE":"３７巷","ALLEY":" ","HOUSE_NO":"３０號","E_COORD97":167324.32000000001,"N_COORD97":2546952.5600000001,"ADDRESS":"安寧街３７巷３０號","OBJECTID":378854},"geometry":{"x":167324.3200000003,"y":2546952.5600000005}},{"attributes":{"ID":378865,"DIS_CODE":0,"TOWNNAME":"安南區","LI":"溪墘里","LIN":"21鄰","STREET":"安寧街","SECT":" ","MAREA":" ","LANE":"３７巷","ALLEY":" ","HOUSE_NO":"６號","E_COORD97":167390.01999999999,"N_COORD97":2546967.71,"ADDRESS":"安寧街３７巷６號","OBJECTID":378855},"geometry":{"x":167390.01999999955,"y":2546967.7100000028}},{"attributes":{"ID":378866,"DIS_CODE":0,"TOWNNAME":"安南區","LI":"溪墘里","LIN":"21鄰","STREET":"安寧街","SECT":" ","MAREA":" ","LANE":"３７巷","ALLEY":" ","HOUSE_NO":"１６號","E_COORD97":167362.35000000001,"N_COORD97":2546962.3399999999,"ADDRESS":"安寧街３７巷１６號","OBJECTID":378856},"geometry":{"x":167362.34999999963,"y":2546962.3400000017}},{"attributes":{"ID":378867,"DIS_CODE":0,"TOWNNAME":"安南區","LI":"溪墘里","LIN":"21鄰","STREET":"安寧街","SECT":" ","MAREA":" ","LANE":"２３巷","ALLEY":" ","HOUSE_NO":"９號","E_COORD97":167391.04999999999,"N_COORD97":2546907.3900000001,"ADDRESS":"安寧街２３巷９號","OBJECTID":378857},"geometry":{"x":167391.05000000075,"y":2546907.3900000043}},{"attributes":{"ID":378868,"DIS_CODE":0,"TOWNNAME":"安南區","LI":"溪墘里","LIN":"21鄰","STREET":"安寧街","SECT":" ","MAREA":" ","LANE":"２３巷","ALLEY":" ","HOUSE_NO":"１９號","E_COORD97":167363.67000000001,"N_COORD97":2546902.8100000001,"ADDRESS":"安寧街２３巷１９號","OBJECTID":378858},"geometry":{"x":167363.66999999993,"y":2546902.8100000024}},{"attributes":{"ID":378869,"DIS_CODE":0,"TOWNNAME":"安南區","LI":"溪墘里","LIN":"21鄰","STREET":"安寧街","SECT":" ","MAREA":" ","LANE":"３７巷","ALLEY":" ","HOUSE_NO":"２３號","E_COORD97":167345.79000000001,"N_COORD97":2546935.8900000001,"ADDRESS":"安寧街３７巷２３號","OBJECTID":378859},"geometry":{"x":167345.79000000097,"y":2546935.8900000025}},{"attributes":{"ID":378870,"DIS_CODE":0,"TOWNNAME":"永康區","LI":"埔園里","LIN":"21鄰","STREET":"四維街","SECT":" ","MAREA":" ","LANE":"７８巷","ALLEY":" ","HOUSE_NO":"１號","E_COORD97":173412.85999999999,"N_COORD97":2548125.7400000002,"ADDRESS":"四維街７８巷１號","OBJECTID":378860},"geometry":{"x":173412.86000000127,"y":2548125.7400000021}},{"attributes":{"ID":378871,"DIS_CODE":0,"TOWNNAME":"永康區","LI":"崑山里","LIN":"21鄰","STREET":"大仁街","SECT":" ","MAREA":" ","LANE":"３１巷","ALLEY":" ","HOUSE_NO":"１７號之６","E_COORD97":173726.82000000001,"N_COORD97":2544613.4100000001,"ADDRESS":"大仁街３１巷１７號之６","OBJECTID":378861},"geometry":{"x":173726.8200000003,"y":2544613.4100000001}},{"attributes":{"ID":378872,"DIS_CODE":0,"TOWNNAME":"永康區","LI":"南灣里","LIN":"21鄰","STREET":"大灣路","SECT":" ","MAREA":" ","LANE":"７６４巷","ALLEY":" ","HOUSE_NO":"２６號","E_COORD97":174180.14999999999,"N_COORD97":2544594.6899999999,"ADDRESS":"大灣路７６４巷２６號","OBJECTID":378862},"geometry":{"x":174180.1500000013,"y":2544594.6899999995}},{"attributes":{"ID":378873,"DIS_CODE":0,"TOWNNAME":"永康區","LI":"網寮里","LIN":"21鄰","STREET":"文化路","SECT":" ","MAREA":" ","LANE":"２４２巷","ALLEY":" ","HOUSE_NO":"８號","E_COORD97":173577.53,"N_COORD97":2546158.3399999999,"ADDRESS":"文化路２４２巷８號","OBJECTID":378863},"geometry":{"x":173577.53000000119,"y":2546158.3400000017}},{"attributes":{"ID":378874,"DIS_CODE":0,"TOWNNAME":"永康區","LI":"甲頂里","LIN":"21鄰","STREET":"中正南路","SECT":" ","MAREA":" ","LANE":"５２巷","ALLEY":" ","HOUSE_NO":"３８號","E_COORD97":169797.85000000001,"N_COORD97":2546771.2999999998,"ADDRESS":"中正南路５２巷３８號","OBJECTID":378864},"geometry":{"x":169797.85000000056,"y":2546771.3000000007}},{"attributes":{"ID":378875,"DIS_CODE":0,"TOWNNAME":"永康區","LI":"崑山里","LIN":"21鄰","STREET":"大仁街","SECT":" ","MAREA":" ","LANE":"１１巷","ALLEY":" ","HOUSE_NO":"２號之１","E_COORD97":173783.28,"N_COORD97":2544555.25,"ADDRESS":"大仁街１１巷２號之１","OBJECTID":378865},"geometry":{"x":173783.28000000026,"y":2544555.2500000019}},{"attributes":{"ID":378876,"DIS_CODE":0,"TOWNNAME":"永康區","LI":"埔園里","LIN":"21鄰","STREET":"四維街","SECT":" ","MAREA":" ","LANE":"７８巷","ALLEY":" ","HOUSE_NO":"７號","E_COORD97":173423.97,"N_COORD97":2548132.9900000002,"ADDRESS":"四維街７８巷７號","OBJECTID":378866},"geometry":{"x":173423.96999999974,"y":2548132.9900000002}},{"attributes":{"ID":378877,"DIS_CODE":0,"TOWNNAME":"永康區","LI":"崑山里","LIN":"21鄰","STREET":"大仁街","SECT":" ","MAREA":" ","LANE":"３１巷","ALLEY":" ","HOUSE_NO":"１８號之１","E_COORD97":173727.17000000001,"N_COORD97":2544626.3900000001,"ADDRESS":"大仁街３１巷１８號之１","OBJECTID":378867},"geometry":{"x":173727.17000000086,"y":2544626.3900000025}},{"attributes":{"ID":378878,"DIS_CODE":0,"TOWNNAME":"永康區","LI":"崑山里","LIN":"21鄰","STREET":"大仁街","SECT":" ","MAREA":" ","LANE":"１１巷","ALLEY":" ","HOUSE_NO":"１０號","E_COORD97":173739.70999999999,"N_COORD97":2544572.25,"ADDRESS":"大仁街１１巷１０號","OBJECTID":378868},"geometry":{"x":173739.70999999996,"y":2544572.2500000019}},{"attributes":{"ID":378879,"DIS_CODE":0,"TOWNNAME":"永康區","LI":"崑山里","LIN":"21鄰","STREET":"大仁街","SECT":" ","MAREA":" ","LANE":"１１巷","ALLEY":" ","HOUSE_NO":"１２號","E_COORD97":173735.07999999999,"N_COORD97":2544573.5,"ADDRESS":"大仁街１１巷１２號","OBJECTID":378869},"geometry":{"x":173735.08000000007,"y":2544573.5000000037}},{"attributes":{"ID":378880,"DIS_CODE":0,"TOWNNAME":"永康區","LI":"埔園里","LIN":"21鄰","STREET":"四維街","SECT":" ","MAREA":" ","LANE":"７８巷","ALLEY":" ","HOUSE_NO":"５號","E_COORD97":173421.23000000001,"N_COORD97":2548127.4900000002,"ADDRESS":"四維街７８巷５號","OBJECTID":378870},"geometry":{"x":173421.23000000045,"y":2548127.4900000021}},{"attributes":{"ID":378881,"DIS_CODE":0,"TOWNNAME":"永康區","LI":"崑山里","LIN":"21鄰","STREET":"大灣路","SECT":" ","MAREA":" ","LANE":"９４２巷","ALLEY":" ","HOUSE_NO":"７４號","E_COORD97":173693.51999999999,"N_COORD97":2544670.8100000001,"ADDRESS":"大灣路９４２巷７４號","OBJECTID":378871},"geometry":{"x":173693.52000000048,"y":2544670.8100000024}},{"attributes":{"ID":378882,"DIS_CODE":0,"TOWNNAME":"永康區","LI":"崑山里","LIN":"21鄰","STREET":"大仁街","SECT":" ","MAREA":" ","LANE":"５１巷","ALLEY":" ","HOUSE_NO":"１７號","E_COORD97":173719.13,"N_COORD97":2544673.2599999998,"ADDRESS":"大仁街５１巷１７號","OBJECTID":378872},"geometry":{"x":173719.12999999989,"y":2544673.2600000035}},{"attributes":{"ID":378883,"DIS_CODE":0,"TOWNNAME":"永康區","LI":"崑山里","LIN":"21鄰","STREET":"大仁街","SECT":" ","MAREA":" ","LANE":"３１巷","ALLEY":" ","HOUSE_NO":"３１號","E_COORD97":173707.39000000001,"N_COORD97":2544618.9100000001,"ADDRESS":"大仁街３１巷３１號","OBJECTID":378873},"geometry":{"x":173707.38999999966,"y":2544618.910000002}},{"attributes":{"ID":378884,"DIS_CODE":0,"TOWNNAME":"永康區","LI":"崑山里","LIN":"21鄰","STREET":"大灣路","SECT":" ","MAREA":" ","LANE":"９４２巷","ALLEY":" ","HOUSE_NO":"７６號","E_COORD97":173695.42999999999,"N_COORD97":2544676.3100000001,"ADDRESS":"大灣路９４２巷７６號","OBJECTID":378874},"geometry":{"x":173695.4299999997,"y":2544676.3100000005}},{"attributes":{"ID":378885,"DIS_CODE":0,"TOWNNAME":"永康區","LI":"崑山里","LIN":"21鄰","STREET":"大仁街","SECT":" ","MAREA":" ","LANE":"３１巷","ALLEY":" ","HOUSE_NO":"２０號","E_COORD97":173716.60000000001,"N_COORD97":2544629.5899999999,"ADDRESS":"大仁街３１巷２０號","OBJECTID":378875},"geometry":{"x":173716.60000000149,"y":2544629.5899999999}},{"attributes":{"ID":378886,"DIS_CODE":0,"TOWNNAME":"永康區","LI":"崑山里","LIN":"21鄰","STREET":"大仁街","SECT":" ","MAREA":" ","LANE":"３１巷","ALLEY":" ","HOUSE_NO":"２９號","E_COORD97":173712.23000000001,"N_COORD97":2544617.4100000001,"ADDRESS":"大仁街３１巷２９號","OBJECTID":378876},"geometry":{"x":173712.23000000138,"y":2544617.4100000001}},{"attributes":{"ID":378887,"DIS_CODE":0,"TOWNNAME":"永康區","LI":"崑山里","LIN":"21鄰","STREET":"大仁街","SECT":" ","MAREA":" ","LANE":"１１巷","ALLEY":" ","HOUSE_NO":"２０號","E_COORD97":173714.76999999999,"N_COORD97":2544572.8399999999,"ADDRESS":"大仁街１１巷２０號","OBJECTID":378877},"geometry":{"x":173714.76999999955,"y":2544572.8399999999}},{"attributes":{"ID":378888,"DIS_CODE":0,"TOWNNAME":"永康區","LI":"崑山里","LIN":"21鄰","STREET":"大仁街","SECT":" ","MAREA":" ","LANE":"３１巷","ALLEY":" ","HOUSE_NO":"１８號之２","E_COORD97":173722.95999999999,"N_COORD97":2544627.8900000001,"ADDRESS":"大仁街３１巷１８號之２","OBJECTID":378878},"geometry":{"x":173722.96000000183,"y":2544627.8900000006}},{"attributes":{"ID":378889,"DIS_CODE":0,"TOWNNAME":"永康區","LI":"崑山里","LIN":"21鄰","STREET":"大仁街","SECT":" ","MAREA":" ","LANE":"１１巷","ALLEY":" ","HOUSE_NO":"２２號","E_COORD97":173710.63,"N_COORD97":2544574.0899999999,"ADDRESS":"大仁街１１巷２２號","OBJECTID":378879},"geometry":{"x":173710.63000000082,"y":2544574.0900000017}},{"attributes":{"ID":378890,"DIS_CODE":0,"TOWNNAME":"永康區","LI":"崑山里","LIN":"21鄰","STREET":"大仁街","SECT":" ","MAREA":" ","LANE":"３１巷","ALLEY":" ","HOUSE_NO":"１７號之５","E_COORD97":173731.88,"N_COORD97":2544611.6600000001,"ADDRESS":"大仁街３１巷１７號之５","OBJECTID":378880},"geometry":{"x":173731.88000000175,"y":2544611.6600000001}},{"attributes":{"ID":378891,"DIS_CODE":0,"TOWNNAME":"永康區","LI":"埔園里","LIN":"21鄰","STREET":"四維街","SECT":" ","MAREA":" ","LANE":"７８巷","ALLEY":" ","HOUSE_NO":"２號","E_COORD97":173413.97,"N_COORD97":2548110.2599999998,"ADDRESS":"四維街７８巷２號","OBJECTID":378881},"geometry":{"x":173413.96999999881,"y":2548110.2599999998}},{"attributes":{"ID":378892,"DIS_CODE":0,"TOWNNAME":"中西區","LI":"三民里","LIN":"7鄰","STREET":"民權路","SECT":"二段","MAREA":" ","LANE":"９５巷","ALLEY":" ","HOUSE_NO":"３號","E_COORD97":168442.82000000001,"N_COORD97":2543851.9700000002,"ADDRESS":"民權路二段９５巷３號","OBJECTID":378882},"geometry":{"x":168442.82000000123,"y":2543851.9700000007}},{"attributes":{"ID":378893,"DIS_CODE":0,"TOWNNAME":"中西區","LI":"三民里","LIN":"7鄰","STREET":"民權路","SECT":"二段","MAREA":" ","LANE":"９５巷","ALLEY":" ","HOUSE_NO":"５號","E_COORD97":168441.56,"N_COORD97":2543846.6600000001,"ADDRESS":"民權路二段９５巷５號","OBJECTID":378883},"geometry":{"x":168441.56000000052,"y":2543846.6600000001}},{"attributes":{"ID":378894,"DIS_CODE":0,"TOWNNAME":"中西區","LI":"三民里","LIN":"7鄰","STREET":"民權路","SECT":"二段","MAREA":" ","LANE":"９５巷","ALLEY":" ","HOUSE_NO":"７號","E_COORD97":168440.31,"N_COORD97":2543842.4300000002,"ADDRESS":"民權路二段９５巷７號","OBJECTID":378884},"geometry":{"x":168440.31000000052,"y":2543842.4300000016}},{"attributes":{"ID":378895,"DIS_CODE":0,"TOWNNAME":"安南區","LI":"溪墘里","LIN":"21鄰","STREET":"安寧街","SECT":" ","MAREA":" ","LANE":"３７巷","ALLEY":" ","HOUSE_NO":"１０號","E_COORD97":167379.88,"N_COORD97":2546965.6499999999,"ADDRESS":"安寧街３７巷１０號","OBJECTID":378885},"geometry":{"x":167379.87999999896,"y":2546965.6500000004}},{"attributes":{"ID":378896,"DIS_CODE":0,"TOWNNAME":"仁德區","LI":"太子里","LIN":"21鄰","STREET":"長興路","SECT":" ","MAREA":" ","LANE":"８７巷","ALLEY":" ","HOUSE_NO":"１０７號","E_COORD97":173851.53,"N_COORD97":2543715.7599999998,"ADDRESS":"長興路８７巷１０７號","OBJECTID":378886},"geometry":{"x":173851.53000000212,"y":2543715.7599999998}},{"attributes":{"ID":378897,"DIS_CODE":0,"TOWNNAME":"仁德區","LI":"太子里","LIN":"21鄰","STREET":"長興四街","SECT":" ","MAREA":" ","LANE":"７４巷","ALLEY":" ","HOUSE_NO":"１號","E_COORD97":173898.34,"N_COORD97":2543569.25,"ADDRESS":"長興四街７４巷１號","OBJECTID":378887},"geometry":{"x":173898.34000000078,"y":2543569.2500000019}},{"attributes":{"ID":378898,"DIS_CODE":0,"TOWNNAME":"仁德區","LI":"後壁里","LIN":"21鄰","STREET":"中正路","SECT":"二段","MAREA":" ","LANE":"９７巷","ALLEY":" ","HOUSE_NO":"２５號","E_COORD97":173083.70000000001,"N_COORD97":2538543.0299999998,"ADDRESS":"中正路二段９７巷２５號","OBJECTID":378888},"geometry":{"x":173083.70000000019,"y":2538543.0299999993}},{"attributes":{"ID":378899,"DIS_CODE":0,"TOWNNAME":"仁德區","LI":"後壁里","LIN":"21鄰","STREET":"中正路","SECT":"二段","MAREA":" ","LANE":"９７巷","ALLEY":" ","HOUSE_NO":"３１號","E_COORD97":173074.39000000001,"N_COORD97":2538551.0299999998,"ADDRESS":"中正路二段９７巷３１號","OBJECTID":378889},"geometry":{"x":173074.3900000006,"y":2538551.0299999975}},{"attributes":{"ID":378900,"DIS_CODE":0,"TOWNNAME":"仁德區","LI":"太子里","LIN":"21鄰","STREET":"長興四街","SECT":" ","MAREA":" ","LANE":"６４巷","ALLEY":" ","HOUSE_NO":"１號","E_COORD97":173930.01000000001,"N_COORD97":2543641.7599999998,"ADDRESS":"長興四街６４巷１號","OBJECTID":378890},"geometry":{"x":173930.01000000071,"y":2543641.7599999998}},{"attributes":{"ID":378901,"DIS_CODE":0,"TOWNNAME":"仁德區","LI":"成功里","LIN":"21鄰","STREET":"保生路","SECT":" ","MAREA":" ","LANE":"６５巷","ALLEY":" ","HOUSE_NO":"１３號","E_COORD97":170719.64999999999,"N_COORD97":2539751.2400000002,"ADDRESS":"保生路６５巷１３號","OBJECTID":378891},"geometry":{"x":170719.65000000037,"y":2539751.2400000039}},{"attributes":{"ID":378902,"DIS_CODE":0,"TOWNNAME":"仁德區","LI":"成功里","LIN":"21鄰","STREET":"保生路","SECT":" ","MAREA":" ","LANE":"６５巷","ALLEY":" ","HOUSE_NO":"２號","E_COORD97":170717.13,"N_COORD97":2539795.75,"ADDRESS":"保生路６５巷２號","OBJECTID":378892},"geometry":{"x":170717.12999999989,"y":2539795.7500000019}},{"attributes":{"ID":378903,"DIS_CODE":0,"TOWNNAME":"仁德區","LI":"太子里","LIN":"21鄰","STREET":"長興四街","SECT":" ","MAREA":" ","LANE":"７４巷","ALLEY":" ","HOUSE_NO":"８號","E_COORD97":173924.81,"N_COORD97":2543599,"ADDRESS":"長興四街７４巷８號","OBJECTID":378893},"geometry":{"x":173924.80999999959,"y":2543599}},{"attributes":{"ID":378904,"DIS_CODE":0,"TOWNNAME":"仁德區","LI":"後壁里","LIN":"21鄰","STREET":"中正路","SECT":"二段","MAREA":" ","LANE":"９７巷","ALLEY":" ","HOUSE_NO":"３５號","E_COORD97":173067.64999999999,"N_COORD97":2538557.2799999998,"ADDRESS":"中正路二段９７巷３５號","OBJECTID":378894},"geometry":{"x":173067.65000000224,"y":2538557.2800000012}},{"attributes":{"ID":378905,"DIS_CODE":0,"TOWNNAME":"仁德區","LI":"太子里","LIN":"21鄰","STREET":"長興四街","SECT":" ","MAREA":" ","LANE":"７４巷","ALLEY":" ","HOUSE_NO":"９號","E_COORD97":173910.32000000001,"N_COORD97":2543621.2599999998,"ADDRESS":"長興四街７４巷９號","OBJECTID":378895},"geometry":{"x":173910.3200000003,"y":2543621.2599999998}},{"attributes":{"ID":378906,"DIS_CODE":0,"TOWNNAME":"仁德區","LI":"太子里","LIN":"21鄰","STREET":"長興路","SECT":" ","MAREA":" ","LANE":"８７巷","ALLEY":" ","HOUSE_NO":"６９號","E_COORD97":173864.54999999999,"N_COORD97":2543735.5099999998,"ADDRESS":"長興路８７巷６９號","OBJECTID":378896},"geometry":{"x":173864.55000000168,"y":2543735.5099999979}},{"attributes":{"ID":378907,"DIS_CODE":0,"TOWNNAME":"仁德區","LI":"成功里","LIN":"21鄰","STREET":"保生路","SECT":" ","MAREA":" ","LANE":"６５巷","ALLEY":" ","HOUSE_NO":"１１號","E_COORD97":170721.14999999999,"N_COORD97":2539758.4900000002,"ADDRESS":"保生路６５巷１１號","OBJECTID":378897},"geometry":{"x":170721.15000000037,"y":2539758.4900000002}},{"attributes":{"ID":378908,"DIS_CODE":0,"TOWNNAME":"仁德區","LI":"後壁里","LIN":"21鄰","STREET":"中正路","SECT":"二段","MAREA":" ","LANE":"９７巷","ALLEY":" ","HOUSE_NO":"２７號","E_COORD97":173080.17999999999,"N_COORD97":2538545.7799999998,"ADDRESS":"中正路二段９７巷２７號","OBJECTID":378898},"geometry":{"x":173080.1799999997,"y":2538545.7799999993}},{"attributes":{"ID":378909,"DIS_CODE":0,"TOWNNAME":"仁德區","LI":"成功里","LIN":"21鄰","STREET":"保生路","SECT":" ","MAREA":" ","LANE":"６５巷","ALLEY":" ","HOUSE_NO":"９號","E_COORD97":170721.64999999999,"N_COORD97":2539765.2400000002,"ADDRESS":"保生路６５巷９號","OBJECTID":378899},"geometry":{"x":170721.65000000224,"y":2539765.2400000021}},{"attributes":{"ID":378910,"DIS_CODE":0,"TOWNNAME":"中西區","LI":"三民里","LIN":"8鄰","STREET":"民權路","SECT":"二段","MAREA":" ","LANE":"９５巷","ALLEY":" ","HOUSE_NO":"８號","E_COORD97":168423.45000000001,"N_COORD97":2543861.5800000001,"ADDRESS":"民權路二段９５巷８號","OBJECTID":378900},"geometry":{"x":168423.45000000019,"y":2543861.5800000019}},{"attributes":{"ID":378911,"DIS_CODE":0,"TOWNNAME":"仁德區","LI":"後壁里","LIN":"21鄰","STREET":"中正路","SECT":"二段","MAREA":" ","LANE":"９７巷","ALLEY":" ","HOUSE_NO":"４４號","E_COORD97":173138.35000000001,"N_COORD97":2538554.2799999998,"ADDRESS":"中正路二段９７巷４４號","OBJECTID":378901},"geometry":{"x":173138.3499999987,"y":2538554.2800000012}},{"attributes":{"ID":378912,"DIS_CODE":0,"TOWNNAME":"仁德區","LI":"保安里","LIN":"21鄰","STREET":"文賢一街","SECT":" ","MAREA":" ","LANE":"３巷","ALLEY":" ","HOUSE_NO":"７號","E_COORD97":171072.95000000001,"N_COORD97":2536680.8300000001,"ADDRESS":"文賢一街３巷７號","OBJECTID":378902},"geometry":{"x":171072.95000000019,"y":2536680.8300000001}},{"attributes":{"ID":378913,"DIS_CODE":0,"TOWNNAME":"仁德區","LI":"後壁里","LIN":"21鄰","STREET":"中正路","SECT":"二段","MAREA":" ","LANE":"９７巷","ALLEY":" ","HOUSE_NO":"２２號","E_COORD97":173160.04000000001,"N_COORD97":2538558.5299999998,"ADDRESS":"中正路二段９７巷２２號","OBJECTID":378903},"geometry":{"x":173160.04000000097,"y":2538558.5300000012}},{"attributes":{"ID":378914,"DIS_CODE":0,"TOWNNAME":"仁德區","LI":"成功里","LIN":"21鄰","STREET":"保生路","SECT":" ","MAREA":" ","LANE":"６５巷","ALLEY":" ","HOUSE_NO":"１２號","E_COORD97":170707.54000000001,"N_COORD97":2539757.9900000002,"ADDRESS":"保生路６５巷１２號","OBJECTID":378904},"geometry":{"x":170707.54000000097,"y":2539757.9900000002}},{"attributes":{"ID":378915,"DIS_CODE":0,"TOWNNAME":"仁德區","LI":"成功里","LIN":"21鄰","STREET":"保生路","SECT":" ","MAREA":" ","LANE":"６５巷","ALLEY":" ","HOUSE_NO":"１５號","E_COORD97":170717.94,"N_COORD97":2539745.2400000002,"ADDRESS":"保生路６５巷１５號","OBJECTID":378905},"geometry":{"x":170717.94000000227,"y":2539745.2400000021}},{"attributes":{"ID":378916,"DIS_CODE":0,"TOWNNAME":"仁德區","LI":"保安里","LIN":"21鄰","STREET":"文賢一街","SECT":" ","MAREA":" ","LANE":"１巷","ALLEY":" ","HOUSE_NO":"２４號","E_COORD97":171093.92999999999,"N_COORD97":2536653.0699999998,"ADDRESS":"文賢一街１巷２４號","OBJECTID":378906},"geometry":{"x":171093.93000000063,"y":2536653.0700000003}},{"attributes":{"ID":378917,"DIS_CODE":0,"TOWNNAME":"仁德區","LI":"後壁里","LIN":"21鄰","STREET":"中正路","SECT":"二段","MAREA":" ","LANE":"９７巷","ALLEY":" ","HOUSE_NO":"４０號","E_COORD97":173143.56,"N_COORD97":2538561.0299999998,"ADDRESS":"中正路二段９７巷４０號","OBJECTID":378907},"geometry":{"x":173143.55999999959,"y":2538561.0299999993}},{"attributes":{"ID":378918,"DIS_CODE":0,"TOWNNAME":"仁德區","LI":"太子里","LIN":"21鄰","STREET":"長興四街","SECT":" ","MAREA":" ","LANE":"７４巷","ALLEY":" ","HOUSE_NO":"４號","E_COORD97":173912.84,"N_COORD97":2543603,"ADDRESS":"長興四街７４巷４號","OBJECTID":378908},"geometry":{"x":173912.83999999985,"y":2543603}},{"attributes":{"ID":378919,"DIS_CODE":0,"TOWNNAME":"仁德區","LI":"成功里","LIN":"21鄰","STREET":"保生路","SECT":" ","MAREA":" ","LANE":"６３巷","ALLEY":" ","HOUSE_NO":"１６號","E_COORD97":170732.81,"N_COORD97":2539737.2400000002,"ADDRESS":"保生路６３巷１６號","OBJECTID":378909},"geometry":{"x":170732.80999999959,"y":2539737.2399999984}},{"attributes":{"ID":378920,"DIS_CODE":0,"TOWNNAME":"仁德區","LI":"太子里","LIN":"21鄰","STREET":"長興四街","SECT":" ","MAREA":" ","LANE":"７４巷","ALLEY":" ","HOUSE_NO":"１２號","E_COORD97":173920.75,"N_COORD97":2543631.5099999998,"ADDRESS":"長興四街７４巷１２號","OBJECTID":378910},"geometry":{"x":173920.75,"y":2543631.5100000016}},{"attributes":{"ID":378921,"DIS_CODE":0,"TOWNNAME":"中西區","LI":"三民里","LIN":"3鄰","STREET":"民生路","SECT":"一段","MAREA":" ","LANE":"２２巷","ALLEY":" ","HOUSE_NO":"６號","E_COORD97":168434.92999999999,"N_COORD97":2543776.9100000001,"ADDRESS":"民生路一段２２巷６號","OBJECTID":378911},"geometry":{"x":168434.9299999997,"y":2543776.9100000001}},{"attributes":{"ID":378922,"DIS_CODE":0,"TOWNNAME":"中西區","LI":"三民里","LIN":"5鄰","STREET":"民生路","SECT":"一段","MAREA":" ","LANE":"２２巷","ALLEY":" ","HOUSE_NO":"１７號","E_COORD97":168408.04999999999,"N_COORD97":2543783.4100000001,"ADDRESS":"民生路一段２２巷１７號","OBJECTID":378912},"geometry":{"x":168408.05000000075,"y":2543783.4100000001}},{"attributes":{"ID":378923,"DIS_CODE":0,"TOWNNAME":"中西區","LI":"三民里","LIN":"5鄰","STREET":"民生路","SECT":"一段","MAREA":" ","LANE":"２２巷","ALLEY":" ","HOUSE_NO":"２３號","E_COORD97":168430.13,"N_COORD97":2543798.1000000001,"ADDRESS":"民生路一段２２巷２３號","OBJECTID":378913},"geometry":{"x":168430.13000000082,"y":2543798.0999999996}},{"attributes":{"ID":378924,"DIS_CODE":0,"TOWNNAME":"中西區","LI":"三民里","LIN":"5鄰","STREET":"民生路","SECT":"一段","MAREA":" ","LANE":"２２巷","ALLEY":" ","HOUSE_NO":"５號","E_COORD97":168398.16,"N_COORD97":2543781.25,"ADDRESS":"民生路一段２２巷５號","OBJECTID":378914},"geometry":{"x":168398.16000000015,"y":2543781.25}},{"attributes":{"ID":378925,"DIS_CODE":0,"TOWNNAME":"永康區","LI":"龍潭里","LIN":"21鄰","STREET":"龍安街","SECT":" ","MAREA":" ","LANE":"３３２巷","ALLEY":" ","HOUSE_NO":"１０號","E_COORD97":174835.87,"N_COORD97":2548578.46,"ADDRESS":"龍安街３３２巷１０號","OBJECTID":378915},"geometry":{"x":174835.87000000104,"y":2548578.4600000009}},{"attributes":{"ID":378926,"DIS_CODE":0,"TOWNNAME":"永康區","LI":"龍潭里","LIN":"21鄰","STREET":"龍安街","SECT":" ","MAREA":" ","LANE":"３３２巷","ALLEY":" ","HOUSE_NO":"１１號","E_COORD97":174837.94,"N_COORD97":2548562.8199999998,"ADDRESS":"龍安街３３２巷１１號","OBJECTID":378916},"geometry":{"x":174837.94000000134,"y":2548562.8200000022}},{"attributes":{"ID":378927,"DIS_CODE":0,"TOWNNAME":"永康區","LI":"龍潭里","LIN":"21鄰","STREET":"龍安街","SECT":" ","MAREA":" ","LANE":"３３２巷","ALLEY":" ","HOUSE_NO":"１２號","E_COORD97":174833.35999999999,"N_COORD97":2548576.5800000001,"ADDRESS":"龍安街３３２巷１２號","OBJECTID":378917},"geometry":{"x":174833.36000000127,"y":2548576.5800000001}},{"attributes":{"ID":378928,"DIS_CODE":0,"TOWNNAME":"永康區","LI":"龍潭里","LIN":"21鄰","STREET":"龍安街","SECT":" ","MAREA":" ","LANE":"３３２巷","ALLEY":" ","HOUSE_NO":"１３號","E_COORD97":174835.34,"N_COORD97":2548560.9300000002,"ADDRESS":"龍安街３３２巷１３號","OBJECTID":378918},"geometry":{"x":174835.33999999985,"y":2548560.9300000034}},{"attributes":{"ID":378929,"DIS_CODE":0,"TOWNNAME":"永康區","LI":"龍潭里","LIN":"21鄰","STREET":"龍安街","SECT":" ","MAREA":" ","LANE":"３３２巷","ALLEY":" ","HOUSE_NO":"１５號","E_COORD97":174832.95999999999,"N_COORD97":2548559.1299999999,"ADDRESS":"龍安街３３２巷１５號","OBJECTID":378919},"geometry":{"x":174832.95999999996,"y":2548559.1300000008}},{"attributes":{"ID":378930,"DIS_CODE":0,"TOWNNAME":"永康區","LI":"龍潭里","LIN":"21鄰","STREET":"龍安街","SECT":" ","MAREA":" ","LANE":"３３２巷","ALLEY":" ","HOUSE_NO":"１６號","E_COORD97":174830.82999999999,"N_COORD97":2548574.6400000001,"ADDRESS":"龍安街３３２巷１６號","OBJECTID":378920},"geometry":{"x":174830.83000000194,"y":2548574.6400000025}},{"attributes":{"ID":378931,"DIS_CODE":0,"TOWNNAME":"永康區","LI":"龍潭里","LIN":"21鄰","STREET":"龍安街","SECT":" ","MAREA":" ","LANE":"３３２巷","ALLEY":" ","HOUSE_NO":"１７號","E_COORD97":174830.44,"N_COORD97":2548557.0600000001,"ADDRESS":"龍安街３３２巷１７號","OBJECTID":378921},"geometry":{"x":174830.44000000227,"y":2548557.0599999987}},{"attributes":{"ID":378932,"DIS_CODE":0,"TOWNNAME":"永康區","LI":"龍潭里","LIN":"21鄰","STREET":"龍安街","SECT":" ","MAREA":" ","LANE":"３３２巷","ALLEY":" ","HOUSE_NO":"１８號","E_COORD97":174828.42000000001,"N_COORD97":2548572.8599999999,"ADDRESS":"龍安街３３２巷１８號","OBJECTID":378922},"geometry":{"x":174828.42000000179,"y":2548572.8599999994}},{"attributes":{"ID":378933,"DIS_CODE":0,"TOWNNAME":"永康區","LI":"龍潭里","LIN":"21鄰","STREET":"龍安街","SECT":" ","MAREA":" ","LANE":"３３２巷","ALLEY":" ","HOUSE_NO":"１９號","E_COORD97":174828.28,"N_COORD97":2548555.2200000002,"ADDRESS":"龍安街３３２巷１９號","OBJECTID":378923},"geometry":{"x":174828.28000000119,"y":2548555.2200000007}},{"attributes":{"ID":378934,"DIS_CODE":0,"TOWNNAME":"永康區","LI":"龍潭里","LIN":"21鄰","STREET":"龍安街","SECT":" ","MAREA":" ","LANE":"３３２巷","ALLEY":" ","HOUSE_NO":"１號","E_COORD97":174848.92000000001,"N_COORD97":2548572.52,"ADDRESS":"龍安街３３２巷１號","OBJECTID":378924},"geometry":{"x":174848.92000000086,"y":2548572.5199999996}},{"attributes":{"ID":378935,"DIS_CODE":0,"TOWNNAME":"永康區","LI":"龍潭里","LIN":"21鄰","STREET":"龍安街","SECT":" ","MAREA":" ","LANE":"３３２巷","ALLEY":" ","HOUSE_NO":"２０號","E_COORD97":174826.20999999999,"N_COORD97":2548571.0699999998,"ADDRESS":"龍安街３３２巷２０號","OBJECTID":378925},"geometry":{"x":174826.20999999996,"y":2548571.0700000022}},{"attributes":{"ID":378936,"DIS_CODE":0,"TOWNNAME":"永康區","LI":"龍潭里","LIN":"21鄰","STREET":"龍安街","SECT":" ","MAREA":" ","LANE":"３３２巷","ALLEY":" ","HOUSE_NO":"２２號","E_COORD97":174823.79999999999,"N_COORD97":2548569.25,"ADDRESS":"龍安街３３２巷２２號","OBJECTID":378926},"geometry":{"x":174823.79999999981,"y":2548569.2500000037}},{"attributes":{"ID":378937,"DIS_CODE":0,"TOWNNAME":"永康區","LI":"龍潭里","LIN":"21鄰","STREET":"龍安街","SECT":" ","MAREA":" ","LANE":"３３２巷","ALLEY":" ","HOUSE_NO":"２６號","E_COORD97":174808.82000000001,"N_COORD97":2548563.2000000002,"ADDRESS":"龍安街３３２巷２６號","OBJECTID":378927},"geometry":{"x":174808.8200000003,"y":2548563.2000000011}},{"attributes":{"ID":378938,"DIS_CODE":0,"TOWNNAME":"永康區","LI":"龍潭里","LIN":"21鄰","STREET":"龍安街","SECT":" ","MAREA":" ","LANE":"３３２巷","ALLEY":" ","HOUSE_NO":"２號","E_COORD97":174841.88,"N_COORD97":2548584.3399999999,"ADDRESS":"龍安街３３２巷２號","OBJECTID":378928},"geometry":{"x":174841.87999999989,"y":2548584.3399999999}},{"attributes":{"ID":378939,"DIS_CODE":0,"TOWNNAME":"永康區","LI":"龍潭里","LIN":"21鄰","STREET":"龍安街","SECT":" ","MAREA":" ","LANE":"３３２巷","ALLEY":" ","HOUSE_NO":"３號","E_COORD97":174846.53,"N_COORD97":2548570.4199999999,"ADDRESS":"龍安街３３２巷３號","OBJECTID":378929},"geometry":{"x":174846.52999999933,"y":2548570.4199999999}},{"attributes":{"ID":378940,"DIS_CODE":0,"TOWNNAME":"中西區","LI":"三民里","LIN":"3鄰","STREET":"民生路","SECT":"一段","MAREA":" ","LANE":"２２巷","ALLEY":" ","HOUSE_NO":"８號","E_COORD97":168440.39999999999,"N_COORD97":2543782.3799999999,"ADDRESS":"民生路一段２２巷８號","OBJECTID":378930},"geometry":{"x":168440.4000000013,"y":2543782.379999999}},{"attributes":{"ID":378941,"DIS_CODE":0,"TOWNNAME":"永康區","LI":"龍潭里","LIN":"21鄰","STREET":"龍安街","SECT":" ","MAREA":" ","LANE":"３３２巷","ALLEY":" ","HOUSE_NO":"５號","E_COORD97":174844.20999999999,"N_COORD97":2548568.54,"ADDRESS":"龍安街３３２巷５號","OBJECTID":378931},"geometry":{"x":174844.21000000089,"y":2548568.5399999991}},{"attributes":{"ID":378942,"DIS_CODE":0,"TOWNNAME":"永康區","LI":"龍潭里","LIN":"21鄰","STREET":"龍安街","SECT":" ","MAREA":" ","LANE":"３３２巷","ALLEY":" ","HOUSE_NO":"６號","E_COORD97":174839.48999999999,"N_COORD97":2548582.4700000002,"ADDRESS":"龍安街３３２巷６號","OBJECTID":378932},"geometry":{"x":174839.49000000022,"y":2548582.4700000025}},{"attributes":{"ID":378943,"DIS_CODE":0,"TOWNNAME":"永康區","LI":"龍潭里","LIN":"21鄰","STREET":"龍安街","SECT":" ","MAREA":" ","LANE":"３３２巷","ALLEY":" ","HOUSE_NO":"７號","E_COORD97":174841.32000000001,"N_COORD97":2548566.1200000001,"ADDRESS":"龍安街３３２巷７號","OBJECTID":378933},"geometry":{"x":174841.32000000216,"y":2548566.120000001}},{"attributes":{"ID":378944,"DIS_CODE":0,"TOWNNAME":"永康區","LI":"龍潭里","LIN":"21鄰","STREET":"龍安街","SECT":" ","MAREA":" ","LANE":"３３２巷","ALLEY":" ","HOUSE_NO":"８號","E_COORD97":174837.06,"N_COORD97":2548580.29,"ADDRESS":"龍安街３３２巷８號","OBJECTID":378934},"geometry":{"x":174837.05999999959,"y":2548580.2899999991}},{"attributes":{"ID":378945,"DIS_CODE":0,"TOWNNAME":"永康區","LI":"龍潭里","LIN":"21鄰","STREET":"龍安街","SECT":" ","MAREA":" ","LANE":"３３２巷","ALLEY":" ","HOUSE_NO":"９號","E_COORD97":174839.01999999999,"N_COORD97":2548564.6600000001,"ADDRESS":"龍安街３３２巷９號","OBJECTID":378935},"geometry":{"x":174839.01999999955,"y":2548564.660000002}},{"attributes":{"ID":378946,"DIS_CODE":0,"TOWNNAME":"永康區","LI":"龍潭里","LIN":"21鄰","STREET":"龍安街","SECT":" ","MAREA":" ","LANE":"３５８巷","ALLEY":" ","HOUSE_NO":"１０號","E_COORD97":174861.07999999999,"N_COORD97":2548533,"ADDRESS":"龍安街３５８巷１０號","OBJECTID":378936},"geometry":{"x":174861.08000000007,"y":2548533}},{"attributes":{"ID":378947,"DIS_CODE":0,"TOWNNAME":"永康區","LI":"龍潭里","LIN":"21鄰","STREET":"龍安街","SECT":" ","MAREA":" ","LANE":"３５８巷","ALLEY":" ","HOUSE_NO":"１２號","E_COORD97":174858.10999999999,"N_COORD97":2548532.9500000002,"ADDRESS":"龍安街３５８巷１２號","OBJECTID":378937},"geometry":{"x":174858.1100000022,"y":2548532.950000003}},{"attributes":{"ID":378948,"DIS_CODE":0,"TOWNNAME":"永康區","LI":"龍潭里","LIN":"21鄰","STREET":"龍安街","SECT":" ","MAREA":" ","LANE":"３５８巷","ALLEY":" ","HOUSE_NO":"１６號","E_COORD97":174854.87,"N_COORD97":2548533.1600000001,"ADDRESS":"龍安街３５８巷１６號","OBJECTID":378938},"geometry":{"x":174854.87000000104,"y":2548533.160000002}},{"attributes":{"ID":378949,"DIS_CODE":0,"TOWNNAME":"永康區","LI":"龍潭里","LIN":"21鄰","STREET":"龍安街","SECT":" ","MAREA":" ","LANE":"３５８巷","ALLEY":" ","HOUSE_NO":"１８號","E_COORD97":174851.78,"N_COORD97":2548532.9500000002,"ADDRESS":"龍安街３５８巷１８號","OBJECTID":378939},"geometry":{"x":174851.78000000212,"y":2548532.950000003}},{"attributes":{"ID":378950,"DIS_CODE":0,"TOWNNAME":"永康區","LI":"龍潭里","LIN":"21鄰","STREET":"龍安街","SECT":" ","MAREA":" ","LANE":"３５８巷","ALLEY":" ","HOUSE_NO":"２０號","E_COORD97":174848.42999999999,"N_COORD97":2548533.1600000001,"ADDRESS":"龍安街３５８巷２０號","OBJECTID":378940},"geometry":{"x":174848.43000000156,"y":2548533.160000002}},{"attributes":{"ID":378951,"DIS_CODE":0,"TOWNNAME":"永康區","LI":"龍潭里","LIN":"21鄰","STREET":"龍安街","SECT":" ","MAREA":" ","LANE":"３５８巷","ALLEY":" ","HOUSE_NO":"２２號","E_COORD97":174845.28,"N_COORD97":2548533.1600000001,"ADDRESS":"龍安街３５８巷２２號","OBJECTID":378941},"geometry":{"x":174845.28000000119,"y":2548533.160000002}},{"attributes":{"ID":378952,"DIS_CODE":0,"TOWNNAME":"永康區","LI":"龍潭里","LIN":"21鄰","STREET":"龍安街","SECT":" ","MAREA":" ","LANE":"３５８巷","ALLEY":" ","HOUSE_NO":"２６號","E_COORD97":174842.20000000001,"N_COORD97":2548533.2200000002,"ADDRESS":"龍安街３５８巷２６號","OBJECTID":378942},"geometry":{"x":174842.20000000112,"y":2548533.2200000025}},{"attributes":{"ID":378953,"DIS_CODE":0,"TOWNNAME":"永康區","LI":"龍潭里","LIN":"21鄰","STREET":"龍安街","SECT":" ","MAREA":" ","LANE":"３５８巷","ALLEY":" ","HOUSE_NO":"３０號","E_COORD97":174835.66,"N_COORD97":2548533.52,"ADDRESS":"龍安街３５８巷３０號","OBJECTID":378943},"geometry":{"x":174835.66000000108,"y":2548533.5200000014}},{"attributes":{"ID":378954,"DIS_CODE":0,"TOWNNAME":"永康區","LI":"龍潭里","LIN":"21鄰","STREET":"龍安街","SECT":" ","MAREA":" ","LANE":"３５８巷","ALLEY":" ","HOUSE_NO":"６號","E_COORD97":174866.26999999999,"N_COORD97":2548532.79,"ADDRESS":"龍安街３５８巷６號","OBJECTID":378944},"geometry":{"x":174866.27000000142,"y":2548532.7899999991}},{"attributes":{"ID":378955,"DIS_CODE":0,"TOWNNAME":"永康區","LI":"六合里","LIN":"21鄰","STREET":"中華二路","SECT":" ","MAREA":" ","LANE":"３５８巷","ALLEY":" ","HOUSE_NO":"２號","E_COORD97":171118.22,"N_COORD97":2545445.9900000002,"ADDRESS":"中華二路３５８巷２號","OBJECTID":378945},"geometry":{"x":171118.21999999974,"y":2545445.9900000021}},{"attributes":{"ID":378956,"DIS_CODE":0,"TOWNNAME":"永康區","LI":"六合里","LIN":"21鄰","STREET":"中華二路","SECT":" ","MAREA":" ","LANE":"３５８巷","ALLEY":" ","HOUSE_NO":"６號","E_COORD97":171116.62,"N_COORD97":2545454.9900000002,"ADDRESS":"中華二路３５８巷６號","OBJECTID":378946},"geometry":{"x":171116.62000000104,"y":2545454.9900000002}},{"attributes":{"ID":378957,"DIS_CODE":0,"TOWNNAME":"永康區","LI":"正強里","LIN":"21鄰","STREET":"自強路","SECT":" ","MAREA":" ","LANE":"３５３巷","ALLEY":" ","HOUSE_NO":"２８號","E_COORD97":173453.95999999999,"N_COORD97":2547838.5,"ADDRESS":"自強路３５３巷２８號","OBJECTID":378947},"geometry":{"x":173453.96000000089,"y":2547838.5000000037}},{"attributes":{"ID":378958,"DIS_CODE":0,"TOWNNAME":"永康區","LI":"正強里","LIN":"21鄰","STREET":"自強路","SECT":" ","MAREA":" ","LANE":"３５３巷","ALLEY":" ","HOUSE_NO":"３０號","E_COORD97":173442.97,"N_COORD97":2547837.6600000001,"ADDRESS":"自強路３５３巷３０號","OBJECTID":378948},"geometry":{"x":173442.9700000016,"y":2547837.6600000039}},{"attributes":{"ID":378959,"DIS_CODE":0,"TOWNNAME":"永康區","LI":"正強里","LIN":"21鄰","STREET":"自強路","SECT":" ","MAREA":" ","LANE":"３５３巷","ALLEY":" ","HOUSE_NO":"３２號","E_COORD97":173433.22,"N_COORD97":2547835.1699999999,"ADDRESS":"自強路３５３巷３２號","OBJECTID":378949},"geometry":{"x":173433.22000000067,"y":2547835.1700000018}},{"attributes":{"ID":378960,"DIS_CODE":0,"TOWNNAME":"永康區","LI":"正強里","LIN":"21鄰","STREET":"自強路","SECT":" ","MAREA":" ","LANE":"３５３巷","ALLEY":" ","HOUSE_NO":"３６號","E_COORD97":173421.10999999999,"N_COORD97":2547831.52,"ADDRESS":"自強路３５３巷３６號","OBJECTID":378950},"geometry":{"x":173421.11000000127,"y":2547831.5200000014}},{"attributes":{"ID":378961,"DIS_CODE":0,"TOWNNAME":"永康區","LI":"正強里","LIN":"21鄰","STREET":"自強路","SECT":" ","MAREA":" ","LANE":"３５３巷","ALLEY":" ","HOUSE_NO":"１１號","E_COORD97":173464.60999999999,"N_COORD97":2547825.1400000001,"ADDRESS":"自強路３５３巷１１號","OBJECTID":378951},"geometry":{"x":173464.6100000022,"y":2547825.1400000025}},{"attributes":{"ID":378962,"DIS_CODE":0,"TOWNNAME":"永康區","LI":"正強里","LIN":"21鄰","STREET":"自強路","SECT":" ","MAREA":" ","LANE":"３５３巷","ALLEY":" ","HOUSE_NO":"１３號","E_COORD97":173456.81,"N_COORD97":2547819.2000000002,"ADDRESS":"自強路３５３巷１３號","OBJECTID":378952},"geometry":{"x":173456.80999999959,"y":2547819.200000003}},{"attributes":{"ID":378963,"DIS_CODE":0,"TOWNNAME":"永康區","LI":"正強里","LIN":"21鄰","STREET":"自強路","SECT":" ","MAREA":" ","LANE":"３５３巷","ALLEY":" ","HOUSE_NO":"１５號","E_COORD97":173451.82999999999,"N_COORD97":2547817.29,"ADDRESS":"自強路３５３巷１５號","OBJECTID":378953},"geometry":{"x":173451.83000000007,"y":2547817.2899999991}},{"attributes":{"ID":378964,"DIS_CODE":0,"TOWNNAME":"永康區","LI":"正強里","LIN":"21鄰","STREET":"自強路","SECT":" ","MAREA":" ","LANE":"３５３巷","ALLEY":" ","HOUSE_NO":"１７號","E_COORD97":173447.44,"N_COORD97":2547815.9100000001,"ADDRESS":"自強路３５３巷１７號","OBJECTID":378954},"geometry":{"x":173447.44000000134,"y":2547815.910000002}},{"attributes":{"ID":378965,"DIS_CODE":0,"TOWNNAME":"永康區","LI":"正強里","LIN":"21鄰","STREET":"自強路","SECT":" ","MAREA":" ","LANE":"３５３巷","ALLEY":" ","HOUSE_NO":"１９號","E_COORD97":173443.04999999999,"N_COORD97":2547814.5299999998,"ADDRESS":"自強路３５３巷１９號","OBJECTID":378955},"geometry":{"x":173443.05000000075,"y":2547814.5300000012}},{"attributes":{"ID":378966,"DIS_CODE":0,"TOWNNAME":"永康區","LI":"正強里","LIN":"21鄰","STREET":"自強路","SECT":" ","MAREA":" ","LANE":"３５３巷","ALLEY":" ","HOUSE_NO":"２１號","E_COORD97":173435.23999999999,"N_COORD97":2547814.5600000001,"ADDRESS":"自強路３５３巷２１號","OBJECTID":378956},"geometry":{"x":173435.24000000115,"y":2547814.5600000005}},{"attributes":{"ID":378967,"DIS_CODE":0,"TOWNNAME":"永康區","LI":"正強里","LIN":"21鄰","STREET":"自強路","SECT":" ","MAREA":" ","LANE":"３５３巷","ALLEY":" ","HOUSE_NO":"２３號","E_COORD97":173449.95000000001,"N_COORD97":2547804,"ADDRESS":"自強路３５３巷２３號","OBJECTID":378957},"geometry":{"x":173449.95000000019,"y":2547804}},{"attributes":{"ID":378968,"DIS_CODE":0,"TOWNNAME":"永康區","LI":"正強里","LIN":"21鄰","STREET":"自強路","SECT":" ","MAREA":" ","LANE":"３５３巷","ALLEY":" ","HOUSE_NO":"２５號","E_COORD97":173452.25,"N_COORD97":2547798.5499999998,"ADDRESS":"自強路３５３巷２５號","OBJECTID":378958},"geometry":{"x":173452.25000000093,"y":2547798.5500000026}},{"attributes":{"ID":378969,"DIS_CODE":0,"TOWNNAME":"中西區","LI":"萬昌里","LIN":"8鄰","STREET":"府前路","SECT":"一段","MAREA":" ","LANE":"１２２巷","ALLEY":" ","HOUSE_NO":"２８號","E_COORD97":168852.95999999999,"N_COORD97":2543362.9500000002,"ADDRESS":"府前路一段１２２巷２８號","OBJECTID":378959},"geometry":{"x":168852.96000000089,"y":2543362.9500000011}},{"attributes":{"ID":378970,"DIS_CODE":0,"TOWNNAME":"中西區","LI":"萬昌里","LIN":"8鄰","STREET":"府前路","SECT":"一段","MAREA":" ","LANE":"１２２巷","ALLEY":" ","HOUSE_NO":"３０號","E_COORD97":168845.45000000001,"N_COORD97":2543364.8199999998,"ADDRESS":"府前路一段１２２巷３０號","OBJECTID":378960},"geometry":{"x":168845.45000000019,"y":2543364.820000004}},{"attributes":{"ID":378971,"DIS_CODE":0,"TOWNNAME":"中西區","LI":"萬昌里","LIN":"8鄰","STREET":"府前路","SECT":"一段","MAREA":" ","LANE":"１２２巷","ALLEY":" ","HOUSE_NO":"６２號","E_COORD97":168802.91,"N_COORD97":2543421.5800000001,"ADDRESS":"府前路一段１２２巷６２號","OBJECTID":378961},"geometry":{"x":168802.91000000108,"y":2543421.5800000019}},{"attributes":{"ID":378972,"DIS_CODE":0,"TOWNNAME":"永康區","LI":"西灣里","LIN":"21鄰","STREET":"國光七街","SECT":" ","MAREA":" ","LANE":"３巷","ALLEY":" ","HOUSE_NO":"９號","E_COORD97":174343.07999999999,"N_COORD97":2545453.4100000001,"ADDRESS":"國光七街３巷９號","OBJECTID":378962},"geometry":{"x":174343.08000000101,"y":2545453.410000002}},{"attributes":{"ID":378973,"DIS_CODE":0,"TOWNNAME":"永康區","LI":"西灣里","LIN":"21鄰","STREET":"國光七街","SECT":" ","MAREA":" ","LANE":"３巷","ALLEY":" ","HOUSE_NO":"２１號","E_COORD97":174333.23999999999,"N_COORD97":2545439.9199999999,"ADDRESS":"國光七街３巷２１號","OBJECTID":378963},"geometry":{"x":174333.24000000209,"y":2545439.9200000018}},{"attributes":{"ID":378974,"DIS_CODE":0,"TOWNNAME":"永康區","LI":"網寮里","LIN":"21鄰","STREET":"永大一路","SECT":" ","MAREA":" ","LANE":"２７７巷","ALLEY":" ","HOUSE_NO":"１號","E_COORD97":173563.45000000001,"N_COORD97":2546242.3900000001,"ADDRESS":"永大一路２７７巷１號","OBJECTID":378964},"geometry":{"x":173563.45000000019,"y":2546242.3900000006}},{"attributes":{"ID":378975,"DIS_CODE":0,"TOWNNAME":"永康區","LI":"網寮里","LIN":"21鄰","STREET":"永大一路","SECT":" ","MAREA":" ","LANE":"２７７巷","ALLEY":" ","HOUSE_NO":"５號","E_COORD97":173576.95999999999,"N_COORD97":2546235.8999999999,"ADDRESS":"永大一路２７７巷５號","OBJECTID":378965},"geometry":{"x":173576.95999999996,"y":2546235.9000000041}},{"attributes":{"ID":378976,"DIS_CODE":0,"TOWNNAME":"永康區","LI":"網寮里","LIN":"21鄰","STREET":"永大一路","SECT":" ","MAREA":" ","LANE":"２７７巷","ALLEY":" ","HOUSE_NO":"７號","E_COORD97":173579.41,"N_COORD97":2546227.9199999999,"ADDRESS":"永大一路２７７巷７號","OBJECTID":378966},"geometry":{"x":173579.41000000201,"y":2546227.9199999999}},{"attributes":{"ID":378977,"DIS_CODE":0,"TOWNNAME":"永康區","LI":"網寮里","LIN":"21鄰","STREET":"永大一路","SECT":" ","MAREA":" ","LANE":"２７７巷","ALLEY":" ","HOUSE_NO":"２號","E_COORD97":173553.92999999999,"N_COORD97":2546227.3500000001,"ADDRESS":"永大一路２７７巷２號","OBJECTID":378967},"geometry":{"x":173553.93000000063,"y":2546227.3499999996}},{"attributes":{"ID":378978,"DIS_CODE":0,"TOWNNAME":"永康區","LI":"網寮里","LIN":"21鄰","STREET":"永大一路","SECT":" ","MAREA":" ","LANE":"２７７巷","ALLEY":" ","HOUSE_NO":"６號","E_COORD97":173558.37,"N_COORD97":2546225.0099999998,"ADDRESS":"永大一路２７７巷６號","OBJECTID":378968},"geometry":{"x":173558.37000000104,"y":2546225.0100000016}},{"attributes":{"ID":378979,"DIS_CODE":0,"TOWNNAME":"永康區","LI":"網寮里","LIN":"21鄰","STREET":"永大一路","SECT":" ","MAREA":" ","LANE":"２７７巷","ALLEY":" ","HOUSE_NO":"８號","E_COORD97":173562.23000000001,"N_COORD97":2546230.04,"ADDRESS":"永大一路２７７巷８號","OBJECTID":378969},"geometry":{"x":173562.23000000231,"y":2546230.0400000028}},{"attributes":{"ID":378980,"DIS_CODE":0,"TOWNNAME":"永康區","LI":"網寮里","LIN":"21鄰","STREET":"永大一路","SECT":" ","MAREA":" ","LANE":"２７７巷","ALLEY":" ","HOUSE_NO":"１０號","E_COORD97":173565.67000000001,"N_COORD97":2546228.1600000001,"ADDRESS":"永大一路２７７巷１０號","OBJECTID":378970},"geometry":{"x":173565.67000000086,"y":2546228.160000002}},{"attributes":{"ID":378981,"DIS_CODE":0,"TOWNNAME":"永康區","LI":"網寮里","LIN":"21鄰","STREET":"永大一路","SECT":" ","MAREA":" ","LANE":"２７７巷","ALLEY":" ","HOUSE_NO":"１２號","E_COORD97":173569.64999999999,"N_COORD97":2546226.04,"ADDRESS":"永大一路２７７巷１２號","OBJECTID":378971},"geometry":{"x":173569.6500000013,"y":2546226.0399999991}},{"attributes":{"ID":378982,"DIS_CODE":0,"TOWNNAME":"永康區","LI":"網寮里","LIN":"21鄰","STREET":"永大一路","SECT":" ","MAREA":" ","LANE":"２７７巷","ALLEY":" ","HOUSE_NO":"１６號","E_COORD97":173575.70999999999,"N_COORD97":2546222.1600000001,"ADDRESS":"永大一路２７７巷１６號","OBJECTID":378972},"geometry":{"x":173575.71000000089,"y":2546222.1600000001}},{"attributes":{"ID":378983,"DIS_CODE":0,"TOWNNAME":"仁德區","LI":"上崙里","LIN":"21鄰","STREET":"上崙街","SECT":" ","MAREA":" ","LANE":"２６巷","ALLEY":" ","HOUSE_NO":"９號","E_COORD97":173713.98000000001,"N_COORD97":2538149,"ADDRESS":"上崙街２６巷９號","OBJECTID":378973},"geometry":{"x":173713.98000000045,"y":2538149.0000000019}},{"attributes":{"ID":378984,"DIS_CODE":0,"TOWNNAME":"仁德區","LI":"成功里","LIN":"21鄰","STREET":"保華路","SECT":" ","MAREA":" ","LANE":"２６５巷","ALLEY":" ","HOUSE_NO":"４２號","E_COORD97":170670.48999999999,"N_COORD97":2539848.6400000001,"ADDRESS":"保華路２６５巷４２號","OBJECTID":378974},"geometry":{"x":170670.49000000115,"y":2539848.6400000025}},{"attributes":{"ID":378985,"DIS_CODE":0,"TOWNNAME":"中西區","LI":"萬昌里","LIN":"1鄰","STREET":"萬昌街","SECT":" ","MAREA":" ","LANE":"２０巷","ALLEY":" ","HOUSE_NO":"６號","E_COORD97":169031.94,"N_COORD97":2543336.02,"ADDRESS":"萬昌街２０巷６號","OBJECTID":378975},"geometry":{"x":169031.94000000134,"y":2543336.0200000014}},{"attributes":{"ID":378986,"DIS_CODE":0,"TOWNNAME":"中西區","LI":"萬昌里","LIN":"1鄰","STREET":"萬昌街","SECT":" ","MAREA":" ","LANE":"２０巷","ALLEY":" ","HOUSE_NO":"７號","E_COORD97":169028.60999999999,"N_COORD97":2543323.4199999999,"ADDRESS":"萬昌街２０巷７號","OBJECTID":378976},"geometry":{"x":169028.61000000127,"y":2543323.4200000018}},{"attributes":{"ID":378987,"DIS_CODE":0,"TOWNNAME":"歸仁區","LI":"看西里","LIN":"21鄰","STREET":"成功七街","SECT":" ","MAREA":" ","LANE":"１０１巷","ALLEY":" ","HOUSE_NO":"３號","E_COORD97":178204.01000000001,"N_COORD97":2539760.3599999999,"ADDRESS":"成功七街１０１巷３號","OBJECTID":378977},"geometry":{"x":178204.00999999978,"y":2539760.3600000013}},{"attributes":{"ID":378988,"DIS_CODE":0,"TOWNNAME":"安平區","LI":"平通里","LIN":"21鄰","STREET":"育平七街","SECT":" ","MAREA":" ","LANE":"６０巷","ALLEY":" ","HOUSE_NO":"１０８號","E_COORD97":164452.70000000001,"N_COORD97":2544156.1099999999,"ADDRESS":"育平七街６０巷１０８號","OBJECTID":378978},"geometry":{"x":164452.70000000112,"y":2544156.1100000013}},{"attributes":{"ID":378989,"DIS_CODE":0,"TOWNNAME":"新營區","LI":"民生里","LIN":"21鄰","STREET":"民生路","SECT":" ","MAREA":" ","LANE":"１６３巷","ALLEY":" ","HOUSE_NO":"１２６號","E_COORD97":179126.06,"N_COORD97":2578470.5600000001,"ADDRESS":"民生路１６３巷１２６號","OBJECTID":378979},"geometry":{"x":179126.06000000145,"y":2578470.5600000042}},{"attributes":{"ID":378990,"DIS_CODE":0,"TOWNNAME":"新營區","LI":"民生里","LIN":"21鄰","STREET":"民生路","SECT":" ","MAREA":" ","LANE":"１６３巷","ALLEY":" ","HOUSE_NO":"６６號","E_COORD97":179075.41,"N_COORD97":2578619.2000000002,"ADDRESS":"民生路１６３巷６６號","OBJECTID":378980},"geometry":{"x":179075.41000000108,"y":2578619.2000000011}},{"attributes":{"ID":378991,"DIS_CODE":0,"TOWNNAME":"新營區","LI":"新南里","LIN":"21鄰","STREET":"復興路","SECT":" ","MAREA":" ","LANE":"３７８巷","ALLEY":" ","HOUSE_NO":"９之２號","E_COORD97":178510.22,"N_COORD97":2578249.8700000001,"ADDRESS":"復興路３７８巷９之２號","OBJECTID":378981},"geometry":{"x":178510.22000000067,"y":2578249.8700000029}},{"attributes":{"ID":378992,"DIS_CODE":0,"TOWNNAME":"新營區","LI":"新南里","LIN":"21鄰","STREET":"復興路","SECT":" ","MAREA":" ","LANE":"３７８巷","ALLEY":" ","HOUSE_NO":"９之４號","E_COORD97":178497.95999999999,"N_COORD97":2578252.1400000001,"ADDRESS":"復興路３７８巷９之４號","OBJECTID":378982},"geometry":{"x":178497.95999999996,"y":2578252.1400000006}},{"attributes":{"ID":378993,"DIS_CODE":0,"TOWNNAME":"新營區","LI":"新北里","LIN":"21鄰","STREET":"民生路","SECT":" ","MAREA":" ","LANE":"３３６巷","ALLEY":" ","HOUSE_NO":"３７之１號","E_COORD97":178999.16,"N_COORD97":2579244.23,"ADDRESS":"民生路３３６巷３７之１號","OBJECTID":378983},"geometry":{"x":178999.16000000108,"y":2579244.2300000004}},{"attributes":{"ID":378994,"DIS_CODE":0,"TOWNNAME":"新營區","LI":"新北里","LIN":"21鄰","STREET":"民生路","SECT":" ","MAREA":" ","LANE":"３３６巷","ALLEY":" ","HOUSE_NO":"２５之１號","E_COORD97":178988.91,"N_COORD97":2579245.3900000001,"ADDRESS":"民生路３３６巷２５之１號","OBJECTID":378984},"geometry":{"x":178988.91000000108,"y":2579245.3900000025}},{"attributes":{"ID":378995,"DIS_CODE":0,"TOWNNAME":"南區","LI":"新興里","LIN":"21鄰","STREET":"金華路","SECT":"二段","MAREA":" ","LANE":"３４巷","ALLEY":" ","HOUSE_NO":"４號","E_COORD97":167097.73000000001,"N_COORD97":2541879.5299999998,"ADDRESS":"金華路二段３４巷４號","OBJECTID":378985},"geometry":{"x":167097.73000000045,"y":2541879.5299999993}},{"attributes":{"ID":378996,"DIS_CODE":0,"TOWNNAME":"南區","LI":"新興里","LIN":"21鄰","STREET":"金華路","SECT":"二段","MAREA":" ","LANE":"３４巷","ALLEY":" ","HOUSE_NO":"６號","E_COORD97":167101.73999999999,"N_COORD97":2541882.54,"ADDRESS":"金華路二段３４巷６號","OBJECTID":378986},"geometry":{"x":167101.74000000115,"y":2541882.5399999991}},{"attributes":{"ID":378997,"DIS_CODE":0,"TOWNNAME":"南區","LI":"新興里","LIN":"21鄰","STREET":"金華路","SECT":"二段","MAREA":" ","LANE":"３４巷","ALLEY":" ","HOUSE_NO":"８號","E_COORD97":167106.14999999999,"N_COORD97":2541885.1400000001,"ADDRESS":"金華路二段３４巷８號","OBJECTID":378987},"geometry":{"x":167106.1500000013,"y":2541885.1400000025}},{"attributes":{"ID":378998,"DIS_CODE":0,"TOWNNAME":"南區","LI":"新興里","LIN":"21鄰","STREET":"新興路","SECT":" ","MAREA":" ","LANE":"２３０巷","ALLEY":" ","HOUSE_NO":"１０號","E_COORD97":167220.73999999999,"N_COORD97":2541961.96,"ADDRESS":"新興路２３０巷１０號","OBJECTID":378988},"geometry":{"x":167220.74000000115,"y":2541961.9600000028}},{"attributes":{"ID":378999,"DIS_CODE":0,"TOWNNAME":"南區","LI":"新興里","LIN":"21鄰","STREET":"新興路","SECT":" ","MAREA":" ","LANE":"２３０巷","ALLEY":" ","HOUSE_NO":"１２號","E_COORD97":167221.63,"N_COORD97":2541966.21,"ADDRESS":"新興路２３０巷１２號","OBJECTID":378989},"geometry":{"x":167221.62999999989,"y":2541966.2100000028}},{"attributes":{"ID":379000,"DIS_CODE":0,"TOWNNAME":"南區","LI":"新興里","LIN":"21鄰","STREET":"新興路","SECT":" ","MAREA":" ","LANE":"２３０巷","ALLEY":" ","HOUSE_NO":"１２號之１","E_COORD97":167218.76999999999,"N_COORD97":2541970.6699999999,"ADDRESS":"新興路２３０巷１２號之１","OBJECTID":378990},"geometry":{"x":167218.76999999955,"y":2541970.6699999999}},{"attributes":{"ID":379001,"DIS_CODE":0,"TOWNNAME":"南區","LI":"新興里","LIN":"21鄰","STREET":"新興路","SECT":" ","MAREA":" ","LANE":"２３０巷","ALLEY":" ","HOUSE_NO":"１２號之２","E_COORD97":167218.76999999999,"N_COORD97":2541975.5299999998,"ADDRESS":"新興路２３０巷１２號之２","OBJECTID":378991},"geometry":{"x":167218.76999999955,"y":2541975.5300000031}},{"attributes":{"ID":379002,"DIS_CODE":0,"TOWNNAME":"南區","LI":"新興里","LIN":"21鄰","STREET":"新興路","SECT":" ","MAREA":" ","LANE":"２３０巷","ALLEY":" ","HOUSE_NO":"２０號","E_COORD97":167216.32000000001,"N_COORD97":2541977.8199999998,"ADDRESS":"新興路２３０巷２０號","OBJECTID":378992},"geometry":{"x":167216.32000000216,"y":2541977.8199999984}},{"attributes":{"ID":379003,"DIS_CODE":0,"TOWNNAME":"南區","LI":"新興里","LIN":"21鄰","STREET":"新興路","SECT":" ","MAREA":" ","LANE":"２３０巷","ALLEY":" ","HOUSE_NO":"２４號","E_COORD97":167216.01999999999,"N_COORD97":2541981.21,"ADDRESS":"新興路２３０巷２４號","OBJECTID":378993},"geometry":{"x":167216.02000000142,"y":2541981.2100000009}},{"attributes":{"ID":379004,"DIS_CODE":0,"TOWNNAME":"南區","LI":"新興里","LIN":"21鄰","STREET":"新興路","SECT":" ","MAREA":" ","LANE":"２３０巷","ALLEY":" ","HOUSE_NO":"２號","E_COORD97":167228.88,"N_COORD97":2541940.23,"ADDRESS":"新興路２３０巷２號","OBJECTID":378994},"geometry":{"x":167228.87999999989,"y":2541940.2300000004}},{"attributes":{"ID":379005,"DIS_CODE":0,"TOWNNAME":"南區","LI":"新興里","LIN":"21鄰","STREET":"新興路","SECT":" ","MAREA":" ","LANE":"２３０巷","ALLEY":" ","HOUSE_NO":"６號","E_COORD97":167238.32999999999,"N_COORD97":2541956.75,"ADDRESS":"新興路２３０巷６號","OBJECTID":378995},"geometry":{"x":167238.33000000101,"y":2541956.75}},{"attributes":{"ID":379006,"DIS_CODE":0,"TOWNNAME":"歸仁區","LI":"歸仁里","LIN":"21鄰","STREET":"大仁街","SECT":" ","MAREA":" ","LANE":"１１３巷","ALLEY":" ","HOUSE_NO":"１８號","E_COORD97":178079.12,"N_COORD97":2541053.1099999999,"ADDRESS":"大仁街１１３巷１８號","OBJECTID":378996},"geometry":{"x":178079.12000000104,"y":2541053.1100000031}},{"attributes":{"ID":379007,"DIS_CODE":0,"TOWNNAME":"歸仁區","LI":"崙頂里","LIN":"21鄰","STREET":"大成路","SECT":" ","MAREA":" ","LANE":"１８２巷","ALLEY":" ","HOUSE_NO":"１號","E_COORD97":177720.63,"N_COORD97":2540153.25,"ADDRESS":"大成路１８２巷１號","OBJECTID":378997},"geometry":{"x":177720.63000000175,"y":2540153.25}},{"attributes":{"ID":379008,"DIS_CODE":0,"TOWNNAME":"歸仁區","LI":"南興里","LIN":"21鄰","STREET":"文化街","SECT":"三段","MAREA":" ","LANE":"５９２巷","ALLEY":" ","HOUSE_NO":"３３號","E_COORD97":175636.39000000001,"N_COORD97":2541234.3300000001,"ADDRESS":"文化街三段５９２巷３３號","OBJECTID":378998},"geometry":{"x":175636.38999999966,"y":2541234.3300000001}},{"attributes":{"ID":379009,"DIS_CODE":0,"TOWNNAME":"歸仁區","LI":"崙頂里","LIN":"21鄰","STREET":"大成路","SECT":" ","MAREA":" ","LANE":"１８２巷","ALLEY":" ","HOUSE_NO":"３７號","E_COORD97":177680.07000000001,"N_COORD97":2540133.25,"ADDRESS":"大成路１８２巷３７號","OBJECTID":378999},"geometry":{"x":177680.0700000003,"y":2540133.25}},{"attributes":{"ID":379010,"DIS_CODE":0,"TOWNNAME":"歸仁區","LI":"歸仁里","LIN":"21鄰","STREET":"大仁街","SECT":" ","MAREA":" ","LANE":"１１３巷","ALLEY":" ","HOUSE_NO":"４０號","E_COORD97":178086.98999999999,"N_COORD97":2541079.1099999999,"ADDRESS":"大仁街１１３巷４０號","OBJECTID":379000},"geometry":{"x":178086.99000000115,"y":2541079.1099999994}}]}