{"displayFieldName":"TOWNNAME","fieldAliases":{"ID":"ID","DIS_CODE":"DIS_CODE","TOWNNAME":"TOWNNAME","LI":"LI","LIN":"LIN","STREET":"STREET","SECT":"SECT","MAREA":"MAREA","LANE":"LANE","ALLEY":"ALLEY","HOUSE_NO":"HOUSE_NO","E_COORD97":"E_COORD97","N_COORD97":"N_COORD97","ADDRESS":"ADDRESS","OBJECTID":"OBJECTID"},"geometryType":"esriGeometryPoint","spatialReference":{"wkid":102443,"latestWkid":3826},"fields":[{"name":"ID","type":"esriFieldTypeDouble","alias":"ID"},{"name":"DIS_CODE","type":"esriFieldTypeInteger","alias":"DIS_CODE"},{"name":"TOWNNAME","type":"esriFieldTypeString","alias":"TOWNNAME","length":8},{"name":"LI","type":"esriFieldTypeString","alias":"LI","length":8},{"name":"LIN","type":"esriFieldTypeString","alias":"LIN","length":12},{"name":"STREET","type":"esriFieldTypeString","alias":"STREET","length":20},{"name":"SECT","type":"esriFieldTypeString","alias":"SECT","length":8},{"name":"MAREA","type":"esriFieldTypeString","alias":"MAREA","length":12},{"name":"LANE","type":"esriFieldTypeString","alias":"LANE","length":10},{"name":"ALLEY","type":"esriFieldTypeString","alias":"ALLEY","length":10},{"name":"HOUSE_NO","type":"esriFieldTypeString","alias":"HOUSE_NO","length":20},{"name":"E_COORD97","type":"esriFieldTypeDouble","alias":"E_COORD97"},{"name":"N_COORD97","type":"esriFieldTypeDouble","alias":"N_COORD97"},{"name":"ADDRESS","type":"esriFieldTypeString","alias":"ADDRESS","length":50},{"name":"OBJECTID","type":"esriFieldTypeOID","alias":"OBJECTID"}],"features":[{"attributes":{"ID":577828,"DIS_CODE":0,"TOWNNAME":"玉井區","LI":"中正里","LIN":"16鄰","STREET":"前園街","SECT":" ","MAREA":" ","LANE":" ","ALLEY":" ","HOUSE_NO":"２１號","E_COORD97":195180.95000000001,"N_COORD97":2558568.25,"ADDRESS":"前園街２１號","OBJECTID":577801},"geometry":{"x":195180.95000000205,"y":2558568.2500000019}},{"attributes":{"ID":577829,"DIS_CODE":0,"TOWNNAME":"玉井區","LI":"中正里","LIN":"16鄰","STREET":"玉安街","SECT":" ","MAREA":" ","LANE":" ","ALLEY":" ","HOUSE_NO":"２０８號","E_COORD97":195188.67000000001,"N_COORD97":2558662.3199999998,"ADDRESS":"玉安街２０８號","OBJECTID":577802},"geometry":{"x":195188.66999999993,"y":2558662.320000004}},{"attributes":{"ID":577830,"DIS_CODE":0,"TOWNNAME":"玉井區","LI":"中正里","LIN":"16鄰","STREET":"前園街","SECT":" ","MAREA":" ","LANE":" ","ALLEY":" ","HOUSE_NO":"３９號","E_COORD97":195202.95000000001,"N_COORD97":2558606.2400000002,"ADDRESS":"前園街３９號","OBJECTID":577803},"geometry":{"x":195202.95000000205,"y":2558606.2400000021}},{"attributes":{"ID":577831,"DIS_CODE":0,"TOWNNAME":"玉井區","LI":"中正里","LIN":"16鄰","STREET":"前園街","SECT":" ","MAREA":" ","LANE":" ","ALLEY":" ","HOUSE_NO":"５７號","E_COORD97":195207.14999999999,"N_COORD97":2558649.25,"ADDRESS":"前園街５７號","OBJECTID":577804},"geometry":{"x":195207.1500000013,"y":2558649.2500000019}},{"attributes":{"ID":577832,"DIS_CODE":0,"TOWNNAME":"玉井區","LI":"中正里","LIN":"16鄰","STREET":"前園街","SECT":" ","MAREA":" ","LANE":" ","ALLEY":" ","HOUSE_NO":"２９號","E_COORD97":195188.35999999999,"N_COORD97":2558582.2400000002,"ADDRESS":"前園街２９號","OBJECTID":577805},"geometry":{"x":195188.3599999994,"y":2558582.2400000021}},{"attributes":{"ID":577833,"DIS_CODE":0,"TOWNNAME":"玉井區","LI":"中正里","LIN":"16鄰","STREET":"前園街","SECT":" ","MAREA":" ","LANE":" ","ALLEY":" ","HOUSE_NO":"２３號","E_COORD97":195182.35000000001,"N_COORD97":2558571.25,"ADDRESS":"前園街２３號","OBJECTID":577806},"geometry":{"x":195182.34999999963,"y":2558571.2500000019}},{"attributes":{"ID":577834,"DIS_CODE":0,"TOWNNAME":"玉井區","LI":"中正里","LIN":"16鄰","STREET":"前園街","SECT":" ","MAREA":" ","LANE":" ","ALLEY":" ","HOUSE_NO":"３號","E_COORD97":195147.51000000001,"N_COORD97":2558566.25,"ADDRESS":"前園街３號","OBJECTID":577807},"geometry":{"x":195147.50999999978,"y":2558566.25}},{"attributes":{"ID":577835,"DIS_CODE":0,"TOWNNAME":"玉井區","LI":"中正里","LIN":"16鄰","STREET":"前園街","SECT":" ","MAREA":" ","LANE":" ","ALLEY":" ","HOUSE_NO":"３７號","E_COORD97":195201.45000000001,"N_COORD97":2558602.2400000002,"ADDRESS":"前園街３７號","OBJECTID":577808},"geometry":{"x":195201.45000000112,"y":2558602.2400000021}},{"attributes":{"ID":577836,"DIS_CODE":0,"TOWNNAME":"玉井區","LI":"中正里","LIN":"16鄰","STREET":"前園街","SECT":" ","MAREA":" ","LANE":" ","ALLEY":" ","HOUSE_NO":"１號","E_COORD97":195144.39999999999,"N_COORD97":2558568.25,"ADDRESS":"前園街１號","OBJECTID":577809},"geometry":{"x":195144.4000000013,"y":2558568.2500000019}},{"attributes":{"ID":577837,"DIS_CODE":0,"TOWNNAME":"玉井區","LI":"中正里","LIN":"16鄰","STREET":"前園街","SECT":" ","MAREA":" ","LANE":" ","ALLEY":" ","HOUSE_NO":"２５號","E_COORD97":195184.35999999999,"N_COORD97":2558575.2400000002,"ADDRESS":"前園街２５號","OBJECTID":577810},"geometry":{"x":195184.36000000034,"y":2558575.2400000021}},{"attributes":{"ID":577838,"DIS_CODE":0,"TOWNNAME":"玉井區","LI":"玉井里","LIN":"16鄰","STREET":"中華路","SECT":" ","MAREA":" ","LANE":" ","ALLEY":" ","HOUSE_NO":"３２號","E_COORD97":194917.39999999999,"N_COORD97":2558126.25,"ADDRESS":"中華路３２號","OBJECTID":577811},"geometry":{"x":194917.4000000013,"y":2558126.25}},{"attributes":{"ID":577839,"DIS_CODE":0,"TOWNNAME":"玉井區","LI":"玉井里","LIN":"16鄰","STREET":"民主街","SECT":" ","MAREA":" ","LANE":" ","ALLEY":" ","HOUSE_NO":"５９號","E_COORD97":194897.54000000001,"N_COORD97":2558063.2799999998,"ADDRESS":"民主街５９號","OBJECTID":577812},"geometry":{"x":194897.54000000097,"y":2558063.2799999993}},{"attributes":{"ID":577840,"DIS_CODE":0,"TOWNNAME":"玉井區","LI":"中正里","LIN":"16鄰","STREET":"前園街","SECT":" ","MAREA":" ","LANE":" ","ALLEY":" ","HOUSE_NO":"７號","E_COORD97":195155.01000000001,"N_COORD97":2558563.25,"ADDRESS":"前園街７號","OBJECTID":577813},"geometry":{"x":195155.01000000071,"y":2558563.25}},{"attributes":{"ID":577841,"DIS_CODE":0,"TOWNNAME":"玉井區","LI":"中正里","LIN":"16鄰","STREET":"前園街","SECT":" ","MAREA":" ","LANE":" ","ALLEY":" ","HOUSE_NO":"４９號","E_COORD97":195213.06,"N_COORD97":2558624.2400000002,"ADDRESS":"前園街４９號","OBJECTID":577814},"geometry":{"x":195213.05999999959,"y":2558624.2400000002}},{"attributes":{"ID":577842,"DIS_CODE":0,"TOWNNAME":"玉井區","LI":"中正里","LIN":"16鄰","STREET":"前園街","SECT":" ","MAREA":" ","LANE":" ","ALLEY":" ","HOUSE_NO":"４３號","E_COORD97":195206.76000000001,"N_COORD97":2558612.2400000002,"ADDRESS":"前園街４３號","OBJECTID":577815},"geometry":{"x":195206.75999999978,"y":2558612.2400000021}},{"attributes":{"ID":577843,"DIS_CODE":0,"TOWNNAME":"玉井區","LI":"中正里","LIN":"16鄰","STREET":"玉安街","SECT":" ","MAREA":" ","LANE":" ","ALLEY":" ","HOUSE_NO":"２１０號","E_COORD97":195191.26000000001,"N_COORD97":2558665.3199999998,"ADDRESS":"玉安街２１０號","OBJECTID":577816},"geometry":{"x":195191.25999999978,"y":2558665.320000004}},{"attributes":{"ID":577844,"DIS_CODE":0,"TOWNNAME":"玉井區","LI":"玉井里","LIN":"16鄰","STREET":"中華路","SECT":" ","MAREA":" ","LANE":" ","ALLEY":" ","HOUSE_NO":"５４號","E_COORD97":194913.01000000001,"N_COORD97":2558077.2400000002,"ADDRESS":"中華路５４號","OBJECTID":577817},"geometry":{"x":194913.01000000071,"y":2558077.2400000021}},{"attributes":{"ID":577845,"DIS_CODE":0,"TOWNNAME":"玉井區","LI":"中正里","LIN":"16鄰","STREET":"前園街","SECT":" ","MAREA":" ","LANE":" ","ALLEY":" ","HOUSE_NO":"５１號","E_COORD97":195215.64999999999,"N_COORD97":2558629.25,"ADDRESS":"前園街５１號","OBJECTID":577818},"geometry":{"x":195215.6500000013,"y":2558629.2500000019}},{"attributes":{"ID":577846,"DIS_CODE":0,"TOWNNAME":"玉井區","LI":"中正里","LIN":"16鄰","STREET":"前園街","SECT":" ","MAREA":" ","LANE":" ","ALLEY":" ","HOUSE_NO":"３１號","E_COORD97":195190.85999999999,"N_COORD97":2558587.2400000002,"ADDRESS":"前園街３１號","OBJECTID":577819},"geometry":{"x":195190.86000000127,"y":2558587.2400000002}},{"attributes":{"ID":577847,"DIS_CODE":0,"TOWNNAME":"玉井區","LI":"玉井里","LIN":"16鄰","STREET":"中華路","SECT":" ","MAREA":" ","LANE":" ","ALLEY":" ","HOUSE_NO":"５２號","E_COORD97":194922.5,"N_COORD97":2558081.2400000002,"ADDRESS":"中華路５２號","OBJECTID":577820},"geometry":{"x":194922.5,"y":2558081.2400000002}},{"attributes":{"ID":577848,"DIS_CODE":0,"TOWNNAME":"玉井區","LI":"中正里","LIN":"16鄰","STREET":"玉安街","SECT":" ","MAREA":" ","LANE":" ","ALLEY":" ","HOUSE_NO":"２０６號","E_COORD97":195185.67000000001,"N_COORD97":2558659.3199999998,"ADDRESS":"玉安街２０６號","OBJECTID":577821},"geometry":{"x":195185.66999999993,"y":2558659.3200000022}},{"attributes":{"ID":577849,"DIS_CODE":0,"TOWNNAME":"玉井區","LI":"玉田里","LIN":"16鄰","STREET":"中正路","SECT":" ","MAREA":" ","LANE":" ","ALLEY":" ","HOUSE_NO":"２號","E_COORD97":194556.54999999999,"N_COORD97":2557663.2400000002,"ADDRESS":"中正路２號","OBJECTID":577822},"geometry":{"x":194556.55000000075,"y":2557663.2400000021}},{"attributes":{"ID":577850,"DIS_CODE":0,"TOWNNAME":"玉井區","LI":"玉井里","LIN":"16鄰","STREET":"中華路","SECT":" ","MAREA":" ","LANE":" ","ALLEY":" ","HOUSE_NO":"４４號","E_COORD97":194919.10999999999,"N_COORD97":2558094.2400000002,"ADDRESS":"中華路４４號","OBJECTID":577823},"geometry":{"x":194919.11000000127,"y":2558094.2400000021}},{"attributes":{"ID":577851,"DIS_CODE":0,"TOWNNAME":"玉井區","LI":"玉井里","LIN":"16鄰","STREET":"民主街","SECT":" ","MAREA":" ","LANE":" ","ALLEY":" ","HOUSE_NO":"５７號","E_COORD97":194893.54000000001,"N_COORD97":2558062.2799999998,"ADDRESS":"民主街５７號","OBJECTID":577824},"geometry":{"x":194893.53999999911,"y":2558062.2800000012}},{"attributes":{"ID":577852,"DIS_CODE":0,"TOWNNAME":"玉井區","LI":"玉井里","LIN":"16鄰","STREET":"中華路","SECT":" ","MAREA":" ","LANE":" ","ALLEY":" ","HOUSE_NO":"４８號","E_COORD97":194921.89999999999,"N_COORD97":2558087.2400000002,"ADDRESS":"中華路４８號","OBJECTID":577825},"geometry":{"x":194921.90000000037,"y":2558087.2400000021}},{"attributes":{"ID":577853,"DIS_CODE":0,"TOWNNAME":"玉井區","LI":"玉田里","LIN":"16鄰","STREET":"中正路","SECT":" ","MAREA":" ","LANE":" ","ALLEY":" ","HOUSE_NO":"１８號","E_COORD97":194609.39999999999,"N_COORD97":2557757.2400000002,"ADDRESS":"中正路１８號","OBJECTID":577826},"geometry":{"x":194609.40000000037,"y":2557757.2400000039}},{"attributes":{"ID":577854,"DIS_CODE":0,"TOWNNAME":"玉井區","LI":"玉井里","LIN":"16鄰","STREET":"民主街","SECT":" ","MAREA":" ","LANE":" ","ALLEY":" ","HOUSE_NO":"４７號","E_COORD97":194871.34,"N_COORD97":2558054.29,"ADDRESS":"民主街４７號","OBJECTID":577827},"geometry":{"x":194871.34000000078,"y":2558054.2900000028}},{"attributes":{"ID":577855,"DIS_CODE":0,"TOWNNAME":"玉井區","LI":"玉井里","LIN":"16鄰","STREET":"民主街","SECT":" ","MAREA":" ","LANE":" ","ALLEY":" ","HOUSE_NO":"６１號","E_COORD97":194901.92999999999,"N_COORD97":2558065.2799999998,"ADDRESS":"民主街６１號","OBJECTID":577828},"geometry":{"x":194901.9299999997,"y":2558065.2800000012}},{"attributes":{"ID":577856,"DIS_CODE":0,"TOWNNAME":"玉井區","LI":"玉井里","LIN":"16鄰","STREET":"中華路","SECT":" ","MAREA":" ","LANE":" ","ALLEY":" ","HOUSE_NO":"４６號","E_COORD97":194919.01000000001,"N_COORD97":2558090.2400000002,"ADDRESS":"中華路４６號","OBJECTID":577829},"geometry":{"x":194919.01000000164,"y":2558090.2400000021}},{"attributes":{"ID":577857,"DIS_CODE":0,"TOWNNAME":"玉井區","LI":"玉井里","LIN":"16鄰","STREET":"民主街","SECT":" ","MAREA":" ","LANE":" ","ALLEY":" ","HOUSE_NO":"４９號","E_COORD97":194876.04000000001,"N_COORD97":2558053.29,"ADDRESS":"民主街４９號","OBJECTID":577830},"geometry":{"x":194876.04000000004,"y":2558053.2899999991}},{"attributes":{"ID":577858,"DIS_CODE":0,"TOWNNAME":"玉井區","LI":"玉井里","LIN":"16鄰","STREET":"民主街","SECT":" ","MAREA":" ","LANE":" ","ALLEY":" ","HOUSE_NO":"６５號","E_COORD97":194908.82999999999,"N_COORD97":2558066.2799999998,"ADDRESS":"民主街６５號","OBJECTID":577831},"geometry":{"x":194908.83000000101,"y":2558066.2800000012}},{"attributes":{"ID":577859,"DIS_CODE":0,"TOWNNAME":"東區","LI":"崇德里","LIN":"15鄰","STREET":"崇明十三街","SECT":" ","MAREA":" ","LANE":" ","ALLEY":" ","HOUSE_NO":"３７號","E_COORD97":170511.10000000001,"N_COORD97":2541649.6200000001,"ADDRESS":"崇明十三街３７號","OBJECTID":577832},"geometry":{"x":170511.10000000056,"y":2541649.620000001}},{"attributes":{"ID":577860,"DIS_CODE":0,"TOWNNAME":"玉井區","LI":"玉田里","LIN":"16鄰","STREET":"中正路","SECT":" ","MAREA":" ","LANE":" ","ALLEY":" ","HOUSE_NO":"６之１號","E_COORD97":194612.54999999999,"N_COORD97":2557712.2999999998,"ADDRESS":"中正路６之１號","OBJECTID":577833},"geometry":{"x":194612.55000000075,"y":2557712.3000000007}},{"attributes":{"ID":577861,"DIS_CODE":0,"TOWNNAME":"玉井區","LI":"中正里","LIN":"16鄰","STREET":"玉安街","SECT":" ","MAREA":" ","LANE":" ","ALLEY":" ","HOUSE_NO":"１９８號","E_COORD97":195176.67000000001,"N_COORD97":2558650.3199999998,"ADDRESS":"玉安街１９８號","OBJECTID":577834},"geometry":{"x":195176.66999999993,"y":2558650.3200000003}},{"attributes":{"ID":577862,"DIS_CODE":0,"TOWNNAME":"玉井區","LI":"中正里","LIN":"16鄰","STREET":"玉安街","SECT":" ","MAREA":" ","LANE":" ","ALLEY":" ","HOUSE_NO":"１７２號","E_COORD97":195144.66,"N_COORD97":2558608.3100000001,"ADDRESS":"玉安街１７２號","OBJECTID":577835},"geometry":{"x":195144.66000000108,"y":2558608.3100000042}},{"attributes":{"ID":577863,"DIS_CODE":0,"TOWNNAME":"玉井區","LI":"中正里","LIN":"16鄰","STREET":"玉安街","SECT":" ","MAREA":" ","LANE":" ","ALLEY":" ","HOUSE_NO":"１８０號","E_COORD97":195154.57000000001,"N_COORD97":2558622.3100000001,"ADDRESS":"玉安街１８０號","OBJECTID":577836},"geometry":{"x":195154.5700000003,"y":2558622.3100000024}},{"attributes":{"ID":577864,"DIS_CODE":0,"TOWNNAME":"玉井區","LI":"中正里","LIN":"16鄰","STREET":"玉安街","SECT":" ","MAREA":" ","LANE":" ","ALLEY":" ","HOUSE_NO":"１５８號","E_COORD97":195133.45999999999,"N_COORD97":2558584.3100000001,"ADDRESS":"玉安街１５８號","OBJECTID":577837},"geometry":{"x":195133.46000000089,"y":2558584.3100000042}},{"attributes":{"ID":577865,"DIS_CODE":0,"TOWNNAME":"玉井區","LI":"中正里","LIN":"16鄰","STREET":"玉安街","SECT":" ","MAREA":" ","LANE":" ","ALLEY":" ","HOUSE_NO":"１８８號","E_COORD97":195164.57000000001,"N_COORD97":2558636.3199999998,"ADDRESS":"玉安街１８８號","OBJECTID":577838},"geometry":{"x":195164.5700000003,"y":2558636.3200000022}},{"attributes":{"ID":577866,"DIS_CODE":0,"TOWNNAME":"玉井區","LI":"玉井里","LIN":"16鄰","STREET":"中華路","SECT":" ","MAREA":" ","LANE":" ","ALLEY":" ","HOUSE_NO":"３４號","E_COORD97":194916.20999999999,"N_COORD97":2558122.25,"ADDRESS":"中華路３４號","OBJECTID":577839},"geometry":{"x":194916.21000000183,"y":2558122.25}},{"attributes":{"ID":577867,"DIS_CODE":0,"TOWNNAME":"玉井區","LI":"玉井里","LIN":"16鄰","STREET":"民主街","SECT":" ","MAREA":" ","LANE":" ","ALLEY":" ","HOUSE_NO":"５３號","E_COORD97":194885.23999999999,"N_COORD97":2558055.29,"ADDRESS":"民主街５３號","OBJECTID":577840},"geometry":{"x":194885.24000000022,"y":2558055.290000001}},{"attributes":{"ID":577868,"DIS_CODE":0,"TOWNNAME":"玉井區","LI":"中正里","LIN":"16鄰","STREET":"前園街","SECT":" ","MAREA":" ","LANE":" ","ALLEY":" ","HOUSE_NO":"５９號","E_COORD97":195204.26000000001,"N_COORD97":2558652.25,"ADDRESS":"前園街５９號","OBJECTID":577841},"geometry":{"x":195204.26000000071,"y":2558652.2500000037}},{"attributes":{"ID":577869,"DIS_CODE":0,"TOWNNAME":"玉井區","LI":"中正里","LIN":"16鄰","STREET":"前園街","SECT":" ","MAREA":" ","LANE":" ","ALLEY":" ","HOUSE_NO":"４７號","E_COORD97":195210.85999999999,"N_COORD97":2558620.2400000002,"ADDRESS":"前園街４７號","OBJECTID":577842},"geometry":{"x":195210.86000000127,"y":2558620.2400000002}},{"attributes":{"ID":577870,"DIS_CODE":0,"TOWNNAME":"玉井區","LI":"玉井里","LIN":"16鄰","STREET":"中華路","SECT":" ","MAREA":" ","LANE":" ","ALLEY":" ","HOUSE_NO":"５０號","E_COORD97":194922.10000000001,"N_COORD97":2558084.2400000002,"ADDRESS":"中華路５０號","OBJECTID":577843},"geometry":{"x":194922.10000000056,"y":2558084.2400000021}},{"attributes":{"ID":577871,"DIS_CODE":0,"TOWNNAME":"玉井區","LI":"玉井里","LIN":"16鄰","STREET":"民主街","SECT":" ","MAREA":" ","LANE":" ","ALLEY":" ","HOUSE_NO":"５１號","E_COORD97":194882.13,"N_COORD97":2558054.29,"ADDRESS":"民主街５１號","OBJECTID":577844},"geometry":{"x":194882.12999999989,"y":2558054.2900000028}},{"attributes":{"ID":577872,"DIS_CODE":0,"TOWNNAME":"歸仁區","LI":"新厝里","LIN":"16鄰","STREET":"大成二街","SECT":" ","MAREA":" ","LANE":" ","ALLEY":" ","HOUSE_NO":"３６號","E_COORD97":177583.79000000001,"N_COORD97":2540364.3999999999,"ADDRESS":"大成二街３６號","OBJECTID":577845},"geometry":{"x":177583.79000000004,"y":2540364.4000000022}},{"attributes":{"ID":577873,"DIS_CODE":0,"TOWNNAME":"歸仁區","LI":"新厝里","LIN":"16鄰","STREET":"大成路","SECT":" ","MAREA":" ","LANE":" ","ALLEY":" ","HOUSE_NO":"５６號","E_COORD97":177611.17999999999,"N_COORD97":2540401,"ADDRESS":"大成路５６號","OBJECTID":577846},"geometry":{"x":177611.1799999997,"y":2540401.0000000019}},{"attributes":{"ID":577874,"DIS_CODE":0,"TOWNNAME":"南區","LI":"文南里","LIN":"16鄰","STREET":"永南二街","SECT":" ","MAREA":" ","LANE":" ","ALLEY":" ","HOUSE_NO":"１９號","E_COORD97":166769.79000000001,"N_COORD97":2542611.3300000001,"ADDRESS":"永南二街１９號","OBJECTID":577847},"geometry":{"x":166769.79000000004,"y":2542611.3300000001}},{"attributes":{"ID":577875,"DIS_CODE":0,"TOWNNAME":"中西區","LI":"水仙里","LIN":"16鄰","STREET":"民族路","SECT":"三段","MAREA":" ","LANE":" ","ALLEY":" ","HOUSE_NO":"７號","E_COORD97":167918.66,"N_COORD97":2544235.96,"ADDRESS":"民族路三段７號","OBJECTID":577848},"geometry":{"x":167918.66000000015,"y":2544235.9600000028}},{"attributes":{"ID":577876,"DIS_CODE":0,"TOWNNAME":"中西區","LI":"水仙里","LIN":"16鄰","STREET":"民族路","SECT":"三段","MAREA":" ","LANE":" ","ALLEY":" ","HOUSE_NO":"９號","E_COORD97":167914.35000000001,"N_COORD97":2544237.21,"ADDRESS":"民族路三段９號","OBJECTID":577849},"geometry":{"x":167914.35000000056,"y":2544237.209999999}},{"attributes":{"ID":577877,"DIS_CODE":0,"TOWNNAME":"永康區","LI":"\u25A0洲里","LIN":"16鄰","STREET":"\u25A0忠街","SECT":" ","MAREA":" ","LANE":" ","ALLEY":" ","HOUSE_NO":"９８號","E_COORD97":171452.20999999999,"N_COORD97":2549087.1499999999,"ADDRESS":"\u25A0忠街９８號","OBJECTID":577850},"geometry":{"x":171452.20999999996,"y":2549087.1500000022}},{"attributes":{"ID":577878,"DIS_CODE":0,"TOWNNAME":"六甲區","LI":"二甲里","LIN":"16鄰","STREET":"光復街","SECT":" ","MAREA":" ","LANE":" ","ALLEY":" ","HOUSE_NO":"５１號","E_COORD97":183227.19,"N_COORD97":2569807.7000000002,"ADDRESS":"光復街５１號","OBJECTID":577851},"geometry":{"x":183227.19000000134,"y":2569807.6999999993}},{"attributes":{"ID":577879,"DIS_CODE":0,"TOWNNAME":"六甲區","LI":"水林里","LIN":"16鄰","STREET":"信義街","SECT":" ","MAREA":" ","LANE":" ","ALLEY":" ","HOUSE_NO":"３４２號","E_COORD97":183430.56,"N_COORD97":2570120.6899999999,"ADDRESS":"信義街３４２號","OBJECTID":577852},"geometry":{"x":183430.56000000052,"y":2570120.6899999995}},{"attributes":{"ID":577880,"DIS_CODE":0,"TOWNNAME":"安平區","LI":"港仔里","LIN":"16鄰","STREET":"運河路","SECT":" ","MAREA":" ","LANE":" ","ALLEY":" ","HOUSE_NO":"２０號","E_COORD97":164128.12,"N_COORD97":2544415.0099999998,"ADDRESS":"運河路２０號","OBJECTID":577853},"geometry":{"x":164128.12000000011,"y":2544415.0100000016}},{"attributes":{"ID":577881,"DIS_CODE":0,"TOWNNAME":"安平區","LI":"港仔里","LIN":"16鄰","STREET":"運河路","SECT":" ","MAREA":" ","LANE":" ","ALLEY":" ","HOUSE_NO":"２０號之１","E_COORD97":164122.26999999999,"N_COORD97":2544414.6000000001,"ADDRESS":"運河路２０號之１","OBJECTID":577854},"geometry":{"x":164122.27000000142,"y":2544414.6000000015}},{"attributes":{"ID":577882,"DIS_CODE":0,"TOWNNAME":"安平區","LI":"港仔里","LIN":"16鄰","STREET":"運河路","SECT":" ","MAREA":" ","LANE":" ","ALLEY":" ","HOUSE_NO":"２２號","E_COORD97":164103.41,"N_COORD97":2544422.5600000001,"ADDRESS":"運河路２２號","OBJECTID":577855},"geometry":{"x":164103.41000000108,"y":2544422.5600000024}},{"attributes":{"ID":577883,"DIS_CODE":0,"TOWNNAME":"東區","LI":"崇德里","LIN":"12鄰","STREET":"崇德十一街","SECT":" ","MAREA":" ","LANE":" ","ALLEY":" ","HOUSE_NO":"４０號","E_COORD97":170889.70999999999,"N_COORD97":2541445.0499999998,"ADDRESS":"崇德十一街４０號","OBJECTID":577856},"geometry":{"x":170889.70999999996,"y":2541445.0500000026}},{"attributes":{"ID":577884,"DIS_CODE":0,"TOWNNAME":"東區","LI":"崇德里","LIN":"12鄰","STREET":"崇德十一街","SECT":" ","MAREA":" ","LANE":" ","ALLEY":" ","HOUSE_NO":"４２號","E_COORD97":170893.84,"N_COORD97":2541442.4700000002,"ADDRESS":"崇德十一街４２號","OBJECTID":577857},"geometry":{"x":170893.83999999985,"y":2541442.4700000025}},{"attributes":{"ID":577885,"DIS_CODE":0,"TOWNNAME":"東區","LI":"崇德里","LIN":"12鄰","STREET":"崇德十一街","SECT":" ","MAREA":" ","LANE":" ","ALLEY":" ","HOUSE_NO":"５２號","E_COORD97":170923.51000000001,"N_COORD97":2541443.8599999999,"ADDRESS":"崇德十一街５２號","OBJECTID":577858},"geometry":{"x":170923.50999999885,"y":2541443.8599999994}},{"attributes":{"ID":577886,"DIS_CODE":0,"TOWNNAME":"東區","LI":"崇德里","LIN":"12鄰","STREET":"崇德十一街","SECT":" ","MAREA":" ","LANE":" ","ALLEY":" ","HOUSE_NO":"６６號","E_COORD97":170972.82000000001,"N_COORD97":2541460.6499999999,"ADDRESS":"崇德十一街６６號","OBJECTID":577859},"geometry":{"x":170972.81999999937,"y":2541460.6500000041}},{"attributes":{"ID":577887,"DIS_CODE":0,"TOWNNAME":"六甲區","LI":"二甲里","LIN":"16鄰","STREET":"民權街","SECT":" ","MAREA":" ","LANE":" ","ALLEY":" ","HOUSE_NO":"８６號","E_COORD97":183321.28,"N_COORD97":2569682.6600000001,"ADDRESS":"民權街８６號","OBJECTID":577860},"geometry":{"x":183321.28000000119,"y":2569682.660000002}},{"attributes":{"ID":577888,"DIS_CODE":0,"TOWNNAME":"六甲區","LI":"二甲里","LIN":"16鄰","STREET":"民權街","SECT":" ","MAREA":" ","LANE":" ","ALLEY":" ","HOUSE_NO":"１７８號","E_COORD97":183169.10000000001,"N_COORD97":2569725.46,"ADDRESS":"民權街１７８號","OBJECTID":577861},"geometry":{"x":183169.10000000056,"y":2569725.4600000028}},{"attributes":{"ID":577889,"DIS_CODE":0,"TOWNNAME":"六甲區","LI":"二甲里","LIN":"16鄰","STREET":"光明街","SECT":" ","MAREA":" ","LANE":" ","ALLEY":" ","HOUSE_NO":"１２號","E_COORD97":183182.48999999999,"N_COORD97":2569767.2599999998,"ADDRESS":"光明街１２號","OBJECTID":577862},"geometry":{"x":183182.49000000115,"y":2569767.2599999998}},{"attributes":{"ID":577890,"DIS_CODE":0,"TOWNNAME":"六甲區","LI":"二甲里","LIN":"16鄰","STREET":"光明街","SECT":" ","MAREA":" ","LANE":" ","ALLEY":" ","HOUSE_NO":"１８號","E_COORD97":183185.76999999999,"N_COORD97":2569794.3599999999,"ADDRESS":"光明街１８號","OBJECTID":577863},"geometry":{"x":183185.76999999955,"y":2569794.3599999994}},{"attributes":{"ID":577891,"DIS_CODE":0,"TOWNNAME":"六甲區","LI":"二甲里","LIN":"16鄰","STREET":"光明街","SECT":" ","MAREA":" ","LANE":" ","ALLEY":" ","HOUSE_NO":"２４號","E_COORD97":183198.42000000001,"N_COORD97":2569806.4900000002,"ADDRESS":"光明街２４號","OBJECTID":577864},"geometry":{"x":183198.41999999993,"y":2569806.4900000021}},{"attributes":{"ID":577892,"DIS_CODE":0,"TOWNNAME":"六甲區","LI":"二甲里","LIN":"16鄰","STREET":"光明街","SECT":" ","MAREA":" ","LANE":" ","ALLEY":" ","HOUSE_NO":"３２號","E_COORD97":183201.63,"N_COORD97":2569823.25,"ADDRESS":"光明街３２號","OBJECTID":577865},"geometry":{"x":183201.63000000082,"y":2569823.2500000037}},{"attributes":{"ID":577893,"DIS_CODE":0,"TOWNNAME":"六甲區","LI":"二甲里","LIN":"16鄰","STREET":"光明街","SECT":" ","MAREA":" ","LANE":" ","ALLEY":" ","HOUSE_NO":"３６號","E_COORD97":183202.89000000001,"N_COORD97":2569827.3300000001,"ADDRESS":"光明街３６號","OBJECTID":577866},"geometry":{"x":183202.8900000006,"y":2569827.3300000019}},{"attributes":{"ID":577894,"DIS_CODE":0,"TOWNNAME":"六甲區","LI":"二甲里","LIN":"16鄰","STREET":"光明街","SECT":" ","MAREA":" ","LANE":" ","ALLEY":" ","HOUSE_NO":"３８號","E_COORD97":183204.20999999999,"N_COORD97":2569832.3500000001,"ADDRESS":"光明街３８號","OBJECTID":577867},"geometry":{"x":183204.21000000183,"y":2569832.3500000034}},{"attributes":{"ID":577895,"DIS_CODE":0,"TOWNNAME":"六甲區","LI":"二甲里","LIN":"16鄰","STREET":"光復街","SECT":" ","MAREA":" ","LANE":" ","ALLEY":" ","HOUSE_NO":"１７號","E_COORD97":183307.23999999999,"N_COORD97":2569779.2400000002,"ADDRESS":"光復街１７號","OBJECTID":577868},"geometry":{"x":183307.24000000022,"y":2569779.2400000002}},{"attributes":{"ID":577896,"DIS_CODE":0,"TOWNNAME":"六甲區","LI":"二甲里","LIN":"16鄰","STREET":"光復街","SECT":" ","MAREA":" ","LANE":" ","ALLEY":" ","HOUSE_NO":"１號","E_COORD97":183311.12,"N_COORD97":2569774.5899999999,"ADDRESS":"光復街１號","OBJECTID":577869},"geometry":{"x":183311.12000000011,"y":2569774.5900000017}},{"attributes":{"ID":577897,"DIS_CODE":0,"TOWNNAME":"六甲區","LI":"二甲里","LIN":"16鄰","STREET":"光復街","SECT":" ","MAREA":" ","LANE":" ","ALLEY":" ","HOUSE_NO":"２１號","E_COORD97":183298.89999999999,"N_COORD97":2569783.73,"ADDRESS":"光復街２１號","OBJECTID":577870},"geometry":{"x":183298.9000000013,"y":2569783.7300000023}},{"attributes":{"ID":577898,"DIS_CODE":0,"TOWNNAME":"六甲區","LI":"二甲里","LIN":"16鄰","STREET":"光復街","SECT":" ","MAREA":" ","LANE":" ","ALLEY":" ","HOUSE_NO":"２３號","E_COORD97":183294.98999999999,"N_COORD97":2569785.7400000002,"ADDRESS":"光復街２３號","OBJECTID":577871},"geometry":{"x":183294.99000000022,"y":2569785.7400000002}},{"attributes":{"ID":577899,"DIS_CODE":0,"TOWNNAME":"六甲區","LI":"二甲里","LIN":"16鄰","STREET":"光復街","SECT":" ","MAREA":" ","LANE":" ","ALLEY":" ","HOUSE_NO":"２５號","E_COORD97":183291.81,"N_COORD97":2569788.0299999998,"ADDRESS":"光復街２５號","OBJECTID":577872},"geometry":{"x":183291.81000000052,"y":2569788.0300000012}},{"attributes":{"ID":577900,"DIS_CODE":0,"TOWNNAME":"六甲區","LI":"二甲里","LIN":"16鄰","STREET":"光復街","SECT":" ","MAREA":" ","LANE":" ","ALLEY":" ","HOUSE_NO":"２７號","E_COORD97":183287.82000000001,"N_COORD97":2569790.1400000001,"ADDRESS":"光復街２７號","OBJECTID":577873},"geometry":{"x":183287.8200000003,"y":2569790.1400000006}},{"attributes":{"ID":577901,"DIS_CODE":0,"TOWNNAME":"六甲區","LI":"二甲里","LIN":"16鄰","STREET":"光復街","SECT":" ","MAREA":" ","LANE":" ","ALLEY":" ","HOUSE_NO":"３１號","E_COORD97":183280.12,"N_COORD97":2569794.3100000001,"ADDRESS":"光復街３１號","OBJECTID":577874},"geometry":{"x":183280.12000000104,"y":2569794.3100000024}},{"attributes":{"ID":577902,"DIS_CODE":0,"TOWNNAME":"六甲區","LI":"二甲里","LIN":"16鄰","STREET":"光復街","SECT":" ","MAREA":" ","LANE":" ","ALLEY":" ","HOUSE_NO":"３３號","E_COORD97":183276.32000000001,"N_COORD97":2569796.1800000002,"ADDRESS":"光復街３３號","OBJECTID":577875},"geometry":{"x":183276.3200000003,"y":2569796.1799999978}},{"attributes":{"ID":577903,"DIS_CODE":0,"TOWNNAME":"六甲區","LI":"二甲里","LIN":"16鄰","STREET":"光復街","SECT":" ","MAREA":" ","LANE":" ","ALLEY":" ","HOUSE_NO":"３５號","E_COORD97":183272.03,"N_COORD97":2569798.3300000001,"ADDRESS":"光復街３５號","OBJECTID":577876},"geometry":{"x":183272.03000000119,"y":2569798.3300000001}},{"attributes":{"ID":577904,"DIS_CODE":0,"TOWNNAME":"六甲區","LI":"二甲里","LIN":"16鄰","STREET":"光復街","SECT":" ","MAREA":" ","LANE":" ","ALLEY":" ","HOUSE_NO":"４３號","E_COORD97":183257.44,"N_COORD97":2569805.1699999999,"ADDRESS":"光復街４３號","OBJECTID":577877},"geometry":{"x":183257.44000000134,"y":2569805.1699999999}},{"attributes":{"ID":577905,"DIS_CODE":0,"TOWNNAME":"六甲區","LI":"甲南里","LIN":"16鄰","STREET":"忠孝街","SECT":" ","MAREA":" ","LANE":" ","ALLEY":" ","HOUSE_NO":"１２３號","E_COORD97":183986.44,"N_COORD97":2569804.4900000002,"ADDRESS":"忠孝街１２３號","OBJECTID":577878},"geometry":{"x":183986.44000000134,"y":2569804.4900000002}},{"attributes":{"ID":577906,"DIS_CODE":0,"TOWNNAME":"六甲區","LI":"甲南里","LIN":"16鄰","STREET":"忠孝街","SECT":" ","MAREA":" ","LANE":" ","ALLEY":" ","HOUSE_NO":"１２９號","E_COORD97":183987.84,"N_COORD97":2569823.6800000002,"ADDRESS":"忠孝街１２９號","OBJECTID":577879},"geometry":{"x":183987.83999999892,"y":2569823.6800000034}},{"attributes":{"ID":577907,"DIS_CODE":0,"TOWNNAME":"六甲區","LI":"甲東里","LIN":"16鄰","STREET":"忠孝街","SECT":" ","MAREA":" ","LANE":" ","ALLEY":" ","HOUSE_NO":"１３０號","E_COORD97":184015.64000000001,"N_COORD97":2569768.7599999998,"ADDRESS":"忠孝街１３０號","OBJECTID":577880},"geometry":{"x":184015.63999999966,"y":2569768.7600000035}},{"attributes":{"ID":577908,"DIS_CODE":0,"TOWNNAME":"六甲區","LI":"甲南里","LIN":"16鄰","STREET":"忠孝街","SECT":" ","MAREA":" ","LANE":" ","ALLEY":" ","HOUSE_NO":"１３１號","E_COORD97":183987.89000000001,"N_COORD97":2569828.4399999999,"ADDRESS":"忠孝街１３１號","OBJECTID":577881},"geometry":{"x":183987.8900000006,"y":2569828.4400000032}},{"attributes":{"ID":577909,"DIS_CODE":0,"TOWNNAME":"六甲區","LI":"水林里","LIN":"16鄰","STREET":"信義街","SECT":" ","MAREA":" ","LANE":" ","ALLEY":" ","HOUSE_NO":"３４０號","E_COORD97":183427.54000000001,"N_COORD97":2570111.4900000002,"ADDRESS":"信義街３４０號","OBJECTID":577882},"geometry":{"x":183427.54000000097,"y":2570111.4900000021}},{"attributes":{"ID":577910,"DIS_CODE":0,"TOWNNAME":"東區","LI":"崇德里","LIN":"15鄰","STREET":"崇明十三街","SECT":" ","MAREA":" ","LANE":" ","ALLEY":" ","HOUSE_NO":"３１號","E_COORD97":170491.29000000001,"N_COORD97":2541630.8999999999,"ADDRESS":"崇明十三街３１號","OBJECTID":577883},"geometry":{"x":170491.28999999911,"y":2541630.9000000004}},{"attributes":{"ID":577911,"DIS_CODE":0,"TOWNNAME":"東區","LI":"崇德里","LIN":"15鄰","STREET":"崇明十三街","SECT":" ","MAREA":" ","LANE":" ","ALLEY":" ","HOUSE_NO":"３６號","E_COORD97":170523.45000000001,"N_COORD97":2541624.9700000002,"ADDRESS":"崇明十三街３６號","OBJECTID":577884},"geometry":{"x":170523.45000000112,"y":2541624.9700000044}},{"attributes":{"ID":577912,"DIS_CODE":0,"TOWNNAME":"東區","LI":"崇德里","LIN":"15鄰","STREET":"崇明十三街","SECT":" ","MAREA":" ","LANE":" ","ALLEY":" ","HOUSE_NO":"３８號","E_COORD97":170526.35999999999,"N_COORD97":2541627.7200000002,"ADDRESS":"崇明十三街３８號","OBJECTID":577885},"geometry":{"x":170526.36000000034,"y":2541627.7200000025}},{"attributes":{"ID":577913,"DIS_CODE":0,"TOWNNAME":"東區","LI":"崇德里","LIN":"15鄰","STREET":"崇明十三街","SECT":" ","MAREA":" ","LANE":" ","ALLEY":" ","HOUSE_NO":"３９號","E_COORD97":170514.07999999999,"N_COORD97":2541652.1800000002,"ADDRESS":"崇明十三街３９號","OBJECTID":577886},"geometry":{"x":170514.08000000007,"y":2541652.1799999997}},{"attributes":{"ID":577914,"DIS_CODE":0,"TOWNNAME":"東區","LI":"崇德里","LIN":"15鄰","STREET":"崇明十三街","SECT":" ","MAREA":" ","LANE":" ","ALLEY":" ","HOUSE_NO":"４０號","E_COORD97":170529.92000000001,"N_COORD97":2541630.46,"ADDRESS":"崇明十三街４０號","OBJECTID":577887},"geometry":{"x":170529.92000000086,"y":2541630.4600000009}},{"attributes":{"ID":577915,"DIS_CODE":0,"TOWNNAME":"東區","LI":"崇德里","LIN":"15鄰","STREET":"崇明十三街","SECT":" ","MAREA":" ","LANE":" ","ALLEY":" ","HOUSE_NO":"４１號","E_COORD97":170516.20000000001,"N_COORD97":2541655.3700000001,"ADDRESS":"崇明十三街４１號","OBJECTID":577888},"geometry":{"x":170516.20000000112,"y":2541655.370000001}},{"attributes":{"ID":577916,"DIS_CODE":0,"TOWNNAME":"東區","LI":"崇德里","LIN":"15鄰","STREET":"崇明十三街","SECT":" ","MAREA":" ","LANE":" ","ALLEY":" ","HOUSE_NO":"４２號","E_COORD97":170533.14999999999,"N_COORD97":2541632.8900000001,"ADDRESS":"崇明十三街４２號","OBJECTID":577889},"geometry":{"x":170533.15000000037,"y":2541632.8900000025}},{"attributes":{"ID":577917,"DIS_CODE":0,"TOWNNAME":"東區","LI":"崇德里","LIN":"15鄰","STREET":"崇明十三街","SECT":" ","MAREA":" ","LANE":" ","ALLEY":" ","HOUSE_NO":"４３號","E_COORD97":170519.39999999999,"N_COORD97":2541657.9199999999,"ADDRESS":"崇明十三街４３號","OBJECTID":577890},"geometry":{"x":170519.40000000037,"y":2541657.9199999999}},{"attributes":{"ID":577918,"DIS_CODE":0,"TOWNNAME":"東區","LI":"崇德里","LIN":"15鄰","STREET":"崇明十三街","SECT":" ","MAREA":" ","LANE":" ","ALLEY":" ","HOUSE_NO":"４５號","E_COORD97":170522.81,"N_COORD97":2541662.3900000001,"ADDRESS":"崇明十三街４５號","OBJECTID":577891},"geometry":{"x":170522.80999999959,"y":2541662.3899999987}},{"attributes":{"ID":577919,"DIS_CODE":0,"TOWNNAME":"東區","LI":"崇德里","LIN":"15鄰","STREET":"崇明十三街","SECT":" ","MAREA":" ","LANE":" ","ALLEY":" ","HOUSE_NO":"４６號","E_COORD97":170537.51999999999,"N_COORD97":2541640.1600000001,"ADDRESS":"崇明十三街４６號","OBJECTID":577892},"geometry":{"x":170537.52000000048,"y":2541640.160000002}},{"attributes":{"ID":577920,"DIS_CODE":0,"TOWNNAME":"東區","LI":"崇德里","LIN":"15鄰","STREET":"崇明十三街","SECT":" ","MAREA":" ","LANE":" ","ALLEY":" ","HOUSE_NO":"４７號","E_COORD97":170525.79000000001,"N_COORD97":2541664.9399999999,"ADDRESS":"崇明十三街４７號","OBJECTID":577893},"geometry":{"x":170525.79000000097,"y":2541664.9400000013}},{"attributes":{"ID":577921,"DIS_CODE":0,"TOWNNAME":"東區","LI":"崇德里","LIN":"15鄰","STREET":"崇明十三街","SECT":" ","MAREA":" ","LANE":" ","ALLEY":" ","HOUSE_NO":"４號","E_COORD97":170467.73999999999,"N_COORD97":2541563.4100000001,"ADDRESS":"崇明十三街４號","OBJECTID":577894},"geometry":{"x":170467.74000000022,"y":2541563.4099999983}},{"attributes":{"ID":577922,"DIS_CODE":0,"TOWNNAME":"六甲區","LI":"水林里","LIN":"16鄰","STREET":"林森街","SECT":" ","MAREA":" ","LANE":" ","ALLEY":" ","HOUSE_NO":"１８號","E_COORD97":183261.09,"N_COORD97":2570149.2599999998,"ADDRESS":"林森街１８號","OBJECTID":577895},"geometry":{"x":183261.09000000078,"y":2570149.2600000016}},{"attributes":{"ID":577923,"DIS_CODE":0,"TOWNNAME":"六甲區","LI":"水林里","LIN":"16鄰","STREET":"林森街","SECT":" ","MAREA":" ","LANE":" ","ALLEY":" ","HOUSE_NO":"２０號","E_COORD97":183262.48000000001,"N_COORD97":2570163.8799999999,"ADDRESS":"林森街２０號","OBJECTID":577896},"geometry":{"x":183262.48000000138,"y":2570163.8800000027}},{"attributes":{"ID":577924,"DIS_CODE":0,"TOWNNAME":"六甲區","LI":"水林里","LIN":"16鄰","STREET":"林森街","SECT":" ","MAREA":" ","LANE":" ","ALLEY":" ","HOUSE_NO":"３０號","E_COORD97":183267.59,"N_COORD97":2570197.71,"ADDRESS":"林森街３０號","OBJECTID":577897},"geometry":{"x":183267.59000000171,"y":2570197.7100000046}},{"attributes":{"ID":577925,"DIS_CODE":0,"TOWNNAME":"六甲區","LI":"水林里","LIN":"16鄰","STREET":"林森街","SECT":" ","MAREA":" ","LANE":" ","ALLEY":" ","HOUSE_NO":"３２號之１","E_COORD97":183269.19,"N_COORD97":2570207.1099999999,"ADDRESS":"林森街３２號之１","OBJECTID":577898},"geometry":{"x":183269.19000000227,"y":2570207.1100000013}},{"attributes":{"ID":577926,"DIS_CODE":0,"TOWNNAME":"六甲區","LI":"水林里","LIN":"16鄰","STREET":"林森街","SECT":" ","MAREA":" ","LANE":" ","ALLEY":" ","HOUSE_NO":"３２號","E_COORD97":183268.51999999999,"N_COORD97":2570202.4500000002,"ADDRESS":"林森街３２號","OBJECTID":577899},"geometry":{"x":183268.51999999955,"y":2570202.4500000011}},{"attributes":{"ID":577927,"DIS_CODE":0,"TOWNNAME":"六甲區","LI":"水林里","LIN":"16鄰","STREET":"林森街","SECT":" ","MAREA":" ","LANE":" ","ALLEY":" ","HOUSE_NO":"４６號","E_COORD97":183273.70000000001,"N_COORD97":2570218.7799999998,"ADDRESS":"林森街４６號","OBJECTID":577900},"geometry":{"x":183273.70000000019,"y":2570218.7799999993}},{"attributes":{"ID":577928,"DIS_CODE":0,"TOWNNAME":"六甲區","LI":"水林里","LIN":"16鄰","STREET":"林森街","SECT":" ","MAREA":" ","LANE":" ","ALLEY":" ","HOUSE_NO":"５４號","E_COORD97":183291.37,"N_COORD97":2570234.0800000001,"ADDRESS":"林森街５４號","OBJECTID":577901},"geometry":{"x":183291.37000000197,"y":2570234.0800000001}},{"attributes":{"ID":577929,"DIS_CODE":0,"TOWNNAME":"六甲區","LI":"水林里","LIN":"16鄰","STREET":"林森街","SECT":" ","MAREA":" ","LANE":" ","ALLEY":" ","HOUSE_NO":"５６號","E_COORD97":183305.10999999999,"N_COORD97":2570245.3700000001,"ADDRESS":"林森街５６號","OBJECTID":577902},"geometry":{"x":183305.1099999994,"y":2570245.3700000029}},{"attributes":{"ID":577930,"DIS_CODE":0,"TOWNNAME":"六甲區","LI":"水林里","LIN":"16鄰","STREET":"林森街","SECT":" ","MAREA":" ","LANE":" ","ALLEY":" ","HOUSE_NO":"５８號","E_COORD97":183277.82999999999,"N_COORD97":2570262.3700000001,"ADDRESS":"林森街５８號","OBJECTID":577903},"geometry":{"x":183277.83000000007,"y":2570262.3700000029}},{"attributes":{"ID":577931,"DIS_CODE":0,"TOWNNAME":"六甲區","LI":"水林里","LIN":"16鄰","STREET":"林森街","SECT":" ","MAREA":" ","LANE":" ","ALLEY":" ","HOUSE_NO":"６０號","E_COORD97":183278.42000000001,"N_COORD97":2570268.46,"ADDRESS":"林森街６０號","OBJECTID":577904},"geometry":{"x":183278.41999999993,"y":2570268.4600000028}},{"attributes":{"ID":577932,"DIS_CODE":0,"TOWNNAME":"六甲區","LI":"水林里","LIN":"16鄰","STREET":"林森街","SECT":" ","MAREA":" ","LANE":" ","ALLEY":" ","HOUSE_NO":"６２之１號","E_COORD97":183284.10999999999,"N_COORD97":2570296.9100000001,"ADDRESS":"林森街６２之１號","OBJECTID":577905},"geometry":{"x":183284.11000000034,"y":2570296.9099999983}},{"attributes":{"ID":577933,"DIS_CODE":0,"TOWNNAME":"六甲區","LI":"水林里","LIN":"16鄰","STREET":"林森街","SECT":" ","MAREA":" ","LANE":" ","ALLEY":" ","HOUSE_NO":"６２號","E_COORD97":183284.14999999999,"N_COORD97":2570283.8599999999,"ADDRESS":"林森街６２號","OBJECTID":577906},"geometry":{"x":183284.15000000037,"y":2570283.8600000013}},{"attributes":{"ID":577934,"DIS_CODE":0,"TOWNNAME":"六甲區","LI":"水林里","LIN":"16鄰","STREET":"林森街","SECT":" ","MAREA":" ","LANE":" ","ALLEY":" ","HOUSE_NO":"６５號","E_COORD97":183260.13,"N_COORD97":2570270.9199999999,"ADDRESS":"林森街６５號","OBJECTID":577907},"geometry":{"x":183260.12999999989,"y":2570270.9200000018}},{"attributes":{"ID":577935,"DIS_CODE":0,"TOWNNAME":"六甲區","LI":"水林里","LIN":"16鄰","STREET":"林森街","SECT":" ","MAREA":" ","LANE":" ","ALLEY":" ","HOUSE_NO":"６７號","E_COORD97":183263.47,"N_COORD97":2570285.6499999999,"ADDRESS":"林森街６７號","OBJECTID":577908},"geometry":{"x":183263.47000000067,"y":2570285.6500000041}},{"attributes":{"ID":577936,"DIS_CODE":0,"TOWNNAME":"六甲區","LI":"水林里","LIN":"16鄰","STREET":"林森街","SECT":" ","MAREA":" ","LANE":" ","ALLEY":" ","HOUSE_NO":"６８號","E_COORD97":183301.10000000001,"N_COORD97":2570275.9300000002,"ADDRESS":"林森街６８號","OBJECTID":577909},"geometry":{"x":183301.10000000149,"y":2570275.9299999978}},{"attributes":{"ID":577937,"DIS_CODE":0,"TOWNNAME":"六甲區","LI":"水林里","LIN":"16鄰","STREET":"林森街","SECT":" ","MAREA":" ","LANE":" ","ALLEY":" ","HOUSE_NO":"６９號","E_COORD97":183264.12,"N_COORD97":2570288.1699999999,"ADDRESS":"林森街６９號","OBJECTID":577910},"geometry":{"x":183264.11999999918,"y":2570288.1700000037}},{"attributes":{"ID":577938,"DIS_CODE":0,"TOWNNAME":"六甲區","LI":"水林里","LIN":"16鄰","STREET":"林森街","SECT":" ","MAREA":" ","LANE":" ","ALLEY":" ","HOUSE_NO":"７１號","E_COORD97":183264.73000000001,"N_COORD97":2570293.8700000001,"ADDRESS":"林森街７１號","OBJECTID":577911},"geometry":{"x":183264.73000000045,"y":2570293.870000001}},{"attributes":{"ID":577939,"DIS_CODE":0,"TOWNNAME":"六甲區","LI":"水林里","LIN":"16鄰","STREET":"林森街","SECT":" ","MAREA":" ","LANE":" ","ALLEY":" ","HOUSE_NO":"７３號","E_COORD97":183265.01000000001,"N_COORD97":2570298.9199999999,"ADDRESS":"林森街７３號","OBJECTID":577912},"geometry":{"x":183265.01000000071,"y":2570298.9199999999}},{"attributes":{"ID":577940,"DIS_CODE":0,"TOWNNAME":"六甲區","LI":"二甲里","LIN":"16鄰","STREET":"信義街","SECT":" ","MAREA":" ","LANE":" ","ALLEY":" ","HOUSE_NO":"２０７號","E_COORD97":183292.89000000001,"N_COORD97":2569714.1800000002,"ADDRESS":"信義街２０７號","OBJECTID":577913},"geometry":{"x":183292.8900000006,"y":2569714.1799999997}},{"attributes":{"ID":577941,"DIS_CODE":0,"TOWNNAME":"六甲區","LI":"二甲里","LIN":"16鄰","STREET":"信義街","SECT":" ","MAREA":" ","LANE":" ","ALLEY":" ","HOUSE_NO":"２０８號","E_COORD97":183324.89999999999,"N_COORD97":2569717.3900000001,"ADDRESS":"信義街２０８號","OBJECTID":577914},"geometry":{"x":183324.90000000037,"y":2569717.3900000006}},{"attributes":{"ID":577942,"DIS_CODE":0,"TOWNNAME":"六甲區","LI":"二甲里","LIN":"16鄰","STREET":"信義街","SECT":" ","MAREA":" ","LANE":" ","ALLEY":" ","HOUSE_NO":"２１０號","E_COORD97":183325.91,"N_COORD97":2569721.4700000002,"ADDRESS":"信義街２１０號","OBJECTID":577915},"geometry":{"x":183325.91000000015,"y":2569721.4700000025}},{"attributes":{"ID":577943,"DIS_CODE":0,"TOWNNAME":"六甲區","LI":"二甲里","LIN":"16鄰","STREET":"信義街","SECT":" ","MAREA":" ","LANE":" ","ALLEY":" ","HOUSE_NO":"２１２號","E_COORD97":183327.66,"N_COORD97":2569725.4900000002,"ADDRESS":"信義街２１２號","OBJECTID":577916},"geometry":{"x":183327.66000000015,"y":2569725.4900000002}},{"attributes":{"ID":577944,"DIS_CODE":0,"TOWNNAME":"六甲區","LI":"二甲里","LIN":"16鄰","STREET":"信義街","SECT":" ","MAREA":" ","LANE":" ","ALLEY":" ","HOUSE_NO":"２１３號","E_COORD97":183302.76000000001,"N_COORD97":2569739.9199999999,"ADDRESS":"信義街２１３號","OBJECTID":577917},"geometry":{"x":183302.75999999978,"y":2569739.9199999999}},{"attributes":{"ID":577945,"DIS_CODE":0,"TOWNNAME":"六甲區","LI":"二甲里","LIN":"16鄰","STREET":"信義街","SECT":" ","MAREA":" ","LANE":" ","ALLEY":" ","HOUSE_NO":"２１５號","E_COORD97":183304.48000000001,"N_COORD97":2569745.2599999998,"ADDRESS":"信義街２１５號","OBJECTID":577918},"geometry":{"x":183304.48000000231,"y":2569745.2600000035}},{"attributes":{"ID":577946,"DIS_CODE":0,"TOWNNAME":"六甲區","LI":"二甲里","LIN":"16鄰","STREET":"信義街","SECT":" ","MAREA":" ","LANE":" ","ALLEY":" ","HOUSE_NO":"２１７號","E_COORD97":183306.82000000001,"N_COORD97":2569748.8900000001,"ADDRESS":"信義街２１７號","OBJECTID":577919},"geometry":{"x":183306.8200000003,"y":2569748.8900000025}},{"attributes":{"ID":577947,"DIS_CODE":0,"TOWNNAME":"六甲區","LI":"二甲里","LIN":"16鄰","STREET":"信義街","SECT":" ","MAREA":" ","LANE":" ","ALLEY":" ","HOUSE_NO":"２１８號","E_COORD97":183333.87,"N_COORD97":2569741.1499999999,"ADDRESS":"信義街２１８號","OBJECTID":577920},"geometry":{"x":183333.87000000104,"y":2569741.1500000022}},{"attributes":{"ID":577948,"DIS_CODE":0,"TOWNNAME":"六甲區","LI":"二甲里","LIN":"16鄰","STREET":"信義街","SECT":" ","MAREA":" ","LANE":" ","ALLEY":" ","HOUSE_NO":"２１９號","E_COORD97":183307.87,"N_COORD97":2569753.8599999999,"ADDRESS":"信義街２１９號","OBJECTID":577921},"geometry":{"x":183307.87000000011,"y":2569753.8599999994}},{"attributes":{"ID":577949,"DIS_CODE":0,"TOWNNAME":"六甲區","LI":"二甲里","LIN":"16鄰","STREET":"信義街","SECT":" ","MAREA":" ","LANE":" ","ALLEY":" ","HOUSE_NO":"２２１號","E_COORD97":183309.23999999999,"N_COORD97":2569758.8300000001,"ADDRESS":"信義街２２１號","OBJECTID":577922},"geometry":{"x":183309.24000000209,"y":2569758.8300000019}},{"attributes":{"ID":577950,"DIS_CODE":0,"TOWNNAME":"六甲區","LI":"二甲里","LIN":"16鄰","STREET":"信義街","SECT":" ","MAREA":" ","LANE":" ","ALLEY":" ","HOUSE_NO":"２２３號","E_COORD97":183310.17000000001,"N_COORD97":2569762.5499999998,"ADDRESS":"信義街２２３號","OBJECTID":577923},"geometry":{"x":183310.17000000086,"y":2569762.5500000026}},{"attributes":{"ID":577951,"DIS_CODE":0,"TOWNNAME":"六甲區","LI":"二甲里","LIN":"16鄰","STREET":"信義街","SECT":" ","MAREA":" ","LANE":" ","ALLEY":" ","HOUSE_NO":"２２５號","E_COORD97":183311.51000000001,"N_COORD97":2569766.7000000002,"ADDRESS":"信義街２２５號","OBJECTID":577924},"geometry":{"x":183311.50999999978,"y":2569766.7000000011}},{"attributes":{"ID":577952,"DIS_CODE":0,"TOWNNAME":"六甲區","LI":"二甲里","LIN":"16鄰","STREET":"信義街","SECT":" ","MAREA":" ","LANE":" ","ALLEY":" ","HOUSE_NO":"２３６號","E_COORD97":183349.01999999999,"N_COORD97":2569785.8999999999,"ADDRESS":"信義街２３６號","OBJECTID":577925},"geometry":{"x":183349.02000000142,"y":2569785.9000000022}},{"attributes":{"ID":577953,"DIS_CODE":0,"TOWNNAME":"六甲區","LI":"水林里","LIN":"16鄰","STREET":"信義街","SECT":" ","MAREA":" ","LANE":" ","ALLEY":" ","HOUSE_NO":"３４９號","E_COORD97":183399.64999999999,"N_COORD97":2570095.2000000002,"ADDRESS":"信義街３４９號","OBJECTID":577926},"geometry":{"x":183399.65000000037,"y":2570095.2000000011}},{"attributes":{"ID":577954,"DIS_CODE":0,"TOWNNAME":"六甲區","LI":"水林里","LIN":"16鄰","STREET":"信義街","SECT":" ","MAREA":" ","LANE":" ","ALLEY":" ","HOUSE_NO":"３５１號","E_COORD97":183401.75,"N_COORD97":2570104.9100000001,"ADDRESS":"信義街３５１號","OBJECTID":577927},"geometry":{"x":183401.75,"y":2570104.910000002}},{"attributes":{"ID":577955,"DIS_CODE":0,"TOWNNAME":"六甲區","LI":"水林里","LIN":"16鄰","STREET":"信義街","SECT":" ","MAREA":" ","LANE":" ","ALLEY":" ","HOUSE_NO":"３５３號","E_COORD97":183403.29999999999,"N_COORD97":2570110.1000000001,"ADDRESS":"信義街３５３號","OBJECTID":577928},"geometry":{"x":183403.30000000168,"y":2570110.1000000015}},{"attributes":{"ID":577956,"DIS_CODE":0,"TOWNNAME":"六甲區","LI":"水林里","LIN":"16鄰","STREET":"信義街","SECT":" ","MAREA":" ","LANE":" ","ALLEY":" ","HOUSE_NO":"３５５號","E_COORD97":183404.34,"N_COORD97":2570113.8599999999,"ADDRESS":"信義街３５５號","OBJECTID":577929},"geometry":{"x":183404.33999999985,"y":2570113.8600000013}},{"attributes":{"ID":577957,"DIS_CODE":0,"TOWNNAME":"六甲區","LI":"水林里","LIN":"16鄰","STREET":"信義街","SECT":" ","MAREA":" ","LANE":" ","ALLEY":" ","HOUSE_NO":"３５７號","E_COORD97":183405.48999999999,"N_COORD97":2570118.1899999999,"ADDRESS":"信義街３５７號","OBJECTID":577930},"geometry":{"x":183405.49000000022,"y":2570118.1900000032}},{"attributes":{"ID":577958,"DIS_CODE":0,"TOWNNAME":"六甲區","LI":"水林里","LIN":"16鄰","STREET":"信義街","SECT":" ","MAREA":" ","LANE":" ","ALLEY":" ","HOUSE_NO":"３５９號","E_COORD97":183407.07000000001,"N_COORD97":2570122.8300000001,"ADDRESS":"信義街３５９號","OBJECTID":577931},"geometry":{"x":183407.07000000216,"y":2570122.8300000019}},{"attributes":{"ID":577959,"DIS_CODE":0,"TOWNNAME":"六甲區","LI":"水林里","LIN":"16鄰","STREET":"信義街","SECT":" ","MAREA":" ","LANE":" ","ALLEY":" ","HOUSE_NO":"３６１號","E_COORD97":183408.35999999999,"N_COORD97":2570126.8599999999,"ADDRESS":"信義街３６１號","OBJECTID":577932},"geometry":{"x":183408.36000000034,"y":2570126.8599999975}},{"attributes":{"ID":577960,"DIS_CODE":0,"TOWNNAME":"六甲區","LI":"水林里","LIN":"16鄰","STREET":"信義街","SECT":" ","MAREA":" ","LANE":" ","ALLEY":" ","HOUSE_NO":"３６３號","E_COORD97":183409.48999999999,"N_COORD97":2570131.3399999999,"ADDRESS":"信義街３６３號","OBJECTID":577933},"geometry":{"x":183409.49000000115,"y":2570131.3400000036}},{"attributes":{"ID":577961,"DIS_CODE":0,"TOWNNAME":"六甲區","LI":"水林里","LIN":"16鄰","STREET":"信義街","SECT":" ","MAREA":" ","LANE":" ","ALLEY":" ","HOUSE_NO":"３６５號","E_COORD97":183411.14000000001,"N_COORD97":2570137.3999999999,"ADDRESS":"信義街３６５號","OBJECTID":577934},"geometry":{"x":183411.14000000153,"y":2570137.4000000004}},{"attributes":{"ID":577962,"DIS_CODE":0,"TOWNNAME":"六甲區","LI":"水林里","LIN":"16鄰","STREET":"信義街","SECT":" ","MAREA":" ","LANE":" ","ALLEY":" ","HOUSE_NO":"３６９號","E_COORD97":183416.10999999999,"N_COORD97":2570152.98,"ADDRESS":"信義街３６９號","OBJECTID":577935},"geometry":{"x":183416.11000000127,"y":2570152.9800000004}},{"attributes":{"ID":577963,"DIS_CODE":0,"TOWNNAME":"六甲區","LI":"水林里","LIN":"16鄰","STREET":"信義街","SECT":" ","MAREA":" ","LANE":" ","ALLEY":" ","HOUSE_NO":"３７３號","E_COORD97":183418.32999999999,"N_COORD97":2570163.4399999999,"ADDRESS":"信義街３７３號","OBJECTID":577936},"geometry":{"x":183418.33000000007,"y":2570163.4399999995}},{"attributes":{"ID":577964,"DIS_CODE":0,"TOWNNAME":"六甲區","LI":"六甲里","LIN":"16鄰","STREET":"復興街","SECT":" ","MAREA":" ","LANE":" ","ALLEY":" ","HOUSE_NO":"３０號","E_COORD97":183857.89999999999,"N_COORD97":2569939.9199999999,"ADDRESS":"復興街３０號","OBJECTID":577937},"geometry":{"x":183857.9000000013,"y":2569939.9199999999}},{"attributes":{"ID":577965,"DIS_CODE":0,"TOWNNAME":"六甲區","LI":"六甲里","LIN":"16鄰","STREET":"復興街","SECT":" ","MAREA":" ","LANE":" ","ALLEY":" ","HOUSE_NO":"３４號","E_COORD97":183851.92000000001,"N_COORD97":2569942.6099999999,"ADDRESS":"復興街３４號","OBJECTID":577938},"geometry":{"x":183851.92000000179,"y":2569942.6100000013}},{"attributes":{"ID":577966,"DIS_CODE":0,"TOWNNAME":"六甲區","LI":"六甲里","LIN":"16鄰","STREET":"復興街","SECT":" ","MAREA":" ","LANE":" ","ALLEY":" ","HOUSE_NO":"３６號","E_COORD97":183847.53,"N_COORD97":2569943.0800000001,"ADDRESS":"復興街３６號","OBJECTID":577939},"geometry":{"x":183847.53000000026,"y":2569943.0799999982}},{"attributes":{"ID":577967,"DIS_CODE":0,"TOWNNAME":"六甲區","LI":"六甲里","LIN":"16鄰","STREET":"復興街","SECT":" ","MAREA":" ","LANE":" ","ALLEY":" ","HOUSE_NO":"３８號","E_COORD97":183843.20999999999,"N_COORD97":2569942.6699999999,"ADDRESS":"復興街３８號","OBJECTID":577940},"geometry":{"x":183843.21000000183,"y":2569942.6700000037}},{"attributes":{"ID":577968,"DIS_CODE":0,"TOWNNAME":"六甲區","LI":"六甲里","LIN":"16鄰","STREET":"復興街","SECT":" ","MAREA":" ","LANE":" ","ALLEY":" ","HOUSE_NO":"４０號","E_COORD97":183839.57999999999,"N_COORD97":2569942.3500000001,"ADDRESS":"復興街４０號","OBJECTID":577941},"geometry":{"x":183839.58000000101,"y":2569942.3500000015}},{"attributes":{"ID":577969,"DIS_CODE":0,"TOWNNAME":"六甲區","LI":"六甲里","LIN":"16鄰","STREET":"復興街","SECT":" ","MAREA":" ","LANE":" ","ALLEY":" ","HOUSE_NO":"４２號","E_COORD97":183836.39999999999,"N_COORD97":2569942.21,"ADDRESS":"復興街４２號","OBJECTID":577942},"geometry":{"x":183836.40000000037,"y":2569942.2100000009}},{"attributes":{"ID":577970,"DIS_CODE":0,"TOWNNAME":"六甲區","LI":"六甲里","LIN":"16鄰","STREET":"復興街","SECT":" ","MAREA":" ","LANE":" ","ALLEY":" ","HOUSE_NO":"４６號","E_COORD97":183828.13,"N_COORD97":2569936.71,"ADDRESS":"復興街４６號","OBJECTID":577943},"geometry":{"x":183828.12999999989,"y":2569936.7100000028}},{"attributes":{"ID":577971,"DIS_CODE":0,"TOWNNAME":"六甲區","LI":"六甲里","LIN":"16鄰","STREET":"復興街","SECT":" ","MAREA":" ","LANE":" ","ALLEY":" ","HOUSE_NO":"５０號","E_COORD97":183824.85000000001,"N_COORD97":2569937.4300000002,"ADDRESS":"復興街５０號","OBJECTID":577944},"geometry":{"x":183824.8499999987,"y":2569937.4300000016}},{"attributes":{"ID":577972,"DIS_CODE":0,"TOWNNAME":"六甲區","LI":"六甲里","LIN":"16鄰","STREET":"復興街","SECT":" ","MAREA":" ","LANE":" ","ALLEY":" ","HOUSE_NO":"５２號","E_COORD97":183819.95999999999,"N_COORD97":2569938.96,"ADDRESS":"復興街５２號","OBJECTID":577945},"geometry":{"x":183819.96000000089,"y":2569938.9600000028}},{"attributes":{"ID":577973,"DIS_CODE":0,"TOWNNAME":"六甲區","LI":"六甲里","LIN":"16鄰","STREET":"復興街","SECT":" ","MAREA":" ","LANE":" ","ALLEY":" ","HOUSE_NO":"５４號","E_COORD97":183815.59,"N_COORD97":2569939.8799999999,"ADDRESS":"復興街５４號","OBJECTID":577946},"geometry":{"x":183815.59000000078,"y":2569939.8800000027}},{"attributes":{"ID":577974,"DIS_CODE":0,"TOWNNAME":"六甲區","LI":"六甲里","LIN":"16鄰","STREET":"復興街","SECT":" ","MAREA":" ","LANE":" ","ALLEY":" ","HOUSE_NO":"５６號","E_COORD97":183811.64999999999,"N_COORD97":2569941.2200000002,"ADDRESS":"復興街５６號","OBJECTID":577947},"geometry":{"x":183811.65000000037,"y":2569941.2200000007}},{"attributes":{"ID":577975,"DIS_CODE":0,"TOWNNAME":"六甲區","LI":"六甲里","LIN":"16鄰","STREET":"復興街","SECT":" ","MAREA":" ","LANE":" ","ALLEY":" ","HOUSE_NO":"５８號","E_COORD97":183807.20000000001,"N_COORD97":2569942.29,"ADDRESS":"復興街５８號","OBJECTID":577948},"geometry":{"x":183807.20000000019,"y":2569942.290000001}},{"attributes":{"ID":577976,"DIS_CODE":0,"TOWNNAME":"六甲區","LI":"六甲里","LIN":"16鄰","STREET":"復興街","SECT":" ","MAREA":" ","LANE":" ","ALLEY":" ","HOUSE_NO":"６２號","E_COORD97":183801.98999999999,"N_COORD97":2569949.8999999999,"ADDRESS":"復興街６０號","OBJECTID":577949},"geometry":{"x":183801.99000000022,"y":2569949.9000000004}},{"attributes":{"ID":577977,"DIS_CODE":0,"TOWNNAME":"六甲區","LI":"六甲里","LIN":"16鄰","STREET":"復興街","SECT":" ","MAREA":" ","LANE":" ","ALLEY":" ","HOUSE_NO":"６４號","E_COORD97":183794.82999999999,"N_COORD97":2569943.71,"ADDRESS":"復興街６４號","OBJECTID":577950},"geometry":{"x":183794.83000000007,"y":2569943.7100000028}},{"attributes":{"ID":577978,"DIS_CODE":0,"TOWNNAME":"六甲區","LI":"六甲里","LIN":"16鄰","STREET":"復興街","SECT":" ","MAREA":" ","LANE":" ","ALLEY":" ","HOUSE_NO":"６６號","E_COORD97":183790.85000000001,"N_COORD97":2569944.54,"ADDRESS":"復興街６６號","OBJECTID":577951},"geometry":{"x":183790.84999999963,"y":2569944.5399999991}},{"attributes":{"ID":577979,"DIS_CODE":0,"TOWNNAME":"六甲區","LI":"六甲里","LIN":"16鄰","STREET":"復興街","SECT":" ","MAREA":" ","LANE":" ","ALLEY":" ","HOUSE_NO":"６８號","E_COORD97":183786.89000000001,"N_COORD97":2569945.71,"ADDRESS":"復興街６８號","OBJECTID":577952},"geometry":{"x":183786.88999999966,"y":2569945.7100000009}},{"attributes":{"ID":577980,"DIS_CODE":0,"TOWNNAME":"六甲區","LI":"六甲里","LIN":"16鄰","STREET":"復興街","SECT":" ","MAREA":" ","LANE":" ","ALLEY":" ","HOUSE_NO":"７０號","E_COORD97":183782.94,"N_COORD97":2569946.6200000001,"ADDRESS":"復興街７０號","OBJECTID":577953},"geometry":{"x":183782.94000000134,"y":2569946.620000001}},{"attributes":{"ID":577981,"DIS_CODE":0,"TOWNNAME":"六甲區","LI":"六甲里","LIN":"16鄰","STREET":"復興街","SECT":" ","MAREA":" ","LANE":" ","ALLEY":" ","HOUSE_NO":"７２號","E_COORD97":183779.20999999999,"N_COORD97":2569947.77,"ADDRESS":"復興街７２號","OBJECTID":577954},"geometry":{"x":183779.21000000089,"y":2569947.7699999996}},{"attributes":{"ID":577982,"DIS_CODE":0,"TOWNNAME":"六甲區","LI":"六甲里","LIN":"16鄰","STREET":"復興街","SECT":" ","MAREA":" ","LANE":" ","ALLEY":" ","HOUSE_NO":"７４號","E_COORD97":183774.85000000001,"N_COORD97":2569949.0699999998,"ADDRESS":"復興街７４號","OBJECTID":577955},"geometry":{"x":183774.85000000056,"y":2569949.0700000003}},{"attributes":{"ID":577983,"DIS_CODE":0,"TOWNNAME":"六甲區","LI":"六甲里","LIN":"16鄰","STREET":"復興街","SECT":" ","MAREA":" ","LANE":" ","ALLEY":" ","HOUSE_NO":"７６號","E_COORD97":183771.10999999999,"N_COORD97":2569949.9500000002,"ADDRESS":"復興街７６號","OBJECTID":577956},"geometry":{"x":183771.11000000034,"y":2569949.950000003}},{"attributes":{"ID":577984,"DIS_CODE":0,"TOWNNAME":"六甲區","LI":"六甲里","LIN":"16鄰","STREET":"復興街","SECT":" ","MAREA":" ","LANE":" ","ALLEY":" ","HOUSE_NO":"８０號","E_COORD97":183763.53,"N_COORD97":2569953.52,"ADDRESS":"復興街８０號","OBJECTID":577957},"geometry":{"x":183763.53000000119,"y":2569953.5200000033}},{"attributes":{"ID":577985,"DIS_CODE":0,"TOWNNAME":"六甲區","LI":"六甲里","LIN":"16鄰","STREET":"復興街","SECT":" ","MAREA":" ","LANE":" ","ALLEY":" ","HOUSE_NO":"８２號","E_COORD97":183759.66,"N_COORD97":2569954.3199999998,"ADDRESS":"復興街８２號","OBJECTID":577958},"geometry":{"x":183759.66000000108,"y":2569954.3200000003}},{"attributes":{"ID":577986,"DIS_CODE":0,"TOWNNAME":"六甲區","LI":"六甲里","LIN":"16鄰","STREET":"復興街","SECT":" ","MAREA":" ","LANE":" ","ALLEY":" ","HOUSE_NO":"８６號","E_COORD97":183751.47,"N_COORD97":2569956.7200000002,"ADDRESS":"復興街８６號","OBJECTID":577959},"geometry":{"x":183751.4700000016,"y":2569956.7200000044}},{"attributes":{"ID":577987,"DIS_CODE":0,"TOWNNAME":"六甲區","LI":"六甲里","LIN":"16鄰","STREET":"復興街","SECT":" ","MAREA":" ","LANE":" ","ALLEY":" ","HOUSE_NO":"８８號","E_COORD97":183746.95000000001,"N_COORD97":2569958.6800000002,"ADDRESS":"復興街８８號","OBJECTID":577960},"geometry":{"x":183746.95000000205,"y":2569958.6799999997}},{"attributes":{"ID":577988,"DIS_CODE":0,"TOWNNAME":"六甲區","LI":"六甲里","LIN":"16鄰","STREET":"復興街","SECT":" ","MAREA":" ","LANE":" ","ALLEY":" ","HOUSE_NO":"９０號","E_COORD97":183743.22,"N_COORD97":2569959.7200000002,"ADDRESS":"復興街９０號","OBJECTID":577961},"geometry":{"x":183743.22000000067,"y":2569959.7199999988}},{"attributes":{"ID":577989,"DIS_CODE":0,"TOWNNAME":"六甲區","LI":"六甲里","LIN":"16鄰","STREET":"復興街","SECT":" ","MAREA":" ","LANE":" ","ALLEY":" ","HOUSE_NO":"９２號","E_COORD97":183739.17000000001,"N_COORD97":2569960.9399999999,"ADDRESS":"復興街９２號","OBJECTID":577962},"geometry":{"x":183739.16999999993,"y":2569960.9400000013}},{"attributes":{"ID":577990,"DIS_CODE":0,"TOWNNAME":"新營區","LI":"民權里","LIN":"16鄰","STREET":"民權路","SECT":" ","MAREA":" ","LANE":" ","ALLEY":" ","HOUSE_NO":"１８號","E_COORD97":179765.10000000001,"N_COORD97":2578034.5,"ADDRESS":"民權路１８號","OBJECTID":577963},"geometry":{"x":179765.10000000056,"y":2578034.5000000019}},{"attributes":{"ID":577991,"DIS_CODE":0,"TOWNNAME":"新營區","LI":"新北里","LIN":"16鄰","STREET":"南新街","SECT":" ","MAREA":" ","LANE":" ","ALLEY":" ","HOUSE_NO":"１１４號","E_COORD97":179220.06,"N_COORD97":2578877.6600000001,"ADDRESS":"南新街１１４號","OBJECTID":577964},"geometry":{"x":179220.06000000052,"y":2578877.660000002}},{"attributes":{"ID":577992,"DIS_CODE":0,"TOWNNAME":"新營區","LI":"新東里","LIN":"16鄰","STREET":"東泰五街","SECT":" ","MAREA":" ","LANE":" ","ALLEY":" ","HOUSE_NO":"４６號","E_COORD97":181034,"N_COORD97":2579665.3500000001,"ADDRESS":"東泰五街４６號","OBJECTID":577965},"geometry":{"x":181034.00000000186,"y":2579665.3500000015}},{"attributes":{"ID":577993,"DIS_CODE":0,"TOWNNAME":"新營區","LI":"民權里","LIN":"16鄰","STREET":"民權路","SECT":" ","MAREA":" ","LANE":" ","ALLEY":" ","HOUSE_NO":"３０號","E_COORD97":179753.16,"N_COORD97":2578087.71,"ADDRESS":"民權路３０號","OBJECTID":577966},"geometry":{"x":179753.16000000201,"y":2578087.7100000028}},{"attributes":{"ID":577994,"DIS_CODE":0,"TOWNNAME":"新營區","LI":"新東里","LIN":"16鄰","STREET":"東智街","SECT":" ","MAREA":" ","LANE":" ","ALLEY":" ","HOUSE_NO":"３６號","E_COORD97":180995.20000000001,"N_COORD97":2579678.8199999998,"ADDRESS":"東智街３６號","OBJECTID":577967},"geometry":{"x":180995.20000000019,"y":2579678.8199999984}},{"attributes":{"ID":577995,"DIS_CODE":0,"TOWNNAME":"新營區","LI":"新北里","LIN":"16鄰","STREET":"南新街","SECT":" ","MAREA":" ","LANE":" ","ALLEY":" ","HOUSE_NO":"６４號","E_COORD97":179307.85999999999,"N_COORD97":2578888.2999999998,"ADDRESS":"南新街６４號","OBJECTID":577968},"geometry":{"x":179307.8600000022,"y":2578888.3000000007}},{"attributes":{"ID":577996,"DIS_CODE":0,"TOWNNAME":"新營區","LI":"新北里","LIN":"16鄰","STREET":"南新街","SECT":" ","MAREA":" ","LANE":" ","ALLEY":" ","HOUSE_NO":"６８號","E_COORD97":179299.66,"N_COORD97":2578885.02,"ADDRESS":"南新街６８號","OBJECTID":577969},"geometry":{"x":179299.66000000108,"y":2578885.0200000014}},{"attributes":{"ID":577997,"DIS_CODE":0,"TOWNNAME":"新營區","LI":"新北里","LIN":"16鄰","STREET":"南新街","SECT":" ","MAREA":" ","LANE":" ","ALLEY":" ","HOUSE_NO":"６２號","E_COORD97":179311.95999999999,"N_COORD97":2578890.5,"ADDRESS":"南新街６２號","OBJECTID":577970},"geometry":{"x":179311.96000000183,"y":2578890.5}},{"attributes":{"ID":577998,"DIS_CODE":0,"TOWNNAME":"新營區","LI":"新東里","LIN":"16鄰","STREET":"東泰路","SECT":" ","MAREA":" ","LANE":" ","ALLEY":" ","HOUSE_NO":"４１號","E_COORD97":181111.81,"N_COORD97":2579681.6000000001,"ADDRESS":"東泰路４１號","OBJECTID":577971},"geometry":{"x":181111.81000000052,"y":2579681.5999999996}},{"attributes":{"ID":577999,"DIS_CODE":0,"TOWNNAME":"新營區","LI":"新東里","LIN":"16鄰","STREET":"東泰路","SECT":" ","MAREA":" ","LANE":" ","ALLEY":" ","HOUSE_NO":"４３號","E_COORD97":181111.82000000001,"N_COORD97":2579686.0299999998,"ADDRESS":"東泰路４３號","OBJECTID":577972},"geometry":{"x":181111.82000000216,"y":2579686.0299999993}},{"attributes":{"ID":578000,"DIS_CODE":0,"TOWNNAME":"新營區","LI":"三仙里","LIN":"16鄰","STREET":"武昌街","SECT":" ","MAREA":" ","LANE":" ","ALLEY":" ","HOUSE_NO":"７６之２號","E_COORD97":179589.95000000001,"N_COORD97":2578314.4700000002,"ADDRESS":"武昌街７６之２號","OBJECTID":577973},"geometry":{"x":179589.95000000019,"y":2578314.4700000007}},{"attributes":{"ID":578001,"DIS_CODE":0,"TOWNNAME":"新營區","LI":"三仙里","LIN":"16鄰","STREET":"武昌街","SECT":" ","MAREA":" ","LANE":" ","ALLEY":" ","HOUSE_NO":"７８之１號","E_COORD97":179578.67999999999,"N_COORD97":2578310.1000000001,"ADDRESS":"武昌街７８之１號","OBJECTID":577974},"geometry":{"x":179578.68000000063,"y":2578310.1000000034}},{"attributes":{"ID":578002,"DIS_CODE":0,"TOWNNAME":"新營區","LI":"新東里","LIN":"16鄰","STREET":"東智街","SECT":" ","MAREA":" ","LANE":" ","ALLEY":" ","HOUSE_NO":"７２號","E_COORD97":180990.47,"N_COORD97":2579771.8700000001,"ADDRESS":"東智街７２號","OBJECTID":577975},"geometry":{"x":180990.47000000067,"y":2579771.8700000029}},{"attributes":{"ID":578003,"DIS_CODE":0,"TOWNNAME":"新營區","LI":"新東里","LIN":"16鄰","STREET":"東泰九街","SECT":" ","MAREA":" ","LANE":" ","ALLEY":" ","HOUSE_NO":"４６號","E_COORD97":181011.13,"N_COORD97":2579804.9900000002,"ADDRESS":"東泰九街４６號","OBJECTID":577976},"geometry":{"x":181011.13000000082,"y":2579804.9900000002}},{"attributes":{"ID":578004,"DIS_CODE":0,"TOWNNAME":"新營區","LI":"民生里","LIN":"16鄰","STREET":"中華路","SECT":" ","MAREA":" ","LANE":" ","ALLEY":" ","HOUSE_NO":"１３６之１號","E_COORD97":179091.48000000001,"N_COORD97":2578203.8999999999,"ADDRESS":"中華路１３６之１號","OBJECTID":577977},"geometry":{"x":179091.48000000045,"y":2578203.9000000041}},{"attributes":{"ID":578005,"DIS_CODE":0,"TOWNNAME":"新營區","LI":"三仙里","LIN":"16鄰","STREET":"武昌街","SECT":" ","MAREA":" ","LANE":" ","ALLEY":" ","HOUSE_NO":"７４號","E_COORD97":179582.51000000001,"N_COORD97":2578350.9900000002,"ADDRESS":"武昌街７４號","OBJECTID":577978},"geometry":{"x":179582.50999999885,"y":2578350.9900000002}},{"attributes":{"ID":578006,"DIS_CODE":0,"TOWNNAME":"新營區","LI":"新北里","LIN":"16鄰","STREET":"南新街","SECT":" ","MAREA":" ","LANE":" ","ALLEY":" ","HOUSE_NO":"１０８號","E_COORD97":179250.87,"N_COORD97":2578902.98,"ADDRESS":"南新街１０８號","OBJECTID":577979},"geometry":{"x":179250.87000000011,"y":2578902.9800000023}},{"attributes":{"ID":578007,"DIS_CODE":0,"TOWNNAME":"新營區","LI":"民權里","LIN":"16鄰","STREET":"民權路","SECT":" ","MAREA":" ","LANE":" ","ALLEY":" ","HOUSE_NO":"２２號之２","E_COORD97":179760.39999999999,"N_COORD97":2578061.1600000001,"ADDRESS":"民權路２２號之２","OBJECTID":577980},"geometry":{"x":179760.40000000224,"y":2578061.1600000001}},{"attributes":{"ID":578008,"DIS_CODE":0,"TOWNNAME":"新營區","LI":"民權里","LIN":"16鄰","STREET":"中山路","SECT":" ","MAREA":" ","LANE":" ","ALLEY":" ","HOUSE_NO":"２８４號","E_COORD97":179820.32999999999,"N_COORD97":2577970.0099999998,"ADDRESS":"中山路２８４號","OBJECTID":577981},"geometry":{"x":179820.33000000101,"y":2577970.0100000016}},{"attributes":{"ID":578009,"DIS_CODE":0,"TOWNNAME":"新營區","LI":"民權里","LIN":"16鄰","STREET":"中山路","SECT":" ","MAREA":" ","LANE":" ","ALLEY":" ","HOUSE_NO":"２８２號","E_COORD97":179829.53,"N_COORD97":2577971.0699999998,"ADDRESS":"中山路２８２號","OBJECTID":577982},"geometry":{"x":179829.53000000119,"y":2577971.0700000003}},{"attributes":{"ID":578010,"DIS_CODE":0,"TOWNNAME":"新營區","LI":"延平里","LIN":"16鄰","STREET":"長春街","SECT":" ","MAREA":" ","LANE":" ","ALLEY":" ","HOUSE_NO":"８４號","E_COORD97":179644.64000000001,"N_COORD97":2577855.6600000001,"ADDRESS":"長春街８４號","OBJECTID":577983},"geometry":{"x":179644.6400000006,"y":2577855.6599999983}},{"attributes":{"ID":578011,"DIS_CODE":0,"TOWNNAME":"新營區","LI":"民權里","LIN":"16鄰","STREET":"民權路","SECT":" ","MAREA":" ","LANE":" ","ALLEY":" ","HOUSE_NO":"２８號之２","E_COORD97":179756.41,"N_COORD97":2578082.2200000002,"ADDRESS":"民權路２８號之２","OBJECTID":577984},"geometry":{"x":179756.41000000015,"y":2578082.2200000007}},{"attributes":{"ID":578012,"DIS_CODE":0,"TOWNNAME":"新營區","LI":"三仙里","LIN":"16鄰","STREET":"武昌街","SECT":" ","MAREA":" ","LANE":" ","ALLEY":" ","HOUSE_NO":"７６號","E_COORD97":179584.5,"N_COORD97":2578338.7999999998,"ADDRESS":"武昌街７６號","OBJECTID":577985},"geometry":{"x":179584.49999999907,"y":2578338.8000000007}},{"attributes":{"ID":578013,"DIS_CODE":0,"TOWNNAME":"新營區","LI":"三仙里","LIN":"16鄰","STREET":"武昌街","SECT":" ","MAREA":" ","LANE":" ","ALLEY":" ","HOUSE_NO":"７８號","E_COORD97":179581.29999999999,"N_COORD97":2578310.02,"ADDRESS":"武昌街７８號","OBJECTID":577986},"geometry":{"x":179581.30000000075,"y":2578310.0199999996}},{"attributes":{"ID":578014,"DIS_CODE":0,"TOWNNAME":"新營區","LI":"民生里","LIN":"16鄰","STREET":"中華路","SECT":" ","MAREA":" ","LANE":" ","ALLEY":" ","HOUSE_NO":"１３８之６號","E_COORD97":179105.97,"N_COORD97":2578240.3700000001,"ADDRESS":"中華路１３８之６號","OBJECTID":577987},"geometry":{"x":179105.96999999974,"y":2578240.370000001}},{"attributes":{"ID":578015,"DIS_CODE":0,"TOWNNAME":"新營區","LI":"民權里","LIN":"16鄰","STREET":"民權路","SECT":" ","MAREA":" ","LANE":" ","ALLEY":" ","HOUSE_NO":"１２號","E_COORD97":179769.10000000001,"N_COORD97":2578015.6600000001,"ADDRESS":"民權路１２號","OBJECTID":577988},"geometry":{"x":179769.10000000056,"y":2578015.660000002}},{"attributes":{"ID":578016,"DIS_CODE":0,"TOWNNAME":"歸仁區","LI":"七甲里","LIN":"16鄰","STREET":"南潭二街","SECT":" ","MAREA":" ","LANE":" ","ALLEY":" ","HOUSE_NO":"１５２號","E_COORD97":176493.44,"N_COORD97":2543005.0099999998,"ADDRESS":"南潭二街１５２號","OBJECTID":577989},"geometry":{"x":176493.44000000227,"y":2543005.0100000016}},{"attributes":{"ID":578017,"DIS_CODE":0,"TOWNNAME":"歸仁區","LI":"六甲里","LIN":"16鄰","STREET":"中正二十街","SECT":" ","MAREA":" ","LANE":" ","ALLEY":" ","HOUSE_NO":"８５號","E_COORD97":175777.70999999999,"N_COORD97":2539108.25,"ADDRESS":"中正二十街８５號","OBJECTID":577990},"geometry":{"x":175777.71000000089,"y":2539108.25}},{"attributes":{"ID":578018,"DIS_CODE":0,"TOWNNAME":"東區","LI":"崇誨里","LIN":"34鄰","STREET":"東寧路","SECT":" ","MAREA":" ","LANE":" ","ALLEY":" ","HOUSE_NO":"２３２號","E_COORD97":170559.72,"N_COORD97":2543469.7000000002,"ADDRESS":"東寧路２３２號","OBJECTID":577991},"geometry":{"x":170559.72000000067,"y":2543469.700000003}},{"attributes":{"ID":578019,"DIS_CODE":0,"TOWNNAME":"東區","LI":"崇誨里","LIN":"34鄰","STREET":"東寧路","SECT":" ","MAREA":" ","LANE":" ","ALLEY":" ","HOUSE_NO":"２７０號","E_COORD97":170637.66,"N_COORD97":2543443.5600000001,"ADDRESS":"東寧路２７０號","OBJECTID":577992},"geometry":{"x":170637.66000000015,"y":2543443.5600000005}},{"attributes":{"ID":578020,"DIS_CODE":0,"TOWNNAME":"東區","LI":"東明里","LIN":"30鄰","STREET":"東安路","SECT":" ","MAREA":" ","LANE":" ","ALLEY":" ","HOUSE_NO":"９５號","E_COORD97":170684.28,"N_COORD97":2543715.1499999999,"ADDRESS":"東安路９５號","OBJECTID":577993},"geometry":{"x":170684.28000000026,"y":2543715.1500000041}},{"attributes":{"ID":578021,"DIS_CODE":0,"TOWNNAME":"東區","LI":"忠孝里","LIN":"28鄰","STREET":"中華東路","SECT":"三段","MAREA":" ","LANE":" ","ALLEY":" ","HOUSE_NO":"４８０號","E_COORD97":169814.82999999999,"N_COORD97":2541538.9900000002,"ADDRESS":"中華東路三段４８０號","OBJECTID":577994},"geometry":{"x":169814.83000000194,"y":2541538.9900000002}},{"attributes":{"ID":578022,"DIS_CODE":0,"TOWNNAME":"東區","LI":"忠孝里","LIN":"28鄰","STREET":"中華東路","SECT":"三段","MAREA":" ","LANE":" ","ALLEY":" ","HOUSE_NO":"４８４號","E_COORD97":169807.04000000001,"N_COORD97":2541536.8900000001,"ADDRESS":"中華東路三段４８４號","OBJECTID":577995},"geometry":{"x":169807.04000000097,"y":2541536.8899999987}},{"attributes":{"ID":578023,"DIS_CODE":0,"TOWNNAME":"東區","LI":"東光里","LIN":"23鄰","STREET":"怡東路","SECT":" ","MAREA":" ","LANE":" ","ALLEY":" ","HOUSE_NO":"１６９號","E_COORD97":170887.48000000001,"N_COORD97":2543887.5,"ADDRESS":"怡東路１６９號","OBJECTID":577996},"geometry":{"x":170887.48000000138,"y":2543887.5}},{"attributes":{"ID":578024,"DIS_CODE":0,"TOWNNAME":"東區","LI":"東光里","LIN":"23鄰","STREET":"怡東路","SECT":" ","MAREA":" ","LANE":" ","ALLEY":" ","HOUSE_NO":"１７１號","E_COORD97":170889.25,"N_COORD97":2543894.1600000001,"ADDRESS":"怡東路１７１號","OBJECTID":577997},"geometry":{"x":170889.25,"y":2543894.1600000001}},{"attributes":{"ID":578025,"DIS_CODE":0,"TOWNNAME":"東區","LI":"東光里","LIN":"23鄰","STREET":"怡東路","SECT":" ","MAREA":" ","LANE":" ","ALLEY":" ","HOUSE_NO":"１７３號","E_COORD97":170889.35000000001,"N_COORD97":2543902.04,"ADDRESS":"怡東路１７３號","OBJECTID":577998},"geometry":{"x":170889.35000000056,"y":2543902.040000001}},{"attributes":{"ID":578026,"DIS_CODE":0,"TOWNNAME":"東區","LI":"東光里","LIN":"23鄰","STREET":"怡東路","SECT":" ","MAREA":" ","LANE":" ","ALLEY":" ","HOUSE_NO":"１７５號","E_COORD97":170890.92999999999,"N_COORD97":2543906.1400000001,"ADDRESS":"怡東路１７５號","OBJECTID":577999},"geometry":{"x":170890.93000000063,"y":2543906.1400000025}},{"attributes":{"ID":578027,"DIS_CODE":0,"TOWNNAME":"歸仁區","LI":"大廟里","LIN":"16鄰","STREET":"大廟六街","SECT":" ","MAREA":" ","LANE":" ","ALLEY":" ","HOUSE_NO":"８１號","E_COORD97":176151.48000000001,"N_COORD97":2544274.0899999999,"ADDRESS":"大廟六街８１號","OBJECTID":578000},"geometry":{"x":176151.48000000138,"y":2544274.0899999999}}]}