{"displayFieldName":"TOWNNAME","fieldAliases":{"ID":"ID","DIS_CODE":"DIS_CODE","TOWNNAME":"TOWNNAME","LI":"LI","LIN":"LIN","STREET":"STREET","SECT":"SECT","MAREA":"MAREA","LANE":"LANE","ALLEY":"ALLEY","HOUSE_NO":"HOUSE_NO","E_COORD97":"E_COORD97","N_COORD97":"N_COORD97","ADDRESS":"ADDRESS","OBJECTID":"OBJECTID"},"geometryType":"esriGeometryPoint","spatialReference":{"wkid":102443,"latestWkid":3826},"fields":[{"name":"ID","type":"esriFieldTypeDouble","alias":"ID"},{"name":"DIS_CODE","type":"esriFieldTypeInteger","alias":"DIS_CODE"},{"name":"TOWNNAME","type":"esriFieldTypeString","alias":"TOWNNAME","length":8},{"name":"LI","type":"esriFieldTypeString","alias":"LI","length":8},{"name":"LIN","type":"esriFieldTypeString","alias":"LIN","length":12},{"name":"STREET","type":"esriFieldTypeString","alias":"STREET","length":20},{"name":"SECT","type":"esriFieldTypeString","alias":"SECT","length":8},{"name":"MAREA","type":"esriFieldTypeString","alias":"MAREA","length":12},{"name":"LANE","type":"esriFieldTypeString","alias":"LANE","length":10},{"name":"ALLEY","type":"esriFieldTypeString","alias":"ALLEY","length":10},{"name":"HOUSE_NO","type":"esriFieldTypeString","alias":"HOUSE_NO","length":20},{"name":"E_COORD97","type":"esriFieldTypeDouble","alias":"E_COORD97"},{"name":"N_COORD97","type":"esriFieldTypeDouble","alias":"N_COORD97"},{"name":"ADDRESS","type":"esriFieldTypeString","alias":"ADDRESS","length":50},{"name":"OBJECTID","type":"esriFieldTypeOID","alias":"OBJECTID"}],"features":[{"attributes":{"ID":407025,"DIS_CODE":0,"TOWNNAME":"東區","LI":"仁和里","LIN":"10鄰","STREET":"仁和路","SECT":" ","MAREA":" ","LANE":"１３９巷","ALLEY":" ","HOUSE_NO":"１５號之１","E_COORD97":171615.32999999999,"N_COORD97":2541104.98,"ADDRESS":"仁和路１３９巷１５號之１","OBJECTID":407001},"geometry":{"x":171615.33000000101,"y":2541104.9800000004}},{"attributes":{"ID":407026,"DIS_CODE":0,"TOWNNAME":"東區","LI":"虎尾里","LIN":"5鄰","STREET":"富農街","SECT":"一段","MAREA":" ","LANE":"４８巷","ALLEY":" ","HOUSE_NO":"３３號","E_COORD97":171614.76999999999,"N_COORD97":2542161.46,"ADDRESS":"富農街一段４８巷３３號","OBJECTID":407002},"geometry":{"x":171614.76999999955,"y":2542161.4600000028}},{"attributes":{"ID":407027,"DIS_CODE":0,"TOWNNAME":"東區","LI":"崇善里","LIN":"8鄰","STREET":"崇善七街","SECT":" ","MAREA":" ","LANE":"８巷","ALLEY":" ","HOUSE_NO":"１６號","E_COORD97":171077.07999999999,"N_COORD97":2541397.0899999999,"ADDRESS":"崇善七街８巷１６號","OBJECTID":407003},"geometry":{"x":171077.08000000007,"y":2541397.0900000017}},{"attributes":{"ID":407028,"DIS_CODE":0,"TOWNNAME":"東區","LI":"忠孝里","LIN":"6鄰","STREET":"榮譽街","SECT":" ","MAREA":" ","LANE":"８４巷","ALLEY":" ","HOUSE_NO":"７９號","E_COORD97":169771.37,"N_COORD97":2541622.3799999999,"ADDRESS":"榮譽街８４巷７９號","OBJECTID":407004},"geometry":{"x":169771.37000000011,"y":2541622.379999999}},{"attributes":{"ID":407029,"DIS_CODE":0,"TOWNNAME":"東區","LI":"南聖里","LIN":"3鄰","STREET":"富農街","SECT":"二段","MAREA":" ","LANE":"１３２巷","ALLEY":" ","HOUSE_NO":"２號","E_COORD97":171672.45999999999,"N_COORD97":2543140.54,"ADDRESS":"富農街二段１３２巷２號","OBJECTID":407005},"geometry":{"x":171672.46000000089,"y":2543140.5399999991}},{"attributes":{"ID":407030,"DIS_CODE":0,"TOWNNAME":"東區","LI":"裕農里","LIN":"3鄰","STREET":"裕農路","SECT":" ","MAREA":" ","LANE":"２９１巷","ALLEY":" ","HOUSE_NO":"１１號","E_COORD97":170874.26000000001,"N_COORD97":2543041.5699999998,"ADDRESS":"裕農路２９１巷１１號","OBJECTID":407006},"geometry":{"x":170874.25999999978,"y":2543041.5700000022}},{"attributes":{"ID":407031,"DIS_CODE":0,"TOWNNAME":"東區","LI":"忠孝里","LIN":"24鄰","STREET":"崇明四街","SECT":" ","MAREA":" ","LANE":"２０巷","ALLEY":" ","HOUSE_NO":"３號","E_COORD97":169615.29999999999,"N_COORD97":2542276.9900000002,"ADDRESS":"崇明四街２０巷３號","OBJECTID":407007},"geometry":{"x":169615.30000000075,"y":2542276.9900000002}},{"attributes":{"ID":407032,"DIS_CODE":0,"TOWNNAME":"東區","LI":"忠孝里","LIN":"24鄰","STREET":"崇明四街","SECT":" ","MAREA":" ","LANE":"２０巷","ALLEY":" ","HOUSE_NO":"５號","E_COORD97":169617.87,"N_COORD97":2542271.3100000001,"ADDRESS":"崇明四街２０巷５號","OBJECTID":407008},"geometry":{"x":169617.87000000197,"y":2542271.3100000024}},{"attributes":{"ID":407033,"DIS_CODE":0,"TOWNNAME":"東區","LI":"東智里","LIN":"8鄰","STREET":"長東街","SECT":" ","MAREA":" ","LANE":"１０８巷","ALLEY":" ","HOUSE_NO":"５９號","E_COORD97":170873.5,"N_COORD97":2540201.3199999998,"ADDRESS":"長東街１０８巷５９號","OBJECTID":407009},"geometry":{"x":170873.50000000093,"y":2540201.320000004}},{"attributes":{"ID":407034,"DIS_CODE":0,"TOWNNAME":"東區","LI":"富強里","LIN":"9鄰","STREET":"裕農路","SECT":" ","MAREA":" ","LANE":"４４６巷","ALLEY":" ","HOUSE_NO":"８８號","E_COORD97":171223.70999999999,"N_COORD97":2542937.5800000001,"ADDRESS":"裕農路４４６巷８８號","OBJECTID":407010},"geometry":{"x":171223.70999999996,"y":2542937.5800000001}},{"attributes":{"ID":407035,"DIS_CODE":0,"TOWNNAME":"安南區","LI":"海東里","LIN":"22鄰","STREET":"海佃路","SECT":"二段","MAREA":" ","LANE":"５５６巷","ALLEY":" ","HOUSE_NO":"２０號四樓之２","E_COORD97":166760.20999999999,"N_COORD97":2549049.98,"ADDRESS":"海佃路二段５５６巷２０號四樓之２","OBJECTID":407011},"geometry":{"x":166760.20999999996,"y":2549049.9800000023}},{"attributes":{"ID":407036,"DIS_CODE":0,"TOWNNAME":"安南區","LI":"海東里","LIN":"22鄰","STREET":"海佃路","SECT":"二段","MAREA":" ","LANE":"５５６巷","ALLEY":" ","HOUSE_NO":"２０號四樓之３","E_COORD97":166760.20999999999,"N_COORD97":2549049.98,"ADDRESS":"海佃路二段５５６巷２０號四樓之３","OBJECTID":407012},"geometry":{"x":166760.20999999996,"y":2549049.9800000023}},{"attributes":{"ID":407037,"DIS_CODE":0,"TOWNNAME":"安南區","LI":"海東里","LIN":"22鄰","STREET":"海佃路","SECT":"二段","MAREA":" ","LANE":"５５６巷","ALLEY":" ","HOUSE_NO":"２０號五樓之１","E_COORD97":166760.20999999999,"N_COORD97":2549049.98,"ADDRESS":"海佃路二段５５６巷２０號五樓之１","OBJECTID":407013},"geometry":{"x":166760.20999999996,"y":2549049.9800000023}},{"attributes":{"ID":407038,"DIS_CODE":0,"TOWNNAME":"安南區","LI":"海東里","LIN":"22鄰","STREET":"海佃路","SECT":"二段","MAREA":" ","LANE":"５５６巷","ALLEY":" ","HOUSE_NO":"２０號五樓之２","E_COORD97":166760.20999999999,"N_COORD97":2549049.98,"ADDRESS":"海佃路二段５５６巷２０號五樓之２","OBJECTID":407014},"geometry":{"x":166760.20999999996,"y":2549049.9800000023}},{"attributes":{"ID":407039,"DIS_CODE":0,"TOWNNAME":"安南區","LI":"海東里","LIN":"22鄰","STREET":"海佃路","SECT":"二段","MAREA":" ","LANE":"５５６巷","ALLEY":" ","HOUSE_NO":"２０號五樓之３","E_COORD97":166760.20999999999,"N_COORD97":2549049.98,"ADDRESS":"海佃路二段５５６巷２０號五樓之３","OBJECTID":407015},"geometry":{"x":166760.20999999996,"y":2549049.9800000023}},{"attributes":{"ID":407040,"DIS_CODE":0,"TOWNNAME":"安南區","LI":"海東里","LIN":"22鄰","STREET":"海佃路","SECT":"二段","MAREA":" ","LANE":"５５６巷","ALLEY":" ","HOUSE_NO":"２０號二樓之５","E_COORD97":166760.20999999999,"N_COORD97":2549049.98,"ADDRESS":"海佃路二段５５６巷２０號二樓之５","OBJECTID":407016},"geometry":{"x":166760.20999999996,"y":2549049.9800000023}},{"attributes":{"ID":407041,"DIS_CODE":0,"TOWNNAME":"安南區","LI":"海東里","LIN":"22鄰","STREET":"海佃路","SECT":"二段","MAREA":" ","LANE":"５５６巷","ALLEY":" ","HOUSE_NO":"２０號三樓之５","E_COORD97":166760.20999999999,"N_COORD97":2549049.98,"ADDRESS":"海佃路二段５５６巷２０號三樓之５","OBJECTID":407017},"geometry":{"x":166760.20999999996,"y":2549049.9800000023}},{"attributes":{"ID":407042,"DIS_CODE":0,"TOWNNAME":"東區","LI":"崇德里","LIN":"16鄰","STREET":"崇明十三街","SECT":" ","MAREA":" ","LANE":"１０巷","ALLEY":" ","HOUSE_NO":"１５號","E_COORD97":170528.19,"N_COORD97":2541596.6899999999,"ADDRESS":"崇明十三街１０巷１５號","OBJECTID":407018},"geometry":{"x":170528.19000000227,"y":2541596.6899999995}},{"attributes":{"ID":407043,"DIS_CODE":0,"TOWNNAME":"安南區","LI":"海東里","LIN":"22鄰","STREET":"海佃路","SECT":"二段","MAREA":" ","LANE":"５５６巷","ALLEY":" ","HOUSE_NO":"２０號四樓之５","E_COORD97":166760.20999999999,"N_COORD97":2549049.98,"ADDRESS":"海佃路二段５５６巷２０號四樓之５","OBJECTID":407019},"geometry":{"x":166760.20999999996,"y":2549049.9800000023}},{"attributes":{"ID":407044,"DIS_CODE":0,"TOWNNAME":"安南區","LI":"海東里","LIN":"22鄰","STREET":"海佃路","SECT":"二段","MAREA":" ","LANE":"５５６巷","ALLEY":" ","HOUSE_NO":"２０號五樓之５","E_COORD97":166760.20999999999,"N_COORD97":2549049.98,"ADDRESS":"海佃路二段５５６巷２０號五樓之５","OBJECTID":407020},"geometry":{"x":166760.20999999996,"y":2549049.9800000023}},{"attributes":{"ID":407045,"DIS_CODE":0,"TOWNNAME":"永康區","LI":"神洲里","LIN":"22鄰","STREET":"忠孝路","SECT":" ","MAREA":" ","LANE":"７６巷","ALLEY":" ","HOUSE_NO":"４３號二樓","E_COORD97":172253.32000000001,"N_COORD97":2544927.3900000001,"ADDRESS":"忠孝路７６巷４３號二樓","OBJECTID":407021},"geometry":{"x":172253.32000000123,"y":2544927.3900000043}},{"attributes":{"ID":407046,"DIS_CODE":0,"TOWNNAME":"東區","LI":"中西里","LIN":"5鄰","STREET":"勝利路","SECT":" ","MAREA":" ","LANE":"１２巷","ALLEY":" ","HOUSE_NO":"５６號之１","E_COORD97":169969.78,"N_COORD97":2543350.3500000001,"ADDRESS":"勝利路１２巷５６號之１","OBJECTID":407022},"geometry":{"x":169969.78000000119,"y":2543350.3500000034}},{"attributes":{"ID":407047,"DIS_CODE":0,"TOWNNAME":"東區","LI":"中西里","LIN":"5鄰","STREET":"勝利路","SECT":" ","MAREA":" ","LANE":"１２巷","ALLEY":" ","HOUSE_NO":"５８號","E_COORD97":169974.51999999999,"N_COORD97":2543349.6200000001,"ADDRESS":"勝利路１２巷５８號","OBJECTID":407023},"geometry":{"x":169974.52000000048,"y":2543349.6199999992}},{"attributes":{"ID":407048,"DIS_CODE":0,"TOWNNAME":"東區","LI":"大智里","LIN":"34鄰","STREET":"崇善十五街","SECT":" ","MAREA":" ","LANE":"３３巷","ALLEY":" ","HOUSE_NO":"４２號之１","E_COORD97":171300.12,"N_COORD97":2540498.1400000001,"ADDRESS":"崇善十五街３３巷４２號之１","OBJECTID":407024},"geometry":{"x":171300.12000000104,"y":2540498.1400000043}},{"attributes":{"ID":407049,"DIS_CODE":0,"TOWNNAME":"東區","LI":"崇德里","LIN":"16鄰","STREET":"崇明十三街","SECT":" ","MAREA":" ","LANE":"１０巷","ALLEY":" ","HOUSE_NO":"６７號","E_COORD97":170600.54999999999,"N_COORD97":2541687.9300000002,"ADDRESS":"崇明十三街１０巷６７號","OBJECTID":407025},"geometry":{"x":170600.54999999981,"y":2541687.9299999997}},{"attributes":{"ID":407050,"DIS_CODE":0,"TOWNNAME":"永康區","LI":"網寮里","LIN":"22鄰","STREET":"永春街","SECT":" ","MAREA":" ","LANE":"１３巷","ALLEY":" ","HOUSE_NO":"３７號五樓","E_COORD97":173686.28,"N_COORD97":2546195.9399999999,"ADDRESS":"永春街１３巷３７號五樓","OBJECTID":407026},"geometry":{"x":173686.28000000119,"y":2546195.9399999995}},{"attributes":{"ID":407051,"DIS_CODE":0,"TOWNNAME":"永康區","LI":"神洲里","LIN":"22鄰","STREET":"忠孝路","SECT":" ","MAREA":" ","LANE":"７６巷","ALLEY":" ","HOUSE_NO":"４１號四樓","E_COORD97":172243.22,"N_COORD97":2544924.46,"ADDRESS":"忠孝路７６巷４１號四樓","OBJECTID":407027},"geometry":{"x":172243.22000000067,"y":2544924.4600000028}},{"attributes":{"ID":407052,"DIS_CODE":0,"TOWNNAME":"東區","LI":"東光里","LIN":"2鄰","STREET":"東寧路","SECT":" ","MAREA":" ","LANE":"４３５巷","ALLEY":" ","HOUSE_NO":"２６號之１","E_COORD97":171096.42000000001,"N_COORD97":2543438.98,"ADDRESS":"東寧路４３５巷２６號之１","OBJECTID":407028},"geometry":{"x":171096.42000000086,"y":2543438.9800000023}},{"attributes":{"ID":407053,"DIS_CODE":0,"TOWNNAME":"東區","LI":"崇明里","LIN":"22鄰","STREET":"中華東路","SECT":"三段","MAREA":" ","LANE":"３７７巷","ALLEY":" ","HOUSE_NO":"１８號七樓","E_COORD97":170182.54000000001,"N_COORD97":2541511.3799999999,"ADDRESS":"中華東路三段３７７巷１８號七樓","OBJECTID":407029},"geometry":{"x":170182.54000000004,"y":2541511.379999999}},{"attributes":{"ID":407054,"DIS_CODE":0,"TOWNNAME":"東區","LI":"崇明里","LIN":"22鄰","STREET":"中華東路","SECT":"三段","MAREA":" ","LANE":"３７７巷","ALLEY":" ","HOUSE_NO":"１８號七樓之１","E_COORD97":170182.54000000001,"N_COORD97":2541511.3799999999,"ADDRESS":"中華東路三段３７７巷１８號七樓之１","OBJECTID":407030},"geometry":{"x":170182.54000000004,"y":2541511.379999999}},{"attributes":{"ID":407055,"DIS_CODE":0,"TOWNNAME":"東區","LI":"崇明里","LIN":"22鄰","STREET":"中華東路","SECT":"三段","MAREA":" ","LANE":"３７７巷","ALLEY":" ","HOUSE_NO":"１８號九樓","E_COORD97":170182.54000000001,"N_COORD97":2541511.3799999999,"ADDRESS":"中華東路三段３７７巷１８號九樓","OBJECTID":407031},"geometry":{"x":170182.54000000004,"y":2541511.379999999}},{"attributes":{"ID":407056,"DIS_CODE":0,"TOWNNAME":"東區","LI":"崇明里","LIN":"22鄰","STREET":"中華東路","SECT":"三段","MAREA":" ","LANE":"３７７巷","ALLEY":" ","HOUSE_NO":"１８號二樓","E_COORD97":170182.54000000001,"N_COORD97":2541511.3799999999,"ADDRESS":"中華東路三段３７７巷１８號二樓","OBJECTID":407032},"geometry":{"x":170182.54000000004,"y":2541511.379999999}},{"attributes":{"ID":407057,"DIS_CODE":0,"TOWNNAME":"東區","LI":"崇明里","LIN":"22鄰","STREET":"中華東路","SECT":"三段","MAREA":" ","LANE":"３７７巷","ALLEY":" ","HOUSE_NO":"１８號二樓之１","E_COORD97":170182.54000000001,"N_COORD97":2541511.3799999999,"ADDRESS":"中華東路三段３７７巷１８號二樓之１","OBJECTID":407033},"geometry":{"x":170182.54000000004,"y":2541511.379999999}},{"attributes":{"ID":407058,"DIS_CODE":0,"TOWNNAME":"東區","LI":"崇明里","LIN":"22鄰","STREET":"中華東路","SECT":"三段","MAREA":" ","LANE":"３７７巷","ALLEY":" ","HOUSE_NO":"１８號八樓","E_COORD97":170182.54000000001,"N_COORD97":2541511.3799999999,"ADDRESS":"中華東路三段３７７巷１８號八樓","OBJECTID":407034},"geometry":{"x":170182.54000000004,"y":2541511.379999999}},{"attributes":{"ID":407059,"DIS_CODE":0,"TOWNNAME":"東區","LI":"崇明里","LIN":"22鄰","STREET":"中華東路","SECT":"三段","MAREA":" ","LANE":"３７７巷","ALLEY":" ","HOUSE_NO":"１８號八樓之１","E_COORD97":170182.54000000001,"N_COORD97":2541511.3799999999,"ADDRESS":"中華東路三段３７７巷１８號八樓之１","OBJECTID":407035},"geometry":{"x":170182.54000000004,"y":2541511.379999999}},{"attributes":{"ID":407060,"DIS_CODE":0,"TOWNNAME":"東區","LI":"崇明里","LIN":"22鄰","STREET":"中華東路","SECT":"三段","MAREA":" ","LANE":"３７７巷","ALLEY":" ","HOUSE_NO":"１８號三樓","E_COORD97":170182.54000000001,"N_COORD97":2541511.3799999999,"ADDRESS":"中華東路三段３７７巷１８號三樓","OBJECTID":407036},"geometry":{"x":170182.54000000004,"y":2541511.379999999}},{"attributes":{"ID":407061,"DIS_CODE":0,"TOWNNAME":"東區","LI":"崇明里","LIN":"22鄰","STREET":"中華東路","SECT":"三段","MAREA":" ","LANE":"３７７巷","ALLEY":" ","HOUSE_NO":"１８號三樓之１","E_COORD97":170182.54000000001,"N_COORD97":2541511.3799999999,"ADDRESS":"中華東路三段３７７巷１８號三樓之１","OBJECTID":407037},"geometry":{"x":170182.54000000004,"y":2541511.379999999}},{"attributes":{"ID":407062,"DIS_CODE":0,"TOWNNAME":"東區","LI":"崇明里","LIN":"22鄰","STREET":"中華東路","SECT":"三段","MAREA":" ","LANE":"３７７巷","ALLEY":" ","HOUSE_NO":"１８號五樓","E_COORD97":170182.54000000001,"N_COORD97":2541511.3799999999,"ADDRESS":"中華東路三段３７７巷１８號五樓","OBJECTID":407038},"geometry":{"x":170182.54000000004,"y":2541511.379999999}},{"attributes":{"ID":407063,"DIS_CODE":0,"TOWNNAME":"東區","LI":"崇明里","LIN":"22鄰","STREET":"中華東路","SECT":"三段","MAREA":" ","LANE":"３７７巷","ALLEY":" ","HOUSE_NO":"１８號五樓之１","E_COORD97":170182.54000000001,"N_COORD97":2541511.3799999999,"ADDRESS":"中華東路三段３７７巷１８號五樓之１","OBJECTID":407039},"geometry":{"x":170182.54000000004,"y":2541511.379999999}},{"attributes":{"ID":407064,"DIS_CODE":0,"TOWNNAME":"東區","LI":"崇明里","LIN":"22鄰","STREET":"中華東路","SECT":"三段","MAREA":" ","LANE":"３７７巷","ALLEY":" ","HOUSE_NO":"１８號六樓","E_COORD97":170182.54000000001,"N_COORD97":2541511.3799999999,"ADDRESS":"中華東路三段３７７巷１８號六樓","OBJECTID":407040},"geometry":{"x":170182.54000000004,"y":2541511.379999999}},{"attributes":{"ID":407065,"DIS_CODE":0,"TOWNNAME":"東區","LI":"崇明里","LIN":"22鄰","STREET":"中華東路","SECT":"三段","MAREA":" ","LANE":"３７７巷","ALLEY":" ","HOUSE_NO":"１８號六樓之１","E_COORD97":170182.54000000001,"N_COORD97":2541511.3799999999,"ADDRESS":"中華東路三段３７７巷１８號六樓之１","OBJECTID":407041},"geometry":{"x":170182.54000000004,"y":2541511.379999999}},{"attributes":{"ID":407066,"DIS_CODE":0,"TOWNNAME":"東區","LI":"崇明里","LIN":"22鄰","STREET":"中華東路","SECT":"三段","MAREA":" ","LANE":"３７７巷","ALLEY":" ","HOUSE_NO":"１８號四樓","E_COORD97":170182.54000000001,"N_COORD97":2541511.3799999999,"ADDRESS":"中華東路三段３７７巷１８號四樓","OBJECTID":407042},"geometry":{"x":170182.54000000004,"y":2541511.379999999}},{"attributes":{"ID":407067,"DIS_CODE":0,"TOWNNAME":"東區","LI":"崇明里","LIN":"22鄰","STREET":"中華東路","SECT":"三段","MAREA":" ","LANE":"３７７巷","ALLEY":" ","HOUSE_NO":"１８號四樓之１","E_COORD97":170182.54000000001,"N_COORD97":2541511.3799999999,"ADDRESS":"中華東路三段３７７巷１８號四樓之１","OBJECTID":407043},"geometry":{"x":170182.54000000004,"y":2541511.379999999}},{"attributes":{"ID":407068,"DIS_CODE":0,"TOWNNAME":"永康區","LI":"神洲里","LIN":"22鄰","STREET":"忠孝路","SECT":" ","MAREA":" ","LANE":"７６巷","ALLEY":" ","HOUSE_NO":"３７號二樓","E_COORD97":172218.76999999999,"N_COORD97":2544927.0800000001,"ADDRESS":"忠孝路７６巷３７號二樓","OBJECTID":407044},"geometry":{"x":172218.77000000048,"y":2544927.0800000019}},{"attributes":{"ID":407069,"DIS_CODE":0,"TOWNNAME":"東區","LI":"富強里","LIN":"23鄰","STREET":"中華東路","SECT":"二段","MAREA":" ","LANE":"４８巷","ALLEY":" ","HOUSE_NO":"２７號","E_COORD97":171273.31,"N_COORD97":2542991.8700000001,"ADDRESS":"中華東路二段４８巷２７號","OBJECTID":407045},"geometry":{"x":171273.30999999959,"y":2542991.870000001}},{"attributes":{"ID":407070,"DIS_CODE":0,"TOWNNAME":"東區","LI":"東安里","LIN":"12鄰","STREET":"長榮路","SECT":"二段","MAREA":" ","LANE":"３２巷","ALLEY":" ","HOUSE_NO":"１０４號","E_COORD97":170184.06,"N_COORD97":2543171,"ADDRESS":"長榮路二段３２巷１０４號","OBJECTID":407046},"geometry":{"x":170184.06000000145,"y":2543171.0000000019}},{"attributes":{"ID":407071,"DIS_CODE":0,"TOWNNAME":"東山區","LI":"東中里","LIN":"22鄰","STREET":"中興路","SECT":" ","MAREA":" ","LANE":"６８巷","ALLEY":" ","HOUSE_NO":"３號","E_COORD97":189025.70999999999,"N_COORD97":2580179.8399999999,"ADDRESS":"中興路６８巷３號","OBJECTID":407047},"geometry":{"x":189025.71000000089,"y":2580179.8399999999}},{"attributes":{"ID":407072,"DIS_CODE":0,"TOWNNAME":"東區","LI":"虎尾里","LIN":"5鄰","STREET":"富農街","SECT":"一段","MAREA":" ","LANE":"４８巷","ALLEY":" ","HOUSE_NO":"６之１號","E_COORD97":171580.69,"N_COORD97":2542126.6000000001,"ADDRESS":"富農街一段４８巷６之１號","OBJECTID":407048},"geometry":{"x":171580.68999999948,"y":2542126.5999999996}},{"attributes":{"ID":407073,"DIS_CODE":0,"TOWNNAME":"東區","LI":"虎尾里","LIN":"5鄰","STREET":"富農街","SECT":"一段","MAREA":" ","LANE":"４８巷","ALLEY":" ","HOUSE_NO":"６之２號","E_COORD97":171587.70000000001,"N_COORD97":2542129.6800000002,"ADDRESS":"富農街一段４８巷６之２號","OBJECTID":407049},"geometry":{"x":171587.70000000112,"y":2542129.6799999997}},{"attributes":{"ID":407074,"DIS_CODE":0,"TOWNNAME":"東區","LI":"崇德里","LIN":"18鄰","STREET":"崇明十三街","SECT":" ","MAREA":" ","LANE":"１１巷","ALLEY":" ","HOUSE_NO":"２之１號","E_COORD97":170472.13,"N_COORD97":2541612.8199999998,"ADDRESS":"崇明十三街１１巷２之１號","OBJECTID":407050},"geometry":{"x":170472.13000000082,"y":2541612.8200000022}},{"attributes":{"ID":407075,"DIS_CODE":0,"TOWNNAME":"東區","LI":"莊敬里","LIN":"7鄰","STREET":"東光路","SECT":"二段","MAREA":" ","LANE":"１２１巷","ALLEY":" ","HOUSE_NO":"５１號","E_COORD97":171093.17000000001,"N_COORD97":2544192.7000000002,"ADDRESS":"東光路二段１２１巷５１號","OBJECTID":407051},"geometry":{"x":171093.16999999993,"y":2544192.7000000011}},{"attributes":{"ID":407076,"DIS_CODE":0,"TOWNNAME":"東區","LI":"龍山里","LIN":"1鄰","STREET":"東門路","SECT":"二段","MAREA":" ","LANE":"３１２巷","ALLEY":" ","HOUSE_NO":"５號","E_COORD97":170627.95999999999,"N_COORD97":2542641,"ADDRESS":"東門路二段３１２巷５號","OBJECTID":407052},"geometry":{"x":170627.96000000089,"y":2542641.0000000037}},{"attributes":{"ID":407077,"DIS_CODE":0,"TOWNNAME":"東區","LI":"大智里","LIN":"11鄰","STREET":"長東街","SECT":" ","MAREA":" ","LANE":"１３１巷","ALLEY":" ","HOUSE_NO":"４２之１號","E_COORD97":171133.73000000001,"N_COORD97":2540203.3399999999,"ADDRESS":"長東街１３１巷４２之１號","OBJECTID":407053},"geometry":{"x":171133.73000000138,"y":2540203.3399999999}},{"attributes":{"ID":407078,"DIS_CODE":0,"TOWNNAME":"永康區","LI":"網寮里","LIN":"22鄰","STREET":"永春街","SECT":" ","MAREA":" ","LANE":"１３巷","ALLEY":" ","HOUSE_NO":"３７號四樓","E_COORD97":173686.28,"N_COORD97":2546195.9399999999,"ADDRESS":"永春街１３巷３７號四樓","OBJECTID":407054},"geometry":{"x":173686.28000000119,"y":2546195.9399999995}},{"attributes":{"ID":407079,"DIS_CODE":0,"TOWNNAME":"中西區","LI":"西賢里","LIN":"20鄰","STREET":"西賢一街","SECT":" ","MAREA":" ","LANE":"１８７巷","ALLEY":" ","HOUSE_NO":"２０號","E_COORD97":165650.85999999999,"N_COORD97":2544960.3199999998,"ADDRESS":"西賢一街１８７巷２０號","OBJECTID":407055},"geometry":{"x":165650.86000000034,"y":2544960.3200000003}},{"attributes":{"ID":407080,"DIS_CODE":0,"TOWNNAME":"東區","LI":"關聖里","LIN":"10鄰","STREET":"裕農路","SECT":" ","MAREA":" ","LANE":"７２６巷","ALLEY":" ","HOUSE_NO":"１７號","E_COORD97":171890.44,"N_COORD97":2543086.2400000002,"ADDRESS":"裕農路７２６巷１７號","OBJECTID":407056},"geometry":{"x":171890.44000000041,"y":2543086.2400000002}},{"attributes":{"ID":407081,"DIS_CODE":0,"TOWNNAME":"東區","LI":"關聖里","LIN":"10鄰","STREET":"裕農路","SECT":" ","MAREA":" ","LANE":"７２６巷","ALLEY":" ","HOUSE_NO":"１９號","E_COORD97":171890.04000000001,"N_COORD97":2543077.1699999999,"ADDRESS":"裕農路７２６巷１９號","OBJECTID":407057},"geometry":{"x":171890.0400000019,"y":2543077.1700000037}},{"attributes":{"ID":407082,"DIS_CODE":0,"TOWNNAME":"中西區","LI":"西賢里","LIN":"22鄰","STREET":"西賢一街","SECT":" ","MAREA":" ","LANE":"１８７巷","ALLEY":" ","HOUSE_NO":"２００號","E_COORD97":165549.75,"N_COORD97":2544985.1299999999,"ADDRESS":"西賢一街１８７巷２００號","OBJECTID":407058},"geometry":{"x":165549.75,"y":2544985.1300000027}},{"attributes":{"ID":407083,"DIS_CODE":0,"TOWNNAME":"中西區","LI":"水仙里","LIN":"18鄰","STREET":"海安路","SECT":"二段","MAREA":" ","LANE":"２７０巷","ALLEY":" ","HOUSE_NO":"１７號","E_COORD97":167798.95999999999,"N_COORD97":2544266.7200000002,"ADDRESS":"海安路二段２７０巷１７號","OBJECTID":407059},"geometry":{"x":167798.96000000089,"y":2544266.7200000007}},{"attributes":{"ID":407084,"DIS_CODE":0,"TOWNNAME":"中西區","LI":"水仙里","LIN":"13鄰","STREET":"西門路","SECT":"二段","MAREA":" ","LANE":"３０７巷","ALLEY":" ","HOUSE_NO":"１３號","E_COORD97":167924.14000000001,"N_COORD97":2544148.5600000001,"ADDRESS":"西門路二段３０７巷１３號","OBJECTID":407060},"geometry":{"x":167924.1400000006,"y":2544148.5600000005}},{"attributes":{"ID":407085,"DIS_CODE":0,"TOWNNAME":"中西區","LI":"水仙里","LIN":"13鄰","STREET":"西門路","SECT":"二段","MAREA":" ","LANE":"３０７巷","ALLEY":" ","HOUSE_NO":"１５號","E_COORD97":167925.95000000001,"N_COORD97":2544166.3700000001,"ADDRESS":"西門路二段３０７巷１５號","OBJECTID":407061},"geometry":{"x":167925.95000000112,"y":2544166.3700000029}},{"attributes":{"ID":407086,"DIS_CODE":0,"TOWNNAME":"中西區","LI":"水仙里","LIN":"13鄰","STREET":"西門路","SECT":"二段","MAREA":" ","LANE":"３０７巷","ALLEY":" ","HOUSE_NO":"１７號","E_COORD97":167917.60000000001,"N_COORD97":2544150.79,"ADDRESS":"西門路二段３０７巷１７號","OBJECTID":407062},"geometry":{"x":167917.60000000056,"y":2544150.790000001}},{"attributes":{"ID":407087,"DIS_CODE":0,"TOWNNAME":"中西區","LI":"水仙里","LIN":"13鄰","STREET":"西門路","SECT":"二段","MAREA":" ","LANE":"３０７巷","ALLEY":" ","HOUSE_NO":"１９號","E_COORD97":167918.01999999999,"N_COORD97":2544167.6200000001,"ADDRESS":"西門路二段３０７巷１９號","OBJECTID":407063},"geometry":{"x":167918.02000000048,"y":2544167.6200000029}},{"attributes":{"ID":407088,"DIS_CODE":0,"TOWNNAME":"中西區","LI":"水仙里","LIN":"13鄰","STREET":"西門路","SECT":"二段","MAREA":" ","LANE":"３０７巷","ALLEY":" ","HOUSE_NO":"１號","E_COORD97":167946.54999999999,"N_COORD97":2544156.9100000001,"ADDRESS":"西門路二段３０７巷１號","OBJECTID":407064},"geometry":{"x":167946.54999999888,"y":2544156.9100000001}},{"attributes":{"ID":407089,"DIS_CODE":0,"TOWNNAME":"中西區","LI":"水仙里","LIN":"13鄰","STREET":"西門路","SECT":"二段","MAREA":" ","LANE":"３０７巷","ALLEY":" ","HOUSE_NO":"２３號","E_COORD97":167903.54000000001,"N_COORD97":2544175.8300000001,"ADDRESS":"西門路二段３０７巷２３號","OBJECTID":407065},"geometry":{"x":167903.54000000097,"y":2544175.8300000019}},{"attributes":{"ID":407090,"DIS_CODE":0,"TOWNNAME":"中西區","LI":"水仙里","LIN":"13鄰","STREET":"西門路","SECT":"二段","MAREA":" ","LANE":"３０７巷","ALLEY":" ","HOUSE_NO":"２７號","E_COORD97":167898.81,"N_COORD97":2544178.6099999999,"ADDRESS":"西門路二段３０７巷２７號","OBJECTID":407066},"geometry":{"x":167898.81000000145,"y":2544178.6099999975}},{"attributes":{"ID":407091,"DIS_CODE":0,"TOWNNAME":"中西區","LI":"水仙里","LIN":"13鄰","STREET":"西門路","SECT":"二段","MAREA":" ","LANE":"３０７巷","ALLEY":" ","HOUSE_NO":"２９號","E_COORD97":167897.14000000001,"N_COORD97":2544185.0099999998,"ADDRESS":"西門路二段３０７巷２９號","OBJECTID":407067},"geometry":{"x":167897.1400000006,"y":2544185.0099999998}},{"attributes":{"ID":407092,"DIS_CODE":0,"TOWNNAME":"中西區","LI":"水仙里","LIN":"13鄰","STREET":"西門路","SECT":"二段","MAREA":" ","LANE":"３０７巷","ALLEY":" ","HOUSE_NO":"３３號","E_COORD97":167888.09,"N_COORD97":2544187.79,"ADDRESS":"西門路二段３０７巷３３號","OBJECTID":407068},"geometry":{"x":167888.08999999985,"y":2544187.790000001}},{"attributes":{"ID":407093,"DIS_CODE":0,"TOWNNAME":"北區","LI":"正覺里","LIN":"22鄰","STREET":"正覺街","SECT":" ","MAREA":" ","LANE":"１０２巷","ALLEY":" ","HOUSE_NO":"１０號二樓","E_COORD97":169402.91,"N_COORD97":2546476.8300000001,"ADDRESS":"正覺街１０２巷１０號二樓","OBJECTID":407069},"geometry":{"x":169402.91000000108,"y":2546476.8300000038}},{"attributes":{"ID":407094,"DIS_CODE":0,"TOWNNAME":"北區","LI":"正覺里","LIN":"22鄰","STREET":"正覺街","SECT":" ","MAREA":" ","LANE":"１０２巷","ALLEY":" ","HOUSE_NO":"１０號三樓","E_COORD97":169402.91,"N_COORD97":2546476.8300000001,"ADDRESS":"正覺街１０２巷１０號三樓","OBJECTID":407070},"geometry":{"x":169402.91000000108,"y":2546476.8300000038}},{"attributes":{"ID":407095,"DIS_CODE":0,"TOWNNAME":"北區","LI":"正覺里","LIN":"22鄰","STREET":"正覺街","SECT":" ","MAREA":" ","LANE":"１０２巷","ALLEY":" ","HOUSE_NO":"１０號四樓","E_COORD97":169402.91,"N_COORD97":2546476.8300000001,"ADDRESS":"正覺街１０２巷１０號四樓","OBJECTID":407071},"geometry":{"x":169402.91000000108,"y":2546476.8300000038}},{"attributes":{"ID":407096,"DIS_CODE":0,"TOWNNAME":"鹽水區","LI":"橋南里","LIN":"22鄰","STREET":"四維路","SECT":" ","MAREA":" ","LANE":"７４巷","ALLEY":" ","HOUSE_NO":"１１號一樓","E_COORD97":175944.04999999999,"N_COORD97":2578586.2200000002,"ADDRESS":"四維路７４巷１１號一樓","OBJECTID":407072},"geometry":{"x":175944.04999999981,"y":2578586.2200000025}},{"attributes":{"ID":407097,"DIS_CODE":0,"TOWNNAME":"中西區","LI":"水仙里","LIN":"18鄰","STREET":"海安路","SECT":"二段","MAREA":" ","LANE":"２７０巷","ALLEY":" ","HOUSE_NO":"１９號","E_COORD97":167803.26999999999,"N_COORD97":2544265.7400000002,"ADDRESS":"海安路二段２７０巷１９號","OBJECTID":407073},"geometry":{"x":167803.27000000048,"y":2544265.7400000002}},{"attributes":{"ID":407098,"DIS_CODE":0,"TOWNNAME":"中西區","LI":"水仙里","LIN":"18鄰","STREET":"海安路","SECT":"二段","MAREA":" ","LANE":"２７０巷","ALLEY":" ","HOUSE_NO":"２１號","E_COORD97":167807.59,"N_COORD97":2544268.6600000001,"ADDRESS":"海安路二段２７０巷２１號","OBJECTID":407074},"geometry":{"x":167807.59000000078,"y":2544268.660000002}},{"attributes":{"ID":407099,"DIS_CODE":0,"TOWNNAME":"中西區","LI":"水仙里","LIN":"18鄰","STREET":"海安路","SECT":"二段","MAREA":" ","LANE":"２７０巷","ALLEY":" ","HOUSE_NO":"１８號","E_COORD97":167785.73000000001,"N_COORD97":2544258.9300000002,"ADDRESS":"海安路二段２７０巷１８號","OBJECTID":407075},"geometry":{"x":167785.73000000138,"y":2544258.9300000016}},{"attributes":{"ID":407100,"DIS_CODE":0,"TOWNNAME":"中西區","LI":"水仙里","LIN":"18鄰","STREET":"海安路","SECT":"二段","MAREA":" ","LANE":"２７０巷","ALLEY":" ","HOUSE_NO":"２２號","E_COORD97":167795.20000000001,"N_COORD97":2544261.5699999998,"ADDRESS":"海安路二段２７０巷２２號","OBJECTID":407076},"geometry":{"x":167795.20000000205,"y":2544261.570000004}},{"attributes":{"ID":407101,"DIS_CODE":0,"TOWNNAME":"鹽水區","LI":"橋南里","LIN":"22鄰","STREET":"四維路","SECT":" ","MAREA":" ","LANE":"７４巷","ALLEY":" ","HOUSE_NO":"１１號二樓","E_COORD97":175944.04999999999,"N_COORD97":2578586.2200000002,"ADDRESS":"四維路７４巷１１號二樓","OBJECTID":407077},"geometry":{"x":175944.04999999981,"y":2578586.2200000025}},{"attributes":{"ID":407102,"DIS_CODE":0,"TOWNNAME":"鹽水區","LI":"橋南里","LIN":"22鄰","STREET":"四維路","SECT":" ","MAREA":" ","LANE":"７４巷","ALLEY":" ","HOUSE_NO":"１１號三樓","E_COORD97":175944.04999999999,"N_COORD97":2578586.2200000002,"ADDRESS":"四維路７４巷１１號三樓","OBJECTID":407078},"geometry":{"x":175944.04999999981,"y":2578586.2200000025}},{"attributes":{"ID":407103,"DIS_CODE":0,"TOWNNAME":"鹽水區","LI":"橋南里","LIN":"22鄰","STREET":"四維路","SECT":" ","MAREA":" ","LANE":"７４巷","ALLEY":" ","HOUSE_NO":"１１號五樓","E_COORD97":175944.04999999999,"N_COORD97":2578586.2200000002,"ADDRESS":"四維路７４巷１１號五樓","OBJECTID":407079},"geometry":{"x":175944.04999999981,"y":2578586.2200000025}},{"attributes":{"ID":407104,"DIS_CODE":0,"TOWNNAME":"中西區","LI":"水仙里","LIN":"13鄰","STREET":"西門路","SECT":"二段","MAREA":" ","LANE":"３０７巷","ALLEY":" ","HOUSE_NO":"３５號","E_COORD97":167883.22,"N_COORD97":2544189.8799999999,"ADDRESS":"西門路二段３０７巷３５號","OBJECTID":407080},"geometry":{"x":167883.22000000067,"y":2544189.8799999971}},{"attributes":{"ID":407105,"DIS_CODE":0,"TOWNNAME":"中西區","LI":"水仙里","LIN":"13鄰","STREET":"西門路","SECT":"二段","MAREA":" ","LANE":"３０７巷","ALLEY":" ","HOUSE_NO":"３７號","E_COORD97":167879.73999999999,"N_COORD97":2544191.6800000002,"ADDRESS":"西門路二段３０７巷３７號","OBJECTID":407081},"geometry":{"x":167879.74000000209,"y":2544191.6799999997}},{"attributes":{"ID":407106,"DIS_CODE":0,"TOWNNAME":"中西區","LI":"水仙里","LIN":"13鄰","STREET":"西門路","SECT":"二段","MAREA":" ","LANE":"３０７巷","ALLEY":" ","HOUSE_NO":"３９號","E_COORD97":167876.39999999999,"N_COORD97":2544193.4900000002,"ADDRESS":"西門路二段３０７巷３９號","OBJECTID":407082},"geometry":{"x":167876.40000000037,"y":2544193.4900000002}},{"attributes":{"ID":407107,"DIS_CODE":0,"TOWNNAME":"中西區","LI":"水仙里","LIN":"13鄰","STREET":"西門路","SECT":"二段","MAREA":" ","LANE":"３０７巷","ALLEY":" ","HOUSE_NO":"３號","E_COORD97":167943.91,"N_COORD97":2544158.8599999999,"ADDRESS":"西門路二段３０７巷３號","OBJECTID":407083},"geometry":{"x":167943.91000000015,"y":2544158.8599999994}},{"attributes":{"ID":407108,"DIS_CODE":0,"TOWNNAME":"中西區","LI":"水仙里","LIN":"13鄰","STREET":"西門路","SECT":"二段","MAREA":" ","LANE":"３０７巷","ALLEY":" ","HOUSE_NO":"５號","E_COORD97":167940.70000000001,"N_COORD97":2544160.25,"ADDRESS":"西門路二段３０７巷５號","OBJECTID":407084},"geometry":{"x":167940.70000000019,"y":2544160.25}},{"attributes":{"ID":407109,"DIS_CODE":0,"TOWNNAME":"中西區","LI":"水仙里","LIN":"13鄰","STREET":"西門路","SECT":"二段","MAREA":" ","LANE":"３０７巷","ALLEY":" ","HOUSE_NO":"７號","E_COORD97":167936.39000000001,"N_COORD97":2544161.7799999998,"ADDRESS":"西門路二段３０７巷７號","OBJECTID":407085},"geometry":{"x":167936.3900000006,"y":2544161.7800000012}},{"attributes":{"ID":407110,"DIS_CODE":0,"TOWNNAME":"中西區","LI":"水仙里","LIN":"13鄰","STREET":"西門路","SECT":"二段","MAREA":" ","LANE":"３０７巷","ALLEY":" ","HOUSE_NO":"９號","E_COORD97":167930.26999999999,"N_COORD97":2544146.48,"ADDRESS":"西門路二段３０７巷９號","OBJECTID":407086},"geometry":{"x":167930.27000000048,"y":2544146.4800000004}},{"attributes":{"ID":407111,"DIS_CODE":0,"TOWNNAME":"鹽水區","LI":"橋南里","LIN":"22鄰","STREET":"四維路","SECT":" ","MAREA":" ","LANE":"７４巷","ALLEY":" ","HOUSE_NO":"１１號四樓","E_COORD97":175944.04999999999,"N_COORD97":2578586.2200000002,"ADDRESS":"四維路７４巷１１號四樓","OBJECTID":407087},"geometry":{"x":175944.04999999981,"y":2578586.2200000025}},{"attributes":{"ID":407112,"DIS_CODE":0,"TOWNNAME":"鹽水區","LI":"橋南里","LIN":"22鄰","STREET":"四維路","SECT":" ","MAREA":" ","LANE":"７４巷","ALLEY":" ","HOUSE_NO":"１３號一樓","E_COORD97":175954.70999999999,"N_COORD97":2578585.98,"ADDRESS":"四維路７４巷１３號一樓","OBJECTID":407088},"geometry":{"x":175954.70999999996,"y":2578585.9800000004}},{"attributes":{"ID":407113,"DIS_CODE":0,"TOWNNAME":"鹽水區","LI":"橋南里","LIN":"22鄰","STREET":"四維路","SECT":" ","MAREA":" ","LANE":"７４巷","ALLEY":" ","HOUSE_NO":"１３號二樓","E_COORD97":175954.70999999999,"N_COORD97":2578585.98,"ADDRESS":"四維路７４巷１３號二樓","OBJECTID":407089},"geometry":{"x":175954.70999999996,"y":2578585.9800000004}},{"attributes":{"ID":407114,"DIS_CODE":0,"TOWNNAME":"鹽水區","LI":"橋南里","LIN":"22鄰","STREET":"四維路","SECT":" ","MAREA":" ","LANE":"７４巷","ALLEY":" ","HOUSE_NO":"１３號三樓","E_COORD97":175954.70999999999,"N_COORD97":2578585.98,"ADDRESS":"四維路７４巷１３號三樓","OBJECTID":407090},"geometry":{"x":175954.70999999996,"y":2578585.9800000004}},{"attributes":{"ID":407115,"DIS_CODE":0,"TOWNNAME":"鹽水區","LI":"橋南里","LIN":"22鄰","STREET":"四維路","SECT":" ","MAREA":" ","LANE":"７４巷","ALLEY":" ","HOUSE_NO":"１３號五樓","E_COORD97":175954.70999999999,"N_COORD97":2578585.98,"ADDRESS":"四維路７４巷１３號五樓","OBJECTID":407091},"geometry":{"x":175954.70999999996,"y":2578585.9800000004}},{"attributes":{"ID":407116,"DIS_CODE":0,"TOWNNAME":"鹽水區","LI":"橋南里","LIN":"22鄰","STREET":"四維路","SECT":" ","MAREA":" ","LANE":"７４巷","ALLEY":" ","HOUSE_NO":"１３號四樓","E_COORD97":175954.70999999999,"N_COORD97":2578585.98,"ADDRESS":"四維路７４巷１３號四樓","OBJECTID":407092},"geometry":{"x":175954.70999999996,"y":2578585.9800000004}},{"attributes":{"ID":407117,"DIS_CODE":0,"TOWNNAME":"鹽水區","LI":"橋南里","LIN":"22鄰","STREET":"四維路","SECT":" ","MAREA":" ","LANE":"７４巷","ALLEY":" ","HOUSE_NO":"１號三樓","E_COORD97":175907.32999999999,"N_COORD97":2578579.3900000001,"ADDRESS":"四維路７４巷１號三樓","OBJECTID":407093},"geometry":{"x":175907.33000000194,"y":2578579.3900000006}},{"attributes":{"ID":407118,"DIS_CODE":0,"TOWNNAME":"鹽水區","LI":"橋南里","LIN":"22鄰","STREET":"四維路","SECT":" ","MAREA":" ","LANE":"７４巷","ALLEY":" ","HOUSE_NO":"１號五樓","E_COORD97":175907.32999999999,"N_COORD97":2578579.3900000001,"ADDRESS":"四維路７４巷１號五樓","OBJECTID":407094},"geometry":{"x":175907.33000000194,"y":2578579.3900000006}},{"attributes":{"ID":407119,"DIS_CODE":0,"TOWNNAME":"鹽水區","LI":"橋南里","LIN":"22鄰","STREET":"四維路","SECT":" ","MAREA":" ","LANE":"７４巷","ALLEY":" ","HOUSE_NO":"１號四樓","E_COORD97":175907.32999999999,"N_COORD97":2578579.3900000001,"ADDRESS":"四維路７４巷１號四樓","OBJECTID":407095},"geometry":{"x":175907.33000000194,"y":2578579.3900000006}},{"attributes":{"ID":407120,"DIS_CODE":0,"TOWNNAME":"鹽水區","LI":"橋南里","LIN":"22鄰","STREET":"四維路","SECT":" ","MAREA":" ","LANE":"７４巷","ALLEY":" ","HOUSE_NO":"３號一樓","E_COORD97":175910.73999999999,"N_COORD97":2578583.98,"ADDRESS":"四維路７４巷３號一樓","OBJECTID":407096},"geometry":{"x":175910.74000000022,"y":2578583.9800000023}},{"attributes":{"ID":407121,"DIS_CODE":0,"TOWNNAME":"鹽水區","LI":"橋南里","LIN":"22鄰","STREET":"四維路","SECT":" ","MAREA":" ","LANE":"７４巷","ALLEY":" ","HOUSE_NO":"３號二樓","E_COORD97":175910.73999999999,"N_COORD97":2578583.98,"ADDRESS":"四維路７４巷３號二樓","OBJECTID":407097},"geometry":{"x":175910.74000000022,"y":2578583.9800000023}},{"attributes":{"ID":407122,"DIS_CODE":0,"TOWNNAME":"鹽水區","LI":"橋南里","LIN":"22鄰","STREET":"四維路","SECT":" ","MAREA":" ","LANE":"７４巷","ALLEY":" ","HOUSE_NO":"３號三樓","E_COORD97":175910.73999999999,"N_COORD97":2578583.98,"ADDRESS":"四維路７４巷３號三樓","OBJECTID":407098},"geometry":{"x":175910.74000000022,"y":2578583.9800000023}},{"attributes":{"ID":407123,"DIS_CODE":0,"TOWNNAME":"鹽水區","LI":"橋南里","LIN":"22鄰","STREET":"四維路","SECT":" ","MAREA":" ","LANE":"７４巷","ALLEY":" ","HOUSE_NO":"３號五樓","E_COORD97":175910.73999999999,"N_COORD97":2578583.98,"ADDRESS":"四維路７４巷３號五樓","OBJECTID":407099},"geometry":{"x":175910.74000000022,"y":2578583.9800000023}},{"attributes":{"ID":407124,"DIS_CODE":0,"TOWNNAME":"鹽水區","LI":"橋南里","LIN":"22鄰","STREET":"四維路","SECT":" ","MAREA":" ","LANE":"７４巷","ALLEY":" ","HOUSE_NO":"３號四樓","E_COORD97":175910.73999999999,"N_COORD97":2578583.98,"ADDRESS":"四維路７４巷３號四樓","OBJECTID":407100},"geometry":{"x":175910.74000000022,"y":2578583.9800000023}},{"attributes":{"ID":407125,"DIS_CODE":0,"TOWNNAME":"鹽水區","LI":"橋南里","LIN":"22鄰","STREET":"四維路","SECT":" ","MAREA":" ","LANE":"７４巷","ALLEY":" ","HOUSE_NO":"５號一樓","E_COORD97":175918.06,"N_COORD97":2578584.5899999999,"ADDRESS":"四維路７４巷５號一樓","OBJECTID":407101},"geometry":{"x":175918.05999999959,"y":2578584.5899999999}},{"attributes":{"ID":407126,"DIS_CODE":0,"TOWNNAME":"鹽水區","LI":"橋南里","LIN":"22鄰","STREET":"四維路","SECT":" ","MAREA":" ","LANE":"７４巷","ALLEY":" ","HOUSE_NO":"５號二樓","E_COORD97":175918.06,"N_COORD97":2578584.5899999999,"ADDRESS":"四維路７４巷５號二樓","OBJECTID":407102},"geometry":{"x":175918.05999999959,"y":2578584.5899999999}},{"attributes":{"ID":407127,"DIS_CODE":0,"TOWNNAME":"鹽水區","LI":"橋南里","LIN":"22鄰","STREET":"四維路","SECT":" ","MAREA":" ","LANE":"７４巷","ALLEY":" ","HOUSE_NO":"５號三樓","E_COORD97":175918.06,"N_COORD97":2578584.5899999999,"ADDRESS":"四維路７４巷５號三樓","OBJECTID":407103},"geometry":{"x":175918.05999999959,"y":2578584.5899999999}},{"attributes":{"ID":407128,"DIS_CODE":0,"TOWNNAME":"鹽水區","LI":"橋南里","LIN":"22鄰","STREET":"四維路","SECT":" ","MAREA":" ","LANE":"７４巷","ALLEY":" ","HOUSE_NO":"５號五樓","E_COORD97":175918.06,"N_COORD97":2578584.5899999999,"ADDRESS":"四維路７４巷５號五樓","OBJECTID":407104},"geometry":{"x":175918.05999999959,"y":2578584.5899999999}},{"attributes":{"ID":407129,"DIS_CODE":0,"TOWNNAME":"鹽水區","LI":"橋南里","LIN":"22鄰","STREET":"四維路","SECT":" ","MAREA":" ","LANE":"７４巷","ALLEY":" ","HOUSE_NO":"５號四樓","E_COORD97":175918.06,"N_COORD97":2578584.5899999999,"ADDRESS":"四維路７４巷５號四樓","OBJECTID":407105},"geometry":{"x":175918.05999999959,"y":2578584.5899999999}},{"attributes":{"ID":407130,"DIS_CODE":0,"TOWNNAME":"鹽水區","LI":"橋南里","LIN":"22鄰","STREET":"四維路","SECT":" ","MAREA":" ","LANE":"７４巷","ALLEY":" ","HOUSE_NO":"７號一樓","E_COORD97":175925.67999999999,"N_COORD97":2578585.0600000001,"ADDRESS":"四維路７４巷７號一樓","OBJECTID":407106},"geometry":{"x":175925.68000000063,"y":2578585.0600000005}},{"attributes":{"ID":407131,"DIS_CODE":0,"TOWNNAME":"鹽水區","LI":"橋南里","LIN":"22鄰","STREET":"四維路","SECT":" ","MAREA":" ","LANE":"７４巷","ALLEY":" ","HOUSE_NO":"７號二樓","E_COORD97":175925.67999999999,"N_COORD97":2578585.0600000001,"ADDRESS":"四維路７４巷７號二樓","OBJECTID":407107},"geometry":{"x":175925.68000000063,"y":2578585.0600000005}},{"attributes":{"ID":407132,"DIS_CODE":0,"TOWNNAME":"鹽水區","LI":"橋南里","LIN":"22鄰","STREET":"四維路","SECT":" ","MAREA":" ","LANE":"７４巷","ALLEY":" ","HOUSE_NO":"７號三樓","E_COORD97":175925.67999999999,"N_COORD97":2578585.0600000001,"ADDRESS":"四維路７４巷７號三樓","OBJECTID":407108},"geometry":{"x":175925.68000000063,"y":2578585.0600000005}},{"attributes":{"ID":407133,"DIS_CODE":0,"TOWNNAME":"東山區","LI":"東中里","LIN":"22鄰","STREET":"中興路","SECT":" ","MAREA":" ","LANE":"６８巷","ALLEY":" ","HOUSE_NO":"６號","E_COORD97":189033.79999999999,"N_COORD97":2580180.1299999999,"ADDRESS":"中興路６８巷６號","OBJECTID":407109},"geometry":{"x":189033.80000000075,"y":2580180.129999999}},{"attributes":{"ID":407134,"DIS_CODE":0,"TOWNNAME":"中西區","LI":"水仙里","LIN":"16鄰","STREET":"西門路","SECT":"二段","MAREA":" ","LANE":"３０７巷","ALLEY":" ","HOUSE_NO":"２４號","E_COORD97":167900.04000000001,"N_COORD97":2544200.4700000002,"ADDRESS":"西門路二段３０７巷２４號","OBJECTID":407110},"geometry":{"x":167900.04000000097,"y":2544200.4700000007}},{"attributes":{"ID":407135,"DIS_CODE":0,"TOWNNAME":"中西區","LI":"水仙里","LIN":"16鄰","STREET":"西門路","SECT":"二段","MAREA":" ","LANE":"３０７巷","ALLEY":" ","HOUSE_NO":"２６號","E_COORD97":167894.75,"N_COORD97":2544202.4199999999,"ADDRESS":"西門路二段３０７巷２６號","OBJECTID":407111},"geometry":{"x":167894.75000000093,"y":2544202.4200000018}},{"attributes":{"ID":407136,"DIS_CODE":0,"TOWNNAME":"中西區","LI":"水仙里","LIN":"16鄰","STREET":"西門路","SECT":"二段","MAREA":" ","LANE":"３０７巷","ALLEY":" ","HOUSE_NO":"２８號","E_COORD97":167891.41,"N_COORD97":2544205.2000000002,"ADDRESS":"西門路二段３０７巷２８號","OBJECTID":407112},"geometry":{"x":167891.41000000015,"y":2544205.200000003}},{"attributes":{"ID":407137,"DIS_CODE":0,"TOWNNAME":"中西區","LI":"水仙里","LIN":"16鄰","STREET":"西門路","SECT":"二段","MAREA":" ","LANE":"３０７巷","ALLEY":" ","HOUSE_NO":"３０號","E_COORD97":167886.82000000001,"N_COORD97":2544207.8399999999,"ADDRESS":"西門路二段３０７巷３０號","OBJECTID":407113},"geometry":{"x":167886.8200000003,"y":2544207.8399999999}},{"attributes":{"ID":407138,"DIS_CODE":0,"TOWNNAME":"中西區","LI":"水仙里","LIN":"16鄰","STREET":"西門路","SECT":"二段","MAREA":" ","LANE":"３０７巷","ALLEY":" ","HOUSE_NO":"１０號","E_COORD97":167932.89000000001,"N_COORD97":2544181.5499999998,"ADDRESS":"西門路二段３０７巷１０號","OBJECTID":407114},"geometry":{"x":167932.8900000006,"y":2544181.5500000026}},{"attributes":{"ID":407139,"DIS_CODE":0,"TOWNNAME":"中西區","LI":"水仙里","LIN":"16鄰","STREET":"西門路","SECT":"二段","MAREA":" ","LANE":"３０７巷","ALLEY":" ","HOUSE_NO":"１２號","E_COORD97":167929.54999999999,"N_COORD97":2544185.5899999999,"ADDRESS":"西門路二段３０７巷１２號","OBJECTID":407115},"geometry":{"x":167929.54999999888,"y":2544185.5899999999}},{"attributes":{"ID":407140,"DIS_CODE":0,"TOWNNAME":"中西區","LI":"水仙里","LIN":"16鄰","STREET":"西門路","SECT":"二段","MAREA":" ","LANE":"３０７巷","ALLEY":" ","HOUSE_NO":"１４號","E_COORD97":167924.67999999999,"N_COORD97":2544186.7000000002,"ADDRESS":"西門路二段３０７巷１４號","OBJECTID":407116},"geometry":{"x":167924.6799999997,"y":2544186.6999999993}},{"attributes":{"ID":407141,"DIS_CODE":0,"TOWNNAME":"中西區","LI":"水仙里","LIN":"16鄰","STREET":"西門路","SECT":"二段","MAREA":" ","LANE":"３０７巷","ALLEY":" ","HOUSE_NO":"１６號","E_COORD97":167920.51000000001,"N_COORD97":2544190.46,"ADDRESS":"西門路二段３０７巷１６號","OBJECTID":407117},"geometry":{"x":167920.51000000071,"y":2544190.4600000009}},{"attributes":{"ID":407142,"DIS_CODE":0,"TOWNNAME":"中西區","LI":"水仙里","LIN":"16鄰","STREET":"西門路","SECT":"二段","MAREA":" ","LANE":"３０７巷","ALLEY":" ","HOUSE_NO":"１８號","E_COORD97":167917.03,"N_COORD97":2544192.2599999998,"ADDRESS":"西門路二段３０７巷１８號","OBJECTID":407118},"geometry":{"x":167917.03000000119,"y":2544192.2600000016}},{"attributes":{"ID":407143,"DIS_CODE":0,"TOWNNAME":"中西區","LI":"水仙里","LIN":"16鄰","STREET":"西門路","SECT":"二段","MAREA":" ","LANE":"３０７巷","ALLEY":" ","HOUSE_NO":"８號","E_COORD97":167935.95999999999,"N_COORD97":2544179.75,"ADDRESS":"西門路二段３０７巷８號","OBJECTID":407119},"geometry":{"x":167935.96000000089,"y":2544179.7500000019}},{"attributes":{"ID":407144,"DIS_CODE":0,"TOWNNAME":"鹽水區","LI":"橋南里","LIN":"22鄰","STREET":"四維路","SECT":" ","MAREA":" ","LANE":"７４巷","ALLEY":" ","HOUSE_NO":"７號五樓","E_COORD97":175925.67999999999,"N_COORD97":2578585.0600000001,"ADDRESS":"四維路７４巷７號五樓","OBJECTID":407120},"geometry":{"x":175925.68000000063,"y":2578585.0600000005}},{"attributes":{"ID":407145,"DIS_CODE":0,"TOWNNAME":"鹽水區","LI":"橋南里","LIN":"22鄰","STREET":"四維路","SECT":" ","MAREA":" ","LANE":"７４巷","ALLEY":" ","HOUSE_NO":"７號四樓","E_COORD97":175925.67999999999,"N_COORD97":2578585.0600000001,"ADDRESS":"四維路７４巷７號四樓","OBJECTID":407121},"geometry":{"x":175925.68000000063,"y":2578585.0600000005}},{"attributes":{"ID":407146,"DIS_CODE":0,"TOWNNAME":"鹽水區","LI":"橋南里","LIN":"22鄰","STREET":"四維路","SECT":" ","MAREA":" ","LANE":"７４巷","ALLEY":" ","HOUSE_NO":"９號一樓","E_COORD97":175934.13,"N_COORD97":2578584.1699999999,"ADDRESS":"四維路７４巷９號一樓","OBJECTID":407122},"geometry":{"x":175934.13000000082,"y":2578584.1699999999}},{"attributes":{"ID":407147,"DIS_CODE":0,"TOWNNAME":"鹽水區","LI":"橋南里","LIN":"22鄰","STREET":"四維路","SECT":" ","MAREA":" ","LANE":"７４巷","ALLEY":" ","HOUSE_NO":"９號二樓","E_COORD97":175934.13,"N_COORD97":2578584.1699999999,"ADDRESS":"四維路７４巷９號二樓","OBJECTID":407123},"geometry":{"x":175934.13000000082,"y":2578584.1699999999}},{"attributes":{"ID":407148,"DIS_CODE":0,"TOWNNAME":"鹽水區","LI":"橋南里","LIN":"22鄰","STREET":"四維路","SECT":" ","MAREA":" ","LANE":"７４巷","ALLEY":" ","HOUSE_NO":"９號三樓","E_COORD97":175934.13,"N_COORD97":2578584.1699999999,"ADDRESS":"四維路７４巷９號三樓","OBJECTID":407124},"geometry":{"x":175934.13000000082,"y":2578584.1699999999}},{"attributes":{"ID":407149,"DIS_CODE":0,"TOWNNAME":"鹽水區","LI":"橋南里","LIN":"22鄰","STREET":"四維路","SECT":" ","MAREA":" ","LANE":"７４巷","ALLEY":" ","HOUSE_NO":"９號五樓","E_COORD97":175934.13,"N_COORD97":2578584.1699999999,"ADDRESS":"四維路７４巷９號五樓","OBJECTID":407125},"geometry":{"x":175934.13000000082,"y":2578584.1699999999}},{"attributes":{"ID":407150,"DIS_CODE":0,"TOWNNAME":"鹽水區","LI":"橋南里","LIN":"22鄰","STREET":"四維路","SECT":" ","MAREA":" ","LANE":"７４巷","ALLEY":" ","HOUSE_NO":"９號四樓","E_COORD97":175934.13,"N_COORD97":2578584.1699999999,"ADDRESS":"四維路７４巷９號四樓","OBJECTID":407126},"geometry":{"x":175934.13000000082,"y":2578584.1699999999}},{"attributes":{"ID":407151,"DIS_CODE":0,"TOWNNAME":"永康區","LI":"正強里","LIN":"22鄰","STREET":"自強路","SECT":" ","MAREA":" ","LANE":"３２１巷","ALLEY":" ","HOUSE_NO":"７號","E_COORD97":173433.26999999999,"N_COORD97":2547761.5,"ADDRESS":"自強路３２１巷７號","OBJECTID":407127},"geometry":{"x":173433.26999999955,"y":2547761.5000000019}},{"attributes":{"ID":407152,"DIS_CODE":0,"TOWNNAME":"永康區","LI":"永康里","LIN":"22鄰","STREET":"中山南路","SECT":" ","MAREA":" ","LANE":"４７１巷","ALLEY":" ","HOUSE_NO":"３０號","E_COORD97":173148.20000000001,"N_COORD97":2547150.2999999998,"ADDRESS":"中山南路４７１巷３０號","OBJECTID":407128},"geometry":{"x":173148.20000000019,"y":2547150.3000000026}},{"attributes":{"ID":407153,"DIS_CODE":0,"TOWNNAME":"永康區","LI":"北灣里","LIN":"22鄰","STREET":"大灣路","SECT":" ","MAREA":" ","LANE":"４０巷","ALLEY":" ","HOUSE_NO":"１０６號","E_COORD97":174940.91,"N_COORD97":2546232.0899999999,"ADDRESS":"大灣路４０巷１０６號","OBJECTID":407129},"geometry":{"x":174940.91000000108,"y":2546232.0900000017}},{"attributes":{"ID":407154,"DIS_CODE":0,"TOWNNAME":"安南區","LI":"梅花里","LIN":"22鄰","STREET":"同安路","SECT":" ","MAREA":" ","LANE":"３２２巷","ALLEY":" ","HOUSE_NO":"４２號","E_COORD97":167320.26999999999,"N_COORD97":2549164.7599999998,"ADDRESS":"同安路３２２巷４２號","OBJECTID":407130},"geometry":{"x":167320.26999999955,"y":2549164.7599999998}},{"attributes":{"ID":407155,"DIS_CODE":0,"TOWNNAME":"安南區","LI":"安慶里","LIN":"22鄰","STREET":"安中路","SECT":"一段","MAREA":" ","LANE":"１８９巷","ALLEY":" ","HOUSE_NO":"８７號之１","E_COORD97":168811.45999999999,"N_COORD97":2548255.0800000001,"ADDRESS":"安中路一段１８９巷８７號之１","OBJECTID":407131},"geometry":{"x":168811.45999999996,"y":2548255.0800000038}},{"attributes":{"ID":407156,"DIS_CODE":0,"TOWNNAME":"下營區","LI":"仁里里","LIN":"22鄰","STREET":"仁里街","SECT":" ","MAREA":" ","LANE":"１５８巷","ALLEY":" ","HOUSE_NO":"１８號","E_COORD97":174146.5,"N_COORD97":2569877.8399999999,"ADDRESS":"仁里街１５８巷１８號","OBJECTID":407132},"geometry":{"x":174146.50000000186,"y":2569877.8400000017}},{"attributes":{"ID":407157,"DIS_CODE":0,"TOWNNAME":"下營區","LI":"仁里里","LIN":"22鄰","STREET":"仁里街","SECT":" ","MAREA":" ","LANE":"１５８巷","ALLEY":" ","HOUSE_NO":"１號","E_COORD97":174169.45999999999,"N_COORD97":2569839.0899999999,"ADDRESS":"仁里街１５８巷１號","OBJECTID":407133},"geometry":{"x":174169.46000000089,"y":2569839.0900000017}},{"attributes":{"ID":407158,"DIS_CODE":0,"TOWNNAME":"下營區","LI":"仁里里","LIN":"22鄰","STREET":"仁里街","SECT":" ","MAREA":" ","LANE":"１５８巷","ALLEY":" ","HOUSE_NO":"２號","E_COORD97":174176.97,"N_COORD97":2569910.8199999998,"ADDRESS":"仁里街１５８巷２號","OBJECTID":407134},"geometry":{"x":174176.9700000016,"y":2569910.8200000003}},{"attributes":{"ID":407159,"DIS_CODE":0,"TOWNNAME":"下營區","LI":"仁里里","LIN":"22鄰","STREET":"仁里街","SECT":" ","MAREA":" ","LANE":"１５８巷","ALLEY":" ","HOUSE_NO":"３號","E_COORD97":174159.92999999999,"N_COORD97":2569839.3700000001,"ADDRESS":"仁里街１５８巷３號","OBJECTID":407135},"geometry":{"x":174159.9299999997,"y":2569839.370000001}},{"attributes":{"ID":407160,"DIS_CODE":0,"TOWNNAME":"下營區","LI":"仁里里","LIN":"22鄰","STREET":"仁里街","SECT":" ","MAREA":" ","LANE":"１５８巷","ALLEY":" ","HOUSE_NO":"５號","E_COORD97":174144.48999999999,"N_COORD97":2569847.5800000001,"ADDRESS":"仁里街１５８巷５號","OBJECTID":407136},"geometry":{"x":174144.49000000022,"y":2569847.5800000001}},{"attributes":{"ID":407161,"DIS_CODE":0,"TOWNNAME":"下營區","LI":"仁里里","LIN":"22鄰","STREET":"仁里街","SECT":" ","MAREA":" ","LANE":"１７６巷","ALLEY":" ","HOUSE_NO":"６號","E_COORD97":174134.41,"N_COORD97":2569800,"ADDRESS":"仁里街１７６巷６號","OBJECTID":407137},"geometry":{"x":174134.41000000108,"y":2569800}},{"attributes":{"ID":407162,"DIS_CODE":0,"TOWNNAME":"下營區","LI":"仁里里","LIN":"22鄰","STREET":"仁里街","SECT":" ","MAREA":" ","LANE":"１７６巷","ALLEY":" ","HOUSE_NO":"８號","E_COORD97":174119.10999999999,"N_COORD97":2569793.1099999999,"ADDRESS":"仁里街１７６巷８號","OBJECTID":407138},"geometry":{"x":174119.11000000127,"y":2569793.1100000031}},{"attributes":{"ID":407163,"DIS_CODE":0,"TOWNNAME":"下營區","LI":"仁里里","LIN":"22鄰","STREET":"仁里街","SECT":" ","MAREA":" ","LANE":"１７６巷","ALLEY":" ","HOUSE_NO":"９號","E_COORD97":174077.79999999999,"N_COORD97":2569775.8300000001,"ADDRESS":"仁里街１７６巷９號","OBJECTID":407139},"geometry":{"x":174077.79999999981,"y":2569775.8300000019}},{"attributes":{"ID":407164,"DIS_CODE":0,"TOWNNAME":"下營區","LI":"仁里里","LIN":"22鄰","STREET":"仁里街","SECT":" ","MAREA":" ","LANE":"２４８巷","ALLEY":" ","HOUSE_NO":"２６號","E_COORD97":173986.14000000001,"N_COORD97":2569594.6600000001,"ADDRESS":"仁里街２４８巷２６號","OBJECTID":407140},"geometry":{"x":173986.1400000006,"y":2569594.660000002}},{"attributes":{"ID":407165,"DIS_CODE":0,"TOWNNAME":"下營區","LI":"仁里里","LIN":"22鄰","STREET":"仁里街","SECT":" ","MAREA":" ","LANE":"２４８巷","ALLEY":" ","HOUSE_NO":"３０號","E_COORD97":173971.32999999999,"N_COORD97":2569640,"ADDRESS":"仁里街２４８巷３０號","OBJECTID":407141},"geometry":{"x":173971.33000000194,"y":2569640.0000000019}},{"attributes":{"ID":407166,"DIS_CODE":0,"TOWNNAME":"下營區","LI":"仁里里","LIN":"22鄰","STREET":"仁里街","SECT":" ","MAREA":" ","LANE":"２４８巷","ALLEY":" ","HOUSE_NO":"５１號","E_COORD97":173688.16,"N_COORD97":2569581.3399999999,"ADDRESS":"仁里街２４８巷５１號","OBJECTID":407142},"geometry":{"x":173688.16000000108,"y":2569581.3399999999}},{"attributes":{"ID":407167,"DIS_CODE":0,"TOWNNAME":"下營區","LI":"仁里里","LIN":"22鄰","STREET":"仁里街","SECT":" ","MAREA":" ","LANE":"３０２巷","ALLEY":" ","HOUSE_NO":"１７號","E_COORD97":173904.29000000001,"N_COORD97":2569337.6000000001,"ADDRESS":"仁里街３０２巷１７號","OBJECTID":407143},"geometry":{"x":173904.29000000097,"y":2569337.5999999996}},{"attributes":{"ID":407168,"DIS_CODE":0,"TOWNNAME":"下營區","LI":"仁里里","LIN":"22鄰","STREET":"仁里街","SECT":" ","MAREA":" ","LANE":"３０２巷","ALLEY":" ","HOUSE_NO":"１號","E_COORD97":174032.39999999999,"N_COORD97":2569337.7599999998,"ADDRESS":"仁里街３０２巷１號","OBJECTID":407144},"geometry":{"x":174032.40000000224,"y":2569337.7599999998}},{"attributes":{"ID":407169,"DIS_CODE":0,"TOWNNAME":"下營區","LI":"仁里里","LIN":"22鄰","STREET":"仁里街","SECT":" ","MAREA":" ","LANE":"３０２巷","ALLEY":" ","HOUSE_NO":"２０號","E_COORD97":173956.91,"N_COORD97":2569382.7400000002,"ADDRESS":"仁里街３０２巷２０號","OBJECTID":407145},"geometry":{"x":173956.91000000015,"y":2569382.7399999984}},{"attributes":{"ID":407170,"DIS_CODE":0,"TOWNNAME":"下營區","LI":"仁里里","LIN":"22鄰","STREET":"仁里街","SECT":" ","MAREA":" ","LANE":"３０２巷","ALLEY":" ","HOUSE_NO":"９號","E_COORD97":173995.17999999999,"N_COORD97":2569345.8399999999,"ADDRESS":"仁里街３０２巷９號","OBJECTID":407146},"geometry":{"x":173995.1799999997,"y":2569345.8400000017}},{"attributes":{"ID":407171,"DIS_CODE":0,"TOWNNAME":"下營區","LI":"仁里里","LIN":"22鄰","STREET":"仁里街","SECT":" ","MAREA":" ","LANE":"３８０巷","ALLEY":" ","HOUSE_NO":"７號","E_COORD97":173783.32999999999,"N_COORD97":2568726.3700000001,"ADDRESS":"仁里街３８０巷７號","OBJECTID":407147},"geometry":{"x":173783.33000000194,"y":2568726.3700000029}},{"attributes":{"ID":407172,"DIS_CODE":0,"TOWNNAME":"下營區","LI":"仁里里","LIN":"22鄰","STREET":"仁里街","SECT":" ","MAREA":" ","LANE":"４０２巷","ALLEY":" ","HOUSE_NO":"５５號","E_COORD97":173543.60000000001,"N_COORD97":2568514.46,"ADDRESS":"仁里街４０２巷５５號","OBJECTID":407148},"geometry":{"x":173543.60000000149,"y":2568514.4600000028}},{"attributes":{"ID":407173,"DIS_CODE":0,"TOWNNAME":"下營區","LI":"仁里里","LIN":"22鄰","STREET":"仁里街","SECT":" ","MAREA":" ","LANE":"４３８巷","ALLEY":" ","HOUSE_NO":"２５號","E_COORD97":173730.98000000001,"N_COORD97":2568315.7400000002,"ADDRESS":"仁里街４３８巷２５號","OBJECTID":407149},"geometry":{"x":173730.98000000045,"y":2568315.7400000021}},{"attributes":{"ID":407174,"DIS_CODE":0,"TOWNNAME":"下營區","LI":"仁里里","LIN":"22鄰","STREET":"仁里街","SECT":" ","MAREA":" ","LANE":"４３８巷","ALLEY":" ","HOUSE_NO":"６６號","E_COORD97":173818.59,"N_COORD97":2568349.9300000002,"ADDRESS":"仁里街４３８巷６６號","OBJECTID":407150},"geometry":{"x":173818.59000000171,"y":2568349.9299999997}},{"attributes":{"ID":407175,"DIS_CODE":0,"TOWNNAME":"下營區","LI":"仁里里","LIN":"22鄰","STREET":"仁里街","SECT":" ","MAREA":" ","LANE":"４３８巷","ALLEY":" ","HOUSE_NO":"７２號","E_COORD97":173575.78,"N_COORD97":2568325.6600000001,"ADDRESS":"仁里街４３８巷７２號","OBJECTID":407151},"geometry":{"x":173575.78000000119,"y":2568325.6600000039}},{"attributes":{"ID":407176,"DIS_CODE":0,"TOWNNAME":"永康區","LI":"勝利里","LIN":"22鄰","STREET":"中華路","SECT":" ","MAREA":" ","LANE":"２３１巷","ALLEY":" ","HOUSE_NO":"６號","E_COORD97":171572.95000000001,"N_COORD97":2545096,"ADDRESS":"中華路２３１巷６號","OBJECTID":407152},"geometry":{"x":171572.95000000019,"y":2545096.0000000019}},{"attributes":{"ID":407177,"DIS_CODE":0,"TOWNNAME":"永康區","LI":"龍潭里","LIN":"22鄰","STREET":"龍橋街","SECT":" ","MAREA":" ","LANE":"１３０巷","ALLEY":" ","HOUSE_NO":"３９號","E_COORD97":174742.5,"N_COORD97":2548701,"ADDRESS":"龍橋街１３０巷３９號","OBJECTID":407153},"geometry":{"x":174742.5,"y":2548701.0000000019}},{"attributes":{"ID":407178,"DIS_CODE":0,"TOWNNAME":"永康區","LI":"龍潭里","LIN":"22鄰","STREET":"龍橋街","SECT":" ","MAREA":" ","LANE":"１３０巷","ALLEY":" ","HOUSE_NO":"５０號","E_COORD97":174746.01999999999,"N_COORD97":2548686.1000000001,"ADDRESS":"龍橋街１３０巷５０號","OBJECTID":407154},"geometry":{"x":174746.02000000142,"y":2548686.1000000015}},{"attributes":{"ID":407179,"DIS_CODE":0,"TOWNNAME":"永康區","LI":"勝利里","LIN":"22鄰","STREET":"中華路","SECT":" ","MAREA":" ","LANE":"２１７巷","ALLEY":" ","HOUSE_NO":"１５號","E_COORD97":171562.23000000001,"N_COORD97":2545044.3700000001,"ADDRESS":"中華路２１７巷１５號","OBJECTID":407155},"geometry":{"x":171562.23000000138,"y":2545044.3700000029}},{"attributes":{"ID":407180,"DIS_CODE":0,"TOWNNAME":"永康區","LI":"勝利里","LIN":"22鄰","STREET":"中華一路","SECT":" ","MAREA":" ","LANE":"１８２巷","ALLEY":" ","HOUSE_NO":"８號","E_COORD97":171520.63,"N_COORD97":2545066.25,"ADDRESS":"中華一路１８２巷８號","OBJECTID":407156},"geometry":{"x":171520.62999999989,"y":2545066.25}},{"attributes":{"ID":407181,"DIS_CODE":0,"TOWNNAME":"永康區","LI":"神洲里","LIN":"22鄰","STREET":"忠孝路","SECT":" ","MAREA":" ","LANE":"７６巷","ALLEY":" ","HOUSE_NO":"４５號","E_COORD97":172266.19,"N_COORD97":2544926.8799999999,"ADDRESS":"忠孝路７６巷４５號","OBJECTID":407157},"geometry":{"x":172266.19000000134,"y":2544926.8800000008}},{"attributes":{"ID":407182,"DIS_CODE":0,"TOWNNAME":"永康區","LI":"埔園里","LIN":"22鄰","STREET":"埔園街","SECT":" ","MAREA":" ","LANE":"２７１巷","ALLEY":" ","HOUSE_NO":"１７號","E_COORD97":173484.07999999999,"N_COORD97":2548124.7400000002,"ADDRESS":"埔園街２７１巷１７號","OBJECTID":407158},"geometry":{"x":173484.08000000007,"y":2548124.7400000002}},{"attributes":{"ID":407183,"DIS_CODE":0,"TOWNNAME":"永康區","LI":"復國里","LIN":"22鄰","STREET":"復華六街","SECT":" ","MAREA":" ","LANE":"９３巷","ALLEY":" ","HOUSE_NO":"６號","E_COORD97":172608.78,"N_COORD97":2545821.2799999998,"ADDRESS":"復華六街９３巷６號","OBJECTID":407159},"geometry":{"x":172608.78000000026,"y":2545821.2799999993}},{"attributes":{"ID":407184,"DIS_CODE":0,"TOWNNAME":"永康區","LI":"網寮里","LIN":"22鄰","STREET":"永春街","SECT":" ","MAREA":" ","LANE":"２５巷","ALLEY":" ","HOUSE_NO":"１５號之４","E_COORD97":173721.78,"N_COORD97":2546266.04,"ADDRESS":"永春街２５巷１５號之４","OBJECTID":407160},"geometry":{"x":173721.78000000119,"y":2546266.0399999991}},{"attributes":{"ID":407185,"DIS_CODE":0,"TOWNNAME":"永康區","LI":"勝利里","LIN":"22鄰","STREET":"中華路","SECT":" ","MAREA":" ","LANE":"２１７巷","ALLEY":" ","HOUSE_NO":"５號","E_COORD97":171577.09,"N_COORD97":2545032.2400000002,"ADDRESS":"中華路２１７巷５號","OBJECTID":407161},"geometry":{"x":171577.08999999985,"y":2545032.2400000002}},{"attributes":{"ID":407186,"DIS_CODE":0,"TOWNNAME":"永康區","LI":"勝利里","LIN":"22鄰","STREET":"中華一路","SECT":" ","MAREA":" ","LANE":"１８２巷","ALLEY":" ","HOUSE_NO":"１３號","E_COORD97":171501.35000000001,"N_COORD97":2545087.25,"ADDRESS":"中華一路１８２巷１３號","OBJECTID":407162},"geometry":{"x":171501.35000000056,"y":2545087.2500000037}},{"attributes":{"ID":407187,"DIS_CODE":0,"TOWNNAME":"東區","LI":"崇明里","LIN":"22鄰","STREET":"中華東路","SECT":"三段","MAREA":" ","LANE":"３９９巷","ALLEY":" ","HOUSE_NO":"２５號","E_COORD97":170089.88,"N_COORD97":2541442.0299999998,"ADDRESS":"中華東路三段３９９巷２５號","OBJECTID":407163},"geometry":{"x":170089.87999999989,"y":2541442.0299999993}},{"attributes":{"ID":407188,"DIS_CODE":0,"TOWNNAME":"白河區","LI":"永安里","LIN":"22鄰","STREET":"西安街","SECT":" ","MAREA":" ","LANE":"７７巷","ALLEY":" ","HOUSE_NO":"６號","E_COORD97":189716.85000000001,"N_COORD97":2582798.4199999999,"ADDRESS":"西安街７７巷６號","OBJECTID":407164},"geometry":{"x":189716.84999999963,"y":2582798.4200000018}},{"attributes":{"ID":407189,"DIS_CODE":0,"TOWNNAME":"白河區","LI":"永安里","LIN":"22鄰","STREET":"西安街","SECT":" ","MAREA":" ","LANE":"７７巷","ALLEY":" ","HOUSE_NO":"８號","E_COORD97":189709.95000000001,"N_COORD97":2582793.8799999999,"ADDRESS":"西安街７７巷８號","OBJECTID":407165},"geometry":{"x":189709.95000000019,"y":2582793.8800000008}},{"attributes":{"ID":407190,"DIS_CODE":0,"TOWNNAME":"安南區","LI":"安東里","LIN":"22鄰","STREET":"安和路","SECT":"二段","MAREA":" ","LANE":"１５０巷","ALLEY":" ","HOUSE_NO":"２６號","E_COORD97":169652.38,"N_COORD97":2548882.6000000001,"ADDRESS":"安和路二段１５０巷２６號","OBJECTID":407166},"geometry":{"x":169652.37999999989,"y":2548882.6000000015}},{"attributes":{"ID":407191,"DIS_CODE":0,"TOWNNAME":"安南區","LI":"安東里","LIN":"22鄰","STREET":"安和路","SECT":"二段","MAREA":" ","LANE":"１５０巷","ALLEY":" ","HOUSE_NO":"２９號","E_COORD97":169661.01000000001,"N_COORD97":2548912.1400000001,"ADDRESS":"安和路二段１５０巷２９號","OBJECTID":407167},"geometry":{"x":169661.01000000071,"y":2548912.1400000006}},{"attributes":{"ID":407192,"DIS_CODE":0,"TOWNNAME":"安南區","LI":"安東里","LIN":"22鄰","STREET":"安和路","SECT":"二段","MAREA":" ","LANE":"１５０巷","ALLEY":" ","HOUSE_NO":"４１號","E_COORD97":169697.54000000001,"N_COORD97":2548920.3500000001,"ADDRESS":"安和路二段１５０巷４１號","OBJECTID":407168},"geometry":{"x":169697.54000000004,"y":2548920.3499999978}},{"attributes":{"ID":407193,"DIS_CODE":0,"TOWNNAME":"安南區","LI":"安東里","LIN":"22鄰","STREET":"安和路","SECT":"二段","MAREA":" ","LANE":"１５０巷","ALLEY":" ","HOUSE_NO":"５３號","E_COORD97":169729.16,"N_COORD97":2548923.6299999999,"ADDRESS":"安和路二段１５０巷５３號","OBJECTID":407169},"geometry":{"x":169729.16000000015,"y":2548923.629999999}},{"attributes":{"ID":407194,"DIS_CODE":0,"TOWNNAME":"安南區","LI":"安東里","LIN":"22鄰","STREET":"安和路","SECT":"二段","MAREA":" ","LANE":"１７４巷","ALLEY":" ","HOUSE_NO":"１２號","E_COORD97":169673.73000000001,"N_COORD97":2548945.7799999998,"ADDRESS":"安和路二段１７４巷１２號","OBJECTID":407170},"geometry":{"x":169673.73000000138,"y":2548945.7800000012}},{"attributes":{"ID":407195,"DIS_CODE":0,"TOWNNAME":"安南區","LI":"安東里","LIN":"22鄰","STREET":"安和路","SECT":"二段","MAREA":" ","LANE":"１７４巷","ALLEY":" ","HOUSE_NO":"２號","E_COORD97":169629.81,"N_COORD97":2548947.8399999999,"ADDRESS":"安和路二段１７４巷２號","OBJECTID":407171},"geometry":{"x":169629.81000000052,"y":2548947.839999998}},{"attributes":{"ID":407196,"DIS_CODE":0,"TOWNNAME":"安南區","LI":"安東里","LIN":"22鄰","STREET":"安和路","SECT":"二段","MAREA":" ","LANE":"１７４巷","ALLEY":" ","HOUSE_NO":"８號","E_COORD97":169654.03,"N_COORD97":2548947.02,"ADDRESS":"安和路二段１７４巷８號","OBJECTID":407172},"geometry":{"x":169654.03000000026,"y":2548947.0200000014}},{"attributes":{"ID":407197,"DIS_CODE":0,"TOWNNAME":"安南區","LI":"安東里","LIN":"22鄰","STREET":"安和路","SECT":"二段","MAREA":" ","LANE":"５４巷","ALLEY":" ","HOUSE_NO":"１１５號","E_COORD97":169872.76999999999,"N_COORD97":2548615.8399999999,"ADDRESS":"安和路二段５４巷１１５號","OBJECTID":407173},"geometry":{"x":169872.77000000048,"y":2548615.8400000036}},{"attributes":{"ID":407198,"DIS_CODE":0,"TOWNNAME":"安南區","LI":"安東里","LIN":"22鄰","STREET":"安和路","SECT":"二段","MAREA":" ","LANE":"５４巷","ALLEY":" ","HOUSE_NO":"２１６號","E_COORD97":169685.69,"N_COORD97":2548508.4399999999,"ADDRESS":"安和路二段５４巷２１６號","OBJECTID":407174},"geometry":{"x":169685.69000000227,"y":2548508.4399999995}},{"attributes":{"ID":407199,"DIS_CODE":0,"TOWNNAME":"安南區","LI":"安東里","LIN":"22鄰","STREET":"安和路","SECT":"二段","MAREA":" ","LANE":"５４巷","ALLEY":" ","HOUSE_NO":"２２１號","E_COORD97":169829.35999999999,"N_COORD97":2548463.5099999998,"ADDRESS":"安和路二段５４巷２２１號","OBJECTID":407175},"geometry":{"x":169829.36000000034,"y":2548463.5100000016}},{"attributes":{"ID":407200,"DIS_CODE":0,"TOWNNAME":"安南區","LI":"安東里","LIN":"22鄰","STREET":"安和路","SECT":"二段","MAREA":" ","LANE":"５４巷","ALLEY":" ","HOUSE_NO":"２２３號","E_COORD97":169739.19,"N_COORD97":2548475.5600000001,"ADDRESS":"安和路二段５４巷２２３號","OBJECTID":407176},"geometry":{"x":169739.19000000041,"y":2548475.5600000005}},{"attributes":{"ID":407201,"DIS_CODE":0,"TOWNNAME":"安南區","LI":"安東里","LIN":"22鄰","STREET":"安和路","SECT":"二段","MAREA":" ","LANE":"５４巷","ALLEY":" ","HOUSE_NO":"２２５號","E_COORD97":169743.20999999999,"N_COORD97":2548422.5899999999,"ADDRESS":"安和路二段５４巷２２５號","OBJECTID":407177},"geometry":{"x":169743.21000000089,"y":2548422.5899999999}},{"attributes":{"ID":407202,"DIS_CODE":0,"TOWNNAME":"安南區","LI":"安東里","LIN":"22鄰","STREET":"安和路","SECT":"二段","MAREA":" ","LANE":"５４巷","ALLEY":" ","HOUSE_NO":"２２６號","E_COORD97":169702.76999999999,"N_COORD97":2548471.54,"ADDRESS":"安和路二段５４巷２２６號","OBJECTID":407178},"geometry":{"x":169702.77000000142,"y":2548471.540000001}},{"attributes":{"ID":407203,"DIS_CODE":0,"TOWNNAME":"安南區","LI":"安東里","LIN":"22鄰","STREET":"安和路","SECT":"二段","MAREA":" ","LANE":"５４巷","ALLEY":" ","HOUSE_NO":"２３１號","E_COORD97":169872.56,"N_COORD97":2548461,"ADDRESS":"安和路二段５４巷２３１號","OBJECTID":407179},"geometry":{"x":169872.56000000052,"y":2548461}},{"attributes":{"ID":407204,"DIS_CODE":0,"TOWNNAME":"安南區","LI":"安東里","LIN":"22鄰","STREET":"安和路","SECT":"二段","MAREA":" ","LANE":"５４巷","ALLEY":" ","HOUSE_NO":"２３３號","E_COORD97":169897.67999999999,"N_COORD97":2548412.1800000002,"ADDRESS":"安和路二段５４巷２３３號","OBJECTID":407180},"geometry":{"x":169897.6799999997,"y":2548412.1799999997}},{"attributes":{"ID":407205,"DIS_CODE":0,"TOWNNAME":"安南區","LI":"安東里","LIN":"22鄰","STREET":"安和路","SECT":"二段","MAREA":" ","LANE":"５４巷","ALLEY":" ","HOUSE_NO":"７１號","E_COORD97":169668.34,"N_COORD97":2548641.7999999998,"ADDRESS":"安和路二段５４巷７１號","OBJECTID":407181},"geometry":{"x":169668.33999999985,"y":2548641.8000000026}},{"attributes":{"ID":407206,"DIS_CODE":0,"TOWNNAME":"安南區","LI":"安東里","LIN":"22鄰","STREET":"安和路","SECT":"二段","MAREA":" ","LANE":"５４巷","ALLEY":" ","HOUSE_NO":"８１號","E_COORD97":169702.47,"N_COORD97":2548627.0099999998,"ADDRESS":"安和路二段５４巷８１號","OBJECTID":407182},"geometry":{"x":169702.46999999974,"y":2548627.0099999998}},{"attributes":{"ID":407207,"DIS_CODE":0,"TOWNNAME":"安南區","LI":"安東里","LIN":"22鄰","STREET":"安和路","SECT":"二段","MAREA":" ","LANE":"５４巷","ALLEY":" ","HOUSE_NO":"８１號之８","E_COORD97":169765.28,"N_COORD97":2548632.3500000001,"ADDRESS":"安和路二段５４巷８１號之８","OBJECTID":407183},"geometry":{"x":169765.28000000119,"y":2548632.3500000034}},{"attributes":{"ID":407208,"DIS_CODE":0,"TOWNNAME":"安南區","LI":"安東里","LIN":"22鄰","STREET":"安和路","SECT":"二段","MAREA":" ","LANE":"５４巷","ALLEY":" ","HOUSE_NO":"８１號之９","E_COORD97":169791.14999999999,"N_COORD97":2548624.1400000001,"ADDRESS":"安和路二段５４巷８１號之９","OBJECTID":407184},"geometry":{"x":169791.1500000013,"y":2548624.1400000006}},{"attributes":{"ID":407209,"DIS_CODE":0,"TOWNNAME":"新市區","LI":"港墘里","LIN":"22鄰","STREET":"華美街","SECT":" ","MAREA":" ","LANE":"１３巷","ALLEY":" ","HOUSE_NO":"１７號","E_COORD97":178038.98999999999,"N_COORD97":2552809.5499999998,"ADDRESS":"華美街１３巷１７號","OBJECTID":407185},"geometry":{"x":178038.99000000209,"y":2552809.5500000026}},{"attributes":{"ID":407210,"DIS_CODE":0,"TOWNNAME":"新市區","LI":"港墘里","LIN":"22鄰","STREET":"南港街","SECT":" ","MAREA":" ","LANE":"２６巷","ALLEY":" ","HOUSE_NO":"２２號","E_COORD97":178186.01000000001,"N_COORD97":2552830.5,"ADDRESS":"南港街２６巷２２號","OBJECTID":407186},"geometry":{"x":178186.01000000071,"y":2552830.5000000019}},{"attributes":{"ID":407211,"DIS_CODE":0,"TOWNNAME":"新市區","LI":"港墘里","LIN":"22鄰","STREET":"華美街","SECT":" ","MAREA":" ","LANE":"８巷","ALLEY":" ","HOUSE_NO":"１０號","E_COORD97":178152.09,"N_COORD97":2552799.2999999998,"ADDRESS":"華美街８巷１０號","OBJECTID":407187},"geometry":{"x":178152.09000000078,"y":2552799.3000000007}},{"attributes":{"ID":407212,"DIS_CODE":0,"TOWNNAME":"東區","LI":"崇學里","LIN":"22鄰","STREET":"崇學路","SECT":" ","MAREA":" ","LANE":"１６巷","ALLEY":" ","HOUSE_NO":"２２號","E_COORD97":170117.42000000001,"N_COORD97":2541981.4700000002,"ADDRESS":"崇學路１６巷２２號","OBJECTID":407188},"geometry":{"x":170117.42000000179,"y":2541981.4700000025}},{"attributes":{"ID":407213,"DIS_CODE":0,"TOWNNAME":"東區","LI":"崇學里","LIN":"22鄰","STREET":"崇學路","SECT":" ","MAREA":" ","LANE":"１６巷","ALLEY":" ","HOUSE_NO":"２４號","E_COORD97":170120.32000000001,"N_COORD97":2541977.6099999999,"ADDRESS":"崇學路１６巷２４號","OBJECTID":407189},"geometry":{"x":170120.32000000216,"y":2541977.6099999994}},{"attributes":{"ID":407214,"DIS_CODE":0,"TOWNNAME":"安南區","LI":"溪墘里","LIN":"27鄰","STREET":"海佃路","SECT":"一段","MAREA":" ","LANE":"１５８巷","ALLEY":" ","HOUSE_NO":"３８號","E_COORD97":167292.03,"N_COORD97":2547199.5,"ADDRESS":"海佃路一段１５８巷３８號","OBJECTID":407190},"geometry":{"x":167292.03000000119,"y":2547199.5}},{"attributes":{"ID":407215,"DIS_CODE":0,"TOWNNAME":"安南區","LI":"溪墘里","LIN":"27鄰","STREET":"海佃路","SECT":"一段","MAREA":" ","LANE":"１５８巷","ALLEY":" ","HOUSE_NO":"４２號","E_COORD97":167302.56,"N_COORD97":2547202.6400000001,"ADDRESS":"海佃路一段１５８巷４２號","OBJECTID":407191},"geometry":{"x":167302.56000000052,"y":2547202.6400000006}},{"attributes":{"ID":407216,"DIS_CODE":0,"TOWNNAME":"東區","LI":"圍下里","LIN":"22鄰","STREET":"衛民街","SECT":" ","MAREA":" ","LANE":"２４巷","ALLEY":" ","HOUSE_NO":"１０號","E_COORD97":169293.48000000001,"N_COORD97":2543808.6800000002,"ADDRESS":"衛民街２４巷１０號","OBJECTID":407192},"geometry":{"x":169293.48000000045,"y":2543808.6799999997}},{"attributes":{"ID":407217,"DIS_CODE":0,"TOWNNAME":"東區","LI":"圍下里","LIN":"22鄰","STREET":"衛民街","SECT":" ","MAREA":" ","LANE":"２４巷","ALLEY":" ","HOUSE_NO":"１１號","E_COORD97":169296.5,"N_COORD97":2543804.3300000001,"ADDRESS":"衛民街２４巷１１號","OBJECTID":407193},"geometry":{"x":169296.50000000186,"y":2543804.3300000001}},{"attributes":{"ID":407218,"DIS_CODE":0,"TOWNNAME":"東區","LI":"圍下里","LIN":"22鄰","STREET":"衛民街","SECT":" ","MAREA":" ","LANE":"２４巷","ALLEY":" ","HOUSE_NO":"１３號","E_COORD97":169274.88,"N_COORD97":2543813.3700000001,"ADDRESS":"衛民街２４巷１３號","OBJECTID":407194},"geometry":{"x":169274.87999999989,"y":2543813.3700000029}},{"attributes":{"ID":407219,"DIS_CODE":0,"TOWNNAME":"東區","LI":"圍下里","LIN":"22鄰","STREET":"衛民街","SECT":" ","MAREA":" ","LANE":"２４巷","ALLEY":" ","HOUSE_NO":"１４號","E_COORD97":169278.73000000001,"N_COORD97":2543813.04,"ADDRESS":"衛民街２４巷１４號","OBJECTID":407195},"geometry":{"x":169278.73000000138,"y":2543813.0400000028}},{"attributes":{"ID":407220,"DIS_CODE":0,"TOWNNAME":"東區","LI":"圍下里","LIN":"22鄰","STREET":"衛民街","SECT":" ","MAREA":" ","LANE":"２４巷","ALLEY":" ","HOUSE_NO":"１５號","E_COORD97":169283.09,"N_COORD97":2543812.7000000002,"ADDRESS":"衛民街２４巷１５號","OBJECTID":407196},"geometry":{"x":169283.08999999985,"y":2543812.7000000011}},{"attributes":{"ID":407221,"DIS_CODE":0,"TOWNNAME":"東區","LI":"圍下里","LIN":"22鄰","STREET":"衛民街","SECT":" ","MAREA":" ","LANE":"２４巷","ALLEY":" ","HOUSE_NO":"１６號","E_COORD97":169288.29000000001,"N_COORD97":2543813.8700000001,"ADDRESS":"衛民街２４巷１６號","OBJECTID":407197},"geometry":{"x":169288.29000000097,"y":2543813.8700000029}},{"attributes":{"ID":407222,"DIS_CODE":0,"TOWNNAME":"安南區","LI":"州南里","LIN":"22鄰","STREET":"安和路","SECT":"四段","MAREA":" ","LANE":"５３３巷","ALLEY":" ","HOUSE_NO":"７８號","E_COORD97":169770.94,"N_COORD97":2551265.8300000001,"ADDRESS":"安和路四段５３３巷７８號","OBJECTID":407198},"geometry":{"x":169770.94000000134,"y":2551265.8300000001}},{"attributes":{"ID":407223,"DIS_CODE":0,"TOWNNAME":"安南區","LI":"州南里","LIN":"22鄰","STREET":"安和路","SECT":"四段","MAREA":" ","LANE":"５３３巷","ALLEY":" ","HOUSE_NO":"８２號","E_COORD97":169762.75,"N_COORD97":2551264.2999999998,"ADDRESS":"安和路四段５３３巷８２號","OBJECTID":407199},"geometry":{"x":169762.75000000186,"y":2551264.3000000007}},{"attributes":{"ID":407224,"DIS_CODE":0,"TOWNNAME":"新營區","LI":"忠政里","LIN":"22鄰","STREET":"府西路","SECT":" ","MAREA":" ","LANE":"２０１巷","ALLEY":" ","HOUSE_NO":"４號","E_COORD97":179770.06,"N_COORD97":2579541.71,"ADDRESS":"府西路２０１巷４號","OBJECTID":407200},"geometry":{"x":179770.05999999959,"y":2579541.7100000028}}]}