{"displayFieldName":"TOWNNAME","fieldAliases":{"ID":"ID","DIS_CODE":"DIS_CODE","TOWNNAME":"TOWNNAME","LI":"LI","LIN":"LIN","STREET":"STREET","SECT":"SECT","MAREA":"MAREA","LANE":"LANE","ALLEY":"ALLEY","HOUSE_NO":"HOUSE_NO","E_COORD97":"E_COORD97","N_COORD97":"N_COORD97","ADDRESS":"ADDRESS","OBJECTID":"OBJECTID"},"geometryType":"esriGeometryPoint","spatialReference":{"wkid":102443,"latestWkid":3826},"fields":[{"name":"ID","type":"esriFieldTypeDouble","alias":"ID"},{"name":"DIS_CODE","type":"esriFieldTypeInteger","alias":"DIS_CODE"},{"name":"TOWNNAME","type":"esriFieldTypeString","alias":"TOWNNAME","length":8},{"name":"LI","type":"esriFieldTypeString","alias":"LI","length":8},{"name":"LIN","type":"esriFieldTypeString","alias":"LIN","length":12},{"name":"STREET","type":"esriFieldTypeString","alias":"STREET","length":20},{"name":"SECT","type":"esriFieldTypeString","alias":"SECT","length":8},{"name":"MAREA","type":"esriFieldTypeString","alias":"MAREA","length":12},{"name":"LANE","type":"esriFieldTypeString","alias":"LANE","length":10},{"name":"ALLEY","type":"esriFieldTypeString","alias":"ALLEY","length":10},{"name":"HOUSE_NO","type":"esriFieldTypeString","alias":"HOUSE_NO","length":20},{"name":"E_COORD97","type":"esriFieldTypeDouble","alias":"E_COORD97"},{"name":"N_COORD97","type":"esriFieldTypeDouble","alias":"N_COORD97"},{"name":"ADDRESS","type":"esriFieldTypeString","alias":"ADDRESS","length":50},{"name":"OBJECTID","type":"esriFieldTypeOID","alias":"OBJECTID"}],"features":[{"attributes":{"ID":377611,"DIS_CODE":0,"TOWNNAME":"新營區","LI":"新北里","LIN":"21鄰","STREET":"民生路","SECT":" ","MAREA":" ","LANE":"３３６巷","ALLEY":" ","HOUSE_NO":"７１號之１","E_COORD97":179042.64000000001,"N_COORD97":2579229.6200000001,"ADDRESS":"民生路３３６巷７１號之１","OBJECTID":377601},"geometry":{"x":179042.64000000153,"y":2579229.620000001}},{"attributes":{"ID":377612,"DIS_CODE":0,"TOWNNAME":"新營區","LI":"新北里","LIN":"21鄰","STREET":"民生路","SECT":" ","MAREA":" ","LANE":"３３６巷","ALLEY":" ","HOUSE_NO":"８１號","E_COORD97":179037.62,"N_COORD97":2579257.2799999998,"ADDRESS":"民生路３３６巷８１號","OBJECTID":377602},"geometry":{"x":179037.62000000011,"y":2579257.2799999993}},{"attributes":{"ID":377613,"DIS_CODE":0,"TOWNNAME":"安平區","LI":"建平里","LIN":"21鄰","STREET":"平通路","SECT":" ","MAREA":" ","LANE":"８４巷","ALLEY":" ","HOUSE_NO":"１號","E_COORD97":166046.98999999999,"N_COORD97":2543695.3500000001,"ADDRESS":"平通路８４巷１號","OBJECTID":377603},"geometry":{"x":166046.99000000022,"y":2543695.3499999996}},{"attributes":{"ID":377614,"DIS_CODE":0,"TOWNNAME":"安平區","LI":"建平里","LIN":"21鄰","STREET":"平通路","SECT":" ","MAREA":" ","LANE":"８４巷","ALLEY":" ","HOUSE_NO":"２號","E_COORD97":166062.17999999999,"N_COORD97":2543694.9900000002,"ADDRESS":"平通路８４巷２號","OBJECTID":377604},"geometry":{"x":166062.17999999877,"y":2543694.9900000002}},{"attributes":{"ID":377615,"DIS_CODE":0,"TOWNNAME":"安平區","LI":"建平里","LIN":"21鄰","STREET":"平通路","SECT":" ","MAREA":" ","LANE":"８４巷","ALLEY":" ","HOUSE_NO":"３號","E_COORD97":166073.48999999999,"N_COORD97":2543695.3500000001,"ADDRESS":"平通路８４巷３號","OBJECTID":377605},"geometry":{"x":166073.49000000022,"y":2543695.3499999996}},{"attributes":{"ID":377616,"DIS_CODE":0,"TOWNNAME":"安平區","LI":"文平里","LIN":"21鄰","STREET":"建平一街","SECT":" ","MAREA":" ","LANE":"２３巷","ALLEY":" ","HOUSE_NO":"１０號","E_COORD97":166034.67000000001,"N_COORD97":2542707.21,"ADDRESS":"建平一街２３巷１０號","OBJECTID":377606},"geometry":{"x":166034.66999999993,"y":2542707.2100000009}},{"attributes":{"ID":377617,"DIS_CODE":0,"TOWNNAME":"安平區","LI":"文平里","LIN":"21鄰","STREET":"建平一街","SECT":" ","MAREA":" ","LANE":"２３巷","ALLEY":" ","HOUSE_NO":"１１號","E_COORD97":166008.29999999999,"N_COORD97":2542711.5,"ADDRESS":"建平一街２３巷１１號","OBJECTID":377607},"geometry":{"x":166008.29999999981,"y":2542711.5}},{"attributes":{"ID":377618,"DIS_CODE":0,"TOWNNAME":"安平區","LI":"文平里","LIN":"21鄰","STREET":"建平一街","SECT":" ","MAREA":" ","LANE":"２３巷","ALLEY":" ","HOUSE_NO":"１號","E_COORD97":166006.39999999999,"N_COORD97":2542690.3300000001,"ADDRESS":"建平一街２３巷１號","OBJECTID":377608},"geometry":{"x":166006.40000000037,"y":2542690.3300000019}},{"attributes":{"ID":377619,"DIS_CODE":0,"TOWNNAME":"安平區","LI":"文平里","LIN":"21鄰","STREET":"建平一街","SECT":" ","MAREA":" ","LANE":"２３巷","ALLEY":" ","HOUSE_NO":"２號","E_COORD97":166032.38,"N_COORD97":2542686.8399999999,"ADDRESS":"建平一街２３巷２號","OBJECTID":377609},"geometry":{"x":166032.38000000175,"y":2542686.8400000017}},{"attributes":{"ID":377620,"DIS_CODE":0,"TOWNNAME":"安平區","LI":"文平里","LIN":"21鄰","STREET":"建平一街","SECT":" ","MAREA":" ","LANE":"２３巷","ALLEY":" ","HOUSE_NO":"２號之１","E_COORD97":166033.37,"N_COORD97":2542690.73,"ADDRESS":"建平一街２３巷２號之１","OBJECTID":377610},"geometry":{"x":166033.37000000104,"y":2542690.7300000042}},{"attributes":{"ID":377621,"DIS_CODE":0,"TOWNNAME":"安平區","LI":"文平里","LIN":"21鄰","STREET":"建平一街","SECT":" ","MAREA":" ","LANE":"２３巷","ALLEY":" ","HOUSE_NO":"３號","E_COORD97":166006.5,"N_COORD97":2542694.3300000001,"ADDRESS":"建平一街２３巷３號","OBJECTID":377611},"geometry":{"x":166006.50000000093,"y":2542694.3300000019}},{"attributes":{"ID":377622,"DIS_CODE":0,"TOWNNAME":"安平區","LI":"文平里","LIN":"21鄰","STREET":"建平一街","SECT":" ","MAREA":" ","LANE":"２３巷","ALLEY":" ","HOUSE_NO":"４號","E_COORD97":166033.17000000001,"N_COORD97":2542695.1299999999,"ADDRESS":"建平一街２３巷４號","OBJECTID":377612},"geometry":{"x":166033.16999999993,"y":2542695.129999999}},{"attributes":{"ID":377623,"DIS_CODE":0,"TOWNNAME":"安平區","LI":"文平里","LIN":"21鄰","STREET":"建平一街","SECT":" ","MAREA":" ","LANE":"２３巷","ALLEY":" ","HOUSE_NO":"５號","E_COORD97":166006.89999999999,"N_COORD97":2542698.52,"ADDRESS":"建平一街２３巷５號","OBJECTID":377613},"geometry":{"x":166006.90000000037,"y":2542698.5200000014}},{"attributes":{"ID":377624,"DIS_CODE":0,"TOWNNAME":"安平區","LI":"文平里","LIN":"21鄰","STREET":"建平一街","SECT":" ","MAREA":" ","LANE":"２３巷","ALLEY":" ","HOUSE_NO":"６號","E_COORD97":166033.76999999999,"N_COORD97":2542698.6200000001,"ADDRESS":"建平一街２３巷６號","OBJECTID":377614},"geometry":{"x":166033.76999999955,"y":2542698.620000001}},{"attributes":{"ID":377625,"DIS_CODE":0,"TOWNNAME":"安平區","LI":"文平里","LIN":"21鄰","STREET":"建平一街","SECT":" ","MAREA":" ","LANE":"２３巷","ALLEY":" ","HOUSE_NO":"７號","E_COORD97":166007.39999999999,"N_COORD97":2542703.1099999999,"ADDRESS":"建平一街２３巷７號","OBJECTID":377615},"geometry":{"x":166007.4000000013,"y":2542703.1099999994}},{"attributes":{"ID":377626,"DIS_CODE":0,"TOWNNAME":"安平區","LI":"文平里","LIN":"21鄰","STREET":"建平一街","SECT":" ","MAREA":" ","LANE":"２３巷","ALLEY":" ","HOUSE_NO":"８號","E_COORD97":166034.37,"N_COORD97":2542703.21,"ADDRESS":"建平一街２３巷８號","OBJECTID":377616},"geometry":{"x":166034.37000000197,"y":2542703.2100000028}},{"attributes":{"ID":377627,"DIS_CODE":0,"TOWNNAME":"安平區","LI":"文平里","LIN":"21鄰","STREET":"建平一街","SECT":" ","MAREA":" ","LANE":"２３巷","ALLEY":" ","HOUSE_NO":"９號","E_COORD97":166007.60000000001,"N_COORD97":2542707.0099999998,"ADDRESS":"建平一街２３巷９號","OBJECTID":377617},"geometry":{"x":166007.60000000056,"y":2542707.0099999998}},{"attributes":{"ID":377628,"DIS_CODE":0,"TOWNNAME":"南區","LI":"南華里","LIN":"21鄰","STREET":"中華南路","SECT":"二段","MAREA":" ","LANE":"３００巷","ALLEY":" ","HOUSE_NO":"１７號","E_COORD97":166705.82000000001,"N_COORD97":2540365.1699999999,"ADDRESS":"中華南路二段３００巷１７號","OBJECTID":377618},"geometry":{"x":166705.8200000003,"y":2540365.1700000018}},{"attributes":{"ID":377629,"DIS_CODE":0,"TOWNNAME":"南區","LI":"南華里","LIN":"21鄰","STREET":"中華南路","SECT":"二段","MAREA":" ","LANE":"３００巷","ALLEY":" ","HOUSE_NO":"１９號","E_COORD97":166705.82000000001,"N_COORD97":2540369.4399999999,"ADDRESS":"中華南路二段３００巷１９號","OBJECTID":377619},"geometry":{"x":166705.8200000003,"y":2540369.4400000032}},{"attributes":{"ID":377630,"DIS_CODE":0,"TOWNNAME":"南區","LI":"南華里","LIN":"21鄰","STREET":"中華南路","SECT":"二段","MAREA":" ","LANE":"３００巷","ALLEY":" ","HOUSE_NO":"２１號","E_COORD97":166706.29999999999,"N_COORD97":2540374.3100000001,"ADDRESS":"中華南路二段３００巷２１號","OBJECTID":377620},"geometry":{"x":166706.30000000075,"y":2540374.3100000005}},{"attributes":{"ID":377631,"DIS_CODE":0,"TOWNNAME":"南區","LI":"南華里","LIN":"21鄰","STREET":"中華南路","SECT":"二段","MAREA":" ","LANE":"３００巷","ALLEY":" ","HOUSE_NO":"２３號","E_COORD97":166706.64999999999,"N_COORD97":2540378.4700000002,"ADDRESS":"中華南路二段３００巷２３號","OBJECTID":377621},"geometry":{"x":166706.65000000037,"y":2540378.4700000025}},{"attributes":{"ID":377632,"DIS_CODE":0,"TOWNNAME":"南區","LI":"南華里","LIN":"21鄰","STREET":"中華南路","SECT":"二段","MAREA":" ","LANE":"３００巷","ALLEY":" ","HOUSE_NO":"７號","E_COORD97":166705.10999999999,"N_COORD97":2540342.8500000001,"ADDRESS":"中華南路二段３００巷７號","OBJECTID":377622},"geometry":{"x":166705.11000000034,"y":2540342.8500000034}},{"attributes":{"ID":377633,"DIS_CODE":0,"TOWNNAME":"南區","LI":"南華里","LIN":"21鄰","STREET":"中華南路","SECT":"二段","MAREA":" ","LANE":"３００巷","ALLEY":" ","HOUSE_NO":"９號","E_COORD97":166704.51000000001,"N_COORD97":2540347.3700000001,"ADDRESS":"中華南路二段３００巷９號","OBJECTID":377623},"geometry":{"x":166704.51000000071,"y":2540347.370000001}},{"attributes":{"ID":377634,"DIS_CODE":0,"TOWNNAME":"南區","LI":"建南里","LIN":"21鄰","STREET":"永成路","SECT":"二段","MAREA":" ","LANE":"８８１巷","ALLEY":" ","HOUSE_NO":"９號","E_COORD97":167462.23999999999,"N_COORD97":2540256.9399999999,"ADDRESS":"永成路二段８８１巷９號","OBJECTID":377624},"geometry":{"x":167462.24000000022,"y":2540256.9399999995}},{"attributes":{"ID":377635,"DIS_CODE":0,"TOWNNAME":"北區","LI":"大豐里","LIN":"21鄰","STREET":"大興街","SECT":" ","MAREA":" ","LANE":"２８５巷","ALLEY":" ","HOUSE_NO":"６３號","E_COORD97":166722.04000000001,"N_COORD97":2545543.1099999999,"ADDRESS":"大興街２８５巷６３號","OBJECTID":377625},"geometry":{"x":166722.04000000097,"y":2545543.1100000013}},{"attributes":{"ID":377636,"DIS_CODE":0,"TOWNNAME":"北區","LI":"大豐里","LIN":"21鄰","STREET":"大興街","SECT":" ","MAREA":" ","LANE":"２８５巷","ALLEY":" ","HOUSE_NO":"６７號","E_COORD97":166729.82000000001,"N_COORD97":2545544.1400000001,"ADDRESS":"大興街２８５巷６７號","OBJECTID":377626},"geometry":{"x":166729.82000000216,"y":2545544.1400000025}},{"attributes":{"ID":377637,"DIS_CODE":0,"TOWNNAME":"北區","LI":"大豐里","LIN":"21鄰","STREET":"大興街","SECT":" ","MAREA":" ","LANE":"２８５巷","ALLEY":" ","HOUSE_NO":"６９號","E_COORD97":166733.95000000001,"N_COORD97":2545545.4100000001,"ADDRESS":"大興街２８５巷６９號","OBJECTID":377627},"geometry":{"x":166733.95000000205,"y":2545545.410000002}},{"attributes":{"ID":377638,"DIS_CODE":0,"TOWNNAME":"北區","LI":"大豐里","LIN":"21鄰","STREET":"大興街","SECT":" ","MAREA":" ","LANE":"２８５巷","ALLEY":" ","HOUSE_NO":"７１號","E_COORD97":166735.38,"N_COORD97":2545533.8999999999,"ADDRESS":"大興街２８５巷７１號","OBJECTID":377628},"geometry":{"x":166735.37999999989,"y":2545533.8999999985}},{"attributes":{"ID":377639,"DIS_CODE":0,"TOWNNAME":"北區","LI":"大豐里","LIN":"21鄰","STREET":"大興街","SECT":" ","MAREA":" ","LANE":"２８５巷","ALLEY":" ","HOUSE_NO":"７３號","E_COORD97":166729.66,"N_COORD97":2545532.79,"ADDRESS":"大興街２８５巷７３號","OBJECTID":377629},"geometry":{"x":166729.66000000108,"y":2545532.7899999991}},{"attributes":{"ID":377640,"DIS_CODE":0,"TOWNNAME":"北區","LI":"大豐里","LIN":"21鄰","STREET":"大興街","SECT":" ","MAREA":" ","LANE":"２８５巷","ALLEY":" ","HOUSE_NO":"７５號","E_COORD97":166724.73999999999,"N_COORD97":2545532.71,"ADDRESS":"大興街２８５巷７５號","OBJECTID":377630},"geometry":{"x":166724.74000000022,"y":2545532.7100000046}},{"attributes":{"ID":377641,"DIS_CODE":0,"TOWNNAME":"北區","LI":"大豐里","LIN":"21鄰","STREET":"大興街","SECT":" ","MAREA":" ","LANE":"２８５巷","ALLEY":" ","HOUSE_NO":"７７號","E_COORD97":166719.82000000001,"N_COORD97":2545530.96,"ADDRESS":"大興街２８５巷７７號","OBJECTID":377631},"geometry":{"x":166719.82000000123,"y":2545530.9600000046}},{"attributes":{"ID":377642,"DIS_CODE":0,"TOWNNAME":"北區","LI":"成功里","LIN":"21鄰","STREET":"中華北路","SECT":"二段","MAREA":" ","LANE":"２５２巷","ALLEY":" ","HOUSE_NO":"６號","E_COORD97":168699.35999999999,"N_COORD97":2546897.7000000002,"ADDRESS":"中華北路二段２５２巷６號","OBJECTID":377632},"geometry":{"x":168699.3599999994,"y":2546897.7000000011}},{"attributes":{"ID":377643,"DIS_CODE":0,"TOWNNAME":"北區","LI":"成功里","LIN":"21鄰","STREET":"中華北路","SECT":"二段","MAREA":" ","LANE":"２５２巷","ALLEY":" ","HOUSE_NO":"６號之１","E_COORD97":168694.79000000001,"N_COORD97":2546896.4300000002,"ADDRESS":"中華北路二段２５２巷６號之１","OBJECTID":377633},"geometry":{"x":168694.79000000097,"y":2546896.4300000016}},{"attributes":{"ID":377644,"DIS_CODE":0,"TOWNNAME":"北區","LI":"成功里","LIN":"21鄰","STREET":"中華北路","SECT":"二段","MAREA":" ","LANE":"２５２巷","ALLEY":" ","HOUSE_NO":"６號之２","E_COORD97":168689.97,"N_COORD97":2546894.9100000001,"ADDRESS":"中華北路二段２５２巷６號之２","OBJECTID":377634},"geometry":{"x":168689.97000000067,"y":2546894.910000002}},{"attributes":{"ID":377645,"DIS_CODE":0,"TOWNNAME":"北區","LI":"成功里","LIN":"21鄰","STREET":"中華北路","SECT":"二段","MAREA":" ","LANE":"２５２巷","ALLEY":" ","HOUSE_NO":"６號之３","E_COORD97":168685.91,"N_COORD97":2546893.8999999999,"ADDRESS":"中華北路二段２５２巷６號之３","OBJECTID":377635},"geometry":{"x":168685.91000000108,"y":2546893.9000000022}},{"attributes":{"ID":377646,"DIS_CODE":0,"TOWNNAME":"北區","LI":"成功里","LIN":"21鄰","STREET":"中華北路","SECT":"二段","MAREA":" ","LANE":"２５２巷","ALLEY":" ","HOUSE_NO":"６號之５","E_COORD97":168680.59,"N_COORD97":2546893.1400000001,"ADDRESS":"中華北路二段２５２巷６號之５","OBJECTID":377636},"geometry":{"x":168680.59000000078,"y":2546893.1400000025}},{"attributes":{"ID":377647,"DIS_CODE":0,"TOWNNAME":"新營區","LI":"忠政里","LIN":"21鄰","STREET":"府西路","SECT":" ","MAREA":" ","LANE":"２３１巷","ALLEY":" ","HOUSE_NO":"６號","E_COORD97":179763.14999999999,"N_COORD97":2579610.4100000001,"ADDRESS":"府西路２３１巷６號","OBJECTID":377637},"geometry":{"x":179763.15000000037,"y":2579610.4100000039}},{"attributes":{"ID":377648,"DIS_CODE":0,"TOWNNAME":"新營區","LI":"新南里","LIN":"21鄰","STREET":"復興路","SECT":" ","MAREA":" ","LANE":"３７８巷","ALLEY":" ","HOUSE_NO":"６號","E_COORD97":178539.32000000001,"N_COORD97":2578218.6600000001,"ADDRESS":"復興路３７８巷６號","OBJECTID":377638},"geometry":{"x":178539.32000000123,"y":2578218.6600000039}},{"attributes":{"ID":377649,"DIS_CODE":0,"TOWNNAME":"新營區","LI":"新南里","LIN":"21鄰","STREET":"復興路","SECT":" ","MAREA":" ","LANE":"３７８巷","ALLEY":" ","HOUSE_NO":"９號之３","E_COORD97":178502.79999999999,"N_COORD97":2578249.8999999999,"ADDRESS":"復興路３７８巷９號之３","OBJECTID":377639},"geometry":{"x":178502.80000000075,"y":2578249.9000000004}},{"attributes":{"ID":377650,"DIS_CODE":0,"TOWNNAME":"新營區","LI":"新南里","LIN":"21鄰","STREET":"復興路","SECT":" ","MAREA":" ","LANE":"３７８巷","ALLEY":" ","HOUSE_NO":"１９號之７","E_COORD97":178498.06,"N_COORD97":2578279.8300000001,"ADDRESS":"復興路３７８巷１９號之７","OBJECTID":377640},"geometry":{"x":178498.05999999959,"y":2578279.8300000019}},{"attributes":{"ID":377651,"DIS_CODE":0,"TOWNNAME":"新營區","LI":"大宏里","LIN":"21鄰","STREET":"三民路","SECT":" ","MAREA":" ","LANE":"８巷","ALLEY":" ","HOUSE_NO":"２號","E_COORD97":180615.44,"N_COORD97":2578573.1400000001,"ADDRESS":"三民路８巷２號","OBJECTID":377641},"geometry":{"x":180615.44000000041,"y":2578573.1400000025}},{"attributes":{"ID":377652,"DIS_CODE":0,"TOWNNAME":"北區","LI":"大豐里","LIN":"21鄰","STREET":"大興街","SECT":" ","MAREA":" ","LANE":"２８５巷","ALLEY":" ","HOUSE_NO":"８號","E_COORD97":166691.57999999999,"N_COORD97":2545657.9500000002,"ADDRESS":"大興街２８５巷８號","OBJECTID":377642},"geometry":{"x":166691.58000000007,"y":2545657.950000003}},{"attributes":{"ID":377653,"DIS_CODE":0,"TOWNNAME":"北區","LI":"成德里","LIN":"21鄰","STREET":"育成路","SECT":" ","MAREA":" ","LANE":"３１８巷","ALLEY":" ","HOUSE_NO":"５號","E_COORD97":168528.56,"N_COORD97":2546865.2599999998,"ADDRESS":"育成路３１８巷５號","OBJECTID":377643},"geometry":{"x":168528.56000000052,"y":2546865.2599999998}},{"attributes":{"ID":377654,"DIS_CODE":0,"TOWNNAME":"新營區","LI":"忠政里","LIN":"21鄰","STREET":"府西路","SECT":" ","MAREA":" ","LANE":"２３１巷","ALLEY":" ","HOUSE_NO":"７號","E_COORD97":179761.07000000001,"N_COORD97":2579598.2400000002,"ADDRESS":"府西路２３１巷７號","OBJECTID":377644},"geometry":{"x":179761.07000000123,"y":2579598.2400000039}},{"attributes":{"ID":377655,"DIS_CODE":0,"TOWNNAME":"新營區","LI":"新南里","LIN":"21鄰","STREET":"復興路","SECT":" ","MAREA":" ","LANE":"３７８巷","ALLEY":" ","HOUSE_NO":"７號之６","E_COORD97":178482.32999999999,"N_COORD97":2578235.6000000001,"ADDRESS":"復興路３７８巷７號之６","OBJECTID":377645},"geometry":{"x":178482.33000000194,"y":2578235.6000000034}},{"attributes":{"ID":377656,"DIS_CODE":0,"TOWNNAME":"新營區","LI":"南紙里","LIN":"21鄰","STREET":"建業路","SECT":" ","MAREA":" ","LANE":"２２７巷","ALLEY":" ","HOUSE_NO":"８號","E_COORD97":178110.13,"N_COORD97":2577449.9399999999,"ADDRESS":"建業路２２７巷８號","OBJECTID":377646},"geometry":{"x":178110.12999999989,"y":2577449.9400000032}},{"attributes":{"ID":377657,"DIS_CODE":0,"TOWNNAME":"新營區","LI":"王公里","LIN":"21鄰","STREET":"民族路","SECT":" ","MAREA":" ","LANE":"１５０巷","ALLEY":" ","HOUSE_NO":"２８之１號","E_COORD97":180532.79999999999,"N_COORD97":2579345.4900000002,"ADDRESS":"民族路１５０巷２８之１號","OBJECTID":377647},"geometry":{"x":180532.79999999981,"y":2579345.4900000039}},{"attributes":{"ID":377658,"DIS_CODE":0,"TOWNNAME":"新營區","LI":"南興里","LIN":"21鄰","STREET":"延平路","SECT":" ","MAREA":" ","LANE":"１４０巷","ALLEY":" ","HOUSE_NO":"４４號","E_COORD97":179651.87,"N_COORD97":2577438.1200000001,"ADDRESS":"延平路１４０巷４４號","OBJECTID":377648},"geometry":{"x":179651.87000000197,"y":2577438.1200000029}},{"attributes":{"ID":377659,"DIS_CODE":0,"TOWNNAME":"歸仁區","LI":"六甲里","LIN":"21鄰","STREET":"中正十八街","SECT":" ","MAREA":" ","LANE":"２巷","ALLEY":" ","HOUSE_NO":"３號","E_COORD97":176403.39000000001,"N_COORD97":2539689.7400000002,"ADDRESS":"中正十八街２巷３號","OBJECTID":377649},"geometry":{"x":176403.3900000006,"y":2539689.7399999984}},{"attributes":{"ID":377660,"DIS_CODE":0,"TOWNNAME":"安平區","LI":"文平里","LIN":"21鄰","STREET":"健康一街","SECT":" ","MAREA":" ","LANE":"１６巷","ALLEY":" ","HOUSE_NO":"１６號","E_COORD97":165963.88,"N_COORD97":2542680.1200000001,"ADDRESS":"健康一街１６巷１６號","OBJECTID":377650},"geometry":{"x":165963.87999999989,"y":2542680.1200000029}},{"attributes":{"ID":377661,"DIS_CODE":0,"TOWNNAME":"安平區","LI":"文平里","LIN":"21鄰","STREET":"健康一街","SECT":" ","MAREA":" ","LANE":"１６巷","ALLEY":" ","HOUSE_NO":"１８號","E_COORD97":165969.91,"N_COORD97":2542680.4399999999,"ADDRESS":"健康一街１６巷１８號","OBJECTID":377651},"geometry":{"x":165969.91000000108,"y":2542680.4399999995}},{"attributes":{"ID":377662,"DIS_CODE":0,"TOWNNAME":"安平區","LI":"文平里","LIN":"21鄰","STREET":"健康一街","SECT":" ","MAREA":" ","LANE":"１６巷","ALLEY":" ","HOUSE_NO":"２０號","E_COORD97":165975.79000000001,"N_COORD97":2542677.1000000001,"ADDRESS":"健康一街１６巷２０號","OBJECTID":377652},"geometry":{"x":165975.79000000097,"y":2542677.1000000034}},{"attributes":{"ID":377663,"DIS_CODE":0,"TOWNNAME":"安平區","LI":"文平里","LIN":"21鄰","STREET":"健康一街","SECT":" ","MAREA":" ","LANE":"１６巷","ALLEY":" ","HOUSE_NO":"２２號","E_COORD97":165981.66,"N_COORD97":2542678.21,"ADDRESS":"健康一街１６巷２２號","OBJECTID":377653},"geometry":{"x":165981.66000000108,"y":2542678.2100000028}},{"attributes":{"ID":377664,"DIS_CODE":0,"TOWNNAME":"安平區","LI":"文平里","LIN":"21鄰","STREET":"健康一街","SECT":" ","MAREA":" ","LANE":"１６巷","ALLEY":" ","HOUSE_NO":"２６號","E_COORD97":165989.76000000001,"N_COORD97":2542676.7799999998,"ADDRESS":"健康一街１６巷２６號","OBJECTID":377654},"geometry":{"x":165989.75999999978,"y":2542676.7800000012}},{"attributes":{"ID":377665,"DIS_CODE":0,"TOWNNAME":"安平區","LI":"文平里","LIN":"21鄰","STREET":"健康一街","SECT":" ","MAREA":" ","LANE":"１６巷","ALLEY":" ","HOUSE_NO":"２號","E_COORD97":165938.26999999999,"N_COORD97":2542684.23,"ADDRESS":"健康一街１６巷２號","OBJECTID":377655},"geometry":{"x":165938.27000000048,"y":2542684.2300000042}},{"attributes":{"ID":377666,"DIS_CODE":0,"TOWNNAME":"安平區","LI":"文平里","LIN":"21鄰","STREET":"健康一街","SECT":" ","MAREA":" ","LANE":"１６巷","ALLEY":" ","HOUSE_NO":"６號","E_COORD97":165941.39000000001,"N_COORD97":2542684.3599999999,"ADDRESS":"健康一街１６巷６號","OBJECTID":377656},"geometry":{"x":165941.38999999966,"y":2542684.3599999994}},{"attributes":{"ID":377667,"DIS_CODE":0,"TOWNNAME":"安平區","LI":"文平里","LIN":"21鄰","STREET":"健康一街","SECT":" ","MAREA":" ","LANE":"１６巷","ALLEY":" ","HOUSE_NO":"８號","E_COORD97":165948.01000000001,"N_COORD97":2542682.02,"ADDRESS":"健康一街１６巷８號","OBJECTID":377657},"geometry":{"x":165948.00999999978,"y":2542682.0200000014}},{"attributes":{"ID":377668,"DIS_CODE":0,"TOWNNAME":"安平區","LI":"文平里","LIN":"21鄰","STREET":"健康一街","SECT":" ","MAREA":" ","LANE":"８巷","ALLEY":" ","HOUSE_NO":"１０號","E_COORD97":165950.39000000001,"N_COORD97":2542654.5600000001,"ADDRESS":"健康一街８巷１０號","OBJECTID":377658},"geometry":{"x":165950.38999999966,"y":2542654.5600000042}},{"attributes":{"ID":377669,"DIS_CODE":0,"TOWNNAME":"安平區","LI":"文平里","LIN":"21鄰","STREET":"健康一街","SECT":" ","MAREA":" ","LANE":"８巷","ALLEY":" ","HOUSE_NO":"１１號","E_COORD97":165963.09,"N_COORD97":2542668.5299999998,"ADDRESS":"健康一街８巷１１號","OBJECTID":377659},"geometry":{"x":165963.09000000171,"y":2542668.5300000012}},{"attributes":{"ID":377670,"DIS_CODE":0,"TOWNNAME":"安平區","LI":"文平里","LIN":"21鄰","STREET":"健康一街","SECT":" ","MAREA":" ","LANE":"８巷","ALLEY":" ","HOUSE_NO":"１２號","E_COORD97":165956.42000000001,"N_COORD97":2542652.02,"ADDRESS":"健康一街８巷１２號","OBJECTID":377660},"geometry":{"x":165956.42000000086,"y":2542652.0200000014}},{"attributes":{"ID":377671,"DIS_CODE":0,"TOWNNAME":"南區","LI":"文南里","LIN":"21鄰","STREET":"中華西路","SECT":"一段","MAREA":" ","LANE":"１３７巷","ALLEY":" ","HOUSE_NO":"１２號","E_COORD97":166473.54999999999,"N_COORD97":2542476.9100000001,"ADDRESS":"中華西路一段１３７巷１２號","OBJECTID":377661},"geometry":{"x":166473.55000000168,"y":2542476.910000002}},{"attributes":{"ID":377672,"DIS_CODE":0,"TOWNNAME":"南區","LI":"文南里","LIN":"21鄰","STREET":"中華西路","SECT":"一段","MAREA":" ","LANE":"１３７巷","ALLEY":" ","HOUSE_NO":"１４號","E_COORD97":166468.20999999999,"N_COORD97":2542477.8900000001,"ADDRESS":"中華西路一段１３７巷１４號","OBJECTID":377662},"geometry":{"x":166468.21000000089,"y":2542477.8900000025}},{"attributes":{"ID":377673,"DIS_CODE":0,"TOWNNAME":"南區","LI":"文南里","LIN":"21鄰","STREET":"中華西路","SECT":"一段","MAREA":" ","LANE":"１３７巷","ALLEY":" ","HOUSE_NO":"１６號","E_COORD97":166463.31,"N_COORD97":2542478.6000000001,"ADDRESS":"中華西路一段１３７巷１６號","OBJECTID":377663},"geometry":{"x":166463.31000000052,"y":2542478.6000000015}},{"attributes":{"ID":377674,"DIS_CODE":0,"TOWNNAME":"南區","LI":"文南里","LIN":"21鄰","STREET":"中華西路","SECT":"一段","MAREA":" ","LANE":"１３７巷","ALLEY":" ","HOUSE_NO":"１８號","E_COORD97":166457.35000000001,"N_COORD97":2542478.6899999999,"ADDRESS":"中華西路一段１３７巷１８號","OBJECTID":377664},"geometry":{"x":166457.34999999963,"y":2542478.6899999995}},{"attributes":{"ID":377675,"DIS_CODE":0,"TOWNNAME":"南區","LI":"文南里","LIN":"21鄰","STREET":"中華西路","SECT":"一段","MAREA":" ","LANE":"１３７巷","ALLEY":" ","HOUSE_NO":"２２號","E_COORD97":166436.85999999999,"N_COORD97":2542482.29,"ADDRESS":"中華西路一段１３７巷２２號","OBJECTID":377665},"geometry":{"x":166436.86000000127,"y":2542482.2900000028}},{"attributes":{"ID":377676,"DIS_CODE":0,"TOWNNAME":"南區","LI":"文南里","LIN":"21鄰","STREET":"中華西路","SECT":"一段","MAREA":" ","LANE":"１３７巷","ALLEY":" ","HOUSE_NO":"２４號","E_COORD97":166429.56,"N_COORD97":2542482.9199999999,"ADDRESS":"中華西路一段１３７巷２４號","OBJECTID":377666},"geometry":{"x":166429.56000000052,"y":2542482.9200000018}},{"attributes":{"ID":377677,"DIS_CODE":0,"TOWNNAME":"南區","LI":"文南里","LIN":"21鄰","STREET":"中華西路","SECT":"一段","MAREA":" ","LANE":"１３７巷","ALLEY":" ","HOUSE_NO":"２６號","E_COORD97":166423.28,"N_COORD97":2542483.6200000001,"ADDRESS":"中華西路一段１３７巷２６號","OBJECTID":377667},"geometry":{"x":166423.28000000212,"y":2542483.620000001}},{"attributes":{"ID":377678,"DIS_CODE":0,"TOWNNAME":"南區","LI":"文南里","LIN":"21鄰","STREET":"中華西路","SECT":"一段","MAREA":" ","LANE":"１３７巷","ALLEY":" ","HOUSE_NO":"２８號","E_COORD97":166417.14000000001,"N_COORD97":2542484.5,"ADDRESS":"中華西路一段１３７巷２８號","OBJECTID":377668},"geometry":{"x":166417.1400000006,"y":2542484.5}},{"attributes":{"ID":377679,"DIS_CODE":0,"TOWNNAME":"鹽水區","LI":"橋南里","LIN":"21鄰","STREET":"新中路","SECT":" ","MAREA":" ","LANE":"８２巷","ALLEY":" ","HOUSE_NO":"６４號","E_COORD97":175864.10999999999,"N_COORD97":2578676.3799999999,"ADDRESS":"新中路８２巷６４號","OBJECTID":377669},"geometry":{"x":175864.11000000127,"y":2578676.379999999}},{"attributes":{"ID":377680,"DIS_CODE":0,"TOWNNAME":"鹽水區","LI":"橋南里","LIN":"21鄰","STREET":"新中路","SECT":" ","MAREA":" ","LANE":"８２巷","ALLEY":" ","HOUSE_NO":"６６號","E_COORD97":175860.19,"N_COORD97":2578676.8599999999,"ADDRESS":"新中路８２巷６６號","OBJECTID":377670},"geometry":{"x":175860.19000000134,"y":2578676.8599999994}},{"attributes":{"ID":377681,"DIS_CODE":0,"TOWNNAME":"鹽水區","LI":"橋南里","LIN":"21鄰","STREET":"新中路","SECT":" ","MAREA":" ","LANE":"８２巷","ALLEY":" ","HOUSE_NO":"６８號","E_COORD97":175855.10999999999,"N_COORD97":2578677.1699999999,"ADDRESS":"新中路８２巷６８號","OBJECTID":377671},"geometry":{"x":175855.11000000127,"y":2578677.1700000018}},{"attributes":{"ID":377682,"DIS_CODE":0,"TOWNNAME":"鹽水區","LI":"橋南里","LIN":"21鄰","STREET":"新中路","SECT":" ","MAREA":" ","LANE":"８２巷","ALLEY":" ","HOUSE_NO":"８８號","E_COORD97":175807.64000000001,"N_COORD97":2578682.73,"ADDRESS":"新中路８２巷８８號","OBJECTID":377672},"geometry":{"x":175807.63999999966,"y":2578682.7299999986}},{"attributes":{"ID":377683,"DIS_CODE":0,"TOWNNAME":"鹽水區","LI":"橋南里","LIN":"21鄰","STREET":"新中路","SECT":" ","MAREA":" ","LANE":"８２巷","ALLEY":" ","HOUSE_NO":"８２號","E_COORD97":175820.07000000001,"N_COORD97":2578679.48,"ADDRESS":"新中路８２巷８２號","OBJECTID":377673},"geometry":{"x":175820.07000000123,"y":2578679.4800000023}},{"attributes":{"ID":377684,"DIS_CODE":0,"TOWNNAME":"鹽水區","LI":"橋南里","LIN":"21鄰","STREET":"新中路","SECT":" ","MAREA":" ","LANE":"８２巷","ALLEY":" ","HOUSE_NO":"８４號","E_COORD97":175815.92000000001,"N_COORD97":2578680.5600000001,"ADDRESS":"新中路８２巷８４號","OBJECTID":377674},"geometry":{"x":175815.91999999993,"y":2578680.5600000005}},{"attributes":{"ID":377685,"DIS_CODE":0,"TOWNNAME":"鹽水區","LI":"橋南里","LIN":"21鄰","STREET":"新中路","SECT":" ","MAREA":" ","LANE":"８２巷","ALLEY":" ","HOUSE_NO":"８６號","E_COORD97":175811.78,"N_COORD97":2578681.6400000001,"ADDRESS":"新中路８２巷８６號","OBJECTID":377675},"geometry":{"x":175811.78000000119,"y":2578681.6400000025}},{"attributes":{"ID":377686,"DIS_CODE":0,"TOWNNAME":"鹽水區","LI":"橋南里","LIN":"21鄰","STREET":"新中路","SECT":" ","MAREA":" ","LANE":"８２巷","ALLEY":" ","HOUSE_NO":"９０號","E_COORD97":175803.48999999999,"N_COORD97":2578683.8100000001,"ADDRESS":"新中路８２巷９０號","OBJECTID":377676},"geometry":{"x":175803.49000000115,"y":2578683.8100000024}},{"attributes":{"ID":377687,"DIS_CODE":0,"TOWNNAME":"鹽水區","LI":"橋南里","LIN":"21鄰","STREET":"新中路","SECT":" ","MAREA":" ","LANE":"８２巷","ALLEY":" ","HOUSE_NO":"９２號","E_COORD97":175799.35000000001,"N_COORD97":2578684.8999999999,"ADDRESS":"新中路８２巷９２號","OBJECTID":377677},"geometry":{"x":175799.34999999963,"y":2578684.8999999985}},{"attributes":{"ID":377688,"DIS_CODE":0,"TOWNNAME":"鹽水區","LI":"橋南里","LIN":"21鄰","STREET":"新中路","SECT":" ","MAREA":" ","LANE":"８２巷","ALLEY":" ","HOUSE_NO":"９４號","E_COORD97":175795.20999999999,"N_COORD97":2578685.98,"ADDRESS":"新中路８２巷９４號","OBJECTID":377678},"geometry":{"x":175795.21000000089,"y":2578685.9800000023}},{"attributes":{"ID":377689,"DIS_CODE":0,"TOWNNAME":"南區","LI":"開南里","LIN":"21鄰","STREET":"新建路","SECT":" ","MAREA":" ","LANE":"４１巷","ALLEY":" ","HOUSE_NO":"１１號","E_COORD97":166538.66,"N_COORD97":2540996.7400000002,"ADDRESS":"新建路４１巷１１號","OBJECTID":377679},"geometry":{"x":166538.66000000015,"y":2540996.7400000021}},{"attributes":{"ID":377690,"DIS_CODE":0,"TOWNNAME":"南區","LI":"開南里","LIN":"21鄰","STREET":"新建路","SECT":" ","MAREA":" ","LANE":"４１巷","ALLEY":" ","HOUSE_NO":"２號","E_COORD97":166477.91,"N_COORD97":2540973,"ADDRESS":"新建路４１巷２號","OBJECTID":377680},"geometry":{"x":166477.91000000015,"y":2540973.0000000037}},{"attributes":{"ID":377691,"DIS_CODE":0,"TOWNNAME":"南區","LI":"開南里","LIN":"21鄰","STREET":"新建路","SECT":" ","MAREA":" ","LANE":"４１巷","ALLEY":" ","HOUSE_NO":"３號","E_COORD97":166503.38,"N_COORD97":2540997.3900000001,"ADDRESS":"新建路４１巷３號","OBJECTID":377681},"geometry":{"x":166503.37999999989,"y":2540997.3900000006}},{"attributes":{"ID":377692,"DIS_CODE":0,"TOWNNAME":"南區","LI":"開南里","LIN":"21鄰","STREET":"新建路","SECT":" ","MAREA":" ","LANE":"４１巷","ALLEY":" ","HOUSE_NO":"４號","E_COORD97":166488.54000000001,"N_COORD97":2540972.3599999999,"ADDRESS":"新建路４１巷４號","OBJECTID":377682},"geometry":{"x":166488.54000000004,"y":2540972.3599999994}},{"attributes":{"ID":377693,"DIS_CODE":0,"TOWNNAME":"南區","LI":"開南里","LIN":"21鄰","STREET":"新建路","SECT":" ","MAREA":" ","LANE":"４１巷","ALLEY":" ","HOUSE_NO":"５號","E_COORD97":166516.59,"N_COORD97":2540997.0600000001,"ADDRESS":"新建路４１巷５號","OBJECTID":377683},"geometry":{"x":166516.58999999985,"y":2540997.0600000024}},{"attributes":{"ID":377694,"DIS_CODE":0,"TOWNNAME":"南區","LI":"開南里","LIN":"21鄰","STREET":"新建路","SECT":" ","MAREA":" ","LANE":"４１巷","ALLEY":" ","HOUSE_NO":"６號","E_COORD97":166509.64999999999,"N_COORD97":2540973,"ADDRESS":"新建路４１巷６號","OBJECTID":377684},"geometry":{"x":166509.6500000013,"y":2540973.0000000037}},{"attributes":{"ID":377695,"DIS_CODE":0,"TOWNNAME":"南區","LI":"開南里","LIN":"21鄰","STREET":"新建路","SECT":" ","MAREA":" ","LANE":"４１巷","ALLEY":" ","HOUSE_NO":"７號","E_COORD97":166521.26000000001,"N_COORD97":2540997.0600000001,"ADDRESS":"新建路４１巷７號","OBJECTID":377685},"geometry":{"x":166521.26000000164,"y":2540997.0600000024}},{"attributes":{"ID":377696,"DIS_CODE":0,"TOWNNAME":"南區","LI":"開南里","LIN":"21鄰","STREET":"新建路","SECT":" ","MAREA":" ","LANE":"４１巷","ALLEY":" ","HOUSE_NO":"８號","E_COORD97":166520.60000000001,"N_COORD97":2540972.6800000002,"ADDRESS":"新建路４１巷８號","OBJECTID":377686},"geometry":{"x":166520.60000000056,"y":2540972.6800000016}},{"attributes":{"ID":377697,"DIS_CODE":0,"TOWNNAME":"南區","LI":"開南里","LIN":"21鄰","STREET":"新建路","SECT":" ","MAREA":" ","LANE":"４１巷","ALLEY":" ","HOUSE_NO":"９號","E_COORD97":166533.82000000001,"N_COORD97":2540996.7400000002,"ADDRESS":"新建路４１巷９號","OBJECTID":377687},"geometry":{"x":166533.82000000123,"y":2540996.7400000021}},{"attributes":{"ID":377698,"DIS_CODE":0,"TOWNNAME":"歸仁區","LI":"崙頂里","LIN":"21鄰","STREET":"大成路","SECT":" ","MAREA":" ","LANE":"１８２巷","ALLEY":" ","HOUSE_NO":"４３號","E_COORD97":177686.17000000001,"N_COORD97":2540118.25,"ADDRESS":"大成路１８２巷４３號","OBJECTID":377688},"geometry":{"x":177686.16999999993,"y":2540118.2500000019}},{"attributes":{"ID":377699,"DIS_CODE":0,"TOWNNAME":"北區","LI":"成德里","LIN":"21鄰","STREET":"育成路","SECT":" ","MAREA":" ","LANE":"３１８巷","ALLEY":" ","HOUSE_NO":"３２號","E_COORD97":168553.75,"N_COORD97":2546838.0600000001,"ADDRESS":"育成路３１８巷３２號","OBJECTID":377689},"geometry":{"x":168553.75,"y":2546838.0600000005}},{"attributes":{"ID":377700,"DIS_CODE":0,"TOWNNAME":"北區","LI":"成德里","LIN":"21鄰","STREET":"育成路","SECT":" ","MAREA":" ","LANE":"３１８巷","ALLEY":" ","HOUSE_NO":"３６號","E_COORD97":168555.92000000001,"N_COORD97":2546833.2799999998,"ADDRESS":"育成路３１８巷３６號","OBJECTID":377690},"geometry":{"x":168555.91999999993,"y":2546833.2800000012}},{"attributes":{"ID":377701,"DIS_CODE":0,"TOWNNAME":"北區","LI":"成德里","LIN":"21鄰","STREET":"育成路","SECT":" ","MAREA":" ","LANE":"３１８巷","ALLEY":" ","HOUSE_NO":"３８號","E_COORD97":168556.54999999999,"N_COORD97":2546828.3300000001,"ADDRESS":"育成路３１８巷３８號","OBJECTID":377691},"geometry":{"x":168556.54999999981,"y":2546828.3300000001}},{"attributes":{"ID":377702,"DIS_CODE":0,"TOWNNAME":"北區","LI":"成德里","LIN":"21鄰","STREET":"育成路","SECT":" ","MAREA":" ","LANE":"３１８巷","ALLEY":" ","HOUSE_NO":"４０號","E_COORD97":168568.60000000001,"N_COORD97":2546829.3700000001,"ADDRESS":"育成路３１８巷４０號","OBJECTID":377692},"geometry":{"x":168568.60000000056,"y":2546829.370000001}},{"attributes":{"ID":377703,"DIS_CODE":0,"TOWNNAME":"北區","LI":"成德里","LIN":"21鄰","STREET":"育成路","SECT":" ","MAREA":" ","LANE":"３１８巷","ALLEY":" ","HOUSE_NO":"４２號","E_COORD97":168568.59,"N_COORD97":2546834.3700000001,"ADDRESS":"育成路３１８巷４２號","OBJECTID":377693},"geometry":{"x":168568.59000000171,"y":2546834.3700000029}},{"attributes":{"ID":377704,"DIS_CODE":0,"TOWNNAME":"北區","LI":"成德里","LIN":"21鄰","STREET":"育成路","SECT":" ","MAREA":" ","LANE":"３１８巷","ALLEY":" ","HOUSE_NO":"４６號","E_COORD97":168568.34,"N_COORD97":2546839.3100000001,"ADDRESS":"育成路３１８巷４６號","OBJECTID":377694},"geometry":{"x":168568.33999999985,"y":2546839.3100000005}},{"attributes":{"ID":377705,"DIS_CODE":0,"TOWNNAME":"北區","LI":"成德里","LIN":"21鄰","STREET":"育成路","SECT":" ","MAREA":" ","LANE":"３１８巷","ALLEY":" ","HOUSE_NO":"４８號","E_COORD97":168568.22,"N_COORD97":2546844.2599999998,"ADDRESS":"育成路３１８巷４８號","OBJECTID":377695},"geometry":{"x":168568.22000000067,"y":2546844.2600000016}},{"attributes":{"ID":377706,"DIS_CODE":0,"TOWNNAME":"北區","LI":"成德里","LIN":"21鄰","STREET":"育成路","SECT":" ","MAREA":" ","LANE":"３１８巷","ALLEY":" ","HOUSE_NO":"５０號","E_COORD97":168568.26999999999,"N_COORD97":2546849.23,"ADDRESS":"育成路３１８巷５０號","OBJECTID":377696},"geometry":{"x":168568.26999999955,"y":2546849.2300000004}},{"attributes":{"ID":377707,"DIS_CODE":0,"TOWNNAME":"北區","LI":"成德里","LIN":"21鄰","STREET":"育成路","SECT":" ","MAREA":" ","LANE":"３１８巷","ALLEY":" ","HOUSE_NO":"５２號","E_COORD97":168571,"N_COORD97":2546856.9100000001,"ADDRESS":"育成路３１８巷５２號","OBJECTID":377697},"geometry":{"x":168571.00000000186,"y":2546856.910000002}},{"attributes":{"ID":377708,"DIS_CODE":0,"TOWNNAME":"南區","LI":"文南里","LIN":"21鄰","STREET":"健康路","SECT":"二段","MAREA":" ","LANE":"４８９巷","ALLEY":" ","HOUSE_NO":"７號","E_COORD97":166369.85000000001,"N_COORD97":2542515.7799999998,"ADDRESS":"健康路二段４８９巷７號","OBJECTID":377698},"geometry":{"x":166369.85000000056,"y":2542515.7799999993}},{"attributes":{"ID":377709,"DIS_CODE":0,"TOWNNAME":"永康區","LI":"光復里","LIN":"21鄰","STREET":"復興路","SECT":" ","MAREA":" ","LANE":"１２８巷","ALLEY":" ","HOUSE_NO":"８０號","E_COORD97":172577.12,"N_COORD97":2544384.02,"ADDRESS":"復興路１２８巷８０號","OBJECTID":377699},"geometry":{"x":172577.12000000011,"y":2544384.0200000014}},{"attributes":{"ID":377710,"DIS_CODE":0,"TOWNNAME":"永康區","LI":"甲頂里","LIN":"21鄰","STREET":"中正南路","SECT":" ","MAREA":" ","LANE":"５２巷","ALLEY":" ","HOUSE_NO":"１０號","E_COORD97":169710.19,"N_COORD97":2546739.5,"ADDRESS":"中正南路５２巷１０號","OBJECTID":377700},"geometry":{"x":169710.19000000041,"y":2546739.5}},{"attributes":{"ID":377711,"DIS_CODE":0,"TOWNNAME":"東區","LI":"德光里","LIN":"21鄰","STREET":"崇明路","SECT":" ","MAREA":" ","LANE":"１５５巷","ALLEY":" ","HOUSE_NO":"１０號","E_COORD97":169963.64999999999,"N_COORD97":2542187.29,"ADDRESS":"崇明路１５５巷１０號","OBJECTID":377701},"geometry":{"x":169963.65000000037,"y":2542187.2900000028}},{"attributes":{"ID":377712,"DIS_CODE":0,"TOWNNAME":"東區","LI":"德光里","LIN":"21鄰","STREET":"崇明路","SECT":" ","MAREA":" ","LANE":"１５５巷","ALLEY":" ","HOUSE_NO":"１２號","E_COORD97":169968.32000000001,"N_COORD97":2542188.5800000001,"ADDRESS":"崇明路１５５巷１２號","OBJECTID":377702},"geometry":{"x":169968.32000000123,"y":2542188.5800000001}},{"attributes":{"ID":377713,"DIS_CODE":0,"TOWNNAME":"東區","LI":"德光里","LIN":"21鄰","STREET":"崇明路","SECT":" ","MAREA":" ","LANE":"１５５巷","ALLEY":" ","HOUSE_NO":"１４號","E_COORD97":169971.85000000001,"N_COORD97":2542189.8599999999,"ADDRESS":"崇明路１５５巷１４號","OBJECTID":377703},"geometry":{"x":169971.85000000149,"y":2542189.8599999994}},{"attributes":{"ID":377714,"DIS_CODE":0,"TOWNNAME":"東區","LI":"德光里","LIN":"21鄰","STREET":"崇明路","SECT":" ","MAREA":" ","LANE":"１５５巷","ALLEY":" ","HOUSE_NO":"１６號","E_COORD97":169975.54999999999,"N_COORD97":2542191.1499999999,"ADDRESS":"崇明路１５５巷１６號","OBJECTID":377704},"geometry":{"x":169975.54999999981,"y":2542191.1500000004}},{"attributes":{"ID":377715,"DIS_CODE":0,"TOWNNAME":"東區","LI":"德光里","LIN":"21鄰","STREET":"崇明路","SECT":" ","MAREA":" ","LANE":"１５５巷","ALLEY":" ","HOUSE_NO":"１８號","E_COORD97":169990.67000000001,"N_COORD97":2542199.02,"ADDRESS":"崇明路１５５巷１８號","OBJECTID":377705},"geometry":{"x":169990.67000000086,"y":2542199.0199999996}},{"attributes":{"ID":377716,"DIS_CODE":0,"TOWNNAME":"東區","LI":"德光里","LIN":"21鄰","STREET":"崇明路","SECT":" ","MAREA":" ","LANE":"１５５巷","ALLEY":" ","HOUSE_NO":"２０號","E_COORD97":169994.20999999999,"N_COORD97":2542203.0299999998,"ADDRESS":"崇明路１５５巷２０號","OBJECTID":377706},"geometry":{"x":169994.21000000089,"y":2542203.0300000012}},{"attributes":{"ID":377717,"DIS_CODE":0,"TOWNNAME":"東區","LI":"德光里","LIN":"21鄰","STREET":"崇明路","SECT":" ","MAREA":" ","LANE":"１５５巷","ALLEY":" ","HOUSE_NO":"２號","E_COORD97":169949.01999999999,"N_COORD97":2542182.3100000001,"ADDRESS":"崇明路１５５巷２號","OBJECTID":377707},"geometry":{"x":169949.02000000048,"y":2542182.3100000024}},{"attributes":{"ID":377718,"DIS_CODE":0,"TOWNNAME":"東區","LI":"德光里","LIN":"21鄰","STREET":"崇明路","SECT":" ","MAREA":" ","LANE":"１５５巷","ALLEY":" ","HOUSE_NO":"４號","E_COORD97":169952.56,"N_COORD97":2542183.7599999998,"ADDRESS":"崇明路１５５巷４號","OBJECTID":377708},"geometry":{"x":169952.56000000052,"y":2542183.7599999998}},{"attributes":{"ID":377719,"DIS_CODE":0,"TOWNNAME":"東區","LI":"德光里","LIN":"21鄰","STREET":"崇明路","SECT":" ","MAREA":" ","LANE":"１５５巷","ALLEY":" ","HOUSE_NO":"６號","E_COORD97":169956.26000000001,"N_COORD97":2542184.7200000002,"ADDRESS":"崇明路１５５巷６號","OBJECTID":377709},"geometry":{"x":169956.26000000071,"y":2542184.7200000007}},{"attributes":{"ID":377720,"DIS_CODE":0,"TOWNNAME":"東區","LI":"德光里","LIN":"21鄰","STREET":"崇明路","SECT":" ","MAREA":" ","LANE":"１８７巷","ALLEY":" ","HOUSE_NO":"１３號","E_COORD97":169994.64999999999,"N_COORD97":2542155.1299999999,"ADDRESS":"崇明路１８７巷１３號","OBJECTID":377710},"geometry":{"x":169994.6500000013,"y":2542155.1300000008}},{"attributes":{"ID":377721,"DIS_CODE":0,"TOWNNAME":"東區","LI":"德光里","LIN":"21鄰","STREET":"崇明路","SECT":" ","MAREA":" ","LANE":"１８７巷","ALLEY":" ","HOUSE_NO":"１５號","E_COORD97":169998.03,"N_COORD97":2542158.2200000002,"ADDRESS":"崇明路１８７巷１５號","OBJECTID":377711},"geometry":{"x":169998.03000000026,"y":2542158.2200000007}},{"attributes":{"ID":377722,"DIS_CODE":0,"TOWNNAME":"東區","LI":"德光里","LIN":"21鄰","STREET":"崇明路","SECT":" ","MAREA":" ","LANE":"１８７巷","ALLEY":" ","HOUSE_NO":"１７號","E_COORD97":170001.97,"N_COORD97":2542161.46,"ADDRESS":"崇明路１８７巷１７號","OBJECTID":377712},"geometry":{"x":170001.97000000067,"y":2542161.4600000028}},{"attributes":{"ID":377723,"DIS_CODE":0,"TOWNNAME":"永康區","LI":"網寮里","LIN":"21鄰","STREET":"文化路","SECT":" ","MAREA":" ","LANE":"２４２巷","ALLEY":" ","HOUSE_NO":"７號","E_COORD97":173560.45000000001,"N_COORD97":2546161.4700000002,"ADDRESS":"文化路２４２巷７號","OBJECTID":377713},"geometry":{"x":173560.45000000205,"y":2546161.4700000025}},{"attributes":{"ID":377724,"DIS_CODE":0,"TOWNNAME":"東區","LI":"德光里","LIN":"21鄰","STREET":"崇明路","SECT":" ","MAREA":" ","LANE":"１８７巷","ALLEY":" ","HOUSE_NO":"１９號","E_COORD97":170004.37,"N_COORD97":2542164.9700000002,"ADDRESS":"崇明路１８７巷１９號","OBJECTID":377714},"geometry":{"x":170004.37000000197,"y":2542164.9700000025}},{"attributes":{"ID":377725,"DIS_CODE":0,"TOWNNAME":"東區","LI":"德光里","LIN":"21鄰","STREET":"崇明路","SECT":" ","MAREA":" ","LANE":"１８７巷","ALLEY":" ","HOUSE_NO":"２１號","E_COORD97":169970.25,"N_COORD97":2542168.8199999998,"ADDRESS":"崇明路１８７巷２１號","OBJECTID":377715},"geometry":{"x":169970.25000000093,"y":2542168.8200000022}},{"attributes":{"ID":377726,"DIS_CODE":0,"TOWNNAME":"東區","LI":"德光里","LIN":"21鄰","STREET":"崇明路","SECT":" ","MAREA":" ","LANE":"１８７巷","ALLEY":" ","HOUSE_NO":"２３號","E_COORD97":169982.89000000001,"N_COORD97":2542161.5499999998,"ADDRESS":"崇明路１８７巷２３號","OBJECTID":377716},"geometry":{"x":169982.88999999966,"y":2542161.5500000026}},{"attributes":{"ID":377727,"DIS_CODE":0,"TOWNNAME":"東區","LI":"德光里","LIN":"21鄰","STREET":"崇明路","SECT":" ","MAREA":" ","LANE":"１８７巷","ALLEY":" ","HOUSE_NO":"２５號","E_COORD97":170005.45999999999,"N_COORD97":2542187.9199999999,"ADDRESS":"崇明路１８７巷２５號","OBJECTID":377717},"geometry":{"x":170005.46000000183,"y":2542187.9200000018}},{"attributes":{"ID":377728,"DIS_CODE":0,"TOWNNAME":"東區","LI":"德光里","LIN":"21鄰","STREET":"崇明路","SECT":" ","MAREA":" ","LANE":"１８７巷","ALLEY":" ","HOUSE_NO":"２７號","E_COORD97":170021,"N_COORD97":2542179.3700000001,"ADDRESS":"崇明路１８７巷２７號","OBJECTID":377718},"geometry":{"x":170021.00000000093,"y":2542179.3700000029}},{"attributes":{"ID":377729,"DIS_CODE":0,"TOWNNAME":"東區","LI":"德光里","LIN":"21鄰","STREET":"崇明路","SECT":" ","MAREA":" ","LANE":"１８７巷","ALLEY":" ","HOUSE_NO":"２９號","E_COORD97":170023.54000000001,"N_COORD97":2542182.75,"ADDRESS":"崇明路１８７巷２９號","OBJECTID":377719},"geometry":{"x":170023.5400000019,"y":2542182.7500000019}},{"attributes":{"ID":377730,"DIS_CODE":0,"TOWNNAME":"東區","LI":"德光里","LIN":"21鄰","STREET":"崇明路","SECT":" ","MAREA":" ","LANE":"１８７巷","ALLEY":" ","HOUSE_NO":"３１號","E_COORD97":170026.48999999999,"N_COORD97":2542186.8199999998,"ADDRESS":"崇明路１８７巷３１號","OBJECTID":377720},"geometry":{"x":170026.49000000115,"y":2542186.8200000003}},{"attributes":{"ID":377731,"DIS_CODE":0,"TOWNNAME":"南區","LI":"明興里","LIN":"21鄰","STREET":"金華路","SECT":"一段","MAREA":" ","LANE":"１５４巷","ALLEY":" ","HOUSE_NO":"３６號之１","E_COORD97":167054.5,"N_COORD97":2540626.8599999999,"ADDRESS":"金華路一段１５４巷３６號之１","OBJECTID":377721},"geometry":{"x":167054.50000000093,"y":2540626.8599999994}},{"attributes":{"ID":377732,"DIS_CODE":0,"TOWNNAME":"南區","LI":"明興里","LIN":"21鄰","STREET":"金華路","SECT":"一段","MAREA":" ","LANE":"１５４巷","ALLEY":" ","HOUSE_NO":"３８號","E_COORD97":167062.75,"N_COORD97":2540626.4300000002,"ADDRESS":"金華路一段１５４巷３８號","OBJECTID":377722},"geometry":{"x":167062.75000000093,"y":2540626.4299999997}},{"attributes":{"ID":377733,"DIS_CODE":0,"TOWNNAME":"南區","LI":"明興里","LIN":"21鄰","STREET":"金華路","SECT":"一段","MAREA":" ","LANE":"１５４巷","ALLEY":" ","HOUSE_NO":"４０號","E_COORD97":167042.95000000001,"N_COORD97":2540634.4100000001,"ADDRESS":"金華路一段１５４巷４０號","OBJECTID":377723},"geometry":{"x":167042.95000000112,"y":2540634.4099999983}},{"attributes":{"ID":377734,"DIS_CODE":0,"TOWNNAME":"南區","LI":"明興里","LIN":"21鄰","STREET":"金華路","SECT":"一段","MAREA":" ","LANE":"１５４巷","ALLEY":" ","HOUSE_NO":"４４號之１","E_COORD97":167058.23999999999,"N_COORD97":2540633.3100000001,"ADDRESS":"金華路一段１５４巷４４號之１","OBJECTID":377724},"geometry":{"x":167058.24000000115,"y":2540633.3100000024}},{"attributes":{"ID":377735,"DIS_CODE":0,"TOWNNAME":"南區","LI":"明興里","LIN":"21鄰","STREET":"金華路","SECT":"一段","MAREA":" ","LANE":"１５４巷","ALLEY":" ","HOUSE_NO":"４６號","E_COORD97":167063.67999999999,"N_COORD97":2540641.96,"ADDRESS":"金華路一段１５４巷４６號","OBJECTID":377725},"geometry":{"x":167063.6799999997,"y":2540641.9600000046}},{"attributes":{"ID":377736,"DIS_CODE":0,"TOWNNAME":"南區","LI":"明興里","LIN":"21鄰","STREET":"金華路","SECT":"一段","MAREA":" ","LANE":"１５４巷","ALLEY":" ","HOUSE_NO":"４８號","E_COORD97":167068.87,"N_COORD97":2540641.54,"ADDRESS":"金華路一段１５４巷４８號","OBJECTID":377726},"geometry":{"x":167068.87000000104,"y":2540641.5399999991}},{"attributes":{"ID":377737,"DIS_CODE":0,"TOWNNAME":"南區","LI":"明興里","LIN":"21鄰","STREET":"金華路","SECT":"一段","MAREA":" ","LANE":"１５４巷","ALLEY":" ","HOUSE_NO":"５０號","E_COORD97":167074.22,"N_COORD97":2540641.0299999998,"ADDRESS":"金華路一段１５４巷５０號","OBJECTID":377727},"geometry":{"x":167074.22000000067,"y":2540641.0300000012}},{"attributes":{"ID":377738,"DIS_CODE":0,"TOWNNAME":"南區","LI":"明興里","LIN":"21鄰","STREET":"金華路","SECT":"一段","MAREA":" ","LANE":"１５４巷","ALLEY":" ","HOUSE_NO":"５２號","E_COORD97":167074.81,"N_COORD97":2540650.96,"ADDRESS":"金華路一段１５４巷５２號","OBJECTID":377728},"geometry":{"x":167074.80999999959,"y":2540650.9600000009}},{"attributes":{"ID":377739,"DIS_CODE":0,"TOWNNAME":"南區","LI":"明興里","LIN":"21鄰","STREET":"金華路","SECT":"一段","MAREA":" ","LANE":"１５４巷","ALLEY":" ","HOUSE_NO":"５４號","E_COORD97":167070.82000000001,"N_COORD97":2540651.1299999999,"ADDRESS":"金華路一段１５４巷５４號","OBJECTID":377729},"geometry":{"x":167070.82000000123,"y":2540651.129999999}},{"attributes":{"ID":377740,"DIS_CODE":0,"TOWNNAME":"南區","LI":"明興里","LIN":"21鄰","STREET":"金華路","SECT":"一段","MAREA":" ","LANE":"１５４巷","ALLEY":" ","HOUSE_NO":"５６號","E_COORD97":167066.23000000001,"N_COORD97":2540651.5499999998,"ADDRESS":"金華路一段１５４巷５６號","OBJECTID":377730},"geometry":{"x":167066.23000000231,"y":2540651.5500000026}},{"attributes":{"ID":377741,"DIS_CODE":0,"TOWNNAME":"永康區","LI":"東橋里","LIN":"21鄰","STREET":"自強路","SECT":" ","MAREA":" ","LANE":"１４４巷","ALLEY":" ","HOUSE_NO":"９號","E_COORD97":173028.89000000001,"N_COORD97":2547331.7400000002,"ADDRESS":"自強路１４４巷９號","OBJECTID":377731},"geometry":{"x":173028.88999999966,"y":2547331.7400000039}},{"attributes":{"ID":377742,"DIS_CODE":0,"TOWNNAME":"永康區","LI":"東灣里","LIN":"21鄰","STREET":"大灣三街","SECT":" ","MAREA":" ","LANE":"７３巷","ALLEY":" ","HOUSE_NO":"７３號","E_COORD97":174848.79000000001,"N_COORD97":2544835.2400000002,"ADDRESS":"大灣三街７３巷７３號","OBJECTID":377732},"geometry":{"x":174848.79000000097,"y":2544835.2400000002}},{"attributes":{"ID":377743,"DIS_CODE":0,"TOWNNAME":"永康區","LI":"東橋里","LIN":"21鄰","STREET":"自強路","SECT":" ","MAREA":" ","LANE":"１４０巷","ALLEY":" ","HOUSE_NO":"３９號","E_COORD97":173027.06,"N_COORD97":2547215.1000000001,"ADDRESS":"自強路１４０巷３９號","OBJECTID":377733},"geometry":{"x":173027.06000000052,"y":2547215.1000000015}},{"attributes":{"ID":377744,"DIS_CODE":0,"TOWNNAME":"東區","LI":"大同里","LIN":"21鄰","STREET":"大同路","SECT":"一段","MAREA":" ","LANE":"１７５巷","ALLEY":" ","HOUSE_NO":"１１之６號","E_COORD97":169187.03,"N_COORD97":2542768.6499999999,"ADDRESS":"大同路一段１７５巷１１之６號","OBJECTID":377734},"geometry":{"x":169187.03000000119,"y":2542768.6500000004}},{"attributes":{"ID":377745,"DIS_CODE":0,"TOWNNAME":"東區","LI":"大同里","LIN":"21鄰","STREET":"大同路","SECT":"一段","MAREA":" ","LANE":"１７５巷","ALLEY":" ","HOUSE_NO":"１１之３號","E_COORD97":169182.03,"N_COORD97":2542773.6499999999,"ADDRESS":"大同路一段１７５巷１１之３號","OBJECTID":377735},"geometry":{"x":169182.03000000119,"y":2542773.6500000022}},{"attributes":{"ID":377746,"DIS_CODE":0,"TOWNNAME":"東區","LI":"裕農里","LIN":"7鄰","STREET":"裕農路","SECT":" ","MAREA":" ","LANE":"３４５巷","ALLEY":" ","HOUSE_NO":"１２號","E_COORD97":170996.70999999999,"N_COORD97":2543105.0499999998,"ADDRESS":"裕農路３４５巷１２號","OBJECTID":377736},"geometry":{"x":170996.70999999996,"y":2543105.0500000007}},{"attributes":{"ID":377747,"DIS_CODE":0,"TOWNNAME":"東區","LI":"裕農里","LIN":"7鄰","STREET":"裕農路","SECT":" ","MAREA":" ","LANE":"３４５巷","ALLEY":" ","HOUSE_NO":"１８號","E_COORD97":170992.54000000001,"N_COORD97":2543117.73,"ADDRESS":"裕農路３４５巷１８號","OBJECTID":377737},"geometry":{"x":170992.54000000004,"y":2543117.7299999986}},{"attributes":{"ID":377748,"DIS_CODE":0,"TOWNNAME":"東區","LI":"關聖里","LIN":"7鄰","STREET":"裕農路","SECT":" ","MAREA":" ","LANE":"６６８巷","ALLEY":" ","HOUSE_NO":"４７號之１","E_COORD97":171756.63,"N_COORD97":2543031.25,"ADDRESS":"裕農路６６８巷４７號之１","OBJECTID":377738},"geometry":{"x":171756.62999999989,"y":2543031.25}},{"attributes":{"ID":377749,"DIS_CODE":0,"TOWNNAME":"永康區","LI":"西灣里","LIN":"21鄰","STREET":"國光七街","SECT":" ","MAREA":" ","LANE":"３巷","ALLEY":" ","HOUSE_NO":"７９號","E_COORD97":174309.39999999999,"N_COORD97":2545323.7000000002,"ADDRESS":"國光七街３巷７９號","OBJECTID":377739},"geometry":{"x":174309.4000000013,"y":2545323.6999999993}},{"attributes":{"ID":377750,"DIS_CODE":0,"TOWNNAME":"永康區","LI":"西勢里","LIN":"21鄰","STREET":"富強路","SECT":"一段","MAREA":" ","LANE":"１５５巷","ALLEY":" ","HOUSE_NO":"３１號","E_COORD97":175502.06,"N_COORD97":2546412.6800000002,"ADDRESS":"富強路一段１５５巷３１號","OBJECTID":377740},"geometry":{"x":175502.06000000052,"y":2546412.6799999978}},{"attributes":{"ID":377751,"DIS_CODE":0,"TOWNNAME":"東區","LI":"東光里","LIN":"21鄰","STREET":"東安路","SECT":" ","MAREA":" ","LANE":"１３４巷","ALLEY":" ","HOUSE_NO":"４０號","E_COORD97":170812.85000000001,"N_COORD97":2543811.29,"ADDRESS":"東安路１３４巷４０號","OBJECTID":377741},"geometry":{"x":170812.85000000056,"y":2543811.2900000028}},{"attributes":{"ID":377752,"DIS_CODE":0,"TOWNNAME":"東區","LI":"東光里","LIN":"21鄰","STREET":"東安路","SECT":" ","MAREA":" ","LANE":"１３４巷","ALLEY":" ","HOUSE_NO":"４２號","E_COORD97":170816.82999999999,"N_COORD97":2543808.7000000002,"ADDRESS":"東安路１３４巷４２號","OBJECTID":377742},"geometry":{"x":170816.83000000101,"y":2543808.700000003}},{"attributes":{"ID":377753,"DIS_CODE":0,"TOWNNAME":"東區","LI":"東光里","LIN":"21鄰","STREET":"東安路","SECT":" ","MAREA":" ","LANE":"１３４巷","ALLEY":" ","HOUSE_NO":"４６號","E_COORD97":170825,"N_COORD97":2543807.9100000001,"ADDRESS":"東安路１３４巷４６號","OBJECTID":377743},"geometry":{"x":170825,"y":2543807.9100000039}},{"attributes":{"ID":377754,"DIS_CODE":0,"TOWNNAME":"東區","LI":"東光里","LIN":"21鄰","STREET":"東安路","SECT":" ","MAREA":" ","LANE":"１３４巷","ALLEY":" ","HOUSE_NO":"４８號","E_COORD97":170829.53,"N_COORD97":2543810.2200000002,"ADDRESS":"東安路１３４巷４８號","OBJECTID":377744},"geometry":{"x":170829.53000000119,"y":2543810.2200000025}},{"attributes":{"ID":377755,"DIS_CODE":0,"TOWNNAME":"東區","LI":"東光里","LIN":"21鄰","STREET":"東安路","SECT":" ","MAREA":" ","LANE":"１３４巷","ALLEY":" ","HOUSE_NO":"５０號","E_COORD97":170833.85999999999,"N_COORD97":2543806.3300000001,"ADDRESS":"東安路１３４巷５０號","OBJECTID":377745},"geometry":{"x":170833.86000000127,"y":2543806.3300000019}},{"attributes":{"ID":377756,"DIS_CODE":0,"TOWNNAME":"東區","LI":"東光里","LIN":"21鄰","STREET":"東安路","SECT":" ","MAREA":" ","LANE":"１３４巷","ALLEY":" ","HOUSE_NO":"５２號","E_COORD97":170839.23000000001,"N_COORD97":2543809.75,"ADDRESS":"東安路１３４巷５２號","OBJECTID":377746},"geometry":{"x":170839.23000000045,"y":2543809.7500000019}},{"attributes":{"ID":377757,"DIS_CODE":0,"TOWNNAME":"東區","LI":"東光里","LIN":"21鄰","STREET":"東安路","SECT":" ","MAREA":" ","LANE":"１３４巷","ALLEY":" ","HOUSE_NO":"５４號","E_COORD97":170845.54999999999,"N_COORD97":2543803.5299999998,"ADDRESS":"東安路１３４巷５４號","OBJECTID":377747},"geometry":{"x":170845.55000000075,"y":2543803.5300000012}},{"attributes":{"ID":377758,"DIS_CODE":0,"TOWNNAME":"東區","LI":"東光里","LIN":"21鄰","STREET":"東安路","SECT":" ","MAREA":" ","LANE":"１３４巷","ALLEY":" ","HOUSE_NO":"５６號","E_COORD97":170852.48999999999,"N_COORD97":2543805.6299999999,"ADDRESS":"東安路１３４巷５６號","OBJECTID":377748},"geometry":{"x":170852.49000000022,"y":2543805.6300000008}},{"attributes":{"ID":377759,"DIS_CODE":0,"TOWNNAME":"永康區","LI":"網寮里","LIN":"21鄰","STREET":"文化路","SECT":" ","MAREA":" ","LANE":"２４２巷","ALLEY":" ","HOUSE_NO":"３２之１３號","E_COORD97":173563.42999999999,"N_COORD97":2546197.79,"ADDRESS":"文化路２４２巷３２之１３號","OBJECTID":377749},"geometry":{"x":173563.43000000156,"y":2546197.7899999972}},{"attributes":{"ID":377760,"DIS_CODE":0,"TOWNNAME":"永康區","LI":"網寮里","LIN":"21鄰","STREET":"文化路","SECT":" ","MAREA":" ","LANE":"２６１巷","ALLEY":" ","HOUSE_NO":"１５號","E_COORD97":173618.48999999999,"N_COORD97":2546100.5800000001,"ADDRESS":"文化路２６１巷１５號","OBJECTID":377750},"geometry":{"x":173618.49000000115,"y":2546100.5800000001}},{"attributes":{"ID":377761,"DIS_CODE":0,"TOWNNAME":"永康區","LI":"網寮里","LIN":"21鄰","STREET":"文化路","SECT":" ","MAREA":" ","LANE":"２４２巷","ALLEY":" ","HOUSE_NO":"３２之８號","E_COORD97":173562.17999999999,"N_COORD97":2546197.79,"ADDRESS":"文化路２４２巷３２之８號","OBJECTID":377751},"geometry":{"x":173562.18000000063,"y":2546197.7899999972}},{"attributes":{"ID":377762,"DIS_CODE":0,"TOWNNAME":"永康區","LI":"網寮里","LIN":"21鄰","STREET":"文化路","SECT":" ","MAREA":" ","LANE":"２７９巷","ALLEY":" ","HOUSE_NO":"１０號","E_COORD97":173525.01000000001,"N_COORD97":2546089.0699999998,"ADDRESS":"文化路２７９巷１０號","OBJECTID":377752},"geometry":{"x":173525.00999999978,"y":2546089.070000004}},{"attributes":{"ID":377763,"DIS_CODE":0,"TOWNNAME":"佳里區","LI":"建南里","LIN":"21鄰","STREET":"四維二街","SECT":" ","MAREA":" ","LANE":"２１巷","ALLEY":" ","HOUSE_NO":"７號","E_COORD97":165756.87,"N_COORD97":2561556.3399999999,"ADDRESS":"四維二街２１巷７號","OBJECTID":377753},"geometry":{"x":165756.87000000104,"y":2561556.3399999999}},{"attributes":{"ID":377764,"DIS_CODE":0,"TOWNNAME":"安南區","LI":"安順里","LIN":"13鄰","STREET":"育安街","SECT":" ","MAREA":" ","LANE":" ","ALLEY":" ","HOUSE_NO":"２９６號","E_COORD97":169612.63,"N_COORD97":2550164.8399999999,"ADDRESS":"育安街２９６號","OBJECTID":377754},"geometry":{"x":169612.63000000175,"y":2550164.8399999999}},{"attributes":{"ID":377765,"DIS_CODE":0,"TOWNNAME":"永康區","LI":"網寮里","LIN":"21鄰","STREET":"文化路","SECT":" ","MAREA":" ","LANE":"２４２巷","ALLEY":" ","HOUSE_NO":"２６之１６號","E_COORD97":173600.17000000001,"N_COORD97":2546181.0699999998,"ADDRESS":"文化路２４２巷２６之１６號","OBJECTID":377755},"geometry":{"x":173600.17000000086,"y":2546181.0700000022}},{"attributes":{"ID":377766,"DIS_CODE":0,"TOWNNAME":"永康區","LI":"網寮里","LIN":"21鄰","STREET":"文化路","SECT":" ","MAREA":" ","LANE":"２４２巷","ALLEY":" ","HOUSE_NO":"２８之８號","E_COORD97":173612.07999999999,"N_COORD97":2546182.3300000001,"ADDRESS":"文化路２４２巷２８之８號","OBJECTID":377756},"geometry":{"x":173612.08000000194,"y":2546182.3300000019}},{"attributes":{"ID":377767,"DIS_CODE":0,"TOWNNAME":"永康區","LI":"網寮里","LIN":"21鄰","STREET":"文化路","SECT":" ","MAREA":" ","LANE":"２４２巷","ALLEY":" ","HOUSE_NO":"３０之１２號","E_COORD97":173572.53,"N_COORD97":2546192.0299999998,"ADDRESS":"文化路２４２巷３０之１２號","OBJECTID":377757},"geometry":{"x":173572.53000000119,"y":2546192.0299999993}},{"attributes":{"ID":377768,"DIS_CODE":0,"TOWNNAME":"安南區","LI":"州北里","LIN":"21鄰","STREET":"安和路","SECT":"五段","MAREA":" ","LANE":"３２５巷","ALLEY":" ","HOUSE_NO":"３８號","E_COORD97":169657.38,"N_COORD97":2552022.1000000001,"ADDRESS":"安和路五段３２５巷３８號","OBJECTID":377758},"geometry":{"x":169657.38000000082,"y":2552022.1000000015}},{"attributes":{"ID":377769,"DIS_CODE":0,"TOWNNAME":"安南區","LI":"州北里","LIN":"21鄰","STREET":"安和路","SECT":"五段","MAREA":" ","LANE":"２６９巷","ALLEY":" ","HOUSE_NO":"１０號","E_COORD97":169653.51000000001,"N_COORD97":2552012.4199999999,"ADDRESS":"安和路五段２６９巷１０號","OBJECTID":377759},"geometry":{"x":169653.50999999978,"y":2552012.4200000037}},{"attributes":{"ID":377770,"DIS_CODE":0,"TOWNNAME":"安南區","LI":"州北里","LIN":"21鄰","STREET":"安和路","SECT":"五段","MAREA":" ","LANE":"２６９巷","ALLEY":" ","HOUSE_NO":"３４號","E_COORD97":169575.37,"N_COORD97":2551979.02,"ADDRESS":"安和路五段２６９巷３４號","OBJECTID":377760},"geometry":{"x":169575.37000000011,"y":2551979.0200000014}},{"attributes":{"ID":377771,"DIS_CODE":0,"TOWNNAME":"安南區","LI":"州南里","LIN":"21鄰","STREET":"安和路","SECT":"四段","MAREA":" ","LANE":"５３３巷","ALLEY":" ","HOUSE_NO":"９３號","E_COORD97":169753.51000000001,"N_COORD97":2551231.2400000002,"ADDRESS":"安和路四段５３３巷９３號","OBJECTID":377761},"geometry":{"x":169753.50999999978,"y":2551231.2400000021}},{"attributes":{"ID":377772,"DIS_CODE":0,"TOWNNAME":"安南區","LI":"長安里","LIN":"21鄰","STREET":"長溪路","SECT":"三段","MAREA":" ","LANE":"３８０巷","ALLEY":" ","HOUSE_NO":"２０６號","E_COORD97":167884.37,"N_COORD97":2552368.04,"ADDRESS":"長溪路三段３８０巷２０６號","OBJECTID":377762},"geometry":{"x":167884.37000000104,"y":2552368.040000001}},{"attributes":{"ID":377773,"DIS_CODE":0,"TOWNNAME":"東區","LI":"大德里","LIN":"13鄰","STREET":"立德十路","SECT":" ","MAREA":" ","LANE":"８０巷","ALLEY":" ","HOUSE_NO":"１７號","E_COORD97":169591.34,"N_COORD97":2542031.0099999998,"ADDRESS":"立德十路８０巷１７號","OBJECTID":377763},"geometry":{"x":169591.34000000078,"y":2542031.0100000016}},{"attributes":{"ID":377774,"DIS_CODE":0,"TOWNNAME":"東區","LI":"東光里","LIN":"21鄰","STREET":"東安路","SECT":" ","MAREA":" ","LANE":"１３４巷","ALLEY":" ","HOUSE_NO":"１２號","E_COORD97":170772.60000000001,"N_COORD97":2543816.9399999999,"ADDRESS":"東安路１３４巷１２號","OBJECTID":377764},"geometry":{"x":170772.60000000056,"y":2543816.9399999995}},{"attributes":{"ID":377775,"DIS_CODE":0,"TOWNNAME":"東區","LI":"東光里","LIN":"21鄰","STREET":"東安路","SECT":" ","MAREA":" ","LANE":"１３４巷","ALLEY":" ","HOUSE_NO":"１４號","E_COORD97":170772.10999999999,"N_COORD97":2543811.1299999999,"ADDRESS":"東安路１３４巷１４號","OBJECTID":377765},"geometry":{"x":170772.11000000034,"y":2543811.129999999}},{"attributes":{"ID":377776,"DIS_CODE":0,"TOWNNAME":"東區","LI":"東光里","LIN":"21鄰","STREET":"東安路","SECT":" ","MAREA":" ","LANE":"１３４巷","ALLEY":" ","HOUSE_NO":"１６號","E_COORD97":170769.22,"N_COORD97":2543805.77,"ADDRESS":"東安路１３４巷１６號","OBJECTID":377766},"geometry":{"x":170769.21999999974,"y":2543805.7700000014}},{"attributes":{"ID":377777,"DIS_CODE":0,"TOWNNAME":"東區","LI":"東光里","LIN":"21鄰","STREET":"東安路","SECT":" ","MAREA":" ","LANE":"１３４巷","ALLEY":" ","HOUSE_NO":"１８號","E_COORD97":170768.85000000001,"N_COORD97":2543802,"ADDRESS":"東安路１３４巷１８號","OBJECTID":377767},"geometry":{"x":170768.85000000056,"y":2543802.0000000019}},{"attributes":{"ID":377778,"DIS_CODE":0,"TOWNNAME":"東區","LI":"東光里","LIN":"21鄰","STREET":"東安路","SECT":" ","MAREA":" ","LANE":"１３４巷","ALLEY":" ","HOUSE_NO":"２０號","E_COORD97":170783.01999999999,"N_COORD97":2543800.1200000001,"ADDRESS":"東安路１３４巷２０號","OBJECTID":377768},"geometry":{"x":170783.02000000048,"y":2543800.120000001}},{"attributes":{"ID":377779,"DIS_CODE":0,"TOWNNAME":"東區","LI":"東光里","LIN":"21鄰","STREET":"東安路","SECT":" ","MAREA":" ","LANE":"１３４巷","ALLEY":" ","HOUSE_NO":"２２號","E_COORD97":170783.39999999999,"N_COORD97":2543803.8900000001,"ADDRESS":"東安路１３４巷２２號","OBJECTID":377769},"geometry":{"x":170783.4000000013,"y":2543803.8900000006}},{"attributes":{"ID":377780,"DIS_CODE":0,"TOWNNAME":"東區","LI":"東光里","LIN":"21鄰","STREET":"東安路","SECT":" ","MAREA":" ","LANE":"１３４巷","ALLEY":" ","HOUSE_NO":"２４號","E_COORD97":170783.32000000001,"N_COORD97":2543809.1600000001,"ADDRESS":"東安路１３４巷２４號","OBJECTID":377770},"geometry":{"x":170783.32000000123,"y":2543809.1600000001}},{"attributes":{"ID":377781,"DIS_CODE":0,"TOWNNAME":"東區","LI":"東光里","LIN":"21鄰","STREET":"東安路","SECT":" ","MAREA":" ","LANE":"１３４巷","ALLEY":" ","HOUSE_NO":"２６號","E_COORD97":170783.70000000001,"N_COORD97":2543815.1899999999,"ADDRESS":"東安路１３４巷２６號","OBJECTID":377771},"geometry":{"x":170783.70000000205,"y":2543815.1899999995}},{"attributes":{"ID":377782,"DIS_CODE":0,"TOWNNAME":"安南區","LI":"佃東里","LIN":"21鄰","STREET":"公學路","SECT":"四段","MAREA":" ","LANE":"１２２巷","ALLEY":" ","HOUSE_NO":"９７號","E_COORD97":165570.35000000001,"N_COORD97":2552281.1699999999,"ADDRESS":"公學路四段１２２巷９７號","OBJECTID":377772},"geometry":{"x":165570.34999999963,"y":2552281.1699999999}},{"attributes":{"ID":377783,"DIS_CODE":0,"TOWNNAME":"安南區","LI":"佃東里","LIN":"21鄰","STREET":"公學路","SECT":"四段","MAREA":" ","LANE":"１２２巷","ALLEY":" ","HOUSE_NO":"１０１號","E_COORD97":165570.06,"N_COORD97":2552289.7400000002,"ADDRESS":"公學路四段１２２巷１０１號","OBJECTID":377773},"geometry":{"x":165570.06000000052,"y":2552289.7400000021}},{"attributes":{"ID":377784,"DIS_CODE":0,"TOWNNAME":"下營區","LI":"仁里里","LIN":"21鄰","STREET":"仁中街","SECT":" ","MAREA":" ","LANE":"８５巷","ALLEY":" ","HOUSE_NO":"８號","E_COORD97":174272.64999999999,"N_COORD97":2569772.6899999999,"ADDRESS":"仁中街８５巷８號","OBJECTID":377774},"geometry":{"x":174272.65000000037,"y":2569772.6900000013}},{"attributes":{"ID":377785,"DIS_CODE":0,"TOWNNAME":"安南區","LI":"佃東里","LIN":"21鄰","STREET":"公學路","SECT":"四段","MAREA":" ","LANE":"１２２巷","ALLEY":" ","HOUSE_NO":"１０３號","E_COORD97":165569.60999999999,"N_COORD97":2552293.5800000001,"ADDRESS":"公學路四段１２２巷１０３號","OBJECTID":377775},"geometry":{"x":165569.61000000034,"y":2552293.5800000019}},{"attributes":{"ID":377786,"DIS_CODE":0,"TOWNNAME":"安南區","LI":"佃東里","LIN":"21鄰","STREET":"公學路","SECT":"四段","MAREA":" ","LANE":"１２２巷","ALLEY":" ","HOUSE_NO":"１０５號","E_COORD97":165568.72,"N_COORD97":2552297.4199999999,"ADDRESS":"公學路四段１２２巷１０５號","OBJECTID":377776},"geometry":{"x":165568.7200000016,"y":2552297.4200000037}},{"attributes":{"ID":377787,"DIS_CODE":0,"TOWNNAME":"安南區","LI":"佃東里","LIN":"21鄰","STREET":"公學路","SECT":"四段","MAREA":" ","LANE":"１２２巷","ALLEY":" ","HOUSE_NO":"１０７號","E_COORD97":165568.87,"N_COORD97":2552302.4399999999,"ADDRESS":"公學路四段１２２巷１０７號","OBJECTID":377777},"geometry":{"x":165568.87000000104,"y":2552302.4399999995}},{"attributes":{"ID":377788,"DIS_CODE":0,"TOWNNAME":"安南區","LI":"佃東里","LIN":"21鄰","STREET":"公學路","SECT":"四段","MAREA":" ","LANE":"１２２巷","ALLEY":" ","HOUSE_NO":"１０９號","E_COORD97":165568.87,"N_COORD97":2552306.2799999998,"ADDRESS":"公學路四段１２２巷１０９號","OBJECTID":377778},"geometry":{"x":165568.87000000104,"y":2552306.2799999993}},{"attributes":{"ID":377789,"DIS_CODE":0,"TOWNNAME":"安南區","LI":"佃東里","LIN":"21鄰","STREET":"公學路","SECT":"四段","MAREA":" ","LANE":"１２２巷","ALLEY":" ","HOUSE_NO":"１１１號","E_COORD97":165568.13,"N_COORD97":2552309.8300000001,"ADDRESS":"公學路四段１２２巷１１１號","OBJECTID":377779},"geometry":{"x":165568.13000000082,"y":2552309.8300000019}},{"attributes":{"ID":377790,"DIS_CODE":0,"TOWNNAME":"安南區","LI":"佃東里","LIN":"21鄰","STREET":"公學路","SECT":"四段","MAREA":" ","LANE":"１２２巷","ALLEY":" ","HOUSE_NO":"１１３號","E_COORD97":165568.13,"N_COORD97":2552313.8199999998,"ADDRESS":"公學路四段１２２巷１１３號","OBJECTID":377780},"geometry":{"x":165568.13000000082,"y":2552313.8200000003}},{"attributes":{"ID":377791,"DIS_CODE":0,"TOWNNAME":"安南區","LI":"佃東里","LIN":"21鄰","STREET":"公學路","SECT":"四段","MAREA":" ","LANE":"１２２巷","ALLEY":" ","HOUSE_NO":"１１５號","E_COORD97":165568.14000000001,"N_COORD97":2552317.75,"ADDRESS":"公學路四段１２２巷１１５號","OBJECTID":377781},"geometry":{"x":165568.1400000006,"y":2552317.75}},{"attributes":{"ID":377792,"DIS_CODE":0,"TOWNNAME":"安南區","LI":"佃東里","LIN":"21鄰","STREET":"公學路","SECT":"四段","MAREA":" ","LANE":"１２２巷","ALLEY":" ","HOUSE_NO":"１１７號","E_COORD97":165567.54000000001,"N_COORD97":2552321.8900000001,"ADDRESS":"公學路四段１２２巷１１７號","OBJECTID":377782},"geometry":{"x":165567.54000000097,"y":2552321.8900000043}},{"attributes":{"ID":377793,"DIS_CODE":0,"TOWNNAME":"安南區","LI":"佃東里","LIN":"21鄰","STREET":"公學路","SECT":"四段","MAREA":" ","LANE":"１２２巷","ALLEY":" ","HOUSE_NO":"１１９號","E_COORD97":165567.54000000001,"N_COORD97":2552326.3199999998,"ADDRESS":"公學路四段１２２巷１１９號","OBJECTID":377783},"geometry":{"x":165567.54000000097,"y":2552326.3200000022}},{"attributes":{"ID":377794,"DIS_CODE":0,"TOWNNAME":"安南區","LI":"佃東里","LIN":"21鄰","STREET":"公學路","SECT":"四段","MAREA":" ","LANE":"１２２巷","ALLEY":" ","HOUSE_NO":"１２１號","E_COORD97":165567.54000000001,"N_COORD97":2552330.6099999999,"ADDRESS":"公學路四段１２２巷１２１號","OBJECTID":377784},"geometry":{"x":165567.54000000097,"y":2552330.6100000013}},{"attributes":{"ID":377795,"DIS_CODE":0,"TOWNNAME":"安南區","LI":"佃東里","LIN":"21鄰","STREET":"公學路","SECT":"四段","MAREA":" ","LANE":"１２２巷","ALLEY":" ","HOUSE_NO":"１２３號","E_COORD97":165566.79999999999,"N_COORD97":2552334.8900000001,"ADDRESS":"公學路四段１２２巷１２３號","OBJECTID":377785},"geometry":{"x":165566.80000000075,"y":2552334.8900000006}},{"attributes":{"ID":377796,"DIS_CODE":0,"TOWNNAME":"安南區","LI":"佃東里","LIN":"21鄰","STREET":"公學路","SECT":"四段","MAREA":" ","LANE":"１２２巷","ALLEY":" ","HOUSE_NO":"１２５號","E_COORD97":165566.51000000001,"N_COORD97":2552339.3199999998,"ADDRESS":"公學路四段１２２巷１２５號","OBJECTID":377786},"geometry":{"x":165566.50999999978,"y":2552339.3200000022}},{"attributes":{"ID":377797,"DIS_CODE":0,"TOWNNAME":"安南區","LI":"佃東里","LIN":"21鄰","STREET":"公學路","SECT":"四段","MAREA":" ","LANE":"１２２巷","ALLEY":" ","HOUSE_NO":"１２７號","E_COORD97":165566.35999999999,"N_COORD97":2552343.7599999998,"ADDRESS":"公學路四段１２２巷１２７號","OBJECTID":377787},"geometry":{"x":165566.36000000034,"y":2552343.7600000016}},{"attributes":{"ID":377798,"DIS_CODE":0,"TOWNNAME":"安南區","LI":"佃東里","LIN":"21鄰","STREET":"公學路","SECT":"四段","MAREA":" ","LANE":"１２２巷","ALLEY":" ","HOUSE_NO":"１２９號","E_COORD97":165565.76999999999,"N_COORD97":2552347.1499999999,"ADDRESS":"公學路四段１２２巷１２９號","OBJECTID":377788},"geometry":{"x":165565.76999999955,"y":2552347.1500000041}},{"attributes":{"ID":377799,"DIS_CODE":0,"TOWNNAME":"安南區","LI":"佃東里","LIN":"21鄰","STREET":"公學路","SECT":"四段","MAREA":" ","LANE":"１２２巷","ALLEY":" ","HOUSE_NO":"１３１號","E_COORD97":165565.17999999999,"N_COORD97":2552352.4700000002,"ADDRESS":"公學路四段１２２巷１３１號","OBJECTID":377789},"geometry":{"x":165565.1799999997,"y":2552352.4700000025}},{"attributes":{"ID":377800,"DIS_CODE":0,"TOWNNAME":"安南區","LI":"佃東里","LIN":"21鄰","STREET":"公學路","SECT":"四段","MAREA":" ","LANE":"１２２巷","ALLEY":" ","HOUSE_NO":"１３１號之１","E_COORD97":165563.31,"N_COORD97":2552390.79,"ADDRESS":"公學路四段１２２巷１３１號之１","OBJECTID":377790},"geometry":{"x":165563.31000000052,"y":2552390.7899999991}},{"attributes":{"ID":377801,"DIS_CODE":0,"TOWNNAME":"安南區","LI":"佃東里","LIN":"21鄰","STREET":"公學路","SECT":"四段","MAREA":" ","LANE":"１２２巷","ALLEY":" ","HOUSE_NO":"８７號","E_COORD97":165571.67000000001,"N_COORD97":2552259.8100000001,"ADDRESS":"公學路四段１２２巷８７號","OBJECTID":377791},"geometry":{"x":165571.67000000086,"y":2552259.8100000005}},{"attributes":{"ID":377802,"DIS_CODE":0,"TOWNNAME":"安南區","LI":"佃東里","LIN":"21鄰","STREET":"公學路","SECT":"四段","MAREA":" ","LANE":"１２２巷","ALLEY":" ","HOUSE_NO":"８９號","E_COORD97":165571.82000000001,"N_COORD97":2552264.54,"ADDRESS":"公學路四段１２２巷８９號","OBJECTID":377792},"geometry":{"x":165571.8200000003,"y":2552264.5399999991}},{"attributes":{"ID":377803,"DIS_CODE":0,"TOWNNAME":"安南區","LI":"佃東里","LIN":"21鄰","STREET":"公學路","SECT":"四段","MAREA":" ","LANE":"１２２巷","ALLEY":" ","HOUSE_NO":"９１號","E_COORD97":165571.51999999999,"N_COORD97":2552268.6800000002,"ADDRESS":"公學路四段１２２巷９１號","OBJECTID":377793},"geometry":{"x":165571.51999999862,"y":2552268.6800000016}},{"attributes":{"ID":377804,"DIS_CODE":0,"TOWNNAME":"安南區","LI":"佃東里","LIN":"21鄰","STREET":"公學路","SECT":"四段","MAREA":" ","LANE":"１２２巷","ALLEY":" ","HOUSE_NO":"９３號","E_COORD97":165571.07999999999,"N_COORD97":2552272.52,"ADDRESS":"公學路四段１２２巷９３號","OBJECTID":377794},"geometry":{"x":165571.08000000007,"y":2552272.5200000033}},{"attributes":{"ID":377805,"DIS_CODE":0,"TOWNNAME":"安南區","LI":"佃東里","LIN":"21鄰","STREET":"公學路","SECT":"四段","MAREA":" ","LANE":"１２２巷","ALLEY":" ","HOUSE_NO":"９５號","E_COORD97":165570.48999999999,"N_COORD97":2552276.9500000002,"ADDRESS":"公學路四段１２２巷９５號","OBJECTID":377795},"geometry":{"x":165570.49000000022,"y":2552276.9500000011}},{"attributes":{"ID":377806,"DIS_CODE":0,"TOWNNAME":"安南區","LI":"佃東里","LIN":"21鄰","STREET":"公學路","SECT":"四段","MAREA":" ","LANE":"１２２巷","ALLEY":" ","HOUSE_NO":"９９號","E_COORD97":165570.06,"N_COORD97":2552285.6000000001,"ADDRESS":"公學路四段１２２巷９９號","OBJECTID":377796},"geometry":{"x":165570.06000000052,"y":2552285.6000000034}},{"attributes":{"ID":377807,"DIS_CODE":0,"TOWNNAME":"安南區","LI":"長安里","LIN":"21鄰","STREET":"長溪路","SECT":"三段","MAREA":" ","LANE":"３８０巷","ALLEY":" ","HOUSE_NO":"１７０號","E_COORD97":167929.07000000001,"N_COORD97":2552402.1800000002,"ADDRESS":"長溪路三段３８０巷１７０號","OBJECTID":377797},"geometry":{"x":167929.07000000123,"y":2552402.1799999997}},{"attributes":{"ID":377808,"DIS_CODE":0,"TOWNNAME":"安南區","LI":"長安里","LIN":"21鄰","STREET":"長溪路","SECT":"三段","MAREA":" ","LANE":"３８０巷","ALLEY":" ","HOUSE_NO":"１７４號","E_COORD97":167948.09,"N_COORD97":2552384.8599999999,"ADDRESS":"長溪路三段３８０巷１７４號","OBJECTID":377798},"geometry":{"x":167948.09000000171,"y":2552384.8599999994}},{"attributes":{"ID":377809,"DIS_CODE":0,"TOWNNAME":"安南區","LI":"長安里","LIN":"21鄰","STREET":"長溪路","SECT":"三段","MAREA":" ","LANE":"３８０巷","ALLEY":" ","HOUSE_NO":"１７６號","E_COORD97":167945.35000000001,"N_COORD97":2552381.2400000002,"ADDRESS":"長溪路三段３８０巷１７６號","OBJECTID":377799},"geometry":{"x":167945.34999999963,"y":2552381.2400000021}},{"attributes":{"ID":377810,"DIS_CODE":0,"TOWNNAME":"安南區","LI":"長安里","LIN":"21鄰","STREET":"長溪路","SECT":"三段","MAREA":" ","LANE":"３８０巷","ALLEY":" ","HOUSE_NO":"１７８號","E_COORD97":167940.56,"N_COORD97":2552378.6200000001,"ADDRESS":"長溪路三段３８０巷１７８號","OBJECTID":377800},"geometry":{"x":167940.55999999959,"y":2552378.6200000048}}]}