{"displayFieldName":"TOWNNAME","fieldAliases":{"ID":"ID","DIS_CODE":"DIS_CODE","TOWNNAME":"TOWNNAME","LI":"LI","LIN":"LIN","STREET":"STREET","SECT":"SECT","MAREA":"MAREA","LANE":"LANE","ALLEY":"ALLEY","HOUSE_NO":"HOUSE_NO","E_COORD97":"E_COORD97","N_COORD97":"N_COORD97","ADDRESS":"ADDRESS","OBJECTID":"OBJECTID"},"geometryType":"esriGeometryPoint","spatialReference":{"wkid":102443,"latestWkid":3826},"fields":[{"name":"ID","type":"esriFieldTypeDouble","alias":"ID"},{"name":"DIS_CODE","type":"esriFieldTypeInteger","alias":"DIS_CODE"},{"name":"TOWNNAME","type":"esriFieldTypeString","alias":"TOWNNAME","length":8},{"name":"LI","type":"esriFieldTypeString","alias":"LI","length":8},{"name":"LIN","type":"esriFieldTypeString","alias":"LIN","length":12},{"name":"STREET","type":"esriFieldTypeString","alias":"STREET","length":20},{"name":"SECT","type":"esriFieldTypeString","alias":"SECT","length":8},{"name":"MAREA","type":"esriFieldTypeString","alias":"MAREA","length":12},{"name":"LANE","type":"esriFieldTypeString","alias":"LANE","length":10},{"name":"ALLEY","type":"esriFieldTypeString","alias":"ALLEY","length":10},{"name":"HOUSE_NO","type":"esriFieldTypeString","alias":"HOUSE_NO","length":20},{"name":"E_COORD97","type":"esriFieldTypeDouble","alias":"E_COORD97"},{"name":"N_COORD97","type":"esriFieldTypeDouble","alias":"N_COORD97"},{"name":"ADDRESS","type":"esriFieldTypeString","alias":"ADDRESS","length":50},{"name":"OBJECTID","type":"esriFieldTypeOID","alias":"OBJECTID"}],"features":[{"attributes":{"ID":335610,"DIS_CODE":0,"TOWNNAME":"永康區","LI":"正強里","LIN":"36鄰","STREET":"正強街","SECT":" ","MAREA":" ","LANE":"３０９巷","ALLEY":" ","HOUSE_NO":"３６號","E_COORD97":173174.14999999999,"N_COORD97":2548158.3199999998,"ADDRESS":"正強街３０９巷３６號","OBJECTID":335601},"geometry":{"x":173174.15000000037,"y":2548158.3200000003}},{"attributes":{"ID":335611,"DIS_CODE":0,"TOWNNAME":"東區","LI":"虎尾里","LIN":"36鄰","STREET":"東成街","SECT":" ","MAREA":" ","LANE":"２００巷","ALLEY":" ","HOUSE_NO":"２５號","E_COORD97":171893.64000000001,"N_COORD97":2542236.3900000001,"ADDRESS":"東成街２００巷２５號","OBJECTID":335602},"geometry":{"x":171893.63999999966,"y":2542236.3900000025}},{"attributes":{"ID":335612,"DIS_CODE":0,"TOWNNAME":"東區","LI":"虎尾里","LIN":"36鄰","STREET":"東成街","SECT":" ","MAREA":" ","LANE":"２００巷","ALLEY":" ","HOUSE_NO":"２９號","E_COORD97":171894.34,"N_COORD97":2542216,"ADDRESS":"東成街２００巷２９號","OBJECTID":335603},"geometry":{"x":171894.33999999985,"y":2542216}},{"attributes":{"ID":335613,"DIS_CODE":0,"TOWNNAME":"東區","LI":"虎尾里","LIN":"36鄰","STREET":"東成街","SECT":" ","MAREA":" ","LANE":"２００巷","ALLEY":" ","HOUSE_NO":"３１號","E_COORD97":171895.72,"N_COORD97":2542205.1899999999,"ADDRESS":"東成街２００巷３１號","OBJECTID":335604},"geometry":{"x":171895.72000000067,"y":2542205.1900000032}},{"attributes":{"ID":335614,"DIS_CODE":0,"TOWNNAME":"東區","LI":"虎尾里","LIN":"36鄰","STREET":"東成街","SECT":" ","MAREA":" ","LANE":"２００巷","ALLEY":" ","HOUSE_NO":"３３號","E_COORD97":171895.85999999999,"N_COORD97":2542197.2200000002,"ADDRESS":"東成街２００巷３３號","OBJECTID":335605},"geometry":{"x":171895.86000000034,"y":2542197.2200000025}},{"attributes":{"ID":335615,"DIS_CODE":0,"TOWNNAME":"東區","LI":"虎尾里","LIN":"36鄰","STREET":"東成街","SECT":" ","MAREA":" ","LANE":"２００巷","ALLEY":" ","HOUSE_NO":"３５號","E_COORD97":171901.54999999999,"N_COORD97":2542190,"ADDRESS":"東成街２００巷３５號","OBJECTID":335606},"geometry":{"x":171901.55000000168,"y":2542190.0000000037}},{"attributes":{"ID":335616,"DIS_CODE":0,"TOWNNAME":"東區","LI":"虎尾里","LIN":"36鄰","STREET":"東成街","SECT":" ","MAREA":" ","LANE":"２００巷","ALLEY":" ","HOUSE_NO":"３７號","E_COORD97":171901.69,"N_COORD97":2542185.71,"ADDRESS":"東成街２００巷３７號","OBJECTID":335607},"geometry":{"x":171901.69000000134,"y":2542185.7100000009}},{"attributes":{"ID":335617,"DIS_CODE":0,"TOWNNAME":"東區","LI":"虎尾里","LIN":"36鄰","STREET":"東成街","SECT":" ","MAREA":" ","LANE":"２００巷","ALLEY":" ","HOUSE_NO":"３９號","E_COORD97":171901.97,"N_COORD97":2542181.5499999998,"ADDRESS":"東成街２００巷３９號","OBJECTID":335608},"geometry":{"x":171901.9700000016,"y":2542181.5500000026}},{"attributes":{"ID":335618,"DIS_CODE":0,"TOWNNAME":"東區","LI":"虎尾里","LIN":"36鄰","STREET":"東成街","SECT":" ","MAREA":" ","LANE":"２００巷","ALLEY":" ","HOUSE_NO":"４１號","E_COORD97":171902.25,"N_COORD97":2542177.25,"ADDRESS":"東成街２００巷４１號","OBJECTID":335609},"geometry":{"x":171902.25000000093,"y":2542177.25}},{"attributes":{"ID":335619,"DIS_CODE":0,"TOWNNAME":"中西區","LI":"永華里","LIN":"1鄰","STREET":"開山路","SECT":" ","MAREA":" ","LANE":"１２２巷","ALLEY":" ","HOUSE_NO":"９號","E_COORD97":168667.01000000001,"N_COORD97":2543322.5800000001,"ADDRESS":"開山路１２２巷９號","OBJECTID":335610},"geometry":{"x":168667.00999999978,"y":2543322.5800000019}},{"attributes":{"ID":335620,"DIS_CODE":0,"TOWNNAME":"中西區","LI":"青年里","LIN":"1鄰","STREET":"萬昌街","SECT":" ","MAREA":" ","LANE":"９０巷","ALLEY":" ","HOUSE_NO":"１１號","E_COORD97":169136.19,"N_COORD97":2543596.3900000001,"ADDRESS":"萬昌街９０巷１１號","OBJECTID":335611},"geometry":{"x":169136.18999999948,"y":2543596.3900000025}},{"attributes":{"ID":335621,"DIS_CODE":0,"TOWNNAME":"中西區","LI":"青年里","LIN":"1鄰","STREET":"萬昌街","SECT":" ","MAREA":" ","LANE":"９０巷","ALLEY":" ","HOUSE_NO":"１５號","E_COORD97":169137.38,"N_COORD97":2543612.9399999999,"ADDRESS":"萬昌街９０巷１５號","OBJECTID":335612},"geometry":{"x":169137.37999999989,"y":2543612.9399999995}},{"attributes":{"ID":335622,"DIS_CODE":0,"TOWNNAME":"中西區","LI":"青年里","LIN":"1鄰","STREET":"萬昌街","SECT":" ","MAREA":" ","LANE":"９０巷","ALLEY":" ","HOUSE_NO":"１號","E_COORD97":169093.73999999999,"N_COORD97":2543602.7599999998,"ADDRESS":"萬昌街９０巷１號","OBJECTID":335613},"geometry":{"x":169093.74000000115,"y":2543602.7600000016}},{"attributes":{"ID":335623,"DIS_CODE":0,"TOWNNAME":"中西區","LI":"青年里","LIN":"1鄰","STREET":"萬昌街","SECT":" ","MAREA":" ","LANE":"９０巷","ALLEY":" ","HOUSE_NO":"３號","E_COORD97":169077.76000000001,"N_COORD97":2543610.1800000002,"ADDRESS":"萬昌街９０巷３號","OBJECTID":335614},"geometry":{"x":169077.76000000071,"y":2543610.1800000016}},{"attributes":{"ID":335624,"DIS_CODE":0,"TOWNNAME":"中西區","LI":"青年里","LIN":"1鄰","STREET":"萬昌街","SECT":" ","MAREA":" ","LANE":"９０巷","ALLEY":" ","HOUSE_NO":"７號","E_COORD97":169119.22,"N_COORD97":2543608.6099999999,"ADDRESS":"萬昌街９０巷７號","OBJECTID":335615},"geometry":{"x":169119.22000000067,"y":2543608.6099999994}},{"attributes":{"ID":335625,"DIS_CODE":0,"TOWNNAME":"中西區","LI":"青年里","LIN":"1鄰","STREET":"萬昌街","SECT":" ","MAREA":" ","LANE":"９０巷","ALLEY":" ","HOUSE_NO":"９號","E_COORD97":169128.69,"N_COORD97":2543598.3599999999,"ADDRESS":"萬昌街９０巷９號","OBJECTID":335616},"geometry":{"x":169128.69000000134,"y":2543598.3600000013}},{"attributes":{"ID":335626,"DIS_CODE":0,"TOWNNAME":"中西區","LI":"開山里","LIN":"1鄰","STREET":"開山路","SECT":" ","MAREA":" ","LANE":"１５１巷","ALLEY":" ","HOUSE_NO":"１０號","E_COORD97":168864.95999999999,"N_COORD97":2543205.48,"ADDRESS":"開山路１５１巷１０號","OBJECTID":335617},"geometry":{"x":168864.96000000089,"y":2543205.4800000023}},{"attributes":{"ID":335627,"DIS_CODE":0,"TOWNNAME":"中西區","LI":"開山里","LIN":"1鄰","STREET":"開山路","SECT":" ","MAREA":" ","LANE":"１５１巷","ALLEY":" ","HOUSE_NO":"１２號","E_COORD97":168866.10999999999,"N_COORD97":2543210.4300000002,"ADDRESS":"開山路１５１巷１２號","OBJECTID":335618},"geometry":{"x":168866.11000000127,"y":2543210.4299999997}},{"attributes":{"ID":335628,"DIS_CODE":0,"TOWNNAME":"中西區","LI":"開山里","LIN":"1鄰","STREET":"開山路","SECT":" ","MAREA":" ","LANE":"１５１巷","ALLEY":" ","HOUSE_NO":"１４號","E_COORD97":168865.60000000001,"N_COORD97":2543215.0099999998,"ADDRESS":"開山路１５１巷１４號","OBJECTID":335619},"geometry":{"x":168865.60000000056,"y":2543215.0100000016}},{"attributes":{"ID":335629,"DIS_CODE":0,"TOWNNAME":"南區","LI":"金華里","LIN":"17鄰","STREET":"惠南街","SECT":" ","MAREA":" ","LANE":" ","ALLEY":" ","HOUSE_NO":"６１號","E_COORD97":166748.51000000001,"N_COORD97":2542194.0600000001,"ADDRESS":"惠南街６１號","OBJECTID":335620},"geometry":{"x":166748.51000000071,"y":2542194.0600000024}},{"attributes":{"ID":335630,"DIS_CODE":0,"TOWNNAME":"安南區","LI":"顯宮里","LIN":"3鄰","STREET":"顯宮一街","SECT":" ","MAREA":" ","LANE":" ","ALLEY":" ","HOUSE_NO":"３０之６號","E_COORD97":160853.79999999999,"N_COORD97":2549085.4300000002,"ADDRESS":"顯宮一街３０之６號","OBJECTID":335621},"geometry":{"x":160853.79999999981,"y":2549085.4299999997}},{"attributes":{"ID":335631,"DIS_CODE":0,"TOWNNAME":"安南區","LI":"顯宮里","LIN":"3鄰","STREET":"北汕尾三路","SECT":" ","MAREA":" ","LANE":" ","ALLEY":" ","HOUSE_NO":"４３８號","E_COORD97":161929.57000000001,"N_COORD97":2550676.1499999999,"ADDRESS":"北汕尾三路４３８號","OBJECTID":335622},"geometry":{"x":161929.57000000123,"y":2550676.1500000022}},{"attributes":{"ID":335632,"DIS_CODE":0,"TOWNNAME":"安南區","LI":"顯宮里","LIN":"3鄰","STREET":"北汕尾三路","SECT":" ","MAREA":" ","LANE":" ","ALLEY":" ","HOUSE_NO":"５２０號","E_COORD97":162098.98000000001,"N_COORD97":2550960.2999999998,"ADDRESS":"北汕尾三路５２０號","OBJECTID":335623},"geometry":{"x":162098.98000000045,"y":2550960.3000000026}},{"attributes":{"ID":335633,"DIS_CODE":0,"TOWNNAME":"安南區","LI":"顯宮里","LIN":"3鄰","STREET":"安中路","SECT":"五段","MAREA":" ","LANE":" ","ALLEY":" ","HOUSE_NO":"４５７號","E_COORD97":162378.04999999999,"N_COORD97":2551161.7999999998,"ADDRESS":"安中路五段４５７號","OBJECTID":335624},"geometry":{"x":162378.05000000168,"y":2551161.8000000007}},{"attributes":{"ID":335634,"DIS_CODE":0,"TOWNNAME":"安平區","LI":"華平里","LIN":"3鄰","STREET":"怡平路","SECT":" ","MAREA":" ","LANE":" ","ALLEY":" ","HOUSE_NO":"６２號","E_COORD97":166039.23999999999,"N_COORD97":2543749.1099999999,"ADDRESS":"怡平路６２號","OBJECTID":335625},"geometry":{"x":166039.24000000115,"y":2543749.1100000013}},{"attributes":{"ID":335635,"DIS_CODE":0,"TOWNNAME":"安平區","LI":"華平里","LIN":"3鄰","STREET":"怡平路","SECT":" ","MAREA":" ","LANE":" ","ALLEY":" ","HOUSE_NO":"６０號","E_COORD97":166044.23000000001,"N_COORD97":2543748.6800000002,"ADDRESS":"怡平路６０號","OBJECTID":335626},"geometry":{"x":166044.23000000138,"y":2543748.6800000016}},{"attributes":{"ID":335636,"DIS_CODE":0,"TOWNNAME":"北區","LI":"正風里","LIN":"3鄰","STREET":"公園路","SECT":" ","MAREA":" ","LANE":" ","ALLEY":" ","HOUSE_NO":"９１４號","E_COORD97":169383.32000000001,"N_COORD97":2546162.5800000001,"ADDRESS":"公園路９１４號","OBJECTID":335627},"geometry":{"x":169383.32000000123,"y":2546162.5800000001}},{"attributes":{"ID":335637,"DIS_CODE":0,"TOWNNAME":"東區","LI":"崇德里","LIN":"3鄰","STREET":"崇德六街","SECT":" ","MAREA":" ","LANE":" ","ALLEY":" ","HOUSE_NO":"４７號四樓之４","E_COORD97":170759.66,"N_COORD97":2541797.3100000001,"ADDRESS":"崇德六街４７號四樓之４","OBJECTID":335628},"geometry":{"x":170759.66000000015,"y":2541797.3100000005}},{"attributes":{"ID":335638,"DIS_CODE":0,"TOWNNAME":"中西區","LI":"開山里","LIN":"1鄰","STREET":"開山路","SECT":" ","MAREA":" ","LANE":"１５１巷","ALLEY":" ","HOUSE_NO":"１６號","E_COORD97":168872.98000000001,"N_COORD97":2543223.3900000001,"ADDRESS":"開山路１５１巷１６號","OBJECTID":335629},"geometry":{"x":168872.98000000045,"y":2543223.3900000025}},{"attributes":{"ID":335639,"DIS_CODE":0,"TOWNNAME":"中西區","LI":"開山里","LIN":"1鄰","STREET":"開山路","SECT":" ","MAREA":" ","LANE":"１５１巷","ALLEY":" ","HOUSE_NO":"１６號之１","E_COORD97":168870.56,"N_COORD97":2543229.1099999999,"ADDRESS":"開山路１５１巷１６號之１","OBJECTID":335630},"geometry":{"x":168870.56000000052,"y":2543229.1099999994}},{"attributes":{"ID":335640,"DIS_CODE":0,"TOWNNAME":"中西區","LI":"開山里","LIN":"1鄰","STREET":"開山路","SECT":" ","MAREA":" ","LANE":"１５１巷","ALLEY":" ","HOUSE_NO":"１６號之２","E_COORD97":168870.31,"N_COORD97":2543232.9199999999,"ADDRESS":"開山路１５１巷１６號之２","OBJECTID":335631},"geometry":{"x":168870.31000000145,"y":2543232.9200000018}},{"attributes":{"ID":335641,"DIS_CODE":0,"TOWNNAME":"仁德區","LI":"保安里","LIN":"1鄰","STREET":"文賢路","SECT":"一段","MAREA":" ","LANE":"５２９巷","ALLEY":" ","HOUSE_NO":"７號","E_COORD97":171169.04000000001,"N_COORD97":2537057.3199999998,"ADDRESS":"文賢路一段５２９巷７號","OBJECTID":335632},"geometry":{"x":171169.04000000004,"y":2537057.3200000003}},{"attributes":{"ID":335642,"DIS_CODE":0,"TOWNNAME":"仁德區","LI":"田厝里","LIN":"1鄰","STREET":"保安路","SECT":"二段","MAREA":" ","LANE":"６３０巷","ALLEY":" ","HOUSE_NO":"３０號","E_COORD97":172774.98000000001,"N_COORD97":2537503.5800000001,"ADDRESS":"保安路二段６３０巷３０號","OBJECTID":335633},"geometry":{"x":172774.98000000045,"y":2537503.5800000001}},{"attributes":{"ID":335643,"DIS_CODE":0,"TOWNNAME":"仁德區","LI":"仁德里","LIN":"1鄰","STREET":"中正路","SECT":"二段","MAREA":" ","LANE":"６７９巷","ALLEY":" ","HOUSE_NO":"６９號","E_COORD97":173320.85999999999,"N_COORD97":2540086.8199999998,"ADDRESS":"中正路二段６７９巷６９號","OBJECTID":335634},"geometry":{"x":173320.86000000127,"y":2540086.8200000022}},{"attributes":{"ID":335644,"DIS_CODE":0,"TOWNNAME":"永康區","LI":"北灣里","LIN":"1鄰","STREET":"大同街","SECT":" ","MAREA":" ","LANE":"８巷","ALLEY":" ","HOUSE_NO":"１９號","E_COORD97":175317.45000000001,"N_COORD97":2545482.2799999998,"ADDRESS":"大同街８巷１９號","OBJECTID":335635},"geometry":{"x":175317.45000000112,"y":2545482.2799999993}},{"attributes":{"ID":335645,"DIS_CODE":0,"TOWNNAME":"仁德區","LI":"田厝里","LIN":"1鄰","STREET":"保安路","SECT":"二段","MAREA":" ","LANE":"６３０巷","ALLEY":" ","HOUSE_NO":"２５號","E_COORD97":172797.63,"N_COORD97":2537514.5699999998,"ADDRESS":"保安路二段６３０巷２５號","OBJECTID":335636},"geometry":{"x":172797.62999999989,"y":2537514.570000004}},{"attributes":{"ID":335646,"DIS_CODE":0,"TOWNNAME":"仁德區","LI":"新田里","LIN":"1鄰","STREET":"新田二街","SECT":" ","MAREA":" ","LANE":"１３８巷","ALLEY":" ","HOUSE_NO":"４６號","E_COORD97":175033.04000000001,"N_COORD97":2539987.02,"ADDRESS":"新田二街１３８巷４６號","OBJECTID":335637},"geometry":{"x":175033.04000000097,"y":2539987.0200000014}},{"attributes":{"ID":335647,"DIS_CODE":0,"TOWNNAME":"仁德區","LI":"仁德里","LIN":"1鄰","STREET":"中正路","SECT":"二段","MAREA":" ","LANE":"６７９巷","ALLEY":" ","HOUSE_NO":"８７號","E_COORD97":173339.32999999999,"N_COORD97":2540125.0699999998,"ADDRESS":"中正路二段６７９巷８７號","OBJECTID":335638},"geometry":{"x":173339.33000000101,"y":2540125.070000004}},{"attributes":{"ID":335648,"DIS_CODE":0,"TOWNNAME":"仁德區","LI":"仁德里","LIN":"1鄰","STREET":"中正路","SECT":"二段","MAREA":" ","LANE":"６７９巷","ALLEY":" ","HOUSE_NO":"７３號","E_COORD97":173325,"N_COORD97":2540095.3199999998,"ADDRESS":"中正路二段６７９巷７３號","OBJECTID":335639},"geometry":{"x":173325.00000000093,"y":2540095.3200000003}},{"attributes":{"ID":335649,"DIS_CODE":0,"TOWNNAME":"仁德區","LI":"仁德里","LIN":"1鄰","STREET":"中正路","SECT":"二段","MAREA":" ","LANE":"６７９巷","ALLEY":" ","HOUSE_NO":"８１號","E_COORD97":173339.60999999999,"N_COORD97":2540107.3199999998,"ADDRESS":"中正路二段６７９巷８１號","OBJECTID":335640},"geometry":{"x":173339.61000000127,"y":2540107.3200000022}},{"attributes":{"ID":335650,"DIS_CODE":0,"TOWNNAME":"仁德區","LI":"仁德里","LIN":"1鄰","STREET":"中正路","SECT":"二段","MAREA":" ","LANE":"６７９巷","ALLEY":" ","HOUSE_NO":"７１號","E_COORD97":173322.87,"N_COORD97":2540090.8199999998,"ADDRESS":"中正路二段６７９巷７１號","OBJECTID":335641},"geometry":{"x":173322.87000000011,"y":2540090.8200000022}},{"attributes":{"ID":335651,"DIS_CODE":0,"TOWNNAME":"仁德區","LI":"仁德里","LIN":"1鄰","STREET":"中正路","SECT":"二段","MAREA":" ","LANE":"６７９巷","ALLEY":" ","HOUSE_NO":"８３號","E_COORD97":173342.48999999999,"N_COORD97":2540112.8199999998,"ADDRESS":"中正路二段６７９巷８３號","OBJECTID":335642},"geometry":{"x":173342.49000000022,"y":2540112.8200000003}},{"attributes":{"ID":335652,"DIS_CODE":0,"TOWNNAME":"仁德區","LI":"田厝里","LIN":"1鄰","STREET":"保安路","SECT":"二段","MAREA":" ","LANE":"６３０巷","ALLEY":" ","HOUSE_NO":"５２號","E_COORD97":172781.04999999999,"N_COORD97":2537460.2599999998,"ADDRESS":"保安路二段６３０巷５２號","OBJECTID":335643},"geometry":{"x":172781.04999999981,"y":2537460.2599999998}},{"attributes":{"ID":335653,"DIS_CODE":0,"TOWNNAME":"仁德區","LI":"仁德里","LIN":"1鄰","STREET":"中正路","SECT":"二段","MAREA":" ","LANE":"６７９巷","ALLEY":" ","HOUSE_NO":"７９號","E_COORD97":173338.70000000001,"N_COORD97":2540101.0699999998,"ADDRESS":"中正路二段６７９巷７９號","OBJECTID":335644},"geometry":{"x":173338.70000000112,"y":2540101.0700000003}},{"attributes":{"ID":335654,"DIS_CODE":0,"TOWNNAME":"仁德區","LI":"成功里","LIN":"1鄰","STREET":"保生東路","SECT":" ","MAREA":" ","LANE":"２１８巷","ALLEY":" ","HOUSE_NO":"１０２號","E_COORD97":171238.98000000001,"N_COORD97":2539602.9399999999,"ADDRESS":"保生東路２１８巷１０２號","OBJECTID":335645},"geometry":{"x":171238.98000000045,"y":2539602.9400000032}},{"attributes":{"ID":335655,"DIS_CODE":0,"TOWNNAME":"仁德區","LI":"後壁里","LIN":"1鄰","STREET":"中正路","SECT":"二段","MAREA":" ","LANE":"３９４巷","ALLEY":" ","HOUSE_NO":"１３號","E_COORD97":173298.75,"N_COORD97":2539242.02,"ADDRESS":"中正路二段３９４巷１３號","OBJECTID":335646},"geometry":{"x":173298.74999999907,"y":2539242.0199999996}},{"attributes":{"ID":335656,"DIS_CODE":0,"TOWNNAME":"仁德區","LI":"成功里","LIN":"1鄰","STREET":"保生東路","SECT":" ","MAREA":" ","LANE":"１３８巷","ALLEY":" ","HOUSE_NO":"２２號","E_COORD97":171243.39000000001,"N_COORD97":2539573.8100000001,"ADDRESS":"保生東路１３８巷２２號","OBJECTID":335647},"geometry":{"x":171243.3900000006,"y":2539573.8100000005}},{"attributes":{"ID":335657,"DIS_CODE":0,"TOWNNAME":"仁德區","LI":"新田里","LIN":"1鄰","STREET":"新田二街","SECT":" ","MAREA":" ","LANE":"１３８巷","ALLEY":" ","HOUSE_NO":"３６號","E_COORD97":175013.39000000001,"N_COORD97":2539995.6299999999,"ADDRESS":"新田二街１３８巷３６號","OBJECTID":335648},"geometry":{"x":175013.3900000006,"y":2539995.6300000008}},{"attributes":{"ID":335658,"DIS_CODE":0,"TOWNNAME":"仁德區","LI":"新田里","LIN":"1鄰","STREET":"新田二街","SECT":" ","MAREA":" ","LANE":"１３８巷","ALLEY":" ","HOUSE_NO":"２６號","E_COORD97":175021.14999999999,"N_COORD97":2540030.8700000001,"ADDRESS":"新田二街１３８巷２６號","OBJECTID":335649},"geometry":{"x":175021.1500000013,"y":2540030.870000001}},{"attributes":{"ID":335659,"DIS_CODE":0,"TOWNNAME":"南區","LI":"彰南里","LIN":"18鄰","STREET":"新和一路","SECT":" ","MAREA":" ","LANE":"３巷","ALLEY":" ","HOUSE_NO":"４號之１","E_COORD97":166088.74340400001,"N_COORD97":2540670.1677399999,"ADDRESS":"新和一路３巷４號之１","OBJECTID":335650},"geometry":{"x":166088.743404001,"y":2540670.1677400023}},{"attributes":{"ID":335660,"DIS_CODE":0,"TOWNNAME":"仁德區","LI":"田厝里","LIN":"1鄰","STREET":"保安路","SECT":"二段","MAREA":" ","LANE":"６３０巷","ALLEY":" ","HOUSE_NO":"４９號","E_COORD97":172804.17999999999,"N_COORD97":2537466.8100000001,"ADDRESS":"保安路二段６３０巷４９號","OBJECTID":335651},"geometry":{"x":172804.18000000063,"y":2537466.8100000024}},{"attributes":{"ID":335661,"DIS_CODE":0,"TOWNNAME":"仁德區","LI":"田厝里","LIN":"1鄰","STREET":"保安路","SECT":"二段","MAREA":" ","LANE":"６３０巷","ALLEY":" ","HOUSE_NO":"３９號","E_COORD97":172801.82000000001,"N_COORD97":2537486.5600000001,"ADDRESS":"保安路二段６３０巷３９號","OBJECTID":335652},"geometry":{"x":172801.8200000003,"y":2537486.5600000005}},{"attributes":{"ID":335662,"DIS_CODE":0,"TOWNNAME":"仁德區","LI":"成功里","LIN":"1鄰","STREET":"保生東路","SECT":" ","MAREA":" ","LANE":"１３８巷","ALLEY":" ","HOUSE_NO":"１１號","E_COORD97":171225.48999999999,"N_COORD97":2539588.1899999999,"ADDRESS":"保生東路１３８巷１１號","OBJECTID":335653},"geometry":{"x":171225.49000000022,"y":2539588.1900000013}},{"attributes":{"ID":335663,"DIS_CODE":0,"TOWNNAME":"仁德區","LI":"新田里","LIN":"1鄰","STREET":"新田二街","SECT":" ","MAREA":" ","LANE":"１２０巷","ALLEY":" ","HOUSE_NO":"４６號","E_COORD97":174939.32999999999,"N_COORD97":2540008,"ADDRESS":"新田二街１２０巷４６號","OBJECTID":335654},"geometry":{"x":174939.33000000194,"y":2540008.0000000019}},{"attributes":{"ID":335664,"DIS_CODE":0,"TOWNNAME":"新市區","LI":"新和里","LIN":"1鄰","STREET":"中華路","SECT":" ","MAREA":" ","LANE":"３巷","ALLEY":" ","HOUSE_NO":"２號","E_COORD97":177289.87,"N_COORD97":2552025.25,"ADDRESS":"中華路３巷２號","OBJECTID":335655},"geometry":{"x":177289.87000000011,"y":2552025.2500000019}},{"attributes":{"ID":335665,"DIS_CODE":0,"TOWNNAME":"新市區","LI":"新和里","LIN":"1鄰","STREET":"中華路","SECT":" ","MAREA":" ","LANE":"３巷","ALLEY":" ","HOUSE_NO":"１號","E_COORD97":177309.76000000001,"N_COORD97":2552045.25,"ADDRESS":"中華路３巷１號","OBJECTID":335656},"geometry":{"x":177309.76000000071,"y":2552045.2500000019}},{"attributes":{"ID":335666,"DIS_CODE":0,"TOWNNAME":"新市區","LI":"新和里","LIN":"1鄰","STREET":"中華路","SECT":" ","MAREA":" ","LANE":"１０巷","ALLEY":" ","HOUSE_NO":"６號","E_COORD97":177269.45999999999,"N_COORD97":2551954.5,"ADDRESS":"中華路１０巷６號","OBJECTID":335657},"geometry":{"x":177269.46000000089,"y":2551954.5000000037}},{"attributes":{"ID":335667,"DIS_CODE":0,"TOWNNAME":"新市區","LI":"新和里","LIN":"1鄰","STREET":"中華路","SECT":" ","MAREA":" ","LANE":"３巷","ALLEY":" ","HOUSE_NO":"５號","E_COORD97":177299.57000000001,"N_COORD97":2552051.5,"ADDRESS":"中華路３巷５號","OBJECTID":335658},"geometry":{"x":177299.57000000123,"y":2552051.5}},{"attributes":{"ID":335668,"DIS_CODE":0,"TOWNNAME":"永康區","LI":"北灣里","LIN":"1鄰","STREET":"大同街","SECT":" ","MAREA":" ","LANE":"８巷","ALLEY":" ","HOUSE_NO":"３號","E_COORD97":175316.20000000001,"N_COORD97":2545440.77,"ADDRESS":"大同街８巷３號","OBJECTID":335659},"geometry":{"x":175316.20000000019,"y":2545440.7700000014}},{"attributes":{"ID":335669,"DIS_CODE":0,"TOWNNAME":"永康區","LI":"北灣里","LIN":"1鄰","STREET":"大同街","SECT":" ","MAREA":" ","LANE":"８巷","ALLEY":" ","HOUSE_NO":"１７號","E_COORD97":175318.03,"N_COORD97":2545476.5299999998,"ADDRESS":"大同街８巷１７號","OBJECTID":335660},"geometry":{"x":175318.03000000212,"y":2545476.5299999993}},{"attributes":{"ID":335670,"DIS_CODE":0,"TOWNNAME":"永康區","LI":"王行里","LIN":"1鄰","STREET":"王行路","SECT":" ","MAREA":" ","LANE":"２４６巷","ALLEY":" ","HOUSE_NO":"２６號之６","E_COORD97":175709.95999999999,"N_COORD97":2548213.0699999998,"ADDRESS":"王行路２４６巷２６號之６","OBJECTID":335661},"geometry":{"x":175709.96000000089,"y":2548213.0700000003}},{"attributes":{"ID":335671,"DIS_CODE":0,"TOWNNAME":"永康區","LI":"北灣里","LIN":"1鄰","STREET":"大同街","SECT":" ","MAREA":" ","LANE":"５０巷","ALLEY":" ","HOUSE_NO":"２７號","E_COORD97":175245.63,"N_COORD97":2545483.2000000002,"ADDRESS":"大同街５０巷２７號","OBJECTID":335662},"geometry":{"x":175245.63000000175,"y":2545483.1999999974}},{"attributes":{"ID":335672,"DIS_CODE":0,"TOWNNAME":"永康區","LI":"王行里","LIN":"1鄰","STREET":"王行路","SECT":" ","MAREA":" ","LANE":"２２４巷","ALLEY":" ","HOUSE_NO":"１６號","E_COORD97":175695.35000000001,"N_COORD97":2548156.8900000001,"ADDRESS":"王行路２２４巷１６號","OBJECTID":335663},"geometry":{"x":175695.35000000056,"y":2548156.8900000006}},{"attributes":{"ID":335673,"DIS_CODE":0,"TOWNNAME":"永康區","LI":"王行里","LIN":"1鄰","STREET":"王行路","SECT":" ","MAREA":" ","LANE":"２２４巷","ALLEY":" ","HOUSE_NO":"９號","E_COORD97":175704.35000000001,"N_COORD97":2548200.3700000001,"ADDRESS":"王行路２２４巷９號","OBJECTID":335664},"geometry":{"x":175704.34999999963,"y":2548200.3700000029}},{"attributes":{"ID":335674,"DIS_CODE":0,"TOWNNAME":"永康區","LI":"北灣里","LIN":"1鄰","STREET":"大灣路","SECT":" ","MAREA":" ","LANE":"１１９巷","ALLEY":" ","HOUSE_NO":"４８號","E_COORD97":175256.04999999999,"N_COORD97":2545522.9300000002,"ADDRESS":"大灣路１１９巷４８號","OBJECTID":335665},"geometry":{"x":175256.04999999981,"y":2545522.9300000034}},{"attributes":{"ID":335675,"DIS_CODE":0,"TOWNNAME":"永康區","LI":"北灣里","LIN":"1鄰","STREET":"大同街","SECT":" ","MAREA":" ","LANE":"９８巷","ALLEY":" ","HOUSE_NO":"５號","E_COORD97":175150.14999999999,"N_COORD97":2545493.7200000002,"ADDRESS":"大同街９８巷５號","OBJECTID":335666},"geometry":{"x":175150.1500000013,"y":2545493.7200000007}},{"attributes":{"ID":335676,"DIS_CODE":0,"TOWNNAME":"永康區","LI":"王行里","LIN":"1鄰","STREET":"王行路","SECT":" ","MAREA":" ","LANE":"２０８巷","ALLEY":" ","HOUSE_NO":"１１號","E_COORD97":175705.20000000001,"N_COORD97":2548149.9900000002,"ADDRESS":"王行路２０８巷１１號","OBJECTID":335667},"geometry":{"x":175705.20000000112,"y":2548149.9900000002}},{"attributes":{"ID":335677,"DIS_CODE":0,"TOWNNAME":"永康區","LI":"北灣里","LIN":"1鄰","STREET":"大同街","SECT":" ","MAREA":" ","LANE":"８巷","ALLEY":" ","HOUSE_NO":"２６號","E_COORD97":175332.60000000001,"N_COORD97":2545480.48,"ADDRESS":"大同街８巷２６號","OBJECTID":335668},"geometry":{"x":175332.60000000056,"y":2545480.4800000023}},{"attributes":{"ID":335678,"DIS_CODE":0,"TOWNNAME":"永康區","LI":"北灣里","LIN":"1鄰","STREET":"大灣路","SECT":" ","MAREA":" ","LANE":"１１９巷","ALLEY":" ","HOUSE_NO":"２０號","E_COORD97":175181.60000000001,"N_COORD97":2545512.7400000002,"ADDRESS":"大灣路１１９巷２０號","OBJECTID":335669},"geometry":{"x":175181.60000000056,"y":2545512.7400000021}},{"attributes":{"ID":335679,"DIS_CODE":0,"TOWNNAME":"永康區","LI":"北灣里","LIN":"1鄰","STREET":"大同街","SECT":" ","MAREA":" ","LANE":"８巷","ALLEY":" ","HOUSE_NO":"１８號","E_COORD97":175332.42000000001,"N_COORD97":2545465.4700000002,"ADDRESS":"大同街８巷１８號","OBJECTID":335670},"geometry":{"x":175332.42000000086,"y":2545465.4700000007}},{"attributes":{"ID":335680,"DIS_CODE":0,"TOWNNAME":"永康區","LI":"北灣里","LIN":"1鄰","STREET":"大同街","SECT":" ","MAREA":" ","LANE":"８巷","ALLEY":" ","HOUSE_NO":"１０號","E_COORD97":175332.32000000001,"N_COORD97":2545449.7200000002,"ADDRESS":"大同街８巷１０號","OBJECTID":335671},"geometry":{"x":175332.3200000003,"y":2545449.7200000007}},{"attributes":{"ID":335681,"DIS_CODE":0,"TOWNNAME":"永康區","LI":"北灣里","LIN":"1鄰","STREET":"大同街","SECT":" ","MAREA":" ","LANE":"９８巷","ALLEY":" ","HOUSE_NO":"８號","E_COORD97":175167.79000000001,"N_COORD97":2545482.8799999999,"ADDRESS":"大同街９８巷８號","OBJECTID":335672},"geometry":{"x":175167.79000000004,"y":2545482.8800000008}},{"attributes":{"ID":335682,"DIS_CODE":0,"TOWNNAME":"永康區","LI":"北灣里","LIN":"1鄰","STREET":"大灣路","SECT":" ","MAREA":" ","LANE":"１１９巷","ALLEY":" ","HOUSE_NO":"３６號","E_COORD97":175223.14999999999,"N_COORD97":2545521.75,"ADDRESS":"大灣路１１９巷３６號","OBJECTID":335673},"geometry":{"x":175223.15000000037,"y":2545521.7500000019}},{"attributes":{"ID":335683,"DIS_CODE":0,"TOWNNAME":"永康區","LI":"北灣里","LIN":"1鄰","STREET":"大灣路","SECT":" ","MAREA":" ","LANE":"１１９巷","ALLEY":" ","HOUSE_NO":"３８號","E_COORD97":175223.78,"N_COORD97":2545499.4399999999,"ADDRESS":"大灣路１１９巷３８號","OBJECTID":335674},"geometry":{"x":175223.78000000119,"y":2545499.4400000013}},{"attributes":{"ID":335684,"DIS_CODE":0,"TOWNNAME":"永康區","LI":"北灣里","LIN":"1鄰","STREET":"大同街","SECT":" ","MAREA":" ","LANE":"８巷","ALLEY":" ","HOUSE_NO":"１３號","E_COORD97":175317.07000000001,"N_COORD97":2545466.27,"ADDRESS":"大同街８巷１３號","OBJECTID":335675},"geometry":{"x":175317.0700000003,"y":2545466.2700000033}},{"attributes":{"ID":335685,"DIS_CODE":0,"TOWNNAME":"永康區","LI":"北灣里","LIN":"1鄰","STREET":"大灣路","SECT":" ","MAREA":" ","LANE":"１１９巷","ALLEY":" ","HOUSE_NO":"２６號","E_COORD97":175203.26000000001,"N_COORD97":2545461.5600000001,"ADDRESS":"大灣路１１９巷２６號","OBJECTID":335676},"geometry":{"x":175203.25999999978,"y":2545461.5600000005}},{"attributes":{"ID":335686,"DIS_CODE":0,"TOWNNAME":"永康區","LI":"北灣里","LIN":"1鄰","STREET":"大同街","SECT":" ","MAREA":" ","LANE":"９８巷","ALLEY":" ","HOUSE_NO":"１號","E_COORD97":175135.39000000001,"N_COORD97":2545481.3799999999,"ADDRESS":"大同街９８巷１號","OBJECTID":335677},"geometry":{"x":175135.3900000006,"y":2545481.379999999}},{"attributes":{"ID":335687,"DIS_CODE":0,"TOWNNAME":"永康區","LI":"北灣里","LIN":"1鄰","STREET":"大同街","SECT":" ","MAREA":" ","LANE":"９８巷","ALLEY":" ","HOUSE_NO":"６號","E_COORD97":175155.39999999999,"N_COORD97":2545489.3599999999,"ADDRESS":"大同街９８巷６號","OBJECTID":335678},"geometry":{"x":175155.40000000037,"y":2545489.3600000031}},{"attributes":{"ID":335688,"DIS_CODE":0,"TOWNNAME":"永康區","LI":"永康里","LIN":"1鄰","STREET":"永埔街","SECT":" ","MAREA":" ","LANE":"３３巷","ALLEY":" ","HOUSE_NO":"６號","E_COORD97":173992.51000000001,"N_COORD97":2547546.0099999998,"ADDRESS":"永埔街３３巷６號","OBJECTID":335679},"geometry":{"x":173992.51000000071,"y":2547546.0099999998}},{"attributes":{"ID":335689,"DIS_CODE":0,"TOWNNAME":"永康區","LI":"北灣里","LIN":"1鄰","STREET":"大灣路","SECT":" ","MAREA":" ","LANE":"１１９巷","ALLEY":" ","HOUSE_NO":"３４號","E_COORD97":175211.78,"N_COORD97":2545518.6499999999,"ADDRESS":"大灣路１１９巷３４號","OBJECTID":335680},"geometry":{"x":175211.78000000119,"y":2545518.6500000041}},{"attributes":{"ID":335690,"DIS_CODE":0,"TOWNNAME":"永康區","LI":"永康里","LIN":"1鄰","STREET":"永埔街","SECT":" ","MAREA":" ","LANE":"３３巷","ALLEY":" ","HOUSE_NO":"１７號","E_COORD97":173948.92000000001,"N_COORD97":2547510.9900000002,"ADDRESS":"永埔街３３巷１７號","OBJECTID":335681},"geometry":{"x":173948.92000000086,"y":2547510.9900000021}},{"attributes":{"ID":335691,"DIS_CODE":0,"TOWNNAME":"永康區","LI":"永康里","LIN":"1鄰","STREET":"永埔街","SECT":" ","MAREA":" ","LANE":"３３巷","ALLEY":" ","HOUSE_NO":"４６號","E_COORD97":173916.79000000001,"N_COORD97":2547512.4900000002,"ADDRESS":"永埔街３３巷４６號","OBJECTID":335682},"geometry":{"x":173916.79000000004,"y":2547512.4900000002}},{"attributes":{"ID":335692,"DIS_CODE":0,"TOWNNAME":"永康區","LI":"永康里","LIN":"1鄰","STREET":"永埔街","SECT":" ","MAREA":" ","LANE":"３３巷","ALLEY":" ","HOUSE_NO":"２０號","E_COORD97":173962.07000000001,"N_COORD97":2547529.4900000002,"ADDRESS":"永埔街３３巷２０號","OBJECTID":335683},"geometry":{"x":173962.07000000123,"y":2547529.4900000002}},{"attributes":{"ID":335693,"DIS_CODE":0,"TOWNNAME":"永康區","LI":"永康里","LIN":"1鄰","STREET":"永埔街","SECT":" ","MAREA":" ","LANE":"３３巷","ALLEY":" ","HOUSE_NO":"１６號","E_COORD97":173971.12,"N_COORD97":2547537.2400000002,"ADDRESS":"永埔街３３巷１６號","OBJECTID":335684},"geometry":{"x":173971.12000000197,"y":2547537.2400000002}},{"attributes":{"ID":335694,"DIS_CODE":0,"TOWNNAME":"永康區","LI":"永康里","LIN":"1鄰","STREET":"永埔街","SECT":" ","MAREA":" ","LANE":"３３巷","ALLEY":" ","HOUSE_NO":"１２號","E_COORD97":173977.03,"N_COORD97":2547539.4900000002,"ADDRESS":"永埔街３３巷１２號","OBJECTID":335685},"geometry":{"x":173977.03000000212,"y":2547539.4900000002}},{"attributes":{"ID":335695,"DIS_CODE":0,"TOWNNAME":"永康區","LI":"北灣里","LIN":"1鄰","STREET":"大同街","SECT":" ","MAREA":" ","LANE":"８巷","ALLEY":" ","HOUSE_NO":"７號","E_COORD97":175315.94,"N_COORD97":2545451.02,"ADDRESS":"大同街８巷７號","OBJECTID":335686},"geometry":{"x":175315.94000000134,"y":2545451.0200000033}},{"attributes":{"ID":335696,"DIS_CODE":0,"TOWNNAME":"永康區","LI":"王行里","LIN":"1鄰","STREET":"王行路","SECT":" ","MAREA":" ","LANE":"２０８巷","ALLEY":" ","HOUSE_NO":"１０號","E_COORD97":175707.85000000001,"N_COORD97":2548130.1000000001,"ADDRESS":"王行路２０８巷１０號","OBJECTID":335687},"geometry":{"x":175707.84999999963,"y":2548130.1000000015}},{"attributes":{"ID":335697,"DIS_CODE":0,"TOWNNAME":"永康區","LI":"北灣里","LIN":"1鄰","STREET":"大同街","SECT":" ","MAREA":" ","LANE":"５０巷","ALLEY":" ","HOUSE_NO":"１９號","E_COORD97":175274.51000000001,"N_COORD97":2545470.7999999998,"ADDRESS":"大同街５０巷１９號","OBJECTID":335688},"geometry":{"x":175274.50999999978,"y":2545470.8000000045}},{"attributes":{"ID":335698,"DIS_CODE":0,"TOWNNAME":"永康區","LI":"北灣里","LIN":"1鄰","STREET":"大同街","SECT":" ","MAREA":" ","LANE":"５０巷","ALLEY":" ","HOUSE_NO":"７號","E_COORD97":175266.73999999999,"N_COORD97":2545443.7400000002,"ADDRESS":"大同街５０巷７號","OBJECTID":335689},"geometry":{"x":175266.74000000022,"y":2545443.7400000021}},{"attributes":{"ID":335699,"DIS_CODE":0,"TOWNNAME":"南區","LI":"竹溪里","LIN":"4鄰","STREET":"體育路","SECT":" ","MAREA":" ","LANE":"４１巷","ALLEY":" ","HOUSE_NO":"３４號","E_COORD97":168845.85999999999,"N_COORD97":2542236.5,"ADDRESS":"體育路４１巷３４號","OBJECTID":335690},"geometry":{"x":168845.86000000127,"y":2542236.5}},{"attributes":{"ID":335700,"DIS_CODE":0,"TOWNNAME":"南區","LI":"竹溪里","LIN":"4鄰","STREET":"體育路","SECT":" ","MAREA":" ","LANE":"４１巷","ALLEY":" ","HOUSE_NO":"３０號","E_COORD97":168824.16,"N_COORD97":2542234.9300000002,"ADDRESS":"體育路４１巷３０號","OBJECTID":335691},"geometry":{"x":168824.16000000015,"y":2542234.9300000016}},{"attributes":{"ID":335701,"DIS_CODE":0,"TOWNNAME":"永康區","LI":"北灣里","LIN":"1鄰","STREET":"大同街","SECT":" ","MAREA":" ","LANE":"５０巷","ALLEY":" ","HOUSE_NO":"２３號","E_COORD97":175263.51000000001,"N_COORD97":2545467.5499999998,"ADDRESS":"大同街５０巷２３號","OBJECTID":335692},"geometry":{"x":175263.51000000071,"y":2545467.5500000007}},{"attributes":{"ID":335702,"DIS_CODE":0,"TOWNNAME":"永康區","LI":"北灣里","LIN":"1鄰","STREET":"大同街","SECT":" ","MAREA":" ","LANE":"５０巷","ALLEY":" ","HOUSE_NO":"２５號","E_COORD97":175249.45999999999,"N_COORD97":2545469.2999999998,"ADDRESS":"大同街５０巷２５號","OBJECTID":335693},"geometry":{"x":175249.45999999996,"y":2545469.3000000007}},{"attributes":{"ID":335703,"DIS_CODE":0,"TOWNNAME":"永康區","LI":"王行里","LIN":"1鄰","STREET":"王行路","SECT":" ","MAREA":" ","LANE":"２０８巷","ALLEY":" ","HOUSE_NO":"６號","E_COORD97":175695.59,"N_COORD97":2548127.1000000001,"ADDRESS":"王行路２０８巷６號","OBJECTID":335694},"geometry":{"x":175695.59000000078,"y":2548127.1000000015}},{"attributes":{"ID":335704,"DIS_CODE":0,"TOWNNAME":"永康區","LI":"王行里","LIN":"1鄰","STREET":"王行路","SECT":" ","MAREA":" ","LANE":"２４６巷","ALLEY":" ","HOUSE_NO":"４９號","E_COORD97":175733.89000000001,"N_COORD97":2548264.9900000002,"ADDRESS":"王行路２４６巷４９號","OBJECTID":335695},"geometry":{"x":175733.8900000006,"y":2548264.9900000002}},{"attributes":{"ID":335705,"DIS_CODE":0,"TOWNNAME":"永康區","LI":"北灣里","LIN":"1鄰","STREET":"大同街","SECT":" ","MAREA":" ","LANE":"８巷","ALLEY":" ","HOUSE_NO":"１５號","E_COORD97":175317.5,"N_COORD97":2545471.02,"ADDRESS":"大同街８巷１５號","OBJECTID":335696},"geometry":{"x":175317.5,"y":2545471.0199999996}},{"attributes":{"ID":335706,"DIS_CODE":0,"TOWNNAME":"永康區","LI":"王行里","LIN":"1鄰","STREET":"王行路","SECT":" ","MAREA":" ","LANE":"２２６巷","ALLEY":" ","HOUSE_NO":"６號","E_COORD97":175656.78,"N_COORD97":2548230.9900000002,"ADDRESS":"王行路２２６巷６號","OBJECTID":335697},"geometry":{"x":175656.78000000026,"y":2548230.9900000002}},{"attributes":{"ID":335707,"DIS_CODE":0,"TOWNNAME":"仁德區","LI":"太子里","LIN":"36鄰","STREET":"長興一街","SECT":" ","MAREA":" ","LANE":"４０巷","ALLEY":" ","HOUSE_NO":"２５號","E_COORD97":174475.60731799999,"N_COORD97":2543881.4043700001,"ADDRESS":"長興一街４０巷２５號","OBJECTID":335698},"geometry":{"x":174475.60731799994,"y":2543881.4043690003}},{"attributes":{"ID":335708,"DIS_CODE":0,"TOWNNAME":"仁德區","LI":"太子里","LIN":"36鄰","STREET":"長興一街","SECT":" ","MAREA":" ","LANE":"４０巷","ALLEY":" ","HOUSE_NO":"２３號","E_COORD97":174483.23110999999,"N_COORD97":2543880.2401999999,"ADDRESS":"長興一街４０巷２３號","OBJECTID":335699},"geometry":{"x":174483.23111000005,"y":2543880.2402020022}},{"attributes":{"ID":335709,"DIS_CODE":0,"TOWNNAME":"永康區","LI":"龍潭里","LIN":"36鄰","STREET":"中山北路","SECT":" ","MAREA":" ","LANE":"１６４巷","ALLEY":" ","HOUSE_NO":"１５６號","E_COORD97":174655.31,"N_COORD97":2547404.8500000001,"ADDRESS":"中山北路１６４巷１５６號","OBJECTID":335700},"geometry":{"x":174655.30999999959,"y":2547404.8499999978}},{"attributes":{"ID":335710,"DIS_CODE":0,"TOWNNAME":"永康區","LI":"復華里","LIN":"36鄰","STREET":"復華七街","SECT":" ","MAREA":" ","LANE":"３９巷","ALLEY":" ","HOUSE_NO":"３３號","E_COORD97":172585.89999999999,"N_COORD97":2546057.23,"ADDRESS":"復華七街３９巷３３號","OBJECTID":335701},"geometry":{"x":172585.90000000037,"y":2546057.2299999986}},{"attributes":{"ID":335711,"DIS_CODE":0,"TOWNNAME":"永康區","LI":"復華里","LIN":"36鄰","STREET":"復華七街","SECT":" ","MAREA":" ","LANE":"３９巷","ALLEY":" ","HOUSE_NO":"３號","E_COORD97":172625.67000000001,"N_COORD97":2546010.9700000002,"ADDRESS":"復華七街３９巷３號","OBJECTID":335702},"geometry":{"x":172625.66999999993,"y":2546010.9700000007}},{"attributes":{"ID":335712,"DIS_CODE":0,"TOWNNAME":"永康區","LI":"復國里","LIN":"36鄰","STREET":"復國一路","SECT":" ","MAREA":" ","LANE":"２１巷","ALLEY":" ","HOUSE_NO":"１號","E_COORD97":172681.92000000001,"N_COORD97":2544801.27,"ADDRESS":"復國一路２１巷１號","OBJECTID":335703},"geometry":{"x":172681.91999999993,"y":2544801.2699999996}},{"attributes":{"ID":335713,"DIS_CODE":0,"TOWNNAME":"永康區","LI":"王行里","LIN":"1鄰","STREET":"王行路","SECT":" ","MAREA":" ","LANE":"２０８巷","ALLEY":" ","HOUSE_NO":"２號","E_COORD97":175684.16,"N_COORD97":2548119.7000000002,"ADDRESS":"王行路２０８巷２號","OBJECTID":335704},"geometry":{"x":175684.16000000015,"y":2548119.6999999993}},{"attributes":{"ID":335714,"DIS_CODE":0,"TOWNNAME":"永康區","LI":"北灣里","LIN":"1鄰","STREET":"大同街","SECT":" ","MAREA":" ","LANE":"５０巷","ALLEY":" ","HOUSE_NO":"１７號","E_COORD97":175278.95999999999,"N_COORD97":2545472.8100000001,"ADDRESS":"大同街５０巷１７號","OBJECTID":335705},"geometry":{"x":175278.95999999903,"y":2545472.8100000005}},{"attributes":{"ID":335715,"DIS_CODE":0,"TOWNNAME":"永康區","LI":"北灣里","LIN":"1鄰","STREET":"大同街","SECT":" ","MAREA":" ","LANE":"５０巷","ALLEY":" ","HOUSE_NO":"２１號","E_COORD97":175269.91,"N_COORD97":2545469.2999999998,"ADDRESS":"大同街５０巷２１號","OBJECTID":335706},"geometry":{"x":175269.91000000108,"y":2545469.3000000007}},{"attributes":{"ID":335716,"DIS_CODE":0,"TOWNNAME":"永康區","LI":"北灣里","LIN":"1鄰","STREET":"大同街","SECT":" ","MAREA":" ","LANE":"８巷","ALLEY":" ","HOUSE_NO":"２２號","E_COORD97":175332.16,"N_COORD97":2545475.73,"ADDRESS":"大同街８巷２２號","OBJECTID":335707},"geometry":{"x":175332.16000000201,"y":2545475.7300000023}},{"attributes":{"ID":335717,"DIS_CODE":0,"TOWNNAME":"永康區","LI":"王行里","LIN":"1鄰","STREET":"王行路","SECT":" ","MAREA":" ","LANE":"２０８巷","ALLEY":" ","HOUSE_NO":"８號","E_COORD97":175701.75,"N_COORD97":2548128.6000000001,"ADDRESS":"王行路２０８巷８號","OBJECTID":335708},"geometry":{"x":175701.75000000093,"y":2548128.5999999996}},{"attributes":{"ID":335718,"DIS_CODE":0,"TOWNNAME":"新市區","LI":"新和里","LIN":"1鄰","STREET":"中華路","SECT":" ","MAREA":" ","LANE":"３巷","ALLEY":" ","HOUSE_NO":"９號","E_COORD97":177325.12,"N_COORD97":2552045.25,"ADDRESS":"中華路３巷９號","OBJECTID":335709},"geometry":{"x":177325.12000000011,"y":2552045.2500000019}},{"attributes":{"ID":335719,"DIS_CODE":0,"TOWNNAME":"新市區","LI":"港墘里","LIN":"1鄰","STREET":"大同街","SECT":" ","MAREA":" ","LANE":"２９巷","ALLEY":" ","HOUSE_NO":"４號","E_COORD97":178432.26999999999,"N_COORD97":2553584.25,"ADDRESS":"大同街２９巷４號","OBJECTID":335710},"geometry":{"x":178432.26999999955,"y":2553584.2500000019}},{"attributes":{"ID":335720,"DIS_CODE":0,"TOWNNAME":"東區","LI":"東門里","LIN":"1鄰","STREET":"東門路","SECT":"一段","MAREA":" ","LANE":"３３巷","ALLEY":" ","HOUSE_NO":"１０號","E_COORD97":169229.60000000001,"N_COORD97":2543293.1000000001,"ADDRESS":"東門路一段３３巷１０號","OBJECTID":335711},"geometry":{"x":169229.60000000056,"y":2543293.0999999996}},{"attributes":{"ID":335721,"DIS_CODE":0,"TOWNNAME":"東區","LI":"東門里","LIN":"1鄰","STREET":"東門路","SECT":"一段","MAREA":" ","LANE":"３３巷","ALLEY":" ","HOUSE_NO":"１１號","E_COORD97":169230.89999999999,"N_COORD97":2543302.0499999998,"ADDRESS":"東門路一段３３巷１１號","OBJECTID":335712},"geometry":{"x":169230.90000000037,"y":2543302.0500000007}},{"attributes":{"ID":335722,"DIS_CODE":0,"TOWNNAME":"中西區","LI":"安海里","LIN":"3鄰","STREET":"金華路","SECT":"三段","MAREA":" ","LANE":" ","ALLEY":" ","HOUSE_NO":"２５７號四樓之４","E_COORD97":167327.94,"N_COORD97":2544024.71,"ADDRESS":"金華路三段２５７號四樓之４","OBJECTID":335713},"geometry":{"x":167327.94000000134,"y":2544024.7100000028}},{"attributes":{"ID":335723,"DIS_CODE":0,"TOWNNAME":"北區","LI":"元寶里","LIN":"3鄰","STREET":"北園街","SECT":" ","MAREA":" ","LANE":" ","ALLEY":" ","HOUSE_NO":"７２號七樓之４","E_COORD97":170359.95999999999,"N_COORD97":2545828.98,"ADDRESS":"北園街７２號七樓之４","OBJECTID":335714},"geometry":{"x":170359.96000000089,"y":2545828.9800000023}},{"attributes":{"ID":335724,"DIS_CODE":0,"TOWNNAME":"安南區","LI":"溪心里","LIN":"3鄰","STREET":"安中路","SECT":"二段","MAREA":" ","LANE":" ","ALLEY":" ","HOUSE_NO":"３０６號","E_COORD97":166471.06,"N_COORD97":2549736.3199999998,"ADDRESS":"安中路二段３０６號","OBJECTID":335715},"geometry":{"x":166471.05999999959,"y":2549736.3200000022}},{"attributes":{"ID":335725,"DIS_CODE":0,"TOWNNAME":"東區","LI":"裕聖里","LIN":"3鄰","STREET":"裕信三街","SECT":" ","MAREA":" ","LANE":" ","ALLEY":" ","HOUSE_NO":"１８７號","E_COORD97":172652.67000000001,"N_COORD97":2542303.0899999999,"ADDRESS":"裕信三街１８７號","OBJECTID":335716},"geometry":{"x":172652.66999999993,"y":2542303.0899999999}},{"attributes":{"ID":335726,"DIS_CODE":0,"TOWNNAME":"東區","LI":"裕聖里","LIN":"3鄰","STREET":"裕信三街","SECT":" ","MAREA":" ","LANE":" ","ALLEY":" ","HOUSE_NO":"１８９號","E_COORD97":172647.85999999999,"N_COORD97":2542302.9399999999,"ADDRESS":"裕信三街１８９號","OBJECTID":335717},"geometry":{"x":172647.86000000127,"y":2542302.9400000013}},{"attributes":{"ID":335727,"DIS_CODE":0,"TOWNNAME":"東區","LI":"裕聖里","LIN":"3鄰","STREET":"裕信三街","SECT":" ","MAREA":" ","LANE":" ","ALLEY":" ","HOUSE_NO":"１９１號","E_COORD97":172643.20000000001,"N_COORD97":2542303.0899999999,"ADDRESS":"裕信三街１９１號","OBJECTID":335718},"geometry":{"x":172643.20000000019,"y":2542303.0899999999}},{"attributes":{"ID":335728,"DIS_CODE":0,"TOWNNAME":"東區","LI":"裕聖里","LIN":"3鄰","STREET":"裕信三街","SECT":" ","MAREA":" ","LANE":" ","ALLEY":" ","HOUSE_NO":"１９３號","E_COORD97":172637.76000000001,"N_COORD97":2542303.25,"ADDRESS":"裕信三街１９３號","OBJECTID":335719},"geometry":{"x":172637.76000000071,"y":2542303.25}},{"attributes":{"ID":335729,"DIS_CODE":0,"TOWNNAME":"新市區","LI":"大社里","LIN":"36鄰","STREET":" ","SECT":" ","MAREA":"大社","LANE":" ","ALLEY":" ","HOUSE_NO":"５９１之３０號","E_COORD97":179334.06,"N_COORD97":2554307.0499999998,"ADDRESS":"大社５９１之３０號","OBJECTID":335720},"geometry":{"x":179334.05999999959,"y":2554307.0500000007}},{"attributes":{"ID":335730,"DIS_CODE":0,"TOWNNAME":"新市區","LI":"大社里","LIN":"36鄰","STREET":" ","SECT":" ","MAREA":"大社","LANE":" ","ALLEY":" ","HOUSE_NO":"５９１之１１號","E_COORD97":179371.87,"N_COORD97":2554306.7999999998,"ADDRESS":"大社５９１之１１號","OBJECTID":335721},"geometry":{"x":179371.87000000011,"y":2554306.8000000026}},{"attributes":{"ID":335731,"DIS_CODE":0,"TOWNNAME":"新市區","LI":"大社里","LIN":"36鄰","STREET":" ","SECT":" ","MAREA":"大社","LANE":" ","ALLEY":" ","HOUSE_NO":"５９０之２３號","E_COORD97":179347.45999999999,"N_COORD97":2554380.7999999998,"ADDRESS":"大社５９０之２３號","OBJECTID":335722},"geometry":{"x":179347.45999999903,"y":2554380.8000000045}},{"attributes":{"ID":335732,"DIS_CODE":0,"TOWNNAME":"新市區","LI":"大社里","LIN":"36鄰","STREET":" ","SECT":" ","MAREA":"大社","LANE":" ","ALLEY":" ","HOUSE_NO":"５９０之８號","E_COORD97":179400.92999999999,"N_COORD97":2554313.7999999998,"ADDRESS":"大社５９０之８號","OBJECTID":335723},"geometry":{"x":179400.9299999997,"y":2554313.8000000026}},{"attributes":{"ID":335733,"DIS_CODE":0,"TOWNNAME":"永康區","LI":"二王里","LIN":"36鄰","STREET":"中山南路","SECT":" ","MAREA":" ","LANE":"４９０巷","ALLEY":" ","HOUSE_NO":"５３號","E_COORD97":172258.54000000001,"N_COORD97":2546354.4700000002,"ADDRESS":"中山南路４９０巷５３號","OBJECTID":335724},"geometry":{"x":172258.54000000097,"y":2546354.4700000044}},{"attributes":{"ID":335734,"DIS_CODE":0,"TOWNNAME":"東區","LI":"東門里","LIN":"1鄰","STREET":"東門路","SECT":"一段","MAREA":" ","LANE":"３３巷","ALLEY":" ","HOUSE_NO":"１２號","E_COORD97":169232.37,"N_COORD97":2543309.48,"ADDRESS":"東門路一段３３巷１２號","OBJECTID":335725},"geometry":{"x":169232.37000000011,"y":2543309.4800000042}},{"attributes":{"ID":335735,"DIS_CODE":0,"TOWNNAME":"東區","LI":"東門里","LIN":"1鄰","STREET":"東門路","SECT":"一段","MAREA":" ","LANE":"３３巷","ALLEY":" ","HOUSE_NO":"１３號","E_COORD97":169233.37,"N_COORD97":2543316.1899999999,"ADDRESS":"東門路一段３３巷１３號","OBJECTID":335726},"geometry":{"x":169233.37000000104,"y":2543316.1899999995}},{"attributes":{"ID":335736,"DIS_CODE":0,"TOWNNAME":"新市區","LI":"大社里","LIN":"36鄰","STREET":" ","SECT":" ","MAREA":"大社","LANE":" ","ALLEY":" ","HOUSE_NO":"５９１之４８號","E_COORD97":179304.51000000001,"N_COORD97":2554378.0499999998,"ADDRESS":"大社５９１之４８號","OBJECTID":335727},"geometry":{"x":179304.50999999885,"y":2554378.0500000007}},{"attributes":{"ID":335737,"DIS_CODE":0,"TOWNNAME":"新市區","LI":"大社里","LIN":"36鄰","STREET":" ","SECT":" ","MAREA":"大社","LANE":" ","ALLEY":" ","HOUSE_NO":"５９１之１４號","E_COORD97":179360.85000000001,"N_COORD97":2554290.2999999998,"ADDRESS":"大社５９１之１４號","OBJECTID":335728},"geometry":{"x":179360.84999999963,"y":2554290.3000000026}},{"attributes":{"ID":335738,"DIS_CODE":0,"TOWNNAME":"東區","LI":"東門里","LIN":"1鄰","STREET":"東門路","SECT":"一段","MAREA":" ","LANE":"３３巷","ALLEY":" ","HOUSE_NO":"１４號","E_COORD97":169226.84,"N_COORD97":2543323.0899999999,"ADDRESS":"東門路一段３３巷１４號","OBJECTID":335729},"geometry":{"x":169226.84000000078,"y":2543323.0900000017}},{"attributes":{"ID":335739,"DIS_CODE":0,"TOWNNAME":"東區","LI":"東門里","LIN":"1鄰","STREET":"東門路","SECT":"一段","MAREA":" ","LANE":"３３巷","ALLEY":" ","HOUSE_NO":"１５號","E_COORD97":169226.10000000001,"N_COORD97":2543328.5299999998,"ADDRESS":"東門路一段３３巷１５號","OBJECTID":335730},"geometry":{"x":169226.10000000056,"y":2543328.5300000031}},{"attributes":{"ID":335740,"DIS_CODE":0,"TOWNNAME":"東區","LI":"東門里","LIN":"1鄰","STREET":"東門路","SECT":"一段","MAREA":" ","LANE":"３３巷","ALLEY":" ","HOUSE_NO":"１６號","E_COORD97":169218.10000000001,"N_COORD97":2543330.6699999999,"ADDRESS":"東門路一段３３巷１６號","OBJECTID":335731},"geometry":{"x":169218.10000000056,"y":2543330.6699999999}},{"attributes":{"ID":335741,"DIS_CODE":0,"TOWNNAME":"東區","LI":"東門里","LIN":"1鄰","STREET":"東門路","SECT":"一段","MAREA":" ","LANE":"３３巷","ALLEY":" ","HOUSE_NO":"５號","E_COORD97":169223.04000000001,"N_COORD97":2543283.8199999998,"ADDRESS":"東門路一段３３巷５號","OBJECTID":335732},"geometry":{"x":169223.04000000004,"y":2543283.8200000022}},{"attributes":{"ID":335742,"DIS_CODE":0,"TOWNNAME":"東區","LI":"東門里","LIN":"1鄰","STREET":"東門路","SECT":"一段","MAREA":" ","LANE":"３３巷","ALLEY":" ","HOUSE_NO":"６號","E_COORD97":169224.79000000001,"N_COORD97":2543286.1899999999,"ADDRESS":"東門路一段３３巷６號","OBJECTID":335733},"geometry":{"x":169224.79000000004,"y":2543286.1899999995}},{"attributes":{"ID":335743,"DIS_CODE":0,"TOWNNAME":"東區","LI":"東門里","LIN":"1鄰","STREET":"東門路","SECT":"一段","MAREA":" ","LANE":"３３巷","ALLEY":" ","HOUSE_NO":"７號","E_COORD97":169229.20000000001,"N_COORD97":2543288.3300000001,"ADDRESS":"東門路一段３３巷７號","OBJECTID":335734},"geometry":{"x":169229.20000000205,"y":2543288.3300000001}},{"attributes":{"ID":335744,"DIS_CODE":0,"TOWNNAME":"新市區","LI":"大社里","LIN":"36鄰","STREET":" ","SECT":" ","MAREA":"大社","LANE":" ","ALLEY":" ","HOUSE_NO":"５９１之２４號","E_COORD97":179350.35000000001,"N_COORD97":2554332.0499999998,"ADDRESS":"大社５９１之２４號","OBJECTID":335735},"geometry":{"x":179350.35000000056,"y":2554332.0500000026}},{"attributes":{"ID":335745,"DIS_CODE":0,"TOWNNAME":"安南區","LI":"大安里","LIN":"3鄰","STREET":"安通路","SECT":"五段","MAREA":" ","LANE":" ","ALLEY":" ","HOUSE_NO":"４７０號","E_COORD97":167208.04000000001,"N_COORD97":2547883.4900000002,"ADDRESS":"安通路五段４７０號","OBJECTID":335736},"geometry":{"x":167208.04000000097,"y":2547883.4900000021}},{"attributes":{"ID":335746,"DIS_CODE":0,"TOWNNAME":"安南區","LI":"南興里","LIN":"3鄰","STREET":"安興街","SECT":" ","MAREA":" ","LANE":" ","ALLEY":" ","HOUSE_NO":"３７５號之３","E_COORD97":163740.95999999999,"N_COORD97":2552297.77,"ADDRESS":"安興街３７５號之３","OBJECTID":335737},"geometry":{"x":163740.95999999996,"y":2552297.7700000033}},{"attributes":{"ID":335747,"DIS_CODE":0,"TOWNNAME":"新市區","LI":"大社里","LIN":"36鄰","STREET":" ","SECT":" ","MAREA":"大社","LANE":" ","ALLEY":" ","HOUSE_NO":"５９１之１２號","E_COORD97":179368.98000000001,"N_COORD97":2554310.2999999998,"ADDRESS":"大社５９１之１２號","OBJECTID":335738},"geometry":{"x":179368.98000000138,"y":2554310.3000000026}},{"attributes":{"ID":335748,"DIS_CODE":0,"TOWNNAME":"新市區","LI":"大社里","LIN":"36鄰","STREET":" ","SECT":" ","MAREA":"大社","LANE":" ","ALLEY":" ","HOUSE_NO":"５９１之３５號","E_COORD97":179334.88,"N_COORD97":2554345.7999999998,"ADDRESS":"大社５９１之３５號","OBJECTID":335739},"geometry":{"x":179334.88000000082,"y":2554345.8000000007}},{"attributes":{"ID":335749,"DIS_CODE":0,"TOWNNAME":"永康區","LI":"二王里","LIN":"36鄰","STREET":"中山南路","SECT":" ","MAREA":" ","LANE":"４９０巷","ALLEY":" ","HOUSE_NO":"３７號","E_COORD97":172222.17000000001,"N_COORD97":2546354.0800000001,"ADDRESS":"中山南路４９０巷３７號","OBJECTID":335740},"geometry":{"x":172222.16999999993,"y":2546354.0800000019}},{"attributes":{"ID":335750,"DIS_CODE":0,"TOWNNAME":"永康區","LI":"二王里","LIN":"36鄰","STREET":"中山南路","SECT":" ","MAREA":" ","LANE":"４９０巷","ALLEY":" ","HOUSE_NO":"３５號","E_COORD97":172217.73999999999,"N_COORD97":2546354.3300000001,"ADDRESS":"中山南路４９０巷３５號","OBJECTID":335741},"geometry":{"x":172217.74000000209,"y":2546354.3300000001}},{"attributes":{"ID":335751,"DIS_CODE":0,"TOWNNAME":"東區","LI":"東門里","LIN":"1鄰","STREET":"東門路","SECT":"一段","MAREA":" ","LANE":"３３巷","ALLEY":" ","HOUSE_NO":"８號","E_COORD97":169229.20999999999,"N_COORD97":2543290.2999999998,"ADDRESS":"東門路一段３３巷８號","OBJECTID":335742},"geometry":{"x":169229.21000000089,"y":2543290.3000000007}},{"attributes":{"ID":335752,"DIS_CODE":0,"TOWNNAME":"東區","LI":"東門里","LIN":"1鄰","STREET":"東門路","SECT":"一段","MAREA":" ","LANE":"３３巷","ALLEY":" ","HOUSE_NO":"９號","E_COORD97":169229.97,"N_COORD97":2543296.5800000001,"ADDRESS":"東門路一段３３巷９號","OBJECTID":335743},"geometry":{"x":169229.96999999974,"y":2543296.5800000001}},{"attributes":{"ID":335753,"DIS_CODE":0,"TOWNNAME":"中西區","LI":"協進里","LIN":"1鄰","STREET":"民生路","SECT":"二段","MAREA":" ","LANE":"２３０巷","ALLEY":" ","HOUSE_NO":"１１號","E_COORD97":167216.63,"N_COORD97":2544190.5899999999,"ADDRESS":"民生路二段２３０巷１１號","OBJECTID":335744},"geometry":{"x":167216.62999999989,"y":2544190.5900000017}},{"attributes":{"ID":335754,"DIS_CODE":0,"TOWNNAME":"中西區","LI":"協進里","LIN":"1鄰","STREET":"民生路","SECT":"二段","MAREA":" ","LANE":"２３０巷","ALLEY":" ","HOUSE_NO":"２９號","E_COORD97":167194.57000000001,"N_COORD97":2544225.25,"ADDRESS":"民生路二段２３０巷２９號","OBJECTID":335745},"geometry":{"x":167194.57000000123,"y":2544225.25}},{"attributes":{"ID":335755,"DIS_CODE":0,"TOWNNAME":"中西區","LI":"協進里","LIN":"1鄰","STREET":"民生路","SECT":"二段","MAREA":" ","LANE":"２３０巷","ALLEY":" ","HOUSE_NO":"３１號","E_COORD97":167193.51999999999,"N_COORD97":2544229.8599999999,"ADDRESS":"民生路二段２３０巷３１號","OBJECTID":335746},"geometry":{"x":167193.51999999955,"y":2544229.8599999994}},{"attributes":{"ID":335756,"DIS_CODE":0,"TOWNNAME":"安南區","LI":"南興里","LIN":"3鄰","STREET":"安興街","SECT":" ","MAREA":" ","LANE":" ","ALLEY":" ","HOUSE_NO":"３７５號之６","E_COORD97":163745.70000000001,"N_COORD97":2552283.5800000001,"ADDRESS":"安興街３７５號之６","OBJECTID":335747},"geometry":{"x":163745.70000000112,"y":2552283.5800000019}},{"attributes":{"ID":335757,"DIS_CODE":0,"TOWNNAME":"永康區","LI":"勝利里","LIN":"36鄰","STREET":"勝學路","SECT":" ","MAREA":" ","LANE":"５８巷","ALLEY":" ","HOUSE_NO":"１１號","E_COORD97":171186.57999999999,"N_COORD97":2544704.25,"ADDRESS":"勝學路５８巷１１號","OBJECTID":335748},"geometry":{"x":171186.58000000101,"y":2544704.2500000037}},{"attributes":{"ID":335758,"DIS_CODE":0,"TOWNNAME":"永康區","LI":"勝利里","LIN":"36鄰","STREET":"勝學路","SECT":" ","MAREA":" ","LANE":"６０巷","ALLEY":" ","HOUSE_NO":"１１號","E_COORD97":171189.45999999999,"N_COORD97":2544739,"ADDRESS":"勝學路６０巷１１號","OBJECTID":335749},"geometry":{"x":171189.45999999996,"y":2544739}},{"attributes":{"ID":335759,"DIS_CODE":0,"TOWNNAME":"永康區","LI":"復國里","LIN":"36鄰","STREET":"復國一路","SECT":" ","MAREA":" ","LANE":"３９巷","ALLEY":" ","HOUSE_NO":"１３號","E_COORD97":172658.35999999999,"N_COORD97":2544839.52,"ADDRESS":"復國一路３９巷１３號","OBJECTID":335750},"geometry":{"x":172658.36000000127,"y":2544839.5199999996}},{"attributes":{"ID":335760,"DIS_CODE":0,"TOWNNAME":"中西區","LI":"協進里","LIN":"1鄰","STREET":"民生路","SECT":"二段","MAREA":" ","LANE":"２３０巷","ALLEY":" ","HOUSE_NO":"３３號","E_COORD97":167191,"N_COORD97":2544234.6899999999,"ADDRESS":"民生路二段２３０巷３３號","OBJECTID":335751},"geometry":{"x":167190.99999999907,"y":2544234.6899999995}},{"attributes":{"ID":335761,"DIS_CODE":0,"TOWNNAME":"中西區","LI":"協進里","LIN":"1鄰","STREET":"民生路","SECT":"二段","MAREA":" ","LANE":"２３０巷","ALLEY":" ","HOUSE_NO":"３號","E_COORD97":167224.19,"N_COORD97":2544177.1499999999,"ADDRESS":"民生路二段２３０巷３號","OBJECTID":335752},"geometry":{"x":167224.19000000227,"y":2544177.1500000022}},{"attributes":{"ID":335762,"DIS_CODE":0,"TOWNNAME":"中西區","LI":"協進里","LIN":"1鄰","STREET":"民生路","SECT":"二段","MAREA":" ","LANE":"２３０巷","ALLEY":" ","HOUSE_NO":"５號","E_COORD97":167221.73999999999,"N_COORD97":2544180.4199999999,"ADDRESS":"民生路二段２３０巷５號","OBJECTID":335753},"geometry":{"x":167221.74000000022,"y":2544180.4199999981}},{"attributes":{"ID":335763,"DIS_CODE":0,"TOWNNAME":"中西區","LI":"協進里","LIN":"1鄰","STREET":"民生路","SECT":"二段","MAREA":" ","LANE":"２３０巷","ALLEY":" ","HOUSE_NO":"７號","E_COORD97":167218.94,"N_COORD97":2544186.3900000001,"ADDRESS":"民生路二段２３０巷７號","OBJECTID":335754},"geometry":{"x":167218.93999999948,"y":2544186.3900000025}},{"attributes":{"ID":335764,"DIS_CODE":0,"TOWNNAME":"中西區","LI":"民主里","LIN":"1鄰","STREET":"保安路","SECT":" ","MAREA":" ","LANE":"１００巷","ALLEY":" ","HOUSE_NO":"１２號","E_COORD97":167486.51999999999,"N_COORD97":2543500.4500000002,"ADDRESS":"保安路１００巷１２號","OBJECTID":335755},"geometry":{"x":167486.51999999955,"y":2543500.4499999993}},{"attributes":{"ID":335765,"DIS_CODE":0,"TOWNNAME":"中西區","LI":"民主里","LIN":"1鄰","STREET":"保安路","SECT":" ","MAREA":" ","LANE":"１００巷","ALLEY":" ","HOUSE_NO":"１４號","E_COORD97":167485.85999999999,"N_COORD97":2543497.1200000001,"ADDRESS":"保安路１００巷１４號","OBJECTID":335756},"geometry":{"x":167485.86000000127,"y":2543497.1200000029}},{"attributes":{"ID":335766,"DIS_CODE":0,"TOWNNAME":"中西區","LI":"民主里","LIN":"1鄰","STREET":"保安路","SECT":" ","MAREA":" ","LANE":"１００巷","ALLEY":" ","HOUSE_NO":"１１號","E_COORD97":167469.91,"N_COORD97":2543485.3799999999,"ADDRESS":"保安路１００巷１１號","OBJECTID":335757},"geometry":{"x":167469.91000000201,"y":2543485.3800000008}},{"attributes":{"ID":335767,"DIS_CODE":0,"TOWNNAME":"中西區","LI":"民主里","LIN":"1鄰","STREET":"保安路","SECT":" ","MAREA":" ","LANE":"１００巷","ALLEY":" ","HOUSE_NO":"１３號","E_COORD97":167464.78,"N_COORD97":2543486,"ADDRESS":"保安路１００巷１３號","OBJECTID":335758},"geometry":{"x":167464.78000000119,"y":2543486.0000000019}},{"attributes":{"ID":335768,"DIS_CODE":0,"TOWNNAME":"中西區","LI":"民主里","LIN":"1鄰","STREET":"保安路","SECT":" ","MAREA":" ","LANE":"１００巷","ALLEY":" ","HOUSE_NO":"１５號","E_COORD97":167465.16,"N_COORD97":2543489.8199999998,"ADDRESS":"保安路１００巷１５號","OBJECTID":335759},"geometry":{"x":167465.16000000108,"y":2543489.8200000003}},{"attributes":{"ID":335769,"DIS_CODE":0,"TOWNNAME":"中西區","LI":"民主里","LIN":"1鄰","STREET":"保安路","SECT":" ","MAREA":" ","LANE":"１００巷","ALLEY":" ","HOUSE_NO":"１７號","E_COORD97":167459.29999999999,"N_COORD97":2543490.29,"ADDRESS":"保安路１００巷１７號","OBJECTID":335760},"geometry":{"x":167459.29999999981,"y":2543490.290000001}},{"attributes":{"ID":335770,"DIS_CODE":0,"TOWNNAME":"中西區","LI":"民主里","LIN":"1鄰","STREET":"保安路","SECT":" ","MAREA":" ","LANE":"１００巷","ALLEY":" ","HOUSE_NO":"１號","E_COORD97":167477.48000000001,"N_COORD97":2543482,"ADDRESS":"保安路１００巷１號","OBJECTID":335761},"geometry":{"x":167477.48000000045,"y":2543482.0000000037}},{"attributes":{"ID":335771,"DIS_CODE":0,"TOWNNAME":"中西區","LI":"民主里","LIN":"1鄰","STREET":"保安路","SECT":" ","MAREA":" ","LANE":"１００巷","ALLEY":" ","HOUSE_NO":"３號","E_COORD97":167478.32000000001,"N_COORD97":2543486.6499999999,"ADDRESS":"保安路１００巷３號","OBJECTID":335762},"geometry":{"x":167478.3200000003,"y":2543486.6500000004}},{"attributes":{"ID":335772,"DIS_CODE":0,"TOWNNAME":"中西區","LI":"民主里","LIN":"1鄰","STREET":"保安路","SECT":" ","MAREA":" ","LANE":"１００巷","ALLEY":" ","HOUSE_NO":"５號","E_COORD97":167481.32999999999,"N_COORD97":2543490.5800000001,"ADDRESS":"保安路１００巷５號","OBJECTID":335763},"geometry":{"x":167481.33000000101,"y":2543490.5800000001}},{"attributes":{"ID":335773,"DIS_CODE":0,"TOWNNAME":"中西區","LI":"民主里","LIN":"1鄰","STREET":"保安路","SECT":" ","MAREA":" ","LANE":"１００巷","ALLEY":" ","HOUSE_NO":"７號","E_COORD97":167475.84,"N_COORD97":2543490.8599999999,"ADDRESS":"保安路１００巷７號","OBJECTID":335764},"geometry":{"x":167475.84000000078,"y":2543490.8599999994}},{"attributes":{"ID":335774,"DIS_CODE":0,"TOWNNAME":"中西區","LI":"民主里","LIN":"1鄰","STREET":"保安路","SECT":" ","MAREA":" ","LANE":"１００巷","ALLEY":" ","HOUSE_NO":"９號","E_COORD97":167470.17000000001,"N_COORD97":2543488.8799999999,"ADDRESS":"保安路１００巷９號","OBJECTID":335765},"geometry":{"x":167470.17000000086,"y":2543488.8800000008}},{"attributes":{"ID":335775,"DIS_CODE":0,"TOWNNAME":"南區","LI":"竹溪里","LIN":"5鄰","STREET":"體育路","SECT":" ","MAREA":" ","LANE":"４１巷","ALLEY":" ","HOUSE_NO":"２１號","E_COORD97":168824.5,"N_COORD97":2542260.9100000001,"ADDRESS":"體育路４１巷２１號","OBJECTID":335766},"geometry":{"x":168824.5,"y":2542260.9100000001}},{"attributes":{"ID":335776,"DIS_CODE":0,"TOWNNAME":"南區","LI":"再興里","LIN":"8鄰","STREET":"三官路","SECT":" ","MAREA":" ","LANE":"７０巷","ALLEY":" ","HOUSE_NO":"５０號","E_COORD97":167199.95999999999,"N_COORD97":2542295.6899999999,"ADDRESS":"三官路７０巷５０號","OBJECTID":335767},"geometry":{"x":167199.96000000089,"y":2542295.6899999995}},{"attributes":{"ID":335777,"DIS_CODE":0,"TOWNNAME":"新化區","LI":"清水里","LIN":"1鄰","STREET":"中山路","SECT":" ","MAREA":" ","LANE":"３８５巷","ALLEY":" ","HOUSE_NO":"３號","E_COORD97":178819.51000000001,"N_COORD97":2548370.25,"ADDRESS":"中山路３８５巷３號","OBJECTID":335768},"geometry":{"x":178819.50999999978,"y":2548370.2500000019}},{"attributes":{"ID":335778,"DIS_CODE":0,"TOWNNAME":"安南區","LI":"公親里","LIN":"1鄰","STREET":"公學路","SECT":"一段","MAREA":" ","LANE":"２６２巷","ALLEY":" ","HOUSE_NO":"２４號","E_COORD97":167876.66,"N_COORD97":2553010.21,"ADDRESS":"公學路一段２６２巷２４號","OBJECTID":335769},"geometry":{"x":167876.66000000201,"y":2553010.2100000009}},{"attributes":{"ID":335779,"DIS_CODE":0,"TOWNNAME":"安南區","LI":"公親里","LIN":"1鄰","STREET":"公學路","SECT":"一段","MAREA":" ","LANE":"２６２巷","ALLEY":" ","HOUSE_NO":"３１號","E_COORD97":167844.39000000001,"N_COORD97":2553041.0099999998,"ADDRESS":"公學路一段２６２巷３１號","OBJECTID":335770},"geometry":{"x":167844.3900000006,"y":2553041.0099999998}},{"attributes":{"ID":335780,"DIS_CODE":0,"TOWNNAME":"安南區","LI":"公親里","LIN":"1鄰","STREET":"公學路","SECT":"一段","MAREA":" ","LANE":"２６２巷","ALLEY":" ","HOUSE_NO":"４６號","E_COORD97":167881.82999999999,"N_COORD97":2553037.0899999999,"ADDRESS":"公學路一段２６２巷４６號","OBJECTID":335771},"geometry":{"x":167881.83000000007,"y":2553037.0899999999}},{"attributes":{"ID":335781,"DIS_CODE":0,"TOWNNAME":"安南區","LI":"公親里","LIN":"1鄰","STREET":"公學路","SECT":"一段","MAREA":" ","LANE":"２６２巷","ALLEY":" ","HOUSE_NO":"５２號","E_COORD97":167898.39999999999,"N_COORD97":2553032.4399999999,"ADDRESS":"公學路一段２６２巷５２號","OBJECTID":335772},"geometry":{"x":167898.40000000037,"y":2553032.4400000032}},{"attributes":{"ID":335782,"DIS_CODE":0,"TOWNNAME":"安南區","LI":"溪頂里","LIN":"1鄰","STREET":"惠安街","SECT":" ","MAREA":" ","LANE":"３９巷","ALLEY":" ","HOUSE_NO":"１２號","E_COORD97":169042.42999999999,"N_COORD97":2547448.1800000002,"ADDRESS":"惠安街３９巷１２號","OBJECTID":335773},"geometry":{"x":169042.43000000156,"y":2547448.1800000016}},{"attributes":{"ID":335783,"DIS_CODE":0,"TOWNNAME":"安南區","LI":"溪頂里","LIN":"3鄰","STREET":"府安路","SECT":"四段","MAREA":" ","LANE":" ","ALLEY":" ","HOUSE_NO":"１１４號","E_COORD97":169017.62,"N_COORD97":2547272.8300000001,"ADDRESS":"府安路四段１１４號","OBJECTID":335774},"geometry":{"x":169017.62000000011,"y":2547272.8300000001}},{"attributes":{"ID":335784,"DIS_CODE":0,"TOWNNAME":"鹽水區","LI":"水秀里","LIN":"13鄰","STREET":"清泉路","SECT":" ","MAREA":" ","LANE":" ","ALLEY":" ","HOUSE_NO":"１８號","E_COORD97":175260.89000000001,"N_COORD97":2580077.8100000001,"ADDRESS":"清泉路１８號","OBJECTID":335775},"geometry":{"x":175260.8900000006,"y":2580077.8100000005}},{"attributes":{"ID":335785,"DIS_CODE":0,"TOWNNAME":"鹽水區","LI":"水秀里","LIN":"13鄰","STREET":"清泉路","SECT":" ","MAREA":" ","LANE":" ","ALLEY":" ","HOUSE_NO":"２０號","E_COORD97":175258.70000000001,"N_COORD97":2580082.1299999999,"ADDRESS":"清泉路２０號","OBJECTID":335776},"geometry":{"x":175258.70000000019,"y":2580082.1299999971}},{"attributes":{"ID":335786,"DIS_CODE":0,"TOWNNAME":"仁德區","LI":"後壁里","LIN":"36鄰","STREET":"民安路","SECT":"一段","MAREA":" ","LANE":"３１０巷","ALLEY":" ","HOUSE_NO":"１９號","E_COORD97":172830.51999999999,"N_COORD97":2539492.0499999998,"ADDRESS":"民安路一段３１０巷１９號","OBJECTID":335777},"geometry":{"x":172830.52000000142,"y":2539492.0500000026}},{"attributes":{"ID":335787,"DIS_CODE":0,"TOWNNAME":"仁德區","LI":"後壁里","LIN":"36鄰","STREET":"民安路","SECT":"一段","MAREA":" ","LANE":"３１０巷","ALLEY":" ","HOUSE_NO":"３３號","E_COORD97":172751.95000000001,"N_COORD97":2539386.1899999999,"ADDRESS":"民安路一段３１０巷３３號","OBJECTID":335778},"geometry":{"x":172751.95000000205,"y":2539386.1899999995}},{"attributes":{"ID":335788,"DIS_CODE":0,"TOWNNAME":"永康區","LI":"二王里","LIN":"36鄰","STREET":"中山南路","SECT":" ","MAREA":" ","LANE":"４９０巷","ALLEY":" ","HOUSE_NO":"３１號","E_COORD97":172209.42000000001,"N_COORD97":2546354.0800000001,"ADDRESS":"中山南路４９０巷３１號","OBJECTID":335779},"geometry":{"x":172209.42000000179,"y":2546354.0800000019}},{"attributes":{"ID":335789,"DIS_CODE":0,"TOWNNAME":"永康區","LI":"崑山里","LIN":"36鄰","STREET":"大仁街","SECT":" ","MAREA":" ","LANE":"１８１巷","ALLEY":" ","HOUSE_NO":"１６號","E_COORD97":173872.17999999999,"N_COORD97":2545018.2999999998,"ADDRESS":"大仁街１８１巷１６號","OBJECTID":335780},"geometry":{"x":173872.18000000063,"y":2545018.3000000007}},{"attributes":{"ID":335790,"DIS_CODE":0,"TOWNNAME":"永康區","LI":"崑山里","LIN":"36鄰","STREET":"大仁街","SECT":" ","MAREA":" ","LANE":"１９９巷","ALLEY":" ","HOUSE_NO":"３５號","E_COORD97":173836.59,"N_COORD97":2545071.0499999998,"ADDRESS":"大仁街１９９巷３５號","OBJECTID":335781},"geometry":{"x":173836.58999999985,"y":2545071.0500000007}},{"attributes":{"ID":335791,"DIS_CODE":0,"TOWNNAME":"永康區","LI":"崑山里","LIN":"36鄰","STREET":"大仁街","SECT":" ","MAREA":" ","LANE":"１９９巷","ALLEY":" ","HOUSE_NO":"２５號","E_COORD97":173856.53,"N_COORD97":2545064.2999999998,"ADDRESS":"大仁街１９９巷２５號","OBJECTID":335782},"geometry":{"x":173856.52999999933,"y":2545064.3000000026}},{"attributes":{"ID":335792,"DIS_CODE":0,"TOWNNAME":"永康區","LI":"勝利里","LIN":"36鄰","STREET":"勝學路","SECT":" ","MAREA":" ","LANE":"１０８巷","ALLEY":" ","HOUSE_NO":"１３號","E_COORD97":171229.73999999999,"N_COORD97":2544850.98,"ADDRESS":"勝學路１０８巷１３號","OBJECTID":335783},"geometry":{"x":171229.74000000115,"y":2544850.9800000004}},{"attributes":{"ID":335793,"DIS_CODE":0,"TOWNNAME":"永康區","LI":"勝利里","LIN":"36鄰","STREET":"勝學路","SECT":" ","MAREA":" ","LANE":"１０８巷","ALLEY":" ","HOUSE_NO":"１５號","E_COORD97":171219.29000000001,"N_COORD97":2544835.3999999999,"ADDRESS":"勝學路１０８巷１５號","OBJECTID":335784},"geometry":{"x":171219.29000000097,"y":2544835.3999999985}},{"attributes":{"ID":335794,"DIS_CODE":0,"TOWNNAME":"永康區","LI":"勝利里","LIN":"36鄰","STREET":"勝學路","SECT":" ","MAREA":" ","LANE":"１０８巷","ALLEY":" ","HOUSE_NO":"１７號","E_COORD97":171219.10000000001,"N_COORD97":2544830.8199999998,"ADDRESS":"勝學路１０８巷１７號","OBJECTID":335785},"geometry":{"x":171219.09999999963,"y":2544830.8200000022}},{"attributes":{"ID":335795,"DIS_CODE":0,"TOWNNAME":"永康區","LI":"勝利里","LIN":"36鄰","STREET":"勝學路","SECT":" ","MAREA":" ","LANE":"１０８巷","ALLEY":" ","HOUSE_NO":"２號","E_COORD97":171180.07999999999,"N_COORD97":2544851.75,"ADDRESS":"勝學路１０８巷２號","OBJECTID":335786},"geometry":{"x":171180.08000000101,"y":2544851.75}},{"attributes":{"ID":335796,"DIS_CODE":0,"TOWNNAME":"永康區","LI":"勝利里","LIN":"36鄰","STREET":"勝學路","SECT":" ","MAREA":" ","LANE":"１０８巷","ALLEY":" ","HOUSE_NO":"２０號","E_COORD97":171217.47,"N_COORD97":2544815.29,"ADDRESS":"勝學路１０８巷２０號","OBJECTID":335787},"geometry":{"x":171217.47000000067,"y":2544815.290000001}},{"attributes":{"ID":335797,"DIS_CODE":0,"TOWNNAME":"安南區","LI":"溪頂里","LIN":"1鄰","STREET":"惠安街","SECT":" ","MAREA":" ","LANE":"３９巷","ALLEY":" ","HOUSE_NO":"１４號","E_COORD97":169042.92000000001,"N_COORD97":2547444.9900000002,"ADDRESS":"惠安街３９巷１４號","OBJECTID":335788},"geometry":{"x":169042.92000000086,"y":2547444.9900000002}},{"attributes":{"ID":335798,"DIS_CODE":0,"TOWNNAME":"安南區","LI":"溪頂里","LIN":"1鄰","STREET":"惠安街","SECT":" ","MAREA":" ","LANE":"３９巷","ALLEY":" ","HOUSE_NO":"２號","E_COORD97":169040.42000000001,"N_COORD97":2547469.0899999999,"ADDRESS":"惠安街３９巷２號","OBJECTID":335789},"geometry":{"x":169040.41999999993,"y":2547469.0900000017}},{"attributes":{"ID":335799,"DIS_CODE":0,"TOWNNAME":"安南區","LI":"溪頂里","LIN":"1鄰","STREET":"惠安街","SECT":" ","MAREA":" ","LANE":"３９巷","ALLEY":" ","HOUSE_NO":"３號","E_COORD97":169068.44,"N_COORD97":2547461.98,"ADDRESS":"惠安街３９巷３號","OBJECTID":335790},"geometry":{"x":169068.43999999948,"y":2547461.9800000004}},{"attributes":{"ID":335800,"DIS_CODE":0,"TOWNNAME":"安南區","LI":"溪頂里","LIN":"1鄰","STREET":"惠安街","SECT":" ","MAREA":" ","LANE":"３９巷","ALLEY":" ","HOUSE_NO":"４號","E_COORD97":169041.60999999999,"N_COORD97":2547464.27,"ADDRESS":"惠安街３９巷４號","OBJECTID":335791},"geometry":{"x":169041.61000000034,"y":2547464.2700000014}},{"attributes":{"ID":335801,"DIS_CODE":0,"TOWNNAME":"安南區","LI":"溪頂里","LIN":"1鄰","STREET":"惠安街","SECT":" ","MAREA":" ","LANE":"３９巷","ALLEY":" ","HOUSE_NO":"５號","E_COORD97":169068.85000000001,"N_COORD97":2547457.98,"ADDRESS":"惠安街３９巷５號","OBJECTID":335792},"geometry":{"x":169068.85000000056,"y":2547457.9800000004}},{"attributes":{"ID":335802,"DIS_CODE":0,"TOWNNAME":"安南區","LI":"溪頂里","LIN":"1鄰","STREET":"惠安街","SECT":" ","MAREA":" ","LANE":"３９巷","ALLEY":" ","HOUSE_NO":"６號","E_COORD97":169042.17999999999,"N_COORD97":2547460.7599999998,"ADDRESS":"惠安街３９巷６號","OBJECTID":335793},"geometry":{"x":169042.1799999997,"y":2547460.7600000016}},{"attributes":{"ID":335803,"DIS_CODE":0,"TOWNNAME":"安南區","LI":"溪頂里","LIN":"1鄰","STREET":"惠安街","SECT":" ","MAREA":" ","LANE":"３９巷","ALLEY":" ","HOUSE_NO":"７號","E_COORD97":169069.34,"N_COORD97":2547453.3999999999,"ADDRESS":"惠安街３９巷７號","OBJECTID":335794},"geometry":{"x":169069.34000000078,"y":2547453.4000000022}},{"attributes":{"ID":335804,"DIS_CODE":0,"TOWNNAME":"鹽水區","LI":"水秀里","LIN":"13鄰","STREET":"清泉路","SECT":" ","MAREA":" ","LANE":" ","ALLEY":" ","HOUSE_NO":"２２號","E_COORD97":175256.03,"N_COORD97":2580085.7999999998,"ADDRESS":"清泉路２２號","OBJECTID":335795},"geometry":{"x":175256.03000000119,"y":2580085.8000000007}},{"attributes":{"ID":335805,"DIS_CODE":0,"TOWNNAME":"鹽水區","LI":"水秀里","LIN":"13鄰","STREET":"清泉路","SECT":" ","MAREA":" ","LANE":" ","ALLEY":" ","HOUSE_NO":"２４號","E_COORD97":175253.92999999999,"N_COORD97":2580088.8399999999,"ADDRESS":"清泉路２４號","OBJECTID":335796},"geometry":{"x":175253.93000000063,"y":2580088.8400000036}},{"attributes":{"ID":335806,"DIS_CODE":0,"TOWNNAME":"中西區","LI":"天后里","LIN":"8鄰","STREET":"西門路","SECT":"二段","MAREA":" ","LANE":" ","ALLEY":" ","HOUSE_NO":"３１６號","E_COORD97":168034.31,"N_COORD97":2544190.8100000001,"ADDRESS":"西門路二段３１６號","OBJECTID":335797},"geometry":{"x":168034.30999999959,"y":2544190.8100000005}},{"attributes":{"ID":335807,"DIS_CODE":0,"TOWNNAME":"中西區","LI":"天后里","LIN":"8鄰","STREET":"西門路","SECT":"二段","MAREA":" ","LANE":" ","ALLEY":" ","HOUSE_NO":"３１８號","E_COORD97":168036.59,"N_COORD97":2544193.8900000001,"ADDRESS":"西門路二段３１８號","OBJECTID":335798},"geometry":{"x":168036.59000000078,"y":2544193.8900000006}},{"attributes":{"ID":335808,"DIS_CODE":0,"TOWNNAME":"安南區","LI":"長安里","LIN":"8鄰","STREET":"長溪路","SECT":"三段","MAREA":" ","LANE":" ","ALLEY":" ","HOUSE_NO":"４６６號","E_COORD97":167601.79999999999,"N_COORD97":2552128.2799999998,"ADDRESS":"長溪路三段４６６號","OBJECTID":335799},"geometry":{"x":167601.79999999981,"y":2552128.2800000031}},{"attributes":{"ID":335809,"DIS_CODE":0,"TOWNNAME":"安南區","LI":"城北里","LIN":"8鄰","STREET":"安中路","SECT":"六段","MAREA":" ","LANE":" ","ALLEY":" ","HOUSE_NO":"２１３號","E_COORD97":161537.13,"N_COORD97":2551263.1899999999,"ADDRESS":"安中路六段２１３號","OBJECTID":335800},"geometry":{"x":161537.13000000082,"y":2551263.1899999995}}]}