{"displayFieldName":"TOWNNAME","fieldAliases":{"ID":"ID","DIS_CODE":"DIS_CODE","TOWNNAME":"TOWNNAME","LI":"LI","LIN":"LIN","STREET":"STREET","SECT":"SECT","MAREA":"MAREA","LANE":"LANE","ALLEY":"ALLEY","HOUSE_NO":"HOUSE_NO","E_COORD97":"E_COORD97","N_COORD97":"N_COORD97","ADDRESS":"ADDRESS","OBJECTID":"OBJECTID"},"geometryType":"esriGeometryPoint","spatialReference":{"wkid":102443,"latestWkid":3826},"fields":[{"name":"ID","type":"esriFieldTypeDouble","alias":"ID"},{"name":"DIS_CODE","type":"esriFieldTypeInteger","alias":"DIS_CODE"},{"name":"TOWNNAME","type":"esriFieldTypeString","alias":"TOWNNAME","length":8},{"name":"LI","type":"esriFieldTypeString","alias":"LI","length":8},{"name":"LIN","type":"esriFieldTypeString","alias":"LIN","length":12},{"name":"STREET","type":"esriFieldTypeString","alias":"STREET","length":20},{"name":"SECT","type":"esriFieldTypeString","alias":"SECT","length":8},{"name":"MAREA","type":"esriFieldTypeString","alias":"MAREA","length":12},{"name":"LANE","type":"esriFieldTypeString","alias":"LANE","length":10},{"name":"ALLEY","type":"esriFieldTypeString","alias":"ALLEY","length":10},{"name":"HOUSE_NO","type":"esriFieldTypeString","alias":"HOUSE_NO","length":20},{"name":"E_COORD97","type":"esriFieldTypeDouble","alias":"E_COORD97"},{"name":"N_COORD97","type":"esriFieldTypeDouble","alias":"N_COORD97"},{"name":"ADDRESS","type":"esriFieldTypeString","alias":"ADDRESS","length":50},{"name":"OBJECTID","type":"esriFieldTypeOID","alias":"OBJECTID"}],"features":[{"attributes":{"ID":246205,"DIS_CODE":0,"TOWNNAME":"新化區","LI":"山\u25A0里","LIN":"11鄰","STREET":" ","SECT":" ","MAREA":"五甲勢","LANE":" ","ALLEY":" ","HOUSE_NO":"６５號","E_COORD97":181889.07999999999,"N_COORD97":2545466.2599999998,"ADDRESS":"五甲勢６５號","OBJECTID":246201},"geometry":{"x":181889.08000000007,"y":2545466.2599999998}},{"attributes":{"ID":246206,"DIS_CODE":0,"TOWNNAME":"仁德區","LI":"二行里","LIN":"11鄰","STREET":"行大街","SECT":" ","MAREA":" ","LANE":"１７２巷","ALLEY":" ","HOUSE_NO":"２４號","E_COORD97":169957.23000000001,"N_COORD97":2535128,"ADDRESS":"行大街１７２巷２４號","OBJECTID":246202},"geometry":{"x":169957.23000000138,"y":2535128.0000000037}},{"attributes":{"ID":246207,"DIS_CODE":0,"TOWNNAME":"仁德區","LI":"二行里","LIN":"11鄰","STREET":"行大街","SECT":" ","MAREA":" ","LANE":"１７２巷","ALLEY":" ","HOUSE_NO":"１４號","E_COORD97":169989.07000000001,"N_COORD97":2535120.25,"ADDRESS":"行大街１７２巷１４號","OBJECTID":246203},"geometry":{"x":169989.0700000003,"y":2535120.2500000019}},{"attributes":{"ID":246208,"DIS_CODE":0,"TOWNNAME":"仁德區","LI":"一甲里","LIN":"11鄰","STREET":"義林路","SECT":" ","MAREA":" ","LANE":"２５６巷","ALLEY":" ","HOUSE_NO":"２０１號","E_COORD97":175217.70999999999,"N_COORD97":2541512.5099999998,"ADDRESS":"義林路２５６巷２０１號","OBJECTID":246204},"geometry":{"x":175217.70999999996,"y":2541512.5100000016}},{"attributes":{"ID":246209,"DIS_CODE":0,"TOWNNAME":"東區","LI":"路東里","LIN":"14鄰","STREET":"林森路","SECT":"一段","MAREA":" ","LANE":" ","ALLEY":" ","HOUSE_NO":"１３２號三樓之５","E_COORD97":169417.22,"N_COORD97":2542428.8700000001,"ADDRESS":"林森路一段１３２號三樓之５","OBJECTID":246205},"geometry":{"x":169417.22000000067,"y":2542428.870000001}},{"attributes":{"ID":246210,"DIS_CODE":0,"TOWNNAME":"東區","LI":"路東里","LIN":"14鄰","STREET":"林森路","SECT":"一段","MAREA":" ","LANE":" ","ALLEY":" ","HOUSE_NO":"１３２號三樓之６","E_COORD97":169417.22,"N_COORD97":2542428.8700000001,"ADDRESS":"林森路一段１３２號三樓之６","OBJECTID":246206},"geometry":{"x":169417.22000000067,"y":2542428.870000001}},{"attributes":{"ID":246211,"DIS_CODE":0,"TOWNNAME":"東區","LI":"路東里","LIN":"14鄰","STREET":"林森路","SECT":"一段","MAREA":" ","LANE":" ","ALLEY":" ","HOUSE_NO":"１３２號三樓之７","E_COORD97":169417.22,"N_COORD97":2542428.8700000001,"ADDRESS":"林森路一段１３２號三樓之７","OBJECTID":246207},"geometry":{"x":169417.22000000067,"y":2542428.870000001}},{"attributes":{"ID":246212,"DIS_CODE":0,"TOWNNAME":"新化區","LI":"崙頂里","LIN":"11鄰","STREET":" ","SECT":" ","MAREA":"崙子頂","LANE":" ","ALLEY":" ","HOUSE_NO":"３９０號之３","E_COORD97":176930.88,"N_COORD97":2546838.2599999998,"ADDRESS":"崙子頂３９０號之３","OBJECTID":246208},"geometry":{"x":176930.88000000082,"y":2546838.2599999998}},{"attributes":{"ID":246213,"DIS_CODE":0,"TOWNNAME":"新化區","LI":"護國里","LIN":"11鄰","STREET":"中山路","SECT":" ","MAREA":" ","LANE":"１９巷","ALLEY":" ","HOUSE_NO":"１５號","E_COORD97":180342.81,"N_COORD97":2549707.25,"ADDRESS":"中山路１９巷１５號","OBJECTID":246209},"geometry":{"x":180342.80999999959,"y":2549707.25}},{"attributes":{"ID":246214,"DIS_CODE":0,"TOWNNAME":"新化區","LI":"東榮里","LIN":"11鄰","STREET":"中興路","SECT":" ","MAREA":" ","LANE":"４９０巷","ALLEY":" ","HOUSE_NO":"２１號","E_COORD97":180040.16,"N_COORD97":2547941.25,"ADDRESS":"中興路４９０巷２１號","OBJECTID":246210},"geometry":{"x":180040.16000000108,"y":2547941.25}},{"attributes":{"ID":246215,"DIS_CODE":0,"TOWNNAME":"新化區","LI":"唪口里","LIN":"11鄰","STREET":" ","SECT":" ","MAREA":"唪口","LANE":" ","ALLEY":" ","HOUSE_NO":"１６２號之１","E_COORD97":177588.38,"N_COORD97":2548870.2599999998,"ADDRESS":"唪口１６２號之１","OBJECTID":246211},"geometry":{"x":177588.38000000175,"y":2548870.2599999979}},{"attributes":{"ID":246216,"DIS_CODE":0,"TOWNNAME":"新化區","LI":"山\u25A0里","LIN":"11鄰","STREET":" ","SECT":" ","MAREA":"五甲勢","LANE":" ","ALLEY":" ","HOUSE_NO":"７３號","E_COORD97":181830.28,"N_COORD97":2545402.2599999998,"ADDRESS":"五甲勢７３號","OBJECTID":246212},"geometry":{"x":181830.28000000026,"y":2545402.2600000035}},{"attributes":{"ID":246217,"DIS_CODE":0,"TOWNNAME":"新化區","LI":"\u25A0拔里","LIN":"11鄰","STREET":" ","SECT":" ","MAREA":"牧場","LANE":" ","ALLEY":" ","HOUSE_NO":"２９號","E_COORD97":181733.73000000001,"N_COORD97":2551150.25,"ADDRESS":"牧場２９號","OBJECTID":246213},"geometry":{"x":181733.73000000138,"y":2551150.2500000019}},{"attributes":{"ID":246218,"DIS_CODE":0,"TOWNNAME":"新化區","LI":"\u25A0拔里","LIN":"11鄰","STREET":" ","SECT":" ","MAREA":"牧場","LANE":" ","ALLEY":" ","HOUSE_NO":"１５號","E_COORD97":181776.53,"N_COORD97":2551104.25,"ADDRESS":"牧場１５號","OBJECTID":246214},"geometry":{"x":181776.53000000212,"y":2551104.25}},{"attributes":{"ID":246219,"DIS_CODE":0,"TOWNNAME":"新化區","LI":"\u25A0拔里","LIN":"11鄰","STREET":" ","SECT":" ","MAREA":"牧場","LANE":" ","ALLEY":" ","HOUSE_NO":"３９號","E_COORD97":181740.63,"N_COORD97":2551213.25,"ADDRESS":"牧場３９號","OBJECTID":246215},"geometry":{"x":181740.63000000082,"y":2551213.25}},{"attributes":{"ID":246220,"DIS_CODE":0,"TOWNNAME":"安南區","LI":"頂安里","LIN":"13鄰","STREET":"安中一街","SECT":" ","MAREA":" ","LANE":"６７巷","ALLEY":" ","HOUSE_NO":"９號","E_COORD97":168539.5,"N_COORD97":2548483.0699999998,"ADDRESS":"安中一街６７巷９號","OBJECTID":246216},"geometry":{"x":168539.50000000093,"y":2548483.0700000022}},{"attributes":{"ID":246221,"DIS_CODE":0,"TOWNNAME":"安南區","LI":"頂安里","LIN":"13鄰","STREET":"安中一街","SECT":" ","MAREA":" ","LANE":"６７巷","ALLEY":" ","HOUSE_NO":"５號","E_COORD97":168548.797823,"N_COORD97":2548484.2593999999,"ADDRESS":"安中一街６７巷５號","OBJECTID":246217},"geometry":{"x":168548.7978230007,"y":2548484.2594010029}},{"attributes":{"ID":246222,"DIS_CODE":0,"TOWNNAME":"安南區","LI":"頂安里","LIN":"13鄰","STREET":"安中一街","SECT":" ","MAREA":" ","LANE":"６７巷","ALLEY":" ","HOUSE_NO":"７號","E_COORD97":168543.710914,"N_COORD97":2548483.8360700002,"ADDRESS":"安中一街６７巷７號","OBJECTID":246218},"geometry":{"x":168543.71091400087,"y":2548483.8360680044}},{"attributes":{"ID":246223,"DIS_CODE":0,"TOWNNAME":"安南區","LI":"頂安里","LIN":"13鄰","STREET":"安中一街","SECT":" ","MAREA":" ","LANE":"６７巷","ALLEY":" ","HOUSE_NO":"１３號","E_COORD97":168531.37332700001,"N_COORD97":2548481.9310699999,"ADDRESS":"安中一街６７巷１３號","OBJECTID":246219},"geometry":{"x":168531.37332700007,"y":2548481.9310689997}},{"attributes":{"ID":246224,"DIS_CODE":0,"TOWNNAME":"安南區","LI":"頂安里","LIN":"13鄰","STREET":"安中一街","SECT":" ","MAREA":" ","LANE":"６７巷","ALLEY":" ","HOUSE_NO":"１５號","E_COORD97":168527.77009899999,"N_COORD97":2548481.4018999999,"ADDRESS":"安中一街６７巷１５號","OBJECTID":246220},"geometry":{"x":168527.77009900007,"y":2548481.4019020014}},{"attributes":{"ID":246225,"DIS_CODE":0,"TOWNNAME":"安南區","LI":"頂安里","LIN":"13鄰","STREET":"安中一街","SECT":" ","MAREA":" ","LANE":"６７巷","ALLEY":" ","HOUSE_NO":"１７號","E_COORD97":168522.471235,"N_COORD97":2548480.7669000002,"ADDRESS":"安中一街６７巷１７號","OBJECTID":246221},"geometry":{"x":168522.4712349996,"y":2548480.766903}},{"attributes":{"ID":246226,"DIS_CODE":0,"TOWNNAME":"安南區","LI":"頂安里","LIN":"13鄰","STREET":"安中一街","SECT":" ","MAREA":" ","LANE":"６７巷","ALLEY":" ","HOUSE_NO":"３號","E_COORD97":168553.036915,"N_COORD97":2548484.68273,"ADDRESS":"安中一街６７巷３號","OBJECTID":246222},"geometry":{"x":168553.0369149996,"y":2548484.6827340014}},{"attributes":{"ID":246227,"DIS_CODE":0,"TOWNNAME":"安南區","LI":"頂安里","LIN":"13鄰","STREET":"安中一街","SECT":" ","MAREA":" ","LANE":"６７巷","ALLEY":" ","HOUSE_NO":"４６號","E_COORD97":168479.48867799999,"N_COORD97":2548499.49939,"ADDRESS":"安中一街６７巷４６號","OBJECTID":246223},"geometry":{"x":168479.48867800087,"y":2548499.4993929993}},{"attributes":{"ID":246228,"DIS_CODE":0,"TOWNNAME":"安南區","LI":"頂安里","LIN":"13鄰","STREET":"安中一街","SECT":" ","MAREA":" ","LANE":"６７巷","ALLEY":" ","HOUSE_NO":"４２號","E_COORD97":168483.72776899999,"N_COORD97":2548499.7110600001,"ADDRESS":"安中一街６７巷４２號","OBJECTID":246224},"geometry":{"x":168483.72776900046,"y":2548499.7110590022}},{"attributes":{"ID":246229,"DIS_CODE":0,"TOWNNAME":"安南區","LI":"頂安里","LIN":"13鄰","STREET":"安中一街","SECT":" ","MAREA":" ","LANE":"６７巷","ALLEY":" ","HOUSE_NO":"１１號","E_COORD97":168535.232731,"N_COORD97":2548482.5660700002,"ADDRESS":"安中一街６７巷１１號","OBJECTID":246225},"geometry":{"x":168535.23273099866,"y":2548482.5660680011}},{"attributes":{"ID":246230,"DIS_CODE":0,"TOWNNAME":"東區","LI":"路東里","LIN":"14鄰","STREET":"林森路","SECT":"一段","MAREA":" ","LANE":" ","ALLEY":" ","HOUSE_NO":"１３２號三樓之８","E_COORD97":169417.22,"N_COORD97":2542428.8700000001,"ADDRESS":"林森路一段１３２號三樓之８","OBJECTID":246226},"geometry":{"x":169417.22000000067,"y":2542428.870000001}},{"attributes":{"ID":246231,"DIS_CODE":0,"TOWNNAME":"東區","LI":"路東里","LIN":"14鄰","STREET":"林森路","SECT":"一段","MAREA":" ","LANE":" ","ALLEY":" ","HOUSE_NO":"１３２號三樓之９","E_COORD97":169417.22,"N_COORD97":2542428.8700000001,"ADDRESS":"林森路一段１３２號三樓之９","OBJECTID":246227},"geometry":{"x":169417.22000000067,"y":2542428.870000001}},{"attributes":{"ID":246232,"DIS_CODE":0,"TOWNNAME":"安南區","LI":"淵東里","LIN":"11鄰","STREET":"仁安路","SECT":" ","MAREA":" ","LANE":"４７巷","ALLEY":" ","HOUSE_NO":"１０號","E_COORD97":165537.89000000001,"N_COORD97":2550124.5,"ADDRESS":"仁安路４７巷１０號","OBJECTID":246228},"geometry":{"x":165537.88999999966,"y":2550124.5000000019}},{"attributes":{"ID":246233,"DIS_CODE":0,"TOWNNAME":"安南區","LI":"淵東里","LIN":"11鄰","STREET":"仁安路","SECT":" ","MAREA":" ","LANE":"４７巷","ALLEY":" ","HOUSE_NO":"１２號","E_COORD97":165534.94,"N_COORD97":2550128.75,"ADDRESS":"仁安路４７巷１２號","OBJECTID":246229},"geometry":{"x":165534.94000000041,"y":2550128.7500000037}},{"attributes":{"ID":246234,"DIS_CODE":0,"TOWNNAME":"安南區","LI":"淵東里","LIN":"11鄰","STREET":"仁安路","SECT":" ","MAREA":" ","LANE":"４７巷","ALLEY":" ","HOUSE_NO":"２號","E_COORD97":165545.75,"N_COORD97":2550113.6899999999,"ADDRESS":"仁安路４７巷２號","OBJECTID":246230},"geometry":{"x":165545.75000000093,"y":2550113.6899999995}},{"attributes":{"ID":246235,"DIS_CODE":0,"TOWNNAME":"安南區","LI":"淵東里","LIN":"11鄰","STREET":"仁安路","SECT":" ","MAREA":" ","LANE":"４７巷","ALLEY":" ","HOUSE_NO":"６號","E_COORD97":165543.13,"N_COORD97":2550117.2999999998,"ADDRESS":"仁安路４７巷６號","OBJECTID":246231},"geometry":{"x":165543.13000000082,"y":2550117.3000000007}},{"attributes":{"ID":246236,"DIS_CODE":0,"TOWNNAME":"安南區","LI":"淵東里","LIN":"11鄰","STREET":"仁安路","SECT":" ","MAREA":" ","LANE":"４７巷","ALLEY":" ","HOUSE_NO":"８號","E_COORD97":165541,"N_COORD97":2550120.8999999999,"ADDRESS":"仁安路４７巷８號","OBJECTID":246232},"geometry":{"x":165541,"y":2550120.9000000004}},{"attributes":{"ID":246237,"DIS_CODE":0,"TOWNNAME":"新市區","LI":"新和里","LIN":"34鄰","STREET":"仁愛街","SECT":" ","MAREA":" ","LANE":"２０５巷","ALLEY":" ","HOUSE_NO":"１６號","E_COORD97":177536.29000000001,"N_COORD97":2552818.7799999998,"ADDRESS":"仁愛街２０５巷１６號","OBJECTID":246233},"geometry":{"x":177536.29000000004,"y":2552818.7799999993}},{"attributes":{"ID":246238,"DIS_CODE":0,"TOWNNAME":"仁德區","LI":"成功里","LIN":"34鄰","STREET":"成功一街","SECT":" ","MAREA":" ","LANE":"５７巷","ALLEY":" ","HOUSE_NO":"２２號","E_COORD97":170614.31,"N_COORD97":2540078.2599999998,"ADDRESS":"成功一街５７巷２２號","OBJECTID":246234},"geometry":{"x":170614.30999999959,"y":2540078.2599999998}},{"attributes":{"ID":246239,"DIS_CODE":0,"TOWNNAME":"仁德區","LI":"成功里","LIN":"34鄰","STREET":"成功一街","SECT":" ","MAREA":" ","LANE":"５７巷","ALLEY":" ","HOUSE_NO":"１４號","E_COORD97":170589.03,"N_COORD97":2540078.0099999998,"ADDRESS":"成功一街５７巷１４號","OBJECTID":246235},"geometry":{"x":170589.03000000119,"y":2540078.0100000016}},{"attributes":{"ID":246240,"DIS_CODE":0,"TOWNNAME":"仁德區","LI":"後壁里","LIN":"34鄰","STREET":"德洋二街","SECT":" ","MAREA":" ","LANE":"５巷","ALLEY":" ","HOUSE_NO":"３號","E_COORD97":172507.72,"N_COORD97":2539366.77,"ADDRESS":"德洋二街５巷３號","OBJECTID":246236},"geometry":{"x":172507.72000000067,"y":2539366.7699999977}},{"attributes":{"ID":246241,"DIS_CODE":0,"TOWNNAME":"仁德區","LI":"後壁里","LIN":"34鄰","STREET":"德洋二街","SECT":" ","MAREA":" ","LANE":"５巷","ALLEY":" ","HOUSE_NO":"８之３號","E_COORD97":172486.88,"N_COORD97":2539336.79,"ADDRESS":"德洋二街５巷８之３號","OBJECTID":246237},"geometry":{"x":172486.87999999989,"y":2539336.790000001}},{"attributes":{"ID":246242,"DIS_CODE":0,"TOWNNAME":"仁德區","LI":"後壁里","LIN":"34鄰","STREET":"德洋二街","SECT":" ","MAREA":" ","LANE":"５巷","ALLEY":" ","HOUSE_NO":"９之１號","E_COORD97":172501.17000000001,"N_COORD97":2539345.04,"ADDRESS":"德洋二街５巷９之１號","OBJECTID":246238},"geometry":{"x":172501.17000000086,"y":2539345.040000001}},{"attributes":{"ID":246243,"DIS_CODE":0,"TOWNNAME":"東區","LI":"路東里","LIN":"14鄰","STREET":"林森路","SECT":"一段","MAREA":" ","LANE":" ","ALLEY":" ","HOUSE_NO":"１３２號五樓之１０","E_COORD97":169417.22,"N_COORD97":2542428.8700000001,"ADDRESS":"林森路一段１３２號五樓之１０","OBJECTID":246239},"geometry":{"x":169417.22000000067,"y":2542428.870000001}},{"attributes":{"ID":246244,"DIS_CODE":0,"TOWNNAME":"東區","LI":"路東里","LIN":"14鄰","STREET":"林森路","SECT":"一段","MAREA":" ","LANE":" ","ALLEY":" ","HOUSE_NO":"１３２號五樓之５","E_COORD97":169417.22,"N_COORD97":2542428.8700000001,"ADDRESS":"林森路一段１３２號五樓之５","OBJECTID":246240},"geometry":{"x":169417.22000000067,"y":2542428.870000001}},{"attributes":{"ID":246245,"DIS_CODE":0,"TOWNNAME":"東區","LI":"路東里","LIN":"14鄰","STREET":"林森路","SECT":"一段","MAREA":" ","LANE":" ","ALLEY":" ","HOUSE_NO":"１３２號五樓之６","E_COORD97":169417.22,"N_COORD97":2542428.8700000001,"ADDRESS":"林森路一段１３２號五樓之６","OBJECTID":246241},"geometry":{"x":169417.22000000067,"y":2542428.870000001}},{"attributes":{"ID":246246,"DIS_CODE":0,"TOWNNAME":"東區","LI":"路東里","LIN":"14鄰","STREET":"林森路","SECT":"一段","MAREA":" ","LANE":" ","ALLEY":" ","HOUSE_NO":"１３２號五樓之７","E_COORD97":169417.22,"N_COORD97":2542428.8700000001,"ADDRESS":"林森路一段１３２號五樓之７","OBJECTID":246242},"geometry":{"x":169417.22000000067,"y":2542428.870000001}},{"attributes":{"ID":246247,"DIS_CODE":0,"TOWNNAME":"新營區","LI":"民榮里","LIN":"14鄰","STREET":"復興路","SECT":" ","MAREA":" ","LANE":" ","ALLEY":" ","HOUSE_NO":"１５９號","E_COORD97":179030.76999999999,"N_COORD97":2578010.3199999998,"ADDRESS":"復興路１５９號","OBJECTID":246243},"geometry":{"x":179030.76999999955,"y":2578010.3200000003}},{"attributes":{"ID":246248,"DIS_CODE":0,"TOWNNAME":"安南區","LI":"理想里","LIN":"11鄰","STREET":"海佃路","SECT":"二段","MAREA":" ","LANE":"１５０巷","ALLEY":" ","HOUSE_NO":"２號","E_COORD97":167023.89999999999,"N_COORD97":2548110.1699999999,"ADDRESS":"海佃路二段１５０巷２號","OBJECTID":246244},"geometry":{"x":167023.90000000037,"y":2548110.1699999999}},{"attributes":{"ID":246249,"DIS_CODE":0,"TOWNNAME":"安南區","LI":"理想里","LIN":"11鄰","STREET":"海佃路","SECT":"二段","MAREA":" ","LANE":"１５０巷","ALLEY":" ","HOUSE_NO":"４號","E_COORD97":167026.69,"N_COORD97":2548115.98,"ADDRESS":"海佃路二段１５０巷４號","OBJECTID":246245},"geometry":{"x":167026.69000000041,"y":2548115.9800000004}},{"attributes":{"ID":246250,"DIS_CODE":0,"TOWNNAME":"安南區","LI":"理想里","LIN":"11鄰","STREET":"海佃路","SECT":"二段","MAREA":" ","LANE":"１５０巷","ALLEY":" ","HOUSE_NO":"６號","E_COORD97":167028.63,"N_COORD97":2548120.4900000002,"ADDRESS":"海佃路二段１５０巷６號","OBJECTID":246246},"geometry":{"x":167028.62999999989,"y":2548120.4900000021}},{"attributes":{"ID":246251,"DIS_CODE":0,"TOWNNAME":"安南區","LI":"理想里","LIN":"11鄰","STREET":"海佃路","SECT":"二段","MAREA":" ","LANE":"１５０巷","ALLEY":" ","HOUSE_NO":"８號","E_COORD97":167032.51000000001,"N_COORD97":2548123.7200000002,"ADDRESS":"海佃路二段１５０巷８號","OBJECTID":246247},"geometry":{"x":167032.50999999978,"y":2548123.7200000025}},{"attributes":{"ID":246252,"DIS_CODE":0,"TOWNNAME":"安南區","LI":"大安里","LIN":"11鄰","STREET":"大安街","SECT":" ","MAREA":" ","LANE":"２６４巷","ALLEY":" ","HOUSE_NO":"１１號","E_COORD97":167532.53,"N_COORD97":2548421.25,"ADDRESS":"大安街２６４巷１１號","OBJECTID":246248},"geometry":{"x":167532.53000000119,"y":2548421.2500000019}},{"attributes":{"ID":246253,"DIS_CODE":0,"TOWNNAME":"安南區","LI":"大安里","LIN":"11鄰","STREET":"大安街","SECT":" ","MAREA":" ","LANE":"２６４巷","ALLEY":" ","HOUSE_NO":"１３號","E_COORD97":167540.16,"N_COORD97":2548416.4300000002,"ADDRESS":"大安街２６４巷１３號","OBJECTID":246249},"geometry":{"x":167540.16000000108,"y":2548416.4300000016}},{"attributes":{"ID":246254,"DIS_CODE":0,"TOWNNAME":"安南區","LI":"大安里","LIN":"11鄰","STREET":"大安街","SECT":" ","MAREA":" ","LANE":"２６４巷","ALLEY":" ","HOUSE_NO":"１５號","E_COORD97":167545.04000000001,"N_COORD97":2548410.2200000002,"ADDRESS":"大安街２６４巷１５號","OBJECTID":246250},"geometry":{"x":167545.03999999911,"y":2548410.2200000007}},{"attributes":{"ID":246255,"DIS_CODE":0,"TOWNNAME":"安南區","LI":"大安里","LIN":"11鄰","STREET":"大安街","SECT":" ","MAREA":" ","LANE":"２６４巷","ALLEY":" ","HOUSE_NO":"１７號","E_COORD97":167548.60000000001,"N_COORD97":2548407.6800000002,"ADDRESS":"大安街２６４巷１７號","OBJECTID":246251},"geometry":{"x":167548.59999999963,"y":2548407.6800000016}},{"attributes":{"ID":246256,"DIS_CODE":0,"TOWNNAME":"安南區","LI":"大安里","LIN":"11鄰","STREET":"大安街","SECT":" ","MAREA":" ","LANE":"２６４巷","ALLEY":" ","HOUSE_NO":"１９號","E_COORD97":167554.70999999999,"N_COORD97":2548404,"ADDRESS":"大安街２６４巷１９號","OBJECTID":246252},"geometry":{"x":167554.71000000089,"y":2548404}},{"attributes":{"ID":246257,"DIS_CODE":0,"TOWNNAME":"安南區","LI":"大安里","LIN":"11鄰","STREET":"大安街","SECT":" ","MAREA":" ","LANE":"２６４巷","ALLEY":" ","HOUSE_NO":"１號","E_COORD97":167509.06,"N_COORD97":2548435.6000000001,"ADDRESS":"大安街２６４巷１號","OBJECTID":246253},"geometry":{"x":167509.06000000145,"y":2548435.6000000015}},{"attributes":{"ID":246258,"DIS_CODE":0,"TOWNNAME":"安南區","LI":"大安里","LIN":"11鄰","STREET":"大安街","SECT":" ","MAREA":" ","LANE":"２６４巷","ALLEY":" ","HOUSE_NO":"２１號","E_COORD97":167557.76000000001,"N_COORD97":2548400.9500000002,"ADDRESS":"大安街２６４巷２１號","OBJECTID":246254},"geometry":{"x":167557.76000000071,"y":2548400.950000003}},{"attributes":{"ID":246259,"DIS_CODE":0,"TOWNNAME":"西港區","LI":"金砂里","LIN":"11鄰","STREET":" ","SECT":" ","MAREA":"新寮","LANE":" ","ALLEY":" ","HOUSE_NO":"３０號","E_COORD97":168382.67000000001,"N_COORD97":2561883.3999999999,"ADDRESS":"新寮３０號","OBJECTID":246255},"geometry":{"x":168382.66999999993,"y":2561883.4000000022}},{"attributes":{"ID":246260,"DIS_CODE":0,"TOWNNAME":"安南區","LI":"頂安里","LIN":"13鄰","STREET":"安中一街","SECT":" ","MAREA":" ","LANE":"６７巷","ALLEY":" ","HOUSE_NO":"２１號","E_COORD97":168514.41696100001,"N_COORD97":2548480.2377399998,"ADDRESS":"安中一街６７巷２１號","OBJECTID":246256},"geometry":{"x":168514.41696100123,"y":2548480.2377360016}},{"attributes":{"ID":246261,"DIS_CODE":0,"TOWNNAME":"安南區","LI":"大安里","LIN":"11鄰","STREET":"大安街","SECT":" ","MAREA":" ","LANE":"２６４巷","ALLEY":" ","HOUSE_NO":"２３號","E_COORD97":167565.89000000001,"N_COORD97":2548399.04,"ADDRESS":"大安街２６４巷２３號","OBJECTID":246257},"geometry":{"x":167565.88999999966,"y":2548399.0399999991}},{"attributes":{"ID":246262,"DIS_CODE":0,"TOWNNAME":"安南區","LI":"大安里","LIN":"11鄰","STREET":"大安街","SECT":" ","MAREA":" ","LANE":"２６４巷","ALLEY":" ","HOUSE_NO":"２５號","E_COORD97":167571.10999999999,"N_COORD97":2548397.1400000001,"ADDRESS":"大安街２６４巷２５號","OBJECTID":246258},"geometry":{"x":167571.11000000127,"y":2548397.1400000006}},{"attributes":{"ID":246263,"DIS_CODE":0,"TOWNNAME":"安南區","LI":"大安里","LIN":"11鄰","STREET":"大安街","SECT":" ","MAREA":" ","LANE":"２６４巷","ALLEY":" ","HOUSE_NO":"３號","E_COORD97":167513.01000000001,"N_COORD97":2548432.5499999998,"ADDRESS":"大安街２６４巷３號","OBJECTID":246259},"geometry":{"x":167513.01000000164,"y":2548432.5500000026}},{"attributes":{"ID":246264,"DIS_CODE":0,"TOWNNAME":"安南區","LI":"大安里","LIN":"11鄰","STREET":"大安街","SECT":" ","MAREA":" ","LANE":"２６４巷","ALLEY":" ","HOUSE_NO":"５號","E_COORD97":167517.70999999999,"N_COORD97":2548430.3900000001,"ADDRESS":"大安街２６４巷５號","OBJECTID":246260},"geometry":{"x":167517.70999999996,"y":2548430.3900000025}},{"attributes":{"ID":246265,"DIS_CODE":0,"TOWNNAME":"安南區","LI":"大安里","LIN":"11鄰","STREET":"大安街","SECT":" ","MAREA":" ","LANE":" ","ALLEY":" ","HOUSE_NO":"２６６號","E_COORD97":167492.51000000001,"N_COORD97":2548443.3500000001,"ADDRESS":"大安街２６６號","OBJECTID":246261},"geometry":{"x":167492.51000000164,"y":2548443.3500000015}},{"attributes":{"ID":246266,"DIS_CODE":0,"TOWNNAME":"永康區","LI":"\u25A0洲里","LIN":"4鄰","STREET":"\u25A0洲二街","SECT":" ","MAREA":" ","LANE":" ","ALLEY":" ","HOUSE_NO":"１６９號","E_COORD97":171708.92999999999,"N_COORD97":2549396.7400000002,"ADDRESS":"\u25A0洲二街１６９號","OBJECTID":246262},"geometry":{"x":171708.93000000156,"y":2549396.7400000039}},{"attributes":{"ID":246267,"DIS_CODE":0,"TOWNNAME":"永康區","LI":"埔園里","LIN":" ","STREET":"中正路","SECT":" ","MAREA":" ","LANE":" ","ALLEY":" ","HOUSE_NO":"９４號","E_COORD97":173595.69,"N_COORD97":2547815.2000000002,"ADDRESS":"中正路９４號","OBJECTID":246263},"geometry":{"x":173595.69000000041,"y":2547815.1999999993}},{"attributes":{"ID":246268,"DIS_CODE":0,"TOWNNAME":"永康區","LI":"\u25A0行里","LIN":"18鄰","STREET":"中正南路","SECT":" ","MAREA":" ","LANE":" ","ALLEY":" ","HOUSE_NO":"６７０號","E_COORD97":171589.54000000001,"N_COORD97":2548825.75,"ADDRESS":"中正南路６７０號","OBJECTID":246264},"geometry":{"x":171589.54000000004,"y":2548825.75}},{"attributes":{"ID":246269,"DIS_CODE":0,"TOWNNAME":"永康區","LI":"\u25A0行里","LIN":"18鄰","STREET":"中正南路","SECT":" ","MAREA":" ","LANE":" ","ALLEY":" ","HOUSE_NO":"６６６號","E_COORD97":171583.64999999999,"N_COORD97":2548820.5,"ADDRESS":"中正南路６６６號","OBJECTID":246265},"geometry":{"x":171583.65000000037,"y":2548820.5}},{"attributes":{"ID":246270,"DIS_CODE":0,"TOWNNAME":"永康區","LI":"\u25A0洲里","LIN":"25鄰","STREET":"洲工街","SECT":" ","MAREA":" ","LANE":" ","ALLEY":" ","HOUSE_NO":"１７號","E_COORD97":170617.67999999999,"N_COORD97":2548093.25,"ADDRESS":"洲工街１７號","OBJECTID":246266},"geometry":{"x":170617.68000000063,"y":2548093.25}},{"attributes":{"ID":246271,"DIS_CODE":0,"TOWNNAME":"永康區","LI":"\u25A0行里","LIN":"25鄰","STREET":"\u25A0和街","SECT":" ","MAREA":" ","LANE":" ","ALLEY":" ","HOUSE_NO":"２３２號","E_COORD97":171750.48999999999,"N_COORD97":2548196.75,"ADDRESS":"\u25A0和街２３２號","OBJECTID":246267},"geometry":{"x":171750.49000000115,"y":2548196.7500000019}},{"attributes":{"ID":246272,"DIS_CODE":0,"TOWNNAME":"永康區","LI":"龍潭里","LIN":"42鄰","STREET":"國民路","SECT":" ","MAREA":" ","LANE":" ","ALLEY":" ","HOUSE_NO":"２２１號","E_COORD97":174519.73000000001,"N_COORD97":2547057.25,"ADDRESS":"國民路２２１號","OBJECTID":246268},"geometry":{"x":174519.73000000045,"y":2547057.2500000019}},{"attributes":{"ID":246273,"DIS_CODE":0,"TOWNNAME":"永康區","LI":"\u25A0行里","LIN":"4鄰","STREET":"新行街","SECT":" ","MAREA":" ","LANE":" ","ALLEY":" ","HOUSE_NO":"６號","E_COORD97":172215.91,"N_COORD97":2548752.7400000002,"ADDRESS":"新行街６號","OBJECTID":246269},"geometry":{"x":172215.91000000015,"y":2548752.7400000021}},{"attributes":{"ID":246274,"DIS_CODE":0,"TOWNNAME":"永康區","LI":"\u25A0行里","LIN":"20鄰","STREET":"中正六街","SECT":" ","MAREA":" ","LANE":" ","ALLEY":" ","HOUSE_NO":"７５號","E_COORD97":171847.17999999999,"N_COORD97":2548588,"ADDRESS":"中正六街７５號","OBJECTID":246270},"geometry":{"x":171847.1799999997,"y":2548588.0000000019}},{"attributes":{"ID":246275,"DIS_CODE":0,"TOWNNAME":"永康區","LI":"\u25A0行里","LIN":"20鄰","STREET":"中正六街","SECT":" ","MAREA":" ","LANE":" ","ALLEY":" ","HOUSE_NO":"６７號","E_COORD97":171856.72,"N_COORD97":2548572.9900000002,"ADDRESS":"中正六街６７號","OBJECTID":246271},"geometry":{"x":171856.72000000067,"y":2548572.9900000002}},{"attributes":{"ID":246276,"DIS_CODE":0,"TOWNNAME":"永康區","LI":"蔦松里","LIN":"5鄰","STREET":"蔦松二街","SECT":" ","MAREA":" ","LANE":" ","ALLEY":" ","HOUSE_NO":"１５５號","E_COORD97":173864.94,"N_COORD97":2549443,"ADDRESS":"蔦松二街１５５號","OBJECTID":246272},"geometry":{"x":173864.94000000134,"y":2549443.0000000019}},{"attributes":{"ID":246277,"DIS_CODE":0,"TOWNNAME":"永康區","LI":"蔦松里","LIN":"5鄰","STREET":"蔦松二街","SECT":" ","MAREA":" ","LANE":" ","ALLEY":" ","HOUSE_NO":"１３７號","E_COORD97":173830.45000000001,"N_COORD97":2549421.1200000001,"ADDRESS":"蔦松二街１３７號","OBJECTID":246273},"geometry":{"x":173830.45000000112,"y":2549421.120000001}},{"attributes":{"ID":246278,"DIS_CODE":0,"TOWNNAME":"永康區","LI":"龍潭里","LIN":"39鄰","STREET":"永明街","SECT":" ","MAREA":" ","LANE":" ","ALLEY":" ","HOUSE_NO":"２６３之１６號","E_COORD97":174633.53,"N_COORD97":2547243.6200000001,"ADDRESS":"永明街２６３之１６號","OBJECTID":246274},"geometry":{"x":174633.53000000119,"y":2547243.6200000029}},{"attributes":{"ID":246279,"DIS_CODE":0,"TOWNNAME":"永康區","LI":"蔦松里","LIN":"4鄰","STREET":"蔦松二街","SECT":" ","MAREA":" ","LANE":" ","ALLEY":" ","HOUSE_NO":"１３６號","E_COORD97":173819.32999999999,"N_COORD97":2549393.3100000001,"ADDRESS":"蔦松二街１３６號","OBJECTID":246275},"geometry":{"x":173819.33000000101,"y":2549393.3100000042}},{"attributes":{"ID":246280,"DIS_CODE":0,"TOWNNAME":"永康區","LI":"龍潭里","LIN":"5鄰","STREET":"龍埔街","SECT":" ","MAREA":" ","LANE":" ","ALLEY":" ","HOUSE_NO":"７１號","E_COORD97":174681.88,"N_COORD97":2548213.54,"ADDRESS":"龍埔街７１號","OBJECTID":246276},"geometry":{"x":174681.88000000082,"y":2548213.5400000028}},{"attributes":{"ID":246281,"DIS_CODE":0,"TOWNNAME":"永康區","LI":"網寮里","LIN":"26鄰","STREET":"永華路","SECT":" ","MAREA":" ","LANE":" ","ALLEY":" ","HOUSE_NO":"５７８號","E_COORD97":173891.23999999999,"N_COORD97":2546569.0099999998,"ADDRESS":"永華路５７８號","OBJECTID":246277},"geometry":{"x":173891.24000000115,"y":2546569.0099999998}},{"attributes":{"ID":246282,"DIS_CODE":0,"TOWNNAME":"永康區","LI":"\u25A0行里","LIN":"39鄰","STREET":"永安路","SECT":" ","MAREA":" ","LANE":" ","ALLEY":" ","HOUSE_NO":"１號","E_COORD97":172763.70000000001,"N_COORD97":2549136.79,"ADDRESS":"永安路１號","OBJECTID":246278},"geometry":{"x":172763.70000000205,"y":2549136.7899999991}},{"attributes":{"ID":246283,"DIS_CODE":0,"TOWNNAME":"永康區","LI":"網寮里","LIN":"18鄰","STREET":"永勝街","SECT":" ","MAREA":" ","LANE":" ","ALLEY":" ","HOUSE_NO":"６３號","E_COORD97":173524.20999999999,"N_COORD97":2546309.98,"ADDRESS":"永勝街６３號","OBJECTID":246279},"geometry":{"x":173524.20999999996,"y":2546309.9800000042}},{"attributes":{"ID":246284,"DIS_CODE":0,"TOWNNAME":"仁德區","LI":"後壁里","LIN":"34鄰","STREET":"德洋二街","SECT":" ","MAREA":" ","LANE":"３９巷","ALLEY":" ","HOUSE_NO":"２７號","E_COORD97":172298.64999999999,"N_COORD97":2539424.5099999998,"ADDRESS":"德洋二街３９巷２７號","OBJECTID":246280},"geometry":{"x":172298.6500000013,"y":2539424.5100000016}},{"attributes":{"ID":246285,"DIS_CODE":0,"TOWNNAME":"仁德區","LI":"後壁里","LIN":"34鄰","STREET":"德洋二街","SECT":" ","MAREA":" ","LANE":"５巷","ALLEY":" ","HOUSE_NO":"８之２號","E_COORD97":172488.94,"N_COORD97":2539342.54,"ADDRESS":"德洋二街５巷８之２號","OBJECTID":246281},"geometry":{"x":172488.94000000041,"y":2539342.540000001}},{"attributes":{"ID":246286,"DIS_CODE":0,"TOWNNAME":"新市區","LI":"新和里","LIN":"34鄰","STREET":"仁愛街","SECT":" ","MAREA":" ","LANE":"２０５巷","ALLEY":" ","HOUSE_NO":"１３號","E_COORD97":177556.09,"N_COORD97":2552807.2799999998,"ADDRESS":"仁愛街２０５巷１３號","OBJECTID":246282},"geometry":{"x":177556.08999999985,"y":2552807.2800000012}},{"attributes":{"ID":246287,"DIS_CODE":0,"TOWNNAME":"新市區","LI":"新和里","LIN":"34鄰","STREET":"仁愛街","SECT":" ","MAREA":" ","LANE":"２０５巷","ALLEY":" ","HOUSE_NO":"２１號","E_COORD97":177539.39000000001,"N_COORD97":2552807.7799999998,"ADDRESS":"仁愛街２０５巷２１號","OBJECTID":246283},"geometry":{"x":177539.3900000006,"y":2552807.7800000012}},{"attributes":{"ID":246288,"DIS_CODE":0,"TOWNNAME":"新市區","LI":"新和里","LIN":"34鄰","STREET":"仁愛街","SECT":" ","MAREA":" ","LANE":"２０５巷","ALLEY":" ","HOUSE_NO":"３１號","E_COORD97":177518.70000000001,"N_COORD97":2552809.0299999998,"ADDRESS":"仁愛街２０５巷３１號","OBJECTID":246284},"geometry":{"x":177518.70000000205,"y":2552809.0300000012}},{"attributes":{"ID":246289,"DIS_CODE":0,"TOWNNAME":"新市區","LI":"新和里","LIN":"34鄰","STREET":"仁愛街","SECT":" ","MAREA":" ","LANE":"１８９巷","ALLEY":" ","HOUSE_NO":"８號","E_COORD97":177562.45000000001,"N_COORD97":2552770.0299999998,"ADDRESS":"仁愛街１８９巷８號","OBJECTID":246285},"geometry":{"x":177562.45000000019,"y":2552770.0299999993}},{"attributes":{"ID":246290,"DIS_CODE":0,"TOWNNAME":"永康區","LI":"正強里","LIN":"34鄰","STREET":"四維街","SECT":" ","MAREA":" ","LANE":"１４９巷","ALLEY":" ","HOUSE_NO":"８號","E_COORD97":173254.70999999999,"N_COORD97":2548334.2799999998,"ADDRESS":"四維街１４９巷８號","OBJECTID":246286},"geometry":{"x":173254.70999999996,"y":2548334.2800000031}},{"attributes":{"ID":246291,"DIS_CODE":0,"TOWNNAME":"永康區","LI":"正強里","LIN":"34鄰","STREET":"四維街","SECT":" ","MAREA":" ","LANE":"１４９巷","ALLEY":" ","HOUSE_NO":"３４號","E_COORD97":173214.62,"N_COORD97":2548359.8799999999,"ADDRESS":"四維街１４９巷３４號","OBJECTID":246287},"geometry":{"x":173214.62000000011,"y":2548359.879999999}},{"attributes":{"ID":246292,"DIS_CODE":0,"TOWNNAME":"永康區","LI":"正強里","LIN":"34鄰","STREET":"四維街","SECT":" ","MAREA":" ","LANE":"１４９巷","ALLEY":" ","HOUSE_NO":"３３號","E_COORD97":173213,"N_COORD97":2548364.3799999999,"ADDRESS":"四維街１４９巷３３號","OBJECTID":246288},"geometry":{"x":173213.00000000093,"y":2548364.3800000008}},{"attributes":{"ID":246293,"DIS_CODE":0,"TOWNNAME":"永康區","LI":"正強里","LIN":"34鄰","STREET":"四維街","SECT":" ","MAREA":" ","LANE":"１４９巷","ALLEY":" ","HOUSE_NO":"２３號","E_COORD97":173226.45000000001,"N_COORD97":2548384.8900000001,"ADDRESS":"四維街１４９巷２３號","OBJECTID":246289},"geometry":{"x":173226.45000000205,"y":2548384.8900000006}},{"attributes":{"ID":246294,"DIS_CODE":0,"TOWNNAME":"永康區","LI":"正強里","LIN":"34鄰","STREET":"四維街","SECT":" ","MAREA":" ","LANE":"１４９巷","ALLEY":" ","HOUSE_NO":"２７號","E_COORD97":173214.22,"N_COORD97":2548401.8900000001,"ADDRESS":"四維街１４９巷２７號","OBJECTID":246290},"geometry":{"x":173214.22000000067,"y":2548401.8900000006}},{"attributes":{"ID":246295,"DIS_CODE":0,"TOWNNAME":"永康區","LI":"正強里","LIN":"34鄰","STREET":"四維街","SECT":" ","MAREA":" ","LANE":"１４９巷","ALLEY":" ","HOUSE_NO":"２８號","E_COORD97":173212.85999999999,"N_COORD97":2548391.1400000001,"ADDRESS":"四維街１４９巷２８號","OBJECTID":246291},"geometry":{"x":173212.86000000127,"y":2548391.1400000025}},{"attributes":{"ID":246296,"DIS_CODE":0,"TOWNNAME":"永康區","LI":"正強里","LIN":"34鄰","STREET":"四維街","SECT":" ","MAREA":" ","LANE":"１４９巷","ALLEY":" ","HOUSE_NO":"１６號","E_COORD97":173232.95999999999,"N_COORD97":2548356.6699999999,"ADDRESS":"四維街１４９巷１６號","OBJECTID":246292},"geometry":{"x":173232.96000000183,"y":2548356.6700000018}},{"attributes":{"ID":246297,"DIS_CODE":0,"TOWNNAME":"永康區","LI":"正強里","LIN":"34鄰","STREET":"四維街","SECT":" ","MAREA":" ","LANE":"１４９巷","ALLEY":" ","HOUSE_NO":"３２號","E_COORD97":173217.70999999999,"N_COORD97":2548370.1299999999,"ADDRESS":"四維街１４９巷３２號","OBJECTID":246293},"geometry":{"x":173217.71000000183,"y":2548370.1300000008}},{"attributes":{"ID":246298,"DIS_CODE":0,"TOWNNAME":"永康區","LI":"正強里","LIN":"34鄰","STREET":"四維街","SECT":" ","MAREA":" ","LANE":"１４９巷","ALLEY":" ","HOUSE_NO":"４號","E_COORD97":173271.23999999999,"N_COORD97":2548337.7799999998,"ADDRESS":"四維街１４９巷４號","OBJECTID":246294},"geometry":{"x":173271.24000000022,"y":2548337.7800000031}},{"attributes":{"ID":246299,"DIS_CODE":0,"TOWNNAME":"永康區","LI":"正強里","LIN":"34鄰","STREET":"四維街","SECT":" ","MAREA":" ","LANE":"１４９巷","ALLEY":" ","HOUSE_NO":"６號","E_COORD97":173263.10000000001,"N_COORD97":2548335.7799999998,"ADDRESS":"四維街１４９巷６號","OBJECTID":246295},"geometry":{"x":173263.09999999963,"y":2548335.7800000012}},{"attributes":{"ID":246300,"DIS_CODE":0,"TOWNNAME":"永康區","LI":"正強里","LIN":"34鄰","STREET":"四維街","SECT":" ","MAREA":" ","LANE":"１４９巷","ALLEY":" ","HOUSE_NO":"５號","E_COORD97":173267.14999999999,"N_COORD97":2548336.5299999998,"ADDRESS":"四維街１４９巷５號","OBJECTID":246296},"geometry":{"x":173267.15000000037,"y":2548336.5300000012}},{"attributes":{"ID":246301,"DIS_CODE":0,"TOWNNAME":"永康區","LI":"正強里","LIN":"34鄰","STREET":"四維街","SECT":" ","MAREA":" ","LANE":"１４９巷","ALLEY":" ","HOUSE_NO":"７號","E_COORD97":173258.89999999999,"N_COORD97":2548335.0299999998,"ADDRESS":"四維街１４９巷７號","OBJECTID":246297},"geometry":{"x":173258.90000000037,"y":2548335.0299999993}},{"attributes":{"ID":246302,"DIS_CODE":0,"TOWNNAME":"永康區","LI":"正強里","LIN":"34鄰","STREET":"四維街","SECT":" ","MAREA":" ","LANE":"１４９巷","ALLEY":" ","HOUSE_NO":"１２號","E_COORD97":173236.70000000001,"N_COORD97":2548341.6600000001,"ADDRESS":"四維街１４９巷１２號","OBJECTID":246298},"geometry":{"x":173236.70000000205,"y":2548341.6600000001}},{"attributes":{"ID":246303,"DIS_CODE":0,"TOWNNAME":"永康區","LI":"五王里","LIN":"34鄰","STREET":"五福街","SECT":" ","MAREA":" ","LANE":"３３巷","ALLEY":" ","HOUSE_NO":"１０號","E_COORD97":171318.79999999999,"N_COORD97":2545927,"ADDRESS":"五福街３３巷１０號","OBJECTID":246299},"geometry":{"x":171318.80000000075,"y":2545927.0000000019}},{"attributes":{"ID":246304,"DIS_CODE":0,"TOWNNAME":"永康區","LI":"五王里","LIN":"34鄰","STREET":"中華路","SECT":" ","MAREA":" ","LANE":"５７８巷","ALLEY":" ","HOUSE_NO":"１４號","E_COORD97":171363.89999999999,"N_COORD97":2545970.2400000002,"ADDRESS":"中華路５７８巷１４號","OBJECTID":246300},"geometry":{"x":171363.89999999944,"y":2545970.2400000021}},{"attributes":{"ID":246305,"DIS_CODE":0,"TOWNNAME":"永康區","LI":"正強里","LIN":"34鄰","STREET":"四維街","SECT":" ","MAREA":" ","LANE":"１４９巷","ALLEY":" ","HOUSE_NO":"１４號","E_COORD97":173234.85999999999,"N_COORD97":2548349.4100000001,"ADDRESS":"四維街１４９巷１４號","OBJECTID":246301},"geometry":{"x":173234.86000000127,"y":2548349.410000002}},{"attributes":{"ID":246306,"DIS_CODE":0,"TOWNNAME":"永康區","LI":"正強里","LIN":"34鄰","STREET":"四維街","SECT":" ","MAREA":" ","LANE":"１４９巷","ALLEY":" ","HOUSE_NO":"１３號","E_COORD97":173236.01000000001,"N_COORD97":2548345.4100000001,"ADDRESS":"四維街１４９巷１３號","OBJECTID":246302},"geometry":{"x":173236.01000000071,"y":2548345.410000002}},{"attributes":{"ID":246307,"DIS_CODE":0,"TOWNNAME":"永康區","LI":"五王里","LIN":"34鄰","STREET":"五福街","SECT":" ","MAREA":" ","LANE":"３３巷","ALLEY":" ","HOUSE_NO":"７號","E_COORD97":171308.45999999999,"N_COORD97":2545921.75,"ADDRESS":"五福街３３巷７號","OBJECTID":246303},"geometry":{"x":171308.45999999996,"y":2545921.7500000019}},{"attributes":{"ID":246308,"DIS_CODE":0,"TOWNNAME":"永康區","LI":"正強里","LIN":"34鄰","STREET":"四維街","SECT":" ","MAREA":" ","LANE":"１４９巷","ALLEY":" ","HOUSE_NO":"９號","E_COORD97":173239.54999999999,"N_COORD97":2548330.1600000001,"ADDRESS":"四維街１４９巷９號","OBJECTID":246304},"geometry":{"x":173239.55000000075,"y":2548330.160000002}},{"attributes":{"ID":246309,"DIS_CODE":0,"TOWNNAME":"永康區","LI":"五王里","LIN":"34鄰","STREET":"五福街","SECT":" ","MAREA":" ","LANE":"３３巷","ALLEY":" ","HOUSE_NO":"８號","E_COORD97":171319.72,"N_COORD97":2545923,"ADDRESS":"五福街３３巷８號","OBJECTID":246305},"geometry":{"x":171319.71999999974,"y":2545923.0000000037}},{"attributes":{"ID":246310,"DIS_CODE":0,"TOWNNAME":"永康區","LI":"正強里","LIN":"34鄰","STREET":"四維街","SECT":" ","MAREA":" ","LANE":"１４９巷","ALLEY":" ","HOUSE_NO":"１１號","E_COORD97":173237.64999999999,"N_COORD97":2548337.6600000001,"ADDRESS":"四維街１４９巷１１號","OBJECTID":246306},"geometry":{"x":173237.6500000013,"y":2548337.6600000001}},{"attributes":{"ID":246311,"DIS_CODE":0,"TOWNNAME":"新市區","LI":"新和里","LIN":"34鄰","STREET":"仁愛街","SECT":" ","MAREA":" ","LANE":"１８９巷","ALLEY":" ","HOUSE_NO":"１０號","E_COORD97":177559.04000000001,"N_COORD97":2552769.7799999998,"ADDRESS":"仁愛街１８９巷１０號","OBJECTID":246307},"geometry":{"x":177559.04000000097,"y":2552769.7800000012}},{"attributes":{"ID":246312,"DIS_CODE":0,"TOWNNAME":"新市區","LI":"新和里","LIN":"34鄰","STREET":"仁愛街","SECT":" ","MAREA":" ","LANE":"１８９巷","ALLEY":" ","HOUSE_NO":"２４號","E_COORD97":177525.89000000001,"N_COORD97":2552766.0299999998,"ADDRESS":"仁愛街１８９巷２４號","OBJECTID":246308},"geometry":{"x":177525.8900000006,"y":2552766.0299999993}},{"attributes":{"ID":246313,"DIS_CODE":0,"TOWNNAME":"仁德區","LI":"仁義里","LIN":"20鄰","STREET":"正義路","SECT":" ","MAREA":" ","LANE":"１９６巷","ALLEY":" ","HOUSE_NO":"１５號","E_COORD97":173910.832502,"N_COORD97":2541293.26584,"ADDRESS":"正義路１９６巷１５號","OBJECTID":246309},"geometry":{"x":173910.8325019991,"y":2541293.2658350002}},{"attributes":{"ID":246314,"DIS_CODE":0,"TOWNNAME":"新市區","LI":"新和里","LIN":"34鄰","STREET":"仁愛街","SECT":" ","MAREA":" ","LANE":"２０５巷","ALLEY":" ","HOUSE_NO":"２３號","E_COORD97":177535.20000000001,"N_COORD97":2552808.2799999998,"ADDRESS":"仁愛街２０５巷２３號","OBJECTID":246310},"geometry":{"x":177535.20000000019,"y":2552808.2799999993}},{"attributes":{"ID":246315,"DIS_CODE":0,"TOWNNAME":"中西區","LI":"西湖里","LIN":"34鄰","STREET":"西湖街","SECT":" ","MAREA":" ","LANE":"５９巷","ALLEY":" ","HOUSE_NO":"１８號","E_COORD97":166434.85000000001,"N_COORD97":2544851.7400000002,"ADDRESS":"西湖街５９巷１８號","OBJECTID":246311},"geometry":{"x":166434.84999999963,"y":2544851.7400000021}},{"attributes":{"ID":246316,"DIS_CODE":0,"TOWNNAME":"中西區","LI":"西湖里","LIN":"34鄰","STREET":"西湖街","SECT":" ","MAREA":" ","LANE":"５９巷","ALLEY":" ","HOUSE_NO":"２０號","E_COORD97":166434.85000000001,"N_COORD97":2544847.9300000002,"ADDRESS":"西湖街５９巷２０號","OBJECTID":246312},"geometry":{"x":166434.84999999963,"y":2544847.9299999997}},{"attributes":{"ID":246317,"DIS_CODE":0,"TOWNNAME":"新市區","LI":"新和里","LIN":"34鄰","STREET":"仁愛街","SECT":" ","MAREA":" ","LANE":"２０５巷","ALLEY":" ","HOUSE_NO":"１５號","E_COORD97":177551.84,"N_COORD97":2552807.2799999998,"ADDRESS":"仁愛街２０５巷１５號","OBJECTID":246313},"geometry":{"x":177551.84000000078,"y":2552807.2800000012}},{"attributes":{"ID":246318,"DIS_CODE":0,"TOWNNAME":"新市區","LI":"新和里","LIN":"34鄰","STREET":"仁愛街","SECT":" ","MAREA":" ","LANE":"２０５巷","ALLEY":" ","HOUSE_NO":"２２號","E_COORD97":177523.59,"N_COORD97":2552819.2799999998,"ADDRESS":"仁愛街２０５巷２２號","OBJECTID":246314},"geometry":{"x":177523.58999999985,"y":2552819.2799999993}},{"attributes":{"ID":246319,"DIS_CODE":0,"TOWNNAME":"新市區","LI":"新和里","LIN":"34鄰","STREET":"仁愛街","SECT":" ","MAREA":" ","LANE":"２０５巷","ALLEY":" ","HOUSE_NO":"４４號","E_COORD97":177488.79000000001,"N_COORD97":2552821.0299999998,"ADDRESS":"仁愛街２０５巷４４號","OBJECTID":246315},"geometry":{"x":177488.79000000004,"y":2552821.0299999993}},{"attributes":{"ID":246320,"DIS_CODE":0,"TOWNNAME":"新市區","LI":"新和里","LIN":"34鄰","STREET":"仁愛街","SECT":" ","MAREA":" ","LANE":"１８９巷","ALLEY":" ","HOUSE_NO":"３４號","E_COORD97":177502.59,"N_COORD97":2552768.2799999998,"ADDRESS":"仁愛街１８９巷３４號","OBJECTID":246316},"geometry":{"x":177502.59000000078,"y":2552768.2799999993}},{"attributes":{"ID":246321,"DIS_CODE":0,"TOWNNAME":"新市區","LI":"新和里","LIN":"34鄰","STREET":"仁愛街","SECT":" ","MAREA":" ","LANE":"１８９巷","ALLEY":" ","HOUSE_NO":"１４號","E_COORD97":177550.09,"N_COORD97":2552769.2799999998,"ADDRESS":"仁愛街１８９巷１４號","OBJECTID":246317},"geometry":{"x":177550.09000000078,"y":2552769.2800000012}},{"attributes":{"ID":246322,"DIS_CODE":0,"TOWNNAME":"新市區","LI":"新和里","LIN":"34鄰","STREET":"仁愛街","SECT":" ","MAREA":" ","LANE":"１８９巷","ALLEY":" ","HOUSE_NO":"１２號","E_COORD97":177554.64000000001,"N_COORD97":2552769.5299999998,"ADDRESS":"仁愛街１８９巷１２號","OBJECTID":246318},"geometry":{"x":177554.6400000006,"y":2552769.5299999993}},{"attributes":{"ID":246323,"DIS_CODE":0,"TOWNNAME":"新市區","LI":"新和里","LIN":"34鄰","STREET":"仁愛街","SECT":" ","MAREA":" ","LANE":"２０５巷","ALLEY":" ","HOUSE_NO":"２７號","E_COORD97":177527,"N_COORD97":2552808.5299999998,"ADDRESS":"仁愛街２０５巷２７號","OBJECTID":246319},"geometry":{"x":177527.00000000093,"y":2552808.5300000012}},{"attributes":{"ID":246324,"DIS_CODE":0,"TOWNNAME":"新市區","LI":"新和里","LIN":"34鄰","STREET":"仁愛街","SECT":" ","MAREA":" ","LANE":"１８９巷","ALLEY":" ","HOUSE_NO":"２號","E_COORD97":177575.79000000001,"N_COORD97":2552770.7799999998,"ADDRESS":"仁愛街１８９巷２號","OBJECTID":246320},"geometry":{"x":177575.79000000097,"y":2552770.7799999993}},{"attributes":{"ID":246325,"DIS_CODE":0,"TOWNNAME":"新市區","LI":"新和里","LIN":"34鄰","STREET":"仁愛街","SECT":" ","MAREA":" ","LANE":"２０５巷","ALLEY":" ","HOUSE_NO":"７號","E_COORD97":177567.25,"N_COORD97":2552806.7799999998,"ADDRESS":"仁愛街２０５巷７號","OBJECTID":246321},"geometry":{"x":177567.24999999907,"y":2552806.7800000012}},{"attributes":{"ID":246326,"DIS_CODE":0,"TOWNNAME":"新化區","LI":"大坑里","LIN":"11鄰","STREET":" ","SECT":" ","MAREA":"大坑尾","LANE":" ","ALLEY":" ","HOUSE_NO":"２４６號之２","E_COORD97":184823.98000000001,"N_COORD97":2545885.2599999998,"ADDRESS":"大坑尾２４６號之２","OBJECTID":246322},"geometry":{"x":184823.98000000138,"y":2545885.2600000016}},{"attributes":{"ID":246327,"DIS_CODE":0,"TOWNNAME":"新化區","LI":"\u25A0拔里","LIN":"10鄰","STREET":" ","SECT":" ","MAREA":"牧場","LANE":" ","ALLEY":" ","HOUSE_NO":"１號之３","E_COORD97":181041.92999999999,"N_COORD97":2550803.2599999998,"ADDRESS":"牧場１號之３","OBJECTID":246323},"geometry":{"x":181041.9299999997,"y":2550803.2600000035}},{"attributes":{"ID":246328,"DIS_CODE":0,"TOWNNAME":"新市區","LI":"新和里","LIN":"34鄰","STREET":"仁愛街","SECT":" ","MAREA":" ","LANE":"２０５巷","ALLEY":" ","HOUSE_NO":"３號","E_COORD97":177575.70000000001,"N_COORD97":2552806.0299999998,"ADDRESS":"仁愛街２０５巷３號","OBJECTID":246324},"geometry":{"x":177575.70000000019,"y":2552806.0300000012}},{"attributes":{"ID":246329,"DIS_CODE":0,"TOWNNAME":"新市區","LI":"新和里","LIN":"34鄰","STREET":"仁愛街","SECT":" ","MAREA":" ","LANE":"２０５巷","ALLEY":" ","HOUSE_NO":"４２號","E_COORD97":177493.39000000001,"N_COORD97":2552820.7799999998,"ADDRESS":"仁愛街２０５巷４２號","OBJECTID":246325},"geometry":{"x":177493.3900000006,"y":2552820.7800000012}},{"attributes":{"ID":246330,"DIS_CODE":0,"TOWNNAME":"新市區","LI":"新和里","LIN":"34鄰","STREET":"仁愛街","SECT":" ","MAREA":" ","LANE":"２０５巷","ALLEY":" ","HOUSE_NO":"１４號","E_COORD97":177540.59,"N_COORD97":2552818.5299999998,"ADDRESS":"仁愛街２０５巷１４號","OBJECTID":246326},"geometry":{"x":177540.58999999985,"y":2552818.5300000012}},{"attributes":{"ID":246331,"DIS_CODE":0,"TOWNNAME":"安南區","LI":"安富里","LIN":"34鄰","STREET":"府安路","SECT":"五段","MAREA":" ","LANE":"２２３巷","ALLEY":" ","HOUSE_NO":"１０號","E_COORD97":167519.17999999999,"N_COORD97":2546949.3900000001,"ADDRESS":"府安路五段２２３巷１０號","OBJECTID":246327},"geometry":{"x":167519.18000000063,"y":2546949.3900000025}},{"attributes":{"ID":246332,"DIS_CODE":0,"TOWNNAME":"安南區","LI":"安富里","LIN":"34鄰","STREET":"府安路","SECT":"五段","MAREA":" ","LANE":"２２３巷","ALLEY":" ","HOUSE_NO":"１１號","E_COORD97":167492.64000000001,"N_COORD97":2546944.6000000001,"ADDRESS":"府安路五段２２３巷１１號","OBJECTID":246328},"geometry":{"x":167492.63999999966,"y":2546944.5999999996}},{"attributes":{"ID":246333,"DIS_CODE":0,"TOWNNAME":"安南區","LI":"安富里","LIN":"34鄰","STREET":"府安路","SECT":"五段","MAREA":" ","LANE":"２２３巷","ALLEY":" ","HOUSE_NO":"１２號","E_COORD97":167518.54000000001,"N_COORD97":2546953.2200000002,"ADDRESS":"府安路五段２２３巷１２號","OBJECTID":246329},"geometry":{"x":167518.54000000097,"y":2546953.2200000025}},{"attributes":{"ID":246334,"DIS_CODE":0,"TOWNNAME":"安南區","LI":"安富里","LIN":"34鄰","STREET":"府安路","SECT":"五段","MAREA":" ","LANE":"２２３巷","ALLEY":" ","HOUSE_NO":"１３號","E_COORD97":167492.32000000001,"N_COORD97":2546949.0699999998,"ADDRESS":"府安路五段２２３巷１３號","OBJECTID":246330},"geometry":{"x":167492.3200000003,"y":2546949.0700000003}},{"attributes":{"ID":246335,"DIS_CODE":0,"TOWNNAME":"安南區","LI":"安富里","LIN":"34鄰","STREET":"府安路","SECT":"五段","MAREA":" ","LANE":"２２３巷","ALLEY":" ","HOUSE_NO":"１４號","E_COORD97":167517.57999999999,"N_COORD97":2546959.29,"ADDRESS":"府安路五段２２３巷１４號","OBJECTID":246331},"geometry":{"x":167517.58000000007,"y":2546959.2899999991}},{"attributes":{"ID":246336,"DIS_CODE":0,"TOWNNAME":"安南區","LI":"安富里","LIN":"34鄰","STREET":"府安路","SECT":"五段","MAREA":" ","LANE":"２２３巷","ALLEY":" ","HOUSE_NO":"１５號","E_COORD97":167490.72,"N_COORD97":2546953.2200000002,"ADDRESS":"府安路五段２２３巷１５號","OBJECTID":246332},"geometry":{"x":167490.71999999974,"y":2546953.2200000025}},{"attributes":{"ID":246337,"DIS_CODE":0,"TOWNNAME":"安南區","LI":"安富里","LIN":"34鄰","STREET":"府安路","SECT":"五段","MAREA":" ","LANE":"２２３巷","ALLEY":" ","HOUSE_NO":"１６號","E_COORD97":167515.66,"N_COORD97":2546962.7999999998,"ADDRESS":"府安路五段２２３巷１６號","OBJECTID":246333},"geometry":{"x":167515.66000000201,"y":2546962.8000000026}},{"attributes":{"ID":246338,"DIS_CODE":0,"TOWNNAME":"安南區","LI":"安富里","LIN":"34鄰","STREET":"府安路","SECT":"五段","MAREA":" ","LANE":"２２３巷","ALLEY":" ","HOUSE_NO":"１７號","E_COORD97":167490.39999999999,"N_COORD97":2546958.0099999998,"ADDRESS":"府安路五段２２３巷１７號","OBJECTID":246334},"geometry":{"x":167490.39999999944,"y":2546958.0100000016}},{"attributes":{"ID":246339,"DIS_CODE":0,"TOWNNAME":"安南區","LI":"安富里","LIN":"34鄰","STREET":"府安路","SECT":"五段","MAREA":" ","LANE":"２２３巷","ALLEY":" ","HOUSE_NO":"２２號","E_COORD97":167513.42000000001,"N_COORD97":2546976.21,"ADDRESS":"府安路五段２２３巷２２號","OBJECTID":246335},"geometry":{"x":167513.41999999993,"y":2546976.2100000009}},{"attributes":{"ID":246340,"DIS_CODE":0,"TOWNNAME":"安南區","LI":"安富里","LIN":"34鄰","STREET":"府安路","SECT":"五段","MAREA":" ","LANE":"２２３巷","ALLEY":" ","HOUSE_NO":"２３號","E_COORD97":167487.20000000001,"N_COORD97":2546971.1000000001,"ADDRESS":"府安路五段２２３巷２３號","OBJECTID":246336},"geometry":{"x":167487.20000000112,"y":2546971.1000000015}},{"attributes":{"ID":246341,"DIS_CODE":0,"TOWNNAME":"安南區","LI":"安富里","LIN":"34鄰","STREET":"府安路","SECT":"五段","MAREA":" ","LANE":"２２３巷","ALLEY":" ","HOUSE_NO":"２６號","E_COORD97":167507.67000000001,"N_COORD97":2547008.7599999998,"ADDRESS":"府安路五段２２３巷２６號","OBJECTID":246337},"geometry":{"x":167507.67000000086,"y":2547008.7599999998}},{"attributes":{"ID":246342,"DIS_CODE":0,"TOWNNAME":"安南區","LI":"安富里","LIN":"34鄰","STREET":"府安路","SECT":"五段","MAREA":" ","LANE":"２２３巷","ALLEY":" ","HOUSE_NO":"２７號","E_COORD97":167480.48999999999,"N_COORD97":2547003,"ADDRESS":"府安路五段２２３巷２７號","OBJECTID":246338},"geometry":{"x":167480.49000000022,"y":2547003}},{"attributes":{"ID":246343,"DIS_CODE":0,"TOWNNAME":"安南區","LI":"安富里","LIN":"34鄰","STREET":"府安路","SECT":"五段","MAREA":" ","LANE":"２２３巷","ALLEY":" ","HOUSE_NO":"２８號","E_COORD97":167507.35000000001,"N_COORD97":2547011.96,"ADDRESS":"府安路五段２２３巷２８號","OBJECTID":246339},"geometry":{"x":167507.35000000056,"y":2547011.9600000009}},{"attributes":{"ID":246344,"DIS_CODE":0,"TOWNNAME":"安南區","LI":"安富里","LIN":"34鄰","STREET":"府安路","SECT":"五段","MAREA":" ","LANE":"２２３巷","ALLEY":" ","HOUSE_NO":"２９號","E_COORD97":167480.17000000001,"N_COORD97":2547008.1000000001,"ADDRESS":"府安路五段２２３巷２９號","OBJECTID":246340},"geometry":{"x":167480.17000000086,"y":2547008.1000000015}},{"attributes":{"ID":246345,"DIS_CODE":0,"TOWNNAME":"安南區","LI":"安富里","LIN":"34鄰","STREET":"府安路","SECT":"五段","MAREA":" ","LANE":"２２３巷","ALLEY":" ","HOUSE_NO":"３０號","E_COORD97":167506.39000000001,"N_COORD97":2547017.7000000002,"ADDRESS":"府安路五段２２３巷３０號","OBJECTID":246341},"geometry":{"x":167506.38999999966,"y":2547017.6999999993}},{"attributes":{"ID":246346,"DIS_CODE":0,"TOWNNAME":"安南區","LI":"安富里","LIN":"34鄰","STREET":"府安路","SECT":"五段","MAREA":" ","LANE":"２２３巷","ALLEY":" ","HOUSE_NO":"３１號","E_COORD97":167479.85000000001,"N_COORD97":2547013.21,"ADDRESS":"府安路五段２２３巷３１號","OBJECTID":246342},"geometry":{"x":167479.85000000149,"y":2547013.2100000009}},{"attributes":{"ID":246347,"DIS_CODE":0,"TOWNNAME":"新營區","LI":"嘉芳里","LIN":"14鄰","STREET":"八德路","SECT":" ","MAREA":" ","LANE":" ","ALLEY":" ","HOUSE_NO":"３號","E_COORD97":176906.06,"N_COORD97":2578052.75,"ADDRESS":"八德路３號","OBJECTID":246343},"geometry":{"x":176906.06000000052,"y":2578052.7500000019}},{"attributes":{"ID":246348,"DIS_CODE":0,"TOWNNAME":"新化區","LI":"崙頂里","LIN":"11鄰","STREET":" ","SECT":" ","MAREA":"崙子頂","LANE":" ","ALLEY":" ","HOUSE_NO":"３８４號","E_COORD97":176942.03,"N_COORD97":2546882.25,"ADDRESS":"崙子頂３８４號","OBJECTID":246344},"geometry":{"x":176942.03000000212,"y":2546882.2500000019}},{"attributes":{"ID":246349,"DIS_CODE":0,"TOWNNAME":"西港區","LI":"港東里","LIN":"11鄰","STREET":" ","SECT":" ","MAREA":"烏竹林","LANE":" ","ALLEY":" ","HOUSE_NO":"５９號","E_COORD97":169620.42999999999,"N_COORD97":2558123.0600000001,"ADDRESS":"烏竹林５９號","OBJECTID":246345},"geometry":{"x":169620.43000000156,"y":2558123.0600000024}},{"attributes":{"ID":246350,"DIS_CODE":0,"TOWNNAME":"安南區","LI":"安富里","LIN":"34鄰","STREET":"府安路","SECT":"五段","MAREA":" ","LANE":"２２３巷","ALLEY":" ","HOUSE_NO":"３２號","E_COORD97":167505.10999999999,"N_COORD97":2547022.1699999999,"ADDRESS":"府安路五段２２３巷３２號","OBJECTID":246346},"geometry":{"x":167505.11000000127,"y":2547022.1699999999}},{"attributes":{"ID":246351,"DIS_CODE":0,"TOWNNAME":"安南區","LI":"安富里","LIN":"34鄰","STREET":"府安路","SECT":"五段","MAREA":" ","LANE":"２２３巷","ALLEY":" ","HOUSE_NO":"３３號","E_COORD97":167477.92999999999,"N_COORD97":2547016.0899999999,"ADDRESS":"府安路五段２２３巷３３號","OBJECTID":246347},"geometry":{"x":167477.93000000063,"y":2547016.0899999999}},{"attributes":{"ID":246352,"DIS_CODE":0,"TOWNNAME":"安南區","LI":"安富里","LIN":"34鄰","STREET":"府安路","SECT":"五段","MAREA":" ","LANE":"２２３巷","ALLEY":" ","HOUSE_NO":"３４號","E_COORD97":167505.42999999999,"N_COORD97":2547025.6800000002,"ADDRESS":"府安路五段２２３巷３４號","OBJECTID":246348},"geometry":{"x":167505.43000000063,"y":2547025.6799999997}},{"attributes":{"ID":246353,"DIS_CODE":0,"TOWNNAME":"安南區","LI":"安富里","LIN":"34鄰","STREET":"府安路","SECT":"五段","MAREA":" ","LANE":"２２３巷","ALLEY":" ","HOUSE_NO":"３５號","E_COORD97":167478.57000000001,"N_COORD97":2547021.5099999998,"ADDRESS":"府安路五段２２３巷３５號","OBJECTID":246349},"geometry":{"x":167478.5700000003,"y":2547021.5100000016}},{"attributes":{"ID":246354,"DIS_CODE":0,"TOWNNAME":"安南區","LI":"安富里","LIN":"34鄰","STREET":"府安路","SECT":"五段","MAREA":" ","LANE":"２２３巷","ALLEY":" ","HOUSE_NO":"３６號","E_COORD97":167505.10999999999,"N_COORD97":2547029.8300000001,"ADDRESS":"府安路五段２２３巷３６號","OBJECTID":246350},"geometry":{"x":167505.11000000127,"y":2547029.8300000019}},{"attributes":{"ID":246355,"DIS_CODE":0,"TOWNNAME":"安南區","LI":"安富里","LIN":"34鄰","STREET":"府安路","SECT":"五段","MAREA":" ","LANE":"２２３巷","ALLEY":" ","HOUSE_NO":"３７號","E_COORD97":167477.60999999999,"N_COORD97":2547025.98,"ADDRESS":"府安路五段２２３巷３７號","OBJECTID":246351},"geometry":{"x":167477.61000000127,"y":2547025.9800000023}},{"attributes":{"ID":246356,"DIS_CODE":0,"TOWNNAME":"安南區","LI":"安富里","LIN":"34鄰","STREET":"府安路","SECT":"五段","MAREA":" ","LANE":"２２３巷","ALLEY":" ","HOUSE_NO":"３８號","E_COORD97":167504.14999999999,"N_COORD97":2547035.2599999998,"ADDRESS":"府安路五段２２３巷３８號","OBJECTID":246352},"geometry":{"x":167504.15000000224,"y":2547035.2599999998}},{"attributes":{"ID":246357,"DIS_CODE":0,"TOWNNAME":"安南區","LI":"安富里","LIN":"34鄰","STREET":"府安路","SECT":"五段","MAREA":" ","LANE":"２２３巷","ALLEY":" ","HOUSE_NO":"３９號","E_COORD97":167476.32999999999,"N_COORD97":2547030.1299999999,"ADDRESS":"府安路五段２２３巷３９號","OBJECTID":246353},"geometry":{"x":167476.33000000007,"y":2547030.1300000008}},{"attributes":{"ID":246358,"DIS_CODE":0,"TOWNNAME":"安南區","LI":"安富里","LIN":"34鄰","STREET":"府安路","SECT":"五段","MAREA":" ","LANE":"２２３巷","ALLEY":" ","HOUSE_NO":"３號","E_COORD97":167495.84,"N_COORD97":2546926.0899999999,"ADDRESS":"府安路五段２２３巷３號","OBJECTID":246354},"geometry":{"x":167495.84000000078,"y":2546926.0900000017}},{"attributes":{"ID":246359,"DIS_CODE":0,"TOWNNAME":"安南區","LI":"安富里","LIN":"34鄰","STREET":"府安路","SECT":"五段","MAREA":" ","LANE":"２２３巷","ALLEY":" ","HOUSE_NO":"４０號","E_COORD97":167502.87,"N_COORD97":2547039.4100000001,"ADDRESS":"府安路五段２２３巷４０號","OBJECTID":246355},"geometry":{"x":167502.87000000104,"y":2547039.410000002}},{"attributes":{"ID":246360,"DIS_CODE":0,"TOWNNAME":"西港區","LI":"營西里","LIN":"11鄰","STREET":" ","SECT":" ","MAREA":"後營","LANE":" ","ALLEY":" ","HOUSE_NO":"８８號","E_COORD97":169675.76000000001,"N_COORD97":2560499.3900000001,"ADDRESS":"後營８８號","OBJECTID":246356},"geometry":{"x":169675.75999999978,"y":2560499.3900000043}},{"attributes":{"ID":246361,"DIS_CODE":0,"TOWNNAME":"西港區","LI":"金砂里","LIN":"11鄰","STREET":" ","SECT":" ","MAREA":"新寮","LANE":" ","ALLEY":" ","HOUSE_NO":"３１號之１","E_COORD97":168404.48000000001,"N_COORD97":2561897.5600000001,"ADDRESS":"新寮３１號之１","OBJECTID":246357},"geometry":{"x":168404.48000000138,"y":2561897.5600000005}},{"attributes":{"ID":246362,"DIS_CODE":0,"TOWNNAME":"西港區","LI":"金砂里","LIN":"11鄰","STREET":" ","SECT":" ","MAREA":"新寮","LANE":" ","ALLEY":" ","HOUSE_NO":"３１號","E_COORD97":168409.66,"N_COORD97":2561883.54,"ADDRESS":"新寮３１號","OBJECTID":246358},"geometry":{"x":168409.66000000108,"y":2561883.5400000028}},{"attributes":{"ID":246363,"DIS_CODE":0,"TOWNNAME":"西港區","LI":"金砂里","LIN":"11鄰","STREET":" ","SECT":" ","MAREA":"新寮","LANE":" ","ALLEY":" ","HOUSE_NO":"３２號","E_COORD97":168407.91,"N_COORD97":2561865.0600000001,"ADDRESS":"新寮３２號","OBJECTID":246359},"geometry":{"x":168407.91000000108,"y":2561865.0600000024}},{"attributes":{"ID":246364,"DIS_CODE":0,"TOWNNAME":"新市區","LI":"大營里","LIN":"18鄰","STREET":" ","SECT":" ","MAREA":"豐榮","LANE":" ","ALLEY":" ","HOUSE_NO":"２０號","E_COORD97":178918.48999999999,"N_COORD97":2554377,"ADDRESS":"豐榮２０號","OBJECTID":246360},"geometry":{"x":178918.49000000022,"y":2554377}},{"attributes":{"ID":246365,"DIS_CODE":0,"TOWNNAME":"西港區","LI":"金砂里","LIN":"11鄰","STREET":" ","SECT":" ","MAREA":"新寮","LANE":" ","ALLEY":" ","HOUSE_NO":"３３號","E_COORD97":168387.95000000001,"N_COORD97":2561856.8700000001,"ADDRESS":"新寮３３號","OBJECTID":246361},"geometry":{"x":168387.95000000019,"y":2561856.8700000029}},{"attributes":{"ID":246366,"DIS_CODE":0,"TOWNNAME":"西港區","LI":"金砂里","LIN":"11鄰","STREET":" ","SECT":" ","MAREA":"新寮","LANE":" ","ALLEY":" ","HOUSE_NO":"３４號之１","E_COORD97":168353.91,"N_COORD97":2561844.4900000002,"ADDRESS":"新寮３４號之１","OBJECTID":246362},"geometry":{"x":168353.91000000108,"y":2561844.4900000039}},{"attributes":{"ID":246367,"DIS_CODE":0,"TOWNNAME":"西港區","LI":"金砂里","LIN":"11鄰","STREET":" ","SECT":" ","MAREA":"新寮","LANE":" ","ALLEY":" ","HOUSE_NO":"３４號","E_COORD97":168372.59,"N_COORD97":2561824.0600000001,"ADDRESS":"新寮３４號","OBJECTID":246363},"geometry":{"x":168372.59000000078,"y":2561824.0600000042}},{"attributes":{"ID":246368,"DIS_CODE":0,"TOWNNAME":"西港區","LI":"金砂里","LIN":"11鄰","STREET":" ","SECT":" ","MAREA":"新寮","LANE":" ","ALLEY":" ","HOUSE_NO":"３７號","E_COORD97":168391.98000000001,"N_COORD97":2561820.8900000001,"ADDRESS":"新寮３７號","OBJECTID":246364},"geometry":{"x":168391.98000000231,"y":2561820.8900000006}},{"attributes":{"ID":246369,"DIS_CODE":0,"TOWNNAME":"安南區","LI":"安富里","LIN":"34鄰","STREET":"府安路","SECT":"五段","MAREA":" ","LANE":"２２３巷","ALLEY":" ","HOUSE_NO":"４１號","E_COORD97":167475.04999999999,"N_COORD97":2547034.6000000001,"ADDRESS":"府安路五段２２３巷４１號","OBJECTID":246365},"geometry":{"x":167475.04999999981,"y":2547034.6000000015}},{"attributes":{"ID":246370,"DIS_CODE":0,"TOWNNAME":"安南區","LI":"安富里","LIN":"34鄰","STREET":"府安路","SECT":"五段","MAREA":" ","LANE":"２２３巷","ALLEY":" ","HOUSE_NO":"４２號","E_COORD97":167502.54999999999,"N_COORD97":2547044.52,"ADDRESS":"府安路五段２２３巷４２號","OBJECTID":246366},"geometry":{"x":167502.55000000168,"y":2547044.5200000033}},{"attributes":{"ID":246371,"DIS_CODE":0,"TOWNNAME":"安南區","LI":"安富里","LIN":"34鄰","STREET":"府安路","SECT":"五段","MAREA":" ","LANE":"２２３巷","ALLEY":" ","HOUSE_NO":"４３號","E_COORD97":167474.73000000001,"N_COORD97":2547039.71,"ADDRESS":"府安路五段２２３巷４３號","OBJECTID":246367},"geometry":{"x":167474.72999999952,"y":2547039.7100000009}},{"attributes":{"ID":246372,"DIS_CODE":0,"TOWNNAME":"安南區","LI":"安富里","LIN":"34鄰","STREET":"府安路","SECT":"五段","MAREA":" ","LANE":"２２３巷","ALLEY":" ","HOUSE_NO":"４４號","E_COORD97":167500.95000000001,"N_COORD97":2547049.3100000001,"ADDRESS":"府安路五段２２３巷４４號","OBJECTID":246368},"geometry":{"x":167500.95000000112,"y":2547049.3100000005}},{"attributes":{"ID":246373,"DIS_CODE":0,"TOWNNAME":"安南區","LI":"安富里","LIN":"34鄰","STREET":"府安路","SECT":"五段","MAREA":" ","LANE":"２２３巷","ALLEY":" ","HOUSE_NO":"４５號","E_COORD97":167473.45000000001,"N_COORD97":2547043.54,"ADDRESS":"府安路五段２２３巷４５號","OBJECTID":246369},"geometry":{"x":167473.45000000112,"y":2547043.5399999991}},{"attributes":{"ID":246374,"DIS_CODE":0,"TOWNNAME":"永康區","LI":"西灣里","LIN":"11鄰","STREET":"大灣五街","SECT":" ","MAREA":" ","LANE":"９３巷","ALLEY":" ","HOUSE_NO":"１２號","E_COORD97":174587.45000000001,"N_COORD97":2545266.0600000001,"ADDRESS":"大灣五街９３巷１２號","OBJECTID":246370},"geometry":{"x":174587.45000000019,"y":2545266.0600000024}},{"attributes":{"ID":246375,"DIS_CODE":0,"TOWNNAME":"永康區","LI":"西勢里","LIN":"11鄰","STREET":"廣興街","SECT":" ","MAREA":" ","LANE":"６９巷","ALLEY":" ","HOUSE_NO":"１號","E_COORD97":175917.07999999999,"N_COORD97":2546600.7400000002,"ADDRESS":"廣興街６９巷１號","OBJECTID":246371},"geometry":{"x":175917.08000000007,"y":2546600.7400000021}},{"attributes":{"ID":246376,"DIS_CODE":0,"TOWNNAME":"永康區","LI":"西勢里","LIN":"11鄰","STREET":"廣興街","SECT":" ","MAREA":" ","LANE":"５３巷","ALLEY":" ","HOUSE_NO":"９號","E_COORD97":175869.98000000001,"N_COORD97":2546623.2200000002,"ADDRESS":"廣興街５３巷９號","OBJECTID":246372},"geometry":{"x":175869.98000000138,"y":2546623.2200000007}},{"attributes":{"ID":246377,"DIS_CODE":0,"TOWNNAME":"永康區","LI":"西灣里","LIN":"11鄰","STREET":"大灣五街","SECT":" ","MAREA":" ","LANE":"９３巷","ALLEY":" ","HOUSE_NO":"２０號","E_COORD97":174576.42000000001,"N_COORD97":2545241.7400000002,"ADDRESS":"大灣五街９３巷２０號","OBJECTID":246373},"geometry":{"x":174576.42000000086,"y":2545241.7400000002}},{"attributes":{"ID":246378,"DIS_CODE":0,"TOWNNAME":"永康區","LI":"西灣里","LIN":"11鄰","STREET":"大灣五街","SECT":" ","MAREA":" ","LANE":"９３巷","ALLEY":" ","HOUSE_NO":"３６號","E_COORD97":174546.91,"N_COORD97":2545276.25,"ADDRESS":"大灣五街９３巷３６號","OBJECTID":246374},"geometry":{"x":174546.91000000015,"y":2545276.25}},{"attributes":{"ID":246379,"DIS_CODE":0,"TOWNNAME":"永康區","LI":"西勢里","LIN":"11鄰","STREET":"廣興街","SECT":" ","MAREA":" ","LANE":"６９巷","ALLEY":" ","HOUSE_NO":"１７號","E_COORD97":175916.89999999999,"N_COORD97":2546637.29,"ADDRESS":"廣興街６９巷１７號","OBJECTID":246375},"geometry":{"x":175916.90000000037,"y":2546637.2899999991}},{"attributes":{"ID":246380,"DIS_CODE":0,"TOWNNAME":"永康區","LI":"西勢里","LIN":"11鄰","STREET":"廣興街","SECT":" ","MAREA":" ","LANE":"５３巷","ALLEY":" ","HOUSE_NO":"５號","E_COORD97":175871.88,"N_COORD97":2546615.4700000002,"ADDRESS":"廣興街５３巷５號","OBJECTID":246376},"geometry":{"x":175871.88000000082,"y":2546615.4700000044}},{"attributes":{"ID":246381,"DIS_CODE":0,"TOWNNAME":"永康區","LI":"西灣里","LIN":"11鄰","STREET":"大灣五街","SECT":" ","MAREA":" ","LANE":"９３巷","ALLEY":" ","HOUSE_NO":"３８號","E_COORD97":174542.57000000001,"N_COORD97":2545257.6099999999,"ADDRESS":"大灣五街９３巷３８號","OBJECTID":246377},"geometry":{"x":174542.5700000003,"y":2545257.6100000013}},{"attributes":{"ID":246382,"DIS_CODE":0,"TOWNNAME":"永康區","LI":"西灣里","LIN":"11鄰","STREET":"大灣五街","SECT":" ","MAREA":" ","LANE":"９３巷","ALLEY":" ","HOUSE_NO":"２２號","E_COORD97":174567.45000000001,"N_COORD97":2545248.6000000001,"ADDRESS":"大灣五街９３巷２２號","OBJECTID":246378},"geometry":{"x":174567.45000000205,"y":2545248.6000000015}},{"attributes":{"ID":246383,"DIS_CODE":0,"TOWNNAME":"安南區","LI":"安富里","LIN":"34鄰","STREET":"府安路","SECT":"五段","MAREA":" ","LANE":"２２３巷","ALLEY":" ","HOUSE_NO":"４９號","E_COORD97":167472.17999999999,"N_COORD97":2547051.52,"ADDRESS":"府安路五段２２３巷４９號","OBJECTID":246379},"geometry":{"x":167472.1799999997,"y":2547051.5200000033}},{"attributes":{"ID":246384,"DIS_CODE":0,"TOWNNAME":"東區","LI":"路東里","LIN":"14鄰","STREET":"林森路","SECT":"一段","MAREA":" ","LANE":" ","ALLEY":" ","HOUSE_NO":"１３２號五樓之８","E_COORD97":169417.22,"N_COORD97":2542428.8700000001,"ADDRESS":"林森路一段１３２號五樓之８","OBJECTID":246380},"geometry":{"x":169417.22000000067,"y":2542428.870000001}},{"attributes":{"ID":246385,"DIS_CODE":0,"TOWNNAME":"東區","LI":"路東里","LIN":"14鄰","STREET":"林森路","SECT":"一段","MAREA":" ","LANE":" ","ALLEY":" ","HOUSE_NO":"１３２號五樓之９","E_COORD97":169417.22,"N_COORD97":2542428.8700000001,"ADDRESS":"林森路一段１３２號五樓之９","OBJECTID":246381},"geometry":{"x":169417.22000000067,"y":2542428.870000001}},{"attributes":{"ID":246386,"DIS_CODE":0,"TOWNNAME":"東區","LI":"崇成里","LIN":"14鄰","STREET":"崇明十六街","SECT":" ","MAREA":" ","LANE":" ","ALLEY":" ","HOUSE_NO":"８號","E_COORD97":170650.29000000001,"N_COORD97":2541282.1600000001,"ADDRESS":"崇明十六街８號","OBJECTID":246382},"geometry":{"x":170650.29000000004,"y":2541282.160000002}},{"attributes":{"ID":246387,"DIS_CODE":0,"TOWNNAME":"東區","LI":"路東里","LIN":"14鄰","STREET":"林森路","SECT":"一段","MAREA":" ","LANE":" ","ALLEY":" ","HOUSE_NO":"１３２號六樓之１０","E_COORD97":169417.22,"N_COORD97":2542428.8700000001,"ADDRESS":"林森路一段１３２號六樓之１０","OBJECTID":246383},"geometry":{"x":169417.22000000067,"y":2542428.870000001}},{"attributes":{"ID":246388,"DIS_CODE":0,"TOWNNAME":"東區","LI":"路東里","LIN":"14鄰","STREET":"林森路","SECT":"一段","MAREA":" ","LANE":" ","ALLEY":" ","HOUSE_NO":"１３２號六樓之５","E_COORD97":169417.22,"N_COORD97":2542428.8700000001,"ADDRESS":"林森路一段１３２號六樓之５","OBJECTID":246384},"geometry":{"x":169417.22000000067,"y":2542428.870000001}},{"attributes":{"ID":246389,"DIS_CODE":0,"TOWNNAME":"東區","LI":"路東里","LIN":"14鄰","STREET":"林森路","SECT":"一段","MAREA":" ","LANE":" ","ALLEY":" ","HOUSE_NO":"１３２號六樓之６","E_COORD97":169417.22,"N_COORD97":2542428.8700000001,"ADDRESS":"林森路一段１３２號六樓之６","OBJECTID":246385},"geometry":{"x":169417.22000000067,"y":2542428.870000001}},{"attributes":{"ID":246390,"DIS_CODE":0,"TOWNNAME":"東區","LI":"路東里","LIN":"14鄰","STREET":"林森路","SECT":"一段","MAREA":" ","LANE":" ","ALLEY":" ","HOUSE_NO":"１３２號六樓之７","E_COORD97":169417.22,"N_COORD97":2542428.8700000001,"ADDRESS":"林森路一段１３２號六樓之７","OBJECTID":246386},"geometry":{"x":169417.22000000067,"y":2542428.870000001}},{"attributes":{"ID":246391,"DIS_CODE":0,"TOWNNAME":"東區","LI":"路東里","LIN":"14鄰","STREET":"林森路","SECT":"一段","MAREA":" ","LANE":" ","ALLEY":" ","HOUSE_NO":"１３２號六樓之８","E_COORD97":169417.22,"N_COORD97":2542428.8700000001,"ADDRESS":"林森路一段１３２號六樓之８","OBJECTID":246387},"geometry":{"x":169417.22000000067,"y":2542428.870000001}},{"attributes":{"ID":246392,"DIS_CODE":0,"TOWNNAME":"永康區","LI":"西灣里","LIN":"11鄰","STREET":"大灣五街","SECT":" ","MAREA":" ","LANE":"９３巷","ALLEY":" ","HOUSE_NO":"３２號","E_COORD97":174555.32000000001,"N_COORD97":2545273.25,"ADDRESS":"大灣五街９３巷３２號","OBJECTID":246388},"geometry":{"x":174555.32000000123,"y":2545273.25}},{"attributes":{"ID":246393,"DIS_CODE":0,"TOWNNAME":"永康區","LI":"西灣里","LIN":"11鄰","STREET":"大灣五街","SECT":" ","MAREA":" ","LANE":"９３巷","ALLEY":" ","HOUSE_NO":"４０號","E_COORD97":174538.35000000001,"N_COORD97":2545258.8599999999,"ADDRESS":"大灣五街９３巷４０號","OBJECTID":246389},"geometry":{"x":174538.34999999963,"y":2545258.8600000031}},{"attributes":{"ID":246394,"DIS_CODE":0,"TOWNNAME":"永康區","LI":"西勢里","LIN":"11鄰","STREET":"廣興街","SECT":" ","MAREA":" ","LANE":"６９巷","ALLEY":" ","HOUSE_NO":"５號","E_COORD97":175916.51999999999,"N_COORD97":2546608.4900000002,"ADDRESS":"廣興街６９巷５號","OBJECTID":246390},"geometry":{"x":175916.51999999955,"y":2546608.4900000021}},{"attributes":{"ID":246395,"DIS_CODE":0,"TOWNNAME":"安南區","LI":"安富里","LIN":"34鄰","STREET":"府安路","SECT":"五段","MAREA":" ","LANE":"２２３巷","ALLEY":" ","HOUSE_NO":"５０號","E_COORD97":167498.39999999999,"N_COORD97":2547061.79,"ADDRESS":"府安路五段２２３巷５０號","OBJECTID":246391},"geometry":{"x":167498.40000000037,"y":2547061.7899999991}},{"attributes":{"ID":246396,"DIS_CODE":0,"TOWNNAME":"安南區","LI":"安富里","LIN":"34鄰","STREET":"府安路","SECT":"五段","MAREA":" ","LANE":"２２３巷","ALLEY":" ","HOUSE_NO":"５１號","E_COORD97":167470.89999999999,"N_COORD97":2547057.5899999999,"ADDRESS":"府安路五段２２３巷５１號","OBJECTID":246392},"geometry":{"x":167470.9000000013,"y":2547057.5899999999}},{"attributes":{"ID":246397,"DIS_CODE":0,"TOWNNAME":"佳里區","LI":"安西里","LIN":"34鄰","STREET":"安西路","SECT":" ","MAREA":" ","LANE":"２０１巷","ALLEY":" ","HOUSE_NO":"３號","E_COORD97":165098.07999999999,"N_COORD97":2562679.8900000001,"ADDRESS":"安西路２０１巷３號","OBJECTID":246393},"geometry":{"x":165098.08000000007,"y":2562679.8900000025}},{"attributes":{"ID":246398,"DIS_CODE":0,"TOWNNAME":"安南區","LI":"安富里","LIN":"34鄰","STREET":"府安路","SECT":"五段","MAREA":" ","LANE":"２２３巷","ALLEY":" ","HOUSE_NO":"５２號","E_COORD97":167497.76000000001,"N_COORD97":2547065.9399999999,"ADDRESS":"府安路五段２２３巷５２號","OBJECTID":246394},"geometry":{"x":167497.76000000164,"y":2547065.9400000013}},{"attributes":{"ID":246399,"DIS_CODE":0,"TOWNNAME":"安南區","LI":"安富里","LIN":"34鄰","STREET":"府安路","SECT":"五段","MAREA":" ","LANE":"２２３巷","ALLEY":" ","HOUSE_NO":"５３號","E_COORD97":167470.57999999999,"N_COORD97":2547062.7000000002,"ADDRESS":"府安路五段２２３巷５３號","OBJECTID":246395},"geometry":{"x":167470.58000000101,"y":2547062.6999999993}},{"attributes":{"ID":246400,"DIS_CODE":0,"TOWNNAME":"安南區","LI":"安富里","LIN":"34鄰","STREET":"府安路","SECT":"五段","MAREA":" ","LANE":"２２３巷","ALLEY":" ","HOUSE_NO":"５４號","E_COORD97":167497.12,"N_COORD97":2547072.0099999998,"ADDRESS":"府安路五段２２３巷５４號","OBJECTID":246396},"geometry":{"x":167497.11999999918,"y":2547072.0100000035}},{"attributes":{"ID":246401,"DIS_CODE":0,"TOWNNAME":"安南區","LI":"安富里","LIN":"34鄰","STREET":"府安路","SECT":"五段","MAREA":" ","LANE":"２２３巷","ALLEY":" ","HOUSE_NO":"５５號","E_COORD97":167470.57999999999,"N_COORD97":2547066.5299999998,"ADDRESS":"府安路五段２２３巷５５號","OBJECTID":246397},"geometry":{"x":167470.58000000101,"y":2547066.5299999993}},{"attributes":{"ID":246402,"DIS_CODE":0,"TOWNNAME":"安南區","LI":"安富里","LIN":"34鄰","STREET":"府安路","SECT":"五段","MAREA":" ","LANE":"２２３巷","ALLEY":" ","HOUSE_NO":"５６號","E_COORD97":167496.16,"N_COORD97":2547076.1600000001,"ADDRESS":"府安路五段２２３巷５６號","OBJECTID":246398},"geometry":{"x":167496.16000000015,"y":2547076.160000002}},{"attributes":{"ID":246403,"DIS_CODE":0,"TOWNNAME":"安南區","LI":"安富里","LIN":"34鄰","STREET":"府安路","SECT":"五段","MAREA":" ","LANE":"２２３巷","ALLEY":" ","HOUSE_NO":"５７號","E_COORD97":167469.62,"N_COORD97":2547070.6800000002,"ADDRESS":"府安路五段２２３巷５７號","OBJECTID":246399},"geometry":{"x":167469.62000000011,"y":2547070.6800000034}},{"attributes":{"ID":246404,"DIS_CODE":0,"TOWNNAME":"安南區","LI":"安富里","LIN":"34鄰","STREET":"府安路","SECT":"五段","MAREA":" ","LANE":"２２３巷","ALLEY":" ","HOUSE_NO":"５８號","E_COORD97":167495.20000000001,"N_COORD97":2547080.3100000001,"ADDRESS":"府安路五段２２３巷５８號","OBJECTID":246400},"geometry":{"x":167495.20000000205,"y":2547080.3100000005}}]}