{"displayFieldName":"TOWNNAME","fieldAliases":{"ID":"ID","DIS_CODE":"DIS_CODE","TOWNNAME":"TOWNNAME","LI":"LI","LIN":"LIN","STREET":"STREET","SECT":"SECT","MAREA":"MAREA","LANE":"LANE","ALLEY":"ALLEY","HOUSE_NO":"HOUSE_NO","E_COORD97":"E_COORD97","N_COORD97":"N_COORD97","ADDRESS":"ADDRESS","OBJECTID":"OBJECTID"},"geometryType":"esriGeometryPoint","spatialReference":{"wkid":102443,"latestWkid":3826},"fields":[{"name":"ID","type":"esriFieldTypeDouble","alias":"ID"},{"name":"DIS_CODE","type":"esriFieldTypeInteger","alias":"DIS_CODE"},{"name":"TOWNNAME","type":"esriFieldTypeString","alias":"TOWNNAME","length":8},{"name":"LI","type":"esriFieldTypeString","alias":"LI","length":8},{"name":"LIN","type":"esriFieldTypeString","alias":"LIN","length":12},{"name":"STREET","type":"esriFieldTypeString","alias":"STREET","length":20},{"name":"SECT","type":"esriFieldTypeString","alias":"SECT","length":8},{"name":"MAREA","type":"esriFieldTypeString","alias":"MAREA","length":12},{"name":"LANE","type":"esriFieldTypeString","alias":"LANE","length":10},{"name":"ALLEY","type":"esriFieldTypeString","alias":"ALLEY","length":10},{"name":"HOUSE_NO","type":"esriFieldTypeString","alias":"HOUSE_NO","length":20},{"name":"E_COORD97","type":"esriFieldTypeDouble","alias":"E_COORD97"},{"name":"N_COORD97","type":"esriFieldTypeDouble","alias":"N_COORD97"},{"name":"ADDRESS","type":"esriFieldTypeString","alias":"ADDRESS","length":50},{"name":"OBJECTID","type":"esriFieldTypeOID","alias":"OBJECTID"}],"features":[{"attributes":{"ID":148202,"DIS_CODE":0,"TOWNNAME":"南區","LI":"文南里","LIN":"3鄰","STREET":"金華路","SECT":"二段","MAREA":" ","LANE":"２８９巷","ALLEY":"５弄","HOUSE_NO":"４１號","E_COORD97":167075.29000000001,"N_COORD97":2542675.4500000002,"ADDRESS":"金華路二段２８９巷５弄４１號","OBJECTID":148201},"geometry":{"x":167075.29000000004,"y":2542675.4500000011}},{"attributes":{"ID":148203,"DIS_CODE":0,"TOWNNAME":"官田區","LI":"東庄里","LIN":"4鄰","STREET":" ","SECT":" ","MAREA":"西庄","LANE":" ","ALLEY":" ","HOUSE_NO":"１３５號","E_COORD97":177983.04000000001,"N_COORD97":2565239.9199999999,"ADDRESS":"西庄１３５號","OBJECTID":148202},"geometry":{"x":177983.04000000097,"y":2565239.9200000018}},{"attributes":{"ID":148204,"DIS_CODE":0,"TOWNNAME":"官田區","LI":"東庄里","LIN":"4鄰","STREET":" ","SECT":" ","MAREA":"西庄","LANE":" ","ALLEY":" ","HOUSE_NO":"１３６號之１","E_COORD97":177995.35999999999,"N_COORD97":2565225.1699999999,"ADDRESS":"西庄１３６號之１","OBJECTID":148203},"geometry":{"x":177995.36000000034,"y":2565225.1699999999}},{"attributes":{"ID":148205,"DIS_CODE":0,"TOWNNAME":"官田區","LI":"東庄里","LIN":"4鄰","STREET":" ","SECT":" ","MAREA":"西庄","LANE":" ","ALLEY":" ","HOUSE_NO":"１３６號","E_COORD97":178000.10000000001,"N_COORD97":2565241.6200000001,"ADDRESS":"西庄１３６號","OBJECTID":148204},"geometry":{"x":178000.09999999963,"y":2565241.6200000048}},{"attributes":{"ID":148206,"DIS_CODE":0,"TOWNNAME":"南區","LI":"興農里","LIN":"3鄰","STREET":"灣裡路","SECT":" ","MAREA":" ","LANE":"２６３巷","ALLEY":"３４弄","HOUSE_NO":"１５之３號","E_COORD97":166289.87,"N_COORD97":2536361.9900000002,"ADDRESS":"灣裡路２６３巷３４弄１５之３號","OBJECTID":148205},"geometry":{"x":166289.87000000011,"y":2536361.9900000002}},{"attributes":{"ID":148207,"DIS_CODE":0,"TOWNNAME":"仁德區","LI":"大甲里","LIN":"19鄰","STREET":"行大街","SECT":" ","MAREA":" ","LANE":" ","ALLEY":" ","HOUSE_NO":"５００號","E_COORD97":169252.32000000001,"N_COORD97":2535398.9900000002,"ADDRESS":"行大街５００號","OBJECTID":148206},"geometry":{"x":169252.32000000216,"y":2535398.9900000002}},{"attributes":{"ID":148208,"DIS_CODE":0,"TOWNNAME":"官田區","LI":"西庄里","LIN":"12鄰","STREET":" ","SECT":" ","MAREA":"西庄","LANE":" ","ALLEY":" ","HOUSE_NO":"８６號","E_COORD97":177996.17000000001,"N_COORD97":2565100.6699999999,"ADDRESS":"西庄８６號","OBJECTID":148207},"geometry":{"x":177996.16999999993,"y":2565100.6699999999}},{"attributes":{"ID":148209,"DIS_CODE":0,"TOWNNAME":"官田區","LI":"西庄里","LIN":"12鄰","STREET":" ","SECT":" ","MAREA":"西庄","LANE":" ","ALLEY":" ","HOUSE_NO":"８７號之１","E_COORD97":178002.59,"N_COORD97":2565118.3599999999,"ADDRESS":"西庄８７號之１","OBJECTID":148208},"geometry":{"x":178002.59000000078,"y":2565118.3599999994}},{"attributes":{"ID":148210,"DIS_CODE":0,"TOWNNAME":"官田區","LI":"西庄里","LIN":"12鄰","STREET":" ","SECT":" ","MAREA":"西庄","LANE":" ","ALLEY":" ","HOUSE_NO":"８７號","E_COORD97":178002.57999999999,"N_COORD97":2565114.3900000001,"ADDRESS":"西庄８７號","OBJECTID":148209},"geometry":{"x":178002.58000000194,"y":2565114.3900000025}},{"attributes":{"ID":148211,"DIS_CODE":0,"TOWNNAME":"官田區","LI":"官田里","LIN":"19鄰","STREET":" ","SECT":" ","MAREA":"官田","LANE":" ","ALLEY":" ","HOUSE_NO":"２５１號","E_COORD97":182300.12,"N_COORD97":2564496.75,"ADDRESS":"官田２５１號","OBJECTID":148210},"geometry":{"x":182300.12000000104,"y":2564496.75}},{"attributes":{"ID":148212,"DIS_CODE":0,"TOWNNAME":"官田區","LI":"官田里","LIN":"19鄰","STREET":" ","SECT":" ","MAREA":"官田","LANE":" ","ALLEY":" ","HOUSE_NO":"２５２號","E_COORD97":182240.60999999999,"N_COORD97":2564480.4500000002,"ADDRESS":"官田２５２號","OBJECTID":148211},"geometry":{"x":182240.6100000022,"y":2564480.4499999993}},{"attributes":{"ID":148213,"DIS_CODE":0,"TOWNNAME":"官田區","LI":"官田里","LIN":"19鄰","STREET":" ","SECT":" ","MAREA":"官田","LANE":" ","ALLEY":" ","HOUSE_NO":"２５４號","E_COORD97":182205.72,"N_COORD97":2564426.1200000001,"ADDRESS":"官田２５４號","OBJECTID":148212},"geometry":{"x":182205.72000000067,"y":2564426.1200000029}},{"attributes":{"ID":148214,"DIS_CODE":0,"TOWNNAME":"南區","LI":"大林里","LIN":"3鄰","STREET":"大同路","SECT":"二段","MAREA":" ","LANE":"４８２巷","ALLEY":"１０弄","HOUSE_NO":"１０號","E_COORD97":169427.37,"N_COORD97":2541518.1200000001,"ADDRESS":"大同路二段４８２巷１０弄１０號","OBJECTID":148213},"geometry":{"x":169427.37000000011,"y":2541518.120000001}},{"attributes":{"ID":148215,"DIS_CODE":0,"TOWNNAME":"南區","LI":"大林里","LIN":"3鄰","STREET":"大同路","SECT":"二段","MAREA":" ","LANE":"４８２巷","ALLEY":"１０弄","HOUSE_NO":"６號","E_COORD97":169429.42999999999,"N_COORD97":2541504.7799999998,"ADDRESS":"大同路二段４８２巷１０弄６號","OBJECTID":148214},"geometry":{"x":169429.43000000063,"y":2541504.7799999993}},{"attributes":{"ID":148216,"DIS_CODE":0,"TOWNNAME":"善化區","LI":"坐駕里","LIN":"19鄰","STREET":" ","SECT":" ","MAREA":"坐駕","LANE":" ","ALLEY":" ","HOUSE_NO":"２號之６","E_COORD97":178320.56,"N_COORD97":2558504.52,"ADDRESS":"坐駕２號之６","OBJECTID":148215},"geometry":{"x":178320.55999999959,"y":2558504.5200000014}},{"attributes":{"ID":148217,"DIS_CODE":0,"TOWNNAME":"善化區","LI":"坐駕里","LIN":"19鄰","STREET":" ","SECT":" ","MAREA":"坐駕","LANE":" ","ALLEY":" ","HOUSE_NO":"６之８號","E_COORD97":178378.48999999999,"N_COORD97":2558371.27,"ADDRESS":"坐駕６之８號","OBJECTID":148216},"geometry":{"x":178378.49000000115,"y":2558371.2700000014}},{"attributes":{"ID":148218,"DIS_CODE":0,"TOWNNAME":"善化區","LI":"坐駕里","LIN":"19鄰","STREET":" ","SECT":" ","MAREA":"坐駕","LANE":" ","ALLEY":" ","HOUSE_NO":"２號之１０","E_COORD97":178325.17999999999,"N_COORD97":2558540.77,"ADDRESS":"坐駕２號之１０","OBJECTID":148217},"geometry":{"x":178325.17999999877,"y":2558540.7700000014}},{"attributes":{"ID":148219,"DIS_CODE":0,"TOWNNAME":"善化區","LI":"坐駕里","LIN":"19鄰","STREET":" ","SECT":" ","MAREA":"坐駕","LANE":" ","ALLEY":" ","HOUSE_NO":"４１號","E_COORD97":178587.85999999999,"N_COORD97":2558524,"ADDRESS":"坐駕４１號","OBJECTID":148218},"geometry":{"x":178587.86000000127,"y":2558524}},{"attributes":{"ID":148220,"DIS_CODE":0,"TOWNNAME":"善化區","LI":"坐駕里","LIN":"19鄰","STREET":" ","SECT":" ","MAREA":"坐駕","LANE":" ","ALLEY":" ","HOUSE_NO":"４０號","E_COORD97":178590.10000000001,"N_COORD97":2558457.75,"ADDRESS":"坐駕４０號","OBJECTID":148219},"geometry":{"x":178590.0999999987,"y":2558457.75}},{"attributes":{"ID":148221,"DIS_CODE":0,"TOWNNAME":"善化區","LI":"坐駕里","LIN":"19鄰","STREET":" ","SECT":" ","MAREA":"坐駕","LANE":" ","ALLEY":" ","HOUSE_NO":"２號之５","E_COORD97":178315.60000000001,"N_COORD97":2558511.52,"ADDRESS":"坐駕２號之５","OBJECTID":148220},"geometry":{"x":178315.60000000149,"y":2558511.5200000014}},{"attributes":{"ID":148222,"DIS_CODE":0,"TOWNNAME":"善化區","LI":"胡厝里","LIN":"19鄰","STREET":" ","SECT":" ","MAREA":"西衛","LANE":" ","ALLEY":" ","HOUSE_NO":"２３號之７","E_COORD97":174335.57000000001,"N_COORD97":2559354.77,"ADDRESS":"西衛２３號之７","OBJECTID":148221},"geometry":{"x":174335.5700000003,"y":2559354.7700000014}},{"attributes":{"ID":148223,"DIS_CODE":0,"TOWNNAME":"善化區","LI":"胡家里","LIN":"19鄰","STREET":" ","SECT":" ","MAREA":"胡厝寮","LANE":" ","ALLEY":" ","HOUSE_NO":"１１２號","E_COORD97":175265.44,"N_COORD97":2560601.5,"ADDRESS":"胡厝寮１１２號","OBJECTID":148222},"geometry":{"x":175265.44000000041,"y":2560601.5000000019}},{"attributes":{"ID":148224,"DIS_CODE":0,"TOWNNAME":"善化區","LI":"坐駕里","LIN":"19鄰","STREET":" ","SECT":" ","MAREA":"坐駕","LANE":" ","ALLEY":" ","HOUSE_NO":"６之４號","E_COORD97":178367.51000000001,"N_COORD97":2558336.27,"ADDRESS":"坐駕６之４號","OBJECTID":148223},"geometry":{"x":178367.51000000071,"y":2558336.2700000033}},{"attributes":{"ID":148225,"DIS_CODE":0,"TOWNNAME":"善化區","LI":"坐駕里","LIN":"19鄰","STREET":" ","SECT":" ","MAREA":"坐駕","LANE":" ","ALLEY":" ","HOUSE_NO":"５３之１號","E_COORD97":178485.95999999999,"N_COORD97":2558563.27,"ADDRESS":"坐駕５３之１號","OBJECTID":148224},"geometry":{"x":178485.95999999996,"y":2558563.2700000033}},{"attributes":{"ID":148226,"DIS_CODE":0,"TOWNNAME":"善化區","LI":"胡厝里","LIN":"19鄰","STREET":" ","SECT":" ","MAREA":"西衛","LANE":" ","ALLEY":" ","HOUSE_NO":"２３之１５號","E_COORD97":174343.89000000001,"N_COORD97":2559379.27,"ADDRESS":"西衛２３之１５號","OBJECTID":148225},"geometry":{"x":174343.8900000006,"y":2559379.2699999996}},{"attributes":{"ID":148227,"DIS_CODE":0,"TOWNNAME":"善化區","LI":"坐駕里","LIN":"19鄰","STREET":" ","SECT":" ","MAREA":"坐駕","LANE":" ","ALLEY":" ","HOUSE_NO":"３８之１號","E_COORD97":178600.64999999999,"N_COORD97":2558512.02,"ADDRESS":"坐駕３８之１號","OBJECTID":148226},"geometry":{"x":178600.65000000037,"y":2558512.0200000014}},{"attributes":{"ID":148228,"DIS_CODE":0,"TOWNNAME":"善化區","LI":"坐駕里","LIN":"19鄰","STREET":" ","SECT":" ","MAREA":"坐駕","LANE":" ","ALLEY":" ","HOUSE_NO":"３８之２號","E_COORD97":178604.85000000001,"N_COORD97":2558512.02,"ADDRESS":"坐駕３８之２號","OBJECTID":148227},"geometry":{"x":178604.84999999963,"y":2558512.0200000014}},{"attributes":{"ID":148229,"DIS_CODE":0,"TOWNNAME":"善化區","LI":"坐駕里","LIN":"19鄰","STREET":" ","SECT":" ","MAREA":"坐駕","LANE":" ","ALLEY":" ","HOUSE_NO":"１號之２","E_COORD97":178308.87,"N_COORD97":2558452.02,"ADDRESS":"坐駕１號之２","OBJECTID":148228},"geometry":{"x":178308.87000000011,"y":2558452.0199999996}},{"attributes":{"ID":148230,"DIS_CODE":0,"TOWNNAME":"善化區","LI":"胡厝里","LIN":"19鄰","STREET":" ","SECT":" ","MAREA":"西衛","LANE":" ","ALLEY":" ","HOUSE_NO":"２４號之３","E_COORD97":174250.92000000001,"N_COORD97":2559337.02,"ADDRESS":"西衛２４號之３","OBJECTID":148229},"geometry":{"x":174250.92000000086,"y":2559337.0199999996}},{"attributes":{"ID":148231,"DIS_CODE":0,"TOWNNAME":"官田區","LI":"官田里","LIN":"19鄰","STREET":" ","SECT":" ","MAREA":"官田","LANE":" ","ALLEY":" ","HOUSE_NO":"２５６號","E_COORD97":182208.97,"N_COORD97":2564413.6600000001,"ADDRESS":"官田２５６號","OBJECTID":148230},"geometry":{"x":182208.97000000067,"y":2564413.660000002}},{"attributes":{"ID":148232,"DIS_CODE":0,"TOWNNAME":"官田區","LI":"官田里","LIN":"19鄰","STREET":" ","SECT":" ","MAREA":"官田","LANE":" ","ALLEY":" ","HOUSE_NO":"２５９號之５","E_COORD97":182159.14000000001,"N_COORD97":2564355.1000000001,"ADDRESS":"官田２５９號之５","OBJECTID":148231},"geometry":{"x":182159.1400000006,"y":2564355.0999999978}},{"attributes":{"ID":148233,"DIS_CODE":0,"TOWNNAME":"官田區","LI":"官田里","LIN":"19鄰","STREET":" ","SECT":" ","MAREA":"官田","LANE":" ","ALLEY":" ","HOUSE_NO":"２５９號","E_COORD97":182144.98000000001,"N_COORD97":2564404.46,"ADDRESS":"官田２５９號","OBJECTID":148232},"geometry":{"x":182144.98000000231,"y":2564404.4600000009}},{"attributes":{"ID":148234,"DIS_CODE":0,"TOWNNAME":"官田區","LI":"官田里","LIN":"19鄰","STREET":" ","SECT":" ","MAREA":"官田","LANE":" ","ALLEY":" ","HOUSE_NO":"２６６號","E_COORD97":181167.47,"N_COORD97":2564609.0699999998,"ADDRESS":"官田２６６號","OBJECTID":148233},"geometry":{"x":181167.46999999974,"y":2564609.0700000003}},{"attributes":{"ID":148235,"DIS_CODE":0,"TOWNNAME":"善化區","LI":"東關里","LIN":"19鄰","STREET":"中山路","SECT":" ","MAREA":" ","LANE":" ","ALLEY":" ","HOUSE_NO":"３７５號","E_COORD97":177487.12,"N_COORD97":2559092,"ADDRESS":"中山路３７５號","OBJECTID":148234},"geometry":{"x":177487.12000000197,"y":2559092.0000000019}},{"attributes":{"ID":148236,"DIS_CODE":0,"TOWNNAME":"善化區","LI":"東關里","LIN":"19鄰","STREET":"中山路","SECT":" ","MAREA":" ","LANE":" ","ALLEY":" ","HOUSE_NO":"３７７號","E_COORD97":177450.5,"N_COORD97":2559097,"ADDRESS":"中山路３７７號","OBJECTID":148235},"geometry":{"x":177450.50000000186,"y":2559097}},{"attributes":{"ID":148237,"DIS_CODE":0,"TOWNNAME":"永康區","LI":"網寮里","LIN":"19鄰","STREET":"永大一路","SECT":" ","MAREA":" ","LANE":" ","ALLEY":" ","HOUSE_NO":"３６６號","E_COORD97":173529.85000000001,"N_COORD97":2546207.71,"ADDRESS":"永大一路３６６號","OBJECTID":148236},"geometry":{"x":173529.84999999963,"y":2546207.7100000028}},{"attributes":{"ID":148238,"DIS_CODE":0,"TOWNNAME":"南區","LI":"大林里","LIN":"3鄰","STREET":"大同路","SECT":"二段","MAREA":" ","LANE":"４８２巷","ALLEY":"１０弄","HOUSE_NO":"２８號","E_COORD97":169421.17999999999,"N_COORD97":2541548.04,"ADDRESS":"大同路二段４８２巷１０弄２８號","OBJECTID":148237},"geometry":{"x":169421.18000000063,"y":2541548.0400000028}},{"attributes":{"ID":148239,"DIS_CODE":0,"TOWNNAME":"南區","LI":"大林里","LIN":"3鄰","STREET":"大同路","SECT":"二段","MAREA":" ","LANE":"４８２巷","ALLEY":"１０弄","HOUSE_NO":"２６號","E_COORD97":169422.45000000001,"N_COORD97":2541543.9100000001,"ADDRESS":"大同路二段４８２巷１０弄２６號","OBJECTID":148238},"geometry":{"x":169422.45000000205,"y":2541543.910000002}},{"attributes":{"ID":148240,"DIS_CODE":0,"TOWNNAME":"永康區","LI":"網寮里","LIN":"19鄰","STREET":"永大一路","SECT":" ","MAREA":" ","LANE":" ","ALLEY":" ","HOUSE_NO":"３９０號","E_COORD97":173493.04999999999,"N_COORD97":2546154.1200000001,"ADDRESS":"永大一路３９０號","OBJECTID":148239},"geometry":{"x":173493.04999999981,"y":2546154.1200000029}},{"attributes":{"ID":148241,"DIS_CODE":0,"TOWNNAME":"永康區","LI":"網寮里","LIN":"19鄰","STREET":"文化路","SECT":" ","MAREA":" ","LANE":" ","ALLEY":" ","HOUSE_NO":"３３６號","E_COORD97":173411.85000000001,"N_COORD97":2546182.8399999999,"ADDRESS":"文化路３３６號","OBJECTID":148240},"geometry":{"x":173411.85000000056,"y":2546182.8400000017}},{"attributes":{"ID":148242,"DIS_CODE":0,"TOWNNAME":"南區","LI":"大林里","LIN":"3鄰","STREET":"大同路","SECT":"二段","MAREA":" ","LANE":"４８２巷","ALLEY":"１０弄","HOUSE_NO":"１８號","E_COORD97":169424.67000000001,"N_COORD97":2541531.0600000001,"ADDRESS":"大同路二段４８２巷１０弄１８號","OBJECTID":148241},"geometry":{"x":169424.67000000086,"y":2541531.0600000005}},{"attributes":{"ID":148243,"DIS_CODE":0,"TOWNNAME":"善化區","LI":"胡厝里","LIN":"19鄰","STREET":" ","SECT":" ","MAREA":"西衛","LANE":" ","ALLEY":" ","HOUSE_NO":"３０之１２號","E_COORD97":174189.31,"N_COORD97":2559224.77,"ADDRESS":"西衛３０之１２號","OBJECTID":148242},"geometry":{"x":174189.30999999959,"y":2559224.7700000014}},{"attributes":{"ID":148244,"DIS_CODE":0,"TOWNNAME":"永康區","LI":"網寮里","LIN":"19鄰","STREET":"文化路","SECT":" ","MAREA":" ","LANE":" ","ALLEY":" ","HOUSE_NO":"３５０號","E_COORD97":173368.23999999999,"N_COORD97":2546215.2999999998,"ADDRESS":"文化路３５０號","OBJECTID":148243},"geometry":{"x":173368.24000000022,"y":2546215.3000000007}},{"attributes":{"ID":148245,"DIS_CODE":0,"TOWNNAME":"永康區","LI":"復國里","LIN":"19鄰","STREET":"復國一路","SECT":" ","MAREA":" ","LANE":" ","ALLEY":" ","HOUSE_NO":"３６０號之１","E_COORD97":172775,"N_COORD97":2545747.4199999999,"ADDRESS":"復國一路３６０號之１","OBJECTID":148244},"geometry":{"x":172775.00000000186,"y":2545747.4200000018}},{"attributes":{"ID":148246,"DIS_CODE":0,"TOWNNAME":"南區","LI":"大林里","LIN":"3鄰","STREET":"大同路","SECT":"二段","MAREA":" ","LANE":"４８２巷","ALLEY":"１０弄","HOUSE_NO":"１２號","E_COORD97":169426.26000000001,"N_COORD97":2541523.1200000001,"ADDRESS":"大同路二段４８２巷１０弄１２號","OBJECTID":148245},"geometry":{"x":169426.25999999978,"y":2541523.1200000029}},{"attributes":{"ID":148247,"DIS_CODE":0,"TOWNNAME":"永康區","LI":"網寮里","LIN":"19鄰","STREET":"永大一路","SECT":" ","MAREA":" ","LANE":" ","ALLEY":" ","HOUSE_NO":"３８６號","E_COORD97":173498.31,"N_COORD97":2546162.3700000001,"ADDRESS":"永大一路３８６號","OBJECTID":148246},"geometry":{"x":173498.31000000052,"y":2546162.3700000048}},{"attributes":{"ID":148248,"DIS_CODE":0,"TOWNNAME":"永康區","LI":"網寮里","LIN":"19鄰","STREET":"文化路","SECT":" ","MAREA":" ","LANE":" ","ALLEY":" ","HOUSE_NO":"３２８號","E_COORD97":173422.48000000001,"N_COORD97":2546191.02,"ADDRESS":"文化路３２８號","OBJECTID":148247},"geometry":{"x":173422.48000000045,"y":2546191.0200000014}},{"attributes":{"ID":148249,"DIS_CODE":0,"TOWNNAME":"南區","LI":"大林里","LIN":"3鄰","STREET":"大同路","SECT":"二段","MAREA":" ","LANE":"４８２巷","ALLEY":"１０弄","HOUSE_NO":"１６號","E_COORD97":169425.14000000001,"N_COORD97":2541527.3999999999,"ADDRESS":"大同路二段４８２巷１０弄１６號","OBJECTID":148248},"geometry":{"x":169425.13999999966,"y":2541527.4000000022}},{"attributes":{"ID":148250,"DIS_CODE":0,"TOWNNAME":"南區","LI":"大林里","LIN":"3鄰","STREET":"大同路","SECT":"二段","MAREA":" ","LANE":"４８２巷","ALLEY":"１０弄","HOUSE_NO":"２０號","E_COORD97":169423.87,"N_COORD97":2541536.29,"ADDRESS":"大同路二段４８２巷１０弄２０號","OBJECTID":148249},"geometry":{"x":169423.87000000011,"y":2541536.2900000028}},{"attributes":{"ID":148251,"DIS_CODE":0,"TOWNNAME":"南區","LI":"大林里","LIN":"3鄰","STREET":"大同路","SECT":"二段","MAREA":" ","LANE":"４８２巷","ALLEY":"１０弄","HOUSE_NO":"２２號","E_COORD97":169423.07999999999,"N_COORD97":2541541.0600000001,"ADDRESS":"大同路二段４８２巷１０弄２２號","OBJECTID":148250},"geometry":{"x":169423.07999999914,"y":2541541.0600000005}},{"attributes":{"ID":148252,"DIS_CODE":0,"TOWNNAME":"善化區","LI":"胡厝里","LIN":"19鄰","STREET":" ","SECT":" ","MAREA":"西衛","LANE":" ","ALLEY":" ","HOUSE_NO":"２２號之１","E_COORD97":174282.92000000001,"N_COORD97":2559325.02,"ADDRESS":"西衛２２號之１","OBJECTID":148251},"geometry":{"x":174282.92000000086,"y":2559325.0200000014}},{"attributes":{"ID":148253,"DIS_CODE":0,"TOWNNAME":"南區","LI":"大林里","LIN":"3鄰","STREET":"大同路","SECT":"二段","MAREA":" ","LANE":"４８２巷","ALLEY":"１０弄","HOUSE_NO":"８號","E_COORD97":169428.32000000001,"N_COORD97":2541512.3199999998,"ADDRESS":"大同路二段４８２巷１０弄８號","OBJECTID":148252},"geometry":{"x":169428.3200000003,"y":2541512.3200000003}},{"attributes":{"ID":148254,"DIS_CODE":0,"TOWNNAME":"麻豆區","LI":"海埔里","LIN":"8鄰","STREET":" ","SECT":" ","MAREA":"海埔","LANE":" ","ALLEY":" ","HOUSE_NO":"３７號","E_COORD97":169568.38,"N_COORD97":2566854.04,"ADDRESS":"海埔３７號","OBJECTID":148253},"geometry":{"x":169568.37999999896,"y":2566854.0400000028}},{"attributes":{"ID":148255,"DIS_CODE":0,"TOWNNAME":"永康區","LI":"復國里","LIN":"19鄰","STREET":"復國一路","SECT":" ","MAREA":" ","LANE":" ","ALLEY":" ","HOUSE_NO":"３６０號之３","E_COORD97":172775.75,"N_COORD97":2545757.4199999999,"ADDRESS":"復國一路３６０號之３","OBJECTID":148254},"geometry":{"x":172775.75000000093,"y":2545757.4200000037}},{"attributes":{"ID":148256,"DIS_CODE":0,"TOWNNAME":"善化區","LI":"胡厝里","LIN":"19鄰","STREET":" ","SECT":" ","MAREA":"西衛","LANE":" ","ALLEY":" ","HOUSE_NO":"２０之１號","E_COORD97":174375.10999999999,"N_COORD97":2559374.52,"ADDRESS":"西衛２０之１號","OBJECTID":148255},"geometry":{"x":174375.11000000127,"y":2559374.5199999996}},{"attributes":{"ID":148257,"DIS_CODE":0,"TOWNNAME":"官田區","LI":"官田里","LIN":"19鄰","STREET":" ","SECT":" ","MAREA":"官田","LANE":" ","ALLEY":" ","HOUSE_NO":"２６７號","E_COORD97":181171.54999999999,"N_COORD97":2564620.2400000002,"ADDRESS":"官田２６７號","OBJECTID":148256},"geometry":{"x":181171.55000000075,"y":2564620.2400000021}},{"attributes":{"ID":148258,"DIS_CODE":0,"TOWNNAME":"官田區","LI":"官田里","LIN":"19鄰","STREET":" ","SECT":" ","MAREA":"官田","LANE":" ","ALLEY":" ","HOUSE_NO":"２７２號","E_COORD97":181106.78,"N_COORD97":2564593.1000000001,"ADDRESS":"官田２７２號","OBJECTID":148257},"geometry":{"x":181106.78000000026,"y":2564593.1000000015}},{"attributes":{"ID":148259,"DIS_CODE":0,"TOWNNAME":"官田區","LI":"西庄里","LIN":"12鄰","STREET":" ","SECT":" ","MAREA":"西庄","LANE":" ","ALLEY":" ","HOUSE_NO":"８８號","E_COORD97":178016.82000000001,"N_COORD97":2565140.23,"ADDRESS":"西庄８８號","OBJECTID":148258},"geometry":{"x":178016.82000000123,"y":2565140.2300000004}},{"attributes":{"ID":148260,"DIS_CODE":0,"TOWNNAME":"官田區","LI":"西庄里","LIN":"12鄰","STREET":" ","SECT":" ","MAREA":"西庄","LANE":" ","ALLEY":" ","HOUSE_NO":"８９號","E_COORD97":178015.45000000001,"N_COORD97":2565152.0299999998,"ADDRESS":"西庄８９號","OBJECTID":148259},"geometry":{"x":178015.45000000205,"y":2565152.0299999975}},{"attributes":{"ID":148261,"DIS_CODE":0,"TOWNNAME":"官田區","LI":"官田里","LIN":"3鄰","STREET":" ","SECT":" ","MAREA":"官田","LANE":" ","ALLEY":" ","HOUSE_NO":"２２號之５","E_COORD97":182557.10999999999,"N_COORD97":2565221.3599999999,"ADDRESS":"官田２２號之５","OBJECTID":148260},"geometry":{"x":182557.11000000034,"y":2565221.3600000031}},{"attributes":{"ID":148262,"DIS_CODE":0,"TOWNNAME":"官田區","LI":"官田里","LIN":"3鄰","STREET":" ","SECT":" ","MAREA":"官田","LANE":" ","ALLEY":" ","HOUSE_NO":"２２號之６","E_COORD97":182569.56,"N_COORD97":2565222.4199999999,"ADDRESS":"官田２２號之６","OBJECTID":148261},"geometry":{"x":182569.56000000052,"y":2565222.4200000018}},{"attributes":{"ID":148263,"DIS_CODE":0,"TOWNNAME":"官田區","LI":"官田里","LIN":"3鄰","STREET":" ","SECT":" ","MAREA":"官田","LANE":" ","ALLEY":" ","HOUSE_NO":"２２號之７","E_COORD97":182574.73000000001,"N_COORD97":2565223.5600000001,"ADDRESS":"官田２２號之７","OBJECTID":148262},"geometry":{"x":182574.73000000045,"y":2565223.5600000005}},{"attributes":{"ID":148264,"DIS_CODE":0,"TOWNNAME":"官田區","LI":"官田里","LIN":"3鄰","STREET":" ","SECT":" ","MAREA":"官田","LANE":" ","ALLEY":" ","HOUSE_NO":"２２號之８","E_COORD97":182565.45000000001,"N_COORD97":2565243.5800000001,"ADDRESS":"官田２２號之８","OBJECTID":148263},"geometry":{"x":182565.45000000112,"y":2565243.5800000001}},{"attributes":{"ID":148265,"DIS_CODE":0,"TOWNNAME":"官田區","LI":"官田里","LIN":"3鄰","STREET":" ","SECT":" ","MAREA":"官田","LANE":" ","ALLEY":" ","HOUSE_NO":"２２號之９","E_COORD97":182570.59,"N_COORD97":2565245.27,"ADDRESS":"官田２２號之９","OBJECTID":148264},"geometry":{"x":182570.58999999985,"y":2565245.2699999996}},{"attributes":{"ID":148266,"DIS_CODE":0,"TOWNNAME":"官田區","LI":"官田里","LIN":"3鄰","STREET":" ","SECT":" ","MAREA":"官田","LANE":" ","ALLEY":" ","HOUSE_NO":"２３號之１","E_COORD97":182559.62,"N_COORD97":2565280.1400000001,"ADDRESS":"官田２３號之１","OBJECTID":148265},"geometry":{"x":182559.62000000104,"y":2565280.1400000006}},{"attributes":{"ID":148267,"DIS_CODE":0,"TOWNNAME":"永康區","LI":"網寮里","LIN":"19鄰","STREET":"永大一路","SECT":" ","MAREA":" ","LANE":" ","ALLEY":" ","HOUSE_NO":"３８８號","E_COORD97":173495.76000000001,"N_COORD97":2546158.3700000001,"ADDRESS":"永大一路３８８號","OBJECTID":148266},"geometry":{"x":173495.76000000071,"y":2546158.370000001}},{"attributes":{"ID":148268,"DIS_CODE":0,"TOWNNAME":"永康區","LI":"網寮里","LIN":"19鄰","STREET":"文化路","SECT":" ","MAREA":" ","LANE":" ","ALLEY":" ","HOUSE_NO":"２７０號","E_COORD97":173476.34,"N_COORD97":2546137.3100000001,"ADDRESS":"文化路２７０號","OBJECTID":148267},"geometry":{"x":173476.34000000078,"y":2546137.3100000005}},{"attributes":{"ID":148269,"DIS_CODE":0,"TOWNNAME":"永康區","LI":"網寮里","LIN":"19鄰","STREET":"文化路","SECT":" ","MAREA":" ","LANE":" ","ALLEY":" ","HOUSE_NO":"２８０號","E_COORD97":173463.35999999999,"N_COORD97":2546147.0499999998,"ADDRESS":"文化路２８０號","OBJECTID":148268},"geometry":{"x":173463.36000000127,"y":2546147.0500000045}},{"attributes":{"ID":148270,"DIS_CODE":0,"TOWNNAME":"善化區","LI":"溪美里","LIN":"18鄰","STREET":" ","SECT":" ","MAREA":"溪尾","LANE":" ","ALLEY":" ","HOUSE_NO":"２１８號","E_COORD97":177260.85000000001,"N_COORD97":2561464.27,"ADDRESS":"溪尾２１８號","OBJECTID":148269},"geometry":{"x":177260.84999999963,"y":2561464.2699999996}},{"attributes":{"ID":148271,"DIS_CODE":0,"TOWNNAME":"善化區","LI":"溪美里","LIN":"18鄰","STREET":" ","SECT":" ","MAREA":"溪尾","LANE":" ","ALLEY":" ","HOUSE_NO":"２１９號","E_COORD97":177268.70999999999,"N_COORD97":2561465.0099999998,"ADDRESS":"溪尾２１９號","OBJECTID":148270},"geometry":{"x":177268.70999999996,"y":2561465.0100000016}},{"attributes":{"ID":148272,"DIS_CODE":0,"TOWNNAME":"善化區","LI":"胡厝里","LIN":"19鄰","STREET":" ","SECT":" ","MAREA":"西衛","LANE":" ","ALLEY":" ","HOUSE_NO":"２３之１號","E_COORD97":174328.41,"N_COORD97":2559389.52,"ADDRESS":"西衛２３之１號","OBJECTID":148271},"geometry":{"x":174328.41000000015,"y":2559389.5200000014}},{"attributes":{"ID":148273,"DIS_CODE":0,"TOWNNAME":"善化區","LI":"胡厝里","LIN":"19鄰","STREET":" ","SECT":" ","MAREA":"西衛","LANE":" ","ALLEY":" ","HOUSE_NO":"２１號（該址已完全拆","E_COORD97":174384.85999999999,"N_COORD97":2559328.75,"ADDRESS":"西衛２１號（該址已完全拆除）","OBJECTID":148272},"geometry":{"x":174384.86000000034,"y":2559328.75}},{"attributes":{"ID":148274,"DIS_CODE":0,"TOWNNAME":"善化區","LI":"胡厝里","LIN":"19鄰","STREET":" ","SECT":" ","MAREA":"西衛","LANE":" ","ALLEY":" ","HOUSE_NO":"２０號之３","E_COORD97":174387.88,"N_COORD97":2559346.77,"ADDRESS":"西衛２０號之３","OBJECTID":148273},"geometry":{"x":174387.88000000175,"y":2559346.7700000014}},{"attributes":{"ID":148275,"DIS_CODE":0,"TOWNNAME":"官田區","LI":"官田里","LIN":"3鄰","STREET":" ","SECT":" ","MAREA":"官田","LANE":" ","ALLEY":" ","HOUSE_NO":"２３號之２","E_COORD97":182564.01000000001,"N_COORD97":2565278.7599999998,"ADDRESS":"官田２３號之２","OBJECTID":148274},"geometry":{"x":182564.00999999978,"y":2565278.7599999998}},{"attributes":{"ID":148276,"DIS_CODE":0,"TOWNNAME":"官田區","LI":"官田里","LIN":"19鄰","STREET":" ","SECT":" ","MAREA":"官田","LANE":" ","ALLEY":" ","HOUSE_NO":"２７３號","E_COORD97":181097.44,"N_COORD97":2564605.1499999999,"ADDRESS":"官田２７３號","OBJECTID":148275},"geometry":{"x":181097.44000000041,"y":2564605.1500000004}},{"attributes":{"ID":148277,"DIS_CODE":0,"TOWNNAME":"官田區","LI":"官田里","LIN":"19鄰","STREET":" ","SECT":" ","MAREA":"官田","LANE":" ","ALLEY":" ","HOUSE_NO":"２７４號","E_COORD97":181093.82000000001,"N_COORD97":2564615.6699999999,"ADDRESS":"官田２７４號","OBJECTID":148276},"geometry":{"x":181093.82000000123,"y":2564615.6699999999}},{"attributes":{"ID":148278,"DIS_CODE":0,"TOWNNAME":"官田區","LI":"官田里","LIN":"19鄰","STREET":" ","SECT":" ","MAREA":"官田","LANE":" ","ALLEY":" ","HOUSE_NO":"２７５號","E_COORD97":181094.07999999999,"N_COORD97":2564631.5899999999,"ADDRESS":"官田２７５號","OBJECTID":148277},"geometry":{"x":181094.08000000007,"y":2564631.5900000017}},{"attributes":{"ID":148279,"DIS_CODE":0,"TOWNNAME":"東區","LI":"崇明里","LIN":"20鄰","STREET":"中華東路","SECT":"三段","MAREA":" ","LANE":"３９９巷","ALLEY":"１１弄","HOUSE_NO":"１號","E_COORD97":170101.85000000001,"N_COORD97":2541533.8300000001,"ADDRESS":"中華東路三段３９９巷１１弄１號","OBJECTID":148278},"geometry":{"x":170101.84999999963,"y":2541533.8300000019}},{"attributes":{"ID":148280,"DIS_CODE":0,"TOWNNAME":"永康區","LI":"網寮里","LIN":"19鄰","STREET":"文化路","SECT":" ","MAREA":" ","LANE":" ","ALLEY":" ","HOUSE_NO":"２８８號","E_COORD97":173453.14000000001,"N_COORD97":2546152.7999999998,"ADDRESS":"文化路２８８號","OBJECTID":148279},"geometry":{"x":173453.13999999966,"y":2546152.8000000026}},{"attributes":{"ID":148281,"DIS_CODE":0,"TOWNNAME":"善化區","LI":"東關里","LIN":"19鄰","STREET":"大信路","SECT":" ","MAREA":" ","LANE":" ","ALLEY":" ","HOUSE_NO":"１５號","E_COORD97":177484.09,"N_COORD97":2559045.25,"ADDRESS":"大信路１５號","OBJECTID":148280},"geometry":{"x":177484.09000000078,"y":2559045.2500000037}},{"attributes":{"ID":148282,"DIS_CODE":0,"TOWNNAME":"官田區","LI":"官田里","LIN":"19鄰","STREET":" ","SECT":" ","MAREA":"官田","LANE":" ","ALLEY":" ","HOUSE_NO":"２７６號","E_COORD97":181089.87,"N_COORD97":2564656.1600000001,"ADDRESS":"官田２７６號","OBJECTID":148281},"geometry":{"x":181089.87000000104,"y":2564656.1600000001}},{"attributes":{"ID":148283,"DIS_CODE":0,"TOWNNAME":"善化區","LI":"東關里","LIN":"19鄰","STREET":"大信路","SECT":" ","MAREA":" ","LANE":" ","ALLEY":" ","HOUSE_NO":"１３號","E_COORD97":177484.47,"N_COORD97":2559049.25,"ADDRESS":"大信路１３號","OBJECTID":148282},"geometry":{"x":177484.47000000067,"y":2559049.2500000019}},{"attributes":{"ID":148284,"DIS_CODE":0,"TOWNNAME":"東區","LI":"崇明里","LIN":"20鄰","STREET":"中華東路","SECT":"三段","MAREA":" ","LANE":"３９９巷","ALLEY":"１１弄","HOUSE_NO":"１７號","E_COORD97":170149.88,"N_COORD97":2541544.7400000002,"ADDRESS":"中華東路三段３９９巷１１弄１７號","OBJECTID":148283},"geometry":{"x":170149.88000000175,"y":2541544.7400000039}},{"attributes":{"ID":148285,"DIS_CODE":0,"TOWNNAME":"南區","LI":"大林里","LIN":"3鄰","STREET":"大同路","SECT":"二段","MAREA":" ","LANE":"４８２巷","ALLEY":"１０弄","HOUSE_NO":"２號","E_COORD97":169431.44,"N_COORD97":2541503.04,"ADDRESS":"大同路二段４８２巷１０弄２號","OBJECTID":148284},"geometry":{"x":169431.44000000134,"y":2541503.0399999991}},{"attributes":{"ID":148286,"DIS_CODE":0,"TOWNNAME":"安南區","LI":"新順里","LIN":"3鄰","STREET":"安和路","SECT":"二段","MAREA":" ","LANE":"３１８巷","ALLEY":"３８弄","HOUSE_NO":"２１號","E_COORD97":169847.23000000001,"N_COORD97":2549214.7400000002,"ADDRESS":"安和路二段３１８巷３８弄２１號","OBJECTID":148285},"geometry":{"x":169847.23000000045,"y":2549214.7400000021}},{"attributes":{"ID":148287,"DIS_CODE":0,"TOWNNAME":"安南區","LI":"淵東里","LIN":"3鄰","STREET":"本原街","SECT":"三段","MAREA":" ","LANE":"２３４巷","ALLEY":"１０６弄","HOUSE_NO":"３９號","E_COORD97":165279.73000000001,"N_COORD97":2550662.3900000001,"ADDRESS":"本原街三段２３４巷１０６弄３９號","OBJECTID":148286},"geometry":{"x":165279.73000000138,"y":2550662.3900000006}},{"attributes":{"ID":148288,"DIS_CODE":0,"TOWNNAME":"安南區","LI":"州北里","LIN":"3鄰","STREET":"安和路","SECT":"五段","MAREA":" ","LANE":"１７１巷","ALLEY":"１８１弄","HOUSE_NO":"２１號","E_COORD97":169672.44,"N_COORD97":2551642.4700000002,"ADDRESS":"安和路五段１７１巷１８１弄２１號","OBJECTID":148287},"geometry":{"x":169672.44000000134,"y":2551642.4700000007}},{"attributes":{"ID":148289,"DIS_CODE":0,"TOWNNAME":"善化區","LI":"東關里","LIN":"19鄰","STREET":"中興路","SECT":" ","MAREA":" ","LANE":" ","ALLEY":" ","HOUSE_NO":"９８號","E_COORD97":177495.67000000001,"N_COORD97":2559029.5,"ADDRESS":"中興路９８號","OBJECTID":148288},"geometry":{"x":177495.67000000086,"y":2559029.5}},{"attributes":{"ID":148290,"DIS_CODE":0,"TOWNNAME":"善化區","LI":"東關里","LIN":"19鄰","STREET":"大信路","SECT":" ","MAREA":" ","LANE":" ","ALLEY":" ","HOUSE_NO":"１１號","E_COORD97":177484.73999999999,"N_COORD97":2559053,"ADDRESS":"大信路１１號","OBJECTID":148289},"geometry":{"x":177484.74000000115,"y":2559053}},{"attributes":{"ID":148291,"DIS_CODE":0,"TOWNNAME":"官田區","LI":"官田里","LIN":"19鄰","STREET":" ","SECT":" ","MAREA":"官田","LANE":" ","ALLEY":" ","HOUSE_NO":"２７９號","E_COORD97":181753.39999999999,"N_COORD97":2564475.98,"ADDRESS":"官田２７９號","OBJECTID":148290},"geometry":{"x":181753.40000000037,"y":2564475.9800000023}},{"attributes":{"ID":148292,"DIS_CODE":0,"TOWNNAME":"官田區","LI":"東庄里","LIN":"19鄰","STREET":" ","SECT":" ","MAREA":"瓦\u25A0","LANE":" ","ALLEY":" ","HOUSE_NO":"１１號之１","E_COORD97":179106.45000000001,"N_COORD97":2565011.54,"ADDRESS":"瓦\u25A0１１號之１","OBJECTID":148291},"geometry":{"x":179106.45000000019,"y":2565011.5399999991}},{"attributes":{"ID":148293,"DIS_CODE":0,"TOWNNAME":"官田區","LI":"東庄里","LIN":"19鄰","STREET":" ","SECT":" ","MAREA":"瓦\u25A0","LANE":" ","ALLEY":" ","HOUSE_NO":"１１號","E_COORD97":179090.53,"N_COORD97":2565005.79,"ADDRESS":"瓦\u25A0１１號","OBJECTID":148292},"geometry":{"x":179090.53000000119,"y":2565005.790000001}},{"attributes":{"ID":148294,"DIS_CODE":0,"TOWNNAME":"官田區","LI":"東庄里","LIN":"19鄰","STREET":" ","SECT":" ","MAREA":"瓦\u25A0","LANE":" ","ALLEY":" ","HOUSE_NO":"１２號","E_COORD97":179104.23000000001,"N_COORD97":2564932.6699999999,"ADDRESS":"瓦\u25A0１２號","OBJECTID":148293},"geometry":{"x":179104.23000000138,"y":2564932.6700000018}},{"attributes":{"ID":148295,"DIS_CODE":0,"TOWNNAME":"官田區","LI":"東庄里","LIN":"19鄰","STREET":" ","SECT":" ","MAREA":"瓦\u25A0","LANE":" ","ALLEY":" ","HOUSE_NO":"１３號之１","E_COORD97":179098,"N_COORD97":2564954.3399999999,"ADDRESS":"瓦\u25A0１３號之１","OBJECTID":148294},"geometry":{"x":179097.99999999907,"y":2564954.3400000017}},{"attributes":{"ID":148296,"DIS_CODE":0,"TOWNNAME":"官田區","LI":"東庄里","LIN":"19鄰","STREET":" ","SECT":" ","MAREA":"瓦\u25A0","LANE":" ","ALLEY":" ","HOUSE_NO":"１３號","E_COORD97":179118.25,"N_COORD97":2564961.9500000002,"ADDRESS":"瓦\u25A0１３號","OBJECTID":148295},"geometry":{"x":179118.25,"y":2564961.9499999993}},{"attributes":{"ID":148297,"DIS_CODE":0,"TOWNNAME":"東區","LI":"莊敬里","LIN":"19鄰","STREET":"莊敬路","SECT":" ","MAREA":" ","LANE":" ","ALLEY":" ","HOUSE_NO":"１７７號","E_COORD97":171358.76999999999,"N_COORD97":2544085.1699999999,"ADDRESS":"莊敬路１７７號","OBJECTID":148296},"geometry":{"x":171358.76999999955,"y":2544085.1700000018}},{"attributes":{"ID":148298,"DIS_CODE":0,"TOWNNAME":"東區","LI":"大德里","LIN":"14鄰","STREET":"立德十路","SECT":" ","MAREA":" ","LANE":" ","ALLEY":" ","HOUSE_NO":"７１號","E_COORD97":169570.91,"N_COORD97":2542077.8500000001,"ADDRESS":"立德十路７１號","OBJECTID":148297},"geometry":{"x":169570.91000000108,"y":2542077.8499999996}},{"attributes":{"ID":148299,"DIS_CODE":0,"TOWNNAME":"安南區","LI":"新順里","LIN":"3鄰","STREET":"安和路","SECT":"二段","MAREA":" ","LANE":"３１８巷","ALLEY":"３８弄","HOUSE_NO":"２６號","E_COORD97":169819.06,"N_COORD97":2549205.6000000001,"ADDRESS":"安和路二段３１８巷３８弄２６號","OBJECTID":148298},"geometry":{"x":169819.05999999959,"y":2549205.5999999996}},{"attributes":{"ID":148300,"DIS_CODE":0,"TOWNNAME":"東區","LI":"大德里","LIN":"14鄰","STREET":"立德十路","SECT":" ","MAREA":" ","LANE":" ","ALLEY":" ","HOUSE_NO":"６９號","E_COORD97":169567.14999999999,"N_COORD97":2542077.25,"ADDRESS":"立德十路６９號","OBJECTID":148299},"geometry":{"x":169567.15000000224,"y":2542077.2500000019}},{"attributes":{"ID":148301,"DIS_CODE":0,"TOWNNAME":"安南區","LI":"新順里","LIN":"3鄰","STREET":"安和路","SECT":"二段","MAREA":" ","LANE":"３１８巷","ALLEY":"３８弄","HOUSE_NO":"８號","E_COORD97":169824.03,"N_COORD97":2549246.1200000001,"ADDRESS":"安和路二段３１８巷３８弄８號","OBJECTID":148300},"geometry":{"x":169824.03000000119,"y":2549246.1200000029}},{"attributes":{"ID":148302,"DIS_CODE":0,"TOWNNAME":"安南區","LI":"淵西里","LIN":"3鄰","STREET":"安中路","SECT":"四段","MAREA":" ","LANE":"２９０巷","ALLEY":"２６３弄","HOUSE_NO":"３９號","E_COORD97":165054.70999999999,"N_COORD97":2550346.2799999998,"ADDRESS":"安中路四段２９０巷２６３弄３９號","OBJECTID":148301},"geometry":{"x":165054.70999999996,"y":2550346.2800000012}},{"attributes":{"ID":148303,"DIS_CODE":0,"TOWNNAME":"安南區","LI":"淵東里","LIN":"3鄰","STREET":"本原街","SECT":"三段","MAREA":" ","LANE":"２３４巷","ALLEY":"１０６弄","HOUSE_NO":"８號","E_COORD97":165279.54999999999,"N_COORD97":2550546.1099999999,"ADDRESS":"本原街三段２３４巷１０６弄８號","OBJECTID":148302},"geometry":{"x":165279.54999999981,"y":2550546.1100000031}},{"attributes":{"ID":148304,"DIS_CODE":0,"TOWNNAME":"安南區","LI":"新順里","LIN":"3鄰","STREET":"安和路","SECT":"二段","MAREA":" ","LANE":"３１８巷","ALLEY":"３８弄","HOUSE_NO":"１０號","E_COORD97":169822.76000000001,"N_COORD97":2549235.23,"ADDRESS":"安和路二段３１８巷３８弄１０號","OBJECTID":148303},"geometry":{"x":169822.75999999978,"y":2549235.2300000023}},{"attributes":{"ID":148305,"DIS_CODE":0,"TOWNNAME":"東區","LI":"南聖里","LIN":"8鄰","STREET":"裕農路","SECT":" ","MAREA":" ","LANE":"７２６巷","ALLEY":"９弄","HOUSE_NO":"２號","E_COORD97":171875.48999999999,"N_COORD97":2543129.4100000001,"ADDRESS":"裕農路７２６巷９弄２號","OBJECTID":148304},"geometry":{"x":171875.49000000115,"y":2543129.4100000001}},{"attributes":{"ID":148306,"DIS_CODE":0,"TOWNNAME":"安南區","LI":"城南里","LIN":"3鄰","STREET":"城西街","SECT":"一段","MAREA":" ","LANE":"６１巷","ALLEY":"２８弄","HOUSE_NO":"４１號","E_COORD97":160650.45000000001,"N_COORD97":2551285.54,"ADDRESS":"城西街一段６１巷２８弄４１號","OBJECTID":148305},"geometry":{"x":160650.45000000112,"y":2551285.540000001}},{"attributes":{"ID":148307,"DIS_CODE":0,"TOWNNAME":"東區","LI":"文聖里","LIN":"1鄰","STREET":"裕學路","SECT":" ","MAREA":" ","LANE":" ","ALLEY":" ","HOUSE_NO":"２９號","E_COORD97":171792.75,"N_COORD97":2542823.7599999998,"ADDRESS":"裕學路２９號","OBJECTID":148306},"geometry":{"x":171792.75,"y":2542823.7599999998}},{"attributes":{"ID":148308,"DIS_CODE":0,"TOWNNAME":"官田區","LI":"隆本里","LIN":"3鄰","STREET":"中華路","SECT":"二段","MAREA":" ","LANE":"１０８巷","ALLEY":"２８弄","HOUSE_NO":"３號","E_COORD97":180179.60000000001,"N_COORD97":2566503.0800000001,"ADDRESS":"中華路二段１０８巷２８弄３號","OBJECTID":148307},"geometry":{"x":180179.59999999963,"y":2566503.0800000019}},{"attributes":{"ID":148309,"DIS_CODE":0,"TOWNNAME":"官田區","LI":"隆本里","LIN":"3鄰","STREET":"中華路","SECT":"二段","MAREA":" ","LANE":"５８巷","ALLEY":"１弄","HOUSE_NO":"１０號","E_COORD97":180172.54999999999,"N_COORD97":2566446.6699999999,"ADDRESS":"中華路二段５８巷１弄１０號","OBJECTID":148308},"geometry":{"x":180172.55000000075,"y":2566446.6699999999}},{"attributes":{"ID":148310,"DIS_CODE":0,"TOWNNAME":"東區","LI":"富強里","LIN":"27鄰","STREET":"東門路","SECT":"二段","MAREA":" ","LANE":"３０１巷","ALLEY":"８０弄","HOUSE_NO":"１３號","E_COORD97":170942.88,"N_COORD97":2542689.8399999999,"ADDRESS":"東門路二段３０１巷８０弄１３號","OBJECTID":148309},"geometry":{"x":170942.87999999989,"y":2542689.8400000017}},{"attributes":{"ID":148311,"DIS_CODE":0,"TOWNNAME":"東區","LI":"虎尾里","LIN":"27鄰","STREET":"東門路","SECT":"三段","MAREA":" ","LANE":"２７３巷","ALLEY":"２８弄","HOUSE_NO":"１號","E_COORD97":171733.23999999999,"N_COORD97":2541999.75,"ADDRESS":"東門路三段２７３巷２８弄１號","OBJECTID":148310},"geometry":{"x":171733.24000000115,"y":2541999.7500000019}},{"attributes":{"ID":148312,"DIS_CODE":0,"TOWNNAME":"官田區","LI":"隆本里","LIN":"3鄰","STREET":"中華路","SECT":"二段","MAREA":" ","LANE":"５８巷","ALLEY":"１弄","HOUSE_NO":"１１號","E_COORD97":180156.88,"N_COORD97":2566458.3100000001,"ADDRESS":"中華路二段５８巷１弄１１號","OBJECTID":148311},"geometry":{"x":180156.88000000082,"y":2566458.3100000024}},{"attributes":{"ID":148313,"DIS_CODE":0,"TOWNNAME":"官田區","LI":"隆本里","LIN":"3鄰","STREET":"中華路","SECT":"二段","MAREA":" ","LANE":"５８巷","ALLEY":"１弄","HOUSE_NO":"１２號","E_COORD97":180172.47,"N_COORD97":2566450.21,"ADDRESS":"中華路二段５８巷１弄１２號","OBJECTID":148312},"geometry":{"x":180172.46999999974,"y":2566450.2100000009}},{"attributes":{"ID":148314,"DIS_CODE":0,"TOWNNAME":"官田區","LI":"隆本里","LIN":"3鄰","STREET":"中華路","SECT":"二段","MAREA":" ","LANE":"５８巷","ALLEY":"１弄","HOUSE_NO":"１３號","E_COORD97":180157,"N_COORD97":2566463.1899999999,"ADDRESS":"中華路二段５８巷１弄１３號","OBJECTID":148313},"geometry":{"x":180157,"y":2566463.1900000032}},{"attributes":{"ID":148315,"DIS_CODE":0,"TOWNNAME":"官田區","LI":"隆本里","LIN":"3鄰","STREET":"中華路","SECT":"二段","MAREA":" ","LANE":"５８巷","ALLEY":"１弄","HOUSE_NO":"１５號","E_COORD97":180156.82000000001,"N_COORD97":2566467.5,"ADDRESS":"中華路二段５８巷１弄１５號","OBJECTID":148314},"geometry":{"x":180156.8200000003,"y":2566467.5}},{"attributes":{"ID":148316,"DIS_CODE":0,"TOWNNAME":"官田區","LI":"隆本里","LIN":"3鄰","STREET":"中華路","SECT":"二段","MAREA":" ","LANE":"５８巷","ALLEY":"１弄","HOUSE_NO":"１６號","E_COORD97":180172.53,"N_COORD97":2566453.3599999999,"ADDRESS":"中華路二段５８巷１弄１６號","OBJECTID":148315},"geometry":{"x":180172.53000000026,"y":2566453.3600000013}},{"attributes":{"ID":148317,"DIS_CODE":0,"TOWNNAME":"官田區","LI":"隆本里","LIN":"3鄰","STREET":"中華路","SECT":"二段","MAREA":" ","LANE":"５８巷","ALLEY":"１弄","HOUSE_NO":"１７號","E_COORD97":180157.35000000001,"N_COORD97":2566471.6400000001,"ADDRESS":"中華路二段５８巷１弄１７號","OBJECTID":148316},"geometry":{"x":180157.35000000056,"y":2566471.6400000043}},{"attributes":{"ID":148318,"DIS_CODE":0,"TOWNNAME":"官田區","LI":"隆本里","LIN":"3鄰","STREET":"中華路","SECT":"二段","MAREA":" ","LANE":"５８巷","ALLEY":"１弄","HOUSE_NO":"１８號","E_COORD97":180172.70999999999,"N_COORD97":2566456.9900000002,"ADDRESS":"中華路二段５８巷１弄１８號","OBJECTID":148317},"geometry":{"x":180172.70999999996,"y":2566456.9900000021}},{"attributes":{"ID":148319,"DIS_CODE":0,"TOWNNAME":"官田區","LI":"隆本里","LIN":"3鄰","STREET":"中華路","SECT":"二段","MAREA":" ","LANE":"５８巷","ALLEY":"１弄","HOUSE_NO":"１９號","E_COORD97":180156.69,"N_COORD97":2566474.9199999999,"ADDRESS":"中華路二段５８巷１弄１９號","OBJECTID":148318},"geometry":{"x":180156.69000000227,"y":2566474.9199999999}},{"attributes":{"ID":148320,"DIS_CODE":0,"TOWNNAME":"官田區","LI":"隆本里","LIN":"3鄰","STREET":"中華路","SECT":"二段","MAREA":" ","LANE":"５８巷","ALLEY":"１弄","HOUSE_NO":"２０號","E_COORD97":180172.39000000001,"N_COORD97":2566461.52,"ADDRESS":"中華路二段５８巷１弄２０號","OBJECTID":148319},"geometry":{"x":180172.3900000006,"y":2566461.5200000014}},{"attributes":{"ID":148321,"DIS_CODE":0,"TOWNNAME":"官田區","LI":"隆本里","LIN":"3鄰","STREET":"中華路","SECT":"二段","MAREA":" ","LANE":"５８巷","ALLEY":"１弄","HOUSE_NO":"２１號","E_COORD97":180156.56,"N_COORD97":2566479.71,"ADDRESS":"中華路二段５８巷１弄２１號","OBJECTID":148320},"geometry":{"x":180156.55999999959,"y":2566479.7100000028}},{"attributes":{"ID":148322,"DIS_CODE":0,"TOWNNAME":"官田區","LI":"隆本里","LIN":"3鄰","STREET":"中華路","SECT":"二段","MAREA":" ","LANE":"５８巷","ALLEY":"１弄","HOUSE_NO":"２２號","E_COORD97":180172.01000000001,"N_COORD97":2566465.1899999999,"ADDRESS":"中華路二段５８巷１弄２２號","OBJECTID":148321},"geometry":{"x":180172.00999999978,"y":2566465.1899999995}},{"attributes":{"ID":148323,"DIS_CODE":0,"TOWNNAME":"官田區","LI":"隆本里","LIN":"3鄰","STREET":"中華路","SECT":"二段","MAREA":" ","LANE":"５８巷","ALLEY":"１弄","HOUSE_NO":"２３號","E_COORD97":180156.28,"N_COORD97":2566483.8300000001,"ADDRESS":"中華路二段５８巷１弄２３號","OBJECTID":148322},"geometry":{"x":180156.28000000119,"y":2566483.8300000019}},{"attributes":{"ID":148324,"DIS_CODE":0,"TOWNNAME":"官田區","LI":"隆本里","LIN":"3鄰","STREET":"中華路","SECT":"二段","MAREA":" ","LANE":"５８巷","ALLEY":"１弄","HOUSE_NO":"２５號","E_COORD97":180156.10999999999,"N_COORD97":2566488.5899999999,"ADDRESS":"中華路二段５８巷１弄２５號","OBJECTID":148323},"geometry":{"x":180156.11000000127,"y":2566488.5900000017}},{"attributes":{"ID":148325,"DIS_CODE":0,"TOWNNAME":"官田區","LI":"隆本里","LIN":"3鄰","STREET":"中華路","SECT":"二段","MAREA":" ","LANE":"５８巷","ALLEY":"１弄","HOUSE_NO":"２６號","E_COORD97":180172.37,"N_COORD97":2566469.4700000002,"ADDRESS":"中華路二段５８巷１弄２６號","OBJECTID":148324},"geometry":{"x":180172.37000000104,"y":2566469.4700000044}},{"attributes":{"ID":148326,"DIS_CODE":0,"TOWNNAME":"官田區","LI":"東庄里","LIN":"19鄰","STREET":" ","SECT":" ","MAREA":"瓦\u25A0","LANE":" ","ALLEY":" ","HOUSE_NO":"１４號","E_COORD97":179139.67000000001,"N_COORD97":2564967.29,"ADDRESS":"瓦\u25A0１４號","OBJECTID":148325},"geometry":{"x":179139.67000000086,"y":2564967.2900000028}},{"attributes":{"ID":148327,"DIS_CODE":0,"TOWNNAME":"官田區","LI":"隆本里","LIN":"3鄰","STREET":"中華路","SECT":"二段","MAREA":" ","LANE":"５８巷","ALLEY":"１弄","HOUSE_NO":"２號","E_COORD97":180173.07999999999,"N_COORD97":2566433.1299999999,"ADDRESS":"中華路二段５８巷１弄２號","OBJECTID":148326},"geometry":{"x":180173.08000000101,"y":2566433.1300000008}},{"attributes":{"ID":148328,"DIS_CODE":0,"TOWNNAME":"官田區","LI":"隆本里","LIN":"3鄰","STREET":"中華路","SECT":"二段","MAREA":" ","LANE":"５８巷","ALLEY":"１弄","HOUSE_NO":"３０號","E_COORD97":180172.01999999999,"N_COORD97":2566473.0600000001,"ADDRESS":"中華路二段５８巷１弄３０號","OBJECTID":148327},"geometry":{"x":180172.01999999955,"y":2566473.0600000024}},{"attributes":{"ID":148329,"DIS_CODE":0,"TOWNNAME":"安定區","LI":"新吉里","LIN":"19鄰","STREET":" ","SECT":" ","MAREA":"公親寮","LANE":" ","ALLEY":" ","HOUSE_NO":"５號","E_COORD97":168191.67000000001,"N_COORD97":2553216.25,"ADDRESS":"公親寮５號","OBJECTID":148328},"geometry":{"x":168191.67000000179,"y":2553216.25}},{"attributes":{"ID":148330,"DIS_CODE":0,"TOWNNAME":"安定區","LI":"新吉里","LIN":"19鄰","STREET":" ","SECT":" ","MAREA":"公親寮","LANE":" ","ALLEY":" ","HOUSE_NO":"７號","E_COORD97":168507.37,"N_COORD97":2553197.25,"ADDRESS":"公親寮７號","OBJECTID":148329},"geometry":{"x":168507.37000000011,"y":2553197.2500000019}},{"attributes":{"ID":148331,"DIS_CODE":0,"TOWNNAME":"安定區","LI":"海寮里","LIN":"19鄰","STREET":" ","SECT":" ","MAREA":"海寮","LANE":" ","ALLEY":" ","HOUSE_NO":"１８１號","E_COORD97":169415.23999999999,"N_COORD97":2555521.25,"ADDRESS":"海寮１８１號","OBJECTID":148330},"geometry":{"x":169415.24000000022,"y":2555521.25}},{"attributes":{"ID":148332,"DIS_CODE":0,"TOWNNAME":"新市區","LI":"社內里","LIN":"19鄰","STREET":" ","SECT":" ","MAREA":"社內","LANE":" ","ALLEY":" ","HOUSE_NO":"２００號","E_COORD97":175943.34,"N_COORD97":2553077.75,"ADDRESS":"社內２００號","OBJECTID":148331},"geometry":{"x":175943.34000000078,"y":2553077.75}},{"attributes":{"ID":148333,"DIS_CODE":0,"TOWNNAME":"官田區","LI":"隆本里","LIN":"3鄰","STREET":"中華路","SECT":"二段","MAREA":" ","LANE":"５８巷","ALLEY":"１弄","HOUSE_NO":"３２號","E_COORD97":180172.53,"N_COORD97":2566476.9900000002,"ADDRESS":"中華路二段５８巷１弄３２號","OBJECTID":148332},"geometry":{"x":180172.53000000026,"y":2566476.9900000021}},{"attributes":{"ID":148334,"DIS_CODE":0,"TOWNNAME":"新市區","LI":"大營里","LIN":"19鄰","STREET":" ","SECT":" ","MAREA":"豐榮","LANE":" ","ALLEY":" ","HOUSE_NO":"４３之３７號","E_COORD97":178743.48999999999,"N_COORD97":2554331.7999999998,"ADDRESS":"豐榮４３之３７號","OBJECTID":148333},"geometry":{"x":178743.49000000022,"y":2554331.8000000007}},{"attributes":{"ID":148335,"DIS_CODE":0,"TOWNNAME":"官田區","LI":"東庄里","LIN":"19鄰","STREET":" ","SECT":" ","MAREA":"瓦\u25A0","LANE":" ","ALLEY":" ","HOUSE_NO":"１５號","E_COORD97":179133.07999999999,"N_COORD97":2564938.7200000002,"ADDRESS":"瓦\u25A0１５號","OBJECTID":148334},"geometry":{"x":179133.08000000007,"y":2564938.7200000044}},{"attributes":{"ID":148336,"DIS_CODE":0,"TOWNNAME":"官田區","LI":"東庄里","LIN":"19鄰","STREET":" ","SECT":" ","MAREA":"瓦\u25A0","LANE":" ","ALLEY":" ","HOUSE_NO":"１６號","E_COORD97":179133.14999999999,"N_COORD97":2564922.1600000001,"ADDRESS":"瓦\u25A0１６號","OBJECTID":148335},"geometry":{"x":179133.15000000224,"y":2564922.160000002}},{"attributes":{"ID":148337,"DIS_CODE":0,"TOWNNAME":"新市區","LI":"新和里","LIN":"19鄰","STREET":"永福街","SECT":" ","MAREA":" ","LANE":" ","ALLEY":" ","HOUSE_NO":"９３號","E_COORD97":177527.81,"N_COORD97":2552722.25,"ADDRESS":"永福街９３號","OBJECTID":148336},"geometry":{"x":177527.81000000052,"y":2552722.2500000037}},{"attributes":{"ID":148338,"DIS_CODE":0,"TOWNNAME":"新市區","LI":"新和里","LIN":"19鄰","STREET":"永福街","SECT":" ","MAREA":" ","LANE":" ","ALLEY":" ","HOUSE_NO":"８３號","E_COORD97":177552.95999999999,"N_COORD97":2552719.5,"ADDRESS":"永福街８３號","OBJECTID":148337},"geometry":{"x":177552.96000000089,"y":2552719.5}},{"attributes":{"ID":148339,"DIS_CODE":0,"TOWNNAME":"官田區","LI":"隆本里","LIN":"3鄰","STREET":"中華路","SECT":"二段","MAREA":" ","LANE":"５８巷","ALLEY":"１弄","HOUSE_NO":"３６號","E_COORD97":180172.35999999999,"N_COORD97":2566481.04,"ADDRESS":"中華路二段５８巷１弄３６號","OBJECTID":148338},"geometry":{"x":180172.3599999994,"y":2566481.0400000028}},{"attributes":{"ID":148340,"DIS_CODE":0,"TOWNNAME":"官田區","LI":"隆本里","LIN":"3鄰","STREET":"中華路","SECT":"二段","MAREA":" ","LANE":"５８巷","ALLEY":"１弄","HOUSE_NO":"３８號","E_COORD97":180172.57000000001,"N_COORD97":2566485.2000000002,"ADDRESS":"中華路二段５８巷１弄３８號","OBJECTID":148339},"geometry":{"x":180172.56999999937,"y":2566485.1999999993}},{"attributes":{"ID":148341,"DIS_CODE":0,"TOWNNAME":"官田區","LI":"西庄里","LIN":"1鄰","STREET":" ","SECT":" ","MAREA":"西庄","LANE":" ","ALLEY":" ","HOUSE_NO":"１０號","E_COORD97":177879.73999999999,"N_COORD97":2565071.0800000001,"ADDRESS":"西庄１０號","OBJECTID":148340},"geometry":{"x":177879.74000000115,"y":2565071.0799999982}},{"attributes":{"ID":148342,"DIS_CODE":0,"TOWNNAME":"官田區","LI":"隆本里","LIN":"3鄰","STREET":"中華路","SECT":"二段","MAREA":" ","LANE":"５８巷","ALLEY":"１弄","HOUSE_NO":"３號","E_COORD97":180157.29999999999,"N_COORD97":2566439.54,"ADDRESS":"中華路二段５８巷１弄３號","OBJECTID":148341},"geometry":{"x":180157.30000000075,"y":2566439.5399999991}},{"attributes":{"ID":148343,"DIS_CODE":0,"TOWNNAME":"官田區","LI":"東庄里","LIN":"6鄰","STREET":" ","SECT":" ","MAREA":"西庄","LANE":" ","ALLEY":" ","HOUSE_NO":"１３９號之１１","E_COORD97":178289.67999999999,"N_COORD97":2565206.5800000001,"ADDRESS":"西庄１３９號之１１","OBJECTID":148342},"geometry":{"x":178289.68000000156,"y":2565206.5800000001}},{"attributes":{"ID":148344,"DIS_CODE":0,"TOWNNAME":"官田區","LI":"東庄里","LIN":"6鄰","STREET":" ","SECT":" ","MAREA":"西庄","LANE":" ","ALLEY":" ","HOUSE_NO":"１３９號之１２","E_COORD97":178239.67999999999,"N_COORD97":2565211.8100000001,"ADDRESS":"西庄１３９號之１２","OBJECTID":148343},"geometry":{"x":178239.6799999997,"y":2565211.8100000005}},{"attributes":{"ID":148345,"DIS_CODE":0,"TOWNNAME":"官田區","LI":"東庄里","LIN":"6鄰","STREET":" ","SECT":" ","MAREA":"西庄","LANE":" ","ALLEY":" ","HOUSE_NO":"１３９號之１４","E_COORD97":178268.79999999999,"N_COORD97":2565198.7000000002,"ADDRESS":"西庄１３９號之１４","OBJECTID":148344},"geometry":{"x":178268.80000000075,"y":2565198.7000000011}},{"attributes":{"ID":148346,"DIS_CODE":0,"TOWNNAME":"官田區","LI":"東庄里","LIN":"6鄰","STREET":" ","SECT":" ","MAREA":"西庄","LANE":" ","ALLEY":" ","HOUSE_NO":"１３９號之１６","E_COORD97":178263.94,"N_COORD97":2565217.6099999999,"ADDRESS":"西庄１３９號之１６","OBJECTID":148345},"geometry":{"x":178263.94000000134,"y":2565217.6100000013}},{"attributes":{"ID":148347,"DIS_CODE":0,"TOWNNAME":"官田區","LI":"隆本里","LIN":"3鄰","STREET":"中華路","SECT":"二段","MAREA":" ","LANE":"５８巷","ALLEY":"１弄","HOUSE_NO":"４０號","E_COORD97":180172.26999999999,"N_COORD97":2566488.6800000002,"ADDRESS":"中華路二段５８巷１弄４０號","OBJECTID":148346},"geometry":{"x":180172.27000000142,"y":2566488.6800000016}},{"attributes":{"ID":148348,"DIS_CODE":0,"TOWNNAME":"官田區","LI":"東庄里","LIN":"6鄰","STREET":" ","SECT":" ","MAREA":"西庄","LANE":" ","ALLEY":" ","HOUSE_NO":"１３９號之１７","E_COORD97":178288.16,"N_COORD97":2565227.73,"ADDRESS":"西庄１３９號之１７","OBJECTID":148347},"geometry":{"x":178288.16000000015,"y":2565227.7300000023}},{"attributes":{"ID":148349,"DIS_CODE":0,"TOWNNAME":"官田區","LI":"東庄里","LIN":"6鄰","STREET":" ","SECT":" ","MAREA":"西庄","LANE":" ","ALLEY":" ","HOUSE_NO":"１３９號之１","E_COORD97":178233.16,"N_COORD97":2565259.4100000001,"ADDRESS":"西庄１３９號之１","OBJECTID":148348},"geometry":{"x":178233.16000000108,"y":2565259.410000002}},{"attributes":{"ID":148350,"DIS_CODE":0,"TOWNNAME":"官田區","LI":"東庄里","LIN":"6鄰","STREET":" ","SECT":" ","MAREA":"西庄","LANE":" ","ALLEY":" ","HOUSE_NO":"１３９號之２５","E_COORD97":178197.75,"N_COORD97":2565182.8100000001,"ADDRESS":"西庄１３９號之２５","OBJECTID":148349},"geometry":{"x":178197.75,"y":2565182.8100000024}},{"attributes":{"ID":148351,"DIS_CODE":0,"TOWNNAME":"官田區","LI":"東庄里","LIN":"6鄰","STREET":" ","SECT":" ","MAREA":"西庄","LANE":" ","ALLEY":" ","HOUSE_NO":"１３９號之２７","E_COORD97":178164.67000000001,"N_COORD97":2565254.8100000001,"ADDRESS":"西庄１３９號之２７","OBJECTID":148350},"geometry":{"x":178164.67000000086,"y":2565254.8100000024}},{"attributes":{"ID":148352,"DIS_CODE":0,"TOWNNAME":"官田區","LI":"東庄里","LIN":"6鄰","STREET":" ","SECT":" ","MAREA":"西庄","LANE":" ","ALLEY":" ","HOUSE_NO":"１３９號之２８","E_COORD97":178150.81,"N_COORD97":2565239.7000000002,"ADDRESS":"西庄１３９號之２８","OBJECTID":148351},"geometry":{"x":178150.80999999959,"y":2565239.7000000011}},{"attributes":{"ID":148353,"DIS_CODE":0,"TOWNNAME":"官田區","LI":"隆本里","LIN":"3鄰","STREET":"中華路","SECT":"二段","MAREA":" ","LANE":"５８巷","ALLEY":"１弄","HOUSE_NO":"５號","E_COORD97":180157.12,"N_COORD97":2566444.96,"ADDRESS":"中華路二段５８巷１弄５號","OBJECTID":148352},"geometry":{"x":180157.12000000104,"y":2566444.9600000009}},{"attributes":{"ID":148354,"DIS_CODE":0,"TOWNNAME":"官田區","LI":"東庄里","LIN":"6鄰","STREET":" ","SECT":" ","MAREA":"西庄","LANE":" ","ALLEY":" ","HOUSE_NO":"１３９號之２９","E_COORD97":178161.57000000001,"N_COORD97":2565226.5600000001,"ADDRESS":"西庄１３９號之２９","OBJECTID":148353},"geometry":{"x":178161.5700000003,"y":2565226.5600000005}},{"attributes":{"ID":148355,"DIS_CODE":0,"TOWNNAME":"官田區","LI":"東庄里","LIN":"8鄰","STREET":" ","SECT":" ","MAREA":"西庄","LANE":" ","ALLEY":" ","HOUSE_NO":"１４５號","E_COORD97":178048.94,"N_COORD97":2565176.6099999999,"ADDRESS":"西庄１４５號","OBJECTID":148354},"geometry":{"x":178048.94000000041,"y":2565176.6100000013}},{"attributes":{"ID":148356,"DIS_CODE":0,"TOWNNAME":"官田區","LI":"隆本里","LIN":"3鄰","STREET":"中華路","SECT":"二段","MAREA":" ","LANE":"５８巷","ALLEY":"１弄","HOUSE_NO":"６號","E_COORD97":180172.76999999999,"N_COORD97":2566439.2999999998,"ADDRESS":"中華路二段５８巷１弄６號","OBJECTID":148355},"geometry":{"x":180172.77000000048,"y":2566439.3000000007}},{"attributes":{"ID":148357,"DIS_CODE":0,"TOWNNAME":"官田區","LI":"東庄里","LIN":"8鄰","STREET":" ","SECT":" ","MAREA":"西庄","LANE":" ","ALLEY":" ","HOUSE_NO":"１４６號之１","E_COORD97":178087.12,"N_COORD97":2565187.48,"ADDRESS":"西庄１４６號之１","OBJECTID":148356},"geometry":{"x":178087.12000000197,"y":2565187.4800000042}},{"attributes":{"ID":148358,"DIS_CODE":0,"TOWNNAME":"官田區","LI":"東庄里","LIN":"8鄰","STREET":" ","SECT":" ","MAREA":"西庄","LANE":" ","ALLEY":" ","HOUSE_NO":"１４６號之２","E_COORD97":178087.20000000001,"N_COORD97":2565183.7400000002,"ADDRESS":"西庄１４６號之２","OBJECTID":148357},"geometry":{"x":178087.20000000112,"y":2565183.7400000021}},{"attributes":{"ID":148359,"DIS_CODE":0,"TOWNNAME":"官田區","LI":"東庄里","LIN":"8鄰","STREET":" ","SECT":" ","MAREA":"西庄","LANE":" ","ALLEY":" ","HOUSE_NO":"１４６號之３","E_COORD97":178087.91,"N_COORD97":2565179.7400000002,"ADDRESS":"西庄１４６號之３","OBJECTID":148358},"geometry":{"x":178087.91000000015,"y":2565179.7400000021}},{"attributes":{"ID":148360,"DIS_CODE":0,"TOWNNAME":"官田區","LI":"東庄里","LIN":"8鄰","STREET":" ","SECT":" ","MAREA":"西庄","LANE":" ","ALLEY":" ","HOUSE_NO":"１４６號之５","E_COORD97":178069.39999999999,"N_COORD97":2565181.2400000002,"ADDRESS":"西庄１４６號之５","OBJECTID":148359},"geometry":{"x":178069.40000000037,"y":2565181.2400000002}},{"attributes":{"ID":148361,"DIS_CODE":0,"TOWNNAME":"官田區","LI":"東庄里","LIN":"8鄰","STREET":" ","SECT":" ","MAREA":"西庄","LANE":" ","ALLEY":" ","HOUSE_NO":"１４６號","E_COORD97":178086.57000000001,"N_COORD97":2565191.2599999998,"ADDRESS":"西庄１４６號","OBJECTID":148360},"geometry":{"x":178086.57000000123,"y":2565191.2599999998}},{"attributes":{"ID":148362,"DIS_CODE":0,"TOWNNAME":"官田區","LI":"東庄里","LIN":"7鄰","STREET":" ","SECT":" ","MAREA":"西庄","LANE":" ","ALLEY":" ","HOUSE_NO":"１４０號之２","E_COORD97":178105.07999999999,"N_COORD97":2565202.8700000001,"ADDRESS":"西庄１４０號之２","OBJECTID":148361},"geometry":{"x":178105.08000000101,"y":2565202.8700000029}},{"attributes":{"ID":148363,"DIS_CODE":0,"TOWNNAME":"仁德區","LI":"仁德里","LIN":"19鄰","STREET":"文華一街","SECT":" ","MAREA":" ","LANE":" ","ALLEY":" ","HOUSE_NO":"３０號","E_COORD97":172291.25,"N_COORD97":2540299.8300000001,"ADDRESS":"文華一街３０號","OBJECTID":148362},"geometry":{"x":172291.25,"y":2540299.8300000019}},{"attributes":{"ID":148364,"DIS_CODE":0,"TOWNNAME":"官田區","LI":"隆本里","LIN":"3鄰","STREET":"中華路","SECT":"二段","MAREA":" ","LANE":"５８巷","ALLEY":"１弄","HOUSE_NO":"７號","E_COORD97":180157.16,"N_COORD97":2566449.1299999999,"ADDRESS":"中華路二段５８巷１弄７號","OBJECTID":148363},"geometry":{"x":180157.16000000108,"y":2566449.129999999}},{"attributes":{"ID":148365,"DIS_CODE":0,"TOWNNAME":"官田區","LI":"東庄里","LIN":"7鄰","STREET":" ","SECT":" ","MAREA":"西庄","LANE":" ","ALLEY":" ","HOUSE_NO":"１４０號之３","E_COORD97":178114.70000000001,"N_COORD97":2565220.1600000001,"ADDRESS":"西庄１４０號之３","OBJECTID":148364},"geometry":{"x":178114.70000000019,"y":2565220.1600000039}},{"attributes":{"ID":148366,"DIS_CODE":0,"TOWNNAME":"仁德區","LI":"仁德里","LIN":"19鄰","STREET":"民安路","SECT":"一段","MAREA":" ","LANE":" ","ALLEY":" ","HOUSE_NO":"２３１之２號","E_COORD97":172484.01999999999,"N_COORD97":2539811.5699999998,"ADDRESS":"民安路一段２３１之２號","OBJECTID":148365},"geometry":{"x":172484.01999999955,"y":2539811.5700000003}},{"attributes":{"ID":148367,"DIS_CODE":0,"TOWNNAME":"官田區","LI":"隆本里","LIN":"3鄰","STREET":"中華路","SECT":"二段","MAREA":" ","LANE":"５８巷","ALLEY":"１弄","HOUSE_NO":"８號","E_COORD97":180172.63,"N_COORD97":2566443.4399999999,"ADDRESS":"中華路二段５８巷１弄８號","OBJECTID":148366},"geometry":{"x":180172.63000000082,"y":2566443.4399999995}},{"attributes":{"ID":148368,"DIS_CODE":0,"TOWNNAME":"官田區","LI":"東庄里","LIN":"7鄰","STREET":" ","SECT":" ","MAREA":"西庄","LANE":" ","ALLEY":" ","HOUSE_NO":"１４０號","E_COORD97":178182.79000000001,"N_COORD97":2565200.6200000001,"ADDRESS":"西庄１４０號","OBJECTID":148367},"geometry":{"x":178182.79000000097,"y":2565200.6199999992}},{"attributes":{"ID":148369,"DIS_CODE":0,"TOWNNAME":"官田區","LI":"隆本里","LIN":"3鄰","STREET":"中華路","SECT":"二段","MAREA":" ","LANE":"５８巷","ALLEY":"１弄","HOUSE_NO":"９號","E_COORD97":180156.97,"N_COORD97":2566453.48,"ADDRESS":"中華路二段５８巷１弄９號","OBJECTID":148368},"geometry":{"x":180156.96999999974,"y":2566453.4800000023}},{"attributes":{"ID":148370,"DIS_CODE":0,"TOWNNAME":"東區","LI":"大智里","LIN":"30鄰","STREET":"德東街","SECT":" ","MAREA":" ","LANE":"１５１巷","ALLEY":"３７弄","HOUSE_NO":"１０號","E_COORD97":171154.39000000001,"N_COORD97":2540410.3500000001,"ADDRESS":"德東街１５１巷３７弄１０號","OBJECTID":148369},"geometry":{"x":171154.38999999966,"y":2540410.3499999996}},{"attributes":{"ID":148371,"DIS_CODE":0,"TOWNNAME":"東區","LI":"大智里","LIN":"30鄰","STREET":"德東街","SECT":" ","MAREA":" ","LANE":"１５１巷","ALLEY":"３７弄","HOUSE_NO":"１２號","E_COORD97":171153.89000000001,"N_COORD97":2540425.9100000001,"ADDRESS":"德東街１５１巷３７弄１２號","OBJECTID":148370},"geometry":{"x":171153.8900000006,"y":2540425.910000002}},{"attributes":{"ID":148372,"DIS_CODE":0,"TOWNNAME":"東區","LI":"大智里","LIN":"30鄰","STREET":"德東街","SECT":" ","MAREA":" ","LANE":"１５１巷","ALLEY":"３７弄","HOUSE_NO":"１４號","E_COORD97":171152.72,"N_COORD97":2540438.1200000001,"ADDRESS":"德東街１５１巷３７弄１４號","OBJECTID":148371},"geometry":{"x":171152.7200000016,"y":2540438.1200000029}},{"attributes":{"ID":148373,"DIS_CODE":0,"TOWNNAME":"官田區","LI":"東庄里","LIN":"7鄰","STREET":" ","SECT":" ","MAREA":"西庄","LANE":" ","ALLEY":" ","HOUSE_NO":"１４１號之１","E_COORD97":178094.72,"N_COORD97":2565224.27,"ADDRESS":"西庄１４１號之１","OBJECTID":148372},"geometry":{"x":178094.72000000067,"y":2565224.2699999996}},{"attributes":{"ID":148374,"DIS_CODE":0,"TOWNNAME":"官田區","LI":"東庄里","LIN":"7鄰","STREET":" ","SECT":" ","MAREA":"西庄","LANE":" ","ALLEY":" ","HOUSE_NO":"１４１號","E_COORD97":178087.19,"N_COORD97":2565208.7799999998,"ADDRESS":"西庄１４１號","OBJECTID":148373},"geometry":{"x":178087.19000000134,"y":2565208.7800000012}},{"attributes":{"ID":148375,"DIS_CODE":0,"TOWNNAME":"東區","LI":"大智里","LIN":"30鄰","STREET":"德東街","SECT":" ","MAREA":" ","LANE":"１５１巷","ALLEY":"３７弄","HOUSE_NO":"１６號","E_COORD97":171136.47,"N_COORD97":2540437.96,"ADDRESS":"德東街１５１巷３７弄１６號","OBJECTID":148374},"geometry":{"x":171136.47000000067,"y":2540437.9600000009}},{"attributes":{"ID":148376,"DIS_CODE":0,"TOWNNAME":"官田區","LI":"西庄里","LIN":"4鄰","STREET":" ","SECT":" ","MAREA":"西庄","LANE":" ","ALLEY":" ","HOUSE_NO":"２４號","E_COORD97":177852.87,"N_COORD97":2565142.7200000002,"ADDRESS":"西庄２４號","OBJECTID":148375},"geometry":{"x":177852.87000000011,"y":2565142.7200000025}},{"attributes":{"ID":148377,"DIS_CODE":0,"TOWNNAME":"東區","LI":"大智里","LIN":"30鄰","STREET":"德東街","SECT":" ","MAREA":" ","LANE":"１５１巷","ALLEY":"３７弄","HOUSE_NO":"１８號","E_COORD97":171137.64999999999,"N_COORD97":2540431.77,"ADDRESS":"德東街１５１巷３７弄１８號","OBJECTID":148376},"geometry":{"x":171137.6500000013,"y":2540431.7700000033}},{"attributes":{"ID":148378,"DIS_CODE":0,"TOWNNAME":"東區","LI":"大智里","LIN":"30鄰","STREET":"德東街","SECT":" ","MAREA":" ","LANE":"１５１巷","ALLEY":"３７弄","HOUSE_NO":"２０號","E_COORD97":171137.64999999999,"N_COORD97":2540425.0699999998,"ADDRESS":"德東街１５１巷３７弄２０號","OBJECTID":148377},"geometry":{"x":171137.6500000013,"y":2540425.0700000022}},{"attributes":{"ID":148379,"DIS_CODE":0,"TOWNNAME":"東區","LI":"大智里","LIN":"30鄰","STREET":"德東街","SECT":" ","MAREA":" ","LANE":"１５１巷","ALLEY":"３７弄","HOUSE_NO":"２２號","E_COORD97":171137.64999999999,"N_COORD97":2540418.0499999998,"ADDRESS":"德東街１５１巷３７弄２２號","OBJECTID":148378},"geometry":{"x":171137.6500000013,"y":2540418.0500000026}},{"attributes":{"ID":148380,"DIS_CODE":0,"TOWNNAME":"仁德區","LI":"仁德里","LIN":"19鄰","STREET":"文華一街","SECT":" ","MAREA":" ","LANE":" ","ALLEY":" ","HOUSE_NO":"３４號","E_COORD97":172303.13,"N_COORD97":2540298.5800000001,"ADDRESS":"文華一街３４號","OBJECTID":148379},"geometry":{"x":172303.13000000082,"y":2540298.5800000019}},{"attributes":{"ID":148381,"DIS_CODE":0,"TOWNNAME":"東區","LI":"大智里","LIN":"30鄰","STREET":"德東街","SECT":" ","MAREA":" ","LANE":"１５１巷","ALLEY":"３７弄","HOUSE_NO":"２４號","E_COORD97":171138.82000000001,"N_COORD97":2540408.3399999999,"ADDRESS":"德東街１５１巷３７弄２４號","OBJECTID":148380},"geometry":{"x":171138.8200000003,"y":2540408.3400000017}},{"attributes":{"ID":148382,"DIS_CODE":0,"TOWNNAME":"官田區","LI":"西庄里","LIN":"4鄰","STREET":" ","SECT":" ","MAREA":"西庄","LANE":" ","ALLEY":" ","HOUSE_NO":"２５號","E_COORD97":177830.62,"N_COORD97":2565148.1899999999,"ADDRESS":"西庄２５號","OBJECTID":148381},"geometry":{"x":177830.62000000011,"y":2565148.1900000013}},{"attributes":{"ID":148383,"DIS_CODE":0,"TOWNNAME":"官田區","LI":"西庄里","LIN":"4鄰","STREET":" ","SECT":" ","MAREA":"西庄","LANE":" ","ALLEY":" ","HOUSE_NO":"２６號之１","E_COORD97":177814.5,"N_COORD97":2565140.0699999998,"ADDRESS":"西庄２６號之１","OBJECTID":148382},"geometry":{"x":177814.5,"y":2565140.0700000022}},{"attributes":{"ID":148384,"DIS_CODE":0,"TOWNNAME":"官田區","LI":"西庄里","LIN":"4鄰","STREET":" ","SECT":" ","MAREA":"西庄","LANE":" ","ALLEY":" ","HOUSE_NO":"２７號","E_COORD97":177806.32999999999,"N_COORD97":2565124.9199999999,"ADDRESS":"西庄２７號","OBJECTID":148383},"geometry":{"x":177806.33000000101,"y":2565124.9199999999}},{"attributes":{"ID":148385,"DIS_CODE":0,"TOWNNAME":"官田區","LI":"西庄里","LIN":"4鄰","STREET":" ","SECT":" ","MAREA":"西庄","LANE":" ","ALLEY":" ","HOUSE_NO":"２８號","E_COORD97":177790.53,"N_COORD97":2565116.6800000002,"ADDRESS":"西庄２８號","OBJECTID":148384},"geometry":{"x":177790.53000000026,"y":2565116.6799999997}},{"attributes":{"ID":148386,"DIS_CODE":0,"TOWNNAME":"官田區","LI":"西庄里","LIN":"4鄰","STREET":" ","SECT":" ","MAREA":"西庄","LANE":" ","ALLEY":" ","HOUSE_NO":"２９號之４","E_COORD97":177770.95000000001,"N_COORD97":2565092.7999999998,"ADDRESS":"西庄２９號之４","OBJECTID":148385},"geometry":{"x":177770.95000000019,"y":2565092.8000000007}},{"attributes":{"ID":148387,"DIS_CODE":0,"TOWNNAME":"官田區","LI":"西庄里","LIN":"4鄰","STREET":" ","SECT":" ","MAREA":"西庄","LANE":" ","ALLEY":" ","HOUSE_NO":"２９號","E_COORD97":177767.92999999999,"N_COORD97":2565078.79,"ADDRESS":"西庄２９號","OBJECTID":148386},"geometry":{"x":177767.93000000063,"y":2565078.7899999972}},{"attributes":{"ID":148388,"DIS_CODE":0,"TOWNNAME":"官田區","LI":"東庄里","LIN":"15鄰","STREET":" ","SECT":" ","MAREA":"西庄","LANE":" ","ALLEY":" ","HOUSE_NO":"１９３號","E_COORD97":177926.42999999999,"N_COORD97":2565031.1099999999,"ADDRESS":"西庄１９３號","OBJECTID":148387},"geometry":{"x":177926.4299999997,"y":2565031.1100000013}},{"attributes":{"ID":148389,"DIS_CODE":0,"TOWNNAME":"官田區","LI":"東庄里","LIN":"15鄰","STREET":" ","SECT":" ","MAREA":"西庄","LANE":" ","ALLEY":" ","HOUSE_NO":"１９４號之１","E_COORD97":177909.07999999999,"N_COORD97":2565055.5099999998,"ADDRESS":"西庄１９４號之１","OBJECTID":148388},"geometry":{"x":177909.08000000007,"y":2565055.5100000016}},{"attributes":{"ID":148390,"DIS_CODE":0,"TOWNNAME":"麻豆區","LI":"海埔里","LIN":"5鄰","STREET":" ","SECT":" ","MAREA":"海埔","LANE":" ","ALLEY":" ","HOUSE_NO":"５號","E_COORD97":169524.29000000001,"N_COORD97":2566692.46,"ADDRESS":"海埔５號","OBJECTID":148389},"geometry":{"x":169524.29000000097,"y":2566692.4600000009}},{"attributes":{"ID":148391,"DIS_CODE":0,"TOWNNAME":"官田區","LI":"東庄里","LIN":"15鄰","STREET":" ","SECT":" ","MAREA":"西庄","LANE":" ","ALLEY":" ","HOUSE_NO":"１９４號之３","E_COORD97":177918.5,"N_COORD97":2565052.2400000002,"ADDRESS":"西庄１９４號之３","OBJECTID":148390},"geometry":{"x":177918.50000000093,"y":2565052.2400000002}},{"attributes":{"ID":148392,"DIS_CODE":0,"TOWNNAME":"官田區","LI":"東庄里","LIN":"15鄰","STREET":" ","SECT":" ","MAREA":"西庄","LANE":" ","ALLEY":" ","HOUSE_NO":"１９４號","E_COORD97":177906.82000000001,"N_COORD97":2565045.29,"ADDRESS":"西庄１９４號","OBJECTID":148391},"geometry":{"x":177906.82000000123,"y":2565045.2900000028}},{"attributes":{"ID":148393,"DIS_CODE":0,"TOWNNAME":"官田區","LI":"西庄里","LIN":"1鄰","STREET":" ","SECT":" ","MAREA":"西庄","LANE":" ","ALLEY":" ","HOUSE_NO":"１號之１","E_COORD97":177888.95999999999,"N_COORD97":2564975.4100000001,"ADDRESS":"西庄１號之１","OBJECTID":148392},"geometry":{"x":177888.95999999996,"y":2564975.410000002}},{"attributes":{"ID":148394,"DIS_CODE":0,"TOWNNAME":"官田區","LI":"西庄里","LIN":"1鄰","STREET":" ","SECT":" ","MAREA":"西庄","LANE":" ","ALLEY":" ","HOUSE_NO":"１號之２","E_COORD97":177889.28,"N_COORD97":2564982.75,"ADDRESS":"西庄１號之２","OBJECTID":148393},"geometry":{"x":177889.28000000026,"y":2564982.7500000019}},{"attributes":{"ID":148395,"DIS_CODE":0,"TOWNNAME":"官田區","LI":"西庄里","LIN":"1鄰","STREET":" ","SECT":" ","MAREA":"西庄","LANE":" ","ALLEY":" ","HOUSE_NO":"１號","E_COORD97":177886.26000000001,"N_COORD97":2564969.0600000001,"ADDRESS":"西庄１號","OBJECTID":148394},"geometry":{"x":177886.26000000071,"y":2564969.0600000005}},{"attributes":{"ID":148396,"DIS_CODE":0,"TOWNNAME":"官田區","LI":"西庄里","LIN":"1鄰","STREET":" ","SECT":" ","MAREA":"西庄","LANE":" ","ALLEY":" ","HOUSE_NO":"２號之１","E_COORD97":177862.06,"N_COORD97":2564976.5499999998,"ADDRESS":"西庄２號之１","OBJECTID":148395},"geometry":{"x":177862.06000000052,"y":2564976.5500000007}},{"attributes":{"ID":148397,"DIS_CODE":0,"TOWNNAME":"官田區","LI":"西庄里","LIN":"1鄰","STREET":" ","SECT":" ","MAREA":"西庄","LANE":" ","ALLEY":" ","HOUSE_NO":"２號","E_COORD97":177878.09,"N_COORD97":2564978.4199999999,"ADDRESS":"西庄２號","OBJECTID":148396},"geometry":{"x":177878.08999999985,"y":2564978.4200000018}},{"attributes":{"ID":148398,"DIS_CODE":0,"TOWNNAME":"南區","LI":"府南里","LIN":" ","STREET":"大成路","SECT":"二段","MAREA":" ","LANE":" ","ALLEY":" ","HOUSE_NO":"５９之５號","E_COORD97":167520.79999999999,"N_COORD97":2541725.9199999999,"ADDRESS":"大成路二段５９之５號","OBJECTID":148397},"geometry":{"x":167520.79999999981,"y":2541725.9200000037}},{"attributes":{"ID":148399,"DIS_CODE":0,"TOWNNAME":"仁德區","LI":"土庫里","LIN":"3鄰","STREET":"土庫路","SECT":" ","MAREA":" ","LANE":"２００巷","ALLEY":"２４弄","HOUSE_NO":"１號","E_COORD97":174213.92000000001,"N_COORD97":2542910.5,"ADDRESS":"土庫路２００巷２４弄１號","OBJECTID":148398},"geometry":{"x":174213.91999999993,"y":2542910.5000000019}},{"attributes":{"ID":148400,"DIS_CODE":0,"TOWNNAME":"官田區","LI":"西庄里","LIN":"6鄰","STREET":" ","SECT":" ","MAREA":"西庄","LANE":" ","ALLEY":" ","HOUSE_NO":"４５號","E_COORD97":177867.57999999999,"N_COORD97":2565160.9900000002,"ADDRESS":"西庄４５號","OBJECTID":148399},"geometry":{"x":177867.58000000101,"y":2565160.9900000021}},{"attributes":{"ID":148401,"DIS_CODE":0,"TOWNNAME":"官田區","LI":"西庄里","LIN":"3鄰","STREET":" ","SECT":" ","MAREA":"西庄","LANE":" ","ALLEY":" ","HOUSE_NO":"１９號","E_COORD97":177811.70999999999,"N_COORD97":2565074.6299999999,"ADDRESS":"西庄１９號","OBJECTID":148400},"geometry":{"x":177811.71000000183,"y":2565074.6300000008}}]}