{"displayFieldName":"TOWNNAME","fieldAliases":{"ID":"ID","DIS_CODE":"DIS_CODE","TOWNNAME":"TOWNNAME","LI":"LI","LIN":"LIN","STREET":"STREET","SECT":"SECT","MAREA":"MAREA","LANE":"LANE","ALLEY":"ALLEY","HOUSE_NO":"HOUSE_NO","E_COORD97":"E_COORD97","N_COORD97":"N_COORD97","ADDRESS":"ADDRESS","OBJECTID":"OBJECTID"},"geometryType":"esriGeometryPoint","spatialReference":{"wkid":102443,"latestWkid":3826},"fields":[{"name":"ID","type":"esriFieldTypeDouble","alias":"ID"},{"name":"DIS_CODE","type":"esriFieldTypeInteger","alias":"DIS_CODE"},{"name":"TOWNNAME","type":"esriFieldTypeString","alias":"TOWNNAME","length":8},{"name":"LI","type":"esriFieldTypeString","alias":"LI","length":8},{"name":"LIN","type":"esriFieldTypeString","alias":"LIN","length":12},{"name":"STREET","type":"esriFieldTypeString","alias":"STREET","length":20},{"name":"SECT","type":"esriFieldTypeString","alias":"SECT","length":8},{"name":"MAREA","type":"esriFieldTypeString","alias":"MAREA","length":12},{"name":"LANE","type":"esriFieldTypeString","alias":"LANE","length":10},{"name":"ALLEY","type":"esriFieldTypeString","alias":"ALLEY","length":10},{"name":"HOUSE_NO","type":"esriFieldTypeString","alias":"HOUSE_NO","length":20},{"name":"E_COORD97","type":"esriFieldTypeDouble","alias":"E_COORD97"},{"name":"N_COORD97","type":"esriFieldTypeDouble","alias":"N_COORD97"},{"name":"ADDRESS","type":"esriFieldTypeString","alias":"ADDRESS","length":50},{"name":"OBJECTID","type":"esriFieldTypeOID","alias":"OBJECTID"}],"features":[{"attributes":{"ID":306209,"DIS_CODE":0,"TOWNNAME":"南區","LI":"大成里","LIN":"4鄰","STREET":"西門路","SECT":"一段","MAREA":" ","LANE":"３８０巷","ALLEY":" ","HOUSE_NO":"１７號","E_COORD97":167822.14000000001,"N_COORD97":2542400.8300000001,"ADDRESS":"西門路一段３８０巷１７號","OBJECTID":306201},"geometry":{"x":167822.14000000153,"y":2542400.8300000001}},{"attributes":{"ID":306210,"DIS_CODE":0,"TOWNNAME":"南區","LI":"大成里","LIN":"4鄰","STREET":"西門路","SECT":"一段","MAREA":" ","LANE":"３８０巷","ALLEY":" ","HOUSE_NO":"１８號","E_COORD97":167822.32000000001,"N_COORD97":2542381.4900000002,"ADDRESS":"西門路一段３８０巷１８號","OBJECTID":306202},"geometry":{"x":167822.32000000123,"y":2542381.4900000021}},{"attributes":{"ID":306211,"DIS_CODE":0,"TOWNNAME":"南區","LI":"大成里","LIN":"4鄰","STREET":"西門路","SECT":"一段","MAREA":" ","LANE":"３８０巷","ALLEY":" ","HOUSE_NO":"１９號","E_COORD97":167826.72,"N_COORD97":2542400.6499999999,"ADDRESS":"西門路一段３８０巷１９號","OBJECTID":306203},"geometry":{"x":167826.7200000016,"y":2542400.6500000022}},{"attributes":{"ID":306212,"DIS_CODE":0,"TOWNNAME":"永康區","LI":"安康里","LIN":"8鄰","STREET":"中山南路","SECT":" ","MAREA":" ","LANE":"１１９巷","ALLEY":" ","HOUSE_NO":"１３號","E_COORD97":171045.67999999999,"N_COORD97":2545995.25,"ADDRESS":"中山南路１１９巷１３號","OBJECTID":306204},"geometry":{"x":171045.6799999997,"y":2545995.25}},{"attributes":{"ID":306213,"DIS_CODE":0,"TOWNNAME":"永康區","LI":"永康里","LIN":"8鄰","STREET":"永中街","SECT":" ","MAREA":" ","LANE":"５３巷","ALLEY":" ","HOUSE_NO":"１４號","E_COORD97":173870.82000000001,"N_COORD97":2547254.75,"ADDRESS":"永中街５３巷１４號","OBJECTID":306205},"geometry":{"x":173870.82000000123,"y":2547254.7500000019}},{"attributes":{"ID":306214,"DIS_CODE":0,"TOWNNAME":"永康區","LI":"永康里","LIN":"8鄰","STREET":"永中街","SECT":" ","MAREA":" ","LANE":"５３巷","ALLEY":" ","HOUSE_NO":"１６號","E_COORD97":173864.82999999999,"N_COORD97":2547260.25,"ADDRESS":"永中街５３巷１６號","OBJECTID":306206},"geometry":{"x":173864.83000000101,"y":2547260.2500000037}},{"attributes":{"ID":306215,"DIS_CODE":0,"TOWNNAME":"永康區","LI":"西橋里","LIN":"8鄰","STREET":"中華西街","SECT":" ","MAREA":" ","LANE":"８５巷","ALLEY":" ","HOUSE_NO":"７號","E_COORD97":170668.79999999999,"N_COORD97":2546059.4900000002,"ADDRESS":"中華西街８５巷７號","OBJECTID":306207},"geometry":{"x":170668.79999999981,"y":2546059.4900000021}},{"attributes":{"ID":306216,"DIS_CODE":0,"TOWNNAME":"永康區","LI":"甲頂里","LIN":"8鄰","STREET":"中華路","SECT":" ","MAREA":" ","LANE":"８９３巷","ALLEY":" ","HOUSE_NO":"４號","E_COORD97":170458.57999999999,"N_COORD97":2546671.0600000001,"ADDRESS":"中華路８９３巷４號","OBJECTID":306208},"geometry":{"x":170458.58000000007,"y":2546671.0600000005}},{"attributes":{"ID":306217,"DIS_CODE":0,"TOWNNAME":"永康區","LI":"東橋里","LIN":"17鄰","STREET":"東橋十街","SECT":" ","MAREA":" ","LANE":" ","ALLEY":" ","HOUSE_NO":"４５號","E_COORD97":171505.95000000001,"N_COORD97":2547066.0699999998,"ADDRESS":"東橋十街４５號","OBJECTID":306209},"geometry":{"x":171505.95000000205,"y":2547066.0700000022}},{"attributes":{"ID":306218,"DIS_CODE":0,"TOWNNAME":"永康區","LI":"東橋里","LIN":"17鄰","STREET":"東橋十二街","SECT":" ","MAREA":" ","LANE":" ","ALLEY":" ","HOUSE_NO":"２號","E_COORD97":171380.35999999999,"N_COORD97":2547095.5499999998,"ADDRESS":"東橋十二街２號","OBJECTID":306210},"geometry":{"x":171380.36000000127,"y":2547095.5500000007}},{"attributes":{"ID":306219,"DIS_CODE":0,"TOWNNAME":"永康區","LI":"東橋里","LIN":"17鄰","STREET":"東橋十二街","SECT":" ","MAREA":" ","LANE":" ","ALLEY":" ","HOUSE_NO":"６號","E_COORD97":171386.85000000001,"N_COORD97":2547099.1200000001,"ADDRESS":"東橋十二街６號","OBJECTID":306211},"geometry":{"x":171386.84999999963,"y":2547099.120000001}},{"attributes":{"ID":306220,"DIS_CODE":0,"TOWNNAME":"永康區","LI":"東橋里","LIN":"17鄰","STREET":"東橋十二街","SECT":" ","MAREA":" ","LANE":" ","ALLEY":" ","HOUSE_NO":"８號","E_COORD97":171391.56,"N_COORD97":2547103.8900000001,"ADDRESS":"東橋十二街８號","OBJECTID":306212},"geometry":{"x":171391.56000000052,"y":2547103.8899999987}},{"attributes":{"ID":306221,"DIS_CODE":0,"TOWNNAME":"永康區","LI":"東橋里","LIN":"17鄰","STREET":"東橋十二街","SECT":" ","MAREA":" ","LANE":" ","ALLEY":" ","HOUSE_NO":"１０號","E_COORD97":171397.64000000001,"N_COORD97":2547105.8100000001,"ADDRESS":"東橋十二街１０號","OBJECTID":306213},"geometry":{"x":171397.6400000006,"y":2547105.8100000024}},{"attributes":{"ID":306222,"DIS_CODE":0,"TOWNNAME":"永康區","LI":"東橋里","LIN":"17鄰","STREET":"東橋十二街","SECT":" ","MAREA":" ","LANE":" ","ALLEY":" ","HOUSE_NO":"１２號","E_COORD97":171402.31,"N_COORD97":2547110.5499999998,"ADDRESS":"東橋十二街１２號","OBJECTID":306214},"geometry":{"x":171402.30999999959,"y":2547110.5500000026}},{"attributes":{"ID":306223,"DIS_CODE":0,"TOWNNAME":"永康區","LI":"東橋里","LIN":"17鄰","STREET":"東橋十二街","SECT":" ","MAREA":" ","LANE":" ","ALLEY":" ","HOUSE_NO":"１６號","E_COORD97":171408.42000000001,"N_COORD97":2547112.4900000002,"ADDRESS":"東橋十二街１６號","OBJECTID":306215},"geometry":{"x":171408.41999999993,"y":2547112.4900000002}},{"attributes":{"ID":306224,"DIS_CODE":0,"TOWNNAME":"永康區","LI":"東橋里","LIN":"17鄰","STREET":"東橋十二街","SECT":" ","MAREA":" ","LANE":" ","ALLEY":" ","HOUSE_NO":"１８號","E_COORD97":171413.06,"N_COORD97":2547117.2200000002,"ADDRESS":"東橋十二街１８號","OBJECTID":306216},"geometry":{"x":171413.06000000145,"y":2547117.2200000007}},{"attributes":{"ID":306225,"DIS_CODE":0,"TOWNNAME":"永康區","LI":"東橋里","LIN":"17鄰","STREET":"東橋十二街","SECT":" ","MAREA":" ","LANE":" ","ALLEY":" ","HOUSE_NO":"２０號","E_COORD97":171419.26000000001,"N_COORD97":2547119.2200000002,"ADDRESS":"東橋十二街２０號","OBJECTID":306217},"geometry":{"x":171419.26000000071,"y":2547119.2200000025}},{"attributes":{"ID":306226,"DIS_CODE":0,"TOWNNAME":"永康區","LI":"東橋里","LIN":"17鄰","STREET":"東橋十二街","SECT":" ","MAREA":" ","LANE":" ","ALLEY":" ","HOUSE_NO":"２８號","E_COORD97":171434.76999999999,"N_COORD97":2547130.6899999999,"ADDRESS":"東橋十二街２８號","OBJECTID":306218},"geometry":{"x":171434.76999999955,"y":2547130.6899999995}},{"attributes":{"ID":306227,"DIS_CODE":0,"TOWNNAME":"永康區","LI":"東橋里","LIN":"17鄰","STREET":"東橋十二街","SECT":" ","MAREA":" ","LANE":" ","ALLEY":" ","HOUSE_NO":"３０號","E_COORD97":171440.97,"N_COORD97":2547132.6800000002,"ADDRESS":"東橋十二街３０號","OBJECTID":306219},"geometry":{"x":171440.9700000016,"y":2547132.6800000016}},{"attributes":{"ID":306228,"DIS_CODE":0,"TOWNNAME":"永康區","LI":"東橋里","LIN":"17鄰","STREET":"東橋十二街","SECT":" ","MAREA":" ","LANE":" ","ALLEY":" ","HOUSE_NO":"３２號","E_COORD97":171445.51999999999,"N_COORD97":2547137.3500000001,"ADDRESS":"東橋十二街３２號","OBJECTID":306220},"geometry":{"x":171445.52000000142,"y":2547137.3500000034}},{"attributes":{"ID":306229,"DIS_CODE":0,"TOWNNAME":"永康區","LI":"東橋里","LIN":"17鄰","STREET":"東橋十二街","SECT":" ","MAREA":" ","LANE":" ","ALLEY":" ","HOUSE_NO":"３６號","E_COORD97":171451.75,"N_COORD97":2547139.3700000001,"ADDRESS":"東橋十二街３６號","OBJECTID":306221},"geometry":{"x":171451.75000000093,"y":2547139.3700000029}},{"attributes":{"ID":306230,"DIS_CODE":0,"TOWNNAME":"新化區","LI":"太平里","LIN":"17鄰","STREET":"民權街","SECT":" ","MAREA":" ","LANE":" ","ALLEY":" ","HOUSE_NO":"９６號","E_COORD97":178760.26000000001,"N_COORD97":2548717.25,"ADDRESS":"民權街９６號","OBJECTID":306222},"geometry":{"x":178760.25999999978,"y":2548717.25}},{"attributes":{"ID":306231,"DIS_CODE":0,"TOWNNAME":"新化區","LI":"太平里","LIN":"17鄰","STREET":"太平街","SECT":" ","MAREA":" ","LANE":" ","ALLEY":" ","HOUSE_NO":"７７號","E_COORD97":178774.07000000001,"N_COORD97":2548765.25,"ADDRESS":"太平街７７號","OBJECTID":306223},"geometry":{"x":178774.06999999937,"y":2548765.25}},{"attributes":{"ID":306232,"DIS_CODE":0,"TOWNNAME":"南區","LI":"大成里","LIN":"4鄰","STREET":"西門路","SECT":"一段","MAREA":" ","LANE":"３８０巷","ALLEY":" ","HOUSE_NO":"６號","E_COORD97":167794.98000000001,"N_COORD97":2542381.4900000002,"ADDRESS":"西門路一段３８０巷６號","OBJECTID":306224},"geometry":{"x":167794.98000000045,"y":2542381.4900000021}},{"attributes":{"ID":306233,"DIS_CODE":0,"TOWNNAME":"南區","LI":"大成里","LIN":"4鄰","STREET":"西門路","SECT":"一段","MAREA":" ","LANE":"３８０巷","ALLEY":" ","HOUSE_NO":"７號","E_COORD97":167799.20999999999,"N_COORD97":2542401.3599999999,"ADDRESS":"西門路一段３８０巷７號","OBJECTID":306225},"geometry":{"x":167799.20999999996,"y":2542401.3600000013}},{"attributes":{"ID":306234,"DIS_CODE":0,"TOWNNAME":"南區","LI":"大成里","LIN":"4鄰","STREET":"西門路","SECT":"一段","MAREA":" ","LANE":"３８０巷","ALLEY":" ","HOUSE_NO":"８號","E_COORD97":167799.57000000001,"N_COORD97":2542381.4900000002,"ADDRESS":"西門路一段３８０巷８號","OBJECTID":306226},"geometry":{"x":167799.57000000216,"y":2542381.4900000021}},{"attributes":{"ID":306235,"DIS_CODE":0,"TOWNNAME":"南區","LI":"大成里","LIN":"4鄰","STREET":"西門路","SECT":"一段","MAREA":" ","LANE":"３８０巷","ALLEY":" ","HOUSE_NO":"９號","E_COORD97":167804.14999999999,"N_COORD97":2542401.0099999998,"ADDRESS":"西門路一段３８０巷９號","OBJECTID":306227},"geometry":{"x":167804.15000000224,"y":2542401.0100000016}},{"attributes":{"ID":306236,"DIS_CODE":0,"TOWNNAME":"南區","LI":"大成里","LIN":"1鄰","STREET":"健康路","SECT":"一段","MAREA":" ","LANE":"３５７巷","ALLEY":" ","HOUSE_NO":"１７號","E_COORD97":167995.31,"N_COORD97":2542384.3999999999,"ADDRESS":"健康路一段３５７巷１７號","OBJECTID":306228},"geometry":{"x":167995.30999999959,"y":2542384.4000000041}},{"attributes":{"ID":306237,"DIS_CODE":0,"TOWNNAME":"南區","LI":"大成里","LIN":"4鄰","STREET":"西門路","SECT":"一段","MAREA":" ","LANE":"３８０巷","ALLEY":" ","HOUSE_NO":"２５號","E_COORD97":167840.48000000001,"N_COORD97":2542400.8300000001,"ADDRESS":"西門路一段３８０巷２５號","OBJECTID":306229},"geometry":{"x":167840.48000000045,"y":2542400.8300000001}},{"attributes":{"ID":306238,"DIS_CODE":0,"TOWNNAME":"南區","LI":"大成里","LIN":" ","STREET":"健康路","SECT":"一段","MAREA":" ","LANE":"３３３巷","ALLEY":" ","HOUSE_NO":"１０號","E_COORD97":168062.48000000001,"N_COORD97":2542380.6099999999,"ADDRESS":"健康路一段３３３巷１０號","OBJECTID":306230},"geometry":{"x":168062.48000000045,"y":2542380.6099999994}},{"attributes":{"ID":306239,"DIS_CODE":0,"TOWNNAME":"南區","LI":"大忠里","LIN":"4鄰","STREET":"大同路","SECT":"二段","MAREA":" ","LANE":"４８２巷","ALLEY":" ","HOUSE_NO":"３１號","E_COORD97":169376.60000000001,"N_COORD97":2541446.02,"ADDRESS":"大同路二段４８２巷３１號","OBJECTID":306231},"geometry":{"x":169376.59999999963,"y":2541446.0199999996}},{"attributes":{"ID":306240,"DIS_CODE":0,"TOWNNAME":"南區","LI":"大忠里","LIN":"1鄰","STREET":"大同路","SECT":"二段","MAREA":" ","LANE":"４８２巷","ALLEY":" ","HOUSE_NO":"１號","E_COORD97":169451.29999999999,"N_COORD97":2541483.6499999999,"ADDRESS":"大同路二段４８２巷１號","OBJECTID":306232},"geometry":{"x":169451.29999999981,"y":2541483.6500000004}},{"attributes":{"ID":306241,"DIS_CODE":0,"TOWNNAME":"南區","LI":"大忠里","LIN":"32鄰","STREET":"國民路","SECT":" ","MAREA":" ","LANE":"２７０巷","ALLEY":" ","HOUSE_NO":"１８號","E_COORD97":169025.06,"N_COORD97":2541453.7000000002,"ADDRESS":"國民路２７０巷１８號","OBJECTID":306233},"geometry":{"x":169025.06000000052,"y":2541453.7000000011}},{"attributes":{"ID":306242,"DIS_CODE":0,"TOWNNAME":"南區","LI":"大忠里","LIN":"32鄰","STREET":"國民路","SECT":" ","MAREA":" ","LANE":"２７０巷","ALLEY":" ","HOUSE_NO":"１０１號","E_COORD97":168996.16,"N_COORD97":2541467.4100000001,"ADDRESS":"國民路２７０巷１０１號","OBJECTID":306234},"geometry":{"x":168996.16000000108,"y":2541467.4100000001}},{"attributes":{"ID":306243,"DIS_CODE":0,"TOWNNAME":"南區","LI":"大忠里","LIN":"32鄰","STREET":"國民路","SECT":" ","MAREA":" ","LANE":"２７０巷","ALLEY":" ","HOUSE_NO":"１０３號","E_COORD97":169000.60000000001,"N_COORD97":2541471.2000000002,"ADDRESS":"國民路２７０巷１０３號","OBJECTID":306235},"geometry":{"x":169000.60000000149,"y":2541471.1999999993}},{"attributes":{"ID":306244,"DIS_CODE":0,"TOWNNAME":"永康區","LI":"永康里","LIN":"8鄰","STREET":"永中街","SECT":" ","MAREA":" ","LANE":"５３巷","ALLEY":" ","HOUSE_NO":"１０號","E_COORD97":173888.47,"N_COORD97":2547247.5,"ADDRESS":"永中街５３巷１０號","OBJECTID":306236},"geometry":{"x":173888.46999999974,"y":2547247.5}},{"attributes":{"ID":306245,"DIS_CODE":0,"TOWNNAME":"中西區","LI":"元安里","LIN":"8鄰","STREET":"西門路","SECT":"一段","MAREA":" ","LANE":"７１５巷","ALLEY":" ","HOUSE_NO":"２號","E_COORD97":167690.78,"N_COORD97":2543293.2400000002,"ADDRESS":"西門路一段７１５巷２號","OBJECTID":306237},"geometry":{"x":167690.78000000026,"y":2543293.2400000002}},{"attributes":{"ID":306246,"DIS_CODE":0,"TOWNNAME":"安南區","LI":"溪北里","LIN":"17鄰","STREET":"惠安街","SECT":" ","MAREA":" ","LANE":" ","ALLEY":" ","HOUSE_NO":"７號","E_COORD97":169136.23999999999,"N_COORD97":2547456.5699999998,"ADDRESS":"惠安街７號","OBJECTID":306238},"geometry":{"x":169136.24000000115,"y":2547456.5700000022}},{"attributes":{"ID":306247,"DIS_CODE":0,"TOWNNAME":"安南區","LI":"州南里","LIN":"17鄰","STREET":"州南五街","SECT":" ","MAREA":" ","LANE":" ","ALLEY":" ","HOUSE_NO":"１１０號","E_COORD97":169836.227415,"N_COORD97":2550674.3465200001,"ADDRESS":"州南五街１１０號","OBJECTID":306239},"geometry":{"x":169836.22741500102,"y":2550674.3465250023}},{"attributes":{"ID":306248,"DIS_CODE":0,"TOWNNAME":"安南區","LI":"梅花里","LIN":"17鄰","STREET":"安中路","SECT":"一段","MAREA":" ","LANE":" ","ALLEY":" ","HOUSE_NO":"７２５號","E_COORD97":167498.51000000001,"N_COORD97":2549291.7400000002,"ADDRESS":"安中路一段７２５號","OBJECTID":306240},"geometry":{"x":167498.50999999978,"y":2549291.7400000039}},{"attributes":{"ID":306249,"DIS_CODE":0,"TOWNNAME":"安南區","LI":"梅花里","LIN":"17鄰","STREET":"安中路","SECT":"一段","MAREA":" ","LANE":" ","ALLEY":" ","HOUSE_NO":"７３１號","E_COORD97":167487.23000000001,"N_COORD97":2549299.6099999999,"ADDRESS":"安中路一段７３１號","OBJECTID":306241},"geometry":{"x":167487.23000000138,"y":2549299.6100000013}},{"attributes":{"ID":306250,"DIS_CODE":0,"TOWNNAME":"安南區","LI":"梅花里","LIN":"17鄰","STREET":"安中路","SECT":"一段","MAREA":" ","LANE":" ","ALLEY":" ","HOUSE_NO":"７３７號","E_COORD97":167475.73999999999,"N_COORD97":2549306.6200000001,"ADDRESS":"安中路一段７３７號","OBJECTID":306242},"geometry":{"x":167475.74000000022,"y":2549306.6200000048}},{"attributes":{"ID":306251,"DIS_CODE":0,"TOWNNAME":"安南區","LI":"梅花里","LIN":"17鄰","STREET":"安中路","SECT":"一段","MAREA":" ","LANE":" ","ALLEY":" ","HOUSE_NO":"７３９號","E_COORD97":167471.70000000001,"N_COORD97":2549309.1699999999,"ADDRESS":"安中路一段７３９號","OBJECTID":306243},"geometry":{"x":167471.70000000112,"y":2549309.1700000018}},{"attributes":{"ID":306252,"DIS_CODE":0,"TOWNNAME":"安南區","LI":"梅花里","LIN":"17鄰","STREET":"安中路","SECT":"一段","MAREA":" ","LANE":" ","ALLEY":" ","HOUSE_NO":"７４１號","E_COORD97":167467.66,"N_COORD97":2549310.8799999999,"ADDRESS":"安中路一段７４１號","OBJECTID":306244},"geometry":{"x":167467.66000000015,"y":2549310.8800000008}},{"attributes":{"ID":306253,"DIS_CODE":0,"TOWNNAME":"安南區","LI":"梅花里","LIN":"17鄰","STREET":"安中路","SECT":"一段","MAREA":" ","LANE":" ","ALLEY":" ","HOUSE_NO":"７５５號","E_COORD97":167438.07999999999,"N_COORD97":2549324.27,"ADDRESS":"安中路一段７５５號","OBJECTID":306245},"geometry":{"x":167438.08000000194,"y":2549324.2699999977}},{"attributes":{"ID":306254,"DIS_CODE":0,"TOWNNAME":"安南區","LI":"溪墘里","LIN":"17鄰","STREET":"海佃路","SECT":"一段","MAREA":" ","LANE":" ","ALLEY":" ","HOUSE_NO":"３７６號","E_COORD97":167088.26000000001,"N_COORD97":2547606.21,"ADDRESS":"海佃路一段３７６號","OBJECTID":306246},"geometry":{"x":167088.25999999978,"y":2547606.2100000009}},{"attributes":{"ID":306255,"DIS_CODE":0,"TOWNNAME":"安南區","LI":"州北里","LIN":"17鄰","STREET":"安和路","SECT":"六段","MAREA":" ","LANE":" ","ALLEY":" ","HOUSE_NO":"６１號之６","E_COORD97":169526.07999999999,"N_COORD97":2552468.6200000001,"ADDRESS":"安和路六段６１號之６","OBJECTID":306247},"geometry":{"x":169526.08000000007,"y":2552468.620000001}},{"attributes":{"ID":306256,"DIS_CODE":0,"TOWNNAME":"安南區","LI":"州南里","LIN":"17鄰","STREET":"州南五街","SECT":" ","MAREA":" ","LANE":" ","ALLEY":" ","HOUSE_NO":"９８號","E_COORD97":169844.48857099999,"N_COORD97":2550673.92319,"ADDRESS":"州南五街９８號","OBJECTID":306248},"geometry":{"x":169844.48857100122,"y":2550673.923192}},{"attributes":{"ID":306257,"DIS_CODE":0,"TOWNNAME":"安南區","LI":"溪北里","LIN":"17鄰","STREET":"惠安街","SECT":" ","MAREA":" ","LANE":" ","ALLEY":" ","HOUSE_NO":"３號","E_COORD97":169144.32999999999,"N_COORD97":2547456.9900000002,"ADDRESS":"惠安街３號","OBJECTID":306249},"geometry":{"x":169144.33000000101,"y":2547456.9900000021}},{"attributes":{"ID":306258,"DIS_CODE":0,"TOWNNAME":"安南區","LI":"海東里","LIN":"17鄰","STREET":"安中路","SECT":"一段","MAREA":" ","LANE":" ","ALLEY":" ","HOUSE_NO":"８０１號","E_COORD97":167321.01000000001,"N_COORD97":2549410.9199999999,"ADDRESS":"安中路一段８０１號","OBJECTID":306250},"geometry":{"x":167321.00999999978,"y":2549410.9199999999}},{"attributes":{"ID":306259,"DIS_CODE":0,"TOWNNAME":"南區","LI":"大忠里","LIN":"32鄰","STREET":"國民路","SECT":" ","MAREA":" ","LANE":"２７０巷","ALLEY":" ","HOUSE_NO":"１１５號","E_COORD97":169024.20000000001,"N_COORD97":2541490.71,"ADDRESS":"國民路２７０巷１１５號","OBJECTID":306251},"geometry":{"x":169024.20000000205,"y":2541490.7100000009}},{"attributes":{"ID":306260,"DIS_CODE":0,"TOWNNAME":"南區","LI":"大忠里","LIN":"32鄰","STREET":"國民路","SECT":" ","MAREA":" ","LANE":"２７０巷","ALLEY":" ","HOUSE_NO":"１１７號","E_COORD97":169027.57999999999,"N_COORD97":2541495.3799999999,"ADDRESS":"國民路２７０巷１１７號","OBJECTID":306252},"geometry":{"x":169027.58000000007,"y":2541495.3800000008}},{"attributes":{"ID":306261,"DIS_CODE":0,"TOWNNAME":"楠西區","LI":"照興里","LIN":"10鄰","STREET":" ","SECT":" ","MAREA":"興南","LANE":" ","ALLEY":" ","HOUSE_NO":"３號之３","E_COORD97":196559.25,"N_COORD97":2565193.2999999998,"ADDRESS":"興南３號之３","OBJECTID":306253},"geometry":{"x":196559.25000000093,"y":2565193.3000000026}},{"attributes":{"ID":306262,"DIS_CODE":0,"TOWNNAME":"南區","LI":"大忠里","LIN":"32鄰","STREET":"國民路","SECT":" ","MAREA":" ","LANE":"２７０巷","ALLEY":" ","HOUSE_NO":"１１９號","E_COORD97":169031.53,"N_COORD97":2541497.46,"ADDRESS":"國民路２７０巷１１９號","OBJECTID":306254},"geometry":{"x":169031.53000000026,"y":2541497.4600000028}},{"attributes":{"ID":306263,"DIS_CODE":0,"TOWNNAME":"南區","LI":"大忠里","LIN":"32鄰","STREET":"國民路","SECT":" ","MAREA":" ","LANE":"２７０巷","ALLEY":" ","HOUSE_NO":"１２１號","E_COORD97":169035.39000000001,"N_COORD97":2541499.9199999999,"ADDRESS":"國民路２７０巷１２１號","OBJECTID":306255},"geometry":{"x":169035.38999999966,"y":2541499.9200000018}},{"attributes":{"ID":306264,"DIS_CODE":0,"TOWNNAME":"南區","LI":"大忠里","LIN":"32鄰","STREET":"國民路","SECT":" ","MAREA":" ","LANE":"２７０巷","ALLEY":" ","HOUSE_NO":"１２３號","E_COORD97":169038.32000000001,"N_COORD97":2541503.3100000001,"ADDRESS":"國民路２７０巷１２３號","OBJECTID":306256},"geometry":{"x":169038.3200000003,"y":2541503.3100000005}},{"attributes":{"ID":306265,"DIS_CODE":0,"TOWNNAME":"南區","LI":"大忠里","LIN":"32鄰","STREET":"國民路","SECT":" ","MAREA":" ","LANE":"２７０巷","ALLEY":" ","HOUSE_NO":"１２５號","E_COORD97":169041.41,"N_COORD97":2541505.46,"ADDRESS":"國民路２７０巷１２５號","OBJECTID":306257},"geometry":{"x":169041.41000000201,"y":2541505.4600000009}},{"attributes":{"ID":306266,"DIS_CODE":0,"TOWNNAME":"南區","LI":"大忠里","LIN":"32鄰","STREET":"國民路","SECT":" ","MAREA":" ","LANE":"２７０巷","ALLEY":" ","HOUSE_NO":"１２７號","E_COORD97":169044.64999999999,"N_COORD97":2541507.6200000001,"ADDRESS":"國民路２７０巷１２７號","OBJECTID":306258},"geometry":{"x":169044.65000000037,"y":2541507.620000001}},{"attributes":{"ID":306267,"DIS_CODE":0,"TOWNNAME":"南區","LI":"大忠里","LIN":"32鄰","STREET":"國民路","SECT":" ","MAREA":" ","LANE":"２７０巷","ALLEY":" ","HOUSE_NO":"１２９號","E_COORD97":169049.12,"N_COORD97":2541511.46,"ADDRESS":"國民路２７０巷１２９號","OBJECTID":306259},"geometry":{"x":169049.12000000104,"y":2541511.4600000028}},{"attributes":{"ID":306268,"DIS_CODE":0,"TOWNNAME":"南區","LI":"大忠里","LIN":"32鄰","STREET":"國民路","SECT":" ","MAREA":" ","LANE":"２７０巷","ALLEY":" ","HOUSE_NO":"１２號","E_COORD97":169015.17000000001,"N_COORD97":2541444.3799999999,"ADDRESS":"國民路２７０巷１２號","OBJECTID":306260},"geometry":{"x":169015.16999999993,"y":2541444.3800000008}},{"attributes":{"ID":306269,"DIS_CODE":0,"TOWNNAME":"南區","LI":"大忠里","LIN":"32鄰","STREET":"國民路","SECT":" ","MAREA":" ","LANE":"２７０巷","ALLEY":" ","HOUSE_NO":"１３１號","E_COORD97":169053.91,"N_COORD97":2541514.8500000001,"ADDRESS":"國民路２７０巷１３１號","OBJECTID":306261},"geometry":{"x":169053.91000000108,"y":2541514.8499999996}},{"attributes":{"ID":306270,"DIS_CODE":0,"TOWNNAME":"南區","LI":"大忠里","LIN":"32鄰","STREET":"國民路","SECT":" ","MAREA":" ","LANE":"２７０巷","ALLEY":" ","HOUSE_NO":"１３３號","E_COORD97":169056.98999999999,"N_COORD97":2541517.46,"ADDRESS":"國民路２７０巷１３３號","OBJECTID":306262},"geometry":{"x":169056.99000000022,"y":2541517.4600000028}},{"attributes":{"ID":306271,"DIS_CODE":0,"TOWNNAME":"南區","LI":"大忠里","LIN":"32鄰","STREET":"國民路","SECT":" ","MAREA":" ","LANE":"２７０巷","ALLEY":" ","HOUSE_NO":"１３５號","E_COORD97":169060.32000000001,"N_COORD97":2541519.7599999998,"ADDRESS":"國民路２７０巷１３５號","OBJECTID":306263},"geometry":{"x":169060.3200000003,"y":2541519.7599999998}},{"attributes":{"ID":306272,"DIS_CODE":0,"TOWNNAME":"南區","LI":"大忠里","LIN":"32鄰","STREET":"國民路","SECT":" ","MAREA":" ","LANE":"２７０巷","ALLEY":" ","HOUSE_NO":"１３７號","E_COORD97":169063.26000000001,"N_COORD97":2541522.8799999999,"ADDRESS":"國民路２７０巷１３７號","OBJECTID":306264},"geometry":{"x":169063.25999999978,"y":2541522.8800000008}},{"attributes":{"ID":306273,"DIS_CODE":0,"TOWNNAME":"南區","LI":"大忠里","LIN":"32鄰","STREET":"國民路","SECT":" ","MAREA":" ","LANE":"２７０巷","ALLEY":" ","HOUSE_NO":"１３９號","E_COORD97":169066.57999999999,"N_COORD97":2541525.6400000001,"ADDRESS":"國民路２７０巷１３９號","OBJECTID":306265},"geometry":{"x":169066.58000000007,"y":2541525.6400000025}},{"attributes":{"ID":306274,"DIS_CODE":0,"TOWNNAME":"安南區","LI":"海東里","LIN":"17鄰","STREET":"安中路","SECT":"一段","MAREA":" ","LANE":" ","ALLEY":" ","HOUSE_NO":"８１３號","E_COORD97":167296.25,"N_COORD97":2549414.3599999999,"ADDRESS":"安中路一段８１３號","OBJECTID":306266},"geometry":{"x":167296.25000000186,"y":2549414.3599999994}},{"attributes":{"ID":306275,"DIS_CODE":0,"TOWNNAME":"安南區","LI":"海東里","LIN":"17鄰","STREET":"安中路","SECT":"一段","MAREA":" ","LANE":" ","ALLEY":" ","HOUSE_NO":"８２１號","E_COORD97":167278.82000000001,"N_COORD97":2549433.7200000002,"ADDRESS":"安中路一段８２１號","OBJECTID":306267},"geometry":{"x":167278.8200000003,"y":2549433.7200000007}},{"attributes":{"ID":306276,"DIS_CODE":0,"TOWNNAME":"安南區","LI":"海東里","LIN":"17鄰","STREET":"安中路","SECT":"一段","MAREA":" ","LANE":" ","ALLEY":" ","HOUSE_NO":"８２３號","E_COORD97":167275.44,"N_COORD97":2549435.96,"ADDRESS":"安中路一段８２３號","OBJECTID":306268},"geometry":{"x":167275.44000000134,"y":2549435.9600000009}},{"attributes":{"ID":306277,"DIS_CODE":0,"TOWNNAME":"安南區","LI":"海東里","LIN":"17鄰","STREET":"安中路","SECT":"一段","MAREA":" ","LANE":" ","ALLEY":" ","HOUSE_NO":"８２５號","E_COORD97":167271.62,"N_COORD97":2549438.4300000002,"ADDRESS":"安中路一段８２５號","OBJECTID":306269},"geometry":{"x":167271.62000000011,"y":2549438.4299999997}},{"attributes":{"ID":306278,"DIS_CODE":0,"TOWNNAME":"安南區","LI":"海東里","LIN":"17鄰","STREET":"安中路","SECT":"一段","MAREA":" ","LANE":" ","ALLEY":" ","HOUSE_NO":"８２７號","E_COORD97":167268.57999999999,"N_COORD97":2549441.1699999999,"ADDRESS":"安中路一段８２７號","OBJECTID":306270},"geometry":{"x":167268.58000000194,"y":2549441.1700000018}},{"attributes":{"ID":306279,"DIS_CODE":0,"TOWNNAME":"安南區","LI":"海東里","LIN":"17鄰","STREET":"安中路","SECT":"一段","MAREA":" ","LANE":" ","ALLEY":" ","HOUSE_NO":"８２９號","E_COORD97":167264.22,"N_COORD97":2549442.4700000002,"ADDRESS":"安中路一段８２９號","OBJECTID":306271},"geometry":{"x":167264.22000000067,"y":2549442.4700000007}},{"attributes":{"ID":306280,"DIS_CODE":0,"TOWNNAME":"安南區","LI":"海東里","LIN":"17鄰","STREET":"安中路","SECT":"一段","MAREA":" ","LANE":" ","ALLEY":" ","HOUSE_NO":"８３５號","E_COORD97":167254.47,"N_COORD97":2549450.98,"ADDRESS":"安中路一段８３５號","OBJECTID":306272},"geometry":{"x":167254.47000000067,"y":2549450.9800000023}},{"attributes":{"ID":306281,"DIS_CODE":0,"TOWNNAME":"安南區","LI":"海東里","LIN":"17鄰","STREET":"安中路","SECT":"一段","MAREA":" ","LANE":" ","ALLEY":" ","HOUSE_NO":"８３７號","E_COORD97":167250.54999999999,"N_COORD97":2549452.8100000001,"ADDRESS":"安中路一段８３７號","OBJECTID":306273},"geometry":{"x":167250.55000000075,"y":2549452.8100000005}},{"attributes":{"ID":306282,"DIS_CODE":0,"TOWNNAME":"安南區","LI":"海東里","LIN":"17鄰","STREET":"安中路","SECT":"一段","MAREA":" ","LANE":" ","ALLEY":" ","HOUSE_NO":"８３９號","E_COORD97":167246.28,"N_COORD97":2549454.1800000002,"ADDRESS":"安中路一段８３９號","OBJECTID":306274},"geometry":{"x":167246.28000000026,"y":2549454.1800000034}},{"attributes":{"ID":306283,"DIS_CODE":0,"TOWNNAME":"安南區","LI":"海東里","LIN":"17鄰","STREET":"安中路","SECT":"一段","MAREA":" ","LANE":" ","ALLEY":" ","HOUSE_NO":"８５１號","E_COORD97":167223.64000000001,"N_COORD97":2549472.3700000001,"ADDRESS":"安中路一段８５１號","OBJECTID":306275},"geometry":{"x":167223.64000000153,"y":2549472.3700000029}},{"attributes":{"ID":306284,"DIS_CODE":0,"TOWNNAME":"安南區","LI":"海東里","LIN":"17鄰","STREET":"安中路","SECT":"一段","MAREA":" ","LANE":" ","ALLEY":" ","HOUSE_NO":"８６３號","E_COORD97":167207.54000000001,"N_COORD97":2549482.3799999999,"ADDRESS":"安中路一段８６３號","OBJECTID":306276},"geometry":{"x":167207.54000000004,"y":2549482.3800000027}},{"attributes":{"ID":306285,"DIS_CODE":0,"TOWNNAME":"安南區","LI":"溪頂里","LIN":"17鄰","STREET":"德安街","SECT":" ","MAREA":" ","LANE":" ","ALLEY":" ","HOUSE_NO":"４６號","E_COORD97":168615.39000000001,"N_COORD97":2547377.9399999999,"ADDRESS":"德安街４６號","OBJECTID":306277},"geometry":{"x":168615.39000000153,"y":2547377.9400000013}},{"attributes":{"ID":306286,"DIS_CODE":0,"TOWNNAME":"永康區","LI":"東灣里","LIN":"17鄰","STREET":"大灣三街","SECT":" ","MAREA":" ","LANE":" ","ALLEY":" ","HOUSE_NO":"６１號","E_COORD97":174917.10000000001,"N_COORD97":2544928.7400000002,"ADDRESS":"大灣三街６１號","OBJECTID":306278},"geometry":{"x":174917.10000000056,"y":2544928.7400000021}},{"attributes":{"ID":306287,"DIS_CODE":0,"TOWNNAME":"永康區","LI":"中興里","LIN":"17鄰","STREET":"中華路","SECT":" ","MAREA":" ","LANE":" ","ALLEY":" ","HOUSE_NO":"３１８號","E_COORD97":171514.95999999999,"N_COORD97":2545387,"ADDRESS":"中華路３１８號","OBJECTID":306279},"geometry":{"x":171514.95999999996,"y":2545386.9999999981}},{"attributes":{"ID":306288,"DIS_CODE":0,"TOWNNAME":"永康區","LI":"東灣里","LIN":"17鄰","STREET":"大灣三街","SECT":" ","MAREA":" ","LANE":" ","ALLEY":" ","HOUSE_NO":"７１之１號","E_COORD97":174893.45999999999,"N_COORD97":2544935.04,"ADDRESS":"大灣三街７１之１號","OBJECTID":306280},"geometry":{"x":174893.45999999996,"y":2544935.0400000028}},{"attributes":{"ID":306289,"DIS_CODE":0,"TOWNNAME":"永康區","LI":"西橋里","LIN":"17鄰","STREET":"大橋三街","SECT":" ","MAREA":" ","LANE":" ","ALLEY":" ","HOUSE_NO":"３６號","E_COORD97":170575.37,"N_COORD97":2546450.75,"ADDRESS":"大橋三街３６號","OBJECTID":306281},"geometry":{"x":170575.37000000011,"y":2546450.7500000019}},{"attributes":{"ID":306290,"DIS_CODE":0,"TOWNNAME":"南區","LI":"大忠里","LIN":"32鄰","STREET":"國民路","SECT":" ","MAREA":" ","LANE":"２７０巷","ALLEY":" ","HOUSE_NO":"２號","E_COORD97":168969.59,"N_COORD97":2541405.7999999998,"ADDRESS":"國民路２７０巷２號","OBJECTID":306282},"geometry":{"x":168969.58999999985,"y":2541405.8000000045}},{"attributes":{"ID":306291,"DIS_CODE":0,"TOWNNAME":"南區","LI":"大忠里","LIN":"32鄰","STREET":"國民路","SECT":" ","MAREA":" ","LANE":"２７０巷","ALLEY":" ","HOUSE_NO":"４號","E_COORD97":168973.63,"N_COORD97":2541408.9700000002,"ADDRESS":"國民路２７０巷４號","OBJECTID":306283},"geometry":{"x":168973.63000000082,"y":2541408.9700000025}},{"attributes":{"ID":306292,"DIS_CODE":0,"TOWNNAME":"南區","LI":"大忠里","LIN":"32鄰","STREET":"國民路","SECT":" ","MAREA":" ","LANE":"２７０巷","ALLEY":" ","HOUSE_NO":"４號之１","E_COORD97":168977.39000000001,"N_COORD97":2541412.71,"ADDRESS":"國民路２７０巷４號之１","OBJECTID":306284},"geometry":{"x":168977.38999999966,"y":2541412.7100000009}},{"attributes":{"ID":306293,"DIS_CODE":0,"TOWNNAME":"南區","LI":"大忠里","LIN":"32鄰","STREET":"國民路","SECT":" ","MAREA":" ","LANE":"２７０巷","ALLEY":" ","HOUSE_NO":"４號之２","E_COORD97":168981.42999999999,"N_COORD97":2541416.1600000001,"ADDRESS":"國民路２７０巷４號之２","OBJECTID":306285},"geometry":{"x":168981.43000000156,"y":2541416.1600000039}},{"attributes":{"ID":306294,"DIS_CODE":0,"TOWNNAME":"南區","LI":"大忠里","LIN":"32鄰","STREET":"國民路","SECT":" ","MAREA":" ","LANE":"２７０巷","ALLEY":" ","HOUSE_NO":"８３號","E_COORD97":168965.07000000001,"N_COORD97":2541441.6899999999,"ADDRESS":"國民路２７０巷８３號","OBJECTID":306286},"geometry":{"x":168965.0700000003,"y":2541441.6899999995}},{"attributes":{"ID":306295,"DIS_CODE":0,"TOWNNAME":"南區","LI":"大忠里","LIN":"32鄰","STREET":"國民路","SECT":" ","MAREA":" ","LANE":"２７０巷","ALLEY":" ","HOUSE_NO":"８５號","E_COORD97":168968.67000000001,"N_COORD97":2541444.2200000002,"ADDRESS":"國民路２７０巷８５號","OBJECTID":306287},"geometry":{"x":168968.67000000086,"y":2541444.2200000025}},{"attributes":{"ID":306296,"DIS_CODE":0,"TOWNNAME":"南區","LI":"大忠里","LIN":"32鄰","STREET":"國民路","SECT":" ","MAREA":" ","LANE":"２７０巷","ALLEY":" ","HOUSE_NO":"８７號","E_COORD97":168972.26000000001,"N_COORD97":2541446.54,"ADDRESS":"國民路２７０巷８７號","OBJECTID":306288},"geometry":{"x":168972.25999999978,"y":2541446.5400000028}},{"attributes":{"ID":306297,"DIS_CODE":0,"TOWNNAME":"南區","LI":"大忠里","LIN":"32鄰","STREET":"國民路","SECT":" ","MAREA":" ","LANE":"２７０巷","ALLEY":" ","HOUSE_NO":"８９號","E_COORD97":168975.64000000001,"N_COORD97":2541449.4900000002,"ADDRESS":"國民路２７０巷８９號","OBJECTID":306289},"geometry":{"x":168975.6400000006,"y":2541449.4900000021}},{"attributes":{"ID":306298,"DIS_CODE":0,"TOWNNAME":"南區","LI":"大忠里","LIN":"32鄰","STREET":"國民路","SECT":" ","MAREA":" ","LANE":"２７０巷","ALLEY":" ","HOUSE_NO":"８號","E_COORD97":169008.29999999999,"N_COORD97":2541438.6299999999,"ADDRESS":"國民路２７０巷８號","OBJECTID":306290},"geometry":{"x":169008.30000000075,"y":2541438.6299999971}},{"attributes":{"ID":306299,"DIS_CODE":0,"TOWNNAME":"南區","LI":"大忠里","LIN":"32鄰","STREET":"國民路","SECT":" ","MAREA":" ","LANE":"２７０巷","ALLEY":" ","HOUSE_NO":"９１號","E_COORD97":168978.82000000001,"N_COORD97":2541452.6499999999,"ADDRESS":"國民路２７０巷９１號","OBJECTID":306291},"geometry":{"x":168978.8200000003,"y":2541452.6500000004}},{"attributes":{"ID":306300,"DIS_CODE":0,"TOWNNAME":"南區","LI":"大忠里","LIN":"32鄰","STREET":"國民路","SECT":" ","MAREA":" ","LANE":"２７０巷","ALLEY":" ","HOUSE_NO":"９３號","E_COORD97":168982.62,"N_COORD97":2541455.3900000001,"ADDRESS":"國民路２７０巷９３號","OBJECTID":306292},"geometry":{"x":168982.62000000104,"y":2541455.3900000006}},{"attributes":{"ID":306301,"DIS_CODE":0,"TOWNNAME":"南區","LI":"大忠里","LIN":"32鄰","STREET":"國民路","SECT":" ","MAREA":" ","LANE":"２７０巷","ALLEY":" ","HOUSE_NO":"９５號","E_COORD97":168985.57999999999,"N_COORD97":2541458.3399999999,"ADDRESS":"國民路２７０巷９５號","OBJECTID":306293},"geometry":{"x":168985.58000000007,"y":2541458.3399999999}},{"attributes":{"ID":306302,"DIS_CODE":0,"TOWNNAME":"南區","LI":"大忠里","LIN":"32鄰","STREET":"國民路","SECT":" ","MAREA":" ","LANE":"２７０巷","ALLEY":" ","HOUSE_NO":"９７號","E_COORD97":168988.76000000001,"N_COORD97":2541461.29,"ADDRESS":"國民路２７０巷９７號","OBJECTID":306294},"geometry":{"x":168988.75999999978,"y":2541461.2899999991}},{"attributes":{"ID":306303,"DIS_CODE":0,"TOWNNAME":"南區","LI":"大忠里","LIN":"32鄰","STREET":"國民路","SECT":" ","MAREA":" ","LANE":"２７０巷","ALLEY":" ","HOUSE_NO":"９９號","E_COORD97":168992.56,"N_COORD97":2541464.46,"ADDRESS":"國民路２７０巷９９號","OBJECTID":306295},"geometry":{"x":168992.56000000052,"y":2541464.4600000009}},{"attributes":{"ID":306304,"DIS_CODE":0,"TOWNNAME":"中西區","LI":"元安里","LIN":"8鄰","STREET":"西門路","SECT":"一段","MAREA":" ","LANE":"７１５巷","ALLEY":" ","HOUSE_NO":"４號","E_COORD97":167696.47,"N_COORD97":2543290.1200000001,"ADDRESS":"西門路一段７１５巷４號","OBJECTID":306296},"geometry":{"x":167696.47000000067,"y":2543290.1200000029}},{"attributes":{"ID":306305,"DIS_CODE":0,"TOWNNAME":"永康區","LI":"勝利里","LIN":"17鄰","STREET":"中華一路","SECT":" ","MAREA":" ","LANE":" ","ALLEY":" ","HOUSE_NO":"２８６號","E_COORD97":171292.45999999999,"N_COORD97":2544993.5,"ADDRESS":"中華一路２８６號","OBJECTID":306297},"geometry":{"x":171292.46000000089,"y":2544993.5}},{"attributes":{"ID":306306,"DIS_CODE":0,"TOWNNAME":"永康區","LI":"勝利里","LIN":"17鄰","STREET":"中華一路","SECT":" ","MAREA":" ","LANE":" ","ALLEY":" ","HOUSE_NO":"３０５號","E_COORD97":171201.42000000001,"N_COORD97":2544981,"ADDRESS":"中華一路３０５號","OBJECTID":306298},"geometry":{"x":171201.42000000086,"y":2544981.0000000019}},{"attributes":{"ID":306307,"DIS_CODE":0,"TOWNNAME":"永康區","LI":"勝利里","LIN":"17鄰","STREET":"中華一路","SECT":" ","MAREA":" ","LANE":" ","ALLEY":" ","HOUSE_NO":"３１８號","E_COORD97":171226.87,"N_COORD97":2544999,"ADDRESS":"中華一路３１８號","OBJECTID":306299},"geometry":{"x":171226.87000000104,"y":2544999}},{"attributes":{"ID":306308,"DIS_CODE":0,"TOWNNAME":"安南區","LI":"溪頂里","LIN":"17鄰","STREET":"德安街","SECT":" ","MAREA":" ","LANE":" ","ALLEY":" ","HOUSE_NO":"２２號","E_COORD97":168672.12,"N_COORD97":2547383.4300000002,"ADDRESS":"德安街２２號","OBJECTID":306300},"geometry":{"x":168672.12000000197,"y":2547383.4299999997}},{"attributes":{"ID":306309,"DIS_CODE":0,"TOWNNAME":"安南區","LI":"溪頂里","LIN":"17鄰","STREET":"德安街","SECT":" ","MAREA":" ","LANE":" ","ALLEY":" ","HOUSE_NO":"２４號","E_COORD97":168667.57000000001,"N_COORD97":2547382.73,"ADDRESS":"德安街２４號","OBJECTID":306301},"geometry":{"x":168667.57000000216,"y":2547382.7300000004}},{"attributes":{"ID":306310,"DIS_CODE":0,"TOWNNAME":"安南區","LI":"溪頂里","LIN":"17鄰","STREET":"德安街","SECT":" ","MAREA":" ","LANE":" ","ALLEY":" ","HOUSE_NO":"２６號","E_COORD97":168663.26000000001,"N_COORD97":2547382.1000000001,"ADDRESS":"德安街２６號","OBJECTID":306302},"geometry":{"x":168663.25999999978,"y":2547382.0999999996}},{"attributes":{"ID":306311,"DIS_CODE":0,"TOWNNAME":"安南區","LI":"溪頂里","LIN":"17鄰","STREET":"德安街","SECT":" ","MAREA":" ","LANE":" ","ALLEY":" ","HOUSE_NO":"２８號","E_COORD97":168659.32999999999,"N_COORD97":2547381.8700000001,"ADDRESS":"德安街２８號","OBJECTID":306303},"geometry":{"x":168659.33000000101,"y":2547381.870000001}},{"attributes":{"ID":306312,"DIS_CODE":0,"TOWNNAME":"安南區","LI":"溪頂里","LIN":"17鄰","STREET":"德安街","SECT":" ","MAREA":" ","LANE":" ","ALLEY":" ","HOUSE_NO":"２號","E_COORD97":168720.32000000001,"N_COORD97":2547393.5800000001,"ADDRESS":"德安街２號","OBJECTID":306304},"geometry":{"x":168720.32000000123,"y":2547393.5799999982}},{"attributes":{"ID":306313,"DIS_CODE":0,"TOWNNAME":"安南區","LI":"溪頂里","LIN":"17鄰","STREET":"德安街","SECT":" ","MAREA":" ","LANE":" ","ALLEY":" ","HOUSE_NO":"３０號","E_COORD97":168654.78,"N_COORD97":2547381.2400000002,"ADDRESS":"德安街３０號","OBJECTID":306305},"geometry":{"x":168654.78000000119,"y":2547381.2400000002}},{"attributes":{"ID":306314,"DIS_CODE":0,"TOWNNAME":"安南區","LI":"溪頂里","LIN":"17鄰","STREET":"德安街","SECT":" ","MAREA":" ","LANE":" ","ALLEY":" ","HOUSE_NO":"３２號","E_COORD97":168650.54000000001,"N_COORD97":2547380.9300000002,"ADDRESS":"德安街３２號","OBJECTID":306306},"geometry":{"x":168650.5400000019,"y":2547380.9300000034}},{"attributes":{"ID":306315,"DIS_CODE":0,"TOWNNAME":"安南區","LI":"溪頂里","LIN":"17鄰","STREET":"德安街","SECT":" ","MAREA":" ","LANE":" ","ALLEY":" ","HOUSE_NO":"３４號","E_COORD97":168646.14999999999,"N_COORD97":2547380.77,"ADDRESS":"德安街３４號","OBJECTID":306307},"geometry":{"x":168646.15000000037,"y":2547380.7699999996}},{"attributes":{"ID":306316,"DIS_CODE":0,"TOWNNAME":"安南區","LI":"溪頂里","LIN":"17鄰","STREET":"德安街","SECT":" ","MAREA":" ","LANE":" ","ALLEY":" ","HOUSE_NO":"３６號","E_COORD97":168641.91,"N_COORD97":2547380.46,"ADDRESS":"德安街３６號","OBJECTID":306308},"geometry":{"x":168641.91000000108,"y":2547380.4600000009}},{"attributes":{"ID":306317,"DIS_CODE":0,"TOWNNAME":"安南區","LI":"溪頂里","LIN":"17鄰","STREET":"德安街","SECT":" ","MAREA":" ","LANE":" ","ALLEY":" ","HOUSE_NO":"３８號","E_COORD97":168637.98999999999,"N_COORD97":2547380.2200000002,"ADDRESS":"德安街３８號","OBJECTID":306309},"geometry":{"x":168637.99000000115,"y":2547380.2200000025}},{"attributes":{"ID":306318,"DIS_CODE":0,"TOWNNAME":"安南區","LI":"溪頂里","LIN":"17鄰","STREET":"德安街","SECT":" ","MAREA":" ","LANE":" ","ALLEY":" ","HOUSE_NO":"４０號","E_COORD97":168633.78,"N_COORD97":2547380.1699999999,"ADDRESS":"德安街４０號","OBJECTID":306310},"geometry":{"x":168633.78000000212,"y":2547380.1700000018}},{"attributes":{"ID":306319,"DIS_CODE":0,"TOWNNAME":"安南區","LI":"溪頂里","LIN":"17鄰","STREET":"德安街","SECT":" ","MAREA":" ","LANE":" ","ALLEY":" ","HOUSE_NO":"４２號","E_COORD97":168624.34,"N_COORD97":2547378.5299999998,"ADDRESS":"德安街４２號","OBJECTID":306311},"geometry":{"x":168624.33999999892,"y":2547378.5299999993}},{"attributes":{"ID":306320,"DIS_CODE":0,"TOWNNAME":"安南區","LI":"溪頂里","LIN":"17鄰","STREET":"德安街","SECT":" ","MAREA":" ","LANE":" ","ALLEY":" ","HOUSE_NO":"４４號","E_COORD97":168619.67000000001,"N_COORD97":2547378.4300000002,"ADDRESS":"德安街４４號","OBJECTID":306312},"geometry":{"x":168619.67000000086,"y":2547378.4300000016}},{"attributes":{"ID":306321,"DIS_CODE":0,"TOWNNAME":"楠西區","LI":"楠西里","LIN":"24鄰","STREET":"中興路","SECT":" ","MAREA":" ","LANE":"６３巷","ALLEY":" ","HOUSE_NO":"３２號","E_COORD97":197135.26000000001,"N_COORD97":2564382.25,"ADDRESS":"中興路６３巷３２號","OBJECTID":306313},"geometry":{"x":197135.26000000071,"y":2564382.2500000019}},{"attributes":{"ID":306322,"DIS_CODE":0,"TOWNNAME":"南區","LI":"大林里","LIN":"6鄰","STREET":"大同路","SECT":"二段","MAREA":" ","LANE":"４８２巷","ALLEY":" ","HOUSE_NO":"６０號","E_COORD97":169306.07000000001,"N_COORD97":2541487.7000000002,"ADDRESS":"大同路二段４８２巷６０號","OBJECTID":306314},"geometry":{"x":169306.0700000003,"y":2541487.7000000011}},{"attributes":{"ID":306323,"DIS_CODE":0,"TOWNNAME":"南區","LI":"大林里","LIN":"6鄰","STREET":"大同路","SECT":"二段","MAREA":" ","LANE":"４８２巷","ALLEY":" ","HOUSE_NO":"６２號","E_COORD97":169300.16,"N_COORD97":2541465.4199999999,"ADDRESS":"大同路二段４８２巷６２號","OBJECTID":306315},"geometry":{"x":169300.16000000015,"y":2541465.4200000018}},{"attributes":{"ID":306324,"DIS_CODE":0,"TOWNNAME":"南區","LI":"大林里","LIN":"6鄰","STREET":"大同路","SECT":"二段","MAREA":" ","LANE":"４８２巷","ALLEY":" ","HOUSE_NO":"６６號","E_COORD97":169287.72,"N_COORD97":2541477.5600000001,"ADDRESS":"大同路二段４８２巷６６號","OBJECTID":306316},"geometry":{"x":169287.71999999974,"y":2541477.5600000005}},{"attributes":{"ID":306325,"DIS_CODE":0,"TOWNNAME":"南區","LI":"大林里","LIN":"6鄰","STREET":"大同路","SECT":"二段","MAREA":" ","LANE":"４８２巷","ALLEY":" ","HOUSE_NO":"７０號","E_COORD97":169280.32000000001,"N_COORD97":2541487.6899999999,"ADDRESS":"大同路二段４８２巷７０號","OBJECTID":306317},"geometry":{"x":169280.3200000003,"y":2541487.6900000013}},{"attributes":{"ID":306326,"DIS_CODE":0,"TOWNNAME":"南區","LI":"大林里","LIN":" ","STREET":"國民路","SECT":" ","MAREA":" ","LANE":"５１１巷","ALLEY":" ","HOUSE_NO":"３４號","E_COORD97":168594.57999999999,"N_COORD97":2541406.6200000001,"ADDRESS":"國民路５１１巷３４號","OBJECTID":306318},"geometry":{"x":168594.58000000101,"y":2541406.620000001}},{"attributes":{"ID":306327,"DIS_CODE":0,"TOWNNAME":"南區","LI":"大林里","LIN":" ","STREET":"國民路","SECT":" ","MAREA":" ","LANE":"５１１巷","ALLEY":" ","HOUSE_NO":"４８之３號","E_COORD97":168587.92999999999,"N_COORD97":2541280.1600000001,"ADDRESS":"國民路５１１巷４８之３號","OBJECTID":306319},"geometry":{"x":168587.9299999997,"y":2541280.1600000001}},{"attributes":{"ID":306328,"DIS_CODE":0,"TOWNNAME":"南區","LI":"大林里","LIN":"17鄰","STREET":"大同路","SECT":"二段","MAREA":" ","LANE":"４０６巷","ALLEY":" ","HOUSE_NO":"２８號","E_COORD97":169306.41,"N_COORD97":2541681.7200000002,"ADDRESS":"大同路二段４０６巷２８號","OBJECTID":306320},"geometry":{"x":169306.41000000108,"y":2541681.7200000025}},{"attributes":{"ID":306329,"DIS_CODE":0,"TOWNNAME":"南區","LI":"大林里","LIN":"17鄰","STREET":"大同路","SECT":"二段","MAREA":" ","LANE":"４０６巷","ALLEY":" ","HOUSE_NO":"３０號","E_COORD97":169294.45000000001,"N_COORD97":2541679.2599999998,"ADDRESS":"大同路二段４０６巷３０號","OBJECTID":306321},"geometry":{"x":169294.45000000112,"y":2541679.2599999979}},{"attributes":{"ID":306330,"DIS_CODE":0,"TOWNNAME":"南區","LI":"大林里","LIN":"17鄰","STREET":"大同路","SECT":"二段","MAREA":" ","LANE":"４０６巷","ALLEY":" ","HOUSE_NO":"３２號","E_COORD97":169284.87,"N_COORD97":2541677.75,"ADDRESS":"大同路二段４０６巷３２號","OBJECTID":306322},"geometry":{"x":169284.87000000011,"y":2541677.7500000019}},{"attributes":{"ID":306331,"DIS_CODE":0,"TOWNNAME":"南區","LI":"大林里","LIN":"17鄰","STREET":"大同路","SECT":"二段","MAREA":" ","LANE":"４０６巷","ALLEY":" ","HOUSE_NO":"３４號","E_COORD97":169272.54000000001,"N_COORD97":2541674.75,"ADDRESS":"大同路二段４０６巷３４號","OBJECTID":306323},"geometry":{"x":169272.5400000019,"y":2541674.75}},{"attributes":{"ID":306332,"DIS_CODE":0,"TOWNNAME":"南區","LI":"大林里","LIN":"17鄰","STREET":"大同路","SECT":"二段","MAREA":" ","LANE":"４０６巷","ALLEY":" ","HOUSE_NO":"３６號","E_COORD97":169262.13,"N_COORD97":2541672.8300000001,"ADDRESS":"大同路二段４０６巷３６號","OBJECTID":306324},"geometry":{"x":169262.13000000082,"y":2541672.8300000019}},{"attributes":{"ID":306333,"DIS_CODE":0,"TOWNNAME":"柳營區","LI":"神農里","LIN":"15鄰","STREET":" ","SECT":" ","MAREA":"新厝","LANE":" ","ALLEY":" ","HOUSE_NO":"５號之２","E_COORD97":183323.97,"N_COORD97":2573244.5699999998,"ADDRESS":"新厝５號之２","OBJECTID":306325},"geometry":{"x":183323.96999999974,"y":2573244.5700000003}},{"attributes":{"ID":306334,"DIS_CODE":0,"TOWNNAME":"中西區","LI":"元安里","LIN":"8鄰","STREET":"西門路","SECT":"一段","MAREA":" ","LANE":"７１５巷","ALLEY":" ","HOUSE_NO":"６號","E_COORD97":167679.39000000001,"N_COORD97":2543296.7599999998,"ADDRESS":"西門路一段７１５巷６號","OBJECTID":306326},"geometry":{"x":167679.38999999966,"y":2543296.7600000035}},{"attributes":{"ID":306335,"DIS_CODE":0,"TOWNNAME":"北區","LI":"光武里","LIN":"4鄰","STREET":"大武街","SECT":" ","MAREA":" ","LANE":"１４１巷","ALLEY":" ","HOUSE_NO":"１４號","E_COORD97":169591.26999999999,"N_COORD97":2545877.7999999998,"ADDRESS":"大武街１４１巷１４號","OBJECTID":306327},"geometry":{"x":169591.27000000048,"y":2545877.8000000045}},{"attributes":{"ID":306336,"DIS_CODE":0,"TOWNNAME":"北區","LI":"光武里","LIN":"4鄰","STREET":"大武街","SECT":" ","MAREA":" ","LANE":"１３３巷","ALLEY":" ","HOUSE_NO":"２號","E_COORD97":169606.17000000001,"N_COORD97":2545845.29,"ADDRESS":"大武街１３３巷２號","OBJECTID":306328},"geometry":{"x":169606.17000000086,"y":2545845.2900000028}},{"attributes":{"ID":306337,"DIS_CODE":0,"TOWNNAME":"新化區","LI":"太平里","LIN":"8鄰","STREET":"中正路","SECT":" ","MAREA":" ","LANE":"６６２巷","ALLEY":" ","HOUSE_NO":"３５號","E_COORD97":178757.85999999999,"N_COORD97":2549468.25,"ADDRESS":"中正路６６２巷３５號","OBJECTID":306329},"geometry":{"x":178757.86000000034,"y":2549468.2500000019}},{"attributes":{"ID":306338,"DIS_CODE":0,"TOWNNAME":"新化區","LI":"太平里","LIN":"8鄰","STREET":"中正路","SECT":" ","MAREA":" ","LANE":"６６２巷","ALLEY":" ","HOUSE_NO":"２２號","E_COORD97":178697.66,"N_COORD97":2549469.25,"ADDRESS":"中正路６６２巷２２號","OBJECTID":306330},"geometry":{"x":178697.66000000108,"y":2549469.25}},{"attributes":{"ID":306339,"DIS_CODE":0,"TOWNNAME":"安南區","LI":"溪頂里","LIN":"17鄰","STREET":"德安街","SECT":" ","MAREA":" ","LANE":" ","ALLEY":" ","HOUSE_NO":"４８號","E_COORD97":168611.5,"N_COORD97":2547377.75,"ADDRESS":"德安街４８號","OBJECTID":306331},"geometry":{"x":168611.5,"y":2547377.75}},{"attributes":{"ID":306340,"DIS_CODE":0,"TOWNNAME":"安南區","LI":"溪頂里","LIN":"17鄰","STREET":"德安街","SECT":" ","MAREA":" ","LANE":" ","ALLEY":" ","HOUSE_NO":"４號","E_COORD97":168716.64000000001,"N_COORD97":2547392.3100000001,"ADDRESS":"德安街４號","OBJECTID":306332},"geometry":{"x":168716.63999999966,"y":2547392.3100000005}},{"attributes":{"ID":306341,"DIS_CODE":0,"TOWNNAME":"安南區","LI":"溪頂里","LIN":"17鄰","STREET":"德安街","SECT":" ","MAREA":" ","LANE":" ","ALLEY":" ","HOUSE_NO":"５０號","E_COORD97":168607.03,"N_COORD97":2547377.46,"ADDRESS":"德安街５０號","OBJECTID":306333},"geometry":{"x":168607.03000000119,"y":2547377.4600000009}},{"attributes":{"ID":306342,"DIS_CODE":0,"TOWNNAME":"安南區","LI":"溪頂里","LIN":"17鄰","STREET":"德安街","SECT":" ","MAREA":" ","LANE":" ","ALLEY":" ","HOUSE_NO":"５２號","E_COORD97":168602.75,"N_COORD97":2547376.3900000001,"ADDRESS":"德安街５２號","OBJECTID":306334},"geometry":{"x":168602.75,"y":2547376.3900000025}},{"attributes":{"ID":306343,"DIS_CODE":0,"TOWNNAME":"安南區","LI":"溪頂里","LIN":"17鄰","STREET":"德安街","SECT":" ","MAREA":" ","LANE":" ","ALLEY":" ","HOUSE_NO":"５４號","E_COORD97":168598.17999999999,"N_COORD97":2547375.8999999999,"ADDRESS":"德安街５４號","OBJECTID":306335},"geometry":{"x":168598.17999999877,"y":2547375.9000000022}},{"attributes":{"ID":306344,"DIS_CODE":0,"TOWNNAME":"安南區","LI":"溪頂里","LIN":"17鄰","STREET":"德安街","SECT":" ","MAREA":" ","LANE":" ","ALLEY":" ","HOUSE_NO":"５６號","E_COORD97":168593.91,"N_COORD97":2547375.8100000001,"ADDRESS":"德安街５６號","OBJECTID":306336},"geometry":{"x":168593.91000000201,"y":2547375.8100000042}},{"attributes":{"ID":306345,"DIS_CODE":0,"TOWNNAME":"安南區","LI":"溪頂里","LIN":"17鄰","STREET":"德安街","SECT":" ","MAREA":" ","LANE":" ","ALLEY":" ","HOUSE_NO":"５８號","E_COORD97":168589.53,"N_COORD97":2547375.4199999999,"ADDRESS":"德安街５８號","OBJECTID":306337},"geometry":{"x":168589.53000000026,"y":2547375.4200000018}},{"attributes":{"ID":306346,"DIS_CODE":0,"TOWNNAME":"安南區","LI":"溪頂里","LIN":"17鄰","STREET":"德安街","SECT":" ","MAREA":" ","LANE":" ","ALLEY":" ","HOUSE_NO":"６０號","E_COORD97":168585.54999999999,"N_COORD97":2547374.8399999999,"ADDRESS":"德安街６０號","OBJECTID":306338},"geometry":{"x":168585.54999999981,"y":2547374.8400000036}},{"attributes":{"ID":306347,"DIS_CODE":0,"TOWNNAME":"安南區","LI":"溪頂里","LIN":"17鄰","STREET":"德安街","SECT":" ","MAREA":" ","LANE":" ","ALLEY":" ","HOUSE_NO":"６２號","E_COORD97":168581.17000000001,"N_COORD97":2547374.4500000002,"ADDRESS":"德安街６２號","OBJECTID":306339},"geometry":{"x":168581.16999999993,"y":2547374.4500000011}},{"attributes":{"ID":306348,"DIS_CODE":0,"TOWNNAME":"安南區","LI":"溪頂里","LIN":"17鄰","STREET":"德安街","SECT":" ","MAREA":" ","LANE":" ","ALLEY":" ","HOUSE_NO":"６６號","E_COORD97":168572.63,"N_COORD97":2547373.8199999998,"ADDRESS":"德安街６６號","OBJECTID":306340},"geometry":{"x":168572.62999999989,"y":2547373.8200000003}},{"attributes":{"ID":306349,"DIS_CODE":0,"TOWNNAME":"安南區","LI":"溪頂里","LIN":"17鄰","STREET":"德安街","SECT":" ","MAREA":" ","LANE":" ","ALLEY":" ","HOUSE_NO":"６號","E_COORD97":168711.69,"N_COORD97":2547390.8999999999,"ADDRESS":"德安街６號","OBJECTID":306341},"geometry":{"x":168711.69000000041,"y":2547390.9000000004}},{"attributes":{"ID":306350,"DIS_CODE":0,"TOWNNAME":"安南區","LI":"梅花里","LIN":"17鄰","STREET":"安中路","SECT":"一段","MAREA":" ","LANE":" ","ALLEY":" ","HOUSE_NO":"７６９號","E_COORD97":167395.64999999999,"N_COORD97":2549356.0299999998,"ADDRESS":"安中路一段７６９號","OBJECTID":306342},"geometry":{"x":167395.65000000224,"y":2549356.0299999993}},{"attributes":{"ID":306351,"DIS_CODE":0,"TOWNNAME":"安南區","LI":"梅花里","LIN":"17鄰","STREET":"安中路","SECT":"一段","MAREA":" ","LANE":" ","ALLEY":" ","HOUSE_NO":"７７１號","E_COORD97":167390.54000000001,"N_COORD97":2549357.7400000002,"ADDRESS":"安中路一段７７１號","OBJECTID":306343},"geometry":{"x":167390.54000000004,"y":2549357.7400000002}},{"attributes":{"ID":306352,"DIS_CODE":0,"TOWNNAME":"安南區","LI":"梅花里","LIN":"17鄰","STREET":"安中路","SECT":"一段","MAREA":" ","LANE":" ","ALLEY":" ","HOUSE_NO":"７７５號","E_COORD97":167384.16,"N_COORD97":2549362.8399999999,"ADDRESS":"安中路一段７７５號","OBJECTID":306344},"geometry":{"x":167384.16000000108,"y":2549362.8400000017}},{"attributes":{"ID":306353,"DIS_CODE":0,"TOWNNAME":"新化區","LI":"太平里","LIN":"8鄰","STREET":"中正路","SECT":" ","MAREA":" ","LANE":"６６２巷","ALLEY":" ","HOUSE_NO":"３８號","E_COORD97":178724.16,"N_COORD97":2549463.25,"ADDRESS":"中正路６６２巷３８號","OBJECTID":306345},"geometry":{"x":178724.15999999922,"y":2549463.25}},{"attributes":{"ID":306354,"DIS_CODE":0,"TOWNNAME":"新化區","LI":"太平里","LIN":"8鄰","STREET":"中正路","SECT":" ","MAREA":" ","LANE":"６６２巷","ALLEY":" ","HOUSE_NO":"２８號","E_COORD97":178716.45999999999,"N_COORD97":2549482.25,"ADDRESS":"中正路６６２巷２８號","OBJECTID":306346},"geometry":{"x":178716.45999999996,"y":2549482.2500000019}},{"attributes":{"ID":306355,"DIS_CODE":0,"TOWNNAME":"楠西區","LI":"照興里","LIN":"13鄰","STREET":" ","SECT":" ","MAREA":"興南","LANE":" ","ALLEY":" ","HOUSE_NO":"３９號","E_COORD97":195761.47,"N_COORD97":2562968.25,"ADDRESS":"興南３９號","OBJECTID":306347},"geometry":{"x":195761.46999999974,"y":2562968.2500000037}},{"attributes":{"ID":306356,"DIS_CODE":0,"TOWNNAME":"楠西區","LI":"照興里","LIN":"17鄰","STREET":" ","SECT":" ","MAREA":"興南","LANE":" ","ALLEY":" ","HOUSE_NO":"９０號","E_COORD97":195816.87,"N_COORD97":2566597.25,"ADDRESS":"興南９０號","OBJECTID":306348},"geometry":{"x":195816.87000000011,"y":2566597.2500000019}},{"attributes":{"ID":306357,"DIS_CODE":0,"TOWNNAME":"楠西區","LI":"照興里","LIN":"17鄰","STREET":" ","SECT":" ","MAREA":"興南","LANE":" ","ALLEY":" ","HOUSE_NO":"８０號","E_COORD97":196323.67000000001,"N_COORD97":2565291.25,"ADDRESS":"興南８０號","OBJECTID":306349},"geometry":{"x":196323.67000000086,"y":2565291.2500000019}},{"attributes":{"ID":306358,"DIS_CODE":0,"TOWNNAME":"楠西區","LI":"照興里","LIN":"4鄰","STREET":" ","SECT":" ","MAREA":"興北","LANE":" ","ALLEY":" ","HOUSE_NO":"５０號","E_COORD97":197832.67000000001,"N_COORD97":2567159.25,"ADDRESS":"興北５０號","OBJECTID":306350},"geometry":{"x":197832.67000000086,"y":2567159.2500000019}},{"attributes":{"ID":306359,"DIS_CODE":0,"TOWNNAME":"楠西區","LI":"照興里","LIN":"7鄰","STREET":" ","SECT":" ","MAREA":"興北","LANE":" ","ALLEY":" ","HOUSE_NO":"９１號","E_COORD97":196484.17000000001,"N_COORD97":2566062.25,"ADDRESS":"興北９１號","OBJECTID":306351},"geometry":{"x":196484.16999999993,"y":2566062.25}},{"attributes":{"ID":306360,"DIS_CODE":0,"TOWNNAME":"新化區","LI":"太平里","LIN":"8鄰","STREET":"中正路","SECT":" ","MAREA":" ","LANE":"６６２巷","ALLEY":" ","HOUSE_NO":"２６號","E_COORD97":178695.16,"N_COORD97":2549477.25,"ADDRESS":"中正路６６２巷２６號","OBJECTID":306352},"geometry":{"x":178695.16000000015,"y":2549477.25}},{"attributes":{"ID":306361,"DIS_CODE":0,"TOWNNAME":"新化區","LI":"太平里","LIN":"8鄰","STREET":"中正路","SECT":" ","MAREA":" ","LANE":"６６２巷","ALLEY":" ","HOUSE_NO":"４２號","E_COORD97":178732.56,"N_COORD97":2549473.25,"ADDRESS":"中正路６６２巷４２號","OBJECTID":306353},"geometry":{"x":178732.55999999959,"y":2549473.25}},{"attributes":{"ID":306362,"DIS_CODE":0,"TOWNNAME":"新化區","LI":"太平里","LIN":"8鄰","STREET":"中正路","SECT":" ","MAREA":" ","LANE":"６６２巷","ALLEY":" ","HOUSE_NO":"４１號","E_COORD97":178756.85999999999,"N_COORD97":2549455.25,"ADDRESS":"中正路６６２巷４１號","OBJECTID":306354},"geometry":{"x":178756.8599999994,"y":2549455.2500000019}},{"attributes":{"ID":306363,"DIS_CODE":0,"TOWNNAME":"新化區","LI":"太平里","LIN":"8鄰","STREET":"中正路","SECT":" ","MAREA":" ","LANE":"６６２巷","ALLEY":" ","HOUSE_NO":"３０號","E_COORD97":178718.26000000001,"N_COORD97":2549478.25,"ADDRESS":"中正路６６２巷３０號","OBJECTID":306355},"geometry":{"x":178718.26000000071,"y":2549478.2500000019}},{"attributes":{"ID":306364,"DIS_CODE":0,"TOWNNAME":"北區","LI":"光武里","LIN":"5鄰","STREET":"長榮路","SECT":"五段","MAREA":" ","LANE":"３８３巷","ALLEY":" ","HOUSE_NO":"４２號","E_COORD97":169512.35000000001,"N_COORD97":2545854.1099999999,"ADDRESS":"長榮路五段３８３巷４２號","OBJECTID":306356},"geometry":{"x":169512.3499999987,"y":2545854.1100000013}},{"attributes":{"ID":306365,"DIS_CODE":0,"TOWNNAME":"北區","LI":"光武里","LIN":"5鄰","STREET":"長榮路","SECT":"五段","MAREA":" ","LANE":"３８３巷","ALLEY":" ","HOUSE_NO":"４２號之１","E_COORD97":169512.82000000001,"N_COORD97":2545850.5299999998,"ADDRESS":"長榮路五段３８３巷４２號之１","OBJECTID":306357},"geometry":{"x":169512.8200000003,"y":2545850.5299999975}},{"attributes":{"ID":306366,"DIS_CODE":0,"TOWNNAME":"北區","LI":"光武里","LIN":"5鄰","STREET":"長榮路","SECT":"五段","MAREA":" ","LANE":"３８３巷","ALLEY":" ","HOUSE_NO":"４３號","E_COORD97":169542.42999999999,"N_COORD97":2545850.5299999998,"ADDRESS":"長榮路五段３８３巷４３號","OBJECTID":306358},"geometry":{"x":169542.43000000156,"y":2545850.5299999975}},{"attributes":{"ID":306367,"DIS_CODE":0,"TOWNNAME":"新化區","LI":"太平里","LIN":"8鄰","STREET":"中正路","SECT":" ","MAREA":" ","LANE":"６６２巷","ALLEY":" ","HOUSE_NO":"４７號","E_COORD97":178755.95999999999,"N_COORD97":2549443.25,"ADDRESS":"中正路６６２巷４７號","OBJECTID":306359},"geometry":{"x":178755.96000000183,"y":2549443.25}},{"attributes":{"ID":306368,"DIS_CODE":0,"TOWNNAME":"新化區","LI":"太平里","LIN":"8鄰","STREET":"中正路","SECT":" ","MAREA":" ","LANE":"６６２巷","ALLEY":" ","HOUSE_NO":"６號","E_COORD97":178685.01000000001,"N_COORD97":2549465.25,"ADDRESS":"中正路６６２巷６號","OBJECTID":306360},"geometry":{"x":178685.01000000071,"y":2549465.2500000019}},{"attributes":{"ID":306369,"DIS_CODE":0,"TOWNNAME":"新化區","LI":"豐榮里","LIN":"8鄰","STREET":"大智路","SECT":" ","MAREA":" ","LANE":"７７巷","ALLEY":" ","HOUSE_NO":"８號","E_COORD97":178260.38,"N_COORD97":2548267.25,"ADDRESS":"大智路７７巷８號","OBJECTID":306361},"geometry":{"x":178260.38000000082,"y":2548267.2500000037}},{"attributes":{"ID":306370,"DIS_CODE":0,"TOWNNAME":"新化區","LI":"東榮里","LIN":"8鄰","STREET":"信義路","SECT":" ","MAREA":" ","LANE":"１１７巷","ALLEY":" ","HOUSE_NO":"２８號之８２","E_COORD97":179844.57999999999,"N_COORD97":2548272.2599999998,"ADDRESS":"信義路１１７巷２８號之８２","OBJECTID":306362},"geometry":{"x":179844.58000000007,"y":2548272.2599999998}},{"attributes":{"ID":306371,"DIS_CODE":0,"TOWNNAME":"新化區","LI":"東榮里","LIN":"8鄰","STREET":"信義路","SECT":" ","MAREA":" ","LANE":"１３１巷","ALLEY":" ","HOUSE_NO":"３５號","E_COORD97":179674.98000000001,"N_COORD97":2548316.25,"ADDRESS":"信義路１３１巷３５號","OBJECTID":306363},"geometry":{"x":179674.97999999952,"y":2548316.2500000019}},{"attributes":{"ID":306372,"DIS_CODE":0,"TOWNNAME":"新化區","LI":"東榮里","LIN":"8鄰","STREET":"信義路","SECT":" ","MAREA":" ","LANE":"１１７巷","ALLEY":" ","HOUSE_NO":"３６號","E_COORD97":179801.67999999999,"N_COORD97":2548343.25,"ADDRESS":"信義路１１７巷３６號","OBJECTID":306364},"geometry":{"x":179801.67999999877,"y":2548343.2500000019}},{"attributes":{"ID":306373,"DIS_CODE":0,"TOWNNAME":"新化區","LI":"東榮里","LIN":"8鄰","STREET":"信義路","SECT":" ","MAREA":" ","LANE":"１１７巷","ALLEY":" ","HOUSE_NO":"２８號之７９","E_COORD97":179831.37,"N_COORD97":2548272.2599999998,"ADDRESS":"信義路１１７巷２８號之７９","OBJECTID":306365},"geometry":{"x":179831.37000000197,"y":2548272.2599999998}},{"attributes":{"ID":306374,"DIS_CODE":0,"TOWNNAME":"新化區","LI":"東榮里","LIN":"8鄰","STREET":"信義路","SECT":" ","MAREA":" ","LANE":"１１７巷","ALLEY":" ","HOUSE_NO":"３０號之９","E_COORD97":179742.72,"N_COORD97":2548270.2599999998,"ADDRESS":"信義路１１７巷３０號之９","OBJECTID":306366},"geometry":{"x":179742.72000000067,"y":2548270.2600000035}},{"attributes":{"ID":306375,"DIS_CODE":0,"TOWNNAME":"新化區","LI":"東榮里","LIN":"8鄰","STREET":"信義路","SECT":" ","MAREA":" ","LANE":"１１７巷","ALLEY":" ","HOUSE_NO":"７１號之３","E_COORD97":179724.03,"N_COORD97":2548259.2599999998,"ADDRESS":"信義路１１７巷７１號之３","OBJECTID":306367},"geometry":{"x":179724.03000000119,"y":2548259.2599999998}},{"attributes":{"ID":306376,"DIS_CODE":0,"TOWNNAME":"新化區","LI":"豐榮里","LIN":"8鄰","STREET":"大智路","SECT":" ","MAREA":" ","LANE":"７７巷","ALLEY":" ","HOUSE_NO":"１號","E_COORD97":178269.17999999999,"N_COORD97":2548275.25,"ADDRESS":"大智路７７巷１號","OBJECTID":306368},"geometry":{"x":178269.1799999997,"y":2548275.2500000019}},{"attributes":{"ID":306377,"DIS_CODE":0,"TOWNNAME":"新化區","LI":"豐榮里","LIN":"8鄰","STREET":"大智路","SECT":" ","MAREA":" ","LANE":"７７巷","ALLEY":" ","HOUSE_NO":"９號","E_COORD97":178285.28,"N_COORD97":2548281.25,"ADDRESS":"大智路７７巷９號","OBJECTID":306369},"geometry":{"x":178285.28000000119,"y":2548281.2500000019}},{"attributes":{"ID":306378,"DIS_CODE":0,"TOWNNAME":"新化區","LI":"太平里","LIN":"8鄰","STREET":"中正路","SECT":" ","MAREA":" ","LANE":"６６２巷","ALLEY":" ","HOUSE_NO":"５１號","E_COORD97":178755.56,"N_COORD97":2549434.25,"ADDRESS":"中正路６６２巷５１號","OBJECTID":306370},"geometry":{"x":178755.56000000052,"y":2549434.2500000019}},{"attributes":{"ID":306379,"DIS_CODE":0,"TOWNNAME":"新化區","LI":"東榮里","LIN":"8鄰","STREET":"信義路","SECT":" ","MAREA":" ","LANE":"１１７巷","ALLEY":" ","HOUSE_NO":"２８號之８３","E_COORD97":179849.57999999999,"N_COORD97":2548272.2599999998,"ADDRESS":"信義路１１７巷２８號之８３","OBJECTID":306371},"geometry":{"x":179849.58000000007,"y":2548272.2599999998}},{"attributes":{"ID":306380,"DIS_CODE":0,"TOWNNAME":"新化區","LI":"太平里","LIN":"8鄰","STREET":"中正路","SECT":" ","MAREA":" ","LANE":"６６２巷","ALLEY":" ","HOUSE_NO":"４９號","E_COORD97":178755.56,"N_COORD97":2549438.25,"ADDRESS":"中正路６６２巷４９號","OBJECTID":306372},"geometry":{"x":178755.56000000052,"y":2549438.2500000019}},{"attributes":{"ID":306381,"DIS_CODE":0,"TOWNNAME":"楠西區","LI":"密枝里","LIN":"13鄰","STREET":" ","SECT":" ","MAREA":"密枝","LANE":" ","ALLEY":" ","HOUSE_NO":"５８號之１０","E_COORD97":203809.39999999999,"N_COORD97":2566279.2999999998,"ADDRESS":"密枝５８號之１０","OBJECTID":306373},"geometry":{"x":203809.40000000037,"y":2566279.3000000007}},{"attributes":{"ID":306382,"DIS_CODE":0,"TOWNNAME":"新化區","LI":"東榮里","LIN":"8鄰","STREET":"信義路","SECT":" ","MAREA":" ","LANE":"１１７巷","ALLEY":" ","HOUSE_NO":"７１號之４","E_COORD97":179727.81,"N_COORD97":2548259.2599999998,"ADDRESS":"信義路１１７巷７１號之４","OBJECTID":306374},"geometry":{"x":179727.80999999866,"y":2548259.2599999998}},{"attributes":{"ID":306383,"DIS_CODE":0,"TOWNNAME":"新化區","LI":"東榮里","LIN":"8鄰","STREET":"信義路","SECT":" ","MAREA":" ","LANE":"１１７巷","ALLEY":" ","HOUSE_NO":"２８號之６６","E_COORD97":179818.38,"N_COORD97":2548282.2599999998,"ADDRESS":"信義路１１７巷２８號之６６","OBJECTID":306375},"geometry":{"x":179818.38000000082,"y":2548282.2599999998}},{"attributes":{"ID":306384,"DIS_CODE":0,"TOWNNAME":"楠西區","LI":"密枝里","LIN":"4鄰","STREET":" ","SECT":" ","MAREA":"密枝","LANE":" ","ALLEY":" ","HOUSE_NO":"４０號","E_COORD97":201414.57000000001,"N_COORD97":2566225.2799999998,"ADDRESS":"密枝４０號","OBJECTID":306376},"geometry":{"x":201414.5700000003,"y":2566225.2800000031}},{"attributes":{"ID":306385,"DIS_CODE":0,"TOWNNAME":"新化區","LI":"東榮里","LIN":"8鄰","STREET":"信義路","SECT":" ","MAREA":" ","LANE":"１１７巷","ALLEY":" ","HOUSE_NO":"２８號之７","E_COORD97":179770.92000000001,"N_COORD97":2548341.2599999998,"ADDRESS":"信義路１１７巷２８號之７","OBJECTID":306377},"geometry":{"x":179770.91999999993,"y":2548341.2599999998}},{"attributes":{"ID":306386,"DIS_CODE":0,"TOWNNAME":"新化區","LI":"太平里","LIN":"8鄰","STREET":"中正路","SECT":" ","MAREA":" ","LANE":"６６２巷","ALLEY":" ","HOUSE_NO":"３２號","E_COORD97":178719.76000000001,"N_COORD97":2549474.25,"ADDRESS":"中正路６６２巷３２號","OBJECTID":306378},"geometry":{"x":178719.76000000164,"y":2549474.2500000037}},{"attributes":{"ID":306387,"DIS_CODE":0,"TOWNNAME":"楠西區","LI":"鹿田里","LIN":"4鄰","STREET":" ","SECT":" ","MAREA":"鹿陶洋","LANE":" ","ALLEY":" ","HOUSE_NO":"４７號之１","E_COORD97":197932.25,"N_COORD97":2561526.2999999998,"ADDRESS":"鹿陶洋４７號之１","OBJECTID":306379},"geometry":{"x":197932.25000000093,"y":2561526.3000000007}},{"attributes":{"ID":306388,"DIS_CODE":0,"TOWNNAME":"楠西區","LI":"密枝里","LIN":"13鄰","STREET":" ","SECT":" ","MAREA":"密枝","LANE":" ","ALLEY":" ","HOUSE_NO":"５７號之３０","E_COORD97":202768.20000000001,"N_COORD97":2566976.2999999998,"ADDRESS":"密枝５７號之３０","OBJECTID":306380},"geometry":{"x":202768.20000000019,"y":2566976.3000000026}},{"attributes":{"ID":306389,"DIS_CODE":0,"TOWNNAME":"新化區","LI":"太平里","LIN":"8鄰","STREET":"中正路","SECT":" ","MAREA":" ","LANE":"６６２巷","ALLEY":" ","HOUSE_NO":"１８號","E_COORD97":178700.76000000001,"N_COORD97":2549462.25,"ADDRESS":"中正路６６２巷１８號","OBJECTID":306381},"geometry":{"x":178700.75999999978,"y":2549462.2500000019}},{"attributes":{"ID":306390,"DIS_CODE":0,"TOWNNAME":"新化區","LI":"太平里","LIN":"8鄰","STREET":"中正路","SECT":" ","MAREA":" ","LANE":"６６２巷","ALLEY":" ","HOUSE_NO":"２３號","E_COORD97":178723.26000000001,"N_COORD97":2549490.25,"ADDRESS":"中正路６６２巷２３號","OBJECTID":306382},"geometry":{"x":178723.26000000164,"y":2549490.25}},{"attributes":{"ID":306391,"DIS_CODE":0,"TOWNNAME":"楠西區","LI":"密枝里","LIN":"13鄰","STREET":" ","SECT":" ","MAREA":"密枝","LANE":" ","ALLEY":" ","HOUSE_NO":"５８號之３０","E_COORD97":204769.39999999999,"N_COORD97":2566124.2999999998,"ADDRESS":"密枝５８號之３０","OBJECTID":306383},"geometry":{"x":204769.40000000224,"y":2566124.3000000007}},{"attributes":{"ID":306392,"DIS_CODE":0,"TOWNNAME":"楠西區","LI":"鹿田里","LIN":"4鄰","STREET":" ","SECT":" ","MAREA":"鹿陶洋","LANE":" ","ALLEY":" ","HOUSE_NO":"４０號之７","E_COORD97":198019.03,"N_COORD97":2560926.2999999998,"ADDRESS":"鹿陶洋４０號之７","OBJECTID":306384},"geometry":{"x":198019.03000000119,"y":2560926.3000000007}},{"attributes":{"ID":306393,"DIS_CODE":0,"TOWNNAME":"楠西區","LI":"密枝里","LIN":"13鄰","STREET":" ","SECT":" ","MAREA":"密枝","LANE":" ","ALLEY":" ","HOUSE_NO":"５７號之２２","E_COORD97":202829.48999999999,"N_COORD97":2567030.2999999998,"ADDRESS":"密枝５７號之２２","OBJECTID":306385},"geometry":{"x":202829.49000000209,"y":2567030.3000000045}},{"attributes":{"ID":306394,"DIS_CODE":0,"TOWNNAME":"新化區","LI":"太平里","LIN":"8鄰","STREET":"中正路","SECT":" ","MAREA":" ","LANE":"６６２巷","ALLEY":" ","HOUSE_NO":"１１號","E_COORD97":178696.26000000001,"N_COORD97":2549489.25,"ADDRESS":"中正路６６２巷１１號","OBJECTID":306386},"geometry":{"x":178696.26000000071,"y":2549489.2500000019}},{"attributes":{"ID":306395,"DIS_CODE":0,"TOWNNAME":"楠西區","LI":"密枝里","LIN":"4鄰","STREET":" ","SECT":" ","MAREA":"密枝","LANE":" ","ALLEY":" ","HOUSE_NO":"４３號","E_COORD97":201045.26999999999,"N_COORD97":2566657.2799999998,"ADDRESS":"密枝４３號","OBJECTID":306387},"geometry":{"x":201045.27000000048,"y":2566657.2800000012}},{"attributes":{"ID":306396,"DIS_CODE":0,"TOWNNAME":"楠西區","LI":"鹿田里","LIN":"13鄰","STREET":" ","SECT":" ","MAREA":"油車","LANE":" ","ALLEY":" ","HOUSE_NO":"６７號之８","E_COORD97":197811.72,"N_COORD97":2562851.2999999998,"ADDRESS":"油車６７號之８","OBJECTID":306388},"geometry":{"x":197811.72000000067,"y":2562851.3000000026}},{"attributes":{"ID":306397,"DIS_CODE":0,"TOWNNAME":"楠西區","LI":"密枝里","LIN":"13鄰","STREET":" ","SECT":" ","MAREA":"密枝","LANE":" ","ALLEY":" ","HOUSE_NO":"５７號之２７","E_COORD97":202800.53,"N_COORD97":2567012.2999999998,"ADDRESS":"密枝５７號之２７","OBJECTID":306389},"geometry":{"x":202800.53000000119,"y":2567012.3000000007}},{"attributes":{"ID":306398,"DIS_CODE":0,"TOWNNAME":"楠西區","LI":"龜丹里","LIN":"4鄰","STREET":" ","SECT":" ","MAREA":"龜丹","LANE":" ","ALLEY":" ","HOUSE_NO":"５０號之４","E_COORD97":198481.89999999999,"N_COORD97":2559253.2999999998,"ADDRESS":"龜丹５０號之４","OBJECTID":306390},"geometry":{"x":198481.89999999944,"y":2559253.3000000026}},{"attributes":{"ID":306399,"DIS_CODE":0,"TOWNNAME":"楠西區","LI":"密枝里","LIN":"4鄰","STREET":" ","SECT":" ","MAREA":"密枝","LANE":" ","ALLEY":" ","HOUSE_NO":"３９號","E_COORD97":201018.87,"N_COORD97":2565884.2799999998,"ADDRESS":"密枝３９號","OBJECTID":306391},"geometry":{"x":201018.87000000011,"y":2565884.2800000012}},{"attributes":{"ID":306400,"DIS_CODE":0,"TOWNNAME":"新化區","LI":"協興里","LIN":"8鄰","STREET":"太平街","SECT":" ","MAREA":" ","LANE":"１５０巷","ALLEY":" ","HOUSE_NO":"８號","E_COORD97":178363.32000000001,"N_COORD97":2548735.25,"ADDRESS":"太平街１５０巷８號","OBJECTID":306392},"geometry":{"x":178363.3200000003,"y":2548735.2500000037}},{"attributes":{"ID":306401,"DIS_CODE":0,"TOWNNAME":"新化區","LI":"太平里","LIN":"8鄰","STREET":"中正路","SECT":" ","MAREA":" ","LANE":"５９０巷","ALLEY":" ","HOUSE_NO":"３號","E_COORD97":178812.91,"N_COORD97":2549239.25,"ADDRESS":"中正路５９０巷３號","OBJECTID":306393},"geometry":{"x":178812.91000000108,"y":2549239.25}},{"attributes":{"ID":306402,"DIS_CODE":0,"TOWNNAME":"楠西區","LI":"灣丘里","LIN":"13鄰","STREET":" ","SECT":" ","MAREA":"鳳興","LANE":" ","ALLEY":" ","HOUSE_NO":"１０號之１","E_COORD97":198691.60000000001,"N_COORD97":2562702.2999999998,"ADDRESS":"鳳興１０號之１","OBJECTID":306394},"geometry":{"x":198691.5999999987,"y":2562702.3000000007}},{"attributes":{"ID":306403,"DIS_CODE":0,"TOWNNAME":"新化區","LI":"太平里","LIN":"8鄰","STREET":"中正路","SECT":" ","MAREA":" ","LANE":"６６２巷","ALLEY":" ","HOUSE_NO":"３９號","E_COORD97":178757.26000000001,"N_COORD97":2549459.25,"ADDRESS":"中正路６６２巷３９號","OBJECTID":306395},"geometry":{"x":178757.26000000071,"y":2549459.25}},{"attributes":{"ID":306404,"DIS_CODE":0,"TOWNNAME":"柳營區","LI":"神農里","LIN":"15鄰","STREET":" ","SECT":" ","MAREA":"新厝","LANE":" ","ALLEY":" ","HOUSE_NO":"５號之３","E_COORD97":183377.88,"N_COORD97":2573214.98,"ADDRESS":"新厝５號之３","OBJECTID":306396},"geometry":{"x":183377.88000000082,"y":2573214.9800000004}},{"attributes":{"ID":306405,"DIS_CODE":0,"TOWNNAME":"新化區","LI":"太平里","LIN":"8鄰","STREET":"中正路","SECT":" ","MAREA":" ","LANE":"６６２巷","ALLEY":" ","HOUSE_NO":"１３號","E_COORD97":178700.16,"N_COORD97":2549490.25,"ADDRESS":"中正路６６２巷１３號","OBJECTID":306397},"geometry":{"x":178700.16000000015,"y":2549490.25}},{"attributes":{"ID":306406,"DIS_CODE":0,"TOWNNAME":"楠西區","LI":"龜丹里","LIN":"4鄰","STREET":" ","SECT":" ","MAREA":"龜丹","LANE":" ","ALLEY":" ","HOUSE_NO":"４１號之３","E_COORD97":198420.76999999999,"N_COORD97":2559278.2999999998,"ADDRESS":"龜丹４１號之３","OBJECTID":306398},"geometry":{"x":198420.76999999955,"y":2559278.3000000007}},{"attributes":{"ID":306407,"DIS_CODE":0,"TOWNNAME":"楠西區","LI":"密枝里","LIN":"13鄰","STREET":" ","SECT":" ","MAREA":"密枝","LANE":" ","ALLEY":" ","HOUSE_NO":"５７號之３２","E_COORD97":202788.39000000001,"N_COORD97":2567001.2999999998,"ADDRESS":"密枝５７號之３２","OBJECTID":306399},"geometry":{"x":202788.38999999966,"y":2567001.3000000007}},{"attributes":{"ID":306408,"DIS_CODE":0,"TOWNNAME":"楠西區","LI":"密枝里","LIN":"13鄰","STREET":" ","SECT":" ","MAREA":"密枝","LANE":" ","ALLEY":" ","HOUSE_NO":"５７號之１０","E_COORD97":202854.29999999999,"N_COORD97":2566901.2999999998,"ADDRESS":"密枝５７號之１０","OBJECTID":306400},"geometry":{"x":202854.30000000075,"y":2566901.3000000045}}]}