{"displayFieldName":"TOWNNAME","fieldAliases":{"ID":"ID","DIS_CODE":"DIS_CODE","TOWNNAME":"TOWNNAME","LI":"LI","LIN":"LIN","STREET":"STREET","SECT":"SECT","MAREA":"MAREA","LANE":"LANE","ALLEY":"ALLEY","HOUSE_NO":"HOUSE_NO","E_COORD97":"E_COORD97","N_COORD97":"N_COORD97","ADDRESS":"ADDRESS","OBJECTID":"OBJECTID"},"geometryType":"esriGeometryPoint","spatialReference":{"wkid":102443,"latestWkid":3826},"fields":[{"name":"ID","type":"esriFieldTypeDouble","alias":"ID"},{"name":"DIS_CODE","type":"esriFieldTypeInteger","alias":"DIS_CODE"},{"name":"TOWNNAME","type":"esriFieldTypeString","alias":"TOWNNAME","length":8},{"name":"LI","type":"esriFieldTypeString","alias":"LI","length":8},{"name":"LIN","type":"esriFieldTypeString","alias":"LIN","length":12},{"name":"STREET","type":"esriFieldTypeString","alias":"STREET","length":20},{"name":"SECT","type":"esriFieldTypeString","alias":"SECT","length":8},{"name":"MAREA","type":"esriFieldTypeString","alias":"MAREA","length":12},{"name":"LANE","type":"esriFieldTypeString","alias":"LANE","length":10},{"name":"ALLEY","type":"esriFieldTypeString","alias":"ALLEY","length":10},{"name":"HOUSE_NO","type":"esriFieldTypeString","alias":"HOUSE_NO","length":20},{"name":"E_COORD97","type":"esriFieldTypeDouble","alias":"E_COORD97"},{"name":"N_COORD97","type":"esriFieldTypeDouble","alias":"N_COORD97"},{"name":"ADDRESS","type":"esriFieldTypeString","alias":"ADDRESS","length":50},{"name":"OBJECTID","type":"esriFieldTypeOID","alias":"OBJECTID"}],"features":[{"attributes":{"ID":143801,"DIS_CODE":0,"TOWNNAME":"官田區","LI":"隆本里","LIN":"30鄰","STREET":"中山路","SECT":"二段","MAREA":" ","LANE":" ","ALLEY":" ","HOUSE_NO":"１７２號","E_COORD97":178823.10000000001,"N_COORD97":2566082.2799999998,"ADDRESS":"中山路二段１７２號","OBJECTID":143801},"geometry":{"x":178823.10000000056,"y":2566082.2799999993}},{"attributes":{"ID":143802,"DIS_CODE":0,"TOWNNAME":"安南區","LI":"\u25A0田里","LIN":"1鄰","STREET":"\u25A0田路","SECT":" ","MAREA":" ","LANE":"３２９巷","ALLEY":"１０弄","HOUSE_NO":"２６號","E_COORD97":161962.38,"N_COORD97":2548040.1400000001,"ADDRESS":"\u25A0田路３２９巷１０弄２６號","OBJECTID":143802},"geometry":{"x":161962.38000000082,"y":2548040.1400000006}},{"attributes":{"ID":143803,"DIS_CODE":0,"TOWNNAME":"安南區","LI":"\u25A0田里","LIN":"1鄰","STREET":"\u25A0田路","SECT":" ","MAREA":" ","LANE":"３２９巷","ALLEY":"１０弄","HOUSE_NO":"２８號","E_COORD97":161958.09,"N_COORD97":2548038.3900000001,"ADDRESS":"\u25A0田路３２９巷１０弄２８號","OBJECTID":143803},"geometry":{"x":161958.09000000078,"y":2548038.3900000006}},{"attributes":{"ID":143804,"DIS_CODE":0,"TOWNNAME":"安定區","LI":"中沙里","LIN":"4鄰","STREET":" ","SECT":" ","MAREA":"中崙","LANE":" ","ALLEY":" ","HOUSE_NO":"１２５號之５","E_COORD97":169091.70000000001,"N_COORD97":2553162.2999999998,"ADDRESS":"中崙１２５號之５","OBJECTID":143804},"geometry":{"x":169091.70000000019,"y":2553162.3000000007}},{"attributes":{"ID":143805,"DIS_CODE":0,"TOWNNAME":"安定區","LI":"海寮里","LIN":"13鄰","STREET":" ","SECT":" ","MAREA":"海寮","LANE":" ","ALLEY":" ","HOUSE_NO":"１２９號之１","E_COORD97":169052.38,"N_COORD97":2555290.2999999998,"ADDRESS":"海寮１２９號之１","OBJECTID":143805},"geometry":{"x":169052.37999999989,"y":2555290.3000000026}},{"attributes":{"ID":143806,"DIS_CODE":0,"TOWNNAME":"安定區","LI":"海寮里","LIN":"14鄰","STREET":" ","SECT":" ","MAREA":"海寮","LANE":" ","ALLEY":" ","HOUSE_NO":"１３３之９號","E_COORD97":169046.540182,"N_COORD97":2555359.0417499999,"ADDRESS":"海寮１３３之９號","OBJECTID":143806},"geometry":{"x":169046.54018200096,"y":2555359.0417480022}},{"attributes":{"ID":143807,"DIS_CODE":0,"TOWNNAME":"安定區","LI":"安定里","LIN":"4鄰","STREET":" ","SECT":" ","MAREA":"安定","LANE":" ","ALLEY":" ","HOUSE_NO":"７之５號","E_COORD97":172605.67161799999,"N_COORD97":2558085.2184000001,"ADDRESS":"安定７之５號","OBJECTID":143807},"geometry":{"x":172605.67161800154,"y":2558085.218402002}},{"attributes":{"ID":143808,"DIS_CODE":0,"TOWNNAME":"安定區","LI":"安定里","LIN":"4鄰","STREET":" ","SECT":" ","MAREA":"安定","LANE":" ","ALLEY":" ","HOUSE_NO":"９之５號","E_COORD97":172616.257896,"N_COORD97":2558051.6106199999,"ADDRESS":"安定９之５號","OBJECTID":143808},"geometry":{"x":172616.25789600052,"y":2558051.6106170006}},{"attributes":{"ID":143809,"DIS_CODE":0,"TOWNNAME":"安定區","LI":"安定里","LIN":"4鄰","STREET":" ","SECT":" ","MAREA":"安定","LANE":" ","ALLEY":" ","HOUSE_NO":"９號之１","E_COORD97":172572.85000000001,"N_COORD97":2558056.3199999998,"ADDRESS":"安定９號之１","OBJECTID":143809},"geometry":{"x":172572.85000000056,"y":2558056.3200000022}},{"attributes":{"ID":143810,"DIS_CODE":0,"TOWNNAME":"安南區","LI":"\u25A0田里","LIN":"1鄰","STREET":"\u25A0田路","SECT":" ","MAREA":" ","LANE":"３２９巷","ALLEY":"１０弄","HOUSE_NO":"２７號","E_COORD97":161948.20000000001,"N_COORD97":2548012.3900000001,"ADDRESS":"\u25A0田路３２９巷１０弄２７號","OBJECTID":143810},"geometry":{"x":161948.20000000019,"y":2548012.3900000006}},{"attributes":{"ID":143811,"DIS_CODE":0,"TOWNNAME":"安南區","LI":"\u25A0田里","LIN":"1鄰","STREET":"\u25A0田路","SECT":" ","MAREA":" ","LANE":"３２９巷","ALLEY":"１０弄","HOUSE_NO":"２９號","E_COORD97":161942.79999999999,"N_COORD97":2548010.7999999998,"ADDRESS":"\u25A0田路３２９巷１０弄２９號","OBJECTID":143811},"geometry":{"x":161942.80000000075,"y":2548010.8000000026}},{"attributes":{"ID":143812,"DIS_CODE":0,"TOWNNAME":"安定區","LI":"六嘉里","LIN":"4鄰","STREET":" ","SECT":" ","MAREA":"六塊寮","LANE":" ","ALLEY":" ","HOUSE_NO":"３０號之１７","E_COORD97":169877.57999999999,"N_COORD97":2553309.2999999998,"ADDRESS":"六塊寮３０號之１７","OBJECTID":143812},"geometry":{"x":169877.58000000194,"y":2553309.3000000045}},{"attributes":{"ID":143813,"DIS_CODE":0,"TOWNNAME":"歸仁區","LI":"新厝里","LIN":"24鄰","STREET":"大成路","SECT":" ","MAREA":" ","LANE":" ","ALLEY":" ","HOUSE_NO":"１６８號","E_COORD97":177729.25200499999,"N_COORD97":2540214.73661,"ADDRESS":"大成路１６８號","OBJECTID":143813},"geometry":{"x":177729.25200499967,"y":2540214.7366059981}},{"attributes":{"ID":143814,"DIS_CODE":0,"TOWNNAME":"永康區","LI":"甲頂里","LIN":"30鄰","STREET":"中正南路","SECT":" ","MAREA":" ","LANE":" ","ALLEY":" ","HOUSE_NO":"１２３之１號","E_COORD97":169698.09,"N_COORD97":2546993.1099999999,"ADDRESS":"中正南路１２３之１號","OBJECTID":143814},"geometry":{"x":169698.09000000078,"y":2546993.1100000031}},{"attributes":{"ID":143815,"DIS_CODE":0,"TOWNNAME":"永康區","LI":"甲頂里","LIN":"30鄰","STREET":"中正南路","SECT":" ","MAREA":" ","LANE":" ","ALLEY":" ","HOUSE_NO":"１５９號","E_COORD97":169793.16,"N_COORD97":2547122.4900000002,"ADDRESS":"中正南路１５９號","OBJECTID":143815},"geometry":{"x":169793.16000000015,"y":2547122.4900000002}},{"attributes":{"ID":143816,"DIS_CODE":0,"TOWNNAME":"永康區","LI":"永康里","LIN":"30鄰","STREET":"永華路","SECT":" ","MAREA":" ","LANE":" ","ALLEY":" ","HOUSE_NO":"７３０號","E_COORD97":174114.87,"N_COORD97":2547122.77,"ADDRESS":"永華路７３０號","OBJECTID":143816},"geometry":{"x":174114.87000000011,"y":2547122.7699999996}},{"attributes":{"ID":143817,"DIS_CODE":0,"TOWNNAME":"永康區","LI":"甲頂里","LIN":"30鄰","STREET":"中正南路","SECT":" ","MAREA":" ","LANE":" ","ALLEY":" ","HOUSE_NO":"１３３號","E_COORD97":169756.47,"N_COORD97":2547052,"ADDRESS":"中正南路１３３號","OBJECTID":143817},"geometry":{"x":169756.47000000067,"y":2547052.0000000037}},{"attributes":{"ID":143818,"DIS_CODE":0,"TOWNNAME":"安南區","LI":"\u25A0田里","LIN":"1鄰","STREET":"\u25A0田路","SECT":" ","MAREA":" ","LANE":"３２９巷","ALLEY":"１０弄","HOUSE_NO":"３０號","E_COORD97":161953.97,"N_COORD97":2548037.7599999998,"ADDRESS":"\u25A0田路３２９巷１０弄３０號","OBJECTID":143818},"geometry":{"x":161953.96999999974,"y":2548037.7600000016}},{"attributes":{"ID":143819,"DIS_CODE":0,"TOWNNAME":"安南區","LI":"\u25A0田里","LIN":"1鄰","STREET":"\u25A0田路","SECT":" ","MAREA":" ","LANE":"３２９巷","ALLEY":"１０弄","HOUSE_NO":"３１號","E_COORD97":161938.98999999999,"N_COORD97":2548010.3199999998,"ADDRESS":"\u25A0田路３２９巷１０弄３１號","OBJECTID":143819},"geometry":{"x":161938.99000000022,"y":2548010.3200000022}},{"attributes":{"ID":143820,"DIS_CODE":0,"TOWNNAME":"安南區","LI":"\u25A0田里","LIN":"1鄰","STREET":"\u25A0田路","SECT":" ","MAREA":" ","LANE":"３２９巷","ALLEY":"１０弄","HOUSE_NO":"３２號","E_COORD97":161949.84,"N_COORD97":2548036.1699999999,"ADDRESS":"\u25A0田路３２９巷１０弄３２號","OBJECTID":143820},"geometry":{"x":161949.83999999985,"y":2548036.1699999999}},{"attributes":{"ID":143821,"DIS_CODE":0,"TOWNNAME":"安定區","LI":"安定里","LIN":"4鄰","STREET":" ","SECT":" ","MAREA":"安定","LANE":" ","ALLEY":" ","HOUSE_NO":"１０之１號","E_COORD97":172569.37,"N_COORD97":2558098.3199999998,"ADDRESS":"安定１０之１號","OBJECTID":143821},"geometry":{"x":172569.37000000197,"y":2558098.3200000003}},{"attributes":{"ID":143822,"DIS_CODE":0,"TOWNNAME":"安南區","LI":"\u25A0田里","LIN":"1鄰","STREET":"\u25A0田路","SECT":" ","MAREA":" ","LANE":"３２９巷","ALLEY":"１０弄","HOUSE_NO":"３３號","E_COORD97":161933.91,"N_COORD97":2548010.1600000001,"ADDRESS":"\u25A0田路３２９巷１０弄３３號","OBJECTID":143822},"geometry":{"x":161933.91000000108,"y":2548010.1599999983}},{"attributes":{"ID":143823,"DIS_CODE":0,"TOWNNAME":"安南區","LI":"\u25A0田里","LIN":"1鄰","STREET":"\u25A0田路","SECT":" ","MAREA":" ","LANE":"３２９巷","ALLEY":"１０弄","HOUSE_NO":"３５號","E_COORD97":161928.20000000001,"N_COORD97":2548007.7799999998,"ADDRESS":"\u25A0田路３２９巷１０弄３５號","OBJECTID":143823},"geometry":{"x":161928.20000000205,"y":2548007.7799999993}},{"attributes":{"ID":143824,"DIS_CODE":0,"TOWNNAME":"安南區","LI":"\u25A0田里","LIN":"1鄰","STREET":"\u25A0田路","SECT":" ","MAREA":" ","LANE":"３２９巷","ALLEY":"６弄","HOUSE_NO":"１０號","E_COORD97":161976.19,"N_COORD97":2548084.1899999999,"ADDRESS":"\u25A0田路３２９巷６弄１０號","OBJECTID":143824},"geometry":{"x":161976.19000000134,"y":2548084.1900000032}},{"attributes":{"ID":143825,"DIS_CODE":0,"TOWNNAME":"安南區","LI":"\u25A0田里","LIN":"1鄰","STREET":"\u25A0田路","SECT":" ","MAREA":" ","LANE":"３２９巷","ALLEY":"２弄","HOUSE_NO":"１３號","E_COORD97":161957.29999999999,"N_COORD97":2548097.0499999998,"ADDRESS":"\u25A0田路３２９巷２弄１３號","OBJECTID":143825},"geometry":{"x":161957.29999999981,"y":2548097.0500000026}},{"attributes":{"ID":143826,"DIS_CODE":0,"TOWNNAME":"安南區","LI":"\u25A0田里","LIN":"1鄰","STREET":"\u25A0田路","SECT":" ","MAREA":" ","LANE":"３２９巷","ALLEY":"２弄","HOUSE_NO":"１５號","E_COORD97":161953.17000000001,"N_COORD97":2548096.4199999999,"ADDRESS":"\u25A0田路３２９巷２弄１５號","OBJECTID":143826},"geometry":{"x":161953.16999999993,"y":2548096.4200000037}},{"attributes":{"ID":143827,"DIS_CODE":0,"TOWNNAME":"安南區","LI":"\u25A0田里","LIN":"1鄰","STREET":"\u25A0田路","SECT":" ","MAREA":" ","LANE":"３２９巷","ALLEY":"２弄","HOUSE_NO":"１７號","E_COORD97":161948.25,"N_COORD97":2548095.9399999999,"ADDRESS":"\u25A0田路３２９巷２弄１７號","OBJECTID":143827},"geometry":{"x":161948.25000000093,"y":2548095.9400000032}},{"attributes":{"ID":143828,"DIS_CODE":0,"TOWNNAME":"安南區","LI":"\u25A0田里","LIN":"1鄰","STREET":"\u25A0田路","SECT":" ","MAREA":" ","LANE":"３２９巷","ALLEY":"２弄","HOUSE_NO":"１９號","E_COORD97":161944.92000000001,"N_COORD97":2548094.9900000002,"ADDRESS":"\u25A0田路３２９巷２弄１９號","OBJECTID":143828},"geometry":{"x":161944.92000000179,"y":2548094.9900000002}},{"attributes":{"ID":143829,"DIS_CODE":0,"TOWNNAME":"安南區","LI":"\u25A0田里","LIN":"1鄰","STREET":"\u25A0田路","SECT":" ","MAREA":" ","LANE":"３２９巷","ALLEY":"２弄","HOUSE_NO":"１號","E_COORD97":161985.72,"N_COORD97":2548099.9100000001,"ADDRESS":"\u25A0田路３２９巷２弄１號","OBJECTID":143829},"geometry":{"x":161985.72000000067,"y":2548099.9100000001}},{"attributes":{"ID":143830,"DIS_CODE":0,"TOWNNAME":"安南區","LI":"\u25A0田里","LIN":"1鄰","STREET":"\u25A0田路","SECT":" ","MAREA":" ","LANE":"３２９巷","ALLEY":"２弄","HOUSE_NO":"２１號","E_COORD97":161941.26999999999,"N_COORD97":2548094.8300000001,"ADDRESS":"\u25A0田路３２９巷２弄２１號","OBJECTID":143830},"geometry":{"x":161941.27000000048,"y":2548094.8300000019}},{"attributes":{"ID":143831,"DIS_CODE":0,"TOWNNAME":"安定區","LI":"中沙里","LIN":"4鄰","STREET":" ","SECT":" ","MAREA":"中崙","LANE":" ","ALLEY":" ","HOUSE_NO":"１１０號","E_COORD97":169041.70999999999,"N_COORD97":2553160.25,"ADDRESS":"中崙１１０號","OBJECTID":143831},"geometry":{"x":169041.70999999996,"y":2553160.2500000019}},{"attributes":{"ID":143832,"DIS_CODE":0,"TOWNNAME":"安定區","LI":"港口里","LIN":"18鄰","STREET":" ","SECT":" ","MAREA":"港口","LANE":" ","ALLEY":" ","HOUSE_NO":"３７２號之９","E_COORD97":171399.41,"N_COORD97":2554956.2999999998,"ADDRESS":"港口３７２號之９","OBJECTID":143832},"geometry":{"x":171399.41000000201,"y":2554956.3000000007}},{"attributes":{"ID":143833,"DIS_CODE":0,"TOWNNAME":"安南區","LI":"\u25A0田里","LIN":"1鄰","STREET":"\u25A0田路","SECT":" ","MAREA":" ","LANE":"３２９巷","ALLEY":"２弄","HOUSE_NO":"２３號","E_COORD97":161937.29999999999,"N_COORD97":2548094.6699999999,"ADDRESS":"\u25A0田路３２９巷２弄２３號","OBJECTID":143833},"geometry":{"x":161937.30000000168,"y":2548094.6699999981}},{"attributes":{"ID":143834,"DIS_CODE":0,"TOWNNAME":"安南區","LI":"\u25A0田里","LIN":"1鄰","STREET":"\u25A0田路","SECT":" ","MAREA":" ","LANE":"３２９巷","ALLEY":"２弄","HOUSE_NO":"２５號","E_COORD97":161933.17000000001,"N_COORD97":2548093.2400000002,"ADDRESS":"\u25A0田路３２９巷２弄２５號","OBJECTID":143834},"geometry":{"x":161933.17000000179,"y":2548093.2400000002}},{"attributes":{"ID":143835,"DIS_CODE":0,"TOWNNAME":"安南區","LI":"\u25A0田里","LIN":"1鄰","STREET":"\u25A0田路","SECT":" ","MAREA":" ","LANE":"３２９巷","ALLEY":"２弄","HOUSE_NO":"２７號","E_COORD97":161928.57000000001,"N_COORD97":2548093.0800000001,"ADDRESS":"\u25A0田路３２９巷２弄２７號","OBJECTID":143835},"geometry":{"x":161928.5700000003,"y":2548093.0800000019}},{"attributes":{"ID":143836,"DIS_CODE":0,"TOWNNAME":"安定區","LI":"大同里","LIN":"13鄰","STREET":" ","SECT":" ","MAREA":"大同","LANE":" ","ALLEY":" ","HOUSE_NO":"１４５之１號","E_COORD97":170368.01999999999,"N_COORD97":2553684.2999999998,"ADDRESS":"大同１４５之１號","OBJECTID":143836},"geometry":{"x":170368.02000000048,"y":2553684.3000000007}},{"attributes":{"ID":143837,"DIS_CODE":0,"TOWNNAME":"安南區","LI":"\u25A0田里","LIN":"1鄰","STREET":"\u25A0田路","SECT":" ","MAREA":" ","LANE":"３２９巷","ALLEY":"２弄","HOUSE_NO":"２９號","E_COORD97":161924.44,"N_COORD97":2548092.77,"ADDRESS":"\u25A0田路３２９巷２弄２９號","OBJECTID":143837},"geometry":{"x":161924.44000000041,"y":2548092.7699999996}},{"attributes":{"ID":143838,"DIS_CODE":0,"TOWNNAME":"新化區","LI":"護國里","LIN":"7鄰","STREET":"民生路","SECT":" ","MAREA":" ","LANE":" ","ALLEY":" ","HOUSE_NO":"７１號","E_COORD97":179390.16,"N_COORD97":2548487.25,"ADDRESS":"民生路７１號","OBJECTID":143838},"geometry":{"x":179390.16000000015,"y":2548487.25}},{"attributes":{"ID":143839,"DIS_CODE":0,"TOWNNAME":"安定區","LI":"大同里","LIN":"14鄰","STREET":" ","SECT":" ","MAREA":"牛肉寮","LANE":" ","ALLEY":" ","HOUSE_NO":"６５號之１２","E_COORD97":171003.23999999999,"N_COORD97":2553195.2999999998,"ADDRESS":"牛肉寮６５號之１２","OBJECTID":143839},"geometry":{"x":171003.24000000022,"y":2553195.3000000026}},{"attributes":{"ID":143840,"DIS_CODE":0,"TOWNNAME":"安定區","LI":"港尾里","LIN":"4鄰","STREET":" ","SECT":" ","MAREA":"港子尾","LANE":" ","ALLEY":" ","HOUSE_NO":"１０之７號","E_COORD97":171609.98999999999,"N_COORD97":2556135.2999999998,"ADDRESS":"港子尾１０之７號","OBJECTID":143840},"geometry":{"x":171609.99000000022,"y":2556135.3000000007}},{"attributes":{"ID":143841,"DIS_CODE":0,"TOWNNAME":"安定區","LI":"中沙里","LIN":"4鄰","STREET":" ","SECT":" ","MAREA":"中崙","LANE":" ","ALLEY":" ","HOUSE_NO":"１１２號","E_COORD97":169021.41,"N_COORD97":2553176.25,"ADDRESS":"中崙１１２號","OBJECTID":143841},"geometry":{"x":169021.41000000108,"y":2553176.25}},{"attributes":{"ID":143842,"DIS_CODE":0,"TOWNNAME":"安定區","LI":"港尾里","LIN":"4鄰","STREET":" ","SECT":" ","MAREA":"港子尾","LANE":" ","ALLEY":" ","HOUSE_NO":"１１號","E_COORD97":171558.69,"N_COORD97":2556113.2599999998,"ADDRESS":"港子尾１１號","OBJECTID":143842},"geometry":{"x":171558.69000000227,"y":2556113.2600000016}},{"attributes":{"ID":143843,"DIS_CODE":0,"TOWNNAME":"安定區","LI":"中沙里","LIN":"4鄰","STREET":" ","SECT":" ","MAREA":"中崙","LANE":" ","ALLEY":" ","HOUSE_NO":"１３６號之１","E_COORD97":169142.54999999999,"N_COORD97":2553215.2999999998,"ADDRESS":"中崙１３６號之１","OBJECTID":143843},"geometry":{"x":169142.55000000075,"y":2553215.3000000026}},{"attributes":{"ID":143844,"DIS_CODE":0,"TOWNNAME":"安定區","LI":"安定里","LIN":"4鄰","STREET":" ","SECT":" ","MAREA":"安定","LANE":" ","ALLEY":" ","HOUSE_NO":"１３之９號","E_COORD97":172533.07000000001,"N_COORD97":2558141.3199999998,"ADDRESS":"安定１３之９號","OBJECTID":143844},"geometry":{"x":172533.07000000123,"y":2558141.3200000022}},{"attributes":{"ID":143845,"DIS_CODE":0,"TOWNNAME":"關廟區","LI":"新埔里","LIN":"7鄰","STREET":"新埔三街","SECT":" ","MAREA":" ","LANE":" ","ALLEY":" ","HOUSE_NO":"９號","E_COORD97":181179.43142099999,"N_COORD97":2540957.1702299998,"ADDRESS":"新埔三街９號","OBJECTID":143845},"geometry":{"x":181179.43142099958,"y":2540957.1702270024}},{"attributes":{"ID":143846,"DIS_CODE":0,"TOWNNAME":"安定區","LI":"港尾里","LIN":"4鄰","STREET":" ","SECT":" ","MAREA":"港子尾","LANE":" ","ALLEY":" ","HOUSE_NO":"１０之９號","E_COORD97":171609.69,"N_COORD97":2556145.2999999998,"ADDRESS":"港子尾１０之９號","OBJECTID":143846},"geometry":{"x":171609.69000000227,"y":2556145.3000000007}},{"attributes":{"ID":143847,"DIS_CODE":0,"TOWNNAME":"安定區","LI":"海寮里","LIN":"14鄰","STREET":" ","SECT":" ","MAREA":"海寮","LANE":" ","ALLEY":" ","HOUSE_NO":"１３４號之１０","E_COORD97":168889.765376,"N_COORD97":2555441.4287700001,"ADDRESS":"海寮１３４號之１０","OBJECTID":143847},"geometry":{"x":168889.7653760016,"y":2555441.4287750013}},{"attributes":{"ID":143848,"DIS_CODE":0,"TOWNNAME":"安定區","LI":"中沙里","LIN":"4鄰","STREET":" ","SECT":" ","MAREA":"中崙","LANE":" ","ALLEY":" ","HOUSE_NO":"１２８之３號","E_COORD97":169115.51000000001,"N_COORD97":2553184.2999999998,"ADDRESS":"中崙１２８之３號","OBJECTID":143848},"geometry":{"x":169115.51000000071,"y":2553184.3000000026}},{"attributes":{"ID":143849,"DIS_CODE":0,"TOWNNAME":"安定區","LI":"安定里","LIN":"4鄰","STREET":" ","SECT":" ","MAREA":"安定","LANE":" ","ALLEY":" ","HOUSE_NO":"１１號之３","E_COORD97":172509.89999999999,"N_COORD97":2557945.3199999998,"ADDRESS":"安定１１號之３","OBJECTID":143849},"geometry":{"x":172509.89999999944,"y":2557945.3200000003}},{"attributes":{"ID":143850,"DIS_CODE":0,"TOWNNAME":"鹽水區","LI":"福得里","LIN":"5鄰","STREET":" ","SECT":" ","MAREA":"後厝","LANE":" ","ALLEY":" ","HOUSE_NO":"９０號","E_COORD97":175376.04000000001,"N_COORD97":2579806.9199999999,"ADDRESS":"後厝９０號","OBJECTID":143850},"geometry":{"x":175376.04000000097,"y":2579806.9200000037}},{"attributes":{"ID":143851,"DIS_CODE":0,"TOWNNAME":"安定區","LI":"六嘉里","LIN":"4鄰","STREET":" ","SECT":" ","MAREA":"六塊寮","LANE":" ","ALLEY":" ","HOUSE_NO":"３０之１２號","E_COORD97":169875.87,"N_COORD97":2553239.2999999998,"ADDRESS":"六塊寮３０之１２號","OBJECTID":143851},"geometry":{"x":169875.87000000104,"y":2553239.3000000026}},{"attributes":{"ID":143852,"DIS_CODE":0,"TOWNNAME":"安定區","LI":"港口里","LIN":"18鄰","STREET":" ","SECT":" ","MAREA":"港口","LANE":" ","ALLEY":" ","HOUSE_NO":"３８０號之２","E_COORD97":171380.35999999999,"N_COORD97":2554986.2999999998,"ADDRESS":"港口３８０號之２","OBJECTID":143852},"geometry":{"x":171380.36000000127,"y":2554986.3000000007}},{"attributes":{"ID":143853,"DIS_CODE":0,"TOWNNAME":"安定區","LI":"港口里","LIN":"20鄰","STREET":" ","SECT":" ","MAREA":"港口","LANE":" ","ALLEY":" ","HOUSE_NO":"３９９之５６號","E_COORD97":171587.34,"N_COORD97":2554951.2999999998,"ADDRESS":"港口３９９之５６號","OBJECTID":143853},"geometry":{"x":171587.33999999985,"y":2554951.3000000026}},{"attributes":{"ID":143854,"DIS_CODE":0,"TOWNNAME":"安定區","LI":"海寮里","LIN":"13鄰","STREET":" ","SECT":" ","MAREA":"海寮","LANE":" ","ALLEY":" ","HOUSE_NO":"１２９號之２","E_COORD97":169056.70999999999,"N_COORD97":2555292.2999999998,"ADDRESS":"海寮１２９號之２","OBJECTID":143854},"geometry":{"x":169056.71000000089,"y":2555292.3000000007}},{"attributes":{"ID":143855,"DIS_CODE":0,"TOWNNAME":"安定區","LI":"海寮里","LIN":"13鄰","STREET":" ","SECT":" ","MAREA":"海寮","LANE":" ","ALLEY":" ","HOUSE_NO":"１３１號","E_COORD97":169022.84,"N_COORD97":2555326.25,"ADDRESS":"海寮１３１號","OBJECTID":143855},"geometry":{"x":169022.84000000171,"y":2555326.2500000037}},{"attributes":{"ID":143856,"DIS_CODE":0,"TOWNNAME":"安定區","LI":"海寮里","LIN":"7鄰","STREET":" ","SECT":" ","MAREA":"海寮","LANE":" ","ALLEY":" ","HOUSE_NO":"７１號之４","E_COORD97":169377.45000000001,"N_COORD97":2555282.2999999998,"ADDRESS":"海寮７１號之４","OBJECTID":143856},"geometry":{"x":169377.45000000112,"y":2555282.2999999989}},{"attributes":{"ID":143857,"DIS_CODE":0,"TOWNNAME":"安定區","LI":"中沙里","LIN":"4鄰","STREET":" ","SECT":" ","MAREA":"中崙","LANE":" ","ALLEY":" ","HOUSE_NO":"１２９號","E_COORD97":169119.51000000001,"N_COORD97":2553159.25,"ADDRESS":"中崙１２９號","OBJECTID":143857},"geometry":{"x":169119.50999999978,"y":2553159.25}},{"attributes":{"ID":143858,"DIS_CODE":0,"TOWNNAME":"安定區","LI":"安定里","LIN":"4鄰","STREET":" ","SECT":" ","MAREA":"安定","LANE":" ","ALLEY":" ","HOUSE_NO":"１３之１２號","E_COORD97":172522.22,"N_COORD97":2558137.3199999998,"ADDRESS":"安定１３之１２號","OBJECTID":143858},"geometry":{"x":172522.21999999974,"y":2558137.3200000022}},{"attributes":{"ID":143859,"DIS_CODE":0,"TOWNNAME":"安定區","LI":"六嘉里","LIN":"4鄰","STREET":" ","SECT":" ","MAREA":"六塊寮","LANE":" ","ALLEY":" ","HOUSE_NO":"３０號之２２","E_COORD97":169699.44,"N_COORD97":2553248.2999999998,"ADDRESS":"六塊寮３０號之２２","OBJECTID":143859},"geometry":{"x":169699.44000000134,"y":2553248.3000000045}},{"attributes":{"ID":143860,"DIS_CODE":0,"TOWNNAME":"安定區","LI":"中沙里","LIN":"4鄰","STREET":" ","SECT":" ","MAREA":"中崙","LANE":" ","ALLEY":" ","HOUSE_NO":"１２５之９號","E_COORD97":169090.81,"N_COORD97":2553134.2999999998,"ADDRESS":"中崙１２５之９號","OBJECTID":143860},"geometry":{"x":169090.81000000052,"y":2553134.3000000026}},{"attributes":{"ID":143861,"DIS_CODE":0,"TOWNNAME":"安定區","LI":"中沙里","LIN":"4鄰","STREET":" ","SECT":" ","MAREA":"中崙","LANE":" ","ALLEY":" ","HOUSE_NO":"１２５號","E_COORD97":169065.141554,"N_COORD97":2553156.3250600002,"ADDRESS":"中崙１２５號","OBJECTID":143861},"geometry":{"x":169065.14155399986,"y":2553156.3250619993}},{"attributes":{"ID":143862,"DIS_CODE":0,"TOWNNAME":"安定區","LI":"中沙里","LIN":"4鄰","STREET":" ","SECT":" ","MAREA":"中崙","LANE":" ","ALLEY":" ","HOUSE_NO":"１２９號之２","E_COORD97":169120.98000000001,"N_COORD97":2553151.2999999998,"ADDRESS":"中崙１２９號之２","OBJECTID":143862},"geometry":{"x":169120.98000000138,"y":2553151.3000000026}},{"attributes":{"ID":143863,"DIS_CODE":0,"TOWNNAME":"安定區","LI":"海寮里","LIN":"13鄰","STREET":" ","SECT":" ","MAREA":"海寮","LANE":" ","ALLEY":" ","HOUSE_NO":"１３０號","E_COORD97":169051.73999999999,"N_COORD97":2555302.25,"ADDRESS":"海寮１３０號","OBJECTID":143863},"geometry":{"x":169051.74000000115,"y":2555302.2500000037}},{"attributes":{"ID":143864,"DIS_CODE":0,"TOWNNAME":"安定區","LI":"六嘉里","LIN":"4鄰","STREET":" ","SECT":" ","MAREA":"六塊寮","LANE":" ","ALLEY":" ","HOUSE_NO":"３０號之８","E_COORD97":169908,"N_COORD97":2553349.2999999998,"ADDRESS":"六塊寮３０號之８","OBJECTID":143864},"geometry":{"x":169908,"y":2553349.3000000007}},{"attributes":{"ID":143865,"DIS_CODE":0,"TOWNNAME":"安定區","LI":"中沙里","LIN":"4鄰","STREET":" ","SECT":" ","MAREA":"中崙","LANE":" ","ALLEY":" ","HOUSE_NO":"１２６號之３","E_COORD97":169065.54999999999,"N_COORD97":2553193.2999999998,"ADDRESS":"中崙１２６號之３","OBJECTID":143865},"geometry":{"x":169065.55000000168,"y":2553193.3000000007}},{"attributes":{"ID":143866,"DIS_CODE":0,"TOWNNAME":"安定區","LI":"保西里","LIN":"4鄰","STREET":" ","SECT":" ","MAREA":"安定","LANE":" ","ALLEY":" ","HOUSE_NO":"３６５號之１","E_COORD97":171653.85000000001,"N_COORD97":2557700.3199999998,"ADDRESS":"安定３６５號之１","OBJECTID":143866},"geometry":{"x":171653.85000000056,"y":2557700.3200000022}},{"attributes":{"ID":143867,"DIS_CODE":0,"TOWNNAME":"安定區","LI":"港口里","LIN":"20鄰","STREET":" ","SECT":" ","MAREA":"港口","LANE":" ","ALLEY":" ","HOUSE_NO":"３９９之４號","E_COORD97":171664.19,"N_COORD97":2554969.2999999998,"ADDRESS":"港口３９９之４號","OBJECTID":143867},"geometry":{"x":171664.19000000134,"y":2554969.3000000007}},{"attributes":{"ID":143868,"DIS_CODE":0,"TOWNNAME":"安定區","LI":"海寮里","LIN":"14鄰","STREET":" ","SECT":" ","MAREA":"海寮","LANE":" ","ALLEY":" ","HOUSE_NO":"１３２之２２號","E_COORD97":169028.89000000001,"N_COORD97":2555420.2999999998,"ADDRESS":"海寮１３２之２２號","OBJECTID":143868},"geometry":{"x":169028.88999999966,"y":2555420.3000000007}},{"attributes":{"ID":143869,"DIS_CODE":0,"TOWNNAME":"安定區","LI":"港口里","LIN":"17鄰","STREET":" ","SECT":" ","MAREA":"港口","LANE":" ","ALLEY":" ","HOUSE_NO":"３６４之１７號","E_COORD97":171545.97923,"N_COORD97":2554879.54642,"ADDRESS":"港口３６４之１７號","OBJECTID":143869},"geometry":{"x":171545.97923000064,"y":2554879.5464249998}},{"attributes":{"ID":143870,"DIS_CODE":0,"TOWNNAME":"安定區","LI":"安定里","LIN":"4鄰","STREET":" ","SECT":" ","MAREA":"安定","LANE":" ","ALLEY":" ","HOUSE_NO":"１３號之４","E_COORD97":172676.82999999999,"N_COORD97":2558132.3199999998,"ADDRESS":"安定１３號之４","OBJECTID":143870},"geometry":{"x":172676.83000000101,"y":2558132.3200000003}},{"attributes":{"ID":143871,"DIS_CODE":0,"TOWNNAME":"安定區","LI":"六嘉里","LIN":"4鄰","STREET":" ","SECT":" ","MAREA":"六塊寮","LANE":" ","ALLEY":" ","HOUSE_NO":"２８號","E_COORD97":170006.72,"N_COORD97":2553510.27,"ADDRESS":"六塊寮２８號","OBJECTID":143871},"geometry":{"x":170006.7200000016,"y":2553510.2699999996}},{"attributes":{"ID":143872,"DIS_CODE":0,"TOWNNAME":"安定區","LI":"保西里","LIN":"4鄰","STREET":" ","SECT":" ","MAREA":"安定","LANE":" ","ALLEY":" ","HOUSE_NO":"３６４號","E_COORD97":171646.32000000001,"N_COORD97":2557720.3199999998,"ADDRESS":"安定３６４號","OBJECTID":143872},"geometry":{"x":171646.32000000123,"y":2557720.3200000022}},{"attributes":{"ID":143873,"DIS_CODE":0,"TOWNNAME":"安定區","LI":"保西里","LIN":"4鄰","STREET":" ","SECT":" ","MAREA":"安定","LANE":" ","ALLEY":" ","HOUSE_NO":"３５２號","E_COORD97":171688.42000000001,"N_COORD97":2557686.3199999998,"ADDRESS":"安定３５２號","OBJECTID":143873},"geometry":{"x":171688.41999999993,"y":2557686.3200000022}},{"attributes":{"ID":143874,"DIS_CODE":0,"TOWNNAME":"安定區","LI":"中沙里","LIN":"4鄰","STREET":" ","SECT":" ","MAREA":"中崙","LANE":" ","ALLEY":" ","HOUSE_NO":"１２７號之１","E_COORD97":169065.45000000001,"N_COORD97":2553197.2999999998,"ADDRESS":"中崙１２７號之１","OBJECTID":143874},"geometry":{"x":169065.45000000112,"y":2553197.3000000045}},{"attributes":{"ID":143875,"DIS_CODE":0,"TOWNNAME":"安定區","LI":"安定里","LIN":"4鄰","STREET":" ","SECT":" ","MAREA":"安定","LANE":" ","ALLEY":" ","HOUSE_NO":"１７號之１","E_COORD97":172560.79999999999,"N_COORD97":2558019.3199999998,"ADDRESS":"安定１７號之１","OBJECTID":143875},"geometry":{"x":172560.79999999888,"y":2558019.3200000022}},{"attributes":{"ID":143876,"DIS_CODE":0,"TOWNNAME":"安定區","LI":"中沙里","LIN":"4鄰","STREET":" ","SECT":" ","MAREA":"中崙","LANE":" ","ALLEY":" ","HOUSE_NO":"１２３之８號","E_COORD97":169042.91,"N_COORD97":2553053.2999999998,"ADDRESS":"中崙１２３之８號","OBJECTID":143876},"geometry":{"x":169042.90999999922,"y":2553053.3000000007}},{"attributes":{"ID":143877,"DIS_CODE":0,"TOWNNAME":"安定區","LI":"港口里","LIN":"18鄰","STREET":" ","SECT":" ","MAREA":"港口","LANE":" ","ALLEY":" ","HOUSE_NO":"３７２號之１３","E_COORD97":171378.87,"N_COORD97":2554937.2999999998,"ADDRESS":"港口３７２號之１３","OBJECTID":143877},"geometry":{"x":171378.87000000011,"y":2554937.3000000026}},{"attributes":{"ID":143878,"DIS_CODE":0,"TOWNNAME":"安定區","LI":"海寮里","LIN":"13鄰","STREET":" ","SECT":" ","MAREA":"海寮","LANE":" ","ALLEY":" ","HOUSE_NO":"１２６號之２０","E_COORD97":168998.98000000001,"N_COORD97":2555216.2999999998,"ADDRESS":"海寮１２６號之２０","OBJECTID":143878},"geometry":{"x":168998.98000000138,"y":2555216.3000000026}},{"attributes":{"ID":143879,"DIS_CODE":0,"TOWNNAME":"安定區","LI":"港尾里","LIN":"4鄰","STREET":" ","SECT":" ","MAREA":"港子尾","LANE":" ","ALLEY":" ","HOUSE_NO":"１０之３號","E_COORD97":171614.19,"N_COORD97":2556116.2999999998,"ADDRESS":"港子尾１０之３號","OBJECTID":143879},"geometry":{"x":171614.19000000041,"y":2556116.2999999989}},{"attributes":{"ID":143880,"DIS_CODE":0,"TOWNNAME":"安定區","LI":"安定里","LIN":"4鄰","STREET":" ","SECT":" ","MAREA":"安定","LANE":" ","ALLEY":" ","HOUSE_NO":"７之１號","E_COORD97":172582.51999999999,"N_COORD97":2558102.3199999998,"ADDRESS":"安定７之１號","OBJECTID":143880},"geometry":{"x":172582.51999999955,"y":2558102.3200000003}},{"attributes":{"ID":143881,"DIS_CODE":0,"TOWNNAME":"安定區","LI":"六嘉里","LIN":"4鄰","STREET":" ","SECT":" ","MAREA":"六塊寮","LANE":" ","ALLEY":" ","HOUSE_NO":"３０之１９號","E_COORD97":169919.76999999999,"N_COORD97":2553283.2999999998,"ADDRESS":"六塊寮３０之１９號","OBJECTID":143881},"geometry":{"x":169919.77000000142,"y":2553283.3000000026}},{"attributes":{"ID":143882,"DIS_CODE":0,"TOWNNAME":"安定區","LI":"港口里","LIN":"18鄰","STREET":" ","SECT":" ","MAREA":"港口","LANE":" ","ALLEY":" ","HOUSE_NO":"３７２號之５","E_COORD97":171415.39000000001,"N_COORD97":2554950.2999999998,"ADDRESS":"港口３７２之５號","OBJECTID":143882},"geometry":{"x":171415.38999999966,"y":2554950.3000000045}},{"attributes":{"ID":143883,"DIS_CODE":0,"TOWNNAME":"安定區","LI":"港口里","LIN":"18鄰","STREET":" ","SECT":" ","MAREA":"港口","LANE":" ","ALLEY":" ","HOUSE_NO":"３７８號","E_COORD97":171366.69,"N_COORD97":2555011.25,"ADDRESS":"港口３７８號","OBJECTID":143883},"geometry":{"x":171366.69000000041,"y":2555011.2500000019}},{"attributes":{"ID":143884,"DIS_CODE":0,"TOWNNAME":"安定區","LI":"港口里","LIN":"20鄰","STREET":" ","SECT":" ","MAREA":"港口","LANE":" ","ALLEY":" ","HOUSE_NO":"３９９之３８號","E_COORD97":171538.14000000001,"N_COORD97":2554907.2999999998,"ADDRESS":"港口３９９之３８號","OBJECTID":143884},"geometry":{"x":171538.1400000006,"y":2554907.3000000026}},{"attributes":{"ID":143885,"DIS_CODE":0,"TOWNNAME":"安定區","LI":"海寮里","LIN":"13鄰","STREET":" ","SECT":" ","MAREA":"海寮","LANE":" ","ALLEY":" ","HOUSE_NO":"１２４之１號","E_COORD97":169087.57999999999,"N_COORD97":2555226.2999999998,"ADDRESS":"海寮１２４號之１","OBJECTID":143885},"geometry":{"x":169087.58000000194,"y":2555226.3000000026}},{"attributes":{"ID":143886,"DIS_CODE":0,"TOWNNAME":"安定區","LI":"海寮里","LIN":"14鄰","STREET":" ","SECT":" ","MAREA":"海寮","LANE":" ","ALLEY":" ","HOUSE_NO":"１３４之３３號","E_COORD97":168744.39000000001,"N_COORD97":2555734.2999999998,"ADDRESS":"海寮１３４之３３號","OBJECTID":143886},"geometry":{"x":168744.39000000153,"y":2555734.3000000026}},{"attributes":{"ID":143887,"DIS_CODE":0,"TOWNNAME":"安定區","LI":"安定里","LIN":"8鄰","STREET":" ","SECT":" ","MAREA":"安定","LANE":" ","ALLEY":" ","HOUSE_NO":"５８號之４３","E_COORD97":171911.04999999999,"N_COORD97":2557985.3199999998,"ADDRESS":"安定５８號之４３","OBJECTID":143887},"geometry":{"x":171911.04999999981,"y":2557985.3200000022}},{"attributes":{"ID":143888,"DIS_CODE":0,"TOWNNAME":"安定區","LI":"安定里","LIN":"8鄰","STREET":" ","SECT":" ","MAREA":"安定","LANE":" ","ALLEY":" ","HOUSE_NO":"５８號之４４","E_COORD97":171906.88,"N_COORD97":2557985.3199999998,"ADDRESS":"安定５８號之４４","OBJECTID":143888},"geometry":{"x":171906.88000000082,"y":2557985.3200000022}},{"attributes":{"ID":143889,"DIS_CODE":0,"TOWNNAME":"安定區","LI":"安定里","LIN":"4鄰","STREET":" ","SECT":" ","MAREA":"安定","LANE":" ","ALLEY":" ","HOUSE_NO":"１１之５號","E_COORD97":172542.47,"N_COORD97":2558018.3199999998,"ADDRESS":"安定１１之５號","OBJECTID":143889},"geometry":{"x":172542.46999999974,"y":2558018.3200000022}},{"attributes":{"ID":143890,"DIS_CODE":0,"TOWNNAME":"安定區","LI":"中沙里","LIN":"4鄰","STREET":" ","SECT":" ","MAREA":"中崙","LANE":" ","ALLEY":" ","HOUSE_NO":"１２６號","E_COORD97":169062.31,"N_COORD97":2553176.25,"ADDRESS":"中崙１２６號","OBJECTID":143890},"geometry":{"x":169062.31000000052,"y":2553176.25}},{"attributes":{"ID":143891,"DIS_CODE":0,"TOWNNAME":"安定區","LI":"港口里","LIN":"18鄰","STREET":" ","SECT":" ","MAREA":"港口","LANE":" ","ALLEY":" ","HOUSE_NO":"３８１之５號","E_COORD97":171410.79000000001,"N_COORD97":2555018.2999999998,"ADDRESS":"港口３８１之５號","OBJECTID":143891},"geometry":{"x":171410.79000000097,"y":2555018.3000000026}},{"attributes":{"ID":143892,"DIS_CODE":0,"TOWNNAME":"安定區","LI":"港口里","LIN":"17鄰","STREET":" ","SECT":" ","MAREA":"港口","LANE":" ","ALLEY":" ","HOUSE_NO":"３７０號之１","E_COORD97":171452.63,"N_COORD97":2554881.2999999998,"ADDRESS":"港口３７０號之１","OBJECTID":143892},"geometry":{"x":171452.63000000082,"y":2554881.3000000007}},{"attributes":{"ID":143893,"DIS_CODE":0,"TOWNNAME":"安定區","LI":"六嘉里","LIN":"8鄰","STREET":" ","SECT":" ","MAREA":"六塊寮","LANE":" ","ALLEY":" ","HOUSE_NO":"６５號之１","E_COORD97":170208.64999999999,"N_COORD97":2553348.2999999998,"ADDRESS":"六塊寮６５號之１","OBJECTID":143893},"geometry":{"x":170208.6500000013,"y":2553348.3000000007}},{"attributes":{"ID":143894,"DIS_CODE":0,"TOWNNAME":"安定區","LI":"港口里","LIN":"7鄰","STREET":" ","SECT":" ","MAREA":"港口","LANE":" ","ALLEY":" ","HOUSE_NO":"２８５號","E_COORD97":171476.69,"N_COORD97":2554667.25,"ADDRESS":"港口２８５號","OBJECTID":143894},"geometry":{"x":171476.69000000041,"y":2554667.25}},{"attributes":{"ID":143895,"DIS_CODE":0,"TOWNNAME":"安定區","LI":"中沙里","LIN":"4鄰","STREET":" ","SECT":" ","MAREA":"中崙","LANE":" ","ALLEY":" ","HOUSE_NO":"１２５號之４","E_COORD97":169087.37,"N_COORD97":2553162.2999999998,"ADDRESS":"中崙１２５號之４","OBJECTID":143895},"geometry":{"x":169087.37000000197,"y":2553162.3000000007}},{"attributes":{"ID":143896,"DIS_CODE":0,"TOWNNAME":"安定區","LI":"中榮里","LIN":"4鄰","STREET":" ","SECT":" ","MAREA":"許中營","LANE":" ","ALLEY":" ","HOUSE_NO":"４１之２號","E_COORD97":172407.94,"N_COORD97":2555049.2999999998,"ADDRESS":"許中營４１之２號","OBJECTID":143896},"geometry":{"x":172407.93999999948,"y":2555049.3000000026}},{"attributes":{"ID":143897,"DIS_CODE":0,"TOWNNAME":"安定區","LI":"中沙里","LIN":"4鄰","STREET":" ","SECT":" ","MAREA":"中崙","LANE":" ","ALLEY":" ","HOUSE_NO":"１２９號之１","E_COORD97":169120.64999999999,"N_COORD97":2553155.2999999998,"ADDRESS":"中崙１２９號之１","OBJECTID":143897},"geometry":{"x":169120.65000000037,"y":2553155.3000000007}},{"attributes":{"ID":143898,"DIS_CODE":0,"TOWNNAME":"安定區","LI":"中沙里","LIN":"4鄰","STREET":" ","SECT":" ","MAREA":"中崙","LANE":" ","ALLEY":" ","HOUSE_NO":"１１９號","E_COORD97":169003.91,"N_COORD97":2553153.25,"ADDRESS":"中崙１１９號","OBJECTID":143898},"geometry":{"x":169003.90999999922,"y":2553153.2500000019}},{"attributes":{"ID":143899,"DIS_CODE":0,"TOWNNAME":"安定區","LI":"港口里","LIN":"18鄰","STREET":" ","SECT":" ","MAREA":"港口","LANE":" ","ALLEY":" ","HOUSE_NO":"３８０號之３","E_COORD97":171389.72,"N_COORD97":2554997.2999999998,"ADDRESS":"港口３８０號之３","OBJECTID":143899},"geometry":{"x":171389.71999999974,"y":2554997.3000000007}},{"attributes":{"ID":143900,"DIS_CODE":0,"TOWNNAME":"安定區","LI":"港口里","LIN":"13鄰","STREET":" ","SECT":" ","MAREA":"港口","LANE":" ","ALLEY":" ","HOUSE_NO":"３２９之２４號","E_COORD97":171208.73999999999,"N_COORD97":2554606.2999999998,"ADDRESS":"港口３２９之２４號","OBJECTID":143900},"geometry":{"x":171208.74000000022,"y":2554606.3000000007}},{"attributes":{"ID":143901,"DIS_CODE":0,"TOWNNAME":"安定區","LI":"海寮里","LIN":"14鄰","STREET":" ","SECT":" ","MAREA":"海寮","LANE":" ","ALLEY":" ","HOUSE_NO":"１３７之２號","E_COORD97":168963.41715699999,"N_COORD97":2555513.9020199999,"ADDRESS":"海寮１３７之２號","OBJECTID":143901},"geometry":{"x":168963.41715699993,"y":2555513.9020230006}},{"attributes":{"ID":143902,"DIS_CODE":0,"TOWNNAME":"安定區","LI":"海寮里","LIN":"14鄰","STREET":" ","SECT":" ","MAREA":"海寮","LANE":" ","ALLEY":" ","HOUSE_NO":"１４１號","E_COORD97":169137.54000000001,"N_COORD97":2555450.25,"ADDRESS":"海寮１４１號","OBJECTID":143902},"geometry":{"x":169137.54000000097,"y":2555450.25}},{"attributes":{"ID":143903,"DIS_CODE":0,"TOWNNAME":"安定區","LI":"六嘉里","LIN":"4鄰","STREET":" ","SECT":" ","MAREA":"六塊寮","LANE":" ","ALLEY":" ","HOUSE_NO":"２６號","E_COORD97":169980.82000000001,"N_COORD97":2553528.27,"ADDRESS":"六塊寮２６號","OBJECTID":143903},"geometry":{"x":169980.8200000003,"y":2553528.2699999996}},{"attributes":{"ID":143904,"DIS_CODE":0,"TOWNNAME":"安定區","LI":"港尾里","LIN":"4鄰","STREET":" ","SECT":" ","MAREA":"港子尾","LANE":" ","ALLEY":" ","HOUSE_NO":"１０之１６號","E_COORD97":171597.54000000001,"N_COORD97":2556168.2999999998,"ADDRESS":"港子尾１０之１６號","OBJECTID":143904},"geometry":{"x":171597.54000000004,"y":2556168.3000000026}},{"attributes":{"ID":143905,"DIS_CODE":0,"TOWNNAME":"安定區","LI":"港口里","LIN":"20鄰","STREET":" ","SECT":" ","MAREA":"港口","LANE":" ","ALLEY":" ","HOUSE_NO":"３９３號之２０","E_COORD97":171527.03,"N_COORD97":2555013.2999999998,"ADDRESS":"港口３９３號之２０","OBJECTID":143905},"geometry":{"x":171527.03000000026,"y":2555013.3000000007}},{"attributes":{"ID":143906,"DIS_CODE":0,"TOWNNAME":"安定區","LI":"港口里","LIN":"20鄰","STREET":" ","SECT":" ","MAREA":"港口","LANE":" ","ALLEY":" ","HOUSE_NO":"３９９之６６號","E_COORD97":171547.44,"N_COORD97":2554927.2999999998,"ADDRESS":"港口３９９之６６號","OBJECTID":143906},"geometry":{"x":171547.44000000134,"y":2554927.3000000026}},{"attributes":{"ID":143907,"DIS_CODE":0,"TOWNNAME":"安定區","LI":"海寮里","LIN":"14鄰","STREET":" ","SECT":" ","MAREA":"海寮","LANE":" ","ALLEY":" ","HOUSE_NO":"１３４號之１１","E_COORD97":168895.13,"N_COORD97":2555442.2999999998,"ADDRESS":"海寮１３４號之１１","OBJECTID":143907},"geometry":{"x":168895.12999999989,"y":2555442.3000000026}},{"attributes":{"ID":143908,"DIS_CODE":0,"TOWNNAME":"安定區","LI":"海寮里","LIN":"14鄰","STREET":" ","SECT":" ","MAREA":"海寮","LANE":" ","ALLEY":" ","HOUSE_NO":"１３３之２０號","E_COORD97":169038.17407000001,"N_COORD97":2555399.0467300001,"ADDRESS":"海寮１３３之２０號","OBJECTID":143908},"geometry":{"x":169038.17406999972,"y":2555399.0467260014}},{"attributes":{"ID":143909,"DIS_CODE":0,"TOWNNAME":"安定區","LI":"港口里","LIN":"8鄰","STREET":" ","SECT":" ","MAREA":"港口","LANE":" ","ALLEY":" ","HOUSE_NO":"２９３之２號","E_COORD97":171403.29000000001,"N_COORD97":2554641.2999999998,"ADDRESS":"港口２９３之２號","OBJECTID":143909},"geometry":{"x":171403.28999999911,"y":2554641.3000000007}},{"attributes":{"ID":143910,"DIS_CODE":0,"TOWNNAME":"安定區","LI":"港尾里","LIN":"4鄰","STREET":" ","SECT":" ","MAREA":"港子尾","LANE":" ","ALLEY":" ","HOUSE_NO":"１０之１３號","E_COORD97":171607.64000000001,"N_COORD97":2556168.2999999998,"ADDRESS":"港子尾１０之１３號","OBJECTID":143910},"geometry":{"x":171607.6400000006,"y":2556168.3000000026}},{"attributes":{"ID":143911,"DIS_CODE":0,"TOWNNAME":"安定區","LI":"中沙里","LIN":"4鄰","STREET":" ","SECT":" ","MAREA":"中崙","LANE":" ","ALLEY":" ","HOUSE_NO":"１１７號","E_COORD97":168978.60999999999,"N_COORD97":2553146.25,"ADDRESS":"中崙１１７號","OBJECTID":143911},"geometry":{"x":168978.61000000034,"y":2553146.2500000037}},{"attributes":{"ID":143912,"DIS_CODE":0,"TOWNNAME":"安定區","LI":"六嘉里","LIN":"4鄰","STREET":" ","SECT":" ","MAREA":"六塊寮","LANE":" ","ALLEY":" ","HOUSE_NO":"２７號之４","E_COORD97":169937.28,"N_COORD97":2553565.2999999998,"ADDRESS":"六塊寮２７號之４","OBJECTID":143912},"geometry":{"x":169937.27999999933,"y":2553565.3000000007}},{"attributes":{"ID":143913,"DIS_CODE":0,"TOWNNAME":"安定區","LI":"中沙里","LIN":"4鄰","STREET":" ","SECT":" ","MAREA":"中崙","LANE":" ","ALLEY":" ","HOUSE_NO":"１４４號","E_COORD97":169193.51000000001,"N_COORD97":2553215.25,"ADDRESS":"中崙１４４號","OBJECTID":143913},"geometry":{"x":169193.51000000071,"y":2553215.2500000019}},{"attributes":{"ID":143914,"DIS_CODE":0,"TOWNNAME":"安定區","LI":"六嘉里","LIN":"4鄰","STREET":" ","SECT":" ","MAREA":"六塊寮","LANE":" ","ALLEY":" ","HOUSE_NO":"３０號之３","E_COORD97":169987.35000000001,"N_COORD97":2553459.2999999998,"ADDRESS":"六塊寮３０號之３","OBJECTID":143914},"geometry":{"x":169987.35000000056,"y":2553459.3000000026}},{"attributes":{"ID":143915,"DIS_CODE":0,"TOWNNAME":"安定區","LI":"海寮里","LIN":"13鄰","STREET":" ","SECT":" ","MAREA":"海寮","LANE":" ","ALLEY":" ","HOUSE_NO":"１２６號之３３","E_COORD97":168980.42999999999,"N_COORD97":2555261.2999999998,"ADDRESS":"海寮１２６號之３３","OBJECTID":143915},"geometry":{"x":168980.43000000063,"y":2555261.3000000007}},{"attributes":{"ID":143916,"DIS_CODE":0,"TOWNNAME":"安定區","LI":"海寮里","LIN":"13鄰","STREET":" ","SECT":" ","MAREA":"海寮","LANE":" ","ALLEY":" ","HOUSE_NO":"１２６號之３９","E_COORD97":168970.41,"N_COORD97":2555288.2999999998,"ADDRESS":"海寮１２６號之３９","OBJECTID":143916},"geometry":{"x":168970.41000000108,"y":2555288.3000000007}},{"attributes":{"ID":143917,"DIS_CODE":0,"TOWNNAME":"安定區","LI":"海寮里","LIN":"14鄰","STREET":" ","SECT":" ","MAREA":"海寮","LANE":" ","ALLEY":" ","HOUSE_NO":"１３７號之１","E_COORD97":169043.38,"N_COORD97":2555509.2999999998,"ADDRESS":"海寮１３７號之１","OBJECTID":143917},"geometry":{"x":169043.38000000082,"y":2555509.3000000007}},{"attributes":{"ID":143918,"DIS_CODE":0,"TOWNNAME":"安定區","LI":"安定里","LIN":"4鄰","STREET":" ","SECT":" ","MAREA":"安定","LANE":" ","ALLEY":" ","HOUSE_NO":"１３號之５","E_COORD97":172624.06,"N_COORD97":2558129.3199999998,"ADDRESS":"安定１３號之５","OBJECTID":143918},"geometry":{"x":172624.06000000052,"y":2558129.3200000003}},{"attributes":{"ID":143919,"DIS_CODE":0,"TOWNNAME":"安定區","LI":"中沙里","LIN":"4鄰","STREET":" ","SECT":" ","MAREA":"中崙","LANE":" ","ALLEY":" ","HOUSE_NO":"１１６號","E_COORD97":168971.91,"N_COORD97":2553158.25,"ADDRESS":"中崙１１６號","OBJECTID":143919},"geometry":{"x":168971.91000000201,"y":2553158.25}},{"attributes":{"ID":143920,"DIS_CODE":0,"TOWNNAME":"安南區","LI":"\u25A0田里","LIN":"1鄰","STREET":"\u25A0田路","SECT":" ","MAREA":" ","LANE":"３２９巷","ALLEY":"２弄","HOUSE_NO":"３１號","E_COORD97":161920.47,"N_COORD97":2548092.4500000002,"ADDRESS":"\u25A0田路３２９巷２弄３１號","OBJECTID":143920},"geometry":{"x":161920.46999999974,"y":2548092.450000003}},{"attributes":{"ID":143921,"DIS_CODE":0,"TOWNNAME":"安南區","LI":"\u25A0田里","LIN":"1鄰","STREET":"\u25A0田路","SECT":" ","MAREA":" ","LANE":"３２９巷","ALLEY":"２弄","HOUSE_NO":"３３號","E_COORD97":161916.98000000001,"N_COORD97":2548092.77,"ADDRESS":"\u25A0田路３２９巷２弄３３號","OBJECTID":143921},"geometry":{"x":161916.98000000138,"y":2548092.7699999996}},{"attributes":{"ID":143922,"DIS_CODE":0,"TOWNNAME":"安南區","LI":"\u25A0田里","LIN":"1鄰","STREET":"\u25A0田路","SECT":" ","MAREA":" ","LANE":"３２９巷","ALLEY":"２弄","HOUSE_NO":"３５號","E_COORD97":161912.85000000001,"N_COORD97":2548093.0800000001,"ADDRESS":"\u25A0田路３２９巷２弄３５號","OBJECTID":143922},"geometry":{"x":161912.85000000149,"y":2548093.0800000019}},{"attributes":{"ID":143923,"DIS_CODE":0,"TOWNNAME":"安南區","LI":"\u25A0田里","LIN":"1鄰","STREET":"\u25A0田路","SECT":" ","MAREA":" ","LANE":"３２９巷","ALLEY":"２弄","HOUSE_NO":"３號","E_COORD97":161979.84,"N_COORD97":2548100.0699999998,"ADDRESS":"\u25A0田路３２９巷２弄３號","OBJECTID":143923},"geometry":{"x":161979.84000000078,"y":2548100.0700000022}},{"attributes":{"ID":143924,"DIS_CODE":0,"TOWNNAME":"安南區","LI":"\u25A0田里","LIN":"1鄰","STREET":"\u25A0田路","SECT":" ","MAREA":" ","LANE":"３２９巷","ALLEY":"２弄","HOUSE_NO":"５號","E_COORD97":161974.60000000001,"N_COORD97":2548098.48,"ADDRESS":"\u25A0田路３２９巷２弄５號","OBJECTID":143924},"geometry":{"x":161974.60000000056,"y":2548098.4800000004}},{"attributes":{"ID":143925,"DIS_CODE":0,"TOWNNAME":"安南區","LI":"\u25A0田里","LIN":"1鄰","STREET":"\u25A0田路","SECT":" ","MAREA":" ","LANE":"３２９巷","ALLEY":"２弄","HOUSE_NO":"７號","E_COORD97":161970.16,"N_COORD97":2548098.1600000001,"ADDRESS":"\u25A0田路３２９巷２弄７號","OBJECTID":143925},"geometry":{"x":161970.16000000015,"y":2548098.1600000001}},{"attributes":{"ID":143926,"DIS_CODE":0,"TOWNNAME":"安南區","LI":"\u25A0田里","LIN":"1鄰","STREET":"\u25A0田路","SECT":" ","MAREA":" ","LANE":"３２９巷","ALLEY":"６弄","HOUSE_NO":"１１號","E_COORD97":161957.14000000001,"N_COORD97":2548057.3599999999,"ADDRESS":"\u25A0田路３２９巷６弄１１號","OBJECTID":143926},"geometry":{"x":161957.1400000006,"y":2548057.3600000013}},{"attributes":{"ID":143927,"DIS_CODE":0,"TOWNNAME":"安南區","LI":"\u25A0田里","LIN":"1鄰","STREET":"\u25A0田路","SECT":" ","MAREA":" ","LANE":"３２９巷","ALLEY":"６弄","HOUSE_NO":"１２號","E_COORD97":161971.59,"N_COORD97":2548083.3999999999,"ADDRESS":"\u25A0田路３２９巷６弄１２號","OBJECTID":143927},"geometry":{"x":161971.59000000078,"y":2548083.3999999985}},{"attributes":{"ID":143928,"DIS_CODE":0,"TOWNNAME":"安南區","LI":"\u25A0田里","LIN":"1鄰","STREET":"\u25A0田路","SECT":" ","MAREA":" ","LANE":"３２９巷","ALLEY":"６弄","HOUSE_NO":"１３號","E_COORD97":161953.48999999999,"N_COORD97":2548056.25,"ADDRESS":"\u25A0田路３２９巷６弄１３號","OBJECTID":143928},"geometry":{"x":161953.49000000115,"y":2548056.25}},{"attributes":{"ID":143929,"DIS_CODE":0,"TOWNNAME":"安南區","LI":"\u25A0田里","LIN":"1鄰","STREET":"\u25A0田路","SECT":" ","MAREA":" ","LANE":"３２９巷","ALLEY":"６弄","HOUSE_NO":"１５號","E_COORD97":161949.84,"N_COORD97":2548055.2999999998,"ADDRESS":"\u25A0田路３２９巷６弄１５號","OBJECTID":143929},"geometry":{"x":161949.83999999985,"y":2548055.3000000026}},{"attributes":{"ID":143930,"DIS_CODE":0,"TOWNNAME":"安南區","LI":"\u25A0田里","LIN":"1鄰","STREET":"\u25A0田路","SECT":" ","MAREA":" ","LANE":"３２９巷","ALLEY":"６弄","HOUSE_NO":"１６號","E_COORD97":161967.78,"N_COORD97":2548082.4500000002,"ADDRESS":"\u25A0田路３２９巷６弄１６號","OBJECTID":143930},"geometry":{"x":161967.78000000026,"y":2548082.4500000011}},{"attributes":{"ID":143931,"DIS_CODE":0,"TOWNNAME":"安南區","LI":"\u25A0田里","LIN":"1鄰","STREET":"\u25A0田路","SECT":" ","MAREA":" ","LANE":"３２９巷","ALLEY":"６弄","HOUSE_NO":"１７號","E_COORD97":161945.87,"N_COORD97":2548054.1899999999,"ADDRESS":"\u25A0田路３２９巷６弄１７號","OBJECTID":143931},"geometry":{"x":161945.87000000104,"y":2548054.1900000013}},{"attributes":{"ID":143932,"DIS_CODE":0,"TOWNNAME":"安南區","LI":"\u25A0田里","LIN":"1鄰","STREET":"\u25A0田路","SECT":" ","MAREA":" ","LANE":"３２９巷","ALLEY":"６弄","HOUSE_NO":"１８號","E_COORD97":161963.17000000001,"N_COORD97":2548081.6499999999,"ADDRESS":"\u25A0田路３２９巷６弄１８號","OBJECTID":143932},"geometry":{"x":161963.16999999993,"y":2548081.6499999985}},{"attributes":{"ID":143933,"DIS_CODE":0,"TOWNNAME":"安南區","LI":"\u25A0田里","LIN":"1鄰","STREET":"\u25A0田路","SECT":" ","MAREA":" ","LANE":"３２９巷","ALLEY":"６弄","HOUSE_NO":"１９號","E_COORD97":161940.79000000001,"N_COORD97":2548053.2400000002,"ADDRESS":"\u25A0田路３２９巷６弄１９號","OBJECTID":143933},"geometry":{"x":161940.78999999911,"y":2548053.2400000002}},{"attributes":{"ID":143934,"DIS_CODE":0,"TOWNNAME":"安南區","LI":"\u25A0田里","LIN":"1鄰","STREET":"\u25A0田路","SECT":" ","MAREA":" ","LANE":"３２９巷","ALLEY":"６弄","HOUSE_NO":"１號","E_COORD97":161977.45999999999,"N_COORD97":2548062.8399999999,"ADDRESS":"\u25A0田路３２９巷６弄１號","OBJECTID":143934},"geometry":{"x":161977.46000000089,"y":2548062.8399999999}},{"attributes":{"ID":143935,"DIS_CODE":0,"TOWNNAME":"安南區","LI":"\u25A0田里","LIN":"1鄰","STREET":"\u25A0田路","SECT":" ","MAREA":" ","LANE":"３２９巷","ALLEY":"６弄","HOUSE_NO":"２０號","E_COORD97":161959.04999999999,"N_COORD97":2548080.8599999999,"ADDRESS":"\u25A0田路３２９巷６弄２０號","OBJECTID":143935},"geometry":{"x":161959.04999999981,"y":2548080.8600000013}},{"attributes":{"ID":143936,"DIS_CODE":0,"TOWNNAME":"安定區","LI":"港口里","LIN":"20鄰","STREET":" ","SECT":" ","MAREA":"港口","LANE":" ","ALLEY":" ","HOUSE_NO":"３９９之１７號","E_COORD97":171611.14000000001,"N_COORD97":2554949.29,"ADDRESS":"港口３９９之１７號","OBJECTID":143936},"geometry":{"x":171611.1400000006,"y":2554949.290000001}},{"attributes":{"ID":143937,"DIS_CODE":0,"TOWNNAME":"安定區","LI":"海寮里","LIN":"13鄰","STREET":" ","SECT":" ","MAREA":"海寮","LANE":" ","ALLEY":" ","HOUSE_NO":"１２６號之３６","E_COORD97":168976.03,"N_COORD97":2555275.2999999998,"ADDRESS":"海寮１２６號之３６","OBJECTID":143937},"geometry":{"x":168976.03000000026,"y":2555275.3000000007}},{"attributes":{"ID":143938,"DIS_CODE":0,"TOWNNAME":"安定區","LI":"中沙里","LIN":"4鄰","STREET":" ","SECT":" ","MAREA":"中崙","LANE":" ","ALLEY":" ","HOUSE_NO":"１２６之１號","E_COORD97":169065.01000000001,"N_COORD97":2553181.2999999998,"ADDRESS":"中崙１２６之１號","OBJECTID":143938},"geometry":{"x":169065.00999999978,"y":2553181.3000000026}},{"attributes":{"ID":143939,"DIS_CODE":0,"TOWNNAME":"安定區","LI":"保西里","LIN":"4鄰","STREET":" ","SECT":" ","MAREA":"安定","LANE":" ","ALLEY":" ","HOUSE_NO":"３５６號","E_COORD97":171731.32000000001,"N_COORD97":2557734.3199999998,"ADDRESS":"安定３５６號","OBJECTID":143939},"geometry":{"x":171731.32000000123,"y":2557734.3200000022}},{"attributes":{"ID":143940,"DIS_CODE":0,"TOWNNAME":"安定區","LI":"中沙里","LIN":"4鄰","STREET":" ","SECT":" ","MAREA":"中崙","LANE":" ","ALLEY":" ","HOUSE_NO":"１３１號之１","E_COORD97":169115.64999999999,"N_COORD97":2553202.2999999998,"ADDRESS":"中崙１３１號之１","OBJECTID":143940},"geometry":{"x":169115.65000000037,"y":2553202.3000000026}},{"attributes":{"ID":143941,"DIS_CODE":0,"TOWNNAME":"安南區","LI":"\u25A0田里","LIN":"1鄰","STREET":"\u25A0田路","SECT":" ","MAREA":" ","LANE":"３２９巷","ALLEY":"６弄","HOUSE_NO":"２１號","E_COORD97":161937.45999999999,"N_COORD97":2548052.4399999999,"ADDRESS":"\u25A0田路３２９巷６弄２１號","OBJECTID":143941},"geometry":{"x":161937.45999999996,"y":2548052.4400000013}},{"attributes":{"ID":143942,"DIS_CODE":0,"TOWNNAME":"安南區","LI":"\u25A0田里","LIN":"1鄰","STREET":"\u25A0田路","SECT":" ","MAREA":" ","LANE":"３２９巷","ALLEY":"６弄","HOUSE_NO":"２號","E_COORD97":161989.37,"N_COORD97":2548087.21,"ADDRESS":"\u25A0田路３２９巷６弄２號","OBJECTID":143942},"geometry":{"x":161989.37000000011,"y":2548087.2100000009}},{"attributes":{"ID":143943,"DIS_CODE":0,"TOWNNAME":"安南區","LI":"\u25A0田里","LIN":"1鄰","STREET":"\u25A0田路","SECT":" ","MAREA":" ","LANE":"３２９巷","ALLEY":"６弄","HOUSE_NO":"３號","E_COORD97":161973.64999999999,"N_COORD97":2548062.1299999999,"ADDRESS":"\u25A0田路３２９巷６弄３號","OBJECTID":143943},"geometry":{"x":161973.65000000037,"y":2548062.129999999}},{"attributes":{"ID":143944,"DIS_CODE":0,"TOWNNAME":"安南區","LI":"\u25A0田里","LIN":"1鄰","STREET":"\u25A0田路","SECT":" ","MAREA":" ","LANE":"３２９巷","ALLEY":"６弄","HOUSE_NO":"５號","E_COORD97":161968.41,"N_COORD97":2548060.7000000002,"ADDRESS":"\u25A0田路３２９巷６弄５號","OBJECTID":143944},"geometry":{"x":161968.41000000015,"y":2548060.7000000011}},{"attributes":{"ID":143945,"DIS_CODE":0,"TOWNNAME":"新化區","LI":"東榮里","LIN":"30鄰","STREET":"信義路","SECT":" ","MAREA":" ","LANE":" ","ALLEY":" ","HOUSE_NO":"１６９號六樓之７","E_COORD97":179254.87,"N_COORD97":2548354.2599999998,"ADDRESS":"信義路１６９號六樓之７","OBJECTID":143945},"geometry":{"x":179254.87000000011,"y":2548354.2599999998}},{"attributes":{"ID":143946,"DIS_CODE":0,"TOWNNAME":"安定區","LI":"港口里","LIN":"20鄰","STREET":" ","SECT":" ","MAREA":"港口","LANE":" ","ALLEY":" ","HOUSE_NO":"３９６之２號","E_COORD97":171513.39000000001,"N_COORD97":2554939.2999999998,"ADDRESS":"港口３９６之２號","OBJECTID":143946},"geometry":{"x":171513.38999999966,"y":2554939.3000000007}},{"attributes":{"ID":143947,"DIS_CODE":0,"TOWNNAME":"新化區","LI":"協興里","LIN":"4鄰","STREET":"中山路","SECT":" ","MAREA":" ","LANE":" ","ALLEY":" ","HOUSE_NO":"５３８號","E_COORD97":178465.01000000001,"N_COORD97":2548454.25,"ADDRESS":"中山路５３８號","OBJECTID":143947},"geometry":{"x":178465.00999999978,"y":2548454.2500000019}},{"attributes":{"ID":143948,"DIS_CODE":0,"TOWNNAME":"安南區","LI":"\u25A0田里","LIN":"1鄰","STREET":"\u25A0田路","SECT":" ","MAREA":" ","LANE":"３２９巷","ALLEY":"６弄","HOUSE_NO":"６號","E_COORD97":161984.13,"N_COORD97":2548086.2599999998,"ADDRESS":"\u25A0田路３２９巷６弄６號","OBJECTID":143948},"geometry":{"x":161984.13000000175,"y":2548086.2599999998}},{"attributes":{"ID":143949,"DIS_CODE":0,"TOWNNAME":"新化區","LI":"東榮里","LIN":"4鄰","STREET":"信義路","SECT":" ","MAREA":" ","LANE":" ","ALLEY":" ","HOUSE_NO":"７９號之１","E_COORD97":179872.01000000001,"N_COORD97":2548683.2599999998,"ADDRESS":"信義路７９號之１","OBJECTID":143949},"geometry":{"x":179872.00999999978,"y":2548683.2599999998}},{"attributes":{"ID":143950,"DIS_CODE":0,"TOWNNAME":"安南區","LI":"\u25A0田里","LIN":"1鄰","STREET":"\u25A0田路","SECT":" ","MAREA":" ","LANE":"３２９巷","ALLEY":"６弄","HOUSE_NO":"７號","E_COORD97":161965.23999999999,"N_COORD97":2548059.27,"ADDRESS":"\u25A0田路３２９巷６弄７號","OBJECTID":143950},"geometry":{"x":161965.24000000209,"y":2548059.2699999996}},{"attributes":{"ID":143951,"DIS_CODE":0,"TOWNNAME":"安南區","LI":"\u25A0田里","LIN":"1鄰","STREET":"\u25A0田路","SECT":" ","MAREA":" ","LANE":"３２９巷","ALLEY":"１０弄","HOUSE_NO":"６號","E_COORD97":161994.29000000001,"N_COORD97":2548047.2799999998,"ADDRESS":"\u25A0田路３２９巷１０弄６號","OBJECTID":143951},"geometry":{"x":161994.29000000004,"y":2548047.2800000012}},{"attributes":{"ID":143952,"DIS_CODE":0,"TOWNNAME":"安南區","LI":"\u25A0田里","LIN":"1鄰","STREET":"\u25A0田路","SECT":" ","MAREA":" ","LANE":"３２９巷","ALLEY":"１０弄","HOUSE_NO":"２號","E_COORD97":161998.57999999999,"N_COORD97":2548048.5499999998,"ADDRESS":"\u25A0田路３２９巷１０弄２號","OBJECTID":143952},"geometry":{"x":161998.58000000101,"y":2548048.5500000007}},{"attributes":{"ID":143953,"DIS_CODE":0,"TOWNNAME":"安南區","LI":"\u25A0田里","LIN":"1鄰","STREET":"\u25A0田路","SECT":" ","MAREA":" ","LANE":"３２９巷","ALLEY":"１０弄","HOUSE_NO":"８號","E_COORD97":161989.84,"N_COORD97":2548046.8100000001,"ADDRESS":"\u25A0田路３２９巷１０弄８號","OBJECTID":143953},"geometry":{"x":161989.84000000078,"y":2548046.8099999987}},{"attributes":{"ID":143954,"DIS_CODE":0,"TOWNNAME":"新化區","LI":"豐榮里","LIN":"4鄰","STREET":"中山路","SECT":" ","MAREA":" ","LANE":" ","ALLEY":" ","HOUSE_NO":"７３５號","E_COORD97":177880.10999999999,"N_COORD97":2548423.25,"ADDRESS":"中山路７３５號","OBJECTID":143954},"geometry":{"x":177880.11000000034,"y":2548423.2500000037}},{"attributes":{"ID":143955,"DIS_CODE":0,"TOWNNAME":"新化區","LI":"護國里","LIN":"4鄰","STREET":"中山路","SECT":" ","MAREA":" ","LANE":" ","ALLEY":" ","HOUSE_NO":"２１６號","E_COORD97":179144.70999999999,"N_COORD97":2548456.25,"ADDRESS":"中山路２１６號","OBJECTID":143955},"geometry":{"x":179144.71000000089,"y":2548456.25}},{"attributes":{"ID":143956,"DIS_CODE":0,"TOWNNAME":"東區","LI":"仁和里","LIN":"13鄰","STREET":"仁和路","SECT":" ","MAREA":" ","LANE":"１３９巷","ALLEY":"５１弄","HOUSE_NO":"１９之１５號","E_COORD97":171716.73999999999,"N_COORD97":2541198.8999999999,"ADDRESS":"仁和路１３９巷５１弄１９之１５號","OBJECTID":143956},"geometry":{"x":171716.74000000022,"y":2541198.9000000022}},{"attributes":{"ID":143957,"DIS_CODE":0,"TOWNNAME":"東區","LI":"忠孝里","LIN":"14鄰","STREET":"榮譽街","SECT":" ","MAREA":" ","LANE":"１２３巷","ALLEY":"１弄","HOUSE_NO":"２號","E_COORD97":169872.29999999999,"N_COORD97":2541803.75,"ADDRESS":"榮譽街１２３巷１弄２號","OBJECTID":143957},"geometry":{"x":169872.30000000168,"y":2541803.75}},{"attributes":{"ID":143958,"DIS_CODE":0,"TOWNNAME":"東區","LI":"忠孝里","LIN":"14鄰","STREET":"榮譽街","SECT":" ","MAREA":" ","LANE":"１２３巷","ALLEY":"１弄","HOUSE_NO":"６號","E_COORD97":169866.85000000001,"N_COORD97":2541802.3500000001,"ADDRESS":"榮譽街１２３巷１弄６號","OBJECTID":143958},"geometry":{"x":169866.85000000149,"y":2541802.3500000015}},{"attributes":{"ID":143959,"DIS_CODE":0,"TOWNNAME":"東區","LI":"忠孝里","LIN":"14鄰","STREET":"榮譽街","SECT":" ","MAREA":" ","LANE":"１２３巷","ALLEY":"１弄","HOUSE_NO":"８號","E_COORD97":169862.98000000001,"N_COORD97":2541799.3599999999,"ADDRESS":"榮譽街１２３巷１弄８號","OBJECTID":143959},"geometry":{"x":169862.98000000045,"y":2541799.3599999994}},{"attributes":{"ID":143960,"DIS_CODE":0,"TOWNNAME":"東區","LI":"忠孝里","LIN":"14鄰","STREET":"榮譽街","SECT":" ","MAREA":" ","LANE":"１２３巷","ALLEY":"１弄","HOUSE_NO":"１０號","E_COORD97":169858.41,"N_COORD97":2541797.4300000002,"ADDRESS":"榮譽街１２３巷１弄１０號","OBJECTID":143960},"geometry":{"x":169858.41000000201,"y":2541797.4300000016}},{"attributes":{"ID":143961,"DIS_CODE":0,"TOWNNAME":"東區","LI":"忠孝里","LIN":"14鄰","STREET":"榮譽街","SECT":" ","MAREA":" ","LANE":"１２３巷","ALLEY":"１弄","HOUSE_NO":"１２號","E_COORD97":169854.54000000001,"N_COORD97":2541794.96,"ADDRESS":"榮譽街１２３巷１弄１２號","OBJECTID":143961},"geometry":{"x":169854.54000000097,"y":2541794.9600000028}},{"attributes":{"ID":143962,"DIS_CODE":0,"TOWNNAME":"新化區","LI":"東榮里","LIN":"20鄰","STREET":"復興路","SECT":" ","MAREA":" ","LANE":" ","ALLEY":" ","HOUSE_NO":"２２２號","E_COORD97":179390.12,"N_COORD97":2548225.25,"ADDRESS":"復興路２２２號","OBJECTID":143962},"geometry":{"x":179390.12000000011,"y":2548225.25}},{"attributes":{"ID":143963,"DIS_CODE":0,"TOWNNAME":"新化區","LI":"東榮里","LIN":"34鄰","STREET":"中山路","SECT":" ","MAREA":" ","LANE":" ","ALLEY":" ","HOUSE_NO":"２４３號","E_COORD97":179125.70999999999,"N_COORD97":2548429.25,"ADDRESS":"中山路２４３號","OBJECTID":143963},"geometry":{"x":179125.71000000089,"y":2548429.25}},{"attributes":{"ID":143964,"DIS_CODE":0,"TOWNNAME":"東區","LI":"忠孝里","LIN":"14鄰","STREET":"榮譽街","SECT":" ","MAREA":" ","LANE":"１２３巷","ALLEY":"１弄","HOUSE_NO":"１６號","E_COORD97":169850.32000000001,"N_COORD97":2541792.5099999998,"ADDRESS":"榮譽街１２３巷１弄１６號","OBJECTID":143964},"geometry":{"x":169850.3200000003,"y":2541792.5099999998}},{"attributes":{"ID":143965,"DIS_CODE":0,"TOWNNAME":"東區","LI":"忠孝里","LIN":"14鄰","STREET":"榮譽街","SECT":" ","MAREA":" ","LANE":"１２３巷","ALLEY":"１弄","HOUSE_NO":"１８號","E_COORD97":169846.45000000001,"N_COORD97":2541790.0600000001,"ADDRESS":"榮譽街１２３巷１弄１８號","OBJECTID":143965},"geometry":{"x":169846.45000000112,"y":2541790.0600000042}},{"attributes":{"ID":143966,"DIS_CODE":0,"TOWNNAME":"東區","LI":"忠孝里","LIN":"16鄰","STREET":"榮譽街","SECT":" ","MAREA":" ","LANE":"１２３巷","ALLEY":"１弄","HOUSE_NO":"１號","E_COORD97":169864.01999999999,"N_COORD97":2541815.0499999998,"ADDRESS":"榮譽街１２３巷１弄１號","OBJECTID":143966},"geometry":{"x":169864.02000000048,"y":2541815.0500000026}},{"attributes":{"ID":143967,"DIS_CODE":0,"TOWNNAME":"東區","LI":"忠孝里","LIN":"16鄰","STREET":"榮譽街","SECT":" ","MAREA":" ","LANE":"１２３巷","ALLEY":"１弄","HOUSE_NO":"３號","E_COORD97":169859.97,"N_COORD97":2541812.4199999999,"ADDRESS":"榮譽街１２３巷１弄３號","OBJECTID":143967},"geometry":{"x":169859.97000000067,"y":2541812.4200000018}},{"attributes":{"ID":143968,"DIS_CODE":0,"TOWNNAME":"東區","LI":"忠孝里","LIN":"16鄰","STREET":"榮譽街","SECT":" ","MAREA":" ","LANE":"１２３巷","ALLEY":"１弄","HOUSE_NO":"５號","E_COORD97":169854.87,"N_COORD97":2541809.96,"ADDRESS":"榮譽街１２３巷１弄５號","OBJECTID":143968},"geometry":{"x":169854.87000000011,"y":2541809.9600000009}},{"attributes":{"ID":143969,"DIS_CODE":0,"TOWNNAME":"東區","LI":"忠孝里","LIN":"16鄰","STREET":"榮譽街","SECT":" ","MAREA":" ","LANE":"１２３巷","ALLEY":"１弄","HOUSE_NO":"７號","E_COORD97":169850.29999999999,"N_COORD97":2541807.3199999998,"ADDRESS":"榮譽街１２３巷１弄７號","OBJECTID":143969},"geometry":{"x":169850.30000000168,"y":2541807.3200000003}},{"attributes":{"ID":143970,"DIS_CODE":0,"TOWNNAME":"東區","LI":"忠孝里","LIN":"16鄰","STREET":"榮譽街","SECT":" ","MAREA":" ","LANE":"１２３巷","ALLEY":"１弄","HOUSE_NO":"９號","E_COORD97":169846.07999999999,"N_COORD97":2541805.04,"ADDRESS":"榮譽街１２３巷１弄９號","OBJECTID":143970},"geometry":{"x":169846.08000000101,"y":2541805.0399999991}},{"attributes":{"ID":143971,"DIS_CODE":0,"TOWNNAME":"新化區","LI":"豐榮里","LIN":"4鄰","STREET":"中山路","SECT":" ","MAREA":" ","LANE":" ","ALLEY":" ","HOUSE_NO":"７４７號","E_COORD97":177841.60999999999,"N_COORD97":2548410.25,"ADDRESS":"中山路７４７號","OBJECTID":143971},"geometry":{"x":177841.6100000022,"y":2548410.2500000019}},{"attributes":{"ID":143972,"DIS_CODE":0,"TOWNNAME":"新化區","LI":"太平里","LIN":"4鄰","STREET":"民生路","SECT":" ","MAREA":" ","LANE":" ","ALLEY":" ","HOUSE_NO":"２６１號","E_COORD97":179005.60999999999,"N_COORD97":2549056.25,"ADDRESS":"民生路２６１號","OBJECTID":143972},"geometry":{"x":179005.61000000034,"y":2549056.25}},{"attributes":{"ID":143973,"DIS_CODE":0,"TOWNNAME":"新化區","LI":"豐榮里","LIN":"13鄰","STREET":"正新南路","SECT":" ","MAREA":" ","LANE":" ","ALLEY":" ","HOUSE_NO":"１７６號","E_COORD97":178769.67000000001,"N_COORD97":2547961.25,"ADDRESS":"正新南路１７６號","OBJECTID":143973},"geometry":{"x":178769.67000000179,"y":2547961.25}},{"attributes":{"ID":143974,"DIS_CODE":0,"TOWNNAME":"東區","LI":"忠孝里","LIN":"16鄰","STREET":"榮譽街","SECT":" ","MAREA":" ","LANE":"１２３巷","ALLEY":"１弄","HOUSE_NO":"１１號","E_COORD97":169841.14999999999,"N_COORD97":2541802.5800000001,"ADDRESS":"榮譽街１２３巷１弄１１號","OBJECTID":143974},"geometry":{"x":169841.15000000037,"y":2541802.5800000001}},{"attributes":{"ID":143975,"DIS_CODE":0,"TOWNNAME":"東區","LI":"中西里","LIN":"30鄰","STREET":"東寧路","SECT":" ","MAREA":" ","LANE":" ","ALLEY":" ","HOUSE_NO":"１８６號十二樓之６","E_COORD97":170458.85000000001,"N_COORD97":2543507.6000000001,"ADDRESS":"東寧路１８６號十二樓之６","OBJECTID":143975},"geometry":{"x":170458.85000000056,"y":2543507.5999999978}},{"attributes":{"ID":143976,"DIS_CODE":0,"TOWNNAME":"安平區","LI":"平安里","LIN":"16鄰","STREET":"安平路","SECT":" ","MAREA":" ","LANE":"５５０巷","ALLEY":"４５弄","HOUSE_NO":"１６號","E_COORD97":164990.37,"N_COORD97":2544538.73,"ADDRESS":"安平路５５０巷４５弄１６號","OBJECTID":143976},"geometry":{"x":164990.37000000104,"y":2544538.7300000042}},{"attributes":{"ID":143977,"DIS_CODE":0,"TOWNNAME":"東區","LI":"中西里","LIN":"30鄰","STREET":"東寧路","SECT":" ","MAREA":" ","LANE":" ","ALLEY":" ","HOUSE_NO":"１８６號四樓之６","E_COORD97":170458.85000000001,"N_COORD97":2543507.6000000001,"ADDRESS":"東寧路１８６號四樓之６","OBJECTID":143977},"geometry":{"x":170458.85000000056,"y":2543507.5999999978}},{"attributes":{"ID":143978,"DIS_CODE":0,"TOWNNAME":"安平區","LI":"平安里","LIN":"16鄰","STREET":"安平路","SECT":" ","MAREA":" ","LANE":"５５０巷","ALLEY":"４５弄","HOUSE_NO":"１８號","E_COORD97":164986.85000000001,"N_COORD97":2544539.04,"ADDRESS":"安平路５５０巷４５弄１８號","OBJECTID":143978},"geometry":{"x":164986.85000000056,"y":2544539.040000001}},{"attributes":{"ID":143979,"DIS_CODE":0,"TOWNNAME":"安平區","LI":"平安里","LIN":"16鄰","STREET":"安平路","SECT":" ","MAREA":" ","LANE":"５５０巷","ALLEY":"４５弄","HOUSE_NO":"２０號","E_COORD97":164983.17999999999,"N_COORD97":2544540.2599999998,"ADDRESS":"安平路５５０巷４５弄２０號","OBJECTID":143979},"geometry":{"x":164983.18000000063,"y":2544540.2599999998}},{"attributes":{"ID":143980,"DIS_CODE":0,"TOWNNAME":"安平區","LI":"平安里","LIN":"16鄰","STREET":"安平路","SECT":" ","MAREA":" ","LANE":"５５０巷","ALLEY":"４５弄","HOUSE_NO":"５２號","E_COORD97":164919.06,"N_COORD97":2544561.6899999999,"ADDRESS":"安平路５５０巷４５弄５２號","OBJECTID":143980},"geometry":{"x":164919.06000000052,"y":2544561.6900000032}},{"attributes":{"ID":143981,"DIS_CODE":0,"TOWNNAME":"安平區","LI":"平安里","LIN":"16鄰","STREET":"安平路","SECT":" ","MAREA":" ","LANE":"５５０巷","ALLEY":"４５弄","HOUSE_NO":"５４號","E_COORD97":164914.92999999999,"N_COORD97":2544562.9100000001,"ADDRESS":"安平路５５０巷４５弄５４號","OBJECTID":143981},"geometry":{"x":164914.93000000063,"y":2544562.9100000001}},{"attributes":{"ID":143982,"DIS_CODE":0,"TOWNNAME":"永康區","LI":"大灣里","LIN":"30鄰","STREET":"民族路","SECT":" ","MAREA":" ","LANE":" ","ALLEY":" ","HOUSE_NO":"９０號","E_COORD97":175347.38,"N_COORD97":2544807.27,"ADDRESS":"民族路９０號","OBJECTID":143982},"geometry":{"x":175347.38000000175,"y":2544807.2699999996}},{"attributes":{"ID":143983,"DIS_CODE":0,"TOWNNAME":"安平區","LI":"平安里","LIN":"16鄰","STREET":"安平路","SECT":" ","MAREA":" ","LANE":"５５０巷","ALLEY":"４５弄","HOUSE_NO":"５６號","E_COORD97":164910.48999999999,"N_COORD97":2544564.4399999999,"ADDRESS":"安平路５５０巷４５弄５６號","OBJECTID":143983},"geometry":{"x":164910.49000000115,"y":2544564.4400000013}},{"attributes":{"ID":143984,"DIS_CODE":0,"TOWNNAME":"安平區","LI":"平安里","LIN":"16鄰","STREET":"安平路","SECT":" ","MAREA":" ","LANE":"５５０巷","ALLEY":"４５弄","HOUSE_NO":"５８號","E_COORD97":164905.59,"N_COORD97":2544565.9700000002,"ADDRESS":"安平路５５０巷４５弄５８號","OBJECTID":143984},"geometry":{"x":164905.59000000078,"y":2544565.9700000007}},{"attributes":{"ID":143985,"DIS_CODE":0,"TOWNNAME":"安平區","LI":"平安里","LIN":"16鄰","STREET":"安平路","SECT":" ","MAREA":" ","LANE":"５５０巷","ALLEY":"４５弄","HOUSE_NO":"６０號","E_COORD97":164901.92000000001,"N_COORD97":2544567.5,"ADDRESS":"安平路５５０巷４５弄６０號","OBJECTID":143985},"geometry":{"x":164901.92000000086,"y":2544567.5000000019}},{"attributes":{"ID":143986,"DIS_CODE":0,"TOWNNAME":"安平區","LI":"平安里","LIN":"16鄰","STREET":"安平路","SECT":" ","MAREA":" ","LANE":"５５０巷","ALLEY":"４５弄","HOUSE_NO":"６２號","E_COORD97":164896.87,"N_COORD97":2544569.4900000002,"ADDRESS":"安平路５５０巷４５弄６２號","OBJECTID":143986},"geometry":{"x":164896.87000000197,"y":2544569.4900000002}},{"attributes":{"ID":143987,"DIS_CODE":0,"TOWNNAME":"永康區","LI":"永康里","LIN":"25鄰","STREET":"埔聖街","SECT":" ","MAREA":" ","LANE":" ","ALLEY":" ","HOUSE_NO":"１５２號","E_COORD97":174086.92000000001,"N_COORD97":2547620.1400000001,"ADDRESS":"埔聖街１５２號","OBJECTID":143987},"geometry":{"x":174086.91999999993,"y":2547620.1400000006}},{"attributes":{"ID":143988,"DIS_CODE":0,"TOWNNAME":"安定區","LI":"海寮里","LIN":"14鄰","STREET":" ","SECT":" ","MAREA":"海寮","LANE":" ","ALLEY":" ","HOUSE_NO":"１３４之４３號","E_COORD97":168739.59,"N_COORD97":2555704.2999999998,"ADDRESS":"海寮１３４之４３號","OBJECTID":143988},"geometry":{"x":168739.58999999985,"y":2555704.3000000026}},{"attributes":{"ID":143989,"DIS_CODE":0,"TOWNNAME":"安定區","LI":"海寮里","LIN":"14鄰","STREET":" ","SECT":" ","MAREA":"海寮","LANE":" ","ALLEY":" ","HOUSE_NO":"１３２號之３","E_COORD97":169058.57999999999,"N_COORD97":2555440.2999999998,"ADDRESS":"海寮１３２號之３","OBJECTID":143989},"geometry":{"x":169058.58000000007,"y":2555440.3000000007}},{"attributes":{"ID":143990,"DIS_CODE":0,"TOWNNAME":"安定區","LI":"海寮里","LIN":"14鄰","STREET":" ","SECT":" ","MAREA":"海寮","LANE":" ","ALLEY":" ","HOUSE_NO":"１３４號之３","E_COORD97":168901.88,"N_COORD97":2555470.2999999998,"ADDRESS":"海寮１３４號之３","OBJECTID":143990},"geometry":{"x":168901.87999999989,"y":2555470.3000000026}},{"attributes":{"ID":143991,"DIS_CODE":0,"TOWNNAME":"東區","LI":"中西里","LIN":"16鄰","STREET":"長榮路","SECT":"二段","MAREA":" ","LANE":"１７０巷","ALLEY":"１６弄","HOUSE_NO":"５號","E_COORD97":170079.63,"N_COORD97":2543271.8700000001,"ADDRESS":"長榮路二段１７０巷１６弄５號","OBJECTID":143991},"geometry":{"x":170079.62999999989,"y":2543271.8700000029}},{"attributes":{"ID":143992,"DIS_CODE":0,"TOWNNAME":"安定區","LI":"六嘉里","LIN":"4鄰","STREET":" ","SECT":" ","MAREA":"六塊寮","LANE":" ","ALLEY":" ","HOUSE_NO":"３０之１１號","E_COORD97":169688.39999999999,"N_COORD97":2553246.2999999998,"ADDRESS":"六塊寮３０號之１１","OBJECTID":143992},"geometry":{"x":169688.40000000037,"y":2553246.3000000026}},{"attributes":{"ID":143993,"DIS_CODE":0,"TOWNNAME":"南區","LI":"建南里","LIN":"16鄰","STREET":"健康路","SECT":"二段","MAREA":" ","LANE":"五三三巷","ALLEY":"８弄","HOUSE_NO":"１號","E_COORD97":166187.16,"N_COORD97":2542529.4399999999,"ADDRESS":"健康路二段五三三巷８弄１號","OBJECTID":143993},"geometry":{"x":166187.16000000108,"y":2542529.4400000013}},{"attributes":{"ID":143994,"DIS_CODE":0,"TOWNNAME":"南區","LI":"省躬里","LIN":"16鄰","STREET":"灣裡路","SECT":" ","MAREA":" ","LANE":"６２巷","ALLEY":"４０弄","HOUSE_NO":"６７之１號","E_COORD97":165628.66,"N_COORD97":2537327.9900000002,"ADDRESS":"灣裡路６２巷４０弄６７之１號","OBJECTID":143994},"geometry":{"x":165628.66000000015,"y":2537327.9900000002}},{"attributes":{"ID":143995,"DIS_CODE":0,"TOWNNAME":"北區","LI":"正覺里","LIN":"3鄰","STREET":"西門路","SECT":"四段","MAREA":" ","LANE":"３８０巷","ALLEY":"２弄","HOUSE_NO":"１０號","E_COORD97":169026,"N_COORD97":2546080.9900000002,"ADDRESS":"西門路四段３８０巷２弄１０號","OBJECTID":143995},"geometry":{"x":169026.00000000093,"y":2546080.9900000002}},{"attributes":{"ID":143996,"DIS_CODE":0,"TOWNNAME":"北區","LI":"正覺里","LIN":"3鄰","STREET":"西門路","SECT":"四段","MAREA":" ","LANE":"３８０巷","ALLEY":"２弄","HOUSE_NO":"１號","E_COORD97":169052.98999999999,"N_COORD97":2546098.5,"ADDRESS":"西門路四段３８０巷２弄１號","OBJECTID":143996},"geometry":{"x":169052.99000000115,"y":2546098.5}},{"attributes":{"ID":143997,"DIS_CODE":0,"TOWNNAME":"北區","LI":"正覺里","LIN":"3鄰","STREET":"西門路","SECT":"四段","MAREA":" ","LANE":"３８０巷","ALLEY":"２弄","HOUSE_NO":"２號","E_COORD97":169035.79000000001,"N_COORD97":2546104.5800000001,"ADDRESS":"西門路四段３８０巷２弄２號","OBJECTID":143997},"geometry":{"x":169035.79000000097,"y":2546104.5800000001}},{"attributes":{"ID":143998,"DIS_CODE":0,"TOWNNAME":"北區","LI":"正覺里","LIN":"3鄰","STREET":"西門路","SECT":"四段","MAREA":" ","LANE":"３８０巷","ALLEY":"２弄","HOUSE_NO":"３號","E_COORD97":169050.64000000001,"N_COORD97":2546092.2400000002,"ADDRESS":"西門路四段３８０巷２弄３號","OBJECTID":143998},"geometry":{"x":169050.63999999966,"y":2546092.2400000021}},{"attributes":{"ID":143999,"DIS_CODE":0,"TOWNNAME":"永康區","LI":"永康里","LIN":"1鄰","STREET":"永埔街","SECT":" ","MAREA":" ","LANE":" ","ALLEY":" ","HOUSE_NO":"１號","E_COORD97":174049.51999999999,"N_COORD97":2547469.1299999999,"ADDRESS":"永埔街１號","OBJECTID":143999},"geometry":{"x":174049.52000000048,"y":2547469.129999999}},{"attributes":{"ID":144000,"DIS_CODE":0,"TOWNNAME":"安定區","LI":"港口里","LIN":"18鄰","STREET":" ","SECT":" ","MAREA":"港口","LANE":" ","ALLEY":" ","HOUSE_NO":"３７２號之１５","E_COORD97":171373.13,"N_COORD97":2554941.2999999998,"ADDRESS":"港口３７２號之１５","OBJECTID":144000},"geometry":{"x":171373.12999999989,"y":2554941.3000000026}}]}