{"displayFieldName":"TOWNNAME","fieldAliases":{"ID":"ID","DIS_CODE":"DIS_CODE","TOWNNAME":"TOWNNAME","LI":"LI","LIN":"LIN","STREET":"STREET","SECT":"SECT","MAREA":"MAREA","LANE":"LANE","ALLEY":"ALLEY","HOUSE_NO":"HOUSE_NO","E_COORD97":"E_COORD97","N_COORD97":"N_COORD97","ADDRESS":"ADDRESS","OBJECTID":"OBJECTID"},"geometryType":"esriGeometryPoint","spatialReference":{"wkid":102443,"latestWkid":3826},"fields":[{"name":"ID","type":"esriFieldTypeDouble","alias":"ID"},{"name":"DIS_CODE","type":"esriFieldTypeInteger","alias":"DIS_CODE"},{"name":"TOWNNAME","type":"esriFieldTypeString","alias":"TOWNNAME","length":8},{"name":"LI","type":"esriFieldTypeString","alias":"LI","length":8},{"name":"LIN","type":"esriFieldTypeString","alias":"LIN","length":12},{"name":"STREET","type":"esriFieldTypeString","alias":"STREET","length":20},{"name":"SECT","type":"esriFieldTypeString","alias":"SECT","length":8},{"name":"MAREA","type":"esriFieldTypeString","alias":"MAREA","length":12},{"name":"LANE","type":"esriFieldTypeString","alias":"LANE","length":10},{"name":"ALLEY","type":"esriFieldTypeString","alias":"ALLEY","length":10},{"name":"HOUSE_NO","type":"esriFieldTypeString","alias":"HOUSE_NO","length":20},{"name":"E_COORD97","type":"esriFieldTypeDouble","alias":"E_COORD97"},{"name":"N_COORD97","type":"esriFieldTypeDouble","alias":"N_COORD97"},{"name":"ADDRESS","type":"esriFieldTypeString","alias":"ADDRESS","length":50},{"name":"OBJECTID","type":"esriFieldTypeOID","alias":"OBJECTID"}],"features":[{"attributes":{"ID":600228,"DIS_CODE":0,"TOWNNAME":"東區","LI":"龍山里","LIN":"22鄰","STREET":"府東街","SECT":" ","MAREA":" ","LANE":" ","ALLEY":" ","HOUSE_NO":"３０號三樓","E_COORD97":170059.63,"N_COORD97":2542892.3999999999,"ADDRESS":"府東街３０號三樓","OBJECTID":600201},"geometry":{"x":170059.62999999989,"y":2542892.4000000004}},{"attributes":{"ID":600229,"DIS_CODE":0,"TOWNNAME":"東區","LI":"龍山里","LIN":"22鄰","STREET":"府東街","SECT":" ","MAREA":" ","LANE":" ","ALLEY":" ","HOUSE_NO":"３０號三樓之１","E_COORD97":170059.63,"N_COORD97":2542892.3999999999,"ADDRESS":"府東街３０號三樓之１","OBJECTID":600202},"geometry":{"x":170059.62999999989,"y":2542892.4000000004}},{"attributes":{"ID":600230,"DIS_CODE":0,"TOWNNAME":"東區","LI":"龍山里","LIN":"22鄰","STREET":"府東街","SECT":" ","MAREA":" ","LANE":" ","ALLEY":" ","HOUSE_NO":"３０號三樓之２","E_COORD97":170059.63,"N_COORD97":2542892.3999999999,"ADDRESS":"府東街３０號三樓之２","OBJECTID":600203},"geometry":{"x":170059.62999999989,"y":2542892.4000000004}},{"attributes":{"ID":600231,"DIS_CODE":0,"TOWNNAME":"東區","LI":"圍下里","LIN":"2鄰","STREET":"青年路","SECT":" ","MAREA":" ","LANE":" ","ALLEY":" ","HOUSE_NO":"４００號","E_COORD97":169646.57000000001,"N_COORD97":2543517.9100000001,"ADDRESS":"青年路４００號","OBJECTID":600204},"geometry":{"x":169646.5700000003,"y":2543517.910000002}},{"attributes":{"ID":600232,"DIS_CODE":0,"TOWNNAME":"東區","LI":"崇善里","LIN":"26鄰","STREET":"崇善十三街","SECT":" ","MAREA":" ","LANE":" ","ALLEY":" ","HOUSE_NO":"２號","E_COORD97":171218.76000000001,"N_COORD97":2540963.1699999999,"ADDRESS":"崇善十三街２號","OBJECTID":600205},"geometry":{"x":171218.76000000071,"y":2540963.1700000018}},{"attributes":{"ID":600233,"DIS_CODE":0,"TOWNNAME":"東區","LI":"崇善里","LIN":"26鄰","STREET":"崇善十三街","SECT":" ","MAREA":" ","LANE":" ","ALLEY":" ","HOUSE_NO":"６號","E_COORD97":171216.41,"N_COORD97":2540967.27,"ADDRESS":"崇善十三街６號","OBJECTID":600206},"geometry":{"x":171216.41000000108,"y":2540967.2700000033}},{"attributes":{"ID":600234,"DIS_CODE":0,"TOWNNAME":"東區","LI":"崇善里","LIN":"13鄰","STREET":"崇善十街","SECT":" ","MAREA":" ","LANE":" ","ALLEY":" ","HOUSE_NO":"５號","E_COORD97":171118.92000000001,"N_COORD97":2541291.98,"ADDRESS":"崇善十街５號","OBJECTID":600207},"geometry":{"x":171118.91999999993,"y":2541291.9799999986}},{"attributes":{"ID":600235,"DIS_CODE":0,"TOWNNAME":"東區","LI":"東聖里","LIN":"10鄰","STREET":"富農街","SECT":"二段","MAREA":" ","LANE":" ","ALLEY":" ","HOUSE_NO":"１１號之１","E_COORD97":171633.88,"N_COORD97":2542858.0699999998,"ADDRESS":"富農街二段１１號之１","OBJECTID":600208},"geometry":{"x":171633.88000000082,"y":2542858.070000004}},{"attributes":{"ID":600236,"DIS_CODE":0,"TOWNNAME":"東區","LI":"圍下里","LIN":"9鄰","STREET":"勝利路","SECT":" ","MAREA":" ","LANE":" ","ALLEY":" ","HOUSE_NO":"８１號","E_COORD97":169794.67999999999,"N_COORD97":2543539.8700000001,"ADDRESS":"勝利路８１號","OBJECTID":600209},"geometry":{"x":169794.6799999997,"y":2543539.870000001}},{"attributes":{"ID":600237,"DIS_CODE":0,"TOWNNAME":"東區","LI":"大學里","LIN":"16鄰","STREET":"長榮路","SECT":"三段","MAREA":" ","LANE":" ","ALLEY":" ","HOUSE_NO":"１２號地下層","E_COORD97":170211.07999999999,"N_COORD97":2543662.2599999998,"ADDRESS":"長榮路三段１２號地下層","OBJECTID":600210},"geometry":{"x":170211.08000000007,"y":2543662.2599999998}},{"attributes":{"ID":600238,"DIS_CODE":0,"TOWNNAME":"東區","LI":"龍山里","LIN":"22鄰","STREET":"府東街","SECT":" ","MAREA":" ","LANE":" ","ALLEY":" ","HOUSE_NO":"３０號三樓之３","E_COORD97":170059.63,"N_COORD97":2542892.3999999999,"ADDRESS":"府東街３０號三樓之３","OBJECTID":600211},"geometry":{"x":170059.62999999989,"y":2542892.4000000004}},{"attributes":{"ID":600239,"DIS_CODE":0,"TOWNNAME":"東區","LI":"龍山里","LIN":"22鄰","STREET":"府東街","SECT":" ","MAREA":" ","LANE":" ","ALLEY":" ","HOUSE_NO":"３０號五樓","E_COORD97":170059.63,"N_COORD97":2542892.3999999999,"ADDRESS":"府東街３０號五樓","OBJECTID":600212},"geometry":{"x":170059.62999999989,"y":2542892.4000000004}},{"attributes":{"ID":600240,"DIS_CODE":0,"TOWNNAME":"東區","LI":"龍山里","LIN":"22鄰","STREET":"府東街","SECT":" ","MAREA":" ","LANE":" ","ALLEY":" ","HOUSE_NO":"３０號五樓之２","E_COORD97":170059.63,"N_COORD97":2542892.3999999999,"ADDRESS":"府東街３０號五樓之２","OBJECTID":600213},"geometry":{"x":170059.62999999989,"y":2542892.4000000004}},{"attributes":{"ID":600241,"DIS_CODE":0,"TOWNNAME":"東區","LI":"龍山里","LIN":"22鄰","STREET":"府東街","SECT":" ","MAREA":" ","LANE":" ","ALLEY":" ","HOUSE_NO":"３０號六樓","E_COORD97":170059.63,"N_COORD97":2542892.3999999999,"ADDRESS":"府東街３０號六樓","OBJECTID":600214},"geometry":{"x":170059.62999999989,"y":2542892.4000000004}},{"attributes":{"ID":600242,"DIS_CODE":0,"TOWNNAME":"東區","LI":"龍山里","LIN":"22鄰","STREET":"府東街","SECT":" ","MAREA":" ","LANE":" ","ALLEY":" ","HOUSE_NO":"３０號六樓之１","E_COORD97":170059.63,"N_COORD97":2542892.3999999999,"ADDRESS":"府東街３０號六樓之１","OBJECTID":600215},"geometry":{"x":170059.62999999989,"y":2542892.4000000004}},{"attributes":{"ID":600243,"DIS_CODE":0,"TOWNNAME":"東區","LI":"龍山里","LIN":"22鄰","STREET":"府東街","SECT":" ","MAREA":" ","LANE":" ","ALLEY":" ","HOUSE_NO":"３０號六樓之３","E_COORD97":170059.63,"N_COORD97":2542892.3999999999,"ADDRESS":"府東街３０號六樓之３","OBJECTID":600216},"geometry":{"x":170059.62999999989,"y":2542892.4000000004}},{"attributes":{"ID":600244,"DIS_CODE":0,"TOWNNAME":"東區","LI":"龍山里","LIN":"22鄰","STREET":"府東街","SECT":" ","MAREA":" ","LANE":" ","ALLEY":" ","HOUSE_NO":"３０號四樓","E_COORD97":170059.63,"N_COORD97":2542892.3999999999,"ADDRESS":"府東街３０號四樓","OBJECTID":600217},"geometry":{"x":170059.62999999989,"y":2542892.4000000004}},{"attributes":{"ID":600245,"DIS_CODE":0,"TOWNNAME":"東區","LI":"東安里","LIN":"4鄰","STREET":"長榮路","SECT":"二段","MAREA":" ","LANE":" ","ALLEY":" ","HOUSE_NO":"２２號之１","E_COORD97":169948.45999999999,"N_COORD97":2543081.54,"ADDRESS":"長榮路二段２２號之１","OBJECTID":600218},"geometry":{"x":169948.46000000089,"y":2543081.540000001}},{"attributes":{"ID":600246,"DIS_CODE":0,"TOWNNAME":"中西區","LI":"水仙里","LIN":"18鄰","STREET":"普濟街","SECT":" ","MAREA":" ","LANE":" ","ALLEY":" ","HOUSE_NO":"９號","E_COORD97":167801.04000000001,"N_COORD97":2544202.4199999999,"ADDRESS":"普濟街９號","OBJECTID":600219},"geometry":{"x":167801.03999999911,"y":2544202.4200000018}},{"attributes":{"ID":600247,"DIS_CODE":0,"TOWNNAME":"東區","LI":"龍山里","LIN":"22鄰","STREET":"府東街","SECT":" ","MAREA":" ","LANE":" ","ALLEY":" ","HOUSE_NO":"３０號四樓之２","E_COORD97":170059.63,"N_COORD97":2542892.3999999999,"ADDRESS":"府東街３０號四樓之２","OBJECTID":600220},"geometry":{"x":170059.62999999989,"y":2542892.4000000004}},{"attributes":{"ID":600248,"DIS_CODE":0,"TOWNNAME":"東區","LI":"龍山里","LIN":"22鄰","STREET":"府東街","SECT":" ","MAREA":" ","LANE":" ","ALLEY":" ","HOUSE_NO":"３０號四樓之３","E_COORD97":170059.63,"N_COORD97":2542892.3999999999,"ADDRESS":"府東街３０號四樓之３","OBJECTID":600221},"geometry":{"x":170059.62999999989,"y":2542892.4000000004}},{"attributes":{"ID":600249,"DIS_CODE":0,"TOWNNAME":"東區","LI":"龍山里","LIN":"22鄰","STREET":"府東街","SECT":" ","MAREA":" ","LANE":" ","ALLEY":" ","HOUSE_NO":"２２號六樓之３","E_COORD97":170076.51999999999,"N_COORD97":2542873.75,"ADDRESS":"府東街２２號六樓之３","OBJECTID":600222},"geometry":{"x":170076.52000000048,"y":2542873.7500000019}},{"attributes":{"ID":600250,"DIS_CODE":0,"TOWNNAME":"東區","LI":"龍山里","LIN":"22鄰","STREET":"府東街","SECT":" ","MAREA":" ","LANE":" ","ALLEY":" ","HOUSE_NO":"３０號五樓之３","E_COORD97":170059.63,"N_COORD97":2542892.3999999999,"ADDRESS":"府東街３０號五樓之３","OBJECTID":600223},"geometry":{"x":170059.62999999989,"y":2542892.4000000004}},{"attributes":{"ID":600251,"DIS_CODE":0,"TOWNNAME":"東區","LI":"龍山里","LIN":"22鄰","STREET":"府東街","SECT":" ","MAREA":" ","LANE":" ","ALLEY":" ","HOUSE_NO":"２２號三樓之２","E_COORD97":170076.51999999999,"N_COORD97":2542873.75,"ADDRESS":"府東街２２號三樓之２","OBJECTID":600224},"geometry":{"x":170076.52000000048,"y":2542873.7500000019}},{"attributes":{"ID":600252,"DIS_CODE":0,"TOWNNAME":"東區","LI":"龍山里","LIN":"22鄰","STREET":"府東街","SECT":" ","MAREA":" ","LANE":" ","ALLEY":" ","HOUSE_NO":"２２號五樓之１","E_COORD97":170076.51999999999,"N_COORD97":2542873.75,"ADDRESS":"府東街２２號五樓之１","OBJECTID":600225},"geometry":{"x":170076.52000000048,"y":2542873.7500000019}},{"attributes":{"ID":600253,"DIS_CODE":0,"TOWNNAME":"東區","LI":"龍山里","LIN":"22鄰","STREET":"府東街","SECT":" ","MAREA":" ","LANE":" ","ALLEY":" ","HOUSE_NO":"２２號八樓之１","E_COORD97":170076.51999999999,"N_COORD97":2542873.75,"ADDRESS":"府東街２２號八樓之１","OBJECTID":600226},"geometry":{"x":170076.52000000048,"y":2542873.7500000019}},{"attributes":{"ID":600254,"DIS_CODE":0,"TOWNNAME":"東區","LI":"龍山里","LIN":"22鄰","STREET":"府東街","SECT":" ","MAREA":" ","LANE":" ","ALLEY":" ","HOUSE_NO":"２２號八樓之３","E_COORD97":170076.51999999999,"N_COORD97":2542873.75,"ADDRESS":"府東街２２號八樓之３","OBJECTID":600227},"geometry":{"x":170076.52000000048,"y":2542873.7500000019}},{"attributes":{"ID":600255,"DIS_CODE":0,"TOWNNAME":"東區","LI":"龍山里","LIN":"22鄰","STREET":"府東街","SECT":" ","MAREA":" ","LANE":" ","ALLEY":" ","HOUSE_NO":"３０號四樓之１","E_COORD97":170059.63,"N_COORD97":2542892.3999999999,"ADDRESS":"府東街３０號四樓之１","OBJECTID":600228},"geometry":{"x":170059.62999999989,"y":2542892.4000000004}},{"attributes":{"ID":600256,"DIS_CODE":0,"TOWNNAME":"東區","LI":"龍山里","LIN":"22鄰","STREET":"府東街","SECT":" ","MAREA":" ","LANE":" ","ALLEY":" ","HOUSE_NO":"３０號五樓之１","E_COORD97":170059.63,"N_COORD97":2542892.3999999999,"ADDRESS":"府東街３０號五樓之１","OBJECTID":600229},"geometry":{"x":170059.62999999989,"y":2542892.4000000004}},{"attributes":{"ID":600257,"DIS_CODE":0,"TOWNNAME":"東區","LI":"龍山里","LIN":"22鄰","STREET":"府東街","SECT":" ","MAREA":" ","LANE":" ","ALLEY":" ","HOUSE_NO":"３０號六樓之２","E_COORD97":170059.63,"N_COORD97":2542892.3999999999,"ADDRESS":"府東街３０號六樓之２","OBJECTID":600230},"geometry":{"x":170059.62999999989,"y":2542892.4000000004}},{"attributes":{"ID":600258,"DIS_CODE":0,"TOWNNAME":"東區","LI":"龍山里","LIN":"22鄰","STREET":"府東街","SECT":" ","MAREA":" ","LANE":" ","ALLEY":" ","HOUSE_NO":"３０號七樓之１","E_COORD97":170059.63,"N_COORD97":2542892.3999999999,"ADDRESS":"府東街３０號七樓之１","OBJECTID":600231},"geometry":{"x":170059.62999999989,"y":2542892.4000000004}},{"attributes":{"ID":600259,"DIS_CODE":0,"TOWNNAME":"東區","LI":"龍山里","LIN":"22鄰","STREET":"府東街","SECT":" ","MAREA":" ","LANE":" ","ALLEY":" ","HOUSE_NO":"３０號七樓之２","E_COORD97":170059.63,"N_COORD97":2542892.3999999999,"ADDRESS":"府東街３０號七樓之２","OBJECTID":600232},"geometry":{"x":170059.62999999989,"y":2542892.4000000004}},{"attributes":{"ID":600260,"DIS_CODE":0,"TOWNNAME":"東區","LI":"龍山里","LIN":"22鄰","STREET":"府東街","SECT":" ","MAREA":" ","LANE":" ","ALLEY":" ","HOUSE_NO":"３０號八樓之１","E_COORD97":170059.63,"N_COORD97":2542892.3999999999,"ADDRESS":"府東街３０號八樓之１","OBJECTID":600233},"geometry":{"x":170059.62999999989,"y":2542892.4000000004}},{"attributes":{"ID":600261,"DIS_CODE":0,"TOWNNAME":"東區","LI":"崇德里","LIN":"25鄰","STREET":"崇道路","SECT":" ","MAREA":" ","LANE":" ","ALLEY":" ","HOUSE_NO":"２３號","E_COORD97":170648.64999999999,"N_COORD97":2541420.29,"ADDRESS":"崇道路２３號","OBJECTID":600234},"geometry":{"x":170648.65000000224,"y":2541420.2899999991}},{"attributes":{"ID":600262,"DIS_CODE":0,"TOWNNAME":"東區","LI":"崇德里","LIN":"25鄰","STREET":"崇道路","SECT":" ","MAREA":" ","LANE":" ","ALLEY":" ","HOUSE_NO":"２９號","E_COORD97":170658.67999999999,"N_COORD97":2541417.52,"ADDRESS":"崇道路２９號","OBJECTID":600235},"geometry":{"x":170658.68000000063,"y":2541417.5200000014}},{"attributes":{"ID":600263,"DIS_CODE":0,"TOWNNAME":"東區","LI":"崇德里","LIN":"25鄰","STREET":"崇道路","SECT":" ","MAREA":" ","LANE":" ","ALLEY":" ","HOUSE_NO":"２５號","E_COORD97":170650.79000000001,"N_COORD97":2541417.0899999999,"ADDRESS":"崇道路２５號","OBJECTID":600236},"geometry":{"x":170650.7900000019,"y":2541417.0900000017}},{"attributes":{"ID":600264,"DIS_CODE":0,"TOWNNAME":"東區","LI":"崇德里","LIN":"25鄰","STREET":"崇道路","SECT":" ","MAREA":" ","LANE":" ","ALLEY":" ","HOUSE_NO":"２７號","E_COORD97":170654.62,"N_COORD97":2541416.6699999999,"ADDRESS":"崇道路２７號","OBJECTID":600237},"geometry":{"x":170654.62000000011,"y":2541416.6700000018}},{"attributes":{"ID":600265,"DIS_CODE":0,"TOWNNAME":"東區","LI":"崇德里","LIN":"25鄰","STREET":"崇道路","SECT":" ","MAREA":" ","LANE":" ","ALLEY":" ","HOUSE_NO":"２１號","E_COORD97":170653.98999999999,"N_COORD97":2541424.1299999999,"ADDRESS":"崇道路２１號","OBJECTID":600238},"geometry":{"x":170653.99000000022,"y":2541424.129999999}},{"attributes":{"ID":600266,"DIS_CODE":0,"TOWNNAME":"東區","LI":"東光里","LIN":"7鄰","STREET":"怡東路","SECT":" ","MAREA":" ","LANE":" ","ALLEY":" ","HOUSE_NO":"１２０號","E_COORD97":170911.67000000001,"N_COORD97":2543862.0800000001,"ADDRESS":"怡東路１２０號","OBJECTID":600239},"geometry":{"x":170911.66999999993,"y":2543862.0800000019}},{"attributes":{"ID":600267,"DIS_CODE":0,"TOWNNAME":"東區","LI":"東光里","LIN":"7鄰","STREET":"怡東路","SECT":" ","MAREA":" ","LANE":" ","ALLEY":" ","HOUSE_NO":"１２２號","E_COORD97":170912.79000000001,"N_COORD97":2543865.8700000001,"ADDRESS":"怡東路１２２號","OBJECTID":600240},"geometry":{"x":170912.79000000004,"y":2543865.870000001}},{"attributes":{"ID":600268,"DIS_CODE":0,"TOWNNAME":"東區","LI":"虎尾里","LIN":"1鄰","STREET":"東門路","SECT":"三段","MAREA":" ","LANE":" ","ALLEY":" ","HOUSE_NO":"１８５號","E_COORD97":171529.53,"N_COORD97":2541993.21,"ADDRESS":"東門路三段１８５號","OBJECTID":600241},"geometry":{"x":171529.53000000119,"y":2541993.2100000028}},{"attributes":{"ID":600269,"DIS_CODE":0,"TOWNNAME":"東區","LI":"東聖里","LIN":"1鄰","STREET":"中華東路","SECT":"二段","MAREA":" ","LANE":" ","ALLEY":" ","HOUSE_NO":"６３號","E_COORD97":171430.04000000001,"N_COORD97":2543047.98,"ADDRESS":"中華東路二段６３號","OBJECTID":600242},"geometry":{"x":171430.04000000004,"y":2543047.9800000004}},{"attributes":{"ID":600270,"DIS_CODE":0,"TOWNNAME":"東區","LI":"大德里","LIN":"1鄰","STREET":"立德八路","SECT":" ","MAREA":" ","LANE":" ","ALLEY":" ","HOUSE_NO":"５３號","E_COORD97":169551.45999999999,"N_COORD97":2541949.2599999998,"ADDRESS":"立德八路５３號","OBJECTID":600243},"geometry":{"x":169551.46000000089,"y":2541949.2599999998}},{"attributes":{"ID":600271,"DIS_CODE":0,"TOWNNAME":"東區","LI":"小東里","LIN":"19鄰","STREET":"東興路","SECT":" ","MAREA":" ","LANE":" ","ALLEY":" ","HOUSE_NO":"３２０號","E_COORD97":171070.34,"N_COORD97":2544120.23,"ADDRESS":"東興路３２０號","OBJECTID":600244},"geometry":{"x":171070.33999999985,"y":2544120.2300000004}},{"attributes":{"ID":600272,"DIS_CODE":0,"TOWNNAME":"東區","LI":"小東里","LIN":"19鄰","STREET":"東興路","SECT":" ","MAREA":" ","LANE":" ","ALLEY":" ","HOUSE_NO":"３１８號","E_COORD97":171070.97,"N_COORD97":2544114.1200000001,"ADDRESS":"東興路３１８號","OBJECTID":600245},"geometry":{"x":171070.96999999974,"y":2544114.1200000029}},{"attributes":{"ID":600273,"DIS_CODE":0,"TOWNNAME":"東區","LI":"崇德里","LIN":"9鄰","STREET":"崇善路","SECT":" ","MAREA":" ","LANE":" ","ALLEY":" ","HOUSE_NO":"４７６號","E_COORD97":171001.16,"N_COORD97":2541468.6000000001,"ADDRESS":"崇善路４７６號","OBJECTID":600246},"geometry":{"x":171001.16000000108,"y":2541468.5999999996}},{"attributes":{"ID":600274,"DIS_CODE":0,"TOWNNAME":"安南區","LI":"鳳凰里","LIN":"22鄰","STREET":"安中路","SECT":"一段","MAREA":" ","LANE":" ","ALLEY":" ","HOUSE_NO":"８２２號十七樓","E_COORD97":167466.73999999999,"N_COORD97":2549349.71,"ADDRESS":"安中路一段８２２號十七樓","OBJECTID":600247},"geometry":{"x":167466.74000000115,"y":2549349.7100000009}},{"attributes":{"ID":600275,"DIS_CODE":0,"TOWNNAME":"東區","LI":"德高里","LIN":"11鄰","STREET":"德高街","SECT":" ","MAREA":" ","LANE":" ","ALLEY":" ","HOUSE_NO":"７０號","E_COORD97":171460.73000000001,"N_COORD97":2540805.2400000002,"ADDRESS":"德高街７０號","OBJECTID":600248},"geometry":{"x":171460.73000000138,"y":2540805.2399999984}},{"attributes":{"ID":600276,"DIS_CODE":0,"TOWNNAME":"安南區","LI":"鳳凰里","LIN":"22鄰","STREET":"安中路","SECT":"一段","MAREA":" ","LANE":" ","ALLEY":" ","HOUSE_NO":"８３６號四樓","E_COORD97":167442.78,"N_COORD97":2549365.23,"ADDRESS":"安中路一段８３６號四樓","OBJECTID":600249},"geometry":{"x":167442.78000000119,"y":2549365.2300000004}},{"attributes":{"ID":600277,"DIS_CODE":0,"TOWNNAME":"安南區","LI":"海東里","LIN":"22鄰","STREET":"同安路","SECT":" ","MAREA":" ","LANE":" ","ALLEY":" ","HOUSE_NO":"１號二樓","E_COORD97":166795.54999999999,"N_COORD97":2548847.9300000002,"ADDRESS":"同安路１號二樓","OBJECTID":600250},"geometry":{"x":166795.55000000168,"y":2548847.9299999997}},{"attributes":{"ID":600278,"DIS_CODE":0,"TOWNNAME":"東區","LI":"虎尾里","LIN":"35鄰","STREET":"富農街","SECT":"一段","MAREA":" ","LANE":" ","ALLEY":" ","HOUSE_NO":"１５號之２６","E_COORD97":171448.48999999999,"N_COORD97":2542104.0899999999,"ADDRESS":"富農街一段１５號之２６","OBJECTID":600251},"geometry":{"x":171448.49000000115,"y":2542104.0899999999}},{"attributes":{"ID":600279,"DIS_CODE":0,"TOWNNAME":"東區","LI":"虎尾里","LIN":"35鄰","STREET":"富農街","SECT":"一段","MAREA":" ","LANE":" ","ALLEY":" ","HOUSE_NO":"１５號之２７","E_COORD97":171443.39000000001,"N_COORD97":2542103.7000000002,"ADDRESS":"富農街一段１５號之２７","OBJECTID":600252},"geometry":{"x":171443.3900000006,"y":2542103.7000000011}},{"attributes":{"ID":600280,"DIS_CODE":0,"TOWNNAME":"東區","LI":"虎尾里","LIN":"35鄰","STREET":"富農街","SECT":"一段","MAREA":" ","LANE":" ","ALLEY":" ","HOUSE_NO":"１５號之２４","E_COORD97":171457.54000000001,"N_COORD97":2542105.8599999999,"ADDRESS":"富農街一段１５號之２４","OBJECTID":600253},"geometry":{"x":171457.53999999911,"y":2542105.8600000031}},{"attributes":{"ID":600281,"DIS_CODE":0,"TOWNNAME":"東區","LI":"忠孝里","LIN":"33鄰","STREET":"崇明二街","SECT":" ","MAREA":" ","LANE":" ","ALLEY":" ","HOUSE_NO":"１８號","E_COORD97":169571.85000000001,"N_COORD97":2542379.0699999998,"ADDRESS":"崇明二街１８號","OBJECTID":600254},"geometry":{"x":169571.85000000149,"y":2542379.0700000003}},{"attributes":{"ID":600282,"DIS_CODE":0,"TOWNNAME":"東區","LI":"崇善里","LIN":"11鄰","STREET":"崇善八街","SECT":" ","MAREA":" ","LANE":" ","ALLEY":" ","HOUSE_NO":"６０號","E_COORD97":171207.17999999999,"N_COORD97":2541427.1400000001,"ADDRESS":"崇善八街６０號","OBJECTID":600255},"geometry":{"x":171207.18000000156,"y":2541427.1400000043}},{"attributes":{"ID":600283,"DIS_CODE":0,"TOWNNAME":"東區","LI":"崇善里","LIN":"11鄰","STREET":"崇善八街","SECT":" ","MAREA":" ","LANE":" ","ALLEY":" ","HOUSE_NO":"６２號","E_COORD97":171211.04000000001,"N_COORD97":2541429.8999999999,"ADDRESS":"崇善八街６２號","OBJECTID":600256},"geometry":{"x":171211.04000000004,"y":2541429.9000000022}},{"attributes":{"ID":600284,"DIS_CODE":0,"TOWNNAME":"東區","LI":"崇善里","LIN":"11鄰","STREET":"崇善八街","SECT":" ","MAREA":" ","LANE":" ","ALLEY":" ","HOUSE_NO":"６４號","E_COORD97":171214.89999999999,"N_COORD97":2541431.8300000001,"ADDRESS":"崇善八街６４號","OBJECTID":600257},"geometry":{"x":171214.90000000224,"y":2541431.8300000038}},{"attributes":{"ID":600285,"DIS_CODE":0,"TOWNNAME":"東區","LI":"崇善里","LIN":"11鄰","STREET":"崇善八街","SECT":" ","MAREA":" ","LANE":" ","ALLEY":" ","HOUSE_NO":"６６號","E_COORD97":171221.25,"N_COORD97":2541435.96,"ADDRESS":"崇善八街６６號","OBJECTID":600258},"geometry":{"x":171221.25000000093,"y":2541435.9600000028}},{"attributes":{"ID":600286,"DIS_CODE":0,"TOWNNAME":"東區","LI":"崇善里","LIN":"11鄰","STREET":"崇善八街","SECT":" ","MAREA":" ","LANE":" ","ALLEY":" ","HOUSE_NO":"７０號","E_COORD97":171240.56,"N_COORD97":2541448.9199999999,"ADDRESS":"崇善八街７０號","OBJECTID":600259},"geometry":{"x":171240.56000000052,"y":2541448.9200000018}},{"attributes":{"ID":600287,"DIS_CODE":0,"TOWNNAME":"東區","LI":"崇善里","LIN":"11鄰","STREET":"崇善八街","SECT":" ","MAREA":" ","LANE":" ","ALLEY":" ","HOUSE_NO":"７２號","E_COORD97":171228.97,"N_COORD97":2541441.2000000002,"ADDRESS":"崇善八街７２號","OBJECTID":600260},"geometry":{"x":171228.9700000016,"y":2541441.1999999993}},{"attributes":{"ID":600288,"DIS_CODE":0,"TOWNNAME":"東區","LI":"崇善里","LIN":"11鄰","STREET":"崇善八街","SECT":" ","MAREA":" ","LANE":" ","ALLEY":" ","HOUSE_NO":"７８號","E_COORD97":171234.20999999999,"N_COORD97":2541444.7799999998,"ADDRESS":"崇善八街７８號","OBJECTID":600261},"geometry":{"x":171234.20999999996,"y":2541444.7799999975}},{"attributes":{"ID":600289,"DIS_CODE":0,"TOWNNAME":"東區","LI":"崇善里","LIN":"11鄰","STREET":"崇善八街","SECT":" ","MAREA":" ","LANE":" ","ALLEY":" ","HOUSE_NO":"８２號","E_COORD97":171246.63,"N_COORD97":2541451.3999999999,"ADDRESS":"崇善八街８２號","OBJECTID":600262},"geometry":{"x":171246.63000000175,"y":2541451.4000000004}},{"attributes":{"ID":600290,"DIS_CODE":0,"TOWNNAME":"永康區","LI":"尚頂里","LIN":"22鄰","STREET":"大武街","SECT":" ","MAREA":" ","LANE":" ","ALLEY":" ","HOUSE_NO":"６２號十五樓之１","E_COORD97":170391.41,"N_COORD97":2546803.54,"ADDRESS":"大武街６２號十五樓之１","OBJECTID":600263},"geometry":{"x":170391.41000000108,"y":2546803.540000001}},{"attributes":{"ID":600291,"DIS_CODE":0,"TOWNNAME":"永康區","LI":"尚頂里","LIN":"22鄰","STREET":"大武街","SECT":" ","MAREA":" ","LANE":" ","ALLEY":" ","HOUSE_NO":"６６號十三樓之１","E_COORD97":170415.73000000001,"N_COORD97":2546796.79,"ADDRESS":"大武街６６號十三樓之１","OBJECTID":600264},"geometry":{"x":170415.73000000045,"y":2546796.7899999991}},{"attributes":{"ID":600292,"DIS_CODE":0,"TOWNNAME":"永康區","LI":"尚頂里","LIN":"22鄰","STREET":"大武街","SECT":" ","MAREA":" ","LANE":" ","ALLEY":" ","HOUSE_NO":"６２號九樓之２","E_COORD97":170390.29999999999,"N_COORD97":2546803.54,"ADDRESS":"大武街６２號九樓之２","OBJECTID":600265},"geometry":{"x":170390.29999999981,"y":2546803.540000001}},{"attributes":{"ID":600293,"DIS_CODE":0,"TOWNNAME":"永康區","LI":"尚頂里","LIN":"22鄰","STREET":"大武街","SECT":" ","MAREA":" ","LANE":" ","ALLEY":" ","HOUSE_NO":"６６號六樓之１","E_COORD97":170414.48000000001,"N_COORD97":2546796.79,"ADDRESS":"大武街６６號六樓之１","OBJECTID":600266},"geometry":{"x":170414.48000000138,"y":2546796.7899999991}},{"attributes":{"ID":600294,"DIS_CODE":0,"TOWNNAME":"永康區","LI":"尚頂里","LIN":"22鄰","STREET":"大武街","SECT":" ","MAREA":" ","LANE":" ","ALLEY":" ","HOUSE_NO":"６６號八樓之１","E_COORD97":170414.48000000001,"N_COORD97":2546796.79,"ADDRESS":"大武街６６號八樓之１","OBJECTID":600267},"geometry":{"x":170414.48000000138,"y":2546796.7899999991}},{"attributes":{"ID":600295,"DIS_CODE":0,"TOWNNAME":"永康區","LI":"尚頂里","LIN":"22鄰","STREET":"大武街","SECT":" ","MAREA":" ","LANE":" ","ALLEY":" ","HOUSE_NO":"６６號五樓之２","E_COORD97":170414.62,"N_COORD97":2546796.79,"ADDRESS":"大武街６６號五樓之２","OBJECTID":600268},"geometry":{"x":170414.62000000197,"y":2546796.7899999991}},{"attributes":{"ID":600296,"DIS_CODE":0,"TOWNNAME":"永康區","LI":"甲頂里","LIN":"22鄰","STREET":"中正南路","SECT":" ","MAREA":" ","LANE":" ","ALLEY":" ","HOUSE_NO":"３０號九樓之１","E_COORD97":169669.34,"N_COORD97":2546655.7999999998,"ADDRESS":"中正南路３０號九樓之１","OBJECTID":600269},"geometry":{"x":169669.34000000078,"y":2546655.8000000007}},{"attributes":{"ID":600297,"DIS_CODE":0,"TOWNNAME":"永康區","LI":"尚頂里","LIN":"22鄰","STREET":"大武街","SECT":" ","MAREA":" ","LANE":" ","ALLEY":" ","HOUSE_NO":"６２號八樓之２","E_COORD97":170390.29999999999,"N_COORD97":2546803.54,"ADDRESS":"大武街６２號八樓之２","OBJECTID":600270},"geometry":{"x":170390.29999999981,"y":2546803.540000001}},{"attributes":{"ID":600298,"DIS_CODE":0,"TOWNNAME":"永康區","LI":"尚頂里","LIN":"22鄰","STREET":"大武街","SECT":" ","MAREA":" ","LANE":" ","ALLEY":" ","HOUSE_NO":"６６號十樓之１","E_COORD97":170414.48000000001,"N_COORD97":2546796.79,"ADDRESS":"大武街６６號十樓之１","OBJECTID":600271},"geometry":{"x":170414.48000000138,"y":2546796.7899999991}},{"attributes":{"ID":600299,"DIS_CODE":0,"TOWNNAME":"東區","LI":"德高里","LIN":"4鄰","STREET":"德高街","SECT":" ","MAREA":" ","LANE":" ","ALLEY":" ","HOUSE_NO":"９１號","E_COORD97":171563.54999999999,"N_COORD97":2540781.3999999999,"ADDRESS":"德高街９１號","OBJECTID":600272},"geometry":{"x":171563.54999999981,"y":2540781.4000000022}},{"attributes":{"ID":600300,"DIS_CODE":0,"TOWNNAME":"東區","LI":"仁和里","LIN":"22鄰","STREET":"仁東街","SECT":" ","MAREA":" ","LANE":" ","ALLEY":" ","HOUSE_NO":"６３號七樓之１０","E_COORD97":171617.73999999999,"N_COORD97":2541208.4100000001,"ADDRESS":"仁東街６３號七樓之１０","OBJECTID":600273},"geometry":{"x":171617.74000000115,"y":2541208.410000002}},{"attributes":{"ID":600301,"DIS_CODE":0,"TOWNNAME":"東區","LI":"仁和里","LIN":"22鄰","STREET":"仁東街","SECT":" ","MAREA":" ","LANE":" ","ALLEY":" ","HOUSE_NO":"６３號七樓之１１","E_COORD97":171617.73999999999,"N_COORD97":2541208.4100000001,"ADDRESS":"仁東街６３號七樓之１１","OBJECTID":600274},"geometry":{"x":171617.74000000115,"y":2541208.410000002}},{"attributes":{"ID":600302,"DIS_CODE":0,"TOWNNAME":"東區","LI":"仁和里","LIN":"22鄰","STREET":"仁東街","SECT":" ","MAREA":" ","LANE":" ","ALLEY":" ","HOUSE_NO":"６３號七樓之１２","E_COORD97":171617.73999999999,"N_COORD97":2541208.4100000001,"ADDRESS":"仁東街６３號七樓之１２","OBJECTID":600275},"geometry":{"x":171617.74000000115,"y":2541208.410000002}},{"attributes":{"ID":600303,"DIS_CODE":0,"TOWNNAME":"東區","LI":"仁和里","LIN":"22鄰","STREET":"仁東街","SECT":" ","MAREA":" ","LANE":" ","ALLEY":" ","HOUSE_NO":"６３號七樓之１３","E_COORD97":171617.73999999999,"N_COORD97":2541208.4100000001,"ADDRESS":"仁東街６３號七樓之１３","OBJECTID":600276},"geometry":{"x":171617.74000000115,"y":2541208.410000002}},{"attributes":{"ID":600304,"DIS_CODE":0,"TOWNNAME":"東區","LI":"仁和里","LIN":"22鄰","STREET":"仁東街","SECT":" ","MAREA":" ","LANE":" ","ALLEY":" ","HOUSE_NO":"６３號七樓之６","E_COORD97":171617.73999999999,"N_COORD97":2541208.4100000001,"ADDRESS":"仁東街６３號七樓之６","OBJECTID":600277},"geometry":{"x":171617.74000000115,"y":2541208.410000002}},{"attributes":{"ID":600305,"DIS_CODE":0,"TOWNNAME":"東區","LI":"仁和里","LIN":"22鄰","STREET":"仁東街","SECT":" ","MAREA":" ","LANE":" ","ALLEY":" ","HOUSE_NO":"６３號七樓之７","E_COORD97":171617.73999999999,"N_COORD97":2541208.4100000001,"ADDRESS":"仁東街６３號七樓之７","OBJECTID":600278},"geometry":{"x":171617.74000000115,"y":2541208.410000002}},{"attributes":{"ID":600306,"DIS_CODE":0,"TOWNNAME":"東區","LI":"仁和里","LIN":"22鄰","STREET":"仁東街","SECT":" ","MAREA":" ","LANE":" ","ALLEY":" ","HOUSE_NO":"６３號七樓之８","E_COORD97":171617.73999999999,"N_COORD97":2541208.4100000001,"ADDRESS":"仁東街６３號七樓之８","OBJECTID":600279},"geometry":{"x":171617.74000000115,"y":2541208.410000002}},{"attributes":{"ID":600307,"DIS_CODE":0,"TOWNNAME":"東區","LI":"仁和里","LIN":"22鄰","STREET":"仁東街","SECT":" ","MAREA":" ","LANE":" ","ALLEY":" ","HOUSE_NO":"６３號七樓之９","E_COORD97":171617.73999999999,"N_COORD97":2541208.4100000001,"ADDRESS":"仁東街６３號七樓之９","OBJECTID":600280},"geometry":{"x":171617.74000000115,"y":2541208.410000002}},{"attributes":{"ID":600308,"DIS_CODE":0,"TOWNNAME":"東區","LI":"仁和里","LIN":"22鄰","STREET":"仁東街","SECT":" ","MAREA":" ","LANE":" ","ALLEY":" ","HOUSE_NO":"６３號九樓之１０","E_COORD97":171617.73999999999,"N_COORD97":2541208.4100000001,"ADDRESS":"仁東街６３號九樓之１０","OBJECTID":600281},"geometry":{"x":171617.74000000115,"y":2541208.410000002}},{"attributes":{"ID":600309,"DIS_CODE":0,"TOWNNAME":"東區","LI":"德高里","LIN":"11鄰","STREET":"德高街","SECT":" ","MAREA":" ","LANE":" ","ALLEY":" ","HOUSE_NO":"７６號","E_COORD97":171491.97,"N_COORD97":2540806.7599999998,"ADDRESS":"德高街７６號","OBJECTID":600282},"geometry":{"x":171491.97000000067,"y":2540806.7599999998}},{"attributes":{"ID":600310,"DIS_CODE":0,"TOWNNAME":"東區","LI":"仁和里","LIN":"22鄰","STREET":"仁東街","SECT":" ","MAREA":" ","LANE":" ","ALLEY":" ","HOUSE_NO":"６３號九樓之１１","E_COORD97":171617.73999999999,"N_COORD97":2541208.4100000001,"ADDRESS":"仁東街６３號九樓之１１","OBJECTID":600283},"geometry":{"x":171617.74000000115,"y":2541208.410000002}},{"attributes":{"ID":600311,"DIS_CODE":0,"TOWNNAME":"東區","LI":"仁和里","LIN":"22鄰","STREET":"仁東街","SECT":" ","MAREA":" ","LANE":" ","ALLEY":" ","HOUSE_NO":"６３號九樓之１２","E_COORD97":171617.73999999999,"N_COORD97":2541208.4100000001,"ADDRESS":"仁東街６３號九樓之１２","OBJECTID":600284},"geometry":{"x":171617.74000000115,"y":2541208.410000002}},{"attributes":{"ID":600312,"DIS_CODE":0,"TOWNNAME":"東區","LI":"仁和里","LIN":"22鄰","STREET":"仁東街","SECT":" ","MAREA":" ","LANE":" ","ALLEY":" ","HOUSE_NO":"６３號九樓之１３","E_COORD97":171617.73999999999,"N_COORD97":2541208.4100000001,"ADDRESS":"仁東街６３號九樓之１３","OBJECTID":600285},"geometry":{"x":171617.74000000115,"y":2541208.410000002}},{"attributes":{"ID":600313,"DIS_CODE":0,"TOWNNAME":"東區","LI":"仁和里","LIN":"22鄰","STREET":"仁東街","SECT":" ","MAREA":" ","LANE":" ","ALLEY":" ","HOUSE_NO":"６３號九樓之６","E_COORD97":171617.73999999999,"N_COORD97":2541208.4100000001,"ADDRESS":"仁東街６３號九樓之６","OBJECTID":600286},"geometry":{"x":171617.74000000115,"y":2541208.410000002}},{"attributes":{"ID":600314,"DIS_CODE":0,"TOWNNAME":"東區","LI":"仁和里","LIN":"22鄰","STREET":"仁東街","SECT":" ","MAREA":" ","LANE":" ","ALLEY":" ","HOUSE_NO":"６３號九樓之７","E_COORD97":171617.73999999999,"N_COORD97":2541208.4100000001,"ADDRESS":"仁東街６３號九樓之７","OBJECTID":600287},"geometry":{"x":171617.74000000115,"y":2541208.410000002}},{"attributes":{"ID":600315,"DIS_CODE":0,"TOWNNAME":"東區","LI":"仁和里","LIN":"22鄰","STREET":"仁東街","SECT":" ","MAREA":" ","LANE":" ","ALLEY":" ","HOUSE_NO":"６３號九樓之８","E_COORD97":171617.73999999999,"N_COORD97":2541208.4100000001,"ADDRESS":"仁東街６３號九樓之８","OBJECTID":600288},"geometry":{"x":171617.74000000115,"y":2541208.410000002}},{"attributes":{"ID":600316,"DIS_CODE":0,"TOWNNAME":"東區","LI":"仁和里","LIN":"22鄰","STREET":"仁東街","SECT":" ","MAREA":" ","LANE":" ","ALLEY":" ","HOUSE_NO":"６３號九樓之９","E_COORD97":171617.73999999999,"N_COORD97":2541208.4100000001,"ADDRESS":"仁東街６３號九樓之９","OBJECTID":600289},"geometry":{"x":171617.74000000115,"y":2541208.410000002}},{"attributes":{"ID":600317,"DIS_CODE":0,"TOWNNAME":"東區","LI":"仁和里","LIN":"22鄰","STREET":"仁東街","SECT":" ","MAREA":" ","LANE":" ","ALLEY":" ","HOUSE_NO":"６３號二樓之１０","E_COORD97":171617.73999999999,"N_COORD97":2541208.4100000001,"ADDRESS":"仁東街６３號二樓之１０","OBJECTID":600290},"geometry":{"x":171617.74000000115,"y":2541208.410000002}},{"attributes":{"ID":600318,"DIS_CODE":0,"TOWNNAME":"東區","LI":"仁和里","LIN":"22鄰","STREET":"仁東街","SECT":" ","MAREA":" ","LANE":" ","ALLEY":" ","HOUSE_NO":"６３號二樓之１１","E_COORD97":171617.73999999999,"N_COORD97":2541208.4100000001,"ADDRESS":"仁東街６３號二樓之１１","OBJECTID":600291},"geometry":{"x":171617.74000000115,"y":2541208.410000002}},{"attributes":{"ID":600319,"DIS_CODE":0,"TOWNNAME":"東區","LI":"仁和里","LIN":"22鄰","STREET":"仁東街","SECT":" ","MAREA":" ","LANE":" ","ALLEY":" ","HOUSE_NO":"６３號二樓之１２","E_COORD97":171617.73999999999,"N_COORD97":2541208.4100000001,"ADDRESS":"仁東街６３號二樓之１２","OBJECTID":600292},"geometry":{"x":171617.74000000115,"y":2541208.410000002}},{"attributes":{"ID":600320,"DIS_CODE":0,"TOWNNAME":"東區","LI":"仁和里","LIN":"22鄰","STREET":"仁東街","SECT":" ","MAREA":" ","LANE":" ","ALLEY":" ","HOUSE_NO":"６３號二樓之１３","E_COORD97":171617.73999999999,"N_COORD97":2541208.4100000001,"ADDRESS":"仁東街６３號二樓之１３","OBJECTID":600293},"geometry":{"x":171617.74000000115,"y":2541208.410000002}},{"attributes":{"ID":600321,"DIS_CODE":0,"TOWNNAME":"東區","LI":"仁和里","LIN":"22鄰","STREET":"仁東街","SECT":" ","MAREA":" ","LANE":" ","ALLEY":" ","HOUSE_NO":"６３號二樓之６","E_COORD97":171617.73999999999,"N_COORD97":2541208.4100000001,"ADDRESS":"仁東街６３號二樓之６","OBJECTID":600294},"geometry":{"x":171617.74000000115,"y":2541208.410000002}},{"attributes":{"ID":600322,"DIS_CODE":0,"TOWNNAME":"東區","LI":"仁和里","LIN":"22鄰","STREET":"仁東街","SECT":" ","MAREA":" ","LANE":" ","ALLEY":" ","HOUSE_NO":"６３號二樓之７","E_COORD97":171617.73999999999,"N_COORD97":2541208.4100000001,"ADDRESS":"仁東街６３號二樓之７","OBJECTID":600295},"geometry":{"x":171617.74000000115,"y":2541208.410000002}},{"attributes":{"ID":600323,"DIS_CODE":0,"TOWNNAME":"東區","LI":"仁和里","LIN":"22鄰","STREET":"仁東街","SECT":" ","MAREA":" ","LANE":" ","ALLEY":" ","HOUSE_NO":"６３號二樓之８","E_COORD97":171617.73999999999,"N_COORD97":2541208.4100000001,"ADDRESS":"仁東街６３號二樓之８","OBJECTID":600296},"geometry":{"x":171617.74000000115,"y":2541208.410000002}},{"attributes":{"ID":600324,"DIS_CODE":0,"TOWNNAME":"東區","LI":"仁和里","LIN":"22鄰","STREET":"仁東街","SECT":" ","MAREA":" ","LANE":" ","ALLEY":" ","HOUSE_NO":"６３號二樓之９","E_COORD97":171617.73999999999,"N_COORD97":2541208.4100000001,"ADDRESS":"仁東街６３號二樓之９","OBJECTID":600297},"geometry":{"x":171617.74000000115,"y":2541208.410000002}},{"attributes":{"ID":600325,"DIS_CODE":0,"TOWNNAME":"東區","LI":"仁和里","LIN":"22鄰","STREET":"仁東街","SECT":" ","MAREA":" ","LANE":" ","ALLEY":" ","HOUSE_NO":"６３號八樓之１０","E_COORD97":171617.73999999999,"N_COORD97":2541208.4100000001,"ADDRESS":"仁東街６３號八樓之１０","OBJECTID":600298},"geometry":{"x":171617.74000000115,"y":2541208.410000002}},{"attributes":{"ID":600326,"DIS_CODE":0,"TOWNNAME":"東區","LI":"仁和里","LIN":"22鄰","STREET":"仁東街","SECT":" ","MAREA":" ","LANE":" ","ALLEY":" ","HOUSE_NO":"６３號八樓之１１","E_COORD97":171617.73999999999,"N_COORD97":2541208.4100000001,"ADDRESS":"仁東街６３號八樓之１１","OBJECTID":600299},"geometry":{"x":171617.74000000115,"y":2541208.410000002}},{"attributes":{"ID":600327,"DIS_CODE":0,"TOWNNAME":"東區","LI":"仁和里","LIN":"22鄰","STREET":"仁東街","SECT":" ","MAREA":" ","LANE":" ","ALLEY":" ","HOUSE_NO":"６３號八樓之１２","E_COORD97":171617.73999999999,"N_COORD97":2541208.4100000001,"ADDRESS":"仁東街６３號八樓之１２","OBJECTID":600300},"geometry":{"x":171617.74000000115,"y":2541208.410000002}},{"attributes":{"ID":600328,"DIS_CODE":0,"TOWNNAME":"東區","LI":"仁和里","LIN":"22鄰","STREET":"仁東街","SECT":" ","MAREA":" ","LANE":" ","ALLEY":" ","HOUSE_NO":"６３號八樓之１３","E_COORD97":171617.73999999999,"N_COORD97":2541208.4100000001,"ADDRESS":"仁東街６３號八樓之１３","OBJECTID":600301},"geometry":{"x":171617.74000000115,"y":2541208.410000002}},{"attributes":{"ID":600329,"DIS_CODE":0,"TOWNNAME":"東區","LI":"仁和里","LIN":"22鄰","STREET":"仁東街","SECT":" ","MAREA":" ","LANE":" ","ALLEY":" ","HOUSE_NO":"６３號八樓之６","E_COORD97":171617.73999999999,"N_COORD97":2541208.4100000001,"ADDRESS":"仁東街６３號八樓之６","OBJECTID":600302},"geometry":{"x":171617.74000000115,"y":2541208.410000002}},{"attributes":{"ID":600330,"DIS_CODE":0,"TOWNNAME":"東區","LI":"仁和里","LIN":"22鄰","STREET":"仁東街","SECT":" ","MAREA":" ","LANE":" ","ALLEY":" ","HOUSE_NO":"６３號八樓之７","E_COORD97":171617.73999999999,"N_COORD97":2541208.4100000001,"ADDRESS":"仁東街６３號八樓之７","OBJECTID":600303},"geometry":{"x":171617.74000000115,"y":2541208.410000002}},{"attributes":{"ID":600331,"DIS_CODE":0,"TOWNNAME":"東區","LI":"仁和里","LIN":"22鄰","STREET":"仁東街","SECT":" ","MAREA":" ","LANE":" ","ALLEY":" ","HOUSE_NO":"６３號八樓之８","E_COORD97":171617.73999999999,"N_COORD97":2541208.4100000001,"ADDRESS":"仁東街６３號八樓之８","OBJECTID":600304},"geometry":{"x":171617.74000000115,"y":2541208.410000002}},{"attributes":{"ID":600332,"DIS_CODE":0,"TOWNNAME":"東區","LI":"仁和里","LIN":"22鄰","STREET":"仁東街","SECT":" ","MAREA":" ","LANE":" ","ALLEY":" ","HOUSE_NO":"６３號八樓之９","E_COORD97":171617.73999999999,"N_COORD97":2541208.4100000001,"ADDRESS":"仁東街６３號八樓之９","OBJECTID":600305},"geometry":{"x":171617.74000000115,"y":2541208.410000002}},{"attributes":{"ID":600333,"DIS_CODE":0,"TOWNNAME":"東區","LI":"崇善里","LIN":"6鄰","STREET":"崇善六街","SECT":" ","MAREA":" ","LANE":" ","ALLEY":" ","HOUSE_NO":"７號","E_COORD97":171073.23999999999,"N_COORD97":2541526.4399999999,"ADDRESS":"崇善六街７號","OBJECTID":600306},"geometry":{"x":171073.24000000022,"y":2541526.4400000013}},{"attributes":{"ID":600334,"DIS_CODE":0,"TOWNNAME":"東區","LI":"大智里","LIN":"19鄰","STREET":"崇善十四街","SECT":" ","MAREA":" ","LANE":" ","ALLEY":" ","HOUSE_NO":"４２號之１","E_COORD97":171292.60000000001,"N_COORD97":2540626.27,"ADDRESS":"崇善十四街４２號之１","OBJECTID":600307},"geometry":{"x":171292.60000000056,"y":2540626.2700000014}},{"attributes":{"ID":600335,"DIS_CODE":0,"TOWNNAME":"東區","LI":"崇德里","LIN":"10鄰","STREET":"崇德八街","SECT":" ","MAREA":" ","LANE":" ","ALLEY":" ","HOUSE_NO":"３７號","E_COORD97":170923.20999999999,"N_COORD97":2541632.2200000002,"ADDRESS":"崇德八街３７號","OBJECTID":600308},"geometry":{"x":170923.21000000089,"y":2541632.2200000007}},{"attributes":{"ID":600336,"DIS_CODE":0,"TOWNNAME":"東區","LI":"仁和里","LIN":"22鄰","STREET":"仁東街","SECT":" ","MAREA":" ","LANE":" ","ALLEY":" ","HOUSE_NO":"６３號十一樓之１０","E_COORD97":171617.73999999999,"N_COORD97":2541208.4100000001,"ADDRESS":"仁東街６３號十一樓之１０","OBJECTID":600309},"geometry":{"x":171617.74000000115,"y":2541208.410000002}},{"attributes":{"ID":600337,"DIS_CODE":0,"TOWNNAME":"東區","LI":"仁和里","LIN":"22鄰","STREET":"仁東街","SECT":" ","MAREA":" ","LANE":" ","ALLEY":" ","HOUSE_NO":"６３號十一樓之１１","E_COORD97":171617.73999999999,"N_COORD97":2541208.4100000001,"ADDRESS":"仁東街６３號十一樓之１１","OBJECTID":600310},"geometry":{"x":171617.74000000115,"y":2541208.410000002}},{"attributes":{"ID":600338,"DIS_CODE":0,"TOWNNAME":"東區","LI":"仁和里","LIN":"22鄰","STREET":"仁東街","SECT":" ","MAREA":" ","LANE":" ","ALLEY":" ","HOUSE_NO":"６３號十一樓之１２","E_COORD97":171617.73999999999,"N_COORD97":2541208.4100000001,"ADDRESS":"仁東街６３號十一樓之１２","OBJECTID":600311},"geometry":{"x":171617.74000000115,"y":2541208.410000002}},{"attributes":{"ID":600339,"DIS_CODE":0,"TOWNNAME":"東區","LI":"仁和里","LIN":"22鄰","STREET":"仁東街","SECT":" ","MAREA":" ","LANE":" ","ALLEY":" ","HOUSE_NO":"６３號十一樓之１３","E_COORD97":171617.73999999999,"N_COORD97":2541208.4100000001,"ADDRESS":"仁東街６３號十一樓之１３","OBJECTID":600312},"geometry":{"x":171617.74000000115,"y":2541208.410000002}},{"attributes":{"ID":600340,"DIS_CODE":0,"TOWNNAME":"東區","LI":"仁和里","LIN":"22鄰","STREET":"仁東街","SECT":" ","MAREA":" ","LANE":" ","ALLEY":" ","HOUSE_NO":"６３號十一樓之６","E_COORD97":171617.73999999999,"N_COORD97":2541208.4100000001,"ADDRESS":"仁東街６３號十一樓之６","OBJECTID":600313},"geometry":{"x":171617.74000000115,"y":2541208.410000002}},{"attributes":{"ID":600341,"DIS_CODE":0,"TOWNNAME":"東區","LI":"仁和里","LIN":"22鄰","STREET":"仁東街","SECT":" ","MAREA":" ","LANE":" ","ALLEY":" ","HOUSE_NO":"６３號十一樓之７","E_COORD97":171617.73999999999,"N_COORD97":2541208.4100000001,"ADDRESS":"仁東街６３號十一樓之７","OBJECTID":600314},"geometry":{"x":171617.74000000115,"y":2541208.410000002}},{"attributes":{"ID":600342,"DIS_CODE":0,"TOWNNAME":"東區","LI":"仁和里","LIN":"22鄰","STREET":"仁東街","SECT":" ","MAREA":" ","LANE":" ","ALLEY":" ","HOUSE_NO":"６３號十一樓之８","E_COORD97":171617.73999999999,"N_COORD97":2541208.4100000001,"ADDRESS":"仁東街６３號十一樓之８","OBJECTID":600315},"geometry":{"x":171617.74000000115,"y":2541208.410000002}},{"attributes":{"ID":600343,"DIS_CODE":0,"TOWNNAME":"東區","LI":"仁和里","LIN":"22鄰","STREET":"仁東街","SECT":" ","MAREA":" ","LANE":" ","ALLEY":" ","HOUSE_NO":"６３號十一樓之９","E_COORD97":171617.73999999999,"N_COORD97":2541208.4100000001,"ADDRESS":"仁東街６３號十一樓之９","OBJECTID":600316},"geometry":{"x":171617.74000000115,"y":2541208.410000002}},{"attributes":{"ID":600344,"DIS_CODE":0,"TOWNNAME":"東區","LI":"仁和里","LIN":"22鄰","STREET":"仁東街","SECT":" ","MAREA":" ","LANE":" ","ALLEY":" ","HOUSE_NO":"６３號十二樓之１０","E_COORD97":171617.73999999999,"N_COORD97":2541208.4100000001,"ADDRESS":"仁東街６３號十二樓之１０","OBJECTID":600317},"geometry":{"x":171617.74000000115,"y":2541208.410000002}},{"attributes":{"ID":600345,"DIS_CODE":0,"TOWNNAME":"東區","LI":"仁和里","LIN":"22鄰","STREET":"仁東街","SECT":" ","MAREA":" ","LANE":" ","ALLEY":" ","HOUSE_NO":"６３號十二樓之１１","E_COORD97":171617.73999999999,"N_COORD97":2541208.4100000001,"ADDRESS":"仁東街６３號十二樓之１１","OBJECTID":600318},"geometry":{"x":171617.74000000115,"y":2541208.410000002}},{"attributes":{"ID":600346,"DIS_CODE":0,"TOWNNAME":"東區","LI":"仁和里","LIN":"22鄰","STREET":"仁東街","SECT":" ","MAREA":" ","LANE":" ","ALLEY":" ","HOUSE_NO":"６３號十二樓之１２","E_COORD97":171617.73999999999,"N_COORD97":2541208.4100000001,"ADDRESS":"仁東街６３號十二樓之１２","OBJECTID":600319},"geometry":{"x":171617.74000000115,"y":2541208.410000002}},{"attributes":{"ID":600347,"DIS_CODE":0,"TOWNNAME":"東區","LI":"仁和里","LIN":"22鄰","STREET":"仁東街","SECT":" ","MAREA":" ","LANE":" ","ALLEY":" ","HOUSE_NO":"６３號十二樓之１３","E_COORD97":171617.73999999999,"N_COORD97":2541208.4100000001,"ADDRESS":"仁東街６３號十二樓之１３","OBJECTID":600320},"geometry":{"x":171617.74000000115,"y":2541208.410000002}},{"attributes":{"ID":600348,"DIS_CODE":0,"TOWNNAME":"東區","LI":"仁和里","LIN":"22鄰","STREET":"仁東街","SECT":" ","MAREA":" ","LANE":" ","ALLEY":" ","HOUSE_NO":"６３號十二樓之６","E_COORD97":171617.73999999999,"N_COORD97":2541208.4100000001,"ADDRESS":"仁東街６３號十二樓之６","OBJECTID":600321},"geometry":{"x":171617.74000000115,"y":2541208.410000002}},{"attributes":{"ID":600349,"DIS_CODE":0,"TOWNNAME":"東區","LI":"仁和里","LIN":"22鄰","STREET":"仁東街","SECT":" ","MAREA":" ","LANE":" ","ALLEY":" ","HOUSE_NO":"６３號十二樓之７","E_COORD97":171617.73999999999,"N_COORD97":2541208.4100000001,"ADDRESS":"仁東街６３號十二樓之７","OBJECTID":600322},"geometry":{"x":171617.74000000115,"y":2541208.410000002}},{"attributes":{"ID":600350,"DIS_CODE":0,"TOWNNAME":"東區","LI":"仁和里","LIN":"22鄰","STREET":"仁東街","SECT":" ","MAREA":" ","LANE":" ","ALLEY":" ","HOUSE_NO":"６３號十二樓之８","E_COORD97":171617.73999999999,"N_COORD97":2541208.4100000001,"ADDRESS":"仁東街６３號十二樓之８","OBJECTID":600323},"geometry":{"x":171617.74000000115,"y":2541208.410000002}},{"attributes":{"ID":600351,"DIS_CODE":0,"TOWNNAME":"東區","LI":"仁和里","LIN":"22鄰","STREET":"仁東街","SECT":" ","MAREA":" ","LANE":" ","ALLEY":" ","HOUSE_NO":"６３號十二樓之９","E_COORD97":171617.73999999999,"N_COORD97":2541208.4100000001,"ADDRESS":"仁東街６３號十二樓之９","OBJECTID":600324},"geometry":{"x":171617.74000000115,"y":2541208.410000002}},{"attributes":{"ID":600352,"DIS_CODE":0,"TOWNNAME":"白河區","LI":"永安里","LIN":"3鄰","STREET":"中正路","SECT":" ","MAREA":" ","LANE":" ","ALLEY":" ","HOUSE_NO":"７１號","E_COORD97":189988.45000000001,"N_COORD97":2583116.1600000001,"ADDRESS":"中正路７１號","OBJECTID":600325},"geometry":{"x":189988.44999999925,"y":2583116.1600000001}},{"attributes":{"ID":600353,"DIS_CODE":0,"TOWNNAME":"東區","LI":"德高里","LIN":"5鄰","STREET":"仁和路","SECT":" ","MAREA":" ","LANE":" ","ALLEY":" ","HOUSE_NO":"２４８號","E_COORD97":171579.70000000001,"N_COORD97":2540896.6899999999,"ADDRESS":"仁和路２４８號","OBJECTID":600326},"geometry":{"x":171579.70000000019,"y":2540896.6900000032}},{"attributes":{"ID":600354,"DIS_CODE":0,"TOWNNAME":"東區","LI":"德高里","LIN":"5鄰","STREET":"仁和路","SECT":" ","MAREA":" ","LANE":" ","ALLEY":" ","HOUSE_NO":"２５０號","E_COORD97":171582.45000000001,"N_COORD97":2540892.9300000002,"ADDRESS":"仁和路２５０號","OBJECTID":600327},"geometry":{"x":171582.45000000112,"y":2540892.9300000016}},{"attributes":{"ID":600355,"DIS_CODE":0,"TOWNNAME":"東區","LI":"崇德里","LIN":"7鄰","STREET":"崇德六街","SECT":" ","MAREA":" ","LANE":" ","ALLEY":" ","HOUSE_NO":"２２號","E_COORD97":170739.23000000001,"N_COORD97":2541736.9900000002,"ADDRESS":"崇德六街２２號","OBJECTID":600328},"geometry":{"x":170739.23000000045,"y":2541736.9900000021}},{"attributes":{"ID":600356,"DIS_CODE":0,"TOWNNAME":"東區","LI":"大福里","LIN":"15鄰","STREET":"立德五路","SECT":" ","MAREA":" ","LANE":" ","ALLEY":" ","HOUSE_NO":"２３號","E_COORD97":169546.62,"N_COORD97":2541844.27,"ADDRESS":"立德五路２３號","OBJECTID":600329},"geometry":{"x":169546.61999999918,"y":2541844.2699999996}},{"attributes":{"ID":600357,"DIS_CODE":0,"TOWNNAME":"東區","LI":"崇德里","LIN":"10鄰","STREET":"崇德路","SECT":" ","MAREA":" ","LANE":" ","ALLEY":" ","HOUSE_NO":"５４９號","E_COORD97":170808.38,"N_COORD97":2541544.8399999999,"ADDRESS":"崇德路５４９號","OBJECTID":600330},"geometry":{"x":170808.38000000082,"y":2541544.8400000017}},{"attributes":{"ID":600358,"DIS_CODE":0,"TOWNNAME":"東區","LI":"大福里","LIN":"10鄰","STREET":"立德四路","SECT":" ","MAREA":" ","LANE":" ","ALLEY":" ","HOUSE_NO":"４２號之１","E_COORD97":169631.14000000001,"N_COORD97":2541811.1800000002,"ADDRESS":"立德四路４２號之１","OBJECTID":600331},"geometry":{"x":169631.1400000006,"y":2541811.1799999997}},{"attributes":{"ID":600359,"DIS_CODE":0,"TOWNNAME":"東區","LI":"仁和里","LIN":"22鄰","STREET":"仁東街","SECT":" ","MAREA":" ","LANE":" ","ALLEY":" ","HOUSE_NO":"６３號十樓之１０","E_COORD97":171617.73999999999,"N_COORD97":2541208.4100000001,"ADDRESS":"仁東街６３號十樓之１０","OBJECTID":600332},"geometry":{"x":171617.74000000115,"y":2541208.410000002}},{"attributes":{"ID":600360,"DIS_CODE":0,"TOWNNAME":"東區","LI":"仁和里","LIN":"22鄰","STREET":"仁東街","SECT":" ","MAREA":" ","LANE":" ","ALLEY":" ","HOUSE_NO":"６３號十樓之１２","E_COORD97":171617.73999999999,"N_COORD97":2541208.4100000001,"ADDRESS":"仁東街６３號十樓之１２","OBJECTID":600333},"geometry":{"x":171617.74000000115,"y":2541208.410000002}},{"attributes":{"ID":600361,"DIS_CODE":0,"TOWNNAME":"東區","LI":"仁和里","LIN":"22鄰","STREET":"仁東街","SECT":" ","MAREA":" ","LANE":" ","ALLEY":" ","HOUSE_NO":"６３號十樓之１３","E_COORD97":171617.73999999999,"N_COORD97":2541208.4100000001,"ADDRESS":"仁東街６３號十樓之１３","OBJECTID":600334},"geometry":{"x":171617.74000000115,"y":2541208.410000002}},{"attributes":{"ID":600362,"DIS_CODE":0,"TOWNNAME":"東區","LI":"仁和里","LIN":"22鄰","STREET":"仁東街","SECT":" ","MAREA":" ","LANE":" ","ALLEY":" ","HOUSE_NO":"６３號十樓之６","E_COORD97":171617.73999999999,"N_COORD97":2541208.4100000001,"ADDRESS":"仁東街６３號十樓之６","OBJECTID":600335},"geometry":{"x":171617.74000000115,"y":2541208.410000002}},{"attributes":{"ID":600363,"DIS_CODE":0,"TOWNNAME":"東區","LI":"仁和里","LIN":"22鄰","STREET":"仁東街","SECT":" ","MAREA":" ","LANE":" ","ALLEY":" ","HOUSE_NO":"６３號十樓之７","E_COORD97":171617.73999999999,"N_COORD97":2541208.4100000001,"ADDRESS":"仁東街６３號十樓之７","OBJECTID":600336},"geometry":{"x":171617.74000000115,"y":2541208.410000002}},{"attributes":{"ID":600364,"DIS_CODE":0,"TOWNNAME":"東區","LI":"仁和里","LIN":"22鄰","STREET":"仁東街","SECT":" ","MAREA":" ","LANE":" ","ALLEY":" ","HOUSE_NO":"６３號十樓之８","E_COORD97":171617.73999999999,"N_COORD97":2541208.4100000001,"ADDRESS":"仁東街６３號十樓之８","OBJECTID":600337},"geometry":{"x":171617.74000000115,"y":2541208.410000002}},{"attributes":{"ID":600365,"DIS_CODE":0,"TOWNNAME":"東區","LI":"仁和里","LIN":"22鄰","STREET":"仁東街","SECT":" ","MAREA":" ","LANE":" ","ALLEY":" ","HOUSE_NO":"６３號十樓之９","E_COORD97":171617.73999999999,"N_COORD97":2541208.4100000001,"ADDRESS":"仁東街６３號十樓之９","OBJECTID":600338},"geometry":{"x":171617.74000000115,"y":2541208.410000002}},{"attributes":{"ID":600366,"DIS_CODE":0,"TOWNNAME":"東區","LI":"仁和里","LIN":"22鄰","STREET":"仁東街","SECT":" ","MAREA":" ","LANE":" ","ALLEY":" ","HOUSE_NO":"６３號三樓之１０","E_COORD97":171617.73999999999,"N_COORD97":2541208.4100000001,"ADDRESS":"仁東街６３號三樓之１０","OBJECTID":600339},"geometry":{"x":171617.74000000115,"y":2541208.410000002}},{"attributes":{"ID":600367,"DIS_CODE":0,"TOWNNAME":"東區","LI":"仁和里","LIN":"22鄰","STREET":"仁東街","SECT":" ","MAREA":" ","LANE":" ","ALLEY":" ","HOUSE_NO":"６３號三樓之１１","E_COORD97":171617.73999999999,"N_COORD97":2541208.4100000001,"ADDRESS":"仁東街６３號三樓之１１","OBJECTID":600340},"geometry":{"x":171617.74000000115,"y":2541208.410000002}},{"attributes":{"ID":600368,"DIS_CODE":0,"TOWNNAME":"東區","LI":"仁和里","LIN":"22鄰","STREET":"仁東街","SECT":" ","MAREA":" ","LANE":" ","ALLEY":" ","HOUSE_NO":"６３號三樓之１２","E_COORD97":171617.73999999999,"N_COORD97":2541208.4100000001,"ADDRESS":"仁東街６３號三樓之１２","OBJECTID":600341},"geometry":{"x":171617.74000000115,"y":2541208.410000002}},{"attributes":{"ID":600369,"DIS_CODE":0,"TOWNNAME":"東區","LI":"衛國里","LIN":"20鄰","STREET":"林森路","SECT":"二段","MAREA":" ","LANE":" ","ALLEY":" ","HOUSE_NO":"１５８號","E_COORD97":170429.44,"N_COORD97":2543245.21,"ADDRESS":"林森路二段１５８號","OBJECTID":600342},"geometry":{"x":170429.44000000041,"y":2543245.2100000028}},{"attributes":{"ID":600370,"DIS_CODE":0,"TOWNNAME":"東區","LI":"崇善里","LIN":"15鄰","STREET":"崇善路","SECT":" ","MAREA":" ","LANE":" ","ALLEY":" ","HOUSE_NO":"６８１號","E_COORD97":171123.25,"N_COORD97":2541187.4500000002,"ADDRESS":"崇善路６８１號","OBJECTID":600343},"geometry":{"x":171123.25,"y":2541187.4500000011}},{"attributes":{"ID":600371,"DIS_CODE":0,"TOWNNAME":"東區","LI":"仁和里","LIN":"22鄰","STREET":"仁東街","SECT":" ","MAREA":" ","LANE":" ","ALLEY":" ","HOUSE_NO":"６３號三樓之１３","E_COORD97":171617.73999999999,"N_COORD97":2541208.4100000001,"ADDRESS":"仁東街６３號三樓之１３","OBJECTID":600344},"geometry":{"x":171617.74000000115,"y":2541208.410000002}},{"attributes":{"ID":600372,"DIS_CODE":0,"TOWNNAME":"東區","LI":"仁和里","LIN":"22鄰","STREET":"仁東街","SECT":" ","MAREA":" ","LANE":" ","ALLEY":" ","HOUSE_NO":"６３號三樓之６","E_COORD97":171617.73999999999,"N_COORD97":2541208.4100000001,"ADDRESS":"仁東街６３號三樓之６","OBJECTID":600345},"geometry":{"x":171617.74000000115,"y":2541208.410000002}},{"attributes":{"ID":600373,"DIS_CODE":0,"TOWNNAME":"東區","LI":"仁和里","LIN":"22鄰","STREET":"仁東街","SECT":" ","MAREA":" ","LANE":" ","ALLEY":" ","HOUSE_NO":"６３號三樓之７","E_COORD97":171617.73999999999,"N_COORD97":2541208.4100000001,"ADDRESS":"仁東街６３號三樓之７","OBJECTID":600346},"geometry":{"x":171617.74000000115,"y":2541208.410000002}},{"attributes":{"ID":600374,"DIS_CODE":0,"TOWNNAME":"東區","LI":"仁和里","LIN":"22鄰","STREET":"仁東街","SECT":" ","MAREA":" ","LANE":" ","ALLEY":" ","HOUSE_NO":"６３號三樓之８","E_COORD97":171617.73999999999,"N_COORD97":2541208.4100000001,"ADDRESS":"仁東街６３號三樓之８","OBJECTID":600347},"geometry":{"x":171617.74000000115,"y":2541208.410000002}},{"attributes":{"ID":600375,"DIS_CODE":0,"TOWNNAME":"東區","LI":"仁和里","LIN":"22鄰","STREET":"仁東街","SECT":" ","MAREA":" ","LANE":" ","ALLEY":" ","HOUSE_NO":"６３號三樓之９","E_COORD97":171617.73999999999,"N_COORD97":2541208.4100000001,"ADDRESS":"仁東街６３號三樓之９","OBJECTID":600348},"geometry":{"x":171617.74000000115,"y":2541208.410000002}},{"attributes":{"ID":600376,"DIS_CODE":0,"TOWNNAME":"東區","LI":"仁和里","LIN":"22鄰","STREET":"仁東街","SECT":" ","MAREA":" ","LANE":" ","ALLEY":" ","HOUSE_NO":"６３號五樓之１０","E_COORD97":171617.73999999999,"N_COORD97":2541208.4100000001,"ADDRESS":"仁東街６３號五樓之１０","OBJECTID":600349},"geometry":{"x":171617.74000000115,"y":2541208.410000002}},{"attributes":{"ID":600377,"DIS_CODE":0,"TOWNNAME":"東區","LI":"仁和里","LIN":"22鄰","STREET":"仁東街","SECT":" ","MAREA":" ","LANE":" ","ALLEY":" ","HOUSE_NO":"６３號五樓之１１","E_COORD97":171617.73999999999,"N_COORD97":2541208.4100000001,"ADDRESS":"仁東街６３號五樓之１１","OBJECTID":600350},"geometry":{"x":171617.74000000115,"y":2541208.410000002}},{"attributes":{"ID":600378,"DIS_CODE":0,"TOWNNAME":"東區","LI":"仁和里","LIN":"22鄰","STREET":"仁東街","SECT":" ","MAREA":" ","LANE":" ","ALLEY":" ","HOUSE_NO":"６３號五樓之１２","E_COORD97":171617.73999999999,"N_COORD97":2541208.4100000001,"ADDRESS":"仁東街６３號五樓之１２","OBJECTID":600351},"geometry":{"x":171617.74000000115,"y":2541208.410000002}},{"attributes":{"ID":600379,"DIS_CODE":0,"TOWNNAME":"東區","LI":"仁和里","LIN":"22鄰","STREET":"仁東街","SECT":" ","MAREA":" ","LANE":" ","ALLEY":" ","HOUSE_NO":"６３號五樓之１３","E_COORD97":171617.73999999999,"N_COORD97":2541208.4100000001,"ADDRESS":"仁東街６３號五樓之１３","OBJECTID":600352},"geometry":{"x":171617.74000000115,"y":2541208.410000002}},{"attributes":{"ID":600380,"DIS_CODE":0,"TOWNNAME":"東區","LI":"大福里","LIN":"9鄰","STREET":"立德二路","SECT":" ","MAREA":" ","LANE":" ","ALLEY":" ","HOUSE_NO":"６５號","E_COORD97":169660.23000000001,"N_COORD97":2541768.04,"ADDRESS":"立德二路６５號","OBJECTID":600353},"geometry":{"x":169660.23000000138,"y":2541768.0399999991}},{"attributes":{"ID":600381,"DIS_CODE":0,"TOWNNAME":"東區","LI":"仁和里","LIN":"22鄰","STREET":"仁東街","SECT":" ","MAREA":" ","LANE":" ","ALLEY":" ","HOUSE_NO":"６３號五樓之６","E_COORD97":171617.73999999999,"N_COORD97":2541208.4100000001,"ADDRESS":"仁東街６３號五樓之６","OBJECTID":600354},"geometry":{"x":171617.74000000115,"y":2541208.410000002}},{"attributes":{"ID":600382,"DIS_CODE":0,"TOWNNAME":"東區","LI":"仁和里","LIN":"22鄰","STREET":"仁東街","SECT":" ","MAREA":" ","LANE":" ","ALLEY":" ","HOUSE_NO":"６３號五樓之７","E_COORD97":171617.73999999999,"N_COORD97":2541208.4100000001,"ADDRESS":"仁東街６３號五樓之７","OBJECTID":600355},"geometry":{"x":171617.74000000115,"y":2541208.410000002}},{"attributes":{"ID":600383,"DIS_CODE":0,"TOWNNAME":"東區","LI":"仁和里","LIN":"22鄰","STREET":"仁東街","SECT":" ","MAREA":" ","LANE":" ","ALLEY":" ","HOUSE_NO":"６３號五樓之８","E_COORD97":171617.73999999999,"N_COORD97":2541208.4100000001,"ADDRESS":"仁東街６３號五樓之８","OBJECTID":600356},"geometry":{"x":171617.74000000115,"y":2541208.410000002}},{"attributes":{"ID":600384,"DIS_CODE":0,"TOWNNAME":"東區","LI":"仁和里","LIN":"22鄰","STREET":"仁東街","SECT":" ","MAREA":" ","LANE":" ","ALLEY":" ","HOUSE_NO":"６３號五樓之９","E_COORD97":171617.73999999999,"N_COORD97":2541208.4100000001,"ADDRESS":"仁東街６３號五樓之９","OBJECTID":600357},"geometry":{"x":171617.74000000115,"y":2541208.410000002}},{"attributes":{"ID":600385,"DIS_CODE":0,"TOWNNAME":"東區","LI":"仁和里","LIN":"22鄰","STREET":"仁東街","SECT":" ","MAREA":" ","LANE":" ","ALLEY":" ","HOUSE_NO":"６３號六樓之１０","E_COORD97":171617.73999999999,"N_COORD97":2541208.4100000001,"ADDRESS":"仁東街６３號六樓之１０","OBJECTID":600358},"geometry":{"x":171617.74000000115,"y":2541208.410000002}},{"attributes":{"ID":600386,"DIS_CODE":0,"TOWNNAME":"東區","LI":"仁和里","LIN":"22鄰","STREET":"仁東街","SECT":" ","MAREA":" ","LANE":" ","ALLEY":" ","HOUSE_NO":"６３號六樓之１１","E_COORD97":171617.73999999999,"N_COORD97":2541208.4100000001,"ADDRESS":"仁東街６３號六樓之１１","OBJECTID":600359},"geometry":{"x":171617.74000000115,"y":2541208.410000002}},{"attributes":{"ID":600387,"DIS_CODE":0,"TOWNNAME":"東區","LI":"仁和里","LIN":"22鄰","STREET":"仁東街","SECT":" ","MAREA":" ","LANE":" ","ALLEY":" ","HOUSE_NO":"６３號六樓之１２","E_COORD97":171617.73999999999,"N_COORD97":2541208.4100000001,"ADDRESS":"仁東街６３號六樓之１２","OBJECTID":600360},"geometry":{"x":171617.74000000115,"y":2541208.410000002}},{"attributes":{"ID":600388,"DIS_CODE":0,"TOWNNAME":"東區","LI":"仁和里","LIN":"22鄰","STREET":"仁東街","SECT":" ","MAREA":" ","LANE":" ","ALLEY":" ","HOUSE_NO":"６３號六樓之１３","E_COORD97":171617.73999999999,"N_COORD97":2541208.4100000001,"ADDRESS":"仁東街６３號六樓之１３","OBJECTID":600361},"geometry":{"x":171617.74000000115,"y":2541208.410000002}},{"attributes":{"ID":600389,"DIS_CODE":0,"TOWNNAME":"東區","LI":"仁和里","LIN":"22鄰","STREET":"仁東街","SECT":" ","MAREA":" ","LANE":" ","ALLEY":" ","HOUSE_NO":"６３號六樓之６","E_COORD97":171617.73999999999,"N_COORD97":2541208.4100000001,"ADDRESS":"仁東街６３號六樓之６","OBJECTID":600362},"geometry":{"x":171617.74000000115,"y":2541208.410000002}},{"attributes":{"ID":600390,"DIS_CODE":0,"TOWNNAME":"東區","LI":"仁和里","LIN":"22鄰","STREET":"仁東街","SECT":" ","MAREA":" ","LANE":" ","ALLEY":" ","HOUSE_NO":"６３號六樓之７","E_COORD97":171617.73999999999,"N_COORD97":2541208.4100000001,"ADDRESS":"仁東街６３號六樓之７","OBJECTID":600363},"geometry":{"x":171617.74000000115,"y":2541208.410000002}},{"attributes":{"ID":600391,"DIS_CODE":0,"TOWNNAME":"東區","LI":"仁和里","LIN":"22鄰","STREET":"仁東街","SECT":" ","MAREA":" ","LANE":" ","ALLEY":" ","HOUSE_NO":"６３號六樓之８","E_COORD97":171617.73999999999,"N_COORD97":2541208.4100000001,"ADDRESS":"仁東街６３號六樓之８","OBJECTID":600364},"geometry":{"x":171617.74000000115,"y":2541208.410000002}},{"attributes":{"ID":600392,"DIS_CODE":0,"TOWNNAME":"東區","LI":"中西里","LIN":"14鄰","STREET":"東寧路","SECT":" ","MAREA":" ","LANE":" ","ALLEY":" ","HOUSE_NO":"４６號","E_COORD97":170116.17999999999,"N_COORD97":2543599.6699999999,"ADDRESS":"東寧路４６號","OBJECTID":600365},"geometry":{"x":170116.18000000063,"y":2543599.6700000018}},{"attributes":{"ID":600393,"DIS_CODE":0,"TOWNNAME":"東區","LI":"中西里","LIN":"14鄰","STREET":"東寧路","SECT":" ","MAREA":" ","LANE":" ","ALLEY":" ","HOUSE_NO":"４８號","E_COORD97":170111.73999999999,"N_COORD97":2543594.9399999999,"ADDRESS":"東寧路４８號","OBJECTID":600366},"geometry":{"x":170111.74000000022,"y":2543594.9400000013}},{"attributes":{"ID":600394,"DIS_CODE":0,"TOWNNAME":"東區","LI":"中西里","LIN":"14鄰","STREET":"東寧路","SECT":" ","MAREA":" ","LANE":" ","ALLEY":" ","HOUSE_NO":"５０號","E_COORD97":170106.70000000001,"N_COORD97":2543593.6099999999,"ADDRESS":"東寧路５０號","OBJECTID":600367},"geometry":{"x":170106.70000000019,"y":2543593.6100000013}},{"attributes":{"ID":600395,"DIS_CODE":0,"TOWNNAME":"東區","LI":"中西里","LIN":"14鄰","STREET":"東寧路","SECT":" ","MAREA":" ","LANE":" ","ALLEY":" ","HOUSE_NO":"５２號","E_COORD97":170099.60000000001,"N_COORD97":2543592.1299999999,"ADDRESS":"東寧路５２號","OBJECTID":600368},"geometry":{"x":170099.60000000056,"y":2543592.1300000008}},{"attributes":{"ID":600396,"DIS_CODE":0,"TOWNNAME":"東區","LI":"中西里","LIN":"14鄰","STREET":"東寧路","SECT":" ","MAREA":" ","LANE":" ","ALLEY":" ","HOUSE_NO":"５４號","E_COORD97":170102.12,"N_COORD97":2543587.54,"ADDRESS":"東寧路５４號","OBJECTID":600369},"geometry":{"x":170102.12000000011,"y":2543587.5399999991}},{"attributes":{"ID":600397,"DIS_CODE":0,"TOWNNAME":"東區","LI":"中西里","LIN":"14鄰","STREET":"東寧路","SECT":" ","MAREA":" ","LANE":" ","ALLEY":" ","HOUSE_NO":"５６號","E_COORD97":170105.67000000001,"N_COORD97":2543583.5499999998,"ADDRESS":"東寧路５６號","OBJECTID":600370},"geometry":{"x":170105.67000000179,"y":2543583.5500000007}},{"attributes":{"ID":600398,"DIS_CODE":0,"TOWNNAME":"東區","LI":"中西里","LIN":"14鄰","STREET":"東寧路","SECT":" ","MAREA":" ","LANE":" ","ALLEY":" ","HOUSE_NO":"５８號","E_COORD97":170111.59,"N_COORD97":2543575.71,"ADDRESS":"東寧路５８號","OBJECTID":600371},"geometry":{"x":170111.59000000078,"y":2543575.7100000009}},{"attributes":{"ID":600399,"DIS_CODE":0,"TOWNNAME":"東區","LI":"中西里","LIN":"14鄰","STREET":"東寧路","SECT":" ","MAREA":" ","LANE":" ","ALLEY":" ","HOUSE_NO":"６０號","E_COORD97":170114.10999999999,"N_COORD97":2543570.98,"ADDRESS":"東寧路６０號","OBJECTID":600372},"geometry":{"x":170114.11000000034,"y":2543570.9800000023}},{"attributes":{"ID":600400,"DIS_CODE":0,"TOWNNAME":"東區","LI":"中西里","LIN":"14鄰","STREET":"東寧路","SECT":" ","MAREA":" ","LANE":" ","ALLEY":" ","HOUSE_NO":"６２號","E_COORD97":170119.29000000001,"N_COORD97":2543569.3500000001,"ADDRESS":"東寧路６２號","OBJECTID":600373},"geometry":{"x":170119.29000000097,"y":2543569.3499999996}},{"attributes":{"ID":600401,"DIS_CODE":0,"TOWNNAME":"東區","LI":"中西里","LIN":"14鄰","STREET":"東寧路","SECT":" ","MAREA":" ","LANE":" ","ALLEY":" ","HOUSE_NO":"６４號","E_COORD97":170124.03,"N_COORD97":2543576.4500000002,"ADDRESS":"東寧路６４號","OBJECTID":600374},"geometry":{"x":170124.03000000119,"y":2543576.450000003}},{"attributes":{"ID":600402,"DIS_CODE":0,"TOWNNAME":"東區","LI":"崇善里","LIN":"6鄰","STREET":"崇善六街","SECT":" ","MAREA":" ","LANE":" ","ALLEY":" ","HOUSE_NO":"３號","E_COORD97":171058.54000000001,"N_COORD97":2541520.9700000002,"ADDRESS":"崇善六街３號","OBJECTID":600375},"geometry":{"x":171058.54000000004,"y":2541520.9700000025}},{"attributes":{"ID":600403,"DIS_CODE":0,"TOWNNAME":"東區","LI":"崇德里","LIN":"10鄰","STREET":"崇德九街","SECT":" ","MAREA":" ","LANE":" ","ALLEY":" ","HOUSE_NO":"５１號","E_COORD97":170908.85999999999,"N_COORD97":2541576.98,"ADDRESS":"崇德九街５１號","OBJECTID":600376},"geometry":{"x":170908.86000000127,"y":2541576.9800000042}},{"attributes":{"ID":600404,"DIS_CODE":0,"TOWNNAME":"東區","LI":"大智里","LIN":"10鄰","STREET":"德東街","SECT":" ","MAREA":" ","LANE":" ","ALLEY":" ","HOUSE_NO":"９２號","E_COORD97":171113.20999999999,"N_COORD97":2540238.6899999999,"ADDRESS":"德東街９２號","OBJECTID":600377},"geometry":{"x":171113.20999999996,"y":2540238.6900000032}},{"attributes":{"ID":600405,"DIS_CODE":0,"TOWNNAME":"東區","LI":"仁和里","LIN":"22鄰","STREET":"仁東街","SECT":" ","MAREA":" ","LANE":" ","ALLEY":" ","HOUSE_NO":"６３號六樓之９","E_COORD97":171617.73999999999,"N_COORD97":2541208.4100000001,"ADDRESS":"仁東街６３號六樓之９","OBJECTID":600378},"geometry":{"x":171617.74000000115,"y":2541208.410000002}},{"attributes":{"ID":600406,"DIS_CODE":0,"TOWNNAME":"東區","LI":"仁和里","LIN":"22鄰","STREET":"仁東街","SECT":" ","MAREA":" ","LANE":" ","ALLEY":" ","HOUSE_NO":"６３號四樓之１０","E_COORD97":171617.73999999999,"N_COORD97":2541208.4100000001,"ADDRESS":"仁東街６３號四樓之１０","OBJECTID":600379},"geometry":{"x":171617.74000000115,"y":2541208.410000002}},{"attributes":{"ID":600407,"DIS_CODE":0,"TOWNNAME":"東區","LI":"仁和里","LIN":"22鄰","STREET":"仁東街","SECT":" ","MAREA":" ","LANE":" ","ALLEY":" ","HOUSE_NO":"６３號四樓之１１","E_COORD97":171617.73999999999,"N_COORD97":2541208.4100000001,"ADDRESS":"仁東街６３號四樓之１１","OBJECTID":600380},"geometry":{"x":171617.74000000115,"y":2541208.410000002}},{"attributes":{"ID":600408,"DIS_CODE":0,"TOWNNAME":"東區","LI":"仁和里","LIN":"22鄰","STREET":"仁東街","SECT":" ","MAREA":" ","LANE":" ","ALLEY":" ","HOUSE_NO":"６３號四樓之１２","E_COORD97":171617.73999999999,"N_COORD97":2541208.4100000001,"ADDRESS":"仁東街６３號四樓之１２","OBJECTID":600381},"geometry":{"x":171617.74000000115,"y":2541208.410000002}},{"attributes":{"ID":600409,"DIS_CODE":0,"TOWNNAME":"東區","LI":"仁和里","LIN":"22鄰","STREET":"仁東街","SECT":" ","MAREA":" ","LANE":" ","ALLEY":" ","HOUSE_NO":"６３號四樓之１３","E_COORD97":171617.73999999999,"N_COORD97":2541208.4100000001,"ADDRESS":"仁東街６３號四樓之１３","OBJECTID":600382},"geometry":{"x":171617.74000000115,"y":2541208.410000002}},{"attributes":{"ID":600410,"DIS_CODE":0,"TOWNNAME":"東區","LI":"仁和里","LIN":"22鄰","STREET":"仁東街","SECT":" ","MAREA":" ","LANE":" ","ALLEY":" ","HOUSE_NO":"６３號四樓之６","E_COORD97":171617.73999999999,"N_COORD97":2541208.4100000001,"ADDRESS":"仁東街６３號四樓之６","OBJECTID":600383},"geometry":{"x":171617.74000000115,"y":2541208.410000002}},{"attributes":{"ID":600411,"DIS_CODE":0,"TOWNNAME":"東區","LI":"仁和里","LIN":"22鄰","STREET":"仁東街","SECT":" ","MAREA":" ","LANE":" ","ALLEY":" ","HOUSE_NO":"６３號四樓之７","E_COORD97":171617.73999999999,"N_COORD97":2541208.4100000001,"ADDRESS":"仁東街６３號四樓之７","OBJECTID":600384},"geometry":{"x":171617.74000000115,"y":2541208.410000002}},{"attributes":{"ID":600412,"DIS_CODE":0,"TOWNNAME":"東區","LI":"仁和里","LIN":"22鄰","STREET":"仁東街","SECT":" ","MAREA":" ","LANE":" ","ALLEY":" ","HOUSE_NO":"６３號四樓之８","E_COORD97":171617.73999999999,"N_COORD97":2541208.4100000001,"ADDRESS":"仁東街６３號四樓之８","OBJECTID":600385},"geometry":{"x":171617.74000000115,"y":2541208.410000002}},{"attributes":{"ID":600413,"DIS_CODE":0,"TOWNNAME":"東區","LI":"仁和里","LIN":"22鄰","STREET":"仁東街","SECT":" ","MAREA":" ","LANE":" ","ALLEY":" ","HOUSE_NO":"６３號四樓之９","E_COORD97":171617.73999999999,"N_COORD97":2541208.4100000001,"ADDRESS":"仁東街６３號四樓之９","OBJECTID":600386},"geometry":{"x":171617.74000000115,"y":2541208.410000002}},{"attributes":{"ID":600414,"DIS_CODE":0,"TOWNNAME":"永康區","LI":"甲頂里","LIN":"22鄰","STREET":"中正南路","SECT":" ","MAREA":" ","LANE":" ","ALLEY":" ","HOUSE_NO":"３０號八樓之１","E_COORD97":169669.34,"N_COORD97":2546655.7999999998,"ADDRESS":"中正南路３０號八樓之１","OBJECTID":600387},"geometry":{"x":169669.34000000078,"y":2546655.8000000007}},{"attributes":{"ID":600415,"DIS_CODE":0,"TOWNNAME":"永康區","LI":"尚頂里","LIN":"22鄰","STREET":"大武街","SECT":" ","MAREA":" ","LANE":" ","ALLEY":" ","HOUSE_NO":"７２號十三樓之２","E_COORD97":170399.85999999999,"N_COORD97":2546807.29,"ADDRESS":"大武街７２號十三樓之２","OBJECTID":600388},"geometry":{"x":170399.86000000127,"y":2546807.2899999991}},{"attributes":{"ID":600416,"DIS_CODE":0,"TOWNNAME":"永康區","LI":"尚頂里","LIN":"22鄰","STREET":"大武街","SECT":" ","MAREA":" ","LANE":" ","ALLEY":" ","HOUSE_NO":"７２號十四樓之２","E_COORD97":170399.85999999999,"N_COORD97":2546807.29,"ADDRESS":"大武街７２號十四樓之２","OBJECTID":600389},"geometry":{"x":170399.86000000127,"y":2546807.2899999991}},{"attributes":{"ID":600417,"DIS_CODE":0,"TOWNNAME":"仁德區","LI":"仁德里","LIN":"22鄰","STREET":"文善街","SECT":" ","MAREA":" ","LANE":" ","ALLEY":" ","HOUSE_NO":"１２６號三樓之１","E_COORD97":172349.95000000001,"N_COORD97":2541468.8300000001,"ADDRESS":"文善街１２６號三樓之１","OBJECTID":600390},"geometry":{"x":172349.95000000019,"y":2541468.8300000001}},{"attributes":{"ID":600418,"DIS_CODE":0,"TOWNNAME":"仁德區","LI":"仁德里","LIN":"22鄰","STREET":"文善街","SECT":" ","MAREA":" ","LANE":" ","ALLEY":" ","HOUSE_NO":"１２６號四樓之１","E_COORD97":172349.95000000001,"N_COORD97":2541468.8300000001,"ADDRESS":"文善街１２６號四樓之１","OBJECTID":600391},"geometry":{"x":172349.95000000019,"y":2541468.8300000001}},{"attributes":{"ID":600419,"DIS_CODE":0,"TOWNNAME":"永康區","LI":"尚頂里","LIN":"22鄰","STREET":"大武街","SECT":" ","MAREA":" ","LANE":" ","ALLEY":" ","HOUSE_NO":"７２號五樓之１","E_COORD97":170398.47,"N_COORD97":2546807.29,"ADDRESS":"大武街７２號五樓之１","OBJECTID":600392},"geometry":{"x":170398.47000000067,"y":2546807.2899999991}},{"attributes":{"ID":600420,"DIS_CODE":0,"TOWNNAME":"永康區","LI":"甲頂里","LIN":"22鄰","STREET":"中正南路","SECT":" ","MAREA":" ","LANE":" ","ALLEY":" ","HOUSE_NO":"３０號五樓之２","E_COORD97":169669.47,"N_COORD97":2546655.7999999998,"ADDRESS":"中正南路３０號五樓之２","OBJECTID":600393},"geometry":{"x":169669.4700000016,"y":2546655.8000000007}},{"attributes":{"ID":600421,"DIS_CODE":0,"TOWNNAME":"永康區","LI":"尚頂里","LIN":"22鄰","STREET":"大武街","SECT":" ","MAREA":" ","LANE":" ","ALLEY":" ","HOUSE_NO":"６４號三樓之２","E_COORD97":170410.98000000001,"N_COORD97":2546799.29,"ADDRESS":"大武街６４號三樓之２","OBJECTID":600394},"geometry":{"x":170410.98000000231,"y":2546799.290000001}},{"attributes":{"ID":600422,"DIS_CODE":0,"TOWNNAME":"永康區","LI":"尚頂里","LIN":"22鄰","STREET":"大武街","SECT":" ","MAREA":" ","LANE":" ","ALLEY":" ","HOUSE_NO":"６６號十四樓之２","E_COORD97":170415.87,"N_COORD97":2546796.79,"ADDRESS":"大武街６６號十四樓之２","OBJECTID":600395},"geometry":{"x":170415.87000000011,"y":2546796.7899999991}},{"attributes":{"ID":600423,"DIS_CODE":0,"TOWNNAME":"永康區","LI":"尚頂里","LIN":"22鄰","STREET":"大武街","SECT":" ","MAREA":" ","LANE":" ","ALLEY":" ","HOUSE_NO":"６８號二樓之１","E_COORD97":170421.42999999999,"N_COORD97":2546787.29,"ADDRESS":"大武街６８號二樓之１","OBJECTID":600396},"geometry":{"x":170421.43000000063,"y":2546787.2899999991}},{"attributes":{"ID":600424,"DIS_CODE":0,"TOWNNAME":"永康區","LI":"尚頂里","LIN":"22鄰","STREET":"大武街","SECT":" ","MAREA":" ","LANE":" ","ALLEY":" ","HOUSE_NO":"６８號七樓之１","E_COORD97":170421.42999999999,"N_COORD97":2546787.29,"ADDRESS":"大武街６８號七樓之１","OBJECTID":600397},"geometry":{"x":170421.43000000063,"y":2546787.2899999991}},{"attributes":{"ID":600425,"DIS_CODE":0,"TOWNNAME":"永康區","LI":"尚頂里","LIN":"22鄰","STREET":"大武街","SECT":" ","MAREA":" ","LANE":" ","ALLEY":" ","HOUSE_NO":"７２號十四樓之１","E_COORD97":170399.72,"N_COORD97":2546807.29,"ADDRESS":"大武街７２號十四樓之１","OBJECTID":600398},"geometry":{"x":170399.71999999974,"y":2546807.2899999991}},{"attributes":{"ID":600426,"DIS_CODE":0,"TOWNNAME":"永康區","LI":"尚頂里","LIN":"22鄰","STREET":"大武街","SECT":" ","MAREA":" ","LANE":" ","ALLEY":" ","HOUSE_NO":"６６號七樓之２","E_COORD97":170414.62,"N_COORD97":2546796.79,"ADDRESS":"大武街６６號七樓之２","OBJECTID":600399},"geometry":{"x":170414.62000000197,"y":2546796.7899999991}},{"attributes":{"ID":600427,"DIS_CODE":0,"TOWNNAME":"永康區","LI":"尚頂里","LIN":"22鄰","STREET":"大武街","SECT":" ","MAREA":" ","LANE":" ","ALLEY":" ","HOUSE_NO":"７２號七樓之１","E_COORD97":170398.47,"N_COORD97":2546807.29,"ADDRESS":"大武街７２號七樓之１","OBJECTID":600400},"geometry":{"x":170398.47000000067,"y":2546807.2899999991}}]}