{"displayFieldName":"TOWNNAME","fieldAliases":{"ID":"ID","DIS_CODE":"DIS_CODE","TOWNNAME":"TOWNNAME","LI":"LI","LIN":"LIN","STREET":"STREET","SECT":"SECT","MAREA":"MAREA","LANE":"LANE","ALLEY":"ALLEY","HOUSE_NO":"HOUSE_NO","E_COORD97":"E_COORD97","N_COORD97":"N_COORD97","ADDRESS":"ADDRESS","OBJECTID":"OBJECTID"},"geometryType":"esriGeometryPoint","spatialReference":{"wkid":102443,"latestWkid":3826},"fields":[{"name":"ID","type":"esriFieldTypeDouble","alias":"ID"},{"name":"DIS_CODE","type":"esriFieldTypeInteger","alias":"DIS_CODE"},{"name":"TOWNNAME","type":"esriFieldTypeString","alias":"TOWNNAME","length":8},{"name":"LI","type":"esriFieldTypeString","alias":"LI","length":8},{"name":"LIN","type":"esriFieldTypeString","alias":"LIN","length":12},{"name":"STREET","type":"esriFieldTypeString","alias":"STREET","length":20},{"name":"SECT","type":"esriFieldTypeString","alias":"SECT","length":8},{"name":"MAREA","type":"esriFieldTypeString","alias":"MAREA","length":12},{"name":"LANE","type":"esriFieldTypeString","alias":"LANE","length":10},{"name":"ALLEY","type":"esriFieldTypeString","alias":"ALLEY","length":10},{"name":"HOUSE_NO","type":"esriFieldTypeString","alias":"HOUSE_NO","length":20},{"name":"E_COORD97","type":"esriFieldTypeDouble","alias":"E_COORD97"},{"name":"N_COORD97","type":"esriFieldTypeDouble","alias":"N_COORD97"},{"name":"ADDRESS","type":"esriFieldTypeString","alias":"ADDRESS","length":50},{"name":"OBJECTID","type":"esriFieldTypeOID","alias":"OBJECTID"}],"features":[{"attributes":{"ID":597228,"DIS_CODE":0,"TOWNNAME":"楠西區","LI":"楠西里","LIN":"27鄰","STREET":"博愛路","SECT":" ","MAREA":" ","LANE":" ","ALLEY":" ","HOUSE_NO":"５７號","E_COORD97":197373.22,"N_COORD97":2563458.2799999998,"ADDRESS":"博愛路５７號","OBJECTID":597201},"geometry":{"x":197373.21999999974,"y":2563458.2799999993}},{"attributes":{"ID":597229,"DIS_CODE":0,"TOWNNAME":"楠西區","LI":"楠西里","LIN":"27鄰","STREET":"中正路","SECT":" ","MAREA":" ","LANE":" ","ALLEY":" ","HOUSE_NO":"３８８號之３","E_COORD97":197432.60000000001,"N_COORD97":2562926.2999999998,"ADDRESS":"中正路３８８號之３","OBJECTID":597202},"geometry":{"x":197432.60000000056,"y":2562926.3000000007}},{"attributes":{"ID":597230,"DIS_CODE":0,"TOWNNAME":"楠西區","LI":"楠西里","LIN":"27鄰","STREET":"博愛路","SECT":" ","MAREA":" ","LANE":" ","ALLEY":" ","HOUSE_NO":"７１號","E_COORD97":197335.51999999999,"N_COORD97":2563456.2799999998,"ADDRESS":"博愛路７１號","OBJECTID":597203},"geometry":{"x":197335.51999999955,"y":2563456.2800000012}},{"attributes":{"ID":597231,"DIS_CODE":0,"TOWNNAME":"楠西區","LI":"楠西里","LIN":"27鄰","STREET":"博愛路","SECT":" ","MAREA":" ","LANE":" ","ALLEY":" ","HOUSE_NO":"６１號","E_COORD97":197360.51999999999,"N_COORD97":2563457.2799999998,"ADDRESS":"博愛路６１號","OBJECTID":597204},"geometry":{"x":197360.52000000048,"y":2563457.2799999993}},{"attributes":{"ID":597232,"DIS_CODE":0,"TOWNNAME":"永康區","LI":"三合里","LIN":"8鄰","STREET":"南工街","SECT":" ","MAREA":" ","LANE":" ","ALLEY":" ","HOUSE_NO":"１４３號之１","E_COORD97":172092.26999999999,"N_COORD97":2545811.71,"ADDRESS":"南工街１４３號之１","OBJECTID":597205},"geometry":{"x":172092.26999999955,"y":2545811.7100000028}},{"attributes":{"ID":597233,"DIS_CODE":0,"TOWNNAME":"永康區","LI":"大灣里","LIN":"28鄰","STREET":"文賢街","SECT":" ","MAREA":" ","LANE":" ","ALLEY":" ","HOUSE_NO":"３９號","E_COORD97":175291.29000000001,"N_COORD97":2545025.2999999998,"ADDRESS":"文賢街３９號","OBJECTID":597206},"geometry":{"x":175291.29000000097,"y":2545025.3000000007}},{"attributes":{"ID":597234,"DIS_CODE":0,"TOWNNAME":"新化區","LI":"東榮里","LIN":"27鄰","STREET":"護安街","SECT":" ","MAREA":" ","LANE":" ","ALLEY":" ","HOUSE_NO":"５號之２","E_COORD97":179253.89000000001,"N_COORD97":2548199.2599999998,"ADDRESS":"護安街５號之２","OBJECTID":597207},"geometry":{"x":179253.88999999966,"y":2548199.2600000035}},{"attributes":{"ID":597235,"DIS_CODE":0,"TOWNNAME":"新化區","LI":"東榮里","LIN":"27鄰","STREET":"和平街","SECT":" ","MAREA":" ","LANE":" ","ALLEY":" ","HOUSE_NO":"３２號","E_COORD97":179217.67000000001,"N_COORD97":2548176.2400000002,"ADDRESS":"和平街３２號","OBJECTID":597208},"geometry":{"x":179217.67000000086,"y":2548176.2400000039}},{"attributes":{"ID":597236,"DIS_CODE":0,"TOWNNAME":"新化區","LI":"東榮里","LIN":"27鄰","STREET":"和平街","SECT":" ","MAREA":" ","LANE":" ","ALLEY":" ","HOUSE_NO":"３２號之３","E_COORD97":179217.12,"N_COORD97":2548185.2599999998,"ADDRESS":"和平街３２號之３","OBJECTID":597209},"geometry":{"x":179217.12000000011,"y":2548185.2599999998}},{"attributes":{"ID":597237,"DIS_CODE":0,"TOWNNAME":"新化區","LI":"東榮里","LIN":"27鄰","STREET":"和平街","SECT":" ","MAREA":" ","LANE":" ","ALLEY":" ","HOUSE_NO":"２６號之１","E_COORD97":179259.60000000001,"N_COORD97":2548189.2599999998,"ADDRESS":"和平街２６號之１","OBJECTID":597210},"geometry":{"x":179259.59999999963,"y":2548189.2600000035}},{"attributes":{"ID":597238,"DIS_CODE":0,"TOWNNAME":"新化區","LI":"東榮里","LIN":"27鄰","STREET":"護安街","SECT":" ","MAREA":" ","LANE":" ","ALLEY":" ","HOUSE_NO":"５號之１","E_COORD97":179253.85999999999,"N_COORD97":2548199.2599999998,"ADDRESS":"護安街５號之１","OBJECTID":597211},"geometry":{"x":179253.86000000127,"y":2548199.2600000035}},{"attributes":{"ID":597239,"DIS_CODE":0,"TOWNNAME":"新化區","LI":"東榮里","LIN":"27鄰","STREET":"護安街","SECT":" ","MAREA":" ","LANE":" ","ALLEY":" ","HOUSE_NO":"７號之２","E_COORD97":179251.09,"N_COORD97":2548209.2599999998,"ADDRESS":"護安街７號之２","OBJECTID":597212},"geometry":{"x":179251.08999999985,"y":2548209.2600000035}},{"attributes":{"ID":597240,"DIS_CODE":0,"TOWNNAME":"新化區","LI":"東榮里","LIN":"27鄰","STREET":"護安街","SECT":" ","MAREA":" ","LANE":" ","ALLEY":" ","HOUSE_NO":"７號","E_COORD97":179250.63,"N_COORD97":2548209.2599999998,"ADDRESS":"護安街７號","OBJECTID":597213},"geometry":{"x":179250.62999999989,"y":2548209.2600000035}},{"attributes":{"ID":597241,"DIS_CODE":0,"TOWNNAME":"新化區","LI":"東榮里","LIN":"27鄰","STREET":"和平街","SECT":" ","MAREA":" ","LANE":" ","ALLEY":" ","HOUSE_NO":"３０號","E_COORD97":179231.97,"N_COORD97":2548178.25,"ADDRESS":"和平街３０號","OBJECTID":597214},"geometry":{"x":179231.9700000016,"y":2548178.25}},{"attributes":{"ID":597242,"DIS_CODE":0,"TOWNNAME":"新化區","LI":"東榮里","LIN":"27鄰","STREET":"和平街","SECT":" ","MAREA":" ","LANE":" ","ALLEY":" ","HOUSE_NO":"３０號之１","E_COORD97":179232.39999999999,"N_COORD97":2548178.2599999998,"ADDRESS":"和平街３０號之１","OBJECTID":597215},"geometry":{"x":179232.40000000037,"y":2548178.2599999998}},{"attributes":{"ID":597243,"DIS_CODE":0,"TOWNNAME":"新化區","LI":"東榮里","LIN":"27鄰","STREET":"護安街","SECT":" ","MAREA":" ","LANE":" ","ALLEY":" ","HOUSE_NO":"７號之１","E_COORD97":179251.06,"N_COORD97":2548209.2599999998,"ADDRESS":"護安街７號之１","OBJECTID":597216},"geometry":{"x":179251.05999999959,"y":2548209.2600000035}},{"attributes":{"ID":597244,"DIS_CODE":0,"TOWNNAME":"永康區","LI":"大灣里","LIN":"25鄰","STREET":"民族路","SECT":" ","MAREA":" ","LANE":" ","ALLEY":" ","HOUSE_NO":"２２６號","E_COORD97":175072.44,"N_COORD97":2545133.3399999999,"ADDRESS":"民族路２２６號","OBJECTID":597217},"geometry":{"x":175072.44000000041,"y":2545133.3399999999}},{"attributes":{"ID":597245,"DIS_CODE":0,"TOWNNAME":"永康區","LI":"三合里","LIN":"14鄰","STREET":"南工街","SECT":" ","MAREA":" ","LANE":" ","ALLEY":" ","HOUSE_NO":"１９４號","E_COORD97":172037.88,"N_COORD97":2545900.7599999998,"ADDRESS":"南工街１９４號","OBJECTID":597218},"geometry":{"x":172037.87999999989,"y":2545900.7600000035}},{"attributes":{"ID":597246,"DIS_CODE":0,"TOWNNAME":"永康區","LI":"中興里","LIN":"23鄰","STREET":"中華路","SECT":" ","MAREA":" ","LANE":" ","ALLEY":" ","HOUSE_NO":"２１８號之９","E_COORD97":171693.19,"N_COORD97":2545082.7999999998,"ADDRESS":"中華路２１８號之９","OBJECTID":597219},"geometry":{"x":171693.19000000134,"y":2545082.8000000007}},{"attributes":{"ID":597247,"DIS_CODE":0,"TOWNNAME":"永康區","LI":"中興里","LIN":"23鄰","STREET":"中華路","SECT":" ","MAREA":" ","LANE":" ","ALLEY":" ","HOUSE_NO":"２１８號之２３","E_COORD97":171694.17999999999,"N_COORD97":2545115.3599999999,"ADDRESS":"中華路２１８號之２３","OBJECTID":597220},"geometry":{"x":171694.18000000063,"y":2545115.3599999994}},{"attributes":{"ID":597248,"DIS_CODE":0,"TOWNNAME":"新化區","LI":"東榮里","LIN":"27鄰","STREET":"和平街","SECT":" ","MAREA":" ","LANE":" ","ALLEY":" ","HOUSE_NO":"３０號之２","E_COORD97":179232.42999999999,"N_COORD97":2548178.2599999998,"ADDRESS":"和平街３０號之２","OBJECTID":597221},"geometry":{"x":179232.43000000063,"y":2548178.2599999998}},{"attributes":{"ID":597249,"DIS_CODE":0,"TOWNNAME":"新化區","LI":"東榮里","LIN":"27鄰","STREET":"護安街","SECT":" ","MAREA":" ","LANE":" ","ALLEY":" ","HOUSE_NO":"５號之３","E_COORD97":179253.88,"N_COORD97":2548199.2599999998,"ADDRESS":"護安街５號之３","OBJECTID":597222},"geometry":{"x":179253.88000000082,"y":2548199.2600000035}},{"attributes":{"ID":597250,"DIS_CODE":0,"TOWNNAME":"安平區","LI":"平通里","LIN":"27鄰","STREET":"育平八街","SECT":" ","MAREA":" ","LANE":" ","ALLEY":" ","HOUSE_NO":"１２２號","E_COORD97":164389.39999999999,"N_COORD97":2543924.2400000002,"ADDRESS":"育平八街１２２號","OBJECTID":597223},"geometry":{"x":164389.40000000037,"y":2543924.2400000002}},{"attributes":{"ID":597251,"DIS_CODE":0,"TOWNNAME":"新營區","LI":"南興里","LIN":"27鄰","STREET":"建業路","SECT":" ","MAREA":" ","LANE":" ","ALLEY":" ","HOUSE_NO":"４３號","E_COORD97":179079.31,"N_COORD97":2577450.3700000001,"ADDRESS":"建業路４３號","OBJECTID":597224},"geometry":{"x":179079.31000000052,"y":2577450.370000001}},{"attributes":{"ID":597252,"DIS_CODE":0,"TOWNNAME":"仁德區","LI":"仁義里","LIN":"27鄰","STREET":"正義二街","SECT":" ","MAREA":" ","LANE":" ","ALLEY":" ","HOUSE_NO":"１４４號","E_COORD97":173788.54999999999,"N_COORD97":2541557.77,"ADDRESS":"正義二街１４４號","OBJECTID":597225},"geometry":{"x":173788.55000000075,"y":2541557.7700000014}},{"attributes":{"ID":597253,"DIS_CODE":0,"TOWNNAME":"永康區","LI":"三民里","LIN":"2鄰","STREET":"三民街","SECT":" ","MAREA":" ","LANE":" ","ALLEY":" ","HOUSE_NO":"９１號","E_COORD97":172814.35999999999,"N_COORD97":2550322.3900000001,"ADDRESS":"三民街９１號","OBJECTID":597226},"geometry":{"x":172814.36000000127,"y":2550322.3900000025}},{"attributes":{"ID":597254,"DIS_CODE":0,"TOWNNAME":"永康區","LI":"三合里","LIN":"7鄰","STREET":"南工街","SECT":" ","MAREA":" ","LANE":" ","ALLEY":" ","HOUSE_NO":"６９號","E_COORD97":172090.07000000001,"N_COORD97":2545647.4900000002,"ADDRESS":"南工街６９號","OBJECTID":597227},"geometry":{"x":172090.07000000216,"y":2545647.4900000002}},{"attributes":{"ID":597255,"DIS_CODE":0,"TOWNNAME":"永康區","LI":"崑山里","LIN":"19鄰","STREET":"永大路","SECT":"二段","MAREA":" ","LANE":" ","ALLEY":" ","HOUSE_NO":"１號","E_COORD97":174056.07999999999,"N_COORD97":2544546.5699999998,"ADDRESS":"永大路二段１號","OBJECTID":597228},"geometry":{"x":174056.07999999914,"y":2544546.5700000022}},{"attributes":{"ID":597256,"DIS_CODE":0,"TOWNNAME":"永康區","LI":"大橋里","LIN":"28鄰","STREET":"中華路","SECT":" ","MAREA":" ","LANE":" ","ALLEY":" ","HOUSE_NO":"６５２號","E_COORD97":171085.38,"N_COORD97":2546129,"ADDRESS":"中華路６５２號","OBJECTID":597229},"geometry":{"x":171085.37999999989,"y":2546129}},{"attributes":{"ID":597257,"DIS_CODE":0,"TOWNNAME":"永康區","LI":"二王里","LIN":"11鄰","STREET":"永二街","SECT":" ","MAREA":" ","LANE":" ","ALLEY":" ","HOUSE_NO":"３６３號","E_COORD97":172978.87,"N_COORD97":2546588.7000000002,"ADDRESS":"永二街３６３號","OBJECTID":597230},"geometry":{"x":172978.87000000011,"y":2546588.700000003}},{"attributes":{"ID":597258,"DIS_CODE":0,"TOWNNAME":"中西區","LI":"大涼里","LIN":"27鄰","STREET":"永華路","SECT":"一段","MAREA":" ","LANE":" ","ALLEY":" ","HOUSE_NO":"２９０號","E_COORD97":166831.64999999999,"N_COORD97":2543291.0699999998,"ADDRESS":"永華路一段２９０號","OBJECTID":597231},"geometry":{"x":166831.6500000013,"y":2543291.0700000003}},{"attributes":{"ID":597259,"DIS_CODE":0,"TOWNNAME":"新化區","LI":"東榮里","LIN":"27鄰","STREET":"和平街","SECT":" ","MAREA":" ","LANE":" ","ALLEY":" ","HOUSE_NO":"２６號","E_COORD97":179261.17000000001,"N_COORD97":2548180.25,"ADDRESS":"和平街２６號","OBJECTID":597232},"geometry":{"x":179261.16999999993,"y":2548180.2500000019}},{"attributes":{"ID":597260,"DIS_CODE":0,"TOWNNAME":"新化區","LI":"東榮里","LIN":"27鄰","STREET":"和平街","SECT":" ","MAREA":" ","LANE":" ","ALLEY":" ","HOUSE_NO":"３２號之１","E_COORD97":179217.79999999999,"N_COORD97":2548179.2599999998,"ADDRESS":"和平街３２號之１","OBJECTID":597233},"geometry":{"x":179217.79999999888,"y":2548179.2600000016}},{"attributes":{"ID":597261,"DIS_CODE":0,"TOWNNAME":"新化區","LI":"東榮里","LIN":"27鄰","STREET":"和平街","SECT":" ","MAREA":" ","LANE":" ","ALLEY":" ","HOUSE_NO":"２８號之１","E_COORD97":179242,"N_COORD97":2548187.2599999998,"ADDRESS":"和平街２８號之１","OBJECTID":597234},"geometry":{"x":179242,"y":2548187.2600000016}},{"attributes":{"ID":597262,"DIS_CODE":0,"TOWNNAME":"新化區","LI":"東榮里","LIN":"27鄰","STREET":"和平街","SECT":" ","MAREA":" ","LANE":" ","ALLEY":" ","HOUSE_NO":"４２號","E_COORD97":179184.37,"N_COORD97":2548169.25,"ADDRESS":"和平街４２號","OBJECTID":597235},"geometry":{"x":179184.37000000104,"y":2548169.2500000037}},{"attributes":{"ID":597263,"DIS_CODE":0,"TOWNNAME":"新化區","LI":"東榮里","LIN":"27鄰","STREET":"和平街","SECT":" ","MAREA":" ","LANE":" ","ALLEY":" ","HOUSE_NO":"２８號之３","E_COORD97":179242.92000000001,"N_COORD97":2548181.2599999998,"ADDRESS":"和平街２８號之３","OBJECTID":597236},"geometry":{"x":179242.92000000086,"y":2548181.2599999998}},{"attributes":{"ID":597264,"DIS_CODE":0,"TOWNNAME":"永康區","LI":"埔園里","LIN":"26鄰","STREET":"中山路","SECT":" ","MAREA":" ","LANE":" ","ALLEY":" ","HOUSE_NO":"２７６號","E_COORD97":173716.25,"N_COORD97":2548048.3599999999,"ADDRESS":"中山路２７６號","OBJECTID":597237},"geometry":{"x":173716.25000000093,"y":2548048.3599999994}},{"attributes":{"ID":597265,"DIS_CODE":0,"TOWNNAME":"永康區","LI":"勝利里","LIN":"6鄰","STREET":"勝利街","SECT":" ","MAREA":" ","LANE":" ","ALLEY":" ","HOUSE_NO":"１０號","E_COORD97":171196.26999999999,"N_COORD97":2544572.0099999998,"ADDRESS":"勝利街１０號","OBJECTID":597238},"geometry":{"x":171196.27000000142,"y":2544572.0099999998}},{"attributes":{"ID":597266,"DIS_CODE":0,"TOWNNAME":"永康區","LI":"勝利里","LIN":"21鄰","STREET":"勝利街","SECT":" ","MAREA":" ","LANE":" ","ALLEY":" ","HOUSE_NO":"２１９號","E_COORD97":171365.59,"N_COORD97":2545191.2599999998,"ADDRESS":"勝利街２１９號","OBJECTID":597239},"geometry":{"x":171365.59000000171,"y":2545191.2599999998}},{"attributes":{"ID":597267,"DIS_CODE":0,"TOWNNAME":"永康區","LI":"勝利里","LIN":"40鄰","STREET":"中華一路","SECT":" ","MAREA":" ","LANE":" ","ALLEY":" ","HOUSE_NO":"１７６號","E_COORD97":171517,"N_COORD97":2544977.25,"ADDRESS":"中華一路１７６號","OBJECTID":597240},"geometry":{"x":171517,"y":2544977.25}},{"attributes":{"ID":597268,"DIS_CODE":0,"TOWNNAME":"永康區","LI":"崑山里","LIN":"7鄰","STREET":"大灣路","SECT":" ","MAREA":" ","LANE":" ","ALLEY":" ","HOUSE_NO":"９３５號","E_COORD97":173491.60000000001,"N_COORD97":2544372.9100000001,"ADDRESS":"大灣路９３５號","OBJECTID":597241},"geometry":{"x":173491.60000000056,"y":2544372.9100000001}},{"attributes":{"ID":597269,"DIS_CODE":0,"TOWNNAME":"永康區","LI":"崑山里","LIN":"11鄰","STREET":"大灣路","SECT":" ","MAREA":" ","LANE":" ","ALLEY":" ","HOUSE_NO":"１０５０號","E_COORD97":173356.89000000001,"N_COORD97":2544373.77,"ADDRESS":"大灣路１０５０號","OBJECTID":597242},"geometry":{"x":173356.89000000153,"y":2544373.7699999996}},{"attributes":{"ID":597270,"DIS_CODE":0,"TOWNNAME":"東區","LI":"大智里","LIN":"22鄰","STREET":"崇善十六街","SECT":" ","MAREA":" ","LANE":" ","ALLEY":" ","HOUSE_NO":"１０５號","E_COORD97":171343.10000000001,"N_COORD97":2540396.5600000001,"ADDRESS":"崇善十六街１０５號","OBJECTID":597243},"geometry":{"x":171343.09999999963,"y":2540396.5600000042}},{"attributes":{"ID":597271,"DIS_CODE":0,"TOWNNAME":"永康區","LI":"埔園里","LIN":"1鄰","STREET":"中山路","SECT":" ","MAREA":" ","LANE":" ","ALLEY":" ","HOUSE_NO":"６６號","E_COORD97":173842.97,"N_COORD97":2547536.5099999998,"ADDRESS":"中山路６６號","OBJECTID":597244},"geometry":{"x":173842.9700000016,"y":2547536.5100000035}},{"attributes":{"ID":597272,"DIS_CODE":0,"TOWNNAME":"永康區","LI":"勝利里","LIN":"33鄰","STREET":"中華路","SECT":" ","MAREA":" ","LANE":" ","ALLEY":" ","HOUSE_NO":"１號之２５","E_COORD97":171502.01000000001,"N_COORD97":2544353.0499999998,"ADDRESS":"中華路１號之２５","OBJECTID":597245},"geometry":{"x":171502.01000000071,"y":2544353.0500000007}},{"attributes":{"ID":597273,"DIS_CODE":0,"TOWNNAME":"東區","LI":"大智里","LIN":"22鄰","STREET":"崇善十六街","SECT":" ","MAREA":" ","LANE":" ","ALLEY":" ","HOUSE_NO":"１０３號","E_COORD97":171347.76000000001,"N_COORD97":2540396.5600000001,"ADDRESS":"崇善十六街１０３號","OBJECTID":597246},"geometry":{"x":171347.76000000071,"y":2540396.5600000042}},{"attributes":{"ID":597274,"DIS_CODE":0,"TOWNNAME":"永康區","LI":"崑山里","LIN":"44鄰","STREET":"國光六街","SECT":" ","MAREA":" ","LANE":" ","ALLEY":" ","HOUSE_NO":"１０５號","E_COORD97":174003.82999999999,"N_COORD97":2545342.8100000001,"ADDRESS":"國光六街１０５號","OBJECTID":597247},"geometry":{"x":174003.83000000101,"y":2545342.8100000024}},{"attributes":{"ID":597275,"DIS_CODE":0,"TOWNNAME":"永康區","LI":"勝利里","LIN":"21鄰","STREET":"勝利街","SECT":" ","MAREA":" ","LANE":" ","ALLEY":" ","HOUSE_NO":"２０７號之２","E_COORD97":171359.14000000001,"N_COORD97":2545156.04,"ADDRESS":"勝利街２０７號之２","OBJECTID":597248},"geometry":{"x":171359.13999999966,"y":2545156.040000001}},{"attributes":{"ID":597276,"DIS_CODE":0,"TOWNNAME":"永康區","LI":"埔園里","LIN":"21鄰","STREET":"埔園街","SECT":" ","MAREA":" ","LANE":" ","ALLEY":" ","HOUSE_NO":"２８７號","E_COORD97":173419.06,"N_COORD97":2548160.3100000001,"ADDRESS":"埔園街２８７號","OBJECTID":597249},"geometry":{"x":173419.06000000052,"y":2548160.3100000024}},{"attributes":{"ID":597277,"DIS_CODE":0,"TOWNNAME":"新化區","LI":"東榮里","LIN":"27鄰","STREET":"和平街","SECT":" ","MAREA":" ","LANE":" ","ALLEY":" ","HOUSE_NO":"２６號之２","E_COORD97":179260.32999999999,"N_COORD97":2548186.2599999998,"ADDRESS":"和平街２６號之２","OBJECTID":597250},"geometry":{"x":179260.33000000194,"y":2548186.2600000016}},{"attributes":{"ID":597278,"DIS_CODE":0,"TOWNNAME":"新化區","LI":"東榮里","LIN":"27鄰","STREET":"和平街","SECT":" ","MAREA":" ","LANE":" ","ALLEY":" ","HOUSE_NO":"２６號之３","E_COORD97":179260.72,"N_COORD97":2548184.2599999998,"ADDRESS":"和平街２６號之３","OBJECTID":597251},"geometry":{"x":179260.7200000016,"y":2548184.2599999998}},{"attributes":{"ID":597279,"DIS_CODE":0,"TOWNNAME":"新化區","LI":"東榮里","LIN":"27鄰","STREET":"和平街","SECT":" ","MAREA":" ","LANE":" ","ALLEY":" ","HOUSE_NO":"３２號之２","E_COORD97":179217.32999999999,"N_COORD97":2548182.2599999998,"ADDRESS":"和平街３２號之２","OBJECTID":597252},"geometry":{"x":179217.33000000007,"y":2548182.2600000035}},{"attributes":{"ID":597280,"DIS_CODE":0,"TOWNNAME":"新化區","LI":"東榮里","LIN":"27鄰","STREET":"和平街","SECT":" ","MAREA":" ","LANE":" ","ALLEY":" ","HOUSE_NO":"２８號","E_COORD97":179242.87,"N_COORD97":2548179.25,"ADDRESS":"和平街２８號","OBJECTID":597253},"geometry":{"x":179242.87000000011,"y":2548179.2500000037}},{"attributes":{"ID":597281,"DIS_CODE":0,"TOWNNAME":"永康區","LI":"埔園里","LIN":"18鄰","STREET":"龍埔街","SECT":" ","MAREA":" ","LANE":" ","ALLEY":" ","HOUSE_NO":"５０１號","E_COORD97":173383.57000000001,"N_COORD97":2548379.25,"ADDRESS":"龍埔街５０１號","OBJECTID":597254},"geometry":{"x":173383.57000000216,"y":2548379.2500000037}},{"attributes":{"ID":597282,"DIS_CODE":0,"TOWNNAME":"永康區","LI":"崑山里","LIN":"31鄰","STREET":"國光二街","SECT":" ","MAREA":" ","LANE":" ","ALLEY":" ","HOUSE_NO":"２４號","E_COORD97":174021.85000000001,"N_COORD97":2544690.8500000001,"ADDRESS":"國光二街２４號","OBJECTID":597255},"geometry":{"x":174021.85000000056,"y":2544690.8500000015}},{"attributes":{"ID":597283,"DIS_CODE":0,"TOWNNAME":"永康區","LI":"崑山里","LIN":"23鄰","STREET":"國光一街","SECT":" ","MAREA":" ","LANE":" ","ALLEY":" ","HOUSE_NO":"４６號","E_COORD97":173911.35999999999,"N_COORD97":2544621.3599999999,"ADDRESS":"國光一街４６號","OBJECTID":597256},"geometry":{"x":173911.36000000034,"y":2544621.3600000031}},{"attributes":{"ID":597284,"DIS_CODE":0,"TOWNNAME":"仁德區","LI":"上崙里","LIN":"27鄰","STREET":"上崙街","SECT":" ","MAREA":" ","LANE":" ","ALLEY":" ","HOUSE_NO":"３９１號","E_COORD97":173097.16,"N_COORD97":2537623.25,"ADDRESS":"上崙街３９１號","OBJECTID":597257},"geometry":{"x":173097.16000000015,"y":2537623.25}},{"attributes":{"ID":597285,"DIS_CODE":0,"TOWNNAME":"仁德區","LI":"太子里","LIN":"27鄰","STREET":"大發路","SECT":" ","MAREA":" ","LANE":" ","ALLEY":" ","HOUSE_NO":"３３９號","E_COORD97":173259.17999999999,"N_COORD97":2543413.27,"ADDRESS":"大發路３３９號","OBJECTID":597258},"geometry":{"x":173259.18000000063,"y":2543413.2700000014}},{"attributes":{"ID":597286,"DIS_CODE":0,"TOWNNAME":"仁德區","LI":"仁愛里","LIN":"27鄰","STREET":"大同路","SECT":"三段","MAREA":" ","LANE":" ","ALLEY":" ","HOUSE_NO":"１０５號","E_COORD97":169749.79999999999,"N_COORD97":2539913.0499999998,"ADDRESS":"大同路三段１０５號","OBJECTID":597259},"geometry":{"x":169749.79999999981,"y":2539913.0500000026}},{"attributes":{"ID":597287,"DIS_CODE":0,"TOWNNAME":"永康區","LI":"勝利里","LIN":"17鄰","STREET":"中華一路","SECT":" ","MAREA":" ","LANE":" ","ALLEY":" ","HOUSE_NO":"２９３號","E_COORD97":171226.94,"N_COORD97":2544979.25,"ADDRESS":"中華一路２９３號","OBJECTID":597260},"geometry":{"x":171226.94000000134,"y":2544979.2500000019}},{"attributes":{"ID":597288,"DIS_CODE":0,"TOWNNAME":"永康區","LI":"崑山里","LIN":"45鄰","STREET":"崑山街","SECT":" ","MAREA":" ","LANE":" ","ALLEY":" ","HOUSE_NO":"２５１號","E_COORD97":174117.45999999999,"N_COORD97":2545135.7400000002,"ADDRESS":"崑山街２５１號","OBJECTID":597261},"geometry":{"x":174117.45999999996,"y":2545135.7400000021}},{"attributes":{"ID":597289,"DIS_CODE":0,"TOWNNAME":"仁德區","LI":"太子里","LIN":"27鄰","STREET":"太子路","SECT":" ","MAREA":" ","LANE":" ","ALLEY":" ","HOUSE_NO":"６５５號","E_COORD97":173534.04999999999,"N_COORD97":2543523.5099999998,"ADDRESS":"太子路６５５號","OBJECTID":597262},"geometry":{"x":173534.05000000168,"y":2543523.5100000016}},{"attributes":{"ID":597290,"DIS_CODE":0,"TOWNNAME":"仁德區","LI":"上崙里","LIN":"27鄰","STREET":"上崙街","SECT":" ","MAREA":" ","LANE":" ","ALLEY":" ","HOUSE_NO":"３９７號","E_COORD97":173085.42999999999,"N_COORD97":2537622,"ADDRESS":"上崙街３９７號","OBJECTID":597263},"geometry":{"x":173085.43000000156,"y":2537622}},{"attributes":{"ID":597291,"DIS_CODE":0,"TOWNNAME":"永康區","LI":"東灣里","LIN":"27鄰","STREET":"大灣一街","SECT":" ","MAREA":" ","LANE":" ","ALLEY":" ","HOUSE_NO":"３０８號","E_COORD97":175029.41,"N_COORD97":2544700.6800000002,"ADDRESS":"大灣一街３０８號","OBJECTID":597264},"geometry":{"x":175029.41000000108,"y":2544700.6800000034}},{"attributes":{"ID":597292,"DIS_CODE":0,"TOWNNAME":"東區","LI":"大智里","LIN":"22鄰","STREET":"崇善十六街","SECT":" ","MAREA":" ","LANE":" ","ALLEY":" ","HOUSE_NO":"９９號","E_COORD97":171356.87,"N_COORD97":2540396.3500000001,"ADDRESS":"崇善十六街９９號","OBJECTID":597265},"geometry":{"x":171356.87000000011,"y":2540396.3499999996}},{"attributes":{"ID":597293,"DIS_CODE":0,"TOWNNAME":"東區","LI":"大智里","LIN":"22鄰","STREET":"崇善十六街","SECT":" ","MAREA":" ","LANE":" ","ALLEY":" ","HOUSE_NO":"９７號","E_COORD97":171361.53,"N_COORD97":2540396.5600000001,"ADDRESS":"崇善十六街９７號","OBJECTID":597266},"geometry":{"x":171361.53000000119,"y":2540396.5600000042}},{"attributes":{"ID":597294,"DIS_CODE":0,"TOWNNAME":"東區","LI":"大智里","LIN":"22鄰","STREET":"崇善十六街","SECT":" ","MAREA":" ","LANE":" ","ALLEY":" ","HOUSE_NO":"９５號","E_COORD97":171366.60999999999,"N_COORD97":2540396.77,"ADDRESS":"崇善十六街９５號","OBJECTID":597267},"geometry":{"x":171366.61000000127,"y":2540396.7699999996}},{"attributes":{"ID":597295,"DIS_CODE":0,"TOWNNAME":"永康區","LI":"南灣里","LIN":"27鄰","STREET":"立興街","SECT":" ","MAREA":" ","LANE":" ","ALLEY":" ","HOUSE_NO":"５４號","E_COORD97":174587,"N_COORD97":2544854.9199999999,"ADDRESS":"立興街５４號","OBJECTID":597268},"geometry":{"x":174587,"y":2544854.9199999999}},{"attributes":{"ID":597296,"DIS_CODE":0,"TOWNNAME":"永康區","LI":"南灣里","LIN":"27鄰","STREET":"立興街","SECT":" ","MAREA":" ","LANE":" ","ALLEY":" ","HOUSE_NO":"６０號","E_COORD97":174581.94,"N_COORD97":2544844.5899999999,"ADDRESS":"立興街６０號","OBJECTID":597269},"geometry":{"x":174581.94000000134,"y":2544844.5900000017}},{"attributes":{"ID":597297,"DIS_CODE":0,"TOWNNAME":"東區","LI":"崇誨里","LIN":"27鄰","STREET":"裕豐街","SECT":" ","MAREA":" ","LANE":" ","ALLEY":" ","HOUSE_NO":"１９９號","E_COORD97":170776.17000000001,"N_COORD97":2543237.52,"ADDRESS":"裕豐街１９９號","OBJECTID":597270},"geometry":{"x":170776.16999999993,"y":2543237.5200000014}},{"attributes":{"ID":597298,"DIS_CODE":0,"TOWNNAME":"新市區","LI":"港墘里","LIN":"27鄰","STREET":"華美街","SECT":" ","MAREA":" ","LANE":" ","ALLEY":" ","HOUSE_NO":"４１號","E_COORD97":178145.95000000001,"N_COORD97":2552932.7999999998,"ADDRESS":"華美街４１號","OBJECTID":597271},"geometry":{"x":178145.95000000205,"y":2552932.8000000045}},{"attributes":{"ID":597299,"DIS_CODE":0,"TOWNNAME":"永康區","LI":"埔園里","LIN":"27鄰","STREET":"埔東街","SECT":" ","MAREA":" ","LANE":" ","ALLEY":" ","HOUSE_NO":"４９號","E_COORD97":173760.04000000001,"N_COORD97":2548159.2400000002,"ADDRESS":"埔東街４９號","OBJECTID":597272},"geometry":{"x":173760.04000000097,"y":2548159.2400000039}},{"attributes":{"ID":597300,"DIS_CODE":0,"TOWNNAME":"仁德區","LI":"上崙里","LIN":"27鄰","STREET":"上崙街","SECT":" ","MAREA":" ","LANE":" ","ALLEY":" ","HOUSE_NO":"３８９號","E_COORD97":173101.16,"N_COORD97":2537624,"ADDRESS":"上崙街３８９號","OBJECTID":597273},"geometry":{"x":173101.16000000015,"y":2537624.0000000019}},{"attributes":{"ID":597301,"DIS_CODE":0,"TOWNNAME":"永康區","LI":"埔園里","LIN":"27鄰","STREET":"埔東街","SECT":" ","MAREA":" ","LANE":" ","ALLEY":" ","HOUSE_NO":"７５號","E_COORD97":173757.17000000001,"N_COORD97":2548232.2999999998,"ADDRESS":"埔東街７５號","OBJECTID":597274},"geometry":{"x":173757.17000000179,"y":2548232.3000000007}},{"attributes":{"ID":597302,"DIS_CODE":0,"TOWNNAME":"永康區","LI":"東灣里","LIN":"27鄰","STREET":"大灣東路","SECT":" ","MAREA":" ","LANE":" ","ALLEY":" ","HOUSE_NO":"３１７號","E_COORD97":175120.76000000001,"N_COORD97":2544681.8300000001,"ADDRESS":"大灣東路３１７號","OBJECTID":597275},"geometry":{"x":175120.75999999885,"y":2544681.8300000001}},{"attributes":{"ID":597303,"DIS_CODE":0,"TOWNNAME":"永康區","LI":"埔園里","LIN":"27鄰","STREET":"埔東街","SECT":" ","MAREA":" ","LANE":" ","ALLEY":" ","HOUSE_NO":"７１號","E_COORD97":173748.76999999999,"N_COORD97":2548204.02,"ADDRESS":"埔東街７１號","OBJECTID":597276},"geometry":{"x":173748.76999999955,"y":2548204.0200000033}},{"attributes":{"ID":597304,"DIS_CODE":0,"TOWNNAME":"永康區","LI":"南灣里","LIN":"27鄰","STREET":"南灣街","SECT":" ","MAREA":" ","LANE":" ","ALLEY":" ","HOUSE_NO":"１１號","E_COORD97":174591.10000000001,"N_COORD97":2544884.0499999998,"ADDRESS":"南灣街１１號","OBJECTID":597277},"geometry":{"x":174591.0999999987,"y":2544884.0500000026}},{"attributes":{"ID":597305,"DIS_CODE":0,"TOWNNAME":"善化區","LI":"光文里","LIN":"27鄰","STREET":"中山路","SECT":" ","MAREA":" ","LANE":" ","ALLEY":" ","HOUSE_NO":"３００號","E_COORD97":180624.63,"N_COORD97":2578414.25,"ADDRESS":"中山路３００號","OBJECTID":597278},"geometry":{"x":180624.63000000082,"y":2578414.25}},{"attributes":{"ID":597306,"DIS_CODE":0,"TOWNNAME":"善化區","LI":"光文里","LIN":"27鄰","STREET":"中山路","SECT":" ","MAREA":" ","LANE":" ","ALLEY":" ","HOUSE_NO":"２７０號之４","E_COORD97":177924.45999999999,"N_COORD97":2559088.02,"ADDRESS":"中山路２７０號之４","OBJECTID":597279},"geometry":{"x":177924.45999999996,"y":2559088.0200000014}},{"attributes":{"ID":597307,"DIS_CODE":0,"TOWNNAME":"善化區","LI":"光文里","LIN":"27鄰","STREET":"建國路","SECT":" ","MAREA":" ","LANE":" ","ALLEY":" ","HOUSE_NO":"１９４號","E_COORD97":177984.37,"N_COORD97":2559147.0299999998,"ADDRESS":"建國路１９４號","OBJECTID":597280},"geometry":{"x":177984.37000000104,"y":2559147.0299999993}},{"attributes":{"ID":597308,"DIS_CODE":0,"TOWNNAME":"善化區","LI":"光文里","LIN":"27鄰","STREET":"中山路","SECT":" ","MAREA":" ","LANE":" ","ALLEY":" ","HOUSE_NO":"２８６號之１","E_COORD97":177870.42000000001,"N_COORD97":2559085.02,"ADDRESS":"中山路２８６號之１","OBJECTID":597281},"geometry":{"x":177870.41999999993,"y":2559085.0200000014}},{"attributes":{"ID":597309,"DIS_CODE":0,"TOWNNAME":"善化區","LI":"光文里","LIN":"27鄰","STREET":"中山路","SECT":" ","MAREA":" ","LANE":" ","ALLEY":" ","HOUSE_NO":"２９２號","E_COORD97":177848.37,"N_COORD97":2559087.25,"ADDRESS":"中山路２９２號","OBJECTID":597282},"geometry":{"x":177848.37000000104,"y":2559087.2500000019}},{"attributes":{"ID":597310,"DIS_CODE":0,"TOWNNAME":"善化區","LI":"光文里","LIN":"27鄰","STREET":"中山路","SECT":" ","MAREA":" ","LANE":" ","ALLEY":" ","HOUSE_NO":"２４２號之１","E_COORD97":178077.85999999999,"N_COORD97":2559121.02,"ADDRESS":"中山路２４２號之１","OBJECTID":597283},"geometry":{"x":178077.86000000127,"y":2559121.0200000033}},{"attributes":{"ID":597311,"DIS_CODE":0,"TOWNNAME":"善化區","LI":"光文里","LIN":"27鄰","STREET":"中山路","SECT":" ","MAREA":" ","LANE":" ","ALLEY":" ","HOUSE_NO":"２６８之１號","E_COORD97":177941.67000000001,"N_COORD97":2559098.77,"ADDRESS":"中山路２６８之１號","OBJECTID":597284},"geometry":{"x":177941.66999999993,"y":2559098.7699999977}},{"attributes":{"ID":597312,"DIS_CODE":0,"TOWNNAME":"仁德區","LI":"太子里","LIN":"27鄰","STREET":"大發路","SECT":" ","MAREA":" ","LANE":" ","ALLEY":" ","HOUSE_NO":"２６２號","E_COORD97":173277.83775499999,"N_COORD97":2543184.9153399998,"ADDRESS":"大發路２６２號","OBJECTID":597285},"geometry":{"x":173277.83775500115,"y":2543184.915337}},{"attributes":{"ID":597313,"DIS_CODE":0,"TOWNNAME":"仁德區","LI":"太子里","LIN":"27鄰","STREET":"太子路","SECT":" ","MAREA":" ","LANE":" ","ALLEY":" ","HOUSE_NO":"４６４號","E_COORD97":173371.5,"N_COORD97":2543571.75,"ADDRESS":"太子路４６４號","OBJECTID":597286},"geometry":{"x":173371.5,"y":2543571.7500000037}},{"attributes":{"ID":597314,"DIS_CODE":0,"TOWNNAME":"仁德區","LI":"仁義里","LIN":"27鄰","STREET":"正義二街","SECT":" ","MAREA":" ","LANE":" ","ALLEY":" ","HOUSE_NO":"１５２號","E_COORD97":173769.82000000001,"N_COORD97":2541559.77,"ADDRESS":"正義二街１５２號","OBJECTID":597287},"geometry":{"x":173769.8200000003,"y":2541559.7699999996}},{"attributes":{"ID":597315,"DIS_CODE":0,"TOWNNAME":"仁德區","LI":"仁義里","LIN":"27鄰","STREET":"正義二街","SECT":" ","MAREA":" ","LANE":" ","ALLEY":" ","HOUSE_NO":"１５０號","E_COORD97":173774.79999999999,"N_COORD97":2541559.27,"ADDRESS":"正義二街１５０號","OBJECTID":597288},"geometry":{"x":173774.80000000168,"y":2541559.2699999996}},{"attributes":{"ID":597316,"DIS_CODE":0,"TOWNNAME":"仁德區","LI":"上崙里","LIN":"27鄰","STREET":"上崙街","SECT":" ","MAREA":" ","LANE":" ","ALLEY":" ","HOUSE_NO":"３９３號","E_COORD97":173093.16,"N_COORD97":2537622.75,"ADDRESS":"上崙街３９３號","OBJECTID":597289},"geometry":{"x":173093.16000000108,"y":2537622.7500000019}},{"attributes":{"ID":597317,"DIS_CODE":0,"TOWNNAME":"仁德區","LI":"上崙里","LIN":"27鄰","STREET":"上崙街","SECT":" ","MAREA":" ","LANE":" ","ALLEY":" ","HOUSE_NO":"４２７號","E_COORD97":173016.23000000001,"N_COORD97":2537617.25,"ADDRESS":"上崙街４２７號","OBJECTID":597290},"geometry":{"x":173016.23000000045,"y":2537617.25}},{"attributes":{"ID":597318,"DIS_CODE":0,"TOWNNAME":"仁德區","LI":"上崙里","LIN":"27鄰","STREET":"上崙街","SECT":" ","MAREA":" ","LANE":" ","ALLEY":" ","HOUSE_NO":"３７１號","E_COORD97":173141.26999999999,"N_COORD97":2537633,"ADDRESS":"上崙街３７１號","OBJECTID":597291},"geometry":{"x":173141.27000000048,"y":2537633}},{"attributes":{"ID":597319,"DIS_CODE":0,"TOWNNAME":"仁德區","LI":"上崙里","LIN":"27鄰","STREET":"上崙街","SECT":" ","MAREA":" ","LANE":" ","ALLEY":" ","HOUSE_NO":"４１５號","E_COORD97":173039.79000000001,"N_COORD97":2537620.25,"ADDRESS":"上崙街４１５號","OBJECTID":597292},"geometry":{"x":173039.79000000097,"y":2537620.25}},{"attributes":{"ID":597320,"DIS_CODE":0,"TOWNNAME":"仁德區","LI":"上崙里","LIN":"27鄰","STREET":"上崙街","SECT":" ","MAREA":" ","LANE":" ","ALLEY":" ","HOUSE_NO":"４０７號","E_COORD97":173056.73999999999,"N_COORD97":2537622.25,"ADDRESS":"上崙街４０７號","OBJECTID":597293},"geometry":{"x":173056.74000000209,"y":2537622.2500000019}},{"attributes":{"ID":597321,"DIS_CODE":0,"TOWNNAME":"仁德區","LI":"上崙里","LIN":"27鄰","STREET":"上崙街","SECT":" ","MAREA":" ","LANE":" ","ALLEY":" ","HOUSE_NO":"４１７號","E_COORD97":173035.59,"N_COORD97":2537619.75,"ADDRESS":"上崙街４１７號","OBJECTID":597294},"geometry":{"x":173035.59000000078,"y":2537619.7500000019}},{"attributes":{"ID":597322,"DIS_CODE":0,"TOWNNAME":"仁德區","LI":"上崙里","LIN":"27鄰","STREET":"上崙街","SECT":" ","MAREA":" ","LANE":" ","ALLEY":" ","HOUSE_NO":"３６９號","E_COORD97":173145.29000000001,"N_COORD97":2537633.75,"ADDRESS":"上崙街３６９號","OBJECTID":597295},"geometry":{"x":173145.29000000004,"y":2537633.75}},{"attributes":{"ID":597323,"DIS_CODE":0,"TOWNNAME":"仁德區","LI":"上崙里","LIN":"27鄰","STREET":"上崙街","SECT":" ","MAREA":" ","LANE":" ","ALLEY":" ","HOUSE_NO":"４０３號","E_COORD97":173071.70000000001,"N_COORD97":2537624.75,"ADDRESS":"上崙街４０３號","OBJECTID":597296},"geometry":{"x":173071.70000000019,"y":2537624.7499999981}},{"attributes":{"ID":597324,"DIS_CODE":0,"TOWNNAME":"東區","LI":"大智里","LIN":"22鄰","STREET":"崇善十六街","SECT":" ","MAREA":" ","LANE":" ","ALLEY":" ","HOUSE_NO":"９３號","E_COORD97":171371.26999999999,"N_COORD97":2540396.3500000001,"ADDRESS":"崇善十六街９３號","OBJECTID":597297},"geometry":{"x":171371.27000000048,"y":2540396.3499999996}},{"attributes":{"ID":597325,"DIS_CODE":0,"TOWNNAME":"東區","LI":"大智里","LIN":"22鄰","STREET":"崇善十六街","SECT":" ","MAREA":" ","LANE":" ","ALLEY":" ","HOUSE_NO":"９１號","E_COORD97":171375.72,"N_COORD97":2540396.5600000001,"ADDRESS":"崇善十六街９１號","OBJECTID":597298},"geometry":{"x":171375.71999999974,"y":2540396.5600000042}},{"attributes":{"ID":597326,"DIS_CODE":0,"TOWNNAME":"東區","LI":"大智里","LIN":"22鄰","STREET":"崇善十六街","SECT":" ","MAREA":" ","LANE":" ","ALLEY":" ","HOUSE_NO":"８７號","E_COORD97":171382.5,"N_COORD97":2540396.5600000001,"ADDRESS":"崇善十六街８７號","OBJECTID":597299},"geometry":{"x":171382.5,"y":2540396.5600000042}},{"attributes":{"ID":597327,"DIS_CODE":0,"TOWNNAME":"東區","LI":"大智里","LIN":"22鄰","STREET":"崇善十六街","SECT":" ","MAREA":" ","LANE":" ","ALLEY":" ","HOUSE_NO":"８８號","E_COORD97":171354.32999999999,"N_COORD97":2540413.4900000002,"ADDRESS":"崇善十六街８８號","OBJECTID":597300},"geometry":{"x":171354.33000000101,"y":2540413.4900000002}},{"attributes":{"ID":597328,"DIS_CODE":0,"TOWNNAME":"東區","LI":"大智里","LIN":"22鄰","STREET":"崇善十六街","SECT":" ","MAREA":" ","LANE":" ","ALLEY":" ","HOUSE_NO":"９０號","E_COORD97":171349.23999999999,"N_COORD97":2540413.0699999998,"ADDRESS":"崇善十六街９０號","OBJECTID":597301},"geometry":{"x":171349.24000000022,"y":2540413.0699999984}},{"attributes":{"ID":597329,"DIS_CODE":0,"TOWNNAME":"東區","LI":"大智里","LIN":"22鄰","STREET":"崇善十六街","SECT":" ","MAREA":" ","LANE":" ","ALLEY":" ","HOUSE_NO":"９２號","E_COORD97":171344.37,"N_COORD97":2540413.2799999998,"ADDRESS":"崇善十六街９２號","OBJECTID":597302},"geometry":{"x":171344.37000000104,"y":2540413.2799999993}},{"attributes":{"ID":597330,"DIS_CODE":0,"TOWNNAME":"東區","LI":"大智里","LIN":"22鄰","STREET":"崇善十六街","SECT":" ","MAREA":" ","LANE":" ","ALLEY":" ","HOUSE_NO":"９６號","E_COORD97":171340.14000000001,"N_COORD97":2540412.0099999998,"ADDRESS":"崇善十六街９６號","OBJECTID":597303},"geometry":{"x":171340.1400000006,"y":2540412.0099999998}},{"attributes":{"ID":597331,"DIS_CODE":0,"TOWNNAME":"歸仁區","LI":"許厝里","LIN":"22鄰","STREET":"大仁街","SECT":" ","MAREA":" ","LANE":" ","ALLEY":" ","HOUSE_NO":"６８號","E_COORD97":178070.67000000001,"N_COORD97":2540906.4399999999,"ADDRESS":"大仁街６８號","OBJECTID":597304},"geometry":{"x":178070.66999999993,"y":2540906.4400000013}},{"attributes":{"ID":597332,"DIS_CODE":0,"TOWNNAME":"佳里區","LI":"建南里","LIN":"22鄰","STREET":"四維三街","SECT":" ","MAREA":" ","LANE":" ","ALLEY":" ","HOUSE_NO":"３０號","E_COORD97":165553.75,"N_COORD97":2561421.9199999999,"ADDRESS":"四維三街３０號","OBJECTID":597305},"geometry":{"x":165553.75000000093,"y":2561421.9200000018}},{"attributes":{"ID":597333,"DIS_CODE":0,"TOWNNAME":"佳里區","LI":"建南里","LIN":"22鄰","STREET":"四維三街","SECT":" ","MAREA":" ","LANE":" ","ALLEY":" ","HOUSE_NO":"２８號","E_COORD97":165554.62,"N_COORD97":2561427.7000000002,"ADDRESS":"四維三街２８號","OBJECTID":597306},"geometry":{"x":165554.62000000197,"y":2561427.6999999993}},{"attributes":{"ID":597334,"DIS_CODE":0,"TOWNNAME":"佳里區","LI":"建南里","LIN":"22鄰","STREET":"四維三街","SECT":" ","MAREA":" ","LANE":" ","ALLEY":" ","HOUSE_NO":"２６號","E_COORD97":165554.76999999999,"N_COORD97":2561431.46,"ADDRESS":"四維三街２６號","OBJECTID":597307},"geometry":{"x":165554.77000000142,"y":2561431.459999999}},{"attributes":{"ID":597335,"DIS_CODE":0,"TOWNNAME":"佳里區","LI":"建南里","LIN":"22鄰","STREET":"四維三街","SECT":" ","MAREA":" ","LANE":" ","ALLEY":" ","HOUSE_NO":"２２號","E_COORD97":165555.35000000001,"N_COORD97":2561434.7799999998,"ADDRESS":"四維三街２２號","OBJECTID":597308},"geometry":{"x":165555.34999999963,"y":2561434.7800000031}},{"attributes":{"ID":597336,"DIS_CODE":0,"TOWNNAME":"仁德區","LI":"上崙里","LIN":"27鄰","STREET":"上崙街","SECT":" ","MAREA":" ","LANE":" ","ALLEY":" ","HOUSE_NO":"４１９號","E_COORD97":173031.38,"N_COORD97":2537619,"ADDRESS":"上崙街４１９號","OBJECTID":597309},"geometry":{"x":173031.37999999989,"y":2537619}},{"attributes":{"ID":597337,"DIS_CODE":0,"TOWNNAME":"仁德區","LI":"上崙里","LIN":"27鄰","STREET":"上崙街","SECT":" ","MAREA":" ","LANE":" ","ALLEY":" ","HOUSE_NO":"４０５號","E_COORD97":173060.70000000001,"N_COORD97":2537622.5,"ADDRESS":"上崙街４０５號","OBJECTID":597310},"geometry":{"x":173060.70000000112,"y":2537622.5}},{"attributes":{"ID":597338,"DIS_CODE":0,"TOWNNAME":"仁德區","LI":"上崙里","LIN":"27鄰","STREET":"上崙街","SECT":" ","MAREA":" ","LANE":" ","ALLEY":" ","HOUSE_NO":"４１１號","E_COORD97":173048.23999999999,"N_COORD97":2537621.25,"ADDRESS":"上崙街４１１號","OBJECTID":597311},"geometry":{"x":173048.24000000209,"y":2537621.2499999981}},{"attributes":{"ID":597339,"DIS_CODE":0,"TOWNNAME":"仁德區","LI":"上崙里","LIN":"27鄰","STREET":"上崙街","SECT":" ","MAREA":" ","LANE":" ","ALLEY":" ","HOUSE_NO":"４０９號","E_COORD97":173052.45000000001,"N_COORD97":2537621.5,"ADDRESS":"上崙街４０９號","OBJECTID":597312},"geometry":{"x":173052.45000000112,"y":2537621.5000000019}},{"attributes":{"ID":597340,"DIS_CODE":0,"TOWNNAME":"仁德區","LI":"上崙里","LIN":"27鄰","STREET":"上崙街","SECT":" ","MAREA":" ","LANE":" ","ALLEY":" ","HOUSE_NO":"３７５號","E_COORD97":173133.64999999999,"N_COORD97":2537632,"ADDRESS":"上崙街３７５號","OBJECTID":597313},"geometry":{"x":173133.65000000037,"y":2537632}},{"attributes":{"ID":597341,"DIS_CODE":0,"TOWNNAME":"仁德區","LI":"上崙里","LIN":"27鄰","STREET":"上崙街","SECT":" ","MAREA":" ","LANE":" ","ALLEY":" ","HOUSE_NO":"３７３號","E_COORD97":173137.60000000001,"N_COORD97":2537632.5,"ADDRESS":"上崙街３７３號","OBJECTID":597314},"geometry":{"x":173137.60000000056,"y":2537632.5}},{"attributes":{"ID":597342,"DIS_CODE":0,"TOWNNAME":"仁德區","LI":"上崙里","LIN":"27鄰","STREET":"上崙街","SECT":" ","MAREA":" ","LANE":" ","ALLEY":" ","HOUSE_NO":"３６２號","E_COORD97":173100.26999999999,"N_COORD97":2537648.25,"ADDRESS":"上崙街３６２號","OBJECTID":597315},"geometry":{"x":173100.27000000048,"y":2537648.25}},{"attributes":{"ID":597343,"DIS_CODE":0,"TOWNNAME":"仁德區","LI":"上崙里","LIN":"27鄰","STREET":"上崙街","SECT":" ","MAREA":" ","LANE":" ","ALLEY":" ","HOUSE_NO":"３９９號","E_COORD97":173081.37,"N_COORD97":2537621.5,"ADDRESS":"上崙街３９９號","OBJECTID":597316},"geometry":{"x":173081.37000000104,"y":2537621.5000000019}},{"attributes":{"ID":597344,"DIS_CODE":0,"TOWNNAME":"仁德區","LI":"上崙里","LIN":"27鄰","STREET":"上崙街","SECT":" ","MAREA":" ","LANE":" ","ALLEY":" ","HOUSE_NO":"３９５號","E_COORD97":173089.47,"N_COORD97":2537622.25,"ADDRESS":"上崙街３９５號","OBJECTID":597317},"geometry":{"x":173089.46999999974,"y":2537622.2500000019}},{"attributes":{"ID":597345,"DIS_CODE":0,"TOWNNAME":"新化區","LI":"東榮里","LIN":"27鄰","STREET":"和平街","SECT":" ","MAREA":" ","LANE":" ","ALLEY":" ","HOUSE_NO":"３０號之３","E_COORD97":179232.42000000001,"N_COORD97":2548178.2599999998,"ADDRESS":"和平街３０號之３","OBJECTID":597318},"geometry":{"x":179232.41999999899,"y":2548178.2599999998}},{"attributes":{"ID":597346,"DIS_CODE":0,"TOWNNAME":"南區","LI":"廣州里","LIN":"27鄰","STREET":"夏林路","SECT":" ","MAREA":" ","LANE":" ","ALLEY":" ","HOUSE_NO":"２０號","E_COORD97":167439.63,"N_COORD97":2542768.1800000002,"ADDRESS":"夏林路２０號","OBJECTID":597319},"geometry":{"x":167439.63000000082,"y":2542768.1800000034}},{"attributes":{"ID":597347,"DIS_CODE":0,"TOWNNAME":"南區","LI":"廣州里","LIN":"27鄰","STREET":"夏林路","SECT":" ","MAREA":" ","LANE":" ","ALLEY":" ","HOUSE_NO":"２２號","E_COORD97":167440.04999999999,"N_COORD97":2542763.1200000001,"ADDRESS":"夏林路２２號","OBJECTID":597320},"geometry":{"x":167440.05000000075,"y":2542763.1199999992}},{"attributes":{"ID":597348,"DIS_CODE":0,"TOWNNAME":"南區","LI":"廣州里","LIN":"27鄰","STREET":"夏林路","SECT":" ","MAREA":" ","LANE":" ","ALLEY":" ","HOUSE_NO":"２４號","E_COORD97":167437.51999999999,"N_COORD97":2542760.1699999999,"ADDRESS":"夏林路２４號","OBJECTID":597321},"geometry":{"x":167437.51999999955,"y":2542760.1699999999}},{"attributes":{"ID":597349,"DIS_CODE":0,"TOWNNAME":"南區","LI":"廣州里","LIN":"27鄰","STREET":"夏林路","SECT":" ","MAREA":" ","LANE":" ","ALLEY":" ","HOUSE_NO":"２６號","E_COORD97":167438.37,"N_COORD97":2542755.1099999999,"ADDRESS":"夏林路２６號","OBJECTID":597322},"geometry":{"x":167438.37000000104,"y":2542755.1100000031}},{"attributes":{"ID":597350,"DIS_CODE":0,"TOWNNAME":"南區","LI":"廣州里","LIN":"27鄰","STREET":"夏林路","SECT":" ","MAREA":" ","LANE":" ","ALLEY":" ","HOUSE_NO":"２８號","E_COORD97":167439.63,"N_COORD97":2542750.0499999998,"ADDRESS":"夏林路２８號","OBJECTID":597323},"geometry":{"x":167439.63000000082,"y":2542750.0500000045}},{"attributes":{"ID":597351,"DIS_CODE":0,"TOWNNAME":"南區","LI":"廣州里","LIN":"27鄰","STREET":"夏林路","SECT":" ","MAREA":" ","LANE":" ","ALLEY":" ","HOUSE_NO":"３０號","E_COORD97":167440.04999999999,"N_COORD97":2542745.8300000001,"ADDRESS":"夏林路３０號","OBJECTID":597324},"geometry":{"x":167440.05000000075,"y":2542745.8300000001}},{"attributes":{"ID":597352,"DIS_CODE":0,"TOWNNAME":"南區","LI":"廣州里","LIN":"27鄰","STREET":"夏林路","SECT":" ","MAREA":" ","LANE":" ","ALLEY":" ","HOUSE_NO":"３４號","E_COORD97":167440.89999999999,"N_COORD97":2542734.0299999998,"ADDRESS":"夏林路３４號","OBJECTID":597325},"geometry":{"x":167440.90000000037,"y":2542734.0299999993}},{"attributes":{"ID":597353,"DIS_CODE":0,"TOWNNAME":"南區","LI":"廣州里","LIN":"27鄰","STREET":"夏林路","SECT":" ","MAREA":" ","LANE":" ","ALLEY":" ","HOUSE_NO":"３６號","E_COORD97":167440.48000000001,"N_COORD97":2542728.5499999998,"ADDRESS":"夏林路３６號","OBJECTID":597326},"geometry":{"x":167440.48000000045,"y":2542728.5500000007}},{"attributes":{"ID":597354,"DIS_CODE":0,"TOWNNAME":"南區","LI":"廣州里","LIN":"27鄰","STREET":"夏林路","SECT":" ","MAREA":" ","LANE":" ","ALLEY":" ","HOUSE_NO":"３８號","E_COORD97":167440.04999999999,"N_COORD97":2542724.75,"ADDRESS":"夏林路３８號","OBJECTID":597327},"geometry":{"x":167440.05000000075,"y":2542724.7500000019}},{"attributes":{"ID":597355,"DIS_CODE":0,"TOWNNAME":"南區","LI":"廣州里","LIN":"27鄰","STREET":"夏林路","SECT":" ","MAREA":" ","LANE":" ","ALLEY":" ","HOUSE_NO":"４０號","E_COORD97":167440.48000000001,"N_COORD97":2542720.1099999999,"ADDRESS":"夏林路４０號","OBJECTID":597328},"geometry":{"x":167440.48000000045,"y":2542720.1099999994}},{"attributes":{"ID":597356,"DIS_CODE":0,"TOWNNAME":"南區","LI":"廣州里","LIN":"27鄰","STREET":"夏林路","SECT":" ","MAREA":" ","LANE":" ","ALLEY":" ","HOUSE_NO":"４６號","E_COORD97":167436.67999999999,"N_COORD97":2542705.3500000001,"ADDRESS":"夏林路４６號","OBJECTID":597329},"geometry":{"x":167436.6799999997,"y":2542705.3499999996}},{"attributes":{"ID":597357,"DIS_CODE":0,"TOWNNAME":"南區","LI":"廣州里","LIN":"27鄰","STREET":"夏林路","SECT":" ","MAREA":" ","LANE":" ","ALLEY":" ","HOUSE_NO":"４８號","E_COORD97":167438.37,"N_COORD97":2542699.0299999998,"ADDRESS":"夏林路４８號","OBJECTID":597330},"geometry":{"x":167438.37000000104,"y":2542699.0300000012}},{"attributes":{"ID":597358,"DIS_CODE":0,"TOWNNAME":"南區","LI":"廣州里","LIN":"27鄰","STREET":"夏林路","SECT":" ","MAREA":" ","LANE":" ","ALLEY":" ","HOUSE_NO":"７０號","E_COORD97":167439.63,"N_COORD97":2542661.0800000001,"ADDRESS":"夏林路７０號","OBJECTID":597331},"geometry":{"x":167439.63000000082,"y":2542661.0800000038}},{"attributes":{"ID":597359,"DIS_CODE":0,"TOWNNAME":"南區","LI":"廣州里","LIN":"27鄰","STREET":"健民街","SECT":" ","MAREA":" ","LANE":" ","ALLEY":" ","HOUSE_NO":"５號","E_COORD97":167427.81,"N_COORD97":2542744.9900000002,"ADDRESS":"健民街５號","OBJECTID":597332},"geometry":{"x":167427.81000000052,"y":2542744.9900000002}},{"attributes":{"ID":597360,"DIS_CODE":0,"TOWNNAME":"南區","LI":"廣州里","LIN":"27鄰","STREET":"健民街","SECT":" ","MAREA":" ","LANE":" ","ALLEY":" ","HOUSE_NO":"９號","E_COORD97":167421.06,"N_COORD97":2542734.8700000001,"ADDRESS":"健民街９號","OBJECTID":597333},"geometry":{"x":167421.06000000052,"y":2542734.8700000029}},{"attributes":{"ID":597361,"DIS_CODE":0,"TOWNNAME":"南區","LI":"廣州里","LIN":"27鄰","STREET":"健民街","SECT":" ","MAREA":" ","LANE":" ","ALLEY":" ","HOUSE_NO":"１１號","E_COORD97":167421.48000000001,"N_COORD97":2542728.9700000002,"ADDRESS":"健民街１１號","OBJECTID":597334},"geometry":{"x":167421.48000000045,"y":2542728.9700000007}},{"attributes":{"ID":597362,"DIS_CODE":0,"TOWNNAME":"南區","LI":"廣州里","LIN":"27鄰","STREET":"健民街","SECT":" ","MAREA":" ","LANE":" ","ALLEY":" ","HOUSE_NO":"１３號","E_COORD97":167421.06,"N_COORD97":2542725.5899999999,"ADDRESS":"健民街１３號","OBJECTID":597335},"geometry":{"x":167421.06000000052,"y":2542725.5900000017}},{"attributes":{"ID":597363,"DIS_CODE":0,"TOWNNAME":"南區","LI":"廣州里","LIN":"27鄰","STREET":"健民街","SECT":" ","MAREA":" ","LANE":" ","ALLEY":" ","HOUSE_NO":"１５號","E_COORD97":167418.51999999999,"N_COORD97":2542720.1099999999,"ADDRESS":"健民街１５號","OBJECTID":597336},"geometry":{"x":167418.51999999955,"y":2542720.1099999994}},{"attributes":{"ID":597364,"DIS_CODE":0,"TOWNNAME":"南區","LI":"廣州里","LIN":"27鄰","STREET":"健民街","SECT":" ","MAREA":" ","LANE":" ","ALLEY":" ","HOUSE_NO":"１９號","E_COORD97":167416.82999999999,"N_COORD97":2542712.1000000001,"ADDRESS":"健民街１９號","OBJECTID":597337},"geometry":{"x":167416.83000000101,"y":2542712.1000000015}},{"attributes":{"ID":597365,"DIS_CODE":0,"TOWNNAME":"南區","LI":"廣州里","LIN":"27鄰","STREET":"健民街","SECT":" ","MAREA":" ","LANE":" ","ALLEY":" ","HOUSE_NO":"２５號","E_COORD97":167409.23000000001,"N_COORD97":2542694.3900000001,"ADDRESS":"健民街２５號","OBJECTID":597338},"geometry":{"x":167409.23000000138,"y":2542694.3900000025}},{"attributes":{"ID":597366,"DIS_CODE":0,"TOWNNAME":"南區","LI":"廣州里","LIN":"27鄰","STREET":"健民街","SECT":" ","MAREA":" ","LANE":" ","ALLEY":" ","HOUSE_NO":"２７號","E_COORD97":167407.97,"N_COORD97":2542691.4399999999,"ADDRESS":"健民街２７號","OBJECTID":597339},"geometry":{"x":167407.9700000016,"y":2542691.4399999976}},{"attributes":{"ID":597367,"DIS_CODE":0,"TOWNNAME":"南區","LI":"廣州里","LIN":"27鄰","STREET":"健民街","SECT":" ","MAREA":" ","LANE":" ","ALLEY":" ","HOUSE_NO":"２９號","E_COORD97":167408.39000000001,"N_COORD97":2542686.7999999998,"ADDRESS":"健民街２９號","OBJECTID":597340},"geometry":{"x":167408.38999999873,"y":2542686.8000000007}},{"attributes":{"ID":597368,"DIS_CODE":0,"TOWNNAME":"南區","LI":"廣州里","LIN":"27鄰","STREET":"健民街","SECT":" ","MAREA":" ","LANE":" ","ALLEY":" ","HOUSE_NO":"３１號","E_COORD97":167407.54000000001,"N_COORD97":2542683.0099999998,"ADDRESS":"健民街３１號","OBJECTID":597341},"geometry":{"x":167407.54000000004,"y":2542683.0100000016}},{"attributes":{"ID":597369,"DIS_CODE":0,"TOWNNAME":"南區","LI":"廣州里","LIN":"27鄰","STREET":"健民街","SECT":" ","MAREA":" ","LANE":" ","ALLEY":" ","HOUSE_NO":"３３號","E_COORD97":167408.39000000001,"N_COORD97":2542677.5299999998,"ADDRESS":"健民街３３號","OBJECTID":597342},"geometry":{"x":167408.38999999873,"y":2542677.5300000031}},{"attributes":{"ID":597370,"DIS_CODE":0,"TOWNNAME":"南區","LI":"廣州里","LIN":"27鄰","STREET":"健民街","SECT":" ","MAREA":" ","LANE":" ","ALLEY":" ","HOUSE_NO":"３５號","E_COORD97":167406.28,"N_COORD97":2542672.8900000001,"ADDRESS":"健民街３５號","OBJECTID":597343},"geometry":{"x":167406.28000000026,"y":2542672.8900000043}},{"attributes":{"ID":597371,"DIS_CODE":0,"TOWNNAME":"南區","LI":"廣州里","LIN":"27鄰","STREET":"健民街","SECT":" ","MAREA":" ","LANE":" ","ALLEY":" ","HOUSE_NO":"３７號","E_COORD97":167401.20999999999,"N_COORD97":2542669.5099999998,"ADDRESS":"健民街３７號","OBJECTID":597344},"geometry":{"x":167401.20999999996,"y":2542669.5099999998}},{"attributes":{"ID":597372,"DIS_CODE":0,"TOWNNAME":"南區","LI":"廣州里","LIN":"27鄰","STREET":"健民街","SECT":" ","MAREA":" ","LANE":" ","ALLEY":" ","HOUSE_NO":"３９號","E_COORD97":167399.94,"N_COORD97":2542663.6099999999,"ADDRESS":"健民街３９號","OBJECTID":597345},"geometry":{"x":167399.94000000041,"y":2542663.6100000013}},{"attributes":{"ID":597373,"DIS_CODE":0,"TOWNNAME":"南區","LI":"廣州里","LIN":"27鄰","STREET":"福吉路","SECT":" ","MAREA":" ","LANE":" ","ALLEY":" ","HOUSE_NO":"６號","E_COORD97":167425.70000000001,"N_COORD97":2542661.5,"ADDRESS":"福吉路６號","OBJECTID":597346},"geometry":{"x":167425.70000000205,"y":2542661.5000000037}},{"attributes":{"ID":597374,"DIS_CODE":0,"TOWNNAME":"南區","LI":"廣州里","LIN":"27鄰","STREET":"福吉路","SECT":" ","MAREA":" ","LANE":" ","ALLEY":" ","HOUSE_NO":"８號","E_COORD97":167421.48000000001,"N_COORD97":2542661.0800000001,"ADDRESS":"福吉路８號","OBJECTID":597347},"geometry":{"x":167421.48000000045,"y":2542661.0800000038}},{"attributes":{"ID":597375,"DIS_CODE":0,"TOWNNAME":"南區","LI":"廣州里","LIN":"27鄰","STREET":"福吉路","SECT":" ","MAREA":" ","LANE":" ","ALLEY":" ","HOUSE_NO":"１０號","E_COORD97":167412.60999999999,"N_COORD97":2542660.2400000002,"ADDRESS":"福吉路１０號","OBJECTID":597348},"geometry":{"x":167412.61000000034,"y":2542660.2400000021}},{"attributes":{"ID":597376,"DIS_CODE":0,"TOWNNAME":"永康區","LI":"南灣里","LIN":"27鄰","STREET":"立興街","SECT":" ","MAREA":" ","LANE":" ","ALLEY":" ","HOUSE_NO":"４６號","E_COORD97":174602.04999999999,"N_COORD97":2544866.8999999999,"ADDRESS":"立興街４６號","OBJECTID":597349},"geometry":{"x":174602.05000000168,"y":2544866.9000000022}},{"attributes":{"ID":597377,"DIS_CODE":0,"TOWNNAME":"永康區","LI":"埔園里","LIN":"27鄰","STREET":"埔東街","SECT":" ","MAREA":" ","LANE":" ","ALLEY":" ","HOUSE_NO":"１０１號","E_COORD97":173791.48000000001,"N_COORD97":2548287,"ADDRESS":"埔東街１０１號","OBJECTID":597350},"geometry":{"x":173791.48000000138,"y":2548287.0000000019}},{"attributes":{"ID":597378,"DIS_CODE":0,"TOWNNAME":"永康區","LI":"甲頂里","LIN":"27鄰","STREET":"小北路","SECT":" ","MAREA":" ","LANE":" ","ALLEY":" ","HOUSE_NO":"２號之１","E_COORD97":169471.07000000001,"N_COORD97":2546741.0499999998,"ADDRESS":"小北路２號之１","OBJECTID":597351},"geometry":{"x":169471.07000000216,"y":2546741.0500000026}},{"attributes":{"ID":597379,"DIS_CODE":0,"TOWNNAME":"永康區","LI":"尚頂里","LIN":"27鄰","STREET":"南台街","SECT":" ","MAREA":" ","LANE":" ","ALLEY":" ","HOUSE_NO":"５６號","E_COORD97":170330.94,"N_COORD97":2546989.4900000002,"ADDRESS":"南台街５６號","OBJECTID":597352},"geometry":{"x":170330.94000000041,"y":2546989.4900000002}},{"attributes":{"ID":597380,"DIS_CODE":0,"TOWNNAME":"東區","LI":"崇誨里","LIN":"27鄰","STREET":"裕豐街","SECT":" ","MAREA":" ","LANE":" ","ALLEY":" ","HOUSE_NO":"２１５號","E_COORD97":170778.20000000001,"N_COORD97":2543290.5299999998,"ADDRESS":"裕豐街２１５號","OBJECTID":597353},"geometry":{"x":170778.20000000019,"y":2543290.5299999993}},{"attributes":{"ID":597381,"DIS_CODE":0,"TOWNNAME":"東區","LI":"崇誨里","LIN":"27鄰","STREET":"裕豐街","SECT":" ","MAREA":" ","LANE":" ","ALLEY":" ","HOUSE_NO":"２２３號","E_COORD97":170798.12,"N_COORD97":2543307.9399999999,"ADDRESS":"裕豐街２２３號","OBJECTID":597354},"geometry":{"x":170798.12000000104,"y":2543307.9399999995}},{"attributes":{"ID":597382,"DIS_CODE":0,"TOWNNAME":"東區","LI":"崇誨里","LIN":"27鄰","STREET":"裕豐街","SECT":" ","MAREA":" ","LANE":" ","ALLEY":" ","HOUSE_NO":"２２５號","E_COORD97":170798.23000000001,"N_COORD97":2543312.9399999999,"ADDRESS":"裕豐街２２５號","OBJECTID":597355},"geometry":{"x":170798.23000000045,"y":2543312.9400000013}},{"attributes":{"ID":597383,"DIS_CODE":0,"TOWNNAME":"東區","LI":"崇信里","LIN":"27鄰","STREET":"崇善路","SECT":" ","MAREA":" ","LANE":" ","ALLEY":" ","HOUSE_NO":"１９５號（東區戶政事","E_COORD97":170436.25,"N_COORD97":2542298.4399999999,"ADDRESS":"崇善路１９５號（東區戶政事務所）","OBJECTID":597356},"geometry":{"x":170436.25000000093,"y":2542298.4400000032}},{"attributes":{"ID":597384,"DIS_CODE":0,"TOWNNAME":"西港區","LI":"慶安里","LIN":"27鄰","STREET":"慶安路","SECT":" ","MAREA":" ","LANE":" ","ALLEY":" ","HOUSE_NO":"１０３號","E_COORD97":168096.29999999999,"N_COORD97":2557884.3399999999,"ADDRESS":"慶安路１０３號","OBJECTID":597357},"geometry":{"x":168096.30000000075,"y":2557884.3399999999}},{"attributes":{"ID":597385,"DIS_CODE":0,"TOWNNAME":"西港區","LI":"慶安里","LIN":"27鄰","STREET":"慶安路","SECT":" ","MAREA":" ","LANE":" ","ALLEY":" ","HOUSE_NO":"１０９號","E_COORD97":168081.26000000001,"N_COORD97":2557882.7000000002,"ADDRESS":"慶安路１０９號","OBJECTID":597358},"geometry":{"x":168081.26000000071,"y":2557882.7000000011}},{"attributes":{"ID":597386,"DIS_CODE":0,"TOWNNAME":"西港區","LI":"慶安里","LIN":"27鄰","STREET":"慶安路","SECT":" ","MAREA":" ","LANE":" ","ALLEY":" ","HOUSE_NO":"１１１號","E_COORD97":168076.95999999999,"N_COORD97":2557882.1600000001,"ADDRESS":"慶安路１１１號","OBJECTID":597359},"geometry":{"x":168076.96000000089,"y":2557882.1600000001}},{"attributes":{"ID":597387,"DIS_CODE":0,"TOWNNAME":"西港區","LI":"慶安里","LIN":"27鄰","STREET":"慶安路","SECT":" ","MAREA":" ","LANE":" ","ALLEY":" ","HOUSE_NO":"１１３號","E_COORD97":168070.67000000001,"N_COORD97":2557880.6600000001,"ADDRESS":"慶安路１１３號","OBJECTID":597360},"geometry":{"x":168070.66999999993,"y":2557880.660000002}},{"attributes":{"ID":597388,"DIS_CODE":0,"TOWNNAME":"西港區","LI":"慶安里","LIN":"27鄰","STREET":"慶安路","SECT":" ","MAREA":" ","LANE":" ","ALLEY":" ","HOUSE_NO":"１２３號","E_COORD97":168056.79999999999,"N_COORD97":2557878.2000000002,"ADDRESS":"慶安路１２３號","OBJECTID":597361},"geometry":{"x":168056.80000000168,"y":2557878.1999999993}},{"attributes":{"ID":597389,"DIS_CODE":0,"TOWNNAME":"西港區","LI":"慶安里","LIN":"27鄰","STREET":"慶安路","SECT":" ","MAREA":" ","LANE":" ","ALLEY":" ","HOUSE_NO":"１２５號","E_COORD97":168053.31,"N_COORD97":2557877.71,"ADDRESS":"慶安路１２５號","OBJECTID":597362},"geometry":{"x":168053.31000000052,"y":2557877.7100000028}},{"attributes":{"ID":597390,"DIS_CODE":0,"TOWNNAME":"西港區","LI":"慶安里","LIN":"27鄰","STREET":"慶安路","SECT":" ","MAREA":" ","LANE":" ","ALLEY":" ","HOUSE_NO":"１２７號","E_COORD97":168049.76999999999,"N_COORD97":2557877.3399999999,"ADDRESS":"慶安路１２７號","OBJECTID":597363},"geometry":{"x":168049.76999999955,"y":2557877.3399999999}},{"attributes":{"ID":597391,"DIS_CODE":0,"TOWNNAME":"西港區","LI":"慶安里","LIN":"27鄰","STREET":"慶安路","SECT":" ","MAREA":" ","LANE":" ","ALLEY":" ","HOUSE_NO":"１３１號","E_COORD97":168043.07999999999,"N_COORD97":2557876.3599999999,"ADDRESS":"慶安路１３１號","OBJECTID":597364},"geometry":{"x":168043.08000000007,"y":2557876.3599999994}},{"attributes":{"ID":597392,"DIS_CODE":0,"TOWNNAME":"西港區","LI":"慶安里","LIN":"27鄰","STREET":"慶安路","SECT":" ","MAREA":" ","LANE":" ","ALLEY":" ","HOUSE_NO":"１３３號","E_COORD97":168039.42999999999,"N_COORD97":2557875.8100000001,"ADDRESS":"慶安路１３３號","OBJECTID":597365},"geometry":{"x":168039.43000000063,"y":2557875.8100000042}},{"attributes":{"ID":597393,"DIS_CODE":0,"TOWNNAME":"西港區","LI":"慶安里","LIN":"27鄰","STREET":"慶安路","SECT":" ","MAREA":" ","LANE":" ","ALLEY":" ","HOUSE_NO":"１３５號之１","E_COORD97":168029.41,"N_COORD97":2557849.52,"ADDRESS":"慶安路１３５號之１","OBJECTID":597366},"geometry":{"x":168029.41000000201,"y":2557849.5200000033}},{"attributes":{"ID":597394,"DIS_CODE":0,"TOWNNAME":"西港區","LI":"慶安里","LIN":"27鄰","STREET":"慶安路","SECT":" ","MAREA":" ","LANE":" ","ALLEY":" ","HOUSE_NO":"１３５號","E_COORD97":168036.20000000001,"N_COORD97":2557875.2200000002,"ADDRESS":"慶安路１３５號","OBJECTID":597367},"geometry":{"x":168036.20000000112,"y":2557875.2200000007}},{"attributes":{"ID":597395,"DIS_CODE":0,"TOWNNAME":"西港區","LI":"慶安里","LIN":"27鄰","STREET":"慶安路","SECT":" ","MAREA":" ","LANE":" ","ALLEY":" ","HOUSE_NO":"１５１號","E_COORD97":168027.37,"N_COORD97":2557869.79,"ADDRESS":"慶安路１５１號","OBJECTID":597368},"geometry":{"x":168027.37000000011,"y":2557869.7899999991}},{"attributes":{"ID":597396,"DIS_CODE":0,"TOWNNAME":"西港區","LI":"慶安里","LIN":"27鄰","STREET":"慶安路","SECT":" ","MAREA":" ","LANE":" ","ALLEY":" ","HOUSE_NO":"１５３號","E_COORD97":168023.75,"N_COORD97":2557869.6099999999,"ADDRESS":"慶安路１５３號","OBJECTID":597369},"geometry":{"x":168023.75000000093,"y":2557869.6100000013}},{"attributes":{"ID":597397,"DIS_CODE":0,"TOWNNAME":"西港區","LI":"慶安里","LIN":"27鄰","STREET":"慶安路","SECT":" ","MAREA":" ","LANE":" ","ALLEY":" ","HOUSE_NO":"１５５號","E_COORD97":168019.95999999999,"N_COORD97":2557869.1499999999,"ADDRESS":"慶安路１５５號","OBJECTID":597370},"geometry":{"x":168019.95999999996,"y":2557869.1500000004}},{"attributes":{"ID":597398,"DIS_CODE":0,"TOWNNAME":"西港區","LI":"慶安里","LIN":"27鄰","STREET":"慶安路","SECT":" ","MAREA":" ","LANE":" ","ALLEY":" ","HOUSE_NO":"１５７號","E_COORD97":168016.13,"N_COORD97":2557868.79,"ADDRESS":"慶安路１５７號","OBJECTID":597371},"geometry":{"x":168016.13000000082,"y":2557868.790000001}},{"attributes":{"ID":597399,"DIS_CODE":0,"TOWNNAME":"南區","LI":"文南里","LIN":"27鄰","STREET":"健康路","SECT":"二段","MAREA":" ","LANE":" ","ALLEY":" ","HOUSE_NO":"５３５號","E_COORD97":166193.98999999999,"N_COORD97":2542563.9700000002,"ADDRESS":"健康路二段５３５號","OBJECTID":597372},"geometry":{"x":166193.99000000022,"y":2542563.9700000044}},{"attributes":{"ID":597400,"DIS_CODE":0,"TOWNNAME":"南區","LI":"文南里","LIN":"27鄰","STREET":"健康路","SECT":"二段","MAREA":" ","LANE":" ","ALLEY":" ","HOUSE_NO":"５３７號","E_COORD97":166187.79999999999,"N_COORD97":2542564.6099999999,"ADDRESS":"健康路二段５３７號","OBJECTID":597373},"geometry":{"x":166187.80000000075,"y":2542564.6099999994}},{"attributes":{"ID":597401,"DIS_CODE":0,"TOWNNAME":"南區","LI":"文南里","LIN":"27鄰","STREET":"健康路","SECT":"二段","MAREA":" ","LANE":" ","ALLEY":" ","HOUSE_NO":"５３９號","E_COORD97":166181.13,"N_COORD97":2542565.1600000001,"ADDRESS":"健康路二段５３９號","OBJECTID":597374},"geometry":{"x":166181.12999999989,"y":2542565.1600000001}},{"attributes":{"ID":597402,"DIS_CODE":0,"TOWNNAME":"南區","LI":"文南里","LIN":"27鄰","STREET":"健康路","SECT":"二段","MAREA":" ","LANE":" ","ALLEY":" ","HOUSE_NO":"５４１號","E_COORD97":166174.62,"N_COORD97":2542565.7999999998,"ADDRESS":"健康路二段５４１號","OBJECTID":597375},"geometry":{"x":166174.62000000011,"y":2542565.8000000026}},{"attributes":{"ID":597403,"DIS_CODE":0,"TOWNNAME":"南區","LI":"文南里","LIN":"27鄰","STREET":"健康路","SECT":"二段","MAREA":" ","LANE":" ","ALLEY":" ","HOUSE_NO":"５４３號","E_COORD97":166165.09,"N_COORD97":2542565.5600000001,"ADDRESS":"健康路二段５４３號","OBJECTID":597376},"geometry":{"x":166165.09000000078,"y":2542565.5600000005}},{"attributes":{"ID":597404,"DIS_CODE":0,"TOWNNAME":"南區","LI":"文南里","LIN":"27鄰","STREET":"健康路","SECT":"二段","MAREA":" ","LANE":" ","ALLEY":" ","HOUSE_NO":"５４５號","E_COORD97":166159.22,"N_COORD97":2542566.04,"ADDRESS":"健康路二段５４５號","OBJECTID":597377},"geometry":{"x":166159.22000000067,"y":2542566.040000001}},{"attributes":{"ID":597405,"DIS_CODE":0,"TOWNNAME":"南區","LI":"文南里","LIN":"27鄰","STREET":"新樂路","SECT":" ","MAREA":" ","LANE":" ","ALLEY":" ","HOUSE_NO":"１之１１號","E_COORD97":166058.89000000001,"N_COORD97":2542500.0800000001,"ADDRESS":"新樂路１之１１號","OBJECTID":597378},"geometry":{"x":166058.88999999966,"y":2542500.0800000001}},{"attributes":{"ID":597406,"DIS_CODE":0,"TOWNNAME":"南區","LI":"文南里","LIN":"27鄰","STREET":"新樂路","SECT":" ","MAREA":" ","LANE":" ","ALLEY":" ","HOUSE_NO":"１之１２號","E_COORD97":166063.32999999999,"N_COORD97":2542503.73,"ADDRESS":"新樂路１之１２號","OBJECTID":597379},"geometry":{"x":166063.33000000194,"y":2542503.7300000004}},{"attributes":{"ID":597407,"DIS_CODE":0,"TOWNNAME":"南區","LI":"文南里","LIN":"27鄰","STREET":"新樂路","SECT":" ","MAREA":" ","LANE":" ","ALLEY":" ","HOUSE_NO":"１之２７號","E_COORD97":166148.57999999999,"N_COORD97":2542563.2599999998,"ADDRESS":"新樂路１之２７號","OBJECTID":597380},"geometry":{"x":166148.58000000101,"y":2542563.2599999998}},{"attributes":{"ID":597408,"DIS_CODE":0,"TOWNNAME":"南區","LI":"文南里","LIN":"27鄰","STREET":"新樂路","SECT":" ","MAREA":" ","LANE":" ","ALLEY":" ","HOUSE_NO":"１之１９號","E_COORD97":166107.63,"N_COORD97":2542534.8399999999,"ADDRESS":"新樂路１之１９號","OBJECTID":597381},"geometry":{"x":166107.63000000082,"y":2542534.8400000017}},{"attributes":{"ID":597409,"DIS_CODE":0,"TOWNNAME":"南區","LI":"文南里","LIN":"27鄰","STREET":"新樂路","SECT":" ","MAREA":" ","LANE":" ","ALLEY":" ","HOUSE_NO":"１之２０號","E_COORD97":166086.51000000001,"N_COORD97":2542520.3199999998,"ADDRESS":"新樂路１之２０號","OBJECTID":597382},"geometry":{"x":166086.50999999978,"y":2542520.320000004}},{"attributes":{"ID":597410,"DIS_CODE":0,"TOWNNAME":"南區","LI":"文南里","LIN":"27鄰","STREET":"新樂路","SECT":" ","MAREA":" ","LANE":" ","ALLEY":" ","HOUSE_NO":"１之１３號","E_COORD97":166071.42999999999,"N_COORD97":2542509.9199999999,"ADDRESS":"新樂路１之１３號","OBJECTID":597383},"geometry":{"x":166071.43000000063,"y":2542509.9200000018}},{"attributes":{"ID":597411,"DIS_CODE":0,"TOWNNAME":"南區","LI":"文南里","LIN":"27鄰","STREET":"新樂路","SECT":" ","MAREA":" ","LANE":" ","ALLEY":" ","HOUSE_NO":"１之１５號","E_COORD97":166080.79999999999,"N_COORD97":2542516.75,"ADDRESS":"新樂路１之１５號","OBJECTID":597384},"geometry":{"x":166080.80000000075,"y":2542516.75}},{"attributes":{"ID":597412,"DIS_CODE":0,"TOWNNAME":"南區","LI":"文南里","LIN":"27鄰","STREET":"新樂路","SECT":" ","MAREA":" ","LANE":" ","ALLEY":" ","HOUSE_NO":"１之１６號","E_COORD97":166093.34,"N_COORD97":2542525.79,"ADDRESS":"新樂路１之１６號","OBJECTID":597385},"geometry":{"x":166093.33999999985,"y":2542525.7899999991}},{"attributes":{"ID":597413,"DIS_CODE":0,"TOWNNAME":"南區","LI":"文南里","LIN":"27鄰","STREET":"新樂路","SECT":" ","MAREA":" ","LANE":" ","ALLEY":" ","HOUSE_NO":"１之１７號","E_COORD97":166098.26000000001,"N_COORD97":2542529.29,"ADDRESS":"新樂路１之１７號","OBJECTID":597386},"geometry":{"x":166098.25999999978,"y":2542529.2899999991}},{"attributes":{"ID":597414,"DIS_CODE":0,"TOWNNAME":"南區","LI":"文南里","LIN":"27鄰","STREET":"新樂路","SECT":" ","MAREA":" ","LANE":" ","ALLEY":" ","HOUSE_NO":"１之１８號","E_COORD97":166103.5,"N_COORD97":2542532.7799999998,"ADDRESS":"新樂路１之１８號","OBJECTID":597387},"geometry":{"x":166103.50000000093,"y":2542532.7799999993}},{"attributes":{"ID":597415,"DIS_CODE":0,"TOWNNAME":"南區","LI":"文南里","LIN":"27鄰","STREET":"新樂路","SECT":" ","MAREA":" ","LANE":" ","ALLEY":" ","HOUSE_NO":"１之２６號","E_COORD97":166133.34,"N_COORD97":2542552.7799999998,"ADDRESS":"新樂路１之２６號","OBJECTID":597388},"geometry":{"x":166133.34000000078,"y":2542552.7799999993}},{"attributes":{"ID":597416,"DIS_CODE":0,"TOWNNAME":"南區","LI":"文南里","LIN":"27鄰","STREET":"新樂路","SECT":" ","MAREA":" ","LANE":" ","ALLEY":" ","HOUSE_NO":"１之２１號","E_COORD97":166115.41,"N_COORD97":2542540.8700000001,"ADDRESS":"新樂路１之２１號","OBJECTID":597389},"geometry":{"x":166115.41000000201,"y":2542540.870000001}},{"attributes":{"ID":597417,"DIS_CODE":0,"TOWNNAME":"南區","LI":"文南里","LIN":"27鄰","STREET":"新樂路","SECT":" ","MAREA":" ","LANE":" ","ALLEY":" ","HOUSE_NO":"１之２２號","E_COORD97":166119.85000000001,"N_COORD97":2542544.21,"ADDRESS":"新樂路１之２２號","OBJECTID":597390},"geometry":{"x":166119.84999999963,"y":2542544.2100000009}},{"attributes":{"ID":597418,"DIS_CODE":0,"TOWNNAME":"南區","LI":"文南里","LIN":"27鄰","STREET":"新樂路","SECT":" ","MAREA":" ","LANE":" ","ALLEY":" ","HOUSE_NO":"１之２３號","E_COORD97":166125.09,"N_COORD97":2542548.02,"ADDRESS":"新樂路１之２３號","OBJECTID":597391},"geometry":{"x":166125.08999999985,"y":2542548.0199999996}},{"attributes":{"ID":597419,"DIS_CODE":0,"TOWNNAME":"南區","LI":"文南里","LIN":"27鄰","STREET":"新樂路","SECT":" ","MAREA":" ","LANE":" ","ALLEY":" ","HOUSE_NO":"１之２５號","E_COORD97":166128.89999999999,"N_COORD97":2542551.3500000001,"ADDRESS":"新樂路１之２５號","OBJECTID":597392},"geometry":{"x":166128.90000000037,"y":2542551.3500000015}},{"attributes":{"ID":597420,"DIS_CODE":0,"TOWNNAME":"南區","LI":"文南里","LIN":"27鄰","STREET":"新樂路","SECT":" ","MAREA":" ","LANE":" ","ALLEY":" ","HOUSE_NO":"１之２８號","E_COORD97":166083.85000000001,"N_COORD97":2542510.6899999999,"ADDRESS":"新樂路１之２８號","OBJECTID":597393},"geometry":{"x":166083.85000000056,"y":2542510.6900000013}},{"attributes":{"ID":597421,"DIS_CODE":0,"TOWNNAME":"南區","LI":"文南里","LIN":"27鄰","STREET":"新樂路","SECT":" ","MAREA":" ","LANE":" ","ALLEY":" ","HOUSE_NO":"１之２９號","E_COORD97":166079.76000000001,"N_COORD97":2542507.8100000001,"ADDRESS":"新樂路１之２９號","OBJECTID":597394},"geometry":{"x":166079.75999999978,"y":2542507.8100000024}},{"attributes":{"ID":597422,"DIS_CODE":0,"TOWNNAME":"南區","LI":"文南里","LIN":"27鄰","STREET":"新樂路","SECT":" ","MAREA":" ","LANE":" ","ALLEY":" ","HOUSE_NO":"１之３０號","E_COORD97":166077.34,"N_COORD97":2542502.1200000001,"ADDRESS":"新樂路１之３０號","OBJECTID":597395},"geometry":{"x":166077.34000000078,"y":2542502.1200000048}},{"attributes":{"ID":597423,"DIS_CODE":0,"TOWNNAME":"仁德區","LI":"仁義里","LIN":"27鄰","STREET":"正義二街","SECT":" ","MAREA":" ","LANE":" ","ALLEY":" ","HOUSE_NO":"１３０號","E_COORD97":173820.89000000001,"N_COORD97":2541555.02,"ADDRESS":"正義二街１３０號","OBJECTID":597396},"geometry":{"x":173820.88999999966,"y":2541555.0199999996}},{"attributes":{"ID":597424,"DIS_CODE":0,"TOWNNAME":"南區","LI":"文南里","LIN":"27鄰","STREET":"新樂路","SECT":" ","MAREA":" ","LANE":" ","ALLEY":" ","HOUSE_NO":"１之３１號","E_COORD97":166064.73000000001,"N_COORD97":2542501.3500000001,"ADDRESS":"新樂路１之３１號","OBJECTID":597397},"geometry":{"x":166064.73000000138,"y":2542501.3499999996}},{"attributes":{"ID":597425,"DIS_CODE":0,"TOWNNAME":"南區","LI":"府南里","LIN":"27鄰","STREET":"永成路","SECT":"三段","MAREA":" ","LANE":" ","ALLEY":" ","HOUSE_NO":"５２３號","E_COORD97":167472.67000000001,"N_COORD97":2541632.52,"ADDRESS":"永成路三段５２３號","OBJECTID":597398},"geometry":{"x":167472.66999999993,"y":2541632.5199999996}},{"attributes":{"ID":597426,"DIS_CODE":0,"TOWNNAME":"仁德區","LI":"仁義里","LIN":"27鄰","STREET":"中清路","SECT":" ","MAREA":" ","LANE":" ","ALLEY":" ","HOUSE_NO":"１８２號","E_COORD97":173744.64000000001,"N_COORD97":2541543.5499999998,"ADDRESS":"中清路１８２號","OBJECTID":597399},"geometry":{"x":173744.63999999966,"y":2541543.5500000026}},{"attributes":{"ID":597427,"DIS_CODE":0,"TOWNNAME":"永康區","LI":"甲頂里","LIN":"27鄰","STREET":"小北路","SECT":" ","MAREA":" ","LANE":" ","ALLEY":" ","HOUSE_NO":"３之３號","E_COORD97":169445.39999999999,"N_COORD97":2546772.29,"ADDRESS":"小北路３之３號","OBJECTID":597400},"geometry":{"x":169445.4000000013,"y":2546772.290000001}}]}