{"displayFieldName":"TOWNNAME","fieldAliases":{"ID":"ID","DIS_CODE":"DIS_CODE","TOWNNAME":"TOWNNAME","LI":"LI","LIN":"LIN","STREET":"STREET","SECT":"SECT","MAREA":"MAREA","LANE":"LANE","ALLEY":"ALLEY","HOUSE_NO":"HOUSE_NO","E_COORD97":"E_COORD97","N_COORD97":"N_COORD97","ADDRESS":"ADDRESS","OBJECTID":"OBJECTID"},"geometryType":"esriGeometryPoint","spatialReference":{"wkid":102443,"latestWkid":3826},"fields":[{"name":"ID","type":"esriFieldTypeDouble","alias":"ID"},{"name":"DIS_CODE","type":"esriFieldTypeInteger","alias":"DIS_CODE"},{"name":"TOWNNAME","type":"esriFieldTypeString","alias":"TOWNNAME","length":8},{"name":"LI","type":"esriFieldTypeString","alias":"LI","length":8},{"name":"LIN","type":"esriFieldTypeString","alias":"LIN","length":12},{"name":"STREET","type":"esriFieldTypeString","alias":"STREET","length":20},{"name":"SECT","type":"esriFieldTypeString","alias":"SECT","length":8},{"name":"MAREA","type":"esriFieldTypeString","alias":"MAREA","length":12},{"name":"LANE","type":"esriFieldTypeString","alias":"LANE","length":10},{"name":"ALLEY","type":"esriFieldTypeString","alias":"ALLEY","length":10},{"name":"HOUSE_NO","type":"esriFieldTypeString","alias":"HOUSE_NO","length":20},{"name":"E_COORD97","type":"esriFieldTypeDouble","alias":"E_COORD97"},{"name":"N_COORD97","type":"esriFieldTypeDouble","alias":"N_COORD97"},{"name":"ADDRESS","type":"esriFieldTypeString","alias":"ADDRESS","length":50},{"name":"OBJECTID","type":"esriFieldTypeOID","alias":"OBJECTID"}],"features":[{"attributes":{"ID":370011,"DIS_CODE":0,"TOWNNAME":"北區","LI":"六甲里","LIN":"12鄰","STREET":"和緯路","SECT":"二段","MAREA":" ","LANE":"３０巷","ALLEY":" ","HOUSE_NO":"３８號","E_COORD97":169052.59,"N_COORD97":2545789.6600000001,"ADDRESS":"和緯路二段３０巷３８號","OBJECTID":370001},"geometry":{"x":169052.58999999985,"y":2545789.6600000039}},{"attributes":{"ID":370012,"DIS_CODE":0,"TOWNNAME":"北區","LI":"六甲里","LIN":"12鄰","STREET":"和緯路","SECT":"二段","MAREA":" ","LANE":"３０巷","ALLEY":" ","HOUSE_NO":"４０號","E_COORD97":169054.66,"N_COORD97":2545797.6600000001,"ADDRESS":"和緯路二段３０巷４０號","OBJECTID":370002},"geometry":{"x":169054.66000000015,"y":2545797.660000002}},{"attributes":{"ID":370013,"DIS_CODE":0,"TOWNNAME":"北區","LI":"六甲里","LIN":"12鄰","STREET":"和緯路","SECT":"二段","MAREA":" ","LANE":"３０巷","ALLEY":" ","HOUSE_NO":"４６號","E_COORD97":169055.12,"N_COORD97":2545804.1400000001,"ADDRESS":"和緯路二段３０巷４６號","OBJECTID":370003},"geometry":{"x":169055.12000000197,"y":2545804.1400000043}},{"attributes":{"ID":370014,"DIS_CODE":0,"TOWNNAME":"北區","LI":"六甲里","LIN":"12鄰","STREET":"和緯路","SECT":"二段","MAREA":" ","LANE":"３０巷","ALLEY":" ","HOUSE_NO":"５０號","E_COORD97":169055.72,"N_COORD97":2545807.54,"ADDRESS":"和緯路二段３０巷５０號","OBJECTID":370004},"geometry":{"x":169055.7200000016,"y":2545807.540000001}},{"attributes":{"ID":370015,"DIS_CODE":0,"TOWNNAME":"北區","LI":"六甲里","LIN":"12鄰","STREET":"和緯路","SECT":"二段","MAREA":" ","LANE":"３０巷","ALLEY":" ","HOUSE_NO":"５２號","E_COORD97":169056.60999999999,"N_COORD97":2545812.4300000002,"ADDRESS":"和緯路二段３０巷５２號","OBJECTID":370005},"geometry":{"x":169056.61000000034,"y":2545812.4300000016}},{"attributes":{"ID":370016,"DIS_CODE":0,"TOWNNAME":"北區","LI":"六甲里","LIN":"12鄰","STREET":"和緯路","SECT":"二段","MAREA":" ","LANE":"３０巷","ALLEY":" ","HOUSE_NO":"５６號","E_COORD97":169058.23999999999,"N_COORD97":2545821.1699999999,"ADDRESS":"和緯路二段３０巷５６號","OBJECTID":370006},"geometry":{"x":169058.24000000115,"y":2545821.1700000018}},{"attributes":{"ID":370017,"DIS_CODE":0,"TOWNNAME":"北區","LI":"六甲里","LIN":"12鄰","STREET":"和緯路","SECT":"二段","MAREA":" ","LANE":"３０巷","ALLEY":" ","HOUSE_NO":"５８號","E_COORD97":169058.82999999999,"N_COORD97":2545826.0499999998,"ADDRESS":"和緯路二段３０巷５８號","OBJECTID":370007},"geometry":{"x":169058.83000000194,"y":2545826.0500000026}},{"attributes":{"ID":370018,"DIS_CODE":0,"TOWNNAME":"北區","LI":"六甲里","LIN":"12鄰","STREET":"和緯路","SECT":"二段","MAREA":" ","LANE":"３０巷","ALLEY":" ","HOUSE_NO":"６０號","E_COORD97":169060.17000000001,"N_COORD97":2545830.5,"ADDRESS":"和緯路二段３０巷６０號","OBJECTID":370008},"geometry":{"x":169060.17000000086,"y":2545830.5}},{"attributes":{"ID":370019,"DIS_CODE":0,"TOWNNAME":"北區","LI":"六甲里","LIN":"12鄰","STREET":"和緯路","SECT":"二段","MAREA":" ","LANE":"３０巷","ALLEY":" ","HOUSE_NO":"６８號","E_COORD97":169068.04000000001,"N_COORD97":2545848.5,"ADDRESS":"和緯路二段３０巷６８號","OBJECTID":370009},"geometry":{"x":169068.04000000097,"y":2545848.5000000037}},{"attributes":{"ID":370020,"DIS_CODE":0,"TOWNNAME":"北區","LI":"六甲里","LIN":"12鄰","STREET":"和緯路","SECT":"二段","MAREA":" ","LANE":"３０巷","ALLEY":" ","HOUSE_NO":"６６號","E_COORD97":169062.54999999999,"N_COORD97":2545848.9399999999,"ADDRESS":"和緯路二段３０巷６６號","OBJECTID":370010},"geometry":{"x":169062.55000000075,"y":2545848.9400000013}},{"attributes":{"ID":370021,"DIS_CODE":0,"TOWNNAME":"北區","LI":"六甲里","LIN":"12鄰","STREET":"和緯路","SECT":"二段","MAREA":" ","LANE":"３０巷","ALLEY":" ","HOUSE_NO":"７０號","E_COORD97":169072.04000000001,"N_COORD97":2545848.0600000001,"ADDRESS":"和緯路二段３０巷７０號","OBJECTID":370011},"geometry":{"x":169072.04000000004,"y":2545848.0600000005}},{"attributes":{"ID":370022,"DIS_CODE":0,"TOWNNAME":"北區","LI":"六甲里","LIN":"12鄰","STREET":"和緯路","SECT":"二段","MAREA":" ","LANE":"３０巷","ALLEY":" ","HOUSE_NO":"７２號","E_COORD97":169076.94,"N_COORD97":2545847.6099999999,"ADDRESS":"和緯路二段３０巷７２號","OBJECTID":370012},"geometry":{"x":169076.94000000227,"y":2545847.6100000013}},{"attributes":{"ID":370023,"DIS_CODE":0,"TOWNNAME":"北區","LI":"六甲里","LIN":"12鄰","STREET":"和緯路","SECT":"二段","MAREA":" ","LANE":"３０巷","ALLEY":" ","HOUSE_NO":"７６號","E_COORD97":169081.67999999999,"N_COORD97":2545847.46,"ADDRESS":"和緯路二段３０巷７６號","OBJECTID":370013},"geometry":{"x":169081.68000000063,"y":2545847.4600000028}},{"attributes":{"ID":370024,"DIS_CODE":0,"TOWNNAME":"北區","LI":"六甲里","LIN":"12鄰","STREET":"和緯路","SECT":"二段","MAREA":" ","LANE":"３０巷","ALLEY":" ","HOUSE_NO":"７８號","E_COORD97":169086.57000000001,"N_COORD97":2545845.8300000001,"ADDRESS":"和緯路二段３０巷７８號","OBJECTID":370014},"geometry":{"x":169086.57000000123,"y":2545845.8300000001}},{"attributes":{"ID":370025,"DIS_CODE":0,"TOWNNAME":"北區","LI":"六甲里","LIN":"12鄰","STREET":"和緯路","SECT":"二段","MAREA":" ","LANE":"３０巷","ALLEY":" ","HOUSE_NO":"８２號","E_COORD97":169068.35000000001,"N_COORD97":2545868.4199999999,"ADDRESS":"和緯路二段３０巷８２號","OBJECTID":370015},"geometry":{"x":169068.35000000149,"y":2545868.4199999999}},{"attributes":{"ID":370026,"DIS_CODE":0,"TOWNNAME":"柳營區","LI":"人和里","LIN":"12鄰","STREET":"柳營路","SECT":"三段","MAREA":" ","LANE":"２２３巷","ALLEY":" ","HOUSE_NO":"２號","E_COORD97":179645.62,"N_COORD97":2576795.8999999999,"ADDRESS":"柳營路三段２２３巷２號","OBJECTID":370016},"geometry":{"x":179645.62000000104,"y":2576795.9000000004}},{"attributes":{"ID":370027,"DIS_CODE":0,"TOWNNAME":"柳營區","LI":"人和里","LIN":"12鄰","STREET":"柳營路","SECT":"三段","MAREA":" ","LANE":"２３７巷","ALLEY":" ","HOUSE_NO":"１１號","E_COORD97":179621.29999999999,"N_COORD97":2576812.1400000001,"ADDRESS":"柳營路三段２３７巷１１號","OBJECTID":370017},"geometry":{"x":179621.29999999888,"y":2576812.1399999987}},{"attributes":{"ID":370028,"DIS_CODE":0,"TOWNNAME":"柳營區","LI":"人和里","LIN":"12鄰","STREET":"柳營路","SECT":"三段","MAREA":" ","LANE":"２３７巷","ALLEY":" ","HOUSE_NO":"１７號","E_COORD97":179609.75,"N_COORD97":2576817.9300000002,"ADDRESS":"柳營路三段２３７巷１７號","OBJECTID":370018},"geometry":{"x":179609.75,"y":2576817.9299999997}},{"attributes":{"ID":370029,"DIS_CODE":0,"TOWNNAME":"柳營區","LI":"人和里","LIN":"12鄰","STREET":"柳營路","SECT":"三段","MAREA":" ","LANE":"２３７巷","ALLEY":" ","HOUSE_NO":"１號","E_COORD97":179639.14000000001,"N_COORD97":2576809.7200000002,"ADDRESS":"柳營路三段２３７巷１號","OBJECTID":370019},"geometry":{"x":179639.13999999873,"y":2576809.7200000025}},{"attributes":{"ID":370030,"DIS_CODE":0,"TOWNNAME":"柳營區","LI":"人和里","LIN":"12鄰","STREET":"柳營路","SECT":"三段","MAREA":" ","LANE":"２３７巷","ALLEY":" ","HOUSE_NO":"２１號","E_COORD97":179599.94,"N_COORD97":2576819.6800000002,"ADDRESS":"柳營路三段２３７巷２１號","OBJECTID":370020},"geometry":{"x":179599.94000000041,"y":2576819.6799999997}},{"attributes":{"ID":370031,"DIS_CODE":0,"TOWNNAME":"柳營區","LI":"人和里","LIN":"12鄰","STREET":"柳營路","SECT":"三段","MAREA":" ","LANE":"２３７巷","ALLEY":" ","HOUSE_NO":"２３號","E_COORD97":179590.26000000001,"N_COORD97":2576838.52,"ADDRESS":"柳營路三段２３７巷２３號","OBJECTID":370021},"geometry":{"x":179590.26000000071,"y":2576838.5199999996}},{"attributes":{"ID":370032,"DIS_CODE":0,"TOWNNAME":"柳營區","LI":"人和里","LIN":"12鄰","STREET":"柳營路","SECT":"三段","MAREA":" ","LANE":"２３７巷","ALLEY":" ","HOUSE_NO":"５號","E_COORD97":179631.54000000001,"N_COORD97":2576810.1099999999,"ADDRESS":"柳營路三段２３７巷５號","OBJECTID":370022},"geometry":{"x":179631.54000000004,"y":2576810.1099999994}},{"attributes":{"ID":370033,"DIS_CODE":0,"TOWNNAME":"柳營區","LI":"人和里","LIN":"12鄰","STREET":"柳營路","SECT":"三段","MAREA":" ","LANE":"２３７巷","ALLEY":" ","HOUSE_NO":"９號","E_COORD97":179627.81,"N_COORD97":2576810.3300000001,"ADDRESS":"柳營路三段２３７巷９號","OBJECTID":370023},"geometry":{"x":179627.81000000145,"y":2576810.3300000038}},{"attributes":{"ID":370034,"DIS_CODE":0,"TOWNNAME":"北區","LI":"文元里","LIN":"12鄰","STREET":"中華北路","SECT":"二段","MAREA":" ","LANE":"２５巷","ALLEY":" ","HOUSE_NO":"４７之１號","E_COORD97":167470.54000000001,"N_COORD97":2546400.71,"ADDRESS":"中華北路二段２５巷４７之１號","OBJECTID":370024},"geometry":{"x":167470.5400000019,"y":2546400.7100000028}},{"attributes":{"ID":370035,"DIS_CODE":0,"TOWNNAME":"北區","LI":"興北里","LIN":"12鄰","STREET":"公園路","SECT":" ","MAREA":" ","LANE":"６２４巷","ALLEY":" ","HOUSE_NO":"１００號","E_COORD97":169307.94,"N_COORD97":2545303.6400000001,"ADDRESS":"公園路６２４巷１００號","OBJECTID":370025},"geometry":{"x":169307.94000000134,"y":2545303.6400000025}},{"attributes":{"ID":370036,"DIS_CODE":0,"TOWNNAME":"北區","LI":"興北里","LIN":"12鄰","STREET":"公園路","SECT":" ","MAREA":" ","LANE":"６２４巷","ALLEY":" ","HOUSE_NO":"１０２號","E_COORD97":169312.39999999999,"N_COORD97":2545304.25,"ADDRESS":"公園路６２４巷１０２號","OBJECTID":370026},"geometry":{"x":169312.40000000037,"y":2545304.2500000037}},{"attributes":{"ID":370037,"DIS_CODE":0,"TOWNNAME":"北區","LI":"興北里","LIN":"12鄰","STREET":"公園路","SECT":" ","MAREA":" ","LANE":"６２４巷","ALLEY":" ","HOUSE_NO":"１０４號","E_COORD97":169316.66,"N_COORD97":2545303.8399999999,"ADDRESS":"公園路６２４巷１０４號","OBJECTID":370027},"geometry":{"x":169316.66000000108,"y":2545303.8400000017}},{"attributes":{"ID":370038,"DIS_CODE":0,"TOWNNAME":"北區","LI":"興北里","LIN":"12鄰","STREET":"公園路","SECT":" ","MAREA":" ","LANE":"６２４巷","ALLEY":" ","HOUSE_NO":"１０６號","E_COORD97":169321.01999999999,"N_COORD97":2545305.2599999998,"ADDRESS":"公園路６２４巷１０６號","OBJECTID":370028},"geometry":{"x":169321.01999999955,"y":2545305.2600000016}},{"attributes":{"ID":370039,"DIS_CODE":0,"TOWNNAME":"北區","LI":"興北里","LIN":"12鄰","STREET":"公園路","SECT":" ","MAREA":" ","LANE":"６２４巷","ALLEY":" ","HOUSE_NO":"１０８號","E_COORD97":169325.57999999999,"N_COORD97":2545304.04,"ADDRESS":"公園路６２４巷１０８號","OBJECTID":370029},"geometry":{"x":169325.58000000101,"y":2545304.0399999991}},{"attributes":{"ID":370040,"DIS_CODE":0,"TOWNNAME":"北區","LI":"興北里","LIN":"12鄰","STREET":"公園路","SECT":" ","MAREA":" ","LANE":"６２４巷","ALLEY":" ","HOUSE_NO":"１１０號","E_COORD97":169330.04000000001,"N_COORD97":2545305.46,"ADDRESS":"公園路６２４巷１１０號","OBJECTID":370030},"geometry":{"x":169330.04000000004,"y":2545305.4600000009}},{"attributes":{"ID":370041,"DIS_CODE":0,"TOWNNAME":"北區","LI":"興北里","LIN":"12鄰","STREET":"公園路","SECT":" ","MAREA":" ","LANE":"６２４巷","ALLEY":" ","HOUSE_NO":"１１２號","E_COORD97":169334.5,"N_COORD97":2545306.3700000001,"ADDRESS":"公園路６２４巷１１２號","OBJECTID":370031},"geometry":{"x":169334.50000000093,"y":2545306.370000001}},{"attributes":{"ID":370042,"DIS_CODE":0,"TOWNNAME":"北區","LI":"興北里","LIN":"12鄰","STREET":"公園路","SECT":" ","MAREA":" ","LANE":"６２４巷","ALLEY":" ","HOUSE_NO":"１１４號","E_COORD97":169338.85999999999,"N_COORD97":2545306.98,"ADDRESS":"公園路６２４巷１１４號","OBJECTID":370032},"geometry":{"x":169338.86000000127,"y":2545306.9800000023}},{"attributes":{"ID":370043,"DIS_CODE":0,"TOWNNAME":"北區","LI":"興北里","LIN":"12鄰","STREET":"公園路","SECT":" ","MAREA":" ","LANE":"６２４巷","ALLEY":" ","HOUSE_NO":"１１６號","E_COORD97":169343.10000000001,"N_COORD97":2545307.0099999998,"ADDRESS":"公園路６２４巷１１６號","OBJECTID":370033},"geometry":{"x":169343.10000000056,"y":2545307.0100000016}},{"attributes":{"ID":370044,"DIS_CODE":0,"TOWNNAME":"北區","LI":"興北里","LIN":"12鄰","STREET":"公園路","SECT":" ","MAREA":" ","LANE":"６２４巷","ALLEY":" ","HOUSE_NO":"２６號","E_COORD97":169136.73999999999,"N_COORD97":2545297.8300000001,"ADDRESS":"公園路６２４巷２６號","OBJECTID":370034},"geometry":{"x":169136.74000000022,"y":2545297.8300000019}},{"attributes":{"ID":370045,"DIS_CODE":0,"TOWNNAME":"北區","LI":"興北里","LIN":"12鄰","STREET":"公園路","SECT":" ","MAREA":" ","LANE":"６２４巷","ALLEY":" ","HOUSE_NO":"２８號","E_COORD97":169141,"N_COORD97":2545297.1200000001,"ADDRESS":"公園路６２４巷２８號","OBJECTID":370035},"geometry":{"x":169141.00000000093,"y":2545297.1200000029}},{"attributes":{"ID":370046,"DIS_CODE":0,"TOWNNAME":"北區","LI":"興北里","LIN":"12鄰","STREET":"公園路","SECT":" ","MAREA":" ","LANE":"６２４巷","ALLEY":" ","HOUSE_NO":"３０號","E_COORD97":169145.35999999999,"N_COORD97":2545297.02,"ADDRESS":"公園路６２４巷３０號","OBJECTID":370036},"geometry":{"x":169145.3600000022,"y":2545297.0199999996}},{"attributes":{"ID":370047,"DIS_CODE":0,"TOWNNAME":"北區","LI":"興北里","LIN":"12鄰","STREET":"公園路","SECT":" ","MAREA":" ","LANE":"６２４巷","ALLEY":" ","HOUSE_NO":"３２號","E_COORD97":169149.41,"N_COORD97":2545297.1200000001,"ADDRESS":"公園路６２４巷３２號","OBJECTID":370037},"geometry":{"x":169149.41000000015,"y":2545297.1200000029}},{"attributes":{"ID":370048,"DIS_CODE":0,"TOWNNAME":"北區","LI":"興北里","LIN":"12鄰","STREET":"公園路","SECT":" ","MAREA":" ","LANE":"６２４巷","ALLEY":" ","HOUSE_NO":"３４號","E_COORD97":169153.98000000001,"N_COORD97":2545297.6299999999,"ADDRESS":"公園路６２４巷３４號","OBJECTID":370038},"geometry":{"x":169153.98000000045,"y":2545297.6300000008}},{"attributes":{"ID":370049,"DIS_CODE":0,"TOWNNAME":"北區","LI":"興北里","LIN":"12鄰","STREET":"公園路","SECT":" ","MAREA":" ","LANE":"６２４巷","ALLEY":" ","HOUSE_NO":"３６號","E_COORD97":169157.82999999999,"N_COORD97":2545297.1200000001,"ADDRESS":"公園路６２４巷３６號","OBJECTID":370039},"geometry":{"x":169157.83000000101,"y":2545297.1200000029}},{"attributes":{"ID":370050,"DIS_CODE":0,"TOWNNAME":"北區","LI":"興北里","LIN":"12鄰","STREET":"公園路","SECT":" ","MAREA":" ","LANE":"６２４巷","ALLEY":" ","HOUSE_NO":"３８號","E_COORD97":169162.09,"N_COORD97":2545297.9300000002,"ADDRESS":"公園路６２４巷３８號","OBJECTID":370040},"geometry":{"x":169162.09000000078,"y":2545297.9299999997}},{"attributes":{"ID":370051,"DIS_CODE":0,"TOWNNAME":"北區","LI":"興北里","LIN":"12鄰","STREET":"公園路","SECT":" ","MAREA":" ","LANE":"６２４巷","ALLEY":" ","HOUSE_NO":"４０號","E_COORD97":169166.34,"N_COORD97":2545297.8300000001,"ADDRESS":"公園路６２４巷４０號","OBJECTID":370041},"geometry":{"x":169166.33999999985,"y":2545297.8300000019}},{"attributes":{"ID":370052,"DIS_CODE":0,"TOWNNAME":"北區","LI":"興北里","LIN":"12鄰","STREET":"公園路","SECT":" ","MAREA":" ","LANE":"６２４巷","ALLEY":" ","HOUSE_NO":"４２號","E_COORD97":169170.39999999999,"N_COORD97":2545298.4399999999,"ADDRESS":"公園路６２４巷４２號","OBJECTID":370042},"geometry":{"x":169170.40000000224,"y":2545298.4399999995}},{"attributes":{"ID":370053,"DIS_CODE":0,"TOWNNAME":"北區","LI":"興北里","LIN":"12鄰","STREET":"公園路","SECT":" ","MAREA":" ","LANE":"６２４巷","ALLEY":" ","HOUSE_NO":"４４號","E_COORD97":169174.76000000001,"N_COORD97":2545297.2200000002,"ADDRESS":"公園路６２４巷４４號","OBJECTID":370043},"geometry":{"x":169174.76000000071,"y":2545297.2200000007}},{"attributes":{"ID":370054,"DIS_CODE":0,"TOWNNAME":"北區","LI":"興北里","LIN":"12鄰","STREET":"公園路","SECT":" ","MAREA":" ","LANE":"６２４巷","ALLEY":" ","HOUSE_NO":"４６號","E_COORD97":169178.70999999999,"N_COORD97":2545298.9399999999,"ADDRESS":"公園路６２４巷４６號","OBJECTID":370044},"geometry":{"x":169178.71000000089,"y":2545298.9400000032}},{"attributes":{"ID":370055,"DIS_CODE":0,"TOWNNAME":"北區","LI":"興北里","LIN":"12鄰","STREET":"公園路","SECT":" ","MAREA":" ","LANE":"６２４巷","ALLEY":" ","HOUSE_NO":"４８號","E_COORD97":169183.17999999999,"N_COORD97":2545297.6299999999,"ADDRESS":"公園路６２４巷４８號","OBJECTID":370045},"geometry":{"x":169183.18000000156,"y":2545297.6300000008}},{"attributes":{"ID":370056,"DIS_CODE":0,"TOWNNAME":"北區","LI":"興北里","LIN":"12鄰","STREET":"公園路","SECT":" ","MAREA":" ","LANE":"６２４巷","ALLEY":" ","HOUSE_NO":"５０號","E_COORD97":169194.28,"N_COORD97":2545299.1499999999,"ADDRESS":"公園路６２４巷５０號","OBJECTID":370046},"geometry":{"x":169194.28000000026,"y":2545299.1500000022}},{"attributes":{"ID":370057,"DIS_CODE":0,"TOWNNAME":"北區","LI":"興北里","LIN":"12鄰","STREET":"公園路","SECT":" ","MAREA":" ","LANE":"６２４巷","ALLEY":" ","HOUSE_NO":"５２號","E_COORD97":169198.54000000001,"N_COORD97":2545299.25,"ADDRESS":"公園路６２４巷５２號","OBJECTID":370047},"geometry":{"x":169198.54000000097,"y":2545299.25}},{"attributes":{"ID":370058,"DIS_CODE":0,"TOWNNAME":"北區","LI":"興北里","LIN":"12鄰","STREET":"公園路","SECT":" ","MAREA":" ","LANE":"６２４巷","ALLEY":" ","HOUSE_NO":"５４號","E_COORD97":169202.89999999999,"N_COORD97":2545299.3500000001,"ADDRESS":"公園路６２４巷５４號","OBJECTID":370048},"geometry":{"x":169202.9000000013,"y":2545299.3499999996}},{"attributes":{"ID":370059,"DIS_CODE":0,"TOWNNAME":"北區","LI":"興北里","LIN":"12鄰","STREET":"公園路","SECT":" ","MAREA":" ","LANE":"６２４巷","ALLEY":" ","HOUSE_NO":"５８號","E_COORD97":169210.91,"N_COORD97":2545299.25,"ADDRESS":"公園路６２４巷５８號","OBJECTID":370049},"geometry":{"x":169210.91000000201,"y":2545299.25}},{"attributes":{"ID":370060,"DIS_CODE":0,"TOWNNAME":"北區","LI":"興北里","LIN":"12鄰","STREET":"公園路","SECT":" ","MAREA":" ","LANE":"６２４巷","ALLEY":" ","HOUSE_NO":"６０號","E_COORD97":169214.76000000001,"N_COORD97":2545297.9399999999,"ADDRESS":"公園路６２４巷６０號","OBJECTID":370050},"geometry":{"x":169214.75999999885,"y":2545297.9399999995}},{"attributes":{"ID":370061,"DIS_CODE":0,"TOWNNAME":"北區","LI":"興北里","LIN":"12鄰","STREET":"公園路","SECT":" ","MAREA":" ","LANE":"６２４巷","ALLEY":" ","HOUSE_NO":"６２號","E_COORD97":169219.12,"N_COORD97":2545300.0600000001,"ADDRESS":"公園路６２４巷６２號","OBJECTID":370051},"geometry":{"x":169219.12000000011,"y":2545300.0600000024}},{"attributes":{"ID":370062,"DIS_CODE":0,"TOWNNAME":"北區","LI":"興北里","LIN":"12鄰","STREET":"公園路","SECT":" ","MAREA":" ","LANE":"６２４巷","ALLEY":" ","HOUSE_NO":"６４號","E_COORD97":169222.76999999999,"N_COORD97":2545299.25,"ADDRESS":"公園路６２４巷６４號","OBJECTID":370052},"geometry":{"x":169222.76999999955,"y":2545299.25}},{"attributes":{"ID":370063,"DIS_CODE":0,"TOWNNAME":"北區","LI":"興北里","LIN":"12鄰","STREET":"公園路","SECT":" ","MAREA":" ","LANE":"６２４巷","ALLEY":" ","HOUSE_NO":"６６號","E_COORD97":169226.92999999999,"N_COORD97":2545299.6600000001,"ADDRESS":"公園路６２４巷６６號","OBJECTID":370053},"geometry":{"x":169226.9299999997,"y":2545299.660000002}},{"attributes":{"ID":370064,"DIS_CODE":0,"TOWNNAME":"北區","LI":"興北里","LIN":"12鄰","STREET":"公園路","SECT":" ","MAREA":" ","LANE":"６２４巷","ALLEY":" ","HOUSE_NO":"６８號","E_COORD97":169231.48999999999,"N_COORD97":2545300.27,"ADDRESS":"公園路６２４巷６８號","OBJECTID":370054},"geometry":{"x":169231.49000000115,"y":2545300.2700000033}},{"attributes":{"ID":370065,"DIS_CODE":0,"TOWNNAME":"北區","LI":"興北里","LIN":"12鄰","STREET":"公園路","SECT":" ","MAREA":" ","LANE":"６２４巷","ALLEY":" ","HOUSE_NO":"７０號","E_COORD97":169236.26000000001,"N_COORD97":2545300.5699999998,"ADDRESS":"公園路６２４巷７０號","OBJECTID":370055},"geometry":{"x":169236.25999999978,"y":2545300.5700000003}},{"attributes":{"ID":370066,"DIS_CODE":0,"TOWNNAME":"北區","LI":"興北里","LIN":"12鄰","STREET":"公園路","SECT":" ","MAREA":" ","LANE":"６２４巷","ALLEY":" ","HOUSE_NO":"７２號","E_COORD97":169240.20999999999,"N_COORD97":2545301.3799999999,"ADDRESS":"公園路６２４巷７２號","OBJECTID":370056},"geometry":{"x":169240.20999999996,"y":2545301.379999999}},{"attributes":{"ID":370067,"DIS_CODE":0,"TOWNNAME":"北區","LI":"興北里","LIN":"12鄰","STREET":"公園路","SECT":" ","MAREA":" ","LANE":"６２４巷","ALLEY":" ","HOUSE_NO":"７４號","E_COORD97":169244.5,"N_COORD97":2545300.3700000001,"ADDRESS":"公園路６２４巷７４號","OBJECTID":370057},"geometry":{"x":169244.50000000093,"y":2545300.370000001}},{"attributes":{"ID":370068,"DIS_CODE":0,"TOWNNAME":"北區","LI":"興北里","LIN":"12鄰","STREET":"公園路","SECT":" ","MAREA":" ","LANE":"６２４巷","ALLEY":" ","HOUSE_NO":"７６號","E_COORD97":169247.73999999999,"N_COORD97":2545301.5899999999,"ADDRESS":"公園路６２４巷７６號","OBJECTID":370058},"geometry":{"x":169247.74000000209,"y":2545301.5900000036}},{"attributes":{"ID":370069,"DIS_CODE":0,"TOWNNAME":"北區","LI":"興北里","LIN":"12鄰","STREET":"公園路","SECT":" ","MAREA":" ","LANE":"６２４巷","ALLEY":" ","HOUSE_NO":"７８號","E_COORD97":169252.20000000001,"N_COORD97":2545301.6899999999,"ADDRESS":"公園路６２４巷７８號","OBJECTID":370059},"geometry":{"x":169252.20000000019,"y":2545301.6900000013}},{"attributes":{"ID":370070,"DIS_CODE":0,"TOWNNAME":"北區","LI":"興北里","LIN":"12鄰","STREET":"公園路","SECT":" ","MAREA":" ","LANE":"６２４巷","ALLEY":" ","HOUSE_NO":"８０號","E_COORD97":169255.95000000001,"N_COORD97":2545302.2000000002,"ADDRESS":"公園路６２４巷８０號","OBJECTID":370060},"geometry":{"x":169255.95000000019,"y":2545302.1999999993}},{"attributes":{"ID":370071,"DIS_CODE":0,"TOWNNAME":"北區","LI":"興北里","LIN":"12鄰","STREET":"公園路","SECT":" ","MAREA":" ","LANE":"６２４巷","ALLEY":" ","HOUSE_NO":"８２號","E_COORD97":169260.82000000001,"N_COORD97":2545302.3999999999,"ADDRESS":"公園路６２４巷８２號","OBJECTID":370061},"geometry":{"x":169260.82000000216,"y":2545302.4000000004}},{"attributes":{"ID":370072,"DIS_CODE":0,"TOWNNAME":"北區","LI":"興北里","LIN":"12鄰","STREET":"公園路","SECT":" ","MAREA":" ","LANE":"６２４巷","ALLEY":" ","HOUSE_NO":"８４號","E_COORD97":169264.47,"N_COORD97":2545303.21,"ADDRESS":"公園路６２４巷８４號","OBJECTID":370062},"geometry":{"x":169264.47000000067,"y":2545303.2100000028}},{"attributes":{"ID":370073,"DIS_CODE":0,"TOWNNAME":"北區","LI":"興北里","LIN":"12鄰","STREET":"公園路","SECT":" ","MAREA":" ","LANE":"６２４巷","ALLEY":" ","HOUSE_NO":"８６號","E_COORD97":169269.17999999999,"N_COORD97":2545302.8199999998,"ADDRESS":"公園路６２４巷８６號","OBJECTID":370063},"geometry":{"x":169269.1799999997,"y":2545302.8200000003}},{"attributes":{"ID":370074,"DIS_CODE":0,"TOWNNAME":"北區","LI":"興北里","LIN":"12鄰","STREET":"公園路","SECT":" ","MAREA":" ","LANE":"６２４巷","ALLEY":" ","HOUSE_NO":"８８號","E_COORD97":169274.35000000001,"N_COORD97":2545303.1299999999,"ADDRESS":"公園路６２４巷８８號","OBJECTID":370064},"geometry":{"x":169274.34999999963,"y":2545303.129999999}},{"attributes":{"ID":370075,"DIS_CODE":0,"TOWNNAME":"北區","LI":"興北里","LIN":"12鄰","STREET":"公園路","SECT":" ","MAREA":" ","LANE":"６２４巷","ALLEY":" ","HOUSE_NO":"９０號","E_COORD97":169285.20000000001,"N_COORD97":2545303.4300000002,"ADDRESS":"公園路６２４巷９０號","OBJECTID":370065},"geometry":{"x":169285.20000000205,"y":2545303.4300000016}},{"attributes":{"ID":370076,"DIS_CODE":0,"TOWNNAME":"北區","LI":"興北里","LIN":"12鄰","STREET":"公園路","SECT":" ","MAREA":" ","LANE":"６２４巷","ALLEY":" ","HOUSE_NO":"９２號","E_COORD97":169290.67000000001,"N_COORD97":2545303.5299999998,"ADDRESS":"公園路６２４巷９２號","OBJECTID":370066},"geometry":{"x":169290.67000000086,"y":2545303.5299999993}},{"attributes":{"ID":370077,"DIS_CODE":0,"TOWNNAME":"北區","LI":"興北里","LIN":"12鄰","STREET":"公園路","SECT":" ","MAREA":" ","LANE":"６２４巷","ALLEY":" ","HOUSE_NO":"９４號","E_COORD97":169294.73000000001,"N_COORD97":2545303.6400000001,"ADDRESS":"公園路６２４巷９４號","OBJECTID":370067},"geometry":{"x":169294.73000000045,"y":2545303.6400000025}},{"attributes":{"ID":370078,"DIS_CODE":0,"TOWNNAME":"北區","LI":"興北里","LIN":"12鄰","STREET":"公園路","SECT":" ","MAREA":" ","LANE":"６２４巷","ALLEY":" ","HOUSE_NO":"９６號","E_COORD97":169298.20999999999,"N_COORD97":2545303.0299999998,"ADDRESS":"公園路６２４巷９６號","OBJECTID":370068},"geometry":{"x":169298.20999999996,"y":2545303.0300000012}},{"attributes":{"ID":370079,"DIS_CODE":0,"TOWNNAME":"北區","LI":"興北里","LIN":"12鄰","STREET":"公園路","SECT":" ","MAREA":" ","LANE":"６２４巷","ALLEY":" ","HOUSE_NO":"９８號","E_COORD97":169302.97,"N_COORD97":2545304.4500000002,"ADDRESS":"公園路６２４巷９８號","OBJECTID":370069},"geometry":{"x":169302.96999999974,"y":2545304.4499999993}},{"attributes":{"ID":370080,"DIS_CODE":0,"TOWNNAME":"北區","LI":"興南里","LIN":"12鄰","STREET":"西門路","SECT":"四段","MAREA":" ","LANE":"１６巷","ALLEY":" ","HOUSE_NO":"１１號","E_COORD97":168691.28,"N_COORD97":2545169.77,"ADDRESS":"西門路四段１６巷１１號","OBJECTID":370070},"geometry":{"x":168691.28000000026,"y":2545169.7699999996}},{"attributes":{"ID":370081,"DIS_CODE":0,"TOWNNAME":"北區","LI":"興南里","LIN":"12鄰","STREET":"西門路","SECT":"四段","MAREA":" ","LANE":"１６巷","ALLEY":" ","HOUSE_NO":"１５號","E_COORD97":168696.64999999999,"N_COORD97":2545166.25,"ADDRESS":"西門路四段１６巷１５號","OBJECTID":370071},"geometry":{"x":168696.6500000013,"y":2545166.2500000019}},{"attributes":{"ID":370082,"DIS_CODE":0,"TOWNNAME":"北區","LI":"興南里","LIN":"12鄰","STREET":"西門路","SECT":"四段","MAREA":" ","LANE":"１６巷","ALLEY":" ","HOUSE_NO":"１７號","E_COORD97":168700.84,"N_COORD97":2545165.75,"ADDRESS":"西門路四段１６巷１７號","OBJECTID":370072},"geometry":{"x":168700.84000000171,"y":2545165.7500000019}},{"attributes":{"ID":370083,"DIS_CODE":0,"TOWNNAME":"北區","LI":"興南里","LIN":"12鄰","STREET":"西門路","SECT":"四段","MAREA":" ","LANE":"１６巷","ALLEY":" ","HOUSE_NO":"１９號","E_COORD97":168704.87,"N_COORD97":2545165.0800000001,"ADDRESS":"西門路四段１６巷１９號","OBJECTID":370073},"geometry":{"x":168704.87000000104,"y":2545165.0800000001}},{"attributes":{"ID":370084,"DIS_CODE":0,"TOWNNAME":"仁德區","LI":"一甲里","LIN":"5鄰","STREET":"忠義三街","SECT":" ","MAREA":" ","LANE":"８巷","ALLEY":" ","HOUSE_NO":"４號","E_COORD97":173622.48000000001,"N_COORD97":2541653.27,"ADDRESS":"忠義三街８巷４號","OBJECTID":370074},"geometry":{"x":173622.48000000045,"y":2541653.2700000014}},{"attributes":{"ID":370085,"DIS_CODE":0,"TOWNNAME":"北區","LI":"興南里","LIN":"12鄰","STREET":"西門路","SECT":"四段","MAREA":" ","LANE":"１６巷","ALLEY":" ","HOUSE_NO":"２１號","E_COORD97":168708.56,"N_COORD97":2545164.4100000001,"ADDRESS":"西門路四段１６巷２１號","OBJECTID":370075},"geometry":{"x":168708.55999999959,"y":2545164.4100000039}},{"attributes":{"ID":370086,"DIS_CODE":0,"TOWNNAME":"北區","LI":"興南里","LIN":"12鄰","STREET":"西門路","SECT":"四段","MAREA":" ","LANE":"１６巷","ALLEY":" ","HOUSE_NO":"２３號","E_COORD97":168715.26999999999,"N_COORD97":2545162.0699999998,"ADDRESS":"西門路四段１６巷２３號","OBJECTID":370076},"geometry":{"x":168715.27000000048,"y":2545162.0700000003}},{"attributes":{"ID":370087,"DIS_CODE":0,"TOWNNAME":"北區","LI":"興南里","LIN":"12鄰","STREET":"西門路","SECT":"四段","MAREA":" ","LANE":"１６巷","ALLEY":" ","HOUSE_NO":"２５號","E_COORD97":168722.48000000001,"N_COORD97":2545160.7200000002,"ADDRESS":"西門路四段１６巷２５號","OBJECTID":370077},"geometry":{"x":168722.48000000231,"y":2545160.7200000025}},{"attributes":{"ID":370088,"DIS_CODE":0,"TOWNNAME":"北區","LI":"興南里","LIN":"12鄰","STREET":"西門路","SECT":"四段","MAREA":" ","LANE":"１６巷","ALLEY":" ","HOUSE_NO":"２７號","E_COORD97":168728.51999999999,"N_COORD97":2545159.7200000002,"ADDRESS":"西門路四段１６巷２７號","OBJECTID":370078},"geometry":{"x":168728.52000000048,"y":2545159.7200000025}},{"attributes":{"ID":370089,"DIS_CODE":0,"TOWNNAME":"北區","LI":"興南里","LIN":"12鄰","STREET":"西門路","SECT":"四段","MAREA":" ","LANE":"１６巷","ALLEY":" ","HOUSE_NO":"２９號","E_COORD97":168733.38,"N_COORD97":2545160.5600000001,"ADDRESS":"西門路四段１６巷２９號","OBJECTID":370079},"geometry":{"x":168733.38000000082,"y":2545160.5600000024}},{"attributes":{"ID":370090,"DIS_CODE":0,"TOWNNAME":"六甲區","LI":"甲東里","LIN":"12鄰","STREET":"裕農街","SECT":" ","MAREA":" ","LANE":"２９６巷","ALLEY":" ","HOUSE_NO":"２８號","E_COORD97":184127.14999999999,"N_COORD97":2570081.25,"ADDRESS":"裕農街２９６巷２８號","OBJECTID":370080},"geometry":{"x":184127.15000000224,"y":2570081.2500000037}},{"attributes":{"ID":370091,"DIS_CODE":0,"TOWNNAME":"六甲區","LI":"甲東里","LIN":"12鄰","STREET":"裕農街","SECT":" ","MAREA":" ","LANE":"２９６巷","ALLEY":" ","HOUSE_NO":"２９號","E_COORD97":184147.37,"N_COORD97":2570052.0499999998,"ADDRESS":"裕農街２９６巷２９號","OBJECTID":370081},"geometry":{"x":184147.37000000197,"y":2570052.0500000007}},{"attributes":{"ID":370092,"DIS_CODE":0,"TOWNNAME":"六甲區","LI":"甲東里","LIN":"12鄰","STREET":"裕農街","SECT":" ","MAREA":" ","LANE":"２９６巷","ALLEY":" ","HOUSE_NO":"３９號","E_COORD97":184164.75,"N_COORD97":2570055.2599999998,"ADDRESS":"裕農街２９６巷３９號","OBJECTID":370082},"geometry":{"x":184164.75,"y":2570055.2600000016}},{"attributes":{"ID":370093,"DIS_CODE":0,"TOWNNAME":"六甲區","LI":"甲東里","LIN":"12鄰","STREET":"裕農街","SECT":" ","MAREA":" ","LANE":"２９６巷","ALLEY":" ","HOUSE_NO":"４３號","E_COORD97":184165.73999999999,"N_COORD97":2570046.98,"ADDRESS":"裕農街２９６巷４３號","OBJECTID":370083},"geometry":{"x":184165.74000000115,"y":2570046.9800000023}},{"attributes":{"ID":370094,"DIS_CODE":0,"TOWNNAME":"六甲區","LI":"甲東里","LIN":"12鄰","STREET":"裕農街","SECT":" ","MAREA":" ","LANE":"２９６巷","ALLEY":" ","HOUSE_NO":"４５號","E_COORD97":184166.28,"N_COORD97":2570042.7400000002,"ADDRESS":"裕農街２９６巷４５號","OBJECTID":370084},"geometry":{"x":184166.28000000026,"y":2570042.7400000002}},{"attributes":{"ID":370095,"DIS_CODE":0,"TOWNNAME":"六甲區","LI":"甲東里","LIN":"12鄰","STREET":"裕農街","SECT":" ","MAREA":" ","LANE":"２９６巷","ALLEY":" ","HOUSE_NO":"５５號","E_COORD97":184211.54999999999,"N_COORD97":2570051.1800000002,"ADDRESS":"裕農街２９６巷５５號","OBJECTID":370085},"geometry":{"x":184211.54999999981,"y":2570051.1800000016}},{"attributes":{"ID":370096,"DIS_CODE":0,"TOWNNAME":"關廟區","LI":"南花里","LIN":"12鄰","STREET":"明德街","SECT":" ","MAREA":" ","LANE":"１５巷","ALLEY":" ","HOUSE_NO":"５３號","E_COORD97":181745.89000000001,"N_COORD97":2539972.27,"ADDRESS":"明德街１５巷５３號","OBJECTID":370086},"geometry":{"x":181745.88999999966,"y":2539972.2699999996}},{"attributes":{"ID":370097,"DIS_CODE":0,"TOWNNAME":"關廟區","LI":"埤頭里","LIN":"12鄰","STREET":"保東二街","SECT":" ","MAREA":" ","LANE":"１３１巷","ALLEY":" ","HOUSE_NO":"１０８號","E_COORD97":178577.42000000001,"N_COORD97":2544507.25,"ADDRESS":"保東二街１３１巷１０８號","OBJECTID":370087},"geometry":{"x":178577.41999999993,"y":2544507.2500000037}},{"attributes":{"ID":370098,"DIS_CODE":0,"TOWNNAME":"安平區","LI":"港仔里","LIN":"12鄰","STREET":"延平街","SECT":" ","MAREA":" ","LANE":"２１巷","ALLEY":" ","HOUSE_NO":"４號","E_COORD97":164280.32000000001,"N_COORD97":2544546.8999999999,"ADDRESS":"延平街２１巷４號","OBJECTID":370088},"geometry":{"x":164280.32000000216,"y":2544546.9000000004}},{"attributes":{"ID":370099,"DIS_CODE":0,"TOWNNAME":"關廟區","LI":"深坑里","LIN":"12鄰","STREET":"南雄路","SECT":"一段","MAREA":" ","LANE":"４９５巷","ALLEY":" ","HOUSE_NO":"８８號","E_COORD97":181430.72,"N_COORD97":2537752.2999999998,"ADDRESS":"南雄路一段４９５巷８８號","OBJECTID":370089},"geometry":{"x":181430.7200000016,"y":2537752.3000000026}},{"attributes":{"ID":370100,"DIS_CODE":0,"TOWNNAME":"關廟區","LI":"北勢里","LIN":"12鄰","STREET":"仁愛路","SECT":" ","MAREA":" ","LANE":"２９２巷","ALLEY":" ","HOUSE_NO":"１號","E_COORD97":181516.09,"N_COORD97":2540634.2799999998,"ADDRESS":"仁愛路２９２巷１號","OBJECTID":370090},"geometry":{"x":181516.08999999985,"y":2540634.2799999993}},{"attributes":{"ID":370101,"DIS_CODE":0,"TOWNNAME":"關廟區","LI":"南花里","LIN":"12鄰","STREET":"明德街","SECT":" ","MAREA":" ","LANE":"１５巷","ALLEY":" ","HOUSE_NO":"６８號","E_COORD97":181728.59,"N_COORD97":2540021.27,"ADDRESS":"明德街１５巷６８號","OBJECTID":370091},"geometry":{"x":181728.59000000078,"y":2540021.2700000033}},{"attributes":{"ID":370102,"DIS_CODE":0,"TOWNNAME":"關廟區","LI":"關廟里","LIN":"12鄰","STREET":"民生街","SECT":" ","MAREA":" ","LANE":"１５２巷","ALLEY":" ","HOUSE_NO":"１１號","E_COORD97":180911.14000000001,"N_COORD97":2539827.29,"ADDRESS":"民生街１５２巷１１號","OBJECTID":370092},"geometry":{"x":180911.1400000006,"y":2539827.2899999972}},{"attributes":{"ID":370103,"DIS_CODE":0,"TOWNNAME":"關廟區","LI":"五甲里","LIN":"12鄰","STREET":"東興路","SECT":" ","MAREA":" ","LANE":"１７巷","ALLEY":" ","HOUSE_NO":"９號","E_COORD97":181279.12,"N_COORD97":2539582.25,"ADDRESS":"東興路１７巷９號","OBJECTID":370093},"geometry":{"x":181279.12000000197,"y":2539582.2500000019}},{"attributes":{"ID":370104,"DIS_CODE":0,"TOWNNAME":"關廟區","LI":"埤頭里","LIN":"12鄰","STREET":"保東二街","SECT":" ","MAREA":" ","LANE":"１３１巷","ALLEY":" ","HOUSE_NO":"７２號","E_COORD97":178580.07000000001,"N_COORD97":2544461.2999999998,"ADDRESS":"保東二街１３１巷７２號","OBJECTID":370094},"geometry":{"x":178580.07000000123,"y":2544461.3000000026}},{"attributes":{"ID":370105,"DIS_CODE":0,"TOWNNAME":"北區","LI":"元寶里","LIN":"12鄰","STREET":"北園街","SECT":" ","MAREA":" ","LANE":"８巷","ALLEY":" ","HOUSE_NO":"８８號","E_COORD97":170431.51000000001,"N_COORD97":2545778.7599999998,"ADDRESS":"北園街８巷８８號","OBJECTID":370095},"geometry":{"x":170431.50999999978,"y":2545778.7600000016}},{"attributes":{"ID":370106,"DIS_CODE":0,"TOWNNAME":"北區","LI":"元寶里","LIN":"12鄰","STREET":"北園街","SECT":" ","MAREA":" ","LANE":"８巷","ALLEY":" ","HOUSE_NO":"７７號","E_COORD97":170414.53,"N_COORD97":2545754.4700000002,"ADDRESS":"北園街８巷７７號","OBJECTID":370096},"geometry":{"x":170414.53000000119,"y":2545754.4700000044}},{"attributes":{"ID":370107,"DIS_CODE":0,"TOWNNAME":"北區","LI":"元寶里","LIN":"12鄰","STREET":"北園街","SECT":" ","MAREA":" ","LANE":"８巷","ALLEY":" ","HOUSE_NO":"７９號","E_COORD97":170414.04999999999,"N_COORD97":2545762.73,"ADDRESS":"北園街８巷７９號","OBJECTID":370097},"geometry":{"x":170414.04999999981,"y":2545762.7300000023}},{"attributes":{"ID":370108,"DIS_CODE":0,"TOWNNAME":"北區","LI":"元寶里","LIN":"12鄰","STREET":"北園街","SECT":" ","MAREA":" ","LANE":"８巷","ALLEY":" ","HOUSE_NO":"８１號","E_COORD97":170415,"N_COORD97":2545767.8100000001,"ADDRESS":"北園街８巷８１號","OBJECTID":370098},"geometry":{"x":170415,"y":2545767.8100000005}},{"attributes":{"ID":370109,"DIS_CODE":0,"TOWNNAME":"北區","LI":"元寶里","LIN":"12鄰","STREET":"北園街","SECT":" ","MAREA":" ","LANE":"８巷","ALLEY":" ","HOUSE_NO":"８６號","E_COORD97":170431.82999999999,"N_COORD97":2545773.2000000002,"ADDRESS":"北園街８巷８６號","OBJECTID":370099},"geometry":{"x":170431.83000000194,"y":2545773.2000000011}},{"attributes":{"ID":370110,"DIS_CODE":0,"TOWNNAME":"北區","LI":"元寶里","LIN":"12鄰","STREET":"北園街","SECT":" ","MAREA":" ","LANE":"８巷","ALLEY":" ","HOUSE_NO":"８３號","E_COORD97":170414.04999999999,"N_COORD97":2545772.4100000001,"ADDRESS":"北園街８巷８３號","OBJECTID":370100},"geometry":{"x":170414.04999999981,"y":2545772.410000002}},{"attributes":{"ID":370111,"DIS_CODE":0,"TOWNNAME":"北區","LI":"元寶里","LIN":"12鄰","STREET":"北園街","SECT":" ","MAREA":" ","LANE":"８巷","ALLEY":" ","HOUSE_NO":"８５號","E_COORD97":170414.37,"N_COORD97":2545777.1699999999,"ADDRESS":"北園街８巷８５號","OBJECTID":370101},"geometry":{"x":170414.37000000011,"y":2545777.1700000018}},{"attributes":{"ID":370112,"DIS_CODE":0,"TOWNNAME":"安平區","LI":"海頭里","LIN":"12鄰","STREET":"安北路","SECT":" ","MAREA":" ","LANE":"１２１巷","ALLEY":" ","HOUSE_NO":"６號","E_COORD97":164189.53,"N_COORD97":2544795.8999999999,"ADDRESS":"安北路１２１巷６號","OBJECTID":370102},"geometry":{"x":164189.53000000119,"y":2544795.9000000022}},{"attributes":{"ID":370113,"DIS_CODE":0,"TOWNNAME":"安平區","LI":"海頭里","LIN":"12鄰","STREET":"安北路","SECT":" ","MAREA":" ","LANE":"１２１巷","ALLEY":" ","HOUSE_NO":"８之１號","E_COORD97":164179.31,"N_COORD97":2544797.6499999999,"ADDRESS":"安北路１２１巷８之１號","OBJECTID":370103},"geometry":{"x":164179.30999999959,"y":2544797.6500000022}},{"attributes":{"ID":370114,"DIS_CODE":0,"TOWNNAME":"安平區","LI":"海頭里","LIN":"12鄰","STREET":"安北路","SECT":" ","MAREA":" ","LANE":"１２１巷","ALLEY":" ","HOUSE_NO":"８號","E_COORD97":164184.48999999999,"N_COORD97":2544795.7599999998,"ADDRESS":"安北路１２１巷８號","OBJECTID":370104},"geometry":{"x":164184.49000000115,"y":2544795.7600000016}},{"attributes":{"ID":370115,"DIS_CODE":0,"TOWNNAME":"安平區","LI":"海頭里","LIN":"12鄰","STREET":"安北路","SECT":" ","MAREA":" ","LANE":"１３１巷","ALLEY":" ","HOUSE_NO":"３號","E_COORD97":164158.03,"N_COORD97":2544807.2400000002,"ADDRESS":"安北路１３１巷３號","OBJECTID":370105},"geometry":{"x":164158.03000000026,"y":2544807.2400000021}},{"attributes":{"ID":370116,"DIS_CODE":0,"TOWNNAME":"南區","LI":"金華里","LIN":"12鄰","STREET":"金華路","SECT":"二段","MAREA":" ","LANE":"１４７巷","ALLEY":" ","HOUSE_NO":"５２號","E_COORD97":166934.01000000001,"N_COORD97":2542389.0699999998,"ADDRESS":"金華路二段１４７巷５２號","OBJECTID":370106},"geometry":{"x":166934.00999999978,"y":2542389.0700000003}},{"attributes":{"ID":370117,"DIS_CODE":0,"TOWNNAME":"南區","LI":"金華里","LIN":"12鄰","STREET":"金華路","SECT":"二段","MAREA":" ","LANE":"１４７巷","ALLEY":" ","HOUSE_NO":"６４號","E_COORD97":166888.75,"N_COORD97":2542389.3300000001,"ADDRESS":"金華路二段１４７巷６４號","OBJECTID":370107},"geometry":{"x":166888.75,"y":2542389.3300000019}},{"attributes":{"ID":370118,"DIS_CODE":0,"TOWNNAME":"南區","LI":"金華里","LIN":"12鄰","STREET":"金華路","SECT":"二段","MAREA":" ","LANE":"１４７巷","ALLEY":" ","HOUSE_NO":"６６號","E_COORD97":166882.95999999999,"N_COORD97":2542389.5899999999,"ADDRESS":"金華路二段１４７巷６６號","OBJECTID":370108},"geometry":{"x":166882.96000000089,"y":2542389.5900000036}},{"attributes":{"ID":370119,"DIS_CODE":0,"TOWNNAME":"南區","LI":"金華里","LIN":"12鄰","STREET":"健康路","SECT":"二段","MAREA":" ","LANE":"２６３巷","ALLEY":" ","HOUSE_NO":"１０號","E_COORD97":166947.70000000001,"N_COORD97":2542427.4300000002,"ADDRESS":"健康路二段２６３巷１０號","OBJECTID":370109},"geometry":{"x":166947.70000000112,"y":2542427.4300000034}},{"attributes":{"ID":370120,"DIS_CODE":0,"TOWNNAME":"南區","LI":"金華里","LIN":"12鄰","STREET":"健康路","SECT":"二段","MAREA":" ","LANE":"２６３巷","ALLEY":" ","HOUSE_NO":"１２號","E_COORD97":166946.38,"N_COORD97":2542423.2200000002,"ADDRESS":"健康路二段２６３巷１２號","OBJECTID":370110},"geometry":{"x":166946.38000000082,"y":2542423.2200000044}},{"attributes":{"ID":370121,"DIS_CODE":0,"TOWNNAME":"南區","LI":"金華里","LIN":"12鄰","STREET":"健康路","SECT":"二段","MAREA":" ","LANE":"２６３巷","ALLEY":" ","HOUSE_NO":"１３號","E_COORD97":166969.54000000001,"N_COORD97":2542421.9100000001,"ADDRESS":"健康路二段２６３巷１３號","OBJECTID":370111},"geometry":{"x":166969.54000000097,"y":2542421.910000002}},{"attributes":{"ID":370122,"DIS_CODE":0,"TOWNNAME":"南區","LI":"金華里","LIN":"12鄰","STREET":"健康路","SECT":"二段","MAREA":" ","LANE":"２６３巷","ALLEY":" ","HOUSE_NO":"１４號","E_COORD97":166945.06,"N_COORD97":2542417.4399999999,"ADDRESS":"健康路二段２６３巷１４號","OBJECTID":370112},"geometry":{"x":166945.06000000052,"y":2542417.4400000013}},{"attributes":{"ID":370123,"DIS_CODE":0,"TOWNNAME":"南區","LI":"金華里","LIN":"12鄰","STREET":"健康路","SECT":"二段","MAREA":" ","LANE":"２６３巷","ALLEY":" ","HOUSE_NO":"１５號","E_COORD97":166968.48999999999,"N_COORD97":2542411.9199999999,"ADDRESS":"健康路二段２６３巷１５號","OBJECTID":370113},"geometry":{"x":166968.49000000115,"y":2542411.9200000018}},{"attributes":{"ID":370124,"DIS_CODE":0,"TOWNNAME":"南區","LI":"金華里","LIN":"12鄰","STREET":"健康路","SECT":"二段","MAREA":" ","LANE":"２６３巷","ALLEY":" ","HOUSE_NO":"１７號","E_COORD97":166968.48999999999,"N_COORD97":2542405.3599999999,"ADDRESS":"健康路二段２６３巷１７號","OBJECTID":370114},"geometry":{"x":166968.49000000115,"y":2542405.3600000013}},{"attributes":{"ID":370125,"DIS_CODE":0,"TOWNNAME":"南區","LI":"金華里","LIN":"12鄰","STREET":"健康路","SECT":"二段","MAREA":" ","LANE":"２６３巷","ALLEY":" ","HOUSE_NO":"１號","E_COORD97":166973.48999999999,"N_COORD97":2542448.1800000002,"ADDRESS":"健康路二段２６３巷１號","OBJECTID":370115},"geometry":{"x":166973.49000000115,"y":2542448.1799999997}},{"attributes":{"ID":370126,"DIS_CODE":0,"TOWNNAME":"南區","LI":"松安里","LIN":"12鄰","STREET":"灣裡路","SECT":" ","MAREA":" ","LANE":"４４０巷","ALLEY":" ","HOUSE_NO":"５號","E_COORD97":166196.39999999999,"N_COORD97":2536058.0299999998,"ADDRESS":"灣裡路４４０巷５號","OBJECTID":370116},"geometry":{"x":166196.40000000037,"y":2536058.0299999993}},{"attributes":{"ID":370127,"DIS_CODE":0,"TOWNNAME":"南區","LI":"松安里","LIN":"12鄰","STREET":"灣裡路","SECT":" ","MAREA":" ","LANE":"４１８巷","ALLEY":" ","HOUSE_NO":"９號","E_COORD97":166164.35999999999,"N_COORD97":2536092,"ADDRESS":"灣裡路４１８巷９號","OBJECTID":370117},"geometry":{"x":166164.36000000034,"y":2536092.0000000019}},{"attributes":{"ID":370128,"DIS_CODE":0,"TOWNNAME":"南區","LI":"松安里","LIN":"12鄰","STREET":"灣裡路","SECT":" ","MAREA":" ","LANE":"４４０巷","ALLEY":" ","HOUSE_NO":"１２號","E_COORD97":166162.03,"N_COORD97":2536075.5299999998,"ADDRESS":"灣裡路４４０巷１２號","OBJECTID":370118},"geometry":{"x":166162.03000000026,"y":2536075.5299999993}},{"attributes":{"ID":370129,"DIS_CODE":0,"TOWNNAME":"南區","LI":"松安里","LIN":"12鄰","STREET":"灣裡路","SECT":" ","MAREA":" ","LANE":"４４０巷","ALLEY":" ","HOUSE_NO":"１４號","E_COORD97":166148.59,"N_COORD97":2536076.25,"ADDRESS":"灣裡路４４０巷１４號","OBJECTID":370119},"geometry":{"x":166148.59000000078,"y":2536076.2500000019}},{"attributes":{"ID":370130,"DIS_CODE":0,"TOWNNAME":"南區","LI":"松安里","LIN":"12鄰","STREET":"灣裡路","SECT":" ","MAREA":" ","LANE":"４４０巷","ALLEY":" ","HOUSE_NO":"１８號","E_COORD97":166137.31,"N_COORD97":2536077.3199999998,"ADDRESS":"灣裡路４４０巷１８號","OBJECTID":370120},"geometry":{"x":166137.30999999959,"y":2536077.3200000003}},{"attributes":{"ID":370131,"DIS_CODE":0,"TOWNNAME":"南區","LI":"松安里","LIN":"12鄰","STREET":"灣裡路","SECT":" ","MAREA":" ","LANE":"４４０巷","ALLEY":" ","HOUSE_NO":"２０號","E_COORD97":166130.32000000001,"N_COORD97":2536078.04,"ADDRESS":"灣裡路４４０巷２０號","OBJECTID":370121},"geometry":{"x":166130.32000000123,"y":2536078.0399999991}},{"attributes":{"ID":370132,"DIS_CODE":0,"TOWNNAME":"南區","LI":"松安里","LIN":"12鄰","STREET":"灣裡路","SECT":" ","MAREA":" ","LANE":"４４０巷","ALLEY":" ","HOUSE_NO":"２２號","E_COORD97":166119.92999999999,"N_COORD97":2536083.9500000002,"ADDRESS":"灣裡路４４０巷２２號","OBJECTID":370122},"geometry":{"x":166119.93000000156,"y":2536083.9500000011}},{"attributes":{"ID":370133,"DIS_CODE":0,"TOWNNAME":"南區","LI":"松安里","LIN":"12鄰","STREET":"灣裡路","SECT":" ","MAREA":" ","LANE":"４４０巷","ALLEY":" ","HOUSE_NO":"２６號","E_COORD97":166108.03,"N_COORD97":2536089.6499999999,"ADDRESS":"灣裡路４４０巷２６號","OBJECTID":370123},"geometry":{"x":166108.03000000212,"y":2536089.6500000004}},{"attributes":{"ID":370134,"DIS_CODE":0,"TOWNNAME":"南區","LI":"松安里","LIN":"12鄰","STREET":"灣裡路","SECT":" ","MAREA":" ","LANE":"４４０巷","ALLEY":" ","HOUSE_NO":"２８號","E_COORD97":166101.79000000001,"N_COORD97":2536085.71,"ADDRESS":"灣裡路４４０巷２８號","OBJECTID":370124},"geometry":{"x":166101.79000000004,"y":2536085.7100000009}},{"attributes":{"ID":370135,"DIS_CODE":0,"TOWNNAME":"南區","LI":"松安里","LIN":"12鄰","STREET":"灣裡路","SECT":" ","MAREA":" ","LANE":"４４０巷","ALLEY":" ","HOUSE_NO":"３０號","E_COORD97":166097.19,"N_COORD97":2536078.3799999999,"ADDRESS":"灣裡路４４０巷３０號","OBJECTID":370125},"geometry":{"x":166097.19000000134,"y":2536078.3800000008}},{"attributes":{"ID":370136,"DIS_CODE":0,"TOWNNAME":"南區","LI":"松安里","LIN":"12鄰","STREET":"灣裡路","SECT":" ","MAREA":" ","LANE":"４４０巷","ALLEY":" ","HOUSE_NO":"３２號","E_COORD97":166089.97,"N_COORD97":2536079.4700000002,"ADDRESS":"灣裡路４４０巷３２號","OBJECTID":370126},"geometry":{"x":166089.97000000067,"y":2536079.4700000025}},{"attributes":{"ID":370137,"DIS_CODE":0,"TOWNNAME":"南區","LI":"松安里","LIN":"12鄰","STREET":"灣裡路","SECT":" ","MAREA":" ","LANE":"４４０巷","ALLEY":" ","HOUSE_NO":"１１號","E_COORD97":166170.85999999999,"N_COORD97":2536065.5800000001,"ADDRESS":"灣裡路４４０巷１１號","OBJECTID":370127},"geometry":{"x":166170.86000000127,"y":2536065.5800000001}},{"attributes":{"ID":370138,"DIS_CODE":0,"TOWNNAME":"南區","LI":"松安里","LIN":"12鄰","STREET":"灣裡路","SECT":" ","MAREA":" ","LANE":"４４０巷","ALLEY":" ","HOUSE_NO":"１３號","E_COORD97":166154.17999999999,"N_COORD97":2536061.3399999999,"ADDRESS":"灣裡路４４０巷１３號","OBJECTID":370128},"geometry":{"x":166154.18000000063,"y":2536061.3400000036}},{"attributes":{"ID":370139,"DIS_CODE":0,"TOWNNAME":"南區","LI":"松安里","LIN":"12鄰","STREET":"灣裡路","SECT":" ","MAREA":" ","LANE":"４４０巷","ALLEY":" ","HOUSE_NO":"１５號","E_COORD97":166155.41,"N_COORD97":2536066.73,"ADDRESS":"灣裡路４４０巷１５號","OBJECTID":370129},"geometry":{"x":166155.41000000015,"y":2536066.7300000023}},{"attributes":{"ID":370140,"DIS_CODE":0,"TOWNNAME":"南區","LI":"松安里","LIN":"12鄰","STREET":"灣裡路","SECT":" ","MAREA":" ","LANE":"４４０巷","ALLEY":" ","HOUSE_NO":"１７號","E_COORD97":166141.54000000001,"N_COORD97":2536061.0299999998,"ADDRESS":"灣裡路４４０巷１７號","OBJECTID":370130},"geometry":{"x":166141.5400000019,"y":2536061.0300000012}},{"attributes":{"ID":370141,"DIS_CODE":0,"TOWNNAME":"南區","LI":"松安里","LIN":"12鄰","STREET":"灣裡路","SECT":" ","MAREA":" ","LANE":"４４０巷","ALLEY":" ","HOUSE_NO":"１９號","E_COORD97":166140,"N_COORD97":2536070.8900000001,"ADDRESS":"灣裡路４４０巷１９號","OBJECTID":370131},"geometry":{"x":166139.99999999907,"y":2536070.8900000006}},{"attributes":{"ID":370142,"DIS_CODE":0,"TOWNNAME":"南區","LI":"松安里","LIN":"12鄰","STREET":"灣裡路","SECT":" ","MAREA":" ","LANE":"４４０巷","ALLEY":" ","HOUSE_NO":"１號","E_COORD97":166195.98999999999,"N_COORD97":2536067.1200000001,"ADDRESS":"灣裡路４４０巷１號","OBJECTID":370132},"geometry":{"x":166195.99000000022,"y":2536067.1199999992}},{"attributes":{"ID":370143,"DIS_CODE":0,"TOWNNAME":"南區","LI":"松安里","LIN":"12鄰","STREET":"灣裡路","SECT":" ","MAREA":" ","LANE":"４４０巷","ALLEY":" ","HOUSE_NO":"２５號","E_COORD97":166111.5,"N_COORD97":2536063.3799999999,"ADDRESS":"灣裡路４４０巷２５號","OBJECTID":370133},"geometry":{"x":166111.50000000093,"y":2536063.3800000027}},{"attributes":{"ID":370144,"DIS_CODE":0,"TOWNNAME":"南區","LI":"松安里","LIN":"12鄰","STREET":"灣裡路","SECT":" ","MAREA":" ","LANE":"４４０巷","ALLEY":" ","HOUSE_NO":"２７號","E_COORD97":166112.53,"N_COORD97":2536068.0899999999,"ADDRESS":"灣裡路４４０巷２７號","OBJECTID":370134},"geometry":{"x":166112.53000000026,"y":2536068.0899999999}},{"attributes":{"ID":370145,"DIS_CODE":0,"TOWNNAME":"南區","LI":"松安里","LIN":"12鄰","STREET":"灣裡路","SECT":" ","MAREA":" ","LANE":"４４０巷","ALLEY":" ","HOUSE_NO":"３號","E_COORD97":166196.20000000001,"N_COORD97":2536063.7200000002,"ADDRESS":"灣裡路４４０巷３號","OBJECTID":370135},"geometry":{"x":166196.20000000019,"y":2536063.7200000025}},{"attributes":{"ID":370146,"DIS_CODE":0,"TOWNNAME":"南區","LI":"松安里","LIN":"12鄰","STREET":"灣裡路","SECT":" ","MAREA":" ","LANE":"４４０巷","ALLEY":" ","HOUSE_NO":"９號","E_COORD97":166183.79000000001,"N_COORD97":2536061.96,"ADDRESS":"灣裡路４４０巷９號","OBJECTID":370136},"geometry":{"x":166183.79000000004,"y":2536061.9600000028}},{"attributes":{"ID":370147,"DIS_CODE":0,"TOWNNAME":"新營區","LI":"新北里","LIN":"12鄰","STREET":"南新街","SECT":" ","MAREA":" ","LANE":"５０巷","ALLEY":" ","HOUSE_NO":"１０號","E_COORD97":179349.89999999999,"N_COORD97":2578913.5699999998,"ADDRESS":"南新街５０巷１０號","OBJECTID":370137},"geometry":{"x":179349.90000000037,"y":2578913.5700000003}},{"attributes":{"ID":370148,"DIS_CODE":0,"TOWNNAME":"新營區","LI":"興業里","LIN":"12鄰","STREET":"中興路","SECT":" ","MAREA":" ","LANE":"１３巷","ALLEY":" ","HOUSE_NO":"２號","E_COORD97":180145.13,"N_COORD97":2577965.1400000001,"ADDRESS":"中興路１３巷２號","OBJECTID":370138},"geometry":{"x":180145.13000000082,"y":2577965.1400000043}},{"attributes":{"ID":370149,"DIS_CODE":0,"TOWNNAME":"新營區","LI":"忠政里","LIN":"12鄰","STREET":"府西路","SECT":" ","MAREA":" ","LANE":"２０２巷","ALLEY":" ","HOUSE_NO":"７０號","E_COORD97":179956.32000000001,"N_COORD97":2579530.8700000001,"ADDRESS":"府西路２０２巷７０號","OBJECTID":370139},"geometry":{"x":179956.32000000123,"y":2579530.8700000029}},{"attributes":{"ID":370150,"DIS_CODE":0,"TOWNNAME":"新營區","LI":"大宏里","LIN":"12鄰","STREET":"開元路","SECT":" ","MAREA":" ","LANE":"５９巷","ALLEY":" ","HOUSE_NO":"６號","E_COORD97":180843.37,"N_COORD97":2578770.2999999998,"ADDRESS":"開元路５９巷６號","OBJECTID":370140},"geometry":{"x":180843.36999999918,"y":2578770.3000000007}},{"attributes":{"ID":370151,"DIS_CODE":0,"TOWNNAME":"新營區","LI":"大宏里","LIN":"12鄰","STREET":"開元路","SECT":" ","MAREA":" ","LANE":"５９巷","ALLEY":" ","HOUSE_NO":"１６號","E_COORD97":180831.39999999999,"N_COORD97":2578788.0800000001,"ADDRESS":"開元路５９巷１６號","OBJECTID":370141},"geometry":{"x":180831.40000000037,"y":2578788.0800000001}},{"attributes":{"ID":370152,"DIS_CODE":0,"TOWNNAME":"新營區","LI":"忠政里","LIN":"12鄰","STREET":"府西路","SECT":" ","MAREA":" ","LANE":"２０２巷","ALLEY":" ","HOUSE_NO":"４７號","E_COORD97":179944.17999999999,"N_COORD97":2579546.4300000002,"ADDRESS":"府西路２０２巷４７號","OBJECTID":370142},"geometry":{"x":179944.18000000156,"y":2579546.4300000016}},{"attributes":{"ID":370153,"DIS_CODE":0,"TOWNNAME":"新營區","LI":"忠政里","LIN":"12鄰","STREET":"府西路","SECT":" ","MAREA":" ","LANE":"２０２巷","ALLEY":" ","HOUSE_NO":"５７號","E_COORD97":179987.07999999999,"N_COORD97":2579547.3300000001,"ADDRESS":"府西路２０２巷５７號","OBJECTID":370143},"geometry":{"x":179987.08000000007,"y":2579547.3300000019}},{"attributes":{"ID":370154,"DIS_CODE":0,"TOWNNAME":"新營區","LI":"忠政里","LIN":"12鄰","STREET":"府西路","SECT":" ","MAREA":" ","LANE":"２０２巷","ALLEY":" ","HOUSE_NO":"１３號","E_COORD97":179860.22,"N_COORD97":2579543.5,"ADDRESS":"府西路２０２巷１３號","OBJECTID":370144},"geometry":{"x":179860.21999999974,"y":2579543.5000000019}},{"attributes":{"ID":370155,"DIS_CODE":0,"TOWNNAME":"新營區","LI":"忠政里","LIN":"12鄰","STREET":"府西路","SECT":" ","MAREA":" ","LANE":"２０２巷","ALLEY":" ","HOUSE_NO":"３３號","E_COORD97":179912.45999999999,"N_COORD97":2579543.25,"ADDRESS":"府西路２０２巷３３號","OBJECTID":370145},"geometry":{"x":179912.46000000089,"y":2579543.25}},{"attributes":{"ID":370156,"DIS_CODE":0,"TOWNNAME":"東山區","LI":"東中里","LIN":"12鄰","STREET":"青葉路","SECT":"一段","MAREA":" ","LANE":"１２巷","ALLEY":" ","HOUSE_NO":"１８號","E_COORD97":188951.54999999999,"N_COORD97":2579093.3500000001,"ADDRESS":"青葉路一段１２巷１８號","OBJECTID":370146},"geometry":{"x":188951.54999999981,"y":2579093.3499999996}},{"attributes":{"ID":370157,"DIS_CODE":0,"TOWNNAME":"東山區","LI":"東中里","LIN":"12鄰","STREET":"青葉路","SECT":"一段","MAREA":" ","LANE":"１２巷","ALLEY":" ","HOUSE_NO":"８號","E_COORD97":188855.51999999999,"N_COORD97":2579087.9500000002,"ADDRESS":"青葉路一段１２巷８號","OBJECTID":370147},"geometry":{"x":188855.52000000048,"y":2579087.9500000011}},{"attributes":{"ID":370158,"DIS_CODE":0,"TOWNNAME":"東山區","LI":"東中里","LIN":"12鄰","STREET":"青葉路","SECT":"一段","MAREA":" ","LANE":"１巷","ALLEY":" ","HOUSE_NO":"１５號","E_COORD97":188483.12,"N_COORD97":2579080.1800000002,"ADDRESS":"青葉路一段１巷１５號","OBJECTID":370148},"geometry":{"x":188483.12000000011,"y":2579080.1800000016}},{"attributes":{"ID":370159,"DIS_CODE":0,"TOWNNAME":"北區","LI":"正覺里","LIN":"12鄰","STREET":"北安路","SECT":"一段","MAREA":" ","LANE":"５６巷","ALLEY":" ","HOUSE_NO":"１８號","E_COORD97":169223.28,"N_COORD97":2546303.8300000001,"ADDRESS":"北安路一段５６巷１８號","OBJECTID":370149},"geometry":{"x":169223.28000000026,"y":2546303.8300000038}},{"attributes":{"ID":370160,"DIS_CODE":0,"TOWNNAME":"北區","LI":"正覺里","LIN":"12鄰","STREET":"北安路","SECT":"一段","MAREA":" ","LANE":"５６巷","ALLEY":" ","HOUSE_NO":"２０號","E_COORD97":169225.28,"N_COORD97":2546307.2000000002,"ADDRESS":"北安路一段５６巷２０號","OBJECTID":370150},"geometry":{"x":169225.27999999933,"y":2546307.200000003}},{"attributes":{"ID":370161,"DIS_CODE":0,"TOWNNAME":"東區","LI":"和平里","LIN":"1鄰","STREET":"文化一街","SECT":" ","MAREA":" ","LANE":" ","ALLEY":" ","HOUSE_NO":"２號十二樓","E_COORD97":171099.45000000001,"N_COORD97":2542097.2200000002,"ADDRESS":"文化一街２號十二樓","OBJECTID":370151},"geometry":{"x":171099.45000000112,"y":2542097.2200000007}},{"attributes":{"ID":370162,"DIS_CODE":0,"TOWNNAME":"北區","LI":"正覺里","LIN":"12鄰","STREET":"北安路","SECT":"一段","MAREA":" ","LANE":"５６巷","ALLEY":" ","HOUSE_NO":"２２號","E_COORD97":169227.01000000001,"N_COORD97":2546311.1000000001,"ADDRESS":"北安路一段５６巷２２號","OBJECTID":370152},"geometry":{"x":169227.01000000071,"y":2546311.0999999996}},{"attributes":{"ID":370163,"DIS_CODE":0,"TOWNNAME":"北區","LI":"正覺里","LIN":"12鄰","STREET":"北安路","SECT":"一段","MAREA":" ","LANE":"５６巷","ALLEY":" ","HOUSE_NO":"２４號","E_COORD97":169233.89000000001,"N_COORD97":2546319.2200000002,"ADDRESS":"北安路一段５６巷２４號","OBJECTID":370153},"geometry":{"x":169233.88999999966,"y":2546319.2200000025}},{"attributes":{"ID":370164,"DIS_CODE":0,"TOWNNAME":"關廟區","LI":"東勢里","LIN":"12鄰","STREET":"旺萊路","SECT":" ","MAREA":" ","LANE":"３６２巷","ALLEY":" ","HOUSE_NO":"２７號","E_COORD97":182157.59,"N_COORD97":2539460.25,"ADDRESS":"旺萊路３６２巷２７號","OBJECTID":370154},"geometry":{"x":182157.59000000078,"y":2539460.2500000019}},{"attributes":{"ID":370165,"DIS_CODE":0,"TOWNNAME":"關廟區","LI":"東勢里","LIN":"12鄰","STREET":"旺萊路","SECT":" ","MAREA":" ","LANE":"３５６巷","ALLEY":" ","HOUSE_NO":"３１號","E_COORD97":182114.59,"N_COORD97":2539428.25,"ADDRESS":"旺萊路３５６巷３１號","OBJECTID":370155},"geometry":{"x":182114.58999999985,"y":2539428.25}},{"attributes":{"ID":370166,"DIS_CODE":0,"TOWNNAME":"關廟區","LI":"五甲里","LIN":"12鄰","STREET":"東興路","SECT":" ","MAREA":" ","LANE":"１７巷","ALLEY":" ","HOUSE_NO":"２１號","E_COORD97":181278.07000000001,"N_COORD97":2539608.25,"ADDRESS":"東興路１７巷２１號","OBJECTID":370156},"geometry":{"x":181278.07000000216,"y":2539608.2500000037}},{"attributes":{"ID":370167,"DIS_CODE":0,"TOWNNAME":"關廟區","LI":"東勢里","LIN":"12鄰","STREET":"旺萊路","SECT":" ","MAREA":" ","LANE":"３５６巷","ALLEY":" ","HOUSE_NO":"２９號","E_COORD97":182115.657435,"N_COORD97":2539444.96478,"ADDRESS":"旺萊路３５６巷２９號","OBJECTID":370157},"geometry":{"x":182115.65743500087,"y":2539444.9647790007}},{"attributes":{"ID":370168,"DIS_CODE":0,"TOWNNAME":"關廟區","LI":"南花里","LIN":"12鄰","STREET":"明德街","SECT":" ","MAREA":" ","LANE":"１５巷","ALLEY":" ","HOUSE_NO":"７１號","E_COORD97":181713.29000000001,"N_COORD97":2539989.27,"ADDRESS":"明德街１５巷７１號","OBJECTID":370158},"geometry":{"x":181713.29000000004,"y":2539989.2699999996}},{"attributes":{"ID":370169,"DIS_CODE":0,"TOWNNAME":"關廟區","LI":"深坑里","LIN":"12鄰","STREET":"深坑二街","SECT":" ","MAREA":" ","LANE":"４２巷","ALLEY":" ","HOUSE_NO":"６號","E_COORD97":181573.308028,"N_COORD97":2537660.33898,"ADDRESS":"深坑二街４２巷６號","OBJECTID":370159},"geometry":{"x":181573.30802800041,"y":2537660.3389750011}},{"attributes":{"ID":370170,"DIS_CODE":0,"TOWNNAME":"關廟區","LI":"東勢里","LIN":"12鄰","STREET":"旺萊路","SECT":" ","MAREA":" ","LANE":"３６２巷","ALLEY":" ","HOUSE_NO":"２５號","E_COORD97":182137.59,"N_COORD97":2539473.25,"ADDRESS":"旺萊路３６２巷２５號","OBJECTID":370160},"geometry":{"x":182137.59000000078,"y":2539473.2500000019}},{"attributes":{"ID":370171,"DIS_CODE":0,"TOWNNAME":"關廟區","LI":"東勢里","LIN":"12鄰","STREET":"旺萊路","SECT":" ","MAREA":" ","LANE":"３５６巷","ALLEY":" ","HOUSE_NO":"１１號","E_COORD97":182109.19,"N_COORD97":2539478.25,"ADDRESS":"旺萊路３５６巷１１號","OBJECTID":370161},"geometry":{"x":182109.19000000041,"y":2539478.25}},{"attributes":{"ID":370172,"DIS_CODE":0,"TOWNNAME":"關廟區","LI":"香洋里","LIN":"12鄰","STREET":"中山路","SECT":"一段","MAREA":" ","LANE":"５６６巷","ALLEY":" ","HOUSE_NO":"１號","E_COORD97":181243.26000000001,"N_COORD97":2539979.2799999998,"ADDRESS":"中山路一段５６６巷１號","OBJECTID":370162},"geometry":{"x":181243.25999999978,"y":2539979.2799999993}},{"attributes":{"ID":370173,"DIS_CODE":0,"TOWNNAME":"關廟區","LI":"五甲里","LIN":"12鄰","STREET":"東興路","SECT":" ","MAREA":" ","LANE":"１７巷","ALLEY":" ","HOUSE_NO":"１３號","E_COORD97":181279.67000000001,"N_COORD97":2539591.25,"ADDRESS":"東興路１７巷１３號","OBJECTID":370163},"geometry":{"x":181279.66999999993,"y":2539591.2500000037}},{"attributes":{"ID":370174,"DIS_CODE":0,"TOWNNAME":"關廟區","LI":"五甲里","LIN":"12鄰","STREET":"東興路","SECT":" ","MAREA":" ","LANE":"１７巷","ALLEY":" ","HOUSE_NO":"１５號","E_COORD97":181279.67000000001,"N_COORD97":2539595.25,"ADDRESS":"東興路１７巷１５號","OBJECTID":370164},"geometry":{"x":181279.66999999993,"y":2539595.2500000019}},{"attributes":{"ID":370175,"DIS_CODE":0,"TOWNNAME":"關廟區","LI":"香洋里","LIN":"12鄰","STREET":"巡府路","SECT":" ","MAREA":" ","LANE":"２２巷","ALLEY":" ","HOUSE_NO":"３號","E_COORD97":181180.92000000001,"N_COORD97":2540052.25,"ADDRESS":"巡府路２２巷３號","OBJECTID":370165},"geometry":{"x":181180.92000000086,"y":2540052.2499999981}},{"attributes":{"ID":370176,"DIS_CODE":0,"TOWNNAME":"關廟區","LI":"關廟里","LIN":"12鄰","STREET":"民生街","SECT":" ","MAREA":" ","LANE":"１５２巷","ALLEY":" ","HOUSE_NO":"３０號","E_COORD97":180925.34,"N_COORD97":2539820.29,"ADDRESS":"民生街１５２巷３０號","OBJECTID":370166},"geometry":{"x":180925.34000000078,"y":2539820.2899999991}},{"attributes":{"ID":370177,"DIS_CODE":0,"TOWNNAME":"關廟區","LI":"松腳里","LIN":"12鄰","STREET":"東興路","SECT":" ","MAREA":" ","LANE":"２０５巷","ALLEY":" ","HOUSE_NO":"９號","E_COORD97":181740.97,"N_COORD97":2539623.25,"ADDRESS":"東興路２０５巷９號","OBJECTID":370167},"geometry":{"x":181740.9700000016,"y":2539623.2500000019}},{"attributes":{"ID":370178,"DIS_CODE":0,"TOWNNAME":"關廟區","LI":"關廟里","LIN":"12鄰","STREET":"民生街","SECT":" ","MAREA":" ","LANE":"１５２巷","ALLEY":" ","HOUSE_NO":"２７號","E_COORD97":180929.94,"N_COORD97":2539858.29,"ADDRESS":"民生街１５２巷２７號","OBJECTID":370168},"geometry":{"x":180929.94000000134,"y":2539858.290000001}},{"attributes":{"ID":370179,"DIS_CODE":0,"TOWNNAME":"關廟區","LI":"東勢里","LIN":"12鄰","STREET":"旺萊路","SECT":" ","MAREA":" ","LANE":"３６２巷","ALLEY":" ","HOUSE_NO":"２１號","E_COORD97":182148.29000000001,"N_COORD97":2539487.25,"ADDRESS":"旺萊路３６２巷２１號","OBJECTID":370169},"geometry":{"x":182148.29000000097,"y":2539487.2500000019}},{"attributes":{"ID":370180,"DIS_CODE":0,"TOWNNAME":"關廟區","LI":"南花里","LIN":"12鄰","STREET":"明德街","SECT":" ","MAREA":" ","LANE":"１５巷","ALLEY":" ","HOUSE_NO":"７３號","E_COORD97":181712.48999999999,"N_COORD97":2539995.27,"ADDRESS":"明德街１５巷７３號","OBJECTID":370170},"geometry":{"x":181712.49000000209,"y":2539995.2700000014}},{"attributes":{"ID":370181,"DIS_CODE":0,"TOWNNAME":"關廟區","LI":"深坑里","LIN":"12鄰","STREET":"深坑二街","SECT":" ","MAREA":" ","LANE":"６８巷","ALLEY":" ","HOUSE_NO":"６０號","E_COORD97":181201.62,"N_COORD97":2537265.2999999998,"ADDRESS":"深坑二街６８巷６０號","OBJECTID":370171},"geometry":{"x":181201.62000000104,"y":2537265.3000000007}},{"attributes":{"ID":370182,"DIS_CODE":0,"TOWNNAME":"關廟區","LI":"深坑里","LIN":"12鄰","STREET":"南雄路","SECT":"一段","MAREA":" ","LANE":"４９５巷","ALLEY":" ","HOUSE_NO":"２０號","E_COORD97":181582.01999999999,"N_COORD97":2537839.2999999998,"ADDRESS":"南雄路一段４９５巷２０號","OBJECTID":370172},"geometry":{"x":181582.01999999955,"y":2537839.3000000026}},{"attributes":{"ID":370183,"DIS_CODE":0,"TOWNNAME":"關廟區","LI":"松腳里","LIN":"12鄰","STREET":"東興路","SECT":" ","MAREA":" ","LANE":"２０９巷","ALLEY":" ","HOUSE_NO":"１６號","E_COORD97":181776.42000000001,"N_COORD97":2539631.25,"ADDRESS":"東興路２０９巷１６號","OBJECTID":370173},"geometry":{"x":181776.41999999993,"y":2539631.25}},{"attributes":{"ID":370184,"DIS_CODE":0,"TOWNNAME":"關廟區","LI":"松腳里","LIN":"12鄰","STREET":"東興路","SECT":" ","MAREA":" ","LANE":"２１９巷","ALLEY":" ","HOUSE_NO":"３號","E_COORD97":181750.17000000001,"N_COORD97":2539573.25,"ADDRESS":"東興路２１９巷３號","OBJECTID":370174},"geometry":{"x":181750.17000000086,"y":2539573.25}},{"attributes":{"ID":370185,"DIS_CODE":0,"TOWNNAME":"關廟區","LI":"關廟里","LIN":"12鄰","STREET":"民生街","SECT":" ","MAREA":" ","LANE":"１５２巷","ALLEY":" ","HOUSE_NO":"２９號","E_COORD97":180929.94,"N_COORD97":2539863.29,"ADDRESS":"民生街１５２巷２９號","OBJECTID":370175},"geometry":{"x":180929.94000000134,"y":2539863.2899999991}},{"attributes":{"ID":370186,"DIS_CODE":0,"TOWNNAME":"關廟區","LI":"松腳里","LIN":"12鄰","STREET":"東興路","SECT":" ","MAREA":" ","LANE":"２１３巷","ALLEY":" ","HOUSE_NO":"１８號","E_COORD97":181776.82000000001,"N_COORD97":2539618.25,"ADDRESS":"東興路２１３巷１８號","OBJECTID":370176},"geometry":{"x":181776.82000000123,"y":2539618.2499999981}},{"attributes":{"ID":370187,"DIS_CODE":0,"TOWNNAME":"關廟區","LI":"松腳里","LIN":"12鄰","STREET":"東興路","SECT":" ","MAREA":" ","LANE":"２１３巷","ALLEY":" ","HOUSE_NO":"８號","E_COORD97":181754.07000000001,"N_COORD97":2539592.25,"ADDRESS":"東興路２１３巷８號","OBJECTID":370177},"geometry":{"x":181754.0700000003,"y":2539592.2500000019}},{"attributes":{"ID":370188,"DIS_CODE":0,"TOWNNAME":"北區","LI":"成德里","LIN":"12鄰","STREET":"育德二路","SECT":" ","MAREA":" ","LANE":"５１巷","ALLEY":" ","HOUSE_NO":"１０號","E_COORD97":168208.16,"N_COORD97":2545377.77,"ADDRESS":"育德二路５１巷１０號","OBJECTID":370178},"geometry":{"x":168208.16000000015,"y":2545377.7699999996}},{"attributes":{"ID":370189,"DIS_CODE":0,"TOWNNAME":"北區","LI":"成德里","LIN":"12鄰","STREET":"育德二路","SECT":" ","MAREA":" ","LANE":"５１巷","ALLEY":" ","HOUSE_NO":"１２號","E_COORD97":168204.67000000001,"N_COORD97":2545377.6099999999,"ADDRESS":"育德二路５１巷１２號","OBJECTID":370179},"geometry":{"x":168204.66999999993,"y":2545377.6099999994}},{"attributes":{"ID":370190,"DIS_CODE":0,"TOWNNAME":"北區","LI":"成德里","LIN":"12鄰","STREET":"育德二路","SECT":" ","MAREA":" ","LANE":"５１巷","ALLEY":" ","HOUSE_NO":"１６號","E_COORD97":168200.85999999999,"N_COORD97":2545377.6099999999,"ADDRESS":"育德二路５１巷１６號","OBJECTID":370180},"geometry":{"x":168200.86000000034,"y":2545377.6099999994}},{"attributes":{"ID":370191,"DIS_CODE":0,"TOWNNAME":"北區","LI":"成德里","LIN":"12鄰","STREET":"育德二路","SECT":" ","MAREA":" ","LANE":"５１巷","ALLEY":" ","HOUSE_NO":"１８號","E_COORD97":168196.73000000001,"N_COORD97":2545377.4500000002,"ADDRESS":"育德二路５１巷１８號","OBJECTID":370181},"geometry":{"x":168196.73000000045,"y":2545377.4500000011}},{"attributes":{"ID":370192,"DIS_CODE":0,"TOWNNAME":"北區","LI":"成德里","LIN":"12鄰","STREET":"育德二路","SECT":" ","MAREA":" ","LANE":"５１巷","ALLEY":" ","HOUSE_NO":"２０號","E_COORD97":168192.29000000001,"N_COORD97":2545376.8100000001,"ADDRESS":"育德二路５１巷２０號","OBJECTID":370182},"geometry":{"x":168192.29000000004,"y":2545376.8100000024}},{"attributes":{"ID":370193,"DIS_CODE":0,"TOWNNAME":"北區","LI":"成德里","LIN":"12鄰","STREET":"育德二路","SECT":" ","MAREA":" ","LANE":"５１巷","ALLEY":" ","HOUSE_NO":"２２號","E_COORD97":168188.48000000001,"N_COORD97":2545376.8100000001,"ADDRESS":"育德二路５１巷２２號","OBJECTID":370183},"geometry":{"x":168188.48000000231,"y":2545376.8100000024}},{"attributes":{"ID":370194,"DIS_CODE":0,"TOWNNAME":"北區","LI":"成德里","LIN":"12鄰","STREET":"育德二路","SECT":" ","MAREA":" ","LANE":"５１巷","ALLEY":" ","HOUSE_NO":"２６號","E_COORD97":168184.51000000001,"N_COORD97":2545376.6499999999,"ADDRESS":"育德二路５１巷２６號","OBJECTID":370184},"geometry":{"x":168184.51000000071,"y":2545376.6500000041}},{"attributes":{"ID":370195,"DIS_CODE":0,"TOWNNAME":"北區","LI":"成德里","LIN":"12鄰","STREET":"育德二路","SECT":" ","MAREA":" ","LANE":"５１巷","ALLEY":" ","HOUSE_NO":"２８號","E_COORD97":168180.70000000001,"N_COORD97":2545376.3399999999,"ADDRESS":"育德二路５１巷２８號","OBJECTID":370185},"geometry":{"x":168180.70000000112,"y":2545376.3399999999}},{"attributes":{"ID":370196,"DIS_CODE":0,"TOWNNAME":"北區","LI":"成德里","LIN":"12鄰","STREET":"育德二路","SECT":" ","MAREA":" ","LANE":"５１巷","ALLEY":" ","HOUSE_NO":"２號","E_COORD97":168219.58637999999,"N_COORD97":2545377.88986,"ADDRESS":"育德二路５１巷２號","OBJECTID":370186},"geometry":{"x":168219.58638000023,"y":2545377.8898570016}},{"attributes":{"ID":370197,"DIS_CODE":0,"TOWNNAME":"北區","LI":"成德里","LIN":"12鄰","STREET":"育德二路","SECT":" ","MAREA":" ","LANE":"５１巷","ALLEY":" ","HOUSE_NO":"３０號","E_COORD97":168176.57000000001,"N_COORD97":2545376.1800000002,"ADDRESS":"育德二路５１巷３０號","OBJECTID":370187},"geometry":{"x":168176.57000000123,"y":2545376.1800000016}},{"attributes":{"ID":370198,"DIS_CODE":0,"TOWNNAME":"北區","LI":"成德里","LIN":"12鄰","STREET":"育德二路","SECT":" ","MAREA":" ","LANE":"５１巷","ALLEY":" ","HOUSE_NO":"３２號","E_COORD97":168172.60000000001,"N_COORD97":2545376.3399999999,"ADDRESS":"育德二路５１巷３２號","OBJECTID":370188},"geometry":{"x":168172.59999999963,"y":2545376.3399999999}},{"attributes":{"ID":370199,"DIS_CODE":0,"TOWNNAME":"北區","LI":"成德里","LIN":"12鄰","STREET":"育德二路","SECT":" ","MAREA":" ","LANE":"５１巷","ALLEY":" ","HOUSE_NO":"３６號","E_COORD97":168168.64000000001,"N_COORD97":2545376.3399999999,"ADDRESS":"育德二路５１巷３６號","OBJECTID":370189},"geometry":{"x":168168.6400000006,"y":2545376.3399999999}},{"attributes":{"ID":370200,"DIS_CODE":0,"TOWNNAME":"北區","LI":"成德里","LIN":"12鄰","STREET":"育德二路","SECT":" ","MAREA":" ","LANE":"５１巷","ALLEY":" ","HOUSE_NO":"３８號","E_COORD97":168163.87,"N_COORD97":2545376.3399999999,"ADDRESS":"育德二路５１巷３８號","OBJECTID":370190},"geometry":{"x":168163.87000000104,"y":2545376.3399999999}},{"attributes":{"ID":370201,"DIS_CODE":0,"TOWNNAME":"北區","LI":"成德里","LIN":"12鄰","STREET":"育德二路","SECT":" ","MAREA":" ","LANE":"５１巷","ALLEY":" ","HOUSE_NO":"４０號","E_COORD97":168159.42999999999,"N_COORD97":2545376.3399999999,"ADDRESS":"育德二路５１巷４０號","OBJECTID":370191},"geometry":{"x":168159.43000000063,"y":2545376.3399999999}},{"attributes":{"ID":370202,"DIS_CODE":0,"TOWNNAME":"北區","LI":"成德里","LIN":"12鄰","STREET":"育德二路","SECT":" ","MAREA":" ","LANE":"５１巷","ALLEY":" ","HOUSE_NO":"４２號","E_COORD97":168154.98000000001,"N_COORD97":2545376.5,"ADDRESS":"育德二路５１巷４２號","OBJECTID":370192},"geometry":{"x":168154.98000000138,"y":2545376.5}},{"attributes":{"ID":370203,"DIS_CODE":0,"TOWNNAME":"北區","LI":"成德里","LIN":"12鄰","STREET":"育德二路","SECT":" ","MAREA":" ","LANE":"５１巷","ALLEY":" ","HOUSE_NO":"４６號","E_COORD97":168150.54000000001,"N_COORD97":2545376.3399999999,"ADDRESS":"育德二路５１巷４６號","OBJECTID":370193},"geometry":{"x":168150.54000000097,"y":2545376.3399999999}},{"attributes":{"ID":370204,"DIS_CODE":0,"TOWNNAME":"北區","LI":"成德里","LIN":"12鄰","STREET":"育德二路","SECT":" ","MAREA":" ","LANE":"５１巷","ALLEY":" ","HOUSE_NO":"４８號","E_COORD97":168146.41,"N_COORD97":2545376.3399999999,"ADDRESS":"育德二路５１巷４８號","OBJECTID":370194},"geometry":{"x":168146.41000000108,"y":2545376.3399999999}},{"attributes":{"ID":370205,"DIS_CODE":0,"TOWNNAME":"北區","LI":"成德里","LIN":"12鄰","STREET":"育德二路","SECT":" ","MAREA":" ","LANE":"５１巷","ALLEY":" ","HOUSE_NO":"５０號","E_COORD97":168141.97,"N_COORD97":2545376.6600000001,"ADDRESS":"育德二路５１巷５０號","OBJECTID":370195},"geometry":{"x":168141.9700000016,"y":2545376.660000002}},{"attributes":{"ID":370206,"DIS_CODE":0,"TOWNNAME":"北區","LI":"成德里","LIN":"12鄰","STREET":"育德二路","SECT":" ","MAREA":" ","LANE":"５１巷","ALLEY":" ","HOUSE_NO":"５２號","E_COORD97":168137.20000000001,"N_COORD97":2545376.6600000001,"ADDRESS":"育德二路５１巷５２號","OBJECTID":370196},"geometry":{"x":168137.20000000019,"y":2545376.660000002}},{"attributes":{"ID":370207,"DIS_CODE":0,"TOWNNAME":"北區","LI":"成德里","LIN":"12鄰","STREET":"育德二路","SECT":" ","MAREA":" ","LANE":"５１巷","ALLEY":" ","HOUSE_NO":"５６號","E_COORD97":168134.03,"N_COORD97":2545376.5,"ADDRESS":"育德二路５１巷５６號","OBJECTID":370197},"geometry":{"x":168134.03000000119,"y":2545376.5}},{"attributes":{"ID":370208,"DIS_CODE":0,"TOWNNAME":"北區","LI":"成德里","LIN":"12鄰","STREET":"育德二路","SECT":" ","MAREA":" ","LANE":"５１巷","ALLEY":" ","HOUSE_NO":"５８號","E_COORD97":168130.54000000001,"N_COORD97":2545376.5,"ADDRESS":"育德二路５１巷５８號","OBJECTID":370198},"geometry":{"x":168130.54000000097,"y":2545376.5}},{"attributes":{"ID":370209,"DIS_CODE":0,"TOWNNAME":"北區","LI":"成德里","LIN":"12鄰","STREET":"育德二路","SECT":" ","MAREA":" ","LANE":"５１巷","ALLEY":" ","HOUSE_NO":"７６號","E_COORD97":168094.45999999999,"N_COORD97":2545377.6099999999,"ADDRESS":"育德二路５１巷７６號","OBJECTID":370199},"geometry":{"x":168094.45999999996,"y":2545377.6099999994}},{"attributes":{"ID":370210,"DIS_CODE":0,"TOWNNAME":"北區","LI":"成德里","LIN":"12鄰","STREET":"育德二路","SECT":" ","MAREA":" ","LANE":"５１巷","ALLEY":" ","HOUSE_NO":"８０號","E_COORD97":168078.59,"N_COORD97":2545377.29,"ADDRESS":"育德二路５１巷８０號","OBJECTID":370200},"geometry":{"x":168078.59000000171,"y":2545377.2899999972}}]}