{"displayFieldName":"TOWNNAME","fieldAliases":{"ID":"ID","DIS_CODE":"DIS_CODE","TOWNNAME":"TOWNNAME","LI":"LI","LIN":"LIN","STREET":"STREET","SECT":"SECT","MAREA":"MAREA","LANE":"LANE","ALLEY":"ALLEY","HOUSE_NO":"HOUSE_NO","E_COORD97":"E_COORD97","N_COORD97":"N_COORD97","ADDRESS":"ADDRESS","OBJECTID":"OBJECTID"},"geometryType":"esriGeometryPoint","spatialReference":{"wkid":102443,"latestWkid":3826},"fields":[{"name":"ID","type":"esriFieldTypeDouble","alias":"ID"},{"name":"DIS_CODE","type":"esriFieldTypeInteger","alias":"DIS_CODE"},{"name":"TOWNNAME","type":"esriFieldTypeString","alias":"TOWNNAME","length":8},{"name":"LI","type":"esriFieldTypeString","alias":"LI","length":8},{"name":"LIN","type":"esriFieldTypeString","alias":"LIN","length":12},{"name":"STREET","type":"esriFieldTypeString","alias":"STREET","length":20},{"name":"SECT","type":"esriFieldTypeString","alias":"SECT","length":8},{"name":"MAREA","type":"esriFieldTypeString","alias":"MAREA","length":12},{"name":"LANE","type":"esriFieldTypeString","alias":"LANE","length":10},{"name":"ALLEY","type":"esriFieldTypeString","alias":"ALLEY","length":10},{"name":"HOUSE_NO","type":"esriFieldTypeString","alias":"HOUSE_NO","length":20},{"name":"E_COORD97","type":"esriFieldTypeDouble","alias":"E_COORD97"},{"name":"N_COORD97","type":"esriFieldTypeDouble","alias":"N_COORD97"},{"name":"ADDRESS","type":"esriFieldTypeString","alias":"ADDRESS","length":50},{"name":"OBJECTID","type":"esriFieldTypeOID","alias":"OBJECTID"}],"features":[{"attributes":{"ID":262605,"DIS_CODE":0,"TOWNNAME":"關廟區","LI":"香洋里","LIN":"20鄰","STREET":"中央路","SECT":" ","MAREA":" ","LANE":" ","ALLEY":" ","HOUSE_NO":"７６號","E_COORD97":181490.75668799999,"N_COORD97":2539989.8388700001,"ADDRESS":"中央路７６號","OBJECTID":262601},"geometry":{"x":181490.75668800063,"y":2539989.8388669994}},{"attributes":{"ID":262606,"DIS_CODE":0,"TOWNNAME":"佳里區","LI":"忠仁里","LIN":"3鄰","STREET":"興中街","SECT":" ","MAREA":" ","LANE":" ","ALLEY":" ","HOUSE_NO":"８４號","E_COORD97":165526.41073999999,"N_COORD97":2562191.1160900001,"ADDRESS":"興中街８４號","OBJECTID":262602},"geometry":{"x":165526.41074000113,"y":2562191.1160889994}},{"attributes":{"ID":262607,"DIS_CODE":0,"TOWNNAME":"關廟區","LI":"香洋里","LIN":"17鄰","STREET":"中央路","SECT":" ","MAREA":" ","LANE":" ","ALLEY":" ","HOUSE_NO":"３８號","E_COORD97":181563.193203,"N_COORD97":2540002.0325699998,"ADDRESS":"中央路３８號","OBJECTID":262603},"geometry":{"x":181563.19320299942,"y":2540002.0325700026}},{"attributes":{"ID":262608,"DIS_CODE":0,"TOWNNAME":"南區","LI":"郡南里","LIN":"10鄰","STREET":"永成路","SECT":"三段","MAREA":" ","LANE":" ","ALLEY":" ","HOUSE_NO":"８號","E_COORD97":167460.42651700001,"N_COORD97":2540706.5915799998,"ADDRESS":"永成路三段８號","OBJECTID":262604},"geometry":{"x":167460.42651700042,"y":2540706.5915820021}},{"attributes":{"ID":262609,"DIS_CODE":0,"TOWNNAME":"安南區","LI":"顯宮里","LIN":"2鄰","STREET":"媽祖宮路","SECT":" ","MAREA":" ","LANE":" ","ALLEY":" ","HOUSE_NO":"１０５號","E_COORD97":160623.64999999999,"N_COORD97":2548823.3599999999,"ADDRESS":"媽祖宮路１０５號","OBJECTID":262605},"geometry":{"x":160623.6500000013,"y":2548823.3600000013}},{"attributes":{"ID":262610,"DIS_CODE":0,"TOWNNAME":"安南區","LI":"顯宮里","LIN":"2鄰","STREET":"媽祖宮路","SECT":" ","MAREA":" ","LANE":" ","ALLEY":" ","HOUSE_NO":"１０１號","E_COORD97":160638.32999999999,"N_COORD97":2548824.54,"ADDRESS":"媽祖宮路１０１號","OBJECTID":262606},"geometry":{"x":160638.33000000007,"y":2548824.540000001}},{"attributes":{"ID":262611,"DIS_CODE":0,"TOWNNAME":"關廟區","LI":"下湖里","LIN":"1鄰","STREET":"下湖二街","SECT":" ","MAREA":" ","LANE":" ","ALLEY":" ","HOUSE_NO":"３６號","E_COORD97":179426.60480299999,"N_COORD97":2542926.4704300002,"ADDRESS":"下湖二街３６號","OBJECTID":262607},"geometry":{"x":179426.60480300058,"y":2542926.4704300016}},{"attributes":{"ID":262612,"DIS_CODE":0,"TOWNNAME":"新營區","LI":"民榮里","LIN":"36鄰","STREET":"公園路","SECT":"二段","MAREA":" ","LANE":" ","ALLEY":" ","HOUSE_NO":"９６號","E_COORD97":178454.40849500001,"N_COORD97":2577866.0383000001,"ADDRESS":"公園路二段９６號","OBJECTID":262608},"geometry":{"x":178454.40849500056,"y":2577866.0382959992}},{"attributes":{"ID":262613,"DIS_CODE":0,"TOWNNAME":"鹽水區","LI":"橋南里","LIN":"4鄰","STREET":"橋南街","SECT":" ","MAREA":" ","LANE":" ","ALLEY":" ","HOUSE_NO":"８９號","E_COORD97":175160.49092400001,"N_COORD97":2579368.1674500001,"ADDRESS":"橋南街８９號","OBJECTID":262609},"geometry":{"x":175160.49092399981,"y":2579368.1674549989}},{"attributes":{"ID":262614,"DIS_CODE":0,"TOWNNAME":"佳里區","LI":"建南里","LIN":"17鄰","STREET":"平等街","SECT":" ","MAREA":" ","LANE":" ","ALLEY":" ","HOUSE_NO":"２２０號之１","E_COORD97":165577.88807399999,"N_COORD97":2561896.0934000001,"ADDRESS":"平等街２２０號之１","OBJECTID":262610},"geometry":{"x":165577.88807400037,"y":2561896.0934020001}},{"attributes":{"ID":262615,"DIS_CODE":0,"TOWNNAME":"佳里區","LI":"東寧里","LIN":"15鄰","STREET":"新生路","SECT":" ","MAREA":" ","LANE":" ","ALLEY":" ","HOUSE_NO":"９０號","E_COORD97":165967.48571800001,"N_COORD97":2562350.38539,"ADDRESS":"新生路９０號","OBJECTID":262611},"geometry":{"x":165967.48571799975,"y":2562350.3853939995}},{"attributes":{"ID":262616,"DIS_CODE":0,"TOWNNAME":"永康區","LI":"王行里","LIN":"14鄰","STREET":"環工路","SECT":" ","MAREA":" ","LANE":" ","ALLEY":" ","HOUSE_NO":"１７之１號","E_COORD97":175645.79915599999,"N_COORD97":2549811.6228700001,"ADDRESS":"環工路１７之１號","OBJECTID":262612},"geometry":{"x":175645.79915599991,"y":2549811.6228669994}},{"attributes":{"ID":262617,"DIS_CODE":0,"TOWNNAME":"永康區","LI":"王行里","LIN":"16鄰","STREET":"中山北路","SECT":" ","MAREA":" ","LANE":" ","ALLEY":" ","HOUSE_NO":"１０５１號","E_COORD97":176602.58069500001,"N_COORD97":2548168.98459,"ADDRESS":"中山北路１０５１號","OBJECTID":262613},"geometry":{"x":176602.58069499955,"y":2548168.9845870025}},{"attributes":{"ID":262618,"DIS_CODE":0,"TOWNNAME":"佳里區","LI":"建南里","LIN":"19鄰","STREET":"自由街","SECT":" ","MAREA":" ","LANE":" ","ALLEY":" ","HOUSE_NO":"１７８號","E_COORD97":165635.17779399999,"N_COORD97":2561775.4614800001,"ADDRESS":"自由街１７８號","OBJECTID":262614},"geometry":{"x":165635.17779400107,"y":2561775.4614789989}},{"attributes":{"ID":262619,"DIS_CODE":0,"TOWNNAME":"佳里區","LI":"東寧里","LIN":"8鄰","STREET":"和平街","SECT":" ","MAREA":" ","LANE":" ","ALLEY":" ","HOUSE_NO":"１２０號","E_COORD97":165765.640013,"N_COORD97":2562522.94655,"ADDRESS":"和平街１２０號","OBJECTID":262615},"geometry":{"x":165765.64001300186,"y":2562522.946550997}},{"attributes":{"ID":262620,"DIS_CODE":0,"TOWNNAME":"永康區","LI":"五王里","LIN":"20鄰","STREET":"成功路","SECT":" ","MAREA":" ","LANE":" ","ALLEY":" ","HOUSE_NO":"１２１號之１","E_COORD97":171394.34685199999,"N_COORD97":2545650.0540499999,"ADDRESS":"成功路１２１號之１","OBJECTID":262616},"geometry":{"x":171394.34685200173,"y":2545650.0540479999}},{"attributes":{"ID":262621,"DIS_CODE":0,"TOWNNAME":"佳里區","LI":"建南里","LIN":"18鄰","STREET":"平等街","SECT":" ","MAREA":" ","LANE":" ","ALLEY":" ","HOUSE_NO":"２０１號","E_COORD97":165636.740624,"N_COORD97":2561876.0503500002,"ADDRESS":"平等街２０１號","OBJECTID":262617},"geometry":{"x":165636.74062400032,"y":2561876.0503510013}},{"attributes":{"ID":262622,"DIS_CODE":0,"TOWNNAME":"新營區","LI":"民榮里","LIN":"11鄰","STREET":"濟安街","SECT":" ","MAREA":" ","LANE":" ","ALLEY":" ","HOUSE_NO":"１２２號","E_COORD97":179158.55031699999,"N_COORD97":2577941.4444300001,"ADDRESS":"濟安街１２２號","OBJECTID":262618},"geometry":{"x":179158.5503170006,"y":2577941.4444299992}},{"attributes":{"ID":262623,"DIS_CODE":0,"TOWNNAME":"永康區","LI":"五王里","LIN":"35鄰","STREET":"中山南路","SECT":" ","MAREA":" ","LANE":" ","ALLEY":" ","HOUSE_NO":"１６０號","E_COORD97":171227.554,"N_COORD97":2545992.4778399998,"ADDRESS":"中山南路１６０號","OBJECTID":262619},"geometry":{"x":171227.5540000014,"y":2545992.4778389987}},{"attributes":{"ID":262624,"DIS_CODE":0,"TOWNNAME":"仁德區","LI":"大甲里","LIN":"3鄰","STREET":"行大街","SECT":" ","MAREA":" ","LANE":" ","ALLEY":" ","HOUSE_NO":"２４９號","E_COORD97":169824.98395299999,"N_COORD97":2535104.8612099998,"ADDRESS":"行大街２４９號","OBJECTID":262620},"geometry":{"x":169824.98395300098,"y":2535104.8612070009}},{"attributes":{"ID":262625,"DIS_CODE":0,"TOWNNAME":"仁德區","LI":"大甲里","LIN":"3鄰","STREET":"行大街","SECT":" ","MAREA":" ","LANE":" ","ALLEY":" ","HOUSE_NO":"２５１號","E_COORD97":169820.32087600001,"N_COORD97":2535106.1312099998,"ADDRESS":"行大街２５１號","OBJECTID":262621},"geometry":{"x":169820.32087600138,"y":2535106.1312070005}},{"attributes":{"ID":262626,"DIS_CODE":0,"TOWNNAME":"新營區","LI":"民榮里","LIN":"4鄰","STREET":"和平路","SECT":" ","MAREA":" ","LANE":" ","ALLEY":" ","HOUSE_NO":"１２號","E_COORD97":179400.50291000001,"N_COORD97":2577982.2960799998,"ADDRESS":"和平路１２號","OBJECTID":262622},"geometry":{"x":179400.50291000027,"y":2577982.2960749995}},{"attributes":{"ID":262627,"DIS_CODE":0,"TOWNNAME":"仁德區","LI":"大甲里","LIN":"3鄰","STREET":"行大街","SECT":" ","MAREA":" ","LANE":" ","ALLEY":" ","HOUSE_NO":"２５３號","E_COORD97":169812.69038700001,"N_COORD97":2535099.35788,"ADDRESS":"行大街２５３號","OBJECTID":262623},"geometry":{"x":169812.69038700126,"y":2535099.3578769974}},{"attributes":{"ID":262628,"DIS_CODE":0,"TOWNNAME":"仁德區","LI":"大甲里","LIN":"3鄰","STREET":"行大街","SECT":" ","MAREA":" ","LANE":" ","ALLEY":" ","HOUSE_NO":"２５５號","E_COORD97":169816.92954799999,"N_COORD97":2535109.09454,"ADDRESS":"行大街２５５號","OBJECTID":262624},"geometry":{"x":169816.92954799999,"y":2535109.0945379976}},{"attributes":{"ID":262629,"DIS_CODE":0,"TOWNNAME":"新營區","LI":"民榮里","LIN":"27鄰","STREET":"復興路","SECT":" ","MAREA":" ","LANE":" ","ALLEY":" ","HOUSE_NO":"３７９之１號","E_COORD97":178381.42062200001,"N_COORD97":2578209.52012,"ADDRESS":"復興路３７９之１號","OBJECTID":262625},"geometry":{"x":178381.4206220014,"y":2578209.5201190002}},{"attributes":{"ID":262630,"DIS_CODE":0,"TOWNNAME":"仁德區","LI":"大甲里","LIN":"3鄰","STREET":"行大街","SECT":" ","MAREA":" ","LANE":" ","ALLEY":" ","HOUSE_NO":"２５３之１號","E_COORD97":169801.24465400001,"N_COORD97":2535082.2128900001,"ADDRESS":"行大街２５３之１號","OBJECTID":262626},"geometry":{"x":169801.24465400074,"y":2535082.2128860019}},{"attributes":{"ID":262631,"DIS_CODE":0,"TOWNNAME":"仁德區","LI":"大甲里","LIN":"3鄰","STREET":"行大街","SECT":" ","MAREA":" ","LANE":" ","ALLEY":" ","HOUSE_NO":"２５３之２號","E_COORD97":169796.581577,"N_COORD97":2535082.6362200002,"ADDRESS":"行大街２５３之２號","OBJECTID":262627},"geometry":{"x":169796.58157700021,"y":2535082.6362190004}},{"attributes":{"ID":262632,"DIS_CODE":0,"TOWNNAME":"仁德區","LI":"大甲里","LIN":"3鄰","STREET":"行大街","SECT":" ","MAREA":" ","LANE":" ","ALLEY":" ","HOUSE_NO":"２５３之３號","E_COORD97":169794.461996,"N_COORD97":2535088.5628800001,"ADDRESS":"行大街２５３之３號","OBJECTID":262628},"geometry":{"x":169794.46199600119,"y":2535088.5628830008}},{"attributes":{"ID":262633,"DIS_CODE":0,"TOWNNAME":"仁德區","LI":"大甲里","LIN":"3鄰","STREET":"行大街","SECT":" ","MAREA":" ","LANE":" ","ALLEY":" ","HOUSE_NO":"２６９號","E_COORD97":169791.9185,"N_COORD97":2535123.4878600002,"ADDRESS":"行大街２６９號","OBJECTID":262629},"geometry":{"x":169791.91850000061,"y":2535123.4878639989}},{"attributes":{"ID":262634,"DIS_CODE":0,"TOWNNAME":"安南區","LI":"州北里","LIN":"8鄰","STREET":"長和路","SECT":"三段","MAREA":" ","LANE":" ","ALLEY":" ","HOUSE_NO":"１０２號","E_COORD97":169632.320737,"N_COORD97":2551553.95414,"ADDRESS":"長和路三段１０２號","OBJECTID":262630},"geometry":{"x":169632.32073699962,"y":2551553.954144001}},{"attributes":{"ID":262635,"DIS_CODE":0,"TOWNNAME":"安南區","LI":"州北里","LIN":"8鄰","STREET":"長和路","SECT":"三段","MAREA":" ","LANE":" ","ALLEY":" ","HOUSE_NO":"１０６號","E_COORD97":169628.50782,"N_COORD97":2551560.3041400001,"ADDRESS":"長和路三段１０６號","OBJECTID":262631},"geometry":{"x":169628.50782000087,"y":2551560.3041409999}},{"attributes":{"ID":262636,"DIS_CODE":0,"TOWNNAME":"安南區","LI":"州北里","LIN":"8鄰","STREET":"長和路","SECT":"三段","MAREA":" ","LANE":" ","ALLEY":" ","HOUSE_NO":"１０８號","E_COORD97":169618.340042,"N_COORD97":2551559.88081,"ADDRESS":"長和路三段１０８號","OBJECTID":262632},"geometry":{"x":169618.34004200064,"y":2551559.8808080014}},{"attributes":{"ID":262637,"DIS_CODE":0,"TOWNNAME":"安南區","LI":"州北里","LIN":"8鄰","STREET":"長和路","SECT":"三段","MAREA":" ","LANE":" ","ALLEY":" ","HOUSE_NO":"１１０號","E_COORD97":169607.53677800001,"N_COORD97":2551554.8008099999,"ADDRESS":"長和路三段１１０號","OBJECTID":262633},"geometry":{"x":169607.53677800111,"y":2551554.8008100037}},{"attributes":{"ID":262638,"DIS_CODE":0,"TOWNNAME":"安南區","LI":"州北里","LIN":"8鄰","STREET":"長和路","SECT":"三段","MAREA":" ","LANE":" ","ALLEY":" ","HOUSE_NO":"１１２號","E_COORD97":169594.615227,"N_COORD97":2551556.7058100002,"ADDRESS":"長和路三段１１２號","OBJECTID":262634},"geometry":{"x":169594.61522700079,"y":2551556.7058090027}},{"attributes":{"ID":262639,"DIS_CODE":0,"TOWNNAME":"安南區","LI":"州北里","LIN":"8鄰","STREET":"長和路","SECT":"三段","MAREA":" ","LANE":" ","ALLEY":" ","HOUSE_NO":"１３８號","E_COORD97":169524.92358199999,"N_COORD97":2551570.6757999999,"ADDRESS":"長和路三段１３８號","OBJECTID":262635},"geometry":{"x":169524.92358200066,"y":2551570.6758019999}},{"attributes":{"ID":262640,"DIS_CODE":0,"TOWNNAME":"安南區","LI":"州北里","LIN":"8鄰","STREET":"長和路","SECT":"三段","MAREA":" ","LANE":" ","ALLEY":" ","HOUSE_NO":"１１８號","E_COORD97":169581.69367499999,"N_COORD97":2551560.9391399999,"ADDRESS":"長和路三段１１８號","OBJECTID":262636},"geometry":{"x":169581.69367500115,"y":2551560.9391399994}},{"attributes":{"ID":262641,"DIS_CODE":0,"TOWNNAME":"安南區","LI":"州北里","LIN":"8鄰","STREET":"長和路","SECT":"三段","MAREA":" ","LANE":" ","ALLEY":" ","HOUSE_NO":"１２０號","E_COORD97":169573.85601300001,"N_COORD97":2551560.9391399999,"ADDRESS":"長和路三段１２０號","OBJECTID":262637},"geometry":{"x":169573.85601300187,"y":2551560.9391399994}},{"attributes":{"ID":262642,"DIS_CODE":0,"TOWNNAME":"仁德區","LI":"仁愛里","LIN":"27鄰","STREET":"大同路","SECT":"三段","MAREA":" ","LANE":" ","ALLEY":" ","HOUSE_NO":"２０５號","E_COORD97":169777.214825,"N_COORD97":2539677.3499400001,"ADDRESS":"大同路三段２０５號","OBJECTID":262638},"geometry":{"x":169777.21482500061,"y":2539677.3499430027}},{"attributes":{"ID":262643,"DIS_CODE":0,"TOWNNAME":"安南區","LI":"州北里","LIN":"8鄰","STREET":"長和一街","SECT":" ","MAREA":" ","LANE":" ","ALLEY":" ","HOUSE_NO":"２２號","E_COORD97":169525.24132500001,"N_COORD97":2551514.2137500001,"ADDRESS":"長和一街２２號","OBJECTID":262639},"geometry":{"x":169525.24132500123,"y":2551514.2137489989}},{"attributes":{"ID":262644,"DIS_CODE":0,"TOWNNAME":"仁德區","LI":"仁愛里","LIN":"27鄰","STREET":"大同路","SECT":"三段","MAREA":" ","LANE":" ","ALLEY":" ","HOUSE_NO":"２４５號","E_COORD97":169788.23193099999,"N_COORD97":2539575.96166,"ADDRESS":"大同路三段２４５號","OBJECTID":262640},"geometry":{"x":169788.23193099909,"y":2539575.9616640005}},{"attributes":{"ID":262645,"DIS_CODE":0,"TOWNNAME":"安南區","LI":"州北里","LIN":"8鄰","STREET":"北安路","SECT":"四段","MAREA":" ","LANE":" ","ALLEY":" ","HOUSE_NO":"３８２號","E_COORD97":169500.24553700001,"N_COORD97":2551510.6154200002,"ADDRESS":"北安路四段３８２號","OBJECTID":262641},"geometry":{"x":169500.24553699978,"y":2551510.6154180001}},{"attributes":{"ID":262646,"DIS_CODE":0,"TOWNNAME":"安南區","LI":"州北里","LIN":"8鄰","STREET":"北安路","SECT":"四段","MAREA":" ","LANE":" ","ALLEY":" ","HOUSE_NO":"２５５號","E_COORD97":169464.44648499999,"N_COORD97":2551505.5354200001,"ADDRESS":"北安路四段２５５號","OBJECTID":262642},"geometry":{"x":169464.44648500066,"y":2551505.5354200024}},{"attributes":{"ID":262647,"DIS_CODE":0,"TOWNNAME":"仁德區","LI":"仁愛里","LIN":"27鄰","STREET":"大同路","SECT":"三段","MAREA":" ","LANE":" ","ALLEY":" ","HOUSE_NO":"２３１號","E_COORD97":169783.78271500001,"N_COORD97":2539618.0833100001,"ADDRESS":"大同路三段２３１號","OBJECTID":262643},"geometry":{"x":169783.78271500114,"y":2539618.0833080038}},{"attributes":{"ID":262648,"DIS_CODE":0,"TOWNNAME":"仁德區","LI":"仁愛里","LIN":"27鄰","STREET":"大同路","SECT":"三段","MAREA":" ","LANE":" ","ALLEY":" ","HOUSE_NO":"２３３號","E_COORD97":169784.418317,"N_COORD97":2539613.0033100001,"ADDRESS":"大同路三段２３３號","OBJECTID":262644},"geometry":{"x":169784.41831700131,"y":2539613.0033110045}},{"attributes":{"ID":262649,"DIS_CODE":0,"TOWNNAME":"安南區","LI":"州北里","LIN":"8鄰","STREET":"北安路","SECT":"四段","MAREA":" ","LANE":" ","ALLEY":" ","HOUSE_NO":"４２６號","E_COORD97":169521.216579,"N_COORD97":2551626.8203599998,"ADDRESS":"北安路四段４２６號","OBJECTID":262645},"geometry":{"x":169521.21657899953,"y":2551626.8203550037}},{"attributes":{"ID":262650,"DIS_CODE":0,"TOWNNAME":"仁德區","LI":"仁愛里","LIN":"27鄰","STREET":"大同路","SECT":"三段","MAREA":" ","LANE":" ","ALLEY":" ","HOUSE_NO":"２３５號","E_COORD97":169785.47765399999,"N_COORD97":2539606.0183199998,"ADDRESS":"大同路三段２３５號","OBJECTID":262646},"geometry":{"x":169785.47765399981,"y":2539606.0183150005}},{"attributes":{"ID":262651,"DIS_CODE":0,"TOWNNAME":"仁德區","LI":"仁愛里","LIN":"27鄰","STREET":"大同路","SECT":"三段","MAREA":" ","LANE":" ","ALLEY":" ","HOUSE_NO":"２３７號","E_COORD97":169786.11325699999,"N_COORD97":2539599.6683200002,"ADDRESS":"大同路三段２３７號","OBJECTID":262647},"geometry":{"x":169786.11325700209,"y":2539599.6683180016}},{"attributes":{"ID":262652,"DIS_CODE":0,"TOWNNAME":"仁德區","LI":"仁愛里","LIN":"27鄰","STREET":"大同路","SECT":"三段","MAREA":" ","LANE":" ","ALLEY":" ","HOUSE_NO":"２３９號","E_COORD97":169786.74885900001,"N_COORD97":2539593.7416599998,"ADDRESS":"大同路三段２３９號","OBJECTID":262648},"geometry":{"x":169786.74885900132,"y":2539593.7416550014}},{"attributes":{"ID":262653,"DIS_CODE":0,"TOWNNAME":"善化區","LI":"小新里","LIN":"22鄰","STREET":" ","SECT":" ","MAREA":"士宏新村","LANE":" ","ALLEY":" ","HOUSE_NO":"３６號","E_COORD97":180453.64000000001,"N_COORD97":2558550,"ADDRESS":"士宏新村３６號","OBJECTID":262649},"geometry":{"x":180453.6400000006,"y":2558550.0000000019}},{"attributes":{"ID":262654,"DIS_CODE":0,"TOWNNAME":"安南區","LI":"州北里","LIN":"9鄰","STREET":"北安路","SECT":"四段","MAREA":" ","LANE":" ","ALLEY":" ","HOUSE_NO":"４２８號","E_COORD97":169521.216579,"N_COORD97":2551631.9003499998,"ADDRESS":"北安路四段４２８號","OBJECTID":262650},"geometry":{"x":169521.21657899953,"y":2551631.9003520031}},{"attributes":{"ID":262655,"DIS_CODE":0,"TOWNNAME":"安南區","LI":"州北里","LIN":"9鄰","STREET":"北安路","SECT":"四段","MAREA":" ","LANE":" ","ALLEY":" ","HOUSE_NO":"４３０號","E_COORD97":169521.64023700001,"N_COORD97":2551636.5570200002,"ADDRESS":"北安路四段４３０號","OBJECTID":262651},"geometry":{"x":169521.64023700077,"y":2551636.5570160039}},{"attributes":{"ID":262656,"DIS_CODE":0,"TOWNNAME":"善化區","LI":"小新里","LIN":"22鄰","STREET":" ","SECT":" ","MAREA":"士宏新村","LANE":" ","ALLEY":" ","HOUSE_NO":"４５號","E_COORD97":180431.54000000001,"N_COORD97":2558578.5,"ADDRESS":"士宏新村４５號","OBJECTID":262652},"geometry":{"x":180431.54000000004,"y":2558578.5}},{"attributes":{"ID":262657,"DIS_CODE":0,"TOWNNAME":"安南區","LI":"州北里","LIN":"9鄰","STREET":"北安路","SECT":"四段","MAREA":" ","LANE":" ","ALLEY":" ","HOUSE_NO":"４３２號","E_COORD97":169521.42840800001,"N_COORD97":2551641.4253500002,"ADDRESS":"北安路四段４３２號","OBJECTID":262653},"geometry":{"x":169521.42840800062,"y":2551641.4253470004}},{"attributes":{"ID":262658,"DIS_CODE":0,"TOWNNAME":"安南區","LI":"州北里","LIN":"9鄰","STREET":"北安路","SECT":"四段","MAREA":" ","LANE":" ","ALLEY":" ","HOUSE_NO":"４３６號","E_COORD97":169523.33486599999,"N_COORD97":2551645.4470099998,"ADDRESS":"北安路四段４３６號","OBJECTID":262654},"geometry":{"x":169523.33486600034,"y":2551645.4470110014}},{"attributes":{"ID":262659,"DIS_CODE":0,"TOWNNAME":"善化區","LI":"小新里","LIN":"22鄰","STREET":" ","SECT":" ","MAREA":"士宏新村","LANE":" ","ALLEY":" ","HOUSE_NO":"２８號","E_COORD97":180454.35999999999,"N_COORD97":2558532.75,"ADDRESS":"士宏新村２８號","OBJECTID":262655},"geometry":{"x":180454.36000000127,"y":2558532.75}},{"attributes":{"ID":262660,"DIS_CODE":0,"TOWNNAME":"善化區","LI":"小新里","LIN":"22鄰","STREET":" ","SECT":" ","MAREA":"士宏新村","LANE":" ","ALLEY":" ","HOUSE_NO":"４０號","E_COORD97":180453.31,"N_COORD97":2558558.5,"ADDRESS":"士宏新村４０號","OBJECTID":262656},"geometry":{"x":180453.30999999866,"y":2558558.5}},{"attributes":{"ID":262661,"DIS_CODE":0,"TOWNNAME":"安南區","LI":"州北里","LIN":"9鄰","STREET":"北安路","SECT":"四段","MAREA":" ","LANE":" ","ALLEY":" ","HOUSE_NO":"４３８號","E_COORD97":169522.91120900001,"N_COORD97":2551649.8920100001,"ADDRESS":"北安路四段４３８號","OBJECTID":262657},"geometry":{"x":169522.91120900121,"y":2551649.8920090012}},{"attributes":{"ID":262662,"DIS_CODE":0,"TOWNNAME":"安南區","LI":"州北里","LIN":"8鄰","STREET":"長和路","SECT":"三段","MAREA":" ","LANE":" ","ALLEY":" ","HOUSE_NO":"１１６號","E_COORD97":169588.68402300001,"N_COORD97":2551557.5524800001,"ADDRESS":"長和路三段１１６號","OBJECTID":262658},"geometry":{"x":169588.68402300123,"y":2551557.5524760038}},{"attributes":{"ID":262663,"DIS_CODE":0,"TOWNNAME":"安南區","LI":"州北里","LIN":"8鄰","STREET":"長和路","SECT":"三段","MAREA":" ","LANE":" ","ALLEY":" ","HOUSE_NO":"１６５號","E_COORD97":169585.29476399999,"N_COORD97":2551531.7291600001,"ADDRESS":"長和路三段１６５號","OBJECTID":262659},"geometry":{"x":169585.29476400092,"y":2551531.7291560005}},{"attributes":{"ID":262664,"DIS_CODE":0,"TOWNNAME":"善化區","LI":"小新里","LIN":"22鄰","STREET":" ","SECT":" ","MAREA":"士宏新村","LANE":" ","ALLEY":" ","HOUSE_NO":"５４號","E_COORD97":180452.01999999999,"N_COORD97":2558588.75,"ADDRESS":"士宏新村５４號","OBJECTID":262660},"geometry":{"x":180452.02000000142,"y":2558588.7500000019}},{"attributes":{"ID":262665,"DIS_CODE":0,"TOWNNAME":"仁德區","LI":"仁愛里","LIN":"27鄰","STREET":"大同路","SECT":"三段","MAREA":" ","LANE":" ","ALLEY":" ","HOUSE_NO":"２５３號","E_COORD97":169790.12621700001,"N_COORD97":2539559.55736,"ADDRESS":"大同路三段２５３號","OBJECTID":262661},"geometry":{"x":169790.12621700019,"y":2539559.5573559999}},{"attributes":{"ID":262666,"DIS_CODE":0,"TOWNNAME":"仁德區","LI":"仁愛里","LIN":"27鄰","STREET":"大同路","SECT":"三段","MAREA":" ","LANE":" ","ALLEY":" ","HOUSE_NO":"２５１號","E_COORD97":169789.49041999999,"N_COORD97":2539564.4256799999,"ADDRESS":"大同路三段２５１號","OBJECTID":262662},"geometry":{"x":169789.4904199997,"y":2539564.4256800022}},{"attributes":{"ID":262667,"DIS_CODE":0,"TOWNNAME":"善化區","LI":"坐駕里","LIN":"22鄰","STREET":" ","SECT":" ","MAREA":"陽明新村","LANE":" ","ALLEY":" ","HOUSE_NO":"９５號","E_COORD97":178072.84,"N_COORD97":2558337.7599999998,"ADDRESS":"陽明新村９５號","OBJECTID":262663},"geometry":{"x":178072.83999999985,"y":2558337.7600000016}},{"attributes":{"ID":262668,"DIS_CODE":0,"TOWNNAME":"仁德區","LI":"仁愛里","LIN":"27鄰","STREET":"大同路","SECT":"三段","MAREA":" ","LANE":" ","ALLEY":" ","HOUSE_NO":"２７７號","E_COORD97":169795.212562,"N_COORD97":2539510.3448800002,"ADDRESS":"大同路三段２７７號","OBJECTID":262664},"geometry":{"x":169795.21256200038,"y":2539510.3448820021}},{"attributes":{"ID":262669,"DIS_CODE":0,"TOWNNAME":"仁德區","LI":"仁愛里","LIN":"27鄰","STREET":"大同路","SECT":"三段","MAREA":" ","LANE":" ","ALLEY":" ","HOUSE_NO":"２８３號","E_COORD97":169796.27221699999,"N_COORD97":2539497.43322,"ADDRESS":"大同路三段２８３號","OBJECTID":262665},"geometry":{"x":169796.2722169999,"y":2539497.4332230035}},{"attributes":{"ID":262670,"DIS_CODE":0,"TOWNNAME":"仁德區","LI":"仁愛里","LIN":"27鄰","STREET":"大同路","SECT":"三段","MAREA":" ","LANE":" ","ALLEY":" ","HOUSE_NO":"３５７號","E_COORD97":169812.647069,"N_COORD97":2539338.5558799999,"ADDRESS":"大同路三段３５７號","OBJECTID":262666},"geometry":{"x":169812.64706899971,"y":2539338.5558829997}},{"attributes":{"ID":262671,"DIS_CODE":0,"TOWNNAME":"關廟區","LI":"新光里","LIN":"4鄰","STREET":"新湖街","SECT":" ","MAREA":" ","LANE":" ","ALLEY":" ","HOUSE_NO":"２５號","E_COORD97":183739.364875,"N_COORD97":2541514.30161,"ADDRESS":"新湖街２５號","OBJECTID":262667},"geometry":{"x":183739.3648750009,"y":2541514.3016100004}},{"attributes":{"ID":262672,"DIS_CODE":0,"TOWNNAME":"下營區","LI":"新興里","LIN":"16鄰","STREET":"中興南路","SECT":" ","MAREA":" ","LANE":" ","ALLEY":" ","HOUSE_NO":"２７２之２號","E_COORD97":175432.160745,"N_COORD97":2570113.93805,"ADDRESS":"中興南路２７２之２號","OBJECTID":262668},"geometry":{"x":175432.1607450014,"y":2570113.9380460028}},{"attributes":{"ID":262673,"DIS_CODE":0,"TOWNNAME":"關廟區","LI":"下湖里","LIN":"5鄰","STREET":"下湖二街","SECT":" ","MAREA":" ","LANE":" ","ALLEY":" ","HOUSE_NO":"５７號","E_COORD97":179353.84035700001,"N_COORD97":2543012.93108,"ADDRESS":"下湖二街５７號","OBJECTID":262669},"geometry":{"x":179353.84035700094,"y":2543012.9310750011}},{"attributes":{"ID":262674,"DIS_CODE":0,"TOWNNAME":"仁德區","LI":"上崙里","LIN":"23鄰","STREET":"德崙路","SECT":" ","MAREA":" ","LANE":" ","ALLEY":" ","HOUSE_NO":"１２６號","E_COORD97":173507.25846000001,"N_COORD97":2538394.47022,"ADDRESS":"德崙路１２６號","OBJECTID":262670},"geometry":{"x":173507.25846000109,"y":2538394.4702200014}},{"attributes":{"ID":262675,"DIS_CODE":0,"TOWNNAME":"新營區","LI":"民榮里","LIN":"12鄰","STREET":"新進路","SECT":"二段","MAREA":" ","LANE":" ","ALLEY":" ","HOUSE_NO":"２１０號","E_COORD97":179150.71122200001,"N_COORD97":2577747.6635500002,"ADDRESS":"新進路二段２１０號","OBJECTID":262671},"geometry":{"x":179150.71122200135,"y":2577747.6635510027}},{"attributes":{"ID":262676,"DIS_CODE":0,"TOWNNAME":"善化區","LI":"光文里","LIN":"22鄰","STREET":"中山路","SECT":" ","MAREA":" ","LANE":" ","ALLEY":" ","HOUSE_NO":"４８之６號","E_COORD97":178799.5,"N_COORD97":2559226.27,"ADDRESS":"中山路４８之６號","OBJECTID":262672},"geometry":{"x":178799.5,"y":2559226.2699999996}},{"attributes":{"ID":262677,"DIS_CODE":0,"TOWNNAME":"善化區","LI":"光文里","LIN":"22鄰","STREET":"光華路","SECT":" ","MAREA":" ","LANE":" ","ALLEY":" ","HOUSE_NO":"１４８號","E_COORD97":178620.20000000001,"N_COORD97":2559532.25,"ADDRESS":"光華路１４８號","OBJECTID":262673},"geometry":{"x":178620.20000000019,"y":2559532.25}},{"attributes":{"ID":262678,"DIS_CODE":0,"TOWNNAME":"白河區","LI":"永安里","LIN":"14鄰","STREET":"新興路","SECT":" ","MAREA":" ","LANE":" ","ALLEY":" ","HOUSE_NO":"５２０號","E_COORD97":190405.73000000001,"N_COORD97":2583481.3500000001,"ADDRESS":"新興路５２０號","OBJECTID":262674},"geometry":{"x":190405.73000000231,"y":2583481.3499999996}},{"attributes":{"ID":262679,"DIS_CODE":0,"TOWNNAME":"善化區","LI":"小新里","LIN":"22鄰","STREET":" ","SECT":" ","MAREA":"士宏新村","LANE":" ","ALLEY":" ","HOUSE_NO":"３２號","E_COORD97":180454,"N_COORD97":2558541.5,"ADDRESS":"士宏新村３２號","OBJECTID":262675},"geometry":{"x":180454,"y":2558541.5}},{"attributes":{"ID":262680,"DIS_CODE":0,"TOWNNAME":"善化區","LI":"小新里","LIN":"22鄰","STREET":" ","SECT":" ","MAREA":"士宏新村","LANE":" ","ALLEY":" ","HOUSE_NO":"４６號","E_COORD97":180452.76999999999,"N_COORD97":2558571.5,"ADDRESS":"士宏新村４６號","OBJECTID":262676},"geometry":{"x":180452.77000000048,"y":2558571.5}},{"attributes":{"ID":262681,"DIS_CODE":0,"TOWNNAME":"仁德區","LI":"太子里","LIN":"19鄰","STREET":"長興四街","SECT":" ","MAREA":" ","LANE":" ","ALLEY":" ","HOUSE_NO":"６１之２號","E_COORD97":173966.70000000001,"N_COORD97":2543544.2999999998,"ADDRESS":"長興四街６１之２號","OBJECTID":262677},"geometry":{"x":173966.70000000019,"y":2543544.3000000007}},{"attributes":{"ID":262682,"DIS_CODE":0,"TOWNNAME":"安南區","LI":"頂安里","LIN":"10鄰","STREET":"怡安路","SECT":"一段","MAREA":" ","LANE":" ","ALLEY":" ","HOUSE_NO":"４６５號之１","E_COORD97":168517.51999999999,"N_COORD97":2549198.9199999999,"ADDRESS":"怡安路一段４６５號之１","OBJECTID":262678},"geometry":{"x":168517.51999999955,"y":2549198.9200000018}},{"attributes":{"ID":262683,"DIS_CODE":0,"TOWNNAME":"安南區","LI":"總頭里","LIN":"1鄰","STREET":"北安路","SECT":"三段","MAREA":" ","LANE":" ","ALLEY":" ","HOUSE_NO":"２９９號","E_COORD97":168723.01266099999,"N_COORD97":2549614.8642899999,"ADDRESS":"北安路三段２９９號","OBJECTID":262679},"geometry":{"x":168723.01266099978,"y":2549614.864289999}},{"attributes":{"ID":262684,"DIS_CODE":0,"TOWNNAME":"善化區","LI":"小新里","LIN":"22鄰","STREET":" ","SECT":" ","MAREA":"成功新村","LANE":" ","ALLEY":" ","HOUSE_NO":"９２號","E_COORD97":180441.17999999999,"N_COORD97":2558627.75,"ADDRESS":"成功新村９２號","OBJECTID":262680},"geometry":{"x":180441.18000000063,"y":2558627.75}},{"attributes":{"ID":262685,"DIS_CODE":0,"TOWNNAME":"善化區","LI":"小新里","LIN":"22鄰","STREET":" ","SECT":" ","MAREA":"成功新村","LANE":" ","ALLEY":" ","HOUSE_NO":"２９號","E_COORD97":180416.51000000001,"N_COORD97":2558657.25,"ADDRESS":"成功新村２９號","OBJECTID":262681},"geometry":{"x":180416.50999999978,"y":2558657.25}},{"attributes":{"ID":262686,"DIS_CODE":0,"TOWNNAME":"安南區","LI":"總頭里","LIN":"1鄰","STREET":"北安路","SECT":"三段","MAREA":" ","LANE":" ","ALLEY":" ","HOUSE_NO":"４９１號","E_COORD97":168762.63419099999,"N_COORD97":2549600.9182699998,"ADDRESS":"北安路三段４９１號","OBJECTID":262682},"geometry":{"x":168762.6341909999,"y":2549600.9182660002}},{"attributes":{"ID":262687,"DIS_CODE":0,"TOWNNAME":"善化區","LI":"小新里","LIN":"22鄰","STREET":" ","SECT":" ","MAREA":"成功新村","LANE":" ","ALLEY":" ","HOUSE_NO":"６３號","E_COORD97":180303.47,"N_COORD97":2558665.75,"ADDRESS":"成功新村６３號","OBJECTID":262683},"geometry":{"x":180303.47000000067,"y":2558665.7500000037}},{"attributes":{"ID":262688,"DIS_CODE":0,"TOWNNAME":"善化區","LI":"小新里","LIN":"22鄰","STREET":" ","SECT":" ","MAREA":"成功新村","LANE":" ","ALLEY":" ","HOUSE_NO":"４２號","E_COORD97":180455.85000000001,"N_COORD97":2558646,"ADDRESS":"成功新村４２號","OBJECTID":262684},"geometry":{"x":180455.84999999963,"y":2558646}},{"attributes":{"ID":262689,"DIS_CODE":0,"TOWNNAME":"善化區","LI":"小新里","LIN":"22鄰","STREET":" ","SECT":" ","MAREA":"成功新村","LANE":" ","ALLEY":" ","HOUSE_NO":"５４號","E_COORD97":180335.69,"N_COORD97":2558651.25,"ADDRESS":"成功新村５４號","OBJECTID":262685},"geometry":{"x":180335.69000000041,"y":2558651.25}},{"attributes":{"ID":262690,"DIS_CODE":0,"TOWNNAME":"善化區","LI":"小新里","LIN":"22鄰","STREET":" ","SECT":" ","MAREA":"成功新村","LANE":" ","ALLEY":" ","HOUSE_NO":"７１號","E_COORD97":180366.79999999999,"N_COORD97":2558653.25,"ADDRESS":"成功新村７１號","OBJECTID":262686},"geometry":{"x":180366.79999999981,"y":2558653.2500000019}},{"attributes":{"ID":262691,"DIS_CODE":0,"TOWNNAME":"善化區","LI":"小新里","LIN":"22鄰","STREET":" ","SECT":" ","MAREA":"成功新村","LANE":" ","ALLEY":" ","HOUSE_NO":"１２號","E_COORD97":180351.79999999999,"N_COORD97":2558689.75,"ADDRESS":"成功新村１２號","OBJECTID":262687},"geometry":{"x":180351.79999999981,"y":2558689.7500000019}},{"attributes":{"ID":262692,"DIS_CODE":0,"TOWNNAME":"安南區","LI":"總頭里","LIN":"1鄰","STREET":"北安路","SECT":"三段","MAREA":" ","LANE":" ","ALLEY":" ","HOUSE_NO":"３０１之１號","E_COORD97":168855.04000000001,"N_COORD97":2549652.3199999998,"ADDRESS":"北安路三段３０１之１號","OBJECTID":262688},"geometry":{"x":168855.04000000004,"y":2549652.3200000003}},{"attributes":{"ID":262693,"DIS_CODE":0,"TOWNNAME":"善化區","LI":"坐駕里","LIN":"22鄰","STREET":" ","SECT":" ","MAREA":"陽明新村","LANE":" ","ALLEY":" ","HOUSE_NO":"１５號","E_COORD97":178134.04000000001,"N_COORD97":2558375.2599999998,"ADDRESS":"陽明新村１５號","OBJECTID":262689},"geometry":{"x":178134.04000000097,"y":2558375.2600000016}},{"attributes":{"ID":262694,"DIS_CODE":0,"TOWNNAME":"善化區","LI":"坐駕里","LIN":"22鄰","STREET":" ","SECT":" ","MAREA":"坐駕","LANE":" ","ALLEY":" ","HOUSE_NO":"４５號之３","E_COORD97":178047.95000000001,"N_COORD97":2558155.02,"ADDRESS":"坐駕４５號之３","OBJECTID":262690},"geometry":{"x":178047.95000000112,"y":2558155.0200000014}},{"attributes":{"ID":262695,"DIS_CODE":0,"TOWNNAME":"安南區","LI":"頂安里","LIN":"19鄰","STREET":"北安路","SECT":"三段","MAREA":" ","LANE":" ","ALLEY":" ","HOUSE_NO":"３９２之３６號","E_COORD97":168851.892865,"N_COORD97":2549601.6121100001,"ADDRESS":"北安路三段３９２之３６號","OBJECTID":262691},"geometry":{"x":168851.89286500122,"y":2549601.6121079996}},{"attributes":{"ID":262696,"DIS_CODE":0,"TOWNNAME":"善化區","LI":"坐駕里","LIN":"22鄰","STREET":" ","SECT":" ","MAREA":"陽明新村","LANE":" ","ALLEY":" ","HOUSE_NO":"２１號","E_COORD97":178146.92999999999,"N_COORD97":2558364.7599999998,"ADDRESS":"陽明新村２１號","OBJECTID":262692},"geometry":{"x":178146.9299999997,"y":2558364.7600000016}},{"attributes":{"ID":262697,"DIS_CODE":0,"TOWNNAME":"安南區","LI":"淵中里","LIN":"17鄰","STREET":"海中街","SECT":" ","MAREA":" ","LANE":" ","ALLEY":" ","HOUSE_NO":"７１７號之１０","E_COORD97":165823.50984499999,"N_COORD97":2549668.0596099999,"ADDRESS":"海中街７１７號之１０","OBJECTID":262693},"geometry":{"x":165823.50984500069,"y":2549668.0596060008}},{"attributes":{"ID":262698,"DIS_CODE":0,"TOWNNAME":"善化區","LI":"坐駕里","LIN":"22鄰","STREET":" ","SECT":" ","MAREA":"陽明新村","LANE":" ","ALLEY":" ","HOUSE_NO":"１０５號","E_COORD97":178066.75,"N_COORD97":2558309.5099999998,"ADDRESS":"陽明新村１０５號","OBJECTID":262694},"geometry":{"x":178066.75,"y":2558309.5099999998}},{"attributes":{"ID":262699,"DIS_CODE":0,"TOWNNAME":"善化區","LI":"坐駕里","LIN":"22鄰","STREET":" ","SECT":" ","MAREA":"陽明新村","LANE":" ","ALLEY":" ","HOUSE_NO":"８０號","E_COORD97":178133.85999999999,"N_COORD97":2558296.0099999998,"ADDRESS":"陽明新村８０號","OBJECTID":262695},"geometry":{"x":178133.86000000127,"y":2558296.0099999998}},{"attributes":{"ID":262700,"DIS_CODE":0,"TOWNNAME":"關廟區","LI":"田中里","LIN":"4鄰","STREET":"中大街","SECT":" ","MAREA":" ","LANE":" ","ALLEY":" ","HOUSE_NO":"９８號","E_COORD97":184174.125573,"N_COORD97":2533629.12702,"ADDRESS":"中大街９８號","OBJECTID":262696},"geometry":{"x":184174.12557299994,"y":2533629.1270170007}},{"attributes":{"ID":262701,"DIS_CODE":0,"TOWNNAME":"安南區","LI":"顯宮里","LIN":"3鄰","STREET":"北汕尾三路","SECT":" ","MAREA":" ","LANE":" ","ALLEY":" ","HOUSE_NO":"４３０號","E_COORD97":161918.626896,"N_COORD97":2550659.4124400001,"ADDRESS":"北汕尾三路４３０號","OBJECTID":262697},"geometry":{"x":161918.62689599954,"y":2550659.4124390017}},{"attributes":{"ID":262702,"DIS_CODE":0,"TOWNNAME":"善化區","LI":"坐駕里","LIN":"22鄰","STREET":" ","SECT":" ","MAREA":"坐駕","LANE":" ","ALLEY":" ","HOUSE_NO":"４５號之１１","E_COORD97":177995.60000000001,"N_COORD97":2558230.52,"ADDRESS":"坐駕４５號之１１","OBJECTID":262698},"geometry":{"x":177995.60000000056,"y":2558230.5200000014}},{"attributes":{"ID":262703,"DIS_CODE":0,"TOWNNAME":"善化區","LI":"坐駕里","LIN":"22鄰","STREET":" ","SECT":" ","MAREA":"坐駕","LANE":" ","ALLEY":" ","HOUSE_NO":"１２號之２９","E_COORD97":178083.98999999999,"N_COORD97":2558490.02,"ADDRESS":"坐駕１２號之２９","OBJECTID":262699},"geometry":{"x":178083.99000000022,"y":2558490.0199999996}},{"attributes":{"ID":262704,"DIS_CODE":0,"TOWNNAME":"善化區","LI":"坐駕里","LIN":"22鄰","STREET":" ","SECT":" ","MAREA":"坐駕","LANE":" ","ALLEY":" ","HOUSE_NO":"４５號之８","E_COORD97":178012.73999999999,"N_COORD97":2558232.52,"ADDRESS":"坐駕４５號之８","OBJECTID":262700},"geometry":{"x":178012.74000000022,"y":2558232.5199999977}},{"attributes":{"ID":262705,"DIS_CODE":0,"TOWNNAME":"善化區","LI":"坐駕里","LIN":"22鄰","STREET":" ","SECT":" ","MAREA":"陽明新村","LANE":" ","ALLEY":" ","HOUSE_NO":"７５號","E_COORD97":178153.01000000001,"N_COORD97":2558284.5099999998,"ADDRESS":"陽明新村７５號","OBJECTID":262701},"geometry":{"x":178153.00999999978,"y":2558284.5100000016}},{"attributes":{"ID":262706,"DIS_CODE":0,"TOWNNAME":"安南區","LI":"顯宮里","LIN":"3鄰","STREET":"北汕尾三路","SECT":" ","MAREA":" ","LANE":" ","ALLEY":" ","HOUSE_NO":"４３２號","E_COORD97":161921.802891,"N_COORD97":2550665.3391,"ADDRESS":"北汕尾三路４３２號","OBJECTID":262702},"geometry":{"x":161921.80289100017,"y":2550665.3391030021}},{"attributes":{"ID":262707,"DIS_CODE":0,"TOWNNAME":"安南區","LI":"顯宮里","LIN":"1鄰","STREET":"顯宮二街","SECT":" ","MAREA":" ","LANE":" ","ALLEY":" ","HOUSE_NO":"４６號","E_COORD97":160521.824001,"N_COORD97":2548673.7685099998,"ADDRESS":"顯宮二街４６號","OBJECTID":262703},"geometry":{"x":160521.82400100026,"y":2548673.7685120031}},{"attributes":{"ID":262708,"DIS_CODE":0,"TOWNNAME":"安南區","LI":"顯宮里","LIN":"3鄰","STREET":"北汕尾三路","SECT":" ","MAREA":" ","LANE":" ","ALLEY":" ","HOUSE_NO":"４３６號","E_COORD97":161924.34368799999,"N_COORD97":2550671.9007700002,"ADDRESS":"北汕尾三路４３６號","OBJECTID":262704},"geometry":{"x":161924.34368800092,"y":2550671.900766002}},{"attributes":{"ID":262709,"DIS_CODE":0,"TOWNNAME":"安南區","LI":"顯宮里","LIN":"7鄰","STREET":"媽祖宮路","SECT":" ","MAREA":" ","LANE":" ","ALLEY":" ","HOUSE_NO":"１９０號","E_COORD97":160501.70936199999,"N_COORD97":2548805.00177,"ADDRESS":"媽祖宮路１９０號","OBJECTID":262705},"geometry":{"x":160501.70936200023,"y":2548805.0017740019}},{"attributes":{"ID":262710,"DIS_CODE":0,"TOWNNAME":"下營區","LI":"宅內里","LIN":"2鄰","STREET":"博愛街","SECT":" ","MAREA":" ","LANE":" ","ALLEY":" ","HOUSE_NO":"５１號","E_COORD97":173952.89610700001,"N_COORD97":2570566.1236700001,"ADDRESS":"博愛街５１號","OBJECTID":262706},"geometry":{"x":173952.8961070003,"y":2570566.1236680001}},{"attributes":{"ID":262711,"DIS_CODE":0,"TOWNNAME":"安南區","LI":"顯宮里","LIN":"10鄰","STREET":"媽祖宮路","SECT":" ","MAREA":" ","LANE":" ","ALLEY":" ","HOUSE_NO":"２１８號","E_COORD97":160440.94197799999,"N_COORD97":2548740.6551399999,"ADDRESS":"媽祖宮路２１８號","OBJECTID":262707},"geometry":{"x":160440.94197800104,"y":2548740.6551420018}},{"attributes":{"ID":262712,"DIS_CODE":0,"TOWNNAME":"安南區","LI":"顯宮里","LIN":"10鄰","STREET":"媽祖宮路","SECT":" ","MAREA":" ","LANE":" ","ALLEY":" ","HOUSE_NO":"２２０號","E_COORD97":160432.472656,"N_COORD97":2548738.5384800001,"ADDRESS":"媽祖宮路２２０號","OBJECTID":262708},"geometry":{"x":160432.47265600041,"y":2548738.5384769998}},{"attributes":{"ID":262713,"DIS_CODE":0,"TOWNNAME":"安南區","LI":"顯宮里","LIN":"10鄰","STREET":"媽祖宮路","SECT":" ","MAREA":" ","LANE":" ","ALLEY":" ","HOUSE_NO":"２２２號","E_COORD97":160425.06200000001,"N_COORD97":2548729.2251499998,"ADDRESS":"媽祖宮路２２２號","OBJECTID":262709},"geometry":{"x":160425.06200000085,"y":2548729.2251479998}},{"attributes":{"ID":262714,"DIS_CODE":0,"TOWNNAME":"善化區","LI":"光文里","LIN":"22鄰","STREET":"光華路","SECT":" ","MAREA":" ","LANE":" ","ALLEY":" ","HOUSE_NO":"６６號","E_COORD97":178642.87,"N_COORD97":2559355,"ADDRESS":"光華路６６號","OBJECTID":262710},"geometry":{"x":178642.87000000011,"y":2559355}},{"attributes":{"ID":262715,"DIS_CODE":0,"TOWNNAME":"善化區","LI":"光文里","LIN":"22鄰","STREET":"光華路","SECT":" ","MAREA":" ","LANE":" ","ALLEY":" ","HOUSE_NO":"１７號","E_COORD97":178635.82000000001,"N_COORD97":2559255.5,"ADDRESS":"光華路１７號","OBJECTID":262711},"geometry":{"x":178635.82000000123,"y":2559255.5000000019}},{"attributes":{"ID":262716,"DIS_CODE":0,"TOWNNAME":"善化區","LI":"光文里","LIN":"22鄰","STREET":"光華路","SECT":" ","MAREA":" ","LANE":" ","ALLEY":" ","HOUSE_NO":"８８號","E_COORD97":178639.01000000001,"N_COORD97":2559403,"ADDRESS":"光華路８８號","OBJECTID":262712},"geometry":{"x":178639.01000000071,"y":2559403.0000000037}},{"attributes":{"ID":262717,"DIS_CODE":0,"TOWNNAME":"善化區","LI":"坐駕里","LIN":"22鄰","STREET":" ","SECT":" ","MAREA":"坐駕","LANE":" ","ALLEY":" ","HOUSE_NO":"１２之２５號","E_COORD97":178128.82999999999,"N_COORD97":2558487.52,"ADDRESS":"坐駕１２之２５號","OBJECTID":262713},"geometry":{"x":178128.83000000101,"y":2558487.5200000014}},{"attributes":{"ID":262718,"DIS_CODE":0,"TOWNNAME":"善化區","LI":"坐駕里","LIN":"22鄰","STREET":" ","SECT":" ","MAREA":"坐駕","LANE":" ","ALLEY":" ","HOUSE_NO":"１２之３２號","E_COORD97":178070.67999999999,"N_COORD97":2558465.02,"ADDRESS":"坐駕１２之３２號","OBJECTID":262714},"geometry":{"x":178070.6799999997,"y":2558465.0199999996}},{"attributes":{"ID":262719,"DIS_CODE":0,"TOWNNAME":"善化區","LI":"坐駕里","LIN":"22鄰","STREET":" ","SECT":" ","MAREA":"坐駕","LANE":" ","ALLEY":" ","HOUSE_NO":"１２號","E_COORD97":178146.45999999999,"N_COORD97":2558456.25,"ADDRESS":"坐駕１２號","OBJECTID":262715},"geometry":{"x":178146.46000000089,"y":2558456.2500000019}},{"attributes":{"ID":262720,"DIS_CODE":0,"TOWNNAME":"安南區","LI":"顯宮里","LIN":"9鄰","STREET":"媽祖宮路","SECT":" ","MAREA":" ","LANE":" ","ALLEY":" ","HOUSE_NO":"２５０號","E_COORD97":160344.39171,"N_COORD97":2548707.42349,"ADDRESS":"媽祖宮路２５０號","OBJECTID":262716},"geometry":{"x":160344.39171000011,"y":2548707.423494}},{"attributes":{"ID":262721,"DIS_CODE":0,"TOWNNAME":"永康區","LI":"埔園里","LIN":"14鄰","STREET":"中山路","SECT":" ","MAREA":" ","LANE":" ","ALLEY":" ","HOUSE_NO":"２７３號","E_COORD97":173634.47367000001,"N_COORD97":2548245.4036300001,"ADDRESS":"中山路２７３號","OBJECTID":262717},"geometry":{"x":173634.47367000114,"y":2548245.4036310017}},{"attributes":{"ID":262722,"DIS_CODE":0,"TOWNNAME":"仁德區","LI":"仁愛里","LIN":"28鄰","STREET":"機場路","SECT":" ","MAREA":" ","LANE":" ","ALLEY":" ","HOUSE_NO":"１０５０之２號","E_COORD97":169759.89522800001,"N_COORD97":2538979.5541300001,"ADDRESS":"機場路１０５０之２號","OBJECTID":262718},"geometry":{"x":169759.89522800129,"y":2538979.5541330017}},{"attributes":{"ID":262723,"DIS_CODE":0,"TOWNNAME":"關廟區","LI":"下湖里","LIN":"6鄰","STREET":"下湖二街","SECT":" ","MAREA":" ","LANE":" ","ALLEY":" ","HOUSE_NO":"１８號","E_COORD97":179426.981202,"N_COORD97":2543166.20481,"ADDRESS":"下湖二街１８號","OBJECTID":262719},"geometry":{"x":179426.98120200075,"y":2543166.2048110012}},{"attributes":{"ID":262724,"DIS_CODE":0,"TOWNNAME":"新營區","LI":"王公里","LIN":"18鄰","STREET":"樂利街","SECT":" ","MAREA":" ","LANE":" ","ALLEY":" ","HOUSE_NO":"４７號","E_COORD97":180278.073064,"N_COORD97":2579275.8709100001,"ADDRESS":"樂利街４７號","OBJECTID":262720},"geometry":{"x":180278.07306400128,"y":2579275.8709089998}},{"attributes":{"ID":262725,"DIS_CODE":0,"TOWNNAME":"新營區","LI":"王公里","LIN":"21鄰","STREET":"大智街","SECT":" ","MAREA":" ","LANE":" ","ALLEY":" ","HOUSE_NO":"８９號","E_COORD97":180393.97263900001,"N_COORD97":2579332.22713,"ADDRESS":"大智街８９號","OBJECTID":262721},"geometry":{"x":180393.97263900004,"y":2579332.2271289993}},{"attributes":{"ID":262726,"DIS_CODE":0,"TOWNNAME":"新營區","LI":"王公里","LIN":"21鄰","STREET":"大智街","SECT":" ","MAREA":" ","LANE":" ","ALLEY":" ","HOUSE_NO":"９１號","E_COORD97":180397.78651899999,"N_COORD97":2579332.0154599999,"ADDRESS":"大智街９１號","OBJECTID":262722},"geometry":{"x":180397.78651900124,"y":2579332.0154620036}},{"attributes":{"ID":262727,"DIS_CODE":0,"TOWNNAME":"新營區","LI":"王公里","LIN":"21鄰","STREET":"大智街","SECT":" ","MAREA":" ","LANE":" ","ALLEY":" ","HOUSE_NO":"９３號","E_COORD97":180401.38851700001,"N_COORD97":2579332.0154599999,"ADDRESS":"大智街９３號","OBJECTID":262723},"geometry":{"x":180401.38851700071,"y":2579332.0154620036}},{"attributes":{"ID":262728,"DIS_CODE":0,"TOWNNAME":"新營區","LI":"王公里","LIN":"21鄰","STREET":"大智街","SECT":" ","MAREA":" ","LANE":" ","ALLEY":" ","HOUSE_NO":"９５號","E_COORD97":180405.62616099999,"N_COORD97":2579332.22713,"ADDRESS":"大智街９５號","OBJECTID":262724},"geometry":{"x":180405.62616100069,"y":2579332.2271289993}},{"attributes":{"ID":262729,"DIS_CODE":0,"TOWNNAME":"新營區","LI":"王公里","LIN":"21鄰","STREET":"大智街","SECT":" ","MAREA":" ","LANE":" ","ALLEY":" ","HOUSE_NO":"９７號","E_COORD97":180408.592512,"N_COORD97":2579332.6504600001,"ADDRESS":"大智街９７號","OBJECTID":262725},"geometry":{"x":180408.59251200035,"y":2579332.6504620034}},{"attributes":{"ID":262730,"DIS_CODE":0,"TOWNNAME":"新營區","LI":"王公里","LIN":"21鄰","STREET":"大智街","SECT":" ","MAREA":" ","LANE":" ","ALLEY":" ","HOUSE_NO":"９９號","E_COORD97":180412.19451,"N_COORD97":2579332.22713,"ADDRESS":"大智街９９號","OBJECTID":262726},"geometry":{"x":180412.19451000076,"y":2579332.2271289993}},{"attributes":{"ID":262731,"DIS_CODE":0,"TOWNNAME":"新營區","LI":"王公里","LIN":"17鄰","STREET":"大智街","SECT":" ","MAREA":" ","LANE":" ","ALLEY":" ","HOUSE_NO":"５９號","E_COORD97":180310.27916199999,"N_COORD97":2579327.5704600001,"ADDRESS":"大智街５９號","OBJECTID":262727},"geometry":{"x":180310.27916199993,"y":2579327.5704650041}},{"attributes":{"ID":262732,"DIS_CODE":0,"TOWNNAME":"永康區","LI":"烏竹里","LIN":"20鄰","STREET":"自強路","SECT":" ","MAREA":" ","LANE":" ","ALLEY":" ","HOUSE_NO":"７９３號","E_COORD97":174521.17999999999,"N_COORD97":2548598.5699999998,"ADDRESS":"自強路７９３號","OBJECTID":262728},"geometry":{"x":174521.17999999877,"y":2548598.5700000022}},{"attributes":{"ID":262733,"DIS_CODE":0,"TOWNNAME":"新營區","LI":"王公里","LIN":"17鄰","STREET":"大智街","SECT":" ","MAREA":" ","LANE":" ","ALLEY":" ","HOUSE_NO":"６１號","E_COORD97":180313.66927700001,"N_COORD97":2579328.0996300001,"ADDRESS":"大智街６１號","OBJECTID":262729},"geometry":{"x":180313.66927700117,"y":2579328.0996310022}},{"attributes":{"ID":262734,"DIS_CODE":0,"TOWNNAME":"新營區","LI":"王公里","LIN":"17鄰","STREET":"大智街","SECT":" ","MAREA":" ","LANE":" ","ALLEY":" ","HOUSE_NO":"６５號","E_COORD97":180317.90692199999,"N_COORD97":2579328.5229600002,"ADDRESS":"大智街６５號","OBJECTID":262730},"geometry":{"x":180317.90692200046,"y":2579328.5229640007}},{"attributes":{"ID":262735,"DIS_CODE":0,"TOWNNAME":"關廟區","LI":"龜洞里","LIN":"1鄰","STREET":"中崙街","SECT":" ","MAREA":" ","LANE":" ","ALLEY":" ","HOUSE_NO":"７８號","E_COORD97":183344.28342299999,"N_COORD97":2533692.3622099999,"ADDRESS":"中崙街７８號","OBJECTID":262731},"geometry":{"x":183344.28342300095,"y":2533692.3622099999}},{"attributes":{"ID":262736,"DIS_CODE":0,"TOWNNAME":"永康區","LI":"復國里","LIN":"7鄰","STREET":"復國一路","SECT":" ","MAREA":" ","LANE":" ","ALLEY":" ","HOUSE_NO":"２６２號之１","E_COORD97":172746.47,"N_COORD97":2545381.1299999999,"ADDRESS":"復國一路２６２號之１","OBJECTID":262732},"geometry":{"x":172746.47000000067,"y":2545381.129999999}},{"attributes":{"ID":262737,"DIS_CODE":0,"TOWNNAME":"永康區","LI":"復國里","LIN":"13鄰","STREET":"復華三街","SECT":" ","MAREA":" ","LANE":" ","ALLEY":" ","HOUSE_NO":"２３號之１","E_COORD97":172876.94276599999,"N_COORD97":2545529.6683200002,"ADDRESS":"復華三街２３號之１","OBJECTID":262733},"geometry":{"x":172876.94276599959,"y":2545529.6683200002}},{"attributes":{"ID":262738,"DIS_CODE":0,"TOWNNAME":"仁德區","LI":"仁德里","LIN":"3鄰","STREET":"仁中六街","SECT":" ","MAREA":" ","LANE":" ","ALLEY":" ","HOUSE_NO":"７２號","E_COORD97":173388.686128,"N_COORD97":2540404.3248899998,"ADDRESS":"仁中六街７２號","OBJECTID":262734},"geometry":{"x":173388.68612800073,"y":2540404.3248870019}},{"attributes":{"ID":262739,"DIS_CODE":0,"TOWNNAME":"仁德區","LI":"新田里","LIN":"4鄰","STREET":"新田路","SECT":" ","MAREA":" ","LANE":" ","ALLEY":" ","HOUSE_NO":"２２３號","E_COORD97":174466.53772600001,"N_COORD97":2539685.2519399999,"ADDRESS":"新田路２２３號","OBJECTID":262735},"geometry":{"x":174466.53772600181,"y":2539685.2519360017}},{"attributes":{"ID":262740,"DIS_CODE":0,"TOWNNAME":"仁德區","LI":"仁愛里","LIN":"27鄰","STREET":"大同路","SECT":"三段","MAREA":" ","LANE":" ","ALLEY":" ","HOUSE_NO":"７５５號三樓","E_COORD97":170019.23000000001,"N_COORD97":2538630.6800000002,"ADDRESS":"大同路三段７５５號三樓","OBJECTID":262736},"geometry":{"x":170019.23000000231,"y":2538630.6799999997}},{"attributes":{"ID":262741,"DIS_CODE":0,"TOWNNAME":"仁德區","LI":"仁愛里","LIN":"27鄰","STREET":"大同路","SECT":"三段","MAREA":" ","LANE":" ","ALLEY":" ","HOUSE_NO":"７５５號地下一樓","E_COORD97":170019.23000000001,"N_COORD97":2538630.6800000002,"ADDRESS":"大同路三段７５５號地下一樓","OBJECTID":262737},"geometry":{"x":170019.23000000231,"y":2538630.6799999997}},{"attributes":{"ID":262742,"DIS_CODE":0,"TOWNNAME":"仁德區","LI":"新田里","LIN":"4鄰","STREET":"勝利一街","SECT":" ","MAREA":" ","LANE":" ","ALLEY":" ","HOUSE_NO":"４３號","E_COORD97":174127.551657,"N_COORD97":2539405.7557899999,"ADDRESS":"勝利一街４３號","OBJECTID":262738},"geometry":{"x":174127.55165700056,"y":2539405.7557930015}},{"attributes":{"ID":262743,"DIS_CODE":0,"TOWNNAME":"中西區","LI":"進學里","LIN":"2鄰","STREET":"忠義路","SECT":"一段","MAREA":" ","LANE":" ","ALLEY":" ","HOUSE_NO":"５５號","E_COORD97":168159.13643300001,"N_COORD97":2542973.1879400001,"ADDRESS":"忠義路一段５５號","OBJECTID":262739},"geometry":{"x":168159.13643299975,"y":2542973.1879399996}},{"attributes":{"ID":262744,"DIS_CODE":0,"TOWNNAME":"仁德區","LI":"保安里","LIN":"2鄰","STREET":"文賢路","SECT":"一段","MAREA":" ","LANE":" ","ALLEY":" ","HOUSE_NO":"５０２號","E_COORD97":171026.93107399999,"N_COORD97":2537131.4663900002,"ADDRESS":"文賢路一段５０２號","OBJECTID":262740},"geometry":{"x":171026.9310740009,"y":2537131.4663890023}},{"attributes":{"ID":262745,"DIS_CODE":0,"TOWNNAME":"仁德區","LI":"保安里","LIN":"6鄰","STREET":"文賢路","SECT":"一段","MAREA":" ","LANE":" ","ALLEY":" ","HOUSE_NO":"７６５之１號","E_COORD97":171487.864623,"N_COORD97":2536169.6535700001,"ADDRESS":"文賢路一段７６５之１號","OBJECTID":262741},"geometry":{"x":171487.86462299991,"y":2536169.6535750013}},{"attributes":{"ID":262746,"DIS_CODE":0,"TOWNNAME":"仁德區","LI":"仁德里","LIN":"22鄰","STREET":"文善街","SECT":" ","MAREA":" ","LANE":" ","ALLEY":" ","HOUSE_NO":"１４０號","E_COORD97":172359.76076800001,"N_COORD97":2541514.5585400001,"ADDRESS":"文善街１４０號","OBJECTID":262742},"geometry":{"x":172359.76076800004,"y":2541514.5585399996}},{"attributes":{"ID":262747,"DIS_CODE":0,"TOWNNAME":"仁德區","LI":"仁德里","LIN":"22鄰","STREET":"文善街","SECT":" ","MAREA":" ","LANE":" ","ALLEY":" ","HOUSE_NO":"１４２號","E_COORD97":172361.243842,"N_COORD97":2541519.8502000002,"ADDRESS":"文善街１４２號","OBJECTID":262743},"geometry":{"x":172361.24384200107,"y":2541519.8502039984}},{"attributes":{"ID":262748,"DIS_CODE":0,"TOWNNAME":"永康區","LI":"六合里","LIN":"2鄰","STREET":"新興街","SECT":" ","MAREA":" ","LANE":" ","ALLEY":" ","HOUSE_NO":"７號","E_COORD97":170848.76788500001,"N_COORD97":2545774.6835400001,"ADDRESS":"新興街７號","OBJECTID":262744},"geometry":{"x":170848.76788500044,"y":2545774.6835390031}},{"attributes":{"ID":262749,"DIS_CODE":0,"TOWNNAME":"永康區","LI":"中華里","LIN":"32鄰","STREET":"中華二路","SECT":" ","MAREA":" ","LANE":" ","ALLEY":" ","HOUSE_NO":"３２７號","E_COORD97":171360.534755,"N_COORD97":2545412.8395699998,"ADDRESS":"中華二路３２７號","OBJECTID":262745},"geometry":{"x":171360.53475500084,"y":2545412.8395680021}},{"attributes":{"ID":262750,"DIS_CODE":0,"TOWNNAME":"仁德區","LI":"仁德里","LIN":"12鄰","STREET":"四維街","SECT":" ","MAREA":" ","LANE":" ","ALLEY":" ","HOUSE_NO":"３６號一樓之１","E_COORD97":173258.70999999999,"N_COORD97":2541553.6099999999,"ADDRESS":"四維街３６號一樓之１","OBJECTID":262746},"geometry":{"x":173258.71000000089,"y":2541553.6099999994}},{"attributes":{"ID":262751,"DIS_CODE":0,"TOWNNAME":"仁德區","LI":"仁愛里","LIN":"28鄰","STREET":"大同路","SECT":"三段","MAREA":" ","LANE":" ","ALLEY":" ","HOUSE_NO":"７６８號","E_COORD97":169856.96354600001,"N_COORD97":2538795.2025100002,"ADDRESS":"大同路三段７６８號","OBJECTID":262747},"geometry":{"x":169856.96354600135,"y":2538795.2025090028}},{"attributes":{"ID":262752,"DIS_CODE":0,"TOWNNAME":"南區","LI":"郡南里","LIN":"17鄰","STREET":"永成路","SECT":"三段","MAREA":" ","LANE":" ","ALLEY":" ","HOUSE_NO":"６３號","E_COORD97":167481.07448800001,"N_COORD97":2540507.69514,"ADDRESS":"永成路三段６３號","OBJECTID":262748},"geometry":{"x":167481.07448800094,"y":2540507.6951350011}},{"attributes":{"ID":262753,"DIS_CODE":0,"TOWNNAME":"南區","LI":"郡南里","LIN":"17鄰","STREET":"永成路","SECT":"三段","MAREA":" ","LANE":" ","ALLEY":" ","HOUSE_NO":"６１號","E_COORD97":167480.439166,"N_COORD97":2540505.5784700001,"ADDRESS":"永成路三段６１號","OBJECTID":262749},"geometry":{"x":167480.43916600104,"y":2540505.5784699991}},{"attributes":{"ID":262754,"DIS_CODE":0,"TOWNNAME":"南區","LI":"郡南里","LIN":"17鄰","STREET":"永成路","SECT":"三段","MAREA":" ","LANE":" ","ALLEY":" ","HOUSE_NO":"５９號","E_COORD97":167480.439166,"N_COORD97":2540502.4034699998,"ADDRESS":"永成路三段５９號","OBJECTID":262750},"geometry":{"x":167480.43916600104,"y":2540502.4034710005}},{"attributes":{"ID":262755,"DIS_CODE":0,"TOWNNAME":"南區","LI":"郡南里","LIN":"17鄰","STREET":"永成路","SECT":"三段","MAREA":" ","LANE":" ","ALLEY":" ","HOUSE_NO":"５７號","E_COORD97":167480.12150499999,"N_COORD97":2540498.2230600002,"ADDRESS":"永成路三段５７號","OBJECTID":262751},"geometry":{"x":167480.1215049997,"y":2540498.223057}},{"attributes":{"ID":262756,"DIS_CODE":0,"TOWNNAME":"南區","LI":"郡南里","LIN":"17鄰","STREET":"永成路","SECT":"三段","MAREA":" ","LANE":" ","ALLEY":" ","HOUSE_NO":"５５號","E_COORD97":167480.12150499999,"N_COORD97":2540492.8255599998,"ADDRESS":"永成路三段５５號","OBJECTID":262752},"geometry":{"x":167480.1215049997,"y":2540492.8255599998}},{"attributes":{"ID":262757,"DIS_CODE":0,"TOWNNAME":"南區","LI":"郡南里","LIN":"17鄰","STREET":"永成路","SECT":"三段","MAREA":" ","LANE":" ","ALLEY":" ","HOUSE_NO":"５３號","E_COORD97":167479.697957,"N_COORD97":2540489.2272299998,"ADDRESS":"永成路三段５３號","OBJECTID":262753},"geometry":{"x":167479.69795699976,"y":2540489.2272280026}},{"attributes":{"ID":262758,"DIS_CODE":0,"TOWNNAME":"安南區","LI":"總頭里","LIN":"3鄰","STREET":"總安街","SECT":"二段","MAREA":" ","LANE":" ","ALLEY":" ","HOUSE_NO":"３６４號","E_COORD97":168316.176194,"N_COORD97":2550540.9827899998,"ADDRESS":"總安街二段３６４號","OBJECTID":262754},"geometry":{"x":168316.17619400099,"y":2550540.9827940017}},{"attributes":{"ID":262759,"DIS_CODE":0,"TOWNNAME":"南區","LI":"郡南里","LIN":"11鄰","STREET":"永成路","SECT":"三段","MAREA":" ","LANE":" ","ALLEY":" ","HOUSE_NO":"８９號","E_COORD97":167481.07448800001,"N_COORD97":2540620.4075699998,"ADDRESS":"永成路三段８９號","OBJECTID":262755},"geometry":{"x":167481.07448800094,"y":2540620.4075740017}},{"attributes":{"ID":262760,"DIS_CODE":0,"TOWNNAME":"仁德區","LI":"保安里","LIN":"9鄰","STREET":"文賢路","SECT":"一段","MAREA":" ","LANE":" ","ALLEY":" ","HOUSE_NO":"７９１號","E_COORD97":171534.96682599999,"N_COORD97":2536100.3234799998,"ADDRESS":"文賢路一段７９１號","OBJECTID":262756},"geometry":{"x":171534.96682600118,"y":2536100.3234790023}},{"attributes":{"ID":262761,"DIS_CODE":0,"TOWNNAME":"南區","LI":"郡南里","LIN":"11鄰","STREET":"永成路","SECT":"三段","MAREA":" ","LANE":" ","ALLEY":" ","HOUSE_NO":"８７號","E_COORD97":167479.697957,"N_COORD97":2540612.6288299998,"ADDRESS":"永成路三段８７號","OBJECTID":262757},"geometry":{"x":167479.69795699976,"y":2540612.6288280003}},{"attributes":{"ID":262762,"DIS_CODE":0,"TOWNNAME":"南區","LI":"郡南里","LIN":"24鄰","STREET":"永成路","SECT":"三段","MAREA":" ","LANE":" ","ALLEY":" ","HOUSE_NO":"１５０號","E_COORD97":167508.60511599999,"N_COORD97":2540636.8646499999,"ADDRESS":"永成路三段１５０號","OBJECTID":262758},"geometry":{"x":167508.60511600133,"y":2540636.8646490015}},{"attributes":{"ID":262763,"DIS_CODE":0,"TOWNNAME":"仁德區","LI":"保安里","LIN":"12鄰","STREET":"永德路","SECT":" ","MAREA":" ","LANE":" ","ALLEY":" ","HOUSE_NO":"３３之１號","E_COORD97":172592.78746699999,"N_COORD97":2535687.4391800002,"ADDRESS":"永德路３３之１號","OBJECTID":262759},"geometry":{"x":172592.78746700101,"y":2535687.4391840007}},{"attributes":{"ID":262764,"DIS_CODE":0,"TOWNNAME":"永康區","LI":"尚頂里","LIN":"22鄰","STREET":"中華路","SECT":" ","MAREA":" ","LANE":" ","ALLEY":" ","HOUSE_NO":"９６８號","E_COORD97":170380.35000000001,"N_COORD97":2546778.23,"ADDRESS":"中華路９６８號","OBJECTID":262760},"geometry":{"x":170380.35000000149,"y":2546778.2300000004}},{"attributes":{"ID":262765,"DIS_CODE":0,"TOWNNAME":"仁德區","LI":"保安里","LIN":"12鄰","STREET":"開發二路","SECT":" ","MAREA":" ","LANE":" ","ALLEY":" ","HOUSE_NO":"１４號","E_COORD97":172729.24186899999,"N_COORD97":2536028.6840400002,"ADDRESS":"開發二路１４號","OBJECTID":262761},"geometry":{"x":172729.24186899979,"y":2536028.6840439998}},{"attributes":{"ID":262766,"DIS_CODE":0,"TOWNNAME":"永康區","LI":"\u25A0行里","LIN":"22鄰","STREET":"正南五街","SECT":" ","MAREA":" ","LANE":" ","ALLEY":" ","HOUSE_NO":"４８２號","E_COORD97":171642.01999999999,"N_COORD97":2548734,"ADDRESS":"正南五街４８２號","OBJECTID":262762},"geometry":{"x":171642.02000000142,"y":2548734.0000000019}},{"attributes":{"ID":262767,"DIS_CODE":0,"TOWNNAME":"永康區","LI":"中興里","LIN":"22鄰","STREET":"中華路","SECT":" ","MAREA":" ","LANE":" ","ALLEY":" ","HOUSE_NO":"２１９號","E_COORD97":171599.66,"N_COORD97":2545064.25,"ADDRESS":"中華路２１９號","OBJECTID":262763},"geometry":{"x":171599.66000000108,"y":2545064.2500000019}},{"attributes":{"ID":262768,"DIS_CODE":0,"TOWNNAME":"永康區","LI":"\u25A0行里","LIN":"22鄰","STREET":"中正南路","SECT":" ","MAREA":" ","LANE":" ","ALLEY":" ","HOUSE_NO":"６４２號","E_COORD97":171516.85999999999,"N_COORD97":2548759.9900000002,"ADDRESS":"中正南路６４２號","OBJECTID":262764},"geometry":{"x":171516.8600000022,"y":2548759.9900000002}},{"attributes":{"ID":262769,"DIS_CODE":0,"TOWNNAME":"永康區","LI":"龍潭里","LIN":"22鄰","STREET":"自強路","SECT":" ","MAREA":" ","LANE":" ","ALLEY":" ","HOUSE_NO":"８３８號","E_COORD97":174662.13,"N_COORD97":2548671.7200000002,"ADDRESS":"自強路８３８號","OBJECTID":262765},"geometry":{"x":174662.12999999989,"y":2548671.7200000044}},{"attributes":{"ID":262770,"DIS_CODE":0,"TOWNNAME":"永康區","LI":"龍潭里","LIN":"22鄰","STREET":"自強路","SECT":" ","MAREA":" ","LANE":" ","ALLEY":" ","HOUSE_NO":"８３２號","E_COORD97":174654.60999999999,"N_COORD97":2548666.2200000002,"ADDRESS":"自強路８３２號","OBJECTID":262766},"geometry":{"x":174654.6100000022,"y":2548666.2200000025}},{"attributes":{"ID":262771,"DIS_CODE":0,"TOWNNAME":"仁德區","LI":"保安里","LIN":"12鄰","STREET":"開發二路","SECT":" ","MAREA":" ","LANE":" ","ALLEY":" ","HOUSE_NO":"１６號","E_COORD97":172748.51804200001,"N_COORD97":2536041.1723699998,"ADDRESS":"開發二路１６號","OBJECTID":262767},"geometry":{"x":172748.51804200094,"y":2536041.1723699998}},{"attributes":{"ID":262772,"DIS_CODE":0,"TOWNNAME":"永康區","LI":"龍潭里","LIN":"22鄰","STREET":"自強路","SECT":" ","MAREA":" ","LANE":" ","ALLEY":" ","HOUSE_NO":"８４８號","E_COORD97":174677.97,"N_COORD97":2548683.48,"ADDRESS":"自強路８４８號","OBJECTID":262768},"geometry":{"x":174677.96999999974,"y":2548683.4800000042}},{"attributes":{"ID":262773,"DIS_CODE":0,"TOWNNAME":"白河區","LI":"白河里","LIN":" ","STREET":"中正路","SECT":" ","MAREA":" ","LANE":" ","ALLEY":" ","HOUSE_NO":"１３之５號","E_COORD97":190241.73999999999,"N_COORD97":2583086.1200000001,"ADDRESS":"中正路１３之５號","OBJECTID":262769},"geometry":{"x":190241.74000000115,"y":2583086.1200000029}},{"attributes":{"ID":262774,"DIS_CODE":0,"TOWNNAME":"白河區","LI":"白河里","LIN":" ","STREET":"中正路","SECT":" ","MAREA":" ","LANE":" ","ALLEY":" ","HOUSE_NO":"１３之６號","E_COORD97":190238.42000000001,"N_COORD97":2583087.04,"ADDRESS":"中正路１３之６號","OBJECTID":262770},"geometry":{"x":190238.42000000086,"y":2583087.0400000028}},{"attributes":{"ID":262775,"DIS_CODE":0,"TOWNNAME":"白河區","LI":"白河里","LIN":" ","STREET":"中正路","SECT":" ","MAREA":" ","LANE":" ","ALLEY":" ","HOUSE_NO":"１３之７號","E_COORD97":190235.10000000001,"N_COORD97":2583087.9700000002,"ADDRESS":"中正路１３之７號","OBJECTID":262771},"geometry":{"x":190235.10000000056,"y":2583087.9700000007}},{"attributes":{"ID":262776,"DIS_CODE":0,"TOWNNAME":"白河區","LI":"永安里","LIN":" ","STREET":"中正路","SECT":" ","MAREA":" ","LANE":" ","ALLEY":" ","HOUSE_NO":"１７３之２號","E_COORD97":189732.20000000001,"N_COORD97":2583069.8199999998,"ADDRESS":"中正路１７３之２號","OBJECTID":262772},"geometry":{"x":189732.20000000019,"y":2583069.8200000022}},{"attributes":{"ID":262777,"DIS_CODE":0,"TOWNNAME":"新營區","LI":"新南里","LIN":"15鄰","STREET":"隋唐街","SECT":" ","MAREA":" ","LANE":" ","ALLEY":" ","HOUSE_NO":"１７２號","E_COORD97":178562.34838800001,"N_COORD97":2578558.7313299999,"ADDRESS":"隋唐街１７２號","OBJECTID":262773},"geometry":{"x":178562.34838800039,"y":2578558.7313299999}},{"attributes":{"ID":262778,"DIS_CODE":0,"TOWNNAME":"新營區","LI":"新南里","LIN":"15鄰","STREET":"隋唐街","SECT":" ","MAREA":" ","LANE":" ","ALLEY":" ","HOUSE_NO":"１７６號","E_COORD97":178557.05133300001,"N_COORD97":2578559.3663300001,"ADDRESS":"隋唐街１７６號","OBJECTID":262774},"geometry":{"x":178557.05133300181,"y":2578559.3663299996}},{"attributes":{"ID":262779,"DIS_CODE":0,"TOWNNAME":"新營區","LI":"新南里","LIN":"15鄰","STREET":"隋唐街","SECT":" ","MAREA":" ","LANE":" ","ALLEY":" ","HOUSE_NO":"１７８號","E_COORD97":178552.60180599999,"N_COORD97":2578560.0013299999,"ADDRESS":"隋唐街１７８號","OBJECTID":262775},"geometry":{"x":178552.60180599988,"y":2578560.0013299994}},{"attributes":{"ID":262780,"DIS_CODE":0,"TOWNNAME":"新營區","LI":"新南里","LIN":"20鄰","STREET":"金華路","SECT":"二段","MAREA":" ","LANE":" ","ALLEY":" ","HOUSE_NO":"２８１號","E_COORD97":178204.47931699999,"N_COORD97":2578326.8506200002,"ADDRESS":"金華路二段２８１號","OBJECTID":262776},"geometry":{"x":178204.47931700107,"y":2578326.850622002}},{"attributes":{"ID":262781,"DIS_CODE":0,"TOWNNAME":"新營區","LI":"新南里","LIN":"20鄰","STREET":"金華路","SECT":"二段","MAREA":" ","LANE":" ","ALLEY":" ","HOUSE_NO":"２８３號","E_COORD97":178207.445668,"N_COORD97":2578327.9089500001,"ADDRESS":"金華路二段２８３號","OBJECTID":262777},"geometry":{"x":178207.44566800073,"y":2578327.9089550003}},{"attributes":{"ID":262782,"DIS_CODE":0,"TOWNNAME":"仁德區","LI":"保安里","LIN":"12鄰","STREET":"開發二路","SECT":" ","MAREA":" ","LANE":" ","ALLEY":" ","HOUSE_NO":"２５號","E_COORD97":172724.158043,"N_COORD97":2536068.6890199999,"ADDRESS":"開發二路２５號","OBJECTID":262778},"geometry":{"x":172724.15804299992,"y":2536068.6890220009}},{"attributes":{"ID":262783,"DIS_CODE":0,"TOWNNAME":"新營區","LI":"新南里","LIN":"20鄰","STREET":"金華路","SECT":"二段","MAREA":" ","LANE":" ","ALLEY":" ","HOUSE_NO":"２８５號","E_COORD97":178210.41201900001,"N_COORD97":2578329.1789500001,"ADDRESS":"金華路二段２８５號","OBJECTID":262779},"geometry":{"x":178210.41201900039,"y":2578329.1789540015}},{"attributes":{"ID":262784,"DIS_CODE":0,"TOWNNAME":"安南區","LI":"新順里","LIN":"8鄰","STREET":"總安街","SECT":" ","MAREA":" ","LANE":" ","ALLEY":" ","HOUSE_NO":"３１６號","E_COORD97":169282.790744,"N_COORD97":2550343.2288199998,"ADDRESS":"總安街３１６號","OBJECTID":262780},"geometry":{"x":169282.79074400198,"y":2550343.2288160026}},{"attributes":{"ID":262785,"DIS_CODE":0,"TOWNNAME":"新營區","LI":"新南里","LIN":"6鄰","STREET":"秦漢街","SECT":" ","MAREA":" ","LANE":" ","ALLEY":" ","HOUSE_NO":"３６號","E_COORD97":178523.57886400001,"N_COORD97":2578692.3574100002,"ADDRESS":"秦漢街３６號","OBJECTID":262781},"geometry":{"x":178523.57886399981,"y":2578692.357408002}},{"attributes":{"ID":262786,"DIS_CODE":0,"TOWNNAME":"永康區","LI":"\u25A0洲里","LIN":"33鄰","STREET":"洲尾街","SECT":" ","MAREA":" ","LANE":" ","ALLEY":" ","HOUSE_NO":"７６號","E_COORD97":170925.041165,"N_COORD97":2548926.7023800001,"ADDRESS":"洲尾街７６號","OBJECTID":262782},"geometry":{"x":170925.04116500076,"y":2548926.7023830004}},{"attributes":{"ID":262787,"DIS_CODE":0,"TOWNNAME":"新營區","LI":"新南里","LIN":"20鄰","STREET":"金華路","SECT":"二段","MAREA":" ","LANE":" ","ALLEY":" ","HOUSE_NO":"２８７號","E_COORD97":178212.318959,"N_COORD97":2578331.0839499999,"ADDRESS":"金華路二段２８７號","OBJECTID":262783},"geometry":{"x":178212.31895900052,"y":2578331.0839530006}},{"attributes":{"ID":262788,"DIS_CODE":0,"TOWNNAME":"關廟區","LI":"田中里","LIN":"5鄰","STREET":"中大街","SECT":" ","MAREA":" ","LANE":" ","ALLEY":" ","HOUSE_NO":"１４３號","E_COORD97":183978.14000000001,"N_COORD97":2533134.2999999998,"ADDRESS":"中大街１４３號","OBJECTID":262784},"geometry":{"x":183978.13999999966,"y":2533134.3000000026}},{"attributes":{"ID":262789,"DIS_CODE":0,"TOWNNAME":"關廟區","LI":"新光里","LIN":"5鄰","STREET":"北寮街","SECT":" ","MAREA":" ","LANE":" ","ALLEY":" ","HOUSE_NO":"２０號","E_COORD97":184045.76999999999,"N_COORD97":2541797.2999999998,"ADDRESS":"北寮街２０號","OBJECTID":262785},"geometry":{"x":184045.77000000142,"y":2541797.3000000007}},{"attributes":{"ID":262790,"DIS_CODE":0,"TOWNNAME":"安南區","LI":"\u25A0田里","LIN":"6鄰","STREET":"\u25A0田五街","SECT":" ","MAREA":" ","LANE":" ","ALLEY":" ","HOUSE_NO":"２８號","E_COORD97":162580.39999999999,"N_COORD97":2548271.6699999999,"ADDRESS":"\u25A0田五街２８號","OBJECTID":262786},"geometry":{"x":162580.4000000013,"y":2548271.6700000018}},{"attributes":{"ID":262791,"DIS_CODE":0,"TOWNNAME":"安南區","LI":"\u25A0田里","LIN":"6鄰","STREET":"\u25A0田五街","SECT":" ","MAREA":" ","LANE":" ","ALLEY":" ","HOUSE_NO":"３０號","E_COORD97":162574.20999999999,"N_COORD97":2548267.0699999998,"ADDRESS":"\u25A0田五街３０號","OBJECTID":262787},"geometry":{"x":162574.21000000089,"y":2548267.0700000022}},{"attributes":{"ID":262792,"DIS_CODE":0,"TOWNNAME":"白河區","LI":"永安里","LIN":" ","STREET":"中正路","SECT":" ","MAREA":" ","LANE":" ","ALLEY":" ","HOUSE_NO":"２０６號","E_COORD97":189591.44,"N_COORD97":2583081.4399999999,"ADDRESS":"中正路２０６號","OBJECTID":262788},"geometry":{"x":189591.44000000041,"y":2583081.4400000032}},{"attributes":{"ID":262793,"DIS_CODE":0,"TOWNNAME":"仁德區","LI":"仁愛里","LIN":"26鄰","STREET":"機場路","SECT":" ","MAREA":" ","LANE":" ","ALLEY":" ","HOUSE_NO":"１３８８號","E_COORD97":169693.38,"N_COORD97":2539481.75,"ADDRESS":"機場路１３８８號","OBJECTID":262789},"geometry":{"x":169693.37999999989,"y":2539481.75}},{"attributes":{"ID":262794,"DIS_CODE":0,"TOWNNAME":"仁德區","LI":"仁愛里","LIN":"26鄰","STREET":"大同路","SECT":"三段","MAREA":" ","LANE":" ","ALLEY":" ","HOUSE_NO":"３６０號","E_COORD97":169756.67000000001,"N_COORD97":2539470.1000000001,"ADDRESS":"大同路三段３６０號","OBJECTID":262790},"geometry":{"x":169756.67000000086,"y":2539470.1000000034}},{"attributes":{"ID":262795,"DIS_CODE":0,"TOWNNAME":"仁德區","LI":"仁愛里","LIN":"26鄰","STREET":"大同路","SECT":"三段","MAREA":" ","LANE":" ","ALLEY":" ","HOUSE_NO":"３６６號","E_COORD97":169757.64199999999,"N_COORD97":2539460.82657,"ADDRESS":"大同路三段３６６號","OBJECTID":262791},"geometry":{"x":169757.64199999999,"y":2539460.8265700024}},{"attributes":{"ID":262796,"DIS_CODE":0,"TOWNNAME":"永康區","LI":"\u25A0洲里","LIN":"22鄰","STREET":"中正南路","SECT":" ","MAREA":" ","LANE":" ","ALLEY":" ","HOUSE_NO":"７０７之８號","E_COORD97":171480.38,"N_COORD97":2548870.04,"ADDRESS":"中正南路７０７之８號","OBJECTID":262792},"geometry":{"x":171480.37999999989,"y":2548870.0399999991}},{"attributes":{"ID":262797,"DIS_CODE":0,"TOWNNAME":"後壁區","LI":"竹新里","LIN":"1鄰","STREET":" ","SECT":" ","MAREA":"竹圍後","LANE":" ","ALLEY":" ","HOUSE_NO":"６號","E_COORD97":178618.31,"N_COORD97":2582603.25,"ADDRESS":"竹圍後６號","OBJECTID":262793},"geometry":{"x":178618.31000000052,"y":2582603.2500000019}},{"attributes":{"ID":262798,"DIS_CODE":0,"TOWNNAME":"麻豆區","LI":"南勢里","LIN":"22鄰","STREET":" ","SECT":" ","MAREA":"南勢","LANE":" ","ALLEY":" ","HOUSE_NO":"５９號之２","E_COORD97":174467.82000000001,"N_COORD97":2564927.7200000002,"ADDRESS":"南勢５９號之２","OBJECTID":262794},"geometry":{"x":174467.8200000003,"y":2564927.7200000007}},{"attributes":{"ID":262799,"DIS_CODE":0,"TOWNNAME":"麻豆區","LI":"南勢里","LIN":"22鄰","STREET":" ","SECT":" ","MAREA":"南勢","LANE":" ","ALLEY":" ","HOUSE_NO":"５９號","E_COORD97":174501.23000000001,"N_COORD97":2564917.8199999998,"ADDRESS":"南勢５９號","OBJECTID":262795},"geometry":{"x":174501.23000000045,"y":2564917.8200000022}},{"attributes":{"ID":262800,"DIS_CODE":0,"TOWNNAME":"麻豆區","LI":"南勢里","LIN":"22鄰","STREET":" ","SECT":" ","MAREA":"南勢","LANE":" ","ALLEY":" ","HOUSE_NO":"６０號之３","E_COORD97":174492.12,"N_COORD97":2564889.3599999999,"ADDRESS":"南勢６０號之３","OBJECTID":262796},"geometry":{"x":174492.12000000104,"y":2564889.3600000013}},{"attributes":{"ID":262801,"DIS_CODE":0,"TOWNNAME":"仁德區","LI":"仁愛里","LIN":"26鄰","STREET":"大同路","SECT":"三段","MAREA":" ","LANE":" ","ALLEY":" ","HOUSE_NO":"３７０號","E_COORD97":169758.60200000001,"N_COORD97":2539451.6074100002,"ADDRESS":"大同路三段３７０號","OBJECTID":262797},"geometry":{"x":169758.60200000089,"y":2539451.6074100044}},{"attributes":{"ID":262802,"DIS_CODE":0,"TOWNNAME":"麻豆區","LI":"南勢里","LIN":"22鄰","STREET":" ","SECT":" ","MAREA":"南勢","LANE":" ","ALLEY":" ","HOUSE_NO":"６１號之１","E_COORD97":174503.91123999999,"N_COORD97":2564870.0233300002,"ADDRESS":"南勢６１號之１","OBJECTID":262798},"geometry":{"x":174503.91124000121,"y":2564870.0233280025}},{"attributes":{"ID":262803,"DIS_CODE":0,"TOWNNAME":"仁德區","LI":"仁愛里","LIN":"26鄰","STREET":"大同路","SECT":"三段","MAREA":" ","LANE":" ","ALLEY":" ","HOUSE_NO":"３６２號","E_COORD97":169757.15599999999,"N_COORD97":2539464.9424000001,"ADDRESS":"大同路三段３６２號","OBJECTID":262799},"geometry":{"x":169757.15600000042,"y":2539464.9424000029}},{"attributes":{"ID":262804,"DIS_CODE":0,"TOWNNAME":"仁德區","LI":"仁愛里","LIN":"26鄰","STREET":"大同路","SECT":"三段","MAREA":" ","LANE":" ","ALLEY":" ","HOUSE_NO":"３８２號","E_COORD97":169761.00700000001,"N_COORD97":2539429.3559699999,"ADDRESS":"大同路三段３８２號","OBJECTID":262800},"geometry":{"x":169761.00700000115,"y":2539429.3559680041}}]}