{"displayFieldName":"TOWNNAME","fieldAliases":{"ID":"ID","DIS_CODE":"DIS_CODE","TOWNNAME":"TOWNNAME","LI":"LI","LIN":"LIN","STREET":"STREET","SECT":"SECT","MAREA":"MAREA","LANE":"LANE","ALLEY":"ALLEY","HOUSE_NO":"HOUSE_NO","E_COORD97":"E_COORD97","N_COORD97":"N_COORD97","ADDRESS":"ADDRESS","OBJECTID":"OBJECTID"},"geometryType":"esriGeometryPoint","spatialReference":{"wkid":102443,"latestWkid":3826},"fields":[{"name":"ID","type":"esriFieldTypeDouble","alias":"ID"},{"name":"DIS_CODE","type":"esriFieldTypeInteger","alias":"DIS_CODE"},{"name":"TOWNNAME","type":"esriFieldTypeString","alias":"TOWNNAME","length":8},{"name":"LI","type":"esriFieldTypeString","alias":"LI","length":8},{"name":"LIN","type":"esriFieldTypeString","alias":"LIN","length":12},{"name":"STREET","type":"esriFieldTypeString","alias":"STREET","length":20},{"name":"SECT","type":"esriFieldTypeString","alias":"SECT","length":8},{"name":"MAREA","type":"esriFieldTypeString","alias":"MAREA","length":12},{"name":"LANE","type":"esriFieldTypeString","alias":"LANE","length":10},{"name":"ALLEY","type":"esriFieldTypeString","alias":"ALLEY","length":10},{"name":"HOUSE_NO","type":"esriFieldTypeString","alias":"HOUSE_NO","length":20},{"name":"E_COORD97","type":"esriFieldTypeDouble","alias":"E_COORD97"},{"name":"N_COORD97","type":"esriFieldTypeDouble","alias":"N_COORD97"},{"name":"ADDRESS","type":"esriFieldTypeString","alias":"ADDRESS","length":50},{"name":"OBJECTID","type":"esriFieldTypeOID","alias":"OBJECTID"}],"features":[{"attributes":{"ID":17601,"DIS_CODE":0,"TOWNNAME":"中西區","LI":"西湖里","LIN":"34鄰","STREET":"和緯路","SECT":"五段","MAREA":" ","LANE":"８９巷","ALLEY":"１３０弄","HOUSE_NO":"１９號","E_COORD97":166336.64000000001,"N_COORD97":2544939.3199999998,"ADDRESS":"和緯路五段８９巷１３０弄１９號","OBJECTID":17601},"geometry":{"x":166336.63999999966,"y":2544939.3200000022}},{"attributes":{"ID":17602,"DIS_CODE":0,"TOWNNAME":"中西區","LI":"西湖里","LIN":"34鄰","STREET":"和緯路","SECT":"五段","MAREA":" ","LANE":"８９巷","ALLEY":"１３０弄","HOUSE_NO":"２１號","E_COORD97":166332.62,"N_COORD97":2544939.7400000002,"ADDRESS":"和緯路五段８９巷１３０弄２１號","OBJECTID":17602},"geometry":{"x":166332.62000000197,"y":2544939.7400000021}},{"attributes":{"ID":17603,"DIS_CODE":0,"TOWNNAME":"安定區","LI":"海寮里","LIN":"14鄰","STREET":" ","SECT":" ","MAREA":"海寮","LANE":" ","ALLEY":" ","HOUSE_NO":"１３２之９３號","E_COORD97":169006.09,"N_COORD97":2555359.2999999998,"ADDRESS":"海寮１３２之９３號","OBJECTID":17603},"geometry":{"x":169006.09000000078,"y":2555359.3000000007}},{"attributes":{"ID":17604,"DIS_CODE":0,"TOWNNAME":"安定區","LI":"管寮里","LIN":"14鄰","STREET":" ","SECT":" ","MAREA":"管寮","LANE":" ","ALLEY":" ","HOUSE_NO":"１２７號之３","E_COORD97":169997.32000000001,"N_COORD97":2556242.2999999998,"ADDRESS":"管寮１２７號之３","OBJECTID":17604},"geometry":{"x":169997.32000000123,"y":2556242.3000000026}},{"attributes":{"ID":17605,"DIS_CODE":0,"TOWNNAME":"安定區","LI":"大同里","LIN":"14鄰","STREET":" ","SECT":" ","MAREA":"牛肉寮","LANE":" ","ALLEY":" ","HOUSE_NO":"６２號","E_COORD97":170913.44419899999,"N_COORD97":2552771.7184700002,"ADDRESS":"牛肉寮６２號","OBJECTID":17605},"geometry":{"x":170913.44419900049,"y":2552771.7184690014}},{"attributes":{"ID":17606,"DIS_CODE":0,"TOWNNAME":"安定區","LI":"大同里","LIN":"14鄰","STREET":" ","SECT":" ","MAREA":"牛肉寮","LANE":" ","ALLEY":" ","HOUSE_NO":"７８號","E_COORD97":170913.32000000001,"N_COORD97":2552852.25,"ADDRESS":"牛肉寮７８號","OBJECTID":17606},"geometry":{"x":170913.3200000003,"y":2552852.2500000019}},{"attributes":{"ID":17607,"DIS_CODE":0,"TOWNNAME":"安定區","LI":"海寮里","LIN":"14鄰","STREET":" ","SECT":" ","MAREA":"海寮","LANE":" ","ALLEY":" ","HOUSE_NO":"１３２之１２３號","E_COORD97":168993.44,"N_COORD97":2555360.2999999998,"ADDRESS":"海寮１３２之１２３號","OBJECTID":17607},"geometry":{"x":168993.44000000041,"y":2555360.3000000045}},{"attributes":{"ID":17608,"DIS_CODE":0,"TOWNNAME":"安定區","LI":"港口里","LIN":"14鄰","STREET":" ","SECT":" ","MAREA":"港口","LANE":" ","ALLEY":" ","HOUSE_NO":"３３２之１０號","E_COORD97":171147.14000000001,"N_COORD97":2554734.2999999998,"ADDRESS":"港口３３２之１０號","OBJECTID":17608},"geometry":{"x":171147.1400000006,"y":2554734.3000000026}},{"attributes":{"ID":17609,"DIS_CODE":0,"TOWNNAME":"安定區","LI":"港口里","LIN":"14鄰","STREET":" ","SECT":" ","MAREA":"港口","LANE":" ","ALLEY":" ","HOUSE_NO":"３３２號","E_COORD97":171130.69,"N_COORD97":2554741.25,"ADDRESS":"港口３３２號","OBJECTID":17609},"geometry":{"x":171130.69000000134,"y":2554741.25}},{"attributes":{"ID":17610,"DIS_CODE":0,"TOWNNAME":"安定區","LI":"海寮里","LIN":"14鄰","STREET":" ","SECT":" ","MAREA":"海寮","LANE":" ","ALLEY":" ","HOUSE_NO":"１３２號之９５","E_COORD97":169008.57999999999,"N_COORD97":2555349.2999999998,"ADDRESS":"海寮１３２號之９５","OBJECTID":17610},"geometry":{"x":169008.58000000101,"y":2555349.3000000007}},{"attributes":{"ID":17611,"DIS_CODE":0,"TOWNNAME":"安定區","LI":"海寮里","LIN":"14鄰","STREET":" ","SECT":" ","MAREA":"海寮","LANE":" ","ALLEY":" ","HOUSE_NO":"１３２之７５號","E_COORD97":168988.29000000001,"N_COORD97":2555433.2999999998,"ADDRESS":"海寮１３２之７５號","OBJECTID":17611},"geometry":{"x":168988.29000000097,"y":2555433.3000000026}},{"attributes":{"ID":17612,"DIS_CODE":0,"TOWNNAME":"安定區","LI":"海寮里","LIN":"14鄰","STREET":" ","SECT":" ","MAREA":"海寮","LANE":" ","ALLEY":" ","HOUSE_NO":"１３２號之１０８","E_COORD97":168978.42999999999,"N_COORD97":2555422.2999999998,"ADDRESS":"海寮１３２號之１０８","OBJECTID":17612},"geometry":{"x":168978.43000000063,"y":2555422.3000000026}},{"attributes":{"ID":17613,"DIS_CODE":0,"TOWNNAME":"安定區","LI":"海寮里","LIN":"14鄰","STREET":" ","SECT":" ","MAREA":"海寮","LANE":" ","ALLEY":" ","HOUSE_NO":"１３２之１０４號","E_COORD97":168973.94,"N_COORD97":2555438.2999999998,"ADDRESS":"海寮１３２之１０４號","OBJECTID":17613},"geometry":{"x":168973.94000000134,"y":2555438.3000000045}},{"attributes":{"ID":17614,"DIS_CODE":0,"TOWNNAME":"安定區","LI":"大同里","LIN":"14鄰","STREET":" ","SECT":" ","MAREA":"牛肉寮","LANE":" ","ALLEY":" ","HOUSE_NO":"８５號","E_COORD97":170988.92000000001,"N_COORD97":2552770.25,"ADDRESS":"牛肉寮８５號","OBJECTID":17614},"geometry":{"x":170988.92000000179,"y":2552770.2500000019}},{"attributes":{"ID":17615,"DIS_CODE":0,"TOWNNAME":"安定區","LI":"海寮里","LIN":"14鄰","STREET":" ","SECT":" ","MAREA":"海寮","LANE":" ","ALLEY":" ","HOUSE_NO":"１３２號之８９","E_COORD97":169001.91,"N_COORD97":2555375.2999999998,"ADDRESS":"海寮１３２號之８９","OBJECTID":17615},"geometry":{"x":169001.91000000015,"y":2555375.3000000026}},{"attributes":{"ID":17616,"DIS_CODE":0,"TOWNNAME":"安定區","LI":"蘇林里","LIN":"14鄰","STREET":" ","SECT":" ","MAREA":"蘇厝","LANE":" ","ALLEY":" ","HOUSE_NO":"１５３號之１","E_COORD97":173503.45000000001,"N_COORD97":2558840.2999999998,"ADDRESS":"蘇厝１５３號之１","OBJECTID":17616},"geometry":{"x":173503.45000000112,"y":2558840.3000000026}},{"attributes":{"ID":17617,"DIS_CODE":0,"TOWNNAME":"安定區","LI":"管寮里","LIN":"14鄰","STREET":" ","SECT":" ","MAREA":"管寮","LANE":" ","ALLEY":" ","HOUSE_NO":"１２７之６號","E_COORD97":169993.89000000001,"N_COORD97":2556255.2999999998,"ADDRESS":"管寮１２７之６號","OBJECTID":17617},"geometry":{"x":169993.8900000006,"y":2556255.2999999989}},{"attributes":{"ID":17618,"DIS_CODE":0,"TOWNNAME":"安定區","LI":"管寮里","LIN":"14鄰","STREET":" ","SECT":" ","MAREA":"管寮","LANE":" ","ALLEY":" ","HOUSE_NO":"１２４號","E_COORD97":170057.09,"N_COORD97":2556239.25,"ADDRESS":"管寮１２４號","OBJECTID":17618},"geometry":{"x":170057.09000000078,"y":2556239.2500000019}},{"attributes":{"ID":17619,"DIS_CODE":0,"TOWNNAME":"安定區","LI":"管寮里","LIN":"14鄰","STREET":" ","SECT":" ","MAREA":"管寮","LANE":" ","ALLEY":" ","HOUSE_NO":"１２９號之１","E_COORD97":169981.92999999999,"N_COORD97":2556209.2999999998,"ADDRESS":"管寮１２９號之１","OBJECTID":17619},"geometry":{"x":169981.93000000063,"y":2556209.3000000026}},{"attributes":{"ID":17620,"DIS_CODE":0,"TOWNNAME":"安定區","LI":"蘇厝里","LIN":"14鄰","STREET":" ","SECT":" ","MAREA":"蘇厝","LANE":" ","ALLEY":" ","HOUSE_NO":"４０９號","E_COORD97":173058.62,"N_COORD97":2558848.25,"ADDRESS":"蘇厝４０９號","OBJECTID":17620},"geometry":{"x":173058.62000000011,"y":2558848.25}},{"attributes":{"ID":17621,"DIS_CODE":0,"TOWNNAME":"安定區","LI":"海寮里","LIN":"14鄰","STREET":" ","SECT":" ","MAREA":"海寮","LANE":" ","ALLEY":" ","HOUSE_NO":"１３２號之１１４","E_COORD97":168984.70000000001,"N_COORD97":2555397.2999999998,"ADDRESS":"海寮１３２號之１１４","OBJECTID":17621},"geometry":{"x":168984.70000000019,"y":2555397.3000000007}},{"attributes":{"ID":17622,"DIS_CODE":0,"TOWNNAME":"安定區","LI":"港口里","LIN":"14鄰","STREET":" ","SECT":" ","MAREA":"港口","LANE":" ","ALLEY":" ","HOUSE_NO":"３３３之１８號","E_COORD97":170065.14000000001,"N_COORD97":2554861.2999999998,"ADDRESS":"港口３３３之１８號","OBJECTID":17622},"geometry":{"x":170065.1400000006,"y":2554861.3000000007}},{"attributes":{"ID":17623,"DIS_CODE":0,"TOWNNAME":"安定區","LI":"港口里","LIN":"14鄰","STREET":" ","SECT":" ","MAREA":"港口","LANE":" ","ALLEY":" ","HOUSE_NO":"３３３之１０號","E_COORD97":170480.44,"N_COORD97":2555400.2999999998,"ADDRESS":"港口３３３之１０號","OBJECTID":17623},"geometry":{"x":170480.44000000041,"y":2555400.3000000007}},{"attributes":{"ID":17624,"DIS_CODE":0,"TOWNNAME":"中西區","LI":"西湖里","LIN":"34鄰","STREET":"和緯路","SECT":"五段","MAREA":" ","LANE":"８９巷","ALLEY":"１３０弄","HOUSE_NO":"２３號","E_COORD97":166328.39000000001,"N_COORD97":2544940.1600000001,"ADDRESS":"和緯路五段８９巷１３０弄２３號","OBJECTID":17624},"geometry":{"x":166328.38999999966,"y":2544940.160000002}},{"attributes":{"ID":17625,"DIS_CODE":0,"TOWNNAME":"中西區","LI":"西湖里","LIN":"34鄰","STREET":"和緯路","SECT":"五段","MAREA":" ","LANE":"８９巷","ALLEY":"１３０弄","HOUSE_NO":"２５號","E_COORD97":166324.14999999999,"N_COORD97":2544940.5899999999,"ADDRESS":"和緯路五段８９巷１３０弄２５號","OBJECTID":17625},"geometry":{"x":166324.14999999944,"y":2544940.5899999999}},{"attributes":{"ID":17626,"DIS_CODE":0,"TOWNNAME":"佳里區","LI":"忠仁里","LIN":"14鄰","STREET":" ","SECT":" ","MAREA":"忠仁","LANE":" ","ALLEY":" ","HOUSE_NO":"１０６號之２","E_COORD97":166126.67000000001,"N_COORD97":2562157.23,"ADDRESS":"忠仁１０６號之２","OBJECTID":17626},"geometry":{"x":166126.66999999993,"y":2562157.2300000004}},{"attributes":{"ID":17627,"DIS_CODE":0,"TOWNNAME":"佳里區","LI":"忠仁里","LIN":"14鄰","STREET":" ","SECT":" ","MAREA":"忠仁","LANE":" ","ALLEY":" ","HOUSE_NO":"１０６號之３","E_COORD97":166127.16,"N_COORD97":2562153.1200000001,"ADDRESS":"忠仁１０６號之３","OBJECTID":17627},"geometry":{"x":166127.15999999922,"y":2562153.1200000048}},{"attributes":{"ID":17628,"DIS_CODE":0,"TOWNNAME":"安南區","LI":"安富里","LIN":"34鄰","STREET":"府安路","SECT":"五段","MAREA":" ","LANE":"２２３巷","ALLEY":"２４弄","HOUSE_NO":"１０號","E_COORD97":167518.85999999999,"N_COORD97":2546987.0600000001,"ADDRESS":"府安路五段２２３巷２４弄１０號","OBJECTID":17628},"geometry":{"x":167518.86000000034,"y":2546987.0600000005}},{"attributes":{"ID":17629,"DIS_CODE":0,"TOWNNAME":"佳里區","LI":"忠仁里","LIN":"14鄰","STREET":" ","SECT":" ","MAREA":"忠仁","LANE":" ","ALLEY":" ","HOUSE_NO":"１０６號之４","E_COORD97":166127.64000000001,"N_COORD97":2562149.1200000001,"ADDRESS":"忠仁１０６號之４","OBJECTID":17629},"geometry":{"x":166127.6400000006,"y":2562149.120000001}},{"attributes":{"ID":17630,"DIS_CODE":0,"TOWNNAME":"佳里區","LI":"忠仁里","LIN":"14鄰","STREET":" ","SECT":" ","MAREA":"忠仁","LANE":" ","ALLEY":" ","HOUSE_NO":"１０６號之５","E_COORD97":166128.07999999999,"N_COORD97":2562145.2799999998,"ADDRESS":"忠仁１０６號之５","OBJECTID":17630},"geometry":{"x":166128.08000000101,"y":2562145.2799999993}},{"attributes":{"ID":17631,"DIS_CODE":0,"TOWNNAME":"佳里區","LI":"忠仁里","LIN":"14鄰","STREET":" ","SECT":" ","MAREA":"忠仁","LANE":" ","ALLEY":" ","HOUSE_NO":"１０６號之６","E_COORD97":166104,"N_COORD97":2562158.2400000002,"ADDRESS":"忠仁１０６號之６","OBJECTID":17631},"geometry":{"x":166104,"y":2562158.2400000039}},{"attributes":{"ID":17632,"DIS_CODE":0,"TOWNNAME":"安南區","LI":"安富里","LIN":"34鄰","STREET":"府安路","SECT":"五段","MAREA":" ","LANE":"２２３巷","ALLEY":"２４弄","HOUSE_NO":"２號","E_COORD97":167505.75,"N_COORD97":2546984.5099999998,"ADDRESS":"府安路五段２２３巷２４弄２號","OBJECTID":17632},"geometry":{"x":167505.75,"y":2546984.5100000016}},{"attributes":{"ID":17633,"DIS_CODE":0,"TOWNNAME":"安南區","LI":"安富里","LIN":"34鄰","STREET":"府安路","SECT":"五段","MAREA":" ","LANE":"２２３巷","ALLEY":"２４弄","HOUSE_NO":"６號","E_COORD97":167509.26999999999,"N_COORD97":2546987.0600000001,"ADDRESS":"府安路五段２２３巷２４弄６號","OBJECTID":17633},"geometry":{"x":167509.27000000142,"y":2546987.0600000005}},{"attributes":{"ID":17634,"DIS_CODE":0,"TOWNNAME":"安南區","LI":"安富里","LIN":"34鄰","STREET":"府安路","SECT":"五段","MAREA":" ","LANE":"２２３巷","ALLEY":"２４弄","HOUSE_NO":"８號","E_COORD97":167514.38,"N_COORD97":2546984.8300000001,"ADDRESS":"府安路五段２２３巷２４弄８號","OBJECTID":17634},"geometry":{"x":167514.38000000082,"y":2546984.8300000001}},{"attributes":{"ID":17635,"DIS_CODE":0,"TOWNNAME":"安南區","LI":"安富里","LIN":"34鄰","STREET":"府安路","SECT":"五段","MAREA":" ","LANE":"２２３巷","ALLEY":"２５弄","HOUSE_NO":"１號","E_COORD97":167494.88,"N_COORD97":2546981.3199999998,"ADDRESS":"府安路五段２２３巷２５弄１號","OBJECTID":17635},"geometry":{"x":167494.87999999989,"y":2546981.3200000003}},{"attributes":{"ID":17636,"DIS_CODE":0,"TOWNNAME":"安南區","LI":"安富里","LIN":"34鄰","STREET":"府安路","SECT":"五段","MAREA":" ","LANE":"２２３巷","ALLEY":"２５弄","HOUSE_NO":"３號","E_COORD97":167490.07999999999,"N_COORD97":2546983.23,"ADDRESS":"府安路五段２２３巷２５弄３號","OBJECTID":17636},"geometry":{"x":167490.08000000007,"y":2546983.2300000042}},{"attributes":{"ID":17637,"DIS_CODE":0,"TOWNNAME":"安南區","LI":"安富里","LIN":"34鄰","STREET":"府安路","SECT":"五段","MAREA":" ","LANE":"２２３巷","ALLEY":"２５弄","HOUSE_NO":"５號","E_COORD97":167485.29000000001,"N_COORD97":2546980.6800000002,"ADDRESS":"府安路五段２２３巷２５弄５號","OBJECTID":17637},"geometry":{"x":167485.29000000004,"y":2546980.6800000016}},{"attributes":{"ID":17638,"DIS_CODE":0,"TOWNNAME":"永康區","LI":"五王里","LIN":"24鄰","STREET":"成功路","SECT":" ","MAREA":" ","LANE":" ","ALLEY":" ","HOUSE_NO":"２５８號四樓之１４","E_COORD97":171315.01000000001,"N_COORD97":2545846.04,"ADDRESS":"成功路２５８號四樓之１４","OBJECTID":17638},"geometry":{"x":171315.00999999978,"y":2545846.0399999991}},{"attributes":{"ID":17639,"DIS_CODE":0,"TOWNNAME":"永康區","LI":"五王里","LIN":"24鄰","STREET":"成功路","SECT":" ","MAREA":" ","LANE":" ","ALLEY":" ","HOUSE_NO":"２５８號三樓之１９","E_COORD97":171315.07000000001,"N_COORD97":2545846.04,"ADDRESS":"成功路２５８號三樓之１９","OBJECTID":17639},"geometry":{"x":171315.0700000003,"y":2545846.0399999991}},{"attributes":{"ID":17640,"DIS_CODE":0,"TOWNNAME":"永康區","LI":"五王里","LIN":"24鄰","STREET":"成功路","SECT":" ","MAREA":" ","LANE":" ","ALLEY":" ","HOUSE_NO":"２５８號四樓之１７","E_COORD97":171315.06,"N_COORD97":2545846.04,"ADDRESS":"成功路２５８號四樓之１７","OBJECTID":17640},"geometry":{"x":171315.06000000052,"y":2545846.0399999991}},{"attributes":{"ID":17641,"DIS_CODE":0,"TOWNNAME":"永康區","LI":"五王里","LIN":"24鄰","STREET":"成功路","SECT":" ","MAREA":" ","LANE":" ","ALLEY":" ","HOUSE_NO":"２５８號六樓之２","E_COORD97":171313.87,"N_COORD97":2545846.04,"ADDRESS":"成功路２５８號六樓之２","OBJECTID":17641},"geometry":{"x":171313.87000000104,"y":2545846.0399999991}},{"attributes":{"ID":17642,"DIS_CODE":0,"TOWNNAME":"永康區","LI":"五王里","LIN":"24鄰","STREET":"成功路","SECT":" ","MAREA":" ","LANE":" ","ALLEY":" ","HOUSE_NO":"２５８號六樓之６","E_COORD97":171313.84,"N_COORD97":2545846.04,"ADDRESS":"成功路２５８號六樓之６","OBJECTID":17642},"geometry":{"x":171313.84000000078,"y":2545846.0399999991}},{"attributes":{"ID":17643,"DIS_CODE":0,"TOWNNAME":"永康區","LI":"五王里","LIN":"24鄰","STREET":"成功路","SECT":" ","MAREA":" ","LANE":" ","ALLEY":" ","HOUSE_NO":"２５８號三樓之９","E_COORD97":171313.82000000001,"N_COORD97":2545846.04,"ADDRESS":"成功路２５８號三樓之９","OBJECTID":17643},"geometry":{"x":171313.82000000123,"y":2545846.0399999991}},{"attributes":{"ID":17644,"DIS_CODE":0,"TOWNNAME":"永康區","LI":"五王里","LIN":"24鄰","STREET":"成功路","SECT":" ","MAREA":" ","LANE":" ","ALLEY":" ","HOUSE_NO":"２５８號七樓之１７","E_COORD97":171315.06,"N_COORD97":2545846.04,"ADDRESS":"成功路２５８號七樓之１７","OBJECTID":17644},"geometry":{"x":171315.06000000052,"y":2545846.0399999991}},{"attributes":{"ID":17645,"DIS_CODE":0,"TOWNNAME":"永康區","LI":"五王里","LIN":"24鄰","STREET":"成功路","SECT":" ","MAREA":" ","LANE":" ","ALLEY":" ","HOUSE_NO":"２５８號七樓之１１","E_COORD97":171314.98000000001,"N_COORD97":2545846.04,"ADDRESS":"成功路２５８號七樓之１１","OBJECTID":17645},"geometry":{"x":171314.98000000138,"y":2545846.0399999991}},{"attributes":{"ID":17646,"DIS_CODE":0,"TOWNNAME":"佳里區","LI":"忠仁里","LIN":"14鄰","STREET":" ","SECT":" ","MAREA":"忠仁","LANE":" ","ALLEY":" ","HOUSE_NO":"５２號之１","E_COORD97":166055.98999999999,"N_COORD97":2562136.6600000001,"ADDRESS":"忠仁５２號之１","OBJECTID":17646},"geometry":{"x":166055.99000000115,"y":2562136.6600000001}},{"attributes":{"ID":17647,"DIS_CODE":0,"TOWNNAME":"安南區","LI":"安富里","LIN":"34鄰","STREET":"府安路","SECT":"五段","MAREA":" ","LANE":"２２３巷","ALLEY":"２５弄","HOUSE_NO":"７號","E_COORD97":167481.13,"N_COORD97":2546982.27,"ADDRESS":"府安路五段２２３巷２５弄７號","OBJECTID":17647},"geometry":{"x":167481.12999999989,"y":2546982.2700000014}},{"attributes":{"ID":17648,"DIS_CODE":0,"TOWNNAME":"永康區","LI":"正強里","LIN":"34鄰","STREET":"四維街","SECT":" ","MAREA":" ","LANE":"１４９巷","ALLEY":"１８弄","HOUSE_NO":"２號","E_COORD97":173250.78,"N_COORD97":2548365.7400000002,"ADDRESS":"四維街１４９巷１８弄２號","OBJECTID":17648},"geometry":{"x":173250.78000000026,"y":2548365.7399999984}},{"attributes":{"ID":17649,"DIS_CODE":0,"TOWNNAME":"永康區","LI":"北灣里","LIN":"34鄰","STREET":"大灣路","SECT":" ","MAREA":" ","LANE":"４０巷","ALLEY":"２６弄","HOUSE_NO":"２３號","E_COORD97":175234.76999999999,"N_COORD97":2546087.2200000002,"ADDRESS":"大灣路４０巷２６弄２３號","OBJECTID":17649},"geometry":{"x":175234.77000000048,"y":2546087.2200000007}},{"attributes":{"ID":17650,"DIS_CODE":0,"TOWNNAME":"永康區","LI":"東灣里","LIN":"34鄰","STREET":"民族路","SECT":" ","MAREA":" ","LANE":"１８１巷","ALLEY":"３弄","HOUSE_NO":"４號","E_COORD97":175203.97,"N_COORD97":2544802.6499999999,"ADDRESS":"民族路１８１巷３弄４號","OBJECTID":17650},"geometry":{"x":175203.96999999974,"y":2544802.6500000004}},{"attributes":{"ID":17651,"DIS_CODE":0,"TOWNNAME":"永康區","LI":"東灣里","LIN":"34鄰","STREET":"民族路","SECT":" ","MAREA":" ","LANE":"１８１巷","ALLEY":"３弄","HOUSE_NO":"５號","E_COORD97":175215.07000000001,"N_COORD97":2544821.27,"ADDRESS":"民族路１８１巷３弄５號","OBJECTID":17651},"geometry":{"x":175215.07000000123,"y":2544821.2699999996}},{"attributes":{"ID":17652,"DIS_CODE":0,"TOWNNAME":"永康區","LI":"東灣里","LIN":"34鄰","STREET":"民族路","SECT":" ","MAREA":" ","LANE":"１８１巷","ALLEY":"１弄","HOUSE_NO":"１８號","E_COORD97":175256.10999999999,"N_COORD97":2544816.0600000001,"ADDRESS":"民族路１８１巷１弄１８號","OBJECTID":17652},"geometry":{"x":175256.11000000034,"y":2544816.0600000005}},{"attributes":{"ID":17653,"DIS_CODE":0,"TOWNNAME":"永康區","LI":"東灣里","LIN":"34鄰","STREET":"民族路","SECT":" ","MAREA":" ","LANE":"１８１巷","ALLEY":"１弄","HOUSE_NO":"２０號","E_COORD97":175259.01000000001,"N_COORD97":2544812.5600000001,"ADDRESS":"民族路１８１巷１弄２０號","OBJECTID":17653},"geometry":{"x":175259.01000000071,"y":2544812.5600000024}},{"attributes":{"ID":17654,"DIS_CODE":0,"TOWNNAME":"永康區","LI":"東灣里","LIN":"34鄰","STREET":"民族路","SECT":" ","MAREA":" ","LANE":"１８１巷","ALLEY":"１弄","HOUSE_NO":"８號","E_COORD97":175240.26000000001,"N_COORD97":2544833.0600000001,"ADDRESS":"民族路１８１巷１弄８號","OBJECTID":17654},"geometry":{"x":175240.26000000071,"y":2544833.0600000005}},{"attributes":{"ID":17655,"DIS_CODE":0,"TOWNNAME":"永康區","LI":"東灣里","LIN":"34鄰","STREET":"民族路","SECT":" ","MAREA":" ","LANE":"１８１巷","ALLEY":"１弄","HOUSE_NO":"１０號","E_COORD97":175244.45000000001,"N_COORD97":2544829.5600000001,"ADDRESS":"民族路１８１巷１弄１０號","OBJECTID":17655},"geometry":{"x":175244.45000000112,"y":2544829.5600000024}},{"attributes":{"ID":17656,"DIS_CODE":0,"TOWNNAME":"永康區","LI":"東灣里","LIN":"34鄰","STREET":"民族路","SECT":" ","MAREA":" ","LANE":"１８１巷","ALLEY":"３弄","HOUSE_NO":"２７號","E_COORD97":175247.39999999999,"N_COORD97":2544783.6099999999,"ADDRESS":"民族路１８１巷３弄２７號","OBJECTID":17656},"geometry":{"x":175247.40000000037,"y":2544783.6100000013}},{"attributes":{"ID":17657,"DIS_CODE":0,"TOWNNAME":"永康區","LI":"東灣里","LIN":"34鄰","STREET":"民族路","SECT":" ","MAREA":" ","LANE":"１８１巷","ALLEY":"１弄","HOUSE_NO":"２８號","E_COORD97":175270.57999999999,"N_COORD97":2544798.1699999999,"ADDRESS":"民族路１８１巷１弄２８號","OBJECTID":17657},"geometry":{"x":175270.58000000101,"y":2544798.1699999999}},{"attributes":{"ID":17658,"DIS_CODE":0,"TOWNNAME":"佳里區","LI":"忠仁里","LIN":"14鄰","STREET":" ","SECT":" ","MAREA":"忠仁","LANE":" ","ALLEY":" ","HOUSE_NO":"５２號之２","E_COORD97":166068.32999999999,"N_COORD97":2562140.0299999998,"ADDRESS":"忠仁５２號之２","OBJECTID":17658},"geometry":{"x":166068.32999999914,"y":2562140.0299999993}},{"attributes":{"ID":17659,"DIS_CODE":0,"TOWNNAME":"佳里區","LI":"忠仁里","LIN":"14鄰","STREET":" ","SECT":" ","MAREA":"忠仁","LANE":" ","ALLEY":" ","HOUSE_NO":"５２號之３","E_COORD97":166067.79000000001,"N_COORD97":2562144.7599999998,"ADDRESS":"忠仁５２號之３","OBJECTID":17659},"geometry":{"x":166067.79000000097,"y":2562144.7600000016}},{"attributes":{"ID":17660,"DIS_CODE":0,"TOWNNAME":"佳里區","LI":"忠仁里","LIN":"14鄰","STREET":" ","SECT":" ","MAREA":"忠仁","LANE":" ","ALLEY":" ","HOUSE_NO":"５２號之４","E_COORD97":166067.23999999999,"N_COORD97":2562149.48,"ADDRESS":"忠仁５２號之４","OBJECTID":17660},"geometry":{"x":166067.24000000022,"y":2562149.4800000004}},{"attributes":{"ID":17661,"DIS_CODE":0,"TOWNNAME":"佳里區","LI":"忠仁里","LIN":"14鄰","STREET":" ","SECT":" ","MAREA":"忠仁","LANE":" ","ALLEY":" ","HOUSE_NO":"５２號之５","E_COORD97":166066.70000000001,"N_COORD97":2562154.21,"ADDRESS":"忠仁５２號之５","OBJECTID":17661},"geometry":{"x":166066.70000000112,"y":2562154.2100000009}},{"attributes":{"ID":17662,"DIS_CODE":0,"TOWNNAME":"佳里區","LI":"忠仁里","LIN":"14鄰","STREET":" ","SECT":" ","MAREA":"忠仁","LANE":" ","ALLEY":" ","HOUSE_NO":"５２號之６","E_COORD97":166085.29000000001,"N_COORD97":2562157.5299999998,"ADDRESS":"忠仁５２號之６","OBJECTID":17662},"geometry":{"x":166085.29000000004,"y":2562157.5299999993}},{"attributes":{"ID":17663,"DIS_CODE":0,"TOWNNAME":"佳里區","LI":"忠仁里","LIN":"14鄰","STREET":" ","SECT":" ","MAREA":"忠仁","LANE":" ","ALLEY":" ","HOUSE_NO":"５２號之７","E_COORD97":166086.01000000001,"N_COORD97":2562152.4500000002,"ADDRESS":"忠仁５２號之７","OBJECTID":17663},"geometry":{"x":166086.01000000071,"y":2562152.4500000011}},{"attributes":{"ID":17664,"DIS_CODE":0,"TOWNNAME":"佳里區","LI":"忠仁里","LIN":"14鄰","STREET":" ","SECT":" ","MAREA":"忠仁","LANE":" ","ALLEY":" ","HOUSE_NO":"５２號之８","E_COORD97":166086.72,"N_COORD97":2562147.3599999999,"ADDRESS":"忠仁５２號之８","OBJECTID":17664},"geometry":{"x":166086.71999999974,"y":2562147.3600000013}},{"attributes":{"ID":17665,"DIS_CODE":0,"TOWNNAME":"佳里區","LI":"忠仁里","LIN":"14鄰","STREET":" ","SECT":" ","MAREA":"忠仁","LANE":" ","ALLEY":" ","HOUSE_NO":"５２號之９","E_COORD97":166087.44,"N_COORD97":2562142.2799999998,"ADDRESS":"忠仁５２號之９","OBJECTID":17665},"geometry":{"x":166087.44000000134,"y":2562142.2799999993}},{"attributes":{"ID":17666,"DIS_CODE":0,"TOWNNAME":"佳里區","LI":"建南里","LIN":"14鄰","STREET":" ","SECT":" ","MAREA":"建南","LANE":" ","ALLEY":" ","HOUSE_NO":"１５７號之２１","E_COORD97":164392.48999999999,"N_COORD97":2561807.3500000001,"ADDRESS":"建南１５７號之２１","OBJECTID":17666},"geometry":{"x":164392.49000000022,"y":2561807.3500000034}},{"attributes":{"ID":17667,"DIS_CODE":0,"TOWNNAME":"佳里區","LI":"建南里","LIN":"14鄰","STREET":" ","SECT":" ","MAREA":"建南","LANE":" ","ALLEY":" ","HOUSE_NO":"１５７號之２２","E_COORD97":164392.64999999999,"N_COORD97":2561814.5,"ADDRESS":"建南１５７號之２２","OBJECTID":17667},"geometry":{"x":164392.65000000037,"y":2561814.5000000019}},{"attributes":{"ID":17668,"DIS_CODE":0,"TOWNNAME":"佳里區","LI":"建南里","LIN":"14鄰","STREET":" ","SECT":" ","MAREA":"建南","LANE":" ","ALLEY":" ","HOUSE_NO":"１５７號之２３","E_COORD97":164393.25,"N_COORD97":2561821.52,"ADDRESS":"建南１５７號之２３","OBJECTID":17668},"geometry":{"x":164393.25,"y":2561821.5199999996}},{"attributes":{"ID":17669,"DIS_CODE":0,"TOWNNAME":"佳里區","LI":"建南里","LIN":"14鄰","STREET":" ","SECT":" ","MAREA":"建南","LANE":" ","ALLEY":" ","HOUSE_NO":"１５７號之２４","E_COORD97":164393.64999999999,"N_COORD97":2561828.3199999998,"ADDRESS":"建南１５７號之２４","OBJECTID":17669},"geometry":{"x":164393.6500000013,"y":2561828.3200000003}},{"attributes":{"ID":17670,"DIS_CODE":0,"TOWNNAME":"佳里區","LI":"建南里","LIN":"14鄰","STREET":" ","SECT":" ","MAREA":"建南","LANE":" ","ALLEY":" ","HOUSE_NO":"１５７號之２５","E_COORD97":164393.76000000001,"N_COORD97":2561835.4399999999,"ADDRESS":"建南１５７號之２５","OBJECTID":17670},"geometry":{"x":164393.76000000164,"y":2561835.4400000013}},{"attributes":{"ID":17671,"DIS_CODE":0,"TOWNNAME":"佳里區","LI":"建南里","LIN":"14鄰","STREET":" ","SECT":" ","MAREA":"建南","LANE":" ","ALLEY":" ","HOUSE_NO":"１５７號之２６","E_COORD97":164394.06,"N_COORD97":2561842.5299999998,"ADDRESS":"建南１５７號之２６","OBJECTID":17671},"geometry":{"x":164394.05999999959,"y":2561842.5299999993}},{"attributes":{"ID":17672,"DIS_CODE":0,"TOWNNAME":"佳里區","LI":"建南里","LIN":"14鄰","STREET":" ","SECT":" ","MAREA":"建南","LANE":" ","ALLEY":" ","HOUSE_NO":"１５７號之２７","E_COORD97":164394.67999999999,"N_COORD97":2561849.6200000001,"ADDRESS":"建南１５７號之２７","OBJECTID":17672},"geometry":{"x":164394.68000000063,"y":2561849.620000001}},{"attributes":{"ID":17673,"DIS_CODE":0,"TOWNNAME":"佳里區","LI":"建南里","LIN":"14鄰","STREET":" ","SECT":" ","MAREA":"建南","LANE":" ","ALLEY":" ","HOUSE_NO":"１５７號之２８","E_COORD97":164394.92999999999,"N_COORD97":2561856.6000000001,"ADDRESS":"建南１５７號之２８","OBJECTID":17673},"geometry":{"x":164394.93000000063,"y":2561856.6000000034}},{"attributes":{"ID":17674,"DIS_CODE":0,"TOWNNAME":"佳里區","LI":"建南里","LIN":"14鄰","STREET":" ","SECT":" ","MAREA":"建南","LANE":" ","ALLEY":" ","HOUSE_NO":"１５７號之２９","E_COORD97":164395.17000000001,"N_COORD97":2561863.7200000002,"ADDRESS":"建南１５７號之２９","OBJECTID":17674},"geometry":{"x":164395.17000000086,"y":2561863.7200000044}},{"attributes":{"ID":17675,"DIS_CODE":0,"TOWNNAME":"佳里區","LI":"建南里","LIN":"14鄰","STREET":" ","SECT":" ","MAREA":"建南","LANE":" ","ALLEY":" ","HOUSE_NO":"１５７號之３０","E_COORD97":164395.60000000001,"N_COORD97":2561870.5,"ADDRESS":"建南１５７號之３０","OBJECTID":17675},"geometry":{"x":164395.59999999963,"y":2561870.5}},{"attributes":{"ID":17676,"DIS_CODE":0,"TOWNNAME":"佳里區","LI":"建南里","LIN":"14鄰","STREET":" ","SECT":" ","MAREA":"建南","LANE":" ","ALLEY":" ","HOUSE_NO":"１５７號之３１","E_COORD97":164395.57000000001,"N_COORD97":2561877.3799999999,"ADDRESS":"建南１５７號之３１","OBJECTID":17676},"geometry":{"x":164395.57000000216,"y":2561877.379999999}},{"attributes":{"ID":17677,"DIS_CODE":0,"TOWNNAME":"佳里區","LI":"建南里","LIN":"14鄰","STREET":" ","SECT":" ","MAREA":"建南","LANE":" ","ALLEY":" ","HOUSE_NO":"１５７號之３２","E_COORD97":164395.91,"N_COORD97":2561884.3399999999,"ADDRESS":"建南１５７號之３２","OBJECTID":17677},"geometry":{"x":164395.91000000015,"y":2561884.3399999999}},{"attributes":{"ID":17678,"DIS_CODE":0,"TOWNNAME":"佳里區","LI":"建南里","LIN":"14鄰","STREET":" ","SECT":" ","MAREA":"建南","LANE":" ","ALLEY":" ","HOUSE_NO":"１５７號之３６","E_COORD97":164385.78,"N_COORD97":2561879.5600000001,"ADDRESS":"建南１５７號之３６","OBJECTID":17678},"geometry":{"x":164385.78000000119,"y":2561879.5600000024}},{"attributes":{"ID":17679,"DIS_CODE":0,"TOWNNAME":"佳里區","LI":"建南里","LIN":"14鄰","STREET":" ","SECT":" ","MAREA":"建南","LANE":" ","ALLEY":" ","HOUSE_NO":"１５７號之３７","E_COORD97":164514.28,"N_COORD97":2561769.1299999999,"ADDRESS":"建南１５７號之３７","OBJECTID":17679},"geometry":{"x":164514.28000000026,"y":2561769.1300000008}},{"attributes":{"ID":17680,"DIS_CODE":0,"TOWNNAME":"東山區","LI":"青山里","LIN":"16鄰","STREET":" ","SECT":" ","MAREA":"青山","LANE":" ","ALLEY":" ","HOUSE_NO":"４６號之２９","E_COORD97":195644.25,"N_COORD97":2575243.6499999999,"ADDRESS":"青山４６號之２９","OBJECTID":17680},"geometry":{"x":195644.25,"y":2575243.6500000022}},{"attributes":{"ID":17681,"DIS_CODE":0,"TOWNNAME":"佳里區","LI":"建南里","LIN":"14鄰","STREET":" ","SECT":" ","MAREA":"建南","LANE":" ","ALLEY":" ","HOUSE_NO":"１５７號之３９","E_COORD97":164554.39999999999,"N_COORD97":2561825.8799999999,"ADDRESS":"建南１５７號之３９","OBJECTID":17681},"geometry":{"x":164554.40000000224,"y":2561825.879999999}},{"attributes":{"ID":17682,"DIS_CODE":0,"TOWNNAME":"佳里區","LI":"建南里","LIN":"14鄰","STREET":" ","SECT":" ","MAREA":"建南","LANE":" ","ALLEY":" ","HOUSE_NO":"１５７號之４２","E_COORD97":164675.63,"N_COORD97":2561765.8900000001,"ADDRESS":"建南１５７號之４２","OBJECTID":17682},"geometry":{"x":164675.62999999989,"y":2561765.8900000006}},{"attributes":{"ID":17683,"DIS_CODE":0,"TOWNNAME":"佳里區","LI":"建南里","LIN":"14鄰","STREET":" ","SECT":" ","MAREA":"建南","LANE":" ","ALLEY":" ","HOUSE_NO":"１５８號之１","E_COORD97":164319.26000000001,"N_COORD97":2561794.9199999999,"ADDRESS":"建南１５８號之１","OBJECTID":17683},"geometry":{"x":164319.26000000164,"y":2561794.9200000018}},{"attributes":{"ID":17684,"DIS_CODE":0,"TOWNNAME":"佳里區","LI":"建南里","LIN":"14鄰","STREET":" ","SECT":" ","MAREA":"建南","LANE":" ","ALLEY":" ","HOUSE_NO":"１５８號之２","E_COORD97":164150.07999999999,"N_COORD97":2561498.4900000002,"ADDRESS":"建南１５８號之２","OBJECTID":17684},"geometry":{"x":164150.08000000101,"y":2561498.4900000039}},{"attributes":{"ID":17685,"DIS_CODE":0,"TOWNNAME":"佳里區","LI":"建南里","LIN":"14鄰","STREET":" ","SECT":" ","MAREA":"建南","LANE":" ","ALLEY":" ","HOUSE_NO":"１５８號之３","E_COORD97":164149.20000000001,"N_COORD97":2561430.8199999998,"ADDRESS":"建南１５８號之３","OBJECTID":17685},"geometry":{"x":164149.20000000112,"y":2561430.8200000003}},{"attributes":{"ID":17686,"DIS_CODE":0,"TOWNNAME":"佳里區","LI":"建南里","LIN":"14鄰","STREET":" ","SECT":" ","MAREA":"建南","LANE":" ","ALLEY":" ","HOUSE_NO":"１５８號之４","E_COORD97":164038.01000000001,"N_COORD97":2561345.7400000002,"ADDRESS":"建南１５８號之４","OBJECTID":17686},"geometry":{"x":164038.01000000071,"y":2561345.7400000021}},{"attributes":{"ID":17687,"DIS_CODE":0,"TOWNNAME":"佳里區","LI":"建南里","LIN":"14鄰","STREET":" ","SECT":" ","MAREA":"建南","LANE":" ","ALLEY":" ","HOUSE_NO":"１５８號之５","E_COORD97":164210.23999999999,"N_COORD97":2561465.9300000002,"ADDRESS":"建南１５８號之５","OBJECTID":17687},"geometry":{"x":164210.24000000115,"y":2561465.9300000016}},{"attributes":{"ID":17688,"DIS_CODE":0,"TOWNNAME":"佳里區","LI":"建南里","LIN":"14鄰","STREET":" ","SECT":" ","MAREA":"建南","LANE":" ","ALLEY":" ","HOUSE_NO":"１５８號之６","E_COORD97":164395.14999999999,"N_COORD97":2561480.1600000001,"ADDRESS":"建南１５８號之６","OBJECTID":17688},"geometry":{"x":164395.15000000224,"y":2561480.1599999983}},{"attributes":{"ID":17689,"DIS_CODE":0,"TOWNNAME":"佳里區","LI":"建南里","LIN":"14鄰","STREET":" ","SECT":" ","MAREA":"建南","LANE":" ","ALLEY":" ","HOUSE_NO":"１５８號","E_COORD97":164287.17000000001,"N_COORD97":2561819.8100000001,"ADDRESS":"建南１５８號","OBJECTID":17689},"geometry":{"x":164287.16999999993,"y":2561819.8100000024}},{"attributes":{"ID":17690,"DIS_CODE":0,"TOWNNAME":"佳里區","LI":"建南里","LIN":"14鄰","STREET":" ","SECT":" ","MAREA":"建南","LANE":" ","ALLEY":" ","HOUSE_NO":"１５９號之２","E_COORD97":164098.92999999999,"N_COORD97":2561664.8700000001,"ADDRESS":"建南１５９號之２","OBJECTID":17690},"geometry":{"x":164098.9299999997,"y":2561664.870000001}},{"attributes":{"ID":17691,"DIS_CODE":0,"TOWNNAME":"永康區","LI":"東灣里","LIN":"34鄰","STREET":"民族路","SECT":" ","MAREA":" ","LANE":"１８１巷","ALLEY":"３弄","HOUSE_NO":"１號","E_COORD97":175207.60999999999,"N_COORD97":2544827.4100000001,"ADDRESS":"民族路１８１巷３弄１號","OBJECTID":17691},"geometry":{"x":175207.61000000127,"y":2544827.4100000001}},{"attributes":{"ID":17692,"DIS_CODE":0,"TOWNNAME":"永康區","LI":"東灣里","LIN":"34鄰","STREET":"民族路","SECT":" ","MAREA":" ","LANE":"１８１巷","ALLEY":"１弄","HOUSE_NO":"２４號","E_COORD97":175265.01000000001,"N_COORD97":2544805.3100000001,"ADDRESS":"民族路１８１巷１弄２４號","OBJECTID":17692},"geometry":{"x":175265.01000000164,"y":2544805.3100000005}},{"attributes":{"ID":17693,"DIS_CODE":0,"TOWNNAME":"永康區","LI":"東灣里","LIN":"34鄰","STREET":"民族路","SECT":" ","MAREA":" ","LANE":"１８１巷","ALLEY":"１弄","HOUSE_NO":"３２號","E_COORD97":175276.98999999999,"N_COORD97":2544791.7000000002,"ADDRESS":"民族路１８１巷１弄３２號","OBJECTID":17693},"geometry":{"x":175276.99000000022,"y":2544791.700000003}},{"attributes":{"ID":17694,"DIS_CODE":0,"TOWNNAME":"永康區","LI":"東灣里","LIN":"34鄰","STREET":"民族路","SECT":" ","MAREA":" ","LANE":"１８１巷","ALLEY":"１弄","HOUSE_NO":"１４號","E_COORD97":175250.45999999999,"N_COORD97":2544823.3100000001,"ADDRESS":"民族路１８１巷１弄１４號","OBJECTID":17694},"geometry":{"x":175250.46000000089,"y":2544823.3100000024}},{"attributes":{"ID":17695,"DIS_CODE":0,"TOWNNAME":"永康區","LI":"東灣里","LIN":"34鄰","STREET":"民族路","SECT":" ","MAREA":" ","LANE":"１８１巷","ALLEY":"３弄","HOUSE_NO":"１７號","E_COORD97":175233.28,"N_COORD97":2544800,"ADDRESS":"民族路１８１巷３弄１７號","OBJECTID":17695},"geometry":{"x":175233.28000000212,"y":2544800}},{"attributes":{"ID":17696,"DIS_CODE":0,"TOWNNAME":"永康區","LI":"東灣里","LIN":"34鄰","STREET":"民族路","SECT":" ","MAREA":" ","LANE":"１８１巷","ALLEY":"１弄","HOUSE_NO":"１６號","E_COORD97":175253.56,"N_COORD97":2544819.5600000001,"ADDRESS":"民族路１８１巷１弄１６號","OBJECTID":17696},"geometry":{"x":175253.55999999959,"y":2544819.5600000005}},{"attributes":{"ID":17697,"DIS_CODE":0,"TOWNNAME":"永康區","LI":"東灣里","LIN":"34鄰","STREET":"民族路","SECT":" ","MAREA":" ","LANE":"１８１巷","ALLEY":"３弄","HOUSE_NO":"３號","E_COORD97":175211.45000000001,"N_COORD97":2544824.4100000001,"ADDRESS":"民族路１８１巷３弄３號","OBJECTID":17697},"geometry":{"x":175211.44999999925,"y":2544824.4100000001}},{"attributes":{"ID":17698,"DIS_CODE":0,"TOWNNAME":"永康區","LI":"東灣里","LIN":"34鄰","STREET":"民族路","SECT":" ","MAREA":" ","LANE":"１８１巷","ALLEY":"３弄","HOUSE_NO":"２號","E_COORD97":175192.66,"N_COORD97":2544813.4300000002,"ADDRESS":"民族路１８１巷３弄２號","OBJECTID":17698},"geometry":{"x":175192.66000000015,"y":2544813.4299999997}},{"attributes":{"ID":17699,"DIS_CODE":0,"TOWNNAME":"永康區","LI":"東灣里","LIN":"34鄰","STREET":"民族路","SECT":" ","MAREA":" ","LANE":"１８１巷","ALLEY":"３弄","HOUSE_NO":"２５號","E_COORD97":175244.89999999999,"N_COORD97":2544786.6099999999,"ADDRESS":"民族路１８１巷３弄２５號","OBJECTID":17699},"geometry":{"x":175244.9000000013,"y":2544786.6100000013}},{"attributes":{"ID":17700,"DIS_CODE":0,"TOWNNAME":"永康區","LI":"東灣里","LIN":"34鄰","STREET":"民族路","SECT":" ","MAREA":" ","LANE":"１８１巷","ALLEY":"３弄","HOUSE_NO":"１８號","E_COORD97":175231.20000000001,"N_COORD97":2544772.2999999998,"ADDRESS":"民族路１８１巷３弄１８號","OBJECTID":17700},"geometry":{"x":175231.20000000019,"y":2544772.3000000045}},{"attributes":{"ID":17701,"DIS_CODE":0,"TOWNNAME":"永康區","LI":"東灣里","LIN":"34鄰","STREET":"民族路","SECT":" ","MAREA":" ","LANE":"１８１巷","ALLEY":"３弄","HOUSE_NO":"７號","E_COORD97":175217.94,"N_COORD97":2544818.1099999999,"ADDRESS":"民族路１８１巷３弄７號","OBJECTID":17701},"geometry":{"x":175217.94000000041,"y":2544818.1099999994}},{"attributes":{"ID":17702,"DIS_CODE":0,"TOWNNAME":"永康區","LI":"東灣里","LIN":"34鄰","STREET":"民族路","SECT":" ","MAREA":" ","LANE":"１８１巷","ALLEY":"１弄","HOUSE_NO":"６號","E_COORD97":175237.64999999999,"N_COORD97":2544836.3100000001,"ADDRESS":"民族路１８１巷１弄６號","OBJECTID":17702},"geometry":{"x":175237.65000000224,"y":2544836.3100000042}},{"attributes":{"ID":17703,"DIS_CODE":0,"TOWNNAME":"永康區","LI":"東灣里","LIN":"34鄰","STREET":"民族路","SECT":" ","MAREA":" ","LANE":"１８１巷","ALLEY":"３弄","HOUSE_NO":"１６號","E_COORD97":175226.29999999999,"N_COORD97":2544777.7999999998,"ADDRESS":"民族路１８１巷３弄１６號","OBJECTID":17703},"geometry":{"x":175226.30000000075,"y":2544777.8000000007}},{"attributes":{"ID":17704,"DIS_CODE":0,"TOWNNAME":"永康區","LI":"東灣里","LIN":"34鄰","STREET":"民族路","SECT":" ","MAREA":" ","LANE":"１８１巷","ALLEY":"１弄","HOUSE_NO":"２號之１","E_COORD97":175237.92000000001,"N_COORD97":2544841.1200000001,"ADDRESS":"民族路１８１巷１弄２號之１","OBJECTID":17704},"geometry":{"x":175237.91999999993,"y":2544841.120000001}},{"attributes":{"ID":17705,"DIS_CODE":0,"TOWNNAME":"永康區","LI":"東灣里","LIN":"34鄰","STREET":"民族路","SECT":" ","MAREA":" ","LANE":"１８１巷","ALLEY":"１弄","HOUSE_NO":"３０號","E_COORD97":175274.20000000001,"N_COORD97":2544795.5699999998,"ADDRESS":"民族路１８１巷１弄３０號","OBJECTID":17705},"geometry":{"x":175274.19999999925,"y":2544795.5700000003}},{"attributes":{"ID":17706,"DIS_CODE":0,"TOWNNAME":"佳里區","LI":"建南里","LIN":"14鄰","STREET":" ","SECT":" ","MAREA":"建南","LANE":" ","ALLEY":" ","HOUSE_NO":"１５９號之３","E_COORD97":164217.45000000001,"N_COORD97":2561775.23,"ADDRESS":"建南１５９號之３","OBJECTID":17706},"geometry":{"x":164217.45000000019,"y":2561775.2300000042}},{"attributes":{"ID":17707,"DIS_CODE":0,"TOWNNAME":"永康區","LI":"東灣里","LIN":"34鄰","STREET":"民族路","SECT":" ","MAREA":" ","LANE":"１８１巷","ALLEY":"１弄","HOUSE_NO":"２６號","E_COORD97":175267.76000000001,"N_COORD97":2544801.8100000001,"ADDRESS":"民族路１８１巷１弄２６號","OBJECTID":17707},"geometry":{"x":175267.75999999978,"y":2544801.8100000005}},{"attributes":{"ID":17708,"DIS_CODE":0,"TOWNNAME":"永康區","LI":"東灣里","LIN":"34鄰","STREET":"民族路","SECT":" ","MAREA":" ","LANE":"１８１巷","ALLEY":"３弄","HOUSE_NO":"６號","E_COORD97":175207.51999999999,"N_COORD97":2544798.8999999999,"ADDRESS":"民族路１８１巷３弄６號","OBJECTID":17708},"geometry":{"x":175207.52000000048,"y":2544798.9000000022}},{"attributes":{"ID":17709,"DIS_CODE":0,"TOWNNAME":"永康區","LI":"東灣里","LIN":"34鄰","STREET":"民族路","SECT":" ","MAREA":" ","LANE":"１８１巷","ALLEY":"３弄","HOUSE_NO":"１１號","E_COORD97":175224.66,"N_COORD97":2544810.4300000002,"ADDRESS":"民族路１８１巷３弄１１號","OBJECTID":17709},"geometry":{"x":175224.66000000015,"y":2544810.4299999997}},{"attributes":{"ID":17710,"DIS_CODE":0,"TOWNNAME":"永康區","LI":"北灣里","LIN":"34鄰","STREET":"大灣路","SECT":" ","MAREA":" ","LANE":"４０巷","ALLEY":"１４弄","HOUSE_NO":"１８號","E_COORD97":175286.98000000001,"N_COORD97":2545982.6699999999,"ADDRESS":"大灣路４０巷１４弄１８號","OBJECTID":17710},"geometry":{"x":175286.98000000138,"y":2545982.6700000037}},{"attributes":{"ID":17711,"DIS_CODE":0,"TOWNNAME":"佳里區","LI":"建南里","LIN":"14鄰","STREET":" ","SECT":" ","MAREA":"建南","LANE":" ","ALLEY":" ","HOUSE_NO":"１５９號之５","E_COORD97":164187.78,"N_COORD97":2561757.9100000001,"ADDRESS":"建南１５９號之５","OBJECTID":17711},"geometry":{"x":164187.78000000119,"y":2561757.910000002}},{"attributes":{"ID":17712,"DIS_CODE":0,"TOWNNAME":"佳里區","LI":"建南里","LIN":"14鄰","STREET":" ","SECT":" ","MAREA":"建南","LANE":" ","ALLEY":" ","HOUSE_NO":"１５９號之６","E_COORD97":164153.07000000001,"N_COORD97":2561735.5600000001,"ADDRESS":"建南１５９號之６","OBJECTID":17712},"geometry":{"x":164153.06999999937,"y":2561735.5599999987}},{"attributes":{"ID":17713,"DIS_CODE":0,"TOWNNAME":"佳里區","LI":"建南里","LIN":"14鄰","STREET":" ","SECT":" ","MAREA":"建南","LANE":" ","ALLEY":" ","HOUSE_NO":"１５９號","E_COORD97":164226.81,"N_COORD97":2561785.4300000002,"ADDRESS":"建南１５９號","OBJECTID":17713},"geometry":{"x":164226.80999999959,"y":2561785.4299999997}},{"attributes":{"ID":17714,"DIS_CODE":0,"TOWNNAME":"玉井區","LI":"中正里","LIN":"14鄰","STREET":" ","SECT":" ","MAREA":"中正","LANE":" ","ALLEY":" ","HOUSE_NO":"１４７號","E_COORD97":195978.51000000001,"N_COORD97":2560816.25,"ADDRESS":"中正１４７號","OBJECTID":17714},"geometry":{"x":195978.51000000164,"y":2560816.2500000019}},{"attributes":{"ID":17715,"DIS_CODE":0,"TOWNNAME":"永康區","LI":"北灣里","LIN":"34鄰","STREET":"大灣路","SECT":" ","MAREA":" ","LANE":"４０巷","ALLEY":"１６弄","HOUSE_NO":"１０號","E_COORD97":175247.63,"N_COORD97":2545986.2400000002,"ADDRESS":"大灣路４０巷１６弄１０號","OBJECTID":17715},"geometry":{"x":175247.63000000082,"y":2545986.2400000021}},{"attributes":{"ID":17716,"DIS_CODE":0,"TOWNNAME":"佳里區","LI":"安西里","LIN":"34鄰","STREET":"安西路","SECT":" ","MAREA":" ","LANE":"２０１巷","ALLEY":"１７弄","HOUSE_NO":"１０號","E_COORD97":165062.76999999999,"N_COORD97":2562653.4100000001,"ADDRESS":"安西路２０１巷１７弄１０號","OBJECTID":17716},"geometry":{"x":165062.76999999955,"y":2562653.410000002}},{"attributes":{"ID":17717,"DIS_CODE":0,"TOWNNAME":"佳里區","LI":"安西里","LIN":"34鄰","STREET":"安西路","SECT":" ","MAREA":" ","LANE":"２０１巷","ALLEY":"１７弄","HOUSE_NO":"１１號","E_COORD97":165097.81,"N_COORD97":2562629.27,"ADDRESS":"安西路２０１巷１７弄１１號","OBJECTID":17717},"geometry":{"x":165097.80999999959,"y":2562629.2700000014}},{"attributes":{"ID":17718,"DIS_CODE":0,"TOWNNAME":"佳里區","LI":"安西里","LIN":"34鄰","STREET":"安西路","SECT":" ","MAREA":" ","LANE":"２０１巷","ALLEY":"１７弄","HOUSE_NO":"１２號","E_COORD97":165062.87,"N_COORD97":2562649.6099999999,"ADDRESS":"安西路２０１巷１７弄１２號","OBJECTID":17718},"geometry":{"x":165062.86999999918,"y":2562649.6100000031}},{"attributes":{"ID":17719,"DIS_CODE":0,"TOWNNAME":"安定區","LI":"港尾里","LIN":"14鄰","STREET":" ","SECT":" ","MAREA":"港子尾","LANE":" ","ALLEY":" ","HOUSE_NO":"８８號","E_COORD97":171297.48999999999,"N_COORD97":2556121.2599999998,"ADDRESS":"港子尾８８號","OBJECTID":17719},"geometry":{"x":171297.49000000115,"y":2556121.2599999998}},{"attributes":{"ID":17720,"DIS_CODE":0,"TOWNNAME":"佳里區","LI":"安西里","LIN":"34鄰","STREET":"安西路","SECT":" ","MAREA":" ","LANE":"２０１巷","ALLEY":"１７弄","HOUSE_NO":"１６號","E_COORD97":165063.01000000001,"N_COORD97":2562646.23,"ADDRESS":"安西路２０１巷１７弄１６號","OBJECTID":17720},"geometry":{"x":165063.00999999978,"y":2562646.2300000004}},{"attributes":{"ID":17721,"DIS_CODE":0,"TOWNNAME":"安定區","LI":"港尾里","LIN":"14鄰","STREET":" ","SECT":" ","MAREA":"港子尾","LANE":" ","ALLEY":" ","HOUSE_NO":"８７號","E_COORD97":171325.98999999999,"N_COORD97":2556118.2599999998,"ADDRESS":"港子尾８７號","OBJECTID":17721},"geometry":{"x":171325.99000000209,"y":2556118.2599999998}},{"attributes":{"ID":17722,"DIS_CODE":0,"TOWNNAME":"佳里區","LI":"安西里","LIN":"34鄰","STREET":"安西路","SECT":" ","MAREA":" ","LANE":"２０１巷","ALLEY":"１７弄","HOUSE_NO":"１８號","E_COORD97":165063.42000000001,"N_COORD97":2562642.1099999999,"ADDRESS":"安西路２０１巷１７弄１８號","OBJECTID":17722},"geometry":{"x":165063.41999999993,"y":2562642.1099999994}},{"attributes":{"ID":17723,"DIS_CODE":0,"TOWNNAME":"佳里區","LI":"安西里","LIN":"34鄰","STREET":"安西路","SECT":" ","MAREA":" ","LANE":"２０１巷","ALLEY":"１７弄","HOUSE_NO":"１號","E_COORD97":165082.54000000001,"N_COORD97":2562657.9100000001,"ADDRESS":"安西路２０１巷１７弄１號","OBJECTID":17723},"geometry":{"x":165082.54000000097,"y":2562657.9100000001}},{"attributes":{"ID":17724,"DIS_CODE":0,"TOWNNAME":"佳里區","LI":"安西里","LIN":"34鄰","STREET":"安西路","SECT":" ","MAREA":" ","LANE":"２０１巷","ALLEY":"１７弄","HOUSE_NO":"２０號","E_COORD97":165063.85000000001,"N_COORD97":2562638.25,"ADDRESS":"安西路２０１巷１７弄２０號","OBJECTID":17724},"geometry":{"x":165063.84999999963,"y":2562638.25}},{"attributes":{"ID":17725,"DIS_CODE":0,"TOWNNAME":"佳里區","LI":"安西里","LIN":"34鄰","STREET":"安西路","SECT":" ","MAREA":" ","LANE":"２０１巷","ALLEY":"１７弄","HOUSE_NO":"２號","E_COORD97":165061.23999999999,"N_COORD97":2562664.7999999998,"ADDRESS":"安西路２０１巷１７弄２號","OBJECTID":17725},"geometry":{"x":165061.24000000115,"y":2562664.8000000026}},{"attributes":{"ID":17726,"DIS_CODE":0,"TOWNNAME":"佳里區","LI":"安西里","LIN":"34鄰","STREET":"安西路","SECT":" ","MAREA":" ","LANE":"２０１巷","ALLEY":"１７弄","HOUSE_NO":"３號","E_COORD97":165089.07999999999,"N_COORD97":2562647.48,"ADDRESS":"安西路２０１巷１７弄３號","OBJECTID":17726},"geometry":{"x":165089.08000000101,"y":2562647.4800000004}},{"attributes":{"ID":17727,"DIS_CODE":0,"TOWNNAME":"佳里區","LI":"安西里","LIN":"34鄰","STREET":"安西路","SECT":" ","MAREA":" ","LANE":"２０１巷","ALLEY":"１７弄","HOUSE_NO":"５號","E_COORD97":165093.82000000001,"N_COORD97":2562647.3599999999,"ADDRESS":"安西路２０１巷１７弄５號","OBJECTID":17727},"geometry":{"x":165093.8200000003,"y":2562647.3599999994}},{"attributes":{"ID":17728,"DIS_CODE":0,"TOWNNAME":"安定區","LI":"港口里","LIN":"14鄰","STREET":" ","SECT":" ","MAREA":"港口","LANE":" ","ALLEY":" ","HOUSE_NO":"３３２之２５號","E_COORD97":170965.94,"N_COORD97":2554670.3599999999,"ADDRESS":"港口３３２之２５號","OBJECTID":17728},"geometry":{"x":170965.94000000134,"y":2554670.3600000031}},{"attributes":{"ID":17729,"DIS_CODE":0,"TOWNNAME":"安定區","LI":"港口里","LIN":"14鄰","STREET":" ","SECT":" ","MAREA":"港口","LANE":" ","ALLEY":" ","HOUSE_NO":"３３２之２６號","E_COORD97":170966.237849,"N_COORD97":2554657.9701399999,"ADDRESS":"港口３３２之２６號","OBJECTID":17729},"geometry":{"x":170966.23784899991,"y":2554657.9701349996}},{"attributes":{"ID":17730,"DIS_CODE":0,"TOWNNAME":"佳里區","LI":"安西里","LIN":"34鄰","STREET":"安西路","SECT":" ","MAREA":" ","LANE":"２０１巷","ALLEY":"１７弄","HOUSE_NO":"６號","E_COORD97":165061.63,"N_COORD97":2562660.77,"ADDRESS":"安西路２０１巷１７弄６號","OBJECTID":17730},"geometry":{"x":165061.63000000082,"y":2562660.7699999996}},{"attributes":{"ID":17731,"DIS_CODE":0,"TOWNNAME":"佳里區","LI":"安西里","LIN":"34鄰","STREET":"安西路","SECT":" ","MAREA":" ","LANE":"２０１巷","ALLEY":"１７弄","HOUSE_NO":"７號","E_COORD97":165097.72,"N_COORD97":2562646.9300000002,"ADDRESS":"安西路２０１巷１７弄７號","OBJECTID":17731},"geometry":{"x":165097.72000000067,"y":2562646.9299999997}},{"attributes":{"ID":17732,"DIS_CODE":0,"TOWNNAME":"安定區","LI":"港口里","LIN":"14鄰","STREET":" ","SECT":" ","MAREA":"港口","LANE":" ","ALLEY":" ","HOUSE_NO":"３３３之２９號","E_COORD97":170892.70999999999,"N_COORD97":2555077.5299999998,"ADDRESS":"港口３３３之２９號","OBJECTID":17732},"geometry":{"x":170892.71000000089,"y":2555077.5300000012}},{"attributes":{"ID":17733,"DIS_CODE":0,"TOWNNAME":"佳里區","LI":"安西里","LIN":"34鄰","STREET":"安西路","SECT":" ","MAREA":" ","LANE":"２０１巷","ALLEY":"１７弄","HOUSE_NO":"８號","E_COORD97":165062.29000000001,"N_COORD97":2562657.25,"ADDRESS":"安西路２０１巷１７弄８號","OBJECTID":17733},"geometry":{"x":165062.29000000097,"y":2562657.2500000019}},{"attributes":{"ID":17734,"DIS_CODE":0,"TOWNNAME":"安定區","LI":"海寮里","LIN":"14鄰","STREET":" ","SECT":" ","MAREA":"海寮","LANE":" ","ALLEY":" ","HOUSE_NO":"１３７之１３號","E_COORD97":169134.041761,"N_COORD97":2555869.5211399999,"ADDRESS":"海寮１３７之１３號","OBJECTID":17734},"geometry":{"x":169134.04176099971,"y":2555869.5211360008}},{"attributes":{"ID":17735,"DIS_CODE":0,"TOWNNAME":"佳里區","LI":"安西里","LIN":"34鄰","STREET":"安西路","SECT":" ","MAREA":" ","LANE":"２０１巷","ALLEY":"１７弄","HOUSE_NO":"９號","E_COORD97":165101.84,"N_COORD97":2562646.7799999998,"ADDRESS":"安西路２０１巷１７弄９號","OBJECTID":17735},"geometry":{"x":165101.84000000171,"y":2562646.7799999993}},{"attributes":{"ID":17736,"DIS_CODE":0,"TOWNNAME":"佳里區","LI":"安西里","LIN":"34鄰","STREET":"安西路","SECT":" ","MAREA":" ","LANE":"２０１巷","ALLEY":"３３弄","HOUSE_NO":"１０號","E_COORD97":165020.03,"N_COORD97":2562652.9900000002,"ADDRESS":"安西路２０１巷３３弄１０號","OBJECTID":17736},"geometry":{"x":165020.03000000119,"y":2562652.9900000002}},{"attributes":{"ID":17737,"DIS_CODE":0,"TOWNNAME":"佳里區","LI":"安西里","LIN":"34鄰","STREET":"安西路","SECT":" ","MAREA":" ","LANE":"２０１巷","ALLEY":"３３弄","HOUSE_NO":"１１號","E_COORD97":165039.57999999999,"N_COORD97":2562642.98,"ADDRESS":"安西路２０１巷３３弄１１號","OBJECTID":17737},"geometry":{"x":165039.58000000194,"y":2562642.9800000023}},{"attributes":{"ID":17738,"DIS_CODE":0,"TOWNNAME":"佳里區","LI":"安西里","LIN":"34鄰","STREET":"安西路","SECT":" ","MAREA":" ","LANE":"２０１巷","ALLEY":"３３弄","HOUSE_NO":"１２號","E_COORD97":165020.09,"N_COORD97":2562648.4500000002,"ADDRESS":"安西路２０１巷３３弄１２號","OBJECTID":17738},"geometry":{"x":165020.08999999985,"y":2562648.4500000011}},{"attributes":{"ID":17739,"DIS_CODE":0,"TOWNNAME":"佳里區","LI":"安西里","LIN":"34鄰","STREET":"安西路","SECT":" ","MAREA":" ","LANE":"２０１巷","ALLEY":"３３弄","HOUSE_NO":"１３號","E_COORD97":165039.54999999999,"N_COORD97":2562638.7400000002,"ADDRESS":"安西路２０１巷３３弄１３號","OBJECTID":17739},"geometry":{"x":165039.55000000075,"y":2562638.7400000002}},{"attributes":{"ID":17740,"DIS_CODE":0,"TOWNNAME":"佳里區","LI":"安西里","LIN":"34鄰","STREET":"安西路","SECT":" ","MAREA":" ","LANE":"２０１巷","ALLEY":"３３弄","HOUSE_NO":"１５號","E_COORD97":165039.73999999999,"N_COORD97":2562634.0299999998,"ADDRESS":"安西路２０１巷３３弄１５號","OBJECTID":17740},"geometry":{"x":165039.74000000022,"y":2562634.0300000012}},{"attributes":{"ID":17741,"DIS_CODE":0,"TOWNNAME":"佳里區","LI":"安西里","LIN":"34鄰","STREET":"安西路","SECT":" ","MAREA":" ","LANE":"２０１巷","ALLEY":"３３弄","HOUSE_NO":"１６號","E_COORD97":165020.38,"N_COORD97":2562643.8900000001,"ADDRESS":"安西路２０１巷３３弄１６號","OBJECTID":17741},"geometry":{"x":165020.38000000175,"y":2562643.8900000006}},{"attributes":{"ID":17742,"DIS_CODE":0,"TOWNNAME":"佳里區","LI":"安西里","LIN":"34鄰","STREET":"安西路","SECT":" ","MAREA":" ","LANE":"２０１巷","ALLEY":"３３弄","HOUSE_NO":"１８號","E_COORD97":165020.12,"N_COORD97":2562639.4900000002,"ADDRESS":"安西路２０１巷３３弄１８號","OBJECTID":17742},"geometry":{"x":165020.12000000011,"y":2562639.4900000002}},{"attributes":{"ID":17743,"DIS_CODE":0,"TOWNNAME":"佳里區","LI":"安西里","LIN":"34鄰","STREET":"安西路","SECT":" ","MAREA":" ","LANE":"２０１巷","ALLEY":"３３弄","HOUSE_NO":"１號","E_COORD97":165040.79000000001,"N_COORD97":2562666.77,"ADDRESS":"安西路２０１巷３３弄１號","OBJECTID":17743},"geometry":{"x":165040.79000000004,"y":2562666.7700000014}},{"attributes":{"ID":17744,"DIS_CODE":0,"TOWNNAME":"佳里區","LI":"安西里","LIN":"34鄰","STREET":"安西路","SECT":" ","MAREA":" ","LANE":"２０１巷","ALLEY":"３３弄","HOUSE_NO":"２０號","E_COORD97":165020.01000000001,"N_COORD97":2562634.9300000002,"ADDRESS":"安西路２０１巷３３弄２０號","OBJECTID":17744},"geometry":{"x":165020.01000000071,"y":2562634.9300000016}},{"attributes":{"ID":17745,"DIS_CODE":0,"TOWNNAME":"佳里區","LI":"安西里","LIN":"34鄰","STREET":"安西路","SECT":" ","MAREA":" ","LANE":"２０１巷","ALLEY":"３３弄","HOUSE_NO":"２號","E_COORD97":165020.48000000001,"N_COORD97":2562666.8999999999,"ADDRESS":"安西路２０１巷３３弄２號","OBJECTID":17745},"geometry":{"x":165020.48000000138,"y":2562666.9000000022}},{"attributes":{"ID":17746,"DIS_CODE":0,"TOWNNAME":"佳里區","LI":"安西里","LIN":"34鄰","STREET":"安西路","SECT":" ","MAREA":" ","LANE":"２０１巷","ALLEY":"３３弄","HOUSE_NO":"３號","E_COORD97":165040.87,"N_COORD97":2562662.3700000001,"ADDRESS":"安西路２０１巷３３弄３號","OBJECTID":17746},"geometry":{"x":165040.87000000197,"y":2562662.370000001}},{"attributes":{"ID":17747,"DIS_CODE":0,"TOWNNAME":"佳里區","LI":"安西里","LIN":"34鄰","STREET":"安西路","SECT":" ","MAREA":" ","LANE":"２０１巷","ALLEY":"３３弄","HOUSE_NO":"５號","E_COORD97":165040.88,"N_COORD97":2562658.0600000001,"ADDRESS":"安西路２０１巷３３弄５號","OBJECTID":17747},"geometry":{"x":165040.88000000082,"y":2562658.0600000042}},{"attributes":{"ID":17748,"DIS_CODE":0,"TOWNNAME":"佳里區","LI":"安西里","LIN":"34鄰","STREET":"安西路","SECT":" ","MAREA":" ","LANE":"２０１巷","ALLEY":"３３弄","HOUSE_NO":"６號","E_COORD97":165020.12,"N_COORD97":2562662.1600000001,"ADDRESS":"安西路２０１巷３３弄６號","OBJECTID":17748},"geometry":{"x":165020.12000000011,"y":2562662.1600000001}},{"attributes":{"ID":17749,"DIS_CODE":0,"TOWNNAME":"佳里區","LI":"安西里","LIN":"34鄰","STREET":"安西路","SECT":" ","MAREA":" ","LANE":"２０１巷","ALLEY":"３３弄","HOUSE_NO":"７號","E_COORD97":165040.84,"N_COORD97":2562653.5600000001,"ADDRESS":"安西路２０１巷３３弄７號","OBJECTID":17749},"geometry":{"x":165040.84000000171,"y":2562653.5600000005}},{"attributes":{"ID":17750,"DIS_CODE":0,"TOWNNAME":"佳里區","LI":"安西里","LIN":"34鄰","STREET":"安西路","SECT":" ","MAREA":" ","LANE":"２０１巷","ALLEY":"３３弄","HOUSE_NO":"８號","E_COORD97":165020.01000000001,"N_COORD97":2562657.27,"ADDRESS":"安西路２０１巷３３弄８號","OBJECTID":17750},"geometry":{"x":165020.01000000071,"y":2562657.2699999996}},{"attributes":{"ID":17751,"DIS_CODE":0,"TOWNNAME":"中西區","LI":"西湖里","LIN":"34鄰","STREET":"和緯路","SECT":"五段","MAREA":" ","LANE":"８９巷","ALLEY":"１３０弄","HOUSE_NO":"５８號","E_COORD97":166285.14999999999,"N_COORD97":2544960,"ADDRESS":"和緯路五段８９巷１３０弄５８號","OBJECTID":17751},"geometry":{"x":166285.14999999944,"y":2544960.0000000037}},{"attributes":{"ID":17752,"DIS_CODE":0,"TOWNNAME":"中西區","LI":"西湖里","LIN":"34鄰","STREET":"和緯路","SECT":"五段","MAREA":" ","LANE":"８９巷","ALLEY":"１１２弄","HOUSE_NO":"７３號","E_COORD97":166317.44,"N_COORD97":2544972.5299999998,"ADDRESS":"和緯路五段８９巷１１２弄７３號","OBJECTID":17752},"geometry":{"x":166317.44000000134,"y":2544972.5300000031}},{"attributes":{"ID":17753,"DIS_CODE":0,"TOWNNAME":"永康區","LI":"永康里","LIN":"34鄰","STREET":"永大路","SECT":"二段","MAREA":" ","LANE":"１３１０巷","ALLEY":"１６弄","HOUSE_NO":"３號","E_COORD97":174349.25,"N_COORD97":2547021.5099999998,"ADDRESS":"永大路二段１３１０巷１６弄３號","OBJECTID":17753},"geometry":{"x":174349.25,"y":2547021.5100000016}},{"attributes":{"ID":17754,"DIS_CODE":0,"TOWNNAME":"永康區","LI":"永康里","LIN":"34鄰","STREET":"永大路","SECT":"二段","MAREA":" ","LANE":"１３１０巷","ALLEY":"１６弄","HOUSE_NO":"１號","E_COORD97":174344.56,"N_COORD97":2547020.2400000002,"ADDRESS":"永大路二段１３１０巷１６弄１號","OBJECTID":17754},"geometry":{"x":174344.56000000052,"y":2547020.2400000021}},{"attributes":{"ID":17755,"DIS_CODE":0,"TOWNNAME":"永康區","LI":"永康里","LIN":"34鄰","STREET":"永大路","SECT":"二段","MAREA":" ","LANE":"１３１０巷","ALLEY":"１６弄","HOUSE_NO":"１０號","E_COORD97":174352.59,"N_COORD97":2547012.9199999999,"ADDRESS":"永大路二段１３１０巷１６弄１０號","OBJECTID":17755},"geometry":{"x":174352.59000000171,"y":2547012.9200000018}},{"attributes":{"ID":17756,"DIS_CODE":0,"TOWNNAME":"永康區","LI":"永康里","LIN":"34鄰","STREET":"永大路","SECT":"二段","MAREA":" ","LANE":"１３１０巷","ALLEY":"１６弄","HOUSE_NO":"２號","E_COORD97":174339.23000000001,"N_COORD97":2547009.1699999999,"ADDRESS":"永大路二段１３１０巷１６弄２號","OBJECTID":17756},"geometry":{"x":174339.23000000138,"y":2547009.1699999999}},{"attributes":{"ID":17757,"DIS_CODE":0,"TOWNNAME":"永康區","LI":"永康里","LIN":"34鄰","STREET":"永大路","SECT":"二段","MAREA":" ","LANE":"１３１０巷","ALLEY":"１６弄","HOUSE_NO":"５號","E_COORD97":174353.25,"N_COORD97":2547022.5099999998,"ADDRESS":"永大路二段１３１０巷１６弄５號","OBJECTID":17757},"geometry":{"x":174353.25000000186,"y":2547022.5100000016}},{"attributes":{"ID":17758,"DIS_CODE":0,"TOWNNAME":"永康區","LI":"永康里","LIN":"34鄰","STREET":"永大路","SECT":"二段","MAREA":" ","LANE":"１３１０巷","ALLEY":"１６弄","HOUSE_NO":"１６號","E_COORD97":174360.59,"N_COORD97":2547015.1699999999,"ADDRESS":"永大路二段１３１０巷１６弄１６號","OBJECTID":17758},"geometry":{"x":174360.58999999985,"y":2547015.1699999999}},{"attributes":{"ID":17759,"DIS_CODE":0,"TOWNNAME":"安定區","LI":"海寮里","LIN":"14鄰","STREET":" ","SECT":" ","MAREA":"海寮","LANE":" ","ALLEY":" ","HOUSE_NO":"１３７之１５號","E_COORD97":169146.328737,"N_COORD97":2555870.6853,"ADDRESS":"海寮１３７之１５號","OBJECTID":17759},"geometry":{"x":169146.328737,"y":2555870.6853020005}},{"attributes":{"ID":17760,"DIS_CODE":0,"TOWNNAME":"新市區","LI":"大營里","LIN":"14鄰","STREET":" ","SECT":" ","MAREA":"大營","LANE":" ","ALLEY":" ","HOUSE_NO":"２６９號","E_COORD97":179219.54000000001,"N_COORD97":2555521.25,"ADDRESS":"大營２６９號","OBJECTID":17760},"geometry":{"x":179219.54000000004,"y":2555521.25}},{"attributes":{"ID":17761,"DIS_CODE":0,"TOWNNAME":"新市區","LI":"大營里","LIN":"14鄰","STREET":" ","SECT":" ","MAREA":"大營","LANE":" ","ALLEY":" ","HOUSE_NO":"２７１之２號","E_COORD97":179172.85000000001,"N_COORD97":2555529.0499999998,"ADDRESS":"大營２７１之２號","OBJECTID":17761},"geometry":{"x":179172.84999999963,"y":2555529.0500000026}},{"attributes":{"ID":17762,"DIS_CODE":0,"TOWNNAME":"新市區","LI":"大營里","LIN":"14鄰","STREET":" ","SECT":" ","MAREA":"大營","LANE":" ","ALLEY":" ","HOUSE_NO":"２７０之４號","E_COORD97":179184.39999999999,"N_COORD97":2555521.2999999998,"ADDRESS":"大營２７０之４號","OBJECTID":17762},"geometry":{"x":179184.4000000013,"y":2555521.3000000026}},{"attributes":{"ID":17763,"DIS_CODE":0,"TOWNNAME":"新市區","LI":"社內里","LIN":"14鄰","STREET":" ","SECT":" ","MAREA":"社內","LANE":" ","ALLEY":" ","HOUSE_NO":"１４９之１３號","E_COORD97":176248.48000000001,"N_COORD97":2553017.0499999998,"ADDRESS":"社內１４９之１３號","OBJECTID":17763},"geometry":{"x":176248.48000000045,"y":2553017.0500000026}},{"attributes":{"ID":17764,"DIS_CODE":0,"TOWNNAME":"柳營區","LI":"神農里","LIN":"14鄰","STREET":" ","SECT":" ","MAREA":"果毅後","LANE":" ","ALLEY":" ","HOUSE_NO":"３７５號之１","E_COORD97":185225.41,"N_COORD97":2573023.5099999998,"ADDRESS":"果毅後３７５號之１","OBJECTID":17764},"geometry":{"x":185225.41000000201,"y":2573023.5100000016}},{"attributes":{"ID":17765,"DIS_CODE":0,"TOWNNAME":"柳營區","LI":"神農里","LIN":"14鄰","STREET":" ","SECT":" ","MAREA":"果毅後","LANE":" ","ALLEY":" ","HOUSE_NO":"３７５號之２","E_COORD97":185247.73999999999,"N_COORD97":2573014.6800000002,"ADDRESS":"果毅後３７５號之２","OBJECTID":17765},"geometry":{"x":185247.74000000022,"y":2573014.6800000016}},{"attributes":{"ID":17766,"DIS_CODE":0,"TOWNNAME":"柳營區","LI":"神農里","LIN":"14鄰","STREET":" ","SECT":" ","MAREA":"果毅後","LANE":" ","ALLEY":" ","HOUSE_NO":"３７５號","E_COORD97":185208.16,"N_COORD97":2573024.2799999998,"ADDRESS":"果毅後３７５號","OBJECTID":17766},"geometry":{"x":185208.16000000015,"y":2573024.2800000012}},{"attributes":{"ID":17767,"DIS_CODE":0,"TOWNNAME":"永康區","LI":"北灣里","LIN":"34鄰","STREET":"大灣路","SECT":" ","MAREA":" ","LANE":"４０巷","ALLEY":"１４弄","HOUSE_NO":"５號","E_COORD97":175252.25,"N_COORD97":2545963.8599999999,"ADDRESS":"大灣路４０巷１４弄５號","OBJECTID":17767},"geometry":{"x":175252.25000000093,"y":2545963.8600000031}},{"attributes":{"ID":17768,"DIS_CODE":0,"TOWNNAME":"永康區","LI":"北灣里","LIN":"34鄰","STREET":"大灣路","SECT":" ","MAREA":" ","LANE":"４０巷","ALLEY":"１４弄","HOUSE_NO":"１１號","E_COORD97":175266.07999999999,"N_COORD97":2545977.3599999999,"ADDRESS":"大灣路４０巷１４弄１１號","OBJECTID":17768},"geometry":{"x":175266.08000000007,"y":2545977.3600000031}},{"attributes":{"ID":17769,"DIS_CODE":0,"TOWNNAME":"永康區","LI":"北灣里","LIN":"34鄰","STREET":"大灣路","SECT":" ","MAREA":" ","LANE":"４０巷","ALLEY":"１６弄","HOUSE_NO":"３０號","E_COORD97":175290.01000000001,"N_COORD97":2546034.0099999998,"ADDRESS":"大灣路４０巷１６弄３０號","OBJECTID":17769},"geometry":{"x":175290.00999999978,"y":2546034.0099999998}},{"attributes":{"ID":17770,"DIS_CODE":0,"TOWNNAME":"永康區","LI":"北灣里","LIN":"34鄰","STREET":"大灣路","SECT":" ","MAREA":" ","LANE":"４０巷","ALLEY":"１４弄","HOUSE_NO":"１號","E_COORD97":175243.13,"N_COORD97":2545954.1099999999,"ADDRESS":"大灣路４０巷１４弄１號","OBJECTID":17770},"geometry":{"x":175243.12999999989,"y":2545954.1099999994}},{"attributes":{"ID":17771,"DIS_CODE":0,"TOWNNAME":"永康區","LI":"北灣里","LIN":"34鄰","STREET":"大灣路","SECT":" ","MAREA":" ","LANE":"４０巷","ALLEY":"１４弄","HOUSE_NO":"２號","E_COORD97":175251.92999999999,"N_COORD97":2545946.6699999999,"ADDRESS":"大灣路４０巷１４弄２號","OBJECTID":17771},"geometry":{"x":175251.93000000156,"y":2545946.6700000018}},{"attributes":{"ID":17772,"DIS_CODE":0,"TOWNNAME":"永康區","LI":"北灣里","LIN":"34鄰","STREET":"大灣路","SECT":" ","MAREA":" ","LANE":"４０巷","ALLEY":"１６弄","HOUSE_NO":"１２號","E_COORD97":175250.64000000001,"N_COORD97":2545989.0299999998,"ADDRESS":"大灣路４０巷１６弄１２號","OBJECTID":17772},"geometry":{"x":175250.6400000006,"y":2545989.0299999993}},{"attributes":{"ID":17773,"DIS_CODE":0,"TOWNNAME":"永康區","LI":"正強里","LIN":"34鄰","STREET":"四維街","SECT":" ","MAREA":" ","LANE":"１４９巷","ALLEY":"３７弄","HOUSE_NO":"８號","E_COORD97":173200.79000000001,"N_COORD97":2548339.4900000002,"ADDRESS":"四維街１４９巷３７弄８號","OBJECTID":17773},"geometry":{"x":173200.79000000097,"y":2548339.4900000002}},{"attributes":{"ID":17774,"DIS_CODE":0,"TOWNNAME":"永康區","LI":"北灣里","LIN":"34鄰","STREET":"大灣路","SECT":" ","MAREA":" ","LANE":"４０巷","ALLEY":"１６弄","HOUSE_NO":"１８號","E_COORD97":175261.94,"N_COORD97":2546004.29,"ADDRESS":"大灣路４０巷１６弄１８號","OBJECTID":17774},"geometry":{"x":175261.94000000041,"y":2546004.2899999991}},{"attributes":{"ID":17775,"DIS_CODE":0,"TOWNNAME":"永康區","LI":"北灣里","LIN":"34鄰","STREET":"大灣路","SECT":" ","MAREA":" ","LANE":"４０巷","ALLEY":"２６弄","HOUSE_NO":"２１號","E_COORD97":175229.20999999999,"N_COORD97":2546081.9700000002,"ADDRESS":"大灣路４０巷２６弄２１號","OBJECTID":17775},"geometry":{"x":175229.20999999996,"y":2546081.9700000007}},{"attributes":{"ID":17776,"DIS_CODE":0,"TOWNNAME":"東區","LI":"和平里","LIN":"20鄰","STREET":"仁和路","SECT":" ","MAREA":" ","LANE":" ","ALLEY":" ","HOUSE_NO":"４５之６號","E_COORD97":171106.81,"N_COORD97":2541971.7599999998,"ADDRESS":"仁和路４５之６號","OBJECTID":17776},"geometry":{"x":171106.81000000052,"y":2541971.7600000016}},{"attributes":{"ID":17777,"DIS_CODE":0,"TOWNNAME":"東區","LI":"和平里","LIN":"20鄰","STREET":"仁和路","SECT":" ","MAREA":" ","LANE":" ","ALLEY":" ","HOUSE_NO":"４５之７號","E_COORD97":171112.20999999999,"N_COORD97":2541970.04,"ADDRESS":"仁和路４５之７號","OBJECTID":17777},"geometry":{"x":171112.20999999903,"y":2541970.040000001}},{"attributes":{"ID":17778,"DIS_CODE":0,"TOWNNAME":"東區","LI":"和平里","LIN":"20鄰","STREET":"仁和路","SECT":" ","MAREA":" ","LANE":" ","ALLEY":" ","HOUSE_NO":"４５之８號","E_COORD97":171116.22,"N_COORD97":2541972.98,"ADDRESS":"仁和路４５之８號","OBJECTID":17778},"geometry":{"x":171116.22000000067,"y":2541972.9800000004}},{"attributes":{"ID":17779,"DIS_CODE":0,"TOWNNAME":"東區","LI":"和平里","LIN":"20鄰","STREET":"仁和路","SECT":" ","MAREA":" ","LANE":" ","ALLEY":" ","HOUSE_NO":"４５之９號","E_COORD97":171121.95000000001,"N_COORD97":2541971.5899999999,"ADDRESS":"仁和路４５之９號","OBJECTID":17779},"geometry":{"x":171121.95000000019,"y":2541971.5899999999}},{"attributes":{"ID":17780,"DIS_CODE":0,"TOWNNAME":"東區","LI":"和平里","LIN":"20鄰","STREET":"仁和路","SECT":" ","MAREA":" ","LANE":" ","ALLEY":" ","HOUSE_NO":"４５之１０號","E_COORD97":171126.37,"N_COORD97":2541974.0499999998,"ADDRESS":"仁和路４５之１０號","OBJECTID":17780},"geometry":{"x":171126.37000000011,"y":2541974.0500000026}},{"attributes":{"ID":17781,"DIS_CODE":0,"TOWNNAME":"東區","LI":"和平里","LIN":"20鄰","STREET":"仁和路","SECT":" ","MAREA":" ","LANE":" ","ALLEY":" ","HOUSE_NO":"４５之１１號","E_COORD97":171131.35999999999,"N_COORD97":2541973.23,"ADDRESS":"仁和路４５之１１號","OBJECTID":17781},"geometry":{"x":171131.36000000034,"y":2541973.2300000023}},{"attributes":{"ID":17782,"DIS_CODE":0,"TOWNNAME":"東區","LI":"和平里","LIN":"20鄰","STREET":"仁和路","SECT":" ","MAREA":" ","LANE":" ","ALLEY":" ","HOUSE_NO":"４５之１２號","E_COORD97":171136.51999999999,"N_COORD97":2541975.52,"ADDRESS":"仁和路４５之１２號","OBJECTID":17782},"geometry":{"x":171136.51999999955,"y":2541975.5199999996}},{"attributes":{"ID":17783,"DIS_CODE":0,"TOWNNAME":"永康區","LI":"正強里","LIN":"34鄰","STREET":"四維街","SECT":" ","MAREA":" ","LANE":"１４９巷","ALLEY":"３７弄","HOUSE_NO":"６號","E_COORD97":173204.22,"N_COORD97":2548342.7400000002,"ADDRESS":"四維街１４９巷３７弄６號","OBJECTID":17783},"geometry":{"x":173204.22000000067,"y":2548342.7400000021}},{"attributes":{"ID":17784,"DIS_CODE":0,"TOWNNAME":"永康區","LI":"北灣里","LIN":"34鄰","STREET":"大灣路","SECT":" ","MAREA":" ","LANE":"４０巷","ALLEY":"１４弄","HOUSE_NO":"３號","E_COORD97":175247.98999999999,"N_COORD97":2545959.3599999999,"ADDRESS":"大灣路４０巷１４弄３號","OBJECTID":17784},"geometry":{"x":175247.99000000022,"y":2545959.3599999994}},{"attributes":{"ID":17785,"DIS_CODE":0,"TOWNNAME":"仁德區","LI":"太子里","LIN":"34鄰","STREET":"土庫路","SECT":" ","MAREA":" ","LANE":"３５巷","ALLEY":"１弄","HOUSE_NO":"３號","E_COORD97":174242.51000000001,"N_COORD97":2543404.75,"ADDRESS":"土庫路３５巷１弄３號","OBJECTID":17785},"geometry":{"x":174242.50999999978,"y":2543404.75}},{"attributes":{"ID":17786,"DIS_CODE":0,"TOWNNAME":"永康區","LI":"二王里","LIN":"34鄰","STREET":"中山南路","SECT":" ","MAREA":" ","LANE":"４９０巷","ALLEY":"１２弄","HOUSE_NO":"２號","E_COORD97":172183.23999999999,"N_COORD97":2546326.8500000001,"ADDRESS":"中山南路４９０巷１２弄２號","OBJECTID":17786},"geometry":{"x":172183.24000000022,"y":2546326.8500000034}},{"attributes":{"ID":17787,"DIS_CODE":0,"TOWNNAME":"仁德區","LI":"成功里","LIN":"34鄰","STREET":"成功一街","SECT":" ","MAREA":" ","LANE":"６７巷","ALLEY":"２５弄","HOUSE_NO":"８號","E_COORD97":170637.53,"N_COORD97":2540077.2599999998,"ADDRESS":"成功一街６７巷２５弄８號","OBJECTID":17787},"geometry":{"x":170637.53000000212,"y":2540077.2600000016}},{"attributes":{"ID":17788,"DIS_CODE":0,"TOWNNAME":"仁德區","LI":"成功里","LIN":"34鄰","STREET":"成功一街","SECT":" ","MAREA":" ","LANE":"６７巷","ALLEY":"２５弄","HOUSE_NO":"１號","E_COORD97":170629.53,"N_COORD97":2540066.2599999998,"ADDRESS":"成功一街６７巷２５弄１號","OBJECTID":17788},"geometry":{"x":170629.53000000119,"y":2540066.2600000016}},{"attributes":{"ID":17789,"DIS_CODE":0,"TOWNNAME":"新市區","LI":"新和里","LIN":"34鄰","STREET":"仁愛街","SECT":" ","MAREA":" ","LANE":"１８９巷","ALLEY":"３０弄","HOUSE_NO":"２號","E_COORD97":177522.29000000001,"N_COORD97":2552787.5299999998,"ADDRESS":"仁愛街１８９巷３０弄２號","OBJECTID":17789},"geometry":{"x":177522.29000000004,"y":2552787.5300000031}},{"attributes":{"ID":17790,"DIS_CODE":0,"TOWNNAME":"永康區","LI":"五王里","LIN":"34鄰","STREET":"中華路","SECT":" ","MAREA":" ","LANE":"５７８巷","ALLEY":"１０弄","HOUSE_NO":"４號","E_COORD97":171341.75,"N_COORD97":2545944.9900000002,"ADDRESS":"中華路５７８巷１０弄４號","OBJECTID":17790},"geometry":{"x":171341.75000000093,"y":2545944.9900000021}},{"attributes":{"ID":17791,"DIS_CODE":0,"TOWNNAME":"永康區","LI":"復華里","LIN":"34鄰","STREET":"復國一路","SECT":" ","MAREA":" ","LANE":"４７５巷","ALLEY":"６０弄","HOUSE_NO":"３３號","E_COORD97":172504.81,"N_COORD97":2546026.5899999999,"ADDRESS":"復國一路４７５巷６０弄３３號","OBJECTID":17791},"geometry":{"x":172504.81000000145,"y":2546026.5899999999}},{"attributes":{"ID":17792,"DIS_CODE":0,"TOWNNAME":"永康區","LI":"崑山里","LIN":"34鄰","STREET":"大灣路","SECT":" ","MAREA":" ","LANE":"９４２巷","ALLEY":"１９４弄","HOUSE_NO":"１２號","E_COORD97":173835.97,"N_COORD97":2544958.3799999999,"ADDRESS":"大灣路９４２巷１９４弄１２號","OBJECTID":17792},"geometry":{"x":173835.96999999974,"y":2544958.379999999}},{"attributes":{"ID":17793,"DIS_CODE":0,"TOWNNAME":"永康區","LI":"崑山里","LIN":"34鄰","STREET":"大灣路","SECT":" ","MAREA":" ","LANE":"９４２巷","ALLEY":"１９４弄","HOUSE_NO":"１８號","E_COORD97":173846.42000000001,"N_COORD97":2544955.8799999999,"ADDRESS":"大灣路９４２巷１９４弄１８號","OBJECTID":17793},"geometry":{"x":173846.41999999993,"y":2544955.879999999}},{"attributes":{"ID":17794,"DIS_CODE":0,"TOWNNAME":"永康區","LI":"崑山里","LIN":"34鄰","STREET":"大灣路","SECT":" ","MAREA":" ","LANE":"９４２巷","ALLEY":"１９４弄","HOUSE_NO":"６號","E_COORD97":173821.72,"N_COORD97":2544962.6299999999,"ADDRESS":"大灣路９４２巷１９４弄６號","OBJECTID":17794},"geometry":{"x":173821.72000000067,"y":2544962.6300000008}},{"attributes":{"ID":17795,"DIS_CODE":0,"TOWNNAME":"仁德區","LI":"成功里","LIN":"34鄰","STREET":"成功一街","SECT":" ","MAREA":" ","LANE":"６７巷","ALLEY":"２５弄","HOUSE_NO":"２號","E_COORD97":170636.20000000001,"N_COORD97":2540057.5099999998,"ADDRESS":"成功一街６７巷２５弄２號","OBJECTID":17795},"geometry":{"x":170636.20000000205,"y":2540057.5100000016}},{"attributes":{"ID":17796,"DIS_CODE":0,"TOWNNAME":"仁德區","LI":"成功里","LIN":"34鄰","STREET":"成功一街","SECT":" ","MAREA":" ","LANE":"６７巷","ALLEY":"２５弄","HOUSE_NO":"４號","E_COORD97":170636.54999999999,"N_COORD97":2540063.2599999998,"ADDRESS":"成功一街６７巷２５弄４號","OBJECTID":17796},"geometry":{"x":170636.54999999981,"y":2540063.2600000016}},{"attributes":{"ID":17797,"DIS_CODE":0,"TOWNNAME":"仁德區","LI":"後壁里","LIN":"34鄰","STREET":"德洋二街","SECT":" ","MAREA":" ","LANE":"３９巷","ALLEY":"２９弄","HOUSE_NO":"２９號","E_COORD97":172306.53,"N_COORD97":2539393.52,"ADDRESS":"德洋二街３９巷２９弄２９號","OBJECTID":17797},"geometry":{"x":172306.53000000026,"y":2539393.5200000014}},{"attributes":{"ID":17798,"DIS_CODE":0,"TOWNNAME":"永康區","LI":"五王里","LIN":"34鄰","STREET":"中華路","SECT":" ","MAREA":" ","LANE":"５７８巷","ALLEY":"１０弄","HOUSE_NO":"１４號","E_COORD97":171352.73999999999,"N_COORD97":2545927.5,"ADDRESS":"中華路５７８巷１０弄１４號","OBJECTID":17798},"geometry":{"x":171352.74000000022,"y":2545927.5000000019}},{"attributes":{"ID":17799,"DIS_CODE":0,"TOWNNAME":"永康區","LI":"五王里","LIN":"34鄰","STREET":"中華路","SECT":" ","MAREA":" ","LANE":"５７８巷","ALLEY":"１０弄","HOUSE_NO":"６號","E_COORD97":171343.60000000001,"N_COORD97":2545941.4900000002,"ADDRESS":"中華路５７８巷１０弄６號","OBJECTID":17799},"geometry":{"x":171343.60000000056,"y":2545941.4900000021}},{"attributes":{"ID":17800,"DIS_CODE":0,"TOWNNAME":"永康區","LI":"五王里","LIN":"34鄰","STREET":"中華路","SECT":" ","MAREA":" ","LANE":"５７８巷","ALLEY":"１０弄","HOUSE_NO":"１１號","E_COORD97":171364.54000000001,"N_COORD97":2545933.75,"ADDRESS":"中華路５７８巷１０弄１１號","OBJECTID":17800},"geometry":{"x":171364.5400000019,"y":2545933.75}}]}