{"displayFieldName":"TOWNNAME","fieldAliases":{"ID":"ID","DIS_CODE":"DIS_CODE","TOWNNAME":"TOWNNAME","LI":"LI","LIN":"LIN","STREET":"STREET","SECT":"SECT","MAREA":"MAREA","LANE":"LANE","ALLEY":"ALLEY","HOUSE_NO":"HOUSE_NO","E_COORD97":"E_COORD97","N_COORD97":"N_COORD97","ADDRESS":"ADDRESS","OBJECTID":"OBJECTID"},"geometryType":"esriGeometryPoint","spatialReference":{"wkid":102443,"latestWkid":3826},"fields":[{"name":"ID","type":"esriFieldTypeDouble","alias":"ID"},{"name":"DIS_CODE","type":"esriFieldTypeInteger","alias":"DIS_CODE"},{"name":"TOWNNAME","type":"esriFieldTypeString","alias":"TOWNNAME","length":8},{"name":"LI","type":"esriFieldTypeString","alias":"LI","length":8},{"name":"LIN","type":"esriFieldTypeString","alias":"LIN","length":12},{"name":"STREET","type":"esriFieldTypeString","alias":"STREET","length":20},{"name":"SECT","type":"esriFieldTypeString","alias":"SECT","length":8},{"name":"MAREA","type":"esriFieldTypeString","alias":"MAREA","length":12},{"name":"LANE","type":"esriFieldTypeString","alias":"LANE","length":10},{"name":"ALLEY","type":"esriFieldTypeString","alias":"ALLEY","length":10},{"name":"HOUSE_NO","type":"esriFieldTypeString","alias":"HOUSE_NO","length":20},{"name":"E_COORD97","type":"esriFieldTypeDouble","alias":"E_COORD97"},{"name":"N_COORD97","type":"esriFieldTypeDouble","alias":"N_COORD97"},{"name":"ADDRESS","type":"esriFieldTypeString","alias":"ADDRESS","length":50},{"name":"OBJECTID","type":"esriFieldTypeOID","alias":"OBJECTID"}],"features":[{"attributes":{"ID":399425,"DIS_CODE":0,"TOWNNAME":"北區","LI":"大港里","LIN":"11鄰","STREET":"大興街","SECT":" ","MAREA":" ","LANE":"２９０巷","ALLEY":" ","HOUSE_NO":"１８號","E_COORD97":166563.22,"N_COORD97":2545708.3300000001,"ADDRESS":"大興街２９０巷１８號","OBJECTID":399401},"geometry":{"x":166563.21999999974,"y":2545708.3300000019}},{"attributes":{"ID":399426,"DIS_CODE":0,"TOWNNAME":"北區","LI":"大港里","LIN":"11鄰","STREET":"大興街","SECT":" ","MAREA":" ","LANE":"２９０巷","ALLEY":" ","HOUSE_NO":"２０號","E_COORD97":166563.34,"N_COORD97":2545712.4900000002,"ADDRESS":"大興街２９０巷２０號","OBJECTID":399402},"geometry":{"x":166563.34000000078,"y":2545712.4900000002}},{"attributes":{"ID":399427,"DIS_CODE":0,"TOWNNAME":"北區","LI":"大港里","LIN":"11鄰","STREET":"大興街","SECT":" ","MAREA":" ","LANE":"２９０巷","ALLEY":" ","HOUSE_NO":"２２號","E_COORD97":166563.59,"N_COORD97":2545715.8900000001,"ADDRESS":"大興街２９０巷２２號","OBJECTID":399403},"geometry":{"x":166563.59000000078,"y":2545715.8900000006}},{"attributes":{"ID":399428,"DIS_CODE":0,"TOWNNAME":"北區","LI":"大港里","LIN":"11鄰","STREET":"大興街","SECT":" ","MAREA":" ","LANE":"２９０巷","ALLEY":" ","HOUSE_NO":"２４號","E_COORD97":166563.17000000001,"N_COORD97":2545719.9100000001,"ADDRESS":"大興街２９０巷２４號","OBJECTID":399404},"geometry":{"x":166563.17000000086,"y":2545719.9100000001}},{"attributes":{"ID":399429,"DIS_CODE":0,"TOWNNAME":"北區","LI":"大港里","LIN":"11鄰","STREET":"大興街","SECT":" ","MAREA":" ","LANE":"２９０巷","ALLEY":" ","HOUSE_NO":"２６號","E_COORD97":166563.47,"N_COORD97":2545724.0600000001,"ADDRESS":"大興街２９０巷２６號","OBJECTID":399405},"geometry":{"x":166563.46999999974,"y":2545724.0600000024}},{"attributes":{"ID":399430,"DIS_CODE":0,"TOWNNAME":"歸仁區","LI":"看西里","LIN":"11鄰","STREET":"成功六街","SECT":" ","MAREA":" ","LANE":"３８巷","ALLEY":" ","HOUSE_NO":"５號","E_COORD97":178408.23000000001,"N_COORD97":2540194.8300000001,"ADDRESS":"成功六街３８巷５號","OBJECTID":399406},"geometry":{"x":178408.23000000045,"y":2540194.8300000019}},{"attributes":{"ID":399431,"DIS_CODE":0,"TOWNNAME":"北區","LI":"大港里","LIN":"11鄰","STREET":"大興街","SECT":" ","MAREA":" ","LANE":"２９０巷","ALLEY":" ","HOUSE_NO":"２８號","E_COORD97":166564,"N_COORD97":2545729.0600000001,"ADDRESS":"大興街２９０巷２８號","OBJECTID":399407},"geometry":{"x":166564.00000000186,"y":2545729.0600000005}},{"attributes":{"ID":399432,"DIS_CODE":0,"TOWNNAME":"北區","LI":"大港里","LIN":"11鄰","STREET":"大興街","SECT":" ","MAREA":" ","LANE":"２９０巷","ALLEY":" ","HOUSE_NO":"２號","E_COORD97":166561.42999999999,"N_COORD97":2545673.3599999999,"ADDRESS":"大興街２９０巷２號","OBJECTID":399408},"geometry":{"x":166561.43000000063,"y":2545673.3600000013}},{"attributes":{"ID":399433,"DIS_CODE":0,"TOWNNAME":"北區","LI":"大港里","LIN":"11鄰","STREET":"大興街","SECT":" ","MAREA":" ","LANE":"２９０巷","ALLEY":" ","HOUSE_NO":"３０號","E_COORD97":166563.01000000001,"N_COORD97":2545732.4199999999,"ADDRESS":"大興街２９０巷３０號","OBJECTID":399409},"geometry":{"x":166563.00999999978,"y":2545732.4199999999}},{"attributes":{"ID":399434,"DIS_CODE":0,"TOWNNAME":"北區","LI":"大港里","LIN":"11鄰","STREET":"大興街","SECT":" ","MAREA":" ","LANE":"２９０巷","ALLEY":" ","HOUSE_NO":"３２號","E_COORD97":166562.92999999999,"N_COORD97":2545736.25,"ADDRESS":"大興街２９０巷３２號","OBJECTID":399410},"geometry":{"x":166562.93000000063,"y":2545736.2500000019}},{"attributes":{"ID":399435,"DIS_CODE":0,"TOWNNAME":"北區","LI":"大港里","LIN":"11鄰","STREET":"大興街","SECT":" ","MAREA":" ","LANE":"２９０巷","ALLEY":" ","HOUSE_NO":"３４號","E_COORD97":166563.20999999999,"N_COORD97":2545740.2200000002,"ADDRESS":"大興街２９０巷３４號","OBJECTID":399411},"geometry":{"x":166563.21000000089,"y":2545740.2200000025}},{"attributes":{"ID":399436,"DIS_CODE":0,"TOWNNAME":"北區","LI":"大港里","LIN":"11鄰","STREET":"大興街","SECT":" ","MAREA":" ","LANE":"２９０巷","ALLEY":" ","HOUSE_NO":"３６號","E_COORD97":166563.48999999999,"N_COORD97":2545744.2000000002,"ADDRESS":"大興街２９０巷３６號","OBJECTID":399412},"geometry":{"x":166563.49000000022,"y":2545744.1999999974}},{"attributes":{"ID":399437,"DIS_CODE":0,"TOWNNAME":"北區","LI":"大港里","LIN":"11鄰","STREET":"大興街","SECT":" ","MAREA":" ","LANE":"２９０巷","ALLEY":" ","HOUSE_NO":"３８號","E_COORD97":166564.01999999999,"N_COORD97":2545754.0699999998,"ADDRESS":"大興街２９０巷３８號","OBJECTID":399413},"geometry":{"x":166564.02000000048,"y":2545754.0700000022}},{"attributes":{"ID":399438,"DIS_CODE":0,"TOWNNAME":"北區","LI":"大港里","LIN":"11鄰","STREET":"大興街","SECT":" ","MAREA":" ","LANE":"２９０巷","ALLEY":" ","HOUSE_NO":"４號","E_COORD97":166561.60000000001,"N_COORD97":2545678.21,"ADDRESS":"大興街２９０巷４號","OBJECTID":399414},"geometry":{"x":166561.60000000056,"y":2545678.2100000046}},{"attributes":{"ID":399439,"DIS_CODE":0,"TOWNNAME":"北區","LI":"大港里","LIN":"11鄰","STREET":"大興街","SECT":" ","MAREA":" ","LANE":"２９０巷","ALLEY":" ","HOUSE_NO":"６號","E_COORD97":166562.06,"N_COORD97":2545682.1800000002,"ADDRESS":"大興街２９０巷６號","OBJECTID":399415},"geometry":{"x":166562.06000000052,"y":2545682.1800000016}},{"attributes":{"ID":399440,"DIS_CODE":0,"TOWNNAME":"北區","LI":"大港里","LIN":"11鄰","STREET":"大興街","SECT":" ","MAREA":" ","LANE":"２９０巷","ALLEY":" ","HOUSE_NO":"８號","E_COORD97":166562.89000000001,"N_COORD97":2545686.4700000002,"ADDRESS":"大興街２９０巷８號","OBJECTID":399416},"geometry":{"x":166562.8900000006,"y":2545686.4700000044}},{"attributes":{"ID":399441,"DIS_CODE":0,"TOWNNAME":"北區","LI":"大港里","LIN":"11鄰","STREET":"大興街","SECT":" ","MAREA":" ","LANE":"２９０巷","ALLEY":" ","HOUSE_NO":"１１號","E_COORD97":166548.95000000001,"N_COORD97":2545687.5600000001,"ADDRESS":"大興街２９０巷１１號","OBJECTID":399417},"geometry":{"x":166548.95000000019,"y":2545687.5600000005}},{"attributes":{"ID":399442,"DIS_CODE":0,"TOWNNAME":"北區","LI":"大港里","LIN":"11鄰","STREET":"大興街","SECT":" ","MAREA":" ","LANE":"２９０巷","ALLEY":" ","HOUSE_NO":"１３號","E_COORD97":166549.14999999999,"N_COORD97":2545690.3199999998,"ADDRESS":"大興街２９０巷１３號","OBJECTID":399418},"geometry":{"x":166549.15000000037,"y":2545690.3199999984}},{"attributes":{"ID":399443,"DIS_CODE":0,"TOWNNAME":"北區","LI":"大港里","LIN":"11鄰","STREET":"大興街","SECT":" ","MAREA":" ","LANE":"２９０巷","ALLEY":" ","HOUSE_NO":"１５號","E_COORD97":166549.51000000001,"N_COORD97":2545695.3399999999,"ADDRESS":"大興街２９０巷１５號","OBJECTID":399419},"geometry":{"x":166549.50999999978,"y":2545695.3399999999}},{"attributes":{"ID":399444,"DIS_CODE":0,"TOWNNAME":"北區","LI":"大港里","LIN":"11鄰","STREET":"大興街","SECT":" ","MAREA":" ","LANE":"２９０巷","ALLEY":" ","HOUSE_NO":"１７號","E_COORD97":166549.42000000001,"N_COORD97":2545698.9900000002,"ADDRESS":"大興街２９０巷１７號","OBJECTID":399420},"geometry":{"x":166549.42000000086,"y":2545698.9900000002}},{"attributes":{"ID":399445,"DIS_CODE":0,"TOWNNAME":"北區","LI":"大港里","LIN":"11鄰","STREET":"大興街","SECT":" ","MAREA":" ","LANE":"２９０巷","ALLEY":" ","HOUSE_NO":"１９號","E_COORD97":166549.39000000001,"N_COORD97":2545703.6000000001,"ADDRESS":"大興街２９０巷１９號","OBJECTID":399421},"geometry":{"x":166549.3900000006,"y":2545703.5999999996}},{"attributes":{"ID":399446,"DIS_CODE":0,"TOWNNAME":"北區","LI":"大港里","LIN":"11鄰","STREET":"大興街","SECT":" ","MAREA":" ","LANE":"２９０巷","ALLEY":" ","HOUSE_NO":"１號","E_COORD97":166548.48000000001,"N_COORD97":2545666.0499999998,"ADDRESS":"大興街２９０巷１號","OBJECTID":399422},"geometry":{"x":166548.48000000045,"y":2545666.0500000026}},{"attributes":{"ID":399447,"DIS_CODE":0,"TOWNNAME":"北區","LI":"大港里","LIN":"11鄰","STREET":"大興街","SECT":" ","MAREA":" ","LANE":"２９０巷","ALLEY":" ","HOUSE_NO":"２１號","E_COORD97":166549.72,"N_COORD97":2545708.1000000001,"ADDRESS":"大興街２９０巷２１號","OBJECTID":399423},"geometry":{"x":166549.71999999974,"y":2545708.1000000034}},{"attributes":{"ID":399448,"DIS_CODE":0,"TOWNNAME":"北區","LI":"大港里","LIN":"11鄰","STREET":"大興街","SECT":" ","MAREA":" ","LANE":"２９０巷","ALLEY":" ","HOUSE_NO":"２３號","E_COORD97":166549.66,"N_COORD97":2545712.27,"ADDRESS":"大興街２９０巷２３號","OBJECTID":399424},"geometry":{"x":166549.66000000108,"y":2545712.2699999996}},{"attributes":{"ID":399449,"DIS_CODE":0,"TOWNNAME":"北區","LI":"大港里","LIN":"11鄰","STREET":"大興街","SECT":" ","MAREA":" ","LANE":"２９０巷","ALLEY":" ","HOUSE_NO":"２５號","E_COORD97":166549.57000000001,"N_COORD97":2545715.9199999999,"ADDRESS":"大興街２９０巷２５號","OBJECTID":399425},"geometry":{"x":166549.5700000003,"y":2545715.9199999999}},{"attributes":{"ID":399450,"DIS_CODE":0,"TOWNNAME":"北區","LI":"大港里","LIN":"11鄰","STREET":"大興街","SECT":" ","MAREA":" ","LANE":"２９０巷","ALLEY":" ","HOUSE_NO":"２７號","E_COORD97":166549.48999999999,"N_COORD97":2545719.7400000002,"ADDRESS":"大興街２９０巷２７號","OBJECTID":399426},"geometry":{"x":166549.49000000115,"y":2545719.7400000021}},{"attributes":{"ID":399451,"DIS_CODE":0,"TOWNNAME":"北區","LI":"大港里","LIN":"11鄰","STREET":"大興街","SECT":" ","MAREA":" ","LANE":"２９０巷","ALLEY":" ","HOUSE_NO":"２９號","E_COORD97":166549.51999999999,"N_COORD97":2545722.6899999999,"ADDRESS":"大興街２９０巷２９號","OBJECTID":399427},"geometry":{"x":166549.51999999955,"y":2545722.6899999995}},{"attributes":{"ID":399452,"DIS_CODE":0,"TOWNNAME":"北區","LI":"大港里","LIN":"11鄰","STREET":"大興街","SECT":" ","MAREA":" ","LANE":"２９０巷","ALLEY":" ","HOUSE_NO":"３１號","E_COORD97":166549.51999999999,"N_COORD97":2545727.5600000001,"ADDRESS":"大興街２９０巷３１號","OBJECTID":399428},"geometry":{"x":166549.51999999955,"y":2545727.5600000024}},{"attributes":{"ID":399453,"DIS_CODE":0,"TOWNNAME":"北區","LI":"大港里","LIN":"11鄰","STREET":"大興街","SECT":" ","MAREA":" ","LANE":"２９０巷","ALLEY":" ","HOUSE_NO":"３３號","E_COORD97":166549.82999999999,"N_COORD97":2545731.8799999999,"ADDRESS":"大興街２９０巷３３號","OBJECTID":399429},"geometry":{"x":166549.83000000194,"y":2545731.879999999}},{"attributes":{"ID":399454,"DIS_CODE":0,"TOWNNAME":"北區","LI":"大港里","LIN":"11鄰","STREET":"大興街","SECT":" ","MAREA":" ","LANE":"２９０巷","ALLEY":" ","HOUSE_NO":"３５號","E_COORD97":166549.70000000001,"N_COORD97":2545735.0099999998,"ADDRESS":"大興街２９０巷３５號","OBJECTID":399430},"geometry":{"x":166549.70000000112,"y":2545735.0099999998}},{"attributes":{"ID":399455,"DIS_CODE":0,"TOWNNAME":"北區","LI":"大港里","LIN":"11鄰","STREET":"大興街","SECT":" ","MAREA":" ","LANE":"２９０巷","ALLEY":" ","HOUSE_NO":"３７號","E_COORD97":166549.53,"N_COORD97":2545740.0600000001,"ADDRESS":"大興街２９０巷３７號","OBJECTID":399431},"geometry":{"x":166549.53000000119,"y":2545740.0600000042}},{"attributes":{"ID":399456,"DIS_CODE":0,"TOWNNAME":"北區","LI":"大港里","LIN":"11鄰","STREET":"大興街","SECT":" ","MAREA":" ","LANE":"２９０巷","ALLEY":" ","HOUSE_NO":"３號","E_COORD97":166548.41,"N_COORD97":2545670.0499999998,"ADDRESS":"大興街２９０巷３號","OBJECTID":399432},"geometry":{"x":166548.41000000108,"y":2545670.0500000026}},{"attributes":{"ID":399457,"DIS_CODE":0,"TOWNNAME":"北區","LI":"大港里","LIN":"11鄰","STREET":"大興街","SECT":" ","MAREA":" ","LANE":"２９０巷","ALLEY":" ","HOUSE_NO":"５號","E_COORD97":166548.37,"N_COORD97":2545674.3900000001,"ADDRESS":"大興街２９０巷５號","OBJECTID":399433},"geometry":{"x":166548.37000000104,"y":2545674.3900000025}},{"attributes":{"ID":399458,"DIS_CODE":0,"TOWNNAME":"北區","LI":"大港里","LIN":"11鄰","STREET":"大興街","SECT":" ","MAREA":" ","LANE":"２９０巷","ALLEY":" ","HOUSE_NO":"７號","E_COORD97":166548.54999999999,"N_COORD97":2545679.4199999999,"ADDRESS":"大興街２９０巷７號","OBJECTID":399434},"geometry":{"x":166548.55000000075,"y":2545679.4200000037}},{"attributes":{"ID":399459,"DIS_CODE":0,"TOWNNAME":"關廟區","LI":"南花里","LIN":"11鄰","STREET":"明德街","SECT":" ","MAREA":" ","LANE":"１５巷","ALLEY":" ","HOUSE_NO":"２２號","E_COORD97":181797.69,"N_COORD97":2539997.27,"ADDRESS":"明德街１５巷２２號","OBJECTID":399435},"geometry":{"x":181797.69000000227,"y":2539997.2699999996}},{"attributes":{"ID":399460,"DIS_CODE":0,"TOWNNAME":"關廟區","LI":"南花里","LIN":"11鄰","STREET":"明德街","SECT":" ","MAREA":" ","LANE":"１５巷","ALLEY":" ","HOUSE_NO":"１８號","E_COORD97":181796.19,"N_COORD97":2540005.27,"ADDRESS":"明德街１５巷１８號","OBJECTID":399436},"geometry":{"x":181796.19000000134,"y":2540005.2700000014}},{"attributes":{"ID":399461,"DIS_CODE":0,"TOWNNAME":"關廟區","LI":"關廟里","LIN":"11鄰","STREET":"大富街","SECT":" ","MAREA":" ","LANE":"３０１巷","ALLEY":" ","HOUSE_NO":"１１號","E_COORD97":181001.57000000001,"N_COORD97":2539703.7799999998,"ADDRESS":"大富街３０１巷１１號","OBJECTID":399437},"geometry":{"x":181001.56999999937,"y":2539703.7800000012}},{"attributes":{"ID":399462,"DIS_CODE":0,"TOWNNAME":"關廟區","LI":"南花里","LIN":"11鄰","STREET":"明德街","SECT":" ","MAREA":" ","LANE":"１５巷","ALLEY":" ","HOUSE_NO":"２７號","E_COORD97":181803.09,"N_COORD97":2539980.27,"ADDRESS":"明德街１５巷２７號","OBJECTID":399438},"geometry":{"x":181803.09000000078,"y":2539980.2699999996}},{"attributes":{"ID":399463,"DIS_CODE":0,"TOWNNAME":"關廟區","LI":"南花里","LIN":"11鄰","STREET":"明德街","SECT":" ","MAREA":" ","LANE":"１５巷","ALLEY":" ","HOUSE_NO":"３５號","E_COORD97":181787.79000000001,"N_COORD97":2539978.27,"ADDRESS":"明德街１５巷３５號","OBJECTID":399439},"geometry":{"x":181787.79000000004,"y":2539978.2700000014}},{"attributes":{"ID":399464,"DIS_CODE":0,"TOWNNAME":"關廟區","LI":"埤頭里","LIN":"11鄰","STREET":"保東路","SECT":" ","MAREA":" ","LANE":"８８巷","ALLEY":" ","HOUSE_NO":"１００號","E_COORD97":178835.62,"N_COORD97":2544286.2999999998,"ADDRESS":"保東路８８巷１００號","OBJECTID":399440},"geometry":{"x":178835.62000000011,"y":2544286.3000000007}},{"attributes":{"ID":399465,"DIS_CODE":0,"TOWNNAME":"關廟區","LI":"埤頭里","LIN":"11鄰","STREET":"保東路","SECT":" ","MAREA":" ","LANE":"８８巷","ALLEY":" ","HOUSE_NO":"７６號","E_COORD97":178865.97,"N_COORD97":2544261.2999999998,"ADDRESS":"保東路８８巷７６號","OBJECTID":399441},"geometry":{"x":178865.97000000067,"y":2544261.3000000026}},{"attributes":{"ID":399466,"DIS_CODE":0,"TOWNNAME":"關廟區","LI":"埤頭里","LIN":"11鄰","STREET":"關新路","SECT":"二段","MAREA":" ","LANE":"１０３巷","ALLEY":" ","HOUSE_NO":"７５號","E_COORD97":178925.22,"N_COORD97":2544294.25,"ADDRESS":"關新路二段１０３巷７５號","OBJECTID":399442},"geometry":{"x":178925.2200000016,"y":2544294.2500000019}},{"attributes":{"ID":399467,"DIS_CODE":0,"TOWNNAME":"關廟區","LI":"北花里","LIN":"11鄰","STREET":"中正路","SECT":" ","MAREA":" ","LANE":"７０６巷","ALLEY":" ","HOUSE_NO":"２０號","E_COORD97":181711.81,"N_COORD97":2540395.25,"ADDRESS":"中正路７０６巷２０號","OBJECTID":399443},"geometry":{"x":181711.81000000052,"y":2540395.2500000019}},{"attributes":{"ID":399468,"DIS_CODE":0,"TOWNNAME":"關廟區","LI":"北花里","LIN":"11鄰","STREET":"中正路","SECT":" ","MAREA":" ","LANE":"７０６巷","ALLEY":" ","HOUSE_NO":"８號","E_COORD97":181689.06,"N_COORD97":2540363.25,"ADDRESS":"中正路７０６巷８號","OBJECTID":399444},"geometry":{"x":181689.05999999959,"y":2540363.25}},{"attributes":{"ID":399469,"DIS_CODE":0,"TOWNNAME":"關廟區","LI":"關廟里","LIN":"11鄰","STREET":"大富街","SECT":" ","MAREA":" ","LANE":"３０１巷","ALLEY":" ","HOUSE_NO":"９號","E_COORD97":181005.72,"N_COORD97":2539704.7799999998,"ADDRESS":"大富街３０１巷９號","OBJECTID":399445},"geometry":{"x":181005.72000000067,"y":2539704.7799999993}},{"attributes":{"ID":399470,"DIS_CODE":0,"TOWNNAME":"關廟區","LI":"埤頭里","LIN":"11鄰","STREET":"保東路","SECT":" ","MAREA":" ","LANE":"８８巷","ALLEY":" ","HOUSE_NO":"７０號","E_COORD97":178874.87,"N_COORD97":2544261.2999999998,"ADDRESS":"保東路８８巷７０號","OBJECTID":399446},"geometry":{"x":178874.87000000011,"y":2544261.3000000026}},{"attributes":{"ID":399471,"DIS_CODE":0,"TOWNNAME":"關廟區","LI":"南花里","LIN":"11鄰","STREET":"明德街","SECT":" ","MAREA":" ","LANE":"１５巷","ALLEY":" ","HOUSE_NO":"３３號","E_COORD97":181791.19,"N_COORD97":2539978.27,"ADDRESS":"明德街１５巷３３號","OBJECTID":399447},"geometry":{"x":181791.19000000134,"y":2539978.2700000014}},{"attributes":{"ID":399472,"DIS_CODE":0,"TOWNNAME":"關廟區","LI":"北花里","LIN":"11鄰","STREET":"中正路","SECT":" ","MAREA":" ","LANE":"７０６巷","ALLEY":" ","HOUSE_NO":"１０號","E_COORD97":181697.20999999999,"N_COORD97":2540369.25,"ADDRESS":"中正路７０６巷１０號","OBJECTID":399448},"geometry":{"x":181697.21000000089,"y":2540369.2500000019}},{"attributes":{"ID":399473,"DIS_CODE":0,"TOWNNAME":"關廟區","LI":"埤頭里","LIN":"11鄰","STREET":"保東路","SECT":" ","MAREA":" ","LANE":"８８巷","ALLEY":" ","HOUSE_NO":"５１號","E_COORD97":178836.47,"N_COORD97":2544193.2999999998,"ADDRESS":"保東路８８巷５１號","OBJECTID":399449},"geometry":{"x":178836.46999999974,"y":2544193.3000000026}},{"attributes":{"ID":399474,"DIS_CODE":0,"TOWNNAME":"關廟區","LI":"松腳里","LIN":"11鄰","STREET":"東興路","SECT":" ","MAREA":" ","LANE":"２２９巷","ALLEY":" ","HOUSE_NO":"１９號","E_COORD97":181797.51999999999,"N_COORD97":2539626.25,"ADDRESS":"東興路２２９巷１９號","OBJECTID":399450},"geometry":{"x":181797.51999999955,"y":2539626.2500000019}},{"attributes":{"ID":399475,"DIS_CODE":0,"TOWNNAME":"關廟區","LI":"深坑里","LIN":"11鄰","STREET":"深坑二街","SECT":" ","MAREA":" ","LANE":"９０巷","ALLEY":" ","HOUSE_NO":"２６號","E_COORD97":181595.82000000001,"N_COORD97":2537464.2999999998,"ADDRESS":"深坑二街９０巷２６號","OBJECTID":399451},"geometry":{"x":181595.8200000003,"y":2537464.3000000026}},{"attributes":{"ID":399476,"DIS_CODE":0,"TOWNNAME":"關廟區","LI":"南花里","LIN":"11鄰","STREET":"四維街","SECT":" ","MAREA":" ","LANE":"２０９巷","ALLEY":" ","HOUSE_NO":"１５號","E_COORD97":181826.92939400001,"N_COORD97":2540121.5888200002,"ADDRESS":"四維街２０９巷１５號","OBJECTID":399452},"geometry":{"x":181826.92939400021,"y":2540121.5888170004}},{"attributes":{"ID":399477,"DIS_CODE":0,"TOWNNAME":"關廟區","LI":"深坑里","LIN":"11鄰","STREET":"深坑二街","SECT":" ","MAREA":" ","LANE":"９０巷","ALLEY":" ","HOUSE_NO":"２２號","E_COORD97":181599.62,"N_COORD97":2537466.2999999998,"ADDRESS":"深坑二街９０巷２２號","OBJECTID":399453},"geometry":{"x":181599.62000000197,"y":2537466.3000000026}},{"attributes":{"ID":399478,"DIS_CODE":0,"TOWNNAME":"關廟區","LI":"南花里","LIN":"11鄰","STREET":"明德街","SECT":" ","MAREA":" ","LANE":"１５巷","ALLEY":" ","HOUSE_NO":"８號","E_COORD97":181793.69,"N_COORD97":2540027.4300000002,"ADDRESS":"明德街１５巷８號","OBJECTID":399454},"geometry":{"x":181793.69000000041,"y":2540027.4300000016}},{"attributes":{"ID":399479,"DIS_CODE":0,"TOWNNAME":"關廟區","LI":"埤頭里","LIN":"11鄰","STREET":"保東二街","SECT":" ","MAREA":" ","LANE":"２９１巷","ALLEY":" ","HOUSE_NO":"１６號","E_COORD97":178577.72,"N_COORD97":2544722.52,"ADDRESS":"保東二街２９１巷１６號","OBJECTID":399455},"geometry":{"x":178577.7200000016,"y":2544722.5200000014}},{"attributes":{"ID":399480,"DIS_CODE":0,"TOWNNAME":"新化區","LI":"太平里","LIN":"11鄰","STREET":"中正路","SECT":" ","MAREA":" ","LANE":"７０７巷","ALLEY":" ","HOUSE_NO":"２７號","E_COORD97":178639.45999999999,"N_COORD97":2549122.25,"ADDRESS":"中正路７０７巷２７號","OBJECTID":399456},"geometry":{"x":178639.46000000089,"y":2549122.2500000019}},{"attributes":{"ID":399481,"DIS_CODE":0,"TOWNNAME":"新化區","LI":"武安里","LIN":"11鄰","STREET":"信義路","SECT":" ","MAREA":" ","LANE":"３３９巷","ALLEY":" ","HOUSE_NO":"３４號","E_COORD97":178840.28,"N_COORD97":2548206.25,"ADDRESS":"信義路３３９巷３４號","OBJECTID":399457},"geometry":{"x":178840.28000000026,"y":2548206.2500000037}},{"attributes":{"ID":399482,"DIS_CODE":0,"TOWNNAME":"新化區","LI":"武安里","LIN":"11鄰","STREET":"信義路","SECT":" ","MAREA":" ","LANE":"３３９巷","ALLEY":" ","HOUSE_NO":"２８號","E_COORD97":178835.28,"N_COORD97":2548221.25,"ADDRESS":"信義路３３９巷２８號","OBJECTID":399458},"geometry":{"x":178835.28000000026,"y":2548221.2500000019}},{"attributes":{"ID":399483,"DIS_CODE":0,"TOWNNAME":"新化區","LI":"太平里","LIN":"11鄰","STREET":"中正路","SECT":" ","MAREA":" ","LANE":"６９１巷","ALLEY":" ","HOUSE_NO":"４４號","E_COORD97":178674.76000000001,"N_COORD97":2548966.25,"ADDRESS":"中正路６９１巷４４號","OBJECTID":399459},"geometry":{"x":178674.76000000071,"y":2548966.2500000019}},{"attributes":{"ID":399484,"DIS_CODE":0,"TOWNNAME":"新化區","LI":"太平里","LIN":"11鄰","STREET":"中正路","SECT":" ","MAREA":" ","LANE":"７０７巷","ALLEY":" ","HOUSE_NO":"３７號之８","E_COORD97":178608.32000000001,"N_COORD97":2549083.2599999998,"ADDRESS":"中正路７０７巷３７號之８","OBJECTID":399460},"geometry":{"x":178608.32000000123,"y":2549083.2599999998}},{"attributes":{"ID":399485,"DIS_CODE":0,"TOWNNAME":"新化區","LI":"太平里","LIN":"11鄰","STREET":"中正路","SECT":" ","MAREA":" ","LANE":"６９１巷","ALLEY":" ","HOUSE_NO":"３２號之２","E_COORD97":178754.51000000001,"N_COORD97":2548969.2599999998,"ADDRESS":"中正路６９１巷３２號之２","OBJECTID":399461},"geometry":{"x":178754.51000000071,"y":2548969.2600000016}},{"attributes":{"ID":399486,"DIS_CODE":0,"TOWNNAME":"南區","LI":"興農里","LIN":"11鄰","STREET":"明興路","SECT":" ","MAREA":" ","LANE":"１１８１巷","ALLEY":" ","HOUSE_NO":"９５之１號","E_COORD97":167098.23000000001,"N_COORD97":2536563.1499999999,"ADDRESS":"明興路１１８１巷９５之１號","OBJECTID":399462},"geometry":{"x":167098.23000000045,"y":2536563.1500000004}},{"attributes":{"ID":399487,"DIS_CODE":0,"TOWNNAME":"南區","LI":"興農里","LIN":"11鄰","STREET":"明興路","SECT":" ","MAREA":" ","LANE":"１１８１巷","ALLEY":" ","HOUSE_NO":"５之３號","E_COORD97":166597.26999999999,"N_COORD97":2536362.21,"ADDRESS":"明興路１１８１巷５之３號","OBJECTID":399463},"geometry":{"x":166597.27000000142,"y":2536362.2100000028}},{"attributes":{"ID":399488,"DIS_CODE":0,"TOWNNAME":"歸仁區","LI":"七甲里","LIN":"11鄰","STREET":"丁厝街","SECT":" ","MAREA":" ","LANE":"３５巷","ALLEY":" ","HOUSE_NO":"１６號","E_COORD97":175987.73999999999,"N_COORD97":2541918.25,"ADDRESS":"丁厝街３５巷１６號","OBJECTID":399464},"geometry":{"x":175987.74000000209,"y":2541918.2500000019}},{"attributes":{"ID":399489,"DIS_CODE":0,"TOWNNAME":"歸仁區","LI":"七甲里","LIN":"11鄰","STREET":"丁厝街","SECT":" ","MAREA":" ","LANE":"４１巷","ALLEY":" ","HOUSE_NO":"１２號","E_COORD97":175959.14000000001,"N_COORD97":2541950.25,"ADDRESS":"丁厝街４１巷１２號","OBJECTID":399465},"geometry":{"x":175959.14000000153,"y":2541950.25}},{"attributes":{"ID":399490,"DIS_CODE":0,"TOWNNAME":"歸仁區","LI":"武東里","LIN":"11鄰","STREET":"中正南路","SECT":"二段","MAREA":" ","LANE":"２１４巷","ALLEY":" ","HOUSE_NO":"５３號","E_COORD97":175131.17999999999,"N_COORD97":2535484.6299999999,"ADDRESS":"中正南路二段２１４巷５３號","OBJECTID":399466},"geometry":{"x":175131.1799999997,"y":2535484.629999999}},{"attributes":{"ID":399491,"DIS_CODE":0,"TOWNNAME":"歸仁區","LI":"歸南里","LIN":"11鄰","STREET":"民生南街","SECT":"二段","MAREA":" ","LANE":"２０３巷","ALLEY":" ","HOUSE_NO":"１６號","E_COORD97":176133.01000000001,"N_COORD97":2540125.25,"ADDRESS":"民生南街二段２０３巷１６號","OBJECTID":399467},"geometry":{"x":176133.01000000164,"y":2540125.2500000019}},{"attributes":{"ID":399492,"DIS_CODE":0,"TOWNNAME":"南區","LI":"佛壇里","LIN":"11鄰","STREET":"灣裡路","SECT":" ","MAREA":" ","LANE":"４５１巷","ALLEY":" ","HOUSE_NO":"１０號","E_COORD97":166285.81,"N_COORD97":2536017.3399999999,"ADDRESS":"灣裡路４５１巷１０號","OBJECTID":399468},"geometry":{"x":166285.81000000052,"y":2536017.3400000036}},{"attributes":{"ID":399493,"DIS_CODE":0,"TOWNNAME":"南區","LI":"佛壇里","LIN":"11鄰","STREET":"灣裡路","SECT":" ","MAREA":" ","LANE":"４５１巷","ALLEY":" ","HOUSE_NO":"１２號","E_COORD97":166284.03,"N_COORD97":2536023.5499999998,"ADDRESS":"灣裡路４５１巷１２號","OBJECTID":399469},"geometry":{"x":166284.03000000026,"y":2536023.5500000045}},{"attributes":{"ID":399494,"DIS_CODE":0,"TOWNNAME":"南區","LI":"佛壇里","LIN":"11鄰","STREET":"灣裡路","SECT":" ","MAREA":" ","LANE":"４５１巷","ALLEY":" ","HOUSE_NO":"１４號","E_COORD97":166282.70000000001,"N_COORD97":2536028.4300000002,"ADDRESS":"灣裡路４５１巷１４號","OBJECTID":399470},"geometry":{"x":166282.70000000019,"y":2536028.4299999997}},{"attributes":{"ID":399495,"DIS_CODE":0,"TOWNNAME":"南區","LI":"佛壇里","LIN":"11鄰","STREET":"灣裡路","SECT":" ","MAREA":" ","LANE":"４５１巷","ALLEY":" ","HOUSE_NO":"１８號","E_COORD97":166284.76999999999,"N_COORD97":2536054.0800000001,"ADDRESS":"灣裡路４５１巷１８號","OBJECTID":399471},"geometry":{"x":166284.76999999955,"y":2536054.0800000019}},{"attributes":{"ID":399496,"DIS_CODE":0,"TOWNNAME":"南區","LI":"佛壇里","LIN":"11鄰","STREET":"灣裡路","SECT":" ","MAREA":" ","LANE":"４５１巷","ALLEY":" ","HOUSE_NO":"６號之１","E_COORD97":166296.85000000001,"N_COORD97":2535933.5099999998,"ADDRESS":"灣裡路４５１巷６號之１","OBJECTID":399472},"geometry":{"x":166296.85000000056,"y":2535933.5099999998}},{"attributes":{"ID":399497,"DIS_CODE":0,"TOWNNAME":"南區","LI":"佛壇里","LIN":"11鄰","STREET":"灣裡路","SECT":" ","MAREA":" ","LANE":"４５１巷","ALLEY":" ","HOUSE_NO":"６號之２","E_COORD97":166297.39999999999,"N_COORD97":2535928.5499999998,"ADDRESS":"灣裡路４５１巷６號之２","OBJECTID":399473},"geometry":{"x":166297.4000000013,"y":2535928.5500000045}},{"attributes":{"ID":399498,"DIS_CODE":0,"TOWNNAME":"南區","LI":"佛壇里","LIN":"11鄰","STREET":"灣裡路","SECT":" ","MAREA":" ","LANE":"４５１巷","ALLEY":" ","HOUSE_NO":"２４號","E_COORD97":166277.22,"N_COORD97":2536069.6000000001,"ADDRESS":"灣裡路４５１巷２４號","OBJECTID":399474},"geometry":{"x":166277.21999999881,"y":2536069.6000000034}},{"attributes":{"ID":399499,"DIS_CODE":0,"TOWNNAME":"南區","LI":"廣州里","LIN":"11鄰","STREET":"福吉一街","SECT":" ","MAREA":" ","LANE":"１８巷","ALLEY":" ","HOUSE_NO":"１０號","E_COORD97":167374.60999999999,"N_COORD97":2542770.71,"ADDRESS":"福吉一街１８巷１０號","OBJECTID":399475},"geometry":{"x":167374.61000000127,"y":2542770.7100000028}},{"attributes":{"ID":399500,"DIS_CODE":0,"TOWNNAME":"南區","LI":"廣州里","LIN":"11鄰","STREET":"福吉一街","SECT":" ","MAREA":" ","LANE":"１８巷","ALLEY":" ","HOUSE_NO":"１２號","E_COORD97":167378.41,"N_COORD97":2542774.0800000001,"ADDRESS":"福吉一街１８巷１２號","OBJECTID":399476},"geometry":{"x":167378.41000000201,"y":2542774.0800000019}},{"attributes":{"ID":399501,"DIS_CODE":0,"TOWNNAME":"南區","LI":"廣州里","LIN":"11鄰","STREET":"福吉一街","SECT":" ","MAREA":" ","LANE":"１８巷","ALLEY":" ","HOUSE_NO":"１４號","E_COORD97":167380.95000000001,"N_COORD97":2542777.04,"ADDRESS":"福吉一街１８巷１４號","OBJECTID":399477},"geometry":{"x":167380.95000000019,"y":2542777.040000001}},{"attributes":{"ID":399502,"DIS_CODE":0,"TOWNNAME":"南區","LI":"廣州里","LIN":"11鄰","STREET":"福吉一街","SECT":" ","MAREA":" ","LANE":"１８巷","ALLEY":" ","HOUSE_NO":"１６號","E_COORD97":167383.48000000001,"N_COORD97":2542780.4100000001,"ADDRESS":"福吉一街１８巷１６號","OBJECTID":399478},"geometry":{"x":167383.48000000138,"y":2542780.4100000001}},{"attributes":{"ID":399503,"DIS_CODE":0,"TOWNNAME":"南區","LI":"廣州里","LIN":"11鄰","STREET":"福吉一街","SECT":" ","MAREA":" ","LANE":"１８巷","ALLEY":" ","HOUSE_NO":"２號","E_COORD97":167363.20999999999,"N_COORD97":2542756.3799999999,"ADDRESS":"福吉一街１８巷２號","OBJECTID":399479},"geometry":{"x":167363.21000000089,"y":2542756.3800000008}},{"attributes":{"ID":399504,"DIS_CODE":0,"TOWNNAME":"南區","LI":"廣州里","LIN":"11鄰","STREET":"福吉一街","SECT":" ","MAREA":" ","LANE":"１８巷","ALLEY":" ","HOUSE_NO":"４號","E_COORD97":167365.75,"N_COORD97":2542759.3300000001,"ADDRESS":"福吉一街１８巷４號","OBJECTID":399480},"geometry":{"x":167365.75000000186,"y":2542759.3300000001}},{"attributes":{"ID":399505,"DIS_CODE":0,"TOWNNAME":"南區","LI":"廣州里","LIN":"11鄰","STREET":"福吉一街","SECT":" ","MAREA":" ","LANE":"１８巷","ALLEY":" ","HOUSE_NO":"６號","E_COORD97":167368.28,"N_COORD97":2542763.9700000002,"ADDRESS":"福吉一街１８巷６號","OBJECTID":399481},"geometry":{"x":167368.28000000119,"y":2542763.9700000044}},{"attributes":{"ID":399506,"DIS_CODE":0,"TOWNNAME":"南區","LI":"廣州里","LIN":"11鄰","STREET":"福吉一街","SECT":" ","MAREA":" ","LANE":"１８巷","ALLEY":" ","HOUSE_NO":"８號","E_COORD97":167372.07999999999,"N_COORD97":2542767.7599999998,"ADDRESS":"福吉一街１８巷８號","OBJECTID":399482},"geometry":{"x":167372.08000000194,"y":2542767.7600000035}},{"attributes":{"ID":399507,"DIS_CODE":0,"TOWNNAME":"南區","LI":"田寮里","LIN":"11鄰","STREET":"新興路","SECT":" ","MAREA":" ","LANE":"１１３巷","ALLEY":" ","HOUSE_NO":"１１號","E_COORD97":167567.42000000001,"N_COORD97":2542113.1400000001,"ADDRESS":"新興路１１３巷１１號","OBJECTID":399483},"geometry":{"x":167567.41999999993,"y":2542113.1400000025}},{"attributes":{"ID":399508,"DIS_CODE":0,"TOWNNAME":"南區","LI":"田寮里","LIN":"11鄰","STREET":"新興路","SECT":" ","MAREA":" ","LANE":"１１３巷","ALLEY":" ","HOUSE_NO":"１５號","E_COORD97":167568,"N_COORD97":2542095.8199999998,"ADDRESS":"新興路１１３巷１５號","OBJECTID":399484},"geometry":{"x":167568.00000000093,"y":2542095.8200000003}},{"attributes":{"ID":399509,"DIS_CODE":0,"TOWNNAME":"南區","LI":"喜北里","LIN":"11鄰","STREET":"喜樹路","SECT":" ","MAREA":" ","LANE":"１６８巷","ALLEY":" ","HOUSE_NO":"２２號","E_COORD97":165787.85999999999,"N_COORD97":2538241.73,"ADDRESS":"喜樹路１６８巷２２號","OBJECTID":399485},"geometry":{"x":165787.86000000127,"y":2538241.7300000004}},{"attributes":{"ID":399510,"DIS_CODE":0,"TOWNNAME":"南區","LI":"喜北里","LIN":"11鄰","STREET":"喜樹路","SECT":" ","MAREA":" ","LANE":"１６８巷","ALLEY":" ","HOUSE_NO":"３號","E_COORD97":165847.89999999999,"N_COORD97":2538220.2599999998,"ADDRESS":"喜樹路１６８巷３號","OBJECTID":399486},"geometry":{"x":165847.90000000224,"y":2538220.2599999998}},{"attributes":{"ID":399511,"DIS_CODE":0,"TOWNNAME":"南區","LI":"喜北里","LIN":"11鄰","STREET":"喜樹路","SECT":" ","MAREA":" ","LANE":"１６８巷","ALLEY":" ","HOUSE_NO":"４號","E_COORD97":165855.73000000001,"N_COORD97":2538234.4700000002,"ADDRESS":"喜樹路１６８巷４號","OBJECTID":399487},"geometry":{"x":165855.73000000045,"y":2538234.4700000044}},{"attributes":{"ID":399512,"DIS_CODE":0,"TOWNNAME":"南區","LI":"喜北里","LIN":"11鄰","STREET":"喜樹路","SECT":" ","MAREA":" ","LANE":"１６８巷","ALLEY":" ","HOUSE_NO":"５號","E_COORD97":165840.98999999999,"N_COORD97":2538221.3199999998,"ADDRESS":"喜樹路１６８巷５號","OBJECTID":399488},"geometry":{"x":165840.99000000115,"y":2538221.320000004}},{"attributes":{"ID":399513,"DIS_CODE":0,"TOWNNAME":"南區","LI":"喜北里","LIN":"11鄰","STREET":"喜樹路","SECT":" ","MAREA":" ","LANE":"１６８巷","ALLEY":" ","HOUSE_NO":"６號","E_COORD97":165848.92999999999,"N_COORD97":2538235.6800000002,"ADDRESS":"喜樹路１６８巷６號","OBJECTID":399489},"geometry":{"x":165848.93000000063,"y":2538235.6800000016}},{"attributes":{"ID":399514,"DIS_CODE":0,"TOWNNAME":"南區","LI":"喜北里","LIN":"11鄰","STREET":"喜樹路","SECT":" ","MAREA":" ","LANE":"１６８巷","ALLEY":" ","HOUSE_NO":"７號","E_COORD97":165833.51000000001,"N_COORD97":2538222.0699999998,"ADDRESS":"喜樹路１６８巷７號","OBJECTID":399490},"geometry":{"x":165833.51000000071,"y":2538222.0700000003}},{"attributes":{"ID":399515,"DIS_CODE":0,"TOWNNAME":"南區","LI":"喜北里","LIN":"11鄰","STREET":"喜樹路","SECT":" ","MAREA":" ","LANE":"１６８巷","ALLEY":" ","HOUSE_NO":"８號","E_COORD97":165841.60000000001,"N_COORD97":2538236.7400000002,"ADDRESS":"喜樹路１６８巷８號","OBJECTID":399491},"geometry":{"x":165841.59999999963,"y":2538236.7400000021}},{"attributes":{"ID":399516,"DIS_CODE":0,"TOWNNAME":"南區","LI":"喜北里","LIN":"11鄰","STREET":"喜樹路","SECT":" ","MAREA":" ","LANE":"１６８巷","ALLEY":" ","HOUSE_NO":"９號","E_COORD97":165825.88,"N_COORD97":2538223.3500000001,"ADDRESS":"喜樹路１６８巷９號","OBJECTID":399492},"geometry":{"x":165825.88000000082,"y":2538223.3499999996}},{"attributes":{"ID":399517,"DIS_CODE":0,"TOWNNAME":"南區","LI":"喜北里","LIN":"11鄰","STREET":"喜樹路","SECT":" ","MAREA":" ","LANE":"１７８巷","ALLEY":" ","HOUSE_NO":"８號","E_COORD97":165825.29000000001,"N_COORD97":2538214.3999999999,"ADDRESS":"喜樹路１７８巷８號","OBJECTID":399493},"geometry":{"x":165825.29000000097,"y":2538214.4000000041}},{"attributes":{"ID":399518,"DIS_CODE":0,"TOWNNAME":"南區","LI":"喜北里","LIN":"11鄰","STREET":"喜樹路","SECT":" ","MAREA":" ","LANE":"１７８巷","ALLEY":" ","HOUSE_NO":"３號","E_COORD97":165818.34,"N_COORD97":2538205.3399999999,"ADDRESS":"喜樹路１７８巷３號","OBJECTID":399494},"geometry":{"x":165818.33999999985,"y":2538205.3400000017}},{"attributes":{"ID":399519,"DIS_CODE":0,"TOWNNAME":"南區","LI":"建南里","LIN":"11鄰","STREET":"德興路","SECT":" ","MAREA":" ","LANE":"３３６巷","ALLEY":" ","HOUSE_NO":"２號","E_COORD97":167190.29000000001,"N_COORD97":2539864.2000000002,"ADDRESS":"德興路３３６巷２號","OBJECTID":399495},"geometry":{"x":167190.29000000004,"y":2539864.1999999993}},{"attributes":{"ID":399520,"DIS_CODE":0,"TOWNNAME":"南區","LI":"建南里","LIN":"11鄰","STREET":"德興路","SECT":" ","MAREA":" ","LANE":"３１４巷","ALLEY":" ","HOUSE_NO":"５９號","E_COORD97":167053,"N_COORD97":2539891.3999999999,"ADDRESS":"德興路３１４巷５９號","OBJECTID":399496},"geometry":{"x":167053,"y":2539891.4000000004}},{"attributes":{"ID":399521,"DIS_CODE":0,"TOWNNAME":"南區","LI":"建南里","LIN":"11鄰","STREET":"德興路","SECT":" ","MAREA":" ","LANE":"３１４巷","ALLEY":" ","HOUSE_NO":"６１號","E_COORD97":167047.60000000001,"N_COORD97":2539891.3999999999,"ADDRESS":"德興路３１４巷６１號","OBJECTID":399497},"geometry":{"x":167047.60000000149,"y":2539891.4000000004}},{"attributes":{"ID":399522,"DIS_CODE":0,"TOWNNAME":"南區","LI":"建南里","LIN":"11鄰","STREET":"德興路","SECT":" ","MAREA":" ","LANE":"３１４巷","ALLEY":" ","HOUSE_NO":"６３號","E_COORD97":167043.75,"N_COORD97":2539891.3999999999,"ADDRESS":"德興路３１４巷６３號","OBJECTID":399498},"geometry":{"x":167043.75000000186,"y":2539891.4000000004}},{"attributes":{"ID":399523,"DIS_CODE":0,"TOWNNAME":"南區","LI":"建南里","LIN":"11鄰","STREET":"德興路","SECT":" ","MAREA":" ","LANE":"３１４巷","ALLEY":" ","HOUSE_NO":"１號","E_COORD97":167191.38,"N_COORD97":2539893.5099999998,"ADDRESS":"德興路３１４巷１號","OBJECTID":399499},"geometry":{"x":167191.37999999989,"y":2539893.5099999998}},{"attributes":{"ID":399524,"DIS_CODE":0,"TOWNNAME":"南區","LI":"新昌里","LIN":"11鄰","STREET":"西門路","SECT":"一段","MAREA":" ","LANE":"５８７巷","ALLEY":" ","HOUSE_NO":"１０號","E_COORD97":167660.88,"N_COORD97":2542806.96,"ADDRESS":"西門路一段５８７巷１０號","OBJECTID":399500},"geometry":{"x":167660.87999999989,"y":2542806.9600000009}},{"attributes":{"ID":399525,"DIS_CODE":0,"TOWNNAME":"南區","LI":"新昌里","LIN":"11鄰","STREET":"西門路","SECT":"一段","MAREA":" ","LANE":"５８７巷","ALLEY":" ","HOUSE_NO":"１１號","E_COORD97":167676,"N_COORD97":2542794.0600000001,"ADDRESS":"西門路一段５８７巷１１號","OBJECTID":399501},"geometry":{"x":167676.00000000186,"y":2542794.0600000024}},{"attributes":{"ID":399526,"DIS_CODE":0,"TOWNNAME":"南區","LI":"新昌里","LIN":"11鄰","STREET":"西門路","SECT":"一段","MAREA":" ","LANE":"５８７巷","ALLEY":" ","HOUSE_NO":"１２號","E_COORD97":167654.45000000001,"N_COORD97":2542806.3100000001,"ADDRESS":"西門路一段５８７巷１２號","OBJECTID":399502},"geometry":{"x":167654.45000000205,"y":2542806.3100000024}},{"attributes":{"ID":399527,"DIS_CODE":0,"TOWNNAME":"南區","LI":"新昌里","LIN":"11鄰","STREET":"西門路","SECT":"一段","MAREA":" ","LANE":"５８７巷","ALLEY":" ","HOUSE_NO":"１３號","E_COORD97":167671.82000000001,"N_COORD97":2542794.3799999999,"ADDRESS":"西門路一段５８７巷１３號","OBJECTID":399503},"geometry":{"x":167671.8200000003,"y":2542794.3800000008}},{"attributes":{"ID":399528,"DIS_CODE":0,"TOWNNAME":"南區","LI":"新昌里","LIN":"11鄰","STREET":"西門路","SECT":"一段","MAREA":" ","LANE":"５８７巷","ALLEY":" ","HOUSE_NO":"１４號","E_COORD97":167648.66,"N_COORD97":2542806.96,"ADDRESS":"西門路一段５８７巷１４號","OBJECTID":399504},"geometry":{"x":167648.66000000108,"y":2542806.9600000009}},{"attributes":{"ID":399529,"DIS_CODE":0,"TOWNNAME":"南區","LI":"新昌里","LIN":"11鄰","STREET":"西門路","SECT":"一段","MAREA":" ","LANE":"５８７巷","ALLEY":" ","HOUSE_NO":"１５號","E_COORD97":167667.95999999999,"N_COORD97":2542794.3799999999,"ADDRESS":"西門路一段５８７巷１５號","OBJECTID":399505},"geometry":{"x":167667.96000000089,"y":2542794.3800000008}},{"attributes":{"ID":399530,"DIS_CODE":0,"TOWNNAME":"南區","LI":"新昌里","LIN":"11鄰","STREET":"西門路","SECT":"一段","MAREA":" ","LANE":"５８７巷","ALLEY":" ","HOUSE_NO":"１６號","E_COORD97":167643.19,"N_COORD97":2542806.3100000001,"ADDRESS":"西門路一段５８７巷１６號","OBJECTID":399506},"geometry":{"x":167643.19000000134,"y":2542806.3100000024}},{"attributes":{"ID":399531,"DIS_CODE":0,"TOWNNAME":"南區","LI":"新昌里","LIN":"11鄰","STREET":"西門路","SECT":"一段","MAREA":" ","LANE":"５８７巷","ALLEY":" ","HOUSE_NO":"１７號","E_COORD97":167664.10000000001,"N_COORD97":2542794.3799999999,"ADDRESS":"西門路一段５８７巷１７號","OBJECTID":399507},"geometry":{"x":167664.09999999963,"y":2542794.3800000008}},{"attributes":{"ID":399532,"DIS_CODE":0,"TOWNNAME":"南區","LI":"新昌里","LIN":"11鄰","STREET":"西門路","SECT":"一段","MAREA":" ","LANE":"５８７巷","ALLEY":" ","HOUSE_NO":"１８號","E_COORD97":167637.72,"N_COORD97":2542805.6699999999,"ADDRESS":"西門路一段５８７巷１８號","OBJECTID":399508},"geometry":{"x":167637.71999999974,"y":2542805.6699999981}},{"attributes":{"ID":399533,"DIS_CODE":0,"TOWNNAME":"南區","LI":"新昌里","LIN":"11鄰","STREET":"西門路","SECT":"一段","MAREA":" ","LANE":"５８７巷","ALLEY":" ","HOUSE_NO":"１９號","E_COORD97":167659.92000000001,"N_COORD97":2542794.3799999999,"ADDRESS":"西門路一段５８７巷１９號","OBJECTID":399509},"geometry":{"x":167659.92000000086,"y":2542794.3800000008}},{"attributes":{"ID":399534,"DIS_CODE":0,"TOWNNAME":"南區","LI":"新昌里","LIN":"11鄰","STREET":"西門路","SECT":"一段","MAREA":" ","LANE":"５８７巷","ALLEY":" ","HOUSE_NO":"１號","E_COORD97":167701.73000000001,"N_COORD97":2542794.7000000002,"ADDRESS":"西門路一段５８７巷１號","OBJECTID":399510},"geometry":{"x":167701.73000000045,"y":2542794.700000003}},{"attributes":{"ID":399535,"DIS_CODE":0,"TOWNNAME":"南區","LI":"新昌里","LIN":"11鄰","STREET":"西門路","SECT":"一段","MAREA":" ","LANE":"５８７巷","ALLEY":" ","HOUSE_NO":"２０號","E_COORD97":167630.64999999999,"N_COORD97":2542805.6699999999,"ADDRESS":"西門路一段５８７巷２０號","OBJECTID":399511},"geometry":{"x":167630.65000000037,"y":2542805.6699999981}},{"attributes":{"ID":399536,"DIS_CODE":0,"TOWNNAME":"南區","LI":"新昌里","LIN":"11鄰","STREET":"西門路","SECT":"一段","MAREA":" ","LANE":"５８７巷","ALLEY":" ","HOUSE_NO":"２１號","E_COORD97":167654.13,"N_COORD97":2542793.73,"ADDRESS":"西門路一段５８７巷２１號","OBJECTID":399512},"geometry":{"x":167654.12999999989,"y":2542793.7300000023}},{"attributes":{"ID":399537,"DIS_CODE":0,"TOWNNAME":"南區","LI":"新昌里","LIN":"11鄰","STREET":"西門路","SECT":"一段","MAREA":" ","LANE":"５８７巷","ALLEY":" ","HOUSE_NO":"２３號","E_COORD97":167648.34,"N_COORD97":2542792.4500000002,"ADDRESS":"西門路一段５８７巷２３號","OBJECTID":399513},"geometry":{"x":167648.34000000078,"y":2542792.4499999993}},{"attributes":{"ID":399538,"DIS_CODE":0,"TOWNNAME":"南區","LI":"新昌里","LIN":"11鄰","STREET":"西門路","SECT":"一段","MAREA":" ","LANE":"５８７巷","ALLEY":" ","HOUSE_NO":"２５號","E_COORD97":167642.87,"N_COORD97":2542793.73,"ADDRESS":"西門路一段５８７巷２５號","OBJECTID":399514},"geometry":{"x":167642.87000000011,"y":2542793.7300000023}},{"attributes":{"ID":399539,"DIS_CODE":0,"TOWNNAME":"南區","LI":"新昌里","LIN":"11鄰","STREET":"西門路","SECT":"一段","MAREA":" ","LANE":"５８７巷","ALLEY":" ","HOUSE_NO":"２７號","E_COORD97":167637.72,"N_COORD97":2542793.0899999999,"ADDRESS":"西門路一段５８７巷２７號","OBJECTID":399515},"geometry":{"x":167637.71999999974,"y":2542793.0900000017}},{"attributes":{"ID":399540,"DIS_CODE":0,"TOWNNAME":"南區","LI":"新昌里","LIN":"11鄰","STREET":"西門路","SECT":"一段","MAREA":" ","LANE":"５８７巷","ALLEY":" ","HOUSE_NO":"２９號","E_COORD97":167631.60999999999,"N_COORD97":2542792.77,"ADDRESS":"西門路一段５８７巷２９號","OBJECTID":399516},"geometry":{"x":167631.61000000127,"y":2542792.7700000014}},{"attributes":{"ID":399541,"DIS_CODE":0,"TOWNNAME":"南區","LI":"新昌里","LIN":"11鄰","STREET":"西門路","SECT":"一段","MAREA":" ","LANE":"５８７巷","ALLEY":" ","HOUSE_NO":"５號","E_COORD97":167687.26000000001,"N_COORD97":2542794.3799999999,"ADDRESS":"西門路一段５８７巷５號","OBJECTID":399517},"geometry":{"x":167687.25999999978,"y":2542794.3800000008}},{"attributes":{"ID":399542,"DIS_CODE":0,"TOWNNAME":"南區","LI":"新昌里","LIN":"11鄰","STREET":"西門路","SECT":"一段","MAREA":" ","LANE":"５８７巷","ALLEY":" ","HOUSE_NO":"６號","E_COORD97":167673.10999999999,"N_COORD97":2542806.96,"ADDRESS":"西門路一段５８７巷６號","OBJECTID":399518},"geometry":{"x":167673.11000000034,"y":2542806.9600000009}},{"attributes":{"ID":399543,"DIS_CODE":0,"TOWNNAME":"南區","LI":"新昌里","LIN":"11鄰","STREET":"西門路","SECT":"一段","MAREA":" ","LANE":"５８７巷","ALLEY":" ","HOUSE_NO":"７號","E_COORD97":167683.72,"N_COORD97":2542794.3799999999,"ADDRESS":"西門路一段５８７巷７號","OBJECTID":399519},"geometry":{"x":167683.71999999974,"y":2542794.3800000008}},{"attributes":{"ID":399544,"DIS_CODE":0,"TOWNNAME":"南區","LI":"新昌里","LIN":"11鄰","STREET":"西門路","SECT":"一段","MAREA":" ","LANE":"５８７巷","ALLEY":" ","HOUSE_NO":"８號","E_COORD97":167664.73999999999,"N_COORD97":2542805.9900000002,"ADDRESS":"西門路一段５８７巷８號","OBJECTID":399520},"geometry":{"x":167664.74000000115,"y":2542805.9900000002}},{"attributes":{"ID":399545,"DIS_CODE":0,"TOWNNAME":"南區","LI":"新昌里","LIN":"11鄰","STREET":"西門路","SECT":"一段","MAREA":" ","LANE":"５８７巷","ALLEY":" ","HOUSE_NO":"９號","E_COORD97":167679.54000000001,"N_COORD97":2542794.7000000002,"ADDRESS":"西門路一段５８７巷９號","OBJECTID":399521},"geometry":{"x":167679.54000000097,"y":2542794.700000003}},{"attributes":{"ID":399546,"DIS_CODE":0,"TOWNNAME":"南區","LI":"喜北里","LIN":"11鄰","STREET":"喜樹路","SECT":" ","MAREA":" ","LANE":"１７８巷","ALLEY":" ","HOUSE_NO":"１４號","E_COORD97":165796.70000000001,"N_COORD97":2538217.4300000002,"ADDRESS":"喜樹路１７８巷１４號","OBJECTID":399522},"geometry":{"x":165796.70000000112,"y":2538217.4300000016}},{"attributes":{"ID":399547,"DIS_CODE":0,"TOWNNAME":"南區","LI":"文華里","LIN":"11鄰","STREET":"建南路","SECT":" ","MAREA":" ","LANE":"１３８巷","ALLEY":" ","HOUSE_NO":"１５號","E_COORD97":166991.01000000001,"N_COORD97":2542903.2400000002,"ADDRESS":"建南路１３８巷１５號","OBJECTID":399523},"geometry":{"x":166991.01000000071,"y":2542903.2400000002}},{"attributes":{"ID":399548,"DIS_CODE":0,"TOWNNAME":"南區","LI":"文華里","LIN":"11鄰","STREET":"建南路","SECT":" ","MAREA":" ","LANE":"１３８巷","ALLEY":" ","HOUSE_NO":"１７號","E_COORD97":166991.28,"N_COORD97":2542909.3300000001,"ADDRESS":"建南路１３８巷１７號","OBJECTID":399524},"geometry":{"x":166991.28000000212,"y":2542909.3300000001}},{"attributes":{"ID":399549,"DIS_CODE":0,"TOWNNAME":"南區","LI":"佛壇里","LIN":"11鄰","STREET":"灣裡路","SECT":" ","MAREA":" ","LANE":"４５１巷","ALLEY":" ","HOUSE_NO":"１６號之１","E_COORD97":166282.10999999999,"N_COORD97":2536043.77,"ADDRESS":"灣裡路４５１巷１６號之１","OBJECTID":399525},"geometry":{"x":166282.1100000022,"y":2536043.7699999996}},{"attributes":{"ID":399550,"DIS_CODE":0,"TOWNNAME":"南區","LI":"佛壇里","LIN":"11鄰","STREET":"灣裡路","SECT":" ","MAREA":" ","LANE":"４５１巷","ALLEY":" ","HOUSE_NO":"１６號","E_COORD97":166284.41,"N_COORD97":2536037.5,"ADDRESS":"灣裡路４５１巷１６號","OBJECTID":399526},"geometry":{"x":166284.41000000015,"y":2536037.5000000019}},{"attributes":{"ID":399551,"DIS_CODE":0,"TOWNNAME":"安平區","LI":"華平里","LIN":"11鄰","STREET":"怡平路","SECT":" ","MAREA":" ","LANE":"４４２巷","ALLEY":" ","HOUSE_NO":"１１０號","E_COORD97":165327.697063,"N_COORD97":2544090.6047399999,"ADDRESS":"怡平路４４２巷１１０號","OBJECTID":399527},"geometry":{"x":165327.69706299994,"y":2544090.6047380008}},{"attributes":{"ID":399552,"DIS_CODE":0,"TOWNNAME":"安平區","LI":"華平里","LIN":"11鄰","STREET":"怡平路","SECT":" ","MAREA":" ","LANE":"４４２巷","ALLEY":" ","HOUSE_NO":"７５號","E_COORD97":165306.29999999999,"N_COORD97":2544040.5899999999,"ADDRESS":"怡平路４４２巷７５號","OBJECTID":399528},"geometry":{"x":165306.30000000075,"y":2544040.5900000036}},{"attributes":{"ID":399553,"DIS_CODE":0,"TOWNNAME":"南區","LI":"新昌里","LIN":"11鄰","STREET":"西門路","SECT":"一段","MAREA":" ","LANE":"５９７巷","ALLEY":" ","HOUSE_NO":"１４號","E_COORD97":167662.48999999999,"N_COORD97":2542829.48,"ADDRESS":"西門路一段５９７巷１４號","OBJECTID":399529},"geometry":{"x":167662.49000000022,"y":2542829.4800000023}},{"attributes":{"ID":399554,"DIS_CODE":0,"TOWNNAME":"南區","LI":"大忠里","LIN":"11鄰","STREET":"公英一街","SECT":" ","MAREA":" ","LANE":"５１巷","ALLEY":" ","HOUSE_NO":"１０號","E_COORD97":169355.79000000001,"N_COORD97":2541209.1899999999,"ADDRESS":"公英一街５１巷１０號","OBJECTID":399530},"geometry":{"x":169355.79000000097,"y":2541209.1900000013}},{"attributes":{"ID":399555,"DIS_CODE":0,"TOWNNAME":"南區","LI":"大忠里","LIN":"11鄰","STREET":"公英一街","SECT":" ","MAREA":" ","LANE":"５１巷","ALLEY":" ","HOUSE_NO":"１２號","E_COORD97":169356.70000000001,"N_COORD97":2541205.5899999999,"ADDRESS":"公英一街５１巷１２號","OBJECTID":399531},"geometry":{"x":169356.70000000112,"y":2541205.5899999999}},{"attributes":{"ID":399556,"DIS_CODE":0,"TOWNNAME":"南區","LI":"大忠里","LIN":"11鄰","STREET":"公英一街","SECT":" ","MAREA":" ","LANE":"５１巷","ALLEY":" ","HOUSE_NO":"２號","E_COORD97":169353.98999999999,"N_COORD97":2541224.3100000001,"ADDRESS":"公英一街５１巷２號","OBJECTID":399532},"geometry":{"x":169353.99000000022,"y":2541224.3100000005}},{"attributes":{"ID":399557,"DIS_CODE":0,"TOWNNAME":"南區","LI":"大忠里","LIN":"11鄰","STREET":"公英一街","SECT":" ","MAREA":" ","LANE":"５１巷","ALLEY":" ","HOUSE_NO":"６號","E_COORD97":169354.70999999999,"N_COORD97":2541216.0299999998,"ADDRESS":"公英一街５１巷６號","OBJECTID":399533},"geometry":{"x":169354.71000000089,"y":2541216.0300000031}},{"attributes":{"ID":399558,"DIS_CODE":0,"TOWNNAME":"南區","LI":"大忠里","LIN":"11鄰","STREET":"公英一街","SECT":" ","MAREA":" ","LANE":"５１巷","ALLEY":" ","HOUSE_NO":"８號","E_COORD97":169355.25,"N_COORD97":2541212.4300000002,"ADDRESS":"公英一街５１巷８號","OBJECTID":399534},"geometry":{"x":169355.25,"y":2541212.4299999997}},{"attributes":{"ID":399559,"DIS_CODE":0,"TOWNNAME":"新營區","LI":"民生里","LIN":"11鄰","STREET":"三民路","SECT":" ","MAREA":" ","LANE":"１８６巷","ALLEY":" ","HOUSE_NO":"１號","E_COORD97":179197,"N_COORD97":2578214.3900000001,"ADDRESS":"三民路１８６巷１號","OBJECTID":399535},"geometry":{"x":179197.00000000093,"y":2578214.3900000043}},{"attributes":{"ID":399560,"DIS_CODE":0,"TOWNNAME":"歸仁區","LI":"南保里","LIN":"11鄰","STREET":"文化街","SECT":"三段","MAREA":" ","LANE":"１６０巷","ALLEY":" ","HOUSE_NO":"１０號","E_COORD97":176647.76999999999,"N_COORD97":2541231.2599999998,"ADDRESS":"文化街三段１６０巷１０號","OBJECTID":399536},"geometry":{"x":176647.76999999955,"y":2541231.2599999998}},{"attributes":{"ID":399561,"DIS_CODE":0,"TOWNNAME":"歸仁區","LI":"許厝里","LIN":"11鄰","STREET":"公園路","SECT":" ","MAREA":" ","LANE":"１５７巷","ALLEY":" ","HOUSE_NO":"６０號","E_COORD97":177842.67999999999,"N_COORD97":2540313.25,"ADDRESS":"公園路１５７巷６０號","OBJECTID":399537},"geometry":{"x":177842.68000000063,"y":2540313.2499999981}},{"attributes":{"ID":399562,"DIS_CODE":0,"TOWNNAME":"歸仁區","LI":"後市里","LIN":"11鄰","STREET":"民權七街","SECT":" ","MAREA":" ","LANE":"２５巷","ALLEY":" ","HOUSE_NO":"３號","E_COORD97":177050.09,"N_COORD97":2540751.25,"ADDRESS":"民權七街２５巷３號","OBJECTID":399538},"geometry":{"x":177050.09000000078,"y":2540751.2500000019}},{"attributes":{"ID":399563,"DIS_CODE":0,"TOWNNAME":"歸仁區","LI":"南保里","LIN":"11鄰","STREET":"文化街","SECT":"三段","MAREA":" ","LANE":"１６０巷","ALLEY":" ","HOUSE_NO":"２號","E_COORD97":176624.01999999999,"N_COORD97":2541231.2599999998,"ADDRESS":"文化街三段１６０巷２號","OBJECTID":399539},"geometry":{"x":176624.01999999955,"y":2541231.2599999998}},{"attributes":{"ID":399564,"DIS_CODE":0,"TOWNNAME":"歸仁區","LI":"看西里","LIN":"11鄰","STREET":"成功六街","SECT":" ","MAREA":" ","LANE":"３８巷","ALLEY":" ","HOUSE_NO":"３號","E_COORD97":178403.13,"N_COORD97":2540193.8300000001,"ADDRESS":"成功六街３８巷３號","OBJECTID":399540},"geometry":{"x":178403.12999999989,"y":2540193.8300000001}},{"attributes":{"ID":399565,"DIS_CODE":0,"TOWNNAME":"歸仁區","LI":"南保里","LIN":"11鄰","STREET":"文化十街","SECT":" ","MAREA":" ","LANE":"１０巷","ALLEY":" ","HOUSE_NO":"４０號","E_COORD97":176668.97,"N_COORD97":2541254.2599999998,"ADDRESS":"文化十街１０巷４０號","OBJECTID":399541},"geometry":{"x":176668.9700000016,"y":2541254.2599999998}},{"attributes":{"ID":399566,"DIS_CODE":0,"TOWNNAME":"歸仁區","LI":"看西里","LIN":"11鄰","STREET":"成功六街","SECT":" ","MAREA":" ","LANE":"３８巷","ALLEY":" ","HOUSE_NO":"１０７號","E_COORD97":178424.63,"N_COORD97":2540292.8300000001,"ADDRESS":"成功六街３８巷１０７號","OBJECTID":399542},"geometry":{"x":178424.63000000082,"y":2540292.8300000038}},{"attributes":{"ID":399567,"DIS_CODE":0,"TOWNNAME":"歸仁區","LI":"看西里","LIN":"11鄰","STREET":"成功六街","SECT":" ","MAREA":" ","LANE":"３８巷","ALLEY":" ","HOUSE_NO":"２５號","E_COORD97":178417.88,"N_COORD97":2540236.8300000001,"ADDRESS":"成功六街３８巷２５號","OBJECTID":399543},"geometry":{"x":178417.88000000082,"y":2540236.8300000001}},{"attributes":{"ID":399568,"DIS_CODE":0,"TOWNNAME":"歸仁區","LI":"後市里","LIN":"11鄰","STREET":"民權七街","SECT":" ","MAREA":" ","LANE":"２５巷","ALLEY":" ","HOUSE_NO":"２號","E_COORD97":177061.39000000001,"N_COORD97":2540746.25,"ADDRESS":"民權七街２５巷２號","OBJECTID":399544},"geometry":{"x":177061.3900000006,"y":2540746.25}},{"attributes":{"ID":399569,"DIS_CODE":0,"TOWNNAME":"歸仁區","LI":"後市里","LIN":"11鄰","STREET":"民權七街","SECT":" ","MAREA":" ","LANE":"２５巷","ALLEY":" ","HOUSE_NO":"６號","E_COORD97":177062.39000000001,"N_COORD97":2540753.25,"ADDRESS":"民權七街２５巷６號","OBJECTID":399545},"geometry":{"x":177062.38999999966,"y":2540753.25}},{"attributes":{"ID":399570,"DIS_CODE":0,"TOWNNAME":"歸仁區","LI":"南保里","LIN":"11鄰","STREET":"文化十街","SECT":" ","MAREA":" ","LANE":"１０巷","ALLEY":" ","HOUSE_NO":"２６號","E_COORD97":176627.97,"N_COORD97":2541256.2599999998,"ADDRESS":"文化十街１０巷２６號","OBJECTID":399546},"geometry":{"x":176627.96999999974,"y":2541256.2600000016}},{"attributes":{"ID":399571,"DIS_CODE":0,"TOWNNAME":"北區","LI":"延平里","LIN":"11鄰","STREET":"公園路","SECT":" ","MAREA":" ","LANE":"７８８巷","ALLEY":" ","HOUSE_NO":"４７號","E_COORD97":169246.92999999999,"N_COORD97":2545754.4399999999,"ADDRESS":"公園路７８８巷４７號","OBJECTID":399547},"geometry":{"x":169246.9299999997,"y":2545754.4400000013}},{"attributes":{"ID":399572,"DIS_CODE":0,"TOWNNAME":"北區","LI":"裕民里","LIN":"11鄰","STREET":"成功路","SECT":" ","MAREA":" ","LANE":"６１４巷","ALLEY":" ","HOUSE_NO":"２９號","E_COORD97":167509.59,"N_COORD97":2544882.6499999999,"ADDRESS":"成功路６１４巷２９號","OBJECTID":399548},"geometry":{"x":167509.59000000078,"y":2544882.6500000022}},{"attributes":{"ID":399573,"DIS_CODE":0,"TOWNNAME":"北區","LI":"東興里","LIN":"11鄰","STREET":"小東路","SECT":" ","MAREA":" ","LANE":"４０１巷","ALLEY":" ","HOUSE_NO":"７０號","E_COORD97":171337.45000000001,"N_COORD97":2544584.6299999999,"ADDRESS":"小東路４０１巷７０號","OBJECTID":399549},"geometry":{"x":171337.45000000019,"y":2544584.629999999}},{"attributes":{"ID":399574,"DIS_CODE":0,"TOWNNAME":"北區","LI":"東興里","LIN":"11鄰","STREET":"小東路","SECT":" ","MAREA":" ","LANE":"４０１巷","ALLEY":" ","HOUSE_NO":"６９號","E_COORD97":171337.82999999999,"N_COORD97":2544581.46,"ADDRESS":"小東路４０１巷６９號","OBJECTID":399550},"geometry":{"x":171337.83000000101,"y":2544581.4600000046}},{"attributes":{"ID":399575,"DIS_CODE":0,"TOWNNAME":"北區","LI":"東興里","LIN":"11鄰","STREET":"小東路","SECT":" ","MAREA":" ","LANE":"４０１巷","ALLEY":" ","HOUSE_NO":"６８號","E_COORD97":171338.34,"N_COORD97":2544578.2799999998,"ADDRESS":"小東路４０１巷６８號","OBJECTID":399551},"geometry":{"x":171338.33999999892,"y":2544578.2800000012}},{"attributes":{"ID":399576,"DIS_CODE":0,"TOWNNAME":"北區","LI":"東興里","LIN":"11鄰","STREET":"小東路","SECT":" ","MAREA":" ","LANE":"４０１巷","ALLEY":" ","HOUSE_NO":"６７號","E_COORD97":171338.72,"N_COORD97":2544574.98,"ADDRESS":"小東路４０１巷６７號","OBJECTID":399552},"geometry":{"x":171338.71999999974,"y":2544574.9800000023}},{"attributes":{"ID":399577,"DIS_CODE":0,"TOWNNAME":"北區","LI":"東興里","LIN":"11鄰","STREET":"小東路","SECT":" ","MAREA":" ","LANE":"４０１巷","ALLEY":" ","HOUSE_NO":"６６號","E_COORD97":171339.10000000001,"N_COORD97":2544571.5499999998,"ADDRESS":"小東路４０１巷６６號","OBJECTID":399553},"geometry":{"x":171339.09999999963,"y":2544571.5500000026}},{"attributes":{"ID":399578,"DIS_CODE":0,"TOWNNAME":"新營區","LI":"民生里","LIN":"11鄰","STREET":"三民路","SECT":" ","MAREA":" ","LANE":"１８６巷","ALLEY":" ","HOUSE_NO":"２之１０號","E_COORD97":179202.94,"N_COORD97":2578229.9399999999,"ADDRESS":"三民路１８６巷２之１０號","OBJECTID":399554},"geometry":{"x":179202.94000000134,"y":2578229.9400000013}},{"attributes":{"ID":399579,"DIS_CODE":0,"TOWNNAME":"新營區","LI":"南興里","LIN":"11鄰","STREET":"和平路","SECT":" ","MAREA":" ","LANE":"１０４巷","ALLEY":" ","HOUSE_NO":"４６之２號","E_COORD97":179282.64999999999,"N_COORD97":2577569.5099999998,"ADDRESS":"和平路１０４巷４６之２號","OBJECTID":399555},"geometry":{"x":179282.6500000013,"y":2577569.5100000016}},{"attributes":{"ID":399580,"DIS_CODE":0,"TOWNNAME":"新營區","LI":"民生里","LIN":"11鄰","STREET":"三民路","SECT":" ","MAREA":" ","LANE":"１８６巷","ALLEY":" ","HOUSE_NO":"４號","E_COORD97":179186.95999999999,"N_COORD97":2578235.48,"ADDRESS":"三民路１８６巷４號","OBJECTID":399556},"geometry":{"x":179186.96000000089,"y":2578235.4800000004}},{"attributes":{"ID":399581,"DIS_CODE":0,"TOWNNAME":"新營區","LI":"南紙里","LIN":"11鄰","STREET":"太子路","SECT":" ","MAREA":" ","LANE":"２３８巷","ALLEY":" ","HOUSE_NO":"１６號","E_COORD97":177798.32000000001,"N_COORD97":2577875.6200000001,"ADDRESS":"太子路２３８巷１６號","OBJECTID":399557},"geometry":{"x":177798.32000000123,"y":2577875.6200000029}},{"attributes":{"ID":399582,"DIS_CODE":0,"TOWNNAME":"新營區","LI":"南興里","LIN":"11鄰","STREET":"和平路","SECT":" ","MAREA":" ","LANE":"１０４巷","ALLEY":" ","HOUSE_NO":"４６號","E_COORD97":179278.10999999999,"N_COORD97":2577569.4700000002,"ADDRESS":"和平路１０４巷４６號","OBJECTID":399558},"geometry":{"x":179278.11000000127,"y":2577569.4700000044}},{"attributes":{"ID":399583,"DIS_CODE":0,"TOWNNAME":"新營區","LI":"民榮里","LIN":"11鄰","STREET":"興農街","SECT":" ","MAREA":" ","LANE":"１６巷","ALLEY":" ","HOUSE_NO":"２號","E_COORD97":179245.01000000001,"N_COORD97":2577970.52,"ADDRESS":"興農街１６巷２號","OBJECTID":399559},"geometry":{"x":179245.00999999978,"y":2577970.5199999996}},{"attributes":{"ID":399584,"DIS_CODE":0,"TOWNNAME":"新營區","LI":"大宏里","LIN":"11鄰","STREET":"三民路","SECT":" ","MAREA":" ","LANE":"８巷","ALLEY":" ","HOUSE_NO":"４７號","E_COORD97":180585.20999999999,"N_COORD97":2578618.6899999999,"ADDRESS":"三民路８巷４７號","OBJECTID":399560},"geometry":{"x":180585.21000000089,"y":2578618.6900000013}},{"attributes":{"ID":399585,"DIS_CODE":0,"TOWNNAME":"新營區","LI":"新東里","LIN":"11鄰","STREET":"東仁街","SECT":" ","MAREA":" ","LANE":"４３巷","ALLEY":" ","HOUSE_NO":"１０號","E_COORD97":181251.73999999999,"N_COORD97":2579658.1499999999,"ADDRESS":"東仁街４３巷１０號","OBJECTID":399561},"geometry":{"x":181251.74000000115,"y":2579658.1500000022}},{"attributes":{"ID":399586,"DIS_CODE":0,"TOWNNAME":"新營區","LI":"新東里","LIN":"11鄰","STREET":"東仁街","SECT":" ","MAREA":" ","LANE":"４３巷","ALLEY":" ","HOUSE_NO":"２號","E_COORD97":181275.51000000001,"N_COORD97":2579653.3199999998,"ADDRESS":"東仁街４３巷２號","OBJECTID":399562},"geometry":{"x":181275.50999999978,"y":2579653.3200000022}},{"attributes":{"ID":399587,"DIS_CODE":0,"TOWNNAME":"新營區","LI":"新東里","LIN":"11鄰","STREET":"東仁街","SECT":" ","MAREA":" ","LANE":"４３巷","ALLEY":" ","HOUSE_NO":"６號","E_COORD97":181267.12,"N_COORD97":2579655.0499999998,"ADDRESS":"東仁街４３巷６號","OBJECTID":399563},"geometry":{"x":181267.12000000011,"y":2579655.0500000026}},{"attributes":{"ID":399588,"DIS_CODE":0,"TOWNNAME":"新營區","LI":"新東里","LIN":"11鄰","STREET":"東仁街","SECT":" ","MAREA":" ","LANE":"４３巷","ALLEY":" ","HOUSE_NO":"８號","E_COORD97":181258.97,"N_COORD97":2579656.3100000001,"ADDRESS":"東仁街４３巷８號","OBJECTID":399564},"geometry":{"x":181258.96999999974,"y":2579656.3100000024}},{"attributes":{"ID":399589,"DIS_CODE":0,"TOWNNAME":"新營區","LI":"民生里","LIN":"11鄰","STREET":"三民路","SECT":" ","MAREA":" ","LANE":"１８６巷","ALLEY":" ","HOUSE_NO":"２之１２號","E_COORD97":179197.67999999999,"N_COORD97":2578232.54,"ADDRESS":"三民路１８６巷２之１２號","OBJECTID":399565},"geometry":{"x":179197.6799999997,"y":2578232.540000001}},{"attributes":{"ID":399590,"DIS_CODE":0,"TOWNNAME":"學甲區","LI":"仁得里","LIN":"11鄰","STREET":"八德街","SECT":" ","MAREA":" ","LANE":"１８２巷","ALLEY":" ","HOUSE_NO":"１０號","E_COORD97":165864.92000000001,"N_COORD97":2569793.3900000001,"ADDRESS":"八德街１８２巷１０號","OBJECTID":399566},"geometry":{"x":165864.92000000086,"y":2569793.3900000025}},{"attributes":{"ID":399591,"DIS_CODE":0,"TOWNNAME":"學甲區","LI":"仁得里","LIN":"11鄰","STREET":"八德街","SECT":" ","MAREA":" ","LANE":"１８２巷","ALLEY":" ","HOUSE_NO":"１２號","E_COORD97":165865.95000000001,"N_COORD97":2569797.5299999998,"ADDRESS":"八德街１８２巷１２號","OBJECTID":399567},"geometry":{"x":165865.95000000205,"y":2569797.5300000012}},{"attributes":{"ID":399592,"DIS_CODE":0,"TOWNNAME":"學甲區","LI":"仁得里","LIN":"11鄰","STREET":"八德街","SECT":" ","MAREA":" ","LANE":"１８２巷","ALLEY":" ","HOUSE_NO":"１４號","E_COORD97":165866.91,"N_COORD97":2569801.46,"ADDRESS":"八德街１８２巷１４號","OBJECTID":399568},"geometry":{"x":165866.91000000108,"y":2569801.4600000009}},{"attributes":{"ID":399593,"DIS_CODE":0,"TOWNNAME":"學甲區","LI":"仁得里","LIN":"11鄰","STREET":"八德街","SECT":" ","MAREA":" ","LANE":"１８２巷","ALLEY":" ","HOUSE_NO":"２號","E_COORD97":165861.32000000001,"N_COORD97":2569780.6800000002,"ADDRESS":"八德街１８２巷２號","OBJECTID":399569},"geometry":{"x":165861.3200000003,"y":2569780.6800000016}},{"attributes":{"ID":399594,"DIS_CODE":0,"TOWNNAME":"學甲區","LI":"仁得里","LIN":"11鄰","STREET":"八德街","SECT":" ","MAREA":" ","LANE":"１８２巷","ALLEY":" ","HOUSE_NO":"６號","E_COORD97":165862.89999999999,"N_COORD97":2569785.3399999999,"ADDRESS":"八德街１８２巷６號","OBJECTID":399570},"geometry":{"x":165862.90000000037,"y":2569785.3400000036}},{"attributes":{"ID":399595,"DIS_CODE":0,"TOWNNAME":"學甲區","LI":"仁得里","LIN":"11鄰","STREET":"八德街","SECT":" ","MAREA":" ","LANE":"１８２巷","ALLEY":" ","HOUSE_NO":"８號","E_COORD97":165863.57999999999,"N_COORD97":2569789.73,"ADDRESS":"八德街１８２巷８號","OBJECTID":399571},"geometry":{"x":165863.58000000101,"y":2569789.7300000004}},{"attributes":{"ID":399596,"DIS_CODE":0,"TOWNNAME":"東山區","LI":"東中里","LIN":"11鄰","STREET":"育仁街","SECT":" ","MAREA":" ","LANE":"１３巷","ALLEY":" ","HOUSE_NO":"１０號","E_COORD97":188817.76000000001,"N_COORD97":2579503.98,"ADDRESS":"育仁街１３巷１０號","OBJECTID":399572},"geometry":{"x":188817.75999999978,"y":2579503.9800000004}},{"attributes":{"ID":399597,"DIS_CODE":0,"TOWNNAME":"東山區","LI":"東中里","LIN":"11鄰","STREET":"育仁街","SECT":" ","MAREA":" ","LANE":"１３巷","ALLEY":" ","HOUSE_NO":"２號","E_COORD97":188820.57000000001,"N_COORD97":2579516.9399999999,"ADDRESS":"育仁街１３巷２號","OBJECTID":399573},"geometry":{"x":188820.57000000123,"y":2579516.9399999995}},{"attributes":{"ID":399598,"DIS_CODE":0,"TOWNNAME":"東山區","LI":"東中里","LIN":"11鄰","STREET":"育仁街","SECT":" ","MAREA":" ","LANE":"１３巷","ALLEY":" ","HOUSE_NO":"６號","E_COORD97":188819.73999999999,"N_COORD97":2579512.8500000001,"ADDRESS":"育仁街１３巷６號","OBJECTID":399574},"geometry":{"x":188819.74000000022,"y":2579512.8500000015}},{"attributes":{"ID":399599,"DIS_CODE":0,"TOWNNAME":"東山區","LI":"東中里","LIN":"11鄰","STREET":"育仁街","SECT":" ","MAREA":" ","LANE":"１３巷","ALLEY":" ","HOUSE_NO":"８號","E_COORD97":188818.70999999999,"N_COORD97":2579508.9700000002,"ADDRESS":"育仁街１３巷８號","OBJECTID":399575},"geometry":{"x":188818.71000000089,"y":2579508.9700000044}},{"attributes":{"ID":399600,"DIS_CODE":0,"TOWNNAME":"新化區","LI":"武安里","LIN":"11鄰","STREET":"信義路","SECT":" ","MAREA":" ","LANE":"３３９巷","ALLEY":" ","HOUSE_NO":"１６號","E_COORD97":178801.78,"N_COORD97":2548242.25,"ADDRESS":"信義路３３９巷１６號","OBJECTID":399576},"geometry":{"x":178801.78000000119,"y":2548242.25}},{"attributes":{"ID":399601,"DIS_CODE":0,"TOWNNAME":"新化區","LI":"武安里","LIN":"11鄰","STREET":"信義路","SECT":" ","MAREA":" ","LANE":"３３９巷","ALLEY":" ","HOUSE_NO":"２６號","E_COORD97":178834.57999999999,"N_COORD97":2548225.25,"ADDRESS":"信義路３３９巷２６號","OBJECTID":399577},"geometry":{"x":178834.58000000007,"y":2548225.25}},{"attributes":{"ID":399602,"DIS_CODE":0,"TOWNNAME":"新化區","LI":"太平里","LIN":"11鄰","STREET":"中正路","SECT":" ","MAREA":" ","LANE":"６９１巷","ALLEY":" ","HOUSE_NO":"８號之２","E_COORD97":178772.26000000001,"N_COORD97":2549080.2599999998,"ADDRESS":"中正路６９１巷８號之２","OBJECTID":399578},"geometry":{"x":178772.25999999885,"y":2549080.2599999998}},{"attributes":{"ID":399603,"DIS_CODE":0,"TOWNNAME":"新化區","LI":"太平里","LIN":"11鄰","STREET":"中正路","SECT":" ","MAREA":" ","LANE":"７０７巷","ALLEY":" ","HOUSE_NO":"３７號之９","E_COORD97":178612.20000000001,"N_COORD97":2549084.2599999998,"ADDRESS":"中正路７０７巷３７號之９","OBJECTID":399579},"geometry":{"x":178612.20000000205,"y":2549084.2600000035}},{"attributes":{"ID":399604,"DIS_CODE":0,"TOWNNAME":"新化區","LI":"太平里","LIN":"11鄰","STREET":"中正路","SECT":" ","MAREA":" ","LANE":"７０７巷","ALLEY":" ","HOUSE_NO":"３７號之４","E_COORD97":178591.09,"N_COORD97":2549081.2599999998,"ADDRESS":"中正路７０７巷３７號之４","OBJECTID":399580},"geometry":{"x":178591.09000000078,"y":2549081.2600000016}},{"attributes":{"ID":399605,"DIS_CODE":0,"TOWNNAME":"新化區","LI":"太平里","LIN":"11鄰","STREET":"中正路","SECT":" ","MAREA":" ","LANE":"７０７巷","ALLEY":" ","HOUSE_NO":"２７號之３","E_COORD97":178622.51000000001,"N_COORD97":2549114.2599999998,"ADDRESS":"中正路７０７巷２７號之３","OBJECTID":399581},"geometry":{"x":178622.50999999978,"y":2549114.2599999998}},{"attributes":{"ID":399606,"DIS_CODE":0,"TOWNNAME":"新化區","LI":"太平里","LIN":"11鄰","STREET":"中正路","SECT":" ","MAREA":" ","LANE":"７０７巷","ALLEY":" ","HOUSE_NO":"３７號之１２","E_COORD97":178624.56,"N_COORD97":2549086.2599999998,"ADDRESS":"中正路７０７巷３７號之１２","OBJECTID":399582},"geometry":{"x":178624.56000000052,"y":2549086.2599999998}},{"attributes":{"ID":399607,"DIS_CODE":0,"TOWNNAME":"新化區","LI":"武安里","LIN":"11鄰","STREET":"信義路","SECT":" ","MAREA":" ","LANE":"３３９巷","ALLEY":" ","HOUSE_NO":"１７號","E_COORD97":178865.88,"N_COORD97":2548244.25,"ADDRESS":"信義路３３９巷１７號","OBJECTID":399583},"geometry":{"x":178865.87999999989,"y":2548244.2500000019}},{"attributes":{"ID":399608,"DIS_CODE":0,"TOWNNAME":"新化區","LI":"豐榮里","LIN":"11鄰","STREET":"信義路","SECT":" ","MAREA":" ","LANE":"４４３巷","ALLEY":" ","HOUSE_NO":"１３號","E_COORD97":178515.28,"N_COORD97":2548207.25,"ADDRESS":"信義路４４３巷１３號","OBJECTID":399584},"geometry":{"x":178515.28000000119,"y":2548207.2500000019}},{"attributes":{"ID":399609,"DIS_CODE":0,"TOWNNAME":"新化區","LI":"豐榮里","LIN":"11鄰","STREET":"信義路","SECT":" ","MAREA":" ","LANE":"４４３巷","ALLEY":" ","HOUSE_NO":"７號","E_COORD97":178494.53,"N_COORD97":2548220.25,"ADDRESS":"信義路４４３巷７號","OBJECTID":399585},"geometry":{"x":178494.53000000026,"y":2548220.2500000019}},{"attributes":{"ID":399610,"DIS_CODE":0,"TOWNNAME":"新化區","LI":"護國里","LIN":"11鄰","STREET":"中山路","SECT":" ","MAREA":" ","LANE":"１９巷","ALLEY":" ","HOUSE_NO":"１７號","E_COORD97":180343.60999999999,"N_COORD97":2549670.25,"ADDRESS":"中山路１９巷１７號","OBJECTID":399586},"geometry":{"x":180343.6099999994,"y":2549670.25}},{"attributes":{"ID":399611,"DIS_CODE":0,"TOWNNAME":"新化區","LI":"武安里","LIN":"11鄰","STREET":"信義路","SECT":" ","MAREA":" ","LANE":"３３９巷","ALLEY":" ","HOUSE_NO":"４０號","E_COORD97":178846.07999999999,"N_COORD97":2548183.25,"ADDRESS":"信義路３３９巷４０號","OBJECTID":399587},"geometry":{"x":178846.08000000007,"y":2548183.2500000019}},{"attributes":{"ID":399612,"DIS_CODE":0,"TOWNNAME":"新化區","LI":"豐榮里","LIN":"11鄰","STREET":"信義路","SECT":" ","MAREA":" ","LANE":"４４３巷","ALLEY":" ","HOUSE_NO":"３號","E_COORD97":178494.53,"N_COORD97":2548231.25,"ADDRESS":"信義路４４３巷３號","OBJECTID":399588},"geometry":{"x":178494.53000000026,"y":2548231.2500000019}},{"attributes":{"ID":399613,"DIS_CODE":0,"TOWNNAME":"新化區","LI":"武安里","LIN":"11鄰","STREET":"信義路","SECT":" ","MAREA":" ","LANE":"３３９巷","ALLEY":" ","HOUSE_NO":"１３號","E_COORD97":178872.28,"N_COORD97":2548258.25,"ADDRESS":"信義路３３９巷１３號","OBJECTID":399589},"geometry":{"x":178872.28000000026,"y":2548258.2500000019}},{"attributes":{"ID":399614,"DIS_CODE":0,"TOWNNAME":"新化區","LI":"協興里","LIN":"11鄰","STREET":"太平街","SECT":" ","MAREA":" ","LANE":"１５０巷","ALLEY":" ","HOUSE_NO":"２３０號","E_COORD97":178325.42000000001,"N_COORD97":2548936.25,"ADDRESS":"太平街１５０巷２３０號","OBJECTID":399590},"geometry":{"x":178325.41999999993,"y":2548936.2500000019}},{"attributes":{"ID":399615,"DIS_CODE":0,"TOWNNAME":"新化區","LI":"護國里","LIN":"11鄰","STREET":"中山路","SECT":" ","MAREA":" ","LANE":"１９巷","ALLEY":" ","HOUSE_NO":"３５號","E_COORD97":180373.10999999999,"N_COORD97":2549566.25,"ADDRESS":"中山路１９巷３５號","OBJECTID":399591},"geometry":{"x":180373.11000000127,"y":2549566.2500000019}},{"attributes":{"ID":399616,"DIS_CODE":0,"TOWNNAME":"新化區","LI":"協興里","LIN":"11鄰","STREET":"太平街","SECT":" ","MAREA":" ","LANE":"１５０巷","ALLEY":" ","HOUSE_NO":"２００號","E_COORD97":178325.32000000001,"N_COORD97":2548911.25,"ADDRESS":"太平街１５０巷２００號","OBJECTID":399592},"geometry":{"x":178325.32000000123,"y":2548911.2499999981}},{"attributes":{"ID":399617,"DIS_CODE":0,"TOWNNAME":"新化區","LI":"豐榮里","LIN":"11鄰","STREET":"信義路","SECT":" ","MAREA":" ","LANE":"４４３巷","ALLEY":" ","HOUSE_NO":"３１號","E_COORD97":178526.48000000001,"N_COORD97":2548218.25,"ADDRESS":"信義路４４３巷３１號","OBJECTID":399593},"geometry":{"x":178526.48000000138,"y":2548218.25}},{"attributes":{"ID":399618,"DIS_CODE":0,"TOWNNAME":"新化區","LI":"協興里","LIN":"11鄰","STREET":"太平街","SECT":" ","MAREA":" ","LANE":"１５０巷","ALLEY":" ","HOUSE_NO":"２１０號","E_COORD97":178303.72,"N_COORD97":2548920.25,"ADDRESS":"太平街１５０巷２１０號","OBJECTID":399594},"geometry":{"x":178303.72000000067,"y":2548920.25}},{"attributes":{"ID":399619,"DIS_CODE":0,"TOWNNAME":"南區","LI":"文南里","LIN":"11鄰","STREET":"美南街","SECT":" ","MAREA":" ","LANE":"１４８巷","ALLEY":" ","HOUSE_NO":"８號","E_COORD97":166689.81,"N_COORD97":2542836.0600000001,"ADDRESS":"美南街１４８巷８號","OBJECTID":399595},"geometry":{"x":166689.80999999959,"y":2542836.0600000024}},{"attributes":{"ID":399620,"DIS_CODE":0,"TOWNNAME":"新化區","LI":"豐榮里","LIN":"11鄰","STREET":"信義路","SECT":" ","MAREA":" ","LANE":"４４３巷","ALLEY":" ","HOUSE_NO":"２１號","E_COORD97":178515.98000000001,"N_COORD97":2548231.25,"ADDRESS":"信義路４４３巷２１號","OBJECTID":399596},"geometry":{"x":178515.98000000138,"y":2548231.2500000019}},{"attributes":{"ID":399621,"DIS_CODE":0,"TOWNNAME":"新化區","LI":"協興里","LIN":"11鄰","STREET":"太平街","SECT":" ","MAREA":" ","LANE":"１５０巷","ALLEY":" ","HOUSE_NO":"２２２號","E_COORD97":178297.22,"N_COORD97":2548944.25,"ADDRESS":"太平街１５０巷２２２號","OBJECTID":399597},"geometry":{"x":178297.21999999974,"y":2548944.25}},{"attributes":{"ID":399622,"DIS_CODE":0,"TOWNNAME":"新化區","LI":"東榮里","LIN":"11鄰","STREET":"中興路","SECT":" ","MAREA":" ","LANE":"４９０巷","ALLEY":" ","HOUSE_NO":"３４號","E_COORD97":180069.26000000001,"N_COORD97":2547936.25,"ADDRESS":"中興路４９０巷３４號","OBJECTID":399598},"geometry":{"x":180069.26000000164,"y":2547936.2500000019}},{"attributes":{"ID":399623,"DIS_CODE":0,"TOWNNAME":"新化區","LI":"豐榮里","LIN":"11鄰","STREET":"信義路","SECT":" ","MAREA":" ","LANE":"４４３巷","ALLEY":" ","HOUSE_NO":"１７號","E_COORD97":178515.98000000001,"N_COORD97":2548220.25,"ADDRESS":"信義路４４３巷１７號","OBJECTID":399599},"geometry":{"x":178515.98000000138,"y":2548220.2500000019}},{"attributes":{"ID":399624,"DIS_CODE":0,"TOWNNAME":"新化區","LI":"太平里","LIN":"11鄰","STREET":"中正路","SECT":" ","MAREA":" ","LANE":"７０７巷","ALLEY":" ","HOUSE_NO":"３７號之３","E_COORD97":178586.31,"N_COORD97":2549080.2599999998,"ADDRESS":"中正路７０７巷３７號之３","OBJECTID":399600},"geometry":{"x":178586.30999999959,"y":2549080.2599999998}}]}