{"displayFieldName":"TOWNNAME","fieldAliases":{"ID":"ID","DIS_CODE":"DIS_CODE","TOWNNAME":"TOWNNAME","LI":"LI","LIN":"LIN","STREET":"STREET","SECT":"SECT","MAREA":"MAREA","LANE":"LANE","ALLEY":"ALLEY","HOUSE_NO":"HOUSE_NO","E_COORD97":"E_COORD97","N_COORD97":"N_COORD97","ADDRESS":"ADDRESS","OBJECTID":"OBJECTID"},"geometryType":"esriGeometryPoint","spatialReference":{"wkid":102443,"latestWkid":3826},"fields":[{"name":"ID","type":"esriFieldTypeDouble","alias":"ID"},{"name":"DIS_CODE","type":"esriFieldTypeInteger","alias":"DIS_CODE"},{"name":"TOWNNAME","type":"esriFieldTypeString","alias":"TOWNNAME","length":8},{"name":"LI","type":"esriFieldTypeString","alias":"LI","length":8},{"name":"LIN","type":"esriFieldTypeString","alias":"LIN","length":12},{"name":"STREET","type":"esriFieldTypeString","alias":"STREET","length":20},{"name":"SECT","type":"esriFieldTypeString","alias":"SECT","length":8},{"name":"MAREA","type":"esriFieldTypeString","alias":"MAREA","length":12},{"name":"LANE","type":"esriFieldTypeString","alias":"LANE","length":10},{"name":"ALLEY","type":"esriFieldTypeString","alias":"ALLEY","length":10},{"name":"HOUSE_NO","type":"esriFieldTypeString","alias":"HOUSE_NO","length":20},{"name":"E_COORD97","type":"esriFieldTypeDouble","alias":"E_COORD97"},{"name":"N_COORD97","type":"esriFieldTypeDouble","alias":"N_COORD97"},{"name":"ADDRESS","type":"esriFieldTypeString","alias":"ADDRESS","length":50},{"name":"OBJECTID","type":"esriFieldTypeOID","alias":"OBJECTID"}],"features":[{"attributes":{"ID":300809,"DIS_CODE":0,"TOWNNAME":"善化區","LI":"南關里","LIN":"8鄰","STREET":"光復路","SECT":" ","MAREA":" ","LANE":"４３８巷","ALLEY":" ","HOUSE_NO":"１號六樓之７","E_COORD97":176866.95999999999,"N_COORD97":2558798.25,"ADDRESS":"光復路４３８巷１號六樓之７","OBJECTID":300801},"geometry":{"x":176866.95999999996,"y":2558798.2500000019}},{"attributes":{"ID":300810,"DIS_CODE":0,"TOWNNAME":"善化區","LI":"南關里","LIN":"8鄰","STREET":"光復路","SECT":" ","MAREA":" ","LANE":"４３８巷","ALLEY":" ","HOUSE_NO":"１號六樓之８","E_COORD97":176866.95999999999,"N_COORD97":2558798.25,"ADDRESS":"光復路４３８巷１號六樓之８","OBJECTID":300802},"geometry":{"x":176866.95999999996,"y":2558798.2500000019}},{"attributes":{"ID":300811,"DIS_CODE":0,"TOWNNAME":"善化區","LI":"南關里","LIN":"8鄰","STREET":"光復路","SECT":" ","MAREA":" ","LANE":"４３８巷","ALLEY":" ","HOUSE_NO":"１號六樓之９","E_COORD97":176866.95999999999,"N_COORD97":2558798.25,"ADDRESS":"光復路４３８巷１號六樓之９","OBJECTID":300803},"geometry":{"x":176866.95999999996,"y":2558798.2500000019}},{"attributes":{"ID":300812,"DIS_CODE":0,"TOWNNAME":"善化區","LI":"南關里","LIN":"8鄰","STREET":"光復路","SECT":" ","MAREA":" ","LANE":"４３８巷","ALLEY":" ","HOUSE_NO":"１號六樓之１０","E_COORD97":176866.95999999999,"N_COORD97":2558798.25,"ADDRESS":"光復路４３８巷１號六樓之１０","OBJECTID":300804},"geometry":{"x":176866.95999999996,"y":2558798.2500000019}},{"attributes":{"ID":300813,"DIS_CODE":0,"TOWNNAME":"東區","LI":"東光里","LIN":"14鄰","STREET":"莊敬路","SECT":" ","MAREA":" ","LANE":" ","ALLEY":" ","HOUSE_NO":"９５號","E_COORD97":171337.95000000001,"N_COORD97":2543906.2000000002,"ADDRESS":"莊敬路９５號","OBJECTID":300805},"geometry":{"x":171337.94999999925,"y":2543906.1999999993}},{"attributes":{"ID":300814,"DIS_CODE":0,"TOWNNAME":"東區","LI":"東光里","LIN":"14鄰","STREET":"莊敬路","SECT":" ","MAREA":" ","LANE":" ","ALLEY":" ","HOUSE_NO":"９７號","E_COORD97":171338.73000000001,"N_COORD97":2543910.46,"ADDRESS":"莊敬路９７號","OBJECTID":300806},"geometry":{"x":171338.73000000138,"y":2543910.4600000046}},{"attributes":{"ID":300815,"DIS_CODE":0,"TOWNNAME":"東區","LI":"東光里","LIN":"14鄰","STREET":"莊敬路","SECT":" ","MAREA":" ","LANE":" ","ALLEY":" ","HOUSE_NO":"９９號","E_COORD97":171338.60000000001,"N_COORD97":2543915.04,"ADDRESS":"莊敬路９９號","OBJECTID":300807},"geometry":{"x":171338.60000000056,"y":2543915.040000001}},{"attributes":{"ID":300816,"DIS_CODE":0,"TOWNNAME":"永康區","LI":"西橋里","LIN":"14鄰","STREET":"中華西街","SECT":" ","MAREA":" ","LANE":" ","ALLEY":" ","HOUSE_NO":"１８５號","E_COORD97":170614.20999999999,"N_COORD97":2546310.75,"ADDRESS":"中華西街１８５號","OBJECTID":300808},"geometry":{"x":170614.21000000089,"y":2546310.75}},{"attributes":{"ID":300817,"DIS_CODE":0,"TOWNNAME":"永康區","LI":"西橋里","LIN":"14鄰","STREET":"中華西街","SECT":" ","MAREA":" ","LANE":" ","ALLEY":" ","HOUSE_NO":"２０９號","E_COORD97":170624.82000000001,"N_COORD97":2546362.7400000002,"ADDRESS":"中華西街２０９號","OBJECTID":300809},"geometry":{"x":170624.8200000003,"y":2546362.7400000021}},{"attributes":{"ID":300818,"DIS_CODE":0,"TOWNNAME":"永康區","LI":"西灣里","LIN":"14鄰","STREET":"大灣五街","SECT":" ","MAREA":" ","LANE":" ","ALLEY":" ","HOUSE_NO":"６８號","E_COORD97":174715.54000000001,"N_COORD97":2545275.02,"ADDRESS":"大灣五街６８號","OBJECTID":300810},"geometry":{"x":174715.54000000004,"y":2545275.0200000014}},{"attributes":{"ID":300819,"DIS_CODE":0,"TOWNNAME":"新營區","LI":"王公里","LIN":"1鄰","STREET":"中正路","SECT":" ","MAREA":" ","LANE":" ","ALLEY":" ","HOUSE_NO":"４２號","E_COORD97":180114.16393099999,"N_COORD97":2578910.60384,"ADDRESS":"中正路４２號","OBJECTID":300811},"geometry":{"x":180114.16393100098,"y":2578910.6038400028}},{"attributes":{"ID":300820,"DIS_CODE":0,"TOWNNAME":"仁德區","LI":"保安里","LIN":"12鄰","STREET":"開發六路","SECT":" ","MAREA":" ","LANE":" ","ALLEY":" ","HOUSE_NO":"１０號","E_COORD97":172774.245211,"N_COORD97":2535503.8665200002,"ADDRESS":"開發六路１０號","OBJECTID":300812},"geometry":{"x":172774.24521099962,"y":2535503.8665200043}},{"attributes":{"ID":300821,"DIS_CODE":0,"TOWNNAME":"北區","LI":"國姓里","LIN":"4鄰","STREET":"公園路","SECT":" ","MAREA":" ","LANE":"４５１巷","ALLEY":" ","HOUSE_NO":"１３號","E_COORD97":168978.12,"N_COORD97":2545444.3100000001,"ADDRESS":"公園路４５１巷１３號","OBJECTID":300813},"geometry":{"x":168978.12000000011,"y":2545444.3100000024}},{"attributes":{"ID":300822,"DIS_CODE":0,"TOWNNAME":"善化區","LI":"南關里","LIN":"8鄰","STREET":"光復路","SECT":" ","MAREA":" ","LANE":"４３８巷","ALLEY":" ","HOUSE_NO":"１號六樓之１１","E_COORD97":176866.95999999999,"N_COORD97":2558798.25,"ADDRESS":"光復路４３８巷１號六樓之１１","OBJECTID":300814},"geometry":{"x":176866.95999999996,"y":2558798.2500000019}},{"attributes":{"ID":300823,"DIS_CODE":0,"TOWNNAME":"善化區","LI":"南關里","LIN":"8鄰","STREET":"光復路","SECT":" ","MAREA":" ","LANE":"４３８巷","ALLEY":" ","HOUSE_NO":"１號六樓之１２","E_COORD97":176866.95999999999,"N_COORD97":2558798.25,"ADDRESS":"光復路４３８巷１號六樓之１２","OBJECTID":300815},"geometry":{"x":176866.95999999996,"y":2558798.2500000019}},{"attributes":{"ID":300824,"DIS_CODE":0,"TOWNNAME":"善化區","LI":"南關里","LIN":"8鄰","STREET":"光復路","SECT":" ","MAREA":" ","LANE":"４３８巷","ALLEY":" ","HOUSE_NO":"１號六樓之１３","E_COORD97":176866.95999999999,"N_COORD97":2558798.25,"ADDRESS":"光復路４３８巷１號六樓之１３","OBJECTID":300816},"geometry":{"x":176866.95999999996,"y":2558798.2500000019}},{"attributes":{"ID":300825,"DIS_CODE":0,"TOWNNAME":"善化區","LI":"南關里","LIN":"8鄰","STREET":"光復路","SECT":" ","MAREA":" ","LANE":"４３８巷","ALLEY":" ","HOUSE_NO":"１號六樓之１５","E_COORD97":176866.95999999999,"N_COORD97":2558798.25,"ADDRESS":"光復路４３８巷１號六樓之１５","OBJECTID":300817},"geometry":{"x":176866.95999999996,"y":2558798.2500000019}},{"attributes":{"ID":300826,"DIS_CODE":0,"TOWNNAME":"善化區","LI":"南關里","LIN":"8鄰","STREET":"光復路","SECT":" ","MAREA":" ","LANE":"４３８巷","ALLEY":" ","HOUSE_NO":"１號六樓之１６","E_COORD97":176866.95999999999,"N_COORD97":2558798.25,"ADDRESS":"光復路４３８巷１號六樓之１６","OBJECTID":300818},"geometry":{"x":176866.95999999996,"y":2558798.2500000019}},{"attributes":{"ID":300827,"DIS_CODE":0,"TOWNNAME":"善化區","LI":"南關里","LIN":"8鄰","STREET":"光復路","SECT":" ","MAREA":" ","LANE":"４３８巷","ALLEY":" ","HOUSE_NO":"１號六樓之１７","E_COORD97":176866.95999999999,"N_COORD97":2558798.25,"ADDRESS":"光復路４３８巷１號六樓之１７","OBJECTID":300819},"geometry":{"x":176866.95999999996,"y":2558798.2500000019}},{"attributes":{"ID":300828,"DIS_CODE":0,"TOWNNAME":"善化區","LI":"南關里","LIN":"8鄰","STREET":"光復路","SECT":" ","MAREA":" ","LANE":"４３８巷","ALLEY":" ","HOUSE_NO":"１號六樓之１８","E_COORD97":176866.95999999999,"N_COORD97":2558798.25,"ADDRESS":"光復路４３８巷１號六樓之１８","OBJECTID":300820},"geometry":{"x":176866.95999999996,"y":2558798.2500000019}},{"attributes":{"ID":300829,"DIS_CODE":0,"TOWNNAME":"玉井區","LI":"三和里","LIN":"4鄰","STREET":" ","SECT":" ","MAREA":"三和","LANE":" ","ALLEY":" ","HOUSE_NO":"４７號","E_COORD97":194813.64000000001,"N_COORD97":2555568.25,"ADDRESS":"三和４７號","OBJECTID":300821},"geometry":{"x":194813.6400000006,"y":2555568.2500000019}},{"attributes":{"ID":300830,"DIS_CODE":0,"TOWNNAME":"善化區","LI":"南關里","LIN":"8鄰","STREET":"光復路","SECT":" ","MAREA":" ","LANE":"４３８巷","ALLEY":" ","HOUSE_NO":"１號六樓之２０","E_COORD97":176866.95999999999,"N_COORD97":2558798.25,"ADDRESS":"光復路４３８巷１號六樓之２０","OBJECTID":300822},"geometry":{"x":176866.95999999996,"y":2558798.2500000019}},{"attributes":{"ID":300831,"DIS_CODE":0,"TOWNNAME":"下營區","LI":"仁里里","LIN":"8鄰","STREET":"公園路","SECT":" ","MAREA":" ","LANE":"１８８巷","ALLEY":" ","HOUSE_NO":"６號","E_COORD97":174014.04000000001,"N_COORD97":2570302.6000000001,"ADDRESS":"公園路１８８巷６號","OBJECTID":300823},"geometry":{"x":174014.0400000019,"y":2570302.6000000015}},{"attributes":{"ID":300832,"DIS_CODE":0,"TOWNNAME":"東區","LI":"崇德里","LIN":"8鄰","STREET":"崇德七街","SECT":" ","MAREA":" ","LANE":"２０巷","ALLEY":" ","HOUSE_NO":"１２號二樓之１","E_COORD97":170826.45999999999,"N_COORD97":2541690.3500000001,"ADDRESS":"崇德七街２０巷１２號二樓之１","OBJECTID":300824},"geometry":{"x":170826.46000000089,"y":2541690.3500000015}},{"attributes":{"ID":300833,"DIS_CODE":0,"TOWNNAME":"東區","LI":"崇德里","LIN":"8鄰","STREET":"崇德七街","SECT":" ","MAREA":" ","LANE":"２０巷","ALLEY":" ","HOUSE_NO":"１２號三樓之４","E_COORD97":170826.45999999999,"N_COORD97":2541690.3500000001,"ADDRESS":"崇德七街２０巷１２號三樓之４","OBJECTID":300825},"geometry":{"x":170826.46000000089,"y":2541690.3500000015}},{"attributes":{"ID":300834,"DIS_CODE":0,"TOWNNAME":"東區","LI":"崇德里","LIN":"8鄰","STREET":"崇德七街","SECT":" ","MAREA":" ","LANE":"２０巷","ALLEY":" ","HOUSE_NO":"１２號六樓","E_COORD97":170826.45999999999,"N_COORD97":2541690.3500000001,"ADDRESS":"崇德七街２０巷１２號六樓","OBJECTID":300826},"geometry":{"x":170826.46000000089,"y":2541690.3500000015}},{"attributes":{"ID":300835,"DIS_CODE":0,"TOWNNAME":"東區","LI":"崇德里","LIN":"8鄰","STREET":"崇德七街","SECT":" ","MAREA":" ","LANE":"２０巷","ALLEY":" ","HOUSE_NO":"１２號七樓","E_COORD97":170826.45999999999,"N_COORD97":2541690.3500000001,"ADDRESS":"崇德七街２０巷１２號七樓","OBJECTID":300827},"geometry":{"x":170826.46000000089,"y":2541690.3500000015}},{"attributes":{"ID":300836,"DIS_CODE":0,"TOWNNAME":"麻豆區","LI":"安西里","LIN":"4鄰","STREET":" ","SECT":" ","MAREA":"安業","LANE":" ","ALLEY":" ","HOUSE_NO":"２１９號","E_COORD97":172485.73000000001,"N_COORD97":2562132.2200000002,"ADDRESS":"安業２１９號","OBJECTID":300828},"geometry":{"x":172485.73000000231,"y":2562132.2200000025}},{"attributes":{"ID":300837,"DIS_CODE":0,"TOWNNAME":"麻豆區","LI":"安業里","LIN":"4鄰","STREET":" ","SECT":" ","MAREA":"安業","LANE":" ","ALLEY":" ","HOUSE_NO":"１０６號","E_COORD97":172714.14999999999,"N_COORD97":2562038.8999999999,"ADDRESS":"安業１０６號","OBJECTID":300829},"geometry":{"x":172714.1500000013,"y":2562038.9000000022}},{"attributes":{"ID":300838,"DIS_CODE":0,"TOWNNAME":"東區","LI":"崇德里","LIN":"8鄰","STREET":"崇德七街","SECT":" ","MAREA":" ","LANE":"２０巷","ALLEY":" ","HOUSE_NO":"１２號七樓之１","E_COORD97":170826.45999999999,"N_COORD97":2541690.3500000001,"ADDRESS":"崇德七街２０巷１２號七樓之１","OBJECTID":300830},"geometry":{"x":170826.46000000089,"y":2541690.3500000015}},{"attributes":{"ID":300839,"DIS_CODE":0,"TOWNNAME":"東區","LI":"崇德里","LIN":"8鄰","STREET":"崇德七街","SECT":" ","MAREA":" ","LANE":"２０巷","ALLEY":" ","HOUSE_NO":"１２號七樓之３","E_COORD97":170826.45999999999,"N_COORD97":2541690.3500000001,"ADDRESS":"崇德七街２０巷１２號七樓之３","OBJECTID":300831},"geometry":{"x":170826.46000000089,"y":2541690.3500000015}},{"attributes":{"ID":300840,"DIS_CODE":0,"TOWNNAME":"東區","LI":"崇德里","LIN":"8鄰","STREET":"崇德七街","SECT":" ","MAREA":" ","LANE":"２０巷","ALLEY":" ","HOUSE_NO":"１２號二樓","E_COORD97":170826.45999999999,"N_COORD97":2541690.3500000001,"ADDRESS":"崇德七街２０巷１２號二樓","OBJECTID":300832},"geometry":{"x":170826.46000000089,"y":2541690.3500000015}},{"attributes":{"ID":300841,"DIS_CODE":0,"TOWNNAME":"東區","LI":"崇德里","LIN":"8鄰","STREET":"崇德七街","SECT":" ","MAREA":" ","LANE":"２０巷","ALLEY":" ","HOUSE_NO":"１２號二樓之２","E_COORD97":170826.45999999999,"N_COORD97":2541690.3500000001,"ADDRESS":"崇德七街２０巷１２號二樓之２","OBJECTID":300833},"geometry":{"x":170826.46000000089,"y":2541690.3500000015}},{"attributes":{"ID":300842,"DIS_CODE":0,"TOWNNAME":"東區","LI":"崇德里","LIN":"8鄰","STREET":"崇德七街","SECT":" ","MAREA":" ","LANE":"２０巷","ALLEY":" ","HOUSE_NO":"１２號三樓","E_COORD97":170826.45999999999,"N_COORD97":2541690.3500000001,"ADDRESS":"崇德七街２０巷１２號三樓","OBJECTID":300834},"geometry":{"x":170826.46000000089,"y":2541690.3500000015}},{"attributes":{"ID":300843,"DIS_CODE":0,"TOWNNAME":"東區","LI":"崇德里","LIN":"8鄰","STREET":"崇德七街","SECT":" ","MAREA":" ","LANE":"２０巷","ALLEY":" ","HOUSE_NO":"１２號三樓之１","E_COORD97":170826.45999999999,"N_COORD97":2541690.3500000001,"ADDRESS":"崇德七街２０巷１２號三樓之１","OBJECTID":300835},"geometry":{"x":170826.46000000089,"y":2541690.3500000015}},{"attributes":{"ID":300844,"DIS_CODE":0,"TOWNNAME":"東區","LI":"崇德里","LIN":"8鄰","STREET":"崇德七街","SECT":" ","MAREA":" ","LANE":"２０巷","ALLEY":" ","HOUSE_NO":"１２號三樓之２","E_COORD97":170826.45999999999,"N_COORD97":2541690.3500000001,"ADDRESS":"崇德七街２０巷１２號三樓之２","OBJECTID":300836},"geometry":{"x":170826.46000000089,"y":2541690.3500000015}},{"attributes":{"ID":300845,"DIS_CODE":0,"TOWNNAME":"永康區","LI":"西橋里","LIN":"14鄰","STREET":"大橋一街","SECT":" ","MAREA":" ","LANE":" ","ALLEY":" ","HOUSE_NO":"３７號","E_COORD97":170599.23000000001,"N_COORD97":2546239,"ADDRESS":"大橋一街３７號","OBJECTID":300837},"geometry":{"x":170599.23000000138,"y":2546239.0000000019}},{"attributes":{"ID":300846,"DIS_CODE":0,"TOWNNAME":"永康區","LI":"西橋里","LIN":"14鄰","STREET":"大橋一街","SECT":" ","MAREA":" ","LANE":" ","ALLEY":" ","HOUSE_NO":"４１號","E_COORD97":170607.48000000001,"N_COORD97":2546243,"ADDRESS":"大橋一街４１號","OBJECTID":300838},"geometry":{"x":170607.48000000231,"y":2546243.0000000019}},{"attributes":{"ID":300847,"DIS_CODE":0,"TOWNNAME":"麻豆區","LI":"安業里","LIN":"4鄰","STREET":" ","SECT":" ","MAREA":"安業","LANE":" ","ALLEY":" ","HOUSE_NO":"１０１號之１","E_COORD97":172621.07999999999,"N_COORD97":2562016.5800000001,"ADDRESS":"安業１０１號之１","OBJECTID":300839},"geometry":{"x":172621.08000000101,"y":2562016.5800000038}},{"attributes":{"ID":300848,"DIS_CODE":0,"TOWNNAME":"新營區","LI":"王公里","LIN":"33鄰","STREET":"民族路","SECT":" ","MAREA":" ","LANE":"３０８巷","ALLEY":" ","HOUSE_NO":"３９號","E_COORD97":180503.41037999999,"N_COORD97":2579766.8126300001,"ADDRESS":"民族路３０８巷３９號","OBJECTID":300840},"geometry":{"x":180503.41038000025,"y":2579766.8126320019}},{"attributes":{"ID":300849,"DIS_CODE":0,"TOWNNAME":"關廟區","LI":"香洋里","LIN":"7鄰","STREET":"南雄路","SECT":"二段","MAREA":" ","LANE":"３９巷","ALLEY":" ","HOUSE_NO":"２號","E_COORD97":181090.691758,"N_COORD97":2540143.58678,"ADDRESS":"南雄路二段３９巷２號","OBJECTID":300841},"geometry":{"x":181090.69175800029,"y":2540143.5867840014}},{"attributes":{"ID":300850,"DIS_CODE":0,"TOWNNAME":"新營區","LI":"新東里","LIN":"19鄰","STREET":"東學路","SECT":" ","MAREA":" ","LANE":" ","ALLEY":" ","HOUSE_NO":"１０６號","E_COORD97":180951.00607599999,"N_COORD97":2579355.7568199998,"ADDRESS":"東學路１０６號","OBJECTID":300842},"geometry":{"x":180951.00607600156,"y":2579355.7568160016}},{"attributes":{"ID":300851,"DIS_CODE":0,"TOWNNAME":"新營區","LI":"太北里","LIN":"6鄰","STREET":" ","SECT":" ","MAREA":"太子宮","LANE":" ","ALLEY":" ","HOUSE_NO":"４８號之４","E_COORD97":175842.05901999999,"N_COORD97":2577161.4030599999,"ADDRESS":"太子宮４８號之４","OBJECTID":300843},"geometry":{"x":175842.05901999958,"y":2577161.4030600004}},{"attributes":{"ID":300852,"DIS_CODE":0,"TOWNNAME":"仁德區","LI":"保安里","LIN":"12鄰","STREET":"開發五路","SECT":" ","MAREA":" ","LANE":" ","ALLEY":" ","HOUSE_NO":"７號","E_COORD97":172883.12381600001,"N_COORD97":2535793.4263599999,"ADDRESS":"開發五路７號","OBJECTID":300844},"geometry":{"x":172883.1238160003,"y":2535793.4263629988}},{"attributes":{"ID":300853,"DIS_CODE":0,"TOWNNAME":"仁德區","LI":"保安里","LIN":"12鄰","STREET":"開發五路","SECT":" ","MAREA":" ","LANE":" ","ALLEY":" ","HOUSE_NO":"９號","E_COORD97":172919.34607599999,"N_COORD97":2535823.0596799999,"ADDRESS":"開發五路９號","OBJECTID":300845},"geometry":{"x":172919.34607599955,"y":2535823.0596810021}},{"attributes":{"ID":300854,"DIS_CODE":0,"TOWNNAME":"東區","LI":"崇德里","LIN":"8鄰","STREET":"崇德七街","SECT":" ","MAREA":" ","LANE":"２０巷","ALLEY":" ","HOUSE_NO":"１２號三樓之３","E_COORD97":170826.45999999999,"N_COORD97":2541690.3500000001,"ADDRESS":"崇德七街２０巷１２號三樓之３","OBJECTID":300846},"geometry":{"x":170826.46000000089,"y":2541690.3500000015}},{"attributes":{"ID":300855,"DIS_CODE":0,"TOWNNAME":"東區","LI":"崇德里","LIN":"8鄰","STREET":"崇德七街","SECT":" ","MAREA":" ","LANE":"２０巷","ALLEY":" ","HOUSE_NO":"１２號五樓","E_COORD97":170826.45999999999,"N_COORD97":2541690.3500000001,"ADDRESS":"崇德七街２０巷１２號五樓","OBJECTID":300847},"geometry":{"x":170826.46000000089,"y":2541690.3500000015}},{"attributes":{"ID":300856,"DIS_CODE":0,"TOWNNAME":"東區","LI":"崇德里","LIN":"8鄰","STREET":"崇德七街","SECT":" ","MAREA":" ","LANE":"２０巷","ALLEY":" ","HOUSE_NO":"１２號五樓之１","E_COORD97":170826.45999999999,"N_COORD97":2541690.3500000001,"ADDRESS":"崇德七街２０巷１２號五樓之１","OBJECTID":300848},"geometry":{"x":170826.46000000089,"y":2541690.3500000015}},{"attributes":{"ID":300857,"DIS_CODE":0,"TOWNNAME":"東區","LI":"崇德里","LIN":"8鄰","STREET":"崇德七街","SECT":" ","MAREA":" ","LANE":"２０巷","ALLEY":" ","HOUSE_NO":"１２號五樓之２","E_COORD97":170826.45999999999,"N_COORD97":2541690.3500000001,"ADDRESS":"崇德七街２０巷１２號五樓之２","OBJECTID":300849},"geometry":{"x":170826.46000000089,"y":2541690.3500000015}},{"attributes":{"ID":300858,"DIS_CODE":0,"TOWNNAME":"東區","LI":"崇德里","LIN":"8鄰","STREET":"崇德七街","SECT":" ","MAREA":" ","LANE":"２０巷","ALLEY":" ","HOUSE_NO":"１２號五樓之３","E_COORD97":170826.45999999999,"N_COORD97":2541690.3500000001,"ADDRESS":"崇德七街２０巷１２號五樓之３","OBJECTID":300850},"geometry":{"x":170826.46000000089,"y":2541690.3500000015}},{"attributes":{"ID":300859,"DIS_CODE":0,"TOWNNAME":"南區","LI":"建南里","LIN":"8鄰","STREET":"德興路","SECT":" ","MAREA":" ","LANE":"２１０巷","ALLEY":" ","HOUSE_NO":"５號","E_COORD97":167180.82999999999,"N_COORD97":2540150.3700000001,"ADDRESS":"德興路２１０巷５號","OBJECTID":300851},"geometry":{"x":167180.83000000101,"y":2540150.370000001}},{"attributes":{"ID":300860,"DIS_CODE":0,"TOWNNAME":"東區","LI":"崇德里","LIN":"8鄰","STREET":"崇德七街","SECT":" ","MAREA":" ","LANE":"２０巷","ALLEY":" ","HOUSE_NO":"１２號六樓之１","E_COORD97":170826.45999999999,"N_COORD97":2541690.3500000001,"ADDRESS":"崇德七街２０巷１２號六樓之１","OBJECTID":300852},"geometry":{"x":170826.46000000089,"y":2541690.3500000015}},{"attributes":{"ID":300861,"DIS_CODE":0,"TOWNNAME":"東區","LI":"崇德里","LIN":"8鄰","STREET":"崇德七街","SECT":" ","MAREA":" ","LANE":"２０巷","ALLEY":" ","HOUSE_NO":"１２號六樓之２","E_COORD97":170826.45999999999,"N_COORD97":2541690.3500000001,"ADDRESS":"崇德七街２０巷１２號六樓之２","OBJECTID":300853},"geometry":{"x":170826.46000000089,"y":2541690.3500000015}},{"attributes":{"ID":300862,"DIS_CODE":0,"TOWNNAME":"東區","LI":"崇德里","LIN":"8鄰","STREET":"崇德七街","SECT":" ","MAREA":" ","LANE":"２０巷","ALLEY":" ","HOUSE_NO":"１２號六樓之３","E_COORD97":170826.45999999999,"N_COORD97":2541690.3500000001,"ADDRESS":"崇德七街２０巷１２號六樓之３","OBJECTID":300854},"geometry":{"x":170826.46000000089,"y":2541690.3500000015}},{"attributes":{"ID":300863,"DIS_CODE":0,"TOWNNAME":"東區","LI":"崇德里","LIN":"8鄰","STREET":"崇德七街","SECT":" ","MAREA":" ","LANE":"２０巷","ALLEY":" ","HOUSE_NO":"１２號四樓","E_COORD97":170826.45999999999,"N_COORD97":2541690.3500000001,"ADDRESS":"崇德七街２０巷１２號四樓","OBJECTID":300855},"geometry":{"x":170826.46000000089,"y":2541690.3500000015}},{"attributes":{"ID":300864,"DIS_CODE":0,"TOWNNAME":"東區","LI":"崇德里","LIN":"8鄰","STREET":"崇德七街","SECT":" ","MAREA":" ","LANE":"２０巷","ALLEY":" ","HOUSE_NO":"１２號四樓之１","E_COORD97":170826.45999999999,"N_COORD97":2541690.3500000001,"ADDRESS":"崇德七街２０巷１２號四樓之１","OBJECTID":300856},"geometry":{"x":170826.46000000089,"y":2541690.3500000015}},{"attributes":{"ID":300865,"DIS_CODE":0,"TOWNNAME":"仁德區","LI":"後壁里","LIN":"12鄰","STREET":"德南路","SECT":" ","MAREA":" ","LANE":"２５１巷","ALLEY":" ","HOUSE_NO":"３５號","E_COORD97":173853.33790899999,"N_COORD97":2538481.65606,"ADDRESS":"德南路２５１巷３５號","OBJECTID":300857},"geometry":{"x":173853.33790900093,"y":2538481.6560580004}},{"attributes":{"ID":300866,"DIS_CODE":0,"TOWNNAME":"仁德區","LI":"後壁里","LIN":"12鄰","STREET":"德南路","SECT":" ","MAREA":" ","LANE":"２５１巷","ALLEY":" ","HOUSE_NO":"３７號","E_COORD97":173855.45590100001,"N_COORD97":2538484.40772,"ADDRESS":"德南路２５１巷３７號","OBJECTID":300858},"geometry":{"x":173855.45590099972,"y":2538484.4077230021}},{"attributes":{"ID":300867,"DIS_CODE":0,"TOWNNAME":"仁德區","LI":"後壁里","LIN":"12鄰","STREET":"德南路","SECT":" ","MAREA":" ","LANE":"２５１巷","ALLEY":" ","HOUSE_NO":"３９號","E_COORD97":173859.26828600001,"N_COORD97":2538488.00605,"ADDRESS":"德南路２５１巷３９號","OBJECTID":300859},"geometry":{"x":173859.26828600187,"y":2538488.0060539991}},{"attributes":{"ID":300868,"DIS_CODE":0,"TOWNNAME":"仁德區","LI":"大甲里","LIN":"4鄰","STREET":"行大街","SECT":" ","MAREA":" ","LANE":" ","ALLEY":" ","HOUSE_NO":"２７３之２號","E_COORD97":169776.04000000001,"N_COORD97":2535132.5499999998,"ADDRESS":"行大街２７３之２號","OBJECTID":300860},"geometry":{"x":169776.0400000019,"y":2535132.5500000026}},{"attributes":{"ID":300869,"DIS_CODE":0,"TOWNNAME":"仁德區","LI":"後壁里","LIN":"12鄰","STREET":"德南路","SECT":" ","MAREA":" ","LANE":"２５１巷","ALLEY":" ","HOUSE_NO":"４３號","E_COORD97":173864.13966700001,"N_COORD97":2538495.3085500002,"ADDRESS":"德南路２５１巷４３號","OBJECTID":300861},"geometry":{"x":173864.13966699969,"y":2538495.3085500002}},{"attributes":{"ID":300870,"DIS_CODE":0,"TOWNNAME":"仁德區","LI":"後壁里","LIN":"12鄰","STREET":"德南路","SECT":" ","MAREA":" ","LANE":"２５１巷","ALLEY":" ","HOUSE_NO":"４５號","E_COORD97":173866.257659,"N_COORD97":2538498.9068800001,"ADDRESS":"德南路２５１巷４５號","OBJECTID":300862},"geometry":{"x":173866.25765900128,"y":2538498.9068819992}},{"attributes":{"ID":300871,"DIS_CODE":0,"TOWNNAME":"仁德區","LI":"後壁里","LIN":"12鄰","STREET":"德南路","SECT":" ","MAREA":" ","LANE":"２５１巷","ALLEY":" ","HOUSE_NO":"４７號","E_COORD97":173850.79631899999,"N_COORD97":2538508.8552100002,"ADDRESS":"德南路２５１巷４７號","OBJECTID":300863},"geometry":{"x":173850.79631900135,"y":2538508.8552099988}},{"attributes":{"ID":300872,"DIS_CODE":0,"TOWNNAME":"仁德區","LI":"後壁里","LIN":"12鄰","STREET":"德南路","SECT":" ","MAREA":" ","LANE":"２５１巷","ALLEY":" ","HOUSE_NO":"４９號","E_COORD97":173845.92493800001,"N_COORD97":2538512.24187,"ADDRESS":"德南路２５１巷４９號","OBJECTID":300864},"geometry":{"x":173845.92493800074,"y":2538512.2418750003}},{"attributes":{"ID":300873,"DIS_CODE":0,"TOWNNAME":"麻豆區","LI":"東角里","LIN":"10鄰","STREET":"國中街","SECT":" ","MAREA":" ","LANE":"９巷","ALLEY":" ","HOUSE_NO":"２６號","E_COORD97":174031.52168199999,"N_COORD97":2564738.70677,"ADDRESS":"國中街９巷２６號","OBJECTID":300865},"geometry":{"x":174031.52168199979,"y":2564738.7067740038}},{"attributes":{"ID":300874,"DIS_CODE":0,"TOWNNAME":"仁德區","LI":"仁和里","LIN":"16鄰","STREET":"二空路","SECT":" ","MAREA":" ","LANE":" ","ALLEY":" ","HOUSE_NO":"６６號","E_COORD97":170380.04000000001,"N_COORD97":2539863.5569000002,"ADDRESS":"二空路６６號","OBJECTID":300866},"geometry":{"x":170380.04000000097,"y":2539863.556896003}},{"attributes":{"ID":300875,"DIS_CODE":0,"TOWNNAME":"仁德區","LI":"仁和里","LIN":"16鄰","STREET":"保華路","SECT":" ","MAREA":" ","LANE":" ","ALLEY":" ","HOUSE_NO":"３６７號","E_COORD97":170399.31881999999,"N_COORD97":2539862.71,"ADDRESS":"保華路３６７號","OBJECTID":300867},"geometry":{"x":170399.31882000156,"y":2539862.7100000009}},{"attributes":{"ID":300876,"DIS_CODE":0,"TOWNNAME":"新營區","LI":"興安里","LIN":"5鄰","STREET":"工業街","SECT":" ","MAREA":" ","LANE":" ","ALLEY":" ","HOUSE_NO":"７９號","E_COORD97":180603.109103,"N_COORD97":2577578.14818,"ADDRESS":"工業街７９號","OBJECTID":300868},"geometry":{"x":180603.10910300072,"y":2577578.1481759995}},{"attributes":{"ID":300877,"DIS_CODE":0,"TOWNNAME":"新營區","LI":"興安里","LIN":"6鄰","STREET":"工業街","SECT":" ","MAREA":" ","LANE":" ","ALLEY":" ","HOUSE_NO":"５５之１號","E_COORD97":180669.70999999999,"N_COORD97":2577871.9300000002,"ADDRESS":"工業街５５之１號","OBJECTID":300869},"geometry":{"x":180669.70999999903,"y":2577871.9300000016}},{"attributes":{"ID":300878,"DIS_CODE":0,"TOWNNAME":"安南區","LI":"\u25A0田里","LIN":"6鄰","STREET":"\u25A0田五街","SECT":" ","MAREA":" ","LANE":" ","ALLEY":" ","HOUSE_NO":"２６號","E_COORD97":162584.37,"N_COORD97":2548275.3199999998,"ADDRESS":"\u25A0田五街２６號","OBJECTID":300870},"geometry":{"x":162584.37000000011,"y":2548275.3200000022}},{"attributes":{"ID":300879,"DIS_CODE":0,"TOWNNAME":"仁德區","LI":"上崙里","LIN":"18鄰","STREET":"德崙路","SECT":" ","MAREA":" ","LANE":" ","ALLEY":" ","HOUSE_NO":"３２０號","E_COORD97":173900.45000000001,"N_COORD97":2538112.5099999998,"ADDRESS":"德崙路３２０號","OBJECTID":300871},"geometry":{"x":173900.45000000019,"y":2538112.5100000016}},{"attributes":{"ID":300880,"DIS_CODE":0,"TOWNNAME":"仁德區","LI":"仁和里","LIN":"17鄰","STREET":"保華路","SECT":" ","MAREA":" ","LANE":" ","ALLEY":" ","HOUSE_NO":"３６１號二樓之１","E_COORD97":170429.35000000001,"N_COORD97":2539884.5699999998,"ADDRESS":"保華路３６１號二樓之１","OBJECTID":300872},"geometry":{"x":170429.34999999963,"y":2539884.570000004}},{"attributes":{"ID":300881,"DIS_CODE":0,"TOWNNAME":"仁德區","LI":"仁和里","LIN":"11鄰","STREET":"保華路","SECT":" ","MAREA":" ","LANE":" ","ALLEY":" ","HOUSE_NO":"１３０號","E_COORD97":170405.56089200001,"N_COORD97":2539947.7780499998,"ADDRESS":"保華路１３０號","OBJECTID":300873},"geometry":{"x":170405.56089199986,"y":2539947.7780530024}},{"attributes":{"ID":300882,"DIS_CODE":0,"TOWNNAME":"仁德區","LI":"仁和里","LIN":"11鄰","STREET":"保華路","SECT":" ","MAREA":" ","LANE":" ","ALLEY":" ","HOUSE_NO":"１２８號","E_COORD97":170405.56089200001,"N_COORD97":2539959.41971,"ADDRESS":"保華路１２８號","OBJECTID":300874},"geometry":{"x":170405.56089199986,"y":2539959.4197140001}},{"attributes":{"ID":300883,"DIS_CODE":0,"TOWNNAME":"仁德區","LI":"仁和里","LIN":"13鄰","STREET":"保華路","SECT":" ","MAREA":" ","LANE":" ","ALLEY":" ","HOUSE_NO":"１２２號","E_COORD97":170455.55861899999,"N_COORD97":2539989.6880299998,"ADDRESS":"保華路１２２號","OBJECTID":300875},"geometry":{"x":170455.55861900002,"y":2539989.6880309992}},{"attributes":{"ID":300884,"DIS_CODE":0,"TOWNNAME":"善化區","LI":"坐駕里","LIN":"17鄰","STREET":"興華路","SECT":" ","MAREA":" ","LANE":"２８９巷","ALLEY":" ","HOUSE_NO":"１６號","E_COORD97":177832.73999999999,"N_COORD97":2558445.8300000001,"ADDRESS":"興華路２８９巷１６號","OBJECTID":300876},"geometry":{"x":177832.74000000115,"y":2558445.8300000019}},{"attributes":{"ID":300885,"DIS_CODE":0,"TOWNNAME":"中西區","LI":"光賢里","LIN":"21鄰","STREET":"武聖路","SECT":" ","MAREA":" ","LANE":"２３９巷","ALLEY":" ","HOUSE_NO":"７號","E_COORD97":166826.78,"N_COORD97":2545253.7400000002,"ADDRESS":"武聖路２３９巷７號","OBJECTID":300877},"geometry":{"x":166826.78000000212,"y":2545253.7400000039}},{"attributes":{"ID":300886,"DIS_CODE":0,"TOWNNAME":"中西區","LI":"光賢里","LIN":"21鄰","STREET":"武聖路","SECT":" ","MAREA":" ","LANE":"２３９巷","ALLEY":" ","HOUSE_NO":"８號","E_COORD97":166802.79999999999,"N_COORD97":2545277.6899999999,"ADDRESS":"武聖路２３９巷８號","OBJECTID":300878},"geometry":{"x":166802.80000000075,"y":2545277.6900000013}},{"attributes":{"ID":300887,"DIS_CODE":0,"TOWNNAME":"中西區","LI":"光賢里","LIN":"21鄰","STREET":"武聖路","SECT":" ","MAREA":" ","LANE":"２３９巷","ALLEY":" ","HOUSE_NO":"９號","E_COORD97":166819.23000000001,"N_COORD97":2545243.1000000001,"ADDRESS":"武聖路２３９巷９號","OBJECTID":300879},"geometry":{"x":166819.23000000138,"y":2545243.0999999996}},{"attributes":{"ID":300888,"DIS_CODE":0,"TOWNNAME":"東區","LI":"崇德里","LIN":"8鄰","STREET":"崇德七街","SECT":" ","MAREA":" ","LANE":"２０巷","ALLEY":" ","HOUSE_NO":"１２號四樓之２","E_COORD97":170826.45999999999,"N_COORD97":2541690.3500000001,"ADDRESS":"崇德七街２０巷１２號四樓之２","OBJECTID":300880},"geometry":{"x":170826.46000000089,"y":2541690.3500000015}},{"attributes":{"ID":300889,"DIS_CODE":0,"TOWNNAME":"北區","LI":"長榮里","LIN":"20鄰","STREET":"開元路","SECT":" ","MAREA":" ","LANE":"３３３巷","ALLEY":" ","HOUSE_NO":"１３號","E_COORD97":170174.03,"N_COORD97":2545461.75,"ADDRESS":"開元路３３３巷１３號","OBJECTID":300881},"geometry":{"x":170174.03000000026,"y":2545461.7500000019}},{"attributes":{"ID":300890,"DIS_CODE":0,"TOWNNAME":"東區","LI":"崇德里","LIN":"8鄰","STREET":"崇德七街","SECT":" ","MAREA":" ","LANE":"２０巷","ALLEY":" ","HOUSE_NO":"１２號四樓之３","E_COORD97":170826.45999999999,"N_COORD97":2541690.3500000001,"ADDRESS":"崇德七街２０巷１２號四樓之３","OBJECTID":300882},"geometry":{"x":170826.46000000089,"y":2541690.3500000015}},{"attributes":{"ID":300891,"DIS_CODE":0,"TOWNNAME":"東區","LI":"崇德里","LIN":"8鄰","STREET":"崇德七街","SECT":" ","MAREA":" ","LANE":"２０巷","ALLEY":" ","HOUSE_NO":"１２號四樓之４","E_COORD97":170826.45999999999,"N_COORD97":2541690.3500000001,"ADDRESS":"崇德七街２０巷１２號四樓之４","OBJECTID":300883},"geometry":{"x":170826.46000000089,"y":2541690.3500000015}},{"attributes":{"ID":300892,"DIS_CODE":0,"TOWNNAME":"東區","LI":"崇德里","LIN":"8鄰","STREET":"崇德七街","SECT":" ","MAREA":" ","LANE":"２０巷","ALLEY":" ","HOUSE_NO":"１２號七樓之２","E_COORD97":170826.45999999999,"N_COORD97":2541690.3500000001,"ADDRESS":"崇德七街２０巷１２號七樓之２","OBJECTID":300884},"geometry":{"x":170826.46000000089,"y":2541690.3500000015}},{"attributes":{"ID":300893,"DIS_CODE":0,"TOWNNAME":"北區","LI":"長榮里","LIN":"20鄰","STREET":"開元路","SECT":" ","MAREA":" ","LANE":"３３３巷","ALLEY":" ","HOUSE_NO":"２５號","E_COORD97":170141.79999999999,"N_COORD97":2545485.5699999998,"ADDRESS":"開元路３３３巷２５號","OBJECTID":300885},"geometry":{"x":170141.79999999888,"y":2545485.570000004}},{"attributes":{"ID":300894,"DIS_CODE":0,"TOWNNAME":"北區","LI":"長榮里","LIN":"20鄰","STREET":"開元路","SECT":" ","MAREA":" ","LANE":"３３３巷","ALLEY":" ","HOUSE_NO":"７號","E_COORD97":170194.82000000001,"N_COORD97":2545445.0800000001,"ADDRESS":"開元路３３３巷７號","OBJECTID":300886},"geometry":{"x":170194.82000000216,"y":2545445.0800000019}},{"attributes":{"ID":300895,"DIS_CODE":0,"TOWNNAME":"北區","LI":"長榮里","LIN":"20鄰","STREET":"開元路","SECT":" ","MAREA":" ","LANE":"３３３巷","ALLEY":" ","HOUSE_NO":"９號","E_COORD97":170188.47,"N_COORD97":2545450.3199999998,"ADDRESS":"開元路３３３巷９號","OBJECTID":300887},"geometry":{"x":170188.47000000067,"y":2545450.3200000022}},{"attributes":{"ID":300896,"DIS_CODE":0,"TOWNNAME":"仁德區","LI":"土庫里","LIN":"20鄰","STREET":"太子二街","SECT":" ","MAREA":" ","LANE":" ","ALLEY":" ","HOUSE_NO":"１５４號","E_COORD97":174490.42000000001,"N_COORD97":2543221.0099999998,"ADDRESS":"太子二街１５４號","OBJECTID":300888},"geometry":{"x":174490.41999999993,"y":2543221.0100000016}},{"attributes":{"ID":300897,"DIS_CODE":0,"TOWNNAME":"仁德區","LI":"土庫里","LIN":"4鄰","STREET":"土庫三街","SECT":" ","MAREA":" ","LANE":" ","ALLEY":" ","HOUSE_NO":"３０號","E_COORD97":174132.51999999999,"N_COORD97":2543068.7400000002,"ADDRESS":"土庫三街３０號","OBJECTID":300889},"geometry":{"x":174132.52000000048,"y":2543068.7400000002}},{"attributes":{"ID":300898,"DIS_CODE":0,"TOWNNAME":"佳里區","LI":"鎮山里","LIN":"20鄰","STREET":"鎮山街","SECT":" ","MAREA":" ","LANE":" ","ALLEY":" ","HOUSE_NO":"１９６號","E_COORD97":166250.09,"N_COORD97":2560912.5499999998,"ADDRESS":"鎮山街１９６號","OBJECTID":300890},"geometry":{"x":166250.09000000078,"y":2560912.5500000026}},{"attributes":{"ID":300899,"DIS_CODE":0,"TOWNNAME":"善化區","LI":"小新里","LIN":"13鄰","STREET":" ","SECT":" ","MAREA":"小新營","LANE":" ","ALLEY":" ","HOUSE_NO":"１０２之１２號","E_COORD97":179729.14308000001,"N_COORD97":2558181.8501400002,"ADDRESS":"小新營１０２之１２號","OBJECTID":300891},"geometry":{"x":179729.14308000077,"y":2558181.8501350004}},{"attributes":{"ID":300900,"DIS_CODE":0,"TOWNNAME":"麻豆區","LI":"東角里","LIN":"10鄰","STREET":"國中街","SECT":" ","MAREA":" ","LANE":"９巷","ALLEY":" ","HOUSE_NO":"３０號","E_COORD97":174042.32716700001,"N_COORD97":2564738.49511,"ADDRESS":"國中街９巷３０號","OBJECTID":300892},"geometry":{"x":174042.32716700062,"y":2564738.4951080009}},{"attributes":{"ID":300901,"DIS_CODE":0,"TOWNNAME":"關廟區","LI":"埤頭里","LIN":"13鄰","STREET":"關新路","SECT":"二段","MAREA":" ","LANE":"４６２巷","ALLEY":" ","HOUSE_NO":"１２號","E_COORD97":179222.26936800001,"N_COORD97":2545112.6318399999,"ADDRESS":"關新路二段４６２巷１２號","OBJECTID":300893},"geometry":{"x":179222.26936800033,"y":2545112.6318430044}},{"attributes":{"ID":300902,"DIS_CODE":0,"TOWNNAME":"麻豆區","LI":"東角里","LIN":"10鄰","STREET":"國中街","SECT":" ","MAREA":" ","LANE":"９巷","ALLEY":" ","HOUSE_NO":"２８號","E_COORD97":174036.81847999999,"N_COORD97":2564738.2834399999,"ADDRESS":"國中街９巷２８號","OBJECTID":300894},"geometry":{"x":174036.81848000083,"y":2564738.2834400013}},{"attributes":{"ID":300903,"DIS_CODE":0,"TOWNNAME":"東區","LI":"龍山里","LIN":"5鄰","STREET":"林森路","SECT":"一段","MAREA":" ","LANE":" ","ALLEY":" ","HOUSE_NO":"３２０號","E_COORD97":170073.81363600001,"N_COORD97":2542646.36302,"ADDRESS":"林森路一段３２０號","OBJECTID":300895},"geometry":{"x":170073.81363600213,"y":2542646.363020001}},{"attributes":{"ID":300904,"DIS_CODE":0,"TOWNNAME":"東區","LI":"龍山里","LIN":"6鄰","STREET":"林森路","SECT":"一段","MAREA":" ","LANE":" ","ALLEY":" ","HOUSE_NO":"３６７號","E_COORD97":170136.95199900001,"N_COORD97":2542795.9054399999,"ADDRESS":"林森路一段３６７號","OBJECTID":300896},"geometry":{"x":170136.95199900214,"y":2542795.9054390006}},{"attributes":{"ID":300905,"DIS_CODE":0,"TOWNNAME":"仁德區","LI":"仁和里","LIN":"15鄰","STREET":"和愛街","SECT":" ","MAREA":" ","LANE":" ","ALLEY":" ","HOUSE_NO":"２６號","E_COORD97":170443.69475200001,"N_COORD97":2540091.7113100002,"ADDRESS":"和愛街２６號","OBJECTID":300897},"geometry":{"x":170443.6947520012,"y":2540091.7113090027}},{"attributes":{"ID":300906,"DIS_CODE":0,"TOWNNAME":"仁德區","LI":"仁和里","LIN":"15鄰","STREET":"和愛街","SECT":" ","MAREA":" ","LANE":" ","ALLEY":" ","HOUSE_NO":"２８號","E_COORD97":170463.820955,"N_COORD97":2540091.9229799998,"ADDRESS":"和愛街２８號","OBJECTID":300898},"geometry":{"x":170463.82095499896,"y":2540091.922975}},{"attributes":{"ID":300907,"DIS_CODE":0,"TOWNNAME":"仁德區","LI":"仁和里","LIN":"8鄰","STREET":"和愛街","SECT":" ","MAREA":" ","LANE":" ","ALLEY":" ","HOUSE_NO":"２號","E_COORD97":170398.35782899999,"N_COORD97":2540093.61631,"ADDRESS":"和愛街２號","OBJECTID":300899},"geometry":{"x":170398.35782900173,"y":2540093.6163080018}},{"attributes":{"ID":300908,"DIS_CODE":0,"TOWNNAME":"仁德區","LI":"仁和里","LIN":"2鄰","STREET":"和愛街","SECT":" ","MAREA":" ","LANE":" ","ALLEY":" ","HOUSE_NO":"１號","E_COORD97":170396.23928099999,"N_COORD97":2540110.6478300001,"ADDRESS":"和愛街１號","OBJECTID":300900},"geometry":{"x":170396.23928100057,"y":2540110.6478270013}},{"attributes":{"ID":300909,"DIS_CODE":0,"TOWNNAME":"安南區","LI":"\u25A0田里","LIN":"3鄰","STREET":"\u25A0田五街","SECT":" ","MAREA":" ","LANE":" ","ALLEY":" ","HOUSE_NO":"５０號","E_COORD97":162560.70999999999,"N_COORD97":2548260.0099999998,"ADDRESS":"\u25A0田五街５０號","OBJECTID":300901},"geometry":{"x":162560.71000000089,"y":2548260.0100000016}},{"attributes":{"ID":300910,"DIS_CODE":0,"TOWNNAME":"新營區","LI":"太北里","LIN":"9鄰","STREET":" ","SECT":" ","MAREA":"太子宮","LANE":" ","ALLEY":" ","HOUSE_NO":"７２之２號","E_COORD97":176078.182948,"N_COORD97":2577072.1443400001,"ADDRESS":"太子宮７２之２號","OBJECTID":300902},"geometry":{"x":176078.1829479998,"y":2577072.1443389989}},{"attributes":{"ID":300911,"DIS_CODE":0,"TOWNNAME":"新營區","LI":"太北里","LIN":"9鄰","STREET":" ","SECT":" ","MAREA":"太子宮","LANE":" ","ALLEY":" ","HOUSE_NO":"７３號之２","E_COORD97":176090.68642400001,"N_COORD97":2577069.2868400002,"ADDRESS":"太子宮７３號之２","OBJECTID":300903},"geometry":{"x":176090.68642400112,"y":2577069.2868400011}},{"attributes":{"ID":300912,"DIS_CODE":0,"TOWNNAME":"新營區","LI":"興安里","LIN":"6鄰","STREET":"工業街","SECT":" ","MAREA":" ","LANE":" ","ALLEY":" ","HOUSE_NO":"４５號之２","E_COORD97":180736.11994,"N_COORD97":2577945.71661,"ADDRESS":"工業街４５號之２","OBJECTID":300904},"geometry":{"x":180736.11993999965,"y":2577945.7166100033}},{"attributes":{"ID":300913,"DIS_CODE":0,"TOWNNAME":"新營區","LI":"興安里","LIN":"6鄰","STREET":"工業街","SECT":" ","MAREA":" ","LANE":" ","ALLEY":" ","HOUSE_NO":"４５號之３","E_COORD97":180762.18289,"N_COORD97":2577923.5974599998,"ADDRESS":"工業街４５號之３","OBJECTID":300905},"geometry":{"x":180762.18288999982,"y":2577923.5974599998}},{"attributes":{"ID":300914,"DIS_CODE":0,"TOWNNAME":"永康區","LI":"西橋里","LIN":"14鄰","STREET":"大橋一街","SECT":" ","MAREA":" ","LANE":" ","ALLEY":" ","HOUSE_NO":"３３號","E_COORD97":170591.32999999999,"N_COORD97":2546235,"ADDRESS":"大橋一街３３號","OBJECTID":300906},"geometry":{"x":170591.33000000101,"y":2546235.0000000037}},{"attributes":{"ID":300915,"DIS_CODE":0,"TOWNNAME":"永康區","LI":"西橋里","LIN":"14鄰","STREET":"中華西街","SECT":" ","MAREA":" ","LANE":" ","ALLEY":" ","HOUSE_NO":"１９１號","E_COORD97":170614.66,"N_COORD97":2546323.75,"ADDRESS":"中華西街１９１號","OBJECTID":300907},"geometry":{"x":170614.66000000108,"y":2546323.75}},{"attributes":{"ID":300916,"DIS_CODE":0,"TOWNNAME":"永康區","LI":"西橋里","LIN":"14鄰","STREET":"中華西街","SECT":" ","MAREA":" ","LANE":" ","ALLEY":" ","HOUSE_NO":"１５３號","E_COORD97":170623.62,"N_COORD97":2546258.4900000002,"ADDRESS":"中華西街１５３號","OBJECTID":300908},"geometry":{"x":170623.62000000104,"y":2546258.4900000002}},{"attributes":{"ID":300917,"DIS_CODE":0,"TOWNNAME":"永康區","LI":"西橋里","LIN":"14鄰","STREET":"中華西街","SECT":" ","MAREA":" ","LANE":" ","ALLEY":" ","HOUSE_NO":"１７９號","E_COORD97":170614.32000000001,"N_COORD97":2546300.75,"ADDRESS":"中華西街１７９號","OBJECTID":300909},"geometry":{"x":170614.32000000123,"y":2546300.7500000037}},{"attributes":{"ID":300918,"DIS_CODE":0,"TOWNNAME":"永康區","LI":"甲頂里","LIN":"14鄰","STREET":"正新街","SECT":" ","MAREA":" ","LANE":" ","ALLEY":" ","HOUSE_NO":"５４號","E_COORD97":170343.25,"N_COORD97":2546701.8500000001,"ADDRESS":"正新街５４號","OBJECTID":300910},"geometry":{"x":170343.25000000093,"y":2546701.8499999996}},{"attributes":{"ID":300919,"DIS_CODE":0,"TOWNNAME":"善化區","LI":"光文里","LIN":"28鄰","STREET":"建國路","SECT":" ","MAREA":" ","LANE":"２６２巷","ALLEY":" ","HOUSE_NO":"１１號","E_COORD97":177923.04999999999,"N_COORD97":2559286.4300000002,"ADDRESS":"建國路２６２巷１１號","OBJECTID":300911},"geometry":{"x":177923.05000000075,"y":2559286.4299999997}},{"attributes":{"ID":300920,"DIS_CODE":0,"TOWNNAME":"北區","LI":"長榮里","LIN":"20鄰","STREET":"開元路","SECT":" ","MAREA":" ","LANE":"３３３巷","ALLEY":" ","HOUSE_NO":"１１號","E_COORD97":170181.79999999999,"N_COORD97":2545456.5099999998,"ADDRESS":"開元路３３３巷１１號","OBJECTID":300912},"geometry":{"x":170181.79999999981,"y":2545456.5099999998}},{"attributes":{"ID":300921,"DIS_CODE":0,"TOWNNAME":"六甲區","LI":"甲南里","LIN":"5鄰","STREET":"珊瑚路","SECT":" ","MAREA":" ","LANE":" ","ALLEY":" ","HOUSE_NO":"３號","E_COORD97":183670.29000000001,"N_COORD97":2569548.1499999999,"ADDRESS":"珊瑚路３號","OBJECTID":300913},"geometry":{"x":183670.29000000097,"y":2569548.1500000004}},{"attributes":{"ID":300922,"DIS_CODE":0,"TOWNNAME":"善化區","LI":"小新里","LIN":"11鄰","STREET":"陽光三路","SECT":" ","MAREA":" ","LANE":"３１６巷","ALLEY":" ","HOUSE_NO":"１２號","E_COORD97":179341.040308,"N_COORD97":2557446.5485,"ADDRESS":"陽光三路３１６巷１２號","OBJECTID":300914},"geometry":{"x":179341.04030799959,"y":2557446.5485009979}},{"attributes":{"ID":300923,"DIS_CODE":0,"TOWNNAME":"善化區","LI":"小新里","LIN":"11鄰","STREET":"陽光三路","SECT":" ","MAREA":" ","LANE":"３１６巷","ALLEY":" ","HOUSE_NO":"１５號","E_COORD97":179357.87942899999,"N_COORD97":2557451.6285000001,"ADDRESS":"陽光三路３１６巷１５號","OBJECTID":300915},"geometry":{"x":179357.87942900043,"y":2557451.6284979973}},{"attributes":{"ID":300924,"DIS_CODE":0,"TOWNNAME":"善化區","LI":"小新里","LIN":"11鄰","STREET":"陽光三路","SECT":" ","MAREA":" ","LANE":"３１６巷","ALLEY":" ","HOUSE_NO":"１３號","E_COORD97":179351.736856,"N_COORD97":2557451.20517,"ADDRESS":"陽光三路３１６巷１３號","OBJECTID":300916},"geometry":{"x":179351.7368560005,"y":2557451.2051649988}},{"attributes":{"ID":300925,"DIS_CODE":0,"TOWNNAME":"善化區","LI":"小新里","LIN":"11鄰","STREET":"陽光三路","SECT":" ","MAREA":" ","LANE":"３１６巷","ALLEY":" ","HOUSE_NO":"１１號","E_COORD97":179346.547441,"N_COORD97":2557451.5226699999,"ADDRESS":"陽光三路３１６巷１１號","OBJECTID":300917},"geometry":{"x":179346.54744100012,"y":2557451.5226650015}},{"attributes":{"ID":300926,"DIS_CODE":0,"TOWNNAME":"永康區","LI":"西橋里","LIN":"14鄰","STREET":"大橋一街","SECT":" ","MAREA":" ","LANE":" ","ALLEY":" ","HOUSE_NO":"３９號","E_COORD97":170603.04000000001,"N_COORD97":2546240.75,"ADDRESS":"大橋一街３９號","OBJECTID":300918},"geometry":{"x":170603.04000000004,"y":2546240.7500000019}},{"attributes":{"ID":300927,"DIS_CODE":0,"TOWNNAME":"善化區","LI":"文昌里","LIN":"17鄰","STREET":" ","SECT":" ","MAREA":"益民寮","LANE":" ","ALLEY":" ","HOUSE_NO":"１８號","E_COORD97":177935.76000000001,"N_COORD97":2557200.3100000001,"ADDRESS":"益民寮１８號","OBJECTID":300919},"geometry":{"x":177935.75999999978,"y":2557200.3100000005}},{"attributes":{"ID":300928,"DIS_CODE":0,"TOWNNAME":"善化區","LI":"胡厝里","LIN":"19鄰","STREET":" ","SECT":" ","MAREA":"西衛","LANE":" ","ALLEY":" ","HOUSE_NO":"２０之５號","E_COORD97":174385.54000000001,"N_COORD97":2559334.8399999999,"ADDRESS":"西衛２０之５號","OBJECTID":300920},"geometry":{"x":174385.54000000097,"y":2559334.8399999999}},{"attributes":{"ID":300929,"DIS_CODE":0,"TOWNNAME":"關廟區","LI":"埤頭里","LIN":"13鄰","STREET":"關新路","SECT":"二段","MAREA":" ","LANE":"５２７巷","ALLEY":" ","HOUSE_NO":"８６號","E_COORD97":178849.80644399999,"N_COORD97":2545440.8208300001,"ADDRESS":"關新路二段５２７巷８６號","OBJECTID":300921},"geometry":{"x":178849.80644400045,"y":2545440.8208330013}},{"attributes":{"ID":300930,"DIS_CODE":0,"TOWNNAME":"關廟區","LI":"埤頭里","LIN":"13鄰","STREET":"關新路","SECT":"二段","MAREA":" ","LANE":"６８８巷","ALLEY":" ","HOUSE_NO":"２６９號","E_COORD97":179800.66742300001,"N_COORD97":2545649.5240500001,"ADDRESS":"關新路二段６８８巷２６９號","OBJECTID":300922},"geometry":{"x":179800.66742300149,"y":2545649.5240529999}},{"attributes":{"ID":300931,"DIS_CODE":0,"TOWNNAME":"關廟區","LI":"埤頭里","LIN":"5鄰","STREET":"關新路","SECT":"二段","MAREA":" ","LANE":" ","ALLEY":" ","HOUSE_NO":"３８之１號","E_COORD97":179225.23551200001,"N_COORD97":2544160.8731900002,"ADDRESS":"關新路二段３８之１號","OBJECTID":300923},"geometry":{"x":179225.23551200051,"y":2544160.873190999}},{"attributes":{"ID":300932,"DIS_CODE":0,"TOWNNAME":"新營區","LI":"興安里","LIN":"6鄰","STREET":"工業街","SECT":" ","MAREA":" ","LANE":" ","ALLEY":" ","HOUSE_NO":"７１之１２號","E_COORD97":180812.498211,"N_COORD97":2577857.0283300001,"ADDRESS":"工業街７１之１２號","OBJECTID":300924},"geometry":{"x":180812.49821100198,"y":2577857.0283310004}},{"attributes":{"ID":300933,"DIS_CODE":0,"TOWNNAME":"關廟區","LI":"埤頭里","LIN":"12鄰","STREET":"保東路","SECT":" ","MAREA":" ","LANE":" ","ALLEY":" ","HOUSE_NO":"２１６號","E_COORD97":178665.90552,"N_COORD97":2544096.6323899999,"ADDRESS":"保東路２１６號","OBJECTID":300925},"geometry":{"x":178665.90551999956,"y":2544096.6323900018}},{"attributes":{"ID":300934,"DIS_CODE":0,"TOWNNAME":"關廟區","LI":"埤頭里","LIN":"5鄰","STREET":"關新路","SECT":"二段","MAREA":" ","LANE":" ","ALLEY":" ","HOUSE_NO":"３８之２號","E_COORD97":179206.59117900001,"N_COORD97":2544198.9731700001,"ADDRESS":"關新路二段３８之２號","OBJECTID":300926},"geometry":{"x":179206.59117900021,"y":2544198.9731700029}},{"attributes":{"ID":300935,"DIS_CODE":0,"TOWNNAME":"新營區","LI":"興安里","LIN":"6鄰","STREET":"工業街","SECT":" ","MAREA":" ","LANE":" ","ALLEY":" ","HOUSE_NO":"５５號之９","E_COORD97":180698.614719,"N_COORD97":2577838.93084,"ADDRESS":"工業街５５號之９","OBJECTID":300927},"geometry":{"x":180698.61471900158,"y":2577838.9308400024}},{"attributes":{"ID":300936,"DIS_CODE":0,"TOWNNAME":"新營區","LI":"興安里","LIN":"5鄰","STREET":"工業街","SECT":" ","MAREA":" ","LANE":" ","ALLEY":" ","HOUSE_NO":"６５號","E_COORD97":180618.04206099999,"N_COORD97":2577852.7949999999,"ADDRESS":"工業街６５號","OBJECTID":300928},"geometry":{"x":180618.04206100013,"y":2577852.7949999981}},{"attributes":{"ID":300937,"DIS_CODE":0,"TOWNNAME":"新營區","LI":"興安里","LIN":"5鄰","STREET":"工業街","SECT":" ","MAREA":" ","LANE":" ","ALLEY":" ","HOUSE_NO":"６７之１號","E_COORD97":180592.402898,"N_COORD97":2577872.2683199998,"ADDRESS":"工業街６７之１號","OBJECTID":300929},"geometry":{"x":180592.40289800055,"y":2577872.2683219984}},{"attributes":{"ID":300938,"DIS_CODE":0,"TOWNNAME":"新營區","LI":"興安里","LIN":"5鄰","STREET":"工業街","SECT":" ","MAREA":" ","LANE":" ","ALLEY":" ","HOUSE_NO":"６９號","E_COORD97":180640.60876199999,"N_COORD97":2577841.78834,"ADDRESS":"工業街６９號","OBJECTID":300930},"geometry":{"x":180640.60876199976,"y":2577841.7883390002}},{"attributes":{"ID":300939,"DIS_CODE":0,"TOWNNAME":"安南區","LI":"\u25A0田里","LIN":"1鄰","STREET":"\u25A0安一街","SECT":" ","MAREA":" ","LANE":" ","ALLEY":" ","HOUSE_NO":"１０號","E_COORD97":162390.69,"N_COORD97":2548244.8500000001,"ADDRESS":"\u25A0安一街１０號","OBJECTID":300931},"geometry":{"x":162390.69000000041,"y":2548244.8499999996}},{"attributes":{"ID":300940,"DIS_CODE":0,"TOWNNAME":"東區","LI":"龍山里","LIN":"12鄰","STREET":"東門路","SECT":"一段","MAREA":" ","LANE":" ","ALLEY":" ","HOUSE_NO":"３５２號","E_COORD97":169826.43119599999,"N_COORD97":2543010.7469899999,"ADDRESS":"東門路一段３５２號","OBJECTID":300932},"geometry":{"x":169826.43119600136,"y":2543010.7469900008}},{"attributes":{"ID":300941,"DIS_CODE":0,"TOWNNAME":"北區","LI":"長榮里","LIN":"20鄰","STREET":"開元路","SECT":" ","MAREA":" ","LANE":"３３３巷","ALLEY":" ","HOUSE_NO":"１５號","E_COORD97":170169.10000000001,"N_COORD97":2545466.6699999999,"ADDRESS":"開元路３３３巷１５號","OBJECTID":300933},"geometry":{"x":170169.10000000056,"y":2545466.6699999999}},{"attributes":{"ID":300942,"DIS_CODE":0,"TOWNNAME":"北區","LI":"長榮里","LIN":"20鄰","STREET":"開元路","SECT":" ","MAREA":" ","LANE":"３３３巷","ALLEY":" ","HOUSE_NO":"１７號","E_COORD97":170163.23000000001,"N_COORD97":2545471.1200000001,"ADDRESS":"開元路３３３巷１７號","OBJECTID":300934},"geometry":{"x":170163.23000000045,"y":2545471.120000001}},{"attributes":{"ID":300943,"DIS_CODE":0,"TOWNNAME":"北區","LI":"長榮里","LIN":"20鄰","STREET":"開元路","SECT":" ","MAREA":" ","LANE":"３３３巷","ALLEY":" ","HOUSE_NO":"１９號","E_COORD97":170158.14999999999,"N_COORD97":2545475.25,"ADDRESS":"開元路３３３巷１９號","OBJECTID":300935},"geometry":{"x":170158.15000000037,"y":2545475.2500000019}},{"attributes":{"ID":300944,"DIS_CODE":0,"TOWNNAME":"北區","LI":"長榮里","LIN":"20鄰","STREET":"開元路","SECT":" ","MAREA":" ","LANE":"３３３巷","ALLEY":" ","HOUSE_NO":"２１號","E_COORD97":170153.23000000001,"N_COORD97":2545478.8999999999,"ADDRESS":"開元路３３３巷２１號","OBJECTID":300936},"geometry":{"x":170153.23000000231,"y":2545478.9000000004}},{"attributes":{"ID":300945,"DIS_CODE":0,"TOWNNAME":"北區","LI":"長榮里","LIN":"20鄰","STREET":"開元路","SECT":" ","MAREA":" ","LANE":"３３３巷","ALLEY":" ","HOUSE_NO":"２３號","E_COORD97":170147.51000000001,"N_COORD97":2545483.1800000002,"ADDRESS":"開元路３３３巷２３號","OBJECTID":300937},"geometry":{"x":170147.51000000071,"y":2545483.1799999997}},{"attributes":{"ID":300946,"DIS_CODE":0,"TOWNNAME":"北區","LI":"長榮里","LIN":"18鄰","STREET":"長榮路","SECT":"五段","MAREA":" ","LANE":"４１巷","ALLEY":" ","HOUSE_NO":"５２號","E_COORD97":169946.66,"N_COORD97":2545544.25,"ADDRESS":"長榮路五段４１巷５２號","OBJECTID":300938},"geometry":{"x":169946.66000000201,"y":2545544.25}},{"attributes":{"ID":300947,"DIS_CODE":0,"TOWNNAME":"東區","LI":"東聖里","LIN":"8鄰","STREET":"富農街","SECT":"二段","MAREA":" ","LANE":"４３巷","ALLEY":" ","HOUSE_NO":"１０號二樓之１","E_COORD97":171590.57999999999,"N_COORD97":2542971.5800000001,"ADDRESS":"富農街二段４３巷１０號二樓之１","OBJECTID":300939},"geometry":{"x":171590.58000000007,"y":2542971.5800000001}},{"attributes":{"ID":300948,"DIS_CODE":0,"TOWNNAME":"東區","LI":"東聖里","LIN":"8鄰","STREET":"富農街","SECT":"二段","MAREA":" ","LANE":"４３巷","ALLEY":" ","HOUSE_NO":"１０號二樓之２","E_COORD97":171590.57999999999,"N_COORD97":2542971.5800000001,"ADDRESS":"富農街二段４３巷１０號二樓之２","OBJECTID":300940},"geometry":{"x":171590.58000000007,"y":2542971.5800000001}},{"attributes":{"ID":300949,"DIS_CODE":0,"TOWNNAME":"東區","LI":"東聖里","LIN":"8鄰","STREET":"富農街","SECT":"二段","MAREA":" ","LANE":"４３巷","ALLEY":" ","HOUSE_NO":"１０號三樓之２","E_COORD97":171590.57999999999,"N_COORD97":2542971.5800000001,"ADDRESS":"富農街二段４３巷１０號三樓之２","OBJECTID":300941},"geometry":{"x":171590.58000000007,"y":2542971.5800000001}},{"attributes":{"ID":300950,"DIS_CODE":0,"TOWNNAME":"東區","LI":"東聖里","LIN":"8鄰","STREET":"富農街","SECT":"二段","MAREA":" ","LANE":"４３巷","ALLEY":" ","HOUSE_NO":"１０號五樓之２","E_COORD97":171590.57999999999,"N_COORD97":2542971.5800000001,"ADDRESS":"富農街二段４３巷１０號五樓之２","OBJECTID":300942},"geometry":{"x":171590.58000000007,"y":2542971.5800000001}},{"attributes":{"ID":300951,"DIS_CODE":0,"TOWNNAME":"東區","LI":"東聖里","LIN":"8鄰","STREET":"富農街","SECT":"二段","MAREA":" ","LANE":"４３巷","ALLEY":" ","HOUSE_NO":"１０號五樓之３","E_COORD97":171590.57999999999,"N_COORD97":2542971.5800000001,"ADDRESS":"富農街二段４３巷１０號五樓之３","OBJECTID":300943},"geometry":{"x":171590.58000000007,"y":2542971.5800000001}},{"attributes":{"ID":300952,"DIS_CODE":0,"TOWNNAME":"東區","LI":"東聖里","LIN":"8鄰","STREET":"富農街","SECT":"二段","MAREA":" ","LANE":"４３巷","ALLEY":" ","HOUSE_NO":"１０號四樓之１","E_COORD97":171590.57999999999,"N_COORD97":2542971.5800000001,"ADDRESS":"富農街二段４３巷１０號四樓之１","OBJECTID":300944},"geometry":{"x":171590.58000000007,"y":2542971.5800000001}},{"attributes":{"ID":300953,"DIS_CODE":0,"TOWNNAME":"東區","LI":"東聖里","LIN":"8鄰","STREET":"富農街","SECT":"二段","MAREA":" ","LANE":"４３巷","ALLEY":" ","HOUSE_NO":"１０號四樓之２","E_COORD97":171590.57999999999,"N_COORD97":2542971.5800000001,"ADDRESS":"富農街二段４３巷１０號四樓之２","OBJECTID":300945},"geometry":{"x":171590.58000000007,"y":2542971.5800000001}},{"attributes":{"ID":300954,"DIS_CODE":0,"TOWNNAME":"東區","LI":"東聖里","LIN":"8鄰","STREET":"富農街","SECT":"二段","MAREA":" ","LANE":"４３巷","ALLEY":" ","HOUSE_NO":"１０號四樓之３","E_COORD97":171590.57999999999,"N_COORD97":2542971.5800000001,"ADDRESS":"富農街二段４３巷１０號四樓之３","OBJECTID":300946},"geometry":{"x":171590.58000000007,"y":2542971.5800000001}},{"attributes":{"ID":300955,"DIS_CODE":0,"TOWNNAME":"東區","LI":"東聖里","LIN":"8鄰","STREET":"富農街","SECT":"二段","MAREA":" ","LANE":"４３巷","ALLEY":" ","HOUSE_NO":"１２號二樓之１","E_COORD97":171602.85999999999,"N_COORD97":2542971.3999999999,"ADDRESS":"富農街二段４３巷１２號二樓之１","OBJECTID":300947},"geometry":{"x":171602.86000000034,"y":2542971.4000000022}},{"attributes":{"ID":300956,"DIS_CODE":0,"TOWNNAME":"永康區","LI":"西橋里","LIN":"14鄰","STREET":"中華西街","SECT":" ","MAREA":" ","LANE":" ","ALLEY":" ","HOUSE_NO":"２１１號","E_COORD97":170626.28,"N_COORD97":2546366.4900000002,"ADDRESS":"中華西街２１１號","OBJECTID":300948},"geometry":{"x":170626.28000000119,"y":2546366.4900000002}},{"attributes":{"ID":300957,"DIS_CODE":0,"TOWNNAME":"南區","LI":"郡南里","LIN":"17鄰","STREET":"永成路","SECT":"三段","MAREA":" ","LANE":"７巷","ALLEY":" ","HOUSE_NO":"１２號","E_COORD97":167466.25030399999,"N_COORD97":2540349.227,"ADDRESS":"永成路三段７巷１２號","OBJECTID":300949},"geometry":{"x":167466.25030400045,"y":2540349.2269990016}},{"attributes":{"ID":300958,"DIS_CODE":0,"TOWNNAME":"南區","LI":"郡南里","LIN":"17鄰","STREET":"永成路","SECT":"三段","MAREA":" ","LANE":"７巷","ALLEY":" ","HOUSE_NO":"２０號","E_COORD97":167458.838212,"N_COORD97":2540347.6395,"ADDRESS":"永成路三段７巷２０號","OBJECTID":300950},"geometry":{"x":167458.83821200021,"y":2540347.6394999996}},{"attributes":{"ID":300959,"DIS_CODE":0,"TOWNNAME":"南區","LI":"郡南里","LIN":"17鄰","STREET":"永成路","SECT":"三段","MAREA":" ","LANE":"７巷","ALLEY":" ","HOUSE_NO":"２６號","E_COORD97":167447.93184800001,"N_COORD97":2540346.5811700001,"ADDRESS":"永成路三段７巷２６號","OBJECTID":300951},"geometry":{"x":167447.93184800074,"y":2540346.5811679997}},{"attributes":{"ID":300960,"DIS_CODE":0,"TOWNNAME":"仁德區","LI":"後壁里","LIN":"14鄰","STREET":"德南路","SECT":" ","MAREA":" ","LANE":"１３７巷","ALLEY":" ","HOUSE_NO":"９號","E_COORD97":173578.24870699999,"N_COORD97":2538666.90619,"ADDRESS":"德南路１３７巷９號","OBJECTID":300952},"geometry":{"x":173578.2487070011,"y":2538666.9061860014}},{"attributes":{"ID":300961,"DIS_CODE":0,"TOWNNAME":"仁德區","LI":"後壁里","LIN":"14鄰","STREET":"德南路","SECT":" ","MAREA":" ","LANE":"１３７巷","ALLEY":" ","HOUSE_NO":"７號","E_COORD97":173570.41197399999,"N_COORD97":2538655.6878599999,"ADDRESS":"德南路１３７巷７號","OBJECTID":300953},"geometry":{"x":173570.41197400074,"y":2538655.6878580004}},{"attributes":{"ID":300962,"DIS_CODE":0,"TOWNNAME":"東區","LI":"東聖里","LIN":"8鄰","STREET":"富農街","SECT":"二段","MAREA":" ","LANE":"４３巷","ALLEY":" ","HOUSE_NO":"１２號二樓之２","E_COORD97":171602.85999999999,"N_COORD97":2542971.3999999999,"ADDRESS":"富農街二段４３巷１２號二樓之２","OBJECTID":300954},"geometry":{"x":171602.86000000034,"y":2542971.4000000022}},{"attributes":{"ID":300963,"DIS_CODE":0,"TOWNNAME":"北區","LI":"長榮里","LIN":"14鄰","STREET":"長榮路","SECT":"五段","MAREA":" ","LANE":"４１巷","ALLEY":" ","HOUSE_NO":"７６號","E_COORD97":169841.41,"N_COORD97":2545632.75,"ADDRESS":"長榮路五段４１巷７６號","OBJECTID":300955},"geometry":{"x":169841.41000000201,"y":2545632.7499999981}},{"attributes":{"ID":300964,"DIS_CODE":0,"TOWNNAME":"北區","LI":"長榮里","LIN":"14鄰","STREET":"長榮路","SECT":"五段","MAREA":" ","LANE":"４１巷","ALLEY":" ","HOUSE_NO":"７２號","E_COORD97":169847.92000000001,"N_COORD97":2545621.7200000002,"ADDRESS":"長榮路五段４１巷７２號","OBJECTID":300956},"geometry":{"x":169847.92000000179,"y":2545621.7200000025}},{"attributes":{"ID":300965,"DIS_CODE":0,"TOWNNAME":"東區","LI":"東聖里","LIN":"8鄰","STREET":"富農街","SECT":"二段","MAREA":" ","LANE":"４３巷","ALLEY":" ","HOUSE_NO":"１２號三樓之２","E_COORD97":171602.85999999999,"N_COORD97":2542971.3999999999,"ADDRESS":"富農街二段４３巷１２號三樓之２","OBJECTID":300957},"geometry":{"x":171602.86000000034,"y":2542971.4000000022}},{"attributes":{"ID":300966,"DIS_CODE":0,"TOWNNAME":"東區","LI":"東聖里","LIN":"8鄰","STREET":"富農街","SECT":"二段","MAREA":" ","LANE":"４３巷","ALLEY":" ","HOUSE_NO":"１２號五樓之２","E_COORD97":171602.85999999999,"N_COORD97":2542971.3999999999,"ADDRESS":"富農街二段４３巷１２號五樓之２","OBJECTID":300958},"geometry":{"x":171602.86000000034,"y":2542971.4000000022}},{"attributes":{"ID":300967,"DIS_CODE":0,"TOWNNAME":"東區","LI":"東聖里","LIN":"8鄰","STREET":"富農街","SECT":"二段","MAREA":" ","LANE":"４３巷","ALLEY":" ","HOUSE_NO":"１２號四樓之２","E_COORD97":171602.85999999999,"N_COORD97":2542971.3999999999,"ADDRESS":"富農街二段４３巷１２號四樓之２","OBJECTID":300959},"geometry":{"x":171602.86000000034,"y":2542971.4000000022}},{"attributes":{"ID":300968,"DIS_CODE":0,"TOWNNAME":"東區","LI":"東聖里","LIN":"8鄰","STREET":"富農街","SECT":"二段","MAREA":" ","LANE":"４３巷","ALLEY":" ","HOUSE_NO":"１２號四樓之３","E_COORD97":171602.85999999999,"N_COORD97":2542971.3999999999,"ADDRESS":"富農街二段４３巷１２號四樓之３","OBJECTID":300960},"geometry":{"x":171602.86000000034,"y":2542971.4000000022}},{"attributes":{"ID":300969,"DIS_CODE":0,"TOWNNAME":"東區","LI":"東聖里","LIN":"8鄰","STREET":"富農街","SECT":"二段","MAREA":" ","LANE":"４３巷","ALLEY":" ","HOUSE_NO":"１４號二樓","E_COORD97":171611.98000000001,"N_COORD97":2542972.7000000002,"ADDRESS":"富農街二段４３巷１４號二樓","OBJECTID":300961},"geometry":{"x":171611.98000000045,"y":2542972.7000000011}},{"attributes":{"ID":300970,"DIS_CODE":0,"TOWNNAME":"東區","LI":"東聖里","LIN":"8鄰","STREET":"富農街","SECT":"二段","MAREA":" ","LANE":"４３巷","ALLEY":" ","HOUSE_NO":"１４號三樓","E_COORD97":171611.98000000001,"N_COORD97":2542972.7000000002,"ADDRESS":"富農街二段４３巷１４號三樓","OBJECTID":300962},"geometry":{"x":171611.98000000045,"y":2542972.7000000011}},{"attributes":{"ID":300971,"DIS_CODE":0,"TOWNNAME":"東區","LI":"東聖里","LIN":"8鄰","STREET":"富農街","SECT":"二段","MAREA":" ","LANE":"４３巷","ALLEY":" ","HOUSE_NO":"１４號五樓","E_COORD97":171611.98000000001,"N_COORD97":2542972.7000000002,"ADDRESS":"富農街二段４３巷１４號五樓","OBJECTID":300963},"geometry":{"x":171611.98000000045,"y":2542972.7000000011}},{"attributes":{"ID":300972,"DIS_CODE":0,"TOWNNAME":"東區","LI":"東聖里","LIN":"8鄰","STREET":"富農街","SECT":"二段","MAREA":" ","LANE":"４３巷","ALLEY":" ","HOUSE_NO":"１４號四樓","E_COORD97":171611.98000000001,"N_COORD97":2542972.7000000002,"ADDRESS":"富農街二段４３巷１４號四樓","OBJECTID":300964},"geometry":{"x":171611.98000000045,"y":2542972.7000000011}},{"attributes":{"ID":300973,"DIS_CODE":0,"TOWNNAME":"東區","LI":"東聖里","LIN":"8鄰","STREET":"富農街","SECT":"二段","MAREA":" ","LANE":"４３巷","ALLEY":" ","HOUSE_NO":"１６號二樓之３","E_COORD97":171619.51000000001,"N_COORD97":2542973.6299999999,"ADDRESS":"富農街二段４３巷１６號二樓之３","OBJECTID":300965},"geometry":{"x":171619.50999999978,"y":2542973.629999999}},{"attributes":{"ID":300974,"DIS_CODE":0,"TOWNNAME":"東區","LI":"東聖里","LIN":"8鄰","STREET":"富農街","SECT":"二段","MAREA":" ","LANE":"４３巷","ALLEY":" ","HOUSE_NO":"１６號三樓之２","E_COORD97":171619.51000000001,"N_COORD97":2542973.6299999999,"ADDRESS":"富農街二段４３巷１６號三樓之２","OBJECTID":300966},"geometry":{"x":171619.50999999978,"y":2542973.629999999}},{"attributes":{"ID":300975,"DIS_CODE":0,"TOWNNAME":"東區","LI":"東聖里","LIN":"8鄰","STREET":"富農街","SECT":"二段","MAREA":" ","LANE":"４３巷","ALLEY":" ","HOUSE_NO":"１６號三樓之３","E_COORD97":171619.51000000001,"N_COORD97":2542973.6299999999,"ADDRESS":"富農街二段４３巷１６號三樓之３","OBJECTID":300967},"geometry":{"x":171619.50999999978,"y":2542973.629999999}},{"attributes":{"ID":300976,"DIS_CODE":0,"TOWNNAME":"北區","LI":"長榮里","LIN":"4鄰","STREET":"長榮路","SECT":"五段","MAREA":" ","LANE":"４１巷","ALLEY":" ","HOUSE_NO":"３２號","E_COORD97":169927.14000000001,"N_COORD97":2545620.6099999999,"ADDRESS":"長榮路五段４１巷３２號","OBJECTID":300968},"geometry":{"x":169927.13999999966,"y":2545620.6100000013}},{"attributes":{"ID":300977,"DIS_CODE":0,"TOWNNAME":"東區","LI":"東聖里","LIN":"8鄰","STREET":"富農街","SECT":"二段","MAREA":" ","LANE":"４３巷","ALLEY":" ","HOUSE_NO":"１６號五樓之３","E_COORD97":171619.51000000001,"N_COORD97":2542973.6299999999,"ADDRESS":"富農街二段４３巷１６號五樓之３","OBJECTID":300969},"geometry":{"x":171619.50999999978,"y":2542973.629999999}},{"attributes":{"ID":300978,"DIS_CODE":0,"TOWNNAME":"東區","LI":"東聖里","LIN":"8鄰","STREET":"富農街","SECT":"二段","MAREA":" ","LANE":"４３巷","ALLEY":" ","HOUSE_NO":"１６號四樓之２","E_COORD97":171619.51000000001,"N_COORD97":2542973.6299999999,"ADDRESS":"富農街二段４３巷１６號四樓之２","OBJECTID":300970},"geometry":{"x":171619.50999999978,"y":2542973.629999999}},{"attributes":{"ID":300979,"DIS_CODE":0,"TOWNNAME":"後壁區","LI":"仕安里","LIN":"4鄰","STREET":" ","SECT":" ","MAREA":"下長","LANE":" ","ALLEY":" ","HOUSE_NO":"２６號之１","E_COORD97":180591.66,"N_COORD97":2583940.6499999999,"ADDRESS":"下長２６號之１","OBJECTID":300971},"geometry":{"x":180591.66000000015,"y":2583940.6500000004}},{"attributes":{"ID":300980,"DIS_CODE":0,"TOWNNAME":"仁德區","LI":"後壁里","LIN":"4鄰","STREET":"德善一街","SECT":" ","MAREA":" ","LANE":"２７巷","ALLEY":" ","HOUSE_NO":"１７號","E_COORD97":173381.39430499999,"N_COORD97":2538999.77067,"ADDRESS":"德善一街２７巷１７號","OBJECTID":300972},"geometry":{"x":173381.39430500194,"y":2538999.770665003}},{"attributes":{"ID":300981,"DIS_CODE":0,"TOWNNAME":"仁德區","LI":"上崙里","LIN":"1鄰","STREET":"德崙路","SECT":" ","MAREA":" ","LANE":"７７巷","ALLEY":" ","HOUSE_NO":"８４號二樓之２","E_COORD97":173598.74978000001,"N_COORD97":2538465.4086500001,"ADDRESS":"德崙路７７巷８４號二樓之２","OBJECTID":300973},"geometry":{"x":173598.74978000019,"y":2538465.4086499996}},{"attributes":{"ID":300982,"DIS_CODE":0,"TOWNNAME":"關廟區","LI":"布袋里","LIN":"7鄰","STREET":"南雄南路","SECT":" ","MAREA":" ","LANE":" ","ALLEY":" ","HOUSE_NO":"３９９號","E_COORD97":183768.50977199999,"N_COORD97":2534680.7194599998,"ADDRESS":"南雄南路３９９號","OBJECTID":300974},"geometry":{"x":183768.5097719999,"y":2534680.719464004}},{"attributes":{"ID":300983,"DIS_CODE":0,"TOWNNAME":"關廟區","LI":"布袋里","LIN":"7鄰","STREET":"南雄南路","SECT":" ","MAREA":" ","LANE":" ","ALLEY":" ","HOUSE_NO":"４１０號","E_COORD97":183752.29629900001,"N_COORD97":2534636.3753200001,"ADDRESS":"南雄南路４１０號","OBJECTID":300975},"geometry":{"x":183752.2962990012,"y":2534636.3753220029}},{"attributes":{"ID":300984,"DIS_CODE":0,"TOWNNAME":"關廟區","LI":"布袋里","LIN":"6鄰","STREET":"南雄南路","SECT":" ","MAREA":" ","LANE":" ","ALLEY":" ","HOUSE_NO":"３８６號","E_COORD97":183734.28132899999,"N_COORD97":2534715.4327799999,"ADDRESS":"南雄南路３８６號","OBJECTID":300976},"geometry":{"x":183734.2813290013,"y":2534715.4327789992}},{"attributes":{"ID":300985,"DIS_CODE":0,"TOWNNAME":"關廟區","LI":"布袋里","LIN":"6鄰","STREET":"南雄南路","SECT":" ","MAREA":" ","LANE":" ","ALLEY":" ","HOUSE_NO":"３８０號","E_COORD97":183731.84,"N_COORD97":2534727.2999999998,"ADDRESS":"南雄南路３８０號","OBJECTID":300977},"geometry":{"x":183731.83999999985,"y":2534727.3000000026}},{"attributes":{"ID":300986,"DIS_CODE":0,"TOWNNAME":"關廟區","LI":"布袋里","LIN":"6鄰","STREET":"南雄南路","SECT":" ","MAREA":" ","LANE":" ","ALLEY":" ","HOUSE_NO":"３５０號","E_COORD97":183634.66914099999,"N_COORD97":2534897.5718499999,"ADDRESS":"南雄南路３５０號","OBJECTID":300978},"geometry":{"x":183634.66914100107,"y":2534897.5718469992}},{"attributes":{"ID":300987,"DIS_CODE":0,"TOWNNAME":"仁德區","LI":"仁和里","LIN":"9鄰","STREET":"二空路","SECT":" ","MAREA":" ","LANE":" ","ALLEY":" ","HOUSE_NO":"９２號","E_COORD97":170381.239,"N_COORD97":2540026.09467,"ADDRESS":"二空路９２號","OBJECTID":300979},"geometry":{"x":170381.23900000099,"y":2540026.0946699996}},{"attributes":{"ID":300988,"DIS_CODE":0,"TOWNNAME":"仁德區","LI":"仁和里","LIN":"9鄰","STREET":"二空路","SECT":" ","MAREA":" ","LANE":" ","ALLEY":" ","HOUSE_NO":"９６號","E_COORD97":170380.83900000001,"N_COORD97":2540033.7146700001,"ADDRESS":"二空路９６號","OBJECTID":300980},"geometry":{"x":170380.83899999969,"y":2540033.7146700006}},{"attributes":{"ID":300989,"DIS_CODE":0,"TOWNNAME":"東區","LI":"東聖里","LIN":"8鄰","STREET":"富農街","SECT":"二段","MAREA":" ","LANE":"４３巷","ALLEY":" ","HOUSE_NO":"１６號四樓之３","E_COORD97":171619.51000000001,"N_COORD97":2542973.6299999999,"ADDRESS":"富農街二段４３巷１６號四樓之３","OBJECTID":300981},"geometry":{"x":171619.50999999978,"y":2542973.629999999}},{"attributes":{"ID":300990,"DIS_CODE":0,"TOWNNAME":"東區","LI":"東聖里","LIN":"8鄰","STREET":"富農街","SECT":"二段","MAREA":" ","LANE":"４３巷","ALLEY":" ","HOUSE_NO":"１８號三樓之１","E_COORD97":171620.44,"N_COORD97":2542984.9700000002,"ADDRESS":"富農街二段４３巷１８號三樓之１","OBJECTID":300982},"geometry":{"x":171620.44000000134,"y":2542984.9700000025}},{"attributes":{"ID":300991,"DIS_CODE":0,"TOWNNAME":"東區","LI":"東聖里","LIN":"8鄰","STREET":"富農街","SECT":"二段","MAREA":" ","LANE":"４３巷","ALLEY":" ","HOUSE_NO":"１８號三樓之２","E_COORD97":171620.44,"N_COORD97":2542984.9700000002,"ADDRESS":"富農街二段４３巷１８號三樓之２","OBJECTID":300983},"geometry":{"x":171620.44000000134,"y":2542984.9700000025}},{"attributes":{"ID":300992,"DIS_CODE":0,"TOWNNAME":"東區","LI":"東聖里","LIN":"8鄰","STREET":"富農街","SECT":"二段","MAREA":" ","LANE":"４３巷","ALLEY":" ","HOUSE_NO":"１８號五樓之２","E_COORD97":171620.44,"N_COORD97":2542984.9700000002,"ADDRESS":"富農街二段４３巷１８號五樓之２","OBJECTID":300984},"geometry":{"x":171620.44000000134,"y":2542984.9700000025}},{"attributes":{"ID":300993,"DIS_CODE":0,"TOWNNAME":"東區","LI":"東聖里","LIN":"8鄰","STREET":"富農街","SECT":"二段","MAREA":" ","LANE":"４３巷","ALLEY":" ","HOUSE_NO":"１８號五樓之４","E_COORD97":171620.44,"N_COORD97":2542984.9700000002,"ADDRESS":"富農街二段４３巷１８號五樓之４","OBJECTID":300985},"geometry":{"x":171620.44000000134,"y":2542984.9700000025}},{"attributes":{"ID":300994,"DIS_CODE":0,"TOWNNAME":"東區","LI":"東聖里","LIN":"8鄰","STREET":"富農街","SECT":"二段","MAREA":" ","LANE":"４３巷","ALLEY":" ","HOUSE_NO":"１８號四樓之１","E_COORD97":171620.44,"N_COORD97":2542984.9700000002,"ADDRESS":"富農街二段４３巷１８號四樓之１","OBJECTID":300986},"geometry":{"x":171620.44000000134,"y":2542984.9700000025}},{"attributes":{"ID":300995,"DIS_CODE":0,"TOWNNAME":"東區","LI":"東聖里","LIN":"8鄰","STREET":"富農街","SECT":"二段","MAREA":" ","LANE":"４３巷","ALLEY":" ","HOUSE_NO":"１８號四樓之２","E_COORD97":171620.44,"N_COORD97":2542984.9700000002,"ADDRESS":"富農街二段４３巷１８號四樓之２","OBJECTID":300987},"geometry":{"x":171620.44000000134,"y":2542984.9700000025}},{"attributes":{"ID":300996,"DIS_CODE":0,"TOWNNAME":"東區","LI":"東聖里","LIN":"8鄰","STREET":"富農街","SECT":"二段","MAREA":" ","LANE":"４３巷","ALLEY":" ","HOUSE_NO":"１８號四樓之４","E_COORD97":171620.44,"N_COORD97":2542984.9700000002,"ADDRESS":"富農街二段４３巷１８號四樓之４","OBJECTID":300988},"geometry":{"x":171620.44000000134,"y":2542984.9700000025}},{"attributes":{"ID":300997,"DIS_CODE":0,"TOWNNAME":"東區","LI":"東聖里","LIN":"8鄰","STREET":"富農街","SECT":"二段","MAREA":" ","LANE":"４３巷","ALLEY":" ","HOUSE_NO":"２０號二樓之２","E_COORD97":171618.76000000001,"N_COORD97":2542995.1899999999,"ADDRESS":"富農街二段４３巷２０號二樓之２","OBJECTID":300989},"geometry":{"x":171618.76000000164,"y":2542995.1900000032}},{"attributes":{"ID":300998,"DIS_CODE":0,"TOWNNAME":"東區","LI":"東聖里","LIN":"8鄰","STREET":"富農街","SECT":"二段","MAREA":" ","LANE":"４３巷","ALLEY":" ","HOUSE_NO":"２０號三樓之２","E_COORD97":171618.76000000001,"N_COORD97":2542995.1899999999,"ADDRESS":"富農街二段４３巷２０號三樓之２","OBJECTID":300990},"geometry":{"x":171618.76000000164,"y":2542995.1900000032}},{"attributes":{"ID":300999,"DIS_CODE":0,"TOWNNAME":"東區","LI":"東聖里","LIN":"8鄰","STREET":"富農街","SECT":"二段","MAREA":" ","LANE":"４３巷","ALLEY":" ","HOUSE_NO":"２０號五樓之３","E_COORD97":171618.76000000001,"N_COORD97":2542995.1899999999,"ADDRESS":"富農街二段４３巷２０號五樓之３","OBJECTID":300991},"geometry":{"x":171618.76000000164,"y":2542995.1900000032}},{"attributes":{"ID":301000,"DIS_CODE":0,"TOWNNAME":"東區","LI":"東聖里","LIN":"8鄰","STREET":"富農街","SECT":"二段","MAREA":" ","LANE":"４３巷","ALLEY":" ","HOUSE_NO":"２０號四樓之２","E_COORD97":171618.76000000001,"N_COORD97":2542995.1899999999,"ADDRESS":"富農街二段４３巷２０號四樓之２","OBJECTID":300992},"geometry":{"x":171618.76000000164,"y":2542995.1900000032}},{"attributes":{"ID":301001,"DIS_CODE":0,"TOWNNAME":"東區","LI":"東聖里","LIN":"8鄰","STREET":"富農街","SECT":"二段","MAREA":" ","LANE":"４３巷","ALLEY":" ","HOUSE_NO":"２０號四樓之３","E_COORD97":171618.76000000001,"N_COORD97":2542995.1899999999,"ADDRESS":"富農街二段４３巷２０號四樓之３","OBJECTID":300993},"geometry":{"x":171618.76000000164,"y":2542995.1900000032}},{"attributes":{"ID":301002,"DIS_CODE":0,"TOWNNAME":"東區","LI":"龍山里","LIN":"3鄰","STREET":"富德街","SECT":" ","MAREA":" ","LANE":" ","ALLEY":" ","HOUSE_NO":"４５號","E_COORD97":170349.553831,"N_COORD97":2542833.4961299999,"ADDRESS":"富德街４５號","OBJECTID":300994},"geometry":{"x":170349.55383099988,"y":2542833.4961270001}},{"attributes":{"ID":301003,"DIS_CODE":0,"TOWNNAME":"關廟區","LI":"東勢里","LIN":"6鄰","STREET":"松安街","SECT":" ","MAREA":" ","LANE":" ","ALLEY":" ","HOUSE_NO":"９３號","E_COORD97":181917.43625299999,"N_COORD97":2539617.1327300002,"ADDRESS":"松安街９３號","OBJECTID":300995},"geometry":{"x":181917.43625300098,"y":2539617.1327290013}},{"attributes":{"ID":301004,"DIS_CODE":0,"TOWNNAME":"關廟區","LI":"東勢里","LIN":"2鄰","STREET":"東興路","SECT":" ","MAREA":" ","LANE":" ","ALLEY":" ","HOUSE_NO":"１２３號","E_COORD97":181504.07347599999,"N_COORD97":2539572.5769199999,"ADDRESS":"東興路１２３號","OBJECTID":300996},"geometry":{"x":181504.07347600069,"y":2539572.576919999}},{"attributes":{"ID":301005,"DIS_CODE":0,"TOWNNAME":"東區","LI":"東聖里","LIN":"8鄰","STREET":"富農街","SECT":"二段","MAREA":" ","LANE":"４３巷","ALLEY":" ","HOUSE_NO":"８號二樓","E_COORD97":171575.32999999999,"N_COORD97":2542969.9100000001,"ADDRESS":"富農街二段４３巷８號二樓","OBJECTID":300997},"geometry":{"x":171575.33000000007,"y":2542969.9100000001}},{"attributes":{"ID":301006,"DIS_CODE":0,"TOWNNAME":"東區","LI":"東聖里","LIN":"8鄰","STREET":"富農街","SECT":"二段","MAREA":" ","LANE":"４３巷","ALLEY":" ","HOUSE_NO":"８號三樓之１","E_COORD97":171575.32999999999,"N_COORD97":2542969.9100000001,"ADDRESS":"富農街二段４３巷８號三樓之１","OBJECTID":300998},"geometry":{"x":171575.33000000007,"y":2542969.9100000001}},{"attributes":{"ID":301007,"DIS_CODE":0,"TOWNNAME":"東區","LI":"東聖里","LIN":"8鄰","STREET":"富農街","SECT":"二段","MAREA":" ","LANE":"４３巷","ALLEY":" ","HOUSE_NO":"８號三樓之２","E_COORD97":171575.32999999999,"N_COORD97":2542969.9100000001,"ADDRESS":"富農街二段４３巷８號三樓之２","OBJECTID":300999},"geometry":{"x":171575.33000000007,"y":2542969.9100000001}},{"attributes":{"ID":301008,"DIS_CODE":0,"TOWNNAME":"東區","LI":"東聖里","LIN":"8鄰","STREET":"富農街","SECT":"二段","MAREA":" ","LANE":"４３巷","ALLEY":" ","HOUSE_NO":"８號五樓之１","E_COORD97":171575.32999999999,"N_COORD97":2542969.9100000001,"ADDRESS":"富農街二段４３巷８號五樓之１","OBJECTID":301000},"geometry":{"x":171575.33000000007,"y":2542969.9100000001}}]}