{"displayFieldName":"TOWNNAME","fieldAliases":{"ID":"ID","DIS_CODE":"DIS_CODE","TOWNNAME":"TOWNNAME","LI":"LI","LIN":"LIN","STREET":"STREET","SECT":"SECT","MAREA":"MAREA","LANE":"LANE","ALLEY":"ALLEY","HOUSE_NO":"HOUSE_NO","E_COORD97":"E_COORD97","N_COORD97":"N_COORD97","ADDRESS":"ADDRESS","OBJECTID":"OBJECTID"},"geometryType":"esriGeometryPoint","spatialReference":{"wkid":102443,"latestWkid":3826},"fields":[{"name":"ID","type":"esriFieldTypeDouble","alias":"ID"},{"name":"DIS_CODE","type":"esriFieldTypeInteger","alias":"DIS_CODE"},{"name":"TOWNNAME","type":"esriFieldTypeString","alias":"TOWNNAME","length":8},{"name":"LI","type":"esriFieldTypeString","alias":"LI","length":8},{"name":"LIN","type":"esriFieldTypeString","alias":"LIN","length":12},{"name":"STREET","type":"esriFieldTypeString","alias":"STREET","length":20},{"name":"SECT","type":"esriFieldTypeString","alias":"SECT","length":8},{"name":"MAREA","type":"esriFieldTypeString","alias":"MAREA","length":12},{"name":"LANE","type":"esriFieldTypeString","alias":"LANE","length":10},{"name":"ALLEY","type":"esriFieldTypeString","alias":"ALLEY","length":10},{"name":"HOUSE_NO","type":"esriFieldTypeString","alias":"HOUSE_NO","length":20},{"name":"E_COORD97","type":"esriFieldTypeDouble","alias":"E_COORD97"},{"name":"N_COORD97","type":"esriFieldTypeDouble","alias":"N_COORD97"},{"name":"ADDRESS","type":"esriFieldTypeString","alias":"ADDRESS","length":50},{"name":"OBJECTID","type":"esriFieldTypeOID","alias":"OBJECTID"}],"features":[{"attributes":{"ID":438626,"DIS_CODE":0,"TOWNNAME":"東區","LI":"大德里","LIN":"12鄰","STREET":"立德十路","SECT":" ","MAREA":" ","LANE":"６６巷","ALLEY":" ","HOUSE_NO":"２１號","E_COORD97":169570.82000000001,"N_COORD97":2541995.8300000001,"ADDRESS":"立德十路６６巷２１號","OBJECTID":438601},"geometry":{"x":169570.8200000003,"y":2541995.8300000019}},{"attributes":{"ID":438627,"DIS_CODE":0,"TOWNNAME":"東區","LI":"大德里","LIN":"12鄰","STREET":"立德十路","SECT":" ","MAREA":" ","LANE":"６６巷","ALLEY":" ","HOUSE_NO":"４６號","E_COORD97":169528.13,"N_COORD97":2541996.71,"ADDRESS":"立德十路６６巷４６號","OBJECTID":438602},"geometry":{"x":169528.13000000082,"y":2541996.7100000028}},{"attributes":{"ID":438628,"DIS_CODE":0,"TOWNNAME":"東區","LI":"大德里","LIN":"12鄰","STREET":"立德十路","SECT":" ","MAREA":" ","LANE":"６６巷","ALLEY":" ","HOUSE_NO":"４８號","E_COORD97":169534.32000000001,"N_COORD97":2541997.1000000001,"ADDRESS":"立德十路６６巷４８號","OBJECTID":438603},"geometry":{"x":169534.32000000123,"y":2541997.1000000015}},{"attributes":{"ID":438629,"DIS_CODE":0,"TOWNNAME":"東區","LI":"大德里","LIN":"12鄰","STREET":"立德十路","SECT":" ","MAREA":" ","LANE":"６６巷","ALLEY":" ","HOUSE_NO":"５０號","E_COORD97":169539,"N_COORD97":2541997.7400000002,"ADDRESS":"立德十路６６巷５０號","OBJECTID":438604},"geometry":{"x":169539.00000000186,"y":2541997.7400000002}},{"attributes":{"ID":438630,"DIS_CODE":0,"TOWNNAME":"東區","LI":"大德里","LIN":"13鄰","STREET":"立德十路","SECT":" ","MAREA":" ","LANE":"８０巷","ALLEY":" ","HOUSE_NO":"１０號","E_COORD97":169575.56,"N_COORD97":2542020.5499999998,"ADDRESS":"立德十路８０巷１０號","OBJECTID":438605},"geometry":{"x":169575.56000000052,"y":2542020.5500000007}},{"attributes":{"ID":438631,"DIS_CODE":0,"TOWNNAME":"東區","LI":"大德里","LIN":"13鄰","STREET":"立德十路","SECT":" ","MAREA":" ","LANE":"８０巷","ALLEY":" ","HOUSE_NO":"６號","E_COORD97":169572.10000000001,"N_COORD97":2542033.2000000002,"ADDRESS":"立德十路８０巷６號","OBJECTID":438606},"geometry":{"x":169572.10000000056,"y":2542033.2000000011}},{"attributes":{"ID":438632,"DIS_CODE":0,"TOWNNAME":"東區","LI":"大德里","LIN":"11鄰","STREET":"立德八路","SECT":" ","MAREA":" ","LANE":"３巷","ALLEY":" ","HOUSE_NO":"１６號之６","E_COORD97":169450.32999999999,"N_COORD97":2541957.5099999998,"ADDRESS":"立德八路３巷１６號之６","OBJECTID":438607},"geometry":{"x":169450.33000000194,"y":2541957.5099999998}},{"attributes":{"ID":438633,"DIS_CODE":0,"TOWNNAME":"東區","LI":"大德里","LIN":"11鄰","STREET":"立德八路","SECT":" ","MAREA":" ","LANE":"３巷","ALLEY":" ","HOUSE_NO":"１６號之７","E_COORD97":169453.79000000001,"N_COORD97":2541959.1600000001,"ADDRESS":"立德八路３巷１６號之７","OBJECTID":438608},"geometry":{"x":169453.79000000004,"y":2541959.160000002}},{"attributes":{"ID":438634,"DIS_CODE":0,"TOWNNAME":"東區","LI":"大德里","LIN":"11鄰","STREET":"立德八路","SECT":" ","MAREA":" ","LANE":"３巷","ALLEY":" ","HOUSE_NO":"１６號之８","E_COORD97":169457.76999999999,"N_COORD97":2541958.4900000002,"ADDRESS":"立德八路３巷１６號之８","OBJECTID":438609},"geometry":{"x":169457.77000000048,"y":2541958.4900000002}},{"attributes":{"ID":438635,"DIS_CODE":0,"TOWNNAME":"東區","LI":"大德里","LIN":"6鄰","STREET":"立德十路","SECT":" ","MAREA":" ","LANE":"３０巷","ALLEY":" ","HOUSE_NO":"８號","E_COORD97":169458.38,"N_COORD97":2542014.8999999999,"ADDRESS":"立德十路３０巷８號","OBJECTID":438610},"geometry":{"x":169458.38000000175,"y":2542014.9000000041}},{"attributes":{"ID":438636,"DIS_CODE":0,"TOWNNAME":"東區","LI":"大德里","LIN":" ","STREET":"立德十一路","SECT":" ","MAREA":" ","LANE":"８１巷","ALLEY":" ","HOUSE_NO":"７３號","E_COORD97":169508.17999999999,"N_COORD97":2542228.9399999999,"ADDRESS":"立德十一路８１巷７３號","OBJECTID":438611},"geometry":{"x":169508.1799999997,"y":2542228.9399999995}},{"attributes":{"ID":438637,"DIS_CODE":0,"TOWNNAME":"東區","LI":"大德里","LIN":"17鄰","STREET":"立德十一路","SECT":" ","MAREA":" ","LANE":"８１巷","ALLEY":" ","HOUSE_NO":"２號","E_COORD97":169564.98000000001,"N_COORD97":2542126.5800000001,"ADDRESS":"立德十一路８１巷２號","OBJECTID":438612},"geometry":{"x":169564.98000000231,"y":2542126.5800000019}},{"attributes":{"ID":438638,"DIS_CODE":0,"TOWNNAME":"東區","LI":"大德里","LIN":"17鄰","STREET":"立德十一路","SECT":" ","MAREA":" ","LANE":"８１巷","ALLEY":" ","HOUSE_NO":"４號","E_COORD97":169564.67999999999,"N_COORD97":2542130.9399999999,"ADDRESS":"立德十一路８１巷４號","OBJECTID":438613},"geometry":{"x":169564.68000000063,"y":2542130.9399999995}},{"attributes":{"ID":438639,"DIS_CODE":0,"TOWNNAME":"東區","LI":"大德里","LIN":"17鄰","STREET":"立德十一路","SECT":" ","MAREA":" ","LANE":"８１巷","ALLEY":" ","HOUSE_NO":"８號","E_COORD97":169561.89999999999,"N_COORD97":2542137.6200000001,"ADDRESS":"立德十一路８１巷８號","OBJECTID":438614},"geometry":{"x":169561.90000000037,"y":2542137.6200000029}},{"attributes":{"ID":438640,"DIS_CODE":0,"TOWNNAME":"東區","LI":"大學里","LIN":"20鄰","STREET":"大學路","SECT":" ","MAREA":" ","LANE":"２２巷","ALLEY":" ","HOUSE_NO":"２２號","E_COORD97":170159.26000000001,"N_COORD97":2543908.8300000001,"ADDRESS":"大學路２２巷２２號","OBJECTID":438615},"geometry":{"x":170159.26000000071,"y":2543908.8300000001}},{"attributes":{"ID":438641,"DIS_CODE":0,"TOWNNAME":"東區","LI":"大學里","LIN":"20鄰","STREET":"大學路","SECT":" ","MAREA":" ","LANE":"２２巷","ALLEY":" ","HOUSE_NO":"２４號","E_COORD97":170165.10999999999,"N_COORD97":2543894.7000000002,"ADDRESS":"大學路２２巷２４號","OBJECTID":438616},"geometry":{"x":170165.11000000034,"y":2543894.7000000011}},{"attributes":{"ID":438642,"DIS_CODE":0,"TOWNNAME":"東區","LI":"大學里","LIN":"20鄰","STREET":"大學路","SECT":" ","MAREA":" ","LANE":"２２巷","ALLEY":" ","HOUSE_NO":"２６號","E_COORD97":170166.14000000001,"N_COORD97":2543889.1299999999,"ADDRESS":"大學路２２巷２６號","OBJECTID":438617},"geometry":{"x":170166.13999999966,"y":2543889.129999999}},{"attributes":{"ID":438643,"DIS_CODE":0,"TOWNNAME":"東區","LI":"大學里","LIN":"20鄰","STREET":"大學路","SECT":" ","MAREA":" ","LANE":"２２巷","ALLEY":" ","HOUSE_NO":"２７號","E_COORD97":170186.60000000001,"N_COORD97":2543909.6099999999,"ADDRESS":"大學路２２巷２７號","OBJECTID":438618},"geometry":{"x":170186.59999999963,"y":2543909.6099999994}},{"attributes":{"ID":438644,"DIS_CODE":0,"TOWNNAME":"東區","LI":"大學里","LIN":"8鄰","STREET":"大學路","SECT":" ","MAREA":" ","LANE":"１８巷","ALLEY":" ","HOUSE_NO":"３０號","E_COORD97":170142.92999999999,"N_COORD97":2543798.4399999999,"ADDRESS":"大學路１８巷３０號","OBJECTID":438619},"geometry":{"x":170142.93000000063,"y":2543798.4400000013}},{"attributes":{"ID":438645,"DIS_CODE":0,"TOWNNAME":"東區","LI":"中西里","LIN":" ","STREET":"勝利路","SECT":" ","MAREA":" ","LANE":"５２巷","ALLEY":" ","HOUSE_NO":"１之２號","E_COORD97":169843.10000000001,"N_COORD97":2543564.9900000002,"ADDRESS":"勝利路５２巷１之２號","OBJECTID":438620},"geometry":{"x":169843.10000000149,"y":2543564.9900000021}},{"attributes":{"ID":438646,"DIS_CODE":0,"TOWNNAME":"東區","LI":"中西里","LIN":"5鄰","STREET":"勝利路","SECT":" ","MAREA":" ","LANE":"１２巷","ALLEY":" ","HOUSE_NO":"４４號","E_COORD97":169934.17000000001,"N_COORD97":2543358.7799999998,"ADDRESS":"勝利路１２巷４４號","OBJECTID":438621},"geometry":{"x":169934.16999999993,"y":2543358.7800000012}},{"attributes":{"ID":438647,"DIS_CODE":0,"TOWNNAME":"東區","LI":"新東里","LIN":"14鄰","STREET":"裕豐街","SECT":" ","MAREA":" ","LANE":"１１５巷","ALLEY":" ","HOUSE_NO":"２８號","E_COORD97":170683.07999999999,"N_COORD97":2543018.2599999998,"ADDRESS":"裕豐街１１５巷２８號","OBJECTID":438622},"geometry":{"x":170683.08000000101,"y":2543018.2599999998}},{"attributes":{"ID":438648,"DIS_CODE":0,"TOWNNAME":"東區","LI":"中西里","LIN":" ","STREET":"勝利路","SECT":" ","MAREA":" ","LANE":"１２巷","ALLEY":" ","HOUSE_NO":"６６號","E_COORD97":169988.39000000001,"N_COORD97":2543341.3700000001,"ADDRESS":"勝利路１２巷６６號","OBJECTID":438623},"geometry":{"x":169988.38999999966,"y":2543341.3700000048}},{"attributes":{"ID":438649,"DIS_CODE":0,"TOWNNAME":"東區","LI":"中西里","LIN":" ","STREET":"東寧路","SECT":" ","MAREA":" ","LANE":"１７０巷","ALLEY":" ","HOUSE_NO":"１４號","E_COORD97":170376.79000000001,"N_COORD97":2543502.5499999998,"ADDRESS":"東寧路１７０巷１４號","OBJECTID":438624},"geometry":{"x":170376.79000000097,"y":2543502.5500000045}},{"attributes":{"ID":438650,"DIS_CODE":0,"TOWNNAME":"東區","LI":"中西里","LIN":"25鄰","STREET":"東寧路","SECT":" ","MAREA":" ","LANE":"１２０巷","ALLEY":" ","HOUSE_NO":"１７號之２","E_COORD97":170234.64000000001,"N_COORD97":2543537.0600000001,"ADDRESS":"東寧路１２０巷１７號之２","OBJECTID":438625},"geometry":{"x":170234.6400000006,"y":2543537.0600000024}},{"attributes":{"ID":438651,"DIS_CODE":0,"TOWNNAME":"東區","LI":"中西里","LIN":"27鄰","STREET":"東寧路","SECT":" ","MAREA":" ","LANE":"１２０巷","ALLEY":" ","HOUSE_NO":"８５號之１","E_COORD97":170298.70999999999,"N_COORD97":2543463.98,"ADDRESS":"東寧路１２０巷８５號之１","OBJECTID":438626},"geometry":{"x":170298.71000000183,"y":2543463.9800000004}},{"attributes":{"ID":438652,"DIS_CODE":0,"TOWNNAME":"東區","LI":"中西里","LIN":"27鄰","STREET":"東寧路","SECT":" ","MAREA":" ","LANE":"１２０巷","ALLEY":" ","HOUSE_NO":"８５號之２","E_COORD97":170294.19,"N_COORD97":2543462.7999999998,"ADDRESS":"東寧路１２０巷８５號之２","OBJECTID":438627},"geometry":{"x":170294.19000000227,"y":2543462.8000000007}},{"attributes":{"ID":438653,"DIS_CODE":0,"TOWNNAME":"東區","LI":"中西里","LIN":"29鄰","STREET":"東寧路","SECT":" ","MAREA":" ","LANE":"１３４巷","ALLEY":" ","HOUSE_NO":"３１號之１","E_COORD97":170331.53,"N_COORD97":2543472.7599999998,"ADDRESS":"東寧路１３４巷３１號之１","OBJECTID":438628},"geometry":{"x":170331.53000000026,"y":2543472.7599999979}},{"attributes":{"ID":438654,"DIS_CODE":0,"TOWNNAME":"東區","LI":"中西里","LIN":"29鄰","STREET":"東寧路","SECT":" ","MAREA":" ","LANE":"１３４巷","ALLEY":" ","HOUSE_NO":"３７號之２","E_COORD97":170344.60000000001,"N_COORD97":2543440.23,"ADDRESS":"東寧路１３４巷３７號之２","OBJECTID":438629},"geometry":{"x":170344.59999999963,"y":2543440.2300000042}},{"attributes":{"ID":438655,"DIS_CODE":0,"TOWNNAME":"東區","LI":"中西里","LIN":"3鄰","STREET":"東門路","SECT":"一段","MAREA":" ","LANE":"２６７巷","ALLEY":" ","HOUSE_NO":"１０號","E_COORD97":169871.90446600001,"N_COORD97":2543102.0016100002,"ADDRESS":"東門路一段２６７巷１０號","OBJECTID":438630},"geometry":{"x":169871.90446600132,"y":2543102.0016099997}},{"attributes":{"ID":438656,"DIS_CODE":0,"TOWNNAME":"東區","LI":"仁和里","LIN":"7鄰","STREET":"仁和路","SECT":" ","MAREA":" ","LANE":"１１３巷","ALLEY":" ","HOUSE_NO":"３號","E_COORD97":171398.23999999999,"N_COORD97":2541277.8799999999,"ADDRESS":"仁和路１１３巷３號","OBJECTID":438631},"geometry":{"x":171398.24000000022,"y":2541277.8800000027}},{"attributes":{"ID":438657,"DIS_CODE":0,"TOWNNAME":"東區","LI":"仁和里","LIN":"7鄰","STREET":"仁和路","SECT":" ","MAREA":" ","LANE":"１１３巷","ALLEY":" ","HOUSE_NO":"５號","E_COORD97":171401.63,"N_COORD97":2541278.2599999998,"ADDRESS":"仁和路１１３巷５號","OBJECTID":438632},"geometry":{"x":171401.63000000082,"y":2541278.2599999998}},{"attributes":{"ID":438658,"DIS_CODE":0,"TOWNNAME":"東區","LI":"仁和里","LIN":"1鄰","STREET":"仁和路","SECT":" ","MAREA":" ","LANE":"１０７巷","ALLEY":" ","HOUSE_NO":"４號","E_COORD97":171372.73000000001,"N_COORD97":2541341.6800000002,"ADDRESS":"仁和路１０７巷４號","OBJECTID":438633},"geometry":{"x":171372.73000000138,"y":2541341.6800000016}},{"attributes":{"ID":438659,"DIS_CODE":0,"TOWNNAME":"東區","LI":"仁和里","LIN":"3鄰","STREET":"仁和路","SECT":" ","MAREA":" ","LANE":"１０９巷","ALLEY":" ","HOUSE_NO":"４號","E_COORD97":171397.98000000001,"N_COORD97":2541321.46,"ADDRESS":"仁和路１０９巷４號","OBJECTID":438634},"geometry":{"x":171397.98000000138,"y":2541321.4600000028}},{"attributes":{"ID":438660,"DIS_CODE":0,"TOWNNAME":"東區","LI":"仁和里","LIN":"4鄰","STREET":"仁和路","SECT":" ","MAREA":" ","LANE":"１０９巷","ALLEY":" ","HOUSE_NO":"４０號","E_COORD97":171480.22,"N_COORD97":2541323.7000000002,"ADDRESS":"仁和路１０９巷４０號","OBJECTID":438635},"geometry":{"x":171480.22000000067,"y":2541323.7000000011}},{"attributes":{"ID":438661,"DIS_CODE":0,"TOWNNAME":"東區","LI":"仁和里","LIN":"4鄰","STREET":"仁和路","SECT":" ","MAREA":" ","LANE":"１０９巷","ALLEY":" ","HOUSE_NO":"８３號","E_COORD97":171578.75,"N_COORD97":2541330.73,"ADDRESS":"仁和路１０９巷８３號","OBJECTID":438636},"geometry":{"x":171578.75000000093,"y":2541330.7300000004}},{"attributes":{"ID":438662,"DIS_CODE":0,"TOWNNAME":"東區","LI":"仁和里","LIN":"4鄰","STREET":"仁和路","SECT":" ","MAREA":" ","LANE":"１０９巷","ALLEY":" ","HOUSE_NO":"８５號","E_COORD97":171584.10000000001,"N_COORD97":2541329.9700000002,"ADDRESS":"仁和路１０９巷８５號","OBJECTID":438637},"geometry":{"x":171584.10000000056,"y":2541329.9700000044}},{"attributes":{"ID":438663,"DIS_CODE":0,"TOWNNAME":"東區","LI":"仁和里","LIN":"4鄰","STREET":"仁和路","SECT":" ","MAREA":" ","LANE":"１０９巷","ALLEY":" ","HOUSE_NO":"８７號","E_COORD97":171588.85999999999,"N_COORD97":2541328.7799999998,"ADDRESS":"仁和路１０９巷８７號","OBJECTID":438638},"geometry":{"x":171588.86000000127,"y":2541328.7799999993}},{"attributes":{"ID":438664,"DIS_CODE":0,"TOWNNAME":"東區","LI":"和平里","LIN":"9鄰","STREET":"東門路","SECT":"三段","MAREA":" ","LANE":"３３８巷","ALLEY":" ","HOUSE_NO":"４９號","E_COORD97":171855.5,"N_COORD97":2541435.29,"ADDRESS":"東門路三段３３８巷４９號","OBJECTID":438639},"geometry":{"x":171855.5,"y":2541435.290000001}},{"attributes":{"ID":438665,"DIS_CODE":0,"TOWNNAME":"東區","LI":"和平里","LIN":"9鄰","STREET":"東門路","SECT":"三段","MAREA":" ","LANE":"３３８巷","ALLEY":" ","HOUSE_NO":"５０號","E_COORD97":171856.39000000001,"N_COORD97":2541427.48,"ADDRESS":"東門路三段３３８巷５０號","OBJECTID":438640},"geometry":{"x":171856.38999999966,"y":2541427.4800000004}},{"attributes":{"ID":438666,"DIS_CODE":0,"TOWNNAME":"東區","LI":"忠孝里","LIN":"27鄰","STREET":"榮譽街","SECT":" ","MAREA":" ","LANE":"８４巷","ALLEY":" ","HOUSE_NO":"２５號之１","E_COORD97":169750.17000000001,"N_COORD97":2541649.1299999999,"ADDRESS":"榮譽街８４巷２５號之１","OBJECTID":438641},"geometry":{"x":169750.17000000086,"y":2541649.1300000027}},{"attributes":{"ID":438667,"DIS_CODE":0,"TOWNNAME":"東區","LI":"忠孝里","LIN":"27鄰","STREET":"榮譽街","SECT":" ","MAREA":" ","LANE":"８４巷","ALLEY":" ","HOUSE_NO":"２５號之２","E_COORD97":169746.39999999999,"N_COORD97":2541647.5,"ADDRESS":"榮譽街８４巷２５號之２","OBJECTID":438642},"geometry":{"x":169746.40000000037,"y":2541647.5000000037}},{"attributes":{"ID":438668,"DIS_CODE":0,"TOWNNAME":"東區","LI":"忠孝里","LIN":"27鄰","STREET":"榮譽街","SECT":" ","MAREA":" ","LANE":"８４巷","ALLEY":" ","HOUSE_NO":"２５號之３","E_COORD97":169741.5,"N_COORD97":2541645.3700000001,"ADDRESS":"榮譽街８４巷２５號之３","OBJECTID":438643},"geometry":{"x":169741.50000000093,"y":2541645.370000001}},{"attributes":{"ID":438669,"DIS_CODE":0,"TOWNNAME":"東區","LI":"忠孝里","LIN":"8鄰","STREET":"榮譽街","SECT":" ","MAREA":" ","LANE":"８４巷","ALLEY":" ","HOUSE_NO":"１１３號之１","E_COORD97":169768.17000000001,"N_COORD97":2541561.0699999998,"ADDRESS":"榮譽街８４巷１１３號之１","OBJECTID":438644},"geometry":{"x":169768.16999999899,"y":2541561.0700000003}},{"attributes":{"ID":438670,"DIS_CODE":0,"TOWNNAME":"東區","LI":"忠孝里","LIN":"8鄰","STREET":"榮譽街","SECT":" ","MAREA":" ","LANE":"８４巷","ALLEY":" ","HOUSE_NO":"１１３號之２","E_COORD97":169772.70999999999,"N_COORD97":2541562.6699999999,"ADDRESS":"榮譽街８４巷１１３號之２","OBJECTID":438645},"geometry":{"x":169772.70999999996,"y":2541562.6700000018}},{"attributes":{"ID":438671,"DIS_CODE":0,"TOWNNAME":"東區","LI":"忠孝里","LIN":" ","STREET":"榮譽街","SECT":" ","MAREA":" ","LANE":"８４巷","ALLEY":" ","HOUSE_NO":"１２９之１號","E_COORD97":169886.70999999999,"N_COORD97":2541616.3999999999,"ADDRESS":"榮譽街８４巷１２９之１號","OBJECTID":438646},"geometry":{"x":169886.71000000183,"y":2541616.4000000022}},{"attributes":{"ID":438672,"DIS_CODE":0,"TOWNNAME":"東區","LI":"忠孝里","LIN":"27鄰","STREET":"榮譽街","SECT":" ","MAREA":" ","LANE":"８４巷","ALLEY":" ","HOUSE_NO":"７號之１","E_COORD97":169782.84,"N_COORD97":2541681.9300000002,"ADDRESS":"榮譽街８４巷７號之１","OBJECTID":438647},"geometry":{"x":169782.84000000078,"y":2541681.9300000016}},{"attributes":{"ID":438673,"DIS_CODE":0,"TOWNNAME":"東區","LI":"忠孝里","LIN":"27鄰","STREET":"榮譽街","SECT":" ","MAREA":" ","LANE":"８４巷","ALLEY":" ","HOUSE_NO":"５號之１","E_COORD97":169774.31,"N_COORD97":2541678.0899999999,"ADDRESS":"榮譽街８４巷５號之１","OBJECTID":438648},"geometry":{"x":169774.31000000052,"y":2541678.0900000017}},{"attributes":{"ID":438674,"DIS_CODE":0,"TOWNNAME":"東區","LI":"忠孝里","LIN":" ","STREET":"榮譽街","SECT":" ","MAREA":" ","LANE":"１３０巷","ALLEY":" ","HOUSE_NO":"８號","E_COORD97":169916.76999999999,"N_COORD97":2541727.98,"ADDRESS":"榮譽街１３０巷８號","OBJECTID":438649},"geometry":{"x":169916.77000000048,"y":2541727.9800000004}},{"attributes":{"ID":438675,"DIS_CODE":0,"TOWNNAME":"東區","LI":"忠孝里","LIN":" ","STREET":"榮譽街","SECT":" ","MAREA":" ","LANE":"１２７巷","ALLEY":" ","HOUSE_NO":"３９號","E_COORD97":169885.82999999999,"N_COORD97":2542010.9300000002,"ADDRESS":"榮譽街１２７巷３９號","OBJECTID":438650},"geometry":{"x":169885.83000000007,"y":2542010.9300000016}},{"attributes":{"ID":438676,"DIS_CODE":0,"TOWNNAME":"東區","LI":"東光里","LIN":" ","STREET":"東興路","SECT":" ","MAREA":" ","LANE":"二十巷","ALLEY":" ","HOUSE_NO":"３６號","E_COORD97":171067.82000000001,"N_COORD97":2543400.52,"ADDRESS":"東興路二十巷３６號","OBJECTID":438651},"geometry":{"x":171067.82000000216,"y":2543400.5200000014}},{"attributes":{"ID":438677,"DIS_CODE":0,"TOWNNAME":"東區","LI":"東安里","LIN":"18鄰","STREET":"衛國街","SECT":" ","MAREA":" ","LANE":"３３巷","ALLEY":" ","HOUSE_NO":"１１號之１","E_COORD97":170197.69,"N_COORD97":2543059.46,"ADDRESS":"衛國街３３巷１１號之１","OBJECTID":438652},"geometry":{"x":170197.69000000134,"y":2543059.4600000046}},{"attributes":{"ID":438678,"DIS_CODE":0,"TOWNNAME":"東區","LI":"東光里","LIN":"29鄰","STREET":"東寧路","SECT":" ","MAREA":" ","LANE":"２０１巷","ALLEY":" ","HOUSE_NO":"１８５號","E_COORD97":170695.04000000001,"N_COORD97":2543984.6299999999,"ADDRESS":"東寧路２０１巷１８５號","OBJECTID":438653},"geometry":{"x":170695.04000000097,"y":2543984.629999999}},{"attributes":{"ID":438679,"DIS_CODE":0,"TOWNNAME":"東區","LI":"東光里","LIN":"29鄰","STREET":"東寧路","SECT":" ","MAREA":" ","LANE":"２０１巷","ALLEY":" ","HOUSE_NO":"１８７號","E_COORD97":170694.98000000001,"N_COORD97":2543990.5899999999,"ADDRESS":"東寧路２０１巷１８７號","OBJECTID":438654},"geometry":{"x":170694.98000000045,"y":2543990.5900000017}},{"attributes":{"ID":438680,"DIS_CODE":0,"TOWNNAME":"東區","LI":"東安里","LIN":"17鄰","STREET":"衛國街","SECT":" ","MAREA":" ","LANE":"１３巷","ALLEY":" ","HOUSE_NO":"３號","E_COORD97":170210.95999999999,"N_COORD97":2542989.6200000001,"ADDRESS":"衛國街１３巷３號","OBJECTID":438655},"geometry":{"x":170210.96000000089,"y":2542989.620000001}},{"attributes":{"ID":438681,"DIS_CODE":0,"TOWNNAME":"東區","LI":"東安里","LIN":"17鄰","STREET":"衛國街","SECT":" ","MAREA":" ","LANE":"１３巷","ALLEY":" ","HOUSE_NO":"４號","E_COORD97":170214.67999999999,"N_COORD97":2543001.5699999998,"ADDRESS":"衛國街１３巷４號","OBJECTID":438656},"geometry":{"x":170214.6799999997,"y":2543001.5700000022}},{"attributes":{"ID":438682,"DIS_CODE":0,"TOWNNAME":"東區","LI":"東安里","LIN":"17鄰","STREET":"衛國街","SECT":" ","MAREA":" ","LANE":"１３巷","ALLEY":" ","HOUSE_NO":"９號","E_COORD97":170205.14999999999,"N_COORD97":2542967.4199999999,"ADDRESS":"衛國街１３巷９號","OBJECTID":438657},"geometry":{"x":170205.1500000013,"y":2542967.4200000018}},{"attributes":{"ID":438683,"DIS_CODE":0,"TOWNNAME":"東區","LI":"東安里","LIN":"17鄰","STREET":"衛國街","SECT":" ","MAREA":" ","LANE":"１３巷","ALLEY":" ","HOUSE_NO":"１０號","E_COORD97":170194.48000000001,"N_COORD97":2543007.8300000001,"ADDRESS":"衛國街１３巷１０號","OBJECTID":438658},"geometry":{"x":170194.48000000138,"y":2543007.8300000001}},{"attributes":{"ID":438684,"DIS_CODE":0,"TOWNNAME":"東區","LI":"東安里","LIN":"17鄰","STREET":"衛國街","SECT":" ","MAREA":" ","LANE":"１３巷","ALLEY":" ","HOUSE_NO":"１１號","E_COORD97":170202.23999999999,"N_COORD97":2542961.6099999999,"ADDRESS":"衛國街１３巷１１號","OBJECTID":438659},"geometry":{"x":170202.24000000115,"y":2542961.6100000031}},{"attributes":{"ID":438685,"DIS_CODE":0,"TOWNNAME":"東區","LI":"東安里","LIN":"17鄰","STREET":"衛國街","SECT":" ","MAREA":" ","LANE":"１３巷","ALLEY":" ","HOUSE_NO":"１２號","E_COORD97":170185.67000000001,"N_COORD97":2543010.46,"ADDRESS":"衛國街１３巷１２號","OBJECTID":438660},"geometry":{"x":170185.67000000086,"y":2543010.4600000009}},{"attributes":{"ID":438686,"DIS_CODE":0,"TOWNNAME":"東區","LI":"東安里","LIN":"17鄰","STREET":"衛國街","SECT":" ","MAREA":" ","LANE":"１３巷","ALLEY":" ","HOUSE_NO":"１３號","E_COORD97":170195.70999999999,"N_COORD97":2542967.2400000002,"ADDRESS":"衛國街１３巷１３號","OBJECTID":438661},"geometry":{"x":170195.71000000089,"y":2542967.2400000002}},{"attributes":{"ID":438687,"DIS_CODE":0,"TOWNNAME":"東區","LI":"東安里","LIN":"17鄰","STREET":"衛國街","SECT":" ","MAREA":" ","LANE":"１３巷","ALLEY":" ","HOUSE_NO":"１４號","E_COORD97":170179.04000000001,"N_COORD97":2543013,"ADDRESS":"衛國街１３巷１４號","OBJECTID":438662},"geometry":{"x":170179.04000000004,"y":2543013}},{"attributes":{"ID":438688,"DIS_CODE":0,"TOWNNAME":"東區","LI":"東安里","LIN":"17鄰","STREET":"衛國街","SECT":" ","MAREA":" ","LANE":"１３巷","ALLEY":" ","HOUSE_NO":"１５號","E_COORD97":170196.89000000001,"N_COORD97":2542970.77,"ADDRESS":"衛國街１３巷１５號","OBJECTID":438663},"geometry":{"x":170196.88999999966,"y":2542970.7699999977}},{"attributes":{"ID":438689,"DIS_CODE":0,"TOWNNAME":"東區","LI":"東安里","LIN":"17鄰","STREET":"衛國街","SECT":" ","MAREA":" ","LANE":"１３巷","ALLEY":" ","HOUSE_NO":"２７號之１","E_COORD97":170177.64000000001,"N_COORD97":2543000.8700000001,"ADDRESS":"衛國街１３巷２７號之１","OBJECTID":438664},"geometry":{"x":170177.63999999966,"y":2543000.870000001}},{"attributes":{"ID":438690,"DIS_CODE":0,"TOWNNAME":"東區","LI":"東安里","LIN":" ","STREET":"長榮路","SECT":"二段","MAREA":" ","LANE":"３２巷","ALLEY":" ","HOUSE_NO":"１４２之２號","E_COORD97":170196.60000000001,"N_COORD97":2543134.23,"ADDRESS":"長榮路二段３２巷１４２之２號","OBJECTID":438665},"geometry":{"x":170196.59999999963,"y":2543134.2300000004}},{"attributes":{"ID":438691,"DIS_CODE":0,"TOWNNAME":"東區","LI":"東安里","LIN":" ","STREET":"長榮路","SECT":"二段","MAREA":" ","LANE":"３２巷","ALLEY":" ","HOUSE_NO":"１４２之３號","E_COORD97":170192.14000000001,"N_COORD97":2543132.8100000001,"ADDRESS":"長榮路二段３２巷１４２之３號","OBJECTID":438666},"geometry":{"x":170192.1400000006,"y":2543132.8100000005}},{"attributes":{"ID":438692,"DIS_CODE":0,"TOWNNAME":"東區","LI":"東門里","LIN":" ","STREET":"東榮街","SECT":" ","MAREA":" ","LANE":"４４巷","ALLEY":" ","HOUSE_NO":"１９號","E_COORD97":169506.89999999999,"N_COORD97":2543367.6600000001,"ADDRESS":"東榮街４４巷１９號","OBJECTID":438667},"geometry":{"x":169506.9000000013,"y":2543367.6600000001}},{"attributes":{"ID":438693,"DIS_CODE":0,"TOWNNAME":"東區","LI":"東門里","LIN":"13鄰","STREET":"東門路","SECT":"一段","MAREA":" ","LANE":"２１１巷","ALLEY":" ","HOUSE_NO":"１７號","E_COORD97":169679.51000000001,"N_COORD97":2543183.96,"ADDRESS":"東門路一段２１１巷１７號","OBJECTID":438668},"geometry":{"x":169679.51000000071,"y":2543183.9600000009}},{"attributes":{"ID":438694,"DIS_CODE":0,"TOWNNAME":"東區","LI":"東聖里","LIN":" ","STREET":"中華東路","SECT":"二段","MAREA":" ","LANE":"４１巷","ALLEY":" ","HOUSE_NO":"３６號","E_COORD97":171519.14000000001,"N_COORD97":2543073.2599999998,"ADDRESS":"中華東路二段４１巷３６號","OBJECTID":438669},"geometry":{"x":171519.13999999966,"y":2543073.2600000016}},{"attributes":{"ID":438695,"DIS_CODE":0,"TOWNNAME":"東區","LI":"虎尾里","LIN":" ","STREET":"東成街","SECT":" ","MAREA":" ","LANE":"２００巷","ALLEY":" ","HOUSE_NO":"３８號","E_COORD97":171878.42000000001,"N_COORD97":2542220.52,"ADDRESS":"東成街２００巷３８號","OBJECTID":438670},"geometry":{"x":171878.41999999993,"y":2542220.5200000014}},{"attributes":{"ID":438696,"DIS_CODE":0,"TOWNNAME":"東區","LI":"虎尾里","LIN":"13鄰","STREET":"東成街","SECT":" ","MAREA":" ","LANE":"１２７巷","ALLEY":" ","HOUSE_NO":"１號","E_COORD97":171666.35999999999,"N_COORD97":2542314.3100000001,"ADDRESS":"東成街１２７巷１號","OBJECTID":438671},"geometry":{"x":171666.36000000127,"y":2542314.3100000024}},{"attributes":{"ID":438697,"DIS_CODE":0,"TOWNNAME":"東區","LI":"虎尾里","LIN":"13鄰","STREET":"東成街","SECT":" ","MAREA":" ","LANE":"１２７巷","ALLEY":" ","HOUSE_NO":"２號","E_COORD97":171686.98000000001,"N_COORD97":2542316.7000000002,"ADDRESS":"東成街１２７巷２號","OBJECTID":438672},"geometry":{"x":171686.98000000045,"y":2542316.700000003}},{"attributes":{"ID":438698,"DIS_CODE":0,"TOWNNAME":"東區","LI":"虎尾里","LIN":"13鄰","STREET":"東成街","SECT":" ","MAREA":" ","LANE":"１２７巷","ALLEY":" ","HOUSE_NO":"３號","E_COORD97":171665.82000000001,"N_COORD97":2542318.4300000002,"ADDRESS":"東成街１２７巷３號","OBJECTID":438673},"geometry":{"x":171665.8200000003,"y":2542318.4299999997}},{"attributes":{"ID":438699,"DIS_CODE":0,"TOWNNAME":"東區","LI":"虎尾里","LIN":"13鄰","STREET":"東成街","SECT":" ","MAREA":" ","LANE":"１２７巷","ALLEY":" ","HOUSE_NO":"４號","E_COORD97":171686.57999999999,"N_COORD97":2542320.96,"ADDRESS":"東成街１２７巷４號","OBJECTID":438674},"geometry":{"x":171686.58000000101,"y":2542320.9600000028}},{"attributes":{"ID":438700,"DIS_CODE":0,"TOWNNAME":"東區","LI":"虎尾里","LIN":"13鄰","STREET":"東成街","SECT":" ","MAREA":" ","LANE":"１２７巷","ALLEY":" ","HOUSE_NO":"７號","E_COORD97":171665.03,"N_COORD97":2542326.0099999998,"ADDRESS":"東成街１２７巷７號","OBJECTID":438675},"geometry":{"x":171665.03000000119,"y":2542326.0100000016}},{"attributes":{"ID":438701,"DIS_CODE":0,"TOWNNAME":"東區","LI":"後甲里","LIN":" ","STREET":"裕農路","SECT":" ","MAREA":" ","LANE":"６２１巷","ALLEY":" ","HOUSE_NO":"７２號","E_COORD97":171624.16,"N_COORD97":2543439.3500000001,"ADDRESS":"裕農路６２１巷７２號","OBJECTID":438676},"geometry":{"x":171624.16000000015,"y":2543439.3500000015}},{"attributes":{"ID":438702,"DIS_CODE":0,"TOWNNAME":"東區","LI":"後甲里","LIN":" ","STREET":"裕農路","SECT":" ","MAREA":" ","LANE":"６０５巷","ALLEY":" ","HOUSE_NO":"１６號","E_COORD97":171575.38,"N_COORD97":2543280.9199999999,"ADDRESS":"裕農路６０５巷１６號","OBJECTID":438677},"geometry":{"x":171575.37999999989,"y":2543280.9199999999}},{"attributes":{"ID":438703,"DIS_CODE":0,"TOWNNAME":"東區","LI":"後甲里","LIN":"3鄰","STREET":"裕農路","SECT":" ","MAREA":" ","LANE":"６２１巷","ALLEY":" ","HOUSE_NO":"２號之１","E_COORD97":171637.82999999999,"N_COORD97":2543251.25,"ADDRESS":"裕農路６２１巷２號之１","OBJECTID":438678},"geometry":{"x":171637.83000000101,"y":2543251.25}},{"attributes":{"ID":438704,"DIS_CODE":0,"TOWNNAME":"東區","LI":"後甲里","LIN":"13鄰","STREET":"裕農路","SECT":" ","MAREA":" ","LANE":"６２１巷","ALLEY":" ","HOUSE_NO":"１３號","E_COORD97":171615.67000000001,"N_COORD97":2543261.8900000001,"ADDRESS":"裕農路６２１巷１３號","OBJECTID":438679},"geometry":{"x":171615.66999999993,"y":2543261.8900000006}},{"attributes":{"ID":438705,"DIS_CODE":0,"TOWNNAME":"東區","LI":"後甲里","LIN":"13鄰","STREET":"裕農路","SECT":" ","MAREA":" ","LANE":"６２１巷","ALLEY":" ","HOUSE_NO":"１１號","E_COORD97":171616.64000000001,"N_COORD97":2543258.0299999998,"ADDRESS":"裕農路６２１巷１１號","OBJECTID":438680},"geometry":{"x":171616.6400000006,"y":2543258.0300000012}},{"attributes":{"ID":438706,"DIS_CODE":0,"TOWNNAME":"東區","LI":"後甲里","LIN":"7鄰","STREET":"裕農路","SECT":" ","MAREA":" ","LANE":"６２１巷","ALLEY":" ","HOUSE_NO":"８０號","E_COORD97":171640.10000000001,"N_COORD97":2543489.52,"ADDRESS":"裕農路６２１巷８０號","OBJECTID":438681},"geometry":{"x":171640.10000000056,"y":2543489.5200000014}},{"attributes":{"ID":438707,"DIS_CODE":0,"TOWNNAME":"東區","LI":"後甲里","LIN":"15鄰","STREET":"裕農路","SECT":" ","MAREA":" ","LANE":"６２１巷","ALLEY":" ","HOUSE_NO":"５９號","E_COORD97":171536.01999999999,"N_COORD97":2543458.98,"ADDRESS":"裕農路６２１巷５９號","OBJECTID":438682},"geometry":{"x":171536.02000000048,"y":2543458.9800000023}},{"attributes":{"ID":438708,"DIS_CODE":0,"TOWNNAME":"東區","LI":"後甲里","LIN":"15鄰","STREET":"裕農路","SECT":" ","MAREA":" ","LANE":"６２１巷","ALLEY":" ","HOUSE_NO":"６５號","E_COORD97":171508.51999999999,"N_COORD97":2543451.7400000002,"ADDRESS":"裕農路６２１巷６５號","OBJECTID":438683},"geometry":{"x":171508.52000000048,"y":2543451.7400000002}},{"attributes":{"ID":438709,"DIS_CODE":0,"TOWNNAME":"東區","LI":"泉南里","LIN":"14鄰","STREET":"光華街","SECT":" ","MAREA":" ","LANE":"２２９巷","ALLEY":" ","HOUSE_NO":"３４號","E_COORD97":169443.39999999999,"N_COORD97":2542924.8500000001,"ADDRESS":"光華街２２９巷３４號","OBJECTID":438684},"geometry":{"x":169443.40000000224,"y":2542924.8499999996}},{"attributes":{"ID":438710,"DIS_CODE":0,"TOWNNAME":"東區","LI":"崇文里","LIN":"8鄰","STREET":"崇德十七街","SECT":" ","MAREA":" ","LANE":"１２６巷","ALLEY":" ","HOUSE_NO":"２７號","E_COORD97":171118.82999999999,"N_COORD97":2541033.0899999999,"ADDRESS":"崇德十七街１２６巷２７號","OBJECTID":438685},"geometry":{"x":171118.83000000101,"y":2541033.0900000036}},{"attributes":{"ID":438711,"DIS_CODE":0,"TOWNNAME":"東區","LI":"泉南里","LIN":"6鄰","STREET":"東門路","SECT":"一段","MAREA":" ","LANE":"１１２巷","ALLEY":" ","HOUSE_NO":"１１號","E_COORD97":169419.66,"N_COORD97":2543140.7799999998,"ADDRESS":"東門路一段１１２巷１１號","OBJECTID":438686},"geometry":{"x":169419.66000000108,"y":2543140.7800000012}},{"attributes":{"ID":438712,"DIS_CODE":0,"TOWNNAME":"東區","LI":"龍山里","LIN":"4鄰","STREET":"德光街","SECT":" ","MAREA":" ","LANE":"１５巷","ALLEY":" ","HOUSE_NO":"１０號","E_COORD97":170550.04000000001,"N_COORD97":2542640.1099999999,"ADDRESS":"德光街１５巷１０號","OBJECTID":438687},"geometry":{"x":170550.04000000004,"y":2542640.1100000013}},{"attributes":{"ID":438713,"DIS_CODE":0,"TOWNNAME":"東區","LI":"莊敬里","LIN":"4鄰","STREET":"小東路","SECT":" ","MAREA":" ","LANE":"２５８巷","ALLEY":" ","HOUSE_NO":"１０號","E_COORD97":171155.72,"N_COORD97":2544320.1499999999,"ADDRESS":"小東路２５８巷１０號","OBJECTID":438688},"geometry":{"x":171155.71999999974,"y":2544320.1500000022}},{"attributes":{"ID":438714,"DIS_CODE":0,"TOWNNAME":"東區","LI":"莊敬里","LIN":"4鄰","STREET":"小東路","SECT":" ","MAREA":" ","LANE":"２５８巷","ALLEY":" ","HOUSE_NO":"１２號","E_COORD97":171157.66,"N_COORD97":2544316.8399999999,"ADDRESS":"小東路２５８巷１２號","OBJECTID":438689},"geometry":{"x":171157.66000000108,"y":2544316.8400000036}},{"attributes":{"ID":438715,"DIS_CODE":0,"TOWNNAME":"東區","LI":"莊敬里","LIN":"4鄰","STREET":"小東路","SECT":" ","MAREA":" ","LANE":"２５８巷","ALLEY":" ","HOUSE_NO":"１３號","E_COORD97":171169.47,"N_COORD97":2544329.4399999999,"ADDRESS":"小東路２５８巷１３號","OBJECTID":438690},"geometry":{"x":171169.46999999974,"y":2544329.4400000032}},{"attributes":{"ID":438716,"DIS_CODE":0,"TOWNNAME":"東區","LI":"莊敬里","LIN":"4鄰","STREET":"小東路","SECT":" ","MAREA":" ","LANE":"２５８巷","ALLEY":" ","HOUSE_NO":"１４號","E_COORD97":171160.34,"N_COORD97":2544313.1499999999,"ADDRESS":"小東路２５８巷１４號","OBJECTID":438691},"geometry":{"x":171160.33999999892,"y":2544313.1500000022}},{"attributes":{"ID":438717,"DIS_CODE":0,"TOWNNAME":"東區","LI":"莊敬里","LIN":"4鄰","STREET":"小東路","SECT":" ","MAREA":" ","LANE":"２５８巷","ALLEY":" ","HOUSE_NO":"１５號","E_COORD97":171174.35000000001,"N_COORD97":2544325.0299999998,"ADDRESS":"小東路２５８巷１５號","OBJECTID":438692},"geometry":{"x":171174.35000000056,"y":2544325.0300000031}},{"attributes":{"ID":438718,"DIS_CODE":0,"TOWNNAME":"東區","LI":"莊敬里","LIN":"4鄰","STREET":"小東路","SECT":" ","MAREA":" ","LANE":"２５８巷","ALLEY":" ","HOUSE_NO":"１６號","E_COORD97":171164.03,"N_COORD97":2544309.73,"ADDRESS":"小東路２５８巷１６號","OBJECTID":438693},"geometry":{"x":171164.03000000026,"y":2544309.7300000004}},{"attributes":{"ID":438719,"DIS_CODE":0,"TOWNNAME":"東區","LI":"莊敬里","LIN":"4鄰","STREET":"小東路","SECT":" ","MAREA":" ","LANE":"２５８巷","ALLEY":" ","HOUSE_NO":"１７號","E_COORD97":171176.38,"N_COORD97":2544322.0899999999,"ADDRESS":"小東路２５８巷１７號","OBJECTID":438694},"geometry":{"x":171176.37999999989,"y":2544322.0900000036}},{"attributes":{"ID":438720,"DIS_CODE":0,"TOWNNAME":"東區","LI":"莊敬里","LIN":"4鄰","STREET":"小東路","SECT":" ","MAREA":" ","LANE":"２５８巷","ALLEY":" ","HOUSE_NO":"１８號","E_COORD97":171166.51999999999,"N_COORD97":2544306.3199999998,"ADDRESS":"小東路２５８巷１８號","OBJECTID":438695},"geometry":{"x":171166.52000000048,"y":2544306.3200000003}},{"attributes":{"ID":438721,"DIS_CODE":0,"TOWNNAME":"東區","LI":"莊敬里","LIN":"4鄰","STREET":"小東路","SECT":" ","MAREA":" ","LANE":"２５８巷","ALLEY":" ","HOUSE_NO":"１９號","E_COORD97":171179.14000000001,"N_COORD97":2544319.6000000001,"ADDRESS":"小東路２５８巷１９號","OBJECTID":438696},"geometry":{"x":171179.1400000006,"y":2544319.6000000015}},{"attributes":{"ID":438722,"DIS_CODE":0,"TOWNNAME":"東區","LI":"莊敬里","LIN":"4鄰","STREET":"小東路","SECT":" ","MAREA":" ","LANE":"２５８巷","ALLEY":" ","HOUSE_NO":"２０號","E_COORD97":171169.73999999999,"N_COORD97":2544302.9199999999,"ADDRESS":"小東路２５８巷２０號","OBJECTID":438697},"geometry":{"x":171169.74000000022,"y":2544302.9200000037}},{"attributes":{"ID":438723,"DIS_CODE":0,"TOWNNAME":"東區","LI":"莊敬里","LIN":"4鄰","STREET":"小東路","SECT":" ","MAREA":" ","LANE":"２５８巷","ALLEY":" ","HOUSE_NO":"２１號","E_COORD97":171181.62,"N_COORD97":2544316.3799999999,"ADDRESS":"小東路２５８巷２１號","OBJECTID":438698},"geometry":{"x":171181.62000000104,"y":2544316.3800000008}},{"attributes":{"ID":438724,"DIS_CODE":0,"TOWNNAME":"東區","LI":"莊敬里","LIN":"4鄰","STREET":"小東路","SECT":" ","MAREA":" ","LANE":"２５８巷","ALLEY":" ","HOUSE_NO":"２２號","E_COORD97":171173.04999999999,"N_COORD97":2544299.9700000002,"ADDRESS":"小東路２５８巷２２號","OBJECTID":438699},"geometry":{"x":171173.05000000075,"y":2544299.9700000044}},{"attributes":{"ID":438725,"DIS_CODE":0,"TOWNNAME":"東區","LI":"莊敬里","LIN":"4鄰","STREET":"小東路","SECT":" ","MAREA":" ","LANE":"２５８巷","ALLEY":" ","HOUSE_NO":"２３號","E_COORD97":171183.94,"N_COORD97":2544313.5099999998,"ADDRESS":"小東路２５８巷２３號","OBJECTID":438700},"geometry":{"x":171183.94000000041,"y":2544313.5100000016}},{"attributes":{"ID":438726,"DIS_CODE":0,"TOWNNAME":"東區","LI":"莊敬里","LIN":"4鄰","STREET":"小東路","SECT":" ","MAREA":" ","LANE":"２５８巷","ALLEY":" ","HOUSE_NO":"３１號","E_COORD97":171192.98000000001,"N_COORD97":2544304.6600000001,"ADDRESS":"小東路２５８巷３１號","OBJECTID":438701},"geometry":{"x":171192.98000000138,"y":2544304.6600000039}},{"attributes":{"ID":438727,"DIS_CODE":0,"TOWNNAME":"東區","LI":"莊敬里","LIN":"8鄰","STREET":"東光路","SECT":"二段","MAREA":" ","LANE":"１０９巷","ALLEY":" ","HOUSE_NO":"１號","E_COORD97":171197.45000000001,"N_COORD97":2544198.96,"ADDRESS":"東光路二段１０９巷１號","OBJECTID":438702},"geometry":{"x":171197.45000000205,"y":2544198.9600000028}},{"attributes":{"ID":438728,"DIS_CODE":0,"TOWNNAME":"東區","LI":"莊敬里","LIN":"7鄰","STREET":"東光路","SECT":"二段","MAREA":" ","LANE":"１０９巷","ALLEY":" ","HOUSE_NO":"２號","E_COORD97":171203.32000000001,"N_COORD97":2544229.1699999999,"ADDRESS":"東光路二段１０９巷２號","OBJECTID":438703},"geometry":{"x":171203.3200000003,"y":2544229.1699999999}},{"attributes":{"ID":438729,"DIS_CODE":0,"TOWNNAME":"東區","LI":"莊敬里","LIN":"7鄰","STREET":"東光路","SECT":"二段","MAREA":" ","LANE":"１０９巷","ALLEY":" ","HOUSE_NO":"４號","E_COORD97":171200.23000000001,"N_COORD97":2544225.8799999999,"ADDRESS":"東光路二段１０９巷４號","OBJECTID":438704},"geometry":{"x":171200.23000000045,"y":2544225.879999999}},{"attributes":{"ID":438730,"DIS_CODE":0,"TOWNNAME":"東區","LI":"富強里","LIN":" ","STREET":"東門路","SECT":"二段","MAREA":" ","LANE":"３０１巷","ALLEY":" ","HOUSE_NO":"２８號","E_COORD97":170821.64000000001,"N_COORD97":2542683.8500000001,"ADDRESS":"東門路二段３０１巷２８號","OBJECTID":438705},"geometry":{"x":170821.6400000006,"y":2542683.8500000015}},{"attributes":{"ID":438731,"DIS_CODE":0,"TOWNNAME":"東區","LI":"莊敬里","LIN":"14鄰","STREET":"莊敬路","SECT":" ","MAREA":" ","LANE":"２０５巷","ALLEY":" ","HOUSE_NO":"２６號","E_COORD97":171288.23999999999,"N_COORD97":2544176.7999999998,"ADDRESS":"莊敬路２０５巷２６號","OBJECTID":438706},"geometry":{"x":171288.24000000022,"y":2544176.8000000026}},{"attributes":{"ID":438732,"DIS_CODE":0,"TOWNNAME":"東區","LI":"莊敬里","LIN":"14鄰","STREET":"莊敬路","SECT":" ","MAREA":" ","LANE":"２０５巷","ALLEY":" ","HOUSE_NO":"２８號","E_COORD97":171284.23999999999,"N_COORD97":2544177.3700000001,"ADDRESS":"莊敬路２０５巷２８號","OBJECTID":438707},"geometry":{"x":171284.24000000115,"y":2544177.370000001}},{"attributes":{"ID":438733,"DIS_CODE":0,"TOWNNAME":"東區","LI":"莊敬里","LIN":"14鄰","STREET":"莊敬路","SECT":" ","MAREA":" ","LANE":"２０５巷","ALLEY":" ","HOUSE_NO":"３０號","E_COORD97":171279.5,"N_COORD97":2544178.48,"ADDRESS":"莊敬路２０５巷３０號","OBJECTID":438708},"geometry":{"x":171279.5,"y":2544178.4800000023}},{"attributes":{"ID":438734,"DIS_CODE":0,"TOWNNAME":"東區","LI":"莊敬里","LIN":"14鄰","STREET":"莊敬路","SECT":" ","MAREA":" ","LANE":"２１９巷","ALLEY":" ","HOUSE_NO":"１７號","E_COORD97":171279.41,"N_COORD97":2544200.8799999999,"ADDRESS":"莊敬路２１９巷１７號","OBJECTID":438709},"geometry":{"x":171279.41000000108,"y":2544200.8800000008}},{"attributes":{"ID":438735,"DIS_CODE":0,"TOWNNAME":"東區","LI":"富強里","LIN":" ","STREET":"裕農路","SECT":" ","MAREA":" ","LANE":"２８８巷","ALLEY":" ","HOUSE_NO":"１４５號","E_COORD97":171080.28,"N_COORD97":2542905.0899999999,"ADDRESS":"裕農路２８８巷１４５號","OBJECTID":438710},"geometry":{"x":171080.28000000119,"y":2542905.0900000017}},{"attributes":{"ID":438736,"DIS_CODE":0,"TOWNNAME":"東區","LI":"富強里","LIN":" ","STREET":"裕農路","SECT":" ","MAREA":" ","LANE":"２８８巷","ALLEY":" ","HOUSE_NO":"１６２號","E_COORD97":171062.92000000001,"N_COORD97":2542865.8700000001,"ADDRESS":"裕農路２８８巷１６２號","OBJECTID":438711},"geometry":{"x":171062.91999999993,"y":2542865.870000001}},{"attributes":{"ID":438737,"DIS_CODE":0,"TOWNNAME":"東區","LI":"富強里","LIN":"4鄰","STREET":"裕農路","SECT":" ","MAREA":" ","LANE":"４４６巷","ALLEY":" ","HOUSE_NO":"１１號","E_COORD97":171253.45000000001,"N_COORD97":2543119.6600000001,"ADDRESS":"裕農路４４６巷１１號","OBJECTID":438712},"geometry":{"x":171253.45000000205,"y":2543119.660000002}},{"attributes":{"ID":438738,"DIS_CODE":0,"TOWNNAME":"東區","LI":"富強里","LIN":" ","STREET":"裕農路","SECT":" ","MAREA":" ","LANE":"４４６巷","ALLEY":" ","HOUSE_NO":"３３之２號","E_COORD97":171260.35000000001,"N_COORD97":2542991.2200000002,"ADDRESS":"裕農路４４６巷３３之２號","OBJECTID":438713},"geometry":{"x":171260.35000000056,"y":2542991.2200000007}},{"attributes":{"ID":438739,"DIS_CODE":0,"TOWNNAME":"東區","LI":"富強里","LIN":" ","STREET":"中華東路","SECT":"二段","MAREA":" ","LANE":"９６巷","ALLEY":" ","HOUSE_NO":"２號地下層","E_COORD97":171345.85000000001,"N_COORD97":2542886.8999999999,"ADDRESS":"中華東路二段９６巷２號地下層","OBJECTID":438714},"geometry":{"x":171345.84999999963,"y":2542886.9000000022}},{"attributes":{"ID":438740,"DIS_CODE":0,"TOWNNAME":"東區","LI":"崇德里","LIN":"24鄰","STREET":"崇德路","SECT":" ","MAREA":" ","LANE":"５５０巷","ALLEY":" ","HOUSE_NO":"７號","E_COORD97":170750.42999999999,"N_COORD97":2541447.8799999999,"ADDRESS":"崇德路５５０巷７號","OBJECTID":438715},"geometry":{"x":170750.4299999997,"y":2541447.8800000008}},{"attributes":{"ID":438741,"DIS_CODE":0,"TOWNNAME":"東區","LI":"裕農里","LIN":"4鄰","STREET":"裕農路","SECT":" ","MAREA":" ","LANE":"２９１巷","ALLEY":" ","HOUSE_NO":"６１號","E_COORD97":170886.53,"N_COORD97":2543089.46,"ADDRESS":"裕農路２９１巷６１號","OBJECTID":438716},"geometry":{"x":170886.53000000026,"y":2543089.459999999}},{"attributes":{"ID":438742,"DIS_CODE":0,"TOWNNAME":"東區","LI":"龍山里","LIN":" ","STREET":"府東街","SECT":" ","MAREA":" ","LANE":"４１巷","ALLEY":" ","HOUSE_NO":"５５號","E_COORD97":169946.87,"N_COORD97":2542807.8599999999,"ADDRESS":"府東街４１巷５５號","OBJECTID":438717},"geometry":{"x":169946.87000000197,"y":2542807.8600000013}},{"attributes":{"ID":438743,"DIS_CODE":0,"TOWNNAME":"東區","LI":"龍山里","LIN":" ","STREET":"崇仁街","SECT":" ","MAREA":" ","LANE":"５３巷","ALLEY":" ","HOUSE_NO":"５號","E_COORD97":170393.14000000001,"N_COORD97":2542757.7200000002,"ADDRESS":"崇仁街５３巷５號","OBJECTID":438718},"geometry":{"x":170393.13999999966,"y":2542757.7200000007}},{"attributes":{"ID":438744,"DIS_CODE":0,"TOWNNAME":"東區","LI":"龍山里","LIN":" ","STREET":"富德街","SECT":" ","MAREA":" ","LANE":"２５巷","ALLEY":" ","HOUSE_NO":"１８號","E_COORD97":170306.01000000001,"N_COORD97":2542838.6400000001,"ADDRESS":"富德街２５巷１８號","OBJECTID":438719},"geometry":{"x":170306.00999999978,"y":2542838.6400000025}},{"attributes":{"ID":438745,"DIS_CODE":0,"TOWNNAME":"東區","LI":"龍山里","LIN":"3鄰","STREET":"富德街","SECT":" ","MAREA":" ","LANE":"２５巷","ALLEY":" ","HOUSE_NO":"７號之１","E_COORD97":170324.79999999999,"N_COORD97":2542805.1600000001,"ADDRESS":"富德街２５巷７之１號","OBJECTID":438720},"geometry":{"x":170324.79999999981,"y":2542805.1600000001}},{"attributes":{"ID":438746,"DIS_CODE":0,"TOWNNAME":"東區","LI":"南聖里","LIN":"4鄰","STREET":"裕農路","SECT":" ","MAREA":" ","LANE":"６６８巷","ALLEY":" ","HOUSE_NO":"２９號","E_COORD97":171778.54999999999,"N_COORD97":2543127.4399999999,"ADDRESS":"裕農路６６８巷２９號","OBJECTID":438721},"geometry":{"x":171778.55000000075,"y":2543127.4399999995}},{"attributes":{"ID":438747,"DIS_CODE":0,"TOWNNAME":"東區","LI":"南聖里","LIN":"4鄰","STREET":"裕農路","SECT":" ","MAREA":" ","LANE":"６６８巷","ALLEY":" ","HOUSE_NO":"２９號之１","E_COORD97":171774.19,"N_COORD97":2543141.1200000001,"ADDRESS":"裕農路６６８巷２９號之１","OBJECTID":438722},"geometry":{"x":171774.19000000134,"y":2543141.1200000029}},{"attributes":{"ID":438748,"DIS_CODE":0,"TOWNNAME":"東區","LI":"南聖里","LIN":"4鄰","STREET":"裕農路","SECT":" ","MAREA":" ","LANE":"６６８巷","ALLEY":" ","HOUSE_NO":"２９號之２","E_COORD97":171771.45000000001,"N_COORD97":2543127.1899999999,"ADDRESS":"裕農路６６８巷２９號之２","OBJECTID":438723},"geometry":{"x":171771.45000000019,"y":2543127.1899999976}},{"attributes":{"ID":438749,"DIS_CODE":0,"TOWNNAME":"東區","LI":"南聖里","LIN":"4鄰","STREET":"裕農路","SECT":" ","MAREA":" ","LANE":"６６８巷","ALLEY":" ","HOUSE_NO":"２９號之３","E_COORD97":171764.60000000001,"N_COORD97":2543141.75,"ADDRESS":"裕農路６６８巷２９號之３","OBJECTID":438724},"geometry":{"x":171764.59999999963,"y":2543141.7500000019}},{"attributes":{"ID":438750,"DIS_CODE":0,"TOWNNAME":"東區","LI":"南聖里","LIN":"4鄰","STREET":"裕農路","SECT":" ","MAREA":" ","LANE":"６６８巷","ALLEY":" ","HOUSE_NO":"２９號之４","E_COORD97":171758.37,"N_COORD97":2543139.6400000001,"ADDRESS":"裕農路６６８巷２９號之４","OBJECTID":438725},"geometry":{"x":171758.37000000011,"y":2543139.6400000025}},{"attributes":{"ID":438751,"DIS_CODE":0,"TOWNNAME":"東區","LI":"南聖里","LIN":"4鄰","STREET":"裕農路","SECT":" ","MAREA":" ","LANE":"６６８巷","ALLEY":" ","HOUSE_NO":"２９號之５","E_COORD97":171765.23000000001,"N_COORD97":2543126.3199999998,"ADDRESS":"裕農路６６８巷２９號之５","OBJECTID":438726},"geometry":{"x":171765.22999999952,"y":2543126.3200000003}},{"attributes":{"ID":438752,"DIS_CODE":0,"TOWNNAME":"東區","LI":"關聖里","LIN":" ","STREET":"裕農路","SECT":" ","MAREA":" ","LANE":"６６８巷","ALLEY":" ","HOUSE_NO":"４０號","E_COORD97":171728.26999999999,"N_COORD97":2543019.8500000001,"ADDRESS":"裕農路６６８巷４０號","OBJECTID":438727},"geometry":{"x":171728.26999999955,"y":2543019.8499999996}},{"attributes":{"ID":438753,"DIS_CODE":0,"TOWNNAME":"東區","LI":"關聖里","LIN":" ","STREET":"裕農路","SECT":" ","MAREA":" ","LANE":"６６８巷","ALLEY":" ","HOUSE_NO":"４０號之１","E_COORD97":171725.23000000001,"N_COORD97":2543019.1400000001,"ADDRESS":"裕農路６６８巷４０號之１","OBJECTID":438728},"geometry":{"x":171725.23000000138,"y":2543019.1400000006}},{"attributes":{"ID":438754,"DIS_CODE":0,"TOWNNAME":"東區","LI":"關聖里","LIN":" ","STREET":"裕農路","SECT":" ","MAREA":" ","LANE":"６６８巷","ALLEY":" ","HOUSE_NO":"４０號之２","E_COORD97":171722.01000000001,"N_COORD97":2543020.7200000002,"ADDRESS":"裕農路６６８巷４０號之２","OBJECTID":438729},"geometry":{"x":171722.01000000164,"y":2543020.7200000025}},{"attributes":{"ID":438755,"DIS_CODE":0,"TOWNNAME":"東區","LI":"關聖里","LIN":" ","STREET":"裕農路","SECT":" ","MAREA":" ","LANE":"６６８巷","ALLEY":" ","HOUSE_NO":"４０號之３","E_COORD97":171719.01999999999,"N_COORD97":2543019.73,"ADDRESS":"裕農路６６８巷４０號之３","OBJECTID":438730},"geometry":{"x":171719.02000000048,"y":2543019.7300000042}},{"attributes":{"ID":438756,"DIS_CODE":0,"TOWNNAME":"東區","LI":"關聖里","LIN":" ","STREET":"裕農路","SECT":" ","MAREA":" ","LANE":"６６８巷","ALLEY":" ","HOUSE_NO":"４０號之４","E_COORD97":171718.60999999999,"N_COORD97":2543011.4199999999,"ADDRESS":"裕農路６６８巷４０號之４","OBJECTID":438731},"geometry":{"x":171718.6100000022,"y":2543011.4200000018}},{"attributes":{"ID":438757,"DIS_CODE":0,"TOWNNAME":"東區","LI":"關聖里","LIN":" ","STREET":"裕農路","SECT":" ","MAREA":" ","LANE":"６６８巷","ALLEY":" ","HOUSE_NO":"４０號之５","E_COORD97":171721.82999999999,"N_COORD97":2543010.48,"ADDRESS":"裕農路６６８巷４０號之５","OBJECTID":438732},"geometry":{"x":171721.83000000194,"y":2543010.4800000004}},{"attributes":{"ID":438758,"DIS_CODE":0,"TOWNNAME":"東區","LI":"關聖里","LIN":" ","STREET":"裕農路","SECT":" ","MAREA":" ","LANE":"６６８巷","ALLEY":" ","HOUSE_NO":"４０號之６","E_COORD97":171725.45999999999,"N_COORD97":2543011.8300000001,"ADDRESS":"裕農路６６８巷４０號之６","OBJECTID":438733},"geometry":{"x":171725.45999999996,"y":2543011.8300000038}},{"attributes":{"ID":438759,"DIS_CODE":0,"TOWNNAME":"北區","LI":"大豐里","LIN":"20鄰","STREET":"大興街","SECT":" ","MAREA":" ","LANE":"２３３巷","ALLEY":" ","HOUSE_NO":"５６號五樓之１","E_COORD97":166846.79999999999,"N_COORD97":2545498.4500000002,"ADDRESS":"大興街２３３巷５６號五樓之１","OBJECTID":438734},"geometry":{"x":166846.80000000075,"y":2545498.4499999974}},{"attributes":{"ID":438760,"DIS_CODE":0,"TOWNNAME":"北區","LI":"大豐里","LIN":"20鄰","STREET":"大興街","SECT":" ","MAREA":" ","LANE":"２３３巷","ALLEY":" ","HOUSE_NO":"５６號五樓之２","E_COORD97":166846.79999999999,"N_COORD97":2545498.4500000002,"ADDRESS":"大興街２３３巷５６號五樓之２","OBJECTID":438735},"geometry":{"x":166846.80000000075,"y":2545498.4499999974}},{"attributes":{"ID":438761,"DIS_CODE":0,"TOWNNAME":"新市區","LI":"港墘里","LIN":"4鄰","STREET":"三民街","SECT":" ","MAREA":" ","LANE":"７８巷","ALLEY":" ","HOUSE_NO":"１７號","E_COORD97":178446.42000000001,"N_COORD97":2553514.54,"ADDRESS":"三民街７８巷１７號","OBJECTID":438736},"geometry":{"x":178446.42000000086,"y":2553514.5399999991}},{"attributes":{"ID":438762,"DIS_CODE":0,"TOWNNAME":"新市區","LI":"港墘里","LIN":"25鄰","STREET":"華美街","SECT":" ","MAREA":" ","LANE":"３５巷","ALLEY":" ","HOUSE_NO":"１４號","E_COORD97":178039.73999999999,"N_COORD97":2552909.5499999998,"ADDRESS":"華美街３５巷１４號","OBJECTID":438737},"geometry":{"x":178039.74000000115,"y":2552909.5500000007}},{"attributes":{"ID":438763,"DIS_CODE":0,"TOWNNAME":"新市區","LI":"港墘里","LIN":"20鄰","STREET":"光華街","SECT":" ","MAREA":" ","LANE":"１５２巷","ALLEY":" ","HOUSE_NO":"２號","E_COORD97":177933.70000000001,"N_COORD97":2552810.25,"ADDRESS":"光華街１５２巷２號","OBJECTID":438738},"geometry":{"x":177933.70000000019,"y":2552810.2499999981}},{"attributes":{"ID":438764,"DIS_CODE":0,"TOWNNAME":"新市區","LI":"新市里","LIN":"25鄰","STREET":"復興路","SECT":" ","MAREA":" ","LANE":"６巷","ALLEY":" ","HOUSE_NO":"４０號","E_COORD97":177924.26000000001,"N_COORD97":2553356.7799999998,"ADDRESS":"復興路６巷４０號","OBJECTID":438739},"geometry":{"x":177924.25999999978,"y":2553356.7800000012}},{"attributes":{"ID":438765,"DIS_CODE":0,"TOWNNAME":"新市區","LI":"新市里","LIN":"13鄰","STREET":"中正路","SECT":" ","MAREA":" ","LANE":"３０１巷","ALLEY":" ","HOUSE_NO":"３３號","E_COORD97":177553.73000000001,"N_COORD97":2553334.75,"ADDRESS":"中正路３０１巷３３號","OBJECTID":438740},"geometry":{"x":177553.73000000045,"y":2553334.75}},{"attributes":{"ID":438766,"DIS_CODE":0,"TOWNNAME":"新市區","LI":"新市里","LIN":"7鄰","STREET":"中正路","SECT":" ","MAREA":" ","LANE":"２６８巷","ALLEY":" ","HOUSE_NO":"５號","E_COORD97":177494.81,"N_COORD97":2553033.25,"ADDRESS":"中正路２６８巷５號","OBJECTID":438741},"geometry":{"x":177494.80999999959,"y":2553033.25}},{"attributes":{"ID":438767,"DIS_CODE":0,"TOWNNAME":"新市區","LI":"港墘里","LIN":"13鄰","STREET":"中山路","SECT":" ","MAREA":" ","LANE":"７８巷","ALLEY":" ","HOUSE_NO":"５號","E_COORD97":178382.17999999999,"N_COORD97":2552847.25,"ADDRESS":"中山路７８巷５號","OBJECTID":438742},"geometry":{"x":178382.1799999997,"y":2552847.25}},{"attributes":{"ID":438768,"DIS_CODE":0,"TOWNNAME":"新市區","LI":"港墘里","LIN":"13鄰","STREET":"中山路","SECT":" ","MAREA":" ","LANE":"７８巷","ALLEY":" ","HOUSE_NO":"４９號","E_COORD97":178226.38,"N_COORD97":2552848,"ADDRESS":"中山路７８巷４９號","OBJECTID":438743},"geometry":{"x":178226.38000000082,"y":2552848}},{"attributes":{"ID":438769,"DIS_CODE":0,"TOWNNAME":"新市區","LI":"港墘里","LIN":"4鄰","STREET":"三民街","SECT":" ","MAREA":" ","LANE":"７８巷","ALLEY":" ","HOUSE_NO":"８號","E_COORD97":178449.85000000001,"N_COORD97":2553464.29,"ADDRESS":"三民街７８巷８號","OBJECTID":438744},"geometry":{"x":178449.85000000056,"y":2553464.290000001}},{"attributes":{"ID":438770,"DIS_CODE":0,"TOWNNAME":"新市區","LI":"港墘里","LIN":"13鄰","STREET":"中山路","SECT":" ","MAREA":" ","LANE":"７８巷","ALLEY":" ","HOUSE_NO":"１７號","E_COORD97":178357.57000000001,"N_COORD97":2552847.5,"ADDRESS":"中山路７８巷１７號","OBJECTID":438745},"geometry":{"x":178357.57000000123,"y":2552847.5000000019}},{"attributes":{"ID":438771,"DIS_CODE":0,"TOWNNAME":"新市區","LI":"港墘里","LIN":"4鄰","STREET":"三民街","SECT":" ","MAREA":" ","LANE":"１１２巷","ALLEY":" ","HOUSE_NO":"２０號","E_COORD97":178364.98999999999,"N_COORD97":2553550.54,"ADDRESS":"三民街１１２巷２０號","OBJECTID":438746},"geometry":{"x":178364.99000000115,"y":2553550.540000001}},{"attributes":{"ID":438772,"DIS_CODE":0,"TOWNNAME":"新市區","LI":"港墘里","LIN":"4鄰","STREET":"三民街","SECT":" ","MAREA":" ","LANE":"７０巷","ALLEY":" ","HOUSE_NO":"７號","E_COORD97":178480.04000000001,"N_COORD97":2553499.54,"ADDRESS":"三民街７０巷７號","OBJECTID":438747},"geometry":{"x":178480.04000000004,"y":2553499.540000001}},{"attributes":{"ID":438773,"DIS_CODE":0,"TOWNNAME":"新市區","LI":"港墘里","LIN":"26鄰","STREET":"華美街","SECT":" ","MAREA":" ","LANE":"３０巷","ALLEY":" ","HOUSE_NO":"４號","E_COORD97":178169.28,"N_COORD97":2552908.5499999998,"ADDRESS":"華美街３０巷４號","OBJECTID":438748},"geometry":{"x":178169.28000000212,"y":2552908.5500000026}},{"attributes":{"ID":438774,"DIS_CODE":0,"TOWNNAME":"新市區","LI":"港墘里","LIN":"4鄰","STREET":"三民街","SECT":" ","MAREA":" ","LANE":"７０巷","ALLEY":" ","HOUSE_NO":"２號","E_COORD97":178486.89000000001,"N_COORD97":2553448.54,"ADDRESS":"三民街７０巷２號","OBJECTID":438749},"geometry":{"x":178486.8900000006,"y":2553448.5400000028}},{"attributes":{"ID":438775,"DIS_CODE":0,"TOWNNAME":"新市區","LI":"港墘里","LIN":"25鄰","STREET":"華美街","SECT":" ","MAREA":" ","LANE":"３９巷","ALLEY":" ","HOUSE_NO":"６號","E_COORD97":178092.87,"N_COORD97":2552938.0499999998,"ADDRESS":"華美街３９巷６號","OBJECTID":438750},"geometry":{"x":178092.87000000104,"y":2552938.0500000045}},{"attributes":{"ID":438776,"DIS_CODE":0,"TOWNNAME":"新市區","LI":"港墘里","LIN":"20鄰","STREET":"光華街","SECT":" ","MAREA":" ","LANE":"１５２巷","ALLEY":" ","HOUSE_NO":"８號","E_COORD97":177947.64999999999,"N_COORD97":2552813,"ADDRESS":"光華街１５２巷８號","OBJECTID":438751},"geometry":{"x":177947.65000000037,"y":2552813.0000000019}},{"attributes":{"ID":438777,"DIS_CODE":0,"TOWNNAME":"新市區","LI":"港墘里","LIN":"26鄰","STREET":"中山路","SECT":" ","MAREA":" ","LANE":"７８巷","ALLEY":" ","HOUSE_NO":"１０號","E_COORD97":178189.67999999999,"N_COORD97":2552868,"ADDRESS":"中山路７８巷１０號","OBJECTID":438752},"geometry":{"x":178189.68000000156,"y":2552868.0000000019}},{"attributes":{"ID":438778,"DIS_CODE":0,"TOWNNAME":"新市區","LI":"港墘里","LIN":"4鄰","STREET":"三民街","SECT":" ","MAREA":" ","LANE":"１１２巷","ALLEY":" ","HOUSE_NO":"２號","E_COORD97":178336.92999999999,"N_COORD97":2553501.79,"ADDRESS":"三民街１１２巷２號","OBJECTID":438753},"geometry":{"x":178336.9299999997,"y":2553501.790000001}},{"attributes":{"ID":438779,"DIS_CODE":0,"TOWNNAME":"新市區","LI":"港墘里","LIN":"20鄰","STREET":"光華街","SECT":" ","MAREA":" ","LANE":"１５２巷","ALLEY":" ","HOUSE_NO":"１０號","E_COORD97":177955.54000000001,"N_COORD97":2552814.5,"ADDRESS":"光華街１５２巷１０號","OBJECTID":438754},"geometry":{"x":177955.54000000097,"y":2552814.5}},{"attributes":{"ID":438780,"DIS_CODE":0,"TOWNNAME":"新市區","LI":"港墘里","LIN":"13鄰","STREET":"中山路","SECT":" ","MAREA":" ","LANE":"７８巷","ALLEY":" ","HOUSE_NO":"１１號","E_COORD97":178370.92999999999,"N_COORD97":2552848.25,"ADDRESS":"中山路７８巷１１號","OBJECTID":438755},"geometry":{"x":178370.92999999877,"y":2552848.2500000019}},{"attributes":{"ID":438781,"DIS_CODE":0,"TOWNNAME":"新市區","LI":"新和里","LIN":"34鄰","STREET":"仁愛街","SECT":" ","MAREA":" ","LANE":"２０５巷","ALLEY":" ","HOUSE_NO":"１號","E_COORD97":177579.79000000001,"N_COORD97":2552806.0299999998,"ADDRESS":"仁愛街２０５巷１號","OBJECTID":438756},"geometry":{"x":177579.79000000097,"y":2552806.0300000012}},{"attributes":{"ID":438782,"DIS_CODE":0,"TOWNNAME":"新市區","LI":"港墘里","LIN":"13鄰","STREET":"中山路","SECT":" ","MAREA":" ","LANE":"７８巷","ALLEY":" ","HOUSE_NO":"５５號","E_COORD97":178200.37,"N_COORD97":2552852.5,"ADDRESS":"中山路７８巷５５號","OBJECTID":438757},"geometry":{"x":178200.37000000011,"y":2552852.5}},{"attributes":{"ID":438783,"DIS_CODE":0,"TOWNNAME":"新市區","LI":"港墘里","LIN":"13鄰","STREET":"中山路","SECT":" ","MAREA":" ","LANE":"７８巷","ALLEY":" ","HOUSE_NO":"２３號","E_COORD97":178342.48999999999,"N_COORD97":2552843.75,"ADDRESS":"中山路７８巷２３號","OBJECTID":438758},"geometry":{"x":178342.49000000209,"y":2552843.75}},{"attributes":{"ID":438784,"DIS_CODE":0,"TOWNNAME":"新市區","LI":"港墘里","LIN":"4鄰","STREET":"三民街","SECT":" ","MAREA":" ","LANE":"７８巷","ALLEY":" ","HOUSE_NO":"１０號","E_COORD97":178453.70000000001,"N_COORD97":2553468.04,"ADDRESS":"三民街７８巷１０號","OBJECTID":438759},"geometry":{"x":178453.70000000019,"y":2553468.0399999991}},{"attributes":{"ID":438785,"DIS_CODE":0,"TOWNNAME":"新市區","LI":"新市里","LIN":"13鄰","STREET":"中正路","SECT":" ","MAREA":" ","LANE":"３０１巷","ALLEY":" ","HOUSE_NO":"２５號","E_COORD97":177560.95999999999,"N_COORD97":2553319,"ADDRESS":"中正路３０１巷２５號","OBJECTID":438760},"geometry":{"x":177560.96000000089,"y":2553319}},{"attributes":{"ID":438786,"DIS_CODE":0,"TOWNNAME":"新市區","LI":"港墘里","LIN":"25鄰","STREET":"華美街","SECT":" ","MAREA":" ","LANE":"３５巷","ALLEY":" ","HOUSE_NO":"１２號","E_COORD97":178046.06,"N_COORD97":2552907.0499999998,"ADDRESS":"華美街３５巷１２號","OBJECTID":438761},"geometry":{"x":178046.05999999959,"y":2552907.0500000007}},{"attributes":{"ID":438787,"DIS_CODE":0,"TOWNNAME":"新市區","LI":"港墘里","LIN":"26鄰","STREET":"華美街","SECT":" ","MAREA":" ","LANE":"３０巷","ALLEY":" ","HOUSE_NO":"１８號","E_COORD97":178198.62,"N_COORD97":2552902.0499999998,"ADDRESS":"華美街３０巷１８號","OBJECTID":438762},"geometry":{"x":178198.62000000011,"y":2552902.0500000026}},{"attributes":{"ID":438788,"DIS_CODE":0,"TOWNNAME":"新市區","LI":"新市里","LIN":"25鄰","STREET":"復興路","SECT":" ","MAREA":" ","LANE":"６巷","ALLEY":" ","HOUSE_NO":"３６號","E_COORD97":177916.81,"N_COORD97":2553354.0299999998,"ADDRESS":"復興路６巷３６號","OBJECTID":438763},"geometry":{"x":177916.80999999959,"y":2553354.0300000012}},{"attributes":{"ID":438789,"DIS_CODE":0,"TOWNNAME":"新市區","LI":"新市里","LIN":"26鄰","STREET":"復興路","SECT":" ","MAREA":" ","LANE":"６巷","ALLEY":" ","HOUSE_NO":"３７號","E_COORD97":177926.34,"N_COORD97":2553371.7799999998,"ADDRESS":"復興路６巷３７號","OBJECTID":438764},"geometry":{"x":177926.34000000078,"y":2553371.7799999993}},{"attributes":{"ID":438790,"DIS_CODE":0,"TOWNNAME":"新市區","LI":"港墘里","LIN":"26鄰","STREET":"中山路","SECT":" ","MAREA":" ","LANE":"７８巷","ALLEY":" ","HOUSE_NO":"２４號","E_COORD97":178162.09,"N_COORD97":2552875,"ADDRESS":"中山路７８巷２４號","OBJECTID":438765},"geometry":{"x":178162.09000000078,"y":2552875}},{"attributes":{"ID":438791,"DIS_CODE":0,"TOWNNAME":"新市區","LI":"港墘里","LIN":"13鄰","STREET":"中山路","SECT":" ","MAREA":" ","LANE":"７８巷","ALLEY":" ","HOUSE_NO":"６７號","E_COORD97":178163.89999999999,"N_COORD97":2552860.75,"ADDRESS":"中山路７８巷６７號","OBJECTID":438766},"geometry":{"x":178163.9000000013,"y":2552860.75}},{"attributes":{"ID":438792,"DIS_CODE":0,"TOWNNAME":"新市區","LI":"新和里","LIN":"40鄰","STREET":"勝利街","SECT":" ","MAREA":" ","LANE":"３５巷","ALLEY":" ","HOUSE_NO":"４號","E_COORD97":177298.85000000001,"N_COORD97":2552923.5099999998,"ADDRESS":"勝利街３５巷４號","OBJECTID":438767},"geometry":{"x":177298.85000000056,"y":2552923.5099999979}},{"attributes":{"ID":438793,"DIS_CODE":0,"TOWNNAME":"新市區","LI":"新和里","LIN":"42鄰","STREET":"信義街","SECT":" ","MAREA":" ","LANE":"１０６巷","ALLEY":" ","HOUSE_NO":"２６號","E_COORD97":177349.23999999999,"N_COORD97":2553008.02,"ADDRESS":"信義街１０６巷２６號","OBJECTID":438768},"geometry":{"x":177349.24000000115,"y":2553008.0200000033}},{"attributes":{"ID":438794,"DIS_CODE":0,"TOWNNAME":"新市區","LI":"新和里","LIN":"42鄰","STREET":"信義街","SECT":" ","MAREA":" ","LANE":"１０６巷","ALLEY":" ","HOUSE_NO":"２４號","E_COORD97":177344.73999999999,"N_COORD97":2553007.77,"ADDRESS":"信義街１０６巷２４號","OBJECTID":438769},"geometry":{"x":177344.74000000115,"y":2553007.7700000014}},{"attributes":{"ID":438795,"DIS_CODE":0,"TOWNNAME":"新市區","LI":"港墘里","LIN":"26鄰","STREET":"中山路","SECT":" ","MAREA":" ","LANE":"７８巷","ALLEY":" ","HOUSE_NO":"１２號","E_COORD97":178185.73999999999,"N_COORD97":2552869,"ADDRESS":"中山路７８巷１２號","OBJECTID":438770},"geometry":{"x":178185.74000000022,"y":2552869}},{"attributes":{"ID":438796,"DIS_CODE":0,"TOWNNAME":"新市區","LI":"新和里","LIN":"46鄰","STREET":"和平街","SECT":" ","MAREA":" ","LANE":"２１２巷","ALLEY":" ","HOUSE_NO":"１１號","E_COORD97":177319.23000000001,"N_COORD97":2553248,"ADDRESS":"和平街２１２巷１１號","OBJECTID":438771},"geometry":{"x":177319.23000000138,"y":2553248}},{"attributes":{"ID":438797,"DIS_CODE":0,"TOWNNAME":"新市區","LI":"港墘里","LIN":"20鄰","STREET":"光華街","SECT":" ","MAREA":" ","LANE":"１５２巷","ALLEY":" ","HOUSE_NO":"１６號","E_COORD97":177975.73000000001,"N_COORD97":2552817,"ADDRESS":"光華街１５２巷１６號","OBJECTID":438772},"geometry":{"x":177975.73000000045,"y":2552817.0000000019}},{"attributes":{"ID":438798,"DIS_CODE":0,"TOWNNAME":"新市區","LI":"新市里","LIN":"13鄰","STREET":"中正路","SECT":" ","MAREA":" ","LANE":"３０１巷","ALLEY":" ","HOUSE_NO":"１７號","E_COORD97":177565.14999999999,"N_COORD97":2553298.75,"ADDRESS":"中正路３０１巷１７號","OBJECTID":438773},"geometry":{"x":177565.15000000224,"y":2553298.7500000037}},{"attributes":{"ID":438799,"DIS_CODE":0,"TOWNNAME":"新市區","LI":"新市里","LIN":"13鄰","STREET":"中正路","SECT":" ","MAREA":" ","LANE":"３０１巷","ALLEY":" ","HOUSE_NO":"２７號","E_COORD97":177559.01000000001,"N_COORD97":2553323,"ADDRESS":"中正路３０１巷２７號","OBJECTID":438774},"geometry":{"x":177559.01000000071,"y":2553323}},{"attributes":{"ID":438800,"DIS_CODE":0,"TOWNNAME":"安南區","LI":"海佃里","LIN":"19鄰","STREET":"海佃路","SECT":"一段","MAREA":" ","LANE":"２１３巷","ALLEY":" ","HOUSE_NO":"３７號","E_COORD97":167010.17999999999,"N_COORD97":2547225.1400000001,"ADDRESS":"海佃路一段２１３巷３７號","OBJECTID":438775},"geometry":{"x":167010.18000000063,"y":2547225.1400000025}},{"attributes":{"ID":438801,"DIS_CODE":0,"TOWNNAME":"安南區","LI":"海佃里","LIN":"19鄰","STREET":"海佃路","SECT":"一段","MAREA":" ","LANE":"２１３巷","ALLEY":" ","HOUSE_NO":"３８號","E_COORD97":167006.19,"N_COORD97":2547250.3799999999,"ADDRESS":"海佃路一段２１３巷３８號","OBJECTID":438776},"geometry":{"x":167006.19000000134,"y":2547250.379999999}},{"attributes":{"ID":438802,"DIS_CODE":0,"TOWNNAME":"安南區","LI":"海佃里","LIN":"19鄰","STREET":"海佃路","SECT":"一段","MAREA":" ","LANE":"２１３巷","ALLEY":" ","HOUSE_NO":"３９號","E_COORD97":167005.53,"N_COORD97":2547223.1400000001,"ADDRESS":"海佃路一段２１３巷３９號","OBJECTID":438777},"geometry":{"x":167005.53000000119,"y":2547223.1400000006}},{"attributes":{"ID":438803,"DIS_CODE":0,"TOWNNAME":"安南區","LI":"海佃里","LIN":"19鄰","STREET":"海佃路","SECT":"一段","MAREA":" ","LANE":"２１３巷","ALLEY":" ","HOUSE_NO":"３號","E_COORD97":167084.67000000001,"N_COORD97":2547239.75,"ADDRESS":"海佃路一段２１３巷３號","OBJECTID":438778},"geometry":{"x":167084.66999999899,"y":2547239.7499999981}},{"attributes":{"ID":438804,"DIS_CODE":0,"TOWNNAME":"安南區","LI":"海佃里","LIN":"19鄰","STREET":"海佃路","SECT":"一段","MAREA":" ","LANE":"２１３巷","ALLEY":" ","HOUSE_NO":"４０號","E_COORD97":167001.54000000001,"N_COORD97":2547248.3900000001,"ADDRESS":"海佃路一段２１３巷４０號","OBJECTID":438779},"geometry":{"x":167001.54000000097,"y":2547248.3900000006}},{"attributes":{"ID":438805,"DIS_CODE":0,"TOWNNAME":"安南區","LI":"海佃里","LIN":"19鄰","STREET":"海佃路","SECT":"一段","MAREA":" ","LANE":"２１３巷","ALLEY":" ","HOUSE_NO":"４１號","E_COORD97":167001.54000000001,"N_COORD97":2547223.8100000001,"ADDRESS":"海佃路一段２１３巷４１號","OBJECTID":438780},"geometry":{"x":167001.54000000097,"y":2547223.8100000024}},{"attributes":{"ID":438806,"DIS_CODE":0,"TOWNNAME":"安南區","LI":"海佃里","LIN":"19鄰","STREET":"海佃路","SECT":"一段","MAREA":" ","LANE":"２１３巷","ALLEY":" ","HOUSE_NO":"４２號","E_COORD97":166997.54999999999,"N_COORD97":2547248.3900000001,"ADDRESS":"海佃路一段２１３巷４２號","OBJECTID":438781},"geometry":{"x":166997.55000000075,"y":2547248.3900000006}},{"attributes":{"ID":438807,"DIS_CODE":0,"TOWNNAME":"安南區","LI":"海佃里","LIN":"19鄰","STREET":"海佃路","SECT":"一段","MAREA":" ","LANE":"２１３巷","ALLEY":" ","HOUSE_NO":"４４號","E_COORD97":166992.89000000001,"N_COORD97":2547248.3900000001,"ADDRESS":"海佃路一段２１３巷４４號","OBJECTID":438782},"geometry":{"x":166992.88999999966,"y":2547248.3900000006}},{"attributes":{"ID":438808,"DIS_CODE":0,"TOWNNAME":"安南區","LI":"海佃里","LIN":"19鄰","STREET":"海佃路","SECT":"一段","MAREA":" ","LANE":"２１３巷","ALLEY":" ","HOUSE_NO":"４５號","E_COORD97":166992.23000000001,"N_COORD97":2547223.1400000001,"ADDRESS":"海佃路一段２１３巷４５號","OBJECTID":438783},"geometry":{"x":166992.23000000138,"y":2547223.1400000006}},{"attributes":{"ID":438809,"DIS_CODE":0,"TOWNNAME":"安南區","LI":"海佃里","LIN":"21鄰","STREET":"海佃路","SECT":"一段","MAREA":" ","LANE":"２４３巷","ALLEY":" ","HOUSE_NO":"１０號","E_COORD97":167040.78,"N_COORD97":2547359.79,"ADDRESS":"海佃路一段２４３巷１０號","OBJECTID":438784},"geometry":{"x":167040.78000000119,"y":2547359.7899999991}},{"attributes":{"ID":438810,"DIS_CODE":0,"TOWNNAME":"安南區","LI":"海佃里","LIN":"21鄰","STREET":"海佃路","SECT":"一段","MAREA":" ","LANE":"２４３巷","ALLEY":" ","HOUSE_NO":"１１號","E_COORD97":167040.10999999999,"N_COORD97":2547337.2000000002,"ADDRESS":"海佃路一段２４３巷１１號","OBJECTID":438785},"geometry":{"x":167040.11000000127,"y":2547337.1999999993}},{"attributes":{"ID":438811,"DIS_CODE":0,"TOWNNAME":"安南區","LI":"海佃里","LIN":"21鄰","STREET":"海佃路","SECT":"一段","MAREA":" ","LANE":"２４３巷","ALLEY":" ","HOUSE_NO":"１２號","E_COORD97":167036.12,"N_COORD97":2547359.1200000001,"ADDRESS":"海佃路一段２４３巷１２號","OBJECTID":438786},"geometry":{"x":167036.12000000197,"y":2547359.120000001}},{"attributes":{"ID":438812,"DIS_CODE":0,"TOWNNAME":"安南區","LI":"海佃里","LIN":"21鄰","STREET":"海佃路","SECT":"一段","MAREA":" ","LANE":"２４３巷","ALLEY":" ","HOUSE_NO":"１４號","E_COORD97":167032.13,"N_COORD97":2547357.79,"ADDRESS":"海佃路一段２４３巷１４號","OBJECTID":438787},"geometry":{"x":167032.12999999989,"y":2547357.790000001}},{"attributes":{"ID":438813,"DIS_CODE":0,"TOWNNAME":"中西區","LI":"藥王里","LIN":" ","STREET":"大福街","SECT":" ","MAREA":" ","LANE":"３巷","ALLEY":" ","HOUSE_NO":"７號","E_COORD97":167266.53,"N_COORD97":2544338.8799999999,"ADDRESS":"大福街３巷７號","OBJECTID":438788},"geometry":{"x":167266.53000000119,"y":2544338.879999999}},{"attributes":{"ID":438814,"DIS_CODE":0,"TOWNNAME":"安南區","LI":"海佃里","LIN":"21鄰","STREET":"海佃路","SECT":"一段","MAREA":" ","LANE":"２４３巷","ALLEY":" ","HOUSE_NO":"１５號","E_COORD97":167031.47,"N_COORD97":2547333.8799999999,"ADDRESS":"海佃路一段２４３巷１５號","OBJECTID":438789},"geometry":{"x":167031.46999999974,"y":2547333.8800000008}},{"attributes":{"ID":438815,"DIS_CODE":0,"TOWNNAME":"將軍區","LI":"廣山里","LIN":"8鄰","STREET":" ","SECT":" ","MAREA":"廣山","LANE":" ","ALLEY":" ","HOUSE_NO":"７１號","E_COORD97":159578.345711,"N_COORD97":2568853.70805,"ADDRESS":"廣山７１號","OBJECTID":438790},"geometry":{"x":159578.34571100026,"y":2568853.7080509998}},{"attributes":{"ID":438816,"DIS_CODE":0,"TOWNNAME":"安南區","LI":"海佃里","LIN":"21鄰","STREET":"海佃路","SECT":"一段","MAREA":" ","LANE":"２４３巷","ALLEY":" ","HOUSE_NO":"１６號","E_COORD97":167028.14000000001,"N_COORD97":2547356.4700000002,"ADDRESS":"海佃路一段２４３巷１６號","OBJECTID":438791},"geometry":{"x":167028.13999999966,"y":2547356.4700000007}},{"attributes":{"ID":438817,"DIS_CODE":0,"TOWNNAME":"安南區","LI":"海佃里","LIN":"21鄰","STREET":"海佃路","SECT":"一段","MAREA":" ","LANE":"２４３巷","ALLEY":" ","HOUSE_NO":"１７號","E_COORD97":167026.14000000001,"N_COORD97":2547333.2200000002,"ADDRESS":"海佃路一段２４３巷１７號","OBJECTID":438792},"geometry":{"x":167026.1400000006,"y":2547333.2200000025}},{"attributes":{"ID":438818,"DIS_CODE":0,"TOWNNAME":"安南區","LI":"海佃里","LIN":"21鄰","STREET":"海佃路","SECT":"一段","MAREA":" ","LANE":"２４３巷","ALLEY":" ","HOUSE_NO":"１８號","E_COORD97":167022.82000000001,"N_COORD97":2547356.4700000002,"ADDRESS":"海佃路一段２４３巷１８號","OBJECTID":438793},"geometry":{"x":167022.8200000003,"y":2547356.4700000007}},{"attributes":{"ID":438819,"DIS_CODE":0,"TOWNNAME":"安南區","LI":"海佃里","LIN":"21鄰","STREET":"海佃路","SECT":"一段","MAREA":" ","LANE":"２４３巷","ALLEY":" ","HOUSE_NO":"１９號","E_COORD97":167022.82000000001,"N_COORD97":2547332.5499999998,"ADDRESS":"海佃路一段２４３巷１９號","OBJECTID":438794},"geometry":{"x":167022.8200000003,"y":2547332.5500000007}},{"attributes":{"ID":438820,"DIS_CODE":0,"TOWNNAME":"安南區","LI":"海佃里","LIN":"21鄰","STREET":"海佃路","SECT":"一段","MAREA":" ","LANE":"２４３巷","ALLEY":" ","HOUSE_NO":"１號","E_COORD97":167062.72,"N_COORD97":2547340.52,"ADDRESS":"海佃路一段２４３巷１號","OBJECTID":438795},"geometry":{"x":167062.72000000067,"y":2547340.5200000014}},{"attributes":{"ID":438821,"DIS_CODE":0,"TOWNNAME":"安南區","LI":"海佃里","LIN":"21鄰","STREET":"海佃路","SECT":"一段","MAREA":" ","LANE":"２４３巷","ALLEY":" ","HOUSE_NO":"２０號","E_COORD97":167018.82999999999,"N_COORD97":2547354.4700000002,"ADDRESS":"海佃路一段２４３巷２０號","OBJECTID":438796},"geometry":{"x":167018.83000000007,"y":2547354.4700000044}},{"attributes":{"ID":438822,"DIS_CODE":0,"TOWNNAME":"安南區","LI":"海佃里","LIN":"21鄰","STREET":"海佃路","SECT":"一段","MAREA":" ","LANE":"２４３巷","ALLEY":" ","HOUSE_NO":"２１號","E_COORD97":167018.16,"N_COORD97":2547331.2200000002,"ADDRESS":"海佃路一段２４３巷２１號","OBJECTID":438797},"geometry":{"x":167018.16000000015,"y":2547331.2200000007}},{"attributes":{"ID":438823,"DIS_CODE":0,"TOWNNAME":"安南區","LI":"海佃里","LIN":"21鄰","STREET":"海佃路","SECT":"一段","MAREA":" ","LANE":"２４３巷","ALLEY":" ","HOUSE_NO":"２２號","E_COORD97":167014.17000000001,"N_COORD97":2547353.1400000001,"ADDRESS":"海佃路一段２４３巷２２號","OBJECTID":438798},"geometry":{"x":167014.17000000086,"y":2547353.1399999987}},{"attributes":{"ID":438824,"DIS_CODE":0,"TOWNNAME":"安南區","LI":"海佃里","LIN":"21鄰","STREET":"海佃路","SECT":"一段","MAREA":" ","LANE":"２４３巷","ALLEY":" ","HOUSE_NO":"２３號","E_COORD97":167014.17000000001,"N_COORD97":2547331.8900000001,"ADDRESS":"海佃路一段２４３巷２３號","OBJECTID":438799},"geometry":{"x":167014.17000000086,"y":2547331.8900000025}},{"attributes":{"ID":438825,"DIS_CODE":0,"TOWNNAME":"安南區","LI":"海佃里","LIN":"21鄰","STREET":"海佃路","SECT":"一段","MAREA":" ","LANE":"２４３巷","ALLEY":" ","HOUSE_NO":"２４號","E_COORD97":167009.51999999999,"N_COORD97":2547352.48,"ADDRESS":"海佃路一段２４３巷２４號","OBJECTID":438800},"geometry":{"x":167009.52000000048,"y":2547352.4800000023}}]}