{"displayFieldName":"TOWNNAME","fieldAliases":{"ID":"ID","DIS_CODE":"DIS_CODE","TOWNNAME":"TOWNNAME","LI":"LI","LIN":"LIN","STREET":"STREET","SECT":"SECT","MAREA":"MAREA","LANE":"LANE","ALLEY":"ALLEY","HOUSE_NO":"HOUSE_NO","E_COORD97":"E_COORD97","N_COORD97":"N_COORD97","ADDRESS":"ADDRESS","OBJECTID":"OBJECTID"},"geometryType":"esriGeometryPoint","spatialReference":{"wkid":102443,"latestWkid":3826},"fields":[{"name":"ID","type":"esriFieldTypeDouble","alias":"ID"},{"name":"DIS_CODE","type":"esriFieldTypeInteger","alias":"DIS_CODE"},{"name":"TOWNNAME","type":"esriFieldTypeString","alias":"TOWNNAME","length":8},{"name":"LI","type":"esriFieldTypeString","alias":"LI","length":8},{"name":"LIN","type":"esriFieldTypeString","alias":"LIN","length":12},{"name":"STREET","type":"esriFieldTypeString","alias":"STREET","length":20},{"name":"SECT","type":"esriFieldTypeString","alias":"SECT","length":8},{"name":"MAREA","type":"esriFieldTypeString","alias":"MAREA","length":12},{"name":"LANE","type":"esriFieldTypeString","alias":"LANE","length":10},{"name":"ALLEY","type":"esriFieldTypeString","alias":"ALLEY","length":10},{"name":"HOUSE_NO","type":"esriFieldTypeString","alias":"HOUSE_NO","length":20},{"name":"E_COORD97","type":"esriFieldTypeDouble","alias":"E_COORD97"},{"name":"N_COORD97","type":"esriFieldTypeDouble","alias":"N_COORD97"},{"name":"ADDRESS","type":"esriFieldTypeString","alias":"ADDRESS","length":50},{"name":"OBJECTID","type":"esriFieldTypeOID","alias":"OBJECTID"}],"features":[{"attributes":{"ID":364611,"DIS_CODE":0,"TOWNNAME":"永康區","LI":"龍潭里","LIN":"44鄰","STREET":"永平街","SECT":" ","MAREA":" ","LANE":"２９８巷","ALLEY":" ","HOUSE_NO":"１３之１８號","E_COORD97":174662.17999999999,"N_COORD97":2547136.4399999999,"ADDRESS":"永平街２９８巷１３之１８號","OBJECTID":364601},"geometry":{"x":174662.18000000063,"y":2547136.4400000032}},{"attributes":{"ID":364612,"DIS_CODE":0,"TOWNNAME":"永康區","LI":"龍潭里","LIN":"44鄰","STREET":"永平街","SECT":" ","MAREA":" ","LANE":"２９８巷","ALLEY":" ","HOUSE_NO":"９之１６號","E_COORD97":174664.01000000001,"N_COORD97":2547194.6000000001,"ADDRESS":"永平街２９８巷９之１６號","OBJECTID":364602},"geometry":{"x":174664.01000000071,"y":2547194.6000000015}},{"attributes":{"ID":364613,"DIS_CODE":0,"TOWNNAME":"永康區","LI":"龍潭里","LIN":"44鄰","STREET":"永平街","SECT":" ","MAREA":" ","LANE":"２９８巷","ALLEY":" ","HOUSE_NO":"７之６號","E_COORD97":174660.16,"N_COORD97":2547120.04,"ADDRESS":"永平街２９８巷７之６號","OBJECTID":364603},"geometry":{"x":174660.16000000015,"y":2547120.040000001}},{"attributes":{"ID":364614,"DIS_CODE":0,"TOWNNAME":"永康區","LI":"龍潭里","LIN":"44鄰","STREET":"永平街","SECT":" ","MAREA":" ","LANE":"２９８巷","ALLEY":" ","HOUSE_NO":"５之１１號","E_COORD97":174681.34,"N_COORD97":2547171.0499999998,"ADDRESS":"永平街２９８巷５之１１號","OBJECTID":364604},"geometry":{"x":174681.34000000171,"y":2547171.0500000045}},{"attributes":{"ID":364615,"DIS_CODE":0,"TOWNNAME":"永康區","LI":"五王里","LIN":"41鄰","STREET":"中山南路","SECT":" ","MAREA":" ","LANE":"２６２巷","ALLEY":" ","HOUSE_NO":"６號十二樓之２","E_COORD97":171561.64000000001,"N_COORD97":2546015.2000000002,"ADDRESS":"中山南路２６２巷６號十二樓之２","OBJECTID":364605},"geometry":{"x":171561.64000000153,"y":2546015.1999999993}},{"attributes":{"ID":364616,"DIS_CODE":0,"TOWNNAME":"永康區","LI":"五王里","LIN":"41鄰","STREET":"中山南路","SECT":" ","MAREA":" ","LANE":"２６２巷","ALLEY":" ","HOUSE_NO":"２號七樓之１１","E_COORD97":171550.45000000001,"N_COORD97":2546054.6200000001,"ADDRESS":"中山南路２６２巷２號七樓之１１","OBJECTID":364606},"geometry":{"x":171550.45000000112,"y":2546054.620000001}},{"attributes":{"ID":364617,"DIS_CODE":0,"TOWNNAME":"永康區","LI":"五王里","LIN":"41鄰","STREET":"中山南路","SECT":" ","MAREA":" ","LANE":"２６２巷","ALLEY":" ","HOUSE_NO":"６號十五樓之１","E_COORD97":171561.51000000001,"N_COORD97":2546015.2000000002,"ADDRESS":"中山南路２６２巷６號十五樓之１","OBJECTID":364607},"geometry":{"x":171561.51000000071,"y":2546015.1999999993}},{"attributes":{"ID":364618,"DIS_CODE":0,"TOWNNAME":"永康區","LI":"五王里","LIN":"41鄰","STREET":"中山南路","SECT":" ","MAREA":" ","LANE":"２６２巷","ALLEY":" ","HOUSE_NO":"６號四樓之２","E_COORD97":171560.39000000001,"N_COORD97":2546015.2000000002,"ADDRESS":"中山南路２６２巷６號四樓之２","OBJECTID":364608},"geometry":{"x":171560.3900000006,"y":2546015.1999999993}},{"attributes":{"ID":364619,"DIS_CODE":0,"TOWNNAME":"永康區","LI":"五王里","LIN":"41鄰","STREET":"中山南路","SECT":" ","MAREA":" ","LANE":"２６２巷","ALLEY":" ","HOUSE_NO":"６號十樓之５","E_COORD97":171560.41,"N_COORD97":2546015.2000000002,"ADDRESS":"中山南路２６２巷６號十樓之５","OBJECTID":364609},"geometry":{"x":171560.41000000201,"y":2546015.1999999993}},{"attributes":{"ID":364620,"DIS_CODE":0,"TOWNNAME":"永康區","LI":"五王里","LIN":"41鄰","STREET":"中山南路","SECT":" ","MAREA":" ","LANE":"２６２巷","ALLEY":" ","HOUSE_NO":"２號十四樓之７","E_COORD97":171550.53,"N_COORD97":2546054.6200000001,"ADDRESS":"中山南路２６２巷２號十四樓之７","OBJECTID":364610},"geometry":{"x":171550.53000000026,"y":2546054.620000001}},{"attributes":{"ID":364621,"DIS_CODE":0,"TOWNNAME":"永康區","LI":"五王里","LIN":"41鄰","STREET":"中山南路","SECT":" ","MAREA":" ","LANE":"２６２巷","ALLEY":" ","HOUSE_NO":"６號九樓之５","E_COORD97":171560.41,"N_COORD97":2546015.2000000002,"ADDRESS":"中山南路２６２巷６號九樓之５","OBJECTID":364611},"geometry":{"x":171560.41000000201,"y":2546015.1999999993}},{"attributes":{"ID":364622,"DIS_CODE":0,"TOWNNAME":"永康區","LI":"五王里","LIN":"41鄰","STREET":"中山南路","SECT":" ","MAREA":" ","LANE":"２６２巷","ALLEY":" ","HOUSE_NO":"６號五樓之９","E_COORD97":171560.34,"N_COORD97":2546015.2000000002,"ADDRESS":"中山南路２６２巷６號五樓之９","OBJECTID":364612},"geometry":{"x":171560.33999999985,"y":2546015.1999999993}},{"attributes":{"ID":364623,"DIS_CODE":0,"TOWNNAME":"永康區","LI":"五王里","LIN":"41鄰","STREET":"中山南路","SECT":" ","MAREA":" ","LANE":"２６２巷","ALLEY":" ","HOUSE_NO":"２號十樓之１０","E_COORD97":171550.5,"N_COORD97":2546054.6200000001,"ADDRESS":"中山南路２６２巷２號十樓之１０","OBJECTID":364613},"geometry":{"x":171550.5,"y":2546054.620000001}},{"attributes":{"ID":364624,"DIS_CODE":0,"TOWNNAME":"永康區","LI":"龍潭里","LIN":"44鄰","STREET":"永平街","SECT":" ","MAREA":" ","LANE":"２９８巷","ALLEY":" ","HOUSE_NO":"７之１６號","E_COORD97":174681.84,"N_COORD97":2547193.6000000001,"ADDRESS":"永平街２９８巷７之１６號","OBJECTID":364614},"geometry":{"x":174681.84000000078,"y":2547193.6000000015}},{"attributes":{"ID":364625,"DIS_CODE":0,"TOWNNAME":"永康區","LI":"龍潭里","LIN":"44鄰","STREET":"永平街","SECT":" ","MAREA":" ","LANE":"２９８巷","ALLEY":" ","HOUSE_NO":"１３之７號","E_COORD97":174660.92999999999,"N_COORD97":2547136.4399999999,"ADDRESS":"永平街２９８巷１３之７號","OBJECTID":364615},"geometry":{"x":174660.93000000063,"y":2547136.4400000032}},{"attributes":{"ID":364626,"DIS_CODE":0,"TOWNNAME":"永康區","LI":"龍潭里","LIN":"44鄰","STREET":"永平街","SECT":" ","MAREA":" ","LANE":"２９８巷","ALLEY":" ","HOUSE_NO":"１１之６號","E_COORD97":174653.62,"N_COORD97":2547150.1899999999,"ADDRESS":"永平街２９８巷１１之６號","OBJECTID":364616},"geometry":{"x":174653.62000000011,"y":2547150.1899999995}},{"attributes":{"ID":364627,"DIS_CODE":0,"TOWNNAME":"永康區","LI":"龍潭里","LIN":"44鄰","STREET":"永平街","SECT":" ","MAREA":" ","LANE":"２９８巷","ALLEY":" ","HOUSE_NO":"１１之１５號","E_COORD97":174654.87,"N_COORD97":2547150.1899999999,"ADDRESS":"永平街２９８巷１１之１５號","OBJECTID":364617},"geometry":{"x":174654.87000000104,"y":2547150.1899999995}},{"attributes":{"ID":364628,"DIS_CODE":0,"TOWNNAME":"永康區","LI":"龍潭里","LIN":"44鄰","STREET":"永平街","SECT":" ","MAREA":" ","LANE":"２９８巷","ALLEY":" ","HOUSE_NO":"１１之２０號","E_COORD97":174654.87,"N_COORD97":2547150.1899999999,"ADDRESS":"永平街２９８巷１１之２０號","OBJECTID":364618},"geometry":{"x":174654.87000000104,"y":2547150.1899999995}},{"attributes":{"ID":364629,"DIS_CODE":0,"TOWNNAME":"永康區","LI":"龍潭里","LIN":"44鄰","STREET":"永平街","SECT":" ","MAREA":" ","LANE":"２９８巷","ALLEY":" ","HOUSE_NO":"１３之１１號","E_COORD97":174662.17999999999,"N_COORD97":2547136.4399999999,"ADDRESS":"永平街２９８巷１３之１１號","OBJECTID":364619},"geometry":{"x":174662.18000000063,"y":2547136.4400000032}},{"attributes":{"ID":364630,"DIS_CODE":0,"TOWNNAME":"永康區","LI":"龍潭里","LIN":"44鄰","STREET":"永平街","SECT":" ","MAREA":" ","LANE":"２９８巷","ALLEY":" ","HOUSE_NO":"１之８號","E_COORD97":174683.76999999999,"N_COORD97":2547136.4399999999,"ADDRESS":"永平街２９８巷１之８號","OBJECTID":364620},"geometry":{"x":174683.77000000048,"y":2547136.4400000032}},{"attributes":{"ID":364631,"DIS_CODE":0,"TOWNNAME":"永康區","LI":"龍潭里","LIN":"44鄰","STREET":"永平街","SECT":" ","MAREA":" ","LANE":"２９８巷","ALLEY":" ","HOUSE_NO":"１１之２３號","E_COORD97":174654.87,"N_COORD97":2547150.1899999999,"ADDRESS":"永平街２９８巷１１之２３號","OBJECTID":364621},"geometry":{"x":174654.87000000104,"y":2547150.1899999995}},{"attributes":{"ID":364632,"DIS_CODE":0,"TOWNNAME":"永康區","LI":"龍潭里","LIN":"44鄰","STREET":"永平街","SECT":" ","MAREA":" ","LANE":"２９８巷","ALLEY":" ","HOUSE_NO":"６之１２號","E_COORD97":174686.20000000001,"N_COORD97":2547119.29,"ADDRESS":"永平街２９８巷６之１２號","OBJECTID":364622},"geometry":{"x":174686.20000000205,"y":2547119.2899999991}},{"attributes":{"ID":364633,"DIS_CODE":0,"TOWNNAME":"永康區","LI":"龍潭里","LIN":"44鄰","STREET":"永平街","SECT":" ","MAREA":" ","LANE":"２９８巷","ALLEY":" ","HOUSE_NO":"１１之１號","E_COORD97":174653.62,"N_COORD97":2547150.1899999999,"ADDRESS":"永平街２９８巷１１之１號","OBJECTID":364623},"geometry":{"x":174653.62000000011,"y":2547150.1899999995}},{"attributes":{"ID":364634,"DIS_CODE":0,"TOWNNAME":"安南區","LI":"海東里","LIN":"13鄰","STREET":"海佃路","SECT":"二段","MAREA":" ","LANE":" ","ALLEY":" ","HOUSE_NO":"３８３號","E_COORD97":166737.63,"N_COORD97":2548920.25,"ADDRESS":"海佃路二段３８３號","OBJECTID":364624},"geometry":{"x":166737.63000000082,"y":2548920.25}},{"attributes":{"ID":364635,"DIS_CODE":0,"TOWNNAME":"南區","LI":"郡南里","LIN":"13鄰","STREET":"永興三街","SECT":" ","MAREA":" ","LANE":" ","ALLEY":" ","HOUSE_NO":"６號","E_COORD97":167463.51999999999,"N_COORD97":2540616.3300000001,"ADDRESS":"永興三街６號","OBJECTID":364625},"geometry":{"x":167463.52000000142,"y":2540616.3300000019}},{"attributes":{"ID":364636,"DIS_CODE":0,"TOWNNAME":"南區","LI":"郡南里","LIN":"13鄰","STREET":"永興三街","SECT":" ","MAREA":" ","LANE":" ","ALLEY":" ","HOUSE_NO":"７號","E_COORD97":167470.98999999999,"N_COORD97":2540588.23,"ADDRESS":"永興三街７號","OBJECTID":364626},"geometry":{"x":167470.98999999929,"y":2540588.2300000004}},{"attributes":{"ID":364637,"DIS_CODE":0,"TOWNNAME":"南區","LI":"郡南里","LIN":"13鄰","STREET":"永興三街","SECT":" ","MAREA":" ","LANE":" ","ALLEY":" ","HOUSE_NO":"９號","E_COORD97":167462.60999999999,"N_COORD97":2540590.5899999999,"ADDRESS":"永興三街９號","OBJECTID":364627},"geometry":{"x":167462.61000000127,"y":2540590.5900000017}},{"attributes":{"ID":364638,"DIS_CODE":0,"TOWNNAME":"南區","LI":"郡南里","LIN":"13鄰","STREET":"永興三街","SECT":" ","MAREA":" ","LANE":" ","ALLEY":" ","HOUSE_NO":"１０號","E_COORD97":167443.94,"N_COORD97":2540612.2999999998,"ADDRESS":"永興三街１０號","OBJECTID":364628},"geometry":{"x":167443.94000000041,"y":2540612.3000000045}},{"attributes":{"ID":364639,"DIS_CODE":0,"TOWNNAME":"南區","LI":"郡南里","LIN":"13鄰","STREET":"永興三街","SECT":" ","MAREA":" ","LANE":" ","ALLEY":" ","HOUSE_NO":"１２號","E_COORD97":167440.32999999999,"N_COORD97":2540613.3599999999,"ADDRESS":"永興三街１２號","OBJECTID":364629},"geometry":{"x":167440.33000000101,"y":2540613.3599999994}},{"attributes":{"ID":364640,"DIS_CODE":0,"TOWNNAME":"南區","LI":"郡南里","LIN":"13鄰","STREET":"永興三街","SECT":" ","MAREA":" ","LANE":" ","ALLEY":" ","HOUSE_NO":"１３號","E_COORD97":167452.94,"N_COORD97":2540589.73,"ADDRESS":"永興三街１３號","OBJECTID":364630},"geometry":{"x":167452.94000000227,"y":2540589.7300000023}},{"attributes":{"ID":364641,"DIS_CODE":0,"TOWNNAME":"南區","LI":"郡南里","LIN":"13鄰","STREET":"永興三街","SECT":" ","MAREA":" ","LANE":" ","ALLEY":" ","HOUSE_NO":"１７號","E_COORD97":167443.92000000001,"N_COORD97":2540587.7999999998,"ADDRESS":"永興三街１７號","OBJECTID":364631},"geometry":{"x":167443.91999999993,"y":2540587.8000000007}},{"attributes":{"ID":364642,"DIS_CODE":0,"TOWNNAME":"南區","LI":"郡南里","LIN":"13鄰","STREET":"永興三街","SECT":" ","MAREA":" ","LANE":" ","ALLEY":" ","HOUSE_NO":"１８號","E_COORD97":167423.73000000001,"N_COORD97":2540612.9399999999,"ADDRESS":"永興三街１８號","OBJECTID":364632},"geometry":{"x":167423.73000000045,"y":2540612.9399999995}},{"attributes":{"ID":364643,"DIS_CODE":0,"TOWNNAME":"南區","LI":"郡南里","LIN":"13鄰","STREET":"永興三街","SECT":" ","MAREA":" ","LANE":" ","ALLEY":" ","HOUSE_NO":"１９號","E_COORD97":167438.54999999999,"N_COORD97":2540587.5800000001,"ADDRESS":"永興三街１９號","OBJECTID":364633},"geometry":{"x":167438.55000000075,"y":2540587.5800000019}},{"attributes":{"ID":364644,"DIS_CODE":0,"TOWNNAME":"永康區","LI":"五王里","LIN":"41鄰","STREET":"中山南路","SECT":" ","MAREA":" ","LANE":"２６２巷","ALLEY":" ","HOUSE_NO":"２號九樓之１０","E_COORD97":171550.5,"N_COORD97":2546054.6200000001,"ADDRESS":"中山南路２６２巷２號九樓之１０","OBJECTID":364634},"geometry":{"x":171550.5,"y":2546054.620000001}},{"attributes":{"ID":364645,"DIS_CODE":0,"TOWNNAME":"永康區","LI":"五王里","LIN":"41鄰","STREET":"中山南路","SECT":" ","MAREA":" ","LANE":"２６２巷","ALLEY":" ","HOUSE_NO":"２號九樓之１","E_COORD97":171549.20000000001,"N_COORD97":2546054.6200000001,"ADDRESS":"中山南路２６２巷２號九樓之１","OBJECTID":364635},"geometry":{"x":171549.20000000019,"y":2546054.620000001}},{"attributes":{"ID":364646,"DIS_CODE":0,"TOWNNAME":"永康區","LI":"五王里","LIN":"41鄰","STREET":"中山南路","SECT":" ","MAREA":" ","LANE":"２６２巷","ALLEY":" ","HOUSE_NO":"２號七樓之９","E_COORD97":171549.28,"N_COORD97":2546054.6200000001,"ADDRESS":"中山南路２６２巷２號七樓之９","OBJECTID":364636},"geometry":{"x":171549.28000000026,"y":2546054.620000001}},{"attributes":{"ID":364647,"DIS_CODE":0,"TOWNNAME":"永康區","LI":"五王里","LIN":"41鄰","STREET":"中山南路","SECT":" ","MAREA":" ","LANE":"２６２巷","ALLEY":" ","HOUSE_NO":"２號十三樓之１０","E_COORD97":171551.75,"N_COORD97":2546054.6200000001,"ADDRESS":"中山南路２６２巷２號十三樓之１０","OBJECTID":364637},"geometry":{"x":171551.75000000093,"y":2546054.620000001}},{"attributes":{"ID":364648,"DIS_CODE":0,"TOWNNAME":"東區","LI":"關聖里","LIN":"13鄰","STREET":"裕和二街","SECT":" ","MAREA":" ","LANE":" ","ALLEY":" ","HOUSE_NO":"３１號","E_COORD97":172207.04999999999,"N_COORD97":2543045.5,"ADDRESS":"裕和二街３１號","OBJECTID":364638},"geometry":{"x":172207.05000000075,"y":2543045.5000000019}},{"attributes":{"ID":364649,"DIS_CODE":0,"TOWNNAME":"永康區","LI":"五王里","LIN":"41鄰","STREET":"中山南路","SECT":" ","MAREA":" ","LANE":"２６２巷","ALLEY":" ","HOUSE_NO":"２號九樓之１５","E_COORD97":171550.60000000001,"N_COORD97":2546054.6200000001,"ADDRESS":"中山南路２６２巷２號九樓之１５","OBJECTID":364639},"geometry":{"x":171550.60000000056,"y":2546054.620000001}},{"attributes":{"ID":364650,"DIS_CODE":0,"TOWNNAME":"永康區","LI":"五王里","LIN":"41鄰","STREET":"中山南路","SECT":" ","MAREA":" ","LANE":"２６２巷","ALLEY":" ","HOUSE_NO":"２號七樓之６","E_COORD97":171549.29999999999,"N_COORD97":2546054.6200000001,"ADDRESS":"中山南路２６２巷２號七樓之６","OBJECTID":364640},"geometry":{"x":171549.30000000075,"y":2546054.620000001}},{"attributes":{"ID":364651,"DIS_CODE":0,"TOWNNAME":"永康區","LI":"五王里","LIN":"41鄰","STREET":"中山南路","SECT":" ","MAREA":" ","LANE":"２６２巷","ALLEY":" ","HOUSE_NO":"２號七樓之３","E_COORD97":171549.29999999999,"N_COORD97":2546054.6200000001,"ADDRESS":"中山南路２６２巷２號七樓之３","OBJECTID":364641},"geometry":{"x":171549.30000000075,"y":2546054.620000001}},{"attributes":{"ID":364652,"DIS_CODE":0,"TOWNNAME":"永康區","LI":"二王里","LIN":"41鄰","STREET":"中山南路","SECT":" ","MAREA":" ","LANE":"３１６巷","ALLEY":" ","HOUSE_NO":"２０號二樓之２","E_COORD97":171999.23000000001,"N_COORD97":2546125.54,"ADDRESS":"中山南路３１６巷２０號二樓之２","OBJECTID":364642},"geometry":{"x":171999.23000000231,"y":2546125.540000001}},{"attributes":{"ID":364653,"DIS_CODE":0,"TOWNNAME":"永康區","LI":"二王里","LIN":"41鄰","STREET":"中山南路","SECT":" ","MAREA":" ","LANE":"３１６巷","ALLEY":" ","HOUSE_NO":"１２號四樓之３","E_COORD97":171993.5,"N_COORD97":2546163.0299999998,"ADDRESS":"中山南路３１６巷１２號四樓之３","OBJECTID":364643},"geometry":{"x":171993.49999999907,"y":2546163.0300000012}},{"attributes":{"ID":364654,"DIS_CODE":0,"TOWNNAME":"永康區","LI":"五王里","LIN":"41鄰","STREET":"中山南路","SECT":" ","MAREA":" ","LANE":"２６２巷","ALLEY":" ","HOUSE_NO":"６號九樓之３","E_COORD97":171560.35999999999,"N_COORD97":2546015.2000000002,"ADDRESS":"中山南路２６２巷６號九樓之３","OBJECTID":364644},"geometry":{"x":171560.36000000034,"y":2546015.1999999993}},{"attributes":{"ID":364655,"DIS_CODE":0,"TOWNNAME":"永康區","LI":"五王里","LIN":"41鄰","STREET":"中山南路","SECT":" ","MAREA":" ","LANE":"２６２巷","ALLEY":" ","HOUSE_NO":"６號三樓之１０","E_COORD97":171561.56,"N_COORD97":2546015.2000000002,"ADDRESS":"中山南路２６２巷６號三樓之１０","OBJECTID":364645},"geometry":{"x":171561.55999999959,"y":2546015.1999999993}},{"attributes":{"ID":364656,"DIS_CODE":0,"TOWNNAME":"永康區","LI":"五王里","LIN":"41鄰","STREET":"中山南路","SECT":" ","MAREA":" ","LANE":"２６２巷","ALLEY":" ","HOUSE_NO":"２號十五樓之８","E_COORD97":171550.60000000001,"N_COORD97":2546054.6200000001,"ADDRESS":"中山南路２６２巷２號十五樓之８","OBJECTID":364646},"geometry":{"x":171550.60000000056,"y":2546054.620000001}},{"attributes":{"ID":364657,"DIS_CODE":0,"TOWNNAME":"永康區","LI":"二王里","LIN":"41鄰","STREET":"中山南路","SECT":" ","MAREA":" ","LANE":"３１６巷","ALLEY":" ","HOUSE_NO":"１８號三樓之２","E_COORD97":171991.72,"N_COORD97":2546124.29,"ADDRESS":"中山南路３１６巷１８號三樓之２","OBJECTID":364647},"geometry":{"x":171991.71999999881,"y":2546124.290000001}},{"attributes":{"ID":364658,"DIS_CODE":0,"TOWNNAME":"安平區","LI":"平安里","LIN":"8鄰","STREET":"安平路","SECT":" ","MAREA":" ","LANE":" ","ALLEY":" ","HOUSE_NO":"４３８號","E_COORD97":165293.92000000001,"N_COORD97":2544321.8100000001,"ADDRESS":"安平路４３８號","OBJECTID":364648},"geometry":{"x":165293.91999999993,"y":2544321.8100000024}},{"attributes":{"ID":364659,"DIS_CODE":0,"TOWNNAME":"安平區","LI":"平安里","LIN":"8鄰","STREET":"安平路","SECT":" ","MAREA":" ","LANE":" ","ALLEY":" ","HOUSE_NO":"４３２號","E_COORD97":165303.14000000001,"N_COORD97":2544317.7999999998,"ADDRESS":"安平路４３２號","OBJECTID":364649},"geometry":{"x":165303.14000000153,"y":2544317.7999999989}},{"attributes":{"ID":364660,"DIS_CODE":0,"TOWNNAME":"安平區","LI":"平安里","LIN":"8鄰","STREET":"安平路","SECT":" ","MAREA":" ","LANE":" ","ALLEY":" ","HOUSE_NO":"４３０號","E_COORD97":165306.92000000001,"N_COORD97":2544320.8700000001,"ADDRESS":"安平路４３０號","OBJECTID":364650},"geometry":{"x":165306.92000000086,"y":2544320.870000001}},{"attributes":{"ID":364661,"DIS_CODE":0,"TOWNNAME":"安平區","LI":"平安里","LIN":"8鄰","STREET":"安平路","SECT":" ","MAREA":" ","LANE":" ","ALLEY":" ","HOUSE_NO":"４４４號","E_COORD97":165281.16,"N_COORD97":2544326.7799999998,"ADDRESS":"安平路４４４號","OBJECTID":364651},"geometry":{"x":165281.16000000015,"y":2544326.7800000031}},{"attributes":{"ID":364662,"DIS_CODE":0,"TOWNNAME":"安平區","LI":"億載里","LIN":"8鄰","STREET":"光州六街","SECT":" ","MAREA":" ","LANE":" ","ALLEY":" ","HOUSE_NO":"１０５號","E_COORD97":164020.48000000001,"N_COORD97":2543532.0600000001,"ADDRESS":"光州六街１０５號","OBJECTID":364652},"geometry":{"x":164020.48000000138,"y":2543532.0600000005}},{"attributes":{"ID":364663,"DIS_CODE":0,"TOWNNAME":"南區","LI":"白雪里","LIN":"8鄰","STREET":"\u25A0埕路","SECT":" ","MAREA":" ","LANE":" ","ALLEY":" ","HOUSE_NO":"１０７之１號","E_COORD97":166790.79999999999,"N_COORD97":2540890.2799999998,"ADDRESS":"\u25A0埕路１０７之１號","OBJECTID":364653},"geometry":{"x":166790.80000000075,"y":2540890.2800000012}},{"attributes":{"ID":364664,"DIS_CODE":0,"TOWNNAME":"東區","LI":"裕聖里","LIN":"8鄰","STREET":"裕信六街","SECT":" ","MAREA":" ","LANE":" ","ALLEY":" ","HOUSE_NO":"１８６號","E_COORD97":172849.48999999999,"N_COORD97":2541806.7599999998,"ADDRESS":"裕信六街１８６號","OBJECTID":364654},"geometry":{"x":172849.49000000022,"y":2541806.7599999998}},{"attributes":{"ID":364665,"DIS_CODE":0,"TOWNNAME":"東區","LI":"裕聖里","LIN":"8鄰","STREET":"裕信六街","SECT":" ","MAREA":" ","LANE":" ","ALLEY":" ","HOUSE_NO":"１８２號","E_COORD97":172848.85999999999,"N_COORD97":2541812.0899999999,"ADDRESS":"裕信六街１８２號","OBJECTID":364655},"geometry":{"x":172848.86000000034,"y":2541812.0899999999}},{"attributes":{"ID":364666,"DIS_CODE":0,"TOWNNAME":"東區","LI":"裕聖里","LIN":"8鄰","STREET":"裕信六街","SECT":" ","MAREA":" ","LANE":" ","ALLEY":" ","HOUSE_NO":"１８０號","E_COORD97":172849.17000000001,"N_COORD97":2541818.3599999999,"ADDRESS":"裕信六街１８０號","OBJECTID":364656},"geometry":{"x":172849.17000000086,"y":2541818.3600000013}},{"attributes":{"ID":364667,"DIS_CODE":0,"TOWNNAME":"東區","LI":"裕聖里","LIN":"8鄰","STREET":"裕信六街","SECT":" ","MAREA":" ","LANE":" ","ALLEY":" ","HOUSE_NO":"１７０號","E_COORD97":172847.60999999999,"N_COORD97":2541834.6600000001,"ADDRESS":"裕信六街１７０號","OBJECTID":364657},"geometry":{"x":172847.6100000022,"y":2541834.660000002}},{"attributes":{"ID":364668,"DIS_CODE":0,"TOWNNAME":"東區","LI":"裕聖里","LIN":"8鄰","STREET":"裕信六街","SECT":" ","MAREA":" ","LANE":" ","ALLEY":" ","HOUSE_NO":"１７２號","E_COORD97":172848.85999999999,"N_COORD97":2541829.96,"ADDRESS":"裕信六街１７２號","OBJECTID":364658},"geometry":{"x":172848.86000000034,"y":2541829.9600000028}},{"attributes":{"ID":364669,"DIS_CODE":0,"TOWNNAME":"東區","LI":"裕聖里","LIN":"8鄰","STREET":"裕信六街","SECT":" ","MAREA":" ","LANE":" ","ALLEY":" ","HOUSE_NO":"１７６號","E_COORD97":172849.48999999999,"N_COORD97":2541826.2000000002,"ADDRESS":"裕信六街１７６號","OBJECTID":364659},"geometry":{"x":172849.49000000022,"y":2541826.2000000011}},{"attributes":{"ID":364670,"DIS_CODE":0,"TOWNNAME":"東區","LI":"裕聖里","LIN":"8鄰","STREET":"裕信六街","SECT":" ","MAREA":" ","LANE":" ","ALLEY":" ","HOUSE_NO":"１７８號","E_COORD97":172849.17000000001,"N_COORD97":2541821.8100000001,"ADDRESS":"裕信六街１７８號","OBJECTID":364660},"geometry":{"x":172849.17000000086,"y":2541821.8100000005}},{"attributes":{"ID":364671,"DIS_CODE":0,"TOWNNAME":"東區","LI":"裕聖里","LIN":"8鄰","STREET":"裕信六街","SECT":" ","MAREA":" ","LANE":" ","ALLEY":" ","HOUSE_NO":"１８８號","E_COORD97":172865.79000000001,"N_COORD97":2541808.02,"ADDRESS":"裕信六街１８８號","OBJECTID":364661},"geometry":{"x":172865.79000000004,"y":2541808.0200000014}},{"attributes":{"ID":364672,"DIS_CODE":0,"TOWNNAME":"永康區","LI":"五王里","LIN":"41鄰","STREET":"中山南路","SECT":" ","MAREA":" ","LANE":"２６２巷","ALLEY":" ","HOUSE_NO":"２號十四樓之９","E_COORD97":171550.53,"N_COORD97":2546054.6200000001,"ADDRESS":"中山南路２６２巷２號十四樓之９","OBJECTID":364662},"geometry":{"x":171550.53000000026,"y":2546054.620000001}},{"attributes":{"ID":364673,"DIS_CODE":0,"TOWNNAME":"永康區","LI":"五王里","LIN":"41鄰","STREET":"中山南路","SECT":" ","MAREA":" ","LANE":"２６２巷","ALLEY":" ","HOUSE_NO":"６號四樓之９","E_COORD97":171560.34,"N_COORD97":2546015.2000000002,"ADDRESS":"中山南路２６２巷６號四樓之９","OBJECTID":364663},"geometry":{"x":171560.33999999985,"y":2546015.1999999993}},{"attributes":{"ID":364674,"DIS_CODE":0,"TOWNNAME":"永康區","LI":"五王里","LIN":"41鄰","STREET":"中山南路","SECT":" ","MAREA":" ","LANE":"２６２巷","ALLEY":" ","HOUSE_NO":"６號三樓之６","E_COORD97":171560.35999999999,"N_COORD97":2546015.2000000002,"ADDRESS":"中山南路２６２巷６號三樓之６","OBJECTID":364664},"geometry":{"x":171560.36000000034,"y":2546015.1999999993}},{"attributes":{"ID":364675,"DIS_CODE":0,"TOWNNAME":"永康區","LI":"五王里","LIN":"41鄰","STREET":"中山南路","SECT":" ","MAREA":" ","LANE":"２６２巷","ALLEY":" ","HOUSE_NO":"２號九樓之１８","E_COORD97":171550.60000000001,"N_COORD97":2546054.6200000001,"ADDRESS":"中山南路２６２巷２號九樓之１８","OBJECTID":364665},"geometry":{"x":171550.60000000056,"y":2546054.620000001}},{"attributes":{"ID":364676,"DIS_CODE":0,"TOWNNAME":"永康區","LI":"五王里","LIN":"41鄰","STREET":"中山南路","SECT":" ","MAREA":" ","LANE":"２６２巷","ALLEY":" ","HOUSE_NO":"６號四樓之５","E_COORD97":171560.41,"N_COORD97":2546015.2000000002,"ADDRESS":"中山南路２６２巷６號四樓之５","OBJECTID":364666},"geometry":{"x":171560.41000000201,"y":2546015.1999999993}},{"attributes":{"ID":364677,"DIS_CODE":0,"TOWNNAME":"永康區","LI":"龍潭里","LIN":"44鄰","STREET":"永平街","SECT":" ","MAREA":" ","LANE":"２９８巷","ALLEY":" ","HOUSE_NO":"７之２號","E_COORD97":174660.16,"N_COORD97":2547120.04,"ADDRESS":"永平街２９８巷７之２號","OBJECTID":364667},"geometry":{"x":174660.16000000015,"y":2547120.040000001}},{"attributes":{"ID":364678,"DIS_CODE":0,"TOWNNAME":"永康區","LI":"龍潭里","LIN":"44鄰","STREET":"永平街","SECT":" ","MAREA":" ","LANE":"２９８巷","ALLEY":" ","HOUSE_NO":"１３之１７號","E_COORD97":174662.17999999999,"N_COORD97":2547136.4399999999,"ADDRESS":"永平街２９８巷１３之１７號","OBJECTID":364668},"geometry":{"x":174662.18000000063,"y":2547136.4400000032}},{"attributes":{"ID":364679,"DIS_CODE":0,"TOWNNAME":"永康區","LI":"龍潭里","LIN":"44鄰","STREET":"永平街","SECT":" ","MAREA":" ","LANE":"２９８巷","ALLEY":" ","HOUSE_NO":"５之３號","E_COORD97":174680.09,"N_COORD97":2547171.0499999998,"ADDRESS":"永平街２９８巷５之３號","OBJECTID":364669},"geometry":{"x":174680.09000000078,"y":2547171.0500000045}},{"attributes":{"ID":364680,"DIS_CODE":0,"TOWNNAME":"永康區","LI":"龍潭里","LIN":"44鄰","STREET":"永平街","SECT":" ","MAREA":" ","LANE":"２９８巷","ALLEY":" ","HOUSE_NO":"６之５號","E_COORD97":174684.95000000001,"N_COORD97":2547119.29,"ADDRESS":"永平街２９８巷６之５號","OBJECTID":364670},"geometry":{"x":174684.95000000112,"y":2547119.2899999991}},{"attributes":{"ID":364681,"DIS_CODE":0,"TOWNNAME":"永康區","LI":"龍潭里","LIN":"44鄰","STREET":"永平街","SECT":" ","MAREA":" ","LANE":"２９８巷","ALLEY":" ","HOUSE_NO":"８之２號","E_COORD97":174660.16,"N_COORD97":2547120.04,"ADDRESS":"永平街２９８巷８之２號","OBJECTID":364671},"geometry":{"x":174660.16000000015,"y":2547120.040000001}},{"attributes":{"ID":364682,"DIS_CODE":0,"TOWNNAME":"永康區","LI":"龍潭里","LIN":"44鄰","STREET":"永平街","SECT":" ","MAREA":" ","LANE":"２９８巷","ALLEY":" ","HOUSE_NO":"９之７號","E_COORD97":174662.76000000001,"N_COORD97":2547194.6000000001,"ADDRESS":"永平街２９８巷９之７號","OBJECTID":364672},"geometry":{"x":174662.75999999978,"y":2547194.6000000015}},{"attributes":{"ID":364683,"DIS_CODE":0,"TOWNNAME":"永康區","LI":"龍潭里","LIN":"44鄰","STREET":"永平街","SECT":" ","MAREA":" ","LANE":"２９８巷","ALLEY":" ","HOUSE_NO":"６之１７號","E_COORD97":174686.20000000001,"N_COORD97":2547119.29,"ADDRESS":"永平街２９８巷６之１７號","OBJECTID":364673},"geometry":{"x":174686.20000000205,"y":2547119.2899999991}},{"attributes":{"ID":364684,"DIS_CODE":0,"TOWNNAME":"永康區","LI":"龍潭里","LIN":"44鄰","STREET":"永平街","SECT":" ","MAREA":" ","LANE":"２９８巷","ALLEY":" ","HOUSE_NO":"１３之８號","E_COORD97":174660.92999999999,"N_COORD97":2547136.4399999999,"ADDRESS":"永平街２９８巷１３之８號","OBJECTID":364674},"geometry":{"x":174660.93000000063,"y":2547136.4400000032}},{"attributes":{"ID":364685,"DIS_CODE":0,"TOWNNAME":"永康區","LI":"龍潭里","LIN":"44鄰","STREET":"永平街","SECT":" ","MAREA":" ","LANE":"２９８巷","ALLEY":" ","HOUSE_NO":"１１之７號","E_COORD97":174653.62,"N_COORD97":2547150.1899999999,"ADDRESS":"永平街２９８巷１１之７號","OBJECTID":364675},"geometry":{"x":174653.62000000011,"y":2547150.1899999995}},{"attributes":{"ID":364686,"DIS_CODE":0,"TOWNNAME":"永康區","LI":"龍潭里","LIN":"44鄰","STREET":"永平街","SECT":" ","MAREA":" ","LANE":"２９８巷","ALLEY":" ","HOUSE_NO":"７之１５號","E_COORD97":174681.84,"N_COORD97":2547193.6000000001,"ADDRESS":"永平街２９８巷７之１５號","OBJECTID":364676},"geometry":{"x":174681.84000000078,"y":2547193.6000000015}},{"attributes":{"ID":364687,"DIS_CODE":0,"TOWNNAME":"永康區","LI":"龍潭里","LIN":"44鄰","STREET":"永平街","SECT":" ","MAREA":" ","LANE":"２９８巷","ALLEY":" ","HOUSE_NO":"８之１１號","E_COORD97":174661.41,"N_COORD97":2547120.04,"ADDRESS":"永平街２９８巷８之１１號","OBJECTID":364677},"geometry":{"x":174661.41000000108,"y":2547120.040000001}},{"attributes":{"ID":364688,"DIS_CODE":0,"TOWNNAME":"永康區","LI":"龍潭里","LIN":"44鄰","STREET":"永平街","SECT":" ","MAREA":" ","LANE":"２９８巷","ALLEY":" ","HOUSE_NO":"１１之１６號","E_COORD97":174654.87,"N_COORD97":2547150.1899999999,"ADDRESS":"永平街２９８巷１１之１６號","OBJECTID":364678},"geometry":{"x":174654.87000000104,"y":2547150.1899999995}},{"attributes":{"ID":364689,"DIS_CODE":0,"TOWNNAME":"永康區","LI":"龍潭里","LIN":"44鄰","STREET":"永平街","SECT":" ","MAREA":" ","LANE":"２９８巷","ALLEY":" ","HOUSE_NO":"７之９號","E_COORD97":174660.16,"N_COORD97":2547120.04,"ADDRESS":"永平街２９８巷７之９號","OBJECTID":364679},"geometry":{"x":174660.16000000015,"y":2547120.040000001}},{"attributes":{"ID":364690,"DIS_CODE":0,"TOWNNAME":"永康區","LI":"龍潭里","LIN":"44鄰","STREET":"永平街","SECT":" ","MAREA":" ","LANE":"２９８巷","ALLEY":" ","HOUSE_NO":"７之３號","E_COORD97":174680.59,"N_COORD97":2547193.6000000001,"ADDRESS":"永平街２９８巷７之３號","OBJECTID":364680},"geometry":{"x":174680.58999999985,"y":2547193.6000000015}},{"attributes":{"ID":364691,"DIS_CODE":0,"TOWNNAME":"永康區","LI":"龍潭里","LIN":"44鄰","STREET":"永平街","SECT":" ","MAREA":" ","LANE":"２９８巷","ALLEY":" ","HOUSE_NO":"９之１０號","E_COORD97":174664.01000000001,"N_COORD97":2547194.6000000001,"ADDRESS":"永平街２９８巷９之１０號","OBJECTID":364681},"geometry":{"x":174664.01000000071,"y":2547194.6000000015}},{"attributes":{"ID":364692,"DIS_CODE":0,"TOWNNAME":"永康區","LI":"龍潭里","LIN":"44鄰","STREET":"永平街","SECT":" ","MAREA":" ","LANE":"２９８巷","ALLEY":" ","HOUSE_NO":"９之１３號","E_COORD97":174664.01000000001,"N_COORD97":2547194.6000000001,"ADDRESS":"永平街２９８巷９之１３號","OBJECTID":364682},"geometry":{"x":174664.01000000071,"y":2547194.6000000015}},{"attributes":{"ID":364693,"DIS_CODE":0,"TOWNNAME":"永康區","LI":"龍潭里","LIN":"44鄰","STREET":"永平街","SECT":" ","MAREA":" ","LANE":"２９８巷","ALLEY":" ","HOUSE_NO":"７之１２號","E_COORD97":174681.84,"N_COORD97":2547193.6000000001,"ADDRESS":"永平街２９８巷７之１２號","OBJECTID":364683},"geometry":{"x":174681.84000000078,"y":2547193.6000000015}},{"attributes":{"ID":364694,"DIS_CODE":0,"TOWNNAME":"永康區","LI":"龍潭里","LIN":"44鄰","STREET":"永平街","SECT":" ","MAREA":" ","LANE":"２９８巷","ALLEY":" ","HOUSE_NO":"６之７號","E_COORD97":174684.95000000001,"N_COORD97":2547119.29,"ADDRESS":"永平街２９８巷６之７號","OBJECTID":364684},"geometry":{"x":174684.95000000112,"y":2547119.2899999991}},{"attributes":{"ID":364695,"DIS_CODE":0,"TOWNNAME":"永康區","LI":"龍潭里","LIN":"44鄰","STREET":"永平街","SECT":" ","MAREA":" ","LANE":"２９８巷","ALLEY":" ","HOUSE_NO":"５之１２號","E_COORD97":174681.34,"N_COORD97":2547171.0499999998,"ADDRESS":"永平街２９８巷５之１２號","OBJECTID":364685},"geometry":{"x":174681.34000000171,"y":2547171.0500000045}},{"attributes":{"ID":364696,"DIS_CODE":0,"TOWNNAME":"南區","LI":"郡南里","LIN":"13鄰","STREET":"永興三街","SECT":" ","MAREA":" ","LANE":" ","ALLEY":" ","HOUSE_NO":"２１號","E_COORD97":167428.66,"N_COORD97":2540587.3700000001,"ADDRESS":"永興三街２１號","OBJECTID":364686},"geometry":{"x":167428.66000000015,"y":2540587.370000001}},{"attributes":{"ID":364697,"DIS_CODE":0,"TOWNNAME":"南區","LI":"郡南里","LIN":"13鄰","STREET":"永興三街","SECT":" ","MAREA":" ","LANE":" ","ALLEY":" ","HOUSE_NO":"２２號","E_COORD97":167416.23000000001,"N_COORD97":2540612.71,"ADDRESS":"永興三街２２號","OBJECTID":364687},"geometry":{"x":167416.23000000138,"y":2540612.7100000009}},{"attributes":{"ID":364698,"DIS_CODE":0,"TOWNNAME":"南區","LI":"郡南里","LIN":"13鄰","STREET":"永興三街","SECT":" ","MAREA":" ","LANE":" ","ALLEY":" ","HOUSE_NO":"２４號","E_COORD97":167411.97,"N_COORD97":2540612.29,"ADDRESS":"永興三街２４號","OBJECTID":364688},"geometry":{"x":167411.97000000067,"y":2540612.290000001}},{"attributes":{"ID":364699,"DIS_CODE":0,"TOWNNAME":"南區","LI":"郡南里","LIN":"13鄰","STREET":"永興三街","SECT":" ","MAREA":" ","LANE":" ","ALLEY":" ","HOUSE_NO":"２６號","E_COORD97":167408.35999999999,"N_COORD97":2540610.7999999998,"ADDRESS":"永興三街２６號","OBJECTID":364689},"geometry":{"x":167408.36000000127,"y":2540610.8000000007}},{"attributes":{"ID":364700,"DIS_CODE":0,"TOWNNAME":"南區","LI":"郡南里","LIN":"13鄰","STREET":"永興三街","SECT":" ","MAREA":" ","LANE":" ","ALLEY":" ","HOUSE_NO":"２８號","E_COORD97":167404.73999999999,"N_COORD97":2540611.0099999998,"ADDRESS":"永興三街２８號","OBJECTID":364690},"geometry":{"x":167404.74000000022,"y":2540611.0100000016}},{"attributes":{"ID":364701,"DIS_CODE":0,"TOWNNAME":"南區","LI":"郡南里","LIN":"13鄰","STREET":"永興三街","SECT":" ","MAREA":" ","LANE":" ","ALLEY":" ","HOUSE_NO":"３０號","E_COORD97":167400.26999999999,"N_COORD97":2540610.1600000001,"ADDRESS":"永興三街３０號","OBJECTID":364691},"geometry":{"x":167400.26999999955,"y":2540610.160000002}},{"attributes":{"ID":364702,"DIS_CODE":0,"TOWNNAME":"南區","LI":"郡南里","LIN":"13鄰","STREET":"永興三街","SECT":" ","MAREA":" ","LANE":" ","ALLEY":" ","HOUSE_NO":"３２號","E_COORD97":167396.23000000001,"N_COORD97":2540611.0099999998,"ADDRESS":"永興三街３２號","OBJECTID":364692},"geometry":{"x":167396.23000000045,"y":2540611.0100000016}},{"attributes":{"ID":364703,"DIS_CODE":0,"TOWNNAME":"永康區","LI":"五王里","LIN":"41鄰","STREET":"中山南路","SECT":" ","MAREA":" ","LANE":"２６２巷","ALLEY":" ","HOUSE_NO":"６號五樓之１０","E_COORD97":171561.56,"N_COORD97":2546015.2000000002,"ADDRESS":"中山南路２６２巷６號五樓之１０","OBJECTID":364693},"geometry":{"x":171561.55999999959,"y":2546015.1999999993}},{"attributes":{"ID":364704,"DIS_CODE":0,"TOWNNAME":"永康區","LI":"龍潭里","LIN":"44鄰","STREET":"永平街","SECT":" ","MAREA":" ","LANE":"２９８巷","ALLEY":" ","HOUSE_NO":"５之５號","E_COORD97":174660.16,"N_COORD97":2547120.04,"ADDRESS":"永平街２９８巷５之５號","OBJECTID":364694},"geometry":{"x":174660.16000000015,"y":2547120.040000001}},{"attributes":{"ID":364705,"DIS_CODE":0,"TOWNNAME":"永康區","LI":"龍潭里","LIN":"44鄰","STREET":"永平街","SECT":" ","MAREA":" ","LANE":"２９８巷","ALLEY":" ","HOUSE_NO":"８之３號","E_COORD97":174660.16,"N_COORD97":2547120.04,"ADDRESS":"永平街２９８巷８之３號","OBJECTID":364695},"geometry":{"x":174660.16000000015,"y":2547120.040000001}},{"attributes":{"ID":364706,"DIS_CODE":0,"TOWNNAME":"永康區","LI":"龍潭里","LIN":"44鄰","STREET":"永平街","SECT":" ","MAREA":" ","LANE":"２９８巷","ALLEY":" ","HOUSE_NO":"７之１號","E_COORD97":174660.16,"N_COORD97":2547120.04,"ADDRESS":"永平街２９８巷７之１號","OBJECTID":364696},"geometry":{"x":174660.16000000015,"y":2547120.040000001}},{"attributes":{"ID":364707,"DIS_CODE":0,"TOWNNAME":"永康區","LI":"龍潭里","LIN":"44鄰","STREET":"永平街","SECT":" ","MAREA":" ","LANE":"２９８巷","ALLEY":" ","HOUSE_NO":"１３之１號","E_COORD97":174660.92999999999,"N_COORD97":2547136.4399999999,"ADDRESS":"永平街２９８巷１３之１號","OBJECTID":364697},"geometry":{"x":174660.93000000063,"y":2547136.4400000032}},{"attributes":{"ID":364708,"DIS_CODE":0,"TOWNNAME":"永康區","LI":"龍潭里","LIN":"44鄰","STREET":"永平街","SECT":" ","MAREA":" ","LANE":"２９８巷","ALLEY":" ","HOUSE_NO":"３之１６號","E_COORD97":174661.41,"N_COORD97":2547120.04,"ADDRESS":"永平街２９８巷３之１６號","OBJECTID":364698},"geometry":{"x":174661.41000000108,"y":2547120.040000001}},{"attributes":{"ID":364709,"DIS_CODE":0,"TOWNNAME":"永康區","LI":"龍潭里","LIN":"44鄰","STREET":"永平街","SECT":" ","MAREA":" ","LANE":"２９８巷","ALLEY":" ","HOUSE_NO":"９之５號","E_COORD97":174662.76000000001,"N_COORD97":2547194.6000000001,"ADDRESS":"永平街２９８巷９之５號","OBJECTID":364699},"geometry":{"x":174662.75999999978,"y":2547194.6000000015}},{"attributes":{"ID":364710,"DIS_CODE":0,"TOWNNAME":"永康區","LI":"龍潭里","LIN":"44鄰","STREET":"永平街","SECT":" ","MAREA":" ","LANE":"２９８巷","ALLEY":" ","HOUSE_NO":"６之１６號","E_COORD97":174686.20000000001,"N_COORD97":2547119.29,"ADDRESS":"永平街２９８巷６之１６號","OBJECTID":364700},"geometry":{"x":174686.20000000205,"y":2547119.2899999991}},{"attributes":{"ID":364711,"DIS_CODE":0,"TOWNNAME":"永康區","LI":"龍潭里","LIN":"44鄰","STREET":"永平街","SECT":" ","MAREA":" ","LANE":"２９８巷","ALLEY":" ","HOUSE_NO":"６之１３號","E_COORD97":174686.20000000001,"N_COORD97":2547119.29,"ADDRESS":"永平街２９８巷６之１３號","OBJECTID":364701},"geometry":{"x":174686.20000000205,"y":2547119.2899999991}},{"attributes":{"ID":364712,"DIS_CODE":0,"TOWNNAME":"永康區","LI":"龍潭里","LIN":"44鄰","STREET":"永平街","SECT":" ","MAREA":" ","LANE":"２９８巷","ALLEY":" ","HOUSE_NO":"８之１６號","E_COORD97":174661.41,"N_COORD97":2547120.04,"ADDRESS":"永平街２９８巷８之１６號","OBJECTID":364702},"geometry":{"x":174661.41000000108,"y":2547120.040000001}},{"attributes":{"ID":364713,"DIS_CODE":0,"TOWNNAME":"永康區","LI":"龍潭里","LIN":"44鄰","STREET":"永平街","SECT":" ","MAREA":" ","LANE":"２９８巷","ALLEY":" ","HOUSE_NO":"７之７號","E_COORD97":174660.16,"N_COORD97":2547120.04,"ADDRESS":"永平街２９８巷７之７號","OBJECTID":364703},"geometry":{"x":174660.16000000015,"y":2547120.040000001}},{"attributes":{"ID":364714,"DIS_CODE":0,"TOWNNAME":"永康區","LI":"龍潭里","LIN":"44鄰","STREET":"永平街","SECT":" ","MAREA":" ","LANE":"２９８巷","ALLEY":" ","HOUSE_NO":"９之３號","E_COORD97":174662.76000000001,"N_COORD97":2547194.6000000001,"ADDRESS":"永平街２９８巷９之３號","OBJECTID":364704},"geometry":{"x":174662.75999999978,"y":2547194.6000000015}},{"attributes":{"ID":364715,"DIS_CODE":0,"TOWNNAME":"永康區","LI":"龍潭里","LIN":"44鄰","STREET":"永平街","SECT":" ","MAREA":" ","LANE":"２９８巷","ALLEY":" ","HOUSE_NO":"６之８號","E_COORD97":174684.95000000001,"N_COORD97":2547119.29,"ADDRESS":"永平街２９８巷６之８號","OBJECTID":364705},"geometry":{"x":174684.95000000112,"y":2547119.2899999991}},{"attributes":{"ID":364716,"DIS_CODE":0,"TOWNNAME":"永康區","LI":"龍潭里","LIN":"44鄰","STREET":"永平街","SECT":" ","MAREA":" ","LANE":"２９８巷","ALLEY":" ","HOUSE_NO":"６之１０號","E_COORD97":174686.20000000001,"N_COORD97":2547119.29,"ADDRESS":"永平街２９８巷６之１０號","OBJECTID":364706},"geometry":{"x":174686.20000000205,"y":2547119.2899999991}},{"attributes":{"ID":364717,"DIS_CODE":0,"TOWNNAME":"永康區","LI":"龍潭里","LIN":"44鄰","STREET":"永平街","SECT":" ","MAREA":" ","LANE":"２９８巷","ALLEY":" ","HOUSE_NO":"１５之１３號","E_COORD97":174677.48999999999,"N_COORD97":2547138.7999999998,"ADDRESS":"永平街２９８巷１５之１３號","OBJECTID":364707},"geometry":{"x":174677.49000000209,"y":2547138.8000000045}},{"attributes":{"ID":364718,"DIS_CODE":0,"TOWNNAME":"永康區","LI":"龍潭里","LIN":"44鄰","STREET":"永平街","SECT":" ","MAREA":" ","LANE":"２９８巷","ALLEY":" ","HOUSE_NO":"７之１０號","E_COORD97":174681.84,"N_COORD97":2547193.6000000001,"ADDRESS":"永平街２９８巷７之１０號","OBJECTID":364708},"geometry":{"x":174681.84000000078,"y":2547193.6000000015}},{"attributes":{"ID":364719,"DIS_CODE":0,"TOWNNAME":"永康區","LI":"龍潭里","LIN":"44鄰","STREET":"永平街","SECT":" ","MAREA":" ","LANE":"２９８巷","ALLEY":" ","HOUSE_NO":"６之１１號","E_COORD97":174661.41,"N_COORD97":2547120.04,"ADDRESS":"永平街２９８巷６之１１號","OBJECTID":364709},"geometry":{"x":174661.41000000108,"y":2547120.040000001}},{"attributes":{"ID":364720,"DIS_CODE":0,"TOWNNAME":"永康區","LI":"龍潭里","LIN":"44鄰","STREET":"永平街","SECT":" ","MAREA":" ","LANE":"２９８巷","ALLEY":" ","HOUSE_NO":"９之２號","E_COORD97":174662.76000000001,"N_COORD97":2547194.6000000001,"ADDRESS":"永平街２９８巷９之２號","OBJECTID":364710},"geometry":{"x":174662.75999999978,"y":2547194.6000000015}},{"attributes":{"ID":364721,"DIS_CODE":0,"TOWNNAME":"永康區","LI":"龍潭里","LIN":"44鄰","STREET":"永平街","SECT":" ","MAREA":" ","LANE":"２９８巷","ALLEY":" ","HOUSE_NO":"１５之６號","E_COORD97":174676.23999999999,"N_COORD97":2547138.7999999998,"ADDRESS":"永平街２９８巷１５之６號","OBJECTID":364711},"geometry":{"x":174676.24000000115,"y":2547138.8000000045}},{"attributes":{"ID":364722,"DIS_CODE":0,"TOWNNAME":"永康區","LI":"龍潭里","LIN":"44鄰","STREET":"永平街","SECT":" ","MAREA":" ","LANE":"２９８巷","ALLEY":" ","HOUSE_NO":"６之９號","E_COORD97":174684.95000000001,"N_COORD97":2547119.29,"ADDRESS":"永平街２９８巷６之９號","OBJECTID":364712},"geometry":{"x":174684.95000000112,"y":2547119.2899999991}},{"attributes":{"ID":364723,"DIS_CODE":0,"TOWNNAME":"南區","LI":"郡南里","LIN":"13鄰","STREET":"永興三街","SECT":" ","MAREA":" ","LANE":" ","ALLEY":" ","HOUSE_NO":"３４號","E_COORD97":167388.35999999999,"N_COORD97":2540612.9300000002,"ADDRESS":"永興三街３４號","OBJECTID":364713},"geometry":{"x":167388.36000000034,"y":2540612.9299999997}},{"attributes":{"ID":364724,"DIS_CODE":0,"TOWNNAME":"南區","LI":"郡南里","LIN":"13鄰","STREET":"永興三街","SECT":" ","MAREA":" ","LANE":" ","ALLEY":" ","HOUSE_NO":"４８號","E_COORD97":167375.59,"N_COORD97":2540615.2599999998,"ADDRESS":"永興三街４８號","OBJECTID":364714},"geometry":{"x":167375.59000000078,"y":2540615.2600000016}},{"attributes":{"ID":364725,"DIS_CODE":0,"TOWNNAME":"永康區","LI":"龍潭里","LIN":"44鄰","STREET":"永平街","SECT":" ","MAREA":" ","LANE":"２９８巷","ALLEY":" ","HOUSE_NO":"１５之１６號","E_COORD97":174677.48999999999,"N_COORD97":2547138.7999999998,"ADDRESS":"永平街２９８巷１５之１６號","OBJECTID":364715},"geometry":{"x":174677.49000000209,"y":2547138.8000000045}},{"attributes":{"ID":364726,"DIS_CODE":0,"TOWNNAME":"永康區","LI":"龍潭里","LIN":"44鄰","STREET":"永平街","SECT":" ","MAREA":" ","LANE":"２２６巷","ALLEY":" ","HOUSE_NO":"１７號","E_COORD97":174664.35999999999,"N_COORD97":2546910.2200000002,"ADDRESS":"永平街２２６巷１７號","OBJECTID":364716},"geometry":{"x":174664.36000000034,"y":2546910.2200000025}},{"attributes":{"ID":364727,"DIS_CODE":0,"TOWNNAME":"永康區","LI":"龍潭里","LIN":"44鄰","STREET":"中山北路","SECT":" ","MAREA":" ","LANE":"２６４巷","ALLEY":" ","HOUSE_NO":"２４８號","E_COORD97":174709.51999999999,"N_COORD97":2547022.8300000001,"ADDRESS":"中山北路２６４巷２４８號","OBJECTID":364717},"geometry":{"x":174709.51999999955,"y":2547022.8300000038}},{"attributes":{"ID":364728,"DIS_CODE":0,"TOWNNAME":"永康區","LI":"龍潭里","LIN":"44鄰","STREET":"永平街","SECT":" ","MAREA":" ","LANE":"２９８巷","ALLEY":" ","HOUSE_NO":"２之９號","E_COORD97":174660.16,"N_COORD97":2547120.04,"ADDRESS":"永平街２９８巷２之９號","OBJECTID":364718},"geometry":{"x":174660.16000000015,"y":2547120.040000001}},{"attributes":{"ID":364729,"DIS_CODE":0,"TOWNNAME":"永康區","LI":"龍潭里","LIN":"44鄰","STREET":"永平街","SECT":" ","MAREA":" ","LANE":"２９８巷","ALLEY":" ","HOUSE_NO":"２之５號","E_COORD97":174659.76000000001,"N_COORD97":2547103.79,"ADDRESS":"永平街２９８巷２之５號","OBJECTID":364719},"geometry":{"x":174659.76000000164,"y":2547103.790000001}},{"attributes":{"ID":364730,"DIS_CODE":0,"TOWNNAME":"永康區","LI":"龍潭里","LIN":"44鄰","STREET":"永平街","SECT":" ","MAREA":" ","LANE":"２２６巷","ALLEY":" ","HOUSE_NO":"１５號","E_COORD97":174664.17000000001,"N_COORD97":2546914.2200000002,"ADDRESS":"永平街２２６巷１５號","OBJECTID":364720},"geometry":{"x":174664.17000000086,"y":2546914.2200000007}},{"attributes":{"ID":364731,"DIS_CODE":0,"TOWNNAME":"永康區","LI":"龍潭里","LIN":"44鄰","STREET":"中山北路","SECT":" ","MAREA":" ","LANE":"２６４巷","ALLEY":" ","HOUSE_NO":"２３４號","E_COORD97":174708.91,"N_COORD97":2547051.5899999999,"ADDRESS":"中山北路２６４巷２３４號","OBJECTID":364721},"geometry":{"x":174708.91000000108,"y":2547051.5900000017}},{"attributes":{"ID":364732,"DIS_CODE":0,"TOWNNAME":"永康區","LI":"龍潭里","LIN":"44鄰","STREET":"永平街","SECT":" ","MAREA":" ","LANE":"２９８巷","ALLEY":" ","HOUSE_NO":"１之１３號","E_COORD97":174661.01000000001,"N_COORD97":2547103.79,"ADDRESS":"永平街２９８巷１之１３號","OBJECTID":364722},"geometry":{"x":174661.00999999978,"y":2547103.790000001}},{"attributes":{"ID":364733,"DIS_CODE":0,"TOWNNAME":"永康區","LI":"龍潭里","LIN":"44鄰","STREET":"永平街","SECT":" ","MAREA":" ","LANE":"２９８巷","ALLEY":" ","HOUSE_NO":"１之５號","E_COORD97":174660.16,"N_COORD97":2547120.04,"ADDRESS":"永平街２９８巷１之５號","OBJECTID":364723},"geometry":{"x":174660.16000000015,"y":2547120.040000001}},{"attributes":{"ID":364734,"DIS_CODE":0,"TOWNNAME":"永康區","LI":"龍潭里","LIN":"44鄰","STREET":"中山北路","SECT":" ","MAREA":" ","LANE":"２６４巷","ALLEY":" ","HOUSE_NO":"２４８號之２","E_COORD97":174712.16,"N_COORD97":2547014.3799999999,"ADDRESS":"中山北路２６４巷２４８號之２","OBJECTID":364724},"geometry":{"x":174712.16000000108,"y":2547014.3800000027}},{"attributes":{"ID":364735,"DIS_CODE":0,"TOWNNAME":"永康區","LI":"龍潭里","LIN":"44鄰","STREET":"永平街","SECT":" ","MAREA":" ","LANE":"２９８巷","ALLEY":" ","HOUSE_NO":"１３之２３號","E_COORD97":174662.17999999999,"N_COORD97":2547136.4399999999,"ADDRESS":"永平街２９８巷１３之２３號","OBJECTID":364725},"geometry":{"x":174662.18000000063,"y":2547136.4400000032}},{"attributes":{"ID":364736,"DIS_CODE":0,"TOWNNAME":"永康區","LI":"龍潭里","LIN":"44鄰","STREET":"中山北路","SECT":" ","MAREA":" ","LANE":"２６４巷","ALLEY":" ","HOUSE_NO":"２４８號之３","E_COORD97":174712.31,"N_COORD97":2547010.3799999999,"ADDRESS":"中山北路２６４巷２４８號之３","OBJECTID":364726},"geometry":{"x":174712.31000000052,"y":2547010.379999999}},{"attributes":{"ID":364737,"DIS_CODE":0,"TOWNNAME":"永康區","LI":"龍潭里","LIN":"44鄰","STREET":"永平街","SECT":" ","MAREA":" ","LANE":"２９８巷","ALLEY":" ","HOUSE_NO":"３之６號","E_COORD97":174660.16,"N_COORD97":2547120.04,"ADDRESS":"永平街２９８巷３之６號","OBJECTID":364727},"geometry":{"x":174660.16000000015,"y":2547120.040000001}},{"attributes":{"ID":364738,"DIS_CODE":0,"TOWNNAME":"永康區","LI":"龍潭里","LIN":"44鄰","STREET":"永平街","SECT":" ","MAREA":" ","LANE":"２９８巷","ALLEY":" ","HOUSE_NO":"２之２號","E_COORD97":174659.76000000001,"N_COORD97":2547103.79,"ADDRESS":"永平街２９８巷２之２號","OBJECTID":364728},"geometry":{"x":174659.76000000164,"y":2547103.790000001}},{"attributes":{"ID":364739,"DIS_CODE":0,"TOWNNAME":"永康區","LI":"龍潭里","LIN":"44鄰","STREET":"永平街","SECT":" ","MAREA":" ","LANE":"２９８巷","ALLEY":" ","HOUSE_NO":"２之１３號","E_COORD97":174661.01000000001,"N_COORD97":2547103.79,"ADDRESS":"永平街２９８巷２之１３號","OBJECTID":364729},"geometry":{"x":174661.00999999978,"y":2547103.790000001}},{"attributes":{"ID":364740,"DIS_CODE":0,"TOWNNAME":"永康區","LI":"龍潭里","LIN":"44鄰","STREET":"永平街","SECT":" ","MAREA":" ","LANE":"２９８巷","ALLEY":" ","HOUSE_NO":"１３之１２號","E_COORD97":174662.17999999999,"N_COORD97":2547136.4399999999,"ADDRESS":"永平街２９８巷１３之１２號","OBJECTID":364730},"geometry":{"x":174662.18000000063,"y":2547136.4400000032}},{"attributes":{"ID":364741,"DIS_CODE":0,"TOWNNAME":"永康區","LI":"龍潭里","LIN":"44鄰","STREET":"永平街","SECT":" ","MAREA":" ","LANE":"２９８巷","ALLEY":" ","HOUSE_NO":"１１之１１號","E_COORD97":174654.87,"N_COORD97":2547150.1899999999,"ADDRESS":"永平街２９８巷１１之１１號","OBJECTID":364731},"geometry":{"x":174654.87000000104,"y":2547150.1899999995}},{"attributes":{"ID":364742,"DIS_CODE":0,"TOWNNAME":"永康區","LI":"龍潭里","LIN":"44鄰","STREET":"永平街","SECT":" ","MAREA":" ","LANE":"２９８巷","ALLEY":" ","HOUSE_NO":"１１之２２號","E_COORD97":174654.87,"N_COORD97":2547150.1899999999,"ADDRESS":"永平街２９８巷１１之２２號","OBJECTID":364732},"geometry":{"x":174654.87000000104,"y":2547150.1899999995}},{"attributes":{"ID":364743,"DIS_CODE":0,"TOWNNAME":"永康區","LI":"龍潭里","LIN":"44鄰","STREET":"永平街","SECT":" ","MAREA":" ","LANE":"２９８巷","ALLEY":" ","HOUSE_NO":"９之１８號","E_COORD97":174664.01000000001,"N_COORD97":2547194.6000000001,"ADDRESS":"永平街２９８巷９之１８號","OBJECTID":364733},"geometry":{"x":174664.01000000071,"y":2547194.6000000015}},{"attributes":{"ID":364744,"DIS_CODE":0,"TOWNNAME":"永康區","LI":"龍潭里","LIN":"44鄰","STREET":"永平街","SECT":" ","MAREA":" ","LANE":"２９８巷","ALLEY":" ","HOUSE_NO":"３之１號","E_COORD97":174680.97,"N_COORD97":2547162.0499999998,"ADDRESS":"永平街２９８巷３之１號","OBJECTID":364734},"geometry":{"x":174680.97000000067,"y":2547162.0500000026}},{"attributes":{"ID":364745,"DIS_CODE":0,"TOWNNAME":"永康區","LI":"龍潭里","LIN":"44鄰","STREET":"永平街","SECT":" ","MAREA":" ","LANE":"２９８巷","ALLEY":" ","HOUSE_NO":"１３之５號","E_COORD97":174660.92999999999,"N_COORD97":2547136.4399999999,"ADDRESS":"永平街２９８巷１３之５號","OBJECTID":364735},"geometry":{"x":174660.93000000063,"y":2547136.4400000032}},{"attributes":{"ID":364746,"DIS_CODE":0,"TOWNNAME":"永康區","LI":"龍潭里","LIN":"44鄰","STREET":"永平街","SECT":" ","MAREA":" ","LANE":"２９８巷","ALLEY":" ","HOUSE_NO":"１之１６號","E_COORD97":174661.41,"N_COORD97":2547120.04,"ADDRESS":"永平街２９８巷１之１６號","OBJECTID":364736},"geometry":{"x":174661.41000000108,"y":2547120.040000001}},{"attributes":{"ID":364747,"DIS_CODE":0,"TOWNNAME":"永康區","LI":"龍潭里","LIN":"44鄰","STREET":"永平街","SECT":" ","MAREA":" ","LANE":"２９８巷","ALLEY":" ","HOUSE_NO":"１之１５號","E_COORD97":174661.01000000001,"N_COORD97":2547103.79,"ADDRESS":"永平街２９８巷１之１５號","OBJECTID":364737},"geometry":{"x":174661.00999999978,"y":2547103.790000001}},{"attributes":{"ID":364748,"DIS_CODE":0,"TOWNNAME":"永康區","LI":"龍潭里","LIN":"44鄰","STREET":"永平街","SECT":" ","MAREA":" ","LANE":"２９８巷","ALLEY":" ","HOUSE_NO":"３之１１號","E_COORD97":174661.41,"N_COORD97":2547120.04,"ADDRESS":"永平街２９８巷３之１１號","OBJECTID":364738},"geometry":{"x":174661.41000000108,"y":2547120.040000001}},{"attributes":{"ID":364749,"DIS_CODE":0,"TOWNNAME":"永康區","LI":"龍潭里","LIN":"44鄰","STREET":"永平街","SECT":" ","MAREA":" ","LANE":"２９８巷","ALLEY":" ","HOUSE_NO":"１之１０號","E_COORD97":174685.01999999999,"N_COORD97":2547136.4399999999,"ADDRESS":"永平街２９８巷１之１０號","OBJECTID":364739},"geometry":{"x":174685.02000000142,"y":2547136.4400000032}},{"attributes":{"ID":364750,"DIS_CODE":0,"TOWNNAME":"永康區","LI":"龍潭里","LIN":"44鄰","STREET":"永平街","SECT":" ","MAREA":" ","LANE":"２９８巷","ALLEY":" ","HOUSE_NO":"３之１３號","E_COORD97":174682.22,"N_COORD97":2547162.0499999998,"ADDRESS":"永平街２９８巷３之１３號","OBJECTID":364740},"geometry":{"x":174682.22000000067,"y":2547162.0500000026}},{"attributes":{"ID":364751,"DIS_CODE":0,"TOWNNAME":"永康區","LI":"龍潭里","LIN":"44鄰","STREET":"中山北路","SECT":" ","MAREA":" ","LANE":"２６４巷","ALLEY":" ","HOUSE_NO":"２１４號","E_COORD97":174706.97,"N_COORD97":2547095.6200000001,"ADDRESS":"中山北路２６４巷２１４號","OBJECTID":364741},"geometry":{"x":174706.96999999974,"y":2547095.620000001}},{"attributes":{"ID":364752,"DIS_CODE":0,"TOWNNAME":"永康區","LI":"龍潭里","LIN":"44鄰","STREET":"中山北路","SECT":" ","MAREA":" ","LANE":"２６４巷","ALLEY":" ","HOUSE_NO":"２４６號","E_COORD97":174709.28,"N_COORD97":2547026.5899999999,"ADDRESS":"中山北路２６４巷２４６號","OBJECTID":364742},"geometry":{"x":174709.28000000212,"y":2547026.5899999999}},{"attributes":{"ID":364753,"DIS_CODE":0,"TOWNNAME":"永康區","LI":"正強里","LIN":"44鄰","STREET":"中正路","SECT":" ","MAREA":" ","LANE":"２５６巷","ALLEY":" ","HOUSE_NO":"５號之２８","E_COORD97":173155.23999999999,"N_COORD97":2547982.8799999999,"ADDRESS":"中正路２５６巷５號之２８","OBJECTID":364743},"geometry":{"x":173155.24000000115,"y":2547982.879999999}},{"attributes":{"ID":364754,"DIS_CODE":0,"TOWNNAME":"永康區","LI":"龍潭里","LIN":"44鄰","STREET":"永平街","SECT":" ","MAREA":" ","LANE":"２９８巷","ALLEY":" ","HOUSE_NO":"８之７號","E_COORD97":174660.16,"N_COORD97":2547120.04,"ADDRESS":"永平街２９８巷８之７號","OBJECTID":364744},"geometry":{"x":174660.16000000015,"y":2547120.040000001}},{"attributes":{"ID":364755,"DIS_CODE":0,"TOWNNAME":"永康區","LI":"龍潭里","LIN":"44鄰","STREET":"永平街","SECT":" ","MAREA":" ","LANE":"２９８巷","ALLEY":" ","HOUSE_NO":"５之１號","E_COORD97":174660.16,"N_COORD97":2547120.04,"ADDRESS":"永平街２９８巷５之１號","OBJECTID":364745},"geometry":{"x":174660.16000000015,"y":2547120.040000001}},{"attributes":{"ID":364756,"DIS_CODE":0,"TOWNNAME":"永康區","LI":"龍潭里","LIN":"44鄰","STREET":"永平街","SECT":" ","MAREA":" ","LANE":"２９８巷","ALLEY":" ","HOUSE_NO":"９之８號","E_COORD97":174662.76000000001,"N_COORD97":2547194.6000000001,"ADDRESS":"永平街２９８巷９之８號","OBJECTID":364746},"geometry":{"x":174662.75999999978,"y":2547194.6000000015}},{"attributes":{"ID":364757,"DIS_CODE":0,"TOWNNAME":"永康區","LI":"龍潭里","LIN":"44鄰","STREET":"永平街","SECT":" ","MAREA":" ","LANE":"２９８巷","ALLEY":" ","HOUSE_NO":"２之１０號","E_COORD97":174661.41,"N_COORD97":2547120.04,"ADDRESS":"永平街２９８巷２之１０號","OBJECTID":364747},"geometry":{"x":174661.41000000108,"y":2547120.040000001}},{"attributes":{"ID":364758,"DIS_CODE":0,"TOWNNAME":"永康區","LI":"龍潭里","LIN":"44鄰","STREET":"永平街","SECT":" ","MAREA":" ","LANE":"２９８巷","ALLEY":" ","HOUSE_NO":"９之１號","E_COORD97":174662.76000000001,"N_COORD97":2547194.6000000001,"ADDRESS":"永平街２９８巷９之１號","OBJECTID":364748},"geometry":{"x":174662.75999999978,"y":2547194.6000000015}},{"attributes":{"ID":364759,"DIS_CODE":0,"TOWNNAME":"永康區","LI":"龍潭里","LIN":"44鄰","STREET":"永平街","SECT":" ","MAREA":" ","LANE":"２９８巷","ALLEY":" ","HOUSE_NO":"８之１２號","E_COORD97":174661.41,"N_COORD97":2547120.04,"ADDRESS":"永平街２９８巷８之１２號","OBJECTID":364749},"geometry":{"x":174661.41000000108,"y":2547120.040000001}},{"attributes":{"ID":364760,"DIS_CODE":0,"TOWNNAME":"永康區","LI":"龍潭里","LIN":"44鄰","STREET":"永平街","SECT":" ","MAREA":" ","LANE":"２９８巷","ALLEY":" ","HOUSE_NO":"５之７號","E_COORD97":174680.09,"N_COORD97":2547171.0499999998,"ADDRESS":"永平街２９８巷５之７號","OBJECTID":364750},"geometry":{"x":174680.09000000078,"y":2547171.0500000045}},{"attributes":{"ID":364761,"DIS_CODE":0,"TOWNNAME":"永康區","LI":"龍潭里","LIN":"44鄰","STREET":"永平街","SECT":" ","MAREA":" ","LANE":"２９８巷","ALLEY":" ","HOUSE_NO":"３之１５號","E_COORD97":174682.22,"N_COORD97":2547162.0499999998,"ADDRESS":"永平街２９８巷３之１５號","OBJECTID":364751},"geometry":{"x":174682.22000000067,"y":2547162.0500000026}},{"attributes":{"ID":364762,"DIS_CODE":0,"TOWNNAME":"永康區","LI":"\u25A0行里","LIN":"44鄰","STREET":"\u25A0平街","SECT":" ","MAREA":" ","LANE":"２３２巷","ALLEY":" ","HOUSE_NO":"１７號","E_COORD97":172008.39999999999,"N_COORD97":2548228.2400000002,"ADDRESS":"\u25A0平街２３２巷１７號","OBJECTID":364752},"geometry":{"x":172008.4000000013,"y":2548228.2400000021}},{"attributes":{"ID":364763,"DIS_CODE":0,"TOWNNAME":"永康區","LI":"\u25A0行里","LIN":"44鄰","STREET":"\u25A0和街","SECT":" ","MAREA":" ","LANE":"１６６巷","ALLEY":" ","HOUSE_NO":"１３號","E_COORD97":171996.89000000001,"N_COORD97":2547921.4900000002,"ADDRESS":"\u25A0和街１６６巷１３號","OBJECTID":364753},"geometry":{"x":171996.88999999966,"y":2547921.4900000021}},{"attributes":{"ID":364764,"DIS_CODE":0,"TOWNNAME":"永康區","LI":"\u25A0行里","LIN":"44鄰","STREET":"\u25A0平街","SECT":" ","MAREA":" ","LANE":"１５８巷","ALLEY":" ","HOUSE_NO":"６９號","E_COORD97":172009.31,"N_COORD97":2548131.9900000002,"ADDRESS":"\u25A0平街１５８巷６９號","OBJECTID":364754},"geometry":{"x":172009.30999999959,"y":2548131.9900000021}},{"attributes":{"ID":364765,"DIS_CODE":0,"TOWNNAME":"永康區","LI":"\u25A0行里","LIN":"44鄰","STREET":"\u25A0平街","SECT":" ","MAREA":" ","LANE":"１５８巷","ALLEY":" ","HOUSE_NO":"６１號","E_COORD97":171975.14999999999,"N_COORD97":2548159.2400000002,"ADDRESS":"\u25A0平街１５８巷６１號","OBJECTID":364755},"geometry":{"x":171975.1500000013,"y":2548159.2400000039}},{"attributes":{"ID":364766,"DIS_CODE":0,"TOWNNAME":"北區","LI":"賢北里","LIN":"12鄰","STREET":"賢北街","SECT":" ","MAREA":" ","LANE":"２７巷","ALLEY":" ","HOUSE_NO":"４５號","E_COORD97":166171.03,"N_COORD97":2545346.5699999998,"ADDRESS":"賢北街２７巷４５號","OBJECTID":364756},"geometry":{"x":166171.03000000119,"y":2545346.570000004}},{"attributes":{"ID":364767,"DIS_CODE":0,"TOWNNAME":"北區","LI":"賢北里","LIN":"12鄰","STREET":"賢北街","SECT":" ","MAREA":" ","LANE":"２７巷","ALLEY":" ","HOUSE_NO":"４７號","E_COORD97":166166.60999999999,"N_COORD97":2545343.4199999999,"ADDRESS":"賢北街２７巷４７號","OBJECTID":364757},"geometry":{"x":166166.61000000034,"y":2545343.4199999981}},{"attributes":{"ID":364768,"DIS_CODE":0,"TOWNNAME":"北區","LI":"賢北里","LIN":"12鄰","STREET":"賢北街","SECT":" ","MAREA":" ","LANE":"２７巷","ALLEY":" ","HOUSE_NO":"４９號","E_COORD97":166161.54999999999,"N_COORD97":2545342.1499999999,"ADDRESS":"賢北街２７巷４９號","OBJECTID":364758},"geometry":{"x":166161.55000000168,"y":2545342.1500000004}},{"attributes":{"ID":364769,"DIS_CODE":0,"TOWNNAME":"北區","LI":"賢北里","LIN":"12鄰","STREET":"賢北街","SECT":" ","MAREA":" ","LANE":"２７巷","ALLEY":" ","HOUSE_NO":"５１號","E_COORD97":166157.12,"N_COORD97":2545340.6800000002,"ADDRESS":"賢北街２７巷５１號","OBJECTID":364759},"geometry":{"x":166157.12000000104,"y":2545340.6799999997}},{"attributes":{"ID":364770,"DIS_CODE":0,"TOWNNAME":"安平區","LI":"華平里","LIN":"12鄰","STREET":"建平八街","SECT":" ","MAREA":" ","LANE":"３７２巷","ALLEY":" ","HOUSE_NO":"５４號","E_COORD97":165393.70000000001,"N_COORD97":2543702.48,"ADDRESS":"建平八街３７２巷５４號","OBJECTID":364760},"geometry":{"x":165393.70000000112,"y":2543702.4800000004}},{"attributes":{"ID":364771,"DIS_CODE":0,"TOWNNAME":"安平區","LI":"華平里","LIN":"12鄰","STREET":"建平八街","SECT":" ","MAREA":" ","LANE":"３７２巷","ALLEY":" ","HOUSE_NO":"５６號","E_COORD97":165393.59,"N_COORD97":2543707.73,"ADDRESS":"建平八街３７２巷５６號","OBJECTID":364761},"geometry":{"x":165393.59000000078,"y":2543707.7300000042}},{"attributes":{"ID":364772,"DIS_CODE":0,"TOWNNAME":"安平區","LI":"華平里","LIN":"12鄰","STREET":"建平八街","SECT":" ","MAREA":" ","LANE":"３７２巷","ALLEY":" ","HOUSE_NO":"５８號","E_COORD97":165394.70999999999,"N_COORD97":2543712.8700000001,"ADDRESS":"建平八街３７２巷５８號","OBJECTID":364762},"geometry":{"x":165394.71000000089,"y":2543712.870000001}},{"attributes":{"ID":364773,"DIS_CODE":0,"TOWNNAME":"北區","LI":"三德里","LIN":"12鄰","STREET":"裕民街","SECT":" ","MAREA":" ","LANE":"８３巷","ALLEY":" ","HOUSE_NO":"２５號","E_COORD97":168407.42000000001,"N_COORD97":2544531.6400000001,"ADDRESS":"裕民街８３巷２５號","OBJECTID":364763},"geometry":{"x":168407.42000000086,"y":2544531.6400000006}},{"attributes":{"ID":364774,"DIS_CODE":0,"TOWNNAME":"北區","LI":"文成里","LIN":"12鄰","STREET":"文賢二街","SECT":" ","MAREA":" ","LANE":"１０１巷","ALLEY":" ","HOUSE_NO":"１０號","E_COORD97":167746.47,"N_COORD97":2545413.23,"ADDRESS":"文賢二街１０１巷１０號","OBJECTID":364764},"geometry":{"x":167746.46999999974,"y":2545413.2300000042}},{"attributes":{"ID":364775,"DIS_CODE":0,"TOWNNAME":"北區","LI":"文成里","LIN":"12鄰","STREET":"文賢二街","SECT":" ","MAREA":" ","LANE":"１０１巷","ALLEY":" ","HOUSE_NO":"１２號","E_COORD97":167741.39000000001,"N_COORD97":2545413.6099999999,"ADDRESS":"文賢二街１０１巷１２號","OBJECTID":364765},"geometry":{"x":167741.3900000006,"y":2545413.6100000013}},{"attributes":{"ID":364776,"DIS_CODE":0,"TOWNNAME":"北區","LI":"文成里","LIN":"12鄰","STREET":"文賢二街","SECT":" ","MAREA":" ","LANE":"１０１巷","ALLEY":" ","HOUSE_NO":"１６號","E_COORD97":167736.95000000001,"N_COORD97":2545412.21,"ADDRESS":"文賢二街１０１巷１６號","OBJECTID":364766},"geometry":{"x":167736.95000000019,"y":2545412.2100000009}},{"attributes":{"ID":364777,"DIS_CODE":0,"TOWNNAME":"北區","LI":"文成里","LIN":"12鄰","STREET":"文賢二街","SECT":" ","MAREA":" ","LANE":"１０１巷","ALLEY":" ","HOUSE_NO":"１８號","E_COORD97":167733.01000000001,"N_COORD97":2545412.21,"ADDRESS":"文賢二街１０１巷１８號","OBJECTID":364767},"geometry":{"x":167733.00999999978,"y":2545412.2100000009}},{"attributes":{"ID":364778,"DIS_CODE":0,"TOWNNAME":"新營區","LI":"南興里","LIN":"12鄰","STREET":"和平路","SECT":" ","MAREA":" ","LANE":"１０４巷","ALLEY":" ","HOUSE_NO":"４５之３號","E_COORD97":179280.51999999999,"N_COORD97":2577551.7999999998,"ADDRESS":"和平路１０４巷４５之３號","OBJECTID":364768},"geometry":{"x":179280.52000000142,"y":2577551.8000000026}},{"attributes":{"ID":364779,"DIS_CODE":0,"TOWNNAME":"新營區","LI":"興業里","LIN":"12鄰","STREET":"中興路","SECT":" ","MAREA":" ","LANE":"１３巷","ALLEY":" ","HOUSE_NO":"１０之２號","E_COORD97":180185.63,"N_COORD97":2577963.9100000001,"ADDRESS":"中興路１３巷１０之２號","OBJECTID":364769},"geometry":{"x":180185.63000000082,"y":2577963.910000002}},{"attributes":{"ID":364780,"DIS_CODE":0,"TOWNNAME":"新營區","LI":"新北里","LIN":"12鄰","STREET":"南新街","SECT":" ","MAREA":" ","LANE":"５０巷","ALLEY":" ","HOUSE_NO":"１８號","E_COORD97":179346.91,"N_COORD97":2578927.98,"ADDRESS":"南新街５０巷１８號","OBJECTID":364770},"geometry":{"x":179346.91000000108,"y":2578927.9800000004}},{"attributes":{"ID":364781,"DIS_CODE":0,"TOWNNAME":"新營區","LI":"新北里","LIN":"12鄰","STREET":"南新街","SECT":" ","MAREA":" ","LANE":"５０巷","ALLEY":" ","HOUSE_NO":"５號","E_COORD97":179335.37,"N_COORD97":2578911.4199999999,"ADDRESS":"南新街５０巷５號","OBJECTID":364771},"geometry":{"x":179335.37000000104,"y":2578911.4199999999}},{"attributes":{"ID":364782,"DIS_CODE":0,"TOWNNAME":"新營區","LI":"南興里","LIN":"12鄰","STREET":"興農街","SECT":" ","MAREA":" ","LANE":"１４９巷","ALLEY":" ","HOUSE_NO":"１號","E_COORD97":179269.41,"N_COORD97":2577526.3199999998,"ADDRESS":"興農街１４９巷１號","OBJECTID":364772},"geometry":{"x":179269.41000000015,"y":2577526.320000004}},{"attributes":{"ID":364783,"DIS_CODE":0,"TOWNNAME":"北區","LI":"光武里","LIN":"12鄰","STREET":"北門路","SECT":"二段","MAREA":" ","LANE":"５４７巷","ALLEY":" ","HOUSE_NO":"５２號","E_COORD97":169557.10999999999,"N_COORD97":2545738.2000000002,"ADDRESS":"北門路二段５４７巷５２號","OBJECTID":364773},"geometry":{"x":169557.1099999994,"y":2545738.2000000011}},{"attributes":{"ID":364784,"DIS_CODE":0,"TOWNNAME":"北區","LI":"光武里","LIN":"12鄰","STREET":"北門路","SECT":"二段","MAREA":" ","LANE":"５４７巷","ALLEY":" ","HOUSE_NO":"５６號","E_COORD97":169546.95000000001,"N_COORD97":2545741.3799999999,"ADDRESS":"北門路二段５４７巷５６號","OBJECTID":364774},"geometry":{"x":169546.95000000112,"y":2545741.379999999}},{"attributes":{"ID":364785,"DIS_CODE":0,"TOWNNAME":"北區","LI":"文元里","LIN":"12鄰","STREET":"中華北路","SECT":"二段","MAREA":" ","LANE":"２５巷","ALLEY":" ","HOUSE_NO":"９號","E_COORD97":167458.78,"N_COORD97":2546507.1699999999,"ADDRESS":"中華北路二段２５巷９號","OBJECTID":364775},"geometry":{"x":167458.78000000026,"y":2546507.1699999999}},{"attributes":{"ID":364786,"DIS_CODE":0,"TOWNNAME":"北區","LI":"文元里","LIN":"12鄰","STREET":"文賢路","SECT":" ","MAREA":" ","LANE":"１１２２巷","ALLEY":" ","HOUSE_NO":"２３號","E_COORD97":167421.95999999999,"N_COORD97":2546355.3799999999,"ADDRESS":"文賢路１１２２巷２３號","OBJECTID":364776},"geometry":{"x":167421.96000000183,"y":2546355.379999999}},{"attributes":{"ID":364787,"DIS_CODE":0,"TOWNNAME":"北區","LI":"文元里","LIN":"12鄰","STREET":"文賢路","SECT":" ","MAREA":" ","LANE":"１１２２巷","ALLEY":" ","HOUSE_NO":"２７號","E_COORD97":167428.20999999999,"N_COORD97":2546352.9500000002,"ADDRESS":"文賢路１１２２巷２７號","OBJECTID":364777},"geometry":{"x":167428.20999999996,"y":2546352.950000003}},{"attributes":{"ID":364788,"DIS_CODE":0,"TOWNNAME":"北區","LI":"文元里","LIN":"12鄰","STREET":"文賢路","SECT":" ","MAREA":" ","LANE":"１１２２巷","ALLEY":" ","HOUSE_NO":"１７號","E_COORD97":167405.29000000001,"N_COORD97":2546350.1800000002,"ADDRESS":"文賢路１１２２巷１７號","OBJECTID":364778},"geometry":{"x":167405.29000000097,"y":2546350.1800000016}},{"attributes":{"ID":364789,"DIS_CODE":0,"TOWNNAME":"北區","LI":"文元里","LIN":"12鄰","STREET":"文賢路","SECT":" ","MAREA":" ","LANE":"１１２２巷","ALLEY":" ","HOUSE_NO":"１９號","E_COORD97":167410.84,"N_COORD97":2546353.2999999998,"ADDRESS":"文賢路１１２２巷１９號","OBJECTID":364779},"geometry":{"x":167410.84000000171,"y":2546353.3000000026}},{"attributes":{"ID":364790,"DIS_CODE":0,"TOWNNAME":"北區","LI":"文元里","LIN":"12鄰","STREET":"文賢路","SECT":" ","MAREA":" ","LANE":"１１２２巷","ALLEY":" ","HOUSE_NO":"２１號","E_COORD97":167416.39999999999,"N_COORD97":2546350.8700000001,"ADDRESS":"文賢路１１２２巷２１號","OBJECTID":364780},"geometry":{"x":167416.4000000013,"y":2546350.870000001}},{"attributes":{"ID":364791,"DIS_CODE":0,"TOWNNAME":"北區","LI":"大豐里","LIN":"12鄰","STREET":"和緯路","SECT":"四段","MAREA":" ","LANE":"１１７巷","ALLEY":" ","HOUSE_NO":"１０號","E_COORD97":167066.20000000001,"N_COORD97":2545435.8100000001,"ADDRESS":"和緯路四段１１７巷１０號","OBJECTID":364781},"geometry":{"x":167066.20000000205,"y":2545435.8100000005}},{"attributes":{"ID":364792,"DIS_CODE":0,"TOWNNAME":"北區","LI":"大豐里","LIN":"12鄰","STREET":"和緯路","SECT":"四段","MAREA":" ","LANE":"１１７巷","ALLEY":" ","HOUSE_NO":"１２號","E_COORD97":167065.82000000001,"N_COORD97":2545432.4100000001,"ADDRESS":"和緯路四段１１７巷１２號","OBJECTID":364782},"geometry":{"x":167065.82000000123,"y":2545432.410000002}},{"attributes":{"ID":364793,"DIS_CODE":0,"TOWNNAME":"北區","LI":"大豐里","LIN":"12鄰","STREET":"和緯路","SECT":"四段","MAREA":" ","LANE":"１１７巷","ALLEY":" ","HOUSE_NO":"１４號","E_COORD97":167065.66,"N_COORD97":2545428.3300000001,"ADDRESS":"和緯路四段１１７巷１４號","OBJECTID":364783},"geometry":{"x":167065.66000000015,"y":2545428.3300000001}},{"attributes":{"ID":364794,"DIS_CODE":0,"TOWNNAME":"北區","LI":"大豐里","LIN":"12鄰","STREET":"和緯路","SECT":"四段","MAREA":" ","LANE":"１１７巷","ALLEY":" ","HOUSE_NO":"１６號","E_COORD97":167064.57999999999,"N_COORD97":2545423.9100000001,"ADDRESS":"和緯路四段１１７巷１６號","OBJECTID":364784},"geometry":{"x":167064.58000000007,"y":2545423.9100000001}},{"attributes":{"ID":364795,"DIS_CODE":0,"TOWNNAME":"北區","LI":"大豐里","LIN":"12鄰","STREET":"和緯路","SECT":"四段","MAREA":" ","LANE":"１１７巷","ALLEY":" ","HOUSE_NO":"６６號","E_COORD97":167049.38,"N_COORD97":2545317.1200000001,"ADDRESS":"和緯路四段１１７巷６６號","OBJECTID":364785},"geometry":{"x":167049.38000000175,"y":2545317.1200000029}},{"attributes":{"ID":364796,"DIS_CODE":0,"TOWNNAME":"北區","LI":"大豐里","LIN":"12鄰","STREET":"和緯路","SECT":"四段","MAREA":" ","LANE":"１１７巷","ALLEY":" ","HOUSE_NO":"６８號","E_COORD97":167048.51999999999,"N_COORD97":2545313.2799999998,"ADDRESS":"和緯路四段１１７巷６８號","OBJECTID":364786},"geometry":{"x":167048.52000000048,"y":2545313.2800000031}},{"attributes":{"ID":364797,"DIS_CODE":0,"TOWNNAME":"北區","LI":"大豐里","LIN":"12鄰","STREET":"和緯路","SECT":"四段","MAREA":" ","LANE":"１１７巷","ALLEY":" ","HOUSE_NO":"６號","E_COORD97":167066.97,"N_COORD97":2545444.2200000002,"ADDRESS":"和緯路四段１１７巷６號","OBJECTID":364787},"geometry":{"x":167066.96999999974,"y":2545444.2200000044}},{"attributes":{"ID":364798,"DIS_CODE":0,"TOWNNAME":"北區","LI":"大豐里","LIN":"12鄰","STREET":"和緯路","SECT":"四段","MAREA":" ","LANE":"１１７巷","ALLEY":" ","HOUSE_NO":"７０號","E_COORD97":167047.67000000001,"N_COORD97":2545309.3100000001,"ADDRESS":"和緯路四段１１７巷７０號","OBJECTID":364788},"geometry":{"x":167047.67000000086,"y":2545309.3100000024}},{"attributes":{"ID":364799,"DIS_CODE":0,"TOWNNAME":"北區","LI":"安民里","LIN":"12鄰","STREET":"海安路","SECT":"三段","MAREA":" ","LANE":"５３巷","ALLEY":" ","HOUSE_NO":"１０號","E_COORD97":167882,"N_COORD97":2544754.1200000001,"ADDRESS":"海安路三段５３巷１０號","OBJECTID":364789},"geometry":{"x":167882,"y":2544754.1200000029}},{"attributes":{"ID":364800,"DIS_CODE":0,"TOWNNAME":"北區","LI":"安民里","LIN":"12鄰","STREET":"海安路","SECT":"三段","MAREA":" ","LANE":"７１巷","ALLEY":" ","HOUSE_NO":"２３號","E_COORD97":167856.70999999999,"N_COORD97":2544804.1600000001,"ADDRESS":"海安路三段７１巷２３號","OBJECTID":364790},"geometry":{"x":167856.70999999996,"y":2544804.160000002}},{"attributes":{"ID":364801,"DIS_CODE":0,"TOWNNAME":"安平區","LI":"文平里","LIN":"12鄰","STREET":"永華四街","SECT":" ","MAREA":" ","LANE":"１７巷","ALLEY":" ","HOUSE_NO":"１２號","E_COORD97":165894.10999999999,"N_COORD97":2543202.3199999998,"ADDRESS":"永華四街１７巷１２號","OBJECTID":364791},"geometry":{"x":165894.11000000127,"y":2543202.3200000022}},{"attributes":{"ID":364802,"DIS_CODE":0,"TOWNNAME":"六甲區","LI":"水林里","LIN":"12鄰","STREET":"民族街","SECT":" ","MAREA":" ","LANE":"２７５巷","ALLEY":" ","HOUSE_NO":"２３１號","E_COORD97":182848.82999999999,"N_COORD97":2570315.8900000001,"ADDRESS":"民族街２７５巷２３１號","OBJECTID":364792},"geometry":{"x":182848.83000000007,"y":2570315.8900000025}},{"attributes":{"ID":364803,"DIS_CODE":0,"TOWNNAME":"北區","LI":"長榮里","LIN":"12鄰","STREET":"長榮路","SECT":"五段","MAREA":" ","LANE":"４１巷","ALLEY":" ","HOUSE_NO":"９號","E_COORD97":170087.47,"N_COORD97":2545409.3900000001,"ADDRESS":"長榮路五段４１巷９號","OBJECTID":364793},"geometry":{"x":170087.46999999974,"y":2545409.3900000025}},{"attributes":{"ID":364804,"DIS_CODE":0,"TOWNNAME":"北區","LI":"長榮里","LIN":"12鄰","STREET":"長榮路","SECT":"五段","MAREA":" ","LANE":"４１巷","ALLEY":" ","HOUSE_NO":"１１號","E_COORD97":170088.26999999999,"N_COORD97":2545398.4399999999,"ADDRESS":"長榮路五段４１巷１１號","OBJECTID":364794},"geometry":{"x":170088.27000000048,"y":2545398.4400000013}},{"attributes":{"ID":364805,"DIS_CODE":0,"TOWNNAME":"南區","LI":"金華里","LIN":"12鄰","STREET":"健康路","SECT":"二段","MAREA":" ","LANE":"２６３巷","ALLEY":" ","HOUSE_NO":"２號","E_COORD97":166950.59,"N_COORD97":2542449.5,"ADDRESS":"健康路二段２６３巷２號","OBJECTID":364795},"geometry":{"x":166950.58999999985,"y":2542449.5}},{"attributes":{"ID":364806,"DIS_CODE":0,"TOWNNAME":"南區","LI":"金華里","LIN":"12鄰","STREET":"健康路","SECT":"二段","MAREA":" ","LANE":"２６３巷","ALLEY":" ","HOUSE_NO":"４號","E_COORD97":166952.70000000001,"N_COORD97":2542443.98,"ADDRESS":"健康路二段２６３巷４號","OBJECTID":364796},"geometry":{"x":166952.70000000205,"y":2542443.9800000004}},{"attributes":{"ID":364807,"DIS_CODE":0,"TOWNNAME":"南區","LI":"金華里","LIN":"12鄰","STREET":"健康路","SECT":"二段","MAREA":" ","LANE":"２６３巷","ALLEY":" ","HOUSE_NO":"６號","E_COORD97":166951.91,"N_COORD97":2542437.4100000001,"ADDRESS":"健康路二段２６３巷６號","OBJECTID":364797},"geometry":{"x":166951.91000000108,"y":2542437.4100000001}},{"attributes":{"ID":364808,"DIS_CODE":0,"TOWNNAME":"新營區","LI":"南興里","LIN":"12鄰","STREET":"和平路","SECT":" ","MAREA":" ","LANE":"１０４巷","ALLEY":" ","HOUSE_NO":"２５號","E_COORD97":179319.95999999999,"N_COORD97":2577552.6600000001,"ADDRESS":"和平路１０４巷２５號","OBJECTID":364798},"geometry":{"x":179319.95999999996,"y":2577552.6600000001}},{"attributes":{"ID":364809,"DIS_CODE":0,"TOWNNAME":"新營區","LI":"忠政里","LIN":"12鄰","STREET":"府西路","SECT":" ","MAREA":" ","LANE":"２０２巷","ALLEY":" ","HOUSE_NO":"２１號","E_COORD97":179879.72,"N_COORD97":2579544.52,"ADDRESS":"府西路２０２巷２１號","OBJECTID":364799},"geometry":{"x":179879.72000000067,"y":2579544.5200000033}},{"attributes":{"ID":364810,"DIS_CODE":0,"TOWNNAME":"北區","LI":"正覺里","LIN":"12鄰","STREET":"正覺街","SECT":" ","MAREA":" ","LANE":"３３巷","ALLEY":" ","HOUSE_NO":"７號","E_COORD97":169245.22,"N_COORD97":2546268.6000000001,"ADDRESS":"正覺街３３巷７號","OBJECTID":364800},"geometry":{"x":169245.21999999974,"y":2546268.6000000015}}]}