{"displayFieldName":"TOWNNAME","fieldAliases":{"ID":"ID","DIS_CODE":"DIS_CODE","TOWNNAME":"TOWNNAME","LI":"LI","LIN":"LIN","STREET":"STREET","SECT":"SECT","MAREA":"MAREA","LANE":"LANE","ALLEY":"ALLEY","HOUSE_NO":"HOUSE_NO","E_COORD97":"E_COORD97","N_COORD97":"N_COORD97","ADDRESS":"ADDRESS","OBJECTID":"OBJECTID"},"geometryType":"esriGeometryPoint","spatialReference":{"wkid":102443,"latestWkid":3826},"fields":[{"name":"ID","type":"esriFieldTypeDouble","alias":"ID"},{"name":"DIS_CODE","type":"esriFieldTypeInteger","alias":"DIS_CODE"},{"name":"TOWNNAME","type":"esriFieldTypeString","alias":"TOWNNAME","length":8},{"name":"LI","type":"esriFieldTypeString","alias":"LI","length":8},{"name":"LIN","type":"esriFieldTypeString","alias":"LIN","length":12},{"name":"STREET","type":"esriFieldTypeString","alias":"STREET","length":20},{"name":"SECT","type":"esriFieldTypeString","alias":"SECT","length":8},{"name":"MAREA","type":"esriFieldTypeString","alias":"MAREA","length":12},{"name":"LANE","type":"esriFieldTypeString","alias":"LANE","length":10},{"name":"ALLEY","type":"esriFieldTypeString","alias":"ALLEY","length":10},{"name":"HOUSE_NO","type":"esriFieldTypeString","alias":"HOUSE_NO","length":20},{"name":"E_COORD97","type":"esriFieldTypeDouble","alias":"E_COORD97"},{"name":"N_COORD97","type":"esriFieldTypeDouble","alias":"N_COORD97"},{"name":"ADDRESS","type":"esriFieldTypeString","alias":"ADDRESS","length":50},{"name":"OBJECTID","type":"esriFieldTypeOID","alias":"OBJECTID"}],"features":[{"attributes":{"ID":70801,"DIS_CODE":0,"TOWNNAME":"白河區","LI":"大竹里","LIN":"6鄰","STREET":" ","SECT":" ","MAREA":"大排竹","LANE":" ","ALLEY":" ","HOUSE_NO":"１０１之３２號","E_COORD97":189590.17000000001,"N_COORD97":2585367.7400000002,"ADDRESS":"大排竹１０１之３２號","OBJECTID":70801},"geometry":{"x":189590.17000000179,"y":2585367.7400000002}},{"attributes":{"ID":70802,"DIS_CODE":0,"TOWNNAME":"永康區","LI":"勝利里","LIN":"33鄰","STREET":"中華路","SECT":" ","MAREA":" ","LANE":"７巷","ALLEY":"２０弄","HOUSE_NO":"３８號十二樓之１","E_COORD97":171532.73999999999,"N_COORD97":2544441.0499999998,"ADDRESS":"中華路７巷２０弄３８號十二樓之１","OBJECTID":70802},"geometry":{"x":171532.74000000209,"y":2544441.0500000007}},{"attributes":{"ID":70803,"DIS_CODE":0,"TOWNNAME":"永康區","LI":"勝利里","LIN":"33鄰","STREET":"中華路","SECT":" ","MAREA":" ","LANE":"７巷","ALLEY":"２０弄","HOUSE_NO":"３６號九樓之３","E_COORD97":171533.17999999999,"N_COORD97":2544457.7999999998,"ADDRESS":"中華路７巷２０弄３６號九樓之３","OBJECTID":70803},"geometry":{"x":171533.18000000063,"y":2544457.8000000026}},{"attributes":{"ID":70804,"DIS_CODE":0,"TOWNNAME":"永康區","LI":"勝利里","LIN":"33鄰","STREET":"中華路","SECT":" ","MAREA":" ","LANE":"７巷","ALLEY":"２０弄","HOUSE_NO":"３８號七樓之２","E_COORD97":171531.62,"N_COORD97":2544441.0499999998,"ADDRESS":"中華路７巷２０弄３８號七樓之２","OBJECTID":70804},"geometry":{"x":171531.62000000011,"y":2544441.0500000007}},{"attributes":{"ID":70805,"DIS_CODE":0,"TOWNNAME":"永康區","LI":"勝利里","LIN":"33鄰","STREET":"中華路","SECT":" ","MAREA":" ","LANE":"７巷","ALLEY":"２０弄","HOUSE_NO":"３８號十三樓之１","E_COORD97":171532.73999999999,"N_COORD97":2544441.0499999998,"ADDRESS":"中華路７巷２０弄３８號十三樓之１","OBJECTID":70805},"geometry":{"x":171532.74000000209,"y":2544441.0500000007}},{"attributes":{"ID":70806,"DIS_CODE":0,"TOWNNAME":"仁德區","LI":"田厝里","LIN":"7鄰","STREET":"中正路","SECT":"一段","MAREA":" ","LANE":"５９９巷","ALLEY":" ","HOUSE_NO":"１０號","E_COORD97":172855.32000000001,"N_COORD97":2537944.5299999998,"ADDRESS":"中正路一段５９９巷１０號","OBJECTID":70806},"geometry":{"x":172855.32000000123,"y":2537944.5300000031}},{"attributes":{"ID":70807,"DIS_CODE":0,"TOWNNAME":"白河區","LI":"大竹里","LIN":"6鄰","STREET":" ","SECT":" ","MAREA":"大排竹","LANE":" ","ALLEY":" ","HOUSE_NO":"１０１之３３號","E_COORD97":189590.95000000001,"N_COORD97":2585372.04,"ADDRESS":"大排竹１０１之３３號","OBJECTID":70807},"geometry":{"x":189590.95000000112,"y":2585372.0400000028}},{"attributes":{"ID":70808,"DIS_CODE":0,"TOWNNAME":"白河區","LI":"大竹里","LIN":"6鄰","STREET":" ","SECT":" ","MAREA":"大排竹","LANE":" ","ALLEY":" ","HOUSE_NO":"１０１之３４號","E_COORD97":189591.73000000001,"N_COORD97":2585376.3399999999,"ADDRESS":"大排竹１０１之３４號","OBJECTID":70808},"geometry":{"x":189591.73000000045,"y":2585376.3399999999}},{"attributes":{"ID":70809,"DIS_CODE":0,"TOWNNAME":"白河區","LI":"大竹里","LIN":"6鄰","STREET":" ","SECT":" ","MAREA":"大排竹","LANE":" ","ALLEY":" ","HOUSE_NO":"１０１之３５號","E_COORD97":189592.5,"N_COORD97":2585380.6299999999,"ADDRESS":"大排竹１０１之３５號","OBJECTID":70809},"geometry":{"x":189592.5,"y":2585380.629999999}},{"attributes":{"ID":70810,"DIS_CODE":0,"TOWNNAME":"白河區","LI":"大竹里","LIN":"6鄰","STREET":" ","SECT":" ","MAREA":"大排竹","LANE":" ","ALLEY":" ","HOUSE_NO":"１０１之３６號","E_COORD97":189593.28,"N_COORD97":2585384.9300000002,"ADDRESS":"大排竹１０１之３６號","OBJECTID":70810},"geometry":{"x":189593.28000000119,"y":2585384.9300000016}},{"attributes":{"ID":70811,"DIS_CODE":0,"TOWNNAME":"永康區","LI":"勝利里","LIN":"33鄰","STREET":"中華路","SECT":" ","MAREA":" ","LANE":"７巷","ALLEY":"２０弄","HOUSE_NO":"３６號九樓之１","E_COORD97":171533.07999999999,"N_COORD97":2544457.7999999998,"ADDRESS":"中華路７巷２０弄３６號九樓之１","OBJECTID":70811},"geometry":{"x":171533.08000000007,"y":2544457.8000000026}},{"attributes":{"ID":70812,"DIS_CODE":0,"TOWNNAME":"永康區","LI":"勝利里","LIN":"33鄰","STREET":"中華路","SECT":" ","MAREA":" ","LANE":"７巷","ALLEY":"２０弄","HOUSE_NO":"３６號九樓之４","E_COORD97":171533.10000000001,"N_COORD97":2544457.7999999998,"ADDRESS":"中華路７巷２０弄３６號九樓之４","OBJECTID":70812},"geometry":{"x":171533.10000000149,"y":2544457.8000000026}},{"attributes":{"ID":70813,"DIS_CODE":0,"TOWNNAME":"永康區","LI":"勝利里","LIN":"33鄰","STREET":"中華路","SECT":" ","MAREA":" ","LANE":"７巷","ALLEY":"２０弄","HOUSE_NO":"３８號十二樓之５","E_COORD97":171532.89000000001,"N_COORD97":2544441.0499999998,"ADDRESS":"中華路７巷２０弄３８號十二樓之５","OBJECTID":70813},"geometry":{"x":171532.89000000153,"y":2544441.0500000007}},{"attributes":{"ID":70814,"DIS_CODE":0,"TOWNNAME":"永康區","LI":"勝利里","LIN":"33鄰","STREET":"中華路","SECT":" ","MAREA":" ","LANE":"７巷","ALLEY":"２０弄","HOUSE_NO":"３８號十七樓之４","E_COORD97":171532.76000000001,"N_COORD97":2544441.0499999998,"ADDRESS":"中華路７巷２０弄３８號十七樓之４","OBJECTID":70814},"geometry":{"x":171532.76000000071,"y":2544441.0500000007}},{"attributes":{"ID":70815,"DIS_CODE":0,"TOWNNAME":"永康區","LI":"勝利里","LIN":"33鄰","STREET":"中華路","SECT":" ","MAREA":" ","LANE":"７巷","ALLEY":"２０弄","HOUSE_NO":"３８號十三樓之２","E_COORD97":171532.87,"N_COORD97":2544441.0499999998,"ADDRESS":"中華路７巷２０弄３８號十三樓之２","OBJECTID":70815},"geometry":{"x":171532.87000000011,"y":2544441.0500000007}},{"attributes":{"ID":70816,"DIS_CODE":0,"TOWNNAME":"永康區","LI":"成功里","LIN":"33鄰","STREET":"忠孝路","SECT":" ","MAREA":" ","LANE":"２０７巷","ALLEY":"３２弄","HOUSE_NO":"８號五樓之３","E_COORD97":171905.42999999999,"N_COORD97":2544948.9900000002,"ADDRESS":"忠孝路２０７巷３２弄８號五樓之３","OBJECTID":70816},"geometry":{"x":171905.4299999997,"y":2544948.9900000002}},{"attributes":{"ID":70817,"DIS_CODE":0,"TOWNNAME":"永康區","LI":"二王里","LIN":"33鄰","STREET":"中山南路","SECT":" ","MAREA":" ","LANE":"４９０巷","ALLEY":"２弄","HOUSE_NO":"１２號三樓之１","E_COORD97":172050.37,"N_COORD97":2546400.75,"ADDRESS":"中山南路４９０巷２弄１２號三樓之１","OBJECTID":70817},"geometry":{"x":172050.37000000011,"y":2546400.7500000019}},{"attributes":{"ID":70818,"DIS_CODE":0,"TOWNNAME":"白河區","LI":"大竹里","LIN":"6鄰","STREET":" ","SECT":" ","MAREA":"大排竹","LANE":" ","ALLEY":" ","HOUSE_NO":"１０１之３７號","E_COORD97":189594.06,"N_COORD97":2585389.23,"ADDRESS":"大排竹１０１之３７號","OBJECTID":70818},"geometry":{"x":189594.06000000052,"y":2585389.2300000042}},{"attributes":{"ID":70819,"DIS_CODE":0,"TOWNNAME":"永康區","LI":"二王里","LIN":"33鄰","STREET":"中山南路","SECT":" ","MAREA":" ","LANE":"４９０巷","ALLEY":"２弄","HOUSE_NO":"８號九樓之２","E_COORD97":172058.06,"N_COORD97":2546410.6000000001,"ADDRESS":"中山南路４９０巷２弄８號九樓之２","OBJECTID":70819},"geometry":{"x":172058.05999999959,"y":2546410.6000000015}},{"attributes":{"ID":70820,"DIS_CODE":0,"TOWNNAME":"永康區","LI":"二王里","LIN":"33鄰","STREET":"中山南路","SECT":" ","MAREA":" ","LANE":"４９０巷","ALLEY":"２弄","HOUSE_NO":"１２號八樓之２","E_COORD97":172050.5,"N_COORD97":2546400.75,"ADDRESS":"中山南路４９０巷２弄１２號八樓之２","OBJECTID":70820},"geometry":{"x":172050.5,"y":2546400.7500000019}},{"attributes":{"ID":70821,"DIS_CODE":0,"TOWNNAME":"永康區","LI":"二王里","LIN":"33鄰","STREET":"中山南路","SECT":" ","MAREA":" ","LANE":"４９０巷","ALLEY":"２弄","HOUSE_NO":"１２號三樓之３","E_COORD97":172050.47,"N_COORD97":2546400.75,"ADDRESS":"中山南路４９０巷２弄１２號三樓之３","OBJECTID":70821},"geometry":{"x":172050.46999999974,"y":2546400.7500000019}},{"attributes":{"ID":70822,"DIS_CODE":0,"TOWNNAME":"永康區","LI":"二王里","LIN":"33鄰","STREET":"中山南路","SECT":" ","MAREA":" ","LANE":"４９０巷","ALLEY":"２弄","HOUSE_NO":"８號三樓之１","E_COORD97":172057.92999999999,"N_COORD97":2546410.6000000001,"ADDRESS":"中山南路４９０巷２弄８號三樓之１","OBJECTID":70822},"geometry":{"x":172057.9299999997,"y":2546410.6000000015}},{"attributes":{"ID":70823,"DIS_CODE":0,"TOWNNAME":"永康區","LI":"二王里","LIN":"33鄰","STREET":"中山南路","SECT":" ","MAREA":" ","LANE":"４９０巷","ALLEY":"２弄","HOUSE_NO":"６號三樓之１","E_COORD97":172073.09,"N_COORD97":2546425.52,"ADDRESS":"中山南路４９０巷２弄６號三樓之１","OBJECTID":70823},"geometry":{"x":172073.09000000078,"y":2546425.5200000014}},{"attributes":{"ID":70824,"DIS_CODE":0,"TOWNNAME":"永康區","LI":"二王里","LIN":"33鄰","STREET":"中山南路","SECT":" ","MAREA":" ","LANE":"４９０巷","ALLEY":"２弄","HOUSE_NO":"８號三樓之２","E_COORD97":172058.06,"N_COORD97":2546410.6000000001,"ADDRESS":"中山南路４９０巷２弄８號三樓之２","OBJECTID":70824},"geometry":{"x":172058.05999999959,"y":2546410.6000000015}},{"attributes":{"ID":70825,"DIS_CODE":0,"TOWNNAME":"白河區","LI":"大竹里","LIN":"6鄰","STREET":" ","SECT":" ","MAREA":"大排竹","LANE":" ","ALLEY":" ","HOUSE_NO":"１０１之３８號","E_COORD97":189594.84,"N_COORD97":2585393.5299999998,"ADDRESS":"大排竹１０１之３８號","OBJECTID":70825},"geometry":{"x":189594.83999999985,"y":2585393.5300000012}},{"attributes":{"ID":70826,"DIS_CODE":0,"TOWNNAME":"白河區","LI":"大竹里","LIN":"6鄰","STREET":" ","SECT":" ","MAREA":"大排竹","LANE":" ","ALLEY":" ","HOUSE_NO":"１０１之３９號","E_COORD97":189595.62,"N_COORD97":2585397.8199999998,"ADDRESS":"大排竹１０１之３９號","OBJECTID":70826},"geometry":{"x":189595.61999999918,"y":2585397.8200000003}},{"attributes":{"ID":70827,"DIS_CODE":0,"TOWNNAME":"六甲區","LI":"甲東里","LIN":"8鄰","STREET":"曾文街","SECT":" ","MAREA":" ","LANE":" ","ALLEY":" ","HOUSE_NO":"５８之２號","E_COORD97":184079.97987400001,"N_COORD97":2570222.5720099998,"ADDRESS":"曾文街５８之２號","OBJECTID":70827},"geometry":{"x":184079.97987400088,"y":2570222.5720140003}},{"attributes":{"ID":70828,"DIS_CODE":0,"TOWNNAME":"白河區","LI":"大竹里","LIN":"6鄰","STREET":" ","SECT":" ","MAREA":"大排竹","LANE":" ","ALLEY":" ","HOUSE_NO":"１０１之４０號","E_COORD97":189613.73000000001,"N_COORD97":2585388.6000000001,"ADDRESS":"大排竹１０１之４０號","OBJECTID":70828},"geometry":{"x":189613.73000000045,"y":2585388.5999999996}},{"attributes":{"ID":70829,"DIS_CODE":0,"TOWNNAME":"白河區","LI":"大竹里","LIN":"6鄰","STREET":" ","SECT":" ","MAREA":"大排竹","LANE":" ","ALLEY":" ","HOUSE_NO":"１０１之４１號","E_COORD97":189621.04000000001,"N_COORD97":2585387.5899999999,"ADDRESS":"大排竹１０１之４１號","OBJECTID":70829},"geometry":{"x":189621.04000000004,"y":2585387.5900000017}},{"attributes":{"ID":70830,"DIS_CODE":0,"TOWNNAME":"永康區","LI":"二王里","LIN":"33鄰","STREET":"中山南路","SECT":" ","MAREA":" ","LANE":"４９０巷","ALLEY":"２弄","HOUSE_NO":"１２號六樓之１","E_COORD97":172050.37,"N_COORD97":2546400.75,"ADDRESS":"中山南路４９０巷２弄１２號六樓之１","OBJECTID":70830},"geometry":{"x":172050.37000000011,"y":2546400.7500000019}},{"attributes":{"ID":70831,"DIS_CODE":0,"TOWNNAME":"安南區","LI":"理想里","LIN":"7鄰","STREET":"海佃路","SECT":"二段","MAREA":" ","LANE":" ","ALLEY":" ","HOUSE_NO":"２５６號","E_COORD97":166930.51999999999,"N_COORD97":2548365.4300000002,"ADDRESS":"海佃路二段２５６號","OBJECTID":70831},"geometry":{"x":166930.51999999955,"y":2548365.4300000016}},{"attributes":{"ID":70832,"DIS_CODE":0,"TOWNNAME":"安南區","LI":"理想里","LIN":"7鄰","STREET":"海佃路","SECT":"二段","MAREA":" ","LANE":" ","ALLEY":" ","HOUSE_NO":"１９４號","E_COORD97":166968.74194199999,"N_COORD97":2548248.4407100002,"ADDRESS":"海佃路二段１９４號","OBJECTID":70832},"geometry":{"x":166968.74194200058,"y":2548248.4407139998}},{"attributes":{"ID":70833,"DIS_CODE":0,"TOWNNAME":"安南區","LI":"理想里","LIN":"7鄰","STREET":"海佃路","SECT":"二段","MAREA":" ","LANE":" ","ALLEY":" ","HOUSE_NO":"１９０號","E_COORD97":166972.55639099999,"N_COORD97":2548238.9157199999,"ADDRESS":"海佃路二段１９０號","OBJECTID":70833},"geometry":{"x":166972.55639100075,"y":2548238.9157200009}},{"attributes":{"ID":70834,"DIS_CODE":0,"TOWNNAME":"安南區","LI":"理想里","LIN":"7鄰","STREET":"海佃路","SECT":"二段","MAREA":" ","LANE":" ","ALLEY":" ","HOUSE_NO":"１８８號","E_COORD97":166973.192133,"N_COORD97":2548234.4707200001,"ADDRESS":"海佃路二段１８８號","OBJECTID":70834},"geometry":{"x":166973.19213300198,"y":2548234.470722001}},{"attributes":{"ID":70835,"DIS_CODE":0,"TOWNNAME":"永康區","LI":"二王里","LIN":"33鄰","STREET":"中山南路","SECT":" ","MAREA":" ","LANE":"４９０巷","ALLEY":"２弄","HOUSE_NO":"８號八樓之１","E_COORD97":172057.92999999999,"N_COORD97":2546410.6000000001,"ADDRESS":"中山南路４９０巷２弄８號八樓之１","OBJECTID":70835},"geometry":{"x":172057.9299999997,"y":2546410.6000000015}},{"attributes":{"ID":70836,"DIS_CODE":0,"TOWNNAME":"永康區","LI":"二王里","LIN":"33鄰","STREET":"中山南路","SECT":" ","MAREA":" ","LANE":"４９０巷","ALLEY":"２弄","HOUSE_NO":"１２號十樓","E_COORD97":172048.23000000001,"N_COORD97":2546400.7200000002,"ADDRESS":"中山南路４９０巷２弄１２號十樓","OBJECTID":70836},"geometry":{"x":172048.23000000045,"y":2546400.7200000025}},{"attributes":{"ID":70837,"DIS_CODE":0,"TOWNNAME":"永康區","LI":"二王里","LIN":"33鄰","STREET":"中山南路","SECT":" ","MAREA":" ","LANE":"４９０巷","ALLEY":"２弄","HOUSE_NO":"１２號五樓之１","E_COORD97":172050.37,"N_COORD97":2546400.75,"ADDRESS":"中山南路４９０巷２弄１２號五樓之１","OBJECTID":70837},"geometry":{"x":172050.37000000011,"y":2546400.7500000019}},{"attributes":{"ID":70838,"DIS_CODE":0,"TOWNNAME":"永康區","LI":"二王里","LIN":"33鄰","STREET":"中山南路","SECT":" ","MAREA":" ","LANE":"４９０巷","ALLEY":"２弄","HOUSE_NO":"１２號四樓之１","E_COORD97":172050.37,"N_COORD97":2546400.75,"ADDRESS":"中山南路４９０巷２弄１２號四樓之１","OBJECTID":70838},"geometry":{"x":172050.37000000011,"y":2546400.7500000019}},{"attributes":{"ID":70839,"DIS_CODE":0,"TOWNNAME":"永康區","LI":"二王里","LIN":"33鄰","STREET":"中山南路","SECT":" ","MAREA":" ","LANE":"４９０巷","ALLEY":"２弄","HOUSE_NO":"６號四樓之３","E_COORD97":172073.19,"N_COORD97":2546425.52,"ADDRESS":"中山南路４９０巷２弄６號四樓之３","OBJECTID":70839},"geometry":{"x":172073.19000000134,"y":2546425.5200000014}},{"attributes":{"ID":70840,"DIS_CODE":0,"TOWNNAME":"永康區","LI":"二王里","LIN":"33鄰","STREET":"中山南路","SECT":" ","MAREA":" ","LANE":"４９０巷","ALLEY":"２弄","HOUSE_NO":"１２號八樓之１","E_COORD97":172050.37,"N_COORD97":2546400.75,"ADDRESS":"中山南路４９０巷２弄１２號八樓之１","OBJECTID":70840},"geometry":{"x":172050.37000000011,"y":2546400.7500000019}},{"attributes":{"ID":70841,"DIS_CODE":0,"TOWNNAME":"永康區","LI":"二王里","LIN":"33鄰","STREET":"中山南路","SECT":" ","MAREA":" ","LANE":"４９０巷","ALLEY":"２弄","HOUSE_NO":"８號五樓之１","E_COORD97":172057.92999999999,"N_COORD97":2546410.6000000001,"ADDRESS":"中山南路４９０巷２弄８號五樓之１","OBJECTID":70841},"geometry":{"x":172057.9299999997,"y":2546410.6000000015}},{"attributes":{"ID":70842,"DIS_CODE":0,"TOWNNAME":"永康區","LI":"二王里","LIN":"33鄰","STREET":"中山南路","SECT":" ","MAREA":" ","LANE":"４９０巷","ALLEY":"２弄","HOUSE_NO":"１２號五樓之２","E_COORD97":172050.5,"N_COORD97":2546400.75,"ADDRESS":"中山南路４９０巷２弄１２號五樓之２","OBJECTID":70842},"geometry":{"x":172050.5,"y":2546400.7500000019}},{"attributes":{"ID":70843,"DIS_CODE":0,"TOWNNAME":"永康區","LI":"二王里","LIN":"33鄰","STREET":"中山南路","SECT":" ","MAREA":" ","LANE":"４９０巷","ALLEY":"２弄","HOUSE_NO":"８號六樓之１","E_COORD97":172057.92999999999,"N_COORD97":2546410.6000000001,"ADDRESS":"中山南路４９０巷２弄８號六樓之１","OBJECTID":70843},"geometry":{"x":172057.9299999997,"y":2546410.6000000015}},{"attributes":{"ID":70844,"DIS_CODE":0,"TOWNNAME":"白河區","LI":"大竹里","LIN":"6鄰","STREET":" ","SECT":" ","MAREA":"大排竹","LANE":" ","ALLEY":" ","HOUSE_NO":"１０１之４２號","E_COORD97":189614.23999999999,"N_COORD97":2585381.3300000001,"ADDRESS":"大排竹１０１之４２號","OBJECTID":70844},"geometry":{"x":189614.24000000115,"y":2585381.3300000038}},{"attributes":{"ID":70845,"DIS_CODE":0,"TOWNNAME":"白河區","LI":"大竹里","LIN":"6鄰","STREET":" ","SECT":" ","MAREA":"大排竹","LANE":" ","ALLEY":" ","HOUSE_NO":"１０１之４３號","E_COORD97":189613.32999999999,"N_COORD97":2585376.48,"ADDRESS":"大排竹１０１之４３號","OBJECTID":70845},"geometry":{"x":189613.33000000101,"y":2585376.4800000004}},{"attributes":{"ID":70846,"DIS_CODE":0,"TOWNNAME":"永康區","LI":"二王里","LIN":"33鄰","STREET":"中山南路","SECT":" ","MAREA":" ","LANE":"４９０巷","ALLEY":"２弄","HOUSE_NO":"６號六樓之１","E_COORD97":172073.09,"N_COORD97":2546425.52,"ADDRESS":"中山南路４９０巷２弄６號六樓之１","OBJECTID":70846},"geometry":{"x":172073.09000000078,"y":2546425.5200000014}},{"attributes":{"ID":70847,"DIS_CODE":0,"TOWNNAME":"永康區","LI":"二王里","LIN":"33鄰","STREET":"中山南路","SECT":" ","MAREA":" ","LANE":"４９０巷","ALLEY":"２弄","HOUSE_NO":"１２號七樓之１","E_COORD97":172050.37,"N_COORD97":2546400.75,"ADDRESS":"中山南路４９０巷２弄１２號七樓之１","OBJECTID":70847},"geometry":{"x":172050.37000000011,"y":2546400.7500000019}},{"attributes":{"ID":70848,"DIS_CODE":0,"TOWNNAME":"永康區","LI":"二王里","LIN":"33鄰","STREET":"中山南路","SECT":" ","MAREA":" ","LANE":"４９０巷","ALLEY":"２弄","HOUSE_NO":"１２號三樓之２","E_COORD97":172050.5,"N_COORD97":2546400.75,"ADDRESS":"中山南路４９０巷２弄１２號三樓之２","OBJECTID":70848},"geometry":{"x":172050.5,"y":2546400.7500000019}},{"attributes":{"ID":70849,"DIS_CODE":0,"TOWNNAME":"永康區","LI":"二王里","LIN":"33鄰","STREET":"中山南路","SECT":" ","MAREA":" ","LANE":"４９０巷","ALLEY":"２弄","HOUSE_NO":"６號三樓之２","E_COORD97":172073.22,"N_COORD97":2546425.52,"ADDRESS":"中山南路４９０巷２弄６號三樓之２","OBJECTID":70849},"geometry":{"x":172073.2200000016,"y":2546425.5200000014}},{"attributes":{"ID":70850,"DIS_CODE":0,"TOWNNAME":"永康區","LI":"二王里","LIN":"33鄰","STREET":"中山南路","SECT":" ","MAREA":" ","LANE":"４９０巷","ALLEY":"２弄","HOUSE_NO":"８號六樓之２","E_COORD97":172058.06,"N_COORD97":2546410.6000000001,"ADDRESS":"中山南路４９０巷２弄８號六樓之２","OBJECTID":70850},"geometry":{"x":172058.05999999959,"y":2546410.6000000015}},{"attributes":{"ID":70851,"DIS_CODE":0,"TOWNNAME":"永康區","LI":"二王里","LIN":"33鄰","STREET":"中山南路","SECT":" ","MAREA":" ","LANE":"４９０巷","ALLEY":"２弄","HOUSE_NO":"６號四樓之２","E_COORD97":172073.22,"N_COORD97":2546425.52,"ADDRESS":"中山南路４９０巷２弄６號四樓之２","OBJECTID":70851},"geometry":{"x":172073.2200000016,"y":2546425.5200000014}},{"attributes":{"ID":70852,"DIS_CODE":0,"TOWNNAME":"永康區","LI":"二王里","LIN":"33鄰","STREET":"中山南路","SECT":" ","MAREA":" ","LANE":"４９０巷","ALLEY":"２弄","HOUSE_NO":"８號四樓之１","E_COORD97":172057.92999999999,"N_COORD97":2546410.6000000001,"ADDRESS":"中山南路４９０巷２弄８號四樓之１","OBJECTID":70852},"geometry":{"x":172057.9299999997,"y":2546410.6000000015}},{"attributes":{"ID":70853,"DIS_CODE":0,"TOWNNAME":"永康區","LI":"二王里","LIN":"33鄰","STREET":"中山南路","SECT":" ","MAREA":" ","LANE":"４９０巷","ALLEY":"２弄","HOUSE_NO":"６號四樓之１","E_COORD97":172073.09,"N_COORD97":2546425.52,"ADDRESS":"中山南路４９０巷２弄６號四樓之１","OBJECTID":70853},"geometry":{"x":172073.09000000078,"y":2546425.5200000014}},{"attributes":{"ID":70854,"DIS_CODE":0,"TOWNNAME":"永康區","LI":"二王里","LIN":"33鄰","STREET":"中山南路","SECT":" ","MAREA":" ","LANE":"４９０巷","ALLEY":"２弄","HOUSE_NO":"８號五樓之２","E_COORD97":172058.06,"N_COORD97":2546410.6000000001,"ADDRESS":"中山南路４９０巷２弄８號五樓之２","OBJECTID":70854},"geometry":{"x":172058.05999999959,"y":2546410.6000000015}},{"attributes":{"ID":70855,"DIS_CODE":0,"TOWNNAME":"永康區","LI":"二王里","LIN":"33鄰","STREET":"中山南路","SECT":" ","MAREA":" ","LANE":"４９０巷","ALLEY":"２弄","HOUSE_NO":"６號五樓之２","E_COORD97":172073.22,"N_COORD97":2546425.52,"ADDRESS":"中山南路４９０巷２弄６號五樓之２","OBJECTID":70855},"geometry":{"x":172073.2200000016,"y":2546425.5200000014}},{"attributes":{"ID":70856,"DIS_CODE":0,"TOWNNAME":"永康區","LI":"二王里","LIN":"33鄰","STREET":"中山南路","SECT":" ","MAREA":" ","LANE":"４９０巷","ALLEY":"２弄","HOUSE_NO":"１２號四樓之２","E_COORD97":172050.5,"N_COORD97":2546400.75,"ADDRESS":"中山南路４９０巷２弄１２號四樓之２","OBJECTID":70856},"geometry":{"x":172050.5,"y":2546400.7500000019}},{"attributes":{"ID":70857,"DIS_CODE":0,"TOWNNAME":"永康區","LI":"二王里","LIN":"33鄰","STREET":"中山南路","SECT":" ","MAREA":" ","LANE":"４９０巷","ALLEY":"２弄","HOUSE_NO":"１２號六樓之２","E_COORD97":172050.5,"N_COORD97":2546400.75,"ADDRESS":"中山南路４９０巷２弄１２號六樓之２","OBJECTID":70857},"geometry":{"x":172050.5,"y":2546400.7500000019}},{"attributes":{"ID":70858,"DIS_CODE":0,"TOWNNAME":"永康區","LI":"二王里","LIN":"33鄰","STREET":"中山南路","SECT":" ","MAREA":" ","LANE":"４９０巷","ALLEY":"２弄","HOUSE_NO":"６號三樓之３","E_COORD97":172073.19,"N_COORD97":2546425.52,"ADDRESS":"中山南路４９０巷２弄６號三樓之３","OBJECTID":70858},"geometry":{"x":172073.19000000134,"y":2546425.5200000014}},{"attributes":{"ID":70859,"DIS_CODE":0,"TOWNNAME":"永康區","LI":"二王里","LIN":"33鄰","STREET":"中山南路","SECT":" ","MAREA":" ","LANE":"４９０巷","ALLEY":"２弄","HOUSE_NO":"１２號九樓之２","E_COORD97":172050.5,"N_COORD97":2546400.75,"ADDRESS":"中山南路４９０巷２弄１２號九樓之２","OBJECTID":70859},"geometry":{"x":172050.5,"y":2546400.7500000019}},{"attributes":{"ID":70860,"DIS_CODE":0,"TOWNNAME":"永康區","LI":"二王里","LIN":"33鄰","STREET":"中山南路","SECT":" ","MAREA":" ","LANE":"４９０巷","ALLEY":"２弄","HOUSE_NO":"８號七樓之１","E_COORD97":172057.92999999999,"N_COORD97":2546410.6000000001,"ADDRESS":"中山南路４９０巷２弄８號七樓之１","OBJECTID":70860},"geometry":{"x":172057.9299999997,"y":2546410.6000000015}},{"attributes":{"ID":70861,"DIS_CODE":0,"TOWNNAME":"仁德區","LI":"後壁里","LIN":"33鄰","STREET":"德洋二街","SECT":" ","MAREA":" ","LANE":"３９巷","ALLEY":"１６弄","HOUSE_NO":"１０之６號","E_COORD97":172300.48999999999,"N_COORD97":2539524.7599999998,"ADDRESS":"德洋二街３９巷１６弄１０之６號","OBJECTID":70861},"geometry":{"x":172300.49000000022,"y":2539524.7600000016}},{"attributes":{"ID":70862,"DIS_CODE":0,"TOWNNAME":"新市區","LI":"新和里","LIN":"33鄰","STREET":"忠孝街","SECT":" ","MAREA":" ","LANE":"２０１巷","ALLEY":"２弄","HOUSE_NO":"１３號","E_COORD97":177673.34,"N_COORD97":2552884.75,"ADDRESS":"忠孝街２０１巷２弄１３號","OBJECTID":70862},"geometry":{"x":177673.34000000171,"y":2552884.7499999981}},{"attributes":{"ID":70863,"DIS_CODE":0,"TOWNNAME":"仁德區","LI":"仁義里","LIN":"38鄰","STREET":"仁義五街","SECT":" ","MAREA":" ","LANE":"２４巷","ALLEY":"２弄","HOUSE_NO":"１９號","E_COORD97":173511.20999999999,"N_COORD97":2540378.3300000001,"ADDRESS":"仁義五街２４巷２弄１９號","OBJECTID":70863},"geometry":{"x":173511.21000000089,"y":2540378.3300000019}},{"attributes":{"ID":70864,"DIS_CODE":0,"TOWNNAME":"仁德區","LI":"後壁里","LIN":"33鄰","STREET":"德洋二街","SECT":" ","MAREA":" ","LANE":"３９巷","ALLEY":"１６弄","HOUSE_NO":"１０之１４號","E_COORD97":172271.41,"N_COORD97":2539510.27,"ADDRESS":"德洋二街３９巷１６弄１０之１４號","OBJECTID":70864},"geometry":{"x":172271.41000000108,"y":2539510.2700000014}},{"attributes":{"ID":70865,"DIS_CODE":0,"TOWNNAME":"白河區","LI":"大竹里","LIN":"6鄰","STREET":" ","SECT":" ","MAREA":"大排竹","LANE":" ","ALLEY":" ","HOUSE_NO":"１０１之４５號","E_COORD97":189612.42999999999,"N_COORD97":2585371.6200000001,"ADDRESS":"大排竹１０１之４５號","OBJECTID":70865},"geometry":{"x":189612.43000000063,"y":2585371.6200000029}},{"attributes":{"ID":70866,"DIS_CODE":0,"TOWNNAME":"仁德區","LI":"後壁里","LIN":"33鄰","STREET":"德洋二街","SECT":" ","MAREA":" ","LANE":"３９巷","ALLEY":"１６弄","HOUSE_NO":"１０之１７號","E_COORD97":172278.26000000001,"N_COORD97":2539488.5499999998,"ADDRESS":"德洋二街３９巷１６弄１０之１７號","OBJECTID":70866},"geometry":{"x":172278.26000000071,"y":2539488.5500000045}},{"attributes":{"ID":70867,"DIS_CODE":0,"TOWNNAME":"白河區","LI":"大竹里","LIN":"6鄰","STREET":" ","SECT":" ","MAREA":"大排竹","LANE":" ","ALLEY":" ","HOUSE_NO":"１０１之４６號","E_COORD97":189611.51999999999,"N_COORD97":2585366.77,"ADDRESS":"大排竹１０１之４６號","OBJECTID":70867},"geometry":{"x":189611.52000000048,"y":2585366.7699999996}},{"attributes":{"ID":70868,"DIS_CODE":0,"TOWNNAME":"白河區","LI":"大竹里","LIN":"6鄰","STREET":" ","SECT":" ","MAREA":"大排竹","LANE":" ","ALLEY":" ","HOUSE_NO":"１０１之４７號","E_COORD97":189610.60999999999,"N_COORD97":2585361.9100000001,"ADDRESS":"大排竹１０１之４７號","OBJECTID":70868},"geometry":{"x":189610.61000000034,"y":2585361.910000002}},{"attributes":{"ID":70869,"DIS_CODE":0,"TOWNNAME":"白河區","LI":"大竹里","LIN":"6鄰","STREET":" ","SECT":" ","MAREA":"大排竹","LANE":" ","ALLEY":" ","HOUSE_NO":"１０１之４８號","E_COORD97":189609.70999999999,"N_COORD97":2585357.0600000001,"ADDRESS":"大排竹１０１之４８號","OBJECTID":70869},"geometry":{"x":189609.70999999996,"y":2585357.0600000024}},{"attributes":{"ID":70870,"DIS_CODE":0,"TOWNNAME":"白河區","LI":"大竹里","LIN":"6鄰","STREET":" ","SECT":" ","MAREA":"大排竹","LANE":" ","ALLEY":" ","HOUSE_NO":"１０１之８０號","E_COORD97":189287.82999999999,"N_COORD97":2585280.7999999998,"ADDRESS":"大排竹１０１之８０號","OBJECTID":70870},"geometry":{"x":189287.83000000101,"y":2585280.8000000026}},{"attributes":{"ID":70871,"DIS_CODE":0,"TOWNNAME":"仁德區","LI":"後壁里","LIN":"33鄰","STREET":"德洋二街","SECT":" ","MAREA":" ","LANE":"３９巷","ALLEY":"７弄","HOUSE_NO":"１２號","E_COORD97":172353.44,"N_COORD97":2539395.77,"ADDRESS":"德洋二街３９巷７弄１２號","OBJECTID":70871},"geometry":{"x":172353.44000000041,"y":2539395.7700000014}},{"attributes":{"ID":70872,"DIS_CODE":0,"TOWNNAME":"白河區","LI":"大竹里","LIN":"6鄰","STREET":" ","SECT":" ","MAREA":"大排竹","LANE":" ","ALLEY":" ","HOUSE_NO":"１０１號","E_COORD97":189615.92000000001,"N_COORD97":2585311.1099999999,"ADDRESS":"大排竹１０１號","OBJECTID":70872},"geometry":{"x":189615.92000000086,"y":2585311.1100000031}},{"attributes":{"ID":70873,"DIS_CODE":0,"TOWNNAME":"白河區","LI":"大竹里","LIN":"6鄰","STREET":" ","SECT":" ","MAREA":"大排竹","LANE":" ","ALLEY":" ","HOUSE_NO":"９２號","E_COORD97":189727.79999999999,"N_COORD97":2585315.4500000002,"ADDRESS":"大排竹９２號","OBJECTID":70873},"geometry":{"x":189727.79999999981,"y":2585315.450000003}},{"attributes":{"ID":70874,"DIS_CODE":0,"TOWNNAME":"白河區","LI":"大竹里","LIN":"6鄰","STREET":" ","SECT":" ","MAREA":"大排竹","LANE":" ","ALLEY":" ","HOUSE_NO":"９３號","E_COORD97":189732.39000000001,"N_COORD97":2585298.3900000001,"ADDRESS":"大排竹９３號","OBJECTID":70874},"geometry":{"x":189732.39000000153,"y":2585298.3900000025}},{"attributes":{"ID":70875,"DIS_CODE":0,"TOWNNAME":"永康區","LI":"勝利里","LIN":"33鄰","STREET":"中華路","SECT":" ","MAREA":" ","LANE":"７巷","ALLEY":"２０弄","HOUSE_NO":"４２號","E_COORD97":171509.85000000001,"N_COORD97":2544457.75,"ADDRESS":"中華路７巷２０弄４２號","OBJECTID":70875},"geometry":{"x":171509.85000000056,"y":2544457.7500000019}},{"attributes":{"ID":70876,"DIS_CODE":0,"TOWNNAME":"永康區","LI":"勝利里","LIN":"33鄰","STREET":"中華路","SECT":" ","MAREA":" ","LANE":"７巷","ALLEY":"２０弄","HOUSE_NO":"１９號","E_COORD97":171493.51999999999,"N_COORD97":2544447.48,"ADDRESS":"中華路７巷２０弄１９號","OBJECTID":70876},"geometry":{"x":171493.52000000048,"y":2544447.4800000004}},{"attributes":{"ID":70877,"DIS_CODE":0,"TOWNNAME":"永康區","LI":"勝利里","LIN":"33鄰","STREET":"中華路","SECT":" ","MAREA":" ","LANE":"７巷","ALLEY":"２０弄","HOUSE_NO":"９號","E_COORD97":171488.89999999999,"N_COORD97":2544427.4700000002,"ADDRESS":"中華路７巷２０弄９號","OBJECTID":70877},"geometry":{"x":171488.90000000037,"y":2544427.4700000007}},{"attributes":{"ID":70878,"DIS_CODE":0,"TOWNNAME":"永康區","LI":"勝利里","LIN":"33鄰","STREET":"中華路","SECT":" ","MAREA":" ","LANE":"７巷","ALLEY":"２０弄","HOUSE_NO":"１１號","E_COORD97":171491.04000000001,"N_COORD97":2544431.4700000002,"ADDRESS":"中華路７巷２０弄１１號","OBJECTID":70878},"geometry":{"x":171491.04000000004,"y":2544431.4700000007}},{"attributes":{"ID":70879,"DIS_CODE":0,"TOWNNAME":"安南區","LI":"安富里","LIN":"33鄰","STREET":"府安路","SECT":"五段","MAREA":" ","LANE":"１５７巷","ALLEY":"２２弄","HOUSE_NO":"１１號","E_COORD97":167817.32000000001,"N_COORD97":2547161.8599999999,"ADDRESS":"府安路五段１５７巷２２弄１１號","OBJECTID":70879},"geometry":{"x":167817.3200000003,"y":2547161.8600000013}},{"attributes":{"ID":70880,"DIS_CODE":0,"TOWNNAME":"安南區","LI":"安富里","LIN":"33鄰","STREET":"府安路","SECT":"五段","MAREA":" ","LANE":"１５７巷","ALLEY":"２２弄","HOUSE_NO":"１３號","E_COORD97":167815.94,"N_COORD97":2547167.3599999999,"ADDRESS":"府安路五段１５７巷２２弄１３號","OBJECTID":70880},"geometry":{"x":167815.94000000134,"y":2547167.3600000031}},{"attributes":{"ID":70881,"DIS_CODE":0,"TOWNNAME":"安南區","LI":"安富里","LIN":"33鄰","STREET":"府安路","SECT":"五段","MAREA":" ","LANE":"１５７巷","ALLEY":"２２弄","HOUSE_NO":"１７號","E_COORD97":167814.56,"N_COORD97":2547176.6400000001,"ADDRESS":"府安路五段１５７巷２２弄１７號","OBJECTID":70881},"geometry":{"x":167814.56000000052,"y":2547176.6400000006}},{"attributes":{"ID":70882,"DIS_CODE":0,"TOWNNAME":"安南區","LI":"安富里","LIN":"33鄰","STREET":"府安路","SECT":"五段","MAREA":" ","LANE":"１５７巷","ALLEY":"２２弄","HOUSE_NO":"１８號","E_COORD97":167849.39999999999,"N_COORD97":2547135.02,"ADDRESS":"府安路五段１５７巷２２弄１８號","OBJECTID":70882},"geometry":{"x":167849.40000000037,"y":2547135.0199999996}},{"attributes":{"ID":70883,"DIS_CODE":0,"TOWNNAME":"安南區","LI":"安富里","LIN":"33鄰","STREET":"府安路","SECT":"五段","MAREA":" ","LANE":"１５７巷","ALLEY":"２２弄","HOUSE_NO":"１９號","E_COORD97":167813.19,"N_COORD97":2547181.7999999998,"ADDRESS":"府安路五段１５７巷２２弄１９號","OBJECTID":70883},"geometry":{"x":167813.19000000134,"y":2547181.8000000007}},{"attributes":{"ID":70884,"DIS_CODE":0,"TOWNNAME":"安南區","LI":"安富里","LIN":"33鄰","STREET":"府安路","SECT":"五段","MAREA":" ","LANE":"１５７巷","ALLEY":"２２弄","HOUSE_NO":"１號","E_COORD97":167821.45000000001,"N_COORD97":2547139.8599999999,"ADDRESS":"府安路五段１５７巷２２弄１號","OBJECTID":70884},"geometry":{"x":167821.45000000019,"y":2547139.8599999994}},{"attributes":{"ID":70885,"DIS_CODE":0,"TOWNNAME":"安南區","LI":"安富里","LIN":"33鄰","STREET":"府安路","SECT":"五段","MAREA":" ","LANE":"１５７巷","ALLEY":"２２弄","HOUSE_NO":"２１號","E_COORD97":167812.5,"N_COORD97":2547186.27,"ADDRESS":"府安路五段１５７巷２２弄２１號","OBJECTID":70885},"geometry":{"x":167812.5,"y":2547186.2700000014}},{"attributes":{"ID":70886,"DIS_CODE":0,"TOWNNAME":"白河區","LI":"大竹里","LIN":"6鄰","STREET":" ","SECT":" ","MAREA":"大排竹","LANE":" ","ALLEY":" ","HOUSE_NO":"９４號","E_COORD97":189740.75,"N_COORD97":2585283.7400000002,"ADDRESS":"大排竹９４號","OBJECTID":70886},"geometry":{"x":189740.75000000093,"y":2585283.7400000039}},{"attributes":{"ID":70887,"DIS_CODE":0,"TOWNNAME":"白河區","LI":"大竹里","LIN":"6鄰","STREET":" ","SECT":" ","MAREA":"大排竹","LANE":" ","ALLEY":" ","HOUSE_NO":"９５號","E_COORD97":189717.81,"N_COORD97":2585278.25,"ADDRESS":"大排竹９５號","OBJECTID":70887},"geometry":{"x":189717.81000000052,"y":2585278.2500000019}},{"attributes":{"ID":70888,"DIS_CODE":0,"TOWNNAME":"白河區","LI":"大竹里","LIN":"6鄰","STREET":" ","SECT":" ","MAREA":"大排竹","LANE":" ","ALLEY":" ","HOUSE_NO":"９６號","E_COORD97":189702.91,"N_COORD97":2585285.6099999999,"ADDRESS":"大排竹９６號","OBJECTID":70888},"geometry":{"x":189702.91000000108,"y":2585285.6099999994}},{"attributes":{"ID":70889,"DIS_CODE":0,"TOWNNAME":"白河區","LI":"大竹里","LIN":"6鄰","STREET":" ","SECT":" ","MAREA":"大排竹","LANE":" ","ALLEY":" ","HOUSE_NO":"９７號","E_COORD97":189688.79999999999,"N_COORD97":2585272.8599999999,"ADDRESS":"大排竹９７號","OBJECTID":70889},"geometry":{"x":189688.79999999981,"y":2585272.8600000013}},{"attributes":{"ID":70890,"DIS_CODE":0,"TOWNNAME":"白河區","LI":"大竹里","LIN":"6鄰","STREET":" ","SECT":" ","MAREA":"大排竹","LANE":" ","ALLEY":" ","HOUSE_NO":"９８號","E_COORD97":189681.78,"N_COORD97":2585288.5600000001,"ADDRESS":"大排竹９８號","OBJECTID":70890},"geometry":{"x":189681.78000000119,"y":2585288.5600000042}},{"attributes":{"ID":70891,"DIS_CODE":0,"TOWNNAME":"安南區","LI":"安富里","LIN":"33鄰","STREET":"府安路","SECT":"五段","MAREA":" ","LANE":"１５７巷","ALLEY":"２２弄","HOUSE_NO":"２２號","E_COORD97":167849.04999999999,"N_COORD97":2547144.6400000001,"ADDRESS":"府安路五段１５７巷２２弄２２號","OBJECTID":70891},"geometry":{"x":167849.05000000075,"y":2547144.6400000025}},{"attributes":{"ID":70892,"DIS_CODE":0,"TOWNNAME":"安南區","LI":"安富里","LIN":"33鄰","STREET":"府安路","SECT":"五段","MAREA":" ","LANE":"１５７巷","ALLEY":"２２弄","HOUSE_NO":"２３號","E_COORD97":167810.42999999999,"N_COORD97":2547190.3999999999,"ADDRESS":"府安路五段１５７巷２２弄２３號","OBJECTID":70892},"geometry":{"x":167810.43000000063,"y":2547190.4000000004}},{"attributes":{"ID":70893,"DIS_CODE":0,"TOWNNAME":"安南區","LI":"安富里","LIN":"33鄰","STREET":"府安路","SECT":"五段","MAREA":" ","LANE":"１５７巷","ALLEY":"２２弄","HOUSE_NO":"２４號","E_COORD97":167848.01999999999,"N_COORD97":2547149.7999999998,"ADDRESS":"府安路五段１５７巷２２弄２４號","OBJECTID":70893},"geometry":{"x":167848.01999999955,"y":2547149.8000000026}},{"attributes":{"ID":70894,"DIS_CODE":0,"TOWNNAME":"安南區","LI":"安富里","LIN":"33鄰","STREET":"府安路","SECT":"五段","MAREA":" ","LANE":"１５７巷","ALLEY":"２２弄","HOUSE_NO":"２５號","E_COORD97":167808.70999999999,"N_COORD97":2547194.8700000001,"ADDRESS":"府安路五段１５７巷２２弄２５號","OBJECTID":70894},"geometry":{"x":167808.71000000089,"y":2547194.870000001}},{"attributes":{"ID":70895,"DIS_CODE":0,"TOWNNAME":"安南區","LI":"安富里","LIN":"33鄰","STREET":"府安路","SECT":"五段","MAREA":" ","LANE":"１５７巷","ALLEY":"２２弄","HOUSE_NO":"２６號","E_COORD97":167846.98999999999,"N_COORD97":2547154.6099999999,"ADDRESS":"府安路五段１５７巷２２弄２６號","OBJECTID":70895},"geometry":{"x":167846.99000000022,"y":2547154.6099999994}},{"attributes":{"ID":70896,"DIS_CODE":0,"TOWNNAME":"安南區","LI":"安富里","LIN":"33鄰","STREET":"府安路","SECT":"五段","MAREA":" ","LANE":"１５７巷","ALLEY":"２２弄","HOUSE_NO":"２７號","E_COORD97":167808.01999999999,"N_COORD97":2547199.9500000002,"ADDRESS":"府安路五段１５７巷２２弄２７號","OBJECTID":70896},"geometry":{"x":167808.02000000048,"y":2547199.9499999993}},{"attributes":{"ID":70897,"DIS_CODE":0,"TOWNNAME":"安南區","LI":"安富里","LIN":"33鄰","STREET":"府安路","SECT":"五段","MAREA":" ","LANE":"１５７巷","ALLEY":"２２弄","HOUSE_NO":"２８號","E_COORD97":167845.26999999999,"N_COORD97":2547158.3999999999,"ADDRESS":"府安路五段１５７巷２２弄２８號","OBJECTID":70897},"geometry":{"x":167845.27000000048,"y":2547158.4000000022}},{"attributes":{"ID":70898,"DIS_CODE":0,"TOWNNAME":"白河區","LI":"大竹里","LIN":"6鄰","STREET":" ","SECT":" ","MAREA":"大排竹","LANE":" ","ALLEY":" ","HOUSE_NO":"９９之１０號","E_COORD97":189655.19,"N_COORD97":2585334.04,"ADDRESS":"大排竹９９之１０號","OBJECTID":70898},"geometry":{"x":189655.19000000134,"y":2585334.0399999991}},{"attributes":{"ID":70899,"DIS_CODE":0,"TOWNNAME":"安南區","LI":"安富里","LIN":"33鄰","STREET":"府安路","SECT":"五段","MAREA":" ","LANE":"１５７巷","ALLEY":"２２弄","HOUSE_NO":"２９號","E_COORD97":167808.01999999999,"N_COORD97":2547203.73,"ADDRESS":"府安路五段１５７巷２２弄２９號","OBJECTID":70899},"geometry":{"x":167808.02000000048,"y":2547203.7300000023}},{"attributes":{"ID":70900,"DIS_CODE":0,"TOWNNAME":"白河區","LI":"大竹里","LIN":"6鄰","STREET":" ","SECT":" ","MAREA":"大排竹","LANE":" ","ALLEY":" ","HOUSE_NO":"９９之１２號","E_COORD97":189663.57000000001,"N_COORD97":2585334.25,"ADDRESS":"大排竹９９之１２號","OBJECTID":70900},"geometry":{"x":189663.5700000003,"y":2585334.2500000037}},{"attributes":{"ID":70901,"DIS_CODE":0,"TOWNNAME":"安南區","LI":"安富里","LIN":"33鄰","STREET":"府安路","SECT":"五段","MAREA":" ","LANE":"１５７巷","ALLEY":"２２弄","HOUSE_NO":"３０號","E_COORD97":167843.89000000001,"N_COORD97":2547162.1800000002,"ADDRESS":"府安路五段１５７巷２２弄３０號","OBJECTID":70901},"geometry":{"x":167843.88999999966,"y":2547162.1800000034}},{"attributes":{"ID":70902,"DIS_CODE":0,"TOWNNAME":"後壁區","LI":"福安里","LIN":"6鄰","STREET":" ","SECT":" ","MAREA":"下寮","LANE":" ","ALLEY":" ","HOUSE_NO":"６３號","E_COORD97":184325.47,"N_COORD97":2580915.1899999999,"ADDRESS":"下寮６３號","OBJECTID":70902},"geometry":{"x":184325.46999999974,"y":2580915.1899999995}},{"attributes":{"ID":70903,"DIS_CODE":0,"TOWNNAME":"後壁區","LI":"福安里","LIN":"6鄰","STREET":" ","SECT":" ","MAREA":"下寮","LANE":" ","ALLEY":" ","HOUSE_NO":"５４號","E_COORD97":184401.62,"N_COORD97":2580828.8100000001,"ADDRESS":"下寮５４號","OBJECTID":70903},"geometry":{"x":184401.62000000197,"y":2580828.8100000042}},{"attributes":{"ID":70904,"DIS_CODE":0,"TOWNNAME":"後壁區","LI":"福安里","LIN":"6鄰","STREET":" ","SECT":" ","MAREA":"下寮","LANE":" ","ALLEY":" ","HOUSE_NO":"５８號之５","E_COORD97":184353.69,"N_COORD97":2580910.48,"ADDRESS":"下寮５８號之５","OBJECTID":70904},"geometry":{"x":184353.69000000041,"y":2580910.4800000023}},{"attributes":{"ID":70905,"DIS_CODE":0,"TOWNNAME":"後壁區","LI":"福安里","LIN":"6鄰","STREET":" ","SECT":" ","MAREA":"下寮","LANE":" ","ALLEY":" ","HOUSE_NO":"５８號","E_COORD97":184361.32999999999,"N_COORD97":2580891.6800000002,"ADDRESS":"下寮５８號","OBJECTID":70905},"geometry":{"x":184361.33000000194,"y":2580891.6799999997}},{"attributes":{"ID":70906,"DIS_CODE":0,"TOWNNAME":"後壁區","LI":"嘉苳里","LIN":"6鄰","STREET":" ","SECT":" ","MAREA":"下茄苳","LANE":" ","ALLEY":" ","HOUSE_NO":"６７號之１０３","E_COORD97":185093.73000000001,"N_COORD97":2584208.5299999998,"ADDRESS":"下茄苳６７號之１０３","OBJECTID":70906},"geometry":{"x":185093.73000000138,"y":2584208.5299999993}},{"attributes":{"ID":70907,"DIS_CODE":0,"TOWNNAME":"後壁區","LI":"嘉苳里","LIN":"6鄰","STREET":" ","SECT":" ","MAREA":"下茄苳","LANE":" ","ALLEY":" ","HOUSE_NO":"６７號之１","E_COORD97":184967.78,"N_COORD97":2583381.4100000001,"ADDRESS":"下茄苳６７號之１","OBJECTID":70907},"geometry":{"x":184967.78000000026,"y":2583381.410000002}},{"attributes":{"ID":70908,"DIS_CODE":0,"TOWNNAME":"中西區","LI":"藥王里","LIN":"7鄰","STREET":"大新街","SECT":" ","MAREA":" ","LANE":" ","ALLEY":" ","HOUSE_NO":"２４號","E_COORD97":167157.34,"N_COORD97":2544358.23,"ADDRESS":"大新街２４號","OBJECTID":70908},"geometry":{"x":167157.33999999985,"y":2544358.2300000004}},{"attributes":{"ID":70909,"DIS_CODE":0,"TOWNNAME":"後壁區","LI":"嘉苳里","LIN":"6鄰","STREET":" ","SECT":" ","MAREA":"下茄苳","LANE":" ","ALLEY":" ","HOUSE_NO":"６７號之３２","E_COORD97":185067.41,"N_COORD97":2583484.5899999999,"ADDRESS":"下茄苳６７號之３２","OBJECTID":70909},"geometry":{"x":185067.41000000015,"y":2583484.5900000017}},{"attributes":{"ID":70910,"DIS_CODE":0,"TOWNNAME":"中西區","LI":"藥王里","LIN":"7鄰","STREET":"大新街","SECT":" ","MAREA":" ","LANE":" ","ALLEY":" ","HOUSE_NO":"２６號","E_COORD97":167159.26999999999,"N_COORD97":2544362.0699999998,"ADDRESS":"大新街２６號","OBJECTID":70910},"geometry":{"x":167159.26999999955,"y":2544362.0700000003}},{"attributes":{"ID":70911,"DIS_CODE":0,"TOWNNAME":"後壁區","LI":"嘉苳里","LIN":"6鄰","STREET":" ","SECT":" ","MAREA":"下茄苳","LANE":" ","ALLEY":" ","HOUSE_NO":"６７號之３附１","E_COORD97":184968.32999999999,"N_COORD97":2583411.02,"ADDRESS":"下茄苳６７號之３附１","OBJECTID":70911},"geometry":{"x":184968.33000000101,"y":2583411.0200000014}},{"attributes":{"ID":70912,"DIS_CODE":0,"TOWNNAME":"後壁區","LI":"嘉苳里","LIN":"6鄰","STREET":" ","SECT":" ","MAREA":"下茄苳","LANE":" ","ALLEY":" ","HOUSE_NO":"６７號之５","E_COORD97":184996.28,"N_COORD97":2583393.1299999999,"ADDRESS":"下茄苳６７號之５","OBJECTID":70912},"geometry":{"x":184996.28000000119,"y":2583393.129999999}},{"attributes":{"ID":70913,"DIS_CODE":0,"TOWNNAME":"中西區","LI":"藥王里","LIN":"7鄰","STREET":"大新街","SECT":" ","MAREA":" ","LANE":" ","ALLEY":" ","HOUSE_NO":"３０號","E_COORD97":167163.38,"N_COORD97":2544371.1299999999,"ADDRESS":"大新街３０號","OBJECTID":70913},"geometry":{"x":167163.38000000082,"y":2544371.129999999}},{"attributes":{"ID":70914,"DIS_CODE":0,"TOWNNAME":"後壁區","LI":"嘉苳里","LIN":"6鄰","STREET":" ","SECT":" ","MAREA":"下茄苳","LANE":" ","ALLEY":" ","HOUSE_NO":"６７號之６","E_COORD97":185018.53,"N_COORD97":2583393.1400000001,"ADDRESS":"下茄苳６７號之６","OBJECTID":70914},"geometry":{"x":185018.53000000119,"y":2583393.1400000043}},{"attributes":{"ID":70915,"DIS_CODE":0,"TOWNNAME":"中西區","LI":"藥王里","LIN":"7鄰","STREET":"大新街","SECT":" ","MAREA":" ","LANE":" ","ALLEY":" ","HOUSE_NO":"３２號","E_COORD97":167165.31,"N_COORD97":2544375.5099999998,"ADDRESS":"大新街３２號","OBJECTID":70915},"geometry":{"x":167165.31000000052,"y":2544375.5099999998}},{"attributes":{"ID":70916,"DIS_CODE":0,"TOWNNAME":"中西區","LI":"藥王里","LIN":"7鄰","STREET":"大新街","SECT":" ","MAREA":" ","LANE":" ","ALLEY":" ","HOUSE_NO":"３４號","E_COORD97":167166.67999999999,"N_COORD97":2544380.1800000002,"ADDRESS":"大新街３４號","OBJECTID":70916},"geometry":{"x":167166.68000000063,"y":2544380.1800000016}},{"attributes":{"ID":70917,"DIS_CODE":0,"TOWNNAME":"安南區","LI":"安富里","LIN":"33鄰","STREET":"府安路","SECT":"五段","MAREA":" ","LANE":"１５７巷","ALLEY":"２２弄","HOUSE_NO":"３１號","E_COORD97":167806.64000000001,"N_COORD97":2547209.23,"ADDRESS":"府安路五段１５７巷２２弄３１號","OBJECTID":70917},"geometry":{"x":167806.63999999966,"y":2547209.2300000004}},{"attributes":{"ID":70918,"DIS_CODE":0,"TOWNNAME":"安南區","LI":"安富里","LIN":"33鄰","STREET":"府安路","SECT":"五段","MAREA":" ","LANE":"１５７巷","ALLEY":"２２弄","HOUSE_NO":"３３號","E_COORD97":167805.60999999999,"N_COORD97":2547213.7000000002,"ADDRESS":"府安路五段１５７巷２２弄３３號","OBJECTID":70918},"geometry":{"x":167805.61000000034,"y":2547213.7000000011}},{"attributes":{"ID":70919,"DIS_CODE":0,"TOWNNAME":"後壁區","LI":"嘉苳里","LIN":"6鄰","STREET":" ","SECT":" ","MAREA":"下茄苳","LANE":" ","ALLEY":" ","HOUSE_NO":"６８號之５","E_COORD97":184961.92999999999,"N_COORD97":2583349.75,"ADDRESS":"下茄苳６８號之５","OBJECTID":70919},"geometry":{"x":184961.93000000156,"y":2583349.75}},{"attributes":{"ID":70920,"DIS_CODE":0,"TOWNNAME":"後壁區","LI":"嘉苳里","LIN":"6鄰","STREET":" ","SECT":" ","MAREA":"下茄苳","LANE":" ","ALLEY":" ","HOUSE_NO":"６８號之６","E_COORD97":184966.60999999999,"N_COORD97":2583350.71,"ADDRESS":"下茄苳６８號之６","OBJECTID":70920},"geometry":{"x":184966.61000000127,"y":2583350.7100000009}},{"attributes":{"ID":70921,"DIS_CODE":0,"TOWNNAME":"安南區","LI":"安富里","LIN":"33鄰","STREET":"府安路","SECT":"五段","MAREA":" ","LANE":"１５７巷","ALLEY":"２２弄","HOUSE_NO":"３５號","E_COORD97":167804.23000000001,"N_COORD97":2547217.8300000001,"ADDRESS":"府安路五段１５７巷２２弄３５號","OBJECTID":70921},"geometry":{"x":167804.23000000138,"y":2547217.8300000001}},{"attributes":{"ID":70922,"DIS_CODE":0,"TOWNNAME":"安南區","LI":"安富里","LIN":"33鄰","STREET":"府安路","SECT":"五段","MAREA":" ","LANE":"１５７巷","ALLEY":"２２弄","HOUSE_NO":"３６號","E_COORD97":167840.45000000001,"N_COORD97":2547176.96,"ADDRESS":"府安路五段１５７巷２２弄３６號","OBJECTID":70922},"geometry":{"x":167840.45000000019,"y":2547176.9600000009}},{"attributes":{"ID":70923,"DIS_CODE":0,"TOWNNAME":"後壁區","LI":"嘉苳里","LIN":"6鄰","STREET":" ","SECT":" ","MAREA":"下茄苳","LANE":" ","ALLEY":" ","HOUSE_NO":"６８號","E_COORD97":184935.26000000001,"N_COORD97":2583331.5,"ADDRESS":"下茄苳６８號","OBJECTID":70923},"geometry":{"x":184935.25999999978,"y":2583331.5}},{"attributes":{"ID":70924,"DIS_CODE":0,"TOWNNAME":"後壁區","LI":"嘉苳里","LIN":"6鄰","STREET":" ","SECT":" ","MAREA":"下茄苳","LANE":" ","ALLEY":" ","HOUSE_NO":"６９號之５","E_COORD97":184924.60999999999,"N_COORD97":2583447.8500000001,"ADDRESS":"下茄苳６９號之５","OBJECTID":70924},"geometry":{"x":184924.61000000127,"y":2583447.8499999996}},{"attributes":{"ID":70925,"DIS_CODE":0,"TOWNNAME":"安南區","LI":"安富里","LIN":"33鄰","STREET":"府安路","SECT":"五段","MAREA":" ","LANE":"１５７巷","ALLEY":"２２弄","HOUSE_NO":"３７號","E_COORD97":167802.51000000001,"N_COORD97":2547222.2999999998,"ADDRESS":"府安路五段１５７巷２２弄３７號","OBJECTID":70925},"geometry":{"x":167802.50999999978,"y":2547222.3000000007}},{"attributes":{"ID":70926,"DIS_CODE":0,"TOWNNAME":"安南區","LI":"安富里","LIN":"33鄰","STREET":"府安路","SECT":"五段","MAREA":" ","LANE":"１５７巷","ALLEY":"２２弄","HOUSE_NO":"３８號","E_COORD97":167839.76000000001,"N_COORD97":2547180.73,"ADDRESS":"府安路五段１５７巷２２弄３８號","OBJECTID":70926},"geometry":{"x":167839.75999999978,"y":2547180.7300000023}},{"attributes":{"ID":70927,"DIS_CODE":0,"TOWNNAME":"安南區","LI":"安富里","LIN":"33鄰","STREET":"府安路","SECT":"五段","MAREA":" ","LANE":"１５７巷","ALLEY":"２２弄","HOUSE_NO":"３９號","E_COORD97":167802.17000000001,"N_COORD97":2547226.4199999999,"ADDRESS":"府安路五段１５７巷２２弄３９號","OBJECTID":70927},"geometry":{"x":167802.17000000086,"y":2547226.4200000018}},{"attributes":{"ID":70928,"DIS_CODE":0,"TOWNNAME":"安南區","LI":"安富里","LIN":"33鄰","STREET":"府安路","SECT":"五段","MAREA":" ","LANE":"１５７巷","ALLEY":"２２弄","HOUSE_NO":"４０號","E_COORD97":167838.72,"N_COORD97":2547185.21,"ADDRESS":"府安路五段１５７巷２２弄４０號","OBJECTID":70928},"geometry":{"x":167838.7200000016,"y":2547185.2100000028}},{"attributes":{"ID":70929,"DIS_CODE":0,"TOWNNAME":"安南區","LI":"安富里","LIN":"33鄰","STREET":"府安路","SECT":"五段","MAREA":" ","LANE":"１５７巷","ALLEY":"２２弄","HOUSE_NO":"４１號","E_COORD97":167800.79000000001,"N_COORD97":2547231.5800000001,"ADDRESS":"府安路五段１５７巷２２弄４１號","OBJECTID":70929},"geometry":{"x":167800.79000000004,"y":2547231.5800000019}},{"attributes":{"ID":70930,"DIS_CODE":0,"TOWNNAME":"安南區","LI":"安富里","LIN":"33鄰","STREET":"府安路","SECT":"五段","MAREA":" ","LANE":"１５７巷","ALLEY":"２２弄","HOUSE_NO":"４２號","E_COORD97":167838.03,"N_COORD97":2547190.0299999998,"ADDRESS":"府安路五段１５７巷２２弄４２號","OBJECTID":70930},"geometry":{"x":167838.03000000026,"y":2547190.0300000031}},{"attributes":{"ID":70931,"DIS_CODE":0,"TOWNNAME":"安南區","LI":"安富里","LIN":"33鄰","STREET":"府安路","SECT":"五段","MAREA":" ","LANE":"１５７巷","ALLEY":"２２弄","HOUSE_NO":"４４號","E_COORD97":167836.66,"N_COORD97":2547195.1800000002,"ADDRESS":"府安路五段１５７巷２２弄４４號","OBJECTID":70931},"geometry":{"x":167836.66000000108,"y":2547195.1799999997}},{"attributes":{"ID":70932,"DIS_CODE":0,"TOWNNAME":"安南區","LI":"安富里","LIN":"33鄰","STREET":"府安路","SECT":"五段","MAREA":" ","LANE":"１５７巷","ALLEY":"２２弄","HOUSE_NO":"４５號","E_COORD97":167799.41,"N_COORD97":2547240.8599999999,"ADDRESS":"府安路五段１５７巷２２弄４５號","OBJECTID":70932},"geometry":{"x":167799.41000000108,"y":2547240.8599999994}},{"attributes":{"ID":70933,"DIS_CODE":0,"TOWNNAME":"安南區","LI":"安富里","LIN":"33鄰","STREET":"府安路","SECT":"五段","MAREA":" ","LANE":"１５７巷","ALLEY":"２２弄","HOUSE_NO":"４６號","E_COORD97":167836.66,"N_COORD97":2547198.9700000002,"ADDRESS":"府安路五段１５７巷２２弄４６號","OBJECTID":70933},"geometry":{"x":167836.66000000108,"y":2547198.9700000025}},{"attributes":{"ID":70934,"DIS_CODE":0,"TOWNNAME":"安南區","LI":"安富里","LIN":"33鄰","STREET":"府安路","SECT":"五段","MAREA":" ","LANE":"１５７巷","ALLEY":"２２弄","HOUSE_NO":"４７號","E_COORD97":167797.69,"N_COORD97":2547245.3300000001,"ADDRESS":"府安路五段１５７巷２２弄４７號","OBJECTID":70934},"geometry":{"x":167797.69000000134,"y":2547245.3300000001}},{"attributes":{"ID":70935,"DIS_CODE":0,"TOWNNAME":"安南區","LI":"安富里","LIN":"33鄰","STREET":"府安路","SECT":"五段","MAREA":" ","LANE":"１５７巷","ALLEY":"２２弄","HOUSE_NO":"４８號","E_COORD97":167834.94,"N_COORD97":2547204.4700000002,"ADDRESS":"府安路五段１５７巷２２弄４８號","OBJECTID":70935},"geometry":{"x":167834.94000000134,"y":2547204.4700000007}},{"attributes":{"ID":70936,"DIS_CODE":0,"TOWNNAME":"安南區","LI":"安富里","LIN":"33鄰","STREET":"府安路","SECT":"五段","MAREA":" ","LANE":"１５７巷","ALLEY":"２２弄","HOUSE_NO":"５０號","E_COORD97":167833.56,"N_COORD97":2547208.5899999999,"ADDRESS":"府安路五段１５７巷２２弄５０號","OBJECTID":70936},"geometry":{"x":167833.56000000052,"y":2547208.5900000017}},{"attributes":{"ID":70937,"DIS_CODE":0,"TOWNNAME":"後壁區","LI":"嘉苳里","LIN":"6鄰","STREET":" ","SECT":" ","MAREA":"下茄苳","LANE":" ","ALLEY":" ","HOUSE_NO":"６９號","E_COORD97":184906.31,"N_COORD97":2583374.0800000001,"ADDRESS":"下茄苳６９號","OBJECTID":70937},"geometry":{"x":184906.30999999959,"y":2583374.0800000019}},{"attributes":{"ID":70938,"DIS_CODE":0,"TOWNNAME":"後壁區","LI":"嘉苳里","LIN":"6鄰","STREET":" ","SECT":" ","MAREA":"下茄苳","LANE":" ","ALLEY":" ","HOUSE_NO":"７０號","E_COORD97":184926.51000000001,"N_COORD97":2583341.3399999999,"ADDRESS":"下茄苳７０號","OBJECTID":70938},"geometry":{"x":184926.51000000071,"y":2583341.3400000017}},{"attributes":{"ID":70939,"DIS_CODE":0,"TOWNNAME":"後壁區","LI":"嘉苳里","LIN":"6鄰","STREET":" ","SECT":" ","MAREA":"下茄苳","LANE":" ","ALLEY":" ","HOUSE_NO":"７２號","E_COORD97":184943.78,"N_COORD97":2583308.3599999999,"ADDRESS":"下茄苳７２號","OBJECTID":70939},"geometry":{"x":184943.78000000119,"y":2583308.3599999994}},{"attributes":{"ID":70940,"DIS_CODE":0,"TOWNNAME":"後壁區","LI":"嘉苳里","LIN":"6鄰","STREET":" ","SECT":" ","MAREA":"下茄苳","LANE":" ","ALLEY":" ","HOUSE_NO":"７３號","E_COORD97":184957.66,"N_COORD97":2583304.5800000001,"ADDRESS":"下茄苳７３號","OBJECTID":70940},"geometry":{"x":184957.66000000108,"y":2583304.5800000038}},{"attributes":{"ID":70941,"DIS_CODE":0,"TOWNNAME":"安南區","LI":"安富里","LIN":"33鄰","STREET":"府安路","SECT":"五段","MAREA":" ","LANE":"１５７巷","ALLEY":"２２弄","HOUSE_NO":"５１號","E_COORD97":167794.94,"N_COORD97":2547254.96,"ADDRESS":"府安路五段１５７巷２２弄５１號","OBJECTID":70941},"geometry":{"x":167794.94000000041,"y":2547254.9600000009}},{"attributes":{"ID":70942,"DIS_CODE":0,"TOWNNAME":"安南區","LI":"安富里","LIN":"33鄰","STREET":"府安路","SECT":"五段","MAREA":" ","LANE":"１５７巷","ALLEY":"２２弄","HOUSE_NO":"５２號","E_COORD97":167832.17999999999,"N_COORD97":2547214.0899999999,"ADDRESS":"府安路五段１５７巷２２弄５２號","OBJECTID":70942},"geometry":{"x":167832.18000000156,"y":2547214.0900000036}},{"attributes":{"ID":70943,"DIS_CODE":0,"TOWNNAME":"永康區","LI":"復國里","LIN":"7鄰","STREET":"復國一路","SECT":" ","MAREA":" ","LANE":" ","ALLEY":" ","HOUSE_NO":"１３４號","E_COORD97":172727.56,"N_COORD97":2545038.52,"ADDRESS":"復國一路１３４號","OBJECTID":70943},"geometry":{"x":172727.56000000052,"y":2545038.5200000014}},{"attributes":{"ID":70944,"DIS_CODE":0,"TOWNNAME":"永康區","LI":"復國里","LIN":"7鄰","STREET":"復國一路","SECT":" ","MAREA":" ","LANE":" ","ALLEY":" ","HOUSE_NO":"２２２號","E_COORD97":172751.20999999999,"N_COORD97":2545235.1600000001,"ADDRESS":"復國一路２２２號","OBJECTID":70944},"geometry":{"x":172751.20999999996,"y":2545235.160000002}},{"attributes":{"ID":70945,"DIS_CODE":0,"TOWNNAME":"永康區","LI":"北灣里","LIN":"7鄰","STREET":"大灣七街","SECT":" ","MAREA":" ","LANE":" ","ALLEY":" ","HOUSE_NO":"１８之１號","E_COORD97":175098.51000000001,"N_COORD97":2545594.1699999999,"ADDRESS":"大灣七街１８之１號","OBJECTID":70945},"geometry":{"x":175098.50999999978,"y":2545594.1700000018}},{"attributes":{"ID":70946,"DIS_CODE":0,"TOWNNAME":"永康區","LI":"北灣里","LIN":"7鄰","STREET":"大灣路","SECT":" ","MAREA":" ","LANE":" ","ALLEY":" ","HOUSE_NO":"１３８之２號","E_COORD97":175128.28,"N_COORD97":2545593.6899999999,"ADDRESS":"大灣路１３８之２號","OBJECTID":70946},"geometry":{"x":175128.28000000119,"y":2545593.6900000013}},{"attributes":{"ID":70947,"DIS_CODE":0,"TOWNNAME":"後壁區","LI":"嘉苳里","LIN":"6鄰","STREET":" ","SECT":" ","MAREA":"下茄苳","LANE":" ","ALLEY":" ","HOUSE_NO":"７４號","E_COORD97":184951.91,"N_COORD97":2583279.8199999998,"ADDRESS":"下茄苳７４號","OBJECTID":70947},"geometry":{"x":184951.91000000015,"y":2583279.820000004}},{"attributes":{"ID":70948,"DIS_CODE":0,"TOWNNAME":"安南區","LI":"安富里","LIN":"33鄰","STREET":"府安路","SECT":"五段","MAREA":" ","LANE":"１５７巷","ALLEY":"２２弄","HOUSE_NO":"５３號","E_COORD97":167793.22,"N_COORD97":2547258.3999999999,"ADDRESS":"府安路五段１５７巷２２弄５３號","OBJECTID":70948},"geometry":{"x":167793.22000000067,"y":2547258.4000000004}},{"attributes":{"ID":70949,"DIS_CODE":0,"TOWNNAME":"後壁區","LI":"嘉苳里","LIN":"6鄰","STREET":" ","SECT":" ","MAREA":"下茄苳","LANE":" ","ALLEY":" ","HOUSE_NO":"７５號","E_COORD97":184969.59,"N_COORD97":2583277.5600000001,"ADDRESS":"下茄苳７５號","OBJECTID":70949},"geometry":{"x":184969.59000000171,"y":2583277.5600000005}},{"attributes":{"ID":70950,"DIS_CODE":0,"TOWNNAME":"後壁區","LI":"嘉苳里","LIN":"6鄰","STREET":" ","SECT":" ","MAREA":"下茄苳","LANE":" ","ALLEY":" ","HOUSE_NO":"７６號","E_COORD97":184940.82999999999,"N_COORD97":2583264.1899999999,"ADDRESS":"下茄苳７６號","OBJECTID":70950},"geometry":{"x":184940.83000000007,"y":2583264.1900000013}},{"attributes":{"ID":70951,"DIS_CODE":0,"TOWNNAME":"後壁區","LI":"嘉苳里","LIN":"6鄰","STREET":" ","SECT":" ","MAREA":"下茄苳","LANE":" ","ALLEY":" ","HOUSE_NO":"７７號之１","E_COORD97":184990.26999999999,"N_COORD97":2583234.5600000001,"ADDRESS":"下茄苳７７號之１","OBJECTID":70951},"geometry":{"x":184990.27000000048,"y":2583234.5600000024}},{"attributes":{"ID":70952,"DIS_CODE":0,"TOWNNAME":"後壁區","LI":"嘉苳里","LIN":"6鄰","STREET":" ","SECT":" ","MAREA":"下茄苳","LANE":" ","ALLEY":" ","HOUSE_NO":"７７號","E_COORD97":185000.67999999999,"N_COORD97":2583220.0099999998,"ADDRESS":"下茄苳７７號","OBJECTID":70952},"geometry":{"x":185000.6799999997,"y":2583220.0100000035}},{"attributes":{"ID":70953,"DIS_CODE":0,"TOWNNAME":"後壁區","LI":"嘉田里","LIN":"6鄰","STREET":" ","SECT":" ","MAREA":"上茄苳","LANE":" ","ALLEY":" ","HOUSE_NO":"５５號之１","E_COORD97":186703.88,"N_COORD97":2587200.2999999998,"ADDRESS":"上茄苳５５號之１","OBJECTID":70953},"geometry":{"x":186703.88000000082,"y":2587200.3000000026}},{"attributes":{"ID":70954,"DIS_CODE":0,"TOWNNAME":"安南區","LI":"安富里","LIN":"33鄰","STREET":"府安路","SECT":"五段","MAREA":" ","LANE":"１５７巷","ALLEY":"２２弄","HOUSE_NO":"５４號","E_COORD97":167831.14999999999,"N_COORD97":2547217.8700000001,"ADDRESS":"府安路五段１５７巷２２弄５４號","OBJECTID":70954},"geometry":{"x":167831.14999999944,"y":2547217.8700000029}},{"attributes":{"ID":70955,"DIS_CODE":0,"TOWNNAME":"後壁區","LI":"嘉田里","LIN":"6鄰","STREET":" ","SECT":" ","MAREA":"上茄苳","LANE":" ","ALLEY":" ","HOUSE_NO":"５５號","E_COORD97":186713.25,"N_COORD97":2587204.9100000001,"ADDRESS":"上茄苳５５號","OBJECTID":70955},"geometry":{"x":186713.25000000093,"y":2587204.9100000039}},{"attributes":{"ID":70956,"DIS_CODE":0,"TOWNNAME":"東區","LI":"崇德里","LIN":"7鄰","STREET":"崇德六街","SECT":" ","MAREA":" ","LANE":" ","ALLEY":" ","HOUSE_NO":"６２號之１","E_COORD97":170805.45000000001,"N_COORD97":2541815.3799999999,"ADDRESS":"崇德六街６２號之１","OBJECTID":70956},"geometry":{"x":170805.45000000019,"y":2541815.379999999}},{"attributes":{"ID":70957,"DIS_CODE":0,"TOWNNAME":"後壁區","LI":"嘉田里","LIN":"6鄰","STREET":" ","SECT":" ","MAREA":"上茄苳","LANE":" ","ALLEY":" ","HOUSE_NO":"５６號之１","E_COORD97":186692.85999999999,"N_COORD97":2587201.6400000001,"ADDRESS":"上茄苳５６號之１","OBJECTID":70957},"geometry":{"x":186692.86000000127,"y":2587201.6400000025}},{"attributes":{"ID":70958,"DIS_CODE":0,"TOWNNAME":"後壁區","LI":"嘉田里","LIN":"6鄰","STREET":" ","SECT":" ","MAREA":"上茄苳","LANE":" ","ALLEY":" ","HOUSE_NO":"５６號之２","E_COORD97":186686.95000000001,"N_COORD97":2587196.3500000001,"ADDRESS":"上茄苳５６號之２","OBJECTID":70958},"geometry":{"x":186686.95000000112,"y":2587196.3499999996}},{"attributes":{"ID":70959,"DIS_CODE":0,"TOWNNAME":"後壁區","LI":"嘉田里","LIN":"6鄰","STREET":" ","SECT":" ","MAREA":"上茄苳","LANE":" ","ALLEY":" ","HOUSE_NO":"５８號之１","E_COORD97":186659.98000000001,"N_COORD97":2587192.23,"ADDRESS":"上茄苳５８號之１","OBJECTID":70959},"geometry":{"x":186659.98000000138,"y":2587192.2300000004}},{"attributes":{"ID":70960,"DIS_CODE":0,"TOWNNAME":"後壁區","LI":"嘉田里","LIN":"6鄰","STREET":" ","SECT":" ","MAREA":"上茄苳","LANE":" ","ALLEY":" ","HOUSE_NO":"５８號之２","E_COORD97":186656.35000000001,"N_COORD97":2587191.1400000001,"ADDRESS":"上茄苳５８號之２","OBJECTID":70960},"geometry":{"x":186656.35000000056,"y":2587191.1400000025}},{"attributes":{"ID":70961,"DIS_CODE":0,"TOWNNAME":"後壁區","LI":"嘉田里","LIN":"6鄰","STREET":" ","SECT":" ","MAREA":"上茄苳","LANE":" ","ALLEY":" ","HOUSE_NO":"５８號之３","E_COORD97":186651.35000000001,"N_COORD97":2587192.0899999999,"ADDRESS":"上茄苳５８號之３","OBJECTID":70961},"geometry":{"x":186651.35000000056,"y":2587192.0899999999}},{"attributes":{"ID":70962,"DIS_CODE":0,"TOWNNAME":"後壁區","LI":"嘉田里","LIN":"6鄰","STREET":" ","SECT":" ","MAREA":"上茄苳","LANE":" ","ALLEY":" ","HOUSE_NO":"５８號","E_COORD97":186663.14999999999,"N_COORD97":2587193.0800000001,"ADDRESS":"上茄苳５８號","OBJECTID":70962},"geometry":{"x":186663.15000000224,"y":2587193.0800000001}},{"attributes":{"ID":70963,"DIS_CODE":0,"TOWNNAME":"後壁區","LI":"嘉田里","LIN":"6鄰","STREET":" ","SECT":" ","MAREA":"上茄苳","LANE":" ","ALLEY":" ","HOUSE_NO":"５９號","E_COORD97":186714.34,"N_COORD97":2587177.6800000002,"ADDRESS":"上茄苳５９號","OBJECTID":70963},"geometry":{"x":186714.34000000078,"y":2587177.6799999997}},{"attributes":{"ID":70964,"DIS_CODE":0,"TOWNNAME":"後壁區","LI":"嘉田里","LIN":"6鄰","STREET":" ","SECT":" ","MAREA":"上茄苳","LANE":" ","ALLEY":" ","HOUSE_NO":"６０號","E_COORD97":186699.39999999999,"N_COORD97":2587153.46,"ADDRESS":"上茄苳６０號","OBJECTID":70964},"geometry":{"x":186699.4000000013,"y":2587153.4600000009}},{"attributes":{"ID":70965,"DIS_CODE":0,"TOWNNAME":"後壁區","LI":"嘉田里","LIN":"6鄰","STREET":" ","SECT":" ","MAREA":"上茄苳","LANE":" ","ALLEY":" ","HOUSE_NO":"６１號之６","E_COORD97":186738.82000000001,"N_COORD97":2587161.4199999999,"ADDRESS":"上茄苳６１號之６","OBJECTID":70965},"geometry":{"x":186738.82000000123,"y":2587161.4200000018}},{"attributes":{"ID":70966,"DIS_CODE":0,"TOWNNAME":"後壁區","LI":"嘉田里","LIN":"6鄰","STREET":" ","SECT":" ","MAREA":"上茄苳","LANE":" ","ALLEY":" ","HOUSE_NO":"６２號","E_COORD97":186694.72,"N_COORD97":2587139.7599999998,"ADDRESS":"上茄苳６２號","OBJECTID":70966},"geometry":{"x":186694.72000000067,"y":2587139.7599999998}},{"attributes":{"ID":70967,"DIS_CODE":0,"TOWNNAME":"後壁區","LI":"土溝里","LIN":"6鄰","STREET":" ","SECT":" ","MAREA":"土溝","LANE":" ","ALLEY":" ","HOUSE_NO":"５０號之５","E_COORD97":187186.94,"N_COORD97":2585110.0600000001,"ADDRESS":"土溝５０號之５","OBJECTID":70967},"geometry":{"x":187186.94000000134,"y":2585110.0600000024}},{"attributes":{"ID":70968,"DIS_CODE":0,"TOWNNAME":"後壁區","LI":"土溝里","LIN":"6鄰","STREET":" ","SECT":" ","MAREA":"土溝","LANE":" ","ALLEY":" ","HOUSE_NO":"５０號之６","E_COORD97":187187.92999999999,"N_COORD97":2585105.7200000002,"ADDRESS":"土溝５０號之６","OBJECTID":70968},"geometry":{"x":187187.93000000063,"y":2585105.7200000025}},{"attributes":{"ID":70969,"DIS_CODE":0,"TOWNNAME":"後壁區","LI":"土溝里","LIN":"6鄰","STREET":" ","SECT":" ","MAREA":"土溝","LANE":" ","ALLEY":" ","HOUSE_NO":"５０號","E_COORD97":187197.17000000001,"N_COORD97":2585143.3500000001,"ADDRESS":"土溝５０號","OBJECTID":70969},"geometry":{"x":187197.17000000086,"y":2585143.3500000034}},{"attributes":{"ID":70970,"DIS_CODE":0,"TOWNNAME":"後壁區","LI":"土溝里","LIN":"6鄰","STREET":" ","SECT":" ","MAREA":"土溝","LANE":" ","ALLEY":" ","HOUSE_NO":"５１號之１","E_COORD97":187220.06,"N_COORD97":2585110.7799999998,"ADDRESS":"土溝５１號之１","OBJECTID":70970},"geometry":{"x":187220.05999999959,"y":2585110.7800000012}},{"attributes":{"ID":70971,"DIS_CODE":0,"TOWNNAME":"後壁區","LI":"土溝里","LIN":"6鄰","STREET":" ","SECT":" ","MAREA":"土溝","LANE":" ","ALLEY":" ","HOUSE_NO":"５１號之２","E_COORD97":187217.03,"N_COORD97":2585090.2000000002,"ADDRESS":"土溝５１號之２","OBJECTID":70971},"geometry":{"x":187217.03000000119,"y":2585090.2000000011}},{"attributes":{"ID":70972,"DIS_CODE":0,"TOWNNAME":"後壁區","LI":"土溝里","LIN":"6鄰","STREET":" ","SECT":" ","MAREA":"土溝","LANE":" ","ALLEY":" ","HOUSE_NO":"５２號之３","E_COORD97":187144.38,"N_COORD97":2585054.8799999999,"ADDRESS":"土溝５２號之３","OBJECTID":70972},"geometry":{"x":187144.38000000082,"y":2585054.8800000008}},{"attributes":{"ID":70973,"DIS_CODE":0,"TOWNNAME":"後壁區","LI":"土溝里","LIN":"6鄰","STREET":" ","SECT":" ","MAREA":"土溝","LANE":" ","ALLEY":" ","HOUSE_NO":"５２號之５","E_COORD97":187154.29000000001,"N_COORD97":2585113.3500000001,"ADDRESS":"土溝５２號之５","OBJECTID":70973},"geometry":{"x":187154.29000000004,"y":2585113.3500000015}},{"attributes":{"ID":70974,"DIS_CODE":0,"TOWNNAME":"後壁區","LI":"土溝里","LIN":"6鄰","STREET":" ","SECT":" ","MAREA":"土溝","LANE":" ","ALLEY":" ","HOUSE_NO":"５２號","E_COORD97":187165.92000000001,"N_COORD97":2585072.3199999998,"ADDRESS":"土溝５２號","OBJECTID":70974},"geometry":{"x":187165.92000000179,"y":2585072.3200000003}},{"attributes":{"ID":70975,"DIS_CODE":0,"TOWNNAME":"後壁區","LI":"土溝里","LIN":"6鄰","STREET":" ","SECT":" ","MAREA":"土溝","LANE":" ","ALLEY":" ","HOUSE_NO":"５３號之１","E_COORD97":187218.82999999999,"N_COORD97":2585062.4100000001,"ADDRESS":"土溝５３號之１","OBJECTID":70975},"geometry":{"x":187218.83000000007,"y":2585062.4100000039}},{"attributes":{"ID":70976,"DIS_CODE":0,"TOWNNAME":"後壁區","LI":"土溝里","LIN":"6鄰","STREET":" ","SECT":" ","MAREA":"土溝","LANE":" ","ALLEY":" ","HOUSE_NO":"５４號","E_COORD97":187238.54000000001,"N_COORD97":2585093.2799999998,"ADDRESS":"土溝５４號","OBJECTID":70976},"geometry":{"x":187238.54000000097,"y":2585093.2800000012}},{"attributes":{"ID":70977,"DIS_CODE":0,"TOWNNAME":"後壁區","LI":"土溝里","LIN":"6鄰","STREET":" ","SECT":" ","MAREA":"土溝","LANE":" ","ALLEY":" ","HOUSE_NO":"５５號之３０","E_COORD97":187344.29000000001,"N_COORD97":2585222.3500000001,"ADDRESS":"土溝５５號之３０","OBJECTID":70977},"geometry":{"x":187344.29000000004,"y":2585222.3500000015}},{"attributes":{"ID":70978,"DIS_CODE":0,"TOWNNAME":"後壁區","LI":"土溝里","LIN":"6鄰","STREET":" ","SECT":" ","MAREA":"土溝","LANE":" ","ALLEY":" ","HOUSE_NO":"５５號之６","E_COORD97":187281.64000000001,"N_COORD97":2585215.2999999998,"ADDRESS":"土溝５５號之６","OBJECTID":70978},"geometry":{"x":187281.6400000006,"y":2585215.3000000007}},{"attributes":{"ID":70979,"DIS_CODE":0,"TOWNNAME":"後壁區","LI":"土溝里","LIN":"6鄰","STREET":" ","SECT":" ","MAREA":"土溝","LANE":" ","ALLEY":" ","HOUSE_NO":"５５號","E_COORD97":187271.51000000001,"N_COORD97":2585104.77,"ADDRESS":"土溝５５號","OBJECTID":70979},"geometry":{"x":187271.50999999978,"y":2585104.7700000014}},{"attributes":{"ID":70980,"DIS_CODE":0,"TOWNNAME":"後壁區","LI":"新嘉里","LIN":"6鄰","STREET":" ","SECT":" ","MAREA":"白沙屯","LANE":" ","ALLEY":" ","HOUSE_NO":"６４號","E_COORD97":179643.88,"N_COORD97":2585720.6899999999,"ADDRESS":"白沙屯６４號","OBJECTID":70980},"geometry":{"x":179643.87999999989,"y":2585720.6900000032}},{"attributes":{"ID":70981,"DIS_CODE":0,"TOWNNAME":"後壁區","LI":"新嘉里","LIN":"6鄰","STREET":" ","SECT":" ","MAREA":"白沙屯","LANE":" ","ALLEY":" ","HOUSE_NO":"６５號","E_COORD97":179665.31,"N_COORD97":2585734.0499999998,"ADDRESS":"白沙屯６５號","OBJECTID":70981},"geometry":{"x":179665.31000000052,"y":2585734.0500000026}},{"attributes":{"ID":70982,"DIS_CODE":0,"TOWNNAME":"後壁區","LI":"新嘉里","LIN":"6鄰","STREET":" ","SECT":" ","MAREA":"白沙屯","LANE":" ","ALLEY":" ","HOUSE_NO":"６６號之１","E_COORD97":179685.23000000001,"N_COORD97":2585720.0099999998,"ADDRESS":"白沙屯６６號之１","OBJECTID":70982},"geometry":{"x":179685.23000000231,"y":2585720.0100000016}},{"attributes":{"ID":70983,"DIS_CODE":0,"TOWNNAME":"後壁區","LI":"新嘉里","LIN":"6鄰","STREET":" ","SECT":" ","MAREA":"白沙屯","LANE":" ","ALLEY":" ","HOUSE_NO":"６６號之２","E_COORD97":179706.57999999999,"N_COORD97":2585723.2400000002,"ADDRESS":"白沙屯６６號之２","OBJECTID":70983},"geometry":{"x":179706.58000000101,"y":2585723.2400000002}},{"attributes":{"ID":70984,"DIS_CODE":0,"TOWNNAME":"後壁區","LI":"新嘉里","LIN":"6鄰","STREET":" ","SECT":" ","MAREA":"白沙屯","LANE":" ","ALLEY":" ","HOUSE_NO":"６６號之３","E_COORD97":179714.97,"N_COORD97":2585729.4900000002,"ADDRESS":"白沙屯６６號之３","OBJECTID":70984},"geometry":{"x":179714.96999999881,"y":2585729.4900000039}},{"attributes":{"ID":70985,"DIS_CODE":0,"TOWNNAME":"後壁區","LI":"新嘉里","LIN":"6鄰","STREET":" ","SECT":" ","MAREA":"白沙屯","LANE":" ","ALLEY":" ","HOUSE_NO":"６６號之６","E_COORD97":179715.73999999999,"N_COORD97":2585692.2200000002,"ADDRESS":"白沙屯６６號之６","OBJECTID":70985},"geometry":{"x":179715.74000000115,"y":2585692.2200000025}},{"attributes":{"ID":70986,"DIS_CODE":0,"TOWNNAME":"後壁區","LI":"新嘉里","LIN":"6鄰","STREET":" ","SECT":" ","MAREA":"白沙屯","LANE":" ","ALLEY":" ","HOUSE_NO":"６６號之８","E_COORD97":179717.26999999999,"N_COORD97":2585685.6200000001,"ADDRESS":"白沙屯６６號之８","OBJECTID":70986},"geometry":{"x":179717.26999999955,"y":2585685.6200000048}},{"attributes":{"ID":70987,"DIS_CODE":0,"TOWNNAME":"後壁區","LI":"新嘉里","LIN":"6鄰","STREET":" ","SECT":" ","MAREA":"白沙屯","LANE":" ","ALLEY":" ","HOUSE_NO":"６６號之９","E_COORD97":179721,"N_COORD97":2585676.2000000002,"ADDRESS":"白沙屯６６號之９","OBJECTID":70987},"geometry":{"x":179721.00000000093,"y":2585676.200000003}},{"attributes":{"ID":70988,"DIS_CODE":0,"TOWNNAME":"後壁區","LI":"新嘉里","LIN":"6鄰","STREET":" ","SECT":" ","MAREA":"白沙屯","LANE":" ","ALLEY":" ","HOUSE_NO":"６８號","E_COORD97":179678.82000000001,"N_COORD97":2585673.96,"ADDRESS":"白沙屯６８號","OBJECTID":70988},"geometry":{"x":179678.8200000003,"y":2585673.9600000028}},{"attributes":{"ID":70989,"DIS_CODE":0,"TOWNNAME":"安南區","LI":"安富里","LIN":"33鄰","STREET":"府安路","SECT":"五段","MAREA":" ","LANE":"１５７巷","ALLEY":"２２弄","HOUSE_NO":"５５號","E_COORD97":167790.81,"N_COORD97":2547262.1800000002,"ADDRESS":"府安路五段１５７巷２２弄５５號","OBJECTID":70989},"geometry":{"x":167790.81000000052,"y":2547262.1800000016}},{"attributes":{"ID":70990,"DIS_CODE":0,"TOWNNAME":"安南區","LI":"安富里","LIN":"33鄰","STREET":"府安路","SECT":"五段","MAREA":" ","LANE":"１５７巷","ALLEY":"２２弄","HOUSE_NO":"５６號","E_COORD97":167830.12,"N_COORD97":2547222.6899999999,"ADDRESS":"府安路五段１５７巷２２弄５６號","OBJECTID":70990},"geometry":{"x":167830.12000000104,"y":2547222.6899999976}},{"attributes":{"ID":70991,"DIS_CODE":0,"TOWNNAME":"安南區","LI":"安富里","LIN":"33鄰","STREET":"府安路","SECT":"五段","MAREA":" ","LANE":"１５７巷","ALLEY":"２２弄","HOUSE_NO":"５７號","E_COORD97":167789.07999999999,"N_COORD97":2547267.6800000002,"ADDRESS":"府安路五段１５７巷２２弄５７號","OBJECTID":70991},"geometry":{"x":167789.08000000194,"y":2547267.6800000016}},{"attributes":{"ID":70992,"DIS_CODE":0,"TOWNNAME":"安南區","LI":"安富里","LIN":"33鄰","STREET":"府安路","SECT":"五段","MAREA":" ","LANE":"１５７巷","ALLEY":"２２弄","HOUSE_NO":"５８號","E_COORD97":167829.42999999999,"N_COORD97":2547226.1299999999,"ADDRESS":"府安路五段１５７巷２２弄５８號","OBJECTID":70992},"geometry":{"x":167829.43000000063,"y":2547226.1300000027}},{"attributes":{"ID":70993,"DIS_CODE":0,"TOWNNAME":"後壁區","LI":"竹新里","LIN":"6鄰","STREET":" ","SECT":" ","MAREA":"竹圍後","LANE":" ","ALLEY":" ","HOUSE_NO":"５４號之３","E_COORD97":178261.29000000001,"N_COORD97":2582301.71,"ADDRESS":"竹圍後５４號之３","OBJECTID":70993},"geometry":{"x":178261.29000000097,"y":2582301.7100000028}},{"attributes":{"ID":70994,"DIS_CODE":0,"TOWNNAME":"後壁區","LI":"竹新里","LIN":"6鄰","STREET":" ","SECT":" ","MAREA":"竹圍後","LANE":" ","ALLEY":" ","HOUSE_NO":"５４號之４","E_COORD97":178247.60000000001,"N_COORD97":2582311.4700000002,"ADDRESS":"竹圍後５４號之４","OBJECTID":70994},"geometry":{"x":178247.59999999963,"y":2582311.4700000007}},{"attributes":{"ID":70995,"DIS_CODE":0,"TOWNNAME":"後壁區","LI":"竹新里","LIN":"6鄰","STREET":" ","SECT":" ","MAREA":"竹圍後","LANE":" ","ALLEY":" ","HOUSE_NO":"５４號之５","E_COORD97":178253.19,"N_COORD97":2582326.8500000001,"ADDRESS":"竹圍後５４號之５","OBJECTID":70995},"geometry":{"x":178253.19000000227,"y":2582326.8500000015}},{"attributes":{"ID":70996,"DIS_CODE":0,"TOWNNAME":"後壁區","LI":"竹新里","LIN":"6鄰","STREET":" ","SECT":" ","MAREA":"竹圍後","LANE":" ","ALLEY":" ","HOUSE_NO":"５４號","E_COORD97":178304.03,"N_COORD97":2582305.3700000001,"ADDRESS":"竹圍後５４號","OBJECTID":70996},"geometry":{"x":178304.03000000026,"y":2582305.370000001}},{"attributes":{"ID":70997,"DIS_CODE":0,"TOWNNAME":"後壁區","LI":"竹新里","LIN":"6鄰","STREET":" ","SECT":" ","MAREA":"竹圍後","LANE":" ","ALLEY":" ","HOUSE_NO":"５５號之１０","E_COORD97":178332.14999999999,"N_COORD97":2582290.9900000002,"ADDRESS":"竹圍後５５號之１０","OBJECTID":70997},"geometry":{"x":178332.15000000037,"y":2582290.9900000002}},{"attributes":{"ID":70998,"DIS_CODE":0,"TOWNNAME":"後壁區","LI":"竹新里","LIN":"6鄰","STREET":" ","SECT":" ","MAREA":"竹圍後","LANE":" ","ALLEY":" ","HOUSE_NO":"５５號之１１","E_COORD97":178336.09,"N_COORD97":2582288.6499999999,"ADDRESS":"竹圍後５５號之１１","OBJECTID":70998},"geometry":{"x":178336.08999999892,"y":2582288.6500000022}},{"attributes":{"ID":70999,"DIS_CODE":0,"TOWNNAME":"後壁區","LI":"竹新里","LIN":"6鄰","STREET":" ","SECT":" ","MAREA":"竹圍後","LANE":" ","ALLEY":" ","HOUSE_NO":"５５號之１","E_COORD97":178303.26999999999,"N_COORD97":2582272.1499999999,"ADDRESS":"竹圍後５５號之１","OBJECTID":70999},"geometry":{"x":178303.27000000048,"y":2582272.1500000022}},{"attributes":{"ID":71000,"DIS_CODE":0,"TOWNNAME":"安南區","LI":"安富里","LIN":"33鄰","STREET":"府安路","SECT":"五段","MAREA":" ","LANE":"１５７巷","ALLEY":"２２弄","HOUSE_NO":"６０號","E_COORD97":167828.39000000001,"N_COORD97":2547231.6299999999,"ADDRESS":"府安路五段１５７巷２２弄６０號","OBJECTID":71000},"geometry":{"x":167828.38999999966,"y":2547231.629999999}}]}