{"displayFieldName":"TOWNNAME","fieldAliases":{"ID":"ID","DIS_CODE":"DIS_CODE","TOWNNAME":"TOWNNAME","LI":"LI","LIN":"LIN","STREET":"STREET","SECT":"SECT","MAREA":"MAREA","LANE":"LANE","ALLEY":"ALLEY","HOUSE_NO":"HOUSE_NO","E_COORD97":"E_COORD97","N_COORD97":"N_COORD97","ADDRESS":"ADDRESS","OBJECTID":"OBJECTID"},"geometryType":"esriGeometryPoint","spatialReference":{"wkid":102443,"latestWkid":3826},"fields":[{"name":"ID","type":"esriFieldTypeDouble","alias":"ID"},{"name":"DIS_CODE","type":"esriFieldTypeInteger","alias":"DIS_CODE"},{"name":"TOWNNAME","type":"esriFieldTypeString","alias":"TOWNNAME","length":8},{"name":"LI","type":"esriFieldTypeString","alias":"LI","length":8},{"name":"LIN","type":"esriFieldTypeString","alias":"LIN","length":12},{"name":"STREET","type":"esriFieldTypeString","alias":"STREET","length":20},{"name":"SECT","type":"esriFieldTypeString","alias":"SECT","length":8},{"name":"MAREA","type":"esriFieldTypeString","alias":"MAREA","length":12},{"name":"LANE","type":"esriFieldTypeString","alias":"LANE","length":10},{"name":"ALLEY","type":"esriFieldTypeString","alias":"ALLEY","length":10},{"name":"HOUSE_NO","type":"esriFieldTypeString","alias":"HOUSE_NO","length":20},{"name":"E_COORD97","type":"esriFieldTypeDouble","alias":"E_COORD97"},{"name":"N_COORD97","type":"esriFieldTypeDouble","alias":"N_COORD97"},{"name":"ADDRESS","type":"esriFieldTypeString","alias":"ADDRESS","length":50},{"name":"OBJECTID","type":"esriFieldTypeOID","alias":"OBJECTID"}],"features":[{"attributes":{"ID":571028,"DIS_CODE":0,"TOWNNAME":"歸仁區","LI":"許厝里","LIN":"29鄰","STREET":"大智街","SECT":" ","MAREA":" ","LANE":" ","ALLEY":" ","HOUSE_NO":"１１號","E_COORD97":177933.17000000001,"N_COORD97":2540693.5299999998,"ADDRESS":"大智街１１號","OBJECTID":571001},"geometry":{"x":177933.16999999993,"y":2540693.5299999993}},{"attributes":{"ID":571029,"DIS_CODE":0,"TOWNNAME":"歸仁區","LI":"南興里","LIN":"29鄰","STREET":"保興一街","SECT":" ","MAREA":" ","LANE":" ","ALLEY":" ","HOUSE_NO":"２０之１號","E_COORD97":176434.32999999999,"N_COORD97":2541131.2599999998,"ADDRESS":"保興一街２０之１號","OBJECTID":571002},"geometry":{"x":176434.33000000007,"y":2541131.2600000016}},{"attributes":{"ID":571030,"DIS_CODE":0,"TOWNNAME":"歸仁區","LI":"崙頂里","LIN":"29鄰","STREET":"成功十街","SECT":" ","MAREA":" ","LANE":" ","ALLEY":" ","HOUSE_NO":"６５號","E_COORD97":177769.53,"N_COORD97":2539766.25,"ADDRESS":"成功十街６５號","OBJECTID":571003},"geometry":{"x":177769.53000000119,"y":2539766.25}},{"attributes":{"ID":571031,"DIS_CODE":0,"TOWNNAME":"歸仁區","LI":"許厝里","LIN":"29鄰","STREET":"中山路","SECT":"一段","MAREA":" ","LANE":" ","ALLEY":" ","HOUSE_NO":"５０５號","E_COORD97":177982.16,"N_COORD97":2540714.8199999998,"ADDRESS":"中山路一段５０５號","OBJECTID":571004},"geometry":{"x":177982.16000000108,"y":2540714.8200000022}},{"attributes":{"ID":571032,"DIS_CODE":0,"TOWNNAME":"歸仁區","LI":"許厝里","LIN":"29鄰","STREET":"大智街","SECT":" ","MAREA":" ","LANE":" ","ALLEY":" ","HOUSE_NO":"１５號","E_COORD97":177932.17000000001,"N_COORD97":2540685.5299999998,"ADDRESS":"大智街１５號","OBJECTID":571005},"geometry":{"x":177932.16999999899,"y":2540685.5299999993}},{"attributes":{"ID":571033,"DIS_CODE":0,"TOWNNAME":"歸仁區","LI":"許厝里","LIN":"29鄰","STREET":"大智街","SECT":" ","MAREA":" ","LANE":" ","ALLEY":" ","HOUSE_NO":"１７號","E_COORD97":177932.17000000001,"N_COORD97":2540682.5299999998,"ADDRESS":"大智街１７號","OBJECTID":571006},"geometry":{"x":177932.16999999899,"y":2540682.5299999993}},{"attributes":{"ID":571034,"DIS_CODE":0,"TOWNNAME":"歸仁區","LI":"辜厝里","LIN":"29鄰","STREET":"大順三街","SECT":" ","MAREA":" ","LANE":" ","ALLEY":" ","HOUSE_NO":"２６號","E_COORD97":177355.63,"N_COORD97":2540534.9500000002,"ADDRESS":"大順三街２６號","OBJECTID":571007},"geometry":{"x":177355.62999999989,"y":2540534.9499999974}},{"attributes":{"ID":571035,"DIS_CODE":0,"TOWNNAME":"歸仁區","LI":"南興里","LIN":"29鄰","STREET":"保興一街","SECT":" ","MAREA":" ","LANE":" ","ALLEY":" ","HOUSE_NO":"１４號","E_COORD97":176453.32999999999,"N_COORD97":2541133.25,"ADDRESS":"保興一街１４號","OBJECTID":571008},"geometry":{"x":176453.33000000101,"y":2541133.25}},{"attributes":{"ID":571036,"DIS_CODE":0,"TOWNNAME":"歸仁區","LI":"許厝里","LIN":"29鄰","STREET":"大智街","SECT":" ","MAREA":" ","LANE":" ","ALLEY":" ","HOUSE_NO":"２５號","E_COORD97":177931.07000000001,"N_COORD97":2540668.5299999998,"ADDRESS":"大智街２５號","OBJECTID":571009},"geometry":{"x":177931.0700000003,"y":2540668.5300000012}},{"attributes":{"ID":571037,"DIS_CODE":0,"TOWNNAME":"歸仁區","LI":"南興里","LIN":"29鄰","STREET":"保興一街","SECT":" ","MAREA":" ","LANE":" ","ALLEY":" ","HOUSE_NO":"８號","E_COORD97":176465.38,"N_COORD97":2541133.25,"ADDRESS":"保興一街８號","OBJECTID":571010},"geometry":{"x":176465.37999999989,"y":2541133.25}},{"attributes":{"ID":571038,"DIS_CODE":0,"TOWNNAME":"新營區","LI":"新南里","LIN":"29鄰","STREET":"明清一街","SECT":" ","MAREA":" ","LANE":" ","ALLEY":" ","HOUSE_NO":"１８號","E_COORD97":178138.69,"N_COORD97":2578666.8999999999,"ADDRESS":"明清一街１８號","OBJECTID":571011},"geometry":{"x":178138.69000000041,"y":2578666.9000000004}},{"attributes":{"ID":571039,"DIS_CODE":0,"TOWNNAME":"新營區","LI":"新南里","LIN":"29鄰","STREET":"明清一街","SECT":" ","MAREA":" ","LANE":" ","ALLEY":" ","HOUSE_NO":"９２號","E_COORD97":178025.32000000001,"N_COORD97":2578705.1000000001,"ADDRESS":"明清一街９２號","OBJECTID":571012},"geometry":{"x":178025.32000000123,"y":2578705.0999999996}},{"attributes":{"ID":571040,"DIS_CODE":0,"TOWNNAME":"新營區","LI":"新南里","LIN":"29鄰","STREET":"明清街","SECT":" ","MAREA":" ","LANE":" ","ALLEY":" ","HOUSE_NO":"１５號","E_COORD97":178182.53,"N_COORD97":2578636.79,"ADDRESS":"明清街１５號","OBJECTID":571013},"geometry":{"x":178182.53000000026,"y":2578636.7899999991}},{"attributes":{"ID":571041,"DIS_CODE":0,"TOWNNAME":"新營區","LI":"新南里","LIN":"29鄰","STREET":"明清街","SECT":" ","MAREA":" ","LANE":" ","ALLEY":" ","HOUSE_NO":"１３號","E_COORD97":178181.54000000001,"N_COORD97":2578642.3300000001,"ADDRESS":"明清街１３號","OBJECTID":571014},"geometry":{"x":178181.54000000097,"y":2578642.3300000019}},{"attributes":{"ID":571042,"DIS_CODE":0,"TOWNNAME":"仁德區","LI":"太子里","LIN":"31鄰","STREET":"太子三街","SECT":" ","MAREA":" ","LANE":" ","ALLEY":" ","HOUSE_NO":"６１號","E_COORD97":173846.87,"N_COORD97":2543428.5099999998,"ADDRESS":"太子三街６１號","OBJECTID":571015},"geometry":{"x":173846.87000000011,"y":2543428.5100000016}},{"attributes":{"ID":571043,"DIS_CODE":0,"TOWNNAME":"仁德區","LI":"仁義里","LIN":"6鄰","STREET":"仁義一街","SECT":" ","MAREA":" ","LANE":" ","ALLEY":" ","HOUSE_NO":"１５５號","E_COORD97":173688.92000000001,"N_COORD97":2541187.7599999998,"ADDRESS":"仁義一街１５５號","OBJECTID":571016},"geometry":{"x":173688.91999999993,"y":2541187.7600000035}},{"attributes":{"ID":571044,"DIS_CODE":0,"TOWNNAME":"仁德區","LI":"太子里","LIN":"30鄰","STREET":"太子路","SECT":" ","MAREA":" ","LANE":" ","ALLEY":" ","HOUSE_NO":"５８５號","E_COORD97":173807.67999999999,"N_COORD97":2543511.2599999998,"ADDRESS":"太子路５８５號","OBJECTID":571017},"geometry":{"x":173807.68000000156,"y":2543511.2600000016}},{"attributes":{"ID":571045,"DIS_CODE":0,"TOWNNAME":"新營區","LI":"新南里","LIN":"29鄰","STREET":"隋唐街","SECT":" ","MAREA":" ","LANE":" ","ALLEY":" ","HOUSE_NO":"３２６號","E_COORD97":178107.04999999999,"N_COORD97":2578615.0099999998,"ADDRESS":"隋唐街３２６號","OBJECTID":571018},"geometry":{"x":178107.04999999981,"y":2578615.0099999998}},{"attributes":{"ID":571046,"DIS_CODE":0,"TOWNNAME":"新營區","LI":"民生里","LIN":"29鄰","STREET":"民治路","SECT":" ","MAREA":" ","LANE":" ","ALLEY":" ","HOUSE_NO":"１８７號","E_COORD97":178807.81,"N_COORD97":2578442.1899999999,"ADDRESS":"民治路１８７號","OBJECTID":571019},"geometry":{"x":178807.81000000052,"y":2578442.1900000013}},{"attributes":{"ID":571047,"DIS_CODE":0,"TOWNNAME":"新營區","LI":"新南里","LIN":"29鄰","STREET":"隋唐街","SECT":" ","MAREA":" ","LANE":" ","ALLEY":" ","HOUSE_NO":"３３２號","E_COORD97":178094.78,"N_COORD97":2578616.1800000002,"ADDRESS":"隋唐街３３２號","OBJECTID":571020},"geometry":{"x":178094.78000000119,"y":2578616.1800000016}},{"attributes":{"ID":571048,"DIS_CODE":0,"TOWNNAME":"新營區","LI":"新南里","LIN":"29鄰","STREET":"隋唐街","SECT":" ","MAREA":" ","LANE":" ","ALLEY":" ","HOUSE_NO":"３２８號","E_COORD97":178102.95999999999,"N_COORD97":2578615.0299999998,"ADDRESS":"隋唐街３２８號","OBJECTID":571021},"geometry":{"x":178102.95999999996,"y":2578615.0299999993}},{"attributes":{"ID":571049,"DIS_CODE":0,"TOWNNAME":"新營區","LI":"新南里","LIN":"29鄰","STREET":"隋唐街","SECT":" ","MAREA":" ","LANE":" ","ALLEY":" ","HOUSE_NO":"３３６號","E_COORD97":178091.73999999999,"N_COORD97":2578621.7400000002,"ADDRESS":"隋唐街３３６號","OBJECTID":571022},"geometry":{"x":178091.74000000115,"y":2578621.7400000039}},{"attributes":{"ID":571050,"DIS_CODE":0,"TOWNNAME":"新營區","LI":"新南里","LIN":"29鄰","STREET":"隋唐街","SECT":" ","MAREA":" ","LANE":" ","ALLEY":" ","HOUSE_NO":"３１６號","E_COORD97":178127.53,"N_COORD97":2578619.3500000001,"ADDRESS":"隋唐街３１６號","OBJECTID":571023},"geometry":{"x":178127.53000000119,"y":2578619.3499999996}},{"attributes":{"ID":571051,"DIS_CODE":0,"TOWNNAME":"新營區","LI":"新南里","LIN":"29鄰","STREET":"隋唐街","SECT":" ","MAREA":" ","LANE":" ","ALLEY":" ","HOUSE_NO":"３３８號","E_COORD97":178086.63,"N_COORD97":2578621.7599999998,"ADDRESS":"隋唐街３３８號","OBJECTID":571024},"geometry":{"x":178086.62999999989,"y":2578621.7600000016}},{"attributes":{"ID":571052,"DIS_CODE":0,"TOWNNAME":"新營區","LI":"新南里","LIN":"29鄰","STREET":"隋唐街","SECT":" ","MAREA":" ","LANE":" ","ALLEY":" ","HOUSE_NO":"３３０號","E_COORD97":178098.88,"N_COORD97":2578616.1600000001,"ADDRESS":"隋唐街３３０號","OBJECTID":571025},"geometry":{"x":178098.88000000082,"y":2578616.160000002}},{"attributes":{"ID":571053,"DIS_CODE":0,"TOWNNAME":"新營區","LI":"新南里","LIN":"29鄰","STREET":"隋唐街","SECT":" ","MAREA":" ","LANE":" ","ALLEY":" ","HOUSE_NO":"３１８號","E_COORD97":178121.39000000001,"N_COORD97":2578619.3799999999,"ADDRESS":"隋唐街３１８號","OBJECTID":571026},"geometry":{"x":178121.38999999966,"y":2578619.3800000027}},{"attributes":{"ID":571054,"DIS_CODE":0,"TOWNNAME":"新營區","LI":"王公里","LIN":"29鄰","STREET":"民族路","SECT":" ","MAREA":" ","LANE":" ","ALLEY":" ","HOUSE_NO":"２６９號","E_COORD97":180372.32000000001,"N_COORD97":2579671.98,"ADDRESS":"民族路２６９號","OBJECTID":571027},"geometry":{"x":180372.3200000003,"y":2579671.9800000023}},{"attributes":{"ID":571055,"DIS_CODE":0,"TOWNNAME":"新營區","LI":"王公里","LIN":"29鄰","STREET":"民族路","SECT":" ","MAREA":" ","LANE":" ","ALLEY":" ","HOUSE_NO":"２７１號","E_COORD97":180367.76000000001,"N_COORD97":2579671.7400000002,"ADDRESS":"民族路２７１號","OBJECTID":571028},"geometry":{"x":180367.76000000071,"y":2579671.7400000002}},{"attributes":{"ID":571056,"DIS_CODE":0,"TOWNNAME":"新營區","LI":"王公里","LIN":"29鄰","STREET":"民族路","SECT":" ","MAREA":" ","LANE":" ","ALLEY":" ","HOUSE_NO":"２７３號","E_COORD97":180362.84,"N_COORD97":2579671.7999999998,"ADDRESS":"民族路２７３號","OBJECTID":571029},"geometry":{"x":180362.83999999985,"y":2579671.8000000007}},{"attributes":{"ID":571057,"DIS_CODE":0,"TOWNNAME":"新營區","LI":"王公里","LIN":"29鄰","STREET":"民族路","SECT":" ","MAREA":" ","LANE":" ","ALLEY":" ","HOUSE_NO":"２７５號","E_COORD97":180354.82000000001,"N_COORD97":2579668.5800000001,"ADDRESS":"民族路２７５號","OBJECTID":571030},"geometry":{"x":180354.82000000123,"y":2579668.5800000001}},{"attributes":{"ID":571058,"DIS_CODE":0,"TOWNNAME":"新營區","LI":"王公里","LIN":"29鄰","STREET":"民族路","SECT":" ","MAREA":" ","LANE":" ","ALLEY":" ","HOUSE_NO":"２７７號","E_COORD97":180353.35999999999,"N_COORD97":2579688.8700000001,"ADDRESS":"民族路２７７號","OBJECTID":571031},"geometry":{"x":180353.36000000034,"y":2579688.870000001}},{"attributes":{"ID":571059,"DIS_CODE":0,"TOWNNAME":"新營區","LI":"王公里","LIN":"29鄰","STREET":"民族路","SECT":" ","MAREA":" ","LANE":" ","ALLEY":" ","HOUSE_NO":"２７９號","E_COORD97":180358.41,"N_COORD97":2579688.6200000001,"ADDRESS":"民族路２７９號","OBJECTID":571032},"geometry":{"x":180358.41000000201,"y":2579688.6200000029}},{"attributes":{"ID":571060,"DIS_CODE":0,"TOWNNAME":"新營區","LI":"王公里","LIN":"29鄰","STREET":"民族路","SECT":" ","MAREA":" ","LANE":" ","ALLEY":" ","HOUSE_NO":"２８１號","E_COORD97":180363.39000000001,"N_COORD97":2579688.7400000002,"ADDRESS":"民族路２８１號","OBJECTID":571033},"geometry":{"x":180363.3900000006,"y":2579688.7400000002}},{"attributes":{"ID":571061,"DIS_CODE":0,"TOWNNAME":"新營區","LI":"王公里","LIN":"29鄰","STREET":"民族路","SECT":" ","MAREA":" ","LANE":" ","ALLEY":" ","HOUSE_NO":"２８３號","E_COORD97":180367.95000000001,"N_COORD97":2579689.1699999999,"ADDRESS":"民族路２８３號","OBJECTID":571034},"geometry":{"x":180367.95000000019,"y":2579689.1699999999}},{"attributes":{"ID":571062,"DIS_CODE":0,"TOWNNAME":"新營區","LI":"王公里","LIN":"29鄰","STREET":"民族路","SECT":" ","MAREA":" ","LANE":" ","ALLEY":" ","HOUSE_NO":"２８５號","E_COORD97":180373.29000000001,"N_COORD97":2579689.23,"ADDRESS":"民族路２８５號","OBJECTID":571035},"geometry":{"x":180373.29000000097,"y":2579689.2300000004}},{"attributes":{"ID":571063,"DIS_CODE":0,"TOWNNAME":"新營區","LI":"王公里","LIN":"29鄰","STREET":"民族路","SECT":" ","MAREA":" ","LANE":" ","ALLEY":" ","HOUSE_NO":"２８７號","E_COORD97":180378.88,"N_COORD97":2579689.6600000001,"ADDRESS":"民族路２８７號","OBJECTID":571036},"geometry":{"x":180378.88000000082,"y":2579689.6600000001}},{"attributes":{"ID":571064,"DIS_CODE":0,"TOWNNAME":"仁德區","LI":"仁義里","LIN":"38鄰","STREET":"中正路","SECT":"二段","MAREA":" ","LANE":" ","ALLEY":" ","HOUSE_NO":"８１０號","E_COORD97":173472.28,"N_COORD97":2540371.52,"ADDRESS":"中正路二段８１０號","OBJECTID":571037},"geometry":{"x":173472.28000000119,"y":2540371.5199999996}},{"attributes":{"ID":571065,"DIS_CODE":0,"TOWNNAME":"仁德區","LI":"仁義里","LIN":"25鄰","STREET":"正義路","SECT":" ","MAREA":" ","LANE":" ","ALLEY":" ","HOUSE_NO":"７８號","E_COORD97":173515.17000000001,"N_COORD97":2541427.2599999998,"ADDRESS":"正義路７８號","OBJECTID":571038},"geometry":{"x":173515.17000000086,"y":2541427.2599999998}},{"attributes":{"ID":571066,"DIS_CODE":0,"TOWNNAME":"仁德區","LI":"太子里","LIN":"33鄰","STREET":"太興路","SECT":" ","MAREA":" ","LANE":" ","ALLEY":" ","HOUSE_NO":"２號","E_COORD97":174069.10000000001,"N_COORD97":2543468,"ADDRESS":"太興路２號","OBJECTID":571039},"geometry":{"x":174069.10000000149,"y":2543467.9999999981}},{"attributes":{"ID":571067,"DIS_CODE":0,"TOWNNAME":"新營區","LI":"王公里","LIN":"29鄰","STREET":"民族路","SECT":" ","MAREA":" ","LANE":" ","ALLEY":" ","HOUSE_NO":"２８９號","E_COORD97":180389.51000000001,"N_COORD97":2579684.29,"ADDRESS":"民族路２８９號","OBJECTID":571040},"geometry":{"x":180389.51000000164,"y":2579684.2899999991}},{"attributes":{"ID":571068,"DIS_CODE":0,"TOWNNAME":"新營區","LI":"王公里","LIN":"29鄰","STREET":"民族路","SECT":" ","MAREA":" ","LANE":" ","ALLEY":" ","HOUSE_NO":"２９１號","E_COORD97":180389.14999999999,"N_COORD97":2579690.0499999998,"ADDRESS":"民族路２９１號","OBJECTID":571041},"geometry":{"x":180389.14999999944,"y":2579690.0500000007}},{"attributes":{"ID":571069,"DIS_CODE":0,"TOWNNAME":"新營區","LI":"王公里","LIN":"29鄰","STREET":"民族路","SECT":" ","MAREA":" ","LANE":" ","ALLEY":" ","HOUSE_NO":"２９３號","E_COORD97":180344.79999999999,"N_COORD97":2579688.4399999999,"ADDRESS":"民族路２９３號","OBJECTID":571042},"geometry":{"x":180344.79999999981,"y":2579688.4400000013}},{"attributes":{"ID":571070,"DIS_CODE":0,"TOWNNAME":"新營區","LI":"新南里","LIN":"29鄰","STREET":"明清一街","SECT":" ","MAREA":" ","LANE":" ","ALLEY":" ","HOUSE_NO":"１５３號","E_COORD97":178143.26999999999,"N_COORD97":2578726.7599999998,"ADDRESS":"明清一街１５３號","OBJECTID":571043},"geometry":{"x":178143.27000000048,"y":2578726.7600000016}},{"attributes":{"ID":571071,"DIS_CODE":0,"TOWNNAME":"新營區","LI":"新南里","LIN":"29鄰","STREET":"明清一街","SECT":" ","MAREA":" ","LANE":" ","ALLEY":" ","HOUSE_NO":"１５５號","E_COORD97":178151.48999999999,"N_COORD97":2578726.2400000002,"ADDRESS":"明清一街１５５號","OBJECTID":571044},"geometry":{"x":178151.49000000115,"y":2578726.2400000002}},{"attributes":{"ID":571072,"DIS_CODE":0,"TOWNNAME":"新營區","LI":"新南里","LIN":"29鄰","STREET":"明清一街","SECT":" ","MAREA":" ","LANE":" ","ALLEY":" ","HOUSE_NO":"６７號","E_COORD97":177998.42000000001,"N_COORD97":2578664.3999999999,"ADDRESS":"明清一街６７號","OBJECTID":571045},"geometry":{"x":177998.42000000179,"y":2578664.4000000004}},{"attributes":{"ID":571073,"DIS_CODE":0,"TOWNNAME":"新營區","LI":"新南里","LIN":"29鄰","STREET":"明清一街","SECT":" ","MAREA":" ","LANE":" ","ALLEY":" ","HOUSE_NO":"６９號","E_COORD97":177994.67999999999,"N_COORD97":2578665.0099999998,"ADDRESS":"明清一街６９號","OBJECTID":571046},"geometry":{"x":177994.68000000156,"y":2578665.0100000016}},{"attributes":{"ID":571074,"DIS_CODE":0,"TOWNNAME":"新營區","LI":"新南里","LIN":"29鄰","STREET":"明清一街","SECT":" ","MAREA":" ","LANE":" ","ALLEY":" ","HOUSE_NO":"７１號","E_COORD97":177989.97,"N_COORD97":2578665.3100000001,"ADDRESS":"明清一街７１號","OBJECTID":571047},"geometry":{"x":177989.97000000067,"y":2578665.3100000005}},{"attributes":{"ID":571075,"DIS_CODE":0,"TOWNNAME":"仁德區","LI":"太子里","LIN":"13鄰","STREET":"長興二街","SECT":" ","MAREA":" ","LANE":" ","ALLEY":" ","HOUSE_NO":"１４號","E_COORD97":174425.31,"N_COORD97":2543710,"ADDRESS":"長興二街１４號","OBJECTID":571048},"geometry":{"x":174425.31000000145,"y":2543710.0000000019}},{"attributes":{"ID":571076,"DIS_CODE":0,"TOWNNAME":"仁德區","LI":"仁德里","LIN":"24鄰","STREET":"文孝路","SECT":" ","MAREA":" ","LANE":" ","ALLEY":" ","HOUSE_NO":"３３號","E_COORD97":172067.64000000001,"N_COORD97":2541395.5699999998,"ADDRESS":"文孝路３３號","OBJECTID":571049},"geometry":{"x":172067.6400000006,"y":2541395.5700000003}},{"attributes":{"ID":571077,"DIS_CODE":0,"TOWNNAME":"仁德區","LI":"太子里","LIN":"30鄰","STREET":"太子路","SECT":" ","MAREA":" ","LANE":" ","ALLEY":" ","HOUSE_NO":"５９１之１號","E_COORD97":173786.79000000001,"N_COORD97":2543506.0499999998,"ADDRESS":"太子路５９１之１號","OBJECTID":571050},"geometry":{"x":173786.7900000019,"y":2543506.0500000045}},{"attributes":{"ID":571078,"DIS_CODE":0,"TOWNNAME":"仁德區","LI":"太子里","LIN":"44鄰","STREET":"太子一街","SECT":" ","MAREA":" ","LANE":" ","ALLEY":" ","HOUSE_NO":"１９號","E_COORD97":174841.10999999999,"N_COORD97":2543405.7599999998,"ADDRESS":"太子一街１９號","OBJECTID":571051},"geometry":{"x":174841.1100000022,"y":2543405.7600000016}},{"attributes":{"ID":571079,"DIS_CODE":0,"TOWNNAME":"新化區","LI":"東榮里","LIN":"29鄰","STREET":"復興路","SECT":" ","MAREA":" ","LANE":" ","ALLEY":" ","HOUSE_NO":"２９３號","E_COORD97":179334.51999999999,"N_COORD97":2548359.25,"ADDRESS":"復興路２９３號","OBJECTID":571052},"geometry":{"x":179334.51999999955,"y":2548359.2500000019}},{"attributes":{"ID":571080,"DIS_CODE":0,"TOWNNAME":"新化區","LI":"東榮里","LIN":"29鄰","STREET":"復興路","SECT":" ","MAREA":" ","LANE":" ","ALLEY":" ","HOUSE_NO":"２５１號","E_COORD97":179355.12,"N_COORD97":2548267.25,"ADDRESS":"復興路２５１號","OBJECTID":571053},"geometry":{"x":179355.12000000197,"y":2548267.2500000037}},{"attributes":{"ID":571081,"DIS_CODE":0,"TOWNNAME":"新化區","LI":"東榮里","LIN":"29鄰","STREET":"復興路","SECT":" ","MAREA":" ","LANE":" ","ALLEY":" ","HOUSE_NO":"２８７號","E_COORD97":179340.51999999999,"N_COORD97":2548336.25,"ADDRESS":"復興路２８７號","OBJECTID":571054},"geometry":{"x":179340.52000000048,"y":2548336.2500000019}},{"attributes":{"ID":571082,"DIS_CODE":0,"TOWNNAME":"新化區","LI":"東榮里","LIN":"29鄰","STREET":"復興路","SECT":" ","MAREA":" ","LANE":" ","ALLEY":" ","HOUSE_NO":"２９１號","E_COORD97":179338.01999999999,"N_COORD97":2548345.25,"ADDRESS":"復興路２９１號","OBJECTID":571055},"geometry":{"x":179338.01999999955,"y":2548345.2500000037}},{"attributes":{"ID":571083,"DIS_CODE":0,"TOWNNAME":"新化區","LI":"東榮里","LIN":"29鄰","STREET":"中興路","SECT":" ","MAREA":" ","LANE":" ","ALLEY":" ","HOUSE_NO":"７７２號","E_COORD97":179316.81,"N_COORD97":2548246.25,"ADDRESS":"中興路７７２號","OBJECTID":571056},"geometry":{"x":179316.80999999959,"y":2548246.25}},{"attributes":{"ID":571084,"DIS_CODE":0,"TOWNNAME":"新化區","LI":"東榮里","LIN":"29鄰","STREET":"中興路","SECT":" ","MAREA":" ","LANE":" ","ALLEY":" ","HOUSE_NO":"７４８號","E_COORD97":179365.41,"N_COORD97":2548226.25,"ADDRESS":"中興路７４８號","OBJECTID":571057},"geometry":{"x":179365.41000000108,"y":2548226.25}},{"attributes":{"ID":571085,"DIS_CODE":0,"TOWNNAME":"新化區","LI":"東榮里","LIN":"29鄰","STREET":"中興路","SECT":" ","MAREA":" ","LANE":" ","ALLEY":" ","HOUSE_NO":"７５０號","E_COORD97":179361.70999999999,"N_COORD97":2548226.25,"ADDRESS":"中興路７５０號","OBJECTID":571058},"geometry":{"x":179361.71000000089,"y":2548226.25}},{"attributes":{"ID":571086,"DIS_CODE":0,"TOWNNAME":"新化區","LI":"東榮里","LIN":"29鄰","STREET":"中興路","SECT":" ","MAREA":" ","LANE":" ","ALLEY":" ","HOUSE_NO":"７９６號","E_COORD97":179272.51000000001,"N_COORD97":2548264.25,"ADDRESS":"中興路７９６號","OBJECTID":571059},"geometry":{"x":179272.51000000164,"y":2548264.2500000019}},{"attributes":{"ID":571087,"DIS_CODE":0,"TOWNNAME":"新化區","LI":"東榮里","LIN":"29鄰","STREET":"中興路","SECT":" ","MAREA":" ","LANE":" ","ALLEY":" ","HOUSE_NO":"７６８號","E_COORD97":179334.10999999999,"N_COORD97":2548237.25,"ADDRESS":"中興路７６８號","OBJECTID":571060},"geometry":{"x":179334.11000000127,"y":2548237.2500000019}},{"attributes":{"ID":571088,"DIS_CODE":0,"TOWNNAME":"新化區","LI":"東榮里","LIN":"29鄰","STREET":"中興路","SECT":" ","MAREA":" ","LANE":" ","ALLEY":" ","HOUSE_NO":"７５２號","E_COORD97":179352.01000000001,"N_COORD97":2548231.25,"ADDRESS":"中興路７５２號","OBJECTID":571061},"geometry":{"x":179352.00999999885,"y":2548231.2500000019}},{"attributes":{"ID":571089,"DIS_CODE":0,"TOWNNAME":"新化區","LI":"東榮里","LIN":"29鄰","STREET":"信義路","SECT":" ","MAREA":" ","LANE":" ","ALLEY":" ","HOUSE_NO":"１５７號之９","E_COORD97":179304.76999999999,"N_COORD97":2548319.2599999998,"ADDRESS":"信義路１５７號之９","OBJECTID":571062},"geometry":{"x":179304.77000000048,"y":2548319.2600000016}},{"attributes":{"ID":571090,"DIS_CODE":0,"TOWNNAME":"新化區","LI":"東榮里","LIN":"29鄰","STREET":"信義路","SECT":" ","MAREA":" ","LANE":" ","ALLEY":" ","HOUSE_NO":"１５７號之４","E_COORD97":179313.56,"N_COORD97":2548362.2599999998,"ADDRESS":"信義路１５７號之４","OBJECTID":571063},"geometry":{"x":179313.55999999959,"y":2548362.2600000016}},{"attributes":{"ID":571091,"DIS_CODE":0,"TOWNNAME":"新化區","LI":"東榮里","LIN":"29鄰","STREET":"信義路","SECT":" ","MAREA":" ","LANE":" ","ALLEY":" ","HOUSE_NO":"１５７號","E_COORD97":179325.23000000001,"N_COORD97":2548382.25,"ADDRESS":"信義路１５７號","OBJECTID":571064},"geometry":{"x":179325.23000000045,"y":2548382.25}},{"attributes":{"ID":571092,"DIS_CODE":0,"TOWNNAME":"仁德區","LI":"仁德里","LIN":"39鄰","STREET":"文宏二街","SECT":" ","MAREA":" ","LANE":" ","ALLEY":" ","HOUSE_NO":"８６號","E_COORD97":172464.20000000001,"N_COORD97":2541747.5800000001,"ADDRESS":"文宏二街８６號","OBJECTID":571065},"geometry":{"x":172464.20000000112,"y":2541747.5800000001}},{"attributes":{"ID":571093,"DIS_CODE":0,"TOWNNAME":"新化區","LI":"東榮里","LIN":"29鄰","STREET":"信義路","SECT":" ","MAREA":" ","LANE":" ","ALLEY":" ","HOUSE_NO":"１５７號之２","E_COORD97":179319.07999999999,"N_COORD97":2548380.2599999998,"ADDRESS":"信義路１５７號之２","OBJECTID":571066},"geometry":{"x":179319.08000000007,"y":2548380.2600000016}},{"attributes":{"ID":571094,"DIS_CODE":0,"TOWNNAME":"新化區","LI":"東榮里","LIN":"29鄰","STREET":"信義路","SECT":" ","MAREA":" ","LANE":" ","ALLEY":" ","HOUSE_NO":"１５７號之１０","E_COORD97":179307.22,"N_COORD97":2548297.2599999998,"ADDRESS":"信義路１５７號之１０","OBJECTID":571067},"geometry":{"x":179307.22000000067,"y":2548297.2599999979}},{"attributes":{"ID":571095,"DIS_CODE":0,"TOWNNAME":"新化區","LI":"東榮里","LIN":"29鄰","STREET":"復興路","SECT":" ","MAREA":" ","LANE":" ","ALLEY":" ","HOUSE_NO":"２５５號","E_COORD97":179352.32000000001,"N_COORD97":2548277.25,"ADDRESS":"復興路２５５號","OBJECTID":571068},"geometry":{"x":179352.32000000216,"y":2548277.2499999981}},{"attributes":{"ID":571096,"DIS_CODE":0,"TOWNNAME":"新化區","LI":"東榮里","LIN":"29鄰","STREET":"復興路","SECT":" ","MAREA":" ","LANE":" ","ALLEY":" ","HOUSE_NO":"２４７號","E_COORD97":179356.01999999999,"N_COORD97":2548258.25,"ADDRESS":"復興路２４７號","OBJECTID":571069},"geometry":{"x":179356.02000000048,"y":2548258.2500000019}},{"attributes":{"ID":571097,"DIS_CODE":0,"TOWNNAME":"新化區","LI":"東榮里","LIN":"29鄰","STREET":"信義路","SECT":" ","MAREA":" ","LANE":" ","ALLEY":" ","HOUSE_NO":"１５７號之８","E_COORD97":179308.39000000001,"N_COORD97":2548321.2599999998,"ADDRESS":"信義路１５７號之８","OBJECTID":571070},"geometry":{"x":179308.38999999966,"y":2548321.2600000035}},{"attributes":{"ID":571098,"DIS_CODE":0,"TOWNNAME":"新化區","LI":"東榮里","LIN":"29鄰","STREET":"復興路","SECT":" ","MAREA":" ","LANE":" ","ALLEY":" ","HOUSE_NO":"２８５號之１","E_COORD97":179345.25,"N_COORD97":2548329.2599999998,"ADDRESS":"復興路２８５號之１","OBJECTID":571071},"geometry":{"x":179345.25,"y":2548329.2600000016}},{"attributes":{"ID":571099,"DIS_CODE":0,"TOWNNAME":"新化區","LI":"東榮里","LIN":"29鄰","STREET":"復興路","SECT":" ","MAREA":" ","LANE":" ","ALLEY":" ","HOUSE_NO":"２６１號","E_COORD97":179354.22,"N_COORD97":2548296.25,"ADDRESS":"復興路２６１號","OBJECTID":571072},"geometry":{"x":179354.22000000067,"y":2548296.25}},{"attributes":{"ID":571100,"DIS_CODE":0,"TOWNNAME":"新化區","LI":"東榮里","LIN":"29鄰","STREET":"復興路","SECT":" ","MAREA":" ","LANE":" ","ALLEY":" ","HOUSE_NO":"２５３號","E_COORD97":179353.22,"N_COORD97":2548272.25,"ADDRESS":"復興路２５３號","OBJECTID":571073},"geometry":{"x":179353.21999999974,"y":2548272.2500000019}},{"attributes":{"ID":571101,"DIS_CODE":0,"TOWNNAME":"新化區","LI":"東榮里","LIN":"29鄰","STREET":"復興路","SECT":" ","MAREA":" ","LANE":" ","ALLEY":" ","HOUSE_NO":"２８５號之２","E_COORD97":179330.59,"N_COORD97":2548338.0800000001,"ADDRESS":"復興路２８５號之２","OBJECTID":571074},"geometry":{"x":179330.58999999985,"y":2548338.0800000001}},{"attributes":{"ID":571102,"DIS_CODE":0,"TOWNNAME":"玉井區","LI":"玉田里","LIN":"29鄰","STREET":"中華路","SECT":" ","MAREA":" ","LANE":" ","ALLEY":" ","HOUSE_NO":"２６７號","E_COORD97":195307.45999999999,"N_COORD97":2557740.6099999999,"ADDRESS":"中華路２６７號","OBJECTID":571075},"geometry":{"x":195307.45999999996,"y":2557740.6100000031}},{"attributes":{"ID":571103,"DIS_CODE":0,"TOWNNAME":"玉井區","LI":"玉田里","LIN":"29鄰","STREET":"中華路","SECT":" ","MAREA":" ","LANE":" ","ALLEY":" ","HOUSE_NO":"２６９號","E_COORD97":195317.41,"N_COORD97":2557734.6400000001,"ADDRESS":"中華路２６９號","OBJECTID":571076},"geometry":{"x":195317.41000000108,"y":2557734.6400000043}},{"attributes":{"ID":571104,"DIS_CODE":0,"TOWNNAME":"玉井區","LI":"玉田里","LIN":"29鄰","STREET":"中華路","SECT":" ","MAREA":" ","LANE":" ","ALLEY":" ","HOUSE_NO":"２７１號","E_COORD97":195323.63,"N_COORD97":2557732.9300000002,"ADDRESS":"中華路２７１號","OBJECTID":571077},"geometry":{"x":195323.63000000082,"y":2557732.9300000016}},{"attributes":{"ID":571105,"DIS_CODE":0,"TOWNNAME":"玉井區","LI":"玉田里","LIN":"29鄰","STREET":"中華路","SECT":" ","MAREA":" ","LANE":" ","ALLEY":" ","HOUSE_NO":"２７３號","E_COORD97":195324.70000000001,"N_COORD97":2557726.8799999999,"ADDRESS":"中華路２７３號","OBJECTID":571078},"geometry":{"x":195324.70000000019,"y":2557726.879999999}},{"attributes":{"ID":571106,"DIS_CODE":0,"TOWNNAME":"玉井區","LI":"玉田里","LIN":"29鄰","STREET":"中華路","SECT":" ","MAREA":" ","LANE":" ","ALLEY":" ","HOUSE_NO":"２７５號","E_COORD97":195329.66,"N_COORD97":2557723.7799999998,"ADDRESS":"中華路２７５號","OBJECTID":571079},"geometry":{"x":195329.66000000015,"y":2557723.7800000012}},{"attributes":{"ID":571107,"DIS_CODE":0,"TOWNNAME":"玉井區","LI":"玉田里","LIN":"29鄰","STREET":"中華路","SECT":" ","MAREA":" ","LANE":" ","ALLEY":" ","HOUSE_NO":"２７７號","E_COORD97":195333.70000000001,"N_COORD97":2557719.9300000002,"ADDRESS":"中華路２７７號","OBJECTID":571080},"geometry":{"x":195333.70000000112,"y":2557719.9299999997}},{"attributes":{"ID":571108,"DIS_CODE":0,"TOWNNAME":"永康區","LI":"\u25A0洲里","LIN":"29鄰","STREET":"洲尾街","SECT":" ","MAREA":" ","LANE":" ","ALLEY":" ","HOUSE_NO":"１９０號","E_COORD97":171131.06,"N_COORD97":2549128.6099999999,"ADDRESS":"洲尾街１９０號","OBJECTID":571081},"geometry":{"x":171131.05999999959,"y":2549128.6099999975}},{"attributes":{"ID":571109,"DIS_CODE":0,"TOWNNAME":"永康區","LI":"\u25A0洲里","LIN":"29鄰","STREET":"洲尾街","SECT":" ","MAREA":" ","LANE":" ","ALLEY":" ","HOUSE_NO":"１９２號","E_COORD97":171133.79999999999,"N_COORD97":2549125.4199999999,"ADDRESS":"洲尾街１９２號","OBJECTID":571082},"geometry":{"x":171133.80000000075,"y":2549125.4200000018}},{"attributes":{"ID":571110,"DIS_CODE":0,"TOWNNAME":"永康區","LI":"\u25A0洲里","LIN":"29鄰","STREET":"洲尾街","SECT":" ","MAREA":" ","LANE":" ","ALLEY":" ","HOUSE_NO":"１９８號","E_COORD97":171140.29999999999,"N_COORD97":2549120,"ADDRESS":"洲尾街１９８號","OBJECTID":571083},"geometry":{"x":171140.30000000168,"y":2549120.0000000037}},{"attributes":{"ID":571111,"DIS_CODE":0,"TOWNNAME":"永康區","LI":"\u25A0洲里","LIN":"29鄰","STREET":"洲尾街","SECT":" ","MAREA":" ","LANE":" ","ALLEY":" ","HOUSE_NO":"１９６號","E_COORD97":171135.17000000001,"N_COORD97":2549120.5499999998,"ADDRESS":"洲尾街１９６號","OBJECTID":571084},"geometry":{"x":171135.17000000086,"y":2549120.5500000045}},{"attributes":{"ID":571112,"DIS_CODE":0,"TOWNNAME":"仁德區","LI":"太子里","LIN":"16鄰","STREET":"太興路","SECT":" ","MAREA":" ","LANE":" ","ALLEY":" ","HOUSE_NO":"１３３號","E_COORD97":174094.39000000001,"N_COORD97":2543620.0099999998,"ADDRESS":"太興路１３３號","OBJECTID":571085},"geometry":{"x":174094.39000000153,"y":2543620.0099999998}},{"attributes":{"ID":571113,"DIS_CODE":0,"TOWNNAME":"仁德區","LI":"仁義里","LIN":"18鄰","STREET":"正義路","SECT":" ","MAREA":" ","LANE":" ","ALLEY":" ","HOUSE_NO":"２２４號","E_COORD97":173989.84,"N_COORD97":2541373.02,"ADDRESS":"正義路２２４號","OBJECTID":571086},"geometry":{"x":173989.84000000171,"y":2541373.0200000014}},{"attributes":{"ID":571114,"DIS_CODE":0,"TOWNNAME":"永康區","LI":"\u25A0洲里","LIN":"29鄰","STREET":"洲尾街","SECT":" ","MAREA":" ","LANE":" ","ALLEY":" ","HOUSE_NO":"１８８號","E_COORD97":171148,"N_COORD97":2549119.8999999999,"ADDRESS":"洲尾街１８８號","OBJECTID":571087},"geometry":{"x":171148.00000000093,"y":2549119.9000000004}},{"attributes":{"ID":571115,"DIS_CODE":0,"TOWNNAME":"永康區","LI":"西灣里","LIN":"29鄰","STREET":"大勇路","SECT":" ","MAREA":" ","LANE":" ","ALLEY":" ","HOUSE_NO":"１５２號之４","E_COORD97":174320.32999999999,"N_COORD97":2545819.29,"ADDRESS":"大勇路１５２號之４","OBJECTID":571088},"geometry":{"x":174320.33000000007,"y":2545819.290000001}},{"attributes":{"ID":571116,"DIS_CODE":0,"TOWNNAME":"永康區","LI":"甲頂里","LIN":"29鄰","STREET":"中央路","SECT":" ","MAREA":" ","LANE":" ","ALLEY":" ","HOUSE_NO":"６１號之１","E_COORD97":169581.42999999999,"N_COORD97":2547091.8100000001,"ADDRESS":"中央路６１號之１","OBJECTID":571089},"geometry":{"x":169581.43000000156,"y":2547091.8100000024}},{"attributes":{"ID":571117,"DIS_CODE":0,"TOWNNAME":"永康區","LI":"西灣里","LIN":"29鄰","STREET":"大勇路","SECT":" ","MAREA":" ","LANE":" ","ALLEY":" ","HOUSE_NO":"１５２之２號","E_COORD97":174320.22,"N_COORD97":2545811.04,"ADDRESS":"大勇路１５２之２號","OBJECTID":571090},"geometry":{"x":174320.21999999974,"y":2545811.040000001}},{"attributes":{"ID":571118,"DIS_CODE":0,"TOWNNAME":"永康區","LI":"西灣里","LIN":"29鄰","STREET":"大勇路","SECT":" ","MAREA":" ","LANE":" ","ALLEY":" ","HOUSE_NO":"１４８號","E_COORD97":174317.42000000001,"N_COORD97":2545794.75,"ADDRESS":"大勇路１４８號","OBJECTID":571091},"geometry":{"x":174317.41999999993,"y":2545794.75}},{"attributes":{"ID":571119,"DIS_CODE":0,"TOWNNAME":"永康區","LI":"西灣里","LIN":"29鄰","STREET":"大勇路","SECT":" ","MAREA":" ","LANE":" ","ALLEY":" ","HOUSE_NO":"１５２號之１","E_COORD97":174319.70999999999,"N_COORD97":2545807.04,"ADDRESS":"大勇路１５２號之１","OBJECTID":571092},"geometry":{"x":174319.71000000183,"y":2545807.040000001}},{"attributes":{"ID":571120,"DIS_CODE":0,"TOWNNAME":"永康區","LI":"西灣里","LIN":"29鄰","STREET":"大勇路","SECT":" ","MAREA":" ","LANE":" ","ALLEY":" ","HOUSE_NO":"１５０號","E_COORD97":174317.34,"N_COORD97":2545799,"ADDRESS":"大勇路１５０號","OBJECTID":571093},"geometry":{"x":174317.34000000078,"y":2545799.0000000019}},{"attributes":{"ID":571121,"DIS_CODE":0,"TOWNNAME":"永康區","LI":"永康里","LIN":"29鄰","STREET":"永康街","SECT":" ","MAREA":" ","LANE":" ","ALLEY":" ","HOUSE_NO":"１９９號","E_COORD97":174129.62,"N_COORD97":2547027.0699999998,"ADDRESS":"永康街１９９號","OBJECTID":571094},"geometry":{"x":174129.62000000104,"y":2547027.0700000003}},{"attributes":{"ID":571122,"DIS_CODE":0,"TOWNNAME":"永康區","LI":"永康里","LIN":"29鄰","STREET":"永康街","SECT":" ","MAREA":" ","LANE":" ","ALLEY":" ","HOUSE_NO":"１９５號","E_COORD97":174114.48999999999,"N_COORD97":2547027.9100000001,"ADDRESS":"永康街１９５號","OBJECTID":571095},"geometry":{"x":174114.48999999929,"y":2547027.9100000001}},{"attributes":{"ID":571123,"DIS_CODE":0,"TOWNNAME":"仁德區","LI":"仁義里","LIN":"26鄰","STREET":"中正路","SECT":"三段","MAREA":" ","LANE":" ","ALLEY":" ","HOUSE_NO":"１４號","E_COORD97":173299.48000000001,"N_COORD97":2541383.77,"ADDRESS":"中正路三段１４號","OBJECTID":571096},"geometry":{"x":173299.48000000231,"y":2541383.7699999996}},{"attributes":{"ID":571124,"DIS_CODE":0,"TOWNNAME":"仁德區","LI":"仁義里","LIN":"25鄰","STREET":"中清一街","SECT":" ","MAREA":" ","LANE":" ","ALLEY":" ","HOUSE_NO":"３號","E_COORD97":173629.42999999999,"N_COORD97":2541329.2999999998,"ADDRESS":"中清一街３號","OBJECTID":571097},"geometry":{"x":173629.4299999997,"y":2541329.3000000026}},{"attributes":{"ID":571125,"DIS_CODE":0,"TOWNNAME":"仁德區","LI":"仁義里","LIN":"25鄰","STREET":"中山路","SECT":" ","MAREA":" ","LANE":" ","ALLEY":" ","HOUSE_NO":"４６２號","E_COORD97":173607.79000000001,"N_COORD97":2541307.9900000002,"ADDRESS":"中山路４６２號","OBJECTID":571098},"geometry":{"x":173607.79000000097,"y":2541307.9900000002}},{"attributes":{"ID":571126,"DIS_CODE":0,"TOWNNAME":"仁德區","LI":"仁義里","LIN":"47鄰","STREET":"仁義路","SECT":" ","MAREA":" ","LANE":" ","ALLEY":" ","HOUSE_NO":"３１號","E_COORD97":173467.01999999999,"N_COORD97":2540961.27,"ADDRESS":"仁義路３１號","OBJECTID":571099},"geometry":{"x":173467.01999999955,"y":2540961.2700000014}},{"attributes":{"ID":571127,"DIS_CODE":0,"TOWNNAME":"新營區","LI":"王公里","LIN":"22鄰","STREET":"大德街","SECT":" ","MAREA":" ","LANE":" ","ALLEY":" ","HOUSE_NO":"１１８號","E_COORD97":180456.03,"N_COORD97":2579473.1200000001,"ADDRESS":"大德街１１８號","OBJECTID":571100},"geometry":{"x":180456.03000000212,"y":2579473.120000001}},{"attributes":{"ID":571128,"DIS_CODE":0,"TOWNNAME":"仁德區","LI":"仁義里","LIN":"26鄰","STREET":"中正路","SECT":"三段","MAREA":" ","LANE":" ","ALLEY":" ","HOUSE_NO":"４號","E_COORD97":173289.10999999999,"N_COORD97":2541361.7799999998,"ADDRESS":"中正路三段４號","OBJECTID":571101},"geometry":{"x":173289.11000000127,"y":2541361.7800000012}},{"attributes":{"ID":571129,"DIS_CODE":0,"TOWNNAME":"仁德區","LI":"仁義里","LIN":"17鄰","STREET":"義林八街","SECT":" ","MAREA":" ","LANE":" ","ALLEY":" ","HOUSE_NO":"１２號","E_COORD97":174288.29999999999,"N_COORD97":2541288.2599999998,"ADDRESS":"義林八街１２號","OBJECTID":571102},"geometry":{"x":174288.30000000168,"y":2541288.2599999998}},{"attributes":{"ID":571130,"DIS_CODE":0,"TOWNNAME":"新化區","LI":"東榮里","LIN":"29鄰","STREET":"復興路","SECT":" ","MAREA":" ","LANE":" ","ALLEY":" ","HOUSE_NO":"２８５號","E_COORD97":179346.82000000001,"N_COORD97":2548325.25,"ADDRESS":"復興路２８５號","OBJECTID":571103},"geometry":{"x":179346.8200000003,"y":2548325.2500000019}},{"attributes":{"ID":571131,"DIS_CODE":0,"TOWNNAME":"新化區","LI":"東榮里","LIN":"29鄰","STREET":"復興路","SECT":" ","MAREA":" ","LANE":" ","ALLEY":" ","HOUSE_NO":"２８３號","E_COORD97":179347.92000000001,"N_COORD97":2548320.2400000002,"ADDRESS":"復興路２８３號","OBJECTID":571104},"geometry":{"x":179347.92000000086,"y":2548320.2400000002}},{"attributes":{"ID":571132,"DIS_CODE":0,"TOWNNAME":"新化區","LI":"東榮里","LIN":"29鄰","STREET":"信義路","SECT":" ","MAREA":" ","LANE":" ","ALLEY":" ","HOUSE_NO":"１５７號之７","E_COORD97":179311.87,"N_COORD97":2548322.2599999998,"ADDRESS":"信義路１５７號之７","OBJECTID":571105},"geometry":{"x":179311.87000000011,"y":2548322.2600000016}},{"attributes":{"ID":571133,"DIS_CODE":0,"TOWNNAME":"新化區","LI":"東榮里","LIN":"29鄰","STREET":"復興路","SECT":" ","MAREA":" ","LANE":" ","ALLEY":" ","HOUSE_NO":"２８１號","E_COORD97":179348.82000000001,"N_COORD97":2548317.25,"ADDRESS":"復興路２８１號","OBJECTID":571106},"geometry":{"x":179348.82000000216,"y":2548317.25}},{"attributes":{"ID":571134,"DIS_CODE":0,"TOWNNAME":"新化區","LI":"東榮里","LIN":"29鄰","STREET":"信義路","SECT":" ","MAREA":" ","LANE":" ","ALLEY":" ","HOUSE_NO":"１５７號之１１","E_COORD97":179308.70999999999,"N_COORD97":2548290.2599999998,"ADDRESS":"信義路１５７號之１１","OBJECTID":571107},"geometry":{"x":179308.71000000089,"y":2548290.2599999998}},{"attributes":{"ID":571135,"DIS_CODE":0,"TOWNNAME":"新化區","LI":"東榮里","LIN":"29鄰","STREET":"復興路","SECT":" ","MAREA":" ","LANE":" ","ALLEY":" ","HOUSE_NO":"２７１號","E_COORD97":179350.72,"N_COORD97":2548309.25,"ADDRESS":"復興路２７１號","OBJECTID":571108},"geometry":{"x":179350.7200000016,"y":2548309.2500000019}},{"attributes":{"ID":571136,"DIS_CODE":0,"TOWNNAME":"新化區","LI":"東榮里","LIN":"29鄰","STREET":"信義路","SECT":" ","MAREA":" ","LANE":" ","ALLEY":" ","HOUSE_NO":"１５７號之５","E_COORD97":179315.39000000001,"N_COORD97":2548354.2599999998,"ADDRESS":"信義路１５７號之５","OBJECTID":571109},"geometry":{"x":179315.38999999873,"y":2548354.2599999998}},{"attributes":{"ID":571137,"DIS_CODE":0,"TOWNNAME":"仁德區","LI":"仁義里","LIN":"25鄰","STREET":"正義一街","SECT":" ","MAREA":" ","LANE":" ","ALLEY":" ","HOUSE_NO":"５８號","E_COORD97":173467.79000000001,"N_COORD97":2541375.77,"ADDRESS":"正義一街５８號","OBJECTID":571110},"geometry":{"x":173467.79000000004,"y":2541375.7699999996}},{"attributes":{"ID":571138,"DIS_CODE":0,"TOWNNAME":"仁德區","LI":"土庫里","LIN":"8鄰","STREET":"土庫六街","SECT":" ","MAREA":" ","LANE":" ","ALLEY":" ","HOUSE_NO":"４３號","E_COORD97":174193.54000000001,"N_COORD97":2543251.2400000002,"ADDRESS":"土庫六街４３號","OBJECTID":571111},"geometry":{"x":174193.54000000004,"y":2543251.2400000021}},{"attributes":{"ID":571139,"DIS_CODE":0,"TOWNNAME":"仁德區","LI":"後壁里","LIN":"29鄰","STREET":"德洋一街","SECT":" ","MAREA":" ","LANE":" ","ALLEY":" ","HOUSE_NO":"６４號","E_COORD97":173192.59,"N_COORD97":2539240.2599999998,"ADDRESS":"德洋一街６４號","OBJECTID":571112},"geometry":{"x":173192.58999999985,"y":2539240.2599999998}},{"attributes":{"ID":571140,"DIS_CODE":0,"TOWNNAME":"仁德區","LI":"後壁里","LIN":"29鄰","STREET":"德洋一街","SECT":" ","MAREA":" ","LANE":" ","ALLEY":" ","HOUSE_NO":"８０號","E_COORD97":173219.04000000001,"N_COORD97":2539274.77,"ADDRESS":"德洋一街８０號","OBJECTID":571113},"geometry":{"x":173219.0400000019,"y":2539274.7699999996}},{"attributes":{"ID":571141,"DIS_CODE":0,"TOWNNAME":"仁德區","LI":"後壁里","LIN":"29鄰","STREET":"德洋一街","SECT":" ","MAREA":" ","LANE":" ","ALLEY":" ","HOUSE_NO":"５８號","E_COORD97":173178.70999999999,"N_COORD97":2539222.7599999998,"ADDRESS":"德洋一街５８號","OBJECTID":571114},"geometry":{"x":173178.71000000183,"y":2539222.7600000016}},{"attributes":{"ID":571142,"DIS_CODE":0,"TOWNNAME":"仁德區","LI":"後壁里","LIN":"29鄰","STREET":"德洋一街","SECT":" ","MAREA":" ","LANE":" ","ALLEY":" ","HOUSE_NO":"７４號","E_COORD97":173205.82999999999,"N_COORD97":2539261.52,"ADDRESS":"德洋一街７４號","OBJECTID":571115},"geometry":{"x":173205.83000000101,"y":2539261.5200000014}},{"attributes":{"ID":571143,"DIS_CODE":0,"TOWNNAME":"仁德區","LI":"太子里","LIN":"29鄰","STREET":"太子四街","SECT":" ","MAREA":" ","LANE":" ","ALLEY":" ","HOUSE_NO":"６７號","E_COORD97":173033.95000000001,"N_COORD97":2542899.5099999998,"ADDRESS":"太子四街６７號","OBJECTID":571116},"geometry":{"x":173033.95000000112,"y":2542899.5100000016}},{"attributes":{"ID":571144,"DIS_CODE":0,"TOWNNAME":"仁德區","LI":"後壁里","LIN":"29鄰","STREET":"德洋一街","SECT":" ","MAREA":" ","LANE":" ","ALLEY":" ","HOUSE_NO":"６２號","E_COORD97":173183.03,"N_COORD97":2539229.2599999998,"ADDRESS":"德洋一街６２號","OBJECTID":571117},"geometry":{"x":173183.03000000026,"y":2539229.2600000016}},{"attributes":{"ID":571145,"DIS_CODE":0,"TOWNNAME":"仁德區","LI":"後壁里","LIN":"29鄰","STREET":"德洋一街","SECT":" ","MAREA":" ","LANE":" ","ALLEY":" ","HOUSE_NO":"２８號","E_COORD97":173118.45999999999,"N_COORD97":2539151.7599999998,"ADDRESS":"德洋一街２８號","OBJECTID":571118},"geometry":{"x":173118.46000000089,"y":2539151.7600000016}},{"attributes":{"ID":571146,"DIS_CODE":0,"TOWNNAME":"永康區","LI":"復華里","LIN":"29鄰","STREET":"國華街","SECT":" ","MAREA":" ","LANE":" ","ALLEY":" ","HOUSE_NO":"１１５號","E_COORD97":172637.75,"N_COORD97":2546234.5600000001,"ADDRESS":"國華街１１５號","OBJECTID":571119},"geometry":{"x":172637.75000000186,"y":2546234.5600000005}},{"attributes":{"ID":571147,"DIS_CODE":0,"TOWNNAME":"仁德區","LI":"太子里","LIN":"39鄰","STREET":"長興一街","SECT":" ","MAREA":" ","LANE":" ","ALLEY":" ","HOUSE_NO":"２號","E_COORD97":174703.85999999999,"N_COORD97":2543696.75,"ADDRESS":"長興一街２號","OBJECTID":571120},"geometry":{"x":174703.8600000022,"y":2543696.75}},{"attributes":{"ID":571148,"DIS_CODE":0,"TOWNNAME":"永康區","LI":"埔園里","LIN":"29鄰","STREET":"埔東街","SECT":" ","MAREA":" ","LANE":" ","ALLEY":" ","HOUSE_NO":"７４號","E_COORD97":173820.26000000001,"N_COORD97":2548257.1600000001,"ADDRESS":"埔東街７４號","OBJECTID":571121},"geometry":{"x":173820.25999999978,"y":2548257.1600000001}},{"attributes":{"ID":571149,"DIS_CODE":0,"TOWNNAME":"永康區","LI":"西灣里","LIN":"29鄰","STREET":"國光八街","SECT":" ","MAREA":" ","LANE":" ","ALLEY":" ","HOUSE_NO":"３０號","E_COORD97":174341.23000000001,"N_COORD97":2545778.4900000002,"ADDRESS":"國光八街３０號","OBJECTID":571122},"geometry":{"x":174341.23000000045,"y":2545778.4900000021}},{"attributes":{"ID":571150,"DIS_CODE":0,"TOWNNAME":"永康區","LI":"復華里","LIN":"29鄰","STREET":"復國一路","SECT":" ","MAREA":" ","LANE":" ","ALLEY":" ","HOUSE_NO":"５０２號","E_COORD97":172603.87,"N_COORD97":2546170.1899999999,"ADDRESS":"復國一路５０２號","OBJECTID":571123},"geometry":{"x":172603.87000000104,"y":2546170.1900000013}},{"attributes":{"ID":571151,"DIS_CODE":0,"TOWNNAME":"永康區","LI":"復國里","LIN":"29鄰","STREET":"復華二街","SECT":" ","MAREA":" ","LANE":" ","ALLEY":" ","HOUSE_NO":"３１號","E_COORD97":172555.37,"N_COORD97":2545346.52,"ADDRESS":"復華二街３１號","OBJECTID":571124},"geometry":{"x":172555.37000000011,"y":2545346.5200000014}},{"attributes":{"ID":571152,"DIS_CODE":0,"TOWNNAME":"永康區","LI":"尚頂里","LIN":"29鄰","STREET":"南台街","SECT":" ","MAREA":" ","LANE":" ","ALLEY":" ","HOUSE_NO":"１２１號","E_COORD97":170085.62,"N_COORD97":2547033.6099999999,"ADDRESS":"南台街１２１號","OBJECTID":571125},"geometry":{"x":170085.62000000011,"y":2547033.6100000031}},{"attributes":{"ID":571153,"DIS_CODE":0,"TOWNNAME":"永康區","LI":"埔園里","LIN":"29鄰","STREET":"埔東街","SECT":" ","MAREA":" ","LANE":" ","ALLEY":" ","HOUSE_NO":"９４號","E_COORD97":173847.20999999999,"N_COORD97":2548309.1899999999,"ADDRESS":"埔東街９４號","OBJECTID":571126},"geometry":{"x":173847.21000000089,"y":2548309.1900000013}},{"attributes":{"ID":571154,"DIS_CODE":0,"TOWNNAME":"東區","LI":"忠孝里","LIN":"29鄰","STREET":"崇明九街","SECT":" ","MAREA":" ","LANE":" ","ALLEY":" ","HOUSE_NO":"５８號","E_COORD97":170089.95999999999,"N_COORD97":2541824.2400000002,"ADDRESS":"崇明九街５８號","OBJECTID":571127},"geometry":{"x":170089.95999999996,"y":2541824.2400000002}},{"attributes":{"ID":571155,"DIS_CODE":0,"TOWNNAME":"東區","LI":"忠孝里","LIN":"29鄰","STREET":"崇明九街","SECT":" ","MAREA":" ","LANE":" ","ALLEY":" ","HOUSE_NO":"５１號","E_COORD97":170068.34,"N_COORD97":2541837.3300000001,"ADDRESS":"崇明九街５１號","OBJECTID":571128},"geometry":{"x":170068.33999999985,"y":2541837.3300000001}},{"attributes":{"ID":571156,"DIS_CODE":0,"TOWNNAME":"新化區","LI":"東榮里","LIN":"29鄰","STREET":"中興路","SECT":" ","MAREA":" ","LANE":" ","ALLEY":" ","HOUSE_NO":"７５６號","E_COORD97":179341.60999999999,"N_COORD97":2548234.25,"ADDRESS":"中興路７５６號","OBJECTID":571129},"geometry":{"x":179341.61000000034,"y":2548234.2500000019}},{"attributes":{"ID":571157,"DIS_CODE":0,"TOWNNAME":"東區","LI":"小東里","LIN":"29鄰","STREET":"東和路","SECT":" ","MAREA":" ","LANE":" ","ALLEY":" ","HOUSE_NO":"６２號","E_COORD97":170840.45999999999,"N_COORD97":2544336.0800000001,"ADDRESS":"東和路６２號","OBJECTID":571130},"geometry":{"x":170840.45999999996,"y":2544336.0800000019}},{"attributes":{"ID":571158,"DIS_CODE":0,"TOWNNAME":"東區","LI":"忠孝里","LIN":"29鄰","STREET":"崇明九街","SECT":" ","MAREA":" ","LANE":" ","ALLEY":" ","HOUSE_NO":"３號","E_COORD97":169969.01000000001,"N_COORD97":2541772.9199999999,"ADDRESS":"崇明九街３號","OBJECTID":571131},"geometry":{"x":169969.00999999978,"y":2541772.9199999999}},{"attributes":{"ID":571159,"DIS_CODE":0,"TOWNNAME":"東區","LI":"忠孝里","LIN":"29鄰","STREET":"崇明九街","SECT":" ","MAREA":" ","LANE":" ","ALLEY":" ","HOUSE_NO":"１５號","E_COORD97":169992.10000000001,"N_COORD97":2541786.75,"ADDRESS":"崇明九街１５號","OBJECTID":571132},"geometry":{"x":169992.0999999987,"y":2541786.75}},{"attributes":{"ID":571160,"DIS_CODE":0,"TOWNNAME":"東區","LI":"忠孝里","LIN":"29鄰","STREET":"崇明九街","SECT":" ","MAREA":" ","LANE":" ","ALLEY":" ","HOUSE_NO":"１７號","E_COORD97":169999.23999999999,"N_COORD97":2541790.9399999999,"ADDRESS":"崇明九街１７號","OBJECTID":571133},"geometry":{"x":169999.24000000115,"y":2541790.9400000013}},{"attributes":{"ID":571161,"DIS_CODE":0,"TOWNNAME":"東區","LI":"忠孝里","LIN":"29鄰","STREET":"崇明九街","SECT":" ","MAREA":" ","LANE":" ","ALLEY":" ","HOUSE_NO":"１９號","E_COORD97":170004.48000000001,"N_COORD97":2541793.6699999999,"ADDRESS":"崇明九街１９號","OBJECTID":571134},"geometry":{"x":170004.48000000138,"y":2541793.6700000018}},{"attributes":{"ID":571162,"DIS_CODE":0,"TOWNNAME":"東區","LI":"忠孝里","LIN":"29鄰","STREET":"崇明九街","SECT":" ","MAREA":" ","LANE":" ","ALLEY":" ","HOUSE_NO":"２１號","E_COORD97":170011.62,"N_COORD97":2541797.4399999999,"ADDRESS":"崇明九街２１號","OBJECTID":571135},"geometry":{"x":170011.62000000104,"y":2541797.4400000013}},{"attributes":{"ID":571163,"DIS_CODE":0,"TOWNNAME":"東區","LI":"忠孝里","LIN":"29鄰","STREET":"崇明九街","SECT":" ","MAREA":" ","LANE":" ","ALLEY":" ","HOUSE_NO":"２３號","E_COORD97":170016.66,"N_COORD97":2541801,"ADDRESS":"崇明九街２３號","OBJECTID":571136},"geometry":{"x":170016.66000000108,"y":2541801.0000000019}},{"attributes":{"ID":571164,"DIS_CODE":0,"TOWNNAME":"東區","LI":"忠孝里","LIN":"29鄰","STREET":"崇明九街","SECT":" ","MAREA":" ","LANE":" ","ALLEY":" ","HOUSE_NO":"２５號","E_COORD97":170020.42999999999,"N_COORD97":2541802.8900000001,"ADDRESS":"崇明九街２５號","OBJECTID":571137},"geometry":{"x":170020.42999999877,"y":2541802.8900000025}},{"attributes":{"ID":571165,"DIS_CODE":0,"TOWNNAME":"東區","LI":"忠孝里","LIN":"29鄰","STREET":"崇明九街","SECT":" ","MAREA":" ","LANE":" ","ALLEY":" ","HOUSE_NO":"２７號","E_COORD97":170024.63,"N_COORD97":2541806.2400000002,"ADDRESS":"崇明九街２７號","OBJECTID":571138},"geometry":{"x":170024.63000000082,"y":2541806.2400000021}},{"attributes":{"ID":571166,"DIS_CODE":0,"TOWNNAME":"東區","LI":"忠孝里","LIN":"29鄰","STREET":"崇明九街","SECT":" ","MAREA":" ","LANE":" ","ALLEY":" ","HOUSE_NO":"２９號","E_COORD97":170027.35999999999,"N_COORD97":2541807.9199999999,"ADDRESS":"崇明九街２９號","OBJECTID":571139},"geometry":{"x":170027.36000000127,"y":2541807.9200000018}},{"attributes":{"ID":571167,"DIS_CODE":0,"TOWNNAME":"東區","LI":"忠孝里","LIN":"29鄰","STREET":"崇明九街","SECT":" ","MAREA":" ","LANE":" ","ALLEY":" ","HOUSE_NO":"３１號","E_COORD97":170031.35000000001,"N_COORD97":2541810.4300000002,"ADDRESS":"崇明九街３１號","OBJECTID":571140},"geometry":{"x":170031.35000000056,"y":2541810.4300000034}},{"attributes":{"ID":571168,"DIS_CODE":0,"TOWNNAME":"東區","LI":"忠孝里","LIN":"29鄰","STREET":"崇明九街","SECT":" ","MAREA":" ","LANE":" ","ALLEY":" ","HOUSE_NO":"３５號","E_COORD97":170042.51999999999,"N_COORD97":2541817.6299999999,"ADDRESS":"崇明九街３５號","OBJECTID":571141},"geometry":{"x":170042.52000000048,"y":2541817.629999999}},{"attributes":{"ID":571169,"DIS_CODE":0,"TOWNNAME":"東區","LI":"忠孝里","LIN":"29鄰","STREET":"崇明九街","SECT":" ","MAREA":" ","LANE":" ","ALLEY":" ","HOUSE_NO":"３７號","E_COORD97":170044.82999999999,"N_COORD97":2541820.1499999999,"ADDRESS":"崇明九街３７號","OBJECTID":571142},"geometry":{"x":170044.83000000007,"y":2541820.1500000041}},{"attributes":{"ID":571170,"DIS_CODE":0,"TOWNNAME":"東區","LI":"忠孝里","LIN":"29鄰","STREET":"崇明九街","SECT":" ","MAREA":" ","LANE":" ","ALLEY":" ","HOUSE_NO":"３９號","E_COORD97":170048.82000000001,"N_COORD97":2541822.2400000002,"ADDRESS":"崇明九街３９號","OBJECTID":571143},"geometry":{"x":170048.8200000003,"y":2541822.2399999984}},{"attributes":{"ID":571171,"DIS_CODE":0,"TOWNNAME":"東區","LI":"忠孝里","LIN":"29鄰","STREET":"崇明九街","SECT":" ","MAREA":" ","LANE":" ","ALLEY":" ","HOUSE_NO":"４１號","E_COORD97":170051.34,"N_COORD97":2541824.5499999998,"ADDRESS":"崇明九街４１號","OBJECTID":571144},"geometry":{"x":170051.33999999985,"y":2541824.5500000045}},{"attributes":{"ID":571172,"DIS_CODE":0,"TOWNNAME":"東區","LI":"忠孝里","LIN":"29鄰","STREET":"崇明九街","SECT":" ","MAREA":" ","LANE":" ","ALLEY":" ","HOUSE_NO":"５６號","E_COORD97":170087.10999999999,"N_COORD97":2541821.8300000001,"ADDRESS":"崇明九街５６號","OBJECTID":571145},"geometry":{"x":170087.11000000034,"y":2541821.8300000038}},{"attributes":{"ID":571173,"DIS_CODE":0,"TOWNNAME":"東區","LI":"忠孝里","LIN":"29鄰","STREET":"崇明九街","SECT":" ","MAREA":" ","LANE":" ","ALLEY":" ","HOUSE_NO":"６０號","E_COORD97":170093.67000000001,"N_COORD97":2541826.7400000002,"ADDRESS":"崇明九街６０號","OBJECTID":571146},"geometry":{"x":170093.67000000179,"y":2541826.7400000021}},{"attributes":{"ID":571174,"DIS_CODE":0,"TOWNNAME":"東區","LI":"忠孝里","LIN":"29鄰","STREET":"崇明九街","SECT":" ","MAREA":" ","LANE":" ","ALLEY":" ","HOUSE_NO":"６２號","E_COORD97":170096.78,"N_COORD97":2541829.7599999998,"ADDRESS":"崇明九街６２號","OBJECTID":571147},"geometry":{"x":170096.78000000212,"y":2541829.7600000016}},{"attributes":{"ID":571175,"DIS_CODE":0,"TOWNNAME":"東區","LI":"忠孝里","LIN":"29鄰","STREET":"崇明九街","SECT":" ","MAREA":" ","LANE":" ","ALLEY":" ","HOUSE_NO":"６４號","E_COORD97":170100.57999999999,"N_COORD97":2541832.6099999999,"ADDRESS":"崇明九街６４號","OBJECTID":571148},"geometry":{"x":170100.58000000007,"y":2541832.6100000031}},{"attributes":{"ID":571176,"DIS_CODE":0,"TOWNNAME":"東區","LI":"忠孝里","LIN":"29鄰","STREET":"崇明九街","SECT":" ","MAREA":" ","LANE":" ","ALLEY":" ","HOUSE_NO":"６６號","E_COORD97":170103.95000000001,"N_COORD97":2541835.7999999998,"ADDRESS":"崇明九街６６號","OBJECTID":571149},"geometry":{"x":170103.95000000205,"y":2541835.8000000007}},{"attributes":{"ID":571177,"DIS_CODE":0,"TOWNNAME":"仁德區","LI":"仁義里","LIN":"30鄰","STREET":"中清二街","SECT":" ","MAREA":" ","LANE":" ","ALLEY":" ","HOUSE_NO":"３０號","E_COORD97":173575.85000000001,"N_COORD97":2541478.2999999998,"ADDRESS":"中清二街３０號","OBJECTID":571150},"geometry":{"x":173575.85000000149,"y":2541478.3000000026}},{"attributes":{"ID":571178,"DIS_CODE":0,"TOWNNAME":"東區","LI":"忠孝里","LIN":"29鄰","STREET":"崇明九街","SECT":" ","MAREA":" ","LANE":" ","ALLEY":" ","HOUSE_NO":"６８號","E_COORD97":170107.57999999999,"N_COORD97":2541838.9900000002,"ADDRESS":"崇明九街６８號","OBJECTID":571151},"geometry":{"x":170107.58000000007,"y":2541838.9900000021}},{"attributes":{"ID":571179,"DIS_CODE":0,"TOWNNAME":"東區","LI":"忠孝里","LIN":"29鄰","STREET":"崇明九街","SECT":" ","MAREA":" ","LANE":" ","ALLEY":" ","HOUSE_NO":"７０號","E_COORD97":170111.32000000001,"N_COORD97":2541841.27,"ADDRESS":"崇明九街７０號","OBJECTID":571152},"geometry":{"x":170111.3200000003,"y":2541841.2699999996}},{"attributes":{"ID":571180,"DIS_CODE":0,"TOWNNAME":"東區","LI":"忠孝里","LIN":"29鄰","STREET":"崇明九街","SECT":" ","MAREA":" ","LANE":" ","ALLEY":" ","HOUSE_NO":"７２號","E_COORD97":170114.76999999999,"N_COORD97":2541844.8900000001,"ADDRESS":"崇明九街７２號","OBJECTID":571153},"geometry":{"x":170114.77000000142,"y":2541844.8900000006}},{"attributes":{"ID":571181,"DIS_CODE":0,"TOWNNAME":"東區","LI":"忠孝里","LIN":"29鄰","STREET":"崇明九街","SECT":" ","MAREA":" ","LANE":" ","ALLEY":" ","HOUSE_NO":"７４號","E_COORD97":170118.82999999999,"N_COORD97":2541847.6499999999,"ADDRESS":"崇明九街７４號","OBJECTID":571154},"geometry":{"x":170118.83000000101,"y":2541847.6500000022}},{"attributes":{"ID":571182,"DIS_CODE":0,"TOWNNAME":"東區","LI":"忠孝里","LIN":"29鄰","STREET":"崇明九街","SECT":" ","MAREA":" ","LANE":" ","ALLEY":" ","HOUSE_NO":"４５號","E_COORD97":170059.31,"N_COORD97":2541828.5299999998,"ADDRESS":"崇明九街４５號","OBJECTID":571155},"geometry":{"x":170059.31000000052,"y":2541828.5299999993}},{"attributes":{"ID":571183,"DIS_CODE":0,"TOWNNAME":"東區","LI":"忠孝里","LIN":"29鄰","STREET":"崇明九街","SECT":" ","MAREA":" ","LANE":" ","ALLEY":" ","HOUSE_NO":"４７號","E_COORD97":170062.45999999999,"N_COORD97":2541831.8900000001,"ADDRESS":"崇明九街４７號","OBJECTID":571156},"geometry":{"x":170062.45999999996,"y":2541831.8899999987}},{"attributes":{"ID":571184,"DIS_CODE":0,"TOWNNAME":"東區","LI":"忠孝里","LIN":"29鄰","STREET":"崇明九街","SECT":" ","MAREA":" ","LANE":" ","ALLEY":" ","HOUSE_NO":"４９號","E_COORD97":170065.82000000001,"N_COORD97":2541834.8199999998,"ADDRESS":"崇明九街４９號","OBJECTID":571157},"geometry":{"x":170065.8200000003,"y":2541834.8200000003}},{"attributes":{"ID":571185,"DIS_CODE":0,"TOWNNAME":"東區","LI":"忠孝里","LIN":"29鄰","STREET":"崇明九街","SECT":" ","MAREA":" ","LANE":" ","ALLEY":" ","HOUSE_NO":"５３號","E_COORD97":170071.07000000001,"N_COORD97":2541839.4300000002,"ADDRESS":"崇明九街５３號","OBJECTID":571158},"geometry":{"x":170071.07000000216,"y":2541839.4299999997}},{"attributes":{"ID":571186,"DIS_CODE":0,"TOWNNAME":"東區","LI":"忠孝里","LIN":"29鄰","STREET":"崇明九街","SECT":" ","MAREA":" ","LANE":" ","ALLEY":" ","HOUSE_NO":"５５號","E_COORD97":170075.04999999999,"N_COORD97":2541842.3700000001,"ADDRESS":"崇明九街５５號","OBJECTID":571159},"geometry":{"x":170075.04999999981,"y":2541842.370000001}},{"attributes":{"ID":571187,"DIS_CODE":0,"TOWNNAME":"東區","LI":"忠孝里","LIN":"29鄰","STREET":"崇明九街","SECT":" ","MAREA":" ","LANE":" ","ALLEY":" ","HOUSE_NO":"５７號","E_COORD97":170079.45999999999,"N_COORD97":2541844.46,"ADDRESS":"崇明九街５７號","OBJECTID":571160},"geometry":{"x":170079.45999999996,"y":2541844.4600000009}},{"attributes":{"ID":571188,"DIS_CODE":0,"TOWNNAME":"東區","LI":"忠孝里","LIN":"29鄰","STREET":"崇明九街","SECT":" ","MAREA":" ","LANE":" ","ALLEY":" ","HOUSE_NO":"５９號","E_COORD97":170081.98000000001,"N_COORD97":2541846.3500000001,"ADDRESS":"崇明九街５９號","OBJECTID":571161},"geometry":{"x":170081.98000000231,"y":2541846.3500000015}},{"attributes":{"ID":571189,"DIS_CODE":0,"TOWNNAME":"東區","LI":"忠孝里","LIN":"29鄰","STREET":"崇明九街","SECT":" ","MAREA":" ","LANE":" ","ALLEY":" ","HOUSE_NO":"６１號","E_COORD97":170085.54999999999,"N_COORD97":2541849.7000000002,"ADDRESS":"崇明九街６１號","OBJECTID":571162},"geometry":{"x":170085.54999999981,"y":2541849.7000000011}},{"attributes":{"ID":571190,"DIS_CODE":0,"TOWNNAME":"東區","LI":"忠孝里","LIN":"29鄰","STREET":"崇明九街","SECT":" ","MAREA":" ","LANE":" ","ALLEY":" ","HOUSE_NO":"６３號","E_COORD97":170088.91,"N_COORD97":2541852.8500000001,"ADDRESS":"崇明九街６３號","OBJECTID":571163},"geometry":{"x":170088.91000000201,"y":2541852.8500000015}},{"attributes":{"ID":571191,"DIS_CODE":0,"TOWNNAME":"東區","LI":"忠孝里","LIN":"29鄰","STREET":"崇明九街","SECT":" ","MAREA":" ","LANE":" ","ALLEY":" ","HOUSE_NO":"６５號","E_COORD97":170091.48000000001,"N_COORD97":2541855.6299999999,"ADDRESS":"崇明九街６５號","OBJECTID":571164},"geometry":{"x":170091.48000000045,"y":2541855.6299999971}},{"attributes":{"ID":571192,"DIS_CODE":0,"TOWNNAME":"東區","LI":"忠孝里","LIN":"29鄰","STREET":"崇明九街","SECT":" ","MAREA":" ","LANE":" ","ALLEY":" ","HOUSE_NO":"６７號","E_COORD97":170094.82999999999,"N_COORD97":2541858.5699999998,"ADDRESS":"崇明九街６７號","OBJECTID":571165},"geometry":{"x":170094.83000000101,"y":2541858.5700000022}},{"attributes":{"ID":571193,"DIS_CODE":0,"TOWNNAME":"東區","LI":"忠孝里","LIN":"29鄰","STREET":"崇明九街","SECT":" ","MAREA":" ","LANE":" ","ALLEY":" ","HOUSE_NO":"６９號","E_COORD97":170097.35000000001,"N_COORD97":2541861.9199999999,"ADDRESS":"崇明九街６９號","OBJECTID":571166},"geometry":{"x":170097.35000000149,"y":2541861.9200000037}},{"attributes":{"ID":571194,"DIS_CODE":0,"TOWNNAME":"東區","LI":"忠孝里","LIN":"29鄰","STREET":"崇明九街","SECT":" ","MAREA":" ","LANE":" ","ALLEY":" ","HOUSE_NO":"７３號","E_COORD97":170103.23000000001,"N_COORD97":2541868.21,"ADDRESS":"崇明九街７３號","OBJECTID":571167},"geometry":{"x":170103.23000000045,"y":2541868.2100000028}},{"attributes":{"ID":571195,"DIS_CODE":0,"TOWNNAME":"東區","LI":"忠孝里","LIN":"29鄰","STREET":"崇明九街","SECT":" ","MAREA":" ","LANE":" ","ALLEY":" ","HOUSE_NO":"４３號","E_COORD97":170055.32999999999,"N_COORD97":2541827.27,"ADDRESS":"崇明九街４３號","OBJECTID":571168},"geometry":{"x":170055.33000000007,"y":2541827.2699999996}},{"attributes":{"ID":571196,"DIS_CODE":0,"TOWNNAME":"仁德區","LI":"仁德里","LIN":"16鄰","STREET":"中山路","SECT":" ","MAREA":" ","LANE":" ","ALLEY":" ","HOUSE_NO":"８６１號","E_COORD97":172505.54000000001,"N_COORD97":2541549,"ADDRESS":"中山路８６１號","OBJECTID":571169},"geometry":{"x":172505.54000000097,"y":2541548.9999999981}},{"attributes":{"ID":571197,"DIS_CODE":0,"TOWNNAME":"仁德區","LI":"仁義里","LIN":"34鄰","STREET":"正義三街","SECT":" ","MAREA":" ","LANE":" ","ALLEY":" ","HOUSE_NO":"３０號","E_COORD97":173476.10000000001,"N_COORD97":2541593.7599999998,"ADDRESS":"正義三街３０號","OBJECTID":571170},"geometry":{"x":173476.10000000056,"y":2541593.7599999998}},{"attributes":{"ID":571198,"DIS_CODE":0,"TOWNNAME":"永康區","LI":"埔園里","LIN":"29鄰","STREET":"埔東街","SECT":" ","MAREA":" ","LANE":" ","ALLEY":" ","HOUSE_NO":"４８號","E_COORD97":173791.72,"N_COORD97":2548154.48,"ADDRESS":"埔東街４８號","OBJECTID":571171},"geometry":{"x":173791.71999999974,"y":2548154.4800000042}},{"attributes":{"ID":571199,"DIS_CODE":0,"TOWNNAME":"仁德區","LI":"仁義里","LIN":"53鄰","STREET":"仁義三街","SECT":" ","MAREA":" ","LANE":" ","ALLEY":" ","HOUSE_NO":"７７號","E_COORD97":173488.25,"N_COORD97":2541136.27,"ADDRESS":"仁義三街７７號","OBJECTID":571172},"geometry":{"x":173488.25,"y":2541136.2699999996}},{"attributes":{"ID":571200,"DIS_CODE":0,"TOWNNAME":"永康區","LI":"埔園里","LIN":"29鄰","STREET":"埔東街","SECT":" ","MAREA":" ","LANE":" ","ALLEY":" ","HOUSE_NO":"１２號之３７","E_COORD97":173839.17999999999,"N_COORD97":2548067.3500000001,"ADDRESS":"埔東街１２號之３７","OBJECTID":571173},"geometry":{"x":173839.1799999997,"y":2548067.3500000015}},{"attributes":{"ID":571201,"DIS_CODE":0,"TOWNNAME":"永康區","LI":"埔園里","LIN":"29鄰","STREET":"埔東街","SECT":" ","MAREA":" ","LANE":" ","ALLEY":" ","HOUSE_NO":"４２號","E_COORD97":173791.82999999999,"N_COORD97":2548141.48,"ADDRESS":"埔東街４２號","OBJECTID":571174},"geometry":{"x":173791.83000000194,"y":2548141.4800000023}},{"attributes":{"ID":571202,"DIS_CODE":0,"TOWNNAME":"永康區","LI":"埔園里","LIN":"29鄰","STREET":"埔東街","SECT":" ","MAREA":" ","LANE":" ","ALLEY":" ","HOUSE_NO":"３６號","E_COORD97":173792.37,"N_COORD97":2548129.73,"ADDRESS":"埔東街３６號","OBJECTID":571175},"geometry":{"x":173792.37000000011,"y":2548129.7300000023}},{"attributes":{"ID":571203,"DIS_CODE":0,"TOWNNAME":"永康區","LI":"埔園里","LIN":"29鄰","STREET":"埔東街","SECT":" ","MAREA":" ","LANE":" ","ALLEY":" ","HOUSE_NO":"６６號","E_COORD97":173798.26000000001,"N_COORD97":2548225.8799999999,"ADDRESS":"埔東街６６號","OBJECTID":571176},"geometry":{"x":173798.25999999978,"y":2548225.8800000008}},{"attributes":{"ID":571204,"DIS_CODE":0,"TOWNNAME":"永康區","LI":"埔園里","LIN":"29鄰","STREET":"埔東街","SECT":" ","MAREA":" ","LANE":" ","ALLEY":" ","HOUSE_NO":"３４號","E_COORD97":173792.67000000001,"N_COORD97":2548125.73,"ADDRESS":"埔東街３４號","OBJECTID":571177},"geometry":{"x":173792.67000000179,"y":2548125.7300000042}},{"attributes":{"ID":571205,"DIS_CODE":0,"TOWNNAME":"永康區","LI":"埔園里","LIN":"29鄰","STREET":"埔東街","SECT":" ","MAREA":" ","LANE":" ","ALLEY":" ","HOUSE_NO":"４２號之１","E_COORD97":173793.70000000001,"N_COORD97":2548146.27,"ADDRESS":"埔東街４２號之１","OBJECTID":571178},"geometry":{"x":173793.70000000019,"y":2548146.2700000014}},{"attributes":{"ID":571206,"DIS_CODE":0,"TOWNNAME":"永康區","LI":"埔園里","LIN":"29鄰","STREET":"埔東街","SECT":" ","MAREA":" ","LANE":" ","ALLEY":" ","HOUSE_NO":"４６號","E_COORD97":173791.57000000001,"N_COORD97":2548150.48,"ADDRESS":"埔東街４６號","OBJECTID":571179},"geometry":{"x":173791.5700000003,"y":2548150.4800000004}},{"attributes":{"ID":571207,"DIS_CODE":0,"TOWNNAME":"永康區","LI":"埔園里","LIN":"29鄰","STREET":"埔東街","SECT":" ","MAREA":" ","LANE":" ","ALLEY":" ","HOUSE_NO":"６８號","E_COORD97":173803.31,"N_COORD97":2548229.6299999999,"ADDRESS":"埔東街６８號","OBJECTID":571180},"geometry":{"x":173803.31000000145,"y":2548229.6300000027}},{"attributes":{"ID":571208,"DIS_CODE":0,"TOWNNAME":"仁德區","LI":"仁義里","LIN":"34鄰","STREET":"正義三街","SECT":" ","MAREA":" ","LANE":" ","ALLEY":" ","HOUSE_NO":"３４號","E_COORD97":173484.75,"N_COORD97":2541594.2599999998,"ADDRESS":"正義三街３４號","OBJECTID":571181},"geometry":{"x":173484.75,"y":2541594.2599999998}},{"attributes":{"ID":571209,"DIS_CODE":0,"TOWNNAME":"仁德區","LI":"仁義里","LIN":"1鄰","STREET":"義林五街","SECT":" ","MAREA":" ","LANE":" ","ALLEY":" ","HOUSE_NO":"１３２號","E_COORD97":174127.92999999999,"N_COORD97":2541055.52,"ADDRESS":"義林五街１３２號","OBJECTID":571182},"geometry":{"x":174127.93000000156,"y":2541055.5199999996}},{"attributes":{"ID":571210,"DIS_CODE":0,"TOWNNAME":"永康區","LI":"東灣里","LIN":"29鄰","STREET":"民族路","SECT":" ","MAREA":" ","LANE":" ","ALLEY":" ","HOUSE_NO":"２２７號","E_COORD97":175186.59,"N_COORD97":2544968.3300000001,"ADDRESS":"民族路２２７號","OBJECTID":571183},"geometry":{"x":175186.59000000171,"y":2544968.3300000019}},{"attributes":{"ID":571211,"DIS_CODE":0,"TOWNNAME":"永康區","LI":"東灣里","LIN":"29鄰","STREET":"民族路","SECT":" ","MAREA":" ","LANE":" ","ALLEY":" ","HOUSE_NO":"２６１號","E_COORD97":175139.01999999999,"N_COORD97":2545025.4500000002,"ADDRESS":"民族路２６１號","OBJECTID":571184},"geometry":{"x":175139.01999999955,"y":2545025.4500000011}},{"attributes":{"ID":571212,"DIS_CODE":0,"TOWNNAME":"永康區","LI":"埔園里","LIN":"29鄰","STREET":"埔東街","SECT":" ","MAREA":" ","LANE":" ","ALLEY":" ","HOUSE_NO":"８４號","E_COORD97":173835.53,"N_COORD97":2548284.1899999999,"ADDRESS":"埔東街８４號","OBJECTID":571185},"geometry":{"x":173835.53000000026,"y":2548284.1900000032}},{"attributes":{"ID":571213,"DIS_CODE":0,"TOWNNAME":"永康區","LI":"埔園里","LIN":"29鄰","STREET":"埔東街","SECT":" ","MAREA":" ","LANE":" ","ALLEY":" ","HOUSE_NO":"８２號","E_COORD97":173835.39000000001,"N_COORD97":2548279.4399999999,"ADDRESS":"埔東街８２號","OBJECTID":571186},"geometry":{"x":173835.3900000006,"y":2548279.4400000013}},{"attributes":{"ID":571214,"DIS_CODE":0,"TOWNNAME":"永康區","LI":"東灣里","LIN":"29鄰","STREET":"民族路","SECT":" ","MAREA":" ","LANE":" ","ALLEY":" ","HOUSE_NO":"１８５號","E_COORD97":175254.34,"N_COORD97":2544883.1800000002,"ADDRESS":"民族路１８５號","OBJECTID":571187},"geometry":{"x":175254.34000000171,"y":2544883.1799999997}},{"attributes":{"ID":571215,"DIS_CODE":0,"TOWNNAME":"永康區","LI":"東灣里","LIN":"29鄰","STREET":"民族路","SECT":" ","MAREA":" ","LANE":" ","ALLEY":" ","HOUSE_NO":"２５１號","E_COORD97":175152.62,"N_COORD97":2545009.7000000002,"ADDRESS":"民族路２５１號","OBJECTID":571188},"geometry":{"x":175152.61999999918,"y":2545009.7000000011}},{"attributes":{"ID":571216,"DIS_CODE":0,"TOWNNAME":"永康區","LI":"埔園里","LIN":"29鄰","STREET":"埔東街","SECT":" ","MAREA":" ","LANE":" ","ALLEY":" ","HOUSE_NO":"９２號","E_COORD97":173840.39000000001,"N_COORD97":2548302.3199999998,"ADDRESS":"埔東街９２號","OBJECTID":571189},"geometry":{"x":173840.3900000006,"y":2548302.3200000022}},{"attributes":{"ID":571217,"DIS_CODE":0,"TOWNNAME":"安南區","LI":"\u25A0南里","LIN":"29鄰","STREET":"環福街","SECT":" ","MAREA":" ","LANE":" ","ALLEY":" ","HOUSE_NO":"２６２號","E_COORD97":170188.51000000001,"N_COORD97":2552696.7400000002,"ADDRESS":"環福街２６２號","OBJECTID":571190},"geometry":{"x":170188.51000000071,"y":2552696.7400000021}},{"attributes":{"ID":571218,"DIS_CODE":0,"TOWNNAME":"安南區","LI":"\u25A0南里","LIN":"29鄰","STREET":"環福街","SECT":" ","MAREA":" ","LANE":" ","ALLEY":" ","HOUSE_NO":"２６４號","E_COORD97":170183.31,"N_COORD97":2552696.4300000002,"ADDRESS":"環福街２６４號","OBJECTID":571191},"geometry":{"x":170183.30999999959,"y":2552696.4299999997}},{"attributes":{"ID":571219,"DIS_CODE":0,"TOWNNAME":"安南區","LI":"\u25A0南里","LIN":"29鄰","STREET":"環福街","SECT":" ","MAREA":" ","LANE":" ","ALLEY":" ","HOUSE_NO":"２７８號","E_COORD97":170155.17999999999,"N_COORD97":2552690.9399999999,"ADDRESS":"環福街２７８號","OBJECTID":571192},"geometry":{"x":170155.18000000063,"y":2552690.9400000013}},{"attributes":{"ID":571220,"DIS_CODE":0,"TOWNNAME":"安南區","LI":"\u25A0南里","LIN":"29鄰","STREET":"環福街","SECT":" ","MAREA":" ","LANE":" ","ALLEY":" ","HOUSE_NO":"２８２號","E_COORD97":170147.84,"N_COORD97":2552692.1600000001,"ADDRESS":"環福街２８２號","OBJECTID":571193},"geometry":{"x":170147.83999999985,"y":2552692.1600000001}},{"attributes":{"ID":571221,"DIS_CODE":0,"TOWNNAME":"東區","LI":"成大里","LIN":"29鄰","STREET":"大學路","SECT":"西段","MAREA":" ","LANE":" ","ALLEY":" ","HOUSE_NO":"６５號之３","E_COORD97":169571.09,"N_COORD97":2544081.1000000001,"ADDRESS":"大學路西段６５號之３","OBJECTID":571194},"geometry":{"x":169571.09000000078,"y":2544081.1000000015}},{"attributes":{"ID":571222,"DIS_CODE":0,"TOWNNAME":"東區","LI":"成大里","LIN":"29鄰","STREET":"大學路","SECT":"西段","MAREA":" ","LANE":" ","ALLEY":" ","HOUSE_NO":"６５號之４","E_COORD97":169562.16,"N_COORD97":2544083.5499999998,"ADDRESS":"大學路西段６５號之４","OBJECTID":571195},"geometry":{"x":169562.16000000108,"y":2544083.5500000026}},{"attributes":{"ID":571223,"DIS_CODE":0,"TOWNNAME":"東區","LI":"小東里","LIN":"29鄰","STREET":"東和路","SECT":" ","MAREA":" ","LANE":" ","ALLEY":" ","HOUSE_NO":"１４０號","E_COORD97":170645.60000000001,"N_COORD97":2544357.4500000002,"ADDRESS":"東和路１４０號","OBJECTID":571196},"geometry":{"x":170645.60000000056,"y":2544357.4500000011}},{"attributes":{"ID":571224,"DIS_CODE":0,"TOWNNAME":"東區","LI":"小東里","LIN":"29鄰","STREET":"東和路","SECT":" ","MAREA":" ","LANE":" ","ALLEY":" ","HOUSE_NO":"１４２號","E_COORD97":170645.76999999999,"N_COORD97":2544368.25,"ADDRESS":"東和路１４２號","OBJECTID":571197},"geometry":{"x":170645.77000000048,"y":2544368.2500000037}},{"attributes":{"ID":571225,"DIS_CODE":0,"TOWNNAME":"東區","LI":"小東里","LIN":"29鄰","STREET":"東和路","SECT":" ","MAREA":" ","LANE":" ","ALLEY":" ","HOUSE_NO":"１２０號","E_COORD97":170698.81,"N_COORD97":2544333.8700000001,"ADDRESS":"東和路１２０號","OBJECTID":571198},"geometry":{"x":170698.80999999959,"y":2544333.870000001}},{"attributes":{"ID":571226,"DIS_CODE":0,"TOWNNAME":"東區","LI":"小東里","LIN":"29鄰","STREET":"東和路","SECT":" ","MAREA":" ","LANE":" ","ALLEY":" ","HOUSE_NO":"１４６號","E_COORD97":170639.70999999999,"N_COORD97":2544339.9300000002,"ADDRESS":"東和路１４６號","OBJECTID":571199},"geometry":{"x":170639.71000000089,"y":2544339.9300000034}},{"attributes":{"ID":571227,"DIS_CODE":0,"TOWNNAME":"新營區","LI":"王公里","LIN":"22鄰","STREET":"大德街","SECT":" ","MAREA":" ","LANE":" ","ALLEY":" ","HOUSE_NO":"１２０號","E_COORD97":180456.26999999999,"N_COORD97":2579477.3799999999,"ADDRESS":"大德街１２０號","OBJECTID":571200},"geometry":{"x":180456.26999999955,"y":2579477.3800000027}}]}