{"displayFieldName":"TOWNNAME","fieldAliases":{"ID":"ID","DIS_CODE":"DIS_CODE","TOWNNAME":"TOWNNAME","LI":"LI","LIN":"LIN","STREET":"STREET","SECT":"SECT","MAREA":"MAREA","LANE":"LANE","ALLEY":"ALLEY","HOUSE_NO":"HOUSE_NO","E_COORD97":"E_COORD97","N_COORD97":"N_COORD97","ADDRESS":"ADDRESS","OBJECTID":"OBJECTID"},"geometryType":"esriGeometryPoint","spatialReference":{"wkid":102443,"latestWkid":3826},"fields":[{"name":"ID","type":"esriFieldTypeDouble","alias":"ID"},{"name":"DIS_CODE","type":"esriFieldTypeInteger","alias":"DIS_CODE"},{"name":"TOWNNAME","type":"esriFieldTypeString","alias":"TOWNNAME","length":8},{"name":"LI","type":"esriFieldTypeString","alias":"LI","length":8},{"name":"LIN","type":"esriFieldTypeString","alias":"LIN","length":12},{"name":"STREET","type":"esriFieldTypeString","alias":"STREET","length":20},{"name":"SECT","type":"esriFieldTypeString","alias":"SECT","length":8},{"name":"MAREA","type":"esriFieldTypeString","alias":"MAREA","length":12},{"name":"LANE","type":"esriFieldTypeString","alias":"LANE","length":10},{"name":"ALLEY","type":"esriFieldTypeString","alias":"ALLEY","length":10},{"name":"HOUSE_NO","type":"esriFieldTypeString","alias":"HOUSE_NO","length":20},{"name":"E_COORD97","type":"esriFieldTypeDouble","alias":"E_COORD97"},{"name":"N_COORD97","type":"esriFieldTypeDouble","alias":"N_COORD97"},{"name":"ADDRESS","type":"esriFieldTypeString","alias":"ADDRESS","length":50},{"name":"OBJECTID","type":"esriFieldTypeOID","alias":"OBJECTID"}],"features":[{"attributes":{"ID":565028,"DIS_CODE":0,"TOWNNAME":"永康區","LI":"\u25A0洲里","LIN":"39鄰","STREET":"\u25A0洲一街","SECT":" ","MAREA":" ","LANE":" ","ALLEY":" ","HOUSE_NO":"４５號","E_COORD97":171590.51999999999,"N_COORD97":2549082.25,"ADDRESS":"\u25A0洲一街４５號","OBJECTID":565001},"geometry":{"x":171590.51999999955,"y":2549082.2500000019}},{"attributes":{"ID":565029,"DIS_CODE":0,"TOWNNAME":"永康區","LI":"\u25A0洲里","LIN":"8鄰","STREET":"中正南路","SECT":" ","MAREA":" ","LANE":" ","ALLEY":" ","HOUSE_NO":"８７１號","E_COORD97":171810.57000000001,"N_COORD97":2549075.4900000002,"ADDRESS":"中正南路８７１號","OBJECTID":565002},"geometry":{"x":171810.57000000123,"y":2549075.4900000002}},{"attributes":{"ID":565030,"DIS_CODE":0,"TOWNNAME":"永康區","LI":"\u25A0洲里","LIN":"21鄰","STREET":"中正南路","SECT":" ","MAREA":" ","LANE":" ","ALLEY":" ","HOUSE_NO":"７６９號","E_COORD97":171663.72,"N_COORD97":2548940.9300000002,"ADDRESS":"中正南路７６９號","OBJECTID":565003},"geometry":{"x":171663.72000000067,"y":2548940.9300000016}},{"attributes":{"ID":565031,"DIS_CODE":0,"TOWNNAME":"新營區","LI":"民權里","LIN":"9鄰","STREET":"仁愛街","SECT":" ","MAREA":" ","LANE":" ","ALLEY":" ","HOUSE_NO":"２０號","E_COORD97":179825.23000000001,"N_COORD97":2578190.3599999999,"ADDRESS":"仁愛街２０號","OBJECTID":565004},"geometry":{"x":179825.23000000045,"y":2578190.3600000013}},{"attributes":{"ID":565032,"DIS_CODE":0,"TOWNNAME":"新營區","LI":"民權里","LIN":"9鄰","STREET":"仁愛街","SECT":" ","MAREA":" ","LANE":" ","ALLEY":" ","HOUSE_NO":"１２號","E_COORD97":179860.98000000001,"N_COORD97":2578192.4100000001,"ADDRESS":"仁愛街１２號","OBJECTID":565005},"geometry":{"x":179860.98000000045,"y":2578192.4100000001}},{"attributes":{"ID":565033,"DIS_CODE":0,"TOWNNAME":"新營區","LI":"護鎮里","LIN":"9鄰","STREET":"建國路","SECT":" ","MAREA":" ","LANE":" ","ALLEY":" ","HOUSE_NO":"２９５－１號","E_COORD97":179254.76000000001,"N_COORD97":2581028.5499999998,"ADDRESS":"建國路２９５－１號","OBJECTID":565006},"geometry":{"x":179254.75999999978,"y":2581028.5500000026}},{"attributes":{"ID":565034,"DIS_CODE":0,"TOWNNAME":"新營區","LI":"民權里","LIN":"9鄰","STREET":"仁愛街","SECT":" ","MAREA":" ","LANE":" ","ALLEY":" ","HOUSE_NO":"１２之２號","E_COORD97":179849.14999999999,"N_COORD97":2578191.4199999999,"ADDRESS":"仁愛街１２之２號","OBJECTID":565007},"geometry":{"x":179849.1500000013,"y":2578191.4199999999}},{"attributes":{"ID":565035,"DIS_CODE":0,"TOWNNAME":"楠西區","LI":"東勢里","LIN":"9鄰","STREET":"水庫路","SECT":" ","MAREA":" ","LANE":" ","ALLEY":" ","HOUSE_NO":"２２２號","E_COORD97":197719.07000000001,"N_COORD97":2564208.25,"ADDRESS":"水庫路２２２號","OBJECTID":565008},"geometry":{"x":197719.0700000003,"y":2564208.25}},{"attributes":{"ID":565036,"DIS_CODE":0,"TOWNNAME":"楠西區","LI":"東勢里","LIN":"9鄰","STREET":"水庫路","SECT":" ","MAREA":" ","LANE":" ","ALLEY":" ","HOUSE_NO":"２４２號","E_COORD97":197720.37,"N_COORD97":2564163.25,"ADDRESS":"水庫路２４２號","OBJECTID":565009},"geometry":{"x":197720.37000000011,"y":2564163.25}},{"attributes":{"ID":565037,"DIS_CODE":0,"TOWNNAME":"楠西區","LI":"東勢里","LIN":"9鄰","STREET":"水庫路","SECT":" ","MAREA":" ","LANE":" ","ALLEY":" ","HOUSE_NO":"２０８號","E_COORD97":197716.17000000001,"N_COORD97":2564237.25,"ADDRESS":"水庫路２０８號","OBJECTID":565010},"geometry":{"x":197716.16999999993,"y":2564237.2500000019}},{"attributes":{"ID":565038,"DIS_CODE":0,"TOWNNAME":"楠西區","LI":"東勢里","LIN":"9鄰","STREET":"水庫路","SECT":" ","MAREA":" ","LANE":" ","ALLEY":" ","HOUSE_NO":"２１８號","E_COORD97":197718.47,"N_COORD97":2564218.25,"ADDRESS":"水庫路２１８號","OBJECTID":565011},"geometry":{"x":197718.47000000067,"y":2564218.25}},{"attributes":{"ID":565039,"DIS_CODE":0,"TOWNNAME":"楠西區","LI":"東勢里","LIN":"9鄰","STREET":"水庫路","SECT":" ","MAREA":" ","LANE":" ","ALLEY":" ","HOUSE_NO":"２５２號","E_COORD97":197722.37,"N_COORD97":2564135.25,"ADDRESS":"水庫路２５２號","OBJECTID":565012},"geometry":{"x":197722.36999999918,"y":2564135.2500000019}},{"attributes":{"ID":565040,"DIS_CODE":0,"TOWNNAME":"永康區","LI":"崑山里","LIN":" ","STREET":"大仁街","SECT":" ","MAREA":" ","LANE":" ","ALLEY":" ","HOUSE_NO":"３２之２號","E_COORD97":173809.29000000001,"N_COORD97":2544609.9100000001,"ADDRESS":"大仁街３２之２號","OBJECTID":565013},"geometry":{"x":173809.29000000097,"y":2544609.9100000001}},{"attributes":{"ID":565041,"DIS_CODE":0,"TOWNNAME":"永康區","LI":"永康里","LIN":" ","STREET":"中山北路","SECT":" ","MAREA":" ","LANE":" ","ALLEY":" ","HOUSE_NO":"１號","E_COORD97":173886.16,"N_COORD97":2547373.6099999999,"ADDRESS":"中山北路１號","OBJECTID":565014},"geometry":{"x":173886.16000000201,"y":2547373.6100000013}},{"attributes":{"ID":565042,"DIS_CODE":0,"TOWNNAME":"永康區","LI":"\u25A0洲里","LIN":"32鄰","STREET":"\u25A0行路","SECT":" ","MAREA":" ","LANE":" ","ALLEY":" ","HOUSE_NO":"３３６號","E_COORD97":170991.04999999999,"N_COORD97":2548940.48,"ADDRESS":"\u25A0行路３３６號","OBJECTID":565015},"geometry":{"x":170991.04999999888,"y":2548940.4800000004}},{"attributes":{"ID":565043,"DIS_CODE":0,"TOWNNAME":"永康區","LI":"王行里","LIN":"14鄰","STREET":"興工路","SECT":" ","MAREA":" ","LANE":" ","ALLEY":" ","HOUSE_NO":"５號","E_COORD97":175467.06,"N_COORD97":2549535.25,"ADDRESS":"興工路５號","OBJECTID":565016},"geometry":{"x":175467.05999999959,"y":2549535.2500000037}},{"attributes":{"ID":565044,"DIS_CODE":0,"TOWNNAME":"楠西區","LI":"東勢里","LIN":"9鄰","STREET":"水庫路","SECT":" ","MAREA":" ","LANE":" ","ALLEY":" ","HOUSE_NO":"２２８號","E_COORD97":197721.37,"N_COORD97":2564194.25,"ADDRESS":"水庫路２２８號","OBJECTID":565017},"geometry":{"x":197721.37000000104,"y":2564194.25}},{"attributes":{"ID":565045,"DIS_CODE":0,"TOWNNAME":"永康區","LI":"崑山里","LIN":" ","STREET":"大仁街","SECT":" ","MAREA":" ","LANE":" ","ALLEY":" ","HOUSE_NO":"２０７之４號","E_COORD97":173933.64999999999,"N_COORD97":2545092.6200000001,"ADDRESS":"大仁街２０７之４號","OBJECTID":565018},"geometry":{"x":173933.65000000037,"y":2545092.6200000048}},{"attributes":{"ID":565046,"DIS_CODE":0,"TOWNNAME":"永康區","LI":"南灣里","LIN":" ","STREET":"南興路","SECT":" ","MAREA":" ","LANE":" ","ALLEY":" ","HOUSE_NO":"５０之３號","E_COORD97":174249.54999999999,"N_COORD97":2544181.54,"ADDRESS":"南興路５０之３號","OBJECTID":565019},"geometry":{"x":174249.55000000075,"y":2544181.5399999991}},{"attributes":{"ID":565047,"DIS_CODE":0,"TOWNNAME":"永康區","LI":"三合里","LIN":" ","STREET":"南工街","SECT":" ","MAREA":" ","LANE":" ","ALLEY":" ","HOUSE_NO":"４２之１號","E_COORD97":172116.01000000001,"N_COORD97":2545599.8900000001,"ADDRESS":"南工街４２之１號","OBJECTID":565020},"geometry":{"x":172116.01000000071,"y":2545599.8900000025}},{"attributes":{"ID":565048,"DIS_CODE":0,"TOWNNAME":"東山區","LI":"東中里","LIN":"9鄰","STREET":"惠明街","SECT":" ","MAREA":" ","LANE":" ","ALLEY":" ","HOUSE_NO":"１２號","E_COORD97":188581.48000000001,"N_COORD97":2579977.21,"ADDRESS":"惠明街１２號","OBJECTID":565021},"geometry":{"x":188581.47999999952,"y":2579977.2100000009}},{"attributes":{"ID":565049,"DIS_CODE":0,"TOWNNAME":"東山區","LI":"東中里","LIN":"9鄰","STREET":"惠明街","SECT":" ","MAREA":" ","LANE":" ","ALLEY":" ","HOUSE_NO":"１６號","E_COORD97":188577.82999999999,"N_COORD97":2579976.0299999998,"ADDRESS":"惠明街１６號","OBJECTID":565022},"geometry":{"x":188577.83000000101,"y":2579976.0300000012}},{"attributes":{"ID":565050,"DIS_CODE":0,"TOWNNAME":"東山區","LI":"東中里","LIN":"9鄰","STREET":"惠明街","SECT":" ","MAREA":" ","LANE":" ","ALLEY":" ","HOUSE_NO":"１７號","E_COORD97":188575.79000000001,"N_COORD97":2579952.8599999999,"ADDRESS":"惠明街１７號","OBJECTID":565023},"geometry":{"x":188575.7900000019,"y":2579952.8600000013}},{"attributes":{"ID":565051,"DIS_CODE":0,"TOWNNAME":"東山區","LI":"東中里","LIN":"9鄰","STREET":"惠明街","SECT":" ","MAREA":" ","LANE":" ","ALLEY":" ","HOUSE_NO":"１８號","E_COORD97":188574.26999999999,"N_COORD97":2579974.8100000001,"ADDRESS":"惠明街１８號","OBJECTID":565024},"geometry":{"x":188574.27000000048,"y":2579974.8100000024}},{"attributes":{"ID":565052,"DIS_CODE":0,"TOWNNAME":"東山區","LI":"東中里","LIN":"9鄰","STREET":"惠明街","SECT":" ","MAREA":" ","LANE":" ","ALLEY":" ","HOUSE_NO":"１９號","E_COORD97":188572.20999999999,"N_COORD97":2579952.23,"ADDRESS":"惠明街１９號","OBJECTID":565025},"geometry":{"x":188572.20999999996,"y":2579952.2300000023}},{"attributes":{"ID":565053,"DIS_CODE":0,"TOWNNAME":"東山區","LI":"東中里","LIN":"9鄰","STREET":"惠明街","SECT":" ","MAREA":" ","LANE":" ","ALLEY":" ","HOUSE_NO":"２０號","E_COORD97":188570.54000000001,"N_COORD97":2579973.3399999999,"ADDRESS":"惠明街２０號","OBJECTID":565026},"geometry":{"x":188570.5400000019,"y":2579973.3400000036}},{"attributes":{"ID":565054,"DIS_CODE":0,"TOWNNAME":"東山區","LI":"東中里","LIN":"9鄰","STREET":"惠明街","SECT":" ","MAREA":" ","LANE":" ","ALLEY":" ","HOUSE_NO":"２１號","E_COORD97":188568.45000000001,"N_COORD97":2579950.2799999998,"ADDRESS":"惠明街２１號","OBJECTID":565027},"geometry":{"x":188568.45000000112,"y":2579950.2800000012}},{"attributes":{"ID":565055,"DIS_CODE":0,"TOWNNAME":"東山區","LI":"東中里","LIN":"9鄰","STREET":"惠明街","SECT":" ","MAREA":" ","LANE":" ","ALLEY":" ","HOUSE_NO":"２２號","E_COORD97":188566.26999999999,"N_COORD97":2579972,"ADDRESS":"惠明街２２號","OBJECTID":565028},"geometry":{"x":188566.26999999955,"y":2579972}},{"attributes":{"ID":565056,"DIS_CODE":0,"TOWNNAME":"東山區","LI":"東中里","LIN":"9鄰","STREET":"惠明街","SECT":" ","MAREA":" ","LANE":" ","ALLEY":" ","HOUSE_NO":"２３號","E_COORD97":188560.92999999999,"N_COORD97":2579944.48,"ADDRESS":"惠明街２３號","OBJECTID":565029},"geometry":{"x":188560.93000000156,"y":2579944.4800000004}},{"attributes":{"ID":565057,"DIS_CODE":0,"TOWNNAME":"東山區","LI":"東中里","LIN":"9鄰","STREET":"惠明街","SECT":" ","MAREA":" ","LANE":" ","ALLEY":" ","HOUSE_NO":"２５號","E_COORD97":188562.63,"N_COORD97":2579933.2000000002,"ADDRESS":"惠明街２５號","OBJECTID":565030},"geometry":{"x":188562.62999999989,"y":2579933.200000003}},{"attributes":{"ID":565058,"DIS_CODE":0,"TOWNNAME":"東山區","LI":"東中里","LIN":"9鄰","STREET":"惠明街","SECT":" ","MAREA":" ","LANE":" ","ALLEY":" ","HOUSE_NO":"２６號","E_COORD97":188563.04000000001,"N_COORD97":2579970.6000000001,"ADDRESS":"惠明街２６號","OBJECTID":565031},"geometry":{"x":188563.04000000004,"y":2579970.5999999996}},{"attributes":{"ID":565059,"DIS_CODE":0,"TOWNNAME":"東山區","LI":"東中里","LIN":"9鄰","STREET":"惠明街","SECT":" ","MAREA":" ","LANE":" ","ALLEY":" ","HOUSE_NO":"２７號","E_COORD97":188563.12,"N_COORD97":2579928.8100000001,"ADDRESS":"惠明街２７號","OBJECTID":565032},"geometry":{"x":188563.12000000011,"y":2579928.8100000005}},{"attributes":{"ID":565060,"DIS_CODE":0,"TOWNNAME":"東山區","LI":"東中里","LIN":"9鄰","STREET":"惠明街","SECT":" ","MAREA":" ","LANE":" ","ALLEY":" ","HOUSE_NO":"２８號","E_COORD97":188559.32000000001,"N_COORD97":2579969.48,"ADDRESS":"惠明街２８號","OBJECTID":565033},"geometry":{"x":188559.32000000123,"y":2579969.4799999986}},{"attributes":{"ID":565061,"DIS_CODE":0,"TOWNNAME":"東山區","LI":"東中里","LIN":"9鄰","STREET":"惠明街","SECT":" ","MAREA":" ","LANE":" ","ALLEY":" ","HOUSE_NO":"２號","E_COORD97":188596.79999999999,"N_COORD97":2579982.9700000002,"ADDRESS":"惠明街２號","OBJECTID":565034},"geometry":{"x":188596.79999999981,"y":2579982.9700000007}},{"attributes":{"ID":565062,"DIS_CODE":0,"TOWNNAME":"東山區","LI":"東中里","LIN":"9鄰","STREET":"惠明街","SECT":" ","MAREA":" ","LANE":" ","ALLEY":" ","HOUSE_NO":"６號","E_COORD97":188593.28,"N_COORD97":2579981.4700000002,"ADDRESS":"惠明街６號","OBJECTID":565035},"geometry":{"x":188593.28000000119,"y":2579981.4700000025}},{"attributes":{"ID":565063,"DIS_CODE":0,"TOWNNAME":"東山區","LI":"東中里","LIN":"9鄰","STREET":"惠明街","SECT":" ","MAREA":" ","LANE":" ","ALLEY":" ","HOUSE_NO":"８號","E_COORD97":188589.22,"N_COORD97":2579980.1200000001,"ADDRESS":"惠明街８號","OBJECTID":565036},"geometry":{"x":188589.21999999974,"y":2579980.1200000029}},{"attributes":{"ID":565064,"DIS_CODE":0,"TOWNNAME":"東山區","LI":"東中里","LIN":"9鄰","STREET":"新東路","SECT":"二段","MAREA":" ","LANE":" ","ALLEY":" ","HOUSE_NO":"３號","E_COORD97":188591.35000000001,"N_COORD97":2580011.5600000001,"ADDRESS":"新東路二段３號","OBJECTID":565037},"geometry":{"x":188591.34999999963,"y":2580011.5600000024}},{"attributes":{"ID":565065,"DIS_CODE":0,"TOWNNAME":"東山區","LI":"東中里","LIN":"9鄰","STREET":"新東路","SECT":"二段","MAREA":" ","LANE":" ","ALLEY":" ","HOUSE_NO":"５號","E_COORD97":188587.57000000001,"N_COORD97":2580010.25,"ADDRESS":"新東路二段５號","OBJECTID":565038},"geometry":{"x":188587.57000000216,"y":2580010.25}},{"attributes":{"ID":565066,"DIS_CODE":0,"TOWNNAME":"東山區","LI":"東中里","LIN":"9鄰","STREET":"新東路","SECT":"二段","MAREA":" ","LANE":" ","ALLEY":" ","HOUSE_NO":"７號","E_COORD97":188583.42000000001,"N_COORD97":2580009.46,"ADDRESS":"新東路二段７號","OBJECTID":565039},"geometry":{"x":188583.42000000086,"y":2580009.4600000009}},{"attributes":{"ID":565067,"DIS_CODE":0,"TOWNNAME":"東山區","LI":"東中里","LIN":"9鄰","STREET":"新東路","SECT":"二段","MAREA":" ","LANE":" ","ALLEY":" ","HOUSE_NO":"９號","E_COORD97":188579.60999999999,"N_COORD97":2580007.9900000002,"ADDRESS":"新東路二段９號","OBJECTID":565040},"geometry":{"x":188579.61000000127,"y":2580007.9900000021}},{"attributes":{"ID":565068,"DIS_CODE":0,"TOWNNAME":"東山區","LI":"東中里","LIN":"9鄰","STREET":"福安街","SECT":" ","MAREA":" ","LANE":" ","ALLEY":" ","HOUSE_NO":"１８號","E_COORD97":188522.66,"N_COORD97":2579734.8799999999,"ADDRESS":"福安街１８號","OBJECTID":565041},"geometry":{"x":188522.66000000108,"y":2579734.8800000027}},{"attributes":{"ID":565069,"DIS_CODE":0,"TOWNNAME":"東山區","LI":"東中里","LIN":"9鄰","STREET":"福安街","SECT":" ","MAREA":" ","LANE":" ","ALLEY":" ","HOUSE_NO":"２２號","E_COORD97":188498.88,"N_COORD97":2579752.3399999999,"ADDRESS":"福安街２２號","OBJECTID":565042},"geometry":{"x":188498.88000000082,"y":2579752.3399999999}},{"attributes":{"ID":565070,"DIS_CODE":0,"TOWNNAME":"永康區","LI":"三民里","LIN":" ","STREET":"三民街","SECT":" ","MAREA":" ","LANE":" ","ALLEY":" ","HOUSE_NO":"１８號","E_COORD97":172800.98000000001,"N_COORD97":2550296.2200000002,"ADDRESS":"三民街１８號","OBJECTID":565043},"geometry":{"x":172800.97999999952,"y":2550296.2200000025}},{"attributes":{"ID":565071,"DIS_CODE":0,"TOWNNAME":"東山區","LI":"東中里","LIN":"9鄰","STREET":"福安街","SECT":" ","MAREA":" ","LANE":" ","ALLEY":" ","HOUSE_NO":"２３號","E_COORD97":188466.23999999999,"N_COORD97":2579711.6499999999,"ADDRESS":"福安街２３號","OBJECTID":565044},"geometry":{"x":188466.24000000115,"y":2579711.6500000022}},{"attributes":{"ID":565072,"DIS_CODE":0,"TOWNNAME":"東山區","LI":"東中里","LIN":"9鄰","STREET":"福安街","SECT":" ","MAREA":" ","LANE":" ","ALLEY":" ","HOUSE_NO":"２６號","E_COORD97":188483.73999999999,"N_COORD97":2579777.6099999999,"ADDRESS":"福安街２６號","OBJECTID":565045},"geometry":{"x":188483.74000000115,"y":2579777.6099999975}},{"attributes":{"ID":565073,"DIS_CODE":0,"TOWNNAME":"東山區","LI":"東中里","LIN":"9鄰","STREET":"福安街","SECT":" ","MAREA":" ","LANE":" ","ALLEY":" ","HOUSE_NO":"２８號","E_COORD97":188457.85999999999,"N_COORD97":2579767.9700000002,"ADDRESS":"福安街２８號","OBJECTID":565046},"geometry":{"x":188457.86000000034,"y":2579767.9700000025}},{"attributes":{"ID":565074,"DIS_CODE":0,"TOWNNAME":"東山區","LI":"東中里","LIN":"9鄰","STREET":"福安街","SECT":" ","MAREA":" ","LANE":" ","ALLEY":" ","HOUSE_NO":"５０號","E_COORD97":188352.31,"N_COORD97":2579811.8700000001,"ADDRESS":"福安街５０號","OBJECTID":565047},"geometry":{"x":188352.30999999959,"y":2579811.8700000048}},{"attributes":{"ID":565075,"DIS_CODE":0,"TOWNNAME":"永康區","LI":"\u25A0洲里","LIN":"21鄰","STREET":"中正南路","SECT":" ","MAREA":" ","LANE":" ","ALLEY":" ","HOUSE_NO":"７７３號","E_COORD97":171669.12,"N_COORD97":2548946.1699999999,"ADDRESS":"中正南路７７３號","OBJECTID":565048},"geometry":{"x":171669.12000000197,"y":2548946.1700000018}},{"attributes":{"ID":565076,"DIS_CODE":0,"TOWNNAME":"東山區","LI":"東中里","LIN":"9鄰","STREET":"福安街","SECT":" ","MAREA":" ","LANE":" ","ALLEY":" ","HOUSE_NO":"５２號","E_COORD97":188334.51000000001,"N_COORD97":2579807.6000000001,"ADDRESS":"福安街５２號","OBJECTID":565049},"geometry":{"x":188334.50999999978,"y":2579807.5999999996}},{"attributes":{"ID":565077,"DIS_CODE":0,"TOWNNAME":"東山區","LI":"東中里","LIN":"9鄰","STREET":"福安街","SECT":" ","MAREA":" ","LANE":" ","ALLEY":" ","HOUSE_NO":"５號","E_COORD97":188576.63,"N_COORD97":2579693.48,"ADDRESS":"福安街５號","OBJECTID":565050},"geometry":{"x":188576.63000000175,"y":2579693.4800000004}},{"attributes":{"ID":565078,"DIS_CODE":0,"TOWNNAME":"東山區","LI":"東中里","LIN":"9鄰","STREET":"福安街","SECT":" ","MAREA":" ","LANE":" ","ALLEY":" ","HOUSE_NO":"８號","E_COORD97":188571.5,"N_COORD97":2579741.77,"ADDRESS":"福安街８號","OBJECTID":565051},"geometry":{"x":188571.50000000093,"y":2579741.7699999996}},{"attributes":{"ID":565079,"DIS_CODE":0,"TOWNNAME":"東山區","LI":"東中里","LIN":"9鄰","STREET":"鳳安二街","SECT":" ","MAREA":" ","LANE":" ","ALLEY":" ","HOUSE_NO":"４５號","E_COORD97":188617.20000000001,"N_COORD97":2579882.4700000002,"ADDRESS":"鳳安二街４５號","OBJECTID":565052},"geometry":{"x":188617.20000000205,"y":2579882.4700000025}},{"attributes":{"ID":565080,"DIS_CODE":0,"TOWNNAME":"東山區","LI":"東中里","LIN":"9鄰","STREET":"鳳安二街","SECT":" ","MAREA":" ","LANE":" ","ALLEY":" ","HOUSE_NO":"８１號","E_COORD97":188608.56,"N_COORD97":2579989.2799999998,"ADDRESS":"鳳安二街８１號","OBJECTID":565053},"geometry":{"x":188608.55999999959,"y":2579989.2799999993}},{"attributes":{"ID":565081,"DIS_CODE":0,"TOWNNAME":"東山區","LI":"東中里","LIN":"9鄰","STREET":"鳳安二街","SECT":" ","MAREA":" ","LANE":" ","ALLEY":" ","HOUSE_NO":"８３號","E_COORD97":188607.98999999999,"N_COORD97":2579993.48,"ADDRESS":"鳳安二街８３號","OBJECTID":565054},"geometry":{"x":188607.99000000022,"y":2579993.4800000042}},{"attributes":{"ID":565082,"DIS_CODE":0,"TOWNNAME":"東山區","LI":"東中里","LIN":"9鄰","STREET":"鳳安二街","SECT":" ","MAREA":" ","LANE":" ","ALLEY":" ","HOUSE_NO":"８５號","E_COORD97":188607.42000000001,"N_COORD97":2579997.6699999999,"ADDRESS":"鳳安二街８５號","OBJECTID":565055},"geometry":{"x":188607.42000000086,"y":2579997.6699999999}},{"attributes":{"ID":565083,"DIS_CODE":0,"TOWNNAME":"東山區","LI":"東中里","LIN":"9鄰","STREET":"鳳安二街","SECT":" ","MAREA":" ","LANE":" ","ALLEY":" ","HOUSE_NO":"８７號","E_COORD97":188606.85000000001,"N_COORD97":2580001.8599999999,"ADDRESS":"鳳安二街８７號","OBJECTID":565056},"geometry":{"x":188606.84999999963,"y":2580001.8599999994}},{"attributes":{"ID":565084,"DIS_CODE":0,"TOWNNAME":"東山區","LI":"東中里","LIN":"9鄰","STREET":"鳳安二街","SECT":" ","MAREA":" ","LANE":" ","ALLEY":" ","HOUSE_NO":"８９號","E_COORD97":188606.26999999999,"N_COORD97":2580006.0499999998,"ADDRESS":"鳳安二街８９號","OBJECTID":565057},"geometry":{"x":188606.27000000048,"y":2580006.0500000007}},{"attributes":{"ID":565085,"DIS_CODE":0,"TOWNNAME":"東山區","LI":"東中里","LIN":"9鄰","STREET":"鳳安二街","SECT":" ","MAREA":" ","LANE":" ","ALLEY":" ","HOUSE_NO":"９１號","E_COORD97":188605.70000000001,"N_COORD97":2580010.2400000002,"ADDRESS":"鳳安二街９１號","OBJECTID":565058},"geometry":{"x":188605.70000000112,"y":2580010.2400000002}},{"attributes":{"ID":565086,"DIS_CODE":0,"TOWNNAME":"新化區","LI":"豐榮里","LIN":"9鄰","STREET":"大智路","SECT":" ","MAREA":" ","LANE":" ","ALLEY":" ","HOUSE_NO":"３９號","E_COORD97":178321.28,"N_COORD97":2548364.25,"ADDRESS":"大智路３９號","OBJECTID":565059},"geometry":{"x":178321.28000000026,"y":2548364.25}},{"attributes":{"ID":565087,"DIS_CODE":0,"TOWNNAME":"新化區","LI":"太平里","LIN":"9鄰","STREET":"中正路","SECT":" ","MAREA":" ","LANE":" ","ALLEY":" ","HOUSE_NO":"１００７號","E_COORD97":178991.66,"N_COORD97":2550008.25,"ADDRESS":"中正路１００７號","OBJECTID":565060},"geometry":{"x":178991.66000000015,"y":2550008.2500000019}},{"attributes":{"ID":565088,"DIS_CODE":0,"TOWNNAME":"新化區","LI":"太平里","LIN":"9鄰","STREET":"中正路","SECT":" ","MAREA":" ","LANE":" ","ALLEY":" ","HOUSE_NO":"６９０號之２","E_COORD97":178591.35999999999,"N_COORD97":2549612.2599999998,"ADDRESS":"中正路６９０號之２","OBJECTID":565061},"geometry":{"x":178591.36000000127,"y":2549612.2599999998}},{"attributes":{"ID":565089,"DIS_CODE":0,"TOWNNAME":"安南區","LI":"新順里","LIN":"9鄰","STREET":"安生街","SECT":" ","MAREA":" ","LANE":" ","ALLEY":" ","HOUSE_NO":"９１號","E_COORD97":169550.89999999999,"N_COORD97":2549511.9900000002,"ADDRESS":"安生街９１號","OBJECTID":565062},"geometry":{"x":169550.9000000013,"y":2549511.9900000002}},{"attributes":{"ID":565090,"DIS_CODE":0,"TOWNNAME":"安南區","LI":"新順里","LIN":"9鄰","STREET":"安生街","SECT":" ","MAREA":" ","LANE":" ","ALLEY":" ","HOUSE_NO":"９５號","E_COORD97":169543.23999999999,"N_COORD97":2549514.25,"ADDRESS":"安生街９５號","OBJECTID":565063},"geometry":{"x":169543.24000000115,"y":2549514.25}},{"attributes":{"ID":565091,"DIS_CODE":0,"TOWNNAME":"新化區","LI":"豐榮里","LIN":"9鄰","STREET":"中山路","SECT":" ","MAREA":" ","LANE":" ","ALLEY":" ","HOUSE_NO":"５５７號","E_COORD97":178418.973443,"N_COORD97":2548444.6889,"ADDRESS":"中山路５５７號","OBJECTID":565064},"geometry":{"x":178418.97344300058,"y":2548444.6888950039}},{"attributes":{"ID":565092,"DIS_CODE":0,"TOWNNAME":"新化區","LI":"太平里","LIN":"9鄰","STREET":"中正路","SECT":" ","MAREA":" ","LANE":" ","ALLEY":" ","HOUSE_NO":"６７０號之１５","E_COORD97":178670.82000000001,"N_COORD97":2549557.2599999998,"ADDRESS":"中正路６７０號之１５","OBJECTID":565065},"geometry":{"x":178670.82000000216,"y":2549557.2599999998}},{"attributes":{"ID":565093,"DIS_CODE":0,"TOWNNAME":"永康區","LI":"崑山里","LIN":" ","STREET":"大仁街","SECT":" ","MAREA":" ","LANE":" ","ALLEY":" ","HOUSE_NO":"２２５之３號","E_COORD97":173948.42000000001,"N_COORD97":2545134.6899999999,"ADDRESS":"大仁街２２５之３號","OBJECTID":565066},"geometry":{"x":173948.41999999993,"y":2545134.6900000032}},{"attributes":{"ID":565094,"DIS_CODE":0,"TOWNNAME":"永康區","LI":"\u25A0洲里","LIN":"8鄰","STREET":"中正南路","SECT":" ","MAREA":" ","LANE":" ","ALLEY":" ","HOUSE_NO":"８６３號","E_COORD97":171799.63,"N_COORD97":2549065.2400000002,"ADDRESS":"中正南路８６３號","OBJECTID":565067},"geometry":{"x":171799.63000000082,"y":2549065.2400000021}},{"attributes":{"ID":565095,"DIS_CODE":0,"TOWNNAME":"永康區","LI":"\u25A0洲里","LIN":"7鄰","STREET":"\u25A0洲二街","SECT":" ","MAREA":" ","LANE":" ","ALLEY":" ","HOUSE_NO":"２２２號","E_COORD97":171816.54999999999,"N_COORD97":2549466.2400000002,"ADDRESS":"\u25A0洲二街２２２號","OBJECTID":565068},"geometry":{"x":171816.54999999981,"y":2549466.2400000002}},{"attributes":{"ID":565096,"DIS_CODE":0,"TOWNNAME":"永康區","LI":"甲頂里","LIN":"30鄰","STREET":"中央路","SECT":" ","MAREA":" ","LANE":" ","ALLEY":" ","HOUSE_NO":"２２號","E_COORD97":169675.07999999999,"N_COORD97":2547021.48,"ADDRESS":"中央路２２號","OBJECTID":565069},"geometry":{"x":169675.08000000007,"y":2547021.4800000004}},{"attributes":{"ID":565097,"DIS_CODE":0,"TOWNNAME":"永康區","LI":"\u25A0洲里","LIN":"21鄰","STREET":"中正南路","SECT":" ","MAREA":" ","LANE":" ","ALLEY":" ","HOUSE_NO":"７４５號","E_COORD97":171628.20000000001,"N_COORD97":2548906.8999999999,"ADDRESS":"中正南路７４５號","OBJECTID":565070},"geometry":{"x":171628.20000000112,"y":2548906.9000000004}},{"attributes":{"ID":565098,"DIS_CODE":0,"TOWNNAME":"新化區","LI":"太平里","LIN":"9鄰","STREET":"中正路","SECT":" ","MAREA":" ","LANE":" ","ALLEY":" ","HOUSE_NO":"６９８號之３","E_COORD97":178560.06,"N_COORD97":2549684.2599999998,"ADDRESS":"中正路６９８號之３","OBJECTID":565071},"geometry":{"x":178560.06000000052,"y":2549684.2600000035}},{"attributes":{"ID":565099,"DIS_CODE":0,"TOWNNAME":"新化區","LI":"武安里","LIN":"9鄰","STREET":"大同街","SECT":" ","MAREA":" ","LANE":" ","ALLEY":" ","HOUSE_NO":"６１號","E_COORD97":178995.98000000001,"N_COORD97":2548201.25,"ADDRESS":"大同街６１號","OBJECTID":565072},"geometry":{"x":178995.98000000138,"y":2548201.25}},{"attributes":{"ID":565100,"DIS_CODE":0,"TOWNNAME":"新化區","LI":"太平里","LIN":"9鄰","STREET":"中正路","SECT":" ","MAREA":" ","LANE":" ","ALLEY":" ","HOUSE_NO":"６９０號之７３","E_COORD97":179234.70999999999,"N_COORD97":2550567.2599999998,"ADDRESS":"中正路６９０號之７３","OBJECTID":565073},"geometry":{"x":179234.71000000089,"y":2550567.2600000016}},{"attributes":{"ID":565101,"DIS_CODE":0,"TOWNNAME":"新化區","LI":"護國里","LIN":"9鄰","STREET":"中山路","SECT":" ","MAREA":" ","LANE":" ","ALLEY":" ","HOUSE_NO":"１１５號之１","E_COORD97":179680.84,"N_COORD97":2549144.2599999998,"ADDRESS":"中山路１１５號之１","OBJECTID":565074},"geometry":{"x":179680.84000000078,"y":2549144.2599999998}},{"attributes":{"ID":565102,"DIS_CODE":0,"TOWNNAME":"新化區","LI":"護國里","LIN":"9鄰","STREET":"中山路","SECT":" ","MAREA":" ","LANE":" ","ALLEY":" ","HOUSE_NO":"１５１號","E_COORD97":179440.51000000001,"N_COORD97":2548813.25,"ADDRESS":"中山路１５１號","OBJECTID":565075},"geometry":{"x":179440.51000000071,"y":2548813.2500000037}},{"attributes":{"ID":565103,"DIS_CODE":0,"TOWNNAME":"新化區","LI":"護國里","LIN":"9鄰","STREET":"中山路","SECT":" ","MAREA":" ","LANE":" ","ALLEY":" ","HOUSE_NO":"１７３號","E_COORD97":179386.70999999999,"N_COORD97":2548619.25,"ADDRESS":"中山路１７３號","OBJECTID":565076},"geometry":{"x":179386.71000000089,"y":2548619.25}},{"attributes":{"ID":565104,"DIS_CODE":0,"TOWNNAME":"新化區","LI":"豐榮里","LIN":"9鄰","STREET":"大智路","SECT":" ","MAREA":" ","LANE":" ","ALLEY":" ","HOUSE_NO":"２３號","E_COORD97":178365.28,"N_COORD97":2548413.25,"ADDRESS":"大智路２３號","OBJECTID":565077},"geometry":{"x":178365.28000000026,"y":2548413.2500000037}},{"attributes":{"ID":565105,"DIS_CODE":0,"TOWNNAME":"新化區","LI":"護國里","LIN":"9鄰","STREET":"中山路","SECT":" ","MAREA":" ","LANE":" ","ALLEY":" ","HOUSE_NO":"１６１號","E_COORD97":179429.31,"N_COORD97":2548770.25,"ADDRESS":"中山路１６１號","OBJECTID":565078},"geometry":{"x":179429.30999999959,"y":2548770.2500000019}},{"attributes":{"ID":565106,"DIS_CODE":0,"TOWNNAME":"新化區","LI":"護國里","LIN":"9鄰","STREET":"中山路","SECT":" ","MAREA":" ","LANE":" ","ALLEY":" ","HOUSE_NO":"１７１號之１","E_COORD97":179434.23999999999,"N_COORD97":2548717.2599999998,"ADDRESS":"中山路１７１號之１","OBJECTID":565079},"geometry":{"x":179434.24000000115,"y":2548717.2599999998}},{"attributes":{"ID":565107,"DIS_CODE":0,"TOWNNAME":"新化區","LI":"護國里","LIN":"9鄰","STREET":"中山路","SECT":" ","MAREA":" ","LANE":" ","ALLEY":" ","HOUSE_NO":"１４５號","E_COORD97":179442.81,"N_COORD97":2548819.25,"ADDRESS":"中山路１４５號","OBJECTID":565080},"geometry":{"x":179442.80999999959,"y":2548819.25}},{"attributes":{"ID":565108,"DIS_CODE":0,"TOWNNAME":"新化區","LI":"護國里","LIN":"9鄰","STREET":"中山路","SECT":" ","MAREA":" ","LANE":" ","ALLEY":" ","HOUSE_NO":"１６３號之１","E_COORD97":179426.23999999999,"N_COORD97":2548759.2599999998,"ADDRESS":"中山路１６３號之１","OBJECTID":565081},"geometry":{"x":179426.24000000115,"y":2548759.2600000016}},{"attributes":{"ID":565109,"DIS_CODE":0,"TOWNNAME":"新化區","LI":"護國里","LIN":"9鄰","STREET":"中山路","SECT":" ","MAREA":" ","LANE":" ","ALLEY":" ","HOUSE_NO":"１５５號","E_COORD97":179435.81,"N_COORD97":2548802.25,"ADDRESS":"中山路１５５號","OBJECTID":565082},"geometry":{"x":179435.80999999959,"y":2548802.25}},{"attributes":{"ID":565110,"DIS_CODE":0,"TOWNNAME":"新化區","LI":"太平里","LIN":"9鄰","STREET":"中正路","SECT":" ","MAREA":" ","LANE":" ","ALLEY":" ","HOUSE_NO":"６９０號之１９","E_COORD97":178861.89999999999,"N_COORD97":2549672.2599999998,"ADDRESS":"中正路６９０號之１９","OBJECTID":565083},"geometry":{"x":178861.90000000224,"y":2549672.2600000016}},{"attributes":{"ID":565111,"DIS_CODE":0,"TOWNNAME":"新化區","LI":"唪口里","LIN":"9鄰","STREET":"大德路","SECT":" ","MAREA":" ","LANE":" ","ALLEY":" ","HOUSE_NO":"１６７號","E_COORD97":177885.42999999999,"N_COORD97":2549310.25,"ADDRESS":"大德路１６７號","OBJECTID":565084},"geometry":{"x":177885.4299999997,"y":2549310.25}},{"attributes":{"ID":565112,"DIS_CODE":0,"TOWNNAME":"新化區","LI":"護國里","LIN":"9鄰","STREET":"中山路","SECT":" ","MAREA":" ","LANE":" ","ALLEY":" ","HOUSE_NO":"１５３號","E_COORD97":179438.10999999999,"N_COORD97":2548808.25,"ADDRESS":"中山路１５３號","OBJECTID":565085},"geometry":{"x":179438.11000000034,"y":2548808.25}},{"attributes":{"ID":565113,"DIS_CODE":0,"TOWNNAME":"永康區","LI":"\u25A0洲里","LIN":"40鄰","STREET":"洲尾街","SECT":" ","MAREA":" ","LANE":" ","ALLEY":" ","HOUSE_NO":"６２號","E_COORD97":171175.69,"N_COORD97":2548633.25,"ADDRESS":"洲尾街６２號","OBJECTID":565086},"geometry":{"x":171175.69000000227,"y":2548633.2499999981}},{"attributes":{"ID":565114,"DIS_CODE":0,"TOWNNAME":"新化區","LI":"護國里","LIN":"9鄰","STREET":"中山路","SECT":" ","MAREA":" ","LANE":" ","ALLEY":" ","HOUSE_NO":"１３３號","E_COORD97":179449.81,"N_COORD97":2548840.25,"ADDRESS":"中山路１３３號","OBJECTID":565087},"geometry":{"x":179449.81000000145,"y":2548840.2500000037}},{"attributes":{"ID":565115,"DIS_CODE":0,"TOWNNAME":"新化區","LI":"武安里","LIN":"9鄰","STREET":"大同街","SECT":" ","MAREA":" ","LANE":" ","ALLEY":" ","HOUSE_NO":"７５號","E_COORD97":178993.48000000001,"N_COORD97":2548238.25,"ADDRESS":"大同街７５號","OBJECTID":565088},"geometry":{"x":178993.48000000045,"y":2548238.2500000019}},{"attributes":{"ID":565116,"DIS_CODE":0,"TOWNNAME":"新化區","LI":"武安里","LIN":"9鄰","STREET":"大同街","SECT":" ","MAREA":" ","LANE":" ","ALLEY":" ","HOUSE_NO":"９９號","E_COORD97":178986.88,"N_COORD97":2548278.25,"ADDRESS":"大同街９９號","OBJECTID":565089},"geometry":{"x":178986.88000000175,"y":2548278.2500000019}},{"attributes":{"ID":565117,"DIS_CODE":0,"TOWNNAME":"新化區","LI":"豐榮里","LIN":"9鄰","STREET":"大智路","SECT":" ","MAREA":" ","LANE":" ","ALLEY":" ","HOUSE_NO":"２５號","E_COORD97":178361.78,"N_COORD97":2548408.25,"ADDRESS":"大智路２５號","OBJECTID":565090},"geometry":{"x":178361.78000000026,"y":2548408.25}},{"attributes":{"ID":565118,"DIS_CODE":0,"TOWNNAME":"新化區","LI":"武安里","LIN":"9鄰","STREET":"大同街","SECT":" ","MAREA":" ","LANE":" ","ALLEY":" ","HOUSE_NO":"７９號","E_COORD97":178992.38,"N_COORD97":2548245.25,"ADDRESS":"大同街７９號","OBJECTID":565091},"geometry":{"x":178992.38000000082,"y":2548245.2500000019}},{"attributes":{"ID":565119,"DIS_CODE":0,"TOWNNAME":"新化區","LI":"武安里","LIN":"9鄰","STREET":"大同街","SECT":" ","MAREA":" ","LANE":" ","ALLEY":" ","HOUSE_NO":"８５號","E_COORD97":178989.98000000001,"N_COORD97":2548256.25,"ADDRESS":"大同街８５號","OBJECTID":565092},"geometry":{"x":178989.98000000045,"y":2548256.25}},{"attributes":{"ID":565120,"DIS_CODE":0,"TOWNNAME":"新化區","LI":"武安里","LIN":"9鄰","STREET":"大同街","SECT":" ","MAREA":" ","LANE":" ","ALLEY":" ","HOUSE_NO":"６９號","E_COORD97":178995.07999999999,"N_COORD97":2548231.25,"ADDRESS":"大同街６９號","OBJECTID":565093},"geometry":{"x":178995.08000000101,"y":2548231.2500000019}},{"attributes":{"ID":565121,"DIS_CODE":0,"TOWNNAME":"新化區","LI":"武安里","LIN":"9鄰","STREET":"信義路","SECT":" ","MAREA":" ","LANE":" ","ALLEY":" ","HOUSE_NO":"２９１號","E_COORD97":178961.63,"N_COORD97":2548297.25,"ADDRESS":"信義路２９１號","OBJECTID":565094},"geometry":{"x":178961.63000000175,"y":2548297.25}},{"attributes":{"ID":565122,"DIS_CODE":0,"TOWNNAME":"新化區","LI":"武安里","LIN":"9鄰","STREET":"信義路","SECT":" ","MAREA":" ","LANE":" ","ALLEY":" ","HOUSE_NO":"２９５號","E_COORD97":178951.63,"N_COORD97":2548297.25,"ADDRESS":"信義路２９５號","OBJECTID":565095},"geometry":{"x":178951.63000000082,"y":2548297.25}},{"attributes":{"ID":565123,"DIS_CODE":0,"TOWNNAME":"新化區","LI":"武安里","LIN":"9鄰","STREET":"信義路","SECT":" ","MAREA":" ","LANE":" ","ALLEY":" ","HOUSE_NO":"３０１號","E_COORD97":178943.92999999999,"N_COORD97":2548297.25,"ADDRESS":"信義路３０１號","OBJECTID":565096},"geometry":{"x":178943.92999999877,"y":2548297.25}},{"attributes":{"ID":565124,"DIS_CODE":0,"TOWNNAME":"新化區","LI":"武安里","LIN":"9鄰","STREET":"信義路","SECT":" ","MAREA":" ","LANE":" ","ALLEY":" ","HOUSE_NO":"３０３號","E_COORD97":178939.53,"N_COORD97":2548295.25,"ADDRESS":"信義路３０３號","OBJECTID":565097},"geometry":{"x":178939.53000000119,"y":2548295.2500000019}},{"attributes":{"ID":565125,"DIS_CODE":0,"TOWNNAME":"新營區","LI":"中營里","LIN":"9鄰","STREET":"同濟街","SECT":" ","MAREA":" ","LANE":" ","ALLEY":" ","HOUSE_NO":"１６號","E_COORD97":180521.95999999999,"N_COORD97":2578240.4300000002,"ADDRESS":"同濟街１６號","OBJECTID":565098},"geometry":{"x":180521.95999999996,"y":2578240.4300000016}},{"attributes":{"ID":565126,"DIS_CODE":0,"TOWNNAME":"新化區","LI":"護國里","LIN":"9鄰","STREET":"中山路","SECT":" ","MAREA":" ","LANE":" ","ALLEY":" ","HOUSE_NO":"１１５號之１０","E_COORD97":179659.79999999999,"N_COORD97":2549116.2599999998,"ADDRESS":"中山路１１５號之１０","OBJECTID":565099},"geometry":{"x":179659.79999999981,"y":2549116.2600000016}},{"attributes":{"ID":565127,"DIS_CODE":0,"TOWNNAME":"新化區","LI":"唪口里","LIN":"9鄰","STREET":"大德路","SECT":" ","MAREA":" ","LANE":" ","ALLEY":" ","HOUSE_NO":"１９０號","E_COORD97":177679.37,"N_COORD97":2549341.2599999998,"ADDRESS":"大德路１９０號","OBJECTID":565100},"geometry":{"x":177679.37000000104,"y":2549341.2599999998}},{"attributes":{"ID":565128,"DIS_CODE":0,"TOWNNAME":"新化區","LI":"豐榮里","LIN":"9鄰","STREET":"中山路","SECT":" ","MAREA":" ","LANE":" ","ALLEY":" ","HOUSE_NO":"５５５號","E_COORD97":178424.058261,"N_COORD97":2548443.8422300001,"ADDRESS":"中山路５５５號","OBJECTID":565101},"geometry":{"x":178424.05826100148,"y":2548443.8422290012}},{"attributes":{"ID":565129,"DIS_CODE":0,"TOWNNAME":"新營區","LI":"永生里","LIN":"9鄰","STREET":"新進路","SECT":" ","MAREA":" ","LANE":" ","ALLEY":" ","HOUSE_NO":"２６６號","E_COORD97":180105.01000000001,"N_COORD97":2577898.2599999998,"ADDRESS":"新進路２６６號","OBJECTID":565102},"geometry":{"x":180105.01000000071,"y":2577898.2599999998}},{"attributes":{"ID":565130,"DIS_CODE":0,"TOWNNAME":"新營區","LI":"中營里","LIN":"9鄰","STREET":"同濟街","SECT":" ","MAREA":" ","LANE":" ","ALLEY":" ","HOUSE_NO":"８號","E_COORD97":180517.94,"N_COORD97":2578222.23,"ADDRESS":"同濟街８號","OBJECTID":565103},"geometry":{"x":180517.94000000227,"y":2578222.2300000023}},{"attributes":{"ID":565131,"DIS_CODE":0,"TOWNNAME":"永康區","LI":"南灣里","LIN":"9鄰","STREET":"永大路","SECT":"一段","MAREA":" ","LANE":" ","ALLEY":" ","HOUSE_NO":"２９８號","E_COORD97":174040.53,"N_COORD97":2544359.3199999998,"ADDRESS":"永大路一段２９８號","OBJECTID":565104},"geometry":{"x":174040.53000000119,"y":2544359.3200000022}},{"attributes":{"ID":565132,"DIS_CODE":0,"TOWNNAME":"歸仁區","LI":"歸仁里","LIN":"9鄰","STREET":"大仁街","SECT":" ","MAREA":" ","LANE":" ","ALLEY":" ","HOUSE_NO":"３５號","E_COORD97":177922.92000000001,"N_COORD97":2540811.3599999999,"ADDRESS":"大仁街３５號","OBJECTID":565105},"geometry":{"x":177922.92000000086,"y":2540811.3600000013}},{"attributes":{"ID":565133,"DIS_CODE":0,"TOWNNAME":"玉井區","LI":"竹圍里","LIN":"9鄰","STREET":"\u25A0吧哖東路","SECT":" ","MAREA":" ","LANE":" ","ALLEY":" ","HOUSE_NO":"２１１號","E_COORD97":196081.95999999999,"N_COORD97":2558934.02,"ADDRESS":"\u25A0吧哖東路２１１號","OBJECTID":565106},"geometry":{"x":196081.95999999996,"y":2558934.0199999996}},{"attributes":{"ID":565134,"DIS_CODE":0,"TOWNNAME":"玉井區","LI":"竹圍里","LIN":"9鄰","STREET":"\u25A0吧哖東路","SECT":" ","MAREA":" ","LANE":" ","ALLEY":" ","HOUSE_NO":"２１３號","E_COORD97":196085.95999999999,"N_COORD97":2558935.7799999998,"ADDRESS":"\u25A0吧哖東路２１３號","OBJECTID":565107},"geometry":{"x":196085.96000000183,"y":2558935.7800000031}},{"attributes":{"ID":565135,"DIS_CODE":0,"TOWNNAME":"永康區","LI":"勝利里","LIN":" ","STREET":"勝利街","SECT":" ","MAREA":" ","LANE":" ","ALLEY":" ","HOUSE_NO":"１６０號","E_COORD97":171381.76000000001,"N_COORD97":2545089.0899999999,"ADDRESS":"勝利街１６０號","OBJECTID":565108},"geometry":{"x":171381.76000000071,"y":2545089.0900000017}},{"attributes":{"ID":565136,"DIS_CODE":0,"TOWNNAME":"玉井區","LI":"竹圍里","LIN":"9鄰","STREET":"\u25A0吧哖東路","SECT":" ","MAREA":" ","LANE":" ","ALLEY":" ","HOUSE_NO":"２３９號","E_COORD97":196148.64000000001,"N_COORD97":2558963.23,"ADDRESS":"\u25A0吧哖東路２３９號","OBJECTID":565109},"geometry":{"x":196148.63999999873,"y":2558963.2300000004}},{"attributes":{"ID":565137,"DIS_CODE":0,"TOWNNAME":"玉井區","LI":"竹圍里","LIN":"9鄰","STREET":"\u25A0吧哖東路","SECT":" ","MAREA":" ","LANE":" ","ALLEY":" ","HOUSE_NO":"２０９號","E_COORD97":196078.26999999999,"N_COORD97":2558932.7000000002,"ADDRESS":"\u25A0吧哖東路２０９號","OBJECTID":565110},"geometry":{"x":196078.27000000142,"y":2558932.6999999993}},{"attributes":{"ID":565138,"DIS_CODE":0,"TOWNNAME":"玉井區","LI":"竹圍里","LIN":"9鄰","STREET":"\u25A0吧哖東路","SECT":" ","MAREA":" ","LANE":" ","ALLEY":" ","HOUSE_NO":"２１５號","E_COORD97":196090.88,"N_COORD97":2558937.2000000002,"ADDRESS":"\u25A0吧哖東路２１５號","OBJECTID":565111},"geometry":{"x":196090.87999999989,"y":2558937.2000000011}},{"attributes":{"ID":565139,"DIS_CODE":0,"TOWNNAME":"歸仁區","LI":"七甲里","LIN":"9鄰","STREET":"七甲一街","SECT":" ","MAREA":" ","LANE":" ","ALLEY":" ","HOUSE_NO":"７２號","E_COORD97":177749.41,"N_COORD97":2542602.3599999999,"ADDRESS":"七甲一街７２號","OBJECTID":565112},"geometry":{"x":177749.40999999922,"y":2542602.3599999994}},{"attributes":{"ID":565140,"DIS_CODE":0,"TOWNNAME":"新市區","LI":"永就里","LIN":"9鄰","STREET":"中山路","SECT":" ","MAREA":" ","LANE":" ","ALLEY":" ","HOUSE_NO":"１７７之１號","E_COORD97":178007.64999999999,"N_COORD97":2552331.0499999998,"ADDRESS":"中山路１７７之１號","OBJECTID":565113},"geometry":{"x":178007.6500000013,"y":2552331.0500000045}},{"attributes":{"ID":565141,"DIS_CODE":0,"TOWNNAME":"仁德區","LI":"保安里","LIN":"9鄰","STREET":"文賢路","SECT":"二段","MAREA":" ","LANE":" ","ALLEY":" ","HOUSE_NO":"３號","E_COORD97":171693.60999999999,"N_COORD97":2535857.3300000001,"ADDRESS":"文賢路二段３號","OBJECTID":565114},"geometry":{"x":171693.61000000127,"y":2535857.3300000001}},{"attributes":{"ID":565142,"DIS_CODE":0,"TOWNNAME":"新市區","LI":"永就里","LIN":"9鄰","STREET":"中山路","SECT":" ","MAREA":" ","LANE":" ","ALLEY":" ","HOUSE_NO":"２１９之１號","E_COORD97":177404.98999999999,"N_COORD97":2551965.5499999998,"ADDRESS":"中山路２１９之１號","OBJECTID":565115},"geometry":{"x":177404.99000000209,"y":2551965.5500000026}},{"attributes":{"ID":565143,"DIS_CODE":0,"TOWNNAME":"中西區","LI":"水仙里","LIN":"9鄰","STREET":"和平街","SECT":" ","MAREA":" ","LANE":" ","ALLEY":" ","HOUSE_NO":"６７號","E_COORD97":167737.16,"N_COORD97":2544098.3300000001,"ADDRESS":"和平街６７號","OBJECTID":565116},"geometry":{"x":167737.16000000015,"y":2544098.3300000019}},{"attributes":{"ID":565144,"DIS_CODE":0,"TOWNNAME":"中西區","LI":"水仙里","LIN":"9鄰","STREET":"和平街","SECT":" ","MAREA":" ","LANE":" ","ALLEY":" ","HOUSE_NO":"６９號","E_COORD97":167731.45000000001,"N_COORD97":2544100.4199999999,"ADDRESS":"和平街６９號","OBJECTID":565117},"geometry":{"x":167731.45000000112,"y":2544100.4200000018}},{"attributes":{"ID":565145,"DIS_CODE":0,"TOWNNAME":"中西區","LI":"水仙里","LIN":"9鄰","STREET":"和平街","SECT":" ","MAREA":" ","LANE":" ","ALLEY":" ","HOUSE_NO":"７１號","E_COORD97":167727,"N_COORD97":2544101.9500000002,"ADDRESS":"和平街７１號","OBJECTID":565118},"geometry":{"x":167727.00000000093,"y":2544101.950000003}},{"attributes":{"ID":565146,"DIS_CODE":0,"TOWNNAME":"永康區","LI":"永康里","LIN":"9鄰","STREET":"永中街","SECT":" ","MAREA":" ","LANE":" ","ALLEY":" ","HOUSE_NO":"４１號","E_COORD97":173903.60999999999,"N_COORD97":2547177.75,"ADDRESS":"永中街４１號","OBJECTID":565119},"geometry":{"x":173903.6100000022,"y":2547177.75}},{"attributes":{"ID":565147,"DIS_CODE":0,"TOWNNAME":"永康區","LI":"中華里","LIN":"6鄰","STREET":"華興街","SECT":" ","MAREA":" ","LANE":" ","ALLEY":" ","HOUSE_NO":"５５號","E_COORD97":171953.22,"N_COORD97":2544563.0899999999,"ADDRESS":"華興街５５號","OBJECTID":565120},"geometry":{"x":171953.22000000067,"y":2544563.0900000017}},{"attributes":{"ID":565148,"DIS_CODE":0,"TOWNNAME":"永康區","LI":"安康里","LIN":"9鄰","STREET":"中華西街","SECT":" ","MAREA":" ","LANE":" ","ALLEY":" ","HOUSE_NO":"１６號","E_COORD97":170831.17000000001,"N_COORD97":2545937.5,"ADDRESS":"中華西街１６號","OBJECTID":565121},"geometry":{"x":170831.17000000179,"y":2545937.5000000019}},{"attributes":{"ID":565149,"DIS_CODE":0,"TOWNNAME":"安南區","LI":"新順里","LIN":"9鄰","STREET":"安生街","SECT":" ","MAREA":" ","LANE":" ","ALLEY":" ","HOUSE_NO":"５５號","E_COORD97":169641.29000000001,"N_COORD97":2549472.8100000001,"ADDRESS":"安生街５５號","OBJECTID":565122},"geometry":{"x":169641.29000000004,"y":2549472.8100000005}},{"attributes":{"ID":565150,"DIS_CODE":0,"TOWNNAME":"永康區","LI":"永康里","LIN":"9鄰","STREET":"永中街","SECT":" ","MAREA":" ","LANE":" ","ALLEY":" ","HOUSE_NO":"４９號","E_COORD97":173914.12,"N_COORD97":2547192.9900000002,"ADDRESS":"永中街４９號","OBJECTID":565123},"geometry":{"x":173914.12000000104,"y":2547192.9900000002}},{"attributes":{"ID":565151,"DIS_CODE":0,"TOWNNAME":"永康區","LI":"永康里","LIN":"9鄰","STREET":"永康街","SECT":" ","MAREA":" ","LANE":" ","ALLEY":" ","HOUSE_NO":"８７號","E_COORD97":173841.10999999999,"N_COORD97":2547174.25,"ADDRESS":"永康街８７號","OBJECTID":565124},"geometry":{"x":173841.11000000127,"y":2547174.25}},{"attributes":{"ID":565152,"DIS_CODE":0,"TOWNNAME":"中西區","LI":"元安里","LIN":"9鄰","STREET":"國華街","SECT":"二段","MAREA":" ","LANE":" ","ALLEY":" ","HOUSE_NO":"６３號","E_COORD97":167613.01000000001,"N_COORD97":2543321.1299999999,"ADDRESS":"國華街二段６３號","OBJECTID":565125},"geometry":{"x":167613.01000000164,"y":2543321.1300000008}},{"attributes":{"ID":565153,"DIS_CODE":0,"TOWNNAME":"中西區","LI":"元安里","LIN":"9鄰","STREET":"國華街","SECT":"二段","MAREA":" ","LANE":" ","ALLEY":" ","HOUSE_NO":"６７號","E_COORD97":167612.85000000001,"N_COORD97":2543331.6299999999,"ADDRESS":"國華街二段６７號","OBJECTID":565126},"geometry":{"x":167612.85000000056,"y":2543331.6300000008}},{"attributes":{"ID":565154,"DIS_CODE":0,"TOWNNAME":"中西區","LI":"元安里","LIN":"9鄰","STREET":"西門路","SECT":"一段","MAREA":" ","LANE":" ","ALLEY":" ","HOUSE_NO":"７４５號","E_COORD97":167689.76000000001,"N_COORD97":2543336.8100000001,"ADDRESS":"西門路一段７４５號","OBJECTID":565127},"geometry":{"x":167689.76000000071,"y":2543336.8100000005}},{"attributes":{"ID":565155,"DIS_CODE":0,"TOWNNAME":"永康區","LI":"中華里","LIN":"12鄰","STREET":"忠勇街","SECT":" ","MAREA":" ","LANE":" ","ALLEY":" ","HOUSE_NO":"４５號","E_COORD97":171877.79000000001,"N_COORD97":2544446.0499999998,"ADDRESS":"忠勇街４５號","OBJECTID":565128},"geometry":{"x":171877.79000000004,"y":2544446.0500000026}},{"attributes":{"ID":565156,"DIS_CODE":0,"TOWNNAME":"中西區","LI":"元安里","LIN":"9鄰","STREET":"國華街","SECT":"二段","MAREA":" ","LANE":" ","ALLEY":" ","HOUSE_NO":"８２號","E_COORD97":167629.82999999999,"N_COORD97":2543335.4700000002,"ADDRESS":"國華街二段８２號","OBJECTID":565129},"geometry":{"x":167629.83000000194,"y":2543335.4700000007}},{"attributes":{"ID":565157,"DIS_CODE":0,"TOWNNAME":"中西區","LI":"民主里","LIN":"9鄰","STREET":"尊王路","SECT":" ","MAREA":" ","LANE":" ","ALLEY":" ","HOUSE_NO":"１４５號","E_COORD97":167310.28,"N_COORD97":2543625.5499999998,"ADDRESS":"尊王路１４５號","OBJECTID":565130},"geometry":{"x":167310.28000000119,"y":2543625.5500000026}},{"attributes":{"ID":565158,"DIS_CODE":0,"TOWNNAME":"中西區","LI":"民主里","LIN":"9鄰","STREET":"尊王路","SECT":" ","MAREA":" ","LANE":" ","ALLEY":" ","HOUSE_NO":"１５３號","E_COORD97":167290.66,"N_COORD97":2543629.1899999999,"ADDRESS":"尊王路１５３號","OBJECTID":565131},"geometry":{"x":167290.66000000108,"y":2543629.1900000032}},{"attributes":{"ID":565159,"DIS_CODE":0,"TOWNNAME":"中西區","LI":"民主里","LIN":"9鄰","STREET":"尊王路","SECT":" ","MAREA":" ","LANE":" ","ALLEY":" ","HOUSE_NO":"１５１號","E_COORD97":167294.01999999999,"N_COORD97":2543628.6299999999,"ADDRESS":"尊王路１５１號","OBJECTID":565132},"geometry":{"x":167294.02000000142,"y":2543628.629999999}},{"attributes":{"ID":565160,"DIS_CODE":0,"TOWNNAME":"中西區","LI":"民主里","LIN":"9鄰","STREET":"尊王路","SECT":" ","MAREA":" ","LANE":" ","ALLEY":" ","HOUSE_NO":"１４９號","E_COORD97":167298.37,"N_COORD97":2543628.0699999998,"ADDRESS":"尊王路１４９號","OBJECTID":565133},"geometry":{"x":167298.37000000011,"y":2543628.0700000022}},{"attributes":{"ID":565161,"DIS_CODE":0,"TOWNNAME":"中西區","LI":"民主里","LIN":"9鄰","STREET":"尊王路","SECT":" ","MAREA":" ","LANE":" ","ALLEY":" ","HOUSE_NO":"１４７號","E_COORD97":167304.67000000001,"N_COORD97":2543625.9700000002,"ADDRESS":"尊王路１４７號","OBJECTID":565134},"geometry":{"x":167304.66999999993,"y":2543625.9700000025}},{"attributes":{"ID":565162,"DIS_CODE":0,"TOWNNAME":"安南區","LI":"大安里","LIN":"4鄰","STREET":"理安街","SECT":" ","MAREA":" ","LANE":" ","ALLEY":" ","HOUSE_NO":"３８號","E_COORD97":167325.38,"N_COORD97":2547952.7799999998,"ADDRESS":"理安街３８號","OBJECTID":565135},"geometry":{"x":167325.37999999989,"y":2547952.7800000012}},{"attributes":{"ID":565163,"DIS_CODE":0,"TOWNNAME":"永康區","LI":"中華里","LIN":"24鄰","STREET":"華興街","SECT":" ","MAREA":" ","LANE":" ","ALLEY":" ","HOUSE_NO":"１７０號","E_COORD97":171665.10000000001,"N_COORD97":2544580.7999999998,"ADDRESS":"華興街１７０號","OBJECTID":565136},"geometry":{"x":171665.09999999963,"y":2544580.8000000007}},{"attributes":{"ID":565164,"DIS_CODE":0,"TOWNNAME":"安南區","LI":"新順里","LIN":"9鄰","STREET":"安生街","SECT":" ","MAREA":" ","LANE":" ","ALLEY":" ","HOUSE_NO":"５７號","E_COORD97":169635.94,"N_COORD97":2549471.0299999998,"ADDRESS":"安生街５７號","OBJECTID":565137},"geometry":{"x":169635.94000000041,"y":2549471.0299999993}},{"attributes":{"ID":565165,"DIS_CODE":0,"TOWNNAME":"永康區","LI":"\u25A0洲里","LIN":"1鄰","STREET":"仁愛街","SECT":" ","MAREA":" ","LANE":" ","ALLEY":" ","HOUSE_NO":"１７號","E_COORD97":171944.81,"N_COORD97":2549239.96,"ADDRESS":"仁愛街１７號","OBJECTID":565138},"geometry":{"x":171944.80999999959,"y":2549239.9600000046}},{"attributes":{"ID":565166,"DIS_CODE":0,"TOWNNAME":"安南區","LI":"新順里","LIN":"9鄰","STREET":"安生街","SECT":" ","MAREA":" ","LANE":" ","ALLEY":" ","HOUSE_NO":"５９號","E_COORD97":169632.63,"N_COORD97":2549474.0800000001,"ADDRESS":"安生街５９號","OBJECTID":565139},"geometry":{"x":169632.62999999989,"y":2549474.0800000001}},{"attributes":{"ID":565167,"DIS_CODE":0,"TOWNNAME":"安南區","LI":"新順里","LIN":"9鄰","STREET":"安生街","SECT":" ","MAREA":" ","LANE":" ","ALLEY":" ","HOUSE_NO":"６９號","E_COORD97":169605.60999999999,"N_COORD97":2549483.4500000002,"ADDRESS":"安生街６９號","OBJECTID":565140},"geometry":{"x":169605.61000000034,"y":2549483.4500000011}},{"attributes":{"ID":565168,"DIS_CODE":0,"TOWNNAME":"安南區","LI":"新順里","LIN":"9鄰","STREET":"安生街","SECT":" ","MAREA":" ","LANE":" ","ALLEY":" ","HOUSE_NO":"７９號","E_COORD97":169584.32000000001,"N_COORD97":2549497.04,"ADDRESS":"安生街７９號","OBJECTID":565141},"geometry":{"x":169584.3200000003,"y":2549497.0399999991}},{"attributes":{"ID":565169,"DIS_CODE":0,"TOWNNAME":"永康區","LI":"復國里","LIN":"14鄰","STREET":"復國二路","SECT":" ","MAREA":" ","LANE":" ","ALLEY":" ","HOUSE_NO":"１３２號","E_COORD97":172900.53,"N_COORD97":2545570.8500000001,"ADDRESS":"復國二路１３２號","OBJECTID":565142},"geometry":{"x":172900.53000000212,"y":2545570.8500000034}},{"attributes":{"ID":565170,"DIS_CODE":0,"TOWNNAME":"永康區","LI":"永康里","LIN":" ","STREET":"永平街","SECT":" ","MAREA":" ","LANE":" ","ALLEY":" ","HOUSE_NO":"４２號","E_COORD97":174326.51000000001,"N_COORD97":2546846.25,"ADDRESS":"永平街４２號","OBJECTID":565143},"geometry":{"x":174326.51000000071,"y":2546846.25}},{"attributes":{"ID":565171,"DIS_CODE":0,"TOWNNAME":"新化區","LI":"太平里","LIN":"9鄰","STREET":"中正路","SECT":" ","MAREA":" ","LANE":" ","ALLEY":" ","HOUSE_NO":"６７０號之１","E_COORD97":178648.14000000001,"N_COORD97":2549547.2599999998,"ADDRESS":"中正路６７０號之１","OBJECTID":565144},"geometry":{"x":178648.1400000006,"y":2549547.2599999998}},{"attributes":{"ID":565172,"DIS_CODE":0,"TOWNNAME":"新化區","LI":"太平里","LIN":"9鄰","STREET":"中正路","SECT":" ","MAREA":" ","LANE":" ","ALLEY":" ","HOUSE_NO":"６９８號之２","E_COORD97":178562.26000000001,"N_COORD97":2549680.2599999998,"ADDRESS":"中正路６９８號之２","OBJECTID":565145},"geometry":{"x":178562.26000000164,"y":2549680.2599999998}},{"attributes":{"ID":565173,"DIS_CODE":0,"TOWNNAME":"新化區","LI":"豐榮里","LIN":"9鄰","STREET":"中山路","SECT":" ","MAREA":" ","LANE":" ","ALLEY":" ","HOUSE_NO":"５２１號","E_COORD97":178518.81,"N_COORD97":2548418.25,"ADDRESS":"中山路５２１號","OBJECTID":565146},"geometry":{"x":178518.80999999959,"y":2548418.25}},{"attributes":{"ID":565174,"DIS_CODE":0,"TOWNNAME":"新化區","LI":"太平里","LIN":"9鄰","STREET":"中正路","SECT":" ","MAREA":" ","LANE":" ","ALLEY":" ","HOUSE_NO":"６９２號之２","E_COORD97":178581.56,"N_COORD97":2549635.2599999998,"ADDRESS":"中正路６９２號之２","OBJECTID":565147},"geometry":{"x":178581.55999999959,"y":2549635.2599999998}},{"attributes":{"ID":565175,"DIS_CODE":0,"TOWNNAME":"新化區","LI":"豐榮里","LIN":"9鄰","STREET":"中山路","SECT":" ","MAREA":" ","LANE":" ","ALLEY":" ","HOUSE_NO":"５４１號","E_COORD97":178475.41,"N_COORD97":2548428.25,"ADDRESS":"中山路５４１號","OBJECTID":565148},"geometry":{"x":178475.41000000108,"y":2548428.2500000019}},{"attributes":{"ID":565176,"DIS_CODE":0,"TOWNNAME":"新化區","LI":"太平里","LIN":"9鄰","STREET":"中正路","SECT":" ","MAREA":" ","LANE":" ","ALLEY":" ","HOUSE_NO":"６８２號","E_COORD97":178608.70999999999,"N_COORD97":2549578.25,"ADDRESS":"中正路６８２號","OBJECTID":565149},"geometry":{"x":178608.71000000089,"y":2549578.25}},{"attributes":{"ID":565177,"DIS_CODE":0,"TOWNNAME":"新化區","LI":"豐榮里","LIN":"9鄰","STREET":"中山路","SECT":" ","MAREA":" ","LANE":" ","ALLEY":" ","HOUSE_NO":"５２９號","E_COORD97":178505.60999999999,"N_COORD97":2548423.25,"ADDRESS":"中山路５２９號","OBJECTID":565150},"geometry":{"x":178505.61000000034,"y":2548423.2500000037}},{"attributes":{"ID":565178,"DIS_CODE":0,"TOWNNAME":"新化區","LI":"豐榮里","LIN":"9鄰","STREET":"中山路","SECT":" ","MAREA":" ","LANE":" ","ALLEY":" ","HOUSE_NO":"５１５號","E_COORD97":178529.01000000001,"N_COORD97":2548415.25,"ADDRESS":"中山路５１５號","OBJECTID":565151},"geometry":{"x":178529.01000000071,"y":2548415.25}},{"attributes":{"ID":565179,"DIS_CODE":0,"TOWNNAME":"新化區","LI":"豐榮里","LIN":"9鄰","STREET":"大智路","SECT":" ","MAREA":" ","LANE":" ","ALLEY":" ","HOUSE_NO":"４３號","E_COORD97":178314.38,"N_COORD97":2548357.25,"ADDRESS":"大智路４３號","OBJECTID":565152},"geometry":{"x":178314.38000000082,"y":2548357.25}},{"attributes":{"ID":565180,"DIS_CODE":0,"TOWNNAME":"安南區","LI":"新順里","LIN":"9鄰","STREET":"安生街","SECT":" ","MAREA":" ","LANE":" ","ALLEY":" ","HOUSE_NO":"８１號","E_COORD97":169579.10000000001,"N_COORD97":2549496.1699999999,"ADDRESS":"安生街８１號","OBJECTID":565153},"geometry":{"x":169579.10000000056,"y":2549496.1700000018}},{"attributes":{"ID":565181,"DIS_CODE":0,"TOWNNAME":"安南區","LI":"新順里","LIN":"9鄰","STREET":"安生街","SECT":" ","MAREA":" ","LANE":" ","ALLEY":" ","HOUSE_NO":"８３號","E_COORD97":169566.73999999999,"N_COORD97":2549504.5099999998,"ADDRESS":"安生街８３號","OBJECTID":565154},"geometry":{"x":169566.74000000115,"y":2549504.5099999998}},{"attributes":{"ID":565182,"DIS_CODE":0,"TOWNNAME":"永康區","LI":"五王里","LIN":" ","STREET":"中山南路","SECT":" ","MAREA":" ","LANE":" ","ALLEY":" ","HOUSE_NO":"１８６號","E_COORD97":171345.76000000001,"N_COORD97":2546005.25,"ADDRESS":"中山南路１８６號","OBJECTID":565155},"geometry":{"x":171345.76000000164,"y":2546005.25}},{"attributes":{"ID":565183,"DIS_CODE":0,"TOWNNAME":"安南區","LI":"新順里","LIN":"9鄰","STREET":"安生街","SECT":" ","MAREA":" ","LANE":" ","ALLEY":" ","HOUSE_NO":"６１號","E_COORD97":169625.48999999999,"N_COORD97":2549475.3900000001,"ADDRESS":"安生街６１號","OBJECTID":565156},"geometry":{"x":169625.49000000022,"y":2549475.3900000025}},{"attributes":{"ID":565184,"DIS_CODE":0,"TOWNNAME":"安南區","LI":"新順里","LIN":"9鄰","STREET":"安生街","SECT":" ","MAREA":" ","LANE":" ","ALLEY":" ","HOUSE_NO":"１０３號","E_COORD97":169513.12,"N_COORD97":2549518.4300000002,"ADDRESS":"安生街１０３號","OBJECTID":565157},"geometry":{"x":169513.12000000104,"y":2549518.4300000016}},{"attributes":{"ID":565185,"DIS_CODE":0,"TOWNNAME":"安南區","LI":"新順里","LIN":"9鄰","STREET":"安生街","SECT":" ","MAREA":" ","LANE":" ","ALLEY":" ","HOUSE_NO":"１１３號","E_COORD97":169505.10999999999,"N_COORD97":2549532.8599999999,"ADDRESS":"安生街１１３號","OBJECTID":565158},"geometry":{"x":169505.11000000127,"y":2549532.8599999994}},{"attributes":{"ID":565186,"DIS_CODE":0,"TOWNNAME":"安南區","LI":"新順里","LIN":"9鄰","STREET":"安生街","SECT":" ","MAREA":" ","LANE":" ","ALLEY":" ","HOUSE_NO":"１１７號","E_COORD97":169491.88,"N_COORD97":2549540,"ADDRESS":"安生街１１７號","OBJECTID":565159},"geometry":{"x":169491.87999999989,"y":2549540}},{"attributes":{"ID":565187,"DIS_CODE":0,"TOWNNAME":"安南區","LI":"新順里","LIN":"9鄰","STREET":"安生街","SECT":" ","MAREA":" ","LANE":" ","ALLEY":" ","HOUSE_NO":"１２１號","E_COORD97":169479.91,"N_COORD97":2549543.73,"ADDRESS":"安生街１２１號","OBJECTID":565160},"geometry":{"x":169479.91000000015,"y":2549543.7300000023}},{"attributes":{"ID":565188,"DIS_CODE":0,"TOWNNAME":"安南區","LI":"新順里","LIN":"9鄰","STREET":"安生街","SECT":" ","MAREA":" ","LANE":" ","ALLEY":" ","HOUSE_NO":"１２９號","E_COORD97":169473.29999999999,"N_COORD97":2549551.0299999998,"ADDRESS":"安生街１２９號","OBJECTID":565161},"geometry":{"x":169473.29999999981,"y":2549551.0300000012}},{"attributes":{"ID":565189,"DIS_CODE":0,"TOWNNAME":"安南區","LI":"新順里","LIN":"9鄰","STREET":"安生街","SECT":" ","MAREA":" ","LANE":" ","ALLEY":" ","HOUSE_NO":"１３５號","E_COORD97":169472.76999999999,"N_COORD97":2549521.29,"ADDRESS":"安生街１３５號","OBJECTID":565162},"geometry":{"x":169472.77000000048,"y":2549521.290000001}},{"attributes":{"ID":565190,"DIS_CODE":0,"TOWNNAME":"安南區","LI":"新順里","LIN":"9鄰","STREET":"安生街","SECT":" ","MAREA":" ","LANE":" ","ALLEY":" ","HOUSE_NO":"１３７號","E_COORD97":169451.01000000001,"N_COORD97":2549540.5899999999,"ADDRESS":"安生街１３７號","OBJECTID":565163},"geometry":{"x":169451.01000000071,"y":2549540.5900000017}},{"attributes":{"ID":565191,"DIS_CODE":0,"TOWNNAME":"安南區","LI":"新順里","LIN":"9鄰","STREET":"安生街","SECT":" ","MAREA":" ","LANE":" ","ALLEY":" ","HOUSE_NO":"１４１號","E_COORD97":169445.44,"N_COORD97":2549541.1200000001,"ADDRESS":"安生街１４１號","OBJECTID":565164},"geometry":{"x":169445.44000000134,"y":2549541.1200000029}},{"attributes":{"ID":565192,"DIS_CODE":0,"TOWNNAME":"安南區","LI":"新順里","LIN":"9鄰","STREET":"安生街","SECT":" ","MAREA":" ","LANE":" ","ALLEY":" ","HOUSE_NO":"１４５號","E_COORD97":169435.51999999999,"N_COORD97":2549537.6400000001,"ADDRESS":"安生街１４５號","OBJECTID":565165},"geometry":{"x":169435.52000000048,"y":2549537.6400000025}},{"attributes":{"ID":565193,"DIS_CODE":0,"TOWNNAME":"安南區","LI":"新順里","LIN":"9鄰","STREET":"安生街","SECT":" ","MAREA":" ","LANE":" ","ALLEY":" ","HOUSE_NO":"７７號","E_COORD97":169587.28,"N_COORD97":2549494.9500000002,"ADDRESS":"安生街７７號","OBJECTID":565166},"geometry":{"x":169587.28000000119,"y":2549494.9499999993}},{"attributes":{"ID":565194,"DIS_CODE":0,"TOWNNAME":"安南區","LI":"新順里","LIN":"9鄰","STREET":"安生街","SECT":" ","MAREA":" ","LANE":" ","ALLEY":" ","HOUSE_NO":"５１號","E_COORD97":169649.45000000001,"N_COORD97":2549469.75,"ADDRESS":"安生街５１號","OBJECTID":565167},"geometry":{"x":169649.45000000019,"y":2549469.75}},{"attributes":{"ID":565195,"DIS_CODE":0,"TOWNNAME":"安南區","LI":"新順里","LIN":"9鄰","STREET":"安生街","SECT":" ","MAREA":" ","LANE":" ","ALLEY":" ","HOUSE_NO":"５３號","E_COORD97":169643.84,"N_COORD97":2549469.5,"ADDRESS":"安生街５３號","OBJECTID":565168},"geometry":{"x":169643.84000000078,"y":2549469.5000000019}},{"attributes":{"ID":565196,"DIS_CODE":0,"TOWNNAME":"新化區","LI":"豐榮里","LIN":"9鄰","STREET":"中山路","SECT":" ","MAREA":" ","LANE":" ","ALLEY":" ","HOUSE_NO":"５０５號","E_COORD97":178547.70999999999,"N_COORD97":2548412.25,"ADDRESS":"中山路５０５號","OBJECTID":565169},"geometry":{"x":178547.71000000089,"y":2548412.25}},{"attributes":{"ID":565197,"DIS_CODE":0,"TOWNNAME":"新化區","LI":"豐榮里","LIN":"9鄰","STREET":"中山路","SECT":" ","MAREA":" ","LANE":" ","ALLEY":" ","HOUSE_NO":"５１９號","E_COORD97":178522.70999999999,"N_COORD97":2548417.25,"ADDRESS":"中山路５１９號","OBJECTID":565170},"geometry":{"x":178522.71000000089,"y":2548417.2500000019}},{"attributes":{"ID":565198,"DIS_CODE":0,"TOWNNAME":"新化區","LI":"豐榮里","LIN":"9鄰","STREET":"中山路","SECT":" ","MAREA":" ","LANE":" ","ALLEY":" ","HOUSE_NO":"５４３號","E_COORD97":178470.10999999999,"N_COORD97":2548429.25,"ADDRESS":"中山路５４３號","OBJECTID":565171},"geometry":{"x":178470.11000000034,"y":2548429.25}},{"attributes":{"ID":565199,"DIS_CODE":0,"TOWNNAME":"新化區","LI":"豐榮里","LIN":"9鄰","STREET":"中山路","SECT":" ","MAREA":" ","LANE":" ","ALLEY":" ","HOUSE_NO":"５４９號","E_COORD97":178440.01000000001,"N_COORD97":2548438.25,"ADDRESS":"中山路５４９號","OBJECTID":565172},"geometry":{"x":178440.01000000164,"y":2548438.2500000019}},{"attributes":{"ID":565200,"DIS_CODE":0,"TOWNNAME":"新化區","LI":"豐榮里","LIN":"9鄰","STREET":"中山路","SECT":" ","MAREA":" ","LANE":" ","ALLEY":" ","HOUSE_NO":"５３５號","E_COORD97":178496.20999999999,"N_COORD97":2548423.25,"ADDRESS":"中山路５３５號","OBJECTID":565173},"geometry":{"x":178496.20999999996,"y":2548423.2500000037}},{"attributes":{"ID":565201,"DIS_CODE":0,"TOWNNAME":"新化區","LI":"豐榮里","LIN":"9鄰","STREET":"中山路","SECT":" ","MAREA":" ","LANE":" ","ALLEY":" ","HOUSE_NO":"５４５號","E_COORD97":178465.10999999999,"N_COORD97":2548430.25,"ADDRESS":"中山路５４５號","OBJECTID":565174},"geometry":{"x":178465.11000000034,"y":2548430.2500000037}},{"attributes":{"ID":565202,"DIS_CODE":0,"TOWNNAME":"新化區","LI":"豐榮里","LIN":"9鄰","STREET":"中山路","SECT":" ","MAREA":" ","LANE":" ","ALLEY":" ","HOUSE_NO":"５４７號","E_COORD97":178456.01000000001,"N_COORD97":2548434.25,"ADDRESS":"中山路５４７號","OBJECTID":565175},"geometry":{"x":178456.01000000071,"y":2548434.2500000019}},{"attributes":{"ID":565203,"DIS_CODE":0,"TOWNNAME":"新化區","LI":"豐榮里","LIN":"9鄰","STREET":"中山路","SECT":" ","MAREA":" ","LANE":" ","ALLEY":" ","HOUSE_NO":"５１３號","E_COORD97":178532.10999999999,"N_COORD97":2548415.25,"ADDRESS":"中山路５１３號","OBJECTID":565176},"geometry":{"x":178532.11000000127,"y":2548415.25}},{"attributes":{"ID":565204,"DIS_CODE":0,"TOWNNAME":"新化區","LI":"豐榮里","LIN":"9鄰","STREET":"中山路","SECT":" ","MAREA":" ","LANE":" ","ALLEY":" ","HOUSE_NO":"５３９號","E_COORD97":178481.60999999999,"N_COORD97":2548427.25,"ADDRESS":"中山路５３９號","OBJECTID":565177},"geometry":{"x":178481.61000000034,"y":2548427.2500000019}},{"attributes":{"ID":565205,"DIS_CODE":0,"TOWNNAME":"新化區","LI":"豐榮里","LIN":"9鄰","STREET":"中山路","SECT":" ","MAREA":" ","LANE":" ","ALLEY":" ","HOUSE_NO":"５３７號","E_COORD97":178491.01000000001,"N_COORD97":2548425.25,"ADDRESS":"中山路５３７號","OBJECTID":565178},"geometry":{"x":178491.01000000164,"y":2548425.25}},{"attributes":{"ID":565206,"DIS_CODE":0,"TOWNNAME":"新化區","LI":"豐榮里","LIN":"9鄰","STREET":"中山路","SECT":" ","MAREA":" ","LANE":" ","ALLEY":" ","HOUSE_NO":"５１１號","E_COORD97":178538.01000000001,"N_COORD97":2548413.25,"ADDRESS":"中山路５１１號","OBJECTID":565179},"geometry":{"x":178538.00999999978,"y":2548413.2500000037}},{"attributes":{"ID":565207,"DIS_CODE":0,"TOWNNAME":"新化區","LI":"豐榮里","LIN":"9鄰","STREET":"大智路","SECT":" ","MAREA":" ","LANE":" ","ALLEY":" ","HOUSE_NO":"１號","E_COORD97":178399.53,"N_COORD97":2548443.25,"ADDRESS":"大智路１號","OBJECTID":565180},"geometry":{"x":178399.53000000026,"y":2548443.25}},{"attributes":{"ID":565208,"DIS_CODE":0,"TOWNNAME":"新化區","LI":"太平里","LIN":"9鄰","STREET":"中正路","SECT":" ","MAREA":" ","LANE":" ","ALLEY":" ","HOUSE_NO":"６６６號之１","E_COORD97":178625.94,"N_COORD97":2549541.2599999998,"ADDRESS":"中正路６６６號之１","OBJECTID":565181},"geometry":{"x":178625.94000000227,"y":2549541.2599999998}},{"attributes":{"ID":565209,"DIS_CODE":0,"TOWNNAME":"新化區","LI":"豐榮里","LIN":"9鄰","STREET":"大智路","SECT":" ","MAREA":" ","LANE":" ","ALLEY":" ","HOUSE_NO":"３號","E_COORD97":178396.53,"N_COORD97":2548440.25,"ADDRESS":"大智路３號","OBJECTID":565182},"geometry":{"x":178396.53000000119,"y":2548440.2500000037}},{"attributes":{"ID":565210,"DIS_CODE":0,"TOWNNAME":"新化區","LI":"太平里","LIN":"9鄰","STREET":"中正路","SECT":" ","MAREA":" ","LANE":" ","ALLEY":" ","HOUSE_NO":"６７０號之１３","E_COORD97":178666.91,"N_COORD97":2549556.2599999998,"ADDRESS":"中正路６７０號之１３","OBJECTID":565183},"geometry":{"x":178666.91000000108,"y":2549556.2600000016}},{"attributes":{"ID":565211,"DIS_CODE":0,"TOWNNAME":"新化區","LI":"太平里","LIN":"9鄰","STREET":"中正路","SECT":" ","MAREA":" ","LANE":" ","ALLEY":" ","HOUSE_NO":"６９８號","E_COORD97":178565.41,"N_COORD97":2549671.25,"ADDRESS":"中正路６９８號","OBJECTID":565184},"geometry":{"x":178565.41000000108,"y":2549671.2500000019}},{"attributes":{"ID":565212,"DIS_CODE":0,"TOWNNAME":"新化區","LI":"太平里","LIN":"9鄰","STREET":"中正路","SECT":" ","MAREA":" ","LANE":" ","ALLEY":" ","HOUSE_NO":"６９２號之４","E_COORD97":178577.64000000001,"N_COORD97":2549642.2599999998,"ADDRESS":"中正路６９２號之４","OBJECTID":565185},"geometry":{"x":178577.63999999966,"y":2549642.2599999998}},{"attributes":{"ID":565213,"DIS_CODE":0,"TOWNNAME":"新化區","LI":"太平里","LIN":"9鄰","STREET":"中正路","SECT":" ","MAREA":" ","LANE":" ","ALLEY":" ","HOUSE_NO":"６７０號之１４","E_COORD97":178674.39000000001,"N_COORD97":2549548.2599999998,"ADDRESS":"中正路６７０號之１４","OBJECTID":565186},"geometry":{"x":178674.38999999966,"y":2549548.2599999998}},{"attributes":{"ID":565214,"DIS_CODE":0,"TOWNNAME":"新化區","LI":"太平里","LIN":"9鄰","STREET":"中正路","SECT":" ","MAREA":" ","LANE":" ","ALLEY":" ","HOUSE_NO":"６７０號之２９","E_COORD97":178697.60000000001,"N_COORD97":2549565.2599999998,"ADDRESS":"中正路６７０號之２９","OBJECTID":565187},"geometry":{"x":178697.60000000056,"y":2549565.2599999979}},{"attributes":{"ID":565215,"DIS_CODE":0,"TOWNNAME":"新化區","LI":"太平里","LIN":"9鄰","STREET":"中正路","SECT":" ","MAREA":" ","LANE":" ","ALLEY":" ","HOUSE_NO":"６７０號之２３","E_COORD97":178685.60999999999,"N_COORD97":2549561.2599999998,"ADDRESS":"中正路６７０號之２３","OBJECTID":565188},"geometry":{"x":178685.61000000034,"y":2549561.2599999998}},{"attributes":{"ID":565216,"DIS_CODE":0,"TOWNNAME":"新化區","LI":"太平里","LIN":"9鄰","STREET":"中正路","SECT":" ","MAREA":" ","LANE":" ","ALLEY":" ","HOUSE_NO":"６８０號","E_COORD97":178610.51000000001,"N_COORD97":2549574.25,"ADDRESS":"中正路６８０號","OBJECTID":565189},"geometry":{"x":178610.50999999978,"y":2549574.2500000019}},{"attributes":{"ID":565217,"DIS_CODE":0,"TOWNNAME":"新化區","LI":"太平里","LIN":"9鄰","STREET":"中正路","SECT":" ","MAREA":" ","LANE":" ","ALLEY":" ","HOUSE_NO":"６７０號之３１","E_COORD97":178700.98999999999,"N_COORD97":2549567.2599999998,"ADDRESS":"中正路６７０號之３１","OBJECTID":565190},"geometry":{"x":178700.99000000022,"y":2549567.2599999998}},{"attributes":{"ID":565218,"DIS_CODE":0,"TOWNNAME":"新化區","LI":"太平里","LIN":"9鄰","STREET":"中正路","SECT":" ","MAREA":" ","LANE":" ","ALLEY":" ","HOUSE_NO":"６７０號之２０","E_COORD97":178686.20000000001,"N_COORD97":2549552.2599999998,"ADDRESS":"中正路６７０號之２０","OBJECTID":565191},"geometry":{"x":178686.20000000019,"y":2549552.2600000016}},{"attributes":{"ID":565219,"DIS_CODE":0,"TOWNNAME":"新化區","LI":"太平里","LIN":"9鄰","STREET":"中正路","SECT":" ","MAREA":" ","LANE":" ","ALLEY":" ","HOUSE_NO":"６７０號之１２","E_COORD97":178670.20999999999,"N_COORD97":2549547.2599999998,"ADDRESS":"中正路６７０號之１２","OBJECTID":565192},"geometry":{"x":178670.21000000089,"y":2549547.2599999998}},{"attributes":{"ID":565220,"DIS_CODE":0,"TOWNNAME":"新化區","LI":"太平里","LIN":"9鄰","STREET":"中正路","SECT":" ","MAREA":" ","LANE":" ","ALLEY":" ","HOUSE_NO":"６７０號之２２","E_COORD97":178689.81,"N_COORD97":2549553.2599999998,"ADDRESS":"中正路６７０號之２２","OBJECTID":565193},"geometry":{"x":178689.80999999959,"y":2549553.2600000016}},{"attributes":{"ID":565221,"DIS_CODE":0,"TOWNNAME":"新化區","LI":"太平里","LIN":"9鄰","STREET":"中正路","SECT":" ","MAREA":" ","LANE":" ","ALLEY":" ","HOUSE_NO":"６９０號之４","E_COORD97":178587.94,"N_COORD97":2549619.2599999998,"ADDRESS":"中正路６９０號之４","OBJECTID":565194},"geometry":{"x":178587.94000000041,"y":2549619.2599999998}},{"attributes":{"ID":565222,"DIS_CODE":0,"TOWNNAME":"新化區","LI":"太平里","LIN":"9鄰","STREET":"中正路","SECT":" ","MAREA":" ","LANE":" ","ALLEY":" ","HOUSE_NO":"６７０號之２５","E_COORD97":178689.62,"N_COORD97":2549563.25,"ADDRESS":"中正路６７０號之２５","OBJECTID":565195},"geometry":{"x":178689.62000000104,"y":2549563.2500000019}},{"attributes":{"ID":565223,"DIS_CODE":0,"TOWNNAME":"新化區","LI":"太平里","LIN":"9鄰","STREET":"中正路","SECT":" ","MAREA":" ","LANE":" ","ALLEY":" ","HOUSE_NO":"６７０號之２４","E_COORD97":178697.19,"N_COORD97":2549549.2599999998,"ADDRESS":"中正路６７０號之２４","OBJECTID":565196},"geometry":{"x":178697.19000000227,"y":2549549.2600000016}},{"attributes":{"ID":565224,"DIS_CODE":0,"TOWNNAME":"新化區","LI":"太平里","LIN":"9鄰","STREET":"中正路","SECT":" ","MAREA":" ","LANE":" ","ALLEY":" ","HOUSE_NO":"６７０號之１８","E_COORD97":178682.42000000001,"N_COORD97":2549551.2599999998,"ADDRESS":"中正路６７０號之１８","OBJECTID":565197},"geometry":{"x":178682.41999999993,"y":2549551.2599999998}},{"attributes":{"ID":565225,"DIS_CODE":0,"TOWNNAME":"新化區","LI":"太平里","LIN":"9鄰","STREET":"中正路","SECT":" ","MAREA":" ","LANE":" ","ALLEY":" ","HOUSE_NO":"６９２號之１","E_COORD97":178583.44,"N_COORD97":2549631.2599999998,"ADDRESS":"中正路６９２號之１","OBJECTID":565198},"geometry":{"x":178583.44000000041,"y":2549631.2600000016}},{"attributes":{"ID":565226,"DIS_CODE":0,"TOWNNAME":"新化區","LI":"太平里","LIN":"9鄰","STREET":"中正路","SECT":" ","MAREA":" ","LANE":" ","ALLEY":" ","HOUSE_NO":"６７０號之１１","E_COORD97":178662.98999999999,"N_COORD97":2549555.2599999998,"ADDRESS":"中正路６７０號之１１","OBJECTID":565199},"geometry":{"x":178662.99000000115,"y":2549555.2600000035}},{"attributes":{"ID":565227,"DIS_CODE":0,"TOWNNAME":"新化區","LI":"太平里","LIN":"9鄰","STREET":"中正路","SECT":" ","MAREA":" ","LANE":" ","ALLEY":" ","HOUSE_NO":"６７０號之２７","E_COORD97":178693.5,"N_COORD97":2549564.2599999998,"ADDRESS":"中正路６７０號之２７","OBJECTID":565200},"geometry":{"x":178693.50000000093,"y":2549564.2599999998}}]}