{"displayFieldName":"TOWNNAME","fieldAliases":{"ID":"ID","DIS_CODE":"DIS_CODE","TOWNNAME":"TOWNNAME","LI":"LI","LIN":"LIN","STREET":"STREET","SECT":"SECT","MAREA":"MAREA","LANE":"LANE","ALLEY":"ALLEY","HOUSE_NO":"HOUSE_NO","E_COORD97":"E_COORD97","N_COORD97":"N_COORD97","ADDRESS":"ADDRESS","OBJECTID":"OBJECTID"},"geometryType":"esriGeometryPoint","spatialReference":{"wkid":102443,"latestWkid":3826},"fields":[{"name":"ID","type":"esriFieldTypeDouble","alias":"ID"},{"name":"DIS_CODE","type":"esriFieldTypeInteger","alias":"DIS_CODE"},{"name":"TOWNNAME","type":"esriFieldTypeString","alias":"TOWNNAME","length":8},{"name":"LI","type":"esriFieldTypeString","alias":"LI","length":8},{"name":"LIN","type":"esriFieldTypeString","alias":"LIN","length":12},{"name":"STREET","type":"esriFieldTypeString","alias":"STREET","length":20},{"name":"SECT","type":"esriFieldTypeString","alias":"SECT","length":8},{"name":"MAREA","type":"esriFieldTypeString","alias":"MAREA","length":12},{"name":"LANE","type":"esriFieldTypeString","alias":"LANE","length":10},{"name":"ALLEY","type":"esriFieldTypeString","alias":"ALLEY","length":10},{"name":"HOUSE_NO","type":"esriFieldTypeString","alias":"HOUSE_NO","length":20},{"name":"E_COORD97","type":"esriFieldTypeDouble","alias":"E_COORD97"},{"name":"N_COORD97","type":"esriFieldTypeDouble","alias":"N_COORD97"},{"name":"ADDRESS","type":"esriFieldTypeString","alias":"ADDRESS","length":50},{"name":"OBJECTID","type":"esriFieldTypeOID","alias":"OBJECTID"}],"features":[{"attributes":{"ID":463426,"DIS_CODE":0,"TOWNNAME":"中西區","LI":"西湖里","LIN":"36鄰","STREET":"頂美三街","SECT":" ","MAREA":" ","LANE":" ","ALLEY":" ","HOUSE_NO":"９５號","E_COORD97":166571.45000000001,"N_COORD97":2544749.4300000002,"ADDRESS":"頂美三街９５號","OBJECTID":463401},"geometry":{"x":166571.45000000112,"y":2544749.4299999997}},{"attributes":{"ID":463427,"DIS_CODE":0,"TOWNNAME":"西港區","LI":"慶安里","LIN":"36鄰","STREET":"中山路","SECT":" ","MAREA":" ","LANE":" ","ALLEY":" ","HOUSE_NO":"７號","E_COORD97":168224.20999999999,"N_COORD97":2556696.75,"ADDRESS":"中山路７號","OBJECTID":463402},"geometry":{"x":168224.21000000089,"y":2556696.7500000019}},{"attributes":{"ID":463428,"DIS_CODE":0,"TOWNNAME":"西港區","LI":"慶安里","LIN":"36鄰","STREET":"中山路","SECT":" ","MAREA":" ","LANE":" ","ALLEY":" ","HOUSE_NO":"１１號","E_COORD97":168249.26000000001,"N_COORD97":2556720.98,"ADDRESS":"中山路１１號","OBJECTID":463403},"geometry":{"x":168249.26000000071,"y":2556720.9800000004}},{"attributes":{"ID":463429,"DIS_CODE":0,"TOWNNAME":"西港區","LI":"慶安里","LIN":"36鄰","STREET":"中山路","SECT":" ","MAREA":" ","LANE":" ","ALLEY":" ","HOUSE_NO":"１７之３號","E_COORD97":168431.25,"N_COORD97":2557017.2799999998,"ADDRESS":"中山路１７之３號","OBJECTID":463404},"geometry":{"x":168431.25,"y":2557017.2800000012}},{"attributes":{"ID":463430,"DIS_CODE":0,"TOWNNAME":"西港區","LI":"慶安里","LIN":"36鄰","STREET":"中山路","SECT":" ","MAREA":" ","LANE":" ","ALLEY":" ","HOUSE_NO":"１７之５號","E_COORD97":168439.16,"N_COORD97":2557031.6400000001,"ADDRESS":"中山路１７之５號","OBJECTID":463405},"geometry":{"x":168439.16000000015,"y":2557031.6400000006}},{"attributes":{"ID":463431,"DIS_CODE":0,"TOWNNAME":"西港區","LI":"慶安里","LIN":"36鄰","STREET":"中山路","SECT":" ","MAREA":" ","LANE":" ","ALLEY":" ","HOUSE_NO":"１７之８號","E_COORD97":168416.26999999999,"N_COORD97":2557058.5299999998,"ADDRESS":"中山路１７之８號","OBJECTID":463406},"geometry":{"x":168416.27000000048,"y":2557058.5299999993}},{"attributes":{"ID":463432,"DIS_CODE":0,"TOWNNAME":"西港區","LI":"慶安里","LIN":"36鄰","STREET":"中山路","SECT":" ","MAREA":" ","LANE":" ","ALLEY":" ","HOUSE_NO":"１７號","E_COORD97":168411.87,"N_COORD97":2556984.6299999999,"ADDRESS":"中山路１７號","OBJECTID":463407},"geometry":{"x":168411.87000000011,"y":2556984.6300000008}},{"attributes":{"ID":463433,"DIS_CODE":0,"TOWNNAME":"西港區","LI":"慶安里","LIN":"36鄰","STREET":"中山路","SECT":" ","MAREA":" ","LANE":" ","ALLEY":" ","HOUSE_NO":"２３號","E_COORD97":168421.42999999999,"N_COORD97":2557113.5099999998,"ADDRESS":"中山路２３號","OBJECTID":463408},"geometry":{"x":168421.4299999997,"y":2557113.5099999998}},{"attributes":{"ID":463434,"DIS_CODE":0,"TOWNNAME":"西港區","LI":"慶安里","LIN":"36鄰","STREET":"中山路","SECT":" ","MAREA":" ","LANE":" ","ALLEY":" ","HOUSE_NO":"２５號","E_COORD97":168434.94,"N_COORD97":2557111.6000000001,"ADDRESS":"中山路２５號","OBJECTID":463409},"geometry":{"x":168434.94000000134,"y":2557111.6000000015}},{"attributes":{"ID":463435,"DIS_CODE":0,"TOWNNAME":"西港區","LI":"慶安里","LIN":"36鄰","STREET":"中山路","SECT":" ","MAREA":" ","LANE":" ","ALLEY":" ","HOUSE_NO":"２７號之１","E_COORD97":168453.76000000001,"N_COORD97":2557084.0499999998,"ADDRESS":"中山路２７號之１","OBJECTID":463410},"geometry":{"x":168453.76000000164,"y":2557084.0500000007}},{"attributes":{"ID":463436,"DIS_CODE":0,"TOWNNAME":"西港區","LI":"慶安里","LIN":"36鄰","STREET":"中山路","SECT":" ","MAREA":" ","LANE":" ","ALLEY":" ","HOUSE_NO":"２７號之２","E_COORD97":168453.13,"N_COORD97":2557088.8500000001,"ADDRESS":"中山路２７號之２","OBJECTID":463411},"geometry":{"x":168453.13000000175,"y":2557088.8500000015}},{"attributes":{"ID":463437,"DIS_CODE":0,"TOWNNAME":"西港區","LI":"慶安里","LIN":"36鄰","STREET":"中山路","SECT":" ","MAREA":" ","LANE":" ","ALLEY":" ","HOUSE_NO":"２７號之３","E_COORD97":168453.95999999999,"N_COORD97":2557092.7200000002,"ADDRESS":"中山路２７號之３","OBJECTID":463412},"geometry":{"x":168453.95999999996,"y":2557092.7200000007}},{"attributes":{"ID":463438,"DIS_CODE":0,"TOWNNAME":"西港區","LI":"慶安里","LIN":"36鄰","STREET":"中山路","SECT":" ","MAREA":" ","LANE":" ","ALLEY":" ","HOUSE_NO":"２７號之４","E_COORD97":168454.79000000001,"N_COORD97":2557096.9700000002,"ADDRESS":"中山路２７號之４","OBJECTID":463413},"geometry":{"x":168454.79000000004,"y":2557096.9700000007}},{"attributes":{"ID":463439,"DIS_CODE":0,"TOWNNAME":"西港區","LI":"慶安里","LIN":"36鄰","STREET":"中山路","SECT":" ","MAREA":" ","LANE":" ","ALLEY":" ","HOUSE_NO":"２７號","E_COORD97":168454.32999999999,"N_COORD97":2557079.9500000002,"ADDRESS":"中山路２７號","OBJECTID":463414},"geometry":{"x":168454.33000000101,"y":2557079.9499999974}},{"attributes":{"ID":463440,"DIS_CODE":0,"TOWNNAME":"西港區","LI":"慶安里","LIN":"36鄰","STREET":"中山路","SECT":" ","MAREA":" ","LANE":" ","ALLEY":" ","HOUSE_NO":"２９號之１","E_COORD97":168456.60999999999,"N_COORD97":2557105.21,"ADDRESS":"中山路２９號之１","OBJECTID":463415},"geometry":{"x":168456.61000000034,"y":2557105.2100000028}},{"attributes":{"ID":463441,"DIS_CODE":0,"TOWNNAME":"西港區","LI":"慶安里","LIN":"36鄰","STREET":"中山路","SECT":" ","MAREA":" ","LANE":" ","ALLEY":" ","HOUSE_NO":"２９號之２","E_COORD97":168457.72,"N_COORD97":2557109.3599999999,"ADDRESS":"中山路２９號之２","OBJECTID":463416},"geometry":{"x":168457.72000000067,"y":2557109.3600000013}},{"attributes":{"ID":463442,"DIS_CODE":0,"TOWNNAME":"西港區","LI":"慶安里","LIN":"36鄰","STREET":"中山路","SECT":" ","MAREA":" ","LANE":" ","ALLEY":" ","HOUSE_NO":"２９號","E_COORD97":168455.64000000001,"N_COORD97":2557101.2599999998,"ADDRESS":"中山路２９號","OBJECTID":463417},"geometry":{"x":168455.63999999966,"y":2557101.2599999998}},{"attributes":{"ID":463443,"DIS_CODE":0,"TOWNNAME":"西港區","LI":"慶安里","LIN":"36鄰","STREET":"中山路","SECT":" ","MAREA":" ","LANE":" ","ALLEY":" ","HOUSE_NO":"３３之１號","E_COORD97":168467.64000000001,"N_COORD97":2557152.02,"ADDRESS":"中山路３３之１號","OBJECTID":463418},"geometry":{"x":168467.63999999966,"y":2557152.0200000014}},{"attributes":{"ID":463444,"DIS_CODE":0,"TOWNNAME":"西港區","LI":"慶安里","LIN":"36鄰","STREET":"中山路","SECT":" ","MAREA":" ","LANE":" ","ALLEY":" ","HOUSE_NO":"３７號","E_COORD97":168471.70000000001,"N_COORD97":2557166.79,"ADDRESS":"中山路３７號","OBJECTID":463419},"geometry":{"x":168471.70000000112,"y":2557166.790000001}},{"attributes":{"ID":463445,"DIS_CODE":0,"TOWNNAME":"西港區","LI":"慶安里","LIN":"36鄰","STREET":"中山路","SECT":" ","MAREA":" ","LANE":" ","ALLEY":" ","HOUSE_NO":"３９號之１","E_COORD97":168447.23999999999,"N_COORD97":2557167.1000000001,"ADDRESS":"中山路３９號之１","OBJECTID":463420},"geometry":{"x":168447.24000000022,"y":2557167.0999999996}},{"attributes":{"ID":463446,"DIS_CODE":0,"TOWNNAME":"西港區","LI":"慶安里","LIN":"36鄰","STREET":"中山路","SECT":" ","MAREA":" ","LANE":" ","ALLEY":" ","HOUSE_NO":"４１號之１","E_COORD97":168427.98000000001,"N_COORD97":2557157.6699999999,"ADDRESS":"中山路４１號之１","OBJECTID":463421},"geometry":{"x":168427.98000000138,"y":2557157.6700000018}},{"attributes":{"ID":463447,"DIS_CODE":0,"TOWNNAME":"西港區","LI":"慶安里","LIN":"36鄰","STREET":"中山路","SECT":" ","MAREA":" ","LANE":" ","ALLEY":" ","HOUSE_NO":"４１號","E_COORD97":168436.47,"N_COORD97":2557166.9100000001,"ADDRESS":"中山路４１號","OBJECTID":463422},"geometry":{"x":168436.46999999974,"y":2557166.910000002}},{"attributes":{"ID":463448,"DIS_CODE":0,"TOWNNAME":"西港區","LI":"慶安里","LIN":"36鄰","STREET":"中山路","SECT":" ","MAREA":" ","LANE":" ","ALLEY":" ","HOUSE_NO":"４３號","E_COORD97":168445.29000000001,"N_COORD97":2557137.5899999999,"ADDRESS":"中山路４３號","OBJECTID":463423},"geometry":{"x":168445.2900000019,"y":2557137.5900000036}},{"attributes":{"ID":463449,"DIS_CODE":0,"TOWNNAME":"西港區","LI":"慶安里","LIN":"36鄰","STREET":"中山路","SECT":" ","MAREA":" ","LANE":" ","ALLEY":" ","HOUSE_NO":"４５號","E_COORD97":168403.29999999999,"N_COORD97":2557139.1099999999,"ADDRESS":"中山路４５號","OBJECTID":463424},"geometry":{"x":168403.30000000075,"y":2557139.1099999994}},{"attributes":{"ID":463450,"DIS_CODE":0,"TOWNNAME":"西港區","LI":"慶安里","LIN":"36鄰","STREET":"中山路","SECT":" ","MAREA":" ","LANE":" ","ALLEY":" ","HOUSE_NO":"４７號","E_COORD97":168397.01000000001,"N_COORD97":2557165.71,"ADDRESS":"中山路４７號","OBJECTID":463425},"geometry":{"x":168397.00999999978,"y":2557165.7100000028}},{"attributes":{"ID":463451,"DIS_CODE":0,"TOWNNAME":"西港區","LI":"慶安里","LIN":"36鄰","STREET":"中山路","SECT":" ","MAREA":" ","LANE":" ","ALLEY":" ","HOUSE_NO":"９號","E_COORD97":168241.32000000001,"N_COORD97":2556716.6299999999,"ADDRESS":"中山路９號","OBJECTID":463426},"geometry":{"x":168241.3200000003,"y":2556716.6300000008}},{"attributes":{"ID":463452,"DIS_CODE":0,"TOWNNAME":"永康區","LI":"埔園里","LIN":"36鄰","STREET":"永大路","SECT":"三段","MAREA":" ","LANE":" ","ALLEY":" ","HOUSE_NO":"３６６號","E_COORD97":174141.48999999999,"N_COORD97":2548209.73,"ADDRESS":"永大路三段３６６號","OBJECTID":463427},"geometry":{"x":174141.49000000022,"y":2548209.7300000004}},{"attributes":{"ID":463453,"DIS_CODE":0,"TOWNNAME":"永康區","LI":"埔園里","LIN":"36鄰","STREET":"自強路","SECT":" ","MAREA":" ","LANE":" ","ALLEY":" ","HOUSE_NO":"６２６號","E_COORD97":174138.10999999999,"N_COORD97":2548248.5,"ADDRESS":"自強路６２６號","OBJECTID":463428},"geometry":{"x":174138.11000000127,"y":2548248.4999999981}},{"attributes":{"ID":463454,"DIS_CODE":0,"TOWNNAME":"永康區","LI":"東灣里","LIN":"36鄰","STREET":"大灣三街","SECT":" ","MAREA":" ","LANE":" ","ALLEY":" ","HOUSE_NO":"４６號","E_COORD97":175045.20000000001,"N_COORD97":2544914.3999999999,"ADDRESS":"大灣三街４６號","OBJECTID":463429},"geometry":{"x":175045.20000000019,"y":2544914.4000000022}},{"attributes":{"ID":463455,"DIS_CODE":0,"TOWNNAME":"永康區","LI":"東灣里","LIN":"36鄰","STREET":"大灣三街","SECT":" ","MAREA":" ","LANE":" ","ALLEY":" ","HOUSE_NO":"２８號","E_COORD97":175068.35999999999,"N_COORD97":2544896.6899999999,"ADDRESS":"大灣三街２８號","OBJECTID":463430},"geometry":{"x":175068.3600000022,"y":2544896.6899999995}},{"attributes":{"ID":463456,"DIS_CODE":0,"TOWNNAME":"永康區","LI":"埔園里","LIN":"36鄰","STREET":"自強路","SECT":" ","MAREA":" ","LANE":" ","ALLEY":" ","HOUSE_NO":"６２４號","E_COORD97":174136.69,"N_COORD97":2548244.5,"ADDRESS":"自強路６２４號","OBJECTID":463431},"geometry":{"x":174136.69000000041,"y":2548244.5}},{"attributes":{"ID":463457,"DIS_CODE":0,"TOWNNAME":"東區","LI":"崇文里","LIN":"36鄰","STREET":"崇善路","SECT":" ","MAREA":" ","LANE":" ","ALLEY":" ","HOUSE_NO":"７００號","E_COORD97":171222.44,"N_COORD97":2540883.8100000001,"ADDRESS":"崇善路７００號","OBJECTID":463432},"geometry":{"x":171222.44000000041,"y":2540883.8100000024}},{"attributes":{"ID":463458,"DIS_CODE":0,"TOWNNAME":"東區","LI":"大智里","LIN":"36鄰","STREET":"崇善十六街","SECT":" ","MAREA":" ","LANE":" ","ALLEY":" ","HOUSE_NO":"２０號","E_COORD97":171495.14999999999,"N_COORD97":2540410.3399999999,"ADDRESS":"崇善十六街２０號","OBJECTID":463433},"geometry":{"x":171495.1500000013,"y":2540410.3399999999}},{"attributes":{"ID":463459,"DIS_CODE":0,"TOWNNAME":"東區","LI":"大智里","LIN":"36鄰","STREET":"崇善十六街","SECT":" ","MAREA":" ","LANE":" ","ALLEY":" ","HOUSE_NO":"２２號","E_COORD97":171490.41,"N_COORD97":2540409.52,"ADDRESS":"崇善十六街２２號","OBJECTID":463434},"geometry":{"x":171490.41000000015,"y":2540409.5200000033}},{"attributes":{"ID":463460,"DIS_CODE":0,"TOWNNAME":"東區","LI":"大智里","LIN":"36鄰","STREET":"崇善十六街","SECT":" ","MAREA":" ","LANE":" ","ALLEY":" ","HOUSE_NO":"２６號","E_COORD97":171485.82000000001,"N_COORD97":2540409.3599999999,"ADDRESS":"崇善十六街２６號","OBJECTID":463435},"geometry":{"x":171485.8200000003,"y":2540409.3599999994}},{"attributes":{"ID":463461,"DIS_CODE":0,"TOWNNAME":"東區","LI":"大智里","LIN":"36鄰","STREET":"崇善十六街","SECT":" ","MAREA":" ","LANE":" ","ALLEY":" ","HOUSE_NO":"３８號","E_COORD97":171458.64000000001,"N_COORD97":2540410.1800000002,"ADDRESS":"崇善十六街３８號","OBJECTID":463436},"geometry":{"x":171458.6400000006,"y":2540410.1800000016}},{"attributes":{"ID":463462,"DIS_CODE":0,"TOWNNAME":"東區","LI":"大智里","LIN":"36鄰","STREET":"崇善十六街","SECT":" ","MAREA":" ","LANE":" ","ALLEY":" ","HOUSE_NO":"２８號","E_COORD97":171479.76000000001,"N_COORD97":2540409.52,"ADDRESS":"崇善十六街２８號","OBJECTID":463437},"geometry":{"x":171479.76000000164,"y":2540409.5200000033}},{"attributes":{"ID":463463,"DIS_CODE":0,"TOWNNAME":"東區","LI":"大智里","LIN":"36鄰","STREET":"崇善十六街","SECT":" ","MAREA":" ","LANE":" ","ALLEY":" ","HOUSE_NO":"３０號","E_COORD97":171474.85000000001,"N_COORD97":2540410.8300000001,"ADDRESS":"崇善十六街３０號","OBJECTID":463438},"geometry":{"x":171474.84999999963,"y":2540410.8300000001}},{"attributes":{"ID":463464,"DIS_CODE":0,"TOWNNAME":"東區","LI":"大智里","LIN":"36鄰","STREET":"崇善十六街","SECT":" ","MAREA":" ","LANE":" ","ALLEY":" ","HOUSE_NO":"３２號","E_COORD97":171470.10000000001,"N_COORD97":2540410.8300000001,"ADDRESS":"崇善十六街３２號","OBJECTID":463439},"geometry":{"x":171470.09999999963,"y":2540410.8300000001}},{"attributes":{"ID":463465,"DIS_CODE":0,"TOWNNAME":"東區","LI":"大智里","LIN":"36鄰","STREET":"崇善十六街","SECT":" ","MAREA":" ","LANE":" ","ALLEY":" ","HOUSE_NO":"３６號","E_COORD97":171463.39000000001,"N_COORD97":2540410.8300000001,"ADDRESS":"崇善十六街３６號","OBJECTID":463440},"geometry":{"x":171463.39000000153,"y":2540410.8300000001}},{"attributes":{"ID":463466,"DIS_CODE":0,"TOWNNAME":"東區","LI":"大智里","LIN":"36鄰","STREET":"崇善十六街","SECT":" ","MAREA":" ","LANE":" ","ALLEY":" ","HOUSE_NO":"４０號","E_COORD97":171454.06,"N_COORD97":2540410.8300000001,"ADDRESS":"崇善十六街４０號","OBJECTID":463441},"geometry":{"x":171454.06000000052,"y":2540410.8300000001}},{"attributes":{"ID":463467,"DIS_CODE":0,"TOWNNAME":"東區","LI":"大智里","LIN":"36鄰","STREET":"崇善十六街","SECT":" ","MAREA":" ","LANE":" ","ALLEY":" ","HOUSE_NO":"４２號","E_COORD97":171448.82000000001,"N_COORD97":2540411.1600000001,"ADDRESS":"崇善十六街４２號","OBJECTID":463442},"geometry":{"x":171448.8200000003,"y":2540411.1600000001}},{"attributes":{"ID":463468,"DIS_CODE":0,"TOWNNAME":"東區","LI":"大智里","LIN":"36鄰","STREET":"崇善十六街","SECT":" ","MAREA":" ","LANE":" ","ALLEY":" ","HOUSE_NO":"４６號","E_COORD97":171443.42000000001,"N_COORD97":2540411.3199999998,"ADDRESS":"崇善十六街４６號","OBJECTID":463443},"geometry":{"x":171443.42000000086,"y":2540411.3200000003}},{"attributes":{"ID":463469,"DIS_CODE":0,"TOWNNAME":"東區","LI":"大智里","LIN":"36鄰","STREET":"崇善十六街","SECT":" ","MAREA":" ","LANE":" ","ALLEY":" ","HOUSE_NO":"５０號","E_COORD97":171438.67000000001,"N_COORD97":2540411.4900000002,"ADDRESS":"崇善十六街５０號","OBJECTID":463444},"geometry":{"x":171438.67000000086,"y":2540411.4900000021}},{"attributes":{"ID":463470,"DIS_CODE":0,"TOWNNAME":"東區","LI":"大智里","LIN":"36鄰","STREET":"崇善十六街","SECT":" ","MAREA":" ","LANE":" ","ALLEY":" ","HOUSE_NO":"５２號","E_COORD97":171433.42999999999,"N_COORD97":2540411.8199999998,"ADDRESS":"崇善十六街５２號","OBJECTID":463445},"geometry":{"x":171433.43000000063,"y":2540411.820000004}},{"attributes":{"ID":463471,"DIS_CODE":0,"TOWNNAME":"東區","LI":"大智里","LIN":"36鄰","STREET":"崇善十六街","SECT":" ","MAREA":" ","LANE":" ","ALLEY":" ","HOUSE_NO":"５６號","E_COORD97":171426.72,"N_COORD97":2540411.6499999999,"ADDRESS":"崇善十六街５６號","OBJECTID":463446},"geometry":{"x":171426.71999999974,"y":2540411.6500000004}},{"attributes":{"ID":463472,"DIS_CODE":0,"TOWNNAME":"東區","LI":"大智里","LIN":"36鄰","STREET":"崇善十六街","SECT":" ","MAREA":" ","LANE":" ","ALLEY":" ","HOUSE_NO":"５８號","E_COORD97":171420.17000000001,"N_COORD97":2540411.4900000002,"ADDRESS":"崇善十六街５８號","OBJECTID":463447},"geometry":{"x":171420.17000000086,"y":2540411.4900000021}},{"attributes":{"ID":463473,"DIS_CODE":0,"TOWNNAME":"東區","LI":"大智里","LIN":"36鄰","STREET":"崇善十六街","SECT":" ","MAREA":" ","LANE":" ","ALLEY":" ","HOUSE_NO":"６０號","E_COORD97":171414.92999999999,"N_COORD97":2540411.8199999998,"ADDRESS":"崇善十六街６０號","OBJECTID":463448},"geometry":{"x":171414.9299999997,"y":2540411.820000004}},{"attributes":{"ID":463474,"DIS_CODE":0,"TOWNNAME":"東區","LI":"大智里","LIN":"36鄰","STREET":"崇善十六街","SECT":" ","MAREA":" ","LANE":" ","ALLEY":" ","HOUSE_NO":"６２號","E_COORD97":171409.53,"N_COORD97":2540411.98,"ADDRESS":"崇善十六街６２號","OBJECTID":463449},"geometry":{"x":171409.53000000119,"y":2540411.9800000023}},{"attributes":{"ID":463475,"DIS_CODE":0,"TOWNNAME":"東區","LI":"大智里","LIN":"36鄰","STREET":"崇善十六街","SECT":" ","MAREA":" ","LANE":" ","ALLEY":" ","HOUSE_NO":"６６號","E_COORD97":171403.47,"N_COORD97":2540412.1400000001,"ADDRESS":"崇善十六街６６號","OBJECTID":463450},"geometry":{"x":171403.46999999881,"y":2540412.1400000006}},{"attributes":{"ID":463476,"DIS_CODE":0,"TOWNNAME":"東區","LI":"大智里","LIN":"36鄰","STREET":"崇善十六街","SECT":" ","MAREA":" ","LANE":" ","ALLEY":" ","HOUSE_NO":"１６號","E_COORD97":171501.38,"N_COORD97":2540414.7599999998,"ADDRESS":"崇善十六街１６號","OBJECTID":463451},"geometry":{"x":171501.38000000082,"y":2540414.7600000035}},{"attributes":{"ID":463477,"DIS_CODE":0,"TOWNNAME":"東區","LI":"大智里","LIN":"36鄰","STREET":"崇善十六街","SECT":" ","MAREA":" ","LANE":" ","ALLEY":" ","HOUSE_NO":"１８號","E_COORD97":171498.76000000001,"N_COORD97":2540411.98,"ADDRESS":"崇善十六街１８號","OBJECTID":463452},"geometry":{"x":171498.76000000071,"y":2540411.9800000023}},{"attributes":{"ID":463478,"DIS_CODE":0,"TOWNNAME":"仁德區","LI":"仁義里","LIN":"36鄰","STREET":"勝利路","SECT":" ","MAREA":" ","LANE":" ","ALLEY":" ","HOUSE_NO":"５１之３號","E_COORD97":173538.57999999999,"N_COORD97":2539976.79,"ADDRESS":"勝利路５１之３號","OBJECTID":463453},"geometry":{"x":173538.58000000007,"y":2539976.7900000028}},{"attributes":{"ID":463479,"DIS_CODE":0,"TOWNNAME":"仁德區","LI":"後壁里","LIN":"36鄰","STREET":"民安路","SECT":"一段","MAREA":" ","LANE":" ","ALLEY":" ","HOUSE_NO":"３０８號","E_COORD97":172862.84,"N_COORD97":2539561.0600000001,"ADDRESS":"民安路一段３０８號","OBJECTID":463454},"geometry":{"x":172862.84000000078,"y":2539561.0600000005}},{"attributes":{"ID":463480,"DIS_CODE":0,"TOWNNAME":"永康區","LI":"埔園里","LIN":"36鄰","STREET":"自強路","SECT":" ","MAREA":" ","LANE":" ","ALLEY":" ","HOUSE_NO":"６３６號","E_COORD97":174170.29999999999,"N_COORD97":2548289.6899999999,"ADDRESS":"自強路６３６號","OBJECTID":463455},"geometry":{"x":174170.30000000075,"y":2548289.6899999995}},{"attributes":{"ID":463481,"DIS_CODE":0,"TOWNNAME":"西港區","LI":"慶安里","LIN":"36鄰","STREET":"新興街","SECT":" ","MAREA":" ","LANE":" ","ALLEY":" ","HOUSE_NO":"１之１６號","E_COORD97":168357.95999999999,"N_COORD97":2557031.6200000001,"ADDRESS":"新興街１之１６號","OBJECTID":463456},"geometry":{"x":168357.96000000089,"y":2557031.6200000029}},{"attributes":{"ID":463482,"DIS_CODE":0,"TOWNNAME":"西港區","LI":"慶安里","LIN":"36鄰","STREET":"新興街","SECT":" ","MAREA":" ","LANE":" ","ALLEY":" ","HOUSE_NO":"１號之２６","E_COORD97":168326.69,"N_COORD97":2557075.0600000001,"ADDRESS":"新興街１號之２６","OBJECTID":463457},"geometry":{"x":168326.69000000134,"y":2557075.0600000024}},{"attributes":{"ID":463483,"DIS_CODE":0,"TOWNNAME":"西港區","LI":"慶安里","LIN":"36鄰","STREET":"新興街","SECT":" ","MAREA":" ","LANE":" ","ALLEY":" ","HOUSE_NO":"１號","E_COORD97":168375.88,"N_COORD97":2556973.3199999998,"ADDRESS":"新興街１號","OBJECTID":463458},"geometry":{"x":168375.88000000082,"y":2556973.3200000003}},{"attributes":{"ID":463484,"DIS_CODE":0,"TOWNNAME":"永康區","LI":"東灣里","LIN":"36鄰","STREET":"大灣三街","SECT":" ","MAREA":" ","LANE":" ","ALLEY":" ","HOUSE_NO":"２２號","E_COORD97":175075.22,"N_COORD97":2544892.1600000001,"ADDRESS":"大灣三街２２號","OBJECTID":463459},"geometry":{"x":175075.21999999974,"y":2544892.160000002}},{"attributes":{"ID":463485,"DIS_CODE":0,"TOWNNAME":"永康區","LI":"東灣里","LIN":"36鄰","STREET":"大灣三街","SECT":" ","MAREA":" ","LANE":" ","ALLEY":" ","HOUSE_NO":"３２號","E_COORD97":175062.75,"N_COORD97":2544901.3999999999,"ADDRESS":"大灣三街３２號","OBJECTID":463460},"geometry":{"x":175062.75,"y":2544901.4000000022}},{"attributes":{"ID":463486,"DIS_CODE":0,"TOWNNAME":"永康區","LI":"東灣里","LIN":"36鄰","STREET":"大灣三街","SECT":" ","MAREA":" ","LANE":" ","ALLEY":" ","HOUSE_NO":"３０號","E_COORD97":175065.76000000001,"N_COORD97":2544899.1600000001,"ADDRESS":"大灣三街３０號","OBJECTID":463461},"geometry":{"x":175065.76000000071,"y":2544899.160000002}},{"attributes":{"ID":463487,"DIS_CODE":0,"TOWNNAME":"永康區","LI":"東灣里","LIN":"36鄰","STREET":"大灣三街","SECT":" ","MAREA":" ","LANE":" ","ALLEY":" ","HOUSE_NO":"８號","E_COORD97":175115.20000000001,"N_COORD97":2544855.9100000001,"ADDRESS":"大灣三街８號","OBJECTID":463462},"geometry":{"x":175115.20000000112,"y":2544855.9100000039}},{"attributes":{"ID":463488,"DIS_CODE":0,"TOWNNAME":"東區","LI":"大智里","LIN":"36鄰","STREET":"崇善十六街","SECT":" ","MAREA":" ","LANE":" ","ALLEY":" ","HOUSE_NO":"８１號","E_COORD97":171402.41,"N_COORD97":2540395.2000000002,"ADDRESS":"崇善十六街８１號","OBJECTID":463463},"geometry":{"x":171402.41000000015,"y":2540395.2000000011}},{"attributes":{"ID":463489,"DIS_CODE":0,"TOWNNAME":"東區","LI":"大智里","LIN":"36鄰","STREET":"崇善十六街","SECT":" ","MAREA":" ","LANE":" ","ALLEY":" ","HOUSE_NO":"６１號","E_COORD97":171448.82000000001,"N_COORD97":2540395.1099999999,"ADDRESS":"崇善十六街６１號","OBJECTID":463464},"geometry":{"x":171448.8200000003,"y":2540395.1100000031}},{"attributes":{"ID":463490,"DIS_CODE":0,"TOWNNAME":"東區","LI":"大智里","LIN":"36鄰","STREET":"崇善十六街","SECT":" ","MAREA":" ","LANE":" ","ALLEY":" ","HOUSE_NO":"６３號","E_COORD97":171444.13,"N_COORD97":2540394.9500000002,"ADDRESS":"崇善十六街６３號","OBJECTID":463465},"geometry":{"x":171444.13000000082,"y":2540394.9499999993}},{"attributes":{"ID":463491,"DIS_CODE":0,"TOWNNAME":"東區","LI":"大智里","LIN":"36鄰","STREET":"崇善十六街","SECT":" ","MAREA":" ","LANE":" ","ALLEY":" ","HOUSE_NO":"６５號","E_COORD97":171439.72,"N_COORD97":2540394.9500000002,"ADDRESS":"崇善十六街６５號","OBJECTID":463466},"geometry":{"x":171439.72000000067,"y":2540394.9499999993}},{"attributes":{"ID":463492,"DIS_CODE":0,"TOWNNAME":"東區","LI":"大智里","LIN":"36鄰","STREET":"崇善十六街","SECT":" ","MAREA":" ","LANE":" ","ALLEY":" ","HOUSE_NO":"６７號","E_COORD97":171435.69,"N_COORD97":2540395.0699999998,"ADDRESS":"崇善十六街６７號","OBJECTID":463467},"geometry":{"x":171435.69000000134,"y":2540395.0700000003}},{"attributes":{"ID":463493,"DIS_CODE":0,"TOWNNAME":"東區","LI":"大智里","LIN":"36鄰","STREET":"崇善十六街","SECT":" ","MAREA":" ","LANE":" ","ALLEY":" ","HOUSE_NO":"６９號","E_COORD97":171431.14999999999,"N_COORD97":2540395.0699999998,"ADDRESS":"崇善十六街６９號","OBJECTID":463468},"geometry":{"x":171431.15000000037,"y":2540395.0700000003}},{"attributes":{"ID":463494,"DIS_CODE":0,"TOWNNAME":"東區","LI":"大智里","LIN":"36鄰","STREET":"崇善十六街","SECT":" ","MAREA":" ","LANE":" ","ALLEY":" ","HOUSE_NO":"７１號","E_COORD97":171426.48999999999,"N_COORD97":2540395.0699999998,"ADDRESS":"崇善十六街７１號","OBJECTID":463469},"geometry":{"x":171426.49000000115,"y":2540395.0700000003}},{"attributes":{"ID":463495,"DIS_CODE":0,"TOWNNAME":"東區","LI":"大智里","LIN":"36鄰","STREET":"崇善十六街","SECT":" ","MAREA":" ","LANE":" ","ALLEY":" ","HOUSE_NO":"７３號","E_COORD97":171421.70000000001,"N_COORD97":2540394.9500000002,"ADDRESS":"崇善十六街７３號","OBJECTID":463470},"geometry":{"x":171421.70000000112,"y":2540394.9499999993}},{"attributes":{"ID":463496,"DIS_CODE":0,"TOWNNAME":"東區","LI":"大智里","LIN":"36鄰","STREET":"崇善十六街","SECT":" ","MAREA":" ","LANE":" ","ALLEY":" ","HOUSE_NO":"７５號","E_COORD97":171416.64999999999,"N_COORD97":2540395.0699999998,"ADDRESS":"崇善十六街７５號","OBJECTID":463471},"geometry":{"x":171416.65000000224,"y":2540395.0700000003}},{"attributes":{"ID":463497,"DIS_CODE":0,"TOWNNAME":"東區","LI":"大智里","LIN":"36鄰","STREET":"崇善十六街","SECT":" ","MAREA":" ","LANE":" ","ALLEY":" ","HOUSE_NO":"７７號","E_COORD97":171411.98999999999,"N_COORD97":2540395.3199999998,"ADDRESS":"崇善十六街７７號","OBJECTID":463472},"geometry":{"x":171411.99000000022,"y":2540395.3200000022}},{"attributes":{"ID":463498,"DIS_CODE":0,"TOWNNAME":"東區","LI":"大智里","LIN":"36鄰","STREET":"崇善十六街","SECT":" ","MAREA":" ","LANE":" ","ALLEY":" ","HOUSE_NO":"７９號","E_COORD97":171407.57999999999,"N_COORD97":2540395.3199999998,"ADDRESS":"崇善十六街７９號","OBJECTID":463473},"geometry":{"x":171407.58000000007,"y":2540395.3200000022}},{"attributes":{"ID":463499,"DIS_CODE":0,"TOWNNAME":"東區","LI":"崇文里","LIN":"36鄰","STREET":"崇善路","SECT":" ","MAREA":" ","LANE":" ","ALLEY":" ","HOUSE_NO":"６６８號","E_COORD97":171176.29999999999,"N_COORD97":2540950.6699999999,"ADDRESS":"崇善路６６８號","OBJECTID":463474},"geometry":{"x":171176.30000000075,"y":2540950.6699999999}},{"attributes":{"ID":463500,"DIS_CODE":0,"TOWNNAME":"東區","LI":"崇文里","LIN":"36鄰","STREET":"崇善路","SECT":" ","MAREA":" ","LANE":" ","ALLEY":" ","HOUSE_NO":"６７０號","E_COORD97":171178.37,"N_COORD97":2540946.3799999999,"ADDRESS":"崇善路６７０號","OBJECTID":463475},"geometry":{"x":171178.37000000011,"y":2540946.3800000008}},{"attributes":{"ID":463501,"DIS_CODE":0,"TOWNNAME":"東區","LI":"崇文里","LIN":"36鄰","STREET":"崇善路","SECT":" ","MAREA":" ","LANE":" ","ALLEY":" ","HOUSE_NO":"６７２號","E_COORD97":171181.76999999999,"N_COORD97":2540941.3599999999,"ADDRESS":"崇善路６７２號","OBJECTID":463476},"geometry":{"x":171181.77000000048,"y":2540941.3599999994}},{"attributes":{"ID":463502,"DIS_CODE":0,"TOWNNAME":"東區","LI":"崇文里","LIN":"36鄰","STREET":"崇善路","SECT":" ","MAREA":" ","LANE":" ","ALLEY":" ","HOUSE_NO":"６７６號","E_COORD97":171183.54999999999,"N_COORD97":2540936.4700000002,"ADDRESS":"崇善路６７６號","OBJECTID":463477},"geometry":{"x":171183.55000000075,"y":2540936.4700000044}},{"attributes":{"ID":463503,"DIS_CODE":0,"TOWNNAME":"仁德區","LI":"仁德里","LIN":"36鄰","STREET":"中山路","SECT":" ","MAREA":" ","LANE":" ","ALLEY":" ","HOUSE_NO":"７６４號","E_COORD97":172667.85000000001,"N_COORD97":2541539.5,"ADDRESS":"中山路７６４號","OBJECTID":463478},"geometry":{"x":172667.85000000056,"y":2541539.5000000019}},{"attributes":{"ID":463504,"DIS_CODE":0,"TOWNNAME":"東區","LI":"中西里","LIN":"36鄰","STREET":"林森路","SECT":"二段","MAREA":" ","LANE":" ","ALLEY":" ","HOUSE_NO":"８５號","E_COORD97":170391.60000000001,"N_COORD97":2543287.1899999999,"ADDRESS":"林森路二段８５號","OBJECTID":463479},"geometry":{"x":170391.59999999963,"y":2543287.1900000013}},{"attributes":{"ID":463505,"DIS_CODE":0,"TOWNNAME":"東區","LI":"中西里","LIN":"36鄰","STREET":"林森路","SECT":"二段","MAREA":" ","LANE":" ","ALLEY":" ","HOUSE_NO":"８７號","E_COORD97":170393.47,"N_COORD97":2543292.5899999999,"ADDRESS":"林森路二段８７號","OBJECTID":463480},"geometry":{"x":170393.47000000067,"y":2543292.5900000017}},{"attributes":{"ID":463506,"DIS_CODE":0,"TOWNNAME":"東區","LI":"中西里","LIN":"36鄰","STREET":"林森路","SECT":"二段","MAREA":" ","LANE":" ","ALLEY":" ","HOUSE_NO":"８９號之２","E_COORD97":170395.23999999999,"N_COORD97":2543297.6000000001,"ADDRESS":"林森路二段８９號之２","OBJECTID":463481},"geometry":{"x":170395.23999999929,"y":2543297.6000000034}},{"attributes":{"ID":463507,"DIS_CODE":0,"TOWNNAME":"東區","LI":"中西里","LIN":"36鄰","STREET":"林森路","SECT":"二段","MAREA":" ","LANE":" ","ALLEY":" ","HOUSE_NO":"９７號","E_COORD97":170408.51000000001,"N_COORD97":2543337.3599999999,"ADDRESS":"林森路二段９７號","OBJECTID":463482},"geometry":{"x":170408.51000000071,"y":2543337.3600000013}},{"attributes":{"ID":463508,"DIS_CODE":0,"TOWNNAME":"永康區","LI":"\u25A0洲里","LIN":"36鄰","STREET":"\u25A0洲二街","SECT":" ","MAREA":" ","LANE":" ","ALLEY":" ","HOUSE_NO":"１８５號","E_COORD97":171737.64999999999,"N_COORD97":2549422.75,"ADDRESS":"\u25A0洲二街１８５號","OBJECTID":463483},"geometry":{"x":171737.6500000013,"y":2549422.75}},{"attributes":{"ID":463509,"DIS_CODE":0,"TOWNNAME":"永康區","LI":"\u25A0行里","LIN":"36鄰","STREET":"三村一街","SECT":" ","MAREA":" ","LANE":" ","ALLEY":" ","HOUSE_NO":"９８號","E_COORD97":172118.25,"N_COORD97":2549253.1299999999,"ADDRESS":"三村一街９８號","OBJECTID":463484},"geometry":{"x":172118.25,"y":2549253.129999999}},{"attributes":{"ID":463510,"DIS_CODE":0,"TOWNNAME":"永康區","LI":"\u25A0洲里","LIN":"36鄰","STREET":"\u25A0洲二街","SECT":" ","MAREA":" ","LANE":" ","ALLEY":" ","HOUSE_NO":"１８１號","E_COORD97":171731.35000000001,"N_COORD97":2549417.25,"ADDRESS":"\u25A0洲二街１８１號","OBJECTID":463485},"geometry":{"x":171731.3499999987,"y":2549417.2500000019}},{"attributes":{"ID":463511,"DIS_CODE":0,"TOWNNAME":"東區","LI":"中西里","LIN":"36鄰","STREET":"林森路","SECT":"二段","MAREA":" ","LANE":" ","ALLEY":" ","HOUSE_NO":"９５號","E_COORD97":170402.32000000001,"N_COORD97":2543320.1299999999,"ADDRESS":"林森路二段９５號","OBJECTID":463486},"geometry":{"x":170402.32000000123,"y":2543320.129999999}},{"attributes":{"ID":463512,"DIS_CODE":0,"TOWNNAME":"東區","LI":"中西里","LIN":"36鄰","STREET":"林森路","SECT":"二段","MAREA":" ","LANE":" ","ALLEY":" ","HOUSE_NO":"９９號","E_COORD97":170411.95000000001,"N_COORD97":2543346,"ADDRESS":"林森路二段９９號","OBJECTID":463487},"geometry":{"x":170411.95000000019,"y":2543345.9999999981}},{"attributes":{"ID":463513,"DIS_CODE":0,"TOWNNAME":"永康區","LI":"\u25A0行里","LIN":"36鄰","STREET":"三村一街","SECT":" ","MAREA":" ","LANE":" ","ALLEY":" ","HOUSE_NO":"３２號","E_COORD97":172248.84,"N_COORD97":2549258.48,"ADDRESS":"三村一街３２號","OBJECTID":463488},"geometry":{"x":172248.84000000171,"y":2549258.4800000004}},{"attributes":{"ID":463514,"DIS_CODE":0,"TOWNNAME":"永康區","LI":"\u25A0行里","LIN":"36鄰","STREET":"三村一街","SECT":" ","MAREA":" ","LANE":" ","ALLEY":" ","HOUSE_NO":"１２６號","E_COORD97":172060.35999999999,"N_COORD97":2549252.2000000002,"ADDRESS":"三村一街１２６號","OBJECTID":463489},"geometry":{"x":172060.36000000034,"y":2549252.1999999993}},{"attributes":{"ID":463515,"DIS_CODE":0,"TOWNNAME":"永康區","LI":"\u25A0行里","LIN":"36鄰","STREET":"三村一街","SECT":" ","MAREA":" ","LANE":" ","ALLEY":" ","HOUSE_NO":"４２號","E_COORD97":172226.29999999999,"N_COORD97":2549318.75,"ADDRESS":"三村一街４２號","OBJECTID":463490},"geometry":{"x":172226.29999999981,"y":2549318.7500000019}},{"attributes":{"ID":463516,"DIS_CODE":0,"TOWNNAME":"永康區","LI":"\u25A0行里","LIN":"36鄰","STREET":"三村一街","SECT":" ","MAREA":" ","LANE":" ","ALLEY":" ","HOUSE_NO":"９０號","E_COORD97":172130.89000000001,"N_COORD97":2549252.9900000002,"ADDRESS":"三村一街９０號","OBJECTID":463491},"geometry":{"x":172130.88999999966,"y":2549252.9900000021}},{"attributes":{"ID":463517,"DIS_CODE":0,"TOWNNAME":"永康區","LI":"\u25A0行里","LIN":"36鄰","STREET":"三村一街","SECT":" ","MAREA":" ","LANE":" ","ALLEY":" ","HOUSE_NO":"１２２號","E_COORD97":172066.84,"N_COORD97":2549253.4500000002,"ADDRESS":"三村一街１２２號","OBJECTID":463492},"geometry":{"x":172066.83999999985,"y":2549253.4500000011}},{"attributes":{"ID":463518,"DIS_CODE":0,"TOWNNAME":"仁德區","LI":"仁義里","LIN":"36鄰","STREET":"中正路","SECT":"二段","MAREA":" ","LANE":" ","ALLEY":" ","HOUSE_NO":"７２６號","E_COORD97":173439.70999999999,"N_COORD97":2540043.52,"ADDRESS":"中正路二段７２６號","OBJECTID":463493},"geometry":{"x":173439.70999999903,"y":2540043.5200000033}},{"attributes":{"ID":463519,"DIS_CODE":0,"TOWNNAME":"仁德區","LI":"仁義里","LIN":"36鄰","STREET":"中正路","SECT":"二段","MAREA":" ","LANE":" ","ALLEY":" ","HOUSE_NO":"７２２號","E_COORD97":173436.76000000001,"N_COORD97":2540033.0299999998,"ADDRESS":"中正路二段７２２號","OBJECTID":463494},"geometry":{"x":173436.75999999978,"y":2540033.0300000031}},{"attributes":{"ID":463520,"DIS_CODE":0,"TOWNNAME":"仁德區","LI":"仁義里","LIN":"36鄰","STREET":"勝利路","SECT":" ","MAREA":" ","LANE":" ","ALLEY":" ","HOUSE_NO":"５１之２號","E_COORD97":173537.60000000001,"N_COORD97":2539972.29,"ADDRESS":"勝利路５１之２號","OBJECTID":463495},"geometry":{"x":173537.60000000056,"y":2539972.2899999991}},{"attributes":{"ID":463521,"DIS_CODE":0,"TOWNNAME":"仁德區","LI":"仁義里","LIN":"36鄰","STREET":"勝利路","SECT":" ","MAREA":" ","LANE":" ","ALLEY":" ","HOUSE_NO":"５１之６號","E_COORD97":173541.41,"N_COORD97":2539991.7999999998,"ADDRESS":"勝利路５１之６號","OBJECTID":463496},"geometry":{"x":173541.41000000015,"y":2539991.8000000045}},{"attributes":{"ID":463522,"DIS_CODE":0,"TOWNNAME":"東區","LI":"中西里","LIN":"36鄰","STREET":"林森路","SECT":"二段","MAREA":" ","LANE":" ","ALLEY":" ","HOUSE_NO":"８３號","E_COORD97":170388.94,"N_COORD97":2543282.96,"ADDRESS":"林森路二段８３號","OBJECTID":463497},"geometry":{"x":170388.93999999948,"y":2543282.9600000046}},{"attributes":{"ID":463523,"DIS_CODE":0,"TOWNNAME":"東區","LI":"中西里","LIN":"36鄰","STREET":"林森路","SECT":"二段","MAREA":" ","LANE":" ","ALLEY":" ","HOUSE_NO":"９３號","E_COORD97":170399.95999999999,"N_COORD97":2543311.3900000001,"ADDRESS":"林森路二段９３號","OBJECTID":463498},"geometry":{"x":170399.95999999996,"y":2543311.3900000025}},{"attributes":{"ID":463524,"DIS_CODE":0,"TOWNNAME":"永康區","LI":"\u25A0洲里","LIN":"36鄰","STREET":"\u25A0洲二街","SECT":" ","MAREA":" ","LANE":" ","ALLEY":" ","HOUSE_NO":"１９３號","E_COORD97":171749.95999999999,"N_COORD97":2549434,"ADDRESS":"\u25A0洲二街１９３號","OBJECTID":463499},"geometry":{"x":171749.96000000089,"y":2549434}},{"attributes":{"ID":463525,"DIS_CODE":0,"TOWNNAME":"永康區","LI":"二王里","LIN":"5鄰","STREET":"永二街","SECT":" ","MAREA":" ","LANE":" ","ALLEY":" ","HOUSE_NO":"３５０號","E_COORD97":172947.22,"N_COORD97":2546648.25,"ADDRESS":"永二街３５０號","OBJECTID":463500},"geometry":{"x":172947.21999999974,"y":2546648.2500000019}},{"attributes":{"ID":463526,"DIS_CODE":0,"TOWNNAME":"永康區","LI":"\u25A0行里","LIN":"36鄰","STREET":"三村一街","SECT":" ","MAREA":" ","LANE":" ","ALLEY":" ","HOUSE_NO":"１１０號","E_COORD97":172093.25,"N_COORD97":2549251.5,"ADDRESS":"三村一街１１０號","OBJECTID":463501},"geometry":{"x":172093.25,"y":2549251.5}},{"attributes":{"ID":463527,"DIS_CODE":0,"TOWNNAME":"永康區","LI":"\u25A0行里","LIN":"36鄰","STREET":"三村一街","SECT":" ","MAREA":" ","LANE":" ","ALLEY":" ","HOUSE_NO":"２６號","E_COORD97":172268.35999999999,"N_COORD97":2549258.54,"ADDRESS":"三村一街２６號","OBJECTID":463502},"geometry":{"x":172268.36000000127,"y":2549258.540000001}},{"attributes":{"ID":463528,"DIS_CODE":0,"TOWNNAME":"東區","LI":"崇文里","LIN":"36鄰","STREET":"崇善路","SECT":" ","MAREA":" ","LANE":" ","ALLEY":" ","HOUSE_NO":"７１２號","E_COORD97":171237.04000000001,"N_COORD97":2540859.7400000002,"ADDRESS":"崇善路７１２號","OBJECTID":463503},"geometry":{"x":171237.04000000004,"y":2540859.7400000039}},{"attributes":{"ID":463529,"DIS_CODE":0,"TOWNNAME":"東區","LI":"崇文里","LIN":"36鄰","STREET":"崇善路","SECT":" ","MAREA":" ","LANE":" ","ALLEY":" ","HOUSE_NO":"７１６號","E_COORD97":171242.01999999999,"N_COORD97":2540849.2999999998,"ADDRESS":"崇善路７１６號","OBJECTID":463504},"geometry":{"x":171242.02000000142,"y":2540849.3000000007}},{"attributes":{"ID":463530,"DIS_CODE":0,"TOWNNAME":"東區","LI":"崇文里","LIN":"36鄰","STREET":"崇善路","SECT":" ","MAREA":" ","LANE":" ","ALLEY":" ","HOUSE_NO":"７１８號","E_COORD97":171246.10000000001,"N_COORD97":2540843.5299999998,"ADDRESS":"崇善路７１８號","OBJECTID":463505},"geometry":{"x":171246.09999999963,"y":2540843.5300000012}},{"attributes":{"ID":463531,"DIS_CODE":0,"TOWNNAME":"東區","LI":"崇文里","LIN":"36鄰","STREET":"崇善路","SECT":" ","MAREA":" ","LANE":" ","ALLEY":" ","HOUSE_NO":"７２０號","E_COORD97":171248.09,"N_COORD97":2540840.5499999998,"ADDRESS":"崇善路７２０號","OBJECTID":463506},"geometry":{"x":171248.08999999985,"y":2540840.5500000007}},{"attributes":{"ID":463532,"DIS_CODE":0,"TOWNNAME":"東區","LI":"崇文里","LIN":"36鄰","STREET":"崇善路","SECT":" ","MAREA":" ","LANE":" ","ALLEY":" ","HOUSE_NO":"７４０號","E_COORD97":171269.54000000001,"N_COORD97":2540782.8799999999,"ADDRESS":"崇善路７４０號","OBJECTID":463507},"geometry":{"x":171269.5400000019,"y":2540782.8800000027}},{"attributes":{"ID":463533,"DIS_CODE":0,"TOWNNAME":"東區","LI":"泉南里","LIN":"5鄰","STREET":"東門路","SECT":"一段","MAREA":" ","LANE":" ","ALLEY":" ","HOUSE_NO":"１３６號","E_COORD97":169476.60999999999,"N_COORD97":2543140.75,"ADDRESS":"東門路一段１３６號","OBJECTID":463508},"geometry":{"x":169476.61000000127,"y":2543140.75}},{"attributes":{"ID":463534,"DIS_CODE":0,"TOWNNAME":"東區","LI":"泉南里","LIN":"5鄰","STREET":"東門路","SECT":"一段","MAREA":" ","LANE":" ","ALLEY":" ","HOUSE_NO":"１４２號","E_COORD97":169495.57999999999,"N_COORD97":2543146.7599999998,"ADDRESS":"東門路一段１４２號","OBJECTID":463509},"geometry":{"x":169495.58000000007,"y":2543146.7599999998}},{"attributes":{"ID":463535,"DIS_CODE":0,"TOWNNAME":"東區","LI":"泉南里","LIN":"5鄰","STREET":"東門路","SECT":"一段","MAREA":" ","LANE":" ","ALLEY":" ","HOUSE_NO":"１４４號","E_COORD97":169498.76000000001,"N_COORD97":2543145.21,"ADDRESS":"東門路一段１４４號","OBJECTID":463510},"geometry":{"x":169498.76000000071,"y":2543145.2100000009}},{"attributes":{"ID":463536,"DIS_CODE":0,"TOWNNAME":"東區","LI":"泉南里","LIN":"5鄰","STREET":"東門路","SECT":"一段","MAREA":" ","LANE":" ","ALLEY":" ","HOUSE_NO":"１３４號","E_COORD97":169468.10999999999,"N_COORD97":2543138.6099999999,"ADDRESS":"東門路一段１３４號","OBJECTID":463511},"geometry":{"x":169468.11000000127,"y":2543138.6100000013}},{"attributes":{"ID":463537,"DIS_CODE":0,"TOWNNAME":"永康區","LI":"蔦松里","LIN":"5鄰","STREET":"蔦松二街","SECT":" ","MAREA":" ","LANE":" ","ALLEY":" ","HOUSE_NO":"１３５號","E_COORD97":173825.95000000001,"N_COORD97":2549418.54,"ADDRESS":"蔦松二街１３５號","OBJECTID":463512},"geometry":{"x":173825.95000000019,"y":2549418.540000001}},{"attributes":{"ID":463538,"DIS_CODE":0,"TOWNNAME":"永康區","LI":"新樹里","LIN":"5鄰","STREET":"西勢路","SECT":" ","MAREA":" ","LANE":" ","ALLEY":" ","HOUSE_NO":"２０６號","E_COORD97":175794.39000000001,"N_COORD97":2546774.1299999999,"ADDRESS":"西勢路２０６號","OBJECTID":463513},"geometry":{"x":175794.38999999966,"y":2546774.129999999}},{"attributes":{"ID":463539,"DIS_CODE":0,"TOWNNAME":"中西區","LI":"天后里","LIN":"5鄰","STREET":"民權路","SECT":"二段","MAREA":" ","LANE":" ","ALLEY":" ","HOUSE_NO":"２２８號","E_COORD97":168092.54999999999,"N_COORD97":2544044.4199999999,"ADDRESS":"民權路二段２２８號","OBJECTID":463514},"geometry":{"x":168092.55000000075,"y":2544044.4199999999}},{"attributes":{"ID":463540,"DIS_CODE":0,"TOWNNAME":"中西區","LI":"天后里","LIN":"5鄰","STREET":"民權路","SECT":"二段","MAREA":" ","LANE":" ","ALLEY":" ","HOUSE_NO":"２２８號之１","E_COORD97":168090.23000000001,"N_COORD97":2544045.3199999998,"ADDRESS":"民權路二段２２８號之１","OBJECTID":463515},"geometry":{"x":168090.23000000231,"y":2544045.3200000003}},{"attributes":{"ID":463541,"DIS_CODE":0,"TOWNNAME":"中西區","LI":"天后里","LIN":"5鄰","STREET":"民權路","SECT":"二段","MAREA":" ","LANE":" ","ALLEY":" ","HOUSE_NO":"２３０號","E_COORD97":168085.09,"N_COORD97":2544045.3199999998,"ADDRESS":"民權路二段２３０號","OBJECTID":463516},"geometry":{"x":168085.08999999985,"y":2544045.3200000003}},{"attributes":{"ID":463542,"DIS_CODE":0,"TOWNNAME":"中西區","LI":"天后里","LIN":"5鄰","STREET":"民權路","SECT":"二段","MAREA":" ","LANE":" ","ALLEY":" ","HOUSE_NO":"２３２號","E_COORD97":168081.42999999999,"N_COORD97":2544046.6400000001,"ADDRESS":"民權路二段２３２號","OBJECTID":463517},"geometry":{"x":168081.43000000063,"y":2544046.6400000006}},{"attributes":{"ID":463543,"DIS_CODE":0,"TOWNNAME":"中西區","LI":"天后里","LIN":"5鄰","STREET":"民權路","SECT":"二段","MAREA":" ","LANE":" ","ALLEY":" ","HOUSE_NO":"２３４號","E_COORD97":168078.5,"N_COORD97":2544048.1000000001,"ADDRESS":"民權路二段２３４號","OBJECTID":463518},"geometry":{"x":168078.50000000093,"y":2544048.1000000015}},{"attributes":{"ID":463544,"DIS_CODE":0,"TOWNNAME":"中西區","LI":"天后里","LIN":"5鄰","STREET":"民權路","SECT":"二段","MAREA":" ","LANE":" ","ALLEY":" ","HOUSE_NO":"２３６號","E_COORD97":168074.82999999999,"N_COORD97":2544049.2799999998,"ADDRESS":"民權路二段２３６號","OBJECTID":463519},"geometry":{"x":168074.83000000007,"y":2544049.2800000012}},{"attributes":{"ID":463545,"DIS_CODE":0,"TOWNNAME":"中西區","LI":"天后里","LIN":"5鄰","STREET":"民權路","SECT":"二段","MAREA":" ","LANE":" ","ALLEY":" ","HOUSE_NO":"２３８號","E_COORD97":168070.88,"N_COORD97":2544051.1800000002,"ADDRESS":"民權路二段２３８號","OBJECTID":463520},"geometry":{"x":168070.87999999989,"y":2544051.1800000016}},{"attributes":{"ID":463546,"DIS_CODE":0,"TOWNNAME":"中西區","LI":"天后里","LIN":"5鄰","STREET":"民權路","SECT":"二段","MAREA":" ","LANE":" ","ALLEY":" ","HOUSE_NO":"２４０號","E_COORD97":168066.63,"N_COORD97":2544052.9399999999,"ADDRESS":"民權路二段２４０號","OBJECTID":463521},"geometry":{"x":168066.63000000175,"y":2544052.9399999995}},{"attributes":{"ID":463547,"DIS_CODE":0,"TOWNNAME":"中西區","LI":"天后里","LIN":"5鄰","STREET":"民權路","SECT":"二段","MAREA":" ","LANE":" ","ALLEY":" ","HOUSE_NO":"２４２號","E_COORD97":168062.67000000001,"N_COORD97":2544055.5699999998,"ADDRESS":"民權路二段２４２號","OBJECTID":463522},"geometry":{"x":168062.66999999993,"y":2544055.5700000022}},{"attributes":{"ID":463548,"DIS_CODE":0,"TOWNNAME":"中西區","LI":"天后里","LIN":"5鄰","STREET":"民權路","SECT":"二段","MAREA":" ","LANE":" ","ALLEY":" ","HOUSE_NO":"２４８號","E_COORD97":168051.53,"N_COORD97":2544057.3300000001,"ADDRESS":"民權路二段２４８號","OBJECTID":463523},"geometry":{"x":168051.53000000026,"y":2544057.3300000019}},{"attributes":{"ID":463549,"DIS_CODE":0,"TOWNNAME":"中西區","LI":"天后里","LIN":"5鄰","STREET":"民權路","SECT":"二段","MAREA":" ","LANE":" ","ALLEY":" ","HOUSE_NO":"２５０號","E_COORD97":168045.37,"N_COORD97":2544058.0600000001,"ADDRESS":"民權路二段２５０號","OBJECTID":463524},"geometry":{"x":168045.37000000104,"y":2544058.0599999987}},{"attributes":{"ID":463550,"DIS_CODE":0,"TOWNNAME":"中西區","LI":"天后里","LIN":"5鄰","STREET":"新美街","SECT":" ","MAREA":" ","LANE":" ","ALLEY":" ","HOUSE_NO":"１００號","E_COORD97":168051.47,"N_COORD97":2544081.0299999998,"ADDRESS":"新美街１００號","OBJECTID":463525},"geometry":{"x":168051.46999999974,"y":2544081.0300000031}},{"attributes":{"ID":463551,"DIS_CODE":0,"TOWNNAME":"中西區","LI":"天后里","LIN":"5鄰","STREET":"新美街","SECT":" ","MAREA":" ","LANE":" ","ALLEY":" ","HOUSE_NO":"１０２號","E_COORD97":168052.98000000001,"N_COORD97":2544084.4399999999,"ADDRESS":"新美街１０２號","OBJECTID":463526},"geometry":{"x":168052.98000000231,"y":2544084.4399999995}},{"attributes":{"ID":463552,"DIS_CODE":0,"TOWNNAME":"中西區","LI":"天后里","LIN":"5鄰","STREET":"新美街","SECT":" ","MAREA":" ","LANE":" ","ALLEY":" ","HOUSE_NO":"１０４號","E_COORD97":168054,"N_COORD97":2544086.46,"ADDRESS":"新美街１０４號","OBJECTID":463527},"geometry":{"x":168054.00000000186,"y":2544086.4600000046}},{"attributes":{"ID":463553,"DIS_CODE":0,"TOWNNAME":"中西區","LI":"天后里","LIN":"5鄰","STREET":"新美街","SECT":" ","MAREA":" ","LANE":" ","ALLEY":" ","HOUSE_NO":"１０６號","E_COORD97":168055.13,"N_COORD97":2544088.6099999999,"ADDRESS":"新美街１０６號","OBJECTID":463528},"geometry":{"x":168055.13000000082,"y":2544088.6100000013}},{"attributes":{"ID":463554,"DIS_CODE":0,"TOWNNAME":"中西區","LI":"天后里","LIN":"5鄰","STREET":"新美街","SECT":" ","MAREA":" ","LANE":" ","ALLEY":" ","HOUSE_NO":"８５號","E_COORD97":168042.19,"N_COORD97":2544083.3300000001,"ADDRESS":"新美街８５號","OBJECTID":463529},"geometry":{"x":168042.19000000041,"y":2544083.3300000038}},{"attributes":{"ID":463555,"DIS_CODE":0,"TOWNNAME":"中西區","LI":"天后里","LIN":"5鄰","STREET":"新美街","SECT":" ","MAREA":" ","LANE":" ","ALLEY":" ","HOUSE_NO":"８７號","E_COORD97":168042,"N_COORD97":2544089.6600000001,"ADDRESS":"新美街８７號","OBJECTID":463530},"geometry":{"x":168041.99999999907,"y":2544089.6600000001}},{"attributes":{"ID":463556,"DIS_CODE":0,"TOWNNAME":"中西區","LI":"天后里","LIN":"5鄰","STREET":"新美街","SECT":" ","MAREA":" ","LANE":" ","ALLEY":" ","HOUSE_NO":"８９號","E_COORD97":168042.47,"N_COORD97":2544094.73,"ADDRESS":"新美街８９號","OBJECTID":463531},"geometry":{"x":168042.47000000067,"y":2544094.7300000023}},{"attributes":{"ID":463557,"DIS_CODE":0,"TOWNNAME":"中西區","LI":"天后里","LIN":"5鄰","STREET":"新美街","SECT":" ","MAREA":" ","LANE":" ","ALLEY":" ","HOUSE_NO":"９１號","E_COORD97":168043.67999999999,"N_COORD97":2544098.0800000001,"ADDRESS":"新美街９１號","OBJECTID":463532},"geometry":{"x":168043.6799999997,"y":2544098.0800000001}},{"attributes":{"ID":463558,"DIS_CODE":0,"TOWNNAME":"中西區","LI":"天后里","LIN":"5鄰","STREET":"新美街","SECT":" ","MAREA":" ","LANE":" ","ALLEY":" ","HOUSE_NO":"９３號","E_COORD97":168045.56,"N_COORD97":2544101.9700000002,"ADDRESS":"新美街９３號","OBJECTID":463533},"geometry":{"x":168045.55999999959,"y":2544101.9700000007}},{"attributes":{"ID":463559,"DIS_CODE":0,"TOWNNAME":"中西區","LI":"天后里","LIN":"5鄰","STREET":"新美街","SECT":" ","MAREA":" ","LANE":" ","ALLEY":" ","HOUSE_NO":"９４號","E_COORD97":168047.17000000001,"N_COORD97":2544066.2400000002,"ADDRESS":"新美街９４號","OBJECTID":463534},"geometry":{"x":168047.16999999993,"y":2544066.2400000002}},{"attributes":{"ID":463560,"DIS_CODE":0,"TOWNNAME":"中西區","LI":"天后里","LIN":"5鄰","STREET":"新美街","SECT":" ","MAREA":" ","LANE":" ","ALLEY":" ","HOUSE_NO":"９５號","E_COORD97":168047.57000000001,"N_COORD97":2544105.1899999999,"ADDRESS":"新美街９５號","OBJECTID":463535},"geometry":{"x":168047.57000000123,"y":2544105.1900000013}},{"attributes":{"ID":463561,"DIS_CODE":0,"TOWNNAME":"中西區","LI":"天后里","LIN":"5鄰","STREET":"新美街","SECT":" ","MAREA":" ","LANE":" ","ALLEY":" ","HOUSE_NO":"９６號","E_COORD97":168047.54999999999,"N_COORD97":2544070.79,"ADDRESS":"新美街９６號","OBJECTID":463536},"geometry":{"x":168047.54999999981,"y":2544070.7899999991}},{"attributes":{"ID":463562,"DIS_CODE":0,"TOWNNAME":"中西區","LI":"天后里","LIN":"5鄰","STREET":"新美街","SECT":" ","MAREA":" ","LANE":" ","ALLEY":" ","HOUSE_NO":"９８號","E_COORD97":168049.95000000001,"N_COORD97":2544075.7200000002,"ADDRESS":"新美街９８號","OBJECTID":463537},"geometry":{"x":168049.95000000112,"y":2544075.7200000025}},{"attributes":{"ID":463563,"DIS_CODE":0,"TOWNNAME":"安南區","LI":"安慶里","LIN":"5鄰","STREET":"怡安路","SECT":"一段","MAREA":" ","LANE":" ","ALLEY":" ","HOUSE_NO":"２３１號","E_COORD97":169086.09,"N_COORD97":2549050.0299999998,"ADDRESS":"怡安路一段２３１號","OBJECTID":463538},"geometry":{"x":169086.09000000078,"y":2549050.0299999993}},{"attributes":{"ID":463564,"DIS_CODE":0,"TOWNNAME":"安南區","LI":"安慶里","LIN":"5鄰","STREET":"怡安路","SECT":"一段","MAREA":" ","LANE":" ","ALLEY":" ","HOUSE_NO":"２３３號","E_COORD97":169080.57000000001,"N_COORD97":2549051.1400000001,"ADDRESS":"怡安路一段２３３號","OBJECTID":463539},"geometry":{"x":169080.5700000003,"y":2549051.1400000006}},{"attributes":{"ID":463565,"DIS_CODE":0,"TOWNNAME":"安南區","LI":"安慶里","LIN":"5鄰","STREET":"怡安路","SECT":"一段","MAREA":" ","LANE":" ","ALLEY":" ","HOUSE_NO":"２３５號","E_COORD97":169074.35000000001,"N_COORD97":2549055.5,"ADDRESS":"怡安路一段２３５號","OBJECTID":463540},"geometry":{"x":169074.34999999963,"y":2549055.5000000037}},{"attributes":{"ID":463566,"DIS_CODE":0,"TOWNNAME":"安南區","LI":"安慶里","LIN":"5鄰","STREET":"怡安路","SECT":"一段","MAREA":" ","LANE":" ","ALLEY":" ","HOUSE_NO":"２３７號","E_COORD97":169069.82000000001,"N_COORD97":2549054.8700000001,"ADDRESS":"怡安路一段２３７號","OBJECTID":463541},"geometry":{"x":169069.82000000123,"y":2549054.8700000029}},{"attributes":{"ID":463567,"DIS_CODE":0,"TOWNNAME":"安南區","LI":"安慶里","LIN":"5鄰","STREET":"怡安路","SECT":"一段","MAREA":" ","LANE":" ","ALLEY":" ","HOUSE_NO":"２３９號","E_COORD97":169065.39000000001,"N_COORD97":2549054.6600000001,"ADDRESS":"怡安路一段２３９號","OBJECTID":463542},"geometry":{"x":169065.3900000006,"y":2549054.6600000039}},{"attributes":{"ID":463568,"DIS_CODE":0,"TOWNNAME":"安南區","LI":"安慶里","LIN":"5鄰","STREET":"怡安路","SECT":"一段","MAREA":" ","LANE":" ","ALLEY":" ","HOUSE_NO":"２３９之１號","E_COORD97":169054.64999999999,"N_COORD97":2549055.3300000001,"ADDRESS":"怡安路一段２３９之１號","OBJECTID":463543},"geometry":{"x":169054.65000000037,"y":2549055.3300000001}},{"attributes":{"ID":463569,"DIS_CODE":0,"TOWNNAME":"安南區","LI":"布袋里","LIN":"5鄰","STREET":"長溪路","SECT":"三段","MAREA":" ","LANE":" ","ALLEY":" ","HOUSE_NO":"１８２號","E_COORD97":167967.13,"N_COORD97":2551465.2400000002,"ADDRESS":"長溪路三段１８２號","OBJECTID":463544},"geometry":{"x":167967.13000000082,"y":2551465.2400000021}},{"attributes":{"ID":463570,"DIS_CODE":0,"TOWNNAME":"安南區","LI":"南興里","LIN":"5鄰","STREET":"安興街","SECT":" ","MAREA":" ","LANE":" ","ALLEY":" ","HOUSE_NO":"３４６號","E_COORD97":163823.17999999999,"N_COORD97":2552315.4900000002,"ADDRESS":"安興街３４６號","OBJECTID":463545},"geometry":{"x":163823.18000000063,"y":2552315.4900000021}},{"attributes":{"ID":463571,"DIS_CODE":0,"TOWNNAME":"安南區","LI":"城北里","LIN":"5鄰","STREET":"安中路","SECT":"六段","MAREA":" ","LANE":" ","ALLEY":" ","HOUSE_NO":"５７０號","E_COORD97":160874.14000000001,"N_COORD97":2551432.5800000001,"ADDRESS":"安中路六段５７０號","OBJECTID":463546},"geometry":{"x":160874.1400000006,"y":2551432.5800000019}},{"attributes":{"ID":463572,"DIS_CODE":0,"TOWNNAME":"安南區","LI":"城北里","LIN":"5鄰","STREET":"安中路","SECT":"六段","MAREA":" ","LANE":" ","ALLEY":" ","HOUSE_NO":"５７２號","E_COORD97":160872.20000000001,"N_COORD97":2551435.0099999998,"ADDRESS":"安中路六段５７２號","OBJECTID":463547},"geometry":{"x":160872.20000000112,"y":2551435.0099999998}},{"attributes":{"ID":463573,"DIS_CODE":0,"TOWNNAME":"安南區","LI":"城北里","LIN":"5鄰","STREET":"安中路","SECT":"六段","MAREA":" ","LANE":" ","ALLEY":" ","HOUSE_NO":"５７４號","E_COORD97":160869.26999999999,"N_COORD97":2551438.0899999999,"ADDRESS":"安中路六段５７４號","OBJECTID":463548},"geometry":{"x":160869.27000000142,"y":2551438.089999998}},{"attributes":{"ID":463574,"DIS_CODE":0,"TOWNNAME":"安南區","LI":"城西里","LIN":"5鄰","STREET":"城西街","SECT":"三段","MAREA":" ","LANE":" ","ALLEY":" ","HOUSE_NO":"５２４號","E_COORD97":157108.26000000001,"N_COORD97":2550856.2000000002,"ADDRESS":"城西街三段５２４號","OBJECTID":463549},"geometry":{"x":157108.26000000071,"y":2550856.1999999993}},{"attributes":{"ID":463575,"DIS_CODE":0,"TOWNNAME":"安南區","LI":"城西里","LIN":"5鄰","STREET":"城西街","SECT":"三段","MAREA":" ","LANE":" ","ALLEY":" ","HOUSE_NO":"６１２號","E_COORD97":156924.67999999999,"N_COORD97":2550823.2799999998,"ADDRESS":"城西街三段６１２號","OBJECTID":463550},"geometry":{"x":156924.6799999997,"y":2550823.2800000012}},{"attributes":{"ID":463576,"DIS_CODE":0,"TOWNNAME":"安南區","LI":"城南里","LIN":"5鄰","STREET":"城西街","SECT":"一段","MAREA":" ","LANE":" ","ALLEY":" ","HOUSE_NO":"１９９號","E_COORD97":160465.39999999999,"N_COORD97":2551243.1400000001,"ADDRESS":"城西街一段１９９號","OBJECTID":463551},"geometry":{"x":160465.40000000037,"y":2551243.1400000025}},{"attributes":{"ID":463577,"DIS_CODE":0,"TOWNNAME":"安南區","LI":"城南里","LIN":"5鄰","STREET":"城西街","SECT":"一段","MAREA":" ","LANE":" ","ALLEY":" ","HOUSE_NO":"１９８號","E_COORD97":160453.70999999999,"N_COORD97":2551269.23,"ADDRESS":"城西街一段１９８號","OBJECTID":463552},"geometry":{"x":160453.71000000089,"y":2551269.2300000023}},{"attributes":{"ID":463578,"DIS_CODE":0,"TOWNNAME":"安南區","LI":"城南里","LIN":"5鄰","STREET":"城西街","SECT":"一段","MAREA":" ","LANE":" ","ALLEY":" ","HOUSE_NO":"２３４號之８","E_COORD97":160332.20000000001,"N_COORD97":2551200.7799999998,"ADDRESS":"城西街一段２３４號之８","OBJECTID":463553},"geometry":{"x":160332.20000000019,"y":2551200.7799999993}},{"attributes":{"ID":463579,"DIS_CODE":0,"TOWNNAME":"安南區","LI":"原佃里","LIN":"5鄰","STREET":"本原街","SECT":"一段","MAREA":" ","LANE":" ","ALLEY":" ","HOUSE_NO":"２４２號","E_COORD97":167764.62,"N_COORD97":2550471.0600000001,"ADDRESS":"本原街一段２４２號","OBJECTID":463554},"geometry":{"x":167764.62000000011,"y":2550471.0600000024}},{"attributes":{"ID":463580,"DIS_CODE":0,"TOWNNAME":"安南區","LI":"溪心里","LIN":"5鄰","STREET":"本原街","SECT":"二段","MAREA":" ","LANE":" ","ALLEY":" ","HOUSE_NO":"１００號","E_COORD97":166817.53,"N_COORD97":2550751.7200000002,"ADDRESS":"本原街二段１００號","OBJECTID":463555},"geometry":{"x":166817.53000000026,"y":2550751.7200000007}},{"attributes":{"ID":463581,"DIS_CODE":0,"TOWNNAME":"安南區","LI":"長安里","LIN":"5鄰","STREET":"公學路","SECT":"二段","MAREA":" ","LANE":" ","ALLEY":" ","HOUSE_NO":"２６７號","E_COORD97":167370.32000000001,"N_COORD97":2552051.6499999999,"ADDRESS":"公學路二段２６７號","OBJECTID":463556},"geometry":{"x":167370.3200000003,"y":2552051.6500000004}},{"attributes":{"ID":463582,"DIS_CODE":0,"TOWNNAME":"安南區","LI":"長安里","LIN":"5鄰","STREET":"公學路","SECT":"二段","MAREA":" ","LANE":" ","ALLEY":" ","HOUSE_NO":"２６９號","E_COORD97":167365.82999999999,"N_COORD97":2552051.8500000001,"ADDRESS":"公學路二段２６９號","OBJECTID":463557},"geometry":{"x":167365.83000000101,"y":2552051.8499999996}},{"attributes":{"ID":463583,"DIS_CODE":0,"TOWNNAME":"安南區","LI":"長安里","LIN":"5鄰","STREET":"公學路","SECT":"二段","MAREA":" ","LANE":" ","ALLEY":" ","HOUSE_NO":"２７１號","E_COORD97":167360.67999999999,"N_COORD97":2552052.8399999999,"ADDRESS":"公學路二段２７１號","OBJECTID":463558},"geometry":{"x":167360.67999999877,"y":2552052.8399999999}},{"attributes":{"ID":463584,"DIS_CODE":0,"TOWNNAME":"安南區","LI":"長安里","LIN":"5鄰","STREET":"公學路","SECT":"二段","MAREA":" ","LANE":" ","ALLEY":" ","HOUSE_NO":"２７３號","E_COORD97":167355.23999999999,"N_COORD97":2552054.1000000001,"ADDRESS":"公學路二段２７３號","OBJECTID":463559},"geometry":{"x":167355.24000000022,"y":2552054.0999999996}},{"attributes":{"ID":463585,"DIS_CODE":0,"TOWNNAME":"安南區","LI":"原佃里","LIN":"5鄰","STREET":"本原街","SECT":"一段","MAREA":" ","LANE":" ","ALLEY":" ","HOUSE_NO":"１７８號","E_COORD97":167816.45999999999,"N_COORD97":2550193.52,"ADDRESS":"本原街一段１７８號","OBJECTID":463560},"geometry":{"x":167816.45999999996,"y":2550193.5199999996}},{"attributes":{"ID":463586,"DIS_CODE":0,"TOWNNAME":"安南區","LI":"原佃里","LIN":"5鄰","STREET":"本原街","SECT":"一段","MAREA":" ","LANE":" ","ALLEY":" ","HOUSE_NO":"１８０號","E_COORD97":167815.39000000001,"N_COORD97":2550197.04,"ADDRESS":"本原街一段１８０號","OBJECTID":463561},"geometry":{"x":167815.39000000153,"y":2550197.0400000028}},{"attributes":{"ID":463587,"DIS_CODE":0,"TOWNNAME":"安南區","LI":"原佃里","LIN":"5鄰","STREET":"本原街","SECT":"一段","MAREA":" ","LANE":" ","ALLEY":" ","HOUSE_NO":"１８２號","E_COORD97":167813.45999999999,"N_COORD97":2550200.8599999999,"ADDRESS":"本原街一段１８２號","OBJECTID":463562},"geometry":{"x":167813.46000000183,"y":2550200.8599999994}},{"attributes":{"ID":463588,"DIS_CODE":0,"TOWNNAME":"安南區","LI":"原佃里","LIN":"5鄰","STREET":"本原街","SECT":"一段","MAREA":" ","LANE":" ","ALLEY":" ","HOUSE_NO":"１８２之１號","E_COORD97":167812.07000000001,"N_COORD97":2550204.7000000002,"ADDRESS":"本原街一段１８２之１號","OBJECTID":463563},"geometry":{"x":167812.07000000123,"y":2550204.6999999993}},{"attributes":{"ID":463589,"DIS_CODE":0,"TOWNNAME":"安南區","LI":"原佃里","LIN":"5鄰","STREET":"本原街","SECT":"一段","MAREA":" ","LANE":" ","ALLEY":" ","HOUSE_NO":"１８２之２號","E_COORD97":167810.57999999999,"N_COORD97":2550207.9100000001,"ADDRESS":"本原街一段１８２之２號","OBJECTID":463564},"geometry":{"x":167810.58000000007,"y":2550207.9100000001}},{"attributes":{"ID":463590,"DIS_CODE":0,"TOWNNAME":"安南區","LI":"原佃里","LIN":"5鄰","STREET":"本原街","SECT":"一段","MAREA":" ","LANE":" ","ALLEY":" ","HOUSE_NO":"１８２之３號","E_COORD97":167808.85999999999,"N_COORD97":2550211.4300000002,"ADDRESS":"本原街一段１８２之３號","OBJECTID":463565},"geometry":{"x":167808.86000000034,"y":2550211.4299999997}},{"attributes":{"ID":463591,"DIS_CODE":0,"TOWNNAME":"安南區","LI":"原佃里","LIN":"5鄰","STREET":"本原街","SECT":"一段","MAREA":" ","LANE":" ","ALLEY":" ","HOUSE_NO":"１８２之５號","E_COORD97":167807.57999999999,"N_COORD97":2550215.2799999998,"ADDRESS":"本原街一段１８２之５號","OBJECTID":463566},"geometry":{"x":167807.57999999914,"y":2550215.2799999993}},{"attributes":{"ID":463592,"DIS_CODE":0,"TOWNNAME":"安南區","LI":"溪東里","LIN":"5鄰","STREET":"府安路","SECT":"五段","MAREA":" ","LANE":" ","ALLEY":" ","HOUSE_NO":"７４號","E_COORD97":168194.14000000001,"N_COORD97":2547173.8599999999,"ADDRESS":"府安路五段７４號","OBJECTID":463567},"geometry":{"x":168194.1400000006,"y":2547173.8599999994}},{"attributes":{"ID":463593,"DIS_CODE":0,"TOWNNAME":"安南區","LI":"溪東里","LIN":"5鄰","STREET":"府安路","SECT":"五段","MAREA":" ","LANE":" ","ALLEY":" ","HOUSE_NO":"７５號","E_COORD97":168187.98999999999,"N_COORD97":2547170.4900000002,"ADDRESS":"府安路五段７５號","OBJECTID":463568},"geometry":{"x":168187.99000000022,"y":2547170.4900000002}},{"attributes":{"ID":463594,"DIS_CODE":0,"TOWNNAME":"安南區","LI":"溪東里","LIN":"5鄰","STREET":"府安路","SECT":"五段","MAREA":" ","LANE":" ","ALLEY":" ","HOUSE_NO":"８５號","E_COORD97":168134.84,"N_COORD97":2547156.2999999998,"ADDRESS":"府安路五段８５號","OBJECTID":463569},"geometry":{"x":168134.84000000078,"y":2547156.3000000026}},{"attributes":{"ID":463595,"DIS_CODE":0,"TOWNNAME":"安南區","LI":"溪東里","LIN":"5鄰","STREET":"府安路","SECT":"五段","MAREA":" ","LANE":" ","ALLEY":" ","HOUSE_NO":"８９號","E_COORD97":168109.41,"N_COORD97":2547156.1800000002,"ADDRESS":"府安路五段８９號","OBJECTID":463570},"geometry":{"x":168109.41000000108,"y":2547156.1800000016}},{"attributes":{"ID":463596,"DIS_CODE":0,"TOWNNAME":"永康區","LI":"三合里","LIN":"5鄰","STREET":"南工街","SECT":" ","MAREA":" ","LANE":" ","ALLEY":" ","HOUSE_NO":"９２號","E_COORD97":172104.31,"N_COORD97":2545707.3700000001,"ADDRESS":"南工街９２號","OBJECTID":463571},"geometry":{"x":172104.30999999959,"y":2545707.370000001}},{"attributes":{"ID":463597,"DIS_CODE":0,"TOWNNAME":"中西區","LI":"西湖里","LIN":"5鄰","STREET":"頂美一街","SECT":" ","MAREA":" ","LANE":" ","ALLEY":" ","HOUSE_NO":"５０號","E_COORD97":166316,"N_COORD97":2544571.4300000002,"ADDRESS":"頂美一街５０號","OBJECTID":463572},"geometry":{"x":166316,"y":2544571.4300000016}},{"attributes":{"ID":463598,"DIS_CODE":0,"TOWNNAME":"中西區","LI":"西湖里","LIN":"5鄰","STREET":"頂美一街","SECT":" ","MAREA":" ","LANE":" ","ALLEY":" ","HOUSE_NO":"５２號","E_COORD97":166315.51999999999,"N_COORD97":2544579.6899999999,"ADDRESS":"頂美一街５２號","OBJECTID":463573},"geometry":{"x":166315.51999999955,"y":2544579.6900000013}},{"attributes":{"ID":463599,"DIS_CODE":0,"TOWNNAME":"中西區","LI":"西湖里","LIN":"5鄰","STREET":"頂美一街","SECT":" ","MAREA":" ","LANE":" ","ALLEY":" ","HOUSE_NO":"５４號","E_COORD97":166314.54000000001,"N_COORD97":2544587.71,"ADDRESS":"頂美一街５４號","OBJECTID":463574},"geometry":{"x":166314.5400000019,"y":2544587.7100000028}},{"attributes":{"ID":463600,"DIS_CODE":0,"TOWNNAME":"中西區","LI":"西湖里","LIN":"5鄰","STREET":"頂美一街","SECT":" ","MAREA":" ","LANE":" ","ALLEY":" ","HOUSE_NO":"５６號","E_COORD97":166314.54000000001,"N_COORD97":2544597.1899999999,"ADDRESS":"頂美一街５６號","OBJECTID":463575},"geometry":{"x":166314.5400000019,"y":2544597.1899999995}},{"attributes":{"ID":463601,"DIS_CODE":0,"TOWNNAME":"中西區","LI":"西湖里","LIN":"5鄰","STREET":"頂美一街","SECT":" ","MAREA":" ","LANE":" ","ALLEY":" ","HOUSE_NO":"５８號","E_COORD97":166315.03,"N_COORD97":2544602.7799999998,"ADDRESS":"頂美一街５８號","OBJECTID":463576},"geometry":{"x":166315.03000000119,"y":2544602.7800000012}},{"attributes":{"ID":463602,"DIS_CODE":0,"TOWNNAME":"中西區","LI":"西湖里","LIN":"5鄰","STREET":"頂美一街","SECT":" ","MAREA":" ","LANE":" ","ALLEY":" ","HOUSE_NO":"６２號","E_COORD97":166313.57000000001,"N_COORD97":2544618.0899999999,"ADDRESS":"頂美一街６２號","OBJECTID":463577},"geometry":{"x":166313.57000000123,"y":2544618.0900000017}},{"attributes":{"ID":463603,"DIS_CODE":0,"TOWNNAME":"中西區","LI":"西湖里","LIN":"5鄰","STREET":"頂美一街","SECT":" ","MAREA":" ","LANE":" ","ALLEY":" ","HOUSE_NO":"６４號","E_COORD97":166313.32999999999,"N_COORD97":2544625.3799999999,"ADDRESS":"頂美一街６４號","OBJECTID":463578},"geometry":{"x":166313.33000000101,"y":2544625.3800000008}},{"attributes":{"ID":463604,"DIS_CODE":0,"TOWNNAME":"中西區","LI":"西湖里","LIN":"5鄰","STREET":"頂美一街","SECT":" ","MAREA":" ","LANE":" ","ALLEY":" ","HOUSE_NO":"６８號","E_COORD97":166314.29999999999,"N_COORD97":2544639.96,"ADDRESS":"頂美一街６８號","OBJECTID":463579},"geometry":{"x":166314.30000000075,"y":2544639.9600000028}},{"attributes":{"ID":463605,"DIS_CODE":0,"TOWNNAME":"中西區","LI":"西湖里","LIN":"5鄰","STREET":"頂美二街","SECT":" ","MAREA":" ","LANE":" ","ALLEY":" ","HOUSE_NO":"４１號","E_COORD97":166396.79000000001,"N_COORD97":2544587.4700000002,"ADDRESS":"頂美二街４１號","OBJECTID":463580},"geometry":{"x":166396.79000000004,"y":2544587.4700000007}},{"attributes":{"ID":463606,"DIS_CODE":0,"TOWNNAME":"中西區","LI":"西湖里","LIN":"5鄰","STREET":"頂美二街","SECT":" ","MAREA":" ","LANE":" ","ALLEY":" ","HOUSE_NO":"４３號","E_COORD97":166395.57000000001,"N_COORD97":2544593.0600000001,"ADDRESS":"頂美二街４３號","OBJECTID":463581},"geometry":{"x":166395.5700000003,"y":2544593.0600000005}},{"attributes":{"ID":463607,"DIS_CODE":0,"TOWNNAME":"中西區","LI":"西湖里","LIN":"5鄰","STREET":"頂美二街","SECT":" ","MAREA":" ","LANE":" ","ALLEY":" ","HOUSE_NO":"４５號","E_COORD97":166399.47,"N_COORD97":2544605.9399999999,"ADDRESS":"頂美二街４５號","OBJECTID":463582},"geometry":{"x":166399.4700000016,"y":2544605.9399999995}},{"attributes":{"ID":463608,"DIS_CODE":0,"TOWNNAME":"中西區","LI":"西湖里","LIN":"5鄰","STREET":"頂美一街","SECT":" ","MAREA":" ","LANE":" ","ALLEY":" ","HOUSE_NO":"６６號","E_COORD97":166315.51999999999,"N_COORD97":2544633.6400000001,"ADDRESS":"頂美一街６６號","OBJECTID":463583},"geometry":{"x":166315.51999999955,"y":2544633.6400000006}},{"attributes":{"ID":463609,"DIS_CODE":0,"TOWNNAME":"仁德區","LI":"成功里","LIN":"5鄰","STREET":"成功三街","SECT":" ","MAREA":" ","LANE":" ","ALLEY":" ","HOUSE_NO":"７４號","E_COORD97":171168.14999999999,"N_COORD97":2539866.7599999998,"ADDRESS":"成功三街７４號","OBJECTID":463584},"geometry":{"x":171168.1500000013,"y":2539866.7600000016}},{"attributes":{"ID":463610,"DIS_CODE":0,"TOWNNAME":"仁德區","LI":"仁義里","LIN":"5鄰","STREET":"仁義二街","SECT":" ","MAREA":" ","LANE":" ","ALLEY":" ","HOUSE_NO":"７７號","E_COORD97":173924.53,"N_COORD97":2541183.2599999998,"ADDRESS":"仁義二街７７號","OBJECTID":463585},"geometry":{"x":173924.53000000212,"y":2541183.2599999998}},{"attributes":{"ID":463611,"DIS_CODE":0,"TOWNNAME":"仁德區","LI":"土庫里","LIN":"5鄰","STREET":"土庫三街","SECT":" ","MAREA":" ","LANE":" ","ALLEY":" ","HOUSE_NO":"２３號","E_COORD97":174087.98999999999,"N_COORD97":2543128.5,"ADDRESS":"土庫三街２３號","OBJECTID":463586},"geometry":{"x":174087.99000000115,"y":2543128.5}},{"attributes":{"ID":463612,"DIS_CODE":0,"TOWNNAME":"仁德區","LI":"仁義里","LIN":"5鄰","STREET":"中山路","SECT":" ","MAREA":" ","LANE":" ","ALLEY":" ","HOUSE_NO":"３５９號","E_COORD97":173923.20999999999,"N_COORD97":2541238.5,"ADDRESS":"中山路３５９號","OBJECTID":463587},"geometry":{"x":173923.21000000089,"y":2541238.5000000019}},{"attributes":{"ID":463613,"DIS_CODE":0,"TOWNNAME":"仁德區","LI":"仁義里","LIN":"5鄰","STREET":"中山路","SECT":" ","MAREA":" ","LANE":" ","ALLEY":" ","HOUSE_NO":"３４７號","E_COORD97":173955.67999999999,"N_COORD97":2541234,"ADDRESS":"中山路３４７號","OBJECTID":463588},"geometry":{"x":173955.68000000063,"y":2541234.0000000037}},{"attributes":{"ID":463614,"DIS_CODE":0,"TOWNNAME":"仁德區","LI":"仁義里","LIN":"5鄰","STREET":"中山路","SECT":" ","MAREA":" ","LANE":" ","ALLEY":" ","HOUSE_NO":"３５１號","E_COORD97":173942.87,"N_COORD97":2541235.75,"ADDRESS":"中山路３５１號","OBJECTID":463589},"geometry":{"x":173942.87000000104,"y":2541235.7500000037}},{"attributes":{"ID":463615,"DIS_CODE":0,"TOWNNAME":"仁德區","LI":"仁義里","LIN":"5鄰","STREET":"仁義二街","SECT":" ","MAREA":" ","LANE":" ","ALLEY":" ","HOUSE_NO":"７３號","E_COORD97":173915.06,"N_COORD97":2541186.5099999998,"ADDRESS":"仁義二街７３號","OBJECTID":463590},"geometry":{"x":173915.06000000145,"y":2541186.5100000016}},{"attributes":{"ID":463616,"DIS_CODE":0,"TOWNNAME":"仁德區","LI":"成功里","LIN":"5鄰","STREET":"成功三街","SECT":" ","MAREA":" ","LANE":" ","ALLEY":" ","HOUSE_NO":"７０號","E_COORD97":171160.45999999999,"N_COORD97":2539877.0099999998,"ADDRESS":"成功三街７０號","OBJECTID":463591},"geometry":{"x":171160.46000000089,"y":2539877.0099999998}},{"attributes":{"ID":463617,"DIS_CODE":0,"TOWNNAME":"仁德區","LI":"田厝里","LIN":"5鄰","STREET":"田厝三街","SECT":" ","MAREA":" ","LANE":" ","ALLEY":" ","HOUSE_NO":"６５號","E_COORD97":172506.34,"N_COORD97":2537383.2400000002,"ADDRESS":"田厝三街６５號","OBJECTID":463592},"geometry":{"x":172506.33999999892,"y":2537383.2400000002}},{"attributes":{"ID":463618,"DIS_CODE":0,"TOWNNAME":"東區","LI":"虎尾里","LIN":"5鄰","STREET":"富農街","SECT":"一段","MAREA":" ","LANE":" ","ALLEY":" ","HOUSE_NO":"３８號","E_COORD97":171505.70000000001,"N_COORD97":2542092.2200000002,"ADDRESS":"富農街一段３８號","OBJECTID":463593},"geometry":{"x":171505.70000000019,"y":2542092.2200000025}},{"attributes":{"ID":463619,"DIS_CODE":0,"TOWNNAME":"東區","LI":"虎尾里","LIN":"5鄰","STREET":"富農街","SECT":"一段","MAREA":" ","LANE":" ","ALLEY":" ","HOUSE_NO":"３８號之１","E_COORD97":171506.01000000001,"N_COORD97":2542096.9700000002,"ADDRESS":"富農街一段３８號之１","OBJECTID":463594},"geometry":{"x":171506.00999999978,"y":2542096.9700000025}},{"attributes":{"ID":463620,"DIS_CODE":0,"TOWNNAME":"麻豆區","LI":"穀興里","LIN":"5鄰","STREET":"大同街","SECT":" ","MAREA":" ","LANE":" ","ALLEY":" ","HOUSE_NO":"１號之３","E_COORD97":172857.97,"N_COORD97":2565005.9900000002,"ADDRESS":"大同街１號之３","OBJECTID":463595},"geometry":{"x":172857.96999999881,"y":2565005.9900000002}},{"attributes":{"ID":463621,"DIS_CODE":0,"TOWNNAME":"麻豆區","LI":"穀興里","LIN":"5鄰","STREET":"大同街","SECT":" ","MAREA":" ","LANE":" ","ALLEY":" ","HOUSE_NO":"１號之４","E_COORD97":172852.51999999999,"N_COORD97":2565019.2000000002,"ADDRESS":"大同街１號之４","OBJECTID":463596},"geometry":{"x":172852.52000000142,"y":2565019.2000000011}},{"attributes":{"ID":463622,"DIS_CODE":0,"TOWNNAME":"麻豆區","LI":"穀興里","LIN":"5鄰","STREET":"大同街","SECT":" ","MAREA":" ","LANE":" ","ALLEY":" ","HOUSE_NO":"１號之５","E_COORD97":172857.45999999999,"N_COORD97":2565010.7799999998,"ADDRESS":"大同街１號之５","OBJECTID":463597},"geometry":{"x":172857.46000000089,"y":2565010.7799999993}},{"attributes":{"ID":463623,"DIS_CODE":0,"TOWNNAME":"麻豆區","LI":"穀興里","LIN":"5鄰","STREET":"大同街","SECT":" ","MAREA":" ","LANE":" ","ALLEY":" ","HOUSE_NO":"１號之６","E_COORD97":172868.67000000001,"N_COORD97":2564994.1400000001,"ADDRESS":"大同街１號之６","OBJECTID":463598},"geometry":{"x":172868.66999999899,"y":2564994.1400000025}},{"attributes":{"ID":463624,"DIS_CODE":0,"TOWNNAME":"麻豆區","LI":"穀興里","LIN":"5鄰","STREET":"大同街","SECT":" ","MAREA":" ","LANE":" ","ALLEY":" ","HOUSE_NO":"１號之７","E_COORD97":172867.51000000001,"N_COORD97":2564998.2799999998,"ADDRESS":"大同街１號之７","OBJECTID":463599},"geometry":{"x":172867.50999999978,"y":2564998.2800000012}},{"attributes":{"ID":463625,"DIS_CODE":0,"TOWNNAME":"麻豆區","LI":"穀興里","LIN":"5鄰","STREET":"大同街","SECT":" ","MAREA":" ","LANE":" ","ALLEY":" ","HOUSE_NO":"１號之８","E_COORD97":172858.63,"N_COORD97":2565001.52,"ADDRESS":"大同街１號之８","OBJECTID":463600},"geometry":{"x":172858.62999999989,"y":2565001.5200000014}}]}