{"displayFieldName":"TOWNNAME","fieldAliases":{"ID":"ID","DIS_CODE":"DIS_CODE","TOWNNAME":"TOWNNAME","LI":"LI","LIN":"LIN","STREET":"STREET","SECT":"SECT","MAREA":"MAREA","LANE":"LANE","ALLEY":"ALLEY","HOUSE_NO":"HOUSE_NO","E_COORD97":"E_COORD97","N_COORD97":"N_COORD97","ADDRESS":"ADDRESS","OBJECTID":"OBJECTID"},"geometryType":"esriGeometryPoint","spatialReference":{"wkid":102443,"latestWkid":3826},"fields":[{"name":"ID","type":"esriFieldTypeDouble","alias":"ID"},{"name":"DIS_CODE","type":"esriFieldTypeInteger","alias":"DIS_CODE"},{"name":"TOWNNAME","type":"esriFieldTypeString","alias":"TOWNNAME","length":8},{"name":"LI","type":"esriFieldTypeString","alias":"LI","length":8},{"name":"LIN","type":"esriFieldTypeString","alias":"LIN","length":12},{"name":"STREET","type":"esriFieldTypeString","alias":"STREET","length":20},{"name":"SECT","type":"esriFieldTypeString","alias":"SECT","length":8},{"name":"MAREA","type":"esriFieldTypeString","alias":"MAREA","length":12},{"name":"LANE","type":"esriFieldTypeString","alias":"LANE","length":10},{"name":"ALLEY","type":"esriFieldTypeString","alias":"ALLEY","length":10},{"name":"HOUSE_NO","type":"esriFieldTypeString","alias":"HOUSE_NO","length":20},{"name":"E_COORD97","type":"esriFieldTypeDouble","alias":"E_COORD97"},{"name":"N_COORD97","type":"esriFieldTypeDouble","alias":"N_COORD97"},{"name":"ADDRESS","type":"esriFieldTypeString","alias":"ADDRESS","length":50},{"name":"OBJECTID","type":"esriFieldTypeOID","alias":"OBJECTID"}],"features":[{"attributes":{"ID":658028,"DIS_CODE":0,"TOWNNAME":"安南區","LI":"梅花里","LIN":"2鄰","STREET":"安中路","SECT":"一段","MAREA":" ","LANE":" ","ALLEY":" ","HOUSE_NO":"６１９之１號","E_COORD97":167914.74523199999,"N_COORD97":2549029.9842400001,"ADDRESS":"安中路一段６１９之１號","OBJECTID":658001},"geometry":{"x":167914.74523200002,"y":2549029.9842450023}},{"attributes":{"ID":658029,"DIS_CODE":0,"TOWNNAME":"新營區","LI":"永生里","LIN":"20鄰","STREET":"中山路","SECT":" ","MAREA":" ","LANE":"２４５巷","ALLEY":" ","HOUSE_NO":"４之１號","E_COORD97":179847.99846999999,"N_COORD97":2577918.3390899999,"ADDRESS":"中山路２４５巷４之１號","OBJECTID":658002},"geometry":{"x":179847.99847000092,"y":2577918.3390930034}},{"attributes":{"ID":658030,"DIS_CODE":0,"TOWNNAME":"安南區","LI":"梅花里","LIN":"2鄰","STREET":"安中路","SECT":"一段","MAREA":" ","LANE":" ","ALLEY":" ","HOUSE_NO":"６１９之１號","E_COORD97":167914.74523199999,"N_COORD97":2549029.9842400001,"ADDRESS":"安中路一段６１９之１號","OBJECTID":658003},"geometry":{"x":167914.74523200002,"y":2549029.9842450023}},{"attributes":{"ID":658031,"DIS_CODE":0,"TOWNNAME":"安南區","LI":"梅花里","LIN":"2鄰","STREET":"安中路","SECT":"一段","MAREA":" ","LANE":"６１９巷","ALLEY":" ","HOUSE_NO":"６４之１號","E_COORD97":167746.048324,"N_COORD97":2548976.64427,"ADDRESS":"安中路一段６１９巷６４之１號","OBJECTID":658004},"geometry":{"x":167746.04832400009,"y":2548976.6442740019}},{"attributes":{"ID":658032,"DIS_CODE":0,"TOWNNAME":"安南區","LI":"梅花里","LIN":"1鄰","STREET":"北安路","SECT":"二段","MAREA":" ","LANE":" ","ALLEY":" ","HOUSE_NO":"３６３之１號","E_COORD97":168318.98213799999,"N_COORD97":2548468.8016300001,"ADDRESS":"北安路二段３６３之１號","OBJECTID":658005},"geometry":{"x":168318.98213800043,"y":2548468.8016280048}},{"attributes":{"ID":658033,"DIS_CODE":0,"TOWNNAME":"安南區","LI":"梅花里","LIN":"1鄰","STREET":"北安路","SECT":"二段","MAREA":" ","LANE":" ","ALLEY":" ","HOUSE_NO":"３６３之２號","E_COORD97":168311.35741900001,"N_COORD97":2548507.3249400002,"ADDRESS":"北安路二段３６３之２號","OBJECTID":658006},"geometry":{"x":168311.35741900001,"y":2548507.3249400016}},{"attributes":{"ID":658034,"DIS_CODE":0,"TOWNNAME":"安定區","LI":"中沙里","LIN":"6鄰","STREET":" ","SECT":" ","MAREA":"沙崙","LANE":" ","ALLEY":" ","HOUSE_NO":"２４之２０號","E_COORD97":168355.910233,"N_COORD97":2552538.3333800002,"ADDRESS":"沙崙２４之２０號","OBJECTID":658007},"geometry":{"x":168355.91023300216,"y":2552538.3333770037}},{"attributes":{"ID":658035,"DIS_CODE":0,"TOWNNAME":"安南區","LI":"梅花里","LIN":"1鄰","STREET":"安中路","SECT":"一段","MAREA":" ","LANE":" ","ALLEY":" ","HOUSE_NO":"４９１號","E_COORD97":168208.19101400001,"N_COORD97":2548855.5710100001,"ADDRESS":"安中路一段４９１號","OBJECTID":658008},"geometry":{"x":168208.19101400115,"y":2548855.5710060019}},{"attributes":{"ID":658036,"DIS_CODE":0,"TOWNNAME":"安定區","LI":"港尾里","LIN":"1鄰","STREET":" ","SECT":" ","MAREA":"下洲子","LANE":" ","ALLEY":" ","HOUSE_NO":"５之３號","E_COORD97":172441.43578299999,"N_COORD97":2556604.2891000002,"ADDRESS":"下洲子５之３號","OBJECTID":658009},"geometry":{"x":172441.43578300066,"y":2556604.2890980002}},{"attributes":{"ID":658037,"DIS_CODE":0,"TOWNNAME":"新營區","LI":"永生里","LIN":"21鄰","STREET":"延平路","SECT":" ","MAREA":" ","LANE":" ","ALLEY":" ","HOUSE_NO":"１３號","E_COORD97":179812.36086399999,"N_COORD97":2577900.2415999998,"ADDRESS":"延平路１３號","OBJECTID":658010},"geometry":{"x":179812.36086400039,"y":2577900.2416030038}},{"attributes":{"ID":658038,"DIS_CODE":0,"TOWNNAME":"麻豆區","LI":"埤頭里","LIN":"4鄰","STREET":" ","SECT":" ","MAREA":"埤頭","LANE":" ","ALLEY":" ","HOUSE_NO":"３３號之３６","E_COORD97":170742.73952999999,"N_COORD97":2565874.3971099998,"ADDRESS":"埤頭３３號之３６","OBJECTID":658011},"geometry":{"x":170742.7395299999,"y":2565874.3971120026}},{"attributes":{"ID":658039,"DIS_CODE":0,"TOWNNAME":"新營區","LI":"永生里","LIN":"21鄰","STREET":"延平路","SECT":" ","MAREA":" ","LANE":" ","ALLEY":" ","HOUSE_NO":"１５號","E_COORD97":179810.242042,"N_COORD97":2577894.1032699998,"ADDRESS":"延平路１５號","OBJECTID":658012},"geometry":{"x":179810.24204200041,"y":2577894.1032730006}},{"attributes":{"ID":658040,"DIS_CODE":0,"TOWNNAME":"安定區","LI":"蘇林里","LIN":"21鄰","STREET":" ","SECT":" ","MAREA":"蘇厝","LANE":" ","ALLEY":" ","HOUSE_NO":"２０６號","E_COORD97":173268.423435,"N_COORD97":2558884.34797,"ADDRESS":"蘇厝２０６號","OBJECTID":658013},"geometry":{"x":173268.42343500163,"y":2558884.3479709979}},{"attributes":{"ID":658041,"DIS_CODE":0,"TOWNNAME":"新營區","LI":"永生里","LIN":"21鄰","STREET":"延平路","SECT":" ","MAREA":" ","LANE":" ","ALLEY":" ","HOUSE_NO":"１７號","E_COORD97":179808.758867,"N_COORD97":2577887.7532799998,"ADDRESS":"延平路１７號","OBJECTID":658014},"geometry":{"x":179808.75886700023,"y":2577887.7532760035}},{"attributes":{"ID":658042,"DIS_CODE":0,"TOWNNAME":"新營區","LI":"永生里","LIN":"21鄰","STREET":"延平路","SECT":" ","MAREA":" ","LANE":" ","ALLEY":" ","HOUSE_NO":"１９號","E_COORD97":179807.27569099999,"N_COORD97":2577883.9432799998,"ADDRESS":"延平路１９號","OBJECTID":658015},"geometry":{"x":179807.27569100074,"y":2577883.9432779998}},{"attributes":{"ID":658043,"DIS_CODE":0,"TOWNNAME":"新營區","LI":"永生里","LIN":"21鄰","STREET":"延平路","SECT":" ","MAREA":" ","LANE":" ","ALLEY":" ","HOUSE_NO":"２３號","E_COORD97":179806.428162,"N_COORD97":2577876.9582799999,"ADDRESS":"延平路２３號","OBJECTID":658016},"geometry":{"x":179806.42816200107,"y":2577876.9582819995}},{"attributes":{"ID":658044,"DIS_CODE":0,"TOWNNAME":"新營區","LI":"永生里","LIN":"21鄰","STREET":"延平路","SECT":" ","MAREA":" ","LANE":" ","ALLEY":" ","HOUSE_NO":"２５號","E_COORD97":179807.06380900001,"N_COORD97":2577873.5716200001,"ADDRESS":"延平路２５號","OBJECTID":658017},"geometry":{"x":179807.06380900089,"y":2577873.5716169998}},{"attributes":{"ID":658045,"DIS_CODE":0,"TOWNNAME":"新營區","LI":"永生里","LIN":"21鄰","STREET":"延平路","SECT":" ","MAREA":" ","LANE":" ","ALLEY":" ","HOUSE_NO":"２５號之１","E_COORD97":179806.640044,"N_COORD97":2577870.1849500001,"ADDRESS":"延平路２５號之１","OBJECTID":658018},"geometry":{"x":179806.640044,"y":2577870.184952002}},{"attributes":{"ID":658046,"DIS_CODE":0,"TOWNNAME":"新營區","LI":"永生里","LIN":"21鄰","STREET":"延平路","SECT":" ","MAREA":" ","LANE":" ","ALLEY":" ","HOUSE_NO":"３３號","E_COORD97":179803.67369299999,"N_COORD97":2577855.3682900001,"ADDRESS":"延平路３３號","OBJECTID":658019},"geometry":{"x":179803.67369300034,"y":2577855.3682940025}},{"attributes":{"ID":658047,"DIS_CODE":0,"TOWNNAME":"安南區","LI":"淵中里","LIN":"1鄰","STREET":"安中路","SECT":"三段","MAREA":" ","LANE":"３７５巷","ALLEY":" ","HOUSE_NO":"１５號","E_COORD97":165518.10609700001,"N_COORD97":2549834.0931199999,"ADDRESS":"安中路三段３７５巷１５號","OBJECTID":658020},"geometry":{"x":165518.10609700065,"y":2549834.0931220017}},{"attributes":{"ID":658048,"DIS_CODE":0,"TOWNNAME":"新營區","LI":"永生里","LIN":"21鄰","STREET":"延平路","SECT":" ","MAREA":" ","LANE":" ","ALLEY":" ","HOUSE_NO":"３５號","E_COORD97":179802.40239999999,"N_COORD97":2577851.9816299998,"ADDRESS":"延平路３５號","OBJECTID":658021},"geometry":{"x":179802.40240000002,"y":2577851.9816289973}},{"attributes":{"ID":658049,"DIS_CODE":0,"TOWNNAME":"安南區","LI":"淵中里","LIN":"1鄰","STREET":"安中路","SECT":"三段","MAREA":" ","LANE":"３７５巷","ALLEY":" ","HOUSE_NO":"１７號","E_COORD97":165517.89425000001,"N_COORD97":2549829.0131299999,"ADDRESS":"安中路三段３７５巷１７號","OBJECTID":658022},"geometry":{"x":165517.89425000083,"y":2549829.0131250024}},{"attributes":{"ID":658050,"DIS_CODE":0,"TOWNNAME":"新營區","LI":"永生里","LIN":"21鄰","STREET":"延平路","SECT":" ","MAREA":" ","LANE":" ","ALLEY":" ","HOUSE_NO":"９號","E_COORD97":179812.36086399999,"N_COORD97":2577908.9199299999,"ADDRESS":"延平路９號","OBJECTID":658023},"geometry":{"x":179812.36086400039,"y":2577908.9199320003}},{"attributes":{"ID":658051,"DIS_CODE":0,"TOWNNAME":"安南區","LI":"淵中里","LIN":"1鄰","STREET":"安中路","SECT":"三段","MAREA":" ","LANE":"３７５巷","ALLEY":" ","HOUSE_NO":"１９號","E_COORD97":165518.31794400001,"N_COORD97":2549824.56813,"ADDRESS":"安中路三段３７５巷１９號","OBJECTID":658024},"geometry":{"x":165518.31794399954,"y":2549824.5681269988}},{"attributes":{"ID":658052,"DIS_CODE":0,"TOWNNAME":"新營區","LI":"永生里","LIN":"21鄰","STREET":"延平路","SECT":" ","MAREA":" ","LANE":" ","ALLEY":" ","HOUSE_NO":"３７號","E_COORD97":179801.766753,"N_COORD97":2577844.5732999998,"ADDRESS":"延平路３７號","OBJECTID":658025},"geometry":{"x":179801.76675300021,"y":2577844.5733000003}},{"attributes":{"ID":658053,"DIS_CODE":0,"TOWNNAME":"安南區","LI":"淵中里","LIN":"1鄰","STREET":"樂安二街","SECT":" ","MAREA":" ","LANE":" ","ALLEY":" ","HOUSE_NO":"１９８號","E_COORD97":165560.94276500001,"N_COORD97":2549813.0186000001,"ADDRESS":"樂安二街１９８號","OBJECTID":658026},"geometry":{"x":165560.94276500121,"y":2549813.0186039992}},{"attributes":{"ID":658054,"DIS_CODE":0,"TOWNNAME":"新營區","LI":"永生里","LIN":"22鄰","STREET":"延平路","SECT":" ","MAREA":" ","LANE":" ","ALLEY":" ","HOUSE_NO":"４５號","E_COORD97":179797.52910000001,"N_COORD97":2577809.2249799999,"ADDRESS":"延平路４５號","OBJECTID":658027},"geometry":{"x":179797.52910000179,"y":2577809.2249800023}},{"attributes":{"ID":658055,"DIS_CODE":0,"TOWNNAME":"安南區","LI":"淵中里","LIN":"1鄰","STREET":"樂安二街","SECT":" ","MAREA":" ","LANE":" ","ALLEY":" ","HOUSE_NO":"２００號","E_COORD97":165555.64691800001,"N_COORD97":2549814.5002700002,"ADDRESS":"樂安二街２００號","OBJECTID":658028},"geometry":{"x":165555.64691799972,"y":2549814.5002699997}},{"attributes":{"ID":658056,"DIS_CODE":0,"TOWNNAME":"安定區","LI":"蘇林里","LIN":"21鄰","STREET":" ","SECT":" ","MAREA":"蘇厝","LANE":" ","ALLEY":" ","HOUSE_NO":"２１２號","E_COORD97":173270.17115099999,"N_COORD97":2558864.66298,"ADDRESS":"蘇厝２１２號","OBJECTID":658029},"geometry":{"x":173270.17115100101,"y":2558864.6629810017}},{"attributes":{"ID":658057,"DIS_CODE":0,"TOWNNAME":"安南區","LI":"淵中里","LIN":"1鄰","STREET":"樂安二街","SECT":" ","MAREA":" ","LANE":" ","ALLEY":" ","HOUSE_NO":"２０２號","E_COORD97":165549.71557,"N_COORD97":2549816.61693,"ADDRESS":"樂安二街２０２號","OBJECTID":658030},"geometry":{"x":165549.71557,"y":2549816.6169350017}},{"attributes":{"ID":658058,"DIS_CODE":0,"TOWNNAME":"安南區","LI":"淵中里","LIN":"1鄰","STREET":"樂安二街","SECT":" ","MAREA":" ","LANE":" ","ALLEY":" ","HOUSE_NO":"２０６號","E_COORD97":165543.996055,"N_COORD97":2549818.5219299998,"ADDRESS":"樂安二街２０６號","OBJECTID":658031},"geometry":{"x":165543.99605499953,"y":2549818.5219340008}},{"attributes":{"ID":658059,"DIS_CODE":0,"TOWNNAME":"安定區","LI":"蘇林里","LIN":"21鄰","STREET":" ","SECT":" ","MAREA":"蘇厝","LANE":" ","ALLEY":" ","HOUSE_NO":"２０５之１號","E_COORD97":173268.370474,"N_COORD97":2558892.5500500002,"ADDRESS":"蘇厝２０５之１號","OBJECTID":658032},"geometry":{"x":173268.37047400046,"y":2558892.5500499997}},{"attributes":{"ID":658060,"DIS_CODE":0,"TOWNNAME":"安南區","LI":"淵中里","LIN":"1鄰","STREET":"樂安二街","SECT":" ","MAREA":" ","LANE":" ","ALLEY":" ","HOUSE_NO":"２０８號","E_COORD97":165538.70020799999,"N_COORD97":2549820.21527,"ADDRESS":"樂安二街２０８號","OBJECTID":658033},"geometry":{"x":165538.70020800084,"y":2549820.2152669989}},{"attributes":{"ID":658061,"DIS_CODE":0,"TOWNNAME":"安南區","LI":"淵中里","LIN":"1鄰","STREET":"樂安二街","SECT":" ","MAREA":" ","LANE":" ","ALLEY":" ","HOUSE_NO":"２１０號","E_COORD97":165533.19252800001,"N_COORD97":2549821.0619299999,"ADDRESS":"樂安二街２１０號","OBJECTID":658034},"geometry":{"x":165533.19252800103,"y":2549821.0619329996}},{"attributes":{"ID":658062,"DIS_CODE":0,"TOWNNAME":"安南區","LI":"梅花里","LIN":"1鄰","STREET":"北安路","SECT":"二段","MAREA":" ","LANE":" ","ALLEY":" ","HOUSE_NO":"３５５之２３號","E_COORD97":168258.46734100001,"N_COORD97":2548483.9229799998,"ADDRESS":"北安路二段３５５之２３號","OBJECTID":658035},"geometry":{"x":168258.46734100115,"y":2548483.9229750037}},{"attributes":{"ID":658063,"DIS_CODE":0,"TOWNNAME":"新營區","LI":"永生里","LIN":"22鄰","STREET":"延平路","SECT":" ","MAREA":" ","LANE":" ","ALLEY":" ","HOUSE_NO":"５１號","E_COORD97":179795.62216900001,"N_COORD97":2577795.7841599998,"ADDRESS":"延平路５１號","OBJECTID":658036},"geometry":{"x":179795.62216900103,"y":2577795.784159001}},{"attributes":{"ID":658064,"DIS_CODE":0,"TOWNNAME":"安南區","LI":"淵中里","LIN":"1鄰","STREET":"樂安二街","SECT":" ","MAREA":" ","LANE":" ","ALLEY":" ","HOUSE_NO":"２１２號","E_COORD97":165528.95585,"N_COORD97":2549821.6969300001,"ADDRESS":"樂安二街２１２號","OBJECTID":658037},"geometry":{"x":165528.95584999956,"y":2549821.6969329994}},{"attributes":{"ID":658065,"DIS_CODE":0,"TOWNNAME":"安南區","LI":"梅花里","LIN":"1鄰","STREET":"北安路","SECT":"二段","MAREA":" ","LANE":" ","ALLEY":" ","HOUSE_NO":"３５５之２７號","E_COORD97":168257.408352,"N_COORD97":2548511.0162900002,"ADDRESS":"北安路二段３５５之２７號","OBJECTID":658038},"geometry":{"x":168257.40835199971,"y":2548511.0162940007}},{"attributes":{"ID":658066,"DIS_CODE":0,"TOWNNAME":"新營區","LI":"永生里","LIN":"22鄰","STREET":"延平路","SECT":" ","MAREA":" ","LANE":" ","ALLEY":" ","HOUSE_NO":"５３號","E_COORD97":179795.198405,"N_COORD97":2577790.4924900001,"ADDRESS":"延平路５３號","OBJECTID":658039},"geometry":{"x":179795.19840500038,"y":2577790.4924950004}},{"attributes":{"ID":658067,"DIS_CODE":0,"TOWNNAME":"安南區","LI":"梅花里","LIN":"1鄰","STREET":"北安路","SECT":"二段","MAREA":" ","LANE":" ","ALLEY":" ","HOUSE_NO":"３５５之２９號","E_COORD97":168251.39775500001,"N_COORD97":2548605.1694700001,"ADDRESS":"北安路二段３５５之２９號","OBJECTID":658040},"geometry":{"x":168251.39775499981,"y":2548605.1694750022}},{"attributes":{"ID":658068,"DIS_CODE":0,"TOWNNAME":"安定區","LI":"管寮里","LIN":"3鄰","STREET":" ","SECT":" ","MAREA":"管寮","LANE":" ","ALLEY":" ","HOUSE_NO":"３０之７號","E_COORD97":170194.402027,"N_COORD97":2556607.42441,"ADDRESS":"管寮３０之７號","OBJECTID":658041},"geometry":{"x":170194.4020270016,"y":2556607.4244090002}},{"attributes":{"ID":658069,"DIS_CODE":0,"TOWNNAME":"新營區","LI":"永生里","LIN":"22鄰","STREET":"延平路","SECT":" ","MAREA":" ","LANE":" ","ALLEY":" ","HOUSE_NO":"５５號","E_COORD97":179794.35087600001,"N_COORD97":2577787.5820800001,"ADDRESS":"延平路５５號","OBJECTID":658042},"geometry":{"x":179794.35087600071,"y":2577787.582080001}},{"attributes":{"ID":658070,"DIS_CODE":0,"TOWNNAME":"新營區","LI":"永生里","LIN":"22鄰","STREET":"延平路","SECT":" ","MAREA":" ","LANE":" ","ALLEY":" ","HOUSE_NO":"５７號","E_COORD97":179793.71522899999,"N_COORD97":2577780.5970800002,"ADDRESS":"延平路５７號","OBJECTID":658043},"geometry":{"x":179793.7152290009,"y":2577780.5970840026}},{"attributes":{"ID":658071,"DIS_CODE":0,"TOWNNAME":"安定區","LI":"新吉里","LIN":"18鄰","STREET":" ","SECT":" ","MAREA":"新吉","LANE":" ","ALLEY":" ","HOUSE_NO":"２８１之１３號","E_COORD97":168692.00140499999,"N_COORD97":2554216.3332000002,"ADDRESS":"新吉２８１之１３號","OBJECTID":658044},"geometry":{"x":168692.00140500069,"y":2554216.3332000002}},{"attributes":{"ID":658072,"DIS_CODE":0,"TOWNNAME":"安南區","LI":"梅花里","LIN":"1鄰","STREET":"北安路","SECT":"二段","MAREA":" ","LANE":" ","ALLEY":" ","HOUSE_NO":"３５５之１８號","E_COORD97":168276.681947,"N_COORD97":2548468.47132,"ADDRESS":"北安路二段３５５之１８號","OBJECTID":658045},"geometry":{"x":168276.68194700219,"y":2548468.4713170044}},{"attributes":{"ID":658073,"DIS_CODE":0,"TOWNNAME":"安南區","LI":"梅花里","LIN":"1鄰","STREET":"北安路","SECT":"二段","MAREA":" ","LANE":" ","ALLEY":" ","HOUSE_NO":"３５５之１６號","E_COORD97":168277.31734099999,"N_COORD97":2548476.09131,"ADDRESS":"北安路二段３５５之１６號","OBJECTID":658046},"geometry":{"x":168277.31734100077,"y":2548476.0913120024}},{"attributes":{"ID":658074,"DIS_CODE":0,"TOWNNAME":"安定區","LI":"海寮里","LIN":"2鄰","STREET":" ","SECT":" ","MAREA":"海寮","LANE":" ","ALLEY":" ","HOUSE_NO":"２５之２０號","E_COORD97":169417.462619,"N_COORD97":2554810.45475,"ADDRESS":"海寮２５之２０號","OBJECTID":658047},"geometry":{"x":169417.46261900105,"y":2554810.4547540005}},{"attributes":{"ID":658075,"DIS_CODE":0,"TOWNNAME":"安定區","LI":"海寮里","LIN":"2鄰","STREET":" ","SECT":" ","MAREA":"海寮","LANE":" ","ALLEY":" ","HOUSE_NO":"２５之２１號","E_COORD97":169544.357426,"N_COORD97":2554999.3671499998,"ADDRESS":"海寮２５之２１號","OBJECTID":658048},"geometry":{"x":169544.35742600076,"y":2554999.3671520017}},{"attributes":{"ID":658076,"DIS_CODE":0,"TOWNNAME":"新營區","LI":"永生里","LIN":"22鄰","STREET":"新進路","SECT":" ","MAREA":" ","LANE":" ","ALLEY":" ","HOUSE_NO":"３５０號","E_COORD97":179866.814595,"N_COORD97":2577781.76125,"ADDRESS":"新進路３５０號","OBJECTID":658049},"geometry":{"x":179866.81459499989,"y":2577781.7612500004}},{"attributes":{"ID":658077,"DIS_CODE":0,"TOWNNAME":"安南區","LI":"淵中里","LIN":"1鄰","STREET":"樂安二街","SECT":" ","MAREA":" ","LANE":" ","ALLEY":" ","HOUSE_NO":"２１６號","E_COORD97":165523.02450199999,"N_COORD97":2549822.9669300001,"ADDRESS":"樂安二街２１６號","OBJECTID":658050},"geometry":{"x":165523.0245020017,"y":2549822.9669320006}},{"attributes":{"ID":658078,"DIS_CODE":0,"TOWNNAME":"新營區","LI":"永生里","LIN":"22鄰","STREET":"新進路","SECT":" ","MAREA":" ","LANE":" ","ALLEY":" ","HOUSE_NO":"３６０號","E_COORD97":179846.05013799999,"N_COORD97":2577769.9079200001,"ADDRESS":"新進路３６０號","OBJECTID":658051},"geometry":{"x":179846.0501380004,"y":2577769.9079229999}},{"attributes":{"ID":658079,"DIS_CODE":0,"TOWNNAME":"安南區","LI":"淵中里","LIN":"1鄰","STREET":"樂安二街","SECT":" ","MAREA":" ","LANE":" ","ALLEY":" ","HOUSE_NO":"２１６號","E_COORD97":165523.02450199999,"N_COORD97":2549822.9669300001,"ADDRESS":"樂安二街２１６號","OBJECTID":658052},"geometry":{"x":165523.0245020017,"y":2549822.9669320006}},{"attributes":{"ID":658080,"DIS_CODE":0,"TOWNNAME":"新營區","LI":"永生里","LIN":"22鄰","STREET":"新進路","SECT":" ","MAREA":" ","LANE":" ","ALLEY":" ","HOUSE_NO":"３６８號","E_COORD97":179830.370853,"N_COORD97":2577760.80626,"ADDRESS":"新進路３６８號","OBJECTID":658053},"geometry":{"x":179830.37085300125,"y":2577760.8062609993}},{"attributes":{"ID":658081,"DIS_CODE":0,"TOWNNAME":"新營區","LI":"永生里","LIN":"22鄰","STREET":"新進路","SECT":" ","MAREA":" ","LANE":" ","ALLEY":" ","HOUSE_NO":"３７２號","E_COORD97":179823.59062199999,"N_COORD97":2577758.4779300001,"ADDRESS":"新進路３７２號","OBJECTID":658054},"geometry":{"x":179823.5906220004,"y":2577758.4779290017}},{"attributes":{"ID":658082,"DIS_CODE":0,"TOWNNAME":"新營區","LI":"永生里","LIN":"22鄰","STREET":"新進路","SECT":" ","MAREA":" ","LANE":" ","ALLEY":" ","HOUSE_NO":"３７６號","E_COORD97":179810.453924,"N_COORD97":2577756.3612600002,"ADDRESS":"新進路３７６號","OBJECTID":658055},"geometry":{"x":179810.45392400213,"y":2577756.3612639997}},{"attributes":{"ID":658083,"DIS_CODE":0,"TOWNNAME":"東區","LI":"後甲里","LIN":"26鄰","STREET":"中華東路","SECT":"一段","MAREA":" ","LANE":" ","ALLEY":" ","HOUSE_NO":"２５５號","E_COORD97":171454.31603099999,"N_COORD97":2543285.2387600001,"ADDRESS":"中華東路一段２５５號","OBJECTID":658056},"geometry":{"x":171454.31603099965,"y":2543285.2387599982}},{"attributes":{"ID":658084,"DIS_CODE":0,"TOWNNAME":"安定區","LI":"港尾里","LIN":"4鄰","STREET":" ","SECT":" ","MAREA":"港子尾","LANE":" ","ALLEY":" ","HOUSE_NO":"１６之２２號","E_COORD97":172202.58119999999,"N_COORD97":2556365.5689099999,"ADDRESS":"港子尾１６之２２號","OBJECTID":658057},"geometry":{"x":172202.58120000176,"y":2556365.5689139999}},{"attributes":{"ID":658085,"DIS_CODE":0,"TOWNNAME":"東區","LI":"泉南里","LIN":"32鄰","STREET":"林森路","SECT":"一段","MAREA":" ","LANE":"１５３巷","ALLEY":" ","HOUSE_NO":"５６號","E_COORD97":169528.384089,"N_COORD97":2542667.9132599998,"ADDRESS":"林森路一段１５３巷５６號","OBJECTID":658058},"geometry":{"x":169528.38408899959,"y":2542667.9132599998}},{"attributes":{"ID":658086,"DIS_CODE":0,"TOWNNAME":"新營區","LI":"永生里","LIN":"22鄰","STREET":"延平路","SECT":" ","MAREA":" ","LANE":" ","ALLEY":" ","HOUSE_NO":"４７號","E_COORD97":179796.68158,"N_COORD97":2577805.25624,"ADDRESS":"延平路４７號","OBJECTID":658059},"geometry":{"x":179796.68158000056,"y":2577805.2562370021}},{"attributes":{"ID":658087,"DIS_CODE":0,"TOWNNAME":"東區","LI":"富強里","LIN":"22鄰","STREET":"東門路","SECT":"二段","MAREA":" ","LANE":" ","ALLEY":" ","HOUSE_NO":"３５１號","E_COORD97":170813.39808499999,"N_COORD97":2542574.56831,"ADDRESS":"東門路二段３５１號","OBJECTID":658060},"geometry":{"x":170813.39808499999,"y":2542574.5683100019}},{"attributes":{"ID":658088,"DIS_CODE":0,"TOWNNAME":"東區","LI":"裕聖里","LIN":"6鄰","STREET":"裕孝二街","SECT":" ","MAREA":" ","LANE":" ","ALLEY":" ","HOUSE_NO":"６號","E_COORD97":172450.12242500001,"N_COORD97":2542121.4960599998,"ADDRESS":"裕孝二街６號","OBJECTID":658061},"geometry":{"x":172450.12242500018,"y":2542121.4960550014}},{"attributes":{"ID":658089,"DIS_CODE":0,"TOWNNAME":"東區","LI":"裕聖里","LIN":"6鄰","STREET":"裕孝二街","SECT":" ","MAREA":" ","LANE":" ","ALLEY":" ","HOUSE_NO":"８號","E_COORD97":172456.47863600001,"N_COORD97":2542121.4960599998,"ADDRESS":"裕孝二街８號","OBJECTID":658062},"geometry":{"x":172456.47863600124,"y":2542121.4960550014}},{"attributes":{"ID":658090,"DIS_CODE":0,"TOWNNAME":"安南區","LI":"東和里","LIN":"4鄰","STREET":"長和路","SECT":"一段","MAREA":" ","LANE":"８２３巷","ALLEY":" ","HOUSE_NO":"４３７號","E_COORD97":170914.04049700001,"N_COORD97":2550149.9906799998,"ADDRESS":"長和路一段８２３巷４３７號","OBJECTID":658063},"geometry":{"x":170914.04049700033,"y":2550149.9906760007}},{"attributes":{"ID":658091,"DIS_CODE":0,"TOWNNAME":"安定區","LI":"港口里","LIN":"22鄰","STREET":" ","SECT":" ","MAREA":"港口","LANE":" ","ALLEY":" ","HOUSE_NO":"４１９之３號","E_COORD97":171822.00270000001,"N_COORD97":2555211.3511999999,"ADDRESS":"港口４１９之３號","OBJECTID":658064},"geometry":{"x":171822.00270000193,"y":2555211.3512040004}},{"attributes":{"ID":658092,"DIS_CODE":0,"TOWNNAME":"東區","LI":"裕聖里","LIN":"8鄰","STREET":"裕華三街","SECT":" ","MAREA":" ","LANE":" ","ALLEY":" ","HOUSE_NO":"９０號","E_COORD97":172760.305524,"N_COORD97":2541909.08867,"ADDRESS":"裕華三街９０號","OBJECTID":658065},"geometry":{"x":172760.3055240009,"y":2541909.0886690002}},{"attributes":{"ID":658093,"DIS_CODE":0,"TOWNNAME":"東區","LI":"裕聖里","LIN":"8鄰","STREET":"裕華三街","SECT":" ","MAREA":" ","LANE":" ","ALLEY":" ","HOUSE_NO":"９２號","E_COORD97":172762.636134,"N_COORD97":2541901.2570099998,"ADDRESS":"裕華三街９２號","OBJECTID":658066},"geometry":{"x":172762.6361340005,"y":2541901.2570069991}},{"attributes":{"ID":658094,"DIS_CODE":0,"TOWNNAME":"永康區","LI":"新樹里","LIN":"3鄰","STREET":"富強路","SECT":"二段","MAREA":" ","LANE":"３６８巷","ALLEY":" ","HOUSE_NO":"２號","E_COORD97":175619.71143299999,"N_COORD97":2547520.0233399998,"ADDRESS":"富強路二段３６８巷２號","OBJECTID":658067},"geometry":{"x":175619.71143299993,"y":2547520.0233409982}},{"attributes":{"ID":658095,"DIS_CODE":0,"TOWNNAME":"麻豆區","LI":"埤頭里","LIN":"7鄰","STREET":" ","SECT":" ","MAREA":"埤頭","LANE":" ","ALLEY":" ","HOUSE_NO":"４６號","E_COORD97":170945.31222200001,"N_COORD97":2565976.8437199998,"ADDRESS":"埤頭４６號","OBJECTID":658068},"geometry":{"x":170945.31222200114,"y":2565976.8437239993}},{"attributes":{"ID":658096,"DIS_CODE":0,"TOWNNAME":"安定區","LI":"港尾里","LIN":"3鄰","STREET":" ","SECT":" ","MAREA":"港子尾","LANE":" ","ALLEY":" ","HOUSE_NO":"１之２８號","E_COORD97":171819.67241200001,"N_COORD97":2556487.38301,"ADDRESS":"港子尾１之２８號","OBJECTID":658069},"geometry":{"x":171819.67241199967,"y":2556487.3830150012}},{"attributes":{"ID":658097,"DIS_CODE":0,"TOWNNAME":"七股區","LI":"七股里","LIN":"6鄰","STREET":" ","SECT":" ","MAREA":"七股","LANE":" ","ALLEY":" ","HOUSE_NO":"５７號之１","E_COORD97":160880.77009100001,"N_COORD97":2559399.74438,"ADDRESS":"七股５７號之１","OBJECTID":658070},"geometry":{"x":160880.77009100094,"y":2559399.7443780042}},{"attributes":{"ID":658098,"DIS_CODE":0,"TOWNNAME":"七股區","LI":"七股里","LIN":"6鄰","STREET":" ","SECT":" ","MAREA":"七股","LANE":" ","ALLEY":" ","HOUSE_NO":"６號","E_COORD97":161145.081921,"N_COORD97":2559322.9094199999,"ADDRESS":"七股６號","OBJECTID":658071},"geometry":{"x":161145.0819210019,"y":2559322.9094200023}},{"attributes":{"ID":658099,"DIS_CODE":0,"TOWNNAME":"七股區","LI":"七股里","LIN":"11鄰","STREET":" ","SECT":" ","MAREA":"七股","LANE":" ","ALLEY":" ","HOUSE_NO":"９９號","E_COORD97":160558.04036300001,"N_COORD97":2559435.7276900001,"ADDRESS":"七股９９號","OBJECTID":658072},"geometry":{"x":160558.04036299977,"y":2559435.7276920006}},{"attributes":{"ID":658100,"DIS_CODE":0,"TOWNNAME":"七股區","LI":"七股里","LIN":"13鄰","STREET":" ","SECT":" ","MAREA":"七股","LANE":" ","ALLEY":" ","HOUSE_NO":"１１６號之１","E_COORD97":160799.64369299999,"N_COORD97":2559520.0238999999,"ADDRESS":"七股１１６號之１","OBJECTID":658073},"geometry":{"x":160799.64369300194,"y":2559520.0238969997}},{"attributes":{"ID":658101,"DIS_CODE":0,"TOWNNAME":"麻豆區","LI":"埤頭里","LIN":"7鄰","STREET":" ","SECT":" ","MAREA":"埤頭","LANE":" ","ALLEY":" ","HOUSE_NO":"５１號","E_COORD97":170916.49759499999,"N_COORD97":2565999.2803799999,"ADDRESS":"埤頭５１號","OBJECTID":658074},"geometry":{"x":170916.49759500101,"y":2565999.2803779971}},{"attributes":{"ID":658102,"DIS_CODE":0,"TOWNNAME":"安定區","LI":"港南里","LIN":"17鄰","STREET":" ","SECT":" ","MAREA":"港口","LANE":" ","ALLEY":" ","HOUSE_NO":"１４０之４９號","E_COORD97":171614.92478,"N_COORD97":2554443.84828,"ADDRESS":"港口１４０之４９號","OBJECTID":658075},"geometry":{"x":171614.92478000093,"y":2554443.8482850026}},{"attributes":{"ID":658103,"DIS_CODE":0,"TOWNNAME":"麻豆區","LI":"埤頭里","LIN":"8鄰","STREET":" ","SECT":" ","MAREA":"埤頭","LANE":" ","ALLEY":" ","HOUSE_NO":"６２號","E_COORD97":170870.73318700001,"N_COORD97":2566113.7089399998,"ADDRESS":"埤頭６２號","OBJECTID":658076},"geometry":{"x":170870.73318700027,"y":2566113.7089409996}},{"attributes":{"ID":658104,"DIS_CODE":0,"TOWNNAME":"安定區","LI":"蘇林里","LIN":"1鄰","STREET":"北園三路","SECT":" ","MAREA":" ","LANE":" ","ALLEY":" ","HOUSE_NO":"８之１號","E_COORD97":174734.54569999999,"N_COORD97":2557518.4637099998,"ADDRESS":"北園三路８之１號","OBJECTID":658077},"geometry":{"x":174734.5457000006,"y":2557518.4637080021}},{"attributes":{"ID":658105,"DIS_CODE":0,"TOWNNAME":"安定區","LI":"中沙里","LIN":"6鄰","STREET":" ","SECT":" ","MAREA":"沙崙","LANE":" ","ALLEY":" ","HOUSE_NO":"２４之１６號","E_COORD97":168192.79003,"N_COORD97":2552447.4622800001,"ADDRESS":"沙崙２４之１６號","OBJECTID":658078},"geometry":{"x":168192.79003000073,"y":2552447.4622799996}},{"attributes":{"ID":658106,"DIS_CODE":0,"TOWNNAME":"安定區","LI":"大同里","LIN":"14鄰","STREET":" ","SECT":" ","MAREA":"牛肉寮","LANE":" ","ALLEY":" ","HOUSE_NO":"６５之４２號","E_COORD97":171199.49787399999,"N_COORD97":2553209.5677,"ADDRESS":"牛肉寮６５之４２號","OBJECTID":658079},"geometry":{"x":171199.49787400011,"y":2553209.567702001}},{"attributes":{"ID":658107,"DIS_CODE":0,"TOWNNAME":"安定區","LI":"新吉里","LIN":"7鄰","STREET":" ","SECT":" ","MAREA":"新吉","LANE":" ","ALLEY":" ","HOUSE_NO":"５８之１９號","E_COORD97":168864.33684,"N_COORD97":2553446.9517399999,"ADDRESS":"新吉５８之１９號","OBJECTID":658080},"geometry":{"x":168864.33684,"y":2553446.9517400004}},{"attributes":{"ID":658108,"DIS_CODE":0,"TOWNNAME":"安定區","LI":"管寮里","LIN":"2鄰","STREET":" ","SECT":" ","MAREA":"管寮","LANE":" ","ALLEY":" ","HOUSE_NO":"１３之２３號","E_COORD97":169833.73690300001,"N_COORD97":2555125.9966699998,"ADDRESS":"管寮１３之２３號","OBJECTID":658081},"geometry":{"x":169833.73690300062,"y":2555125.9966670033}},{"attributes":{"ID":658109,"DIS_CODE":0,"TOWNNAME":"安定區","LI":"大同里","LIN":"4鄰","STREET":" ","SECT":" ","MAREA":"大同","LANE":" ","ALLEY":" ","HOUSE_NO":"４５之３號","E_COORD97":170347.03593099999,"N_COORD97":2554030.0930900001,"ADDRESS":"大同４５之３號","OBJECTID":658082},"geometry":{"x":170347.03593100049,"y":2554030.093092002}},{"attributes":{"ID":658110,"DIS_CODE":0,"TOWNNAME":"七股區","LI":"七股里","LIN":"13鄰","STREET":" ","SECT":" ","MAREA":"七股","LANE":" ","ALLEY":" ","HOUSE_NO":"１１６號之２","E_COORD97":160805.07067399999,"N_COORD97":2559519.7525499999,"ADDRESS":"七股１１６號之２","OBJECTID":658083},"geometry":{"x":160805.07067400124,"y":2559519.7525480017}},{"attributes":{"ID":658111,"DIS_CODE":0,"TOWNNAME":"安定區","LI":"大同里","LIN":"4鄰","STREET":" ","SECT":" ","MAREA":"大同","LANE":" ","ALLEY":" ","HOUSE_NO":"４５之２號","E_COORD97":170418.957111,"N_COORD97":2553971.9589300002,"ADDRESS":"大同４５之２號","OBJECTID":658084},"geometry":{"x":170418.95711100101,"y":2553971.9589310009}},{"attributes":{"ID":658112,"DIS_CODE":0,"TOWNNAME":"安定區","LI":"大同里","LIN":"4鄰","STREET":" ","SECT":" ","MAREA":"大同","LANE":" ","ALLEY":" ","HOUSE_NO":"４５之１號","E_COORD97":170412.689698,"N_COORD97":2553979.0876699998,"ADDRESS":"大同４５之１號","OBJECTID":658085},"geometry":{"x":170412.68969800137,"y":2553979.0876740012}},{"attributes":{"ID":658113,"DIS_CODE":0,"TOWNNAME":"安定區","LI":"大同里","LIN":"4鄰","STREET":" ","SECT":" ","MAREA":"大同","LANE":" ","ALLEY":" ","HOUSE_NO":"４６之１號","E_COORD97":170391.311414,"N_COORD97":2553961.58727,"ADDRESS":"大同４６之１號","OBJECTID":658086},"geometry":{"x":170391.31141400058,"y":2553961.5872700009}},{"attributes":{"ID":658114,"DIS_CODE":0,"TOWNNAME":"安定區","LI":"港尾里","LIN":"2鄰","STREET":" ","SECT":" ","MAREA":"下洲子","LANE":" ","ALLEY":" ","HOUSE_NO":"３１號","E_COORD97":172992.76088399999,"N_COORD97":2556986.99022,"ADDRESS":"下洲子３１號","OBJECTID":658087},"geometry":{"x":172992.76088400092,"y":2556986.990220001}},{"attributes":{"ID":658115,"DIS_CODE":0,"TOWNNAME":"安定區","LI":"新吉里","LIN":"3鄰","STREET":" ","SECT":" ","MAREA":"新吉","LANE":" ","ALLEY":" ","HOUSE_NO":"１９之４０號","E_COORD97":169975.24897499999,"N_COORD97":2554294.0625100001,"ADDRESS":"新吉１９之４０號","OBJECTID":658088},"geometry":{"x":169975.24897500128,"y":2554294.0625070035}},{"attributes":{"ID":658116,"DIS_CODE":0,"TOWNNAME":"安定區","LI":"保西里","LIN":"5鄰","STREET":" ","SECT":" ","MAREA":"安定","LANE":" ","ALLEY":" ","HOUSE_NO":"３７１之６號","E_COORD97":171105.22710799999,"N_COORD97":2556966.3527299999,"ADDRESS":"安定３７１之６號","OBJECTID":658089},"geometry":{"x":171105.22710799985,"y":2556966.3527310025}},{"attributes":{"ID":658117,"DIS_CODE":0,"TOWNNAME":"安定區","LI":"保西里","LIN":"5鄰","STREET":" ","SECT":" ","MAREA":"安定","LANE":" ","ALLEY":" ","HOUSE_NO":"３７１之３號","E_COORD97":171232.75744799999,"N_COORD97":2557106.05265,"ADDRESS":"安定３７１之３號","OBJECTID":658090},"geometry":{"x":171232.75744800083,"y":2557106.0526550021}},{"attributes":{"ID":658118,"DIS_CODE":0,"TOWNNAME":"安定區","LI":"南安里","LIN":"5鄰","STREET":" ","SECT":" ","MAREA":"油車","LANE":" ","ALLEY":" ","HOUSE_NO":"６２之１６號","E_COORD97":170262.93369599999,"N_COORD97":2555286.9903000002,"ADDRESS":"油車６２之１６號","OBJECTID":658091},"geometry":{"x":170262.93369600084,"y":2555286.9903040025}},{"attributes":{"ID":658119,"DIS_CODE":0,"TOWNNAME":"安定區","LI":"大同里","LIN":"11鄰","STREET":" ","SECT":" ","MAREA":"大同","LANE":" ","ALLEY":" ","HOUSE_NO":"１２２之２號","E_COORD97":170277.44503900001,"N_COORD97":2553783.78737,"ADDRESS":"大同１２２之２號","OBJECTID":658092},"geometry":{"x":170277.44503900129,"y":2553783.7873659991}},{"attributes":{"ID":658120,"DIS_CODE":0,"TOWNNAME":"安定區","LI":"大同里","LIN":"11鄰","STREET":" ","SECT":" ","MAREA":"大同","LANE":" ","ALLEY":" ","HOUSE_NO":"１２３之３號","E_COORD97":170265.72996900001,"N_COORD97":2553756.4426799999,"ADDRESS":"大同１２３之３號","OBJECTID":658093},"geometry":{"x":170265.72996900044,"y":2553756.442683002}},{"attributes":{"ID":658121,"DIS_CODE":0,"TOWNNAME":"安定區","LI":"大同里","LIN":"11鄰","STREET":" ","SECT":" ","MAREA":"大同","LANE":" ","ALLEY":" ","HOUSE_NO":"１２３之１號","E_COORD97":170292.528288,"N_COORD97":2553767.5551800001,"ADDRESS":"大同１２３之１號","OBJECTID":658094},"geometry":{"x":170292.52828800213,"y":2553767.5551769976}},{"attributes":{"ID":658122,"DIS_CODE":0,"TOWNNAME":"安定區","LI":"安加里","LIN":"10鄰","STREET":" ","SECT":" ","MAREA":"安定","LANE":" ","ALLEY":" ","HOUSE_NO":"２６２之１９號","E_COORD97":171177.61427200001,"N_COORD97":2557019.5471700002,"ADDRESS":"安定２６２之１９號","OBJECTID":658095},"geometry":{"x":171177.61427200213,"y":2557019.5471710004}},{"attributes":{"ID":658123,"DIS_CODE":0,"TOWNNAME":"安定區","LI":"安加里","LIN":"10鄰","STREET":" ","SECT":" ","MAREA":"安定","LANE":" ","ALLEY":" ","HOUSE_NO":"２６２之１６號","E_COORD97":171312.756953,"N_COORD97":2557146.3960600002,"ADDRESS":"安定２６２之１６號","OBJECTID":658096},"geometry":{"x":171312.75695300009,"y":2557146.3960590009}},{"attributes":{"ID":658124,"DIS_CODE":0,"TOWNNAME":"安定區","LI":"中沙里","LIN":"5鄰","STREET":" ","SECT":" ","MAREA":"沙崙","LANE":" ","ALLEY":" ","HOUSE_NO":"５５之４號","E_COORD97":169104.61070600001,"N_COORD97":2552816.6431900002,"ADDRESS":"沙崙５５之４號","OBJECTID":658097},"geometry":{"x":169104.61070599966,"y":2552816.6431910004}},{"attributes":{"ID":658125,"DIS_CODE":0,"TOWNNAME":"安定區","LI":"中沙里","LIN":"5鄰","STREET":" ","SECT":" ","MAREA":"沙崙","LANE":" ","ALLEY":" ","HOUSE_NO":"５５之４號二樓","E_COORD97":169104.50478399999,"N_COORD97":2552816.53736,"ADDRESS":"沙崙５５之４號二樓","OBJECTID":658098},"geometry":{"x":169104.50478400011,"y":2552816.5373580046}},{"attributes":{"ID":658126,"DIS_CODE":0,"TOWNNAME":"安定區","LI":"中沙里","LIN":"5鄰","STREET":" ","SECT":" ","MAREA":"沙崙","LANE":" ","ALLEY":" ","HOUSE_NO":"５５之４號三樓","E_COORD97":169104.61070600001,"N_COORD97":2552816.2198600001,"ADDRESS":"沙崙５５之４號三樓","OBJECTID":658099},"geometry":{"x":169104.61070599966,"y":2552816.2198580019}},{"attributes":{"ID":658127,"DIS_CODE":0,"TOWNNAME":"安南區","LI":"梅花里","LIN":"1鄰","STREET":"北安路","SECT":"二段","MAREA":" ","LANE":" ","ALLEY":" ","HOUSE_NO":"３５５之３６號","E_COORD97":168281.76509299999,"N_COORD97":2548515.24963,"ADDRESS":"北安路二段３５５之３６號","OBJECTID":658100},"geometry":{"x":168281.76509299967,"y":2548515.249625003}},{"attributes":{"ID":658128,"DIS_CODE":0,"TOWNNAME":"安定區","LI":"蘇林里","LIN":"1鄰","STREET":" ","SECT":" ","MAREA":"蘇厝","LANE":" ","ALLEY":" ","HOUSE_NO":"１之４８號","E_COORD97":174471.297082,"N_COORD97":2558728.0115700001,"ADDRESS":"蘇厝１之４８號","OBJECTID":658101},"geometry":{"x":174471.29708200134,"y":2558728.0115730017}},{"attributes":{"ID":658129,"DIS_CODE":0,"TOWNNAME":"安定區","LI":"新吉里","LIN":"3鄰","STREET":" ","SECT":" ","MAREA":"新吉","LANE":" ","ALLEY":" ","HOUSE_NO":"１９之４１號","E_COORD97":169988.139558,"N_COORD97":2554531.35176,"ADDRESS":"新吉１９之４１號","OBJECTID":658102},"geometry":{"x":169988.13955800049,"y":2554531.3517560009}},{"attributes":{"ID":658130,"DIS_CODE":0,"TOWNNAME":"安定區","LI":"港口里","LIN":"14鄰","STREET":" ","SECT":" ","MAREA":"港口","LANE":" ","ALLEY":" ","HOUSE_NO":"３３３之３１號","E_COORD97":170061.655512,"N_COORD97":2554958.7823600001,"ADDRESS":"港口３３３之３１號","OBJECTID":658103},"geometry":{"x":170061.65551200043,"y":2554958.7823569998}},{"attributes":{"ID":658131,"DIS_CODE":0,"TOWNNAME":"安定區","LI":"安加里","LIN":"9鄰","STREET":" ","SECT":" ","MAREA":"安定","LANE":" ","ALLEY":" ","HOUSE_NO":"２５６之８２號","E_COORD97":172298.83850300001,"N_COORD97":2557360.61564,"ADDRESS":"安定２５６之８２號","OBJECTID":658104},"geometry":{"x":172298.83850300219,"y":2557360.615643004}},{"attributes":{"ID":658132,"DIS_CODE":0,"TOWNNAME":"安定區","LI":"海寮里","LIN":"1鄰","STREET":" ","SECT":" ","MAREA":"海寮","LANE":" ","ALLEY":" ","HOUSE_NO":"５之５７號","E_COORD97":168681.17135399999,"N_COORD97":2554793.10036,"ADDRESS":"海寮５之５７號","OBJECTID":658105},"geometry":{"x":168681.17135399953,"y":2554793.1003629994}},{"attributes":{"ID":658133,"DIS_CODE":0,"TOWNNAME":"安定區","LI":"安定里","LIN":"2鄰","STREET":" ","SECT":" ","MAREA":"領寄","LANE":" ","ALLEY":" ","HOUSE_NO":"１４之５號","E_COORD97":173039.49249999999,"N_COORD97":2557038.79874,"ADDRESS":"領寄１４之５號","OBJECTID":658106},"geometry":{"x":173039.4924999997,"y":2557038.7987430003}},{"attributes":{"ID":658134,"DIS_CODE":0,"TOWNNAME":"安定區","LI":"蘇林里","LIN":"8鄰","STREET":" ","SECT":" ","MAREA":"蘇厝","LANE":" ","ALLEY":" ","HOUSE_NO":"９４之２號","E_COORD97":173547.86208300001,"N_COORD97":2558765.7881800001,"ADDRESS":"蘇厝９４之２號","OBJECTID":658107},"geometry":{"x":173547.86208300013,"y":2558765.788184002}},{"attributes":{"ID":658135,"DIS_CODE":0,"TOWNNAME":"安定區","LI":"港口里","LIN":"22鄰","STREET":" ","SECT":" ","MAREA":"港口","LANE":" ","ALLEY":" ","HOUSE_NO":"４２０之１號","E_COORD97":171747.408322,"N_COORD97":2555155.1800899999,"ADDRESS":"港口４２０之１號","OBJECTID":658108},"geometry":{"x":171747.40832200088,"y":2555155.1800919995}},{"attributes":{"ID":658136,"DIS_CODE":0,"TOWNNAME":"安定區","LI":"安定里","LIN":"1鄰","STREET":" ","SECT":" ","MAREA":"領寄","LANE":" ","ALLEY":" ","HOUSE_NO":"１之７號","E_COORD97":173688.00912500001,"N_COORD97":2556926.7233000002,"ADDRESS":"領寄１之７號","OBJECTID":658109},"geometry":{"x":173688.0091250008,"y":2556926.723302003}},{"attributes":{"ID":658137,"DIS_CODE":0,"TOWNNAME":"善化區","LI":"牛庄里","LIN":"13鄰","STREET":" ","SECT":" ","MAREA":"牛庄","LANE":" ","ALLEY":" ","HOUSE_NO":"１號之２１","E_COORD97":180052.84314000001,"N_COORD97":2559427.7549000001,"ADDRESS":"牛庄１號之２１","OBJECTID":658110},"geometry":{"x":180052.84314000048,"y":2559427.754900001}},{"attributes":{"ID":658138,"DIS_CODE":0,"TOWNNAME":"安定區","LI":"新吉里","LIN":"19鄰","STREET":" ","SECT":" ","MAREA":"公親寮","LANE":" ","ALLEY":" ","HOUSE_NO":"１之２１號","E_COORD97":167753.82324999999,"N_COORD97":2553456.8735099998,"ADDRESS":"公親寮１之２１號","OBJECTID":658111},"geometry":{"x":167753.82325000223,"y":2553456.8735090028}},{"attributes":{"ID":658139,"DIS_CODE":0,"TOWNNAME":"安定區","LI":"安定里","LIN":"7鄰","STREET":" ","SECT":" ","MAREA":"安定","LANE":" ","ALLEY":" ","HOUSE_NO":"４７之２１號","E_COORD97":171987.90469900001,"N_COORD97":2557887.98049,"ADDRESS":"安定４７之２１號","OBJECTID":658112},"geometry":{"x":171987.90469900053,"y":2557887.980491003}},{"attributes":{"ID":658140,"DIS_CODE":0,"TOWNNAME":"安定區","LI":"安定里","LIN":"7鄰","STREET":" ","SECT":" ","MAREA":"安定","LANE":" ","ALLEY":" ","HOUSE_NO":"４７之２１號","E_COORD97":171987.90469900001,"N_COORD97":2557887.98049,"ADDRESS":"安定４７之２１號","OBJECTID":658113},"geometry":{"x":171987.90469900053,"y":2557887.980491003}},{"attributes":{"ID":658141,"DIS_CODE":0,"TOWNNAME":"善化區","LI":"牛庄里","LIN":"14鄰","STREET":" ","SECT":" ","MAREA":"牛庄","LANE":" ","ALLEY":" ","HOUSE_NO":"１４５號之１","E_COORD97":179917.8836,"N_COORD97":2559703.0272499998,"ADDRESS":"牛庄１４５號之１","OBJECTID":658114},"geometry":{"x":179917.88360000029,"y":2559703.0272499975}},{"attributes":{"ID":658142,"DIS_CODE":0,"TOWNNAME":"新營區","LI":"忠政里","LIN":"27鄰","STREET":"中正路","SECT":" ","MAREA":" ","LANE":"３９巷","ALLEY":" ","HOUSE_NO":"１０９之１號","E_COORD97":179888.89173800001,"N_COORD97":2579354.1693199999,"ADDRESS":"中正路３９巷１０９之１號","OBJECTID":658115},"geometry":{"x":179888.89173800219,"y":2579354.1693169978}},{"attributes":{"ID":658143,"DIS_CODE":0,"TOWNNAME":"安定區","LI":"保西里","LIN":"11鄰","STREET":" ","SECT":" ","MAREA":"安定","LANE":" ","ALLEY":" ","HOUSE_NO":"４３３之２號","E_COORD97":171671.51505799999,"N_COORD97":2557907.4538099999,"ADDRESS":"安定４３３之２號","OBJECTID":658116},"geometry":{"x":171671.51505800057,"y":2557907.4538140018}},{"attributes":{"ID":658144,"DIS_CODE":0,"TOWNNAME":"安定區","LI":"保西里","LIN":"11鄰","STREET":" ","SECT":" ","MAREA":"安定","LANE":" ","ALLEY":" ","HOUSE_NO":"４３３號","E_COORD97":171685.70863499999,"N_COORD97":2557906.3690200001,"ADDRESS":"安定４３３號","OBJECTID":658117},"geometry":{"x":171685.70863500051,"y":2557906.369022999}},{"attributes":{"ID":658145,"DIS_CODE":0,"TOWNNAME":"善化區","LI":"什乃里","LIN":"1鄰","STREET":" ","SECT":" ","MAREA":"什乃","LANE":" ","ALLEY":" ","HOUSE_NO":"１５號之１","E_COORD97":176192.77556000001,"N_COORD97":2560532.6546999998,"ADDRESS":"什乃１５號之１","OBJECTID":658118},"geometry":{"x":176192.77555999998,"y":2560532.6546999998}},{"attributes":{"ID":658146,"DIS_CODE":0,"TOWNNAME":"善化區","LI":"什乃里","LIN":"2鄰","STREET":" ","SECT":" ","MAREA":"什乃","LANE":" ","ALLEY":" ","HOUSE_NO":"１８號之３","E_COORD97":176292.16284,"N_COORD97":2560639.9696399998,"ADDRESS":"什乃１８號之３","OBJECTID":658119},"geometry":{"x":176292.16284000222,"y":2560639.9696399998}},{"attributes":{"ID":658147,"DIS_CODE":0,"TOWNNAME":"善化區","LI":"田寮里","LIN":"14鄰","STREET":" ","SECT":" ","MAREA":"六分寮","LANE":" ","ALLEY":" ","HOUSE_NO":"１５０號","E_COORD97":178674.17469000001,"N_COORD97":2561473.4934999999,"ADDRESS":"六分寮１５０號","OBJECTID":658120},"geometry":{"x":178674.17469000071,"y":2561473.4934999999}},{"attributes":{"ID":658148,"DIS_CODE":0,"TOWNNAME":"善化區","LI":"什乃里","LIN":"6鄰","STREET":" ","SECT":" ","MAREA":"什乃","LANE":" ","ALLEY":" ","HOUSE_NO":"５４號","E_COORD97":176136.830491,"N_COORD97":2560444.17808,"ADDRESS":"什乃５４號","OBJECTID":658121},"geometry":{"x":176136.83049099986,"y":2560444.1780850012}},{"attributes":{"ID":658149,"DIS_CODE":0,"TOWNNAME":"善化區","LI":"什乃里","LIN":"7鄰","STREET":" ","SECT":" ","MAREA":"什乃","LANE":" ","ALLEY":" ","HOUSE_NO":"５９號之６","E_COORD97":175986.37213999999,"N_COORD97":2560369.6714499998,"ADDRESS":"什乃５９號之６","OBJECTID":658122},"geometry":{"x":175986.37213999964,"y":2560369.6714500003}},{"attributes":{"ID":658150,"DIS_CODE":0,"TOWNNAME":"麻豆區","LI":"安正里","LIN":"7鄰","STREET":" ","SECT":" ","MAREA":"社子","LANE":" ","ALLEY":" ","HOUSE_NO":"９號之９","E_COORD97":171743.77776600001,"N_COORD97":2562278.1365399999,"ADDRESS":"社子９號之９","OBJECTID":658123},"geometry":{"x":171743.77776600141,"y":2562278.136543002}},{"attributes":{"ID":658151,"DIS_CODE":0,"TOWNNAME":"麻豆區","LI":"安正里","LIN":"7鄰","STREET":" ","SECT":" ","MAREA":"社子","LANE":" ","ALLEY":" ","HOUSE_NO":"９號之１６","E_COORD97":171609.20953600001,"N_COORD97":2562289.7782000001,"ADDRESS":"社子９號之１６","OBJECTID":658124},"geometry":{"x":171609.20953600109,"y":2562289.7782030012}},{"attributes":{"ID":658152,"DIS_CODE":0,"TOWNNAME":"善化區","LI":"什乃里","LIN":"10鄰","STREET":" ","SECT":" ","MAREA":"什乃","LANE":" ","ALLEY":" ","HOUSE_NO":"１３６號","E_COORD97":176652.62714500001,"N_COORD97":2560105.0882700002,"ADDRESS":"什乃１３６號","OBJECTID":658125},"geometry":{"x":176652.6271449998,"y":2560105.0882680006}},{"attributes":{"ID":658153,"DIS_CODE":0,"TOWNNAME":"善化區","LI":"什乃里","LIN":"10鄰","STREET":" ","SECT":" ","MAREA":"什乃","LANE":" ","ALLEY":" ","HOUSE_NO":"８７號","E_COORD97":176068.59445,"N_COORD97":2560331.78315,"ADDRESS":"什乃８７號","OBJECTID":658126},"geometry":{"x":176068.59444999974,"y":2560331.7831460033}},{"attributes":{"ID":658154,"DIS_CODE":0,"TOWNNAME":"東山區","LI":"東原里","LIN":"22鄰","STREET":" ","SECT":" ","MAREA":"瓦厝子","LANE":" ","ALLEY":" ","HOUSE_NO":"６５號之１","E_COORD97":194982.72762799999,"N_COORD97":2577553.5874399999,"ADDRESS":"瓦厝子６５號之１","OBJECTID":658127},"geometry":{"x":194982.72762800008,"y":2577553.5874370039}},{"attributes":{"ID":658155,"DIS_CODE":0,"TOWNNAME":"中西區","LI":"協和里","LIN":"10鄰","STREET":"中和街","SECT":" ","MAREA":" ","LANE":" ","ALLEY":" ","HOUSE_NO":"１３６號","E_COORD97":167182.70164099999,"N_COORD97":2544675.7548000002,"ADDRESS":"中和街１３６號","OBJECTID":658128},"geometry":{"x":167182.70164100174,"y":2544675.7547990009}},{"attributes":{"ID":658156,"DIS_CODE":0,"TOWNNAME":"善化區","LI":"什乃里","LIN":"10鄰","STREET":" ","SECT":" ","MAREA":"什乃","LANE":" ","ALLEY":" ","HOUSE_NO":"９７號之１","E_COORD97":176345.35303999999,"N_COORD97":2560206.8998799999,"ADDRESS":"什乃９７號之１","OBJECTID":658129},"geometry":{"x":176345.35304000042,"y":2560206.8998800032}},{"attributes":{"ID":658157,"DIS_CODE":0,"TOWNNAME":"善化區","LI":"什乃里","LIN":"3鄰","STREET":" ","SECT":" ","MAREA":"什乃","LANE":" ","ALLEY":" ","HOUSE_NO":"２７號","E_COORD97":176156.75032799999,"N_COORD97":2560606.5263299998,"ADDRESS":"什乃２７號","OBJECTID":658130},"geometry":{"x":176156.7503279997,"y":2560606.5263309982}},{"attributes":{"ID":658158,"DIS_CODE":0,"TOWNNAME":"善化區","LI":"什乃里","LIN":"2鄰","STREET":" ","SECT":" ","MAREA":"什乃","LANE":" ","ALLEY":" ","HOUSE_NO":"１９號","E_COORD97":176173.27955599999,"N_COORD97":2560643.3563100002,"ADDRESS":"什乃１９號","OBJECTID":658131},"geometry":{"x":176173.27955600061,"y":2560643.3563110027}},{"attributes":{"ID":658159,"DIS_CODE":0,"TOWNNAME":"善化區","LI":"什乃里","LIN":"3鄰","STREET":" ","SECT":" ","MAREA":"什乃","LANE":" ","ALLEY":" ","HOUSE_NO":"２８號","E_COORD97":176154.419284,"N_COORD97":2560602.2930000001,"ADDRESS":"什乃２８號","OBJECTID":658132},"geometry":{"x":176154.41928400192,"y":2560602.2930000015}},{"attributes":{"ID":658160,"DIS_CODE":0,"TOWNNAME":"中西區","LI":"民主里","LIN":"1鄰","STREET":"海安路","SECT":"一段","MAREA":" ","LANE":" ","ALLEY":" ","HOUSE_NO":"１５１號","E_COORD97":167506.23906299999,"N_COORD97":2543550.4953800002,"ADDRESS":"海安路一段１５１號","OBJECTID":658133},"geometry":{"x":167506.23906300031,"y":2543550.4953770004}},{"attributes":{"ID":658161,"DIS_CODE":0,"TOWNNAME":"善化區","LI":"什乃里","LIN":"3鄰","STREET":" ","SECT":" ","MAREA":"什乃","LANE":" ","ALLEY":" ","HOUSE_NO":"２６號之１","E_COORD97":176150.81675999999,"N_COORD97":2560597.8480000002,"ADDRESS":"什乃２６號之１","OBJECTID":658134},"geometry":{"x":176150.81676000077,"y":2560597.848000003}},{"attributes":{"ID":658162,"DIS_CODE":0,"TOWNNAME":"善化區","LI":"什乃里","LIN":"6鄰","STREET":" ","SECT":" ","MAREA":"什乃","LANE":" ","ALLEY":" ","HOUSE_NO":"５２號","E_COORD97":176136.194751,"N_COORD97":2560434.0180899999,"ADDRESS":"什乃５２號","OBJECTID":658135},"geometry":{"x":176136.1947509991,"y":2560434.0180900041}},{"attributes":{"ID":658163,"DIS_CODE":0,"TOWNNAME":"中西區","LI":"赤嵌里","LIN":"14鄰","STREET":"民族路","SECT":"二段","MAREA":" ","LANE":" ","ALLEY":" ","HOUSE_NO":"１２８號","E_COORD97":168515.03025000001,"N_COORD97":2544072.4650900001,"ADDRESS":"民族路二段１２８號","OBJECTID":658136},"geometry":{"x":168515.03025000077,"y":2544072.4650950003}},{"attributes":{"ID":658164,"DIS_CODE":0,"TOWNNAME":"中西區","LI":"赤嵌里","LIN":"14鄰","STREET":"民族路","SECT":"二段","MAREA":" ","LANE":" ","ALLEY":" ","HOUSE_NO":"１２８號二樓","E_COORD97":168515.03025000001,"N_COORD97":2544072.4650900001,"ADDRESS":"民族路二段１２８號二樓","OBJECTID":658137},"geometry":{"x":168515.03025000077,"y":2544072.4650950003}},{"attributes":{"ID":658165,"DIS_CODE":0,"TOWNNAME":"善化區","LI":"什乃里","LIN":"6鄰","STREET":" ","SECT":" ","MAREA":"什乃","LANE":" ","ALLEY":" ","HOUSE_NO":"５３號","E_COORD97":176134.92327200001,"N_COORD97":2560431.90142,"ADDRESS":"什乃５３號","OBJECTID":658138},"geometry":{"x":176134.92327200063,"y":2560431.9014250021}},{"attributes":{"ID":658166,"DIS_CODE":0,"TOWNNAME":"善化區","LI":"什乃里","LIN":"8鄰","STREET":" ","SECT":" ","MAREA":"什乃","LANE":" ","ALLEY":" ","HOUSE_NO":"６８號","E_COORD97":176177.30590599999,"N_COORD97":2560427.6680899998,"ADDRESS":"什乃６８號","OBJECTID":658139},"geometry":{"x":176177.30590599962,"y":2560427.6680939998}},{"attributes":{"ID":658167,"DIS_CODE":0,"TOWNNAME":"善化區","LI":"什乃里","LIN":"9鄰","STREET":" ","SECT":" ","MAREA":"什乃","LANE":" ","ALLEY":" ","HOUSE_NO":"７７號之１","E_COORD97":176154.84310999999,"N_COORD97":2560306.5948200002,"ADDRESS":"什乃７７號之１","OBJECTID":658140},"geometry":{"x":176154.84310999978,"y":2560306.5948199984}},{"attributes":{"ID":658168,"DIS_CODE":0,"TOWNNAME":"善化區","LI":"什乃里","LIN":"9鄰","STREET":" ","SECT":" ","MAREA":"什乃","LANE":" ","ALLEY":" ","HOUSE_NO":"７５號","E_COORD97":176105.891168,"N_COORD97":2560370.7297899998,"ADDRESS":"什乃７５號","OBJECTID":658141},"geometry":{"x":176105.89116800111,"y":2560370.7297910023}},{"attributes":{"ID":658169,"DIS_CODE":0,"TOWNNAME":"中西區","LI":"藥王里","LIN":"8鄰","STREET":"臨安路","SECT":"一段","MAREA":" ","LANE":" ","ALLEY":" ","HOUSE_NO":"７２號","E_COORD97":167045.08646200001,"N_COORD97":2544407.95658,"ADDRESS":"臨安路一段７２號","OBJECTID":658142},"geometry":{"x":167045.08646200132,"y":2544407.95658}},{"attributes":{"ID":658170,"DIS_CODE":0,"TOWNNAME":"中西區","LI":"藥王里","LIN":"8鄰","STREET":"臨安路","SECT":"一段","MAREA":" ","LANE":" ","ALLEY":" ","HOUSE_NO":"５６號","E_COORD97":167015.40989800001,"N_COORD97":2544382.7682599998,"ADDRESS":"臨安路一段５６號","OBJECTID":658143},"geometry":{"x":167015.40989800077,"y":2544382.7682610005}},{"attributes":{"ID":658171,"DIS_CODE":0,"TOWNNAME":"中西區","LI":"藥王里","LIN":"8鄰","STREET":"臨安路","SECT":"一段","MAREA":" ","LANE":" ","ALLEY":" ","HOUSE_NO":"５８號","E_COORD97":167020.28533399999,"N_COORD97":2544387.2132600001,"ADDRESS":"臨安路一段５８號","OBJECTID":658144},"geometry":{"x":167020.28533400223,"y":2544387.2132580001}},{"attributes":{"ID":658172,"DIS_CODE":0,"TOWNNAME":"中西區","LI":"藥王里","LIN":"8鄰","STREET":"臨安路","SECT":"一段","MAREA":" ","LANE":" ","ALLEY":" ","HOUSE_NO":"６０號","E_COORD97":167024.948794,"N_COORD97":2544391.2349200002,"ADDRESS":"臨安路一段６０號","OBJECTID":658145},"geometry":{"x":167024.94879400078,"y":2544391.2349230014}},{"attributes":{"ID":658173,"DIS_CODE":0,"TOWNNAME":"善化區","LI":"什乃里","LIN":"10鄰","STREET":" ","SECT":" ","MAREA":"什乃","LANE":" ","ALLEY":" ","HOUSE_NO":"１０１號之５","E_COORD97":176263.76647,"N_COORD97":2560193.1415499998,"ADDRESS":"什乃１０１號之５","OBJECTID":658146},"geometry":{"x":176263.76647000015,"y":2560193.1415500008}},{"attributes":{"ID":658174,"DIS_CODE":0,"TOWNNAME":"中西區","LI":"藥王里","LIN":"8鄰","STREET":"臨安路","SECT":"一段","MAREA":" ","LANE":" ","ALLEY":" ","HOUSE_NO":"６２號","E_COORD97":167028.764352,"N_COORD97":2544395.0449199998,"ADDRESS":"臨安路一段６２號","OBJECTID":658147},"geometry":{"x":167028.76435200032,"y":2544395.0449209996}},{"attributes":{"ID":658175,"DIS_CODE":0,"TOWNNAME":"中西區","LI":"藥王里","LIN":"8鄰","STREET":"臨安路","SECT":"一段","MAREA":" ","LANE":" ","ALLEY":" ","HOUSE_NO":"６６號","E_COORD97":167033.85176300001,"N_COORD97":2544399.4899200001,"ADDRESS":"臨安路一段６６號","OBJECTID":658148},"geometry":{"x":167033.85176300071,"y":2544399.4899180047}},{"attributes":{"ID":658176,"DIS_CODE":0,"TOWNNAME":"中西區","LI":"藥王里","LIN":"8鄰","STREET":"臨安路","SECT":"一段","MAREA":" ","LANE":" ","ALLEY":" ","HOUSE_NO":"６８號","E_COORD97":167038.72719800001,"N_COORD97":2544403.5115800002,"ADDRESS":"臨安路一段６８號","OBJECTID":658149},"geometry":{"x":167038.72719800007,"y":2544403.5115830004}},{"attributes":{"ID":658177,"DIS_CODE":0,"TOWNNAME":"中西區","LI":"藥王里","LIN":"8鄰","STREET":"臨安路","SECT":"一段","MAREA":" ","LANE":" ","ALLEY":" ","HOUSE_NO":"７０號","E_COORD97":167041.270904,"N_COORD97":2544405.6282500001,"ADDRESS":"臨安路一段７０號","OBJECTID":658150},"geometry":{"x":167041.27090399992,"y":2544405.6282480024}},{"attributes":{"ID":658178,"DIS_CODE":0,"TOWNNAME":"善化區","LI":"什乃里","LIN":"10鄰","STREET":" ","SECT":" ","MAREA":"什乃","LANE":" ","ALLEY":" ","HOUSE_NO":"９９號","E_COORD97":176182.92346600001,"N_COORD97":2560268.67423,"ADDRESS":"什乃９９號","OBJECTID":658151},"geometry":{"x":176182.92346599977,"y":2560268.6742330007}},{"attributes":{"ID":658179,"DIS_CODE":0,"TOWNNAME":"中西區","LI":"藥王里","LIN":"8鄰","STREET":"大新街","SECT":" ","MAREA":" ","LANE":"２１巷","ALLEY":" ","HOUSE_NO":"２５號","E_COORD97":167055.89721,"N_COORD97":2544396.3149199998,"ADDRESS":"大新街２１巷２５號","OBJECTID":658152},"geometry":{"x":167055.89721000101,"y":2544396.3149200007}},{"attributes":{"ID":658180,"DIS_CODE":0,"TOWNNAME":"中西區","LI":"藥王里","LIN":"8鄰","STREET":"大新街","SECT":" ","MAREA":" ","LANE":"２１巷","ALLEY":" ","HOUSE_NO":"２７號","E_COORD97":167049.32597100001,"N_COORD97":2544402.8765799999,"ADDRESS":"大新街２１巷２７號","OBJECTID":658153},"geometry":{"x":167049.3259709999,"y":2544402.8765830006}},{"attributes":{"ID":658181,"DIS_CODE":0,"TOWNNAME":"中西區","LI":"藥王里","LIN":"8鄰","STREET":"大新街","SECT":" ","MAREA":" ","LANE":"７巷","ALLEY":" ","HOUSE_NO":"３６號","E_COORD97":167032.57991,"N_COORD97":2544369.8566000001,"ADDRESS":"大新街７巷３６號","OBJECTID":658154},"geometry":{"x":167032.57990999985,"y":2544369.8566010017}},{"attributes":{"ID":658182,"DIS_CODE":0,"TOWNNAME":"中西區","LI":"藥王里","LIN":"8鄰","STREET":"大新街","SECT":" ","MAREA":" ","LANE":"７巷","ALLEY":" ","HOUSE_NO":"３８號","E_COORD97":167023.04101399999,"N_COORD97":2544374.9366000001,"ADDRESS":"大新街７巷３８號","OBJECTID":658155},"geometry":{"x":167023.04101399984,"y":2544374.936598001}},{"attributes":{"ID":658183,"DIS_CODE":0,"TOWNNAME":"善化區","LI":"什乃里","LIN":"10鄰","STREET":" ","SECT":" ","MAREA":"什乃","LANE":" ","ALLEY":" ","HOUSE_NO":"８６號之３","E_COORD97":176035.74789999999,"N_COORD97":2560355.4898000001,"ADDRESS":"什乃８６號之３","OBJECTID":658156},"geometry":{"x":176035.74789999984,"y":2560355.4898000006}},{"attributes":{"ID":658184,"DIS_CODE":0,"TOWNNAME":"麻豆區","LI":"安正里","LIN":"1鄰","STREET":" ","SECT":" ","MAREA":"前班","LANE":" ","ALLEY":" ","HOUSE_NO":"３０號之６","E_COORD97":171900.438398,"N_COORD97":2563179.2271699999,"ADDRESS":"前班３０號之６","OBJECTID":658157},"geometry":{"x":171900.43839800172,"y":2563179.2271709982}},{"attributes":{"ID":658185,"DIS_CODE":0,"TOWNNAME":"關廟區","LI":"深坑里","LIN":"1鄰","STREET":"南雄路","SECT":"一段","MAREA":" ","LANE":" ","ALLEY":" ","HOUSE_NO":"８６號","E_COORD97":182218.63876900001,"N_COORD97":2536991.90075,"ADDRESS":"南雄路一段８６號","OBJECTID":658158},"geometry":{"x":182218.63876899984,"y":2536991.9007460028}},{"attributes":{"ID":658186,"DIS_CODE":0,"TOWNNAME":"善化區","LI":"什乃里","LIN":"10鄰","STREET":" ","SECT":" ","MAREA":"什乃","LANE":" ","ALLEY":" ","HOUSE_NO":"１００號之２","E_COORD97":176240.48902000001,"N_COORD97":2560156.5561899999,"ADDRESS":"什乃１００號之２","OBJECTID":658159},"geometry":{"x":176240.48902000021,"y":2560156.556189999}},{"attributes":{"ID":658187,"DIS_CODE":0,"TOWNNAME":"善化區","LI":"什乃里","LIN":"1鄰","STREET":" ","SECT":" ","MAREA":"什乃","LANE":" ","ALLEY":" ","HOUSE_NO":"１號之９","E_COORD97":176431.84661000001,"N_COORD97":2560238.6828100001,"ADDRESS":"什乃１號之９","OBJECTID":658160},"geometry":{"x":176431.84661000036,"y":2560238.6828100029}},{"attributes":{"ID":658188,"DIS_CODE":0,"TOWNNAME":"善化區","LI":"什乃里","LIN":"10鄰","STREET":" ","SECT":" ","MAREA":"什乃","LANE":" ","ALLEY":" ","HOUSE_NO":"１２０號之１","E_COORD97":176777.68891,"N_COORD97":2560031.2495900001,"ADDRESS":"什乃１２０號之１","OBJECTID":658161},"geometry":{"x":176777.68891000096,"y":2560031.249590002}},{"attributes":{"ID":658189,"DIS_CODE":0,"TOWNNAME":"善化區","LI":"什乃里","LIN":"10鄰","STREET":" ","SECT":" ","MAREA":"什乃","LANE":" ","ALLEY":" ","HOUSE_NO":"１３２號之２","E_COORD97":176895.72454,"N_COORD97":2560107.23789,"ADDRESS":"什乃１３２號之２","OBJECTID":658162},"geometry":{"x":176895.72454000078,"y":2560107.2378900014}},{"attributes":{"ID":658190,"DIS_CODE":0,"TOWNNAME":"善化區","LI":"什乃里","LIN":"2鄰","STREET":" ","SECT":" ","MAREA":"什乃","LANE":" ","ALLEY":" ","HOUSE_NO":"１８號之２６","E_COORD97":176326.73767999999,"N_COORD97":2560945.8607700001,"ADDRESS":"什乃１８號之２６","OBJECTID":658163},"geometry":{"x":176326.73768000025,"y":2560945.8607700001}},{"attributes":{"ID":658191,"DIS_CODE":0,"TOWNNAME":"麻豆區","LI":"安正里","LIN":"2鄰","STREET":" ","SECT":" ","MAREA":"前班","LANE":" ","ALLEY":" ","HOUSE_NO":"２８號之１２","E_COORD97":172296.778823,"N_COORD97":2563264.5022800001,"ADDRESS":"前班２８號之１２","OBJECTID":658164},"geometry":{"x":172296.77882300131,"y":2563264.5022840016}},{"attributes":{"ID":658192,"DIS_CODE":0,"TOWNNAME":"中西區","LI":"三合里","LIN":"3鄰","STREET":"海安路","SECT":"二段","MAREA":" ","LANE":" ","ALLEY":" ","HOUSE_NO":"３４５號","E_COORD97":167750.11031600001,"N_COORD97":2544350.8205400002,"ADDRESS":"海安路二段３４５號","OBJECTID":658165},"geometry":{"x":167750.11031599995,"y":2544350.8205390014}},{"attributes":{"ID":658193,"DIS_CODE":0,"TOWNNAME":"麻豆區","LI":"安正里","LIN":"2鄰","STREET":" ","SECT":" ","MAREA":"前班","LANE":" ","ALLEY":" ","HOUSE_NO":"３６號之６","E_COORD97":171521.47509200001,"N_COORD97":2562451.2793899998,"ADDRESS":"前班３６號之６","OBJECTID":658166},"geometry":{"x":171521.47509200033,"y":2562451.2793900017}},{"attributes":{"ID":658194,"DIS_CODE":0,"TOWNNAME":"善化區","LI":"六分里","LIN":"1鄰","STREET":" ","SECT":" ","MAREA":"六分寮","LANE":" ","ALLEY":" ","HOUSE_NO":"２號之４","E_COORD97":178269.06270000001,"N_COORD97":2561192.2545599998,"ADDRESS":"六分寮２號之４","OBJECTID":658167},"geometry":{"x":178269.06269999966,"y":2561192.2545599993}},{"attributes":{"ID":658195,"DIS_CODE":0,"TOWNNAME":"善化區","LI":"六分里","LIN":"2鄰","STREET":" ","SECT":" ","MAREA":"六分寮","LANE":" ","ALLEY":" ","HOUSE_NO":"４０５號","E_COORD97":178149.11984599999,"N_COORD97":2561327.9328299998,"ADDRESS":"六分寮４０５號","OBJECTID":658168},"geometry":{"x":178149.11984600034,"y":2561327.9328250028}},{"attributes":{"ID":658196,"DIS_CODE":0,"TOWNNAME":"善化區","LI":"六分里","LIN":"2鄰","STREET":" ","SECT":" ","MAREA":"六分寮","LANE":" ","ALLEY":" ","HOUSE_NO":"４０６號","E_COORD97":178145.94114800001,"N_COORD97":2561337.4578200001,"ADDRESS":"六分寮４０６號","OBJECTID":658169},"geometry":{"x":178145.94114799891,"y":2561337.4578200001}},{"attributes":{"ID":658197,"DIS_CODE":0,"TOWNNAME":"善化區","LI":"六分里","LIN":"2鄰","STREET":" ","SECT":" ","MAREA":"六分寮","LANE":" ","ALLEY":" ","HOUSE_NO":"４號之２","E_COORD97":178257.83129999999,"N_COORD97":2561287.2928399998,"ADDRESS":"六分寮４號之２","OBJECTID":658170},"geometry":{"x":178257.83130000159,"y":2561287.2928400002}},{"attributes":{"ID":658198,"DIS_CODE":0,"TOWNNAME":"善化區","LI":"六分里","LIN":"3鄰","STREET":" ","SECT":" ","MAREA":"東勢宅","LANE":" ","ALLEY":" ","HOUSE_NO":"１１號之１","E_COORD97":177853.28906000001,"N_COORD97":2560985.8796700002,"ADDRESS":"東勢宅１１號之１","OBJECTID":658171},"geometry":{"x":177853.28906000126,"y":2560985.8796699997}},{"attributes":{"ID":658199,"DIS_CODE":0,"TOWNNAME":"善化區","LI":"六分里","LIN":"8鄰","STREET":" ","SECT":" ","MAREA":"溪底寮","LANE":" ","ALLEY":" ","HOUSE_NO":"１６號","E_COORD97":177828.071394,"N_COORD97":2561937.9558299999,"ADDRESS":"溪底寮１６號","OBJECTID":658172},"geometry":{"x":177828.0713940002,"y":2561937.9558290001}},{"attributes":{"ID":658200,"DIS_CODE":0,"TOWNNAME":"永康區","LI":"龍潭里","LIN":"21鄰","STREET":"龍潭街","SECT":" ","MAREA":" ","LANE":" ","ALLEY":" ","HOUSE_NO":"２９８號","E_COORD97":174928.658914,"N_COORD97":2548493.5512799998,"ADDRESS":"龍潭街２９８號","OBJECTID":658173},"geometry":{"x":174928.6589139998,"y":2548493.5512819998}},{"attributes":{"ID":658201,"DIS_CODE":0,"TOWNNAME":"善化區","LI":"六分里","LIN":"9鄰","STREET":" ","SECT":" ","MAREA":"溪底寮","LANE":" ","ALLEY":" ","HOUSE_NO":"１８號之２","E_COORD97":177543.04818000001,"N_COORD97":2561832.5458800001,"ADDRESS":"溪底寮１８號之２","OBJECTID":658174},"geometry":{"x":177543.04818000179,"y":2561832.5458800048}},{"attributes":{"ID":658202,"DIS_CODE":0,"TOWNNAME":"永康區","LI":"龍潭里","LIN":"21鄰","STREET":"龍潭街","SECT":" ","MAREA":" ","LANE":" ","ALLEY":" ","HOUSE_NO":"３００號","E_COORD97":174922.08842399999,"N_COORD97":2548479.36962,"ADDRESS":"龍潭街３００號","OBJECTID":658175},"geometry":{"x":174922.08842399996,"y":2548479.3696229998}},{"attributes":{"ID":658203,"DIS_CODE":0,"TOWNNAME":"善化區","LI":"六分里","LIN":"1鄰","STREET":" ","SECT":" ","MAREA":"六分寮","LANE":" ","ALLEY":" ","HOUSE_NO":"１２號","E_COORD97":178293.22080099999,"N_COORD97":2561320.94783,"ADDRESS":"六分寮１２號","OBJECTID":658176},"geometry":{"x":178293.22080099955,"y":2561320.9478290025}},{"attributes":{"ID":658204,"DIS_CODE":0,"TOWNNAME":"善化區","LI":"六分里","LIN":"2鄰","STREET":" ","SECT":" ","MAREA":"六分寮","LANE":" ","ALLEY":" ","HOUSE_NO":"８號之１","E_COORD97":178222.4418,"N_COORD97":2561268.24285,"ADDRESS":"六分寮８號之１","OBJECTID":658177},"geometry":{"x":178222.44180000015,"y":2561268.24285}},{"attributes":{"ID":658205,"DIS_CODE":0,"TOWNNAME":"善化區","LI":"六分里","LIN":"3鄰","STREET":" ","SECT":" ","MAREA":"東勢宅","LANE":" ","ALLEY":" ","HOUSE_NO":"１號","E_COORD97":178048.673003,"N_COORD97":2561225.4862099998,"ADDRESS":"東勢宅１號","OBJECTID":658178},"geometry":{"x":178048.67300300207,"y":2561225.4862139989}},{"attributes":{"ID":658206,"DIS_CODE":0,"TOWNNAME":"官田區","LI":"南\u25A0里","LIN":"13鄰","STREET":" ","SECT":" ","MAREA":"三結義","LANE":" ","ALLEY":" ","HOUSE_NO":"４１號之８","E_COORD97":179614.68177,"N_COORD97":2567504.4974199999,"ADDRESS":"三結義４１號之８","OBJECTID":658179},"geometry":{"x":179614.68177000154,"y":2567504.4974200018}},{"attributes":{"ID":658207,"DIS_CODE":0,"TOWNNAME":"善化區","LI":"六分里","LIN":"3鄰","STREET":" ","SECT":" ","MAREA":"東勢宅","LANE":" ","ALLEY":" ","HOUSE_NO":"２號之１０","E_COORD97":177979.80121999999,"N_COORD97":2561159.2345799999,"ADDRESS":"東勢宅２號之１０","OBJECTID":658180},"geometry":{"x":177979.80122000072,"y":2561159.234579999}},{"attributes":{"ID":658208,"DIS_CODE":0,"TOWNNAME":"官田區","LI":"南\u25A0里","LIN":"13鄰","STREET":" ","SECT":" ","MAREA":"三結義","LANE":" ","ALLEY":" ","HOUSE_NO":"４１號之７","E_COORD97":179644.62106,"N_COORD97":2567530.3576099998,"ADDRESS":"三結義４１號之７","OBJECTID":658181},"geometry":{"x":179644.6210599998,"y":2567530.3576100022}},{"attributes":{"ID":658209,"DIS_CODE":0,"TOWNNAME":"西港區","LI":"營西里","LIN":"6鄰","STREET":" ","SECT":" ","MAREA":"後營","LANE":" ","ALLEY":" ","HOUSE_NO":"５５號之１","E_COORD97":169691.68385999999,"N_COORD97":2560317.9767999998,"ADDRESS":"後營５５號之１","OBJECTID":658182},"geometry":{"x":169691.68386000115,"y":2560317.976800004}},{"attributes":{"ID":658210,"DIS_CODE":0,"TOWNNAME":"西港區","LI":"營西里","LIN":"8鄰","STREET":" ","SECT":" ","MAREA":"後營","LANE":" ","ALLEY":" ","HOUSE_NO":"７２之５號","E_COORD97":169551.87002999999,"N_COORD97":2560519.9067000002,"ADDRESS":"後營７２之５號","OBJECTID":658183},"geometry":{"x":169551.87003000081,"y":2560519.9066979997}},{"attributes":{"ID":658211,"DIS_CODE":0,"TOWNNAME":"西港區","LI":"營西里","LIN":"1鄰","STREET":" ","SECT":" ","MAREA":"後營","LANE":" ","ALLEY":" ","HOUSE_NO":"４８５號之３","E_COORD97":169404.38733,"N_COORD97":2559085.77985,"ADDRESS":"後營４８５號之３","OBJECTID":658184},"geometry":{"x":169404.38733000029,"y":2559085.7798500024}},{"attributes":{"ID":658212,"DIS_CODE":0,"TOWNNAME":"官田區","LI":"南\u25A0里","LIN":"13鄰","STREET":" ","SECT":" ","MAREA":"三結義","LANE":" ","ALLEY":" ","HOUSE_NO":"４１號之１１","E_COORD97":179542.413458,"N_COORD97":2567728.3374000001,"ADDRESS":"三結義４１號之１１","OBJECTID":658185},"geometry":{"x":179542.4134580018,"y":2567728.3373970017}},{"attributes":{"ID":658213,"DIS_CODE":0,"TOWNNAME":"善化區","LI":"胡家里","LIN":"18鄰","STREET":" ","SECT":" ","MAREA":"胡厝寮","LANE":" ","ALLEY":" ","HOUSE_NO":"１２０號之１","E_COORD97":175267.96398999999,"N_COORD97":2560653.35775,"ADDRESS":"胡厝寮１２０號之１","OBJECTID":658186},"geometry":{"x":175267.96399000101,"y":2560653.3577500004}},{"attributes":{"ID":658214,"DIS_CODE":0,"TOWNNAME":"善化區","LI":"胡家里","LIN":"3鄰","STREET":" ","SECT":" ","MAREA":"胡厝寮","LANE":" ","ALLEY":" ","HOUSE_NO":"２９號之１","E_COORD97":175533.51360000001,"N_COORD97":2560481.9078500001,"ADDRESS":"胡厝寮２９號之１","OBJECTID":658187},"geometry":{"x":175533.51360000111,"y":2560481.9078500029}},{"attributes":{"ID":658215,"DIS_CODE":0,"TOWNNAME":"善化區","LI":"胡家里","LIN":"4鄰","STREET":" ","SECT":" ","MAREA":"胡厝寮","LANE":" ","ALLEY":" ","HOUSE_NO":"４３５號","E_COORD97":175803.725691,"N_COORD97":2560076.3547399999,"ADDRESS":"胡厝寮４３５號","OBJECTID":658188},"geometry":{"x":175803.72569100093,"y":2560076.3547360003}},{"attributes":{"ID":658216,"DIS_CODE":0,"TOWNNAME":"善化區","LI":"胡家里","LIN":"14鄰","STREET":" ","SECT":" ","MAREA":"胡厝寮","LANE":" ","ALLEY":" ","HOUSE_NO":"１２６號之１","E_COORD97":175453.61559,"N_COORD97":2560817.9284999999,"ADDRESS":"胡厝寮１２６號之１","OBJECTID":658189},"geometry":{"x":175453.61559000053,"y":2560817.9285000004}},{"attributes":{"ID":658217,"DIS_CODE":0,"TOWNNAME":"善化區","LI":"胡家里","LIN":"4鄰","STREET":" ","SECT":" ","MAREA":"胡厝寮","LANE":" ","ALLEY":" ","HOUSE_NO":"４１５號之１","E_COORD97":175633.96892000001,"N_COORD97":2560298.49878,"ADDRESS":"胡厝寮４１５號之１","OBJECTID":658190},"geometry":{"x":175633.96892000083,"y":2560298.4987800047}},{"attributes":{"ID":658218,"DIS_CODE":0,"TOWNNAME":"善化區","LI":"胡家里","LIN":"2鄰","STREET":" ","SECT":" ","MAREA":"胡厝寮","LANE":" ","ALLEY":" ","HOUSE_NO":"１６號之１","E_COORD97":175549.19649999999,"N_COORD97":2560736.4368699999,"ADDRESS":"胡厝寮１６號之１","OBJECTID":658191},"geometry":{"x":175549.19650000054,"y":2560736.4368699994}},{"attributes":{"ID":658219,"DIS_CODE":0,"TOWNNAME":"善化區","LI":"胡家里","LIN":"3鄰","STREET":" ","SECT":" ","MAREA":"胡厝寮","LANE":" ","ALLEY":" ","HOUSE_NO":"２６號之３１","E_COORD97":175873.23907000001,"N_COORD97":2560696.4319000002,"ADDRESS":"胡厝寮２６號之３１","OBJECTID":658192},"geometry":{"x":175873.23907000013,"y":2560696.4319000021}},{"attributes":{"ID":658220,"DIS_CODE":0,"TOWNNAME":"善化區","LI":"胡家里","LIN":"3鄰","STREET":" ","SECT":" ","MAREA":"胡厝寮","LANE":" ","ALLEY":" ","HOUSE_NO":"２６號之５","E_COORD97":175642.02230000001,"N_COORD97":2560613.24694,"ADDRESS":"胡厝寮２６號之５","OBJECTID":658193},"geometry":{"x":175642.0223000003,"y":2560613.24694}},{"attributes":{"ID":658221,"DIS_CODE":0,"TOWNNAME":"西港區","LI":"營西里","LIN":"18鄰","STREET":" ","SECT":" ","MAREA":"後營","LANE":" ","ALLEY":" ","HOUSE_NO":"１３７號之５","E_COORD97":168006.56331,"N_COORD97":2560079.8278600001,"ADDRESS":"後營１３７號之５","OBJECTID":658194},"geometry":{"x":168006.56331000105,"y":2560079.8278600033}},{"attributes":{"ID":658222,"DIS_CODE":0,"TOWNNAME":"西港區","LI":"營西里","LIN":"1鄰","STREET":" ","SECT":" ","MAREA":"後營","LANE":" ","ALLEY":" ","HOUSE_NO":"２之２５號","E_COORD97":168510.60677799999,"N_COORD97":2560019.3604199998,"ADDRESS":"後營２之２５號","OBJECTID":658195},"geometry":{"x":168510.60677800141,"y":2560019.3604160007}},{"attributes":{"ID":658223,"DIS_CODE":0,"TOWNNAME":"西港區","LI":"營西里","LIN":"1鄰","STREET":" ","SECT":" ","MAREA":"後營","LANE":" ","ALLEY":" ","HOUSE_NO":"５３３之２８號","E_COORD97":167887.924883,"N_COORD97":2559892.5691300002,"ADDRESS":"後營５３３之２８號","OBJECTID":658196},"geometry":{"x":167887.92488300055,"y":2559892.5691340026}},{"attributes":{"ID":658224,"DIS_CODE":0,"TOWNNAME":"西港區","LI":"營西里","LIN":"1鄰","STREET":" ","SECT":" ","MAREA":"後營","LANE":" ","ALLEY":" ","HOUSE_NO":"４８５之２號","E_COORD97":169427.574892,"N_COORD97":2559134.48538,"ADDRESS":"後營４８５之２號","OBJECTID":658197},"geometry":{"x":169427.57489200216,"y":2559134.4853770025}},{"attributes":{"ID":658225,"DIS_CODE":0,"TOWNNAME":"西港區","LI":"營西里","LIN":"1鄰","STREET":" ","SECT":" ","MAREA":"後營","LANE":" ","ALLEY":" ","HOUSE_NO":"３號之２９","E_COORD97":167910.55215999999,"N_COORD97":2560673.3631799999,"ADDRESS":"後營３號之２９","OBJECTID":658198},"geometry":{"x":167910.55216000043,"y":2560673.3631800022}},{"attributes":{"ID":658226,"DIS_CODE":0,"TOWNNAME":"北區","LI":"新勝里","LIN":"6鄰","STREET":"北園街","SECT":" ","MAREA":" ","LANE":"８７巷","ALLEY":" ","HOUSE_NO":"３５號","E_COORD97":170278.79373599999,"N_COORD97":2545615.7511800001,"ADDRESS":"北園街８７巷３５號","OBJECTID":658199},"geometry":{"x":170278.79373600055,"y":2545615.7511849999}},{"attributes":{"ID":658227,"DIS_CODE":0,"TOWNNAME":"北區","LI":"大港里","LIN":"28鄰","STREET":"大興街","SECT":" ","MAREA":" ","LANE":" ","ALLEY":" ","HOUSE_NO":"３９２號","E_COORD97":166253.98559,"N_COORD97":2545554.6324700001,"ADDRESS":"大興街３９２號","OBJECTID":658200},"geometry":{"x":166253.98558999971,"y":2545554.6324680019}}]}