{"displayFieldName":"TOWNNAME","fieldAliases":{"ID":"ID","DIS_CODE":"DIS_CODE","TOWNNAME":"TOWNNAME","LI":"LI","LIN":"LIN","STREET":"STREET","SECT":"SECT","MAREA":"MAREA","LANE":"LANE","ALLEY":"ALLEY","HOUSE_NO":"HOUSE_NO","E_COORD97":"E_COORD97","N_COORD97":"N_COORD97","ADDRESS":"ADDRESS","OBJECTID":"OBJECTID"},"geometryType":"esriGeometryPoint","spatialReference":{"wkid":102443,"latestWkid":3826},"fields":[{"name":"ID","type":"esriFieldTypeDouble","alias":"ID"},{"name":"DIS_CODE","type":"esriFieldTypeInteger","alias":"DIS_CODE"},{"name":"TOWNNAME","type":"esriFieldTypeString","alias":"TOWNNAME","length":8},{"name":"LI","type":"esriFieldTypeString","alias":"LI","length":8},{"name":"LIN","type":"esriFieldTypeString","alias":"LIN","length":12},{"name":"STREET","type":"esriFieldTypeString","alias":"STREET","length":20},{"name":"SECT","type":"esriFieldTypeString","alias":"SECT","length":8},{"name":"MAREA","type":"esriFieldTypeString","alias":"MAREA","length":12},{"name":"LANE","type":"esriFieldTypeString","alias":"LANE","length":10},{"name":"ALLEY","type":"esriFieldTypeString","alias":"ALLEY","length":10},{"name":"HOUSE_NO","type":"esriFieldTypeString","alias":"HOUSE_NO","length":20},{"name":"E_COORD97","type":"esriFieldTypeDouble","alias":"E_COORD97"},{"name":"N_COORD97","type":"esriFieldTypeDouble","alias":"N_COORD97"},{"name":"ADDRESS","type":"esriFieldTypeString","alias":"ADDRESS","length":50},{"name":"OBJECTID","type":"esriFieldTypeOID","alias":"OBJECTID"}],"features":[{"attributes":{"ID":608428,"DIS_CODE":0,"TOWNNAME":"東區","LI":"大福里","LIN":"3鄰","STREET":"榮譽街","SECT":" ","MAREA":" ","LANE":" ","ALLEY":" ","HOUSE_NO":"４３號","E_COORD97":169634.63,"N_COORD97":2541656.4700000002,"ADDRESS":"榮譽街４３號","OBJECTID":608401},"geometry":{"x":169634.63000000175,"y":2541656.4700000025}},{"attributes":{"ID":608429,"DIS_CODE":0,"TOWNNAME":"安南區","LI":"顯宮里","LIN":"3鄰","STREET":"北汕尾三路","SECT":" ","MAREA":" ","LANE":" ","ALLEY":" ","HOUSE_NO":"２３７號","E_COORD97":161686.70000000001,"N_COORD97":2550354.96,"ADDRESS":"北汕尾三路２３７號","OBJECTID":608402},"geometry":{"x":161686.70000000019,"y":2550354.9600000009}},{"attributes":{"ID":608430,"DIS_CODE":0,"TOWNNAME":"永康區","LI":"北灣里","LIN":"12鄰","STREET":"大民街","SECT":" ","MAREA":" ","LANE":" ","ALLEY":" ","HOUSE_NO":"１６６號","E_COORD97":174928.51000000001,"N_COORD97":2545685.6000000001,"ADDRESS":"大民街１６６號","OBJECTID":608403},"geometry":{"x":174928.50999999978,"y":2545685.6000000015}},{"attributes":{"ID":608431,"DIS_CODE":0,"TOWNNAME":"永康區","LI":"五王里","LIN":"24鄰","STREET":"五福街","SECT":" ","MAREA":" ","LANE":" ","ALLEY":" ","HOUSE_NO":"２２號","E_COORD97":171315.76000000001,"N_COORD97":2545868.0499999998,"ADDRESS":"五福街２２號","OBJECTID":608404},"geometry":{"x":171315.76000000071,"y":2545868.0500000007}},{"attributes":{"ID":608432,"DIS_CODE":0,"TOWNNAME":"安南區","LI":"學東里","LIN":"3鄰","STREET":"公學路","SECT":"七段","MAREA":" ","LANE":" ","ALLEY":" ","HOUSE_NO":"１０８號","E_COORD97":161784.45000000001,"N_COORD97":2553486.27,"ADDRESS":"公學路七段１０８號","OBJECTID":608405},"geometry":{"x":161784.45000000112,"y":2553486.2699999996}},{"attributes":{"ID":608433,"DIS_CODE":0,"TOWNNAME":"安南區","LI":"顯宮里","LIN":"3鄰","STREET":"科技五路","SECT":" ","MAREA":" ","LANE":" ","ALLEY":" ","HOUSE_NO":"２１號","E_COORD97":162302.98000000001,"N_COORD97":2548794.4700000002,"ADDRESS":"科技五路２１號","OBJECTID":608406},"geometry":{"x":162302.98000000138,"y":2548794.4700000007}},{"attributes":{"ID":608434,"DIS_CODE":0,"TOWNNAME":"安南區","LI":"顯宮里","LIN":"3鄰","STREET":"科技二路","SECT":" ","MAREA":" ","LANE":" ","ALLEY":" ","HOUSE_NO":"７號","E_COORD97":162535.22,"N_COORD97":2549084.0600000001,"ADDRESS":"科技二路７號","OBJECTID":608407},"geometry":{"x":162535.21999999974,"y":2549084.0600000024}},{"attributes":{"ID":608435,"DIS_CODE":0,"TOWNNAME":"安南區","LI":"顯宮里","LIN":"3鄰","STREET":"科技一路","SECT":" ","MAREA":" ","LANE":" ","ALLEY":" ","HOUSE_NO":"８號","E_COORD97":163102.62,"N_COORD97":2549291.04,"ADDRESS":"科技一路８號","OBJECTID":608408},"geometry":{"x":163102.62000000011,"y":2549291.0399999991}},{"attributes":{"ID":608436,"DIS_CODE":0,"TOWNNAME":"安南區","LI":"顯宮里","LIN":"3鄰","STREET":"科技五路","SECT":" ","MAREA":" ","LANE":" ","ALLEY":" ","HOUSE_NO":"５８號","E_COORD97":161729.29000000001,"N_COORD97":2549166.9500000002,"ADDRESS":"科技五路５８號","OBJECTID":608409},"geometry":{"x":161729.29000000097,"y":2549166.950000003}},{"attributes":{"ID":608437,"DIS_CODE":0,"TOWNNAME":"安南區","LI":"顯宮里","LIN":"3鄰","STREET":"工業五路","SECT":" ","MAREA":" ","LANE":" ","ALLEY":" ","HOUSE_NO":"３６號","E_COORD97":161835.39000000001,"N_COORD97":2549280.8999999999,"ADDRESS":"工業五路３６號","OBJECTID":608410},"geometry":{"x":161835.3900000006,"y":2549280.9000000022}},{"attributes":{"ID":608438,"DIS_CODE":0,"TOWNNAME":"安南區","LI":"顯宮里","LIN":"3鄰","STREET":"工業七路","SECT":" ","MAREA":" ","LANE":" ","ALLEY":" ","HOUSE_NO":"７號","E_COORD97":161628.37,"N_COORD97":2548597,"ADDRESS":"工業七路７號","OBJECTID":608411},"geometry":{"x":161628.36999999918,"y":2548597}},{"attributes":{"ID":608439,"DIS_CODE":0,"TOWNNAME":"安南區","LI":"顯宮里","LIN":"3鄰","STREET":"科技五路","SECT":" ","MAREA":" ","LANE":" ","ALLEY":" ","HOUSE_NO":"６８號","E_COORD97":161578.39000000001,"N_COORD97":2548979.8100000001,"ADDRESS":"科技五路６８號","OBJECTID":608412},"geometry":{"x":161578.38999999966,"y":2548979.8100000024}},{"attributes":{"ID":608440,"DIS_CODE":0,"TOWNNAME":"仁德區","LI":"一甲里","LIN":"3鄰","STREET":"中正路","SECT":"三段","MAREA":" ","LANE":" ","ALLEY":" ","HOUSE_NO":"１０６號","E_COORD97":173411.76000000001,"N_COORD97":2541633.27,"ADDRESS":"中正路三段１０６號","OBJECTID":608413},"geometry":{"x":173411.75999999978,"y":2541633.2700000014}},{"attributes":{"ID":608441,"DIS_CODE":0,"TOWNNAME":"仁德區","LI":"土庫里","LIN":"3鄰","STREET":"土庫三街","SECT":" ","MAREA":" ","LANE":" ","ALLEY":" ","HOUSE_NO":"７４號","E_COORD97":174292.79000000001,"N_COORD97":2543062.9900000002,"ADDRESS":"土庫三街７４號","OBJECTID":608414},"geometry":{"x":174292.79000000097,"y":2543062.9900000021}},{"attributes":{"ID":608442,"DIS_CODE":0,"TOWNNAME":"仁德區","LI":"一甲里","LIN":"3鄰","STREET":"中正路","SECT":"三段","MAREA":" ","LANE":" ","ALLEY":" ","HOUSE_NO":"９８號","E_COORD97":173403.87,"N_COORD97":2541617.52,"ADDRESS":"中正路三段９８號","OBJECTID":608415},"geometry":{"x":173403.87000000104,"y":2541617.5200000014}},{"attributes":{"ID":608443,"DIS_CODE":0,"TOWNNAME":"永康區","LI":"王行里","LIN":"15鄰","STREET":"龍昌街","SECT":" ","MAREA":" ","LANE":" ","ALLEY":" ","HOUSE_NO":"１０１號","E_COORD97":174947.16,"N_COORD97":2548152.8500000001,"ADDRESS":"龍昌街１０１號","OBJECTID":608416},"geometry":{"x":174947.16000000015,"y":2548152.8499999996}},{"attributes":{"ID":608444,"DIS_CODE":0,"TOWNNAME":"仁德區","LI":"仁德里","LIN":"3鄰","STREET":"仁中六街","SECT":" ","MAREA":" ","LANE":" ","ALLEY":" ","HOUSE_NO":"８２號","E_COORD97":173399.54999999999,"N_COORD97":2540439.5,"ADDRESS":"仁中六街８２號","OBJECTID":608417},"geometry":{"x":173399.54999999981,"y":2540439.5}},{"attributes":{"ID":608445,"DIS_CODE":0,"TOWNNAME":"仁德區","LI":"仁德里","LIN":"3鄰","STREET":"仁中三街","SECT":" ","MAREA":" ","LANE":" ","ALLEY":" ","HOUSE_NO":"６７號","E_COORD97":173287.91,"N_COORD97":2540411.5,"ADDRESS":"仁中三街６７號","OBJECTID":608418},"geometry":{"x":173287.91000000108,"y":2540411.5000000019}},{"attributes":{"ID":608446,"DIS_CODE":0,"TOWNNAME":"仁德區","LI":"仁德里","LIN":"3鄰","STREET":"仁中五街","SECT":" ","MAREA":" ","LANE":" ","ALLEY":" ","HOUSE_NO":"５８號","E_COORD97":173372.23000000001,"N_COORD97":2540300,"ADDRESS":"仁中五街５８號","OBJECTID":608419},"geometry":{"x":173372.23000000045,"y":2540300}},{"attributes":{"ID":608447,"DIS_CODE":0,"TOWNNAME":"仁德區","LI":"後壁里","LIN":"3鄰","STREET":"中正路","SECT":"二段","MAREA":" ","LANE":" ","ALLEY":" ","HOUSE_NO":"３０８號","E_COORD97":173259.26000000001,"N_COORD97":2539031.52,"ADDRESS":"中正路二段３０８號","OBJECTID":608420},"geometry":{"x":173259.25999999978,"y":2539031.5199999996}},{"attributes":{"ID":608448,"DIS_CODE":0,"TOWNNAME":"仁德區","LI":"仁德里","LIN":"3鄰","STREET":"仁中五街","SECT":" ","MAREA":" ","LANE":" ","ALLEY":" ","HOUSE_NO":"６６號","E_COORD97":173358.20000000001,"N_COORD97":2540302.5,"ADDRESS":"仁中五街６６號","OBJECTID":608421},"geometry":{"x":173358.20000000019,"y":2540302.5000000019}},{"attributes":{"ID":608449,"DIS_CODE":0,"TOWNNAME":"仁德區","LI":"仁德里","LIN":"3鄰","STREET":"仁中六街","SECT":" ","MAREA":" ","LANE":" ","ALLEY":" ","HOUSE_NO":"６５號","E_COORD97":173336.06,"N_COORD97":2540381.2400000002,"ADDRESS":"仁中六街６５號","OBJECTID":608422},"geometry":{"x":173336.06000000052,"y":2540381.2400000002}},{"attributes":{"ID":608450,"DIS_CODE":0,"TOWNNAME":"仁德區","LI":"仁德里","LIN":"3鄰","STREET":"仁中七街","SECT":" ","MAREA":" ","LANE":" ","ALLEY":" ","HOUSE_NO":"１３２號","E_COORD97":173297.48000000001,"N_COORD97":2540360,"ADDRESS":"仁中七街１３２號","OBJECTID":608423},"geometry":{"x":173297.48000000045,"y":2540360.0000000019}},{"attributes":{"ID":608451,"DIS_CODE":0,"TOWNNAME":"仁德區","LI":"仁德里","LIN":"3鄰","STREET":"仁中六街","SECT":" ","MAREA":" ","LANE":" ","ALLEY":" ","HOUSE_NO":"１０８號","E_COORD97":173393.20000000001,"N_COORD97":2540460.4900000002,"ADDRESS":"仁中六街１０８號","OBJECTID":608424},"geometry":{"x":173393.20000000112,"y":2540460.4900000002}},{"attributes":{"ID":608452,"DIS_CODE":0,"TOWNNAME":"仁德區","LI":"後壁里","LIN":"3鄰","STREET":"中正路","SECT":"二段","MAREA":" ","LANE":" ","ALLEY":" ","HOUSE_NO":"２９８號","E_COORD97":173256.62,"N_COORD97":2539009.27,"ADDRESS":"中正路二段２９８號","OBJECTID":608425},"geometry":{"x":173256.62000000104,"y":2539009.2699999996}},{"attributes":{"ID":608453,"DIS_CODE":0,"TOWNNAME":"仁德區","LI":"仁德里","LIN":"3鄰","STREET":"中正路","SECT":"二段","MAREA":" ","LANE":" ","ALLEY":" ","HOUSE_NO":"７５７之３號","E_COORD97":173458.12,"N_COORD97":2540286.29,"ADDRESS":"中正路二段７５７之３號","OBJECTID":608426},"geometry":{"x":173458.12000000104,"y":2540286.290000001}},{"attributes":{"ID":608454,"DIS_CODE":0,"TOWNNAME":"仁德區","LI":"仁德里","LIN":"3鄰","STREET":"仁中六街","SECT":" ","MAREA":" ","LANE":" ","ALLEY":" ","HOUSE_NO":"１０２號","E_COORD97":173402.69,"N_COORD97":2540461.2400000002,"ADDRESS":"仁中六街１０２號","OBJECTID":608427},"geometry":{"x":173402.69000000041,"y":2540461.2400000021}},{"attributes":{"ID":608455,"DIS_CODE":0,"TOWNNAME":"仁德區","LI":"仁德里","LIN":"3鄰","STREET":"仁中六街","SECT":" ","MAREA":" ","LANE":" ","ALLEY":" ","HOUSE_NO":"１４８號","E_COORD97":173394.34,"N_COORD97":2540490.7400000002,"ADDRESS":"仁中六街１４８號","OBJECTID":608428},"geometry":{"x":173394.33999999985,"y":2540490.7400000021}},{"attributes":{"ID":608456,"DIS_CODE":0,"TOWNNAME":"仁德區","LI":"保安里","LIN":"3鄰","STREET":"保安路","SECT":"一段","MAREA":" ","LANE":" ","ALLEY":" ","HOUSE_NO":"１５０號","E_COORD97":171153.17000000001,"N_COORD97":2536842.0600000001,"ADDRESS":"保安路一段１５０號","OBJECTID":608429},"geometry":{"x":171153.17000000179,"y":2536842.0600000005}},{"attributes":{"ID":608457,"DIS_CODE":0,"TOWNNAME":"仁德區","LI":"成功里","LIN":"3鄰","STREET":"保生東路","SECT":" ","MAREA":" ","LANE":" ","ALLEY":" ","HOUSE_NO":"１８８號","E_COORD97":171208,"N_COORD97":2539686.1200000001,"ADDRESS":"保生東路１８８號","OBJECTID":608430},"geometry":{"x":171208,"y":2539686.1200000029}},{"attributes":{"ID":608458,"DIS_CODE":0,"TOWNNAME":"仁德區","LI":"仁德里","LIN":"3鄰","STREET":"仁中三街","SECT":" ","MAREA":" ","LANE":" ","ALLEY":" ","HOUSE_NO":"６１號","E_COORD97":173301.09,"N_COORD97":2540411,"ADDRESS":"仁中三街６１號","OBJECTID":608431},"geometry":{"x":173301.08999999985,"y":2540411.0000000019}},{"attributes":{"ID":608459,"DIS_CODE":0,"TOWNNAME":"仁德區","LI":"仁德里","LIN":"3鄰","STREET":"仁中六街","SECT":" ","MAREA":" ","LANE":" ","ALLEY":" ","HOUSE_NO":"６９號","E_COORD97":173326.01000000001,"N_COORD97":2540381.4900000002,"ADDRESS":"仁中六街６９號","OBJECTID":608432},"geometry":{"x":173326.01000000071,"y":2540381.4900000021}},{"attributes":{"ID":608460,"DIS_CODE":0,"TOWNNAME":"仁德區","LI":"仁德里","LIN":"3鄰","STREET":"仁中七街","SECT":" ","MAREA":" ","LANE":" ","ALLEY":" ","HOUSE_NO":"４６號","E_COORD97":173313.35000000001,"N_COORD97":2540340.5099999998,"ADDRESS":"仁中七街４６號","OBJECTID":608433},"geometry":{"x":173313.35000000056,"y":2540340.5099999998}},{"attributes":{"ID":608461,"DIS_CODE":0,"TOWNNAME":"仁德區","LI":"成功里","LIN":"3鄰","STREET":"保生東路","SECT":" ","MAREA":" ","LANE":" ","ALLEY":" ","HOUSE_NO":"２１２號","E_COORD97":171206.54999999999,"N_COORD97":2539741.5099999998,"ADDRESS":"保生東路２１２號","OBJECTID":608434},"geometry":{"x":171206.55000000168,"y":2539741.5099999998}},{"attributes":{"ID":608462,"DIS_CODE":0,"TOWNNAME":"仁德區","LI":"仁德里","LIN":"3鄰","STREET":"仁中七街","SECT":" ","MAREA":" ","LANE":" ","ALLEY":" ","HOUSE_NO":"６８號","E_COORD97":173354.23000000001,"N_COORD97":2540340.2599999998,"ADDRESS":"仁中七街６８號","OBJECTID":608435},"geometry":{"x":173354.23000000138,"y":2540340.2600000035}},{"attributes":{"ID":608463,"DIS_CODE":0,"TOWNNAME":"仁德區","LI":"新田里","LIN":"3鄰","STREET":"新田二街","SECT":" ","MAREA":" ","LANE":" ","ALLEY":" ","HOUSE_NO":"１１號","E_COORD97":174596.14000000001,"N_COORD97":2539782.5,"ADDRESS":"新田二街１１號","OBJECTID":608436},"geometry":{"x":174596.14000000153,"y":2539782.5}},{"attributes":{"ID":608464,"DIS_CODE":0,"TOWNNAME":"仁德區","LI":"土庫里","LIN":"3鄰","STREET":"土庫三街","SECT":" ","MAREA":" ","LANE":" ","ALLEY":" ","HOUSE_NO":"８０號","E_COORD97":174305.89000000001,"N_COORD97":2543035.75,"ADDRESS":"土庫三街８０號","OBJECTID":608437},"geometry":{"x":174305.88999999966,"y":2543035.7499999981}},{"attributes":{"ID":608465,"DIS_CODE":0,"TOWNNAME":"仁德區","LI":"仁德里","LIN":"3鄰","STREET":"仁中七街","SECT":" ","MAREA":" ","LANE":" ","ALLEY":" ","HOUSE_NO":"５８號","E_COORD97":173335.53,"N_COORD97":2540340.0099999998,"ADDRESS":"仁中七街５８號","OBJECTID":608438},"geometry":{"x":173335.53000000026,"y":2540340.0100000016}},{"attributes":{"ID":608466,"DIS_CODE":0,"TOWNNAME":"仁德區","LI":"仁德里","LIN":"3鄰","STREET":"仁中三街","SECT":" ","MAREA":" ","LANE":" ","ALLEY":" ","HOUSE_NO":"６３號","E_COORD97":173296.98000000001,"N_COORD97":2540411.5,"ADDRESS":"仁中三街６３號","OBJECTID":608439},"geometry":{"x":173296.98000000045,"y":2540411.5000000019}},{"attributes":{"ID":608467,"DIS_CODE":0,"TOWNNAME":"仁德區","LI":"仁義里","LIN":"3鄰","STREET":"仁義路","SECT":" ","MAREA":" ","LANE":" ","ALLEY":" ","HOUSE_NO":"２１５號","E_COORD97":173918.78,"N_COORD97":2541004.0099999998,"ADDRESS":"仁義路２１５號","OBJECTID":608440},"geometry":{"x":173918.78000000026,"y":2541004.0100000016}},{"attributes":{"ID":608468,"DIS_CODE":0,"TOWNNAME":"仁德區","LI":"仁德里","LIN":"3鄰","STREET":"仁中六街","SECT":" ","MAREA":" ","LANE":" ","ALLEY":" ","HOUSE_NO":"９號","E_COORD97":173381.10999999999,"N_COORD97":2540318.75,"ADDRESS":"仁中六街９號","OBJECTID":608441},"geometry":{"x":173381.11000000034,"y":2540318.75}},{"attributes":{"ID":608469,"DIS_CODE":0,"TOWNNAME":"仁德區","LI":"大甲里","LIN":"3鄰","STREET":"行大一街","SECT":" ","MAREA":" ","LANE":" ","ALLEY":" ","HOUSE_NO":"１４０號","E_COORD97":169893.10999999999,"N_COORD97":2535002.2400000002,"ADDRESS":"行大一街１４０號","OBJECTID":608442},"geometry":{"x":169893.11000000127,"y":2535002.2400000021}},{"attributes":{"ID":608470,"DIS_CODE":0,"TOWNNAME":"仁德區","LI":"仁德里","LIN":"3鄰","STREET":"仁中六街","SECT":" ","MAREA":" ","LANE":" ","ALLEY":" ","HOUSE_NO":"５３號","E_COORD97":173365.64000000001,"N_COORD97":2540380.7400000002,"ADDRESS":"仁中六街５３號","OBJECTID":608443},"geometry":{"x":173365.6400000006,"y":2540380.7400000002}},{"attributes":{"ID":608471,"DIS_CODE":0,"TOWNNAME":"仁德區","LI":"仁德里","LIN":"3鄰","STREET":"仁中七街","SECT":" ","MAREA":" ","LANE":" ","ALLEY":" ","HOUSE_NO":"１７８號","E_COORD97":173288.82999999999,"N_COORD97":2540389.25,"ADDRESS":"仁中七街１７８號","OBJECTID":608444},"geometry":{"x":173288.83000000101,"y":2540389.2500000019}},{"attributes":{"ID":608472,"DIS_CODE":0,"TOWNNAME":"仁德區","LI":"保安里","LIN":"3鄰","STREET":"保安路","SECT":"一段","MAREA":" ","LANE":" ","ALLEY":" ","HOUSE_NO":"１４８號","E_COORD97":171149.10000000001,"N_COORD97":2536841.5600000001,"ADDRESS":"保安路一段１４８號","OBJECTID":608445},"geometry":{"x":171149.10000000056,"y":2536841.5600000024}},{"attributes":{"ID":608473,"DIS_CODE":0,"TOWNNAME":"佳里區","LI":"六安里","LIN":"3鄰","STREET":"進學路","SECT":" ","MAREA":" ","LANE":" ","ALLEY":" ","HOUSE_NO":"４６號","E_COORD97":166321.97,"N_COORD97":2562694.8100000001,"ADDRESS":"進學路４６號","OBJECTID":608446},"geometry":{"x":166321.97000000067,"y":2562694.8100000024}},{"attributes":{"ID":608474,"DIS_CODE":0,"TOWNNAME":"仁德區","LI":"成功里","LIN":"3鄰","STREET":"保生東路","SECT":" ","MAREA":" ","LANE":" ","ALLEY":" ","HOUSE_NO":"１８６號","E_COORD97":171217.28,"N_COORD97":2539681.8700000001,"ADDRESS":"保生東路１８６號","OBJECTID":608447},"geometry":{"x":171217.28000000212,"y":2539681.870000001}},{"attributes":{"ID":608475,"DIS_CODE":0,"TOWNNAME":"仁德區","LI":"保安里","LIN":"3鄰","STREET":"保安路","SECT":"一段","MAREA":" ","LANE":" ","ALLEY":" ","HOUSE_NO":"８號","E_COORD97":170438.09,"N_COORD97":2535985.0699999998,"ADDRESS":"保安路一段８號","OBJECTID":608448},"geometry":{"x":170438.08999999985,"y":2535985.0700000003}},{"attributes":{"ID":608476,"DIS_CODE":0,"TOWNNAME":"仁德區","LI":"仁德里","LIN":"3鄰","STREET":"仁中七街","SECT":" ","MAREA":" ","LANE":" ","ALLEY":" ","HOUSE_NO":"１２８號","E_COORD97":173306.56,"N_COORD97":2540360,"ADDRESS":"仁中七街１２８號","OBJECTID":608449},"geometry":{"x":173306.56000000145,"y":2540360.0000000019}},{"attributes":{"ID":608477,"DIS_CODE":0,"TOWNNAME":"仁德區","LI":"仁義里","LIN":"3鄰","STREET":"仁義三街","SECT":" ","MAREA":" ","LANE":" ","ALLEY":" ","HOUSE_NO":"２２９號","E_COORD97":173922.72,"N_COORD97":2541132.02,"ADDRESS":"仁義三街２２９號","OBJECTID":608450},"geometry":{"x":173922.7200000016,"y":2541132.0200000014}},{"attributes":{"ID":608478,"DIS_CODE":0,"TOWNNAME":"仁德區","LI":"仁德里","LIN":"3鄰","STREET":"仁中六街","SECT":" ","MAREA":" ","LANE":" ","ALLEY":" ","HOUSE_NO":"１３８號","E_COORD97":173413.67000000001,"N_COORD97":2540491.9900000002,"ADDRESS":"仁中六街１３８號","OBJECTID":608451},"geometry":{"x":173413.67000000086,"y":2540491.9900000039}},{"attributes":{"ID":608479,"DIS_CODE":0,"TOWNNAME":"仁德區","LI":"仁德里","LIN":"3鄰","STREET":"仁中七街","SECT":" ","MAREA":" ","LANE":" ","ALLEY":" ","HOUSE_NO":"５２號","E_COORD97":173326.82000000001,"N_COORD97":2540340.2599999998,"ADDRESS":"仁中七街５２號","OBJECTID":608452},"geometry":{"x":173326.8200000003,"y":2540340.2600000035}},{"attributes":{"ID":608480,"DIS_CODE":0,"TOWNNAME":"仁德區","LI":"仁德里","LIN":"3鄰","STREET":"仁中六街","SECT":" ","MAREA":" ","LANE":" ","ALLEY":" ","HOUSE_NO":"７８號","E_COORD97":173389.78,"N_COORD97":2540438.5,"ADDRESS":"仁中六街７８號","OBJECTID":608453},"geometry":{"x":173389.78000000026,"y":2540438.5000000019}},{"attributes":{"ID":608481,"DIS_CODE":0,"TOWNNAME":"佳里區","LI":"六安里","LIN":"3鄰","STREET":"進學路","SECT":" ","MAREA":" ","LANE":" ","ALLEY":" ","HOUSE_NO":"４８號","E_COORD97":166317.29999999999,"N_COORD97":2562694.7400000002,"ADDRESS":"進學路４８號","OBJECTID":608454},"geometry":{"x":166317.29999999981,"y":2562694.7400000021}},{"attributes":{"ID":608482,"DIS_CODE":0,"TOWNNAME":"仁德區","LI":"仁德里","LIN":"3鄰","STREET":"仁中七街","SECT":" ","MAREA":" ","LANE":" ","ALLEY":" ","HOUSE_NO":"８號","E_COORD97":173279.14000000001,"N_COORD97":2540319.2599999998,"ADDRESS":"仁中七街８號","OBJECTID":608455},"geometry":{"x":173279.1400000006,"y":2540319.2599999998}},{"attributes":{"ID":608483,"DIS_CODE":0,"TOWNNAME":"仁德區","LI":"上崙里","LIN":"3鄰","STREET":"德崙路","SECT":" ","MAREA":" ","LANE":" ","ALLEY":" ","HOUSE_NO":"２３５號","E_COORD97":173758.5,"N_COORD97":2538211.0099999998,"ADDRESS":"德崙路２３５號","OBJECTID":608456},"geometry":{"x":173758.50000000093,"y":2538211.0100000016}},{"attributes":{"ID":608484,"DIS_CODE":0,"TOWNNAME":"永康區","LI":"北灣里","LIN":"20鄰","STREET":"大安街","SECT":" ","MAREA":" ","LANE":" ","ALLEY":" ","HOUSE_NO":"４８８號","E_COORD97":174580.25,"N_COORD97":2546005.7200000002,"ADDRESS":"大安街４８８號","OBJECTID":608457},"geometry":{"x":174580.25,"y":2546005.7200000007}},{"attributes":{"ID":608485,"DIS_CODE":0,"TOWNNAME":"永康區","LI":"北灣里","LIN":"1鄰","STREET":"大同街","SECT":" ","MAREA":" ","LANE":" ","ALLEY":" ","HOUSE_NO":"２號","E_COORD97":175336.47,"N_COORD97":2545421.21,"ADDRESS":"大同街２號","OBJECTID":608458},"geometry":{"x":175336.4700000016,"y":2545421.2100000028}},{"attributes":{"ID":608486,"DIS_CODE":0,"TOWNNAME":"仁德區","LI":"仁德里","LIN":"3鄰","STREET":"中正路","SECT":"二段","MAREA":" ","LANE":" ","ALLEY":" ","HOUSE_NO":"７９９號","E_COORD97":173445.82999999999,"N_COORD97":2540384.2599999998,"ADDRESS":"中正路二段７９９號","OBJECTID":608459},"geometry":{"x":173445.83000000194,"y":2540384.2600000035}},{"attributes":{"ID":608487,"DIS_CODE":0,"TOWNNAME":"仁德區","LI":"田厝里","LIN":"3鄰","STREET":"田厝三街","SECT":" ","MAREA":" ","LANE":" ","ALLEY":" ","HOUSE_NO":"１１３號","E_COORD97":172626.32999999999,"N_COORD97":2537463.4900000002,"ADDRESS":"田厝三街１１３號","OBJECTID":608460},"geometry":{"x":172626.33000000007,"y":2537463.4900000002}},{"attributes":{"ID":608488,"DIS_CODE":0,"TOWNNAME":"仁德區","LI":"一甲里","LIN":"3鄰","STREET":"中正路","SECT":"三段","MAREA":" ","LANE":" ","ALLEY":" ","HOUSE_NO":"１６０號","E_COORD97":173470.78,"N_COORD97":2541762.0299999998,"ADDRESS":"中正路三段１６０號","OBJECTID":608461},"geometry":{"x":173470.78000000119,"y":2541762.0300000031}},{"attributes":{"ID":608489,"DIS_CODE":0,"TOWNNAME":"仁德區","LI":"仁德里","LIN":"3鄰","STREET":"仁中六街","SECT":" ","MAREA":" ","LANE":" ","ALLEY":" ","HOUSE_NO":"８７號","E_COORD97":173325.59,"N_COORD97":2540388.7400000002,"ADDRESS":"仁中六街８７號","OBJECTID":608462},"geometry":{"x":173325.59000000078,"y":2540388.7400000021}},{"attributes":{"ID":608490,"DIS_CODE":0,"TOWNNAME":"佳里區","LI":"六安里","LIN":"3鄰","STREET":"進學路","SECT":" ","MAREA":" ","LANE":" ","ALLEY":" ","HOUSE_NO":"３２號","E_COORD97":166368.91,"N_COORD97":2562699.8599999999,"ADDRESS":"進學路３２號","OBJECTID":608463},"geometry":{"x":166368.91000000015,"y":2562699.8600000013}},{"attributes":{"ID":608491,"DIS_CODE":0,"TOWNNAME":"佳里區","LI":"六安里","LIN":"3鄰","STREET":"進學路","SECT":" ","MAREA":" ","LANE":" ","ALLEY":" ","HOUSE_NO":"３４號","E_COORD97":166350.42999999999,"N_COORD97":2562694.4399999999,"ADDRESS":"進學路３４號","OBJECTID":608464},"geometry":{"x":166350.43000000156,"y":2562694.4399999995}},{"attributes":{"ID":608492,"DIS_CODE":0,"TOWNNAME":"佳里區","LI":"六安里","LIN":"3鄰","STREET":"進學路","SECT":" ","MAREA":" ","LANE":" ","ALLEY":" ","HOUSE_NO":"３６號","E_COORD97":166345.73000000001,"N_COORD97":2562694.77,"ADDRESS":"進學路３６號","OBJECTID":608465},"geometry":{"x":166345.72999999952,"y":2562694.7699999996}},{"attributes":{"ID":608493,"DIS_CODE":0,"TOWNNAME":"佳里區","LI":"六安里","LIN":"3鄰","STREET":"進學路","SECT":" ","MAREA":" ","LANE":" ","ALLEY":" ","HOUSE_NO":"３８號","E_COORD97":166340.84,"N_COORD97":2562694.79,"ADDRESS":"進學路３８號","OBJECTID":608466},"geometry":{"x":166340.83999999985,"y":2562694.7899999991}},{"attributes":{"ID":608494,"DIS_CODE":0,"TOWNNAME":"佳里區","LI":"六安里","LIN":"3鄰","STREET":"進學路","SECT":" ","MAREA":" ","LANE":" ","ALLEY":" ","HOUSE_NO":"４０號","E_COORD97":166335.98999999999,"N_COORD97":2562694.75,"ADDRESS":"進學路４０號","OBJECTID":608467},"geometry":{"x":166335.99000000115,"y":2562694.7500000019}},{"attributes":{"ID":608495,"DIS_CODE":0,"TOWNNAME":"佳里區","LI":"六安里","LIN":"3鄰","STREET":"進學路","SECT":" ","MAREA":" ","LANE":" ","ALLEY":" ","HOUSE_NO":"４２號之１","E_COORD97":166326.5,"N_COORD97":2562695.1099999999,"ADDRESS":"進學路４２號之１","OBJECTID":608468},"geometry":{"x":166326.50000000186,"y":2562695.1100000013}},{"attributes":{"ID":608496,"DIS_CODE":0,"TOWNNAME":"佳里區","LI":"六安里","LIN":"3鄰","STREET":"進學路","SECT":" ","MAREA":" ","LANE":" ","ALLEY":" ","HOUSE_NO":"４２號","E_COORD97":166331.12,"N_COORD97":2562694.9399999999,"ADDRESS":"進學路４２號","OBJECTID":608469},"geometry":{"x":166331.12000000104,"y":2562694.9400000032}},{"attributes":{"ID":608497,"DIS_CODE":0,"TOWNNAME":"佳里區","LI":"六安里","LIN":"3鄰","STREET":"進學路","SECT":" ","MAREA":" ","LANE":" ","ALLEY":" ","HOUSE_NO":"８號","E_COORD97":166434.20000000001,"N_COORD97":2562716.7000000002,"ADDRESS":"進學路８號","OBJECTID":608470},"geometry":{"x":166434.20000000112,"y":2562716.700000003}},{"attributes":{"ID":608498,"DIS_CODE":0,"TOWNNAME":"永康區","LI":"王行里","LIN":"14鄰","STREET":"經華路","SECT":" ","MAREA":" ","LANE":" ","ALLEY":" ","HOUSE_NO":"１７號","E_COORD97":175274.67000000001,"N_COORD97":2549559.5,"ADDRESS":"經華路１７號","OBJECTID":608471},"geometry":{"x":175274.67000000086,"y":2549559.5}},{"attributes":{"ID":608499,"DIS_CODE":0,"TOWNNAME":"永康區","LI":"正強里","LIN":"21鄰","STREET":"中正路","SECT":" ","MAREA":" ","LANE":" ","ALLEY":" ","HOUSE_NO":"１１７號","E_COORD97":173440.39999999999,"N_COORD97":2547874.6400000001,"ADDRESS":"中正路１１７號","OBJECTID":608472},"geometry":{"x":173440.40000000037,"y":2547874.6400000006}},{"attributes":{"ID":608500,"DIS_CODE":0,"TOWNNAME":"佳里區","LI":"東寧里","LIN":"3鄰","STREET":"新生路","SECT":" ","MAREA":" ","LANE":" ","ALLEY":" ","HOUSE_NO":"１３８號","E_COORD97":165834.26000000001,"N_COORD97":2562324.0299999998,"ADDRESS":"新生路１３８號","OBJECTID":608473},"geometry":{"x":165834.25999999978,"y":2562324.0299999993}},{"attributes":{"ID":608501,"DIS_CODE":0,"TOWNNAME":"佳里區","LI":"東寧里","LIN":"3鄰","STREET":"新生路","SECT":" ","MAREA":" ","LANE":" ","ALLEY":" ","HOUSE_NO":"１４０號","E_COORD97":165829.91,"N_COORD97":2562323,"ADDRESS":"新生路１４０號","OBJECTID":608474},"geometry":{"x":165829.91000000015,"y":2562323.0000000019}},{"attributes":{"ID":608502,"DIS_CODE":0,"TOWNNAME":"佳里區","LI":"東寧里","LIN":"3鄰","STREET":"新生路","SECT":" ","MAREA":" ","LANE":" ","ALLEY":" ","HOUSE_NO":"１４２號","E_COORD97":165825.42000000001,"N_COORD97":2562322.0699999998,"ADDRESS":"新生路１４２號","OBJECTID":608475},"geometry":{"x":165825.42000000086,"y":2562322.070000004}},{"attributes":{"ID":608503,"DIS_CODE":0,"TOWNNAME":"佳里區","LI":"東寧里","LIN":"3鄰","STREET":"新生路","SECT":" ","MAREA":" ","LANE":" ","ALLEY":" ","HOUSE_NO":"１４４號","E_COORD97":165820.37,"N_COORD97":2562316.8300000001,"ADDRESS":"新生路１４４號","OBJECTID":608476},"geometry":{"x":165820.37000000011,"y":2562316.8300000038}},{"attributes":{"ID":608504,"DIS_CODE":0,"TOWNNAME":"佳里區","LI":"建南里","LIN":"3鄰","STREET":"新生路","SECT":" ","MAREA":" ","LANE":" ","ALLEY":" ","HOUSE_NO":"２６４號","E_COORD97":165697.26999999999,"N_COORD97":2562292.3300000001,"ADDRESS":"新生路２６４號","OBJECTID":608477},"geometry":{"x":165697.27000000048,"y":2562292.3300000001}},{"attributes":{"ID":608505,"DIS_CODE":0,"TOWNNAME":"佳里區","LI":"建南里","LIN":"3鄰","STREET":"新生路","SECT":" ","MAREA":" ","LANE":" ","ALLEY":" ","HOUSE_NO":"２６６號","E_COORD97":165690.04999999999,"N_COORD97":2562291.27,"ADDRESS":"新生路２６６號","OBJECTID":608478},"geometry":{"x":165690.04999999981,"y":2562291.2699999996}},{"attributes":{"ID":608506,"DIS_CODE":0,"TOWNNAME":"佳里區","LI":"建南里","LIN":"3鄰","STREET":"新生路","SECT":" ","MAREA":" ","LANE":" ","ALLEY":" ","HOUSE_NO":"２７２號","E_COORD97":165674.42999999999,"N_COORD97":2562288.6699999999,"ADDRESS":"新生路２７２號","OBJECTID":608479},"geometry":{"x":165674.43000000063,"y":2562288.6700000018}},{"attributes":{"ID":608507,"DIS_CODE":0,"TOWNNAME":"佳里區","LI":"建南里","LIN":"3鄰","STREET":"新生路","SECT":" ","MAREA":" ","LANE":" ","ALLEY":" ","HOUSE_NO":"２７６號","E_COORD97":165667.09,"N_COORD97":2562285.7799999998,"ADDRESS":"新生路２７６號","OBJECTID":608480},"geometry":{"x":165667.09000000078,"y":2562285.7800000031}},{"attributes":{"ID":608508,"DIS_CODE":0,"TOWNNAME":"佳里區","LI":"建南里","LIN":"3鄰","STREET":"新生路","SECT":" ","MAREA":" ","LANE":" ","ALLEY":" ","HOUSE_NO":"２７８號","E_COORD97":165663.17000000001,"N_COORD97":2562284.75,"ADDRESS":"新生路２７８號","OBJECTID":608481},"geometry":{"x":165663.17000000086,"y":2562284.7500000019}},{"attributes":{"ID":608509,"DIS_CODE":0,"TOWNNAME":"佳里區","LI":"建南里","LIN":"3鄰","STREET":"新生路","SECT":" ","MAREA":" ","LANE":" ","ALLEY":" ","HOUSE_NO":"２８０號","E_COORD97":165658.39999999999,"N_COORD97":2562283.96,"ADDRESS":"新生路２８０號","OBJECTID":608482},"geometry":{"x":165658.4000000013,"y":2562283.9600000028}},{"attributes":{"ID":608510,"DIS_CODE":0,"TOWNNAME":"佳里區","LI":"建南里","LIN":"3鄰","STREET":"新生路","SECT":" ","MAREA":" ","LANE":" ","ALLEY":" ","HOUSE_NO":"２８２號之１","E_COORD97":165646.56,"N_COORD97":2562284.6400000001,"ADDRESS":"新生路２８２號之１","OBJECTID":608483},"geometry":{"x":165646.56000000052,"y":2562284.6400000043}},{"attributes":{"ID":608511,"DIS_CODE":0,"TOWNNAME":"佳里區","LI":"建南里","LIN":"3鄰","STREET":"新生路","SECT":" ","MAREA":" ","LANE":" ","ALLEY":" ","HOUSE_NO":"２８２號","E_COORD97":165653.87,"N_COORD97":2562283.48,"ADDRESS":"新生路２８２號","OBJECTID":608484},"geometry":{"x":165653.87000000011,"y":2562283.4800000023}},{"attributes":{"ID":608512,"DIS_CODE":0,"TOWNNAME":"佳里區","LI":"建南里","LIN":"3鄰","STREET":"新生路","SECT":" ","MAREA":" ","LANE":" ","ALLEY":" ","HOUSE_NO":"２８６號","E_COORD97":165637.01000000001,"N_COORD97":2562304.2799999998,"ADDRESS":"新生路２８６號","OBJECTID":608485},"geometry":{"x":165637.01000000071,"y":2562304.2799999993}},{"attributes":{"ID":608513,"DIS_CODE":0,"TOWNNAME":"佳里區","LI":"建南里","LIN":"3鄰","STREET":"新生路","SECT":" ","MAREA":" ","LANE":" ","ALLEY":" ","HOUSE_NO":"２９０號","E_COORD97":165637.16,"N_COORD97":2562282.8500000001,"ADDRESS":"新生路２９０號","OBJECTID":608486},"geometry":{"x":165637.16000000015,"y":2562282.8500000015}},{"attributes":{"ID":608514,"DIS_CODE":0,"TOWNNAME":"佳里區","LI":"建南里","LIN":"3鄰","STREET":"新生路","SECT":" ","MAREA":" ","LANE":" ","ALLEY":" ","HOUSE_NO":"２９２號","E_COORD97":165628.98000000001,"N_COORD97":2562278.8599999999,"ADDRESS":"新生路２９２號","OBJECTID":608487},"geometry":{"x":165628.98000000138,"y":2562278.8600000013}},{"attributes":{"ID":608515,"DIS_CODE":0,"TOWNNAME":"佳里區","LI":"建南里","LIN":"3鄰","STREET":"新生路","SECT":" ","MAREA":" ","LANE":" ","ALLEY":" ","HOUSE_NO":"２９４號","E_COORD97":165621.5,"N_COORD97":2562277.1400000001,"ADDRESS":"新生路２９４號","OBJECTID":608488},"geometry":{"x":165621.50000000093,"y":2562277.1400000006}},{"attributes":{"ID":608516,"DIS_CODE":0,"TOWNNAME":"佳里區","LI":"建南里","LIN":"3鄰","STREET":"新生路","SECT":" ","MAREA":" ","LANE":" ","ALLEY":" ","HOUSE_NO":"２９６號","E_COORD97":165616.47,"N_COORD97":2562276.6699999999,"ADDRESS":"新生路２９６號","OBJECTID":608489},"geometry":{"x":165616.47000000067,"y":2562276.6699999981}},{"attributes":{"ID":608517,"DIS_CODE":0,"TOWNNAME":"佳里區","LI":"建南里","LIN":"3鄰","STREET":"新生路","SECT":" ","MAREA":" ","LANE":" ","ALLEY":" ","HOUSE_NO":"２９８號","E_COORD97":165611.20000000001,"N_COORD97":2562275.0299999998,"ADDRESS":"新生路２９８號","OBJECTID":608490},"geometry":{"x":165611.20000000019,"y":2562275.0300000012}},{"attributes":{"ID":608518,"DIS_CODE":0,"TOWNNAME":"佳里區","LI":"建南里","LIN":"3鄰","STREET":"新生路","SECT":" ","MAREA":" ","LANE":" ","ALLEY":" ","HOUSE_NO":"３００號","E_COORD97":165605.29999999999,"N_COORD97":2562273.6000000001,"ADDRESS":"新生路３００號","OBJECTID":608491},"geometry":{"x":165605.29999999981,"y":2562273.6000000034}},{"attributes":{"ID":608519,"DIS_CODE":0,"TOWNNAME":"佳里區","LI":"東寧里","LIN":"3鄰","STREET":"義民街","SECT":" ","MAREA":" ","LANE":" ","ALLEY":" ","HOUSE_NO":"１０９號","E_COORD97":165843.17000000001,"N_COORD97":2562414.6600000001,"ADDRESS":"義民街１０９號","OBJECTID":608492},"geometry":{"x":165843.16999999993,"y":2562414.6600000001}},{"attributes":{"ID":608520,"DIS_CODE":0,"TOWNNAME":"佳里區","LI":"東寧里","LIN":"3鄰","STREET":"義民街","SECT":" ","MAREA":" ","LANE":" ","ALLEY":" ","HOUSE_NO":"１１１號","E_COORD97":165839.53,"N_COORD97":2562414.04,"ADDRESS":"義民街１１１號","OBJECTID":608493},"geometry":{"x":165839.53000000026,"y":2562414.040000001}},{"attributes":{"ID":608521,"DIS_CODE":0,"TOWNNAME":"佳里區","LI":"東寧里","LIN":"3鄰","STREET":"義民街","SECT":" ","MAREA":" ","LANE":" ","ALLEY":" ","HOUSE_NO":"１１３號","E_COORD97":165835.85999999999,"N_COORD97":2562413.3300000001,"ADDRESS":"義民街１１３號","OBJECTID":608494},"geometry":{"x":165835.86000000034,"y":2562413.3300000001}},{"attributes":{"ID":608522,"DIS_CODE":0,"TOWNNAME":"佳里區","LI":"東寧里","LIN":"3鄰","STREET":"義民街","SECT":" ","MAREA":" ","LANE":" ","ALLEY":" ","HOUSE_NO":"１１５號","E_COORD97":165832.13,"N_COORD97":2562412.6499999999,"ADDRESS":"義民街１１５號","OBJECTID":608495},"geometry":{"x":165832.12999999896,"y":2562412.6500000004}},{"attributes":{"ID":608523,"DIS_CODE":0,"TOWNNAME":"佳里區","LI":"東寧里","LIN":"3鄰","STREET":"義民街","SECT":" ","MAREA":" ","LANE":" ","ALLEY":" ","HOUSE_NO":"１１７號","E_COORD97":165828.35000000001,"N_COORD97":2562411.9500000002,"ADDRESS":"義民街１１７號","OBJECTID":608496},"geometry":{"x":165828.34999999963,"y":2562411.9499999993}},{"attributes":{"ID":608524,"DIS_CODE":0,"TOWNNAME":"佳里區","LI":"東寧里","LIN":"3鄰","STREET":"義民街","SECT":" ","MAREA":" ","LANE":" ","ALLEY":" ","HOUSE_NO":"１１９號","E_COORD97":165823.63,"N_COORD97":2562412.48,"ADDRESS":"義民街１１９號","OBJECTID":608497},"geometry":{"x":165823.62999999989,"y":2562412.4800000023}},{"attributes":{"ID":608525,"DIS_CODE":0,"TOWNNAME":"佳里區","LI":"東寧里","LIN":"3鄰","STREET":"義民街","SECT":" ","MAREA":" ","LANE":" ","ALLEY":" ","HOUSE_NO":"１２１號","E_COORD97":165819.23000000001,"N_COORD97":2562411.25,"ADDRESS":"義民街１２１號","OBJECTID":608498},"geometry":{"x":165819.23000000138,"y":2562411.25}},{"attributes":{"ID":608526,"DIS_CODE":0,"TOWNNAME":"佳里區","LI":"東寧里","LIN":"3鄰","STREET":"義民街","SECT":" ","MAREA":" ","LANE":" ","ALLEY":" ","HOUSE_NO":"１２３號","E_COORD97":165814.54999999999,"N_COORD97":2562410.4500000002,"ADDRESS":"義民街１２３號","OBJECTID":608499},"geometry":{"x":165814.55000000075,"y":2562410.4500000011}},{"attributes":{"ID":608527,"DIS_CODE":0,"TOWNNAME":"佳里區","LI":"東寧里","LIN":"3鄰","STREET":"義民街","SECT":" ","MAREA":" ","LANE":" ","ALLEY":" ","HOUSE_NO":"１２５號","E_COORD97":165809.72,"N_COORD97":2562409.54,"ADDRESS":"義民街１２５號","OBJECTID":608500},"geometry":{"x":165809.72000000067,"y":2562409.540000001}},{"attributes":{"ID":608528,"DIS_CODE":0,"TOWNNAME":"佳里區","LI":"東寧里","LIN":"3鄰","STREET":"義民街","SECT":" ","MAREA":" ","LANE":" ","ALLEY":" ","HOUSE_NO":"１２７號","E_COORD97":165802.79999999999,"N_COORD97":2562412.1400000001,"ADDRESS":"義民街１２７號","OBJECTID":608501},"geometry":{"x":165802.80000000075,"y":2562412.1400000006}},{"attributes":{"ID":608529,"DIS_CODE":0,"TOWNNAME":"佳里區","LI":"忠仁里","LIN":"3鄰","STREET":"興中街","SECT":" ","MAREA":" ","LANE":" ","ALLEY":" ","HOUSE_NO":"５６號","E_COORD97":165838.25,"N_COORD97":2562195.1400000001,"ADDRESS":"興中街５６號","OBJECTID":608502},"geometry":{"x":165838.24999999907,"y":2562195.1400000006}},{"attributes":{"ID":608530,"DIS_CODE":0,"TOWNNAME":"佳里區","LI":"忠仁里","LIN":"3鄰","STREET":"興中街","SECT":" ","MAREA":" ","LANE":" ","ALLEY":" ","HOUSE_NO":"５２號","E_COORD97":165847.59,"N_COORD97":2562197.25,"ADDRESS":"興中街５２號","OBJECTID":608503},"geometry":{"x":165847.58999999985,"y":2562197.25}},{"attributes":{"ID":608531,"DIS_CODE":0,"TOWNNAME":"佳里區","LI":"忠仁里","LIN":"3鄰","STREET":"興中街","SECT":" ","MAREA":" ","LANE":" ","ALLEY":" ","HOUSE_NO":"５４號","E_COORD97":165842.70000000001,"N_COORD97":2562195.54,"ADDRESS":"興中街５４號","OBJECTID":608504},"geometry":{"x":165842.70000000112,"y":2562195.5400000028}},{"attributes":{"ID":608532,"DIS_CODE":0,"TOWNNAME":"佳里區","LI":"忠仁里","LIN":"3鄰","STREET":"興中街","SECT":" ","MAREA":" ","LANE":" ","ALLEY":" ","HOUSE_NO":"６６號","E_COORD97":165814.45999999999,"N_COORD97":2562192.9500000002,"ADDRESS":"興中街６６號","OBJECTID":608505},"geometry":{"x":165814.45999999996,"y":2562192.950000003}},{"attributes":{"ID":608533,"DIS_CODE":0,"TOWNNAME":"佳里區","LI":"忠仁里","LIN":"3鄰","STREET":"興中街","SECT":" ","MAREA":" ","LANE":" ","ALLEY":" ","HOUSE_NO":"７２號","E_COORD97":165794.29000000001,"N_COORD97":2562186.71,"ADDRESS":"興中街７２號","OBJECTID":608506},"geometry":{"x":165794.29000000097,"y":2562186.7100000028}},{"attributes":{"ID":608534,"DIS_CODE":0,"TOWNNAME":"佳里區","LI":"忠仁里","LIN":"3鄰","STREET":"興中街","SECT":" ","MAREA":" ","LANE":" ","ALLEY":" ","HOUSE_NO":"８０號","E_COORD97":165779.23999999999,"N_COORD97":2562187.6299999999,"ADDRESS":"興中街８０號","OBJECTID":608507},"geometry":{"x":165779.23999999929,"y":2562187.629999999}},{"attributes":{"ID":608535,"DIS_CODE":0,"TOWNNAME":"佳里區","LI":"忠仁里","LIN":"3鄰","STREET":"興中街","SECT":" ","MAREA":" ","LANE":" ","ALLEY":" ","HOUSE_NO":"８２號","E_COORD97":165774.54000000001,"N_COORD97":2562186.71,"ADDRESS":"興中街８２號","OBJECTID":608508},"geometry":{"x":165774.54000000097,"y":2562186.7100000028}},{"attributes":{"ID":608536,"DIS_CODE":0,"TOWNNAME":"永康區","LI":"永康里","LIN":"3鄰","STREET":"中山路","SECT":" ","MAREA":" ","LANE":" ","ALLEY":" ","HOUSE_NO":"４０號","E_COORD97":173858.04999999999,"N_COORD97":2547485.7999999998,"ADDRESS":"中山路４０號","OBJECTID":608509},"geometry":{"x":173858.05000000075,"y":2547485.8000000026}},{"attributes":{"ID":608537,"DIS_CODE":0,"TOWNNAME":"永康區","LI":"六合里","LIN":"3鄰","STREET":"中山南路","SECT":" ","MAREA":" ","LANE":" ","ALLEY":" ","HOUSE_NO":"１３８號","E_COORD97":171114.92000000001,"N_COORD97":2545956.9900000002,"ADDRESS":"中山南路１３８號","OBJECTID":608510},"geometry":{"x":171114.92000000086,"y":2545956.9900000039}},{"attributes":{"ID":608538,"DIS_CODE":0,"TOWNNAME":"永康區","LI":"六合里","LIN":"3鄰","STREET":"中山南路","SECT":" ","MAREA":" ","LANE":" ","ALLEY":" ","HOUSE_NO":"１４８號","E_COORD97":171136.13,"N_COORD97":2545964.7400000002,"ADDRESS":"中山南路１４８號","OBJECTID":608511},"geometry":{"x":171136.12999999989,"y":2545964.7400000002}},{"attributes":{"ID":608539,"DIS_CODE":0,"TOWNNAME":"永康區","LI":"永康里","LIN":"3鄰","STREET":"中山路","SECT":" ","MAREA":" ","LANE":" ","ALLEY":" ","HOUSE_NO":"４２號","E_COORD97":173856.97,"N_COORD97":2547490.0499999998,"ADDRESS":"中山路４２號","OBJECTID":608512},"geometry":{"x":173856.97000000067,"y":2547490.0500000026}},{"attributes":{"ID":608540,"DIS_CODE":0,"TOWNNAME":"永康區","LI":"永康里","LIN":"3鄰","STREET":"中山路","SECT":" ","MAREA":" ","LANE":" ","ALLEY":" ","HOUSE_NO":"３３號","E_COORD97":173823.32999999999,"N_COORD97":2547497.4900000002,"ADDRESS":"中山路３３號","OBJECTID":608513},"geometry":{"x":173823.33000000007,"y":2547497.4900000021}},{"attributes":{"ID":608541,"DIS_CODE":0,"TOWNNAME":"永康區","LI":"六合里","LIN":"3鄰","STREET":"中山南路","SECT":" ","MAREA":" ","LANE":" ","ALLEY":" ","HOUSE_NO":"１３４號","E_COORD97":171106.42999999999,"N_COORD97":2545954.2400000002,"ADDRESS":"中山南路１３４號","OBJECTID":608514},"geometry":{"x":171106.4299999997,"y":2545954.2400000002}},{"attributes":{"ID":608542,"DIS_CODE":0,"TOWNNAME":"永康區","LI":"龍潭里","LIN":"3鄰","STREET":"龍安街","SECT":" ","MAREA":" ","LANE":" ","ALLEY":" ","HOUSE_NO":"９號","E_COORD97":174559.31,"N_COORD97":2548060.1699999999,"ADDRESS":"龍安街９號","OBJECTID":608515},"geometry":{"x":174559.31000000145,"y":2548060.1699999999}},{"attributes":{"ID":608543,"DIS_CODE":0,"TOWNNAME":"永康區","LI":"北灣里","LIN":"3鄰","STREET":"文賢街","SECT":" ","MAREA":" ","LANE":" ","ALLEY":" ","HOUSE_NO":"１４８號","E_COORD97":175387.82999999999,"N_COORD97":2545595.5299999998,"ADDRESS":"文賢街１４８號","OBJECTID":608516},"geometry":{"x":175387.83000000007,"y":2545595.5299999993}},{"attributes":{"ID":608544,"DIS_CODE":0,"TOWNNAME":"永康區","LI":"二王里","LIN":"3鄰","STREET":"永二街","SECT":" ","MAREA":" ","LANE":" ","ALLEY":" ","HOUSE_NO":"３３６號之５","E_COORD97":172998.09,"N_COORD97":2546630.4700000002,"ADDRESS":"永二街３３６號之５","OBJECTID":608517},"geometry":{"x":172998.09000000171,"y":2546630.4700000025}},{"attributes":{"ID":608545,"DIS_CODE":0,"TOWNNAME":"永康區","LI":"網寮里","LIN":"3鄰","STREET":"永二街","SECT":" ","MAREA":" ","LANE":" ","ALLEY":" ","HOUSE_NO":"４４號","E_COORD97":173607.69,"N_COORD97":2546712.0800000001,"ADDRESS":"永二街４４號","OBJECTID":608518},"geometry":{"x":173607.69000000041,"y":2546712.0800000001}},{"attributes":{"ID":608546,"DIS_CODE":0,"TOWNNAME":"永康區","LI":"南灣里","LIN":"3鄰","STREET":"大灣路","SECT":" ","MAREA":" ","LANE":" ","ALLEY":" ","HOUSE_NO":"５３３號","E_COORD97":174485.63,"N_COORD97":2544578.9700000002,"ADDRESS":"大灣路５３３號","OBJECTID":608519},"geometry":{"x":174485.62999999989,"y":2544578.9700000025}},{"attributes":{"ID":608547,"DIS_CODE":0,"TOWNNAME":"永康區","LI":"南灣里","LIN":"3鄰","STREET":"大灣路","SECT":" ","MAREA":" ","LANE":" ","ALLEY":" ","HOUSE_NO":"５１５號","E_COORD97":174526.79000000001,"N_COORD97":2544586.5299999998,"ADDRESS":"大灣路５１５號","OBJECTID":608520},"geometry":{"x":174526.79000000097,"y":2544586.5300000012}},{"attributes":{"ID":608548,"DIS_CODE":0,"TOWNNAME":"永康區","LI":"五王里","LIN":"28鄰","STREET":"五福街","SECT":" ","MAREA":" ","LANE":" ","ALLEY":" ","HOUSE_NO":"１４０號","E_COORD97":171593.32000000001,"N_COORD97":2546009,"ADDRESS":"五福街１４０號","OBJECTID":608521},"geometry":{"x":171593.32000000216,"y":2546009.0000000019}},{"attributes":{"ID":608549,"DIS_CODE":0,"TOWNNAME":"永康區","LI":"南灣里","LIN":"3鄰","STREET":"大灣路","SECT":" ","MAREA":" ","LANE":" ","ALLEY":" ","HOUSE_NO":"５２３號","E_COORD97":174501.73999999999,"N_COORD97":2544581.1000000001,"ADDRESS":"大灣路５２３號","OBJECTID":608522},"geometry":{"x":174501.74000000115,"y":2544581.0999999996}},{"attributes":{"ID":608550,"DIS_CODE":0,"TOWNNAME":"永康區","LI":"烏竹里","LIN":"3鄰","STREET":"竹園二街","SECT":" ","MAREA":" ","LANE":" ","ALLEY":" ","HOUSE_NO":"１８９號","E_COORD97":174637.5,"N_COORD97":2549344.5,"ADDRESS":"竹園二街１８９號","OBJECTID":608523},"geometry":{"x":174637.5,"y":2549344.5000000019}},{"attributes":{"ID":608551,"DIS_CODE":0,"TOWNNAME":"永康區","LI":"五王里","LIN":"34鄰","STREET":"五福街","SECT":" ","MAREA":" ","LANE":" ","ALLEY":" ","HOUSE_NO":"５７號","E_COORD97":171370.62,"N_COORD97":2545922.75,"ADDRESS":"五福街５７號","OBJECTID":608524},"geometry":{"x":171370.61999999918,"y":2545922.7500000019}},{"attributes":{"ID":608552,"DIS_CODE":0,"TOWNNAME":"新市區","LI":"新和里","LIN":"17鄰","STREET":"銘傳街","SECT":" ","MAREA":" ","LANE":" ","ALLEY":" ","HOUSE_NO":"２２號","E_COORD97":177508.48999999999,"N_COORD97":2552664.75,"ADDRESS":"銘傳街２２號","OBJECTID":608525},"geometry":{"x":177508.49000000115,"y":2552664.7500000037}},{"attributes":{"ID":608553,"DIS_CODE":0,"TOWNNAME":"永康區","LI":"烏竹里","LIN":"3鄰","STREET":"竹園二街","SECT":" ","MAREA":" ","LANE":" ","ALLEY":" ","HOUSE_NO":"１８５號","E_COORD97":174619.56,"N_COORD97":2549329.3500000001,"ADDRESS":"竹園二街１８５號","OBJECTID":608526},"geometry":{"x":174619.55999999959,"y":2549329.3499999996}},{"attributes":{"ID":608554,"DIS_CODE":0,"TOWNNAME":"永康區","LI":"東灣里","LIN":"3鄰","STREET":"大安街","SECT":" ","MAREA":" ","LANE":" ","ALLEY":" ","HOUSE_NO":"１３８號","E_COORD97":174562.75,"N_COORD97":2545077.6400000001,"ADDRESS":"大安街１３８號","OBJECTID":608527},"geometry":{"x":174562.75,"y":2545077.6400000006}},{"attributes":{"ID":608555,"DIS_CODE":0,"TOWNNAME":"安南區","LI":"溪心里","LIN":"3鄰","STREET":"安中路","SECT":"二段","MAREA":" ","LANE":" ","ALLEY":" ","HOUSE_NO":"１３６號","E_COORD97":166780.07999999999,"N_COORD97":2549656.6000000001,"ADDRESS":"安中路二段１３６號","OBJECTID":608528},"geometry":{"x":166780.08000000007,"y":2549656.5999999996}},{"attributes":{"ID":608556,"DIS_CODE":0,"TOWNNAME":"安南區","LI":"四草里","LIN":"3鄰","STREET":"大眾路","SECT":" ","MAREA":" ","LANE":" ","ALLEY":" ","HOUSE_NO":"４５０號","E_COORD97":161042.82685499999,"N_COORD97":2546593.1765600001,"ADDRESS":"大眾路４５０號","OBJECTID":608529},"geometry":{"x":161042.82685500104,"y":2546593.1765640043}},{"attributes":{"ID":608557,"DIS_CODE":0,"TOWNNAME":"安南區","LI":"四草里","LIN":"3鄰","STREET":"大眾路","SECT":" ","MAREA":" ","LANE":" ","ALLEY":" ","HOUSE_NO":"４８９號","E_COORD97":161030.01346300001,"N_COORD97":2546523.3870100002,"ADDRESS":"大眾路４８９號","OBJECTID":608530},"geometry":{"x":161030.01346299984,"y":2546523.3870110009}},{"attributes":{"ID":608558,"DIS_CODE":0,"TOWNNAME":"安南區","LI":"四草里","LIN":"3鄰","STREET":"大眾路","SECT":" ","MAREA":" ","LANE":" ","ALLEY":" ","HOUSE_NO":"３８７之２４６號","E_COORD97":161448.06,"N_COORD97":2546315.6299999999,"ADDRESS":"大眾路３８７之２４６號","OBJECTID":608531},"geometry":{"x":161448.05999999959,"y":2546315.6300000008}},{"attributes":{"ID":608559,"DIS_CODE":0,"TOWNNAME":"安南區","LI":"四草里","LIN":"3鄰","STREET":"大眾路","SECT":" ","MAREA":" ","LANE":" ","ALLEY":" ","HOUSE_NO":"３８７之２３６號","E_COORD97":161452.03,"N_COORD97":2546239.1600000001,"ADDRESS":"大眾路３８７之２３６號","OBJECTID":608532},"geometry":{"x":161452.03000000119,"y":2546239.1600000001}},{"attributes":{"ID":608560,"DIS_CODE":0,"TOWNNAME":"安南區","LI":"學東里","LIN":"3鄰","STREET":"公學路","SECT":"七段","MAREA":" ","LANE":" ","ALLEY":" ","HOUSE_NO":"５８之１號","E_COORD97":161894.56,"N_COORD97":2553381.96,"ADDRESS":"公學路七段５８之１號","OBJECTID":608533},"geometry":{"x":161894.56000000145,"y":2553381.9600000009}},{"attributes":{"ID":608561,"DIS_CODE":0,"TOWNNAME":"安南區","LI":"溪心里","LIN":"3鄰","STREET":"安中路","SECT":"二段","MAREA":" ","LANE":" ","ALLEY":" ","HOUSE_NO":"１８０號","E_COORD97":166699.54000000001,"N_COORD97":2549674.8300000001,"ADDRESS":"安中路二段１８０號","OBJECTID":608534},"geometry":{"x":166699.54000000097,"y":2549674.8300000019}},{"attributes":{"ID":608562,"DIS_CODE":0,"TOWNNAME":"安南區","LI":"溪心里","LIN":"3鄰","STREET":"安中路","SECT":"二段","MAREA":" ","LANE":" ","ALLEY":" ","HOUSE_NO":"１６６號","E_COORD97":166725,"N_COORD97":2549668.0299999998,"ADDRESS":"安中路二段１６６號","OBJECTID":608535},"geometry":{"x":166725.00000000186,"y":2549668.0299999993}},{"attributes":{"ID":608563,"DIS_CODE":0,"TOWNNAME":"安南區","LI":"溪心里","LIN":"3鄰","STREET":"安中路","SECT":"二段","MAREA":" ","LANE":" ","ALLEY":" ","HOUSE_NO":"１６８號","E_COORD97":166720.98000000001,"N_COORD97":2549668.48,"ADDRESS":"安中路二段１６８號","OBJECTID":608536},"geometry":{"x":166720.98000000138,"y":2549668.4800000004}},{"attributes":{"ID":608564,"DIS_CODE":0,"TOWNNAME":"安南區","LI":"溪心里","LIN":"3鄰","STREET":"安中路","SECT":"二段","MAREA":" ","LANE":" ","ALLEY":" ","HOUSE_NO":"１７０號","E_COORD97":166717.01000000001,"N_COORD97":2549669.8100000001,"ADDRESS":"安中路二段１７０號","OBJECTID":608537},"geometry":{"x":166717.00999999978,"y":2549669.8100000005}},{"attributes":{"ID":608565,"DIS_CODE":0,"TOWNNAME":"安南區","LI":"溪心里","LIN":"3鄰","STREET":"安中路","SECT":"二段","MAREA":" ","LANE":" ","ALLEY":" ","HOUSE_NO":"１７２號","E_COORD97":166712.51000000001,"N_COORD97":2549671.3900000001,"ADDRESS":"安中路二段１７２號","OBJECTID":608538},"geometry":{"x":166712.50999999978,"y":2549671.3900000025}},{"attributes":{"ID":608566,"DIS_CODE":0,"TOWNNAME":"永康區","LI":"北灣里","LIN":"25鄰","STREET":"大同街","SECT":" ","MAREA":" ","LANE":" ","ALLEY":" ","HOUSE_NO":"３７號","E_COORD97":175238.79999999999,"N_COORD97":2545411,"ADDRESS":"大同街３７號","OBJECTID":608539},"geometry":{"x":175238.79999999981,"y":2545411.0000000037}},{"attributes":{"ID":608567,"DIS_CODE":0,"TOWNNAME":"永康區","LI":"北灣里","LIN":"12鄰","STREET":"大民街","SECT":" ","MAREA":" ","LANE":" ","ALLEY":" ","HOUSE_NO":"１７２號","E_COORD97":174922.51000000001,"N_COORD97":2545702.3399999999,"ADDRESS":"大民街１７２號","OBJECTID":608540},"geometry":{"x":174922.51000000164,"y":2545702.3399999999}},{"attributes":{"ID":608568,"DIS_CODE":0,"TOWNNAME":"永康區","LI":"五王里","LIN":"21鄰","STREET":"振興路","SECT":" ","MAREA":" ","LANE":" ","ALLEY":" ","HOUSE_NO":"６３號","E_COORD97":171505.42000000001,"N_COORD97":2545837.7400000002,"ADDRESS":"振興路６３號","OBJECTID":608541},"geometry":{"x":171505.41999999993,"y":2545837.7400000021}},{"attributes":{"ID":608569,"DIS_CODE":0,"TOWNNAME":"安南區","LI":"溪心里","LIN":"3鄰","STREET":"安中路","SECT":"二段","MAREA":" ","LANE":" ","ALLEY":" ","HOUSE_NO":"１７６號","E_COORD97":166708.01000000001,"N_COORD97":2549672.1899999999,"ADDRESS":"安中路二段１７６號","OBJECTID":608542},"geometry":{"x":166708.01000000071,"y":2549672.1900000013}},{"attributes":{"ID":608570,"DIS_CODE":0,"TOWNNAME":"安南區","LI":"溪心里","LIN":"3鄰","STREET":"安中路","SECT":"二段","MAREA":" ","LANE":" ","ALLEY":" ","HOUSE_NO":"１７８號","E_COORD97":166703.25,"N_COORD97":2549673.5099999998,"ADDRESS":"安中路二段１７８號","OBJECTID":608543},"geometry":{"x":166703.25000000093,"y":2549673.5100000016}},{"attributes":{"ID":608571,"DIS_CODE":0,"TOWNNAME":"安南區","LI":"溪心里","LIN":"3鄰","STREET":"安中路","SECT":"二段","MAREA":" ","LANE":" ","ALLEY":" ","HOUSE_NO":"１８２號","E_COORD97":166696.89999999999,"N_COORD97":2549673.5099999998,"ADDRESS":"安中路二段１８２號","OBJECTID":608544},"geometry":{"x":166696.90000000037,"y":2549673.5100000016}},{"attributes":{"ID":608572,"DIS_CODE":0,"TOWNNAME":"安南區","LI":"溪心里","LIN":"3鄰","STREET":"安中路","SECT":"二段","MAREA":" ","LANE":" ","ALLEY":" ","HOUSE_NO":"１８６號","E_COORD97":166691.87,"N_COORD97":2549676.4199999999,"ADDRESS":"安中路二段１８６號","OBJECTID":608545},"geometry":{"x":166691.87000000011,"y":2549676.4200000037}},{"attributes":{"ID":608573,"DIS_CODE":0,"TOWNNAME":"安南區","LI":"溪心里","LIN":"3鄰","STREET":"安中路","SECT":"二段","MAREA":" ","LANE":" ","ALLEY":" ","HOUSE_NO":"１８８號","E_COORD97":166688.70000000001,"N_COORD97":2549677.48,"ADDRESS":"安中路二段１８８號","OBJECTID":608546},"geometry":{"x":166688.70000000112,"y":2549677.4800000023}},{"attributes":{"ID":608574,"DIS_CODE":0,"TOWNNAME":"安南區","LI":"顯宮里","LIN":"3鄰","STREET":"北汕尾三路","SECT":" ","MAREA":" ","LANE":" ","ALLEY":" ","HOUSE_NO":"５４０號","E_COORD97":162104.06,"N_COORD97":2550979.1099999999,"ADDRESS":"北汕尾三路５４０號","OBJECTID":608547},"geometry":{"x":162104.05999999959,"y":2550979.1099999994}},{"attributes":{"ID":608575,"DIS_CODE":0,"TOWNNAME":"安南區","LI":"州南里","LIN":"3鄰","STREET":"北安路","SECT":"四段","MAREA":" ","LANE":" ","ALLEY":" ","HOUSE_NO":"１７１之８號","E_COORD97":169452.72,"N_COORD97":2551347.8500000001,"ADDRESS":"北安路四段１７１之８號","OBJECTID":608548},"geometry":{"x":169452.72000000067,"y":2551347.8499999978}},{"attributes":{"ID":608576,"DIS_CODE":0,"TOWNNAME":"安南區","LI":"顯宮里","LIN":"3鄰","STREET":"科技一路","SECT":" ","MAREA":" ","LANE":" ","ALLEY":" ","HOUSE_NO":"２號","E_COORD97":163185.22,"N_COORD97":2549401.23,"ADDRESS":"科技一路２號","OBJECTID":608549},"geometry":{"x":163185.21999999881,"y":2549401.2300000023}},{"attributes":{"ID":608577,"DIS_CODE":0,"TOWNNAME":"安南區","LI":"顯宮里","LIN":"3鄰","STREET":"科技五路","SECT":" ","MAREA":" ","LANE":" ","ALLEY":" ","HOUSE_NO":"７號","E_COORD97":162373.67999999999,"N_COORD97":2549843.52,"ADDRESS":"科技五路７號","OBJECTID":608550},"geometry":{"x":162373.68000000063,"y":2549843.5199999996}},{"attributes":{"ID":608578,"DIS_CODE":0,"TOWNNAME":"安南區","LI":"顯宮里","LIN":"3鄰","STREET":"工業一路","SECT":" ","MAREA":" ","LANE":" ","ALLEY":" ","HOUSE_NO":"１０１號","E_COORD97":162386.38,"N_COORD97":2549706.3599999999,"ADDRESS":"工業一路１０１號","OBJECTID":608551},"geometry":{"x":162386.38000000082,"y":2549706.3599999994}},{"attributes":{"ID":608579,"DIS_CODE":0,"TOWNNAME":"安南區","LI":"顯宮里","LIN":"3鄰","STREET":"工業二路","SECT":" ","MAREA":" ","LANE":" ","ALLEY":" ","HOUSE_NO":"１５０號","E_COORD97":162360.35000000001,"N_COORD97":2549662.54,"ADDRESS":"工業二路１５０號","OBJECTID":608552},"geometry":{"x":162360.3499999987,"y":2549662.540000001}},{"attributes":{"ID":608580,"DIS_CODE":0,"TOWNNAME":"安南區","LI":"顯宮里","LIN":"3鄰","STREET":"工業二路","SECT":" ","MAREA":" ","LANE":" ","ALLEY":" ","HOUSE_NO":"１２８號","E_COORD97":162432.73999999999,"N_COORD97":2549618.73,"ADDRESS":"工業二路１２８號","OBJECTID":608553},"geometry":{"x":162432.74000000022,"y":2549618.7300000023}},{"attributes":{"ID":608581,"DIS_CODE":0,"TOWNNAME":"安南區","LI":"顯宮里","LIN":"3鄰","STREET":"科技公園大道","SECT":" ","MAREA":" ","LANE":" ","ALLEY":" ","HOUSE_NO":"１號","E_COORD97":162646.10000000001,"N_COORD97":2549563.7999999998,"ADDRESS":"科技公園大道１號","OBJECTID":608554},"geometry":{"x":162646.09999999963,"y":2549563.8000000026}},{"attributes":{"ID":608582,"DIS_CODE":0,"TOWNNAME":"安南區","LI":"顯宮里","LIN":"3鄰","STREET":"工業二路","SECT":" ","MAREA":" ","LANE":" ","ALLEY":" ","HOUSE_NO":"１００號","E_COORD97":162658.48000000001,"N_COORD97":2549411.71,"ADDRESS":"工業二路１００號","OBJECTID":608555},"geometry":{"x":162658.48000000045,"y":2549411.7100000028}},{"attributes":{"ID":608583,"DIS_CODE":0,"TOWNNAME":"安南區","LI":"顯宮里","LIN":"3鄰","STREET":"工業二路","SECT":" ","MAREA":" ","LANE":" ","ALLEY":" ","HOUSE_NO":"８６號","E_COORD97":162861.04999999999,"N_COORD97":2549260.2599999998,"ADDRESS":"工業二路８６號","OBJECTID":608556},"geometry":{"x":162861.05000000168,"y":2549260.2600000035}},{"attributes":{"ID":608584,"DIS_CODE":0,"TOWNNAME":"安南區","LI":"顯宮里","LIN":"3鄰","STREET":"科技一路","SECT":" ","MAREA":" ","LANE":" ","ALLEY":" ","HOUSE_NO":"２２號","E_COORD97":162901.94,"N_COORD97":2549057.7000000002,"ADDRESS":"科技一路２２號","OBJECTID":608557},"geometry":{"x":162901.94000000134,"y":2549057.7000000011}},{"attributes":{"ID":608585,"DIS_CODE":0,"TOWNNAME":"安南區","LI":"顯宮里","LIN":"3鄰","STREET":"工業三路","SECT":" ","MAREA":" ","LANE":" ","ALLEY":" ","HOUSE_NO":"６６號","E_COORD97":162603.79999999999,"N_COORD97":2548985.9500000002,"ADDRESS":"工業三路６６號","OBJECTID":608558},"geometry":{"x":162603.80000000075,"y":2548985.9499999993}},{"attributes":{"ID":608586,"DIS_CODE":0,"TOWNNAME":"安南區","LI":"顯宮里","LIN":"3鄰","STREET":"科技二路","SECT":" ","MAREA":" ","LANE":" ","ALLEY":" ","HOUSE_NO":"１號","E_COORD97":162665.39999999999,"N_COORD97":2549228.2000000002,"ADDRESS":"科技二路１號","OBJECTID":608559},"geometry":{"x":162665.40000000037,"y":2549228.1999999993}},{"attributes":{"ID":608587,"DIS_CODE":0,"TOWNNAME":"安南區","LI":"顯宮里","LIN":"3鄰","STREET":"科技二路","SECT":" ","MAREA":" ","LANE":" ","ALLEY":" ","HOUSE_NO":"３號","E_COORD97":162643.48999999999,"N_COORD97":2549195.8199999998,"ADDRESS":"科技二路３號","OBJECTID":608560},"geometry":{"x":162643.49000000115,"y":2549195.8200000003}},{"attributes":{"ID":608588,"DIS_CODE":0,"TOWNNAME":"安南區","LI":"顯宮里","LIN":"3鄰","STREET":"科技三路","SECT":" ","MAREA":" ","LANE":" ","ALLEY":" ","HOUSE_NO":"６號","E_COORD97":162352.98000000001,"N_COORD97":2549535.8599999999,"ADDRESS":"科技三路６號","OBJECTID":608561},"geometry":{"x":162352.98000000045,"y":2549535.8599999994}},{"attributes":{"ID":608589,"DIS_CODE":0,"TOWNNAME":"安南區","LI":"顯宮里","LIN":"3鄰","STREET":"科技五路","SECT":" ","MAREA":" ","LANE":" ","ALLEY":" ","HOUSE_NO":"３１號","E_COORD97":162068.82000000001,"N_COORD97":2549459.3500000001,"ADDRESS":"科技五路３１號","OBJECTID":608562},"geometry":{"x":162068.82000000123,"y":2549459.3499999996}},{"attributes":{"ID":608590,"DIS_CODE":0,"TOWNNAME":"安南區","LI":"顯宮里","LIN":"3鄰","STREET":"工業三路","SECT":" ","MAREA":" ","LANE":" ","ALLEY":" ","HOUSE_NO":"９０號","E_COORD97":162162.48000000001,"N_COORD97":2549334.5699999998,"ADDRESS":"工業三路９０號","OBJECTID":608563},"geometry":{"x":162162.48000000138,"y":2549334.5700000022}},{"attributes":{"ID":608591,"DIS_CODE":0,"TOWNNAME":"安南區","LI":"顯宮里","LIN":"3鄰","STREET":"科技三路","SECT":" ","MAREA":" ","LANE":" ","ALLEY":" ","HOUSE_NO":"４０號","E_COORD97":162003.09,"N_COORD97":2549103.5899999999,"ADDRESS":"科技三路４０號","OBJECTID":608564},"geometry":{"x":162003.09000000171,"y":2549103.5900000017}},{"attributes":{"ID":608592,"DIS_CODE":0,"TOWNNAME":"安南區","LI":"顯宮里","LIN":"3鄰","STREET":"工業三路","SECT":" ","MAREA":" ","LANE":" ","ALLEY":" ","HOUSE_NO":"１０５號","E_COORD97":162005,"N_COORD97":2549380.1299999999,"ADDRESS":"工業三路１０５號","OBJECTID":608565},"geometry":{"x":162005,"y":2549380.1300000008}},{"attributes":{"ID":608593,"DIS_CODE":0,"TOWNNAME":"安南區","LI":"顯宮里","LIN":"3鄰","STREET":"科技五路","SECT":" ","MAREA":" ","LANE":" ","ALLEY":" ","HOUSE_NO":"５１號","E_COORD97":161907.84,"N_COORD97":2549262.9700000002,"ADDRESS":"科技五路５１號","OBJECTID":608566},"geometry":{"x":161907.83999999985,"y":2549262.9700000007}},{"attributes":{"ID":608594,"DIS_CODE":0,"TOWNNAME":"安南區","LI":"顯宮里","LIN":"3鄰","STREET":"工業五路","SECT":" ","MAREA":" ","LANE":" ","ALLEY":" ","HOUSE_NO":"２０號","E_COORD97":161973.56,"N_COORD97":2549125.1800000002,"ADDRESS":"工業五路２０號","OBJECTID":608567},"geometry":{"x":161973.55999999959,"y":2549125.1800000034}},{"attributes":{"ID":608595,"DIS_CODE":0,"TOWNNAME":"永康區","LI":"正強里","LIN":"32鄰","STREET":"四維街","SECT":" ","MAREA":" ","LANE":" ","ALLEY":" ","HOUSE_NO":"３３號","E_COORD97":173406.42000000001,"N_COORD97":2548024.5800000001,"ADDRESS":"四維街３３號","OBJECTID":608568},"geometry":{"x":173406.42000000086,"y":2548024.5800000038}},{"attributes":{"ID":608596,"DIS_CODE":0,"TOWNNAME":"永康區","LI":"六合里","LIN":"1鄰","STREET":"新興街","SECT":" ","MAREA":" ","LANE":" ","ALLEY":" ","HOUSE_NO":"１２之３號","E_COORD97":170942.14999999999,"N_COORD97":2545784.2400000002,"ADDRESS":"新興街１２之３號","OBJECTID":608569},"geometry":{"x":170942.1500000013,"y":2545784.2400000002}},{"attributes":{"ID":608597,"DIS_CODE":0,"TOWNNAME":"安南區","LI":"顯宮里","LIN":"3鄰","STREET":"工業五路","SECT":" ","MAREA":" ","LANE":" ","ALLEY":" ","HOUSE_NO":"２２號","E_COORD97":161951.97,"N_COORD97":2549141.0499999998,"ADDRESS":"工業五路２２號","OBJECTID":608570},"geometry":{"x":161951.97000000067,"y":2549141.0500000045}},{"attributes":{"ID":608598,"DIS_CODE":0,"TOWNNAME":"安南區","LI":"顯宮里","LIN":"3鄰","STREET":"工業五路","SECT":" ","MAREA":" ","LANE":" ","ALLEY":" ","HOUSE_NO":"２６號","E_COORD97":161930.07000000001,"N_COORD97":2549161.3700000001,"ADDRESS":"工業五路２６號","OBJECTID":608571},"geometry":{"x":161930.0700000003,"y":2549161.370000001}},{"attributes":{"ID":608599,"DIS_CODE":0,"TOWNNAME":"安南區","LI":"顯宮里","LIN":"3鄰","STREET":"工業五路","SECT":" ","MAREA":" ","LANE":" ","ALLEY":" ","HOUSE_NO":"２８號","E_COORD97":161905.62,"N_COORD97":2549179.4700000002,"ADDRESS":"工業五路２８號","OBJECTID":608572},"geometry":{"x":161905.62000000104,"y":2549179.4700000025}},{"attributes":{"ID":608600,"DIS_CODE":0,"TOWNNAME":"安南區","LI":"顯宮里","LIN":"3鄰","STREET":"工業五路","SECT":" ","MAREA":" ","LANE":" ","ALLEY":" ","HOUSE_NO":"６５號","E_COORD97":161640.19,"N_COORD97":2549287.1000000001,"ADDRESS":"工業五路６５號","OBJECTID":608573},"geometry":{"x":161640.19000000227,"y":2549287.0999999996}},{"attributes":{"ID":608601,"DIS_CODE":0,"TOWNNAME":"安南區","LI":"顯宮里","LIN":"3鄰","STREET":"科技二路","SECT":" ","MAREA":" ","LANE":" ","ALLEY":" ","HOUSE_NO":"９號","E_COORD97":162233.91,"N_COORD97":2548703.2200000002,"ADDRESS":"科技二路９號","OBJECTID":608574},"geometry":{"x":162233.91000000108,"y":2548703.2200000025}},{"attributes":{"ID":608602,"DIS_CODE":0,"TOWNNAME":"安南區","LI":"顯宮里","LIN":"3鄰","STREET":"工業六路","SECT":" ","MAREA":" ","LANE":" ","ALLEY":" ","HOUSE_NO":"３２號","E_COORD97":161712.10999999999,"N_COORD97":2548885.3300000001,"ADDRESS":"工業六路３２號","OBJECTID":608575},"geometry":{"x":161712.11000000127,"y":2548885.3300000019}},{"attributes":{"ID":608603,"DIS_CODE":0,"TOWNNAME":"安南區","LI":"顯宮里","LIN":"3鄰","STREET":"科技三路","SECT":" ","MAREA":" ","LANE":" ","ALLEY":" ","HOUSE_NO":"６８號","E_COORD97":161790.29999999999,"N_COORD97":2548833.7400000002,"ADDRESS":"科技三路６８號","OBJECTID":608576},"geometry":{"x":161790.30000000075,"y":2548833.7400000039}},{"attributes":{"ID":608604,"DIS_CODE":0,"TOWNNAME":"安南區","LI":"顯宮里","LIN":"3鄰","STREET":"工業六路","SECT":" ","MAREA":" ","LANE":" ","ALLEY":" ","HOUSE_NO":"１０號","E_COORD97":162206.62,"N_COORD97":2548519.8100000001,"ADDRESS":"工業六路１０號","OBJECTID":608577},"geometry":{"x":162206.62000000197,"y":2548519.8100000024}},{"attributes":{"ID":608605,"DIS_CODE":0,"TOWNNAME":"安南區","LI":"顯宮里","LIN":"3鄰","STREET":"工業六路","SECT":" ","MAREA":" ","LANE":" ","ALLEY":" ","HOUSE_NO":"８號","E_COORD97":162259.41,"N_COORD97":2548461.46,"ADDRESS":"工業六路８號","OBJECTID":608578},"geometry":{"x":162259.41000000108,"y":2548461.4600000028}},{"attributes":{"ID":608606,"DIS_CODE":0,"TOWNNAME":"安南區","LI":"顯宮里","LIN":"3鄰","STREET":"工業六路","SECT":" ","MAREA":" ","LANE":" ","ALLEY":" ","HOUSE_NO":"４５號","E_COORD97":161485.5,"N_COORD97":2548976.4199999999,"ADDRESS":"工業六路４５號","OBJECTID":608579},"geometry":{"x":161485.50000000093,"y":2548976.4199999999}},{"attributes":{"ID":608607,"DIS_CODE":0,"TOWNNAME":"安南區","LI":"顯宮里","LIN":"3鄰","STREET":"工業七路","SECT":" ","MAREA":" ","LANE":" ","ALLEY":" ","HOUSE_NO":"１號","E_COORD97":161661.70999999999,"N_COORD97":2548593.8300000001,"ADDRESS":"工業七路１號","OBJECTID":608580},"geometry":{"x":161661.71000000183,"y":2548593.8300000019}},{"attributes":{"ID":608608,"DIS_CODE":0,"TOWNNAME":"安南區","LI":"顯宮里","LIN":"3鄰","STREET":"工業二路","SECT":" ","MAREA":" ","LANE":" ","ALLEY":" ","HOUSE_NO":"５９號","E_COORD97":162847.07999999999,"N_COORD97":2549159.1400000001,"ADDRESS":"工業二路５９號","OBJECTID":608581},"geometry":{"x":162847.08000000007,"y":2549159.1400000006}},{"attributes":{"ID":608609,"DIS_CODE":0,"TOWNNAME":"安南區","LI":"顯宮里","LIN":"3鄰","STREET":"工業七路","SECT":" ","MAREA":" ","LANE":" ","ALLEY":" ","HOUSE_NO":"１３號","E_COORD97":161554.13,"N_COORD97":2548598.8799999999,"ADDRESS":"工業七路１３號","OBJECTID":608582},"geometry":{"x":161554.13000000082,"y":2548598.8800000008}},{"attributes":{"ID":608610,"DIS_CODE":0,"TOWNNAME":"安南區","LI":"顯宮里","LIN":"3鄰","STREET":"工業八路","SECT":" ","MAREA":" ","LANE":" ","ALLEY":" ","HOUSE_NO":"１８號","E_COORD97":161639.69,"N_COORD97":2548340.04,"ADDRESS":"工業八路１８號","OBJECTID":608583},"geometry":{"x":161639.69000000041,"y":2548340.040000001}},{"attributes":{"ID":608611,"DIS_CODE":0,"TOWNNAME":"安南區","LI":"顯宮里","LIN":"3鄰","STREET":"工業二路","SECT":" ","MAREA":" ","LANE":" ","ALLEY":" ","HOUSE_NO":"６１號","E_COORD97":162774.69,"N_COORD97":2549198.1899999999,"ADDRESS":"工業二路６１號","OBJECTID":608584},"geometry":{"x":162774.69000000134,"y":2549198.1899999995}},{"attributes":{"ID":608612,"DIS_CODE":0,"TOWNNAME":"安南區","LI":"顯宮里","LIN":"3鄰","STREET":"工業二路","SECT":" ","MAREA":" ","LANE":" ","ALLEY":" ","HOUSE_NO":"１５２號","E_COORD97":162336.54000000001,"N_COORD97":2549669.3700000001,"ADDRESS":"工業二路１５２號","OBJECTID":608585},"geometry":{"x":162336.54000000097,"y":2549669.3700000029}},{"attributes":{"ID":608613,"DIS_CODE":0,"TOWNNAME":"南區","LI":"明興里","LIN":"3鄰","STREET":"金華路","SECT":"一段","MAREA":" ","LANE":" ","ALLEY":" ","HOUSE_NO":"２０４號","E_COORD97":166957.95000000001,"N_COORD97":2540790.3599999999,"ADDRESS":"金華路一段２０４號","OBJECTID":608586},"geometry":{"x":166957.95000000112,"y":2540790.3600000031}},{"attributes":{"ID":608614,"DIS_CODE":0,"TOWNNAME":"南區","LI":"明興里","LIN":"3鄰","STREET":"金華路","SECT":"一段","MAREA":" ","LANE":" ","ALLEY":" ","HOUSE_NO":"２０８號","E_COORD97":166959.70999999999,"N_COORD97":2540799.3500000001,"ADDRESS":"金華路一段２０８號","OBJECTID":608587},"geometry":{"x":166959.71000000089,"y":2540799.3499999996}},{"attributes":{"ID":608615,"DIS_CODE":0,"TOWNNAME":"南區","LI":"明興里","LIN":"3鄰","STREET":"金華路","SECT":"一段","MAREA":" ","LANE":" ","ALLEY":" ","HOUSE_NO":"２１４號","E_COORD97":166962.76999999999,"N_COORD97":2540810.8900000001,"ADDRESS":"金華路一段２１４號","OBJECTID":608588},"geometry":{"x":166962.76999999955,"y":2540810.8900000006}},{"attributes":{"ID":608616,"DIS_CODE":0,"TOWNNAME":"南區","LI":"建南里","LIN":"3鄰","STREET":"德興路","SECT":" ","MAREA":" ","LANE":" ","ALLEY":" ","HOUSE_NO":"２４３號","E_COORD97":167224.54999999999,"N_COORD97":2540081.1600000001,"ADDRESS":"德興路２４３號","OBJECTID":608589},"geometry":{"x":167224.55000000168,"y":2540081.160000002}},{"attributes":{"ID":608617,"DIS_CODE":0,"TOWNNAME":"南區","LI":"建南里","LIN":"3鄰","STREET":"德興路","SECT":" ","MAREA":" ","LANE":" ","ALLEY":" ","HOUSE_NO":"２４５號","E_COORD97":167225.51999999999,"N_COORD97":2540072.7999999998,"ADDRESS":"德興路２４５號","OBJECTID":608590},"geometry":{"x":167225.51999999955,"y":2540072.8000000007}},{"attributes":{"ID":608618,"DIS_CODE":0,"TOWNNAME":"南區","LI":"郡南里","LIN":"3鄰","STREET":"新都路","SECT":" ","MAREA":" ","LANE":" ","ALLEY":" ","HOUSE_NO":"４１１號","E_COORD97":167369.87,"N_COORD97":2540847.4100000001,"ADDRESS":"新都路４１１號","OBJECTID":608591},"geometry":{"x":167369.87000000011,"y":2540847.4100000001}},{"attributes":{"ID":608619,"DIS_CODE":0,"TOWNNAME":"新化區","LI":"竹林里","LIN":"3鄰","STREET":"中山路","SECT":" ","MAREA":" ","LANE":" ","ALLEY":" ","HOUSE_NO":"４０２號之２","E_COORD97":178811.76000000001,"N_COORD97":2548438.2599999998,"ADDRESS":"中山路４０２號之２","OBJECTID":608592},"geometry":{"x":178811.76000000071,"y":2548438.2599999998}},{"attributes":{"ID":608620,"DIS_CODE":0,"TOWNNAME":"新化區","LI":"協興里","LIN":"3鄰","STREET":"忠孝路","SECT":" ","MAREA":" ","LANE":" ","ALLEY":" ","HOUSE_NO":"２１９號","E_COORD97":178514.72,"N_COORD97":2548542.25,"ADDRESS":"忠孝路２１９號","OBJECTID":608593},"geometry":{"x":178514.71999999974,"y":2548542.2500000019}},{"attributes":{"ID":608621,"DIS_CODE":0,"TOWNNAME":"新化區","LI":"武安里","LIN":"3鄰","STREET":"中正路","SECT":" ","MAREA":" ","LANE":" ","ALLEY":" ","HOUSE_NO":"３０１號","E_COORD97":179132.95570200001,"N_COORD97":2548112.5694300001,"ADDRESS":"中正路３０１號","OBJECTID":608594},"geometry":{"x":179132.95570200123,"y":2548112.5694270041}},{"attributes":{"ID":608622,"DIS_CODE":0,"TOWNNAME":"新化區","LI":"竹林里","LIN":"3鄰","STREET":"民權街","SECT":" ","MAREA":" ","LANE":" ","ALLEY":" ","HOUSE_NO":"１４號","E_COORD97":178768.26000000001,"N_COORD97":2548459.25,"ADDRESS":"民權街１４號","OBJECTID":608595},"geometry":{"x":178768.25999999978,"y":2548459.25}},{"attributes":{"ID":608623,"DIS_CODE":0,"TOWNNAME":"新化區","LI":"中央里","LIN":"3鄰","STREET":"中正路","SECT":" ","MAREA":" ","LANE":" ","ALLEY":" ","HOUSE_NO":"４３７號","E_COORD97":179077.20999999999,"N_COORD97":2548402.25,"ADDRESS":"中正路４３７號","OBJECTID":608596},"geometry":{"x":179077.20999999996,"y":2548402.25}},{"attributes":{"ID":608624,"DIS_CODE":0,"TOWNNAME":"新化區","LI":"豐榮里","LIN":"3鄰","STREET":"大智路","SECT":" ","MAREA":" ","LANE":" ","ALLEY":" ","HOUSE_NO":"１５１號","E_COORD97":178092.63,"N_COORD97":2548133.25,"ADDRESS":"大智路１５１號","OBJECTID":608597},"geometry":{"x":178092.63000000082,"y":2548133.2500000019}},{"attributes":{"ID":608625,"DIS_CODE":0,"TOWNNAME":"新化區","LI":"協興里","LIN":"3鄰","STREET":"忠孝路","SECT":" ","MAREA":" ","LANE":" ","ALLEY":" ","HOUSE_NO":"２０７號","E_COORD97":178540.01999999999,"N_COORD97":2548540.25,"ADDRESS":"忠孝路２０７號","OBJECTID":608598},"geometry":{"x":178540.02000000048,"y":2548540.25}},{"attributes":{"ID":608626,"DIS_CODE":0,"TOWNNAME":"新化區","LI":"唪口里","LIN":"3鄰","STREET":"大德路","SECT":" ","MAREA":" ","LANE":" ","ALLEY":" ","HOUSE_NO":"８２號之３１","E_COORD97":178264.56,"N_COORD97":2549483.2599999998,"ADDRESS":"大德路８２號之３１","OBJECTID":608599},"geometry":{"x":178264.55999999959,"y":2549483.2599999998}},{"attributes":{"ID":608627,"DIS_CODE":0,"TOWNNAME":"新化區","LI":"竹林里","LIN":"3鄰","STREET":"民權街","SECT":" ","MAREA":" ","LANE":" ","ALLEY":" ","HOUSE_NO":"２４號之２","E_COORD97":178767.51999999999,"N_COORD97":2548474.2599999998,"ADDRESS":"民權街２４號之２","OBJECTID":608600},"geometry":{"x":178767.52000000048,"y":2548474.2600000016}}]}