{"displayFieldName":"TOWNNAME","fieldAliases":{"ID":"ID","DIS_CODE":"DIS_CODE","TOWNNAME":"TOWNNAME","LI":"LI","LIN":"LIN","STREET":"STREET","SECT":"SECT","MAREA":"MAREA","LANE":"LANE","ALLEY":"ALLEY","HOUSE_NO":"HOUSE_NO","E_COORD97":"E_COORD97","N_COORD97":"N_COORD97","ADDRESS":"ADDRESS","OBJECTID":"OBJECTID"},"geometryType":"esriGeometryPoint","spatialReference":{"wkid":102443,"latestWkid":3826},"fields":[{"name":"ID","type":"esriFieldTypeDouble","alias":"ID"},{"name":"DIS_CODE","type":"esriFieldTypeInteger","alias":"DIS_CODE"},{"name":"TOWNNAME","type":"esriFieldTypeString","alias":"TOWNNAME","length":8},{"name":"LI","type":"esriFieldTypeString","alias":"LI","length":8},{"name":"LIN","type":"esriFieldTypeString","alias":"LIN","length":12},{"name":"STREET","type":"esriFieldTypeString","alias":"STREET","length":20},{"name":"SECT","type":"esriFieldTypeString","alias":"SECT","length":8},{"name":"MAREA","type":"esriFieldTypeString","alias":"MAREA","length":12},{"name":"LANE","type":"esriFieldTypeString","alias":"LANE","length":10},{"name":"ALLEY","type":"esriFieldTypeString","alias":"ALLEY","length":10},{"name":"HOUSE_NO","type":"esriFieldTypeString","alias":"HOUSE_NO","length":20},{"name":"E_COORD97","type":"esriFieldTypeDouble","alias":"E_COORD97"},{"name":"N_COORD97","type":"esriFieldTypeDouble","alias":"N_COORD97"},{"name":"ADDRESS","type":"esriFieldTypeString","alias":"ADDRESS","length":50},{"name":"OBJECTID","type":"esriFieldTypeOID","alias":"OBJECTID"}],"features":[{"attributes":{"ID":16801,"DIS_CODE":0,"TOWNNAME":"新營區","LI":"南紙里","LIN":"24鄰","STREET":"南紙街","SECT":" ","MAREA":" ","LANE":"１１７巷","ALLEY":"４０弄","HOUSE_NO":"１號三樓之１７","E_COORD97":177951.23999999999,"N_COORD97":2577430.8599999999,"ADDRESS":"南紙街１１７巷４０弄１號三樓之１７","OBJECTID":16801},"geometry":{"x":177951.24000000115,"y":2577430.8600000013}},{"attributes":{"ID":16802,"DIS_CODE":0,"TOWNNAME":"新營區","LI":"南紙里","LIN":"24鄰","STREET":"南紙街","SECT":" ","MAREA":" ","LANE":"１１７巷","ALLEY":"４０弄","HOUSE_NO":"１號四樓之２０","E_COORD97":177951.22,"N_COORD97":2577430.8599999999,"ADDRESS":"南紙街１１７巷４０弄１號四樓之２０","OBJECTID":16802},"geometry":{"x":177951.22000000067,"y":2577430.8600000013}},{"attributes":{"ID":16803,"DIS_CODE":0,"TOWNNAME":"新營區","LI":"南紙里","LIN":"24鄰","STREET":"南紙街","SECT":" ","MAREA":" ","LANE":"１１７巷","ALLEY":"４０弄","HOUSE_NO":"１號五樓之１２","E_COORD97":177951.29999999999,"N_COORD97":2577430.8599999999,"ADDRESS":"南紙街１１７巷４０弄１號五樓之１２","OBJECTID":16803},"geometry":{"x":177951.29999999981,"y":2577430.8600000013}},{"attributes":{"ID":16804,"DIS_CODE":0,"TOWNNAME":"新營區","LI":"新南里","LIN":"24鄰","STREET":"隋唐街","SECT":" ","MAREA":" ","LANE":"２９５巷","ALLEY":"４１弄","HOUSE_NO":"２５號三樓之７","E_COORD97":178238.64999999999,"N_COORD97":2578467.1499999999,"ADDRESS":"隋唐街２９５巷４１弄２５號三樓之７","OBJECTID":16804},"geometry":{"x":178238.6500000013,"y":2578467.1500000022}},{"attributes":{"ID":16805,"DIS_CODE":0,"TOWNNAME":"東區","LI":"大智里","LIN":"24鄰","STREET":"文東街","SECT":" ","MAREA":" ","LANE":" ","ALLEY":" ","HOUSE_NO":"８８號","E_COORD97":171434.66,"N_COORD97":2540179.73,"ADDRESS":"文東街８８號","OBJECTID":16805},"geometry":{"x":171434.66000000015,"y":2540179.7300000023}},{"attributes":{"ID":16806,"DIS_CODE":0,"TOWNNAME":"將軍區","LI":"玉山里","LIN":"14鄰","STREET":" ","SECT":" ","MAREA":"玉山","LANE":" ","ALLEY":" ","HOUSE_NO":"１１９之１號","E_COORD97":160524.17999999999,"N_COORD97":2567978.2799999998,"ADDRESS":"玉山１１９之１號","OBJECTID":16806},"geometry":{"x":160524.18000000156,"y":2567978.2800000031}},{"attributes":{"ID":16807,"DIS_CODE":0,"TOWNNAME":"將軍區","LI":"苓和里","LIN":"8鄰","STREET":" ","SECT":" ","MAREA":"苓和","LANE":" ","ALLEY":" ","HOUSE_NO":"７８號","E_COORD97":164468.07999999999,"N_COORD97":2568895.9100000001,"ADDRESS":"苓和７８號","OBJECTID":16807},"geometry":{"x":164468.07999999914,"y":2568895.9100000001}},{"attributes":{"ID":16808,"DIS_CODE":0,"TOWNNAME":"將軍區","LI":"玉山里","LIN":"14鄰","STREET":" ","SECT":" ","MAREA":"玉山","LANE":" ","ALLEY":" ","HOUSE_NO":"１１９之５號","E_COORD97":160536.17000000001,"N_COORD97":2567965.5800000001,"ADDRESS":"玉山１１９之５號","OBJECTID":16808},"geometry":{"x":160536.16999999899,"y":2567965.5800000001}},{"attributes":{"ID":16809,"DIS_CODE":0,"TOWNNAME":"將軍區","LI":"玉山里","LIN":"14鄰","STREET":" ","SECT":" ","MAREA":"玉山","LANE":" ","ALLEY":" ","HOUSE_NO":"１１９號","E_COORD97":160518.19,"N_COORD97":2567968.1299999999,"ADDRESS":"玉山１１９號","OBJECTID":16809},"geometry":{"x":160518.19000000134,"y":2567968.129999999}},{"attributes":{"ID":16810,"DIS_CODE":0,"TOWNNAME":"將軍區","LI":"玉山里","LIN":"14鄰","STREET":" ","SECT":" ","MAREA":"玉山","LANE":" ","ALLEY":" ","HOUSE_NO":"１２０之１號","E_COORD97":160572.25,"N_COORD97":2567970.2799999998,"ADDRESS":"玉山１２０之１號","OBJECTID":16810},"geometry":{"x":160572.25,"y":2567970.2799999993}},{"attributes":{"ID":16811,"DIS_CODE":0,"TOWNNAME":"將軍區","LI":"玉山里","LIN":"14鄰","STREET":" ","SECT":" ","MAREA":"玉山","LANE":" ","ALLEY":" ","HOUSE_NO":"１２１之１號","E_COORD97":160479.48000000001,"N_COORD97":2568001.4500000002,"ADDRESS":"玉山１２１之１號","OBJECTID":16811},"geometry":{"x":160479.48000000138,"y":2568001.4500000011}},{"attributes":{"ID":16812,"DIS_CODE":0,"TOWNNAME":"將軍區","LI":"玉山里","LIN":"14鄰","STREET":" ","SECT":" ","MAREA":"玉山","LANE":" ","ALLEY":" ","HOUSE_NO":"１２１號","E_COORD97":160456.39999999999,"N_COORD97":2567997.9500000002,"ADDRESS":"玉山１２１號","OBJECTID":16812},"geometry":{"x":160456.40000000037,"y":2567997.9500000011}},{"attributes":{"ID":16813,"DIS_CODE":0,"TOWNNAME":"將軍區","LI":"玉山里","LIN":"14鄰","STREET":" ","SECT":" ","MAREA":"玉山","LANE":" ","ALLEY":" ","HOUSE_NO":"１２２號","E_COORD97":160439.82000000001,"N_COORD97":2567977.5600000001,"ADDRESS":"玉山１２２號","OBJECTID":16813},"geometry":{"x":160439.82000000123,"y":2567977.5600000042}},{"attributes":{"ID":16814,"DIS_CODE":0,"TOWNNAME":"將軍區","LI":"西和里","LIN":"14鄰","STREET":" ","SECT":" ","MAREA":"西和","LANE":" ","ALLEY":" ","HOUSE_NO":"１１６之１號","E_COORD97":163291.20000000001,"N_COORD97":2566073.8300000001,"ADDRESS":"西和１１６之１號","OBJECTID":16814},"geometry":{"x":163291.20000000112,"y":2566073.8300000019}},{"attributes":{"ID":16815,"DIS_CODE":0,"TOWNNAME":"將軍區","LI":"西和里","LIN":"14鄰","STREET":" ","SECT":" ","MAREA":"西和","LANE":" ","ALLEY":" ","HOUSE_NO":"１１６之２０號","E_COORD97":163436.09,"N_COORD97":2565675.5299999998,"ADDRESS":"西和１１６之２０號","OBJECTID":16815},"geometry":{"x":163436.09000000078,"y":2565675.5300000012}},{"attributes":{"ID":16816,"DIS_CODE":0,"TOWNNAME":"將軍區","LI":"西和里","LIN":"14鄰","STREET":" ","SECT":" ","MAREA":"西和","LANE":" ","ALLEY":" ","HOUSE_NO":"１１６之２號","E_COORD97":163305.31,"N_COORD97":2566031.9900000002,"ADDRESS":"西和１１６之２號","OBJECTID":16816},"geometry":{"x":163305.31000000052,"y":2566031.9900000021}},{"attributes":{"ID":16817,"DIS_CODE":0,"TOWNNAME":"將軍區","LI":"西和里","LIN":"14鄰","STREET":" ","SECT":" ","MAREA":"西和","LANE":" ","ALLEY":" ","HOUSE_NO":"１１６號","E_COORD97":163285.82999999999,"N_COORD97":2566090.9199999999,"ADDRESS":"西和１１６號","OBJECTID":16817},"geometry":{"x":163285.83000000007,"y":2566090.9200000018}},{"attributes":{"ID":16818,"DIS_CODE":0,"TOWNNAME":"北區","LI":"文元里","LIN":"1鄰","STREET":"北成路","SECT":" ","MAREA":" ","LANE":" ","ALLEY":" ","HOUSE_NO":"４９５號","E_COORD97":167803.47,"N_COORD97":2546520.29,"ADDRESS":"北成路４９５號","OBJECTID":16818},"geometry":{"x":167803.47000000067,"y":2546520.2900000028}},{"attributes":{"ID":16819,"DIS_CODE":0,"TOWNNAME":"將軍區","LI":"西和里","LIN":"14鄰","STREET":" ","SECT":" ","MAREA":"西和","LANE":" ","ALLEY":" ","HOUSE_NO":"１１７之１號","E_COORD97":163277.60999999999,"N_COORD97":2566068.3799999999,"ADDRESS":"西和１１７之１號","OBJECTID":16819},"geometry":{"x":163277.61000000034,"y":2566068.3800000027}},{"attributes":{"ID":16820,"DIS_CODE":0,"TOWNNAME":"東區","LI":"裕聖里","LIN":"20鄰","STREET":"裕忠路","SECT":" ","MAREA":" ","LANE":" ","ALLEY":" ","HOUSE_NO":"２９９之５號","E_COORD97":172291.47,"N_COORD97":2542345.54,"ADDRESS":"裕忠路２９９之５號","OBJECTID":16820},"geometry":{"x":172291.46999999974,"y":2542345.540000001}},{"attributes":{"ID":16821,"DIS_CODE":0,"TOWNNAME":"新營區","LI":"南紙里","LIN":"24鄰","STREET":"南紙街","SECT":" ","MAREA":" ","LANE":"１１７巷","ALLEY":"４０弄","HOUSE_NO":"１號二樓之４","E_COORD97":177949.94,"N_COORD97":2577430.8599999999,"ADDRESS":"南紙街１１７巷４０弄１號二樓之４","OBJECTID":16821},"geometry":{"x":177949.94000000134,"y":2577430.8600000013}},{"attributes":{"ID":16822,"DIS_CODE":0,"TOWNNAME":"東區","LI":"裕聖里","LIN":"20鄰","STREET":"裕忠路","SECT":" ","MAREA":" ","LANE":" ","ALLEY":" ","HOUSE_NO":"２９９之６號","E_COORD97":172296.82000000001,"N_COORD97":2542345.54,"ADDRESS":"裕忠路２９９之６號","OBJECTID":16822},"geometry":{"x":172296.82000000216,"y":2542345.540000001}},{"attributes":{"ID":16823,"DIS_CODE":0,"TOWNNAME":"新營區","LI":"新南里","LIN":"24鄰","STREET":"隋唐街","SECT":" ","MAREA":" ","LANE":"２９５巷","ALLEY":"４１弄","HOUSE_NO":"２５號四樓之７","E_COORD97":178238.64999999999,"N_COORD97":2578467.1499999999,"ADDRESS":"隋唐街２９５巷４１弄２５號四樓之７","OBJECTID":16823},"geometry":{"x":178238.6500000013,"y":2578467.1500000022}},{"attributes":{"ID":16824,"DIS_CODE":0,"TOWNNAME":"東區","LI":"裕聖里","LIN":"20鄰","STREET":"裕忠路","SECT":" ","MAREA":" ","LANE":" ","ALLEY":" ","HOUSE_NO":"２９９之７號","E_COORD97":172301.34,"N_COORD97":2542345.54,"ADDRESS":"裕忠路２９９之７號","OBJECTID":16824},"geometry":{"x":172301.34000000171,"y":2542345.540000001}},{"attributes":{"ID":16825,"DIS_CODE":0,"TOWNNAME":"東區","LI":"裕聖里","LIN":"20鄰","STREET":"裕忠路","SECT":" ","MAREA":" ","LANE":" ","ALLEY":" ","HOUSE_NO":"２９９之８號","E_COORD97":172306.26999999999,"N_COORD97":2542345.6800000002,"ADDRESS":"裕忠路２９９之８號","OBJECTID":16825},"geometry":{"x":172306.26999999955,"y":2542345.6800000016}},{"attributes":{"ID":16826,"DIS_CODE":0,"TOWNNAME":"新營區","LI":"新南里","LIN":"24鄰","STREET":"隋唐街","SECT":" ","MAREA":" ","LANE":"２９５巷","ALLEY":"４１弄","HOUSE_NO":"２５號三樓之９","E_COORD97":178238.66,"N_COORD97":2578467.1499999999,"ADDRESS":"隋唐街２９５巷４１弄２５號三樓之９","OBJECTID":16826},"geometry":{"x":178238.66000000015,"y":2578467.1500000022}},{"attributes":{"ID":16827,"DIS_CODE":0,"TOWNNAME":"東區","LI":"裕聖里","LIN":"20鄰","STREET":"裕忠路","SECT":" ","MAREA":" ","LANE":" ","ALLEY":" ","HOUSE_NO":"２９９之９號","E_COORD97":172311.06,"N_COORD97":2542345.54,"ADDRESS":"裕忠路２９９之９號","OBJECTID":16827},"geometry":{"x":172311.05999999959,"y":2542345.540000001}},{"attributes":{"ID":16828,"DIS_CODE":0,"TOWNNAME":"東區","LI":"裕聖里","LIN":"20鄰","STREET":"裕忠路","SECT":" ","MAREA":" ","LANE":" ","ALLEY":" ","HOUSE_NO":"２９９之１０號","E_COORD97":172316.28,"N_COORD97":2542345.25,"ADDRESS":"裕忠路２９９之１０號","OBJECTID":16828},"geometry":{"x":172316.28000000119,"y":2542345.2500000019}},{"attributes":{"ID":16829,"DIS_CODE":0,"TOWNNAME":"新營區","LI":"新南里","LIN":"24鄰","STREET":"隋唐街","SECT":" ","MAREA":" ","LANE":"２９５巷","ALLEY":"４１弄","HOUSE_NO":"２５號四樓之１","E_COORD97":178238.57000000001,"N_COORD97":2578467.1499999999,"ADDRESS":"隋唐街２９５巷４１弄２５號四樓之１","OBJECTID":16829},"geometry":{"x":178238.57000000216,"y":2578467.1500000022}},{"attributes":{"ID":16830,"DIS_CODE":0,"TOWNNAME":"東區","LI":"裕聖里","LIN":"20鄰","STREET":"裕忠路","SECT":" ","MAREA":" ","LANE":" ","ALLEY":" ","HOUSE_NO":"２９９之１１號","E_COORD97":172322.20000000001,"N_COORD97":2542345.25,"ADDRESS":"裕忠路２９９之１１號","OBJECTID":16830},"geometry":{"x":172322.20000000019,"y":2542345.2500000019}},{"attributes":{"ID":16831,"DIS_CODE":0,"TOWNNAME":"新營區","LI":"新南里","LIN":"24鄰","STREET":"隋唐街","SECT":" ","MAREA":" ","LANE":"２９５巷","ALLEY":"４１弄","HOUSE_NO":"２５號四樓之１１","E_COORD97":178239.82000000001,"N_COORD97":2578467.1499999999,"ADDRESS":"隋唐街２９５巷４１弄２５號四樓之１１","OBJECTID":16831},"geometry":{"x":178239.8200000003,"y":2578467.1500000022}},{"attributes":{"ID":16832,"DIS_CODE":0,"TOWNNAME":"新營區","LI":"新南里","LIN":"24鄰","STREET":"隋唐街","SECT":" ","MAREA":" ","LANE":"２９５巷","ALLEY":"４１弄","HOUSE_NO":"２５號五樓之１０","E_COORD97":178239.59,"N_COORD97":2578467.1499999999,"ADDRESS":"隋唐街２９５巷４１弄２５號五樓之１０","OBJECTID":16832},"geometry":{"x":178239.59000000171,"y":2578467.1500000022}},{"attributes":{"ID":16833,"DIS_CODE":0,"TOWNNAME":"新營區","LI":"新南里","LIN":"24鄰","STREET":"隋唐街","SECT":" ","MAREA":" ","LANE":"２９５巷","ALLEY":"４１弄","HOUSE_NO":"２５號四樓之９","E_COORD97":178238.66,"N_COORD97":2578467.1499999999,"ADDRESS":"隋唐街２９５巷４１弄２５號四樓之９","OBJECTID":16833},"geometry":{"x":178238.66000000015,"y":2578467.1500000022}},{"attributes":{"ID":16834,"DIS_CODE":0,"TOWNNAME":"東區","LI":"裕聖里","LIN":"20鄰","STREET":"裕忠路","SECT":" ","MAREA":" ","LANE":" ","ALLEY":" ","HOUSE_NO":"２９９之１２號","E_COORD97":172326.85000000001,"N_COORD97":2542345.6800000002,"ADDRESS":"裕忠路２９９之１２號","OBJECTID":16834},"geometry":{"x":172326.85000000056,"y":2542345.6800000016}},{"attributes":{"ID":16835,"DIS_CODE":0,"TOWNNAME":"東區","LI":"裕聖里","LIN":"20鄰","STREET":"裕忠路","SECT":" ","MAREA":" ","LANE":" ","ALLEY":" ","HOUSE_NO":"２９９之１３號","E_COORD97":172332.35000000001,"N_COORD97":2542345.25,"ADDRESS":"裕忠路２９９之１３號","OBJECTID":16835},"geometry":{"x":172332.35000000056,"y":2542345.2500000019}},{"attributes":{"ID":16836,"DIS_CODE":0,"TOWNNAME":"東區","LI":"裕聖里","LIN":"20鄰","STREET":"裕忠路","SECT":" ","MAREA":" ","LANE":" ","ALLEY":" ","HOUSE_NO":"２９９之１５號","E_COORD97":172339.25,"N_COORD97":2542344.9700000002,"ADDRESS":"裕忠路２９９之１５號","OBJECTID":16836},"geometry":{"x":172339.25,"y":2542344.9700000025}},{"attributes":{"ID":16837,"DIS_CODE":0,"TOWNNAME":"東區","LI":"和平里","LIN":"20鄰","STREET":"文化路","SECT":" ","MAREA":" ","LANE":" ","ALLEY":" ","HOUSE_NO":"５２號","E_COORD97":171201.76999999999,"N_COORD97":2541922.1499999999,"ADDRESS":"文化路５２號","OBJECTID":16837},"geometry":{"x":171201.77000000048,"y":2541922.1500000022}},{"attributes":{"ID":16838,"DIS_CODE":0,"TOWNNAME":"新營區","LI":"新南里","LIN":"24鄰","STREET":"隋唐街","SECT":" ","MAREA":" ","LANE":"２９５巷","ALLEY":"４１弄","HOUSE_NO":"２５號二樓之８","E_COORD97":178238.72,"N_COORD97":2578467.1499999999,"ADDRESS":"隋唐街２９５巷４１弄２５號二樓之８","OBJECTID":16838},"geometry":{"x":178238.72000000067,"y":2578467.1500000022}},{"attributes":{"ID":16839,"DIS_CODE":0,"TOWNNAME":"將軍區","LI":"苓和里","LIN":"8鄰","STREET":" ","SECT":" ","MAREA":"苓和","LANE":" ","ALLEY":" ","HOUSE_NO":"７９號","E_COORD97":164472.51000000001,"N_COORD97":2568877.1299999999,"ADDRESS":"苓和７９號","OBJECTID":16839},"geometry":{"x":164472.51000000071,"y":2568877.1300000027}},{"attributes":{"ID":16840,"DIS_CODE":0,"TOWNNAME":"新營區","LI":"南紙里","LIN":"24鄰","STREET":"南紙街","SECT":" ","MAREA":" ","LANE":"１１７巷","ALLEY":"４０弄","HOUSE_NO":"１號四樓之９","E_COORD97":177950,"N_COORD97":2577430.8599999999,"ADDRESS":"南紙街１１７巷４０弄１號四樓之９","OBJECTID":16840},"geometry":{"x":177950,"y":2577430.8600000013}},{"attributes":{"ID":16841,"DIS_CODE":0,"TOWNNAME":"新營區","LI":"新南里","LIN":"24鄰","STREET":"隋唐街","SECT":" ","MAREA":" ","LANE":"２９５巷","ALLEY":"４１弄","HOUSE_NO":"２５號二樓之２","E_COORD97":178238.70999999999,"N_COORD97":2578467.1499999999,"ADDRESS":"隋唐街２９５巷４１弄２５號二樓之２","OBJECTID":16841},"geometry":{"x":178238.70999999996,"y":2578467.1500000022}},{"attributes":{"ID":16842,"DIS_CODE":0,"TOWNNAME":"東區","LI":"裕聖里","LIN":"20鄰","STREET":"裕忠路","SECT":" ","MAREA":" ","LANE":" ","ALLEY":" ","HOUSE_NO":"３１１號","E_COORD97":172277.98999999999,"N_COORD97":2542299.96,"ADDRESS":"裕忠路３１１號","OBJECTID":16842},"geometry":{"x":172277.99000000022,"y":2542299.9600000046}},{"attributes":{"ID":16843,"DIS_CODE":0,"TOWNNAME":"東區","LI":"文聖里","LIN":"20鄰","STREET":"裕文一街","SECT":" ","MAREA":" ","LANE":" ","ALLEY":" ","HOUSE_NO":"７６號","E_COORD97":172748.75,"N_COORD97":2542671.7200000002,"ADDRESS":"裕文一街７６號","OBJECTID":16843},"geometry":{"x":172748.75000000093,"y":2542671.7200000025}},{"attributes":{"ID":16844,"DIS_CODE":0,"TOWNNAME":"東山區","LI":"青山里","LIN":"16鄰","STREET":" ","SECT":" ","MAREA":"青山","LANE":" ","ALLEY":" ","HOUSE_NO":"４６號之２０","E_COORD97":195600.23000000001,"N_COORD97":2575220.2000000002,"ADDRESS":"青山４６號之２０","OBJECTID":16844},"geometry":{"x":195600.23000000138,"y":2575220.1999999974}},{"attributes":{"ID":16845,"DIS_CODE":0,"TOWNNAME":"新營區","LI":"新南里","LIN":"24鄰","STREET":"隋唐街","SECT":" ","MAREA":" ","LANE":"２９５巷","ALLEY":"４１弄","HOUSE_NO":"２５號二樓之９","E_COORD97":178238.66,"N_COORD97":2578467.1499999999,"ADDRESS":"隋唐街２９５巷４１弄２５號二樓之９","OBJECTID":16845},"geometry":{"x":178238.66000000015,"y":2578467.1500000022}},{"attributes":{"ID":16846,"DIS_CODE":0,"TOWNNAME":"新營區","LI":"新南里","LIN":"24鄰","STREET":"隋唐街","SECT":" ","MAREA":" ","LANE":"２９５巷","ALLEY":"４１弄","HOUSE_NO":"２５號二樓之５","E_COORD97":178238.73000000001,"N_COORD97":2578467.1499999999,"ADDRESS":"隋唐街２９５巷４１弄２５號二樓之５","OBJECTID":16846},"geometry":{"x":178238.73000000045,"y":2578467.1500000022}},{"attributes":{"ID":16847,"DIS_CODE":0,"TOWNNAME":"新營區","LI":"新南里","LIN":"24鄰","STREET":"隋唐街","SECT":" ","MAREA":" ","LANE":"２９５巷","ALLEY":"４１弄","HOUSE_NO":"２５號三樓之１０","E_COORD97":178239.59,"N_COORD97":2578467.1499999999,"ADDRESS":"隋唐街２９５巷４１弄２５號三樓之１０","OBJECTID":16847},"geometry":{"x":178239.59000000171,"y":2578467.1500000022}},{"attributes":{"ID":16848,"DIS_CODE":0,"TOWNNAME":"新營區","LI":"新南里","LIN":"24鄰","STREET":"隋唐街","SECT":" ","MAREA":" ","LANE":"２９５巷","ALLEY":"４１弄","HOUSE_NO":"２５號二樓之１","E_COORD97":178238.57000000001,"N_COORD97":2578467.1499999999,"ADDRESS":"隋唐街２９５巷４１弄２５號二樓之１","OBJECTID":16848},"geometry":{"x":178238.57000000216,"y":2578467.1500000022}},{"attributes":{"ID":16849,"DIS_CODE":0,"TOWNNAME":"永康區","LI":"五王里","LIN":"24鄰","STREET":"成功路","SECT":" ","MAREA":" ","LANE":" ","ALLEY":" ","HOUSE_NO":"２５６號","E_COORD97":171311.54999999999,"N_COORD97":2545841.7599999998,"ADDRESS":"成功路２５６號","OBJECTID":16849},"geometry":{"x":171311.55000000168,"y":2545841.7599999998}},{"attributes":{"ID":16850,"DIS_CODE":0,"TOWNNAME":"東區","LI":"文聖里","LIN":"20鄰","STREET":"裕文一街","SECT":" ","MAREA":" ","LANE":" ","ALLEY":" ","HOUSE_NO":"７８號","E_COORD97":172749.44,"N_COORD97":2542682.1200000001,"ADDRESS":"裕文一街７８號","OBJECTID":16850},"geometry":{"x":172749.44000000134,"y":2542682.1200000048}},{"attributes":{"ID":16851,"DIS_CODE":0,"TOWNNAME":"新營區","LI":"新南里","LIN":"24鄰","STREET":"隋唐街","SECT":" ","MAREA":" ","LANE":"２９５巷","ALLEY":"４１弄","HOUSE_NO":"２５號三樓之４","E_COORD97":178238.60000000001,"N_COORD97":2578467.1499999999,"ADDRESS":"隋唐街２９５巷４１弄２５號三樓之４","OBJECTID":16851},"geometry":{"x":178238.59999999963,"y":2578467.1500000022}},{"attributes":{"ID":16852,"DIS_CODE":0,"TOWNNAME":"永康區","LI":"光復里","LIN":"24鄰","STREET":"復興路","SECT":" ","MAREA":" ","LANE":"１２８巷","ALLEY":"１弄","HOUSE_NO":"１１號三樓","E_COORD97":172678,"N_COORD97":2544368.2799999998,"ADDRESS":"復興路１２８巷１弄１１號三樓","OBJECTID":16852},"geometry":{"x":172678,"y":2544368.2800000012}},{"attributes":{"ID":16853,"DIS_CODE":0,"TOWNNAME":"永康區","LI":"光復里","LIN":"24鄰","STREET":"復興路","SECT":" ","MAREA":" ","LANE":"１２８巷","ALLEY":"１弄","HOUSE_NO":"１３號四樓","E_COORD97":172670.14000000001,"N_COORD97":2544368.2799999998,"ADDRESS":"復興路１２８巷１弄１３號四樓","OBJECTID":16853},"geometry":{"x":172670.13999999966,"y":2544368.2800000012}},{"attributes":{"ID":16854,"DIS_CODE":0,"TOWNNAME":"永康區","LI":"光復里","LIN":"24鄰","STREET":"復興路","SECT":" ","MAREA":" ","LANE":"１２８巷","ALLEY":"１弄","HOUSE_NO":"１１號四樓","E_COORD97":172678,"N_COORD97":2544368.2799999998,"ADDRESS":"復興路１２８巷１弄１１號四樓","OBJECTID":16854},"geometry":{"x":172678,"y":2544368.2800000012}},{"attributes":{"ID":16855,"DIS_CODE":0,"TOWNNAME":"永康區","LI":"光復里","LIN":"24鄰","STREET":"復興路","SECT":" ","MAREA":" ","LANE":"１２８巷","ALLEY":"１弄","HOUSE_NO":"１３號二樓","E_COORD97":172670.14000000001,"N_COORD97":2544368.2799999998,"ADDRESS":"復興路１２８巷１弄１３號二樓","OBJECTID":16855},"geometry":{"x":172670.13999999966,"y":2544368.2800000012}},{"attributes":{"ID":16856,"DIS_CODE":0,"TOWNNAME":"永康區","LI":"光復里","LIN":"24鄰","STREET":"復興路","SECT":" ","MAREA":" ","LANE":"１２８巷","ALLEY":"１弄","HOUSE_NO":"９號五樓","E_COORD97":172686.84,"N_COORD97":2544368.2799999998,"ADDRESS":"復興路１２８巷１弄９號五樓","OBJECTID":16856},"geometry":{"x":172686.84000000078,"y":2544368.2800000012}},{"attributes":{"ID":16857,"DIS_CODE":0,"TOWNNAME":"永康區","LI":"光復里","LIN":"24鄰","STREET":"復興路","SECT":" ","MAREA":" ","LANE":"１２８巷","ALLEY":"１弄","HOUSE_NO":"１５號三樓","E_COORD97":172659.73999999999,"N_COORD97":2544368.0299999998,"ADDRESS":"復興路１２８巷１弄１５號三樓","OBJECTID":16857},"geometry":{"x":172659.74000000022,"y":2544368.0299999993}},{"attributes":{"ID":16858,"DIS_CODE":0,"TOWNNAME":"永康區","LI":"光復里","LIN":"24鄰","STREET":"復興路","SECT":" ","MAREA":" ","LANE":"１２８巷","ALLEY":"１弄","HOUSE_NO":"１５號四樓","E_COORD97":172659.73999999999,"N_COORD97":2544368.0299999998,"ADDRESS":"復興路１２８巷１弄１５號四樓","OBJECTID":16858},"geometry":{"x":172659.74000000022,"y":2544368.0299999993}},{"attributes":{"ID":16859,"DIS_CODE":0,"TOWNNAME":"永康區","LI":"光復里","LIN":"24鄰","STREET":"復興路","SECT":" ","MAREA":" ","LANE":"１２８巷","ALLEY":"１弄","HOUSE_NO":"１３號三樓","E_COORD97":172670.14000000001,"N_COORD97":2544368.2799999998,"ADDRESS":"復興路１２８巷１弄１３號三樓","OBJECTID":16859},"geometry":{"x":172670.13999999966,"y":2544368.2800000012}},{"attributes":{"ID":16860,"DIS_CODE":0,"TOWNNAME":"永康區","LI":"光復里","LIN":"24鄰","STREET":"復興路","SECT":" ","MAREA":" ","LANE":"１２８巷","ALLEY":"１弄","HOUSE_NO":"１１號二樓","E_COORD97":172678,"N_COORD97":2544368.2799999998,"ADDRESS":"復興路１２８巷１弄１１號二樓","OBJECTID":16860},"geometry":{"x":172678,"y":2544368.2800000012}},{"attributes":{"ID":16861,"DIS_CODE":0,"TOWNNAME":"永康區","LI":"光復里","LIN":"24鄰","STREET":"復興路","SECT":" ","MAREA":" ","LANE":"１２８巷","ALLEY":"１弄","HOUSE_NO":"９號三樓","E_COORD97":172686.84,"N_COORD97":2544368.2799999998,"ADDRESS":"復興路１２８巷１弄９號三樓","OBJECTID":16861},"geometry":{"x":172686.84000000078,"y":2544368.2800000012}},{"attributes":{"ID":16862,"DIS_CODE":0,"TOWNNAME":"永康區","LI":"光復里","LIN":"24鄰","STREET":"復興路","SECT":" ","MAREA":" ","LANE":"１２８巷","ALLEY":"１弄","HOUSE_NO":"９號二樓","E_COORD97":172686.84,"N_COORD97":2544368.2799999998,"ADDRESS":"復興路１２８巷１弄９號二樓","OBJECTID":16862},"geometry":{"x":172686.84000000078,"y":2544368.2800000012}},{"attributes":{"ID":16863,"DIS_CODE":0,"TOWNNAME":"永康區","LI":"光復里","LIN":"24鄰","STREET":"復興路","SECT":" ","MAREA":" ","LANE":"１２８巷","ALLEY":"１弄","HOUSE_NO":"１１號五樓","E_COORD97":172678,"N_COORD97":2544368.2799999998,"ADDRESS":"復興路１２８巷１弄１１號五樓","OBJECTID":16863},"geometry":{"x":172678,"y":2544368.2800000012}},{"attributes":{"ID":16864,"DIS_CODE":0,"TOWNNAME":"永康區","LI":"光復里","LIN":"24鄰","STREET":"復興路","SECT":" ","MAREA":" ","LANE":"１２８巷","ALLEY":"１弄","HOUSE_NO":"１３號五樓","E_COORD97":172670.14000000001,"N_COORD97":2544368.2799999998,"ADDRESS":"復興路１２８巷１弄１３號五樓","OBJECTID":16864},"geometry":{"x":172670.13999999966,"y":2544368.2800000012}},{"attributes":{"ID":16865,"DIS_CODE":0,"TOWNNAME":"永康區","LI":"西勢里","LIN":"24鄰","STREET":"廣興街","SECT":" ","MAREA":" ","LANE":"３８巷","ALLEY":"４７弄","HOUSE_NO":"２２號三樓","E_COORD97":176097.28,"N_COORD97":2546498.5,"ADDRESS":"廣興街３８巷４７弄２２號三樓","OBJECTID":16865},"geometry":{"x":176097.28000000026,"y":2546498.5}},{"attributes":{"ID":16866,"DIS_CODE":0,"TOWNNAME":"永康區","LI":"西勢里","LIN":"24鄰","STREET":"廣興街","SECT":" ","MAREA":" ","LANE":"３８巷","ALLEY":"４７弄","HOUSE_NO":"２４號二樓","E_COORD97":176100.62,"N_COORD97":2546504.25,"ADDRESS":"廣興街３８巷４７弄２４號二樓","OBJECTID":16866},"geometry":{"x":176100.62000000104,"y":2546504.2500000037}},{"attributes":{"ID":16867,"DIS_CODE":0,"TOWNNAME":"永康區","LI":"西勢里","LIN":"24鄰","STREET":"廣興街","SECT":" ","MAREA":" ","LANE":"３８巷","ALLEY":"４７弄","HOUSE_NO":"２６號四樓","E_COORD97":176105.07000000001,"N_COORD97":2546511.7599999998,"ADDRESS":"廣興街３８巷４７弄２６號四樓","OBJECTID":16867},"geometry":{"x":176105.07000000123,"y":2546511.7600000016}},{"attributes":{"ID":16868,"DIS_CODE":0,"TOWNNAME":"永康區","LI":"西勢里","LIN":"24鄰","STREET":"廣興街","SECT":" ","MAREA":" ","LANE":"３８巷","ALLEY":"４７弄","HOUSE_NO":"２２號六樓","E_COORD97":176097.28,"N_COORD97":2546498.5,"ADDRESS":"廣興街３８巷４７弄２２號六樓","OBJECTID":16868},"geometry":{"x":176097.28000000026,"y":2546498.5}},{"attributes":{"ID":16869,"DIS_CODE":0,"TOWNNAME":"永康區","LI":"西勢里","LIN":"24鄰","STREET":"廣興街","SECT":" ","MAREA":" ","LANE":"３８巷","ALLEY":"１４弄","HOUSE_NO":"４號五樓","E_COORD97":175938.82000000001,"N_COORD97":2546502.1200000001,"ADDRESS":"廣興街３８巷１４弄４號五樓","OBJECTID":16869},"geometry":{"x":175938.82000000123,"y":2546502.120000001}},{"attributes":{"ID":16870,"DIS_CODE":0,"TOWNNAME":"將軍區","LI":"西和里","LIN":"14鄰","STREET":" ","SECT":" ","MAREA":"西和","LANE":" ","ALLEY":" ","HOUSE_NO":"１１７之２號","E_COORD97":163273.84,"N_COORD97":2566052.29,"ADDRESS":"西和１１７之２號","OBJECTID":16870},"geometry":{"x":163273.83999999985,"y":2566052.290000001}},{"attributes":{"ID":16871,"DIS_CODE":0,"TOWNNAME":"永康區","LI":"西勢里","LIN":"24鄰","STREET":"廣興街","SECT":" ","MAREA":" ","LANE":"３８巷","ALLEY":"１４弄","HOUSE_NO":"２號三樓","E_COORD97":175945.54000000001,"N_COORD97":2546509.21,"ADDRESS":"廣興街３８巷１４弄２號三樓","OBJECTID":16871},"geometry":{"x":175945.54000000097,"y":2546509.2100000028}},{"attributes":{"ID":16872,"DIS_CODE":0,"TOWNNAME":"永康區","LI":"西勢里","LIN":"24鄰","STREET":"廣興街","SECT":" ","MAREA":" ","LANE":"３８巷","ALLEY":"１４弄","HOUSE_NO":"６號三樓","E_COORD97":175932.85999999999,"N_COORD97":2546495.3700000001,"ADDRESS":"廣興街３８巷１４弄６號三樓","OBJECTID":16872},"geometry":{"x":175932.8600000022,"y":2546495.3700000029}},{"attributes":{"ID":16873,"DIS_CODE":0,"TOWNNAME":"永康區","LI":"西勢里","LIN":"24鄰","STREET":"廣興街","SECT":" ","MAREA":" ","LANE":"３８巷","ALLEY":"１４弄","HOUSE_NO":"２號四樓之１","E_COORD97":175938.82000000001,"N_COORD97":2546502.1200000001,"ADDRESS":"廣興街３８巷１４弄２號四樓之１","OBJECTID":16873},"geometry":{"x":175938.82000000123,"y":2546502.120000001}},{"attributes":{"ID":16874,"DIS_CODE":0,"TOWNNAME":"永康區","LI":"西勢里","LIN":"24鄰","STREET":"廣興街","SECT":" ","MAREA":" ","LANE":"３８巷","ALLEY":"１４弄","HOUSE_NO":"２號二樓","E_COORD97":175945.54000000001,"N_COORD97":2546509.21,"ADDRESS":"廣興街３８巷１４弄２號二樓","OBJECTID":16874},"geometry":{"x":175945.54000000097,"y":2546509.2100000028}},{"attributes":{"ID":16875,"DIS_CODE":0,"TOWNNAME":"永康區","LI":"西勢里","LIN":"24鄰","STREET":"廣興街","SECT":" ","MAREA":" ","LANE":"３８巷","ALLEY":"１４弄","HOUSE_NO":"８號五樓","E_COORD97":175928.32000000001,"N_COORD97":2546491.6200000001,"ADDRESS":"廣興街３８巷１４弄８號五樓","OBJECTID":16875},"geometry":{"x":175928.32000000123,"y":2546491.620000001}},{"attributes":{"ID":16876,"DIS_CODE":0,"TOWNNAME":"永康區","LI":"西勢里","LIN":"24鄰","STREET":"廣興街","SECT":" ","MAREA":" ","LANE":"３８巷","ALLEY":"１４弄","HOUSE_NO":"４號三樓","E_COORD97":175938.82000000001,"N_COORD97":2546502.1200000001,"ADDRESS":"廣興街３８巷１４弄４號三樓","OBJECTID":16876},"geometry":{"x":175938.82000000123,"y":2546502.120000001}},{"attributes":{"ID":16877,"DIS_CODE":0,"TOWNNAME":"永康區","LI":"西勢里","LIN":"24鄰","STREET":"廣興街","SECT":" ","MAREA":" ","LANE":"３８巷","ALLEY":"１４弄","HOUSE_NO":"６號五樓","E_COORD97":175932.85999999999,"N_COORD97":2546495.3700000001,"ADDRESS":"廣興街３８巷１４弄６號五樓","OBJECTID":16877},"geometry":{"x":175932.8600000022,"y":2546495.3700000029}},{"attributes":{"ID":16878,"DIS_CODE":0,"TOWNNAME":"永康區","LI":"西勢里","LIN":"24鄰","STREET":"廣興街","SECT":" ","MAREA":" ","LANE":"３８巷","ALLEY":"１４弄","HOUSE_NO":"２號四樓","E_COORD97":175945.54000000001,"N_COORD97":2546509.21,"ADDRESS":"廣興街３８巷１４弄２號四樓","OBJECTID":16878},"geometry":{"x":175945.54000000097,"y":2546509.2100000028}},{"attributes":{"ID":16879,"DIS_CODE":0,"TOWNNAME":"永康區","LI":"崑山里","LIN":"24鄰","STREET":"大仁街","SECT":" ","MAREA":" ","LANE":" ","ALLEY":" ","HOUSE_NO":"７２號","E_COORD97":173826.12,"N_COORD97":2544718.5800000001,"ADDRESS":"大仁街７２號","OBJECTID":16879},"geometry":{"x":173826.12000000104,"y":2544718.5799999982}},{"attributes":{"ID":16880,"DIS_CODE":0,"TOWNNAME":"永康區","LI":"西勢里","LIN":"24鄰","STREET":"廣興街","SECT":" ","MAREA":" ","LANE":"３８巷","ALLEY":"１４弄","HOUSE_NO":"８號二樓","E_COORD97":175928.32000000001,"N_COORD97":2546491.6200000001,"ADDRESS":"廣興街３８巷１４弄８號二樓","OBJECTID":16880},"geometry":{"x":175928.32000000123,"y":2546491.620000001}},{"attributes":{"ID":16881,"DIS_CODE":0,"TOWNNAME":"永康區","LI":"西勢里","LIN":"24鄰","STREET":"廣興街","SECT":" ","MAREA":" ","LANE":"３８巷","ALLEY":"１４弄","HOUSE_NO":"８號三樓","E_COORD97":175928.32000000001,"N_COORD97":2546491.6200000001,"ADDRESS":"廣興街３８巷１４弄８號三樓","OBJECTID":16881},"geometry":{"x":175928.32000000123,"y":2546491.620000001}},{"attributes":{"ID":16882,"DIS_CODE":0,"TOWNNAME":"永康區","LI":"西勢里","LIN":"24鄰","STREET":"廣興街","SECT":" ","MAREA":" ","LANE":"３８巷","ALLEY":"４７弄","HOUSE_NO":"２６號三樓","E_COORD97":176105.07000000001,"N_COORD97":2546511.7599999998,"ADDRESS":"廣興街３８巷４７弄２６號三樓","OBJECTID":16882},"geometry":{"x":176105.07000000123,"y":2546511.7600000016}},{"attributes":{"ID":16883,"DIS_CODE":0,"TOWNNAME":"永康區","LI":"西勢里","LIN":"24鄰","STREET":"廣興街","SECT":" ","MAREA":" ","LANE":"３８巷","ALLEY":"１４弄","HOUSE_NO":"８號四樓","E_COORD97":175928.32000000001,"N_COORD97":2546491.6200000001,"ADDRESS":"廣興街３８巷１４弄８號四樓","OBJECTID":16883},"geometry":{"x":175928.32000000123,"y":2546491.620000001}},{"attributes":{"ID":16884,"DIS_CODE":0,"TOWNNAME":"永康區","LI":"西勢里","LIN":"24鄰","STREET":"廣興街","SECT":" ","MAREA":" ","LANE":"３８巷","ALLEY":"１４弄","HOUSE_NO":"６號四樓","E_COORD97":175932.85999999999,"N_COORD97":2546495.3700000001,"ADDRESS":"廣興街３８巷１４弄６號四樓","OBJECTID":16884},"geometry":{"x":175932.8600000022,"y":2546495.3700000029}},{"attributes":{"ID":16885,"DIS_CODE":0,"TOWNNAME":"永康區","LI":"西勢里","LIN":"24鄰","STREET":"廣興街","SECT":" ","MAREA":" ","LANE":"３８巷","ALLEY":"４７弄","HOUSE_NO":"２２號五樓","E_COORD97":176097.28,"N_COORD97":2546498.5,"ADDRESS":"廣興街３８巷４７弄２２號五樓","OBJECTID":16885},"geometry":{"x":176097.28000000026,"y":2546498.5}},{"attributes":{"ID":16886,"DIS_CODE":0,"TOWNNAME":"永康區","LI":"西勢里","LIN":"24鄰","STREET":"廣興街","SECT":" ","MAREA":" ","LANE":"３８巷","ALLEY":"１４弄","HOUSE_NO":"４號二樓","E_COORD97":175938.82000000001,"N_COORD97":2546502.1200000001,"ADDRESS":"廣興街３８巷１４弄４號二樓","OBJECTID":16886},"geometry":{"x":175938.82000000123,"y":2546502.120000001}},{"attributes":{"ID":16887,"DIS_CODE":0,"TOWNNAME":"永康區","LI":"西勢里","LIN":"24鄰","STREET":"廣興街","SECT":" ","MAREA":" ","LANE":"３８巷","ALLEY":"４７弄","HOUSE_NO":"１８號四樓","E_COORD97":176093.92999999999,"N_COORD97":2546491.25,"ADDRESS":"廣興街３８巷４７弄１８號四樓","OBJECTID":16887},"geometry":{"x":176093.9299999997,"y":2546491.2500000019}},{"attributes":{"ID":16888,"DIS_CODE":0,"TOWNNAME":"永康區","LI":"西勢里","LIN":"24鄰","STREET":"廣興街","SECT":" ","MAREA":" ","LANE":"３８巷","ALLEY":"４７弄","HOUSE_NO":"１８號三樓","E_COORD97":176093.92999999999,"N_COORD97":2546491.25,"ADDRESS":"廣興街３８巷４７弄１８號三樓","OBJECTID":16888},"geometry":{"x":176093.9299999997,"y":2546491.2500000019}},{"attributes":{"ID":16889,"DIS_CODE":0,"TOWNNAME":"永康區","LI":"西勢里","LIN":"24鄰","STREET":"廣興街","SECT":" ","MAREA":" ","LANE":"３８巷","ALLEY":"４７弄","HOUSE_NO":"２４號四樓","E_COORD97":176100.62,"N_COORD97":2546504.25,"ADDRESS":"廣興街３８巷４７弄２４號四樓","OBJECTID":16889},"geometry":{"x":176100.62000000104,"y":2546504.2500000037}},{"attributes":{"ID":16890,"DIS_CODE":0,"TOWNNAME":"永康區","LI":"西勢里","LIN":"24鄰","STREET":"廣興街","SECT":" ","MAREA":" ","LANE":"３８巷","ALLEY":"４７弄","HOUSE_NO":"１８號二樓","E_COORD97":176093.92999999999,"N_COORD97":2546491.25,"ADDRESS":"廣興街３８巷４７弄１８號二樓","OBJECTID":16890},"geometry":{"x":176093.9299999997,"y":2546491.2500000019}},{"attributes":{"ID":16891,"DIS_CODE":0,"TOWNNAME":"將軍區","LI":"西和里","LIN":"14鄰","STREET":" ","SECT":" ","MAREA":"西和","LANE":" ","ALLEY":" ","HOUSE_NO":"１１７之３號","E_COORD97":163275.60000000001,"N_COORD97":2566036.5600000001,"ADDRESS":"西和１１７之３號","OBJECTID":16891},"geometry":{"x":163275.59999999963,"y":2566036.5600000005}},{"attributes":{"ID":16892,"DIS_CODE":0,"TOWNNAME":"將軍區","LI":"西和里","LIN":"14鄰","STREET":" ","SECT":" ","MAREA":"西和","LANE":" ","ALLEY":" ","HOUSE_NO":"１１７之４號","E_COORD97":163277.76000000001,"N_COORD97":2566019.6499999999,"ADDRESS":"西和１１７之４號","OBJECTID":16892},"geometry":{"x":163277.75999999978,"y":2566019.6500000004}},{"attributes":{"ID":16893,"DIS_CODE":0,"TOWNNAME":"將軍區","LI":"西和里","LIN":"14鄰","STREET":" ","SECT":" ","MAREA":"西和","LANE":" ","ALLEY":" ","HOUSE_NO":"１１７之５號","E_COORD97":163278.54999999999,"N_COORD97":2566003.5600000001,"ADDRESS":"西和１１７之５號","OBJECTID":16893},"geometry":{"x":163278.55000000075,"y":2566003.5600000005}},{"attributes":{"ID":16894,"DIS_CODE":0,"TOWNNAME":"將軍區","LI":"西和里","LIN":"14鄰","STREET":" ","SECT":" ","MAREA":"西和","LANE":" ","ALLEY":" ","HOUSE_NO":"１１７之８號","E_COORD97":163258.95000000001,"N_COORD97":2566098.96,"ADDRESS":"西和１１７之８號","OBJECTID":16894},"geometry":{"x":163258.95000000112,"y":2566098.9600000009}},{"attributes":{"ID":16895,"DIS_CODE":0,"TOWNNAME":"將軍區","LI":"西和里","LIN":"14鄰","STREET":" ","SECT":" ","MAREA":"西和","LANE":" ","ALLEY":" ","HOUSE_NO":"１１７號","E_COORD97":163277.54999999999,"N_COORD97":2566084.3300000001,"ADDRESS":"西和１１７號","OBJECTID":16895},"geometry":{"x":163277.54999999981,"y":2566084.3300000019}},{"attributes":{"ID":16896,"DIS_CODE":0,"TOWNNAME":"將軍區","LI":"西和里","LIN":"14鄰","STREET":" ","SECT":" ","MAREA":"西和","LANE":" ","ALLEY":" ","HOUSE_NO":"１１８號","E_COORD97":163246.88,"N_COORD97":2566086.4300000002,"ADDRESS":"西和１１８號","OBJECTID":16896},"geometry":{"x":163246.87999999989,"y":2566086.4300000016}},{"attributes":{"ID":16897,"DIS_CODE":0,"TOWNNAME":"永康區","LI":"西勢里","LIN":"24鄰","STREET":"廣興街","SECT":" ","MAREA":" ","LANE":"３８巷","ALLEY":"４７弄","HOUSE_NO":"２４號五樓","E_COORD97":176100.62,"N_COORD97":2546504.25,"ADDRESS":"廣興街３８巷４７弄２４號五樓","OBJECTID":16897},"geometry":{"x":176100.62000000104,"y":2546504.2500000037}},{"attributes":{"ID":16898,"DIS_CODE":0,"TOWNNAME":"永康區","LI":"西勢里","LIN":"24鄰","STREET":"廣興街","SECT":" ","MAREA":" ","LANE":"３８巷","ALLEY":"４７弄","HOUSE_NO":"２０號六樓","E_COORD97":176090.38,"N_COORD97":2546486.25,"ADDRESS":"廣興街３８巷４７弄２０號六樓","OBJECTID":16898},"geometry":{"x":176090.38000000082,"y":2546486.25}},{"attributes":{"ID":16899,"DIS_CODE":0,"TOWNNAME":"永康區","LI":"復華里","LIN":"24鄰","STREET":"復華八街","SECT":" ","MAREA":" ","LANE":"４８巷","ALLEY":"１弄","HOUSE_NO":"７號","E_COORD97":172764.73999999999,"N_COORD97":2546238.8900000001,"ADDRESS":"復華八街４８巷１弄７號","OBJECTID":16899},"geometry":{"x":172764.74000000022,"y":2546238.8900000006}},{"attributes":{"ID":16900,"DIS_CODE":0,"TOWNNAME":"永康區","LI":"西勢里","LIN":"24鄰","STREET":"廣興街","SECT":" ","MAREA":" ","LANE":"３８巷","ALLEY":"４７弄","HOUSE_NO":"２０號三樓","E_COORD97":176090.38,"N_COORD97":2546486.25,"ADDRESS":"廣興街３８巷４７弄２０號三樓","OBJECTID":16900},"geometry":{"x":176090.38000000082,"y":2546486.25}},{"attributes":{"ID":16901,"DIS_CODE":0,"TOWNNAME":"永康區","LI":"西勢里","LIN":"24鄰","STREET":"廣興街","SECT":" ","MAREA":" ","LANE":"３８巷","ALLEY":"４７弄","HOUSE_NO":"２０號四樓","E_COORD97":176090.38,"N_COORD97":2546486.25,"ADDRESS":"廣興街３８巷４７弄２０號四樓","OBJECTID":16901},"geometry":{"x":176090.38000000082,"y":2546486.25}},{"attributes":{"ID":16902,"DIS_CODE":0,"TOWNNAME":"永康區","LI":"西勢里","LIN":"24鄰","STREET":"廣興街","SECT":" ","MAREA":" ","LANE":"３８巷","ALLEY":"４７弄","HOUSE_NO":"１８號六樓","E_COORD97":176093.92999999999,"N_COORD97":2546491.25,"ADDRESS":"廣興街３８巷４７弄１８號六樓","OBJECTID":16902},"geometry":{"x":176093.9299999997,"y":2546491.2500000019}},{"attributes":{"ID":16903,"DIS_CODE":0,"TOWNNAME":"永康區","LI":"西勢里","LIN":"24鄰","STREET":"廣興街","SECT":" ","MAREA":" ","LANE":"３８巷","ALLEY":"４７弄","HOUSE_NO":"２４號六樓","E_COORD97":176100.62,"N_COORD97":2546504.25,"ADDRESS":"廣興街３８巷４７弄２４號六樓","OBJECTID":16903},"geometry":{"x":176100.62000000104,"y":2546504.2500000037}},{"attributes":{"ID":16904,"DIS_CODE":0,"TOWNNAME":"永康區","LI":"崑山里","LIN":"24鄰","STREET":"大仁街","SECT":" ","MAREA":" ","LANE":" ","ALLEY":" ","HOUSE_NO":"７８號","E_COORD97":173829.89999999999,"N_COORD97":2544729.3300000001,"ADDRESS":"大仁街７８號","OBJECTID":16904},"geometry":{"x":173829.90000000037,"y":2544729.3300000001}},{"attributes":{"ID":16905,"DIS_CODE":0,"TOWNNAME":"永康區","LI":"勝利里","LIN":"24鄰","STREET":"勝利街","SECT":" ","MAREA":" ","LANE":" ","ALLEY":" ","HOUSE_NO":"１１４號","E_COORD97":171364.72,"N_COORD97":2544852.5699999998,"ADDRESS":"勝利街１１４號","OBJECTID":16905},"geometry":{"x":171364.7200000016,"y":2544852.5700000022}},{"attributes":{"ID":16906,"DIS_CODE":0,"TOWNNAME":"永康區","LI":"勝利里","LIN":"24鄰","STREET":"勝利街","SECT":" ","MAREA":" ","LANE":" ","ALLEY":" ","HOUSE_NO":"１０４號","E_COORD97":171361.03,"N_COORD97":2544832.5,"ADDRESS":"勝利街１０４號","OBJECTID":16906},"geometry":{"x":171361.03000000026,"y":2544832.5000000019}},{"attributes":{"ID":16907,"DIS_CODE":0,"TOWNNAME":"永康區","LI":"勝利里","LIN":"24鄰","STREET":"勝利街","SECT":" ","MAREA":" ","LANE":" ","ALLEY":" ","HOUSE_NO":"１１２號","E_COORD97":171364.31,"N_COORD97":2544848.0600000001,"ADDRESS":"勝利街１１２號","OBJECTID":16907},"geometry":{"x":171364.31000000052,"y":2544848.0599999987}},{"attributes":{"ID":16908,"DIS_CODE":0,"TOWNNAME":"永康區","LI":"安康里","LIN":"24鄰","STREET":"大橋一街","SECT":" ","MAREA":" ","LANE":" ","ALLEY":" ","HOUSE_NO":"１２６號","E_COORD97":170835.39000000001,"N_COORD97":2546361.1200000001,"ADDRESS":"大橋一街１２６號","OBJECTID":16908},"geometry":{"x":170835.38999999966,"y":2546361.1200000029}},{"attributes":{"ID":16909,"DIS_CODE":0,"TOWNNAME":"永康區","LI":"安康里","LIN":"24鄰","STREET":"大橋一街","SECT":" ","MAREA":" ","LANE":" ","ALLEY":" ","HOUSE_NO":"１３０號","E_COORD97":170840.98999999999,"N_COORD97":2546364.1600000001,"ADDRESS":"大橋一街１３０號","OBJECTID":16909},"geometry":{"x":170840.99000000022,"y":2546364.160000002}},{"attributes":{"ID":16910,"DIS_CODE":0,"TOWNNAME":"永康區","LI":"南灣里","LIN":"24鄰","STREET":"大灣一街","SECT":" ","MAREA":" ","LANE":" ","ALLEY":" ","HOUSE_NO":"１０３號","E_COORD97":174466.34,"N_COORD97":2544714.4199999999,"ADDRESS":"大灣一街１０３號","OBJECTID":16910},"geometry":{"x":174466.34000000078,"y":2544714.4200000018}},{"attributes":{"ID":16911,"DIS_CODE":0,"TOWNNAME":"永康區","LI":"西勢里","LIN":"24鄰","STREET":"廣興街","SECT":" ","MAREA":" ","LANE":"３８巷","ALLEY":"４７弄","HOUSE_NO":"１８號五樓","E_COORD97":176093.92999999999,"N_COORD97":2546491.25,"ADDRESS":"廣興街３８巷４７弄１８號五樓","OBJECTID":16911},"geometry":{"x":176093.9299999997,"y":2546491.2500000019}},{"attributes":{"ID":16912,"DIS_CODE":0,"TOWNNAME":"永康區","LI":"西勢里","LIN":"24鄰","STREET":"廣興街","SECT":" ","MAREA":" ","LANE":"３８巷","ALLEY":"４７弄","HOUSE_NO":"２２號四樓","E_COORD97":176097.28,"N_COORD97":2546498.5,"ADDRESS":"廣興街３８巷４７弄２２號四樓","OBJECTID":16912},"geometry":{"x":176097.28000000026,"y":2546498.5}},{"attributes":{"ID":16913,"DIS_CODE":0,"TOWNNAME":"永康區","LI":"西勢里","LIN":"24鄰","STREET":"廣興街","SECT":" ","MAREA":" ","LANE":"３８巷","ALLEY":"４７弄","HOUSE_NO":"２６號二樓","E_COORD97":176105.07000000001,"N_COORD97":2546511.7599999998,"ADDRESS":"廣興街３８巷４７弄２６號二樓","OBJECTID":16913},"geometry":{"x":176105.07000000123,"y":2546511.7600000016}},{"attributes":{"ID":16914,"DIS_CODE":0,"TOWNNAME":"東區","LI":"裕農里","LIN":"24鄰","STREET":"裕農路","SECT":" ","MAREA":" ","LANE":"３８９巷","ALLEY":"１弄","HOUSE_NO":"２號二樓","E_COORD97":171135.35999999999,"N_COORD97":2543169.3900000001,"ADDRESS":"裕農路３８９巷１弄２號二樓","OBJECTID":16914},"geometry":{"x":171135.3600000022,"y":2543169.3900000025}},{"attributes":{"ID":16915,"DIS_CODE":0,"TOWNNAME":"將軍區","LI":"西和里","LIN":"14鄰","STREET":" ","SECT":" ","MAREA":"西和","LANE":" ","ALLEY":" ","HOUSE_NO":"１１９號","E_COORD97":163248.13,"N_COORD97":2566063.6499999999,"ADDRESS":"西和１１９號","OBJECTID":16915},"geometry":{"x":163248.12999999989,"y":2566063.6500000004}},{"attributes":{"ID":16916,"DIS_CODE":0,"TOWNNAME":"東區","LI":"裕農里","LIN":"24鄰","STREET":"裕農路","SECT":" ","MAREA":" ","LANE":"３８９巷","ALLEY":"１弄","HOUSE_NO":"２號三樓","E_COORD97":171135.35999999999,"N_COORD97":2543169.3900000001,"ADDRESS":"裕農路３８９巷１弄２號三樓","OBJECTID":16916},"geometry":{"x":171135.3600000022,"y":2543169.3900000025}},{"attributes":{"ID":16917,"DIS_CODE":0,"TOWNNAME":"東區","LI":"裕農里","LIN":"24鄰","STREET":"裕農路","SECT":" ","MAREA":" ","LANE":"３８９巷","ALLEY":"１弄","HOUSE_NO":"２號四樓","E_COORD97":171135.35999999999,"N_COORD97":2543169.3900000001,"ADDRESS":"裕農路３８９巷１弄２號四樓","OBJECTID":16917},"geometry":{"x":171135.3600000022,"y":2543169.3900000025}},{"attributes":{"ID":16918,"DIS_CODE":0,"TOWNNAME":"東區","LI":"裕農里","LIN":"24鄰","STREET":"裕農路","SECT":" ","MAREA":" ","LANE":"３８９巷","ALLEY":"１弄","HOUSE_NO":"２號五樓","E_COORD97":171135.35999999999,"N_COORD97":2543169.3900000001,"ADDRESS":"裕農路３８９巷１弄２號五樓","OBJECTID":16918},"geometry":{"x":171135.3600000022,"y":2543169.3900000025}},{"attributes":{"ID":16919,"DIS_CODE":0,"TOWNNAME":"東區","LI":"裕農里","LIN":"24鄰","STREET":"裕農路","SECT":" ","MAREA":" ","LANE":"３８９巷","ALLEY":"１弄","HOUSE_NO":"４號二樓","E_COORD97":171128.48999999999,"N_COORD97":2543169.3900000001,"ADDRESS":"裕農路３８９巷１弄４號二樓","OBJECTID":16919},"geometry":{"x":171128.49000000022,"y":2543169.3900000025}},{"attributes":{"ID":16920,"DIS_CODE":0,"TOWNNAME":"東區","LI":"裕農里","LIN":"24鄰","STREET":"裕農路","SECT":" ","MAREA":" ","LANE":"３８９巷","ALLEY":"１弄","HOUSE_NO":"４號三樓","E_COORD97":171128.48999999999,"N_COORD97":2543169.3900000001,"ADDRESS":"裕農路３８９巷１弄４號三樓","OBJECTID":16920},"geometry":{"x":171128.49000000022,"y":2543169.3900000025}},{"attributes":{"ID":16921,"DIS_CODE":0,"TOWNNAME":"東區","LI":"裕農里","LIN":"24鄰","STREET":"裕農路","SECT":" ","MAREA":" ","LANE":"３８９巷","ALLEY":"１弄","HOUSE_NO":"４號四樓","E_COORD97":171128.48999999999,"N_COORD97":2543169.3900000001,"ADDRESS":"裕農路３８９巷１弄４號四樓","OBJECTID":16921},"geometry":{"x":171128.49000000022,"y":2543169.3900000025}},{"attributes":{"ID":16922,"DIS_CODE":0,"TOWNNAME":"東區","LI":"裕農里","LIN":"24鄰","STREET":"裕農路","SECT":" ","MAREA":" ","LANE":"３８９巷","ALLEY":"１弄","HOUSE_NO":"４號五樓","E_COORD97":171128.48999999999,"N_COORD97":2543169.3900000001,"ADDRESS":"裕農路３８９巷１弄４號五樓","OBJECTID":16922},"geometry":{"x":171128.49000000022,"y":2543169.3900000025}},{"attributes":{"ID":16923,"DIS_CODE":0,"TOWNNAME":"東區","LI":"裕農里","LIN":"24鄰","STREET":"裕農路","SECT":" ","MAREA":" ","LANE":"３８９巷","ALLEY":"１弄","HOUSE_NO":"６號二樓","E_COORD97":171117.38,"N_COORD97":2543166.8999999999,"ADDRESS":"裕農路３８９巷１弄６號二樓","OBJECTID":16923},"geometry":{"x":171117.37999999989,"y":2543166.9000000004}},{"attributes":{"ID":16924,"DIS_CODE":0,"TOWNNAME":"東區","LI":"裕農里","LIN":"24鄰","STREET":"裕農路","SECT":" ","MAREA":" ","LANE":"３８９巷","ALLEY":"１弄","HOUSE_NO":"６號三樓","E_COORD97":171117.38,"N_COORD97":2543166.8999999999,"ADDRESS":"裕農路３８９巷１弄６號三樓","OBJECTID":16924},"geometry":{"x":171117.37999999989,"y":2543166.9000000004}},{"attributes":{"ID":16925,"DIS_CODE":0,"TOWNNAME":"東區","LI":"裕農里","LIN":"24鄰","STREET":"裕農路","SECT":" ","MAREA":" ","LANE":"３８９巷","ALLEY":"１弄","HOUSE_NO":"６號四樓","E_COORD97":171117.38,"N_COORD97":2543166.8999999999,"ADDRESS":"裕農路３８９巷１弄６號四樓","OBJECTID":16925},"geometry":{"x":171117.37999999989,"y":2543166.9000000004}},{"attributes":{"ID":16926,"DIS_CODE":0,"TOWNNAME":"東區","LI":"裕農里","LIN":"24鄰","STREET":"裕農路","SECT":" ","MAREA":" ","LANE":"３８９巷","ALLEY":"１弄","HOUSE_NO":"６號五樓","E_COORD97":171117.38,"N_COORD97":2543166.8999999999,"ADDRESS":"裕農路３８９巷１弄６號五樓","OBJECTID":16926},"geometry":{"x":171117.37999999989,"y":2543166.9000000004}},{"attributes":{"ID":16927,"DIS_CODE":0,"TOWNNAME":"東區","LI":"裕農里","LIN":"24鄰","STREET":"裕農路","SECT":" ","MAREA":" ","LANE":"３８９巷","ALLEY":"１弄","HOUSE_NO":"８號二樓","E_COORD97":171111.34,"N_COORD97":2543166.48,"ADDRESS":"裕農路３８９巷１弄８號二樓","OBJECTID":16927},"geometry":{"x":171111.34000000171,"y":2543166.4800000004}},{"attributes":{"ID":16928,"DIS_CODE":0,"TOWNNAME":"東區","LI":"裕農里","LIN":"24鄰","STREET":"裕農路","SECT":" ","MAREA":" ","LANE":"３８９巷","ALLEY":"１弄","HOUSE_NO":"８號三樓","E_COORD97":171111.34,"N_COORD97":2543166.48,"ADDRESS":"裕農路３８９巷１弄８號三樓","OBJECTID":16928},"geometry":{"x":171111.34000000171,"y":2543166.4800000004}},{"attributes":{"ID":16929,"DIS_CODE":0,"TOWNNAME":"東區","LI":"裕農里","LIN":"24鄰","STREET":"裕農路","SECT":" ","MAREA":" ","LANE":"３８９巷","ALLEY":"１弄","HOUSE_NO":"８號四樓","E_COORD97":171111.34,"N_COORD97":2543166.48,"ADDRESS":"裕農路３８９巷１弄８號四樓","OBJECTID":16929},"geometry":{"x":171111.34000000171,"y":2543166.4800000004}},{"attributes":{"ID":16930,"DIS_CODE":0,"TOWNNAME":"東區","LI":"裕農里","LIN":"24鄰","STREET":"裕農路","SECT":" ","MAREA":" ","LANE":"３８９巷","ALLEY":"１弄","HOUSE_NO":"８號五樓","E_COORD97":171111.34,"N_COORD97":2543166.48,"ADDRESS":"裕農路３８９巷１弄８號五樓","OBJECTID":16930},"geometry":{"x":171111.34000000171,"y":2543166.4800000004}},{"attributes":{"ID":16931,"DIS_CODE":0,"TOWNNAME":"安南區","LI":"新順里","LIN":"24鄰","STREET":"景安街","SECT":" ","MAREA":" ","LANE":" ","ALLEY":" ","HOUSE_NO":"１０８號","E_COORD97":169430.69,"N_COORD97":2549173.98,"ADDRESS":"景安街１０８號","OBJECTID":16931},"geometry":{"x":169430.69000000041,"y":2549173.9800000004}},{"attributes":{"ID":16932,"DIS_CODE":0,"TOWNNAME":"東區","LI":"裕農里","LIN":"24鄰","STREET":"裕農路","SECT":" ","MAREA":" ","LANE":"３８９巷","ALLEY":"１弄","HOUSE_NO":"１０號二樓","E_COORD97":171102.60000000001,"N_COORD97":2543165.8599999999,"ADDRESS":"裕農路３８９巷１弄１０號二樓","OBJECTID":16932},"geometry":{"x":171102.60000000149,"y":2543165.8599999994}},{"attributes":{"ID":16933,"DIS_CODE":0,"TOWNNAME":"東區","LI":"裕農里","LIN":"24鄰","STREET":"裕農路","SECT":" ","MAREA":" ","LANE":"３８９巷","ALLEY":"１弄","HOUSE_NO":"１０號三樓","E_COORD97":171102.60000000001,"N_COORD97":2543165.8599999999,"ADDRESS":"裕農路３８９巷１弄１０號三樓","OBJECTID":16933},"geometry":{"x":171102.60000000149,"y":2543165.8599999994}},{"attributes":{"ID":16934,"DIS_CODE":0,"TOWNNAME":"東區","LI":"裕農里","LIN":"24鄰","STREET":"裕農路","SECT":" ","MAREA":" ","LANE":"３８９巷","ALLEY":"１弄","HOUSE_NO":"１０號四樓","E_COORD97":171102.60000000001,"N_COORD97":2543165.8599999999,"ADDRESS":"裕農路３８９巷１弄１０號四樓","OBJECTID":16934},"geometry":{"x":171102.60000000149,"y":2543165.8599999994}},{"attributes":{"ID":16935,"DIS_CODE":0,"TOWNNAME":"東區","LI":"裕農里","LIN":"24鄰","STREET":"裕農路","SECT":" ","MAREA":" ","LANE":"３８９巷","ALLEY":"１弄","HOUSE_NO":"１０號五樓","E_COORD97":171102.60000000001,"N_COORD97":2543165.8599999999,"ADDRESS":"裕農路３８９巷１弄１０號五樓","OBJECTID":16935},"geometry":{"x":171102.60000000149,"y":2543165.8599999994}},{"attributes":{"ID":16936,"DIS_CODE":0,"TOWNNAME":"東區","LI":"裕農里","LIN":"24鄰","STREET":"裕農路","SECT":" ","MAREA":" ","LANE":"３８９巷","ALLEY":"１弄","HOUSE_NO":"１２號二樓","E_COORD97":171094.48000000001,"N_COORD97":2543165.4399999999,"ADDRESS":"裕農路３８９巷１弄１２號二樓","OBJECTID":16936},"geometry":{"x":171094.48000000138,"y":2543165.4399999995}},{"attributes":{"ID":16937,"DIS_CODE":0,"TOWNNAME":"東區","LI":"裕農里","LIN":"24鄰","STREET":"裕農路","SECT":" ","MAREA":" ","LANE":"３８９巷","ALLEY":"１弄","HOUSE_NO":"１２號三樓","E_COORD97":171094.48000000001,"N_COORD97":2543165.4399999999,"ADDRESS":"裕農路３８９巷１弄１２號三樓","OBJECTID":16937},"geometry":{"x":171094.48000000138,"y":2543165.4399999995}},{"attributes":{"ID":16938,"DIS_CODE":0,"TOWNNAME":"永康區","LI":"成功里","LIN":"24鄰","STREET":"中華路","SECT":" ","MAREA":" ","LANE":"５８巷","ALLEY":" ","HOUSE_NO":"７２號","E_COORD97":171767.48000000001,"N_COORD97":2544739.79,"ADDRESS":"中華路５８巷７２號","OBJECTID":16938},"geometry":{"x":171767.48000000138,"y":2544739.7899999991}},{"attributes":{"ID":16939,"DIS_CODE":0,"TOWNNAME":"北區","LI":"成德里","LIN":"40鄰","STREET":"文成五街","SECT":" ","MAREA":" ","LANE":" ","ALLEY":" ","HOUSE_NO":"２４１號","E_COORD97":168090.44,"N_COORD97":2546451.6600000001,"ADDRESS":"文成五街２４１號","OBJECTID":16939},"geometry":{"x":168090.44000000227,"y":2546451.660000002}},{"attributes":{"ID":16940,"DIS_CODE":0,"TOWNNAME":"北區","LI":"成德里","LIN":"40鄰","STREET":"文成五街","SECT":" ","MAREA":" ","LANE":" ","ALLEY":" ","HOUSE_NO":"２４３號","E_COORD97":168085.57000000001,"N_COORD97":2546451.6600000001,"ADDRESS":"文成五街２４３號","OBJECTID":16940},"geometry":{"x":168085.5700000003,"y":2546451.660000002}},{"attributes":{"ID":16941,"DIS_CODE":0,"TOWNNAME":"北區","LI":"成德里","LIN":"34鄰","STREET":"文成路","SECT":" ","MAREA":" ","LANE":" ","ALLEY":" ","HOUSE_NO":"１２１號","E_COORD97":168646.72,"N_COORD97":2545912.73,"ADDRESS":"文成路１２１號","OBJECTID":16941},"geometry":{"x":168646.71999999974,"y":2545912.7300000023}},{"attributes":{"ID":16942,"DIS_CODE":0,"TOWNNAME":"北區","LI":"成德里","LIN":"39鄰","STREET":"北成路","SECT":" ","MAREA":" ","LANE":" ","ALLEY":" ","HOUSE_NO":"３４７號","E_COORD97":168253.64000000001,"N_COORD97":2546624.4500000002,"ADDRESS":"北成路３４７號","OBJECTID":16942},"geometry":{"x":168253.63999999966,"y":2546624.450000003}},{"attributes":{"ID":16943,"DIS_CODE":0,"TOWNNAME":"將軍區","LI":"西和里","LIN":"14鄰","STREET":" ","SECT":" ","MAREA":"西和","LANE":" ","ALLEY":" ","HOUSE_NO":"１２０號","E_COORD97":163226.60999999999,"N_COORD97":2566024.77,"ADDRESS":"西和１２０號","OBJECTID":16943},"geometry":{"x":163226.61000000034,"y":2566024.7699999996}},{"attributes":{"ID":16944,"DIS_CODE":0,"TOWNNAME":"將軍區","LI":"西和里","LIN":"14鄰","STREET":" ","SECT":" ","MAREA":"西和","LANE":" ","ALLEY":" ","HOUSE_NO":"１２１號","E_COORD97":163228.06,"N_COORD97":2566040.21,"ADDRESS":"西和１２１號","OBJECTID":16944},"geometry":{"x":163228.05999999959,"y":2566040.2100000009}},{"attributes":{"ID":16945,"DIS_CODE":0,"TOWNNAME":"將軍區","LI":"西和里","LIN":"14鄰","STREET":" ","SECT":" ","MAREA":"西和","LANE":" ","ALLEY":" ","HOUSE_NO":"１２２號","E_COORD97":163220.28,"N_COORD97":2566090.3799999999,"ADDRESS":"西和１２２號","OBJECTID":16945},"geometry":{"x":163220.28000000026,"y":2566090.379999999}},{"attributes":{"ID":16946,"DIS_CODE":0,"TOWNNAME":"東區","LI":"裕農里","LIN":"24鄰","STREET":"裕農路","SECT":" ","MAREA":" ","LANE":"３８９巷","ALLEY":"１弄","HOUSE_NO":"１２號四樓","E_COORD97":171094.48000000001,"N_COORD97":2543165.4399999999,"ADDRESS":"裕農路３８９巷１弄１２號四樓","OBJECTID":16946},"geometry":{"x":171094.48000000138,"y":2543165.4399999995}},{"attributes":{"ID":16947,"DIS_CODE":0,"TOWNNAME":"東區","LI":"裕農里","LIN":"24鄰","STREET":"裕農路","SECT":" ","MAREA":" ","LANE":"３８９巷","ALLEY":"１弄","HOUSE_NO":"１２號五樓","E_COORD97":171094.48000000001,"N_COORD97":2543165.4399999999,"ADDRESS":"裕農路３８９巷１弄１２號五樓","OBJECTID":16947},"geometry":{"x":171094.48000000138,"y":2543165.4399999995}},{"attributes":{"ID":16948,"DIS_CODE":0,"TOWNNAME":"東區","LI":"裕農里","LIN":"24鄰","STREET":"裕農路","SECT":" ","MAREA":" ","LANE":"３８９巷","ALLEY":"１弄","HOUSE_NO":"１號二樓","E_COORD97":171138.07000000001,"N_COORD97":2543146.3799999999,"ADDRESS":"裕農路３８９巷１弄１號二樓","OBJECTID":16948},"geometry":{"x":171138.07000000123,"y":2543146.3800000008}},{"attributes":{"ID":16949,"DIS_CODE":0,"TOWNNAME":"東區","LI":"裕農里","LIN":"24鄰","STREET":"裕農路","SECT":" ","MAREA":" ","LANE":"３８９巷","ALLEY":"１弄","HOUSE_NO":"１號三樓","E_COORD97":171138.07000000001,"N_COORD97":2543146.3799999999,"ADDRESS":"裕農路３８９巷１弄１號三樓","OBJECTID":16949},"geometry":{"x":171138.07000000123,"y":2543146.3800000008}},{"attributes":{"ID":16950,"DIS_CODE":0,"TOWNNAME":"東區","LI":"裕農里","LIN":"24鄰","STREET":"裕農路","SECT":" ","MAREA":" ","LANE":"３８９巷","ALLEY":"１弄","HOUSE_NO":"１號四樓","E_COORD97":171138.07000000001,"N_COORD97":2543146.3799999999,"ADDRESS":"裕農路３８９巷１弄１號四樓","OBJECTID":16950},"geometry":{"x":171138.07000000123,"y":2543146.3800000008}},{"attributes":{"ID":16951,"DIS_CODE":0,"TOWNNAME":"東區","LI":"裕農里","LIN":"24鄰","STREET":"裕農路","SECT":" ","MAREA":" ","LANE":"３８９巷","ALLEY":"１弄","HOUSE_NO":"１號五樓","E_COORD97":171138.07000000001,"N_COORD97":2543146.3799999999,"ADDRESS":"裕農路３８９巷１弄１號五樓","OBJECTID":16951},"geometry":{"x":171138.07000000123,"y":2543146.3800000008}},{"attributes":{"ID":16952,"DIS_CODE":0,"TOWNNAME":"東區","LI":"裕農里","LIN":"24鄰","STREET":"裕農路","SECT":" ","MAREA":" ","LANE":"３８９巷","ALLEY":"１弄","HOUSE_NO":"３號二樓","E_COORD97":171129.12,"N_COORD97":2543145.7599999998,"ADDRESS":"裕農路３８９巷１弄３號二樓","OBJECTID":16952},"geometry":{"x":171129.12000000104,"y":2543145.7600000016}},{"attributes":{"ID":16953,"DIS_CODE":0,"TOWNNAME":"東區","LI":"裕農里","LIN":"24鄰","STREET":"裕農路","SECT":" ","MAREA":" ","LANE":"３８９巷","ALLEY":"１弄","HOUSE_NO":"３號三樓","E_COORD97":171129.12,"N_COORD97":2543145.7599999998,"ADDRESS":"裕農路３８９巷１弄３號三樓","OBJECTID":16953},"geometry":{"x":171129.12000000104,"y":2543145.7600000016}},{"attributes":{"ID":16954,"DIS_CODE":0,"TOWNNAME":"東區","LI":"裕農里","LIN":"24鄰","STREET":"裕農路","SECT":" ","MAREA":" ","LANE":"３８９巷","ALLEY":"１弄","HOUSE_NO":"３號四樓","E_COORD97":171129.12,"N_COORD97":2543145.7599999998,"ADDRESS":"裕農路３８９巷１弄３號四樓","OBJECTID":16954},"geometry":{"x":171129.12000000104,"y":2543145.7600000016}},{"attributes":{"ID":16955,"DIS_CODE":0,"TOWNNAME":"東區","LI":"裕農里","LIN":"24鄰","STREET":"裕農路","SECT":" ","MAREA":" ","LANE":"３８９巷","ALLEY":"１弄","HOUSE_NO":"３號五樓","E_COORD97":171129.12,"N_COORD97":2543145.7599999998,"ADDRESS":"裕農路３８９巷１弄３號五樓","OBJECTID":16955},"geometry":{"x":171129.12000000104,"y":2543145.7600000016}},{"attributes":{"ID":16956,"DIS_CODE":0,"TOWNNAME":"東區","LI":"裕農里","LIN":"24鄰","STREET":"裕農路","SECT":" ","MAREA":" ","LANE":"３８９巷","ALLEY":"１弄","HOUSE_NO":"５號二樓","E_COORD97":171119.54000000001,"N_COORD97":2543141.8100000001,"ADDRESS":"裕農路３８９巷１弄５號二樓","OBJECTID":16956},"geometry":{"x":171119.54000000004,"y":2543141.8100000024}},{"attributes":{"ID":16957,"DIS_CODE":0,"TOWNNAME":"東區","LI":"裕農里","LIN":"24鄰","STREET":"裕農路","SECT":" ","MAREA":" ","LANE":"３８９巷","ALLEY":"１弄","HOUSE_NO":"５號三樓","E_COORD97":171119.54000000001,"N_COORD97":2543141.8100000001,"ADDRESS":"裕農路３８９巷１弄５號三樓","OBJECTID":16957},"geometry":{"x":171119.54000000004,"y":2543141.8100000024}},{"attributes":{"ID":16958,"DIS_CODE":0,"TOWNNAME":"東區","LI":"裕農里","LIN":"24鄰","STREET":"裕農路","SECT":" ","MAREA":" ","LANE":"３８９巷","ALLEY":"１弄","HOUSE_NO":"５號四樓","E_COORD97":171119.54000000001,"N_COORD97":2543141.8100000001,"ADDRESS":"裕農路３８９巷１弄５號四樓","OBJECTID":16958},"geometry":{"x":171119.54000000004,"y":2543141.8100000024}},{"attributes":{"ID":16959,"DIS_CODE":0,"TOWNNAME":"東區","LI":"裕農里","LIN":"24鄰","STREET":"裕農路","SECT":" ","MAREA":" ","LANE":"３８９巷","ALLEY":"１弄","HOUSE_NO":"５號五樓","E_COORD97":171119.54000000001,"N_COORD97":2543141.8100000001,"ADDRESS":"裕農路３８９巷１弄５號五樓","OBJECTID":16959},"geometry":{"x":171119.54000000004,"y":2543141.8100000024}},{"attributes":{"ID":16960,"DIS_CODE":0,"TOWNNAME":"東區","LI":"裕農里","LIN":"24鄰","STREET":"裕農路","SECT":" ","MAREA":" ","LANE":"３８９巷","ALLEY":"１弄","HOUSE_NO":"７號二樓","E_COORD97":171110.59,"N_COORD97":2543140.77,"ADDRESS":"裕農路３８９巷１弄７號二樓","OBJECTID":16960},"geometry":{"x":171110.58999999985,"y":2543140.7700000014}},{"attributes":{"ID":16961,"DIS_CODE":0,"TOWNNAME":"東區","LI":"裕農里","LIN":"24鄰","STREET":"裕農路","SECT":" ","MAREA":" ","LANE":"３８９巷","ALLEY":"１弄","HOUSE_NO":"７號三樓","E_COORD97":171110.59,"N_COORD97":2543140.77,"ADDRESS":"裕農路３８９巷１弄７號三樓","OBJECTID":16961},"geometry":{"x":171110.58999999985,"y":2543140.7700000014}},{"attributes":{"ID":16962,"DIS_CODE":0,"TOWNNAME":"東區","LI":"裕農里","LIN":"24鄰","STREET":"裕農路","SECT":" ","MAREA":" ","LANE":"３８９巷","ALLEY":"１弄","HOUSE_NO":"７號四樓","E_COORD97":171110.59,"N_COORD97":2543140.77,"ADDRESS":"裕農路３８９巷１弄７號四樓","OBJECTID":16962},"geometry":{"x":171110.58999999985,"y":2543140.7700000014}},{"attributes":{"ID":16963,"DIS_CODE":0,"TOWNNAME":"東區","LI":"裕農里","LIN":"24鄰","STREET":"裕農路","SECT":" ","MAREA":" ","LANE":"３８９巷","ALLEY":"１弄","HOUSE_NO":"７號五樓","E_COORD97":171110.59,"N_COORD97":2543140.77,"ADDRESS":"裕農路３８９巷１弄７號五樓","OBJECTID":16963},"geometry":{"x":171110.58999999985,"y":2543140.7700000014}},{"attributes":{"ID":16964,"DIS_CODE":0,"TOWNNAME":"永康區","LI":"復興里","LIN":"24鄰","STREET":"復興路","SECT":" ","MAREA":" ","LANE":"３５６巷","ALLEY":"８０弄","HOUSE_NO":"９２號","E_COORD97":172474.73000000001,"N_COORD97":2544574.5299999998,"ADDRESS":"復興路３５６巷８０弄９２號","OBJECTID":16964},"geometry":{"x":172474.73000000138,"y":2544574.5299999993}},{"attributes":{"ID":16965,"DIS_CODE":0,"TOWNNAME":"永康區","LI":"復興里","LIN":"24鄰","STREET":"復興路","SECT":" ","MAREA":" ","LANE":"３５６巷","ALLEY":"８０弄","HOUSE_NO":"１０號","E_COORD97":172383.79000000001,"N_COORD97":2544531.27,"ADDRESS":"復興路３５６巷８０弄１０號","OBJECTID":16965},"geometry":{"x":172383.79000000097,"y":2544531.2700000014}},{"attributes":{"ID":16966,"DIS_CODE":0,"TOWNNAME":"安南區","LI":"海東里","LIN":"24鄰","STREET":"同安路","SECT":" ","MAREA":" ","LANE":" ","ALLEY":" ","HOUSE_NO":"１９７號","E_COORD97":167141.97,"N_COORD97":2549148.1299999999,"ADDRESS":"同安路１９７號","OBJECTID":16966},"geometry":{"x":167141.9700000016,"y":2549148.129999999}},{"attributes":{"ID":16967,"DIS_CODE":0,"TOWNNAME":"安南區","LI":"海東里","LIN":"24鄰","STREET":"同安路","SECT":" ","MAREA":" ","LANE":" ","ALLEY":" ","HOUSE_NO":"１９９號","E_COORD97":167145.89000000001,"N_COORD97":2549150.98,"ADDRESS":"同安路１９９號","OBJECTID":16967},"geometry":{"x":167145.8900000006,"y":2549150.9800000042}},{"attributes":{"ID":16968,"DIS_CODE":0,"TOWNNAME":"官田區","LI":"二鎮里","LIN":"14鄰","STREET":" ","SECT":" ","MAREA":"程泰","LANE":" ","ALLEY":" ","HOUSE_NO":"６號","E_COORD97":181681.47,"N_COORD97":2566380.29,"ADDRESS":"程泰６號","OBJECTID":16968},"geometry":{"x":181681.4700000016,"y":2566380.2899999991}},{"attributes":{"ID":16969,"DIS_CODE":0,"TOWNNAME":"將軍區","LI":"西和里","LIN":"14鄰","STREET":" ","SECT":" ","MAREA":"西和","LANE":" ","ALLEY":" ","HOUSE_NO":"１２３之１號","E_COORD97":163192.92999999999,"N_COORD97":2566088.5,"ADDRESS":"西和１２３之１號","OBJECTID":16969},"geometry":{"x":163192.93000000063,"y":2566088.5}},{"attributes":{"ID":16970,"DIS_CODE":0,"TOWNNAME":"將軍區","LI":"西和里","LIN":"14鄰","STREET":" ","SECT":" ","MAREA":"西和","LANE":" ","ALLEY":" ","HOUSE_NO":"１２３號","E_COORD97":163194.88,"N_COORD97":2566060.9399999999,"ADDRESS":"西和１２３號","OBJECTID":16970},"geometry":{"x":163194.88000000082,"y":2566060.9399999995}},{"attributes":{"ID":16971,"DIS_CODE":0,"TOWNNAME":"將軍區","LI":"西和里","LIN":"14鄰","STREET":" ","SECT":" ","MAREA":"西和","LANE":" ","ALLEY":" ","HOUSE_NO":"１２４之１號","E_COORD97":163175.04999999999,"N_COORD97":2566093.6899999999,"ADDRESS":"西和１２４之１號","OBJECTID":16971},"geometry":{"x":163175.05000000075,"y":2566093.6900000032}},{"attributes":{"ID":16972,"DIS_CODE":0,"TOWNNAME":"將軍區","LI":"西和里","LIN":"14鄰","STREET":" ","SECT":" ","MAREA":"西和","LANE":" ","ALLEY":" ","HOUSE_NO":"１２４之２號","E_COORD97":163170.72,"N_COORD97":2566096.48,"ADDRESS":"西和１２４之２號","OBJECTID":16972},"geometry":{"x":163170.72000000067,"y":2566096.4800000042}},{"attributes":{"ID":16973,"DIS_CODE":0,"TOWNNAME":"安南區","LI":"海東里","LIN":"24鄰","STREET":"同安路","SECT":" ","MAREA":" ","LANE":" ","ALLEY":" ","HOUSE_NO":"２０１號","E_COORD97":167149.29999999999,"N_COORD97":2549153.75,"ADDRESS":"同安路２０１號","OBJECTID":16973},"geometry":{"x":167149.29999999981,"y":2549153.7500000019}},{"attributes":{"ID":16974,"DIS_CODE":0,"TOWNNAME":"安南區","LI":"海東里","LIN":"24鄰","STREET":"同安路","SECT":" ","MAREA":" ","LANE":" ","ALLEY":" ","HOUSE_NO":"２１１號","E_COORD97":167165.17999999999,"N_COORD97":2549169.6400000001,"ADDRESS":"同安路２１１號","OBJECTID":16974},"geometry":{"x":167165.1799999997,"y":2549169.6400000006}},{"attributes":{"ID":16975,"DIS_CODE":0,"TOWNNAME":"將軍區","LI":"西和里","LIN":"14鄰","STREET":" ","SECT":" ","MAREA":"西和","LANE":" ","ALLEY":" ","HOUSE_NO":"１２４號","E_COORD97":163167.34,"N_COORD97":2566081.3799999999,"ADDRESS":"西和１２４號","OBJECTID":16975},"geometry":{"x":163167.33999999985,"y":2566081.379999999}},{"attributes":{"ID":16976,"DIS_CODE":0,"TOWNNAME":"將軍區","LI":"西和里","LIN":"14鄰","STREET":" ","SECT":" ","MAREA":"西和","LANE":" ","ALLEY":" ","HOUSE_NO":"１２５號","E_COORD97":163147.16,"N_COORD97":2566079.8599999999,"ADDRESS":"西和１２５號","OBJECTID":16976},"geometry":{"x":163147.16000000201,"y":2566079.8600000013}},{"attributes":{"ID":16977,"DIS_CODE":0,"TOWNNAME":"永康區","LI":"復華里","LIN":"24鄰","STREET":"國華街","SECT":" ","MAREA":" ","LANE":"１３２巷","ALLEY":"１弄","HOUSE_NO":"１號","E_COORD97":172819.81,"N_COORD97":2546274.6200000001,"ADDRESS":"國華街１３２巷１弄１號","OBJECTID":16977},"geometry":{"x":172819.80999999959,"y":2546274.620000001}},{"attributes":{"ID":16978,"DIS_CODE":0,"TOWNNAME":"永康區","LI":"復華里","LIN":"24鄰","STREET":"國華街","SECT":" ","MAREA":" ","LANE":"１３２巷","ALLEY":"３弄","HOUSE_NO":"１２號","E_COORD97":172822.48000000001,"N_COORD97":2546324.4300000002,"ADDRESS":"國華街１３２巷３弄１２號","OBJECTID":16978},"geometry":{"x":172822.48000000045,"y":2546324.4300000016}},{"attributes":{"ID":16979,"DIS_CODE":0,"TOWNNAME":"永康區","LI":"復華里","LIN":"24鄰","STREET":"復華八街","SECT":" ","MAREA":" ","LANE":"４８巷","ALLEY":"１弄","HOUSE_NO":"１６號","E_COORD97":172794.76000000001,"N_COORD97":2546246.54,"ADDRESS":"復華八街４８巷１弄１６號","OBJECTID":16979},"geometry":{"x":172794.75999999978,"y":2546246.5399999991}},{"attributes":{"ID":16980,"DIS_CODE":0,"TOWNNAME":"永康區","LI":"復華里","LIN":"24鄰","STREET":"復華八街","SECT":" ","MAREA":" ","LANE":"４８巷","ALLEY":"１弄","HOUSE_NO":"１４號","E_COORD97":172791.78,"N_COORD97":2546241.29,"ADDRESS":"復華八街４８巷１弄１４號","OBJECTID":16980},"geometry":{"x":172791.78000000026,"y":2546241.2899999991}},{"attributes":{"ID":16981,"DIS_CODE":0,"TOWNNAME":"永康區","LI":"二王里","LIN":"24鄰","STREET":"中山南路","SECT":" ","MAREA":" ","LANE":"５４４巷","ALLEY":"６３弄","HOUSE_NO":"１２號","E_COORD97":172372.39000000001,"N_COORD97":2546388.3199999998,"ADDRESS":"中山南路５４４巷６３弄１２號","OBJECTID":16981},"geometry":{"x":172372.3900000006,"y":2546388.3200000003}},{"attributes":{"ID":16982,"DIS_CODE":0,"TOWNNAME":"將軍區","LI":"西和里","LIN":"14鄰","STREET":" ","SECT":" ","MAREA":"西和","LANE":" ","ALLEY":" ","HOUSE_NO":"１２８號","E_COORD97":163112.12,"N_COORD97":2566071.1899999999,"ADDRESS":"西和１２８號","OBJECTID":16982},"geometry":{"x":163112.12000000104,"y":2566071.1900000013}},{"attributes":{"ID":16983,"DIS_CODE":0,"TOWNNAME":"永康區","LI":"三合里","LIN":"24鄰","STREET":"南工街","SECT":" ","MAREA":" ","LANE":"２６７巷","ALLEY":"１４弄","HOUSE_NO":"２號","E_COORD97":171866.67000000001,"N_COORD97":2545913.9199999999,"ADDRESS":"南工街２６７巷１４弄２號","OBJECTID":16983},"geometry":{"x":171866.66999999993,"y":2545913.9200000018}},{"attributes":{"ID":16984,"DIS_CODE":0,"TOWNNAME":"將軍區","LI":"西華里","LIN":"14鄰","STREET":" ","SECT":" ","MAREA":"西華","LANE":" ","ALLEY":" ","HOUSE_NO":"１５２之１號","E_COORD97":163429.76999999999,"N_COORD97":2566221.1099999999,"ADDRESS":"西華１５２之１號","OBJECTID":16984},"geometry":{"x":163429.76999999955,"y":2566221.1100000013}},{"attributes":{"ID":16985,"DIS_CODE":0,"TOWNNAME":"將軍區","LI":"西華里","LIN":"14鄰","STREET":" ","SECT":" ","MAREA":"西華","LANE":" ","ALLEY":" ","HOUSE_NO":"１５２號","E_COORD97":163429.64000000001,"N_COORD97":2566210.5099999998,"ADDRESS":"西華１５２號","OBJECTID":16985},"geometry":{"x":163429.63999999966,"y":2566210.5100000035}},{"attributes":{"ID":16986,"DIS_CODE":0,"TOWNNAME":"永康區","LI":"三合里","LIN":"24鄰","STREET":"南工街","SECT":" ","MAREA":" ","LANE":"３１１巷","ALLEY":"４３弄","HOUSE_NO":"７號","E_COORD97":171844.59,"N_COORD97":2545883.9900000002,"ADDRESS":"南工街３１１巷４３弄７號","OBJECTID":16986},"geometry":{"x":171844.58999999985,"y":2545883.9900000021}},{"attributes":{"ID":16987,"DIS_CODE":0,"TOWNNAME":"永康區","LI":"三合里","LIN":"24鄰","STREET":"南工街","SECT":" ","MAREA":" ","LANE":"２６７巷","ALLEY":"１４弄","HOUSE_NO":"７號","E_COORD97":171846.04999999999,"N_COORD97":2545915.4199999999,"ADDRESS":"南工街２６７巷１４弄７號","OBJECTID":16987},"geometry":{"x":171846.05000000075,"y":2545915.4199999999}},{"attributes":{"ID":16988,"DIS_CODE":0,"TOWNNAME":"將軍區","LI":"西華里","LIN":"14鄰","STREET":" ","SECT":" ","MAREA":"西華","LANE":" ","ALLEY":" ","HOUSE_NO":"１５３號","E_COORD97":163453.28,"N_COORD97":2566218.0800000001,"ADDRESS":"西華１５３號","OBJECTID":16988},"geometry":{"x":163453.28000000212,"y":2566218.0800000019}},{"attributes":{"ID":16989,"DIS_CODE":0,"TOWNNAME":"將軍區","LI":"西華里","LIN":"14鄰","STREET":" ","SECT":" ","MAREA":"西華","LANE":" ","ALLEY":" ","HOUSE_NO":"１５４號","E_COORD97":163478.64999999999,"N_COORD97":2566137.4399999999,"ADDRESS":"西華１５４號","OBJECTID":16989},"geometry":{"x":163478.6500000013,"y":2566137.4400000013}},{"attributes":{"ID":16990,"DIS_CODE":0,"TOWNNAME":"永康區","LI":"二王里","LIN":"24鄰","STREET":"中山南路","SECT":" ","MAREA":" ","LANE":"５４４巷","ALLEY":"６３弄","HOUSE_NO":"２３號","E_COORD97":172410.64000000001,"N_COORD97":2546407.5800000001,"ADDRESS":"中山南路５４４巷６３弄２３號","OBJECTID":16990},"geometry":{"x":172410.63999999966,"y":2546407.5800000019}},{"attributes":{"ID":16991,"DIS_CODE":0,"TOWNNAME":"將軍區","LI":"西華里","LIN":"14鄰","STREET":" ","SECT":" ","MAREA":"西華","LANE":" ","ALLEY":" ","HOUSE_NO":"１５５號","E_COORD97":163464.89999999999,"N_COORD97":2566176.1699999999,"ADDRESS":"西華１５５號","OBJECTID":16991},"geometry":{"x":163464.9000000013,"y":2566176.1700000018}},{"attributes":{"ID":16992,"DIS_CODE":0,"TOWNNAME":"將軍區","LI":"西華里","LIN":"14鄰","STREET":" ","SECT":" ","MAREA":"西華","LANE":" ","ALLEY":" ","HOUSE_NO":"１５６之１００號","E_COORD97":163529.82000000001,"N_COORD97":2566131.6800000002,"ADDRESS":"西華１５６之１００號","OBJECTID":16992},"geometry":{"x":163529.82000000123,"y":2566131.6800000016}},{"attributes":{"ID":16993,"DIS_CODE":0,"TOWNNAME":"永康區","LI":"中興里","LIN":"24鄰","STREET":"中華路","SECT":" ","MAREA":" ","LANE":"２１６巷","ALLEY":"４０弄","HOUSE_NO":"８號","E_COORD97":171843.17999999999,"N_COORD97":2545115.2400000002,"ADDRESS":"中華路２１６巷４０弄８號","OBJECTID":16993},"geometry":{"x":171843.18000000063,"y":2545115.2400000021}},{"attributes":{"ID":16994,"DIS_CODE":0,"TOWNNAME":"永康區","LI":"三合里","LIN":"24鄰","STREET":"南工街","SECT":" ","MAREA":" ","LANE":"３１１巷","ALLEY":"４３弄","HOUSE_NO":"２號","E_COORD97":171816.17999999999,"N_COORD97":2545917.9300000002,"ADDRESS":"南工街３１１巷４３弄２號","OBJECTID":16994},"geometry":{"x":171816.18000000063,"y":2545917.9300000016}},{"attributes":{"ID":16995,"DIS_CODE":0,"TOWNNAME":"永康區","LI":"二王里","LIN":"24鄰","STREET":"中山南路","SECT":" ","MAREA":" ","LANE":"５４４巷","ALLEY":"６３弄","HOUSE_NO":"１７號","E_COORD97":172391.89999999999,"N_COORD97":2546407.3300000001,"ADDRESS":"中山南路５４４巷６３弄１７號","OBJECTID":16995},"geometry":{"x":172391.9000000013,"y":2546407.3300000001}},{"attributes":{"ID":16996,"DIS_CODE":0,"TOWNNAME":"將軍區","LI":"西華里","LIN":"14鄰","STREET":" ","SECT":" ","MAREA":"西華","LANE":" ","ALLEY":" ","HOUSE_NO":"１５６之１０２號","E_COORD97":163530.57000000001,"N_COORD97":2566127.6299999999,"ADDRESS":"西華１５６之１０２號","OBJECTID":16996},"geometry":{"x":163530.5700000003,"y":2566127.6300000027}},{"attributes":{"ID":16997,"DIS_CODE":0,"TOWNNAME":"將軍區","LI":"西華里","LIN":"14鄰","STREET":" ","SECT":" ","MAREA":"西華","LANE":" ","ALLEY":" ","HOUSE_NO":"１５６之１０６號","E_COORD97":163530.89000000001,"N_COORD97":2566123.5,"ADDRESS":"西華１５６之１０６號","OBJECTID":16997},"geometry":{"x":163530.88999999966,"y":2566123.5000000019}},{"attributes":{"ID":16998,"DIS_CODE":0,"TOWNNAME":"安南區","LI":"新順里","LIN":"24鄰","STREET":"景安街","SECT":" ","MAREA":" ","LANE":" ","ALLEY":" ","HOUSE_NO":"１０２號","E_COORD97":169443.76999999999,"N_COORD97":2549172.5800000001,"ADDRESS":"景安街１０２號","OBJECTID":16998},"geometry":{"x":169443.77000000048,"y":2549172.5800000001}},{"attributes":{"ID":16999,"DIS_CODE":0,"TOWNNAME":"安南區","LI":"新順里","LIN":"24鄰","STREET":"景安街","SECT":" ","MAREA":" ","LANE":" ","ALLEY":" ","HOUSE_NO":"１００號","E_COORD97":169448.20999999999,"N_COORD97":2549172.0699999998,"ADDRESS":"景安街１００號","OBJECTID":16999},"geometry":{"x":169448.21000000089,"y":2549172.0700000022}},{"attributes":{"ID":17000,"DIS_CODE":0,"TOWNNAME":"永康區","LI":"崑山里","LIN":"24鄰","STREET":"大仁街","SECT":" ","MAREA":" ","LANE":" ","ALLEY":" ","HOUSE_NO":"６４號","E_COORD97":173821.10000000001,"N_COORD97":2544702.8300000001,"ADDRESS":"大仁街６４號","OBJECTID":17000},"geometry":{"x":173821.09999999963,"y":2544702.8300000001}}]}