{"displayFieldName":"TOWNNAME","fieldAliases":{"ID":"ID","DIS_CODE":"DIS_CODE","TOWNNAME":"TOWNNAME","LI":"LI","LIN":"LIN","STREET":"STREET","SECT":"SECT","MAREA":"MAREA","LANE":"LANE","ALLEY":"ALLEY","HOUSE_NO":"HOUSE_NO","E_COORD97":"E_COORD97","N_COORD97":"N_COORD97","ADDRESS":"ADDRESS","OBJECTID":"OBJECTID"},"geometryType":"esriGeometryPoint","spatialReference":{"wkid":102443,"latestWkid":3826},"fields":[{"name":"ID","type":"esriFieldTypeDouble","alias":"ID"},{"name":"DIS_CODE","type":"esriFieldTypeInteger","alias":"DIS_CODE"},{"name":"TOWNNAME","type":"esriFieldTypeString","alias":"TOWNNAME","length":8},{"name":"LI","type":"esriFieldTypeString","alias":"LI","length":8},{"name":"LIN","type":"esriFieldTypeString","alias":"LIN","length":12},{"name":"STREET","type":"esriFieldTypeString","alias":"STREET","length":20},{"name":"SECT","type":"esriFieldTypeString","alias":"SECT","length":8},{"name":"MAREA","type":"esriFieldTypeString","alias":"MAREA","length":12},{"name":"LANE","type":"esriFieldTypeString","alias":"LANE","length":10},{"name":"ALLEY","type":"esriFieldTypeString","alias":"ALLEY","length":10},{"name":"HOUSE_NO","type":"esriFieldTypeString","alias":"HOUSE_NO","length":20},{"name":"E_COORD97","type":"esriFieldTypeDouble","alias":"E_COORD97"},{"name":"N_COORD97","type":"esriFieldTypeDouble","alias":"N_COORD97"},{"name":"ADDRESS","type":"esriFieldTypeString","alias":"ADDRESS","length":50},{"name":"OBJECTID","type":"esriFieldTypeOID","alias":"OBJECTID"}],"features":[{"attributes":{"ID":228405,"DIS_CODE":0,"TOWNNAME":"永康區","LI":"復國里","LIN":"3鄰","STREET":"復國一路","SECT":" ","MAREA":" ","LANE":"４４巷","ALLEY":" ","HOUSE_NO":"１５號","E_COORD97":172764.01000000001,"N_COORD97":2544833.77,"ADDRESS":"復國一路４４巷１５號","OBJECTID":228401},"geometry":{"x":172764.00999999978,"y":2544833.7700000014}},{"attributes":{"ID":228406,"DIS_CODE":0,"TOWNNAME":"永康區","LI":"\u25A0行里","LIN":"3鄰","STREET":"中正路","SECT":" ","MAREA":" ","LANE":"８７２巷","ALLEY":" ","HOUSE_NO":"３號","E_COORD97":172126.29999999999,"N_COORD97":2548813.25,"ADDRESS":"中正路８７２巷３號","OBJECTID":228402},"geometry":{"x":172126.29999999981,"y":2548813.2500000037}},{"attributes":{"ID":228407,"DIS_CODE":0,"TOWNNAME":"永康區","LI":"六合里","LIN":"3鄰","STREET":"中山南路","SECT":" ","MAREA":" ","LANE":"１０４巷","ALLEY":" ","HOUSE_NO":"２號","E_COORD97":170995.62,"N_COORD97":2545897.75,"ADDRESS":"中山南路１０４巷２號","OBJECTID":228403},"geometry":{"x":170995.62000000011,"y":2545897.7500000019}},{"attributes":{"ID":228408,"DIS_CODE":0,"TOWNNAME":"安平區","LI":"華平里","LIN":"3鄰","STREET":"國平路","SECT":" ","MAREA":" ","LANE":"５５２巷","ALLEY":" ","HOUSE_NO":"１０８號","E_COORD97":165342.60000000001,"N_COORD97":2544109.1800000002,"ADDRESS":"國平路５５２巷１０８號","OBJECTID":228404},"geometry":{"x":165342.60000000056,"y":2544109.1799999997}},{"attributes":{"ID":228409,"DIS_CODE":0,"TOWNNAME":"歸仁區","LI":"大潭里","LIN":"3鄰","STREET":"大潭一街","SECT":" ","MAREA":" ","LANE":"５１巷","ALLEY":" ","HOUSE_NO":"２０號","E_COORD97":175314.22,"N_COORD97":2534658.25,"ADDRESS":"大潭一街５１巷２０號","OBJECTID":228405},"geometry":{"x":175314.21999999974,"y":2534658.2500000037}},{"attributes":{"ID":228410,"DIS_CODE":0,"TOWNNAME":"楠西區","LI":"東勢里","LIN":"3鄰","STREET":"民權路","SECT":" ","MAREA":" ","LANE":"３０巷","ALLEY":" ","HOUSE_NO":"３號","E_COORD97":197321.84,"N_COORD97":2564242.29,"ADDRESS":"民權路３０巷３號","OBJECTID":228406},"geometry":{"x":197321.83999999985,"y":2564242.290000001}},{"attributes":{"ID":228411,"DIS_CODE":0,"TOWNNAME":"新營區","LI":"新東里","LIN":"3鄰","STREET":"東大街","SECT":" ","MAREA":" ","LANE":"１２巷","ALLEY":" ","HOUSE_NO":"７號","E_COORD97":181036.01000000001,"N_COORD97":2579058.4500000002,"ADDRESS":"東大街１２巷７號","OBJECTID":228407},"geometry":{"x":181036.01000000071,"y":2579058.4499999993}},{"attributes":{"ID":228412,"DIS_CODE":0,"TOWNNAME":"鹽水區","LI":"橋南里","LIN":"23鄰","STREET":"新中路","SECT":" ","MAREA":" ","LANE":"８２巷","ALLEY":" ","HOUSE_NO":"９５號","E_COORD97":175798.03,"N_COORD97":2578658.6600000001,"ADDRESS":"新中路８２巷９５號","OBJECTID":228408},"geometry":{"x":175798.03000000119,"y":2578658.6600000001}},{"attributes":{"ID":228413,"DIS_CODE":0,"TOWNNAME":"鹽水區","LI":"橋南里","LIN":"23鄰","STREET":"新中路","SECT":" ","MAREA":" ","LANE":"８２巷","ALLEY":" ","HOUSE_NO":"９７號","E_COORD97":175793.88,"N_COORD97":2578659.6899999999,"ADDRESS":"新中路８２巷９７號","OBJECTID":228409},"geometry":{"x":175793.88000000082,"y":2578659.6900000013}},{"attributes":{"ID":228414,"DIS_CODE":0,"TOWNNAME":"新營區","LI":"南紙里","LIN":"3鄰","STREET":"太子路","SECT":" ","MAREA":" ","LANE":"１５３巷","ALLEY":" ","HOUSE_NO":"１９號","E_COORD97":177944.26999999999,"N_COORD97":2577808.4700000002,"ADDRESS":"太子路１５３巷１９號","OBJECTID":228410},"geometry":{"x":177944.26999999955,"y":2577808.4700000025}},{"attributes":{"ID":228415,"DIS_CODE":0,"TOWNNAME":"新營區","LI":"新東里","LIN":"3鄰","STREET":"東大街","SECT":" ","MAREA":" ","LANE":"１２巷","ALLEY":" ","HOUSE_NO":"１號","E_COORD97":181023.70999999999,"N_COORD97":2579059.6200000001,"ADDRESS":"東大街１２巷１號","OBJECTID":228411},"geometry":{"x":181023.70999999996,"y":2579059.620000001}},{"attributes":{"ID":228416,"DIS_CODE":0,"TOWNNAME":"新營區","LI":"民榮里","LIN":"34鄰","STREET":"復興路","SECT":" ","MAREA":" ","LANE":" ","ALLEY":" ","HOUSE_NO":"３０１之１號","E_COORD97":178606.39999999999,"N_COORD97":2578135.3500000001,"ADDRESS":"復興路３０１之１號","OBJECTID":228412},"geometry":{"x":178606.4000000013,"y":2578135.3500000034}},{"attributes":{"ID":228417,"DIS_CODE":0,"TOWNNAME":"南區","LI":"新昌里","LIN":"17鄰","STREET":"大德街","SECT":" ","MAREA":" ","LANE":"１４１巷","ALLEY":" ","HOUSE_NO":"４９號之１１","E_COORD97":167547.77404600001,"N_COORD97":2542828.5383199998,"ADDRESS":"大德街１４１巷４９號之１１","OBJECTID":228413},"geometry":{"x":167547.77404600196,"y":2542828.5383160003}},{"attributes":{"ID":228418,"DIS_CODE":0,"TOWNNAME":"新營區","LI":"民榮里","LIN":"34鄰","STREET":"復興路","SECT":" ","MAREA":" ","LANE":" ","ALLEY":" ","HOUSE_NO":"３０１號地下室","E_COORD97":178605.53,"N_COORD97":2578125.3399999999,"ADDRESS":"復興路３０１號地下室","OBJECTID":228414},"geometry":{"x":178605.53000000119,"y":2578125.339999998}},{"attributes":{"ID":228419,"DIS_CODE":0,"TOWNNAME":"新營區","LI":"新東里","LIN":"3鄰","STREET":"東大街","SECT":" ","MAREA":" ","LANE":"１２巷","ALLEY":" ","HOUSE_NO":"６號","E_COORD97":181026.73999999999,"N_COORD97":2579049.6400000001,"ADDRESS":"東大街１２巷６號","OBJECTID":228415},"geometry":{"x":181026.74000000022,"y":2579049.6400000006}},{"attributes":{"ID":228420,"DIS_CODE":0,"TOWNNAME":"安平區","LI":"億載里","LIN":"3鄰","STREET":"永華十二街","SECT":" ","MAREA":" ","LANE":"３９巷","ALLEY":" ","HOUSE_NO":"１６號","E_COORD97":163720.07999999999,"N_COORD97":2543693.2000000002,"ADDRESS":"永華十二街３９巷１６號","OBJECTID":228416},"geometry":{"x":163720.08000000007,"y":2543693.200000003}},{"attributes":{"ID":228421,"DIS_CODE":0,"TOWNNAME":"南區","LI":"南都里","LIN":"3鄰","STREET":"中華南路","SECT":"二段","MAREA":" ","LANE":"３１５巷","ALLEY":" ","HOUSE_NO":"８號","E_COORD97":166416.78,"N_COORD97":2540155.8300000001,"ADDRESS":"中華南路二段３１５巷８號","OBJECTID":228417},"geometry":{"x":166416.78000000119,"y":2540155.8300000001}},{"attributes":{"ID":228422,"DIS_CODE":0,"TOWNNAME":"安平區","LI":"億載里","LIN":"3鄰","STREET":"永華十二街","SECT":" ","MAREA":" ","LANE":"３９巷","ALLEY":" ","HOUSE_NO":"１１號","E_COORD97":163730.29000000001,"N_COORD97":2543677.5099999998,"ADDRESS":"永華十二街３９巷１１號","OBJECTID":228418},"geometry":{"x":163730.29000000004,"y":2543677.5099999998}},{"attributes":{"ID":228423,"DIS_CODE":0,"TOWNNAME":"安平區","LI":"億載里","LIN":"3鄰","STREET":"永華十二街","SECT":" ","MAREA":" ","LANE":"３９巷","ALLEY":" ","HOUSE_NO":"９號","E_COORD97":163735,"N_COORD97":2543677.8999999999,"ADDRESS":"永華十二街３９巷９號","OBJECTID":228419},"geometry":{"x":163735.00000000093,"y":2543677.9000000004}},{"attributes":{"ID":228424,"DIS_CODE":0,"TOWNNAME":"安平區","LI":"億載里","LIN":"3鄰","STREET":"永華十二街","SECT":" ","MAREA":" ","LANE":"３９巷","ALLEY":" ","HOUSE_NO":"１０號","E_COORD97":163733.82000000001,"N_COORD97":2543695.5499999998,"ADDRESS":"永華十二街３９巷１０號","OBJECTID":228420},"geometry":{"x":163733.8200000003,"y":2543695.5500000007}},{"attributes":{"ID":228425,"DIS_CODE":0,"TOWNNAME":"安平區","LI":"億載里","LIN":"3鄰","STREET":"永華十二街","SECT":" ","MAREA":" ","LANE":"１１３巷","ALLEY":" ","HOUSE_NO":"８號","E_COORD97":163736.95999999999,"N_COORD97":2543725.3700000001,"ADDRESS":"永華十二街１１３巷８號","OBJECTID":228421},"geometry":{"x":163736.96000000089,"y":2543725.3700000029}},{"attributes":{"ID":228426,"DIS_CODE":0,"TOWNNAME":"南區","LI":"省躬里","LIN":"3鄰","STREET":"灣裡路","SECT":" ","MAREA":" ","LANE":"１３６巷","ALLEY":" ","HOUSE_NO":"１６號","E_COORD97":165959.85000000001,"N_COORD97":2536761.7400000002,"ADDRESS":"灣裡路１３６巷１６號","OBJECTID":228422},"geometry":{"x":165959.85000000056,"y":2536761.7400000021}},{"attributes":{"ID":228427,"DIS_CODE":0,"TOWNNAME":"北區","LI":"仁愛里","LIN":"3鄰","STREET":"勝利路","SECT":" ","MAREA":" ","LANE":"２０６巷","ALLEY":" ","HOUSE_NO":"２１號","E_COORD97":169994.94,"N_COORD97":2545002.3599999999,"ADDRESS":"勝利路２０６巷２１號","OBJECTID":228423},"geometry":{"x":169994.94000000041,"y":2545002.3600000013}},{"attributes":{"ID":228428,"DIS_CODE":0,"TOWNNAME":"北區","LI":"仁愛里","LIN":"3鄰","STREET":"勝利路","SECT":" ","MAREA":" ","LANE":"２０６巷","ALLEY":" ","HOUSE_NO":"２５號","E_COORD97":169991.85000000001,"N_COORD97":2545009.6200000001,"ADDRESS":"勝利路２０６巷２５號","OBJECTID":228424},"geometry":{"x":169991.84999999963,"y":2545009.620000001}},{"attributes":{"ID":228429,"DIS_CODE":0,"TOWNNAME":"北區","LI":"仁愛里","LIN":"3鄰","STREET":"勝利路","SECT":" ","MAREA":" ","LANE":"２０６巷","ALLEY":" ","HOUSE_NO":"２３號","E_COORD97":169993.32999999999,"N_COORD97":2545006.2599999998,"ADDRESS":"勝利路２０６巷２３號","OBJECTID":228425},"geometry":{"x":169993.33000000101,"y":2545006.2600000016}},{"attributes":{"ID":228430,"DIS_CODE":0,"TOWNNAME":"北區","LI":"仁愛里","LIN":"3鄰","STREET":"勝利路","SECT":" ","MAREA":" ","LANE":"２０６巷","ALLEY":" ","HOUSE_NO":"１１號","E_COORD97":169972.75,"N_COORD97":2544997.25,"ADDRESS":"勝利路２０６巷１１號","OBJECTID":228426},"geometry":{"x":169972.75,"y":2544997.2500000019}},{"attributes":{"ID":228431,"DIS_CODE":0,"TOWNNAME":"北區","LI":"振興里","LIN":"3鄰","STREET":"開元路","SECT":" ","MAREA":" ","LANE":"１６６巷","ALLEY":" ","HOUSE_NO":"２２號","E_COORD97":170071.04000000001,"N_COORD97":2545221.6400000001,"ADDRESS":"開元路１６６巷２２號","OBJECTID":228427},"geometry":{"x":170071.0400000019,"y":2545221.6400000025}},{"attributes":{"ID":228432,"DIS_CODE":0,"TOWNNAME":"北區","LI":"振興里","LIN":"3鄰","STREET":"開元路","SECT":" ","MAREA":" ","LANE":"１６６巷","ALLEY":" ","HOUSE_NO":"２４號","E_COORD97":170078.57999999999,"N_COORD97":2545216.3700000001,"ADDRESS":"開元路１６６巷２４號","OBJECTID":228428},"geometry":{"x":170078.58000000007,"y":2545216.3700000048}},{"attributes":{"ID":228433,"DIS_CODE":0,"TOWNNAME":"六甲區","LI":"水林里","LIN":"3鄰","STREET":"民族街","SECT":" ","MAREA":" ","LANE":"２７５巷","ALLEY":" ","HOUSE_NO":"２１號","E_COORD97":183114.41,"N_COORD97":2570284.4500000002,"ADDRESS":"民族街２７５巷２１號","OBJECTID":228429},"geometry":{"x":183114.41000000015,"y":2570284.4499999993}},{"attributes":{"ID":228434,"DIS_CODE":0,"TOWNNAME":"歸仁區","LI":"七甲里","LIN":"3鄰","STREET":"中正北路","SECT":"二段","MAREA":" ","LANE":"５０１巷","ALLEY":" ","HOUSE_NO":"５５號","E_COORD97":177313.26999999999,"N_COORD97":2543204.2599999998,"ADDRESS":"中正北路二段５０１巷５５號","OBJECTID":228430},"geometry":{"x":177313.27000000048,"y":2543204.2599999998}},{"attributes":{"ID":228435,"DIS_CODE":0,"TOWNNAME":"歸仁區","LI":"看西里","LIN":"23鄰","STREET":"凱旋路","SECT":"一段","MAREA":" ","LANE":"２１０巷","ALLEY":" ","HOUSE_NO":"１２號","E_COORD97":178460.01000000001,"N_COORD97":2539792.3700000001,"ADDRESS":"凱旋路一段２１０巷１２號","OBJECTID":228431},"geometry":{"x":178460.00999999978,"y":2539792.3700000029}},{"attributes":{"ID":228436,"DIS_CODE":0,"TOWNNAME":"歸仁區","LI":"看西里","LIN":"23鄰","STREET":"凱旋路","SECT":"一段","MAREA":" ","LANE":"２１０巷","ALLEY":" ","HOUSE_NO":"４０號","E_COORD97":178400.51000000001,"N_COORD97":2539792.3700000001,"ADDRESS":"凱旋路一段２１０巷４０號","OBJECTID":228432},"geometry":{"x":178400.50999999978,"y":2539792.3700000029}},{"attributes":{"ID":228437,"DIS_CODE":0,"TOWNNAME":"安平區","LI":"平安里","LIN":"3鄰","STREET":"安平路","SECT":" ","MAREA":" ","LANE":"９８巷","ALLEY":" ","HOUSE_NO":"１號","E_COORD97":166365.22,"N_COORD97":2544344.5299999998,"ADDRESS":"安平路９８巷１號","OBJECTID":228433},"geometry":{"x":166365.21999999974,"y":2544344.5299999993}},{"attributes":{"ID":228438,"DIS_CODE":0,"TOWNNAME":"安平區","LI":"平安里","LIN":"3鄰","STREET":"安平路","SECT":" ","MAREA":" ","LANE":"９８巷","ALLEY":" ","HOUSE_NO":"２０號","E_COORD97":166382.73999999999,"N_COORD97":2544381.1800000002,"ADDRESS":"安平路９８巷２０號","OBJECTID":228434},"geometry":{"x":166382.74000000209,"y":2544381.1799999997}},{"attributes":{"ID":228439,"DIS_CODE":0,"TOWNNAME":"安平區","LI":"平安里","LIN":"3鄰","STREET":"安平路","SECT":" ","MAREA":" ","LANE":"９８巷","ALLEY":" ","HOUSE_NO":"２號","E_COORD97":166377.35000000001,"N_COORD97":2544343.2400000002,"ADDRESS":"安平路９８巷２號","OBJECTID":228435},"geometry":{"x":166377.34999999963,"y":2544343.2400000021}},{"attributes":{"ID":228440,"DIS_CODE":0,"TOWNNAME":"安平區","LI":"平安里","LIN":"3鄰","STREET":"安平路","SECT":" ","MAREA":" ","LANE":"９８巷","ALLEY":" ","HOUSE_NO":"３號","E_COORD97":166365.44,"N_COORD97":2544348.5899999999,"ADDRESS":"安平路９８巷３號","OBJECTID":228436},"geometry":{"x":166365.44000000134,"y":2544348.5899999999}},{"attributes":{"ID":228441,"DIS_CODE":0,"TOWNNAME":"新營區","LI":"王公里","LIN":"34鄰","STREET":"中正路","SECT":" ","MAREA":" ","LANE":" ","ALLEY":" ","HOUSE_NO":"２００之１６號","E_COORD97":180225.51999999999,"N_COORD97":2579805.4300000002,"ADDRESS":"中正路２００之１６號","OBJECTID":228437},"geometry":{"x":180225.52000000048,"y":2579805.4299999997}},{"attributes":{"ID":228442,"DIS_CODE":0,"TOWNNAME":"北區","LI":"成德里","LIN":"34鄰","STREET":"文成一路","SECT":" ","MAREA":" ","LANE":" ","ALLEY":" ","HOUSE_NO":"２０５號","E_COORD97":168307.06,"N_COORD97":2546036.96,"ADDRESS":"文成一路２０５號","OBJECTID":228438},"geometry":{"x":168307.05999999959,"y":2546036.9600000028}},{"attributes":{"ID":228443,"DIS_CODE":0,"TOWNNAME":"北區","LI":"大豐里","LIN":"23鄰","STREET":"大興街","SECT":" ","MAREA":" ","LANE":"３５５巷","ALLEY":" ","HOUSE_NO":"１５號","E_COORD97":166555.04999999999,"N_COORD97":2545609.96,"ADDRESS":"大興街３５５巷１５號","OBJECTID":228439},"geometry":{"x":166555.05000000075,"y":2545609.9600000028}},{"attributes":{"ID":228444,"DIS_CODE":0,"TOWNNAME":"北區","LI":"大豐里","LIN":"23鄰","STREET":"大興街","SECT":" ","MAREA":" ","LANE":"３５５巷","ALLEY":" ","HOUSE_NO":"１６號","E_COORD97":166559.89000000001,"N_COORD97":2545579.3199999998,"ADDRESS":"大興街３５５巷１６號","OBJECTID":228440},"geometry":{"x":166559.8900000006,"y":2545579.3200000022}},{"attributes":{"ID":228445,"DIS_CODE":0,"TOWNNAME":"北區","LI":"大豐里","LIN":"23鄰","STREET":"大興街","SECT":" ","MAREA":" ","LANE":"３５５巷","ALLEY":" ","HOUSE_NO":"１７號","E_COORD97":166559.12,"N_COORD97":2545611.3799999999,"ADDRESS":"大興街３５５巷１７號","OBJECTID":228441},"geometry":{"x":166559.12000000011,"y":2545611.3800000008}},{"attributes":{"ID":228446,"DIS_CODE":0,"TOWNNAME":"北區","LI":"大豐里","LIN":"23鄰","STREET":"大興街","SECT":" ","MAREA":" ","LANE":"３５５巷","ALLEY":" ","HOUSE_NO":"１８號","E_COORD97":166560.41,"N_COORD97":2545574.1600000001,"ADDRESS":"大興街３５５巷１８號","OBJECTID":228442},"geometry":{"x":166560.41000000108,"y":2545574.160000002}},{"attributes":{"ID":228447,"DIS_CODE":0,"TOWNNAME":"北區","LI":"大豐里","LIN":"23鄰","STREET":"大興街","SECT":" ","MAREA":" ","LANE":"３５５巷","ALLEY":" ","HOUSE_NO":"１９號","E_COORD97":166563.17999999999,"N_COORD97":2545612.73,"ADDRESS":"大興街３５５巷１９號","OBJECTID":228443},"geometry":{"x":166563.18000000063,"y":2545612.7300000004}},{"attributes":{"ID":228448,"DIS_CODE":0,"TOWNNAME":"北區","LI":"大豐里","LIN":"23鄰","STREET":"大興街","SECT":" ","MAREA":" ","LANE":"３５５巷","ALLEY":" ","HOUSE_NO":"２０號","E_COORD97":166560.53,"N_COORD97":2545568.48,"ADDRESS":"大興街３５５巷２０號","OBJECTID":228444},"geometry":{"x":166560.53000000212,"y":2545568.4800000023}},{"attributes":{"ID":228449,"DIS_CODE":0,"TOWNNAME":"北區","LI":"大豐里","LIN":"23鄰","STREET":"大興街","SECT":" ","MAREA":" ","LANE":"３５５巷","ALLEY":" ","HOUSE_NO":"２１號","E_COORD97":166567.44,"N_COORD97":2545613.96,"ADDRESS":"大興街３５５巷２１號","OBJECTID":228445},"geometry":{"x":166567.44000000041,"y":2545613.9600000009}},{"attributes":{"ID":228450,"DIS_CODE":0,"TOWNNAME":"北區","LI":"大豐里","LIN":"23鄰","STREET":"大興街","SECT":" ","MAREA":" ","LANE":"３５５巷","ALLEY":" ","HOUSE_NO":"２２號","E_COORD97":166551.23999999999,"N_COORD97":2545568.3500000001,"ADDRESS":"大興街３５５巷２２號","OBJECTID":228446},"geometry":{"x":166551.24000000115,"y":2545568.3500000015}},{"attributes":{"ID":228451,"DIS_CODE":0,"TOWNNAME":"北區","LI":"大豐里","LIN":"23鄰","STREET":"大興街","SECT":" ","MAREA":" ","LANE":"３５５巷","ALLEY":" ","HOUSE_NO":"２５號","E_COORD97":166571.95999999999,"N_COORD97":2545603.23,"ADDRESS":"大興街３５５巷２５號","OBJECTID":228447},"geometry":{"x":166571.95999999996,"y":2545603.2300000042}},{"attributes":{"ID":228452,"DIS_CODE":0,"TOWNNAME":"北區","LI":"大豐里","LIN":"23鄰","STREET":"大興街","SECT":" ","MAREA":" ","LANE":"３５５巷","ALLEY":" ","HOUSE_NO":"２６號","E_COORD97":166542.45999999999,"N_COORD97":2545567.71,"ADDRESS":"大興街３５５巷２６號","OBJECTID":228448},"geometry":{"x":166542.46000000089,"y":2545567.7100000028}},{"attributes":{"ID":228453,"DIS_CODE":0,"TOWNNAME":"北區","LI":"大豐里","LIN":"23鄰","STREET":"大興街","SECT":" ","MAREA":" ","LANE":"３５５巷","ALLEY":" ","HOUSE_NO":"２７號","E_COORD97":166572.39000000001,"N_COORD97":2545598.8199999998,"ADDRESS":"大興街３５５巷２７號","OBJECTID":228449},"geometry":{"x":166572.38999999966,"y":2545598.820000004}},{"attributes":{"ID":228454,"DIS_CODE":0,"TOWNNAME":"北區","LI":"大豐里","LIN":"23鄰","STREET":"大興街","SECT":" ","MAREA":" ","LANE":"３５５巷","ALLEY":" ","HOUSE_NO":"２８號","E_COORD97":166546.79000000001,"N_COORD97":2545557.1299999999,"ADDRESS":"大興街３５５巷２８號","OBJECTID":228450},"geometry":{"x":166546.7900000019,"y":2545557.129999999}},{"attributes":{"ID":228455,"DIS_CODE":0,"TOWNNAME":"安平區","LI":"育平里","LIN":"34鄰","STREET":"建平七街","SECT":" ","MAREA":" ","LANE":" ","ALLEY":" ","HOUSE_NO":"８４７號","E_COORD97":164451.92999999999,"N_COORD97":2543471.1299999999,"ADDRESS":"建平七街８４７號","OBJECTID":228451},"geometry":{"x":164451.93000000156,"y":2543471.1300000008}},{"attributes":{"ID":228456,"DIS_CODE":0,"TOWNNAME":"安平區","LI":"育平里","LIN":"34鄰","STREET":"建平七街","SECT":" ","MAREA":" ","LANE":" ","ALLEY":" ","HOUSE_NO":"８４９號","E_COORD97":164446.97,"N_COORD97":2543471.46,"ADDRESS":"建平七街８４９號","OBJECTID":228452},"geometry":{"x":164446.97000000067,"y":2543471.4600000009}},{"attributes":{"ID":228457,"DIS_CODE":0,"TOWNNAME":"安平區","LI":"育平里","LIN":"34鄰","STREET":"建平七街","SECT":" ","MAREA":" ","LANE":" ","ALLEY":" ","HOUSE_NO":"８５１號","E_COORD97":164442.54999999999,"N_COORD97":2543472.21,"ADDRESS":"建平七街８５１號","OBJECTID":228453},"geometry":{"x":164442.54999999888,"y":2543472.2100000028}},{"attributes":{"ID":228458,"DIS_CODE":0,"TOWNNAME":"安平區","LI":"育平里","LIN":"34鄰","STREET":"建平七街","SECT":" ","MAREA":" ","LANE":" ","ALLEY":" ","HOUSE_NO":"８５３號","E_COORD97":164438.45999999999,"N_COORD97":2543472.75,"ADDRESS":"建平七街８５３號","OBJECTID":228454},"geometry":{"x":164438.46000000183,"y":2543472.75}},{"attributes":{"ID":228459,"DIS_CODE":0,"TOWNNAME":"安平區","LI":"育平里","LIN":"34鄰","STREET":"郡平路","SECT":" ","MAREA":" ","LANE":" ","ALLEY":" ","HOUSE_NO":"２３６號","E_COORD97":164530.94,"N_COORD97":2543361.71,"ADDRESS":"郡平路２３６號","OBJECTID":228455},"geometry":{"x":164530.94000000134,"y":2543361.7100000009}},{"attributes":{"ID":228460,"DIS_CODE":0,"TOWNNAME":"安平區","LI":"育平里","LIN":"34鄰","STREET":"郡平路","SECT":" ","MAREA":" ","LANE":" ","ALLEY":" ","HOUSE_NO":"２３８號","E_COORD97":164515.89999999999,"N_COORD97":2543366.9900000002,"ADDRESS":"郡平路２３８號","OBJECTID":228456},"geometry":{"x":164515.9000000013,"y":2543366.9900000039}},{"attributes":{"ID":228461,"DIS_CODE":0,"TOWNNAME":"歸仁區","LI":"南興里","LIN":"34鄰","STREET":"民生北街","SECT":" ","MAREA":" ","LANE":" ","ALLEY":" ","HOUSE_NO":"６４號","E_COORD97":176282.59,"N_COORD97":2541105.29,"ADDRESS":"民生北街６４號","OBJECTID":228457},"geometry":{"x":176282.58999999985,"y":2541105.2899999991}},{"attributes":{"ID":228462,"DIS_CODE":0,"TOWNNAME":"歸仁區","LI":"南保里","LIN":"34鄰","STREET":"民權八街","SECT":" ","MAREA":" ","LANE":" ","ALLEY":" ","HOUSE_NO":"１０４號","E_COORD97":176746.14000000001,"N_COORD97":2541068.29,"ADDRESS":"民權八街１０４號","OBJECTID":228458},"geometry":{"x":176746.1400000006,"y":2541068.2900000028}},{"attributes":{"ID":228463,"DIS_CODE":0,"TOWNNAME":"歸仁區","LI":"南保里","LIN":"34鄰","STREET":"民權八街","SECT":" ","MAREA":" ","LANE":" ","ALLEY":" ","HOUSE_NO":"１１０號","E_COORD97":176746.23999999999,"N_COORD97":2541080.29,"ADDRESS":"民權八街１１０號","OBJECTID":228459},"geometry":{"x":176746.24000000115,"y":2541080.2899999991}},{"attributes":{"ID":228464,"DIS_CODE":0,"TOWNNAME":"歸仁區","LI":"南興里","LIN":"34鄰","STREET":"民生北街","SECT":" ","MAREA":" ","LANE":" ","ALLEY":" ","HOUSE_NO":"６６號","E_COORD97":176282.59,"N_COORD97":2541109.29,"ADDRESS":"民生北街６６號","OBJECTID":228460},"geometry":{"x":176282.58999999985,"y":2541109.290000001}},{"attributes":{"ID":228465,"DIS_CODE":0,"TOWNNAME":"歸仁區","LI":"南興里","LIN":"34鄰","STREET":"民生北街","SECT":" ","MAREA":" ","LANE":" ","ALLEY":" ","HOUSE_NO":"６８號","E_COORD97":176282.69,"N_COORD97":2541114.29,"ADDRESS":"民生北街６８號","OBJECTID":228461},"geometry":{"x":176282.69000000041,"y":2541114.2899999991}},{"attributes":{"ID":228466,"DIS_CODE":0,"TOWNNAME":"歸仁區","LI":"後市里","LIN":"34鄰","STREET":"中山八街","SECT":" ","MAREA":" ","LANE":" ","ALLEY":" ","HOUSE_NO":"１６號","E_COORD97":177237.23000000001,"N_COORD97":2540918.7400000002,"ADDRESS":"中山八街１６號","OBJECTID":228462},"geometry":{"x":177237.23000000045,"y":2540918.7400000021}},{"attributes":{"ID":228467,"DIS_CODE":0,"TOWNNAME":"歸仁區","LI":"後市里","LIN":"34鄰","STREET":"國光街","SECT":" ","MAREA":" ","LANE":" ","ALLEY":" ","HOUSE_NO":"９２號","E_COORD97":177242.19,"N_COORD97":2540932.7400000002,"ADDRESS":"國光街９２號","OBJECTID":228463},"geometry":{"x":177242.19000000041,"y":2540932.7400000002}},{"attributes":{"ID":228468,"DIS_CODE":0,"TOWNNAME":"安平區","LI":"平安里","LIN":"3鄰","STREET":"安平路","SECT":" ","MAREA":" ","LANE":"９８巷","ALLEY":" ","HOUSE_NO":"４號","E_COORD97":166378.23000000001,"N_COORD97":2544347.5899999999,"ADDRESS":"安平路９８巷４號","OBJECTID":228464},"geometry":{"x":166378.23000000138,"y":2544347.5899999999}},{"attributes":{"ID":228469,"DIS_CODE":0,"TOWNNAME":"安平區","LI":"平安里","LIN":"3鄰","STREET":"安平路","SECT":" ","MAREA":" ","LANE":"９８巷","ALLEY":" ","HOUSE_NO":"５號","E_COORD97":166365.64999999999,"N_COORD97":2544352.3799999999,"ADDRESS":"安平路９８巷５號","OBJECTID":228465},"geometry":{"x":166365.6500000013,"y":2544352.379999999}},{"attributes":{"ID":228470,"DIS_CODE":0,"TOWNNAME":"安平區","LI":"平安里","LIN":"3鄰","STREET":"安平路","SECT":" ","MAREA":" ","LANE":"９８巷","ALLEY":" ","HOUSE_NO":"６號","E_COORD97":166378.75,"N_COORD97":2544351.75,"ADDRESS":"安平路９８巷６號","OBJECTID":228466},"geometry":{"x":166378.75,"y":2544351.7500000019}},{"attributes":{"ID":228471,"DIS_CODE":0,"TOWNNAME":"安平區","LI":"平安里","LIN":"3鄰","STREET":"安平路","SECT":" ","MAREA":" ","LANE":"９８巷","ALLEY":" ","HOUSE_NO":"７號","E_COORD97":166365.95000000001,"N_COORD97":2544356.54,"ADDRESS":"安平路９８巷７號","OBJECTID":228467},"geometry":{"x":166365.94999999925,"y":2544356.540000001}},{"attributes":{"ID":228472,"DIS_CODE":0,"TOWNNAME":"安平區","LI":"平安里","LIN":"3鄰","STREET":"安平路","SECT":" ","MAREA":" ","LANE":"９８巷","ALLEY":" ","HOUSE_NO":"８號","E_COORD97":166379.19,"N_COORD97":2544356.1699999999,"ADDRESS":"安平路９８巷８號","OBJECTID":228468},"geometry":{"x":166379.19000000041,"y":2544356.1700000018}},{"attributes":{"ID":228473,"DIS_CODE":0,"TOWNNAME":"安平區","LI":"平安里","LIN":"3鄰","STREET":"安平路","SECT":" ","MAREA":" ","LANE":"９８巷","ALLEY":" ","HOUSE_NO":"９號","E_COORD97":166366.17000000001,"N_COORD97":2544360.4900000002,"ADDRESS":"安平路９８巷９號","OBJECTID":228469},"geometry":{"x":166366.17000000086,"y":2544360.4900000021}},{"attributes":{"ID":228474,"DIS_CODE":0,"TOWNNAME":"北區","LI":"長榮里","LIN":"3鄰","STREET":"長榮路","SECT":"五段","MAREA":" ","LANE":"４１巷","ALLEY":" ","HOUSE_NO":"３６號","E_COORD97":169917.45000000001,"N_COORD97":2545629.1800000002,"ADDRESS":"長榮路五段４１巷３６號","OBJECTID":228470},"geometry":{"x":169917.45000000205,"y":2545629.1799999997}},{"attributes":{"ID":228475,"DIS_CODE":0,"TOWNNAME":"北區","LI":"長榮里","LIN":"3鄰","STREET":"長榮路","SECT":"五段","MAREA":" ","LANE":"４１巷","ALLEY":" ","HOUSE_NO":"３８號","E_COORD97":169903.32999999999,"N_COORD97":2545641.1699999999,"ADDRESS":"長榮路五段４１巷３８號","OBJECTID":228471},"geometry":{"x":169903.33000000101,"y":2545641.1700000018}},{"attributes":{"ID":228476,"DIS_CODE":0,"TOWNNAME":"安平區","LI":"平通里","LIN":"3鄰","STREET":"健康三街","SECT":" ","MAREA":" ","LANE":"５９２巷","ALLEY":" ","HOUSE_NO":"１０號","E_COORD97":164993.54999999999,"N_COORD97":2544179.1099999999,"ADDRESS":"健康三街５９２巷１０號","OBJECTID":228472},"geometry":{"x":164993.55000000168,"y":2544179.1100000013}},{"attributes":{"ID":228477,"DIS_CODE":0,"TOWNNAME":"安平區","LI":"平通里","LIN":"3鄰","STREET":"健康三街","SECT":" ","MAREA":" ","LANE":"５９２巷","ALLEY":" ","HOUSE_NO":"１２號","E_COORD97":164988.98000000001,"N_COORD97":2544179.8700000001,"ADDRESS":"健康三街５９２巷１２號","OBJECTID":228473},"geometry":{"x":164988.98000000045,"y":2544179.8700000029}},{"attributes":{"ID":228478,"DIS_CODE":0,"TOWNNAME":"安平區","LI":"平通里","LIN":"3鄰","STREET":"健康三街","SECT":" ","MAREA":" ","LANE":"５９２巷","ALLEY":" ","HOUSE_NO":"１４號","E_COORD97":164983.13,"N_COORD97":2544180.6400000001,"ADDRESS":"健康三街５９２巷１４號","OBJECTID":228474},"geometry":{"x":164983.13000000082,"y":2544180.6400000025}},{"attributes":{"ID":228479,"DIS_CODE":0,"TOWNNAME":"安平區","LI":"文平里","LIN":"3鄰","STREET":"中華西路","SECT":"二段","MAREA":" ","LANE":"４９巷","ALLEY":" ","HOUSE_NO":"３６號","E_COORD97":166517.76999999999,"N_COORD97":2543155.0099999998,"ADDRESS":"中華西路二段４９巷３６號","OBJECTID":228475},"geometry":{"x":166517.77000000048,"y":2543155.0099999998}},{"attributes":{"ID":228480,"DIS_CODE":0,"TOWNNAME":"安平區","LI":"文平里","LIN":"3鄰","STREET":"中華西路","SECT":"二段","MAREA":" ","LANE":"４９巷","ALLEY":" ","HOUSE_NO":"３８號","E_COORD97":166507.73999999999,"N_COORD97":2543151.4900000002,"ADDRESS":"中華西路二段４９巷３８號","OBJECTID":228476},"geometry":{"x":166507.74000000022,"y":2543151.4900000021}},{"attributes":{"ID":228481,"DIS_CODE":0,"TOWNNAME":"安平區","LI":"文平里","LIN":"3鄰","STREET":"中華西路","SECT":"二段","MAREA":" ","LANE":"４９巷","ALLEY":" ","HOUSE_NO":"４０號","E_COORD97":166500.28,"N_COORD97":2543152.3500000001,"ADDRESS":"中華西路二段４９巷４０號","OBJECTID":228477},"geometry":{"x":166500.28000000119,"y":2543152.3499999996}},{"attributes":{"ID":228482,"DIS_CODE":0,"TOWNNAME":"安平區","LI":"文平里","LIN":"3鄰","STREET":"中華西路","SECT":"二段","MAREA":" ","LANE":"４９巷","ALLEY":" ","HOUSE_NO":"４２號","E_COORD97":166494.45000000001,"N_COORD97":2543152.9500000002,"ADDRESS":"中華西路二段４９巷４２號","OBJECTID":228478},"geometry":{"x":166494.45000000019,"y":2543152.9500000011}},{"attributes":{"ID":228483,"DIS_CODE":0,"TOWNNAME":"北區","LI":"賢北里","LIN":"3鄰","STREET":"中華北路","SECT":"一段","MAREA":" ","LANE":"１０５巷","ALLEY":" ","HOUSE_NO":"８之１號","E_COORD97":166468.51000000001,"N_COORD97":2545507.0800000001,"ADDRESS":"中華北路一段１０５巷８之１號","OBJECTID":228479},"geometry":{"x":166468.50999999978,"y":2545507.0800000001}},{"attributes":{"ID":228484,"DIS_CODE":0,"TOWNNAME":"永康區","LI":"龍潭里","LIN":"3鄰","STREET":"龍安街","SECT":" ","MAREA":" ","LANE":"４０巷","ALLEY":" ","HOUSE_NO":"６號","E_COORD97":174607.45000000001,"N_COORD97":2548112.3300000001,"ADDRESS":"龍安街４０巷６號","OBJECTID":228480},"geometry":{"x":174607.45000000019,"y":2548112.3300000019}},{"attributes":{"ID":228485,"DIS_CODE":0,"TOWNNAME":"中西區","LI":"元安里","LIN":"3鄰","STREET":"西門路","SECT":"一段","MAREA":" ","LANE":"７０３巷","ALLEY":" ","HOUSE_NO":"１０號","E_COORD97":167664.76000000001,"N_COORD97":2543250.54,"ADDRESS":"西門路一段７０３巷１０號","OBJECTID":228481},"geometry":{"x":167664.75999999978,"y":2543250.540000001}},{"attributes":{"ID":228486,"DIS_CODE":0,"TOWNNAME":"中西區","LI":"元安里","LIN":"3鄰","STREET":"西門路","SECT":"一段","MAREA":" ","LANE":"７０３巷","ALLEY":" ","HOUSE_NO":"１２號","E_COORD97":167652.14999999999,"N_COORD97":2543249.04,"ADDRESS":"西門路一段７０３巷１２號","OBJECTID":228482},"geometry":{"x":167652.1500000013,"y":2543249.0399999991}},{"attributes":{"ID":228487,"DIS_CODE":0,"TOWNNAME":"中西區","LI":"元安里","LIN":"3鄰","STREET":"西門路","SECT":"一段","MAREA":" ","LANE":"７０３巷","ALLEY":" ","HOUSE_NO":"１２號之１","E_COORD97":167645.95999999999,"N_COORD97":2543249.7799999998,"ADDRESS":"西門路一段７０３巷１２號之１","OBJECTID":228483},"geometry":{"x":167645.96000000089,"y":2543249.7800000012}},{"attributes":{"ID":228488,"DIS_CODE":0,"TOWNNAME":"中西區","LI":"元安里","LIN":"3鄰","STREET":"西門路","SECT":"一段","MAREA":" ","LANE":"７０３巷","ALLEY":" ","HOUSE_NO":"２０號","E_COORD97":167612.37,"N_COORD97":2543252.5899999999,"ADDRESS":"西門路一段７０３巷２０號","OBJECTID":228484},"geometry":{"x":167612.37000000011,"y":2543252.5899999999}},{"attributes":{"ID":228489,"DIS_CODE":0,"TOWNNAME":"中西區","LI":"元安里","LIN":"3鄰","STREET":"西門路","SECT":"一段","MAREA":" ","LANE":"７０３巷","ALLEY":" ","HOUSE_NO":"２２號","E_COORD97":167594.10000000001,"N_COORD97":2543254.2799999998,"ADDRESS":"西門路一段７０３巷２２號","OBJECTID":228485},"geometry":{"x":167594.10000000056,"y":2543254.2799999993}},{"attributes":{"ID":228490,"DIS_CODE":0,"TOWNNAME":"中西區","LI":"元安里","LIN":"3鄰","STREET":"西門路","SECT":"一段","MAREA":" ","LANE":"７０３巷","ALLEY":" ","HOUSE_NO":"２４號","E_COORD97":167581.85000000001,"N_COORD97":2543254.4500000002,"ADDRESS":"西門路一段７０３巷２４號","OBJECTID":228486},"geometry":{"x":167581.85000000056,"y":2543254.450000003}},{"attributes":{"ID":228491,"DIS_CODE":0,"TOWNNAME":"中西區","LI":"元安里","LIN":"3鄰","STREET":"西門路","SECT":"一段","MAREA":" ","LANE":"７０３巷","ALLEY":" ","HOUSE_NO":"２號","E_COORD97":167696.67000000001,"N_COORD97":2543247.7999999998,"ADDRESS":"西門路一段７０３巷２號","OBJECTID":228487},"geometry":{"x":167696.67000000179,"y":2543247.8000000026}},{"attributes":{"ID":228492,"DIS_CODE":0,"TOWNNAME":"安南區","LI":"安慶里","LIN":"3鄰","STREET":"長溪路","SECT":"一段","MAREA":" ","LANE":"１６８巷","ALLEY":" ","HOUSE_NO":"１０７號","E_COORD97":169054.16,"N_COORD97":2548799.9500000002,"ADDRESS":"長溪路一段１６８巷１０７號","OBJECTID":228488},"geometry":{"x":169054.16000000015,"y":2548799.9499999993}},{"attributes":{"ID":228493,"DIS_CODE":0,"TOWNNAME":"南區","LI":"再興里","LIN":"3鄰","STREET":"金華路","SECT":"二段","MAREA":" ","LANE":"２２８巷","ALLEY":" ","HOUSE_NO":"１１號","E_COORD97":167154.59,"N_COORD97":2542385.96,"ADDRESS":"金華路二段２２８巷１１號","OBJECTID":228489},"geometry":{"x":167154.58999999985,"y":2542385.9600000028}},{"attributes":{"ID":228494,"DIS_CODE":0,"TOWNNAME":"南區","LI":"再興里","LIN":"3鄰","STREET":"金華路","SECT":"二段","MAREA":" ","LANE":"２２８巷","ALLEY":" ","HOUSE_NO":"１２號","E_COORD97":167154,"N_COORD97":2542372.52,"ADDRESS":"金華路二段２２８巷１２號","OBJECTID":228490},"geometry":{"x":167154.00000000093,"y":2542372.5200000033}},{"attributes":{"ID":228495,"DIS_CODE":0,"TOWNNAME":"安南區","LI":"安西里","LIN":"3鄰","STREET":"安和路","SECT":"一段","MAREA":" ","LANE":"２１５巷","ALLEY":" ","HOUSE_NO":"２０號","E_COORD97":169218.64000000001,"N_COORD97":2547941.8300000001,"ADDRESS":"安和路一段２１５巷２０號","OBJECTID":228491},"geometry":{"x":169218.63999999966,"y":2547941.8300000019}},{"attributes":{"ID":228496,"DIS_CODE":0,"TOWNNAME":"安南區","LI":"安西里","LIN":"3鄰","STREET":"安和路","SECT":"一段","MAREA":" ","LANE":"２１５巷","ALLEY":" ","HOUSE_NO":"２２號","E_COORD97":169212.37,"N_COORD97":2547941.0499999998,"ADDRESS":"安和路一段２１５巷２２號","OBJECTID":228492},"geometry":{"x":169212.37000000011,"y":2547941.0500000026}},{"attributes":{"ID":228497,"DIS_CODE":0,"TOWNNAME":"安南區","LI":"安西里","LIN":"3鄰","STREET":"安和路","SECT":"一段","MAREA":" ","LANE":"２１５巷","ALLEY":" ","HOUSE_NO":"２４號","E_COORD97":169206.89999999999,"N_COORD97":2547939.4900000002,"ADDRESS":"安和路一段２１５巷２４號","OBJECTID":228493},"geometry":{"x":169206.9000000013,"y":2547939.4900000002}},{"attributes":{"ID":228498,"DIS_CODE":0,"TOWNNAME":"北區","LI":"大港里","LIN":"23鄰","STREET":"中華北路","SECT":"一段","MAREA":" ","LANE":"１８１巷","ALLEY":" ","HOUSE_NO":"８號","E_COORD97":166427.57999999999,"N_COORD97":2545670.3500000001,"ADDRESS":"中華北路一段１８１巷８號","OBJECTID":228494},"geometry":{"x":166427.58000000007,"y":2545670.3500000015}},{"attributes":{"ID":228499,"DIS_CODE":0,"TOWNNAME":"北區","LI":"大港里","LIN":"23鄰","STREET":"中華北路","SECT":"一段","MAREA":" ","LANE":"１８１巷","ALLEY":" ","HOUSE_NO":"１０號","E_COORD97":166419.82999999999,"N_COORD97":2545668.1899999999,"ADDRESS":"中華北路一段１８１巷１０號","OBJECTID":228495},"geometry":{"x":166419.83000000101,"y":2545668.1900000013}},{"attributes":{"ID":228500,"DIS_CODE":0,"TOWNNAME":"北區","LI":"大港里","LIN":"23鄰","STREET":"中華北路","SECT":"一段","MAREA":" ","LANE":"１８１巷","ALLEY":" ","HOUSE_NO":"１２號","E_COORD97":166413.60999999999,"N_COORD97":2545666.1600000001,"ADDRESS":"中華北路一段１８１巷１２號","OBJECTID":228496},"geometry":{"x":166413.61000000034,"y":2545666.1600000001}},{"attributes":{"ID":228501,"DIS_CODE":0,"TOWNNAME":"仁德區","LI":"土庫里","LIN":"3鄰","STREET":"土庫路","SECT":" ","MAREA":" ","LANE":"２００巷","ALLEY":" ","HOUSE_NO":"３號","E_COORD97":174211.37,"N_COORD97":2542865.9900000002,"ADDRESS":"土庫路２００巷３號","OBJECTID":228497},"geometry":{"x":174211.37000000011,"y":2542865.9900000021}},{"attributes":{"ID":228502,"DIS_CODE":0,"TOWNNAME":"中西區","LI":"協進里","LIN":"1鄰","STREET":"民生路","SECT":"二段","MAREA":" ","LANE":"２３０巷","ALLEY":" ","HOUSE_NO":"１號","E_COORD97":167226.29000000001,"N_COORD97":2544173.3900000001,"ADDRESS":"民生路二段２３０巷１號","OBJECTID":228498},"geometry":{"x":167226.29000000004,"y":2544173.3900000006}},{"attributes":{"ID":228503,"DIS_CODE":0,"TOWNNAME":"東區","LI":"東安里","LIN":"3鄰","STREET":"長榮路","SECT":"二段","MAREA":" ","LANE":"２４巷","ALLEY":" ","HOUSE_NO":"４２號","E_COORD97":170008.19,"N_COORD97":2543056.5800000001,"ADDRESS":"長榮路二段２４巷４２號","OBJECTID":228499},"geometry":{"x":170008.19000000134,"y":2543056.5800000001}},{"attributes":{"ID":228504,"DIS_CODE":0,"TOWNNAME":"東區","LI":"東安里","LIN":"3鄰","STREET":"長榮路","SECT":"二段","MAREA":" ","LANE":"２４巷","ALLEY":" ","HOUSE_NO":"４４號","E_COORD97":170009.23000000001,"N_COORD97":2543059.7799999998,"ADDRESS":"長榮路二段２４巷４４號","OBJECTID":228500},"geometry":{"x":170009.23000000231,"y":2543059.7800000012}},{"attributes":{"ID":228505,"DIS_CODE":0,"TOWNNAME":"東區","LI":"東安里","LIN":"3鄰","STREET":"長榮路","SECT":"二段","MAREA":" ","LANE":"２４巷","ALLEY":" ","HOUSE_NO":"３０號","E_COORD97":169996.14000000001,"N_COORD97":2543064.5800000001,"ADDRESS":"長榮路二段２４巷３０號","OBJECTID":228501},"geometry":{"x":169996.1400000006,"y":2543064.5800000019}},{"attributes":{"ID":228506,"DIS_CODE":0,"TOWNNAME":"東區","LI":"崇明里","LIN":"3鄰","STREET":"大同路","SECT":"二段","MAREA":" ","LANE":"４０３巷","ALLEY":" ","HOUSE_NO":"４４號","E_COORD97":169653.42999999999,"N_COORD97":2541355.0299999998,"ADDRESS":"大同路二段４０３巷４４號","OBJECTID":228502},"geometry":{"x":169653.43000000063,"y":2541355.0300000031}},{"attributes":{"ID":228507,"DIS_CODE":0,"TOWNNAME":"東區","LI":"虎尾里","LIN":"3鄰","STREET":"東門路","SECT":"三段","MAREA":" ","LANE":"１７９巷","ALLEY":" ","HOUSE_NO":"１４１號","E_COORD97":171744.88,"N_COORD97":2542046.3599999999,"ADDRESS":"東門路三段１７９巷１４１號","OBJECTID":228503},"geometry":{"x":171744.87999999989,"y":2542046.3599999994}},{"attributes":{"ID":228508,"DIS_CODE":0,"TOWNNAME":"東區","LI":"中西里","LIN":"3鄰","STREET":"東門路","SECT":"一段","MAREA":" ","LANE":"２６７巷","ALLEY":" ","HOUSE_NO":"１號","E_COORD97":169849.69,"N_COORD97":2543066.3599999999,"ADDRESS":"東門路一段２６７巷１號","OBJECTID":228504},"geometry":{"x":169849.69000000041,"y":2543066.3600000013}},{"attributes":{"ID":228509,"DIS_CODE":0,"TOWNNAME":"永康區","LI":"龍潭里","LIN":"3鄰","STREET":"龍國街","SECT":" ","MAREA":" ","LANE":"２９１巷","ALLEY":" ","HOUSE_NO":"３２號","E_COORD97":174647.39999999999,"N_COORD97":2548100.9399999999,"ADDRESS":"龍國街２９１巷３２號","OBJECTID":228505},"geometry":{"x":174647.40000000037,"y":2548100.9400000013}},{"attributes":{"ID":228510,"DIS_CODE":0,"TOWNNAME":"永康區","LI":"復興里","LIN":"3鄰","STREET":"復興路","SECT":" ","MAREA":" ","LANE":"２７７巷","ALLEY":" ","HOUSE_NO":"６２號","E_COORD97":172345.14999999999,"N_COORD97":2544145.1000000001,"ADDRESS":"復興路２７７巷６２號","OBJECTID":228506},"geometry":{"x":172345.15000000037,"y":2544145.1000000034}},{"attributes":{"ID":228511,"DIS_CODE":0,"TOWNNAME":"安南區","LI":"安富里","LIN":"3鄰","STREET":"郡安路","SECT":"五段","MAREA":" ","LANE":"１８４巷","ALLEY":" ","HOUSE_NO":"２６號","E_COORD97":167471.10999999999,"N_COORD97":2547678.3999999999,"ADDRESS":"郡安路五段１８４巷２６號","OBJECTID":228507},"geometry":{"x":167471.11000000127,"y":2547678.4000000022}},{"attributes":{"ID":228512,"DIS_CODE":0,"TOWNNAME":"永康區","LI":"中華里","LIN":"3鄰","STREET":"小東路","SECT":" ","MAREA":" ","LANE":"６８５巷","ALLEY":" ","HOUSE_NO":"３號","E_COORD97":172024.98000000001,"N_COORD97":2544360.1400000001,"ADDRESS":"小東路６８５巷３號","OBJECTID":228508},"geometry":{"x":172024.98000000138,"y":2544360.1400000025}},{"attributes":{"ID":228513,"DIS_CODE":0,"TOWNNAME":"永康區","LI":"中華里","LIN":"3鄰","STREET":"小東路","SECT":" ","MAREA":" ","LANE":"６８５巷","ALLEY":" ","HOUSE_NO":"１號","E_COORD97":172024.69,"N_COORD97":2544354.5499999998,"ADDRESS":"小東路６８５巷１號","OBJECTID":228509},"geometry":{"x":172024.69000000041,"y":2544354.5500000026}},{"attributes":{"ID":228514,"DIS_CODE":0,"TOWNNAME":"永康區","LI":"五王里","LIN":"3鄰","STREET":"成功路","SECT":" ","MAREA":" ","LANE":"１３０巷","ALLEY":" ","HOUSE_NO":"３３號","E_COORD97":171561.07999999999,"N_COORD97":2545560.4399999999,"ADDRESS":"成功路１３０巷３３號","OBJECTID":228510},"geometry":{"x":171561.08000000101,"y":2545560.4400000013}},{"attributes":{"ID":228515,"DIS_CODE":0,"TOWNNAME":"永康區","LI":"五王里","LIN":"3鄰","STREET":"成功路","SECT":" ","MAREA":" ","LANE":"１３０巷","ALLEY":" ","HOUSE_NO":"３７號","E_COORD97":171569.29000000001,"N_COORD97":2545562.4399999999,"ADDRESS":"成功路１３０巷３７號","OBJECTID":228511},"geometry":{"x":171569.29000000004,"y":2545562.4399999995}},{"attributes":{"ID":228516,"DIS_CODE":0,"TOWNNAME":"中西區","LI":"西湖里","LIN":"3鄰","STREET":"頂美二街","SECT":" ","MAREA":" ","LANE":"７２巷","ALLEY":" ","HOUSE_NO":"１０號","E_COORD97":166480.57999999999,"N_COORD97":2544630.52,"ADDRESS":"頂美二街７２巷１０號","OBJECTID":228512},"geometry":{"x":166480.58000000101,"y":2544630.5200000033}},{"attributes":{"ID":228517,"DIS_CODE":0,"TOWNNAME":"中西區","LI":"西湖里","LIN":"3鄰","STREET":"頂美二街","SECT":" ","MAREA":" ","LANE":"７２巷","ALLEY":" ","HOUSE_NO":"１２號","E_COORD97":166490.14999999999,"N_COORD97":2544630.8999999999,"ADDRESS":"頂美二街７２巷１２號","OBJECTID":228513},"geometry":{"x":166490.15000000037,"y":2544630.9000000004}},{"attributes":{"ID":228518,"DIS_CODE":0,"TOWNNAME":"中西區","LI":"西湖里","LIN":"3鄰","STREET":"頂美二街","SECT":" ","MAREA":" ","LANE":"７２巷","ALLEY":" ","HOUSE_NO":"１４號","E_COORD97":166500.14000000001,"N_COORD97":2544630.77,"ADDRESS":"頂美二街７２巷１４號","OBJECTID":228514},"geometry":{"x":166500.1400000006,"y":2544630.7699999996}},{"attributes":{"ID":228519,"DIS_CODE":0,"TOWNNAME":"歸仁區","LI":"辜厝里","LIN":"34鄰","STREET":"大吉街","SECT":" ","MAREA":" ","LANE":" ","ALLEY":" ","HOUSE_NO":"１２３號","E_COORD97":177210.94,"N_COORD97":2540523.6800000002,"ADDRESS":"大吉街１２３號","OBJECTID":228515},"geometry":{"x":177210.94000000134,"y":2540523.6799999978}},{"attributes":{"ID":228520,"DIS_CODE":0,"TOWNNAME":"歸仁區","LI":"後市里","LIN":"34鄰","STREET":"國光街","SECT":" ","MAREA":" ","LANE":" ","ALLEY":" ","HOUSE_NO":"１０８號","E_COORD97":177304.04000000001,"N_COORD97":2540936.7400000002,"ADDRESS":"國光街１０８號","OBJECTID":228516},"geometry":{"x":177304.04000000004,"y":2540936.7400000002}},{"attributes":{"ID":228521,"DIS_CODE":0,"TOWNNAME":"歸仁區","LI":"南興里","LIN":"34鄰","STREET":"民生北街","SECT":" ","MAREA":" ","LANE":" ","ALLEY":" ","HOUSE_NO":"５８號","E_COORD97":176282.59,"N_COORD97":2541092.29,"ADDRESS":"民生北街５８號","OBJECTID":228517},"geometry":{"x":176282.58999999985,"y":2541092.2900000028}},{"attributes":{"ID":228522,"DIS_CODE":0,"TOWNNAME":"歸仁區","LI":"辜厝里","LIN":"34鄰","STREET":"大吉街","SECT":" ","MAREA":" ","LANE":" ","ALLEY":" ","HOUSE_NO":"１２９號","E_COORD97":177209.84,"N_COORD97":2540511.6800000002,"ADDRESS":"大吉街１２９號","OBJECTID":228518},"geometry":{"x":177209.83999999985,"y":2540511.6800000016}},{"attributes":{"ID":228523,"DIS_CODE":0,"TOWNNAME":"中西區","LI":"西湖里","LIN":"3鄰","STREET":"頂美二街","SECT":" ","MAREA":" ","LANE":"７２巷","ALLEY":" ","HOUSE_NO":"４號","E_COORD97":166451.12,"N_COORD97":2544629.7599999998,"ADDRESS":"頂美二街７２巷４號","OBJECTID":228519},"geometry":{"x":166451.12000000011,"y":2544629.7600000016}},{"attributes":{"ID":228524,"DIS_CODE":0,"TOWNNAME":"中西區","LI":"西湖里","LIN":"3鄰","STREET":"頂美二街","SECT":" ","MAREA":" ","LANE":"７２巷","ALLEY":" ","HOUSE_NO":"６號","E_COORD97":166460.26000000001,"N_COORD97":2544630.2599999998,"ADDRESS":"頂美二街７２巷６號","OBJECTID":228520},"geometry":{"x":166460.26000000164,"y":2544630.2600000016}},{"attributes":{"ID":228525,"DIS_CODE":0,"TOWNNAME":"東山區","LI":"東山里","LIN":"23鄰","STREET":" ","SECT":" ","MAREA":"東山","LANE":" ","ALLEY":" ","HOUSE_NO":"３０２號之１","E_COORD97":188897.92000000001,"N_COORD97":2580427.8599999999,"ADDRESS":"東山３０２號之１","OBJECTID":228521},"geometry":{"x":188897.91999999993,"y":2580427.8600000013}},{"attributes":{"ID":228526,"DIS_CODE":0,"TOWNNAME":"東山區","LI":"東山里","LIN":"23鄰","STREET":" ","SECT":" ","MAREA":"東山","LANE":" ","ALLEY":" ","HOUSE_NO":"３０２號","E_COORD97":188898.17999999999,"N_COORD97":2580423.5600000001,"ADDRESS":"東山３０２號","OBJECTID":228522},"geometry":{"x":188898.18000000156,"y":2580423.5600000042}},{"attributes":{"ID":228527,"DIS_CODE":0,"TOWNNAME":"中西區","LI":"西湖里","LIN":"3鄰","STREET":"頂美二街","SECT":" ","MAREA":" ","LANE":"７２巷","ALLEY":" ","HOUSE_NO":"８號","E_COORD97":166470.34,"N_COORD97":2544630.5600000001,"ADDRESS":"頂美二街７２巷８號","OBJECTID":228523},"geometry":{"x":166470.34000000078,"y":2544630.5600000005}},{"attributes":{"ID":228528,"DIS_CODE":0,"TOWNNAME":"東山區","LI":"東山里","LIN":"23鄰","STREET":" ","SECT":" ","MAREA":"東山","LANE":" ","ALLEY":" ","HOUSE_NO":"３０３號","E_COORD97":188917.75,"N_COORD97":2580412.5,"ADDRESS":"東山３０３號","OBJECTID":228524},"geometry":{"x":188917.75,"y":2580412.5}},{"attributes":{"ID":228529,"DIS_CODE":0,"TOWNNAME":"中西區","LI":"光賢里","LIN":"3鄰","STREET":"武聖路","SECT":" ","MAREA":" ","LANE":"４５巷","ALLEY":" ","HOUSE_NO":"２９號之１","E_COORD97":166636.66,"N_COORD97":2545237.3100000001,"ADDRESS":"武聖路４５巷２９號之１","OBJECTID":228525},"geometry":{"x":166636.66000000108,"y":2545237.3100000024}},{"attributes":{"ID":228530,"DIS_CODE":0,"TOWNNAME":"仁德區","LI":"大甲里","LIN":"3鄰","STREET":"行大一街","SECT":" ","MAREA":" ","LANE":"７０巷","ALLEY":" ","HOUSE_NO":"５９號","E_COORD97":169928.44,"N_COORD97":2535037.25,"ADDRESS":"行大一街７０巷５９號","OBJECTID":228526},"geometry":{"x":169928.44000000134,"y":2535037.25}},{"attributes":{"ID":228531,"DIS_CODE":0,"TOWNNAME":"仁德區","LI":"土庫里","LIN":"3鄰","STREET":"土庫路","SECT":" ","MAREA":" ","LANE":"２００巷","ALLEY":" ","HOUSE_NO":"５號","E_COORD97":174208.70000000001,"N_COORD97":2542869.4900000002,"ADDRESS":"土庫路２００巷５號","OBJECTID":228527},"geometry":{"x":174208.70000000112,"y":2542869.4900000021}},{"attributes":{"ID":228532,"DIS_CODE":0,"TOWNNAME":"東區","LI":"東明里","LIN":"3鄰","STREET":"怡東路","SECT":" ","MAREA":" ","LANE":"５８巷","ALLEY":" ","HOUSE_NO":"１１號","E_COORD97":170902.47,"N_COORD97":2543591.9300000002,"ADDRESS":"怡東路５８巷１１號","OBJECTID":228528},"geometry":{"x":170902.47000000067,"y":2543591.9300000016}},{"attributes":{"ID":228533,"DIS_CODE":0,"TOWNNAME":"東區","LI":"東明里","LIN":"3鄰","STREET":"怡東路","SECT":" ","MAREA":" ","LANE":"５８巷","ALLEY":" ","HOUSE_NO":"１號","E_COORD97":170866.10000000001,"N_COORD97":2543598.0499999998,"ADDRESS":"怡東路５８巷１號","OBJECTID":228529},"geometry":{"x":170866.09999999963,"y":2543598.0500000026}},{"attributes":{"ID":228534,"DIS_CODE":0,"TOWNNAME":"東區","LI":"東明里","LIN":"3鄰","STREET":"怡東路","SECT":" ","MAREA":" ","LANE":"５８巷","ALLEY":" ","HOUSE_NO":"３號","E_COORD97":170876,"N_COORD97":2543595.6899999999,"ADDRESS":"怡東路５８巷３號","OBJECTID":228530},"geometry":{"x":170876,"y":2543595.6900000013}},{"attributes":{"ID":228535,"DIS_CODE":0,"TOWNNAME":"東區","LI":"東明里","LIN":"3鄰","STREET":"怡東路","SECT":" ","MAREA":" ","LANE":"５８巷","ALLEY":" ","HOUSE_NO":"５號","E_COORD97":170882.26999999999,"N_COORD97":2543594.9900000002,"ADDRESS":"怡東路５８巷５號","OBJECTID":228531},"geometry":{"x":170882.26999999955,"y":2543594.9900000021}},{"attributes":{"ID":228536,"DIS_CODE":0,"TOWNNAME":"東山區","LI":"東山里","LIN":"23鄰","STREET":" ","SECT":" ","MAREA":"東山","LANE":" ","ALLEY":" ","HOUSE_NO":"３０４號之１","E_COORD97":188879.01999999999,"N_COORD97":2580371.6499999999,"ADDRESS":"東山３０４號之１","OBJECTID":228532},"geometry":{"x":188879.02000000048,"y":2580371.6499999985}},{"attributes":{"ID":228537,"DIS_CODE":0,"TOWNNAME":"東山區","LI":"東山里","LIN":"23鄰","STREET":" ","SECT":" ","MAREA":"東山","LANE":" ","ALLEY":" ","HOUSE_NO":"３０４號之３","E_COORD97":188878.92999999999,"N_COORD97":2580386.46,"ADDRESS":"東山３０４號之３","OBJECTID":228533},"geometry":{"x":188878.9299999997,"y":2580386.4600000009}},{"attributes":{"ID":228538,"DIS_CODE":0,"TOWNNAME":"東山區","LI":"東山里","LIN":"23鄰","STREET":" ","SECT":" ","MAREA":"東山","LANE":" ","ALLEY":" ","HOUSE_NO":"３０４號之４","E_COORD97":188878.22,"N_COORD97":2580390.8900000001,"ADDRESS":"東山３０４號之４","OBJECTID":228534},"geometry":{"x":188878.22000000067,"y":2580390.8900000043}},{"attributes":{"ID":228539,"DIS_CODE":0,"TOWNNAME":"東山區","LI":"東山里","LIN":"23鄰","STREET":" ","SECT":" ","MAREA":"東山","LANE":" ","ALLEY":" ","HOUSE_NO":"３０４號之５","E_COORD97":188877.73999999999,"N_COORD97":2580395.1200000001,"ADDRESS":"東山３０４號之５","OBJECTID":228535},"geometry":{"x":188877.74000000022,"y":2580395.120000001}},{"attributes":{"ID":228540,"DIS_CODE":0,"TOWNNAME":"東山區","LI":"東山里","LIN":"23鄰","STREET":" ","SECT":" ","MAREA":"東山","LANE":" ","ALLEY":" ","HOUSE_NO":"３０４號之６","E_COORD97":188876.88,"N_COORD97":2580398.7599999998,"ADDRESS":"東山３０４號之６","OBJECTID":228536},"geometry":{"x":188876.88000000082,"y":2580398.7600000016}},{"attributes":{"ID":228541,"DIS_CODE":0,"TOWNNAME":"東山區","LI":"東山里","LIN":"23鄰","STREET":" ","SECT":" ","MAREA":"東山","LANE":" ","ALLEY":" ","HOUSE_NO":"３０４號之７","E_COORD97":188876.45000000001,"N_COORD97":2580402.8100000001,"ADDRESS":"東山３０４號之７","OBJECTID":228537},"geometry":{"x":188876.45000000205,"y":2580402.8100000024}},{"attributes":{"ID":228542,"DIS_CODE":0,"TOWNNAME":"東山區","LI":"東山里","LIN":"23鄰","STREET":" ","SECT":" ","MAREA":"東山","LANE":" ","ALLEY":" ","HOUSE_NO":"３０４號之８","E_COORD97":188876.14999999999,"N_COORD97":2580407.1800000002,"ADDRESS":"東山３０４號之８","OBJECTID":228538},"geometry":{"x":188876.1500000013,"y":2580407.1799999997}},{"attributes":{"ID":228543,"DIS_CODE":0,"TOWNNAME":"東山區","LI":"東山里","LIN":"23鄰","STREET":" ","SECT":" ","MAREA":"東山","LANE":" ","ALLEY":" ","HOUSE_NO":"３０４號","E_COORD97":188913.59,"N_COORD97":2580355.1400000001,"ADDRESS":"東山３０４號","OBJECTID":228539},"geometry":{"x":188913.58999999985,"y":2580355.1400000043}},{"attributes":{"ID":228544,"DIS_CODE":0,"TOWNNAME":"東山區","LI":"東山里","LIN":"23鄰","STREET":" ","SECT":" ","MAREA":"東山","LANE":" ","ALLEY":" ","HOUSE_NO":"３０７號之１２","E_COORD97":188879.38,"N_COORD97":2580367.27,"ADDRESS":"東山３０７號之１２","OBJECTID":228540},"geometry":{"x":188879.37999999989,"y":2580367.2700000014}},{"attributes":{"ID":228545,"DIS_CODE":0,"TOWNNAME":"佳里區","LI":"鎮山里","LIN":"23鄰","STREET":" ","SECT":" ","MAREA":"鎮山","LANE":" ","ALLEY":" ","HOUSE_NO":"９４號之７１","E_COORD97":166947.85999999999,"N_COORD97":2561304.52,"ADDRESS":"鎮山９４號之７１","OBJECTID":228541},"geometry":{"x":166947.86000000034,"y":2561304.5200000033}},{"attributes":{"ID":228546,"DIS_CODE":0,"TOWNNAME":"新化區","LI":"東榮里","LIN":"23鄰","STREET":"復興路","SECT":" ","MAREA":" ","LANE":"２０３巷","ALLEY":" ","HOUSE_NO":"２２號","E_COORD97":179354.76999999999,"N_COORD97":2548028.25,"ADDRESS":"復興路２０３巷２２號","OBJECTID":228542},"geometry":{"x":179354.76999999955,"y":2548028.2500000019}},{"attributes":{"ID":228547,"DIS_CODE":0,"TOWNNAME":"新化區","LI":"東榮里","LIN":"23鄰","STREET":"和平街","SECT":" ","MAREA":" ","LANE":"３１巷","ALLEY":" ","HOUSE_NO":"３５號","E_COORD97":179334.12,"N_COORD97":2548116.25,"ADDRESS":"和平街３１巷３５號","OBJECTID":228543},"geometry":{"x":179334.12000000011,"y":2548116.2500000019}},{"attributes":{"ID":228548,"DIS_CODE":0,"TOWNNAME":"新化區","LI":"東榮里","LIN":"23鄰","STREET":"和平街","SECT":" ","MAREA":" ","LANE":"３１巷","ALLEY":" ","HOUSE_NO":"３９號","E_COORD97":179335.01999999999,"N_COORD97":2548107.25,"ADDRESS":"和平街３１巷３９號","OBJECTID":228544},"geometry":{"x":179335.02000000048,"y":2548107.25}},{"attributes":{"ID":228549,"DIS_CODE":0,"TOWNNAME":"北區","LI":"文元里","LIN":"23鄰","STREET":"文賢三街","SECT":" ","MAREA":" ","LANE":"３２０巷","ALLEY":" ","HOUSE_NO":"３２號","E_COORD97":167897.60999999999,"N_COORD97":2546322.5299999998,"ADDRESS":"文賢三街３２０巷３２號","OBJECTID":228545},"geometry":{"x":167897.6100000022,"y":2546322.5300000012}},{"attributes":{"ID":228550,"DIS_CODE":0,"TOWNNAME":"北區","LI":"文元里","LIN":"23鄰","STREET":"文賢三街","SECT":" ","MAREA":" ","LANE":"３２０巷","ALLEY":" ","HOUSE_NO":"３６號","E_COORD97":167892.37,"N_COORD97":2546322.2400000002,"ADDRESS":"文賢三街３２０巷３６號","OBJECTID":228546},"geometry":{"x":167892.37000000104,"y":2546322.2400000021}},{"attributes":{"ID":228551,"DIS_CODE":0,"TOWNNAME":"北區","LI":"大港里","LIN":"23鄰","STREET":"中華北路","SECT":"一段","MAREA":" ","LANE":"１８１巷","ALLEY":" ","HOUSE_NO":"６９號","E_COORD97":166303.35000000001,"N_COORD97":2545610.4500000002,"ADDRESS":"中華北路一段１８１巷６９號","OBJECTID":228547},"geometry":{"x":166303.3499999987,"y":2545610.450000003}},{"attributes":{"ID":228552,"DIS_CODE":0,"TOWNNAME":"北區","LI":"文元里","LIN":"23鄰","STREET":"文成三路","SECT":" ","MAREA":" ","LANE":"６８２巷","ALLEY":" ","HOUSE_NO":"４８號","E_COORD97":167953.10999999999,"N_COORD97":2546356.2000000002,"ADDRESS":"文成三路６８２巷４８號","OBJECTID":228548},"geometry":{"x":167953.11000000034,"y":2546356.2000000011}},{"attributes":{"ID":228553,"DIS_CODE":0,"TOWNNAME":"永康區","LI":"網寮里","LIN":"23鄰","STREET":"永春街","SECT":" ","MAREA":" ","LANE":"２０巷","ALLEY":" ","HOUSE_NO":"３３號","E_COORD97":173841.89000000001,"N_COORD97":2546322.6800000002,"ADDRESS":"永春街２０巷３３號","OBJECTID":228549},"geometry":{"x":173841.8900000006,"y":2546322.6800000016}},{"attributes":{"ID":228554,"DIS_CODE":0,"TOWNNAME":"東區","LI":"東明里","LIN":"3鄰","STREET":"怡東路","SECT":" ","MAREA":" ","LANE":"５８巷","ALLEY":" ","HOUSE_NO":"７號","E_COORD97":170888.82000000001,"N_COORD97":2543593.8799999999,"ADDRESS":"怡東路５８巷７號","OBJECTID":228550},"geometry":{"x":170888.82000000123,"y":2543593.8800000008}},{"attributes":{"ID":228555,"DIS_CODE":0,"TOWNNAME":"東區","LI":"東明里","LIN":"3鄰","STREET":"怡東路","SECT":" ","MAREA":" ","LANE":"５８巷","ALLEY":" ","HOUSE_NO":"９號","E_COORD97":170897.17999999999,"N_COORD97":2543593.1800000002,"ADDRESS":"怡東路５８巷９號","OBJECTID":228551},"geometry":{"x":170897.18000000063,"y":2543593.1800000016}},{"attributes":{"ID":228556,"DIS_CODE":0,"TOWNNAME":"永康區","LI":"復興里","LIN":"3鄰","STREET":"復興路","SECT":" ","MAREA":" ","LANE":"２７７巷","ALLEY":" ","HOUSE_NO":"８４號","E_COORD97":172354.53,"N_COORD97":2544084.02,"ADDRESS":"復興路２７７巷８４號","OBJECTID":228552},"geometry":{"x":172354.53000000026,"y":2544084.0199999996}},{"attributes":{"ID":228557,"DIS_CODE":0,"TOWNNAME":"仁德區","LI":"保安里","LIN":"3鄰","STREET":"保安路","SECT":"一段","MAREA":" ","LANE":"５６巷","ALLEY":" ","HOUSE_NO":"５５號","E_COORD97":170815.5,"N_COORD97":2535864.8199999998,"ADDRESS":"保安路一段５６巷５５號","OBJECTID":228553},"geometry":{"x":170815.50000000186,"y":2535864.8200000003}},{"attributes":{"ID":228558,"DIS_CODE":0,"TOWNNAME":"歸仁區","LI":"南興里","LIN":"34鄰","STREET":"民生北街","SECT":" ","MAREA":" ","LANE":" ","ALLEY":" ","HOUSE_NO":"５６號","E_COORD97":176282.59,"N_COORD97":2541088.29,"ADDRESS":"民生北街５６號","OBJECTID":228554},"geometry":{"x":176282.58999999985,"y":2541088.2899999991}},{"attributes":{"ID":228559,"DIS_CODE":0,"TOWNNAME":"歸仁區","LI":"南興里","LIN":"34鄰","STREET":"民生北街","SECT":" ","MAREA":" ","LANE":" ","ALLEY":" ","HOUSE_NO":"６０號","E_COORD97":176282.59,"N_COORD97":2541096.29,"ADDRESS":"民生北街６０號","OBJECTID":228555},"geometry":{"x":176282.58999999985,"y":2541096.290000001}},{"attributes":{"ID":228560,"DIS_CODE":0,"TOWNNAME":"歸仁區","LI":"南保里","LIN":"34鄰","STREET":"民權八街","SECT":" ","MAREA":" ","LANE":" ","ALLEY":" ","HOUSE_NO":"１２０號","E_COORD97":176746.34,"N_COORD97":2541102.29,"ADDRESS":"民權八街１２０號","OBJECTID":228556},"geometry":{"x":176746.34000000078,"y":2541102.2900000028}},{"attributes":{"ID":228561,"DIS_CODE":0,"TOWNNAME":"歸仁區","LI":"南保里","LIN":"34鄰","STREET":"民權八街","SECT":" ","MAREA":" ","LANE":" ","ALLEY":" ","HOUSE_NO":"１００號","E_COORD97":176746.14000000001,"N_COORD97":2541060.29,"ADDRESS":"民權八街１００號","OBJECTID":228557},"geometry":{"x":176746.1400000006,"y":2541060.2899999991}},{"attributes":{"ID":228562,"DIS_CODE":0,"TOWNNAME":"歸仁區","LI":"南保里","LIN":"34鄰","STREET":"民權八街","SECT":" ","MAREA":" ","LANE":" ","ALLEY":" ","HOUSE_NO":"８０號","E_COORD97":176759.98999999999,"N_COORD97":2541007.29,"ADDRESS":"民權八街８０號","OBJECTID":228558},"geometry":{"x":176759.99000000022,"y":2541007.2900000028}},{"attributes":{"ID":228563,"DIS_CODE":0,"TOWNNAME":"歸仁區","LI":"南興里","LIN":"34鄰","STREET":"民生北街","SECT":" ","MAREA":" ","LANE":" ","ALLEY":" ","HOUSE_NO":"７０號","E_COORD97":176282.69,"N_COORD97":2541117.29,"ADDRESS":"民生北街７０號","OBJECTID":228559},"geometry":{"x":176282.69000000041,"y":2541117.290000001}},{"attributes":{"ID":228564,"DIS_CODE":0,"TOWNNAME":"歸仁區","LI":"南保里","LIN":"34鄰","STREET":"民權八街","SECT":" ","MAREA":" ","LANE":" ","ALLEY":" ","HOUSE_NO":"１０８號","E_COORD97":176746.23999999999,"N_COORD97":2541076.29,"ADDRESS":"民權八街１０８號","OBJECTID":228560},"geometry":{"x":176746.24000000115,"y":2541076.290000001}},{"attributes":{"ID":228565,"DIS_CODE":0,"TOWNNAME":"歸仁區","LI":"南興里","LIN":"34鄰","STREET":"民生北街","SECT":" ","MAREA":" ","LANE":" ","ALLEY":" ","HOUSE_NO":"５４號","E_COORD97":176282.48999999999,"N_COORD97":2541084.29,"ADDRESS":"民生北街５４號","OBJECTID":228561},"geometry":{"x":176282.49000000022,"y":2541084.2899999991}},{"attributes":{"ID":228566,"DIS_CODE":0,"TOWNNAME":"歸仁區","LI":"六甲里","LIN":"34鄰","STREET":"六甲六街","SECT":" ","MAREA":" ","LANE":" ","ALLEY":" ","HOUSE_NO":"２７號","E_COORD97":175634.17000000001,"N_COORD97":2539345.25,"ADDRESS":"六甲六街２７號","OBJECTID":228562},"geometry":{"x":175634.17000000086,"y":2539345.2500000019}},{"attributes":{"ID":228567,"DIS_CODE":0,"TOWNNAME":"安平區","LI":"文平里","LIN":"23鄰","STREET":"建平三街","SECT":" ","MAREA":" ","LANE":" ","ALLEY":" ","HOUSE_NO":"２７號","E_COORD97":165967.22,"N_COORD97":2542890.4300000002,"ADDRESS":"建平三街２７號","OBJECTID":228563},"geometry":{"x":165967.2200000016,"y":2542890.4299999997}},{"attributes":{"ID":228568,"DIS_CODE":0,"TOWNNAME":"歸仁區","LI":"大廟里","LIN":"23鄰","STREET":"大廟一街","SECT":" ","MAREA":" ","LANE":"３８巷","ALLEY":" ","HOUSE_NO":"３７號","E_COORD97":175725.10999999999,"N_COORD97":2544077.5299999998,"ADDRESS":"大廟一街３８巷３７號","OBJECTID":228564},"geometry":{"x":175725.11000000127,"y":2544077.5300000031}},{"attributes":{"ID":228569,"DIS_CODE":0,"TOWNNAME":"歸仁區","LI":"大廟里","LIN":"23鄰","STREET":"大廟一街","SECT":" ","MAREA":" ","LANE":"９０巷","ALLEY":" ","HOUSE_NO":"３２號","E_COORD97":175660.51999999999,"N_COORD97":2544001.1200000001,"ADDRESS":"大廟一街９０巷３２號","OBJECTID":228565},"geometry":{"x":175660.51999999955,"y":2544001.1200000029}},{"attributes":{"ID":228570,"DIS_CODE":0,"TOWNNAME":"永康區","LI":"勝利里","LIN":"23鄰","STREET":"中華一路","SECT":" ","MAREA":" ","LANE":"１８１巷","ALLEY":" ","HOUSE_NO":"１號","E_COORD97":171507.16,"N_COORD97":2544933.9300000002,"ADDRESS":"中華一路１８１巷１號","OBJECTID":228566},"geometry":{"x":171507.16000000015,"y":2544933.9300000016}},{"attributes":{"ID":228571,"DIS_CODE":0,"TOWNNAME":"麻豆區","LI":"大山里","LIN":"6鄰","STREET":" ","SECT":" ","MAREA":"大山\u25A0","LANE":" ","ALLEY":" ","HOUSE_NO":"６５號","E_COORD97":170136.98000000001,"N_COORD97":2566231.6699999999,"ADDRESS":"大山\u25A0６５號","OBJECTID":228567},"geometry":{"x":170136.98000000138,"y":2566231.6700000018}},{"attributes":{"ID":228572,"DIS_CODE":0,"TOWNNAME":"仁德區","LI":"保安里","LIN":"3鄰","STREET":"保安路","SECT":"一段","MAREA":" ","LANE":"７２巷","ALLEY":" ","HOUSE_NO":"１３號","E_COORD97":170830.82000000001,"N_COORD97":2536281.3199999998,"ADDRESS":"保安路一段７２巷１３號","OBJECTID":228568},"geometry":{"x":170830.82000000123,"y":2536281.3200000003}},{"attributes":{"ID":228573,"DIS_CODE":0,"TOWNNAME":"仁德區","LI":"保安里","LIN":"3鄰","STREET":"保安路","SECT":"一段","MAREA":" ","LANE":"８２巷","ALLEY":" ","HOUSE_NO":"１號","E_COORD97":170699.42999999999,"N_COORD97":2536365.3199999998,"ADDRESS":"保安路一段８２巷１號","OBJECTID":228569},"geometry":{"x":170699.43000000063,"y":2536365.3200000003}},{"attributes":{"ID":228574,"DIS_CODE":0,"TOWNNAME":"永康區","LI":"龍潭里","LIN":"3鄰","STREET":"龍安街","SECT":" ","MAREA":" ","LANE":"４０巷","ALLEY":" ","HOUSE_NO":"３號","E_COORD97":174614.81,"N_COORD97":2548136.8399999999,"ADDRESS":"龍安街４０巷３號","OBJECTID":228570},"geometry":{"x":174614.80999999959,"y":2548136.8399999999}},{"attributes":{"ID":228575,"DIS_CODE":0,"TOWNNAME":"永康區","LI":"復興里","LIN":"3鄰","STREET":"復興路","SECT":" ","MAREA":" ","LANE":"２７７巷","ALLEY":" ","HOUSE_NO":"６６號","E_COORD97":172345.82000000001,"N_COORD97":2544137.3500000001,"ADDRESS":"復興路２７７巷６６號","OBJECTID":228571},"geometry":{"x":172345.8200000003,"y":2544137.3500000015}},{"attributes":{"ID":228576,"DIS_CODE":0,"TOWNNAME":"永康區","LI":"復興里","LIN":"3鄰","STREET":"復興路","SECT":" ","MAREA":" ","LANE":"２７７巷","ALLEY":" ","HOUSE_NO":"７６號","E_COORD97":172349.89000000001,"N_COORD97":2544117.3399999999,"ADDRESS":"復興路２７７巷７６號","OBJECTID":228572},"geometry":{"x":172349.89000000153,"y":2544117.3400000017}},{"attributes":{"ID":228577,"DIS_CODE":0,"TOWNNAME":"永康區","LI":"復興里","LIN":"3鄰","STREET":"復興路","SECT":" ","MAREA":" ","LANE":"２７７巷","ALLEY":" ","HOUSE_NO":"２０６號","E_COORD97":172388.45000000001,"N_COORD97":2543815.5299999998,"ADDRESS":"復興路２７７巷２０６號","OBJECTID":228573},"geometry":{"x":172388.45000000019,"y":2543815.5299999993}},{"attributes":{"ID":228578,"DIS_CODE":0,"TOWNNAME":"永康區","LI":"復華里","LIN":"3鄰","STREET":"復國二路","SECT":" ","MAREA":" ","LANE":"３４０巷","ALLEY":" ","HOUSE_NO":"１號","E_COORD97":173046.73999999999,"N_COORD97":2546165.1400000001,"ADDRESS":"復國二路３４０巷１號","OBJECTID":228574},"geometry":{"x":173046.74000000115,"y":2546165.1400000006}},{"attributes":{"ID":228579,"DIS_CODE":0,"TOWNNAME":"永康區","LI":"復國里","LIN":"3鄰","STREET":"復國一路","SECT":" ","MAREA":" ","LANE":"４４巷","ALLEY":" ","HOUSE_NO":"３５號","E_COORD97":172786.48000000001,"N_COORD97":2544845.02,"ADDRESS":"復國一路４４巷３５號","OBJECTID":228575},"geometry":{"x":172786.48000000138,"y":2544845.0200000014}},{"attributes":{"ID":228580,"DIS_CODE":0,"TOWNNAME":"東區","LI":"崇明里","LIN":"3鄰","STREET":"大同路","SECT":"二段","MAREA":" ","LANE":"４０３巷","ALLEY":" ","HOUSE_NO":"１２號","E_COORD97":169585.63,"N_COORD97":2541346.2200000002,"ADDRESS":"大同路二段４０３巷１２號","OBJECTID":228576},"geometry":{"x":169585.63000000082,"y":2541346.2200000025}},{"attributes":{"ID":228581,"DIS_CODE":0,"TOWNNAME":"東區","LI":"南聖里","LIN":"3鄰","STREET":"裕農路","SECT":" ","MAREA":" ","LANE":"６６８巷","ALLEY":" ","HOUSE_NO":"２６號之１","E_COORD97":171727.48999999999,"N_COORD97":2543133.3700000001,"ADDRESS":"裕農路６６８巷２６號之１","OBJECTID":228577},"geometry":{"x":171727.49000000022,"y":2543133.370000001}},{"attributes":{"ID":228582,"DIS_CODE":0,"TOWNNAME":"東區","LI":"東安里","LIN":"3鄰","STREET":"東門路","SECT":"二段","MAREA":" ","LANE":"４３巷","ALLEY":" ","HOUSE_NO":"１５號","E_COORD97":170066.17000000001,"N_COORD97":2543028.6600000001,"ADDRESS":"東門路二段４３巷１５號","OBJECTID":228578},"geometry":{"x":170066.16999999993,"y":2543028.6600000001}},{"attributes":{"ID":228583,"DIS_CODE":0,"TOWNNAME":"東區","LI":"東安里","LIN":"3鄰","STREET":"長榮路","SECT":"二段","MAREA":" ","LANE":"２４巷","ALLEY":" ","HOUSE_NO":"６４號","E_COORD97":170056.10000000001,"N_COORD97":2543043.6000000001,"ADDRESS":"長榮路二段２４巷６４號","OBJECTID":228579},"geometry":{"x":170056.09999999963,"y":2543043.6000000034}},{"attributes":{"ID":228584,"DIS_CODE":0,"TOWNNAME":"東區","LI":"東安里","LIN":"3鄰","STREET":"長榮路","SECT":"二段","MAREA":" ","LANE":"２４巷","ALLEY":" ","HOUSE_NO":"６０號","E_COORD97":170053.20999999999,"N_COORD97":2543044.6200000001,"ADDRESS":"長榮路二段２４巷６０號","OBJECTID":228580},"geometry":{"x":170053.21000000089,"y":2543044.6200000048}},{"attributes":{"ID":228585,"DIS_CODE":0,"TOWNNAME":"東區","LI":"東安里","LIN":"3鄰","STREET":"長榮路","SECT":"二段","MAREA":" ","LANE":"２４巷","ALLEY":" ","HOUSE_NO":"６２號","E_COORD97":170048.54999999999,"N_COORD97":2543045.4700000002,"ADDRESS":"長榮路二段２４巷６２號","OBJECTID":228581},"geometry":{"x":170048.54999999888,"y":2543045.4700000044}},{"attributes":{"ID":228586,"DIS_CODE":0,"TOWNNAME":"東區","LI":"東安里","LIN":"3鄰","STREET":"東門路","SECT":"二段","MAREA":" ","LANE":"４３巷","ALLEY":" ","HOUSE_NO":"１７號","E_COORD97":170067.78,"N_COORD97":2543033.3199999998,"ADDRESS":"東門路二段４３巷１７號","OBJECTID":228582},"geometry":{"x":170067.77999999933,"y":2543033.3200000022}},{"attributes":{"ID":228587,"DIS_CODE":0,"TOWNNAME":"東區","LI":"東安里","LIN":"3鄰","STREET":"東門路","SECT":"二段","MAREA":" ","LANE":"４３巷","ALLEY":" ","HOUSE_NO":"１９號","E_COORD97":170068.82999999999,"N_COORD97":2543037.77,"ADDRESS":"東門路二段４３巷１９號","OBJECTID":228583},"geometry":{"x":170068.83000000007,"y":2543037.7699999996}},{"attributes":{"ID":228588,"DIS_CODE":0,"TOWNNAME":"永康區","LI":"復國里","LIN":"3鄰","STREET":"復國一路","SECT":" ","MAREA":" ","LANE":"４４巷","ALLEY":" ","HOUSE_NO":"７號","E_COORD97":172752.41,"N_COORD97":2544818.02,"ADDRESS":"復國一路４４巷７號","OBJECTID":228584},"geometry":{"x":172752.41000000108,"y":2544818.0200000014}},{"attributes":{"ID":228589,"DIS_CODE":0,"TOWNNAME":"永康區","LI":"復華里","LIN":"3鄰","STREET":"復國二路","SECT":" ","MAREA":" ","LANE":"３４２巷","ALLEY":" ","HOUSE_NO":"６號","E_COORD97":173055.53,"N_COORD97":2546186.3500000001,"ADDRESS":"復國二路３４２巷６號","OBJECTID":228585},"geometry":{"x":173055.53000000119,"y":2546186.3499999996}},{"attributes":{"ID":228590,"DIS_CODE":0,"TOWNNAME":"麻豆區","LI":"大山里","LIN":"1鄰","STREET":" ","SECT":" ","MAREA":"大山\u25A0","LANE":" ","ALLEY":" ","HOUSE_NO":"６號","E_COORD97":170220.26000000001,"N_COORD97":2565870.8799999999,"ADDRESS":"大山\u25A0６號","OBJECTID":228586},"geometry":{"x":170220.26000000071,"y":2565870.879999999}},{"attributes":{"ID":228591,"DIS_CODE":0,"TOWNNAME":"北區","LI":"成德里","LIN":"34鄰","STREET":"文成路","SECT":" ","MAREA":" ","LANE":" ","ALLEY":" ","HOUSE_NO":"１８８號","E_COORD97":168392.79999999999,"N_COORD97":2545968.75,"ADDRESS":"文成路１８８號","OBJECTID":228587},"geometry":{"x":168392.80000000075,"y":2545968.7500000037}},{"attributes":{"ID":228592,"DIS_CODE":0,"TOWNNAME":"安平區","LI":"育平里","LIN":"34鄰","STREET":"郡平路","SECT":" ","MAREA":" ","LANE":" ","ALLEY":" ","HOUSE_NO":"２５６號","E_COORD97":164467.95999999999,"N_COORD97":2543374.54,"ADDRESS":"郡平路２５６號","OBJECTID":228588},"geometry":{"x":164467.96000000089,"y":2543374.5399999991}},{"attributes":{"ID":228593,"DIS_CODE":0,"TOWNNAME":"新市區","LI":"大社里","LIN":"23鄰","STREET":" ","SECT":" ","MAREA":"大社","LANE":" ","ALLEY":" ","HOUSE_NO":"８５７之５號","E_COORD97":179629.01000000001,"N_COORD97":2554141.5499999998,"ADDRESS":"大社８５７之５號","OBJECTID":228589},"geometry":{"x":179629.01000000071,"y":2554141.5500000045}},{"attributes":{"ID":228594,"DIS_CODE":0,"TOWNNAME":"安平區","LI":"育平里","LIN":"34鄰","STREET":"郡平路","SECT":" ","MAREA":" ","LANE":" ","ALLEY":" ","HOUSE_NO":"２５８號","E_COORD97":164461.92999999999,"N_COORD97":2543375.5,"ADDRESS":"郡平路２５８號","OBJECTID":228590},"geometry":{"x":164461.92999999877,"y":2543375.5}},{"attributes":{"ID":228595,"DIS_CODE":0,"TOWNNAME":"安平區","LI":"育平里","LIN":"34鄰","STREET":"郡平路","SECT":" ","MAREA":" ","LANE":" ","ALLEY":" ","HOUSE_NO":"２６０號","E_COORD97":164456.38,"N_COORD97":2543375.8100000001,"ADDRESS":"郡平路２６０號","OBJECTID":228591},"geometry":{"x":164456.38000000082,"y":2543375.8100000024}},{"attributes":{"ID":228596,"DIS_CODE":0,"TOWNNAME":"永康區","LI":"西橋里","LIN":"23鄰","STREET":"大橋三街","SECT":" ","MAREA":" ","LANE":"５７巷","ALLEY":" ","HOUSE_NO":"３３號","E_COORD97":170483.10999999999,"N_COORD97":2546595.7400000002,"ADDRESS":"大橋三街５７巷３３號","OBJECTID":228592},"geometry":{"x":170483.11000000127,"y":2546595.7400000002}},{"attributes":{"ID":228597,"DIS_CODE":0,"TOWNNAME":"永康區","LI":"西勢里","LIN":"23鄰","STREET":"富強路","SECT":"一段","MAREA":" ","LANE":"１９４巷","ALLEY":" ","HOUSE_NO":"４２號","E_COORD97":175686.31,"N_COORD97":2546265.0699999998,"ADDRESS":"富強路一段１９４巷４２號","OBJECTID":228593},"geometry":{"x":175686.30999999959,"y":2546265.070000004}},{"attributes":{"ID":228598,"DIS_CODE":0,"TOWNNAME":"永康區","LI":"西勢里","LIN":"23鄰","STREET":"富強路","SECT":"一段","MAREA":" ","LANE":"１９４巷","ALLEY":" ","HOUSE_NO":"３２號","E_COORD97":175671.97,"N_COORD97":2546278.5699999998,"ADDRESS":"富強路一段１９４巷３２號","OBJECTID":228594},"geometry":{"x":175671.96999999881,"y":2546278.570000004}},{"attributes":{"ID":228599,"DIS_CODE":0,"TOWNNAME":"永康區","LI":"安康里","LIN":"23鄰","STREET":"中華路","SECT":" ","MAREA":" ","LANE":"７０３巷","ALLEY":" ","HOUSE_NO":"６７號","E_COORD97":170747.82999999999,"N_COORD97":2546230.75,"ADDRESS":"中華路７０３巷６７號","OBJECTID":228595},"geometry":{"x":170747.83000000101,"y":2546230.7500000019}},{"attributes":{"ID":228600,"DIS_CODE":0,"TOWNNAME":"永康區","LI":"安康里","LIN":"23鄰","STREET":"中華路","SECT":" ","MAREA":" ","LANE":"７０３巷","ALLEY":" ","HOUSE_NO":"５９號","E_COORD97":170764.73000000001,"N_COORD97":2546240,"ADDRESS":"中華路７０３巷５９號","OBJECTID":228596},"geometry":{"x":170764.73000000045,"y":2546240}},{"attributes":{"ID":228601,"DIS_CODE":0,"TOWNNAME":"永康區","LI":"安康里","LIN":"23鄰","STREET":"中華路","SECT":" ","MAREA":" ","LANE":"７０３巷","ALLEY":" ","HOUSE_NO":"５７號","E_COORD97":170768.87,"N_COORD97":2546242.25,"ADDRESS":"中華路７０３巷５７號","OBJECTID":228597},"geometry":{"x":170768.86999999918,"y":2546242.25}},{"attributes":{"ID":228602,"DIS_CODE":0,"TOWNNAME":"永康區","LI":"安康里","LIN":"23鄰","STREET":"中華路","SECT":" ","MAREA":" ","LANE":"７０３巷","ALLEY":" ","HOUSE_NO":"６５號","E_COORD97":170752.25,"N_COORD97":2546233,"ADDRESS":"中華路７０３巷６５號","OBJECTID":228598},"geometry":{"x":170752.25,"y":2546233.0000000019}},{"attributes":{"ID":228603,"DIS_CODE":0,"TOWNNAME":"永康區","LI":"西橋里","LIN":"23鄰","STREET":"大橋三街","SECT":" ","MAREA":" ","LANE":"５７巷","ALLEY":" ","HOUSE_NO":"３１號","E_COORD97":170486.39999999999,"N_COORD97":2546593.4900000002,"ADDRESS":"大橋三街５７巷３１號","OBJECTID":228599},"geometry":{"x":170486.4000000013,"y":2546593.4900000002}},{"attributes":{"ID":228604,"DIS_CODE":0,"TOWNNAME":"永康區","LI":"安康里","LIN":"23鄰","STREET":"中華路","SECT":" ","MAREA":" ","LANE":"７０３巷","ALLEY":" ","HOUSE_NO":"５５號","E_COORD97":170773.25,"N_COORD97":2546244.25,"ADDRESS":"中華路７０３巷５５號","OBJECTID":228600},"geometry":{"x":170773.25000000093,"y":2546244.2500000019}}]}