{"displayFieldName":"TOWNNAME","fieldAliases":{"ID":"ID","DIS_CODE":"DIS_CODE","TOWNNAME":"TOWNNAME","LI":"LI","LIN":"LIN","STREET":"STREET","SECT":"SECT","MAREA":"MAREA","LANE":"LANE","ALLEY":"ALLEY","HOUSE_NO":"HOUSE_NO","E_COORD97":"E_COORD97","N_COORD97":"N_COORD97","ADDRESS":"ADDRESS","OBJECTID":"OBJECTID"},"geometryType":"esriGeometryPoint","spatialReference":{"wkid":102443,"latestWkid":3826},"fields":[{"name":"ID","type":"esriFieldTypeDouble","alias":"ID"},{"name":"DIS_CODE","type":"esriFieldTypeInteger","alias":"DIS_CODE"},{"name":"TOWNNAME","type":"esriFieldTypeString","alias":"TOWNNAME","length":8},{"name":"LI","type":"esriFieldTypeString","alias":"LI","length":8},{"name":"LIN","type":"esriFieldTypeString","alias":"LIN","length":12},{"name":"STREET","type":"esriFieldTypeString","alias":"STREET","length":20},{"name":"SECT","type":"esriFieldTypeString","alias":"SECT","length":8},{"name":"MAREA","type":"esriFieldTypeString","alias":"MAREA","length":12},{"name":"LANE","type":"esriFieldTypeString","alias":"LANE","length":10},{"name":"ALLEY","type":"esriFieldTypeString","alias":"ALLEY","length":10},{"name":"HOUSE_NO","type":"esriFieldTypeString","alias":"HOUSE_NO","length":20},{"name":"E_COORD97","type":"esriFieldTypeDouble","alias":"E_COORD97"},{"name":"N_COORD97","type":"esriFieldTypeDouble","alias":"N_COORD97"},{"name":"ADDRESS","type":"esriFieldTypeString","alias":"ADDRESS","length":50},{"name":"OBJECTID","type":"esriFieldTypeOID","alias":"OBJECTID"}],"features":[{"attributes":{"ID":664028,"DIS_CODE":0,"TOWNNAME":"新化區","LI":"\u25A0拔里","LIN":"7鄰","STREET":" ","SECT":" ","MAREA":"\u25A0拔林","LANE":" ","ALLEY":" ","HOUSE_NO":"２８０號之１","E_COORD97":183517.35404499999,"N_COORD97":2551782.5666999999,"ADDRESS":"\u25A0拔林２８０號之１","OBJECTID":664001},"geometry":{"x":183517.35404500086,"y":2551782.5667020008}},{"attributes":{"ID":664029,"DIS_CODE":0,"TOWNNAME":"新化區","LI":"\u25A0拔里","LIN":"7鄰","STREET":" ","SECT":" ","MAREA":"\u25A0拔林","LANE":" ","ALLEY":" ","HOUSE_NO":"２８２號之２","E_COORD97":183502.31145800001,"N_COORD97":2551768.2792099998,"ADDRESS":"\u25A0拔林２８２號之２","OBJECTID":664002},"geometry":{"x":183502.31145800091,"y":2551768.2792100012}},{"attributes":{"ID":664030,"DIS_CODE":0,"TOWNNAME":"西港區","LI":"慶安里","LIN":"28鄰","STREET":"新興街","SECT":" ","MAREA":" ","LANE":"１５巷","ALLEY":" ","HOUSE_NO":"５之９號","E_COORD97":168205.46526900001,"N_COORD97":2557710.5242400002,"ADDRESS":"新興街１５巷５之９號","OBJECTID":664003},"geometry":{"x":168205.46526900213,"y":2557710.5242439993}},{"attributes":{"ID":664031,"DIS_CODE":0,"TOWNNAME":"西港區","LI":"慶安里","LIN":"28鄰","STREET":"新興街","SECT":" ","MAREA":" ","LANE":"１５巷","ALLEY":" ","HOUSE_NO":"５之１３號","E_COORD97":168189.00569600001,"N_COORD97":2557701.8565000002,"ADDRESS":"新興街１５巷５之１３號","OBJECTID":664004},"geometry":{"x":168189.0056959996,"y":2557701.8564979993}},{"attributes":{"ID":664032,"DIS_CODE":0,"TOWNNAME":"西港區","LI":"慶安里","LIN":"28鄰","STREET":"新興街","SECT":" ","MAREA":" ","LANE":"１５巷","ALLEY":" ","HOUSE_NO":"５之１０號","E_COORD97":168203.54599700001,"N_COORD97":2557705.4971599998,"ADDRESS":"新興街１５巷５之１０號","OBJECTID":664005},"geometry":{"x":168203.54599700123,"y":2557705.4971629996}},{"attributes":{"ID":664033,"DIS_CODE":0,"TOWNNAME":"西港區","LI":"慶安里","LIN":"28鄰","STREET":"新興街","SECT":" ","MAREA":" ","LANE":"１５巷","ALLEY":" ","HOUSE_NO":"５之１１號","E_COORD97":168202.27498799999,"N_COORD97":2557701.2638300001,"ADDRESS":"新興街１５巷５之１１號","OBJECTID":664006},"geometry":{"x":168202.27498800028,"y":2557701.263832001}},{"attributes":{"ID":664034,"DIS_CODE":0,"TOWNNAME":"西港區","LI":"慶安里","LIN":"28鄰","STREET":"新興街","SECT":" ","MAREA":" ","LANE":"１５巷","ALLEY":" ","HOUSE_NO":"５之１２號","E_COORD97":168195.07260000001,"N_COORD97":2557702.5338300001,"ADDRESS":"新興街１５巷５之１２號","OBJECTID":664007},"geometry":{"x":168195.07260000054,"y":2557702.5338310003}},{"attributes":{"ID":664035,"DIS_CODE":0,"TOWNNAME":"西港區","LI":"慶安里","LIN":"4鄰","STREET":" ","SECT":" ","MAREA":"中州","LANE":" ","ALLEY":" ","HOUSE_NO":"２７之６號","E_COORD97":167537.748857,"N_COORD97":2558481.25508,"ADDRESS":"中州２７之６號","OBJECTID":664008},"geometry":{"x":167537.74885699991,"y":2558481.2550770007}},{"attributes":{"ID":664036,"DIS_CODE":0,"TOWNNAME":"西港區","LI":"慶安里","LIN":"4鄰","STREET":" ","SECT":" ","MAREA":"中州","LANE":" ","ALLEY":" ","HOUSE_NO":"２７之７號","E_COORD97":167519.74288899999,"N_COORD97":2558419.2367799999,"ADDRESS":"中州２７之７號","OBJECTID":664009},"geometry":{"x":167519.74288900103,"y":2558419.2367770039}},{"attributes":{"ID":664037,"DIS_CODE":0,"TOWNNAME":"西港區","LI":"慶安里","LIN":"5鄰","STREET":"中山路","SECT":" ","MAREA":" ","LANE":" ","ALLEY":" ","HOUSE_NO":"４９５之１號","E_COORD97":168087.248628,"N_COORD97":2559087.8914200002,"ADDRESS":"中山路４９５之１號","OBJECTID":664010},"geometry":{"x":168087.2486279998,"y":2559087.8914160021}},{"attributes":{"ID":664038,"DIS_CODE":0,"TOWNNAME":"歸仁區","LI":"六甲里","LIN":"12鄰","STREET":"凱旋路","SECT":"三段","MAREA":" ","LANE":"３４１巷","ALLEY":"４０弄","HOUSE_NO":"３８號","E_COORD97":175498.16798999999,"N_COORD97":2538973.1878599999,"ADDRESS":"凱旋路三段３４１巷４０弄３８號","OBJECTID":664011},"geometry":{"x":175498.16799000092,"y":2538973.1878630016}},{"attributes":{"ID":664039,"DIS_CODE":0,"TOWNNAME":"南區","LI":"明興里","LIN":"17鄰","STREET":"中華南路","SECT":"二段","MAREA":" ","LANE":" ","ALLEY":" ","HOUSE_NO":"１８６號","E_COORD97":167034.41154500001,"N_COORD97":2540262.0781800002,"ADDRESS":"中華南路二段１８６號","OBJECTID":664012},"geometry":{"x":167034.41154500004,"y":2540262.0781820025}},{"attributes":{"ID":664040,"DIS_CODE":0,"TOWNNAME":"南區","LI":"明興里","LIN":"17鄰","STREET":"中華南路","SECT":"二段","MAREA":" ","LANE":" ","ALLEY":" ","HOUSE_NO":"１８８號","E_COORD97":167030.17350500001,"N_COORD97":2540261.2315199999,"ADDRESS":"中華南路二段１８８號","OBJECTID":664013},"geometry":{"x":167030.17350499984,"y":2540261.2315159999}},{"attributes":{"ID":664041,"DIS_CODE":0,"TOWNNAME":"北區","LI":"大豐里","LIN":"28鄰","STREET":"文賢路","SECT":" ","MAREA":" ","LANE":"３１３巷","ALLEY":"３４弄","HOUSE_NO":"１９號","E_COORD97":167216.73397599999,"N_COORD97":2545329.0016899998,"ADDRESS":"文賢路３１３巷３４弄１９號","OBJECTID":664014},"geometry":{"x":167216.73397599999,"y":2545329.0016879998}},{"attributes":{"ID":664042,"DIS_CODE":0,"TOWNNAME":"北區","LI":"大豐里","LIN":"28鄰","STREET":"文賢路","SECT":" ","MAREA":" ","LANE":"３１３巷","ALLEY":"３４弄","HOUSE_NO":"２１號","E_COORD97":167216.52218299999,"N_COORD97":2545334.2933499999,"ADDRESS":"文賢路３１３巷３４弄２１號","OBJECTID":664015},"geometry":{"x":167216.52218300104,"y":2545334.2933520004}},{"attributes":{"ID":664043,"DIS_CODE":0,"TOWNNAME":"北區","LI":"大豐里","LIN":"29鄰","STREET":"文賢路","SECT":" ","MAREA":" ","LANE":"３１３巷","ALLEY":"３４弄","HOUSE_NO":"２１號","E_COORD97":167217.36935600001,"N_COORD97":2545338.10335,"ADDRESS":"文賢路３１３巷３４弄２１號","OBJECTID":664016},"geometry":{"x":167217.36935599986,"y":2545338.1033500042}},{"attributes":{"ID":664044,"DIS_CODE":0,"TOWNNAME":"北區","LI":"大豐里","LIN":"29鄰","STREET":"文賢路","SECT":" ","MAREA":" ","LANE":"３１３巷","ALLEY":"３４弄","HOUSE_NO":"２５號","E_COORD97":167218.21653000001,"N_COORD97":2545344.0300099999,"ADDRESS":"文賢路３１３巷３４弄２５號","OBJECTID":664017},"geometry":{"x":167218.21652999986,"y":2545344.0300130006}},{"attributes":{"ID":664045,"DIS_CODE":0,"TOWNNAME":"北區","LI":"大豐里","LIN":"29鄰","STREET":"文賢路","SECT":" ","MAREA":" ","LANE":"３１３巷","ALLEY":"５６弄","HOUSE_NO":"１０號","E_COORD97":167174.375302,"N_COORD97":2545309.3166999999,"ADDRESS":"文賢路３１３巷５６弄１０號","OBJECTID":664018},"geometry":{"x":167174.3753020009,"y":2545309.3166990019}},{"attributes":{"ID":664046,"DIS_CODE":0,"TOWNNAME":"北區","LI":"大豐里","LIN":"29鄰","STREET":"文賢路","SECT":" ","MAREA":" ","LANE":"３１３巷","ALLEY":"５６弄","HOUSE_NO":"２２號","E_COORD97":167178.18758200001,"N_COORD97":2545336.83335,"ADDRESS":"文賢路３１３巷５６弄２２號","OBJECTID":664019},"geometry":{"x":167178.18758200109,"y":2545336.833351003}},{"attributes":{"ID":664047,"DIS_CODE":0,"TOWNNAME":"北區","LI":"賢北里","LIN":"3鄰","STREET":"大興街","SECT":" ","MAREA":" ","LANE":"３７３巷","ALLEY":" ","HOUSE_NO":"１１號","E_COORD97":166440.723062,"N_COORD97":2545548.4999000002,"ADDRESS":"大興街３７３巷１１號","OBJECTID":664020},"geometry":{"x":166440.72306200117,"y":2545548.4999030009}},{"attributes":{"ID":664048,"DIS_CODE":0,"TOWNNAME":"北區","LI":"賢北里","LIN":"3鄰","STREET":"大興街","SECT":" ","MAREA":" ","LANE":"３７３巷","ALLEY":" ","HOUSE_NO":"９號","E_COORD97":166439.02871499999,"N_COORD97":2545553.1565700001,"ADDRESS":"大興街３７３巷９號","OBJECTID":664021},"geometry":{"x":166439.02871500049,"y":2545553.1565670017}},{"attributes":{"ID":664049,"DIS_CODE":0,"TOWNNAME":"北區","LI":"賢北里","LIN":"3鄰","STREET":"中華北路","SECT":"一段","MAREA":" ","LANE":" ","ALLEY":" ","HOUSE_NO":"１３５號","E_COORD97":166476.09255500001,"N_COORD97":2545587.8698800001,"ADDRESS":"中華北路一段１３５號","OBJECTID":664022},"geometry":{"x":166476.09255500231,"y":2545587.8698820025}},{"attributes":{"ID":664050,"DIS_CODE":0,"TOWNNAME":"北區","LI":"永祥里","LIN":"12鄰","STREET":"實踐街","SECT":" ","MAREA":" ","LANE":"１０３巷","ALLEY":"１９弄","HOUSE_NO":"４號","E_COORD97":170102.20687299999,"N_COORD97":2546116.4012600002,"ADDRESS":"實踐街１０３巷１９弄４號","OBJECTID":664023},"geometry":{"x":170102.2068730006,"y":2546116.4012630004}},{"attributes":{"ID":664051,"DIS_CODE":0,"TOWNNAME":"北區","LI":"小康里","LIN":"7鄰","STREET":"實踐街","SECT":" ","MAREA":" ","LANE":"２３巷","ALLEY":"２０弄","HOUSE_NO":"２號","E_COORD97":169825.81652200001,"N_COORD97":2546135.2395899999,"ADDRESS":"實踐街２３巷２０弄２號","OBJECTID":664024},"geometry":{"x":169825.81652200036,"y":2546135.2395859994}},{"attributes":{"ID":664052,"DIS_CODE":0,"TOWNNAME":"新化區","LI":"\u25A0拔里","LIN":"8鄰","STREET":" ","SECT":" ","MAREA":"\u25A0拔林","LANE":" ","ALLEY":" ","HOUSE_NO":"２９５號","E_COORD97":183464.175322,"N_COORD97":2551951.7941100001,"ADDRESS":"\u25A0拔林２９５號","OBJECTID":664025},"geometry":{"x":183464.17532200087,"y":2551951.7941110022}},{"attributes":{"ID":664053,"DIS_CODE":0,"TOWNNAME":"新化區","LI":"\u25A0拔里","LIN":"8鄰","STREET":" ","SECT":" ","MAREA":"\u25A0拔林","LANE":" ","ALLEY":" ","HOUSE_NO":"３０４號之１","E_COORD97":183493.20115899999,"N_COORD97":2551922.1607900001,"ADDRESS":"\u25A0拔林３０４號之１","OBJECTID":664026},"geometry":{"x":183493.20115900133,"y":2551922.1607940029}},{"attributes":{"ID":664054,"DIS_CODE":0,"TOWNNAME":"新化區","LI":"\u25A0拔里","LIN":"8鄰","STREET":" ","SECT":" ","MAREA":"\u25A0拔林","LANE":" ","ALLEY":" ","HOUSE_NO":"３１８號","E_COORD97":183490.02314800001,"N_COORD97":2551857.9199999999,"ADDRESS":"\u25A0拔林３１８號","OBJECTID":664027},"geometry":{"x":183490.02314800024,"y":2551857.9199950006}},{"attributes":{"ID":664055,"DIS_CODE":0,"TOWNNAME":"新化區","LI":"\u25A0拔里","LIN":"8鄰","STREET":" ","SECT":" ","MAREA":"\u25A0拔林","LANE":" ","ALLEY":" ","HOUSE_NO":"３２２號之１","E_COORD97":183464.810925,"N_COORD97":2551799.60586,"ADDRESS":"\u25A0拔林３２２號之１","OBJECTID":664028},"geometry":{"x":183464.81092500035,"y":2551799.6058600023}},{"attributes":{"ID":664056,"DIS_CODE":0,"TOWNNAME":"新化區","LI":"\u25A0拔里","LIN":"8鄰","STREET":" ","SECT":" ","MAREA":"\u25A0拔林","LANE":" ","ALLEY":" ","HOUSE_NO":"３２４號之２","E_COORD97":183483.87899200001,"N_COORD97":2551808.6016899999,"ADDRESS":"\u25A0拔林３２４號之２","OBJECTID":664029},"geometry":{"x":183483.87899199966,"y":2551808.6016880013}},{"attributes":{"ID":664057,"DIS_CODE":0,"TOWNNAME":"新化區","LI":"\u25A0拔里","LIN":"8鄰","STREET":" ","SECT":" ","MAREA":"\u25A0拔林","LANE":" ","ALLEY":" ","HOUSE_NO":"３２８號之２","E_COORD97":183429.217198,"N_COORD97":2551760.4475500002,"ADDRESS":"\u25A0拔林３２８號之２","OBJECTID":664030},"geometry":{"x":183429.21719800122,"y":2551760.4475480001}},{"attributes":{"ID":664058,"DIS_CODE":0,"TOWNNAME":"北區","LI":"小康里","LIN":"5鄰","STREET":"實踐街","SECT":" ","MAREA":" ","LANE":"３９巷","ALLEY":" ","HOUSE_NO":"４１號","E_COORD97":169903.25491600001,"N_COORD97":2546225.2411400001,"ADDRESS":"實踐街３９巷４１號","OBJECTID":664031},"geometry":{"x":169903.25491600204,"y":2546225.2411370035}},{"attributes":{"ID":664059,"DIS_CODE":0,"TOWNNAME":"北區","LI":"小康里","LIN":"3鄰","STREET":"大武街","SECT":" ","MAREA":" ","LANE":" ","ALLEY":" ","HOUSE_NO":"３５４號之７","E_COORD97":169840.98766000001,"N_COORD97":2546298.9010899998,"ADDRESS":"大武街３５４號之７","OBJECTID":664032},"geometry":{"x":169840.9876600001,"y":2546298.9010899998}},{"attributes":{"ID":664060,"DIS_CODE":0,"TOWNNAME":"新化區","LI":"\u25A0拔里","LIN":"9鄰","STREET":" ","SECT":" ","MAREA":"\u25A0拔林","LANE":" ","ALLEY":" ","HOUSE_NO":"３２９號","E_COORD97":183438.11562999999,"N_COORD97":2551781.5082200002,"ADDRESS":"\u25A0拔林３２９號","OBJECTID":664033},"geometry":{"x":183438.11562999897,"y":2551781.508219}},{"attributes":{"ID":664061,"DIS_CODE":0,"TOWNNAME":"新化區","LI":"\u25A0拔里","LIN":"9鄰","STREET":" ","SECT":" ","MAREA":"\u25A0拔林","LANE":" ","ALLEY":" ","HOUSE_NO":"３３２號","E_COORD97":183401.250699,"N_COORD97":2551887.0239900001,"ADDRESS":"\u25A0拔林３３２號","OBJECTID":664034},"geometry":{"x":183401.25069900043,"y":2551887.0239950009}},{"attributes":{"ID":664062,"DIS_CODE":0,"TOWNNAME":"北區","LI":"小康里","LIN":"8鄰","STREET":"實踐街","SECT":" ","MAREA":" ","LANE":"３１巷","ALLEY":" ","HOUSE_NO":"１９號","E_COORD97":169836.54000400001,"N_COORD97":2546112.2111999998,"ADDRESS":"實踐街３１巷１９號","OBJECTID":664035},"geometry":{"x":169836.54000399914,"y":2546112.2111990042}},{"attributes":{"ID":664063,"DIS_CODE":0,"TOWNNAME":"新化區","LI":"\u25A0拔里","LIN":"9鄰","STREET":" ","SECT":" ","MAREA":"\u25A0拔林","LANE":" ","ALLEY":" ","HOUSE_NO":"３３４號","E_COORD97":183411.63220200001,"N_COORD97":2551883.1081599998,"ADDRESS":"\u25A0拔林３３４號","OBJECTID":664036},"geometry":{"x":183411.63220199943,"y":2551883.1081640013}},{"attributes":{"ID":664064,"DIS_CODE":0,"TOWNNAME":"新化區","LI":"\u25A0拔里","LIN":"9鄰","STREET":" ","SECT":" ","MAREA":"\u25A0拔林","LANE":" ","ALLEY":" ","HOUSE_NO":"３３８號","E_COORD97":183394.47094100001,"N_COORD97":2551848.6065199999,"ADDRESS":"\u25A0拔林３３８號","OBJECTID":664037},"geometry":{"x":183394.47094099969,"y":2551848.6065159999}},{"attributes":{"ID":664065,"DIS_CODE":0,"TOWNNAME":"新化區","LI":"\u25A0拔里","LIN":"9鄰","STREET":" ","SECT":" ","MAREA":"\u25A0拔林","LANE":" ","ALLEY":" ","HOUSE_NO":"３３９號","E_COORD97":183411.84406999999,"N_COORD97":2551852.4165099999,"ADDRESS":"\u25A0拔林３３９號","OBJECTID":664038},"geometry":{"x":183411.84407000057,"y":2551852.4165139999}},{"attributes":{"ID":664066,"DIS_CODE":0,"TOWNNAME":"北區","LI":"小康里","LIN":"9鄰","STREET":"實踐街","SECT":" ","MAREA":" ","LANE":"７巷","ALLEY":" ","HOUSE_NO":"３號之２","E_COORD97":169697.39175899999,"N_COORD97":2546166.8211699999,"ADDRESS":"實踐街７巷３號之２","OBJECTID":664039},"geometry":{"x":169697.39175900072,"y":2546166.8211690001}},{"attributes":{"ID":664067,"DIS_CODE":0,"TOWNNAME":"北區","LI":"小康里","LIN":"9鄰","STREET":"大武街","SECT":" ","MAREA":" ","LANE":" ","ALLEY":" ","HOUSE_NO":"３００號之７","E_COORD97":169699.086106,"N_COORD97":2546227.56947,"ADDRESS":"大武街３００號之７","OBJECTID":664040},"geometry":{"x":169699.0861060014,"y":2546227.5694700014}},{"attributes":{"ID":664068,"DIS_CODE":0,"TOWNNAME":"北區","LI":"小康里","LIN":"9鄰","STREET":"實踐街","SECT":" ","MAREA":" ","LANE":"１５巷","ALLEY":"３６弄","HOUSE_NO":"２７號","E_COORD97":169799.89975099999,"N_COORD97":2546263.34112,"ADDRESS":"實踐街１５巷３６弄２７號","OBJECTID":664041},"geometry":{"x":169799.89975100011,"y":2546263.3411170002}},{"attributes":{"ID":664069,"DIS_CODE":0,"TOWNNAME":"北區","LI":"小康里","LIN":"13鄰","STREET":"公園路","SECT":" ","MAREA":" ","LANE":"９９４巷","ALLEY":" ","HOUSE_NO":"５６號之５","E_COORD97":169804.347412,"N_COORD97":2546318.7977499999,"ADDRESS":"公園路９９４巷５６號之５","OBJECTID":664042},"geometry":{"x":169804.34741200134,"y":2546318.7977540009}},{"attributes":{"ID":664070,"DIS_CODE":0,"TOWNNAME":"新化區","LI":"\u25A0拔里","LIN":"9鄰","STREET":" ","SECT":" ","MAREA":"\u25A0拔林","LANE":" ","ALLEY":" ","HOUSE_NO":"３４９號","E_COORD97":183327.52083699999,"N_COORD97":2551858.3431799999,"ADDRESS":"\u25A0拔林３４９號","OBJECTID":664043},"geometry":{"x":183327.52083700057,"y":2551858.3431770001}},{"attributes":{"ID":664071,"DIS_CODE":0,"TOWNNAME":"新化區","LI":"\u25A0拔里","LIN":"9鄰","STREET":" ","SECT":" ","MAREA":"\u25A0拔林","LANE":" ","ALLEY":" ","HOUSE_NO":"３５０號","E_COORD97":183331.75818500001,"N_COORD97":2551848.3948499998,"ADDRESS":"\u25A0拔林３５０號","OBJECTID":664044},"geometry":{"x":183331.75818500109,"y":2551848.3948489986}},{"attributes":{"ID":664072,"DIS_CODE":0,"TOWNNAME":"北區","LI":"小康里","LIN":"10鄰","STREET":"大武街","SECT":" ","MAREA":" ","LANE":"２２１巷","ALLEY":" ","HOUSE_NO":"１０號之１","E_COORD97":169610.76827,"N_COORD97":2546155.6028399998,"ADDRESS":"大武街２２１巷１０號之１","OBJECTID":664045},"geometry":{"x":169610.76826999988,"y":2546155.6028420031}},{"attributes":{"ID":664073,"DIS_CODE":0,"TOWNNAME":"新化區","LI":"\u25A0拔里","LIN":"9鄰","STREET":" ","SECT":" ","MAREA":"\u25A0拔林","LANE":" ","ALLEY":" ","HOUSE_NO":"３５５號","E_COORD97":183263.748743,"N_COORD97":2551778.01572,"ADDRESS":"\u25A0拔林３５５號","OBJECTID":664046},"geometry":{"x":183263.74874300137,"y":2551778.0157210026}},{"attributes":{"ID":664074,"DIS_CODE":0,"TOWNNAME":"新化區","LI":"\u25A0拔里","LIN":"9鄰","STREET":" ","SECT":" ","MAREA":"\u25A0拔林","LANE":" ","ALLEY":" ","HOUSE_NO":"３５７號","E_COORD97":183321.376682,"N_COORD97":2551805.63821,"ADDRESS":"\u25A0拔林３５７號","OBJECTID":664047},"geometry":{"x":183321.3766820021,"y":2551805.6382059995}},{"attributes":{"ID":664075,"DIS_CODE":0,"TOWNNAME":"北區","LI":"小康里","LIN":"10鄰","STREET":"大武街","SECT":" ","MAREA":" ","LANE":"２２１巷","ALLEY":" ","HOUSE_NO":"１０號之２","E_COORD97":169610.76827,"N_COORD97":2546160.6828399999,"ADDRESS":"大武街２２１巷１０號之２","OBJECTID":664048},"geometry":{"x":169610.76826999988,"y":2546160.6828390025}},{"attributes":{"ID":664076,"DIS_CODE":0,"TOWNNAME":"中西區","LI":"中正里","LIN":"5鄰","STREET":"海安路","SECT":"二段","MAREA":" ","LANE":" ","ALLEY":" ","HOUSE_NO":"９８號","E_COORD97":167649.54568800001,"N_COORD97":2543960.9225499998,"ADDRESS":"海安路二段９８號","OBJECTID":664049},"geometry":{"x":167649.54568800051,"y":2543960.9225460012}},{"attributes":{"ID":664077,"DIS_CODE":0,"TOWNNAME":"中西區","LI":"光賢里","LIN":"15鄰","STREET":"武聖路","SECT":" ","MAREA":" ","LANE":" ","ALLEY":" ","HOUSE_NO":"１３３號","E_COORD97":167081.26582100001,"N_COORD97":2545156.6269,"ADDRESS":"武聖路１３３號","OBJECTID":664050},"geometry":{"x":167081.26582100056,"y":2545156.6269010045}},{"attributes":{"ID":664078,"DIS_CODE":0,"TOWNNAME":"中西區","LI":"三合里","LIN":"1鄰","STREET":"康樂街","SECT":" ","MAREA":" ","LANE":"２８２巷","ALLEY":" ","HOUSE_NO":"２號","E_COORD97":167662.899523,"N_COORD97":2544417.6989699998,"ADDRESS":"康樂街２８２巷２號","OBJECTID":664051},"geometry":{"x":167662.89952300023,"y":2544417.6989660021}},{"attributes":{"ID":664079,"DIS_CODE":0,"TOWNNAME":"北區","LI":"小康里","LIN":"10鄰","STREET":"大武街","SECT":" ","MAREA":" ","LANE":"２２１巷","ALLEY":" ","HOUSE_NO":"１２號之１","E_COORD97":169613.08619,"N_COORD97":2546170.2039000001,"ADDRESS":"大武街２２１巷１２號之１","OBJECTID":664052},"geometry":{"x":169613.08619000018,"y":2546170.2039010022}},{"attributes":{"ID":664080,"DIS_CODE":0,"TOWNNAME":"北區","LI":"小康里","LIN":"10鄰","STREET":"大武街","SECT":" ","MAREA":" ","LANE":"２２１巷","ALLEY":" ","HOUSE_NO":"１２號之２","E_COORD97":169612.45081000001,"N_COORD97":2546173.3788999999,"ADDRESS":"大武街２２１巷１２號之２","OBJECTID":664053},"geometry":{"x":169612.4508100003,"y":2546173.3788990024}},{"attributes":{"ID":664081,"DIS_CODE":0,"TOWNNAME":"北區","LI":"小康里","LIN":"10鄰","STREET":"大武街","SECT":" ","MAREA":" ","LANE":"２２１巷","ALLEY":" ","HOUSE_NO":"１２號之３","E_COORD97":169612.662603,"N_COORD97":2546176.3422300001,"ADDRESS":"大武街２２１巷１２號之３","OBJECTID":664054},"geometry":{"x":169612.66260300111,"y":2546176.3422309998}},{"attributes":{"ID":664082,"DIS_CODE":0,"TOWNNAME":"中西區","LI":"西賢里","LIN":"2鄰","STREET":"湖美街","SECT":" ","MAREA":" ","LANE":" ","ALLEY":" ","HOUSE_NO":"７５號","E_COORD97":165908.671928,"N_COORD97":2544622.8038599999,"ADDRESS":"湖美街７５號","OBJECTID":664055},"geometry":{"x":165908.67192799971,"y":2544622.8038560022}},{"attributes":{"ID":664083,"DIS_CODE":0,"TOWNNAME":"北區","LI":"小康里","LIN":"10鄰","STREET":"公園路","SECT":" ","MAREA":" ","LANE":"９９４巷","ALLEY":"２２弄","HOUSE_NO":"１５號之１","E_COORD97":169622.19330499999,"N_COORD97":2546239.4188600001,"ADDRESS":"公園路９９４巷２２弄１５號之１","OBJECTID":664056},"geometry":{"x":169622.19330500066,"y":2546239.4188630003}},{"attributes":{"ID":664084,"DIS_CODE":0,"TOWNNAME":"中西區","LI":"西賢里","LIN":"1鄰","STREET":"湖美街","SECT":" ","MAREA":" ","LANE":" ","ALLEY":" ","HOUSE_NO":"４１號","E_COORD97":165935.80353,"N_COORD97":2544553.8005599999,"ADDRESS":"湖美街４１號","OBJECTID":664057},"geometry":{"x":165935.80353000015,"y":2544553.8005600013}},{"attributes":{"ID":664085,"DIS_CODE":0,"TOWNNAME":"北區","LI":"小康里","LIN":"10鄰","STREET":"公園路","SECT":" ","MAREA":" ","LANE":"９９４巷","ALLEY":"２２弄","HOUSE_NO":"１７號之３","E_COORD97":169618.16923100001,"N_COORD97":2546225.8722000001,"ADDRESS":"公園路９９４巷２２弄１７號之３","OBJECTID":664058},"geometry":{"x":169618.16923099943,"y":2546225.8722040001}},{"attributes":{"ID":664086,"DIS_CODE":0,"TOWNNAME":"中西區","LI":"進學里","LIN":"12鄰","STREET":"永福路","SECT":"一段","MAREA":" ","LANE":" ","ALLEY":" ","HOUSE_NO":"７６號","E_COORD97":168010.94709500001,"N_COORD97":2543095.4180100001,"ADDRESS":"永福路一段７６號","OBJECTID":664059},"geometry":{"x":168010.94709500019,"y":2543095.4180140011}},{"attributes":{"ID":664087,"DIS_CODE":0,"TOWNNAME":"中西區","LI":"進學里","LIN":"12鄰","STREET":"永福路","SECT":"一段","MAREA":" ","LANE":" ","ALLEY":" ","HOUSE_NO":"７６號二樓","E_COORD97":168010.94709500001,"N_COORD97":2543095.4180100001,"ADDRESS":"永福路一段７６號二樓","OBJECTID":664060},"geometry":{"x":168010.94709500019,"y":2543095.4180140011}},{"attributes":{"ID":664088,"DIS_CODE":0,"TOWNNAME":"中西區","LI":"進學里","LIN":"12鄰","STREET":"永福路","SECT":"一段","MAREA":" ","LANE":" ","ALLEY":" ","HOUSE_NO":"７６號三樓","E_COORD97":168010.94709500001,"N_COORD97":2543095.4180100001,"ADDRESS":"永福路一段７６號三樓","OBJECTID":664061},"geometry":{"x":168010.94709500019,"y":2543095.4180140011}},{"attributes":{"ID":664089,"DIS_CODE":0,"TOWNNAME":"中西區","LI":"進學里","LIN":"12鄰","STREET":"永福路","SECT":"一段","MAREA":" ","LANE":" ","ALLEY":" ","HOUSE_NO":"７６號四樓","E_COORD97":168010.94709500001,"N_COORD97":2543095.4180100001,"ADDRESS":"永福路一段７６號四樓","OBJECTID":664062},"geometry":{"x":168010.94709500019,"y":2543095.4180140011}},{"attributes":{"ID":664090,"DIS_CODE":0,"TOWNNAME":"中西區","LI":"進學里","LIN":"12鄰","STREET":"永福路","SECT":"一段","MAREA":" ","LANE":" ","ALLEY":" ","HOUSE_NO":"７６號五樓","E_COORD97":168010.94709500001,"N_COORD97":2543095.4180100001,"ADDRESS":"永福路一段７６號五樓","OBJECTID":664063},"geometry":{"x":168010.94709500019,"y":2543095.4180140011}},{"attributes":{"ID":664091,"DIS_CODE":0,"TOWNNAME":"北區","LI":"小康里","LIN":"10鄰","STREET":"公園路","SECT":" ","MAREA":" ","LANE":"９９４巷","ALLEY":"２２弄","HOUSE_NO":"１４號之３","E_COORD97":169618.592818,"N_COORD97":2546226.5071999999,"ADDRESS":"公園路９９４巷２２弄１４號之３","OBJECTID":664064},"geometry":{"x":169618.59281800129,"y":2546226.5072030015}},{"attributes":{"ID":664092,"DIS_CODE":0,"TOWNNAME":"新化區","LI":"\u25A0拔里","LIN":"10鄰","STREET":" ","SECT":" ","MAREA":"牧場","LANE":" ","ALLEY":" ","HOUSE_NO":"７２號之２（農業資材","E_COORD97":182143.92349700001,"N_COORD97":2551481.15338,"ADDRESS":"牧場７２號之２（農業資材室）","OBJECTID":664065},"geometry":{"x":182143.92349700164,"y":2551481.1533810012}},{"attributes":{"ID":664093,"DIS_CODE":0,"TOWNNAME":"新化區","LI":"\u25A0拔里","LIN":"10鄰","STREET":" ","SECT":" ","MAREA":"牧場","LANE":" ","ALLEY":" ","HOUSE_NO":"７３號","E_COORD97":182094.346521,"N_COORD97":2551602.54415,"ADDRESS":"牧場７３號","OBJECTID":664066},"geometry":{"x":182094.34652100131,"y":2551602.5441490002}},{"attributes":{"ID":664094,"DIS_CODE":0,"TOWNNAME":"北區","LI":"小康里","LIN":"11鄰","STREET":"公園路","SECT":" ","MAREA":" ","LANE":"９９４巷","ALLEY":"２２弄","HOUSE_NO":"６０號之１","E_COORD97":169569.456756,"N_COORD97":2546139.5122500001,"ADDRESS":"公園路９９４巷２２弄６０號之１","OBJECTID":664067},"geometry":{"x":169569.45675600227,"y":2546139.5122500025}},{"attributes":{"ID":664095,"DIS_CODE":0,"TOWNNAME":"中西區","LI":"西湖里","LIN":"33鄰","STREET":"中華西路","SECT":"二段","MAREA":" ","LANE":"８５１巷","ALLEY":"１５１弄","HOUSE_NO":"３號","E_COORD97":166287.03058699999,"N_COORD97":2545037.2998799998,"ADDRESS":"中華西路二段８５１巷１５１弄３號","OBJECTID":664068},"geometry":{"x":166287.03058699984,"y":2545037.2998820003}},{"attributes":{"ID":664096,"DIS_CODE":0,"TOWNNAME":"北區","LI":"永祥里","LIN":"23鄰","STREET":"大武街","SECT":" ","MAREA":" ","LANE":"５９７巷","ALLEY":"３５弄","HOUSE_NO":"２號","E_COORD97":170189.58774799999,"N_COORD97":2546523.4753800002,"ADDRESS":"大武街５９７巷３５弄２號","OBJECTID":664069},"geometry":{"x":170189.58774800133,"y":2546523.4753760025}},{"attributes":{"ID":664097,"DIS_CODE":0,"TOWNNAME":"北區","LI":"永祥里","LIN":"20鄰","STREET":"大武街","SECT":" ","MAREA":" ","LANE":" ","ALLEY":" ","HOUSE_NO":"５８４號","E_COORD97":170308.43531500001,"N_COORD97":2546416.1722300001,"ADDRESS":"大武街５８４號","OBJECTID":664070},"geometry":{"x":170308.43531499989,"y":2546416.1722340006}},{"attributes":{"ID":664098,"DIS_CODE":0,"TOWNNAME":"新化區","LI":"\u25A0拔里","LIN":"10鄰","STREET":" ","SECT":" ","MAREA":"牧場","LANE":" ","ALLEY":" ","HOUSE_NO":"１１２號","E_COORD97":181920.191502,"N_COORD97":2550814.40374,"ADDRESS":"牧場１１２號","OBJECTID":664071},"geometry":{"x":181920.19150200114,"y":2550814.4037410039}},{"attributes":{"ID":664099,"DIS_CODE":0,"TOWNNAME":"新化區","LI":"\u25A0拔里","LIN":"10鄰","STREET":" ","SECT":" ","MAREA":"牧場","LANE":" ","ALLEY":" ","HOUSE_NO":"１１４號","E_COORD97":182051.33743499999,"N_COORD97":2550474.89059,"ADDRESS":"牧場１１４號","OBJECTID":664072},"geometry":{"x":182051.33743500058,"y":2550474.8905909993}},{"attributes":{"ID":664100,"DIS_CODE":0,"TOWNNAME":"新化區","LI":"\u25A0拔里","LIN":"10鄰","STREET":" ","SECT":" ","MAREA":"牧場","LANE":" ","ALLEY":" ","HOUSE_NO":"１１５號","E_COORD97":182052.18490399999,"N_COORD97":2550486.3205800001,"ADDRESS":"牧場１１５號","OBJECTID":664073},"geometry":{"x":182052.18490399979,"y":2550486.3205850013}},{"attributes":{"ID":664101,"DIS_CODE":0,"TOWNNAME":"北區","LI":"小康里","LIN":"6鄰","STREET":"實踐街","SECT":" ","MAREA":" ","LANE":"３９巷","ALLEY":" ","HOUSE_NO":"２３號之１","E_COORD97":169895.41856200001,"N_COORD97":2546163.8539,"ADDRESS":"實踐街３９巷２３號之１","OBJECTID":664074},"geometry":{"x":169895.41856199969,"y":2546163.8539039996}},{"attributes":{"ID":664102,"DIS_CODE":0,"TOWNNAME":"新化區","LI":"\u25A0拔里","LIN":"10鄰","STREET":" ","SECT":" ","MAREA":"牧場","LANE":" ","ALLEY":" ","HOUSE_NO":"１１３號","E_COORD97":182049.85436299999,"N_COORD97":2550460.9205999998,"ADDRESS":"牧場１１３號","OBJECTID":664075},"geometry":{"x":182049.85436300095,"y":2550460.9205990024}},{"attributes":{"ID":664103,"DIS_CODE":0,"TOWNNAME":"新化區","LI":"\u25A0拔里","LIN":"12鄰","STREET":" ","SECT":" ","MAREA":"牧場","LANE":" ","ALLEY":" ","HOUSE_NO":"１５１號","E_COORD97":182125.914766,"N_COORD97":2550450.6547699999,"ADDRESS":"牧場１５１號","OBJECTID":664076},"geometry":{"x":182125.91476599872,"y":2550450.654771002}},{"attributes":{"ID":664104,"DIS_CODE":0,"TOWNNAME":"新化區","LI":"\u25A0拔里","LIN":"12鄰","STREET":" ","SECT":" ","MAREA":"牧場","LANE":" ","ALLEY":" ","HOUSE_NO":"１５２號","E_COORD97":182161.08475800001,"N_COORD97":2550455.5230999999,"ADDRESS":"牧場１５２號","OBJECTID":664077},"geometry":{"x":182161.08475800138,"y":2550455.5231020004}},{"attributes":{"ID":664105,"DIS_CODE":0,"TOWNNAME":"新化區","LI":"\u25A0拔里","LIN":"12鄰","STREET":" ","SECT":" ","MAREA":"牧場","LANE":" ","ALLEY":" ","HOUSE_NO":"１５３號","E_COORD97":182170.61879199999,"N_COORD97":2550423.1381199998,"ADDRESS":"牧場１５３號","OBJECTID":664078},"geometry":{"x":182170.6187919993,"y":2550423.1381190009}},{"attributes":{"ID":664106,"DIS_CODE":0,"TOWNNAME":"新化區","LI":"\u25A0拔里","LIN":"12鄰","STREET":" ","SECT":" ","MAREA":"牧場","LANE":" ","ALLEY":" ","HOUSE_NO":"１５４號","E_COORD97":182190.53432899999,"N_COORD97":2550421.4447900001,"ADDRESS":"牧場１５４號","OBJECTID":664079},"geometry":{"x":182190.53432899993,"y":2550421.4447869994}},{"attributes":{"ID":664107,"DIS_CODE":0,"TOWNNAME":"新化區","LI":"\u25A0拔里","LIN":"12鄰","STREET":" ","SECT":" ","MAREA":"牧場","LANE":" ","ALLEY":" ","HOUSE_NO":"１５５號","E_COORD97":182231.84847600001,"N_COORD97":2550421.6564500001,"ADDRESS":"牧場１５５號","OBJECTID":664080},"geometry":{"x":182231.84847600106,"y":2550421.6564530004}},{"attributes":{"ID":664108,"DIS_CODE":0,"TOWNNAME":"新化區","LI":"\u25A0拔里","LIN":"12鄰","STREET":" ","SECT":" ","MAREA":"牧場","LANE":" ","ALLEY":" ","HOUSE_NO":"１５６號","E_COORD97":182196.67848500001,"N_COORD97":2550472.8797599999,"ADDRESS":"牧場１５６號","OBJECTID":664081},"geometry":{"x":182196.67848500051,"y":2550472.8797590025}},{"attributes":{"ID":664109,"DIS_CODE":0,"TOWNNAME":"新化區","LI":"\u25A0拔里","LIN":"12鄰","STREET":" ","SECT":" ","MAREA":"牧場","LANE":" ","ALLEY":" ","HOUSE_NO":"１５７號","E_COORD97":182220.19576800001,"N_COORD97":2550472.8797599999,"ADDRESS":"牧場１５７號","OBJECTID":664082},"geometry":{"x":182220.19576800056,"y":2550472.8797590025}},{"attributes":{"ID":664110,"DIS_CODE":0,"TOWNNAME":"北區","LI":"小康里","LIN":"6鄰","STREET":"實踐街","SECT":" ","MAREA":" ","LANE":"３９巷","ALLEY":" ","HOUSE_NO":"２５號之１","E_COORD97":169896.68932199999,"N_COORD97":2546173.59057,"ADDRESS":"實踐街３９巷２５號之１","OBJECTID":664083},"geometry":{"x":169896.68932200223,"y":2546173.5905649997}},{"attributes":{"ID":664111,"DIS_CODE":0,"TOWNNAME":"新化區","LI":"\u25A0拔里","LIN":"12鄰","STREET":" ","SECT":" ","MAREA":"牧場","LANE":" ","ALLEY":" ","HOUSE_NO":"１５８號","E_COORD97":182260.87431300001,"N_COORD97":2550459.54477,"ADDRESS":"牧場１５８號","OBJECTID":664084},"geometry":{"x":182260.87431299966,"y":2550459.5447660014}},{"attributes":{"ID":664112,"DIS_CODE":0,"TOWNNAME":"新化區","LI":"\u25A0拔里","LIN":"12鄰","STREET":" ","SECT":" ","MAREA":"牧場","LANE":" ","ALLEY":" ","HOUSE_NO":"１５８號","E_COORD97":182260.87431300001,"N_COORD97":2550459.54477,"ADDRESS":"牧場１５８號","OBJECTID":664085},"geometry":{"x":182260.87431299966,"y":2550459.5447660014}},{"attributes":{"ID":664113,"DIS_CODE":0,"TOWNNAME":"新化區","LI":"\u25A0拔里","LIN":"12鄰","STREET":" ","SECT":" ","MAREA":"牧場","LANE":" ","ALLEY":" ","HOUSE_NO":"１５９號","E_COORD97":182280.577983,"N_COORD97":2550459.3330999999,"ADDRESS":"牧場１５９號","OBJECTID":664086},"geometry":{"x":182280.57798300032,"y":2550459.3330990002}},{"attributes":{"ID":664114,"DIS_CODE":0,"TOWNNAME":"新化區","LI":"\u25A0拔里","LIN":"12鄰","STREET":" ","SECT":" ","MAREA":"牧場","LANE":" ","ALLEY":" ","HOUSE_NO":"１６０號","E_COORD97":182270.620214,"N_COORD97":2550442.18811,"ADDRESS":"牧場１６０號","OBJECTID":664087},"geometry":{"x":182270.62021400128,"y":2550442.188109003}},{"attributes":{"ID":664115,"DIS_CODE":0,"TOWNNAME":"北區","LI":"小康里","LIN":"17鄰","STREET":"大武街","SECT":" ","MAREA":" ","LANE":"４０１巷","ALLEY":" ","HOUSE_NO":"１８號之１","E_COORD97":169768.34252999999,"N_COORD97":2546532.7886999999,"ADDRESS":"大武街４０１巷１８號之１","OBJECTID":664088},"geometry":{"x":169768.34253000095,"y":2546532.7887000032}},{"attributes":{"ID":664116,"DIS_CODE":0,"TOWNNAME":"新化區","LI":"\u25A0拔里","LIN":"10鄰","STREET":" ","SECT":" ","MAREA":"牧場","LANE":" ","ALLEY":" ","HOUSE_NO":"１１６號","E_COORD97":182081.42260799999,"N_COORD97":2550466.3180999998,"ADDRESS":"牧場１１６號","OBJECTID":664089},"geometry":{"x":182081.42260800116,"y":2550466.3180960026}},{"attributes":{"ID":664117,"DIS_CODE":0,"TOWNNAME":"北區","LI":"小康里","LIN":"15鄰","STREET":"大武街","SECT":" ","MAREA":" ","LANE":"３８１巷","ALLEY":" ","HOUSE_NO":"３號","E_COORD97":169794.600981,"N_COORD97":2546436.9194899998,"ADDRESS":"大武街３８１巷３號","OBJECTID":664090},"geometry":{"x":169794.60098100081,"y":2546436.9194900021}},{"attributes":{"ID":664118,"DIS_CODE":0,"TOWNNAME":"南區","LI":"文南里","LIN":"14鄰","STREET":"永南街","SECT":" ","MAREA":" ","LANE":" ","ALLEY":" ","HOUSE_NO":"４３號","E_COORD97":166813.936124,"N_COORD97":2542699.8815100002,"ADDRESS":"永南街４３號","OBJECTID":664091},"geometry":{"x":166813.93612399977,"y":2542699.8815100025}},{"attributes":{"ID":664119,"DIS_CODE":0,"TOWNNAME":"南區","LI":"文南里","LIN":"14鄰","STREET":"永南街","SECT":" ","MAREA":" ","LANE":" ","ALLEY":" ","HOUSE_NO":"４１號","E_COORD97":166815.71497100001,"N_COORD97":2542694.8047400001,"ADDRESS":"永南街４１號","OBJECTID":664092},"geometry":{"x":166815.71497100033,"y":2542694.8047370017}},{"attributes":{"ID":664120,"DIS_CODE":0,"TOWNNAME":"北區","LI":"小康里","LIN":"15鄰","STREET":"大武街","SECT":" ","MAREA":" ","LANE":"３８１巷","ALLEY":" ","HOUSE_NO":"７號","E_COORD97":169793.33022100001,"N_COORD97":2546429.2994900001,"ADDRESS":"大武街３８１巷７號","OBJECTID":664093},"geometry":{"x":169793.33022100199,"y":2546429.2994940039}},{"attributes":{"ID":664121,"DIS_CODE":0,"TOWNNAME":"新化區","LI":"羊林里","LIN":"1鄰","STREET":" ","SECT":" ","MAREA":"\u25A0拔林","LANE":" ","ALLEY":" ","HOUSE_NO":"３７１號之２","E_COORD97":183568.30815900001,"N_COORD97":2551812.8348699999,"ADDRESS":"\u25A0拔林３７１號之２","OBJECTID":664094},"geometry":{"x":183568.30815900117,"y":2551812.8348690011}},{"attributes":{"ID":664122,"DIS_CODE":0,"TOWNNAME":"南區","LI":"佛壇里","LIN":"2鄰","STREET":"興南街","SECT":" ","MAREA":" ","LANE":"２５２巷","ALLEY":" ","HOUSE_NO":"８之１號","E_COORD97":165962.28506900001,"N_COORD97":2535747.44325,"ADDRESS":"興南街２５２巷８之１號","OBJECTID":664095},"geometry":{"x":165962.28506899998,"y":2535747.4432510007}},{"attributes":{"ID":664123,"DIS_CODE":0,"TOWNNAME":"北區","LI":"仁愛里","LIN":"1鄰","STREET":"勝利路","SECT":" ","MAREA":" ","LANE":"１７８巷","ALLEY":" ","HOUSE_NO":"１號之１","E_COORD97":169958.748716,"N_COORD97":2544908.8199800001,"ADDRESS":"勝利路１７８巷１號之１","OBJECTID":664096},"geometry":{"x":169958.7487160014,"y":2544908.8199819997}},{"attributes":{"ID":664124,"DIS_CODE":0,"TOWNNAME":"南區","LI":"明興里","LIN":"23鄰","STREET":"永興三街","SECT":" ","MAREA":" ","LANE":" ","ALLEY":" ","HOUSE_NO":"１０６號","E_COORD97":167114.49194199999,"N_COORD97":2540625.0738499998,"ADDRESS":"永興三街１０６號","OBJECTID":664097},"geometry":{"x":167114.49194200058,"y":2540625.073853001}},{"attributes":{"ID":664125,"DIS_CODE":0,"TOWNNAME":"南區","LI":"南都里","LIN":"7鄰","STREET":"鯤鯓路","SECT":" ","MAREA":" ","LANE":" ","ALLEY":" ","HOUSE_NO":"２之２９號","E_COORD97":166527.78802800001,"N_COORD97":2540007.1391400001,"ADDRESS":"鯤鯓路２之２９號","OBJECTID":664098},"geometry":{"x":166527.78802799992,"y":2540007.1391400006}},{"attributes":{"ID":664126,"DIS_CODE":0,"TOWNNAME":"北區","LI":"仁愛里","LIN":"1鄰","STREET":"勝利路","SECT":" ","MAREA":" ","LANE":"１７８巷","ALLEY":" ","HOUSE_NO":"１１號","E_COORD97":169993.906415,"N_COORD97":2544906.0683200001,"ADDRESS":"勝利路１７８巷１１號","OBJECTID":664099},"geometry":{"x":169993.90641499963,"y":2544906.0683169998}},{"attributes":{"ID":664127,"DIS_CODE":0,"TOWNNAME":"南區","LI":"建南里","LIN":"23鄰","STREET":"永成路","SECT":"二段","MAREA":" ","LANE":" ","ALLEY":" ","HOUSE_NO":"５９１號","E_COORD97":167479.99706600001,"N_COORD97":2539167.03889,"ADDRESS":"永成路二段５９１號","OBJECTID":664100},"geometry":{"x":167479.99706600048,"y":2539167.0388920028}},{"attributes":{"ID":664128,"DIS_CODE":0,"TOWNNAME":"北區","LI":"仁愛里","LIN":"1鄰","STREET":"勝利路","SECT":" ","MAREA":" ","LANE":"１９０巷","ALLEY":" ","HOUSE_NO":"１０號","E_COORD97":169972.515285,"N_COORD97":2544931.0449700002,"ADDRESS":"勝利路１９０巷１０號","OBJECTID":664101},"geometry":{"x":169972.51528500021,"y":2544931.044970002}},{"attributes":{"ID":664129,"DIS_CODE":0,"TOWNNAME":"南區","LI":"彰南里","LIN":"17鄰","STREET":"新義南路","SECT":" ","MAREA":" ","LANE":" ","ALLEY":" ","HOUSE_NO":"５之３號","E_COORD97":166164.61974200001,"N_COORD97":2541048.7411099998,"ADDRESS":"新義南路５之３號","OBJECTID":664102},"geometry":{"x":166164.61974199954,"y":2541048.7411120012}},{"attributes":{"ID":664130,"DIS_CODE":0,"TOWNNAME":"北區","LI":"仁愛里","LIN":"1鄰","STREET":"勝利路","SECT":" ","MAREA":" ","LANE":"１９０巷","ALLEY":" ","HOUSE_NO":"１０號之１","E_COORD97":169973.78604000001,"N_COORD97":2544927.0233,"ADDRESS":"勝利路１９０巷１０號之１","OBJECTID":664103},"geometry":{"x":169973.78604000062,"y":2544927.0232999995}},{"attributes":{"ID":664131,"DIS_CODE":0,"TOWNNAME":"北區","LI":"仁愛里","LIN":"1鄰","STREET":"勝利路","SECT":" ","MAREA":" ","LANE":"１９０巷","ALLEY":" ","HOUSE_NO":"１４號","E_COORD97":169981.41060599999,"N_COORD97":2544937.82223,"ADDRESS":"勝利路１９０巷１４號","OBJECTID":664104},"geometry":{"x":169981.41060600057,"y":2544937.8222330008}},{"attributes":{"ID":664132,"DIS_CODE":0,"TOWNNAME":"新化區","LI":"羊林里","LIN":"3鄰","STREET":" ","SECT":" ","MAREA":"\u25A0拔林","LANE":" ","ALLEY":" ","HOUSE_NO":"４２５號","E_COORD97":183756.30254500001,"N_COORD97":2551712.5732900002,"ADDRESS":"\u25A0拔林４２５號","OBJECTID":664105},"geometry":{"x":183756.3025450008,"y":2551712.5732900016}},{"attributes":{"ID":664133,"DIS_CODE":0,"TOWNNAME":"南區","LI":"興農里","LIN":"13鄰","STREET":"萬年七街","SECT":" ","MAREA":" ","LANE":" ","ALLEY":" ","HOUSE_NO":"２３８號","E_COORD97":166910.30786199999,"N_COORD97":2536754.8733799998,"ADDRESS":"萬年七街２３８號","OBJECTID":664106},"geometry":{"x":166910.30786200054,"y":2536754.8733770028}},{"attributes":{"ID":664134,"DIS_CODE":0,"TOWNNAME":"南區","LI":"鯤鯓里","LIN":"12鄰","STREET":"鯤鯓路","SECT":" ","MAREA":" ","LANE":"２３２巷","ALLEY":" ","HOUSE_NO":"２之１號","E_COORD97":164846.594343,"N_COORD97":2540399.3480799999,"ADDRESS":"鯤鯓路２３２巷２之１號","OBJECTID":664107},"geometry":{"x":164846.59434300009,"y":2540399.3480750043}},{"attributes":{"ID":664135,"DIS_CODE":0,"TOWNNAME":"新化區","LI":"羊林里","LIN":"3鄰","STREET":" ","SECT":" ","MAREA":"\u25A0拔林","LANE":" ","ALLEY":" ","HOUSE_NO":"４３０號","E_COORD97":183729.39081800001,"N_COORD97":2551616.37084,"ADDRESS":"\u25A0拔林４３０號","OBJECTID":664108},"geometry":{"x":183729.39081799984,"y":2551616.3708420023}},{"attributes":{"ID":664136,"DIS_CODE":0,"TOWNNAME":"新化區","LI":"羊林里","LIN":"3鄰","STREET":" ","SECT":" ","MAREA":"\u25A0拔林","LANE":" ","ALLEY":" ","HOUSE_NO":"４３１號之２","E_COORD97":183762.447743,"N_COORD97":2551656.3758200002,"ADDRESS":"\u25A0拔林４３１號之２","OBJECTID":664109},"geometry":{"x":183762.44774300046,"y":2551656.3758199997}},{"attributes":{"ID":664137,"DIS_CODE":0,"TOWNNAME":"新化區","LI":"羊林里","LIN":"3鄰","STREET":" ","SECT":" ","MAREA":"\u25A0拔林","LANE":" ","ALLEY":" ","HOUSE_NO":"４３２號","E_COORD97":183774.526235,"N_COORD97":2551577.3183599999,"ADDRESS":"\u25A0拔林４３２號","OBJECTID":664110},"geometry":{"x":183774.52623500023,"y":2551577.3183630016}},{"attributes":{"ID":664138,"DIS_CODE":0,"TOWNNAME":"南區","LI":"佛壇里","LIN":"2鄰","STREET":"興南街","SECT":" ","MAREA":" ","LANE":"２２２巷","ALLEY":" ","HOUSE_NO":"６號","E_COORD97":165988.53159999999,"N_COORD97":2535786.6145000001,"ADDRESS":"興南街２２２巷６號","OBJECTID":664111},"geometry":{"x":165988.53160000127,"y":2535786.6145039983}},{"attributes":{"ID":664139,"DIS_CODE":0,"TOWNNAME":"北區","LI":"仁愛里","LIN":"3鄰","STREET":"勝利路","SECT":" ","MAREA":" ","LANE":"２０６巷","ALLEY":" ","HOUSE_NO":"２９號","E_COORD97":169983.52854,"N_COORD97":2545003.2311300002,"ADDRESS":"勝利路２０６巷２９號","OBJECTID":664112},"geometry":{"x":169983.52854000218,"y":2545003.2311310004}},{"attributes":{"ID":664140,"DIS_CODE":0,"TOWNNAME":"南區","LI":"松安里","LIN":"5鄰","STREET":"灣裡路","SECT":" ","MAREA":" ","LANE":"２８２巷","ALLEY":"６９弄","HOUSE_NO":"１號","E_COORD97":166050.618884,"N_COORD97":2536231.74926,"ADDRESS":"灣裡路２８２巷６９弄１號","OBJECTID":664113},"geometry":{"x":166050.61888400093,"y":2536231.7492629997}},{"attributes":{"ID":664141,"DIS_CODE":0,"TOWNNAME":"新化區","LI":"羊林里","LIN":"3鄰","STREET":" ","SECT":" ","MAREA":"\u25A0拔林","LANE":" ","ALLEY":" ","HOUSE_NO":"４３９號之１","E_COORD97":183721.33848999999,"N_COORD97":2551699.7674599998,"ADDRESS":"\u25A0拔林４３９號之１","OBJECTID":664114},"geometry":{"x":183721.33849000186,"y":2551699.7674630042}},{"attributes":{"ID":664142,"DIS_CODE":0,"TOWNNAME":"南區","LI":"興農里","LIN":"14鄰","STREET":"萬年一街","SECT":" ","MAREA":" ","LANE":"２８６巷","ALLEY":" ","HOUSE_NO":"８８號","E_COORD97":166440.30665099999,"N_COORD97":2536944.6422100002,"ADDRESS":"萬年一街２８６巷８８號","OBJECTID":664115},"geometry":{"x":166440.30665100086,"y":2536944.6422120016}},{"attributes":{"ID":664143,"DIS_CODE":0,"TOWNNAME":"南區","LI":"興農里","LIN":"14鄰","STREET":"萬年一街","SECT":" ","MAREA":" ","LANE":"２８６巷","ALLEY":" ","HOUSE_NO":"９０號","E_COORD97":166444.756593,"N_COORD97":2536945.7005400001,"ADDRESS":"萬年一街２８６巷９０號","OBJECTID":664116},"geometry":{"x":166444.75659300108,"y":2536945.7005440015}},{"attributes":{"ID":664144,"DIS_CODE":0,"TOWNNAME":"北區","LI":"仁愛里","LIN":"4鄰","STREET":"勝利路","SECT":" ","MAREA":" ","LANE":"２０６巷","ALLEY":" ","HOUSE_NO":"４０號","E_COORD97":170011.90885199999,"N_COORD97":2545046.1994400001,"ADDRESS":"勝利路２０６巷４０號","OBJECTID":664117},"geometry":{"x":170011.90885200165,"y":2545046.1994410008}},{"attributes":{"ID":664145,"DIS_CODE":0,"TOWNNAME":"北區","LI":"仁愛里","LIN":"4鄰","STREET":"勝利路","SECT":" ","MAREA":" ","LANE":"２０６巷","ALLEY":" ","HOUSE_NO":"４２號","E_COORD97":170010.42629800001,"N_COORD97":2545051.2794400002,"ADDRESS":"勝利路２０６巷４２號","OBJECTID":664118},"geometry":{"x":170010.42629799899,"y":2545051.2794380002}},{"attributes":{"ID":664146,"DIS_CODE":0,"TOWNNAME":"麻豆區","LI":"南勢里","LIN":"2鄰","STREET":" ","SECT":" ","MAREA":"\u25A0帝\u25A0","LANE":" ","ALLEY":" ","HOUSE_NO":"１７號之２２","E_COORD97":174240.57258099999,"N_COORD97":2565870.3687399998,"ADDRESS":"\u25A0帝\u25A0１７號之２２","OBJECTID":664119},"geometry":{"x":174240.57258099969,"y":2565870.3687430006}},{"attributes":{"ID":664147,"DIS_CODE":0,"TOWNNAME":"北區","LI":"仁愛里","LIN":"4鄰","STREET":"勝利路","SECT":" ","MAREA":" ","LANE":"２０６巷","ALLEY":" ","HOUSE_NO":"６０號","E_COORD97":169985.858267,"N_COORD97":2545070.9644300002,"ADDRESS":"勝利路２０６巷６０號","OBJECTID":664120},"geometry":{"x":169985.85826699995,"y":2545070.9644270018}},{"attributes":{"ID":664148,"DIS_CODE":0,"TOWNNAME":"南區","LI":"大成里","LIN":"5鄰","STREET":"新興東路","SECT":" ","MAREA":" ","LANE":" ","ALLEY":" ","HOUSE_NO":"１６２號","E_COORD97":167986.34359800001,"N_COORD97":2542298.3243200001,"ADDRESS":"新興東路１６２號","OBJECTID":664121},"geometry":{"x":167986.34359800071,"y":2542298.3243210036}},{"attributes":{"ID":664149,"DIS_CODE":0,"TOWNNAME":"南區","LI":"大成里","LIN":"8鄰","STREET":"新興東路","SECT":" ","MAREA":" ","LANE":" ","ALLEY":" ","HOUSE_NO":"１６６號","E_COORD97":167982.953167,"N_COORD97":2542298.3243200001,"ADDRESS":"新興東路１６６號","OBJECTID":664122},"geometry":{"x":167982.95316699985,"y":2542298.3243210036}},{"attributes":{"ID":664150,"DIS_CODE":0,"TOWNNAME":"南區","LI":"大成里","LIN":"8鄰","STREET":"新興東路","SECT":" ","MAREA":" ","LANE":" ","ALLEY":" ","HOUSE_NO":"１６８號","E_COORD97":167979.986539,"N_COORD97":2542298.9593199999,"ADDRESS":"新興東路１６８號","OBJECTID":664123},"geometry":{"x":167979.98653899971,"y":2542298.9593199994}},{"attributes":{"ID":664151,"DIS_CODE":0,"TOWNNAME":"南區","LI":"大成里","LIN":"8鄰","STREET":"新興東路","SECT":" ","MAREA":" ","LANE":" ","ALLEY":" ","HOUSE_NO":"１７０號","E_COORD97":167976.38420500001,"N_COORD97":2542298.3243200001,"ADDRESS":"新興東路１７０號","OBJECTID":664124},"geometry":{"x":167976.38420500141,"y":2542298.3243210036}},{"attributes":{"ID":664152,"DIS_CODE":0,"TOWNNAME":"北區","LI":"仁愛里","LIN":"4鄰","STREET":"開元路","SECT":" ","MAREA":" ","LANE":"１４８巷","ALLEY":" ","HOUSE_NO":"３６號","E_COORD97":170017.20368599999,"N_COORD97":2545105.0427399999,"ADDRESS":"開元路１４８巷３６號","OBJECTID":664125},"geometry":{"x":170017.20368599985,"y":2545105.042741999}},{"attributes":{"ID":664153,"DIS_CODE":0,"TOWNNAME":"南區","LI":"大成里","LIN":"8鄰","STREET":"新興東路","SECT":" ","MAREA":" ","LANE":" ","ALLEY":" ","HOUSE_NO":"１７２號","E_COORD97":167974.05328299999,"N_COORD97":2542298.11265,"ADDRESS":"新興東路１７２號","OBJECTID":664126},"geometry":{"x":167974.05328300036,"y":2542298.1126540024}},{"attributes":{"ID":664154,"DIS_CODE":0,"TOWNNAME":"麻豆區","LI":"南勢里","LIN":"3鄰","STREET":" ","SECT":" ","MAREA":"\u25A0帝\u25A0","LANE":" ","ALLEY":" ","HOUSE_NO":"２３號之１１","E_COORD97":174126.45916200001,"N_COORD97":2565594.88246,"ADDRESS":"\u25A0帝\u25A0２３號之１１","OBJECTID":664127},"geometry":{"x":174126.45916199964,"y":2565594.8824610002}},{"attributes":{"ID":664155,"DIS_CODE":0,"TOWNNAME":"麻豆區","LI":"南勢里","LIN":"26鄰","STREET":" ","SECT":" ","MAREA":"南勢","LANE":" ","ALLEY":" ","HOUSE_NO":"９６號","E_COORD97":174954.02353100001,"N_COORD97":2564868.2840999998,"ADDRESS":"南勢９６號","OBJECTID":664128},"geometry":{"x":174954.02353100106,"y":2564868.2841040026}},{"attributes":{"ID":664156,"DIS_CODE":0,"TOWNNAME":"北區","LI":"仁愛里","LIN":"4鄰","STREET":"開元路","SECT":" ","MAREA":" ","LANE":"１４８巷","ALLEY":" ","HOUSE_NO":"４２號","E_COORD97":170022.286727,"N_COORD97":2545081.3360899999,"ADDRESS":"開元路１４８巷４２號","OBJECTID":664129},"geometry":{"x":170022.28672700096,"y":2545081.3360890001}},{"attributes":{"ID":664157,"DIS_CODE":0,"TOWNNAME":"北區","LI":"仁愛里","LIN":"4鄰","STREET":"開元路","SECT":" ","MAREA":" ","LANE":"１４８巷","ALLEY":" ","HOUSE_NO":"４４號之１","E_COORD97":170019.745207,"N_COORD97":2545072.0227600001,"ADDRESS":"開元路１４８巷４４號之１","OBJECTID":664130},"geometry":{"x":170019.74520699959,"y":2545072.0227600001}},{"attributes":{"ID":664158,"DIS_CODE":0,"TOWNNAME":"北區","LI":"仁愛里","LIN":"4鄰","STREET":"開元路","SECT":" ","MAREA":" ","LANE":"１４８巷","ALLEY":" ","HOUSE_NO":"４４號之２","E_COORD97":170020.16879299999,"N_COORD97":2545069.2711,"ADDRESS":"開元路１４８巷４４號之２","OBJECTID":664131},"geometry":{"x":170020.16879300214,"y":2545069.2710950039}},{"attributes":{"ID":664159,"DIS_CODE":0,"TOWNNAME":"北區","LI":"仁愛里","LIN":"4鄰","STREET":"開元路","SECT":" ","MAREA":" ","LANE":"１４８巷","ALLEY":" ","HOUSE_NO":"４４號之３","E_COORD97":170020.59237999999,"N_COORD97":2545066.5194299999,"ADDRESS":"開元路１４８巷４４號之３","OBJECTID":664132},"geometry":{"x":170020.59238000028,"y":2545066.5194300022}},{"attributes":{"ID":664160,"DIS_CODE":0,"TOWNNAME":"北區","LI":"仁愛里","LIN":"4鄰","STREET":"開元路","SECT":" ","MAREA":" ","LANE":"１４８巷","ALLEY":" ","HOUSE_NO":"４８號","E_COORD97":170022.49851999999,"N_COORD97":2545054.6661,"ADDRESS":"開元路１４８巷４８號","OBJECTID":664133},"geometry":{"x":170022.49851999991,"y":2545054.6661030017}},{"attributes":{"ID":664161,"DIS_CODE":0,"TOWNNAME":"北區","LI":"仁愛里","LIN":"5鄰","STREET":"勝利路","SECT":" ","MAREA":" ","LANE":"１９０巷","ALLEY":" ","HOUSE_NO":"１９號","E_COORD97":169983.316747,"N_COORD97":2544960.4744899999,"ADDRESS":"勝利路１９０巷１９號","OBJECTID":664134},"geometry":{"x":169983.31674700137,"y":2544960.4744870029}},{"attributes":{"ID":664162,"DIS_CODE":0,"TOWNNAME":"北區","LI":"仁愛里","LIN":"5鄰","STREET":"勝利路","SECT":" ","MAREA":" ","LANE":"１９０巷","ALLEY":" ","HOUSE_NO":"５７號","E_COORD97":170032.02922200001,"N_COORD97":2544980.79054,"ADDRESS":"勝利路１９０巷５７號","OBJECTID":664135},"geometry":{"x":170032.02922200132,"y":2544980.7905430011}},{"attributes":{"ID":664163,"DIS_CODE":0,"TOWNNAME":"北區","LI":"仁愛里","LIN":"5鄰","STREET":"勝利路","SECT":" ","MAREA":" ","LANE":"１９０巷","ALLEY":" ","HOUSE_NO":"６５號","E_COORD97":170039.44198999999,"N_COORD97":2544990.3155399999,"ADDRESS":"勝利路１９０巷６５號","OBJECTID":664136},"geometry":{"x":170039.44199000113,"y":2544990.3155379985}},{"attributes":{"ID":664164,"DIS_CODE":0,"TOWNNAME":"北區","LI":"仁愛里","LIN":"5鄰","STREET":"開元路","SECT":" ","MAREA":" ","LANE":"１４８巷","ALLEY":" ","HOUSE_NO":"１０２號之１","E_COORD97":170042.61889099999,"N_COORD97":2545017.1971900002,"ADDRESS":"開元路１４８巷１０２號之１","OBJECTID":664137},"geometry":{"x":170042.61889100075,"y":2545017.1971900016}},{"attributes":{"ID":664165,"DIS_CODE":0,"TOWNNAME":"北區","LI":"仁愛里","LIN":"5鄰","STREET":"開元路","SECT":" ","MAREA":" ","LANE":"１４８巷","ALLEY":" ","HOUSE_NO":"１０２號之２","E_COORD97":170043.04247799999,"N_COORD97":2545013.3871900002,"ADDRESS":"開元路１４８巷１０２號之２","OBJECTID":664138},"geometry":{"x":170043.04247799981,"y":2545013.3871920016}},{"attributes":{"ID":664166,"DIS_CODE":0,"TOWNNAME":"北區","LI":"仁愛里","LIN":"5鄰","STREET":"開元路","SECT":" ","MAREA":" ","LANE":"１４８巷","ALLEY":" ","HOUSE_NO":"１０２號之３","E_COORD97":170043.25427100001,"N_COORD97":2545011.2705299999,"ADDRESS":"開元路１４８巷１０２號之３","OBJECTID":664139},"geometry":{"x":170043.25427100062,"y":2545011.2705260012}},{"attributes":{"ID":664167,"DIS_CODE":0,"TOWNNAME":"北區","LI":"仁愛里","LIN":"5鄰","STREET":"開元路","SECT":" ","MAREA":" ","LANE":"１４８巷","ALLEY":" ","HOUSE_NO":"１０２號之４","E_COORD97":170042.40709699999,"N_COORD97":2545008.5188600002,"ADDRESS":"開元路１４８巷１０２號之４","OBJECTID":664140},"geometry":{"x":170042.40709700063,"y":2545008.5188609995}},{"attributes":{"ID":664168,"DIS_CODE":0,"TOWNNAME":"北區","LI":"仁愛里","LIN":"5鄰","STREET":"開元路","SECT":" ","MAREA":" ","LANE":"１４８巷","ALLEY":" ","HOUSE_NO":"１０４號之１","E_COORD97":170043.46606400001,"N_COORD97":2545005.9788600001,"ADDRESS":"開元路１４８巷１０４號之１","OBJECTID":664141},"geometry":{"x":170043.46606399957,"y":2545005.9788630046}},{"attributes":{"ID":664169,"DIS_CODE":0,"TOWNNAME":"北區","LI":"仁愛里","LIN":"5鄰","STREET":"開元路","SECT":" ","MAREA":" ","LANE":"１４８巷","ALLEY":" ","HOUSE_NO":"１０４號之２","E_COORD97":170042.40709699999,"N_COORD97":2545003.6505300002,"ADDRESS":"開元路１４８巷１０４號之２","OBJECTID":664142},"geometry":{"x":170042.40709700063,"y":2545003.650530003}},{"attributes":{"ID":664170,"DIS_CODE":0,"TOWNNAME":"北區","LI":"仁愛里","LIN":"5鄰","STREET":"開元路","SECT":" ","MAREA":" ","LANE":"１４８巷","ALLEY":" ","HOUSE_NO":"１０４號之３","E_COORD97":170043.67785800001,"N_COORD97":2545000.8988600001,"ADDRESS":"開元路１４８巷１０４號之３","OBJECTID":664143},"geometry":{"x":170043.67785799969,"y":2545000.8988650013}},{"attributes":{"ID":664171,"DIS_CODE":0,"TOWNNAME":"北區","LI":"仁愛里","LIN":"5鄰","STREET":"開元路","SECT":" ","MAREA":" ","LANE":"１４８巷","ALLEY":" ","HOUSE_NO":"１０４號之４","E_COORD97":170043.46606400001,"N_COORD97":2544997.9355299999,"ADDRESS":"開元路１４８巷１０４號之４","OBJECTID":664144},"geometry":{"x":170043.46606399957,"y":2544997.9355340023}},{"attributes":{"ID":664172,"DIS_CODE":0,"TOWNNAME":"安南區","LI":"頂安里","LIN":"17鄰","STREET":"北安路","SECT":"三段","MAREA":" ","LANE":" ","ALLEY":" ","HOUSE_NO":"１３２號","E_COORD97":168356.32417199999,"N_COORD97":2549133.34699,"ADDRESS":"北安路三段１３２號","OBJECTID":664145},"geometry":{"x":168356.3241720004,"y":2549133.3469900005}},{"attributes":{"ID":664173,"DIS_CODE":0,"TOWNNAME":"北區","LI":"仁愛里","LIN":"6鄰","STREET":"開元路","SECT":" ","MAREA":" ","LANE":"１４８巷","ALLEY":" ","HOUSE_NO":"１２２號","E_COORD97":170057.02084000001,"N_COORD97":2545048.3121699998,"ADDRESS":"開元路１４８巷１２２號","OBJECTID":664146},"geometry":{"x":170057.02084000129,"y":2545048.3121729996}},{"attributes":{"ID":664174,"DIS_CODE":0,"TOWNNAME":"北區","LI":"仁愛里","LIN":"7鄰","STREET":"開元路","SECT":" ","MAREA":" ","LANE":"１４８巷","ALLEY":" ","HOUSE_NO":"１７０號","E_COORD97":170078.62376399999,"N_COORD97":2545017.6205199999,"ADDRESS":"開元路１４８巷１７０號","OBJECTID":664147},"geometry":{"x":170078.62376400083,"y":2545017.6205230001}},{"attributes":{"ID":664175,"DIS_CODE":0,"TOWNNAME":"北區","LI":"仁愛里","LIN":"7鄰","STREET":"開元路","SECT":" ","MAREA":" ","LANE":"１４８巷","ALLEY":" ","HOUSE_NO":"１６８號","E_COORD97":170077.564797,"N_COORD97":2545020.5838500001,"ADDRESS":"開元路１４８巷１６８號","OBJECTID":664148},"geometry":{"x":170077.56479700003,"y":2545020.5838550013}},{"attributes":{"ID":664176,"DIS_CODE":0,"TOWNNAME":"北區","LI":"仁愛里","LIN":"7鄰","STREET":"開元路","SECT":" ","MAREA":" ","LANE":"１４８巷","ALLEY":" ","HOUSE_NO":"１７４號","E_COORD97":170082.01245800001,"N_COORD97":2545004.7088600001,"ADDRESS":"開元路１４８巷１７４號","OBJECTID":664149},"geometry":{"x":170082.01245800033,"y":2545004.7088629995}},{"attributes":{"ID":664177,"DIS_CODE":0,"TOWNNAME":"北區","LI":"仁愛里","LIN":"9鄰","STREET":"長榮路","SECT":"四段","MAREA":" ","LANE":" ","ALLEY":" ","HOUSE_NO":"１２號","E_COORD97":170315.620547,"N_COORD97":2544828.1789600002,"ADDRESS":"長榮路四段１２號","OBJECTID":664150},"geometry":{"x":170315.62054700125,"y":2544828.1789590027}},{"attributes":{"ID":664178,"DIS_CODE":0,"TOWNNAME":"北區","LI":"仁愛里","LIN":"9鄰","STREET":"長榮路","SECT":"四段","MAREA":" ","LANE":" ","ALLEY":" ","HOUSE_NO":"１４號","E_COORD97":170315.408754,"N_COORD97":2544833.0472900001,"ADDRESS":"長榮路四段１４號","OBJECTID":664151},"geometry":{"x":170315.40875399951,"y":2544833.0472890008}},{"attributes":{"ID":664179,"DIS_CODE":0,"TOWNNAME":"北區","LI":"仁愛里","LIN":"9鄰","STREET":"長榮路","SECT":"四段","MAREA":" ","LANE":" ","ALLEY":" ","HOUSE_NO":"１６號","E_COORD97":170315.408754,"N_COORD97":2544837.70395,"ADDRESS":"長榮路四段１６號","OBJECTID":664152},"geometry":{"x":170315.40875399951,"y":2544837.7039530016}},{"attributes":{"ID":664180,"DIS_CODE":0,"TOWNNAME":"北區","LI":"仁愛里","LIN":"9鄰","STREET":"長榮路","SECT":"四段","MAREA":" ","LANE":" ","ALLEY":" ","HOUSE_NO":"１８號","E_COORD97":170315.408754,"N_COORD97":2544841.30229,"ADDRESS":"長榮路四段１８號","OBJECTID":664153},"geometry":{"x":170315.40875399951,"y":2544841.3022850044}},{"attributes":{"ID":664181,"DIS_CODE":0,"TOWNNAME":"北區","LI":"仁愛里","LIN":"9鄰","STREET":"長榮路","SECT":"四段","MAREA":" ","LANE":" ","ALLEY":" ","HOUSE_NO":"２０號","E_COORD97":170317.31489400001,"N_COORD97":2544845.9589499999,"ADDRESS":"長榮路四段２０號","OBJECTID":664154},"geometry":{"x":170317.314894001,"y":2544845.9589489996}},{"attributes":{"ID":664182,"DIS_CODE":0,"TOWNNAME":"北區","LI":"仁愛里","LIN":"9鄰","STREET":"長榮路","SECT":"四段","MAREA":" ","LANE":" ","ALLEY":" ","HOUSE_NO":"５０號","E_COORD97":170317.52668700001,"N_COORD97":2544920.46557,"ADDRESS":"長榮路四段５０號","OBJECTID":664155},"geometry":{"x":170317.52668699995,"y":2544920.4655750021}},{"attributes":{"ID":664183,"DIS_CODE":0,"TOWNNAME":"北區","LI":"仁愛里","LIN":"9鄰","STREET":"長榮路","SECT":"四段","MAREA":" ","LANE":" ","ALLEY":" ","HOUSE_NO":"４８號","E_COORD97":170317.33063700001,"N_COORD97":2544915.3816499999,"ADDRESS":"長榮路四段４８號","OBJECTID":664156},"geometry":{"x":170317.33063700143,"y":2544915.3816450015}},{"attributes":{"ID":664184,"DIS_CODE":0,"TOWNNAME":"北區","LI":"仁愛里","LIN":"9鄰","STREET":"長榮路","SECT":"四段","MAREA":" ","LANE":" ","ALLEY":" ","HOUSE_NO":"５４號","E_COORD97":170318.81318999999,"N_COORD97":2544934.43163,"ADDRESS":"長榮路四段５４號","OBJECTID":664157},"geometry":{"x":170318.81319000199,"y":2544934.4316350017}},{"attributes":{"ID":664185,"DIS_CODE":0,"TOWNNAME":"北區","LI":"仁愛里","LIN":"9鄰","STREET":"長榮路","SECT":"四段","MAREA":" ","LANE":"５８巷","ALLEY":" ","HOUSE_NO":"１１號","E_COORD97":170371.54973999999,"N_COORD97":2544997.2966,"ADDRESS":"長榮路四段５８巷１１號","OBJECTID":664158},"geometry":{"x":170371.5497399997,"y":2544997.2966010012}},{"attributes":{"ID":664186,"DIS_CODE":0,"TOWNNAME":"北區","LI":"仁愛里","LIN":"9鄰","STREET":"長榮路","SECT":"四段","MAREA":" ","LANE":"５８巷","ALLEY":" ","HOUSE_NO":"１３號","E_COORD97":170375.15022700001,"N_COORD97":2544998.3549299999,"ADDRESS":"長榮路四段５８巷１３號","OBJECTID":664159},"geometry":{"x":170375.15022699907,"y":2544998.354933003}},{"attributes":{"ID":664187,"DIS_CODE":0,"TOWNNAME":"北區","LI":"仁愛里","LIN":"9鄰","STREET":"長榮路","SECT":"四段","MAREA":" ","LANE":"５８巷","ALLEY":" ","HOUSE_NO":"１５號","E_COORD97":170378.538921,"N_COORD97":2544999.6249299999,"ADDRESS":"長榮路四段５８巷１５號","OBJECTID":664160},"geometry":{"x":170378.53892100044,"y":2544999.6249330025}},{"attributes":{"ID":664188,"DIS_CODE":0,"TOWNNAME":"北區","LI":"仁愛里","LIN":"9鄰","STREET":"長榮路","SECT":"四段","MAREA":" ","LANE":"５８巷","ALLEY":" ","HOUSE_NO":"１８號之１","E_COORD97":170376.287174,"N_COORD97":2544973.87635,"ADDRESS":"長榮路四段５８巷１８號之１","OBJECTID":664161},"geometry":{"x":170376.28717400227,"y":2544973.8763470016}},{"attributes":{"ID":664189,"DIS_CODE":0,"TOWNNAME":"北區","LI":"仁愛里","LIN":"9鄰","STREET":"長榮路","SECT":"四段","MAREA":" ","LANE":"５８巷","ALLEY":" ","HOUSE_NO":"２２號之４","E_COORD97":170371.76152999999,"N_COORD97":2544928.5049700001,"ADDRESS":"長榮路四段５８巷２２號之４","OBJECTID":664162},"geometry":{"x":170371.76153000072,"y":2544928.5049699973}},{"attributes":{"ID":664190,"DIS_CODE":0,"TOWNNAME":"北區","LI":"仁愛里","LIN":"9鄰","STREET":"長榮路","SECT":"四段","MAREA":" ","LANE":"５８巷","ALLEY":" ","HOUSE_NO":"２２號之５","E_COORD97":170370.91436,"N_COORD97":2544934.21997,"ADDRESS":"長榮路四段５８巷２２號之５","OBJECTID":664163},"geometry":{"x":170370.91435999982,"y":2544934.2199680004}},{"attributes":{"ID":664191,"DIS_CODE":0,"TOWNNAME":"北區","LI":"仁愛里","LIN":"9鄰","STREET":"長榮路","SECT":"四段","MAREA":" ","LANE":"５８巷","ALLEY":" ","HOUSE_NO":"２２號之６","E_COORD97":170371.12615299999,"N_COORD97":2544939.0882999999,"ADDRESS":"長榮路四段５８巷２２號之６","OBJECTID":664164},"geometry":{"x":170371.12615300063,"y":2544939.0882990025}},{"attributes":{"ID":664192,"DIS_CODE":0,"TOWNNAME":"北區","LI":"仁愛里","LIN":"9鄰","STREET":"長榮路","SECT":"四段","MAREA":" ","LANE":"５８巷","ALLEY":" ","HOUSE_NO":"２２號之７","E_COORD97":170372.18512000001,"N_COORD97":2544945.8616300002,"ADDRESS":"長榮路四段５８巷２２號之７","OBJECTID":664165},"geometry":{"x":170372.18511999957,"y":2544945.8616280016}},{"attributes":{"ID":664193,"DIS_CODE":0,"TOWNNAME":"北區","LI":"仁愛里","LIN":"9鄰","STREET":"長榮路","SECT":"四段","MAREA":" ","LANE":"５８巷","ALLEY":" ","HOUSE_NO":"２２號之９","E_COORD97":170375.785607,"N_COORD97":2544959.4082900002,"ADDRESS":"長榮路四段５８巷２２號之９","OBJECTID":664166},"geometry":{"x":170375.78560700174,"y":2544959.4082880002}},{"attributes":{"ID":664194,"DIS_CODE":0,"TOWNNAME":"北區","LI":"仁愛里","LIN":"9鄰","STREET":"長榮路","SECT":"四段","MAREA":" ","LANE":"５８巷","ALLEY":" ","HOUSE_NO":"２４號之２","E_COORD97":170391.03473000001,"N_COORD97":2544930.62164,"ADDRESS":"長榮路四段５８巷２４號之２","OBJECTID":664167},"geometry":{"x":170391.03473000228,"y":2544930.6216370035}},{"attributes":{"ID":664195,"DIS_CODE":0,"TOWNNAME":"北區","LI":"仁愛里","LIN":"9鄰","STREET":"長榮路","SECT":"四段","MAREA":" ","LANE":"５８巷","ALLEY":" ","HOUSE_NO":"２４號之４","E_COORD97":170392.093697,"N_COORD97":2544940.7816300001,"ADDRESS":"長榮路四段５８巷２４號之４","OBJECTID":664168},"geometry":{"x":170392.09369700029,"y":2544940.7816310022}},{"attributes":{"ID":664196,"DIS_CODE":0,"TOWNNAME":"安南區","LI":"顯宮里","LIN":"3鄰","STREET":"科技五路","SECT":" ","MAREA":" ","LANE":" ","ALLEY":" ","HOUSE_NO":"８７號","E_COORD97":161456.89777499999,"N_COORD97":2548712.7720699999,"ADDRESS":"科技五路８７號","OBJECTID":664169},"geometry":{"x":161456.89777499996,"y":2548712.7720650025}},{"attributes":{"ID":664197,"DIS_CODE":0,"TOWNNAME":"安南區","LI":"顯宮里","LIN":"3鄰","STREET":"工業六路","SECT":" ","MAREA":" ","LANE":" ","ALLEY":" ","HOUSE_NO":"３８號","E_COORD97":161545.677643,"N_COORD97":2548987.88503,"ADDRESS":"工業六路３８號","OBJECTID":664170},"geometry":{"x":161545.67764300108,"y":2548987.8850280046}},{"attributes":{"ID":664198,"DIS_CODE":0,"TOWNNAME":"北區","LI":"仁愛里","LIN":"10鄰","STREET":"東豐路","SECT":" ","MAREA":" ","LANE":"２２７巷","ALLEY":"２４弄","HOUSE_NO":"１１號之１１","E_COORD97":170195.33371899999,"N_COORD97":2545010.6394600002,"ADDRESS":"東豐路２２７巷２４弄１１號之１１","OBJECTID":664171},"geometry":{"x":170195.33371900208,"y":2545010.639460003}},{"attributes":{"ID":664199,"DIS_CODE":0,"TOWNNAME":"北區","LI":"仁愛里","LIN":"10鄰","STREET":"東豐路","SECT":" ","MAREA":" ","LANE":"２２７巷","ALLEY":"２４弄","HOUSE_NO":"１１號之１４","E_COORD97":170191.097851,"N_COORD97":2545028.8427800001,"ADDRESS":"東豐路２２７巷２４弄１１號之１４","OBJECTID":664172},"geometry":{"x":170191.09785100073,"y":2545028.8427840024}},{"attributes":{"ID":664200,"DIS_CODE":0,"TOWNNAME":"新化區","LI":"羊林里","LIN":"3鄰","STREET":" ","SECT":" ","MAREA":"\u25A0拔林","LANE":" ","ALLEY":" ","HOUSE_NO":"４４２號","E_COORD97":183664.125275,"N_COORD97":2551784.7890499998,"ADDRESS":"\u25A0拔林４４２號","OBJECTID":664173},"geometry":{"x":183664.12527500093,"y":2551784.7890499998}},{"attributes":{"ID":664201,"DIS_CODE":0,"TOWNNAME":"北區","LI":"仁愛里","LIN":"10鄰","STREET":"東豐路","SECT":" ","MAREA":" ","LANE":"２２７巷","ALLEY":"２４弄","HOUSE_NO":"１３號","E_COORD97":170214.18332899999,"N_COORD97":2544979.5244800001,"ADDRESS":"東豐路２２７巷２４弄１３號","OBJECTID":664174},"geometry":{"x":170214.18332900014,"y":2544979.5244769994}},{"attributes":{"ID":664202,"DIS_CODE":0,"TOWNNAME":"北區","LI":"仁愛里","LIN":"10鄰","STREET":"東豐路","SECT":" ","MAREA":" ","LANE":"２２７巷","ALLEY":"２４弄","HOUSE_NO":"１９號","E_COORD97":170260.14249100001,"N_COORD97":2544977.6194799999,"ADDRESS":"東豐路２２７巷２４弄１９號","OBJECTID":664175},"geometry":{"x":170260.14249099977,"y":2544977.6194779985}},{"attributes":{"ID":664203,"DIS_CODE":0,"TOWNNAME":"北區","LI":"仁愛里","LIN":"10鄰","STREET":"東豐路","SECT":" ","MAREA":" ","LANE":"２２７巷","ALLEY":"２４弄","HOUSE_NO":"２１號","E_COORD97":170262.684011,"N_COORD97":2544976.56115,"ADDRESS":"東豐路２２７巷２４弄２１號","OBJECTID":664176},"geometry":{"x":170262.68401100114,"y":2544976.561145002}},{"attributes":{"ID":664204,"DIS_CODE":0,"TOWNNAME":"安南區","LI":"顯宮里","LIN":"3鄰","STREET":"科技公園大道","SECT":" ","MAREA":" ","LANE":" ","ALLEY":" ","HOUSE_NO":"７號","E_COORD97":162596.38457900001,"N_COORD97":2549381.3231799998,"ADDRESS":"科技公園大道７號","OBJECTID":664177},"geometry":{"x":162596.38457900006,"y":2549381.3231750019}},{"attributes":{"ID":664205,"DIS_CODE":0,"TOWNNAME":"安南區","LI":"顯宮里","LIN":"3鄰","STREET":"科技公園大道","SECT":" ","MAREA":" ","LANE":" ","ALLEY":" ","HOUSE_NO":"７號二樓","E_COORD97":162596.38457900001,"N_COORD97":2549381.3231799998,"ADDRESS":"科技公園大道７號二樓","OBJECTID":664178},"geometry":{"x":162596.38457900006,"y":2549381.3231750019}},{"attributes":{"ID":664206,"DIS_CODE":0,"TOWNNAME":"安南區","LI":"顯宮里","LIN":"3鄰","STREET":"科技公園大道","SECT":" ","MAREA":" ","LANE":" ","ALLEY":" ","HOUSE_NO":"７號三樓","E_COORD97":162596.38457900001,"N_COORD97":2549381.3231799998,"ADDRESS":"科技公園大道７號三樓","OBJECTID":664179},"geometry":{"x":162596.38457900006,"y":2549381.3231750019}},{"attributes":{"ID":664207,"DIS_CODE":0,"TOWNNAME":"北區","LI":"仁愛里","LIN":"10鄰","STREET":"東豐路","SECT":" ","MAREA":" ","LANE":"２２７巷","ALLEY":"２４弄","HOUSE_NO":"２３號","E_COORD97":170265.01373800001,"N_COORD97":2544975.9261400001,"ADDRESS":"東豐路２２７巷２４弄２３號","OBJECTID":664180},"geometry":{"x":170265.01373799983,"y":2544975.9261450022}},{"attributes":{"ID":664208,"DIS_CODE":0,"TOWNNAME":"北區","LI":"仁愛里","LIN":"10鄰","STREET":"東豐路","SECT":" ","MAREA":" ","LANE":"２２７巷","ALLEY":"２４弄","HOUSE_NO":"２５號之１","E_COORD97":170267.55525899999,"N_COORD97":2544974.8678100002,"ADDRESS":"東豐路２２７巷２４弄２５號之１","OBJECTID":664181},"geometry":{"x":170267.55525899958,"y":2544974.8678130023}},{"attributes":{"ID":664209,"DIS_CODE":0,"TOWNNAME":"新化區","LI":"羊林里","LIN":"4鄰","STREET":" ","SECT":" ","MAREA":"\u25A0拔林","LANE":" ","ALLEY":" ","HOUSE_NO":"５０８號之１","E_COORD97":183575.14095900001,"N_COORD97":2551576.8266599998,"ADDRESS":"\u25A0拔林５０８號之１","OBJECTID":664182},"geometry":{"x":183575.14095900021,"y":2551576.8266630024}},{"attributes":{"ID":664210,"DIS_CODE":0,"TOWNNAME":"新化區","LI":"羊林里","LIN":"4鄰","STREET":" ","SECT":" ","MAREA":"\u25A0拔林","LANE":" ","ALLEY":" ","HOUSE_NO":"５０９號之２","E_COORD97":183656.921783,"N_COORD97":2551611.22248,"ADDRESS":"\u25A0拔林５０９號之２","OBJECTID":664183},"geometry":{"x":183656.92178300023,"y":2551611.2224770021}},{"attributes":{"ID":664211,"DIS_CODE":0,"TOWNNAME":"新化區","LI":"羊林里","LIN":"4鄰","STREET":" ","SECT":" ","MAREA":"\u25A0拔林","LANE":" ","ALLEY":" ","HOUSE_NO":"５１０號","E_COORD97":183671.96437,"N_COORD97":2551606.6716499999,"ADDRESS":"\u25A0拔林５１０號","OBJECTID":664184},"geometry":{"x":183671.96437000018,"y":2551606.6716470011}},{"attributes":{"ID":664212,"DIS_CODE":0,"TOWNNAME":"新化區","LI":"羊林里","LIN":"4鄰","STREET":" ","SECT":" ","MAREA":"\u25A0拔林","LANE":" ","ALLEY":" ","HOUSE_NO":"５１３號","E_COORD97":183668.15075599999,"N_COORD97":2551567.8308299999,"ADDRESS":"\u25A0拔林５１３號","OBJECTID":664185},"geometry":{"x":183668.15075599961,"y":2551567.8308339976}},{"attributes":{"ID":664213,"DIS_CODE":0,"TOWNNAME":"安南區","LI":"顯宮里","LIN":"3鄰","STREET":"工業一路","SECT":" ","MAREA":" ","LANE":" ","ALLEY":" ","HOUSE_NO":"６８號","E_COORD97":162741.00059700001,"N_COORD97":2549777.1926799999,"ADDRESS":"工業一路６８號","OBJECTID":664186},"geometry":{"x":162741.00059700105,"y":2549777.1926830038}},{"attributes":{"ID":664214,"DIS_CODE":0,"TOWNNAME":"安南區","LI":"顯宮里","LIN":"3鄰","STREET":"工業一路","SECT":" ","MAREA":" ","LANE":" ","ALLEY":" ","HOUSE_NO":"７２號","E_COORD97":162696.62283899999,"N_COORD97":2549716.8865999999,"ADDRESS":"工業一路７２號","OBJECTID":664187},"geometry":{"x":162696.62283900101,"y":2549716.8866030015}},{"attributes":{"ID":664215,"DIS_CODE":0,"TOWNNAME":"新化區","LI":"羊林里","LIN":"4鄰","STREET":" ","SECT":" ","MAREA":"\u25A0拔林","LANE":" ","ALLEY":" ","HOUSE_NO":"５１５號之１","E_COORD97":183646.11654399999,"N_COORD97":2551666.0441100001,"ADDRESS":"\u25A0拔林５１５號之１","OBJECTID":664188},"geometry":{"x":183646.1165440008,"y":2551666.044114003}},{"attributes":{"ID":664216,"DIS_CODE":0,"TOWNNAME":"安南區","LI":"海南里","LIN":"15鄰","STREET":"府安路","SECT":"七段","MAREA":" ","LANE":"８４巷","ALLEY":" ","HOUSE_NO":"１４之１號","E_COORD97":165827.36270699999,"N_COORD97":2545906.1298799999,"ADDRESS":"府安路七段８４巷１４之１號","OBJECTID":664189},"geometry":{"x":165827.36270700209,"y":2545906.1298820004}},{"attributes":{"ID":664217,"DIS_CODE":0,"TOWNNAME":"新化區","LI":"羊林里","LIN":"4鄰","STREET":" ","SECT":" ","MAREA":"\u25A0拔林","LANE":" ","ALLEY":" ","HOUSE_NO":"５１５號之１１","E_COORD97":183627.048477,"N_COORD97":2551680.0141099999,"ADDRESS":"\u25A0拔林５１５號之１１","OBJECTID":664190},"geometry":{"x":183627.04847700056,"y":2551680.0141070001}},{"attributes":{"ID":664218,"DIS_CODE":0,"TOWNNAME":"南區","LI":"大成里","LIN":"8鄰","STREET":"新興東路","SECT":" ","MAREA":" ","LANE":" ","ALLEY":" ","HOUSE_NO":"１７６號","E_COORD97":167970.666944,"N_COORD97":2542299.58568,"ADDRESS":"新興東路１７６號","OBJECTID":664191},"geometry":{"x":167970.66694399901,"y":2542299.5856769998}},{"attributes":{"ID":664219,"DIS_CODE":0,"TOWNNAME":"南區","LI":"大成里","LIN":"8鄰","STREET":"新興東路","SECT":" ","MAREA":" ","LANE":" ","ALLEY":" ","HOUSE_NO":"１７８號","E_COORD97":167967.48841399999,"N_COORD97":2542298.9506799998,"ADDRESS":"新興東路１７８號","OBJECTID":664192},"geometry":{"x":167967.48841400072,"y":2542298.9506770018}},{"attributes":{"ID":664220,"DIS_CODE":0,"TOWNNAME":"南區","LI":"大成里","LIN":"8鄰","STREET":"新興東路","SECT":" ","MAREA":" ","LANE":" ","ALLEY":" ","HOUSE_NO":"１８０號","E_COORD97":167963.250374,"N_COORD97":2542300.2206799998,"ADDRESS":"新興東路１８０號","OBJECTID":664193},"geometry":{"x":167963.25037400052,"y":2542300.2206760012}},{"attributes":{"ID":664221,"DIS_CODE":0,"TOWNNAME":"南區","LI":"大成里","LIN":"8鄰","STREET":"新興東路","SECT":" ","MAREA":" ","LANE":" ","ALLEY":" ","HOUSE_NO":"１８２號","E_COORD97":167959.85994200001,"N_COORD97":2542300.4323399998,"ADDRESS":"新興東路１８２號","OBJECTID":664194},"geometry":{"x":167959.85994200036,"y":2542300.4323430024}},{"attributes":{"ID":664222,"DIS_CODE":0,"TOWNNAME":"南區","LI":"大成里","LIN":"8鄰","STREET":"新興東路","SECT":" ","MAREA":" ","LANE":" ","ALLEY":" ","HOUSE_NO":"１８６號","E_COORD97":167956.46951,"N_COORD97":2542300.6440099999,"ADDRESS":"新興東路１８６號","OBJECTID":664195},"geometry":{"x":167956.4695100002,"y":2542300.6440089997}},{"attributes":{"ID":664223,"DIS_CODE":0,"TOWNNAME":"南區","LI":"大成里","LIN":"8鄰","STREET":"新興東路","SECT":" ","MAREA":" ","LANE":" ","ALLEY":" ","HOUSE_NO":"１８８號","E_COORD97":167952.86717700001,"N_COORD97":2542301.2790100002,"ADDRESS":"新興東路１８８號","OBJECTID":664196},"geometry":{"x":167952.86717700027,"y":2542301.2790089995}},{"attributes":{"ID":664224,"DIS_CODE":0,"TOWNNAME":"南區","LI":"大成里","LIN":"8鄰","STREET":"新興東路","SECT":" ","MAREA":" ","LANE":" ","ALLEY":" ","HOUSE_NO":"１９０號","E_COORD97":167949.688647,"N_COORD97":2542302.12567,"ADDRESS":"新興東路１９０號","OBJECTID":664197},"geometry":{"x":167949.68864700012,"y":2542302.1256750003}},{"attributes":{"ID":664225,"DIS_CODE":0,"TOWNNAME":"北區","LI":"仁愛里","LIN":"10鄰","STREET":"東豐路","SECT":" ","MAREA":" ","LANE":"２２７巷","ALLEY":"２４弄","HOUSE_NO":"２５號之２","E_COORD97":170269.249606,"N_COORD97":2544973.17448,"ADDRESS":"東豐路２２７巷２４弄２５號之２","OBJECTID":664198},"geometry":{"x":170269.24960600026,"y":2544973.1744800005}},{"attributes":{"ID":664226,"DIS_CODE":0,"TOWNNAME":"南區","LI":"大成里","LIN":"8鄰","STREET":"新興東路","SECT":" ","MAREA":" ","LANE":" ","ALLEY":" ","HOUSE_NO":"１９２號","E_COORD97":167945.874411,"N_COORD97":2542302.3373400001,"ADDRESS":"新興東路１９２號","OBJECTID":664199},"geometry":{"x":167945.87441099994,"y":2542302.3373420015}},{"attributes":{"ID":664227,"DIS_CODE":0,"TOWNNAME":"南區","LI":"大成里","LIN":"8鄰","STREET":"新興東路","SECT":" ","MAREA":" ","LANE":" ","ALLEY":" ","HOUSE_NO":"１９６號","E_COORD97":167942.48397900001,"N_COORD97":2542302.7606799998,"ADDRESS":"新興東路１９６號","OBJECTID":664200},"geometry":{"x":167942.48397899978,"y":2542302.760675}}]}