{"displayFieldName":"TOWNNAME","fieldAliases":{"ID":"ID","DIS_CODE":"DIS_CODE","TOWNNAME":"TOWNNAME","LI":"LI","LIN":"LIN","STREET":"STREET","SECT":"SECT","MAREA":"MAREA","LANE":"LANE","ALLEY":"ALLEY","HOUSE_NO":"HOUSE_NO","E_COORD97":"E_COORD97","N_COORD97":"N_COORD97","ADDRESS":"ADDRESS","OBJECTID":"OBJECTID"},"geometryType":"esriGeometryPoint","spatialReference":{"wkid":102443,"latestWkid":3826},"fields":[{"name":"ID","type":"esriFieldTypeDouble","alias":"ID"},{"name":"DIS_CODE","type":"esriFieldTypeInteger","alias":"DIS_CODE"},{"name":"TOWNNAME","type":"esriFieldTypeString","alias":"TOWNNAME","length":8},{"name":"LI","type":"esriFieldTypeString","alias":"LI","length":8},{"name":"LIN","type":"esriFieldTypeString","alias":"LIN","length":12},{"name":"STREET","type":"esriFieldTypeString","alias":"STREET","length":20},{"name":"SECT","type":"esriFieldTypeString","alias":"SECT","length":8},{"name":"MAREA","type":"esriFieldTypeString","alias":"MAREA","length":12},{"name":"LANE","type":"esriFieldTypeString","alias":"LANE","length":10},{"name":"ALLEY","type":"esriFieldTypeString","alias":"ALLEY","length":10},{"name":"HOUSE_NO","type":"esriFieldTypeString","alias":"HOUSE_NO","length":20},{"name":"E_COORD97","type":"esriFieldTypeDouble","alias":"E_COORD97"},{"name":"N_COORD97","type":"esriFieldTypeDouble","alias":"N_COORD97"},{"name":"ADDRESS","type":"esriFieldTypeString","alias":"ADDRESS","length":50},{"name":"OBJECTID","type":"esriFieldTypeOID","alias":"OBJECTID"}],"features":[{"attributes":{"ID":478226,"DIS_CODE":0,"TOWNNAME":"中西區","LI":"赤嵌里","LIN":"20鄰","STREET":"忠義路","SECT":"二段","MAREA":" ","LANE":" ","ALLEY":" ","HOUSE_NO":"１８５號六樓之５","E_COORD97":168398.16,"N_COORD97":2544169.8999999999,"ADDRESS":"忠義路二段１８５號六樓之５","OBJECTID":478201},"geometry":{"x":168398.16000000015,"y":2544169.9000000004}},{"attributes":{"ID":478227,"DIS_CODE":0,"TOWNNAME":"中西區","LI":"赤嵌里","LIN":"20鄰","STREET":"忠義路","SECT":"二段","MAREA":" ","LANE":" ","ALLEY":" ","HOUSE_NO":"１８５號六樓之６","E_COORD97":168393.44,"N_COORD97":2544171.0699999998,"ADDRESS":"忠義路二段１８５號六樓之６","OBJECTID":478202},"geometry":{"x":168393.44000000041,"y":2544171.0700000022}},{"attributes":{"ID":478228,"DIS_CODE":0,"TOWNNAME":"中西區","LI":"赤嵌里","LIN":"20鄰","STREET":"忠義路","SECT":"二段","MAREA":" ","LANE":" ","ALLEY":" ","HOUSE_NO":"１８５號六樓之７","E_COORD97":168388.73000000001,"N_COORD97":2544172.5499999998,"ADDRESS":"忠義路二段１８５號六樓之７","OBJECTID":478203},"geometry":{"x":168388.73000000138,"y":2544172.5500000007}},{"attributes":{"ID":478229,"DIS_CODE":0,"TOWNNAME":"中西區","LI":"赤嵌里","LIN":"20鄰","STREET":"忠義路","SECT":"二段","MAREA":" ","LANE":" ","ALLEY":" ","HOUSE_NO":"１８５號六樓之８","E_COORD97":168384.60999999999,"N_COORD97":2544174.3100000001,"ADDRESS":"忠義路二段１８５號六樓之８","OBJECTID":478204},"geometry":{"x":168384.61000000127,"y":2544174.3100000005}},{"attributes":{"ID":478230,"DIS_CODE":0,"TOWNNAME":"中西區","LI":"赤嵌里","LIN":"20鄰","STREET":"忠義路","SECT":"二段","MAREA":" ","LANE":" ","ALLEY":" ","HOUSE_NO":"１８５號六樓之９","E_COORD97":168381.07000000001,"N_COORD97":2544174.8999999999,"ADDRESS":"忠義路二段１８５號六樓之９","OBJECTID":478205},"geometry":{"x":168381.07000000216,"y":2544174.9000000022}},{"attributes":{"ID":478231,"DIS_CODE":0,"TOWNNAME":"中西區","LI":"開山里","LIN":"20鄰","STREET":"大埔街","SECT":" ","MAREA":" ","LANE":" ","ALLEY":" ","HOUSE_NO":"２５號","E_COORD97":168962.20999999999,"N_COORD97":2543039.5600000001,"ADDRESS":"大埔街２５號","OBJECTID":478206},"geometry":{"x":168962.20999999996,"y":2543039.5600000005}},{"attributes":{"ID":478232,"DIS_CODE":0,"TOWNNAME":"永康區","LI":"中華里","LIN":"20鄰","STREET":"小東路","SECT":" ","MAREA":" ","LANE":" ","ALLEY":" ","HOUSE_NO":"４７３號之３９六樓","E_COORD97":171593.10999999999,"N_COORD97":2544367.3500000001,"ADDRESS":"小東路４７３號之３９六樓","OBJECTID":478207},"geometry":{"x":171593.1100000022,"y":2544367.3500000034}},{"attributes":{"ID":478233,"DIS_CODE":0,"TOWNNAME":"永康區","LI":"中華里","LIN":"20鄰","STREET":"小東路","SECT":" ","MAREA":" ","LANE":" ","ALLEY":" ","HOUSE_NO":"４７３號之２１六樓","E_COORD97":171593.10999999999,"N_COORD97":2544367.3500000001,"ADDRESS":"小東路４７３號之２１六樓","OBJECTID":478208},"geometry":{"x":171593.1100000022,"y":2544367.3500000034}},{"attributes":{"ID":478234,"DIS_CODE":0,"TOWNNAME":"永康區","LI":"中華里","LIN":"20鄰","STREET":"小東路","SECT":" ","MAREA":" ","LANE":" ","ALLEY":" ","HOUSE_NO":"４７３號之４２六樓","E_COORD97":171593.10999999999,"N_COORD97":2544367.3500000001,"ADDRESS":"小東路４７３號之４２六樓","OBJECTID":478209},"geometry":{"x":171593.1100000022,"y":2544367.3500000034}},{"attributes":{"ID":478235,"DIS_CODE":0,"TOWNNAME":"永康區","LI":"中華里","LIN":"20鄰","STREET":"小東路","SECT":" ","MAREA":" ","LANE":" ","ALLEY":" ","HOUSE_NO":"４７３號之３０六樓","E_COORD97":171593.10999999999,"N_COORD97":2544367.3500000001,"ADDRESS":"小東路４７３號之３０六樓","OBJECTID":478210},"geometry":{"x":171593.1100000022,"y":2544367.3500000034}},{"attributes":{"ID":478236,"DIS_CODE":0,"TOWNNAME":"永康區","LI":"中華里","LIN":"20鄰","STREET":"小東路","SECT":" ","MAREA":" ","LANE":" ","ALLEY":" ","HOUSE_NO":"４７３號之１１三樓","E_COORD97":171593.10999999999,"N_COORD97":2544367.3500000001,"ADDRESS":"小東路４７３號之１１三樓","OBJECTID":478211},"geometry":{"x":171593.1100000022,"y":2544367.3500000034}},{"attributes":{"ID":478237,"DIS_CODE":0,"TOWNNAME":"安南區","LI":"溪北里","LIN":"20鄰","STREET":"郡安路","SECT":"四段","MAREA":" ","LANE":" ","ALLEY":" ","HOUSE_NO":"７６號之１０四樓","E_COORD97":169094.82000000001,"N_COORD97":2547587.4900000002,"ADDRESS":"郡安路四段７６號之１０四樓","OBJECTID":478212},"geometry":{"x":169094.82000000123,"y":2547587.4900000002}},{"attributes":{"ID":478238,"DIS_CODE":0,"TOWNNAME":"東區","LI":"東安里","LIN":"20鄰","STREET":"衛國街","SECT":" ","MAREA":" ","LANE":" ","ALLEY":" ","HOUSE_NO":"５４號二樓之１","E_COORD97":170295.70000000001,"N_COORD97":2543067.3999999999,"ADDRESS":"衛國街５４號二樓之１","OBJECTID":478213},"geometry":{"x":170295.70000000112,"y":2543067.4000000022}},{"attributes":{"ID":478239,"DIS_CODE":0,"TOWNNAME":"東區","LI":"東安里","LIN":"20鄰","STREET":"衛國街","SECT":" ","MAREA":" ","LANE":" ","ALLEY":" ","HOUSE_NO":"５４號二樓之２","E_COORD97":170295.70000000001,"N_COORD97":2543067.3999999999,"ADDRESS":"衛國街５４號二樓之２","OBJECTID":478214},"geometry":{"x":170295.70000000112,"y":2543067.4000000022}},{"attributes":{"ID":478240,"DIS_CODE":0,"TOWNNAME":"東區","LI":"東安里","LIN":"20鄰","STREET":"衛國街","SECT":" ","MAREA":" ","LANE":" ","ALLEY":" ","HOUSE_NO":"５４號三樓","E_COORD97":170295.70000000001,"N_COORD97":2543067.3999999999,"ADDRESS":"衛國街５４號三樓","OBJECTID":478215},"geometry":{"x":170295.70000000112,"y":2543067.4000000022}},{"attributes":{"ID":478241,"DIS_CODE":0,"TOWNNAME":"東區","LI":"東安里","LIN":"20鄰","STREET":"衛國街","SECT":" ","MAREA":" ","LANE":" ","ALLEY":" ","HOUSE_NO":"５４號五樓之１","E_COORD97":170295.70000000001,"N_COORD97":2543067.3999999999,"ADDRESS":"衛國街５４號五樓之１","OBJECTID":478216},"geometry":{"x":170295.70000000112,"y":2543067.4000000022}},{"attributes":{"ID":478242,"DIS_CODE":0,"TOWNNAME":"東區","LI":"東安里","LIN":"20鄰","STREET":"衛國街","SECT":" ","MAREA":" ","LANE":" ","ALLEY":" ","HOUSE_NO":"５４號四樓","E_COORD97":170295.70000000001,"N_COORD97":2543067.3999999999,"ADDRESS":"衛國街５４號四樓","OBJECTID":478217},"geometry":{"x":170295.70000000112,"y":2543067.4000000022}},{"attributes":{"ID":478243,"DIS_CODE":0,"TOWNNAME":"東區","LI":"東安里","LIN":"20鄰","STREET":"衛國街","SECT":" ","MAREA":" ","LANE":" ","ALLEY":" ","HOUSE_NO":"５８號四樓之２","E_COORD97":170294.34,"N_COORD97":2543058.0600000001,"ADDRESS":"衛國街５８號四樓之２","OBJECTID":478218},"geometry":{"x":170294.34000000171,"y":2543058.0600000042}},{"attributes":{"ID":478244,"DIS_CODE":0,"TOWNNAME":"東區","LI":"東明里","LIN":"20鄰","STREET":"東安路","SECT":" ","MAREA":" ","LANE":" ","ALLEY":" ","HOUSE_NO":"５０號二樓之１１","E_COORD97":170696.03,"N_COORD97":2543616.6800000002,"ADDRESS":"東安路５０號二樓之１１","OBJECTID":478219},"geometry":{"x":170696.03000000026,"y":2543616.6800000016}},{"attributes":{"ID":478245,"DIS_CODE":0,"TOWNNAME":"東區","LI":"東明里","LIN":"20鄰","STREET":"東安路","SECT":" ","MAREA":" ","LANE":" ","ALLEY":" ","HOUSE_NO":"５０號二樓之１３","E_COORD97":170696.03,"N_COORD97":2543616.6800000002,"ADDRESS":"東安路５０號二樓之１３","OBJECTID":478220},"geometry":{"x":170696.03000000026,"y":2543616.6800000016}},{"attributes":{"ID":478246,"DIS_CODE":0,"TOWNNAME":"東區","LI":"東明里","LIN":"20鄰","STREET":"東安路","SECT":" ","MAREA":" ","LANE":" ","ALLEY":" ","HOUSE_NO":"５０號二樓之１４","E_COORD97":170696.03,"N_COORD97":2543616.6800000002,"ADDRESS":"東安路５０號二樓之１４","OBJECTID":478221},"geometry":{"x":170696.03000000026,"y":2543616.6800000016}},{"attributes":{"ID":478247,"DIS_CODE":0,"TOWNNAME":"東區","LI":"東明里","LIN":"20鄰","STREET":"東安路","SECT":" ","MAREA":" ","LANE":" ","ALLEY":" ","HOUSE_NO":"５０號二樓之２","E_COORD97":170696.03,"N_COORD97":2543616.6800000002,"ADDRESS":"東安路５０號二樓之２","OBJECTID":478222},"geometry":{"x":170696.03000000026,"y":2543616.6800000016}},{"attributes":{"ID":478248,"DIS_CODE":0,"TOWNNAME":"東區","LI":"東明里","LIN":"20鄰","STREET":"東安路","SECT":" ","MAREA":" ","LANE":" ","ALLEY":" ","HOUSE_NO":"５０號二樓之３","E_COORD97":170696.03,"N_COORD97":2543616.6800000002,"ADDRESS":"東安路５０號二樓之３","OBJECTID":478223},"geometry":{"x":170696.03000000026,"y":2543616.6800000016}},{"attributes":{"ID":478249,"DIS_CODE":0,"TOWNNAME":"東區","LI":"東明里","LIN":"20鄰","STREET":"東安路","SECT":" ","MAREA":" ","LANE":" ","ALLEY":" ","HOUSE_NO":"５０號二樓之４","E_COORD97":170696.03,"N_COORD97":2543616.6800000002,"ADDRESS":"東安路５０號二樓之４","OBJECTID":478224},"geometry":{"x":170696.03000000026,"y":2543616.6800000016}},{"attributes":{"ID":478250,"DIS_CODE":0,"TOWNNAME":"東區","LI":"東明里","LIN":"20鄰","STREET":"東安路","SECT":" ","MAREA":" ","LANE":" ","ALLEY":" ","HOUSE_NO":"５０號二樓之６","E_COORD97":170696.03,"N_COORD97":2543616.6800000002,"ADDRESS":"東安路５０號二樓之６","OBJECTID":478225},"geometry":{"x":170696.03000000026,"y":2543616.6800000016}},{"attributes":{"ID":478251,"DIS_CODE":0,"TOWNNAME":"東區","LI":"東明里","LIN":"20鄰","STREET":"東安路","SECT":" ","MAREA":" ","LANE":" ","ALLEY":" ","HOUSE_NO":"５０號二樓之７","E_COORD97":170696.03,"N_COORD97":2543616.6800000002,"ADDRESS":"東安路５０號二樓之７","OBJECTID":478226},"geometry":{"x":170696.03000000026,"y":2543616.6800000016}},{"attributes":{"ID":478252,"DIS_CODE":0,"TOWNNAME":"東區","LI":"東明里","LIN":"20鄰","STREET":"東安路","SECT":" ","MAREA":" ","LANE":" ","ALLEY":" ","HOUSE_NO":"５０號二樓之８","E_COORD97":170696.03,"N_COORD97":2543616.6800000002,"ADDRESS":"東安路５０號二樓之８","OBJECTID":478227},"geometry":{"x":170696.03000000026,"y":2543616.6800000016}},{"attributes":{"ID":478253,"DIS_CODE":0,"TOWNNAME":"東區","LI":"東明里","LIN":"20鄰","STREET":"東安路","SECT":" ","MAREA":" ","LANE":" ","ALLEY":" ","HOUSE_NO":"５０號二樓之９","E_COORD97":170696.03,"N_COORD97":2543616.6800000002,"ADDRESS":"東安路５０號二樓之９","OBJECTID":478228},"geometry":{"x":170696.03000000026,"y":2543616.6800000016}},{"attributes":{"ID":478254,"DIS_CODE":0,"TOWNNAME":"東區","LI":"東明里","LIN":"20鄰","STREET":"東安路","SECT":" ","MAREA":" ","LANE":" ","ALLEY":" ","HOUSE_NO":"５０號三樓之１０","E_COORD97":170696.03,"N_COORD97":2543616.6800000002,"ADDRESS":"東安路５０號三樓之１０","OBJECTID":478229},"geometry":{"x":170696.03000000026,"y":2543616.6800000016}},{"attributes":{"ID":478255,"DIS_CODE":0,"TOWNNAME":"東區","LI":"東明里","LIN":"20鄰","STREET":"東安路","SECT":" ","MAREA":" ","LANE":" ","ALLEY":" ","HOUSE_NO":"５０號三樓之１１","E_COORD97":170696.03,"N_COORD97":2543616.6800000002,"ADDRESS":"東安路５０號三樓之１１","OBJECTID":478230},"geometry":{"x":170696.03000000026,"y":2543616.6800000016}},{"attributes":{"ID":478256,"DIS_CODE":0,"TOWNNAME":"東區","LI":"東明里","LIN":"20鄰","STREET":"東安路","SECT":" ","MAREA":" ","LANE":" ","ALLEY":" ","HOUSE_NO":"５０號三樓之１２","E_COORD97":170696.03,"N_COORD97":2543616.6800000002,"ADDRESS":"東安路５０號三樓之１２","OBJECTID":478231},"geometry":{"x":170696.03000000026,"y":2543616.6800000016}},{"attributes":{"ID":478257,"DIS_CODE":0,"TOWNNAME":"東區","LI":"東明里","LIN":"20鄰","STREET":"東安路","SECT":" ","MAREA":" ","LANE":" ","ALLEY":" ","HOUSE_NO":"５０號三樓之１４","E_COORD97":170696.03,"N_COORD97":2543616.6800000002,"ADDRESS":"東安路５０號三樓之１４","OBJECTID":478232},"geometry":{"x":170696.03000000026,"y":2543616.6800000016}},{"attributes":{"ID":478258,"DIS_CODE":0,"TOWNNAME":"東區","LI":"東明里","LIN":"20鄰","STREET":"東安路","SECT":" ","MAREA":" ","LANE":" ","ALLEY":" ","HOUSE_NO":"５０號三樓之４","E_COORD97":170696.03,"N_COORD97":2543616.6800000002,"ADDRESS":"東安路５０號三樓之４","OBJECTID":478233},"geometry":{"x":170696.03000000026,"y":2543616.6800000016}},{"attributes":{"ID":478259,"DIS_CODE":0,"TOWNNAME":"東區","LI":"東明里","LIN":"20鄰","STREET":"東安路","SECT":" ","MAREA":" ","LANE":" ","ALLEY":" ","HOUSE_NO":"５０號三樓之６","E_COORD97":170696.03,"N_COORD97":2543616.6800000002,"ADDRESS":"東安路５０號三樓之６","OBJECTID":478234},"geometry":{"x":170696.03000000026,"y":2543616.6800000016}},{"attributes":{"ID":478260,"DIS_CODE":0,"TOWNNAME":"東區","LI":"東明里","LIN":"20鄰","STREET":"東安路","SECT":" ","MAREA":" ","LANE":" ","ALLEY":" ","HOUSE_NO":"５０號三樓之９","E_COORD97":170696.03,"N_COORD97":2543616.6800000002,"ADDRESS":"東安路５０號三樓之９","OBJECTID":478235},"geometry":{"x":170696.03000000026,"y":2543616.6800000016}},{"attributes":{"ID":478261,"DIS_CODE":0,"TOWNNAME":"安南區","LI":"溪北里","LIN":"20鄰","STREET":"郡安路","SECT":"四段","MAREA":" ","LANE":" ","ALLEY":" ","HOUSE_NO":"７６之１０號二樓","E_COORD97":169094.82000000001,"N_COORD97":2547587.4900000002,"ADDRESS":"郡安路四段７６之１０號二樓","OBJECTID":478236},"geometry":{"x":169094.82000000123,"y":2547587.4900000002}},{"attributes":{"ID":478262,"DIS_CODE":0,"TOWNNAME":"安南區","LI":"溪北里","LIN":"20鄰","STREET":"郡安路","SECT":"四段","MAREA":" ","LANE":" ","ALLEY":" ","HOUSE_NO":"７６之１０號八樓","E_COORD97":169094.82000000001,"N_COORD97":2547587.4900000002,"ADDRESS":"郡安路四段７６之１０號八樓","OBJECTID":478237},"geometry":{"x":169094.82000000123,"y":2547587.4900000002}},{"attributes":{"ID":478263,"DIS_CODE":0,"TOWNNAME":"安南區","LI":"溪北里","LIN":"20鄰","STREET":"郡安路","SECT":"四段","MAREA":" ","LANE":" ","ALLEY":" ","HOUSE_NO":"７６號之１１二樓","E_COORD97":169102.07000000001,"N_COORD97":2547587.54,"ADDRESS":"郡安路四段７６號之１１二樓","OBJECTID":478238},"geometry":{"x":169102.07000000123,"y":2547587.540000001}},{"attributes":{"ID":478264,"DIS_CODE":0,"TOWNNAME":"安南區","LI":"溪北里","LIN":"20鄰","STREET":"郡安路","SECT":"四段","MAREA":" ","LANE":" ","ALLEY":" ","HOUSE_NO":"７６號之１１八樓","E_COORD97":169102.07000000001,"N_COORD97":2547587.54,"ADDRESS":"郡安路四段７６號之１１八樓","OBJECTID":478239},"geometry":{"x":169102.07000000123,"y":2547587.540000001}},{"attributes":{"ID":478265,"DIS_CODE":0,"TOWNNAME":"安南區","LI":"溪北里","LIN":"20鄰","STREET":"郡安路","SECT":"四段","MAREA":" ","LANE":" ","ALLEY":" ","HOUSE_NO":"７６號之１１十樓","E_COORD97":169102.07000000001,"N_COORD97":2547587.54,"ADDRESS":"郡安路四段７６號之１１十樓","OBJECTID":478240},"geometry":{"x":169102.07000000123,"y":2547587.540000001}},{"attributes":{"ID":478266,"DIS_CODE":0,"TOWNNAME":"安南區","LI":"溪北里","LIN":"20鄰","STREET":"郡安路","SECT":"四段","MAREA":" ","LANE":" ","ALLEY":" ","HOUSE_NO":"７６號之１１六樓","E_COORD97":169102.07000000001,"N_COORD97":2547587.54,"ADDRESS":"郡安路四段７６號之１１六樓","OBJECTID":478241},"geometry":{"x":169102.07000000123,"y":2547587.540000001}},{"attributes":{"ID":478267,"DIS_CODE":0,"TOWNNAME":"安南區","LI":"溪北里","LIN":"20鄰","STREET":"郡安路","SECT":"四段","MAREA":" ","LANE":" ","ALLEY":" ","HOUSE_NO":"７６號之１１四樓","E_COORD97":169102.07000000001,"N_COORD97":2547587.54,"ADDRESS":"郡安路四段７６號之１１四樓","OBJECTID":478242},"geometry":{"x":169102.07000000123,"y":2547587.540000001}},{"attributes":{"ID":478268,"DIS_CODE":0,"TOWNNAME":"安南區","LI":"溪北里","LIN":"20鄰","STREET":"郡安路","SECT":"四段","MAREA":" ","LANE":" ","ALLEY":" ","HOUSE_NO":"７６號之１２七樓","E_COORD97":169109.23000000001,"N_COORD97":2547587.5899999999,"ADDRESS":"郡安路四段７６號之１２七樓","OBJECTID":478243},"geometry":{"x":169109.23000000138,"y":2547587.5900000017}},{"attributes":{"ID":478269,"DIS_CODE":0,"TOWNNAME":"安南區","LI":"溪北里","LIN":"20鄰","STREET":"郡安路","SECT":"四段","MAREA":" ","LANE":" ","ALLEY":" ","HOUSE_NO":"７６號之１２三樓","E_COORD97":169109.23000000001,"N_COORD97":2547587.5899999999,"ADDRESS":"郡安路四段７６號之１２三樓","OBJECTID":478244},"geometry":{"x":169109.23000000138,"y":2547587.5900000017}},{"attributes":{"ID":478270,"DIS_CODE":0,"TOWNNAME":"安南區","LI":"溪北里","LIN":"20鄰","STREET":"郡安路","SECT":"四段","MAREA":" ","LANE":" ","ALLEY":" ","HOUSE_NO":"７６號之１３三樓","E_COORD97":169114.62,"N_COORD97":2547587.6299999999,"ADDRESS":"郡安路四段７６號之１３三樓","OBJECTID":478245},"geometry":{"x":169114.62000000104,"y":2547587.629999999}},{"attributes":{"ID":478271,"DIS_CODE":0,"TOWNNAME":"安南區","LI":"溪北里","LIN":"20鄰","STREET":"郡安路","SECT":"四段","MAREA":" ","LANE":" ","ALLEY":" ","HOUSE_NO":"７６號之１３五樓","E_COORD97":169114.62,"N_COORD97":2547587.6299999999,"ADDRESS":"郡安路四段７６號之１３五樓","OBJECTID":478246},"geometry":{"x":169114.62000000104,"y":2547587.629999999}},{"attributes":{"ID":478272,"DIS_CODE":0,"TOWNNAME":"安南區","LI":"溪北里","LIN":"20鄰","STREET":"郡安路","SECT":"四段","MAREA":" ","LANE":" ","ALLEY":" ","HOUSE_NO":"７６號之１４七樓","E_COORD97":169119.01000000001,"N_COORD97":2547587.6600000001,"ADDRESS":"郡安路四段７６號之１４七樓","OBJECTID":478247},"geometry":{"x":169119.01000000071,"y":2547587.660000002}},{"attributes":{"ID":478273,"DIS_CODE":0,"TOWNNAME":"安南區","LI":"溪北里","LIN":"20鄰","STREET":"郡安路","SECT":"四段","MAREA":" ","LANE":" ","ALLEY":" ","HOUSE_NO":"７６號之１４二樓","E_COORD97":169119.01000000001,"N_COORD97":2547587.6600000001,"ADDRESS":"郡安路四段７６號之１４二樓","OBJECTID":478248},"geometry":{"x":169119.01000000071,"y":2547587.660000002}},{"attributes":{"ID":478274,"DIS_CODE":0,"TOWNNAME":"安南區","LI":"溪北里","LIN":"20鄰","STREET":"郡安路","SECT":"四段","MAREA":" ","LANE":" ","ALLEY":" ","HOUSE_NO":"７６號之１４八樓","E_COORD97":169119.01000000001,"N_COORD97":2547587.6600000001,"ADDRESS":"郡安路四段７６號之１４八樓","OBJECTID":478249},"geometry":{"x":169119.01000000071,"y":2547587.660000002}},{"attributes":{"ID":478275,"DIS_CODE":0,"TOWNNAME":"安南區","LI":"溪北里","LIN":"20鄰","STREET":"郡安路","SECT":"四段","MAREA":" ","LANE":" ","ALLEY":" ","HOUSE_NO":"７６號之１４十一樓","E_COORD97":169119.01000000001,"N_COORD97":2547587.6600000001,"ADDRESS":"郡安路四段７６號之１４十一樓","OBJECTID":478250},"geometry":{"x":169119.01000000071,"y":2547587.660000002}},{"attributes":{"ID":478276,"DIS_CODE":0,"TOWNNAME":"安南區","LI":"溪北里","LIN":"20鄰","STREET":"郡安路","SECT":"四段","MAREA":" ","LANE":" ","ALLEY":" ","HOUSE_NO":"７６號之１４三樓","E_COORD97":169119.01000000001,"N_COORD97":2547587.6600000001,"ADDRESS":"郡安路四段７６號之１４三樓","OBJECTID":478251},"geometry":{"x":169119.01000000071,"y":2547587.660000002}},{"attributes":{"ID":478277,"DIS_CODE":0,"TOWNNAME":"安南區","LI":"溪北里","LIN":"20鄰","STREET":"郡安路","SECT":"四段","MAREA":" ","LANE":" ","ALLEY":" ","HOUSE_NO":"７６號之１４五樓","E_COORD97":169119.01000000001,"N_COORD97":2547587.6600000001,"ADDRESS":"郡安路四段７６號之１４五樓","OBJECTID":478252},"geometry":{"x":169119.01000000071,"y":2547587.660000002}},{"attributes":{"ID":478278,"DIS_CODE":0,"TOWNNAME":"安南區","LI":"溪北里","LIN":"20鄰","STREET":"郡安路","SECT":"四段","MAREA":" ","LANE":" ","ALLEY":" ","HOUSE_NO":"７６號之１４四樓","E_COORD97":169119.01000000001,"N_COORD97":2547587.6600000001,"ADDRESS":"郡安路四段７６號之１４四樓","OBJECTID":478253},"geometry":{"x":169119.01000000071,"y":2547587.660000002}},{"attributes":{"ID":478279,"DIS_CODE":0,"TOWNNAME":"永康區","LI":"復國里","LIN":"20鄰","STREET":"國華街","SECT":" ","MAREA":" ","LANE":" ","ALLEY":" ","HOUSE_NO":"６３號十五樓之３","E_COORD97":172820.64999999999,"N_COORD97":2545744.3100000001,"ADDRESS":"國華街６３號十五樓之３","OBJECTID":478254},"geometry":{"x":172820.6500000013,"y":2545744.3100000005}},{"attributes":{"ID":478280,"DIS_CODE":0,"TOWNNAME":"永康區","LI":"復國里","LIN":"20鄰","STREET":"國華街","SECT":" ","MAREA":" ","LANE":" ","ALLEY":" ","HOUSE_NO":"６３號九樓之２","E_COORD97":172819.42999999999,"N_COORD97":2545744.3100000001,"ADDRESS":"國華街６３號九樓之２","OBJECTID":478255},"geometry":{"x":172819.43000000063,"y":2545744.3100000005}},{"attributes":{"ID":478281,"DIS_CODE":0,"TOWNNAME":"永康區","LI":"復國里","LIN":"20鄰","STREET":"國華街","SECT":" ","MAREA":" ","LANE":" ","ALLEY":" ","HOUSE_NO":"６３號三樓之２","E_COORD97":172819.42999999999,"N_COORD97":2545744.3100000001,"ADDRESS":"國華街６３號三樓之２","OBJECTID":478256},"geometry":{"x":172819.43000000063,"y":2545744.3100000005}},{"attributes":{"ID":478282,"DIS_CODE":0,"TOWNNAME":"東區","LI":"東安里","LIN":"20鄰","STREET":"衛國街","SECT":" ","MAREA":" ","LANE":" ","ALLEY":" ","HOUSE_NO":"５４號五樓之２","E_COORD97":170295.70000000001,"N_COORD97":2543067.3999999999,"ADDRESS":"衛國街５４號五樓之２","OBJECTID":478257},"geometry":{"x":170295.70000000112,"y":2543067.4000000022}},{"attributes":{"ID":478283,"DIS_CODE":0,"TOWNNAME":"東區","LI":"東安里","LIN":"20鄰","STREET":"衛國街","SECT":" ","MAREA":" ","LANE":" ","ALLEY":" ","HOUSE_NO":"５８號四樓之１","E_COORD97":170294.34,"N_COORD97":2543058.0600000001,"ADDRESS":"衛國街５８號四樓之１","OBJECTID":478258},"geometry":{"x":170294.34000000171,"y":2543058.0600000042}},{"attributes":{"ID":478284,"DIS_CODE":0,"TOWNNAME":"東區","LI":"東安里","LIN":"20鄰","STREET":"衛國街","SECT":" ","MAREA":" ","LANE":" ","ALLEY":" ","HOUSE_NO":"５８號五樓之１","E_COORD97":170294.34,"N_COORD97":2543058.0600000001,"ADDRESS":"衛國街５８號五樓之１","OBJECTID":478259},"geometry":{"x":170294.34000000171,"y":2543058.0600000042}},{"attributes":{"ID":478285,"DIS_CODE":0,"TOWNNAME":"東區","LI":"東明里","LIN":"20鄰","STREET":"東安路","SECT":" ","MAREA":" ","LANE":" ","ALLEY":" ","HOUSE_NO":"５０號三樓之３","E_COORD97":170696.03,"N_COORD97":2543616.6800000002,"ADDRESS":"東安路５０號三樓之３","OBJECTID":478260},"geometry":{"x":170696.03000000026,"y":2543616.6800000016}},{"attributes":{"ID":478286,"DIS_CODE":0,"TOWNNAME":"東區","LI":"東明里","LIN":"20鄰","STREET":"東安路","SECT":" ","MAREA":" ","LANE":" ","ALLEY":" ","HOUSE_NO":"５０號三樓之１","E_COORD97":170696.03,"N_COORD97":2543616.6800000002,"ADDRESS":"東安路５０號三樓之１","OBJECTID":478261},"geometry":{"x":170696.03000000026,"y":2543616.6800000016}},{"attributes":{"ID":478287,"DIS_CODE":0,"TOWNNAME":"東區","LI":"東明里","LIN":"20鄰","STREET":"東安路","SECT":" ","MAREA":" ","LANE":" ","ALLEY":" ","HOUSE_NO":"５０號二樓之１０","E_COORD97":170696.03,"N_COORD97":2543616.6800000002,"ADDRESS":"東安路５０號二樓之１０","OBJECTID":478262},"geometry":{"x":170696.03000000026,"y":2543616.6800000016}},{"attributes":{"ID":478288,"DIS_CODE":0,"TOWNNAME":"東區","LI":"東明里","LIN":"20鄰","STREET":"東安路","SECT":" ","MAREA":" ","LANE":" ","ALLEY":" ","HOUSE_NO":"５０號三樓之５","E_COORD97":170696.03,"N_COORD97":2543616.6800000002,"ADDRESS":"東安路５０號三樓之５","OBJECTID":478263},"geometry":{"x":170696.03000000026,"y":2543616.6800000016}},{"attributes":{"ID":478289,"DIS_CODE":0,"TOWNNAME":"東區","LI":"東明里","LIN":"20鄰","STREET":"東安路","SECT":" ","MAREA":" ","LANE":" ","ALLEY":" ","HOUSE_NO":"５０號三樓之７","E_COORD97":170696.03,"N_COORD97":2543616.6800000002,"ADDRESS":"東安路５０號三樓之７","OBJECTID":478264},"geometry":{"x":170696.03000000026,"y":2543616.6800000016}},{"attributes":{"ID":478290,"DIS_CODE":0,"TOWNNAME":"東區","LI":"東明里","LIN":"20鄰","STREET":"東安路","SECT":" ","MAREA":" ","LANE":" ","ALLEY":" ","HOUSE_NO":"５０號三樓之１３","E_COORD97":170696.03,"N_COORD97":2543616.6800000002,"ADDRESS":"東安路５０號三樓之１３","OBJECTID":478265},"geometry":{"x":170696.03000000026,"y":2543616.6800000016}},{"attributes":{"ID":478291,"DIS_CODE":0,"TOWNNAME":"東區","LI":"泉南里","LIN":"20鄰","STREET":"府連路","SECT":" ","MAREA":" ","LANE":" ","ALLEY":" ","HOUSE_NO":"３７０號二樓","E_COORD97":169686.39999999999,"N_COORD97":2542791.98,"ADDRESS":"府連路３７０號二樓","OBJECTID":478266},"geometry":{"x":169686.4000000013,"y":2542791.9800000023}},{"attributes":{"ID":478292,"DIS_CODE":0,"TOWNNAME":"東區","LI":"泉南里","LIN":"20鄰","STREET":"府連路","SECT":" ","MAREA":" ","LANE":" ","ALLEY":" ","HOUSE_NO":"３６４號三樓","E_COORD97":169675.48999999999,"N_COORD97":2542787.02,"ADDRESS":"府連路３６４號三樓","OBJECTID":478267},"geometry":{"x":169675.49000000115,"y":2542787.0200000014}},{"attributes":{"ID":478293,"DIS_CODE":0,"TOWNNAME":"東區","LI":"泉南里","LIN":"20鄰","STREET":"府連路","SECT":" ","MAREA":" ","LANE":" ","ALLEY":" ","HOUSE_NO":"３６４號三樓之１","E_COORD97":169675.48999999999,"N_COORD97":2542787.02,"ADDRESS":"府連路３６４號三樓之１","OBJECTID":478268},"geometry":{"x":169675.49000000115,"y":2542787.0200000014}},{"attributes":{"ID":478294,"DIS_CODE":0,"TOWNNAME":"東區","LI":"泉南里","LIN":"20鄰","STREET":"府連路","SECT":" ","MAREA":" ","LANE":" ","ALLEY":" ","HOUSE_NO":"３６４號四樓","E_COORD97":169675.48999999999,"N_COORD97":2542787.02,"ADDRESS":"府連路３６４號四樓","OBJECTID":478269},"geometry":{"x":169675.49000000115,"y":2542787.0200000014}},{"attributes":{"ID":478295,"DIS_CODE":0,"TOWNNAME":"東區","LI":"泉南里","LIN":"20鄰","STREET":"府連路","SECT":" ","MAREA":" ","LANE":" ","ALLEY":" ","HOUSE_NO":"３６４號五樓","E_COORD97":169675.48999999999,"N_COORD97":2542787.02,"ADDRESS":"府連路３６４號五樓","OBJECTID":478270},"geometry":{"x":169675.49000000115,"y":2542787.0200000014}},{"attributes":{"ID":478296,"DIS_CODE":0,"TOWNNAME":"東區","LI":"泉南里","LIN":"20鄰","STREET":"府連路","SECT":" ","MAREA":" ","LANE":" ","ALLEY":" ","HOUSE_NO":"３６４號五樓之１","E_COORD97":169675.48999999999,"N_COORD97":2542787.02,"ADDRESS":"府連路３６４號五樓之１","OBJECTID":478271},"geometry":{"x":169675.49000000115,"y":2542787.0200000014}},{"attributes":{"ID":478297,"DIS_CODE":0,"TOWNNAME":"東區","LI":"泉南里","LIN":"20鄰","STREET":"府連路","SECT":" ","MAREA":" ","LANE":" ","ALLEY":" ","HOUSE_NO":"３６４號六樓","E_COORD97":169675.48999999999,"N_COORD97":2542787.02,"ADDRESS":"府連路３６４號六樓","OBJECTID":478272},"geometry":{"x":169675.49000000115,"y":2542787.0200000014}},{"attributes":{"ID":478298,"DIS_CODE":0,"TOWNNAME":"東區","LI":"泉南里","LIN":"20鄰","STREET":"府連路","SECT":" ","MAREA":" ","LANE":" ","ALLEY":" ","HOUSE_NO":"３６４號六樓之１","E_COORD97":169675.48999999999,"N_COORD97":2542787.02,"ADDRESS":"府連路３６４號六樓之１","OBJECTID":478273},"geometry":{"x":169675.49000000115,"y":2542787.0200000014}},{"attributes":{"ID":478299,"DIS_CODE":0,"TOWNNAME":"東區","LI":"泉南里","LIN":"20鄰","STREET":"府連路","SECT":" ","MAREA":" ","LANE":" ","ALLEY":" ","HOUSE_NO":"３６４號七樓","E_COORD97":169675.48999999999,"N_COORD97":2542787.02,"ADDRESS":"府連路３６４號七樓","OBJECTID":478274},"geometry":{"x":169675.49000000115,"y":2542787.0200000014}},{"attributes":{"ID":478300,"DIS_CODE":0,"TOWNNAME":"東區","LI":"泉南里","LIN":"20鄰","STREET":"府連路","SECT":" ","MAREA":" ","LANE":" ","ALLEY":" ","HOUSE_NO":"３６４號七樓之１","E_COORD97":169675.48999999999,"N_COORD97":2542787.02,"ADDRESS":"府連路３６４號七樓之１","OBJECTID":478275},"geometry":{"x":169675.49000000115,"y":2542787.0200000014}},{"attributes":{"ID":478301,"DIS_CODE":0,"TOWNNAME":"東區","LI":"泉南里","LIN":"20鄰","STREET":"府連路","SECT":" ","MAREA":" ","LANE":" ","ALLEY":" ","HOUSE_NO":"３６８號三樓","E_COORD97":169674.07999999999,"N_COORD97":2542797.3500000001,"ADDRESS":"府連路３６８號三樓","OBJECTID":478276},"geometry":{"x":169674.08000000194,"y":2542797.3499999978}},{"attributes":{"ID":478302,"DIS_CODE":0,"TOWNNAME":"東區","LI":"泉南里","LIN":"20鄰","STREET":"府連路","SECT":" ","MAREA":" ","LANE":" ","ALLEY":" ","HOUSE_NO":"３６８號三樓之１","E_COORD97":169674.07999999999,"N_COORD97":2542797.3500000001,"ADDRESS":"府連路３６８號三樓之１","OBJECTID":478277},"geometry":{"x":169674.08000000194,"y":2542797.3499999978}},{"attributes":{"ID":478303,"DIS_CODE":0,"TOWNNAME":"東區","LI":"泉南里","LIN":"20鄰","STREET":"府連路","SECT":" ","MAREA":" ","LANE":" ","ALLEY":" ","HOUSE_NO":"３６８號四樓","E_COORD97":169674.07999999999,"N_COORD97":2542797.3500000001,"ADDRESS":"府連路３６８號四樓","OBJECTID":478278},"geometry":{"x":169674.08000000194,"y":2542797.3499999978}},{"attributes":{"ID":478304,"DIS_CODE":0,"TOWNNAME":"東區","LI":"泉南里","LIN":"20鄰","STREET":"府連路","SECT":" ","MAREA":" ","LANE":" ","ALLEY":" ","HOUSE_NO":"３６８號五樓之１","E_COORD97":169674.07999999999,"N_COORD97":2542797.3500000001,"ADDRESS":"府連路３６８號五樓之１","OBJECTID":478279},"geometry":{"x":169674.08000000194,"y":2542797.3499999978}},{"attributes":{"ID":478305,"DIS_CODE":0,"TOWNNAME":"東區","LI":"泉南里","LIN":"20鄰","STREET":"府連路","SECT":" ","MAREA":" ","LANE":" ","ALLEY":" ","HOUSE_NO":"３６８號六樓","E_COORD97":169674.07999999999,"N_COORD97":2542797.3500000001,"ADDRESS":"府連路３６８號六樓","OBJECTID":478280},"geometry":{"x":169674.08000000194,"y":2542797.3499999978}},{"attributes":{"ID":478306,"DIS_CODE":0,"TOWNNAME":"東區","LI":"泉南里","LIN":"20鄰","STREET":"府連路","SECT":" ","MAREA":" ","LANE":" ","ALLEY":" ","HOUSE_NO":"３６８號六樓之１","E_COORD97":169674.07999999999,"N_COORD97":2542797.3500000001,"ADDRESS":"府連路３６８號六樓之１","OBJECTID":478281},"geometry":{"x":169674.08000000194,"y":2542797.3499999978}},{"attributes":{"ID":478307,"DIS_CODE":0,"TOWNNAME":"中西區","LI":"開山里","LIN":"20鄰","STREET":"開山路","SECT":" ","MAREA":" ","LANE":" ","ALLEY":" ","HOUSE_NO":"２１９號","E_COORD97":168983.12,"N_COORD97":2543011.9100000001,"ADDRESS":"開山路２１９號","OBJECTID":478282},"geometry":{"x":168983.12000000011,"y":2543011.910000002}},{"attributes":{"ID":478308,"DIS_CODE":0,"TOWNNAME":"東區","LI":"泉南里","LIN":"20鄰","STREET":"府連路","SECT":" ","MAREA":" ","LANE":" ","ALLEY":" ","HOUSE_NO":"３６８號七樓","E_COORD97":169674.07999999999,"N_COORD97":2542797.3500000001,"ADDRESS":"府連路３６８號七樓","OBJECTID":478283},"geometry":{"x":169674.08000000194,"y":2542797.3499999978}},{"attributes":{"ID":478309,"DIS_CODE":0,"TOWNNAME":"永康區","LI":"復國里","LIN":"20鄰","STREET":"國華街","SECT":" ","MAREA":" ","LANE":" ","ALLEY":" ","HOUSE_NO":"６１號八樓之１","E_COORD97":172830.23000000001,"N_COORD97":2545750.4199999999,"ADDRESS":"國華街６１號八樓之１","OBJECTID":478284},"geometry":{"x":172830.23000000138,"y":2545750.4200000037}},{"attributes":{"ID":478310,"DIS_CODE":0,"TOWNNAME":"永康區","LI":"復國里","LIN":"20鄰","STREET":"國華街","SECT":" ","MAREA":" ","LANE":" ","ALLEY":" ","HOUSE_NO":"５５號十二樓之３","E_COORD97":172800.76999999999,"N_COORD97":2545761.4199999999,"ADDRESS":"國華街５５號十二樓之３","OBJECTID":478285},"geometry":{"x":172800.76999999955,"y":2545761.4200000018}},{"attributes":{"ID":478311,"DIS_CODE":0,"TOWNNAME":"永康區","LI":"勝利里","LIN":"20鄰","STREET":"勝學路","SECT":" ","MAREA":" ","LANE":" ","ALLEY":" ","HOUSE_NO":"２３７號九樓之１","E_COORD97":171181.29999999999,"N_COORD97":2545265.6699999999,"ADDRESS":"勝學路２３７號九樓之１","OBJECTID":478286},"geometry":{"x":171181.30000000075,"y":2545265.6699999999}},{"attributes":{"ID":478312,"DIS_CODE":0,"TOWNNAME":"永康區","LI":"復國里","LIN":"20鄰","STREET":"國華街","SECT":" ","MAREA":" ","LANE":" ","ALLEY":" ","HOUSE_NO":"５５號九樓之３","E_COORD97":172799.51999999999,"N_COORD97":2545761.4199999999,"ADDRESS":"國華街５５號九樓之３","OBJECTID":478287},"geometry":{"x":172799.51999999955,"y":2545761.4200000018}},{"attributes":{"ID":478313,"DIS_CODE":0,"TOWNNAME":"永康區","LI":"勝利里","LIN":"20鄰","STREET":"勝學路","SECT":" ","MAREA":" ","LANE":" ","ALLEY":" ","HOUSE_NO":"２２３號","E_COORD97":171179.98000000001,"N_COORD97":2545228,"ADDRESS":"勝學路２２３號","OBJECTID":478288},"geometry":{"x":171179.98000000045,"y":2545228.0000000037}},{"attributes":{"ID":478314,"DIS_CODE":0,"TOWNNAME":"永康區","LI":"五王里","LIN":"20鄰","STREET":"中華路","SECT":" ","MAREA":" ","LANE":" ","ALLEY":" ","HOUSE_NO":"４８４號","E_COORD97":171301.64000000001,"N_COORD97":2545757.9900000002,"ADDRESS":"中華路４８４號","OBJECTID":478289},"geometry":{"x":171301.63999999966,"y":2545757.9900000021}},{"attributes":{"ID":478315,"DIS_CODE":0,"TOWNNAME":"東區","LI":"忠孝里","LIN":"20鄰","STREET":"崇明路","SECT":" ","MAREA":" ","LANE":" ","ALLEY":" ","HOUSE_NO":"２８６號","E_COORD97":169982.07999999999,"N_COORD97":2542051.25,"ADDRESS":"崇明路２８６號","OBJECTID":478290},"geometry":{"x":169982.08000000007,"y":2542051.25}},{"attributes":{"ID":478316,"DIS_CODE":0,"TOWNNAME":"東區","LI":"泉南里","LIN":"20鄰","STREET":"府連東路","SECT":" ","MAREA":" ","LANE":" ","ALLEY":" ","HOUSE_NO":"６號","E_COORD97":169703.09,"N_COORD97":2542787.96,"ADDRESS":"府連東路６號","OBJECTID":478291},"geometry":{"x":169703.09000000078,"y":2542787.9600000046}},{"attributes":{"ID":478317,"DIS_CODE":0,"TOWNNAME":"永康區","LI":"中華里","LIN":"20鄰","STREET":"小東路","SECT":" ","MAREA":" ","LANE":" ","ALLEY":" ","HOUSE_NO":"４７３號","E_COORD97":171586.85999999999,"N_COORD97":2544367.2999999998,"ADDRESS":"小東路４７３號","OBJECTID":478292},"geometry":{"x":171586.86000000127,"y":2544367.3000000007}},{"attributes":{"ID":478318,"DIS_CODE":0,"TOWNNAME":"仁德區","LI":"保安里","LIN":"20鄰","STREET":"文賢路","SECT":"一段","MAREA":" ","LANE":" ","ALLEY":" ","HOUSE_NO":"５６４號","E_COORD97":171118,"N_COORD97":2536879.8300000001,"ADDRESS":"文賢路一段５６４號","OBJECTID":478293},"geometry":{"x":171118.00000000093,"y":2536879.8300000019}},{"attributes":{"ID":478319,"DIS_CODE":0,"TOWNNAME":"仁德區","LI":"保安里","LIN":"20鄰","STREET":"保安路","SECT":"一段","MAREA":" ","LANE":" ","ALLEY":" ","HOUSE_NO":"１７號之５","E_COORD97":170507.94,"N_COORD97":2536064.0699999998,"ADDRESS":"保安路一段１７號之５","OBJECTID":478294},"geometry":{"x":170507.94000000134,"y":2536064.0700000022}},{"attributes":{"ID":478320,"DIS_CODE":0,"TOWNNAME":"中西區","LI":"西湖里","LIN":"20鄰","STREET":"湖美街","SECT":" ","MAREA":" ","LANE":" ","ALLEY":" ","HOUSE_NO":"１４號","E_COORD97":165959.44,"N_COORD97":2544478.5499999998,"ADDRESS":"湖美街１４號","OBJECTID":478295},"geometry":{"x":165959.43999999948,"y":2544478.5500000007}},{"attributes":{"ID":478321,"DIS_CODE":0,"TOWNNAME":"中西區","LI":"西湖里","LIN":"20鄰","STREET":"湖美街","SECT":" ","MAREA":" ","LANE":" ","ALLEY":" ","HOUSE_NO":"１６號","E_COORD97":165959.17000000001,"N_COORD97":2544490.3100000001,"ADDRESS":"湖美街１６號","OBJECTID":478296},"geometry":{"x":165959.17000000179,"y":2544490.3099999987}},{"attributes":{"ID":478322,"DIS_CODE":0,"TOWNNAME":"中西區","LI":"西湖里","LIN":"20鄰","STREET":"湖美街","SECT":" ","MAREA":" ","LANE":" ","ALLEY":" ","HOUSE_NO":"１８號","E_COORD97":165959.17000000001,"N_COORD97":2544498.5899999999,"ADDRESS":"湖美街１８號","OBJECTID":478297},"geometry":{"x":165959.17000000179,"y":2544498.5900000017}},{"attributes":{"ID":478323,"DIS_CODE":0,"TOWNNAME":"中西區","LI":"西湖里","LIN":"20鄰","STREET":"湖美街","SECT":" ","MAREA":" ","LANE":" ","ALLEY":" ","HOUSE_NO":"２０號","E_COORD97":165959.70999999999,"N_COORD97":2544508.73,"ADDRESS":"湖美街２０號","OBJECTID":478298},"geometry":{"x":165959.71000000089,"y":2544508.7300000023}},{"attributes":{"ID":478324,"DIS_CODE":0,"TOWNNAME":"中西區","LI":"光賢里","LIN":"20鄰","STREET":"和緯路","SECT":"四段","MAREA":" ","LANE":" ","ALLEY":" ","HOUSE_NO":"２５１號","E_COORD97":166711.79999999999,"N_COORD97":2545306.6499999999,"ADDRESS":"和緯路四段２５１號","OBJECTID":478299},"geometry":{"x":166711.79999999981,"y":2545306.6500000022}},{"attributes":{"ID":478325,"DIS_CODE":0,"TOWNNAME":"中西區","LI":"光賢里","LIN":"20鄰","STREET":"和緯路","SECT":"四段","MAREA":" ","LANE":" ","ALLEY":" ","HOUSE_NO":"２５３號","E_COORD97":166708.23999999999,"N_COORD97":2545303.5499999998,"ADDRESS":"和緯路四段２５３號","OBJECTID":478300},"geometry":{"x":166708.24000000209,"y":2545303.5500000026}},{"attributes":{"ID":478326,"DIS_CODE":0,"TOWNNAME":"中西區","LI":"光賢里","LIN":"20鄰","STREET":"和緯路","SECT":"四段","MAREA":" ","LANE":" ","ALLEY":" ","HOUSE_NO":"２５５號","E_COORD97":166704.25,"N_COORD97":2545302.6600000001,"ADDRESS":"和緯路四段２５５號","OBJECTID":478301},"geometry":{"x":166704.25,"y":2545302.660000002}},{"attributes":{"ID":478327,"DIS_CODE":0,"TOWNNAME":"中西區","LI":"光賢里","LIN":"20鄰","STREET":"和緯路","SECT":"四段","MAREA":" ","LANE":" ","ALLEY":" ","HOUSE_NO":"２５７號","E_COORD97":166700.70000000001,"N_COORD97":2545300.8900000001,"ADDRESS":"和緯路四段２５７號","OBJECTID":478302},"geometry":{"x":166700.70000000112,"y":2545300.8900000025}},{"attributes":{"ID":478328,"DIS_CODE":0,"TOWNNAME":"中西區","LI":"光賢里","LIN":"20鄰","STREET":"和緯路","SECT":"四段","MAREA":" ","LANE":" ","ALLEY":" ","HOUSE_NO":"２５９號","E_COORD97":166690.04000000001,"N_COORD97":2545296.4500000002,"ADDRESS":"和緯路四段２５９號","OBJECTID":478303},"geometry":{"x":166690.04000000004,"y":2545296.4500000011}},{"attributes":{"ID":478329,"DIS_CODE":0,"TOWNNAME":"中西區","LI":"光賢里","LIN":"20鄰","STREET":"和緯路","SECT":"四段","MAREA":" ","LANE":" ","ALLEY":" ","HOUSE_NO":"２６１號","E_COORD97":166685.16,"N_COORD97":2545294.6800000002,"ADDRESS":"和緯路四段２６１號","OBJECTID":478304},"geometry":{"x":166685.16000000108,"y":2545294.6800000016}},{"attributes":{"ID":478330,"DIS_CODE":0,"TOWNNAME":"中西區","LI":"光賢里","LIN":"20鄰","STREET":"和緯路","SECT":"四段","MAREA":" ","LANE":" ","ALLEY":" ","HOUSE_NO":"２６３號","E_COORD97":166681.60000000001,"N_COORD97":2545292.9100000001,"ADDRESS":"和緯路四段２６３號","OBJECTID":478305},"geometry":{"x":166681.60000000149,"y":2545292.9100000039}},{"attributes":{"ID":478331,"DIS_CODE":0,"TOWNNAME":"中西區","LI":"光賢里","LIN":"20鄰","STREET":"和緯路","SECT":"四段","MAREA":" ","LANE":" ","ALLEY":" ","HOUSE_NO":"２６５號","E_COORD97":166674.94,"N_COORD97":2545289.3599999999,"ADDRESS":"和緯路四段２６５號","OBJECTID":478306},"geometry":{"x":166674.94000000227,"y":2545289.3600000031}},{"attributes":{"ID":478332,"DIS_CODE":0,"TOWNNAME":"中西區","LI":"光賢里","LIN":"20鄰","STREET":"和緯路","SECT":"四段","MAREA":" ","LANE":" ","ALLEY":" ","HOUSE_NO":"２６７號","E_COORD97":166671.39000000001,"N_COORD97":2545287.5899999999,"ADDRESS":"和緯路四段２６７號","OBJECTID":478307},"geometry":{"x":166671.3900000006,"y":2545287.5899999999}},{"attributes":{"ID":478333,"DIS_CODE":0,"TOWNNAME":"中西區","LI":"光賢里","LIN":"20鄰","STREET":"和緯路","SECT":"四段","MAREA":" ","LANE":" ","ALLEY":" ","HOUSE_NO":"２６９號","E_COORD97":166667.39999999999,"N_COORD97":2545287.1400000001,"ADDRESS":"和緯路四段２６９號","OBJECTID":478308},"geometry":{"x":166667.4000000013,"y":2545287.1400000006}},{"attributes":{"ID":478334,"DIS_CODE":0,"TOWNNAME":"中西區","LI":"光賢里","LIN":"20鄰","STREET":"和緯路","SECT":"四段","MAREA":" ","LANE":" ","ALLEY":" ","HOUSE_NO":"２７１號","E_COORD97":166664.29000000001,"N_COORD97":2545285.3700000001,"ADDRESS":"和緯路四段２７１號","OBJECTID":478309},"geometry":{"x":166664.29000000097,"y":2545285.3700000029}},{"attributes":{"ID":478335,"DIS_CODE":0,"TOWNNAME":"中西區","LI":"光賢里","LIN":"20鄰","STREET":"和緯路","SECT":"四段","MAREA":" ","LANE":" ","ALLEY":" ","HOUSE_NO":"２７３號","E_COORD97":166656.73999999999,"N_COORD97":2545281.3799999999,"ADDRESS":"和緯路四段２７３號","OBJECTID":478310},"geometry":{"x":166656.74000000022,"y":2545281.379999999}},{"attributes":{"ID":478336,"DIS_CODE":0,"TOWNNAME":"中西區","LI":"光賢里","LIN":"20鄰","STREET":"和緯路","SECT":"四段","MAREA":" ","LANE":" ","ALLEY":" ","HOUSE_NO":"２７５號","E_COORD97":166652.73999999999,"N_COORD97":2545280.4900000002,"ADDRESS":"和緯路四段２７５號","OBJECTID":478311},"geometry":{"x":166652.74000000115,"y":2545280.4900000021}},{"attributes":{"ID":478337,"DIS_CODE":0,"TOWNNAME":"中西區","LI":"光賢里","LIN":"20鄰","STREET":"和緯路","SECT":"四段","MAREA":" ","LANE":" ","ALLEY":" ","HOUSE_NO":"２７９號","E_COORD97":166660.28,"N_COORD97":2545282.9500000002,"ADDRESS":"和緯路四段２７９號","OBJECTID":478312},"geometry":{"x":166660.28000000026,"y":2545282.9500000011}},{"attributes":{"ID":478338,"DIS_CODE":0,"TOWNNAME":"中西區","LI":"光賢里","LIN":"20鄰","STREET":"和緯路","SECT":"四段","MAREA":" ","LANE":" ","ALLEY":" ","HOUSE_NO":"２８１號","E_COORD97":166678.04000000001,"N_COORD97":2545290.4900000002,"ADDRESS":"和緯路四段２８１號","OBJECTID":478313},"geometry":{"x":166678.04000000097,"y":2545290.4900000021}},{"attributes":{"ID":478339,"DIS_CODE":0,"TOWNNAME":"中西區","LI":"光賢里","LIN":"20鄰","STREET":"和緯路","SECT":"四段","MAREA":" ","LANE":" ","ALLEY":" ","HOUSE_NO":"２８３號","E_COORD97":166681.59,"N_COORD97":2545284.2799999998,"ADDRESS":"和緯路四段２８３號","OBJECTID":478314},"geometry":{"x":166681.58999999985,"y":2545284.2800000012}},{"attributes":{"ID":478340,"DIS_CODE":0,"TOWNNAME":"中西區","LI":"光賢里","LIN":"20鄰","STREET":"和緯路","SECT":"四段","MAREA":" ","LANE":" ","ALLEY":" ","HOUSE_NO":"２８５號","E_COORD97":166778.82999999999,"N_COORD97":2545310.5,"ADDRESS":"和緯路四段２８５號","OBJECTID":478315},"geometry":{"x":166778.83000000194,"y":2545310.5000000019}},{"attributes":{"ID":478341,"DIS_CODE":0,"TOWNNAME":"中西區","LI":"光賢里","LIN":"20鄰","STREET":"和緯路","SECT":"四段","MAREA":" ","LANE":" ","ALLEY":" ","HOUSE_NO":"２８７號","E_COORD97":166783.70999999999,"N_COORD97":2545309.1699999999,"ADDRESS":"和緯路四段２８７號","OBJECTID":478316},"geometry":{"x":166783.70999999996,"y":2545309.1700000018}},{"attributes":{"ID":478342,"DIS_CODE":0,"TOWNNAME":"中西區","LI":"光賢里","LIN":"20鄰","STREET":"和緯路","SECT":"四段","MAREA":" ","LANE":" ","ALLEY":" ","HOUSE_NO":"２８９號","E_COORD97":166788.60000000001,"N_COORD97":2545306.5099999998,"ADDRESS":"和緯路四段２８９號","OBJECTID":478317},"geometry":{"x":166788.60000000056,"y":2545306.5100000016}},{"attributes":{"ID":478343,"DIS_CODE":0,"TOWNNAME":"中西區","LI":"光賢里","LIN":"20鄰","STREET":"和緯路","SECT":"四段","MAREA":" ","LANE":" ","ALLEY":" ","HOUSE_NO":"２９１號","E_COORD97":166793.04000000001,"N_COORD97":2545306.9500000002,"ADDRESS":"和緯路四段２９１號","OBJECTID":478318},"geometry":{"x":166793.04000000097,"y":2545306.9500000011}},{"attributes":{"ID":478344,"DIS_CODE":0,"TOWNNAME":"中西區","LI":"光賢里","LIN":"20鄰","STREET":"和緯路","SECT":"四段","MAREA":" ","LANE":" ","ALLEY":" ","HOUSE_NO":"２９３號","E_COORD97":166797.92000000001,"N_COORD97":2545306.0699999998,"ADDRESS":"和緯路四段２９３號","OBJECTID":478319},"geometry":{"x":166797.91999999993,"y":2545306.0700000022}},{"attributes":{"ID":478345,"DIS_CODE":0,"TOWNNAME":"中西區","LI":"光賢里","LIN":"20鄰","STREET":"和緯路","SECT":"四段","MAREA":" ","LANE":" ","ALLEY":" ","HOUSE_NO":"２９５號","E_COORD97":166761.07000000001,"N_COORD97":2545318.48,"ADDRESS":"和緯路四段２９５號","OBJECTID":478320},"geometry":{"x":166761.07000000123,"y":2545318.4800000004}},{"attributes":{"ID":478346,"DIS_CODE":0,"TOWNNAME":"中西區","LI":"光賢里","LIN":"20鄰","STREET":"和緯路","SECT":"四段","MAREA":" ","LANE":" ","ALLEY":" ","HOUSE_NO":"２９７號","E_COORD97":166801.92000000001,"N_COORD97":2545304.29,"ADDRESS":"和緯路四段２９７號","OBJECTID":478321},"geometry":{"x":166801.92000000086,"y":2545304.290000001}},{"attributes":{"ID":478347,"DIS_CODE":0,"TOWNNAME":"中西區","LI":"光賢里","LIN":"20鄰","STREET":"和緯路","SECT":"四段","MAREA":" ","LANE":" ","ALLEY":" ","HOUSE_NO":"２９９號","E_COORD97":166756.19,"N_COORD97":2545319.3700000001,"ADDRESS":"和緯路四段２９９號","OBJECTID":478322},"geometry":{"x":166756.18999999948,"y":2545319.3700000029}},{"attributes":{"ID":478348,"DIS_CODE":0,"TOWNNAME":"中西區","LI":"光賢里","LIN":"20鄰","STREET":"武聖路","SECT":" ","MAREA":" ","LANE":" ","ALLEY":" ","HOUSE_NO":"２４３號","E_COORD97":166844.01000000001,"N_COORD97":2545283.1099999999,"ADDRESS":"武聖路２４３號","OBJECTID":478323},"geometry":{"x":166844.01000000071,"y":2545283.1099999994}},{"attributes":{"ID":478349,"DIS_CODE":0,"TOWNNAME":"中西區","LI":"光賢里","LIN":"20鄰","STREET":"武聖路","SECT":" ","MAREA":" ","LANE":" ","ALLEY":" ","HOUSE_NO":"２４５號","E_COORD97":166838.94,"N_COORD97":2545284.7200000002,"ADDRESS":"武聖路２４５號","OBJECTID":478324},"geometry":{"x":166838.94000000041,"y":2545284.7200000044}},{"attributes":{"ID":478350,"DIS_CODE":0,"TOWNNAME":"中西區","LI":"光賢里","LIN":"20鄰","STREET":"武聖路","SECT":" ","MAREA":" ","LANE":" ","ALLEY":" ","HOUSE_NO":"２４７號","E_COORD97":166835.70999999999,"N_COORD97":2545277.3500000001,"ADDRESS":"武聖路２４７號","OBJECTID":478325},"geometry":{"x":166835.71000000089,"y":2545277.3500000015}},{"attributes":{"ID":478351,"DIS_CODE":0,"TOWNNAME":"中西區","LI":"光賢里","LIN":"20鄰","STREET":"武聖路","SECT":" ","MAREA":" ","LANE":" ","ALLEY":" ","HOUSE_NO":"２４９號","E_COORD97":166827.23000000001,"N_COORD97":2545297.7799999998,"ADDRESS":"武聖路２４９號","OBJECTID":478326},"geometry":{"x":166827.23000000231,"y":2545297.7800000012}},{"attributes":{"ID":478352,"DIS_CODE":0,"TOWNNAME":"中西區","LI":"光賢里","LIN":"20鄰","STREET":"武聖路","SECT":" ","MAREA":" ","LANE":" ","ALLEY":" ","HOUSE_NO":"２５１號","E_COORD97":166820.13,"N_COORD97":2545296.0099999998,"ADDRESS":"武聖路２５１號","OBJECTID":478327},"geometry":{"x":166820.12999999989,"y":2545296.0100000016}},{"attributes":{"ID":478353,"DIS_CODE":0,"TOWNNAME":"中西區","LI":"光賢里","LIN":"20鄰","STREET":"武聖路","SECT":" ","MAREA":" ","LANE":" ","ALLEY":" ","HOUSE_NO":"２５３號","E_COORD97":166817.01999999999,"N_COORD97":2545302.2200000002,"ADDRESS":"武聖路２５３號","OBJECTID":478328},"geometry":{"x":166817.01999999955,"y":2545302.2200000025}},{"attributes":{"ID":478354,"DIS_CODE":0,"TOWNNAME":"中西區","LI":"光賢里","LIN":"20鄰","STREET":"武聖路","SECT":" ","MAREA":" ","LANE":" ","ALLEY":" ","HOUSE_NO":"２５５號","E_COORD97":166811.25,"N_COORD97":2545299.1099999999,"ADDRESS":"武聖路２５５號","OBJECTID":478329},"geometry":{"x":166811.24999999907,"y":2545299.1100000013}},{"attributes":{"ID":478355,"DIS_CODE":0,"TOWNNAME":"中西區","LI":"光賢里","LIN":"20鄰","STREET":"武聖路","SECT":" ","MAREA":" ","LANE":" ","ALLEY":" ","HOUSE_NO":"２５７號","E_COORD97":166806.37,"N_COORD97":2545303.5499999998,"ADDRESS":"武聖路２５７號","OBJECTID":478330},"geometry":{"x":166806.37000000104,"y":2545303.5500000026}},{"attributes":{"ID":478356,"DIS_CODE":0,"TOWNNAME":"中西區","LI":"光賢里","LIN":"20鄰","STREET":"武聖路","SECT":" ","MAREA":" ","LANE":" ","ALLEY":" ","HOUSE_NO":"２５９號","E_COORD97":166774.84,"N_COORD97":2545310.6400000001,"ADDRESS":"武聖路２５９號","OBJECTID":478331},"geometry":{"x":166774.83999999985,"y":2545310.6400000006}},{"attributes":{"ID":478357,"DIS_CODE":0,"TOWNNAME":"中西區","LI":"光賢里","LIN":"20鄰","STREET":"武聖路","SECT":" ","MAREA":" ","LANE":" ","ALLEY":" ","HOUSE_NO":"２６１號","E_COORD97":166771.29000000001,"N_COORD97":2545317.29,"ADDRESS":"武聖路２６１號","OBJECTID":478332},"geometry":{"x":166771.29000000097,"y":2545317.290000001}},{"attributes":{"ID":478358,"DIS_CODE":0,"TOWNNAME":"中西區","LI":"光賢里","LIN":"20鄰","STREET":"武聖路","SECT":" ","MAREA":" ","LANE":" ","ALLEY":" ","HOUSE_NO":"２６３號","E_COORD97":166767.29999999999,"N_COORD97":2545319.0699999998,"ADDRESS":"武聖路２６３號","OBJECTID":478333},"geometry":{"x":166767.30000000075,"y":2545319.0699999984}},{"attributes":{"ID":478359,"DIS_CODE":0,"TOWNNAME":"中西區","LI":"光賢里","LIN":"20鄰","STREET":"武聖路","SECT":" ","MAREA":" ","LANE":" ","ALLEY":" ","HOUSE_NO":"２６５號","E_COORD97":166740.20999999999,"N_COORD97":2545320.3999999999,"ADDRESS":"武聖路２６５號","OBJECTID":478334},"geometry":{"x":166740.20999999996,"y":2545320.4000000041}},{"attributes":{"ID":478360,"DIS_CODE":0,"TOWNNAME":"中西區","LI":"光賢里","LIN":"20鄰","STREET":"武聖路","SECT":" ","MAREA":" ","LANE":" ","ALLEY":" ","HOUSE_NO":"２６７號","E_COORD97":166737.10000000001,"N_COORD97":2545318.1800000002,"ADDRESS":"武聖路２６７號","OBJECTID":478335},"geometry":{"x":166737.09999999963,"y":2545318.1800000016}},{"attributes":{"ID":478361,"DIS_CODE":0,"TOWNNAME":"中西區","LI":"光賢里","LIN":"20鄰","STREET":"武聖路","SECT":" ","MAREA":" ","LANE":" ","ALLEY":" ","HOUSE_NO":"２６９號","E_COORD97":166729.10999999999,"N_COORD97":2545315.0800000001,"ADDRESS":"武聖路２６９號","OBJECTID":478336},"geometry":{"x":166729.11000000034,"y":2545315.0800000001}},{"attributes":{"ID":478362,"DIS_CODE":0,"TOWNNAME":"中西區","LI":"光賢里","LIN":"20鄰","STREET":"武聖路","SECT":" ","MAREA":" ","LANE":" ","ALLEY":" ","HOUSE_NO":"２７１號","E_COORD97":166722.01000000001,"N_COORD97":2545311.0899999999,"ADDRESS":"武聖路２７１號","OBJECTID":478337},"geometry":{"x":166722.01000000071,"y":2545311.0899999999}},{"attributes":{"ID":478363,"DIS_CODE":0,"TOWNNAME":"中西區","LI":"光賢里","LIN":"20鄰","STREET":"武聖路","SECT":" ","MAREA":" ","LANE":" ","ALLEY":" ","HOUSE_NO":"２７３號","E_COORD97":166714.89999999999,"N_COORD97":2545307.98,"ADDRESS":"武聖路２７３號","OBJECTID":478338},"geometry":{"x":166714.9000000013,"y":2545307.9800000023}},{"attributes":{"ID":478364,"DIS_CODE":0,"TOWNNAME":"中西區","LI":"開山里","LIN":"20鄰","STREET":"大埔街","SECT":" ","MAREA":" ","LANE":" ","ALLEY":" ","HOUSE_NO":"１１號","E_COORD97":168984.32999999999,"N_COORD97":2543028.3500000001,"ADDRESS":"大埔街１１號","OBJECTID":478339},"geometry":{"x":168984.33000000101,"y":2543028.3500000034}},{"attributes":{"ID":478365,"DIS_CODE":0,"TOWNNAME":"中西區","LI":"開山里","LIN":"20鄰","STREET":"大埔街","SECT":" ","MAREA":" ","LANE":" ","ALLEY":" ","HOUSE_NO":"１５號","E_COORD97":168980.64000000001,"N_COORD97":2543031.3199999998,"ADDRESS":"大埔街１５號","OBJECTID":478340},"geometry":{"x":168980.6400000006,"y":2543031.3200000003}},{"attributes":{"ID":478366,"DIS_CODE":0,"TOWNNAME":"中西區","LI":"開山里","LIN":"20鄰","STREET":"大埔街","SECT":" ","MAREA":" ","LANE":" ","ALLEY":" ","HOUSE_NO":"１７號","E_COORD97":168977.16,"N_COORD97":2543033.4700000002,"ADDRESS":"大埔街１７號","OBJECTID":478341},"geometry":{"x":168977.16000000108,"y":2543033.4700000025}},{"attributes":{"ID":478367,"DIS_CODE":0,"TOWNNAME":"中西區","LI":"開山里","LIN":"20鄰","STREET":"大埔街","SECT":" ","MAREA":" ","LANE":" ","ALLEY":" ","HOUSE_NO":"１９號","E_COORD97":168974.92000000001,"N_COORD97":2543036.4900000002,"ADDRESS":"大埔街１９號","OBJECTID":478342},"geometry":{"x":168974.92000000179,"y":2543036.4900000002}},{"attributes":{"ID":478368,"DIS_CODE":0,"TOWNNAME":"中西區","LI":"開山里","LIN":"20鄰","STREET":"大埔街","SECT":" ","MAREA":" ","LANE":" ","ALLEY":" ","HOUSE_NO":"２１號","E_COORD97":168971.32999999999,"N_COORD97":2543039.46,"ADDRESS":"大埔街２１號","OBJECTID":478343},"geometry":{"x":168971.33000000101,"y":2543039.4600000028}},{"attributes":{"ID":478369,"DIS_CODE":0,"TOWNNAME":"中西區","LI":"開山里","LIN":"20鄰","STREET":"大埔街","SECT":" ","MAREA":" ","LANE":" ","ALLEY":" ","HOUSE_NO":"２３號","E_COORD97":168966.42000000001,"N_COORD97":2543037.2000000002,"ADDRESS":"大埔街２３號","OBJECTID":478344},"geometry":{"x":168966.42000000179,"y":2543037.1999999993}},{"attributes":{"ID":478370,"DIS_CODE":0,"TOWNNAME":"中西區","LI":"開山里","LIN":"20鄰","STREET":"開山路","SECT":" ","MAREA":" ","LANE":" ","ALLEY":" ","HOUSE_NO":"２０３號","E_COORD97":168954.17999999999,"N_COORD97":2543043.2400000002,"ADDRESS":"開山路２０３號","OBJECTID":478345},"geometry":{"x":168954.17999999877,"y":2543043.2400000039}},{"attributes":{"ID":478371,"DIS_CODE":0,"TOWNNAME":"中西區","LI":"開山里","LIN":"20鄰","STREET":"開山路","SECT":" ","MAREA":" ","LANE":" ","ALLEY":" ","HOUSE_NO":"２０５號","E_COORD97":168959.10000000001,"N_COORD97":2543044.1099999999,"ADDRESS":"開山路２０５號","OBJECTID":478346},"geometry":{"x":168959.09999999963,"y":2543044.1100000013}},{"attributes":{"ID":478372,"DIS_CODE":0,"TOWNNAME":"中西區","LI":"開山里","LIN":"20鄰","STREET":"開山路","SECT":" ","MAREA":" ","LANE":" ","ALLEY":" ","HOUSE_NO":"２０７號","E_COORD97":168963.14000000001,"N_COORD97":2543030.5499999998,"ADDRESS":"開山路２０７號","OBJECTID":478347},"geometry":{"x":168963.1400000006,"y":2543030.5500000007}},{"attributes":{"ID":478373,"DIS_CODE":0,"TOWNNAME":"中西區","LI":"開山里","LIN":"20鄰","STREET":"開山路","SECT":" ","MAREA":" ","LANE":" ","ALLEY":" ","HOUSE_NO":"２０９號","E_COORD97":168967.85000000001,"N_COORD97":2543029.2200000002,"ADDRESS":"開山路２０９號","OBJECTID":478348},"geometry":{"x":168967.84999999963,"y":2543029.2200000007}},{"attributes":{"ID":478374,"DIS_CODE":0,"TOWNNAME":"中西區","LI":"開山里","LIN":"20鄰","STREET":"開山路","SECT":" ","MAREA":" ","LANE":" ","ALLEY":" ","HOUSE_NO":"２１１號","E_COORD97":168971.85000000001,"N_COORD97":2543028.0899999999,"ADDRESS":"開山路２１１號","OBJECTID":478349},"geometry":{"x":168971.85000000056,"y":2543028.0900000017}},{"attributes":{"ID":478375,"DIS_CODE":0,"TOWNNAME":"中西區","LI":"開山里","LIN":"20鄰","STREET":"開山路","SECT":" ","MAREA":" ","LANE":" ","ALLEY":" ","HOUSE_NO":"２１３號","E_COORD97":168973.17000000001,"N_COORD97":2543020.3999999999,"ADDRESS":"開山路２１３號","OBJECTID":478350},"geometry":{"x":168973.17000000179,"y":2543020.4000000004}},{"attributes":{"ID":478376,"DIS_CODE":0,"TOWNNAME":"中西區","LI":"開山里","LIN":"20鄰","STREET":"開山路","SECT":" ","MAREA":" ","LANE":" ","ALLEY":" ","HOUSE_NO":"２１７號","E_COORD97":168980.45999999999,"N_COORD97":2543013.8599999999,"ADDRESS":"開山路２１７號","OBJECTID":478351},"geometry":{"x":168980.46000000089,"y":2543013.8599999994}},{"attributes":{"ID":478377,"DIS_CODE":0,"TOWNNAME":"中西區","LI":"開山里","LIN":"20鄰","STREET":"開山路","SECT":" ","MAREA":" ","LANE":" ","ALLEY":" ","HOUSE_NO":"２２５號","E_COORD97":168995.22,"N_COORD97":2543001.7999999998,"ADDRESS":"開山路２２５號","OBJECTID":478352},"geometry":{"x":168995.22000000067,"y":2543001.8000000007}},{"attributes":{"ID":478378,"DIS_CODE":0,"TOWNNAME":"中西區","LI":"開山里","LIN":"20鄰","STREET":"開山路","SECT":" ","MAREA":" ","LANE":" ","ALLEY":" ","HOUSE_NO":"２２７號","E_COORD97":168998.91,"N_COORD97":2543000.3700000001,"ADDRESS":"開山路２２７號","OBJECTID":478353},"geometry":{"x":168998.91000000201,"y":2543000.3700000029}},{"attributes":{"ID":478379,"DIS_CODE":0,"TOWNNAME":"中西區","LI":"開山里","LIN":"20鄰","STREET":"開山路","SECT":" ","MAREA":" ","LANE":" ","ALLEY":" ","HOUSE_NO":"２２９號","E_COORD97":169000.14000000001,"N_COORD97":2542996.8900000001,"ADDRESS":"開山路２２９號","OBJECTID":478354},"geometry":{"x":169000.13999999873,"y":2542996.8900000006}},{"attributes":{"ID":478380,"DIS_CODE":0,"TOWNNAME":"中西區","LI":"開山里","LIN":"20鄰","STREET":"開山路","SECT":" ","MAREA":" ","LANE":" ","ALLEY":" ","HOUSE_NO":"２３１號","E_COORD97":169003.42000000001,"N_COORD97":2542994.7400000002,"ADDRESS":"開山路２３１號","OBJECTID":478355},"geometry":{"x":169003.41999999993,"y":2542994.7400000002}},{"attributes":{"ID":478381,"DIS_CODE":0,"TOWNNAME":"中西區","LI":"開山里","LIN":"20鄰","STREET":"開山路","SECT":" ","MAREA":" ","LANE":" ","ALLEY":" ","HOUSE_NO":"２３３號","E_COORD97":169004.44,"N_COORD97":2542992.8900000001,"ADDRESS":"開山路２３３號","OBJECTID":478356},"geometry":{"x":169004.44000000134,"y":2542992.8900000025}},{"attributes":{"ID":478382,"DIS_CODE":0,"TOWNNAME":"東區","LI":"大智里","LIN":"20鄰","STREET":"崇善路","SECT":" ","MAREA":" ","LANE":" ","ALLEY":" ","HOUSE_NO":"７９４號","E_COORD97":171381.97,"N_COORD97":2540673.7799999998,"ADDRESS":"崇善路７９４號","OBJECTID":478357},"geometry":{"x":171381.97000000067,"y":2540673.7799999993}},{"attributes":{"ID":478383,"DIS_CODE":0,"TOWNNAME":"東區","LI":"大智里","LIN":"20鄰","STREET":"崇善路","SECT":" ","MAREA":" ","LANE":" ","ALLEY":" ","HOUSE_NO":"７９６號","E_COORD97":171385.09,"N_COORD97":2540669.5600000001,"ADDRESS":"崇善路７９６號","OBJECTID":478358},"geometry":{"x":171385.08999999985,"y":2540669.5600000024}},{"attributes":{"ID":478384,"DIS_CODE":0,"TOWNNAME":"東區","LI":"大智里","LIN":"20鄰","STREET":"崇善路","SECT":" ","MAREA":" ","LANE":" ","ALLEY":" ","HOUSE_NO":"７９８號","E_COORD97":171387.85000000001,"N_COORD97":2540666.4399999999,"ADDRESS":"崇善路７９８號","OBJECTID":478359},"geometry":{"x":171387.85000000056,"y":2540666.4399999995}},{"attributes":{"ID":478385,"DIS_CODE":0,"TOWNNAME":"東區","LI":"大智里","LIN":"20鄰","STREET":"崇善路","SECT":" ","MAREA":" ","LANE":" ","ALLEY":" ","HOUSE_NO":"８００號","E_COORD97":171390.97,"N_COORD97":2540662.7799999998,"ADDRESS":"崇善路８００號","OBJECTID":478360},"geometry":{"x":171390.96999999974,"y":2540662.7800000012}},{"attributes":{"ID":478386,"DIS_CODE":0,"TOWNNAME":"東區","LI":"大智里","LIN":"20鄰","STREET":"崇善路","SECT":" ","MAREA":" ","LANE":" ","ALLEY":" ","HOUSE_NO":"８０２號","E_COORD97":171393.89999999999,"N_COORD97":2540659.6600000001,"ADDRESS":"崇善路８０２號","OBJECTID":478361},"geometry":{"x":171393.90000000037,"y":2540659.6600000001}},{"attributes":{"ID":478387,"DIS_CODE":0,"TOWNNAME":"東區","LI":"大智里","LIN":"20鄰","STREET":"崇善路","SECT":" ","MAREA":" ","LANE":" ","ALLEY":" ","HOUSE_NO":"８０４號","E_COORD97":171397.01999999999,"N_COORD97":2540655.9900000002,"ADDRESS":"崇善路８０４號","OBJECTID":478362},"geometry":{"x":171397.02000000048,"y":2540655.9900000021}},{"attributes":{"ID":478388,"DIS_CODE":0,"TOWNNAME":"東區","LI":"大智里","LIN":"20鄰","STREET":"崇善路","SECT":" ","MAREA":" ","LANE":" ","ALLEY":" ","HOUSE_NO":"８０６號","E_COORD97":171399.41,"N_COORD97":2540652.3199999998,"ADDRESS":"崇善路８０６號","OBJECTID":478363},"geometry":{"x":171399.41000000201,"y":2540652.320000004}},{"attributes":{"ID":478389,"DIS_CODE":0,"TOWNNAME":"東區","LI":"大智里","LIN":"20鄰","STREET":"崇善路","SECT":" ","MAREA":" ","LANE":" ","ALLEY":" ","HOUSE_NO":"８０８號","E_COORD97":171401.42999999999,"N_COORD97":2540648.6499999999,"ADDRESS":"崇善路８０８號","OBJECTID":478364},"geometry":{"x":171401.4299999997,"y":2540648.6500000004}},{"attributes":{"ID":478390,"DIS_CODE":0,"TOWNNAME":"東區","LI":"大智里","LIN":"20鄰","STREET":"崇善路","SECT":" ","MAREA":" ","LANE":" ","ALLEY":" ","HOUSE_NO":"８１４號","E_COORD97":171407.67000000001,"N_COORD97":2540641.5,"ADDRESS":"崇善路８１４號","OBJECTID":478365},"geometry":{"x":171407.67000000086,"y":2540641.5000000019}},{"attributes":{"ID":478391,"DIS_CODE":0,"TOWNNAME":"東區","LI":"大智里","LIN":"20鄰","STREET":"崇善路","SECT":" ","MAREA":" ","LANE":" ","ALLEY":" ","HOUSE_NO":"８１６號","E_COORD97":171411.53,"N_COORD97":2540637.8300000001,"ADDRESS":"崇善路８１６號","OBJECTID":478366},"geometry":{"x":171411.53000000026,"y":2540637.8300000001}},{"attributes":{"ID":478392,"DIS_CODE":0,"TOWNNAME":"東區","LI":"大智里","LIN":"20鄰","STREET":"崇善路","SECT":" ","MAREA":" ","LANE":" ","ALLEY":" ","HOUSE_NO":"８１８號","E_COORD97":171415.20000000001,"N_COORD97":2540634.8999999999,"ADDRESS":"崇善路８１８號","OBJECTID":478367},"geometry":{"x":171415.20000000112,"y":2540634.9000000041}},{"attributes":{"ID":478393,"DIS_CODE":0,"TOWNNAME":"東區","LI":"大智里","LIN":"20鄰","STREET":"崇善路","SECT":" ","MAREA":" ","LANE":" ","ALLEY":" ","HOUSE_NO":"８２０號","E_COORD97":171416.66,"N_COORD97":2540631.7799999998,"ADDRESS":"崇善路８２０號","OBJECTID":478368},"geometry":{"x":171416.66000000108,"y":2540631.7800000012}},{"attributes":{"ID":478394,"DIS_CODE":0,"TOWNNAME":"東區","LI":"大智里","LIN":"20鄰","STREET":"崇善路","SECT":" ","MAREA":" ","LANE":" ","ALLEY":" ","HOUSE_NO":"８２４號","E_COORD97":171421.62,"N_COORD97":2540623.8900000001,"ADDRESS":"崇善路８２４號","OBJECTID":478369},"geometry":{"x":171421.62000000197,"y":2540623.8900000006}},{"attributes":{"ID":478395,"DIS_CODE":0,"TOWNNAME":"東區","LI":"大智里","LIN":"20鄰","STREET":"崇善路","SECT":" ","MAREA":" ","LANE":" ","ALLEY":" ","HOUSE_NO":"８２６號","E_COORD97":171425.10999999999,"N_COORD97":2540621.8799999999,"ADDRESS":"崇善路８２６號","OBJECTID":478370},"geometry":{"x":171425.11000000034,"y":2540621.879999999}},{"attributes":{"ID":478396,"DIS_CODE":0,"TOWNNAME":"東區","LI":"大智里","LIN":"20鄰","STREET":"崇善路","SECT":" ","MAREA":" ","LANE":" ","ALLEY":" ","HOUSE_NO":"８２８號","E_COORD97":171428.78,"N_COORD97":2540618.3900000001,"ADDRESS":"崇善路８２８號","OBJECTID":478371},"geometry":{"x":171428.78000000026,"y":2540618.3900000043}},{"attributes":{"ID":478397,"DIS_CODE":0,"TOWNNAME":"東區","LI":"大智里","LIN":"20鄰","STREET":"崇善路","SECT":" ","MAREA":" ","LANE":" ","ALLEY":" ","HOUSE_NO":"８３４號","E_COORD97":171437.95999999999,"N_COORD97":2540601.7000000002,"ADDRESS":"崇善路８３４號","OBJECTID":478372},"geometry":{"x":171437.96000000089,"y":2540601.7000000011}},{"attributes":{"ID":478398,"DIS_CODE":0,"TOWNNAME":"東區","LI":"大智里","LIN":"20鄰","STREET":"崇善路","SECT":" ","MAREA":" ","LANE":" ","ALLEY":" ","HOUSE_NO":"８３６號","E_COORD97":171437.95999999999,"N_COORD97":2540594.3599999999,"ADDRESS":"崇善路８３６號","OBJECTID":478373},"geometry":{"x":171437.96000000089,"y":2540594.3600000013}},{"attributes":{"ID":478399,"DIS_CODE":0,"TOWNNAME":"新市區","LI":"新和里","LIN":"20鄰","STREET":"成功街","SECT":" ","MAREA":" ","LANE":" ","ALLEY":" ","HOUSE_NO":"１２號","E_COORD97":177460.07000000001,"N_COORD97":2552606.77,"ADDRESS":"成功街１２號","OBJECTID":478374},"geometry":{"x":177460.0700000003,"y":2552606.7700000014}},{"attributes":{"ID":478400,"DIS_CODE":0,"TOWNNAME":"永康區","LI":"五王里","LIN":"20鄰","STREET":"成功路","SECT":" ","MAREA":" ","LANE":" ","ALLEY":" ","HOUSE_NO":"１３３號","E_COORD97":171386.78,"N_COORD97":2545676.2599999998,"ADDRESS":"成功路１３３號","OBJECTID":478375},"geometry":{"x":171386.78000000212,"y":2545676.2599999998}},{"attributes":{"ID":478401,"DIS_CODE":0,"TOWNNAME":"永康區","LI":"五王里","LIN":"20鄰","STREET":"中華路","SECT":" ","MAREA":" ","LANE":" ","ALLEY":" ","HOUSE_NO":"４６２號","E_COORD97":171344.63,"N_COORD97":2545686.3199999998,"ADDRESS":"中華路４６２號","OBJECTID":478376},"geometry":{"x":171344.62999999989,"y":2545686.3200000003}},{"attributes":{"ID":478402,"DIS_CODE":0,"TOWNNAME":"永康區","LI":"五王里","LIN":"20鄰","STREET":"中華路","SECT":" ","MAREA":" ","LANE":" ","ALLEY":" ","HOUSE_NO":"４２０號","E_COORD97":171373.07000000001,"N_COORD97":2545629.2400000002,"ADDRESS":"中華路４２０號","OBJECTID":478377},"geometry":{"x":171373.07000000216,"y":2545629.2400000002}},{"attributes":{"ID":478403,"DIS_CODE":0,"TOWNNAME":"永康區","LI":"勝利里","LIN":"20鄰","STREET":"勝華街","SECT":" ","MAREA":" ","LANE":" ","ALLEY":" ","HOUSE_NO":"１４２號","E_COORD97":171219.10999999999,"N_COORD97":2545220.25,"ADDRESS":"勝華街１４２號","OBJECTID":478378},"geometry":{"x":171219.11000000127,"y":2545220.2500000019}},{"attributes":{"ID":478404,"DIS_CODE":0,"TOWNNAME":"永康區","LI":"勝利里","LIN":"20鄰","STREET":"勝學路","SECT":" ","MAREA":" ","LANE":" ","ALLEY":" ","HOUSE_NO":"２４８號","E_COORD97":171201.89999999999,"N_COORD97":2545240.25,"ADDRESS":"勝學路２４８號","OBJECTID":478379},"geometry":{"x":171201.9000000013,"y":2545240.2500000019}},{"attributes":{"ID":478405,"DIS_CODE":0,"TOWNNAME":"永康區","LI":"勝利里","LIN":"20鄰","STREET":"勝華街","SECT":" ","MAREA":" ","LANE":" ","ALLEY":" ","HOUSE_NO":"１２０號","E_COORD97":171275.42000000001,"N_COORD97":2545221.25,"ADDRESS":"勝華街１２０號","OBJECTID":478380},"geometry":{"x":171275.42000000086,"y":2545221.25}},{"attributes":{"ID":478406,"DIS_CODE":0,"TOWNNAME":"官田區","LI":"隆本里","LIN":"20鄰","STREET":"勝利路","SECT":" ","MAREA":" ","LANE":" ","ALLEY":" ","HOUSE_NO":"２２６號","E_COORD97":180150.54000000001,"N_COORD97":2566284.4300000002,"ADDRESS":"勝利路２２６號","OBJECTID":478381},"geometry":{"x":180150.5400000019,"y":2566284.4299999997}},{"attributes":{"ID":478407,"DIS_CODE":0,"TOWNNAME":"官田區","LI":"隆本里","LIN":"20鄰","STREET":"勝利路","SECT":" ","MAREA":" ","LANE":" ","ALLEY":" ","HOUSE_NO":"２２８號","E_COORD97":180142.29000000001,"N_COORD97":2566289.2599999998,"ADDRESS":"勝利路２２８號","OBJECTID":478382},"geometry":{"x":180142.29000000097,"y":2566289.2599999998}},{"attributes":{"ID":478408,"DIS_CODE":0,"TOWNNAME":"安南區","LI":"州北里","LIN":"20鄰","STREET":"安和路","SECT":"五段","MAREA":" ","LANE":" ","ALLEY":" ","HOUSE_NO":"２３０號","E_COORD97":169803.60999999999,"N_COORD97":2551950.46,"ADDRESS":"安和路五段２３０號","OBJECTID":478383},"geometry":{"x":169803.61000000127,"y":2551950.4600000028}},{"attributes":{"ID":478409,"DIS_CODE":0,"TOWNNAME":"安南區","LI":"州北里","LIN":"20鄰","STREET":"安和路","SECT":"五段","MAREA":" ","LANE":" ","ALLEY":" ","HOUSE_NO":"２４２號","E_COORD97":169795.59,"N_COORD97":2551971.04,"ADDRESS":"安和路五段２４２號","OBJECTID":478384},"geometry":{"x":169795.58999999985,"y":2551971.040000001}},{"attributes":{"ID":478410,"DIS_CODE":0,"TOWNNAME":"安南區","LI":"州北里","LIN":"20鄰","STREET":"安和路","SECT":"五段","MAREA":" ","LANE":" ","ALLEY":" ","HOUSE_NO":"２４８號","E_COORD97":169790.89999999999,"N_COORD97":2551984.0699999998,"ADDRESS":"安和路五段２４８號","OBJECTID":478385},"geometry":{"x":169790.90000000224,"y":2551984.0700000003}},{"attributes":{"ID":478411,"DIS_CODE":0,"TOWNNAME":"安南區","LI":"州北里","LIN":"20鄰","STREET":"安和路","SECT":"五段","MAREA":" ","LANE":" ","ALLEY":" ","HOUSE_NO":"２５０號","E_COORD97":169788.81,"N_COORD97":2551988.5899999999,"ADDRESS":"安和路五段２５０號","OBJECTID":478386},"geometry":{"x":169788.80999999959,"y":2551988.5900000017}},{"attributes":{"ID":478412,"DIS_CODE":0,"TOWNNAME":"安南區","LI":"州北里","LIN":"20鄰","STREET":"安和路","SECT":"五段","MAREA":" ","LANE":" ","ALLEY":" ","HOUSE_NO":"２５２號","E_COORD97":169787.07000000001,"N_COORD97":2551991.7200000002,"ADDRESS":"安和路五段２５２號","OBJECTID":478387},"geometry":{"x":169787.07000000123,"y":2551991.7200000025}},{"attributes":{"ID":478413,"DIS_CODE":0,"TOWNNAME":"安南區","LI":"州北里","LIN":"20鄰","STREET":"安和路","SECT":"五段","MAREA":" ","LANE":" ","ALLEY":" ","HOUSE_NO":"２５４號","E_COORD97":169784.98000000001,"N_COORD97":2551995.54,"ADDRESS":"安和路五段２５４號","OBJECTID":478388},"geometry":{"x":169784.98000000045,"y":2551995.5399999991}},{"attributes":{"ID":478414,"DIS_CODE":0,"TOWNNAME":"安南區","LI":"州北里","LIN":"20鄰","STREET":"安和路","SECT":"五段","MAREA":" ","LANE":" ","ALLEY":" ","HOUSE_NO":"２５６號","E_COORD97":169782.88,"N_COORD97":2552000.3100000001,"ADDRESS":"安和路五段２５６號","OBJECTID":478389},"geometry":{"x":169782.88000000082,"y":2552000.3100000042}},{"attributes":{"ID":478415,"DIS_CODE":0,"TOWNNAME":"安南區","LI":"州北里","LIN":"20鄰","STREET":"安和路","SECT":"五段","MAREA":" ","LANE":" ","ALLEY":" ","HOUSE_NO":"２６０號","E_COORD97":169779.75,"N_COORD97":2552007.2599999998,"ADDRESS":"安和路五段２６０號","OBJECTID":478390},"geometry":{"x":169779.75000000186,"y":2552007.2600000016}},{"attributes":{"ID":478416,"DIS_CODE":0,"TOWNNAME":"安南區","LI":"州北里","LIN":"20鄰","STREET":"安和路","SECT":"五段","MAREA":" ","LANE":" ","ALLEY":" ","HOUSE_NO":"２６２號","E_COORD97":169778.01000000001,"N_COORD97":2552011.25,"ADDRESS":"安和路五段２６２號","OBJECTID":478391},"geometry":{"x":169778.01000000071,"y":2552011.2500000019}},{"attributes":{"ID":478417,"DIS_CODE":0,"TOWNNAME":"安南區","LI":"州北里","LIN":"20鄰","STREET":"安和路","SECT":"五段","MAREA":" ","LANE":" ","ALLEY":" ","HOUSE_NO":"２６４號","E_COORD97":169775.75,"N_COORD97":2552015.25,"ADDRESS":"安和路五段２６４號","OBJECTID":478392},"geometry":{"x":169775.75,"y":2552015.2500000019}},{"attributes":{"ID":478418,"DIS_CODE":0,"TOWNNAME":"安南區","LI":"州北里","LIN":"20鄰","STREET":"安和路","SECT":"五段","MAREA":" ","LANE":" ","ALLEY":" ","HOUSE_NO":"２６６號","E_COORD97":169773.67000000001,"N_COORD97":2552019.25,"ADDRESS":"安和路五段２６６號","OBJECTID":478393},"geometry":{"x":169773.67000000086,"y":2552019.25}},{"attributes":{"ID":478419,"DIS_CODE":0,"TOWNNAME":"安南區","LI":"州北里","LIN":"20鄰","STREET":"安和路","SECT":"五段","MAREA":" ","LANE":" ","ALLEY":" ","HOUSE_NO":"２６８號","E_COORD97":169771.92999999999,"N_COORD97":2552022.7200000002,"ADDRESS":"安和路五段２６８號","OBJECTID":478394},"geometry":{"x":169771.93000000063,"y":2552022.7200000025}},{"attributes":{"ID":478420,"DIS_CODE":0,"TOWNNAME":"安南區","LI":"州北里","LIN":"20鄰","STREET":"安和路","SECT":"五段","MAREA":" ","LANE":" ","ALLEY":" ","HOUSE_NO":"２７０號","E_COORD97":169769.48999999999,"N_COORD97":2552026.54,"ADDRESS":"安和路五段２７０號","OBJECTID":478395},"geometry":{"x":169769.49000000022,"y":2552026.5399999991}},{"attributes":{"ID":478421,"DIS_CODE":0,"TOWNNAME":"安南區","LI":"州北里","LIN":"20鄰","STREET":"安和路","SECT":"五段","MAREA":" ","LANE":" ","ALLEY":" ","HOUSE_NO":"２７２號","E_COORD97":169767.75,"N_COORD97":2552030.3700000001,"ADDRESS":"安和路五段２７２號","OBJECTID":478396},"geometry":{"x":169767.75000000186,"y":2552030.370000001}},{"attributes":{"ID":478422,"DIS_CODE":0,"TOWNNAME":"安南區","LI":"州北里","LIN":"20鄰","STREET":"安和路","SECT":"五段","MAREA":" ","LANE":" ","ALLEY":" ","HOUSE_NO":"２７４號","E_COORD97":169765.32000000001,"N_COORD97":2552034.1899999999,"ADDRESS":"安和路五段２７４號","OBJECTID":478397},"geometry":{"x":169765.3200000003,"y":2552034.1900000013}},{"attributes":{"ID":478423,"DIS_CODE":0,"TOWNNAME":"安南區","LI":"州北里","LIN":"20鄰","STREET":"安和路","SECT":"五段","MAREA":" ","LANE":" ","ALLEY":" ","HOUSE_NO":"２７８號","E_COORD97":169759.39999999999,"N_COORD97":2552051.6899999999,"ADDRESS":"安和路五段２７８號","OBJECTID":478398},"geometry":{"x":169759.4000000013,"y":2552051.6900000013}},{"attributes":{"ID":478424,"DIS_CODE":0,"TOWNNAME":"安南區","LI":"州北里","LIN":"20鄰","STREET":"安和路","SECT":"五段","MAREA":" ","LANE":" ","ALLEY":" ","HOUSE_NO":"２８０號","E_COORD97":169758.35000000001,"N_COORD97":2552056.3799999999,"ADDRESS":"安和路五段２８０號","OBJECTID":478399},"geometry":{"x":169758.35000000149,"y":2552056.3800000008}},{"attributes":{"ID":478425,"DIS_CODE":0,"TOWNNAME":"安南區","LI":"州北里","LIN":"20鄰","STREET":"安和路","SECT":"五段","MAREA":" ","LANE":" ","ALLEY":" ","HOUSE_NO":"２８２號","E_COORD97":169756.60999999999,"N_COORD97":2552059.8500000001,"ADDRESS":"安和路五段２８２號","OBJECTID":478400},"geometry":{"x":169756.61000000034,"y":2552059.8499999978}}]}