{"displayFieldName":"TOWNNAME","fieldAliases":{"ID":"ID","DIS_CODE":"DIS_CODE","TOWNNAME":"TOWNNAME","LI":"LI","LIN":"LIN","STREET":"STREET","SECT":"SECT","MAREA":"MAREA","LANE":"LANE","ALLEY":"ALLEY","HOUSE_NO":"HOUSE_NO","E_COORD97":"E_COORD97","N_COORD97":"N_COORD97","ADDRESS":"ADDRESS","OBJECTID":"OBJECTID"},"geometryType":"esriGeometryPoint","spatialReference":{"wkid":102443,"latestWkid":3826},"fields":[{"name":"ID","type":"esriFieldTypeDouble","alias":"ID"},{"name":"DIS_CODE","type":"esriFieldTypeInteger","alias":"DIS_CODE"},{"name":"TOWNNAME","type":"esriFieldTypeString","alias":"TOWNNAME","length":8},{"name":"LI","type":"esriFieldTypeString","alias":"LI","length":8},{"name":"LIN","type":"esriFieldTypeString","alias":"LIN","length":12},{"name":"STREET","type":"esriFieldTypeString","alias":"STREET","length":20},{"name":"SECT","type":"esriFieldTypeString","alias":"SECT","length":8},{"name":"MAREA","type":"esriFieldTypeString","alias":"MAREA","length":12},{"name":"LANE","type":"esriFieldTypeString","alias":"LANE","length":10},{"name":"ALLEY","type":"esriFieldTypeString","alias":"ALLEY","length":10},{"name":"HOUSE_NO","type":"esriFieldTypeString","alias":"HOUSE_NO","length":20},{"name":"E_COORD97","type":"esriFieldTypeDouble","alias":"E_COORD97"},{"name":"N_COORD97","type":"esriFieldTypeDouble","alias":"N_COORD97"},{"name":"ADDRESS","type":"esriFieldTypeString","alias":"ADDRESS","length":50},{"name":"OBJECTID","type":"esriFieldTypeOID","alias":"OBJECTID"}],"features":[{"attributes":{"ID":562628,"DIS_CODE":0,"TOWNNAME":"南區","LI":"新生里","LIN":"9鄰","STREET":"大同路","SECT":"二段","MAREA":" ","LANE":" ","ALLEY":" ","HOUSE_NO":"１５４號十樓之５","E_COORD97":169319.62,"N_COORD97":2542092.7799999998,"ADDRESS":"大同路二段１５４號十樓之５","OBJECTID":562601},"geometry":{"x":169319.62000000197,"y":2542092.7800000031}},{"attributes":{"ID":562629,"DIS_CODE":0,"TOWNNAME":"南區","LI":"新生里","LIN":"9鄰","STREET":"大同路","SECT":"二段","MAREA":" ","LANE":" ","ALLEY":" ","HOUSE_NO":"１５４號十一樓之１","E_COORD97":169319.62,"N_COORD97":2542092.7799999998,"ADDRESS":"大同路二段１５４號十一樓之１","OBJECTID":562602},"geometry":{"x":169319.62000000197,"y":2542092.7800000031}},{"attributes":{"ID":562630,"DIS_CODE":0,"TOWNNAME":"南區","LI":"新生里","LIN":"9鄰","STREET":"大同路","SECT":"二段","MAREA":" ","LANE":" ","ALLEY":" ","HOUSE_NO":"１５４號十一樓之２","E_COORD97":169319.62,"N_COORD97":2542092.7799999998,"ADDRESS":"大同路二段１５４號十一樓之２","OBJECTID":562603},"geometry":{"x":169319.62000000197,"y":2542092.7800000031}},{"attributes":{"ID":562631,"DIS_CODE":0,"TOWNNAME":"南區","LI":"新生里","LIN":"9鄰","STREET":"大同路","SECT":"二段","MAREA":" ","LANE":" ","ALLEY":" ","HOUSE_NO":"１５４號十一樓之３","E_COORD97":169319.62,"N_COORD97":2542092.7799999998,"ADDRESS":"大同路二段１５４號十一樓之３","OBJECTID":562604},"geometry":{"x":169319.62000000197,"y":2542092.7800000031}},{"attributes":{"ID":562632,"DIS_CODE":0,"TOWNNAME":"南區","LI":"新生里","LIN":"9鄰","STREET":"大同路","SECT":"二段","MAREA":" ","LANE":" ","ALLEY":" ","HOUSE_NO":"１５４號十一樓之５","E_COORD97":169319.62,"N_COORD97":2542092.7799999998,"ADDRESS":"大同路二段１５４號十一樓之５","OBJECTID":562605},"geometry":{"x":169319.62000000197,"y":2542092.7800000031}},{"attributes":{"ID":562633,"DIS_CODE":0,"TOWNNAME":"南區","LI":"新生里","LIN":"9鄰","STREET":"大同路","SECT":"二段","MAREA":" ","LANE":" ","ALLEY":" ","HOUSE_NO":"１５４號十二樓之１","E_COORD97":169319.62,"N_COORD97":2542092.7799999998,"ADDRESS":"大同路二段１５４號十二樓之１","OBJECTID":562606},"geometry":{"x":169319.62000000197,"y":2542092.7800000031}},{"attributes":{"ID":562634,"DIS_CODE":0,"TOWNNAME":"南區","LI":"新生里","LIN":"9鄰","STREET":"大同路","SECT":"二段","MAREA":" ","LANE":" ","ALLEY":" ","HOUSE_NO":"１５４號十二樓之２","E_COORD97":169319.62,"N_COORD97":2542092.7799999998,"ADDRESS":"大同路二段１５４號十二樓之２","OBJECTID":562607},"geometry":{"x":169319.62000000197,"y":2542092.7800000031}},{"attributes":{"ID":562635,"DIS_CODE":0,"TOWNNAME":"南區","LI":"新生里","LIN":"9鄰","STREET":"大同路","SECT":"二段","MAREA":" ","LANE":" ","ALLEY":" ","HOUSE_NO":"１５４號十二樓之３","E_COORD97":169319.62,"N_COORD97":2542092.7799999998,"ADDRESS":"大同路二段１５４號十二樓之３","OBJECTID":562608},"geometry":{"x":169319.62000000197,"y":2542092.7800000031}},{"attributes":{"ID":562636,"DIS_CODE":0,"TOWNNAME":"南區","LI":"新生里","LIN":"9鄰","STREET":"大同路","SECT":"二段","MAREA":" ","LANE":" ","ALLEY":" ","HOUSE_NO":"１５４號十二樓之５","E_COORD97":169319.62,"N_COORD97":2542092.7799999998,"ADDRESS":"大同路二段１５４號十二樓之５","OBJECTID":562609},"geometry":{"x":169319.62000000197,"y":2542092.7800000031}},{"attributes":{"ID":562637,"DIS_CODE":0,"TOWNNAME":"南區","LI":"新生里","LIN":"9鄰","STREET":"大同路","SECT":"二段","MAREA":" ","LANE":" ","ALLEY":" ","HOUSE_NO":"１５４號四樓之１","E_COORD97":169319.62,"N_COORD97":2542092.7799999998,"ADDRESS":"大同路二段１５４號四樓之１","OBJECTID":562610},"geometry":{"x":169319.62000000197,"y":2542092.7800000031}},{"attributes":{"ID":562638,"DIS_CODE":0,"TOWNNAME":"南區","LI":"新生里","LIN":"9鄰","STREET":"大同路","SECT":"二段","MAREA":" ","LANE":" ","ALLEY":" ","HOUSE_NO":"１５４號四樓之２","E_COORD97":169319.62,"N_COORD97":2542092.7799999998,"ADDRESS":"大同路二段１５４號四樓之２","OBJECTID":562611},"geometry":{"x":169319.62000000197,"y":2542092.7800000031}},{"attributes":{"ID":562639,"DIS_CODE":0,"TOWNNAME":"南區","LI":"新生里","LIN":"9鄰","STREET":"大同路","SECT":"二段","MAREA":" ","LANE":" ","ALLEY":" ","HOUSE_NO":"１５４號四樓之３","E_COORD97":169319.62,"N_COORD97":2542092.7799999998,"ADDRESS":"大同路二段１５４號四樓之３","OBJECTID":562612},"geometry":{"x":169319.62000000197,"y":2542092.7800000031}},{"attributes":{"ID":562640,"DIS_CODE":0,"TOWNNAME":"南區","LI":"新生里","LIN":"9鄰","STREET":"大同路","SECT":"二段","MAREA":" ","LANE":" ","ALLEY":" ","HOUSE_NO":"１５４號四樓之５","E_COORD97":169319.62,"N_COORD97":2542092.7799999998,"ADDRESS":"大同路二段１５４號四樓之５","OBJECTID":562613},"geometry":{"x":169319.62000000197,"y":2542092.7800000031}},{"attributes":{"ID":562641,"DIS_CODE":0,"TOWNNAME":"南區","LI":"新生里","LIN":"9鄰","STREET":"大同路","SECT":"二段","MAREA":" ","LANE":" ","ALLEY":" ","HOUSE_NO":"１５４號五樓之１","E_COORD97":169319.62,"N_COORD97":2542092.7799999998,"ADDRESS":"大同路二段１５４號五樓之１","OBJECTID":562614},"geometry":{"x":169319.62000000197,"y":2542092.7800000031}},{"attributes":{"ID":562642,"DIS_CODE":0,"TOWNNAME":"南區","LI":"新生里","LIN":"9鄰","STREET":"大同路","SECT":"二段","MAREA":" ","LANE":" ","ALLEY":" ","HOUSE_NO":"１５４號五樓之２","E_COORD97":169319.62,"N_COORD97":2542092.7799999998,"ADDRESS":"大同路二段１５４號五樓之２","OBJECTID":562615},"geometry":{"x":169319.62000000197,"y":2542092.7800000031}},{"attributes":{"ID":562643,"DIS_CODE":0,"TOWNNAME":"南區","LI":"新生里","LIN":"9鄰","STREET":"大同路","SECT":"二段","MAREA":" ","LANE":" ","ALLEY":" ","HOUSE_NO":"１５４號五樓之３","E_COORD97":169319.62,"N_COORD97":2542092.7799999998,"ADDRESS":"大同路二段１５４號五樓之３","OBJECTID":562616},"geometry":{"x":169319.62000000197,"y":2542092.7800000031}},{"attributes":{"ID":562644,"DIS_CODE":0,"TOWNNAME":"南區","LI":"新生里","LIN":"9鄰","STREET":"大同路","SECT":"二段","MAREA":" ","LANE":" ","ALLEY":" ","HOUSE_NO":"１５４號五樓之５","E_COORD97":169319.62,"N_COORD97":2542092.7799999998,"ADDRESS":"大同路二段１５４號五樓之５","OBJECTID":562617},"geometry":{"x":169319.62000000197,"y":2542092.7800000031}},{"attributes":{"ID":562645,"DIS_CODE":0,"TOWNNAME":"南區","LI":"新生里","LIN":"9鄰","STREET":"大同路","SECT":"二段","MAREA":" ","LANE":" ","ALLEY":" ","HOUSE_NO":"１５４號六樓之１","E_COORD97":169319.62,"N_COORD97":2542092.7799999998,"ADDRESS":"大同路二段１５４號六樓之１","OBJECTID":562618},"geometry":{"x":169319.62000000197,"y":2542092.7800000031}},{"attributes":{"ID":562646,"DIS_CODE":0,"TOWNNAME":"南區","LI":"新生里","LIN":"9鄰","STREET":"大同路","SECT":"二段","MAREA":" ","LANE":" ","ALLEY":" ","HOUSE_NO":"１５４號六樓之２","E_COORD97":169319.62,"N_COORD97":2542092.7799999998,"ADDRESS":"大同路二段１５４號六樓之２","OBJECTID":562619},"geometry":{"x":169319.62000000197,"y":2542092.7800000031}},{"attributes":{"ID":562647,"DIS_CODE":0,"TOWNNAME":"南區","LI":"新生里","LIN":"9鄰","STREET":"大同路","SECT":"二段","MAREA":" ","LANE":" ","ALLEY":" ","HOUSE_NO":"１５４號六樓之３","E_COORD97":169319.62,"N_COORD97":2542092.7799999998,"ADDRESS":"大同路二段１５４號六樓之３","OBJECTID":562620},"geometry":{"x":169319.62000000197,"y":2542092.7800000031}},{"attributes":{"ID":562648,"DIS_CODE":0,"TOWNNAME":"南區","LI":"新生里","LIN":"9鄰","STREET":"大同路","SECT":"二段","MAREA":" ","LANE":" ","ALLEY":" ","HOUSE_NO":"１５４號六樓之５","E_COORD97":169319.62,"N_COORD97":2542092.7799999998,"ADDRESS":"大同路二段１５４號六樓之５","OBJECTID":562621},"geometry":{"x":169319.62000000197,"y":2542092.7800000031}},{"attributes":{"ID":562649,"DIS_CODE":0,"TOWNNAME":"南區","LI":"新生里","LIN":"9鄰","STREET":"大同路","SECT":"二段","MAREA":" ","LANE":" ","ALLEY":" ","HOUSE_NO":"１５４號七樓之１","E_COORD97":169319.62,"N_COORD97":2542092.7799999998,"ADDRESS":"大同路二段１５４號七樓之１","OBJECTID":562622},"geometry":{"x":169319.62000000197,"y":2542092.7800000031}},{"attributes":{"ID":562650,"DIS_CODE":0,"TOWNNAME":"南區","LI":"新生里","LIN":"9鄰","STREET":"大同路","SECT":"二段","MAREA":" ","LANE":" ","ALLEY":" ","HOUSE_NO":"１５４號七樓之２","E_COORD97":169319.62,"N_COORD97":2542092.7799999998,"ADDRESS":"大同路二段１５４號七樓之２","OBJECTID":562623},"geometry":{"x":169319.62000000197,"y":2542092.7800000031}},{"attributes":{"ID":562651,"DIS_CODE":0,"TOWNNAME":"南區","LI":"新生里","LIN":"9鄰","STREET":"大同路","SECT":"二段","MAREA":" ","LANE":" ","ALLEY":" ","HOUSE_NO":"１５４號七樓之３","E_COORD97":169319.62,"N_COORD97":2542092.7799999998,"ADDRESS":"大同路二段１５４號七樓之３","OBJECTID":562624},"geometry":{"x":169319.62000000197,"y":2542092.7800000031}},{"attributes":{"ID":562652,"DIS_CODE":0,"TOWNNAME":"南區","LI":"新生里","LIN":"9鄰","STREET":"大同路","SECT":"二段","MAREA":" ","LANE":" ","ALLEY":" ","HOUSE_NO":"１５４號七樓之５","E_COORD97":169319.62,"N_COORD97":2542092.7799999998,"ADDRESS":"大同路二段１５４號七樓之５","OBJECTID":562625},"geometry":{"x":169319.62000000197,"y":2542092.7800000031}},{"attributes":{"ID":562653,"DIS_CODE":0,"TOWNNAME":"南區","LI":"新生里","LIN":"9鄰","STREET":"大同路","SECT":"二段","MAREA":" ","LANE":" ","ALLEY":" ","HOUSE_NO":"１５４號八樓之１","E_COORD97":169319.62,"N_COORD97":2542092.7799999998,"ADDRESS":"大同路二段１５４號八樓之１","OBJECTID":562626},"geometry":{"x":169319.62000000197,"y":2542092.7800000031}},{"attributes":{"ID":562654,"DIS_CODE":0,"TOWNNAME":"南區","LI":"新生里","LIN":"9鄰","STREET":"大同路","SECT":"二段","MAREA":" ","LANE":" ","ALLEY":" ","HOUSE_NO":"１５４號八樓之２","E_COORD97":169319.62,"N_COORD97":2542092.7799999998,"ADDRESS":"大同路二段１５４號八樓之２","OBJECTID":562627},"geometry":{"x":169319.62000000197,"y":2542092.7800000031}},{"attributes":{"ID":562655,"DIS_CODE":0,"TOWNNAME":"南區","LI":"新生里","LIN":"9鄰","STREET":"大同路","SECT":"二段","MAREA":" ","LANE":" ","ALLEY":" ","HOUSE_NO":"１５４號八樓之３","E_COORD97":169319.62,"N_COORD97":2542092.7799999998,"ADDRESS":"大同路二段１５４號八樓之３","OBJECTID":562628},"geometry":{"x":169319.62000000197,"y":2542092.7800000031}},{"attributes":{"ID":562656,"DIS_CODE":0,"TOWNNAME":"南區","LI":"新生里","LIN":"9鄰","STREET":"大同路","SECT":"二段","MAREA":" ","LANE":" ","ALLEY":" ","HOUSE_NO":"１５４號八樓之５","E_COORD97":169319.62,"N_COORD97":2542092.7799999998,"ADDRESS":"大同路二段１５４號八樓之５","OBJECTID":562629},"geometry":{"x":169319.62000000197,"y":2542092.7800000031}},{"attributes":{"ID":562657,"DIS_CODE":0,"TOWNNAME":"南區","LI":"新生里","LIN":"9鄰","STREET":"大同路","SECT":"二段","MAREA":" ","LANE":" ","ALLEY":" ","HOUSE_NO":"１５４號九樓之１","E_COORD97":169319.62,"N_COORD97":2542092.7799999998,"ADDRESS":"大同路二段１５４號九樓之１","OBJECTID":562630},"geometry":{"x":169319.62000000197,"y":2542092.7800000031}},{"attributes":{"ID":562658,"DIS_CODE":0,"TOWNNAME":"南區","LI":"新生里","LIN":"9鄰","STREET":"大同路","SECT":"二段","MAREA":" ","LANE":" ","ALLEY":" ","HOUSE_NO":"１５４號九樓之２","E_COORD97":169319.62,"N_COORD97":2542092.7799999998,"ADDRESS":"大同路二段１５４號九樓之２","OBJECTID":562631},"geometry":{"x":169319.62000000197,"y":2542092.7800000031}},{"attributes":{"ID":562659,"DIS_CODE":0,"TOWNNAME":"南區","LI":"新生里","LIN":"9鄰","STREET":"大同路","SECT":"二段","MAREA":" ","LANE":" ","ALLEY":" ","HOUSE_NO":"１５４號九樓之３","E_COORD97":169319.62,"N_COORD97":2542092.7799999998,"ADDRESS":"大同路二段１５４號九樓之３","OBJECTID":562632},"geometry":{"x":169319.62000000197,"y":2542092.7800000031}},{"attributes":{"ID":562660,"DIS_CODE":0,"TOWNNAME":"南區","LI":"新生里","LIN":"9鄰","STREET":"大同路","SECT":"二段","MAREA":" ","LANE":" ","ALLEY":" ","HOUSE_NO":"１５４號九樓之５","E_COORD97":169319.62,"N_COORD97":2542092.7799999998,"ADDRESS":"大同路二段１５４號九樓之５","OBJECTID":562633},"geometry":{"x":169319.62000000197,"y":2542092.7800000031}},{"attributes":{"ID":562661,"DIS_CODE":0,"TOWNNAME":"南區","LI":"新生里","LIN":"9鄰","STREET":"大同路","SECT":"二段","MAREA":" ","LANE":" ","ALLEY":" ","HOUSE_NO":"１５４號十樓之１","E_COORD97":169319.62,"N_COORD97":2542092.7799999998,"ADDRESS":"大同路二段１５４號十樓之１","OBJECTID":562634},"geometry":{"x":169319.62000000197,"y":2542092.7800000031}},{"attributes":{"ID":562662,"DIS_CODE":0,"TOWNNAME":"南區","LI":"新生里","LIN":"9鄰","STREET":"大同路","SECT":"二段","MAREA":" ","LANE":" ","ALLEY":" ","HOUSE_NO":"１５４號十樓之２","E_COORD97":169319.62,"N_COORD97":2542092.7799999998,"ADDRESS":"大同路二段１５４號十樓之２","OBJECTID":562635},"geometry":{"x":169319.62000000197,"y":2542092.7800000031}},{"attributes":{"ID":562663,"DIS_CODE":0,"TOWNNAME":"南區","LI":"新生里","LIN":"9鄰","STREET":"大同路","SECT":"二段","MAREA":" ","LANE":" ","ALLEY":" ","HOUSE_NO":"１５４號十樓之３","E_COORD97":169319.62,"N_COORD97":2542092.7799999998,"ADDRESS":"大同路二段１５４號十樓之３","OBJECTID":562636},"geometry":{"x":169319.62000000197,"y":2542092.7800000031}},{"attributes":{"ID":562664,"DIS_CODE":0,"TOWNNAME":"仁德區","LI":"仁義里","LIN":"4鄰","STREET":"仁義三街","SECT":" ","MAREA":" ","LANE":" ","ALLEY":" ","HOUSE_NO":"１９３之１號","E_COORD97":173860.42000000001,"N_COORD97":2541127.0499999998,"ADDRESS":"仁義三街１９３之１號","OBJECTID":562637},"geometry":{"x":173860.42000000179,"y":2541127.0500000026}},{"attributes":{"ID":562665,"DIS_CODE":0,"TOWNNAME":"仁德區","LI":"仁德里","LIN":"32鄰","STREET":"中山路","SECT":" ","MAREA":" ","LANE":" ","ALLEY":" ","HOUSE_NO":"６１８號","E_COORD97":173199.41,"N_COORD97":2541369,"ADDRESS":"中山路６１８號","OBJECTID":562638},"geometry":{"x":173199.41000000015,"y":2541369}},{"attributes":{"ID":562666,"DIS_CODE":0,"TOWNNAME":"仁德區","LI":"仁德里","LIN":"24鄰","STREET":"文孝路","SECT":" ","MAREA":" ","LANE":" ","ALLEY":" ","HOUSE_NO":"９５號","E_COORD97":172038.03,"N_COORD97":2541410.8199999998,"ADDRESS":"文孝路９５號","OBJECTID":562639},"geometry":{"x":172038.03000000119,"y":2541410.8200000003}},{"attributes":{"ID":562667,"DIS_CODE":0,"TOWNNAME":"仁德區","LI":"仁義里","LIN":"40鄰","STREET":"仁義五街","SECT":" ","MAREA":" ","LANE":" ","ALLEY":" ","HOUSE_NO":"２５號","E_COORD97":173551.26000000001,"N_COORD97":2540443.52,"ADDRESS":"仁義五街２５號","OBJECTID":562640},"geometry":{"x":173551.26000000164,"y":2540443.5200000033}},{"attributes":{"ID":562668,"DIS_CODE":0,"TOWNNAME":"東區","LI":"圍下里","LIN":"14鄰","STREET":"前鋒路","SECT":" ","MAREA":" ","LANE":" ","ALLEY":" ","HOUSE_NO":"８９號","E_COORD97":169299.07000000001,"N_COORD97":2543628.4900000002,"ADDRESS":"前鋒路８９號","OBJECTID":562641},"geometry":{"x":169299.0700000003,"y":2543628.4900000021}},{"attributes":{"ID":562669,"DIS_CODE":0,"TOWNNAME":"東區","LI":"東安里","LIN":"16鄰","STREET":"衛國街","SECT":" ","MAREA":" ","LANE":" ","ALLEY":" ","HOUSE_NO":"１號之１","E_COORD97":170226.03,"N_COORD97":2542944.3500000001,"ADDRESS":"衛國街１號之１","OBJECTID":562642},"geometry":{"x":170226.03000000119,"y":2542944.3500000015}},{"attributes":{"ID":562670,"DIS_CODE":0,"TOWNNAME":"新營區","LI":"永生里","LIN":"9鄰","STREET":"康樂街","SECT":" ","MAREA":" ","LANE":" ","ALLEY":" ","HOUSE_NO":"７號四樓","E_COORD97":180049.14999999999,"N_COORD97":2577913.5699999998,"ADDRESS":"康樂街７號四樓","OBJECTID":562643},"geometry":{"x":180049.1500000013,"y":2577913.5700000003}},{"attributes":{"ID":562671,"DIS_CODE":0,"TOWNNAME":"安平區","LI":"文平里","LIN":"9鄰","STREET":"建平七街","SECT":" ","MAREA":" ","LANE":" ","ALLEY":" ","HOUSE_NO":"２３０號三樓之７","E_COORD97":165990.98000000001,"N_COORD97":2543285.3100000001,"ADDRESS":"建平七街２３０號三樓之７","OBJECTID":562644},"geometry":{"x":165990.98000000045,"y":2543285.3100000005}},{"attributes":{"ID":562672,"DIS_CODE":0,"TOWNNAME":"安平區","LI":"文平里","LIN":"9鄰","STREET":"建平七街","SECT":" ","MAREA":" ","LANE":" ","ALLEY":" ","HOUSE_NO":"２３０號三樓之８","E_COORD97":165990.98000000001,"N_COORD97":2543285.3100000001,"ADDRESS":"建平七街２３０號三樓之８","OBJECTID":562645},"geometry":{"x":165990.98000000045,"y":2543285.3100000005}},{"attributes":{"ID":562673,"DIS_CODE":0,"TOWNNAME":"安平區","LI":"文平里","LIN":"9鄰","STREET":"建平七街","SECT":" ","MAREA":" ","LANE":" ","ALLEY":" ","HOUSE_NO":"２３０號三樓之９","E_COORD97":165990.98000000001,"N_COORD97":2543285.3100000001,"ADDRESS":"建平七街２３０號三樓之９","OBJECTID":562646},"geometry":{"x":165990.98000000045,"y":2543285.3100000005}},{"attributes":{"ID":562674,"DIS_CODE":0,"TOWNNAME":"安平區","LI":"文平里","LIN":"9鄰","STREET":"建平七街","SECT":" ","MAREA":" ","LANE":" ","ALLEY":" ","HOUSE_NO":"２３０號五樓之１","E_COORD97":165990.98000000001,"N_COORD97":2543285.3100000001,"ADDRESS":"建平七街２３０號五樓之１","OBJECTID":562647},"geometry":{"x":165990.98000000045,"y":2543285.3100000005}},{"attributes":{"ID":562675,"DIS_CODE":0,"TOWNNAME":"安平區","LI":"文平里","LIN":"9鄰","STREET":"建平七街","SECT":" ","MAREA":" ","LANE":" ","ALLEY":" ","HOUSE_NO":"２３０號五樓之１０","E_COORD97":165990.98000000001,"N_COORD97":2543285.3100000001,"ADDRESS":"建平七街２３０號五樓之１０","OBJECTID":562648},"geometry":{"x":165990.98000000045,"y":2543285.3100000005}},{"attributes":{"ID":562676,"DIS_CODE":0,"TOWNNAME":"安平區","LI":"文平里","LIN":"9鄰","STREET":"建平七街","SECT":" ","MAREA":" ","LANE":" ","ALLEY":" ","HOUSE_NO":"２３０號五樓之２","E_COORD97":165990.98000000001,"N_COORD97":2543285.3100000001,"ADDRESS":"建平七街２３０號五樓之２","OBJECTID":562649},"geometry":{"x":165990.98000000045,"y":2543285.3100000005}},{"attributes":{"ID":562677,"DIS_CODE":0,"TOWNNAME":"安平區","LI":"文平里","LIN":"9鄰","STREET":"建平七街","SECT":" ","MAREA":" ","LANE":" ","ALLEY":" ","HOUSE_NO":"２３０號五樓之３","E_COORD97":165990.98000000001,"N_COORD97":2543285.3100000001,"ADDRESS":"建平七街２３０號五樓之３","OBJECTID":562650},"geometry":{"x":165990.98000000045,"y":2543285.3100000005}},{"attributes":{"ID":562678,"DIS_CODE":0,"TOWNNAME":"安平區","LI":"文平里","LIN":"9鄰","STREET":"建平七街","SECT":" ","MAREA":" ","LANE":" ","ALLEY":" ","HOUSE_NO":"２３０號五樓之４","E_COORD97":165990.98000000001,"N_COORD97":2543285.3100000001,"ADDRESS":"建平七街２３０號五樓之４","OBJECTID":562651},"geometry":{"x":165990.98000000045,"y":2543285.3100000005}},{"attributes":{"ID":562679,"DIS_CODE":0,"TOWNNAME":"安平區","LI":"文平里","LIN":"9鄰","STREET":"建平七街","SECT":" ","MAREA":" ","LANE":" ","ALLEY":" ","HOUSE_NO":"２３０號五樓之５","E_COORD97":165990.98000000001,"N_COORD97":2543285.3100000001,"ADDRESS":"建平七街２３０號五樓之５","OBJECTID":562652},"geometry":{"x":165990.98000000045,"y":2543285.3100000005}},{"attributes":{"ID":562680,"DIS_CODE":0,"TOWNNAME":"安平區","LI":"文平里","LIN":"9鄰","STREET":"建平七街","SECT":" ","MAREA":" ","LANE":" ","ALLEY":" ","HOUSE_NO":"２３０號五樓之６","E_COORD97":165990.98000000001,"N_COORD97":2543285.3100000001,"ADDRESS":"建平七街２３０號五樓之６","OBJECTID":562653},"geometry":{"x":165990.98000000045,"y":2543285.3100000005}},{"attributes":{"ID":562681,"DIS_CODE":0,"TOWNNAME":"安平區","LI":"文平里","LIN":"9鄰","STREET":"建平七街","SECT":" ","MAREA":" ","LANE":" ","ALLEY":" ","HOUSE_NO":"２３０號五樓之７","E_COORD97":165990.98000000001,"N_COORD97":2543285.3100000001,"ADDRESS":"建平七街２３０號五樓之７","OBJECTID":562654},"geometry":{"x":165990.98000000045,"y":2543285.3100000005}},{"attributes":{"ID":562682,"DIS_CODE":0,"TOWNNAME":"安平區","LI":"文平里","LIN":"9鄰","STREET":"建平七街","SECT":" ","MAREA":" ","LANE":" ","ALLEY":" ","HOUSE_NO":"２３０號五樓之８","E_COORD97":165990.98000000001,"N_COORD97":2543285.3100000001,"ADDRESS":"建平七街２３０號五樓之８","OBJECTID":562655},"geometry":{"x":165990.98000000045,"y":2543285.3100000005}},{"attributes":{"ID":562683,"DIS_CODE":0,"TOWNNAME":"安平區","LI":"文平里","LIN":"9鄰","STREET":"建平七街","SECT":" ","MAREA":" ","LANE":" ","ALLEY":" ","HOUSE_NO":"２３０號五樓之９","E_COORD97":165990.98000000001,"N_COORD97":2543285.3100000001,"ADDRESS":"建平七街２３０號五樓之９","OBJECTID":562656},"geometry":{"x":165990.98000000045,"y":2543285.3100000005}},{"attributes":{"ID":562684,"DIS_CODE":0,"TOWNNAME":"安平區","LI":"文平里","LIN":"9鄰","STREET":"建平七街","SECT":" ","MAREA":" ","LANE":" ","ALLEY":" ","HOUSE_NO":"２３０號六樓之１","E_COORD97":165990.98000000001,"N_COORD97":2543285.3100000001,"ADDRESS":"建平七街２３０號六樓之１","OBJECTID":562657},"geometry":{"x":165990.98000000045,"y":2543285.3100000005}},{"attributes":{"ID":562685,"DIS_CODE":0,"TOWNNAME":"安平區","LI":"文平里","LIN":"9鄰","STREET":"建平七街","SECT":" ","MAREA":" ","LANE":" ","ALLEY":" ","HOUSE_NO":"２３０號六樓之１０","E_COORD97":165990.98000000001,"N_COORD97":2543285.3100000001,"ADDRESS":"建平七街２３０號六樓之１０","OBJECTID":562658},"geometry":{"x":165990.98000000045,"y":2543285.3100000005}},{"attributes":{"ID":562686,"DIS_CODE":0,"TOWNNAME":"安平區","LI":"文平里","LIN":"9鄰","STREET":"建平七街","SECT":" ","MAREA":" ","LANE":" ","ALLEY":" ","HOUSE_NO":"２３０號六樓之２","E_COORD97":165990.98000000001,"N_COORD97":2543285.3100000001,"ADDRESS":"建平七街２３０號六樓之２","OBJECTID":562659},"geometry":{"x":165990.98000000045,"y":2543285.3100000005}},{"attributes":{"ID":562687,"DIS_CODE":0,"TOWNNAME":"仁德區","LI":"太子里","LIN":"32鄰","STREET":"太子三街","SECT":" ","MAREA":" ","LANE":" ","ALLEY":" ","HOUSE_NO":"２４號","E_COORD97":173964.42999999999,"N_COORD97":2543450.7599999998,"ADDRESS":"太子三街２４號","OBJECTID":562660},"geometry":{"x":173964.4299999997,"y":2543450.7600000016}},{"attributes":{"ID":562688,"DIS_CODE":0,"TOWNNAME":"安平區","LI":"文平里","LIN":"9鄰","STREET":"建平七街","SECT":" ","MAREA":" ","LANE":" ","ALLEY":" ","HOUSE_NO":"２３０號六樓之３","E_COORD97":165990.98000000001,"N_COORD97":2543285.3100000001,"ADDRESS":"建平七街２３０號六樓之３","OBJECTID":562661},"geometry":{"x":165990.98000000045,"y":2543285.3100000005}},{"attributes":{"ID":562689,"DIS_CODE":0,"TOWNNAME":"東區","LI":"崇成里","LIN":"9鄰","STREET":"崇德十三街","SECT":" ","MAREA":" ","LANE":" ","ALLEY":" ","HOUSE_NO":"６０號","E_COORD97":170996.47,"N_COORD97":2541285.8300000001,"ADDRESS":"崇德十三街６０號","OBJECTID":562662},"geometry":{"x":170996.46999999974,"y":2541285.8299999982}},{"attributes":{"ID":562690,"DIS_CODE":0,"TOWNNAME":"安平區","LI":"文平里","LIN":"9鄰","STREET":"建平七街","SECT":" ","MAREA":" ","LANE":" ","ALLEY":" ","HOUSE_NO":"２３０號六樓之４","E_COORD97":165990.98000000001,"N_COORD97":2543285.3100000001,"ADDRESS":"建平七街２３０號六樓之４","OBJECTID":562663},"geometry":{"x":165990.98000000045,"y":2543285.3100000005}},{"attributes":{"ID":562691,"DIS_CODE":0,"TOWNNAME":"安平區","LI":"文平里","LIN":"9鄰","STREET":"建平七街","SECT":" ","MAREA":" ","LANE":" ","ALLEY":" ","HOUSE_NO":"２３０號六樓之５","E_COORD97":165990.98000000001,"N_COORD97":2543285.3100000001,"ADDRESS":"建平七街２３０號六樓之５","OBJECTID":562664},"geometry":{"x":165990.98000000045,"y":2543285.3100000005}},{"attributes":{"ID":562692,"DIS_CODE":0,"TOWNNAME":"安平區","LI":"文平里","LIN":"9鄰","STREET":"建平七街","SECT":" ","MAREA":" ","LANE":" ","ALLEY":" ","HOUSE_NO":"２３０號六樓之６","E_COORD97":165990.98000000001,"N_COORD97":2543285.3100000001,"ADDRESS":"建平七街２３０號六樓之６","OBJECTID":562665},"geometry":{"x":165990.98000000045,"y":2543285.3100000005}},{"attributes":{"ID":562693,"DIS_CODE":0,"TOWNNAME":"安平區","LI":"文平里","LIN":"9鄰","STREET":"建平七街","SECT":" ","MAREA":" ","LANE":" ","ALLEY":" ","HOUSE_NO":"２３０號六樓之７","E_COORD97":165990.98000000001,"N_COORD97":2543285.3100000001,"ADDRESS":"建平七街２３０號六樓之７","OBJECTID":562666},"geometry":{"x":165990.98000000045,"y":2543285.3100000005}},{"attributes":{"ID":562694,"DIS_CODE":0,"TOWNNAME":"安平區","LI":"文平里","LIN":"9鄰","STREET":"建平七街","SECT":" ","MAREA":" ","LANE":" ","ALLEY":" ","HOUSE_NO":"２３０號六樓之８","E_COORD97":165990.98000000001,"N_COORD97":2543285.3100000001,"ADDRESS":"建平七街２３０號六樓之８","OBJECTID":562667},"geometry":{"x":165990.98000000045,"y":2543285.3100000005}},{"attributes":{"ID":562695,"DIS_CODE":0,"TOWNNAME":"安平區","LI":"文平里","LIN":"9鄰","STREET":"建平七街","SECT":" ","MAREA":" ","LANE":" ","ALLEY":" ","HOUSE_NO":"２３０號六樓之９","E_COORD97":165990.98000000001,"N_COORD97":2543285.3100000001,"ADDRESS":"建平七街２３０號六樓之９","OBJECTID":562668},"geometry":{"x":165990.98000000045,"y":2543285.3100000005}},{"attributes":{"ID":562696,"DIS_CODE":0,"TOWNNAME":"安平區","LI":"文平里","LIN":"9鄰","STREET":"建平七街","SECT":" ","MAREA":" ","LANE":" ","ALLEY":" ","HOUSE_NO":"２３０號四樓之１","E_COORD97":165990.98000000001,"N_COORD97":2543285.3100000001,"ADDRESS":"建平七街２３０號四樓之１","OBJECTID":562669},"geometry":{"x":165990.98000000045,"y":2543285.3100000005}},{"attributes":{"ID":562697,"DIS_CODE":0,"TOWNNAME":"安平區","LI":"文平里","LIN":"9鄰","STREET":"建平七街","SECT":" ","MAREA":" ","LANE":" ","ALLEY":" ","HOUSE_NO":"２３０號四樓之１０","E_COORD97":165990.98000000001,"N_COORD97":2543285.3100000001,"ADDRESS":"建平七街２３０號四樓之１０","OBJECTID":562670},"geometry":{"x":165990.98000000045,"y":2543285.3100000005}},{"attributes":{"ID":562698,"DIS_CODE":0,"TOWNNAME":"安平區","LI":"文平里","LIN":"9鄰","STREET":"建平七街","SECT":" ","MAREA":" ","LANE":" ","ALLEY":" ","HOUSE_NO":"２３０號四樓之２","E_COORD97":165990.98000000001,"N_COORD97":2543285.3100000001,"ADDRESS":"建平七街２３０號四樓之２","OBJECTID":562671},"geometry":{"x":165990.98000000045,"y":2543285.3100000005}},{"attributes":{"ID":562699,"DIS_CODE":0,"TOWNNAME":"安平區","LI":"文平里","LIN":"9鄰","STREET":"建平七街","SECT":" ","MAREA":" ","LANE":" ","ALLEY":" ","HOUSE_NO":"２３０號四樓之３","E_COORD97":165990.98000000001,"N_COORD97":2543285.3100000001,"ADDRESS":"建平七街２３０號四樓之３","OBJECTID":562672},"geometry":{"x":165990.98000000045,"y":2543285.3100000005}},{"attributes":{"ID":562700,"DIS_CODE":0,"TOWNNAME":"安平區","LI":"文平里","LIN":"9鄰","STREET":"建平七街","SECT":" ","MAREA":" ","LANE":" ","ALLEY":" ","HOUSE_NO":"２３０號四樓之４","E_COORD97":165990.98000000001,"N_COORD97":2543285.3100000001,"ADDRESS":"建平七街２３０號四樓之４","OBJECTID":562673},"geometry":{"x":165990.98000000045,"y":2543285.3100000005}},{"attributes":{"ID":562701,"DIS_CODE":0,"TOWNNAME":"安平區","LI":"文平里","LIN":"9鄰","STREET":"建平七街","SECT":" ","MAREA":" ","LANE":" ","ALLEY":" ","HOUSE_NO":"２３０號四樓之５","E_COORD97":165990.98000000001,"N_COORD97":2543285.3100000001,"ADDRESS":"建平七街２３０號四樓之５","OBJECTID":562674},"geometry":{"x":165990.98000000045,"y":2543285.3100000005}},{"attributes":{"ID":562702,"DIS_CODE":0,"TOWNNAME":"安平區","LI":"文平里","LIN":"9鄰","STREET":"建平七街","SECT":" ","MAREA":" ","LANE":" ","ALLEY":" ","HOUSE_NO":"２３０號四樓之６","E_COORD97":165990.98000000001,"N_COORD97":2543285.3100000001,"ADDRESS":"建平七街２３０號四樓之６","OBJECTID":562675},"geometry":{"x":165990.98000000045,"y":2543285.3100000005}},{"attributes":{"ID":562703,"DIS_CODE":0,"TOWNNAME":"東區","LI":"大學里","LIN":"18鄰","STREET":"長榮路","SECT":"三段","MAREA":" ","LANE":" ","ALLEY":" ","HOUSE_NO":"５２號","E_COORD97":170219.31,"N_COORD97":2543760.4900000002,"ADDRESS":"長榮路三段５２號","OBJECTID":562676},"geometry":{"x":170219.30999999959,"y":2543760.4900000021}},{"attributes":{"ID":562704,"DIS_CODE":0,"TOWNNAME":"安平區","LI":"文平里","LIN":"9鄰","STREET":"建平七街","SECT":" ","MAREA":" ","LANE":" ","ALLEY":" ","HOUSE_NO":"２３０號四樓之７","E_COORD97":165990.98000000001,"N_COORD97":2543285.3100000001,"ADDRESS":"建平七街２３０號四樓之７","OBJECTID":562677},"geometry":{"x":165990.98000000045,"y":2543285.3100000005}},{"attributes":{"ID":562705,"DIS_CODE":0,"TOWNNAME":"安平區","LI":"文平里","LIN":"9鄰","STREET":"建平七街","SECT":" ","MAREA":" ","LANE":" ","ALLEY":" ","HOUSE_NO":"２３０號四樓之８","E_COORD97":165990.98000000001,"N_COORD97":2543285.3100000001,"ADDRESS":"建平七街２３０號四樓之８","OBJECTID":562678},"geometry":{"x":165990.98000000045,"y":2543285.3100000005}},{"attributes":{"ID":562706,"DIS_CODE":0,"TOWNNAME":"安平區","LI":"文平里","LIN":"9鄰","STREET":"建平七街","SECT":" ","MAREA":" ","LANE":" ","ALLEY":" ","HOUSE_NO":"２３０號四樓之９","E_COORD97":165990.98000000001,"N_COORD97":2543285.3100000001,"ADDRESS":"建平七街２３０號四樓之９","OBJECTID":562679},"geometry":{"x":165990.98000000045,"y":2543285.3100000005}},{"attributes":{"ID":562707,"DIS_CODE":0,"TOWNNAME":"安平區","LI":"文平里","LIN":"9鄰","STREET":"建平路","SECT":" ","MAREA":" ","LANE":" ","ALLEY":" ","HOUSE_NO":"２７９號二樓","E_COORD97":166148.42000000001,"N_COORD97":2543258.98,"ADDRESS":"建平路２７９號二樓","OBJECTID":562680},"geometry":{"x":166148.41999999993,"y":2543258.9800000023}},{"attributes":{"ID":562708,"DIS_CODE":0,"TOWNNAME":"安平區","LI":"文平里","LIN":"9鄰","STREET":"建平路","SECT":" ","MAREA":" ","LANE":" ","ALLEY":" ","HOUSE_NO":"２７９號三樓","E_COORD97":166148.42000000001,"N_COORD97":2543258.98,"ADDRESS":"建平路２７９號三樓","OBJECTID":562681},"geometry":{"x":166148.41999999993,"y":2543258.9800000023}},{"attributes":{"ID":562709,"DIS_CODE":0,"TOWNNAME":"安平區","LI":"文平里","LIN":"9鄰","STREET":"建平路","SECT":" ","MAREA":" ","LANE":" ","ALLEY":" ","HOUSE_NO":"２７９號四樓","E_COORD97":166148.42000000001,"N_COORD97":2543258.98,"ADDRESS":"建平路２７９號四樓","OBJECTID":562682},"geometry":{"x":166148.41999999993,"y":2543258.9800000023}},{"attributes":{"ID":562710,"DIS_CODE":0,"TOWNNAME":"安平區","LI":"文平里","LIN":"9鄰","STREET":"建平路","SECT":" ","MAREA":" ","LANE":" ","ALLEY":" ","HOUSE_NO":"２７９號五樓","E_COORD97":166148.42000000001,"N_COORD97":2543258.98,"ADDRESS":"建平路２７９號五樓","OBJECTID":562683},"geometry":{"x":166148.41999999993,"y":2543258.9800000023}},{"attributes":{"ID":562711,"DIS_CODE":0,"TOWNNAME":"安平區","LI":"文平里","LIN":"9鄰","STREET":"建平路","SECT":" ","MAREA":" ","LANE":" ","ALLEY":" ","HOUSE_NO":"２８１號三樓","E_COORD97":166150.76000000001,"N_COORD97":2543268.1000000001,"ADDRESS":"建平路２８１號三樓","OBJECTID":562684},"geometry":{"x":166150.76000000071,"y":2543268.1000000015}},{"attributes":{"ID":562712,"DIS_CODE":0,"TOWNNAME":"安平區","LI":"文平里","LIN":"9鄰","STREET":"建平路","SECT":" ","MAREA":" ","LANE":" ","ALLEY":" ","HOUSE_NO":"２８１號四樓","E_COORD97":166150.76000000001,"N_COORD97":2543268.1000000001,"ADDRESS":"建平路２８１號四樓","OBJECTID":562685},"geometry":{"x":166150.76000000071,"y":2543268.1000000015}},{"attributes":{"ID":562713,"DIS_CODE":0,"TOWNNAME":"安平區","LI":"文平里","LIN":"9鄰","STREET":"建平路","SECT":" ","MAREA":" ","LANE":" ","ALLEY":" ","HOUSE_NO":"２８１號五樓","E_COORD97":166150.76000000001,"N_COORD97":2543268.1000000001,"ADDRESS":"建平路２８１號五樓","OBJECTID":562686},"geometry":{"x":166150.76000000071,"y":2543268.1000000015}},{"attributes":{"ID":562714,"DIS_CODE":0,"TOWNNAME":"仁德區","LI":"仁義里","LIN":"36鄰","STREET":"勝利路","SECT":" ","MAREA":" ","LANE":" ","ALLEY":" ","HOUSE_NO":"９１號","E_COORD97":173685.56,"N_COORD97":2539884.0099999998,"ADDRESS":"勝利路９１號","OBJECTID":562687},"geometry":{"x":173685.55999999959,"y":2539884.0099999998}},{"attributes":{"ID":562715,"DIS_CODE":0,"TOWNNAME":"仁德區","LI":"仁德里","LIN":"32鄰","STREET":"中山路","SECT":" ","MAREA":" ","LANE":" ","ALLEY":" ","HOUSE_NO":"６２４號","E_COORD97":173178.07999999999,"N_COORD97":2541375.5,"ADDRESS":"中山路６２４號","OBJECTID":562688},"geometry":{"x":173178.08000000194,"y":2541375.5}},{"attributes":{"ID":562716,"DIS_CODE":0,"TOWNNAME":"仁德區","LI":"太子里","LIN":"32鄰","STREET":"太子三街","SECT":" ","MAREA":" ","LANE":" ","ALLEY":" ","HOUSE_NO":"２８號","E_COORD97":173960.51000000001,"N_COORD97":2543474.5,"ADDRESS":"太子三街２８號","OBJECTID":562689},"geometry":{"x":173960.51000000071,"y":2543474.5}},{"attributes":{"ID":562717,"DIS_CODE":0,"TOWNNAME":"仁德區","LI":"太子里","LIN":"9鄰","STREET":"太子路","SECT":" ","MAREA":" ","LANE":" ","ALLEY":" ","HOUSE_NO":"１５４號","E_COORD97":174416.04999999999,"N_COORD97":2543525.2599999998,"ADDRESS":"太子路１５４號","OBJECTID":562690},"geometry":{"x":174416.05000000075,"y":2543525.2600000016}},{"attributes":{"ID":562718,"DIS_CODE":0,"TOWNNAME":"南區","LI":"文南里","LIN":"9鄰","STREET":"健康路","SECT":"二段","MAREA":" ","LANE":" ","ALLEY":" ","HOUSE_NO":"２６８號二樓","E_COORD97":166951.32999999999,"N_COORD97":2542502.4199999999,"ADDRESS":"健康路二段２６８號二樓","OBJECTID":562691},"geometry":{"x":166951.33000000007,"y":2542502.4200000037}},{"attributes":{"ID":562719,"DIS_CODE":0,"TOWNNAME":"南區","LI":"文南里","LIN":"9鄰","STREET":"健康路","SECT":"二段","MAREA":" ","LANE":" ","ALLEY":" ","HOUSE_NO":"２６８號三樓","E_COORD97":166951.32999999999,"N_COORD97":2542502.4199999999,"ADDRESS":"健康路二段２６８號三樓","OBJECTID":562692},"geometry":{"x":166951.33000000007,"y":2542502.4200000037}},{"attributes":{"ID":562720,"DIS_CODE":0,"TOWNNAME":"南區","LI":"文南里","LIN":"9鄰","STREET":"健康路","SECT":"二段","MAREA":" ","LANE":" ","ALLEY":" ","HOUSE_NO":"２６８號四樓","E_COORD97":166951.32999999999,"N_COORD97":2542502.4199999999,"ADDRESS":"健康路二段２６８號四樓","OBJECTID":562693},"geometry":{"x":166951.33000000007,"y":2542502.4200000037}},{"attributes":{"ID":562721,"DIS_CODE":0,"TOWNNAME":"南區","LI":"文南里","LIN":"9鄰","STREET":"健康路","SECT":"二段","MAREA":" ","LANE":" ","ALLEY":" ","HOUSE_NO":"２６８號五樓","E_COORD97":166951.32999999999,"N_COORD97":2542502.4199999999,"ADDRESS":"健康路二段２６８號五樓","OBJECTID":562694},"geometry":{"x":166951.33000000007,"y":2542502.4200000037}},{"attributes":{"ID":562722,"DIS_CODE":0,"TOWNNAME":"南區","LI":"新昌里","LIN":"9鄰","STREET":"府緯街","SECT":" ","MAREA":" ","LANE":" ","ALLEY":" ","HOUSE_NO":"１０７號七樓之１","E_COORD97":167559.76999999999,"N_COORD97":2542710.5600000001,"ADDRESS":"府緯街１０７號七樓之１","OBJECTID":562695},"geometry":{"x":167559.76999999955,"y":2542710.5600000024}},{"attributes":{"ID":562723,"DIS_CODE":0,"TOWNNAME":"南區","LI":"新昌里","LIN":"9鄰","STREET":"府緯街","SECT":" ","MAREA":" ","LANE":" ","ALLEY":" ","HOUSE_NO":"１０７號七樓之２","E_COORD97":167559.76999999999,"N_COORD97":2542710.5600000001,"ADDRESS":"府緯街１０７號七樓之２","OBJECTID":562696},"geometry":{"x":167559.76999999955,"y":2542710.5600000024}},{"attributes":{"ID":562724,"DIS_CODE":0,"TOWNNAME":"南區","LI":"新昌里","LIN":"9鄰","STREET":"府緯街","SECT":" ","MAREA":" ","LANE":" ","ALLEY":" ","HOUSE_NO":"１０７號七樓之３","E_COORD97":167559.76999999999,"N_COORD97":2542710.5600000001,"ADDRESS":"府緯街１０７號七樓之３","OBJECTID":562697},"geometry":{"x":167559.76999999955,"y":2542710.5600000024}},{"attributes":{"ID":562725,"DIS_CODE":0,"TOWNNAME":"東區","LI":"中西里","LIN":"12鄰","STREET":"東寧路","SECT":" ","MAREA":" ","LANE":" ","ALLEY":" ","HOUSE_NO":"２４號","E_COORD97":169977.67000000001,"N_COORD97":2543622.29,"ADDRESS":"東寧路２４號","OBJECTID":562698},"geometry":{"x":169977.66999999993,"y":2543622.290000001}},{"attributes":{"ID":562726,"DIS_CODE":0,"TOWNNAME":"南區","LI":"新昌里","LIN":"9鄰","STREET":"府緯街","SECT":" ","MAREA":" ","LANE":" ","ALLEY":" ","HOUSE_NO":"１０７號七樓之４","E_COORD97":167559.76999999999,"N_COORD97":2542710.5600000001,"ADDRESS":"府緯街１０７號七樓之４","OBJECTID":562699},"geometry":{"x":167559.76999999955,"y":2542710.5600000024}},{"attributes":{"ID":562727,"DIS_CODE":0,"TOWNNAME":"南區","LI":"新昌里","LIN":"9鄰","STREET":"府緯街","SECT":" ","MAREA":" ","LANE":" ","ALLEY":" ","HOUSE_NO":"１０７號七樓之５","E_COORD97":167559.76999999999,"N_COORD97":2542710.5600000001,"ADDRESS":"府緯街１０７號七樓之５","OBJECTID":562700},"geometry":{"x":167559.76999999955,"y":2542710.5600000024}},{"attributes":{"ID":562728,"DIS_CODE":0,"TOWNNAME":"南區","LI":"新昌里","LIN":"9鄰","STREET":"府緯街","SECT":" ","MAREA":" ","LANE":" ","ALLEY":" ","HOUSE_NO":"１０７號七樓之６","E_COORD97":167559.76999999999,"N_COORD97":2542710.5600000001,"ADDRESS":"府緯街１０７號七樓之６","OBJECTID":562701},"geometry":{"x":167559.76999999955,"y":2542710.5600000024}},{"attributes":{"ID":562729,"DIS_CODE":0,"TOWNNAME":"南區","LI":"新昌里","LIN":"9鄰","STREET":"府緯街","SECT":" ","MAREA":" ","LANE":" ","ALLEY":" ","HOUSE_NO":"１０７號七樓之７","E_COORD97":167559.76999999999,"N_COORD97":2542710.5600000001,"ADDRESS":"府緯街１０７號七樓之７","OBJECTID":562702},"geometry":{"x":167559.76999999955,"y":2542710.5600000024}},{"attributes":{"ID":562730,"DIS_CODE":0,"TOWNNAME":"南區","LI":"新昌里","LIN":"9鄰","STREET":"府緯街","SECT":" ","MAREA":" ","LANE":" ","ALLEY":" ","HOUSE_NO":"１０７號二樓之１","E_COORD97":167559.76999999999,"N_COORD97":2542710.5600000001,"ADDRESS":"府緯街１０７號二樓之１","OBJECTID":562703},"geometry":{"x":167559.76999999955,"y":2542710.5600000024}},{"attributes":{"ID":562731,"DIS_CODE":0,"TOWNNAME":"南區","LI":"新昌里","LIN":"9鄰","STREET":"府緯街","SECT":" ","MAREA":" ","LANE":" ","ALLEY":" ","HOUSE_NO":"１０７號二樓之２","E_COORD97":167559.76999999999,"N_COORD97":2542710.5600000001,"ADDRESS":"府緯街１０７號二樓之２","OBJECTID":562704},"geometry":{"x":167559.76999999955,"y":2542710.5600000024}},{"attributes":{"ID":562732,"DIS_CODE":0,"TOWNNAME":"南區","LI":"新昌里","LIN":"9鄰","STREET":"府緯街","SECT":" ","MAREA":" ","LANE":" ","ALLEY":" ","HOUSE_NO":"１０７號二樓之３","E_COORD97":167559.76999999999,"N_COORD97":2542710.5600000001,"ADDRESS":"府緯街１０７號二樓之３","OBJECTID":562705},"geometry":{"x":167559.76999999955,"y":2542710.5600000024}},{"attributes":{"ID":562733,"DIS_CODE":0,"TOWNNAME":"南區","LI":"新昌里","LIN":"9鄰","STREET":"府緯街","SECT":" ","MAREA":" ","LANE":" ","ALLEY":" ","HOUSE_NO":"１０７號二樓之４","E_COORD97":167559.76999999999,"N_COORD97":2542710.5600000001,"ADDRESS":"府緯街１０７號二樓之４","OBJECTID":562706},"geometry":{"x":167559.76999999955,"y":2542710.5600000024}},{"attributes":{"ID":562734,"DIS_CODE":0,"TOWNNAME":"南區","LI":"新昌里","LIN":"9鄰","STREET":"府緯街","SECT":" ","MAREA":" ","LANE":" ","ALLEY":" ","HOUSE_NO":"１０７號二樓之５","E_COORD97":167559.76999999999,"N_COORD97":2542710.5600000001,"ADDRESS":"府緯街１０７號二樓之５","OBJECTID":562707},"geometry":{"x":167559.76999999955,"y":2542710.5600000024}},{"attributes":{"ID":562735,"DIS_CODE":0,"TOWNNAME":"南區","LI":"新昌里","LIN":"9鄰","STREET":"府緯街","SECT":" ","MAREA":" ","LANE":" ","ALLEY":" ","HOUSE_NO":"１０７號二樓之６","E_COORD97":167559.76999999999,"N_COORD97":2542710.5600000001,"ADDRESS":"府緯街１０７號二樓之６","OBJECTID":562708},"geometry":{"x":167559.76999999955,"y":2542710.5600000024}},{"attributes":{"ID":562736,"DIS_CODE":0,"TOWNNAME":"南區","LI":"新昌里","LIN":"9鄰","STREET":"府緯街","SECT":" ","MAREA":" ","LANE":" ","ALLEY":" ","HOUSE_NO":"１０７號三樓之１","E_COORD97":167559.76999999999,"N_COORD97":2542710.5600000001,"ADDRESS":"府緯街１０７號三樓之１","OBJECTID":562709},"geometry":{"x":167559.76999999955,"y":2542710.5600000024}},{"attributes":{"ID":562737,"DIS_CODE":0,"TOWNNAME":"南區","LI":"新昌里","LIN":"9鄰","STREET":"府緯街","SECT":" ","MAREA":" ","LANE":" ","ALLEY":" ","HOUSE_NO":"１０７號三樓之２","E_COORD97":167559.76999999999,"N_COORD97":2542710.5600000001,"ADDRESS":"府緯街１０７號三樓之２","OBJECTID":562710},"geometry":{"x":167559.76999999955,"y":2542710.5600000024}},{"attributes":{"ID":562738,"DIS_CODE":0,"TOWNNAME":"南區","LI":"新昌里","LIN":"9鄰","STREET":"府緯街","SECT":" ","MAREA":" ","LANE":" ","ALLEY":" ","HOUSE_NO":"１０７號三樓之３","E_COORD97":167559.76999999999,"N_COORD97":2542710.5600000001,"ADDRESS":"府緯街１０７號三樓之３","OBJECTID":562711},"geometry":{"x":167559.76999999955,"y":2542710.5600000024}},{"attributes":{"ID":562739,"DIS_CODE":0,"TOWNNAME":"南區","LI":"新昌里","LIN":"9鄰","STREET":"府緯街","SECT":" ","MAREA":" ","LANE":" ","ALLEY":" ","HOUSE_NO":"１０７號三樓之４","E_COORD97":167559.76999999999,"N_COORD97":2542710.5600000001,"ADDRESS":"府緯街１０７號三樓之４","OBJECTID":562712},"geometry":{"x":167559.76999999955,"y":2542710.5600000024}},{"attributes":{"ID":562740,"DIS_CODE":0,"TOWNNAME":"南區","LI":"新昌里","LIN":"9鄰","STREET":"府緯街","SECT":" ","MAREA":" ","LANE":" ","ALLEY":" ","HOUSE_NO":"１０７號三樓之５","E_COORD97":167559.76999999999,"N_COORD97":2542710.5600000001,"ADDRESS":"府緯街１０７號三樓之５","OBJECTID":562713},"geometry":{"x":167559.76999999955,"y":2542710.5600000024}},{"attributes":{"ID":562741,"DIS_CODE":0,"TOWNNAME":"東區","LI":"東門里","LIN":"20鄰","STREET":"勝利路","SECT":" ","MAREA":" ","LANE":" ","ALLEY":" ","HOUSE_NO":"９號","E_COORD97":169756.98999999999,"N_COORD97":2543126.04,"ADDRESS":"勝利路９號","OBJECTID":562714},"geometry":{"x":169756.99000000115,"y":2543126.040000001}},{"attributes":{"ID":562742,"DIS_CODE":0,"TOWNNAME":"南區","LI":"新昌里","LIN":"9鄰","STREET":"府緯街","SECT":" ","MAREA":" ","LANE":" ","ALLEY":" ","HOUSE_NO":"１０７號三樓之６","E_COORD97":167559.76999999999,"N_COORD97":2542710.5600000001,"ADDRESS":"府緯街１０７號三樓之６","OBJECTID":562715},"geometry":{"x":167559.76999999955,"y":2542710.5600000024}},{"attributes":{"ID":562743,"DIS_CODE":0,"TOWNNAME":"南區","LI":"新昌里","LIN":"9鄰","STREET":"府緯街","SECT":" ","MAREA":" ","LANE":" ","ALLEY":" ","HOUSE_NO":"１０７號三樓之７","E_COORD97":167559.76999999999,"N_COORD97":2542710.5600000001,"ADDRESS":"府緯街１０７號三樓之７","OBJECTID":562716},"geometry":{"x":167559.76999999955,"y":2542710.5600000024}},{"attributes":{"ID":562744,"DIS_CODE":0,"TOWNNAME":"南區","LI":"新昌里","LIN":"9鄰","STREET":"府緯街","SECT":" ","MAREA":" ","LANE":" ","ALLEY":" ","HOUSE_NO":"１０７號五樓之１","E_COORD97":167559.76999999999,"N_COORD97":2542710.5600000001,"ADDRESS":"府緯街１０７號五樓之１","OBJECTID":562717},"geometry":{"x":167559.76999999955,"y":2542710.5600000024}},{"attributes":{"ID":562745,"DIS_CODE":0,"TOWNNAME":"南區","LI":"新昌里","LIN":"9鄰","STREET":"府緯街","SECT":" ","MAREA":" ","LANE":" ","ALLEY":" ","HOUSE_NO":"１０７號五樓之２","E_COORD97":167559.76999999999,"N_COORD97":2542710.5600000001,"ADDRESS":"府緯街１０７號五樓之２","OBJECTID":562718},"geometry":{"x":167559.76999999955,"y":2542710.5600000024}},{"attributes":{"ID":562746,"DIS_CODE":0,"TOWNNAME":"南區","LI":"新昌里","LIN":"9鄰","STREET":"府緯街","SECT":" ","MAREA":" ","LANE":" ","ALLEY":" ","HOUSE_NO":"１０７號五樓之４","E_COORD97":167559.76999999999,"N_COORD97":2542710.5600000001,"ADDRESS":"府緯街１０７號五樓之４","OBJECTID":562719},"geometry":{"x":167559.76999999955,"y":2542710.5600000024}},{"attributes":{"ID":562747,"DIS_CODE":0,"TOWNNAME":"南區","LI":"新昌里","LIN":"9鄰","STREET":"府緯街","SECT":" ","MAREA":" ","LANE":" ","ALLEY":" ","HOUSE_NO":"１０７號五樓之５","E_COORD97":167559.76999999999,"N_COORD97":2542710.5600000001,"ADDRESS":"府緯街１０７號五樓之５","OBJECTID":562720},"geometry":{"x":167559.76999999955,"y":2542710.5600000024}},{"attributes":{"ID":562748,"DIS_CODE":0,"TOWNNAME":"南區","LI":"新昌里","LIN":"9鄰","STREET":"府緯街","SECT":" ","MAREA":" ","LANE":" ","ALLEY":" ","HOUSE_NO":"１０７號五樓之６","E_COORD97":167559.76999999999,"N_COORD97":2542710.5600000001,"ADDRESS":"府緯街１０７號五樓之６","OBJECTID":562721},"geometry":{"x":167559.76999999955,"y":2542710.5600000024}},{"attributes":{"ID":562749,"DIS_CODE":0,"TOWNNAME":"南區","LI":"新昌里","LIN":"9鄰","STREET":"府緯街","SECT":" ","MAREA":" ","LANE":" ","ALLEY":" ","HOUSE_NO":"１０７號六樓之１","E_COORD97":167559.76999999999,"N_COORD97":2542710.5600000001,"ADDRESS":"府緯街１０７號六樓之１","OBJECTID":562722},"geometry":{"x":167559.76999999955,"y":2542710.5600000024}},{"attributes":{"ID":562750,"DIS_CODE":0,"TOWNNAME":"南區","LI":"新昌里","LIN":"9鄰","STREET":"府緯街","SECT":" ","MAREA":" ","LANE":" ","ALLEY":" ","HOUSE_NO":"１０７號六樓之２","E_COORD97":167559.76999999999,"N_COORD97":2542710.5600000001,"ADDRESS":"府緯街１０７號六樓之２","OBJECTID":562723},"geometry":{"x":167559.76999999955,"y":2542710.5600000024}},{"attributes":{"ID":562751,"DIS_CODE":0,"TOWNNAME":"南區","LI":"新昌里","LIN":"9鄰","STREET":"府緯街","SECT":" ","MAREA":" ","LANE":" ","ALLEY":" ","HOUSE_NO":"１０７號六樓之３","E_COORD97":167559.76999999999,"N_COORD97":2542710.5600000001,"ADDRESS":"府緯街１０７號六樓之３","OBJECTID":562724},"geometry":{"x":167559.76999999955,"y":2542710.5600000024}},{"attributes":{"ID":562752,"DIS_CODE":0,"TOWNNAME":"南區","LI":"新昌里","LIN":"9鄰","STREET":"府緯街","SECT":" ","MAREA":" ","LANE":" ","ALLEY":" ","HOUSE_NO":"１０７號六樓之４","E_COORD97":167559.76999999999,"N_COORD97":2542710.5600000001,"ADDRESS":"府緯街１０７號六樓之４","OBJECTID":562725},"geometry":{"x":167559.76999999955,"y":2542710.5600000024}},{"attributes":{"ID":562753,"DIS_CODE":0,"TOWNNAME":"南區","LI":"新昌里","LIN":"9鄰","STREET":"府緯街","SECT":" ","MAREA":" ","LANE":" ","ALLEY":" ","HOUSE_NO":"１０７號六樓之５","E_COORD97":167559.76999999999,"N_COORD97":2542710.5600000001,"ADDRESS":"府緯街１０７號六樓之５","OBJECTID":562726},"geometry":{"x":167559.76999999955,"y":2542710.5600000024}},{"attributes":{"ID":562754,"DIS_CODE":0,"TOWNNAME":"南區","LI":"新昌里","LIN":"9鄰","STREET":"府緯街","SECT":" ","MAREA":" ","LANE":" ","ALLEY":" ","HOUSE_NO":"１０７號六樓之６","E_COORD97":167559.76999999999,"N_COORD97":2542710.5600000001,"ADDRESS":"府緯街１０７號六樓之６","OBJECTID":562727},"geometry":{"x":167559.76999999955,"y":2542710.5600000024}},{"attributes":{"ID":562755,"DIS_CODE":0,"TOWNNAME":"南區","LI":"新昌里","LIN":"9鄰","STREET":"府緯街","SECT":" ","MAREA":" ","LANE":" ","ALLEY":" ","HOUSE_NO":"１０７號四樓之１","E_COORD97":167559.76999999999,"N_COORD97":2542710.5600000001,"ADDRESS":"府緯街１０７號四樓之１","OBJECTID":562728},"geometry":{"x":167559.76999999955,"y":2542710.5600000024}},{"attributes":{"ID":562756,"DIS_CODE":0,"TOWNNAME":"南區","LI":"新昌里","LIN":"9鄰","STREET":"府緯街","SECT":" ","MAREA":" ","LANE":" ","ALLEY":" ","HOUSE_NO":"１０７號四樓之２","E_COORD97":167559.76999999999,"N_COORD97":2542710.5600000001,"ADDRESS":"府緯街１０７號四樓之２","OBJECTID":562729},"geometry":{"x":167559.76999999955,"y":2542710.5600000024}},{"attributes":{"ID":562757,"DIS_CODE":0,"TOWNNAME":"南區","LI":"新昌里","LIN":"9鄰","STREET":"府緯街","SECT":" ","MAREA":" ","LANE":" ","ALLEY":" ","HOUSE_NO":"１０７號四樓之３","E_COORD97":167559.76999999999,"N_COORD97":2542710.5600000001,"ADDRESS":"府緯街１０７號四樓之３","OBJECTID":562730},"geometry":{"x":167559.76999999955,"y":2542710.5600000024}},{"attributes":{"ID":562758,"DIS_CODE":0,"TOWNNAME":"南區","LI":"新昌里","LIN":"9鄰","STREET":"府緯街","SECT":" ","MAREA":" ","LANE":" ","ALLEY":" ","HOUSE_NO":"１０７號四樓之４","E_COORD97":167559.76999999999,"N_COORD97":2542710.5600000001,"ADDRESS":"府緯街１０７號四樓之４","OBJECTID":562731},"geometry":{"x":167559.76999999955,"y":2542710.5600000024}},{"attributes":{"ID":562759,"DIS_CODE":0,"TOWNNAME":"南區","LI":"新昌里","LIN":"9鄰","STREET":"府緯街","SECT":" ","MAREA":" ","LANE":" ","ALLEY":" ","HOUSE_NO":"１０７號四樓之５","E_COORD97":167559.76999999999,"N_COORD97":2542710.5600000001,"ADDRESS":"府緯街１０７號四樓之５","OBJECTID":562732},"geometry":{"x":167559.76999999955,"y":2542710.5600000024}},{"attributes":{"ID":562760,"DIS_CODE":0,"TOWNNAME":"南區","LI":"新昌里","LIN":"9鄰","STREET":"府緯街","SECT":" ","MAREA":" ","LANE":" ","ALLEY":" ","HOUSE_NO":"１０７號四樓之６","E_COORD97":167559.76999999999,"N_COORD97":2542710.5600000001,"ADDRESS":"府緯街１０７號四樓之６","OBJECTID":562733},"geometry":{"x":167559.76999999955,"y":2542710.5600000024}},{"attributes":{"ID":562761,"DIS_CODE":0,"TOWNNAME":"南區","LI":"新昌里","LIN":"9鄰","STREET":"府緯街","SECT":" ","MAREA":" ","LANE":" ","ALLEY":" ","HOUSE_NO":"１０７號四樓之７","E_COORD97":167559.76999999999,"N_COORD97":2542710.5600000001,"ADDRESS":"府緯街１０７號四樓之７","OBJECTID":562734},"geometry":{"x":167559.76999999955,"y":2542710.5600000024}},{"attributes":{"ID":562762,"DIS_CODE":0,"TOWNNAME":"北區","LI":"公園里","LIN":"9鄰","STREET":"公園南路","SECT":" ","MAREA":" ","LANE":" ","ALLEY":" ","HOUSE_NO":"６５號七樓之１","E_COORD97":169142.23999999999,"N_COORD97":2544531.0099999998,"ADDRESS":"公園南路６５號七樓之１","OBJECTID":562735},"geometry":{"x":169142.24000000022,"y":2544531.0099999998}},{"attributes":{"ID":562763,"DIS_CODE":0,"TOWNNAME":"北區","LI":"公園里","LIN":"9鄰","STREET":"公園南路","SECT":" ","MAREA":" ","LANE":" ","ALLEY":" ","HOUSE_NO":"６５號七樓之２","E_COORD97":169142.23999999999,"N_COORD97":2544531.0099999998,"ADDRESS":"公園南路６５號七樓之２","OBJECTID":562736},"geometry":{"x":169142.24000000022,"y":2544531.0099999998}},{"attributes":{"ID":562764,"DIS_CODE":0,"TOWNNAME":"北區","LI":"公園里","LIN":"9鄰","STREET":"公園南路","SECT":" ","MAREA":" ","LANE":" ","ALLEY":" ","HOUSE_NO":"６５號九樓之１","E_COORD97":169142.23999999999,"N_COORD97":2544531.0099999998,"ADDRESS":"公園南路６５號九樓之１","OBJECTID":562737},"geometry":{"x":169142.24000000022,"y":2544531.0099999998}},{"attributes":{"ID":562765,"DIS_CODE":0,"TOWNNAME":"北區","LI":"公園里","LIN":"9鄰","STREET":"公園南路","SECT":" ","MAREA":" ","LANE":" ","ALLEY":" ","HOUSE_NO":"６５號九樓之２","E_COORD97":169142.23999999999,"N_COORD97":2544531.0099999998,"ADDRESS":"公園南路６５號九樓之２","OBJECTID":562738},"geometry":{"x":169142.24000000022,"y":2544531.0099999998}},{"attributes":{"ID":562766,"DIS_CODE":0,"TOWNNAME":"北區","LI":"公園里","LIN":"9鄰","STREET":"公園南路","SECT":" ","MAREA":" ","LANE":" ","ALLEY":" ","HOUSE_NO":"６５號二樓","E_COORD97":169142.23999999999,"N_COORD97":2544531.0099999998,"ADDRESS":"公園南路６５號二樓","OBJECTID":562739},"geometry":{"x":169142.24000000022,"y":2544531.0099999998}},{"attributes":{"ID":562767,"DIS_CODE":0,"TOWNNAME":"東區","LI":"大學里","LIN":"18鄰","STREET":"長榮路","SECT":"三段","MAREA":" ","LANE":" ","ALLEY":" ","HOUSE_NO":"５６號","E_COORD97":170220.16,"N_COORD97":2543767.0299999998,"ADDRESS":"長榮路三段５６號","OBJECTID":562740},"geometry":{"x":170220.16000000108,"y":2543767.0300000012}},{"attributes":{"ID":562768,"DIS_CODE":0,"TOWNNAME":"北區","LI":"公園里","LIN":"9鄰","STREET":"公園南路","SECT":" ","MAREA":" ","LANE":" ","ALLEY":" ","HOUSE_NO":"６５號八樓之１","E_COORD97":169142.23999999999,"N_COORD97":2544531.0099999998,"ADDRESS":"公園南路６５號八樓之１","OBJECTID":562741},"geometry":{"x":169142.24000000022,"y":2544531.0099999998}},{"attributes":{"ID":562769,"DIS_CODE":0,"TOWNNAME":"北區","LI":"公園里","LIN":"9鄰","STREET":"公園南路","SECT":" ","MAREA":" ","LANE":" ","ALLEY":" ","HOUSE_NO":"６５號八樓之２","E_COORD97":169142.23999999999,"N_COORD97":2544531.0099999998,"ADDRESS":"公園南路６５號八樓之２","OBJECTID":562742},"geometry":{"x":169142.24000000022,"y":2544531.0099999998}},{"attributes":{"ID":562770,"DIS_CODE":0,"TOWNNAME":"北區","LI":"公園里","LIN":"9鄰","STREET":"公園南路","SECT":" ","MAREA":" ","LANE":" ","ALLEY":" ","HOUSE_NO":"６５號十一樓","E_COORD97":169142.23999999999,"N_COORD97":2544531.0099999998,"ADDRESS":"公園南路６５號十一樓","OBJECTID":562743},"geometry":{"x":169142.24000000022,"y":2544531.0099999998}},{"attributes":{"ID":562771,"DIS_CODE":0,"TOWNNAME":"北區","LI":"公園里","LIN":"9鄰","STREET":"公園南路","SECT":" ","MAREA":" ","LANE":" ","ALLEY":" ","HOUSE_NO":"６５號十二樓","E_COORD97":169142.23999999999,"N_COORD97":2544531.0099999998,"ADDRESS":"公園南路６５號十二樓","OBJECTID":562744},"geometry":{"x":169142.24000000022,"y":2544531.0099999998}},{"attributes":{"ID":562772,"DIS_CODE":0,"TOWNNAME":"北區","LI":"公園里","LIN":"9鄰","STREET":"公園南路","SECT":" ","MAREA":" ","LANE":" ","ALLEY":" ","HOUSE_NO":"６５號十樓","E_COORD97":169142.23999999999,"N_COORD97":2544531.0099999998,"ADDRESS":"公園南路６５號十樓","OBJECTID":562745},"geometry":{"x":169142.24000000022,"y":2544531.0099999998}},{"attributes":{"ID":562773,"DIS_CODE":0,"TOWNNAME":"北區","LI":"公園里","LIN":"9鄰","STREET":"公園南路","SECT":" ","MAREA":" ","LANE":" ","ALLEY":" ","HOUSE_NO":"６５號三樓","E_COORD97":169142.23999999999,"N_COORD97":2544531.0099999998,"ADDRESS":"公園南路６５號三樓","OBJECTID":562746},"geometry":{"x":169142.24000000022,"y":2544531.0099999998}},{"attributes":{"ID":562774,"DIS_CODE":0,"TOWNNAME":"北區","LI":"公園里","LIN":"9鄰","STREET":"公園南路","SECT":" ","MAREA":" ","LANE":" ","ALLEY":" ","HOUSE_NO":"６５號五樓之１","E_COORD97":169142.23999999999,"N_COORD97":2544531.0099999998,"ADDRESS":"公園南路６５號五樓之１","OBJECTID":562747},"geometry":{"x":169142.24000000022,"y":2544531.0099999998}},{"attributes":{"ID":562775,"DIS_CODE":0,"TOWNNAME":"北區","LI":"公園里","LIN":"9鄰","STREET":"公園南路","SECT":" ","MAREA":" ","LANE":" ","ALLEY":" ","HOUSE_NO":"６５號五樓之２","E_COORD97":169142.23999999999,"N_COORD97":2544531.0099999998,"ADDRESS":"公園南路６５號五樓之２","OBJECTID":562748},"geometry":{"x":169142.24000000022,"y":2544531.0099999998}},{"attributes":{"ID":562776,"DIS_CODE":0,"TOWNNAME":"北區","LI":"公園里","LIN":"9鄰","STREET":"公園南路","SECT":" ","MAREA":" ","LANE":" ","ALLEY":" ","HOUSE_NO":"６５號六樓之１","E_COORD97":169142.23999999999,"N_COORD97":2544531.0099999998,"ADDRESS":"公園南路６５號六樓之１","OBJECTID":562749},"geometry":{"x":169142.24000000022,"y":2544531.0099999998}},{"attributes":{"ID":562777,"DIS_CODE":0,"TOWNNAME":"北區","LI":"公園里","LIN":"9鄰","STREET":"公園南路","SECT":" ","MAREA":" ","LANE":" ","ALLEY":" ","HOUSE_NO":"６５號六樓之２","E_COORD97":169142.23999999999,"N_COORD97":2544531.0099999998,"ADDRESS":"公園南路６５號六樓之２","OBJECTID":562750},"geometry":{"x":169142.24000000022,"y":2544531.0099999998}},{"attributes":{"ID":562778,"DIS_CODE":0,"TOWNNAME":"北區","LI":"公園里","LIN":"9鄰","STREET":"公園南路","SECT":" ","MAREA":" ","LANE":" ","ALLEY":" ","HOUSE_NO":"６５號四樓之１","E_COORD97":169142.23999999999,"N_COORD97":2544531.0099999998,"ADDRESS":"公園南路６５號四樓之１","OBJECTID":562751},"geometry":{"x":169142.24000000022,"y":2544531.0099999998}},{"attributes":{"ID":562779,"DIS_CODE":0,"TOWNNAME":"北區","LI":"公園里","LIN":"9鄰","STREET":"公園南路","SECT":" ","MAREA":" ","LANE":" ","ALLEY":" ","HOUSE_NO":"６５號四樓之２","E_COORD97":169142.23999999999,"N_COORD97":2544531.0099999998,"ADDRESS":"公園南路６５號四樓之２","OBJECTID":562752},"geometry":{"x":169142.24000000022,"y":2544531.0099999998}},{"attributes":{"ID":562780,"DIS_CODE":0,"TOWNNAME":"北區","LI":"公園里","LIN":"9鄰","STREET":"公園南路","SECT":" ","MAREA":" ","LANE":" ","ALLEY":" ","HOUSE_NO":"６９號二樓","E_COORD97":169123.94,"N_COORD97":2544537.2200000002,"ADDRESS":"公園南路６９號二樓","OBJECTID":562753},"geometry":{"x":169123.94000000041,"y":2544537.2200000007}},{"attributes":{"ID":562781,"DIS_CODE":0,"TOWNNAME":"北區","LI":"公園里","LIN":"9鄰","STREET":"公園南路","SECT":" ","MAREA":" ","LANE":" ","ALLEY":" ","HOUSE_NO":"６９號三樓","E_COORD97":169123.94,"N_COORD97":2544537.2200000002,"ADDRESS":"公園南路６９號三樓","OBJECTID":562754},"geometry":{"x":169123.94000000041,"y":2544537.2200000007}},{"attributes":{"ID":562782,"DIS_CODE":0,"TOWNNAME":"北區","LI":"公園里","LIN":"9鄰","STREET":"公園南路","SECT":" ","MAREA":" ","LANE":" ","ALLEY":" ","HOUSE_NO":"６９號五樓","E_COORD97":169123.94,"N_COORD97":2544537.2200000002,"ADDRESS":"公園南路６９號五樓","OBJECTID":562755},"geometry":{"x":169123.94000000041,"y":2544537.2200000007}},{"attributes":{"ID":562783,"DIS_CODE":0,"TOWNNAME":"北區","LI":"公園里","LIN":"9鄰","STREET":"公園南路","SECT":" ","MAREA":" ","LANE":" ","ALLEY":" ","HOUSE_NO":"６９號六樓","E_COORD97":169123.94,"N_COORD97":2544537.2200000002,"ADDRESS":"公園南路６９號六樓","OBJECTID":562756},"geometry":{"x":169123.94000000041,"y":2544537.2200000007}},{"attributes":{"ID":562784,"DIS_CODE":0,"TOWNNAME":"北區","LI":"公園里","LIN":"9鄰","STREET":"公園南路","SECT":" ","MAREA":" ","LANE":" ","ALLEY":" ","HOUSE_NO":"６９號四樓","E_COORD97":169123.94,"N_COORD97":2544537.2200000002,"ADDRESS":"公園南路６９號四樓","OBJECTID":562757},"geometry":{"x":169123.94000000041,"y":2544537.2200000007}},{"attributes":{"ID":562785,"DIS_CODE":0,"TOWNNAME":"北區","LI":"公園里","LIN":"9鄰","STREET":"公園南路","SECT":" ","MAREA":" ","LANE":" ","ALLEY":" ","HOUSE_NO":"７１號七樓之１","E_COORD97":169112.42000000001,"N_COORD97":2544540.5899999999,"ADDRESS":"公園南路７１號七樓之１","OBJECTID":562758},"geometry":{"x":169112.42000000086,"y":2544540.5899999999}},{"attributes":{"ID":562786,"DIS_CODE":0,"TOWNNAME":"北區","LI":"公園里","LIN":"9鄰","STREET":"公園南路","SECT":" ","MAREA":" ","LANE":" ","ALLEY":" ","HOUSE_NO":"７１號七樓之２","E_COORD97":169112.42000000001,"N_COORD97":2544540.5899999999,"ADDRESS":"公園南路７１號七樓之２","OBJECTID":562759},"geometry":{"x":169112.42000000086,"y":2544540.5899999999}},{"attributes":{"ID":562787,"DIS_CODE":0,"TOWNNAME":"北區","LI":"公園里","LIN":"9鄰","STREET":"公園南路","SECT":" ","MAREA":" ","LANE":" ","ALLEY":" ","HOUSE_NO":"７１號九樓","E_COORD97":169112.42000000001,"N_COORD97":2544540.5899999999,"ADDRESS":"公園南路７１號九樓","OBJECTID":562760},"geometry":{"x":169112.42000000086,"y":2544540.5899999999}},{"attributes":{"ID":562788,"DIS_CODE":0,"TOWNNAME":"北區","LI":"公園里","LIN":"9鄰","STREET":"公園南路","SECT":" ","MAREA":" ","LANE":" ","ALLEY":" ","HOUSE_NO":"７１號八樓之１","E_COORD97":169112.42000000001,"N_COORD97":2544540.5899999999,"ADDRESS":"公園南路７１號八樓之１","OBJECTID":562761},"geometry":{"x":169112.42000000086,"y":2544540.5899999999}},{"attributes":{"ID":562789,"DIS_CODE":0,"TOWNNAME":"北區","LI":"公園里","LIN":"9鄰","STREET":"公園南路","SECT":" ","MAREA":" ","LANE":" ","ALLEY":" ","HOUSE_NO":"７１號八樓之２","E_COORD97":169112.42000000001,"N_COORD97":2544540.5899999999,"ADDRESS":"公園南路７１號八樓之２","OBJECTID":562762},"geometry":{"x":169112.42000000086,"y":2544540.5899999999}},{"attributes":{"ID":562790,"DIS_CODE":0,"TOWNNAME":"北區","LI":"公園里","LIN":"9鄰","STREET":"公園南路","SECT":" ","MAREA":" ","LANE":" ","ALLEY":" ","HOUSE_NO":"７１號十一樓","E_COORD97":169112.42000000001,"N_COORD97":2544540.5899999999,"ADDRESS":"公園南路７１號十一樓","OBJECTID":562763},"geometry":{"x":169112.42000000086,"y":2544540.5899999999}},{"attributes":{"ID":562791,"DIS_CODE":0,"TOWNNAME":"北區","LI":"公園里","LIN":"9鄰","STREET":"公園南路","SECT":" ","MAREA":" ","LANE":" ","ALLEY":" ","HOUSE_NO":"７１號十二樓","E_COORD97":169112.42000000001,"N_COORD97":2544540.5899999999,"ADDRESS":"公園南路７１號十二樓","OBJECTID":562764},"geometry":{"x":169112.42000000086,"y":2544540.5899999999}},{"attributes":{"ID":562792,"DIS_CODE":0,"TOWNNAME":"北區","LI":"公園里","LIN":"9鄰","STREET":"公園南路","SECT":" ","MAREA":" ","LANE":" ","ALLEY":" ","HOUSE_NO":"７１號十樓","E_COORD97":169112.42000000001,"N_COORD97":2544540.5899999999,"ADDRESS":"公園南路７１號十樓","OBJECTID":562765},"geometry":{"x":169112.42000000086,"y":2544540.5899999999}},{"attributes":{"ID":562793,"DIS_CODE":0,"TOWNNAME":"北區","LI":"公園里","LIN":"9鄰","STREET":"公園南路","SECT":" ","MAREA":" ","LANE":" ","ALLEY":" ","HOUSE_NO":"７１號三樓之１","E_COORD97":169112.42000000001,"N_COORD97":2544540.5899999999,"ADDRESS":"公園南路７１號三樓之１","OBJECTID":562766},"geometry":{"x":169112.42000000086,"y":2544540.5899999999}},{"attributes":{"ID":562794,"DIS_CODE":0,"TOWNNAME":"北區","LI":"公園里","LIN":"9鄰","STREET":"公園南路","SECT":" ","MAREA":" ","LANE":" ","ALLEY":" ","HOUSE_NO":"７１號三樓之２","E_COORD97":169112.42000000001,"N_COORD97":2544540.5899999999,"ADDRESS":"公園南路７１號三樓之２","OBJECTID":562767},"geometry":{"x":169112.42000000086,"y":2544540.5899999999}},{"attributes":{"ID":562795,"DIS_CODE":0,"TOWNNAME":"北區","LI":"公園里","LIN":"9鄰","STREET":"公園南路","SECT":" ","MAREA":" ","LANE":" ","ALLEY":" ","HOUSE_NO":"７１號五樓之１","E_COORD97":169112.42000000001,"N_COORD97":2544540.5899999999,"ADDRESS":"公園南路７１號五樓之１","OBJECTID":562768},"geometry":{"x":169112.42000000086,"y":2544540.5899999999}},{"attributes":{"ID":562796,"DIS_CODE":0,"TOWNNAME":"北區","LI":"公園里","LIN":"9鄰","STREET":"公園南路","SECT":" ","MAREA":" ","LANE":" ","ALLEY":" ","HOUSE_NO":"７１號五樓之２","E_COORD97":169112.42000000001,"N_COORD97":2544540.5899999999,"ADDRESS":"公園南路７１號五樓之２","OBJECTID":562769},"geometry":{"x":169112.42000000086,"y":2544540.5899999999}},{"attributes":{"ID":562797,"DIS_CODE":0,"TOWNNAME":"北區","LI":"公園里","LIN":"9鄰","STREET":"公園南路","SECT":" ","MAREA":" ","LANE":" ","ALLEY":" ","HOUSE_NO":"７１號六樓之１","E_COORD97":169112.42000000001,"N_COORD97":2544540.5899999999,"ADDRESS":"公園南路７１號六樓之１","OBJECTID":562770},"geometry":{"x":169112.42000000086,"y":2544540.5899999999}},{"attributes":{"ID":562798,"DIS_CODE":0,"TOWNNAME":"北區","LI":"公園里","LIN":"9鄰","STREET":"公園南路","SECT":" ","MAREA":" ","LANE":" ","ALLEY":" ","HOUSE_NO":"７１號六樓之２","E_COORD97":169112.42000000001,"N_COORD97":2544540.5899999999,"ADDRESS":"公園南路７１號六樓之２","OBJECTID":562771},"geometry":{"x":169112.42000000086,"y":2544540.5899999999}},{"attributes":{"ID":562799,"DIS_CODE":0,"TOWNNAME":"北區","LI":"公園里","LIN":"9鄰","STREET":"公園南路","SECT":" ","MAREA":" ","LANE":" ","ALLEY":" ","HOUSE_NO":"７１號四樓之１","E_COORD97":169112.42000000001,"N_COORD97":2544540.5899999999,"ADDRESS":"公園南路７１號四樓之１","OBJECTID":562772},"geometry":{"x":169112.42000000086,"y":2544540.5899999999}},{"attributes":{"ID":562800,"DIS_CODE":0,"TOWNNAME":"東區","LI":"崇文里","LIN":"9鄰","STREET":"崇德十八街","SECT":" ","MAREA":" ","LANE":" ","ALLEY":" ","HOUSE_NO":"３３號","E_COORD97":170882.34,"N_COORD97":2541041.1699999999,"ADDRESS":"崇德十八街３３號","OBJECTID":562773},"geometry":{"x":170882.33999999892,"y":2541041.1700000018}},{"attributes":{"ID":562801,"DIS_CODE":0,"TOWNNAME":"北區","LI":"公園里","LIN":"9鄰","STREET":"公園南路","SECT":" ","MAREA":" ","LANE":" ","ALLEY":" ","HOUSE_NO":"７１號四樓之２","E_COORD97":169112.42000000001,"N_COORD97":2544540.5899999999,"ADDRESS":"公園南路７１號四樓之２","OBJECTID":562774},"geometry":{"x":169112.42000000086,"y":2544540.5899999999}},{"attributes":{"ID":562802,"DIS_CODE":0,"TOWNNAME":"安平區","LI":"育平里","LIN":"9鄰","STREET":"育平五街","SECT":" ","MAREA":" ","LANE":" ","ALLEY":" ","HOUSE_NO":"７０號二十四樓之７","E_COORD97":164650.70000000001,"N_COORD97":2543539.8100000001,"ADDRESS":"育平五街７０號二十四樓之７","OBJECTID":562775},"geometry":{"x":164650.70000000112,"y":2543539.8100000005}},{"attributes":{"ID":562803,"DIS_CODE":0,"TOWNNAME":"安平區","LI":"育平里","LIN":"9鄰","STREET":"育平五街","SECT":" ","MAREA":" ","LANE":" ","ALLEY":" ","HOUSE_NO":"７０號七樓之８","E_COORD97":164650.70000000001,"N_COORD97":2543539.8100000001,"ADDRESS":"育平五街７０號七樓之８","OBJECTID":562776},"geometry":{"x":164650.70000000112,"y":2543539.8100000005}},{"attributes":{"ID":562804,"DIS_CODE":0,"TOWNNAME":"安平區","LI":"育平里","LIN":"9鄰","STREET":"育平五街","SECT":" ","MAREA":" ","LANE":" ","ALLEY":" ","HOUSE_NO":"７０號七樓之９","E_COORD97":164650.70000000001,"N_COORD97":2543539.8100000001,"ADDRESS":"育平五街７０號七樓之９","OBJECTID":562777},"geometry":{"x":164650.70000000112,"y":2543539.8100000005}},{"attributes":{"ID":562805,"DIS_CODE":0,"TOWNNAME":"安平區","LI":"育平里","LIN":"9鄰","STREET":"育平五街","SECT":" ","MAREA":" ","LANE":" ","ALLEY":" ","HOUSE_NO":"７０號九樓之７","E_COORD97":164650.70000000001,"N_COORD97":2543539.8100000001,"ADDRESS":"育平五街７０號九樓之７","OBJECTID":562778},"geometry":{"x":164650.70000000112,"y":2543539.8100000005}},{"attributes":{"ID":562806,"DIS_CODE":0,"TOWNNAME":"安平區","LI":"育平里","LIN":"9鄰","STREET":"育平五街","SECT":" ","MAREA":" ","LANE":" ","ALLEY":" ","HOUSE_NO":"７０號九樓之８","E_COORD97":164650.70000000001,"N_COORD97":2543539.8100000001,"ADDRESS":"育平五街７０號九樓之８","OBJECTID":562779},"geometry":{"x":164650.70000000112,"y":2543539.8100000005}},{"attributes":{"ID":562807,"DIS_CODE":0,"TOWNNAME":"安平區","LI":"育平里","LIN":"9鄰","STREET":"育平五街","SECT":" ","MAREA":" ","LANE":" ","ALLEY":" ","HOUSE_NO":"７０號九樓之９","E_COORD97":164650.70000000001,"N_COORD97":2543539.8100000001,"ADDRESS":"育平五街７０號九樓之９","OBJECTID":562780},"geometry":{"x":164650.70000000112,"y":2543539.8100000005}},{"attributes":{"ID":562808,"DIS_CODE":0,"TOWNNAME":"安平區","LI":"育平里","LIN":"9鄰","STREET":"育平五街","SECT":" ","MAREA":" ","LANE":" ","ALLEY":" ","HOUSE_NO":"７０號二十一樓之７","E_COORD97":164650.70000000001,"N_COORD97":2543539.8100000001,"ADDRESS":"育平五街７０號二十一樓之７","OBJECTID":562781},"geometry":{"x":164650.70000000112,"y":2543539.8100000005}},{"attributes":{"ID":562809,"DIS_CODE":0,"TOWNNAME":"安平區","LI":"育平里","LIN":"9鄰","STREET":"育平五街","SECT":" ","MAREA":" ","LANE":" ","ALLEY":" ","HOUSE_NO":"７０號二十一樓之８","E_COORD97":164650.70000000001,"N_COORD97":2543539.8100000001,"ADDRESS":"育平五街７０號二十一樓之８","OBJECTID":562782},"geometry":{"x":164650.70000000112,"y":2543539.8100000005}},{"attributes":{"ID":562810,"DIS_CODE":0,"TOWNNAME":"安平區","LI":"育平里","LIN":"9鄰","STREET":"育平五街","SECT":" ","MAREA":" ","LANE":" ","ALLEY":" ","HOUSE_NO":"７０號二十一樓之９","E_COORD97":164650.70000000001,"N_COORD97":2543539.8100000001,"ADDRESS":"育平五街７０號二十一樓之９","OBJECTID":562783},"geometry":{"x":164650.70000000112,"y":2543539.8100000005}},{"attributes":{"ID":562811,"DIS_CODE":0,"TOWNNAME":"安平區","LI":"育平里","LIN":"9鄰","STREET":"育平五街","SECT":" ","MAREA":" ","LANE":" ","ALLEY":" ","HOUSE_NO":"７０號二十七樓之７","E_COORD97":164650.70000000001,"N_COORD97":2543539.8100000001,"ADDRESS":"育平五街７０號二十七樓之７","OBJECTID":562784},"geometry":{"x":164650.70000000112,"y":2543539.8100000005}},{"attributes":{"ID":562812,"DIS_CODE":0,"TOWNNAME":"安平區","LI":"育平里","LIN":"9鄰","STREET":"育平五街","SECT":" ","MAREA":" ","LANE":" ","ALLEY":" ","HOUSE_NO":"７０號二十七樓之８","E_COORD97":164650.70000000001,"N_COORD97":2543539.8100000001,"ADDRESS":"育平五街７０號二十七樓之８","OBJECTID":562785},"geometry":{"x":164650.70000000112,"y":2543539.8100000005}},{"attributes":{"ID":562813,"DIS_CODE":0,"TOWNNAME":"安平區","LI":"育平里","LIN":"9鄰","STREET":"育平五街","SECT":" ","MAREA":" ","LANE":" ","ALLEY":" ","HOUSE_NO":"７０號二十二樓之７","E_COORD97":164650.70000000001,"N_COORD97":2543539.8100000001,"ADDRESS":"育平五街７０號二十二樓之７","OBJECTID":562786},"geometry":{"x":164650.70000000112,"y":2543539.8100000005}},{"attributes":{"ID":562814,"DIS_CODE":0,"TOWNNAME":"安平區","LI":"育平里","LIN":"9鄰","STREET":"育平五街","SECT":" ","MAREA":" ","LANE":" ","ALLEY":" ","HOUSE_NO":"７０號二十二樓之８","E_COORD97":164650.70000000001,"N_COORD97":2543539.8100000001,"ADDRESS":"育平五街７０號二十二樓之８","OBJECTID":562787},"geometry":{"x":164650.70000000112,"y":2543539.8100000005}},{"attributes":{"ID":562815,"DIS_CODE":0,"TOWNNAME":"安平區","LI":"育平里","LIN":"9鄰","STREET":"育平五街","SECT":" ","MAREA":" ","LANE":" ","ALLEY":" ","HOUSE_NO":"７０號二十二樓之９","E_COORD97":164650.70000000001,"N_COORD97":2543539.8100000001,"ADDRESS":"育平五街７０號二十二樓之９","OBJECTID":562788},"geometry":{"x":164650.70000000112,"y":2543539.8100000005}},{"attributes":{"ID":562816,"DIS_CODE":0,"TOWNNAME":"安平區","LI":"育平里","LIN":"9鄰","STREET":"育平五街","SECT":" ","MAREA":" ","LANE":" ","ALLEY":" ","HOUSE_NO":"７０號二十三樓之７","E_COORD97":164650.70000000001,"N_COORD97":2543539.8100000001,"ADDRESS":"育平五街７０號二十三樓之７","OBJECTID":562789},"geometry":{"x":164650.70000000112,"y":2543539.8100000005}},{"attributes":{"ID":562817,"DIS_CODE":0,"TOWNNAME":"安平區","LI":"育平里","LIN":"9鄰","STREET":"育平五街","SECT":" ","MAREA":" ","LANE":" ","ALLEY":" ","HOUSE_NO":"７０號二十三樓之８","E_COORD97":164650.70000000001,"N_COORD97":2543539.8100000001,"ADDRESS":"育平五街７０號二十三樓之８","OBJECTID":562790},"geometry":{"x":164650.70000000112,"y":2543539.8100000005}},{"attributes":{"ID":562818,"DIS_CODE":0,"TOWNNAME":"安平區","LI":"育平里","LIN":"9鄰","STREET":"育平五街","SECT":" ","MAREA":" ","LANE":" ","ALLEY":" ","HOUSE_NO":"７０號二十五樓之７","E_COORD97":164650.70000000001,"N_COORD97":2543539.8100000001,"ADDRESS":"育平五街７０號二十五樓之７","OBJECTID":562791},"geometry":{"x":164650.70000000112,"y":2543539.8100000005}},{"attributes":{"ID":562819,"DIS_CODE":0,"TOWNNAME":"安平區","LI":"育平里","LIN":"9鄰","STREET":"育平五街","SECT":" ","MAREA":" ","LANE":" ","ALLEY":" ","HOUSE_NO":"７０號二十五樓之８","E_COORD97":164650.70000000001,"N_COORD97":2543539.8100000001,"ADDRESS":"育平五街７０號二十五樓之８","OBJECTID":562792},"geometry":{"x":164650.70000000112,"y":2543539.8100000005}},{"attributes":{"ID":562820,"DIS_CODE":0,"TOWNNAME":"安平區","LI":"育平里","LIN":"9鄰","STREET":"育平五街","SECT":" ","MAREA":" ","LANE":" ","ALLEY":" ","HOUSE_NO":"７０號二十五樓之９","E_COORD97":164650.70000000001,"N_COORD97":2543539.8100000001,"ADDRESS":"育平五街７０號二十五樓之９","OBJECTID":562793},"geometry":{"x":164650.70000000112,"y":2543539.8100000005}},{"attributes":{"ID":562821,"DIS_CODE":0,"TOWNNAME":"安平區","LI":"育平里","LIN":"9鄰","STREET":"育平五街","SECT":" ","MAREA":" ","LANE":" ","ALLEY":" ","HOUSE_NO":"７０號二十六樓之７","E_COORD97":164650.70000000001,"N_COORD97":2543539.8100000001,"ADDRESS":"育平五街７０號二十六樓之７","OBJECTID":562794},"geometry":{"x":164650.70000000112,"y":2543539.8100000005}},{"attributes":{"ID":562822,"DIS_CODE":0,"TOWNNAME":"安平區","LI":"育平里","LIN":"9鄰","STREET":"育平五街","SECT":" ","MAREA":" ","LANE":" ","ALLEY":" ","HOUSE_NO":"７０號二十六樓之８","E_COORD97":164650.70000000001,"N_COORD97":2543539.8100000001,"ADDRESS":"育平五街７０號二十六樓之８","OBJECTID":562795},"geometry":{"x":164650.70000000112,"y":2543539.8100000005}},{"attributes":{"ID":562823,"DIS_CODE":0,"TOWNNAME":"安平區","LI":"育平里","LIN":"9鄰","STREET":"育平五街","SECT":" ","MAREA":" ","LANE":" ","ALLEY":" ","HOUSE_NO":"７０號二十六樓之９","E_COORD97":164650.70000000001,"N_COORD97":2543539.8100000001,"ADDRESS":"育平五街７０號二十六樓之９","OBJECTID":562796},"geometry":{"x":164650.70000000112,"y":2543539.8100000005}},{"attributes":{"ID":562824,"DIS_CODE":0,"TOWNNAME":"安平區","LI":"育平里","LIN":"9鄰","STREET":"育平五街","SECT":" ","MAREA":" ","LANE":" ","ALLEY":" ","HOUSE_NO":"７０號二十四樓之８","E_COORD97":164650.70000000001,"N_COORD97":2543539.8100000001,"ADDRESS":"育平五街７０號二十四樓之８","OBJECTID":562797},"geometry":{"x":164650.70000000112,"y":2543539.8100000005}},{"attributes":{"ID":562825,"DIS_CODE":0,"TOWNNAME":"安平區","LI":"育平里","LIN":"9鄰","STREET":"育平五街","SECT":" ","MAREA":" ","LANE":" ","ALLEY":" ","HOUSE_NO":"７０號二十四樓之９","E_COORD97":164650.70000000001,"N_COORD97":2543539.8100000001,"ADDRESS":"育平五街７０號二十四樓之９","OBJECTID":562798},"geometry":{"x":164650.70000000112,"y":2543539.8100000005}},{"attributes":{"ID":562826,"DIS_CODE":0,"TOWNNAME":"安平區","LI":"育平里","LIN":"9鄰","STREET":"育平五街","SECT":" ","MAREA":" ","LANE":" ","ALLEY":" ","HOUSE_NO":"７０號二十樓之７","E_COORD97":164650.70000000001,"N_COORD97":2543539.8100000001,"ADDRESS":"育平五街７０號二十樓之７","OBJECTID":562799},"geometry":{"x":164650.70000000112,"y":2543539.8100000005}},{"attributes":{"ID":562827,"DIS_CODE":0,"TOWNNAME":"安平區","LI":"育平里","LIN":"9鄰","STREET":"育平五街","SECT":" ","MAREA":" ","LANE":" ","ALLEY":" ","HOUSE_NO":"７０號二十樓之８","E_COORD97":164650.70000000001,"N_COORD97":2543539.8100000001,"ADDRESS":"育平五街７０號二十樓之８","OBJECTID":562800},"geometry":{"x":164650.70000000112,"y":2543539.8100000005}}]}