{"displayFieldName":"TOWNNAME","fieldAliases":{"ID":"ID","DIS_CODE":"DIS_CODE","TOWNNAME":"TOWNNAME","LI":"LI","LIN":"LIN","STREET":"STREET","SECT":"SECT","MAREA":"MAREA","LANE":"LANE","ALLEY":"ALLEY","HOUSE_NO":"HOUSE_NO","E_COORD97":"E_COORD97","N_COORD97":"N_COORD97","ADDRESS":"ADDRESS","OBJECTID":"OBJECTID"},"geometryType":"esriGeometryPoint","spatialReference":{"wkid":102443,"latestWkid":3826},"fields":[{"name":"ID","type":"esriFieldTypeDouble","alias":"ID"},{"name":"DIS_CODE","type":"esriFieldTypeInteger","alias":"DIS_CODE"},{"name":"TOWNNAME","type":"esriFieldTypeString","alias":"TOWNNAME","length":8},{"name":"LI","type":"esriFieldTypeString","alias":"LI","length":8},{"name":"LIN","type":"esriFieldTypeString","alias":"LIN","length":12},{"name":"STREET","type":"esriFieldTypeString","alias":"STREET","length":20},{"name":"SECT","type":"esriFieldTypeString","alias":"SECT","length":8},{"name":"MAREA","type":"esriFieldTypeString","alias":"MAREA","length":12},{"name":"LANE","type":"esriFieldTypeString","alias":"LANE","length":10},{"name":"ALLEY","type":"esriFieldTypeString","alias":"ALLEY","length":10},{"name":"HOUSE_NO","type":"esriFieldTypeString","alias":"HOUSE_NO","length":20},{"name":"E_COORD97","type":"esriFieldTypeDouble","alias":"E_COORD97"},{"name":"N_COORD97","type":"esriFieldTypeDouble","alias":"N_COORD97"},{"name":"ADDRESS","type":"esriFieldTypeString","alias":"ADDRESS","length":50},{"name":"OBJECTID","type":"esriFieldTypeOID","alias":"OBJECTID"}],"features":[{"attributes":{"ID":614028,"DIS_CODE":0,"TOWNNAME":"中西區","LI":"銀同里","LIN":"15鄰","STREET":"青年路","SECT":" ","MAREA":" ","LANE":" ","ALLEY":" ","HOUSE_NO":"２８號","E_COORD97":168637.34,"N_COORD97":2543634.6499999999,"ADDRESS":"青年路２８號","OBJECTID":614001},"geometry":{"x":168637.33999999985,"y":2543634.6500000022}},{"attributes":{"ID":614029,"DIS_CODE":0,"TOWNNAME":"中西區","LI":"銀同里","LIN":"15鄰","STREET":"青年路","SECT":" ","MAREA":" ","LANE":" ","ALLEY":" ","HOUSE_NO":"３０號","E_COORD97":168644.82999999999,"N_COORD97":2543635.3300000001,"ADDRESS":"青年路３０號","OBJECTID":614002},"geometry":{"x":168644.83000000007,"y":2543635.3299999982}},{"attributes":{"ID":614030,"DIS_CODE":0,"TOWNNAME":"中西區","LI":"銀同里","LIN":"15鄰","STREET":"青年路","SECT":" ","MAREA":" ","LANE":" ","ALLEY":" ","HOUSE_NO":"３２號","E_COORD97":168653.89999999999,"N_COORD97":2543632.77,"ADDRESS":"青年路３２號","OBJECTID":614003},"geometry":{"x":168653.9000000013,"y":2543632.7700000014}},{"attributes":{"ID":614031,"DIS_CODE":0,"TOWNNAME":"中西區","LI":"水仙里","LIN":"2鄰","STREET":"民生路","SECT":"二段","MAREA":" ","LANE":" ","ALLEY":" ","HOUSE_NO":"４２號","E_COORD97":167786.37,"N_COORD97":2543954.4500000002,"ADDRESS":"民生路二段４２號","OBJECTID":614004},"geometry":{"x":167786.37000000011,"y":2543954.4499999993}},{"attributes":{"ID":614032,"DIS_CODE":0,"TOWNNAME":"中西區","LI":"水仙里","LIN":"2鄰","STREET":"民生路","SECT":"二段","MAREA":" ","LANE":" ","ALLEY":" ","HOUSE_NO":"４４號","E_COORD97":167781.60000000001,"N_COORD97":2543956.0899999999,"ADDRESS":"民生路二段４４號","OBJECTID":614005},"geometry":{"x":167781.60000000149,"y":2543956.0900000017}},{"attributes":{"ID":614033,"DIS_CODE":0,"TOWNNAME":"中西區","LI":"水仙里","LIN":"2鄰","STREET":"民生路","SECT":"二段","MAREA":" ","LANE":" ","ALLEY":" ","HOUSE_NO":"４６號","E_COORD97":167777.95999999999,"N_COORD97":2543959.04,"ADDRESS":"民生路二段４６號","OBJECTID":614006},"geometry":{"x":167777.96000000183,"y":2543959.040000001}},{"attributes":{"ID":614034,"DIS_CODE":0,"TOWNNAME":"中西區","LI":"水仙里","LIN":"2鄰","STREET":"民生路","SECT":"二段","MAREA":" ","LANE":" ","ALLEY":" ","HOUSE_NO":"５０號","E_COORD97":167766.59,"N_COORD97":2543962.8599999999,"ADDRESS":"民生路二段５０號","OBJECTID":614007},"geometry":{"x":167766.58999999892,"y":2543962.8599999994}},{"attributes":{"ID":614035,"DIS_CODE":0,"TOWNNAME":"中西區","LI":"水仙里","LIN":"2鄰","STREET":"民生路","SECT":"二段","MAREA":" ","LANE":" ","ALLEY":" ","HOUSE_NO":"５２號","E_COORD97":167762.69,"N_COORD97":2543962.6000000001,"ADDRESS":"民生路二段５２號","OBJECTID":614008},"geometry":{"x":167762.69000000041,"y":2543962.6000000015}},{"attributes":{"ID":614036,"DIS_CODE":0,"TOWNNAME":"中西區","LI":"水仙里","LIN":"2鄰","STREET":"民生路","SECT":"二段","MAREA":" ","LANE":" ","ALLEY":" ","HOUSE_NO":"５４號","E_COORD97":167757.66,"N_COORD97":2543964.1600000001,"ADDRESS":"民生路二段５４號","OBJECTID":614009},"geometry":{"x":167757.66000000015,"y":2543964.1600000001}},{"attributes":{"ID":614037,"DIS_CODE":0,"TOWNNAME":"中西區","LI":"水仙里","LIN":"2鄰","STREET":"民生路","SECT":"二段","MAREA":" ","LANE":" ","ALLEY":" ","HOUSE_NO":"５６號","E_COORD97":167753.41,"N_COORD97":2543965.6299999999,"ADDRESS":"民生路二段５６號","OBJECTID":614010},"geometry":{"x":167753.41000000108,"y":2543965.6300000008}},{"attributes":{"ID":614038,"DIS_CODE":0,"TOWNNAME":"中西區","LI":"郡西里","LIN":"2鄰","STREET":"郡西路","SECT":" ","MAREA":" ","LANE":" ","ALLEY":" ","HOUSE_NO":"３０號","E_COORD97":167379.10999999999,"N_COORD97":2543226.0899999999,"ADDRESS":"郡西路３０號","OBJECTID":614011},"geometry":{"x":167379.11000000127,"y":2543226.0899999999}},{"attributes":{"ID":614039,"DIS_CODE":0,"TOWNNAME":"中西區","LI":"郡西里","LIN":"2鄰","STREET":"郡西路","SECT":" ","MAREA":" ","LANE":" ","ALLEY":" ","HOUSE_NO":"３２號","E_COORD97":167380.32999999999,"N_COORD97":2543229.1400000001,"ADDRESS":"郡西路３２號","OBJECTID":614012},"geometry":{"x":167380.33000000007,"y":2543229.1400000006}},{"attributes":{"ID":614040,"DIS_CODE":0,"TOWNNAME":"中西區","LI":"水仙里","LIN":"2鄰","STREET":"國華街","SECT":"三段","MAREA":" ","LANE":" ","ALLEY":" ","HOUSE_NO":"６８號","E_COORD97":167788.89000000001,"N_COORD97":2543983.2000000002,"ADDRESS":"國華街三段６８號","OBJECTID":614013},"geometry":{"x":167788.8900000006,"y":2543983.1999999993}},{"attributes":{"ID":614041,"DIS_CODE":0,"TOWNNAME":"中西區","LI":"水仙里","LIN":"2鄰","STREET":"國華街","SECT":"三段","MAREA":" ","LANE":" ","ALLEY":" ","HOUSE_NO":"７０號","E_COORD97":167791.48999999999,"N_COORD97":2543988.6600000001,"ADDRESS":"國華街三段７０號","OBJECTID":614014},"geometry":{"x":167791.49000000209,"y":2543988.6600000001}},{"attributes":{"ID":614042,"DIS_CODE":0,"TOWNNAME":"中西區","LI":"水仙里","LIN":"2鄰","STREET":"國華街","SECT":"三段","MAREA":" ","LANE":" ","ALLEY":" ","HOUSE_NO":"７２號","E_COORD97":167793.92000000001,"N_COORD97":2543996.2000000002,"ADDRESS":"國華街三段７２號","OBJECTID":614015},"geometry":{"x":167793.92000000086,"y":2543996.2000000011}},{"attributes":{"ID":614043,"DIS_CODE":0,"TOWNNAME":"中西區","LI":"郡西里","LIN":"2鄰","STREET":"永華路","SECT":"一段","MAREA":" ","LANE":" ","ALLEY":" ","HOUSE_NO":"１００號","E_COORD97":167394.48000000001,"N_COORD97":2543168.25,"ADDRESS":"永華路一段１００號","OBJECTID":614016},"geometry":{"x":167394.48000000045,"y":2543168.2500000037}},{"attributes":{"ID":614044,"DIS_CODE":0,"TOWNNAME":"中西區","LI":"郡西里","LIN":"2鄰","STREET":"永華路","SECT":"一段","MAREA":" ","LANE":" ","ALLEY":" ","HOUSE_NO":"１０２號","E_COORD97":167390.56,"N_COORD97":2543168.1600000001,"ADDRESS":"永華路一段１０２號","OBJECTID":614017},"geometry":{"x":167390.56000000052,"y":2543168.1600000001}},{"attributes":{"ID":614045,"DIS_CODE":0,"TOWNNAME":"中西區","LI":"郡西里","LIN":"2鄰","STREET":"永華路","SECT":"一段","MAREA":" ","LANE":" ","ALLEY":" ","HOUSE_NO":"１０４號","E_COORD97":167386.54999999999,"N_COORD97":2543169.1400000001,"ADDRESS":"永華路一段１０４號","OBJECTID":614018},"geometry":{"x":167386.54999999981,"y":2543169.1400000006}},{"attributes":{"ID":614046,"DIS_CODE":0,"TOWNNAME":"下營區","LI":"仁里里","LIN":"2鄰","STREET":"公園路","SECT":" ","MAREA":" ","LANE":" ","ALLEY":" ","HOUSE_NO":"１７號","E_COORD97":174263.37,"N_COORD97":2570311.2400000002,"ADDRESS":"公園路１７號","OBJECTID":614019},"geometry":{"x":174263.37000000104,"y":2570311.2400000002}},{"attributes":{"ID":614047,"DIS_CODE":0,"TOWNNAME":"中西區","LI":"銀同里","LIN":"14鄰","STREET":"民權路","SECT":"一段","MAREA":" ","LANE":" ","ALLEY":" ","HOUSE_NO":"２０１號","E_COORD97":168767.78,"N_COORD97":2543602.5600000001,"ADDRESS":"民權路一段２０１號","OBJECTID":614020},"geometry":{"x":168767.78000000212,"y":2543602.5600000005}},{"attributes":{"ID":614048,"DIS_CODE":0,"TOWNNAME":"中西區","LI":"銀同里","LIN":"14鄰","STREET":"民權路","SECT":"一段","MAREA":" ","LANE":" ","ALLEY":" ","HOUSE_NO":"２０５號","E_COORD97":168765.72,"N_COORD97":2543607.2000000002,"ADDRESS":"民權路一段２０５號","OBJECTID":614021},"geometry":{"x":168765.71999999974,"y":2543607.1999999993}},{"attributes":{"ID":614049,"DIS_CODE":0,"TOWNNAME":"中西區","LI":"銀同里","LIN":"14鄰","STREET":"青年路","SECT":" ","MAREA":" ","LANE":" ","ALLEY":" ","HOUSE_NO":"４８號","E_COORD97":168695.57999999999,"N_COORD97":2543630.4700000002,"ADDRESS":"青年路４８號","OBJECTID":614022},"geometry":{"x":168695.58000000007,"y":2543630.4700000007}},{"attributes":{"ID":614050,"DIS_CODE":0,"TOWNNAME":"中西區","LI":"銀同里","LIN":"14鄰","STREET":"青年路","SECT":" ","MAREA":" ","LANE":" ","ALLEY":" ","HOUSE_NO":"５０號","E_COORD97":168700.44,"N_COORD97":2543628.4300000002,"ADDRESS":"青年路５０號","OBJECTID":614023},"geometry":{"x":168700.44000000041,"y":2543628.4300000016}},{"attributes":{"ID":614051,"DIS_CODE":0,"TOWNNAME":"中西區","LI":"銀同里","LIN":"14鄰","STREET":"青年路","SECT":" ","MAREA":" ","LANE":" ","ALLEY":" ","HOUSE_NO":"５６號","E_COORD97":168710.88,"N_COORD97":2543627.27,"ADDRESS":"青年路５６號","OBJECTID":614024},"geometry":{"x":168710.88000000082,"y":2543627.2699999996}},{"attributes":{"ID":614052,"DIS_CODE":0,"TOWNNAME":"中西區","LI":"銀同里","LIN":"14鄰","STREET":"青年路","SECT":" ","MAREA":" ","LANE":" ","ALLEY":" ","HOUSE_NO":"５８號","E_COORD97":168716.5,"N_COORD97":2543626.9500000002,"ADDRESS":"青年路５８號","OBJECTID":614025},"geometry":{"x":168716.5,"y":2543626.9499999974}},{"attributes":{"ID":614053,"DIS_CODE":0,"TOWNNAME":"中西區","LI":"銀同里","LIN":"14鄰","STREET":"青年路","SECT":" ","MAREA":" ","LANE":" ","ALLEY":" ","HOUSE_NO":"６０號","E_COORD97":168722.54999999999,"N_COORD97":2543626.8500000001,"ADDRESS":"青年路６０號","OBJECTID":614026},"geometry":{"x":168722.54999999981,"y":2543626.8499999996}},{"attributes":{"ID":614054,"DIS_CODE":0,"TOWNNAME":"中西區","LI":"銀同里","LIN":"14鄰","STREET":"青年路","SECT":" ","MAREA":" ","LANE":" ","ALLEY":" ","HOUSE_NO":"６２號","E_COORD97":168729.13,"N_COORD97":2543625.5800000001,"ADDRESS":"青年路６２號","OBJECTID":614027},"geometry":{"x":168729.12999999989,"y":2543625.5800000001}},{"attributes":{"ID":614055,"DIS_CODE":0,"TOWNNAME":"中西區","LI":"銀同里","LIN":"14鄰","STREET":"青年路","SECT":" ","MAREA":" ","LANE":" ","ALLEY":" ","HOUSE_NO":"６４號","E_COORD97":168732.94,"N_COORD97":2543625.4700000002,"ADDRESS":"青年路６４號","OBJECTID":614028},"geometry":{"x":168732.94000000227,"y":2543625.4700000025}},{"attributes":{"ID":614056,"DIS_CODE":0,"TOWNNAME":"中西區","LI":"郡西里","LIN":"2鄰","STREET":"建安街","SECT":" ","MAREA":" ","LANE":" ","ALLEY":" ","HOUSE_NO":"７５號","E_COORD97":167398.16,"N_COORD97":2543253.29,"ADDRESS":"建安街７５號","OBJECTID":614029},"geometry":{"x":167398.16000000015,"y":2543253.290000001}},{"attributes":{"ID":614057,"DIS_CODE":0,"TOWNNAME":"中西區","LI":"郡西里","LIN":"2鄰","STREET":"永華路","SECT":"一段","MAREA":" ","LANE":" ","ALLEY":" ","HOUSE_NO":"１０８號","E_COORD97":167376.66,"N_COORD97":2543169.5899999999,"ADDRESS":"永華路一段１０８號","OBJECTID":614030},"geometry":{"x":167376.66000000201,"y":2543169.5900000017}},{"attributes":{"ID":614058,"DIS_CODE":0,"TOWNNAME":"中西區","LI":"郡西里","LIN":"2鄰","STREET":"永華路","SECT":"一段","MAREA":" ","LANE":" ","ALLEY":" ","HOUSE_NO":"１０８號之１","E_COORD97":167367.64000000001,"N_COORD97":2543172.5299999998,"ADDRESS":"永華路一段１０８號之１","OBJECTID":614031},"geometry":{"x":167367.63999999966,"y":2543172.5300000031}},{"attributes":{"ID":614059,"DIS_CODE":0,"TOWNNAME":"中西區","LI":"郡西里","LIN":"2鄰","STREET":"建安街","SECT":" ","MAREA":" ","LANE":" ","ALLEY":" ","HOUSE_NO":"７７號","E_COORD97":167392.17000000001,"N_COORD97":2543253.4199999999,"ADDRESS":"建安街７７號","OBJECTID":614032},"geometry":{"x":167392.17000000086,"y":2543253.4199999999}},{"attributes":{"ID":614060,"DIS_CODE":0,"TOWNNAME":"中西區","LI":"郡西里","LIN":"2鄰","STREET":"郡西路","SECT":" ","MAREA":" ","LANE":" ","ALLEY":" ","HOUSE_NO":"１６號","E_COORD97":167375.92999999999,"N_COORD97":2543201.0800000001,"ADDRESS":"郡西路１６號","OBJECTID":614033},"geometry":{"x":167375.92999999877,"y":2543201.0800000019}},{"attributes":{"ID":614061,"DIS_CODE":0,"TOWNNAME":"中西區","LI":"郡西里","LIN":"2鄰","STREET":"郡西路","SECT":" ","MAREA":" ","LANE":" ","ALLEY":" ","HOUSE_NO":"１８號","E_COORD97":167376.17999999999,"N_COORD97":2543204.9900000002,"ADDRESS":"郡西路１８號","OBJECTID":614034},"geometry":{"x":167376.18000000063,"y":2543204.9900000021}},{"attributes":{"ID":614062,"DIS_CODE":0,"TOWNNAME":"中西區","LI":"郡西里","LIN":"2鄰","STREET":"郡西路","SECT":" ","MAREA":" ","LANE":" ","ALLEY":" ","HOUSE_NO":"２號","E_COORD97":167375.69,"N_COORD97":2543173.0899999999,"ADDRESS":"郡西路２號","OBJECTID":614035},"geometry":{"x":167375.69000000134,"y":2543173.0900000017}},{"attributes":{"ID":614063,"DIS_CODE":0,"TOWNNAME":"中西區","LI":"大涼里","LIN":"2鄰","STREET":"環河街","SECT":" ","MAREA":" ","LANE":" ","ALLEY":" ","HOUSE_NO":"６６號","E_COORD97":167188.48000000001,"N_COORD97":2543778.6400000001,"ADDRESS":"環河街６６號","OBJECTID":614036},"geometry":{"x":167188.48000000138,"y":2543778.6400000006}},{"attributes":{"ID":614064,"DIS_CODE":0,"TOWNNAME":"下營區","LI":"仁里里","LIN":"2鄰","STREET":"仁里街","SECT":" ","MAREA":" ","LANE":" ","ALLEY":" ","HOUSE_NO":"１１號","E_COORD97":174301.70999999999,"N_COORD97":2570207.9300000002,"ADDRESS":"仁里街１１號","OBJECTID":614037},"geometry":{"x":174301.71000000089,"y":2570207.9299999997}},{"attributes":{"ID":614065,"DIS_CODE":0,"TOWNNAME":"下營區","LI":"仁里里","LIN":"2鄰","STREET":"仁里街","SECT":" ","MAREA":" ","LANE":" ","ALLEY":" ","HOUSE_NO":"１２號","E_COORD97":174279.10000000001,"N_COORD97":2570290.1499999999,"ADDRESS":"仁里街１２號","OBJECTID":614038},"geometry":{"x":174279.09999999963,"y":2570290.1500000022}},{"attributes":{"ID":614066,"DIS_CODE":0,"TOWNNAME":"下營區","LI":"仁里里","LIN":"2鄰","STREET":"仁里街","SECT":" ","MAREA":" ","LANE":" ","ALLEY":" ","HOUSE_NO":"１３號","E_COORD97":174300.37,"N_COORD97":2570202.1499999999,"ADDRESS":"仁里街１３號","OBJECTID":614039},"geometry":{"x":174300.37000000104,"y":2570202.1500000022}},{"attributes":{"ID":614067,"DIS_CODE":0,"TOWNNAME":"下營區","LI":"仁里里","LIN":"2鄰","STREET":"仁里街","SECT":" ","MAREA":" ","LANE":" ","ALLEY":" ","HOUSE_NO":"１５號","E_COORD97":174298.91,"N_COORD97":2570196.75,"ADDRESS":"仁里街１５號","OBJECTID":614040},"geometry":{"x":174298.91000000108,"y":2570196.7500000019}},{"attributes":{"ID":614068,"DIS_CODE":0,"TOWNNAME":"下營區","LI":"仁里里","LIN":"2鄰","STREET":"仁里街","SECT":" ","MAREA":" ","LANE":" ","ALLEY":" ","HOUSE_NO":"１７號","E_COORD97":174297.35999999999,"N_COORD97":2570192.02,"ADDRESS":"仁里街１７號","OBJECTID":614041},"geometry":{"x":174297.36000000127,"y":2570192.0200000014}},{"attributes":{"ID":614069,"DIS_CODE":0,"TOWNNAME":"下營區","LI":"仁里里","LIN":"2鄰","STREET":"仁里街","SECT":" ","MAREA":" ","LANE":" ","ALLEY":" ","HOUSE_NO":"１９號","E_COORD97":174295.59,"N_COORD97":2570188.1699999999,"ADDRESS":"仁里街１９號","OBJECTID":614042},"geometry":{"x":174295.59000000078,"y":2570188.1700000018}},{"attributes":{"ID":614070,"DIS_CODE":0,"TOWNNAME":"下營區","LI":"仁里里","LIN":"2鄰","STREET":"仁里街","SECT":" ","MAREA":" ","LANE":" ","ALLEY":" ","HOUSE_NO":"５號","E_COORD97":174307.89000000001,"N_COORD97":2570222.0299999998,"ADDRESS":"仁里街５號","OBJECTID":614043},"geometry":{"x":174307.89000000153,"y":2570222.0300000012}},{"attributes":{"ID":614071,"DIS_CODE":0,"TOWNNAME":"下營區","LI":"仁里里","LIN":"2鄰","STREET":"仁里街","SECT":" ","MAREA":" ","LANE":" ","ALLEY":" ","HOUSE_NO":"６號","E_COORD97":174294.73999999999,"N_COORD97":2570294.2599999998,"ADDRESS":"仁里街６號","OBJECTID":614044},"geometry":{"x":174294.74000000115,"y":2570294.2600000035}},{"attributes":{"ID":614072,"DIS_CODE":0,"TOWNNAME":"下營區","LI":"仁里里","LIN":"2鄰","STREET":"仁里街","SECT":" ","MAREA":" ","LANE":" ","ALLEY":" ","HOUSE_NO":"７號","E_COORD97":174306.17999999999,"N_COORD97":2570217.8300000001,"ADDRESS":"仁里街７號","OBJECTID":614045},"geometry":{"x":174306.18000000063,"y":2570217.8300000019}},{"attributes":{"ID":614073,"DIS_CODE":0,"TOWNNAME":"下營區","LI":"仁里里","LIN":"2鄰","STREET":"仁里街","SECT":" ","MAREA":" ","LANE":" ","ALLEY":" ","HOUSE_NO":"９號","E_COORD97":174304.20999999999,"N_COORD97":2570212.6000000001,"ADDRESS":"仁里街９號","OBJECTID":614046},"geometry":{"x":174304.20999999996,"y":2570212.5999999996}},{"attributes":{"ID":614074,"DIS_CODE":0,"TOWNNAME":"下營區","LI":"仁里里","LIN":"2鄰","STREET":"仁美街","SECT":" ","MAREA":" ","LANE":" ","ALLEY":" ","HOUSE_NO":"１２號","E_COORD97":174260.79000000001,"N_COORD97":2570285.4700000002,"ADDRESS":"仁美街１２號","OBJECTID":614047},"geometry":{"x":174260.79000000004,"y":2570285.4700000007}},{"attributes":{"ID":614075,"DIS_CODE":0,"TOWNNAME":"下營區","LI":"仁里里","LIN":"2鄰","STREET":"公園路","SECT":" ","MAREA":" ","LANE":" ","ALLEY":" ","HOUSE_NO":"１９號","E_COORD97":174260.35999999999,"N_COORD97":2570310.2200000002,"ADDRESS":"公園路１９號","OBJECTID":614048},"geometry":{"x":174260.36000000127,"y":2570310.2200000025}},{"attributes":{"ID":614076,"DIS_CODE":0,"TOWNNAME":"下營區","LI":"仁里里","LIN":"2鄰","STREET":"公園路","SECT":" ","MAREA":" ","LANE":" ","ALLEY":" ","HOUSE_NO":"２１號","E_COORD97":174257.12,"N_COORD97":2570309.04,"ADDRESS":"公園路２１號","OBJECTID":614049},"geometry":{"x":174257.12000000011,"y":2570309.040000001}},{"attributes":{"ID":614077,"DIS_CODE":0,"TOWNNAME":"下營區","LI":"仁里里","LIN":"2鄰","STREET":"公園路","SECT":" ","MAREA":" ","LANE":" ","ALLEY":" ","HOUSE_NO":"２３號","E_COORD97":174250.17999999999,"N_COORD97":2570306.9199999999,"ADDRESS":"公園路２３號","OBJECTID":614050},"geometry":{"x":174250.18000000063,"y":2570306.9200000037}},{"attributes":{"ID":614078,"DIS_CODE":0,"TOWNNAME":"下營區","LI":"仁里里","LIN":"2鄰","STREET":"公園路","SECT":" ","MAREA":" ","LANE":" ","ALLEY":" ","HOUSE_NO":"２５號","E_COORD97":174245.66,"N_COORD97":2570304.6499999999,"ADDRESS":"公園路２５號","OBJECTID":614051},"geometry":{"x":174245.66000000201,"y":2570304.6500000004}},{"attributes":{"ID":614079,"DIS_CODE":0,"TOWNNAME":"下營區","LI":"仁里里","LIN":"2鄰","STREET":"公園路","SECT":" ","MAREA":" ","LANE":" ","ALLEY":" ","HOUSE_NO":"２７號","E_COORD97":174242.16,"N_COORD97":2570302.73,"ADDRESS":"公園路２７號","OBJECTID":614052},"geometry":{"x":174242.16000000201,"y":2570302.7300000023}},{"attributes":{"ID":614080,"DIS_CODE":0,"TOWNNAME":"下營區","LI":"仁里里","LIN":"2鄰","STREET":"公園路","SECT":" ","MAREA":" ","LANE":" ","ALLEY":" ","HOUSE_NO":"２９號","E_COORD97":174237.89000000001,"N_COORD97":2570300.8399999999,"ADDRESS":"公園路２９號","OBJECTID":614053},"geometry":{"x":174237.88999999966,"y":2570300.8400000036}},{"attributes":{"ID":614081,"DIS_CODE":0,"TOWNNAME":"下營區","LI":"仁里里","LIN":"2鄰","STREET":"公園路","SECT":" ","MAREA":" ","LANE":" ","ALLEY":" ","HOUSE_NO":"３１號","E_COORD97":174233.23000000001,"N_COORD97":2570298.48,"ADDRESS":"公園路３１號","OBJECTID":614054},"geometry":{"x":174233.23000000045,"y":2570298.4800000023}},{"attributes":{"ID":614082,"DIS_CODE":0,"TOWNNAME":"下營區","LI":"仁里里","LIN":"2鄰","STREET":"公園路","SECT":" ","MAREA":" ","LANE":" ","ALLEY":" ","HOUSE_NO":"３３號","E_COORD97":174225.06,"N_COORD97":2570295.8900000001,"ADDRESS":"公園路３３號","OBJECTID":614055},"geometry":{"x":174225.05999999959,"y":2570295.8900000025}},{"attributes":{"ID":614083,"DIS_CODE":0,"TOWNNAME":"下營區","LI":"仁里里","LIN":"2鄰","STREET":"公園路","SECT":" ","MAREA":" ","LANE":" ","ALLEY":" ","HOUSE_NO":"３５號","E_COORD97":174212.88,"N_COORD97":2570287.5099999998,"ADDRESS":"公園路３５號","OBJECTID":614056},"geometry":{"x":174212.87999999989,"y":2570287.5100000016}},{"attributes":{"ID":614084,"DIS_CODE":0,"TOWNNAME":"下營區","LI":"仁里里","LIN":"2鄰","STREET":"公園路","SECT":" ","MAREA":" ","LANE":" ","ALLEY":" ","HOUSE_NO":"５號","E_COORD97":174287.73000000001,"N_COORD97":2570320.4500000002,"ADDRESS":"公園路５號","OBJECTID":614057},"geometry":{"x":174287.73000000231,"y":2570320.4500000011}},{"attributes":{"ID":614085,"DIS_CODE":0,"TOWNNAME":"下營區","LI":"仁里里","LIN":"2鄰","STREET":"公園路","SECT":" ","MAREA":" ","LANE":" ","ALLEY":" ","HOUSE_NO":"９號","E_COORD97":174279.47,"N_COORD97":2570316.4300000002,"ADDRESS":"公園路９號","OBJECTID":614058},"geometry":{"x":174279.46999999974,"y":2570316.4299999997}},{"attributes":{"ID":614086,"DIS_CODE":0,"TOWNNAME":"下營區","LI":"宅內里","LIN":"2鄰","STREET":"友愛街","SECT":" ","MAREA":" ","LANE":" ","ALLEY":" ","HOUSE_NO":"１０７號","E_COORD97":174174.23000000001,"N_COORD97":2570607.9500000002,"ADDRESS":"友愛街１０７號","OBJECTID":614059},"geometry":{"x":174174.23000000231,"y":2570607.950000003}},{"attributes":{"ID":614087,"DIS_CODE":0,"TOWNNAME":"下營區","LI":"宅內里","LIN":"2鄰","STREET":"友愛街","SECT":" ","MAREA":" ","LANE":" ","ALLEY":" ","HOUSE_NO":"１０９號","E_COORD97":174174.16,"N_COORD97":2570612.7000000002,"ADDRESS":"友愛街１０９號","OBJECTID":614060},"geometry":{"x":174174.16000000015,"y":2570612.6999999974}},{"attributes":{"ID":614088,"DIS_CODE":0,"TOWNNAME":"下營區","LI":"宅內里","LIN":"2鄰","STREET":"友愛街","SECT":" ","MAREA":" ","LANE":" ","ALLEY":" ","HOUSE_NO":"１１１號","E_COORD97":174162.97,"N_COORD97":2570619.3100000001,"ADDRESS":"友愛街１１１號","OBJECTID":614061},"geometry":{"x":174162.96999999974,"y":2570619.3100000005}},{"attributes":{"ID":614089,"DIS_CODE":0,"TOWNNAME":"下營區","LI":"宅內里","LIN":"2鄰","STREET":"友愛街","SECT":" ","MAREA":" ","LANE":" ","ALLEY":" ","HOUSE_NO":"１１３號","E_COORD97":174173.76999999999,"N_COORD97":2570625.8999999999,"ADDRESS":"友愛街１１３號","OBJECTID":614062},"geometry":{"x":174173.77000000048,"y":2570625.9000000004}},{"attributes":{"ID":614090,"DIS_CODE":0,"TOWNNAME":"下營區","LI":"宅內里","LIN":"2鄰","STREET":"友愛街","SECT":" ","MAREA":" ","LANE":" ","ALLEY":" ","HOUSE_NO":"９９號","E_COORD97":174176.38,"N_COORD97":2570555.1499999999,"ADDRESS":"友愛街９９號","OBJECTID":614063},"geometry":{"x":174176.38000000082,"y":2570555.1500000004}},{"attributes":{"ID":614091,"DIS_CODE":0,"TOWNNAME":"下營區","LI":"營前里","LIN":"2鄰","STREET":"文明街","SECT":" ","MAREA":" ","LANE":" ","ALLEY":" ","HOUSE_NO":"９０號","E_COORD97":174576.95999999999,"N_COORD97":2570325.1800000002,"ADDRESS":"文明街９０號","OBJECTID":614064},"geometry":{"x":174576.95999999996,"y":2570325.1800000034}},{"attributes":{"ID":614092,"DIS_CODE":0,"TOWNNAME":"中西區","LI":"赤嵌里","LIN":"7鄰","STREET":"民族路","SECT":"二段","MAREA":" ","LANE":" ","ALLEY":" ","HOUSE_NO":"１００號地下一層","E_COORD97":168625.72,"N_COORD97":2544029.6099999999,"ADDRESS":"民族路二段１００號地下一層","OBJECTID":614065},"geometry":{"x":168625.72000000067,"y":2544029.6100000031}},{"attributes":{"ID":614093,"DIS_CODE":0,"TOWNNAME":"中西區","LI":"赤嵌里","LIN":"6鄰","STREET":"廣慈街","SECT":" ","MAREA":" ","LANE":" ","ALLEY":" ","HOUSE_NO":"２６號","E_COORD97":168676.14000000001,"N_COORD97":2544069.7200000002,"ADDRESS":"廣慈街２６號","OBJECTID":614066},"geometry":{"x":168676.13999999966,"y":2544069.7200000007}},{"attributes":{"ID":614094,"DIS_CODE":0,"TOWNNAME":"中西區","LI":"赤嵌里","LIN":"6鄰","STREET":"民族路","SECT":"二段","MAREA":" ","LANE":" ","ALLEY":" ","HOUSE_NO":"８４號","E_COORD97":168662.32000000001,"N_COORD97":2544010.6400000001,"ADDRESS":"民族路二段８４號","OBJECTID":614067},"geometry":{"x":168662.32000000216,"y":2544010.6400000025}},{"attributes":{"ID":614095,"DIS_CODE":0,"TOWNNAME":"中西區","LI":"赤嵌里","LIN":"6鄰","STREET":"民族路","SECT":"二段","MAREA":" ","LANE":" ","ALLEY":" ","HOUSE_NO":"８６號","E_COORD97":168658.72,"N_COORD97":2544011.2400000002,"ADDRESS":"民族路二段８６號","OBJECTID":614068},"geometry":{"x":168658.71999999974,"y":2544011.2400000002}},{"attributes":{"ID":614096,"DIS_CODE":0,"TOWNNAME":"中西區","LI":"赤嵌里","LIN":"6鄰","STREET":"民族路","SECT":"二段","MAREA":" ","LANE":" ","ALLEY":" ","HOUSE_NO":"８８號","E_COORD97":168653.67000000001,"N_COORD97":2544010.96,"ADDRESS":"民族路二段８８號","OBJECTID":614069},"geometry":{"x":168653.66999999993,"y":2544010.9600000009}},{"attributes":{"ID":614097,"DIS_CODE":0,"TOWNNAME":"中西區","LI":"赤嵌里","LIN":"6鄰","STREET":"民族路","SECT":"二段","MAREA":" ","LANE":" ","ALLEY":" ","HOUSE_NO":"９０號","E_COORD97":168648.38,"N_COORD97":2544012.9399999999,"ADDRESS":"民族路二段９０號","OBJECTID":614070},"geometry":{"x":168648.38000000082,"y":2544012.9399999995}},{"attributes":{"ID":614098,"DIS_CODE":0,"TOWNNAME":"中西區","LI":"赤嵌里","LIN":"6鄰","STREET":"廣慈街","SECT":" ","MAREA":" ","LANE":" ","ALLEY":" ","HOUSE_NO":"２號","E_COORD97":168652.67999999999,"N_COORD97":2544024.5,"ADDRESS":"廣慈街２號","OBJECTID":614071},"geometry":{"x":168652.68000000063,"y":2544024.5000000037}},{"attributes":{"ID":614099,"DIS_CODE":0,"TOWNNAME":"中西區","LI":"赤嵌里","LIN":"6鄰","STREET":"廣慈街","SECT":" ","MAREA":" ","LANE":" ","ALLEY":" ","HOUSE_NO":"２號之１","E_COORD97":168653.67000000001,"N_COORD97":2544027.1400000001,"ADDRESS":"廣慈街２號之１","OBJECTID":614072},"geometry":{"x":168653.66999999993,"y":2544027.1399999987}},{"attributes":{"ID":614100,"DIS_CODE":0,"TOWNNAME":"中西區","LI":"赤嵌里","LIN":"6鄰","STREET":"廣慈街","SECT":" ","MAREA":" ","LANE":" ","ALLEY":" ","HOUSE_NO":"６號","E_COORD97":168655.32000000001,"N_COORD97":2544030.1099999999,"ADDRESS":"廣慈街６號","OBJECTID":614073},"geometry":{"x":168655.3200000003,"y":2544030.1100000013}},{"attributes":{"ID":614101,"DIS_CODE":0,"TOWNNAME":"中西區","LI":"赤嵌里","LIN":"6鄰","STREET":"廣慈街","SECT":" ","MAREA":" ","LANE":" ","ALLEY":" ","HOUSE_NO":"８號","E_COORD97":168657.29999999999,"N_COORD97":2544034.0699999998,"ADDRESS":"廣慈街８號","OBJECTID":614074},"geometry":{"x":168657.30000000075,"y":2544034.0699999984}},{"attributes":{"ID":614102,"DIS_CODE":0,"TOWNNAME":"中西區","LI":"赤嵌里","LIN":"6鄰","STREET":"民族路","SECT":"二段","MAREA":" ","LANE":" ","ALLEY":" ","HOUSE_NO":"８０號","E_COORD97":168675.14999999999,"N_COORD97":2544008.6200000001,"ADDRESS":"民族路二段８０號","OBJECTID":614075},"geometry":{"x":168675.15000000037,"y":2544008.6200000029}},{"attributes":{"ID":614103,"DIS_CODE":0,"TOWNNAME":"中西區","LI":"赤嵌里","LIN":"6鄰","STREET":"民族路","SECT":"二段","MAREA":" ","LANE":" ","ALLEY":" ","HOUSE_NO":"８０號之１","E_COORD97":168692.34,"N_COORD97":2543999.0499999998,"ADDRESS":"民族路二段８０號之１","OBJECTID":614076},"geometry":{"x":168692.34000000171,"y":2543999.0500000026}},{"attributes":{"ID":614104,"DIS_CODE":0,"TOWNNAME":"中西區","LI":"赤嵌里","LIN":"6鄰","STREET":"民族路","SECT":"二段","MAREA":" ","LANE":" ","ALLEY":" ","HOUSE_NO":"８０號之２","E_COORD97":168681.76000000001,"N_COORD97":2544004.3300000001,"ADDRESS":"民族路二段８０號之２","OBJECTID":614077},"geometry":{"x":168681.75999999978,"y":2544004.3300000001}},{"attributes":{"ID":614105,"DIS_CODE":0,"TOWNNAME":"中西區","LI":"赤嵌里","LIN":"6鄰","STREET":"民族路","SECT":"二段","MAREA":" ","LANE":" ","ALLEY":" ","HOUSE_NO":"８２號","E_COORD97":168664.57000000001,"N_COORD97":2544011.9199999999,"ADDRESS":"民族路二段８２號","OBJECTID":614078},"geometry":{"x":168664.57000000123,"y":2544011.9200000018}},{"attributes":{"ID":614106,"DIS_CODE":0,"TOWNNAME":"中西區","LI":"赤嵌里","LIN":"6鄰","STREET":"廣慈街","SECT":" ","MAREA":" ","LANE":" ","ALLEY":" ","HOUSE_NO":"１０號","E_COORD97":168659.62,"N_COORD97":2544038.3599999999,"ADDRESS":"廣慈街１０號","OBJECTID":614079},"geometry":{"x":168659.62000000011,"y":2544038.3600000031}},{"attributes":{"ID":614107,"DIS_CODE":0,"TOWNNAME":"仁德區","LI":"保安里","LIN":"23鄰","STREET":"保學路","SECT":" ","MAREA":" ","LANE":" ","ALLEY":" ","HOUSE_NO":"２５號","E_COORD97":171532.48999999999,"N_COORD97":2535593.7000000002,"ADDRESS":"保學路２５號","OBJECTID":614080},"geometry":{"x":171532.49000000022,"y":2535593.700000003}},{"attributes":{"ID":614108,"DIS_CODE":0,"TOWNNAME":"中西區","LI":"赤嵌里","LIN":"3鄰","STREET":"廣慈街","SECT":" ","MAREA":" ","LANE":" ","ALLEY":" ","HOUSE_NO":"３８號","E_COORD97":168700.07999999999,"N_COORD97":2544104.54,"ADDRESS":"廣慈街３８號","OBJECTID":614081},"geometry":{"x":168700.08000000101,"y":2544104.5400000028}},{"attributes":{"ID":614109,"DIS_CODE":0,"TOWNNAME":"下營區","LI":"後街里","LIN":"2鄰","STREET":"水池街","SECT":" ","MAREA":" ","LANE":" ","ALLEY":" ","HOUSE_NO":"１１０號","E_COORD97":174491.63,"N_COORD97":2571064.0699999998,"ADDRESS":"水池街１１０號","OBJECTID":614082},"geometry":{"x":174491.63000000082,"y":2571064.0700000003}},{"attributes":{"ID":614110,"DIS_CODE":0,"TOWNNAME":"下營區","LI":"後街里","LIN":"2鄰","STREET":"水池街","SECT":" ","MAREA":" ","LANE":" ","ALLEY":" ","HOUSE_NO":"１２０號","E_COORD97":174485.76999999999,"N_COORD97":2571087.2000000002,"ADDRESS":"水池街１２０號","OBJECTID":614083},"geometry":{"x":174485.76999999955,"y":2571087.1999999993}},{"attributes":{"ID":614111,"DIS_CODE":0,"TOWNNAME":"下營區","LI":"後街里","LIN":"2鄰","STREET":"水池街","SECT":" ","MAREA":" ","LANE":" ","ALLEY":" ","HOUSE_NO":"１２２號","E_COORD97":174515.60000000001,"N_COORD97":2571089.27,"ADDRESS":"水池街１２２號","OBJECTID":614084},"geometry":{"x":174515.60000000056,"y":2571089.2699999996}},{"attributes":{"ID":614112,"DIS_CODE":0,"TOWNNAME":"下營區","LI":"後街里","LIN":"2鄰","STREET":"水池街","SECT":" ","MAREA":" ","LANE":" ","ALLEY":" ","HOUSE_NO":"１２８號","E_COORD97":174493.82000000001,"N_COORD97":2571098.9199999999,"ADDRESS":"水池街１２８號","OBJECTID":614085},"geometry":{"x":174493.82000000216,"y":2571098.9199999999}},{"attributes":{"ID":614113,"DIS_CODE":0,"TOWNNAME":"下營區","LI":"後街里","LIN":"2鄰","STREET":"水池街","SECT":" ","MAREA":" ","LANE":" ","ALLEY":" ","HOUSE_NO":"１３０號","E_COORD97":174492.82999999999,"N_COORD97":2571107.3900000001,"ADDRESS":"水池街１３０號","OBJECTID":614086},"geometry":{"x":174492.83000000007,"y":2571107.3900000006}},{"attributes":{"ID":614114,"DIS_CODE":0,"TOWNNAME":"中西區","LI":"赤嵌里","LIN":"8鄰","STREET":"廣慈街","SECT":" ","MAREA":" ","LANE":" ","ALLEY":" ","HOUSE_NO":"１９號","E_COORD97":168690.5,"N_COORD97":2544138.21,"ADDRESS":"廣慈街１９號","OBJECTID":614087},"geometry":{"x":168690.5,"y":2544138.2100000009}},{"attributes":{"ID":614115,"DIS_CODE":0,"TOWNNAME":"中西區","LI":"赤嵌里","LIN":"6鄰","STREET":"廣慈街","SECT":" ","MAREA":" ","LANE":" ","ALLEY":" ","HOUSE_NO":"１８號","E_COORD97":168664.23999999999,"N_COORD97":2544047.6000000001,"ADDRESS":"廣慈街１８號","OBJECTID":614088},"geometry":{"x":168664.24000000022,"y":2544047.6000000015}},{"attributes":{"ID":614116,"DIS_CODE":0,"TOWNNAME":"中西區","LI":"赤嵌里","LIN":"6鄰","STREET":"廣慈街","SECT":" ","MAREA":" ","LANE":" ","ALLEY":" ","HOUSE_NO":"２０號","E_COORD97":168664.91,"N_COORD97":2544049.9100000001,"ADDRESS":"廣慈街２０號","OBJECTID":614089},"geometry":{"x":168664.90999999922,"y":2544049.910000002}},{"attributes":{"ID":614117,"DIS_CODE":0,"TOWNNAME":"中西區","LI":"赤嵌里","LIN":"6鄰","STREET":"廣慈街","SECT":" ","MAREA":" ","LANE":" ","ALLEY":" ","HOUSE_NO":"２２號","E_COORD97":168665.89999999999,"N_COORD97":2544052.2200000002,"ADDRESS":"廣慈街２２號","OBJECTID":614090},"geometry":{"x":168665.9000000013,"y":2544052.2200000025}},{"attributes":{"ID":614118,"DIS_CODE":0,"TOWNNAME":"下營區","LI":"後街里","LIN":"2鄰","STREET":"水池街","SECT":" ","MAREA":" ","LANE":" ","ALLEY":" ","HOUSE_NO":"５０號","E_COORD97":174517.69,"N_COORD97":2570966.9199999999,"ADDRESS":"水池街５０號","OBJECTID":614091},"geometry":{"x":174517.69000000134,"y":2570966.9199999999}},{"attributes":{"ID":614119,"DIS_CODE":0,"TOWNNAME":"下營區","LI":"後街里","LIN":"2鄰","STREET":"水池街","SECT":" ","MAREA":" ","LANE":" ","ALLEY":" ","HOUSE_NO":"６０號","E_COORD97":174491.19,"N_COORD97":2570977.1299999999,"ADDRESS":"水池街６０號","OBJECTID":614092},"geometry":{"x":174491.19000000041,"y":2570977.1300000008}},{"attributes":{"ID":614120,"DIS_CODE":0,"TOWNNAME":"下營區","LI":"後街里","LIN":"2鄰","STREET":"水池街","SECT":" ","MAREA":" ","LANE":" ","ALLEY":" ","HOUSE_NO":"６２號","E_COORD97":174491.51000000001,"N_COORD97":2570981.1099999999,"ADDRESS":"水池街６２號","OBJECTID":614093},"geometry":{"x":174491.50999999978,"y":2570981.1100000013}},{"attributes":{"ID":614121,"DIS_CODE":0,"TOWNNAME":"下營區","LI":"後街里","LIN":"2鄰","STREET":"水池街","SECT":" ","MAREA":" ","LANE":" ","ALLEY":" ","HOUSE_NO":"６６號","E_COORD97":174491.67999999999,"N_COORD97":2570985.1200000001,"ADDRESS":"水池街６６號","OBJECTID":614094},"geometry":{"x":174491.6799999997,"y":2570985.1200000029}},{"attributes":{"ID":614122,"DIS_CODE":0,"TOWNNAME":"下營區","LI":"後街里","LIN":"2鄰","STREET":"水池街","SECT":" ","MAREA":" ","LANE":" ","ALLEY":" ","HOUSE_NO":"７０號","E_COORD97":174500.01000000001,"N_COORD97":2570991.27,"ADDRESS":"水池街７０號","OBJECTID":614095},"geometry":{"x":174500.00999999978,"y":2570991.2699999996}},{"attributes":{"ID":614123,"DIS_CODE":0,"TOWNNAME":"下營區","LI":"後街里","LIN":"2鄰","STREET":"水池街","SECT":" ","MAREA":" ","LANE":" ","ALLEY":" ","HOUSE_NO":"７２號","E_COORD97":174499.92999999999,"N_COORD97":2570995.7999999998,"ADDRESS":"水池街７２號","OBJECTID":614096},"geometry":{"x":174499.93000000063,"y":2570995.8000000007}},{"attributes":{"ID":614124,"DIS_CODE":0,"TOWNNAME":"下營區","LI":"後街里","LIN":"2鄰","STREET":"水池街","SECT":" ","MAREA":" ","LANE":" ","ALLEY":" ","HOUSE_NO":"７６號","E_COORD97":174493.67999999999,"N_COORD97":2571001.4700000002,"ADDRESS":"水池街７６號","OBJECTID":614097},"geometry":{"x":174493.6799999997,"y":2571001.4700000007}},{"attributes":{"ID":614125,"DIS_CODE":0,"TOWNNAME":"下營區","LI":"後街里","LIN":"2鄰","STREET":"水池街","SECT":" ","MAREA":" ","LANE":" ","ALLEY":" ","HOUSE_NO":"７８號","E_COORD97":174498.48999999999,"N_COORD97":2571026.7599999998,"ADDRESS":"水池街７８號","OBJECTID":614098},"geometry":{"x":174498.49000000115,"y":2571026.7600000035}},{"attributes":{"ID":614126,"DIS_CODE":0,"TOWNNAME":"下營區","LI":"後街里","LIN":"2鄰","STREET":"水池街","SECT":" ","MAREA":" ","LANE":" ","ALLEY":" ","HOUSE_NO":"８８號","E_COORD97":174511.82999999999,"N_COORD97":2571030.8700000001,"ADDRESS":"水池街８８號","OBJECTID":614099},"geometry":{"x":174511.83000000007,"y":2571030.8700000048}},{"attributes":{"ID":614127,"DIS_CODE":0,"TOWNNAME":"下營區","LI":"後街里","LIN":"2鄰","STREET":"水池街","SECT":" ","MAREA":" ","LANE":" ","ALLEY":" ","HOUSE_NO":"９８號","E_COORD97":174497.56,"N_COORD97":2571043.25,"ADDRESS":"水池街９８號","OBJECTID":614100},"geometry":{"x":174497.55999999959,"y":2571043.25}},{"attributes":{"ID":614128,"DIS_CODE":0,"TOWNNAME":"下營區","LI":"宅內里","LIN":"2鄰","STREET":"永安街","SECT":" ","MAREA":" ","LANE":" ","ALLEY":" ","HOUSE_NO":"７５號","E_COORD97":174086.76999999999,"N_COORD97":2570572.5099999998,"ADDRESS":"永安街７５號","OBJECTID":614101},"geometry":{"x":174086.77000000048,"y":2570572.5099999998}},{"attributes":{"ID":614129,"DIS_CODE":0,"TOWNNAME":"下營區","LI":"營前里","LIN":"2鄰","STREET":"民生街","SECT":" ","MAREA":" ","LANE":" ","ALLEY":" ","HOUSE_NO":"４９號","E_COORD97":174463.07000000001,"N_COORD97":2570360.0699999998,"ADDRESS":"民生街４９號","OBJECTID":614102},"geometry":{"x":174463.0700000003,"y":2570360.0700000003}},{"attributes":{"ID":614130,"DIS_CODE":0,"TOWNNAME":"下營區","LI":"營前里","LIN":"2鄰","STREET":"民生街","SECT":" ","MAREA":" ","LANE":" ","ALLEY":" ","HOUSE_NO":"５１號","E_COORD97":174462.79999999999,"N_COORD97":2570353.48,"ADDRESS":"民生街５１號","OBJECTID":614103},"geometry":{"x":174462.79999999888,"y":2570353.4800000004}},{"attributes":{"ID":614131,"DIS_CODE":0,"TOWNNAME":"中西區","LI":"赤嵌里","LIN":"1鄰","STREET":"中山路","SECT":" ","MAREA":" ","LANE":" ","ALLEY":" ","HOUSE_NO":"１３９號","E_COORD97":169004.35999999999,"N_COORD97":2544046.5600000001,"ADDRESS":"中山路１３９號","OBJECTID":614104},"geometry":{"x":169004.36000000034,"y":2544046.5600000005}},{"attributes":{"ID":614132,"DIS_CODE":0,"TOWNNAME":"中西區","LI":"赤嵌里","LIN":"1鄰","STREET":"中山路","SECT":" ","MAREA":" ","LANE":" ","ALLEY":" ","HOUSE_NO":"１４３號","E_COORD97":169010.28,"N_COORD97":2544049.52,"ADDRESS":"中山路１４３號","OBJECTID":614105},"geometry":{"x":169010.28000000119,"y":2544049.5199999996}},{"attributes":{"ID":614133,"DIS_CODE":0,"TOWNNAME":"中西區","LI":"赤嵌里","LIN":"1鄰","STREET":"中山路","SECT":" ","MAREA":" ","LANE":" ","ALLEY":" ","HOUSE_NO":"１４５號","E_COORD97":169015.98000000001,"N_COORD97":2544053.1600000001,"ADDRESS":"中山路１４５號","OBJECTID":614106},"geometry":{"x":169015.98000000138,"y":2544053.1600000001}},{"attributes":{"ID":614134,"DIS_CODE":0,"TOWNNAME":"中西區","LI":"赤嵌里","LIN":"2鄰","STREET":"成功路","SECT":" ","MAREA":" ","LANE":" ","ALLEY":" ","HOUSE_NO":"１號","E_COORD97":169098.91,"N_COORD97":2544185.98,"ADDRESS":"成功路１號","OBJECTID":614107},"geometry":{"x":169098.91000000201,"y":2544185.9800000004}},{"attributes":{"ID":614135,"DIS_CODE":0,"TOWNNAME":"中西區","LI":"赤嵌里","LIN":"3鄰","STREET":"民族路","SECT":"二段","MAREA":" ","LANE":" ","ALLEY":" ","HOUSE_NO":"７８號","E_COORD97":168755.13,"N_COORD97":2543983.8599999999,"ADDRESS":"民族路二段７８號","OBJECTID":614108},"geometry":{"x":168755.13000000082,"y":2543983.8600000031}},{"attributes":{"ID":614136,"DIS_CODE":0,"TOWNNAME":"下營區","LI":"營前里","LIN":"2鄰","STREET":"民生街","SECT":" ","MAREA":" ","LANE":" ","ALLEY":" ","HOUSE_NO":"５７號","E_COORD97":174458.76999999999,"N_COORD97":2570340.8399999999,"ADDRESS":"民生街５７號","OBJECTID":614109},"geometry":{"x":174458.76999999955,"y":2570340.8399999999}},{"attributes":{"ID":614137,"DIS_CODE":0,"TOWNNAME":"下營區","LI":"營前里","LIN":"2鄰","STREET":"民權一街","SECT":" ","MAREA":" ","LANE":" ","ALLEY":" ","HOUSE_NO":"１６號","E_COORD97":174550.13,"N_COORD97":2570347.2400000002,"ADDRESS":"民權一街１６號","OBJECTID":614110},"geometry":{"x":174550.12999999989,"y":2570347.2400000021}},{"attributes":{"ID":614138,"DIS_CODE":0,"TOWNNAME":"下營區","LI":"營前里","LIN":"2鄰","STREET":"民權一街","SECT":" ","MAREA":" ","LANE":" ","ALLEY":" ","HOUSE_NO":"７號","E_COORD97":174523.35000000001,"N_COORD97":2570342.75,"ADDRESS":"民權一街７號","OBJECTID":614111},"geometry":{"x":174523.3499999987,"y":2570342.7500000019}},{"attributes":{"ID":614139,"DIS_CODE":0,"TOWNNAME":"下營區","LI":"宅內里","LIN":"2鄰","STREET":"永安街","SECT":" ","MAREA":" ","LANE":" ","ALLEY":" ","HOUSE_NO":"１０２號","E_COORD97":174108.92000000001,"N_COORD97":2570552.8100000001,"ADDRESS":"永安街１０２號","OBJECTID":614112},"geometry":{"x":174108.91999999993,"y":2570552.8100000024}},{"attributes":{"ID":614140,"DIS_CODE":0,"TOWNNAME":"下營區","LI":"宅內里","LIN":"2鄰","STREET":"永安街","SECT":" ","MAREA":" ","LANE":" ","ALLEY":" ","HOUSE_NO":"１０８號","E_COORD97":174118.73999999999,"N_COORD97":2570564.96,"ADDRESS":"永安街１０８號","OBJECTID":614113},"geometry":{"x":174118.74000000115,"y":2570564.9600000009}},{"attributes":{"ID":614141,"DIS_CODE":0,"TOWNNAME":"下營區","LI":"宅內里","LIN":"2鄰","STREET":"永安街","SECT":" ","MAREA":" ","LANE":" ","ALLEY":" ","HOUSE_NO":"１１２號","E_COORD97":174127.79999999999,"N_COORD97":2570575.79,"ADDRESS":"永安街１１２號","OBJECTID":614114},"geometry":{"x":174127.80000000075,"y":2570575.790000001}},{"attributes":{"ID":614142,"DIS_CODE":0,"TOWNNAME":"中西區","LI":"赤嵌里","LIN":"1鄰","STREET":"中山路","SECT":" ","MAREA":" ","LANE":" ","ALLEY":" ","HOUSE_NO":"１９９號","E_COORD97":169106.20000000001,"N_COORD97":2544123.4100000001,"ADDRESS":"中山路１９９號","OBJECTID":614115},"geometry":{"x":169106.20000000112,"y":2544123.4100000039}},{"attributes":{"ID":614143,"DIS_CODE":0,"TOWNNAME":"中西區","LI":"赤嵌里","LIN":"3鄰","STREET":"民族路","SECT":"二段","MAREA":" ","LANE":" ","ALLEY":" ","HOUSE_NO":"７６號之１０底一層之","E_COORD97":168848.04999999999,"N_COORD97":2543948.4900000002,"ADDRESS":"民族路二段７６號之１０底一層之１","OBJECTID":614116},"geometry":{"x":168848.04999999981,"y":2543948.4900000002}},{"attributes":{"ID":614144,"DIS_CODE":0,"TOWNNAME":"中西區","LI":"赤嵌里","LIN":"3鄰","STREET":"民族路","SECT":"二段","MAREA":" ","LANE":" ","ALLEY":" ","HOUSE_NO":"７６號之１０底一層之","E_COORD97":168848.04999999999,"N_COORD97":2543948.4900000002,"ADDRESS":"民族路二段７６號之１０底一層之１０","OBJECTID":614117},"geometry":{"x":168848.04999999981,"y":2543948.4900000002}},{"attributes":{"ID":614145,"DIS_CODE":0,"TOWNNAME":"中西區","LI":"赤嵌里","LIN":"3鄰","STREET":"民族路","SECT":"二段","MAREA":" ","LANE":" ","ALLEY":" ","HOUSE_NO":"７６號之１０底一層之","E_COORD97":168848.04999999999,"N_COORD97":2543948.4900000002,"ADDRESS":"民族路二段７６號之１０底一層之１１","OBJECTID":614118},"geometry":{"x":168848.04999999981,"y":2543948.4900000002}},{"attributes":{"ID":614146,"DIS_CODE":0,"TOWNNAME":"中西區","LI":"赤嵌里","LIN":"3鄰","STREET":"民族路","SECT":"二段","MAREA":" ","LANE":" ","ALLEY":" ","HOUSE_NO":"７６號之１０底一層之","E_COORD97":168848.04999999999,"N_COORD97":2543948.4900000002,"ADDRESS":"民族路二段７６號之１０底一層之１２","OBJECTID":614119},"geometry":{"x":168848.04999999981,"y":2543948.4900000002}},{"attributes":{"ID":614147,"DIS_CODE":0,"TOWNNAME":"中西區","LI":"赤嵌里","LIN":"3鄰","STREET":"民族路","SECT":"二段","MAREA":" ","LANE":" ","ALLEY":" ","HOUSE_NO":"７６號之１０底一層之","E_COORD97":168848.04999999999,"N_COORD97":2543948.4900000002,"ADDRESS":"民族路二段７６號之１０底一層之１３","OBJECTID":614120},"geometry":{"x":168848.04999999981,"y":2543948.4900000002}},{"attributes":{"ID":614148,"DIS_CODE":0,"TOWNNAME":"中西區","LI":"赤嵌里","LIN":"3鄰","STREET":"民族路","SECT":"二段","MAREA":" ","LANE":" ","ALLEY":" ","HOUSE_NO":"７６號之１０底一層之","E_COORD97":168848.04999999999,"N_COORD97":2543948.4900000002,"ADDRESS":"民族路二段７６號之１０底一層之１４","OBJECTID":614121},"geometry":{"x":168848.04999999981,"y":2543948.4900000002}},{"attributes":{"ID":614149,"DIS_CODE":0,"TOWNNAME":"中西區","LI":"赤嵌里","LIN":"3鄰","STREET":"民族路","SECT":"二段","MAREA":" ","LANE":" ","ALLEY":" ","HOUSE_NO":"７６號之１０底一層之","E_COORD97":168848.04999999999,"N_COORD97":2543948.4900000002,"ADDRESS":"民族路二段７６號之１０底一層之１５","OBJECTID":614122},"geometry":{"x":168848.04999999981,"y":2543948.4900000002}},{"attributes":{"ID":614150,"DIS_CODE":0,"TOWNNAME":"中西區","LI":"赤嵌里","LIN":"3鄰","STREET":"民族路","SECT":"二段","MAREA":" ","LANE":" ","ALLEY":" ","HOUSE_NO":"７６號之１０底一層之","E_COORD97":168848.04999999999,"N_COORD97":2543948.4900000002,"ADDRESS":"民族路二段７６號之１０底一層之１６","OBJECTID":614123},"geometry":{"x":168848.04999999981,"y":2543948.4900000002}},{"attributes":{"ID":614151,"DIS_CODE":0,"TOWNNAME":"中西區","LI":"赤嵌里","LIN":"3鄰","STREET":"民族路","SECT":"二段","MAREA":" ","LANE":" ","ALLEY":" ","HOUSE_NO":"７６號之１０底一層之","E_COORD97":168848.04999999999,"N_COORD97":2543948.4900000002,"ADDRESS":"民族路二段７６號之１０底一層之１７","OBJECTID":614124},"geometry":{"x":168848.04999999981,"y":2543948.4900000002}},{"attributes":{"ID":614152,"DIS_CODE":0,"TOWNNAME":"中西區","LI":"赤嵌里","LIN":"3鄰","STREET":"民族路","SECT":"二段","MAREA":" ","LANE":" ","ALLEY":" ","HOUSE_NO":"７６號之１０底一層之","E_COORD97":168848.04999999999,"N_COORD97":2543948.4900000002,"ADDRESS":"民族路二段７６號之１０底一層之１８","OBJECTID":614125},"geometry":{"x":168848.04999999981,"y":2543948.4900000002}},{"attributes":{"ID":614153,"DIS_CODE":0,"TOWNNAME":"中西區","LI":"赤嵌里","LIN":"3鄰","STREET":"民族路","SECT":"二段","MAREA":" ","LANE":" ","ALLEY":" ","HOUSE_NO":"７６號之１０底一層之","E_COORD97":168848.04999999999,"N_COORD97":2543948.4900000002,"ADDRESS":"民族路二段７６號之１０底一層之１９","OBJECTID":614126},"geometry":{"x":168848.04999999981,"y":2543948.4900000002}},{"attributes":{"ID":614154,"DIS_CODE":0,"TOWNNAME":"中西區","LI":"赤嵌里","LIN":"3鄰","STREET":"民族路","SECT":"二段","MAREA":" ","LANE":" ","ALLEY":" ","HOUSE_NO":"７６號之１０底一層之","E_COORD97":168848.04999999999,"N_COORD97":2543948.4900000002,"ADDRESS":"民族路二段７６號之１０底一層之２","OBJECTID":614127},"geometry":{"x":168848.04999999981,"y":2543948.4900000002}},{"attributes":{"ID":614155,"DIS_CODE":0,"TOWNNAME":"仁德區","LI":"仁義里","LIN":"25鄰","STREET":"正義路","SECT":" ","MAREA":" ","LANE":" ","ALLEY":" ","HOUSE_NO":"９０號","E_COORD97":173583.16,"N_COORD97":2541427.96,"ADDRESS":"正義路９０號","OBJECTID":614128},"geometry":{"x":173583.16000000108,"y":2541427.9600000009}},{"attributes":{"ID":614156,"DIS_CODE":0,"TOWNNAME":"中西區","LI":"赤嵌里","LIN":"1鄰","STREET":"西華南街","SECT":" ","MAREA":" ","LANE":" ","ALLEY":" ","HOUSE_NO":"８８號","E_COORD97":169009.14000000001,"N_COORD97":2544072.5,"ADDRESS":"西華南街８８號","OBJECTID":614129},"geometry":{"x":169009.1400000006,"y":2544072.5000000019}},{"attributes":{"ID":614157,"DIS_CODE":0,"TOWNNAME":"中西區","LI":"赤嵌里","LIN":"1鄰","STREET":"中山路","SECT":" ","MAREA":" ","LANE":" ","ALLEY":" ","HOUSE_NO":"１７９號","E_COORD97":169068.84,"N_COORD97":2544090.8700000001,"ADDRESS":"中山路１７９號","OBJECTID":614130},"geometry":{"x":169068.84000000078,"y":2544090.8700000048}},{"attributes":{"ID":614158,"DIS_CODE":0,"TOWNNAME":"中西區","LI":"赤嵌里","LIN":"1鄰","STREET":"中山路","SECT":" ","MAREA":" ","LANE":" ","ALLEY":" ","HOUSE_NO":"１８１號","E_COORD97":169071.34,"N_COORD97":2544093.3700000001,"ADDRESS":"中山路１８１號","OBJECTID":614131},"geometry":{"x":169071.33999999985,"y":2544093.370000001}},{"attributes":{"ID":614159,"DIS_CODE":0,"TOWNNAME":"中西區","LI":"赤嵌里","LIN":"1鄰","STREET":"中山路","SECT":" ","MAREA":" ","LANE":" ","ALLEY":" ","HOUSE_NO":"１８３號","E_COORD97":169073.85000000001,"N_COORD97":2544094.7400000002,"ADDRESS":"中山路１８３號","OBJECTID":614132},"geometry":{"x":169073.85000000056,"y":2544094.7400000021}},{"attributes":{"ID":614160,"DIS_CODE":0,"TOWNNAME":"中西區","LI":"赤嵌里","LIN":"1鄰","STREET":"中山路","SECT":" ","MAREA":" ","LANE":" ","ALLEY":" ","HOUSE_NO":"１８５號","E_COORD97":169076.13,"N_COORD97":2544096.7799999998,"ADDRESS":"中山路１８５號","OBJECTID":614133},"geometry":{"x":169076.12999999989,"y":2544096.7800000012}},{"attributes":{"ID":614161,"DIS_CODE":0,"TOWNNAME":"中西區","LI":"赤嵌里","LIN":"3鄰","STREET":"民族路","SECT":"二段","MAREA":" ","LANE":" ","ALLEY":" ","HOUSE_NO":"７６號之９","E_COORD97":168856.70999999999,"N_COORD97":2543945.2999999998,"ADDRESS":"民族路二段７６號之９","OBJECTID":614134},"geometry":{"x":168856.71000000089,"y":2543945.3000000026}},{"attributes":{"ID":614162,"DIS_CODE":0,"TOWNNAME":"中西區","LI":"赤嵌里","LIN":"1鄰","STREET":"中山路","SECT":" ","MAREA":" ","LANE":" ","ALLEY":" ","HOUSE_NO":"２０１號","E_COORD97":169111.22,"N_COORD97":2544128.6400000001,"ADDRESS":"中山路２０１號","OBJECTID":614135},"geometry":{"x":169111.21999999974,"y":2544128.6400000006}},{"attributes":{"ID":614163,"DIS_CODE":0,"TOWNNAME":"中西區","LI":"赤嵌里","LIN":"1鄰","STREET":"中山路","SECT":" ","MAREA":" ","LANE":" ","ALLEY":" ","HOUSE_NO":"２０３號","E_COORD97":169116.67999999999,"N_COORD97":2544131.6000000001,"ADDRESS":"中山路２０３號","OBJECTID":614136},"geometry":{"x":169116.6799999997,"y":2544131.6000000034}},{"attributes":{"ID":614164,"DIS_CODE":0,"TOWNNAME":"中西區","LI":"赤嵌里","LIN":"1鄰","STREET":"中山路","SECT":" ","MAREA":" ","LANE":" ","ALLEY":" ","HOUSE_NO":"２０５號","E_COORD97":169122.60999999999,"N_COORD97":2544135.2400000002,"ADDRESS":"中山路２０５號","OBJECTID":614137},"geometry":{"x":169122.61000000034,"y":2544135.2400000021}},{"attributes":{"ID":614165,"DIS_CODE":0,"TOWNNAME":"中西區","LI":"赤嵌里","LIN":"1鄰","STREET":"中山路","SECT":" ","MAREA":" ","LANE":" ","ALLEY":" ","HOUSE_NO":"２０７號","E_COORD97":169136.95999999999,"N_COORD97":2544148.4399999999,"ADDRESS":"中山路２０７號","OBJECTID":614138},"geometry":{"x":169136.95999999996,"y":2544148.4399999995}},{"attributes":{"ID":614166,"DIS_CODE":0,"TOWNNAME":"中西區","LI":"赤嵌里","LIN":"1鄰","STREET":"中山路","SECT":" ","MAREA":" ","LANE":" ","ALLEY":" ","HOUSE_NO":"２０９號","E_COORD97":169123.51999999999,"N_COORD97":2544158.4500000002,"ADDRESS":"中山路２０９號","OBJECTID":614139},"geometry":{"x":169123.52000000048,"y":2544158.4499999993}},{"attributes":{"ID":614167,"DIS_CODE":0,"TOWNNAME":"中西區","LI":"赤嵌里","LIN":"4鄰","STREET":"中山路","SECT":" ","MAREA":" ","LANE":" ","ALLEY":" ","HOUSE_NO":"１２５號","E_COORD97":168931.81,"N_COORD97":2544038.6899999999,"ADDRESS":"中山路１２５號","OBJECTID":614140},"geometry":{"x":168931.81000000052,"y":2544038.6899999995}},{"attributes":{"ID":614168,"DIS_CODE":0,"TOWNNAME":"中西區","LI":"赤嵌里","LIN":"4鄰","STREET":"中山路","SECT":" ","MAREA":" ","LANE":" ","ALLEY":" ","HOUSE_NO":"１２５號之１０","E_COORD97":168923.23999999999,"N_COORD97":2544208.0600000001,"ADDRESS":"中山路１２５號之１０","OBJECTID":614141},"geometry":{"x":168923.24000000022,"y":2544208.0600000024}},{"attributes":{"ID":614169,"DIS_CODE":0,"TOWNNAME":"中西區","LI":"赤嵌里","LIN":"4鄰","STREET":"中山路","SECT":" ","MAREA":" ","LANE":" ","ALLEY":" ","HOUSE_NO":"１２５號之１１","E_COORD97":168919.37,"N_COORD97":2544208.5099999998,"ADDRESS":"中山路１２５號之１１","OBJECTID":614142},"geometry":{"x":168919.36999999918,"y":2544208.5100000016}},{"attributes":{"ID":614170,"DIS_CODE":0,"TOWNNAME":"中西區","LI":"赤嵌里","LIN":"4鄰","STREET":"中山路","SECT":" ","MAREA":" ","LANE":" ","ALLEY":" ","HOUSE_NO":"１２５號之１２","E_COORD97":168915.26999999999,"N_COORD97":2544208.7400000002,"ADDRESS":"中山路１２５號之１２","OBJECTID":614143},"geometry":{"x":168915.27000000048,"y":2544208.7400000002}},{"attributes":{"ID":614171,"DIS_CODE":0,"TOWNNAME":"中西區","LI":"赤嵌里","LIN":"4鄰","STREET":"中山路","SECT":" ","MAREA":" ","LANE":" ","ALLEY":" ","HOUSE_NO":"１２５號之１３","E_COORD97":168889.29000000001,"N_COORD97":2544213.52,"ADDRESS":"中山路１２５號之１３","OBJECTID":614144},"geometry":{"x":168889.29000000004,"y":2544213.5200000033}},{"attributes":{"ID":614172,"DIS_CODE":0,"TOWNNAME":"中西區","LI":"赤嵌里","LIN":"5鄰","STREET":"成功路","SECT":" ","MAREA":" ","LANE":" ","ALLEY":" ","HOUSE_NO":"２１號","E_COORD97":169013.47,"N_COORD97":2544214.2000000002,"ADDRESS":"成功路２１號","OBJECTID":614145},"geometry":{"x":169013.4700000016,"y":2544214.1999999993}},{"attributes":{"ID":614173,"DIS_CODE":0,"TOWNNAME":"中西區","LI":"赤嵌里","LIN":"5鄰","STREET":"成功路","SECT":" ","MAREA":" ","LANE":" ","ALLEY":" ","HOUSE_NO":"２１號之１","E_COORD97":169006.41,"N_COORD97":2544214.4300000002,"ADDRESS":"成功路２１號之１","OBJECTID":614146},"geometry":{"x":169006.41000000108,"y":2544214.4300000034}},{"attributes":{"ID":614174,"DIS_CODE":0,"TOWNNAME":"中西區","LI":"赤嵌里","LIN":"5鄰","STREET":"成功路","SECT":" ","MAREA":" ","LANE":" ","ALLEY":" ","HOUSE_NO":"２５號","E_COORD97":168995.23999999999,"N_COORD97":2544216.02,"ADDRESS":"成功路２５號","OBJECTID":614147},"geometry":{"x":168995.24000000115,"y":2544216.0199999996}},{"attributes":{"ID":614175,"DIS_CODE":0,"TOWNNAME":"中西區","LI":"赤嵌里","LIN":"5鄰","STREET":"成功路","SECT":" ","MAREA":" ","LANE":" ","ALLEY":" ","HOUSE_NO":"２５號之１","E_COORD97":168990.91,"N_COORD97":2544217.1600000001,"ADDRESS":"成功路２５號之１","OBJECTID":614148},"geometry":{"x":168990.91000000108,"y":2544217.160000002}},{"attributes":{"ID":614176,"DIS_CODE":0,"TOWNNAME":"中西區","LI":"赤嵌里","LIN":"5鄰","STREET":"成功路","SECT":" ","MAREA":" ","LANE":" ","ALLEY":" ","HOUSE_NO":"２５號之２","E_COORD97":168980.42999999999,"N_COORD97":2544218.5299999998,"ADDRESS":"成功路２５號之２","OBJECTID":614149},"geometry":{"x":168980.43000000063,"y":2544218.5299999993}},{"attributes":{"ID":614177,"DIS_CODE":0,"TOWNNAME":"中西區","LI":"赤嵌里","LIN":"5鄰","STREET":"成功路","SECT":" ","MAREA":" ","LANE":" ","ALLEY":" ","HOUSE_NO":"２７號","E_COORD97":168976.32999999999,"N_COORD97":2544219.4399999999,"ADDRESS":"成功路２７號","OBJECTID":614150},"geometry":{"x":168976.33000000101,"y":2544219.4399999995}},{"attributes":{"ID":614178,"DIS_CODE":0,"TOWNNAME":"中西區","LI":"赤嵌里","LIN":"5鄰","STREET":"成功路","SECT":" ","MAREA":" ","LANE":" ","ALLEY":" ","HOUSE_NO":"２７號之１","E_COORD97":168970.85999999999,"N_COORD97":2544220.1200000001,"ADDRESS":"成功路２７號之１","OBJECTID":614151},"geometry":{"x":168970.86000000127,"y":2544220.120000001}},{"attributes":{"ID":614179,"DIS_CODE":0,"TOWNNAME":"中西區","LI":"赤嵌里","LIN":"5鄰","STREET":"成功路","SECT":" ","MAREA":" ","LANE":" ","ALLEY":" ","HOUSE_NO":"２９號","E_COORD97":168965.17000000001,"N_COORD97":2544220.5699999998,"ADDRESS":"成功路２９號","OBJECTID":614152},"geometry":{"x":168965.17000000086,"y":2544220.5699999984}},{"attributes":{"ID":614180,"DIS_CODE":0,"TOWNNAME":"中西區","LI":"赤嵌里","LIN":"5鄰","STREET":"成功路","SECT":" ","MAREA":" ","LANE":" ","ALLEY":" ","HOUSE_NO":"３１號","E_COORD97":168959.70000000001,"N_COORD97":2544221.2599999998,"ADDRESS":"成功路３１號","OBJECTID":614153},"geometry":{"x":168959.70000000205,"y":2544221.2599999998}},{"attributes":{"ID":614181,"DIS_CODE":0,"TOWNNAME":"中西區","LI":"赤嵌里","LIN":"4鄰","STREET":"中山路","SECT":" ","MAREA":" ","LANE":" ","ALLEY":" ","HOUSE_NO":"１２５號之９","E_COORD97":168926.42999999999,"N_COORD97":2544207.1499999999,"ADDRESS":"中山路１２５號之９","OBJECTID":614154},"geometry":{"x":168926.4299999997,"y":2544207.1500000022}},{"attributes":{"ID":614182,"DIS_CODE":0,"TOWNNAME":"中西區","LI":"赤嵌里","LIN":"4鄰","STREET":"成功路","SECT":" ","MAREA":" ","LANE":" ","ALLEY":" ","HOUSE_NO":"３５號","E_COORD97":168988.63,"N_COORD97":2544201.7799999998,"ADDRESS":"成功路３５號","OBJECTID":614155},"geometry":{"x":168988.62999999896,"y":2544201.7800000012}},{"attributes":{"ID":614183,"DIS_CODE":0,"TOWNNAME":"中西區","LI":"赤嵌里","LIN":"4鄰","STREET":"成功路","SECT":" ","MAREA":" ","LANE":" ","ALLEY":" ","HOUSE_NO":"３７號","E_COORD97":168995.06,"N_COORD97":2544199.5800000001,"ADDRESS":"成功路３７號","OBJECTID":614156},"geometry":{"x":168995.05999999959,"y":2544199.5800000001}},{"attributes":{"ID":614184,"DIS_CODE":0,"TOWNNAME":"中西區","LI":"赤嵌里","LIN":"4鄰","STREET":"成功路","SECT":" ","MAREA":" ","LANE":" ","ALLEY":" ","HOUSE_NO":"３９號","E_COORD97":169006.81,"N_COORD97":2544196.0899999999,"ADDRESS":"成功路３９號","OBJECTID":614157},"geometry":{"x":169006.80999999959,"y":2544196.0899999999}},{"attributes":{"ID":614185,"DIS_CODE":0,"TOWNNAME":"中西區","LI":"赤嵌里","LIN":"4鄰","STREET":"成功路","SECT":" ","MAREA":" ","LANE":" ","ALLEY":" ","HOUSE_NO":"４１號","E_COORD97":169014.51999999999,"N_COORD97":2544194.2599999998,"ADDRESS":"成功路４１號","OBJECTID":614158},"geometry":{"x":169014.52000000142,"y":2544194.2599999998}},{"attributes":{"ID":614186,"DIS_CODE":0,"TOWNNAME":"中西區","LI":"赤嵌里","LIN":"4鄰","STREET":"成功路","SECT":" ","MAREA":" ","LANE":" ","ALLEY":" ","HOUSE_NO":"４３號","E_COORD97":168995.60999999999,"N_COORD97":2544165.0899999999,"ADDRESS":"成功路４３號","OBJECTID":614159},"geometry":{"x":168995.61000000034,"y":2544165.0899999999}},{"attributes":{"ID":614187,"DIS_CODE":0,"TOWNNAME":"中西區","LI":"赤嵌里","LIN":"4鄰","STREET":"成功路","SECT":" ","MAREA":" ","LANE":" ","ALLEY":" ","HOUSE_NO":"４３號之１","E_COORD97":169003.51000000001,"N_COORD97":2544162.3300000001,"ADDRESS":"成功路４３號之１","OBJECTID":614160},"geometry":{"x":169003.51000000071,"y":2544162.3300000019}},{"attributes":{"ID":614188,"DIS_CODE":0,"TOWNNAME":"中西區","LI":"赤嵌里","LIN":"4鄰","STREET":"成功路","SECT":" ","MAREA":" ","LANE":" ","ALLEY":" ","HOUSE_NO":"４３號之２","E_COORD97":169013.23999999999,"N_COORD97":2544159.9500000002,"ADDRESS":"成功路４３號之２","OBJECTID":614161},"geometry":{"x":169013.24000000022,"y":2544159.9500000011}},{"attributes":{"ID":614189,"DIS_CODE":0,"TOWNNAME":"永康區","LI":"永康里","LIN":"2鄰","STREET":"中山北路","SECT":" ","MAREA":" ","LANE":" ","ALLEY":" ","HOUSE_NO":"４１號","E_COORD97":173969.51000000001,"N_COORD97":2547384.0800000001,"ADDRESS":"中山北路４１號","OBJECTID":614162},"geometry":{"x":173969.50999999978,"y":2547384.0800000019}},{"attributes":{"ID":614190,"DIS_CODE":0,"TOWNNAME":"中西區","LI":"天后里","LIN":"13鄰","STREET":"新美街","SECT":" ","MAREA":" ","LANE":" ","ALLEY":" ","HOUSE_NO":"１６０號","E_COORD97":168112.45999999999,"N_COORD97":2544230.1899999999,"ADDRESS":"新美街１６０號","OBJECTID":614163},"geometry":{"x":168112.46000000089,"y":2544230.1900000013}},{"attributes":{"ID":614191,"DIS_CODE":0,"TOWNNAME":"中西區","LI":"天后里","LIN":"13鄰","STREET":"新美街","SECT":" ","MAREA":" ","LANE":" ","ALLEY":" ","HOUSE_NO":"１６２號","E_COORD97":168130.60000000001,"N_COORD97":2544222.8799999999,"ADDRESS":"新美街１６２號","OBJECTID":614164},"geometry":{"x":168130.59999999963,"y":2544222.879999999}},{"attributes":{"ID":614192,"DIS_CODE":0,"TOWNNAME":"中西區","LI":"天后里","LIN":"13鄰","STREET":"新美街","SECT":" ","MAREA":" ","LANE":" ","ALLEY":" ","HOUSE_NO":"１６４號","E_COORD97":168133.97,"N_COORD97":2544222.5,"ADDRESS":"新美街１６４號","OBJECTID":614165},"geometry":{"x":168133.97000000067,"y":2544222.5000000019}},{"attributes":{"ID":614193,"DIS_CODE":0,"TOWNNAME":"中西區","LI":"天后里","LIN":"13鄰","STREET":"新美街","SECT":" ","MAREA":" ","LANE":" ","ALLEY":" ","HOUSE_NO":"１６６號","E_COORD97":168137.20999999999,"N_COORD97":2544221.5899999999,"ADDRESS":"新美街１６６號","OBJECTID":614166},"geometry":{"x":168137.21000000183,"y":2544221.5900000017}},{"attributes":{"ID":614194,"DIS_CODE":0,"TOWNNAME":"中西區","LI":"天后里","LIN":"13鄰","STREET":"新美街","SECT":" ","MAREA":" ","LANE":" ","ALLEY":" ","HOUSE_NO":"１６８號","E_COORD97":168139.54000000001,"N_COORD97":2544220.5600000001,"ADDRESS":"新美街１６８號","OBJECTID":614167},"geometry":{"x":168139.54000000004,"y":2544220.5600000005}},{"attributes":{"ID":614195,"DIS_CODE":0,"TOWNNAME":"中西區","LI":"天后里","LIN":"13鄰","STREET":"新美街","SECT":" ","MAREA":" ","LANE":" ","ALLEY":" ","HOUSE_NO":"１７０號","E_COORD97":168143.03,"N_COORD97":2544219.7799999998,"ADDRESS":"新美街１７０號","OBJECTID":614168},"geometry":{"x":168143.03000000026,"y":2544219.7800000012}},{"attributes":{"ID":614196,"DIS_CODE":0,"TOWNNAME":"中西區","LI":"天后里","LIN":"13鄰","STREET":"新美街","SECT":" ","MAREA":" ","LANE":" ","ALLEY":" ","HOUSE_NO":"１７２號","E_COORD97":168160.98999999999,"N_COORD97":2544217.3199999998,"ADDRESS":"新美街１７２號","OBJECTID":614169},"geometry":{"x":168160.99000000209,"y":2544217.3200000022}},{"attributes":{"ID":614197,"DIS_CODE":0,"TOWNNAME":"中西區","LI":"天后里","LIN":"13鄰","STREET":"赤嵌街","SECT":" ","MAREA":" ","LANE":" ","ALLEY":" ","HOUSE_NO":"１１號","E_COORD97":168204.13,"N_COORD97":2544240.4199999999,"ADDRESS":"赤嵌街１１號","OBJECTID":614170},"geometry":{"x":168204.13000000082,"y":2544240.4199999999}},{"attributes":{"ID":614198,"DIS_CODE":0,"TOWNNAME":"中西區","LI":"天后里","LIN":"13鄰","STREET":"赤嵌街","SECT":" ","MAREA":" ","LANE":" ","ALLEY":" ","HOUSE_NO":"１３號","E_COORD97":168203.32000000001,"N_COORD97":2544247.9900000002,"ADDRESS":"赤嵌街１３號","OBJECTID":614171},"geometry":{"x":168203.32000000123,"y":2544247.9900000002}},{"attributes":{"ID":614199,"DIS_CODE":0,"TOWNNAME":"永康區","LI":"埔園里","LIN":"2鄰","STREET":"中山路","SECT":" ","MAREA":" ","LANE":" ","ALLEY":" ","HOUSE_NO":"１３０號","E_COORD97":173791.03,"N_COORD97":2547743.9900000002,"ADDRESS":"中山路１３０號","OBJECTID":614172},"geometry":{"x":173791.03000000119,"y":2547743.9900000039}},{"attributes":{"ID":614200,"DIS_CODE":0,"TOWNNAME":"永康區","LI":"蔦松里","LIN":"2鄰","STREET":"中正北路","SECT":" ","MAREA":" ","LANE":" ","ALLEY":" ","HOUSE_NO":"５１７號","E_COORD97":173822.70000000001,"N_COORD97":2549165.2400000002,"ADDRESS":"中正北路５１７號","OBJECTID":614173},"geometry":{"x":173822.70000000019,"y":2549165.2400000002}},{"attributes":{"ID":614201,"DIS_CODE":0,"TOWNNAME":"永康區","LI":"蔦松里","LIN":"2鄰","STREET":"中正北路","SECT":" ","MAREA":" ","LANE":" ","ALLEY":" ","HOUSE_NO":"５３３號","E_COORD97":173890.47,"N_COORD97":2549210.2400000002,"ADDRESS":"中正北路５３３號","OBJECTID":614174},"geometry":{"x":173890.4700000016,"y":2549210.2400000039}},{"attributes":{"ID":614202,"DIS_CODE":0,"TOWNNAME":"中西區","LI":"天后里","LIN":"24鄰","STREET":"郡緯街","SECT":" ","MAREA":" ","LANE":" ","ALLEY":" ","HOUSE_NO":"１０號","E_COORD97":168191.94,"N_COORD97":2544302.27,"ADDRESS":"郡緯街１０號","OBJECTID":614175},"geometry":{"x":168191.94000000041,"y":2544302.2699999996}},{"attributes":{"ID":614203,"DIS_CODE":0,"TOWNNAME":"永康區","LI":"復華里","LIN":"2鄰","STREET":"復國二路","SECT":" ","MAREA":" ","LANE":" ","ALLEY":" ","HOUSE_NO":"２６８號","E_COORD97":173053.54000000001,"N_COORD97":2546005.3199999998,"ADDRESS":"復國二路２６８號","OBJECTID":614176},"geometry":{"x":173053.54000000097,"y":2546005.3200000003}},{"attributes":{"ID":614204,"DIS_CODE":0,"TOWNNAME":"中西區","LI":"天后里","LIN":"24鄰","STREET":"郡緯街","SECT":" ","MAREA":" ","LANE":" ","ALLEY":" ","HOUSE_NO":"６號底層","E_COORD97":168205.07999999999,"N_COORD97":2544297.52,"ADDRESS":"郡緯街６號底層","OBJECTID":614177},"geometry":{"x":168205.08000000101,"y":2544297.5199999996}},{"attributes":{"ID":614205,"DIS_CODE":0,"TOWNNAME":"中西區","LI":"天后里","LIN":"23鄰","STREET":"赤嵌街","SECT":" ","MAREA":" ","LANE":" ","ALLEY":" ","HOUSE_NO":"３１號","E_COORD97":168218.09,"N_COORD97":2544288.2999999998,"ADDRESS":"赤嵌街３１號","OBJECTID":614178},"geometry":{"x":168218.09000000078,"y":2544288.3000000026}},{"attributes":{"ID":614206,"DIS_CODE":0,"TOWNNAME":"中西區","LI":"天后里","LIN":"23鄰","STREET":"赤嵌街","SECT":" ","MAREA":" ","LANE":" ","ALLEY":" ","HOUSE_NO":"３１號之１","E_COORD97":168220.89000000001,"N_COORD97":2544291.79,"ADDRESS":"赤嵌街３１號之１","OBJECTID":614179},"geometry":{"x":168220.8900000006,"y":2544291.7899999991}},{"attributes":{"ID":614207,"DIS_CODE":0,"TOWNNAME":"中西區","LI":"天后里","LIN":"23鄰","STREET":"赤嵌街","SECT":" ","MAREA":" ","LANE":" ","ALLEY":" ","HOUSE_NO":"３３號","E_COORD97":168222.14999999999,"N_COORD97":2544295.8399999999,"ADDRESS":"赤嵌街３３號","OBJECTID":614180},"geometry":{"x":168222.15000000037,"y":2544295.8399999999}},{"attributes":{"ID":614208,"DIS_CODE":0,"TOWNNAME":"中西區","LI":"天后里","LIN":"23鄰","STREET":"赤嵌街","SECT":" ","MAREA":" ","LANE":" ","ALLEY":" ","HOUSE_NO":"３５號","E_COORD97":168224.79999999999,"N_COORD97":2544302.5499999998,"ADDRESS":"赤嵌街３５號","OBJECTID":614181},"geometry":{"x":168224.80000000075,"y":2544302.5499999989}},{"attributes":{"ID":614209,"DIS_CODE":0,"TOWNNAME":"中西區","LI":"天后里","LIN":"23鄰","STREET":"赤嵌街","SECT":" ","MAREA":" ","LANE":" ","ALLEY":" ","HOUSE_NO":"３７號","E_COORD97":168227.60999999999,"N_COORD97":2544311.3100000001,"ADDRESS":"赤嵌街３７號","OBJECTID":614182},"geometry":{"x":168227.61000000034,"y":2544311.3100000024}},{"attributes":{"ID":614210,"DIS_CODE":0,"TOWNNAME":"中西區","LI":"天后里","LIN":"23鄰","STREET":"赤嵌街","SECT":" ","MAREA":" ","LANE":" ","ALLEY":" ","HOUSE_NO":"４１號","E_COORD97":168232.79000000001,"N_COORD97":2544323.4199999999,"ADDRESS":"赤嵌街４１號","OBJECTID":614183},"geometry":{"x":168232.79000000004,"y":2544323.4200000018}},{"attributes":{"ID":614211,"DIS_CODE":0,"TOWNNAME":"中西區","LI":"天后里","LIN":"23鄰","STREET":"赤嵌街","SECT":" ","MAREA":" ","LANE":" ","ALLEY":" ","HOUSE_NO":"４３號","E_COORD97":168235.63,"N_COORD97":2544332.6000000001,"ADDRESS":"赤嵌街４３號","OBJECTID":614184},"geometry":{"x":168235.62999999989,"y":2544332.6000000015}},{"attributes":{"ID":614212,"DIS_CODE":0,"TOWNNAME":"中西區","LI":"天后里","LIN":"23鄰","STREET":"赤嵌街","SECT":" ","MAREA":" ","LANE":" ","ALLEY":" ","HOUSE_NO":"４９號","E_COORD97":168241.31,"N_COORD97":2544347.1200000001,"ADDRESS":"赤嵌街４９號","OBJECTID":614185},"geometry":{"x":168241.31000000145,"y":2544347.1200000029}},{"attributes":{"ID":614213,"DIS_CODE":0,"TOWNNAME":"中西區","LI":"天后里","LIN":"23鄰","STREET":"赤嵌街","SECT":" ","MAREA":" ","LANE":" ","ALLEY":" ","HOUSE_NO":"５１號","E_COORD97":168244.64999999999,"N_COORD97":2544350.1200000001,"ADDRESS":"赤嵌街５１號","OBJECTID":614186},"geometry":{"x":168244.65000000037,"y":2544350.1200000048}},{"attributes":{"ID":614214,"DIS_CODE":0,"TOWNNAME":"中西區","LI":"天后里","LIN":"23鄰","STREET":"赤嵌街","SECT":" ","MAREA":" ","LANE":" ","ALLEY":" ","HOUSE_NO":"５３號","E_COORD97":168244.82000000001,"N_COORD97":2544353.6299999999,"ADDRESS":"赤嵌街５３號","OBJECTID":614187},"geometry":{"x":168244.8200000003,"y":2544353.629999999}},{"attributes":{"ID":614215,"DIS_CODE":0,"TOWNNAME":"中西區","LI":"天后里","LIN":"23鄰","STREET":"赤嵌街","SECT":" ","MAREA":" ","LANE":" ","ALLEY":" ","HOUSE_NO":"５５號","E_COORD97":168245.14999999999,"N_COORD97":2544357.6400000001,"ADDRESS":"赤嵌街５５號","OBJECTID":614188},"geometry":{"x":168245.1500000013,"y":2544357.6400000025}},{"attributes":{"ID":614216,"DIS_CODE":0,"TOWNNAME":"中西區","LI":"天后里","LIN":"23鄰","STREET":"赤嵌街","SECT":" ","MAREA":" ","LANE":" ","ALLEY":" ","HOUSE_NO":"５７號","E_COORD97":168246.32000000001,"N_COORD97":2544360.9700000002,"ADDRESS":"赤嵌街５７號","OBJECTID":614189},"geometry":{"x":168246.3200000003,"y":2544360.9700000044}},{"attributes":{"ID":614217,"DIS_CODE":0,"TOWNNAME":"中西區","LI":"天后里","LIN":"23鄰","STREET":"赤嵌街","SECT":" ","MAREA":" ","LANE":" ","ALLEY":" ","HOUSE_NO":"５９號","E_COORD97":168248.16,"N_COORD97":2544368.1499999999,"ADDRESS":"赤嵌街５９號","OBJECTID":614190},"geometry":{"x":168248.16000000108,"y":2544368.1500000004}},{"attributes":{"ID":614218,"DIS_CODE":0,"TOWNNAME":"中西區","LI":"天后里","LIN":"23鄰","STREET":"赤嵌街","SECT":" ","MAREA":" ","LANE":" ","ALLEY":" ","HOUSE_NO":"６１號","E_COORD97":168250.82999999999,"N_COORD97":2544379.1699999999,"ADDRESS":"赤嵌街６１號","OBJECTID":614191},"geometry":{"x":168250.83000000101,"y":2544379.1700000037}},{"attributes":{"ID":614219,"DIS_CODE":0,"TOWNNAME":"中西區","LI":"天后里","LIN":"23鄰","STREET":"赤嵌街","SECT":" ","MAREA":" ","LANE":" ","ALLEY":" ","HOUSE_NO":"６３號","E_COORD97":168249.66,"N_COORD97":2544387.1800000002,"ADDRESS":"赤嵌街６３號","OBJECTID":614192},"geometry":{"x":168249.66000000201,"y":2544387.1799999997}},{"attributes":{"ID":614220,"DIS_CODE":0,"TOWNNAME":"中西區","LI":"天后里","LIN":"22鄰","STREET":"成功路","SECT":" ","MAREA":" ","LANE":" ","ALLEY":" ","HOUSE_NO":"２３７號","E_COORD97":168262.60999999999,"N_COORD97":2544402.4300000002,"ADDRESS":"成功路２３７號","OBJECTID":614193},"geometry":{"x":168262.61000000127,"y":2544402.4300000016}},{"attributes":{"ID":614221,"DIS_CODE":0,"TOWNNAME":"東區","LI":"崇德里","LIN":"2鄰","STREET":"崇德路","SECT":" ","MAREA":" ","LANE":" ","ALLEY":" ","HOUSE_NO":"４０５號","E_COORD97":170565.14999999999,"N_COORD97":2541810.1699999999,"ADDRESS":"崇德路４０５號","OBJECTID":614194},"geometry":{"x":170565.15000000037,"y":2541810.1700000018}},{"attributes":{"ID":614222,"DIS_CODE":0,"TOWNNAME":"東區","LI":"崇德里","LIN":"2鄰","STREET":"崇德路","SECT":" ","MAREA":" ","LANE":" ","ALLEY":" ","HOUSE_NO":"４０７號","E_COORD97":170569.12,"N_COORD97":2541806.3700000001,"ADDRESS":"崇德路４０７號","OBJECTID":614195},"geometry":{"x":170569.12000000104,"y":2541806.3700000029}},{"attributes":{"ID":614223,"DIS_CODE":0,"TOWNNAME":"東區","LI":"崇德里","LIN":"2鄰","STREET":"崇德路","SECT":" ","MAREA":" ","LANE":" ","ALLEY":" ","HOUSE_NO":"４０９號","E_COORD97":170572.92999999999,"N_COORD97":2541803.2599999998,"ADDRESS":"崇德路４０９號","OBJECTID":614196},"geometry":{"x":170572.9299999997,"y":2541803.2599999998}},{"attributes":{"ID":614224,"DIS_CODE":0,"TOWNNAME":"東區","LI":"崇德里","LIN":"2鄰","STREET":"崇德路","SECT":" ","MAREA":" ","LANE":" ","ALLEY":" ","HOUSE_NO":"４１１號","E_COORD97":170576.73000000001,"N_COORD97":2541798.9399999999,"ADDRESS":"崇德路４１１號","OBJECTID":614197},"geometry":{"x":170576.73000000045,"y":2541798.9399999995}},{"attributes":{"ID":614225,"DIS_CODE":0,"TOWNNAME":"東區","LI":"崇德里","LIN":"2鄰","STREET":"崇德路","SECT":" ","MAREA":" ","LANE":" ","ALLEY":" ","HOUSE_NO":"４１３號","E_COORD97":170578.97,"N_COORD97":2541796.3500000001,"ADDRESS":"崇德路４１３號","OBJECTID":614198},"geometry":{"x":170578.96999999974,"y":2541796.3499999996}},{"attributes":{"ID":614226,"DIS_CODE":0,"TOWNNAME":"東區","LI":"崇德里","LIN":"2鄰","STREET":"崇德路","SECT":" ","MAREA":" ","LANE":" ","ALLEY":" ","HOUSE_NO":"４１５號","E_COORD97":170583.29000000001,"N_COORD97":2541794.2799999998,"ADDRESS":"崇德路４１５號","OBJECTID":614199},"geometry":{"x":170583.29000000097,"y":2541794.2800000031}},{"attributes":{"ID":614227,"DIS_CODE":0,"TOWNNAME":"東區","LI":"崇德里","LIN":"2鄰","STREET":"崇德路","SECT":" ","MAREA":" ","LANE":" ","ALLEY":" ","HOUSE_NO":"４１７號","E_COORD97":170585.89000000001,"N_COORD97":2541790.8300000001,"ADDRESS":"崇德路４１７號","OBJECTID":614200},"geometry":{"x":170585.8900000006,"y":2541790.8300000001}}]}