{"displayFieldName":"TOWNNAME","fieldAliases":{"ID":"ID","DIS_CODE":"DIS_CODE","TOWNNAME":"TOWNNAME","LI":"LI","LIN":"LIN","STREET":"STREET","SECT":"SECT","MAREA":"MAREA","LANE":"LANE","ALLEY":"ALLEY","HOUSE_NO":"HOUSE_NO","E_COORD97":"E_COORD97","N_COORD97":"N_COORD97","ADDRESS":"ADDRESS","OBJECTID":"OBJECTID"},"geometryType":"esriGeometryPoint","spatialReference":{"wkid":102443,"latestWkid":3826},"fields":[{"name":"ID","type":"esriFieldTypeDouble","alias":"ID"},{"name":"DIS_CODE","type":"esriFieldTypeInteger","alias":"DIS_CODE"},{"name":"TOWNNAME","type":"esriFieldTypeString","alias":"TOWNNAME","length":8},{"name":"LI","type":"esriFieldTypeString","alias":"LI","length":8},{"name":"LIN","type":"esriFieldTypeString","alias":"LIN","length":12},{"name":"STREET","type":"esriFieldTypeString","alias":"STREET","length":20},{"name":"SECT","type":"esriFieldTypeString","alias":"SECT","length":8},{"name":"MAREA","type":"esriFieldTypeString","alias":"MAREA","length":12},{"name":"LANE","type":"esriFieldTypeString","alias":"LANE","length":10},{"name":"ALLEY","type":"esriFieldTypeString","alias":"ALLEY","length":10},{"name":"HOUSE_NO","type":"esriFieldTypeString","alias":"HOUSE_NO","length":20},{"name":"E_COORD97","type":"esriFieldTypeDouble","alias":"E_COORD97"},{"name":"N_COORD97","type":"esriFieldTypeDouble","alias":"N_COORD97"},{"name":"ADDRESS","type":"esriFieldTypeString","alias":"ADDRESS","length":50},{"name":"OBJECTID","type":"esriFieldTypeOID","alias":"OBJECTID"}],"features":[{"attributes":{"ID":522428,"DIS_CODE":0,"TOWNNAME":"麻豆區","LI":"新建里","LIN":"6鄰","STREET":"中山路","SECT":" ","MAREA":" ","LANE":" ","ALLEY":" ","HOUSE_NO":"１７１號之１４","E_COORD97":172514.53,"N_COORD97":2564840.2400000002,"ADDRESS":"中山路１７１號之１４","OBJECTID":522401},"geometry":{"x":172514.53000000119,"y":2564840.2400000021}},{"attributes":{"ID":522429,"DIS_CODE":0,"TOWNNAME":"麻豆區","LI":"新建里","LIN":"6鄰","STREET":"中山路","SECT":" ","MAREA":" ","LANE":" ","ALLEY":" ","HOUSE_NO":"１７１號之２","E_COORD97":172494.85999999999,"N_COORD97":2564822.1200000001,"ADDRESS":"中山路１７１號之２","OBJECTID":522402},"geometry":{"x":172494.8599999994,"y":2564822.1200000029}},{"attributes":{"ID":522430,"DIS_CODE":0,"TOWNNAME":"麻豆區","LI":"新建里","LIN":"6鄰","STREET":"中山路","SECT":" ","MAREA":" ","LANE":" ","ALLEY":" ","HOUSE_NO":"１７１號之３","E_COORD97":172498.98000000001,"N_COORD97":2564822.2799999998,"ADDRESS":"中山路１７１號之３","OBJECTID":522403},"geometry":{"x":172498.98000000045,"y":2564822.2800000012}},{"attributes":{"ID":522431,"DIS_CODE":0,"TOWNNAME":"麻豆區","LI":"新建里","LIN":"6鄰","STREET":"中山路","SECT":" ","MAREA":" ","LANE":" ","ALLEY":" ","HOUSE_NO":"１７１號之４","E_COORD97":172503.10000000001,"N_COORD97":2564822.4399999999,"ADDRESS":"中山路１７１號之４","OBJECTID":522404},"geometry":{"x":172503.10000000056,"y":2564822.4399999995}},{"attributes":{"ID":522432,"DIS_CODE":0,"TOWNNAME":"麻豆區","LI":"新建里","LIN":"6鄰","STREET":"中山路","SECT":" ","MAREA":" ","LANE":" ","ALLEY":" ","HOUSE_NO":"１７１號之５","E_COORD97":172507.22,"N_COORD97":2564822.6000000001,"ADDRESS":"中山路１７１號之５","OBJECTID":522405},"geometry":{"x":172507.2200000016,"y":2564822.5999999996}},{"attributes":{"ID":522433,"DIS_CODE":0,"TOWNNAME":"麻豆區","LI":"新建里","LIN":"6鄰","STREET":"中山路","SECT":" ","MAREA":" ","LANE":" ","ALLEY":" ","HOUSE_NO":"１７１號之６","E_COORD97":172511.34,"N_COORD97":2564822.7599999998,"ADDRESS":"中山路１７１號之６","OBJECTID":522406},"geometry":{"x":172511.33999999985,"y":2564822.7600000016}},{"attributes":{"ID":522434,"DIS_CODE":0,"TOWNNAME":"麻豆區","LI":"新建里","LIN":"6鄰","STREET":"中山路","SECT":" ","MAREA":" ","LANE":" ","ALLEY":" ","HOUSE_NO":"１７１號之７","E_COORD97":172515.45000000001,"N_COORD97":2564822.9199999999,"ADDRESS":"中山路１７１號之７","OBJECTID":522407},"geometry":{"x":172515.45000000019,"y":2564822.9200000018}},{"attributes":{"ID":522435,"DIS_CODE":0,"TOWNNAME":"麻豆區","LI":"新建里","LIN":"6鄰","STREET":"中山路","SECT":" ","MAREA":" ","LANE":" ","ALLEY":" ","HOUSE_NO":"１７１號之８","E_COORD97":172519.57000000001,"N_COORD97":2564823.0800000001,"ADDRESS":"中山路１７１號之８","OBJECTID":522408},"geometry":{"x":172519.57000000123,"y":2564823.0800000001}},{"attributes":{"ID":522436,"DIS_CODE":0,"TOWNNAME":"麻豆區","LI":"新建里","LIN":"6鄰","STREET":"中山路","SECT":" ","MAREA":" ","LANE":" ","ALLEY":" ","HOUSE_NO":"１７１號之９","E_COORD97":172523.69,"N_COORD97":2564823.2400000002,"ADDRESS":"中山路１７１號之９","OBJECTID":522409},"geometry":{"x":172523.69000000134,"y":2564823.2400000021}},{"attributes":{"ID":522437,"DIS_CODE":0,"TOWNNAME":"麻豆區","LI":"大埕里","LIN":"6鄰","STREET":"中正路","SECT":" ","MAREA":" ","LANE":" ","ALLEY":" ","HOUSE_NO":"２２３號","E_COORD97":173426.48000000001,"N_COORD97":2565386.2400000002,"ADDRESS":"中正路２２３號","OBJECTID":522410},"geometry":{"x":173426.48000000045,"y":2565386.2400000021}},{"attributes":{"ID":522438,"DIS_CODE":0,"TOWNNAME":"麻豆區","LI":"大埕里","LIN":"6鄰","STREET":"中正路","SECT":" ","MAREA":" ","LANE":" ","ALLEY":" ","HOUSE_NO":"２４３號","E_COORD97":173455.29999999999,"N_COORD97":2565414.5299999998,"ADDRESS":"中正路２４３號","OBJECTID":522411},"geometry":{"x":173455.29999999981,"y":2565414.5300000012}},{"attributes":{"ID":522439,"DIS_CODE":0,"TOWNNAME":"麻豆區","LI":"大埕里","LIN":"6鄰","STREET":"中正路","SECT":" ","MAREA":" ","LANE":" ","ALLEY":" ","HOUSE_NO":"２４５號","E_COORD97":173457.84,"N_COORD97":2565417.8999999999,"ADDRESS":"中正路２４５號","OBJECTID":522412},"geometry":{"x":173457.84000000078,"y":2565417.9000000004}},{"attributes":{"ID":522440,"DIS_CODE":0,"TOWNNAME":"麻豆區","LI":"大埕里","LIN":"6鄰","STREET":"中正路","SECT":" ","MAREA":" ","LANE":" ","ALLEY":" ","HOUSE_NO":"２４７號","E_COORD97":173460.95999999999,"N_COORD97":2565421.8799999999,"ADDRESS":"中正路２４７號","OBJECTID":522413},"geometry":{"x":173460.96000000089,"y":2565421.8800000008}},{"attributes":{"ID":522441,"DIS_CODE":0,"TOWNNAME":"麻豆區","LI":"大埕里","LIN":"6鄰","STREET":"中正路","SECT":" ","MAREA":" ","LANE":" ","ALLEY":" ","HOUSE_NO":"２４９號","E_COORD97":173464.73999999999,"N_COORD97":2565425.4700000002,"ADDRESS":"中正路２４９號","OBJECTID":522414},"geometry":{"x":173464.74000000022,"y":2565425.4700000044}},{"attributes":{"ID":522442,"DIS_CODE":0,"TOWNNAME":"麻豆區","LI":"大埕里","LIN":"6鄰","STREET":"中正路","SECT":" ","MAREA":" ","LANE":" ","ALLEY":" ","HOUSE_NO":"２５１號","E_COORD97":173466.79999999999,"N_COORD97":2565428.1400000001,"ADDRESS":"中正路２５１號","OBJECTID":522415},"geometry":{"x":173466.80000000075,"y":2565428.1400000025}},{"attributes":{"ID":522443,"DIS_CODE":0,"TOWNNAME":"麻豆區","LI":"大埕里","LIN":"6鄰","STREET":"中正路","SECT":" ","MAREA":" ","LANE":" ","ALLEY":" ","HOUSE_NO":"２５３號","E_COORD97":173470.60000000001,"N_COORD97":2565431.4700000002,"ADDRESS":"中正路２５３號","OBJECTID":522416},"geometry":{"x":173470.5999999987,"y":2565431.4700000007}},{"attributes":{"ID":522444,"DIS_CODE":0,"TOWNNAME":"麻豆區","LI":"大埕里","LIN":"6鄰","STREET":"中正路","SECT":" ","MAREA":" ","LANE":" ","ALLEY":" ","HOUSE_NO":"２５５號","E_COORD97":173474.20000000001,"N_COORD97":2565434.8300000001,"ADDRESS":"中正路２５５號","OBJECTID":522417},"geometry":{"x":173474.20000000112,"y":2565434.8300000001}},{"attributes":{"ID":522445,"DIS_CODE":0,"TOWNNAME":"麻豆區","LI":"大埕里","LIN":"6鄰","STREET":"中正路","SECT":" ","MAREA":" ","LANE":" ","ALLEY":" ","HOUSE_NO":"２５６號","E_COORD97":173427.70000000001,"N_COORD97":2565340.52,"ADDRESS":"中正路２５６號","OBJECTID":522418},"geometry":{"x":173427.70000000019,"y":2565340.5200000014}},{"attributes":{"ID":522446,"DIS_CODE":0,"TOWNNAME":"麻豆區","LI":"大埕里","LIN":"6鄰","STREET":"中正路","SECT":" ","MAREA":" ","LANE":" ","ALLEY":" ","HOUSE_NO":"２５７號","E_COORD97":173477.06,"N_COORD97":2565438.29,"ADDRESS":"中正路２５７號","OBJECTID":522419},"geometry":{"x":173477.05999999959,"y":2565438.2900000028}},{"attributes":{"ID":522447,"DIS_CODE":0,"TOWNNAME":"麻豆區","LI":"大埕里","LIN":"6鄰","STREET":"中正路","SECT":" ","MAREA":" ","LANE":" ","ALLEY":" ","HOUSE_NO":"２５８號","E_COORD97":173430.82999999999,"N_COORD97":2565343.1899999999,"ADDRESS":"中正路２５８號","OBJECTID":522420},"geometry":{"x":173430.83000000101,"y":2565343.1899999995}},{"attributes":{"ID":522448,"DIS_CODE":0,"TOWNNAME":"麻豆區","LI":"大埕里","LIN":"6鄰","STREET":"中正路","SECT":" ","MAREA":" ","LANE":" ","ALLEY":" ","HOUSE_NO":"２６０號","E_COORD97":173433.70000000001,"N_COORD97":2565346.3199999998,"ADDRESS":"中正路２６０號","OBJECTID":522421},"geometry":{"x":173433.70000000112,"y":2565346.3200000003}},{"attributes":{"ID":522449,"DIS_CODE":0,"TOWNNAME":"麻豆區","LI":"大埕里","LIN":"6鄰","STREET":"中正路","SECT":" ","MAREA":" ","LANE":" ","ALLEY":" ","HOUSE_NO":"２６２號","E_COORD97":173436.85999999999,"N_COORD97":2565349.8799999999,"ADDRESS":"中正路２６２號","OBJECTID":522422},"geometry":{"x":173436.86000000034,"y":2565349.8800000008}},{"attributes":{"ID":522450,"DIS_CODE":0,"TOWNNAME":"麻豆區","LI":"大埕里","LIN":"6鄰","STREET":"中正路","SECT":" ","MAREA":" ","LANE":" ","ALLEY":" ","HOUSE_NO":"２６６號","E_COORD97":173440.32000000001,"N_COORD97":2565353.1499999999,"ADDRESS":"中正路２６６號","OBJECTID":522423},"geometry":{"x":173440.3200000003,"y":2565353.1500000022}},{"attributes":{"ID":522451,"DIS_CODE":0,"TOWNNAME":"麻豆區","LI":"大埕里","LIN":"6鄰","STREET":"中正路","SECT":" ","MAREA":" ","LANE":" ","ALLEY":" ","HOUSE_NO":"２６８號","E_COORD97":173443.41,"N_COORD97":2565356.21,"ADDRESS":"中正路２６８號","OBJECTID":522424},"geometry":{"x":173443.41000000015,"y":2565356.2100000046}},{"attributes":{"ID":522452,"DIS_CODE":0,"TOWNNAME":"麻豆區","LI":"大埕里","LIN":"6鄰","STREET":"中正路","SECT":" ","MAREA":" ","LANE":" ","ALLEY":" ","HOUSE_NO":"２７０號","E_COORD97":173446.51000000001,"N_COORD97":2565359.2200000002,"ADDRESS":"中正路２７０號","OBJECTID":522425},"geometry":{"x":173446.51000000071,"y":2565359.2200000044}},{"attributes":{"ID":522453,"DIS_CODE":0,"TOWNNAME":"麻豆區","LI":"大埕里","LIN":"6鄰","STREET":"中正路","SECT":" ","MAREA":" ","LANE":" ","ALLEY":" ","HOUSE_NO":"２７２號","E_COORD97":173449.66,"N_COORD97":2565362.4100000001,"ADDRESS":"中正路２７２號","OBJECTID":522426},"geometry":{"x":173449.66000000108,"y":2565362.4100000001}},{"attributes":{"ID":522454,"DIS_CODE":0,"TOWNNAME":"麻豆區","LI":"大埕里","LIN":"6鄰","STREET":"中正路","SECT":" ","MAREA":" ","LANE":" ","ALLEY":" ","HOUSE_NO":"２７６號","E_COORD97":173452.73999999999,"N_COORD97":2565365.7200000002,"ADDRESS":"中正路２７６號","OBJECTID":522427},"geometry":{"x":173452.74000000022,"y":2565365.7199999988}},{"attributes":{"ID":522455,"DIS_CODE":0,"TOWNNAME":"麻豆區","LI":"大埕里","LIN":"6鄰","STREET":"中正路","SECT":" ","MAREA":" ","LANE":" ","ALLEY":" ","HOUSE_NO":"２８９號","E_COORD97":173517.54000000001,"N_COORD97":2565477.9700000002,"ADDRESS":"中正路２８９號","OBJECTID":522428},"geometry":{"x":173517.54000000097,"y":2565477.9700000007}},{"attributes":{"ID":522456,"DIS_CODE":0,"TOWNNAME":"麻豆區","LI":"大埕里","LIN":"6鄰","STREET":"中正路","SECT":" ","MAREA":" ","LANE":" ","ALLEY":" ","HOUSE_NO":"３４８號之１","E_COORD97":173488.23000000001,"N_COORD97":2565378.9199999999,"ADDRESS":"中正路３４８號之１","OBJECTID":522429},"geometry":{"x":173488.23000000138,"y":2565378.9200000018}},{"attributes":{"ID":522457,"DIS_CODE":0,"TOWNNAME":"麻豆區","LI":"大埕里","LIN":"6鄰","STREET":"中正路","SECT":" ","MAREA":" ","LANE":" ","ALLEY":" ","HOUSE_NO":"３４８號","E_COORD97":173484.85000000001,"N_COORD97":2565376.2000000002,"ADDRESS":"中正路３４８號","OBJECTID":522430},"geometry":{"x":173484.85000000056,"y":2565376.2000000011}},{"attributes":{"ID":522458,"DIS_CODE":0,"TOWNNAME":"麻豆區","LI":"大埕里","LIN":"6鄰","STREET":"中正路","SECT":" ","MAREA":" ","LANE":" ","ALLEY":" ","HOUSE_NO":"３５０號","E_COORD97":173515.31,"N_COORD97":2565422.0600000001,"ADDRESS":"中正路３５０號","OBJECTID":522431},"geometry":{"x":173515.31000000052,"y":2565422.0600000024}},{"attributes":{"ID":522459,"DIS_CODE":0,"TOWNNAME":"麻豆區","LI":"大埕里","LIN":"6鄰","STREET":"中正路","SECT":" ","MAREA":" ","LANE":" ","ALLEY":" ","HOUSE_NO":"３６８號","E_COORD97":173544.85999999999,"N_COORD97":2565466,"ADDRESS":"中正路３６８號","OBJECTID":522432},"geometry":{"x":173544.86000000127,"y":2565466.0000000019}},{"attributes":{"ID":522460,"DIS_CODE":0,"TOWNNAME":"麻豆區","LI":"大埕里","LIN":"6鄰","STREET":"中正路","SECT":" ","MAREA":" ","LANE":" ","ALLEY":" ","HOUSE_NO":"３７０號","E_COORD97":173549.92000000001,"N_COORD97":2565471.8799999999,"ADDRESS":"中正路３７０號","OBJECTID":522433},"geometry":{"x":173549.91999999993,"y":2565471.8800000008}},{"attributes":{"ID":522461,"DIS_CODE":0,"TOWNNAME":"麻豆區","LI":"中興里","LIN":"6鄰","STREET":"中興街","SECT":" ","MAREA":" ","LANE":" ","ALLEY":" ","HOUSE_NO":"８５號","E_COORD97":172823.78,"N_COORD97":2564545.3399999999,"ADDRESS":"中興街８５號","OBJECTID":522434},"geometry":{"x":172823.78000000026,"y":2564545.3400000017}},{"attributes":{"ID":522462,"DIS_CODE":0,"TOWNNAME":"麻豆區","LI":"新建里","LIN":"6鄰","STREET":"仁愛路","SECT":" ","MAREA":" ","LANE":" ","ALLEY":" ","HOUSE_NO":"３２號之２２","E_COORD97":172491.35000000001,"N_COORD97":2564756.3300000001,"ADDRESS":"仁愛路３２號之２２","OBJECTID":522435},"geometry":{"x":172491.35000000056,"y":2564756.3300000001}},{"attributes":{"ID":522463,"DIS_CODE":0,"TOWNNAME":"麻豆區","LI":"新建里","LIN":"6鄰","STREET":"仁愛路","SECT":" ","MAREA":" ","LANE":" ","ALLEY":" ","HOUSE_NO":"３２號之２３","E_COORD97":172492.89000000001,"N_COORD97":2564764.1699999999,"ADDRESS":"仁愛路３２號之２３","OBJECTID":522436},"geometry":{"x":172492.8900000006,"y":2564764.1699999999}},{"attributes":{"ID":522464,"DIS_CODE":0,"TOWNNAME":"麻豆區","LI":"新建里","LIN":"6鄰","STREET":"仁愛路","SECT":" ","MAREA":" ","LANE":" ","ALLEY":" ","HOUSE_NO":"３２號之２５","E_COORD97":172492.63,"N_COORD97":2564769.6400000001,"ADDRESS":"仁愛路３２號之２５","OBJECTID":522437},"geometry":{"x":172492.63000000175,"y":2564769.6400000043}},{"attributes":{"ID":522465,"DIS_CODE":0,"TOWNNAME":"麻豆區","LI":"新建里","LIN":"6鄰","STREET":"仁愛路","SECT":" ","MAREA":" ","LANE":" ","ALLEY":" ","HOUSE_NO":"３２號之２６","E_COORD97":172509.69,"N_COORD97":2564764.5,"ADDRESS":"仁愛路３２號之２６","OBJECTID":522438},"geometry":{"x":172509.69000000227,"y":2564764.5000000019}},{"attributes":{"ID":522466,"DIS_CODE":0,"TOWNNAME":"麻豆區","LI":"新建里","LIN":"6鄰","STREET":"仁愛路","SECT":" ","MAREA":" ","LANE":" ","ALLEY":" ","HOUSE_NO":"３２號之２７","E_COORD97":172509.39000000001,"N_COORD97":2564771.6299999999,"ADDRESS":"仁愛路３２號之２７","OBJECTID":522439},"geometry":{"x":172509.39000000153,"y":2564771.6300000027}},{"attributes":{"ID":522467,"DIS_CODE":0,"TOWNNAME":"麻豆區","LI":"新建里","LIN":"6鄰","STREET":"仁愛路","SECT":" ","MAREA":" ","LANE":" ","ALLEY":" ","HOUSE_NO":"３２號之２８","E_COORD97":172528.51999999999,"N_COORD97":2564773.9399999999,"ADDRESS":"仁愛路３２號之２８","OBJECTID":522440},"geometry":{"x":172528.51999999862,"y":2564773.9400000013}},{"attributes":{"ID":522468,"DIS_CODE":0,"TOWNNAME":"麻豆區","LI":"新建里","LIN":"6鄰","STREET":"仁愛路","SECT":" ","MAREA":" ","LANE":" ","ALLEY":" ","HOUSE_NO":"３２號之２９","E_COORD97":172533.54999999999,"N_COORD97":2564774.0600000001,"ADDRESS":"仁愛路３２號之２９","OBJECTID":522441},"geometry":{"x":172533.54999999981,"y":2564774.0600000024}},{"attributes":{"ID":522469,"DIS_CODE":0,"TOWNNAME":"麻豆區","LI":"新建里","LIN":"6鄰","STREET":"仁愛路","SECT":" ","MAREA":" ","LANE":" ","ALLEY":" ","HOUSE_NO":"３２號之３０","E_COORD97":172538.57999999999,"N_COORD97":2564774.1899999999,"ADDRESS":"仁愛路３２號之３０","OBJECTID":522442},"geometry":{"x":172538.58000000007,"y":2564774.1899999995}},{"attributes":{"ID":522470,"DIS_CODE":0,"TOWNNAME":"麻豆區","LI":"新建里","LIN":"6鄰","STREET":"仁愛路","SECT":" ","MAREA":" ","LANE":" ","ALLEY":" ","HOUSE_NO":"３２號之３１","E_COORD97":172543.60999999999,"N_COORD97":2564774.3100000001,"ADDRESS":"仁愛路３２號之３１","OBJECTID":522443},"geometry":{"x":172543.61000000034,"y":2564774.3100000005}},{"attributes":{"ID":522471,"DIS_CODE":0,"TOWNNAME":"麻豆區","LI":"新建里","LIN":"6鄰","STREET":"仁愛路","SECT":" ","MAREA":" ","LANE":" ","ALLEY":" ","HOUSE_NO":"３２號之３２","E_COORD97":172548.64999999999,"N_COORD97":2564774.4399999999,"ADDRESS":"仁愛路３２號之３２","OBJECTID":522444},"geometry":{"x":172548.65000000037,"y":2564774.4400000013}},{"attributes":{"ID":522472,"DIS_CODE":0,"TOWNNAME":"麻豆區","LI":"新建里","LIN":"6鄰","STREET":"仁愛路","SECT":" ","MAREA":" ","LANE":" ","ALLEY":" ","HOUSE_NO":"３２號之３３","E_COORD97":172553.67999999999,"N_COORD97":2564774.5600000001,"ADDRESS":"仁愛路３２號之３３","OBJECTID":522445},"geometry":{"x":172553.68000000063,"y":2564774.5600000024}},{"attributes":{"ID":522473,"DIS_CODE":0,"TOWNNAME":"麻豆區","LI":"新建里","LIN":"6鄰","STREET":"仁愛路","SECT":" ","MAREA":" ","LANE":" ","ALLEY":" ","HOUSE_NO":"３２號之３５","E_COORD97":172558.70999999999,"N_COORD97":2564774.6899999999,"ADDRESS":"仁愛路３２號之３５","OBJECTID":522446},"geometry":{"x":172558.71000000089,"y":2564774.6899999976}},{"attributes":{"ID":522474,"DIS_CODE":0,"TOWNNAME":"麻豆區","LI":"新建里","LIN":"6鄰","STREET":"仁愛路","SECT":" ","MAREA":" ","LANE":" ","ALLEY":" ","HOUSE_NO":"３２號之３６","E_COORD97":172563.75,"N_COORD97":2564774.8100000001,"ADDRESS":"仁愛路３２號之３６","OBJECTID":522447},"geometry":{"x":172563.75000000093,"y":2564774.8100000005}},{"attributes":{"ID":522475,"DIS_CODE":0,"TOWNNAME":"麻豆區","LI":"新建里","LIN":"6鄰","STREET":"仁愛路","SECT":" ","MAREA":" ","LANE":" ","ALLEY":" ","HOUSE_NO":"３２號之３７","E_COORD97":172568.78,"N_COORD97":2564774.9399999999,"ADDRESS":"仁愛路３２號之３７","OBJECTID":522448},"geometry":{"x":172568.78000000119,"y":2564774.9399999995}},{"attributes":{"ID":522476,"DIS_CODE":0,"TOWNNAME":"麻豆區","LI":"新建里","LIN":"6鄰","STREET":"仁愛路","SECT":" ","MAREA":" ","LANE":" ","ALLEY":" ","HOUSE_NO":"３２號之３８","E_COORD97":172573.81,"N_COORD97":2564775.0600000001,"ADDRESS":"仁愛路３２號之３８","OBJECTID":522449},"geometry":{"x":172573.80999999959,"y":2564775.0600000024}},{"attributes":{"ID":522477,"DIS_CODE":0,"TOWNNAME":"麻豆區","LI":"新建里","LIN":"6鄰","STREET":"仁愛路","SECT":" ","MAREA":" ","LANE":" ","ALLEY":" ","HOUSE_NO":"３２號之３９","E_COORD97":172567.04000000001,"N_COORD97":2564793.0699999998,"ADDRESS":"仁愛路３２號之３９","OBJECTID":522450},"geometry":{"x":172567.04000000097,"y":2564793.0700000003}},{"attributes":{"ID":522478,"DIS_CODE":0,"TOWNNAME":"麻豆區","LI":"新建里","LIN":"6鄰","STREET":"仁愛路","SECT":" ","MAREA":" ","LANE":" ","ALLEY":" ","HOUSE_NO":"３２號之３","E_COORD97":172490.70999999999,"N_COORD97":2564801.3900000001,"ADDRESS":"仁愛路３２號之３","OBJECTID":522451},"geometry":{"x":172490.71000000089,"y":2564801.3900000006}},{"attributes":{"ID":522479,"DIS_CODE":0,"TOWNNAME":"麻豆區","LI":"新建里","LIN":"6鄰","STREET":"仁愛路","SECT":" ","MAREA":" ","LANE":" ","ALLEY":" ","HOUSE_NO":"３２號之４０","E_COORD97":172562.09,"N_COORD97":2564793.0299999998,"ADDRESS":"仁愛路３２號之４０","OBJECTID":522452},"geometry":{"x":172562.08999999985,"y":2564793.0300000031}},{"attributes":{"ID":522480,"DIS_CODE":0,"TOWNNAME":"麻豆區","LI":"新建里","LIN":"6鄰","STREET":"仁愛路","SECT":" ","MAREA":" ","LANE":" ","ALLEY":" ","HOUSE_NO":"３２號之４１","E_COORD97":172557.14000000001,"N_COORD97":2564792.9900000002,"ADDRESS":"仁愛路３２號之４１","OBJECTID":522453},"geometry":{"x":172557.1400000006,"y":2564792.9900000002}},{"attributes":{"ID":522481,"DIS_CODE":0,"TOWNNAME":"麻豆區","LI":"新建里","LIN":"6鄰","STREET":"仁愛路","SECT":" ","MAREA":" ","LANE":" ","ALLEY":" ","HOUSE_NO":"３２號之４２","E_COORD97":172552.19,"N_COORD97":2564792.9500000002,"ADDRESS":"仁愛路３２號之４２","OBJECTID":522454},"geometry":{"x":172552.19000000227,"y":2564792.9499999993}},{"attributes":{"ID":522482,"DIS_CODE":0,"TOWNNAME":"麻豆區","LI":"新建里","LIN":"6鄰","STREET":"仁愛路","SECT":" ","MAREA":" ","LANE":" ","ALLEY":" ","HOUSE_NO":"３２號之４３","E_COORD97":172547.23999999999,"N_COORD97":2564792.9100000001,"ADDRESS":"仁愛路３２號之４３","OBJECTID":522455},"geometry":{"x":172547.24000000115,"y":2564792.9100000001}},{"attributes":{"ID":522483,"DIS_CODE":0,"TOWNNAME":"麻豆區","LI":"新建里","LIN":"6鄰","STREET":"仁愛路","SECT":" ","MAREA":" ","LANE":" ","ALLEY":" ","HOUSE_NO":"３２號之４５","E_COORD97":172542.29000000001,"N_COORD97":2564792.8700000001,"ADDRESS":"仁愛路３２號之４５","OBJECTID":522456},"geometry":{"x":172542.29000000004,"y":2564792.8700000029}},{"attributes":{"ID":522484,"DIS_CODE":0,"TOWNNAME":"麻豆區","LI":"新建里","LIN":"6鄰","STREET":"仁愛路","SECT":" ","MAREA":" ","LANE":" ","ALLEY":" ","HOUSE_NO":"３２號之４６","E_COORD97":172537.32999999999,"N_COORD97":2564792.8300000001,"ADDRESS":"仁愛路３２號之４６","OBJECTID":522457},"geometry":{"x":172537.33000000194,"y":2564792.8300000019}},{"attributes":{"ID":522485,"DIS_CODE":0,"TOWNNAME":"麻豆區","LI":"新建里","LIN":"6鄰","STREET":"仁愛路","SECT":" ","MAREA":" ","LANE":" ","ALLEY":" ","HOUSE_NO":"３２號之４７","E_COORD97":172532.38,"N_COORD97":2564792.7799999998,"ADDRESS":"仁愛路３２號之４７","OBJECTID":522458},"geometry":{"x":172532.38000000082,"y":2564792.7800000012}},{"attributes":{"ID":522486,"DIS_CODE":0,"TOWNNAME":"麻豆區","LI":"新建里","LIN":"6鄰","STREET":"仁愛路","SECT":" ","MAREA":" ","LANE":" ","ALLEY":" ","HOUSE_NO":"３２號之４８","E_COORD97":172527.42999999999,"N_COORD97":2564792.7400000002,"ADDRESS":"仁愛路３２號之４８","OBJECTID":522459},"geometry":{"x":172527.4299999997,"y":2564792.7400000021}},{"attributes":{"ID":522487,"DIS_CODE":0,"TOWNNAME":"仁德區","LI":"成功里","LIN":"26鄰","STREET":"成功一街","SECT":" ","MAREA":" ","LANE":" ","ALLEY":" ","HOUSE_NO":"４６號","E_COORD97":170521.79000000001,"N_COORD97":2540026.52,"ADDRESS":"成功一街４６號","OBJECTID":522460},"geometry":{"x":170521.78999999911,"y":2540026.5200000033}},{"attributes":{"ID":522488,"DIS_CODE":0,"TOWNNAME":"麻豆區","LI":"新建里","LIN":"6鄰","STREET":"仁愛路","SECT":" ","MAREA":" ","LANE":" ","ALLEY":" ","HOUSE_NO":"３２號之４９","E_COORD97":172532.35999999999,"N_COORD97":2564800.6699999999,"ADDRESS":"仁愛路３２號之４９","OBJECTID":522461},"geometry":{"x":172532.3600000022,"y":2564800.6700000018}},{"attributes":{"ID":522489,"DIS_CODE":0,"TOWNNAME":"麻豆區","LI":"新建里","LIN":"6鄰","STREET":"仁愛路","SECT":" ","MAREA":" ","LANE":" ","ALLEY":" ","HOUSE_NO":"３２號之５０","E_COORD97":172532.41,"N_COORD97":2564806.6299999999,"ADDRESS":"仁愛路３２號之５０","OBJECTID":522462},"geometry":{"x":172532.41000000108,"y":2564806.6300000008}},{"attributes":{"ID":522490,"DIS_CODE":0,"TOWNNAME":"麻豆區","LI":"新建里","LIN":"6鄰","STREET":"仁愛路","SECT":" ","MAREA":" ","LANE":" ","ALLEY":" ","HOUSE_NO":"３２號之５１","E_COORD97":172506.20999999999,"N_COORD97":2564806.6400000001,"ADDRESS":"仁愛路３２號之５１","OBJECTID":522463},"geometry":{"x":172506.21000000089,"y":2564806.6400000006}},{"attributes":{"ID":522491,"DIS_CODE":0,"TOWNNAME":"麻豆區","LI":"新建里","LIN":"6鄰","STREET":"仁愛路","SECT":" ","MAREA":" ","LANE":" ","ALLEY":" ","HOUSE_NO":"３２號之５２","E_COORD97":172506.29999999999,"N_COORD97":2564800.4100000001,"ADDRESS":"仁愛路３２號之５２","OBJECTID":522464},"geometry":{"x":172506.29999999981,"y":2564800.4100000001}},{"attributes":{"ID":522492,"DIS_CODE":0,"TOWNNAME":"麻豆區","LI":"新建里","LIN":"6鄰","STREET":"仁愛路","SECT":" ","MAREA":" ","LANE":" ","ALLEY":" ","HOUSE_NO":"３２號之６","E_COORD97":172578.07000000001,"N_COORD97":2564758.8599999999,"ADDRESS":"仁愛路３２號之６","OBJECTID":522465},"geometry":{"x":172578.0700000003,"y":2564758.8599999994}},{"attributes":{"ID":522493,"DIS_CODE":0,"TOWNNAME":"麻豆區","LI":"新建里","LIN":"6鄰","STREET":"仁愛路","SECT":" ","MAREA":" ","LANE":" ","ALLEY":" ","HOUSE_NO":"３２號之７","E_COORD97":172573.5,"N_COORD97":2564758.9199999999,"ADDRESS":"仁愛路３２號之７","OBJECTID":522466},"geometry":{"x":172573.50000000093,"y":2564758.9199999999}},{"attributes":{"ID":522494,"DIS_CODE":0,"TOWNNAME":"麻豆區","LI":"新建里","LIN":"6鄰","STREET":"仁愛路","SECT":" ","MAREA":" ","LANE":" ","ALLEY":" ","HOUSE_NO":"３２號之８","E_COORD97":172566.04999999999,"N_COORD97":2564758.1699999999,"ADDRESS":"仁愛路３２號之８","OBJECTID":522467},"geometry":{"x":172566.05000000168,"y":2564758.1699999999}},{"attributes":{"ID":522495,"DIS_CODE":0,"TOWNNAME":"麻豆區","LI":"新建里","LIN":"6鄰","STREET":"仁愛路","SECT":" ","MAREA":" ","LANE":" ","ALLEY":" ","HOUSE_NO":"３２號之９","E_COORD97":172560.45000000001,"N_COORD97":2564758.0699999998,"ADDRESS":"仁愛路３２號之９","OBJECTID":522468},"geometry":{"x":172560.45000000112,"y":2564758.0700000003}},{"attributes":{"ID":522496,"DIS_CODE":0,"TOWNNAME":"麻豆區","LI":"新建里","LIN":"6鄰","STREET":"仁愛路","SECT":" ","MAREA":" ","LANE":" ","ALLEY":" ","HOUSE_NO":"３２號","E_COORD97":172506.10000000001,"N_COORD97":2564785.02,"ADDRESS":"仁愛路３２號","OBJECTID":522469},"geometry":{"x":172506.10000000149,"y":2564785.0199999996}},{"attributes":{"ID":522497,"DIS_CODE":0,"TOWNNAME":"中西區","LI":"青年里","LIN":"6鄰","STREET":"武德街","SECT":" ","MAREA":" ","LANE":" ","ALLEY":" ","HOUSE_NO":"３３號","E_COORD97":168961.41,"N_COORD97":2543691.3300000001,"ADDRESS":"武德街３３號","OBJECTID":522470},"geometry":{"x":168961.41000000015,"y":2543691.3300000019}},{"attributes":{"ID":522498,"DIS_CODE":0,"TOWNNAME":"麻豆區","LI":"新建里","LIN":"6鄰","STREET":"仁愛路","SECT":" ","MAREA":" ","LANE":" ","ALLEY":" ","HOUSE_NO":"３６號之１０","E_COORD97":172429.04999999999,"N_COORD97":2564775.2599999998,"ADDRESS":"仁愛路３６號之１０","OBJECTID":522471},"geometry":{"x":172429.05000000075,"y":2564775.2600000016}},{"attributes":{"ID":522499,"DIS_CODE":0,"TOWNNAME":"麻豆區","LI":"新建里","LIN":"6鄰","STREET":"仁愛路","SECT":" ","MAREA":" ","LANE":" ","ALLEY":" ","HOUSE_NO":"３６號之１１","E_COORD97":172428.92999999999,"N_COORD97":2564780.52,"ADDRESS":"仁愛路３６號之１１","OBJECTID":522472},"geometry":{"x":172428.9299999997,"y":2564780.5200000014}},{"attributes":{"ID":522500,"DIS_CODE":0,"TOWNNAME":"麻豆區","LI":"新建里","LIN":"6鄰","STREET":"仁愛路","SECT":" ","MAREA":" ","LANE":" ","ALLEY":" ","HOUSE_NO":"３６號之１２","E_COORD97":172428.69,"N_COORD97":2564785.5899999999,"ADDRESS":"仁愛路３６號之１２","OBJECTID":522473},"geometry":{"x":172428.69000000134,"y":2564785.5899999999}},{"attributes":{"ID":522501,"DIS_CODE":0,"TOWNNAME":"麻豆區","LI":"新建里","LIN":"6鄰","STREET":"仁愛路","SECT":" ","MAREA":" ","LANE":" ","ALLEY":" ","HOUSE_NO":"３６號之１３","E_COORD97":172428.64999999999,"N_COORD97":2564790.6800000002,"ADDRESS":"仁愛路３６號之１３","OBJECTID":522474},"geometry":{"x":172428.65000000224,"y":2564790.6799999997}},{"attributes":{"ID":522502,"DIS_CODE":0,"TOWNNAME":"麻豆區","LI":"新建里","LIN":"6鄰","STREET":"仁愛路","SECT":" ","MAREA":" ","LANE":" ","ALLEY":" ","HOUSE_NO":"３６號之１５","E_COORD97":172452.26999999999,"N_COORD97":2564806.2799999998,"ADDRESS":"仁愛路３６號之１５","OBJECTID":522475},"geometry":{"x":172452.26999999862,"y":2564806.2800000012}},{"attributes":{"ID":522503,"DIS_CODE":0,"TOWNNAME":"麻豆區","LI":"新建里","LIN":"6鄰","STREET":"仁愛路","SECT":" ","MAREA":" ","LANE":" ","ALLEY":" ","HOUSE_NO":"３６號之１６","E_COORD97":172446.22,"N_COORD97":2564810.0499999998,"ADDRESS":"仁愛路３６號之１６","OBJECTID":522476},"geometry":{"x":172446.2200000016,"y":2564810.0500000007}},{"attributes":{"ID":522504,"DIS_CODE":0,"TOWNNAME":"麻豆區","LI":"新建里","LIN":"6鄰","STREET":"仁愛路","SECT":" ","MAREA":" ","LANE":" ","ALLEY":" ","HOUSE_NO":"３６號之１７","E_COORD97":172440.14000000001,"N_COORD97":2564809.8900000001,"ADDRESS":"仁愛路３６號之１７","OBJECTID":522477},"geometry":{"x":172440.1400000006,"y":2564809.8900000025}},{"attributes":{"ID":522505,"DIS_CODE":0,"TOWNNAME":"麻豆區","LI":"新建里","LIN":"6鄰","STREET":"仁愛路","SECT":" ","MAREA":" ","LANE":" ","ALLEY":" ","HOUSE_NO":"３６號之１８","E_COORD97":172434.07000000001,"N_COORD97":2564809.73,"ADDRESS":"仁愛路３６號之１８","OBJECTID":522478},"geometry":{"x":172434.06999999937,"y":2564809.7300000042}},{"attributes":{"ID":522506,"DIS_CODE":0,"TOWNNAME":"麻豆區","LI":"新建里","LIN":"6鄰","STREET":"仁愛路","SECT":" ","MAREA":" ","LANE":" ","ALLEY":" ","HOUSE_NO":"３６號之１９","E_COORD97":172428,"N_COORD97":2564809.5800000001,"ADDRESS":"仁愛路３６號之１９","OBJECTID":522479},"geometry":{"x":172428.00000000093,"y":2564809.5800000001}},{"attributes":{"ID":522507,"DIS_CODE":0,"TOWNNAME":"麻豆區","LI":"新建里","LIN":"6鄰","STREET":"仁愛路","SECT":" ","MAREA":" ","LANE":" ","ALLEY":" ","HOUSE_NO":"３６號之２０","E_COORD97":172421.92000000001,"N_COORD97":2564809.4199999999,"ADDRESS":"仁愛路３６號之２０","OBJECTID":522480},"geometry":{"x":172421.92000000086,"y":2564809.4200000018}},{"attributes":{"ID":522508,"DIS_CODE":0,"TOWNNAME":"麻豆區","LI":"新建里","LIN":"6鄰","STREET":"仁愛路","SECT":" ","MAREA":" ","LANE":" ","ALLEY":" ","HOUSE_NO":"３６號之２１","E_COORD97":172410.76999999999,"N_COORD97":2564807.98,"ADDRESS":"仁愛路３６號之２１","OBJECTID":522481},"geometry":{"x":172410.77000000048,"y":2564807.9800000042}},{"attributes":{"ID":522509,"DIS_CODE":0,"TOWNNAME":"麻豆區","LI":"新建里","LIN":"6鄰","STREET":"仁愛路","SECT":" ","MAREA":" ","LANE":" ","ALLEY":" ","HOUSE_NO":"３６號之２２","E_COORD97":172403.45999999999,"N_COORD97":2564806.4700000002,"ADDRESS":"仁愛路３６號之２２","OBJECTID":522482},"geometry":{"x":172403.45999999996,"y":2564806.4700000025}},{"attributes":{"ID":522510,"DIS_CODE":0,"TOWNNAME":"麻豆區","LI":"新建里","LIN":"6鄰","STREET":"仁愛路","SECT":" ","MAREA":" ","LANE":" ","ALLEY":" ","HOUSE_NO":"３６號之２３","E_COORD97":172407.47,"N_COORD97":2564790.52,"ADDRESS":"仁愛路３６號之２３","OBJECTID":522483},"geometry":{"x":172407.47000000067,"y":2564790.5200000014}},{"attributes":{"ID":522511,"DIS_CODE":0,"TOWNNAME":"麻豆區","LI":"新建里","LIN":"6鄰","STREET":"仁愛路","SECT":" ","MAREA":" ","LANE":" ","ALLEY":" ","HOUSE_NO":"３６號之２５","E_COORD97":172407.85999999999,"N_COORD97":2564780.1299999999,"ADDRESS":"仁愛路３６號之２５","OBJECTID":522484},"geometry":{"x":172407.86000000034,"y":2564780.129999999}},{"attributes":{"ID":522512,"DIS_CODE":0,"TOWNNAME":"麻豆區","LI":"新建里","LIN":"6鄰","STREET":"仁愛路","SECT":" ","MAREA":" ","LANE":" ","ALLEY":" ","HOUSE_NO":"３６號之２６","E_COORD97":172409.48999999999,"N_COORD97":2564769.3799999999,"ADDRESS":"仁愛路３６號之２６","OBJECTID":522485},"geometry":{"x":172409.49000000115,"y":2564769.379999999}},{"attributes":{"ID":522513,"DIS_CODE":0,"TOWNNAME":"麻豆區","LI":"新建里","LIN":"6鄰","STREET":"仁愛路","SECT":" ","MAREA":" ","LANE":" ","ALLEY":" ","HOUSE_NO":"３６號之２７","E_COORD97":172414.09,"N_COORD97":2564754.3500000001,"ADDRESS":"仁愛路３６號之２７","OBJECTID":522486},"geometry":{"x":172414.08999999985,"y":2564754.3500000015}},{"attributes":{"ID":522514,"DIS_CODE":0,"TOWNNAME":"麻豆區","LI":"新建里","LIN":"6鄰","STREET":"仁愛路","SECT":" ","MAREA":" ","LANE":" ","ALLEY":" ","HOUSE_NO":"３６號之３","E_COORD97":172440.16,"N_COORD97":2564752.9500000002,"ADDRESS":"仁愛路３６號之３","OBJECTID":522487},"geometry":{"x":172440.16000000201,"y":2564752.9500000011}},{"attributes":{"ID":522515,"DIS_CODE":0,"TOWNNAME":"麻豆區","LI":"新建里","LIN":"6鄰","STREET":"仁愛路","SECT":" ","MAREA":" ","LANE":" ","ALLEY":" ","HOUSE_NO":"３６號之５","E_COORD97":172435.42999999999,"N_COORD97":2564752.7400000002,"ADDRESS":"仁愛路３６號之５","OBJECTID":522488},"geometry":{"x":172435.4299999997,"y":2564752.7400000021}},{"attributes":{"ID":522516,"DIS_CODE":0,"TOWNNAME":"麻豆區","LI":"新建里","LIN":"6鄰","STREET":"仁愛路","SECT":" ","MAREA":" ","LANE":" ","ALLEY":" ","HOUSE_NO":"３６號之６","E_COORD97":172430.57000000001,"N_COORD97":2564752.4900000002,"ADDRESS":"仁愛路３６號之６","OBJECTID":522489},"geometry":{"x":172430.5700000003,"y":2564752.4900000002}},{"attributes":{"ID":522517,"DIS_CODE":0,"TOWNNAME":"麻豆區","LI":"新建里","LIN":"6鄰","STREET":"仁愛路","SECT":" ","MAREA":" ","LANE":" ","ALLEY":" ","HOUSE_NO":"３６號之７","E_COORD97":172425.34,"N_COORD97":2564752.3799999999,"ADDRESS":"仁愛路３６號之７","OBJECTID":522490},"geometry":{"x":172425.34000000078,"y":2564752.379999999}},{"attributes":{"ID":522518,"DIS_CODE":0,"TOWNNAME":"麻豆區","LI":"新建里","LIN":"6鄰","STREET":"仁愛路","SECT":" ","MAREA":" ","LANE":" ","ALLEY":" ","HOUSE_NO":"３６號之８","E_COORD97":172429.39000000001,"N_COORD97":2564765.0499999998,"ADDRESS":"仁愛路３６號之８","OBJECTID":522491},"geometry":{"x":172429.38999999966,"y":2564765.0500000026}},{"attributes":{"ID":522519,"DIS_CODE":0,"TOWNNAME":"麻豆區","LI":"新建里","LIN":"6鄰","STREET":"仁愛路","SECT":" ","MAREA":" ","LANE":" ","ALLEY":" ","HOUSE_NO":"３６號之９","E_COORD97":172429.35000000001,"N_COORD97":2564770.3799999999,"ADDRESS":"仁愛路３６號之９","OBJECTID":522492},"geometry":{"x":172429.34999999963,"y":2564770.3800000008}},{"attributes":{"ID":522520,"DIS_CODE":0,"TOWNNAME":"麻豆區","LI":"新建里","LIN":"6鄰","STREET":"仁愛路","SECT":" ","MAREA":" ","LANE":" ","ALLEY":" ","HOUSE_NO":"３８號","E_COORD97":172388.40298000001,"N_COORD97":2564748.2432300001,"ADDRESS":"仁愛路３８號","OBJECTID":522493},"geometry":{"x":172388.40298000071,"y":2564748.2432269994}},{"attributes":{"ID":522521,"DIS_CODE":0,"TOWNNAME":"麻豆區","LI":"新建里","LIN":"6鄰","STREET":"仁愛路","SECT":" ","MAREA":" ","LANE":" ","ALLEY":" ","HOUSE_NO":"４０號","E_COORD97":172347.34,"N_COORD97":2564747.2999999998,"ADDRESS":"仁愛路４０號","OBJECTID":522494},"geometry":{"x":172347.34000000078,"y":2564747.3000000007}},{"attributes":{"ID":522522,"DIS_CODE":0,"TOWNNAME":"麻豆區","LI":"新建里","LIN":"6鄰","STREET":"仁愛路","SECT":" ","MAREA":" ","LANE":" ","ALLEY":" ","HOUSE_NO":"４２號","E_COORD97":172338.39000000001,"N_COORD97":2564746.1699999999,"ADDRESS":"仁愛路４２號","OBJECTID":522495},"geometry":{"x":172338.3900000006,"y":2564746.1700000018}},{"attributes":{"ID":522523,"DIS_CODE":0,"TOWNNAME":"麻豆區","LI":"大埕里","LIN":"6鄰","STREET":"文昌路","SECT":" ","MAREA":" ","LANE":" ","ALLEY":" ","HOUSE_NO":"２９號之２０","E_COORD97":173450.70000000001,"N_COORD97":2565108.5,"ADDRESS":"文昌路２９號之２０","OBJECTID":522496},"geometry":{"x":173450.70000000112,"y":2565108.5}},{"attributes":{"ID":522524,"DIS_CODE":0,"TOWNNAME":"麻豆區","LI":"大埕里","LIN":"6鄰","STREET":"文昌路","SECT":" ","MAREA":" ","LANE":" ","ALLEY":" ","HOUSE_NO":"２９號之２１","E_COORD97":173440.01999999999,"N_COORD97":2565090.7799999998,"ADDRESS":"文昌路２９號之２１","OBJECTID":522497},"geometry":{"x":173440.01999999955,"y":2565090.7800000012}},{"attributes":{"ID":522525,"DIS_CODE":0,"TOWNNAME":"麻豆區","LI":"大埕里","LIN":"6鄰","STREET":"文昌路","SECT":" ","MAREA":" ","LANE":" ","ALLEY":" ","HOUSE_NO":"２９號之２２","E_COORD97":173435.67000000001,"N_COORD97":2565093.4900000002,"ADDRESS":"文昌路２９號之２２","OBJECTID":522498},"geometry":{"x":173435.67000000086,"y":2565093.4900000021}},{"attributes":{"ID":522526,"DIS_CODE":0,"TOWNNAME":"麻豆區","LI":"大埕里","LIN":"6鄰","STREET":"文昌路","SECT":" ","MAREA":" ","LANE":" ","ALLEY":" ","HOUSE_NO":"２９號之２３","E_COORD97":173431.31,"N_COORD97":2565096.2000000002,"ADDRESS":"文昌路２９號之２３","OBJECTID":522499},"geometry":{"x":173431.30999999959,"y":2565096.1999999993}},{"attributes":{"ID":522527,"DIS_CODE":0,"TOWNNAME":"麻豆區","LI":"大埕里","LIN":"6鄰","STREET":"文昌路","SECT":" ","MAREA":" ","LANE":" ","ALLEY":" ","HOUSE_NO":"２９號之２５","E_COORD97":173426.95999999999,"N_COORD97":2565098.9100000001,"ADDRESS":"文昌路２９號之２５","OBJECTID":522500},"geometry":{"x":173426.96000000089,"y":2565098.9100000001}},{"attributes":{"ID":522528,"DIS_CODE":0,"TOWNNAME":"麻豆區","LI":"大埕里","LIN":"6鄰","STREET":"文昌路","SECT":" ","MAREA":" ","LANE":" ","ALLEY":" ","HOUSE_NO":"２９號之２６","E_COORD97":173422.60999999999,"N_COORD97":2565101.6200000001,"ADDRESS":"文昌路２９號之２６","OBJECTID":522501},"geometry":{"x":173422.61000000127,"y":2565101.620000001}},{"attributes":{"ID":522529,"DIS_CODE":0,"TOWNNAME":"麻豆區","LI":"大埕里","LIN":"6鄰","STREET":"文昌路","SECT":" ","MAREA":" ","LANE":" ","ALLEY":" ","HOUSE_NO":"２９號之２７","E_COORD97":173418.26000000001,"N_COORD97":2565104.3300000001,"ADDRESS":"文昌路２９號之２７","OBJECTID":522502},"geometry":{"x":173418.25999999978,"y":2565104.3300000019}},{"attributes":{"ID":522530,"DIS_CODE":0,"TOWNNAME":"麻豆區","LI":"大埕里","LIN":"6鄰","STREET":"文昌路","SECT":" ","MAREA":" ","LANE":" ","ALLEY":" ","HOUSE_NO":"２９號之２８","E_COORD97":173428.37,"N_COORD97":2565117.8199999998,"ADDRESS":"文昌路２９號之２８","OBJECTID":522503},"geometry":{"x":173428.37000000011,"y":2565117.8200000022}},{"attributes":{"ID":522531,"DIS_CODE":0,"TOWNNAME":"麻豆區","LI":"大埕里","LIN":"6鄰","STREET":"文昌路","SECT":" ","MAREA":" ","LANE":" ","ALLEY":" ","HOUSE_NO":"２９號之２９","E_COORD97":173429.92999999999,"N_COORD97":2565122.2000000002,"ADDRESS":"文昌路２９號之２９","OBJECTID":522504},"geometry":{"x":173429.93000000063,"y":2565122.1999999993}},{"attributes":{"ID":522532,"DIS_CODE":0,"TOWNNAME":"麻豆區","LI":"大埕里","LIN":"6鄰","STREET":"文昌路","SECT":" ","MAREA":" ","LANE":" ","ALLEY":" ","HOUSE_NO":"２９號之２","E_COORD97":173495.67999999999,"N_COORD97":2565110.6899999999,"ADDRESS":"文昌路２９號之２","OBJECTID":522505},"geometry":{"x":173495.68000000156,"y":2565110.6900000032}},{"attributes":{"ID":522533,"DIS_CODE":0,"TOWNNAME":"麻豆區","LI":"大埕里","LIN":"6鄰","STREET":"文昌路","SECT":" ","MAREA":" ","LANE":" ","ALLEY":" ","HOUSE_NO":"２９號之３０","E_COORD97":173431.48999999999,"N_COORD97":2565126.5800000001,"ADDRESS":"文昌路２９號之３０","OBJECTID":522506},"geometry":{"x":173431.49000000209,"y":2565126.5800000019}},{"attributes":{"ID":522534,"DIS_CODE":0,"TOWNNAME":"麻豆區","LI":"大埕里","LIN":"6鄰","STREET":"文昌路","SECT":" ","MAREA":" ","LANE":" ","ALLEY":" ","HOUSE_NO":"２９號之３１","E_COORD97":173407.64999999999,"N_COORD97":2565118.5600000001,"ADDRESS":"文昌路２９號之３１","OBJECTID":522507},"geometry":{"x":173407.65000000037,"y":2565118.5600000005}},{"attributes":{"ID":522535,"DIS_CODE":0,"TOWNNAME":"麻豆區","LI":"大埕里","LIN":"6鄰","STREET":"文昌路","SECT":" ","MAREA":" ","LANE":" ","ALLEY":" ","HOUSE_NO":"２９號之３２","E_COORD97":173402.60000000001,"N_COORD97":2565118.98,"ADDRESS":"文昌路２９號之３２","OBJECTID":522508},"geometry":{"x":173402.59999999963,"y":2565118.9800000004}},{"attributes":{"ID":522536,"DIS_CODE":0,"TOWNNAME":"麻豆區","LI":"大埕里","LIN":"6鄰","STREET":"文昌路","SECT":" ","MAREA":" ","LANE":" ","ALLEY":" ","HOUSE_NO":"２９號之３３","E_COORD97":173404.45000000001,"N_COORD97":2565092.1099999999,"ADDRESS":"文昌路２９號之３３","OBJECTID":522509},"geometry":{"x":173404.45000000205,"y":2565092.1100000013}},{"attributes":{"ID":522537,"DIS_CODE":0,"TOWNNAME":"麻豆區","LI":"大埕里","LIN":"6鄰","STREET":"文昌路","SECT":" ","MAREA":" ","LANE":" ","ALLEY":" ","HOUSE_NO":"２９號之３５","E_COORD97":173409.10000000001,"N_COORD97":2565089.3700000001,"ADDRESS":"文昌路２９號之３５","OBJECTID":522510},"geometry":{"x":173409.09999999963,"y":2565089.370000001}},{"attributes":{"ID":522538,"DIS_CODE":0,"TOWNNAME":"麻豆區","LI":"大埕里","LIN":"6鄰","STREET":"文昌路","SECT":" ","MAREA":" ","LANE":" ","ALLEY":" ","HOUSE_NO":"２９號之３６","E_COORD97":173413.75,"N_COORD97":2565086.6299999999,"ADDRESS":"文昌路２９號之３６","OBJECTID":522511},"geometry":{"x":173413.75,"y":2565086.6300000027}},{"attributes":{"ID":522539,"DIS_CODE":0,"TOWNNAME":"麻豆區","LI":"大埕里","LIN":"6鄰","STREET":"文昌路","SECT":" ","MAREA":" ","LANE":" ","ALLEY":" ","HOUSE_NO":"２９號之３７","E_COORD97":173417.81,"N_COORD97":2565084.3799999999,"ADDRESS":"文昌路２９號之３７","OBJECTID":522512},"geometry":{"x":173417.80999999959,"y":2565084.379999999}},{"attributes":{"ID":522540,"DIS_CODE":0,"TOWNNAME":"麻豆區","LI":"大埕里","LIN":"6鄰","STREET":"文昌路","SECT":" ","MAREA":" ","LANE":" ","ALLEY":" ","HOUSE_NO":"２９號之３８","E_COORD97":173400.64000000001,"N_COORD97":2565075.1899999999,"ADDRESS":"文昌路２９號之３８","OBJECTID":522513},"geometry":{"x":173400.63999999966,"y":2565075.1899999995}},{"attributes":{"ID":522541,"DIS_CODE":0,"TOWNNAME":"麻豆區","LI":"大埕里","LIN":"6鄰","STREET":"文昌路","SECT":" ","MAREA":" ","LANE":" ","ALLEY":" ","HOUSE_NO":"２９號之３","E_COORD97":173491.42999999999,"N_COORD97":2565110.5800000001,"ADDRESS":"文昌路２９號之３","OBJECTID":522514},"geometry":{"x":173491.43000000063,"y":2565110.5800000001}},{"attributes":{"ID":522542,"DIS_CODE":0,"TOWNNAME":"麻豆區","LI":"大埕里","LIN":"6鄰","STREET":"文昌路","SECT":" ","MAREA":" ","LANE":" ","ALLEY":" ","HOUSE_NO":"２９號之４","E_COORD97":173488.07999999999,"N_COORD97":2565110.3300000001,"ADDRESS":"文昌路２９號之４","OBJECTID":522515},"geometry":{"x":173488.08000000007,"y":2565110.3300000038}},{"attributes":{"ID":522543,"DIS_CODE":0,"TOWNNAME":"麻豆區","LI":"大埕里","LIN":"6鄰","STREET":"文昌路","SECT":" ","MAREA":" ","LANE":" ","ALLEY":" ","HOUSE_NO":"２９號之５","E_COORD97":173484.32000000001,"N_COORD97":2565110.2799999998,"ADDRESS":"文昌路２９號之５","OBJECTID":522516},"geometry":{"x":173484.32000000123,"y":2565110.2800000012}},{"attributes":{"ID":522544,"DIS_CODE":0,"TOWNNAME":"麻豆區","LI":"大埕里","LIN":"6鄰","STREET":"文昌路","SECT":" ","MAREA":" ","LANE":" ","ALLEY":" ","HOUSE_NO":"２９號之６","E_COORD97":173480.01999999999,"N_COORD97":2565110.6299999999,"ADDRESS":"文昌路２９號之６","OBJECTID":522517},"geometry":{"x":173480.02000000048,"y":2565110.6300000027}},{"attributes":{"ID":522545,"DIS_CODE":0,"TOWNNAME":"麻豆區","LI":"大埕里","LIN":"6鄰","STREET":"文昌路","SECT":" ","MAREA":" ","LANE":" ","ALLEY":" ","HOUSE_NO":"２９號之７","E_COORD97":173484.44,"N_COORD97":2565124.1000000001,"ADDRESS":"文昌路２９號之７","OBJECTID":522518},"geometry":{"x":173484.44000000227,"y":2565124.0999999996}},{"attributes":{"ID":522546,"DIS_CODE":0,"TOWNNAME":"麻豆區","LI":"大埕里","LIN":"6鄰","STREET":"文昌路","SECT":" ","MAREA":" ","LANE":" ","ALLEY":" ","HOUSE_NO":"２９號之８","E_COORD97":173485.32000000001,"N_COORD97":2565128.1800000002,"ADDRESS":"文昌路２９號之８","OBJECTID":522519},"geometry":{"x":173485.32000000123,"y":2565128.1800000016}},{"attributes":{"ID":522547,"DIS_CODE":0,"TOWNNAME":"麻豆區","LI":"大埕里","LIN":"6鄰","STREET":"文昌路","SECT":" ","MAREA":" ","LANE":" ","ALLEY":" ","HOUSE_NO":"２９號之９","E_COORD97":173485.82999999999,"N_COORD97":2565132.21,"ADDRESS":"文昌路２９號之９","OBJECTID":522520},"geometry":{"x":173485.83000000007,"y":2565132.2100000046}},{"attributes":{"ID":522548,"DIS_CODE":0,"TOWNNAME":"麻豆區","LI":"大埕里","LIN":"6鄰","STREET":"文昌路","SECT":" ","MAREA":" ","LANE":" ","ALLEY":" ","HOUSE_NO":"３１號之１０","E_COORD97":173540.09,"N_COORD97":2565171.0800000001,"ADDRESS":"文昌路３１號之１０","OBJECTID":522521},"geometry":{"x":173540.08999999985,"y":2565171.0800000019}},{"attributes":{"ID":522549,"DIS_CODE":0,"TOWNNAME":"麻豆區","LI":"大埕里","LIN":"6鄰","STREET":"文昌路","SECT":" ","MAREA":" ","LANE":" ","ALLEY":" ","HOUSE_NO":"３１號之１１","E_COORD97":173541.64000000001,"N_COORD97":2565174.73,"ADDRESS":"文昌路３１號之１１","OBJECTID":522522},"geometry":{"x":173541.64000000153,"y":2565174.7300000004}},{"attributes":{"ID":522550,"DIS_CODE":0,"TOWNNAME":"麻豆區","LI":"大埕里","LIN":"6鄰","STREET":"文昌路","SECT":" ","MAREA":" ","LANE":" ","ALLEY":" ","HOUSE_NO":"３１號之１２","E_COORD97":173543.48999999999,"N_COORD97":2565178.3700000001,"ADDRESS":"文昌路３１號之１２","OBJECTID":522523},"geometry":{"x":173543.49000000115,"y":2565178.370000001}},{"attributes":{"ID":522551,"DIS_CODE":0,"TOWNNAME":"麻豆區","LI":"大埕里","LIN":"6鄰","STREET":"文昌路","SECT":" ","MAREA":" ","LANE":" ","ALLEY":" ","HOUSE_NO":"３１號之１８","E_COORD97":173500.39000000001,"N_COORD97":2565180.0299999998,"ADDRESS":"文昌路３１號之１８","OBJECTID":522524},"geometry":{"x":173500.38999999966,"y":2565180.0300000012}},{"attributes":{"ID":522552,"DIS_CODE":0,"TOWNNAME":"麻豆區","LI":"大埕里","LIN":"6鄰","STREET":"文昌路","SECT":" ","MAREA":" ","LANE":" ","ALLEY":" ","HOUSE_NO":"３１號之１９","E_COORD97":173495.76000000001,"N_COORD97":2565182.1200000001,"ADDRESS":"文昌路３１號之１９","OBJECTID":522525},"geometry":{"x":173495.76000000071,"y":2565182.1200000029}},{"attributes":{"ID":522553,"DIS_CODE":0,"TOWNNAME":"麻豆區","LI":"大埕里","LIN":"6鄰","STREET":"文昌路","SECT":" ","MAREA":" ","LANE":" ","ALLEY":" ","HOUSE_NO":"３１號之１","E_COORD97":173557.85000000001,"N_COORD97":2565241.23,"ADDRESS":"文昌路３１號之１","OBJECTID":522526},"geometry":{"x":173557.85000000056,"y":2565241.2300000023}},{"attributes":{"ID":522554,"DIS_CODE":0,"TOWNNAME":"麻豆區","LI":"大埕里","LIN":"6鄰","STREET":"文昌路","SECT":" ","MAREA":" ","LANE":" ","ALLEY":" ","HOUSE_NO":"３１號之２０","E_COORD97":173492.06,"N_COORD97":2565184.54,"ADDRESS":"文昌路３１號之２０","OBJECTID":522527},"geometry":{"x":173492.06000000052,"y":2565184.5399999991}},{"attributes":{"ID":522555,"DIS_CODE":0,"TOWNNAME":"麻豆區","LI":"大埕里","LIN":"6鄰","STREET":"文昌路","SECT":" ","MAREA":" ","LANE":" ","ALLEY":" ","HOUSE_NO":"３１號之２１","E_COORD97":173488.01000000001,"N_COORD97":2565186.5099999998,"ADDRESS":"文昌路３１號之２１","OBJECTID":522528},"geometry":{"x":173488.00999999978,"y":2565186.5099999979}},{"attributes":{"ID":522556,"DIS_CODE":0,"TOWNNAME":"麻豆區","LI":"大埕里","LIN":"6鄰","STREET":"文昌路","SECT":" ","MAREA":" ","LANE":" ","ALLEY":" ","HOUSE_NO":"３１號之２","E_COORD97":173544.89000000001,"N_COORD97":2565190.27,"ADDRESS":"文昌路３１號之２","OBJECTID":522529},"geometry":{"x":173544.88999999966,"y":2565190.2699999996}},{"attributes":{"ID":522557,"DIS_CODE":0,"TOWNNAME":"麻豆區","LI":"大埕里","LIN":"6鄰","STREET":"文昌路","SECT":" ","MAREA":" ","LANE":" ","ALLEY":" ","HOUSE_NO":"３１號之３","E_COORD97":173428.10999999999,"N_COORD97":2565239.0600000001,"ADDRESS":"文昌路３１號之３","OBJECTID":522530},"geometry":{"x":173428.11000000127,"y":2565239.0600000024}},{"attributes":{"ID":522558,"DIS_CODE":0,"TOWNNAME":"新市區","LI":"港墘里","LIN":"6鄰","STREET":"興業路","SECT":" ","MAREA":" ","LANE":" ","ALLEY":" ","HOUSE_NO":"１０號","E_COORD97":178307.62,"N_COORD97":2553396.5,"ADDRESS":"興業路１０號","OBJECTID":522531},"geometry":{"x":178307.62000000104,"y":2553396.5000000019}},{"attributes":{"ID":522559,"DIS_CODE":0,"TOWNNAME":"新市區","LI":"永就里","LIN":"6鄰","STREET":"中華路","SECT":" ","MAREA":" ","LANE":" ","ALLEY":" ","HOUSE_NO":"８１號","E_COORD97":177756.37,"N_COORD97":2551521.25,"ADDRESS":"中華路８１號","OBJECTID":522532},"geometry":{"x":177756.37000000011,"y":2551521.25}},{"attributes":{"ID":522560,"DIS_CODE":0,"TOWNNAME":"新市區","LI":"永就里","LIN":"6鄰","STREET":"中華路","SECT":" ","MAREA":" ","LANE":" ","ALLEY":" ","HOUSE_NO":"９１號","E_COORD97":177798.51999999999,"N_COORD97":2551499.75,"ADDRESS":"中華路９１號","OBJECTID":522533},"geometry":{"x":177798.51999999955,"y":2551499.7500000019}},{"attributes":{"ID":522561,"DIS_CODE":0,"TOWNNAME":"新市區","LI":"永就里","LIN":"6鄰","STREET":"中華路","SECT":" ","MAREA":" ","LANE":" ","ALLEY":" ","HOUSE_NO":"１３２號","E_COORD97":177700.85000000001,"N_COORD97":2551561,"ADDRESS":"中華路１３２號","OBJECTID":522534},"geometry":{"x":177700.85000000056,"y":2551561.0000000037}},{"attributes":{"ID":522562,"DIS_CODE":0,"TOWNNAME":"中西區","LI":"郡王里","LIN":"6鄰","STREET":"大埔街","SECT":" ","MAREA":" ","LANE":" ","ALLEY":" ","HOUSE_NO":"３５號","E_COORD97":168900.73999999999,"N_COORD97":2543053.2000000002,"ADDRESS":"大埔街３５號","OBJECTID":522535},"geometry":{"x":168900.74000000115,"y":2543053.2000000011}},{"attributes":{"ID":522563,"DIS_CODE":0,"TOWNNAME":"中西區","LI":"郡王里","LIN":"6鄰","STREET":"大埔街","SECT":" ","MAREA":" ","LANE":" ","ALLEY":" ","HOUSE_NO":"３７號","E_COORD97":168895.23000000001,"N_COORD97":2543051.8399999999,"ADDRESS":"大埔街３７號","OBJECTID":522536},"geometry":{"x":168895.23000000045,"y":2543051.8399999999}},{"attributes":{"ID":522564,"DIS_CODE":0,"TOWNNAME":"中西區","LI":"郡王里","LIN":"6鄰","STREET":"大埔街","SECT":" ","MAREA":" ","LANE":" ","ALLEY":" ","HOUSE_NO":"３９號","E_COORD97":168884.57999999999,"N_COORD97":2543033.4399999999,"ADDRESS":"大埔街３９號","OBJECTID":522537},"geometry":{"x":168884.58000000101,"y":2543033.4399999995}},{"attributes":{"ID":522565,"DIS_CODE":0,"TOWNNAME":"中西區","LI":"郡王里","LIN":"6鄰","STREET":"大埔街","SECT":" ","MAREA":" ","LANE":" ","ALLEY":" ","HOUSE_NO":"４１號","E_COORD97":168875.51999999999,"N_COORD97":2543037.6499999999,"ADDRESS":"大埔街４１號","OBJECTID":522538},"geometry":{"x":168875.52000000142,"y":2543037.6500000022}},{"attributes":{"ID":522566,"DIS_CODE":0,"TOWNNAME":"中西區","LI":"郡王里","LIN":"6鄰","STREET":"大埔街","SECT":" ","MAREA":" ","LANE":" ","ALLEY":" ","HOUSE_NO":"４３號","E_COORD97":168881.32999999999,"N_COORD97":2543057.3599999999,"ADDRESS":"大埔街４３號","OBJECTID":522539},"geometry":{"x":168881.33000000101,"y":2543057.3599999994}},{"attributes":{"ID":522567,"DIS_CODE":0,"TOWNNAME":"中西區","LI":"郡王里","LIN":"6鄰","STREET":"大埔街","SECT":" ","MAREA":" ","LANE":" ","ALLEY":" ","HOUSE_NO":"４５號","E_COORD97":168876.72,"N_COORD97":2543058.7200000002,"ADDRESS":"大埔街４５號","OBJECTID":522540},"geometry":{"x":168876.72000000067,"y":2543058.7200000025}},{"attributes":{"ID":522568,"DIS_CODE":0,"TOWNNAME":"中西區","LI":"郡王里","LIN":"6鄰","STREET":"大埔街","SECT":" ","MAREA":" ","LANE":" ","ALLEY":" ","HOUSE_NO":"４７號","E_COORD97":168870,"N_COORD97":2543059.3999999999,"ADDRESS":"大埔街４７號","OBJECTID":522541},"geometry":{"x":168870.00000000093,"y":2543059.4000000022}},{"attributes":{"ID":522569,"DIS_CODE":0,"TOWNNAME":"中西區","LI":"青年里","LIN":"6鄰","STREET":"衛民街","SECT":" ","MAREA":" ","LANE":" ","ALLEY":" ","HOUSE_NO":"７３號","E_COORD97":168970.03,"N_COORD97":2543715.7200000002,"ADDRESS":"衛民街７３號","OBJECTID":522542},"geometry":{"x":168970.03000000119,"y":2543715.7200000025}},{"attributes":{"ID":522570,"DIS_CODE":0,"TOWNNAME":"中西區","LI":"青年里","LIN":"6鄰","STREET":"衛民街","SECT":" ","MAREA":" ","LANE":" ","ALLEY":" ","HOUSE_NO":"７５號","E_COORD97":168965.35999999999,"N_COORD97":2543716.79,"ADDRESS":"衛民街７５號","OBJECTID":522543},"geometry":{"x":168965.36000000034,"y":2543716.790000001}},{"attributes":{"ID":522571,"DIS_CODE":0,"TOWNNAME":"中西區","LI":"青年里","LIN":"6鄰","STREET":"衛民街","SECT":" ","MAREA":" ","LANE":" ","ALLEY":" ","HOUSE_NO":"７７號","E_COORD97":168961.41,"N_COORD97":2543715.7200000002,"ADDRESS":"衛民街７７號","OBJECTID":522544},"geometry":{"x":168961.41000000015,"y":2543715.7200000025}},{"attributes":{"ID":522572,"DIS_CODE":0,"TOWNNAME":"中西區","LI":"青年里","LIN":"6鄰","STREET":"衛民街","SECT":" ","MAREA":" ","LANE":" ","ALLEY":" ","HOUSE_NO":"７９號","E_COORD97":168957.82000000001,"N_COORD97":2543717.1499999999,"ADDRESS":"衛民街７９號","OBJECTID":522545},"geometry":{"x":168957.82000000123,"y":2543717.1500000004}},{"attributes":{"ID":522573,"DIS_CODE":0,"TOWNNAME":"中西區","LI":"青年里","LIN":"6鄰","STREET":"衛民街","SECT":" ","MAREA":" ","LANE":" ","ALLEY":" ","HOUSE_NO":"８１號","E_COORD97":168953.87,"N_COORD97":2543719.6600000001,"ADDRESS":"衛民街８１號","OBJECTID":522546},"geometry":{"x":168953.87000000104,"y":2543719.660000002}},{"attributes":{"ID":522574,"DIS_CODE":0,"TOWNNAME":"中西區","LI":"青年里","LIN":"6鄰","STREET":"衛民街","SECT":" ","MAREA":" ","LANE":" ","ALLEY":" ","HOUSE_NO":"８３號","E_COORD97":168951.35000000001,"N_COORD97":2543710.3399999999,"ADDRESS":"衛民街８３號","OBJECTID":522547},"geometry":{"x":168951.35000000149,"y":2543710.3400000017}},{"attributes":{"ID":522575,"DIS_CODE":0,"TOWNNAME":"中西區","LI":"青年里","LIN":"6鄰","STREET":"衛民街","SECT":" ","MAREA":" ","LANE":" ","ALLEY":" ","HOUSE_NO":"８５號","E_COORD97":168939.5,"N_COORD97":2543714.6400000001,"ADDRESS":"衛民街８５號","OBJECTID":522548},"geometry":{"x":168939.50000000093,"y":2543714.6400000006}},{"attributes":{"ID":522576,"DIS_CODE":0,"TOWNNAME":"中西區","LI":"青年里","LIN":"6鄰","STREET":"衛民街","SECT":" ","MAREA":" ","LANE":" ","ALLEY":" ","HOUSE_NO":"８７號","E_COORD97":168938.78,"N_COORD97":2543707.8300000001,"ADDRESS":"衛民街８７號","OBJECTID":522549},"geometry":{"x":168938.77999999933,"y":2543707.8300000019}},{"attributes":{"ID":522577,"DIS_CODE":0,"TOWNNAME":"中西區","LI":"青年里","LIN":"6鄰","STREET":"衛民街","SECT":" ","MAREA":" ","LANE":" ","ALLEY":" ","HOUSE_NO":"８７號之１","E_COORD97":168938.42000000001,"N_COORD97":2543703.8799999999,"ADDRESS":"衛民街８７號之１","OBJECTID":522550},"geometry":{"x":168938.42000000086,"y":2543703.879999999}},{"attributes":{"ID":522578,"DIS_CODE":0,"TOWNNAME":"中西區","LI":"青年里","LIN":"6鄰","STREET":"衛民街","SECT":" ","MAREA":" ","LANE":" ","ALLEY":" ","HOUSE_NO":"８９號","E_COORD97":168928.98000000001,"N_COORD97":2543699.25,"ADDRESS":"衛民街８９號","OBJECTID":522551},"geometry":{"x":168928.98000000045,"y":2543699.25}},{"attributes":{"ID":522579,"DIS_CODE":0,"TOWNNAME":"仁德區","LI":"仁德里","LIN":"6鄰","STREET":"仁德三街","SECT":" ","MAREA":" ","LANE":" ","ALLEY":" ","HOUSE_NO":"２５號","E_COORD97":173277.53,"N_COORD97":2540980.5099999998,"ADDRESS":"仁德三街２５號","OBJECTID":522552},"geometry":{"x":173277.53000000119,"y":2540980.5100000016}},{"attributes":{"ID":522580,"DIS_CODE":0,"TOWNNAME":"仁德區","LI":"仁德里","LIN":"6鄰","STREET":"仁德三街","SECT":" ","MAREA":" ","LANE":" ","ALLEY":" ","HOUSE_NO":"１３號","E_COORD97":173301.42000000001,"N_COORD97":2540986.5099999998,"ADDRESS":"仁德三街１３號","OBJECTID":522553},"geometry":{"x":173301.42000000086,"y":2540986.5100000016}},{"attributes":{"ID":522581,"DIS_CODE":0,"TOWNNAME":"仁德區","LI":"仁德里","LIN":"6鄰","STREET":"仁德三街","SECT":" ","MAREA":" ","LANE":" ","ALLEY":" ","HOUSE_NO":"２３號","E_COORD97":173281.20000000001,"N_COORD97":2540981.2599999998,"ADDRESS":"仁德三街２３號","OBJECTID":522554},"geometry":{"x":173281.20000000112,"y":2540981.2600000035}},{"attributes":{"ID":522582,"DIS_CODE":0,"TOWNNAME":"仁德區","LI":"仁德里","LIN":"6鄰","STREET":"仁德三街","SECT":" ","MAREA":" ","LANE":" ","ALLEY":" ","HOUSE_NO":"２７號","E_COORD97":173273.64000000001,"N_COORD97":2540979.5099999998,"ADDRESS":"仁德三街２７號","OBJECTID":522555},"geometry":{"x":173273.63999999966,"y":2540979.5100000035}},{"attributes":{"ID":522583,"DIS_CODE":0,"TOWNNAME":"仁德區","LI":"仁德里","LIN":"6鄰","STREET":"仁德三街","SECT":" ","MAREA":" ","LANE":" ","ALLEY":" ","HOUSE_NO":"３１號","E_COORD97":173265.89999999999,"N_COORD97":2540977.7599999998,"ADDRESS":"仁德三街３１號","OBJECTID":522556},"geometry":{"x":173265.90000000037,"y":2540977.7600000035}},{"attributes":{"ID":522584,"DIS_CODE":0,"TOWNNAME":"仁德區","LI":"仁德里","LIN":"6鄰","STREET":"仁德三街","SECT":" ","MAREA":" ","LANE":" ","ALLEY":" ","HOUSE_NO":"２１號","E_COORD97":173285.48000000001,"N_COORD97":2540982.2599999998,"ADDRESS":"仁德三街２１號","OBJECTID":522557},"geometry":{"x":173285.48000000045,"y":2540982.2600000016}},{"attributes":{"ID":522585,"DIS_CODE":0,"TOWNNAME":"仁德區","LI":"仁德里","LIN":"6鄰","STREET":"仁德三街","SECT":" ","MAREA":" ","LANE":" ","ALLEY":" ","HOUSE_NO":"１１號","E_COORD97":173305.56,"N_COORD97":2540987.2599999998,"ADDRESS":"仁德三街１１號","OBJECTID":522558},"geometry":{"x":173305.56000000052,"y":2540987.2599999998}},{"attributes":{"ID":522586,"DIS_CODE":0,"TOWNNAME":"仁德區","LI":"仁德里","LIN":"6鄰","STREET":"中正路","SECT":"二段","MAREA":" ","LANE":" ","ALLEY":" ","HOUSE_NO":"１０８３號","E_COORD97":173381.26000000001,"N_COORD97":2540867.02,"ADDRESS":"中正路二段１０８３號","OBJECTID":522559},"geometry":{"x":173381.25999999978,"y":2540867.0199999977}},{"attributes":{"ID":522587,"DIS_CODE":0,"TOWNNAME":"仁德區","LI":"仁德里","LIN":"6鄰","STREET":"中正路","SECT":"二段","MAREA":" ","LANE":" ","ALLEY":" ","HOUSE_NO":"１０９３號","E_COORD97":173376.41,"N_COORD97":2540889.52,"ADDRESS":"中正路二段１０９３號","OBJECTID":522560},"geometry":{"x":173376.41000000108,"y":2540889.5199999996}},{"attributes":{"ID":522588,"DIS_CODE":0,"TOWNNAME":"仁德區","LI":"仁德里","LIN":"6鄰","STREET":"中正路","SECT":"二段","MAREA":" ","LANE":" ","ALLEY":" ","HOUSE_NO":"１１２１號","E_COORD97":173355.56,"N_COORD97":2540960.4300000002,"ADDRESS":"中正路二段１１２１號","OBJECTID":522561},"geometry":{"x":173355.55999999866,"y":2540960.4300000016}},{"attributes":{"ID":522589,"DIS_CODE":0,"TOWNNAME":"仁德區","LI":"仁德里","LIN":"6鄰","STREET":"仁德三街","SECT":" ","MAREA":" ","LANE":" ","ALLEY":" ","HOUSE_NO":"３７號","E_COORD97":173234.38,"N_COORD97":2540970.2599999998,"ADDRESS":"仁德三街３７號","OBJECTID":522562},"geometry":{"x":173234.37999999989,"y":2540970.2599999998}},{"attributes":{"ID":522590,"DIS_CODE":0,"TOWNNAME":"仁德區","LI":"仁德里","LIN":"6鄰","STREET":"中正路","SECT":"二段","MAREA":" ","LANE":" ","ALLEY":" ","HOUSE_NO":"１１０１號","E_COORD97":173372.01999999999,"N_COORD97":2540905.77,"ADDRESS":"中正路二段１１０１號","OBJECTID":522563},"geometry":{"x":173372.01999999955,"y":2540905.7699999996}},{"attributes":{"ID":522591,"DIS_CODE":0,"TOWNNAME":"仁德區","LI":"仁德里","LIN":"6鄰","STREET":"仁德三街","SECT":" ","MAREA":" ","LANE":" ","ALLEY":" ","HOUSE_NO":"１７號","E_COORD97":173293.20000000001,"N_COORD97":2540984.5099999998,"ADDRESS":"仁德三街１７號","OBJECTID":522564},"geometry":{"x":173293.20000000112,"y":2540984.5099999998}},{"attributes":{"ID":522592,"DIS_CODE":0,"TOWNNAME":"仁德區","LI":"新田里","LIN":"6鄰","STREET":"勝利路","SECT":" ","MAREA":" ","LANE":" ","ALLEY":" ","HOUSE_NO":"２９３號","E_COORD97":174999.26999999999,"N_COORD97":2539396.2599999998,"ADDRESS":"勝利路２９３號","OBJECTID":522565},"geometry":{"x":174999.27000000048,"y":2539396.2599999998}},{"attributes":{"ID":522593,"DIS_CODE":0,"TOWNNAME":"仁德區","LI":"保安里","LIN":"6鄰","STREET":"文賢路","SECT":"一段","MAREA":" ","LANE":" ","ALLEY":" ","HOUSE_NO":"７３５號","E_COORD97":171457.57000000001,"N_COORD97":2536241.0699999998,"ADDRESS":"文賢路一段７３５號","OBJECTID":522566},"geometry":{"x":171457.5700000003,"y":2536241.0700000022}},{"attributes":{"ID":522594,"DIS_CODE":0,"TOWNNAME":"仁德區","LI":"仁德里","LIN":"6鄰","STREET":"中正路","SECT":"二段","MAREA":" ","LANE":" ","ALLEY":" ","HOUSE_NO":"１０８９號","E_COORD97":173378.38,"N_COORD97":2540881.52,"ADDRESS":"中正路二段１０８９號","OBJECTID":522567},"geometry":{"x":173378.38000000082,"y":2540881.5200000014}},{"attributes":{"ID":522595,"DIS_CODE":0,"TOWNNAME":"仁德區","LI":"仁德里","LIN":"6鄰","STREET":"中正路","SECT":"二段","MAREA":" ","LANE":" ","ALLEY":" ","HOUSE_NO":"１１１３號","E_COORD97":173365.45000000001,"N_COORD97":2540933.7799999998,"ADDRESS":"中正路二段１１１３號","OBJECTID":522568},"geometry":{"x":173365.44999999925,"y":2540933.7800000012}},{"attributes":{"ID":522596,"DIS_CODE":0,"TOWNNAME":"仁德區","LI":"仁德里","LIN":"6鄰","STREET":"仁德三街","SECT":" ","MAREA":" ","LANE":" ","ALLEY":" ","HOUSE_NO":"３號","E_COORD97":173321.54999999999,"N_COORD97":2540988.2599999998,"ADDRESS":"仁德三街３號","OBJECTID":522569},"geometry":{"x":173321.54999999981,"y":2540988.2600000016}},{"attributes":{"ID":522597,"DIS_CODE":0,"TOWNNAME":"仁德區","LI":"新田里","LIN":"6鄰","STREET":"勝利路","SECT":" ","MAREA":" ","LANE":" ","ALLEY":" ","HOUSE_NO":"２６７號","E_COORD97":174932.82999999999,"N_COORD97":2539465.2599999998,"ADDRESS":"勝利路２６７號","OBJECTID":522570},"geometry":{"x":174932.83000000101,"y":2539465.2599999998}},{"attributes":{"ID":522598,"DIS_CODE":0,"TOWNNAME":"仁德區","LI":"新田里","LIN":"6鄰","STREET":"勝利路","SECT":" ","MAREA":" ","LANE":" ","ALLEY":" ","HOUSE_NO":"２５１號","E_COORD97":174878.35000000001,"N_COORD97":2539425,"ADDRESS":"勝利路２５１號","OBJECTID":522571},"geometry":{"x":174878.35000000056,"y":2539425.0000000019}},{"attributes":{"ID":522599,"DIS_CODE":0,"TOWNNAME":"仁德區","LI":"仁德里","LIN":"6鄰","STREET":"中正路","SECT":"二段","MAREA":" ","LANE":" ","ALLEY":" ","HOUSE_NO":"１０９１號","E_COORD97":173377.37,"N_COORD97":2540885.52,"ADDRESS":"中正路二段１０９１號","OBJECTID":522572},"geometry":{"x":173377.37000000011,"y":2540885.5200000014}},{"attributes":{"ID":522600,"DIS_CODE":0,"TOWNNAME":"仁德區","LI":"後壁里","LIN":"6鄰","STREET":"德善路","SECT":" ","MAREA":" ","LANE":" ","ALLEY":" ","HOUSE_NO":"１４７號","E_COORD97":173517.85000000001,"N_COORD97":2538849.27,"ADDRESS":"德善路１４７號","OBJECTID":522573},"geometry":{"x":173517.84999999963,"y":2538849.2700000014}},{"attributes":{"ID":522601,"DIS_CODE":0,"TOWNNAME":"仁德區","LI":"仁德里","LIN":"6鄰","STREET":"中正路","SECT":"二段","MAREA":" ","LANE":" ","ALLEY":" ","HOUSE_NO":"１０９９號","E_COORD97":173373.48999999999,"N_COORD97":2540902.27,"ADDRESS":"中正路二段１０９９號","OBJECTID":522574},"geometry":{"x":173373.49000000022,"y":2540902.2699999996}},{"attributes":{"ID":522602,"DIS_CODE":0,"TOWNNAME":"仁德區","LI":"後壁里","LIN":"6鄰","STREET":"德善路","SECT":" ","MAREA":" ","LANE":" ","ALLEY":" ","HOUSE_NO":"１５１號","E_COORD97":173524.60999999999,"N_COORD97":2538846.02,"ADDRESS":"德善路１５１號","OBJECTID":522575},"geometry":{"x":173524.61000000127,"y":2538846.0199999996}},{"attributes":{"ID":522603,"DIS_CODE":0,"TOWNNAME":"仁德區","LI":"保安里","LIN":"6鄰","STREET":"文賢路","SECT":"一段","MAREA":" ","LANE":" ","ALLEY":" ","HOUSE_NO":"７４５號","E_COORD97":171470.85000000001,"N_COORD97":2536215.8199999998,"ADDRESS":"文賢路一段７４５號","OBJECTID":522576},"geometry":{"x":171470.85000000056,"y":2536215.8200000022}},{"attributes":{"ID":522604,"DIS_CODE":0,"TOWNNAME":"仁德區","LI":"新田里","LIN":"6鄰","STREET":"勝利路","SECT":" ","MAREA":" ","LANE":" ","ALLEY":" ","HOUSE_NO":"２５９號","E_COORD97":174903.84,"N_COORD97":2539421.75,"ADDRESS":"勝利路２５９號","OBJECTID":522577},"geometry":{"x":174903.84000000078,"y":2539421.7500000037}},{"attributes":{"ID":522605,"DIS_CODE":0,"TOWNNAME":"仁德區","LI":"仁德里","LIN":"6鄰","STREET":"中正路","SECT":"二段","MAREA":" ","LANE":" ","ALLEY":" ","HOUSE_NO":"１０９７號","E_COORD97":173374.31,"N_COORD97":2540898.02,"ADDRESS":"中正路二段１０９７號","OBJECTID":522578},"geometry":{"x":173374.31000000145,"y":2540898.0200000014}},{"attributes":{"ID":522606,"DIS_CODE":0,"TOWNNAME":"仁德區","LI":"成功里","LIN":"6鄰","STREET":"成功三街","SECT":" ","MAREA":" ","LANE":" ","ALLEY":" ","HOUSE_NO":"２號","E_COORD97":171148.62,"N_COORD97":2540052.5099999998,"ADDRESS":"成功三街２號","OBJECTID":522579},"geometry":{"x":171148.62000000197,"y":2540052.5099999998}},{"attributes":{"ID":522607,"DIS_CODE":0,"TOWNNAME":"仁德區","LI":"仁義里","LIN":"6鄰","STREET":"中清路","SECT":" ","MAREA":" ","LANE":" ","ALLEY":" ","HOUSE_NO":"７４號","E_COORD97":173712.85000000001,"N_COORD97":2541179.29,"ADDRESS":"中清路７４號","OBJECTID":522580},"geometry":{"x":173712.84999999963,"y":2541179.2899999991}},{"attributes":{"ID":522608,"DIS_CODE":0,"TOWNNAME":"中西區","LI":"民權里","LIN":"6鄰","STREET":"和平街","SECT":" ","MAREA":" ","LANE":" ","ALLEY":" ","HOUSE_NO":"７０號","E_COORD97":167632.95999999999,"N_COORD97":2544150.7999999998,"ADDRESS":"和平街７０號","OBJECTID":522581},"geometry":{"x":167632.95999999996,"y":2544150.8000000007}},{"attributes":{"ID":522609,"DIS_CODE":0,"TOWNNAME":"中西區","LI":"協進里","LIN":"6鄰","STREET":"西寧街","SECT":" ","MAREA":" ","LANE":" ","ALLEY":" ","HOUSE_NO":"９０號","E_COORD97":167002.28,"N_COORD97":2544250.5800000001,"ADDRESS":"西寧街９０號","OBJECTID":522582},"geometry":{"x":167002.28000000026,"y":2544250.5800000001}},{"attributes":{"ID":522610,"DIS_CODE":0,"TOWNNAME":"中西區","LI":"協進里","LIN":"6鄰","STREET":"濟生街","SECT":" ","MAREA":" ","LANE":" ","ALLEY":" ","HOUSE_NO":"１９號","E_COORD97":167064.01000000001,"N_COORD97":2544261.1899999999,"ADDRESS":"濟生街１９號","OBJECTID":522583},"geometry":{"x":167064.01000000071,"y":2544261.1900000013}},{"attributes":{"ID":522611,"DIS_CODE":0,"TOWNNAME":"中西區","LI":"民權里","LIN":"6鄰","STREET":"和平街","SECT":" ","MAREA":" ","LANE":" ","ALLEY":" ","HOUSE_NO":"７４號","E_COORD97":167619.78,"N_COORD97":2544157.4900000002,"ADDRESS":"和平街７４號","OBJECTID":522584},"geometry":{"x":167619.78000000026,"y":2544157.4900000021}},{"attributes":{"ID":522612,"DIS_CODE":0,"TOWNNAME":"中西區","LI":"協進里","LIN":"6鄰","STREET":"西寧街","SECT":" ","MAREA":" ","LANE":" ","ALLEY":" ","HOUSE_NO":"９２號","E_COORD97":166997.76999999999,"N_COORD97":2544252.8300000001,"ADDRESS":"西寧街９２號","OBJECTID":522585},"geometry":{"x":166997.77000000048,"y":2544252.8300000038}},{"attributes":{"ID":522613,"DIS_CODE":0,"TOWNNAME":"中西區","LI":"協進里","LIN":"6鄰","STREET":"西寧街","SECT":" ","MAREA":" ","LANE":" ","ALLEY":" ","HOUSE_NO":"９４號","E_COORD97":166999.91,"N_COORD97":2544256.7999999998,"ADDRESS":"西寧街９４號","OBJECTID":522586},"geometry":{"x":166999.91000000015,"y":2544256.8000000045}},{"attributes":{"ID":522614,"DIS_CODE":0,"TOWNNAME":"中西區","LI":"民權里","LIN":"6鄰","STREET":"和平街","SECT":" ","MAREA":" ","LANE":" ","ALLEY":" ","HOUSE_NO":"５４號","E_COORD97":167660.914254,"N_COORD97":2544140.4762400002,"ADDRESS":"和平街５４號","OBJECTID":522587},"geometry":{"x":167660.91425400134,"y":2544140.476238003}},{"attributes":{"ID":522615,"DIS_CODE":0,"TOWNNAME":"中西區","LI":"民權里","LIN":"6鄰","STREET":"和平街","SECT":" ","MAREA":" ","LANE":" ","ALLEY":" ","HOUSE_NO":"５６號","E_COORD97":167658.16179000001,"N_COORD97":2544141.5345700001,"ADDRESS":"和平街５６號","OBJECTID":522588},"geometry":{"x":167658.16179000027,"y":2544141.5345710013}},{"attributes":{"ID":522616,"DIS_CODE":0,"TOWNNAME":"中西區","LI":"民權里","LIN":"6鄰","STREET":"和平街","SECT":" ","MAREA":" ","LANE":" ","ALLEY":" ","HOUSE_NO":"７６號","E_COORD97":167614.59,"N_COORD97":2544156.0099999998,"ADDRESS":"和平街７６號","OBJECTID":522589},"geometry":{"x":167614.59000000078,"y":2544156.0099999979}},{"attributes":{"ID":522617,"DIS_CODE":0,"TOWNNAME":"中西區","LI":"民權里","LIN":"6鄰","STREET":"和平街","SECT":" ","MAREA":" ","LANE":" ","ALLEY":" ","HOUSE_NO":"７８號","E_COORD97":167610.20999999999,"N_COORD97":2544158.4100000001,"ADDRESS":"和平街７８號","OBJECTID":522590},"geometry":{"x":167610.21000000089,"y":2544158.410000002}},{"attributes":{"ID":522618,"DIS_CODE":0,"TOWNNAME":"中西區","LI":"民權里","LIN":"6鄰","STREET":"和平街","SECT":" ","MAREA":" ","LANE":" ","ALLEY":" ","HOUSE_NO":"８０號","E_COORD97":167604.5,"N_COORD97":2544156.5,"ADDRESS":"和平街８０號","OBJECTID":522591},"geometry":{"x":167604.5,"y":2544156.5000000037}},{"attributes":{"ID":522619,"DIS_CODE":0,"TOWNNAME":"中西區","LI":"民權里","LIN":"6鄰","STREET":"和平街","SECT":" ","MAREA":" ","LANE":" ","ALLEY":" ","HOUSE_NO":"８２號","E_COORD97":167601.53,"N_COORD97":2544161.8999999999,"ADDRESS":"和平街８２號","OBJECTID":522592},"geometry":{"x":167601.53000000212,"y":2544161.9000000022}},{"attributes":{"ID":522620,"DIS_CODE":0,"TOWNNAME":"中西區","LI":"民權里","LIN":"6鄰","STREET":"和平街","SECT":" ","MAREA":" ","LANE":" ","ALLEY":" ","HOUSE_NO":"８４號","E_COORD97":167596.38,"N_COORD97":2544163.1699999999,"ADDRESS":"和平街８４號","OBJECTID":522593},"geometry":{"x":167596.37999999989,"y":2544163.1700000018}},{"attributes":{"ID":522621,"DIS_CODE":0,"TOWNNAME":"中西區","LI":"民權里","LIN":"6鄰","STREET":"和平街","SECT":" ","MAREA":" ","LANE":" ","ALLEY":" ","HOUSE_NO":"８６號","E_COORD97":167591.66,"N_COORD97":2544163.3100000001,"ADDRESS":"和平街８６號","OBJECTID":522594},"geometry":{"x":167591.66000000015,"y":2544163.3100000024}},{"attributes":{"ID":522622,"DIS_CODE":0,"TOWNNAME":"中西區","LI":"民權里","LIN":"6鄰","STREET":"和平街","SECT":" ","MAREA":" ","LANE":" ","ALLEY":" ","HOUSE_NO":"８８號","E_COORD97":167587.48999999999,"N_COORD97":2544164.5099999998,"ADDRESS":"和平街８８號","OBJECTID":522595},"geometry":{"x":167587.49000000022,"y":2544164.5100000016}},{"attributes":{"ID":522623,"DIS_CODE":0,"TOWNNAME":"中西區","LI":"民權里","LIN":"6鄰","STREET":"民權路","SECT":"三段","MAREA":" ","LANE":" ","ALLEY":" ","HOUSE_NO":"１０１號","E_COORD97":167662.26000000001,"N_COORD97":2544162.6299999999,"ADDRESS":"民權路三段１０１號","OBJECTID":522596},"geometry":{"x":167662.26000000071,"y":2544162.6300000008}},{"attributes":{"ID":522624,"DIS_CODE":0,"TOWNNAME":"中西區","LI":"民權里","LIN":"6鄰","STREET":"民權路","SECT":"三段","MAREA":" ","LANE":" ","ALLEY":" ","HOUSE_NO":"１０３號","E_COORD97":167658.17000000001,"N_COORD97":2544163.27,"ADDRESS":"民權路三段１０３號","OBJECTID":522597},"geometry":{"x":167658.17000000086,"y":2544163.2699999996}},{"attributes":{"ID":522625,"DIS_CODE":0,"TOWNNAME":"中西區","LI":"民權里","LIN":"6鄰","STREET":"民權路","SECT":"三段","MAREA":" ","LANE":" ","ALLEY":" ","HOUSE_NO":"１０７號","E_COORD97":167654.35999999999,"N_COORD97":2544165.29,"ADDRESS":"民權路三段１０７號","OBJECTID":522598},"geometry":{"x":167654.36000000034,"y":2544165.290000001}},{"attributes":{"ID":522626,"DIS_CODE":0,"TOWNNAME":"中西區","LI":"民權里","LIN":"6鄰","STREET":"民權路","SECT":"三段","MAREA":" ","LANE":" ","ALLEY":" ","HOUSE_NO":"１０９號","E_COORD97":167650.82999999999,"N_COORD97":2544167.1299999999,"ADDRESS":"民權路三段１０９號","OBJECTID":522599},"geometry":{"x":167650.83000000101,"y":2544167.129999999}},{"attributes":{"ID":522627,"DIS_CODE":0,"TOWNNAME":"中西區","LI":"民權里","LIN":"6鄰","STREET":"民權路","SECT":"三段","MAREA":" ","LANE":" ","ALLEY":" ","HOUSE_NO":"１１１號","E_COORD97":167646.25,"N_COORD97":2544168.3900000001,"ADDRESS":"民權路三段１１１號","OBJECTID":522600},"geometry":{"x":167646.25000000093,"y":2544168.3900000025}}]}