{"displayFieldName":"TOWNNAME","fieldAliases":{"ID":"ID","DIS_CODE":"DIS_CODE","TOWNNAME":"TOWNNAME","LI":"LI","LIN":"LIN","STREET":"STREET","SECT":"SECT","MAREA":"MAREA","LANE":"LANE","ALLEY":"ALLEY","HOUSE_NO":"HOUSE_NO","E_COORD97":"E_COORD97","N_COORD97":"N_COORD97","ADDRESS":"ADDRESS","OBJECTID":"OBJECTID"},"geometryType":"esriGeometryPoint","spatialReference":{"wkid":102443,"latestWkid":3826},"fields":[{"name":"ID","type":"esriFieldTypeDouble","alias":"ID"},{"name":"DIS_CODE","type":"esriFieldTypeInteger","alias":"DIS_CODE"},{"name":"TOWNNAME","type":"esriFieldTypeString","alias":"TOWNNAME","length":8},{"name":"LI","type":"esriFieldTypeString","alias":"LI","length":8},{"name":"LIN","type":"esriFieldTypeString","alias":"LIN","length":12},{"name":"STREET","type":"esriFieldTypeString","alias":"STREET","length":20},{"name":"SECT","type":"esriFieldTypeString","alias":"SECT","length":8},{"name":"MAREA","type":"esriFieldTypeString","alias":"MAREA","length":12},{"name":"LANE","type":"esriFieldTypeString","alias":"LANE","length":10},{"name":"ALLEY","type":"esriFieldTypeString","alias":"ALLEY","length":10},{"name":"HOUSE_NO","type":"esriFieldTypeString","alias":"HOUSE_NO","length":20},{"name":"E_COORD97","type":"esriFieldTypeDouble","alias":"E_COORD97"},{"name":"N_COORD97","type":"esriFieldTypeDouble","alias":"N_COORD97"},{"name":"ADDRESS","type":"esriFieldTypeString","alias":"ADDRESS","length":50},{"name":"OBJECTID","type":"esriFieldTypeOID","alias":"OBJECTID"}],"features":[{"attributes":{"ID":273606,"DIS_CODE":0,"TOWNNAME":"永康區","LI":"安康里","LIN":"7鄰","STREET":"中華西街","SECT":" ","MAREA":" ","LANE":"８巷","ALLEY":" ","HOUSE_NO":"２號","E_COORD97":170862.12,"N_COORD97":2545926.25,"ADDRESS":"中華西街８巷２號","OBJECTID":273601},"geometry":{"x":170862.11999999918,"y":2545926.25}},{"attributes":{"ID":273607,"DIS_CODE":0,"TOWNNAME":"永康區","LI":"甲頂里","LIN":"7鄰","STREET":"中正南路","SECT":" ","MAREA":" ","LANE":"５２巷","ALLEY":" ","HOUSE_NO":"７５號","E_COORD97":170180.69,"N_COORD97":2546829.25,"ADDRESS":"中正南路５２巷７５號","OBJECTID":273602},"geometry":{"x":170180.69000000227,"y":2546829.25}},{"attributes":{"ID":273608,"DIS_CODE":0,"TOWNNAME":"永康區","LI":"東橋里","LIN":"7鄰","STREET":"大橋一街","SECT":" ","MAREA":" ","LANE":"３２４巷","ALLEY":" ","HOUSE_NO":"９３號","E_COORD97":171496.44,"N_COORD97":2546432.2400000002,"ADDRESS":"大橋一街３２４巷９３號","OBJECTID":273603},"geometry":{"x":171496.44000000134,"y":2546432.2400000002}},{"attributes":{"ID":273609,"DIS_CODE":0,"TOWNNAME":"南區","LI":"竹溪里","LIN":"7鄰","STREET":"健康路","SECT":"一段","MAREA":" ","LANE":"１７５巷","ALLEY":" ","HOUSE_NO":"５號","E_COORD97":168807.31,"N_COORD97":2542368.0499999998,"ADDRESS":"健康路一段１７５巷５號","OBJECTID":273604},"geometry":{"x":168807.30999999959,"y":2542368.0500000026}},{"attributes":{"ID":273610,"DIS_CODE":0,"TOWNNAME":"安南區","LI":"溪心里","LIN":"7鄰","STREET":"本原街","SECT":"二段","MAREA":" ","LANE":"１０６巷","ALLEY":" ","HOUSE_NO":"１３號","E_COORD97":166807.14999999999,"N_COORD97":2550817.0600000001,"ADDRESS":"本原街二段１０６巷１３號","OBJECTID":273605},"geometry":{"x":166807.15000000037,"y":2550817.0600000005}},{"attributes":{"ID":273611,"DIS_CODE":0,"TOWNNAME":"安南區","LI":"城西里","LIN":"7鄰","STREET":"城西街","SECT":"三段","MAREA":" ","LANE":"５０１巷","ALLEY":" ","HOUSE_NO":"３６２號之６００","E_COORD97":157252.60999999999,"N_COORD97":2548268.1800000002,"ADDRESS":"城西街三段５０１巷３６２號之６００","OBJECTID":273606},"geometry":{"x":157252.61000000127,"y":2548268.1800000016}},{"attributes":{"ID":273612,"DIS_CODE":0,"TOWNNAME":"安南區","LI":"安西里","LIN":"7鄰","STREET":"安和路","SECT":"一段","MAREA":" ","LANE":"２８５巷","ALLEY":" ","HOUSE_NO":"２８號","E_COORD97":169184.37,"N_COORD97":2548080,"ADDRESS":"安和路一段２８５巷２８號","OBJECTID":273607},"geometry":{"x":169184.37000000104,"y":2548080.0000000019}},{"attributes":{"ID":273613,"DIS_CODE":0,"TOWNNAME":"安南區","LI":"安西里","LIN":"7鄰","STREET":"安和路","SECT":"一段","MAREA":" ","LANE":"２８５巷","ALLEY":" ","HOUSE_NO":"３０號","E_COORD97":169180.07000000001,"N_COORD97":2548079.6099999999,"ADDRESS":"安和路一段２８５巷３０號","OBJECTID":273608},"geometry":{"x":169180.07000000123,"y":2548079.6099999994}},{"attributes":{"ID":273614,"DIS_CODE":0,"TOWNNAME":"安南區","LI":"安西里","LIN":"7鄰","STREET":"安和路","SECT":"一段","MAREA":" ","LANE":"２８５巷","ALLEY":" ","HOUSE_NO":"３２號","E_COORD97":169176.16,"N_COORD97":2548077.6499999999,"ADDRESS":"安和路一段２８５巷３２號","OBJECTID":273609},"geometry":{"x":169176.16000000015,"y":2548077.6500000004}},{"attributes":{"ID":273615,"DIS_CODE":0,"TOWNNAME":"中西區","LI":"協和里","LIN":"4鄰","STREET":"文賢路","SECT":" ","MAREA":" ","LANE":" ","ALLEY":" ","HOUSE_NO":"２１號","E_COORD97":167417.19,"N_COORD97":2544482.7799999998,"ADDRESS":"文賢路２１號","OBJECTID":273610},"geometry":{"x":167417.19000000041,"y":2544482.7800000031}},{"attributes":{"ID":273616,"DIS_CODE":0,"TOWNNAME":"新營區","LI":"太北里","LIN":"3鄰","STREET":" ","SECT":" ","MAREA":"太子宮","LANE":" ","ALLEY":" ","HOUSE_NO":"２３之１號","E_COORD97":176135.23999999999,"N_COORD97":2577263.7000000002,"ADDRESS":"太子宮２３之１號","OBJECTID":273611},"geometry":{"x":176135.24000000209,"y":2577263.6999999993}},{"attributes":{"ID":273617,"DIS_CODE":0,"TOWNNAME":"新營區","LI":"太北里","LIN":"3鄰","STREET":" ","SECT":" ","MAREA":"太子宮","LANE":" ","ALLEY":" ","HOUSE_NO":"１８號之６","E_COORD97":176067.26000000001,"N_COORD97":2577162.1499999999,"ADDRESS":"太子宮１８號之６","OBJECTID":273612},"geometry":{"x":176067.26000000071,"y":2577162.1500000022}},{"attributes":{"ID":273618,"DIS_CODE":0,"TOWNNAME":"安南區","LI":"安西里","LIN":"7鄰","STREET":"安和路","SECT":"一段","MAREA":" ","LANE":"２８５巷","ALLEY":" ","HOUSE_NO":"３４號","E_COORD97":169171.45999999999,"N_COORD97":2548076.48,"ADDRESS":"安和路一段２８５巷３４號","OBJECTID":273613},"geometry":{"x":169171.46000000089,"y":2548076.4800000042}},{"attributes":{"ID":273619,"DIS_CODE":0,"TOWNNAME":"麻豆區","LI":"寮\u25A0里","LIN":"3鄰","STREET":" ","SECT":" ","MAREA":"寮子\u25A0","LANE":" ","ALLEY":" ","HOUSE_NO":"２５號","E_COORD97":176538.69,"N_COORD97":2565447.3799999999,"ADDRESS":"寮子\u25A0２５號","OBJECTID":273614},"geometry":{"x":176538.69000000041,"y":2565447.379999999}},{"attributes":{"ID":273620,"DIS_CODE":0,"TOWNNAME":"安南區","LI":"海西里","LIN":"7鄰","STREET":"海中街","SECT":" ","MAREA":" ","LANE":"１０１巷","ALLEY":" ","HOUSE_NO":"３０號","E_COORD97":166320.95000000001,"N_COORD97":2548979.9100000001,"ADDRESS":"海中街１０１巷３０號","OBJECTID":273615},"geometry":{"x":166320.95000000112,"y":2548979.910000002}},{"attributes":{"ID":273621,"DIS_CODE":0,"TOWNNAME":"安南區","LI":"城東里","LIN":"7鄰","STREET":"城北路","SECT":" ","MAREA":" ","LANE":"９８巷","ALLEY":" ","HOUSE_NO":"８７號","E_COORD97":161159.04999999999,"N_COORD97":2551575.6600000001,"ADDRESS":"城北路９８巷８７號","OBJECTID":273616},"geometry":{"x":161159.05000000168,"y":2551575.6600000001}},{"attributes":{"ID":273622,"DIS_CODE":0,"TOWNNAME":"安南區","LI":"海東里","LIN":"7鄰","STREET":"海中街","SECT":" ","MAREA":" ","LANE":"１３０巷","ALLEY":" ","HOUSE_NO":"５６號","E_COORD97":166511.03,"N_COORD97":2549168.2400000002,"ADDRESS":"海中街１３０巷５６號","OBJECTID":273617},"geometry":{"x":166511.03000000026,"y":2549168.2400000002}},{"attributes":{"ID":273623,"DIS_CODE":0,"TOWNNAME":"安南區","LI":"幸福里","LIN":"7鄰","STREET":"國安街","SECT":" ","MAREA":" ","LANE":"１５５巷","ALLEY":" ","HOUSE_NO":"４２號之１","E_COORD97":166750.75,"N_COORD97":2546836.2599999998,"ADDRESS":"國安街１５５巷４２號之１","OBJECTID":273618},"geometry":{"x":166750.75000000093,"y":2546836.2600000035}},{"attributes":{"ID":273624,"DIS_CODE":0,"TOWNNAME":"善化區","LI":"光文里","LIN":"7鄰","STREET":"光文路","SECT":" ","MAREA":" ","LANE":"３９巷","ALLEY":" ","HOUSE_NO":"１３號","E_COORD97":178970.14999999999,"N_COORD97":2559491.5299999998,"ADDRESS":"光文路３９巷１３號","OBJECTID":273619},"geometry":{"x":178970.15000000037,"y":2559491.5300000012}},{"attributes":{"ID":273625,"DIS_CODE":0,"TOWNNAME":"關廟區","LI":"新埔里","LIN":"8鄰","STREET":"新埔三街","SECT":" ","MAREA":" ","LANE":"１１９巷","ALLEY":" ","HOUSE_NO":"１０號","E_COORD97":181215.37,"N_COORD97":2541141.25,"ADDRESS":"新埔三街１１９巷１０號","OBJECTID":273620},"geometry":{"x":181215.37000000104,"y":2541141.2500000019}},{"attributes":{"ID":273626,"DIS_CODE":0,"TOWNNAME":"善化區","LI":"南關里","LIN":"7鄰","STREET":"三民路","SECT":" ","MAREA":" ","LANE":"南興巷","ALLEY":" ","HOUSE_NO":"２０號","E_COORD97":176923.56,"N_COORD97":2558622.2599999998,"ADDRESS":"三民路南興巷２０號","OBJECTID":273621},"geometry":{"x":176923.55999999959,"y":2558622.2600000016}},{"attributes":{"ID":273627,"DIS_CODE":0,"TOWNNAME":"善化區","LI":"文昌里","LIN":"7鄰","STREET":"中華路","SECT":" ","MAREA":" ","LANE":"９巷","ALLEY":" ","HOUSE_NO":"１１號","E_COORD97":177262.06,"N_COORD97":2558633.5,"ADDRESS":"中華路９巷１１號","OBJECTID":273622},"geometry":{"x":177262.06000000052,"y":2558633.5000000037}},{"attributes":{"ID":273628,"DIS_CODE":0,"TOWNNAME":"鹽水區","LI":"義稠里","LIN":"3鄰","STREET":" ","SECT":" ","MAREA":"義稠","LANE":" ","ALLEY":" ","HOUSE_NO":"４４號","E_COORD97":174164.76000000001,"N_COORD97":2580686.6699999999,"ADDRESS":"義稠４４號","OBJECTID":273623},"geometry":{"x":174164.76000000164,"y":2580686.6700000037}},{"attributes":{"ID":273629,"DIS_CODE":0,"TOWNNAME":"善化區","LI":"小新里","LIN":"7鄰","STREET":"成功路","SECT":" ","MAREA":" ","LANE":"３４９巷","ALLEY":" ","HOUSE_NO":"７號之１３","E_COORD97":179469.85000000001,"N_COORD97":2558623.02,"ADDRESS":"成功路３４９巷７號之１３","OBJECTID":273624},"geometry":{"x":179469.8499999987,"y":2558623.0200000014}},{"attributes":{"ID":273630,"DIS_CODE":0,"TOWNNAME":"善化區","LI":"小新里","LIN":"7鄰","STREET":"成功路","SECT":" ","MAREA":" ","LANE":"３４９巷","ALLEY":" ","HOUSE_NO":"３３號","E_COORD97":179432.28,"N_COORD97":2558500.75,"ADDRESS":"成功路３４９巷３３號","OBJECTID":273625},"geometry":{"x":179432.28000000119,"y":2558500.7500000019}},{"attributes":{"ID":273631,"DIS_CODE":0,"TOWNNAME":"善化區","LI":"小新里","LIN":"7鄰","STREET":"成功路","SECT":" ","MAREA":" ","LANE":"３４９巷","ALLEY":" ","HOUSE_NO":"３０號","E_COORD97":179433.56,"N_COORD97":2558513,"ADDRESS":"成功路３４９巷３０號","OBJECTID":273626},"geometry":{"x":179433.56000000052,"y":2558513.0000000019}},{"attributes":{"ID":273632,"DIS_CODE":0,"TOWNNAME":"善化區","LI":"小新里","LIN":"7鄰","STREET":"成功路","SECT":" ","MAREA":" ","LANE":"３４９巷","ALLEY":" ","HOUSE_NO":"５號之２","E_COORD97":179492.60000000001,"N_COORD97":2558684.02,"ADDRESS":"成功路３４９巷５號之２","OBJECTID":273627},"geometry":{"x":179492.60000000056,"y":2558684.0200000014}},{"attributes":{"ID":273633,"DIS_CODE":0,"TOWNNAME":"新營區","LI":"埤寮里","LIN":"1鄰","STREET":"中正路","SECT":" ","MAREA":" ","LANE":" ","ALLEY":" ","HOUSE_NO":"５７９之１號","E_COORD97":180081.257048,"N_COORD97":2580964.2835200001,"ADDRESS":"中正路５７９之１號","OBJECTID":273628},"geometry":{"x":180081.25704799965,"y":2580964.2835220024}},{"attributes":{"ID":273634,"DIS_CODE":0,"TOWNNAME":"善化區","LI":"小新里","LIN":"7鄰","STREET":"成功路","SECT":" ","MAREA":" ","LANE":"３４９巷","ALLEY":" ","HOUSE_NO":"７號之３","E_COORD97":179479.20999999999,"N_COORD97":2558659.27,"ADDRESS":"成功路３４９巷７號之３","OBJECTID":273629},"geometry":{"x":179479.20999999996,"y":2558659.2700000014}},{"attributes":{"ID":273635,"DIS_CODE":0,"TOWNNAME":"善化區","LI":"小新里","LIN":"7鄰","STREET":"成功路","SECT":" ","MAREA":" ","LANE":"３４９巷","ALLEY":" ","HOUSE_NO":"７號之９","E_COORD97":179473.91,"N_COORD97":2558639.27,"ADDRESS":"成功路３４９巷７號之９","OBJECTID":273630},"geometry":{"x":179473.91000000108,"y":2558639.2700000014}},{"attributes":{"ID":273636,"DIS_CODE":0,"TOWNNAME":"東區","LI":"大福里","LIN":"3鄰","STREET":"榮譽街","SECT":" ","MAREA":" ","LANE":" ","ALLEY":" ","HOUSE_NO":"４５號之３","E_COORD97":169647.31,"N_COORD97":2541668.6600000001,"ADDRESS":"榮譽街４５號之３","OBJECTID":273631},"geometry":{"x":169647.31000000052,"y":2541668.660000002}},{"attributes":{"ID":273637,"DIS_CODE":0,"TOWNNAME":"官田區","LI":"隆本里","LIN":"7鄰","STREET":"中華路","SECT":"二段","MAREA":" ","LANE":"８３巷","ALLEY":" ","HOUSE_NO":"１０６號","E_COORD97":178877.82999999999,"N_COORD97":2566771.0099999998,"ADDRESS":"中華路二段８３巷１０６號","OBJECTID":273632},"geometry":{"x":178877.83000000101,"y":2566771.0100000016}},{"attributes":{"ID":273638,"DIS_CODE":0,"TOWNNAME":"官田區","LI":"隆本里","LIN":"7鄰","STREET":"中華路","SECT":"二段","MAREA":" ","LANE":"８３巷","ALLEY":" ","HOUSE_NO":"１０８號","E_COORD97":178856.22,"N_COORD97":2566766.4900000002,"ADDRESS":"中華路二段８３巷１０８號","OBJECTID":273633},"geometry":{"x":178856.22000000067,"y":2566766.4900000002}},{"attributes":{"ID":273639,"DIS_CODE":0,"TOWNNAME":"官田區","LI":"隆本里","LIN":"7鄰","STREET":"中華路","SECT":"二段","MAREA":" ","LANE":"８３巷","ALLEY":" ","HOUSE_NO":"１１０號","E_COORD97":178888.42000000001,"N_COORD97":2566731.9900000002,"ADDRESS":"中華路二段８３巷１１０號","OBJECTID":273634},"geometry":{"x":178888.42000000179,"y":2566731.9900000002}},{"attributes":{"ID":273640,"DIS_CODE":0,"TOWNNAME":"官田區","LI":"隆本里","LIN":"7鄰","STREET":"中華路","SECT":"二段","MAREA":" ","LANE":"８３巷","ALLEY":" ","HOUSE_NO":"５０號","E_COORD97":179722.04999999999,"N_COORD97":2566808.3399999999,"ADDRESS":"中華路二段８３巷５０號","OBJECTID":273635},"geometry":{"x":179722.05000000075,"y":2566808.339999998}},{"attributes":{"ID":273641,"DIS_CODE":0,"TOWNNAME":"官田區","LI":"隆本里","LIN":"7鄰","STREET":"中華路","SECT":"二段","MAREA":" ","LANE":"８３巷","ALLEY":" ","HOUSE_NO":"５２號","E_COORD97":179723.95999999999,"N_COORD97":2566790.9700000002,"ADDRESS":"中華路二段８３巷５２號","OBJECTID":273636},"geometry":{"x":179723.96000000183,"y":2566790.9700000007}},{"attributes":{"ID":273642,"DIS_CODE":0,"TOWNNAME":"官田區","LI":"隆本里","LIN":"7鄰","STREET":"中華路","SECT":"二段","MAREA":" ","LANE":"８３巷","ALLEY":" ","HOUSE_NO":"５６號","E_COORD97":179706.14999999999,"N_COORD97":2566766.2400000002,"ADDRESS":"中華路二段８３巷５６號","OBJECTID":273637},"geometry":{"x":179706.15000000224,"y":2566766.2400000021}},{"attributes":{"ID":273643,"DIS_CODE":0,"TOWNNAME":"官田區","LI":"隆本里","LIN":"7鄰","STREET":"中華路","SECT":"二段","MAREA":" ","LANE":"８３巷","ALLEY":" ","HOUSE_NO":"８１號","E_COORD97":179096.23999999999,"N_COORD97":2566627.0600000001,"ADDRESS":"中華路二段８３巷８１號","OBJECTID":273638},"geometry":{"x":179096.24000000022,"y":2566627.0600000005}},{"attributes":{"ID":273644,"DIS_CODE":0,"TOWNNAME":"仁德區","LI":"一甲里","LIN":"7鄰","STREET":"中正路","SECT":"三段","MAREA":" ","LANE":"１６２巷","ALLEY":" ","HOUSE_NO":"７５號","E_COORD97":173709.19,"N_COORD97":2541712.8100000001,"ADDRESS":"中正路三段１６２巷７５號","OBJECTID":273639},"geometry":{"x":173709.19000000041,"y":2541712.8100000005}},{"attributes":{"ID":273645,"DIS_CODE":0,"TOWNNAME":"仁德區","LI":"土庫里","LIN":"7鄰","STREET":"土庫三街","SECT":" ","MAREA":" ","LANE":"３９巷","ALLEY":" ","HOUSE_NO":"１２號之１","E_COORD97":174258.10999999999,"N_COORD97":2543140.7999999998,"ADDRESS":"土庫三街３９巷１２號之１","OBJECTID":273640},"geometry":{"x":174258.11000000127,"y":2543140.8000000007}},{"attributes":{"ID":273646,"DIS_CODE":0,"TOWNNAME":"仁德區","LI":"仁義里","LIN":"7鄰","STREET":"中山路","SECT":" ","MAREA":" ","LANE":"４４１巷","ALLEY":" ","HOUSE_NO":"９號","E_COORD97":173757.64000000001,"N_COORD97":2541214.7400000002,"ADDRESS":"中山路４４１巷９號","OBJECTID":273641},"geometry":{"x":173757.6400000006,"y":2541214.7400000002}},{"attributes":{"ID":273647,"DIS_CODE":0,"TOWNNAME":"仁德區","LI":"上崙里","LIN":"7鄰","STREET":"德南路","SECT":" ","MAREA":" ","LANE":"３７３巷","ALLEY":" ","HOUSE_NO":"３５號","E_COORD97":173978.75,"N_COORD97":2538348.77,"ADDRESS":"德南路３７３巷３５號","OBJECTID":273642},"geometry":{"x":173978.75000000186,"y":2538348.7699999996}},{"attributes":{"ID":273648,"DIS_CODE":0,"TOWNNAME":"仁德區","LI":"土庫里","LIN":"7鄰","STREET":"土庫三街","SECT":" ","MAREA":" ","LANE":"３９巷","ALLEY":" ","HOUSE_NO":"２６號","E_COORD97":174232.32999999999,"N_COORD97":2543188.4900000002,"ADDRESS":"土庫三街３９巷２６號","OBJECTID":273643},"geometry":{"x":174232.32999999914,"y":2543188.4900000021}},{"attributes":{"ID":273649,"DIS_CODE":0,"TOWNNAME":"仁德區","LI":"二行里","LIN":"7鄰","STREET":"行大街","SECT":" ","MAREA":" ","LANE":"５６巷","ALLEY":" ","HOUSE_NO":"１１號","E_COORD97":170223.09,"N_COORD97":2535259.75,"ADDRESS":"行大街５６巷１１號","OBJECTID":273644},"geometry":{"x":170223.09000000171,"y":2535259.7500000019}},{"attributes":{"ID":273650,"DIS_CODE":0,"TOWNNAME":"鹽水區","LI":"三生里","LIN":"3鄰","STREET":"忠義路","SECT":" ","MAREA":" ","LANE":" ","ALLEY":" ","HOUSE_NO":"２號","E_COORD97":175125.56,"N_COORD97":2580129.0499999998,"ADDRESS":"忠義路２號","OBJECTID":273645},"geometry":{"x":175125.56000000145,"y":2580129.0500000045}},{"attributes":{"ID":273651,"DIS_CODE":0,"TOWNNAME":"安南區","LI":"淵中里","LIN":"3鄰","STREET":"本淵路","SECT":" ","MAREA":" ","LANE":"５７巷","ALLEY":" ","HOUSE_NO":"７６號","E_COORD97":165123.413076,"N_COORD97":2549843.4487999999,"ADDRESS":"本淵路５７巷７６號","OBJECTID":273646},"geometry":{"x":165123.41307600029,"y":2549843.4488040023}},{"attributes":{"ID":273652,"DIS_CODE":0,"TOWNNAME":"仁德區","LI":"二行里","LIN":"7鄰","STREET":"行大街","SECT":" ","MAREA":" ","LANE":"５６巷","ALLEY":" ","HOUSE_NO":"９號","E_COORD97":170243.10000000001,"N_COORD97":2535259.5,"ADDRESS":"行大街５６巷９號","OBJECTID":273647},"geometry":{"x":170243.10000000149,"y":2535259.5}},{"attributes":{"ID":273653,"DIS_CODE":0,"TOWNNAME":"仁德區","LI":"土庫里","LIN":"7鄰","STREET":"土庫三街","SECT":" ","MAREA":" ","LANE":"３９巷","ALLEY":" ","HOUSE_NO":"２２號","E_COORD97":174231.04000000001,"N_COORD97":2543180.2400000002,"ADDRESS":"土庫三街３９巷２２號","OBJECTID":273648},"geometry":{"x":174231.0400000019,"y":2543180.2400000021}},{"attributes":{"ID":273654,"DIS_CODE":0,"TOWNNAME":"新營區","LI":"角帶里","LIN":"3鄰","STREET":" ","SECT":" ","MAREA":"角帶圍","LANE":" ","ALLEY":" ","HOUSE_NO":"３５號","E_COORD97":174858.87,"N_COORD97":2575917.8399999999,"ADDRESS":"角帶圍３５號","OBJECTID":273649},"geometry":{"x":174858.87000000011,"y":2575917.8399999999}},{"attributes":{"ID":273655,"DIS_CODE":0,"TOWNNAME":"仁德區","LI":"上崙里","LIN":"7鄰","STREET":"德南路","SECT":" ","MAREA":" ","LANE":"３９９巷","ALLEY":" ","HOUSE_NO":"１９號","E_COORD97":173980.78,"N_COORD97":2538282.0099999998,"ADDRESS":"德南路３９９巷１９號","OBJECTID":273650},"geometry":{"x":173980.78000000119,"y":2538282.0100000016}},{"attributes":{"ID":273656,"DIS_CODE":0,"TOWNNAME":"東區","LI":"東智里","LIN":"7鄰","STREET":"德東街","SECT":" ","MAREA":" ","LANE":"１６巷","ALLEY":" ","HOUSE_NO":"１號","E_COORD97":170852.04999999999,"N_COORD97":2540218.1800000002,"ADDRESS":"德東街１６巷１號","OBJECTID":273651},"geometry":{"x":170852.04999999888,"y":2540218.1799999997}},{"attributes":{"ID":273657,"DIS_CODE":0,"TOWNNAME":"東區","LI":"大德里","LIN":"7鄰","STREET":"立德十路","SECT":" ","MAREA":" ","LANE":"４６巷","ALLEY":" ","HOUSE_NO":"１７號","E_COORD97":169519.37,"N_COORD97":2541991.25,"ADDRESS":"立德十路４６巷１７號","OBJECTID":273652},"geometry":{"x":169519.37000000011,"y":2541991.25}},{"attributes":{"ID":273658,"DIS_CODE":0,"TOWNNAME":"東區","LI":"裕農里","LIN":"7鄰","STREET":"裕農路","SECT":" ","MAREA":" ","LANE":"３４５巷","ALLEY":" ","HOUSE_NO":"７號","E_COORD97":170980.53,"N_COORD97":2543092.2000000002,"ADDRESS":"裕農路３４５巷７號","OBJECTID":273653},"geometry":{"x":170980.53000000119,"y":2543092.1999999993}},{"attributes":{"ID":273659,"DIS_CODE":0,"TOWNNAME":"新營區","LI":"五興里","LIN":"3鄰","STREET":" ","SECT":" ","MAREA":"五間厝","LANE":" ","ALLEY":" ","HOUSE_NO":"３１之２９號","E_COORD97":175704.35999999999,"N_COORD97":2575055.3799999999,"ADDRESS":"五間厝３１之２９號","OBJECTID":273654},"geometry":{"x":175704.36000000127,"y":2575055.379999999}},{"attributes":{"ID":273660,"DIS_CODE":0,"TOWNNAME":"新營區","LI":"五興里","LIN":"3鄰","STREET":" ","SECT":" ","MAREA":"五間厝","LANE":" ","ALLEY":" ","HOUSE_NO":"３２號之２","E_COORD97":175748.45000000001,"N_COORD97":2574962.1200000001,"ADDRESS":"五間厝３２號之２","OBJECTID":273655},"geometry":{"x":175748.45000000019,"y":2574962.1200000029}},{"attributes":{"ID":273661,"DIS_CODE":0,"TOWNNAME":"新化區","LI":"崙頂里","LIN":"3鄰","STREET":" ","SECT":" ","MAREA":"崙子頂","LANE":" ","ALLEY":" ","HOUSE_NO":"１４１號","E_COORD97":176783.13,"N_COORD97":2546810.25,"ADDRESS":"崙子頂１４１號","OBJECTID":273656},"geometry":{"x":176783.13000000175,"y":2546810.2500000019}},{"attributes":{"ID":273662,"DIS_CODE":0,"TOWNNAME":"鹽水區","LI":"義稠里","LIN":"3鄰","STREET":" ","SECT":" ","MAREA":"義稠","LANE":" ","ALLEY":" ","HOUSE_NO":"４２號","E_COORD97":174149.82000000001,"N_COORD97":2580708.6200000001,"ADDRESS":"義稠４２號","OBJECTID":273657},"geometry":{"x":174149.82000000216,"y":2580708.6200000048}},{"attributes":{"ID":273663,"DIS_CODE":0,"TOWNNAME":"鹽水區","LI":"義稠里","LIN":"3鄰","STREET":" ","SECT":" ","MAREA":"義稠","LANE":" ","ALLEY":" ","HOUSE_NO":"４５之１號","E_COORD97":174239.06,"N_COORD97":2580642.4199999999,"ADDRESS":"義稠４５之１號","OBJECTID":273658},"geometry":{"x":174239.06000000052,"y":2580642.4200000018}},{"attributes":{"ID":273664,"DIS_CODE":0,"TOWNNAME":"鹽水區","LI":"義稠里","LIN":"3鄰","STREET":" ","SECT":" ","MAREA":"義稠","LANE":" ","ALLEY":" ","HOUSE_NO":"４５號","E_COORD97":174173.53,"N_COORD97":2580667.9399999999,"ADDRESS":"義稠４５號","OBJECTID":273659},"geometry":{"x":174173.52999999933,"y":2580667.9400000013}},{"attributes":{"ID":273665,"DIS_CODE":0,"TOWNNAME":"鹽水區","LI":"義稠里","LIN":"3鄰","STREET":" ","SECT":" ","MAREA":"義稠","LANE":" ","ALLEY":" ","HOUSE_NO":"４７號","E_COORD97":174098.70999999999,"N_COORD97":2580746.2000000002,"ADDRESS":"義稠４７號","OBJECTID":273660},"geometry":{"x":174098.70999999996,"y":2580746.1999999993}},{"attributes":{"ID":273666,"DIS_CODE":0,"TOWNNAME":"東區","LI":"裕農里","LIN":"7鄰","STREET":"裕農路","SECT":" ","MAREA":" ","LANE":"３４５巷","ALLEY":" ","HOUSE_NO":"９號","E_COORD97":170977.54999999999,"N_COORD97":2543097.1400000001,"ADDRESS":"裕農路３４５巷９號","OBJECTID":273661},"geometry":{"x":170977.54999999888,"y":2543097.1400000006}},{"attributes":{"ID":273667,"DIS_CODE":0,"TOWNNAME":"東區","LI":"裕農里","LIN":"7鄰","STREET":"裕農路","SECT":" ","MAREA":" ","LANE":"３４５巷","ALLEY":" ","HOUSE_NO":"１７號","E_COORD97":170971.28,"N_COORD97":2543121.5600000001,"ADDRESS":"裕農路３４５巷１７號","OBJECTID":273662},"geometry":{"x":170971.28000000026,"y":2543121.5600000005}},{"attributes":{"ID":273668,"DIS_CODE":0,"TOWNNAME":"東區","LI":"關聖里","LIN":"7鄰","STREET":"裕農路","SECT":" ","MAREA":" ","LANE":"６６８巷","ALLEY":" ","HOUSE_NO":"３９號","E_COORD97":171757.57999999999,"N_COORD97":2543077.2799999998,"ADDRESS":"裕農路６６８巷３９號","OBJECTID":273663},"geometry":{"x":171757.58000000194,"y":2543077.2800000012}},{"attributes":{"ID":273669,"DIS_CODE":0,"TOWNNAME":"南區","LI":"再興里","LIN":"3鄰","STREET":"金華路","SECT":"二段","MAREA":" ","LANE":"２２８巷","ALLEY":" ","HOUSE_NO":"２６號","E_COORD97":167195.12,"N_COORD97":2542395.1000000001,"ADDRESS":"金華路二段２２８巷２６號","OBJECTID":273664},"geometry":{"x":167195.12000000011,"y":2542395.0999999996}},{"attributes":{"ID":273670,"DIS_CODE":0,"TOWNNAME":"仁德區","LI":"仁義里","LIN":"34鄰","STREET":"正義二街","SECT":" ","MAREA":" ","LANE":" ","ALLEY":" ","HOUSE_NO":"１６０號二樓","E_COORD97":173812.42000000001,"N_COORD97":2541576.52,"ADDRESS":"正義二街１６０號二樓","OBJECTID":273665},"geometry":{"x":173812.41999999993,"y":2541576.5200000014}},{"attributes":{"ID":273671,"DIS_CODE":0,"TOWNNAME":"東區","LI":"仁和里","LIN":"7鄰","STREET":"仁和路","SECT":" ","MAREA":" ","LANE":"１１３巷","ALLEY":" ","HOUSE_NO":"３９號","E_COORD97":171480.91,"N_COORD97":2541281.9199999999,"ADDRESS":"仁和路１１３巷３９號","OBJECTID":273666},"geometry":{"x":171480.91000000108,"y":2541281.9200000037}},{"attributes":{"ID":273672,"DIS_CODE":0,"TOWNNAME":"東區","LI":"裕農里","LIN":"7鄰","STREET":"裕農路","SECT":" ","MAREA":" ","LANE":"３４５巷","ALLEY":" ","HOUSE_NO":"２４號","E_COORD97":170989.42000000001,"N_COORD97":2543130.6200000001,"ADDRESS":"裕農路３４５巷２４號","OBJECTID":273667},"geometry":{"x":170989.42000000086,"y":2543130.6200000029}},{"attributes":{"ID":273673,"DIS_CODE":0,"TOWNNAME":"東區","LI":"裕農里","LIN":"7鄰","STREET":"裕農路","SECT":" ","MAREA":" ","LANE":"３４５巷","ALLEY":" ","HOUSE_NO":"１４號","E_COORD97":170996.07999999999,"N_COORD97":2543108.1600000001,"ADDRESS":"裕農路３４５巷１４號","OBJECTID":273668},"geometry":{"x":170996.08000000007,"y":2543108.1600000039}},{"attributes":{"ID":273674,"DIS_CODE":0,"TOWNNAME":"東區","LI":"裕農里","LIN":"7鄰","STREET":"裕農路","SECT":" ","MAREA":" ","LANE":"３４５巷","ALLEY":" ","HOUSE_NO":"１６號","E_COORD97":170996.70999999999,"N_COORD97":2543114.1899999999,"ADDRESS":"裕農路３４５巷１６號","OBJECTID":273669},"geometry":{"x":170996.70999999996,"y":2543114.1900000013}},{"attributes":{"ID":273675,"DIS_CODE":0,"TOWNNAME":"東區","LI":"關聖里","LIN":"7鄰","STREET":"裕農路","SECT":" ","MAREA":" ","LANE":"６６８巷","ALLEY":" ","HOUSE_NO":"４７號之６","E_COORD97":171759.79000000001,"N_COORD97":2543009.2799999998,"ADDRESS":"裕農路６６８巷４７號之６","OBJECTID":273670},"geometry":{"x":171759.79000000097,"y":2543009.2800000012}},{"attributes":{"ID":273676,"DIS_CODE":0,"TOWNNAME":"中西區","LI":"協和里","LIN":"9鄰","STREET":"成功路","SECT":" ","MAREA":" ","LANE":" ","ALLEY":" ","HOUSE_NO":"５１９號","E_COORD97":167442.59,"N_COORD97":2544768.75,"ADDRESS":"成功路５１９號","OBJECTID":273671},"geometry":{"x":167442.58999999985,"y":2544768.7500000019}},{"attributes":{"ID":273677,"DIS_CODE":0,"TOWNNAME":"中西區","LI":"協和里","LIN":"9鄰","STREET":"成功路","SECT":" ","MAREA":" ","LANE":" ","ALLEY":" ","HOUSE_NO":"５２１號","E_COORD97":167438.48999999999,"N_COORD97":2544775.25,"ADDRESS":"成功路５２１號","OBJECTID":273672},"geometry":{"x":167438.49000000022,"y":2544775.2500000037}},{"attributes":{"ID":273678,"DIS_CODE":0,"TOWNNAME":"中西區","LI":"協和里","LIN":"9鄰","STREET":"成功路","SECT":" ","MAREA":" ","LANE":" ","ALLEY":" ","HOUSE_NO":"５２３號","E_COORD97":167435.60000000001,"N_COORD97":2544778.8599999999,"ADDRESS":"成功路５２３號","OBJECTID":273673},"geometry":{"x":167435.59999999963,"y":2544778.8600000013}},{"attributes":{"ID":273679,"DIS_CODE":0,"TOWNNAME":"中西區","LI":"協和里","LIN":"9鄰","STREET":"文賢路","SECT":" ","MAREA":" ","LANE":" ","ALLEY":" ","HOUSE_NO":"１３５號","E_COORD97":167407.48000000001,"N_COORD97":2544743.73,"ADDRESS":"文賢路１３５號","OBJECTID":273674},"geometry":{"x":167407.48000000138,"y":2544743.7300000004}},{"attributes":{"ID":273680,"DIS_CODE":0,"TOWNNAME":"東區","LI":"關聖里","LIN":"7鄰","STREET":"裕農路","SECT":" ","MAREA":" ","LANE":"６６８巷","ALLEY":" ","HOUSE_NO":"４７號之５","E_COORD97":171759.41,"N_COORD97":2543013.3199999998,"ADDRESS":"裕農路６６８巷４７號之５","OBJECTID":273675},"geometry":{"x":171759.41000000108,"y":2543013.3200000022}},{"attributes":{"ID":273681,"DIS_CODE":0,"TOWNNAME":"東區","LI":"裕農里","LIN":"7鄰","STREET":"裕農路","SECT":" ","MAREA":" ","LANE":"３４５巷","ALLEY":" ","HOUSE_NO":"３號","E_COORD97":170986.47,"N_COORD97":2543076.4399999999,"ADDRESS":"裕農路３４５巷３號","OBJECTID":273676},"geometry":{"x":170986.46999999881,"y":2543076.4400000013}},{"attributes":{"ID":273682,"DIS_CODE":0,"TOWNNAME":"東區","LI":"後甲里","LIN":"7鄰","STREET":"裕農路","SECT":" ","MAREA":" ","LANE":"６２１巷","ALLEY":" ","HOUSE_NO":"７４號之５","E_COORD97":171620.79000000001,"N_COORD97":2543454.5299999998,"ADDRESS":"裕農路６２１巷７４號之５","OBJECTID":273677},"geometry":{"x":171620.79000000097,"y":2543454.5300000012}},{"attributes":{"ID":273683,"DIS_CODE":0,"TOWNNAME":"東區","LI":"後甲里","LIN":"7鄰","STREET":"裕農路","SECT":" ","MAREA":" ","LANE":"６２１巷","ALLEY":" ","HOUSE_NO":"７４號之６","E_COORD97":171620.06,"N_COORD97":2543458.6299999999,"ADDRESS":"裕農路６２１巷７４號之６","OBJECTID":273678},"geometry":{"x":171620.06000000052,"y":2543458.629999999}},{"attributes":{"ID":273684,"DIS_CODE":0,"TOWNNAME":"東區","LI":"後甲里","LIN":"7鄰","STREET":"裕農路","SECT":" ","MAREA":" ","LANE":"６２１巷","ALLEY":" ","HOUSE_NO":"７４號之７","E_COORD97":171619.82000000001,"N_COORD97":2543461.2799999998,"ADDRESS":"裕農路６２１巷７４號之７","OBJECTID":273679},"geometry":{"x":171619.8200000003,"y":2543461.2799999993}},{"attributes":{"ID":273685,"DIS_CODE":0,"TOWNNAME":"新營區","LI":"埤寮里","LIN":"1鄰","STREET":"中正路","SECT":" ","MAREA":" ","LANE":" ","ALLEY":" ","HOUSE_NO":"５７９之２號","E_COORD97":180076.382946,"N_COORD97":2580965.5535200001,"ADDRESS":"中正路５７９之２號","OBJECTID":273680},"geometry":{"x":180076.38294600137,"y":2580965.5535210017}},{"attributes":{"ID":273686,"DIS_CODE":0,"TOWNNAME":"新營區","LI":"太南里","LIN":"3鄰","STREET":" ","SECT":" ","MAREA":"太子宮","LANE":" ","ALLEY":" ","HOUSE_NO":"１８５號","E_COORD97":176208.51000000001,"N_COORD97":2576966.4900000002,"ADDRESS":"太子宮１８５號","OBJECTID":273681},"geometry":{"x":176208.50999999978,"y":2576966.4900000021}},{"attributes":{"ID":273687,"DIS_CODE":0,"TOWNNAME":"新營區","LI":"土庫里","LIN":"3鄰","STREET":" ","SECT":" ","MAREA":"土庫","LANE":" ","ALLEY":" ","HOUSE_NO":"２７號","E_COORD97":183229.89000000001,"N_COORD97":2579893.3799999999,"ADDRESS":"土庫２７號","OBJECTID":273682},"geometry":{"x":183229.8900000006,"y":2579893.379999999}},{"attributes":{"ID":273688,"DIS_CODE":0,"TOWNNAME":"新營區","LI":"嘉芳里","LIN":"3鄰","STREET":" ","SECT":" ","MAREA":"茄苳腳","LANE":" ","ALLEY":" ","HOUSE_NO":"２８號","E_COORD97":177044.38,"N_COORD97":2578381.9500000002,"ADDRESS":"茄苳腳２８號","OBJECTID":273683},"geometry":{"x":177044.38000000082,"y":2578381.950000003}},{"attributes":{"ID":273689,"DIS_CODE":0,"TOWNNAME":"楠西區","LI":"鹿田里","LIN":"3鄰","STREET":" ","SECT":" ","MAREA":"鹿陶洋","LANE":" ","ALLEY":" ","HOUSE_NO":"３３號","E_COORD97":197758.92000000001,"N_COORD97":2561554.25,"ADDRESS":"鹿陶洋３３號","OBJECTID":273684},"geometry":{"x":197758.91999999993,"y":2561554.2500000037}},{"attributes":{"ID":273690,"DIS_CODE":0,"TOWNNAME":"東區","LI":"後甲里","LIN":"7鄰","STREET":"裕農路","SECT":" ","MAREA":" ","LANE":"６２１巷","ALLEY":" ","HOUSE_NO":"７６號","E_COORD97":171619.10000000001,"N_COORD97":2543464.8900000001,"ADDRESS":"裕農路６２１巷７６號","OBJECTID":273685},"geometry":{"x":171619.09999999963,"y":2543464.8900000006}},{"attributes":{"ID":273691,"DIS_CODE":0,"TOWNNAME":"新化區","LI":"崙頂里","LIN":"3鄰","STREET":" ","SECT":" ","MAREA":"崙子頂","LANE":" ","ALLEY":" ","HOUSE_NO":"１５９號","E_COORD97":176710.82999999999,"N_COORD97":2546809.25,"ADDRESS":"崙子頂１５９號","OBJECTID":273686},"geometry":{"x":176710.83000000194,"y":2546809.2499999981}},{"attributes":{"ID":273692,"DIS_CODE":0,"TOWNNAME":"新化區","LI":"豐榮里","LIN":"3鄰","STREET":" ","SECT":" ","MAREA":"洋子","LANE":" ","ALLEY":" ","HOUSE_NO":"４９號","E_COORD97":178073.63,"N_COORD97":2548242.25,"ADDRESS":"洋子４９號","OBJECTID":273687},"geometry":{"x":178073.63000000082,"y":2548242.25}},{"attributes":{"ID":273693,"DIS_CODE":0,"TOWNNAME":"東區","LI":"裕農里","LIN":"7鄰","STREET":"裕農路","SECT":" ","MAREA":" ","LANE":"３４５巷","ALLEY":" ","HOUSE_NO":"１０號","E_COORD97":170997.32999999999,"N_COORD97":2543100.4700000002,"ADDRESS":"裕農路３４５巷１０號","OBJECTID":273688},"geometry":{"x":170997.33000000007,"y":2543100.4700000025}},{"attributes":{"ID":273694,"DIS_CODE":0,"TOWNNAME":"東區","LI":"忠孝里","LIN":"7鄰","STREET":"榮譽街","SECT":" ","MAREA":" ","LANE":"８４巷","ALLEY":" ","HOUSE_NO":"８３號","E_COORD97":169773.35999999999,"N_COORD97":2541604.8500000001,"ADDRESS":"榮譽街８４巷８３號","OBJECTID":273689},"geometry":{"x":169773.36000000034,"y":2541604.8500000015}},{"attributes":{"ID":273695,"DIS_CODE":0,"TOWNNAME":"東區","LI":"忠孝里","LIN":"7鄰","STREET":"榮譽街","SECT":" ","MAREA":" ","LANE":"８４巷","ALLEY":" ","HOUSE_NO":"８３號之１","E_COORD97":169778.64999999999,"N_COORD97":2541607.1699999999,"ADDRESS":"榮譽街８４巷８３號之１","OBJECTID":273690},"geometry":{"x":169778.65000000037,"y":2541607.1700000018}},{"attributes":{"ID":273696,"DIS_CODE":0,"TOWNNAME":"新化區","LI":"羊林里","LIN":"3鄰","STREET":" ","SECT":" ","MAREA":"\u25A0拔林","LANE":" ","ALLEY":" ","HOUSE_NO":"４１７號","E_COORD97":183733.82000000001,"N_COORD97":2551762.25,"ADDRESS":"\u25A0拔林４１７號","OBJECTID":273691},"geometry":{"x":183733.8200000003,"y":2551762.25}},{"attributes":{"ID":273697,"DIS_CODE":0,"TOWNNAME":"新化區","LI":"崙頂里","LIN":"3鄰","STREET":" ","SECT":" ","MAREA":"崙子頂","LANE":" ","ALLEY":" ","HOUSE_NO":"１５０號","E_COORD97":176737.53,"N_COORD97":2546781.25,"ADDRESS":"崙子頂１５０號","OBJECTID":273692},"geometry":{"x":176737.53000000119,"y":2546781.25}},{"attributes":{"ID":273698,"DIS_CODE":0,"TOWNNAME":"新化區","LI":"崙頂里","LIN":"3鄰","STREET":" ","SECT":" ","MAREA":"崙子頂","LANE":" ","ALLEY":" ","HOUSE_NO":"１６８號","E_COORD97":176687.92999999999,"N_COORD97":2546786.25,"ADDRESS":"崙子頂１６８號","OBJECTID":273693},"geometry":{"x":176687.93000000063,"y":2546786.2500000019}},{"attributes":{"ID":273699,"DIS_CODE":0,"TOWNNAME":"新化區","LI":"羊林里","LIN":"3鄰","STREET":" ","SECT":" ","MAREA":"\u25A0拔林","LANE":" ","ALLEY":" ","HOUSE_NO":"４１５號之３","E_COORD97":183761.67000000001,"N_COORD97":2551813.2599999998,"ADDRESS":"\u25A0拔林４１５號之３","OBJECTID":273694},"geometry":{"x":183761.66999999993,"y":2551813.2600000035}},{"attributes":{"ID":273700,"DIS_CODE":0,"TOWNNAME":"新化區","LI":"豐榮里","LIN":"3鄰","STREET":" ","SECT":" ","MAREA":"洋子","LANE":" ","ALLEY":" ","HOUSE_NO":"５９號","E_COORD97":178046.42999999999,"N_COORD97":2548285.25,"ADDRESS":"洋子５９號","OBJECTID":273695},"geometry":{"x":178046.4299999997,"y":2548285.2500000019}},{"attributes":{"ID":273701,"DIS_CODE":0,"TOWNNAME":"新化區","LI":"豐榮里","LIN":"3鄰","STREET":" ","SECT":" ","MAREA":"洋子","LANE":" ","ALLEY":" ","HOUSE_NO":"４６號之３","E_COORD97":178076.17999999999,"N_COORD97":2548233.2599999998,"ADDRESS":"洋子４６號之３","OBJECTID":273696},"geometry":{"x":178076.18000000156,"y":2548233.2600000035}},{"attributes":{"ID":273702,"DIS_CODE":0,"TOWNNAME":"東區","LI":"後甲里","LIN":"7鄰","STREET":"裕農路","SECT":" ","MAREA":" ","LANE":"６２１巷","ALLEY":" ","HOUSE_NO":"６４號","E_COORD97":171629.70999999999,"N_COORD97":2543416.9500000002,"ADDRESS":"裕農路６２１巷６４號","OBJECTID":273697},"geometry":{"x":171629.71000000089,"y":2543416.950000003}},{"attributes":{"ID":273703,"DIS_CODE":0,"TOWNNAME":"東區","LI":"東安里","LIN":"7鄰","STREET":"長榮路","SECT":"二段","MAREA":" ","LANE":"２４巷","ALLEY":" ","HOUSE_NO":"１５８號","E_COORD97":170107.26000000001,"N_COORD97":2543009.1000000001,"ADDRESS":"長榮路二段２４巷１５８號","OBJECTID":273698},"geometry":{"x":170107.26000000071,"y":2543009.0999999996}},{"attributes":{"ID":273704,"DIS_CODE":0,"TOWNNAME":"東區","LI":"東安里","LIN":"7鄰","STREET":"長榮路","SECT":"二段","MAREA":" ","LANE":"２４巷","ALLEY":" ","HOUSE_NO":"１５６號","E_COORD97":170108.88,"N_COORD97":2543012.1400000001,"ADDRESS":"長榮路二段２４巷１５６號","OBJECTID":273699},"geometry":{"x":170108.87999999989,"y":2543012.1400000006}},{"attributes":{"ID":273705,"DIS_CODE":0,"TOWNNAME":"東區","LI":"東安里","LIN":"7鄰","STREET":"長榮路","SECT":"二段","MAREA":" ","LANE":"２４巷","ALLEY":" ","HOUSE_NO":"１６２號","E_COORD97":170103.64999999999,"N_COORD97":2543003.5,"ADDRESS":"長榮路二段２４巷１６２號","OBJECTID":273700},"geometry":{"x":170103.6500000013,"y":2543003.4999999981}},{"attributes":{"ID":273706,"DIS_CODE":0,"TOWNNAME":"仁德區","LI":"仁義里","LIN":"34鄰","STREET":"正義二街","SECT":" ","MAREA":" ","LANE":" ","ALLEY":" ","HOUSE_NO":"１４５號一樓","E_COORD97":173779.95999999999,"N_COORD97":2541607.0099999998,"ADDRESS":"正義二街１４５號一樓","OBJECTID":273701},"geometry":{"x":173779.95999999996,"y":2541607.0100000016}},{"attributes":{"ID":273707,"DIS_CODE":0,"TOWNNAME":"新化區","LI":"崙頂里","LIN":"3鄰","STREET":" ","SECT":" ","MAREA":"崙子頂","LANE":" ","ALLEY":" ","HOUSE_NO":"１２０號之６","E_COORD97":176791.88,"N_COORD97":2546618.2599999998,"ADDRESS":"崙子頂１２０號之６","OBJECTID":273702},"geometry":{"x":176791.88000000082,"y":2546618.2599999998}},{"attributes":{"ID":273708,"DIS_CODE":0,"TOWNNAME":"新化區","LI":"崙頂里","LIN":"3鄰","STREET":" ","SECT":" ","MAREA":"崙子頂","LANE":" ","ALLEY":" ","HOUSE_NO":"１２０號之４","E_COORD97":176791.35999999999,"N_COORD97":2546626.2599999998,"ADDRESS":"崙子頂１２０號之４","OBJECTID":273703},"geometry":{"x":176791.36000000127,"y":2546626.2600000035}},{"attributes":{"ID":273709,"DIS_CODE":0,"TOWNNAME":"新化區","LI":"崙頂里","LIN":"3鄰","STREET":" ","SECT":" ","MAREA":"崙子頂","LANE":" ","ALLEY":" ","HOUSE_NO":"１８３號之６","E_COORD97":176614.28,"N_COORD97":2546716.2599999998,"ADDRESS":"崙子頂１８３號之６","OBJECTID":273704},"geometry":{"x":176614.28000000026,"y":2546716.2599999998}},{"attributes":{"ID":273710,"DIS_CODE":0,"TOWNNAME":"新化區","LI":"崙頂里","LIN":"3鄰","STREET":" ","SECT":" ","MAREA":"崙子頂","LANE":" ","ALLEY":" ","HOUSE_NO":"１２９號之２","E_COORD97":176785.17999999999,"N_COORD97":2546681.2599999998,"ADDRESS":"崙子頂１２９號之２","OBJECTID":273705},"geometry":{"x":176785.18000000063,"y":2546681.2600000016}},{"attributes":{"ID":273711,"DIS_CODE":0,"TOWNNAME":"新化區","LI":"崙頂里","LIN":"3鄰","STREET":" ","SECT":" ","MAREA":"崙子頂","LANE":" ","ALLEY":" ","HOUSE_NO":"１８３號之２","E_COORD97":176635.57999999999,"N_COORD97":2546715.2599999998,"ADDRESS":"崙子頂１８３號之２","OBJECTID":273706},"geometry":{"x":176635.58000000007,"y":2546715.2600000016}},{"attributes":{"ID":273712,"DIS_CODE":0,"TOWNNAME":"新化區","LI":"崙頂里","LIN":"3鄰","STREET":" ","SECT":" ","MAREA":"崙子頂","LANE":" ","ALLEY":" ","HOUSE_NO":"１３１號之４","E_COORD97":176770.06,"N_COORD97":2546691.2599999998,"ADDRESS":"崙子頂１３１號之４","OBJECTID":273707},"geometry":{"x":176770.06000000052,"y":2546691.2600000016}},{"attributes":{"ID":273713,"DIS_CODE":0,"TOWNNAME":"關廟區","LI":"香洋里","LIN":"14鄰","STREET":"仁愛路","SECT":" ","MAREA":" ","LANE":"２０巷","ALLEY":" ","HOUSE_NO":"６號","E_COORD97":181294.94,"N_COORD97":2540104.2799999998,"ADDRESS":"仁愛路２０巷６號","OBJECTID":273708},"geometry":{"x":181294.94000000134,"y":2540104.2799999993}},{"attributes":{"ID":273714,"DIS_CODE":0,"TOWNNAME":"永康區","LI":"甲頂里","LIN":"7鄰","STREET":"中正南路","SECT":" ","MAREA":" ","LANE":"５２巷","ALLEY":" ","HOUSE_NO":"７３號","E_COORD97":170178.29000000001,"N_COORD97":2546825.75,"ADDRESS":"中正南路５２巷７３號","OBJECTID":273709},"geometry":{"x":170178.29000000097,"y":2546825.75}},{"attributes":{"ID":273715,"DIS_CODE":0,"TOWNNAME":"永康區","LI":"甲頂里","LIN":"7鄰","STREET":"中正南路","SECT":" ","MAREA":" ","LANE":"５２巷","ALLEY":" ","HOUSE_NO":"８１號","E_COORD97":170187.42999999999,"N_COORD97":2546840.5,"ADDRESS":"中正南路５２巷８１號","OBJECTID":273710},"geometry":{"x":170187.43000000063,"y":2546840.5}},{"attributes":{"ID":273716,"DIS_CODE":0,"TOWNNAME":"永康區","LI":"甲頂里","LIN":"7鄰","STREET":"中正南路","SECT":" ","MAREA":" ","LANE":"５２巷","ALLEY":" ","HOUSE_NO":"６５號","E_COORD97":169902.39999999999,"N_COORD97":2546794.21,"ADDRESS":"中正南路５２巷６５號","OBJECTID":273711},"geometry":{"x":169902.40000000037,"y":2546794.2100000028}},{"attributes":{"ID":273717,"DIS_CODE":0,"TOWNNAME":"永康區","LI":"甲頂里","LIN":"7鄰","STREET":"中正南路","SECT":" ","MAREA":" ","LANE":"５２巷","ALLEY":" ","HOUSE_NO":"６９號","E_COORD97":169910.66,"N_COORD97":2546794.21,"ADDRESS":"中正南路５２巷６９號","OBJECTID":273712},"geometry":{"x":169910.66000000015,"y":2546794.2100000028}},{"attributes":{"ID":273718,"DIS_CODE":0,"TOWNNAME":"永康區","LI":"東橋里","LIN":"7鄰","STREET":"大橋一街","SECT":" ","MAREA":" ","LANE":"３２４巷","ALLEY":" ","HOUSE_NO":"９５號","E_COORD97":171499.10000000001,"N_COORD97":2546428.9900000002,"ADDRESS":"大橋一街３２４巷９５號","OBJECTID":273713},"geometry":{"x":171499.0999999987,"y":2546428.9900000021}},{"attributes":{"ID":273719,"DIS_CODE":0,"TOWNNAME":"永康區","LI":"甲頂里","LIN":"7鄰","STREET":"中正南路","SECT":" ","MAREA":" ","LANE":"５２巷","ALLEY":" ","HOUSE_NO":"８５號","E_COORD97":170192.09,"N_COORD97":2546847.25,"ADDRESS":"中正南路５２巷８５號","OBJECTID":273714},"geometry":{"x":170192.08999999985,"y":2546847.2500000019}},{"attributes":{"ID":273720,"DIS_CODE":0,"TOWNNAME":"永康區","LI":"安康里","LIN":"7鄰","STREET":"中華西街","SECT":" ","MAREA":" ","LANE":"８巷","ALLEY":" ","HOUSE_NO":"６號","E_COORD97":170872.62,"N_COORD97":2545929.75,"ADDRESS":"中華西街８巷６號","OBJECTID":273715},"geometry":{"x":170872.62000000104,"y":2545929.75}},{"attributes":{"ID":273721,"DIS_CODE":0,"TOWNNAME":"中西區","LI":"三民里","LIN":"7鄰","STREET":"民權路","SECT":"二段","MAREA":" ","LANE":"９５巷","ALLEY":" ","HOUSE_NO":"１１號","E_COORD97":168437.48999999999,"N_COORD97":2543832.8900000001,"ADDRESS":"民權路二段９５巷１１號","OBJECTID":273716},"geometry":{"x":168437.49000000209,"y":2543832.8900000025}},{"attributes":{"ID":273722,"DIS_CODE":0,"TOWNNAME":"中西區","LI":"萬昌里","LIN":"7鄰","STREET":"府前路","SECT":"一段","MAREA":" ","LANE":"９０巷","ALLEY":" ","HOUSE_NO":"６１號","E_COORD97":168909.22,"N_COORD97":2543405.2599999998,"ADDRESS":"府前路一段９０巷６１號","OBJECTID":273717},"geometry":{"x":168909.21999999974,"y":2543405.2600000035}},{"attributes":{"ID":273723,"DIS_CODE":0,"TOWNNAME":"新化區","LI":"協興里","LIN":"3鄰","STREET":"正新路","SECT":" ","MAREA":" ","LANE":"２５１巷","ALLEY":" ","HOUSE_NO":"８號","E_COORD97":178538.72,"N_COORD97":2548519.25,"ADDRESS":"正新路２５１巷８號","OBJECTID":273718},"geometry":{"x":178538.7200000016,"y":2548519.2500000019}},{"attributes":{"ID":273724,"DIS_CODE":0,"TOWNNAME":"永康區","LI":"\u25A0行里","LIN":"15鄰","STREET":"中正南路","SECT":" ","MAREA":" ","LANE":" ","ALLEY":" ","HOUSE_NO":"７４４號","E_COORD97":171734.51999999999,"N_COORD97":2548959.2400000002,"ADDRESS":"中正南路７４４號","OBJECTID":273719},"geometry":{"x":171734.51999999955,"y":2548959.2400000039}},{"attributes":{"ID":273725,"DIS_CODE":0,"TOWNNAME":"永康區","LI":"中華里","LIN":"15鄰","STREET":"華興街","SECT":" ","MAREA":" ","LANE":" ","ALLEY":" ","HOUSE_NO":"９９號","E_COORD97":171777.98999999999,"N_COORD97":2544541.0699999998,"ADDRESS":"華興街９９號","OBJECTID":273720},"geometry":{"x":171777.99000000022,"y":2544541.0700000022}},{"attributes":{"ID":273726,"DIS_CODE":0,"TOWNNAME":"新營區","LI":"永生里","LIN":"18鄰","STREET":"康樂街","SECT":" ","MAREA":" ","LANE":" ","ALLEY":" ","HOUSE_NO":"５７號","E_COORD97":179843.95999999999,"N_COORD97":2577835.8900000001,"ADDRESS":"康樂街５７號","OBJECTID":273721},"geometry":{"x":179843.95999999996,"y":2577835.8900000025}},{"attributes":{"ID":273727,"DIS_CODE":0,"TOWNNAME":"仁德區","LI":"仁和里","LIN":"14鄰","STREET":"和愛街","SECT":" ","MAREA":" ","LANE":" ","ALLEY":" ","HOUSE_NO":"２０號一樓之１","E_COORD97":170472.51000000001,"N_COORD97":2540040.2799999998,"ADDRESS":"和愛街２０號一樓之１","OBJECTID":273722},"geometry":{"x":170472.50999999978,"y":2540040.2799999993}},{"attributes":{"ID":273728,"DIS_CODE":0,"TOWNNAME":"中西區","LI":"萬昌里","LIN":"7鄰","STREET":"府前路","SECT":"一段","MAREA":" ","LANE":"９０巷","ALLEY":" ","HOUSE_NO":"６３號","E_COORD97":168909.32999999999,"N_COORD97":2543410.3399999999,"ADDRESS":"府前路一段９０巷６３號","OBJECTID":273723},"geometry":{"x":168909.33000000007,"y":2543410.3399999999}},{"attributes":{"ID":273729,"DIS_CODE":0,"TOWNNAME":"安南區","LI":"城南里","LIN":"7鄰","STREET":"城西街","SECT":"一段","MAREA":" ","LANE":"１８１巷","ALLEY":" ","HOUSE_NO":"５２號","E_COORD97":160486.39000000001,"N_COORD97":2551162.4399999999,"ADDRESS":"城西街一段１８１巷５２號","OBJECTID":273724},"geometry":{"x":160486.38999999966,"y":2551162.4400000013}},{"attributes":{"ID":273730,"DIS_CODE":0,"TOWNNAME":"安定區","LI":"管寮里","LIN":"3鄰","STREET":" ","SECT":" ","MAREA":"管寮","LANE":" ","ALLEY":" ","HOUSE_NO":"２８號","E_COORD97":170186.84,"N_COORD97":2556347.25,"ADDRESS":"管寮２８號","OBJECTID":273725},"geometry":{"x":170186.83999999985,"y":2556347.2500000019}},{"attributes":{"ID":273731,"DIS_CODE":0,"TOWNNAME":"安南區","LI":"城南里","LIN":"7鄰","STREET":"城西街","SECT":"一段","MAREA":" ","LANE":"１８１巷","ALLEY":" ","HOUSE_NO":"５７號","E_COORD97":160482.01999999999,"N_COORD97":2551128.5600000001,"ADDRESS":"城西街一段１８１巷５７號","OBJECTID":273726},"geometry":{"x":160482.01999999955,"y":2551128.5600000024}},{"attributes":{"ID":273732,"DIS_CODE":0,"TOWNNAME":"永康區","LI":"六合里","LIN":"3鄰","STREET":"中山南路","SECT":" ","MAREA":" ","LANE":" ","ALLEY":" ","HOUSE_NO":"８２號","E_COORD97":170945.67999999999,"N_COORD97":2545903.3900000001,"ADDRESS":"中山南路８２號","OBJECTID":273727},"geometry":{"x":170945.6799999997,"y":2545903.3900000006}},{"attributes":{"ID":273733,"DIS_CODE":0,"TOWNNAME":"永康區","LI":"六合里","LIN":"3鄰","STREET":"中山南路","SECT":" ","MAREA":" ","LANE":" ","ALLEY":" ","HOUSE_NO":"７０號","E_COORD97":170914.04000000001,"N_COORD97":2545890.75,"ADDRESS":"中山南路７０號","OBJECTID":273728},"geometry":{"x":170914.04000000097,"y":2545890.7500000037}},{"attributes":{"ID":273734,"DIS_CODE":0,"TOWNNAME":"永康區","LI":"六合里","LIN":"3鄰","STREET":"中山南路","SECT":" ","MAREA":" ","LANE":" ","ALLEY":" ","HOUSE_NO":"７８號","E_COORD97":170938.85999999999,"N_COORD97":2545901.1400000001,"ADDRESS":"中山南路７８號","OBJECTID":273729},"geometry":{"x":170938.8600000022,"y":2545901.1400000006}},{"attributes":{"ID":273735,"DIS_CODE":0,"TOWNNAME":"安南區","LI":"城南里","LIN":"7鄰","STREET":"城西街","SECT":"一段","MAREA":" ","LANE":"１８１巷","ALLEY":" ","HOUSE_NO":"５９號","E_COORD97":160473.57000000001,"N_COORD97":2551127.0699999998,"ADDRESS":"城西街一段１８１巷５９號","OBJECTID":273730},"geometry":{"x":160473.57000000123,"y":2551127.070000004}},{"attributes":{"ID":273736,"DIS_CODE":0,"TOWNNAME":"安南區","LI":"城南里","LIN":"7鄰","STREET":"城西街","SECT":"一段","MAREA":" ","LANE":"６１巷","ALLEY":" ","HOUSE_NO":"１９４號","E_COORD97":160516.57999999999,"N_COORD97":2551130.1499999999,"ADDRESS":"城西街一段６１巷１９４號","OBJECTID":273731},"geometry":{"x":160516.57999999914,"y":2551130.1500000022}},{"attributes":{"ID":273737,"DIS_CODE":0,"TOWNNAME":"安南區","LI":"城南里","LIN":"7鄰","STREET":"城西街","SECT":"一段","MAREA":" ","LANE":"６１巷","ALLEY":" ","HOUSE_NO":"１９６號","E_COORD97":160511.10999999999,"N_COORD97":2551127.6699999999,"ADDRESS":"城西街一段６１巷１９６號","OBJECTID":273732},"geometry":{"x":160511.11000000034,"y":2551127.6699999999}},{"attributes":{"ID":273738,"DIS_CODE":0,"TOWNNAME":"安南區","LI":"城南里","LIN":"7鄰","STREET":"城西街","SECT":"一段","MAREA":" ","LANE":"６１巷","ALLEY":" ","HOUSE_NO":"１９８號","E_COORD97":160530.51000000001,"N_COORD97":2551112.0299999998,"ADDRESS":"城西街一段６１巷１９８號","OBJECTID":273733},"geometry":{"x":160530.51000000164,"y":2551112.0299999993}},{"attributes":{"ID":273739,"DIS_CODE":0,"TOWNNAME":"安南區","LI":"城南里","LIN":"7鄰","STREET":"城西街","SECT":"一段","MAREA":" ","LANE":"６１巷","ALLEY":" ","HOUSE_NO":"２０２號","E_COORD97":160502.66,"N_COORD97":2551126.4300000002,"ADDRESS":"城西街一段６１巷２０２號","OBJECTID":273734},"geometry":{"x":160502.66000000201,"y":2551126.4299999997}},{"attributes":{"ID":273740,"DIS_CODE":0,"TOWNNAME":"安南區","LI":"城南里","LIN":"7鄰","STREET":"城西街","SECT":"一段","MAREA":" ","LANE":"６１巷","ALLEY":" ","HOUSE_NO":"２０４號","E_COORD97":160508.13,"N_COORD97":2551116.5,"ADDRESS":"城西街一段６１巷２０４號","OBJECTID":273735},"geometry":{"x":160508.13000000082,"y":2551116.5}},{"attributes":{"ID":273741,"DIS_CODE":0,"TOWNNAME":"永康區","LI":"永康里","LIN":"3鄰","STREET":"中山路","SECT":" ","MAREA":" ","LANE":" ","ALLEY":" ","HOUSE_NO":"１３號","E_COORD97":173837.26000000001,"N_COORD97":2547446.25,"ADDRESS":"中山路１３號","OBJECTID":273736},"geometry":{"x":173837.25999999978,"y":2547446.25}},{"attributes":{"ID":273742,"DIS_CODE":0,"TOWNNAME":"東區","LI":"德光里","LIN":"3鄰","STREET":"崇德路","SECT":" ","MAREA":" ","LANE":" ","ALLEY":" ","HOUSE_NO":"５０號","E_COORD97":169781.04000000001,"N_COORD97":2542428.54,"ADDRESS":"崇德路５０號","OBJECTID":273737},"geometry":{"x":169781.03999999911,"y":2542428.5399999991}},{"attributes":{"ID":273743,"DIS_CODE":0,"TOWNNAME":"東區","LI":"德光里","LIN":"3鄰","STREET":"崇德路","SECT":" ","MAREA":" ","LANE":" ","ALLEY":" ","HOUSE_NO":"４２號","E_COORD97":169775.45999999999,"N_COORD97":2542444.3300000001,"ADDRESS":"崇德路４２號","OBJECTID":273738},"geometry":{"x":169775.46000000089,"y":2542444.3300000001}},{"attributes":{"ID":273744,"DIS_CODE":0,"TOWNNAME":"仁德區","LI":"仁德里","LIN":"3鄰","STREET":"仁中六街","SECT":" ","MAREA":" ","LANE":" ","ALLEY":" ","HOUSE_NO":"９２號","E_COORD97":173420.28,"N_COORD97":2540462.4900000002,"ADDRESS":"仁中六街９２號","OBJECTID":273739},"geometry":{"x":173420.28000000026,"y":2540462.4900000021}},{"attributes":{"ID":273745,"DIS_CODE":0,"TOWNNAME":"仁德區","LI":"仁德里","LIN":"3鄰","STREET":"仁中六街","SECT":" ","MAREA":" ","LANE":" ","ALLEY":" ","HOUSE_NO":"１１８號","E_COORD97":173389.06,"N_COORD97":2540468.7400000002,"ADDRESS":"仁中六街１１８號","OBJECTID":273740},"geometry":{"x":173389.05999999959,"y":2540468.7400000002}},{"attributes":{"ID":273746,"DIS_CODE":0,"TOWNNAME":"佳里區","LI":"六安里","LIN":"3鄰","STREET":"進學路","SECT":" ","MAREA":" ","LANE":" ","ALLEY":" ","HOUSE_NO":"５０號","E_COORD97":166311.67999999999,"N_COORD97":2562694.6699999999,"ADDRESS":"進學路５０號","OBJECTID":273741},"geometry":{"x":166311.68000000063,"y":2562694.6700000018}},{"attributes":{"ID":273747,"DIS_CODE":0,"TOWNNAME":"佳里區","LI":"建南里","LIN":"3鄰","STREET":"新生路","SECT":" ","MAREA":" ","LANE":" ","ALLEY":" ","HOUSE_NO":"２６８號","E_COORD97":165684.73999999999,"N_COORD97":2562290.4399999999,"ADDRESS":"新生路２６８號","OBJECTID":273742},"geometry":{"x":165684.74000000115,"y":2562290.4399999995}},{"attributes":{"ID":273748,"DIS_CODE":0,"TOWNNAME":"佳里區","LI":"建南里","LIN":"3鄰","STREET":"新生路","SECT":" ","MAREA":" ","LANE":" ","ALLEY":" ","HOUSE_NO":"２７０號","E_COORD97":165680.04000000001,"N_COORD97":2562289.6600000001,"ADDRESS":"新生路２７０號","OBJECTID":273743},"geometry":{"x":165680.04000000004,"y":2562289.6600000001}},{"attributes":{"ID":273749,"DIS_CODE":0,"TOWNNAME":"安南區","LI":"城南里","LIN":"7鄰","STREET":"城西街","SECT":"一段","MAREA":" ","LANE":"６１巷","ALLEY":" ","HOUSE_NO":"２０６號","E_COORD97":160505.64000000001,"N_COORD97":2551111.5299999998,"ADDRESS":"城西街一段６１巷２０６號","OBJECTID":273744},"geometry":{"x":160505.64000000153,"y":2551111.5299999993}},{"attributes":{"ID":273750,"DIS_CODE":0,"TOWNNAME":"安南區","LI":"城南里","LIN":"7鄰","STREET":"城西街","SECT":"一段","MAREA":" ","LANE":"６１巷","ALLEY":" ","HOUSE_NO":"２０８號","E_COORD97":160502.16,"N_COORD97":2551102.75,"ADDRESS":"城西街一段６１巷２０８號","OBJECTID":273745},"geometry":{"x":160502.16000000015,"y":2551102.7500000019}},{"attributes":{"ID":273751,"DIS_CODE":0,"TOWNNAME":"安南區","LI":"海東里","LIN":"7鄰","STREET":"海佃路","SECT":"二段","MAREA":" ","LANE":"４８３巷","ALLEY":" ","HOUSE_NO":"１０８號","E_COORD97":166415.19,"N_COORD97":2549008.8900000001,"ADDRESS":"海佃路二段４８３巷１０８號","OBJECTID":273746},"geometry":{"x":166415.19000000041,"y":2549008.8900000006}},{"attributes":{"ID":273752,"DIS_CODE":0,"TOWNNAME":"安南區","LI":"淵中里","LIN":"7鄰","STREET":"安中路","SECT":"四段","MAREA":" ","LANE":"１５４巷","ALLEY":" ","HOUSE_NO":"４７號","E_COORD97":165028.20000000001,"N_COORD97":2550140.27,"ADDRESS":"安中路四段１５４巷４７號","OBJECTID":273747},"geometry":{"x":165028.20000000019,"y":2550140.2699999996}},{"attributes":{"ID":273753,"DIS_CODE":0,"TOWNNAME":"安南區","LI":"海西里","LIN":"7鄰","STREET":"海中街","SECT":" ","MAREA":" ","LANE":"１２１巷","ALLEY":" ","HOUSE_NO":"５１號","E_COORD97":166275.70999999999,"N_COORD97":2548983.6699999999,"ADDRESS":"海中街１２１巷５１號","OBJECTID":273748},"geometry":{"x":166275.70999999996,"y":2548983.6700000018}},{"attributes":{"ID":273754,"DIS_CODE":0,"TOWNNAME":"安南區","LI":"海西里","LIN":"7鄰","STREET":"海中街","SECT":" ","MAREA":" ","LANE":"１２１巷","ALLEY":" ","HOUSE_NO":"５３號","E_COORD97":166272.35999999999,"N_COORD97":2548980.75,"ADDRESS":"海中街１２１巷５３號","OBJECTID":273749},"geometry":{"x":166272.36000000127,"y":2548980.7500000019}},{"attributes":{"ID":273755,"DIS_CODE":0,"TOWNNAME":"安南區","LI":"海西里","LIN":"7鄰","STREET":"海中街","SECT":" ","MAREA":" ","LANE":"１２１巷","ALLEY":" ","HOUSE_NO":"５５號","E_COORD97":166268.59,"N_COORD97":2548977.3999999999,"ADDRESS":"海中街１２１巷５５號","OBJECTID":273750},"geometry":{"x":166268.59000000078,"y":2548977.4000000004}},{"attributes":{"ID":273756,"DIS_CODE":0,"TOWNNAME":"安南區","LI":"海西里","LIN":"7鄰","STREET":"海中街","SECT":" ","MAREA":" ","LANE":"１２１巷","ALLEY":" ","HOUSE_NO":"５７號","E_COORD97":166264.82000000001,"N_COORD97":2548975.3100000001,"ADDRESS":"海中街１２１巷５７號","OBJECTID":273751},"geometry":{"x":166264.8200000003,"y":2548975.3100000005}},{"attributes":{"ID":273757,"DIS_CODE":0,"TOWNNAME":"安南區","LI":"海西里","LIN":"7鄰","STREET":"海中街","SECT":" ","MAREA":" ","LANE":"１２１巷","ALLEY":" ","HOUSE_NO":"５９號","E_COORD97":166262.31,"N_COORD97":2548971.1299999999,"ADDRESS":"海中街１２１巷５９號","OBJECTID":273752},"geometry":{"x":166262.30999999959,"y":2548971.129999999}},{"attributes":{"ID":273758,"DIS_CODE":0,"TOWNNAME":"安南區","LI":"海西里","LIN":"7鄰","STREET":"海中街","SECT":" ","MAREA":" ","LANE":"１０１巷","ALLEY":" ","HOUSE_NO":"４８號","E_COORD97":166287.85999999999,"N_COORD97":2548959.8300000001,"ADDRESS":"海中街１０１巷４８號","OBJECTID":273753},"geometry":{"x":166287.86000000127,"y":2548959.8300000019}},{"attributes":{"ID":273759,"DIS_CODE":0,"TOWNNAME":"安南區","LI":"海西里","LIN":"7鄰","STREET":"海中街","SECT":" ","MAREA":" ","LANE":"１０１巷","ALLEY":" ","HOUSE_NO":"５０號","E_COORD97":166282.84,"N_COORD97":2548958.1600000001,"ADDRESS":"海中街１０１巷５０號","OBJECTID":273754},"geometry":{"x":166282.83999999985,"y":2548958.1600000001}},{"attributes":{"ID":273760,"DIS_CODE":0,"TOWNNAME":"安南區","LI":"海西里","LIN":"7鄰","STREET":"海中街","SECT":" ","MAREA":" ","LANE":"１０１巷","ALLEY":" ","HOUSE_NO":"５２號","E_COORD97":166277.81,"N_COORD97":2548956.0699999998,"ADDRESS":"海中街１０１巷５２號","OBJECTID":273755},"geometry":{"x":166277.80999999959,"y":2548956.0700000003}},{"attributes":{"ID":273761,"DIS_CODE":0,"TOWNNAME":"安南區","LI":"海西里","LIN":"7鄰","STREET":"海中街","SECT":" ","MAREA":" ","LANE":"１０１巷","ALLEY":" ","HOUSE_NO":"５４號","E_COORD97":166273.20000000001,"N_COORD97":2548955.23,"ADDRESS":"海中街１０１巷５４號","OBJECTID":273756},"geometry":{"x":166273.20000000112,"y":2548955.2300000004}},{"attributes":{"ID":273762,"DIS_CODE":0,"TOWNNAME":"安南區","LI":"海西里","LIN":"7鄰","STREET":"海中街","SECT":" ","MAREA":" ","LANE":"１０１巷","ALLEY":" ","HOUSE_NO":"５６號","E_COORD97":166269.01000000001,"N_COORD97":2548953.5600000001,"ADDRESS":"海中街１０１巷５６號","OBJECTID":273757},"geometry":{"x":166269.01000000071,"y":2548953.5600000005}},{"attributes":{"ID":273763,"DIS_CODE":0,"TOWNNAME":"安南區","LI":"頂安里","LIN":"7鄰","STREET":"怡安路","SECT":"一段","MAREA":" ","LANE":"３８４巷","ALLEY":" ","HOUSE_NO":"２５號","E_COORD97":168721.23999999999,"N_COORD97":2549225.4399999999,"ADDRESS":"怡安路一段３８４巷２５號","OBJECTID":273758},"geometry":{"x":168721.24000000115,"y":2549225.4400000013}},{"attributes":{"ID":273764,"DIS_CODE":0,"TOWNNAME":"安南區","LI":"頂安里","LIN":"7鄰","STREET":"怡安路","SECT":"一段","MAREA":" ","LANE":"３８４巷","ALLEY":" ","HOUSE_NO":"４３號","E_COORD97":168724.12,"N_COORD97":2549266.7999999998,"ADDRESS":"怡安路一段３８４巷４３號","OBJECTID":273759},"geometry":{"x":168724.12000000011,"y":2549266.8000000007}},{"attributes":{"ID":273765,"DIS_CODE":0,"TOWNNAME":"安南區","LI":"海南里","LIN":"7鄰","STREET":"府安路","SECT":"六段","MAREA":" ","LANE":"１０３巷","ALLEY":" ","HOUSE_NO":"１１號","E_COORD97":166712.20000000001,"N_COORD97":2546497.04,"ADDRESS":"府安路六段１０３巷１１號","OBJECTID":273760},"geometry":{"x":166712.20000000112,"y":2546497.0399999991}},{"attributes":{"ID":273766,"DIS_CODE":0,"TOWNNAME":"安南區","LI":"海南里","LIN":"7鄰","STREET":"府安路","SECT":"六段","MAREA":" ","LANE":"１０３巷","ALLEY":" ","HOUSE_NO":"１７號","E_COORD97":166710.14000000001,"N_COORD97":2546511.6899999999,"ADDRESS":"府安路六段１０３巷１７號","OBJECTID":273761},"geometry":{"x":166710.14000000153,"y":2546511.6900000013}},{"attributes":{"ID":273767,"DIS_CODE":0,"TOWNNAME":"安南區","LI":"海南里","LIN":"7鄰","STREET":"府安路","SECT":"六段","MAREA":" ","LANE":"１０３巷","ALLEY":" ","HOUSE_NO":"１９號","E_COORD97":166709.35000000001,"N_COORD97":2546516.2000000002,"ADDRESS":"府安路六段１０３巷１９號","OBJECTID":273762},"geometry":{"x":166709.35000000056,"y":2546516.1999999993}},{"attributes":{"ID":273768,"DIS_CODE":0,"TOWNNAME":"官田區","LI":"隆本里","LIN":"3鄰","STREET":"中華路","SECT":"二段","MAREA":" ","LANE":" ","ALLEY":" ","HOUSE_NO":"１０號","E_COORD97":180214.17000000001,"N_COORD97":2566338.48,"ADDRESS":"中華路二段１０號","OBJECTID":273763},"geometry":{"x":180214.17000000086,"y":2566338.4800000023}},{"attributes":{"ID":273769,"DIS_CODE":0,"TOWNNAME":"安南區","LI":"海南里","LIN":"7鄰","STREET":"府安路","SECT":"六段","MAREA":" ","LANE":"１０３巷","ALLEY":" ","HOUSE_NO":"２１號","E_COORD97":166708.56,"N_COORD97":2546520.54,"ADDRESS":"府安路六段１０３巷２１號","OBJECTID":273764},"geometry":{"x":166708.55999999959,"y":2546520.5399999991}},{"attributes":{"ID":273770,"DIS_CODE":0,"TOWNNAME":"安南區","LI":"海南里","LIN":"7鄰","STREET":"府安路","SECT":"六段","MAREA":" ","LANE":"１０３巷","ALLEY":" ","HOUSE_NO":"５號","E_COORD97":166715.28,"N_COORD97":2546484.9500000002,"ADDRESS":"府安路六段１０３巷５號","OBJECTID":273765},"geometry":{"x":166715.28000000119,"y":2546484.9499999974}},{"attributes":{"ID":273771,"DIS_CODE":0,"TOWNNAME":"安南區","LI":"海南里","LIN":"7鄰","STREET":"府安路","SECT":"六段","MAREA":" ","LANE":"１０３巷","ALLEY":" ","HOUSE_NO":"７號","E_COORD97":166714.41,"N_COORD97":2546489.1400000001,"ADDRESS":"府安路六段１０３巷７號","OBJECTID":273766},"geometry":{"x":166714.41000000108,"y":2546489.1400000025}},{"attributes":{"ID":273772,"DIS_CODE":0,"TOWNNAME":"安南區","LI":"海南里","LIN":"7鄰","STREET":"府安路","SECT":"六段","MAREA":" ","LANE":"１０３巷","ALLEY":" ","HOUSE_NO":"９號","E_COORD97":166713.22,"N_COORD97":2546492.8500000001,"ADDRESS":"府安路六段１０３巷９號","OBJECTID":273767},"geometry":{"x":166713.22000000067,"y":2546492.8499999978}},{"attributes":{"ID":273773,"DIS_CODE":0,"TOWNNAME":"善化區","LI":"文昌里","LIN":"7鄰","STREET":"中華路","SECT":" ","MAREA":" ","LANE":"９巷","ALLEY":" ","HOUSE_NO":"１號","E_COORD97":177288.10000000001,"N_COORD97":2558643.5,"ADDRESS":"中華路９巷１號","OBJECTID":273768},"geometry":{"x":177288.09999999963,"y":2558643.5000000037}},{"attributes":{"ID":273774,"DIS_CODE":0,"TOWNNAME":"善化區","LI":"小新里","LIN":"7鄰","STREET":"成功路","SECT":" ","MAREA":" ","LANE":"３４９巷","ALLEY":" ","HOUSE_NO":"２５號","E_COORD97":179439.22,"N_COORD97":2558532.5,"ADDRESS":"成功路３４９巷２５號","OBJECTID":273769},"geometry":{"x":179439.22000000067,"y":2558532.5000000019}},{"attributes":{"ID":273775,"DIS_CODE":0,"TOWNNAME":"善化區","LI":"小新里","LIN":"7鄰","STREET":"成功路","SECT":" ","MAREA":" ","LANE":"３４９巷","ALLEY":" ","HOUSE_NO":"７號之１２","E_COORD97":179471.04999999999,"N_COORD97":2558627.02,"ADDRESS":"成功路３４９巷７號之１２","OBJECTID":273770},"geometry":{"x":179471.05000000075,"y":2558627.0200000014}},{"attributes":{"ID":273776,"DIS_CODE":0,"TOWNNAME":"東區","LI":"忠孝里","LIN":"7鄰","STREET":"榮譽街","SECT":" ","MAREA":" ","LANE":"８４巷","ALLEY":" ","HOUSE_NO":"１１１號","E_COORD97":169791.82000000001,"N_COORD97":2541594.52,"ADDRESS":"榮譽街８４巷１１１號","OBJECTID":273771},"geometry":{"x":169791.82000000123,"y":2541594.5199999996}},{"attributes":{"ID":273777,"DIS_CODE":0,"TOWNNAME":"東區","LI":"忠孝里","LIN":"7鄰","STREET":"榮譽街","SECT":" ","MAREA":" ","LANE":"８４巷","ALLEY":" ","HOUSE_NO":"１１１號之１","E_COORD97":169787.38,"N_COORD97":2541592.1600000001,"ADDRESS":"榮譽街８４巷１１１號之１","OBJECTID":273772},"geometry":{"x":169787.38000000082,"y":2541592.1599999983}},{"attributes":{"ID":273778,"DIS_CODE":0,"TOWNNAME":"東區","LI":"忠孝里","LIN":"7鄰","STREET":"榮譽街","SECT":" ","MAREA":" ","LANE":"８４巷","ALLEY":" ","HOUSE_NO":"１１１號之２","E_COORD97":169782.67000000001,"N_COORD97":2541590.0899999999,"ADDRESS":"榮譽街８４巷１１１號之２","OBJECTID":273773},"geometry":{"x":169782.66999999993,"y":2541590.0900000017}},{"attributes":{"ID":273779,"DIS_CODE":0,"TOWNNAME":"東區","LI":"忠孝里","LIN":"7鄰","STREET":"榮譽街","SECT":" ","MAREA":" ","LANE":"８４巷","ALLEY":" ","HOUSE_NO":"１１１號之３","E_COORD97":169778.5,"N_COORD97":2541587.8700000001,"ADDRESS":"榮譽街８４巷１１１號之３","OBJECTID":273774},"geometry":{"x":169778.50000000093,"y":2541587.870000001}},{"attributes":{"ID":273780,"DIS_CODE":0,"TOWNNAME":"東區","LI":"忠孝里","LIN":"7鄰","STREET":"榮譽街","SECT":" ","MAREA":" ","LANE":"８４巷","ALLEY":" ","HOUSE_NO":"１１１號之４","E_COORD97":169774.20000000001,"N_COORD97":2541585.6499999999,"ADDRESS":"榮譽街８４巷１１１號之４","OBJECTID":273775},"geometry":{"x":169774.20000000112,"y":2541585.6500000004}},{"attributes":{"ID":273781,"DIS_CODE":0,"TOWNNAME":"東區","LI":"忠孝里","LIN":"7鄰","STREET":"榮譽街","SECT":" ","MAREA":" ","LANE":"８４巷","ALLEY":" ","HOUSE_NO":"１１１號之５","E_COORD97":169769.89999999999,"N_COORD97":2541583.71,"ADDRESS":"榮譽街８４巷１１１號之５","OBJECTID":273776},"geometry":{"x":169769.90000000037,"y":2541583.7100000028}},{"attributes":{"ID":273782,"DIS_CODE":0,"TOWNNAME":"東區","LI":"忠孝里","LIN":"7鄰","STREET":"榮譽街","SECT":" ","MAREA":" ","LANE":"８４巷","ALLEY":" ","HOUSE_NO":"８１號","E_COORD97":169764.91,"N_COORD97":2541599.23,"ADDRESS":"榮譽街８４巷８１號","OBJECTID":273777},"geometry":{"x":169764.91000000015,"y":2541599.2300000042}},{"attributes":{"ID":273783,"DIS_CODE":0,"TOWNNAME":"東區","LI":"忠孝里","LIN":"7鄰","STREET":"榮譽街","SECT":" ","MAREA":" ","LANE":"８４巷","ALLEY":" ","HOUSE_NO":"８１號之１","E_COORD97":169769.22,"N_COORD97":2541601.8799999999,"ADDRESS":"榮譽街８４巷８１號之１","OBJECTID":273778},"geometry":{"x":169769.21999999974,"y":2541601.879999999}},{"attributes":{"ID":273784,"DIS_CODE":0,"TOWNNAME":"東區","LI":"忠孝里","LIN":"7鄰","STREET":"榮譽街","SECT":" ","MAREA":" ","LANE":"８４巷","ALLEY":" ","HOUSE_NO":"１１１號之６","E_COORD97":169765.17999999999,"N_COORD97":2541581.2200000002,"ADDRESS":"榮譽街８４巷１１１號之６","OBJECTID":273779},"geometry":{"x":169765.18000000063,"y":2541581.2200000007}},{"attributes":{"ID":273785,"DIS_CODE":0,"TOWNNAME":"東區","LI":"忠孝里","LIN":"7鄰","STREET":"榮譽街","SECT":" ","MAREA":" ","LANE":"８４巷","ALLEY":" ","HOUSE_NO":"１１１號之７","E_COORD97":169760.60000000001,"N_COORD97":2541578.5800000001,"ADDRESS":"榮譽街８４巷１１１號之７","OBJECTID":273780},"geometry":{"x":169760.60000000056,"y":2541578.5800000001}},{"attributes":{"ID":273786,"DIS_CODE":0,"TOWNNAME":"永康區","LI":"永康里","LIN":"3鄰","STREET":"中山路","SECT":" ","MAREA":" ","LANE":" ","ALLEY":" ","HOUSE_NO":"３９號","E_COORD97":173821.01000000001,"N_COORD97":2547510.7400000002,"ADDRESS":"中山路３９號","OBJECTID":273781},"geometry":{"x":173821.01000000071,"y":2547510.7400000002}},{"attributes":{"ID":273787,"DIS_CODE":0,"TOWNNAME":"山上區","LI":"平陽里","LIN":"3鄰","STREET":" ","SECT":" ","MAREA":"石子崎","LANE":" ","ALLEY":" ","HOUSE_NO":"２５號","E_COORD97":186586.22,"N_COORD97":2553933.25,"ADDRESS":"石子崎２５號","OBJECTID":273782},"geometry":{"x":186586.22000000067,"y":2553933.2500000019}},{"attributes":{"ID":273788,"DIS_CODE":0,"TOWNNAME":"東區","LI":"東安里","LIN":"7鄰","STREET":"長榮路","SECT":"二段","MAREA":" ","LANE":"２４巷","ALLEY":" ","HOUSE_NO":"１６０號","E_COORD97":170105.45999999999,"N_COORD97":2543006.3500000001,"ADDRESS":"長榮路二段２４巷１６０號","OBJECTID":273783},"geometry":{"x":170105.46000000183,"y":2543006.3499999996}},{"attributes":{"ID":273789,"DIS_CODE":0,"TOWNNAME":"東區","LI":"關聖里","LIN":"7鄰","STREET":"裕農路","SECT":" ","MAREA":" ","LANE":"６６８巷","ALLEY":" ","HOUSE_NO":"３９號之１","E_COORD97":171758.53,"N_COORD97":2543070.7599999998,"ADDRESS":"裕農路６６８巷３９號之１","OBJECTID":273784},"geometry":{"x":171758.53000000119,"y":2543070.7600000016}},{"attributes":{"ID":273790,"DIS_CODE":0,"TOWNNAME":"東區","LI":"圍下里","LIN":"7鄰","STREET":"青年路","SECT":" ","MAREA":" ","LANE":"２９３巷","ALLEY":" ","HOUSE_NO":"７號","E_COORD97":169384.94,"N_COORD97":2543611.1099999999,"ADDRESS":"青年路２９３巷７號","OBJECTID":273785},"geometry":{"x":169384.94000000041,"y":2543611.1099999994}},{"attributes":{"ID":273791,"DIS_CODE":0,"TOWNNAME":"永康區","LI":"\u25A0行里","LIN":"7鄰","STREET":"中正三街","SECT":" ","MAREA":" ","LANE":"１６巷","ALLEY":" ","HOUSE_NO":"８號","E_COORD97":172497.78,"N_COORD97":2548511.75,"ADDRESS":"中正三街１６巷８號","OBJECTID":273786},"geometry":{"x":172497.78000000119,"y":2548511.7500000019}},{"attributes":{"ID":273792,"DIS_CODE":0,"TOWNNAME":"永康區","LI":"\u25A0行里","LIN":"7鄰","STREET":"中正路","SECT":" ","MAREA":" ","LANE":"５４２巷","ALLEY":" ","HOUSE_NO":"１號","E_COORD97":172618.92000000001,"N_COORD97":2548382.75,"ADDRESS":"中正路５４２巷１號","OBJECTID":273787},"geometry":{"x":172618.91999999993,"y":2548382.7500000037}},{"attributes":{"ID":273793,"DIS_CODE":0,"TOWNNAME":"永康區","LI":"\u25A0行里","LIN":"7鄰","STREET":"中正五街","SECT":" ","MAREA":" ","LANE":"１１巷","ALLEY":" ","HOUSE_NO":"３５號","E_COORD97":172590.59,"N_COORD97":2548671.9900000002,"ADDRESS":"中正五街１１巷３５號","OBJECTID":273788},"geometry":{"x":172590.58999999985,"y":2548671.9900000002}},{"attributes":{"ID":273794,"DIS_CODE":0,"TOWNNAME":"永康區","LI":"\u25A0行里","LIN":"7鄰","STREET":"中正五街","SECT":" ","MAREA":" ","LANE":"１１巷","ALLEY":" ","HOUSE_NO":"１２號","E_COORD97":172613.22,"N_COORD97":2548638.7400000002,"ADDRESS":"中正五街１１巷１２號","OBJECTID":273789},"geometry":{"x":172613.21999999974,"y":2548638.7400000021}},{"attributes":{"ID":273795,"DIS_CODE":0,"TOWNNAME":"永康區","LI":"\u25A0行里","LIN":"7鄰","STREET":"中正五街","SECT":" ","MAREA":" ","LANE":"１１巷","ALLEY":" ","HOUSE_NO":"３７號","E_COORD97":172606.42000000001,"N_COORD97":2548666.4900000002,"ADDRESS":"中正五街１１巷３７號","OBJECTID":273790},"geometry":{"x":172606.42000000086,"y":2548666.4900000021}},{"attributes":{"ID":273796,"DIS_CODE":0,"TOWNNAME":"仁德區","LI":"仁德里","LIN":"7鄰","STREET":"仁德三街","SECT":" ","MAREA":" ","LANE":"１６巷","ALLEY":" ","HOUSE_NO":"３號","E_COORD97":173289.22,"N_COORD97":2541018.27,"ADDRESS":"仁德三街１６巷３號","OBJECTID":273791},"geometry":{"x":173289.22000000067,"y":2541018.2700000033}},{"attributes":{"ID":273797,"DIS_CODE":0,"TOWNNAME":"善化區","LI":"東昌里","LIN":"3鄰","STREET":" ","SECT":" ","MAREA":"東勢寮","LANE":" ","ALLEY":" ","HOUSE_NO":"３６號之１","E_COORD97":180778.94,"N_COORD97":2561812.27,"ADDRESS":"東勢寮３６號之１","OBJECTID":273792},"geometry":{"x":180778.94000000227,"y":2561812.2700000014}},{"attributes":{"ID":273798,"DIS_CODE":0,"TOWNNAME":"仁德區","LI":"仁德里","LIN":"7鄰","STREET":"仁德三街","SECT":" ","MAREA":" ","LANE":"２６巷","ALLEY":" ","HOUSE_NO":"７號","E_COORD97":173260.84,"N_COORD97":2541017.7599999998,"ADDRESS":"仁德三街２６巷７號","OBJECTID":273793},"geometry":{"x":173260.84000000171,"y":2541017.7599999998}},{"attributes":{"ID":273799,"DIS_CODE":0,"TOWNNAME":"仁德區","LI":"仁德里","LIN":"7鄰","STREET":"仁德三街","SECT":" ","MAREA":" ","LANE":"２６巷","ALLEY":" ","HOUSE_NO":"９號","E_COORD97":173261.70000000001,"N_COORD97":2541013.0099999998,"ADDRESS":"仁德三街２６巷９號","OBJECTID":273794},"geometry":{"x":173261.70000000019,"y":2541013.0099999998}},{"attributes":{"ID":273800,"DIS_CODE":0,"TOWNNAME":"安南區","LI":"新順里","LIN":"7鄰","STREET":"北安路","SECT":"三段","MAREA":" ","LANE":"７４５巷","ALLEY":" ","HOUSE_NO":"３２號","E_COORD97":169075.69,"N_COORD97":2549989.4199999999,"ADDRESS":"北安路三段７４５巷３２號","OBJECTID":273795},"geometry":{"x":169075.69000000134,"y":2549989.4200000018}},{"attributes":{"ID":273801,"DIS_CODE":0,"TOWNNAME":"安南區","LI":"州北里","LIN":"7鄰","STREET":"安和路","SECT":"五段","MAREA":" ","LANE":"３３６巷","ALLEY":" ","HOUSE_NO":"１５號","E_COORD97":169724.45000000001,"N_COORD97":2552232.71,"ADDRESS":"安和路五段３３６巷１５號","OBJECTID":273796},"geometry":{"x":169724.45000000112,"y":2552232.7100000028}},{"attributes":{"ID":273802,"DIS_CODE":0,"TOWNNAME":"東區","LI":"崇明里","LIN":"7鄰","STREET":"大同路","SECT":"二段","MAREA":" ","LANE":"４４９巷","ALLEY":" ","HOUSE_NO":"１０號","E_COORD97":169655.75,"N_COORD97":2541312.4100000001,"ADDRESS":"大同路二段４４９巷１０號","OBJECTID":273797},"geometry":{"x":169655.75,"y":2541312.4100000001}},{"attributes":{"ID":273803,"DIS_CODE":0,"TOWNNAME":"東區","LI":"崇明里","LIN":"7鄰","STREET":"大同路","SECT":"二段","MAREA":" ","LANE":"４４９巷","ALLEY":" ","HOUSE_NO":"１２號","E_COORD97":169661.26999999999,"N_COORD97":2541314.5899999999,"ADDRESS":"大同路二段４４９巷１２號","OBJECTID":273798},"geometry":{"x":169661.26999999955,"y":2541314.5900000036}},{"attributes":{"ID":273804,"DIS_CODE":0,"TOWNNAME":"仁德區","LI":"仁德里","LIN":"3鄰","STREET":"仁中七街","SECT":" ","MAREA":" ","LANE":" ","ALLEY":" ","HOUSE_NO":"１６８號","E_COORD97":173302.04000000001,"N_COORD97":2540380.25,"ADDRESS":"仁中七街１６８號","OBJECTID":273799},"geometry":{"x":173302.0400000019,"y":2540380.25}},{"attributes":{"ID":273805,"DIS_CODE":0,"TOWNNAME":"東區","LI":"崇明里","LIN":"7鄰","STREET":"大同路","SECT":"二段","MAREA":" ","LANE":"４４９巷","ALLEY":" ","HOUSE_NO":"１４號","E_COORD97":169666.29999999999,"N_COORD97":2541318.1000000001,"ADDRESS":"大同路二段４４９巷１４號","OBJECTID":273800},"geometry":{"x":169666.30000000075,"y":2541318.1000000015}}]}