{"displayFieldName":"TOWNNAME","fieldAliases":{"ID":"ID","DIS_CODE":"DIS_CODE","TOWNNAME":"TOWNNAME","LI":"LI","LIN":"LIN","STREET":"STREET","SECT":"SECT","MAREA":"MAREA","LANE":"LANE","ALLEY":"ALLEY","HOUSE_NO":"HOUSE_NO","E_COORD97":"E_COORD97","N_COORD97":"N_COORD97","ADDRESS":"ADDRESS","OBJECTID":"OBJECTID"},"geometryType":"esriGeometryPoint","spatialReference":{"wkid":102443,"latestWkid":3826},"fields":[{"name":"ID","type":"esriFieldTypeDouble","alias":"ID"},{"name":"DIS_CODE","type":"esriFieldTypeInteger","alias":"DIS_CODE"},{"name":"TOWNNAME","type":"esriFieldTypeString","alias":"TOWNNAME","length":8},{"name":"LI","type":"esriFieldTypeString","alias":"LI","length":8},{"name":"LIN","type":"esriFieldTypeString","alias":"LIN","length":12},{"name":"STREET","type":"esriFieldTypeString","alias":"STREET","length":20},{"name":"SECT","type":"esriFieldTypeString","alias":"SECT","length":8},{"name":"MAREA","type":"esriFieldTypeString","alias":"MAREA","length":12},{"name":"LANE","type":"esriFieldTypeString","alias":"LANE","length":10},{"name":"ALLEY","type":"esriFieldTypeString","alias":"ALLEY","length":10},{"name":"HOUSE_NO","type":"esriFieldTypeString","alias":"HOUSE_NO","length":20},{"name":"E_COORD97","type":"esriFieldTypeDouble","alias":"E_COORD97"},{"name":"N_COORD97","type":"esriFieldTypeDouble","alias":"N_COORD97"},{"name":"ADDRESS","type":"esriFieldTypeString","alias":"ADDRESS","length":50},{"name":"OBJECTID","type":"esriFieldTypeOID","alias":"OBJECTID"}],"features":[{"attributes":{"ID":510228,"DIS_CODE":0,"TOWNNAME":"新市區","LI":"港墘里","LIN":"1鄰","STREET":"民族路","SECT":" ","MAREA":" ","LANE":" ","ALLEY":" ","HOUSE_NO":"４２號","E_COORD97":178559.87,"N_COORD97":2553870.79,"ADDRESS":"民族路４２號","OBJECTID":510201},"geometry":{"x":178559.87000000011,"y":2553870.790000001}},{"attributes":{"ID":510229,"DIS_CODE":0,"TOWNNAME":"南區","LI":"田寮里","LIN":"17鄰","STREET":"西門路","SECT":"一段","MAREA":" ","LANE":" ","ALLEY":" ","HOUSE_NO":"２８９號","E_COORD97":167713.87,"N_COORD97":2541957.29,"ADDRESS":"西門路一段２８９號","OBJECTID":510202},"geometry":{"x":167713.87000000011,"y":2541957.290000001}},{"attributes":{"ID":510230,"DIS_CODE":0,"TOWNNAME":"安南區","LI":"鳳凰里","LIN":"1鄰","STREET":"怡安路","SECT":"二段","MAREA":" ","LANE":" ","ALLEY":" ","HOUSE_NO":"６３號","E_COORD97":168279.32999999999,"N_COORD97":2549261.5800000001,"ADDRESS":"怡安路二段６３號","OBJECTID":510203},"geometry":{"x":168279.33000000101,"y":2549261.5800000001}},{"attributes":{"ID":510231,"DIS_CODE":0,"TOWNNAME":"安南區","LI":"鳳凰里","LIN":"1鄰","STREET":"怡安路","SECT":"二段","MAREA":" ","LANE":" ","ALLEY":" ","HOUSE_NO":"６７號","E_COORD97":168270.82000000001,"N_COORD97":2549263.9700000002,"ADDRESS":"怡安路二段６７號","OBJECTID":510204},"geometry":{"x":168270.82000000216,"y":2549263.9700000025}},{"attributes":{"ID":510232,"DIS_CODE":0,"TOWNNAME":"安南區","LI":"鳳凰里","LIN":"1鄰","STREET":"怡安路","SECT":"二段","MAREA":" ","LANE":" ","ALLEY":" ","HOUSE_NO":"６９號","E_COORD97":168266.75,"N_COORD97":2549265.1699999999,"ADDRESS":"怡安路二段６９號","OBJECTID":510205},"geometry":{"x":168266.75,"y":2549265.1700000018}},{"attributes":{"ID":510233,"DIS_CODE":0,"TOWNNAME":"南區","LI":"佛壇里","LIN":"15鄰","STREET":"興南街","SECT":" ","MAREA":" ","LANE":" ","ALLEY":" ","HOUSE_NO":"２４９號之４","E_COORD97":166026.66,"N_COORD97":2535599.9399999999,"ADDRESS":"興南街２４９號之４","OBJECTID":510206},"geometry":{"x":166026.66000000015,"y":2535599.9400000013}},{"attributes":{"ID":510234,"DIS_CODE":0,"TOWNNAME":"南區","LI":"佛壇里","LIN":"15鄰","STREET":"興南街","SECT":" ","MAREA":" ","LANE":" ","ALLEY":" ","HOUSE_NO":"２５９號之１","E_COORD97":166055.70999999999,"N_COORD97":2535559.4100000001,"ADDRESS":"興南街２５９號之１","OBJECTID":510207},"geometry":{"x":166055.71000000089,"y":2535559.4100000039}},{"attributes":{"ID":510235,"DIS_CODE":0,"TOWNNAME":"南區","LI":"佛壇里","LIN":"15鄰","STREET":"興南街","SECT":" ","MAREA":" ","LANE":" ","ALLEY":" ","HOUSE_NO":"２４９號之３","E_COORD97":166027.64000000001,"N_COORD97":2535610.9300000002,"ADDRESS":"興南街２４９號之３","OBJECTID":510208},"geometry":{"x":166027.6400000006,"y":2535610.9300000016}},{"attributes":{"ID":510236,"DIS_CODE":0,"TOWNNAME":"安南區","LI":"溪北里","LIN":"1鄰","STREET":"安和路","SECT":"一段","MAREA":" ","LANE":" ","ALLEY":" ","HOUSE_NO":"１０５之１號","E_COORD97":169460.20000000001,"N_COORD97":2547612.75,"ADDRESS":"安和路一段１０５之１號","OBJECTID":510209},"geometry":{"x":169460.20000000112,"y":2547612.7499999981}},{"attributes":{"ID":510237,"DIS_CODE":0,"TOWNNAME":"安南區","LI":"城北里","LIN":"1鄰","STREET":"城北路","SECT":" ","MAREA":" ","LANE":" ","ALLEY":" ","HOUSE_NO":"１６號","E_COORD97":160876.20999999999,"N_COORD97":2551487,"ADDRESS":"城北路１６號","OBJECTID":510210},"geometry":{"x":160876.20999999996,"y":2551487.0000000019}},{"attributes":{"ID":510238,"DIS_CODE":0,"TOWNNAME":"安南區","LI":"城南里","LIN":"1鄰","STREET":"城西街","SECT":"一段","MAREA":" ","LANE":" ","ALLEY":" ","HOUSE_NO":"８２之１號","E_COORD97":160674.98000000001,"N_COORD97":2551416.3599999999,"ADDRESS":"城西街一段８２之１號","OBJECTID":510211},"geometry":{"x":160674.98000000045,"y":2551416.3600000013}},{"attributes":{"ID":510239,"DIS_CODE":0,"TOWNNAME":"安南區","LI":"城南里","LIN":"1鄰","STREET":"城西街","SECT":"一段","MAREA":" ","LANE":" ","ALLEY":" ","HOUSE_NO":"８２之２號","E_COORD97":160672.20000000001,"N_COORD97":2551414.1400000001,"ADDRESS":"城西街一段８２之２號","OBJECTID":510212},"geometry":{"x":160672.20000000112,"y":2551414.1400000006}},{"attributes":{"ID":510240,"DIS_CODE":0,"TOWNNAME":"安南區","LI":"州南里","LIN":"1鄰","STREET":"安和路","SECT":"四段","MAREA":" ","LANE":" ","ALLEY":" ","HOUSE_NO":"４１２號","E_COORD97":169959.20000000001,"N_COORD97":2551059.3500000001,"ADDRESS":"安和路四段４１２號","OBJECTID":510213},"geometry":{"x":169959.20000000019,"y":2551059.3499999996}},{"attributes":{"ID":510241,"DIS_CODE":0,"TOWNNAME":"安南區","LI":"州南里","LIN":"1鄰","STREET":"安和路","SECT":"四段","MAREA":" ","LANE":" ","ALLEY":" ","HOUSE_NO":"４１６號","E_COORD97":169962.85999999999,"N_COORD97":2551071,"ADDRESS":"安和路四段４１６號","OBJECTID":510214},"geometry":{"x":169962.86000000127,"y":2551071.0000000019}},{"attributes":{"ID":510242,"DIS_CODE":0,"TOWNNAME":"安南區","LI":"安順里","LIN":"1鄰","STREET":"安和路","SECT":"四段","MAREA":" ","LANE":" ","ALLEY":" ","HOUSE_NO":"９號","E_COORD97":169943.79999999999,"N_COORD97":2550114.8900000001,"ADDRESS":"安和路四段９號","OBJECTID":510215},"geometry":{"x":169943.80000000075,"y":2550114.8900000043}},{"attributes":{"ID":510243,"DIS_CODE":0,"TOWNNAME":"東區","LI":"裕聖里","LIN":"1鄰","STREET":"裕文路","SECT":" ","MAREA":" ","LANE":" ","ALLEY":" ","HOUSE_NO":"１００號","E_COORD97":172319.16,"N_COORD97":2542537.98,"ADDRESS":"裕文路１００號","OBJECTID":510216},"geometry":{"x":172319.16000000015,"y":2542537.9800000023}},{"attributes":{"ID":510244,"DIS_CODE":0,"TOWNNAME":"東區","LI":"裕聖里","LIN":"1鄰","STREET":"裕文路","SECT":" ","MAREA":" ","LANE":" ","ALLEY":" ","HOUSE_NO":"１０２號","E_COORD97":172323.26000000001,"N_COORD97":2542535.7799999998,"ADDRESS":"裕文路１０２號","OBJECTID":510217},"geometry":{"x":172323.25999999978,"y":2542535.7799999993}},{"attributes":{"ID":510245,"DIS_CODE":0,"TOWNNAME":"東區","LI":"裕聖里","LIN":"1鄰","STREET":"裕文路","SECT":" ","MAREA":" ","LANE":" ","ALLEY":" ","HOUSE_NO":"１０６號","E_COORD97":172328.10000000001,"N_COORD97":2542534.75,"ADDRESS":"裕文路１０６號","OBJECTID":510218},"geometry":{"x":172328.10000000149,"y":2542534.7500000019}},{"attributes":{"ID":510246,"DIS_CODE":0,"TOWNNAME":"東區","LI":"裕聖里","LIN":"1鄰","STREET":"裕文路","SECT":" ","MAREA":" ","LANE":" ","ALLEY":" ","HOUSE_NO":"７８號","E_COORD97":172275.75,"N_COORD97":2542540.46,"ADDRESS":"裕文路７８號","OBJECTID":510219},"geometry":{"x":172275.75000000093,"y":2542540.4600000046}},{"attributes":{"ID":510247,"DIS_CODE":0,"TOWNNAME":"東區","LI":"裕聖里","LIN":"1鄰","STREET":"裕文路","SECT":" ","MAREA":" ","LANE":" ","ALLEY":" ","HOUSE_NO":"８０號","E_COORD97":172281.73000000001,"N_COORD97":2542540.9199999999,"ADDRESS":"裕文路８０號","OBJECTID":510220},"geometry":{"x":172281.73000000045,"y":2542540.9200000018}},{"attributes":{"ID":510248,"DIS_CODE":0,"TOWNNAME":"東區","LI":"裕聖里","LIN":"1鄰","STREET":"裕文路","SECT":" ","MAREA":" ","LANE":" ","ALLEY":" ","HOUSE_NO":"８６號","E_COORD97":172292.42999999999,"N_COORD97":2542538.4900000002,"ADDRESS":"裕文路８６號","OBJECTID":510221},"geometry":{"x":172292.43000000063,"y":2542538.4900000002}},{"attributes":{"ID":510249,"DIS_CODE":0,"TOWNNAME":"東區","LI":"裕聖里","LIN":"1鄰","STREET":"裕文路","SECT":" ","MAREA":" ","LANE":" ","ALLEY":" ","HOUSE_NO":"８８號","E_COORD97":172296.07999999999,"N_COORD97":2542541.8900000001,"ADDRESS":"裕文路８８號","OBJECTID":510222},"geometry":{"x":172296.08000000007,"y":2542541.8900000025}},{"attributes":{"ID":510250,"DIS_CODE":0,"TOWNNAME":"東區","LI":"裕聖里","LIN":"1鄰","STREET":"裕文路","SECT":" ","MAREA":" ","LANE":" ","ALLEY":" ","HOUSE_NO":"９０號","E_COORD97":172300.45999999999,"N_COORD97":2542538.9700000002,"ADDRESS":"裕文路９０號","OBJECTID":510223},"geometry":{"x":172300.45999999996,"y":2542538.9700000007}},{"attributes":{"ID":510251,"DIS_CODE":0,"TOWNNAME":"東區","LI":"裕聖里","LIN":"1鄰","STREET":"裕文路","SECT":" ","MAREA":" ","LANE":" ","ALLEY":" ","HOUSE_NO":"９２號","E_COORD97":172304.60000000001,"N_COORD97":2542541.3999999999,"ADDRESS":"裕文路９２號","OBJECTID":510224},"geometry":{"x":172304.60000000056,"y":2542541.4000000022}},{"attributes":{"ID":510252,"DIS_CODE":0,"TOWNNAME":"東區","LI":"裕聖里","LIN":"1鄰","STREET":"裕文路","SECT":" ","MAREA":" ","LANE":" ","ALLEY":" ","HOUSE_NO":"９６號","E_COORD97":172310.07000000001,"N_COORD97":2542538.71,"ADDRESS":"裕文路９６號","OBJECTID":510225},"geometry":{"x":172310.0700000003,"y":2542538.7100000046}},{"attributes":{"ID":510253,"DIS_CODE":0,"TOWNNAME":"東區","LI":"裕聖里","LIN":"1鄰","STREET":"裕文路","SECT":" ","MAREA":" ","LANE":" ","ALLEY":" ","HOUSE_NO":"９８號","E_COORD97":172314.17000000001,"N_COORD97":2542540.1699999999,"ADDRESS":"裕文路９８號","OBJECTID":510226},"geometry":{"x":172314.16999999993,"y":2542540.1699999999}},{"attributes":{"ID":510254,"DIS_CODE":0,"TOWNNAME":"東區","LI":"裕聖里","LIN":"1鄰","STREET":"裕忠一街","SECT":" ","MAREA":" ","LANE":" ","ALLEY":" ","HOUSE_NO":"１１號","E_COORD97":172293.29999999999,"N_COORD97":2542422.0099999998,"ADDRESS":"裕忠一街１１號","OBJECTID":510227},"geometry":{"x":172293.30000000075,"y":2542422.0099999998}},{"attributes":{"ID":510255,"DIS_CODE":0,"TOWNNAME":"安南區","LI":"布袋里","LIN":"1鄰","STREET":"工明南二路","SECT":" ","MAREA":" ","LANE":" ","ALLEY":" ","HOUSE_NO":"１００號","E_COORD97":168539.34,"N_COORD97":2551096.2999999998,"ADDRESS":"工明南二路１００號","OBJECTID":510228},"geometry":{"x":168539.33999999985,"y":2551096.3000000026}},{"attributes":{"ID":510256,"DIS_CODE":0,"TOWNNAME":"安南區","LI":"鳳凰里","LIN":"1鄰","STREET":"怡安路","SECT":"二段","MAREA":" ","LANE":" ","ALLEY":" ","HOUSE_NO":"７３號","E_COORD97":168259.22647200001,"N_COORD97":2549267.0696,"ADDRESS":"怡安路二段７３號","OBJECTID":510229},"geometry":{"x":168259.22647200059,"y":2549267.0696000028}},{"attributes":{"ID":510257,"DIS_CODE":0,"TOWNNAME":"安南區","LI":"鳳凰里","LIN":"1鄰","STREET":"怡安路","SECT":"二段","MAREA":" ","LANE":" ","ALLEY":" ","HOUSE_NO":"７１號","E_COORD97":168263.77873200001,"N_COORD97":2549266.1700200001,"ADDRESS":"怡安路二段７１號","OBJECTID":510230},"geometry":{"x":168263.77873199899,"y":2549266.1700180024}},{"attributes":{"ID":510258,"DIS_CODE":0,"TOWNNAME":"安南區","LI":"鳳凰里","LIN":"1鄰","STREET":"怡安路","SECT":"二段","MAREA":" ","LANE":" ","ALLEY":" ","HOUSE_NO":"７５號","E_COORD97":168255.41527699999,"N_COORD97":2549268.4454299998,"ADDRESS":"怡安路二段７５號","OBJECTID":510231},"geometry":{"x":168255.41527700052,"y":2549268.445433002}},{"attributes":{"ID":510259,"DIS_CODE":0,"TOWNNAME":"安南區","LI":"鳳凰里","LIN":"1鄰","STREET":"怡安路","SECT":"二段","MAREA":" ","LANE":" ","ALLEY":" ","HOUSE_NO":"７７號","E_COORD97":168251.392349,"N_COORD97":2549269.1333499998,"ADDRESS":"怡安路二段７７號","OBJECTID":510232},"geometry":{"x":168251.39234900009,"y":2549269.1333489995}},{"attributes":{"ID":510260,"DIS_CODE":0,"TOWNNAME":"安南區","LI":"鳳凰里","LIN":"1鄰","STREET":"怡安路","SECT":"二段","MAREA":" ","LANE":" ","ALLEY":" ","HOUSE_NO":"７７之１號","E_COORD97":168247.31648800001,"N_COORD97":2549270.3504300001,"ADDRESS":"怡安路二段７７之１號","OBJECTID":510233},"geometry":{"x":168247.31648799963,"y":2549270.3504320011}},{"attributes":{"ID":510261,"DIS_CODE":0,"TOWNNAME":"安南區","LI":"鳳凰里","LIN":"1鄰","STREET":"怡安路","SECT":"二段","MAREA":" ","LANE":" ","ALLEY":" ","HOUSE_NO":"７７之２號","E_COORD97":168242.92302700001,"N_COORD97":2549271.1441799998,"ADDRESS":"怡安路二段７７之２號","OBJECTID":510234},"geometry":{"x":168242.92302700225,"y":2549271.1441810001}},{"attributes":{"ID":510262,"DIS_CODE":0,"TOWNNAME":"安南區","LI":"鳳凰里","LIN":"1鄰","STREET":"怡安路","SECT":"二段","MAREA":" ","LANE":" ","ALLEY":" ","HOUSE_NO":"７７之３號","E_COORD97":168238.58249999999,"N_COORD97":2549272.67876,"ADDRESS":"怡安路二段７７之３號","OBJECTID":510235},"geometry":{"x":168238.58250000142,"y":2549272.6787640005}},{"attributes":{"ID":510263,"DIS_CODE":0,"TOWNNAME":"安南區","LI":"鳳凰里","LIN":"1鄰","STREET":"怡安路","SECT":"二段","MAREA":" ","LANE":" ","ALLEY":" ","HOUSE_NO":"７７之７號","E_COORD97":168231.701176,"N_COORD97":2549274.6896000002,"ADDRESS":"怡安路二段７７之７號","OBJECTID":510236},"geometry":{"x":168231.70117600076,"y":2549274.6895960011}},{"attributes":{"ID":510264,"DIS_CODE":0,"TOWNNAME":"安南區","LI":"布袋里","LIN":"1鄰","STREET":"工明南二路","SECT":" ","MAREA":" ","LANE":" ","ALLEY":" ","HOUSE_NO":"９８號","E_COORD97":168551.41,"N_COORD97":2551092.4700000002,"ADDRESS":"工明南二路９８號","OBJECTID":510237},"geometry":{"x":168551.41000000201,"y":2551092.4700000007}},{"attributes":{"ID":510265,"DIS_CODE":0,"TOWNNAME":"安南區","LI":"布袋里","LIN":"1鄰","STREET":"工明三路","SECT":" ","MAREA":" ","LANE":" ","ALLEY":" ","HOUSE_NO":"２１號","E_COORD97":168507.51000000001,"N_COORD97":2551106.1899999999,"ADDRESS":"工明三路２１號","OBJECTID":510238},"geometry":{"x":168507.50999999978,"y":2551106.1900000013}},{"attributes":{"ID":510266,"DIS_CODE":0,"TOWNNAME":"安南區","LI":"布袋里","LIN":"1鄰","STREET":"工明三路","SECT":" ","MAREA":" ","LANE":" ","ALLEY":" ","HOUSE_NO":"２３號","E_COORD97":168515.76999999999,"N_COORD97":2551140.8199999998,"ADDRESS":"工明三路２３號","OBJECTID":510239},"geometry":{"x":168515.76999999955,"y":2551140.8200000003}},{"attributes":{"ID":510267,"DIS_CODE":0,"TOWNNAME":"安南區","LI":"布袋里","LIN":"1鄰","STREET":"工明南二路","SECT":" ","MAREA":" ","LANE":" ","ALLEY":" ","HOUSE_NO":"９６號","E_COORD97":168564.81,"N_COORD97":2551085.96,"ADDRESS":"工明南二路９６號","OBJECTID":510240},"geometry":{"x":168564.80999999959,"y":2551085.9600000009}},{"attributes":{"ID":510268,"DIS_CODE":0,"TOWNNAME":"安南區","LI":"布袋里","LIN":"1鄰","STREET":"工明五路","SECT":" ","MAREA":" ","LANE":" ","ALLEY":" ","HOUSE_NO":"８號","E_COORD97":168414.22,"N_COORD97":2551053.54,"ADDRESS":"工明五路８號","OBJECTID":510241},"geometry":{"x":168414.21999999974,"y":2551053.5399999991}},{"attributes":{"ID":510269,"DIS_CODE":0,"TOWNNAME":"安南區","LI":"布袋里","LIN":"1鄰","STREET":"工明三路","SECT":" ","MAREA":" ","LANE":" ","ALLEY":" ","HOUSE_NO":"１３號","E_COORD97":168494.87,"N_COORD97":2551074.3300000001,"ADDRESS":"工明三路１３號","OBJECTID":510242},"geometry":{"x":168494.87000000011,"y":2551074.3300000038}},{"attributes":{"ID":510270,"DIS_CODE":0,"TOWNNAME":"安南區","LI":"安順里","LIN":"1鄰","STREET":"總安街","SECT":"一段","MAREA":" ","LANE":" ","ALLEY":" ","HOUSE_NO":"２之１號","E_COORD97":169932.5,"N_COORD97":2550108.2200000002,"ADDRESS":"總安街一段２之１號","OBJECTID":510243},"geometry":{"x":169932.50000000093,"y":2550108.2200000007}},{"attributes":{"ID":510271,"DIS_CODE":0,"TOWNNAME":"安南區","LI":"布袋里","LIN":"1鄰","STREET":"工明南一路","SECT":" ","MAREA":" ","LANE":" ","ALLEY":" ","HOUSE_NO":"９８號","E_COORD97":168582.34,"N_COORD97":2551186.0099999998,"ADDRESS":"工明南一路９８號","OBJECTID":510244},"geometry":{"x":168582.34000000078,"y":2551186.0100000016}},{"attributes":{"ID":510272,"DIS_CODE":0,"TOWNNAME":"安南區","LI":"城北里","LIN":"1鄰","STREET":"安中路","SECT":"六段","MAREA":" ","LANE":" ","ALLEY":" ","HOUSE_NO":"７１０號","E_COORD97":160692.35999999999,"N_COORD97":2551742.6000000001,"ADDRESS":"安中路六段７１０號","OBJECTID":510245},"geometry":{"x":160692.36000000034,"y":2551742.5999999996}},{"attributes":{"ID":510273,"DIS_CODE":0,"TOWNNAME":"南區","LI":"文南里","LIN":"24鄰","STREET":"育南街","SECT":" ","MAREA":" ","LANE":" ","ALLEY":" ","HOUSE_NO":"７８號","E_COORD97":166887.95000000001,"N_COORD97":2542778.54,"ADDRESS":"育南街７８號","OBJECTID":510246},"geometry":{"x":166887.95000000019,"y":2542778.5399999972}},{"attributes":{"ID":510274,"DIS_CODE":0,"TOWNNAME":"安南區","LI":"布袋里","LIN":"1鄰","STREET":"工明南一路","SECT":" ","MAREA":" ","LANE":" ","ALLEY":" ","HOUSE_NO":"１號","E_COORD97":169024.23999999999,"N_COORD97":2551026.3799999999,"ADDRESS":"工明南一路１號","OBJECTID":510247},"geometry":{"x":169024.24000000115,"y":2551026.3800000008}},{"attributes":{"ID":510275,"DIS_CODE":0,"TOWNNAME":"安南區","LI":"布袋里","LIN":"1鄰","STREET":"工明三路","SECT":" ","MAREA":" ","LANE":" ","ALLEY":" ","HOUSE_NO":"１２號","E_COORD97":168530.54000000001,"N_COORD97":2551060.6200000001,"ADDRESS":"工明三路１２號","OBJECTID":510248},"geometry":{"x":168530.54000000097,"y":2551060.6200000029}},{"attributes":{"ID":510276,"DIS_CODE":0,"TOWNNAME":"安南區","LI":"布袋里","LIN":"1鄰","STREET":"工明南一路","SECT":" ","MAREA":" ","LANE":" ","ALLEY":" ","HOUSE_NO":"８８號","E_COORD97":168654.29999999999,"N_COORD97":2551167.2000000002,"ADDRESS":"工明南一路８８號","OBJECTID":510249},"geometry":{"x":168654.30000000075,"y":2551167.2000000011}},{"attributes":{"ID":510277,"DIS_CODE":0,"TOWNNAME":"安南區","LI":"布袋里","LIN":"1鄰","STREET":"工明南一路","SECT":" ","MAREA":" ","LANE":" ","ALLEY":" ","HOUSE_NO":"７２號","E_COORD97":168711.92000000001,"N_COORD97":2551151.2999999998,"ADDRESS":"工明南一路７２號","OBJECTID":510250},"geometry":{"x":168711.91999999993,"y":2551151.3000000007}},{"attributes":{"ID":510278,"DIS_CODE":0,"TOWNNAME":"安南區","LI":"布袋里","LIN":"1鄰","STREET":"工明路","SECT":" ","MAREA":" ","LANE":" ","ALLEY":" ","HOUSE_NO":"９１號","E_COORD97":168888.76000000001,"N_COORD97":2551173.9300000002,"ADDRESS":"工明路９１號","OBJECTID":510251},"geometry":{"x":168888.75999999978,"y":2551173.9299999997}},{"attributes":{"ID":510279,"DIS_CODE":0,"TOWNNAME":"安南區","LI":"布袋里","LIN":"1鄰","STREET":"工明南三路","SECT":" ","MAREA":" ","LANE":" ","ALLEY":" ","HOUSE_NO":"１６０號","E_COORD97":168812.76000000001,"N_COORD97":2550906.52,"ADDRESS":"工明南三路１６０號","OBJECTID":510252},"geometry":{"x":168812.75999999978,"y":2550906.5200000014}},{"attributes":{"ID":510280,"DIS_CODE":0,"TOWNNAME":"安南區","LI":"布袋里","LIN":"1鄰","STREET":"工明南二路","SECT":" ","MAREA":" ","LANE":" ","ALLEY":" ","HOUSE_NO":"３９號","E_COORD97":168818.78,"N_COORD97":2550990.3199999998,"ADDRESS":"工明南二路３９號","OBJECTID":510253},"geometry":{"x":168818.78000000119,"y":2550990.3200000022}},{"attributes":{"ID":510281,"DIS_CODE":0,"TOWNNAME":"安南區","LI":"布袋里","LIN":"1鄰","STREET":"工明二路","SECT":" ","MAREA":" ","LANE":" ","ALLEY":" ","HOUSE_NO":"４６號","E_COORD97":168778.32000000001,"N_COORD97":2551084.8599999999,"ADDRESS":"工明二路４６號","OBJECTID":510254},"geometry":{"x":168778.32000000123,"y":2551084.8600000013}},{"attributes":{"ID":510282,"DIS_CODE":0,"TOWNNAME":"安南區","LI":"布袋里","LIN":"1鄰","STREET":"工明三路","SECT":" ","MAREA":" ","LANE":" ","ALLEY":" ","HOUSE_NO":"９號","E_COORD97":168491.03,"N_COORD97":2551048.5600000001,"ADDRESS":"工明三路９號","OBJECTID":510255},"geometry":{"x":168491.03000000026,"y":2551048.5600000005}},{"attributes":{"ID":510283,"DIS_CODE":0,"TOWNNAME":"安南區","LI":"布袋里","LIN":"1鄰","STREET":"工明南一路","SECT":" ","MAREA":" ","LANE":" ","ALLEY":" ","HOUSE_NO":"５５號","E_COORD97":168858.72,"N_COORD97":2551079.6499999999,"ADDRESS":"工明南一路５５號","OBJECTID":510256},"geometry":{"x":168858.71999999974,"y":2551079.6500000022}},{"attributes":{"ID":510284,"DIS_CODE":0,"TOWNNAME":"安南區","LI":"布袋里","LIN":"1鄰","STREET":"工明南一路","SECT":" ","MAREA":" ","LANE":" ","ALLEY":" ","HOUSE_NO":"５７號","E_COORD97":168850.94,"N_COORD97":2551082.98,"ADDRESS":"工明南一路５７號","OBJECTID":510257},"geometry":{"x":168850.94000000041,"y":2551082.9800000004}},{"attributes":{"ID":510285,"DIS_CODE":0,"TOWNNAME":"安南區","LI":"布袋里","LIN":"1鄰","STREET":"工明南二路","SECT":" ","MAREA":" ","LANE":" ","ALLEY":" ","HOUSE_NO":"１４１號","E_COORD97":168609.81,"N_COORD97":2551045.8100000001,"ADDRESS":"工明南二路１４１號","OBJECTID":510258},"geometry":{"x":168609.81000000052,"y":2551045.8100000024}},{"attributes":{"ID":510286,"DIS_CODE":0,"TOWNNAME":"安南區","LI":"布袋里","LIN":"1鄰","STREET":"工明南三路","SECT":" ","MAREA":" ","LANE":" ","ALLEY":" ","HOUSE_NO":"２７８號","E_COORD97":168565.13,"N_COORD97":2550976.8199999998,"ADDRESS":"工明南三路２７８號","OBJECTID":510259},"geometry":{"x":168565.13000000082,"y":2550976.8200000022}},{"attributes":{"ID":510287,"DIS_CODE":0,"TOWNNAME":"安南區","LI":"布袋里","LIN":"1鄰","STREET":"工明二路","SECT":" ","MAREA":" ","LANE":" ","ALLEY":" ","HOUSE_NO":"４５號","E_COORD97":168737.70999999999,"N_COORD97":2551111.1699999999,"ADDRESS":"工明二路４５號","OBJECTID":510260},"geometry":{"x":168737.71000000089,"y":2551111.1699999999}},{"attributes":{"ID":510288,"DIS_CODE":0,"TOWNNAME":"安南區","LI":"布袋里","LIN":"1鄰","STREET":"工明南一路","SECT":" ","MAREA":" ","LANE":" ","ALLEY":" ","HOUSE_NO":"２７號","E_COORD97":168934.23000000001,"N_COORD97":2551057.46,"ADDRESS":"工明南一路２７號","OBJECTID":510261},"geometry":{"x":168934.22999999952,"y":2551057.4600000028}},{"attributes":{"ID":510289,"DIS_CODE":0,"TOWNNAME":"安南區","LI":"布袋里","LIN":"1鄰","STREET":"工明三路","SECT":" ","MAREA":" ","LANE":" ","ALLEY":" ","HOUSE_NO":"２８號","E_COORD97":168549.76999999999,"N_COORD97":2551120.9700000002,"ADDRESS":"工明三路２８號","OBJECTID":510262},"geometry":{"x":168549.76999999955,"y":2551120.9699999988}},{"attributes":{"ID":510290,"DIS_CODE":0,"TOWNNAME":"安南區","LI":"布袋里","LIN":"1鄰","STREET":"工明南一路","SECT":" ","MAREA":" ","LANE":" ","ALLEY":" ","HOUSE_NO":"５３號","E_COORD97":168879.26000000001,"N_COORD97":2551074.1000000001,"ADDRESS":"工明南一路５３號","OBJECTID":510263},"geometry":{"x":168879.26000000164,"y":2551074.0999999996}},{"attributes":{"ID":510291,"DIS_CODE":0,"TOWNNAME":"安南區","LI":"布袋里","LIN":"1鄰","STREET":"工明南二路","SECT":" ","MAREA":" ","LANE":" ","ALLEY":" ","HOUSE_NO":"１８１號","E_COORD97":168462.48999999999,"N_COORD97":2551087.4900000002,"ADDRESS":"工明南二路１８１號","OBJECTID":510264},"geometry":{"x":168462.49000000022,"y":2551087.4900000021}},{"attributes":{"ID":510292,"DIS_CODE":0,"TOWNNAME":"安南區","LI":"布袋里","LIN":"1鄰","STREET":"工明南一路","SECT":" ","MAREA":" ","LANE":" ","ALLEY":" ","HOUSE_NO":"１３８號","E_COORD97":168497.13,"N_COORD97":2551214.3799999999,"ADDRESS":"工明南一路１３８號","OBJECTID":510265},"geometry":{"x":168497.13000000175,"y":2551214.379999999}},{"attributes":{"ID":510293,"DIS_CODE":0,"TOWNNAME":"安南區","LI":"布袋里","LIN":"1鄰","STREET":"工明二路","SECT":" ","MAREA":" ","LANE":" ","ALLEY":" ","HOUSE_NO":"５６號","E_COORD97":168790.39000000001,"N_COORD97":2551144.0600000001,"ADDRESS":"工明二路５６號","OBJECTID":510266},"geometry":{"x":168790.3900000006,"y":2551144.0600000042}},{"attributes":{"ID":510294,"DIS_CODE":0,"TOWNNAME":"安南區","LI":"布袋里","LIN":"1鄰","STREET":"工明二路","SECT":" ","MAREA":" ","LANE":" ","ALLEY":" ","HOUSE_NO":"５８號","E_COORD97":168793.67999999999,"N_COORD97":2551153.3799999999,"ADDRESS":"工明二路５８號","OBJECTID":510267},"geometry":{"x":168793.68000000063,"y":2551153.379999999}},{"attributes":{"ID":510295,"DIS_CODE":0,"TOWNNAME":"安南區","LI":"布袋里","LIN":"1鄰","STREET":"工明二路","SECT":" ","MAREA":" ","LANE":" ","ALLEY":" ","HOUSE_NO":"６０號","E_COORD97":168797.53,"N_COORD97":2551162.7000000002,"ADDRESS":"工明二路６０號","OBJECTID":510268},"geometry":{"x":168797.53000000026,"y":2551162.7000000011}},{"attributes":{"ID":510296,"DIS_CODE":0,"TOWNNAME":"安南區","LI":"布袋里","LIN":"1鄰","STREET":"工明南二路","SECT":" ","MAREA":" ","LANE":" ","ALLEY":" ","HOUSE_NO":"６號","E_COORD97":168933.98000000001,"N_COORD97":2550979.6000000001,"ADDRESS":"工明南二路６號","OBJECTID":510269},"geometry":{"x":168933.98000000045,"y":2550979.5999999996}},{"attributes":{"ID":510297,"DIS_CODE":0,"TOWNNAME":"安南區","LI":"布袋里","LIN":"1鄰","STREET":"工明南二路","SECT":" ","MAREA":" ","LANE":" ","ALLEY":" ","HOUSE_NO":"１８７號","E_COORD97":168429.01999999999,"N_COORD97":2551095.71,"ADDRESS":"工明南二路１８７號","OBJECTID":510270},"geometry":{"x":168429.01999999955,"y":2551095.7100000009}},{"attributes":{"ID":510298,"DIS_CODE":0,"TOWNNAME":"安南區","LI":"布袋里","LIN":"1鄰","STREET":"工明南三路","SECT":" ","MAREA":" ","LANE":" ","ALLEY":" ","HOUSE_NO":"１６２號","E_COORD97":168797.70999999999,"N_COORD97":2550908.77,"ADDRESS":"工明南三路１６２號","OBJECTID":510271},"geometry":{"x":168797.70999999996,"y":2550908.7700000014}},{"attributes":{"ID":510299,"DIS_CODE":0,"TOWNNAME":"安南區","LI":"淵中里","LIN":"1鄰","STREET":"樂安一街","SECT":" ","MAREA":" ","LANE":" ","ALLEY":" ","HOUSE_NO":"１８０號","E_COORD97":165669.98999999999,"N_COORD97":2549839.0600000001,"ADDRESS":"樂安一街１８０號","OBJECTID":510272},"geometry":{"x":165669.99000000022,"y":2549839.0600000042}},{"attributes":{"ID":510300,"DIS_CODE":0,"TOWNNAME":"安南區","LI":"布袋里","LIN":"1鄰","STREET":"工明南二路","SECT":" ","MAREA":" ","LANE":" ","ALLEY":" ","HOUSE_NO":"９０號","E_COORD97":168582.92000000001,"N_COORD97":2551082.1200000001,"ADDRESS":"工明南二路９０號","OBJECTID":510273},"geometry":{"x":168582.91999999993,"y":2551082.120000001}},{"attributes":{"ID":510301,"DIS_CODE":0,"TOWNNAME":"安南區","LI":"布袋里","LIN":"1鄰","STREET":"工明南二路","SECT":" ","MAREA":" ","LANE":" ","ALLEY":" ","HOUSE_NO":"９２號","E_COORD97":168574.69,"N_COORD97":2551083.77,"ADDRESS":"工明南二路９２號","OBJECTID":510274},"geometry":{"x":168574.69000000041,"y":2551083.7699999996}},{"attributes":{"ID":510302,"DIS_CODE":0,"TOWNNAME":"安南區","LI":"布袋里","LIN":"1鄰","STREET":"工明南二路","SECT":" ","MAREA":" ","LANE":" ","ALLEY":" ","HOUSE_NO":"８號","E_COORD97":168895.91,"N_COORD97":2550991.6099999999,"ADDRESS":"工明南二路８號","OBJECTID":510275},"geometry":{"x":168895.91000000108,"y":2550991.6100000013}},{"attributes":{"ID":510303,"DIS_CODE":0,"TOWNNAME":"安南區","LI":"布袋里","LIN":"1鄰","STREET":"工明南二路","SECT":" ","MAREA":" ","LANE":" ","ALLEY":" ","HOUSE_NO":"２號","E_COORD97":168944,"N_COORD97":2550976.9300000002,"ADDRESS":"工明南二路２號","OBJECTID":510276},"geometry":{"x":168944.00000000186,"y":2550976.9299999997}},{"attributes":{"ID":510304,"DIS_CODE":0,"TOWNNAME":"安南區","LI":"布袋里","LIN":"1鄰","STREET":"工明南一路","SECT":" ","MAREA":" ","LANE":" ","ALLEY":" ","HOUSE_NO":"７８號","E_COORD97":168692.70999999999,"N_COORD97":2551154.04,"ADDRESS":"工明南一路７８號","OBJECTID":510277},"geometry":{"x":168692.70999999996,"y":2551154.040000001}},{"attributes":{"ID":510305,"DIS_CODE":0,"TOWNNAME":"安南區","LI":"布袋里","LIN":"1鄰","STREET":"工明三路","SECT":" ","MAREA":" ","LANE":" ","ALLEY":" ","HOUSE_NO":"５３號","E_COORD97":168560.20000000001,"N_COORD97":2551288.6099999999,"ADDRESS":"工明三路５３號","OBJECTID":510278},"geometry":{"x":168560.20000000112,"y":2551288.6100000031}},{"attributes":{"ID":510306,"DIS_CODE":0,"TOWNNAME":"安南區","LI":"布袋里","LIN":"1鄰","STREET":"工明南三路","SECT":" ","MAREA":" ","LANE":" ","ALLEY":" ","HOUSE_NO":"２６８號","E_COORD97":168590.70999999999,"N_COORD97":2550970.8100000001,"ADDRESS":"工明南三路２６８號","OBJECTID":510279},"geometry":{"x":168590.71000000089,"y":2550970.8100000024}},{"attributes":{"ID":510307,"DIS_CODE":0,"TOWNNAME":"安南區","LI":"布袋里","LIN":"1鄰","STREET":"工明南二路","SECT":" ","MAREA":" ","LANE":" ","ALLEY":" ","HOUSE_NO":"１３１號","E_COORD97":168622.95999999999,"N_COORD97":2551042.9500000002,"ADDRESS":"工明南二路１３１號","OBJECTID":510280},"geometry":{"x":168622.95999999996,"y":2551042.9500000011}},{"attributes":{"ID":510308,"DIS_CODE":0,"TOWNNAME":"安南區","LI":"布袋里","LIN":"1鄰","STREET":"工明三路","SECT":" ","MAREA":" ","LANE":" ","ALLEY":" ","HOUSE_NO":"６６號","E_COORD97":168588.64000000001,"N_COORD97":2551273.5899999999,"ADDRESS":"工明三路６６號","OBJECTID":510281},"geometry":{"x":168588.6400000006,"y":2551273.5900000017}},{"attributes":{"ID":510309,"DIS_CODE":0,"TOWNNAME":"安南區","LI":"梅花里","LIN":"1鄰","STREET":"安中路","SECT":"一段","MAREA":" ","LANE":" ","ALLEY":" ","HOUSE_NO":"５８５號","E_COORD97":167932.22,"N_COORD97":2549010.1200000001,"ADDRESS":"安中路一段５８５號","OBJECTID":510282},"geometry":{"x":167932.22000000067,"y":2549010.120000001}},{"attributes":{"ID":510310,"DIS_CODE":0,"TOWNNAME":"安南區","LI":"布袋里","LIN":"1鄰","STREET":"工明路","SECT":" ","MAREA":" ","LANE":" ","ALLEY":" ","HOUSE_NO":"２０５號","E_COORD97":168620.37,"N_COORD97":2551298.4100000001,"ADDRESS":"工明路２０５號","OBJECTID":510283},"geometry":{"x":168620.37000000011,"y":2551298.410000002}},{"attributes":{"ID":510311,"DIS_CODE":0,"TOWNNAME":"安南區","LI":"布袋里","LIN":"1鄰","STREET":"工明南二路","SECT":" ","MAREA":" ","LANE":" ","ALLEY":" ","HOUSE_NO":"１６號","E_COORD97":168865.31,"N_COORD97":2550998.1299999999,"ADDRESS":"工明南二路１６號","OBJECTID":510284},"geometry":{"x":168865.31000000052,"y":2550998.129999999}},{"attributes":{"ID":510312,"DIS_CODE":0,"TOWNNAME":"安南區","LI":"梅花里","LIN":"1鄰","STREET":"安中路","SECT":"一段","MAREA":" ","LANE":" ","ALLEY":" ","HOUSE_NO":"５８５之９號","E_COORD97":167879.73000000001,"N_COORD97":2549054.6699999999,"ADDRESS":"安中路一段５８５之９號","OBJECTID":510285},"geometry":{"x":167879.73000000045,"y":2549054.6700000018}},{"attributes":{"ID":510313,"DIS_CODE":0,"TOWNNAME":"安南區","LI":"布袋里","LIN":"1鄰","STREET":"工明南一路","SECT":" ","MAREA":" ","LANE":" ","ALLEY":" ","HOUSE_NO":"５６號","E_COORD97":168837.62,"N_COORD97":2551111.27,"ADDRESS":"工明南一路５６號","OBJECTID":510286},"geometry":{"x":168837.62000000011,"y":2551111.2700000033}},{"attributes":{"ID":510314,"DIS_CODE":0,"TOWNNAME":"安南區","LI":"城南里","LIN":"1鄰","STREET":"城西街","SECT":"一段","MAREA":" ","LANE":" ","ALLEY":" ","HOUSE_NO":"８８號","E_COORD97":160666.76000000001,"N_COORD97":2551409.5800000001,"ADDRESS":"城西街一段８８號","OBJECTID":510287},"geometry":{"x":160666.76000000071,"y":2551409.5800000019}},{"attributes":{"ID":510315,"DIS_CODE":0,"TOWNNAME":"安南區","LI":"布袋里","LIN":"1鄰","STREET":"工明路","SECT":" ","MAREA":" ","LANE":" ","ALLEY":" ","HOUSE_NO":"７９號","E_COORD97":168942.62,"N_COORD97":2551150.0800000001,"ADDRESS":"工明路７９號","OBJECTID":510288},"geometry":{"x":168942.62000000011,"y":2551150.0800000001}},{"attributes":{"ID":510316,"DIS_CODE":0,"TOWNNAME":"安南區","LI":"布袋里","LIN":"1鄰","STREET":"工明南一路","SECT":" ","MAREA":" ","LANE":" ","ALLEY":" ","HOUSE_NO":"３８號","E_COORD97":168927.07000000001,"N_COORD97":2551086.8500000001,"ADDRESS":"工明南一路３８號","OBJECTID":510289},"geometry":{"x":168927.07000000123,"y":2551086.8499999978}},{"attributes":{"ID":510317,"DIS_CODE":0,"TOWNNAME":"安南區","LI":"布袋里","LIN":"1鄰","STREET":"工明一路","SECT":" ","MAREA":" ","LANE":" ","ALLEY":" ","HOUSE_NO":"７號","E_COORD97":169003.14000000001,"N_COORD97":2551068.54,"ADDRESS":"工明一路７號","OBJECTID":510290},"geometry":{"x":169003.13999999966,"y":2551068.540000001}},{"attributes":{"ID":510318,"DIS_CODE":0,"TOWNNAME":"安南區","LI":"布袋里","LIN":"1鄰","STREET":"工明路","SECT":" ","MAREA":" ","LANE":" ","ALLEY":" ","HOUSE_NO":"１９７號","E_COORD97":168660.85000000001,"N_COORD97":2551288.8799999999,"ADDRESS":"工明路１９７號","OBJECTID":510291},"geometry":{"x":168660.84999999963,"y":2551288.879999999}},{"attributes":{"ID":510319,"DIS_CODE":0,"TOWNNAME":"安南區","LI":"布袋里","LIN":"1鄰","STREET":"工明南一路","SECT":" ","MAREA":" ","LANE":" ","ALLEY":" ","HOUSE_NO":"１０６號","E_COORD97":168533.35000000001,"N_COORD97":2551203.9700000002,"ADDRESS":"工明南一路１０６號","OBJECTID":510292},"geometry":{"x":168533.35000000056,"y":2551203.9700000025}},{"attributes":{"ID":510320,"DIS_CODE":0,"TOWNNAME":"安南區","LI":"布袋里","LIN":"1鄰","STREET":"工明路","SECT":" ","MAREA":" ","LANE":" ","ALLEY":" ","HOUSE_NO":"４２０號","E_COORD97":168456.42999999999,"N_COORD97":2551391.3700000001,"ADDRESS":"工明路４２０號","OBJECTID":510293},"geometry":{"x":168456.43000000063,"y":2551391.3700000029}},{"attributes":{"ID":510321,"DIS_CODE":0,"TOWNNAME":"安南區","LI":"布袋里","LIN":"1鄰","STREET":"工明路","SECT":" ","MAREA":" ","LANE":" ","ALLEY":" ","HOUSE_NO":"２１１號","E_COORD97":168539.95000000001,"N_COORD97":2551327.7400000002,"ADDRESS":"工明路２１１號","OBJECTID":510294},"geometry":{"x":168539.95000000112,"y":2551327.7400000002}},{"attributes":{"ID":510322,"DIS_CODE":0,"TOWNNAME":"安南區","LI":"布袋里","LIN":"1鄰","STREET":"工明路","SECT":" ","MAREA":" ","LANE":" ","ALLEY":" ","HOUSE_NO":"２１３號","E_COORD97":168530.87,"N_COORD97":2551329.6699999999,"ADDRESS":"工明路２１３號","OBJECTID":510295},"geometry":{"x":168530.87000000011,"y":2551329.6700000018}},{"attributes":{"ID":510323,"DIS_CODE":0,"TOWNNAME":"安南區","LI":"梅花里","LIN":"1鄰","STREET":"北安路","SECT":"二段","MAREA":" ","LANE":" ","ALLEY":" ","HOUSE_NO":"３５５之２１號","E_COORD97":168259.25517300001,"N_COORD97":2548470.9182899999,"ADDRESS":"北安路二段３５５之２１號","OBJECTID":510296},"geometry":{"x":168259.25517299958,"y":2548470.9182930011}},{"attributes":{"ID":510324,"DIS_CODE":0,"TOWNNAME":"安南區","LI":"梅花里","LIN":"1鄰","STREET":"北安路","SECT":"二段","MAREA":" ","LANE":" ","ALLEY":" ","HOUSE_NO":"３５５之２２號","E_COORD97":168258.25554300001,"N_COORD97":2548476.7263099998,"ADDRESS":"北安路二段３５５之２２號","OBJECTID":510297},"geometry":{"x":168258.255543001,"y":2548476.7263120022}},{"attributes":{"ID":510325,"DIS_CODE":0,"TOWNNAME":"安南區","LI":"梅花里","LIN":"1鄰","STREET":"北安路","SECT":"二段","MAREA":" ","LANE":" ","ALLEY":" ","HOUSE_NO":"３５５之２５號","E_COORD97":168258.46734100001,"N_COORD97":2548493.2363,"ADDRESS":"北安路二段３５５之２５號","OBJECTID":510298},"geometry":{"x":168258.46734100115,"y":2548493.2363029998}},{"attributes":{"ID":510326,"DIS_CODE":0,"TOWNNAME":"安南區","LI":"梅花里","LIN":"1鄰","STREET":"北安路","SECT":"二段","MAREA":" ","LANE":" ","ALLEY":" ","HOUSE_NO":"３５５之２６號","E_COORD97":168258.043745,"N_COORD97":2548502.5496299998,"ADDRESS":"北安路二段３５５之２６號","OBJECTID":510299},"geometry":{"x":168258.04374500178,"y":2548502.5496320017}},{"attributes":{"ID":510327,"DIS_CODE":0,"TOWNNAME":"安南區","LI":"布袋里","LIN":"1鄰","STREET":"工明南二路","SECT":" ","MAREA":" ","LANE":" ","ALLEY":" ","HOUSE_NO":"６９號","E_COORD97":168677.32000000001,"N_COORD97":2551027.6899999999,"ADDRESS":"工明南二路６９號","OBJECTID":510300},"geometry":{"x":168677.3200000003,"y":2551027.6900000013}},{"attributes":{"ID":510328,"DIS_CODE":0,"TOWNNAME":"安南區","LI":"布袋里","LIN":"1鄰","STREET":"工明南二路","SECT":" ","MAREA":" ","LANE":" ","ALLEY":" ","HOUSE_NO":"６０號","E_COORD97":168666.88,"N_COORD97":2551058.5499999998,"ADDRESS":"工明南二路６０號","OBJECTID":510301},"geometry":{"x":168666.88000000082,"y":2551058.5500000007}},{"attributes":{"ID":510329,"DIS_CODE":0,"TOWNNAME":"安南區","LI":"布袋里","LIN":"1鄰","STREET":"工明南三路","SECT":" ","MAREA":" ","LANE":" ","ALLEY":" ","HOUSE_NO":"１６６號","E_COORD97":168786.42999999999,"N_COORD97":2550912.1499999999,"ADDRESS":"工明南三路１６６號","OBJECTID":510302},"geometry":{"x":168786.43000000156,"y":2550912.1500000004}},{"attributes":{"ID":510330,"DIS_CODE":0,"TOWNNAME":"安南區","LI":"布袋里","LIN":"1鄰","STREET":"工明五路","SECT":" ","MAREA":" ","LANE":" ","ALLEY":" ","HOUSE_NO":"１０號","E_COORD97":168415.87,"N_COORD97":2551069.9900000002,"ADDRESS":"工明五路１０號","OBJECTID":510303},"geometry":{"x":168415.87000000011,"y":2551069.9900000039}},{"attributes":{"ID":510331,"DIS_CODE":0,"TOWNNAME":"安南區","LI":"布袋里","LIN":"1鄰","STREET":"工明五路","SECT":" ","MAREA":" ","LANE":" ","ALLEY":" ","HOUSE_NO":"１１８號","E_COORD97":168454.48000000001,"N_COORD97":2551258.3700000001,"ADDRESS":"工明五路１１８號","OBJECTID":510304},"geometry":{"x":168454.48000000045,"y":2551258.3700000029}},{"attributes":{"ID":510332,"DIS_CODE":0,"TOWNNAME":"安南區","LI":"布袋里","LIN":"1鄰","STREET":"工明南一路","SECT":" ","MAREA":" ","LANE":" ","ALLEY":" ","HOUSE_NO":"８９號","E_COORD97":168698.67999999999,"N_COORD97":2551124.3700000001,"ADDRESS":"工明南一路８９號","OBJECTID":510305},"geometry":{"x":168698.68000000063,"y":2551124.370000001}},{"attributes":{"ID":510333,"DIS_CODE":0,"TOWNNAME":"安南區","LI":"布袋里","LIN":"1鄰","STREET":"工明南一路","SECT":" ","MAREA":" ","LANE":" ","ALLEY":" ","HOUSE_NO":"１００號","E_COORD97":168565.88,"N_COORD97":2551194.7799999998,"ADDRESS":"工明南一路１００號","OBJECTID":510306},"geometry":{"x":168565.87999999989,"y":2551194.7799999993}},{"attributes":{"ID":510334,"DIS_CODE":0,"TOWNNAME":"安南區","LI":"溪心里","LIN":"1鄰","STREET":"海佃路","SECT":"二段","MAREA":" ","LANE":" ","ALLEY":" ","HOUSE_NO":"６７７號","E_COORD97":166453.76000000001,"N_COORD97":2549585.71,"ADDRESS":"海佃路二段６７７號","OBJECTID":510307},"geometry":{"x":166453.76000000071,"y":2549585.7100000009}},{"attributes":{"ID":510335,"DIS_CODE":0,"TOWNNAME":"安南區","LI":"布袋里","LIN":"1鄰","STREET":"工明南一路","SECT":" ","MAREA":" ","LANE":" ","ALLEY":" ","HOUSE_NO":"９１號","E_COORD97":168667.39999999999,"N_COORD97":2551133.9199999999,"ADDRESS":"工明南一路９１號","OBJECTID":510308},"geometry":{"x":168667.4000000013,"y":2551133.9199999999}},{"attributes":{"ID":510336,"DIS_CODE":0,"TOWNNAME":"安南區","LI":"布袋里","LIN":"1鄰","STREET":"工明路","SECT":" ","MAREA":" ","LANE":" ","ALLEY":" ","HOUSE_NO":"１７７號","E_COORD97":168714.60000000001,"N_COORD97":2551269.8900000001,"ADDRESS":"工明路１７７號","OBJECTID":510309},"geometry":{"x":168714.60000000056,"y":2551269.8900000006}},{"attributes":{"ID":510337,"DIS_CODE":0,"TOWNNAME":"安南區","LI":"布袋里","LIN":"1鄰","STREET":"工明路","SECT":" ","MAREA":" ","LANE":" ","ALLEY":" ","HOUSE_NO":"１７５號","E_COORD97":168723.38,"N_COORD97":2551264.3999999999,"ADDRESS":"工明路１７５號","OBJECTID":510310},"geometry":{"x":168723.38000000082,"y":2551264.4000000022}},{"attributes":{"ID":510338,"DIS_CODE":0,"TOWNNAME":"安南區","LI":"布袋里","LIN":"1鄰","STREET":"工明南三路","SECT":" ","MAREA":" ","LANE":" ","ALLEY":" ","HOUSE_NO":"４６號","E_COORD97":168903.26000000001,"N_COORD97":2550953.5800000001,"ADDRESS":"工明南三路４６號","OBJECTID":510311},"geometry":{"x":168903.26000000071,"y":2550953.5799999982}},{"attributes":{"ID":510339,"DIS_CODE":0,"TOWNNAME":"安南區","LI":"布袋里","LIN":"1鄰","STREET":"工明南一路","SECT":" ","MAREA":" ","LANE":" ","ALLEY":" ","HOUSE_NO":"１５２號","E_COORD97":168481.22,"N_COORD97":2551219.8700000001,"ADDRESS":"工明南一路１５２號","OBJECTID":510312},"geometry":{"x":168481.22000000067,"y":2551219.870000001}},{"attributes":{"ID":510340,"DIS_CODE":0,"TOWNNAME":"安南區","LI":"梅花里","LIN":"1鄰","STREET":"安中路","SECT":"一段","MAREA":" ","LANE":" ","ALLEY":" ","HOUSE_NO":"６２３號","E_COORD97":167790.78,"N_COORD97":2549104.5899999999,"ADDRESS":"安中路一段６２３號","OBJECTID":510313},"geometry":{"x":167790.78000000026,"y":2549104.5899999999}},{"attributes":{"ID":510341,"DIS_CODE":0,"TOWNNAME":"安南區","LI":"梅花里","LIN":"1鄰","STREET":"安中路","SECT":"一段","MAREA":" ","LANE":" ","ALLEY":" ","HOUSE_NO":"６２５號","E_COORD97":167787.84,"N_COORD97":2549106.3500000001,"ADDRESS":"安中路一段６２５號","OBJECTID":510314},"geometry":{"x":167787.84000000078,"y":2549106.3499999996}},{"attributes":{"ID":510342,"DIS_CODE":0,"TOWNNAME":"安南區","LI":"梅花里","LIN":"1鄰","STREET":"安中路","SECT":"一段","MAREA":" ","LANE":" ","ALLEY":" ","HOUSE_NO":"６２７號","E_COORD97":167784.12,"N_COORD97":2549109.0899999999,"ADDRESS":"安中路一段６２７號","OBJECTID":510315},"geometry":{"x":167784.12000000104,"y":2549109.0900000036}},{"attributes":{"ID":510343,"DIS_CODE":0,"TOWNNAME":"安南區","LI":"梅花里","LIN":"1鄰","STREET":"安中路","SECT":"一段","MAREA":" ","LANE":" ","ALLEY":" ","HOUSE_NO":"６２９號","E_COORD97":167780.79000000001,"N_COORD97":2549111.0499999998,"ADDRESS":"安中路一段６２９號","OBJECTID":510316},"geometry":{"x":167780.7900000019,"y":2549111.0500000026}},{"attributes":{"ID":510344,"DIS_CODE":0,"TOWNNAME":"安南區","LI":"南興里","LIN":"1鄰","STREET":"安中路","SECT":"五段","MAREA":" ","LANE":" ","ALLEY":" ","HOUSE_NO":"４５８之１號","E_COORD97":162386.60999999999,"N_COORD97":2551250.3500000001,"ADDRESS":"安中路五段４５８之１號","OBJECTID":510317},"geometry":{"x":162386.6100000022,"y":2551250.3500000015}},{"attributes":{"ID":510345,"DIS_CODE":0,"TOWNNAME":"安南區","LI":"布袋里","LIN":"1鄰","STREET":"工明南一路","SECT":" ","MAREA":" ","LANE":" ","ALLEY":" ","HOUSE_NO":"１０７號","E_COORD97":168574.01000000001,"N_COORD97":2551160.4500000002,"ADDRESS":"工明南一路１０７號","OBJECTID":510318},"geometry":{"x":168574.01000000164,"y":2551160.450000003}},{"attributes":{"ID":510346,"DIS_CODE":0,"TOWNNAME":"安南區","LI":"布袋里","LIN":"1鄰","STREET":"工明三路","SECT":" ","MAREA":" ","LANE":" ","ALLEY":" ","HOUSE_NO":"３０號","E_COORD97":168550.87,"N_COORD97":2551133.5800000001,"ADDRESS":"工明三路３０號","OBJECTID":510319},"geometry":{"x":168550.87000000011,"y":2551133.5800000038}},{"attributes":{"ID":510347,"DIS_CODE":0,"TOWNNAME":"安南區","LI":"布袋里","LIN":"1鄰","STREET":"工明南二路","SECT":" ","MAREA":" ","LANE":" ","ALLEY":" ","HOUSE_NO":"１號","E_COORD97":168887.23000000001,"N_COORD97":2550966.9199999999,"ADDRESS":"工明南二路１號","OBJECTID":510320},"geometry":{"x":168887.23000000138,"y":2550966.9199999999}},{"attributes":{"ID":510348,"DIS_CODE":0,"TOWNNAME":"安南區","LI":"布袋里","LIN":"1鄰","STREET":"工明南一路","SECT":" ","MAREA":" ","LANE":" ","ALLEY":" ","HOUSE_NO":"９６號","E_COORD97":168598.79999999999,"N_COORD97":2551182.7200000002,"ADDRESS":"工明南一路９６號","OBJECTID":510321},"geometry":{"x":168598.79999999981,"y":2551182.7200000007}},{"attributes":{"ID":510349,"DIS_CODE":0,"TOWNNAME":"安南區","LI":"布袋里","LIN":"1鄰","STREET":"工明南一路","SECT":" ","MAREA":" ","LANE":" ","ALLEY":" ","HOUSE_NO":"９２號","E_COORD97":168612.51999999999,"N_COORD97":2551178.3300000001,"ADDRESS":"工明南一路９２號","OBJECTID":510322},"geometry":{"x":168612.51999999955,"y":2551178.3300000001}},{"attributes":{"ID":510350,"DIS_CODE":0,"TOWNNAME":"安南區","LI":"布袋里","LIN":"1鄰","STREET":"工明南二路","SECT":" ","MAREA":" ","LANE":" ","ALLEY":" ","HOUSE_NO":"７６號","E_COORD97":168627.92000000001,"N_COORD97":2551067.8700000001,"ADDRESS":"工明南二路７６號","OBJECTID":510323},"geometry":{"x":168627.92000000086,"y":2551067.8699999992}},{"attributes":{"ID":510351,"DIS_CODE":0,"TOWNNAME":"安南區","LI":"布袋里","LIN":"1鄰","STREET":"工明南二路","SECT":" ","MAREA":" ","LANE":" ","ALLEY":" ","HOUSE_NO":"７８號","E_COORD97":168620.23999999999,"N_COORD97":2551071.1600000001,"ADDRESS":"工明南二路７８號","OBJECTID":510324},"geometry":{"x":168620.24000000022,"y":2551071.1600000001}},{"attributes":{"ID":510352,"DIS_CODE":0,"TOWNNAME":"安南區","LI":"布袋里","LIN":"1鄰","STREET":"工明南二路","SECT":" ","MAREA":" ","LANE":" ","ALLEY":" ","HOUSE_NO":"８２號","E_COORD97":168605.42000000001,"N_COORD97":2551075,"ADDRESS":"工明南二路８２號","OBJECTID":510325},"geometry":{"x":168605.42000000179,"y":2551075}},{"attributes":{"ID":510353,"DIS_CODE":0,"TOWNNAME":"安南區","LI":"布袋里","LIN":"1鄰","STREET":"工明南二路","SECT":" ","MAREA":" ","LANE":" ","ALLEY":" ","HOUSE_NO":"８６號","E_COORD97":168598.29000000001,"N_COORD97":2551077.1899999999,"ADDRESS":"工明南二路８６號","OBJECTID":510326},"geometry":{"x":168598.29000000097,"y":2551077.1899999995}},{"attributes":{"ID":510354,"DIS_CODE":0,"TOWNNAME":"安南區","LI":"布袋里","LIN":"1鄰","STREET":"工明南二路","SECT":" ","MAREA":" ","LANE":" ","ALLEY":" ","HOUSE_NO":"８８號","E_COORD97":168590.04999999999,"N_COORD97":2551079.3799999999,"ADDRESS":"工明南二路８８號","OBJECTID":510327},"geometry":{"x":168590.04999999981,"y":2551079.3800000027}},{"attributes":{"ID":510355,"DIS_CODE":0,"TOWNNAME":"安南區","LI":"布袋里","LIN":"1鄰","STREET":"工明路","SECT":" ","MAREA":" ","LANE":" ","ALLEY":" ","HOUSE_NO":"７５號","E_COORD97":168969.036357,"N_COORD97":2551139.9656600002,"ADDRESS":"工明路７５號","OBJECTID":510328},"geometry":{"x":168969.0363570014,"y":2551139.9656640012}},{"attributes":{"ID":510356,"DIS_CODE":0,"TOWNNAME":"新市區","LI":"新市里","LIN":"1鄰","STREET":"中興街","SECT":" ","MAREA":" ","LANE":" ","ALLEY":" ","HOUSE_NO":"３９號","E_COORD97":177707.98000000001,"N_COORD97":2553130.25,"ADDRESS":"中興街３９號","OBJECTID":510329},"geometry":{"x":177707.98000000045,"y":2553130.2500000019}},{"attributes":{"ID":510357,"DIS_CODE":0,"TOWNNAME":"新市區","LI":"港墘里","LIN":"1鄰","STREET":"大同街","SECT":" ","MAREA":" ","LANE":" ","ALLEY":" ","HOUSE_NO":"３３號","E_COORD97":178467.63,"N_COORD97":2553614.25,"ADDRESS":"大同街３３號","OBJECTID":510330},"geometry":{"x":178467.62999999989,"y":2553614.2500000019}},{"attributes":{"ID":510358,"DIS_CODE":0,"TOWNNAME":"新市區","LI":"港墘里","LIN":"1鄰","STREET":"民族路","SECT":" ","MAREA":" ","LANE":" ","ALLEY":" ","HOUSE_NO":"９號","E_COORD97":178650.38,"N_COORD97":2553925.54,"ADDRESS":"民族路９號","OBJECTID":510331},"geometry":{"x":178650.38000000082,"y":2553925.5399999991}},{"attributes":{"ID":510359,"DIS_CODE":0,"TOWNNAME":"新市區","LI":"港墘里","LIN":"1鄰","STREET":"大同街","SECT":" ","MAREA":" ","LANE":" ","ALLEY":" ","HOUSE_NO":"１６號","E_COORD97":178546.09,"N_COORD97":2553573.5,"ADDRESS":"大同街１６號","OBJECTID":510332},"geometry":{"x":178546.08999999985,"y":2553573.5}},{"attributes":{"ID":510360,"DIS_CODE":0,"TOWNNAME":"新市區","LI":"港墘里","LIN":"1鄰","STREET":"民族路","SECT":" ","MAREA":" ","LANE":" ","ALLEY":" ","HOUSE_NO":"６號","E_COORD97":178620.73999999999,"N_COORD97":2553950.29,"ADDRESS":"民族路６號","OBJECTID":510333},"geometry":{"x":178620.74000000115,"y":2553950.2899999991}},{"attributes":{"ID":510361,"DIS_CODE":0,"TOWNNAME":"新市區","LI":"新市里","LIN":"1鄰","STREET":"中興街","SECT":" ","MAREA":" ","LANE":" ","ALLEY":" ","HOUSE_NO":"１７號","E_COORD97":177751.01999999999,"N_COORD97":2553156,"ADDRESS":"中興街１７號","OBJECTID":510334},"geometry":{"x":177751.01999999955,"y":2553156.0000000019}},{"attributes":{"ID":510362,"DIS_CODE":0,"TOWNNAME":"中西區","LI":"民主里","LIN":"1鄰","STREET":"保安路","SECT":" ","MAREA":" ","LANE":" ","ALLEY":" ","HOUSE_NO":"１１２號","E_COORD97":167458.23000000001,"N_COORD97":2543484.1299999999,"ADDRESS":"保安路１１２號","OBJECTID":510335},"geometry":{"x":167458.23000000138,"y":2543484.1300000008}},{"attributes":{"ID":510363,"DIS_CODE":0,"TOWNNAME":"中西區","LI":"民主里","LIN":"1鄰","STREET":"保安路","SECT":" ","MAREA":" ","LANE":" ","ALLEY":" ","HOUSE_NO":"１１４號","E_COORD97":167453.73000000001,"N_COORD97":2543484.9399999999,"ADDRESS":"保安路１１４號","OBJECTID":510336},"geometry":{"x":167453.73000000045,"y":2543484.9400000032}},{"attributes":{"ID":510364,"DIS_CODE":0,"TOWNNAME":"中西區","LI":"民主里","LIN":"1鄰","STREET":"保安路","SECT":" ","MAREA":" ","LANE":" ","ALLEY":" ","HOUSE_NO":"１１６號","E_COORD97":167454.85000000001,"N_COORD97":2543492.0899999999,"ADDRESS":"保安路１１６號","OBJECTID":510337},"geometry":{"x":167454.85000000056,"y":2543492.0900000017}},{"attributes":{"ID":510365,"DIS_CODE":0,"TOWNNAME":"安南區","LI":"鳳凰里","LIN":"1鄰","STREET":"北安路","SECT":"三段","MAREA":" ","LANE":" ","ALLEY":" ","HOUSE_NO":"１３３號","E_COORD97":168285.28951800001,"N_COORD97":2549001.3950399999,"ADDRESS":"北安路三段１３３號","OBJECTID":510338},"geometry":{"x":168285.28951799963,"y":2549001.3950360026}},{"attributes":{"ID":510366,"DIS_CODE":0,"TOWNNAME":"中西區","LI":"民生里","LIN":"1鄰","STREET":"大智街","SECT":" ","MAREA":" ","LANE":" ","ALLEY":" ","HOUSE_NO":"１３０號之１","E_COORD97":167238.17999999999,"N_COORD97":2543279.8999999999,"ADDRESS":"大智街１３０號之１","OBJECTID":510339},"geometry":{"x":167238.1799999997,"y":2543279.9000000022}},{"attributes":{"ID":510367,"DIS_CODE":0,"TOWNNAME":"中西區","LI":"民生里","LIN":"1鄰","STREET":"大智街","SECT":" ","MAREA":" ","LANE":" ","ALLEY":" ","HOUSE_NO":"１３２號","E_COORD97":167235.39999999999,"N_COORD97":2543274.6099999999,"ADDRESS":"大智街１３２號","OBJECTID":510340},"geometry":{"x":167235.4000000013,"y":2543274.6100000013}},{"attributes":{"ID":510368,"DIS_CODE":0,"TOWNNAME":"中西區","LI":"民生里","LIN":"1鄰","STREET":"大智街","SECT":" ","MAREA":" ","LANE":" ","ALLEY":" ","HOUSE_NO":"１３４號","E_COORD97":167234.64000000001,"N_COORD97":2543270.8199999998,"ADDRESS":"大智街１３４號","OBJECTID":510341},"geometry":{"x":167234.6400000006,"y":2543270.8200000022}},{"attributes":{"ID":510369,"DIS_CODE":0,"TOWNNAME":"中西區","LI":"民生里","LIN":"1鄰","STREET":"大智街","SECT":" ","MAREA":" ","LANE":" ","ALLEY":" ","HOUSE_NO":"１３６號","E_COORD97":167234.64000000001,"N_COORD97":2543266.0299999998,"ADDRESS":"大智街１３６號","OBJECTID":510342},"geometry":{"x":167234.6400000006,"y":2543266.0299999993}},{"attributes":{"ID":510370,"DIS_CODE":0,"TOWNNAME":"中西區","LI":"民生里","LIN":"1鄰","STREET":"大智街","SECT":" ","MAREA":" ","LANE":" ","ALLEY":" ","HOUSE_NO":"１３８號","E_COORD97":167232.87,"N_COORD97":2543262.5,"ADDRESS":"大智街１３８號","OBJECTID":510343},"geometry":{"x":167232.87000000197,"y":2543262.5000000019}},{"attributes":{"ID":510371,"DIS_CODE":0,"TOWNNAME":"中西區","LI":"民生里","LIN":"1鄰","STREET":"大智街","SECT":" ","MAREA":" ","LANE":" ","ALLEY":" ","HOUSE_NO":"１４０號","E_COORD97":167233.13,"N_COORD97":2543256.7000000002,"ADDRESS":"大智街１４０號","OBJECTID":510344},"geometry":{"x":167233.13000000082,"y":2543256.7000000011}},{"attributes":{"ID":510372,"DIS_CODE":0,"TOWNNAME":"中西區","LI":"民生里","LIN":"1鄰","STREET":"大智街","SECT":" ","MAREA":" ","LANE":" ","ALLEY":" ","HOUSE_NO":"１４２號","E_COORD97":167232.12,"N_COORD97":2543253.1699999999,"ADDRESS":"大智街１４２號","OBJECTID":510345},"geometry":{"x":167232.12000000011,"y":2543253.1699999981}},{"attributes":{"ID":510373,"DIS_CODE":0,"TOWNNAME":"中西區","LI":"民生里","LIN":"1鄰","STREET":"大智街","SECT":" ","MAREA":" ","LANE":" ","ALLEY":" ","HOUSE_NO":"１４４號","E_COORD97":167232.37,"N_COORD97":2543247.3700000001,"ADDRESS":"大智街１４４號","OBJECTID":510346},"geometry":{"x":167232.37000000011,"y":2543247.3700000029}},{"attributes":{"ID":510374,"DIS_CODE":0,"TOWNNAME":"中西區","LI":"民生里","LIN":"1鄰","STREET":"大智街","SECT":" ","MAREA":" ","LANE":" ","ALLEY":" ","HOUSE_NO":"１４６號","E_COORD97":167232.12,"N_COORD97":2543243.5800000001,"ADDRESS":"大智街１４６號","OBJECTID":510347},"geometry":{"x":167232.12000000011,"y":2543243.5800000001}},{"attributes":{"ID":510375,"DIS_CODE":0,"TOWNNAME":"中西區","LI":"民生里","LIN":"1鄰","STREET":"大智街","SECT":" ","MAREA":" ","LANE":" ","ALLEY":" ","HOUSE_NO":"１４８號","E_COORD97":167230.60000000001,"N_COORD97":2543239.0499999998,"ADDRESS":"大智街１４８號","OBJECTID":510348},"geometry":{"x":167230.5999999987,"y":2543239.0500000026}},{"attributes":{"ID":510376,"DIS_CODE":0,"TOWNNAME":"中西區","LI":"民生里","LIN":"1鄰","STREET":"大智街","SECT":" ","MAREA":" ","LANE":" ","ALLEY":" ","HOUSE_NO":"１５０號","E_COORD97":167229.84,"N_COORD97":2543233.8700000001,"ADDRESS":"大智街１５０號","OBJECTID":510349},"geometry":{"x":167229.84000000078,"y":2543233.8700000029}},{"attributes":{"ID":510377,"DIS_CODE":0,"TOWNNAME":"中西區","LI":"民生里","LIN":"1鄰","STREET":"大智街","SECT":" ","MAREA":" ","LANE":" ","ALLEY":" ","HOUSE_NO":"１５２號","E_COORD97":167229.34,"N_COORD97":2543229.5800000001,"ADDRESS":"大智街１５２號","OBJECTID":510350},"geometry":{"x":167229.34000000171,"y":2543229.5800000001}},{"attributes":{"ID":510378,"DIS_CODE":0,"TOWNNAME":"中西區","LI":"民生里","LIN":"1鄰","STREET":"大智街","SECT":" ","MAREA":" ","LANE":" ","ALLEY":" ","HOUSE_NO":"１５４號","E_COORD97":167229.59,"N_COORD97":2543225.29,"ADDRESS":"大智街１５４號","OBJECTID":510351},"geometry":{"x":167229.59000000078,"y":2543225.290000001}},{"attributes":{"ID":510379,"DIS_CODE":0,"TOWNNAME":"中西區","LI":"民生里","LIN":"1鄰","STREET":"大智街","SECT":" ","MAREA":" ","LANE":" ","ALLEY":" ","HOUSE_NO":"１５６號","E_COORD97":167228.57999999999,"N_COORD97":2543220.5,"ADDRESS":"大智街１５６號","OBJECTID":510352},"geometry":{"x":167228.58000000101,"y":2543220.4999999981}},{"attributes":{"ID":510380,"DIS_CODE":0,"TOWNNAME":"中西區","LI":"民生里","LIN":"1鄰","STREET":"永華路","SECT":"一段","MAREA":" ","LANE":" ","ALLEY":" ","HOUSE_NO":"１６０號","E_COORD97":167225.23000000001,"N_COORD97":2543209.3399999999,"ADDRESS":"永華路一段１６０號","OBJECTID":510353},"geometry":{"x":167225.23000000045,"y":2543209.3400000017}},{"attributes":{"ID":510381,"DIS_CODE":0,"TOWNNAME":"中西區","LI":"民生里","LIN":"1鄰","STREET":"永華路","SECT":"一段","MAREA":" ","LANE":" ","ALLEY":" ","HOUSE_NO":"１６２號","E_COORD97":167220.60000000001,"N_COORD97":2543209.3399999999,"ADDRESS":"永華路一段１６２號","OBJECTID":510354},"geometry":{"x":167220.60000000149,"y":2543209.3400000017}},{"attributes":{"ID":510382,"DIS_CODE":0,"TOWNNAME":"中西區","LI":"民生里","LIN":"1鄰","STREET":"永華路","SECT":"一段","MAREA":" ","LANE":" ","ALLEY":" ","HOUSE_NO":"１６４號","E_COORD97":167216.42999999999,"N_COORD97":2543211.2000000002,"ADDRESS":"永華路一段１６４號","OBJECTID":510355},"geometry":{"x":167216.4299999997,"y":2543211.1999999993}},{"attributes":{"ID":510383,"DIS_CODE":0,"TOWNNAME":"中西區","LI":"民生里","LIN":"1鄰","STREET":"永華路","SECT":"一段","MAREA":" ","LANE":" ","ALLEY":" ","HOUSE_NO":"１６６號","E_COORD97":167212.25,"N_COORD97":2543211.6600000001,"ADDRESS":"永華路一段１６６號","OBJECTID":510356},"geometry":{"x":167212.25000000093,"y":2543211.6600000001}},{"attributes":{"ID":510384,"DIS_CODE":0,"TOWNNAME":"中西區","LI":"民生里","LIN":"1鄰","STREET":"永華路","SECT":"一段","MAREA":" ","LANE":" ","ALLEY":" ","HOUSE_NO":"１６８號","E_COORD97":167208.31,"N_COORD97":2543212.8199999998,"ADDRESS":"永華路一段１６８號","OBJECTID":510357},"geometry":{"x":167208.30999999959,"y":2543212.8200000022}},{"attributes":{"ID":510385,"DIS_CODE":0,"TOWNNAME":"中西區","LI":"民生里","LIN":"1鄰","STREET":"武英街","SECT":" ","MAREA":" ","LANE":" ","ALLEY":" ","HOUSE_NO":"１號","E_COORD97":167233.13,"N_COORD97":2543284.21,"ADDRESS":"武英街１號","OBJECTID":510358},"geometry":{"x":167233.13000000082,"y":2543284.2100000009}},{"attributes":{"ID":510386,"DIS_CODE":0,"TOWNNAME":"中西區","LI":"安海里","LIN":"1鄰","STREET":"民生路","SECT":"二段","MAREA":" ","LANE":" ","ALLEY":" ","HOUSE_NO":"１７５號","E_COORD97":167451.31,"N_COORD97":2544036.96,"ADDRESS":"民生路二段１７５號","OBJECTID":510359},"geometry":{"x":167451.31000000145,"y":2544036.9600000028}},{"attributes":{"ID":510387,"DIS_CODE":0,"TOWNNAME":"中西區","LI":"安海里","LIN":"1鄰","STREET":"民生路","SECT":"二段","MAREA":" ","LANE":" ","ALLEY":" ","HOUSE_NO":"１７９號","E_COORD97":167443.04999999999,"N_COORD97":2544039.5899999999,"ADDRESS":"民生路二段１７９號","OBJECTID":510360},"geometry":{"x":167443.04999999888,"y":2544039.5899999999}},{"attributes":{"ID":510388,"DIS_CODE":0,"TOWNNAME":"中西區","LI":"安海里","LIN":"1鄰","STREET":"民生路","SECT":"二段","MAREA":" ","LANE":" ","ALLEY":" ","HOUSE_NO":"１８１號","E_COORD97":167434.41,"N_COORD97":2544041.27,"ADDRESS":"民生路二段１８１號","OBJECTID":510361},"geometry":{"x":167434.41000000201,"y":2544041.2699999996}},{"attributes":{"ID":510389,"DIS_CODE":0,"TOWNNAME":"中西區","LI":"安海里","LIN":"1鄰","STREET":"民生路","SECT":"二段","MAREA":" ","LANE":" ","ALLEY":" ","HOUSE_NO":"１８５號","E_COORD97":167424.07999999999,"N_COORD97":2544045.5899999999,"ADDRESS":"民生路二段１８５號","OBJECTID":510362},"geometry":{"x":167424.08000000007,"y":2544045.5899999999}},{"attributes":{"ID":510390,"DIS_CODE":0,"TOWNNAME":"中西區","LI":"安海里","LIN":"1鄰","STREET":"民生路","SECT":"二段","MAREA":" ","LANE":" ","ALLEY":" ","HOUSE_NO":"１８９號","E_COORD97":167414.12,"N_COORD97":2544049.1499999999,"ADDRESS":"民生路二段１８９號","OBJECTID":510363},"geometry":{"x":167414.12000000197,"y":2544049.1500000004}},{"attributes":{"ID":510391,"DIS_CODE":0,"TOWNNAME":"中西區","LI":"安海里","LIN":"1鄰","STREET":"民生路","SECT":"二段","MAREA":" ","LANE":" ","ALLEY":" ","HOUSE_NO":"１９１號","E_COORD97":167409.23999999999,"N_COORD97":2544050.0899999999,"ADDRESS":"民生路二段１９１號","OBJECTID":510364},"geometry":{"x":167409.24000000022,"y":2544050.0899999999}},{"attributes":{"ID":510392,"DIS_CODE":0,"TOWNNAME":"中西區","LI":"安海里","LIN":"1鄰","STREET":"民生路","SECT":"二段","MAREA":" ","LANE":" ","ALLEY":" ","HOUSE_NO":"１９３號","E_COORD97":167405.10000000001,"N_COORD97":2544051.3999999999,"ADDRESS":"民生路二段１９３號","OBJECTID":510365},"geometry":{"x":167405.09999999963,"y":2544051.4000000004}},{"attributes":{"ID":510393,"DIS_CODE":0,"TOWNNAME":"中西區","LI":"安海里","LIN":"1鄰","STREET":"民生路","SECT":"二段","MAREA":" ","LANE":" ","ALLEY":" ","HOUSE_NO":"１９５號","E_COORD97":167389.89000000001,"N_COORD97":2544052.4500000002,"ADDRESS":"民生路二段１９５號","OBJECTID":510366},"geometry":{"x":167389.89000000153,"y":2544052.4500000011}},{"attributes":{"ID":510394,"DIS_CODE":0,"TOWNNAME":"中西區","LI":"安海里","LIN":"1鄰","STREET":"民生路","SECT":"二段","MAREA":" ","LANE":" ","ALLEY":" ","HOUSE_NO":"２０７號","E_COORD97":167374.67000000001,"N_COORD97":2544058.27,"ADDRESS":"民生路二段２０７號","OBJECTID":510367},"geometry":{"x":167374.67000000179,"y":2544058.2699999996}},{"attributes":{"ID":510395,"DIS_CODE":0,"TOWNNAME":"中西區","LI":"安海里","LIN":"1鄰","STREET":"金華路","SECT":"三段","MAREA":" ","LANE":" ","ALLEY":" ","HOUSE_NO":"２６２號","E_COORD97":167361.60000000001,"N_COORD97":2544017.9700000002,"ADDRESS":"金華路三段２６２號","OBJECTID":510368},"geometry":{"x":167361.60000000056,"y":2544017.9700000007}},{"attributes":{"ID":510396,"DIS_CODE":0,"TOWNNAME":"中西區","LI":"安海里","LIN":"1鄰","STREET":"金華路","SECT":"三段","MAREA":" ","LANE":" ","ALLEY":" ","HOUSE_NO":"２６４號","E_COORD97":167363.39000000001,"N_COORD97":2544022.6200000001,"ADDRESS":"金華路三段２６４號","OBJECTID":510369},"geometry":{"x":167363.3900000006,"y":2544022.6200000029}},{"attributes":{"ID":510397,"DIS_CODE":0,"TOWNNAME":"中西區","LI":"安海里","LIN":"1鄰","STREET":"金華路","SECT":"三段","MAREA":" ","LANE":" ","ALLEY":" ","HOUSE_NO":"２６６號","E_COORD97":167365.17000000001,"N_COORD97":2544026.3700000001,"ADDRESS":"金華路三段２６６號","OBJECTID":510370},"geometry":{"x":167365.17000000086,"y":2544026.3700000048}},{"attributes":{"ID":510398,"DIS_CODE":0,"TOWNNAME":"中西區","LI":"安海里","LIN":"1鄰","STREET":"金華路","SECT":"三段","MAREA":" ","LANE":" ","ALLEY":" ","HOUSE_NO":"２６８號","E_COORD97":167364.45999999999,"N_COORD97":2544031.0099999998,"ADDRESS":"金華路三段２６８號","OBJECTID":510371},"geometry":{"x":167364.46000000089,"y":2544031.0100000016}},{"attributes":{"ID":510399,"DIS_CODE":0,"TOWNNAME":"中西區","LI":"安海里","LIN":"1鄰","STREET":"金華路","SECT":"三段","MAREA":" ","LANE":" ","ALLEY":" ","HOUSE_NO":"２７０號","E_COORD97":167365.35000000001,"N_COORD97":2544034.2200000002,"ADDRESS":"金華路三段２７０號","OBJECTID":510372},"geometry":{"x":167365.35000000056,"y":2544034.2200000025}},{"attributes":{"ID":510400,"DIS_CODE":0,"TOWNNAME":"中西區","LI":"安海里","LIN":"1鄰","STREET":"金華路","SECT":"三段","MAREA":" ","LANE":" ","ALLEY":" ","HOUSE_NO":"２７２號","E_COORD97":167367.85999999999,"N_COORD97":2544039.7599999998,"ADDRESS":"金華路三段２７２號","OBJECTID":510373},"geometry":{"x":167367.86000000034,"y":2544039.7600000016}},{"attributes":{"ID":510401,"DIS_CODE":0,"TOWNNAME":"麻豆區","LI":"東角里","LIN":"1鄰","STREET":"興中路","SECT":" ","MAREA":" ","LANE":" ","ALLEY":" ","HOUSE_NO":"１４７號","E_COORD97":173428.72,"N_COORD97":2564833.4500000002,"ADDRESS":"興中路１４７號","OBJECTID":510374},"geometry":{"x":173428.71999999974,"y":2564833.4499999993}},{"attributes":{"ID":510402,"DIS_CODE":0,"TOWNNAME":"麻豆區","LI":"東角里","LIN":"1鄰","STREET":"興中路","SECT":" ","MAREA":" ","LANE":" ","ALLEY":" ","HOUSE_NO":"１４９號","E_COORD97":173433.23000000001,"N_COORD97":2564832.9700000002,"ADDRESS":"興中路１４９號","OBJECTID":510375},"geometry":{"x":173433.23000000045,"y":2564832.9700000025}},{"attributes":{"ID":510403,"DIS_CODE":0,"TOWNNAME":"麻豆區","LI":"東角里","LIN":"1鄰","STREET":"興中路","SECT":" ","MAREA":" ","LANE":" ","ALLEY":" ","HOUSE_NO":"１５１號","E_COORD97":173437.67999999999,"N_COORD97":2564833.4500000002,"ADDRESS":"興中路１５１號","OBJECTID":510376},"geometry":{"x":173437.6799999997,"y":2564833.4499999993}},{"attributes":{"ID":510404,"DIS_CODE":0,"TOWNNAME":"麻豆區","LI":"東角里","LIN":"1鄰","STREET":"興中路","SECT":" ","MAREA":" ","LANE":" ","ALLEY":" ","HOUSE_NO":"１５３號","E_COORD97":173441.01000000001,"N_COORD97":2564833.25,"ADDRESS":"興中路１５３號","OBJECTID":510377},"geometry":{"x":173441.01000000164,"y":2564833.2500000019}},{"attributes":{"ID":510405,"DIS_CODE":0,"TOWNNAME":"麻豆區","LI":"東角里","LIN":"1鄰","STREET":"興中路","SECT":" ","MAREA":" ","LANE":" ","ALLEY":" ","HOUSE_NO":"１５５號","E_COORD97":173444.10999999999,"N_COORD97":2564833.52,"ADDRESS":"興中路１５５號","OBJECTID":510378},"geometry":{"x":173444.11000000034,"y":2564833.5199999977}},{"attributes":{"ID":510406,"DIS_CODE":0,"TOWNNAME":"麻豆區","LI":"東角里","LIN":"1鄰","STREET":"興中路","SECT":" ","MAREA":" ","LANE":" ","ALLEY":" ","HOUSE_NO":"１５７號","E_COORD97":173447.91,"N_COORD97":2564833.4700000002,"ADDRESS":"興中路１５７號","OBJECTID":510379},"geometry":{"x":173447.91000000108,"y":2564833.4700000025}},{"attributes":{"ID":510407,"DIS_CODE":0,"TOWNNAME":"麻豆區","LI":"東角里","LIN":"1鄰","STREET":"興中路","SECT":" ","MAREA":" ","LANE":" ","ALLEY":" ","HOUSE_NO":"１５９號","E_COORD97":173451.73999999999,"N_COORD97":2564834.0899999999,"ADDRESS":"興中路１５９號","OBJECTID":510380},"geometry":{"x":173451.74000000209,"y":2564834.0900000017}},{"attributes":{"ID":510408,"DIS_CODE":0,"TOWNNAME":"麻豆區","LI":"東角里","LIN":"1鄰","STREET":"興中路","SECT":" ","MAREA":" ","LANE":" ","ALLEY":" ","HOUSE_NO":"１６１號","E_COORD97":173455.01999999999,"N_COORD97":2564834.9100000001,"ADDRESS":"興中路１６１號","OBJECTID":510381},"geometry":{"x":173455.02000000048,"y":2564834.9099999983}},{"attributes":{"ID":510409,"DIS_CODE":0,"TOWNNAME":"麻豆區","LI":"東角里","LIN":"1鄰","STREET":"興中路","SECT":" ","MAREA":" ","LANE":" ","ALLEY":" ","HOUSE_NO":"１６３號之１","E_COORD97":173460.53,"N_COORD97":2564832.7400000002,"ADDRESS":"興中路１６３號之１","OBJECTID":510382},"geometry":{"x":173460.53000000119,"y":2564832.7399999984}},{"attributes":{"ID":510410,"DIS_CODE":0,"TOWNNAME":"麻豆區","LI":"東角里","LIN":"1鄰","STREET":"興中路","SECT":" ","MAREA":" ","LANE":" ","ALLEY":" ","HOUSE_NO":"１６３號","E_COORD97":173464.06,"N_COORD97":2564831.9199999999,"ADDRESS":"興中路１６３號","OBJECTID":510383},"geometry":{"x":173464.05999999866,"y":2564831.9200000018}},{"attributes":{"ID":510411,"DIS_CODE":0,"TOWNNAME":"麻豆區","LI":"東角里","LIN":"1鄰","STREET":"興中路","SECT":" ","MAREA":" ","LANE":" ","ALLEY":" ","HOUSE_NO":"１６５號之１","E_COORD97":173477.45999999999,"N_COORD97":2564834.75,"ADDRESS":"興中路１６５號之１","OBJECTID":510384},"geometry":{"x":173477.46000000089,"y":2564834.75}},{"attributes":{"ID":510412,"DIS_CODE":0,"TOWNNAME":"麻豆區","LI":"東角里","LIN":"1鄰","STREET":"興中路","SECT":" ","MAREA":" ","LANE":" ","ALLEY":" ","HOUSE_NO":"１６５號之２","E_COORD97":173486.01000000001,"N_COORD97":2564834.8500000001,"ADDRESS":"興中路１６５號之２","OBJECTID":510385},"geometry":{"x":173486.00999999978,"y":2564834.8499999978}},{"attributes":{"ID":510413,"DIS_CODE":0,"TOWNNAME":"麻豆區","LI":"東角里","LIN":"1鄰","STREET":"興中路","SECT":" ","MAREA":" ","LANE":" ","ALLEY":" ","HOUSE_NO":"１６５號之３","E_COORD97":173489.89000000001,"N_COORD97":2564835.2000000002,"ADDRESS":"興中路１６５號之３","OBJECTID":510386},"geometry":{"x":173489.8900000006,"y":2564835.1999999993}},{"attributes":{"ID":510414,"DIS_CODE":0,"TOWNNAME":"麻豆區","LI":"東角里","LIN":"1鄰","STREET":"興中路","SECT":" ","MAREA":" ","LANE":" ","ALLEY":" ","HOUSE_NO":"１６５號之４","E_COORD97":173481.26000000001,"N_COORD97":2564834.8999999999,"ADDRESS":"興中路１６５號之４","OBJECTID":510387},"geometry":{"x":173481.25999999978,"y":2564834.9000000004}},{"attributes":{"ID":510415,"DIS_CODE":0,"TOWNNAME":"麻豆區","LI":"東角里","LIN":"1鄰","STREET":"興中路","SECT":" ","MAREA":" ","LANE":" ","ALLEY":" ","HOUSE_NO":"１６５號","E_COORD97":173467.72,"N_COORD97":2564831.9700000002,"ADDRESS":"興中路１６５號","OBJECTID":510388},"geometry":{"x":173467.71999999974,"y":2564831.9700000044}},{"attributes":{"ID":510416,"DIS_CODE":0,"TOWNNAME":"麻豆區","LI":"東角里","LIN":"1鄰","STREET":"興中路","SECT":" ","MAREA":" ","LANE":" ","ALLEY":" ","HOUSE_NO":"１６７號之１１","E_COORD97":173511.54999999999,"N_COORD97":2564835.7200000002,"ADDRESS":"興中路１６７號之１１","OBJECTID":510389},"geometry":{"x":173511.54999999981,"y":2564835.7200000007}},{"attributes":{"ID":510417,"DIS_CODE":0,"TOWNNAME":"麻豆區","LI":"東角里","LIN":"1鄰","STREET":"興中路","SECT":" ","MAREA":" ","LANE":" ","ALLEY":" ","HOUSE_NO":"１６７號之１２","E_COORD97":173516.25,"N_COORD97":2564835.8300000001,"ADDRESS":"興中路１６７號之１２","OBJECTID":510390},"geometry":{"x":173516.25000000093,"y":2564835.8300000038}},{"attributes":{"ID":510418,"DIS_CODE":0,"TOWNNAME":"麻豆區","LI":"東角里","LIN":"1鄰","STREET":"興中路","SECT":" ","MAREA":" ","LANE":" ","ALLEY":" ","HOUSE_NO":"１６７號之１３","E_COORD97":173507.17999999999,"N_COORD97":2564835.6400000001,"ADDRESS":"興中路１６７號之１３","OBJECTID":510391},"geometry":{"x":173507.1799999997,"y":2564835.6400000025}},{"attributes":{"ID":510419,"DIS_CODE":0,"TOWNNAME":"麻豆區","LI":"東角里","LIN":"1鄰","STREET":"興中路","SECT":" ","MAREA":" ","LANE":" ","ALLEY":" ","HOUSE_NO":"１６７號之１","E_COORD97":173500.66,"N_COORD97":2564835.0499999998,"ADDRESS":"興中路１６７號之１","OBJECTID":510392},"geometry":{"x":173500.66000000015,"y":2564835.0500000045}},{"attributes":{"ID":510420,"DIS_CODE":0,"TOWNNAME":"麻豆區","LI":"東角里","LIN":"1鄰","STREET":"興中路","SECT":" ","MAREA":" ","LANE":" ","ALLEY":" ","HOUSE_NO":"１６７號之２","E_COORD97":173486.45999999999,"N_COORD97":2564860.9300000002,"ADDRESS":"興中路１６７號之２","OBJECTID":510393},"geometry":{"x":173486.45999999996,"y":2564860.9299999997}},{"attributes":{"ID":510421,"DIS_CODE":0,"TOWNNAME":"麻豆區","LI":"東角里","LIN":"1鄰","STREET":"興中路","SECT":" ","MAREA":" ","LANE":" ","ALLEY":" ","HOUSE_NO":"１６７號之３","E_COORD97":173514.22,"N_COORD97":2564854.48,"ADDRESS":"興中路１６７號之３","OBJECTID":510394},"geometry":{"x":173514.2200000016,"y":2564854.4800000004}},{"attributes":{"ID":510422,"DIS_CODE":0,"TOWNNAME":"麻豆區","LI":"東角里","LIN":"1鄰","STREET":"興中路","SECT":" ","MAREA":" ","LANE":" ","ALLEY":" ","HOUSE_NO":"１６７號之４","E_COORD97":173469.72,"N_COORD97":2564869.5499999998,"ADDRESS":"興中路１６７號之４","OBJECTID":510395},"geometry":{"x":173469.71999999974,"y":2564869.5500000026}},{"attributes":{"ID":510423,"DIS_CODE":0,"TOWNNAME":"麻豆區","LI":"東角里","LIN":"1鄰","STREET":"興中路","SECT":" ","MAREA":" ","LANE":" ","ALLEY":" ","HOUSE_NO":"１６７號之５","E_COORD97":173475.34,"N_COORD97":2564872.7400000002,"ADDRESS":"興中路１６７號之５","OBJECTID":510396},"geometry":{"x":173475.33999999985,"y":2564872.7400000002}},{"attributes":{"ID":510424,"DIS_CODE":0,"TOWNNAME":"麻豆區","LI":"東角里","LIN":"1鄰","STREET":"興中路","SECT":" ","MAREA":" ","LANE":" ","ALLEY":" ","HOUSE_NO":"１６７號之６","E_COORD97":173480.51000000001,"N_COORD97":2564876.3799999999,"ADDRESS":"興中路１６７號之６","OBJECTID":510397},"geometry":{"x":173480.51000000071,"y":2564876.3800000008}},{"attributes":{"ID":510425,"DIS_CODE":0,"TOWNNAME":"麻豆區","LI":"東角里","LIN":"1鄰","STREET":"興中路","SECT":" ","MAREA":" ","LANE":" ","ALLEY":" ","HOUSE_NO":"１６７號之７","E_COORD97":173485.88,"N_COORD97":2564879.4199999999,"ADDRESS":"興中路１６７號之７","OBJECTID":510398},"geometry":{"x":173485.87999999989,"y":2564879.4200000018}},{"attributes":{"ID":510426,"DIS_CODE":0,"TOWNNAME":"麻豆區","LI":"東角里","LIN":"1鄰","STREET":"興中路","SECT":" ","MAREA":" ","LANE":" ","ALLEY":" ","HOUSE_NO":"１６７號之８","E_COORD97":173490.26999999999,"N_COORD97":2564884.3399999999,"ADDRESS":"興中路１６７號之８","OBJECTID":510399},"geometry":{"x":173490.27000000048,"y":2564884.3400000017}},{"attributes":{"ID":510427,"DIS_CODE":0,"TOWNNAME":"麻豆區","LI":"東角里","LIN":"1鄰","STREET":"興中路","SECT":" ","MAREA":" ","LANE":" ","ALLEY":" ","HOUSE_NO":"１６７號之９","E_COORD97":173495.26999999999,"N_COORD97":2564888.0099999998,"ADDRESS":"興中路１６７號之９","OBJECTID":510400},"geometry":{"x":173495.27000000048,"y":2564888.0099999998}}]}