{"displayFieldName":"TOWNNAME","fieldAliases":{"ID":"ID","DIS_CODE":"DIS_CODE","TOWNNAME":"TOWNNAME","LI":"LI","LIN":"LIN","STREET":"STREET","SECT":"SECT","MAREA":"MAREA","LANE":"LANE","ALLEY":"ALLEY","HOUSE_NO":"HOUSE_NO","E_COORD97":"E_COORD97","N_COORD97":"N_COORD97","ADDRESS":"ADDRESS","OBJECTID":"OBJECTID"},"geometryType":"esriGeometryPoint","spatialReference":{"wkid":102443,"latestWkid":3826},"fields":[{"name":"ID","type":"esriFieldTypeDouble","alias":"ID"},{"name":"DIS_CODE","type":"esriFieldTypeInteger","alias":"DIS_CODE"},{"name":"TOWNNAME","type":"esriFieldTypeString","alias":"TOWNNAME","length":8},{"name":"LI","type":"esriFieldTypeString","alias":"LI","length":8},{"name":"LIN","type":"esriFieldTypeString","alias":"LIN","length":12},{"name":"STREET","type":"esriFieldTypeString","alias":"STREET","length":20},{"name":"SECT","type":"esriFieldTypeString","alias":"SECT","length":8},{"name":"MAREA","type":"esriFieldTypeString","alias":"MAREA","length":12},{"name":"LANE","type":"esriFieldTypeString","alias":"LANE","length":10},{"name":"ALLEY","type":"esriFieldTypeString","alias":"ALLEY","length":10},{"name":"HOUSE_NO","type":"esriFieldTypeString","alias":"HOUSE_NO","length":20},{"name":"E_COORD97","type":"esriFieldTypeDouble","alias":"E_COORD97"},{"name":"N_COORD97","type":"esriFieldTypeDouble","alias":"N_COORD97"},{"name":"ADDRESS","type":"esriFieldTypeString","alias":"ADDRESS","length":50},{"name":"OBJECTID","type":"esriFieldTypeOID","alias":"OBJECTID"}],"features":[{"attributes":{"ID":340410,"DIS_CODE":0,"TOWNNAME":"北區","LI":"正覺里","LIN":"5鄰","STREET":"北安路","SECT":"一段","MAREA":" ","LANE":"５１巷","ALLEY":" ","HOUSE_NO":"７號","E_COORD97":169144.25,"N_COORD97":2546125.2400000002,"ADDRESS":"北安路一段５１巷７號","OBJECTID":340401},"geometry":{"x":169144.25000000093,"y":2546125.2400000021}},{"attributes":{"ID":340411,"DIS_CODE":0,"TOWNNAME":"北區","LI":"正覺里","LIN":"5鄰","STREET":"北安路","SECT":"一段","MAREA":" ","LANE":"５１巷","ALLEY":" ","HOUSE_NO":"８號","E_COORD97":169124.81,"N_COORD97":2546135.1899999999,"ADDRESS":"北安路一段５１巷８號","OBJECTID":340402},"geometry":{"x":169124.81000000052,"y":2546135.1900000013}},{"attributes":{"ID":340412,"DIS_CODE":0,"TOWNNAME":"北區","LI":"正覺里","LIN":"5鄰","STREET":"北安路","SECT":"一段","MAREA":" ","LANE":"５１巷","ALLEY":" ","HOUSE_NO":"９號","E_COORD97":169140.63,"N_COORD97":2546121.0299999998,"ADDRESS":"北安路一段５１巷９號","OBJECTID":340403},"geometry":{"x":169140.62999999989,"y":2546121.0299999993}},{"attributes":{"ID":340413,"DIS_CODE":0,"TOWNNAME":"關廟區","LI":"北花里","LIN":"1鄰","STREET":"中正路","SECT":" ","MAREA":" ","LANE":"６４６巷","ALLEY":" ","HOUSE_NO":"５號","E_COORD97":181837.26000000001,"N_COORD97":2540414.25,"ADDRESS":"中正路６４６巷５號","OBJECTID":340404},"geometry":{"x":181837.26000000164,"y":2540414.25}},{"attributes":{"ID":340414,"DIS_CODE":0,"TOWNNAME":"關廟區","LI":"東勢里","LIN":"1鄰","STREET":"東安街","SECT":" ","MAREA":" ","LANE":"１０９巷","ALLEY":" ","HOUSE_NO":"１０號","E_COORD97":181467.42000000001,"N_COORD97":2539623.3199999998,"ADDRESS":"東安街１０９巷１０號","OBJECTID":340405},"geometry":{"x":181467.42000000086,"y":2539623.3200000022}},{"attributes":{"ID":340415,"DIS_CODE":0,"TOWNNAME":"關廟區","LI":"北花里","LIN":"1鄰","STREET":"成功路","SECT":" ","MAREA":" ","LANE":"１６巷","ALLEY":" ","HOUSE_NO":"２號","E_COORD97":181796.92000000001,"N_COORD97":2540427.27,"ADDRESS":"成功路１６巷２號","OBJECTID":340406},"geometry":{"x":181796.91999999993,"y":2540427.2699999996}},{"attributes":{"ID":340416,"DIS_CODE":0,"TOWNNAME":"關廟區","LI":"北勢里","LIN":"1鄰","STREET":"北新街","SECT":" ","MAREA":" ","LANE":"１５巷","ALLEY":" ","HOUSE_NO":"１５號","E_COORD97":181240.48999999999,"N_COORD97":2540325.25,"ADDRESS":"北新街１５巷１５號","OBJECTID":340407},"geometry":{"x":181240.49000000022,"y":2540325.2500000019}},{"attributes":{"ID":340417,"DIS_CODE":0,"TOWNNAME":"關廟區","LI":"北勢里","LIN":"1鄰","STREET":"北新街","SECT":" ","MAREA":" ","LANE":"１５巷","ALLEY":" ","HOUSE_NO":"１０號","E_COORD97":181253.89000000001,"N_COORD97":2540330.25,"ADDRESS":"北新街１５巷１０號","OBJECTID":340408},"geometry":{"x":181253.8900000006,"y":2540330.2499999981}},{"attributes":{"ID":340418,"DIS_CODE":0,"TOWNNAME":"關廟區","LI":"南花里","LIN":"1鄰","STREET":"四維街","SECT":" ","MAREA":" ","LANE":"２６０巷","ALLEY":" ","HOUSE_NO":"１２號","E_COORD97":181901.445274,"N_COORD97":2540031.4002100001,"ADDRESS":"四維街２６０巷１２號","OBJECTID":340409},"geometry":{"x":181901.44527400099,"y":2540031.4002110008}},{"attributes":{"ID":340419,"DIS_CODE":0,"TOWNNAME":"關廟區","LI":"龜洞里","LIN":"1鄰","STREET":"南雄南路","SECT":" ","MAREA":" ","LANE":"６６０巷","ALLEY":" ","HOUSE_NO":"８號","E_COORD97":183380.09,"N_COORD97":2533637.2999999998,"ADDRESS":"南雄南路６６０巷８號","OBJECTID":340410},"geometry":{"x":183380.09000000078,"y":2533637.3000000007}},{"attributes":{"ID":340420,"DIS_CODE":0,"TOWNNAME":"關廟區","LI":"南花里","LIN":"1鄰","STREET":"四維街","SECT":" ","MAREA":" ","LANE":"２６０巷","ALLEY":" ","HOUSE_NO":"９號","E_COORD97":181890.95999999999,"N_COORD97":2540076.25,"ADDRESS":"四維街２６０巷９號","OBJECTID":340411},"geometry":{"x":181890.96000000089,"y":2540076.2500000037}},{"attributes":{"ID":340421,"DIS_CODE":0,"TOWNNAME":"關廟區","LI":"北勢里","LIN":"1鄰","STREET":"北新街","SECT":" ","MAREA":" ","LANE":"１５巷","ALLEY":" ","HOUSE_NO":"１８號","E_COORD97":181240.48999999999,"N_COORD97":2540334.25,"ADDRESS":"北新街１５巷１８號","OBJECTID":340412},"geometry":{"x":181240.49000000022,"y":2540334.2500000019}},{"attributes":{"ID":340422,"DIS_CODE":0,"TOWNNAME":"關廟區","LI":"香洋里","LIN":"1鄰","STREET":"中正路","SECT":" ","MAREA":" ","LANE":"９０８巷","ALLEY":" ","HOUSE_NO":"９號","E_COORD97":181221.56,"N_COORD97":2540318.25,"ADDRESS":"中正路９０８巷９號","OBJECTID":340413},"geometry":{"x":181221.56000000052,"y":2540318.2500000019}},{"attributes":{"ID":340423,"DIS_CODE":0,"TOWNNAME":"關廟區","LI":"香洋里","LIN":"1鄰","STREET":"中正路","SECT":" ","MAREA":" ","LANE":"９０８巷","ALLEY":" ","HOUSE_NO":"５號","E_COORD97":181222.35999999999,"N_COORD97":2540309.25,"ADDRESS":"中正路９０８巷５號","OBJECTID":340414},"geometry":{"x":181222.36000000127,"y":2540309.25}},{"attributes":{"ID":340424,"DIS_CODE":0,"TOWNNAME":"關廟區","LI":"南花里","LIN":"1鄰","STREET":"四維街","SECT":" ","MAREA":" ","LANE":"２６０巷","ALLEY":" ","HOUSE_NO":"３號","E_COORD97":181887.56,"N_COORD97":2540040.25,"ADDRESS":"四維街２６０巷３號","OBJECTID":340415},"geometry":{"x":181887.56000000145,"y":2540040.2500000019}},{"attributes":{"ID":340425,"DIS_CODE":0,"TOWNNAME":"關廟區","LI":"香洋里","LIN":"1鄰","STREET":"中正路","SECT":" ","MAREA":" ","LANE":"９０８巷","ALLEY":" ","HOUSE_NO":"３號","E_COORD97":181222.35999999999,"N_COORD97":2540304.25,"ADDRESS":"中正路９０８巷３號","OBJECTID":340416},"geometry":{"x":181222.36000000127,"y":2540304.2500000019}},{"attributes":{"ID":340426,"DIS_CODE":0,"TOWNNAME":"關廟區","LI":"新埔里","LIN":"1鄰","STREET":"忠孝街","SECT":" ","MAREA":" ","LANE":"２５８巷","ALLEY":" ","HOUSE_NO":"１２號","E_COORD97":181214.39000000001,"N_COORD97":2540856.25,"ADDRESS":"忠孝街２５８巷１２號","OBJECTID":340417},"geometry":{"x":181214.3900000006,"y":2540856.2500000019}},{"attributes":{"ID":340427,"DIS_CODE":0,"TOWNNAME":"新營區","LI":"南興里","LIN":"4鄰","STREET":"和平路","SECT":" ","MAREA":" ","LANE":"９５巷","ALLEY":" ","HOUSE_NO":"３８號","E_COORD97":179542.14999999999,"N_COORD97":2577592.5800000001,"ADDRESS":"和平路９５巷３８號","OBJECTID":340418},"geometry":{"x":179542.1500000013,"y":2577592.5800000019}},{"attributes":{"ID":340428,"DIS_CODE":0,"TOWNNAME":"新營區","LI":"民榮里","LIN":"36鄰","STREET":"新進路","SECT":"二段","MAREA":" ","LANE":"４４５巷","ALLEY":" ","HOUSE_NO":"４０號","E_COORD97":178510.89999999999,"N_COORD97":2577990.6600000001,"ADDRESS":"新進路二段４４５巷４０號","OBJECTID":340419},"geometry":{"x":178510.90000000224,"y":2577990.6600000001}},{"attributes":{"ID":340429,"DIS_CODE":0,"TOWNNAME":"新營區","LI":"忠政里","LIN":"8鄰","STREET":"中正路","SECT":" ","MAREA":" ","LANE":"３７巷","ALLEY":" ","HOUSE_NO":"３６號","E_COORD97":179997.76999999999,"N_COORD97":2579197.3300000001,"ADDRESS":"中正路３７巷３６號","OBJECTID":340420},"geometry":{"x":179997.77000000142,"y":2579197.3300000038}},{"attributes":{"ID":340430,"DIS_CODE":0,"TOWNNAME":"新營區","LI":"南興里","LIN":"7鄰","STREET":"和平路","SECT":" ","MAREA":" ","LANE":"９５巷","ALLEY":" ","HOUSE_NO":"１號","E_COORD97":179437.63,"N_COORD97":2577621.8599999999,"ADDRESS":"和平路９５巷１號","OBJECTID":340421},"geometry":{"x":179437.62999999989,"y":2577621.8599999994}},{"attributes":{"ID":340431,"DIS_CODE":0,"TOWNNAME":"新化區","LI":"豐榮里","LIN":"1鄰","STREET":"大智路","SECT":" ","MAREA":" ","LANE":"２８巷","ALLEY":" ","HOUSE_NO":"２２號","E_COORD97":178246.03,"N_COORD97":2548436.25,"ADDRESS":"大智路２８巷２２號","OBJECTID":340422},"geometry":{"x":178246.03000000119,"y":2548436.25}},{"attributes":{"ID":340432,"DIS_CODE":0,"TOWNNAME":"新化區","LI":"豐榮里","LIN":"1鄰","STREET":"大智路","SECT":" ","MAREA":" ","LANE":"２８巷","ALLEY":" ","HOUSE_NO":"１３號","E_COORD97":178246.42999999999,"N_COORD97":2548420.25,"ADDRESS":"大智路２８巷１３號","OBJECTID":340423},"geometry":{"x":178246.43000000063,"y":2548420.2500000019}},{"attributes":{"ID":340433,"DIS_CODE":0,"TOWNNAME":"新化區","LI":"豐榮里","LIN":"1鄰","STREET":"大智路","SECT":" ","MAREA":" ","LANE":"２８巷","ALLEY":" ","HOUSE_NO":"１４號","E_COORD97":178260.63,"N_COORD97":2548424.25,"ADDRESS":"大智路２８巷１４號","OBJECTID":340424},"geometry":{"x":178260.62999999989,"y":2548424.2500000019}},{"attributes":{"ID":340434,"DIS_CODE":0,"TOWNNAME":"新化區","LI":"豐榮里","LIN":"1鄰","STREET":"中山路","SECT":" ","MAREA":" ","LANE":"６２７巷","ALLEY":" ","HOUSE_NO":"１４號","E_COORD97":178204.56,"N_COORD97":2548456.25,"ADDRESS":"中山路６２７巷１４號","OBJECTID":340425},"geometry":{"x":178204.56000000052,"y":2548456.25}},{"attributes":{"ID":340435,"DIS_CODE":0,"TOWNNAME":"新營區","LI":"忠政里","LIN":"31鄰","STREET":"府西路","SECT":" ","MAREA":" ","LANE":"７７巷","ALLEY":" ","HOUSE_NO":"２６號","E_COORD97":179726.48000000001,"N_COORD97":2579151,"ADDRESS":"府西路７７巷２６號","OBJECTID":340426},"geometry":{"x":179726.48000000138,"y":2579151}},{"attributes":{"ID":340436,"DIS_CODE":0,"TOWNNAME":"新營區","LI":"南興里","LIN":"4鄰","STREET":"和平路","SECT":" ","MAREA":" ","LANE":"９５巷","ALLEY":" ","HOUSE_NO":"３８號之２","E_COORD97":179544.64999999999,"N_COORD97":2577592.6299999999,"ADDRESS":"和平路９５巷３８之２號","OBJECTID":340427},"geometry":{"x":179544.65000000037,"y":2577592.629999999}},{"attributes":{"ID":340437,"DIS_CODE":0,"TOWNNAME":"新營區","LI":"忠政里","LIN":"4鄰","STREET":"中正路","SECT":" ","MAREA":" ","LANE":"３７巷","ALLEY":" ","HOUSE_NO":"２號","E_COORD97":180065.81,"N_COORD97":2579147.1699999999,"ADDRESS":"中正路３７巷２號","OBJECTID":340428},"geometry":{"x":180065.81000000052,"y":2579147.1699999981}},{"attributes":{"ID":340438,"DIS_CODE":0,"TOWNNAME":"新營區","LI":"民榮里","LIN":"26鄰","STREET":"新進路","SECT":"二段","MAREA":" ","LANE":"４４５巷","ALLEY":" ","HOUSE_NO":"２２號","E_COORD97":178575.54000000001,"N_COORD97":2578033.54,"ADDRESS":"新進路二段４４５巷２２號","OBJECTID":340429},"geometry":{"x":178575.54000000004,"y":2578033.540000001}},{"attributes":{"ID":340439,"DIS_CODE":0,"TOWNNAME":"東區","LI":"裕聖里","LIN":"8鄰","STREET":"裕信六街","SECT":" ","MAREA":" ","LANE":" ","ALLEY":" ","HOUSE_NO":"７３號","E_COORD97":172671.98000000001,"N_COORD97":2541902.8599999999,"ADDRESS":"裕信六街７３號","OBJECTID":340430},"geometry":{"x":172671.98000000045,"y":2541902.8600000013}},{"attributes":{"ID":340440,"DIS_CODE":0,"TOWNNAME":"東區","LI":"裕聖里","LIN":"8鄰","STREET":"裕信六街","SECT":" ","MAREA":" ","LANE":" ","ALLEY":" ","HOUSE_NO":"７５號","E_COORD97":172671.98000000001,"N_COORD97":2541909.02,"ADDRESS":"裕信六街７５號","OBJECTID":340431},"geometry":{"x":172671.98000000045,"y":2541909.0200000014}},{"attributes":{"ID":340441,"DIS_CODE":0,"TOWNNAME":"東區","LI":"裕聖里","LIN":"8鄰","STREET":"裕信六街","SECT":" ","MAREA":" ","LANE":" ","ALLEY":" ","HOUSE_NO":"７７號","E_COORD97":172671.63,"N_COORD97":2541913.77,"ADDRESS":"裕信六街７７號","OBJECTID":340432},"geometry":{"x":172671.62999999989,"y":2541913.7700000014}},{"attributes":{"ID":340442,"DIS_CODE":0,"TOWNNAME":"東區","LI":"裕聖里","LIN":"8鄰","STREET":"裕信六街","SECT":" ","MAREA":" ","LANE":" ","ALLEY":" ","HOUSE_NO":"７９號","E_COORD97":172686.94,"N_COORD97":2541914.29,"ADDRESS":"裕信六街７９號","OBJECTID":340433},"geometry":{"x":172686.94000000041,"y":2541914.2899999991}},{"attributes":{"ID":340443,"DIS_CODE":0,"TOWNNAME":"東區","LI":"裕聖里","LIN":"8鄰","STREET":"裕信六街","SECT":" ","MAREA":" ","LANE":" ","ALLEY":" ","HOUSE_NO":"８１號","E_COORD97":172687.45999999999,"N_COORD97":2541909.5499999998,"ADDRESS":"裕信六街８１號","OBJECTID":340434},"geometry":{"x":172687.46000000089,"y":2541909.5500000026}},{"attributes":{"ID":340444,"DIS_CODE":0,"TOWNNAME":"楠西區","LI":"灣丘里","LIN":"5鄰","STREET":" ","SECT":" ","MAREA":"灣丘","LANE":" ","ALLEY":" ","HOUSE_NO":"５１號之１２","E_COORD97":200543.98999999999,"N_COORD97":2564276.2999999998,"ADDRESS":"灣丘５１號之１２","OBJECTID":340435},"geometry":{"x":200543.99000000022,"y":2564276.3000000007}},{"attributes":{"ID":340445,"DIS_CODE":0,"TOWNNAME":"北區","LI":"裕民里","LIN":"5鄰","STREET":"成功路","SECT":" ","MAREA":" ","LANE":"５０４巷","ALLEY":" ","HOUSE_NO":"６２號","E_COORD97":167746.07000000001,"N_COORD97":2544807.6400000001,"ADDRESS":"成功路５０４巷６２號","OBJECTID":340436},"geometry":{"x":167746.07000000123,"y":2544807.6400000025}},{"attributes":{"ID":340446,"DIS_CODE":0,"TOWNNAME":"北區","LI":"裕民里","LIN":"5鄰","STREET":"成功路","SECT":" ","MAREA":" ","LANE":"５０４巷","ALLEY":" ","HOUSE_NO":"６３號","E_COORD97":167755.57999999999,"N_COORD97":2544827.0499999998,"ADDRESS":"成功路５０４巷６３號","OBJECTID":340437},"geometry":{"x":167755.58000000101,"y":2544827.0500000007}},{"attributes":{"ID":340447,"DIS_CODE":0,"TOWNNAME":"北區","LI":"裕民里","LIN":"5鄰","STREET":"成功路","SECT":" ","MAREA":" ","LANE":"５０４巷","ALLEY":" ","HOUSE_NO":"６４號","E_COORD97":167749.94,"N_COORD97":2544802.0099999998,"ADDRESS":"成功路５０４巷６４號","OBJECTID":340438},"geometry":{"x":167749.94000000134,"y":2544802.0100000016}},{"attributes":{"ID":340448,"DIS_CODE":0,"TOWNNAME":"北區","LI":"裕民里","LIN":"5鄰","STREET":"成功路","SECT":" ","MAREA":" ","LANE":"５０４巷","ALLEY":" ","HOUSE_NO":"６５號","E_COORD97":167760.51000000001,"N_COORD97":2544825.29,"ADDRESS":"成功路５０４巷６５號","OBJECTID":340439},"geometry":{"x":167760.51000000164,"y":2544825.290000001}},{"attributes":{"ID":340449,"DIS_CODE":0,"TOWNNAME":"北區","LI":"裕民里","LIN":"5鄰","STREET":"成功路","SECT":" ","MAREA":" ","LANE":"５０４巷","ALLEY":" ","HOUSE_NO":"６６號","E_COORD97":167753.82000000001,"N_COORD97":2544801.6600000001,"ADDRESS":"成功路５０４巷６６號","OBJECTID":340440},"geometry":{"x":167753.82000000216,"y":2544801.6600000001}},{"attributes":{"ID":340450,"DIS_CODE":0,"TOWNNAME":"北區","LI":"裕民里","LIN":"5鄰","STREET":"成功路","SECT":" ","MAREA":" ","LANE":"５０４巷","ALLEY":" ","HOUSE_NO":"６８號","E_COORD97":167759.45000000001,"N_COORD97":2544799.5499999998,"ADDRESS":"成功路５０４巷６８號","OBJECTID":340441},"geometry":{"x":167759.44999999925,"y":2544799.5500000007}},{"attributes":{"ID":340451,"DIS_CODE":0,"TOWNNAME":"北區","LI":"裕民里","LIN":"5鄰","STREET":"成功路","SECT":" ","MAREA":" ","LANE":"５０４巷","ALLEY":" ","HOUSE_NO":"６９號","E_COORD97":167768.26000000001,"N_COORD97":2544820.3700000001,"ADDRESS":"成功路５０４巷６９號","OBJECTID":340442},"geometry":{"x":167768.25999999978,"y":2544820.3700000029}},{"attributes":{"ID":340452,"DIS_CODE":0,"TOWNNAME":"北區","LI":"裕民里","LIN":"5鄰","STREET":"臨安路","SECT":"二段","MAREA":" ","LANE":"５０巷","ALLEY":" ","HOUSE_NO":"２３號","E_COORD97":167710.37,"N_COORD97":2544755.5800000001,"ADDRESS":"臨安路二段５０巷２３號","OBJECTID":340443},"geometry":{"x":167710.37000000011,"y":2544755.5800000001}},{"attributes":{"ID":340453,"DIS_CODE":0,"TOWNNAME":"北區","LI":"裕民里","LIN":"5鄰","STREET":"臨安路","SECT":"二段","MAREA":" ","LANE":"５０巷","ALLEY":" ","HOUSE_NO":"２５號","E_COORD97":167721.76999999999,"N_COORD97":2544750.6600000001,"ADDRESS":"臨安路二段５０巷２５號","OBJECTID":340444},"geometry":{"x":167721.77000000048,"y":2544750.6600000001}},{"attributes":{"ID":340454,"DIS_CODE":0,"TOWNNAME":"北區","LI":"裕民里","LIN":"5鄰","STREET":"臨安路","SECT":"二段","MAREA":" ","LANE":"５０巷","ALLEY":" ","HOUSE_NO":"２７號","E_COORD97":167726.34,"N_COORD97":2544748.5499999998,"ADDRESS":"臨安路二段５０巷２７號","OBJECTID":340445},"geometry":{"x":167726.34000000078,"y":2544748.5500000007}},{"attributes":{"ID":340455,"DIS_CODE":0,"TOWNNAME":"北區","LI":"裕民里","LIN":"5鄰","STREET":"臨安路","SECT":"二段","MAREA":" ","LANE":"５０巷","ALLEY":" ","HOUSE_NO":"２９號","E_COORD97":167732.67999999999,"N_COORD97":2544746.79,"ADDRESS":"臨安路二段５０巷２９號","OBJECTID":340446},"geometry":{"x":167732.68000000063,"y":2544746.7900000028}},{"attributes":{"ID":340456,"DIS_CODE":0,"TOWNNAME":"北區","LI":"和順里","LIN":"5鄰","STREET":"西門路","SECT":"四段","MAREA":" ","LANE":"１巷","ALLEY":" ","HOUSE_NO":"１１號","E_COORD97":168418.39000000001,"N_COORD97":2545249.0299999998,"ADDRESS":"西門路四段１巷１１號","OBJECTID":340447},"geometry":{"x":168418.38999999966,"y":2545249.0299999993}},{"attributes":{"ID":340457,"DIS_CODE":0,"TOWNNAME":"北區","LI":"和順里","LIN":"5鄰","STREET":"西門路","SECT":"四段","MAREA":" ","LANE":"１巷","ALLEY":" ","HOUSE_NO":"１３號","E_COORD97":168412.5,"N_COORD97":2545251.5499999998,"ADDRESS":"西門路四段１巷１３號","OBJECTID":340448},"geometry":{"x":168412.5,"y":2545251.5500000007}},{"attributes":{"ID":340458,"DIS_CODE":0,"TOWNNAME":"北區","LI":"和順里","LIN":"5鄰","STREET":"西門路","SECT":"四段","MAREA":" ","LANE":"１巷","ALLEY":" ","HOUSE_NO":"１５號","E_COORD97":168408.29999999999,"N_COORD97":2545255.4199999999,"ADDRESS":"西門路四段１巷１５號","OBJECTID":340449},"geometry":{"x":168408.30000000075,"y":2545255.4200000037}},{"attributes":{"ID":340459,"DIS_CODE":0,"TOWNNAME":"東區","LI":"裕聖里","LIN":"8鄰","STREET":"裕信六街","SECT":" ","MAREA":" ","LANE":" ","ALLEY":" ","HOUSE_NO":"８３號","E_COORD97":172687.42000000001,"N_COORD97":2541902.6899999999,"ADDRESS":"裕信六街８３號","OBJECTID":340450},"geometry":{"x":172687.42000000179,"y":2541902.6899999995}},{"attributes":{"ID":340460,"DIS_CODE":0,"TOWNNAME":"東區","LI":"裕聖里","LIN":"8鄰","STREET":"裕信六街","SECT":" ","MAREA":" ","LANE":" ","ALLEY":" ","HOUSE_NO":"８５號","E_COORD97":172687.73999999999,"N_COORD97":2541896.6400000001,"ADDRESS":"裕信六街８５號","OBJECTID":340451},"geometry":{"x":172687.74000000115,"y":2541896.6400000006}},{"attributes":{"ID":340461,"DIS_CODE":0,"TOWNNAME":"東區","LI":"裕聖里","LIN":"8鄰","STREET":"裕信六街","SECT":" ","MAREA":" ","LANE":" ","ALLEY":" ","HOUSE_NO":"８７號","E_COORD97":172701.01000000001,"N_COORD97":2541896.3599999999,"ADDRESS":"裕信六街８７號","OBJECTID":340452},"geometry":{"x":172701.01000000071,"y":2541896.3600000013}},{"attributes":{"ID":340462,"DIS_CODE":0,"TOWNNAME":"東區","LI":"裕聖里","LIN":"8鄰","STREET":"裕信六街","SECT":" ","MAREA":" ","LANE":" ","ALLEY":" ","HOUSE_NO":"８９號","E_COORD97":172701.01000000001,"N_COORD97":2541902.8599999999,"ADDRESS":"裕信六街８９號","OBJECTID":340453},"geometry":{"x":172701.01000000071,"y":2541902.8600000013}},{"attributes":{"ID":340463,"DIS_CODE":0,"TOWNNAME":"東區","LI":"裕聖里","LIN":"8鄰","STREET":"裕信六街","SECT":" ","MAREA":" ","LANE":" ","ALLEY":" ","HOUSE_NO":"９１號","E_COORD97":172702.23999999999,"N_COORD97":2541909.5499999998,"ADDRESS":"裕信六街９１號","OBJECTID":340454},"geometry":{"x":172702.24000000022,"y":2541909.5500000026}},{"attributes":{"ID":340464,"DIS_CODE":0,"TOWNNAME":"東區","LI":"裕聖里","LIN":"8鄰","STREET":"裕信六街","SECT":" ","MAREA":" ","LANE":" ","ALLEY":" ","HOUSE_NO":"９３號","E_COORD97":172702.42000000001,"N_COORD97":2541915.1699999999,"ADDRESS":"裕信六街９３號","OBJECTID":340455},"geometry":{"x":172702.41999999993,"y":2541915.1700000018}},{"attributes":{"ID":340465,"DIS_CODE":0,"TOWNNAME":"東區","LI":"裕聖里","LIN":"8鄰","STREET":"裕信六街","SECT":" ","MAREA":" ","LANE":" ","ALLEY":" ","HOUSE_NO":"９５號","E_COORD97":172717.37,"N_COORD97":2541913.9399999999,"ADDRESS":"裕信六街９５號","OBJECTID":340456},"geometry":{"x":172717.37000000104,"y":2541913.9399999995}},{"attributes":{"ID":340466,"DIS_CODE":0,"TOWNNAME":"東區","LI":"裕聖里","LIN":"8鄰","STREET":"裕信六街","SECT":" ","MAREA":" ","LANE":" ","ALLEY":" ","HOUSE_NO":"９７號","E_COORD97":172717.73000000001,"N_COORD97":2541908.1400000001,"ADDRESS":"裕信六街９７號","OBJECTID":340457},"geometry":{"x":172717.73000000045,"y":2541908.1399999987}},{"attributes":{"ID":340467,"DIS_CODE":0,"TOWNNAME":"東區","LI":"裕聖里","LIN":"8鄰","STREET":"裕信六街","SECT":" ","MAREA":" ","LANE":" ","ALLEY":" ","HOUSE_NO":"９９號","E_COORD97":172717.73000000001,"N_COORD97":2541902.8599999999,"ADDRESS":"裕信六街９９號","OBJECTID":340458},"geometry":{"x":172717.73000000045,"y":2541902.8600000013}},{"attributes":{"ID":340468,"DIS_CODE":0,"TOWNNAME":"麻豆區","LI":"東角里","LIN":"8鄰","STREET":"興中路","SECT":" ","MAREA":" ","LANE":" ","ALLEY":" ","HOUSE_NO":"１８４號之１","E_COORD97":173647.67999999999,"N_COORD97":2564807.25,"ADDRESS":"興中路１８４號之１","OBJECTID":340459},"geometry":{"x":173647.6799999997,"y":2564807.2500000019}},{"attributes":{"ID":340469,"DIS_CODE":0,"TOWNNAME":"麻豆區","LI":"東角里","LIN":"8鄰","STREET":"興中路","SECT":" ","MAREA":" ","LANE":" ","ALLEY":" ","HOUSE_NO":"１８４號之２","E_COORD97":173652.26000000001,"N_COORD97":2564807.2999999998,"ADDRESS":"興中路１８４號之２","OBJECTID":340460},"geometry":{"x":173652.25999999978,"y":2564807.3000000026}},{"attributes":{"ID":340470,"DIS_CODE":0,"TOWNNAME":"麻豆區","LI":"東角里","LIN":"8鄰","STREET":"興中路","SECT":" ","MAREA":" ","LANE":" ","ALLEY":" ","HOUSE_NO":"１８４號之３","E_COORD97":173656.62,"N_COORD97":2564807,"ADDRESS":"興中路１８４號之３","OBJECTID":340461},"geometry":{"x":173656.62000000104,"y":2564806.9999999981}},{"attributes":{"ID":340471,"DIS_CODE":0,"TOWNNAME":"麻豆區","LI":"東角里","LIN":"8鄰","STREET":"興中路","SECT":" ","MAREA":" ","LANE":" ","ALLEY":" ","HOUSE_NO":"１８４號之４","E_COORD97":173660.82999999999,"N_COORD97":2564807.0899999999,"ADDRESS":"興中路１８４號之４","OBJECTID":340462},"geometry":{"x":173660.83000000007,"y":2564807.0900000017}},{"attributes":{"ID":340472,"DIS_CODE":0,"TOWNNAME":"麻豆區","LI":"東角里","LIN":"8鄰","STREET":"興中路","SECT":" ","MAREA":" ","LANE":" ","ALLEY":" ","HOUSE_NO":"１８４號","E_COORD97":173643.13,"N_COORD97":2564806.9100000001,"ADDRESS":"興中路１８４號","OBJECTID":340463},"geometry":{"x":173643.12999999989,"y":2564806.9100000001}},{"attributes":{"ID":340473,"DIS_CODE":0,"TOWNNAME":"麻豆區","LI":"東角里","LIN":"8鄰","STREET":"興中路","SECT":" ","MAREA":" ","LANE":" ","ALLEY":" ","HOUSE_NO":"１８６號之１０","E_COORD97":173691.23999999999,"N_COORD97":2564803.52,"ADDRESS":"興中路１８６號之１０","OBJECTID":340464},"geometry":{"x":173691.24000000115,"y":2564803.5200000033}},{"attributes":{"ID":340474,"DIS_CODE":0,"TOWNNAME":"麻豆區","LI":"東角里","LIN":"8鄰","STREET":"興中路","SECT":" ","MAREA":" ","LANE":" ","ALLEY":" ","HOUSE_NO":"１８６號之１１","E_COORD97":173697.72,"N_COORD97":2564803.5499999998,"ADDRESS":"興中路１８６號之１１","OBJECTID":340465},"geometry":{"x":173697.72000000067,"y":2564803.5500000007}},{"attributes":{"ID":340475,"DIS_CODE":0,"TOWNNAME":"北區","LI":"和順里","LIN":"5鄰","STREET":"西門路","SECT":"四段","MAREA":" ","LANE":"１巷","ALLEY":" ","HOUSE_NO":"１７號","E_COORD97":168403.59,"N_COORD97":2545258.9399999999,"ADDRESS":"西門路四段１巷１７號","OBJECTID":340466},"geometry":{"x":168403.58999999985,"y":2545258.9400000013}},{"attributes":{"ID":340476,"DIS_CODE":0,"TOWNNAME":"楠西區","LI":"龜丹里","LIN":"5鄰","STREET":" ","SECT":" ","MAREA":"龜丹","LANE":" ","ALLEY":" ","HOUSE_NO":"５８號","E_COORD97":199031.64000000001,"N_COORD97":2559327.25,"ADDRESS":"龜丹５８號","OBJECTID":340467},"geometry":{"x":199031.63999999966,"y":2559327.2500000019}},{"attributes":{"ID":340477,"DIS_CODE":0,"TOWNNAME":"北區","LI":"和順里","LIN":"5鄰","STREET":"育德路","SECT":" ","MAREA":" ","LANE":"４８巷","ALLEY":" ","HOUSE_NO":"１號","E_COORD97":168392.98999999999,"N_COORD97":2545244.3300000001,"ADDRESS":"育德路４８巷１號","OBJECTID":340468},"geometry":{"x":168392.99000000022,"y":2545244.3300000001}},{"attributes":{"ID":340478,"DIS_CODE":0,"TOWNNAME":"北區","LI":"和順里","LIN":"5鄰","STREET":"育德路","SECT":" ","MAREA":" ","LANE":"４８巷","ALLEY":" ","HOUSE_NO":"２號","E_COORD97":168381.72,"N_COORD97":2545225.6800000002,"ADDRESS":"育德路４８巷２號","OBJECTID":340469},"geometry":{"x":168381.72000000067,"y":2545225.6799999997}},{"attributes":{"ID":340479,"DIS_CODE":0,"TOWNNAME":"北區","LI":"和順里","LIN":"5鄰","STREET":"育德路","SECT":" ","MAREA":" ","LANE":"４８巷","ALLEY":" ","HOUSE_NO":"３號","E_COORD97":168396.51999999999,"N_COORD97":2545241.4700000002,"ADDRESS":"育德路４８巷３號","OBJECTID":340470},"geometry":{"x":168396.52000000048,"y":2545241.4700000007}},{"attributes":{"ID":340480,"DIS_CODE":0,"TOWNNAME":"北區","LI":"和順里","LIN":"5鄰","STREET":"育德路","SECT":" ","MAREA":" ","LANE":"４８巷","ALLEY":" ","HOUSE_NO":"４號","E_COORD97":168389.45999999999,"N_COORD97":2545221.48,"ADDRESS":"育德路４８巷４號","OBJECTID":340471},"geometry":{"x":168389.45999999996,"y":2545221.4799999986}},{"attributes":{"ID":340481,"DIS_CODE":0,"TOWNNAME":"北區","LI":"和順里","LIN":"5鄰","STREET":"育德路","SECT":" ","MAREA":" ","LANE":"４８巷","ALLEY":" ","HOUSE_NO":"５號","E_COORD97":168400.73000000001,"N_COORD97":2545238.6099999999,"ADDRESS":"育德路４８巷５號","OBJECTID":340472},"geometry":{"x":168400.73000000138,"y":2545238.6099999994}},{"attributes":{"ID":340482,"DIS_CODE":0,"TOWNNAME":"新營區","LI":"中營里","LIN":"14鄰","STREET":"東昇街","SECT":" ","MAREA":" ","LANE":"１７７巷","ALLEY":" ","HOUSE_NO":"２號","E_COORD97":181922.85999999999,"N_COORD97":2579064.3100000001,"ADDRESS":"東昇街１７７巷２號","OBJECTID":340473},"geometry":{"x":181922.86000000034,"y":2579064.3100000005}},{"attributes":{"ID":340483,"DIS_CODE":0,"TOWNNAME":"新營區","LI":"民生里","LIN":"17鄰","STREET":"三民路","SECT":" ","MAREA":" ","LANE":"２０８巷","ALLEY":" ","HOUSE_NO":"２號","E_COORD97":179167.98000000001,"N_COORD97":2578119.29,"ADDRESS":"三民路２０８巷２號","OBJECTID":340474},"geometry":{"x":179167.98000000045,"y":2578119.290000001}},{"attributes":{"ID":340484,"DIS_CODE":0,"TOWNNAME":"新營區","LI":"新北里","LIN":"19鄰","STREET":"民生路","SECT":" ","MAREA":" ","LANE":"２２６巷","ALLEY":" ","HOUSE_NO":"１４號","E_COORD97":179104.28,"N_COORD97":2579097.48,"ADDRESS":"民生路２２６巷１４號","OBJECTID":340475},"geometry":{"x":179104.28000000026,"y":2579097.4800000004}},{"attributes":{"ID":340485,"DIS_CODE":0,"TOWNNAME":"麻豆區","LI":"東角里","LIN":"8鄰","STREET":"興中路","SECT":" ","MAREA":" ","LANE":" ","ALLEY":" ","HOUSE_NO":"１８６號之１","E_COORD97":173669.34,"N_COORD97":2564806.7000000002,"ADDRESS":"興中路１８６號之１","OBJECTID":340476},"geometry":{"x":173669.34000000171,"y":2564806.7000000011}},{"attributes":{"ID":340486,"DIS_CODE":0,"TOWNNAME":"麻豆區","LI":"東角里","LIN":"8鄰","STREET":"興中路","SECT":" ","MAREA":" ","LANE":" ","ALLEY":" ","HOUSE_NO":"１８６號之２","E_COORD97":173673.64999999999,"N_COORD97":2564806.6299999999,"ADDRESS":"興中路１８６號之２","OBJECTID":340477},"geometry":{"x":173673.6500000013,"y":2564806.6300000008}},{"attributes":{"ID":340487,"DIS_CODE":0,"TOWNNAME":"麻豆區","LI":"東角里","LIN":"8鄰","STREET":"興中路","SECT":" ","MAREA":" ","LANE":" ","ALLEY":" ","HOUSE_NO":"１８６號之３","E_COORD97":173677.67000000001,"N_COORD97":2564806.6899999999,"ADDRESS":"興中路１８６號之３","OBJECTID":340478},"geometry":{"x":173677.67000000086,"y":2564806.6900000013}},{"attributes":{"ID":340488,"DIS_CODE":0,"TOWNNAME":"麻豆區","LI":"東角里","LIN":"8鄰","STREET":"興中路","SECT":" ","MAREA":" ","LANE":" ","ALLEY":" ","HOUSE_NO":"１８６號之５","E_COORD97":173668.85999999999,"N_COORD97":2564778.1800000002,"ADDRESS":"興中路１８６號之５","OBJECTID":340479},"geometry":{"x":173668.86000000127,"y":2564778.1799999997}},{"attributes":{"ID":340489,"DIS_CODE":0,"TOWNNAME":"麻豆區","LI":"東角里","LIN":"8鄰","STREET":"興中路","SECT":" ","MAREA":" ","LANE":" ","ALLEY":" ","HOUSE_NO":"１８６號之６","E_COORD97":173670.69,"N_COORD97":2564770.2799999998,"ADDRESS":"興中路１８６號之６","OBJECTID":340480},"geometry":{"x":173670.69000000041,"y":2564770.2799999993}},{"attributes":{"ID":340490,"DIS_CODE":0,"TOWNNAME":"麻豆區","LI":"東角里","LIN":"8鄰","STREET":"興中路","SECT":" ","MAREA":" ","LANE":" ","ALLEY":" ","HOUSE_NO":"１８６號之７","E_COORD97":173688.95000000001,"N_COORD97":2564782.1600000001,"ADDRESS":"興中路１８６號之７","OBJECTID":340481},"geometry":{"x":173688.95000000019,"y":2564782.1600000001}},{"attributes":{"ID":340491,"DIS_CODE":0,"TOWNNAME":"楠西區","LI":"鹿田里","LIN":"5鄰","STREET":" ","SECT":" ","MAREA":"鹿陶洋","LANE":" ","ALLEY":" ","HOUSE_NO":"８０號","E_COORD97":197815.72,"N_COORD97":2561668.25,"ADDRESS":"鹿陶洋８０號","OBJECTID":340482},"geometry":{"x":197815.71999999974,"y":2561668.25}},{"attributes":{"ID":340492,"DIS_CODE":0,"TOWNNAME":"歸仁區","LI":"八甲里","LIN":"5鄰","STREET":"大光二街","SECT":" ","MAREA":" ","LANE":"２６巷","ALLEY":" ","HOUSE_NO":"６號","E_COORD97":177940.72,"N_COORD97":2541760.6099999999,"ADDRESS":"大光二街２６巷６號","OBJECTID":340483},"geometry":{"x":177940.72000000067,"y":2541760.6099999994}},{"attributes":{"ID":340493,"DIS_CODE":0,"TOWNNAME":"歸仁區","LI":"七甲里","LIN":"5鄰","STREET":"中正北路","SECT":"二段","MAREA":" ","LANE":"４５２巷","ALLEY":" ","HOUSE_NO":"１１號","E_COORD97":177530.17000000001,"N_COORD97":2543117.2599999998,"ADDRESS":"中正北路二段４５２巷１１號","OBJECTID":340484},"geometry":{"x":177530.16999999993,"y":2543117.2600000035}},{"attributes":{"ID":340494,"DIS_CODE":0,"TOWNNAME":"歸仁區","LI":"大潭里","LIN":"5鄰","STREET":"大潭一街","SECT":" ","MAREA":" ","LANE":"４８巷","ALLEY":" ","HOUSE_NO":"１３號","E_COORD97":175238.22,"N_COORD97":2534643.25,"ADDRESS":"大潭一街４８巷１３號","OBJECTID":340485},"geometry":{"x":175238.2200000016,"y":2534643.25}},{"attributes":{"ID":340495,"DIS_CODE":0,"TOWNNAME":"南區","LI":"永寧里","LIN":"5鄰","STREET":"灣裡路","SECT":" ","MAREA":" ","LANE":"１６２巷","ALLEY":" ","HOUSE_NO":"１１號","E_COORD97":165977.82000000001,"N_COORD97":2536645.1000000001,"ADDRESS":"灣裡路１６２巷１１號","OBJECTID":340486},"geometry":{"x":165977.82000000123,"y":2536645.0999999996}},{"attributes":{"ID":340496,"DIS_CODE":0,"TOWNNAME":"南區","LI":"永寧里","LIN":"5鄰","STREET":"灣裡路","SECT":" ","MAREA":" ","LANE":"１６２巷","ALLEY":" ","HOUSE_NO":"１３號","E_COORD97":165973.66,"N_COORD97":2536644.5299999998,"ADDRESS":"灣裡路１６２巷１３號","OBJECTID":340487},"geometry":{"x":165973.66000000108,"y":2536644.5299999993}},{"attributes":{"ID":340497,"DIS_CODE":0,"TOWNNAME":"南區","LI":"永寧里","LIN":"5鄰","STREET":"灣裡路","SECT":" ","MAREA":" ","LANE":"１６２巷","ALLEY":" ","HOUSE_NO":"１５號","E_COORD97":165969.98000000001,"N_COORD97":2536644.04,"ADDRESS":"灣裡路１６２巷１５號","OBJECTID":340488},"geometry":{"x":165969.98000000138,"y":2536644.0399999991}},{"attributes":{"ID":340498,"DIS_CODE":0,"TOWNNAME":"南區","LI":"永寧里","LIN":"5鄰","STREET":"灣裡路","SECT":" ","MAREA":" ","LANE":"１６２巷","ALLEY":" ","HOUSE_NO":"１７號","E_COORD97":165965.89999999999,"N_COORD97":2536641.8399999999,"ADDRESS":"灣裡路１６２巷１７號","OBJECTID":340489},"geometry":{"x":165965.90000000037,"y":2536641.8400000017}},{"attributes":{"ID":340499,"DIS_CODE":0,"TOWNNAME":"南區","LI":"永寧里","LIN":"5鄰","STREET":"灣裡路","SECT":" ","MAREA":" ","LANE":"１６２巷","ALLEY":" ","HOUSE_NO":"１９號","E_COORD97":165961.32999999999,"N_COORD97":2536641.3500000001,"ADDRESS":"灣裡路１６２巷１９號","OBJECTID":340490},"geometry":{"x":165961.33000000007,"y":2536641.3500000015}},{"attributes":{"ID":340500,"DIS_CODE":0,"TOWNNAME":"南區","LI":"永寧里","LIN":"5鄰","STREET":"灣裡路","SECT":" ","MAREA":" ","LANE":"１６２巷","ALLEY":" ","HOUSE_NO":"７號","E_COORD97":165980.44,"N_COORD97":2536627.2799999998,"ADDRESS":"灣裡路１６２巷７號","OBJECTID":340491},"geometry":{"x":165980.44000000134,"y":2536627.2800000031}},{"attributes":{"ID":340501,"DIS_CODE":0,"TOWNNAME":"新營區","LI":"忠政里","LIN":"29鄰","STREET":"中正路","SECT":" ","MAREA":" ","LANE":"３９巷","ALLEY":" ","HOUSE_NO":"１６３號","E_COORD97":179744.78,"N_COORD97":2579310.3799999999,"ADDRESS":"中正路３９巷１６３號","OBJECTID":340492},"geometry":{"x":179744.78000000119,"y":2579310.379999999}},{"attributes":{"ID":340502,"DIS_CODE":0,"TOWNNAME":"新營區","LI":"南紙里","LIN":"11鄰","STREET":"太子路","SECT":" ","MAREA":" ","LANE":"２３８巷","ALLEY":" ","HOUSE_NO":"１８號","E_COORD97":177797.31,"N_COORD97":2577878.9399999999,"ADDRESS":"太子路２３８巷１８號","OBJECTID":340493},"geometry":{"x":177797.31000000052,"y":2577878.9399999995}},{"attributes":{"ID":340503,"DIS_CODE":0,"TOWNNAME":"南區","LI":"廣州里","LIN":"1鄰","STREET":"健康路","SECT":"二段","MAREA":" ","LANE":"１１６巷","ALLEY":" ","HOUSE_NO":"３１號","E_COORD97":167398.48999999999,"N_COORD97":2542594.3399999999,"ADDRESS":"健康路二段１１６巷３１號","OBJECTID":340494},"geometry":{"x":167398.49000000115,"y":2542594.3400000036}},{"attributes":{"ID":340504,"DIS_CODE":0,"TOWNNAME":"南區","LI":"廣州里","LIN":"1鄰","STREET":"健康路","SECT":"二段","MAREA":" ","LANE":"１１６巷","ALLEY":" ","HOUSE_NO":"３３號","E_COORD97":167400.07000000001,"N_COORD97":2542597.3599999999,"ADDRESS":"健康路二段１１６巷３３號","OBJECTID":340495},"geometry":{"x":167400.07000000123,"y":2542597.3600000031}},{"attributes":{"ID":340505,"DIS_CODE":0,"TOWNNAME":"麻豆區","LI":"東角里","LIN":"8鄰","STREET":"興中路","SECT":" ","MAREA":" ","LANE":" ","ALLEY":" ","HOUSE_NO":"１８６號之８","E_COORD97":173689.88,"N_COORD97":2564774.3399999999,"ADDRESS":"興中路１８６號之８","OBJECTID":340496},"geometry":{"x":173689.88000000082,"y":2564774.3400000036}},{"attributes":{"ID":340506,"DIS_CODE":0,"TOWNNAME":"麻豆區","LI":"東角里","LIN":"8鄰","STREET":"興中路","SECT":" ","MAREA":" ","LANE":" ","ALLEY":" ","HOUSE_NO":"１８６號之９","E_COORD97":173687.01999999999,"N_COORD97":2564803.4500000002,"ADDRESS":"興中路１８６號之９","OBJECTID":340497},"geometry":{"x":173687.02000000048,"y":2564803.450000003}},{"attributes":{"ID":340507,"DIS_CODE":0,"TOWNNAME":"下營區","LI":"新興里","LIN":"8鄰","STREET":"中山路","SECT":"一段","MAREA":" ","LANE":" ","ALLEY":" ","HOUSE_NO":"１３５號","E_COORD97":174731.10000000001,"N_COORD97":2570598.1499999999,"ADDRESS":"中山路一段１３５號","OBJECTID":340498},"geometry":{"x":174731.09999999963,"y":2570598.1500000022}},{"attributes":{"ID":340508,"DIS_CODE":0,"TOWNNAME":"下營區","LI":"新興里","LIN":"8鄰","STREET":"中山路","SECT":"一段","MAREA":" ","LANE":" ","ALLEY":" ","HOUSE_NO":"１３７號","E_COORD97":174733.95999999999,"N_COORD97":2570599.2999999998,"ADDRESS":"中山路一段１３７號","OBJECTID":340499},"geometry":{"x":174733.96000000089,"y":2570599.3000000007}},{"attributes":{"ID":340509,"DIS_CODE":0,"TOWNNAME":"下營區","LI":"新興里","LIN":"8鄰","STREET":"中山路","SECT":"一段","MAREA":" ","LANE":" ","ALLEY":" ","HOUSE_NO":"１３９號","E_COORD97":174736.81,"N_COORD97":2570600.2999999998,"ADDRESS":"中山路一段１３９號","OBJECTID":340500},"geometry":{"x":174736.80999999959,"y":2570600.3000000045}},{"attributes":{"ID":340510,"DIS_CODE":0,"TOWNNAME":"下營區","LI":"新興里","LIN":"8鄰","STREET":"中山路","SECT":"一段","MAREA":" ","LANE":" ","ALLEY":" ","HOUSE_NO":"１４１號","E_COORD97":174740.01000000001,"N_COORD97":2570601.4300000002,"ADDRESS":"中山路一段１４１號","OBJECTID":340501},"geometry":{"x":174740.01000000071,"y":2570601.4299999978}},{"attributes":{"ID":340511,"DIS_CODE":0,"TOWNNAME":"下營區","LI":"新興里","LIN":"8鄰","STREET":"中山路","SECT":"一段","MAREA":" ","LANE":" ","ALLEY":" ","HOUSE_NO":"１４３號","E_COORD97":174743.42000000001,"N_COORD97":2570605.3700000001,"ADDRESS":"中山路一段１４３號","OBJECTID":340502},"geometry":{"x":174743.41999999993,"y":2570605.370000001}},{"attributes":{"ID":340512,"DIS_CODE":0,"TOWNNAME":"下營區","LI":"新興里","LIN":"8鄰","STREET":"中山路","SECT":"一段","MAREA":" ","LANE":" ","ALLEY":" ","HOUSE_NO":"１４５號","E_COORD97":174747.42999999999,"N_COORD97":2570606.71,"ADDRESS":"中山路一段１４５號","OBJECTID":340503},"geometry":{"x":174747.43000000063,"y":2570606.7100000009}},{"attributes":{"ID":340513,"DIS_CODE":0,"TOWNNAME":"下營區","LI":"新興里","LIN":"8鄰","STREET":"中山路","SECT":"一段","MAREA":" ","LANE":" ","ALLEY":" ","HOUSE_NO":"１４７號","E_COORD97":174751.26000000001,"N_COORD97":2570607.9900000002,"ADDRESS":"中山路一段１４７號","OBJECTID":340504},"geometry":{"x":174751.25999999885,"y":2570607.9900000002}},{"attributes":{"ID":340514,"DIS_CODE":0,"TOWNNAME":"南區","LI":"永寧里","LIN":"5鄰","STREET":"灣裡路","SECT":" ","MAREA":" ","LANE":"８８巷","ALLEY":" ","HOUSE_NO":"１０９號","E_COORD97":165880.97,"N_COORD97":2536631.3999999999,"ADDRESS":"灣裡路８８巷１０９號","OBJECTID":340505},"geometry":{"x":165880.97000000067,"y":2536631.4000000022}},{"attributes":{"ID":340515,"DIS_CODE":0,"TOWNNAME":"南區","LI":"永寧里","LIN":"5鄰","STREET":"灣裡路","SECT":" ","MAREA":" ","LANE":"８８巷","ALLEY":" ","HOUSE_NO":"１１３號","E_COORD97":165887.98999999999,"N_COORD97":2536622.5899999999,"ADDRESS":"灣裡路８８巷１１３號","OBJECTID":340506},"geometry":{"x":165887.99000000115,"y":2536622.5900000017}},{"attributes":{"ID":340516,"DIS_CODE":0,"TOWNNAME":"南區","LI":"永寧里","LIN":"5鄰","STREET":"灣裡路","SECT":" ","MAREA":" ","LANE":"８８巷","ALLEY":" ","HOUSE_NO":"１１５號","E_COORD97":165889.22,"N_COORD97":2536615.73,"ADDRESS":"灣裡路８８巷１１５號","OBJECTID":340507},"geometry":{"x":165889.2200000016,"y":2536615.7300000023}},{"attributes":{"ID":340517,"DIS_CODE":0,"TOWNNAME":"南區","LI":"永寧里","LIN":"5鄰","STREET":"灣裡路","SECT":" ","MAREA":" ","LANE":"８８巷","ALLEY":" ","HOUSE_NO":"１１７號","E_COORD97":165889.87,"N_COORD97":2536609.7799999998,"ADDRESS":"灣裡路８８巷１１７號","OBJECTID":340508},"geometry":{"x":165889.87000000011,"y":2536609.7799999993}},{"attributes":{"ID":340518,"DIS_CODE":0,"TOWNNAME":"南區","LI":"永寧里","LIN":"5鄰","STREET":"灣裡路","SECT":" ","MAREA":" ","LANE":"８８巷","ALLEY":" ","HOUSE_NO":"１１９號","E_COORD97":165905.79000000001,"N_COORD97":2536613,"ADDRESS":"灣裡路８８巷１１９號","OBJECTID":340509},"geometry":{"x":165905.78999999911,"y":2536613.0000000037}},{"attributes":{"ID":340519,"DIS_CODE":0,"TOWNNAME":"南區","LI":"永寧里","LIN":"5鄰","STREET":"灣裡路","SECT":" ","MAREA":" ","LANE":"８８巷","ALLEY":" ","HOUSE_NO":"１２１號","E_COORD97":165907.59,"N_COORD97":2536605.9500000002,"ADDRESS":"灣裡路８８巷１２１號","OBJECTID":340510},"geometry":{"x":165907.59000000078,"y":2536605.9500000011}},{"attributes":{"ID":340520,"DIS_CODE":0,"TOWNNAME":"南區","LI":"廣州里","LIN":"1鄰","STREET":"健康路","SECT":"二段","MAREA":" ","LANE":"１１６巷","ALLEY":" ","HOUSE_NO":"３５號","E_COORD97":167400.98999999999,"N_COORD97":2542602.8599999999,"ADDRESS":"健康路二段１１６巷３５號","OBJECTID":340511},"geometry":{"x":167400.99000000022,"y":2542602.8599999994}},{"attributes":{"ID":340521,"DIS_CODE":0,"TOWNNAME":"南區","LI":"廣州里","LIN":"1鄰","STREET":"健康路","SECT":"二段","MAREA":" ","LANE":"１１６巷","ALLEY":" ","HOUSE_NO":"３７號","E_COORD97":167402.29999999999,"N_COORD97":2542607.9700000002,"ADDRESS":"健康路二段１１６巷３７號","OBJECTID":340512},"geometry":{"x":167402.29999999981,"y":2542607.9700000044}},{"attributes":{"ID":340522,"DIS_CODE":0,"TOWNNAME":"南區","LI":"廣州里","LIN":"1鄰","STREET":"健康路","SECT":"二段","MAREA":" ","LANE":"１１６巷","ALLEY":" ","HOUSE_NO":"３９號","E_COORD97":167403.60999999999,"N_COORD97":2542613.4700000002,"ADDRESS":"健康路二段１１６巷３９號","OBJECTID":340513},"geometry":{"x":167403.61000000034,"y":2542613.4700000007}},{"attributes":{"ID":340523,"DIS_CODE":0,"TOWNNAME":"新化區","LI":"竹林里","LIN":"1鄰","STREET":"竹林路","SECT":" ","MAREA":" ","LANE":"９５巷","ALLEY":" ","HOUSE_NO":"９號","E_COORD97":178790.78,"N_COORD97":2548630.25,"ADDRESS":"竹林路９５巷９號","OBJECTID":340514},"geometry":{"x":178790.78000000026,"y":2548630.2500000037}},{"attributes":{"ID":340524,"DIS_CODE":0,"TOWNNAME":"南區","LI":"廣州里","LIN":"1鄰","STREET":"健康路","SECT":"二段","MAREA":" ","LANE":"１１６巷","ALLEY":" ","HOUSE_NO":"４１號","E_COORD97":167404.13,"N_COORD97":2542618.3199999998,"ADDRESS":"健康路二段１１６巷４１號","OBJECTID":340515},"geometry":{"x":167404.13000000082,"y":2542618.3200000003}},{"attributes":{"ID":340525,"DIS_CODE":0,"TOWNNAME":"南區","LI":"廣州里","LIN":"1鄰","STREET":"健康路","SECT":"二段","MAREA":" ","LANE":"１５０巷","ALLEY":" ","HOUSE_NO":"１９號","E_COORD97":167347.17000000001,"N_COORD97":2542529.04,"ADDRESS":"健康路二段１５０巷１９號","OBJECTID":340516},"geometry":{"x":167347.16999999993,"y":2542529.040000001}},{"attributes":{"ID":340526,"DIS_CODE":0,"TOWNNAME":"南區","LI":"廣州里","LIN":"1鄰","STREET":"健康路","SECT":"二段","MAREA":" ","LANE":"１５０巷","ALLEY":" ","HOUSE_NO":"２１號","E_COORD97":167350.12,"N_COORD97":2542533.6800000002,"ADDRESS":"健康路二段１５０巷２１號","OBJECTID":340517},"geometry":{"x":167350.12000000104,"y":2542533.6799999997}},{"attributes":{"ID":340527,"DIS_CODE":0,"TOWNNAME":"南區","LI":"廣州里","LIN":"1鄰","STREET":"健康路","SECT":"二段","MAREA":" ","LANE":"１５０巷","ALLEY":" ","HOUSE_NO":"２３號","E_COORD97":167353.07999999999,"N_COORD97":2542539.1600000001,"ADDRESS":"健康路二段１５０巷２３號","OBJECTID":340518},"geometry":{"x":167353.08000000007,"y":2542539.160000002}},{"attributes":{"ID":340528,"DIS_CODE":0,"TOWNNAME":"南區","LI":"廣州里","LIN":"1鄰","STREET":"健康路","SECT":"二段","MAREA":" ","LANE":"１５０巷","ALLEY":" ","HOUSE_NO":"２５號","E_COORD97":167356.45000000001,"N_COORD97":2542542.1099999999,"ADDRESS":"健康路二段１５０巷２５號","OBJECTID":340519},"geometry":{"x":167356.45000000112,"y":2542542.1100000013}},{"attributes":{"ID":340529,"DIS_CODE":0,"TOWNNAME":"南區","LI":"廣州里","LIN":"1鄰","STREET":"健康路","SECT":"二段","MAREA":" ","LANE":"１５０巷","ALLEY":" ","HOUSE_NO":"３３號","E_COORD97":167367.85000000001,"N_COORD97":2542552.6499999999,"ADDRESS":"健康路二段１５０巷３３號","OBJECTID":340520},"geometry":{"x":167367.84999999963,"y":2542552.6500000022}},{"attributes":{"ID":340530,"DIS_CODE":0,"TOWNNAME":"南區","LI":"廣州里","LIN":"1鄰","STREET":"健康路","SECT":"二段","MAREA":" ","LANE":"１５０巷","ALLEY":" ","HOUSE_NO":"３９號","E_COORD97":167375.45000000001,"N_COORD97":2542561.5099999998,"ADDRESS":"健康路二段１５０巷３９號","OBJECTID":340521},"geometry":{"x":167375.45000000112,"y":2542561.5099999998}},{"attributes":{"ID":340531,"DIS_CODE":0,"TOWNNAME":"南區","LI":"廣州里","LIN":"1鄰","STREET":"健康路","SECT":"二段","MAREA":" ","LANE":"１５０巷","ALLEY":" ","HOUSE_NO":"４１號","E_COORD97":167375.03,"N_COORD97":2542566.5699999998,"ADDRESS":"健康路二段１５０巷４１號","OBJECTID":340522},"geometry":{"x":167375.03000000119,"y":2542566.5700000022}},{"attributes":{"ID":340532,"DIS_CODE":0,"TOWNNAME":"南區","LI":"廣州里","LIN":"1鄰","STREET":"健康路","SECT":"二段","MAREA":" ","LANE":"１５０巷","ALLEY":" ","HOUSE_NO":"４３號","E_COORD97":167377.57000000001,"N_COORD97":2542569.9399999999,"ADDRESS":"健康路二段１５０巷４３號","OBJECTID":340523},"geometry":{"x":167377.57000000123,"y":2542569.9400000013}},{"attributes":{"ID":340533,"DIS_CODE":0,"TOWNNAME":"歸仁區","LI":"西埔里","LIN":"1鄰","STREET":"西埔三街","SECT":" ","MAREA":" ","LANE":"５１巷","ALLEY":" ","HOUSE_NO":"８６號","E_COORD97":177032.87,"N_COORD97":2543971.25,"ADDRESS":"西埔三街５１巷８６號","OBJECTID":340524},"geometry":{"x":177032.87000000104,"y":2543971.25}},{"attributes":{"ID":340534,"DIS_CODE":0,"TOWNNAME":"歸仁區","LI":"大廟里","LIN":"1鄰","STREET":"大廟二街","SECT":" ","MAREA":" ","LANE":"４５巷","ALLEY":" ","HOUSE_NO":"２號","E_COORD97":176009.17000000001,"N_COORD97":2543990.25,"ADDRESS":"大廟二街４５巷２號","OBJECTID":340525},"geometry":{"x":176009.16999999993,"y":2543990.2500000019}},{"attributes":{"ID":340535,"DIS_CODE":0,"TOWNNAME":"新營區","LI":"民生里","LIN":"26鄰","STREET":"民生路","SECT":" ","MAREA":" ","LANE":"１６３巷","ALLEY":" ","HOUSE_NO":"３９號","E_COORD97":179101.10999999999,"N_COORD97":2578629.0499999998,"ADDRESS":"民生路１６３巷３９號","OBJECTID":340526},"geometry":{"x":179101.1100000022,"y":2578629.0500000007}},{"attributes":{"ID":340536,"DIS_CODE":0,"TOWNNAME":"南區","LI":"喜東里","LIN":"1鄰","STREET":"明興路","SECT":" ","MAREA":" ","LANE":"３４９巷","ALLEY":" ","HOUSE_NO":"４號","E_COORD97":166392.54999999999,"N_COORD97":2538959.48,"ADDRESS":"明興路３４９巷４號","OBJECTID":340527},"geometry":{"x":166392.55000000075,"y":2538959.4799999986}},{"attributes":{"ID":340537,"DIS_CODE":0,"TOWNNAME":"南區","LI":"喜東里","LIN":"1鄰","STREET":"明興路","SECT":" ","MAREA":" ","LANE":"３４９巷","ALLEY":" ","HOUSE_NO":"６號","E_COORD97":166396.78,"N_COORD97":2538958.04,"ADDRESS":"明興路３４９巷６號","OBJECTID":340528},"geometry":{"x":166396.78000000119,"y":2538958.0400000028}},{"attributes":{"ID":340538,"DIS_CODE":0,"TOWNNAME":"將軍區","LI":"仁和里","LIN":"18鄰","STREET":" ","SECT":" ","MAREA":"和巷","LANE":" ","ALLEY":" ","HOUSE_NO":"６２號","E_COORD97":163926.89000000001,"N_COORD97":2569342.77,"ADDRESS":"和巷６２號","OBJECTID":340529},"geometry":{"x":163926.8900000006,"y":2569342.7700000014}},{"attributes":{"ID":340539,"DIS_CODE":0,"TOWNNAME":"新營區","LI":"新北里","LIN":"19鄰","STREET":"民生路","SECT":" ","MAREA":" ","LANE":"２０８巷","ALLEY":" ","HOUSE_NO":"２號","E_COORD97":179097.64000000001,"N_COORD97":2579025.52,"ADDRESS":"民生路２０８巷２號","OBJECTID":340530},"geometry":{"x":179097.6400000006,"y":2579025.5199999996}},{"attributes":{"ID":340540,"DIS_CODE":0,"TOWNNAME":"南區","LI":"喜東里","LIN":"1鄰","STREET":"明興路","SECT":" ","MAREA":" ","LANE":"３７１巷","ALLEY":" ","HOUSE_NO":"１０號","E_COORD97":166389.47,"N_COORD97":2538908.6499999999,"ADDRESS":"明興路３７１巷１０號","OBJECTID":340531},"geometry":{"x":166389.47000000067,"y":2538908.6500000022}},{"attributes":{"ID":340541,"DIS_CODE":0,"TOWNNAME":"下營區","LI":"新興里","LIN":"8鄰","STREET":"中山路","SECT":"一段","MAREA":" ","LANE":" ","ALLEY":" ","HOUSE_NO":"１４９號","E_COORD97":174755.63,"N_COORD97":2570610.0600000001,"ADDRESS":"中山路一段１４９號","OBJECTID":340532},"geometry":{"x":174755.62999999896,"y":2570610.0600000005}},{"attributes":{"ID":340542,"DIS_CODE":0,"TOWNNAME":"下營區","LI":"下營里","LIN":"8鄰","STREET":"中山路","SECT":"一段","MAREA":" ","LANE":" ","ALLEY":" ","HOUSE_NO":"１６號","E_COORD97":174424.60999999999,"N_COORD97":2570466.77,"ADDRESS":"中山路一段１６號","OBJECTID":340533},"geometry":{"x":174424.61000000127,"y":2570466.7700000033}},{"attributes":{"ID":340543,"DIS_CODE":0,"TOWNNAME":"下營區","LI":"下營里","LIN":"8鄰","STREET":"中山路","SECT":"一段","MAREA":" ","LANE":" ","ALLEY":" ","HOUSE_NO":"１８號","E_COORD97":174430.07000000001,"N_COORD97":2570469.4399999999,"ADDRESS":"中山路一段１８號","OBJECTID":340534},"geometry":{"x":174430.07000000123,"y":2570469.4400000013}},{"attributes":{"ID":340544,"DIS_CODE":0,"TOWNNAME":"下營區","LI":"下營里","LIN":"8鄰","STREET":"中山路","SECT":"一段","MAREA":" ","LANE":" ","ALLEY":" ","HOUSE_NO":"２０號","E_COORD97":174434.01000000001,"N_COORD97":2570470.4399999999,"ADDRESS":"中山路一段２０號","OBJECTID":340535},"geometry":{"x":174434.00999999978,"y":2570470.4400000013}},{"attributes":{"ID":340545,"DIS_CODE":0,"TOWNNAME":"下營區","LI":"下營里","LIN":"8鄰","STREET":"中山路","SECT":"一段","MAREA":" ","LANE":" ","ALLEY":" ","HOUSE_NO":"２２號","E_COORD97":174437.95999999999,"N_COORD97":2570471.6400000001,"ADDRESS":"中山路一段２２號","OBJECTID":340536},"geometry":{"x":174437.95999999996,"y":2570471.6400000006}},{"attributes":{"ID":340546,"DIS_CODE":0,"TOWNNAME":"下營區","LI":"下營里","LIN":"8鄰","STREET":"中山路","SECT":"一段","MAREA":" ","LANE":" ","ALLEY":" ","HOUSE_NO":"３０號","E_COORD97":174451.38,"N_COORD97":2570475.0699999998,"ADDRESS":"中山路一段３０號","OBJECTID":340537},"geometry":{"x":174451.38000000082,"y":2570475.0700000003}},{"attributes":{"ID":340547,"DIS_CODE":0,"TOWNNAME":"下營區","LI":"下營里","LIN":"8鄰","STREET":"中山路","SECT":"一段","MAREA":" ","LANE":" ","ALLEY":" ","HOUSE_NO":"３２號","E_COORD97":174455.85000000001,"N_COORD97":2570476.23,"ADDRESS":"中山路一段３２號","OBJECTID":340538},"geometry":{"x":174455.85000000056,"y":2570476.2300000023}},{"attributes":{"ID":340548,"DIS_CODE":0,"TOWNNAME":"南區","LI":"喜東里","LIN":"1鄰","STREET":"明興路","SECT":" ","MAREA":" ","LANE":"３７１巷","ALLEY":" ","HOUSE_NO":"１２號","E_COORD97":166393.19,"N_COORD97":2538907.6699999999,"ADDRESS":"明興路３７１巷１２號","OBJECTID":340539},"geometry":{"x":166393.19000000041,"y":2538907.6700000018}},{"attributes":{"ID":340549,"DIS_CODE":0,"TOWNNAME":"南區","LI":"喜東里","LIN":"1鄰","STREET":"明興路","SECT":" ","MAREA":" ","LANE":"３７１巷","ALLEY":" ","HOUSE_NO":"１號","E_COORD97":166380.14999999999,"N_COORD97":2538930.7000000002,"ADDRESS":"明興路３７１巷１號","OBJECTID":340540},"geometry":{"x":166380.15000000224,"y":2538930.7000000011}},{"attributes":{"ID":340550,"DIS_CODE":0,"TOWNNAME":"南區","LI":"喜東里","LIN":"1鄰","STREET":"明興路","SECT":" ","MAREA":" ","LANE":"３７１巷","ALLEY":" ","HOUSE_NO":"２號","E_COORD97":166375.10999999999,"N_COORD97":2538913.25,"ADDRESS":"明興路３７１巷２號","OBJECTID":340541},"geometry":{"x":166375.11000000034,"y":2538913.2500000037}},{"attributes":{"ID":340551,"DIS_CODE":0,"TOWNNAME":"南區","LI":"喜東里","LIN":"1鄰","STREET":"明興路","SECT":" ","MAREA":" ","LANE":"３７１巷","ALLEY":" ","HOUSE_NO":"３號","E_COORD97":166383.98999999999,"N_COORD97":2538929.9300000002,"ADDRESS":"明興路３７１巷３號","OBJECTID":340542},"geometry":{"x":166383.99000000022,"y":2538929.9300000016}},{"attributes":{"ID":340552,"DIS_CODE":0,"TOWNNAME":"南區","LI":"喜東里","LIN":"1鄰","STREET":"明興路","SECT":" ","MAREA":" ","LANE":"３７１巷","ALLEY":" ","HOUSE_NO":"４號","E_COORD97":166378.45999999999,"N_COORD97":2538910.8500000001,"ADDRESS":"明興路３７１巷４號","OBJECTID":340543},"geometry":{"x":166378.46000000089,"y":2538910.8499999996}},{"attributes":{"ID":340553,"DIS_CODE":0,"TOWNNAME":"南區","LI":"喜東里","LIN":"1鄰","STREET":"明興路","SECT":" ","MAREA":" ","LANE":"３７１巷","ALLEY":" ","HOUSE_NO":"５號","E_COORD97":166387.92999999999,"N_COORD97":2538929.27,"ADDRESS":"明興路３７１巷５號","OBJECTID":340544},"geometry":{"x":166387.93000000063,"y":2538929.2699999996}},{"attributes":{"ID":340554,"DIS_CODE":0,"TOWNNAME":"楠西區","LI":"鹿田里","LIN":"5鄰","STREET":" ","SECT":" ","MAREA":"鹿陶洋","LANE":" ","ALLEY":" ","HOUSE_NO":"６２號","E_COORD97":197819.51999999999,"N_COORD97":2561607.25,"ADDRESS":"鹿陶洋６２號","OBJECTID":340545},"geometry":{"x":197819.52000000048,"y":2561607.25}},{"attributes":{"ID":340555,"DIS_CODE":0,"TOWNNAME":"楠西區","LI":"鹿田里","LIN":"5鄰","STREET":" ","SECT":" ","MAREA":"鹿陶洋","LANE":" ","ALLEY":" ","HOUSE_NO":"６５號","E_COORD97":197795.62,"N_COORD97":2561616.25,"ADDRESS":"鹿陶洋６５號","OBJECTID":340546},"geometry":{"x":197795.62000000104,"y":2561616.2500000019}},{"attributes":{"ID":340556,"DIS_CODE":0,"TOWNNAME":"楠西區","LI":"鹿田里","LIN":"5鄰","STREET":" ","SECT":" ","MAREA":"鹿陶洋","LANE":" ","ALLEY":" ","HOUSE_NO":"６１號","E_COORD97":197833.42000000001,"N_COORD97":2561592.25,"ADDRESS":"鹿陶洋６１號","OBJECTID":340547},"geometry":{"x":197833.41999999993,"y":2561592.2500000019}},{"attributes":{"ID":340557,"DIS_CODE":0,"TOWNNAME":"楠西區","LI":"密枝里","LIN":"5鄰","STREET":" ","SECT":" ","MAREA":"密枝","LANE":" ","ALLEY":" ","HOUSE_NO":"５２號之１","E_COORD97":201177.79999999999,"N_COORD97":2567815.2999999998,"ADDRESS":"密枝５２號之１","OBJECTID":340548},"geometry":{"x":201177.80000000075,"y":2567815.3000000007}},{"attributes":{"ID":340558,"DIS_CODE":0,"TOWNNAME":"楠西區","LI":"龜丹里","LIN":"5鄰","STREET":" ","SECT":" ","MAREA":"龜丹","LANE":" ","ALLEY":" ","HOUSE_NO":"５５號之１","E_COORD97":198723.78,"N_COORD97":2559397.2999999998,"ADDRESS":"龜丹５５號之１","OBJECTID":340549},"geometry":{"x":198723.78000000119,"y":2559397.3000000007}},{"attributes":{"ID":340559,"DIS_CODE":0,"TOWNNAME":"楠西區","LI":"龜丹里","LIN":"5鄰","STREET":" ","SECT":" ","MAREA":"龜丹","LANE":" ","ALLEY":" ","HOUSE_NO":"５８號之５","E_COORD97":199034.73000000001,"N_COORD97":2559375.2999999998,"ADDRESS":"龜丹５８號之５","OBJECTID":340550},"geometry":{"x":199034.73000000138,"y":2559375.3000000026}},{"attributes":{"ID":340560,"DIS_CODE":0,"TOWNNAME":"楠西區","LI":"密枝里","LIN":"5鄰","STREET":" ","SECT":" ","MAREA":"密枝","LANE":" ","ALLEY":" ","HOUSE_NO":"５２號","E_COORD97":201143.87,"N_COORD97":2567796.2799999998,"ADDRESS":"密枝５２號","OBJECTID":340551},"geometry":{"x":201143.87000000104,"y":2567796.2800000012}},{"attributes":{"ID":340561,"DIS_CODE":0,"TOWNNAME":"南區","LI":"喜東里","LIN":"1鄰","STREET":"明興路","SECT":" ","MAREA":" ","LANE":"３７１巷","ALLEY":" ","HOUSE_NO":"６號","E_COORD97":166382.01999999999,"N_COORD97":2538910.8399999999,"ADDRESS":"明興路３７１巷６號","OBJECTID":340552},"geometry":{"x":166382.02000000142,"y":2538910.8399999999}},{"attributes":{"ID":340562,"DIS_CODE":0,"TOWNNAME":"楠西區","LI":"龜丹里","LIN":"5鄰","STREET":" ","SECT":" ","MAREA":"龜丹","LANE":" ","ALLEY":" ","HOUSE_NO":"５７號","E_COORD97":198774.64000000001,"N_COORD97":2559383.25,"ADDRESS":"龜丹５７號","OBJECTID":340553},"geometry":{"x":198774.64000000153,"y":2559383.25}},{"attributes":{"ID":340563,"DIS_CODE":0,"TOWNNAME":"南區","LI":"興農里","LIN":"1鄰","STREET":"灣裡路","SECT":" ","MAREA":" ","LANE":"２６３巷","ALLEY":" ","HOUSE_NO":"２８號之１","E_COORD97":166280.07999999999,"N_COORD97":2536409.4100000001,"ADDRESS":"灣裡路２６３巷２８號之１","OBJECTID":340554},"geometry":{"x":166280.08000000007,"y":2536409.4100000001}},{"attributes":{"ID":340564,"DIS_CODE":0,"TOWNNAME":"南區","LI":"興農里","LIN":"1鄰","STREET":"灣裡路","SECT":" ","MAREA":" ","LANE":"２６３巷","ALLEY":" ","HOUSE_NO":"２８號之２","E_COORD97":166284.89000000001,"N_COORD97":2536410.2400000002,"ADDRESS":"灣裡路２６３巷２８號之２","OBJECTID":340555},"geometry":{"x":166284.8900000006,"y":2536410.2400000002}},{"attributes":{"ID":340565,"DIS_CODE":0,"TOWNNAME":"楠西區","LI":"密枝里","LIN":"5鄰","STREET":" ","SECT":" ","MAREA":"密枝","LANE":" ","ALLEY":" ","HOUSE_NO":"４８號","E_COORD97":201041.47,"N_COORD97":2567657.2799999998,"ADDRESS":"密枝４８號","OBJECTID":340556},"geometry":{"x":201041.46999999974,"y":2567657.2800000012}},{"attributes":{"ID":340566,"DIS_CODE":0,"TOWNNAME":"楠西區","LI":"密枝里","LIN":"5鄰","STREET":" ","SECT":" ","MAREA":"密枝","LANE":" ","ALLEY":" ","HOUSE_NO":"５３號","E_COORD97":201531.67000000001,"N_COORD97":2567923.2799999998,"ADDRESS":"密枝５３號","OBJECTID":340557},"geometry":{"x":201531.67000000086,"y":2567923.2799999993}},{"attributes":{"ID":340567,"DIS_CODE":0,"TOWNNAME":"南區","LI":"興農里","LIN":"1鄰","STREET":"灣裡路","SECT":" ","MAREA":" ","LANE":"２６３巷","ALLEY":" ","HOUSE_NO":"２６號之１","E_COORD97":166264.57999999999,"N_COORD97":2536407.9399999999,"ADDRESS":"灣裡路２６３巷２６號之１","OBJECTID":340558},"geometry":{"x":166264.58000000007,"y":2536407.9399999995}},{"attributes":{"ID":340568,"DIS_CODE":0,"TOWNNAME":"楠西區","LI":"灣丘里","LIN":"5鄰","STREET":" ","SECT":" ","MAREA":"灣丘","LANE":" ","ALLEY":" ","HOUSE_NO":"６０號","E_COORD97":200590.97,"N_COORD97":2564271.25,"ADDRESS":"灣丘６０號","OBJECTID":340559},"geometry":{"x":200590.96999999974,"y":2564271.2500000019}},{"attributes":{"ID":340569,"DIS_CODE":0,"TOWNNAME":"楠西區","LI":"灣丘里","LIN":"5鄰","STREET":" ","SECT":" ","MAREA":"灣丘","LANE":" ","ALLEY":" ","HOUSE_NO":"５１號之３","E_COORD97":200546.20000000001,"N_COORD97":2564222.2999999998,"ADDRESS":"灣丘５１號之３","OBJECTID":340560},"geometry":{"x":200546.20000000205,"y":2564222.3000000007}},{"attributes":{"ID":340570,"DIS_CODE":0,"TOWNNAME":"楠西區","LI":"鹿田里","LIN":"5鄰","STREET":" ","SECT":" ","MAREA":"鹿陶洋","LANE":" ","ALLEY":" ","HOUSE_NO":"６３號","E_COORD97":197808.22,"N_COORD97":2561607.25,"ADDRESS":"鹿陶洋６３號","OBJECTID":340561},"geometry":{"x":197808.22000000067,"y":2561607.25}},{"attributes":{"ID":340571,"DIS_CODE":0,"TOWNNAME":"楠西區","LI":"密枝里","LIN":"5鄰","STREET":" ","SECT":" ","MAREA":"密枝","LANE":" ","ALLEY":" ","HOUSE_NO":"５３號之４","E_COORD97":201354.32999999999,"N_COORD97":2567829.2999999998,"ADDRESS":"密枝５３號之４","OBJECTID":340562},"geometry":{"x":201354.33000000101,"y":2567829.3000000007}},{"attributes":{"ID":340572,"DIS_CODE":0,"TOWNNAME":"楠西區","LI":"照興里","LIN":"5鄰","STREET":" ","SECT":" ","MAREA":"興北","LANE":" ","ALLEY":" ","HOUSE_NO":"５９號之１","E_COORD97":197715.29999999999,"N_COORD97":2567133.2999999998,"ADDRESS":"興北５９號之１","OBJECTID":340563},"geometry":{"x":197715.29999999981,"y":2567133.3000000026}},{"attributes":{"ID":340573,"DIS_CODE":0,"TOWNNAME":"楠西區","LI":"龜丹里","LIN":"5鄰","STREET":" ","SECT":" ","MAREA":"龜丹","LANE":" ","ALLEY":" ","HOUSE_NO":"５６號","E_COORD97":198740.54000000001,"N_COORD97":2559363.25,"ADDRESS":"龜丹５６號","OBJECTID":340564},"geometry":{"x":198740.54000000097,"y":2559363.25}},{"attributes":{"ID":340574,"DIS_CODE":0,"TOWNNAME":"楠西區","LI":"照興里","LIN":"5鄰","STREET":" ","SECT":" ","MAREA":"興北","LANE":" ","ALLEY":" ","HOUSE_NO":"５３號之２","E_COORD97":197759.64000000001,"N_COORD97":2567074.2999999998,"ADDRESS":"興北５３號之２","OBJECTID":340565},"geometry":{"x":197759.6400000006,"y":2567074.3000000045}},{"attributes":{"ID":340575,"DIS_CODE":0,"TOWNNAME":"楠西區","LI":"灣丘里","LIN":"5鄰","STREET":" ","SECT":" ","MAREA":"灣丘","LANE":" ","ALLEY":" ","HOUSE_NO":"５０號之２","E_COORD97":200599.23999999999,"N_COORD97":2564207.2999999998,"ADDRESS":"灣丘５０號之２","OBJECTID":340566},"geometry":{"x":200599.24000000115,"y":2564207.3000000026}},{"attributes":{"ID":340576,"DIS_CODE":0,"TOWNNAME":"楠西區","LI":"灣丘里","LIN":"5鄰","STREET":" ","SECT":" ","MAREA":"灣丘","LANE":" ","ALLEY":" ","HOUSE_NO":"５１號之１１","E_COORD97":200534.85000000001,"N_COORD97":2564270.2999999998,"ADDRESS":"灣丘５１號之１１","OBJECTID":340567},"geometry":{"x":200534.85000000056,"y":2564270.3000000045}},{"attributes":{"ID":340577,"DIS_CODE":0,"TOWNNAME":"楠西區","LI":"灣丘里","LIN":"5鄰","STREET":" ","SECT":" ","MAREA":"灣丘","LANE":" ","ALLEY":" ","HOUSE_NO":"６０號之５","E_COORD97":200652.45999999999,"N_COORD97":2564274.2999999998,"ADDRESS":"灣丘６０號之５","OBJECTID":340568},"geometry":{"x":200652.45999999996,"y":2564274.3000000026}},{"attributes":{"ID":340578,"DIS_CODE":0,"TOWNNAME":"楠西區","LI":"龜丹里","LIN":"5鄰","STREET":" ","SECT":" ","MAREA":"龜丹","LANE":" ","ALLEY":" ","HOUSE_NO":"５５號","E_COORD97":198716.04000000001,"N_COORD97":2559365.25,"ADDRESS":"龜丹５５號","OBJECTID":340569},"geometry":{"x":198716.04000000004,"y":2559365.2500000019}},{"attributes":{"ID":340579,"DIS_CODE":0,"TOWNNAME":"楠西區","LI":"照興里","LIN":"5鄰","STREET":" ","SECT":" ","MAREA":"興北","LANE":" ","ALLEY":" ","HOUSE_NO":"５６號","E_COORD97":197819.17000000001,"N_COORD97":2567012.25,"ADDRESS":"興北５６號","OBJECTID":340570},"geometry":{"x":197819.17000000086,"y":2567012.25}},{"attributes":{"ID":340580,"DIS_CODE":0,"TOWNNAME":"楠西區","LI":"照興里","LIN":"5鄰","STREET":" ","SECT":" ","MAREA":"興北","LANE":" ","ALLEY":" ","HOUSE_NO":"７３號之２０","E_COORD97":197767.5,"N_COORD97":2566298.2999999998,"ADDRESS":"興北７３號之２０","OBJECTID":340571},"geometry":{"x":197767.50000000093,"y":2566298.3000000026}},{"attributes":{"ID":340581,"DIS_CODE":0,"TOWNNAME":"楠西區","LI":"東勢里","LIN":"5鄰","STREET":"東勢路","SECT":" ","MAREA":" ","LANE":"１２５巷","ALLEY":" ","HOUSE_NO":"１號","E_COORD97":197365.57000000001,"N_COORD97":2564018.3999999999,"ADDRESS":"東勢路１２５巷１號","OBJECTID":340572},"geometry":{"x":197365.57000000123,"y":2564018.4000000041}},{"attributes":{"ID":340582,"DIS_CODE":0,"TOWNNAME":"楠西區","LI":"照興里","LIN":"5鄰","STREET":" ","SECT":" ","MAREA":"興北","LANE":" ","ALLEY":" ","HOUSE_NO":"６４號","E_COORD97":197834.87,"N_COORD97":2566927.25,"ADDRESS":"興北６４號","OBJECTID":340573},"geometry":{"x":197834.87000000104,"y":2566927.25}},{"attributes":{"ID":340583,"DIS_CODE":0,"TOWNNAME":"楠西區","LI":"照興里","LIN":"5鄰","STREET":" ","SECT":" ","MAREA":"興北","LANE":" ","ALLEY":" ","HOUSE_NO":"５３號之８","E_COORD97":197777.45000000001,"N_COORD97":2567054.2999999998,"ADDRESS":"興北５３號之８","OBJECTID":340574},"geometry":{"x":197777.45000000019,"y":2567054.3000000026}},{"attributes":{"ID":340584,"DIS_CODE":0,"TOWNNAME":"南區","LI":"興農里","LIN":"1鄰","STREET":"灣裡路","SECT":" ","MAREA":" ","LANE":"２６３巷","ALLEY":" ","HOUSE_NO":"２６號之２","E_COORD97":166268.98000000001,"N_COORD97":2536408.77,"ADDRESS":"灣裡路２６３巷２６號之２","OBJECTID":340575},"geometry":{"x":166268.98000000045,"y":2536408.7700000014}},{"attributes":{"ID":340585,"DIS_CODE":0,"TOWNNAME":"楠西區","LI":"照興里","LIN":"5鄰","STREET":" ","SECT":" ","MAREA":"興北","LANE":" ","ALLEY":" ","HOUSE_NO":"７３號之６","E_COORD97":197560.01000000001,"N_COORD97":2566520.2999999998,"ADDRESS":"興北７３號之６","OBJECTID":340576},"geometry":{"x":197560.00999999885,"y":2566520.3000000007}},{"attributes":{"ID":340586,"DIS_CODE":0,"TOWNNAME":"下營區","LI":"下營里","LIN":"8鄰","STREET":"中山路","SECT":"一段","MAREA":" ","LANE":" ","ALLEY":" ","HOUSE_NO":"３６號","E_COORD97":174460.39999999999,"N_COORD97":2570477.9300000002,"ADDRESS":"中山路一段３６號","OBJECTID":340577},"geometry":{"x":174460.40000000037,"y":2570477.9299999997}},{"attributes":{"ID":340587,"DIS_CODE":0,"TOWNNAME":"下營區","LI":"下營里","LIN":"8鄰","STREET":"中山路","SECT":"一段","MAREA":" ","LANE":" ","ALLEY":" ","HOUSE_NO":"３８號","E_COORD97":174464.20000000001,"N_COORD97":2570479.3900000001,"ADDRESS":"中山路一段３８號","OBJECTID":340578},"geometry":{"x":174464.20000000112,"y":2570479.3900000006}},{"attributes":{"ID":340588,"DIS_CODE":0,"TOWNNAME":"楠西區","LI":"鹿田里","LIN":"5鄰","STREET":" ","SECT":" ","MAREA":"鹿陶洋","LANE":" ","ALLEY":" ","HOUSE_NO":"７５號","E_COORD97":197802.92000000001,"N_COORD97":2561634.25,"ADDRESS":"鹿陶洋７５號","OBJECTID":340579},"geometry":{"x":197802.91999999993,"y":2561634.25}},{"attributes":{"ID":340589,"DIS_CODE":0,"TOWNNAME":"南區","LI":"喜東里","LIN":"1鄰","STREET":"明興路","SECT":" ","MAREA":" ","LANE":"３７１巷","ALLEY":" ","HOUSE_NO":"７號","E_COORD97":166392.10000000001,"N_COORD97":2538928.29,"ADDRESS":"明興路３７１巷７號","OBJECTID":340580},"geometry":{"x":166392.10000000056,"y":2538928.2899999991}},{"attributes":{"ID":340590,"DIS_CODE":0,"TOWNNAME":"南區","LI":"喜東里","LIN":"1鄰","STREET":"明興路","SECT":" ","MAREA":" ","LANE":"３７１巷","ALLEY":" ","HOUSE_NO":"８號","E_COORD97":166385.85000000001,"N_COORD97":2538909.6400000001,"ADDRESS":"明興路３７１巷８號","OBJECTID":340581},"geometry":{"x":166385.84999999963,"y":2538909.6400000006}},{"attributes":{"ID":340591,"DIS_CODE":0,"TOWNNAME":"南區","LI":"喜東里","LIN":"1鄰","STREET":"明興路","SECT":" ","MAREA":" ","LANE":"３７１巷","ALLEY":" ","HOUSE_NO":"９號","E_COORD97":166395.70999999999,"N_COORD97":2538926.6499999999,"ADDRESS":"明興路３７１巷９號","OBJECTID":340582},"geometry":{"x":166395.70999999996,"y":2538926.6500000004}},{"attributes":{"ID":340592,"DIS_CODE":0,"TOWNNAME":"南區","LI":"喜東里","LIN":"1鄰","STREET":"明興路","SECT":" ","MAREA":" ","LANE":"３４９巷","ALLEY":" ","HOUSE_NO":"１號","E_COORD97":166394.22,"N_COORD97":2538976.4700000002,"ADDRESS":"明興路３４９巷１號","OBJECTID":340583},"geometry":{"x":166394.21999999881,"y":2538976.4700000007}},{"attributes":{"ID":340593,"DIS_CODE":0,"TOWNNAME":"南區","LI":"新昌里","LIN":"1鄰","STREET":"大德街","SECT":" ","MAREA":" ","LANE":"１４１巷","ALLEY":" ","HOUSE_NO":"２１號","E_COORD97":167571.98999999999,"N_COORD97":2542968.29,"ADDRESS":"大德街１４１巷２１號","OBJECTID":340584},"geometry":{"x":167571.99000000022,"y":2542968.290000001}},{"attributes":{"ID":340594,"DIS_CODE":0,"TOWNNAME":"楠西區","LI":"鹿田里","LIN":"5鄰","STREET":" ","SECT":" ","MAREA":"鹿陶洋","LANE":" ","ALLEY":" ","HOUSE_NO":"６４號","E_COORD97":197795.82000000001,"N_COORD97":2561608.25,"ADDRESS":"鹿陶洋６４號","OBJECTID":340585},"geometry":{"x":197795.81999999937,"y":2561608.2499999981}},{"attributes":{"ID":340595,"DIS_CODE":0,"TOWNNAME":"楠西區","LI":"鹿田里","LIN":"5鄰","STREET":" ","SECT":" ","MAREA":"鹿陶洋","LANE":" ","ALLEY":" ","HOUSE_NO":"７７號","E_COORD97":197833.22,"N_COORD97":2561633.25,"ADDRESS":"鹿陶洋７７號","OBJECTID":340586},"geometry":{"x":197833.2200000016,"y":2561633.2500000019}},{"attributes":{"ID":340596,"DIS_CODE":0,"TOWNNAME":"新營區","LI":"民生里","LIN":"26鄰","STREET":"民生路","SECT":" ","MAREA":" ","LANE":"１６３巷","ALLEY":" ","HOUSE_NO":"４１號","E_COORD97":179097,"N_COORD97":2578626.8500000001,"ADDRESS":"民生路１６３巷４１號","OBJECTID":340587},"geometry":{"x":179097.00000000093,"y":2578626.8499999978}},{"attributes":{"ID":340597,"DIS_CODE":0,"TOWNNAME":"南區","LI":"喜東里","LIN":"1鄰","STREET":"明興路","SECT":" ","MAREA":" ","LANE":"３２１巷","ALLEY":" ","HOUSE_NO":"１０號","E_COORD97":166449.31,"N_COORD97":2539016.6000000001,"ADDRESS":"明興路３２１巷１０號","OBJECTID":340588},"geometry":{"x":166449.30999999959,"y":2539016.6000000015}},{"attributes":{"ID":340598,"DIS_CODE":0,"TOWNNAME":"南區","LI":"喜東里","LIN":"1鄰","STREET":"明興路","SECT":" ","MAREA":" ","LANE":"３２１巷","ALLEY":" ","HOUSE_NO":"１６號","E_COORD97":166782.81,"N_COORD97":2539068.6899999999,"ADDRESS":"明興路３２１巷１６號","OBJECTID":340589},"geometry":{"x":166782.80999999959,"y":2539068.6899999995}},{"attributes":{"ID":340599,"DIS_CODE":0,"TOWNNAME":"南區","LI":"喜東里","LIN":"1鄰","STREET":"明興路","SECT":" ","MAREA":" ","LANE":"３２１巷","ALLEY":" ","HOUSE_NO":"３６號","E_COORD97":166472.60999999999,"N_COORD97":2538921.0099999998,"ADDRESS":"明興路３２１巷３６號","OBJECTID":340590},"geometry":{"x":166472.61000000127,"y":2538921.0099999998}},{"attributes":{"ID":340600,"DIS_CODE":0,"TOWNNAME":"安平區","LI":"文平里","LIN":"1鄰","STREET":"建平七街","SECT":" ","MAREA":" ","LANE":"２６巷","ALLEY":" ","HOUSE_NO":"１８號","E_COORD97":166489.06,"N_COORD97":2543240.73,"ADDRESS":"建平七街２６巷１８號","OBJECTID":340591},"geometry":{"x":166489.06000000052,"y":2543240.7300000023}},{"attributes":{"ID":340601,"DIS_CODE":0,"TOWNNAME":"安平區","LI":"西門里","LIN":"1鄰","STREET":"國勝路","SECT":" ","MAREA":" ","LANE":"３５巷","ALLEY":" ","HOUSE_NO":"１之１號","E_COORD97":165251.76000000001,"N_COORD97":2542798.4300000002,"ADDRESS":"國勝路３５巷１之１號","OBJECTID":340592},"geometry":{"x":165251.76000000071,"y":2542798.4300000016}},{"attributes":{"ID":340602,"DIS_CODE":0,"TOWNNAME":"鹽水區","LI":"橋南里","LIN":"1鄰","STREET":"橋南街","SECT":" ","MAREA":" ","LANE":"１１巷","ALLEY":" ","HOUSE_NO":"７號","E_COORD97":175239.42000000001,"N_COORD97":2579498.1299999999,"ADDRESS":"橋南街１１巷７號","OBJECTID":340593},"geometry":{"x":175239.42000000086,"y":2579498.129999999}},{"attributes":{"ID":340603,"DIS_CODE":0,"TOWNNAME":"新營區","LI":"興業里","LIN":" ","STREET":"公誠街","SECT":" ","MAREA":" ","LANE":"１１巷","ALLEY":" ","HOUSE_NO":"３之３號","E_COORD97":180312.39000000001,"N_COORD97":2577975.4900000002,"ADDRESS":"公誠街１１巷３之３號","OBJECTID":340594},"geometry":{"x":180312.39000000153,"y":2577975.4900000002}},{"attributes":{"ID":340604,"DIS_CODE":0,"TOWNNAME":"新營區","LI":"中營里","LIN":"14鄰","STREET":"東昇街","SECT":" ","MAREA":" ","LANE":"１７７巷","ALLEY":" ","HOUSE_NO":"２３號","E_COORD97":181876.60000000001,"N_COORD97":2579186.3500000001,"ADDRESS":"東昇街１７７巷２３號","OBJECTID":340595},"geometry":{"x":181876.59999999963,"y":2579186.3499999978}},{"attributes":{"ID":340605,"DIS_CODE":0,"TOWNNAME":"新營區","LI":"南興里","LIN":"17鄰","STREET":"興農街","SECT":" ","MAREA":" ","LANE":"１４０巷","ALLEY":" ","HOUSE_NO":"２３之１號","E_COORD97":179155.59,"N_COORD97":2577526.9300000002,"ADDRESS":"興農街１４０巷２３之１號","OBJECTID":340596},"geometry":{"x":179155.59000000078,"y":2577526.9299999997}},{"attributes":{"ID":340606,"DIS_CODE":0,"TOWNNAME":"楠西區","LI":"照興里","LIN":"5鄰","STREET":" ","SECT":" ","MAREA":"興北","LANE":" ","ALLEY":" ","HOUSE_NO":"５３號之５","E_COORD97":197785.85999999999,"N_COORD97":2567069.2999999998,"ADDRESS":"興北５３號之５","OBJECTID":340597},"geometry":{"x":197785.86000000127,"y":2567069.3000000007}},{"attributes":{"ID":340607,"DIS_CODE":0,"TOWNNAME":"新營區","LI":"民榮里","LIN":"25鄰","STREET":"興農街","SECT":" ","MAREA":" ","LANE":"４７巷","ALLEY":" ","HOUSE_NO":"５９號","E_COORD97":179288.81,"N_COORD97":2577681.27,"ADDRESS":"興農街４７巷５９號","OBJECTID":340598},"geometry":{"x":179288.81000000145,"y":2577681.2699999996}},{"attributes":{"ID":340608,"DIS_CODE":0,"TOWNNAME":"楠西區","LI":"龜丹里","LIN":"5鄰","STREET":" ","SECT":" ","MAREA":"龜丹","LANE":" ","ALLEY":" ","HOUSE_NO":"６２號之２","E_COORD97":201332.01000000001,"N_COORD97":2558651.2999999998,"ADDRESS":"龜丹６２號之２","OBJECTID":340599},"geometry":{"x":201332.01000000164,"y":2558651.3000000007}},{"attributes":{"ID":340609,"DIS_CODE":0,"TOWNNAME":"新營區","LI":"三仙里","LIN":"14鄰","STREET":"中華路","SECT":" ","MAREA":" ","LANE":"５２巷","ALLEY":" ","HOUSE_NO":"１９號","E_COORD97":179505.35000000001,"N_COORD97":2578263.8700000001,"ADDRESS":"中華路５２巷１９號","OBJECTID":340600},"geometry":{"x":179505.34999999963,"y":2578263.8700000029}}]}