{"displayFieldName":"TOWNNAME","fieldAliases":{"ID":"ID","DIS_CODE":"DIS_CODE","TOWNNAME":"TOWNNAME","LI":"LI","LIN":"LIN","STREET":"STREET","SECT":"SECT","MAREA":"MAREA","LANE":"LANE","ALLEY":"ALLEY","HOUSE_NO":"HOUSE_NO","E_COORD97":"E_COORD97","N_COORD97":"N_COORD97","ADDRESS":"ADDRESS","OBJECTID":"OBJECTID"},"geometryType":"esriGeometryPoint","spatialReference":{"wkid":102443,"latestWkid":3826},"fields":[{"name":"ID","type":"esriFieldTypeDouble","alias":"ID"},{"name":"DIS_CODE","type":"esriFieldTypeInteger","alias":"DIS_CODE"},{"name":"TOWNNAME","type":"esriFieldTypeString","alias":"TOWNNAME","length":8},{"name":"LI","type":"esriFieldTypeString","alias":"LI","length":8},{"name":"LIN","type":"esriFieldTypeString","alias":"LIN","length":12},{"name":"STREET","type":"esriFieldTypeString","alias":"STREET","length":20},{"name":"SECT","type":"esriFieldTypeString","alias":"SECT","length":8},{"name":"MAREA","type":"esriFieldTypeString","alias":"MAREA","length":12},{"name":"LANE","type":"esriFieldTypeString","alias":"LANE","length":10},{"name":"ALLEY","type":"esriFieldTypeString","alias":"ALLEY","length":10},{"name":"HOUSE_NO","type":"esriFieldTypeString","alias":"HOUSE_NO","length":20},{"name":"E_COORD97","type":"esriFieldTypeDouble","alias":"E_COORD97"},{"name":"N_COORD97","type":"esriFieldTypeDouble","alias":"N_COORD97"},{"name":"ADDRESS","type":"esriFieldTypeString","alias":"ADDRESS","length":50},{"name":"OBJECTID","type":"esriFieldTypeOID","alias":"OBJECTID"}],"features":[{"attributes":{"ID":463226,"DIS_CODE":0,"TOWNNAME":"佳里區","LI":"安西里","LIN":"36鄰","STREET":"佳西路","SECT":" ","MAREA":" ","LANE":" ","ALLEY":" ","HOUSE_NO":"３９２號","E_COORD97":164844.32999999999,"N_COORD97":2562916.6000000001,"ADDRESS":"佳西路３９２號","OBJECTID":463201},"geometry":{"x":164844.33000000007,"y":2562916.5999999996}},{"attributes":{"ID":463227,"DIS_CODE":0,"TOWNNAME":"佳里區","LI":"安西里","LIN":"36鄰","STREET":"佳西路","SECT":" ","MAREA":" ","LANE":" ","ALLEY":" ","HOUSE_NO":"３９６號","E_COORD97":164847.66,"N_COORD97":2562938.8300000001,"ADDRESS":"佳西路３９６號","OBJECTID":463202},"geometry":{"x":164847.66000000108,"y":2562938.8300000001}},{"attributes":{"ID":463228,"DIS_CODE":0,"TOWNNAME":"佳里區","LI":"安西里","LIN":"36鄰","STREET":"佳西路","SECT":" ","MAREA":" ","LANE":" ","ALLEY":" ","HOUSE_NO":"３９８號","E_COORD97":164855.59,"N_COORD97":2562962.6299999999,"ADDRESS":"佳西路３９８號","OBJECTID":463203},"geometry":{"x":164855.58999999985,"y":2562962.629999999}},{"attributes":{"ID":463229,"DIS_CODE":0,"TOWNNAME":"永康區","LI":"勝利里","LIN":"36鄰","STREET":"勝學路","SECT":" ","MAREA":" ","LANE":" ","ALLEY":" ","HOUSE_NO":"７６號","E_COORD97":171162.92999999999,"N_COORD97":2544773.2599999998,"ADDRESS":"勝學路７６號","OBJECTID":463204},"geometry":{"x":171162.9299999997,"y":2544773.2599999998}},{"attributes":{"ID":463230,"DIS_CODE":0,"TOWNNAME":"永康區","LI":"\u25A0行里","LIN":"36鄰","STREET":"三村一街","SECT":" ","MAREA":" ","LANE":" ","ALLEY":" ","HOUSE_NO":"１１２號","E_COORD97":172088.88,"N_COORD97":2549251.25,"ADDRESS":"三村一街１１２號","OBJECTID":463205},"geometry":{"x":172088.87999999989,"y":2549251.2500000019}},{"attributes":{"ID":463231,"DIS_CODE":0,"TOWNNAME":"永康區","LI":"崑山里","LIN":"36鄰","STREET":"大仁街","SECT":" ","MAREA":" ","LANE":" ","ALLEY":" ","HOUSE_NO":"１６７號","E_COORD97":173887.67999999999,"N_COORD97":2544965.4500000002,"ADDRESS":"大仁街１６７號","OBJECTID":463206},"geometry":{"x":173887.68000000063,"y":2544965.4499999993}},{"attributes":{"ID":463232,"DIS_CODE":0,"TOWNNAME":"永康區","LI":"勝利里","LIN":"36鄰","STREET":"勝學路","SECT":" ","MAREA":" ","LANE":" ","ALLEY":" ","HOUSE_NO":"６６號","E_COORD97":171161.76000000001,"N_COORD97":2544757.5099999998,"ADDRESS":"勝學路６６號","OBJECTID":463207},"geometry":{"x":171161.76000000071,"y":2544757.5100000016}},{"attributes":{"ID":463233,"DIS_CODE":0,"TOWNNAME":"永康區","LI":"復華里","LIN":"36鄰","STREET":"復華七街","SECT":" ","MAREA":" ","LANE":" ","ALLEY":" ","HOUSE_NO":"３７號","E_COORD97":172635.25,"N_COORD97":2545987.6800000002,"ADDRESS":"復華七街３７號","OBJECTID":463208},"geometry":{"x":172635.25,"y":2545987.6799999997}},{"attributes":{"ID":463234,"DIS_CODE":0,"TOWNNAME":"永康區","LI":"復華里","LIN":"36鄰","STREET":"復華七街","SECT":" ","MAREA":" ","LANE":" ","ALLEY":" ","HOUSE_NO":"３１號","E_COORD97":172622.89000000001,"N_COORD97":2545986.1800000002,"ADDRESS":"復華七街３１號","OBJECTID":463209},"geometry":{"x":172622.89000000153,"y":2545986.1800000016}},{"attributes":{"ID":463235,"DIS_CODE":0,"TOWNNAME":"永康區","LI":"埔園里","LIN":"36鄰","STREET":"永大路","SECT":"三段","MAREA":" ","LANE":" ","ALLEY":" ","HOUSE_NO":"３７６號","E_COORD97":174142.04000000001,"N_COORD97":2548238.3199999998,"ADDRESS":"永大路三段３７６號","OBJECTID":463210},"geometry":{"x":174142.04000000004,"y":2548238.3200000022}},{"attributes":{"ID":463236,"DIS_CODE":0,"TOWNNAME":"永康區","LI":"復國里","LIN":"36鄰","STREET":"復國一路","SECT":" ","MAREA":" ","LANE":" ","ALLEY":" ","HOUSE_NO":"３５號","E_COORD97":172691.95000000001,"N_COORD97":2544844.27,"ADDRESS":"復國一路３５號","OBJECTID":463211},"geometry":{"x":172691.95000000019,"y":2544844.2699999996}},{"attributes":{"ID":463237,"DIS_CODE":0,"TOWNNAME":"永康區","LI":"復華里","LIN":"36鄰","STREET":"復華七街","SECT":" ","MAREA":" ","LANE":" ","ALLEY":" ","HOUSE_NO":"２７號","E_COORD97":172615.44,"N_COORD97":2545984.6800000002,"ADDRESS":"復華七街２７號","OBJECTID":463212},"geometry":{"x":172615.44000000134,"y":2545984.6799999997}},{"attributes":{"ID":463238,"DIS_CODE":0,"TOWNNAME":"新市區","LI":"新和里","LIN":"36鄰","STREET":"華興街","SECT":" ","MAREA":" ","LANE":" ","ALLEY":" ","HOUSE_NO":"８３號","E_COORD97":177567.29000000001,"N_COORD97":2552968.5,"ADDRESS":"華興街８３號","OBJECTID":463213},"geometry":{"x":177567.29000000097,"y":2552968.5000000019}},{"attributes":{"ID":463239,"DIS_CODE":0,"TOWNNAME":"永康區","LI":"永康里","LIN":"36鄰","STREET":"永平街","SECT":" ","MAREA":" ","LANE":" ","ALLEY":" ","HOUSE_NO":"６１５號","E_COORD97":174419.89000000001,"N_COORD97":2546893.52,"ADDRESS":"永平街６１５號","OBJECTID":463214},"geometry":{"x":174419.89000000153,"y":2546893.5200000014}},{"attributes":{"ID":463240,"DIS_CODE":0,"TOWNNAME":"新營區","LI":"民榮里","LIN":"36鄰","STREET":"公園路","SECT":"二段","MAREA":" ","LANE":" ","ALLEY":" ","HOUSE_NO":"６６號","E_COORD97":178512.39000000001,"N_COORD97":2577888.7599999998,"ADDRESS":"公園路二段６６號","OBJECTID":463215},"geometry":{"x":178512.3900000006,"y":2577888.7600000035}},{"attributes":{"ID":463241,"DIS_CODE":0,"TOWNNAME":"新營區","LI":"民榮里","LIN":"36鄰","STREET":"公園路","SECT":"二段","MAREA":" ","LANE":" ","ALLEY":" ","HOUSE_NO":"９２號","E_COORD97":178462.14000000001,"N_COORD97":2577871.29,"ADDRESS":"公園路二段９２號","OBJECTID":463216},"geometry":{"x":178462.13999999966,"y":2577871.290000001}},{"attributes":{"ID":463242,"DIS_CODE":0,"TOWNNAME":"歸仁區","LI":"許厝里","LIN":"36鄰","STREET":"和平南街","SECT":" ","MAREA":" ","LANE":" ","ALLEY":" ","HOUSE_NO":"６１號","E_COORD97":177822.82999999999,"N_COORD97":2540559.8199999998,"ADDRESS":"和平南街６１號","OBJECTID":463217},"geometry":{"x":177822.83000000194,"y":2540559.8200000003}},{"attributes":{"ID":463243,"DIS_CODE":0,"TOWNNAME":"歸仁區","LI":"南興里","LIN":"36鄰","STREET":"中山路","SECT":"三段","MAREA":" ","LANE":" ","ALLEY":" ","HOUSE_NO":"２９８號","E_COORD97":176261.85999999999,"N_COORD97":2540965.2799999998,"ADDRESS":"中山路三段２９８號","OBJECTID":463218},"geometry":{"x":176261.86000000127,"y":2540965.2799999993}},{"attributes":{"ID":463244,"DIS_CODE":0,"TOWNNAME":"歸仁區","LI":"南興里","LIN":"36鄰","STREET":"中山路","SECT":"三段","MAREA":" ","LANE":" ","ALLEY":" ","HOUSE_NO":"２９６號","E_COORD97":176267.95999999999,"N_COORD97":2540965.2799999998,"ADDRESS":"中山路三段２９６號","OBJECTID":463219},"geometry":{"x":176267.96000000089,"y":2540965.2799999993}},{"attributes":{"ID":463245,"DIS_CODE":0,"TOWNNAME":"歸仁區","LI":"南興里","LIN":"36鄰","STREET":"中山路","SECT":"三段","MAREA":" ","LANE":" ","ALLEY":" ","HOUSE_NO":"３２０號","E_COORD97":176191.26000000001,"N_COORD97":2540994.2799999998,"ADDRESS":"中山路三段３２０號","OBJECTID":463220},"geometry":{"x":176191.26000000071,"y":2540994.2800000031}},{"attributes":{"ID":463246,"DIS_CODE":0,"TOWNNAME":"歸仁區","LI":"南興里","LIN":"36鄰","STREET":"中山路","SECT":"三段","MAREA":" ","LANE":" ","ALLEY":" ","HOUSE_NO":"３１４號","E_COORD97":176233.16,"N_COORD97":2540968.2799999998,"ADDRESS":"中山路三段３１４號","OBJECTID":463221},"geometry":{"x":176233.16000000108,"y":2540968.2800000012}},{"attributes":{"ID":463247,"DIS_CODE":0,"TOWNNAME":"歸仁區","LI":"南興里","LIN":"36鄰","STREET":"中山路","SECT":"三段","MAREA":" ","LANE":" ","ALLEY":" ","HOUSE_NO":"３１０號","E_COORD97":176241.35999999999,"N_COORD97":2540967.2799999998,"ADDRESS":"中山路三段３１０號","OBJECTID":463222},"geometry":{"x":176241.3600000022,"y":2540967.2800000012}},{"attributes":{"ID":463248,"DIS_CODE":0,"TOWNNAME":"歸仁區","LI":"六甲里","LIN":"36鄰","STREET":"六甲八街","SECT":" ","MAREA":" ","LANE":" ","ALLEY":" ","HOUSE_NO":"２４號","E_COORD97":175412.57000000001,"N_COORD97":2539342.25,"ADDRESS":"六甲八街２４號","OBJECTID":463223},"geometry":{"x":175412.57000000216,"y":2539342.25}},{"attributes":{"ID":463249,"DIS_CODE":0,"TOWNNAME":"歸仁區","LI":"南興里","LIN":"36鄰","STREET":"中山路","SECT":"三段","MAREA":" ","LANE":" ","ALLEY":" ","HOUSE_NO":"４０６號","E_COORD97":176006.66,"N_COORD97":2540998.2799999998,"ADDRESS":"中山路三段４０６號","OBJECTID":463224},"geometry":{"x":176006.66000000015,"y":2540998.2800000012}},{"attributes":{"ID":463250,"DIS_CODE":0,"TOWNNAME":"玉井區","LI":"玉田里","LIN":"36鄰","STREET":"玉安街","SECT":" ","MAREA":" ","LANE":" ","ALLEY":" ","HOUSE_NO":"２２號","E_COORD97":195055.62,"N_COORD97":2558358.3199999998,"ADDRESS":"玉安街２２號","OBJECTID":463225},"geometry":{"x":195055.62000000011,"y":2558358.3200000022}},{"attributes":{"ID":463251,"DIS_CODE":0,"TOWNNAME":"玉井區","LI":"玉田里","LIN":"36鄰","STREET":"民生路","SECT":" ","MAREA":" ","LANE":" ","ALLEY":" ","HOUSE_NO":"１９１號","E_COORD97":195052.57999999999,"N_COORD97":2558322.29,"ADDRESS":"民生路１９１號","OBJECTID":463226},"geometry":{"x":195052.58000000007,"y":2558322.290000001}},{"attributes":{"ID":463252,"DIS_CODE":0,"TOWNNAME":"玉井區","LI":"玉田里","LIN":"36鄰","STREET":"玉安街","SECT":" ","MAREA":" ","LANE":" ","ALLEY":" ","HOUSE_NO":"３２號","E_COORD97":195059.32000000001,"N_COORD97":2558383.3100000001,"ADDRESS":"玉安街３２號","OBJECTID":463227},"geometry":{"x":195059.3200000003,"y":2558383.3100000005}},{"attributes":{"ID":463253,"DIS_CODE":0,"TOWNNAME":"玉井區","LI":"玉田里","LIN":"36鄰","STREET":"玉安街","SECT":" ","MAREA":" ","LANE":" ","ALLEY":" ","HOUSE_NO":"２６號","E_COORD97":195057.60999999999,"N_COORD97":2558364.3199999998,"ADDRESS":"玉安街２６號","OBJECTID":463228},"geometry":{"x":195057.61000000034,"y":2558364.3200000022}},{"attributes":{"ID":463254,"DIS_CODE":0,"TOWNNAME":"玉井區","LI":"玉田里","LIN":"36鄰","STREET":"中正路","SECT":" ","MAREA":" ","LANE":" ","ALLEY":" ","HOUSE_NO":"２４５號","E_COORD97":195143.26000000001,"N_COORD97":2558298.2400000002,"ADDRESS":"中正路２４５號","OBJECTID":463229},"geometry":{"x":195143.26000000071,"y":2558298.2400000002}},{"attributes":{"ID":463255,"DIS_CODE":0,"TOWNNAME":"玉井區","LI":"玉田里","LIN":"36鄰","STREET":"中正路","SECT":" ","MAREA":" ","LANE":" ","ALLEY":" ","HOUSE_NO":"２４３號","E_COORD97":195140.06,"N_COORD97":2558295.2400000002,"ADDRESS":"中正路２４３號","OBJECTID":463230},"geometry":{"x":195140.05999999959,"y":2558295.2400000002}},{"attributes":{"ID":463256,"DIS_CODE":0,"TOWNNAME":"玉井區","LI":"玉田里","LIN":"36鄰","STREET":"中正路","SECT":" ","MAREA":" ","LANE":" ","ALLEY":" ","HOUSE_NO":"２４７號","E_COORD97":195146.26000000001,"N_COORD97":2558300.2400000002,"ADDRESS":"中正路２４７號","OBJECTID":463231},"geometry":{"x":195146.26000000164,"y":2558300.2400000021}},{"attributes":{"ID":463257,"DIS_CODE":0,"TOWNNAME":"玉井區","LI":"玉田里","LIN":"36鄰","STREET":"中正路","SECT":" ","MAREA":" ","LANE":" ","ALLEY":" ","HOUSE_NO":"２６１號","E_COORD97":195166.54000000001,"N_COORD97":2558322.3900000001,"ADDRESS":"中正路２６１號","OBJECTID":463232},"geometry":{"x":195166.5400000019,"y":2558322.3900000006}},{"attributes":{"ID":463258,"DIS_CODE":0,"TOWNNAME":"玉井區","LI":"玉田里","LIN":"36鄰","STREET":"中正路","SECT":" ","MAREA":" ","LANE":" ","ALLEY":" ","HOUSE_NO":"２６５號","E_COORD97":195173.03,"N_COORD97":2558328.1000000001,"ADDRESS":"中正路２６５號","OBJECTID":463233},"geometry":{"x":195173.03000000026,"y":2558328.1000000015}},{"attributes":{"ID":463259,"DIS_CODE":0,"TOWNNAME":"玉井區","LI":"玉田里","LIN":"36鄰","STREET":"中正路","SECT":" ","MAREA":" ","LANE":" ","ALLEY":" ","HOUSE_NO":"２６９號","E_COORD97":195176.48999999999,"N_COORD97":2558330.8900000001,"ADDRESS":"中正路２６９號","OBJECTID":463234},"geometry":{"x":195176.49000000022,"y":2558330.8900000025}},{"attributes":{"ID":463260,"DIS_CODE":0,"TOWNNAME":"玉井區","LI":"玉田里","LIN":"36鄰","STREET":"中正路","SECT":" ","MAREA":" ","LANE":" ","ALLEY":" ","HOUSE_NO":"２６３號","E_COORD97":195169.92999999999,"N_COORD97":2558325.6200000001,"ADDRESS":"中正路２６３號","OBJECTID":463235},"geometry":{"x":195169.9299999997,"y":2558325.6200000029}},{"attributes":{"ID":463261,"DIS_CODE":0,"TOWNNAME":"玉井區","LI":"玉田里","LIN":"36鄰","STREET":"中正路","SECT":" ","MAREA":" ","LANE":" ","ALLEY":" ","HOUSE_NO":"２８７號","E_COORD97":195203.35999999999,"N_COORD97":2558355.25,"ADDRESS":"中正路２８７號","OBJECTID":463236},"geometry":{"x":195203.36000000034,"y":2558355.2500000019}},{"attributes":{"ID":463262,"DIS_CODE":0,"TOWNNAME":"玉井區","LI":"玉田里","LIN":"36鄰","STREET":"中正路","SECT":" ","MAREA":" ","LANE":" ","ALLEY":" ","HOUSE_NO":"２７１號","E_COORD97":195185.85000000001,"N_COORD97":2558338.25,"ADDRESS":"中正路２７１號","OBJECTID":463237},"geometry":{"x":195185.84999999963,"y":2558338.2500000019}},{"attributes":{"ID":463263,"DIS_CODE":0,"TOWNNAME":"玉井區","LI":"玉田里","LIN":"36鄰","STREET":"中正路","SECT":" ","MAREA":" ","LANE":" ","ALLEY":" ","HOUSE_NO":"２４１號","E_COORD97":195136.76000000001,"N_COORD97":2558292.2400000002,"ADDRESS":"中正路２４１號","OBJECTID":463238},"geometry":{"x":195136.76000000071,"y":2558292.2400000002}},{"attributes":{"ID":463264,"DIS_CODE":0,"TOWNNAME":"玉井區","LI":"玉田里","LIN":"36鄰","STREET":"中正路","SECT":" ","MAREA":" ","LANE":" ","ALLEY":" ","HOUSE_NO":"２４９號","E_COORD97":195148.95999999999,"N_COORD97":2558303.2400000002,"ADDRESS":"中正路２４９號","OBJECTID":463239},"geometry":{"x":195148.96000000089,"y":2558303.2400000039}},{"attributes":{"ID":463265,"DIS_CODE":0,"TOWNNAME":"玉井區","LI":"玉田里","LIN":"36鄰","STREET":"中正路","SECT":" ","MAREA":" ","LANE":" ","ALLEY":" ","HOUSE_NO":"２５１號","E_COORD97":195150.85999999999,"N_COORD97":2558305.2400000002,"ADDRESS":"中正路２５１號","OBJECTID":463240},"geometry":{"x":195150.86000000034,"y":2558305.2400000002}},{"attributes":{"ID":463266,"DIS_CODE":0,"TOWNNAME":"玉井區","LI":"玉田里","LIN":"36鄰","STREET":"中正路","SECT":" ","MAREA":" ","LANE":" ","ALLEY":" ","HOUSE_NO":"２５３號","E_COORD97":195153.26000000001,"N_COORD97":2558307.2400000002,"ADDRESS":"中正路２５３號","OBJECTID":463241},"geometry":{"x":195153.26000000071,"y":2558307.2400000021}},{"attributes":{"ID":463267,"DIS_CODE":0,"TOWNNAME":"玉井區","LI":"玉田里","LIN":"36鄰","STREET":"中正路","SECT":" ","MAREA":" ","LANE":" ","ALLEY":" ","HOUSE_NO":"２５５號","E_COORD97":195155.04999999999,"N_COORD97":2558309.2400000002,"ADDRESS":"中正路２５５號","OBJECTID":463242},"geometry":{"x":195155.05000000075,"y":2558309.2400000002}},{"attributes":{"ID":463268,"DIS_CODE":0,"TOWNNAME":"玉井區","LI":"玉田里","LIN":"36鄰","STREET":"中正路","SECT":" ","MAREA":" ","LANE":" ","ALLEY":" ","HOUSE_NO":"２７９號","E_COORD97":195195.45999999999,"N_COORD97":2558348.25,"ADDRESS":"中正路２７９號","OBJECTID":463243},"geometry":{"x":195195.45999999996,"y":2558348.2500000019}},{"attributes":{"ID":463269,"DIS_CODE":0,"TOWNNAME":"玉井區","LI":"玉田里","LIN":"36鄰","STREET":"中正路","SECT":" ","MAREA":" ","LANE":" ","ALLEY":" ","HOUSE_NO":"２８３號","E_COORD97":195197.76000000001,"N_COORD97":2558351.25,"ADDRESS":"中正路２８３號","OBJECTID":463244},"geometry":{"x":195197.76000000071,"y":2558351.2500000019}},{"attributes":{"ID":463270,"DIS_CODE":0,"TOWNNAME":"玉井區","LI":"玉田里","LIN":"36鄰","STREET":"中正路","SECT":" ","MAREA":" ","LANE":" ","ALLEY":" ","HOUSE_NO":"２７７號","E_COORD97":195192.26000000001,"N_COORD97":2558345.25,"ADDRESS":"中正路２７７號","OBJECTID":463245},"geometry":{"x":195192.26000000071,"y":2558345.25}},{"attributes":{"ID":463271,"DIS_CODE":0,"TOWNNAME":"玉井區","LI":"玉田里","LIN":"36鄰","STREET":"中正路","SECT":" ","MAREA":" ","LANE":" ","ALLEY":" ","HOUSE_NO":"２７５號","E_COORD97":195189.56,"N_COORD97":2558342.25,"ADDRESS":"中正路２７５號","OBJECTID":463246},"geometry":{"x":195189.55999999959,"y":2558342.25}},{"attributes":{"ID":463272,"DIS_CODE":0,"TOWNNAME":"歸仁區","LI":"六甲里","LIN":"36鄰","STREET":"六甲路","SECT":" ","MAREA":" ","LANE":" ","ALLEY":" ","HOUSE_NO":"３５２號","E_COORD97":175563.67000000001,"N_COORD97":2539246.8399999999,"ADDRESS":"六甲路３５２號","OBJECTID":463247},"geometry":{"x":175563.66999999993,"y":2539246.8399999999}},{"attributes":{"ID":463273,"DIS_CODE":0,"TOWNNAME":"歸仁區","LI":"南保里","LIN":"36鄰","STREET":"民權六街","SECT":" ","MAREA":" ","LANE":" ","ALLEY":" ","HOUSE_NO":"１０３號","E_COORD97":176707.34,"N_COORD97":2541090.29,"ADDRESS":"民權六街１０３號","OBJECTID":463248},"geometry":{"x":176707.34000000078,"y":2541090.290000001}},{"attributes":{"ID":463274,"DIS_CODE":0,"TOWNNAME":"歸仁區","LI":"南保里","LIN":"36鄰","STREET":"民權六街","SECT":" ","MAREA":" ","LANE":" ","ALLEY":" ","HOUSE_NO":"１２７號","E_COORD97":176696.84,"N_COORD97":2541057.29,"ADDRESS":"民權六街１２７號","OBJECTID":463249},"geometry":{"x":176696.83999999892,"y":2541057.2899999991}},{"attributes":{"ID":463275,"DIS_CODE":0,"TOWNNAME":"歸仁區","LI":"南保里","LIN":"36鄰","STREET":"民權六街","SECT":" ","MAREA":" ","LANE":" ","ALLEY":" ","HOUSE_NO":"１１１號","E_COORD97":176707.23999999999,"N_COORD97":2541071.29,"ADDRESS":"民權六街１１１號","OBJECTID":463250},"geometry":{"x":176707.24000000115,"y":2541071.2899999991}},{"attributes":{"ID":463276,"DIS_CODE":0,"TOWNNAME":"歸仁區","LI":"六甲里","LIN":"36鄰","STREET":"六甲路","SECT":" ","MAREA":" ","LANE":" ","ALLEY":" ","HOUSE_NO":"３４０號","E_COORD97":175597.67000000001,"N_COORD97":2539237.25,"ADDRESS":"六甲路３４０號","OBJECTID":463251},"geometry":{"x":175597.66999999993,"y":2539237.25}},{"attributes":{"ID":463277,"DIS_CODE":0,"TOWNNAME":"歸仁區","LI":"六甲里","LIN":"36鄰","STREET":"六甲路","SECT":" ","MAREA":" ","LANE":" ","ALLEY":" ","HOUSE_NO":"３８４號","E_COORD97":175449.26999999999,"N_COORD97":2539282.25,"ADDRESS":"六甲路３８４號","OBJECTID":463252},"geometry":{"x":175449.26999999955,"y":2539282.25}},{"attributes":{"ID":463278,"DIS_CODE":0,"TOWNNAME":"歸仁區","LI":"南保里","LIN":"36鄰","STREET":"民權六街","SECT":" ","MAREA":" ","LANE":" ","ALLEY":" ","HOUSE_NO":"９９號","E_COORD97":176712.29000000001,"N_COORD97":2541103.29,"ADDRESS":"民權六街９９號","OBJECTID":463253},"geometry":{"x":176712.29000000004,"y":2541103.290000001}},{"attributes":{"ID":463279,"DIS_CODE":0,"TOWNNAME":"歸仁區","LI":"南保里","LIN":"36鄰","STREET":"民權六街","SECT":" ","MAREA":" ","LANE":" ","ALLEY":" ","HOUSE_NO":"１０１號","E_COORD97":176707.34,"N_COORD97":2541103.29,"ADDRESS":"民權六街１０１號","OBJECTID":463254},"geometry":{"x":176707.34000000078,"y":2541103.290000001}},{"attributes":{"ID":463280,"DIS_CODE":0,"TOWNNAME":"歸仁區","LI":"六甲里","LIN":"36鄰","STREET":"六甲路","SECT":" ","MAREA":" ","LANE":" ","ALLEY":" ","HOUSE_NO":"３４８號","E_COORD97":175574.17000000001,"N_COORD97":2539245.25,"ADDRESS":"六甲路３４８號","OBJECTID":463255},"geometry":{"x":175574.16999999899,"y":2539245.2499999981}},{"attributes":{"ID":463281,"DIS_CODE":0,"TOWNNAME":"歸仁區","LI":"南保里","LIN":"36鄰","STREET":"民權六街","SECT":" ","MAREA":" ","LANE":" ","ALLEY":" ","HOUSE_NO":"１４１號","E_COORD97":176697.04000000001,"N_COORD97":2541091.29,"ADDRESS":"民權六街１４１號","OBJECTID":463256},"geometry":{"x":176697.04000000004,"y":2541091.2899999991}},{"attributes":{"ID":463282,"DIS_CODE":0,"TOWNNAME":"歸仁區","LI":"六甲里","LIN":"36鄰","STREET":"六甲路","SECT":" ","MAREA":" ","LANE":" ","ALLEY":" ","HOUSE_NO":"３６２號","E_COORD97":175540.47,"N_COORD97":2539266.25,"ADDRESS":"六甲路３６２號","OBJECTID":463257},"geometry":{"x":175540.47000000067,"y":2539266.2500000019}},{"attributes":{"ID":463283,"DIS_CODE":0,"TOWNNAME":"歸仁區","LI":"南保里","LIN":"36鄰","STREET":"民權六街","SECT":" ","MAREA":" ","LANE":" ","ALLEY":" ","HOUSE_NO":"１１５號","E_COORD97":176707.14000000001,"N_COORD97":2541061.29,"ADDRESS":"民權六街１１５號","OBJECTID":463258},"geometry":{"x":176707.1400000006,"y":2541061.2899999972}},{"attributes":{"ID":463284,"DIS_CODE":0,"TOWNNAME":"歸仁區","LI":"南保里","LIN":"36鄰","STREET":"民權六街","SECT":" ","MAREA":" ","LANE":" ","ALLEY":" ","HOUSE_NO":"１４５號","E_COORD97":176690.94,"N_COORD97":2541104.29,"ADDRESS":"民權六街１４５號","OBJECTID":463259},"geometry":{"x":176690.94000000041,"y":2541104.2899999991}},{"attributes":{"ID":463285,"DIS_CODE":0,"TOWNNAME":"歸仁區","LI":"六甲里","LIN":"36鄰","STREET":"六甲路","SECT":" ","MAREA":" ","LANE":" ","ALLEY":" ","HOUSE_NO":"３５８號","E_COORD97":175550.57000000001,"N_COORD97":2539252.25,"ADDRESS":"六甲路３５８號","OBJECTID":463260},"geometry":{"x":175550.57000000123,"y":2539252.2500000037}},{"attributes":{"ID":463286,"DIS_CODE":0,"TOWNNAME":"歸仁區","LI":"南保里","LIN":"36鄰","STREET":"民權六街","SECT":" ","MAREA":" ","LANE":" ","ALLEY":" ","HOUSE_NO":"１３５號","E_COORD97":176696.94,"N_COORD97":2541077.29,"ADDRESS":"民權六街１３５號","OBJECTID":463261},"geometry":{"x":176696.94000000227,"y":2541077.2899999991}},{"attributes":{"ID":463287,"DIS_CODE":0,"TOWNNAME":"北區","LI":"成德里","LIN":"36鄰","STREET":"文成三路","SECT":" ","MAREA":" ","LANE":" ","ALLEY":" ","HOUSE_NO":"１２７號","E_COORD97":168710.98000000001,"N_COORD97":2546363.3199999998,"ADDRESS":"文成三路１２７號","OBJECTID":463262},"geometry":{"x":168710.98000000138,"y":2546363.3200000022}},{"attributes":{"ID":463288,"DIS_CODE":0,"TOWNNAME":"北區","LI":"成德里","LIN":"36鄰","STREET":"文成三路","SECT":" ","MAREA":" ","LANE":" ","ALLEY":" ","HOUSE_NO":"１２９號","E_COORD97":168705.35999999999,"N_COORD97":2546363.8599999999,"ADDRESS":"文成三路１２９號","OBJECTID":463263},"geometry":{"x":168705.36000000127,"y":2546363.8600000031}},{"attributes":{"ID":463289,"DIS_CODE":0,"TOWNNAME":"北區","LI":"成德里","LIN":"36鄰","STREET":"文成三路","SECT":" ","MAREA":" ","LANE":" ","ALLEY":" ","HOUSE_NO":"１３１號","E_COORD97":168700.01999999999,"N_COORD97":2546364.3900000001,"ADDRESS":"文成三路１３１號","OBJECTID":463264},"geometry":{"x":168700.02000000048,"y":2546364.3900000006}},{"attributes":{"ID":463290,"DIS_CODE":0,"TOWNNAME":"北區","LI":"成德里","LIN":"36鄰","STREET":"文成三路","SECT":" ","MAREA":" ","LANE":" ","ALLEY":" ","HOUSE_NO":"１３３號","E_COORD97":168693.32999999999,"N_COORD97":2546365.46,"ADDRESS":"文成三路１３３號","OBJECTID":463265},"geometry":{"x":168693.33000000101,"y":2546365.4600000028}},{"attributes":{"ID":463291,"DIS_CODE":0,"TOWNNAME":"北區","LI":"成德里","LIN":"36鄰","STREET":"文成三路","SECT":" ","MAREA":" ","LANE":" ","ALLEY":" ","HOUSE_NO":"１３５號","E_COORD97":168687.98999999999,"N_COORD97":2546366,"ADDRESS":"文成三路１３５號","OBJECTID":463266},"geometry":{"x":168687.99000000022,"y":2546366}},{"attributes":{"ID":463292,"DIS_CODE":0,"TOWNNAME":"北區","LI":"成德里","LIN":"36鄰","STREET":"文成三路","SECT":" ","MAREA":" ","LANE":" ","ALLEY":" ","HOUSE_NO":"１３７號","E_COORD97":168682.10999999999,"N_COORD97":2546366.7999999998,"ADDRESS":"文成三路１３７號","OBJECTID":463267},"geometry":{"x":168682.11000000034,"y":2546366.8000000026}},{"attributes":{"ID":463293,"DIS_CODE":0,"TOWNNAME":"北區","LI":"成德里","LIN":"36鄰","STREET":"文成三路","SECT":" ","MAREA":" ","LANE":" ","ALLEY":" ","HOUSE_NO":"１３９號","E_COORD97":168676.23000000001,"N_COORD97":2546367.3300000001,"ADDRESS":"文成三路１３９號","OBJECTID":463268},"geometry":{"x":168676.23000000045,"y":2546367.3300000001}},{"attributes":{"ID":463294,"DIS_CODE":0,"TOWNNAME":"北區","LI":"成德里","LIN":"36鄰","STREET":"文成三路","SECT":" ","MAREA":" ","LANE":" ","ALLEY":" ","HOUSE_NO":"１４１號","E_COORD97":168669.81,"N_COORD97":2546367.6000000001,"ADDRESS":"文成三路１４１號","OBJECTID":463269},"geometry":{"x":168669.80999999959,"y":2546367.6000000015}},{"attributes":{"ID":463295,"DIS_CODE":0,"TOWNNAME":"北區","LI":"成德里","LIN":"36鄰","STREET":"文成三路","SECT":" ","MAREA":" ","LANE":" ","ALLEY":" ","HOUSE_NO":"１４３號","E_COORD97":168663.92999999999,"N_COORD97":2546368.1299999999,"ADDRESS":"文成三路１４３號","OBJECTID":463270},"geometry":{"x":168663.9299999997,"y":2546368.129999999}},{"attributes":{"ID":463296,"DIS_CODE":0,"TOWNNAME":"北區","LI":"成德里","LIN":"36鄰","STREET":"文成三路","SECT":" ","MAREA":" ","LANE":" ","ALLEY":" ","HOUSE_NO":"１４５號","E_COORD97":168657.78,"N_COORD97":2546368.3999999999,"ADDRESS":"文成三路１４５號","OBJECTID":463271},"geometry":{"x":168657.78000000119,"y":2546368.4000000022}},{"attributes":{"ID":463297,"DIS_CODE":0,"TOWNNAME":"北區","LI":"成德里","LIN":"36鄰","STREET":"文成三路","SECT":" ","MAREA":" ","LANE":" ","ALLEY":" ","HOUSE_NO":"１４７號","E_COORD97":168652.17000000001,"N_COORD97":2546369.2000000002,"ADDRESS":"文成三路１４７號","OBJECTID":463272},"geometry":{"x":168652.16999999993,"y":2546369.2000000011}},{"attributes":{"ID":463298,"DIS_CODE":0,"TOWNNAME":"北區","LI":"成德里","LIN":"36鄰","STREET":"文成三路","SECT":" ","MAREA":" ","LANE":" ","ALLEY":" ","HOUSE_NO":"１４９號","E_COORD97":168646.29000000001,"N_COORD97":2546369.73,"ADDRESS":"文成三路１４９號","OBJECTID":463273},"geometry":{"x":168646.29000000004,"y":2546369.7300000023}},{"attributes":{"ID":463299,"DIS_CODE":0,"TOWNNAME":"北區","LI":"成德里","LIN":"36鄰","STREET":"文成三路","SECT":" ","MAREA":" ","LANE":" ","ALLEY":" ","HOUSE_NO":"１５１號","E_COORD97":168639.87,"N_COORD97":2546370.27,"ADDRESS":"文成三路１５１號","OBJECTID":463274},"geometry":{"x":168639.87000000197,"y":2546370.2699999996}},{"attributes":{"ID":463300,"DIS_CODE":0,"TOWNNAME":"北區","LI":"成德里","LIN":"36鄰","STREET":"文成三路","SECT":" ","MAREA":" ","LANE":" ","ALLEY":" ","HOUSE_NO":"１５３號","E_COORD97":168633.98999999999,"N_COORD97":2546370.7999999998,"ADDRESS":"文成三路１５３號","OBJECTID":463275},"geometry":{"x":168633.99000000209,"y":2546370.8000000026}},{"attributes":{"ID":463301,"DIS_CODE":0,"TOWNNAME":"北區","LI":"成德里","LIN":"36鄰","STREET":"文成三路","SECT":" ","MAREA":" ","LANE":" ","ALLEY":" ","HOUSE_NO":"１５５號","E_COORD97":168627.84,"N_COORD97":2546371.3399999999,"ADDRESS":"文成三路１５５號","OBJECTID":463276},"geometry":{"x":168627.84000000171,"y":2546371.3400000036}},{"attributes":{"ID":463302,"DIS_CODE":0,"TOWNNAME":"北區","LI":"成德里","LIN":"36鄰","STREET":"文成三路","SECT":" ","MAREA":" ","LANE":" ","ALLEY":" ","HOUSE_NO":"１５７號","E_COORD97":168622.23000000001,"N_COORD97":2546372.9399999999,"ADDRESS":"文成三路１５７號","OBJECTID":463277},"geometry":{"x":168622.23000000045,"y":2546372.9399999995}},{"attributes":{"ID":463303,"DIS_CODE":0,"TOWNNAME":"北區","LI":"成德里","LIN":"36鄰","STREET":"文成三路","SECT":" ","MAREA":" ","LANE":" ","ALLEY":" ","HOUSE_NO":"１５９號","E_COORD97":168616.35000000001,"N_COORD97":2546372.9399999999,"ADDRESS":"文成三路１５９號","OBJECTID":463278},"geometry":{"x":168616.35000000056,"y":2546372.9399999995}},{"attributes":{"ID":463304,"DIS_CODE":0,"TOWNNAME":"北區","LI":"成德里","LIN":"36鄰","STREET":"文成三路","SECT":" ","MAREA":" ","LANE":" ","ALLEY":" ","HOUSE_NO":"１６１號","E_COORD97":168609.92999999999,"N_COORD97":2546372.9399999999,"ADDRESS":"文成三路１６１號","OBJECTID":463279},"geometry":{"x":168609.9299999997,"y":2546372.9399999995}},{"attributes":{"ID":463305,"DIS_CODE":0,"TOWNNAME":"北區","LI":"成德里","LIN":"36鄰","STREET":"文成三路","SECT":" ","MAREA":" ","LANE":" ","ALLEY":" ","HOUSE_NO":"１６３號","E_COORD97":168604.32000000001,"N_COORD97":2546373.7400000002,"ADDRESS":"文成三路１６３號","OBJECTID":463280},"geometry":{"x":168604.3200000003,"y":2546373.7400000021}},{"attributes":{"ID":463306,"DIS_CODE":0,"TOWNNAME":"北區","LI":"成德里","LIN":"36鄰","STREET":"文成三路","SECT":" ","MAREA":" ","LANE":" ","ALLEY":" ","HOUSE_NO":"１６５號","E_COORD97":168597.89999999999,"N_COORD97":2546374.0099999998,"ADDRESS":"文成三路１６５號","OBJECTID":463281},"geometry":{"x":168597.9000000013,"y":2546374.0100000016}},{"attributes":{"ID":463307,"DIS_CODE":0,"TOWNNAME":"北區","LI":"成德里","LIN":"36鄰","STREET":"文成三路","SECT":" ","MAREA":" ","LANE":" ","ALLEY":" ","HOUSE_NO":"１６７號","E_COORD97":168592.01999999999,"N_COORD97":2546374.27,"ADDRESS":"文成三路１６７號","OBJECTID":463282},"geometry":{"x":168592.01999999955,"y":2546374.2699999996}},{"attributes":{"ID":463308,"DIS_CODE":0,"TOWNNAME":"北區","LI":"成德里","LIN":"36鄰","STREET":"文成三路","SECT":" ","MAREA":" ","LANE":" ","ALLEY":" ","HOUSE_NO":"１６９號","E_COORD97":168585.07000000001,"N_COORD97":2546375.8799999999,"ADDRESS":"文成三路１６９號","OBJECTID":463283},"geometry":{"x":168585.07000000123,"y":2546375.879999999}},{"attributes":{"ID":463309,"DIS_CODE":0,"TOWNNAME":"北區","LI":"成德里","LIN":"36鄰","STREET":"育德一街","SECT":" ","MAREA":" ","LANE":" ","ALLEY":" ","HOUSE_NO":"２５０號","E_COORD97":168585.87,"N_COORD97":2546344.8999999999,"ADDRESS":"育德一街２５０號","OBJECTID":463284},"geometry":{"x":168585.87000000104,"y":2546344.9000000022}},{"attributes":{"ID":463310,"DIS_CODE":0,"TOWNNAME":"北區","LI":"成德里","LIN":"36鄰","STREET":"育德一街","SECT":" ","MAREA":" ","LANE":" ","ALLEY":" ","HOUSE_NO":"２５２號","E_COORD97":168586.67000000001,"N_COORD97":2546349.4399999999,"ADDRESS":"育德一街２５２號","OBJECTID":463285},"geometry":{"x":168586.67000000179,"y":2546349.4399999995}},{"attributes":{"ID":463311,"DIS_CODE":0,"TOWNNAME":"北區","LI":"成德里","LIN":"36鄰","STREET":"育德一街","SECT":" ","MAREA":" ","LANE":" ","ALLEY":" ","HOUSE_NO":"２５６號","E_COORD97":168588.01000000001,"N_COORD97":2546361.1899999999,"ADDRESS":"育德一街２５６號","OBJECTID":463286},"geometry":{"x":168588.01000000071,"y":2546361.1899999995}},{"attributes":{"ID":463312,"DIS_CODE":0,"TOWNNAME":"北區","LI":"成德里","LIN":"36鄰","STREET":"育德一街","SECT":" ","MAREA":" ","LANE":" ","ALLEY":" ","HOUSE_NO":"２５８號","E_COORD97":168589.07999999999,"N_COORD97":2546366.2599999998,"ADDRESS":"育德一街２５８號","OBJECTID":463287},"geometry":{"x":168589.07999999914,"y":2546366.2600000016}},{"attributes":{"ID":463313,"DIS_CODE":0,"TOWNNAME":"北區","LI":"成德里","LIN":"36鄰","STREET":"育德路","SECT":" ","MAREA":" ","LANE":" ","ALLEY":" ","HOUSE_NO":"６０１號","E_COORD97":168718.45999999999,"N_COORD97":2546334.2200000002,"ADDRESS":"育德路６０１號","OBJECTID":463288},"geometry":{"x":168718.45999999996,"y":2546334.2200000007}},{"attributes":{"ID":463314,"DIS_CODE":0,"TOWNNAME":"北區","LI":"成德里","LIN":"36鄰","STREET":"育德路","SECT":" ","MAREA":" ","LANE":" ","ALLEY":" ","HOUSE_NO":"６０７號","E_COORD97":168721.67000000001,"N_COORD97":2546349.9700000002,"ADDRESS":"育德路６０７號","OBJECTID":463289},"geometry":{"x":168721.66999999993,"y":2546349.9700000007}},{"attributes":{"ID":463315,"DIS_CODE":0,"TOWNNAME":"北區","LI":"成德里","LIN":"36鄰","STREET":"育德路","SECT":" ","MAREA":" ","LANE":" ","ALLEY":" ","HOUSE_NO":"６０９號","E_COORD97":168722.73999999999,"N_COORD97":2546355.3100000001,"ADDRESS":"育德路６０９號","OBJECTID":463290},"geometry":{"x":168722.74000000115,"y":2546355.3100000042}},{"attributes":{"ID":463316,"DIS_CODE":0,"TOWNNAME":"北區","LI":"成德里","LIN":"36鄰","STREET":"育德路","SECT":" ","MAREA":" ","LANE":" ","ALLEY":" ","HOUSE_NO":"６１１號","E_COORD97":168723.81,"N_COORD97":2546360.1200000001,"ADDRESS":"育德路６１１號","OBJECTID":463291},"geometry":{"x":168723.80999999959,"y":2546360.120000001}},{"attributes":{"ID":463317,"DIS_CODE":0,"TOWNNAME":"安平區","LI":"育平里","LIN":"36鄰","STREET":"郡平路","SECT":" ","MAREA":" ","LANE":" ","ALLEY":" ","HOUSE_NO":"２９７號","E_COORD97":164342.63,"N_COORD97":2543362.3700000001,"ADDRESS":"郡平路２９７號","OBJECTID":463292},"geometry":{"x":164342.63000000082,"y":2543362.3700000029}},{"attributes":{"ID":463318,"DIS_CODE":0,"TOWNNAME":"安平區","LI":"育平里","LIN":"36鄰","STREET":"郡平路","SECT":" ","MAREA":" ","LANE":" ","ALLEY":" ","HOUSE_NO":"２９９號","E_COORD97":164338.31,"N_COORD97":2543363.29,"ADDRESS":"郡平路２９９號","OBJECTID":463293},"geometry":{"x":164338.30999999959,"y":2543363.2899999991}},{"attributes":{"ID":463319,"DIS_CODE":0,"TOWNNAME":"安平區","LI":"育平里","LIN":"36鄰","STREET":"郡平路","SECT":" ","MAREA":" ","LANE":" ","ALLEY":" ","HOUSE_NO":"３０１號","E_COORD97":164333.67999999999,"N_COORD97":2543364.6800000002,"ADDRESS":"郡平路３０１號","OBJECTID":463294},"geometry":{"x":164333.68000000063,"y":2543364.6799999997}},{"attributes":{"ID":463320,"DIS_CODE":0,"TOWNNAME":"安平區","LI":"育平里","LIN":"36鄰","STREET":"郡平路","SECT":" ","MAREA":" ","LANE":" ","ALLEY":" ","HOUSE_NO":"３０３號","E_COORD97":164329.20000000001,"N_COORD97":2543365.9199999999,"ADDRESS":"郡平路３０３號","OBJECTID":463295},"geometry":{"x":164329.20000000112,"y":2543365.9199999999}},{"attributes":{"ID":463321,"DIS_CODE":0,"TOWNNAME":"安平區","LI":"育平里","LIN":"36鄰","STREET":"郡平路","SECT":" ","MAREA":" ","LANE":" ","ALLEY":" ","HOUSE_NO":"３０５號","E_COORD97":164325.17999999999,"N_COORD97":2543367.6099999999,"ADDRESS":"郡平路３０５號","OBJECTID":463296},"geometry":{"x":164325.18000000063,"y":2543367.6099999994}},{"attributes":{"ID":463322,"DIS_CODE":0,"TOWNNAME":"歸仁區","LI":"南興里","LIN":"36鄰","STREET":"中山路","SECT":"三段","MAREA":" ","LANE":" ","ALLEY":" ","HOUSE_NO":"４２８號","E_COORD97":175950.35999999999,"N_COORD97":2541022.2799999998,"ADDRESS":"中山路三段４２８號","OBJECTID":463297},"geometry":{"x":175950.36000000127,"y":2541022.2800000012}},{"attributes":{"ID":463323,"DIS_CODE":0,"TOWNNAME":"歸仁區","LI":"南興里","LIN":"36鄰","STREET":"中山路","SECT":"三段","MAREA":" ","LANE":" ","ALLEY":" ","HOUSE_NO":"３６４號","E_COORD97":176119.45999999999,"N_COORD97":2540998.2799999998,"ADDRESS":"中山路三段３６４號","OBJECTID":463298},"geometry":{"x":176119.45999999996,"y":2540998.2800000012}},{"attributes":{"ID":463324,"DIS_CODE":0,"TOWNNAME":"歸仁區","LI":"後市里","LIN":"36鄰","STREET":"民族一街","SECT":" ","MAREA":" ","LANE":" ","ALLEY":" ","HOUSE_NO":"２５號","E_COORD97":177299.23000000001,"N_COORD97":2541005.75,"ADDRESS":"民族一街２５號","OBJECTID":463299},"geometry":{"x":177299.23000000138,"y":2541005.7500000019}},{"attributes":{"ID":463325,"DIS_CODE":0,"TOWNNAME":"歸仁區","LI":"許厝里","LIN":"36鄰","STREET":"和平南街","SECT":" ","MAREA":" ","LANE":" ","ALLEY":" ","HOUSE_NO":"９３號","E_COORD97":177815.32999999999,"N_COORD97":2540489.8199999998,"ADDRESS":"和平南街９３號","OBJECTID":463300},"geometry":{"x":177815.33000000007,"y":2540489.820000004}},{"attributes":{"ID":463326,"DIS_CODE":0,"TOWNNAME":"歸仁區","LI":"南興里","LIN":"36鄰","STREET":"中山路","SECT":"三段","MAREA":" ","LANE":" ","ALLEY":" ","HOUSE_NO":"４１８號","E_COORD97":175971.85999999999,"N_COORD97":2541014.2799999998,"ADDRESS":"中山路三段４１８號","OBJECTID":463301},"geometry":{"x":175971.8600000022,"y":2541014.2800000031}},{"attributes":{"ID":463327,"DIS_CODE":0,"TOWNNAME":"歸仁區","LI":"南興里","LIN":"36鄰","STREET":"中山路","SECT":"三段","MAREA":" ","LANE":" ","ALLEY":" ","HOUSE_NO":"４１４號","E_COORD97":175987.26000000001,"N_COORD97":2541015.2799999998,"ADDRESS":"中山路三段４１４號","OBJECTID":463302},"geometry":{"x":175987.26000000164,"y":2541015.2800000012}},{"attributes":{"ID":463328,"DIS_CODE":0,"TOWNNAME":"歸仁區","LI":"許厝里","LIN":"36鄰","STREET":"和平南街","SECT":" ","MAREA":" ","LANE":" ","ALLEY":" ","HOUSE_NO":"５７號","E_COORD97":177823.82999999999,"N_COORD97":2540567.8199999998,"ADDRESS":"和平南街５７號","OBJECTID":463303},"geometry":{"x":177823.83000000007,"y":2540567.820000004}},{"attributes":{"ID":463329,"DIS_CODE":0,"TOWNNAME":"歸仁區","LI":"南興里","LIN":"36鄰","STREET":"中山路","SECT":"三段","MAREA":" ","LANE":" ","ALLEY":" ","HOUSE_NO":"３１２號","E_COORD97":176237.26000000001,"N_COORD97":2540966.27,"ADDRESS":"中山路三段３１２號","OBJECTID":463304},"geometry":{"x":176237.25999999978,"y":2540966.2699999996}},{"attributes":{"ID":463330,"DIS_CODE":0,"TOWNNAME":"歸仁區","LI":"南興里","LIN":"36鄰","STREET":"中山路","SECT":"三段","MAREA":" ","LANE":" ","ALLEY":" ","HOUSE_NO":"４００號","E_COORD97":176017.95999999999,"N_COORD97":2540998.2799999998,"ADDRESS":"中山路三段４００號","OBJECTID":463305},"geometry":{"x":176017.95999999996,"y":2540998.2800000012}},{"attributes":{"ID":463331,"DIS_CODE":0,"TOWNNAME":"歸仁區","LI":"許厝里","LIN":"36鄰","STREET":"和平南街","SECT":" ","MAREA":" ","LANE":" ","ALLEY":" ","HOUSE_NO":"７７號","E_COORD97":177820.53,"N_COORD97":2540522.8199999998,"ADDRESS":"和平南街７７號","OBJECTID":463306},"geometry":{"x":177820.53000000119,"y":2540522.8200000003}},{"attributes":{"ID":463332,"DIS_CODE":0,"TOWNNAME":"歸仁區","LI":"南興里","LIN":"36鄰","STREET":"中山路","SECT":"三段","MAREA":" ","LANE":" ","ALLEY":" ","HOUSE_NO":"３５６號","E_COORD97":176135.76000000001,"N_COORD97":2540982.2799999998,"ADDRESS":"中山路三段３５６號","OBJECTID":463307},"geometry":{"x":176135.75999999978,"y":2540982.2799999993}},{"attributes":{"ID":463333,"DIS_CODE":0,"TOWNNAME":"歸仁區","LI":"南興里","LIN":"36鄰","STREET":"中山路","SECT":"三段","MAREA":" ","LANE":" ","ALLEY":" ","HOUSE_NO":"３７８號","E_COORD97":176066.45999999999,"N_COORD97":2541064.2799999998,"ADDRESS":"中山路三段３７８號","OBJECTID":463308},"geometry":{"x":176066.46000000089,"y":2541064.2799999993}},{"attributes":{"ID":463334,"DIS_CODE":0,"TOWNNAME":"歸仁區","LI":"許厝里","LIN":"36鄰","STREET":"和平南街","SECT":" ","MAREA":" ","LANE":" ","ALLEY":" ","HOUSE_NO":"９５號","E_COORD97":177815.23000000001,"N_COORD97":2540484.8199999998,"ADDRESS":"和平南街９５號","OBJECTID":463309},"geometry":{"x":177815.23000000045,"y":2540484.8200000003}},{"attributes":{"ID":463335,"DIS_CODE":0,"TOWNNAME":"歸仁區","LI":"許厝里","LIN":"36鄰","STREET":"和平南街","SECT":" ","MAREA":" ","LANE":" ","ALLEY":" ","HOUSE_NO":"８５號","E_COORD97":177818.42999999999,"N_COORD97":2540507.8199999998,"ADDRESS":"和平南街８５號","OBJECTID":463310},"geometry":{"x":177818.43000000156,"y":2540507.8200000022}},{"attributes":{"ID":463336,"DIS_CODE":0,"TOWNNAME":"歸仁區","LI":"六甲里","LIN":"36鄰","STREET":"六甲路","SECT":" ","MAREA":" ","LANE":" ","ALLEY":" ","HOUSE_NO":"３６６號","E_COORD97":175528.17000000001,"N_COORD97":2539283.25,"ADDRESS":"六甲路３６６號","OBJECTID":463311},"geometry":{"x":175528.16999999993,"y":2539283.2500000019}},{"attributes":{"ID":463337,"DIS_CODE":0,"TOWNNAME":"安平區","LI":"育平里","LIN":"36鄰","STREET":"平豐路","SECT":" ","MAREA":" ","LANE":" ","ALLEY":" ","HOUSE_NO":"１６６號","E_COORD97":164343.04999999999,"N_COORD97":2543271.0699999998,"ADDRESS":"平豐路１６６號","OBJECTID":463312},"geometry":{"x":164343.05000000075,"y":2543271.0700000003}},{"attributes":{"ID":463338,"DIS_CODE":0,"TOWNNAME":"歸仁區","LI":"六甲里","LIN":"36鄰","STREET":"六甲路","SECT":" ","MAREA":" ","LANE":" ","ALLEY":" ","HOUSE_NO":"３８６號","E_COORD97":175445.07000000001,"N_COORD97":2539279.25,"ADDRESS":"六甲路３８６號","OBJECTID":463313},"geometry":{"x":175445.07000000123,"y":2539279.2499999981}},{"attributes":{"ID":463339,"DIS_CODE":0,"TOWNNAME":"歸仁區","LI":"六甲里","LIN":"36鄰","STREET":"六甲八街","SECT":" ","MAREA":" ","LANE":" ","ALLEY":" ","HOUSE_NO":"１０號","E_COORD97":175415.57000000001,"N_COORD97":2539311.25,"ADDRESS":"六甲八街１０號","OBJECTID":463314},"geometry":{"x":175415.5700000003,"y":2539311.2500000019}},{"attributes":{"ID":463340,"DIS_CODE":0,"TOWNNAME":"歸仁區","LI":"六甲里","LIN":"36鄰","STREET":"六甲路","SECT":" ","MAREA":" ","LANE":" ","ALLEY":" ","HOUSE_NO":"３５６號","E_COORD97":175554.67000000001,"N_COORD97":2539252.25,"ADDRESS":"六甲路３５６號","OBJECTID":463315},"geometry":{"x":175554.67000000086,"y":2539252.2500000037}},{"attributes":{"ID":463341,"DIS_CODE":0,"TOWNNAME":"歸仁區","LI":"南保里","LIN":"36鄰","STREET":"民權六街","SECT":" ","MAREA":" ","LANE":" ","ALLEY":" ","HOUSE_NO":"１０９號","E_COORD97":176708.23999999999,"N_COORD97":2541075.29,"ADDRESS":"民權六街１０９號","OBJECTID":463316},"geometry":{"x":176708.24000000209,"y":2541075.2900000028}},{"attributes":{"ID":463342,"DIS_CODE":0,"TOWNNAME":"歸仁區","LI":"南保里","LIN":"36鄰","STREET":"民權六街","SECT":" ","MAREA":" ","LANE":" ","ALLEY":" ","HOUSE_NO":"１３１號","E_COORD97":176696.94,"N_COORD97":2541066.29,"ADDRESS":"民權六街１３１號","OBJECTID":463317},"geometry":{"x":176696.94000000227,"y":2541066.290000001}},{"attributes":{"ID":463343,"DIS_CODE":0,"TOWNNAME":"歸仁區","LI":"六甲里","LIN":"36鄰","STREET":"六甲路","SECT":" ","MAREA":" ","LANE":" ","ALLEY":" ","HOUSE_NO":"３６４號","E_COORD97":175535.26999999999,"N_COORD97":2539260.25,"ADDRESS":"六甲路３６４號","OBJECTID":463318},"geometry":{"x":175535.26999999955,"y":2539260.2500000019}},{"attributes":{"ID":463344,"DIS_CODE":0,"TOWNNAME":"歸仁區","LI":"南保里","LIN":"36鄰","STREET":"民權六街","SECT":" ","MAREA":" ","LANE":" ","ALLEY":" ","HOUSE_NO":"１１３號","E_COORD97":176707.14000000001,"N_COORD97":2541065.29,"ADDRESS":"民權六街１１３號","OBJECTID":463319},"geometry":{"x":176707.1400000006,"y":2541065.290000001}},{"attributes":{"ID":463345,"DIS_CODE":0,"TOWNNAME":"歸仁區","LI":"許厝里","LIN":"36鄰","STREET":"和平南街","SECT":" ","MAREA":" ","LANE":" ","ALLEY":" ","HOUSE_NO":"９１號","E_COORD97":177815.32999999999,"N_COORD97":2540493.8199999998,"ADDRESS":"和平南街９１號","OBJECTID":463320},"geometry":{"x":177815.33000000007,"y":2540493.8200000022}},{"attributes":{"ID":463346,"DIS_CODE":0,"TOWNNAME":"歸仁區","LI":"許厝里","LIN":"36鄰","STREET":"公園路","SECT":" ","MAREA":" ","LANE":" ","ALLEY":" ","HOUSE_NO":"１６４號","E_COORD97":177813.13,"N_COORD97":2540458.8199999998,"ADDRESS":"公園路１６４號","OBJECTID":463321},"geometry":{"x":177813.12999999989,"y":2540458.8200000003}},{"attributes":{"ID":463347,"DIS_CODE":0,"TOWNNAME":"歸仁區","LI":"許厝里","LIN":"36鄰","STREET":"和平南街","SECT":" ","MAREA":" ","LANE":" ","ALLEY":" ","HOUSE_NO":"８３號","E_COORD97":177818.42999999999,"N_COORD97":2540510.8199999998,"ADDRESS":"和平南街８３號","OBJECTID":463322},"geometry":{"x":177818.43000000156,"y":2540510.8200000022}},{"attributes":{"ID":463348,"DIS_CODE":0,"TOWNNAME":"歸仁區","LI":"許厝里","LIN":"36鄰","STREET":"和平南街","SECT":" ","MAREA":" ","LANE":" ","ALLEY":" ","HOUSE_NO":"６５號","E_COORD97":177821.73000000001,"N_COORD97":2540551.8100000001,"ADDRESS":"和平南街６５號","OBJECTID":463323},"geometry":{"x":177821.73000000045,"y":2540551.8100000024}},{"attributes":{"ID":463349,"DIS_CODE":0,"TOWNNAME":"歸仁區","LI":"後市里","LIN":"36鄰","STREET":"民族一街","SECT":" ","MAREA":" ","LANE":" ","ALLEY":" ","HOUSE_NO":"２９號","E_COORD97":177299.23000000001,"N_COORD97":2541005.75,"ADDRESS":"民族一街２９號","OBJECTID":463324},"geometry":{"x":177299.23000000138,"y":2541005.7500000019}},{"attributes":{"ID":463350,"DIS_CODE":0,"TOWNNAME":"歸仁區","LI":"許厝里","LIN":"36鄰","STREET":"公園路","SECT":" ","MAREA":" ","LANE":" ","ALLEY":" ","HOUSE_NO":"１６０號","E_COORD97":177828.53,"N_COORD97":2540462.8199999998,"ADDRESS":"公園路１６０號","OBJECTID":463325},"geometry":{"x":177828.53000000212,"y":2540462.8200000022}},{"attributes":{"ID":463351,"DIS_CODE":0,"TOWNNAME":"歸仁區","LI":"許厝里","LIN":"36鄰","STREET":"和平南街","SECT":" ","MAREA":" ","LANE":" ","ALLEY":" ","HOUSE_NO":"６３號","E_COORD97":177821.73000000001,"N_COORD97":2540555.8199999998,"ADDRESS":"和平南街６３號","OBJECTID":463326},"geometry":{"x":177821.73000000045,"y":2540555.8200000003}},{"attributes":{"ID":463352,"DIS_CODE":0,"TOWNNAME":"歸仁區","LI":"許厝里","LIN":"36鄰","STREET":"和平南街","SECT":" ","MAREA":" ","LANE":" ","ALLEY":" ","HOUSE_NO":"６７號","E_COORD97":177821.73000000001,"N_COORD97":2540546.8199999998,"ADDRESS":"和平南街６７號","OBJECTID":463327},"geometry":{"x":177821.73000000045,"y":2540546.8200000003}},{"attributes":{"ID":463353,"DIS_CODE":0,"TOWNNAME":"歸仁區","LI":"許厝里","LIN":"36鄰","STREET":"公園路","SECT":" ","MAREA":" ","LANE":" ","ALLEY":" ","HOUSE_NO":"１５４號","E_COORD97":177842.92999999999,"N_COORD97":2540469.8199999998,"ADDRESS":"公園路１５４號","OBJECTID":463328},"geometry":{"x":177842.93000000063,"y":2540469.8200000022}},{"attributes":{"ID":463354,"DIS_CODE":0,"TOWNNAME":"歸仁區","LI":"南興里","LIN":"36鄰","STREET":"中山路","SECT":"三段","MAREA":" ","LANE":" ","ALLEY":" ","HOUSE_NO":"３６６號","E_COORD97":176106.51000000001,"N_COORD97":2540998.25,"ADDRESS":"中山路三段３６６號","OBJECTID":463329},"geometry":{"x":176106.51000000071,"y":2540998.2500000037}},{"attributes":{"ID":463355,"DIS_CODE":0,"TOWNNAME":"歸仁區","LI":"許厝里","LIN":"36鄰","STREET":"和平南街","SECT":" ","MAREA":" ","LANE":" ","ALLEY":" ","HOUSE_NO":"５１號","E_COORD97":177821.92999999999,"N_COORD97":2540586.8199999998,"ADDRESS":"和平南街５１號","OBJECTID":463330},"geometry":{"x":177821.93000000156,"y":2540586.8200000003}},{"attributes":{"ID":463356,"DIS_CODE":0,"TOWNNAME":"歸仁區","LI":"許厝里","LIN":"36鄰","STREET":"和平南街","SECT":" ","MAREA":" ","LANE":" ","ALLEY":" ","HOUSE_NO":"７５號","E_COORD97":177821.63,"N_COORD97":2540525.8199999998,"ADDRESS":"和平南街７５號","OBJECTID":463331},"geometry":{"x":177821.62999999989,"y":2540525.8200000003}},{"attributes":{"ID":463357,"DIS_CODE":0,"TOWNNAME":"歸仁區","LI":"南興里","LIN":"36鄰","STREET":"中山路","SECT":"三段","MAREA":" ","LANE":" ","ALLEY":" ","HOUSE_NO":"４１２號","E_COORD97":175983.51000000001,"N_COORD97":2541014.25,"ADDRESS":"中山路三段４１２號","OBJECTID":463332},"geometry":{"x":175983.50999999978,"y":2541014.25}},{"attributes":{"ID":463358,"DIS_CODE":0,"TOWNNAME":"歸仁區","LI":"南興里","LIN":"36鄰","STREET":"中山路","SECT":"三段","MAREA":" ","LANE":" ","ALLEY":" ","HOUSE_NO":"４１６號","E_COORD97":175969.20999999999,"N_COORD97":2541010.25,"ADDRESS":"中山路三段４１６號","OBJECTID":463333},"geometry":{"x":175969.21000000089,"y":2541010.25}},{"attributes":{"ID":463359,"DIS_CODE":0,"TOWNNAME":"歸仁區","LI":"許厝里","LIN":"36鄰","STREET":"公園路","SECT":" ","MAREA":" ","LANE":" ","ALLEY":" ","HOUSE_NO":"１６２號","E_COORD97":177822.32999999999,"N_COORD97":2540460.8199999998,"ADDRESS":"公園路１６２號","OBJECTID":463334},"geometry":{"x":177822.33000000007,"y":2540460.8200000003}},{"attributes":{"ID":463360,"DIS_CODE":0,"TOWNNAME":"歸仁區","LI":"許厝里","LIN":"36鄰","STREET":"和平南街","SECT":" ","MAREA":" ","LANE":" ","ALLEY":" ","HOUSE_NO":"６９號","E_COORD97":177821.73000000001,"N_COORD97":2540542.8199999998,"ADDRESS":"和平南街６９號","OBJECTID":463335},"geometry":{"x":177821.73000000045,"y":2540542.8200000003}},{"attributes":{"ID":463361,"DIS_CODE":0,"TOWNNAME":"歸仁區","LI":"許厝里","LIN":"36鄰","STREET":"和平南街","SECT":" ","MAREA":" ","LANE":" ","ALLEY":" ","HOUSE_NO":"７３號","E_COORD97":177821.63,"N_COORD97":2540531.8199999998,"ADDRESS":"和平南街７３號","OBJECTID":463336},"geometry":{"x":177821.62999999989,"y":2540531.8200000022}},{"attributes":{"ID":463362,"DIS_CODE":0,"TOWNNAME":"歸仁區","LI":"許厝里","LIN":"36鄰","STREET":"和平南街","SECT":" ","MAREA":" ","LANE":" ","ALLEY":" ","HOUSE_NO":"９９號","E_COORD97":177813.13,"N_COORD97":2540477.8199999998,"ADDRESS":"和平南街９９號","OBJECTID":463337},"geometry":{"x":177813.12999999989,"y":2540477.8200000003}},{"attributes":{"ID":463363,"DIS_CODE":0,"TOWNNAME":"歸仁區","LI":"許厝里","LIN":"36鄰","STREET":"和平南街","SECT":" ","MAREA":" ","LANE":" ","ALLEY":" ","HOUSE_NO":"９７號","E_COORD97":177814.23000000001,"N_COORD97":2540481.8199999998,"ADDRESS":"和平南街９７號","OBJECTID":463338},"geometry":{"x":177814.23000000138,"y":2540481.8200000003}},{"attributes":{"ID":463364,"DIS_CODE":0,"TOWNNAME":"歸仁區","LI":"許厝里","LIN":"36鄰","STREET":"和平南街","SECT":" ","MAREA":" ","LANE":" ","ALLEY":" ","HOUSE_NO":"５９號","E_COORD97":177822.82999999999,"N_COORD97":2540563.8199999998,"ADDRESS":"和平南街５９號","OBJECTID":463339},"geometry":{"x":177822.83000000194,"y":2540563.8200000003}},{"attributes":{"ID":463365,"DIS_CODE":0,"TOWNNAME":"歸仁區","LI":"許厝里","LIN":"36鄰","STREET":"和平南街","SECT":" ","MAREA":" ","LANE":" ","ALLEY":" ","HOUSE_NO":"８１號","E_COORD97":177818.42999999999,"N_COORD97":2540514.8199999998,"ADDRESS":"和平南街８１號","OBJECTID":463340},"geometry":{"x":177818.43000000156,"y":2540514.8200000022}},{"attributes":{"ID":463366,"DIS_CODE":0,"TOWNNAME":"歸仁區","LI":"後市里","LIN":"36鄰","STREET":"國光街","SECT":" ","MAREA":" ","LANE":" ","ALLEY":" ","HOUSE_NO":"１０７號","E_COORD97":177314.54000000001,"N_COORD97":2541002.7400000002,"ADDRESS":"國光街１０７號","OBJECTID":463341},"geometry":{"x":177314.5400000019,"y":2541002.7400000021}},{"attributes":{"ID":463367,"DIS_CODE":0,"TOWNNAME":"歸仁區","LI":"許厝里","LIN":"36鄰","STREET":"公園路","SECT":" ","MAREA":" ","LANE":" ","ALLEY":" ","HOUSE_NO":"１４８號","E_COORD97":177854.13,"N_COORD97":2540470.8199999998,"ADDRESS":"公園路１４８號","OBJECTID":463342},"geometry":{"x":177854.12999999989,"y":2540470.8200000022}},{"attributes":{"ID":463368,"DIS_CODE":0,"TOWNNAME":"永康區","LI":"\u25A0行里","LIN":"36鄰","STREET":"中正七街","SECT":" ","MAREA":" ","LANE":" ","ALLEY":" ","HOUSE_NO":"２０８號","E_COORD97":172163.47,"N_COORD97":2549278.79,"ADDRESS":"中正七街２０８號","OBJECTID":463343},"geometry":{"x":172163.47000000067,"y":2549278.7899999991}},{"attributes":{"ID":463369,"DIS_CODE":0,"TOWNNAME":"永康區","LI":"\u25A0行里","LIN":"36鄰","STREET":"中正七街","SECT":" ","MAREA":" ","LANE":" ","ALLEY":" ","HOUSE_NO":"２０２號","E_COORD97":172163.57000000001,"N_COORD97":2549268.5800000001,"ADDRESS":"中正七街２０２號","OBJECTID":463344},"geometry":{"x":172163.57000000123,"y":2549268.5800000038}},{"attributes":{"ID":463370,"DIS_CODE":0,"TOWNNAME":"永康區","LI":"\u25A0行里","LIN":"36鄰","STREET":"中正七街","SECT":" ","MAREA":" ","LANE":" ","ALLEY":" ","HOUSE_NO":"２３２號","E_COORD97":172157.5,"N_COORD97":2549335.2000000002,"ADDRESS":"中正七街２３２號","OBJECTID":463345},"geometry":{"x":172157.5,"y":2549335.2000000011}},{"attributes":{"ID":463371,"DIS_CODE":0,"TOWNNAME":"永康區","LI":"\u25A0行里","LIN":"36鄰","STREET":"中正七街","SECT":" ","MAREA":" ","LANE":" ","ALLEY":" ","HOUSE_NO":"２２８號","E_COORD97":172161.97,"N_COORD97":2549323.6200000001,"ADDRESS":"中正七街２２８號","OBJECTID":463346},"geometry":{"x":172161.97000000067,"y":2549323.6200000048}},{"attributes":{"ID":463372,"DIS_CODE":0,"TOWNNAME":"永康區","LI":"\u25A0行里","LIN":"36鄰","STREET":"三村一街","SECT":" ","MAREA":" ","LANE":" ","ALLEY":" ","HOUSE_NO":"８２號","E_COORD97":172157.76999999999,"N_COORD97":2549256.1099999999,"ADDRESS":"三村一街８２號","OBJECTID":463347},"geometry":{"x":172157.77000000048,"y":2549256.1099999994}},{"attributes":{"ID":463373,"DIS_CODE":0,"TOWNNAME":"永康區","LI":"\u25A0行里","LIN":"36鄰","STREET":"中正七街","SECT":" ","MAREA":" ","LANE":" ","ALLEY":" ","HOUSE_NO":"２２０號","E_COORD97":172162.48000000001,"N_COORD97":2549308.3300000001,"ADDRESS":"中正七街２２０號","OBJECTID":463348},"geometry":{"x":172162.48000000138,"y":2549308.3300000019}},{"attributes":{"ID":463374,"DIS_CODE":0,"TOWNNAME":"永康區","LI":"\u25A0行里","LIN":"36鄰","STREET":"中正七街","SECT":" ","MAREA":" ","LANE":" ","ALLEY":" ","HOUSE_NO":"２０６號","E_COORD97":172163.63,"N_COORD97":2549273.96,"ADDRESS":"中正七街２０６號","OBJECTID":463349},"geometry":{"x":172163.62999999989,"y":2549273.9600000046}},{"attributes":{"ID":463375,"DIS_CODE":0,"TOWNNAME":"永康區","LI":"南灣里","LIN":"36鄰","STREET":"大安街","SECT":" ","MAREA":" ","LANE":" ","ALLEY":" ","HOUSE_NO":"８９之１號","E_COORD97":174503.84,"N_COORD97":2545004.7400000002,"ADDRESS":"大安街８９之１號","OBJECTID":463350},"geometry":{"x":174503.84000000078,"y":2545004.7400000002}},{"attributes":{"ID":463376,"DIS_CODE":0,"TOWNNAME":"永康區","LI":"\u25A0行里","LIN":"36鄰","STREET":"中正七街","SECT":" ","MAREA":" ","LANE":" ","ALLEY":" ","HOUSE_NO":"２３０號","E_COORD97":172161.79999999999,"N_COORD97":2549328.7200000002,"ADDRESS":"中正七街２３０號","OBJECTID":463351},"geometry":{"x":172161.79999999981,"y":2549328.7200000007}},{"attributes":{"ID":463377,"DIS_CODE":0,"TOWNNAME":"永康區","LI":"\u25A0行里","LIN":"36鄰","STREET":"中正七街","SECT":" ","MAREA":" ","LANE":" ","ALLEY":" ","HOUSE_NO":"２１２號","E_COORD97":172159.19,"N_COORD97":2549289.52,"ADDRESS":"中正七街２１２號","OBJECTID":463352},"geometry":{"x":172159.19000000134,"y":2549289.5200000014}},{"attributes":{"ID":463378,"DIS_CODE":0,"TOWNNAME":"永康區","LI":"\u25A0行里","LIN":"36鄰","STREET":"中正七街","SECT":" ","MAREA":" ","LANE":" ","ALLEY":" ","HOUSE_NO":"２２２號","E_COORD97":172162.31,"N_COORD97":2549313.4199999999,"ADDRESS":"中正七街２２２號","OBJECTID":463353},"geometry":{"x":172162.31000000145,"y":2549313.4199999999}},{"attributes":{"ID":463379,"DIS_CODE":0,"TOWNNAME":"永康區","LI":"\u25A0行里","LIN":"36鄰","STREET":"中正七街","SECT":" ","MAREA":" ","LANE":" ","ALLEY":" ","HOUSE_NO":"２１８號","E_COORD97":172158.37,"N_COORD97":2549302.75,"ADDRESS":"中正七街２１８號","OBJECTID":463354},"geometry":{"x":172158.37000000011,"y":2549302.7500000019}},{"attributes":{"ID":463380,"DIS_CODE":0,"TOWNNAME":"永康區","LI":"\u25A0行里","LIN":"36鄰","STREET":"中正七街","SECT":" ","MAREA":" ","LANE":" ","ALLEY":" ","HOUSE_NO":"２１０號","E_COORD97":172159.60999999999,"N_COORD97":2549284.5699999998,"ADDRESS":"中正七街２１０號","OBJECTID":463355},"geometry":{"x":172159.61000000127,"y":2549284.5700000003}},{"attributes":{"ID":463381,"DIS_CODE":0,"TOWNNAME":"永康區","LI":"\u25A0行里","LIN":"36鄰","STREET":"三村一街","SECT":" ","MAREA":" ","LANE":" ","ALLEY":" ","HOUSE_NO":"８０號","E_COORD97":172162.76999999999,"N_COORD97":2549256.3900000001,"ADDRESS":"三村一街８０號","OBJECTID":463356},"geometry":{"x":172162.77000000048,"y":2549256.3900000006}},{"attributes":{"ID":463382,"DIS_CODE":0,"TOWNNAME":"永康區","LI":"\u25A0行里","LIN":"36鄰","STREET":"三村一街","SECT":" ","MAREA":" ","LANE":" ","ALLEY":" ","HOUSE_NO":"７８號","E_COORD97":172168.10000000001,"N_COORD97":2549257.6000000001,"ADDRESS":"三村一街７８號","OBJECTID":463357},"geometry":{"x":172168.09999999963,"y":2549257.5999999996}},{"attributes":{"ID":463383,"DIS_CODE":0,"TOWNNAME":"永康區","LI":"\u25A0行里","LIN":"36鄰","STREET":"中正七街","SECT":" ","MAREA":" ","LANE":" ","ALLEY":" ","HOUSE_NO":"２２６號","E_COORD97":172162.14000000001,"N_COORD97":2549318.52,"ADDRESS":"中正七街２２６號","OBJECTID":463358},"geometry":{"x":172162.1400000006,"y":2549318.5199999996}},{"attributes":{"ID":463384,"DIS_CODE":0,"TOWNNAME":"佳里區","LI":"建南里","LIN":"36鄰","STREET":"成功路","SECT":" ","MAREA":" ","LANE":" ","ALLEY":" ","HOUSE_NO":"１５８號","E_COORD97":165403.62,"N_COORD97":2561285.75,"ADDRESS":"成功路１５８號","OBJECTID":463359},"geometry":{"x":165403.62000000197,"y":2561285.75}},{"attributes":{"ID":463385,"DIS_CODE":0,"TOWNNAME":"佳里區","LI":"建南里","LIN":"36鄰","STREET":"成功路","SECT":" ","MAREA":" ","LANE":" ","ALLEY":" ","HOUSE_NO":"１７０號","E_COORD97":165383.48999999999,"N_COORD97":2561252.1000000001,"ADDRESS":"成功路１７０號","OBJECTID":463360},"geometry":{"x":165383.49000000022,"y":2561252.0999999996}},{"attributes":{"ID":463386,"DIS_CODE":0,"TOWNNAME":"佳里區","LI":"建南里","LIN":"36鄰","STREET":"成功路","SECT":" ","MAREA":" ","LANE":" ","ALLEY":" ","HOUSE_NO":"２００之５號","E_COORD97":165340.22,"N_COORD97":2561178.4900000002,"ADDRESS":"成功路２００之５號","OBJECTID":463361},"geometry":{"x":165340.22000000067,"y":2561178.4900000002}},{"attributes":{"ID":463387,"DIS_CODE":0,"TOWNNAME":"佳里區","LI":"建南里","LIN":"36鄰","STREET":"成功路","SECT":" ","MAREA":" ","LANE":" ","ALLEY":" ","HOUSE_NO":"２０８號","E_COORD97":165315.42999999999,"N_COORD97":2561150.2799999998,"ADDRESS":"成功路２０８號","OBJECTID":463362},"geometry":{"x":165315.43000000063,"y":2561150.2800000012}},{"attributes":{"ID":463388,"DIS_CODE":0,"TOWNNAME":"佳里區","LI":"建南里","LIN":"36鄰","STREET":"成功路","SECT":" ","MAREA":" ","LANE":" ","ALLEY":" ","HOUSE_NO":"２２０號","E_COORD97":165345.81,"N_COORD97":2561128.6600000001,"ADDRESS":"成功路２２０號","OBJECTID":463363},"geometry":{"x":165345.80999999866,"y":2561128.660000002}},{"attributes":{"ID":463389,"DIS_CODE":0,"TOWNNAME":"永康區","LI":"永康里","LIN":"36鄰","STREET":"永平街","SECT":" ","MAREA":" ","LANE":" ","ALLEY":" ","HOUSE_NO":"４６號","E_COORD97":174331.70000000001,"N_COORD97":2546847.75,"ADDRESS":"永平街４６號","OBJECTID":463364},"geometry":{"x":174331.69999999925,"y":2546847.7500000019}},{"attributes":{"ID":463390,"DIS_CODE":0,"TOWNNAME":"永康區","LI":"永康里","LIN":"36鄰","STREET":"永平街","SECT":" ","MAREA":" ","LANE":" ","ALLEY":" ","HOUSE_NO":"５２號","E_COORD97":174344.04000000001,"N_COORD97":2546849,"ADDRESS":"永平街５２號","OBJECTID":463365},"geometry":{"x":174344.04000000004,"y":2546849.0000000019}},{"attributes":{"ID":463391,"DIS_CODE":0,"TOWNNAME":"永康區","LI":"永康里","LIN":"36鄰","STREET":"永大路","SECT":"二段","MAREA":" ","LANE":" ","ALLEY":" ","HOUSE_NO":"１２６６號","E_COORD97":174321.10000000001,"N_COORD97":2546838.2799999998,"ADDRESS":"永大路二段１２６６號","OBJECTID":463366},"geometry":{"x":174321.09999999963,"y":2546838.2799999993}},{"attributes":{"ID":463392,"DIS_CODE":0,"TOWNNAME":"永康區","LI":"永康里","LIN":"36鄰","STREET":"永平街","SECT":" ","MAREA":" ","LANE":" ","ALLEY":" ","HOUSE_NO":"６２號","E_COORD97":174371.31,"N_COORD97":2546859.4300000002,"ADDRESS":"永平街６２號","OBJECTID":463367},"geometry":{"x":174371.31000000052,"y":2546859.4300000016}},{"attributes":{"ID":463393,"DIS_CODE":0,"TOWNNAME":"永康區","LI":"永康里","LIN":"36鄰","STREET":"永大路","SECT":"二段","MAREA":" ","LANE":" ","ALLEY":" ","HOUSE_NO":"１２６２號","E_COORD97":174323.48000000001,"N_COORD97":2546830.7799999998,"ADDRESS":"永大路二段１２６２號","OBJECTID":463368},"geometry":{"x":174323.48000000231,"y":2546830.7799999993}},{"attributes":{"ID":463394,"DIS_CODE":0,"TOWNNAME":"永康區","LI":"永康里","LIN":"36鄰","STREET":"永大路","SECT":"二段","MAREA":" ","LANE":" ","ALLEY":" ","HOUSE_NO":"１２９６號","E_COORD97":174321.89000000001,"N_COORD97":2546884.27,"ADDRESS":"永大路二段１２９６號","OBJECTID":463369},"geometry":{"x":174321.8900000006,"y":2546884.2700000014}},{"attributes":{"ID":463395,"DIS_CODE":0,"TOWNNAME":"永康區","LI":"永康里","LIN":"36鄰","STREET":"永平街","SECT":" ","MAREA":" ","LANE":" ","ALLEY":" ","HOUSE_NO":"６１３號","E_COORD97":174416.20000000001,"N_COORD97":2546892.27,"ADDRESS":"永平街６１３號","OBJECTID":463370},"geometry":{"x":174416.20000000019,"y":2546892.2699999996}},{"attributes":{"ID":463396,"DIS_CODE":0,"TOWNNAME":"東區","LI":"崇文里","LIN":"36鄰","STREET":"崇善路","SECT":" ","MAREA":" ","LANE":" ","ALLEY":" ","HOUSE_NO":"６９８號","E_COORD97":171214.22,"N_COORD97":2540892.2799999998,"ADDRESS":"崇善路６９８號","OBJECTID":463371},"geometry":{"x":171214.22000000067,"y":2540892.2800000031}},{"attributes":{"ID":463397,"DIS_CODE":0,"TOWNNAME":"仁德區","LI":"太子里","LIN":"36鄰","STREET":"長興一街","SECT":" ","MAREA":" ","LANE":" ","ALLEY":" ","HOUSE_NO":"８８號","E_COORD97":174409.57000000001,"N_COORD97":2543850.5099999998,"ADDRESS":"長興一街８８號","OBJECTID":463372},"geometry":{"x":174409.57000000123,"y":2543850.5099999998}},{"attributes":{"ID":463398,"DIS_CODE":0,"TOWNNAME":"仁德區","LI":"太子里","LIN":"36鄰","STREET":"長興一街","SECT":" ","MAREA":" ","LANE":" ","ALLEY":" ","HOUSE_NO":"８２號","E_COORD97":174446.67999999999,"N_COORD97":2543844.0099999998,"ADDRESS":"長興一街８２號","OBJECTID":463373},"geometry":{"x":174446.68000000156,"y":2543844.0099999979}},{"attributes":{"ID":463399,"DIS_CODE":0,"TOWNNAME":"仁德區","LI":"太子里","LIN":"36鄰","STREET":"長興一街","SECT":" ","MAREA":" ","LANE":" ","ALLEY":" ","HOUSE_NO":"９８號","E_COORD97":174324.67000000001,"N_COORD97":2543863.2599999998,"ADDRESS":"長興一街９８號","OBJECTID":463374},"geometry":{"x":174324.66999999993,"y":2543863.2600000016}},{"attributes":{"ID":463400,"DIS_CODE":0,"TOWNNAME":"仁德區","LI":"成功里","LIN":"36鄰","STREET":"保華路","SECT":" ","MAREA":" ","LANE":" ","ALLEY":" ","HOUSE_NO":"５２號","E_COORD97":170642.51999999999,"N_COORD97":2539993.75,"ADDRESS":"保華路５２號","OBJECTID":463375},"geometry":{"x":170642.52000000048,"y":2539993.75}},{"attributes":{"ID":463401,"DIS_CODE":0,"TOWNNAME":"仁德區","LI":"太子里","LIN":"36鄰","STREET":"長興一街","SECT":" ","MAREA":" ","LANE":" ","ALLEY":" ","HOUSE_NO":"９２號","E_COORD97":174398.45000000001,"N_COORD97":2543853.7599999998,"ADDRESS":"長興一街９２號","OBJECTID":463376},"geometry":{"x":174398.45000000112,"y":2543853.7600000016}},{"attributes":{"ID":463402,"DIS_CODE":0,"TOWNNAME":"仁德區","LI":"仁義里","LIN":"36鄰","STREET":"勝利路","SECT":" ","MAREA":" ","LANE":" ","ALLEY":" ","HOUSE_NO":"７１號","E_COORD97":173573.26000000001,"N_COORD97":2539931.75,"ADDRESS":"勝利路７１號","OBJECTID":463377},"geometry":{"x":173573.26000000164,"y":2539931.7500000019}},{"attributes":{"ID":463403,"DIS_CODE":0,"TOWNNAME":"永康區","LI":"永康里","LIN":"36鄰","STREET":"永平街","SECT":" ","MAREA":" ","LANE":" ","ALLEY":" ","HOUSE_NO":"６０９號","E_COORD97":174407.92000000001,"N_COORD97":2546889.52,"ADDRESS":"永平街６０９號","OBJECTID":463378},"geometry":{"x":174407.91999999899,"y":2546889.5200000014}},{"attributes":{"ID":463404,"DIS_CODE":0,"TOWNNAME":"永康區","LI":"永康里","LIN":"36鄰","STREET":"永平街","SECT":" ","MAREA":" ","LANE":" ","ALLEY":" ","HOUSE_NO":"６８號","E_COORD97":174380.45999999999,"N_COORD97":2546861.9300000002,"ADDRESS":"永平街６８號","OBJECTID":463379},"geometry":{"x":174380.45999999996,"y":2546861.9299999978}},{"attributes":{"ID":463405,"DIS_CODE":0,"TOWNNAME":"永康區","LI":"西灣里","LIN":"36鄰","STREET":"國光八街","SECT":" ","MAREA":" ","LANE":" ","ALLEY":" ","HOUSE_NO":"８９號","E_COORD97":174230.34,"N_COORD97":2545753.4500000002,"ADDRESS":"國光八街８９號","OBJECTID":463380},"geometry":{"x":174230.33999999892,"y":2545753.4500000011}},{"attributes":{"ID":463406,"DIS_CODE":0,"TOWNNAME":"永康區","LI":"五王里","LIN":"36鄰","STREET":"中華路","SECT":" ","MAREA":" ","LANE":" ","ALLEY":" ","HOUSE_NO":"５９８號之１２","E_COORD97":171217.26000000001,"N_COORD97":2545948.79,"ADDRESS":"中華路５９８號之１２","OBJECTID":463381},"geometry":{"x":171217.26000000071,"y":2545948.7899999991}},{"attributes":{"ID":463407,"DIS_CODE":0,"TOWNNAME":"永康區","LI":"埔園里","LIN":"36鄰","STREET":"自強路","SECT":" ","MAREA":" ","LANE":" ","ALLEY":" ","HOUSE_NO":"６３２號","E_COORD97":174142.67000000001,"N_COORD97":2548264.52,"ADDRESS":"自強路６３２號","OBJECTID":463382},"geometry":{"x":174142.67000000086,"y":2548264.5199999996}},{"attributes":{"ID":463408,"DIS_CODE":0,"TOWNNAME":"西港區","LI":"慶安里","LIN":"36鄰","STREET":"中山路","SECT":" ","MAREA":" ","LANE":" ","ALLEY":" ","HOUSE_NO":"３５號","E_COORD97":168471.60000000001,"N_COORD97":2557159.1899999999,"ADDRESS":"中山路３５號","OBJECTID":463383},"geometry":{"x":168471.60000000149,"y":2557159.1899999995}},{"attributes":{"ID":463409,"DIS_CODE":0,"TOWNNAME":"永康區","LI":"埔園里","LIN":"36鄰","STREET":"永大路","SECT":"三段","MAREA":" ","LANE":" ","ALLEY":" ","HOUSE_NO":"３７０號","E_COORD97":174140.41,"N_COORD97":2548225.2000000002,"ADDRESS":"永大路三段３７０號","OBJECTID":463384},"geometry":{"x":174140.41000000201,"y":2548225.1999999993}},{"attributes":{"ID":463410,"DIS_CODE":0,"TOWNNAME":"佳里區","LI":"建南里","LIN":"36鄰","STREET":"安南路","SECT":" ","MAREA":" ","LANE":" ","ALLEY":" ","HOUSE_NO":"４２９號","E_COORD97":165125.53,"N_COORD97":2561602.5299999998,"ADDRESS":"安南路４２９號","OBJECTID":463385},"geometry":{"x":165125.53000000119,"y":2561602.5300000031}},{"attributes":{"ID":463411,"DIS_CODE":0,"TOWNNAME":"佳里區","LI":"建南里","LIN":"36鄰","STREET":"成功路","SECT":" ","MAREA":" ","LANE":" ","ALLEY":" ","HOUSE_NO":"１５２號","E_COORD97":165402.42999999999,"N_COORD97":2561292.96,"ADDRESS":"成功路１５２號","OBJECTID":463386},"geometry":{"x":165402.4299999997,"y":2561292.9600000028}},{"attributes":{"ID":463412,"DIS_CODE":0,"TOWNNAME":"佳里區","LI":"建南里","LIN":"36鄰","STREET":"成功路","SECT":" ","MAREA":" ","LANE":" ","ALLEY":" ","HOUSE_NO":"１６８號","E_COORD97":165384.28,"N_COORD97":2561255.29,"ADDRESS":"成功路１６８號","OBJECTID":463387},"geometry":{"x":165384.28000000119,"y":2561255.290000001}},{"attributes":{"ID":463413,"DIS_CODE":0,"TOWNNAME":"佳里區","LI":"建南里","LIN":"36鄰","STREET":"成功路","SECT":" ","MAREA":" ","LANE":" ","ALLEY":" ","HOUSE_NO":"１７８號","E_COORD97":165377.95999999999,"N_COORD97":2561228.4100000001,"ADDRESS":"成功路１７８號","OBJECTID":463388},"geometry":{"x":165377.96000000089,"y":2561228.410000002}},{"attributes":{"ID":463414,"DIS_CODE":0,"TOWNNAME":"佳里區","LI":"建南里","LIN":"36鄰","STREET":"成功路","SECT":" ","MAREA":" ","LANE":" ","ALLEY":" ","HOUSE_NO":"１７８號","E_COORD97":165376.34,"N_COORD97":2561223.6899999999,"ADDRESS":"成功路１７８號","OBJECTID":463389},"geometry":{"x":165376.33999999985,"y":2561223.6899999995}},{"attributes":{"ID":463415,"DIS_CODE":0,"TOWNNAME":"佳里區","LI":"建南里","LIN":"36鄰","STREET":"成功路","SECT":" ","MAREA":" ","LANE":" ","ALLEY":" ","HOUSE_NO":"１９０號","E_COORD97":165369.98999999999,"N_COORD97":2561203.8100000001,"ADDRESS":"成功路１９０號","OBJECTID":463390},"geometry":{"x":165369.99000000022,"y":2561203.8100000005}},{"attributes":{"ID":463416,"DIS_CODE":0,"TOWNNAME":"佳里區","LI":"建南里","LIN":"36鄰","STREET":"成功路","SECT":" ","MAREA":" ","LANE":" ","ALLEY":" ","HOUSE_NO":"１９８號","E_COORD97":165362.25,"N_COORD97":2561172.0499999998,"ADDRESS":"成功路１９８號","OBJECTID":463391},"geometry":{"x":165362.25000000093,"y":2561172.0500000007}},{"attributes":{"ID":463417,"DIS_CODE":0,"TOWNNAME":"佳里區","LI":"建南里","LIN":"36鄰","STREET":"成功路","SECT":" ","MAREA":" ","LANE":" ","ALLEY":" ","HOUSE_NO":"２００號","E_COORD97":165360.34,"N_COORD97":2561166.8700000001,"ADDRESS":"成功路２００號","OBJECTID":463392},"geometry":{"x":165360.34000000078,"y":2561166.870000001}},{"attributes":{"ID":463418,"DIS_CODE":0,"TOWNNAME":"佳里區","LI":"建南里","LIN":"36鄰","STREET":"成功路","SECT":" ","MAREA":" ","LANE":" ","ALLEY":" ","HOUSE_NO":"２０６號","E_COORD97":165329.20999999999,"N_COORD97":2561151.9700000002,"ADDRESS":"成功路２０６號","OBJECTID":463393},"geometry":{"x":165329.20999999996,"y":2561151.9700000007}},{"attributes":{"ID":463419,"DIS_CODE":0,"TOWNNAME":"佳里區","LI":"建南里","LIN":"36鄰","STREET":"成功路","SECT":" ","MAREA":" ","LANE":" ","ALLEY":" ","HOUSE_NO":"２２２號","E_COORD97":165338.95999999999,"N_COORD97":2561114.1200000001,"ADDRESS":"成功路２２２號","OBJECTID":463394},"geometry":{"x":165338.96000000089,"y":2561114.120000001}},{"attributes":{"ID":463420,"DIS_CODE":0,"TOWNNAME":"佳里區","LI":"建南里","LIN":"36鄰","STREET":"成功路","SECT":" ","MAREA":" ","LANE":" ","ALLEY":" ","HOUSE_NO":"２２４號","E_COORD97":165335.10000000001,"N_COORD97":2561101.6400000001,"ADDRESS":"成功路２２４號","OBJECTID":463395},"geometry":{"x":165335.09999999963,"y":2561101.6400000025}},{"attributes":{"ID":463421,"DIS_CODE":0,"TOWNNAME":"佳里區","LI":"建南里","LIN":"36鄰","STREET":"成功路","SECT":" ","MAREA":" ","LANE":" ","ALLEY":" ","HOUSE_NO":"３６０號","E_COORD97":165228.41,"N_COORD97":2560849.3799999999,"ADDRESS":"成功路３６０號","OBJECTID":463396},"geometry":{"x":165228.41000000015,"y":2560849.379999999}},{"attributes":{"ID":463422,"DIS_CODE":0,"TOWNNAME":"佳里區","LI":"建南里","LIN":"36鄰","STREET":"成功路","SECT":" ","MAREA":" ","LANE":" ","ALLEY":" ","HOUSE_NO":"３９２號","E_COORD97":165201.23999999999,"N_COORD97":2560719.4300000002,"ADDRESS":"成功路３９２號","OBJECTID":463397},"geometry":{"x":165201.24000000209,"y":2560719.4300000016}},{"attributes":{"ID":463423,"DIS_CODE":0,"TOWNNAME":"佳里區","LI":"建南里","LIN":"36鄰","STREET":"佳南路","SECT":" ","MAREA":" ","LANE":" ","ALLEY":" ","HOUSE_NO":"６５６號","E_COORD97":165154.66,"N_COORD97":2561074.5600000001,"ADDRESS":"佳南路６５６號","OBJECTID":463398},"geometry":{"x":165154.66000000108,"y":2561074.5600000042}},{"attributes":{"ID":463424,"DIS_CODE":0,"TOWNNAME":"佳里區","LI":"建南里","LIN":"36鄰","STREET":"佳南路","SECT":" ","MAREA":" ","LANE":" ","ALLEY":" ","HOUSE_NO":"６５８號","E_COORD97":165158.22,"N_COORD97":2561081.9900000002,"ADDRESS":"佳南路６５８號","OBJECTID":463399},"geometry":{"x":165158.21999999974,"y":2561081.9900000021}},{"attributes":{"ID":463425,"DIS_CODE":0,"TOWNNAME":"佳里區","LI":"建南里","LIN":"36鄰","STREET":"復興路","SECT":" ","MAREA":" ","LANE":" ","ALLEY":" ","HOUSE_NO":"２６５號","E_COORD97":164841.20999999999,"N_COORD97":2561627.5899999999,"ADDRESS":"復興路２６５號","OBJECTID":463400},"geometry":{"x":164841.20999999996,"y":2561627.5900000017}}]}