{"displayFieldName":"TOWNNAME","fieldAliases":{"ID":"ID","DIS_CODE":"DIS_CODE","TOWNNAME":"TOWNNAME","LI":"LI","LIN":"LIN","STREET":"STREET","SECT":"SECT","MAREA":"MAREA","LANE":"LANE","ALLEY":"ALLEY","HOUSE_NO":"HOUSE_NO","E_COORD97":"E_COORD97","N_COORD97":"N_COORD97","ADDRESS":"ADDRESS","OBJECTID":"OBJECTID"},"geometryType":"esriGeometryPoint","spatialReference":{"wkid":102443,"latestWkid":3826},"fields":[{"name":"ID","type":"esriFieldTypeDouble","alias":"ID"},{"name":"DIS_CODE","type":"esriFieldTypeInteger","alias":"DIS_CODE"},{"name":"TOWNNAME","type":"esriFieldTypeString","alias":"TOWNNAME","length":8},{"name":"LI","type":"esriFieldTypeString","alias":"LI","length":8},{"name":"LIN","type":"esriFieldTypeString","alias":"LIN","length":12},{"name":"STREET","type":"esriFieldTypeString","alias":"STREET","length":20},{"name":"SECT","type":"esriFieldTypeString","alias":"SECT","length":8},{"name":"MAREA","type":"esriFieldTypeString","alias":"MAREA","length":12},{"name":"LANE","type":"esriFieldTypeString","alias":"LANE","length":10},{"name":"ALLEY","type":"esriFieldTypeString","alias":"ALLEY","length":10},{"name":"HOUSE_NO","type":"esriFieldTypeString","alias":"HOUSE_NO","length":20},{"name":"E_COORD97","type":"esriFieldTypeDouble","alias":"E_COORD97"},{"name":"N_COORD97","type":"esriFieldTypeDouble","alias":"N_COORD97"},{"name":"ADDRESS","type":"esriFieldTypeString","alias":"ADDRESS","length":50},{"name":"OBJECTID","type":"esriFieldTypeOID","alias":"OBJECTID"}],"features":[{"attributes":{"ID":487226,"DIS_CODE":0,"TOWNNAME":"東區","LI":"關聖里","LIN":"18鄰","STREET":"裕信路","SECT":" ","MAREA":" ","LANE":" ","ALLEY":" ","HOUSE_NO":"１７８之７號","E_COORD97":172528.81,"N_COORD97":2543097.25,"ADDRESS":"裕信路１７８之７號","OBJECTID":487201},"geometry":{"x":172528.81000000052,"y":2543097.2500000037}},{"attributes":{"ID":487227,"DIS_CODE":0,"TOWNNAME":"東區","LI":"關聖里","LIN":"18鄰","STREET":"裕信路","SECT":" ","MAREA":" ","LANE":" ","ALLEY":" ","HOUSE_NO":"１７８之８號","E_COORD97":172528.95000000001,"N_COORD97":2543101.9100000001,"ADDRESS":"裕信路１７８之８號","OBJECTID":487202},"geometry":{"x":172528.95000000019,"y":2543101.9100000001}},{"attributes":{"ID":487228,"DIS_CODE":0,"TOWNNAME":"東區","LI":"關聖里","LIN":"18鄰","STREET":"裕信路","SECT":" ","MAREA":" ","LANE":" ","ALLEY":" ","HOUSE_NO":"１７８號","E_COORD97":172528.81,"N_COORD97":2543064.3799999999,"ADDRESS":"裕信路１７８號","OBJECTID":487203},"geometry":{"x":172528.81000000052,"y":2543064.3800000027}},{"attributes":{"ID":487229,"DIS_CODE":0,"TOWNNAME":"東區","LI":"關聖里","LIN":"18鄰","STREET":"裕信路","SECT":" ","MAREA":" ","LANE":" ","ALLEY":" ","HOUSE_NO":"１８０號","E_COORD97":172588,"N_COORD97":2543051.8700000001,"ADDRESS":"裕信路１８０號","OBJECTID":487204},"geometry":{"x":172588,"y":2543051.870000001}},{"attributes":{"ID":487230,"DIS_CODE":0,"TOWNNAME":"東區","LI":"關聖里","LIN":"18鄰","STREET":"裕信路","SECT":" ","MAREA":" ","LANE":" ","ALLEY":" ","HOUSE_NO":"１８２號","E_COORD97":172588,"N_COORD97":2543043.29,"ADDRESS":"裕信路１８２號","OBJECTID":487205},"geometry":{"x":172588,"y":2543043.2899999991}},{"attributes":{"ID":487231,"DIS_CODE":0,"TOWNNAME":"東區","LI":"關聖里","LIN":"18鄰","STREET":"裕信路","SECT":" ","MAREA":" ","LANE":" ","ALLEY":" ","HOUSE_NO":"１８６號","E_COORD97":172587.85999999999,"N_COORD97":2543035.73,"ADDRESS":"裕信路１８６號","OBJECTID":487206},"geometry":{"x":172587.86000000034,"y":2543035.7300000004}},{"attributes":{"ID":487232,"DIS_CODE":0,"TOWNNAME":"東區","LI":"關聖里","LIN":"18鄰","STREET":"裕信路","SECT":" ","MAREA":" ","LANE":" ","ALLEY":" ","HOUSE_NO":"１８８號","E_COORD97":172588,"N_COORD97":2543027.29,"ADDRESS":"裕信路１８８號","OBJECTID":487207},"geometry":{"x":172588,"y":2543027.2899999991}},{"attributes":{"ID":487233,"DIS_CODE":0,"TOWNNAME":"東區","LI":"關聖里","LIN":"18鄰","STREET":"裕英街","SECT":" ","MAREA":" ","LANE":" ","ALLEY":" ","HOUSE_NO":"１５１號","E_COORD97":172525.17000000001,"N_COORD97":2543026.5600000001,"ADDRESS":"裕英街１５１號","OBJECTID":487208},"geometry":{"x":172525.17000000086,"y":2543026.5600000005}},{"attributes":{"ID":487234,"DIS_CODE":0,"TOWNNAME":"東區","LI":"關聖里","LIN":"18鄰","STREET":"裕英街","SECT":" ","MAREA":" ","LANE":" ","ALLEY":" ","HOUSE_NO":"１５３號","E_COORD97":172533.31,"N_COORD97":2543026.4199999999,"ADDRESS":"裕英街１５３號","OBJECTID":487209},"geometry":{"x":172533.30999999959,"y":2543026.4199999999}},{"attributes":{"ID":487235,"DIS_CODE":0,"TOWNNAME":"東區","LI":"關聖里","LIN":"18鄰","STREET":"裕英街","SECT":" ","MAREA":" ","LANE":" ","ALLEY":" ","HOUSE_NO":"１６５號","E_COORD97":172575.92999999999,"N_COORD97":2543027.1499999999,"ADDRESS":"裕英街１６５號","OBJECTID":487210},"geometry":{"x":172575.93000000063,"y":2543027.1500000022}},{"attributes":{"ID":487236,"DIS_CODE":0,"TOWNNAME":"東區","LI":"關聖里","LIN":"18鄰","STREET":"裕英街","SECT":" ","MAREA":" ","LANE":" ","ALLEY":" ","HOUSE_NO":"１５５號","E_COORD97":172540.29999999999,"N_COORD97":2543026.27,"ADDRESS":"裕英街１５５號","OBJECTID":487211},"geometry":{"x":172540.29999999981,"y":2543026.2700000014}},{"attributes":{"ID":487237,"DIS_CODE":0,"TOWNNAME":"東區","LI":"關聖里","LIN":"18鄰","STREET":"裕英街","SECT":" ","MAREA":" ","LANE":" ","ALLEY":" ","HOUSE_NO":"１５７號","E_COORD97":172548.14999999999,"N_COORD97":2543026.5600000001,"ADDRESS":"裕英街１５７號","OBJECTID":487212},"geometry":{"x":172548.15000000037,"y":2543026.5600000005}},{"attributes":{"ID":487238,"DIS_CODE":0,"TOWNNAME":"東區","LI":"關聖里","LIN":"18鄰","STREET":"裕英街","SECT":" ","MAREA":" ","LANE":" ","ALLEY":" ","HOUSE_NO":"１５９號","E_COORD97":172555.70999999999,"N_COORD97":2543027,"ADDRESS":"裕英街１５９號","OBJECTID":487213},"geometry":{"x":172555.71000000089,"y":2543027}},{"attributes":{"ID":487239,"DIS_CODE":0,"TOWNNAME":"東區","LI":"關聖里","LIN":"18鄰","STREET":"裕英街","SECT":" ","MAREA":" ","LANE":" ","ALLEY":" ","HOUSE_NO":"１６１號","E_COORD97":172562.84,"N_COORD97":2543026.71,"ADDRESS":"裕英街１６１號","OBJECTID":487214},"geometry":{"x":172562.84000000078,"y":2543026.7100000009}},{"attributes":{"ID":487240,"DIS_CODE":0,"TOWNNAME":"東區","LI":"關聖里","LIN":"18鄰","STREET":"裕英街","SECT":" ","MAREA":" ","LANE":" ","ALLEY":" ","HOUSE_NO":"１６３號","E_COORD97":172570.39999999999,"N_COORD97":2543027,"ADDRESS":"裕英街１６３號","OBJECTID":487215},"geometry":{"x":172570.40000000037,"y":2543027}},{"attributes":{"ID":487241,"DIS_CODE":0,"TOWNNAME":"歸仁區","LI":"六甲里","LIN":"42鄰","STREET":"民生十二街","SECT":" ","MAREA":" ","LANE":" ","ALLEY":" ","HOUSE_NO":"６１號","E_COORD97":175909.73999999999,"N_COORD97":2539470.29,"ADDRESS":"民生十二街６１號","OBJECTID":487216},"geometry":{"x":175909.74000000209,"y":2539470.2899999991}},{"attributes":{"ID":487242,"DIS_CODE":0,"TOWNNAME":"歸仁區","LI":"南保里","LIN":"42鄰","STREET":"保興街","SECT":" ","MAREA":" ","LANE":" ","ALLEY":" ","HOUSE_NO":"１４號","E_COORD97":176506.94,"N_COORD97":2540990.8900000001,"ADDRESS":"保興街１４號","OBJECTID":487217},"geometry":{"x":176506.93999999948,"y":2540990.8900000006}},{"attributes":{"ID":487243,"DIS_CODE":0,"TOWNNAME":"歸仁區","LI":"南保里","LIN":"42鄰","STREET":"保興二街","SECT":" ","MAREA":" ","LANE":" ","ALLEY":" ","HOUSE_NO":"２２號","E_COORD97":176546.57000000001,"N_COORD97":2540965.25,"ADDRESS":"保興二街２２號","OBJECTID":487218},"geometry":{"x":176546.56999999937,"y":2540965.2500000019}},{"attributes":{"ID":487244,"DIS_CODE":0,"TOWNNAME":"歸仁區","LI":"南保里","LIN":"42鄰","STREET":"保興二街","SECT":" ","MAREA":" ","LANE":" ","ALLEY":" ","HOUSE_NO":"２號","E_COORD97":176524.92000000001,"N_COORD97":2540993.25,"ADDRESS":"保興二街２號","OBJECTID":487219},"geometry":{"x":176524.91999999993,"y":2540993.25}},{"attributes":{"ID":487245,"DIS_CODE":0,"TOWNNAME":"歸仁區","LI":"辜厝里","LIN":"42鄰","STREET":"民權南路","SECT":" ","MAREA":" ","LANE":" ","ALLEY":" ","HOUSE_NO":"１８３號","E_COORD97":176971.16,"N_COORD97":2540400.4199999999,"ADDRESS":"民權南路１８３號","OBJECTID":487220},"geometry":{"x":176971.16000000015,"y":2540400.4200000037}},{"attributes":{"ID":487246,"DIS_CODE":0,"TOWNNAME":"歸仁區","LI":"後市里","LIN":"42鄰","STREET":"民權北路","SECT":" ","MAREA":" ","LANE":" ","ALLEY":" ","HOUSE_NO":"２０號","E_COORD97":176994.23000000001,"N_COORD97":2540907.75,"ADDRESS":"民權北路２０號","OBJECTID":487221},"geometry":{"x":176994.23000000045,"y":2540907.7500000019}},{"attributes":{"ID":487247,"DIS_CODE":0,"TOWNNAME":"歸仁區","LI":"南保里","LIN":"42鄰","STREET":"保興街","SECT":" ","MAREA":" ","LANE":" ","ALLEY":" ","HOUSE_NO":"１２號","E_COORD97":176506.94,"N_COORD97":2540986.8900000001,"ADDRESS":"保興街１２號","OBJECTID":487222},"geometry":{"x":176506.93999999948,"y":2540986.8900000006}},{"attributes":{"ID":487248,"DIS_CODE":0,"TOWNNAME":"歸仁區","LI":"南保里","LIN":"42鄰","STREET":"中山路","SECT":"三段","MAREA":" ","LANE":" ","ALLEY":" ","HOUSE_NO":"２０４號","E_COORD97":176521.16,"N_COORD97":2540936.0800000001,"ADDRESS":"中山路三段２０４號","OBJECTID":487223},"geometry":{"x":176521.16000000108,"y":2540936.0800000019}},{"attributes":{"ID":487249,"DIS_CODE":0,"TOWNNAME":"歸仁區","LI":"六甲里","LIN":"42鄰","STREET":"民生十二街","SECT":" ","MAREA":" ","LANE":" ","ALLEY":" ","HOUSE_NO":"６７號","E_COORD97":175890.23999999999,"N_COORD97":2539471.29,"ADDRESS":"民生十二街６７號","OBJECTID":487224},"geometry":{"x":175890.24000000115,"y":2539471.2899999972}},{"attributes":{"ID":487250,"DIS_CODE":0,"TOWNNAME":"歸仁區","LI":"後市里","LIN":"42鄰","STREET":"國光街","SECT":" ","MAREA":" ","LANE":" ","ALLEY":" ","HOUSE_NO":"２號","E_COORD97":177002.14000000001,"N_COORD97":2540952.7400000002,"ADDRESS":"國光街２號","OBJECTID":487225},"geometry":{"x":177002.1400000006,"y":2540952.7400000021}},{"attributes":{"ID":487251,"DIS_CODE":0,"TOWNNAME":"歸仁區","LI":"南保里","LIN":"42鄰","STREET":"中山路","SECT":"三段","MAREA":" ","LANE":" ","ALLEY":" ","HOUSE_NO":"１７２號","E_COORD97":176577.91,"N_COORD97":2540939.0499999998,"ADDRESS":"中山路三段１７２號","OBJECTID":487226},"geometry":{"x":176577.91000000015,"y":2540939.0500000007}},{"attributes":{"ID":487252,"DIS_CODE":0,"TOWNNAME":"歸仁區","LI":"南保里","LIN":"42鄰","STREET":"中山路","SECT":"三段","MAREA":" ","LANE":" ","ALLEY":" ","HOUSE_NO":"１９８號","E_COORD97":176525.70999999999,"N_COORD97":2540950.0499999998,"ADDRESS":"中山路三段１９８號","OBJECTID":487227},"geometry":{"x":176525.71000000089,"y":2540950.0500000026}},{"attributes":{"ID":487253,"DIS_CODE":0,"TOWNNAME":"歸仁區","LI":"南保里","LIN":"42鄰","STREET":"中山路","SECT":"三段","MAREA":" ","LANE":" ","ALLEY":" ","HOUSE_NO":"２０８號","E_COORD97":176504.10999999999,"N_COORD97":2540936.0499999998,"ADDRESS":"中山路三段２０８號","OBJECTID":487228},"geometry":{"x":176504.1100000022,"y":2540936.0500000045}},{"attributes":{"ID":487254,"DIS_CODE":0,"TOWNNAME":"歸仁區","LI":"南保里","LIN":"42鄰","STREET":"中山路","SECT":"三段","MAREA":" ","LANE":" ","ALLEY":" ","HOUSE_NO":"２０６號","E_COORD97":176509.20999999999,"N_COORD97":2540935.0499999998,"ADDRESS":"中山路三段２０６號","OBJECTID":487229},"geometry":{"x":176509.20999999996,"y":2540935.0500000007}},{"attributes":{"ID":487255,"DIS_CODE":0,"TOWNNAME":"永康區","LI":"永康里","LIN":"42鄰","STREET":"永大一路","SECT":" ","MAREA":" ","LANE":" ","ALLEY":" ","HOUSE_NO":"８９號","E_COORD97":174105.31,"N_COORD97":2546406.75,"ADDRESS":"永大一路８９號","OBJECTID":487230},"geometry":{"x":174105.31000000052,"y":2546406.7500000019}},{"attributes":{"ID":487256,"DIS_CODE":0,"TOWNNAME":"永康區","LI":"永康里","LIN":"42鄰","STREET":"永大五路","SECT":" ","MAREA":" ","LANE":" ","ALLEY":" ","HOUSE_NO":"１號","E_COORD97":174268.62,"N_COORD97":2546729.5,"ADDRESS":"永大五路１號","OBJECTID":487231},"geometry":{"x":174268.62000000104,"y":2546729.4999999981}},{"attributes":{"ID":487257,"DIS_CODE":0,"TOWNNAME":"永康區","LI":"永康里","LIN":"42鄰","STREET":"永興路","SECT":" ","MAREA":" ","LANE":" ","ALLEY":" ","HOUSE_NO":"２號","E_COORD97":174125.94,"N_COORD97":2546308.8599999999,"ADDRESS":"永興路２號","OBJECTID":487232},"geometry":{"x":174125.94000000134,"y":2546308.8599999994}},{"attributes":{"ID":487258,"DIS_CODE":0,"TOWNNAME":"仁德區","LI":"太子里","LIN":"42鄰","STREET":"太子路","SECT":" ","MAREA":" ","LANE":" ","ALLEY":" ","HOUSE_NO":"２２號","E_COORD97":175339.10000000001,"N_COORD97":2543572,"ADDRESS":"太子路２２號","OBJECTID":487233},"geometry":{"x":175339.10000000056,"y":2543572}},{"attributes":{"ID":487259,"DIS_CODE":0,"TOWNNAME":"永康區","LI":"永康里","LIN":"42鄰","STREET":"永福街","SECT":" ","MAREA":" ","LANE":" ","ALLEY":" ","HOUSE_NO":"１２７號","E_COORD97":174245.92000000001,"N_COORD97":2546722.25,"ADDRESS":"永福街１２７號","OBJECTID":487234},"geometry":{"x":174245.92000000086,"y":2546722.2500000019}},{"attributes":{"ID":487260,"DIS_CODE":0,"TOWNNAME":"永康區","LI":"永康里","LIN":"42鄰","STREET":"永大五路","SECT":" ","MAREA":" ","LANE":" ","ALLEY":" ","HOUSE_NO":"１１１號","E_COORD97":174133.64000000001,"N_COORD97":2546687.2400000002,"ADDRESS":"永大五路１１１號","OBJECTID":487235},"geometry":{"x":174133.6400000006,"y":2546687.2400000002}},{"attributes":{"ID":487261,"DIS_CODE":0,"TOWNNAME":"永康區","LI":"西灣里","LIN":"42鄰","STREET":"國光六街","SECT":" ","MAREA":" ","LANE":" ","ALLEY":" ","HOUSE_NO":"１２２號","E_COORD97":173960.75,"N_COORD97":2545380.5600000001,"ADDRESS":"國光六街１２２號","OBJECTID":487236},"geometry":{"x":173960.75000000093,"y":2545380.5600000042}},{"attributes":{"ID":487262,"DIS_CODE":0,"TOWNNAME":"永康區","LI":"永康里","LIN":"42鄰","STREET":"永大五路","SECT":" ","MAREA":" ","LANE":" ","ALLEY":" ","HOUSE_NO":"１４３號","E_COORD97":174087.88,"N_COORD97":2546621.3799999999,"ADDRESS":"永大五路１４３號","OBJECTID":487237},"geometry":{"x":174087.88000000175,"y":2546621.3800000008}},{"attributes":{"ID":487263,"DIS_CODE":0,"TOWNNAME":"仁德區","LI":"後壁里","LIN":"42鄰","STREET":"德崙路","SECT":" ","MAREA":" ","LANE":" ","ALLEY":" ","HOUSE_NO":"７８號","E_COORD97":173376.17999999999,"N_COORD97":2538500.7599999998,"ADDRESS":"德崙路７８號","OBJECTID":487238},"geometry":{"x":173376.1799999997,"y":2538500.7600000016}},{"attributes":{"ID":487264,"DIS_CODE":0,"TOWNNAME":"仁德區","LI":"仁義里","LIN":"42鄰","STREET":"中正路","SECT":"二段","MAREA":" ","LANE":" ","ALLEY":" ","HOUSE_NO":"９４０號","E_COORD97":173444.5,"N_COORD97":2540677.52,"ADDRESS":"中正路二段９４０號","OBJECTID":487239},"geometry":{"x":173444.5,"y":2540677.5200000033}},{"attributes":{"ID":487265,"DIS_CODE":0,"TOWNNAME":"永康區","LI":"\u25A0行里","LIN":"42鄰","STREET":"永安路","SECT":" ","MAREA":" ","LANE":" ","ALLEY":" ","HOUSE_NO":"２１９號","E_COORD97":172462.97,"N_COORD97":2549630.4100000001,"ADDRESS":"永安路２１９號","OBJECTID":487240},"geometry":{"x":172462.96999999881,"y":2549630.410000002}},{"attributes":{"ID":487266,"DIS_CODE":0,"TOWNNAME":"永康區","LI":"\u25A0行里","LIN":"42鄰","STREET":"永安二街","SECT":" ","MAREA":" ","LANE":" ","ALLEY":" ","HOUSE_NO":"２７號","E_COORD97":172421.5,"N_COORD97":2549595.6200000001,"ADDRESS":"永安二街２７號","OBJECTID":487241},"geometry":{"x":172421.50000000093,"y":2549595.6200000029}},{"attributes":{"ID":487267,"DIS_CODE":0,"TOWNNAME":"永康區","LI":"\u25A0行里","LIN":"42鄰","STREET":"永安二街","SECT":" ","MAREA":" ","LANE":" ","ALLEY":" ","HOUSE_NO":"５２號","E_COORD97":172389.28,"N_COORD97":2549614.6800000002,"ADDRESS":"永安二街５２號","OBJECTID":487242},"geometry":{"x":172389.28000000119,"y":2549614.6800000016}},{"attributes":{"ID":487268,"DIS_CODE":0,"TOWNNAME":"永康區","LI":"龍潭里","LIN":"42鄰","STREET":"永平街","SECT":" ","MAREA":" ","LANE":" ","ALLEY":" ","HOUSE_NO":"７６１之２２號","E_COORD97":174633.25,"N_COORD97":2547074.2999999998,"ADDRESS":"永平街７６１之２２號","OBJECTID":487243},"geometry":{"x":174633.25000000093,"y":2547074.3000000045}},{"attributes":{"ID":487269,"DIS_CODE":0,"TOWNNAME":"永康區","LI":"龍潭里","LIN":"42鄰","STREET":"永平街","SECT":" ","MAREA":" ","LANE":" ","ALLEY":" ","HOUSE_NO":"７６１之２１號","E_COORD97":174633.25,"N_COORD97":2547074.2999999998,"ADDRESS":"永平街７６１之２１號","OBJECTID":487244},"geometry":{"x":174633.25000000093,"y":2547074.3000000045}},{"attributes":{"ID":487270,"DIS_CODE":0,"TOWNNAME":"永康區","LI":"\u25A0行里","LIN":"42鄰","STREET":"永安二街","SECT":" ","MAREA":" ","LANE":" ","ALLEY":" ","HOUSE_NO":"４８號","E_COORD97":172396.98999999999,"N_COORD97":2549614.9300000002,"ADDRESS":"永安二街４８號","OBJECTID":487245},"geometry":{"x":172396.99000000022,"y":2549614.9299999978}},{"attributes":{"ID":487271,"DIS_CODE":0,"TOWNNAME":"永康區","LI":"西灣里","LIN":"42鄰","STREET":"國光六街","SECT":" ","MAREA":" ","LANE":" ","ALLEY":" ","HOUSE_NO":"１２８號","E_COORD97":173945.78,"N_COORD97":2545386.04,"ADDRESS":"國光六街１２８號","OBJECTID":487246},"geometry":{"x":173945.78000000026,"y":2545386.0400000028}},{"attributes":{"ID":487272,"DIS_CODE":0,"TOWNNAME":"永康區","LI":"\u25A0行里","LIN":"42鄰","STREET":"永安路","SECT":" ","MAREA":" ","LANE":" ","ALLEY":" ","HOUSE_NO":"２３７號","E_COORD97":172436.48000000001,"N_COORD97":2549660.9100000001,"ADDRESS":"永安路２３７號","OBJECTID":487247},"geometry":{"x":172436.48000000045,"y":2549660.910000002}},{"attributes":{"ID":487273,"DIS_CODE":0,"TOWNNAME":"永康區","LI":"\u25A0行里","LIN":"42鄰","STREET":"永安路","SECT":" ","MAREA":" ","LANE":" ","ALLEY":" ","HOUSE_NO":"２２９號","E_COORD97":172448.67999999999,"N_COORD97":2549647.1600000001,"ADDRESS":"永安路２２９號","OBJECTID":487248},"geometry":{"x":172448.68000000063,"y":2549647.1600000001}},{"attributes":{"ID":487274,"DIS_CODE":0,"TOWNNAME":"永康區","LI":"\u25A0行里","LIN":"42鄰","STREET":"永安路","SECT":" ","MAREA":" ","LANE":" ","ALLEY":" ","HOUSE_NO":"２１７號","E_COORD97":172465.67999999999,"N_COORD97":2549626.9100000001,"ADDRESS":"永安路２１７號","OBJECTID":487249},"geometry":{"x":172465.68000000063,"y":2549626.910000002}},{"attributes":{"ID":487275,"DIS_CODE":0,"TOWNNAME":"永康區","LI":"龍潭里","LIN":"42鄰","STREET":"永平街","SECT":" ","MAREA":" ","LANE":" ","ALLEY":" ","HOUSE_NO":"７６１之１５號","E_COORD97":174633.25,"N_COORD97":2547074.2999999998,"ADDRESS":"永平街７６１之１５號","OBJECTID":487250},"geometry":{"x":174633.25000000093,"y":2547074.3000000045}},{"attributes":{"ID":487276,"DIS_CODE":0,"TOWNNAME":"永康區","LI":"龍潭里","LIN":"42鄰","STREET":"永平街","SECT":" ","MAREA":" ","LANE":" ","ALLEY":" ","HOUSE_NO":"７６１之９號","E_COORD97":174632,"N_COORD97":2547074.2999999998,"ADDRESS":"永平街７６１之９號","OBJECTID":487251},"geometry":{"x":174632.00000000093,"y":2547074.3000000045}},{"attributes":{"ID":487277,"DIS_CODE":0,"TOWNNAME":"永康區","LI":"龍潭里","LIN":"42鄰","STREET":"永平街","SECT":" ","MAREA":" ","LANE":" ","ALLEY":" ","HOUSE_NO":"７６１之１１號","E_COORD97":174633.25,"N_COORD97":2547074.2999999998,"ADDRESS":"永平街７６１之１１號","OBJECTID":487252},"geometry":{"x":174633.25000000093,"y":2547074.3000000045}},{"attributes":{"ID":487278,"DIS_CODE":0,"TOWNNAME":"永康區","LI":"\u25A0行里","LIN":"42鄰","STREET":"永安路","SECT":" ","MAREA":" ","LANE":" ","ALLEY":" ","HOUSE_NO":"２３３號","E_COORD97":172442.63,"N_COORD97":2549653.6600000001,"ADDRESS":"永安路２３３號","OBJECTID":487253},"geometry":{"x":172442.63000000082,"y":2549653.6600000001}},{"attributes":{"ID":487279,"DIS_CODE":0,"TOWNNAME":"永康區","LI":"\u25A0行里","LIN":"42鄰","STREET":"永安路","SECT":" ","MAREA":" ","LANE":" ","ALLEY":" ","HOUSE_NO":"２３５號","E_COORD97":172439.59,"N_COORD97":2549657.1600000001,"ADDRESS":"永安路２３５號","OBJECTID":487254},"geometry":{"x":172439.58999999985,"y":2549657.1600000001}},{"attributes":{"ID":487280,"DIS_CODE":0,"TOWNNAME":"永康區","LI":"龍潭里","LIN":"42鄰","STREET":"永平街","SECT":" ","MAREA":" ","LANE":" ","ALLEY":" ","HOUSE_NO":"７６１之７號","E_COORD97":174632,"N_COORD97":2547074.2999999998,"ADDRESS":"永平街７６１之７號","OBJECTID":487255},"geometry":{"x":174632.00000000093,"y":2547074.3000000045}},{"attributes":{"ID":487281,"DIS_CODE":0,"TOWNNAME":"永康區","LI":"龍潭里","LIN":"42鄰","STREET":"國民路","SECT":" ","MAREA":" ","LANE":" ","ALLEY":" ","HOUSE_NO":"２０５號","E_COORD97":174493.67999999999,"N_COORD97":2547081.9500000002,"ADDRESS":"國民路２０５號","OBJECTID":487256},"geometry":{"x":174493.6799999997,"y":2547081.950000003}},{"attributes":{"ID":487282,"DIS_CODE":0,"TOWNNAME":"佳里區","LI":"安西里","LIN":"42鄰","STREET":"安西路","SECT":" ","MAREA":" ","LANE":" ","ALLEY":" ","HOUSE_NO":"１０３號","E_COORD97":165108.53,"N_COORD97":2562407.6200000001,"ADDRESS":"安西路１０３號","OBJECTID":487257},"geometry":{"x":165108.53000000119,"y":2562407.6200000029}},{"attributes":{"ID":487283,"DIS_CODE":0,"TOWNNAME":"永康區","LI":"龍潭里","LIN":"42鄰","STREET":"永平街","SECT":" ","MAREA":" ","LANE":" ","ALLEY":" ","HOUSE_NO":"７６１之１７號","E_COORD97":174658.51000000001,"N_COORD97":2547103.79,"ADDRESS":"永平街７６１之１７號","OBJECTID":487258},"geometry":{"x":174658.51000000071,"y":2547103.790000001}},{"attributes":{"ID":487284,"DIS_CODE":0,"TOWNNAME":"永康區","LI":"永康里","LIN":"42鄰","STREET":"永大五路","SECT":" ","MAREA":" ","LANE":" ","ALLEY":" ","HOUSE_NO":"１３９號","E_COORD97":174091.39000000001,"N_COORD97":2546629.1299999999,"ADDRESS":"永大五路１３９號","OBJECTID":487259},"geometry":{"x":174091.3900000006,"y":2546629.129999999}},{"attributes":{"ID":487285,"DIS_CODE":0,"TOWNNAME":"永康區","LI":"永康里","LIN":"42鄰","STREET":"永大二路","SECT":" ","MAREA":" ","LANE":" ","ALLEY":" ","HOUSE_NO":"７５號","E_COORD97":174177.37,"N_COORD97":2546521.5,"ADDRESS":"永大二路７５號","OBJECTID":487260},"geometry":{"x":174177.37000000011,"y":2546521.5}},{"attributes":{"ID":487286,"DIS_CODE":0,"TOWNNAME":"永康區","LI":"龍潭里","LIN":"42鄰","STREET":"永平街","SECT":" ","MAREA":" ","LANE":" ","ALLEY":" ","HOUSE_NO":"７７９號","E_COORD97":174623.23999999999,"N_COORD97":2547125.4900000002,"ADDRESS":"永平街７７９號","OBJECTID":487261},"geometry":{"x":174623.24000000209,"y":2547125.4900000002}},{"attributes":{"ID":487287,"DIS_CODE":0,"TOWNNAME":"歸仁區","LI":"南保里","LIN":"42鄰","STREET":"保興二街","SECT":" ","MAREA":" ","LANE":" ","ALLEY":" ","HOUSE_NO":"１４號","E_COORD97":176546.67000000001,"N_COORD97":2540990.25,"ADDRESS":"保興二街１４號","OBJECTID":487262},"geometry":{"x":176546.66999999993,"y":2540990.25}},{"attributes":{"ID":487288,"DIS_CODE":0,"TOWNNAME":"仁德區","LI":"仁義里","LIN":"42鄰","STREET":"中正路","SECT":"二段","MAREA":" ","LANE":" ","ALLEY":" ","HOUSE_NO":"９６８號","E_COORD97":173435.51999999999,"N_COORD97":2540740.5299999998,"ADDRESS":"中正路二段９６８號","OBJECTID":487263},"geometry":{"x":173435.52000000142,"y":2540740.5299999993}},{"attributes":{"ID":487289,"DIS_CODE":0,"TOWNNAME":"仁德區","LI":"仁義里","LIN":"42鄰","STREET":"中正路","SECT":"二段","MAREA":" ","LANE":" ","ALLEY":" ","HOUSE_NO":"９７６號","E_COORD97":173432.98999999999,"N_COORD97":2540756.0299999998,"ADDRESS":"中正路二段９７６號","OBJECTID":487264},"geometry":{"x":173432.98999999929,"y":2540756.0300000012}},{"attributes":{"ID":487290,"DIS_CODE":0,"TOWNNAME":"仁德區","LI":"仁義里","LIN":"42鄰","STREET":"中正路","SECT":"二段","MAREA":" ","LANE":" ","ALLEY":" ","HOUSE_NO":"９８８號","E_COORD97":173430.14999999999,"N_COORD97":2540773.02,"ADDRESS":"中正路二段９８８號","OBJECTID":487265},"geometry":{"x":173430.15000000037,"y":2540773.0200000014}},{"attributes":{"ID":487291,"DIS_CODE":0,"TOWNNAME":"仁德區","LI":"仁義里","LIN":"42鄰","STREET":"中正路","SECT":"二段","MAREA":" ","LANE":" ","ALLEY":" ","HOUSE_NO":"９６６號","E_COORD97":173436.35999999999,"N_COORD97":2540736.0299999998,"ADDRESS":"中正路二段９６６號","OBJECTID":487266},"geometry":{"x":173436.36000000127,"y":2540736.0300000012}},{"attributes":{"ID":487292,"DIS_CODE":0,"TOWNNAME":"仁德區","LI":"仁義里","LIN":"42鄰","STREET":"中正路","SECT":"二段","MAREA":" ","LANE":" ","ALLEY":" ","HOUSE_NO":"９４８號","E_COORD97":173443.26000000001,"N_COORD97":2540695.27,"ADDRESS":"中正路二段９４８號","OBJECTID":487267},"geometry":{"x":173443.26000000071,"y":2540695.2699999996}},{"attributes":{"ID":487293,"DIS_CODE":0,"TOWNNAME":"仁德區","LI":"仁義里","LIN":"42鄰","STREET":"中正路","SECT":"二段","MAREA":" ","LANE":" ","ALLEY":" ","HOUSE_NO":"９４４號","E_COORD97":173444.01000000001,"N_COORD97":2540686.27,"ADDRESS":"中正路二段９４４號","OBJECTID":487268},"geometry":{"x":173444.00999999978,"y":2540686.2700000014}},{"attributes":{"ID":487294,"DIS_CODE":0,"TOWNNAME":"仁德區","LI":"仁義里","LIN":"42鄰","STREET":"中正路","SECT":"二段","MAREA":" ","LANE":" ","ALLEY":" ","HOUSE_NO":"９８２號","E_COORD97":173431.57000000001,"N_COORD97":2540764.52,"ADDRESS":"中正路二段９８２號","OBJECTID":487269},"geometry":{"x":173431.57000000123,"y":2540764.5199999996}},{"attributes":{"ID":487295,"DIS_CODE":0,"TOWNNAME":"仁德區","LI":"仁義里","LIN":"42鄰","STREET":"中正路","SECT":"二段","MAREA":" ","LANE":" ","ALLEY":" ","HOUSE_NO":"９６０號","E_COORD97":173438.04999999999,"N_COORD97":2540722.7799999998,"ADDRESS":"中正路二段９６０號","OBJECTID":487270},"geometry":{"x":173438.05000000075,"y":2540722.7800000031}},{"attributes":{"ID":487296,"DIS_CODE":0,"TOWNNAME":"佳里區","LI":"安西里","LIN":"42鄰","STREET":"安西路","SECT":" ","MAREA":" ","LANE":" ","ALLEY":" ","HOUSE_NO":"１１３號","E_COORD97":165108.5,"N_COORD97":2562430.1000000001,"ADDRESS":"安西路１１３號","OBJECTID":487271},"geometry":{"x":165108.50000000093,"y":2562430.1000000015}},{"attributes":{"ID":487297,"DIS_CODE":0,"TOWNNAME":"永康區","LI":"五王里","LIN":"42鄰","STREET":"中山南路","SECT":" ","MAREA":" ","LANE":" ","ALLEY":" ","HOUSE_NO":"３１６號","E_COORD97":171635.73999999999,"N_COORD97":2546165.9900000002,"ADDRESS":"中山南路３１６號","OBJECTID":487272},"geometry":{"x":171635.74000000022,"y":2546165.9900000002}},{"attributes":{"ID":487298,"DIS_CODE":0,"TOWNNAME":"仁德區","LI":"太子里","LIN":"42鄰","STREET":"太子路","SECT":" ","MAREA":" ","LANE":" ","ALLEY":" ","HOUSE_NO":"２之７號","E_COORD97":175444.92772099999,"N_COORD97":2543582.0548299998,"ADDRESS":"太子路２之７號","OBJECTID":487273},"geometry":{"x":175444.92772100028,"y":2543582.0548270009}},{"attributes":{"ID":487299,"DIS_CODE":0,"TOWNNAME":"永康區","LI":"正強里","LIN":"42鄰","STREET":"中正路","SECT":" ","MAREA":" ","LANE":" ","ALLEY":" ","HOUSE_NO":"２５８號之１","E_COORD97":173157.01999999999,"N_COORD97":2547935.6499999999,"ADDRESS":"中正路２５８號之１","OBJECTID":487274},"geometry":{"x":173157.01999999955,"y":2547935.6500000004}},{"attributes":{"ID":487300,"DIS_CODE":0,"TOWNNAME":"永康區","LI":"正強里","LIN":"42鄰","STREET":"中正路","SECT":" ","MAREA":" ","LANE":" ","ALLEY":" ","HOUSE_NO":"２５８號","E_COORD97":173163.25,"N_COORD97":2547933.6000000001,"ADDRESS":"中正路２５８號","OBJECTID":487275},"geometry":{"x":173163.25000000186,"y":2547933.6000000015}},{"attributes":{"ID":487301,"DIS_CODE":0,"TOWNNAME":"永康區","LI":"正強里","LIN":"42鄰","STREET":"中正路","SECT":" ","MAREA":" ","LANE":" ","ALLEY":" ","HOUSE_NO":"２５８號之２","E_COORD97":173152.12,"N_COORD97":2547936.8999999999,"ADDRESS":"中正路２５８號之２","OBJECTID":487276},"geometry":{"x":173152.12000000011,"y":2547936.9000000004}},{"attributes":{"ID":487302,"DIS_CODE":0,"TOWNNAME":"永康區","LI":"正強里","LIN":"42鄰","STREET":"中正路","SECT":" ","MAREA":" ","LANE":" ","ALLEY":" ","HOUSE_NO":"２５８號之５","E_COORD97":173175.48999999999,"N_COORD97":2547930.6499999999,"ADDRESS":"中正路２５８號之５","OBJECTID":487277},"geometry":{"x":173175.49000000209,"y":2547930.6500000022}},{"attributes":{"ID":487303,"DIS_CODE":0,"TOWNNAME":"永康區","LI":"永康里","LIN":"42鄰","STREET":"永大五路","SECT":" ","MAREA":" ","LANE":" ","ALLEY":" ","HOUSE_NO":"１７１號","E_COORD97":174066.91,"N_COORD97":2546566.77,"ADDRESS":"永大五路１７１號","OBJECTID":487278},"geometry":{"x":174066.91000000015,"y":2546566.7699999996}},{"attributes":{"ID":487304,"DIS_CODE":0,"TOWNNAME":"永康區","LI":"永康里","LIN":"42鄰","STREET":"永忠路","SECT":" ","MAREA":" ","LANE":" ","ALLEY":" ","HOUSE_NO":"１４３號","E_COORD97":174142.82999999999,"N_COORD97":2546659.79,"ADDRESS":"永忠路１４３號","OBJECTID":487279},"geometry":{"x":174142.83000000101,"y":2546659.790000001}},{"attributes":{"ID":487305,"DIS_CODE":0,"TOWNNAME":"永康區","LI":"西灣里","LIN":"42鄰","STREET":"國光六街","SECT":" ","MAREA":" ","LANE":" ","ALLEY":" ","HOUSE_NO":"１２６號","E_COORD97":173950.57999999999,"N_COORD97":2545384.1400000001,"ADDRESS":"國光六街１２６號","OBJECTID":487280},"geometry":{"x":173950.58000000007,"y":2545384.1400000025}},{"attributes":{"ID":487306,"DIS_CODE":0,"TOWNNAME":"仁德區","LI":"後壁里","LIN":"42鄰","STREET":"德崙路","SECT":" ","MAREA":" ","LANE":" ","ALLEY":" ","HOUSE_NO":"１０號","E_COORD97":173241.84,"N_COORD97":2538605.0099999998,"ADDRESS":"德崙路１０號","OBJECTID":487281},"geometry":{"x":173241.83999999985,"y":2538605.0099999998}},{"attributes":{"ID":487307,"DIS_CODE":0,"TOWNNAME":"永康區","LI":"永康里","LIN":"42鄰","STREET":"永大二路","SECT":" ","MAREA":" ","LANE":" ","ALLEY":" ","HOUSE_NO":"９１號","E_COORD97":174140.78,"N_COORD97":2546498.5800000001,"ADDRESS":"永大二路９１號","OBJECTID":487282},"geometry":{"x":174140.78000000026,"y":2546498.5799999982}},{"attributes":{"ID":487308,"DIS_CODE":0,"TOWNNAME":"永康區","LI":"永康里","LIN":"42鄰","STREET":"永大二路","SECT":" ","MAREA":" ","LANE":" ","ALLEY":" ","HOUSE_NO":"８１號","E_COORD97":174163.48000000001,"N_COORD97":2546517.75,"ADDRESS":"永大二路８１號","OBJECTID":487283},"geometry":{"x":174163.48000000045,"y":2546517.7500000037}},{"attributes":{"ID":487309,"DIS_CODE":0,"TOWNNAME":"永康區","LI":"西灣里","LIN":"42鄰","STREET":"國光六街","SECT":" ","MAREA":" ","LANE":" ","ALLEY":" ","HOUSE_NO":"９４號","E_COORD97":174020.37,"N_COORD97":2545360.8599999999,"ADDRESS":"國光六街９４號","OBJECTID":487284},"geometry":{"x":174020.37000000197,"y":2545360.8600000013}},{"attributes":{"ID":487310,"DIS_CODE":0,"TOWNNAME":"永康區","LI":"永康里","LIN":"42鄰","STREET":"永忠路","SECT":" ","MAREA":" ","LANE":" ","ALLEY":" ","HOUSE_NO":"６７號","E_COORD97":174194.32999999999,"N_COORD97":2546511.25,"ADDRESS":"永忠路６７號","OBJECTID":487285},"geometry":{"x":174194.33000000007,"y":2546511.2500000037}},{"attributes":{"ID":487311,"DIS_CODE":0,"TOWNNAME":"永康區","LI":"永康里","LIN":"42鄰","STREET":"永大五路","SECT":" ","MAREA":" ","LANE":" ","ALLEY":" ","HOUSE_NO":"１１７號","E_COORD97":174117.42000000001,"N_COORD97":2546674.7400000002,"ADDRESS":"永大五路１１７號","OBJECTID":487286},"geometry":{"x":174117.41999999993,"y":2546674.7400000021}},{"attributes":{"ID":487312,"DIS_CODE":0,"TOWNNAME":"永康區","LI":"永康里","LIN":"42鄰","STREET":"永大五路","SECT":" ","MAREA":" ","LANE":" ","ALLEY":" ","HOUSE_NO":"１５１號","E_COORD97":174081.45000000001,"N_COORD97":2546605.3700000001,"ADDRESS":"永大五路１５１號","OBJECTID":487287},"geometry":{"x":174081.45000000112,"y":2546605.370000001}},{"attributes":{"ID":487313,"DIS_CODE":0,"TOWNNAME":"永康區","LI":"正強里","LIN":"42鄰","STREET":"中正路","SECT":" ","MAREA":" ","LANE":" ","ALLEY":" ","HOUSE_NO":"２５８號之３","E_COORD97":173146.34,"N_COORD97":2547938.6499999999,"ADDRESS":"中正路２５８號之３","OBJECTID":487288},"geometry":{"x":173146.34000000078,"y":2547938.6500000004}},{"attributes":{"ID":487314,"DIS_CODE":0,"TOWNNAME":"永康區","LI":"永康里","LIN":"42鄰","STREET":"永大五路","SECT":" ","MAREA":" ","LANE":" ","ALLEY":" ","HOUSE_NO":"１１５號","E_COORD97":174120.17999999999,"N_COORD97":2546677.7400000002,"ADDRESS":"永大五路１１５號","OBJECTID":487289},"geometry":{"x":174120.18000000063,"y":2546677.7400000039}},{"attributes":{"ID":487315,"DIS_CODE":0,"TOWNNAME":"永康區","LI":"永康里","LIN":"42鄰","STREET":"永忠路","SECT":" ","MAREA":" ","LANE":" ","ALLEY":" ","HOUSE_NO":"１４７號","E_COORD97":174150.39999999999,"N_COORD97":2546670.7400000002,"ADDRESS":"永忠路１４７號","OBJECTID":487290},"geometry":{"x":174150.40000000037,"y":2546670.7400000039}},{"attributes":{"ID":487316,"DIS_CODE":0,"TOWNNAME":"永康區","LI":"永康里","LIN":"42鄰","STREET":"永忠路","SECT":" ","MAREA":" ","LANE":" ","ALLEY":" ","HOUSE_NO":"６３號","E_COORD97":174196.39999999999,"N_COORD97":2546503.2400000002,"ADDRESS":"永忠路６３號","OBJECTID":487291},"geometry":{"x":174196.40000000037,"y":2546503.2400000002}},{"attributes":{"ID":487317,"DIS_CODE":0,"TOWNNAME":"永康區","LI":"永康里","LIN":"42鄰","STREET":"永忠路","SECT":" ","MAREA":" ","LANE":" ","ALLEY":" ","HOUSE_NO":"８２號","E_COORD97":174210.14000000001,"N_COORD97":2546573.0699999998,"ADDRESS":"永忠路８２號","OBJECTID":487292},"geometry":{"x":174210.1400000006,"y":2546573.0700000003}},{"attributes":{"ID":487318,"DIS_CODE":0,"TOWNNAME":"佳里區","LI":"安西里","LIN":"42鄰","STREET":"安西路","SECT":" ","MAREA":" ","LANE":" ","ALLEY":" ","HOUSE_NO":"１０５號","E_COORD97":165108.32999999999,"N_COORD97":2562412.5800000001,"ADDRESS":"安西路１０５號","OBJECTID":487293},"geometry":{"x":165108.33000000007,"y":2562412.5800000001}},{"attributes":{"ID":487319,"DIS_CODE":0,"TOWNNAME":"佳里區","LI":"安西里","LIN":"42鄰","STREET":"安西路","SECT":" ","MAREA":" ","LANE":" ","ALLEY":" ","HOUSE_NO":"１０７號","E_COORD97":165107.98999999999,"N_COORD97":2562416.8100000001,"ADDRESS":"安西路１０７號","OBJECTID":487294},"geometry":{"x":165107.99000000209,"y":2562416.8100000024}},{"attributes":{"ID":487320,"DIS_CODE":0,"TOWNNAME":"佳里區","LI":"安西里","LIN":"42鄰","STREET":"安西路","SECT":" ","MAREA":" ","LANE":" ","ALLEY":" ","HOUSE_NO":"１０９號","E_COORD97":165108.16,"N_COORD97":2562421.0299999998,"ADDRESS":"安西路１０９號","OBJECTID":487295},"geometry":{"x":165108.16000000015,"y":2562421.0300000012}},{"attributes":{"ID":487321,"DIS_CODE":0,"TOWNNAME":"佳里區","LI":"安西里","LIN":"42鄰","STREET":"安西路","SECT":" ","MAREA":" ","LANE":" ","ALLEY":" ","HOUSE_NO":"１１７號","E_COORD97":165108.64999999999,"N_COORD97":2562438.8100000001,"ADDRESS":"安西路１１７號","OBJECTID":487296},"geometry":{"x":165108.65000000037,"y":2562438.8100000005}},{"attributes":{"ID":487322,"DIS_CODE":0,"TOWNNAME":"佳里區","LI":"安西里","LIN":"42鄰","STREET":"安西路","SECT":" ","MAREA":" ","LANE":" ","ALLEY":" ","HOUSE_NO":"１１９號","E_COORD97":165108.82999999999,"N_COORD97":2562444.3199999998,"ADDRESS":"安西路１１９號","OBJECTID":487297},"geometry":{"x":165108.82999999914,"y":2562444.3200000003}},{"attributes":{"ID":487323,"DIS_CODE":0,"TOWNNAME":"佳里區","LI":"安西里","LIN":"42鄰","STREET":"安西路","SECT":" ","MAREA":" ","LANE":" ","ALLEY":" ","HOUSE_NO":"１２１號","E_COORD97":165108.66,"N_COORD97":2562448.7200000002,"ADDRESS":"安西路１２１號","OBJECTID":487298},"geometry":{"x":165108.66000000108,"y":2562448.7200000007}},{"attributes":{"ID":487324,"DIS_CODE":0,"TOWNNAME":"歸仁區","LI":"七甲里","LIN":"11鄰","STREET":"大德路","SECT":" ","MAREA":" ","LANE":" ","ALLEY":" ","HOUSE_NO":"１０５０號","E_COORD97":175926.42000000001,"N_COORD97":2541596.27,"ADDRESS":"大德路１０５０號","OBJECTID":487299},"geometry":{"x":175926.41999999993,"y":2541596.2699999996}},{"attributes":{"ID":487325,"DIS_CODE":0,"TOWNNAME":"佳里區","LI":"安西里","LIN":"42鄰","STREET":"安西路","SECT":" ","MAREA":" ","LANE":" ","ALLEY":" ","HOUSE_NO":"９５號","E_COORD97":165108.17000000001,"N_COORD97":2562390.21,"ADDRESS":"安西路９５號","OBJECTID":487300},"geometry":{"x":165108.17000000179,"y":2562390.2100000028}},{"attributes":{"ID":487326,"DIS_CODE":0,"TOWNNAME":"佳里區","LI":"安西里","LIN":"42鄰","STREET":"安西路","SECT":" ","MAREA":" ","LANE":" ","ALLEY":" ","HOUSE_NO":"９７號","E_COORD97":165107.85999999999,"N_COORD97":2562394.8900000001,"ADDRESS":"安西路９７號","OBJECTID":487301},"geometry":{"x":165107.86000000127,"y":2562394.8900000043}},{"attributes":{"ID":487327,"DIS_CODE":0,"TOWNNAME":"佳里區","LI":"安西里","LIN":"42鄰","STREET":"安西路","SECT":" ","MAREA":" ","LANE":" ","ALLEY":" ","HOUSE_NO":"９９號","E_COORD97":165108.04000000001,"N_COORD97":2562399.1200000001,"ADDRESS":"安西路９９號","OBJECTID":487302},"geometry":{"x":165108.04000000097,"y":2562399.120000001}},{"attributes":{"ID":487328,"DIS_CODE":0,"TOWNNAME":"永康區","LI":"永康里","LIN":"42鄰","STREET":"永大二路","SECT":" ","MAREA":" ","LANE":" ","ALLEY":" ","HOUSE_NO":"７７號","E_COORD97":174171.70999999999,"N_COORD97":2546520,"ADDRESS":"永大二路７７號","OBJECTID":487303},"geometry":{"x":174171.70999999996,"y":2546520.0000000019}},{"attributes":{"ID":487329,"DIS_CODE":0,"TOWNNAME":"永康區","LI":"永康里","LIN":"42鄰","STREET":"永大二路","SECT":" ","MAREA":" ","LANE":" ","ALLEY":" ","HOUSE_NO":"８５號","E_COORD97":174154.95999999999,"N_COORD97":2546515.25,"ADDRESS":"永大二路８５號","OBJECTID":487304},"geometry":{"x":174154.95999999996,"y":2546515.2500000019}},{"attributes":{"ID":487330,"DIS_CODE":0,"TOWNNAME":"永康區","LI":"永康里","LIN":"42鄰","STREET":"永大二路","SECT":" ","MAREA":" ","LANE":" ","ALLEY":" ","HOUSE_NO":"７９號","E_COORD97":174167.62,"N_COORD97":2546518.75,"ADDRESS":"永大二路７９號","OBJECTID":487305},"geometry":{"x":174167.62000000011,"y":2546518.7500000019}},{"attributes":{"ID":487331,"DIS_CODE":0,"TOWNNAME":"永康區","LI":"永康里","LIN":"42鄰","STREET":"永大五路","SECT":" ","MAREA":" ","LANE":" ","ALLEY":" ","HOUSE_NO":"１６９號","E_COORD97":174068.22,"N_COORD97":2546571.27,"ADDRESS":"永大五路１６９號","OBJECTID":487306},"geometry":{"x":174068.21999999974,"y":2546571.2699999977}},{"attributes":{"ID":487332,"DIS_CODE":0,"TOWNNAME":"永康區","LI":"永康里","LIN":"42鄰","STREET":"永大五路","SECT":" ","MAREA":" ","LANE":" ","ALLEY":" ","HOUSE_NO":"１３１號","E_COORD97":174097.63,"N_COORD97":2546645.1299999999,"ADDRESS":"永大五路１３１號","OBJECTID":487307},"geometry":{"x":174097.62999999989,"y":2546645.129999999}},{"attributes":{"ID":487333,"DIS_CODE":0,"TOWNNAME":"永康區","LI":"永康里","LIN":"42鄰","STREET":"永忠路","SECT":" ","MAREA":" ","LANE":" ","ALLEY":" ","HOUSE_NO":"８０號","E_COORD97":174211.16,"N_COORD97":2546568.3199999998,"ADDRESS":"永忠路８０號","OBJECTID":487308},"geometry":{"x":174211.16000000015,"y":2546568.3199999984}},{"attributes":{"ID":487334,"DIS_CODE":0,"TOWNNAME":"永康區","LI":"永康里","LIN":"42鄰","STREET":"永大五路","SECT":" ","MAREA":" ","LANE":" ","ALLEY":" ","HOUSE_NO":"１２９號","E_COORD97":174099.54000000001,"N_COORD97":2546648.8799999999,"ADDRESS":"永大五路１２９號","OBJECTID":487309},"geometry":{"x":174099.54000000097,"y":2546648.8800000008}},{"attributes":{"ID":487335,"DIS_CODE":0,"TOWNNAME":"永康區","LI":"永康里","LIN":"42鄰","STREET":"永大五路","SECT":" ","MAREA":" ","LANE":" ","ALLEY":" ","HOUSE_NO":"１１３號","E_COORD97":174122.95999999999,"N_COORD97":2546680.4900000002,"ADDRESS":"永大五路１１３號","OBJECTID":487310},"geometry":{"x":174122.96000000183,"y":2546680.4900000021}},{"attributes":{"ID":487336,"DIS_CODE":0,"TOWNNAME":"永康區","LI":"永康里","LIN":"42鄰","STREET":"永大五路","SECT":" ","MAREA":" ","LANE":" ","ALLEY":" ","HOUSE_NO":"１０３號","E_COORD97":174137.26999999999,"N_COORD97":2546689.2400000002,"ADDRESS":"永大五路１０３號","OBJECTID":487311},"geometry":{"x":174137.26999999862,"y":2546689.2400000021}},{"attributes":{"ID":487337,"DIS_CODE":0,"TOWNNAME":"永康區","LI":"永康里","LIN":"42鄰","STREET":"永大五路","SECT":" ","MAREA":" ","LANE":" ","ALLEY":" ","HOUSE_NO":"１６７號","E_COORD97":174068.98000000001,"N_COORD97":2546575.1200000001,"ADDRESS":"永大五路１６７號","OBJECTID":487312},"geometry":{"x":174068.97999999952,"y":2546575.1200000029}},{"attributes":{"ID":487338,"DIS_CODE":0,"TOWNNAME":"永康區","LI":"永康里","LIN":"42鄰","STREET":"永大五路","SECT":" ","MAREA":" ","LANE":" ","ALLEY":" ","HOUSE_NO":"１０１號","E_COORD97":174140.78,"N_COORD97":2546690.9900000002,"ADDRESS":"永大五路１０１號","OBJECTID":487313},"geometry":{"x":174140.78000000026,"y":2546690.9900000021}},{"attributes":{"ID":487339,"DIS_CODE":0,"TOWNNAME":"永康區","LI":"永康里","LIN":"42鄰","STREET":"永大五路","SECT":" ","MAREA":" ","LANE":" ","ALLEY":" ","HOUSE_NO":"１５５號","E_COORD97":174078.13,"N_COORD97":2546597.8700000001,"ADDRESS":"永大五路１５５號","OBJECTID":487314},"geometry":{"x":174078.13000000082,"y":2546597.870000001}},{"attributes":{"ID":487340,"DIS_CODE":0,"TOWNNAME":"仁德區","LI":"後壁里","LIN":"42鄰","STREET":"德崙路","SECT":" ","MAREA":" ","LANE":" ","ALLEY":" ","HOUSE_NO":"７０號一樓之２","E_COORD97":173359.64999999999,"N_COORD97":2538515.54,"ADDRESS":"德崙路７０號一樓之２","OBJECTID":487315},"geometry":{"x":173359.6500000013,"y":2538515.5399999991}},{"attributes":{"ID":487341,"DIS_CODE":0,"TOWNNAME":"仁德區","LI":"後壁里","LIN":"42鄰","STREET":"德崙路","SECT":" ","MAREA":" ","LANE":" ","ALLEY":" ","HOUSE_NO":"７０號六樓之３","E_COORD97":173359.60999999999,"N_COORD97":2538515.54,"ADDRESS":"德崙路７０號六樓之３","OBJECTID":487316},"geometry":{"x":173359.6100000022,"y":2538515.5399999991}},{"attributes":{"ID":487342,"DIS_CODE":0,"TOWNNAME":"仁德區","LI":"後壁里","LIN":"42鄰","STREET":"德崙路","SECT":" ","MAREA":" ","LANE":" ","ALLEY":" ","HOUSE_NO":"７０號四樓之１","E_COORD97":173359.51000000001,"N_COORD97":2538515.54,"ADDRESS":"德崙路７０號四樓之１","OBJECTID":487317},"geometry":{"x":173359.50999999885,"y":2538515.5399999991}},{"attributes":{"ID":487343,"DIS_CODE":0,"TOWNNAME":"仁德區","LI":"後壁里","LIN":"42鄰","STREET":"德崙路","SECT":" ","MAREA":" ","LANE":" ","ALLEY":" ","HOUSE_NO":"７０號七樓之２","E_COORD97":173359.64999999999,"N_COORD97":2538515.54,"ADDRESS":"德崙路７０號七樓之２","OBJECTID":487318},"geometry":{"x":173359.6500000013,"y":2538515.5399999991}},{"attributes":{"ID":487344,"DIS_CODE":0,"TOWNNAME":"永康區","LI":"\u25A0行里","LIN":"42鄰","STREET":"永安二街","SECT":" ","MAREA":" ","LANE":" ","ALLEY":" ","HOUSE_NO":"１號二樓之２","E_COORD97":172490.22,"N_COORD97":2549594.3300000001,"ADDRESS":"永安二街１號二樓之２","OBJECTID":487319},"geometry":{"x":172490.2200000016,"y":2549594.3300000001}},{"attributes":{"ID":487345,"DIS_CODE":0,"TOWNNAME":"永康區","LI":"\u25A0行里","LIN":"42鄰","STREET":"永安二街","SECT":" ","MAREA":" ","LANE":" ","ALLEY":" ","HOUSE_NO":"１號四樓之１","E_COORD97":172490.09,"N_COORD97":2549594.3300000001,"ADDRESS":"永安二街１號四樓之１","OBJECTID":487320},"geometry":{"x":172490.09000000078,"y":2549594.3300000001}},{"attributes":{"ID":487346,"DIS_CODE":0,"TOWNNAME":"永康區","LI":"\u25A0行里","LIN":"42鄰","STREET":"永安二街","SECT":" ","MAREA":" ","LANE":" ","ALLEY":" ","HOUSE_NO":"１號六樓之３","E_COORD97":172490.19,"N_COORD97":2549594.3300000001,"ADDRESS":"永安二街１號六樓之３","OBJECTID":487321},"geometry":{"x":172490.19000000134,"y":2549594.3300000001}},{"attributes":{"ID":487347,"DIS_CODE":0,"TOWNNAME":"永康區","LI":"\u25A0行里","LIN":"42鄰","STREET":"永安二街","SECT":" ","MAREA":" ","LANE":" ","ALLEY":" ","HOUSE_NO":"１號二樓之３","E_COORD97":172490.19,"N_COORD97":2549594.3300000001,"ADDRESS":"永安二街１號二樓之３","OBJECTID":487322},"geometry":{"x":172490.19000000134,"y":2549594.3300000001}},{"attributes":{"ID":487348,"DIS_CODE":0,"TOWNNAME":"永康區","LI":"五王里","LIN":"42鄰","STREET":"中山東路","SECT":" ","MAREA":" ","LANE":" ","ALLEY":" ","HOUSE_NO":"２６號","E_COORD97":171667.89999999999,"N_COORD97":2546117.5,"ADDRESS":"中山東路２６號","OBJECTID":487323},"geometry":{"x":171667.9000000013,"y":2546117.5000000019}},{"attributes":{"ID":487349,"DIS_CODE":0,"TOWNNAME":"歸仁區","LI":"大廟里","LIN":"15鄰","STREET":"大廟五街","SECT":" ","MAREA":" ","LANE":" ","ALLEY":" ","HOUSE_NO":"１４２號","E_COORD97":176092.17999999999,"N_COORD97":2544477.5299999998,"ADDRESS":"大廟五街１４２號","OBJECTID":487324},"geometry":{"x":176092.1799999997,"y":2544477.5300000031}},{"attributes":{"ID":487350,"DIS_CODE":0,"TOWNNAME":"永康區","LI":"五王里","LIN":"42鄰","STREET":"中山南路","SECT":" ","MAREA":" ","LANE":" ","ALLEY":" ","HOUSE_NO":"３１４號","E_COORD97":171634.88,"N_COORD97":2546164.4900000002,"ADDRESS":"中山南路３１４號","OBJECTID":487325},"geometry":{"x":171634.88000000175,"y":2546164.4900000021}},{"attributes":{"ID":487351,"DIS_CODE":0,"TOWNNAME":"永康區","LI":"五王里","LIN":"42鄰","STREET":"中山南路","SECT":" ","MAREA":" ","LANE":" ","ALLEY":" ","HOUSE_NO":"３１０號","E_COORD97":171622.28,"N_COORD97":2546157.2400000002,"ADDRESS":"中山南路３１０號","OBJECTID":487326},"geometry":{"x":171622.27999999933,"y":2546157.2400000002}},{"attributes":{"ID":487352,"DIS_CODE":0,"TOWNNAME":"永康區","LI":"\u25A0行里","LIN":"42鄰","STREET":"永安路","SECT":" ","MAREA":" ","LANE":" ","ALLEY":" ","HOUSE_NO":"２２３號","E_COORD97":172457.48999999999,"N_COORD97":2549637.4100000001,"ADDRESS":"永安路２２３號","OBJECTID":487327},"geometry":{"x":172457.49000000115,"y":2549637.410000002}},{"attributes":{"ID":487353,"DIS_CODE":0,"TOWNNAME":"仁德區","LI":"後壁里","LIN":"42鄰","STREET":"德崙路","SECT":" ","MAREA":" ","LANE":" ","ALLEY":" ","HOUSE_NO":"２８號","E_COORD97":173270.45999999999,"N_COORD97":2538581.77,"ADDRESS":"德崙路２８號","OBJECTID":487328},"geometry":{"x":173270.46000000089,"y":2538581.7700000014}},{"attributes":{"ID":487354,"DIS_CODE":0,"TOWNNAME":"仁德區","LI":"後壁里","LIN":"42鄰","STREET":"德崙路","SECT":" ","MAREA":" ","LANE":" ","ALLEY":" ","HOUSE_NO":"８０號","E_COORD97":173381.04000000001,"N_COORD97":2538496.5099999998,"ADDRESS":"德崙路８０號","OBJECTID":487329},"geometry":{"x":173381.04000000004,"y":2538496.5099999998}},{"attributes":{"ID":487355,"DIS_CODE":0,"TOWNNAME":"仁德區","LI":"後壁里","LIN":"42鄰","STREET":"德崙路","SECT":" ","MAREA":" ","LANE":" ","ALLEY":" ","HOUSE_NO":"３８號","E_COORD97":173289.95000000001,"N_COORD97":2538566.27,"ADDRESS":"德崙路３８號","OBJECTID":487330},"geometry":{"x":173289.95000000112,"y":2538566.2699999996}},{"attributes":{"ID":487356,"DIS_CODE":0,"TOWNNAME":"仁德區","LI":"後壁里","LIN":"42鄰","STREET":"德崙路","SECT":" ","MAREA":" ","LANE":" ","ALLEY":" ","HOUSE_NO":"６６號","E_COORD97":173344.79000000001,"N_COORD97":2538524.5099999998,"ADDRESS":"德崙路６６號","OBJECTID":487331},"geometry":{"x":173344.79000000097,"y":2538524.5099999979}},{"attributes":{"ID":487357,"DIS_CODE":0,"TOWNNAME":"仁德區","LI":"後壁里","LIN":"42鄰","STREET":"德崙路","SECT":" ","MAREA":" ","LANE":" ","ALLEY":" ","HOUSE_NO":"２０號","E_COORD97":173254.34,"N_COORD97":2538594.7599999998,"ADDRESS":"德崙路２０號","OBJECTID":487332},"geometry":{"x":173254.34000000078,"y":2538594.7600000016}},{"attributes":{"ID":487358,"DIS_CODE":0,"TOWNNAME":"仁德區","LI":"後壁里","LIN":"42鄰","STREET":"德崙路","SECT":" ","MAREA":" ","LANE":" ","ALLEY":" ","HOUSE_NO":"３０號","E_COORD97":173273.78,"N_COORD97":2538579.52,"ADDRESS":"德崙路３０號","OBJECTID":487333},"geometry":{"x":173273.78000000119,"y":2538579.5200000014}},{"attributes":{"ID":487359,"DIS_CODE":0,"TOWNNAME":"永康區","LI":"五王里","LIN":"42鄰","STREET":"中山東路","SECT":" ","MAREA":" ","LANE":" ","ALLEY":" ","HOUSE_NO":"６號","E_COORD97":171652.85000000001,"N_COORD97":2546149.4900000002,"ADDRESS":"中山東路６號","OBJECTID":487334},"geometry":{"x":171652.84999999963,"y":2546149.4900000002}},{"attributes":{"ID":487360,"DIS_CODE":0,"TOWNNAME":"永康區","LI":"五王里","LIN":"42鄰","STREET":"中山南路","SECT":" ","MAREA":" ","LANE":" ","ALLEY":" ","HOUSE_NO":"３０８號","E_COORD97":171613.53,"N_COORD97":2546144.25,"ADDRESS":"中山南路３０８號","OBJECTID":487335},"geometry":{"x":171613.53000000026,"y":2546144.25}},{"attributes":{"ID":487361,"DIS_CODE":0,"TOWNNAME":"永康區","LI":"\u25A0行里","LIN":"42鄰","STREET":"永安二街","SECT":" ","MAREA":" ","LANE":" ","ALLEY":" ","HOUSE_NO":"４２號","E_COORD97":172405.04999999999,"N_COORD97":2549614.9300000002,"ADDRESS":"永安二街４２號","OBJECTID":487336},"geometry":{"x":172405.05000000168,"y":2549614.9299999978}},{"attributes":{"ID":487362,"DIS_CODE":0,"TOWNNAME":"歸仁區","LI":"八甲里","LIN":"25鄰","STREET":"大德路","SECT":" ","MAREA":" ","LANE":" ","ALLEY":" ","HOUSE_NO":"１４２號","E_COORD97":178029.48999999999,"N_COORD97":2541352.25,"ADDRESS":"大德路１４２號","OBJECTID":487337},"geometry":{"x":178029.49000000115,"y":2541352.2500000019}},{"attributes":{"ID":487363,"DIS_CODE":0,"TOWNNAME":"永康區","LI":"\u25A0行里","LIN":"42鄰","STREET":"永安路","SECT":" ","MAREA":" ","LANE":" ","ALLEY":" ","HOUSE_NO":"２６１號","E_COORD97":172399.32000000001,"N_COORD97":2549690.1899999999,"ADDRESS":"永安路２６１號","OBJECTID":487338},"geometry":{"x":172399.32000000123,"y":2549690.1899999995}},{"attributes":{"ID":487364,"DIS_CODE":0,"TOWNNAME":"永康區","LI":"\u25A0行里","LIN":"42鄰","STREET":"永安路","SECT":" ","MAREA":" ","LANE":" ","ALLEY":" ","HOUSE_NO":"２５９號","E_COORD97":172404.09,"N_COORD97":2549691.54,"ADDRESS":"永安路２５９號","OBJECTID":487339},"geometry":{"x":172404.08999999985,"y":2549691.5399999972}},{"attributes":{"ID":487365,"DIS_CODE":0,"TOWNNAME":"歸仁區","LI":"南保里","LIN":"42鄰","STREET":"中山路","SECT":"三段","MAREA":" ","LANE":" ","ALLEY":" ","HOUSE_NO":"１９２號","E_COORD97":176541.01000000001,"N_COORD97":2540930.0499999998,"ADDRESS":"中山路三段１９２號","OBJECTID":487340},"geometry":{"x":176541.00999999978,"y":2540930.0500000026}},{"attributes":{"ID":487366,"DIS_CODE":0,"TOWNNAME":"歸仁區","LI":"南保里","LIN":"42鄰","STREET":"中山路","SECT":"三段","MAREA":" ","LANE":" ","ALLEY":" ","HOUSE_NO":"２０２號","E_COORD97":176516.41,"N_COORD97":2540930.0499999998,"ADDRESS":"中山路三段２０２號","OBJECTID":487341},"geometry":{"x":176516.41000000015,"y":2540930.0500000026}},{"attributes":{"ID":487367,"DIS_CODE":0,"TOWNNAME":"歸仁區","LI":"後市里","LIN":"42鄰","STREET":"國光街","SECT":" ","MAREA":" ","LANE":" ","ALLEY":" ","HOUSE_NO":"４２號","E_COORD97":177090.48999999999,"N_COORD97":2540944.7400000002,"ADDRESS":"國光街４２號","OBJECTID":487342},"geometry":{"x":177090.49000000022,"y":2540944.7400000021}},{"attributes":{"ID":487368,"DIS_CODE":0,"TOWNNAME":"歸仁區","LI":"後市里","LIN":"42鄰","STREET":"民權北路","SECT":" ","MAREA":" ","LANE":" ","ALLEY":" ","HOUSE_NO":"２８號","E_COORD97":176994.23000000001,"N_COORD97":2540928.75,"ADDRESS":"民權北路２８號","OBJECTID":487343},"geometry":{"x":176994.23000000045,"y":2540928.7500000019}},{"attributes":{"ID":487369,"DIS_CODE":0,"TOWNNAME":"歸仁區","LI":"後市里","LIN":"42鄰","STREET":"國光街","SECT":" ","MAREA":" ","LANE":" ","ALLEY":" ","HOUSE_NO":"１２號","E_COORD97":177025.98999999999,"N_COORD97":2540951.7400000002,"ADDRESS":"國光街１２號","OBJECTID":487344},"geometry":{"x":177025.99000000115,"y":2540951.7400000021}},{"attributes":{"ID":487370,"DIS_CODE":0,"TOWNNAME":"歸仁區","LI":"南保里","LIN":"42鄰","STREET":"保興街","SECT":" ","MAREA":" ","LANE":" ","ALLEY":" ","HOUSE_NO":"２號","E_COORD97":176504.59,"N_COORD97":2540971.8900000001,"ADDRESS":"保興街２號","OBJECTID":487345},"geometry":{"x":176504.58999999985,"y":2540971.8900000025}},{"attributes":{"ID":487371,"DIS_CODE":0,"TOWNNAME":"玉井區","LI":"玉田里","LIN":"42鄰","STREET":"仁愛街","SECT":" ","MAREA":" ","LANE":" ","ALLEY":" ","HOUSE_NO":"１６６號","E_COORD97":195387.89000000001,"N_COORD97":2557855.27,"ADDRESS":"仁愛街１６６號","OBJECTID":487346},"geometry":{"x":195387.8900000006,"y":2557855.2700000014}},{"attributes":{"ID":487372,"DIS_CODE":0,"TOWNNAME":"永康區","LI":"五王里","LIN":"42鄰","STREET":"五福街","SECT":" ","MAREA":" ","LANE":" ","ALLEY":" ","HOUSE_NO":"１８５號三樓之３","E_COORD97":171670.69,"N_COORD97":2546058.6400000001,"ADDRESS":"五福街１８５號三樓之３","OBJECTID":487347},"geometry":{"x":171670.69000000227,"y":2546058.6400000025}},{"attributes":{"ID":487373,"DIS_CODE":0,"TOWNNAME":"永康區","LI":"五王里","LIN":"42鄰","STREET":"五福街","SECT":" ","MAREA":" ","LANE":" ","ALLEY":" ","HOUSE_NO":"１８５號四樓之３","E_COORD97":171670.69,"N_COORD97":2546058.6400000001,"ADDRESS":"五福街１８５號四樓之３","OBJECTID":487348},"geometry":{"x":171670.69000000227,"y":2546058.6400000025}},{"attributes":{"ID":487374,"DIS_CODE":0,"TOWNNAME":"永康區","LI":"五王里","LIN":"42鄰","STREET":"五福街","SECT":" ","MAREA":" ","LANE":" ","ALLEY":" ","HOUSE_NO":"１８５號七樓之２","E_COORD97":171670.73000000001,"N_COORD97":2546058.6400000001,"ADDRESS":"五福街１８５號七樓之２","OBJECTID":487349},"geometry":{"x":171670.73000000138,"y":2546058.6400000025}},{"attributes":{"ID":487375,"DIS_CODE":0,"TOWNNAME":"永康區","LI":"五王里","LIN":"42鄰","STREET":"五福街","SECT":" ","MAREA":" ","LANE":" ","ALLEY":" ","HOUSE_NO":"１８５號七樓之３","E_COORD97":171670.69,"N_COORD97":2546058.6400000001,"ADDRESS":"五福街１８５號七樓之３","OBJECTID":487350},"geometry":{"x":171670.69000000227,"y":2546058.6400000025}},{"attributes":{"ID":487376,"DIS_CODE":0,"TOWNNAME":"永康區","LI":"五王里","LIN":"42鄰","STREET":"五福街","SECT":" ","MAREA":" ","LANE":" ","ALLEY":" ","HOUSE_NO":"１８５號六樓之２","E_COORD97":171670.73000000001,"N_COORD97":2546058.6400000001,"ADDRESS":"五福街１８５號六樓之２","OBJECTID":487351},"geometry":{"x":171670.73000000138,"y":2546058.6400000025}},{"attributes":{"ID":487377,"DIS_CODE":0,"TOWNNAME":"仁德區","LI":"後壁里","LIN":"42鄰","STREET":"德崙路","SECT":" ","MAREA":" ","LANE":" ","ALLEY":" ","HOUSE_NO":"７０號四樓之２","E_COORD97":173359.64999999999,"N_COORD97":2538515.54,"ADDRESS":"德崙路７０號四樓之２","OBJECTID":487352},"geometry":{"x":173359.6500000013,"y":2538515.5399999991}},{"attributes":{"ID":487378,"DIS_CODE":0,"TOWNNAME":"仁德區","LI":"後壁里","LIN":"42鄰","STREET":"德崙路","SECT":" ","MAREA":" ","LANE":" ","ALLEY":" ","HOUSE_NO":"７０號六樓之２","E_COORD97":173359.64999999999,"N_COORD97":2538515.54,"ADDRESS":"德崙路７０號六樓之２","OBJECTID":487353},"geometry":{"x":173359.6500000013,"y":2538515.5399999991}},{"attributes":{"ID":487379,"DIS_CODE":0,"TOWNNAME":"仁德區","LI":"後壁里","LIN":"42鄰","STREET":"德崙路","SECT":" ","MAREA":" ","LANE":" ","ALLEY":" ","HOUSE_NO":"７０號五樓之３","E_COORD97":173359.60999999999,"N_COORD97":2538515.54,"ADDRESS":"德崙路７０號五樓之３","OBJECTID":487354},"geometry":{"x":173359.6100000022,"y":2538515.5399999991}},{"attributes":{"ID":487380,"DIS_CODE":0,"TOWNNAME":"仁德區","LI":"後壁里","LIN":"42鄰","STREET":"德崙路","SECT":" ","MAREA":" ","LANE":" ","ALLEY":" ","HOUSE_NO":"７０號二樓之３","E_COORD97":173359.60999999999,"N_COORD97":2538515.54,"ADDRESS":"德崙路７０號二樓之３","OBJECTID":487355},"geometry":{"x":173359.6100000022,"y":2538515.5399999991}},{"attributes":{"ID":487381,"DIS_CODE":0,"TOWNNAME":"仁德區","LI":"後壁里","LIN":"42鄰","STREET":"德崙路","SECT":" ","MAREA":" ","LANE":" ","ALLEY":" ","HOUSE_NO":"７０號六樓之１","E_COORD97":173359.51000000001,"N_COORD97":2538515.54,"ADDRESS":"德崙路７０號六樓之１","OBJECTID":487356},"geometry":{"x":173359.50999999885,"y":2538515.5399999991}},{"attributes":{"ID":487382,"DIS_CODE":0,"TOWNNAME":"仁德區","LI":"後壁里","LIN":"42鄰","STREET":"德崙路","SECT":" ","MAREA":" ","LANE":" ","ALLEY":" ","HOUSE_NO":"７０號七樓之１","E_COORD97":173359.51000000001,"N_COORD97":2538515.54,"ADDRESS":"德崙路７０號七樓之１","OBJECTID":487357},"geometry":{"x":173359.50999999885,"y":2538515.5399999991}},{"attributes":{"ID":487383,"DIS_CODE":0,"TOWNNAME":"永康區","LI":"五王里","LIN":"42鄰","STREET":"五福街","SECT":" ","MAREA":" ","LANE":" ","ALLEY":" ","HOUSE_NO":"１８５號四樓之２","E_COORD97":171670.73000000001,"N_COORD97":2546058.6400000001,"ADDRESS":"五福街１８５號四樓之２","OBJECTID":487358},"geometry":{"x":171670.73000000138,"y":2546058.6400000025}},{"attributes":{"ID":487384,"DIS_CODE":0,"TOWNNAME":"永康區","LI":"五王里","LIN":"42鄰","STREET":"五福街","SECT":" ","MAREA":" ","LANE":" ","ALLEY":" ","HOUSE_NO":"１８５號六樓之３","E_COORD97":171670.69,"N_COORD97":2546058.6400000001,"ADDRESS":"五福街１８５號六樓之３","OBJECTID":487359},"geometry":{"x":171670.69000000227,"y":2546058.6400000025}},{"attributes":{"ID":487385,"DIS_CODE":0,"TOWNNAME":"永康區","LI":"五王里","LIN":"42鄰","STREET":"五福街","SECT":" ","MAREA":" ","LANE":" ","ALLEY":" ","HOUSE_NO":"１８５號三樓之１","E_COORD97":171670.59,"N_COORD97":2546058.6400000001,"ADDRESS":"五福街１８５號三樓之１","OBJECTID":487360},"geometry":{"x":171670.58999999892,"y":2546058.6400000025}},{"attributes":{"ID":487386,"DIS_CODE":0,"TOWNNAME":"永康區","LI":"五王里","LIN":"42鄰","STREET":"五福街","SECT":" ","MAREA":" ","LANE":" ","ALLEY":" ","HOUSE_NO":"１８５號五樓之３","E_COORD97":171670.69,"N_COORD97":2546058.6400000001,"ADDRESS":"五福街１８５號五樓之３","OBJECTID":487361},"geometry":{"x":171670.69000000227,"y":2546058.6400000025}},{"attributes":{"ID":487387,"DIS_CODE":0,"TOWNNAME":"仁德區","LI":"後壁里","LIN":"42鄰","STREET":"德崙路","SECT":" ","MAREA":" ","LANE":" ","ALLEY":" ","HOUSE_NO":"７０號三樓之３","E_COORD97":173359.60999999999,"N_COORD97":2538515.54,"ADDRESS":"德崙路７０號三樓之３","OBJECTID":487362},"geometry":{"x":173359.6100000022,"y":2538515.5399999991}},{"attributes":{"ID":487388,"DIS_CODE":0,"TOWNNAME":"仁德區","LI":"後壁里","LIN":"42鄰","STREET":"德崙路","SECT":" ","MAREA":" ","LANE":" ","ALLEY":" ","HOUSE_NO":"７０號一樓之１","E_COORD97":173359.51000000001,"N_COORD97":2538515.54,"ADDRESS":"德崙路７０號一樓之１","OBJECTID":487363},"geometry":{"x":173359.50999999885,"y":2538515.5399999991}},{"attributes":{"ID":487389,"DIS_CODE":0,"TOWNNAME":"永康區","LI":"永康里","LIN":"42鄰","STREET":"永大二路","SECT":" ","MAREA":" ","LANE":" ","ALLEY":" ","HOUSE_NO":"８７號二樓","E_COORD97":174151.56,"N_COORD97":2546513.7599999998,"ADDRESS":"永大二路８７號二樓","OBJECTID":487364},"geometry":{"x":174151.55999999959,"y":2546513.7599999998}},{"attributes":{"ID":487390,"DIS_CODE":0,"TOWNNAME":"仁德區","LI":"後壁里","LIN":"42鄰","STREET":"德崙路","SECT":" ","MAREA":" ","LANE":" ","ALLEY":" ","HOUSE_NO":"７０號一樓之３","E_COORD97":173359.60999999999,"N_COORD97":2538515.54,"ADDRESS":"德崙路７０號一樓之３","OBJECTID":487365},"geometry":{"x":173359.6100000022,"y":2538515.5399999991}},{"attributes":{"ID":487391,"DIS_CODE":0,"TOWNNAME":"歸仁區","LI":"六甲里","LIN":"5鄰","STREET":"中正十五街","SECT":" ","MAREA":" ","LANE":" ","ALLEY":" ","HOUSE_NO":"１８號","E_COORD97":176434.91,"N_COORD97":2539487.25,"ADDRESS":"中正十五街１８號","OBJECTID":487366},"geometry":{"x":176434.91000000015,"y":2539487.2500000019}},{"attributes":{"ID":487392,"DIS_CODE":0,"TOWNNAME":"歸仁區","LI":"八甲里","LIN":"20鄰","STREET":"大仁三街","SECT":" ","MAREA":" ","LANE":" ","ALLEY":" ","HOUSE_NO":"５９號","E_COORD97":178296.29000000001,"N_COORD97":2541399.25,"ADDRESS":"大仁三街５９號","OBJECTID":487367},"geometry":{"x":178296.29000000097,"y":2541399.2500000019}},{"attributes":{"ID":487393,"DIS_CODE":0,"TOWNNAME":"楠西區","LI":"楠西里","LIN":"25鄰","STREET":"四維路","SECT":" ","MAREA":" ","LANE":" ","ALLEY":" ","HOUSE_NO":"９號","E_COORD97":197323.66,"N_COORD97":2563489.25,"ADDRESS":"四維路９號","OBJECTID":487368},"geometry":{"x":197323.66000000015,"y":2563489.25}},{"attributes":{"ID":487394,"DIS_CODE":0,"TOWNNAME":"仁德區","LI":"後壁里","LIN":"42鄰","STREET":"德崙路","SECT":" ","MAREA":" ","LANE":" ","ALLEY":" ","HOUSE_NO":"７０號四樓之３","E_COORD97":173359.60999999999,"N_COORD97":2538515.54,"ADDRESS":"德崙路７０號四樓之３","OBJECTID":487369},"geometry":{"x":173359.6100000022,"y":2538515.5399999991}},{"attributes":{"ID":487395,"DIS_CODE":0,"TOWNNAME":"永康區","LI":"\u25A0行里","LIN":"42鄰","STREET":"永安二街","SECT":" ","MAREA":" ","LANE":" ","ALLEY":" ","HOUSE_NO":"１號二樓之１","E_COORD97":172490.09,"N_COORD97":2549594.3300000001,"ADDRESS":"永安二街１號二樓之１","OBJECTID":487370},"geometry":{"x":172490.09000000078,"y":2549594.3300000001}},{"attributes":{"ID":487396,"DIS_CODE":0,"TOWNNAME":"永康區","LI":"\u25A0行里","LIN":"42鄰","STREET":"永安二街","SECT":" ","MAREA":" ","LANE":" ","ALLEY":" ","HOUSE_NO":"１號一樓之１","E_COORD97":172490.09,"N_COORD97":2549594.3300000001,"ADDRESS":"永安二街１號一樓之１","OBJECTID":487371},"geometry":{"x":172490.09000000078,"y":2549594.3300000001}},{"attributes":{"ID":487397,"DIS_CODE":0,"TOWNNAME":"永康區","LI":"\u25A0行里","LIN":"42鄰","STREET":"永安二街","SECT":" ","MAREA":" ","LANE":" ","ALLEY":" ","HOUSE_NO":"１號五樓之２","E_COORD97":172490.22,"N_COORD97":2549594.3300000001,"ADDRESS":"永安二街１號五樓之２","OBJECTID":487372},"geometry":{"x":172490.2200000016,"y":2549594.3300000001}},{"attributes":{"ID":487398,"DIS_CODE":0,"TOWNNAME":"歸仁區","LI":"後市里","LIN":"42鄰","STREET":"國光街","SECT":" ","MAREA":" ","LANE":" ","ALLEY":" ","HOUSE_NO":"８號二樓","E_COORD97":177021.73000000001,"N_COORD97":2540944.75,"ADDRESS":"國光街８號二樓","OBJECTID":487373},"geometry":{"x":177021.73000000045,"y":2540944.7500000019}},{"attributes":{"ID":487399,"DIS_CODE":0,"TOWNNAME":"永康區","LI":"永康里","LIN":"42鄰","STREET":"永大五路","SECT":" ","MAREA":" ","LANE":" ","ALLEY":" ","HOUSE_NO":"１４５號","E_COORD97":174086.23999999999,"N_COORD97":2546617.3799999999,"ADDRESS":"永大五路１４５號","OBJECTID":487374},"geometry":{"x":174086.24000000115,"y":2546617.3799999971}},{"attributes":{"ID":487400,"DIS_CODE":0,"TOWNNAME":"永康區","LI":"永康里","LIN":"42鄰","STREET":"永大五路","SECT":" ","MAREA":" ","LANE":" ","ALLEY":" ","HOUSE_NO":"３５號六樓","E_COORD97":174208.82000000001,"N_COORD97":2546721.9500000002,"ADDRESS":"永大五路３５號六樓","OBJECTID":487375},"geometry":{"x":174208.8200000003,"y":2546721.9499999993}},{"attributes":{"ID":487401,"DIS_CODE":0,"TOWNNAME":"永康區","LI":"永康里","LIN":"42鄰","STREET":"永大五路","SECT":" ","MAREA":" ","LANE":" ","ALLEY":" ","HOUSE_NO":"１５９號","E_COORD97":174074.88,"N_COORD97":2546590.1200000001,"ADDRESS":"永大五路１５９號","OBJECTID":487376},"geometry":{"x":174074.88000000082,"y":2546590.120000001}},{"attributes":{"ID":487402,"DIS_CODE":0,"TOWNNAME":"永康區","LI":"永康里","LIN":"42鄰","STREET":"永忠路","SECT":" ","MAREA":" ","LANE":" ","ALLEY":" ","HOUSE_NO":"１５３號","E_COORD97":174147.09,"N_COORD97":2546682.7400000002,"ADDRESS":"永忠路１５３號","OBJECTID":487377},"geometry":{"x":174147.08999999985,"y":2546682.7400000002}},{"attributes":{"ID":487403,"DIS_CODE":0,"TOWNNAME":"永康區","LI":"永康里","LIN":"42鄰","STREET":"永大五路","SECT":" ","MAREA":" ","LANE":" ","ALLEY":" ","HOUSE_NO":"１４１號","E_COORD97":174089.63,"N_COORD97":2546625.1299999999,"ADDRESS":"永大五路１４１號","OBJECTID":487378},"geometry":{"x":174089.63000000175,"y":2546625.129999999}},{"attributes":{"ID":487404,"DIS_CODE":0,"TOWNNAME":"永康區","LI":"永康里","LIN":"42鄰","STREET":"永大五路","SECT":" ","MAREA":" ","LANE":" ","ALLEY":" ","HOUSE_NO":"１２７號","E_COORD97":174101.23000000001,"N_COORD97":2546652.6299999999,"ADDRESS":"永大五路１２７號","OBJECTID":487379},"geometry":{"x":174101.22999999952,"y":2546652.629999999}},{"attributes":{"ID":487405,"DIS_CODE":0,"TOWNNAME":"永康區","LI":"永康里","LIN":"42鄰","STREET":"永大五路","SECT":" ","MAREA":" ","LANE":" ","ALLEY":" ","HOUSE_NO":"１１９號","E_COORD97":174114.32999999999,"N_COORD97":2546671.9900000002,"ADDRESS":"永大五路１１９號","OBJECTID":487380},"geometry":{"x":174114.33000000101,"y":2546671.9900000002}},{"attributes":{"ID":487406,"DIS_CODE":0,"TOWNNAME":"永康區","LI":"永康里","LIN":"42鄰","STREET":"永大五路","SECT":" ","MAREA":" ","LANE":" ","ALLEY":" ","HOUSE_NO":"１３５號","E_COORD97":174094.5,"N_COORD97":2546636.8799999999,"ADDRESS":"永大五路１３５號","OBJECTID":487381},"geometry":{"x":174094.50000000093,"y":2546636.879999999}},{"attributes":{"ID":487407,"DIS_CODE":0,"TOWNNAME":"永康區","LI":"永康里","LIN":"42鄰","STREET":"永忠路","SECT":" ","MAREA":" ","LANE":" ","ALLEY":" ","HOUSE_NO":"６９號","E_COORD97":174193.31,"N_COORD97":2546515.25,"ADDRESS":"永忠路６９號","OBJECTID":487382},"geometry":{"x":174193.31000000052,"y":2546515.2500000019}},{"attributes":{"ID":487408,"DIS_CODE":0,"TOWNNAME":"永康區","LI":"永康里","LIN":"42鄰","STREET":"永大五路","SECT":" ","MAREA":" ","LANE":" ","ALLEY":" ","HOUSE_NO":"１２１號","E_COORD97":174111.31,"N_COORD97":2546668.7400000002,"ADDRESS":"永大五路１２１號","OBJECTID":487383},"geometry":{"x":174111.30999999959,"y":2546668.7400000021}},{"attributes":{"ID":487409,"DIS_CODE":0,"TOWNNAME":"永康區","LI":"永康里","LIN":"42鄰","STREET":"永大五路","SECT":" ","MAREA":" ","LANE":" ","ALLEY":" ","HOUSE_NO":"１２３號","E_COORD97":174108.62,"N_COORD97":2546665.4900000002,"ADDRESS":"永大五路１２３號","OBJECTID":487384},"geometry":{"x":174108.62000000104,"y":2546665.4899999984}},{"attributes":{"ID":487410,"DIS_CODE":0,"TOWNNAME":"永康區","LI":"永康里","LIN":"42鄰","STREET":"永信路","SECT":" ","MAREA":" ","LANE":" ","ALLEY":" ","HOUSE_NO":"５３號","E_COORD97":174112.39000000001,"N_COORD97":2546452.3599999999,"ADDRESS":"永信路５３號","OBJECTID":487385},"geometry":{"x":174112.38999999966,"y":2546452.3600000013}},{"attributes":{"ID":487411,"DIS_CODE":0,"TOWNNAME":"歸仁區","LI":"後市里","LIN":"42鄰","STREET":"國光街","SECT":" ","MAREA":" ","LANE":" ","ALLEY":" ","HOUSE_NO":"４６號","E_COORD97":177096.69,"N_COORD97":2540944.7400000002,"ADDRESS":"國光街４６號","OBJECTID":487386},"geometry":{"x":177096.69000000041,"y":2540944.7400000021}},{"attributes":{"ID":487412,"DIS_CODE":0,"TOWNNAME":"歸仁區","LI":"南保里","LIN":"42鄰","STREET":"保興二街","SECT":" ","MAREA":" ","LANE":" ","ALLEY":" ","HOUSE_NO":"１２號","E_COORD97":176543.67000000001,"N_COORD97":2540991.25,"ADDRESS":"保興二街１２號","OBJECTID":487387},"geometry":{"x":176543.66999999993,"y":2540991.25}},{"attributes":{"ID":487413,"DIS_CODE":0,"TOWNNAME":"歸仁區","LI":"南保里","LIN":"46鄰","STREET":"大順街","SECT":" ","MAREA":" ","LANE":" ","ALLEY":" ","HOUSE_NO":"２０６號","E_COORD97":176838.17000000001,"N_COORD97":2540614.25,"ADDRESS":"大順街２０６號","OBJECTID":487388},"geometry":{"x":176838.16999999993,"y":2540614.25}},{"attributes":{"ID":487414,"DIS_CODE":0,"TOWNNAME":"歸仁區","LI":"辜厝里","LIN":"46鄰","STREET":"中正南路","SECT":"一段","MAREA":" ","LANE":" ","ALLEY":" ","HOUSE_NO":"３２０號","E_COORD97":177160.23999999999,"N_COORD97":2540230.9500000002,"ADDRESS":"中正南路一段３２０號","OBJECTID":487389},"geometry":{"x":177160.24000000022,"y":2540230.9500000011}},{"attributes":{"ID":487415,"DIS_CODE":0,"TOWNNAME":"歸仁區","LI":"後市里","LIN":"46鄰","STREET":"民權三街","SECT":" ","MAREA":" ","LANE":" ","ALLEY":" ","HOUSE_NO":"２５號","E_COORD97":177217.63,"N_COORD97":2541091.75,"ADDRESS":"民權三街２５號","OBJECTID":487390},"geometry":{"x":177217.63000000082,"y":2541091.75}},{"attributes":{"ID":487416,"DIS_CODE":0,"TOWNNAME":"歸仁區","LI":"南保里","LIN":"46鄰","STREET":"大順街","SECT":" ","MAREA":" ","LANE":" ","ALLEY":" ","HOUSE_NO":"２３０號","E_COORD97":176781.76999999999,"N_COORD97":2540616.25,"ADDRESS":"大順街２３０號","OBJECTID":487391},"geometry":{"x":176781.76999999862,"y":2540616.2500000019}},{"attributes":{"ID":487417,"DIS_CODE":0,"TOWNNAME":"歸仁區","LI":"辜厝里","LIN":"46鄰","STREET":"中正南路","SECT":"一段","MAREA":" ","LANE":" ","ALLEY":" ","HOUSE_NO":"３２８號","E_COORD97":177145.94,"N_COORD97":2540221.9500000002,"ADDRESS":"中正南路一段３２８號","OBJECTID":487392},"geometry":{"x":177145.94000000041,"y":2540221.9499999993}},{"attributes":{"ID":487418,"DIS_CODE":0,"TOWNNAME":"歸仁區","LI":"辜厝里","LIN":"46鄰","STREET":"中正南路","SECT":"一段","MAREA":" ","LANE":" ","ALLEY":" ","HOUSE_NO":"３３６號","E_COORD97":177131.44,"N_COORD97":2540211.9500000002,"ADDRESS":"中正南路一段３３６號","OBJECTID":487393},"geometry":{"x":177131.44000000134,"y":2540211.9499999993}},{"attributes":{"ID":487419,"DIS_CODE":0,"TOWNNAME":"歸仁區","LI":"辜厝里","LIN":"46鄰","STREET":"中正八街","SECT":" ","MAREA":" ","LANE":" ","ALLEY":" ","HOUSE_NO":"１號","E_COORD97":177150.14000000001,"N_COORD97":2540253.9500000002,"ADDRESS":"中正八街１號","OBJECTID":487394},"geometry":{"x":177150.13999999966,"y":2540253.950000003}},{"attributes":{"ID":487420,"DIS_CODE":0,"TOWNNAME":"歸仁區","LI":"辜厝里","LIN":"46鄰","STREET":"中正南路","SECT":"一段","MAREA":" ","LANE":" ","ALLEY":" ","HOUSE_NO":"３３０號","E_COORD97":177141.73999999999,"N_COORD97":2540217.9500000002,"ADDRESS":"中正南路一段３３０號","OBJECTID":487395},"geometry":{"x":177141.74000000022,"y":2540217.9500000011}},{"attributes":{"ID":487421,"DIS_CODE":0,"TOWNNAME":"仁德區","LI":"仁義里","LIN":"46鄰","STREET":"仁義路","SECT":" ","MAREA":" ","LANE":" ","ALLEY":" ","HOUSE_NO":"１２４號","E_COORD97":173681.48000000001,"N_COORD97":2540962.77,"ADDRESS":"仁義路１２４號","OBJECTID":487396},"geometry":{"x":173681.48000000138,"y":2540962.7699999996}},{"attributes":{"ID":487422,"DIS_CODE":0,"TOWNNAME":"永康區","LI":"崑山里","LIN":"46鄰","STREET":"國光五街","SECT":" ","MAREA":" ","LANE":" ","ALLEY":" ","HOUSE_NO":"３６號","E_COORD97":174155.76999999999,"N_COORD97":2545089.25,"ADDRESS":"國光五街３６號","OBJECTID":487397},"geometry":{"x":174155.76999999955,"y":2545089.25}},{"attributes":{"ID":487423,"DIS_CODE":0,"TOWNNAME":"永康區","LI":"崑山里","LIN":"46鄰","STREET":"國光五街","SECT":" ","MAREA":" ","LANE":" ","ALLEY":" ","HOUSE_NO":"４４號","E_COORD97":174138.98000000001,"N_COORD97":2545094.75,"ADDRESS":"國光五街４４號","OBJECTID":487398},"geometry":{"x":174138.98000000138,"y":2545094.7500000019}},{"attributes":{"ID":487424,"DIS_CODE":0,"TOWNNAME":"永康區","LI":"崑山里","LIN":"46鄰","STREET":"國光五街","SECT":" ","MAREA":" ","LANE":" ","ALLEY":" ","HOUSE_NO":"４６號","E_COORD97":174134.72,"N_COORD97":2545096.25,"ADDRESS":"國光五街４６號","OBJECTID":487399},"geometry":{"x":174134.72000000067,"y":2545096.25}},{"attributes":{"ID":487425,"DIS_CODE":0,"TOWNNAME":"仁德區","LI":"成功里","LIN":"46鄰","STREET":"文賢路","SECT":"一段","MAREA":" ","LANE":" ","ALLEY":" ","HOUSE_NO":"１０３號","E_COORD97":170342.75,"N_COORD97":2538140.8300000001,"ADDRESS":"文賢路一段１０３號","OBJECTID":487400},"geometry":{"x":170342.75000000093,"y":2538140.8300000019}}]}