{"displayFieldName":"TOWNNAME","fieldAliases":{"ID":"ID","DIS_CODE":"DIS_CODE","TOWNNAME":"TOWNNAME","LI":"LI","LIN":"LIN","STREET":"STREET","SECT":"SECT","MAREA":"MAREA","LANE":"LANE","ALLEY":"ALLEY","HOUSE_NO":"HOUSE_NO","E_COORD97":"E_COORD97","N_COORD97":"N_COORD97","ADDRESS":"ADDRESS","OBJECTID":"OBJECTID"},"geometryType":"esriGeometryPoint","spatialReference":{"wkid":102443,"latestWkid":3826},"fields":[{"name":"ID","type":"esriFieldTypeDouble","alias":"ID"},{"name":"DIS_CODE","type":"esriFieldTypeInteger","alias":"DIS_CODE"},{"name":"TOWNNAME","type":"esriFieldTypeString","alias":"TOWNNAME","length":8},{"name":"LI","type":"esriFieldTypeString","alias":"LI","length":8},{"name":"LIN","type":"esriFieldTypeString","alias":"LIN","length":12},{"name":"STREET","type":"esriFieldTypeString","alias":"STREET","length":20},{"name":"SECT","type":"esriFieldTypeString","alias":"SECT","length":8},{"name":"MAREA","type":"esriFieldTypeString","alias":"MAREA","length":12},{"name":"LANE","type":"esriFieldTypeString","alias":"LANE","length":10},{"name":"ALLEY","type":"esriFieldTypeString","alias":"ALLEY","length":10},{"name":"HOUSE_NO","type":"esriFieldTypeString","alias":"HOUSE_NO","length":20},{"name":"E_COORD97","type":"esriFieldTypeDouble","alias":"E_COORD97"},{"name":"N_COORD97","type":"esriFieldTypeDouble","alias":"N_COORD97"},{"name":"ADDRESS","type":"esriFieldTypeString","alias":"ADDRESS","length":50},{"name":"OBJECTID","type":"esriFieldTypeOID","alias":"OBJECTID"}],"features":[{"attributes":{"ID":192802,"DIS_CODE":0,"TOWNNAME":"柳營區","LI":"篤農里","LIN":"15鄰","STREET":" ","SECT":" ","MAREA":"小腳腿","LANE":" ","ALLEY":" ","HOUSE_NO":"３１８號","E_COORD97":185564.98999999999,"N_COORD97":2576621.9500000002,"ADDRESS":"小腳腿３１８號","OBJECTID":192801},"geometry":{"x":185564.99000000022,"y":2576621.9499999993}},{"attributes":{"ID":192803,"DIS_CODE":0,"TOWNNAME":"柳營區","LI":"篤農里","LIN":"15鄰","STREET":" ","SECT":" ","MAREA":"小腳腿","LANE":" ","ALLEY":" ","HOUSE_NO":"３１９號之１","E_COORD97":185548.57999999999,"N_COORD97":2576605.8300000001,"ADDRESS":"小腳腿３１９號之１","OBJECTID":192802},"geometry":{"x":185548.58000000101,"y":2576605.8300000001}},{"attributes":{"ID":192804,"DIS_CODE":0,"TOWNNAME":"柳營區","LI":"篤農里","LIN":"15鄰","STREET":" ","SECT":" ","MAREA":"小腳腿","LANE":" ","ALLEY":" ","HOUSE_NO":"３２０號","E_COORD97":185541.57000000001,"N_COORD97":2576648.2999999998,"ADDRESS":"小腳腿３２０號","OBJECTID":192803},"geometry":{"x":185541.57000000123,"y":2576648.3000000007}},{"attributes":{"ID":192805,"DIS_CODE":0,"TOWNNAME":"下營區","LI":"新興里","LIN":"1鄰","STREET":"新北街","SECT":" ","MAREA":" ","LANE":" ","ALLEY":" ","HOUSE_NO":"１３５號","E_COORD97":175147.32470299999,"N_COORD97":2571086.0931000002,"ADDRESS":"新北街１３５號","OBJECTID":192804},"geometry":{"x":175147.32470300049,"y":2571086.093104003}},{"attributes":{"ID":192806,"DIS_CODE":0,"TOWNNAME":"柳營區","LI":"篤農里","LIN":"15鄰","STREET":" ","SECT":" ","MAREA":"小腳腿","LANE":" ","ALLEY":" ","HOUSE_NO":"３２３號之１","E_COORD97":185525.81,"N_COORD97":2576656.8700000001,"ADDRESS":"小腳腿３２３號之１","OBJECTID":192805},"geometry":{"x":185525.81000000052,"y":2576656.8700000029}},{"attributes":{"ID":192807,"DIS_CODE":0,"TOWNNAME":"柳營區","LI":"篤農里","LIN":"15鄰","STREET":" ","SECT":" ","MAREA":"小腳腿","LANE":" ","ALLEY":" ","HOUSE_NO":"３２３號之２","E_COORD97":185520.42999999999,"N_COORD97":2576657.9300000002,"ADDRESS":"小腳腿３２３號之２","OBJECTID":192806},"geometry":{"x":185520.43000000063,"y":2576657.9300000016}},{"attributes":{"ID":192808,"DIS_CODE":0,"TOWNNAME":"柳營區","LI":"篤農里","LIN":"15鄰","STREET":" ","SECT":" ","MAREA":"小腳腿","LANE":" ","ALLEY":" ","HOUSE_NO":"３２３號之３","E_COORD97":185515.35999999999,"N_COORD97":2576659.3399999999,"ADDRESS":"小腳腿３２３號之３","OBJECTID":192807},"geometry":{"x":185515.36000000034,"y":2576659.3399999999}},{"attributes":{"ID":192809,"DIS_CODE":0,"TOWNNAME":"柳營區","LI":"篤農里","LIN":"15鄰","STREET":" ","SECT":" ","MAREA":"小腳腿","LANE":" ","ALLEY":" ","HOUSE_NO":"３２３號之５","E_COORD97":185510.81,"N_COORD97":2576660.02,"ADDRESS":"小腳腿３２３號之５","OBJECTID":192808},"geometry":{"x":185510.81000000052,"y":2576660.0200000014}},{"attributes":{"ID":192810,"DIS_CODE":0,"TOWNNAME":"柳營區","LI":"篤農里","LIN":"15鄰","STREET":" ","SECT":" ","MAREA":"小腳腿","LANE":" ","ALLEY":" ","HOUSE_NO":"３２３號","E_COORD97":185529.51999999999,"N_COORD97":2576648.1200000001,"ADDRESS":"小腳腿３２３號","OBJECTID":192809},"geometry":{"x":185529.52000000048,"y":2576648.1200000029}},{"attributes":{"ID":192811,"DIS_CODE":0,"TOWNNAME":"東山區","LI":"大客里","LIN":"15鄰","STREET":" ","SECT":" ","MAREA":"凹子\u25A0","LANE":" ","ALLEY":" ","HOUSE_NO":"１８號之１","E_COORD97":191564.39999999999,"N_COORD97":2579154.3300000001,"ADDRESS":"凹子\u25A0１８號之１","OBJECTID":192810},"geometry":{"x":191564.4000000013,"y":2579154.3300000019}},{"attributes":{"ID":192812,"DIS_CODE":0,"TOWNNAME":"東山區","LI":"大客里","LIN":"15鄰","STREET":" ","SECT":" ","MAREA":"凹子\u25A0","LANE":" ","ALLEY":" ","HOUSE_NO":"１８號之２","E_COORD97":191560.91,"N_COORD97":2579161.2200000002,"ADDRESS":"凹子\u25A0１８號之２","OBJECTID":192811},"geometry":{"x":191560.91000000108,"y":2579161.2200000044}},{"attributes":{"ID":192813,"DIS_CODE":0,"TOWNNAME":"東山區","LI":"大客里","LIN":"15鄰","STREET":" ","SECT":" ","MAREA":"凹子\u25A0","LANE":" ","ALLEY":" ","HOUSE_NO":"１８號之３","E_COORD97":191556.60999999999,"N_COORD97":2579171.9100000001,"ADDRESS":"凹子\u25A0１８號之３","OBJECTID":192812},"geometry":{"x":191556.61000000034,"y":2579171.9100000001}},{"attributes":{"ID":192814,"DIS_CODE":0,"TOWNNAME":"東山區","LI":"大客里","LIN":"15鄰","STREET":" ","SECT":" ","MAREA":"凹子\u25A0","LANE":" ","ALLEY":" ","HOUSE_NO":"２０號之１","E_COORD97":191330.60999999999,"N_COORD97":2579275.8599999999,"ADDRESS":"凹子\u25A0２０號之１","OBJECTID":192813},"geometry":{"x":191330.61000000127,"y":2579275.8600000013}},{"attributes":{"ID":192815,"DIS_CODE":0,"TOWNNAME":"東山區","LI":"大客里","LIN":"15鄰","STREET":" ","SECT":" ","MAREA":"凹子\u25A0","LANE":" ","ALLEY":" ","HOUSE_NO":"２０號之２","E_COORD97":191343.60000000001,"N_COORD97":2579300.3199999998,"ADDRESS":"凹子\u25A0２０號之２","OBJECTID":192814},"geometry":{"x":191343.60000000056,"y":2579300.3200000022}},{"attributes":{"ID":192816,"DIS_CODE":0,"TOWNNAME":"東山區","LI":"大客里","LIN":"15鄰","STREET":" ","SECT":" ","MAREA":"凹子\u25A0","LANE":" ","ALLEY":" ","HOUSE_NO":"２０號","E_COORD97":191327.41,"N_COORD97":2579284.27,"ADDRESS":"凹子\u25A0２０號","OBJECTID":192815},"geometry":{"x":191327.41000000015,"y":2579284.2699999996}},{"attributes":{"ID":192817,"DIS_CODE":0,"TOWNNAME":"東山區","LI":"大客里","LIN":"15鄰","STREET":" ","SECT":" ","MAREA":"凹子\u25A0","LANE":" ","ALLEY":" ","HOUSE_NO":"２２號之３","E_COORD97":191348.14999999999,"N_COORD97":2579287,"ADDRESS":"凹子\u25A0２２號之３","OBJECTID":192816},"geometry":{"x":191348.15000000037,"y":2579287}},{"attributes":{"ID":192818,"DIS_CODE":0,"TOWNNAME":"西港區","LI":"劉厝里","LIN":"15鄰","STREET":" ","SECT":" ","MAREA":"蚶西港","LANE":" ","ALLEY":" ","HOUSE_NO":"１１之２號","E_COORD97":165992.14999999999,"N_COORD97":2559236.1400000001,"ADDRESS":"蚶西港１１之２號","OBJECTID":192817},"geometry":{"x":165992.1500000013,"y":2559236.1400000006}},{"attributes":{"ID":192819,"DIS_CODE":0,"TOWNNAME":"後壁區","LI":"福安里","LIN":"15鄰","STREET":" ","SECT":" ","MAREA":"下寮","LANE":" ","ALLEY":" ","HOUSE_NO":"１６９號之２","E_COORD97":183879.12,"N_COORD97":2580987.3199999998,"ADDRESS":"下寮１６９號之２","OBJECTID":192818},"geometry":{"x":183879.12000000011,"y":2580987.3200000003}},{"attributes":{"ID":192820,"DIS_CODE":0,"TOWNNAME":"麻豆區","LI":"油車里","LIN":"15鄰","STREET":" ","SECT":" ","MAREA":"油車","LANE":" ","ALLEY":" ","HOUSE_NO":"１１９之２號","E_COORD97":172301.22,"N_COORD97":2565664.73,"ADDRESS":"油車１１９之２號","OBJECTID":192819},"geometry":{"x":172301.21999999974,"y":2565664.7300000023}},{"attributes":{"ID":192821,"DIS_CODE":0,"TOWNNAME":"楠西區","LI":"密枝里","LIN":"3鄰","STREET":" ","SECT":" ","MAREA":"密枝","LANE":" ","ALLEY":" ","HOUSE_NO":"３０號","E_COORD97":200194.97,"N_COORD97":2566841.2799999998,"ADDRESS":"密枝３０號","OBJECTID":192820},"geometry":{"x":200194.97000000067,"y":2566841.2799999993}},{"attributes":{"ID":192822,"DIS_CODE":0,"TOWNNAME":"楠西區","LI":"鹿田里","LIN":"3鄰","STREET":" ","SECT":" ","MAREA":"鹿陶洋","LANE":" ","ALLEY":" ","HOUSE_NO":"３３號之２","E_COORD97":197761.59,"N_COORD97":2561525.2999999998,"ADDRESS":"鹿陶洋３３號之２","OBJECTID":192821},"geometry":{"x":197761.59000000078,"y":2561525.3000000026}},{"attributes":{"ID":192823,"DIS_CODE":0,"TOWNNAME":"楠西區","LI":"龜丹里","LIN":"3鄰","STREET":" ","SECT":" ","MAREA":"龜丹","LANE":" ","ALLEY":" ","HOUSE_NO":"３９號","E_COORD97":198210.94,"N_COORD97":2559290.25,"ADDRESS":"龜丹３９號","OBJECTID":192822},"geometry":{"x":198210.94000000134,"y":2559290.2500000019}},{"attributes":{"ID":192824,"DIS_CODE":0,"TOWNNAME":"楠西區","LI":"龜丹里","LIN":"3鄰","STREET":" ","SECT":" ","MAREA":"龜丹","LANE":" ","ALLEY":" ","HOUSE_NO":"３６號之１","E_COORD97":198063.88,"N_COORD97":2559132.2999999998,"ADDRESS":"龜丹３６號之１","OBJECTID":192823},"geometry":{"x":198063.87999999989,"y":2559132.3000000007}},{"attributes":{"ID":192825,"DIS_CODE":0,"TOWNNAME":"楠西區","LI":"灣丘里","LIN":"3鄰","STREET":" ","SECT":" ","MAREA":"灣丘","LANE":" ","ALLEY":" ","HOUSE_NO":"３１號","E_COORD97":199952.67000000001,"N_COORD97":2563968.25,"ADDRESS":"灣丘３１號","OBJECTID":192824},"geometry":{"x":199952.66999999899,"y":2563968.2500000037}},{"attributes":{"ID":192826,"DIS_CODE":0,"TOWNNAME":"楠西區","LI":"龜丹里","LIN":"3鄰","STREET":" ","SECT":" ","MAREA":"龜丹","LANE":" ","ALLEY":" ","HOUSE_NO":"３６號之２","E_COORD97":198061.20999999999,"N_COORD97":2559141.2999999998,"ADDRESS":"龜丹３６號之２","OBJECTID":192825},"geometry":{"x":198061.21000000089,"y":2559141.3000000026}},{"attributes":{"ID":192827,"DIS_CODE":0,"TOWNNAME":"楠西區","LI":"龜丹里","LIN":"3鄰","STREET":" ","SECT":" ","MAREA":"龜丹","LANE":" ","ALLEY":" ","HOUSE_NO":"３６號之３","E_COORD97":198059.87,"N_COORD97":2559147.2999999998,"ADDRESS":"龜丹３６號之３","OBJECTID":192826},"geometry":{"x":198059.87000000197,"y":2559147.2999999989}},{"attributes":{"ID":192828,"DIS_CODE":0,"TOWNNAME":"楠西區","LI":"龜丹里","LIN":"3鄰","STREET":" ","SECT":" ","MAREA":"龜丹","LANE":" ","ALLEY":" ","HOUSE_NO":"３４號","E_COORD97":198046.14000000001,"N_COORD97":2559153.25,"ADDRESS":"龜丹３４號","OBJECTID":192827},"geometry":{"x":198046.1400000006,"y":2559153.25}},{"attributes":{"ID":192829,"DIS_CODE":0,"TOWNNAME":"楠西區","LI":"灣丘里","LIN":"3鄰","STREET":" ","SECT":" ","MAREA":"灣丘","LANE":" ","ALLEY":" ","HOUSE_NO":"２１號","E_COORD97":199605.76999999999,"N_COORD97":2564030.25,"ADDRESS":"灣丘２１號","OBJECTID":192828},"geometry":{"x":199605.76999999862,"y":2564030.2500000019}},{"attributes":{"ID":192830,"DIS_CODE":0,"TOWNNAME":"楠西區","LI":"龜丹里","LIN":"3鄰","STREET":" ","SECT":" ","MAREA":"龜丹","LANE":" ","ALLEY":" ","HOUSE_NO":"３６號之４","E_COORD97":198058.20000000001,"N_COORD97":2559152.2999999998,"ADDRESS":"龜丹３６號之４","OBJECTID":192829},"geometry":{"x":198058.20000000112,"y":2559152.3000000026}},{"attributes":{"ID":192831,"DIS_CODE":0,"TOWNNAME":"楠西區","LI":"灣丘里","LIN":"3鄰","STREET":" ","SECT":" ","MAREA":"灣丘","LANE":" ","ALLEY":" ","HOUSE_NO":"２９號","E_COORD97":199851.37,"N_COORD97":2564018.25,"ADDRESS":"灣丘２９號","OBJECTID":192830},"geometry":{"x":199851.37000000011,"y":2564018.25}},{"attributes":{"ID":192832,"DIS_CODE":0,"TOWNNAME":"楠西區","LI":"龜丹里","LIN":"3鄰","STREET":" ","SECT":" ","MAREA":"龜丹","LANE":" ","ALLEY":" ","HOUSE_NO":"３９號之５","E_COORD97":198174.92999999999,"N_COORD97":2559301.2999999998,"ADDRESS":"龜丹３９號之５","OBJECTID":192831},"geometry":{"x":198174.93000000063,"y":2559301.3000000026}},{"attributes":{"ID":192833,"DIS_CODE":0,"TOWNNAME":"楠西區","LI":"灣丘里","LIN":"3鄰","STREET":" ","SECT":" ","MAREA":"灣丘","LANE":" ","ALLEY":" ","HOUSE_NO":"２２號","E_COORD97":199602.26999999999,"N_COORD97":2564049.25,"ADDRESS":"灣丘２２號","OBJECTID":192832},"geometry":{"x":199602.26999999955,"y":2564049.2499999981}},{"attributes":{"ID":192834,"DIS_CODE":0,"TOWNNAME":"楠西區","LI":"灣丘里","LIN":"3鄰","STREET":" ","SECT":" ","MAREA":"灣丘","LANE":" ","ALLEY":" ","HOUSE_NO":"２７號","E_COORD97":199674.87,"N_COORD97":2564028.25,"ADDRESS":"灣丘２７號","OBJECTID":192833},"geometry":{"x":199674.87000000011,"y":2564028.25}},{"attributes":{"ID":192835,"DIS_CODE":0,"TOWNNAME":"楠西區","LI":"灣丘里","LIN":"3鄰","STREET":" ","SECT":" ","MAREA":"灣丘","LANE":" ","ALLEY":" ","HOUSE_NO":"２５號","E_COORD97":199632.07000000001,"N_COORD97":2564064.2400000002,"ADDRESS":"灣丘２５號","OBJECTID":192834},"geometry":{"x":199632.07000000123,"y":2564064.2400000021}},{"attributes":{"ID":192836,"DIS_CODE":0,"TOWNNAME":"楠西區","LI":"密枝里","LIN":"3鄰","STREET":" ","SECT":" ","MAREA":"密枝","LANE":" ","ALLEY":" ","HOUSE_NO":"２５號之１５","E_COORD97":200021.41,"N_COORD97":2566848.2999999998,"ADDRESS":"密枝２５號之１５","OBJECTID":192835},"geometry":{"x":200021.41000000108,"y":2566848.3000000026}},{"attributes":{"ID":192837,"DIS_CODE":0,"TOWNNAME":"安南區","LI":"海南里","LIN":"5鄰","STREET":"府安路","SECT":"六段","MAREA":" ","LANE":"１０３巷","ALLEY":"５５弄","HOUSE_NO":"１９號","E_COORD97":166639.84,"N_COORD97":2546589.6000000001,"ADDRESS":"府安路六段１０３巷５５弄１９號","OBJECTID":192836},"geometry":{"x":166639.84000000078,"y":2546589.6000000034}},{"attributes":{"ID":192838,"DIS_CODE":0,"TOWNNAME":"安南區","LI":"海南里","LIN":"5鄰","STREET":"府安路","SECT":"六段","MAREA":" ","LANE":"１０３巷","ALLEY":"５５弄","HOUSE_NO":"２０號","E_COORD97":166634.70000000001,"N_COORD97":2546607.3999999999,"ADDRESS":"府安路六段１０３巷５５弄２０號","OBJECTID":192837},"geometry":{"x":166634.70000000112,"y":2546607.4000000004}},{"attributes":{"ID":192839,"DIS_CODE":0,"TOWNNAME":"安南區","LI":"海南里","LIN":"5鄰","STREET":"府安路","SECT":"六段","MAREA":" ","LANE":"１０３巷","ALLEY":"５５弄","HOUSE_NO":"２１號","E_COORD97":166631.64000000001,"N_COORD97":2546587.2999999998,"ADDRESS":"府安路六段１０３巷５５弄２１號","OBJECTID":192838},"geometry":{"x":166631.63999999966,"y":2546587.3000000026}},{"attributes":{"ID":192840,"DIS_CODE":0,"TOWNNAME":"楠西區","LI":"鹿田里","LIN":"3鄰","STREET":" ","SECT":" ","MAREA":"鹿陶洋","LANE":" ","ALLEY":" ","HOUSE_NO":"３９號之１","E_COORD97":197715.75,"N_COORD97":2561589.2999999998,"ADDRESS":"鹿陶洋３９號之１","OBJECTID":192839},"geometry":{"x":197715.75,"y":2561589.3000000026}},{"attributes":{"ID":192841,"DIS_CODE":0,"TOWNNAME":"東區","LI":"虎尾里","LIN":"5鄰","STREET":"富農街","SECT":"一段","MAREA":" ","LANE":"４８巷","ALLEY":"１２弄","HOUSE_NO":"２號","E_COORD97":171600.07999999999,"N_COORD97":2542125.2400000002,"ADDRESS":"富農街一段４８巷１２弄２號","OBJECTID":192840},"geometry":{"x":171600.08000000101,"y":2542125.2400000021}},{"attributes":{"ID":192842,"DIS_CODE":0,"TOWNNAME":"安南區","LI":"海南里","LIN":"5鄰","STREET":"府安路","SECT":"六段","MAREA":" ","LANE":"１０３巷","ALLEY":"５５弄","HOUSE_NO":"２２號","E_COORD97":166628.26000000001,"N_COORD97":2546606.0899999999,"ADDRESS":"府安路六段１０３巷５５弄２２號","OBJECTID":192841},"geometry":{"x":166628.26000000071,"y":2546606.0899999999}},{"attributes":{"ID":192843,"DIS_CODE":0,"TOWNNAME":"安南區","LI":"海南里","LIN":"5鄰","STREET":"府安路","SECT":"六段","MAREA":" ","LANE":"１０３巷","ALLEY":"５５弄","HOUSE_NO":"２３號","E_COORD97":166627.04999999999,"N_COORD97":2546585.8900000001,"ADDRESS":"府安路六段１０３巷５５弄２３號","OBJECTID":192842},"geometry":{"x":166627.04999999981,"y":2546585.8900000025}},{"attributes":{"ID":192844,"DIS_CODE":0,"TOWNNAME":"安南區","LI":"海南里","LIN":"5鄰","STREET":"府安路","SECT":"六段","MAREA":" ","LANE":"１０３巷","ALLEY":"５５弄","HOUSE_NO":"２４號","E_COORD97":166622.35000000001,"N_COORD97":2546603.4700000002,"ADDRESS":"府安路六段１０３巷５５弄２４號","OBJECTID":192843},"geometry":{"x":166622.35000000056,"y":2546603.4700000025}},{"attributes":{"ID":192845,"DIS_CODE":0,"TOWNNAME":"安南區","LI":"海南里","LIN":"5鄰","STREET":"府安路","SECT":"六段","MAREA":" ","LANE":"１０３巷","ALLEY":"５５弄","HOUSE_NO":"２５號","E_COORD97":166618.85999999999,"N_COORD97":2546583.9199999999,"ADDRESS":"府安路六段１０３巷５５弄２５號","OBJECTID":192844},"geometry":{"x":166618.86000000034,"y":2546583.9199999999}},{"attributes":{"ID":192846,"DIS_CODE":0,"TOWNNAME":"安南區","LI":"海南里","LIN":"5鄰","STREET":"府安路","SECT":"六段","MAREA":" ","LANE":"１０３巷","ALLEY":"５５弄","HOUSE_NO":"２６號","E_COORD97":166614.04999999999,"N_COORD97":2546602.48,"ADDRESS":"府安路六段１０３巷５５弄２６號","OBJECTID":192845},"geometry":{"x":166614.04999999981,"y":2546602.4800000023}},{"attributes":{"ID":192847,"DIS_CODE":0,"TOWNNAME":"安南區","LI":"海南里","LIN":"5鄰","STREET":"府安路","SECT":"六段","MAREA":" ","LANE":"１０３巷","ALLEY":"５５弄","HOUSE_NO":"２７號","E_COORD97":166612.51999999999,"N_COORD97":2546581.4100000001,"ADDRESS":"府安路六段１０３巷５５弄２７號","OBJECTID":192846},"geometry":{"x":166612.52000000142,"y":2546581.4100000039}},{"attributes":{"ID":192848,"DIS_CODE":0,"TOWNNAME":"安南區","LI":"海南里","LIN":"5鄰","STREET":"府安路","SECT":"六段","MAREA":" ","LANE":"１０３巷","ALLEY":"５５弄","HOUSE_NO":"２８號","E_COORD97":166608.14999999999,"N_COORD97":2546599.8599999999,"ADDRESS":"府安路六段１０３巷５５弄２８號","OBJECTID":192847},"geometry":{"x":166608.1500000013,"y":2546599.8599999994}},{"attributes":{"ID":192849,"DIS_CODE":0,"TOWNNAME":"安南區","LI":"海南里","LIN":"5鄰","STREET":"府安路","SECT":"六段","MAREA":" ","LANE":"１０３巷","ALLEY":"５５弄","HOUSE_NO":"２９號","E_COORD97":166604.42999999999,"N_COORD97":2546580.54,"ADDRESS":"府安路六段１０３巷５５弄２９號","OBJECTID":192848},"geometry":{"x":166604.4299999997,"y":2546580.540000001}},{"attributes":{"ID":192850,"DIS_CODE":0,"TOWNNAME":"安南區","LI":"海南里","LIN":"5鄰","STREET":"府安路","SECT":"六段","MAREA":" ","LANE":"１０３巷","ALLEY":"５５弄","HOUSE_NO":"２號","E_COORD97":166682.37,"N_COORD97":2546617.27,"ADDRESS":"府安路六段１０３巷５５弄２號","OBJECTID":192849},"geometry":{"x":166682.37000000104,"y":2546617.2700000014}},{"attributes":{"ID":192851,"DIS_CODE":0,"TOWNNAME":"安南區","LI":"海南里","LIN":"5鄰","STREET":"府安路","SECT":"六段","MAREA":" ","LANE":"１０３巷","ALLEY":"５５弄","HOUSE_NO":"３０號","E_COORD97":166600.82000000001,"N_COORD97":2546596.5899999999,"ADDRESS":"府安路六段１０３巷５５弄３０號","OBJECTID":192850},"geometry":{"x":166600.8200000003,"y":2546596.589999998}},{"attributes":{"ID":192852,"DIS_CODE":0,"TOWNNAME":"安南區","LI":"海南里","LIN":"5鄰","STREET":"府安路","SECT":"六段","MAREA":" ","LANE":"１０３巷","ALLEY":"５５弄","HOUSE_NO":"３１號","E_COORD97":166598.64000000001,"N_COORD97":2546577.48,"ADDRESS":"府安路六段１０３巷５５弄３１號","OBJECTID":192851},"geometry":{"x":166598.6400000006,"y":2546577.4800000004}},{"attributes":{"ID":192853,"DIS_CODE":0,"TOWNNAME":"安南區","LI":"海南里","LIN":"5鄰","STREET":"府安路","SECT":"六段","MAREA":" ","LANE":"１０３巷","ALLEY":"５５弄","HOUSE_NO":"３２號","E_COORD97":166595.14000000001,"N_COORD97":2546594.8399999999,"ADDRESS":"府安路六段１０３巷５５弄３２號","OBJECTID":192852},"geometry":{"x":166595.1400000006,"y":2546594.839999998}},{"attributes":{"ID":192854,"DIS_CODE":0,"TOWNNAME":"安南區","LI":"海南里","LIN":"5鄰","STREET":"府安路","SECT":"六段","MAREA":" ","LANE":"１０３巷","ALLEY":"５５弄","HOUSE_NO":"３３號","E_COORD97":166591.42999999999,"N_COORD97":2546576.3900000001,"ADDRESS":"府安路六段１０３巷５５弄３３號","OBJECTID":192853},"geometry":{"x":166591.43000000063,"y":2546576.3900000025}},{"attributes":{"ID":192855,"DIS_CODE":0,"TOWNNAME":"安南區","LI":"海南里","LIN":"5鄰","STREET":"府安路","SECT":"六段","MAREA":" ","LANE":"１０３巷","ALLEY":"５５弄","HOUSE_NO":"３４號","E_COORD97":166587.04999999999,"N_COORD97":2546593.8599999999,"ADDRESS":"府安路六段１０３巷５５弄３４號","OBJECTID":192854},"geometry":{"x":166587.05000000168,"y":2546593.8599999994}},{"attributes":{"ID":192856,"DIS_CODE":0,"TOWNNAME":"安南區","LI":"海南里","LIN":"5鄰","STREET":"府安路","SECT":"六段","MAREA":" ","LANE":"１０３巷","ALLEY":"５５弄","HOUSE_NO":"３５號","E_COORD97":166585.95999999999,"N_COORD97":2546574.8599999999,"ADDRESS":"府安路六段１０３巷５５弄３５號","OBJECTID":192855},"geometry":{"x":166585.95999999996,"y":2546574.8600000013}},{"attributes":{"ID":192857,"DIS_CODE":0,"TOWNNAME":"東區","LI":"崇誨里","LIN":"5鄰","STREET":"林森路","SECT":"二段","MAREA":" ","LANE":"１９２巷","ALLEY":"２４弄","HOUSE_NO":"６５號之１","E_COORD97":170603.54000000001,"N_COORD97":2543202.4500000002,"ADDRESS":"林森路二段１９２巷２４弄６５號之１","OBJECTID":192856},"geometry":{"x":170603.54000000097,"y":2543202.4499999993}},{"attributes":{"ID":192858,"DIS_CODE":0,"TOWNNAME":"東區","LI":"崇誨里","LIN":"5鄰","STREET":"林森路","SECT":"二段","MAREA":" ","LANE":"１９２巷","ALLEY":"２４弄","HOUSE_NO":"６７號","E_COORD97":170604.32000000001,"N_COORD97":2543196.52,"ADDRESS":"林森路二段１９２巷２４弄６７號","OBJECTID":192857},"geometry":{"x":170604.3200000003,"y":2543196.5200000033}},{"attributes":{"ID":192859,"DIS_CODE":0,"TOWNNAME":"東區","LI":"崇誨里","LIN":"5鄰","STREET":"林森路","SECT":"二段","MAREA":" ","LANE":"１９２巷","ALLEY":"２４弄","HOUSE_NO":"６９號","E_COORD97":170605.75,"N_COORD97":2543188.6600000001,"ADDRESS":"林森路二段１９２巷２４弄６９號","OBJECTID":192858},"geometry":{"x":170605.75000000093,"y":2543188.6600000001}},{"attributes":{"ID":192860,"DIS_CODE":0,"TOWNNAME":"東區","LI":"崇誨里","LIN":"5鄰","STREET":"林森路","SECT":"二段","MAREA":" ","LANE":"１９２巷","ALLEY":"２４弄","HOUSE_NO":"７１號","E_COORD97":170606.95999999999,"N_COORD97":2543182.6299999999,"ADDRESS":"林森路二段１９２巷２４弄７１號","OBJECTID":192859},"geometry":{"x":170606.95999999996,"y":2543182.6300000008}},{"attributes":{"ID":192861,"DIS_CODE":0,"TOWNNAME":"東區","LI":"崇誨里","LIN":"5鄰","STREET":"林森路","SECT":"二段","MAREA":" ","LANE":"１９２巷","ALLEY":"２４弄","HOUSE_NO":"７３號","E_COORD97":170613,"N_COORD97":2543172.9700000002,"ADDRESS":"林森路二段１９２巷２４弄７３號","OBJECTID":192860},"geometry":{"x":170613,"y":2543172.9700000007}},{"attributes":{"ID":192862,"DIS_CODE":0,"TOWNNAME":"東區","LI":"崇誨里","LIN":"5鄰","STREET":"林森路","SECT":"二段","MAREA":" ","LANE":"１９２巷","ALLEY":"２４弄","HOUSE_NO":"７５號","E_COORD97":170620.59,"N_COORD97":2543175.3300000001,"ADDRESS":"林森路二段１９２巷２４弄７５號","OBJECTID":192861},"geometry":{"x":170620.58999999985,"y":2543175.3300000019}},{"attributes":{"ID":192863,"DIS_CODE":0,"TOWNNAME":"安南區","LI":"海西里","LIN":"15鄰","STREET":"海環街","SECT":" ","MAREA":" ","LANE":" ","ALLEY":" ","HOUSE_NO":"３６６號","E_COORD97":166140.12,"N_COORD97":2548952.7200000002,"ADDRESS":"海環街３６６號","OBJECTID":192862},"geometry":{"x":166140.12000000104,"y":2548952.7200000007}},{"attributes":{"ID":192864,"DIS_CODE":0,"TOWNNAME":"東區","LI":"崇誨里","LIN":"5鄰","STREET":"林森路","SECT":"二段","MAREA":" ","LANE":"１９２巷","ALLEY":"２４弄","HOUSE_NO":"７７號","E_COORD97":170628.51999999999,"N_COORD97":2543177.0099999998,"ADDRESS":"林森路二段１９２巷２４弄７７號","OBJECTID":192863},"geometry":{"x":170628.52000000048,"y":2543177.0100000016}},{"attributes":{"ID":192865,"DIS_CODE":0,"TOWNNAME":"東區","LI":"崇誨里","LIN":"5鄰","STREET":"林森路","SECT":"二段","MAREA":" ","LANE":"１９２巷","ALLEY":"２４弄","HOUSE_NO":"７９號","E_COORD97":170635.60000000001,"N_COORD97":2543178.3599999999,"ADDRESS":"林森路二段１９２巷２４弄７９號","OBJECTID":192864},"geometry":{"x":170635.59999999963,"y":2543178.3600000013}},{"attributes":{"ID":192866,"DIS_CODE":0,"TOWNNAME":"東區","LI":"虎尾里","LIN":"5鄰","STREET":"富農街","SECT":"一段","MAREA":" ","LANE":"４８巷","ALLEY":"１２弄","HOUSE_NO":"１０號","E_COORD97":171602.98000000001,"N_COORD97":2542110.3900000001,"ADDRESS":"富農街一段４８巷１２弄１０號","OBJECTID":192865},"geometry":{"x":171602.98000000138,"y":2542110.3900000025}},{"attributes":{"ID":192867,"DIS_CODE":0,"TOWNNAME":"東區","LI":"虎尾里","LIN":"5鄰","STREET":"富農街","SECT":"一段","MAREA":" ","LANE":"４８巷","ALLEY":"１２弄","HOUSE_NO":"１號","E_COORD97":171615.62,"N_COORD97":2542129.1600000001,"ADDRESS":"富農街一段４８巷１２弄１號","OBJECTID":192866},"geometry":{"x":171615.62000000104,"y":2542129.160000002}},{"attributes":{"ID":192868,"DIS_CODE":0,"TOWNNAME":"新化區","LI":"崙頂里","LIN":"1鄰","STREET":" ","SECT":" ","MAREA":"崙子頂","LANE":" ","ALLEY":" ","HOUSE_NO":"６２號","E_COORD97":176953.38,"N_COORD97":2546713.25,"ADDRESS":"崙子頂６２號","OBJECTID":192867},"geometry":{"x":176953.38000000082,"y":2546713.25}},{"attributes":{"ID":192869,"DIS_CODE":0,"TOWNNAME":"新化區","LI":"羊林里","LIN":"6鄰","STREET":" ","SECT":" ","MAREA":"\u25A0拔林","LANE":" ","ALLEY":" ","HOUSE_NO":"４８２號","E_COORD97":183549.12,"N_COORD97":2551711.25,"ADDRESS":"\u25A0拔林４８２號","OBJECTID":192868},"geometry":{"x":183549.12000000197,"y":2551711.25}},{"attributes":{"ID":192870,"DIS_CODE":0,"TOWNNAME":"東區","LI":"虎尾里","LIN":"5鄰","STREET":"富農街","SECT":"一段","MAREA":" ","LANE":"４８巷","ALLEY":"１２弄","HOUSE_NO":"３號","E_COORD97":171615.28,"N_COORD97":2542124.73,"ADDRESS":"富農街一段４８巷１２弄３號","OBJECTID":192869},"geometry":{"x":171615.28000000026,"y":2542124.7300000042}},{"attributes":{"ID":192871,"DIS_CODE":0,"TOWNNAME":"東區","LI":"虎尾里","LIN":"5鄰","STREET":"富農街","SECT":"一段","MAREA":" ","LANE":"４８巷","ALLEY":"１２弄","HOUSE_NO":"４號","E_COORD97":171600.42000000001,"N_COORD97":2542121.6600000001,"ADDRESS":"富農街一段４８巷１２弄４號","OBJECTID":192870},"geometry":{"x":171600.41999999993,"y":2542121.660000002}},{"attributes":{"ID":192872,"DIS_CODE":0,"TOWNNAME":"東區","LI":"虎尾里","LIN":"5鄰","STREET":"富農街","SECT":"一段","MAREA":" ","LANE":"４８巷","ALLEY":"１２弄","HOUSE_NO":"５號","E_COORD97":171616.48000000001,"N_COORD97":2542121.6600000001,"ADDRESS":"富農街一段４８巷１２弄５號","OBJECTID":192871},"geometry":{"x":171616.48000000138,"y":2542121.660000002}},{"attributes":{"ID":192873,"DIS_CODE":0,"TOWNNAME":"東區","LI":"虎尾里","LIN":"5鄰","STREET":"富農街","SECT":"一段","MAREA":" ","LANE":"４８巷","ALLEY":"１２弄","HOUSE_NO":"６號","E_COORD97":171601.10000000001,"N_COORD97":2542117.8999999999,"ADDRESS":"富農街一段４８巷１２弄６號","OBJECTID":192872},"geometry":{"x":171601.10000000056,"y":2542117.9000000022}},{"attributes":{"ID":192874,"DIS_CODE":0,"TOWNNAME":"東區","LI":"虎尾里","LIN":"5鄰","STREET":"富農街","SECT":"一段","MAREA":" ","LANE":"４８巷","ALLEY":"１２弄","HOUSE_NO":"７號","E_COORD97":171617.16,"N_COORD97":2542118.2400000002,"ADDRESS":"富農街一段４８巷１２弄７號","OBJECTID":192873},"geometry":{"x":171617.16000000108,"y":2542118.2400000021}},{"attributes":{"ID":192875,"DIS_CODE":0,"TOWNNAME":"東區","LI":"虎尾里","LIN":"5鄰","STREET":"富農街","SECT":"一段","MAREA":" ","LANE":"４８巷","ALLEY":"１２弄","HOUSE_NO":"８號","E_COORD97":171601.62,"N_COORD97":2542113.98,"ADDRESS":"富農街一段４８巷１２弄８號","OBJECTID":192874},"geometry":{"x":171601.62000000104,"y":2542113.9800000023}},{"attributes":{"ID":192876,"DIS_CODE":0,"TOWNNAME":"東區","LI":"東安里","LIN":"5鄰","STREET":"長榮路","SECT":"二段","MAREA":" ","LANE":"３２巷","ALLEY":"４６弄","HOUSE_NO":"２０號之１","E_COORD97":170069.06,"N_COORD97":2543072.96,"ADDRESS":"長榮路二段３２巷４６弄２０號之１","OBJECTID":192875},"geometry":{"x":170069.06000000052,"y":2543072.9600000046}},{"attributes":{"ID":192877,"DIS_CODE":0,"TOWNNAME":"東區","LI":"新東里","LIN":"5鄰","STREET":"衛國街","SECT":" ","MAREA":" ","LANE":"１０６巷","ALLEY":"５弄","HOUSE_NO":"１１號","E_COORD97":170423.78,"N_COORD97":2543058.6099999999,"ADDRESS":"衛國街１０６巷５弄１１號","OBJECTID":192876},"geometry":{"x":170423.77999999933,"y":2543058.6099999994}},{"attributes":{"ID":192878,"DIS_CODE":0,"TOWNNAME":"東區","LI":"新東里","LIN":"5鄰","STREET":"衛國街","SECT":" ","MAREA":" ","LANE":"１０６巷","ALLEY":"５弄","HOUSE_NO":"１３號","E_COORD97":170427.35000000001,"N_COORD97":2543059.3500000001,"ADDRESS":"衛國街１０６巷５弄１３號","OBJECTID":192877},"geometry":{"x":170427.34999999963,"y":2543059.3500000015}},{"attributes":{"ID":192879,"DIS_CODE":0,"TOWNNAME":"東區","LI":"新東里","LIN":"5鄰","STREET":"衛國街","SECT":" ","MAREA":" ","LANE":"１０６巷","ALLEY":"５弄","HOUSE_NO":"１５號","E_COORD97":170431.37,"N_COORD97":2543059.6899999999,"ADDRESS":"衛國街１０６巷５弄１５號","OBJECTID":192878},"geometry":{"x":170431.37000000011,"y":2543059.6900000032}},{"attributes":{"ID":192880,"DIS_CODE":0,"TOWNNAME":"東區","LI":"新東里","LIN":"5鄰","STREET":"衛國街","SECT":" ","MAREA":" ","LANE":"１０６巷","ALLEY":"５弄","HOUSE_NO":"１７號","E_COORD97":170436.28,"N_COORD97":2543059.9100000001,"ADDRESS":"衛國街１０６巷５弄１７號","OBJECTID":192879},"geometry":{"x":170436.28000000119,"y":2543059.910000002}},{"attributes":{"ID":192881,"DIS_CODE":0,"TOWNNAME":"東區","LI":"新東里","LIN":"5鄰","STREET":"衛國街","SECT":" ","MAREA":" ","LANE":"１０６巷","ALLEY":"５弄","HOUSE_NO":"１９號","E_COORD97":170440.75,"N_COORD97":2543059.9100000001,"ADDRESS":"衛國街１０６巷５弄１９號","OBJECTID":192880},"geometry":{"x":170440.75000000186,"y":2543059.910000002}},{"attributes":{"ID":192882,"DIS_CODE":0,"TOWNNAME":"東區","LI":"新東里","LIN":"5鄰","STREET":"衛國街","SECT":" ","MAREA":" ","LANE":"１０６巷","ALLEY":"５弄","HOUSE_NO":"１號","E_COORD97":170396.22,"N_COORD97":2543051.2000000002,"ADDRESS":"衛國街１０６巷５弄１號","OBJECTID":192881},"geometry":{"x":170396.21999999974,"y":2543051.1999999993}},{"attributes":{"ID":192883,"DIS_CODE":0,"TOWNNAME":"新化區","LI":"礁坑里","LIN":"12鄰","STREET":" ","SECT":" ","MAREA":"茄冬坑","LANE":" ","ALLEY":" ","HOUSE_NO":"７號","E_COORD97":183897.01999999999,"N_COORD97":2548406.25,"ADDRESS":"茄冬坑７號","OBJECTID":192882},"geometry":{"x":183897.02000000048,"y":2548406.2500000037}},{"attributes":{"ID":192884,"DIS_CODE":0,"TOWNNAME":"新化區","LI":"全興里","LIN":"10鄰","STREET":" ","SECT":" ","MAREA":"竹子\u25A0","LANE":" ","ALLEY":" ","HOUSE_NO":"１５８號之２","E_COORD97":177491.09,"N_COORD97":2547506.2599999998,"ADDRESS":"竹子\u25A0１５８號之２","OBJECTID":192883},"geometry":{"x":177491.09000000078,"y":2547506.2599999998}},{"attributes":{"ID":192885,"DIS_CODE":0,"TOWNNAME":"東區","LI":"新東里","LIN":"5鄰","STREET":"衛國街","SECT":" ","MAREA":" ","LANE":"１０６巷","ALLEY":"５弄","HOUSE_NO":"２１號","E_COORD97":170444.88,"N_COORD97":2543059.9100000001,"ADDRESS":"衛國街１０６巷５弄２１號","OBJECTID":192884},"geometry":{"x":170444.88000000175,"y":2543059.910000002}},{"attributes":{"ID":192886,"DIS_CODE":0,"TOWNNAME":"東區","LI":"新東里","LIN":"5鄰","STREET":"衛國街","SECT":" ","MAREA":" ","LANE":"１０６巷","ALLEY":"５弄","HOUSE_NO":"２３號","E_COORD97":170448.67000000001,"N_COORD97":2543060.1299999999,"ADDRESS":"衛國街１０６巷５弄２３號","OBJECTID":192885},"geometry":{"x":170448.67000000086,"y":2543060.1300000008}},{"attributes":{"ID":192887,"DIS_CODE":0,"TOWNNAME":"東區","LI":"新東里","LIN":"5鄰","STREET":"衛國街","SECT":" ","MAREA":" ","LANE":"１０６巷","ALLEY":"５弄","HOUSE_NO":"２５號","E_COORD97":170452.57999999999,"N_COORD97":2543060.3599999999,"ADDRESS":"衛國街１０６巷５弄２５號","OBJECTID":192886},"geometry":{"x":170452.58000000101,"y":2543060.3599999994}},{"attributes":{"ID":192888,"DIS_CODE":0,"TOWNNAME":"東區","LI":"新東里","LIN":"5鄰","STREET":"衛國街","SECT":" ","MAREA":" ","LANE":"１０６巷","ALLEY":"５弄","HOUSE_NO":"２５號之１","E_COORD97":170455.60000000001,"N_COORD97":2543059.9100000001,"ADDRESS":"衛國街１０６巷５弄２５號之１","OBJECTID":192887},"geometry":{"x":170455.60000000056,"y":2543059.910000002}},{"attributes":{"ID":192889,"DIS_CODE":0,"TOWNNAME":"東區","LI":"新東里","LIN":"5鄰","STREET":"衛國街","SECT":" ","MAREA":" ","LANE":"１０６巷","ALLEY":"５弄","HOUSE_NO":"２７號","E_COORD97":170459.73000000001,"N_COORD97":2543061.0299999998,"ADDRESS":"衛國街１０６巷５弄２７號","OBJECTID":192888},"geometry":{"x":170459.73000000045,"y":2543061.0300000012}},{"attributes":{"ID":192890,"DIS_CODE":0,"TOWNNAME":"東區","LI":"新東里","LIN":"5鄰","STREET":"衛國街","SECT":" ","MAREA":" ","LANE":"１０６巷","ALLEY":"５弄","HOUSE_NO":"２９號","E_COORD97":170465.42000000001,"N_COORD97":2543061.0299999998,"ADDRESS":"衛國街１０６巷５弄２９號","OBJECTID":192889},"geometry":{"x":170465.42000000086,"y":2543061.0300000012}},{"attributes":{"ID":192891,"DIS_CODE":0,"TOWNNAME":"東區","LI":"新東里","LIN":"5鄰","STREET":"衛國街","SECT":" ","MAREA":" ","LANE":"１０６巷","ALLEY":"５弄","HOUSE_NO":"３１號","E_COORD97":170472.35000000001,"N_COORD97":2543061.9199999999,"ADDRESS":"衛國街１０６巷５弄３１號","OBJECTID":192890},"geometry":{"x":170472.35000000056,"y":2543061.9200000037}},{"attributes":{"ID":192892,"DIS_CODE":0,"TOWNNAME":"東區","LI":"新東里","LIN":"5鄰","STREET":"衛國街","SECT":" ","MAREA":" ","LANE":"１０６巷","ALLEY":"５弄","HOUSE_NO":"３３號","E_COORD97":170480,"N_COORD97":2543062.1400000001,"ADDRESS":"衛國街１０６巷５弄３３號","OBJECTID":192891},"geometry":{"x":170480.00000000093,"y":2543062.1400000025}},{"attributes":{"ID":192893,"DIS_CODE":0,"TOWNNAME":"新化區","LI":"全興里","LIN":"11鄰","STREET":" ","SECT":" ","MAREA":"竹子\u25A0","LANE":" ","ALLEY":" ","HOUSE_NO":"２５８號","E_COORD97":178817.53,"N_COORD97":2546971.25,"ADDRESS":"竹子\u25A0２５８號","OBJECTID":192892},"geometry":{"x":178817.53000000119,"y":2546971.25}},{"attributes":{"ID":192894,"DIS_CODE":0,"TOWNNAME":"新化區","LI":"崙頂里","LIN":"11鄰","STREET":" ","SECT":" ","MAREA":"崙子頂","LANE":" ","ALLEY":" ","HOUSE_NO":"４２８號之１","E_COORD97":177074.06,"N_COORD97":2546978.2599999998,"ADDRESS":"崙子頂４２８號之１","OBJECTID":192893},"geometry":{"x":177074.06000000052,"y":2546978.2599999998}},{"attributes":{"ID":192895,"DIS_CODE":0,"TOWNNAME":"新化區","LI":"全興里","LIN":"20鄰","STREET":" ","SECT":" ","MAREA":"竹子\u25A0","LANE":" ","ALLEY":" ","HOUSE_NO":"２４７號之３４６","E_COORD97":178430.67999999999,"N_COORD97":2546675.2599999998,"ADDRESS":"竹子\u25A0２４７號之３４６","OBJECTID":192894},"geometry":{"x":178430.68000000063,"y":2546675.2599999998}},{"attributes":{"ID":192896,"DIS_CODE":0,"TOWNNAME":"新化區","LI":"全興里","LIN":"8鄰","STREET":" ","SECT":" ","MAREA":"竹子\u25A0","LANE":" ","ALLEY":" ","HOUSE_NO":"１００號之７","E_COORD97":177257.78,"N_COORD97":2547917.2599999998,"ADDRESS":"竹子\u25A0１００號之７","OBJECTID":192895},"geometry":{"x":177257.78000000119,"y":2547917.2599999998}},{"attributes":{"ID":192897,"DIS_CODE":0,"TOWNNAME":"新化區","LI":"崙頂里","LIN":"1鄰","STREET":" ","SECT":" ","MAREA":"崙子頂","LANE":" ","ALLEY":" ","HOUSE_NO":"４８號","E_COORD97":176971.07999999999,"N_COORD97":2546605.25,"ADDRESS":"崙子頂４８號","OBJECTID":192896},"geometry":{"x":176971.08000000007,"y":2546605.25}},{"attributes":{"ID":192898,"DIS_CODE":0,"TOWNNAME":"東區","LI":"新東里","LIN":"5鄰","STREET":"衛國街","SECT":" ","MAREA":" ","LANE":"１０６巷","ALLEY":"５弄","HOUSE_NO":"３５號","E_COORD97":170487.14000000001,"N_COORD97":2543061.7000000002,"ADDRESS":"衛國街１０６巷５弄３５號","OBJECTID":192897},"geometry":{"x":170487.1400000006,"y":2543061.6999999993}},{"attributes":{"ID":192899,"DIS_CODE":0,"TOWNNAME":"新化區","LI":"崙頂里","LIN":"1鄰","STREET":" ","SECT":" ","MAREA":"崙子頂","LANE":" ","ALLEY":" ","HOUSE_NO":"５４號之１","E_COORD97":176904.01000000001,"N_COORD97":2546569.2599999998,"ADDRESS":"崙子頂５４號之１","OBJECTID":192898},"geometry":{"x":176904.00999999978,"y":2546569.2600000016}},{"attributes":{"ID":192900,"DIS_CODE":0,"TOWNNAME":"東區","LI":"新東里","LIN":"5鄰","STREET":"衛國街","SECT":" ","MAREA":" ","LANE":"１０６巷","ALLEY":"５弄","HOUSE_NO":"３號","E_COORD97":170405.39999999999,"N_COORD97":2543053.0600000001,"ADDRESS":"衛國街１０６巷５弄３號","OBJECTID":192899},"geometry":{"x":170405.4000000013,"y":2543053.0600000005}},{"attributes":{"ID":192901,"DIS_CODE":0,"TOWNNAME":"楠西區","LI":"鹿田里","LIN":"3鄰","STREET":" ","SECT":" ","MAREA":"鹿陶洋","LANE":" ","ALLEY":" ","HOUSE_NO":"３６號之１","E_COORD97":197769.95000000001,"N_COORD97":2561563.2999999998,"ADDRESS":"鹿陶洋３６號之１","OBJECTID":192900},"geometry":{"x":197769.95000000112,"y":2561563.3000000007}},{"attributes":{"ID":192902,"DIS_CODE":0,"TOWNNAME":"東區","LI":"新東里","LIN":"5鄰","STREET":"衛國街","SECT":" ","MAREA":" ","LANE":"１０６巷","ALLEY":"５弄","HOUSE_NO":"４３號","E_COORD97":170519.42000000001,"N_COORD97":2543051.6600000001,"ADDRESS":"衛國街１０６巷５弄４３號","OBJECTID":192901},"geometry":{"x":170519.42000000086,"y":2543051.660000002}},{"attributes":{"ID":192903,"DIS_CODE":0,"TOWNNAME":"東區","LI":"新東里","LIN":"5鄰","STREET":"衛國街","SECT":" ","MAREA":" ","LANE":"１０６巷","ALLEY":"５弄","HOUSE_NO":"４７號","E_COORD97":170542.57999999999,"N_COORD97":2543054.8900000001,"ADDRESS":"衛國街１０６巷５弄４７號","OBJECTID":192902},"geometry":{"x":170542.58000000101,"y":2543054.8900000006}},{"attributes":{"ID":192904,"DIS_CODE":0,"TOWNNAME":"東區","LI":"新東里","LIN":"5鄰","STREET":"衛國街","SECT":" ","MAREA":" ","LANE":"１０６巷","ALLEY":"５弄","HOUSE_NO":"５３號","E_COORD97":170549.73000000001,"N_COORD97":2543055.23,"ADDRESS":"衛國街１０６巷５弄５３號","OBJECTID":192903},"geometry":{"x":170549.73000000045,"y":2543055.2300000004}},{"attributes":{"ID":192905,"DIS_CODE":0,"TOWNNAME":"東區","LI":"新東里","LIN":"5鄰","STREET":"衛國街","SECT":" ","MAREA":" ","LANE":"１０６巷","ALLEY":"５弄","HOUSE_NO":"５７號","E_COORD97":170576.31,"N_COORD97":2543057.5699999998,"ADDRESS":"衛國街１０６巷５弄５７號","OBJECTID":192904},"geometry":{"x":170576.31000000052,"y":2543057.5699999984}},{"attributes":{"ID":192906,"DIS_CODE":0,"TOWNNAME":"東區","LI":"新東里","LIN":"5鄰","STREET":"衛國街","SECT":" ","MAREA":" ","LANE":"１０６巷","ALLEY":"５弄","HOUSE_NO":"５９號","E_COORD97":170586.47,"N_COORD97":2543057.8999999999,"ADDRESS":"衛國街１０６巷５弄５９號","OBJECTID":192905},"geometry":{"x":170586.4700000016,"y":2543057.9000000004}},{"attributes":{"ID":192907,"DIS_CODE":0,"TOWNNAME":"楠西區","LI":"鹿田里","LIN":"3鄰","STREET":" ","SECT":" ","MAREA":"鹿陶洋","LANE":" ","ALLEY":" ","HOUSE_NO":"８１號","E_COORD97":197758.92000000001,"N_COORD97":2561611.25,"ADDRESS":"鹿陶洋８１號","OBJECTID":192906},"geometry":{"x":197758.91999999993,"y":2561611.25}},{"attributes":{"ID":192908,"DIS_CODE":0,"TOWNNAME":"東區","LI":"新東里","LIN":"5鄰","STREET":"衛國街","SECT":" ","MAREA":" ","LANE":"１０６巷","ALLEY":"５弄","HOUSE_NO":"５號","E_COORD97":170410.85000000001,"N_COORD97":2543057.9300000002,"ADDRESS":"衛國街１０６巷５弄５號","OBJECTID":192907},"geometry":{"x":170410.85000000149,"y":2543057.9299999978}},{"attributes":{"ID":192909,"DIS_CODE":0,"TOWNNAME":"東區","LI":"新東里","LIN":"5鄰","STREET":"衛國街","SECT":" ","MAREA":" ","LANE":"１０６巷","ALLEY":"５弄","HOUSE_NO":"６１號","E_COORD97":170593.5,"N_COORD97":2543059.5800000001,"ADDRESS":"衛國街１０６巷５弄６１號","OBJECTID":192908},"geometry":{"x":170593.50000000093,"y":2543059.5800000001}},{"attributes":{"ID":192910,"DIS_CODE":0,"TOWNNAME":"楠西區","LI":"鹿田里","LIN":"3鄰","STREET":" ","SECT":" ","MAREA":"鹿陶洋","LANE":" ","ALLEY":" ","HOUSE_NO":"３１號之１","E_COORD97":197714.25,"N_COORD97":2561582.2999999998,"ADDRESS":"鹿陶洋３１號之１","OBJECTID":192909},"geometry":{"x":197714.25,"y":2561582.3000000026}},{"attributes":{"ID":192911,"DIS_CODE":0,"TOWNNAME":"楠西區","LI":"鹿田里","LIN":"3鄰","STREET":" ","SECT":" ","MAREA":"鹿陶洋","LANE":" ","ALLEY":" ","HOUSE_NO":"３１號","E_COORD97":197715.32000000001,"N_COORD97":2561563.25,"ADDRESS":"鹿陶洋３１號","OBJECTID":192910},"geometry":{"x":197715.32000000123,"y":2561563.25}},{"attributes":{"ID":192912,"DIS_CODE":0,"TOWNNAME":"新化區","LI":"觀音里","LIN":"7鄰","STREET":"民族街","SECT":" ","MAREA":" ","LANE":" ","ALLEY":" ","HOUSE_NO":"４０號","E_COORD97":178911.45999999999,"N_COORD97":2548600.25,"ADDRESS":"民族街４０號","OBJECTID":192911},"geometry":{"x":178911.45999999996,"y":2548600.2500000019}},{"attributes":{"ID":192913,"DIS_CODE":0,"TOWNNAME":"新化區","LI":"太平里","LIN":"12鄰","STREET":"民權街","SECT":" ","MAREA":" ","LANE":" ","ALLEY":" ","HOUSE_NO":"２２７號","E_COORD97":178766.31,"N_COORD97":2548964.25,"ADDRESS":"民權街２２７號","OBJECTID":192912},"geometry":{"x":178766.30999999959,"y":2548964.25}},{"attributes":{"ID":192914,"DIS_CODE":0,"TOWNNAME":"永康區","LI":"勝利里","LIN":"21鄰","STREET":"勝利街","SECT":" ","MAREA":" ","LANE":" ","ALLEY":" ","HOUSE_NO":"１５２號四樓之１","E_COORD97":171383.75,"N_COORD97":2545055.8599999999,"ADDRESS":"勝利街１５２號四樓之１","OBJECTID":192913},"geometry":{"x":171383.75000000093,"y":2545055.8600000013}},{"attributes":{"ID":192915,"DIS_CODE":0,"TOWNNAME":"新化區","LI":"東榮里","LIN":"22鄰","STREET":"和平街","SECT":" ","MAREA":" ","LANE":" ","ALLEY":" ","HOUSE_NO":"２７號","E_COORD97":179301.07000000001,"N_COORD97":2548162.25,"ADDRESS":"和平街２７號","OBJECTID":192914},"geometry":{"x":179301.0700000003,"y":2548162.2500000037}},{"attributes":{"ID":192916,"DIS_CODE":0,"TOWNNAME":"仁德區","LI":"上崙里","LIN":"25鄰","STREET":"上崙街","SECT":" ","MAREA":" ","LANE":" ","ALLEY":" ","HOUSE_NO":"３８０號","E_COORD97":173053.60000000001,"N_COORD97":2537637.75,"ADDRESS":"上崙街３８０號","OBJECTID":192915},"geometry":{"x":173053.5999999987,"y":2537637.75}},{"attributes":{"ID":192917,"DIS_CODE":0,"TOWNNAME":"東區","LI":"新東里","LIN":"5鄰","STREET":"衛國街","SECT":" ","MAREA":" ","LANE":"１０６巷","ALLEY":"５弄","HOUSE_NO":"６３號","E_COORD97":170600.87,"N_COORD97":2543060.1299999999,"ADDRESS":"衛國街１０６巷５弄６３號","OBJECTID":192916},"geometry":{"x":170600.87000000011,"y":2543060.1300000008}},{"attributes":{"ID":192918,"DIS_CODE":0,"TOWNNAME":"仁德區","LI":"一甲里","LIN":"17鄰","STREET":"中清路","SECT":" ","MAREA":" ","LANE":" ","ALLEY":" ","HOUSE_NO":"２８０號","E_COORD97":173757.73000000001,"N_COORD97":2541811.29,"ADDRESS":"中清路２８０號","OBJECTID":192917},"geometry":{"x":173757.73000000138,"y":2541811.290000001}},{"attributes":{"ID":192919,"DIS_CODE":0,"TOWNNAME":"東區","LI":"新東里","LIN":"5鄰","STREET":"衛國街","SECT":" ","MAREA":" ","LANE":"１０６巷","ALLEY":"５弄","HOUSE_NO":"９號","E_COORD97":170419.31,"N_COORD97":2543058.2200000002,"ADDRESS":"衛國街１０６巷５弄９號","OBJECTID":192918},"geometry":{"x":170419.30999999959,"y":2543058.2200000025}},{"attributes":{"ID":192920,"DIS_CODE":0,"TOWNNAME":"仁德區","LI":"土庫里","LIN":"5鄰","STREET":"土庫三街","SECT":" ","MAREA":" ","LANE":"３９巷","ALLEY":"１３弄","HOUSE_NO":"１８號","E_COORD97":174139.98000000001,"N_COORD97":2543164.9199999999,"ADDRESS":"土庫三街３９巷１３弄１８號","OBJECTID":192919},"geometry":{"x":174139.98000000045,"y":2543164.9200000018}},{"attributes":{"ID":192921,"DIS_CODE":0,"TOWNNAME":"仁德區","LI":"二行里","LIN":"5鄰","STREET":"二行一路","SECT":" ","MAREA":" ","LANE":"７１巷","ALLEY":"１７弄","HOUSE_NO":"８號","E_COORD97":170317.04000000001,"N_COORD97":2535289.9900000002,"ADDRESS":"二行一路７１巷１７弄８號","OBJECTID":192920},"geometry":{"x":170317.04000000097,"y":2535289.9900000002}},{"attributes":{"ID":192922,"DIS_CODE":0,"TOWNNAME":"新化區","LI":"清水里","LIN":"4鄰","STREET":"中山路","SECT":" ","MAREA":" ","LANE":" ","ALLEY":" ","HOUSE_NO":"４４２號之１","E_COORD97":178707.64000000001,"N_COORD97":2548417.2599999998,"ADDRESS":"中山路４４２號之１","OBJECTID":192921},"geometry":{"x":178707.6400000006,"y":2548417.2600000016}},{"attributes":{"ID":192923,"DIS_CODE":0,"TOWNNAME":"仁德區","LI":"二行里","LIN":"5鄰","STREET":"二行一路","SECT":" ","MAREA":" ","LANE":"７１巷","ALLEY":"１７弄","HOUSE_NO":"２號","E_COORD97":170329.48000000001,"N_COORD97":2535292.7400000002,"ADDRESS":"二行一路７１巷１７弄２號","OBJECTID":192922},"geometry":{"x":170329.48000000231,"y":2535292.7400000039}},{"attributes":{"ID":192924,"DIS_CODE":0,"TOWNNAME":"仁德區","LI":"二行里","LIN":"5鄰","STREET":"二行一路","SECT":" ","MAREA":" ","LANE":"７１巷","ALLEY":"１７弄","HOUSE_NO":"１號","E_COORD97":170336.70999999999,"N_COORD97":2535298.2400000002,"ADDRESS":"二行一路７１巷１７弄１號","OBJECTID":192923},"geometry":{"x":170336.71000000089,"y":2535298.2400000002}},{"attributes":{"ID":192925,"DIS_CODE":0,"TOWNNAME":"仁德區","LI":"太子里","LIN":"5鄰","STREET":"太子路","SECT":" ","MAREA":" ","LANE":"１９０巷","ALLEY":"３３弄","HOUSE_NO":"３號","E_COORD97":174296.85999999999,"N_COORD97":2543632.02,"ADDRESS":"太子路１９０巷３３弄３號","OBJECTID":192924},"geometry":{"x":174296.8599999994,"y":2543632.0200000014}},{"attributes":{"ID":192926,"DIS_CODE":0,"TOWNNAME":"仁德區","LI":"太子里","LIN":"5鄰","STREET":"太子路","SECT":" ","MAREA":" ","LANE":"１９０巷","ALLEY":"３３弄","HOUSE_NO":"２５號","E_COORD97":174246.35999999999,"N_COORD97":2543635.77,"ADDRESS":"太子路１９０巷３３弄２５號","OBJECTID":192925},"geometry":{"x":174246.36000000127,"y":2543635.7700000014}},{"attributes":{"ID":192927,"DIS_CODE":0,"TOWNNAME":"仁德區","LI":"太子里","LIN":"5鄰","STREET":"太子路","SECT":" ","MAREA":" ","LANE":"１９０巷","ALLEY":"３３弄","HOUSE_NO":"１８號","E_COORD97":174268.19,"N_COORD97":2543648.54,"ADDRESS":"太子路１９０巷３３弄１８號","OBJECTID":192926},"geometry":{"x":174268.19000000134,"y":2543648.5399999991}},{"attributes":{"ID":192928,"DIS_CODE":0,"TOWNNAME":"仁德區","LI":"仁德里","LIN":"5鄰","STREET":"仁德四街","SECT":" ","MAREA":" ","LANE":"１２巷","ALLEY":"１弄","HOUSE_NO":"２６號","E_COORD97":173176.03,"N_COORD97":2540839.7999999998,"ADDRESS":"仁德四街１２巷１弄２６號","OBJECTID":192927},"geometry":{"x":173176.03000000119,"y":2540839.8000000026}},{"attributes":{"ID":192929,"DIS_CODE":0,"TOWNNAME":"仁德區","LI":"太子里","LIN":"5鄰","STREET":"太子路","SECT":" ","MAREA":" ","LANE":"１９０巷","ALLEY":"３３弄","HOUSE_NO":"７號","E_COORD97":174288.69,"N_COORD97":2543632.27,"ADDRESS":"太子路１９０巷３３弄７號","OBJECTID":192928},"geometry":{"x":174288.69000000134,"y":2543632.2700000033}},{"attributes":{"ID":192930,"DIS_CODE":0,"TOWNNAME":"安南區","LI":"溪心里","LIN":"5鄰","STREET":"本原街","SECT":"二段","MAREA":" ","LANE":"１０６巷","ALLEY":"３６弄","HOUSE_NO":"８號","E_COORD97":166868.84,"N_COORD97":2550845.1699999999,"ADDRESS":"本原街二段１０６巷３６弄８號","OBJECTID":192929},"geometry":{"x":166868.84000000078,"y":2550845.1700000018}},{"attributes":{"ID":192931,"DIS_CODE":0,"TOWNNAME":"安南區","LI":"溪心里","LIN":"5鄰","STREET":"本原街","SECT":"二段","MAREA":" ","LANE":"１０６巷","ALLEY":"３６弄","HOUSE_NO":"１６號","E_COORD97":166871.92000000001,"N_COORD97":2550832.7599999998,"ADDRESS":"本原街二段１０６巷３６弄１６號","OBJECTID":192930},"geometry":{"x":166871.92000000086,"y":2550832.7599999998}},{"attributes":{"ID":192932,"DIS_CODE":0,"TOWNNAME":"安南區","LI":"國安里","LIN":"5鄰","STREET":"國安街","SECT":" ","MAREA":" ","LANE":"１５６巷","ALLEY":"１９５弄","HOUSE_NO":"１號","E_COORD97":166623.79000000001,"N_COORD97":2547493.6200000001,"ADDRESS":"國安街１５６巷１９５弄１號","OBJECTID":192931},"geometry":{"x":166623.79000000097,"y":2547493.6200000029}},{"attributes":{"ID":192933,"DIS_CODE":0,"TOWNNAME":"新化區","LI":"太平里","LIN":"4鄰","STREET":"民生路","SECT":" ","MAREA":" ","LANE":" ","ALLEY":" ","HOUSE_NO":"２０１號","E_COORD97":179095.70999999999,"N_COORD97":2548895.25,"ADDRESS":"民生路２０１號","OBJECTID":192932},"geometry":{"x":179095.71000000089,"y":2548895.2500000019}},{"attributes":{"ID":192934,"DIS_CODE":0,"TOWNNAME":"柳營區","LI":"八翁里","LIN":"3鄰","STREET":" ","SECT":" ","MAREA":"八老爺","LANE":" ","ALLEY":" ","HOUSE_NO":"２９號","E_COORD97":178190.26999999999,"N_COORD97":2574910.96,"ADDRESS":"八老爺２９號","OBJECTID":192933},"geometry":{"x":178190.26999999955,"y":2574910.9600000009}},{"attributes":{"ID":192935,"DIS_CODE":0,"TOWNNAME":"新化區","LI":"全興里","LIN":"20鄰","STREET":" ","SECT":" ","MAREA":"竹子\u25A0","LANE":" ","ALLEY":" ","HOUSE_NO":"２４７號之３３４","E_COORD97":178474.47,"N_COORD97":2546673.2599999998,"ADDRESS":"竹子\u25A0２４７號之３３４","OBJECTID":192934},"geometry":{"x":178474.47000000067,"y":2546673.2599999979}},{"attributes":{"ID":192936,"DIS_CODE":0,"TOWNNAME":"新化區","LI":"全興里","LIN":"20鄰","STREET":" ","SECT":" ","MAREA":"竹子\u25A0","LANE":" ","ALLEY":" ","HOUSE_NO":"２４７號之３４８","E_COORD97":178425.98999999999,"N_COORD97":2546675.2599999998,"ADDRESS":"竹子\u25A0２４７號之３４８","OBJECTID":192935},"geometry":{"x":178425.99000000115,"y":2546675.2599999998}},{"attributes":{"ID":192937,"DIS_CODE":0,"TOWNNAME":"新化區","LI":"全興里","LIN":"17鄰","STREET":" ","SECT":" ","MAREA":"竹子\u25A0","LANE":" ","ALLEY":" ","HOUSE_NO":"２４７號之３４９","E_COORD97":178309.28,"N_COORD97":2546701.2599999998,"ADDRESS":"竹子\u25A0２４７號之３４９","OBJECTID":192936},"geometry":{"x":178309.28000000026,"y":2546701.2600000016}},{"attributes":{"ID":192938,"DIS_CODE":0,"TOWNNAME":"新化區","LI":"唪口里","LIN":"8鄰","STREET":" ","SECT":" ","MAREA":"唪口","LANE":" ","ALLEY":" ","HOUSE_NO":"９３號","E_COORD97":177956.39999999999,"N_COORD97":2549115.25,"ADDRESS":"唪口９３號","OBJECTID":192937},"geometry":{"x":177956.40000000037,"y":2549115.2500000019}},{"attributes":{"ID":192939,"DIS_CODE":0,"TOWNNAME":"新化區","LI":"武安里","LIN":"14鄰","STREET":"健康路","SECT":" ","MAREA":" ","LANE":" ","ALLEY":" ","HOUSE_NO":"６７號","E_COORD97":178838.57999999999,"N_COORD97":2548105.2599999998,"ADDRESS":"健康路６７號","OBJECTID":192938},"geometry":{"x":178838.58000000101,"y":2548105.2600000016}},{"attributes":{"ID":192940,"DIS_CODE":0,"TOWNNAME":"新化區","LI":"武安里","LIN":"6鄰","STREET":"信義路","SECT":" ","MAREA":" ","LANE":" ","ALLEY":" ","HOUSE_NO":"２４７號之１","E_COORD97":179058.76000000001,"N_COORD97":2548308.2599999998,"ADDRESS":"信義路２４７號之１","OBJECTID":192939},"geometry":{"x":179058.76000000164,"y":2548308.2600000016}},{"attributes":{"ID":192941,"DIS_CODE":0,"TOWNNAME":"永康區","LI":"勝利里","LIN":"21鄰","STREET":"勝利街","SECT":" ","MAREA":" ","LANE":" ","ALLEY":" ","HOUSE_NO":"１５２號五樓之８","E_COORD97":171383.89000000001,"N_COORD97":2545055.8599999999,"ADDRESS":"勝利街１５２號五樓之８","OBJECTID":192940},"geometry":{"x":171383.8900000006,"y":2545055.8600000013}},{"attributes":{"ID":192942,"DIS_CODE":0,"TOWNNAME":"永康區","LI":"勝利里","LIN":"21鄰","STREET":"勝利街","SECT":" ","MAREA":" ","LANE":" ","ALLEY":" ","HOUSE_NO":"１５３號四樓之７","E_COORD97":171360.98000000001,"N_COORD97":2545016.46,"ADDRESS":"勝利街１５３號四樓之７","OBJECTID":192941},"geometry":{"x":171360.98000000138,"y":2545016.4600000028}},{"attributes":{"ID":192943,"DIS_CODE":0,"TOWNNAME":"安南區","LI":"國安里","LIN":"5鄰","STREET":"國安街","SECT":" ","MAREA":" ","LANE":"１５６巷","ALLEY":"１９５弄","HOUSE_NO":"２號","E_COORD97":166619.64000000001,"N_COORD97":2547517.6200000001,"ADDRESS":"國安街１５６巷１９５弄２號","OBJECTID":192942},"geometry":{"x":166619.63999999966,"y":2547517.6200000029}},{"attributes":{"ID":192944,"DIS_CODE":0,"TOWNNAME":"安南區","LI":"國安里","LIN":"5鄰","STREET":"國安街","SECT":" ","MAREA":" ","LANE":"１５６巷","ALLEY":"１９５弄","HOUSE_NO":"３號","E_COORD97":166617.97,"N_COORD97":2547492.46,"ADDRESS":"國安街１５６巷１９５弄３號","OBJECTID":192943},"geometry":{"x":166617.96999999881,"y":2547492.4600000009}},{"attributes":{"ID":192945,"DIS_CODE":0,"TOWNNAME":"安南區","LI":"國安里","LIN":"5鄰","STREET":"國安街","SECT":" ","MAREA":" ","LANE":"１５６巷","ALLEY":"１９５弄","HOUSE_NO":"５號","E_COORD97":166613.26000000001,"N_COORD97":2547491.5600000001,"ADDRESS":"國安街１５６巷１９５弄５號","OBJECTID":192944},"geometry":{"x":166613.26000000071,"y":2547491.5600000005}},{"attributes":{"ID":192946,"DIS_CODE":0,"TOWNNAME":"安南區","LI":"國安里","LIN":"5鄰","STREET":"國安街","SECT":" ","MAREA":" ","LANE":"１５６巷","ALLEY":"１９５弄","HOUSE_NO":"６號","E_COORD97":166614.66,"N_COORD97":2547516.3900000001,"ADDRESS":"國安街１５６巷１９５弄６號","OBJECTID":192945},"geometry":{"x":166614.66000000015,"y":2547516.3900000006}},{"attributes":{"ID":192947,"DIS_CODE":0,"TOWNNAME":"安南區","LI":"國安里","LIN":"5鄰","STREET":"國安街","SECT":" ","MAREA":" ","LANE":"１５６巷","ALLEY":"１９５弄","HOUSE_NO":"７號","E_COORD97":166608.54000000001,"N_COORD97":2547490.6800000002,"ADDRESS":"國安街１５６巷１９５弄７號","OBJECTID":192946},"geometry":{"x":166608.54000000097,"y":2547490.6799999997}},{"attributes":{"ID":192948,"DIS_CODE":0,"TOWNNAME":"安南區","LI":"國安里","LIN":"5鄰","STREET":"國安街","SECT":" ","MAREA":" ","LANE":"１５６巷","ALLEY":"１９５弄","HOUSE_NO":"８號","E_COORD97":166609.94,"N_COORD97":2547515.5,"ADDRESS":"國安街１５６巷１９５弄８號","OBJECTID":192947},"geometry":{"x":166609.94000000041,"y":2547515.5}},{"attributes":{"ID":192949,"DIS_CODE":0,"TOWNNAME":"安南區","LI":"國安里","LIN":"5鄰","STREET":"國安街","SECT":" ","MAREA":" ","LANE":"１５６巷","ALLEY":"１９５弄","HOUSE_NO":"９號","E_COORD97":166603.82999999999,"N_COORD97":2547489.7799999998,"ADDRESS":"國安街１５６巷１９５弄９號","OBJECTID":192948},"geometry":{"x":166603.83000000007,"y":2547489.7799999975}},{"attributes":{"ID":192950,"DIS_CODE":0,"TOWNNAME":"安南區","LI":"國安里","LIN":"5鄰","STREET":"國安街","SECT":" ","MAREA":" ","LANE":"１５６巷","ALLEY":"１９５弄","HOUSE_NO":"１０號","E_COORD97":166604.5,"N_COORD97":2547519.0899999999,"ADDRESS":"國安街１５６巷１９５弄１０號","OBJECTID":192949},"geometry":{"x":166604.50000000186,"y":2547519.0900000036}},{"attributes":{"ID":192951,"DIS_CODE":0,"TOWNNAME":"安南區","LI":"國安里","LIN":"5鄰","STREET":"國安街","SECT":" ","MAREA":" ","LANE":"１５６巷","ALLEY":"１９５弄","HOUSE_NO":"１１號","E_COORD97":166599.10999999999,"N_COORD97":2547488.8900000001,"ADDRESS":"國安街１５６巷１９５弄１１號","OBJECTID":192950},"geometry":{"x":166599.1100000022,"y":2547488.8900000025}},{"attributes":{"ID":192952,"DIS_CODE":0,"TOWNNAME":"安南區","LI":"國安里","LIN":"5鄰","STREET":"國安街","SECT":" ","MAREA":" ","LANE":"１５６巷","ALLEY":"１９５弄","HOUSE_NO":"１２號","E_COORD97":166600.51000000001,"N_COORD97":2547513.7200000002,"ADDRESS":"國安街１５６巷１９５弄１２號","OBJECTID":192951},"geometry":{"x":166600.50999999978,"y":2547513.7200000025}},{"attributes":{"ID":192953,"DIS_CODE":0,"TOWNNAME":"安南區","LI":"國安里","LIN":"5鄰","STREET":"國安街","SECT":" ","MAREA":" ","LANE":"１５６巷","ALLEY":"１９５弄","HOUSE_NO":"１３號","E_COORD97":166594.39000000001,"N_COORD97":2547488,"ADDRESS":"國安街１５６巷１９５弄１３號","OBJECTID":192952},"geometry":{"x":166594.38999999966,"y":2547488}},{"attributes":{"ID":192954,"DIS_CODE":0,"TOWNNAME":"安南區","LI":"國安里","LIN":"5鄰","STREET":"國安街","SECT":" ","MAREA":" ","LANE":"１５６巷","ALLEY":"１９５弄","HOUSE_NO":"１５號","E_COORD97":166589.76999999999,"N_COORD97":2547487.1200000001,"ADDRESS":"國安街１５６巷１９５弄１５號","OBJECTID":192953},"geometry":{"x":166589.76999999955,"y":2547487.1200000029}},{"attributes":{"ID":192955,"DIS_CODE":0,"TOWNNAME":"新化區","LI":"羊林里","LIN":"6鄰","STREET":" ","SECT":" ","MAREA":"\u25A0拔林","LANE":" ","ALLEY":" ","HOUSE_NO":"４７９號","E_COORD97":183510.92000000001,"N_COORD97":2551662.25,"ADDRESS":"\u25A0拔林４７９號","OBJECTID":192954},"geometry":{"x":183510.91999999993,"y":2551662.2500000019}},{"attributes":{"ID":192956,"DIS_CODE":0,"TOWNNAME":"安南區","LI":"國安里","LIN":"5鄰","STREET":"國安街","SECT":" ","MAREA":" ","LANE":"１５６巷","ALLEY":"１９５弄","HOUSE_NO":"１６號","E_COORD97":166595.79000000001,"N_COORD97":2547512.8199999998,"ADDRESS":"國安街１５６巷１９５弄１６號","OBJECTID":192955},"geometry":{"x":166595.78999999911,"y":2547512.8200000003}},{"attributes":{"ID":192957,"DIS_CODE":0,"TOWNNAME":"新化區","LI":"崙頂里","LIN":"2鄰","STREET":" ","SECT":" ","MAREA":"崙子頂","LANE":" ","ALLEY":" ","HOUSE_NO":"８６號之１","E_COORD97":176873.01000000001,"N_COORD97":2546661.2599999998,"ADDRESS":"崙子頂８６號之１","OBJECTID":192956},"geometry":{"x":176873.00999999978,"y":2546661.2600000016}},{"attributes":{"ID":192958,"DIS_CODE":0,"TOWNNAME":"新化區","LI":"全興里","LIN":"8鄰","STREET":" ","SECT":" ","MAREA":"竹子\u25A0","LANE":" ","ALLEY":" ","HOUSE_NO":"１０２號之５","E_COORD97":177469.09,"N_COORD97":2547777.2599999998,"ADDRESS":"竹子\u25A0１０２號之５","OBJECTID":192957},"geometry":{"x":177469.09000000078,"y":2547777.2599999998}},{"attributes":{"ID":192959,"DIS_CODE":0,"TOWNNAME":"新化區","LI":"崙頂里","LIN":"1鄰","STREET":" ","SECT":" ","MAREA":"崙子頂","LANE":" ","ALLEY":" ","HOUSE_NO":"６４號之２","E_COORD97":176963.07999999999,"N_COORD97":2546779.2599999998,"ADDRESS":"崙子頂６４之２號","OBJECTID":192958},"geometry":{"x":176963.08000000007,"y":2546779.2600000016}},{"attributes":{"ID":192960,"DIS_CODE":0,"TOWNNAME":"新化區","LI":"知義里","LIN":"1鄰","STREET":" ","SECT":" ","MAREA":"知母義","LANE":" ","ALLEY":" ","HOUSE_NO":"４２號","E_COORD97":179685.37,"N_COORD97":2546979.25,"ADDRESS":"知母義４２號","OBJECTID":192959},"geometry":{"x":179685.37000000011,"y":2546979.2500000019}},{"attributes":{"ID":192961,"DIS_CODE":0,"TOWNNAME":"新化區","LI":"羊林里","LIN":"6鄰","STREET":" ","SECT":" ","MAREA":"\u25A0拔林","LANE":" ","ALLEY":" ","HOUSE_NO":"５０１號之７","E_COORD97":183564.57000000001,"N_COORD97":2551644.2599999998,"ADDRESS":"\u25A0拔林５０１號之７","OBJECTID":192960},"geometry":{"x":183564.5700000003,"y":2551644.2600000016}},{"attributes":{"ID":192962,"DIS_CODE":0,"TOWNNAME":"新化區","LI":"山\u25A0里","LIN":"6鄰","STREET":" ","SECT":" ","MAREA":"頂山\u25A0","LANE":" ","ALLEY":" ","HOUSE_NO":"１３９號之６","E_COORD97":179670.57999999999,"N_COORD97":2546743.2599999998,"ADDRESS":"頂山\u25A0１３９號之６","OBJECTID":192961},"geometry":{"x":179670.58000000194,"y":2546743.2599999998}},{"attributes":{"ID":192963,"DIS_CODE":0,"TOWNNAME":"安南區","LI":"國安里","LIN":"5鄰","STREET":"國安街","SECT":" ","MAREA":" ","LANE":"１５６巷","ALLEY":"１９５弄","HOUSE_NO":"１７號","E_COORD97":166585.16,"N_COORD97":2547486.25,"ADDRESS":"國安街１５６巷１９５弄１７號","OBJECTID":192962},"geometry":{"x":166585.16000000108,"y":2547486.25}},{"attributes":{"ID":192964,"DIS_CODE":0,"TOWNNAME":"安南區","LI":"國安里","LIN":"5鄰","STREET":"國安街","SECT":" ","MAREA":" ","LANE":"１５６巷","ALLEY":"１９５弄","HOUSE_NO":"１８號","E_COORD97":166591.07999999999,"N_COORD97":2547511.9300000002,"ADDRESS":"國安街１５６巷１９５弄１８號","OBJECTID":192963},"geometry":{"x":166591.08000000101,"y":2547511.9299999997}},{"attributes":{"ID":192965,"DIS_CODE":0,"TOWNNAME":"柳營區","LI":"八翁里","LIN":"3鄰","STREET":" ","SECT":" ","MAREA":"八老爺","LANE":" ","ALLEY":" ","HOUSE_NO":"３０號","E_COORD97":178151.98000000001,"N_COORD97":2574931.8700000001,"ADDRESS":"八老爺３０號","OBJECTID":192964},"geometry":{"x":178151.98000000045,"y":2574931.870000001}},{"attributes":{"ID":192966,"DIS_CODE":0,"TOWNNAME":"安南區","LI":"國安里","LIN":"5鄰","STREET":"國安街","SECT":" ","MAREA":" ","LANE":"１５６巷","ALLEY":"１９５弄","HOUSE_NO":"１９號","E_COORD97":166580.5,"N_COORD97":2547485.3700000001,"ADDRESS":"國安街１５６巷１９５弄１９號","OBJECTID":192965},"geometry":{"x":166580.5,"y":2547485.3700000029}},{"attributes":{"ID":192967,"DIS_CODE":0,"TOWNNAME":"永康區","LI":"勝利里","LIN":"21鄰","STREET":"勝利街","SECT":" ","MAREA":" ","LANE":" ","ALLEY":" ","HOUSE_NO":"１５２號二樓之１","E_COORD97":171383.75,"N_COORD97":2545055.8599999999,"ADDRESS":"勝利街１５２號二樓之１","OBJECTID":192966},"geometry":{"x":171383.75000000093,"y":2545055.8600000013}},{"attributes":{"ID":192968,"DIS_CODE":0,"TOWNNAME":"永康區","LI":"勝利里","LIN":"21鄰","STREET":"勝利街","SECT":" ","MAREA":" ","LANE":" ","ALLEY":" ","HOUSE_NO":"１５２號二樓之２","E_COORD97":171383.88,"N_COORD97":2545055.8599999999,"ADDRESS":"勝利街１５２號二樓之２","OBJECTID":192967},"geometry":{"x":171383.87999999896,"y":2545055.8600000013}},{"attributes":{"ID":192969,"DIS_CODE":0,"TOWNNAME":"新化區","LI":"豐榮里","LIN":"13鄰","STREET":"民治路","SECT":" ","MAREA":" ","LANE":" ","ALLEY":" ","HOUSE_NO":"４２號","E_COORD97":178735.76000000001,"N_COORD97":2548048.25,"ADDRESS":"民治路４２號","OBJECTID":192968},"geometry":{"x":178735.76000000071,"y":2548048.2500000019}},{"attributes":{"ID":192970,"DIS_CODE":0,"TOWNNAME":"新化區","LI":"武安里","LIN":"14鄰","STREET":"健康路","SECT":" ","MAREA":" ","LANE":" ","ALLEY":" ","HOUSE_NO":"１１０號","E_COORD97":178812.42999999999,"N_COORD97":2548170.2599999998,"ADDRESS":"健康路１１０號","OBJECTID":192969},"geometry":{"x":178812.43000000063,"y":2548170.2600000016}},{"attributes":{"ID":192971,"DIS_CODE":0,"TOWNNAME":"安南區","LI":"國安里","LIN":"5鄰","STREET":"國安街","SECT":" ","MAREA":" ","LANE":"１５６巷","ALLEY":"１９５弄","HOUSE_NO":"２０號","E_COORD97":166586.35999999999,"N_COORD97":2547511.04,"ADDRESS":"國安街１５６巷１９５弄２０號","OBJECTID":192970},"geometry":{"x":166586.36000000127,"y":2547511.0399999991}},{"attributes":{"ID":192972,"DIS_CODE":0,"TOWNNAME":"新化區","LI":"太平里","LIN":"17鄰","STREET":"忠孝路","SECT":" ","MAREA":" ","LANE":" ","ALLEY":" ","HOUSE_NO":"１２８號","E_COORD97":178670.51999999999,"N_COORD97":2548652.25,"ADDRESS":"忠孝路１２８號","OBJECTID":192971},"geometry":{"x":178670.52000000048,"y":2548652.25}},{"attributes":{"ID":192973,"DIS_CODE":0,"TOWNNAME":"安南區","LI":"國安里","LIN":"5鄰","STREET":"國安街","SECT":" ","MAREA":" ","LANE":"１５６巷","ALLEY":"１９５弄","HOUSE_NO":"２１號","E_COORD97":166576.01000000001,"N_COORD97":2547484.52,"ADDRESS":"國安街１５６巷１９５弄２１號","OBJECTID":192972},"geometry":{"x":166576.01000000071,"y":2547484.5199999996}},{"attributes":{"ID":192974,"DIS_CODE":0,"TOWNNAME":"安南區","LI":"國安里","LIN":"5鄰","STREET":"國安街","SECT":" ","MAREA":" ","LANE":"１５６巷","ALLEY":"１９５弄","HOUSE_NO":"２２號","E_COORD97":166581.64000000001,"N_COORD97":2547510.1499999999,"ADDRESS":"國安街１５６巷１９５弄２２號","OBJECTID":192973},"geometry":{"x":166581.6400000006,"y":2547510.1500000022}},{"attributes":{"ID":192975,"DIS_CODE":0,"TOWNNAME":"新化區","LI":"護國里","LIN":"7鄰","STREET":"信義路","SECT":" ","MAREA":" ","LANE":" ","ALLEY":" ","HOUSE_NO":"１６４號之２","E_COORD97":179270.38,"N_COORD97":2548383.2599999998,"ADDRESS":"信義路１６４號之２","OBJECTID":192974},"geometry":{"x":179270.38000000082,"y":2548383.2600000016}},{"attributes":{"ID":192976,"DIS_CODE":0,"TOWNNAME":"永康區","LI":"勝利里","LIN":"21鄰","STREET":"勝利街","SECT":" ","MAREA":" ","LANE":" ","ALLEY":" ","HOUSE_NO":"１５２號二樓之６","E_COORD97":171383.85000000001,"N_COORD97":2545055.8599999999,"ADDRESS":"勝利街１５２號二樓之６","OBJECTID":192975},"geometry":{"x":171383.8499999987,"y":2545055.8600000013}},{"attributes":{"ID":192977,"DIS_CODE":0,"TOWNNAME":"永康區","LI":"勝利里","LIN":"21鄰","STREET":"勝利街","SECT":" ","MAREA":" ","LANE":" ","ALLEY":" ","HOUSE_NO":"１５３號五樓之４","E_COORD97":171360.92999999999,"N_COORD97":2545016.46,"ADDRESS":"勝利街１５３號五樓之４","OBJECTID":192976},"geometry":{"x":171360.9299999997,"y":2545016.4600000028}},{"attributes":{"ID":192978,"DIS_CODE":0,"TOWNNAME":"安南區","LI":"國安里","LIN":"5鄰","STREET":"國安街","SECT":" ","MAREA":" ","LANE":"１５６巷","ALLEY":"１９５弄","HOUSE_NO":"２３號","E_COORD97":166571.75,"N_COORD97":2547483.71,"ADDRESS":"國安街１５６巷１９５弄２３號","OBJECTID":192977},"geometry":{"x":166571.75,"y":2547483.7100000009}},{"attributes":{"ID":192979,"DIS_CODE":0,"TOWNNAME":"新化區","LI":"太平里","LIN":"4鄰","STREET":"太平街","SECT":" ","MAREA":" ","LANE":" ","ALLEY":" ","HOUSE_NO":"１８號之１","E_COORD97":179092,"N_COORD97":2548855.2599999998,"ADDRESS":"太平街１８號之１","OBJECTID":192978},"geometry":{"x":179092.00000000093,"y":2548855.2599999998}},{"attributes":{"ID":192980,"DIS_CODE":0,"TOWNNAME":"新化區","LI":"東榮里","LIN":"4鄰","STREET":"信義路","SECT":" ","MAREA":" ","LANE":" ","ALLEY":" ","HOUSE_NO":"９１號之２","E_COORD97":179792.82999999999,"N_COORD97":2548668.2599999998,"ADDRESS":"信義路９１號之２","OBJECTID":192979},"geometry":{"x":179792.83000000101,"y":2548668.2600000016}},{"attributes":{"ID":192981,"DIS_CODE":0,"TOWNNAME":"安南區","LI":"國安里","LIN":"5鄰","STREET":"國安街","SECT":" ","MAREA":" ","LANE":"１５６巷","ALLEY":"１９５弄","HOUSE_NO":"２５號","E_COORD97":166567.53,"N_COORD97":2547482.9100000001,"ADDRESS":"國安街１５６巷１９５弄２５號","OBJECTID":192980},"geometry":{"x":166567.53000000119,"y":2547482.9100000001}},{"attributes":{"ID":192982,"DIS_CODE":0,"TOWNNAME":"安南區","LI":"國安里","LIN":"5鄰","STREET":"國安街","SECT":" ","MAREA":" ","LANE":"１５６巷","ALLEY":"１９５弄","HOUSE_NO":"２６號","E_COORD97":166576.89000000001,"N_COORD97":2547509.25,"ADDRESS":"國安街１５６巷１９５弄２６號","OBJECTID":192981},"geometry":{"x":166576.8900000006,"y":2547509.2500000019}},{"attributes":{"ID":192983,"DIS_CODE":0,"TOWNNAME":"新化區","LI":"太平里","LIN":"4鄰","STREET":"中正路","SECT":" ","MAREA":" ","LANE":" ","ALLEY":" ","HOUSE_NO":"５４６號之３","E_COORD97":178937.16,"N_COORD97":2548919.2599999998,"ADDRESS":"中正路５４６號之３","OBJECTID":192982},"geometry":{"x":178937.16000000015,"y":2548919.2600000016}},{"attributes":{"ID":192984,"DIS_CODE":0,"TOWNNAME":"新化區","LI":"全興里","LIN":"13鄰","STREET":" ","SECT":" ","MAREA":"竹子\u25A0","LANE":" ","ALLEY":" ","HOUSE_NO":"２４７號之７３","E_COORD97":178307.42999999999,"N_COORD97":2546763.2599999998,"ADDRESS":"竹子\u25A0２４７號之７３","OBJECTID":192983},"geometry":{"x":178307.43000000063,"y":2546763.2600000016}},{"attributes":{"ID":192985,"DIS_CODE":0,"TOWNNAME":"新化區","LI":"羊林里","LIN":"7鄰","STREET":" ","SECT":" ","MAREA":"洋子寮","LANE":" ","ALLEY":" ","HOUSE_NO":"３７號","E_COORD97":184914.14305099999,"N_COORD97":2550721.3630599999,"ADDRESS":"洋子寮３７號","OBJECTID":192984},"geometry":{"x":184914.14305100217,"y":2550721.3630619999}},{"attributes":{"ID":192986,"DIS_CODE":0,"TOWNNAME":"新化區","LI":"羊林里","LIN":"6鄰","STREET":" ","SECT":" ","MAREA":"\u25A0拔林","LANE":" ","ALLEY":" ","HOUSE_NO":"５０１號之１","E_COORD97":183509.250191,"N_COORD97":2551650.68506,"ADDRESS":"\u25A0拔林５０１號之１","OBJECTID":192985},"geometry":{"x":183509.25019100029,"y":2551650.6850600019}},{"attributes":{"ID":192987,"DIS_CODE":0,"TOWNNAME":"新化區","LI":"全興里","LIN":"10鄰","STREET":" ","SECT":" ","MAREA":"竹子\u25A0","LANE":" ","ALLEY":" ","HOUSE_NO":"１４２號之２","E_COORD97":177579.59,"N_COORD97":2547588.2599999998,"ADDRESS":"竹子\u25A0１４２號之２","OBJECTID":192986},"geometry":{"x":177579.58999999985,"y":2547588.2599999998}},{"attributes":{"ID":192988,"DIS_CODE":0,"TOWNNAME":"新化區","LI":"崙頂里","LIN":"1鄰","STREET":" ","SECT":" ","MAREA":"崙子頂","LANE":" ","ALLEY":" ","HOUSE_NO":"６３號","E_COORD97":176952.38,"N_COORD97":2546738.25,"ADDRESS":"崙子頂６３號","OBJECTID":192987},"geometry":{"x":176952.37999999989,"y":2546738.2500000037}},{"attributes":{"ID":192989,"DIS_CODE":0,"TOWNNAME":"楠西區","LI":"鹿田里","LIN":"3鄰","STREET":" ","SECT":" ","MAREA":"鹿陶洋","LANE":" ","ALLEY":" ","HOUSE_NO":"３２號","E_COORD97":197742.92000000001,"N_COORD97":2561554.25,"ADDRESS":"鹿陶洋３２號","OBJECTID":192988},"geometry":{"x":197742.92000000086,"y":2561554.2500000037}},{"attributes":{"ID":192990,"DIS_CODE":0,"TOWNNAME":"楠西區","LI":"鹿田里","LIN":"3鄰","STREET":" ","SECT":" ","MAREA":"鹿陶洋","LANE":" ","ALLEY":" ","HOUSE_NO":"８３號","E_COORD97":197751.22,"N_COORD97":2561619.25,"ADDRESS":"鹿陶洋８３號","OBJECTID":192989},"geometry":{"x":197751.21999999974,"y":2561619.2500000019}},{"attributes":{"ID":192991,"DIS_CODE":0,"TOWNNAME":"楠西區","LI":"照興里","LIN":"3鄰","STREET":" ","SECT":" ","MAREA":"興北","LANE":" ","ALLEY":" ","HOUSE_NO":"３９號","E_COORD97":197267.17000000001,"N_COORD97":2567483.25,"ADDRESS":"興北３９號","OBJECTID":192990},"geometry":{"x":197267.16999999993,"y":2567483.25}},{"attributes":{"ID":192992,"DIS_CODE":0,"TOWNNAME":"永康區","LI":"勝利里","LIN":"21鄰","STREET":"勝利街","SECT":" ","MAREA":" ","LANE":" ","ALLEY":" ","HOUSE_NO":"１５３號五樓之１","E_COORD97":171360.89999999999,"N_COORD97":2545016.46,"ADDRESS":"勝利街１５３號五樓之１","OBJECTID":192991},"geometry":{"x":171360.9000000013,"y":2545016.4600000028}},{"attributes":{"ID":192993,"DIS_CODE":0,"TOWNNAME":"東區","LI":"仁和里","LIN":"21鄰","STREET":"仁東街","SECT":" ","MAREA":" ","LANE":" ","ALLEY":" ","HOUSE_NO":"６３號七樓","E_COORD97":171617.73999999999,"N_COORD97":2541208.4100000001,"ADDRESS":"仁東街６３號七樓","OBJECTID":192992},"geometry":{"x":171617.74000000115,"y":2541208.410000002}},{"attributes":{"ID":192994,"DIS_CODE":0,"TOWNNAME":"安南區","LI":"國安里","LIN":"5鄰","STREET":"國安街","SECT":" ","MAREA":" ","LANE":"１５６巷","ALLEY":"１９５弄","HOUSE_NO":"２７號","E_COORD97":166563.39999999999,"N_COORD97":2547482.1299999999,"ADDRESS":"國安街１５６巷１９５弄２７號","OBJECTID":192993},"geometry":{"x":166563.4000000013,"y":2547482.1300000008}},{"attributes":{"ID":192995,"DIS_CODE":0,"TOWNNAME":"安南區","LI":"國安里","LIN":"5鄰","STREET":"國安街","SECT":" ","MAREA":" ","LANE":"１５６巷","ALLEY":"１９５弄","HOUSE_NO":"２８號","E_COORD97":166572.29999999999,"N_COORD97":2547508.3799999999,"ADDRESS":"國安街１５６巷１９５弄２８號","OBJECTID":192994},"geometry":{"x":166572.30000000075,"y":2547508.379999999}},{"attributes":{"ID":192996,"DIS_CODE":0,"TOWNNAME":"安南區","LI":"國安里","LIN":"5鄰","STREET":"國安街","SECT":" ","MAREA":" ","LANE":"１５６巷","ALLEY":"１９５弄","HOUSE_NO":"２９號","E_COORD97":166559.28,"N_COORD97":2547481.3500000001,"ADDRESS":"國安街１５６巷１９５弄２９號","OBJECTID":192995},"geometry":{"x":166559.28000000119,"y":2547481.3500000015}},{"attributes":{"ID":192997,"DIS_CODE":0,"TOWNNAME":"安南區","LI":"國安里","LIN":"5鄰","STREET":"國安街","SECT":" ","MAREA":" ","LANE":"１５６巷","ALLEY":"１９５弄","HOUSE_NO":"３０號","E_COORD97":166568.10999999999,"N_COORD97":2547507.5899999999,"ADDRESS":"國安街１５６巷１９５弄３０號","OBJECTID":192996},"geometry":{"x":166568.11000000034,"y":2547507.5899999999}},{"attributes":{"ID":192998,"DIS_CODE":0,"TOWNNAME":"安南區","LI":"國安里","LIN":"5鄰","STREET":"國安街","SECT":" ","MAREA":" ","LANE":"１５６巷","ALLEY":"１９５弄","HOUSE_NO":"３１號","E_COORD97":166555.14999999999,"N_COORD97":2547480.5699999998,"ADDRESS":"國安街１５６巷１９５弄３１號","OBJECTID":192997},"geometry":{"x":166555.1500000013,"y":2547480.5700000022}},{"attributes":{"ID":192999,"DIS_CODE":0,"TOWNNAME":"安南區","LI":"國安里","LIN":"5鄰","STREET":"國安街","SECT":" ","MAREA":" ","LANE":"１５６巷","ALLEY":"１９５弄","HOUSE_NO":"３２號","E_COORD97":166563.98999999999,"N_COORD97":2547506.8100000001,"ADDRESS":"國安街１５６巷１９５弄３２號","OBJECTID":192998},"geometry":{"x":166563.99000000022,"y":2547506.8100000005}},{"attributes":{"ID":193000,"DIS_CODE":0,"TOWNNAME":"安南區","LI":"國安里","LIN":"5鄰","STREET":"國安街","SECT":" ","MAREA":" ","LANE":"１５６巷","ALLEY":"１９５弄","HOUSE_NO":"３３號","E_COORD97":166551.01999999999,"N_COORD97":2547479.79,"ADDRESS":"國安街１５６巷１９５弄３３號","OBJECTID":192999},"geometry":{"x":166551.01999999955,"y":2547479.7900000028}},{"attributes":{"ID":193001,"DIS_CODE":0,"TOWNNAME":"安南區","LI":"國安里","LIN":"5鄰","STREET":"國安街","SECT":" ","MAREA":" ","LANE":"１５６巷","ALLEY":"１９５弄","HOUSE_NO":"３５號","E_COORD97":166546.51000000001,"N_COORD97":2547480.0899999999,"ADDRESS":"國安街１５６巷１９５弄３５號","OBJECTID":193000},"geometry":{"x":166546.50999999885,"y":2547480.0899999999}}]}