{"displayFieldName":"TOWNNAME","fieldAliases":{"ID":"ID","DIS_CODE":"DIS_CODE","TOWNNAME":"TOWNNAME","LI":"LI","LIN":"LIN","STREET":"STREET","SECT":"SECT","MAREA":"MAREA","LANE":"LANE","ALLEY":"ALLEY","HOUSE_NO":"HOUSE_NO","E_COORD97":"E_COORD97","N_COORD97":"N_COORD97","ADDRESS":"ADDRESS","OBJECTID":"OBJECTID"},"geometryType":"esriGeometryPoint","spatialReference":{"wkid":102443,"latestWkid":3826},"fields":[{"name":"ID","type":"esriFieldTypeDouble","alias":"ID"},{"name":"DIS_CODE","type":"esriFieldTypeInteger","alias":"DIS_CODE"},{"name":"TOWNNAME","type":"esriFieldTypeString","alias":"TOWNNAME","length":8},{"name":"LI","type":"esriFieldTypeString","alias":"LI","length":8},{"name":"LIN","type":"esriFieldTypeString","alias":"LIN","length":12},{"name":"STREET","type":"esriFieldTypeString","alias":"STREET","length":20},{"name":"SECT","type":"esriFieldTypeString","alias":"SECT","length":8},{"name":"MAREA","type":"esriFieldTypeString","alias":"MAREA","length":12},{"name":"LANE","type":"esriFieldTypeString","alias":"LANE","length":10},{"name":"ALLEY","type":"esriFieldTypeString","alias":"ALLEY","length":10},{"name":"HOUSE_NO","type":"esriFieldTypeString","alias":"HOUSE_NO","length":20},{"name":"E_COORD97","type":"esriFieldTypeDouble","alias":"E_COORD97"},{"name":"N_COORD97","type":"esriFieldTypeDouble","alias":"N_COORD97"},{"name":"ADDRESS","type":"esriFieldTypeString","alias":"ADDRESS","length":50},{"name":"OBJECTID","type":"esriFieldTypeOID","alias":"OBJECTID"}],"features":[{"attributes":{"ID":61801,"DIS_CODE":0,"TOWNNAME":"安南區","LI":"原佃里","LIN":"10鄰","STREET":"本原街","SECT":"一段","MAREA":" ","LANE":"４８２巷","ALLEY":"９２弄","HOUSE_NO":"１７號","E_COORD97":167383.56,"N_COORD97":2550721.1099999999,"ADDRESS":"本原街一段４８２巷９２弄１７號","OBJECTID":61801},"geometry":{"x":167383.56000000145,"y":2550721.1099999994}},{"attributes":{"ID":61802,"DIS_CODE":0,"TOWNNAME":"安南區","LI":"原佃里","LIN":"10鄰","STREET":"本原街","SECT":"一段","MAREA":" ","LANE":"４８２巷","ALLEY":"９２弄","HOUSE_NO":"１９號","E_COORD97":167388.64000000001,"N_COORD97":2550724.7599999998,"ADDRESS":"本原街一段４８２巷９２弄１９號","OBJECTID":61802},"geometry":{"x":167388.6400000006,"y":2550724.7599999979}},{"attributes":{"ID":61803,"DIS_CODE":0,"TOWNNAME":"柳營區","LI":"果毅里","LIN":"8鄰","STREET":" ","SECT":" ","MAREA":"果毅後","LANE":" ","ALLEY":" ","HOUSE_NO":"９０號之１２","E_COORD97":185641.26999999999,"N_COORD97":2572682.46,"ADDRESS":"果毅後９０號之１２","OBJECTID":61803},"geometry":{"x":185641.27000000048,"y":2572682.4600000028}},{"attributes":{"ID":61804,"DIS_CODE":0,"TOWNNAME":"柳營區","LI":"果毅里","LIN":"8鄰","STREET":" ","SECT":" ","MAREA":"果毅後","LANE":" ","ALLEY":" ","HOUSE_NO":"９０號之１５","E_COORD97":185639.53,"N_COORD97":2572665.6699999999,"ADDRESS":"果毅後９０號之１５","OBJECTID":61804},"geometry":{"x":185639.53000000026,"y":2572665.6700000018}},{"attributes":{"ID":61805,"DIS_CODE":0,"TOWNNAME":"柳營區","LI":"果毅里","LIN":"8鄰","STREET":" ","SECT":" ","MAREA":"果毅後","LANE":" ","ALLEY":" ","HOUSE_NO":"９０之１６號","E_COORD97":185638.38,"N_COORD97":2572661.71,"ADDRESS":"果毅後９０之１６號","OBJECTID":61805},"geometry":{"x":185638.37999999989,"y":2572661.7100000009}},{"attributes":{"ID":61806,"DIS_CODE":0,"TOWNNAME":"柳營區","LI":"果毅里","LIN":"8鄰","STREET":" ","SECT":" ","MAREA":"果毅後","LANE":" ","ALLEY":" ","HOUSE_NO":"９０號之１７","E_COORD97":185641.10000000001,"N_COORD97":2572648.1099999999,"ADDRESS":"果毅後９０號之１７","OBJECTID":61806},"geometry":{"x":185641.10000000056,"y":2572648.1100000031}},{"attributes":{"ID":61807,"DIS_CODE":0,"TOWNNAME":"安南區","LI":"州北里","LIN":"10鄰","STREET":"安和路","SECT":"五段","MAREA":" ","LANE":"１７１巷","ALLEY":"１１６弄","HOUSE_NO":"２１號","E_COORD97":169581.94,"N_COORD97":2551758.52,"ADDRESS":"安和路五段１７１巷１１６弄２１號","OBJECTID":61807},"geometry":{"x":169581.94000000041,"y":2551758.5200000014}},{"attributes":{"ID":61808,"DIS_CODE":0,"TOWNNAME":"安南區","LI":"州北里","LIN":"10鄰","STREET":"安和路","SECT":"五段","MAREA":" ","LANE":"１７１巷","ALLEY":"１１６弄","HOUSE_NO":"２２號","E_COORD97":169584.57999999999,"N_COORD97":2551753.25,"ADDRESS":"安和路五段１７１巷１１６弄２２號","OBJECTID":61808},"geometry":{"x":169584.58000000101,"y":2551753.2500000019}},{"attributes":{"ID":61809,"DIS_CODE":0,"TOWNNAME":"歸仁區","LI":"西埔里","LIN":"8鄰","STREET":"保大路","SECT":"二段","MAREA":" ","LANE":" ","ALLEY":" ","HOUSE_NO":"３００號","E_COORD97":176583.97,"N_COORD97":2544128.2799999998,"ADDRESS":"保大路二段３００號","OBJECTID":61809},"geometry":{"x":176583.96999999881,"y":2544128.2800000012}},{"attributes":{"ID":61810,"DIS_CODE":0,"TOWNNAME":"柳營區","LI":"果毅里","LIN":"8鄰","STREET":" ","SECT":" ","MAREA":"果毅後","LANE":" ","ALLEY":" ","HOUSE_NO":"９０之１８號","E_COORD97":185636.79000000001,"N_COORD97":2572649.52,"ADDRESS":"果毅後９０之１８號","OBJECTID":61810},"geometry":{"x":185636.79000000097,"y":2572649.5200000014}},{"attributes":{"ID":61811,"DIS_CODE":0,"TOWNNAME":"柳營區","LI":"果毅里","LIN":"8鄰","STREET":" ","SECT":" ","MAREA":"果毅後","LANE":" ","ALLEY":" ","HOUSE_NO":"９０號之１９","E_COORD97":185632.48999999999,"N_COORD97":2572650.9199999999,"ADDRESS":"果毅後９０號之１９","OBJECTID":61811},"geometry":{"x":185632.49000000115,"y":2572650.9200000018}},{"attributes":{"ID":61812,"DIS_CODE":0,"TOWNNAME":"柳營區","LI":"果毅里","LIN":"8鄰","STREET":" ","SECT":" ","MAREA":"果毅後","LANE":" ","ALLEY":" ","HOUSE_NO":"９０號之１","E_COORD97":185627.23999999999,"N_COORD97":2572696.0099999998,"ADDRESS":"果毅後９０號之１","OBJECTID":61812},"geometry":{"x":185627.24000000115,"y":2572696.0099999998}},{"attributes":{"ID":61813,"DIS_CODE":0,"TOWNNAME":"柳營區","LI":"果毅里","LIN":"8鄰","STREET":" ","SECT":" ","MAREA":"果毅後","LANE":" ","ALLEY":" ","HOUSE_NO":"９０之２０號","E_COORD97":185628.19,"N_COORD97":2572652.3300000001,"ADDRESS":"果毅後９０之２０號","OBJECTID":61813},"geometry":{"x":185628.19000000041,"y":2572652.3300000001}},{"attributes":{"ID":61814,"DIS_CODE":0,"TOWNNAME":"安定區","LI":"海寮里","LIN":"1鄰","STREET":" ","SECT":" ","MAREA":"海寮","LANE":" ","ALLEY":" ","HOUSE_NO":"１０之１６號","E_COORD97":169054.44,"N_COORD97":2555180.2999999998,"ADDRESS":"海寮１０之１６號","OBJECTID":61814},"geometry":{"x":169054.44000000041,"y":2555180.3000000007}},{"attributes":{"ID":61815,"DIS_CODE":0,"TOWNNAME":"安定區","LI":"海寮里","LIN":"1鄰","STREET":" ","SECT":" ","MAREA":"海寮","LANE":" ","ALLEY":" ","HOUSE_NO":"７之６７號","E_COORD97":169061.21834699999,"N_COORD97":2554993.5259400001,"ADDRESS":"海寮７之６７號","OBJECTID":61815},"geometry":{"x":169061.21834700089,"y":2554993.5259430017}},{"attributes":{"ID":61816,"DIS_CODE":0,"TOWNNAME":"安定區","LI":"中榮里","LIN":"1鄰","STREET":" ","SECT":" ","MAREA":"許中營","LANE":" ","ALLEY":" ","HOUSE_NO":"１之３５號","E_COORD97":172234.23999999999,"N_COORD97":2554879.2999999998,"ADDRESS":"許中營１之３５號","OBJECTID":61816},"geometry":{"x":172234.24000000022,"y":2554879.3000000026}},{"attributes":{"ID":61817,"DIS_CODE":0,"TOWNNAME":"安定區","LI":"海寮里","LIN":"1鄰","STREET":" ","SECT":" ","MAREA":"海寮","LANE":" ","ALLEY":" ","HOUSE_NO":"５之２７號","E_COORD97":168640.19,"N_COORD97":2555075.2999999998,"ADDRESS":"海寮５之２７號","OBJECTID":61817},"geometry":{"x":168640.19000000134,"y":2555075.3000000007}},{"attributes":{"ID":61818,"DIS_CODE":0,"TOWNNAME":"柳營區","LI":"果毅里","LIN":"8鄰","STREET":" ","SECT":" ","MAREA":"果毅後","LANE":" ","ALLEY":" ","HOUSE_NO":"９０號之６","E_COORD97":185674.01000000001,"N_COORD97":2572762.3700000001,"ADDRESS":"果毅後９０號之６","OBJECTID":61818},"geometry":{"x":185674.01000000071,"y":2572762.370000001}},{"attributes":{"ID":61819,"DIS_CODE":0,"TOWNNAME":"柳營區","LI":"果毅里","LIN":"8鄰","STREET":" ","SECT":" ","MAREA":"果毅後","LANE":" ","ALLEY":" ","HOUSE_NO":"９０號之７","E_COORD97":185672.95000000001,"N_COORD97":2572757.5899999999,"ADDRESS":"果毅後９０號之７","OBJECTID":61819},"geometry":{"x":185672.95000000112,"y":2572757.5900000017}},{"attributes":{"ID":61820,"DIS_CODE":0,"TOWNNAME":"柳營區","LI":"果毅里","LIN":"8鄰","STREET":" ","SECT":" ","MAREA":"果毅後","LANE":" ","ALLEY":" ","HOUSE_NO":"９０號","E_COORD97":185651.32000000001,"N_COORD97":2572753.5099999998,"ADDRESS":"果毅後９０號","OBJECTID":61820},"geometry":{"x":185651.3200000003,"y":2572753.5099999998}},{"attributes":{"ID":61821,"DIS_CODE":0,"TOWNNAME":"柳營區","LI":"果毅里","LIN":"8鄰","STREET":" ","SECT":" ","MAREA":"果毅後","LANE":" ","ALLEY":" ","HOUSE_NO":"９１之１號","E_COORD97":185655.29999999999,"N_COORD97":2572772.6699999999,"ADDRESS":"果毅後９１之１號","OBJECTID":61821},"geometry":{"x":185655.30000000075,"y":2572772.6699999999}},{"attributes":{"ID":61822,"DIS_CODE":0,"TOWNNAME":"柳營區","LI":"果毅里","LIN":"8鄰","STREET":" ","SECT":" ","MAREA":"果毅後","LANE":" ","ALLEY":" ","HOUSE_NO":"９１號之２","E_COORD97":185660.35000000001,"N_COORD97":2572770.8500000001,"ADDRESS":"果毅後９１號之２","OBJECTID":61822},"geometry":{"x":185660.34999999963,"y":2572770.8499999996}},{"attributes":{"ID":61823,"DIS_CODE":0,"TOWNNAME":"柳營區","LI":"果毅里","LIN":"8鄰","STREET":" ","SECT":" ","MAREA":"果毅後","LANE":" ","ALLEY":" ","HOUSE_NO":"９１號之３","E_COORD97":185665.20999999999,"N_COORD97":2572768.3100000001,"ADDRESS":"果毅後９１號之３","OBJECTID":61823},"geometry":{"x":185665.20999999996,"y":2572768.3100000005}},{"attributes":{"ID":61824,"DIS_CODE":0,"TOWNNAME":"柳營區","LI":"果毅里","LIN":"8鄰","STREET":" ","SECT":" ","MAREA":"果毅後","LANE":" ","ALLEY":" ","HOUSE_NO":"９１之５號","E_COORD97":185679.19,"N_COORD97":2572775.6899999999,"ADDRESS":"果毅後９１之５號","OBJECTID":61824},"geometry":{"x":185679.19000000041,"y":2572775.6899999995}},{"attributes":{"ID":61825,"DIS_CODE":0,"TOWNNAME":"柳營區","LI":"果毅里","LIN":"8鄰","STREET":" ","SECT":" ","MAREA":"果毅後","LANE":" ","ALLEY":" ","HOUSE_NO":"９１號之５","E_COORD97":185679.19,"N_COORD97":2572775.6899999999,"ADDRESS":"果毅後９１號之５","OBJECTID":61825},"geometry":{"x":185679.19000000041,"y":2572775.6899999995}},{"attributes":{"ID":61826,"DIS_CODE":0,"TOWNNAME":"柳營區","LI":"果毅里","LIN":"8鄰","STREET":" ","SECT":" ","MAREA":"果毅後","LANE":" ","ALLEY":" ","HOUSE_NO":"９１號","E_COORD97":185637.09,"N_COORD97":2572772.8199999998,"ADDRESS":"果毅後９１號","OBJECTID":61826},"geometry":{"x":185637.08999999985,"y":2572772.820000004}},{"attributes":{"ID":61827,"DIS_CODE":0,"TOWNNAME":"柳營區","LI":"果毅里","LIN":"8鄰","STREET":" ","SECT":" ","MAREA":"果毅後","LANE":" ","ALLEY":" ","HOUSE_NO":"９２號之３","E_COORD97":185601.37,"N_COORD97":2572736.3500000001,"ADDRESS":"果毅後９２號之３","OBJECTID":61827},"geometry":{"x":185601.37000000011,"y":2572736.3499999996}},{"attributes":{"ID":61828,"DIS_CODE":0,"TOWNNAME":"柳營區","LI":"果毅里","LIN":"8鄰","STREET":" ","SECT":" ","MAREA":"果毅後","LANE":" ","ALLEY":" ","HOUSE_NO":"９２號","E_COORD97":185629,"N_COORD97":2572788.0299999998,"ADDRESS":"果毅後９２號","OBJECTID":61828},"geometry":{"x":185629,"y":2572788.0300000012}},{"attributes":{"ID":61829,"DIS_CODE":0,"TOWNNAME":"柳營區","LI":"士林里","LIN":"8鄰","STREET":" ","SECT":" ","MAREA":"柳營","LANE":" ","ALLEY":" ","HOUSE_NO":"６９號","E_COORD97":179525.73000000001,"N_COORD97":2575172.5600000001,"ADDRESS":"柳營６９號","OBJECTID":61829},"geometry":{"x":179525.73000000045,"y":2575172.5600000024}},{"attributes":{"ID":61830,"DIS_CODE":0,"TOWNNAME":"安南區","LI":"州北里","LIN":"10鄰","STREET":"安和路","SECT":"五段","MAREA":" ","LANE":"１７１巷","ALLEY":"１１６弄","HOUSE_NO":"２３號","E_COORD97":169586.98000000001,"N_COORD97":2551747.73,"ADDRESS":"安和路五段１７１巷１１６弄２３號","OBJECTID":61830},"geometry":{"x":169586.98000000231,"y":2551747.7300000023}},{"attributes":{"ID":61831,"DIS_CODE":0,"TOWNNAME":"新營區","LI":"太北里","LIN":"18鄰","STREET":" ","SECT":" ","MAREA":"太子宮","LANE":" ","ALLEY":" ","HOUSE_NO":"７號之６","E_COORD97":176222.76000000001,"N_COORD97":2577202.3500000001,"ADDRESS":"太子宮７號之６","OBJECTID":61831},"geometry":{"x":176222.76000000164,"y":2577202.3499999996}},{"attributes":{"ID":61832,"DIS_CODE":0,"TOWNNAME":"柳營區","LI":"人和里","LIN":"8鄰","STREET":" ","SECT":" ","MAREA":"橋南","LANE":" ","ALLEY":" ","HOUSE_NO":"７３之１０號","E_COORD97":178619.14000000001,"N_COORD97":2576953.46,"ADDRESS":"橋南７３之１０號","OBJECTID":61832},"geometry":{"x":178619.1400000006,"y":2576953.4600000028}},{"attributes":{"ID":61833,"DIS_CODE":0,"TOWNNAME":"安定區","LI":"海寮里","LIN":"1鄰","STREET":" ","SECT":" ","MAREA":"海寮","LANE":" ","ALLEY":" ","HOUSE_NO":"５之１４號","E_COORD97":168885.98999999999,"N_COORD97":2555082.2999999998,"ADDRESS":"海寮５之１４號","OBJECTID":61833},"geometry":{"x":168885.99000000022,"y":2555082.3000000045}},{"attributes":{"ID":61834,"DIS_CODE":0,"TOWNNAME":"安南區","LI":"州北里","LIN":"10鄰","STREET":"安和路","SECT":"五段","MAREA":" ","LANE":"１７１巷","ALLEY":"１１６弄","HOUSE_NO":"２５號","E_COORD97":169589.73000000001,"N_COORD97":2551741.98,"ADDRESS":"安和路五段１７１巷１１６弄２５號","OBJECTID":61834},"geometry":{"x":169589.73000000045,"y":2551741.9800000023}},{"attributes":{"ID":61835,"DIS_CODE":0,"TOWNNAME":"安定區","LI":"中榮里","LIN":"1鄰","STREET":" ","SECT":" ","MAREA":"許中營","LANE":" ","ALLEY":" ","HOUSE_NO":"１０號之１１","E_COORD97":172267.32999999999,"N_COORD97":2554950.2999999998,"ADDRESS":"許中營１０號之１１","OBJECTID":61835},"geometry":{"x":172267.33000000007,"y":2554950.3000000045}},{"attributes":{"ID":61836,"DIS_CODE":0,"TOWNNAME":"安定區","LI":"海寮里","LIN":"1鄰","STREET":" ","SECT":" ","MAREA":"海寮","LANE":" ","ALLEY":" ","HOUSE_NO":"５之４０號","E_COORD97":169004.48999999999,"N_COORD97":2554782.2999999998,"ADDRESS":"海寮５之４０號","OBJECTID":61836},"geometry":{"x":169004.49000000022,"y":2554782.3000000026}},{"attributes":{"ID":61837,"DIS_CODE":0,"TOWNNAME":"安定區","LI":"海寮里","LIN":"1鄰","STREET":" ","SECT":" ","MAREA":"海寮","LANE":" ","ALLEY":" ","HOUSE_NO":"５之９號","E_COORD97":169037.84,"N_COORD97":2554568.2999999998,"ADDRESS":"海寮５之９號","OBJECTID":61837},"geometry":{"x":169037.83999999985,"y":2554568.3000000026}},{"attributes":{"ID":61838,"DIS_CODE":0,"TOWNNAME":"永康區","LI":"大灣里","LIN":"31鄰","STREET":"文賢街","SECT":" ","MAREA":" ","LANE":"６８巷","ALLEY":"３６弄","HOUSE_NO":"１２號","E_COORD97":175391.32999999999,"N_COORD97":2545063.0899999999,"ADDRESS":"文賢街６８巷３６弄１２號","OBJECTID":61838},"geometry":{"x":175391.33000000007,"y":2545063.0899999999}},{"attributes":{"ID":61839,"DIS_CODE":0,"TOWNNAME":"北區","LI":"仁愛里","LIN":"10鄰","STREET":"東豐路","SECT":" ","MAREA":" ","LANE":"２２７巷","ALLEY":"２４弄","HOUSE_NO":"１１號之１","E_COORD97":170185.32000000001,"N_COORD97":2544985.8900000001,"ADDRESS":"東豐路２２７巷２４弄１１號之１","OBJECTID":61839},"geometry":{"x":170185.32000000123,"y":2544985.8900000025}},{"attributes":{"ID":61840,"DIS_CODE":0,"TOWNNAME":"安定區","LI":"港尾里","LIN":"1鄰","STREET":" ","SECT":" ","MAREA":"下洲子","LANE":" ","ALLEY":" ","HOUSE_NO":"６之２號","E_COORD97":172455.84,"N_COORD97":2556624.2999999998,"ADDRESS":"下洲子６之２號","OBJECTID":61840},"geometry":{"x":172455.84000000078,"y":2556624.3000000007}},{"attributes":{"ID":61841,"DIS_CODE":0,"TOWNNAME":"安定區","LI":"安加里","LIN":"1鄰","STREET":" ","SECT":" ","MAREA":"安定","LANE":" ","ALLEY":" ","HOUSE_NO":"１５５號","E_COORD97":172065.92000000001,"N_COORD97":2557648.3199999998,"ADDRESS":"安定１５５號","OBJECTID":61841},"geometry":{"x":172065.92000000086,"y":2557648.320000004}},{"attributes":{"ID":61842,"DIS_CODE":0,"TOWNNAME":"安定區","LI":"港尾里","LIN":"1鄰","STREET":" ","SECT":" ","MAREA":"下洲子","LANE":" ","ALLEY":" ","HOUSE_NO":"１０之２號","E_COORD97":172549.89000000001,"N_COORD97":2556628.2999999998,"ADDRESS":"下洲子１０之２號","OBJECTID":61842},"geometry":{"x":172549.88999999873,"y":2556628.3000000045}},{"attributes":{"ID":61843,"DIS_CODE":0,"TOWNNAME":"安定區","LI":"中榮里","LIN":"1鄰","STREET":" ","SECT":" ","MAREA":"許中營","LANE":" ","ALLEY":" ","HOUSE_NO":"５號","E_COORD97":172163.48999999999,"N_COORD97":2555023.25,"ADDRESS":"許中營５號","OBJECTID":61843},"geometry":{"x":172163.49000000209,"y":2555023.25}},{"attributes":{"ID":61844,"DIS_CODE":0,"TOWNNAME":"南區","LI":"荔宅里","LIN":"10鄰","STREET":"大成路","SECT":"一段","MAREA":" ","LANE":"１９３巷","ALLEY":"１６弄","HOUSE_NO":"８號","E_COORD97":167763.76999999999,"N_COORD97":2541648.4399999999,"ADDRESS":"大成路一段１９３巷１６弄８號","OBJECTID":61844},"geometry":{"x":167763.77000000048,"y":2541648.4400000013}},{"attributes":{"ID":61845,"DIS_CODE":0,"TOWNNAME":"南區","LI":"光明里","LIN":"10鄰","STREET":"鹽埕路","SECT":" ","MAREA":" ","LANE":"２９１巷","ALLEY":"３２弄","HOUSE_NO":"１１８號","E_COORD97":166641.41,"N_COORD97":2541382.27,"ADDRESS":"鹽埕路２９１巷３２弄１１８號","OBJECTID":61845},"geometry":{"x":166641.41000000108,"y":2541382.2700000014}},{"attributes":{"ID":61846,"DIS_CODE":0,"TOWNNAME":"南區","LI":"光明里","LIN":"10鄰","STREET":"鹽埕路","SECT":" ","MAREA":" ","LANE":"２９１巷","ALLEY":"３２弄","HOUSE_NO":"１１６號","E_COORD97":166649.35000000001,"N_COORD97":2541377.4199999999,"ADDRESS":"鹽埕路２９１巷３２弄１１６號","OBJECTID":61846},"geometry":{"x":166649.35000000149,"y":2541377.4200000018}},{"attributes":{"ID":61847,"DIS_CODE":0,"TOWNNAME":"南區","LI":"光明里","LIN":"10鄰","STREET":"鹽埕路","SECT":" ","MAREA":" ","LANE":"２９１巷","ALLEY":"３２弄","HOUSE_NO":"１００號","E_COORD97":166685.17000000001,"N_COORD97":2541383.5899999999,"ADDRESS":"鹽埕路２９１巷３２弄１００號","OBJECTID":61847},"geometry":{"x":166685.17000000086,"y":2541383.5900000017}},{"attributes":{"ID":61848,"DIS_CODE":0,"TOWNNAME":"南區","LI":"光明里","LIN":"10鄰","STREET":"鹽埕路","SECT":" ","MAREA":" ","LANE":"２９１巷","ALLEY":"３２弄","HOUSE_NO":"１００號之１","E_COORD97":166684.73000000001,"N_COORD97":2541389.4100000001,"ADDRESS":"鹽埕路２９１巷３２弄１００號之１","OBJECTID":61848},"geometry":{"x":166684.72999999952,"y":2541389.4100000001}},{"attributes":{"ID":61849,"DIS_CODE":0,"TOWNNAME":"南區","LI":"光明里","LIN":"10鄰","STREET":"鹽埕路","SECT":" ","MAREA":" ","LANE":"２９１巷","ALLEY":"３２弄","HOUSE_NO":"９６號","E_COORD97":166683.01000000001,"N_COORD97":2541400.3100000001,"ADDRESS":"鹽埕路２９１巷３２弄９６號","OBJECTID":61849},"geometry":{"x":166683.01000000071,"y":2541400.3100000005}},{"attributes":{"ID":61850,"DIS_CODE":0,"TOWNNAME":"南區","LI":"光明里","LIN":"10鄰","STREET":"鹽埕路","SECT":" ","MAREA":" ","LANE":"２９１巷","ALLEY":"３２弄","HOUSE_NO":"９８號","E_COORD97":166684.04000000001,"N_COORD97":2541394.8799999999,"ADDRESS":"鹽埕路２９１巷３２弄９８號","OBJECTID":61850},"geometry":{"x":166684.0400000019,"y":2541394.879999999}},{"attributes":{"ID":61851,"DIS_CODE":0,"TOWNNAME":"南區","LI":"光明里","LIN":"10鄰","STREET":"鹽埕路","SECT":" ","MAREA":" ","LANE":"２９１巷","ALLEY":"３２弄","HOUSE_NO":"１１２號","E_COORD97":166661.51999999999,"N_COORD97":2541380.5899999999,"ADDRESS":"鹽埕路２９１巷３２弄１１２號","OBJECTID":61851},"geometry":{"x":166661.51999999862,"y":2541380.5900000017}},{"attributes":{"ID":61852,"DIS_CODE":0,"TOWNNAME":"安平區","LI":"平安里","LIN":"10鄰","STREET":"安平路","SECT":" ","MAREA":" ","LANE":"４４６巷","ALLEY":"１７弄","HOUSE_NO":"１４號","E_COORD97":165234.64000000001,"N_COORD97":2544378.6400000001,"ADDRESS":"安平路４４６巷１７弄１４號","OBJECTID":61852},"geometry":{"x":165234.63999999966,"y":2544378.6400000006}},{"attributes":{"ID":61853,"DIS_CODE":0,"TOWNNAME":"安平區","LI":"平安里","LIN":"10鄰","STREET":"安平路","SECT":" ","MAREA":" ","LANE":"４４６巷","ALLEY":"１７弄","HOUSE_NO":"２７號","E_COORD97":165223.29999999999,"N_COORD97":2544369.21,"ADDRESS":"安平路４４６巷１７弄２７號","OBJECTID":61853},"geometry":{"x":165223.30000000075,"y":2544369.2100000009}},{"attributes":{"ID":61854,"DIS_CODE":0,"TOWNNAME":"安平區","LI":"平安里","LIN":"10鄰","STREET":"安平路","SECT":" ","MAREA":" ","LANE":"４４６巷","ALLEY":"１７弄","HOUSE_NO":"２９號","E_COORD97":165219.62,"N_COORD97":2544370.1600000001,"ADDRESS":"安平路４４６巷１７弄２９號","OBJECTID":61854},"geometry":{"x":165219.62000000104,"y":2544370.160000002}},{"attributes":{"ID":61855,"DIS_CODE":0,"TOWNNAME":"歸仁區","LI":"辜厝里","LIN":" ","STREET":"中正二街","SECT":" ","MAREA":" ","LANE":" ","ALLEY":" ","HOUSE_NO":"１５號","E_COORD97":177591.45999999999,"N_COORD97":2540710.1099999999,"ADDRESS":"中正二街１５號","OBJECTID":61855},"geometry":{"x":177591.46000000089,"y":2540710.1099999994}},{"attributes":{"ID":61856,"DIS_CODE":0,"TOWNNAME":"歸仁區","LI":"八甲里","LIN":" ","STREET":"中正北路","SECT":"一段","MAREA":" ","LANE":" ","ALLEY":" ","HOUSE_NO":"２５１號","E_COORD97":177746.63,"N_COORD97":2541709.4900000002,"ADDRESS":"中正北路一段２５１號","OBJECTID":61856},"geometry":{"x":177746.63000000082,"y":2541709.4900000021}},{"attributes":{"ID":61857,"DIS_CODE":0,"TOWNNAME":"歸仁區","LI":"大廟里","LIN":" ","STREET":"保大路","SECT":"三段","MAREA":" ","LANE":" ","ALLEY":" ","HOUSE_NO":"２５３之１號","E_COORD97":175801.03,"N_COORD97":2544242.2599999998,"ADDRESS":"保大路三段２５３之１號","OBJECTID":61857},"geometry":{"x":175801.03000000212,"y":2544242.2599999998}},{"attributes":{"ID":61858,"DIS_CODE":0,"TOWNNAME":"安南區","LI":"顯宮里","LIN":"10鄰","STREET":"顯宮二街","SECT":" ","MAREA":" ","LANE":"２１巷","ALLEY":" ","HOUSE_NO":"１０號","E_COORD97":160462.76999999999,"N_COORD97":2548700.02,"ADDRESS":"顯宮二街２１巷１０號","OBJECTID":61858},"geometry":{"x":160462.77000000048,"y":2548700.0200000014}},{"attributes":{"ID":61859,"DIS_CODE":0,"TOWNNAME":"安南區","LI":"顯宮里","LIN":"10鄰","STREET":"顯宮二街","SECT":" ","MAREA":" ","LANE":"２１巷","ALLEY":" ","HOUSE_NO":"６號","E_COORD97":160471.64999999999,"N_COORD97":2548678.9100000001,"ADDRESS":"顯宮二街２１巷６號","OBJECTID":61859},"geometry":{"x":160471.65000000037,"y":2548678.9100000001}},{"attributes":{"ID":61860,"DIS_CODE":0,"TOWNNAME":"安南區","LI":"顯宮里","LIN":"10鄰","STREET":"顯宮二街","SECT":" ","MAREA":" ","LANE":"２１巷","ALLEY":" ","HOUSE_NO":"２號","E_COORD97":160482.88,"N_COORD97":2548698.4900000002,"ADDRESS":"顯宮二街２１巷２號","OBJECTID":61860},"geometry":{"x":160482.88000000082,"y":2548698.4900000002}},{"attributes":{"ID":61861,"DIS_CODE":0,"TOWNNAME":"歸仁區","LI":"武東里","LIN":" ","STREET":"武東二街","SECT":" ","MAREA":" ","LANE":" ","ALLEY":" ","HOUSE_NO":"４０號","E_COORD97":175534.51999999999,"N_COORD97":2535315.25,"ADDRESS":"武東二街４０號","OBJECTID":61861},"geometry":{"x":175534.52000000048,"y":2535315.25}},{"attributes":{"ID":61862,"DIS_CODE":0,"TOWNNAME":"歸仁區","LI":"西埔里","LIN":"2鄰","STREET":"西埔三街","SECT":" ","MAREA":" ","LANE":" ","ALLEY":" ","HOUSE_NO":"４３號","E_COORD97":176790.08499599999,"N_COORD97":2544017.24676,"ADDRESS":"西埔三街４３號","OBJECTID":61862},"geometry":{"x":176790.08499599993,"y":2544017.2467550002}},{"attributes":{"ID":61863,"DIS_CODE":0,"TOWNNAME":"新營區","LI":"埤寮里","LIN":"4鄰","STREET":" ","SECT":" ","MAREA":"許丑","LANE":" ","ALLEY":" ","HOUSE_NO":"５１號","E_COORD97":179761.78,"N_COORD97":2580995.8399999999,"ADDRESS":"許丑５１號","OBJECTID":61863},"geometry":{"x":179761.78000000119,"y":2580995.8399999999}},{"attributes":{"ID":61864,"DIS_CODE":0,"TOWNNAME":"新營區","LI":"太南里","LIN":"14鄰","STREET":" ","SECT":" ","MAREA":"太子宮","LANE":" ","ALLEY":" ","HOUSE_NO":"２９０號","E_COORD97":176215.42000000001,"N_COORD97":2576696.23,"ADDRESS":"太子宮２９０號","OBJECTID":61864},"geometry":{"x":176215.42000000086,"y":2576696.2300000042}},{"attributes":{"ID":61865,"DIS_CODE":0,"TOWNNAME":"新營區","LI":"埤寮里","LIN":"4鄰","STREET":" ","SECT":" ","MAREA":"許丑","LANE":" ","ALLEY":" ","HOUSE_NO":"４５之２３號","E_COORD97":179762.31,"N_COORD97":2580951.6099999999,"ADDRESS":"許丑４５之２３號","OBJECTID":61865},"geometry":{"x":179762.31000000052,"y":2580951.6100000013}},{"attributes":{"ID":61866,"DIS_CODE":0,"TOWNNAME":"安平區","LI":"平安里","LIN":"10鄰","STREET":"安平路","SECT":" ","MAREA":" ","LANE":"４４６巷","ALLEY":"１７弄","HOUSE_NO":"３１號","E_COORD97":165215.94,"N_COORD97":2544370.9900000002,"ADDRESS":"安平路４４６巷１７弄３１號","OBJECTID":61866},"geometry":{"x":165215.94000000134,"y":2544370.9900000021}},{"attributes":{"ID":61867,"DIS_CODE":0,"TOWNNAME":"安平區","LI":"平安里","LIN":"10鄰","STREET":"安平路","SECT":" ","MAREA":" ","LANE":"４４６巷","ALLEY":"１７弄","HOUSE_NO":"３３號","E_COORD97":165212.62,"N_COORD97":2544371.9399999999,"ADDRESS":"安平路４４６巷１７弄３３號","OBJECTID":61867},"geometry":{"x":165212.62000000104,"y":2544371.9399999995}},{"attributes":{"ID":61868,"DIS_CODE":0,"TOWNNAME":"安平區","LI":"平安里","LIN":"10鄰","STREET":"安平路","SECT":" ","MAREA":" ","LANE":"４４６巷","ALLEY":"１７弄","HOUSE_NO":"３５號","E_COORD97":165209.29000000001,"N_COORD97":2544373.1299999999,"ADDRESS":"安平路４４６巷１７弄３５號","OBJECTID":61868},"geometry":{"x":165209.2900000019,"y":2544373.1300000008}},{"attributes":{"ID":61869,"DIS_CODE":0,"TOWNNAME":"安平區","LI":"平安里","LIN":"10鄰","STREET":"安平路","SECT":" ","MAREA":" ","LANE":"４４６巷","ALLEY":"１７弄","HOUSE_NO":"３７號","E_COORD97":165206.32999999999,"N_COORD97":2544373.3700000001,"ADDRESS":"安平路４４６巷１７弄３７號","OBJECTID":61869},"geometry":{"x":165206.33000000101,"y":2544373.3700000029}},{"attributes":{"ID":61870,"DIS_CODE":0,"TOWNNAME":"安平區","LI":"平安里","LIN":"10鄰","STREET":"安平路","SECT":" ","MAREA":" ","LANE":"４４６巷","ALLEY":"１７弄","HOUSE_NO":"３９號","E_COORD97":165202.81,"N_COORD97":2544374.4900000002,"ADDRESS":"安平路４４６巷１７弄３９號","OBJECTID":61870},"geometry":{"x":165202.80999999959,"y":2544374.4900000021}},{"attributes":{"ID":61871,"DIS_CODE":0,"TOWNNAME":"安平區","LI":"平安里","LIN":"10鄰","STREET":"安平路","SECT":" ","MAREA":" ","LANE":"４４６巷","ALLEY":"１７弄","HOUSE_NO":"１６號","E_COORD97":165230.48999999999,"N_COORD97":2544379.25,"ADDRESS":"安平路４４６巷１７弄１６號","OBJECTID":61871},"geometry":{"x":165230.49000000115,"y":2544379.2500000019}},{"attributes":{"ID":61872,"DIS_CODE":0,"TOWNNAME":"安平區","LI":"平安里","LIN":"10鄰","STREET":"安平路","SECT":" ","MAREA":" ","LANE":"４４６巷","ALLEY":"１７弄","HOUSE_NO":"１８號","E_COORD97":165226.34,"N_COORD97":2544380.23,"ADDRESS":"安平路４４６巷１７弄１８號","OBJECTID":61872},"geometry":{"x":165226.34000000078,"y":2544380.2300000023}},{"attributes":{"ID":61873,"DIS_CODE":0,"TOWNNAME":"安平區","LI":"平安里","LIN":"10鄰","STREET":"安平路","SECT":" ","MAREA":" ","LANE":"４４６巷","ALLEY":"１７弄","HOUSE_NO":"２０號","E_COORD97":165222.44,"N_COORD97":2544380.8300000001,"ADDRESS":"安平路４４６巷１７弄２０號","OBJECTID":61873},"geometry":{"x":165222.44000000134,"y":2544380.8300000001}},{"attributes":{"ID":61874,"DIS_CODE":0,"TOWNNAME":"安平區","LI":"平安里","LIN":"10鄰","STREET":"安平路","SECT":" ","MAREA":" ","LANE":"４４６巷","ALLEY":"１７弄","HOUSE_NO":"２４號","E_COORD97":165214.88,"N_COORD97":2544382.1800000002,"ADDRESS":"安平路４４６巷１７弄２４號","OBJECTID":61874},"geometry":{"x":165214.87999999989,"y":2544382.1800000034}},{"attributes":{"ID":61875,"DIS_CODE":0,"TOWNNAME":"安平區","LI":"平安里","LIN":"10鄰","STREET":"安平路","SECT":" ","MAREA":" ","LANE":"４４６巷","ALLEY":"１７弄","HOUSE_NO":"２６號","E_COORD97":165211.10000000001,"N_COORD97":2544383.0299999998,"ADDRESS":"安平路４４６巷１７弄２６號","OBJECTID":61875},"geometry":{"x":165211.09999999963,"y":2544383.0300000012}},{"attributes":{"ID":61876,"DIS_CODE":0,"TOWNNAME":"安平區","LI":"平安里","LIN":"10鄰","STREET":"安平路","SECT":" ","MAREA":" ","LANE":"４４６巷","ALLEY":"１７弄","HOUSE_NO":"３２號","E_COORD97":165200.85999999999,"N_COORD97":2544385.1000000001,"ADDRESS":"安平路４４６巷１７弄３２號","OBJECTID":61876},"geometry":{"x":165200.86000000127,"y":2544385.0999999996}},{"attributes":{"ID":61877,"DIS_CODE":0,"TOWNNAME":"安平區","LI":"平安里","LIN":"10鄰","STREET":"安平路","SECT":" ","MAREA":" ","LANE":"４４６巷","ALLEY":"１７弄","HOUSE_NO":"３４號","E_COORD97":165197.42999999999,"N_COORD97":2544385.79,"ADDRESS":"安平路４４６巷１７弄３４號","OBJECTID":61877},"geometry":{"x":165197.4299999997,"y":2544385.790000001}},{"attributes":{"ID":61878,"DIS_CODE":0,"TOWNNAME":"安平區","LI":"平安里","LIN":"10鄰","STREET":"安平路","SECT":" ","MAREA":" ","LANE":"４４６巷","ALLEY":"１７弄","HOUSE_NO":"４０號","E_COORD97":165186.42999999999,"N_COORD97":2544388.54,"ADDRESS":"安平路４４６巷１７弄４０號","OBJECTID":61878},"geometry":{"x":165186.43000000063,"y":2544388.5399999991}},{"attributes":{"ID":61879,"DIS_CODE":0,"TOWNNAME":"安平區","LI":"平安里","LIN":"10鄰","STREET":"安平路","SECT":" ","MAREA":" ","LANE":"４４６巷","ALLEY":"１７弄","HOUSE_NO":"４２號","E_COORD97":165184.34,"N_COORD97":2544389.7400000002,"ADDRESS":"安平路４４６巷１７弄４２號","OBJECTID":61879},"geometry":{"x":165184.33999999985,"y":2544389.7400000021}},{"attributes":{"ID":61880,"DIS_CODE":0,"TOWNNAME":"南區","LI":"喜東里","LIN":"10鄰","STREET":"中華南路","SECT":"二段","MAREA":" ","LANE":"２４９巷","ALLEY":"３２弄","HOUSE_NO":"４０號","E_COORD97":166584.79999999999,"N_COORD97":2540115.2000000002,"ADDRESS":"中華南路二段２４９巷３２弄４０號","OBJECTID":61880},"geometry":{"x":166584.79999999981,"y":2540115.1999999993}},{"attributes":{"ID":61881,"DIS_CODE":0,"TOWNNAME":"南區","LI":"喜東里","LIN":"10鄰","STREET":"永成路","SECT":"二段","MAREA":" ","LANE":"９００巷","ALLEY":"４６７弄","HOUSE_NO":"３００號","E_COORD97":167780.62,"N_COORD97":2538644.4100000001,"ADDRESS":"永成路二段９００巷４６７弄３００號","OBJECTID":61881},"geometry":{"x":167780.62000000104,"y":2538644.4100000039}},{"attributes":{"ID":61882,"DIS_CODE":0,"TOWNNAME":"新營區","LI":"新南里","LIN":"12鄰","STREET":"新北七街","SECT":" ","MAREA":" ","LANE":" ","ALLEY":" ","HOUSE_NO":"３４號","E_COORD97":178511.56,"N_COORD97":2579184.5,"ADDRESS":"新北七街３４號","OBJECTID":61882},"geometry":{"x":178511.56000000052,"y":2579184.5}},{"attributes":{"ID":61883,"DIS_CODE":0,"TOWNNAME":"新營區","LI":"民權里","LIN":" ","STREET":"三民路","SECT":" ","MAREA":" ","LANE":" ","ALLEY":" ","HOUSE_NO":"１３０之７號","E_COORD97":179707.53,"N_COORD97":2578476.71,"ADDRESS":"三民路１３０之７號","OBJECTID":61883},"geometry":{"x":179707.53000000119,"y":2578476.7100000046}},{"attributes":{"ID":61884,"DIS_CODE":0,"TOWNNAME":"新營區","LI":"新東里","LIN":"17鄰","STREET":"東興二街","SECT":" ","MAREA":" ","LANE":" ","ALLEY":" ","HOUSE_NO":"５１號","E_COORD97":180958.45000000001,"N_COORD97":2579051.0699999998,"ADDRESS":"東興二街５１號","OBJECTID":61884},"geometry":{"x":180958.45000000112,"y":2579051.0700000022}},{"attributes":{"ID":61885,"DIS_CODE":0,"TOWNNAME":"南區","LI":"荔宅里","LIN":"10鄰","STREET":"大成路","SECT":"一段","MAREA":" ","LANE":"１９３巷","ALLEY":"１６弄","HOUSE_NO":"６號","E_COORD97":167763.76999999999,"N_COORD97":2541654.1499999999,"ADDRESS":"大成路一段１９３巷１６弄６號","OBJECTID":61885},"geometry":{"x":167763.77000000048,"y":2541654.1500000022}},{"attributes":{"ID":61886,"DIS_CODE":0,"TOWNNAME":"南區","LI":"荔宅里","LIN":"10鄰","STREET":"大成路","SECT":"一段","MAREA":" ","LANE":"１９３巷","ALLEY":"１６弄","HOUSE_NO":"１０號","E_COORD97":167763.92999999999,"N_COORD97":2541631.29,"ADDRESS":"大成路一段１９３巷１６弄１０號","OBJECTID":61886},"geometry":{"x":167763.9299999997,"y":2541631.2900000028}},{"attributes":{"ID":61887,"DIS_CODE":0,"TOWNNAME":"南區","LI":"荔宅里","LIN":"10鄰","STREET":"大成路","SECT":"一段","MAREA":" ","LANE":"１９３巷","ALLEY":"１６弄","HOUSE_NO":"１２號","E_COORD97":167760.59,"N_COORD97":2541624.6200000001,"ADDRESS":"大成路一段１９３巷１６弄１２號","OBJECTID":61887},"geometry":{"x":167760.59000000078,"y":2541624.6200000029}},{"attributes":{"ID":61888,"DIS_CODE":0,"TOWNNAME":"南區","LI":"荔宅里","LIN":"10鄰","STREET":"大成路","SECT":"一段","MAREA":" ","LANE":"１９３巷","ALLEY":"１６弄","HOUSE_NO":"１６號","E_COORD97":167762.34,"N_COORD97":2541615.73,"ADDRESS":"大成路一段１９３巷１６弄１６號","OBJECTID":61888},"geometry":{"x":167762.34000000078,"y":2541615.7299999986}},{"attributes":{"ID":61889,"DIS_CODE":0,"TOWNNAME":"南區","LI":"喜東里","LIN":"10鄰","STREET":"永成路","SECT":"二段","MAREA":" ","LANE":"９００巷","ALLEY":"４５８弄","HOUSE_NO":"２１號","E_COORD97":167687.29999999999,"N_COORD97":2538718.71,"ADDRESS":"永成路二段９００巷４５８弄２１號","OBJECTID":61889},"geometry":{"x":167687.30000000168,"y":2538718.7100000028}},{"attributes":{"ID":61890,"DIS_CODE":0,"TOWNNAME":"學甲區","LI":"大灣里","LIN":"6鄰","STREET":" ","SECT":" ","MAREA":"大灣","LANE":" ","ALLEY":" ","HOUSE_NO":"６６號","E_COORD97":166907.23999999999,"N_COORD97":2567896.4199999999,"ADDRESS":"大灣６６號","OBJECTID":61890},"geometry":{"x":166907.24000000115,"y":2567896.4200000037}},{"attributes":{"ID":61891,"DIS_CODE":0,"TOWNNAME":"安定區","LI":"海寮里","LIN":"1鄰","STREET":" ","SECT":" ","MAREA":"海寮","LANE":" ","ALLEY":" ","HOUSE_NO":"１２之４號","E_COORD97":169135.69,"N_COORD97":2555160.2999999998,"ADDRESS":"海寮１２之４號","OBJECTID":61891},"geometry":{"x":169135.69000000041,"y":2555160.3000000045}},{"attributes":{"ID":61892,"DIS_CODE":0,"TOWNNAME":"安定區","LI":"海寮里","LIN":"1鄰","STREET":" ","SECT":" ","MAREA":"海寮","LANE":" ","ALLEY":" ","HOUSE_NO":"７之３１號","E_COORD97":169093.79000000001,"N_COORD97":2554694.2999999998,"ADDRESS":"海寮７之３１號","OBJECTID":61892},"geometry":{"x":169093.79000000004,"y":2554694.3000000007}},{"attributes":{"ID":61893,"DIS_CODE":0,"TOWNNAME":"安定區","LI":"海寮里","LIN":"1鄰","STREET":" ","SECT":" ","MAREA":"海寮","LANE":" ","ALLEY":" ","HOUSE_NO":"１２之３號","E_COORD97":169136.89000000001,"N_COORD97":2555155.2999999998,"ADDRESS":"海寮１２之３號","OBJECTID":61893},"geometry":{"x":169136.88999999966,"y":2555155.3000000026}},{"attributes":{"ID":61894,"DIS_CODE":0,"TOWNNAME":"安定區","LI":"海寮里","LIN":"1鄰","STREET":" ","SECT":" ","MAREA":"海寮","LANE":" ","ALLEY":" ","HOUSE_NO":"７之３０號","E_COORD97":169092.79000000001,"N_COORD97":2554699.2999999998,"ADDRESS":"海寮７之３０號","OBJECTID":61894},"geometry":{"x":169092.78999999911,"y":2554699.3000000045}},{"attributes":{"ID":61895,"DIS_CODE":0,"TOWNNAME":"安定區","LI":"海寮里","LIN":"1鄰","STREET":" ","SECT":" ","MAREA":"海寮","LANE":" ","ALLEY":" ","HOUSE_NO":"６號之１","E_COORD97":169015.649,"N_COORD97":2555131.6197299999,"ADDRESS":"海寮６號之１","OBJECTID":61895},"geometry":{"x":169015.64900000114,"y":2555131.6197290048}},{"attributes":{"ID":61896,"DIS_CODE":0,"TOWNNAME":"安定區","LI":"中榮里","LIN":"1鄰","STREET":" ","SECT":" ","MAREA":"許中營","LANE":" ","ALLEY":" ","HOUSE_NO":"９之１號","E_COORD97":172200.330938,"N_COORD97":2555012.7837299998,"ADDRESS":"許中營９之１號","OBJECTID":61896},"geometry":{"x":172200.33093800116,"y":2555012.7837250028}},{"attributes":{"ID":61897,"DIS_CODE":0,"TOWNNAME":"安定區","LI":"海寮里","LIN":"1鄰","STREET":" ","SECT":" ","MAREA":"海寮","LANE":" ","ALLEY":" ","HOUSE_NO":"７號之６","E_COORD97":169162.48000000001,"N_COORD97":2554802.2999999998,"ADDRESS":"海寮７號之６","OBJECTID":61897},"geometry":{"x":169162.48000000045,"y":2554802.3000000026}},{"attributes":{"ID":61898,"DIS_CODE":0,"TOWNNAME":"安定區","LI":"海寮里","LIN":"1鄰","STREET":" ","SECT":" ","MAREA":"海寮","LANE":" ","ALLEY":" ","HOUSE_NO":"１１之２５號","E_COORD97":169079.54000000001,"N_COORD97":2555165.2999999998,"ADDRESS":"海寮１１之２５號","OBJECTID":61898},"geometry":{"x":169079.54000000097,"y":2555165.3000000026}},{"attributes":{"ID":61899,"DIS_CODE":0,"TOWNNAME":"安定區","LI":"海寮里","LIN":"1鄰","STREET":" ","SECT":" ","MAREA":"海寮","LANE":" ","ALLEY":" ","HOUSE_NO":"９號","E_COORD97":169035.04000000001,"N_COORD97":2555177.25,"ADDRESS":"海寮９號","OBJECTID":61899},"geometry":{"x":169035.04000000004,"y":2555177.2500000019}},{"attributes":{"ID":61900,"DIS_CODE":0,"TOWNNAME":"安定區","LI":"海寮里","LIN":"1鄰","STREET":" ","SECT":" ","MAREA":"海寮","LANE":" ","ALLEY":" ","HOUSE_NO":"７之２９號","E_COORD97":169092.59,"N_COORD97":2554704.2999999998,"ADDRESS":"海寮７之２９號","OBJECTID":61900},"geometry":{"x":169092.59000000078,"y":2554704.3000000026}},{"attributes":{"ID":61901,"DIS_CODE":0,"TOWNNAME":"安定區","LI":"海寮里","LIN":"1鄰","STREET":" ","SECT":" ","MAREA":"海寮","LANE":" ","ALLEY":" ","HOUSE_NO":"６之４號","E_COORD97":169017.14000000001,"N_COORD97":2555105.2999999998,"ADDRESS":"海寮６之４號","OBJECTID":61901},"geometry":{"x":169017.13999999873,"y":2555105.3000000007}},{"attributes":{"ID":61902,"DIS_CODE":0,"TOWNNAME":"安定區","LI":"海寮里","LIN":"1鄰","STREET":" ","SECT":" ","MAREA":"海寮","LANE":" ","ALLEY":" ","HOUSE_NO":"１１之２８號","E_COORD97":169077.84,"N_COORD97":2555177.2999999998,"ADDRESS":"海寮１１之２８號","OBJECTID":61902},"geometry":{"x":169077.84000000078,"y":2555177.3000000045}},{"attributes":{"ID":61903,"DIS_CODE":0,"TOWNNAME":"安定區","LI":"中榮里","LIN":"1鄰","STREET":" ","SECT":" ","MAREA":"許中營","LANE":" ","ALLEY":" ","HOUSE_NO":"１０之２號","E_COORD97":172231.31,"N_COORD97":2554960.2999999998,"ADDRESS":"許中營１０號之２","OBJECTID":61903},"geometry":{"x":172231.30999999959,"y":2554960.3000000045}},{"attributes":{"ID":61904,"DIS_CODE":0,"TOWNNAME":"安定區","LI":"海寮里","LIN":"1鄰","STREET":" ","SECT":" ","MAREA":"海寮","LANE":" ","ALLEY":" ","HOUSE_NO":"５之３３號","E_COORD97":169027.36387599999,"N_COORD97":2554978.6465500002,"ADDRESS":"海寮５之３３號","OBJECTID":61904},"geometry":{"x":169027.36387600005,"y":2554978.6465470027}},{"attributes":{"ID":61905,"DIS_CODE":0,"TOWNNAME":"安定區","LI":"海寮里","LIN":"1鄰","STREET":" ","SECT":" ","MAREA":"海寮","LANE":" ","ALLEY":" ","HOUSE_NO":"１０號","E_COORD97":169052.39000000001,"N_COORD97":2555113.25,"ADDRESS":"海寮１０號","OBJECTID":61905},"geometry":{"x":169052.38999999966,"y":2555113.2500000019}},{"attributes":{"ID":61906,"DIS_CODE":0,"TOWNNAME":"安定區","LI":"海寮里","LIN":"1鄰","STREET":" ","SECT":" ","MAREA":"海寮","LANE":" ","ALLEY":" ","HOUSE_NO":"５之２９號","E_COORD97":169015.09,"N_COORD97":2554551.2999999998,"ADDRESS":"海寮５之２９號","OBJECTID":61906},"geometry":{"x":169015.09000000078,"y":2554551.3000000026}},{"attributes":{"ID":61907,"DIS_CODE":0,"TOWNNAME":"北區","LI":"興南里","LIN":"8鄰","STREET":"公園北路","SECT":" ","MAREA":" ","LANE":" ","ALLEY":" ","HOUSE_NO":"１１８號","E_COORD97":168953.82000000001,"N_COORD97":2545056.0600000001,"ADDRESS":"公園北路１１８號","OBJECTID":61907},"geometry":{"x":168953.81999999937,"y":2545056.0600000024}},{"attributes":{"ID":61908,"DIS_CODE":0,"TOWNNAME":"北區","LI":"興南里","LIN":"8鄰","STREET":"公園北路","SECT":" ","MAREA":" ","LANE":" ","ALLEY":" ","HOUSE_NO":"１２０號","E_COORD97":168949.16,"N_COORD97":2545056.8199999998,"ADDRESS":"公園北路１２０號","OBJECTID":61908},"geometry":{"x":168949.16000000015,"y":2545056.8200000022}},{"attributes":{"ID":61909,"DIS_CODE":0,"TOWNNAME":"北區","LI":"興南里","LIN":"8鄰","STREET":"公園北路","SECT":" ","MAREA":" ","LANE":" ","ALLEY":" ","HOUSE_NO":"１２２號","E_COORD97":168944.25,"N_COORD97":2545057.1899999999,"ADDRESS":"公園北路１２２號","OBJECTID":61909},"geometry":{"x":168944.25000000093,"y":2545057.1900000013}},{"attributes":{"ID":61910,"DIS_CODE":0,"TOWNNAME":"北區","LI":"興南里","LIN":"8鄰","STREET":"公園北路","SECT":" ","MAREA":" ","LANE":" ","ALLEY":" ","HOUSE_NO":"１２４號","E_COORD97":168938.09,"N_COORD97":2545058.4500000002,"ADDRESS":"公園北路１２４號","OBJECTID":61910},"geometry":{"x":168938.09000000171,"y":2545058.4500000011}},{"attributes":{"ID":61911,"DIS_CODE":0,"TOWNNAME":"北區","LI":"興南里","LIN":"8鄰","STREET":"公園北路","SECT":" ","MAREA":" ","LANE":" ","ALLEY":" ","HOUSE_NO":"１２６號","E_COORD97":168933.29999999999,"N_COORD97":2545059.96,"ADDRESS":"公園北路１２６號","OBJECTID":61911},"geometry":{"x":168933.30000000168,"y":2545059.9600000028}},{"attributes":{"ID":61912,"DIS_CODE":0,"TOWNNAME":"北區","LI":"興南里","LIN":"8鄰","STREET":"公園北路","SECT":" ","MAREA":" ","LANE":" ","ALLEY":" ","HOUSE_NO":"１２８號","E_COORD97":168928.76999999999,"N_COORD97":2545061.2200000002,"ADDRESS":"公園北路１２８號","OBJECTID":61912},"geometry":{"x":168928.77000000048,"y":2545061.2200000025}},{"attributes":{"ID":61913,"DIS_CODE":0,"TOWNNAME":"北區","LI":"興南里","LIN":"8鄰","STREET":"公園北路","SECT":" ","MAREA":" ","LANE":" ","ALLEY":" ","HOUSE_NO":"１３０號","E_COORD97":168923.35999999999,"N_COORD97":2545061.9700000002,"ADDRESS":"公園北路１３０號","OBJECTID":61913},"geometry":{"x":168923.36000000127,"y":2545061.9700000007}},{"attributes":{"ID":61914,"DIS_CODE":0,"TOWNNAME":"歸仁區","LI":"沙崙里","LIN":"8鄰","STREET":" ","SECT":" ","MAREA":"沙崙","LANE":" ","ALLEY":" ","HOUSE_NO":"２４３號","E_COORD97":179430.29999999999,"N_COORD97":2537549.25,"ADDRESS":"沙崙２４３號","OBJECTID":61914},"geometry":{"x":179430.30000000075,"y":2537549.25}},{"attributes":{"ID":61915,"DIS_CODE":0,"TOWNNAME":"歸仁區","LI":"沙崙里","LIN":"8鄰","STREET":" ","SECT":" ","MAREA":"沙崙","LANE":" ","ALLEY":" ","HOUSE_NO":"２４１號","E_COORD97":179451.10000000001,"N_COORD97":2537620.25,"ADDRESS":"沙崙２４１號","OBJECTID":61915},"geometry":{"x":179451.09999999963,"y":2537620.25}},{"attributes":{"ID":61916,"DIS_CODE":0,"TOWNNAME":"學甲區","LI":"三慶里","LIN":"7鄰","STREET":" ","SECT":" ","MAREA":"頂洲","LANE":" ","ALLEY":" ","HOUSE_NO":"９５號","E_COORD97":168498.07000000001,"N_COORD97":2576343.3199999998,"ADDRESS":"頂洲９５號","OBJECTID":61916},"geometry":{"x":168498.07000000216,"y":2576343.3200000022}},{"attributes":{"ID":61917,"DIS_CODE":0,"TOWNNAME":"歸仁區","LI":"沙崙里","LIN":"8鄰","STREET":" ","SECT":" ","MAREA":"沙崙","LANE":" ","ALLEY":" ","HOUSE_NO":"２１９號","E_COORD97":179420.39999999999,"N_COORD97":2537635.25,"ADDRESS":"沙崙２１９號","OBJECTID":61917},"geometry":{"x":179420.4000000013,"y":2537635.2500000037}},{"attributes":{"ID":61918,"DIS_CODE":0,"TOWNNAME":"安定區","LI":"海寮里","LIN":"1鄰","STREET":" ","SECT":" ","MAREA":"海寮","LANE":" ","ALLEY":" ","HOUSE_NO":"７之１９號","E_COORD97":169077.65117299999,"N_COORD97":2554820.7821,"ADDRESS":"海寮７之１９號","OBJECTID":61918},"geometry":{"x":169077.65117300116,"y":2554820.7821040042}},{"attributes":{"ID":61919,"DIS_CODE":0,"TOWNNAME":"安定區","LI":"海寮里","LIN":"1鄰","STREET":" ","SECT":" ","MAREA":"海寮","LANE":" ","ALLEY":" ","HOUSE_NO":"５之１１號","E_COORD97":168938.19,"N_COORD97":2555049.2999999998,"ADDRESS":"海寮５之１１號","OBJECTID":61919},"geometry":{"x":168938.19000000134,"y":2555049.3000000026}},{"attributes":{"ID":61920,"DIS_CODE":0,"TOWNNAME":"安定區","LI":"海寮里","LIN":"1鄰","STREET":" ","SECT":" ","MAREA":"海寮","LANE":" ","ALLEY":" ","HOUSE_NO":"１１之１１號","E_COORD97":169099.57999999999,"N_COORD97":2555159.2999999998,"ADDRESS":"海寮１１號之１１","OBJECTID":61920},"geometry":{"x":169099.58000000101,"y":2555159.3000000007}},{"attributes":{"ID":61921,"DIS_CODE":0,"TOWNNAME":"安定區","LI":"中榮里","LIN":"1鄰","STREET":" ","SECT":" ","MAREA":"許中營","LANE":" ","ALLEY":" ","HOUSE_NO":"１０之８號","E_COORD97":172255.23999999999,"N_COORD97":2554954.2999999998,"ADDRESS":"許中營１０之８號","OBJECTID":61921},"geometry":{"x":172255.24000000115,"y":2554954.3000000026}},{"attributes":{"ID":61922,"DIS_CODE":0,"TOWNNAME":"安定區","LI":"六嘉里","LIN":"1鄰","STREET":" ","SECT":" ","MAREA":"六塊寮","LANE":" ","ALLEY":" ","HOUSE_NO":"８之３號","E_COORD97":170462.17000000001,"N_COORD97":2553543.2999999998,"ADDRESS":"六塊寮８之３號","OBJECTID":61922},"geometry":{"x":170462.17000000086,"y":2553543.3000000045}},{"attributes":{"ID":61923,"DIS_CODE":0,"TOWNNAME":"安定區","LI":"海寮里","LIN":"1鄰","STREET":" ","SECT":" ","MAREA":"海寮","LANE":" ","ALLEY":" ","HOUSE_NO":"６之５號","E_COORD97":169017.873008,"N_COORD97":2555103.8914100002,"ADDRESS":"海寮６之５號","OBJECTID":61923},"geometry":{"x":169017.87300799973,"y":2555103.8914110009}},{"attributes":{"ID":61924,"DIS_CODE":0,"TOWNNAME":"安定區","LI":"海寮里","LIN":"1鄰","STREET":" ","SECT":" ","MAREA":"海寮","LANE":" ","ALLEY":" ","HOUSE_NO":"７之７５號","E_COORD97":169058.253142,"N_COORD97":2555036.28259,"ADDRESS":"海寮７之７５號","OBJECTID":61924},"geometry":{"x":169058.25314200018,"y":2555036.2825870011}},{"attributes":{"ID":61925,"DIS_CODE":0,"TOWNNAME":"安定區","LI":"中榮里","LIN":"1鄰","STREET":" ","SECT":" ","MAREA":"許中營","LANE":" ","ALLEY":" ","HOUSE_NO":"１１號","E_COORD97":172206.64000000001,"N_COORD97":2554942.25,"ADDRESS":"許中營１１號","OBJECTID":61925},"geometry":{"x":172206.6400000006,"y":2554942.25}},{"attributes":{"ID":61926,"DIS_CODE":0,"TOWNNAME":"安定區","LI":"中榮里","LIN":"1鄰","STREET":" ","SECT":" ","MAREA":"許中營","LANE":" ","ALLEY":" ","HOUSE_NO":"１１號之３","E_COORD97":172075.07999999999,"N_COORD97":2554435.2999999998,"ADDRESS":"許中營１１號之３","OBJECTID":61926},"geometry":{"x":172075.08000000101,"y":2554435.3000000026}},{"attributes":{"ID":61927,"DIS_CODE":0,"TOWNNAME":"安定區","LI":"海寮里","LIN":"1鄰","STREET":" ","SECT":" ","MAREA":"海寮","LANE":" ","ALLEY":" ","HOUSE_NO":"５之１５號","E_COORD97":168919.19,"N_COORD97":2554527.2999999998,"ADDRESS":"海寮５之１５號","OBJECTID":61927},"geometry":{"x":168919.19000000041,"y":2554527.3000000026}},{"attributes":{"ID":61928,"DIS_CODE":0,"TOWNNAME":"安定區","LI":"中沙里","LIN":"1鄰","STREET":" ","SECT":" ","MAREA":"中崙","LANE":" ","ALLEY":" ","HOUSE_NO":"８２號","E_COORD97":168942.39024000001,"N_COORD97":2553286.35782,"ADDRESS":"中崙８２號","OBJECTID":61928},"geometry":{"x":168942.39024000056,"y":2553286.3578210007}},{"attributes":{"ID":61929,"DIS_CODE":0,"TOWNNAME":"安定區","LI":"港尾里","LIN":"1鄰","STREET":" ","SECT":" ","MAREA":"下洲子","LANE":" ","ALLEY":" ","HOUSE_NO":"２之１號","E_COORD97":172481.04000000001,"N_COORD97":2556579.2999999998,"ADDRESS":"下洲子２之１號","OBJECTID":61929},"geometry":{"x":172481.04000000004,"y":2556579.3000000007}},{"attributes":{"ID":61930,"DIS_CODE":0,"TOWNNAME":"安定區","LI":"保西里","LIN":"1鄰","STREET":" ","SECT":" ","MAREA":"安定","LANE":" ","ALLEY":" ","HOUSE_NO":"３３３號","E_COORD97":171722.51999999999,"N_COORD97":2557544.3199999998,"ADDRESS":"安定３３３號","OBJECTID":61930},"geometry":{"x":171722.52000000048,"y":2557544.3200000022}},{"attributes":{"ID":61931,"DIS_CODE":0,"TOWNNAME":"安定區","LI":"海寮里","LIN":"1鄰","STREET":" ","SECT":" ","MAREA":"海寮","LANE":" ","ALLEY":" ","HOUSE_NO":"１１之１７號","E_COORD97":169082.64000000001,"N_COORD97":2555129.2999999998,"ADDRESS":"海寮１１之１７號","OBJECTID":61931},"geometry":{"x":169082.63999999966,"y":2555129.3000000007}},{"attributes":{"ID":61932,"DIS_CODE":0,"TOWNNAME":"安定區","LI":"海寮里","LIN":"1鄰","STREET":" ","SECT":" ","MAREA":"海寮","LANE":" ","ALLEY":" ","HOUSE_NO":"７之５３號","E_COORD97":169067.78415600001,"N_COORD97":2554915.42099,"ADDRESS":"海寮７之５３號","OBJECTID":61932},"geometry":{"x":169067.78415600117,"y":2554915.4209850021}},{"attributes":{"ID":61933,"DIS_CODE":0,"TOWNNAME":"安定區","LI":"安加里","LIN":"1鄰","STREET":" ","SECT":" ","MAREA":"安定","LANE":" ","ALLEY":" ","HOUSE_NO":"１５５之１號","E_COORD97":172013.72227,"N_COORD97":2557653.87708,"ADDRESS":"安定１５５之１號","OBJECTID":61933},"geometry":{"x":172013.72226999979,"y":2557653.877085004}},{"attributes":{"ID":61934,"DIS_CODE":0,"TOWNNAME":"安定區","LI":"中榮里","LIN":"1鄰","STREET":" ","SECT":" ","MAREA":"許中營","LANE":" ","ALLEY":" ","HOUSE_NO":"１０號之１","E_COORD97":172226.38,"N_COORD97":2554961.2999999998,"ADDRESS":"許中營１０號之１","OBJECTID":61934},"geometry":{"x":172226.37999999896,"y":2554961.3000000026}},{"attributes":{"ID":61935,"DIS_CODE":0,"TOWNNAME":"歸仁區","LI":"沙崙里","LIN":"8鄰","STREET":" ","SECT":" ","MAREA":"沙崙","LANE":" ","ALLEY":" ","HOUSE_NO":"２３５號","E_COORD97":179397.29999999999,"N_COORD97":2537734.25,"ADDRESS":"沙崙２３５號","OBJECTID":61935},"geometry":{"x":179397.29999999981,"y":2537734.2500000019}},{"attributes":{"ID":61936,"DIS_CODE":0,"TOWNNAME":"東山區","LI":"南勢里","LIN":"8鄰","STREET":" ","SECT":" ","MAREA":"大洋","LANE":" ","ALLEY":" ","HOUSE_NO":"７８號","E_COORD97":195251.84,"N_COORD97":2572787.3599999999,"ADDRESS":"大洋７８號","OBJECTID":61936},"geometry":{"x":195251.83999999985,"y":2572787.3599999994}},{"attributes":{"ID":61937,"DIS_CODE":0,"TOWNNAME":"東山區","LI":"南勢里","LIN":"8鄰","STREET":" ","SECT":" ","MAREA":"大洋","LANE":" ","ALLEY":" ","HOUSE_NO":"８２號","E_COORD97":195034.97,"N_COORD97":2572485.1299999999,"ADDRESS":"大洋８２號","OBJECTID":61937},"geometry":{"x":195034.97000000067,"y":2572485.1300000008}},{"attributes":{"ID":61938,"DIS_CODE":0,"TOWNNAME":"東山區","LI":"南勢里","LIN":"8鄰","STREET":" ","SECT":" ","MAREA":"大洋","LANE":" ","ALLEY":" ","HOUSE_NO":"８３號之１","E_COORD97":194699.62,"N_COORD97":2572993.3100000001,"ADDRESS":"大洋８３號之１","OBJECTID":61938},"geometry":{"x":194699.62000000011,"y":2572993.3099999987}},{"attributes":{"ID":61939,"DIS_CODE":0,"TOWNNAME":"永康區","LI":"埔園里","LIN":"31鄰","STREET":"八德街","SECT":" ","MAREA":" ","LANE":"３２６巷","ALLEY":"３５弄","HOUSE_NO":"６號","E_COORD97":173625.84,"N_COORD97":2548693.8399999999,"ADDRESS":"八德街３２６巷３５弄６號","OBJECTID":61939},"geometry":{"x":173625.84000000078,"y":2548693.8400000036}},{"attributes":{"ID":61940,"DIS_CODE":0,"TOWNNAME":"歸仁區","LI":"大廟里","LIN":"8鄰","STREET":"大廟一街","SECT":" ","MAREA":" ","LANE":"９３巷","ALLEY":" ","HOUSE_NO":"９號","E_COORD97":175822.37,"N_COORD97":2543937.25,"ADDRESS":"大廟一街９３巷９號","OBJECTID":61940},"geometry":{"x":175822.37000000197,"y":2543937.25}},{"attributes":{"ID":61941,"DIS_CODE":0,"TOWNNAME":"歸仁區","LI":"文化里","LIN":"8鄰","STREET":"文化北街","SECT":" ","MAREA":" ","LANE":" ","ALLEY":" ","HOUSE_NO":"１３７號","E_COORD97":177136.41,"N_COORD97":2541404.3399999999,"ADDRESS":"文化北街１３７號","OBJECTID":61941},"geometry":{"x":177136.41000000108,"y":2541404.3400000036}},{"attributes":{"ID":61942,"DIS_CODE":0,"TOWNNAME":"東山區","LI":"南勢里","LIN":"8鄰","STREET":" ","SECT":" ","MAREA":"大洋","LANE":" ","ALLEY":" ","HOUSE_NO":"８３號","E_COORD97":194649.03,"N_COORD97":2573038.5499999998,"ADDRESS":"大洋８３號","OBJECTID":61942},"geometry":{"x":194649.03000000026,"y":2573038.5500000007}},{"attributes":{"ID":61943,"DIS_CODE":0,"TOWNNAME":"東山區","LI":"南勢里","LIN":"8鄰","STREET":" ","SECT":" ","MAREA":"大洋","LANE":" ","ALLEY":" ","HOUSE_NO":"８４號","E_COORD97":194601.23000000001,"N_COORD97":2572865.0800000001,"ADDRESS":"大洋８４號","OBJECTID":61943},"geometry":{"x":194601.23000000231,"y":2572865.0800000001}},{"attributes":{"ID":61944,"DIS_CODE":0,"TOWNNAME":"安定區","LI":"海寮里","LIN":"1鄰","STREET":" ","SECT":" ","MAREA":"海寮","LANE":" ","ALLEY":" ","HOUSE_NO":"７之２４號","E_COORD97":169090.19,"N_COORD97":2554729.2999999998,"ADDRESS":"海寮７之２４號","OBJECTID":61944},"geometry":{"x":169090.19000000041,"y":2554729.3000000007}},{"attributes":{"ID":61945,"DIS_CODE":0,"TOWNNAME":"安定區","LI":"南安里","LIN":"1鄰","STREET":" ","SECT":" ","MAREA":"油車","LANE":" ","ALLEY":" ","HOUSE_NO":"１１號之１","E_COORD97":170775.78,"N_COORD97":2555832.2999999998,"ADDRESS":"油車１１號之１","OBJECTID":61945},"geometry":{"x":170775.78000000026,"y":2555832.3000000026}},{"attributes":{"ID":61946,"DIS_CODE":0,"TOWNNAME":"安定區","LI":"中榮里","LIN":"1鄰","STREET":" ","SECT":" ","MAREA":"許中營","LANE":" ","ALLEY":" ","HOUSE_NO":"５之２號","E_COORD97":172170.19,"N_COORD97":2555044.2999999998,"ADDRESS":"許中營５之２號","OBJECTID":61946},"geometry":{"x":172170.19000000041,"y":2555044.3000000007}},{"attributes":{"ID":61947,"DIS_CODE":0,"TOWNNAME":"安定區","LI":"海寮里","LIN":"1鄰","STREET":" ","SECT":" ","MAREA":"海寮","LANE":" ","ALLEY":" ","HOUSE_NO":"１０號之１３","E_COORD97":169055.38,"N_COORD97":2555165.2999999998,"ADDRESS":"海寮１０號之１３","OBJECTID":61947},"geometry":{"x":169055.38000000082,"y":2555165.3000000026}},{"attributes":{"ID":61948,"DIS_CODE":0,"TOWNNAME":"安定區","LI":"海寮里","LIN":"1鄰","STREET":" ","SECT":" ","MAREA":"海寮","LANE":" ","ALLEY":" ","HOUSE_NO":"１０號之１０","E_COORD97":169050.73000000001,"N_COORD97":2555153.2999999998,"ADDRESS":"海寮１０號之１０","OBJECTID":61948},"geometry":{"x":169050.73000000045,"y":2555153.3000000007}},{"attributes":{"ID":61949,"DIS_CODE":0,"TOWNNAME":"安定區","LI":"海寮里","LIN":"1鄰","STREET":" ","SECT":" ","MAREA":"海寮","LANE":" ","ALLEY":" ","HOUSE_NO":"７之６３號","E_COORD97":169062.48914799999,"N_COORD97":2554976.1692900001,"ADDRESS":"海寮７之６３號","OBJECTID":61949},"geometry":{"x":169062.48914800119,"y":2554976.1692859996}},{"attributes":{"ID":61950,"DIS_CODE":0,"TOWNNAME":"安定區","LI":"中榮里","LIN":"1鄰","STREET":" ","SECT":" ","MAREA":"許中營","LANE":" ","ALLEY":" ","HOUSE_NO":"１０號之３","E_COORD97":172234.98000000001,"N_COORD97":2554959.2999999998,"ADDRESS":"許中營１０號之３","OBJECTID":61950},"geometry":{"x":172234.98000000231,"y":2554959.3000000007}},{"attributes":{"ID":61951,"DIS_CODE":0,"TOWNNAME":"安定區","LI":"海寮里","LIN":"1鄰","STREET":" ","SECT":" ","MAREA":"海寮","LANE":" ","ALLEY":" ","HOUSE_NO":"５之１２號","E_COORD97":169027.89000000001,"N_COORD97":2554933.2999999998,"ADDRESS":"海寮５之１２號","OBJECTID":61951},"geometry":{"x":169027.8900000006,"y":2554933.3000000045}},{"attributes":{"ID":61952,"DIS_CODE":0,"TOWNNAME":"永康區","LI":"西勢里","LIN":"31鄰","STREET":"富強路","SECT":"一段","MAREA":" ","LANE":"９３巷","ALLEY":"１０弄","HOUSE_NO":"１０號","E_COORD97":175451.98999999999,"N_COORD97":2546252.52,"ADDRESS":"富強路一段９３巷１０弄１０號","OBJECTID":61952},"geometry":{"x":175451.98999999929,"y":2546252.5200000014}},{"attributes":{"ID":61953,"DIS_CODE":0,"TOWNNAME":"永康區","LI":"永康里","LIN":"31鄰","STREET":"埔聖街","SECT":" ","MAREA":" ","LANE":"１７１巷","ALLEY":"１弄","HOUSE_NO":"１６號","E_COORD97":174282.23000000001,"N_COORD97":2547710.8999999999,"ADDRESS":"埔聖街１７１巷１弄１６號","OBJECTID":61953},"geometry":{"x":174282.23000000045,"y":2547710.9000000041}},{"attributes":{"ID":61954,"DIS_CODE":0,"TOWNNAME":"永康區","LI":"正強里","LIN":"31鄰","STREET":"自強路","SECT":" ","MAREA":" ","LANE":"２５５巷","ALLEY":"４２弄","HOUSE_NO":"１號之２８","E_COORD97":173121.10999999999,"N_COORD97":2547625.29,"ADDRESS":"自強路２５５巷４２弄１號之２８","OBJECTID":61954},"geometry":{"x":173121.11000000127,"y":2547625.2900000028}},{"attributes":{"ID":61955,"DIS_CODE":0,"TOWNNAME":"安定區","LI":"海寮里","LIN":"1鄰","STREET":" ","SECT":" ","MAREA":"海寮","LANE":" ","ALLEY":" ","HOUSE_NO":"１１號之１０","E_COORD97":169099.92999999999,"N_COORD97":2555155.2999999998,"ADDRESS":"海寮１１號之１０","OBJECTID":61955},"geometry":{"x":169099.92999999877,"y":2555155.3000000026}},{"attributes":{"ID":61956,"DIS_CODE":0,"TOWNNAME":"安定區","LI":"海寮里","LIN":"1鄰","STREET":" ","SECT":" ","MAREA":"海寮","LANE":" ","ALLEY":" ","HOUSE_NO":"１０號之１５","E_COORD97":169054.42999999999,"N_COORD97":2555175.2999999998,"ADDRESS":"海寮１０號之１５","OBJECTID":61956},"geometry":{"x":169054.43000000063,"y":2555175.3000000026}},{"attributes":{"ID":61957,"DIS_CODE":0,"TOWNNAME":"安定區","LI":"保西里","LIN":"1鄰","STREET":" ","SECT":" ","MAREA":"安定","LANE":" ","ALLEY":" ","HOUSE_NO":"３３４號之２","E_COORD97":171724.98999999999,"N_COORD97":2557570.3199999998,"ADDRESS":"安定３３４號之２","OBJECTID":61957},"geometry":{"x":171724.99000000115,"y":2557570.320000004}},{"attributes":{"ID":61958,"DIS_CODE":0,"TOWNNAME":"安定區","LI":"中榮里","LIN":"1鄰","STREET":" ","SECT":" ","MAREA":"許中營","LANE":" ","ALLEY":" ","HOUSE_NO":"１０號之６","E_COORD97":172247.28,"N_COORD97":2554955.2999999998,"ADDRESS":"許中營１０號之６","OBJECTID":61958},"geometry":{"x":172247.28000000026,"y":2554955.3000000007}},{"attributes":{"ID":61959,"DIS_CODE":0,"TOWNNAME":"永康區","LI":"西勢里","LIN":"31鄰","STREET":"富強路","SECT":"一段","MAREA":" ","LANE":"９３巷","ALLEY":"１０弄","HOUSE_NO":"２１號","E_COORD97":175449.66,"N_COORD97":2546287.6899999999,"ADDRESS":"富強路一段９３巷１０弄２１號","OBJECTID":61959},"geometry":{"x":175449.66000000108,"y":2546287.6900000013}},{"attributes":{"ID":61960,"DIS_CODE":0,"TOWNNAME":"新營區","LI":"三仙里","LIN":"31鄰","STREET":"三興街","SECT":" ","MAREA":" ","LANE":"１４４巷","ALLEY":"２２弄","HOUSE_NO":"８號","E_COORD97":179507.95999999999,"N_COORD97":2579274.96,"ADDRESS":"三興街１４４巷２２弄８號","OBJECTID":61960},"geometry":{"x":179507.95999999996,"y":2579274.959999999}},{"attributes":{"ID":61961,"DIS_CODE":0,"TOWNNAME":"新營區","LI":"三仙里","LIN":"31鄰","STREET":"三興街","SECT":" ","MAREA":" ","LANE":"１４４巷","ALLEY":"２２弄","HOUSE_NO":"１０號","E_COORD97":179510.14000000001,"N_COORD97":2579270.52,"ADDRESS":"三興街１４４巷２２弄１０號","OBJECTID":61961},"geometry":{"x":179510.13999999966,"y":2579270.5200000014}},{"attributes":{"ID":61962,"DIS_CODE":0,"TOWNNAME":"南區","LI":"金華里","LIN":"8鄰","STREET":"尊南街","SECT":" ","MAREA":" ","LANE":" ","ALLEY":" ","HOUSE_NO":"１８４號","E_COORD97":166850.17000000001,"N_COORD97":2542146.0899999999,"ADDRESS":"尊南街１８４號","OBJECTID":61962},"geometry":{"x":166850.16999999993,"y":2542146.0900000017}},{"attributes":{"ID":61963,"DIS_CODE":0,"TOWNNAME":"南區","LI":"金華里","LIN":"8鄰","STREET":"尊南街","SECT":" ","MAREA":" ","LANE":" ","ALLEY":" ","HOUSE_NO":"１８６號","E_COORD97":166850.87,"N_COORD97":2542151.3500000001,"ADDRESS":"尊南街１８６號","OBJECTID":61963},"geometry":{"x":166850.87000000011,"y":2542151.3500000015}},{"attributes":{"ID":61964,"DIS_CODE":0,"TOWNNAME":"南區","LI":"金華里","LIN":"8鄰","STREET":"尊南街","SECT":" ","MAREA":" ","LANE":" ","ALLEY":" ","HOUSE_NO":"１８８號","E_COORD97":166851.57999999999,"N_COORD97":2542154.6899999999,"ADDRESS":"尊南街１８８號","OBJECTID":61964},"geometry":{"x":166851.58000000194,"y":2542154.6900000013}},{"attributes":{"ID":61965,"DIS_CODE":0,"TOWNNAME":"安定區","LI":"安加里","LIN":"1鄰","STREET":" ","SECT":" ","MAREA":"安定","LANE":" ","ALLEY":" ","HOUSE_NO":"１０８號之１","E_COORD97":172011.64999999999,"N_COORD97":2557663.3199999998,"ADDRESS":"安定１０８號之１","OBJECTID":61965},"geometry":{"x":172011.65000000224,"y":2557663.3200000022}},{"attributes":{"ID":61966,"DIS_CODE":0,"TOWNNAME":"北區","LI":"成德里","LIN":"8鄰","STREET":"育德二路","SECT":" ","MAREA":" ","LANE":" ","ALLEY":" ","HOUSE_NO":"１３８號","E_COORD97":168380.22,"N_COORD97":2545553.4700000002,"ADDRESS":"育德二路１３８號","OBJECTID":61966},"geometry":{"x":168380.21999999974,"y":2545553.4700000007}},{"attributes":{"ID":61967,"DIS_CODE":0,"TOWNNAME":"新營區","LI":"延平里","LIN":"7鄰","STREET":"復興路","SECT":" ","MAREA":" ","LANE":" ","ALLEY":" ","HOUSE_NO":"１之２５號","E_COORD97":179682.23999999999,"N_COORD97":2577937.5,"ADDRESS":"復興路１之２５號","OBJECTID":61967},"geometry":{"x":179682.24000000115,"y":2577937.5}},{"attributes":{"ID":61968,"DIS_CODE":0,"TOWNNAME":"北區","LI":"成德里","LIN":"8鄰","STREET":"育德二路","SECT":" ","MAREA":" ","LANE":" ","ALLEY":" ","HOUSE_NO":"１３８之１號","E_COORD97":168393.07000000001,"N_COORD97":2545551.4100000001,"ADDRESS":"育德二路１３８之１號","OBJECTID":61968},"geometry":{"x":168393.07000000123,"y":2545551.410000002}},{"attributes":{"ID":61969,"DIS_CODE":0,"TOWNNAME":"北區","LI":"成德里","LIN":"8鄰","STREET":"育德二路","SECT":" ","MAREA":" ","LANE":" ","ALLEY":" ","HOUSE_NO":"１３８之２號","E_COORD97":168397.51999999999,"N_COORD97":2545549.98,"ADDRESS":"育德二路１３８之２號","OBJECTID":61969},"geometry":{"x":168397.52000000142,"y":2545549.9800000004}},{"attributes":{"ID":61970,"DIS_CODE":0,"TOWNNAME":"北區","LI":"成德里","LIN":"8鄰","STREET":"育德二路","SECT":" ","MAREA":" ","LANE":" ","ALLEY":" ","HOUSE_NO":"１３８之３號","E_COORD97":168401.95999999999,"N_COORD97":2545548.3900000001,"ADDRESS":"育德二路１３８之３號","OBJECTID":61970},"geometry":{"x":168401.96000000089,"y":2545548.3900000025}},{"attributes":{"ID":61971,"DIS_CODE":0,"TOWNNAME":"新營區","LI":"南興里","LIN":"31鄰","STREET":"建業路","SECT":" ","MAREA":" ","LANE":"１６７巷","ALLEY":"３弄","HOUSE_NO":"１０號","E_COORD97":178343.34,"N_COORD97":2577414.4900000002,"ADDRESS":"建業路１６７巷３弄１０號","OBJECTID":61971},"geometry":{"x":178343.34000000078,"y":2577414.4900000021}},{"attributes":{"ID":61972,"DIS_CODE":0,"TOWNNAME":"新營區","LI":"民榮里","LIN":"31鄰","STREET":"太子路","SECT":" ","MAREA":" ","LANE":"５３巷","ALLEY":"１３弄","HOUSE_NO":"６號","E_COORD97":178375.56,"N_COORD97":2577985.77,"ADDRESS":"太子路５３巷１３弄６號","OBJECTID":61972},"geometry":{"x":178375.56000000052,"y":2577985.7699999996}},{"attributes":{"ID":61973,"DIS_CODE":0,"TOWNNAME":"新營區","LI":"民榮里","LIN":"31鄰","STREET":"太子路","SECT":" ","MAREA":" ","LANE":"３３巷","ALLEY":"１弄","HOUSE_NO":"１６號","E_COORD97":178336.22,"N_COORD97":2578055.7400000002,"ADDRESS":"太子路３３巷１弄１６號","OBJECTID":61973},"geometry":{"x":178336.21999999974,"y":2578055.7400000039}},{"attributes":{"ID":61974,"DIS_CODE":0,"TOWNNAME":"新營區","LI":"王公里","LIN":"31鄰","STREET":"大勇街","SECT":" ","MAREA":" ","LANE":"１９巷","ALLEY":"１弄","HOUSE_NO":"６號","E_COORD97":180207.34,"N_COORD97":2579457.7000000002,"ADDRESS":"大勇街１９巷１弄６號","OBJECTID":61974},"geometry":{"x":180207.33999999985,"y":2579457.6999999993}},{"attributes":{"ID":61975,"DIS_CODE":0,"TOWNNAME":"新營區","LI":"南興里","LIN":"31鄰","STREET":"建業路","SECT":" ","MAREA":" ","LANE":"１６７巷","ALLEY":"３弄","HOUSE_NO":"１４號","E_COORD97":178341.26000000001,"N_COORD97":2577405.6400000001,"ADDRESS":"建業路１６７巷３弄１４號","OBJECTID":61975},"geometry":{"x":178341.25999999978,"y":2577405.6400000043}},{"attributes":{"ID":61976,"DIS_CODE":0,"TOWNNAME":"新營區","LI":"民榮里","LIN":"31鄰","STREET":"太子路","SECT":" ","MAREA":" ","LANE":"３３巷","ALLEY":"１弄","HOUSE_NO":"１８號","E_COORD97":178332.12,"N_COORD97":2578053.54,"ADDRESS":"太子路３３巷１弄１８號","OBJECTID":61976},"geometry":{"x":178332.12000000011,"y":2578053.540000001}},{"attributes":{"ID":61977,"DIS_CODE":0,"TOWNNAME":"新營區","LI":"新北里","LIN":"31鄰","STREET":"新北六街","SECT":" ","MAREA":" ","LANE":"５巷","ALLEY":"８弄","HOUSE_NO":"３２號","E_COORD97":178760.67999999999,"N_COORD97":2579092.48,"ADDRESS":"新北六街５巷８弄３２號","OBJECTID":61977},"geometry":{"x":178760.6799999997,"y":2579092.4800000023}},{"attributes":{"ID":61978,"DIS_CODE":0,"TOWNNAME":"新營區","LI":"忠政里","LIN":"31鄰","STREET":"府西路","SECT":" ","MAREA":" ","LANE":"６３巷","ALLEY":"３２弄","HOUSE_NO":"５號","E_COORD97":179710.63,"N_COORD97":2579102.3300000001,"ADDRESS":"府西路６３巷３２弄５號","OBJECTID":61978},"geometry":{"x":179710.62999999989,"y":2579102.3300000038}},{"attributes":{"ID":61979,"DIS_CODE":0,"TOWNNAME":"新營區","LI":"新北里","LIN":"31鄰","STREET":"新北六街","SECT":" ","MAREA":" ","LANE":"５巷","ALLEY":"８弄","HOUSE_NO":"４６號","E_COORD97":178778.98999999999,"N_COORD97":2579073.5699999998,"ADDRESS":"新北六街５巷８弄４６號","OBJECTID":61979},"geometry":{"x":178778.99000000022,"y":2579073.5699999984}},{"attributes":{"ID":61980,"DIS_CODE":0,"TOWNNAME":"新營區","LI":"新北里","LIN":"31鄰","STREET":"新北六街","SECT":" ","MAREA":" ","LANE":"５巷","ALLEY":"８弄","HOUSE_NO":"２８號","E_COORD97":178752.48000000001,"N_COORD97":2579092.52,"ADDRESS":"新北六街５巷８弄２８號","OBJECTID":61980},"geometry":{"x":178752.48000000045,"y":2579092.5199999996}},{"attributes":{"ID":61981,"DIS_CODE":0,"TOWNNAME":"永康區","LI":"埔園里","LIN":"31鄰","STREET":"八德街","SECT":" ","MAREA":" ","LANE":"３２６巷","ALLEY":"３５弄","HOUSE_NO":"１２號","E_COORD97":173597.34,"N_COORD97":2548686.7000000002,"ADDRESS":"八德街３２６巷３５弄１２號","OBJECTID":61981},"geometry":{"x":173597.33999999985,"y":2548686.6999999993}},{"attributes":{"ID":61982,"DIS_CODE":0,"TOWNNAME":"永康區","LI":"埔園里","LIN":"31鄰","STREET":"八德街","SECT":" ","MAREA":" ","LANE":"１４０巷","ALLEY":"６弄","HOUSE_NO":"１０號","E_COORD97":174017.29000000001,"N_COORD97":2548598.3100000001,"ADDRESS":"八德街１４０巷６弄１０號","OBJECTID":61982},"geometry":{"x":174017.28999999911,"y":2548598.3100000005}},{"attributes":{"ID":61983,"DIS_CODE":0,"TOWNNAME":"永康區","LI":"大灣里","LIN":"31鄰","STREET":"文賢街","SECT":" ","MAREA":" ","LANE":"６８巷","ALLEY":"３６弄","HOUSE_NO":"２０號","E_COORD97":175376.45000000001,"N_COORD97":2545057.4300000002,"ADDRESS":"文賢街６８巷３６弄２０號","OBJECTID":61983},"geometry":{"x":175376.45000000112,"y":2545057.4299999997}},{"attributes":{"ID":61984,"DIS_CODE":0,"TOWNNAME":"安南區","LI":"\u25A0南里","LIN":"31鄰","STREET":"安昌街","SECT":" ","MAREA":" ","LANE":"１７４巷","ALLEY":"１９１弄","HOUSE_NO":"１２３號","E_COORD97":170245.98999999999,"N_COORD97":2552053.4300000002,"ADDRESS":"安昌街１７４巷１９１弄１２３號","OBJECTID":61984},"geometry":{"x":170245.99000000022,"y":2552053.4300000016}},{"attributes":{"ID":61985,"DIS_CODE":0,"TOWNNAME":"安南區","LI":"\u25A0南里","LIN":"31鄰","STREET":"安昌街","SECT":" ","MAREA":" ","LANE":"１７４巷","ALLEY":"１９１弄","HOUSE_NO":"１２５號","E_COORD97":170251.22,"N_COORD97":2552053.6299999999,"ADDRESS":"安昌街１７４巷１９１弄１２５號","OBJECTID":61985},"geometry":{"x":170251.22000000067,"y":2552053.629999999}},{"attributes":{"ID":61986,"DIS_CODE":0,"TOWNNAME":"安南區","LI":"\u25A0南里","LIN":"31鄰","STREET":"安昌街","SECT":" ","MAREA":" ","LANE":"１７４巷","ALLEY":"１９１弄","HOUSE_NO":"１２７號","E_COORD97":170256.07000000001,"N_COORD97":2552053.8199999998,"ADDRESS":"安昌街１７４巷１９１弄１２７號","OBJECTID":61986},"geometry":{"x":170256.07000000123,"y":2552053.8200000003}},{"attributes":{"ID":61987,"DIS_CODE":0,"TOWNNAME":"安南區","LI":"\u25A0南里","LIN":"31鄰","STREET":"安昌街","SECT":" ","MAREA":" ","LANE":"１７４巷","ALLEY":"１９１弄","HOUSE_NO":"１２９號","E_COORD97":170260.91,"N_COORD97":2552054.21,"ADDRESS":"安昌街１７４巷１９１弄１２９號","OBJECTID":61987},"geometry":{"x":170260.91000000108,"y":2552054.2100000009}},{"attributes":{"ID":61988,"DIS_CODE":0,"TOWNNAME":"永康區","LI":"大灣里","LIN":"31鄰","STREET":"文賢街","SECT":" ","MAREA":" ","LANE":"６８巷","ALLEY":"３６弄","HOUSE_NO":"３號","E_COORD97":175421.92999999999,"N_COORD97":2545071.75,"ADDRESS":"文賢街６８巷３６弄３號","OBJECTID":61988},"geometry":{"x":175421.93000000063,"y":2545071.7500000019}},{"attributes":{"ID":61989,"DIS_CODE":0,"TOWNNAME":"永康區","LI":"大灣里","LIN":"31鄰","STREET":"文賢街","SECT":" ","MAREA":" ","LANE":"６８巷","ALLEY":"３６弄","HOUSE_NO":"５號","E_COORD97":175426.67999999999,"N_COORD97":2545065.5600000001,"ADDRESS":"文賢街６８巷３６弄５號","OBJECTID":61989},"geometry":{"x":175426.68000000063,"y":2545065.5600000024}},{"attributes":{"ID":61990,"DIS_CODE":0,"TOWNNAME":"安南區","LI":"安慶里","LIN":"31鄰","STREET":"安和路","SECT":"一段","MAREA":" ","LANE":"４５９巷","ALLEY":"３６弄","HOUSE_NO":"１０１號","E_COORD97":169246.82000000001,"N_COORD97":2548699.7400000002,"ADDRESS":"安和路一段４５９巷３６弄１０１號","OBJECTID":61990},"geometry":{"x":169246.8200000003,"y":2548699.7400000021}},{"attributes":{"ID":61991,"DIS_CODE":0,"TOWNNAME":"安南區","LI":"安慶里","LIN":"31鄰","STREET":"安和路","SECT":"一段","MAREA":" ","LANE":"４５９巷","ALLEY":"３６弄","HOUSE_NO":"１０３號","E_COORD97":169241.73999999999,"N_COORD97":2548700.2999999998,"ADDRESS":"安和路一段４５９巷３６弄１０３號","OBJECTID":61991},"geometry":{"x":169241.74000000022,"y":2548700.3000000007}},{"attributes":{"ID":61992,"DIS_CODE":0,"TOWNNAME":"安南區","LI":"安慶里","LIN":"31鄰","STREET":"安和路","SECT":"一段","MAREA":" ","LANE":"４５９巷","ALLEY":"３６弄","HOUSE_NO":"１０５號","E_COORD97":169236.54999999999,"N_COORD97":2548701.1200000001,"ADDRESS":"安和路一段４５９巷３６弄１０５號","OBJECTID":61992},"geometry":{"x":169236.54999999888,"y":2548701.1200000029}},{"attributes":{"ID":61993,"DIS_CODE":0,"TOWNNAME":"安南區","LI":"安慶里","LIN":"31鄰","STREET":"安和路","SECT":"一段","MAREA":" ","LANE":"４５９巷","ALLEY":"３６弄","HOUSE_NO":"１０７號","E_COORD97":169231.26999999999,"N_COORD97":2548701.75,"ADDRESS":"安和路一段４５９巷３６弄１０７號","OBJECTID":61993},"geometry":{"x":169231.26999999955,"y":2548701.7500000019}},{"attributes":{"ID":61994,"DIS_CODE":0,"TOWNNAME":"安南區","LI":"安慶里","LIN":"31鄰","STREET":"安和路","SECT":"一段","MAREA":" ","LANE":"４５９巷","ALLEY":"３６弄","HOUSE_NO":"１０９號","E_COORD97":169225.39999999999,"N_COORD97":2548703.1699999999,"ADDRESS":"安和路一段４５９巷３６弄１０９號","OBJECTID":61994},"geometry":{"x":169225.4000000013,"y":2548703.1700000018}},{"attributes":{"ID":61995,"DIS_CODE":0,"TOWNNAME":"安南區","LI":"安慶里","LIN":"31鄰","STREET":"安和路","SECT":"一段","MAREA":" ","LANE":"４５９巷","ALLEY":"３６弄","HOUSE_NO":"１１１號","E_COORD97":169219.67999999999,"N_COORD97":2548703.6699999999,"ADDRESS":"安和路一段４５９巷３６弄１１１號","OBJECTID":61995},"geometry":{"x":169219.6799999997,"y":2548703.6699999999}},{"attributes":{"ID":61996,"DIS_CODE":0,"TOWNNAME":"安南區","LI":"安慶里","LIN":"31鄰","STREET":"安和路","SECT":"一段","MAREA":" ","LANE":"４５９巷","ALLEY":"３６弄","HOUSE_NO":"１１３號","E_COORD97":169213.97,"N_COORD97":2548704.1699999999,"ADDRESS":"安和路一段４５９巷３６弄１１３號","OBJECTID":61996},"geometry":{"x":169213.97000000067,"y":2548704.1699999999}},{"attributes":{"ID":61997,"DIS_CODE":0,"TOWNNAME":"安南區","LI":"安慶里","LIN":"31鄰","STREET":"安和路","SECT":"一段","MAREA":" ","LANE":"４５９巷","ALLEY":"３６弄","HOUSE_NO":"１１５號","E_COORD97":169208.39000000001,"N_COORD97":2548704.5299999998,"ADDRESS":"安和路一段４５９巷３６弄１１５號","OBJECTID":61997},"geometry":{"x":169208.38999999966,"y":2548704.5299999993}},{"attributes":{"ID":61998,"DIS_CODE":0,"TOWNNAME":"安南區","LI":"安慶里","LIN":"31鄰","STREET":"安和路","SECT":"一段","MAREA":" ","LANE":"４５９巷","ALLEY":"３６弄","HOUSE_NO":"１１７號","E_COORD97":169205.10000000001,"N_COORD97":2548726.3199999998,"ADDRESS":"安和路一段４５９巷３６弄１１７號","OBJECTID":61998},"geometry":{"x":169205.09999999963,"y":2548726.3200000022}},{"attributes":{"ID":61999,"DIS_CODE":0,"TOWNNAME":"安南區","LI":"安慶里","LIN":"31鄰","STREET":"安和路","SECT":"一段","MAREA":" ","LANE":"４５９巷","ALLEY":"３６弄","HOUSE_NO":"１１９號","E_COORD97":169211.35999999999,"N_COORD97":2548726.46,"ADDRESS":"安和路一段４５９巷３６弄１１９號","OBJECTID":61999},"geometry":{"x":169211.3600000022,"y":2548726.4600000009}},{"attributes":{"ID":62000,"DIS_CODE":0,"TOWNNAME":"安南區","LI":"安慶里","LIN":"31鄰","STREET":"安和路","SECT":"一段","MAREA":" ","LANE":"４５９巷","ALLEY":"３６弄","HOUSE_NO":"１２１號","E_COORD97":169216.94,"N_COORD97":2548727.5499999998,"ADDRESS":"安和路一段４５９巷３６弄１２１號","OBJECTID":62000},"geometry":{"x":169216.94000000041,"y":2548727.5500000026}}]}