{"displayFieldName":"TOWNNAME","fieldAliases":{"ID":"ID","DIS_CODE":"DIS_CODE","TOWNNAME":"TOWNNAME","LI":"LI","LIN":"LIN","STREET":"STREET","SECT":"SECT","MAREA":"MAREA","LANE":"LANE","ALLEY":"ALLEY","HOUSE_NO":"HOUSE_NO","E_COORD97":"E_COORD97","N_COORD97":"N_COORD97","ADDRESS":"ADDRESS","OBJECTID":"OBJECTID"},"geometryType":"esriGeometryPoint","spatialReference":{"wkid":102443,"latestWkid":3826},"fields":[{"name":"ID","type":"esriFieldTypeDouble","alias":"ID"},{"name":"DIS_CODE","type":"esriFieldTypeInteger","alias":"DIS_CODE"},{"name":"TOWNNAME","type":"esriFieldTypeString","alias":"TOWNNAME","length":8},{"name":"LI","type":"esriFieldTypeString","alias":"LI","length":8},{"name":"LIN","type":"esriFieldTypeString","alias":"LIN","length":12},{"name":"STREET","type":"esriFieldTypeString","alias":"STREET","length":20},{"name":"SECT","type":"esriFieldTypeString","alias":"SECT","length":8},{"name":"MAREA","type":"esriFieldTypeString","alias":"MAREA","length":12},{"name":"LANE","type":"esriFieldTypeString","alias":"LANE","length":10},{"name":"ALLEY","type":"esriFieldTypeString","alias":"ALLEY","length":10},{"name":"HOUSE_NO","type":"esriFieldTypeString","alias":"HOUSE_NO","length":20},{"name":"E_COORD97","type":"esriFieldTypeDouble","alias":"E_COORD97"},{"name":"N_COORD97","type":"esriFieldTypeDouble","alias":"N_COORD97"},{"name":"ADDRESS","type":"esriFieldTypeString","alias":"ADDRESS","length":50},{"name":"OBJECTID","type":"esriFieldTypeOID","alias":"OBJECTID"}],"features":[{"attributes":{"ID":322810,"DIS_CODE":0,"TOWNNAME":"南區","LI":"白雪里","LIN":" ","STREET":"鹽埕路","SECT":" ","MAREA":" ","LANE":"１０３巷","ALLEY":" ","HOUSE_NO":"４８號","E_COORD97":166731.85999999999,"N_COORD97":2540724.2200000002,"ADDRESS":"鹽埕路１０３巷４８號","OBJECTID":322801},"geometry":{"x":166731.86000000127,"y":2540724.2200000007}},{"attributes":{"ID":322811,"DIS_CODE":0,"TOWNNAME":"安南區","LI":"溪心里","LIN":"10鄰","STREET":"功安一街","SECT":" ","MAREA":" ","LANE":" ","ALLEY":" ","HOUSE_NO":"１８號","E_COORD97":166116.67000000001,"N_COORD97":2549860.3799999999,"ADDRESS":"功安一街１８號","OBJECTID":322802},"geometry":{"x":166116.66999999993,"y":2549860.3800000008}},{"attributes":{"ID":322812,"DIS_CODE":0,"TOWNNAME":"南區","LI":"白雪里","LIN":" ","STREET":"鹽埕路","SECT":" ","MAREA":" ","LANE":"１０３巷","ALLEY":" ","HOUSE_NO":"５０號","E_COORD97":166730.54000000001,"N_COORD97":2540719.75,"ADDRESS":"鹽埕路１０３巷５０號","OBJECTID":322803},"geometry":{"x":166730.54000000097,"y":2540719.75}},{"attributes":{"ID":322813,"DIS_CODE":0,"TOWNNAME":"安南區","LI":"溪心里","LIN":"10鄰","STREET":"功安一街","SECT":" ","MAREA":" ","LANE":" ","ALLEY":" ","HOUSE_NO":"１６號","E_COORD97":166118.89000000001,"N_COORD97":2549857.8399999999,"ADDRESS":"功安一街１６號","OBJECTID":322804},"geometry":{"x":166118.8900000006,"y":2549857.8400000017}},{"attributes":{"ID":322814,"DIS_CODE":0,"TOWNNAME":"安南區","LI":"溪心里","LIN":"10鄰","STREET":"功安一街","SECT":" ","MAREA":" ","LANE":" ","ALLEY":" ","HOUSE_NO":"１２號","E_COORD97":166120.64000000001,"N_COORD97":2549855.1400000001,"ADDRESS":"功安一街１２號","OBJECTID":322805},"geometry":{"x":166120.6400000006,"y":2549855.1399999987}},{"attributes":{"ID":322815,"DIS_CODE":0,"TOWNNAME":"安南區","LI":"溪心里","LIN":"17鄰","STREET":"功安四街","SECT":" ","MAREA":" ","LANE":" ","ALLEY":" ","HOUSE_NO":"３９號","E_COORD97":166243.67999999999,"N_COORD97":2550072.9700000002,"ADDRESS":"功安四街３９號","OBJECTID":322806},"geometry":{"x":166243.68000000156,"y":2550072.9700000007}},{"attributes":{"ID":322816,"DIS_CODE":0,"TOWNNAME":"安南區","LI":"州北里","LIN":"8鄰","STREET":"長和一街","SECT":" ","MAREA":" ","LANE":" ","ALLEY":" ","HOUSE_NO":"３８號","E_COORD97":169444.73999999999,"N_COORD97":2551506.2799999998,"ADDRESS":"長和一街３８號","OBJECTID":322807},"geometry":{"x":169444.74000000115,"y":2551506.2799999993}},{"attributes":{"ID":322817,"DIS_CODE":0,"TOWNNAME":"安南區","LI":"州南里","LIN":"1鄰","STREET":"安和路","SECT":"四段","MAREA":" ","LANE":" ","ALLEY":" ","HOUSE_NO":"３８０號","E_COORD97":169955.81,"N_COORD97":2550995.5499999998,"ADDRESS":"安和路四段３８０號","OBJECTID":322808},"geometry":{"x":169955.81000000052,"y":2550995.5500000045}},{"attributes":{"ID":322818,"DIS_CODE":0,"TOWNNAME":"白河區","LI":"永安里","LIN":"4鄰","STREET":"九龍街","SECT":" ","MAREA":" ","LANE":" ","ALLEY":" ","HOUSE_NO":"８７號","E_COORD97":190016.03,"N_COORD97":2583043.8100000001,"ADDRESS":"九龍街８７號","OBJECTID":322809},"geometry":{"x":190016.03000000119,"y":2583043.8100000024}},{"attributes":{"ID":322819,"DIS_CODE":0,"TOWNNAME":"安南區","LI":"溪心里","LIN":"17鄰","STREET":"功安四街","SECT":" ","MAREA":" ","LANE":" ","ALLEY":" ","HOUSE_NO":"７６號","E_COORD97":166157.45000000001,"N_COORD97":2550235.6200000001,"ADDRESS":"功安四街７６號","OBJECTID":322810},"geometry":{"x":166157.44999999925,"y":2550235.6200000048}},{"attributes":{"ID":322820,"DIS_CODE":0,"TOWNNAME":"安南區","LI":"安慶里","LIN":"13鄰","STREET":"培安路","SECT":" ","MAREA":" ","LANE":" ","ALLEY":" ","HOUSE_NO":"４８８號","E_COORD97":169361.73999999999,"N_COORD97":2548584.7799999998,"ADDRESS":"培安路４８８號","OBJECTID":322811},"geometry":{"x":169361.74000000115,"y":2548584.7799999993}},{"attributes":{"ID":322821,"DIS_CODE":0,"TOWNNAME":"安南區","LI":"安慶里","LIN":"13鄰","STREET":"怡安路","SECT":"一段","MAREA":" ","LANE":" ","ALLEY":" ","HOUSE_NO":"９號","E_COORD97":169519.95999999999,"N_COORD97":2548936.6299999999,"ADDRESS":"怡安路一段９號","OBJECTID":322812},"geometry":{"x":169519.95999999996,"y":2548936.629999999}},{"attributes":{"ID":322822,"DIS_CODE":0,"TOWNNAME":"安南區","LI":"安慶里","LIN":"13鄰","STREET":"怡安路","SECT":"一段","MAREA":" ","LANE":" ","ALLEY":" ","HOUSE_NO":"１１號","E_COORD97":169515.95999999999,"N_COORD97":2548939.5899999999,"ADDRESS":"怡安路一段１１號","OBJECTID":322813},"geometry":{"x":169515.96000000089,"y":2548939.5900000036}},{"attributes":{"ID":322823,"DIS_CODE":0,"TOWNNAME":"安南區","LI":"新順里","LIN":"10鄰","STREET":"政安路","SECT":" ","MAREA":" ","LANE":" ","ALLEY":" ","HOUSE_NO":"２８號","E_COORD97":169777.82000000001,"N_COORD97":2549082.0299999998,"ADDRESS":"政安路２８號","OBJECTID":322814},"geometry":{"x":169777.82000000216,"y":2549082.0300000031}},{"attributes":{"ID":322824,"DIS_CODE":0,"TOWNNAME":"安南區","LI":"頂安里","LIN":"17鄰","STREET":"安中二街","SECT":" ","MAREA":" ","LANE":" ","ALLEY":" ","HOUSE_NO":"１２５號","E_COORD97":168400.39000000001,"N_COORD97":2548613.25,"ADDRESS":"安中二街１２５號","OBJECTID":322815},"geometry":{"x":168400.3900000006,"y":2548613.2500000037}},{"attributes":{"ID":322825,"DIS_CODE":0,"TOWNNAME":"安南區","LI":"頂安里","LIN":"17鄰","STREET":"安中二街","SECT":" ","MAREA":" ","LANE":" ","ALLEY":" ","HOUSE_NO":"１２７號","E_COORD97":168398.39000000001,"N_COORD97":2548622.48,"ADDRESS":"安中二街１２７號","OBJECTID":322816},"geometry":{"x":168398.38999999873,"y":2548622.4800000042}},{"attributes":{"ID":322826,"DIS_CODE":0,"TOWNNAME":"安南區","LI":"頂安里","LIN":"17鄰","STREET":"北安三街","SECT":" ","MAREA":" ","LANE":" ","ALLEY":" ","HOUSE_NO":"１號","E_COORD97":168386.62,"N_COORD97":2548618.75,"ADDRESS":"北安三街１號","OBJECTID":322817},"geometry":{"x":168386.62000000011,"y":2548618.75}},{"attributes":{"ID":322827,"DIS_CODE":0,"TOWNNAME":"安南區","LI":"頂安里","LIN":"17鄰","STREET":"北安三街","SECT":" ","MAREA":" ","LANE":" ","ALLEY":" ","HOUSE_NO":"３號","E_COORD97":168380.85999999999,"N_COORD97":2548618.8999999999,"ADDRESS":"北安三街３號","OBJECTID":322818},"geometry":{"x":168380.8600000022,"y":2548618.9000000004}},{"attributes":{"ID":322828,"DIS_CODE":0,"TOWNNAME":"東區","LI":"崇德里","LIN":"20鄰","STREET":"崇明十四街","SECT":" ","MAREA":" ","LANE":"６０巷","ALLEY":" ","HOUSE_NO":"４２號","E_COORD97":170741.51000000001,"N_COORD97":2541604.2400000002,"ADDRESS":"崇明十四街６０巷４２號","OBJECTID":322819},"geometry":{"x":170741.50999999978,"y":2541604.2400000002}},{"attributes":{"ID":322829,"DIS_CODE":0,"TOWNNAME":"善化區","LI":"光文里","LIN":"20鄰","STREET":"民權路","SECT":" ","MAREA":" ","LANE":"２４５巷","ALLEY":" ","HOUSE_NO":"２之４號","E_COORD97":178041.92999999999,"N_COORD97":2558926.77,"ADDRESS":"民權路２４５巷２之４號","OBJECTID":322820},"geometry":{"x":178041.9299999997,"y":2558926.7700000014}},{"attributes":{"ID":322830,"DIS_CODE":0,"TOWNNAME":"善化區","LI":"光文里","LIN":"20鄰","STREET":"民權路","SECT":" ","MAREA":" ","LANE":"２４５巷","ALLEY":" ","HOUSE_NO":"１之４號","E_COORD97":178042.23000000001,"N_COORD97":2558946.52,"ADDRESS":"民權路２４５巷１之４號","OBJECTID":322821},"geometry":{"x":178042.23000000045,"y":2558946.5199999996}},{"attributes":{"ID":322831,"DIS_CODE":0,"TOWNNAME":"仁德區","LI":"大甲里","LIN":"20鄰","STREET":"中正西路","SECT":" ","MAREA":" ","LANE":"４９５巷","ALLEY":" ","HOUSE_NO":"２７號","E_COORD97":169397.42000000001,"N_COORD97":2535366.5,"ADDRESS":"中正西路４９５巷２７號","OBJECTID":322822},"geometry":{"x":169397.42000000086,"y":2535366.5000000019}},{"attributes":{"ID":322832,"DIS_CODE":0,"TOWNNAME":"仁德區","LI":"成功里","LIN":"20鄰","STREET":"保生路","SECT":" ","MAREA":" ","LANE":"８９巷","ALLEY":" ","HOUSE_NO":"９號","E_COORD97":170645.76999999999,"N_COORD97":2539746.7400000002,"ADDRESS":"保生路８９巷９號","OBJECTID":322823},"geometry":{"x":170645.77000000048,"y":2539746.7400000002}},{"attributes":{"ID":322833,"DIS_CODE":0,"TOWNNAME":"仁德區","LI":"大甲里","LIN":"20鄰","STREET":"中正西路","SECT":" ","MAREA":" ","LANE":"４５８巷","ALLEY":" ","HOUSE_NO":"２５號","E_COORD97":169412.31,"N_COORD97":2535524.9900000002,"ADDRESS":"中正西路４５８巷２５號","OBJECTID":322824},"geometry":{"x":169412.30999999959,"y":2535524.9900000039}},{"attributes":{"ID":322834,"DIS_CODE":0,"TOWNNAME":"安南區","LI":"理想里","LIN":"20鄰","STREET":"同安路","SECT":" ","MAREA":" ","LANE":"６８巷","ALLEY":" ","HOUSE_NO":"１０２號","E_COORD97":167008.39999999999,"N_COORD97":2548724.1600000001,"ADDRESS":"同安路６８巷１０２號","OBJECTID":322825},"geometry":{"x":167008.40000000037,"y":2548724.1600000001}},{"attributes":{"ID":322835,"DIS_CODE":0,"TOWNNAME":"安南區","LI":"理想里","LIN":"20鄰","STREET":"同安路","SECT":" ","MAREA":" ","LANE":"６８巷","ALLEY":" ","HOUSE_NO":"１０６號","E_COORD97":167010.92999999999,"N_COORD97":2548720.1800000002,"ADDRESS":"同安路６８巷１０６號","OBJECTID":322826},"geometry":{"x":167010.9299999997,"y":2548720.1799999997}},{"attributes":{"ID":322836,"DIS_CODE":0,"TOWNNAME":"安南區","LI":"理想里","LIN":"20鄰","STREET":"同安路","SECT":" ","MAREA":" ","LANE":"６８巷","ALLEY":" ","HOUSE_NO":"１０８號","E_COORD97":167012.01999999999,"N_COORD97":2548716.9300000002,"ADDRESS":"同安路６８巷１０８號","OBJECTID":322827},"geometry":{"x":167012.01999999955,"y":2548716.9300000034}},{"attributes":{"ID":322837,"DIS_CODE":0,"TOWNNAME":"安南區","LI":"理想里","LIN":"20鄰","STREET":"同安路","SECT":" ","MAREA":" ","LANE":"６８巷","ALLEY":" ","HOUSE_NO":"１１０號","E_COORD97":167014.91,"N_COORD97":2548713.6699999999,"ADDRESS":"同安路６８巷１１０號","OBJECTID":322828},"geometry":{"x":167014.91000000015,"y":2548713.6699999999}},{"attributes":{"ID":322838,"DIS_CODE":0,"TOWNNAME":"安南區","LI":"理想里","LIN":"20鄰","STREET":"同安路","SECT":" ","MAREA":" ","LANE":"６８巷","ALLEY":" ","HOUSE_NO":"１１２號","E_COORD97":167017.09,"N_COORD97":2548710.4199999999,"ADDRESS":"同安路６８巷１１２號","OBJECTID":322829},"geometry":{"x":167017.08999999985,"y":2548710.4200000037}},{"attributes":{"ID":322839,"DIS_CODE":0,"TOWNNAME":"官田區","LI":"隆田里","LIN":"20鄰","STREET":"中興路","SECT":" ","MAREA":" ","LANE":"１巷","ALLEY":" ","HOUSE_NO":"６９號","E_COORD97":180412.89999999999,"N_COORD97":2565502.23,"ADDRESS":"中興路１巷６９號","OBJECTID":322830},"geometry":{"x":180412.90000000224,"y":2565502.2300000023}},{"attributes":{"ID":322840,"DIS_CODE":0,"TOWNNAME":"安南區","LI":"理想里","LIN":"20鄰","STREET":"同安路","SECT":" ","MAREA":" ","LANE":"６８巷","ALLEY":" ","HOUSE_NO":"１１６號","E_COORD97":167020.70000000001,"N_COORD97":2548706.7999999998,"ADDRESS":"同安路６８巷１１６號","OBJECTID":322831},"geometry":{"x":167020.70000000112,"y":2548706.8000000026}},{"attributes":{"ID":322841,"DIS_CODE":0,"TOWNNAME":"安南區","LI":"理想里","LIN":"20鄰","STREET":"同安路","SECT":" ","MAREA":" ","LANE":"６８巷","ALLEY":" ","HOUSE_NO":"１１８號","E_COORD97":167022.88,"N_COORD97":2548701.7400000002,"ADDRESS":"同安路６８巷１１８號","OBJECTID":322832},"geometry":{"x":167022.88000000082,"y":2548701.7400000039}},{"attributes":{"ID":322842,"DIS_CODE":0,"TOWNNAME":"安南區","LI":"理想里","LIN":"20鄰","STREET":"同安路","SECT":" ","MAREA":" ","LANE":"６８巷","ALLEY":" ","HOUSE_NO":"６２號","E_COORD97":166979.54000000001,"N_COORD97":2548783.9100000001,"ADDRESS":"同安路６８巷６２號","OBJECTID":322833},"geometry":{"x":166979.54000000097,"y":2548783.9100000001}},{"attributes":{"ID":322843,"DIS_CODE":0,"TOWNNAME":"安南區","LI":"理想里","LIN":"20鄰","STREET":"同安路","SECT":" ","MAREA":" ","LANE":"６８巷","ALLEY":" ","HOUSE_NO":"６６號","E_COORD97":166976.10999999999,"N_COORD97":2548780.9399999999,"ADDRESS":"同安路６８巷６６號","OBJECTID":322834},"geometry":{"x":166976.11000000127,"y":2548780.9400000032}},{"attributes":{"ID":322844,"DIS_CODE":0,"TOWNNAME":"安南區","LI":"理想里","LIN":"20鄰","STREET":"同安路","SECT":" ","MAREA":" ","LANE":"６８巷","ALLEY":" ","HOUSE_NO":"６８號","E_COORD97":166972.45000000001,"N_COORD97":2548778.2000000002,"ADDRESS":"同安路６８巷６８號","OBJECTID":322835},"geometry":{"x":166972.45000000019,"y":2548778.1999999993}},{"attributes":{"ID":322845,"DIS_CODE":0,"TOWNNAME":"安南區","LI":"理想里","LIN":"20鄰","STREET":"同安路","SECT":" ","MAREA":" ","LANE":"６８巷","ALLEY":" ","HOUSE_NO":"７０號","E_COORD97":166966.5,"N_COORD97":2548780.9399999999,"ADDRESS":"同安路６８巷７０號","OBJECTID":322836},"geometry":{"x":166966.5,"y":2548780.9400000032}},{"attributes":{"ID":322846,"DIS_CODE":0,"TOWNNAME":"安南區","LI":"理想里","LIN":"20鄰","STREET":"同安路","SECT":" ","MAREA":" ","LANE":"６８巷","ALLEY":" ","HOUSE_NO":"７２號","E_COORD97":166962.14999999999,"N_COORD97":2548779.1099999999,"ADDRESS":"同安路６８巷７２號","OBJECTID":322837},"geometry":{"x":166962.1500000013,"y":2548779.1099999994}},{"attributes":{"ID":322847,"DIS_CODE":0,"TOWNNAME":"麻豆區","LI":"小埤里","LIN":"3鄰","STREET":" ","SECT":" ","MAREA":"小埤頭","LANE":" ","ALLEY":" ","HOUSE_NO":"１號之１２","E_COORD97":171148.01000000001,"N_COORD97":2565652.8700000001,"ADDRESS":"小埤頭１號之１２","OBJECTID":322838},"geometry":{"x":171148.01000000071,"y":2565652.870000001}},{"attributes":{"ID":322848,"DIS_CODE":0,"TOWNNAME":"安南區","LI":"理想里","LIN":"20鄰","STREET":"同安路","SECT":" ","MAREA":" ","LANE":"６８巷","ALLEY":" ","HOUSE_NO":"７６號","E_COORD97":166976.56,"N_COORD97":2548758.9900000002,"ADDRESS":"同安路６８巷７６號","OBJECTID":322839},"geometry":{"x":166976.55999999866,"y":2548758.9900000021}},{"attributes":{"ID":322849,"DIS_CODE":0,"TOWNNAME":"安南區","LI":"理想里","LIN":"20鄰","STREET":"同安路","SECT":" ","MAREA":" ","LANE":"６８巷","ALLEY":" ","HOUSE_NO":"７８號","E_COORD97":166979.54000000001,"N_COORD97":2548761.0499999998,"ADDRESS":"同安路６８巷７８號","OBJECTID":322840},"geometry":{"x":166979.54000000097,"y":2548761.0500000045}},{"attributes":{"ID":322850,"DIS_CODE":0,"TOWNNAME":"安南區","LI":"理想里","LIN":"20鄰","STREET":"同安路","SECT":" ","MAREA":" ","LANE":"６８巷","ALLEY":" ","HOUSE_NO":"８０號","E_COORD97":166982.73999999999,"N_COORD97":2548762.6499999999,"ADDRESS":"同安路６８巷８０號","OBJECTID":322841},"geometry":{"x":166982.74000000022,"y":2548762.6500000004}},{"attributes":{"ID":322851,"DIS_CODE":0,"TOWNNAME":"安南區","LI":"理想里","LIN":"20鄰","STREET":"同安路","SECT":" ","MAREA":" ","LANE":"６８巷","ALLEY":" ","HOUSE_NO":"８２號","E_COORD97":166988.92000000001,"N_COORD97":2548761.96,"ADDRESS":"同安路６８巷８２號","OBJECTID":322842},"geometry":{"x":166988.92000000086,"y":2548761.9600000046}},{"attributes":{"ID":322852,"DIS_CODE":0,"TOWNNAME":"安南區","LI":"理想里","LIN":"20鄰","STREET":"同安路","SECT":" ","MAREA":" ","LANE":"６８巷","ALLEY":" ","HOUSE_NO":"８６號","E_COORD97":166993.95999999999,"N_COORD97":2548763.79,"ADDRESS":"同安路６８巷８６號","OBJECTID":322843},"geometry":{"x":166993.95999999996,"y":2548763.7899999991}},{"attributes":{"ID":322853,"DIS_CODE":0,"TOWNNAME":"安南區","LI":"理想里","LIN":"20鄰","STREET":"同安路","SECT":" ","MAREA":" ","LANE":"６８巷","ALLEY":" ","HOUSE_NO":"９２號","E_COORD97":166998.45999999999,"N_COORD97":2548737.6499999999,"ADDRESS":"同安路６８巷９２號","OBJECTID":322844},"geometry":{"x":166998.46000000089,"y":2548737.6500000022}},{"attributes":{"ID":322854,"DIS_CODE":0,"TOWNNAME":"安南區","LI":"理想里","LIN":"20鄰","STREET":"同安路","SECT":" ","MAREA":" ","LANE":"６８巷","ALLEY":" ","HOUSE_NO":"９６號","E_COORD97":167000.48000000001,"N_COORD97":2548735.0499999998,"ADDRESS":"同安路６８巷９６號","OBJECTID":322845},"geometry":{"x":167000.48000000138,"y":2548735.0500000026}},{"attributes":{"ID":322855,"DIS_CODE":0,"TOWNNAME":"安南區","LI":"理想里","LIN":"20鄰","STREET":"同安路","SECT":" ","MAREA":" ","LANE":"６８巷","ALLEY":" ","HOUSE_NO":"９８號","E_COORD97":167003.09,"N_COORD97":2548731,"ADDRESS":"同安路６８巷９８號","OBJECTID":322846},"geometry":{"x":167003.08999999985,"y":2548731.0000000019}},{"attributes":{"ID":322856,"DIS_CODE":0,"TOWNNAME":"南區","LI":"新生里","LIN":"20鄰","STREET":"大同路","SECT":"二段","MAREA":" ","LANE":"１００巷","ALLEY":" ","HOUSE_NO":"２號","E_COORD97":169197.98000000001,"N_COORD97":2542364.8799999999,"ADDRESS":"大同路二段１００巷２號","OBJECTID":322847},"geometry":{"x":169197.98000000045,"y":2542364.879999999}},{"attributes":{"ID":322857,"DIS_CODE":0,"TOWNNAME":"南區","LI":"新生里","LIN":"20鄰","STREET":"大同路","SECT":"二段","MAREA":" ","LANE":"１００巷","ALLEY":" ","HOUSE_NO":"３號","E_COORD97":169180.97,"N_COORD97":2542363.8700000001,"ADDRESS":"大同路二段１００巷３號","OBJECTID":322848},"geometry":{"x":169180.96999999974,"y":2542363.870000001}},{"attributes":{"ID":322858,"DIS_CODE":0,"TOWNNAME":"南區","LI":"新生里","LIN":"20鄰","STREET":"大同路","SECT":"二段","MAREA":" ","LANE":"１００巷","ALLEY":" ","HOUSE_NO":"５號","E_COORD97":169159.07000000001,"N_COORD97":2542359.5,"ADDRESS":"大同路二段１００巷５號","OBJECTID":322849},"geometry":{"x":169159.07000000216,"y":2542359.5000000037}},{"attributes":{"ID":322859,"DIS_CODE":0,"TOWNNAME":"南區","LI":"新生里","LIN":"20鄰","STREET":"大同路","SECT":"二段","MAREA":" ","LANE":"１００巷","ALLEY":" ","HOUSE_NO":"６號","E_COORD97":169132.79999999999,"N_COORD97":2542362.8599999999,"ADDRESS":"大同路二段１００巷６號","OBJECTID":322850},"geometry":{"x":169132.79999999981,"y":2542362.8599999994}},{"attributes":{"ID":322860,"DIS_CODE":0,"TOWNNAME":"南區","LI":"新生里","LIN":"20鄰","STREET":"大同路","SECT":"二段","MAREA":" ","LANE":"１００巷","ALLEY":" ","HOUSE_NO":"７號","E_COORD97":169132.29000000001,"N_COORD97":2542348.0499999998,"ADDRESS":"大同路二段１００巷７號","OBJECTID":322851},"geometry":{"x":169132.29000000097,"y":2542348.0500000026}},{"attributes":{"ID":322861,"DIS_CODE":0,"TOWNNAME":"南區","LI":"新生里","LIN":"20鄰","STREET":"大同路","SECT":"二段","MAREA":" ","LANE":"１００巷","ALLEY":" ","HOUSE_NO":"８號","E_COORD97":169128.56,"N_COORD97":2542330.8199999998,"ADDRESS":"大同路二段１００巷８號","OBJECTID":322852},"geometry":{"x":169128.56000000052,"y":2542330.820000004}},{"attributes":{"ID":322862,"DIS_CODE":0,"TOWNNAME":"南區","LI":"新生里","LIN":"20鄰","STREET":"大同路","SECT":"二段","MAREA":" ","LANE":"１００巷","ALLEY":" ","HOUSE_NO":"９號","E_COORD97":169141.39000000001,"N_COORD97":2542335.1800000002,"ADDRESS":"大同路二段１００巷９號","OBJECTID":322853},"geometry":{"x":169141.3900000006,"y":2542335.1800000016}},{"attributes":{"ID":322863,"DIS_CODE":0,"TOWNNAME":"南區","LI":"白雪里","LIN":" ","STREET":"鹽埕路","SECT":" ","MAREA":" ","LANE":"１６０巷","ALLEY":" ","HOUSE_NO":"２６號","E_COORD97":166887.47,"N_COORD97":2541009.25,"ADDRESS":"鹽埕路１６０巷２６號","OBJECTID":322854},"geometry":{"x":166887.46999999881,"y":2541009.2500000019}},{"attributes":{"ID":322864,"DIS_CODE":0,"TOWNNAME":"南區","LI":"光明里","LIN":"20鄰","STREET":"新建路","SECT":" ","MAREA":" ","LANE":"２１巷","ALLEY":" ","HOUSE_NO":"１號","E_COORD97":166480.54999999999,"N_COORD97":2541418.3100000001,"ADDRESS":"新建路２１巷１號","OBJECTID":322855},"geometry":{"x":166480.55000000075,"y":2541418.3100000005}},{"attributes":{"ID":322865,"DIS_CODE":0,"TOWNNAME":"南區","LI":"光明里","LIN":"20鄰","STREET":"新建路","SECT":" ","MAREA":" ","LANE":"２１巷","ALLEY":" ","HOUSE_NO":"３號","E_COORD97":166486.95999999999,"N_COORD97":2541417.6699999999,"ADDRESS":"新建路２１巷３號","OBJECTID":322856},"geometry":{"x":166486.96000000089,"y":2541417.6699999999}},{"attributes":{"ID":322866,"DIS_CODE":0,"TOWNNAME":"南區","LI":"光明里","LIN":"20鄰","STREET":"新建路","SECT":" ","MAREA":" ","LANE":"２１巷","ALLEY":" ","HOUSE_NO":"５號","E_COORD97":166493.75,"N_COORD97":2541419.0800000001,"ADDRESS":"新建路２１巷５號","OBJECTID":322857},"geometry":{"x":166493.75,"y":2541419.0800000001}},{"attributes":{"ID":322867,"DIS_CODE":0,"TOWNNAME":"南區","LI":"光明里","LIN":"20鄰","STREET":"新建路","SECT":" ","MAREA":" ","LANE":"２１巷","ALLEY":" ","HOUSE_NO":"７號","E_COORD97":166500.54999999999,"N_COORD97":2541418.4399999999,"ADDRESS":"新建路２１巷７號","OBJECTID":322858},"geometry":{"x":166500.54999999888,"y":2541418.4400000013}},{"attributes":{"ID":322868,"DIS_CODE":0,"TOWNNAME":"南區","LI":"光明里","LIN":"20鄰","STREET":"新建路","SECT":" ","MAREA":" ","LANE":"２１巷","ALLEY":" ","HOUSE_NO":"９號","E_COORD97":166508.10999999999,"N_COORD97":2541418.5600000001,"ADDRESS":"新建路２１巷９號","OBJECTID":322859},"geometry":{"x":166508.11000000127,"y":2541418.5600000024}},{"attributes":{"ID":322869,"DIS_CODE":0,"TOWNNAME":"南區","LI":"新生里","LIN":"20鄰","STREET":"大同路","SECT":"二段","MAREA":" ","LANE":"１００巷","ALLEY":" ","HOUSE_NO":"１０號","E_COORD97":169137.09,"N_COORD97":2542316.8999999999,"ADDRESS":"大同路二段１００巷１０號","OBJECTID":322860},"geometry":{"x":169137.09000000078,"y":2542316.9000000022}},{"attributes":{"ID":322870,"DIS_CODE":0,"TOWNNAME":"南區","LI":"新生里","LIN":"20鄰","STREET":"大同路","SECT":"二段","MAREA":" ","LANE":"１００巷","ALLEY":" ","HOUSE_NO":"１１號","E_COORD97":169147.56,"N_COORD97":2542320.2200000002,"ADDRESS":"大同路二段１００巷１１號","OBJECTID":322861},"geometry":{"x":169147.55999999959,"y":2542320.2200000007}},{"attributes":{"ID":322871,"DIS_CODE":0,"TOWNNAME":"南區","LI":"新生里","LIN":"20鄰","STREET":"大同路","SECT":"二段","MAREA":" ","LANE":"１００巷","ALLEY":" ","HOUSE_NO":"１２號","E_COORD97":169146.23000000001,"N_COORD97":2542304.8799999999,"ADDRESS":"大同路二段１００巷１２號","OBJECTID":322862},"geometry":{"x":169146.23000000231,"y":2542304.8799999971}},{"attributes":{"ID":322872,"DIS_CODE":0,"TOWNNAME":"安南區","LI":"理想里","LIN":"20鄰","STREET":"同安路","SECT":" ","MAREA":" ","LANE":"６８巷","ALLEY":" ","HOUSE_NO":"３７號","E_COORD97":166978.04000000001,"N_COORD97":2548827.8500000001,"ADDRESS":"同安路６８巷３７號","OBJECTID":322863},"geometry":{"x":166978.04000000097,"y":2548827.8499999996}},{"attributes":{"ID":322873,"DIS_CODE":0,"TOWNNAME":"關廟區","LI":"龜洞里","LIN":"1鄰","STREET":"南雄南路","SECT":" ","MAREA":" ","LANE":" ","ALLEY":" ","HOUSE_NO":"６４６號","E_COORD97":183398.41678500001,"N_COORD97":2533661.96527,"ADDRESS":"南雄南路６４６號","OBJECTID":322864},"geometry":{"x":183398.41678500082,"y":2533661.9652679991}},{"attributes":{"ID":322874,"DIS_CODE":0,"TOWNNAME":"安南區","LI":"理想里","LIN":"20鄰","STREET":"同安路","SECT":" ","MAREA":" ","LANE":"６８巷","ALLEY":" ","HOUSE_NO":"３８號","E_COORD97":166941.09,"N_COORD97":2548822.5499999998,"ADDRESS":"同安路６８巷３８號","OBJECTID":322865},"geometry":{"x":166941.09000000171,"y":2548822.5500000026}},{"attributes":{"ID":322875,"DIS_CODE":0,"TOWNNAME":"安南區","LI":"理想里","LIN":"20鄰","STREET":"同安路","SECT":" ","MAREA":" ","LANE":"６８巷","ALLEY":" ","HOUSE_NO":"３９號","E_COORD97":166980.60999999999,"N_COORD97":2548824.77,"ADDRESS":"同安路６８巷３９號","OBJECTID":322866},"geometry":{"x":166980.6100000022,"y":2548824.7699999996}},{"attributes":{"ID":322876,"DIS_CODE":0,"TOWNNAME":"安南區","LI":"理想里","LIN":"20鄰","STREET":"同安路","SECT":" ","MAREA":" ","LANE":"６８巷","ALLEY":" ","HOUSE_NO":"４０號","E_COORD97":166943.69,"N_COORD97":2548819.0800000001,"ADDRESS":"同安路６８巷４０號","OBJECTID":322867},"geometry":{"x":166943.69000000041,"y":2548819.0800000019}},{"attributes":{"ID":322877,"DIS_CODE":0,"TOWNNAME":"安南區","LI":"理想里","LIN":"20鄰","STREET":"同安路","SECT":" ","MAREA":" ","LANE":"６８巷","ALLEY":" ","HOUSE_NO":"４１號","E_COORD97":166981.89999999999,"N_COORD97":2548821.6800000002,"ADDRESS":"同安路６８巷４１號","OBJECTID":322868},"geometry":{"x":166981.89999999944,"y":2548821.6800000016}},{"attributes":{"ID":322878,"DIS_CODE":0,"TOWNNAME":"安南區","LI":"理想里","LIN":"20鄰","STREET":"同安路","SECT":" ","MAREA":" ","LANE":"６８巷","ALLEY":" ","HOUSE_NO":"４２號","E_COORD97":166946.29999999999,"N_COORD97":2548815.6099999999,"ADDRESS":"同安路６８巷４２號","OBJECTID":322869},"geometry":{"x":166946.29999999981,"y":2548815.6099999994}},{"attributes":{"ID":322879,"DIS_CODE":0,"TOWNNAME":"安南區","LI":"理想里","LIN":"20鄰","STREET":"同安路","SECT":" ","MAREA":" ","LANE":"６８巷","ALLEY":" ","HOUSE_NO":"４３號","E_COORD97":166984.98999999999,"N_COORD97":2548816.7999999998,"ADDRESS":"同安路６８巷４３號","OBJECTID":322870},"geometry":{"x":166984.99000000115,"y":2548816.7999999989}},{"attributes":{"ID":322880,"DIS_CODE":0,"TOWNNAME":"安南區","LI":"理想里","LIN":"20鄰","STREET":"同安路","SECT":" ","MAREA":" ","LANE":"６８巷","ALLEY":" ","HOUSE_NO":"４５號","E_COORD97":166986.79000000001,"N_COORD97":2548814.4900000002,"ADDRESS":"同安路６８巷４５號","OBJECTID":322871},"geometry":{"x":166986.79000000004,"y":2548814.4900000002}},{"attributes":{"ID":322881,"DIS_CODE":0,"TOWNNAME":"安南區","LI":"理想里","LIN":"20鄰","STREET":"同安路","SECT":" ","MAREA":" ","LANE":"６８巷","ALLEY":" ","HOUSE_NO":"４７號","E_COORD97":167009.72,"N_COORD97":2548776.9500000002,"ADDRESS":"同安路６８巷４７號","OBJECTID":322872},"geometry":{"x":167009.7200000016,"y":2548776.9499999974}},{"attributes":{"ID":322882,"DIS_CODE":0,"TOWNNAME":"安南區","LI":"理想里","LIN":"20鄰","STREET":"同安路","SECT":" ","MAREA":" ","LANE":"６８巷","ALLEY":" ","HOUSE_NO":"４８號","E_COORD97":166950.64000000001,"N_COORD97":2548808.96,"ADDRESS":"同安路６８巷４８號","OBJECTID":322873},"geometry":{"x":166950.63999999966,"y":2548808.9600000009}},{"attributes":{"ID":322883,"DIS_CODE":0,"TOWNNAME":"安南區","LI":"理想里","LIN":"20鄰","STREET":"同安路","SECT":" ","MAREA":" ","LANE":"６８巷","ALLEY":" ","HOUSE_NO":"４９號","E_COORD97":167022.03,"N_COORD97":2548761.1200000001,"ADDRESS":"同安路６８巷４９號","OBJECTID":322874},"geometry":{"x":167022.03000000119,"y":2548761.1200000048}},{"attributes":{"ID":322884,"DIS_CODE":0,"TOWNNAME":"安南區","LI":"理想里","LIN":"20鄰","STREET":"同安路","SECT":" ","MAREA":" ","LANE":"６８巷","ALLEY":" ","HOUSE_NO":"５０號","E_COORD97":166953.23999999999,"N_COORD97":2548806.0699999998,"ADDRESS":"同安路６８巷５０號","OBJECTID":322875},"geometry":{"x":166953.24000000022,"y":2548806.0700000022}},{"attributes":{"ID":322885,"DIS_CODE":0,"TOWNNAME":"安南區","LI":"理想里","LIN":"20鄰","STREET":"同安路","SECT":" ","MAREA":" ","LANE":"６８巷","ALLEY":" ","HOUSE_NO":"５１號","E_COORD97":167026.29999999999,"N_COORD97":2548758.9900000002,"ADDRESS":"同安路６８巷５１號","OBJECTID":322876},"geometry":{"x":167026.30000000075,"y":2548758.9900000021}},{"attributes":{"ID":322886,"DIS_CODE":0,"TOWNNAME":"安南區","LI":"理想里","LIN":"20鄰","STREET":"同安路","SECT":" ","MAREA":" ","LANE":"６８巷","ALLEY":" ","HOUSE_NO":"５２號","E_COORD97":166954.98000000001,"N_COORD97":2548801.1600000001,"ADDRESS":"同安路６８巷５２號","OBJECTID":322877},"geometry":{"x":166954.98000000138,"y":2548801.160000002}},{"attributes":{"ID":322887,"DIS_CODE":0,"TOWNNAME":"安南區","LI":"理想里","LIN":"20鄰","STREET":"同安路","SECT":" ","MAREA":" ","LANE":"６８巷","ALLEY":" ","HOUSE_NO":"５３號","E_COORD97":167027.72,"N_COORD97":2548754.3599999999,"ADDRESS":"同安路６８巷５３號","OBJECTID":322878},"geometry":{"x":167027.71999999974,"y":2548754.3600000031}},{"attributes":{"ID":322888,"DIS_CODE":0,"TOWNNAME":"安南區","LI":"理想里","LIN":"20鄰","STREET":"同安路","SECT":" ","MAREA":" ","LANE":"６８巷","ALLEY":" ","HOUSE_NO":"５５號","E_COORD97":167031.17000000001,"N_COORD97":2548751.4100000001,"ADDRESS":"同安路６８巷５５號","OBJECTID":322879},"geometry":{"x":167031.17000000086,"y":2548751.4100000039}},{"attributes":{"ID":322889,"DIS_CODE":0,"TOWNNAME":"安南區","LI":"理想里","LIN":"20鄰","STREET":"同安路","SECT":" ","MAREA":" ","LANE":"６８巷","ALLEY":" ","HOUSE_NO":"５６號","E_COORD97":166957.57999999999,"N_COORD97":2548798.27,"ADDRESS":"同安路６８巷５６號","OBJECTID":322880},"geometry":{"x":166957.58000000007,"y":2548798.2699999996}},{"attributes":{"ID":322890,"DIS_CODE":0,"TOWNNAME":"安南區","LI":"理想里","LIN":"20鄰","STREET":"同安路","SECT":" ","MAREA":" ","LANE":"６８巷","ALLEY":" ","HOUSE_NO":"５７號","E_COORD97":167034.12,"N_COORD97":2548747.7200000002,"ADDRESS":"同安路６８巷５７號","OBJECTID":322881},"geometry":{"x":167034.12000000011,"y":2548747.7200000025}},{"attributes":{"ID":322891,"DIS_CODE":0,"TOWNNAME":"安南區","LI":"理想里","LIN":"20鄰","STREET":"同安路","SECT":" ","MAREA":" ","LANE":"６８巷","ALLEY":" ","HOUSE_NO":"５８號","E_COORD97":166960.17999999999,"N_COORD97":2548794.2200000002,"ADDRESS":"同安路６８巷５８號","OBJECTID":322882},"geometry":{"x":166960.1799999997,"y":2548794.2200000025}},{"attributes":{"ID":322892,"DIS_CODE":0,"TOWNNAME":"佳里區","LI":"安西里","LIN":"17鄰","STREET":"長安街","SECT":" ","MAREA":" ","LANE":" ","ALLEY":" ","HOUSE_NO":"１５７號","E_COORD97":165420.13,"N_COORD97":2562670.7400000002,"ADDRESS":"長安街１５７號","OBJECTID":322883},"geometry":{"x":165420.12999999989,"y":2562670.7400000021}},{"attributes":{"ID":322893,"DIS_CODE":0,"TOWNNAME":"佳里區","LI":"建南里","LIN":"17鄰","STREET":"建南街","SECT":" ","MAREA":" ","LANE":" ","ALLEY":" ","HOUSE_NO":"３７號","E_COORD97":165592.64999999999,"N_COORD97":2561839.6299999999,"ADDRESS":"建南街３７號","OBJECTID":322884},"geometry":{"x":165592.6500000013,"y":2561839.6300000008}},{"attributes":{"ID":322894,"DIS_CODE":0,"TOWNNAME":"佳里區","LI":"建南里","LIN":"17鄰","STREET":"建南街","SECT":" ","MAREA":" ","LANE":" ","ALLEY":" ","HOUSE_NO":"３８號","E_COORD97":165608.5,"N_COORD97":2561821.6800000002,"ADDRESS":"建南街３８號","OBJECTID":322885},"geometry":{"x":165608.50000000093,"y":2561821.6799999997}},{"attributes":{"ID":322895,"DIS_CODE":0,"TOWNNAME":"佳里區","LI":"建南里","LIN":"17鄰","STREET":"建南街","SECT":" ","MAREA":" ","LANE":" ","ALLEY":" ","HOUSE_NO":"１００號","E_COORD97":165659.35999999999,"N_COORD97":2561974.1499999999,"ADDRESS":"建南街１００號","OBJECTID":322886},"geometry":{"x":165659.36000000034,"y":2561974.1500000004}},{"attributes":{"ID":322896,"DIS_CODE":0,"TOWNNAME":"佳里區","LI":"建南里","LIN":"17鄰","STREET":"建南街","SECT":" ","MAREA":" ","LANE":" ","ALLEY":" ","HOUSE_NO":"１０１號","E_COORD97":165646.48000000001,"N_COORD97":2562001.3500000001,"ADDRESS":"建南街１０１號","OBJECTID":322887},"geometry":{"x":165646.48000000138,"y":2562001.3500000015}},{"attributes":{"ID":322897,"DIS_CODE":0,"TOWNNAME":"安南區","LI":"理想里","LIN":"20鄰","STREET":"同安路","SECT":" ","MAREA":" ","LANE":"６８巷","ALLEY":" ","HOUSE_NO":"５９號","E_COORD97":167035.84,"N_COORD97":2548744.77,"ADDRESS":"同安路６８巷５９號","OBJECTID":322888},"geometry":{"x":167035.83999999985,"y":2548744.7700000033}},{"attributes":{"ID":322898,"DIS_CODE":0,"TOWNNAME":"安南區","LI":"理想里","LIN":"20鄰","STREET":"同安路","SECT":" ","MAREA":" ","LANE":"６８巷","ALLEY":" ","HOUSE_NO":"６０號","E_COORD97":166962.79000000001,"N_COORD97":2548791.3300000001,"ADDRESS":"同安路６８巷６０號","OBJECTID":322889},"geometry":{"x":166962.79000000097,"y":2548791.3300000001}},{"attributes":{"ID":322899,"DIS_CODE":0,"TOWNNAME":"安南區","LI":"理想里","LIN":"20鄰","STREET":"同安路","SECT":" ","MAREA":" ","LANE":"６８巷","ALLEY":" ","HOUSE_NO":"６１號","E_COORD97":167039.29000000001,"N_COORD97":2548741.0800000001,"ADDRESS":"同安路６８巷６１號","OBJECTID":322890},"geometry":{"x":167039.29000000004,"y":2548741.0800000019}},{"attributes":{"ID":322900,"DIS_CODE":0,"TOWNNAME":"安南區","LI":"理想里","LIN":"20鄰","STREET":"同安路","SECT":" ","MAREA":" ","LANE":"６８巷","ALLEY":" ","HOUSE_NO":"６３號","E_COORD97":167041.5,"N_COORD97":2548738.3700000001,"ADDRESS":"同安路６８巷６３號","OBJECTID":322891},"geometry":{"x":167041.5,"y":2548738.370000001}},{"attributes":{"ID":322901,"DIS_CODE":0,"TOWNNAME":"安南區","LI":"理想里","LIN":"20鄰","STREET":"同安路","SECT":" ","MAREA":" ","LANE":"６８巷","ALLEY":" ","HOUSE_NO":"６５號","E_COORD97":167044.45999999999,"N_COORD97":2548734.4300000002,"ADDRESS":"同安路６８巷６５號","OBJECTID":322892},"geometry":{"x":167044.46000000089,"y":2548734.4300000016}},{"attributes":{"ID":322902,"DIS_CODE":0,"TOWNNAME":"安南區","LI":"理想里","LIN":"20鄰","STREET":"同安路","SECT":" ","MAREA":" ","LANE":"６８巷","ALLEY":" ","HOUSE_NO":"６７號","E_COORD97":167045.92999999999,"N_COORD97":2548730.25,"ADDRESS":"同安路６８巷６７號","OBJECTID":322893},"geometry":{"x":167045.93000000063,"y":2548730.25}},{"attributes":{"ID":322903,"DIS_CODE":0,"TOWNNAME":"安南區","LI":"理想里","LIN":"20鄰","STREET":"同安路","SECT":" ","MAREA":" ","LANE":"６８巷","ALLEY":" ","HOUSE_NO":"６號","E_COORD97":166909.85000000001,"N_COORD97":2548869.3700000001,"ADDRESS":"同安路６８巷６號","OBJECTID":322894},"geometry":{"x":166909.84999999963,"y":2548869.3700000029}},{"attributes":{"ID":322904,"DIS_CODE":0,"TOWNNAME":"東區","LI":"和平里","LIN":"20鄰","STREET":"仁和路","SECT":" ","MAREA":" ","LANE":"６９巷","ALLEY":" ","HOUSE_NO":"２８號","E_COORD97":171270.60999999999,"N_COORD97":2541641.48,"ADDRESS":"仁和路６９巷２８號","OBJECTID":322895},"geometry":{"x":171270.61000000034,"y":2541641.4800000042}},{"attributes":{"ID":322905,"DIS_CODE":0,"TOWNNAME":"東區","LI":"和平里","LIN":"20鄰","STREET":"仁和路","SECT":" ","MAREA":" ","LANE":"６９巷","ALLEY":" ","HOUSE_NO":"１７號","E_COORD97":171258.66,"N_COORD97":2541654.7400000002,"ADDRESS":"仁和路６９巷１７號","OBJECTID":322896},"geometry":{"x":171258.66000000201,"y":2541654.7400000002}},{"attributes":{"ID":322906,"DIS_CODE":0,"TOWNNAME":"東區","LI":"和平里","LIN":"20鄰","STREET":"仁和路","SECT":" ","MAREA":" ","LANE":"６９巷","ALLEY":" ","HOUSE_NO":"３８號","E_COORD97":171290.75,"N_COORD97":2541650.1600000001,"ADDRESS":"仁和路６９巷３８號","OBJECTID":322897},"geometry":{"x":171290.75000000093,"y":2541650.1600000039}},{"attributes":{"ID":322907,"DIS_CODE":0,"TOWNNAME":"東區","LI":"和平里","LIN":"20鄰","STREET":"仁和路","SECT":" ","MAREA":" ","LANE":"６９巷","ALLEY":" ","HOUSE_NO":"１９號","E_COORD97":171263.41,"N_COORD97":2541657.2000000002,"ADDRESS":"仁和路６９巷１９號","OBJECTID":322898},"geometry":{"x":171263.41000000015,"y":2541657.2000000011}},{"attributes":{"ID":322908,"DIS_CODE":0,"TOWNNAME":"東區","LI":"和平里","LIN":"20鄰","STREET":"仁和路","SECT":" ","MAREA":" ","LANE":"６９巷","ALLEY":" ","HOUSE_NO":"２１號","E_COORD97":171268.64999999999,"N_COORD97":2541659.6499999999,"ADDRESS":"仁和路６９巷２１號","OBJECTID":322899},"geometry":{"x":171268.65000000037,"y":2541659.6500000004}},{"attributes":{"ID":322909,"DIS_CODE":0,"TOWNNAME":"東區","LI":"和平里","LIN":"20鄰","STREET":"仁和路","SECT":" ","MAREA":" ","LANE":"６９巷","ALLEY":" ","HOUSE_NO":"３３號","E_COORD97":171295.82999999999,"N_COORD97":2541674.0600000001,"ADDRESS":"仁和路６９巷３３號","OBJECTID":322900},"geometry":{"x":171295.83000000007,"y":2541674.0600000005}},{"attributes":{"ID":322910,"DIS_CODE":0,"TOWNNAME":"東區","LI":"和平里","LIN":"20鄰","STREET":"仁和路","SECT":" ","MAREA":" ","LANE":"６９巷","ALLEY":" ","HOUSE_NO":"３７號","E_COORD97":171304.67000000001,"N_COORD97":2541677.6600000001,"ADDRESS":"仁和路６９巷３７號","OBJECTID":322901},"geometry":{"x":171304.67000000086,"y":2541677.660000002}},{"attributes":{"ID":322911,"DIS_CODE":0,"TOWNNAME":"東區","LI":"和平里","LIN":"20鄰","STREET":"仁和路","SECT":" ","MAREA":" ","LANE":"６９巷","ALLEY":" ","HOUSE_NO":"６號","E_COORD97":171229.03,"N_COORD97":2541623.96,"ADDRESS":"仁和路６９巷６號","OBJECTID":322902},"geometry":{"x":171229.02999999933,"y":2541623.9600000009}},{"attributes":{"ID":322912,"DIS_CODE":0,"TOWNNAME":"東區","LI":"和平里","LIN":"20鄰","STREET":"仁和路","SECT":" ","MAREA":" ","LANE":"６９巷","ALLEY":" ","HOUSE_NO":"８號","E_COORD97":171233.29000000001,"N_COORD97":2541625.4300000002,"ADDRESS":"仁和路６９巷８號","OBJECTID":322903},"geometry":{"x":171233.29000000004,"y":2541625.4300000016}},{"attributes":{"ID":322913,"DIS_CODE":0,"TOWNNAME":"東區","LI":"和平里","LIN":"20鄰","STREET":"仁和路","SECT":" ","MAREA":" ","LANE":"６９巷","ALLEY":" ","HOUSE_NO":"３６號","E_COORD97":171285.84,"N_COORD97":2541648.0299999998,"ADDRESS":"仁和路６９巷３６號","OBJECTID":322904},"geometry":{"x":171285.83999999892,"y":2541648.0300000012}},{"attributes":{"ID":322914,"DIS_CODE":0,"TOWNNAME":"東區","LI":"和平里","LIN":"20鄰","STREET":"仁和路","SECT":" ","MAREA":" ","LANE":"６９巷","ALLEY":" ","HOUSE_NO":"９號","E_COORD97":171237.87,"N_COORD97":2541645.5699999998,"ADDRESS":"仁和路６９巷９號","OBJECTID":322905},"geometry":{"x":171237.87000000011,"y":2541645.5700000022}},{"attributes":{"ID":322915,"DIS_CODE":0,"TOWNNAME":"東區","LI":"和平里","LIN":"20鄰","STREET":"仁和路","SECT":" ","MAREA":" ","LANE":"６９巷","ALLEY":" ","HOUSE_NO":"１１號","E_COORD97":171243.10999999999,"N_COORD97":2541647.7000000002,"ADDRESS":"仁和路６９巷１１號","OBJECTID":322906},"geometry":{"x":171243.11000000034,"y":2541647.6999999993}},{"attributes":{"ID":322916,"DIS_CODE":0,"TOWNNAME":"東區","LI":"和平里","LIN":"20鄰","STREET":"仁和路","SECT":" ","MAREA":" ","LANE":"６９巷","ALLEY":" ","HOUSE_NO":"１３號","E_COORD97":171247.85999999999,"N_COORD97":2541649.9900000002,"ADDRESS":"仁和路６９巷１３號","OBJECTID":322907},"geometry":{"x":171247.86000000127,"y":2541649.9900000002}},{"attributes":{"ID":322917,"DIS_CODE":0,"TOWNNAME":"東區","LI":"和平里","LIN":"20鄰","STREET":"仁和路","SECT":" ","MAREA":" ","LANE":"６９巷","ALLEY":" ","HOUSE_NO":"２３號","E_COORD97":171273.23000000001,"N_COORD97":2541661.7799999998,"ADDRESS":"仁和路６９巷２３號","OBJECTID":322908},"geometry":{"x":171273.23000000045,"y":2541661.7799999975}},{"attributes":{"ID":322918,"DIS_CODE":0,"TOWNNAME":"東區","LI":"和平里","LIN":"20鄰","STREET":"仁和路","SECT":" ","MAREA":" ","LANE":"６９巷","ALLEY":" ","HOUSE_NO":"２５號","E_COORD97":171277.98000000001,"N_COORD97":2541664.3999999999,"ADDRESS":"仁和路６９巷２５號","OBJECTID":322909},"geometry":{"x":171277.98000000045,"y":2541664.4000000004}},{"attributes":{"ID":322919,"DIS_CODE":0,"TOWNNAME":"東區","LI":"和平里","LIN":"20鄰","STREET":"仁和路","SECT":" ","MAREA":" ","LANE":"６９巷","ALLEY":" ","HOUSE_NO":"２７號","E_COORD97":171282.73000000001,"N_COORD97":2541666.6899999999,"ADDRESS":"仁和路６９巷２７號","OBJECTID":322910},"geometry":{"x":171282.73000000138,"y":2541666.6900000013}},{"attributes":{"ID":322920,"DIS_CODE":0,"TOWNNAME":"東區","LI":"和平里","LIN":"20鄰","STREET":"仁和路","SECT":" ","MAREA":" ","LANE":"６９巷","ALLEY":" ","HOUSE_NO":"２９號","E_COORD97":171286.66,"N_COORD97":2541668.98,"ADDRESS":"仁和路６９巷２９號","OBJECTID":322911},"geometry":{"x":171286.66000000015,"y":2541668.9800000023}},{"attributes":{"ID":322921,"DIS_CODE":0,"TOWNNAME":"東區","LI":"和平里","LIN":"20鄰","STREET":"仁和路","SECT":" ","MAREA":" ","LANE":"６９巷","ALLEY":" ","HOUSE_NO":"３１號","E_COORD97":171291.73999999999,"N_COORD97":2541670.9500000002,"ADDRESS":"仁和路６９巷３１號","OBJECTID":322912},"geometry":{"x":171291.74000000022,"y":2541670.950000003}},{"attributes":{"ID":322922,"DIS_CODE":0,"TOWNNAME":"東區","LI":"和平里","LIN":"20鄰","STREET":"仁和路","SECT":" ","MAREA":" ","LANE":"６９巷","ALLEY":" ","HOUSE_NO":"３５號","E_COORD97":171301.07000000001,"N_COORD97":2541675.3700000001,"ADDRESS":"仁和路６９巷３５號","OBJECTID":322913},"geometry":{"x":171301.0700000003,"y":2541675.370000001}},{"attributes":{"ID":322923,"DIS_CODE":0,"TOWNNAME":"東區","LI":"和平里","LIN":"20鄰","STREET":"仁和路","SECT":" ","MAREA":" ","LANE":"６９巷","ALLEY":" ","HOUSE_NO":"２號","E_COORD97":171225.10000000001,"N_COORD97":2541622.1600000001,"ADDRESS":"仁和路６９巷２號","OBJECTID":322914},"geometry":{"x":171225.10000000056,"y":2541622.1600000001}},{"attributes":{"ID":322924,"DIS_CODE":0,"TOWNNAME":"東區","LI":"和平里","LIN":"20鄰","STREET":"仁和路","SECT":" ","MAREA":" ","LANE":"６９巷","ALLEY":" ","HOUSE_NO":"１６號","E_COORD97":171247.53,"N_COORD97":2541630.8399999999,"ADDRESS":"仁和路６９巷１６號","OBJECTID":322915},"geometry":{"x":171247.53000000026,"y":2541630.8399999999}},{"attributes":{"ID":322925,"DIS_CODE":0,"TOWNNAME":"東區","LI":"和平里","LIN":"20鄰","STREET":"仁和路","SECT":" ","MAREA":" ","LANE":"６９巷","ALLEY":" ","HOUSE_NO":"２０號","E_COORD97":171257.51999999999,"N_COORD97":2541635.0899999999,"ADDRESS":"仁和路６９巷２０號","OBJECTID":322916},"geometry":{"x":171257.52000000048,"y":2541635.0899999999}},{"attributes":{"ID":322926,"DIS_CODE":0,"TOWNNAME":"東區","LI":"和平里","LIN":"20鄰","STREET":"仁和路","SECT":" ","MAREA":" ","LANE":"６９巷","ALLEY":" ","HOUSE_NO":"２２號","E_COORD97":171262.10000000001,"N_COORD97":2541636.8900000001,"ADDRESS":"仁和路６９巷２２號","OBJECTID":322917},"geometry":{"x":171262.10000000056,"y":2541636.8900000025}},{"attributes":{"ID":322927,"DIS_CODE":0,"TOWNNAME":"東區","LI":"和平里","LIN":"20鄰","STREET":"仁和路","SECT":" ","MAREA":" ","LANE":"６９巷","ALLEY":" ","HOUSE_NO":"２６號","E_COORD97":171266.69,"N_COORD97":2541639.1899999999,"ADDRESS":"仁和路６９巷２６號","OBJECTID":322918},"geometry":{"x":171266.69000000041,"y":2541639.1900000032}},{"attributes":{"ID":322928,"DIS_CODE":0,"TOWNNAME":"東區","LI":"和平里","LIN":"20鄰","STREET":"仁和路","SECT":" ","MAREA":" ","LANE":"６９巷","ALLEY":" ","HOUSE_NO":"３０號","E_COORD97":171275.20000000001,"N_COORD97":2541643.1200000001,"ADDRESS":"仁和路６９巷３０號","OBJECTID":322919},"geometry":{"x":171275.20000000019,"y":2541643.120000001}},{"attributes":{"ID":322929,"DIS_CODE":0,"TOWNNAME":"東區","LI":"和平里","LIN":"20鄰","STREET":"仁和路","SECT":" ","MAREA":" ","LANE":"６９巷","ALLEY":" ","HOUSE_NO":"３２號","E_COORD97":171280.44,"N_COORD97":2541645.2400000002,"ADDRESS":"仁和路６９巷３２號","OBJECTID":322920},"geometry":{"x":171280.44000000041,"y":2541645.2400000002}},{"attributes":{"ID":322930,"DIS_CODE":0,"TOWNNAME":"東區","LI":"和平里","LIN":"20鄰","STREET":"仁和路","SECT":" ","MAREA":" ","LANE":"６９巷","ALLEY":" ","HOUSE_NO":"４０號","E_COORD97":171295.82999999999,"N_COORD97":2541652.6099999999,"ADDRESS":"仁和路６９巷４０號","OBJECTID":322921},"geometry":{"x":171295.83000000007,"y":2541652.6099999994}},{"attributes":{"ID":322931,"DIS_CODE":0,"TOWNNAME":"安南區","LI":"頂安里","LIN":"17鄰","STREET":"北安三街","SECT":" ","MAREA":" ","LANE":" ","ALLEY":" ","HOUSE_NO":"９號","E_COORD97":168366.95000000001,"N_COORD97":2548614.3100000001,"ADDRESS":"北安三街９號","OBJECTID":322922},"geometry":{"x":168366.95000000112,"y":2548614.3100000024}},{"attributes":{"ID":322932,"DIS_CODE":0,"TOWNNAME":"東區","LI":"和平里","LIN":"20鄰","STREET":"仁和路","SECT":" ","MAREA":" ","LANE":"６９巷","ALLEY":" ","HOUSE_NO":"４２號","E_COORD97":171300.57999999999,"N_COORD97":2541654.5800000001,"ADDRESS":"仁和路６９巷４２號","OBJECTID":322923},"geometry":{"x":171300.58000000101,"y":2541654.5800000019}},{"attributes":{"ID":322933,"DIS_CODE":0,"TOWNNAME":"東區","LI":"和平里","LIN":"20鄰","STREET":"仁和路","SECT":" ","MAREA":" ","LANE":"６９巷","ALLEY":" ","HOUSE_NO":"４６號","E_COORD97":171305.48999999999,"N_COORD97":2541656.3799999999,"ADDRESS":"仁和路６９巷４６號","OBJECTID":322924},"geometry":{"x":171305.49000000022,"y":2541656.379999999}},{"attributes":{"ID":322934,"DIS_CODE":0,"TOWNNAME":"東區","LI":"和平里","LIN":"20鄰","STREET":"文化二街","SECT":" ","MAREA":" ","LANE":"２巷","ALLEY":" ","HOUSE_NO":"１０號","E_COORD97":171112.85999999999,"N_COORD97":2542016.4900000002,"ADDRESS":"文化二街２巷１０號","OBJECTID":322925},"geometry":{"x":171112.86000000034,"y":2542016.4900000002}},{"attributes":{"ID":322935,"DIS_CODE":0,"TOWNNAME":"東區","LI":"和平里","LIN":"20鄰","STREET":"文化二街","SECT":" ","MAREA":" ","LANE":"２巷","ALLEY":" ","HOUSE_NO":"１１號","E_COORD97":171130.38,"N_COORD97":2542003.8900000001,"ADDRESS":"文化二街２巷１１號","OBJECTID":322926},"geometry":{"x":171130.38000000082,"y":2542003.8900000006}},{"attributes":{"ID":322936,"DIS_CODE":0,"TOWNNAME":"東區","LI":"和平里","LIN":"20鄰","STREET":"文化二街","SECT":" ","MAREA":" ","LANE":"２巷","ALLEY":" ","HOUSE_NO":"１２號","E_COORD97":171113.19,"N_COORD97":2542011.4199999999,"ADDRESS":"文化二街２巷１２號","OBJECTID":322927},"geometry":{"x":171113.19000000134,"y":2542011.4200000018}},{"attributes":{"ID":322937,"DIS_CODE":0,"TOWNNAME":"東區","LI":"和平里","LIN":"20鄰","STREET":"文化二街","SECT":" ","MAREA":" ","LANE":"２巷","ALLEY":" ","HOUSE_NO":"１３號","E_COORD97":171131.69,"N_COORD97":2541998.98,"ADDRESS":"文化二街２巷１３號","OBJECTID":322928},"geometry":{"x":171131.69000000227,"y":2541998.9800000023}},{"attributes":{"ID":322938,"DIS_CODE":0,"TOWNNAME":"東區","LI":"和平里","LIN":"20鄰","STREET":"文化二街","SECT":" ","MAREA":" ","LANE":"２巷","ALLEY":" ","HOUSE_NO":"１５號","E_COORD97":171132.84,"N_COORD97":2541993.7400000002,"ADDRESS":"文化二街２巷１５號","OBJECTID":322929},"geometry":{"x":171132.83999999985,"y":2541993.7400000002}},{"attributes":{"ID":322939,"DIS_CODE":0,"TOWNNAME":"東區","LI":"和平里","LIN":"20鄰","STREET":"文化二街","SECT":" ","MAREA":" ","LANE":"２巷","ALLEY":" ","HOUSE_NO":"１６號","E_COORD97":171114.01000000001,"N_COORD97":2542006.3399999999,"ADDRESS":"文化二街２巷１６號","OBJECTID":322930},"geometry":{"x":171114.01000000071,"y":2542006.3399999999}},{"attributes":{"ID":322940,"DIS_CODE":0,"TOWNNAME":"東區","LI":"和平里","LIN":"20鄰","STREET":"文化二街","SECT":" ","MAREA":" ","LANE":"２巷","ALLEY":" ","HOUSE_NO":"１８號","E_COORD97":171114.82999999999,"N_COORD97":2542001.1000000001,"ADDRESS":"文化二街２巷１８號","OBJECTID":322931},"geometry":{"x":171114.83000000007,"y":2542001.0999999996}},{"attributes":{"ID":322941,"DIS_CODE":0,"TOWNNAME":"東區","LI":"和平里","LIN":"20鄰","STREET":"文化二街","SECT":" ","MAREA":" ","LANE":"２巷","ALLEY":" ","HOUSE_NO":"１號","E_COORD97":171127.26999999999,"N_COORD97":2542028.77,"ADDRESS":"文化二街２巷１號","OBJECTID":322932},"geometry":{"x":171127.27000000048,"y":2542028.7700000014}},{"attributes":{"ID":322942,"DIS_CODE":0,"TOWNNAME":"東區","LI":"和平里","LIN":"20鄰","STREET":"文化二街","SECT":" ","MAREA":" ","LANE":"２巷","ALLEY":" ","HOUSE_NO":"２０號","E_COORD97":171115.81,"N_COORD97":2541996.3599999999,"ADDRESS":"文化二街２巷２０號","OBJECTID":322933},"geometry":{"x":171115.80999999959,"y":2541996.3599999994}},{"attributes":{"ID":322943,"DIS_CODE":0,"TOWNNAME":"東區","LI":"和平里","LIN":"20鄰","STREET":"文化二街","SECT":" ","MAREA":" ","LANE":"２巷","ALLEY":" ","HOUSE_NO":"２２號","E_COORD97":171116.79000000001,"N_COORD97":2541990.9500000002,"ADDRESS":"文化二街２巷２２號","OBJECTID":322934},"geometry":{"x":171116.79000000004,"y":2541990.9500000011}},{"attributes":{"ID":322944,"DIS_CODE":0,"TOWNNAME":"東區","LI":"和平里","LIN":"20鄰","STREET":"文化二街","SECT":" ","MAREA":" ","LANE":"２巷","ALLEY":" ","HOUSE_NO":"２號","E_COORD97":171109.75,"N_COORD97":2542031.5600000001,"ADDRESS":"文化二街２巷２號","OBJECTID":322935},"geometry":{"x":171109.75,"y":2542031.5600000024}},{"attributes":{"ID":322945,"DIS_CODE":0,"TOWNNAME":"東區","LI":"和平里","LIN":"20鄰","STREET":"文化二街","SECT":" ","MAREA":" ","LANE":"２巷","ALLEY":" ","HOUSE_NO":"３號","E_COORD97":171125.63,"N_COORD97":2542023.5299999998,"ADDRESS":"文化二街２巷３號","OBJECTID":322936},"geometry":{"x":171125.62999999989,"y":2542023.5300000012}},{"attributes":{"ID":322946,"DIS_CODE":0,"TOWNNAME":"東區","LI":"和平里","LIN":"20鄰","STREET":"文化二街","SECT":" ","MAREA":" ","LANE":"２巷","ALLEY":" ","HOUSE_NO":"５號","E_COORD97":171127.10999999999,"N_COORD97":2542018.29,"ADDRESS":"文化二街２巷５號","OBJECTID":322937},"geometry":{"x":171127.11000000127,"y":2542018.290000001}},{"attributes":{"ID":322947,"DIS_CODE":0,"TOWNNAME":"東區","LI":"和平里","LIN":"20鄰","STREET":"文化二街","SECT":" ","MAREA":" ","LANE":"２巷","ALLEY":" ","HOUSE_NO":"６號","E_COORD97":171111.23000000001,"N_COORD97":2542026.3199999998,"ADDRESS":"文化二街２巷６號","OBJECTID":322938},"geometry":{"x":171111.23000000138,"y":2542026.3200000022}},{"attributes":{"ID":322948,"DIS_CODE":0,"TOWNNAME":"東區","LI":"和平里","LIN":"20鄰","STREET":"文化二街","SECT":" ","MAREA":" ","LANE":"２巷","ALLEY":" ","HOUSE_NO":"７號","E_COORD97":171128.57999999999,"N_COORD97":2542013.8700000001,"ADDRESS":"文化二街２巷７號","OBJECTID":322939},"geometry":{"x":171128.58000000194,"y":2542013.8700000029}},{"attributes":{"ID":322949,"DIS_CODE":0,"TOWNNAME":"東區","LI":"和平里","LIN":"20鄰","STREET":"文化二街","SECT":" ","MAREA":" ","LANE":"２巷","ALLEY":" ","HOUSE_NO":"８號","E_COORD97":171111.88,"N_COORD97":2542021.2400000002,"ADDRESS":"文化二街２巷８號","OBJECTID":322940},"geometry":{"x":171111.88000000082,"y":2542021.2400000002}},{"attributes":{"ID":322950,"DIS_CODE":0,"TOWNNAME":"東區","LI":"和平里","LIN":"20鄰","STREET":"文化二街","SECT":" ","MAREA":" ","LANE":"２巷","ALLEY":" ","HOUSE_NO":"９號","E_COORD97":171129.39999999999,"N_COORD97":2542008.6400000001,"ADDRESS":"文化二街２巷９號","OBJECTID":322941},"geometry":{"x":171129.40000000037,"y":2542008.6400000006}},{"attributes":{"ID":322951,"DIS_CODE":0,"TOWNNAME":"安南區","LI":"長安里","LIN":"20鄰","STREET":"長溪路","SECT":"三段","MAREA":" ","LANE":"３８０巷","ALLEY":" ","HOUSE_NO":"１號","E_COORD97":167697.17999999999,"N_COORD97":2552041.1099999999,"ADDRESS":"長溪路三段３８０巷１號","OBJECTID":322942},"geometry":{"x":167697.18000000063,"y":2552041.1100000031}},{"attributes":{"ID":322952,"DIS_CODE":0,"TOWNNAME":"安南區","LI":"長安里","LIN":"20鄰","STREET":"長溪路","SECT":"三段","MAREA":" ","LANE":"３８０巷","ALLEY":" ","HOUSE_NO":"５號","E_COORD97":167706.34,"N_COORD97":2552057.2000000002,"ADDRESS":"長溪路三段３８０巷５號","OBJECTID":322943},"geometry":{"x":167706.34000000078,"y":2552057.200000003}},{"attributes":{"ID":322953,"DIS_CODE":0,"TOWNNAME":"東區","LI":"忠孝里","LIN":"20鄰","STREET":"榮譽街","SECT":" ","MAREA":" ","LANE":"１２７巷","ALLEY":" ","HOUSE_NO":"５號","E_COORD97":169899.53,"N_COORD97":2542003.1000000001,"ADDRESS":"榮譽街１２７巷５號","OBJECTID":322944},"geometry":{"x":169899.53000000026,"y":2542003.1000000015}},{"attributes":{"ID":322954,"DIS_CODE":0,"TOWNNAME":"東區","LI":"忠孝里","LIN":"20鄰","STREET":"榮譽街","SECT":" ","MAREA":" ","LANE":"１２７巷","ALLEY":" ","HOUSE_NO":"９號","E_COORD97":169907.29000000001,"N_COORD97":2542035.23,"ADDRESS":"榮譽街１２７巷９號","OBJECTID":322945},"geometry":{"x":169907.29000000097,"y":2542035.2300000004}},{"attributes":{"ID":322955,"DIS_CODE":0,"TOWNNAME":"東區","LI":"大福里","LIN":"20鄰","STREET":"立德一路","SECT":" ","MAREA":" ","LANE":"４巷","ALLEY":" ","HOUSE_NO":"１號","E_COORD97":169477.10999999999,"N_COORD97":2541865.21,"ADDRESS":"立德一路４巷１號","OBJECTID":322946},"geometry":{"x":169477.11000000034,"y":2541865.2100000028}},{"attributes":{"ID":322956,"DIS_CODE":0,"TOWNNAME":"東區","LI":"大福里","LIN":"20鄰","STREET":"立德一路","SECT":" ","MAREA":" ","LANE":"４巷","ALLEY":" ","HOUSE_NO":"２號之１","E_COORD97":169480.17000000001,"N_COORD97":2541846.54,"ADDRESS":"立德一路４巷２號之１","OBJECTID":322947},"geometry":{"x":169480.17000000179,"y":2541846.5400000028}},{"attributes":{"ID":322957,"DIS_CODE":0,"TOWNNAME":"東區","LI":"大福里","LIN":"20鄰","STREET":"立德一路","SECT":" ","MAREA":" ","LANE":"４巷","ALLEY":" ","HOUSE_NO":"３號","E_COORD97":169471.39000000001,"N_COORD97":2541864.8300000001,"ADDRESS":"立德一路４巷３號","OBJECTID":322948},"geometry":{"x":169471.38999999873,"y":2541864.8300000001}},{"attributes":{"ID":322958,"DIS_CODE":0,"TOWNNAME":"東區","LI":"大福里","LIN":"20鄰","STREET":"立德一路","SECT":" ","MAREA":" ","LANE":"４巷","ALLEY":" ","HOUSE_NO":"４號之１","E_COORD97":169475.20999999999,"N_COORD97":2541847.3100000001,"ADDRESS":"立德一路４巷４號之１","OBJECTID":322949},"geometry":{"x":169475.21000000089,"y":2541847.3100000024}},{"attributes":{"ID":322959,"DIS_CODE":0,"TOWNNAME":"東區","LI":"大福里","LIN":"20鄰","STREET":"立德一路","SECT":" ","MAREA":" ","LANE":"４巷","ALLEY":" ","HOUSE_NO":"５號","E_COORD97":169466.81,"N_COORD97":2541864.4500000002,"ADDRESS":"立德一路４巷５號","OBJECTID":322950},"geometry":{"x":169466.80999999866,"y":2541864.4500000011}},{"attributes":{"ID":322960,"DIS_CODE":0,"TOWNNAME":"東區","LI":"大福里","LIN":"20鄰","STREET":"立德一路","SECT":" ","MAREA":" ","LANE":"４巷","ALLEY":" ","HOUSE_NO":"６號","E_COORD97":169470.63,"N_COORD97":2541845.02,"ADDRESS":"立德一路４巷６號","OBJECTID":322951},"geometry":{"x":169470.63000000082,"y":2541845.0200000014}},{"attributes":{"ID":322961,"DIS_CODE":0,"TOWNNAME":"東區","LI":"大福里","LIN":"20鄰","STREET":"立德一路","SECT":" ","MAREA":" ","LANE":"４巷","ALLEY":" ","HOUSE_NO":"６號之１","E_COORD97":169466.42999999999,"N_COORD97":2541894.1699999999,"ADDRESS":"立德一路４巷６號之１","OBJECTID":322952},"geometry":{"x":169466.43000000063,"y":2541894.1700000018}},{"attributes":{"ID":322962,"DIS_CODE":0,"TOWNNAME":"東區","LI":"大福里","LIN":"20鄰","STREET":"立德一路","SECT":" ","MAREA":" ","LANE":"４巷","ALLEY":" ","HOUSE_NO":"７號","E_COORD97":169460.32999999999,"N_COORD97":2541864.0699999998,"ADDRESS":"立德一路４巷７號","OBJECTID":322953},"geometry":{"x":169460.33000000007,"y":2541864.0700000003}},{"attributes":{"ID":322963,"DIS_CODE":0,"TOWNNAME":"東區","LI":"大福里","LIN":"20鄰","STREET":"立德一路","SECT":" ","MAREA":" ","LANE":"４巷","ALLEY":" ","HOUSE_NO":"８號","E_COORD97":169464.91,"N_COORD97":2541844.2599999998,"ADDRESS":"立德一路４巷８號","OBJECTID":322954},"geometry":{"x":169464.91000000015,"y":2541844.2599999998}},{"attributes":{"ID":322964,"DIS_CODE":0,"TOWNNAME":"東區","LI":"大福里","LIN":"20鄰","STREET":"立德一路","SECT":" ","MAREA":" ","LANE":"５巷","ALLEY":" ","HOUSE_NO":"１號","E_COORD97":169471.39000000001,"N_COORD97":2541894.5499999998,"ADDRESS":"立德一路５巷１號","OBJECTID":322955},"geometry":{"x":169471.38999999873,"y":2541894.5500000007}},{"attributes":{"ID":322965,"DIS_CODE":0,"TOWNNAME":"東區","LI":"大福里","LIN":"20鄰","STREET":"立德一路","SECT":" ","MAREA":" ","LANE":"５巷","ALLEY":" ","HOUSE_NO":"２號","E_COORD97":169474.82999999999,"N_COORD97":2541877.3999999999,"ADDRESS":"立德一路５巷２號","OBJECTID":322956},"geometry":{"x":169474.83000000101,"y":2541877.4000000022}},{"attributes":{"ID":322966,"DIS_CODE":0,"TOWNNAME":"東區","LI":"大福里","LIN":"20鄰","STREET":"立德一路","SECT":" ","MAREA":" ","LANE":"５巷","ALLEY":" ","HOUSE_NO":"３號之１","E_COORD97":169459.17999999999,"N_COORD97":2541873.5899999999,"ADDRESS":"立德一路５巷３號之１","OBJECTID":322957},"geometry":{"x":169459.1799999997,"y":2541873.5899999999}},{"attributes":{"ID":322967,"DIS_CODE":0,"TOWNNAME":"南區","LI":"光明里","LIN":" ","STREET":"鹽埕路","SECT":" ","MAREA":" ","LANE":"２９１巷","ALLEY":" ","HOUSE_NO":"６３號","E_COORD97":166723.51000000001,"N_COORD97":2541316.3500000001,"ADDRESS":"鹽埕路２９１巷６３號","OBJECTID":322958},"geometry":{"x":166723.51000000071,"y":2541316.3500000015}},{"attributes":{"ID":322968,"DIS_CODE":0,"TOWNNAME":"南區","LI":"光明里","LIN":" ","STREET":"鹽埕路","SECT":" ","MAREA":" ","LANE":"２９１巷","ALLEY":" ","HOUSE_NO":"７３號","E_COORD97":166745.14999999999,"N_COORD97":2541318.8599999999,"ADDRESS":"鹽埕路２９１巷７３號","OBJECTID":322959},"geometry":{"x":166745.1500000013,"y":2541318.8599999975}},{"attributes":{"ID":322969,"DIS_CODE":0,"TOWNNAME":"南區","LI":"光明里","LIN":" ","STREET":"鹽埕路","SECT":" ","MAREA":" ","LANE":"２９１巷","ALLEY":" ","HOUSE_NO":"１１５號","E_COORD97":166708.51000000001,"N_COORD97":2541194.6099999999,"ADDRESS":"鹽埕路２９１巷１１５號","OBJECTID":322960},"geometry":{"x":166708.51000000071,"y":2541194.6099999994}},{"attributes":{"ID":322970,"DIS_CODE":0,"TOWNNAME":"南區","LI":"光明里","LIN":" ","STREET":"鹽埕路","SECT":" ","MAREA":" ","LANE":"２９１巷","ALLEY":" ","HOUSE_NO":"１０９號","E_COORD97":166710.04000000001,"N_COORD97":2541220.8500000001,"ADDRESS":"鹽埕路２９１巷１０９號","OBJECTID":322961},"geometry":{"x":166710.04000000097,"y":2541220.8499999978}},{"attributes":{"ID":322971,"DIS_CODE":0,"TOWNNAME":"南區","LI":"光明里","LIN":" ","STREET":"鹽埕路","SECT":" ","MAREA":" ","LANE":"２９１巷","ALLEY":" ","HOUSE_NO":"９３號","E_COORD97":166723.13,"N_COORD97":2541249.5499999998,"ADDRESS":"鹽埕路２９１巷９３號","OBJECTID":322962},"geometry":{"x":166723.12999999989,"y":2541249.5500000026}},{"attributes":{"ID":322972,"DIS_CODE":0,"TOWNNAME":"南區","LI":"光明里","LIN":" ","STREET":"鹽埕路","SECT":" ","MAREA":" ","LANE":"２９１巷","ALLEY":" ","HOUSE_NO":"９１號","E_COORD97":166710.82000000001,"N_COORD97":2541252.6200000001,"ADDRESS":"鹽埕路２９１巷９１號","OBJECTID":322963},"geometry":{"x":166710.8200000003,"y":2541252.6200000029}},{"attributes":{"ID":322973,"DIS_CODE":0,"TOWNNAME":"南區","LI":"光明里","LIN":" ","STREET":"鹽埕路","SECT":" ","MAREA":" ","LANE":"２９１巷","ALLEY":" ","HOUSE_NO":"７７號","E_COORD97":166723.26000000001,"N_COORD97":2541305.4199999999,"ADDRESS":"鹽埕路２９１巷７７號","OBJECTID":322964},"geometry":{"x":166723.26000000071,"y":2541305.4199999981}},{"attributes":{"ID":322974,"DIS_CODE":0,"TOWNNAME":"南區","LI":"光明里","LIN":" ","STREET":"鹽埕路","SECT":" ","MAREA":" ","LANE":"２９１巷","ALLEY":" ","HOUSE_NO":"６１號","E_COORD97":166733.51000000001,"N_COORD97":2541333.3500000001,"ADDRESS":"鹽埕路２９１巷６１號","OBJECTID":322965},"geometry":{"x":166733.51000000071,"y":2541333.3500000015}},{"attributes":{"ID":322975,"DIS_CODE":0,"TOWNNAME":"南區","LI":"光明里","LIN":" ","STREET":"鹽埕路","SECT":" ","MAREA":" ","LANE":"２９１巷","ALLEY":" ","HOUSE_NO":"５５號","E_COORD97":166725.72,"N_COORD97":2541341.71,"ADDRESS":"鹽埕路２９１巷５５號","OBJECTID":322966},"geometry":{"x":166725.71999999974,"y":2541341.709999999}},{"attributes":{"ID":322976,"DIS_CODE":0,"TOWNNAME":"南區","LI":"光明里","LIN":" ","STREET":"鹽埕路","SECT":" ","MAREA":" ","LANE":"２９１巷","ALLEY":" ","HOUSE_NO":"５７號","E_COORD97":166726.78,"N_COORD97":2541332.3900000001,"ADDRESS":"鹽埕路２９１巷５７號","OBJECTID":322967},"geometry":{"x":166726.78000000212,"y":2541332.3900000006}},{"attributes":{"ID":322977,"DIS_CODE":0,"TOWNNAME":"南區","LI":"光明里","LIN":" ","STREET":"鹽埕路","SECT":" ","MAREA":" ","LANE":"２９１巷","ALLEY":" ","HOUSE_NO":"５１號","E_COORD97":166727.73999999999,"N_COORD97":2541352.6600000001,"ADDRESS":"鹽埕路２９１巷５１號","OBJECTID":322968},"geometry":{"x":166727.74000000115,"y":2541352.660000002}},{"attributes":{"ID":322978,"DIS_CODE":0,"TOWNNAME":"新市區","LI":"港墘里","LIN":"15鄰","STREET":"光華街","SECT":" ","MAREA":" ","LANE":" ","ALLEY":" ","HOUSE_NO":"１９號","E_COORD97":177977.33545099999,"N_COORD97":2552617.51994,"ADDRESS":"光華街１９號","OBJECTID":322969},"geometry":{"x":177977.3354510013,"y":2552617.5199420042}},{"attributes":{"ID":322979,"DIS_CODE":0,"TOWNNAME":"南區","LI":"光明里","LIN":" ","STREET":"鹽埕路","SECT":" ","MAREA":" ","LANE":"２９１巷","ALLEY":" ","HOUSE_NO":"５３號","E_COORD97":166728.70999999999,"N_COORD97":2541349.0099999998,"ADDRESS":"鹽埕路２９１巷５３號","OBJECTID":322970},"geometry":{"x":166728.71000000089,"y":2541349.0100000035}},{"attributes":{"ID":322980,"DIS_CODE":0,"TOWNNAME":"南區","LI":"光明里","LIN":" ","STREET":"鹽埕路","SECT":" ","MAREA":" ","LANE":"２９１巷","ALLEY":" ","HOUSE_NO":"４５號","E_COORD97":166749.19,"N_COORD97":2541336.4300000002,"ADDRESS":"鹽埕路２９１巷４５號","OBJECTID":322971},"geometry":{"x":166749.19000000041,"y":2541336.4300000016}},{"attributes":{"ID":322981,"DIS_CODE":0,"TOWNNAME":"南區","LI":"光明里","LIN":" ","STREET":"鹽埕路","SECT":" ","MAREA":" ","LANE":"２９１巷","ALLEY":" ","HOUSE_NO":"４７號","E_COORD97":166744.76999999999,"N_COORD97":2541339.5,"ADDRESS":"鹽埕路２９１巷４７號","OBJECTID":322972},"geometry":{"x":166744.77000000142,"y":2541339.5000000019}},{"attributes":{"ID":322982,"DIS_CODE":0,"TOWNNAME":"東區","LI":"大福里","LIN":"20鄰","STREET":"立德一路","SECT":" ","MAREA":" ","LANE":"５巷","ALLEY":" ","HOUSE_NO":"４號","E_COORD97":169469.10000000001,"N_COORD97":2541876.6400000001,"ADDRESS":"立德一路５巷４號","OBJECTID":322973},"geometry":{"x":169469.10000000056,"y":2541876.6400000006}},{"attributes":{"ID":322983,"DIS_CODE":0,"TOWNNAME":"東區","LI":"大福里","LIN":"20鄰","STREET":"立德一路","SECT":" ","MAREA":" ","LANE":"５巷","ALLEY":" ","HOUSE_NO":"５號","E_COORD97":169461.09,"N_COORD97":2541893.79,"ADDRESS":"立德一路５巷５號","OBJECTID":322974},"geometry":{"x":169461.08999999985,"y":2541893.790000001}},{"attributes":{"ID":322984,"DIS_CODE":0,"TOWNNAME":"東區","LI":"大福里","LIN":"20鄰","STREET":"立德一路","SECT":" ","MAREA":" ","LANE":"５巷","ALLEY":" ","HOUSE_NO":"６號","E_COORD97":169464.14000000001,"N_COORD97":2541875.5,"ADDRESS":"立德一路５巷６號","OBJECTID":322975},"geometry":{"x":169464.13999999966,"y":2541875.5000000019}},{"attributes":{"ID":322985,"DIS_CODE":0,"TOWNNAME":"東區","LI":"大福里","LIN":"20鄰","STREET":"立德一路","SECT":" ","MAREA":" ","LANE":"５巷","ALLEY":" ","HOUSE_NO":"７號","E_COORD97":169454.98999999999,"N_COORD97":2541893.02,"ADDRESS":"立德一路５巷７號","OBJECTID":322976},"geometry":{"x":169454.99000000115,"y":2541893.0199999996}},{"attributes":{"ID":322986,"DIS_CODE":0,"TOWNNAME":"安南區","LI":"佃東里","LIN":"20鄰","STREET":"公學路","SECT":"四段","MAREA":" ","LANE":"５４巷","ALLEY":" ","HOUSE_NO":"１１號","E_COORD97":165792.23000000001,"N_COORD97":2552099.8900000001,"ADDRESS":"公學路四段５４巷１１號","OBJECTID":322977},"geometry":{"x":165792.23000000138,"y":2552099.8900000006}},{"attributes":{"ID":322987,"DIS_CODE":0,"TOWNNAME":"安南區","LI":"佃東里","LIN":"20鄰","STREET":"公學路","SECT":"四段","MAREA":" ","LANE":"５４巷","ALLEY":" ","HOUSE_NO":"１３號","E_COORD97":165793.85999999999,"N_COORD97":2552102.9500000002,"ADDRESS":"公學路四段５４巷１３號","OBJECTID":322978},"geometry":{"x":165793.8600000022,"y":2552102.950000003}},{"attributes":{"ID":322988,"DIS_CODE":0,"TOWNNAME":"佳里區","LI":"建南里","LIN":"17鄰","STREET":"建南街","SECT":" ","MAREA":" ","LANE":" ","ALLEY":" ","HOUSE_NO":"１０５號","E_COORD97":165648.95999999999,"N_COORD97":2562009.04,"ADDRESS":"建南街１０５號","OBJECTID":322979},"geometry":{"x":165648.96000000089,"y":2562009.0400000028}},{"attributes":{"ID":322989,"DIS_CODE":0,"TOWNNAME":"佳里區","LI":"建南里","LIN":"17鄰","STREET":"建南街","SECT":" ","MAREA":" ","LANE":" ","ALLEY":" ","HOUSE_NO":"１０９號","E_COORD97":165652.42999999999,"N_COORD97":2562017.2599999998,"ADDRESS":"建南街１０９號","OBJECTID":322980},"geometry":{"x":165652.43000000063,"y":2562017.2599999998}},{"attributes":{"ID":322990,"DIS_CODE":0,"TOWNNAME":"佳里區","LI":"建南里","LIN":"17鄰","STREET":"建南街","SECT":" ","MAREA":" ","LANE":" ","ALLEY":" ","HOUSE_NO":"１１１號","E_COORD97":165653.63,"N_COORD97":2562021.4500000002,"ADDRESS":"建南街１１１號","OBJECTID":322981},"geometry":{"x":165653.62999999989,"y":2562021.4500000011}},{"attributes":{"ID":322991,"DIS_CODE":0,"TOWNNAME":"佳里區","LI":"建南里","LIN":"17鄰","STREET":"建南街","SECT":" ","MAREA":" ","LANE":" ","ALLEY":" ","HOUSE_NO":"１１２號","E_COORD97":165685.54000000001,"N_COORD97":2562022.2400000002,"ADDRESS":"建南街１１２號","OBJECTID":322982},"geometry":{"x":165685.5400000019,"y":2562022.2400000039}},{"attributes":{"ID":322992,"DIS_CODE":0,"TOWNNAME":"佳里區","LI":"建南里","LIN":"17鄰","STREET":"建南街","SECT":" ","MAREA":" ","LANE":" ","ALLEY":" ","HOUSE_NO":"１１３號","E_COORD97":165654.66,"N_COORD97":2562026.1400000001,"ADDRESS":"建南街１１３號","OBJECTID":322983},"geometry":{"x":165654.66000000108,"y":2562026.1400000006}},{"attributes":{"ID":322993,"DIS_CODE":0,"TOWNNAME":"佳里區","LI":"建南里","LIN":"17鄰","STREET":"建南街","SECT":" ","MAREA":" ","LANE":" ","ALLEY":" ","HOUSE_NO":"１１５號之１","E_COORD97":165654.92000000001,"N_COORD97":2562034.5299999998,"ADDRESS":"建南街１１５號之１","OBJECTID":322984},"geometry":{"x":165654.91999999993,"y":2562034.5300000012}},{"attributes":{"ID":322994,"DIS_CODE":0,"TOWNNAME":"佳里區","LI":"建南里","LIN":"17鄰","STREET":"建南街","SECT":" ","MAREA":" ","LANE":" ","ALLEY":" ","HOUSE_NO":"１１５號","E_COORD97":165656.17000000001,"N_COORD97":2562029.3700000001,"ADDRESS":"建南街１１５號","OBJECTID":322985},"geometry":{"x":165656.17000000086,"y":2562029.3700000048}},{"attributes":{"ID":322995,"DIS_CODE":0,"TOWNNAME":"佳里區","LI":"建南里","LIN":"17鄰","STREET":"建南街","SECT":" ","MAREA":" ","LANE":" ","ALLEY":" ","HOUSE_NO":"１１７號","E_COORD97":165659.29999999999,"N_COORD97":2562040.96,"ADDRESS":"建南街１１７號","OBJECTID":322986},"geometry":{"x":165659.29999999981,"y":2562040.9600000009}},{"attributes":{"ID":322996,"DIS_CODE":0,"TOWNNAME":"佳里區","LI":"建南里","LIN":"17鄰","STREET":"建南街","SECT":" ","MAREA":" ","LANE":" ","ALLEY":" ","HOUSE_NO":"１２３號","E_COORD97":165662.07000000001,"N_COORD97":2562053.02,"ADDRESS":"建南街１２３號","OBJECTID":322987},"geometry":{"x":165662.07000000123,"y":2562053.0199999996}},{"attributes":{"ID":322997,"DIS_CODE":0,"TOWNNAME":"佳里區","LI":"建南里","LIN":"17鄰","STREET":"建南街","SECT":" ","MAREA":" ","LANE":" ","ALLEY":" ","HOUSE_NO":"１６號","E_COORD97":165595.26000000001,"N_COORD97":2561779.0499999998,"ADDRESS":"建南街１６號","OBJECTID":322988},"geometry":{"x":165595.25999999978,"y":2561779.0500000007}},{"attributes":{"ID":322998,"DIS_CODE":0,"TOWNNAME":"佳里區","LI":"建南里","LIN":"17鄰","STREET":"建南街","SECT":" ","MAREA":" ","LANE":" ","ALLEY":" ","HOUSE_NO":"１８號","E_COORD97":165596.95999999999,"N_COORD97":2561783.3199999998,"ADDRESS":"建南街１８號","OBJECTID":322989},"geometry":{"x":165596.96000000089,"y":2561783.3200000003}},{"attributes":{"ID":322999,"DIS_CODE":0,"TOWNNAME":"佳里區","LI":"建南里","LIN":"17鄰","STREET":"建南街","SECT":" ","MAREA":" ","LANE":" ","ALLEY":" ","HOUSE_NO":"１９號","E_COORD97":165578.95999999999,"N_COORD97":2561798.9399999999,"ADDRESS":"建南街１９號","OBJECTID":322990},"geometry":{"x":165578.95999999996,"y":2561798.9399999995}},{"attributes":{"ID":323000,"DIS_CODE":0,"TOWNNAME":"佳里區","LI":"建南里","LIN":"17鄰","STREET":"建南街","SECT":" ","MAREA":" ","LANE":" ","ALLEY":" ","HOUSE_NO":"２０號","E_COORD97":165598.32000000001,"N_COORD97":2561787.7799999998,"ADDRESS":"建南街２０號","OBJECTID":322991},"geometry":{"x":165598.3200000003,"y":2561787.7800000012}},{"attributes":{"ID":323001,"DIS_CODE":0,"TOWNNAME":"佳里區","LI":"建南里","LIN":"17鄰","STREET":"建南街","SECT":" ","MAREA":" ","LANE":" ","ALLEY":" ","HOUSE_NO":"２２號","E_COORD97":165598.82000000001,"N_COORD97":2561791.8199999998,"ADDRESS":"建南街２２號","OBJECTID":322992},"geometry":{"x":165598.8200000003,"y":2561791.8200000022}},{"attributes":{"ID":323002,"DIS_CODE":0,"TOWNNAME":"佳里區","LI":"建南里","LIN":"17鄰","STREET":"建南街","SECT":" ","MAREA":" ","LANE":" ","ALLEY":" ","HOUSE_NO":"２３號","E_COORD97":165581.32999999999,"N_COORD97":2561808.4700000002,"ADDRESS":"建南街２３號","OBJECTID":322993},"geometry":{"x":165581.33000000007,"y":2561808.4700000025}},{"attributes":{"ID":323003,"DIS_CODE":0,"TOWNNAME":"南區","LI":"光明里","LIN":" ","STREET":"鹽埕路","SECT":" ","MAREA":" ","LANE":"２９１巷","ALLEY":" ","HOUSE_NO":"４９號","E_COORD97":166742.45999999999,"N_COORD97":2541345.3599999999,"ADDRESS":"鹽埕路２９１巷４９號","OBJECTID":322994},"geometry":{"x":166742.46000000089,"y":2541345.3599999994}},{"attributes":{"ID":323004,"DIS_CODE":0,"TOWNNAME":"南區","LI":"光明里","LIN":" ","STREET":"鹽埕路","SECT":" ","MAREA":" ","LANE":"２９１巷","ALLEY":" ","HOUSE_NO":"９９號","E_COORD97":166723.32000000001,"N_COORD97":2541236.71,"ADDRESS":"鹽埕路２９１巷９９號","OBJECTID":322995},"geometry":{"x":166723.32000000123,"y":2541236.709999999}},{"attributes":{"ID":323005,"DIS_CODE":0,"TOWNNAME":"南區","LI":"光明里","LIN":" ","STREET":"鹽埕路","SECT":" ","MAREA":" ","LANE":"２９１巷","ALLEY":" ","HOUSE_NO":"１０５號","E_COORD97":166739.22,"N_COORD97":2541216.4900000002,"ADDRESS":"鹽埕路２９１巷１０５號","OBJECTID":322996},"geometry":{"x":166739.22000000067,"y":2541216.4900000002}},{"attributes":{"ID":323006,"DIS_CODE":0,"TOWNNAME":"南區","LI":"光明里","LIN":" ","STREET":"鹽埕路","SECT":" ","MAREA":" ","LANE":"２９１巷","ALLEY":" ","HOUSE_NO":"８９號","E_COORD97":166712.35999999999,"N_COORD97":2541259.3500000001,"ADDRESS":"鹽埕路２９１巷８９號","OBJECTID":322997},"geometry":{"x":166712.36000000034,"y":2541259.3500000015}},{"attributes":{"ID":323007,"DIS_CODE":0,"TOWNNAME":"南區","LI":"光明里","LIN":" ","STREET":"鹽埕路","SECT":" ","MAREA":" ","LANE":"２９１巷","ALLEY":" ","HOUSE_NO":"５２號","E_COORD97":166706.23000000001,"N_COORD97":2541312.9399999999,"ADDRESS":"鹽埕路２９１巷５２號","OBJECTID":322998},"geometry":{"x":166706.23000000045,"y":2541312.9400000013}},{"attributes":{"ID":323008,"DIS_CODE":0,"TOWNNAME":"南區","LI":"光明里","LIN":" ","STREET":"鹽埕路","SECT":" ","MAREA":" ","LANE":"２９１巷","ALLEY":" ","HOUSE_NO":"５４號","E_COORD97":166705.98000000001,"N_COORD97":2541308.4199999999,"ADDRESS":"鹽埕路２９１巷５４號","OBJECTID":322999},"geometry":{"x":166705.98000000138,"y":2541308.4199999999}},{"attributes":{"ID":323009,"DIS_CODE":0,"TOWNNAME":"南區","LI":"光明里","LIN":" ","STREET":"鹽埕路","SECT":" ","MAREA":" ","LANE":"２９１巷","ALLEY":" ","HOUSE_NO":"５６號","E_COORD97":166704.72,"N_COORD97":2541304.3999999999,"ADDRESS":"鹽埕路２９１巷５６號","OBJECTID":323000},"geometry":{"x":166704.72000000067,"y":2541304.4000000022}}]}