{"displayFieldName":"TOWNNAME","fieldAliases":{"ID":"ID","DIS_CODE":"DIS_CODE","TOWNNAME":"TOWNNAME","LI":"LI","LIN":"LIN","STREET":"STREET","SECT":"SECT","MAREA":"MAREA","LANE":"LANE","ALLEY":"ALLEY","HOUSE_NO":"HOUSE_NO","E_COORD97":"E_COORD97","N_COORD97":"N_COORD97","ADDRESS":"ADDRESS","OBJECTID":"OBJECTID"},"geometryType":"esriGeometryPoint","spatialReference":{"wkid":102443,"latestWkid":3826},"fields":[{"name":"ID","type":"esriFieldTypeDouble","alias":"ID"},{"name":"DIS_CODE","type":"esriFieldTypeInteger","alias":"DIS_CODE"},{"name":"TOWNNAME","type":"esriFieldTypeString","alias":"TOWNNAME","length":8},{"name":"LI","type":"esriFieldTypeString","alias":"LI","length":8},{"name":"LIN","type":"esriFieldTypeString","alias":"LIN","length":12},{"name":"STREET","type":"esriFieldTypeString","alias":"STREET","length":20},{"name":"SECT","type":"esriFieldTypeString","alias":"SECT","length":8},{"name":"MAREA","type":"esriFieldTypeString","alias":"MAREA","length":12},{"name":"LANE","type":"esriFieldTypeString","alias":"LANE","length":10},{"name":"ALLEY","type":"esriFieldTypeString","alias":"ALLEY","length":10},{"name":"HOUSE_NO","type":"esriFieldTypeString","alias":"HOUSE_NO","length":20},{"name":"E_COORD97","type":"esriFieldTypeDouble","alias":"E_COORD97"},{"name":"N_COORD97","type":"esriFieldTypeDouble","alias":"N_COORD97"},{"name":"ADDRESS","type":"esriFieldTypeString","alias":"ADDRESS","length":50},{"name":"OBJECTID","type":"esriFieldTypeOID","alias":"OBJECTID"}],"features":[{"attributes":{"ID":415825,"DIS_CODE":0,"TOWNNAME":"安平區","LI":"華平里","LIN":"3鄰","STREET":"怡平路","SECT":" ","MAREA":" ","LANE":"４６８巷","ALLEY":" ","HOUSE_NO":"６２號","E_COORD97":165259.26000000001,"N_COORD97":2544004.8399999999,"ADDRESS":"怡平路４６８巷６２號","OBJECTID":415801},"geometry":{"x":165259.25999999978,"y":2544004.8400000036}},{"attributes":{"ID":415826,"DIS_CODE":0,"TOWNNAME":"安平區","LI":"華平里","LIN":"3鄰","STREET":"怡平路","SECT":" ","MAREA":" ","LANE":"４６８巷","ALLEY":" ","HOUSE_NO":"６０號","E_COORD97":165258.97,"N_COORD97":2543999.5699999998,"ADDRESS":"怡平路４６８巷６０號","OBJECTID":415802},"geometry":{"x":165258.97000000067,"y":2543999.5700000003}},{"attributes":{"ID":415827,"DIS_CODE":0,"TOWNNAME":"安平區","LI":"華平里","LIN":"3鄰","STREET":"怡平路","SECT":" ","MAREA":" ","LANE":"４６８巷","ALLEY":" ","HOUSE_NO":"８７號","E_COORD97":165248.39999999999,"N_COORD97":2544033.6800000002,"ADDRESS":"怡平路４６８巷８７號","OBJECTID":415803},"geometry":{"x":165248.4000000013,"y":2544033.6800000016}},{"attributes":{"ID":415828,"DIS_CODE":0,"TOWNNAME":"安平區","LI":"華平里","LIN":"3鄰","STREET":"怡平路","SECT":" ","MAREA":" ","LANE":"４６８巷","ALLEY":" ","HOUSE_NO":"８９號","E_COORD97":165248.72,"N_COORD97":2544038.7599999998,"ADDRESS":"怡平路４６８巷８９號","OBJECTID":415804},"geometry":{"x":165248.72000000067,"y":2544038.7599999998}},{"attributes":{"ID":415829,"DIS_CODE":0,"TOWNNAME":"安平區","LI":"漁光里","LIN":"3鄰","STREET":"漁光路","SECT":" ","MAREA":" ","LANE":"８９巷","ALLEY":" ","HOUSE_NO":"１９號之３","E_COORD97":163891.14999999999,"N_COORD97":2541835.3700000001,"ADDRESS":"漁光路８９巷１９號之３","OBJECTID":415805},"geometry":{"x":163891.15000000037,"y":2541835.370000001}},{"attributes":{"ID":415830,"DIS_CODE":0,"TOWNNAME":"永康區","LI":"北灣里","LIN":"39鄰","STREET":"大同街","SECT":" ","MAREA":" ","LANE":"６２３巷","ALLEY":" ","HOUSE_NO":"１０號","E_COORD97":174559.28,"N_COORD97":2546436,"ADDRESS":"大同街６２３巷１０號","OBJECTID":415806},"geometry":{"x":174559.28000000119,"y":2546436.0000000019}},{"attributes":{"ID":415831,"DIS_CODE":0,"TOWNNAME":"永康區","LI":"網寮里","LIN":"13鄰","STREET":"永和街","SECT":" ","MAREA":" ","LANE":"２４９巷","ALLEY":" ","HOUSE_NO":"２號","E_COORD97":173310.51999999999,"N_COORD97":2546589.4300000002,"ADDRESS":"永和街２４９巷２號","OBJECTID":415807},"geometry":{"x":173310.52000000048,"y":2546589.4299999997}},{"attributes":{"ID":415832,"DIS_CODE":0,"TOWNNAME":"永康區","LI":"二王里","LIN":"13鄰","STREET":"永二街","SECT":" ","MAREA":" ","LANE":"４５９巷","ALLEY":" ","HOUSE_NO":"７號","E_COORD97":172638.42000000001,"N_COORD97":2546653.79,"ADDRESS":"永二街４５９巷７號","OBJECTID":415808},"geometry":{"x":172638.42000000086,"y":2546653.790000001}},{"attributes":{"ID":415833,"DIS_CODE":0,"TOWNNAME":"永康區","LI":"西灣里","LIN":"34鄰","STREET":"永華路","SECT":" ","MAREA":" ","LANE":"３６２巷","ALLEY":" ","HOUSE_NO":"１６號","E_COORD97":174120.62,"N_COORD97":2545786.9900000002,"ADDRESS":"永華路３６２巷１６號","OBJECTID":415809},"geometry":{"x":174120.62000000104,"y":2545786.9900000002}},{"attributes":{"ID":415834,"DIS_CODE":0,"TOWNNAME":"永康區","LI":"勝利里","LIN":"34鄰","STREET":"勝利街","SECT":" ","MAREA":" ","LANE":"１巷","ALLEY":" ","HOUSE_NO":"１２號","E_COORD97":171084.84,"N_COORD97":2544589.2599999998,"ADDRESS":"勝利街１巷１２號","OBJECTID":415810},"geometry":{"x":171084.84000000078,"y":2544589.2600000016}},{"attributes":{"ID":415835,"DIS_CODE":0,"TOWNNAME":"永康區","LI":"大橋里","LIN":"15鄰","STREET":"大橋一街","SECT":" ","MAREA":" ","LANE":"７３巷","ALLEY":" ","HOUSE_NO":"３６號","E_COORD97":170876.76999999999,"N_COORD97":2546507.2400000002,"ADDRESS":"大橋一街７３巷３６號","OBJECTID":415811},"geometry":{"x":170876.76999999955,"y":2546507.2400000002}},{"attributes":{"ID":415836,"DIS_CODE":0,"TOWNNAME":"永康區","LI":"永康里","LIN":"37鄰","STREET":"西勢路","SECT":" ","MAREA":" ","LANE":"７３８巷","ALLEY":" ","HOUSE_NO":"２３號","E_COORD97":174528.53,"N_COORD97":2546816.9199999999,"ADDRESS":"西勢路７３８巷２３號","OBJECTID":415812},"geometry":{"x":174528.53000000119,"y":2546816.9199999999}},{"attributes":{"ID":415837,"DIS_CODE":0,"TOWNNAME":"東區","LI":"大同里","LIN":"28鄰","STREET":"大同路","SECT":"一段","MAREA":" ","LANE":"２７５巷","ALLEY":" ","HOUSE_NO":"２８號","E_COORD97":169245.62,"N_COORD97":2542551.71,"ADDRESS":"大同路一段２７５巷２８號","OBJECTID":415813},"geometry":{"x":169245.62000000104,"y":2542551.7100000009}},{"attributes":{"ID":415838,"DIS_CODE":0,"TOWNNAME":"東區","LI":"大同里","LIN":"28鄰","STREET":"大同路","SECT":"一段","MAREA":" ","LANE":"２７５巷","ALLEY":" ","HOUSE_NO":"３０號","E_COORD97":169248.23000000001,"N_COORD97":2542551.9500000002,"ADDRESS":"大同路一段２７５巷３０號","OBJECTID":415814},"geometry":{"x":169248.23000000138,"y":2542551.9499999993}},{"attributes":{"ID":415839,"DIS_CODE":0,"TOWNNAME":"東區","LI":"大同里","LIN":"28鄰","STREET":"大同路","SECT":"一段","MAREA":" ","LANE":"２７５巷","ALLEY":" ","HOUSE_NO":"３２號","E_COORD97":169248,"N_COORD97":2542544.1200000001,"ADDRESS":"大同路一段２７５巷３２號","OBJECTID":415815},"geometry":{"x":169248.00000000093,"y":2542544.1200000029}},{"attributes":{"ID":415840,"DIS_CODE":0,"TOWNNAME":"東區","LI":"大同里","LIN":"28鄰","STREET":"大同路","SECT":"一段","MAREA":" ","LANE":"２７５巷","ALLEY":" ","HOUSE_NO":"３４號","E_COORD97":169259.87,"N_COORD97":2542540.0800000001,"ADDRESS":"大同路一段２７５巷３４號","OBJECTID":415816},"geometry":{"x":169259.87000000011,"y":2542540.0800000019}},{"attributes":{"ID":415841,"DIS_CODE":0,"TOWNNAME":"永康區","LI":"尚頂里","LIN":"11鄰","STREET":"正南一街","SECT":" ","MAREA":" ","LANE":"５７巷","ALLEY":" ","HOUSE_NO":"１９號","E_COORD97":171216.20999999999,"N_COORD97":2547267.7000000002,"ADDRESS":"正南一街５７巷１９號","OBJECTID":415817},"geometry":{"x":171216.21000000089,"y":2547267.7000000011}},{"attributes":{"ID":415842,"DIS_CODE":0,"TOWNNAME":"安平區","LI":"華平里","LIN":"3鄰","STREET":"國平路","SECT":" ","MAREA":" ","LANE":"５５２巷","ALLEY":" ","HOUSE_NO":"５８號","E_COORD97":165254.19,"N_COORD97":2544124.9399999999,"ADDRESS":"國平路５５２巷５８號","OBJECTID":415818},"geometry":{"x":165254.19000000041,"y":2544124.9399999995}},{"attributes":{"ID":415843,"DIS_CODE":0,"TOWNNAME":"新營區","LI":"忠政里","LIN":"3鄰","STREET":"中正路","SECT":" ","MAREA":" ","LANE":"３５巷","ALLEY":" ","HOUSE_NO":"９之１號","E_COORD97":180044.45000000001,"N_COORD97":2579097.4900000002,"ADDRESS":"中正路３５巷９之１號","OBJECTID":415819},"geometry":{"x":180044.44999999925,"y":2579097.4900000002}},{"attributes":{"ID":415844,"DIS_CODE":0,"TOWNNAME":"新營區","LI":"嘉芳里","LIN":"3鄰","STREET":"嘉芳街","SECT":" ","MAREA":" ","LANE":"１２９巷","ALLEY":" ","HOUSE_NO":"３號","E_COORD97":177027.98999999999,"N_COORD97":2578301.3300000001,"ADDRESS":"嘉芳街１２９巷３號","OBJECTID":415820},"geometry":{"x":177027.99000000022,"y":2578301.3300000001}},{"attributes":{"ID":415845,"DIS_CODE":0,"TOWNNAME":"東區","LI":"大同里","LIN":"28鄰","STREET":"大同路","SECT":"一段","MAREA":" ","LANE":"２７５巷","ALLEY":" ","HOUSE_NO":"６０號","E_COORD97":169315.07999999999,"N_COORD97":2542540.9300000002,"ADDRESS":"大同路一段２７５巷６０號","OBJECTID":415821},"geometry":{"x":169315.08000000101,"y":2542540.9300000016}},{"attributes":{"ID":415846,"DIS_CODE":0,"TOWNNAME":"東區","LI":"大同里","LIN":"28鄰","STREET":"大同路","SECT":"一段","MAREA":" ","LANE":"２７５巷","ALLEY":" ","HOUSE_NO":"６２號","E_COORD97":169318.48000000001,"N_COORD97":2542534.6899999999,"ADDRESS":"大同路一段２７５巷６２號","OBJECTID":415822},"geometry":{"x":169318.48000000045,"y":2542534.6900000013}},{"attributes":{"ID":415847,"DIS_CODE":0,"TOWNNAME":"東區","LI":"大同里","LIN":"28鄰","STREET":"大同路","SECT":"一段","MAREA":" ","LANE":"２７５巷","ALLEY":" ","HOUSE_NO":"６６號","E_COORD97":169329.89000000001,"N_COORD97":2542527.3599999999,"ADDRESS":"大同路一段２７５巷６６號","OBJECTID":415823},"geometry":{"x":169329.8900000006,"y":2542527.3600000013}},{"attributes":{"ID":415848,"DIS_CODE":0,"TOWNNAME":"東區","LI":"大同里","LIN":"28鄰","STREET":"大同路","SECT":"一段","MAREA":" ","LANE":"２７５巷","ALLEY":" ","HOUSE_NO":"６８號","E_COORD97":169326.76000000001,"N_COORD97":2542524.5099999998,"ADDRESS":"大同路一段２７５巷６８號","OBJECTID":415824},"geometry":{"x":169326.76000000164,"y":2542524.5099999998}},{"attributes":{"ID":415849,"DIS_CODE":0,"TOWNNAME":"東區","LI":"大同里","LIN":"28鄰","STREET":"大同路","SECT":"一段","MAREA":" ","LANE":"２７５巷","ALLEY":" ","HOUSE_NO":"６號","E_COORD97":169186.35999999999,"N_COORD97":2542552.6499999999,"ADDRESS":"大同路一段２７５巷６號","OBJECTID":415825},"geometry":{"x":169186.36000000127,"y":2542552.6500000022}},{"attributes":{"ID":415850,"DIS_CODE":0,"TOWNNAME":"東區","LI":"大同里","LIN":"28鄰","STREET":"大同路","SECT":"一段","MAREA":" ","LANE":"２７５巷","ALLEY":" ","HOUSE_NO":"６號地下室","E_COORD97":169186.35999999999,"N_COORD97":2542552.6499999999,"ADDRESS":"大同路一段２７５巷６號地下室","OBJECTID":415826},"geometry":{"x":169186.36000000127,"y":2542552.6500000022}},{"attributes":{"ID":415851,"DIS_CODE":0,"TOWNNAME":"東區","LI":"大同里","LIN":"28鄰","STREET":"大同路","SECT":"一段","MAREA":" ","LANE":"２７５巷","ALLEY":" ","HOUSE_NO":"６號地下室之１","E_COORD97":169186.35999999999,"N_COORD97":2542552.6499999999,"ADDRESS":"大同路一段２７５巷６號地下室之１","OBJECTID":415827},"geometry":{"x":169186.36000000127,"y":2542552.6500000022}},{"attributes":{"ID":415852,"DIS_CODE":0,"TOWNNAME":"東區","LI":"大同里","LIN":"28鄰","STREET":"大同路","SECT":"一段","MAREA":" ","LANE":"２７５巷","ALLEY":" ","HOUSE_NO":"７０號","E_COORD97":169319.16,"N_COORD97":2542521.3900000001,"ADDRESS":"大同路一段２７５巷７０號","OBJECTID":415828},"geometry":{"x":169319.16000000015,"y":2542521.3900000025}},{"attributes":{"ID":415853,"DIS_CODE":0,"TOWNNAME":"新營區","LI":"民權里","LIN":"3鄰","STREET":"博愛街","SECT":" ","MAREA":" ","LANE":"２巷","ALLEY":" ","HOUSE_NO":"１２號","E_COORD97":179979.67000000001,"N_COORD97":2578200.7000000002,"ADDRESS":"博愛街２巷１２號","OBJECTID":415829},"geometry":{"x":179979.66999999993,"y":2578200.700000003}},{"attributes":{"ID":415854,"DIS_CODE":0,"TOWNNAME":"新營區","LI":"南紙里","LIN":"3鄰","STREET":"太子路","SECT":" ","MAREA":" ","LANE":"１５３巷","ALLEY":" ","HOUSE_NO":"２號","E_COORD97":177923.79000000001,"N_COORD97":2577837.3500000001,"ADDRESS":"太子路１５３巷２號","OBJECTID":415830},"geometry":{"x":177923.79000000097,"y":2577837.3500000034}},{"attributes":{"ID":415855,"DIS_CODE":0,"TOWNNAME":"北區","LI":"永祥里","LIN":"3鄰","STREET":"大武街","SECT":" ","MAREA":" ","LANE":"４７６巷","ALLEY":" ","HOUSE_NO":"１１號","E_COORD97":170059.35999999999,"N_COORD97":2546378.6200000001,"ADDRESS":"大武街４７６巷１１號","OBJECTID":415831},"geometry":{"x":170059.36000000127,"y":2546378.6200000029}},{"attributes":{"ID":415856,"DIS_CODE":0,"TOWNNAME":"北區","LI":"永祥里","LIN":"3鄰","STREET":"大武街","SECT":" ","MAREA":" ","LANE":"４７６巷","ALLEY":" ","HOUSE_NO":"１３號","E_COORD97":170059,"N_COORD97":2546375.0800000001,"ADDRESS":"大武街４７６巷１３號","OBJECTID":415832},"geometry":{"x":170059,"y":2546375.0800000001}},{"attributes":{"ID":415857,"DIS_CODE":0,"TOWNNAME":"北區","LI":"永祥里","LIN":"3鄰","STREET":"大武街","SECT":" ","MAREA":" ","LANE":"４７６巷","ALLEY":" ","HOUSE_NO":"１５號","E_COORD97":170057.94,"N_COORD97":2546370.7200000002,"ADDRESS":"大武街４７６巷１５號","OBJECTID":415833},"geometry":{"x":170057.94000000041,"y":2546370.7200000025}},{"attributes":{"ID":415858,"DIS_CODE":0,"TOWNNAME":"北區","LI":"永祥里","LIN":"3鄰","STREET":"大武街","SECT":" ","MAREA":" ","LANE":"４７６巷","ALLEY":" ","HOUSE_NO":"１７號","E_COORD97":170057.94,"N_COORD97":2546365.5499999998,"ADDRESS":"大武街４７６巷１７號","OBJECTID":415834},"geometry":{"x":170057.94000000041,"y":2546365.5500000026}},{"attributes":{"ID":415859,"DIS_CODE":0,"TOWNNAME":"北區","LI":"永祥里","LIN":"3鄰","STREET":"大武街","SECT":" ","MAREA":" ","LANE":"４７６巷","ALLEY":" ","HOUSE_NO":"１９號","E_COORD97":170058.14999999999,"N_COORD97":2546359.0299999998,"ADDRESS":"大武街４７６巷１９號","OBJECTID":415835},"geometry":{"x":170058.15000000037,"y":2546359.0299999993}},{"attributes":{"ID":415860,"DIS_CODE":0,"TOWNNAME":"北區","LI":"永祥里","LIN":"3鄰","STREET":"大武街","SECT":" ","MAREA":" ","LANE":"４７６巷","ALLEY":" ","HOUSE_NO":"１號","E_COORD97":170060.92000000001,"N_COORD97":2546397.6800000002,"ADDRESS":"大武街４７６巷１號","OBJECTID":415836},"geometry":{"x":170060.91999999993,"y":2546397.6799999997}},{"attributes":{"ID":415861,"DIS_CODE":0,"TOWNNAME":"北區","LI":"永祥里","LIN":"3鄰","STREET":"大武街","SECT":" ","MAREA":" ","LANE":"４７６巷","ALLEY":" ","HOUSE_NO":"２１號","E_COORD97":170057.94,"N_COORD97":2546353.0800000001,"ADDRESS":"大武街４７６巷２１號","OBJECTID":415837},"geometry":{"x":170057.94000000041,"y":2546353.0800000038}},{"attributes":{"ID":415862,"DIS_CODE":0,"TOWNNAME":"北區","LI":"永祥里","LIN":"3鄰","STREET":"大武街","SECT":" ","MAREA":" ","LANE":"４７６巷","ALLEY":" ","HOUSE_NO":"２３號","E_COORD97":170056.19,"N_COORD97":2546339.9100000001,"ADDRESS":"大武街４７６巷２３號","OBJECTID":415838},"geometry":{"x":170056.19000000041,"y":2546339.9100000001}},{"attributes":{"ID":415863,"DIS_CODE":0,"TOWNNAME":"北區","LI":"永祥里","LIN":"3鄰","STREET":"大武街","SECT":" ","MAREA":" ","LANE":"４７６巷","ALLEY":" ","HOUSE_NO":"２５號","E_COORD97":170057.17999999999,"N_COORD97":2546324.5699999998,"ADDRESS":"大武街４７６巷２５號","OBJECTID":415839},"geometry":{"x":170057.1799999997,"y":2546324.5700000003}},{"attributes":{"ID":415864,"DIS_CODE":0,"TOWNNAME":"北區","LI":"永祥里","LIN":"3鄰","STREET":"大武街","SECT":" ","MAREA":" ","LANE":"４７６巷","ALLEY":" ","HOUSE_NO":"３號","E_COORD97":170060.78,"N_COORD97":2546394.21,"ADDRESS":"大武街４７６巷３號","OBJECTID":415840},"geometry":{"x":170060.78000000026,"y":2546394.2100000028}},{"attributes":{"ID":415865,"DIS_CODE":0,"TOWNNAME":"北區","LI":"永祥里","LIN":"3鄰","STREET":"大武街","SECT":" ","MAREA":" ","LANE":"４７６巷","ALLEY":" ","HOUSE_NO":"５號","E_COORD97":170060.28,"N_COORD97":2546390.5099999998,"ADDRESS":"大武街４７６巷５號","OBJECTID":415841},"geometry":{"x":170060.28000000119,"y":2546390.5100000035}},{"attributes":{"ID":415866,"DIS_CODE":0,"TOWNNAME":"北區","LI":"永祥里","LIN":"3鄰","STREET":"大武街","SECT":" ","MAREA":" ","LANE":"４７６巷","ALLEY":" ","HOUSE_NO":"７號","E_COORD97":170059.92000000001,"N_COORD97":2546386.2400000002,"ADDRESS":"大武街４７６巷７號","OBJECTID":415842},"geometry":{"x":170059.92000000179,"y":2546386.2400000021}},{"attributes":{"ID":415867,"DIS_CODE":0,"TOWNNAME":"北區","LI":"永祥里","LIN":"3鄰","STREET":"大武街","SECT":" ","MAREA":" ","LANE":"４７６巷","ALLEY":" ","HOUSE_NO":"９號","E_COORD97":170059.42999999999,"N_COORD97":2546382.1600000001,"ADDRESS":"大武街４７６巷９號","OBJECTID":415843},"geometry":{"x":170059.42999999877,"y":2546382.1600000001}},{"attributes":{"ID":415868,"DIS_CODE":0,"TOWNNAME":"北區","LI":"永祥里","LIN":"3鄰","STREET":"大武街","SECT":" ","MAREA":" ","LANE":"４９２巷","ALLEY":" ","HOUSE_NO":"１０號","E_COORD97":170084.75,"N_COORD97":2546378.23,"ADDRESS":"大武街４９２巷１０號","OBJECTID":415844},"geometry":{"x":170084.75000000186,"y":2546378.2300000004}},{"attributes":{"ID":415869,"DIS_CODE":0,"TOWNNAME":"北區","LI":"永祥里","LIN":"3鄰","STREET":"大武街","SECT":" ","MAREA":" ","LANE":"４９２巷","ALLEY":" ","HOUSE_NO":"１２號","E_COORD97":170084.20999999999,"N_COORD97":2546373.98,"ADDRESS":"大武街４９２巷１２號","OBJECTID":415845},"geometry":{"x":170084.20999999996,"y":2546373.9800000004}},{"attributes":{"ID":415870,"DIS_CODE":0,"TOWNNAME":"北區","LI":"永祥里","LIN":"3鄰","STREET":"大武街","SECT":" ","MAREA":" ","LANE":"４９２巷","ALLEY":" ","HOUSE_NO":"１４號","E_COORD97":170083.47,"N_COORD97":2546368.8300000001,"ADDRESS":"大武街４９２巷１４號","OBJECTID":415846},"geometry":{"x":170083.47000000067,"y":2546368.8300000019}},{"attributes":{"ID":415871,"DIS_CODE":0,"TOWNNAME":"北區","LI":"永祥里","LIN":"3鄰","STREET":"大武街","SECT":" ","MAREA":" ","LANE":"４９２巷","ALLEY":" ","HOUSE_NO":"１６號","E_COORD97":170083.04999999999,"N_COORD97":2546364.0899999999,"ADDRESS":"大武街４９２巷１６號","OBJECTID":415847},"geometry":{"x":170083.05000000075,"y":2546364.0900000017}},{"attributes":{"ID":415872,"DIS_CODE":0,"TOWNNAME":"北區","LI":"永祥里","LIN":"3鄰","STREET":"大武街","SECT":" ","MAREA":" ","LANE":"４９２巷","ALLEY":" ","HOUSE_NO":"１８號","E_COORD97":170082.76999999999,"N_COORD97":2546358.8500000001,"ADDRESS":"大武街４９２巷１８號","OBJECTID":415848},"geometry":{"x":170082.77000000048,"y":2546358.8500000015}},{"attributes":{"ID":415873,"DIS_CODE":0,"TOWNNAME":"北區","LI":"永祥里","LIN":"3鄰","STREET":"大武街","SECT":" ","MAREA":" ","LANE":"４９２巷","ALLEY":" ","HOUSE_NO":"２０號","E_COORD97":170082.13,"N_COORD97":2546354.46,"ADDRESS":"大武街４９２巷２０號","OBJECTID":415849},"geometry":{"x":170082.13000000175,"y":2546354.459999999}},{"attributes":{"ID":415874,"DIS_CODE":0,"TOWNNAME":"北區","LI":"永祥里","LIN":"3鄰","STREET":"大武街","SECT":" ","MAREA":" ","LANE":"４９２巷","ALLEY":" ","HOUSE_NO":"２２號","E_COORD97":170081.98999999999,"N_COORD97":2546350,"ADDRESS":"大武街４９２巷２２號","OBJECTID":415850},"geometry":{"x":170081.99000000115,"y":2546350.0000000037}},{"attributes":{"ID":415875,"DIS_CODE":0,"TOWNNAME":"北區","LI":"永祥里","LIN":"3鄰","STREET":"大武街","SECT":" ","MAREA":" ","LANE":"４９２巷","ALLEY":" ","HOUSE_NO":"２４號","E_COORD97":170081.63,"N_COORD97":2546345.2599999998,"ADDRESS":"大武街４９２巷２４號","OBJECTID":415851},"geometry":{"x":170081.62999999989,"y":2546345.2600000016}},{"attributes":{"ID":415876,"DIS_CODE":0,"TOWNNAME":"北區","LI":"永祥里","LIN":"3鄰","STREET":"大武街","SECT":" ","MAREA":" ","LANE":"４９２巷","ALLEY":" ","HOUSE_NO":"２６號","E_COORD97":170082.70000000001,"N_COORD97":2546339.6299999999,"ADDRESS":"大武街４９２巷２６號","OBJECTID":415852},"geometry":{"x":170082.70000000112,"y":2546339.629999999}},{"attributes":{"ID":415877,"DIS_CODE":0,"TOWNNAME":"北區","LI":"永祥里","LIN":"3鄰","STREET":"大武街","SECT":" ","MAREA":" ","LANE":"４９２巷","ALLEY":" ","HOUSE_NO":"２８號","E_COORD97":170082.76999999999,"N_COORD97":2546335.5299999998,"ADDRESS":"大武街４９２巷２８號","OBJECTID":415853},"geometry":{"x":170082.77000000048,"y":2546335.5300000031}},{"attributes":{"ID":415878,"DIS_CODE":0,"TOWNNAME":"北區","LI":"永祥里","LIN":"3鄰","STREET":"大武街","SECT":" ","MAREA":" ","LANE":"４９２巷","ALLEY":" ","HOUSE_NO":"２號","E_COORD97":170086.38,"N_COORD97":2546396.1200000001,"ADDRESS":"大武街４９２巷２號","OBJECTID":415854},"geometry":{"x":170086.37999999989,"y":2546396.120000001}},{"attributes":{"ID":415879,"DIS_CODE":0,"TOWNNAME":"北區","LI":"永祥里","LIN":"3鄰","STREET":"大武街","SECT":" ","MAREA":" ","LANE":"４９２巷","ALLEY":" ","HOUSE_NO":"３０號","E_COORD97":170082.20000000001,"N_COORD97":2546329.79,"ADDRESS":"大武街４９２巷３０號","OBJECTID":415855},"geometry":{"x":170082.20000000112,"y":2546329.7899999991}},{"attributes":{"ID":415880,"DIS_CODE":0,"TOWNNAME":"北區","LI":"永祥里","LIN":"3鄰","STREET":"大武街","SECT":" ","MAREA":" ","LANE":"４９２巷","ALLEY":" ","HOUSE_NO":"３２號","E_COORD97":170078.01999999999,"N_COORD97":2546320.4500000002,"ADDRESS":"大武街４９２巷３２號","OBJECTID":415856},"geometry":{"x":170078.02000000048,"y":2546320.4500000011}},{"attributes":{"ID":415881,"DIS_CODE":0,"TOWNNAME":"北區","LI":"永祥里","LIN":"3鄰","STREET":"大武街","SECT":" ","MAREA":" ","LANE":"４９２巷","ALLEY":" ","HOUSE_NO":"３２號之８","E_COORD97":170040.92000000001,"N_COORD97":2546233.02,"ADDRESS":"大武街４９２巷３２號之８","OBJECTID":415857},"geometry":{"x":170040.91999999993,"y":2546233.0199999996}},{"attributes":{"ID":415882,"DIS_CODE":0,"TOWNNAME":"北區","LI":"永祥里","LIN":"3鄰","STREET":"大武街","SECT":" ","MAREA":" ","LANE":"４９２巷","ALLEY":" ","HOUSE_NO":"３６號之１０","E_COORD97":170025.13,"N_COORD97":2546225.3700000001,"ADDRESS":"大武街４９２巷３６號之１０","OBJECTID":415858},"geometry":{"x":170025.13000000082,"y":2546225.370000001}},{"attributes":{"ID":415883,"DIS_CODE":0,"TOWNNAME":"北區","LI":"永祥里","LIN":"3鄰","STREET":"大武街","SECT":" ","MAREA":" ","LANE":"４９２巷","ALLEY":" ","HOUSE_NO":"６號","E_COORD97":170085.29000000001,"N_COORD97":2546387.48,"ADDRESS":"大武街４９２巷６號","OBJECTID":415859},"geometry":{"x":170085.29000000097,"y":2546387.4800000004}},{"attributes":{"ID":415884,"DIS_CODE":0,"TOWNNAME":"北區","LI":"永祥里","LIN":"3鄰","STREET":"大武街","SECT":" ","MAREA":" ","LANE":"４９２巷","ALLEY":" ","HOUSE_NO":"８號","E_COORD97":170085.09,"N_COORD97":2546382.7599999998,"ADDRESS":"大武街４９２巷８號","OBJECTID":415860},"geometry":{"x":170085.08999999985,"y":2546382.7600000016}},{"attributes":{"ID":415885,"DIS_CODE":0,"TOWNNAME":"安平區","LI":"華平里","LIN":"3鄰","STREET":"怡平路","SECT":" ","MAREA":" ","LANE":"４６８巷","ALLEY":" ","HOUSE_NO":"８０號","E_COORD97":165265.91,"N_COORD97":2544055.5499999998,"ADDRESS":"怡平路４６８巷８０號","OBJECTID":415861},"geometry":{"x":165265.91000000015,"y":2544055.5500000026}},{"attributes":{"ID":415886,"DIS_CODE":0,"TOWNNAME":"安平區","LI":"華平里","LIN":"3鄰","STREET":"怡平路","SECT":" ","MAREA":" ","LANE":"４６８巷","ALLEY":" ","HOUSE_NO":"８２號","E_COORD97":165266.07999999999,"N_COORD97":2544059.3999999999,"ADDRESS":"怡平路４６８巷８２號","OBJECTID":415862},"geometry":{"x":165266.08000000007,"y":2544059.4000000041}},{"attributes":{"ID":415887,"DIS_CODE":0,"TOWNNAME":"安平區","LI":"華平里","LIN":"3鄰","STREET":"怡平路","SECT":" ","MAREA":" ","LANE":"４６８巷","ALLEY":" ","HOUSE_NO":"８４號","E_COORD97":165266.75,"N_COORD97":2544063.4100000001,"ADDRESS":"怡平路４６８巷８４號","OBJECTID":415863},"geometry":{"x":165266.75,"y":2544063.410000002}},{"attributes":{"ID":415888,"DIS_CODE":0,"TOWNNAME":"安平區","LI":"華平里","LIN":"3鄰","STREET":"怡平路","SECT":" ","MAREA":" ","LANE":"４６８巷","ALLEY":" ","HOUSE_NO":"９５號","E_COORD97":165252.59,"N_COORD97":2544055.5899999999,"ADDRESS":"怡平路４６８巷９５號","OBJECTID":415864},"geometry":{"x":165252.58999999985,"y":2544055.5900000017}},{"attributes":{"ID":415889,"DIS_CODE":0,"TOWNNAME":"安平區","LI":"華平里","LIN":"3鄰","STREET":"怡平路","SECT":" ","MAREA":" ","LANE":"４６８巷","ALLEY":" ","HOUSE_NO":"９７號","E_COORD97":165252.92999999999,"N_COORD97":2544059.27,"ADDRESS":"怡平路４６８巷９７號","OBJECTID":415865},"geometry":{"x":165252.9299999997,"y":2544059.2700000033}},{"attributes":{"ID":415890,"DIS_CODE":0,"TOWNNAME":"安平區","LI":"華平里","LIN":"3鄰","STREET":"怡平路","SECT":" ","MAREA":" ","LANE":"４６８巷","ALLEY":" ","HOUSE_NO":"９９號","E_COORD97":165254.10000000001,"N_COORD97":2544063.29,"ADDRESS":"怡平路４６８巷９９號","OBJECTID":415866},"geometry":{"x":165254.10000000149,"y":2544063.290000001}},{"attributes":{"ID":415891,"DIS_CODE":0,"TOWNNAME":"歸仁區","LI":"後市里","LIN":"3鄰","STREET":"民族南街","SECT":" ","MAREA":" ","LANE":"１８巷","ALLEY":" ","HOUSE_NO":"７５號","E_COORD97":177245.14000000001,"N_COORD97":2540751.5499999998,"ADDRESS":"民族南街１８巷７５號","OBJECTID":415867},"geometry":{"x":177245.13999999966,"y":2540751.5500000007}},{"attributes":{"ID":415892,"DIS_CODE":0,"TOWNNAME":"歸仁區","LI":"許厝里","LIN":"3鄰","STREET":"仁愛一街","SECT":" ","MAREA":" ","LANE":"１２巷","ALLEY":" ","HOUSE_NO":"２６號","E_COORD97":178328.35999999999,"N_COORD97":2540558.8999999999,"ADDRESS":"仁愛一街１２巷２６號","OBJECTID":415868},"geometry":{"x":178328.36000000127,"y":2540558.9000000004}},{"attributes":{"ID":415893,"DIS_CODE":0,"TOWNNAME":"歸仁區","LI":"大廟里","LIN":"3鄰","STREET":"大廟三街","SECT":" ","MAREA":" ","LANE":"６５巷","ALLEY":" ","HOUSE_NO":"９號","E_COORD97":176199.67000000001,"N_COORD97":2543945.25,"ADDRESS":"大廟三街６５巷９號","OBJECTID":415869},"geometry":{"x":176199.66999999899,"y":2543945.2500000019}},{"attributes":{"ID":415894,"DIS_CODE":0,"TOWNNAME":"歸仁區","LI":"崙頂里","LIN":"3鄰","STREET":"信義南路","SECT":" ","MAREA":" ","LANE":"２５０巷","ALLEY":" ","HOUSE_NO":"１７號","E_COORD97":178152.07000000001,"N_COORD97":2539949.6800000002,"ADDRESS":"信義南路２５０巷１７號","OBJECTID":415870},"geometry":{"x":178152.07000000216,"y":2539949.6799999997}},{"attributes":{"ID":415895,"DIS_CODE":0,"TOWNNAME":"歸仁區","LI":"看東里","LIN":"3鄰","STREET":"成功六街","SECT":" ","MAREA":" ","LANE":"３８巷","ALLEY":" ","HOUSE_NO":"６６號","E_COORD97":178469.28,"N_COORD97":2540262.8300000001,"ADDRESS":"成功六街３８巷６６號","OBJECTID":415871},"geometry":{"x":178469.28000000212,"y":2540262.8300000019}},{"attributes":{"ID":415896,"DIS_CODE":0,"TOWNNAME":"歸仁區","LI":"歸南里","LIN":"3鄰","STREET":"民權南路","SECT":" ","MAREA":" ","LANE":"２４８巷","ALLEY":" ","HOUSE_NO":"６號","E_COORD97":176925.19,"N_COORD97":2540235.54,"ADDRESS":"民權南路２４８巷６號","OBJECTID":415872},"geometry":{"x":176925.19000000041,"y":2540235.5399999991}},{"attributes":{"ID":415897,"DIS_CODE":0,"TOWNNAME":"歸仁區","LI":"歸南里","LIN":"3鄰","STREET":"民權南路","SECT":" ","MAREA":" ","LANE":"２３４巷","ALLEY":" ","HOUSE_NO":"１號","E_COORD97":176934.48999999999,"N_COORD97":2540258.54,"ADDRESS":"民權南路２３４巷１號","OBJECTID":415873},"geometry":{"x":176934.49000000115,"y":2540258.5399999991}},{"attributes":{"ID":415898,"DIS_CODE":0,"TOWNNAME":"歸仁區","LI":"大潭里","LIN":"3鄰","STREET":"長榮路","SECT":"一段","MAREA":" ","LANE":"６１３巷","ALLEY":" ","HOUSE_NO":"１２５號","E_COORD97":175939.87,"N_COORD97":2534912.2799999998,"ADDRESS":"長榮路一段６１３巷１２５號","OBJECTID":415874},"geometry":{"x":175939.87000000104,"y":2534912.2800000012}},{"attributes":{"ID":415899,"DIS_CODE":0,"TOWNNAME":"歸仁區","LI":"許厝里","LIN":"3鄰","STREET":"仁愛一街","SECT":" ","MAREA":" ","LANE":"１２巷","ALLEY":" ","HOUSE_NO":"１８號","E_COORD97":178331.56,"N_COORD97":2540583.8900000001,"ADDRESS":"仁愛一街１２巷１８號","OBJECTID":415875},"geometry":{"x":178331.56000000052,"y":2540583.8900000006}},{"attributes":{"ID":415900,"DIS_CODE":0,"TOWNNAME":"歸仁區","LI":"許厝里","LIN":"3鄰","STREET":"仁愛南街","SECT":" ","MAREA":" ","LANE":"３５巷","ALLEY":" ","HOUSE_NO":"３號","E_COORD97":178308.70999999999,"N_COORD97":2540582.8999999999,"ADDRESS":"仁愛南街３５巷３號","OBJECTID":415876},"geometry":{"x":178308.71000000089,"y":2540582.9000000004}},{"attributes":{"ID":415901,"DIS_CODE":0,"TOWNNAME":"歸仁區","LI":"西埔里","LIN":"3鄰","STREET":"保大路","SECT":"二段","MAREA":" ","LANE":"１１１巷","ALLEY":" ","HOUSE_NO":"２６號","E_COORD97":177003.72,"N_COORD97":2544063.2799999998,"ADDRESS":"保大路二段１１１巷２６號","OBJECTID":415877},"geometry":{"x":177003.71999999974,"y":2544063.2800000012}},{"attributes":{"ID":415902,"DIS_CODE":0,"TOWNNAME":"北區","LI":"文元里","LIN":"3鄰","STREET":"文成三路","SECT":" ","MAREA":" ","LANE":"９６８巷","ALLEY":" ","HOUSE_NO":"６號","E_COORD97":167582.31835799999,"N_COORD97":2546271.81171,"ADDRESS":"文成三路９６８巷６號","OBJECTID":415878},"geometry":{"x":167582.3183580013,"y":2546271.8117120024}},{"attributes":{"ID":415903,"DIS_CODE":0,"TOWNNAME":"北區","LI":"文元里","LIN":"3鄰","STREET":"文成三路","SECT":" ","MAREA":" ","LANE":"９６８巷","ALLEY":" ","HOUSE_NO":"８號","E_COORD97":167581.89466699999,"N_COORD97":2546278.5850399998,"ADDRESS":"文成三路９６８巷８號","OBJECTID":415879},"geometry":{"x":167581.89466700144,"y":2546278.5850419998}},{"attributes":{"ID":415904,"DIS_CODE":0,"TOWNNAME":"北區","LI":"文元里","LIN":"3鄰","STREET":"文賢三街","SECT":" ","MAREA":" ","LANE":"３３７巷","ALLEY":" ","HOUSE_NO":"１０１號","E_COORD97":167606.53,"N_COORD97":2546279.5699999998,"ADDRESS":"文賢三街３３７巷１０１號","OBJECTID":415880},"geometry":{"x":167606.53000000212,"y":2546279.5700000022}},{"attributes":{"ID":415905,"DIS_CODE":0,"TOWNNAME":"北區","LI":"文元里","LIN":"3鄰","STREET":"文賢三街","SECT":" ","MAREA":" ","LANE":"３３７巷","ALLEY":" ","HOUSE_NO":"１０３號","E_COORD97":167603.87,"N_COORD97":2546284.27,"ADDRESS":"文賢三街３３７巷１０３號","OBJECTID":415881},"geometry":{"x":167603.87000000011,"y":2546284.2700000014}},{"attributes":{"ID":415906,"DIS_CODE":0,"TOWNNAME":"北區","LI":"文元里","LIN":"3鄰","STREET":"文賢三街","SECT":" ","MAREA":" ","LANE":"３３７巷","ALLEY":" ","HOUSE_NO":"８９號","E_COORD97":167616.44,"N_COORD97":2546286.1800000002,"ADDRESS":"文賢三街３３７巷８９號","OBJECTID":415882},"geometry":{"x":167616.44000000134,"y":2546286.1799999997}},{"attributes":{"ID":415907,"DIS_CODE":0,"TOWNNAME":"北區","LI":"文元里","LIN":"3鄰","STREET":"文賢三街","SECT":" ","MAREA":" ","LANE":"３３７巷","ALLEY":" ","HOUSE_NO":"９１號","E_COORD97":167616.57000000001,"N_COORD97":2546280.7200000002,"ADDRESS":"文賢三街３３７巷９１號","OBJECTID":415883},"geometry":{"x":167616.57000000216,"y":2546280.7200000007}},{"attributes":{"ID":415908,"DIS_CODE":0,"TOWNNAME":"北區","LI":"文元里","LIN":"3鄰","STREET":"文賢三街","SECT":" ","MAREA":" ","LANE":"３３７巷","ALLEY":" ","HOUSE_NO":"９３號","E_COORD97":167617.70999999999,"N_COORD97":2546275.2599999998,"ADDRESS":"文賢三街３３７巷９３號","OBJECTID":415884},"geometry":{"x":167617.70999999996,"y":2546275.2599999998}},{"attributes":{"ID":415909,"DIS_CODE":0,"TOWNNAME":"北區","LI":"文元里","LIN":"3鄰","STREET":"文賢三街","SECT":" ","MAREA":" ","LANE":"３３７巷","ALLEY":" ","HOUSE_NO":"９５號","E_COORD97":167617.70999999999,"N_COORD97":2546270.4300000002,"ADDRESS":"文賢三街３３７巷９５號","OBJECTID":415885},"geometry":{"x":167617.70999999996,"y":2546270.4300000016}},{"attributes":{"ID":415910,"DIS_CODE":0,"TOWNNAME":"北區","LI":"文元里","LIN":"3鄰","STREET":"文賢三街","SECT":" ","MAREA":" ","LANE":"３３７巷","ALLEY":" ","HOUSE_NO":"９７號","E_COORD97":167607.54999999999,"N_COORD97":2546268.3999999999,"ADDRESS":"文賢三街３３７巷９７號","OBJECTID":415886},"geometry":{"x":167607.55000000168,"y":2546268.4000000004}},{"attributes":{"ID":415911,"DIS_CODE":0,"TOWNNAME":"北區","LI":"文元里","LIN":"3鄰","STREET":"文賢三街","SECT":" ","MAREA":" ","LANE":"３３７巷","ALLEY":" ","HOUSE_NO":"９９號","E_COORD97":167605.76999999999,"N_COORD97":2546273.9900000002,"ADDRESS":"文賢三街３３７巷９９號","OBJECTID":415887},"geometry":{"x":167605.77000000142,"y":2546273.9900000021}},{"attributes":{"ID":415912,"DIS_CODE":0,"TOWNNAME":"玉井區","LI":"玉井里","LIN":"3鄰","STREET":"憲政街","SECT":" ","MAREA":" ","LANE":"６６巷","ALLEY":" ","HOUSE_NO":"１４號","E_COORD97":194547.79000000001,"N_COORD97":2558095.9700000002,"ADDRESS":"憲政街６６巷１４號","OBJECTID":415888},"geometry":{"x":194547.7900000019,"y":2558095.9700000025}},{"attributes":{"ID":415913,"DIS_CODE":0,"TOWNNAME":"玉井區","LI":"竹圍里","LIN":"3鄰","STREET":"仁愛街","SECT":" ","MAREA":" ","LANE":"５０８巷","ALLEY":" ","HOUSE_NO":"３１號","E_COORD97":195482.01000000001,"N_COORD97":2558403.0099999998,"ADDRESS":"仁愛街５０８巷３１號","OBJECTID":415889},"geometry":{"x":195482.01000000071,"y":2558403.0100000016}},{"attributes":{"ID":415914,"DIS_CODE":0,"TOWNNAME":"玉井區","LI":"玉井里","LIN":"3鄰","STREET":"憲政街","SECT":" ","MAREA":" ","LANE":"６６巷","ALLEY":" ","HOUSE_NO":"１０號","E_COORD97":194532.48000000001,"N_COORD97":2558092.2000000002,"ADDRESS":"憲政街６６巷１０號","OBJECTID":415890},"geometry":{"x":194532.48000000138,"y":2558092.200000003}},{"attributes":{"ID":415915,"DIS_CODE":0,"TOWNNAME":"玉井區","LI":"竹圍里","LIN":"3鄰","STREET":"仁愛街","SECT":" ","MAREA":" ","LANE":"５０８巷","ALLEY":" ","HOUSE_NO":"２３號","E_COORD97":195482.07000000001,"N_COORD97":2558419.9700000002,"ADDRESS":"仁愛街５０８巷２３號","OBJECTID":415891},"geometry":{"x":195482.07000000216,"y":2558419.9700000007}},{"attributes":{"ID":415916,"DIS_CODE":0,"TOWNNAME":"玉井區","LI":"玉田里","LIN":"3鄰","STREET":"民主街","SECT":" ","MAREA":" ","LANE":"１２４巷","ALLEY":" ","HOUSE_NO":"３號","E_COORD97":195122.88,"N_COORD97":2558167.2799999998,"ADDRESS":"民主街１２４巷３號","OBJECTID":415892},"geometry":{"x":195122.87999999989,"y":2558167.2800000012}},{"attributes":{"ID":415917,"DIS_CODE":0,"TOWNNAME":"玉井區","LI":"竹圍里","LIN":"3鄰","STREET":"仁愛街","SECT":" ","MAREA":" ","LANE":"４５８巷","ALLEY":" ","HOUSE_NO":"１９號","E_COORD97":195441.57000000001,"N_COORD97":2558412.21,"ADDRESS":"仁愛街４５８巷１９號","OBJECTID":415893},"geometry":{"x":195441.57000000123,"y":2558412.2100000009}},{"attributes":{"ID":415918,"DIS_CODE":0,"TOWNNAME":"玉井區","LI":"玉田里","LIN":"3鄰","STREET":"民主街","SECT":" ","MAREA":" ","LANE":"１３４巷","ALLEY":" ","HOUSE_NO":"１號","E_COORD97":195122.5,"N_COORD97":2558206.2799999998,"ADDRESS":"民主街１３４巷１號","OBJECTID":415894},"geometry":{"x":195122.5,"y":2558206.2799999993}},{"attributes":{"ID":415919,"DIS_CODE":0,"TOWNNAME":"玉井區","LI":"竹圍里","LIN":"3鄰","STREET":"仁愛街","SECT":" ","MAREA":" ","LANE":"５０８巷","ALLEY":" ","HOUSE_NO":"２７號","E_COORD97":195482.23999999999,"N_COORD97":2558411.6600000001,"ADDRESS":"仁愛街５０８巷２７號","OBJECTID":415895},"geometry":{"x":195482.24000000022,"y":2558411.6600000001}},{"attributes":{"ID":415920,"DIS_CODE":0,"TOWNNAME":"玉井區","LI":"竹圍里","LIN":"3鄰","STREET":"仁愛街","SECT":" ","MAREA":" ","LANE":"５０８巷","ALLEY":" ","HOUSE_NO":"１８號","E_COORD97":195479.78,"N_COORD97":2558439.3500000001,"ADDRESS":"仁愛街５０８巷１８號","OBJECTID":415896},"geometry":{"x":195479.78000000026,"y":2558439.3499999996}},{"attributes":{"ID":415921,"DIS_CODE":0,"TOWNNAME":"玉井區","LI":"竹圍里","LIN":"3鄰","STREET":"中正路","SECT":" ","MAREA":" ","LANE":"３６０巷","ALLEY":" ","HOUSE_NO":"８號","E_COORD97":195404.42000000001,"N_COORD97":2558483.5499999998,"ADDRESS":"中正路３６０巷８號","OBJECTID":415897},"geometry":{"x":195404.41999999993,"y":2558483.5500000007}},{"attributes":{"ID":415922,"DIS_CODE":0,"TOWNNAME":"玉井區","LI":"竹圍里","LIN":"3鄰","STREET":"仁愛街","SECT":" ","MAREA":" ","LANE":"５０８巷","ALLEY":" ","HOUSE_NO":"２９號","E_COORD97":195482.23000000001,"N_COORD97":2558407.1200000001,"ADDRESS":"仁愛街５０８巷２９號","OBJECTID":415898},"geometry":{"x":195482.23000000045,"y":2558407.1200000029}},{"attributes":{"ID":415923,"DIS_CODE":0,"TOWNNAME":"玉井區","LI":"竹圍里","LIN":"3鄰","STREET":"仁愛街","SECT":" ","MAREA":" ","LANE":"５０８巷","ALLEY":" ","HOUSE_NO":"２０號","E_COORD97":195463.87,"N_COORD97":2558429.7799999998,"ADDRESS":"仁愛街５０８巷２０號","OBJECTID":415899},"geometry":{"x":195463.87000000011,"y":2558429.7799999993}},{"attributes":{"ID":415924,"DIS_CODE":0,"TOWNNAME":"玉井區","LI":"竹圍里","LIN":"3鄰","STREET":"仁愛街","SECT":" ","MAREA":" ","LANE":"５０８巷","ALLEY":" ","HOUSE_NO":"２１號","E_COORD97":195481.98000000001,"N_COORD97":2558424.0600000001,"ADDRESS":"仁愛街５０８巷２１號","OBJECTID":415900},"geometry":{"x":195481.98000000045,"y":2558424.0600000024}},{"attributes":{"ID":415925,"DIS_CODE":0,"TOWNNAME":"北區","LI":"六甲里","LIN":"3鄰","STREET":"公園路","SECT":" ","MAREA":" ","LANE":"５０９巷","ALLEY":" ","HOUSE_NO":"１號","E_COORD97":169026.35000000001,"N_COORD97":2545547.7000000002,"ADDRESS":"公園路５０９巷１號","OBJECTID":415901},"geometry":{"x":169026.35000000056,"y":2545547.700000003}},{"attributes":{"ID":415926,"DIS_CODE":0,"TOWNNAME":"北區","LI":"東興里","LIN":"3鄰","STREET":"小東路","SECT":" ","MAREA":" ","LANE":"２９９巷","ALLEY":" ","HOUSE_NO":"１號","E_COORD97":171087.89999999999,"N_COORD97":2544440.9399999999,"ADDRESS":"小東路２９９巷１號","OBJECTID":415902},"geometry":{"x":171087.9000000013,"y":2544440.9399999976}},{"attributes":{"ID":415927,"DIS_CODE":0,"TOWNNAME":"北區","LI":"東興里","LIN":"3鄰","STREET":"小東路","SECT":" ","MAREA":" ","LANE":"２９９巷","ALLEY":" ","HOUSE_NO":"３號","E_COORD97":171089.26000000001,"N_COORD97":2544443.7599999998,"ADDRESS":"小東路２９９巷３號","OBJECTID":415903},"geometry":{"x":171089.25999999978,"y":2544443.7600000016}},{"attributes":{"ID":415928,"DIS_CODE":0,"TOWNNAME":"北區","LI":"東興里","LIN":"3鄰","STREET":"小東路","SECT":" ","MAREA":" ","LANE":"２９９巷","ALLEY":" ","HOUSE_NO":"３號之２","E_COORD97":171084.29999999999,"N_COORD97":2544444.6299999999,"ADDRESS":"小東路２９９巷３號之２","OBJECTID":415904},"geometry":{"x":171084.29999999888,"y":2544444.629999999}},{"attributes":{"ID":415929,"DIS_CODE":0,"TOWNNAME":"北區","LI":"東興里","LIN":"3鄰","STREET":"小東路","SECT":" ","MAREA":" ","LANE":"２９９巷","ALLEY":" ","HOUSE_NO":"５號","E_COORD97":171090.81,"N_COORD97":2544449.2999999998,"ADDRESS":"小東路２９９巷５號","OBJECTID":415905},"geometry":{"x":171090.80999999866,"y":2544449.3000000007}},{"attributes":{"ID":415930,"DIS_CODE":0,"TOWNNAME":"北區","LI":"東興里","LIN":"3鄰","STREET":"小東路","SECT":" ","MAREA":" ","LANE":"２９９巷","ALLEY":" ","HOUSE_NO":"５號之２","E_COORD97":171086.92000000001,"N_COORD97":2544451.1400000001,"ADDRESS":"小東路２９９巷５號之２","OBJECTID":415906},"geometry":{"x":171086.91999999993,"y":2544451.1400000043}},{"attributes":{"ID":415931,"DIS_CODE":0,"TOWNNAME":"北區","LI":"東興里","LIN":"3鄰","STREET":"小東路","SECT":" ","MAREA":" ","LANE":"２９９巷","ALLEY":" ","HOUSE_NO":"７號","E_COORD97":171091.89000000001,"N_COORD97":2544452.5099999998,"ADDRESS":"小東路２９９巷７號","OBJECTID":415907},"geometry":{"x":171091.88999999966,"y":2544452.5100000016}},{"attributes":{"ID":415932,"DIS_CODE":0,"TOWNNAME":"北區","LI":"大豐里","LIN":"3鄰","STREET":"武聖路","SECT":" ","MAREA":" ","LANE":"３６巷","ALLEY":" ","HOUSE_NO":"１３號","E_COORD97":167211.91,"N_COORD97":2545159.0099999998,"ADDRESS":"武聖路３６巷１３號","OBJECTID":415908},"geometry":{"x":167211.91000000015,"y":2545159.0099999998}},{"attributes":{"ID":415933,"DIS_CODE":0,"TOWNNAME":"北區","LI":"大豐里","LIN":"3鄰","STREET":"武聖路","SECT":" ","MAREA":" ","LANE":"３６巷","ALLEY":" ","HOUSE_NO":"１５號","E_COORD97":167207.87,"N_COORD97":2545160.3199999998,"ADDRESS":"武聖路３６巷１５號","OBJECTID":415909},"geometry":{"x":167207.87000000104,"y":2545160.3200000003}},{"attributes":{"ID":415934,"DIS_CODE":0,"TOWNNAME":"北區","LI":"大豐里","LIN":"3鄰","STREET":"武聖路","SECT":" ","MAREA":" ","LANE":"３６巷","ALLEY":" ","HOUSE_NO":"１７號","E_COORD97":167204.23999999999,"N_COORD97":2545162.9399999999,"ADDRESS":"武聖路３６巷１７號","OBJECTID":415910},"geometry":{"x":167204.24000000022,"y":2545162.9399999995}},{"attributes":{"ID":415935,"DIS_CODE":0,"TOWNNAME":"北區","LI":"大豐里","LIN":"3鄰","STREET":"武聖路","SECT":" ","MAREA":" ","LANE":"３６巷","ALLEY":" ","HOUSE_NO":"１９號","E_COORD97":167200.20000000001,"N_COORD97":2545164.3500000001,"ADDRESS":"武聖路３６巷１９號","OBJECTID":415911},"geometry":{"x":167200.20000000205,"y":2545164.3500000015}},{"attributes":{"ID":415936,"DIS_CODE":0,"TOWNNAME":"北區","LI":"大豐里","LIN":"3鄰","STREET":"武聖路","SECT":" ","MAREA":" ","LANE":"３６巷","ALLEY":" ","HOUSE_NO":"１號","E_COORD97":167215.63,"N_COORD97":2545135.0800000001,"ADDRESS":"武聖路３６巷１號","OBJECTID":415912},"geometry":{"x":167215.63000000175,"y":2545135.0800000001}},{"attributes":{"ID":415937,"DIS_CODE":0,"TOWNNAME":"北區","LI":"大豐里","LIN":"3鄰","STREET":"武聖路","SECT":" ","MAREA":" ","LANE":"３６巷","ALLEY":" ","HOUSE_NO":"２１號","E_COORD97":167196.37,"N_COORD97":2545166.2599999998,"ADDRESS":"武聖路３６巷２１號","OBJECTID":415913},"geometry":{"x":167196.37000000011,"y":2545166.2600000016}},{"attributes":{"ID":415938,"DIS_CODE":0,"TOWNNAME":"北區","LI":"大豐里","LIN":"3鄰","STREET":"武聖路","SECT":" ","MAREA":" ","LANE":"３６巷","ALLEY":" ","HOUSE_NO":"２３號","E_COORD97":167192.54000000001,"N_COORD97":2545167.7799999998,"ADDRESS":"武聖路３６巷２３號","OBJECTID":415914},"geometry":{"x":167192.5400000019,"y":2545167.7800000031}},{"attributes":{"ID":415939,"DIS_CODE":0,"TOWNNAME":"北區","LI":"大豐里","LIN":"3鄰","STREET":"武聖路","SECT":" ","MAREA":" ","LANE":"３６巷","ALLEY":" ","HOUSE_NO":"２５號","E_COORD97":167189.01000000001,"N_COORD97":2545169.8900000001,"ADDRESS":"武聖路３６巷２５號","OBJECTID":415915},"geometry":{"x":167189.00999999885,"y":2545169.8900000006}},{"attributes":{"ID":415940,"DIS_CODE":0,"TOWNNAME":"北區","LI":"大豐里","LIN":"3鄰","STREET":"武聖路","SECT":" ","MAREA":" ","LANE":"３６巷","ALLEY":" ","HOUSE_NO":"２７號","E_COORD97":167182.75,"N_COORD97":2545172.7200000002,"ADDRESS":"武聖路３６巷２７號","OBJECTID":415916},"geometry":{"x":167182.75000000186,"y":2545172.7200000044}},{"attributes":{"ID":415941,"DIS_CODE":0,"TOWNNAME":"北區","LI":"大豐里","LIN":"3鄰","STREET":"武聖路","SECT":" ","MAREA":" ","LANE":"３６巷","ALLEY":" ","HOUSE_NO":"３１號","E_COORD97":167167.95000000001,"N_COORD97":2545186.29,"ADDRESS":"武聖路３６巷３１號","OBJECTID":415917},"geometry":{"x":167167.95000000205,"y":2545186.2899999991}},{"attributes":{"ID":415942,"DIS_CODE":0,"TOWNNAME":"北區","LI":"大豐里","LIN":"3鄰","STREET":"武聖路","SECT":" ","MAREA":" ","LANE":"３６巷","ALLEY":" ","HOUSE_NO":"３３號","E_COORD97":167163.73999999999,"N_COORD97":2545188.1400000001,"ADDRESS":"武聖路３６巷３３號","OBJECTID":415918},"geometry":{"x":167163.74000000022,"y":2545188.1400000025}},{"attributes":{"ID":415943,"DIS_CODE":0,"TOWNNAME":"北區","LI":"大豐里","LIN":"3鄰","STREET":"武聖路","SECT":" ","MAREA":" ","LANE":"３６巷","ALLEY":" ","HOUSE_NO":"３５號","E_COORD97":167160.20000000001,"N_COORD97":2545189.75,"ADDRESS":"武聖路３６巷３５號","OBJECTID":415919},"geometry":{"x":167160.20000000112,"y":2545189.7500000019}},{"attributes":{"ID":415944,"DIS_CODE":0,"TOWNNAME":"北區","LI":"大豐里","LIN":"3鄰","STREET":"武聖路","SECT":" ","MAREA":" ","LANE":"３６巷","ALLEY":" ","HOUSE_NO":"３７號","E_COORD97":167156.47,"N_COORD97":2545192.27,"ADDRESS":"武聖路３６巷３７號","OBJECTID":415920},"geometry":{"x":167156.46999999974,"y":2545192.2700000014}},{"attributes":{"ID":415945,"DIS_CODE":0,"TOWNNAME":"北區","LI":"大豐里","LIN":"3鄰","STREET":"武聖路","SECT":" ","MAREA":" ","LANE":"３６巷","ALLEY":" ","HOUSE_NO":"３９號","E_COORD97":167152.54000000001,"N_COORD97":2545193.7799999998,"ADDRESS":"武聖路３６巷３９號","OBJECTID":415921},"geometry":{"x":167152.54000000097,"y":2545193.7799999993}},{"attributes":{"ID":415946,"DIS_CODE":0,"TOWNNAME":"北區","LI":"大豐里","LIN":"3鄰","STREET":"武聖路","SECT":" ","MAREA":" ","LANE":"３６巷","ALLEY":" ","HOUSE_NO":"３號","E_COORD97":167216.73999999999,"N_COORD97":2545138.9100000001,"ADDRESS":"武聖路３６巷３號","OBJECTID":415922},"geometry":{"x":167216.73999999929,"y":2545138.9100000001}},{"attributes":{"ID":415947,"DIS_CODE":0,"TOWNNAME":"北區","LI":"大豐里","LIN":"3鄰","STREET":"武聖路","SECT":" ","MAREA":" ","LANE":"３６巷","ALLEY":" ","HOUSE_NO":"４１號","E_COORD97":167148.20000000001,"N_COORD97":2545195.6000000001,"ADDRESS":"武聖路３６巷４１號","OBJECTID":415923},"geometry":{"x":167148.20000000112,"y":2545195.5999999996}},{"attributes":{"ID":415948,"DIS_CODE":0,"TOWNNAME":"北區","LI":"大豐里","LIN":"3鄰","STREET":"武聖路","SECT":" ","MAREA":" ","LANE":"３６巷","ALLEY":" ","HOUSE_NO":"４３號","E_COORD97":167144.76999999999,"N_COORD97":2545197.7200000002,"ADDRESS":"武聖路３６巷４３號","OBJECTID":415924},"geometry":{"x":167144.77000000142,"y":2545197.7200000025}},{"attributes":{"ID":415949,"DIS_CODE":0,"TOWNNAME":"北區","LI":"大豐里","LIN":"3鄰","STREET":"武聖路","SECT":" ","MAREA":" ","LANE":"３６巷","ALLEY":" ","HOUSE_NO":"４５號","E_COORD97":167141.67000000001,"N_COORD97":2545200.4100000001,"ADDRESS":"武聖路３６巷４５號","OBJECTID":415925},"geometry":{"x":167141.66999999993,"y":2545200.4100000001}},{"attributes":{"ID":415950,"DIS_CODE":0,"TOWNNAME":"北區","LI":"大豐里","LIN":"3鄰","STREET":"武聖路","SECT":" ","MAREA":" ","LANE":"３６巷","ALLEY":" ","HOUSE_NO":"４７號","E_COORD97":167137.98000000001,"N_COORD97":2545202.23,"ADDRESS":"武聖路３６巷４７號","OBJECTID":415926},"geometry":{"x":167137.98000000138,"y":2545202.2300000004}},{"attributes":{"ID":415951,"DIS_CODE":0,"TOWNNAME":"北區","LI":"大豐里","LIN":"3鄰","STREET":"武聖路","SECT":" ","MAREA":" ","LANE":"３６巷","ALLEY":" ","HOUSE_NO":"４９號","E_COORD97":167134.42000000001,"N_COORD97":2545204.0800000001,"ADDRESS":"武聖路３６巷４９號","OBJECTID":415927},"geometry":{"x":167134.42000000086,"y":2545204.0800000019}},{"attributes":{"ID":415952,"DIS_CODE":0,"TOWNNAME":"北區","LI":"大豐里","LIN":"3鄰","STREET":"武聖路","SECT":" ","MAREA":" ","LANE":"３６巷","ALLEY":" ","HOUSE_NO":"５１號","E_COORD97":167129.98000000001,"N_COORD97":2545206.7999999998,"ADDRESS":"武聖路３６巷５１號","OBJECTID":415928},"geometry":{"x":167129.98000000045,"y":2545206.8000000026}},{"attributes":{"ID":415953,"DIS_CODE":0,"TOWNNAME":"北區","LI":"大豐里","LIN":"3鄰","STREET":"武聖路","SECT":" ","MAREA":" ","LANE":"３６巷","ALLEY":" ","HOUSE_NO":"５３號","E_COORD97":167125.95000000001,"N_COORD97":2545208.1099999999,"ADDRESS":"武聖路３６巷５３號","OBJECTID":415929},"geometry":{"x":167125.95000000112,"y":2545208.1099999994}},{"attributes":{"ID":415954,"DIS_CODE":0,"TOWNNAME":"北區","LI":"大豐里","LIN":"3鄰","STREET":"武聖路","SECT":" ","MAREA":" ","LANE":"３６巷","ALLEY":" ","HOUSE_NO":"５５號","E_COORD97":167122.51999999999,"N_COORD97":2545209.4199999999,"ADDRESS":"武聖路３６巷５５號","OBJECTID":415930},"geometry":{"x":167122.51999999955,"y":2545209.4200000018}},{"attributes":{"ID":415955,"DIS_CODE":0,"TOWNNAME":"北區","LI":"大豐里","LIN":"3鄰","STREET":"武聖路","SECT":" ","MAREA":" ","LANE":"３６巷","ALLEY":" ","HOUSE_NO":"５７號","E_COORD97":167118.07999999999,"N_COORD97":2545211.23,"ADDRESS":"武聖路３６巷５７號","OBJECTID":415931},"geometry":{"x":167118.08000000101,"y":2545211.2300000023}},{"attributes":{"ID":415956,"DIS_CODE":0,"TOWNNAME":"北區","LI":"大豐里","LIN":"3鄰","STREET":"武聖路","SECT":" ","MAREA":" ","LANE":"３６巷","ALLEY":" ","HOUSE_NO":"５９號","E_COORD97":167114.14000000001,"N_COORD97":2545212.7400000002,"ADDRESS":"武聖路３６巷５９號","OBJECTID":415932},"geometry":{"x":167114.1400000006,"y":2545212.7399999984}},{"attributes":{"ID":415957,"DIS_CODE":0,"TOWNNAME":"北區","LI":"大豐里","LIN":"3鄰","STREET":"武聖路","SECT":" ","MAREA":" ","LANE":"３６巷","ALLEY":" ","HOUSE_NO":"７號","E_COORD97":167218.66,"N_COORD97":2545150.6099999999,"ADDRESS":"武聖路３６巷７號","OBJECTID":415933},"geometry":{"x":167218.66000000015,"y":2545150.6099999994}},{"attributes":{"ID":415958,"DIS_CODE":0,"TOWNNAME":"北區","LI":"大豐里","LIN":"3鄰","STREET":"武聖路","SECT":" ","MAREA":" ","LANE":"３６巷","ALLEY":" ","HOUSE_NO":"９號","E_COORD97":167220.26999999999,"N_COORD97":2545154.6400000001,"ADDRESS":"武聖路３６巷９號","OBJECTID":415934},"geometry":{"x":167220.26999999955,"y":2545154.6400000006}},{"attributes":{"ID":415959,"DIS_CODE":0,"TOWNNAME":"東區","LI":"小東里","LIN":"28鄰","STREET":"東和路","SECT":" ","MAREA":" ","LANE":"１７７巷","ALLEY":" ","HOUSE_NO":"１１號","E_COORD97":170622.98999999999,"N_COORD97":2544266.4199999999,"ADDRESS":"東和路１７７巷１１號","OBJECTID":415935},"geometry":{"x":170622.99000000115,"y":2544266.4200000018}},{"attributes":{"ID":415960,"DIS_CODE":0,"TOWNNAME":"學甲區","LI":"仁得里","LIN":"3鄰","STREET":"成功路","SECT":" ","MAREA":" ","LANE":"８巷","ALLEY":" ","HOUSE_NO":"１號","E_COORD97":166196.95000000001,"N_COORD97":2570181.04,"ADDRESS":"成功路８巷１號","OBJECTID":415936},"geometry":{"x":166196.95000000112,"y":2570181.040000001}},{"attributes":{"ID":415961,"DIS_CODE":0,"TOWNNAME":"學甲區","LI":"明宜里","LIN":"3鄰","STREET":"和平路","SECT":" ","MAREA":" ","LANE":"２７４巷","ALLEY":" ","HOUSE_NO":"３號","E_COORD97":166028.81,"N_COORD97":2570393.6000000001,"ADDRESS":"和平路２７４巷３號","OBJECTID":415937},"geometry":{"x":166028.80999999959,"y":2570393.6000000034}},{"attributes":{"ID":415962,"DIS_CODE":0,"TOWNNAME":"東區","LI":"小東里","LIN":"28鄰","STREET":"東和路","SECT":" ","MAREA":" ","LANE":"１７７巷","ALLEY":" ","HOUSE_NO":"１號","E_COORD97":170647.39999999999,"N_COORD97":2544303.2200000002,"ADDRESS":"東和路１７７巷１號","OBJECTID":415938},"geometry":{"x":170647.4000000013,"y":2544303.2200000007}},{"attributes":{"ID":415963,"DIS_CODE":0,"TOWNNAME":"東區","LI":"小東里","LIN":"28鄰","STREET":"東和路","SECT":" ","MAREA":" ","LANE":"１７７巷","ALLEY":" ","HOUSE_NO":"３號","E_COORD97":170644.60000000001,"N_COORD97":2544299.3100000001,"ADDRESS":"東和路１７７巷３號","OBJECTID":415939},"geometry":{"x":170644.59999999963,"y":2544299.3100000005}},{"attributes":{"ID":415964,"DIS_CODE":0,"TOWNNAME":"東區","LI":"小東里","LIN":"28鄰","STREET":"東和路","SECT":" ","MAREA":" ","LANE":"１７７巷","ALLEY":" ","HOUSE_NO":"５號","E_COORD97":170640.39999999999,"N_COORD97":2544291.7799999998,"ADDRESS":"東和路１７７巷５號","OBJECTID":415940},"geometry":{"x":170640.4000000013,"y":2544291.7799999993}},{"attributes":{"ID":415965,"DIS_CODE":0,"TOWNNAME":"東區","LI":"小東里","LIN":"36鄰","STREET":"光明街","SECT":" ","MAREA":" ","LANE":"１０２巷","ALLEY":" ","HOUSE_NO":"５號","E_COORD97":170885.45999999999,"N_COORD97":2544042.7799999998,"ADDRESS":"光明街１０２巷５號","OBJECTID":415941},"geometry":{"x":170885.46000000089,"y":2544042.7800000012}},{"attributes":{"ID":415966,"DIS_CODE":0,"TOWNNAME":"東區","LI":"小東里","LIN":"36鄰","STREET":"光明街","SECT":" ","MAREA":" ","LANE":"１０２巷","ALLEY":" ","HOUSE_NO":"９號","E_COORD97":170853.91,"N_COORD97":2544042.2400000002,"ADDRESS":"光明街１０２巷９號","OBJECTID":415942},"geometry":{"x":170853.91000000108,"y":2544042.2400000002}},{"attributes":{"ID":415967,"DIS_CODE":0,"TOWNNAME":"北區","LI":"大豐里","LIN":"3鄰","STREET":"武聖路","SECT":" ","MAREA":" ","LANE":"３６巷","ALLEY":" ","HOUSE_NO":"１１號","E_COORD97":167220.98000000001,"N_COORD97":2545158.3700000001,"ADDRESS":"武聖路３６巷１１號","OBJECTID":415943},"geometry":{"x":167220.98000000138,"y":2545158.3699999992}},{"attributes":{"ID":415968,"DIS_CODE":0,"TOWNNAME":"北區","LI":"大豐里","LIN":"3鄰","STREET":"武聖路","SECT":" ","MAREA":" ","LANE":"３６巷","ALLEY":" ","HOUSE_NO":"２９號","E_COORD97":167173.79999999999,"N_COORD97":2545182.1600000001,"ADDRESS":"武聖路３６巷２９號","OBJECTID":415944},"geometry":{"x":167173.80000000075,"y":2545182.1600000001}},{"attributes":{"ID":415969,"DIS_CODE":0,"TOWNNAME":"北區","LI":"重興里","LIN":"3鄰","STREET":"開元路","SECT":" ","MAREA":" ","LANE":"２１２巷","ALLEY":" ","HOUSE_NO":"１４６號","E_COORD97":170508.89000000001,"N_COORD97":2545015.3900000001,"ADDRESS":"開元路２１２巷１４６號","OBJECTID":415945},"geometry":{"x":170508.88999999873,"y":2545015.3899999987}},{"attributes":{"ID":415970,"DIS_CODE":0,"TOWNNAME":"北區","LI":"正風里","LIN":"3鄰","STREET":"公園路","SECT":" ","MAREA":" ","LANE":"９１８巷","ALLEY":" ","HOUSE_NO":"２０號","E_COORD97":169492.73000000001,"N_COORD97":2546115.5499999998,"ADDRESS":"公園路９１８巷２０號","OBJECTID":415946},"geometry":{"x":169492.73000000138,"y":2546115.5500000007}},{"attributes":{"ID":415971,"DIS_CODE":0,"TOWNNAME":"北區","LI":"興北里","LIN":"3鄰","STREET":"公園北路","SECT":" ","MAREA":" ","LANE":"７０巷","ALLEY":" ","HOUSE_NO":"１７號","E_COORD97":169184.95000000001,"N_COORD97":2545118.3900000001,"ADDRESS":"公園北路７０巷１７號","OBJECTID":415947},"geometry":{"x":169184.95000000019,"y":2545118.3900000025}},{"attributes":{"ID":415972,"DIS_CODE":0,"TOWNNAME":"北區","LI":"興北里","LIN":"3鄰","STREET":"公園北路","SECT":" ","MAREA":" ","LANE":"７０巷","ALLEY":" ","HOUSE_NO":"１８號","E_COORD97":169232.42000000001,"N_COORD97":2545188.8199999998,"ADDRESS":"公園北路７０巷１８號","OBJECTID":415948},"geometry":{"x":169232.41999999993,"y":2545188.820000004}},{"attributes":{"ID":415973,"DIS_CODE":0,"TOWNNAME":"北區","LI":"興北里","LIN":"3鄰","STREET":"公園北路","SECT":" ","MAREA":" ","LANE":"７０巷","ALLEY":" ","HOUSE_NO":"１９號","E_COORD97":169181.60000000001,"N_COORD97":2545122.1600000001,"ADDRESS":"公園北路７０巷１９號","OBJECTID":415949},"geometry":{"x":169181.59999999963,"y":2545122.160000002}},{"attributes":{"ID":415974,"DIS_CODE":0,"TOWNNAME":"北區","LI":"興北里","LIN":"3鄰","STREET":"公園北路","SECT":" ","MAREA":" ","LANE":"７０巷","ALLEY":" ","HOUSE_NO":"２０號","E_COORD97":169237.20000000001,"N_COORD97":2545188.5899999999,"ADDRESS":"公園北路７０巷２０號","OBJECTID":415950},"geometry":{"x":169237.20000000019,"y":2545188.5899999999}},{"attributes":{"ID":415975,"DIS_CODE":0,"TOWNNAME":"北區","LI":"興北里","LIN":"3鄰","STREET":"公園北路","SECT":" ","MAREA":" ","LANE":"７０巷","ALLEY":" ","HOUSE_NO":"２１號","E_COORD97":169177.76000000001,"N_COORD97":2545125.79,"ADDRESS":"公園北路７０巷２１號","OBJECTID":415951},"geometry":{"x":169177.76000000071,"y":2545125.7899999991}},{"attributes":{"ID":415976,"DIS_CODE":0,"TOWNNAME":"北區","LI":"興北里","LIN":"3鄰","STREET":"公園北路","SECT":" ","MAREA":" ","LANE":"７０巷","ALLEY":" ","HOUSE_NO":"２２號","E_COORD97":169240.70000000001,"N_COORD97":2545197.1600000001,"ADDRESS":"公園北路７０巷２２號","OBJECTID":415952},"geometry":{"x":169240.70000000019,"y":2545197.160000002}},{"attributes":{"ID":415977,"DIS_CODE":0,"TOWNNAME":"北區","LI":"興北里","LIN":"3鄰","STREET":"公園北路","SECT":" ","MAREA":" ","LANE":"７０巷","ALLEY":" ","HOUSE_NO":"２３號","E_COORD97":169174.63,"N_COORD97":2545129.0600000001,"ADDRESS":"公園北路７０巷２３號","OBJECTID":415953},"geometry":{"x":169174.62999999989,"y":2545129.0600000005}},{"attributes":{"ID":415978,"DIS_CODE":0,"TOWNNAME":"北區","LI":"興北里","LIN":"3鄰","STREET":"公園北路","SECT":" ","MAREA":" ","LANE":"７０巷","ALLEY":" ","HOUSE_NO":"２６號","E_COORD97":169229.22,"N_COORD97":2545199.3199999998,"ADDRESS":"公園北路７０巷２６號","OBJECTID":415954},"geometry":{"x":169229.22000000067,"y":2545199.3200000022}},{"attributes":{"ID":415979,"DIS_CODE":0,"TOWNNAME":"北區","LI":"興北里","LIN":"3鄰","STREET":"公園北路","SECT":" ","MAREA":" ","LANE":"７０巷","ALLEY":" ","HOUSE_NO":"２７號","E_COORD97":169189.01999999999,"N_COORD97":2545129.2999999998,"ADDRESS":"公園北路７０巷２７號","OBJECTID":415955},"geometry":{"x":169189.01999999862,"y":2545129.3000000026}},{"attributes":{"ID":415980,"DIS_CODE":0,"TOWNNAME":"北區","LI":"興北里","LIN":"3鄰","STREET":"公園北路","SECT":" ","MAREA":" ","LANE":"７０巷","ALLEY":" ","HOUSE_NO":"２８號","E_COORD97":169221.45999999999,"N_COORD97":2545197.46,"ADDRESS":"公園北路７０巷２８號","OBJECTID":415956},"geometry":{"x":169221.45999999996,"y":2545197.4600000009}},{"attributes":{"ID":415981,"DIS_CODE":0,"TOWNNAME":"北區","LI":"興北里","LIN":"3鄰","STREET":"公園北路","SECT":" ","MAREA":" ","LANE":"７０巷","ALLEY":" ","HOUSE_NO":"２９號","E_COORD97":169186.67000000001,"N_COORD97":2545131.6400000001,"ADDRESS":"公園北路７０巷２９號","OBJECTID":415957},"geometry":{"x":169186.66999999899,"y":2545131.6400000006}},{"attributes":{"ID":415982,"DIS_CODE":0,"TOWNNAME":"北區","LI":"興北里","LIN":"3鄰","STREET":"公園北路","SECT":" ","MAREA":" ","LANE":"７０巷","ALLEY":" ","HOUSE_NO":"３１號","E_COORD97":169184.47,"N_COORD97":2545134.4900000002,"ADDRESS":"公園北路７０巷３１號","OBJECTID":415958},"geometry":{"x":169184.46999999881,"y":2545134.4900000021}},{"attributes":{"ID":415983,"DIS_CODE":0,"TOWNNAME":"北區","LI":"興北里","LIN":"3鄰","STREET":"公園北路","SECT":" ","MAREA":" ","LANE":"７０巷","ALLEY":" ","HOUSE_NO":"３３號","E_COORD97":169181.76000000001,"N_COORD97":2545136.7599999998,"ADDRESS":"公園北路７０巷３３號","OBJECTID":415959},"geometry":{"x":169181.76000000071,"y":2545136.7599999998}},{"attributes":{"ID":415984,"DIS_CODE":0,"TOWNNAME":"北區","LI":"興北里","LIN":"3鄰","STREET":"公園北路","SECT":" ","MAREA":" ","LANE":"７０巷","ALLEY":" ","HOUSE_NO":"３５號","E_COORD97":169178.85000000001,"N_COORD97":2545139.3199999998,"ADDRESS":"公園北路７０巷３５號","OBJECTID":415960},"geometry":{"x":169178.85000000056,"y":2545139.3200000022}},{"attributes":{"ID":415985,"DIS_CODE":0,"TOWNNAME":"北區","LI":"興北里","LIN":"3鄰","STREET":"公園北路","SECT":" ","MAREA":" ","LANE":"７０巷","ALLEY":" ","HOUSE_NO":"４１號","E_COORD97":169171.44,"N_COORD97":2545146.9500000002,"ADDRESS":"公園北路７０巷４１號","OBJECTID":415961},"geometry":{"x":169171.44000000041,"y":2545146.9500000011}},{"attributes":{"ID":415986,"DIS_CODE":0,"TOWNNAME":"北區","LI":"興北里","LIN":"3鄰","STREET":"公園北路","SECT":" ","MAREA":" ","LANE":"７０巷","ALLEY":" ","HOUSE_NO":"４３號","E_COORD97":169168.95000000001,"N_COORD97":2545149.1499999999,"ADDRESS":"公園北路７０巷４３號","OBJECTID":415962},"geometry":{"x":169168.95000000112,"y":2545149.1500000041}},{"attributes":{"ID":415987,"DIS_CODE":0,"TOWNNAME":"北區","LI":"興北里","LIN":"3鄰","STREET":"公園北路","SECT":" ","MAREA":" ","LANE":"７０巷","ALLEY":" ","HOUSE_NO":"４５號","E_COORD97":169195.07999999999,"N_COORD97":2545151.1600000001,"ADDRESS":"公園北路７０巷４５號","OBJECTID":415963},"geometry":{"x":169195.08000000101,"y":2545151.1600000001}},{"attributes":{"ID":415988,"DIS_CODE":0,"TOWNNAME":"北區","LI":"興北里","LIN":"3鄰","STREET":"公園北路","SECT":" ","MAREA":" ","LANE":"７０巷","ALLEY":" ","HOUSE_NO":"４７號","E_COORD97":169192.45000000001,"N_COORD97":2545153.8599999999,"ADDRESS":"公園北路７０巷４７號","OBJECTID":415964},"geometry":{"x":169192.45000000112,"y":2545153.8600000013}},{"attributes":{"ID":415989,"DIS_CODE":0,"TOWNNAME":"北區","LI":"興北里","LIN":"3鄰","STREET":"公園北路","SECT":" ","MAREA":" ","LANE":"７０巷","ALLEY":" ","HOUSE_NO":"４９號","E_COORD97":169190.17000000001,"N_COORD97":2545155.7799999998,"ADDRESS":"公園北路７０巷４９號","OBJECTID":415965},"geometry":{"x":169190.17000000179,"y":2545155.7799999993}},{"attributes":{"ID":415990,"DIS_CODE":0,"TOWNNAME":"北區","LI":"興北里","LIN":"3鄰","STREET":"公園北路","SECT":" ","MAREA":" ","LANE":"７０巷","ALLEY":" ","HOUSE_NO":"５１號","E_COORD97":169187.47,"N_COORD97":2545158.6200000001,"ADDRESS":"公園北路７０巷５１號","OBJECTID":415966},"geometry":{"x":169187.46999999974,"y":2545158.620000001}},{"attributes":{"ID":415991,"DIS_CODE":0,"TOWNNAME":"北區","LI":" ","LIN":" ","STREET":"北門路","SECT":"二段","MAREA":" ","LANE":"５７６巷","ALLEY":" ","HOUSE_NO":"８號","E_COORD97":169666.48999999999,"N_COORD97":2545623.98,"ADDRESS":"北門路二段５７６巷８號","OBJECTID":415967},"geometry":{"x":169666.49000000209,"y":2545623.9800000004}},{"attributes":{"ID":415992,"DIS_CODE":0,"TOWNNAME":"北區","LI":"興北里","LIN":"3鄰","STREET":"公園北路","SECT":" ","MAREA":" ","LANE":"７０巷","ALLEY":" ","HOUSE_NO":"５３號","E_COORD97":169184.69,"N_COORD97":2545161.1800000002,"ADDRESS":"公園北路７０巷５３號","OBJECTID":415968},"geometry":{"x":169184.69000000041,"y":2545161.1799999997}},{"attributes":{"ID":415993,"DIS_CODE":0,"TOWNNAME":"北區","LI":"興北里","LIN":"3鄰","STREET":"公園北路","SECT":" ","MAREA":" ","LANE":"７０巷","ALLEY":" ","HOUSE_NO":"５５號","E_COORD97":169181.63,"N_COORD97":2545164.1000000001,"ADDRESS":"公園北路７０巷５５號","OBJECTID":415969},"geometry":{"x":169181.62999999989,"y":2545164.0999999996}},{"attributes":{"ID":415994,"DIS_CODE":0,"TOWNNAME":"北區","LI":"興北里","LIN":"3鄰","STREET":"公園北路","SECT":" ","MAREA":" ","LANE":"７０巷","ALLEY":" ","HOUSE_NO":"５７號","E_COORD97":169200.29000000001,"N_COORD97":2545177.7200000002,"ADDRESS":"公園北路７０巷５７號","OBJECTID":415970},"geometry":{"x":169200.29000000097,"y":2545177.7200000025}},{"attributes":{"ID":415995,"DIS_CODE":0,"TOWNNAME":"北區","LI":"興北里","LIN":"3鄰","STREET":"公園北路","SECT":" ","MAREA":" ","LANE":"７０巷","ALLEY":" ","HOUSE_NO":"５９號","E_COORD97":169206.97,"N_COORD97":2545184.6200000001,"ADDRESS":"公園北路７０巷５９號","OBJECTID":415971},"geometry":{"x":169206.97000000067,"y":2545184.6200000029}},{"attributes":{"ID":415996,"DIS_CODE":0,"TOWNNAME":"北區","LI":"興北里","LIN":"3鄰","STREET":"北門路","SECT":"二段","MAREA":" ","LANE":"１４１巷","ALLEY":" ","HOUSE_NO":"２５號","E_COORD97":169409.82000000001,"N_COORD97":2545215.0600000001,"ADDRESS":"北門路二段１４１巷２５號","OBJECTID":415972},"geometry":{"x":169409.81999999937,"y":2545215.0600000024}},{"attributes":{"ID":415997,"DIS_CODE":0,"TOWNNAME":"北區","LI":"興北里","LIN":"3鄰","STREET":"北門路","SECT":"二段","MAREA":" ","LANE":"１４１巷","ALLEY":" ","HOUSE_NO":"２７號","E_COORD97":169398.94,"N_COORD97":2545219.3100000001,"ADDRESS":"北門路二段１４１巷２７號","OBJECTID":415973},"geometry":{"x":169398.94000000041,"y":2545219.3099999987}},{"attributes":{"ID":415998,"DIS_CODE":0,"TOWNNAME":"北區","LI":"興北里","LIN":"3鄰","STREET":"北門路","SECT":"二段","MAREA":" ","LANE":"１４１巷","ALLEY":" ","HOUSE_NO":"２９號","E_COORD97":169393.14000000001,"N_COORD97":2545223.8399999999,"ADDRESS":"北門路二段１４１巷２９號","OBJECTID":415974},"geometry":{"x":169393.13999999966,"y":2545223.8399999999}},{"attributes":{"ID":415999,"DIS_CODE":0,"TOWNNAME":"北區","LI":"興北里","LIN":"3鄰","STREET":"北門路","SECT":"二段","MAREA":" ","LANE":"１４１巷","ALLEY":" ","HOUSE_NO":"３１號","E_COORD97":169388.16,"N_COORD97":2545225.9199999999,"ADDRESS":"北門路二段１４１巷３１號","OBJECTID":415975},"geometry":{"x":169388.16000000015,"y":2545225.9200000018}},{"attributes":{"ID":416000,"DIS_CODE":0,"TOWNNAME":"北區","LI":"興北里","LIN":"3鄰","STREET":"北門路","SECT":"二段","MAREA":" ","LANE":"１４１巷","ALLEY":" ","HOUSE_NO":"３３號","E_COORD97":169382.73000000001,"N_COORD97":2545226.46,"ADDRESS":"北門路二段１４１巷３３號","OBJECTID":415976},"geometry":{"x":169382.73000000138,"y":2545226.4600000028}},{"attributes":{"ID":416001,"DIS_CODE":0,"TOWNNAME":"北區","LI":"興北里","LIN":"3鄰","STREET":"北門路","SECT":"二段","MAREA":" ","LANE":"１４１巷","ALLEY":" ","HOUSE_NO":"３５號","E_COORD97":169378.20000000001,"N_COORD97":2545228.8199999998,"ADDRESS":"北門路二段１４１巷３５號","OBJECTID":415977},"geometry":{"x":169378.20000000019,"y":2545228.8200000003}},{"attributes":{"ID":416002,"DIS_CODE":0,"TOWNNAME":"北區","LI":"興北里","LIN":"3鄰","STREET":"北門路","SECT":"二段","MAREA":" ","LANE":"１４１巷","ALLEY":" ","HOUSE_NO":"３７號","E_COORD97":169373.29999999999,"N_COORD97":2545230.9900000002,"ADDRESS":"北門路二段１４１巷３７號","OBJECTID":415978},"geometry":{"x":169373.29999999981,"y":2545230.9900000002}},{"attributes":{"ID":416003,"DIS_CODE":0,"TOWNNAME":"北區","LI":"興北里","LIN":"3鄰","STREET":"北門路","SECT":"二段","MAREA":" ","LANE":"１４１巷","ALLEY":" ","HOUSE_NO":"３９號","E_COORD97":169368.95000000001,"N_COORD97":2545231.7999999998,"ADDRESS":"北門路二段１４１巷３９號","OBJECTID":415979},"geometry":{"x":169368.95000000112,"y":2545231.8000000007}},{"attributes":{"ID":416004,"DIS_CODE":0,"TOWNNAME":"北區","LI":"興北里","LIN":"3鄰","STREET":"北門路","SECT":"二段","MAREA":" ","LANE":"１４１巷","ALLEY":" ","HOUSE_NO":"４１號","E_COORD97":169348.87,"N_COORD97":2545245.1600000001,"ADDRESS":"北門路二段１４１巷４１號","OBJECTID":415980},"geometry":{"x":169348.87000000104,"y":2545245.160000002}},{"attributes":{"ID":416005,"DIS_CODE":0,"TOWNNAME":"北區","LI":"興北里","LIN":"3鄰","STREET":"公園北路","SECT":" ","MAREA":" ","LANE":"７０巷","ALLEY":" ","HOUSE_NO":"１１號","E_COORD97":169183.88,"N_COORD97":2545102.52,"ADDRESS":"公園北路７０巷１１號","OBJECTID":415981},"geometry":{"x":169183.88000000082,"y":2545102.5200000014}},{"attributes":{"ID":416006,"DIS_CODE":0,"TOWNNAME":"北區","LI":"興北里","LIN":"3鄰","STREET":"公園北路","SECT":" ","MAREA":" ","LANE":"７０巷","ALLEY":" ","HOUSE_NO":"１２號","E_COORD97":169209.51999999999,"N_COORD97":2545128.1499999999,"ADDRESS":"公園北路７０巷１２號","OBJECTID":415982},"geometry":{"x":169209.52000000142,"y":2545128.1500000004}},{"attributes":{"ID":416007,"DIS_CODE":0,"TOWNNAME":"北區","LI":"興北里","LIN":"3鄰","STREET":"公園北路","SECT":" ","MAREA":" ","LANE":"７０巷","ALLEY":" ","HOUSE_NO":"１４號","E_COORD97":169220.70999999999,"N_COORD97":2545192.3199999998,"ADDRESS":"公園北路７０巷１４號","OBJECTID":415983},"geometry":{"x":169220.71000000089,"y":2545192.320000004}},{"attributes":{"ID":416008,"DIS_CODE":0,"TOWNNAME":"北區","LI":"興北里","LIN":"3鄰","STREET":"公園北路","SECT":" ","MAREA":" ","LANE":"７０巷","ALLEY":" ","HOUSE_NO":"１６號","E_COORD97":169227.5,"N_COORD97":2545190.4500000002,"ADDRESS":"公園北路７０巷１６號","OBJECTID":415984},"geometry":{"x":169227.50000000093,"y":2545190.4500000011}},{"attributes":{"ID":416009,"DIS_CODE":0,"TOWNNAME":"北區","LI":"興北里","LIN":"3鄰","STREET":"公園北路","SECT":" ","MAREA":" ","LANE":"７０巷","ALLEY":" ","HOUSE_NO":"２４號","E_COORD97":169233.91,"N_COORD97":2545198.1299999999,"ADDRESS":"公園北路７０巷２４號","OBJECTID":415985},"geometry":{"x":169233.91000000015,"y":2545198.129999999}},{"attributes":{"ID":416010,"DIS_CODE":0,"TOWNNAME":"北區","LI":"興北里","LIN":"3鄰","STREET":"公園北路","SECT":" ","MAREA":" ","LANE":"７０巷","ALLEY":" ","HOUSE_NO":"３９號","E_COORD97":169173.85999999999,"N_COORD97":2545144.5299999998,"ADDRESS":"公園北路７０巷３９號","OBJECTID":415986},"geometry":{"x":169173.86000000034,"y":2545144.5299999993}},{"attributes":{"ID":416011,"DIS_CODE":0,"TOWNNAME":"北區","LI":"重興里","LIN":"3鄰","STREET":"開元路","SECT":" ","MAREA":" ","LANE":"２１２巷","ALLEY":" ","HOUSE_NO":"１３０號","E_COORD97":170470.22,"N_COORD97":2545038.1800000002,"ADDRESS":"開元路２１２巷１３０號","OBJECTID":415987},"geometry":{"x":170470.22000000067,"y":2545038.1799999997}},{"attributes":{"ID":416012,"DIS_CODE":0,"TOWNNAME":"仁德區","LI":"中生里","LIN":"7鄰","STREET":" ","SECT":" ","MAREA":"中洲","LANE":" ","ALLEY":" ","HOUSE_NO":"１４０之１５號","E_COORD97":172855.50850699999,"N_COORD97":2534138.5691999998,"ADDRESS":"中洲１４０之１５號","OBJECTID":415988},"geometry":{"x":172855.50850700121,"y":2534138.5691999979}},{"attributes":{"ID":416013,"DIS_CODE":0,"TOWNNAME":"歸仁區","LI":"六甲里","LIN":"2鄰","STREET":"中正南路","SECT":"一段","MAREA":" ","LANE":"５８７巷","ALLEY":" ","HOUSE_NO":"１號","E_COORD97":176740.74452599999,"N_COORD97":2539894.3480000002,"ADDRESS":"中正南路一段５８７巷１號","OBJECTID":415989},"geometry":{"x":176740.74452600162,"y":2539894.3479970042}},{"attributes":{"ID":416014,"DIS_CODE":0,"TOWNNAME":"歸仁區","LI":"南興里","LIN":"2鄰","STREET":"文化十二街","SECT":" ","MAREA":" ","LANE":"７６巷","ALLEY":" ","HOUSE_NO":"９號","E_COORD97":176505.98999999999,"N_COORD97":2541341.3300000001,"ADDRESS":"文化十二街７６巷９號","OBJECTID":415990},"geometry":{"x":176505.99000000022,"y":2541341.3300000019}},{"attributes":{"ID":416015,"DIS_CODE":0,"TOWNNAME":"歸仁區","LI":"大廟里","LIN":"2鄰","STREET":"大廟三街","SECT":" ","MAREA":" ","LANE":"２０巷","ALLEY":" ","HOUSE_NO":"４３號","E_COORD97":176070.29999999999,"N_COORD97":2543949.1699999999,"ADDRESS":"大廟三街２０巷４３號","OBJECTID":415991},"geometry":{"x":176070.30000000075,"y":2543949.1700000018}},{"attributes":{"ID":416016,"DIS_CODE":0,"TOWNNAME":"東區","LI":"大同里","LIN":"5鄰","STREET":"府東街","SECT":" ","MAREA":" ","LANE":"２５９巷","ALLEY":" ","HOUSE_NO":"６號","E_COORD97":169231.48999999999,"N_COORD97":2543103.4700000002,"ADDRESS":"府東街２５９巷６號","OBJECTID":415992},"geometry":{"x":169231.49000000115,"y":2543103.4700000025}},{"attributes":{"ID":416017,"DIS_CODE":0,"TOWNNAME":"東區","LI":"大同里","LIN":"5鄰","STREET":"府東街","SECT":" ","MAREA":" ","LANE":"２５９巷","ALLEY":" ","HOUSE_NO":"８號","E_COORD97":169240.56,"N_COORD97":2543098.5499999998,"ADDRESS":"府東街２５９巷８號","OBJECTID":415993},"geometry":{"x":169240.56000000052,"y":2543098.5500000007}},{"attributes":{"ID":416018,"DIS_CODE":0,"TOWNNAME":"南區","LI":"永寧里","LIN":"2鄰","STREET":"灣裡路","SECT":" ","MAREA":" ","LANE":"８８巷","ALLEY":" ","HOUSE_NO":"１２７號","E_COORD97":165892.09,"N_COORD97":2536585.54,"ADDRESS":"灣裡路８８巷１２７號","OBJECTID":415994},"geometry":{"x":165892.09000000078,"y":2536585.540000001}},{"attributes":{"ID":416019,"DIS_CODE":0,"TOWNNAME":"南區","LI":"永寧里","LIN":"2鄰","STREET":"灣裡路","SECT":" ","MAREA":" ","LANE":"８８巷","ALLEY":" ","HOUSE_NO":"１３１號","E_COORD97":165894.54999999999,"N_COORD97":2536568.7000000002,"ADDRESS":"灣裡路８８巷１３１號","OBJECTID":415995},"geometry":{"x":165894.55000000075,"y":2536568.6999999993}},{"attributes":{"ID":416020,"DIS_CODE":0,"TOWNNAME":"南區","LI":"永寧里","LIN":"2鄰","STREET":"灣裡路","SECT":" ","MAREA":" ","LANE":"１８６巷","ALLEY":" ","HOUSE_NO":"１０號","E_COORD97":166008.60999999999,"N_COORD97":2536611.7400000002,"ADDRESS":"灣裡路１８６巷１０號","OBJECTID":415996},"geometry":{"x":166008.61000000034,"y":2536611.7400000039}},{"attributes":{"ID":416021,"DIS_CODE":0,"TOWNNAME":"南區","LI":"永寧里","LIN":"2鄰","STREET":"灣裡路","SECT":" ","MAREA":" ","LANE":"１８６巷","ALLEY":" ","HOUSE_NO":"１２號","E_COORD97":166011.22,"N_COORD97":2536624.5099999998,"ADDRESS":"灣裡路１８６巷１２號","OBJECTID":415997},"geometry":{"x":166011.2200000016,"y":2536624.5099999998}},{"attributes":{"ID":416022,"DIS_CODE":0,"TOWNNAME":"北區","LI":"文成里","LIN":"13鄰","STREET":"海安路","SECT":"三段","MAREA":" ","LANE":" ","ALLEY":" ","HOUSE_NO":"３０３號","E_COORD97":167962.45999999999,"N_COORD97":2545406.27,"ADDRESS":"海安路三段３０３號","OBJECTID":415998},"geometry":{"x":167962.45999999996,"y":2545406.2700000014}},{"attributes":{"ID":416023,"DIS_CODE":0,"TOWNNAME":"南區","LI":"永寧里","LIN":"2鄰","STREET":"灣裡路","SECT":" ","MAREA":" ","LANE":"１８６巷","ALLEY":" ","HOUSE_NO":"１２號之１","E_COORD97":166010.82000000001,"N_COORD97":2536634.8700000001,"ADDRESS":"灣裡路１８６巷１２號之１","OBJECTID":415999},"geometry":{"x":166010.8200000003,"y":2536634.870000001}},{"attributes":{"ID":416024,"DIS_CODE":0,"TOWNNAME":"南區","LI":"永寧里","LIN":"2鄰","STREET":"灣裡路","SECT":" ","MAREA":" ","LANE":"１８６巷","ALLEY":" ","HOUSE_NO":"１８之１號","E_COORD97":165999.29999999999,"N_COORD97":2536601.1800000002,"ADDRESS":"灣裡路１８６巷１８之１號","OBJECTID":416000},"geometry":{"x":165999.30000000075,"y":2536601.1800000034}}]}