{"displayFieldName":"TOWNNAME","fieldAliases":{"ID":"ID","DIS_CODE":"DIS_CODE","TOWNNAME":"TOWNNAME","LI":"LI","LIN":"LIN","STREET":"STREET","SECT":"SECT","MAREA":"MAREA","LANE":"LANE","ALLEY":"ALLEY","HOUSE_NO":"HOUSE_NO","E_COORD97":"E_COORD97","N_COORD97":"N_COORD97","ADDRESS":"ADDRESS","OBJECTID":"OBJECTID"},"geometryType":"esriGeometryPoint","spatialReference":{"wkid":102443,"latestWkid":3826},"fields":[{"name":"ID","type":"esriFieldTypeDouble","alias":"ID"},{"name":"DIS_CODE","type":"esriFieldTypeInteger","alias":"DIS_CODE"},{"name":"TOWNNAME","type":"esriFieldTypeString","alias":"TOWNNAME","length":8},{"name":"LI","type":"esriFieldTypeString","alias":"LI","length":8},{"name":"LIN","type":"esriFieldTypeString","alias":"LIN","length":12},{"name":"STREET","type":"esriFieldTypeString","alias":"STREET","length":20},{"name":"SECT","type":"esriFieldTypeString","alias":"SECT","length":8},{"name":"MAREA","type":"esriFieldTypeString","alias":"MAREA","length":12},{"name":"LANE","type":"esriFieldTypeString","alias":"LANE","length":10},{"name":"ALLEY","type":"esriFieldTypeString","alias":"ALLEY","length":10},{"name":"HOUSE_NO","type":"esriFieldTypeString","alias":"HOUSE_NO","length":20},{"name":"E_COORD97","type":"esriFieldTypeDouble","alias":"E_COORD97"},{"name":"N_COORD97","type":"esriFieldTypeDouble","alias":"N_COORD97"},{"name":"ADDRESS","type":"esriFieldTypeString","alias":"ADDRESS","length":50},{"name":"OBJECTID","type":"esriFieldTypeOID","alias":"OBJECTID"}],"features":[{"attributes":{"ID":354210,"DIS_CODE":0,"TOWNNAME":"永康區","LI":"大灣里","LIN":"20鄰","STREET":"大灣五街","SECT":" ","MAREA":" ","LANE":"３９巷","ALLEY":" ","HOUSE_NO":"２１號","E_COORD97":174694.42999999999,"N_COORD97":2545110.7400000002,"ADDRESS":"大灣五街３９巷２１號","OBJECTID":354201},"geometry":{"x":174694.43000000063,"y":2545110.7400000002}},{"attributes":{"ID":354211,"DIS_CODE":0,"TOWNNAME":"中西區","LI":"西湖里","LIN":"20鄰","STREET":"湖美街","SECT":" ","MAREA":" ","LANE":"１２巷","ALLEY":" ","HOUSE_NO":"６號","E_COORD97":165978.42999999999,"N_COORD97":2544456.3900000001,"ADDRESS":"湖美街１２巷６號","OBJECTID":354202},"geometry":{"x":165978.4299999997,"y":2544456.3900000043}},{"attributes":{"ID":354212,"DIS_CODE":0,"TOWNNAME":"中西區","LI":"西湖里","LIN":"20鄰","STREET":"湖美街","SECT":" ","MAREA":" ","LANE":"１２巷","ALLEY":" ","HOUSE_NO":"７號","E_COORD97":165981.64000000001,"N_COORD97":2544483.8999999999,"ADDRESS":"湖美街１２巷７號","OBJECTID":354203},"geometry":{"x":165981.6400000006,"y":2544483.9000000022}},{"attributes":{"ID":354213,"DIS_CODE":0,"TOWNNAME":"中西區","LI":"西湖里","LIN":"20鄰","STREET":"湖美街","SECT":" ","MAREA":" ","LANE":"１２巷","ALLEY":" ","HOUSE_NO":"８號","E_COORD97":165982.70999999999,"N_COORD97":2544455.0499999998,"ADDRESS":"湖美街１２巷８號","OBJECTID":354204},"geometry":{"x":165982.71000000183,"y":2544455.0499999989}},{"attributes":{"ID":354214,"DIS_CODE":0,"TOWNNAME":"永康區","LI":"大橋里","LIN":"8鄰","STREET":"大橋三街","SECT":" ","MAREA":" ","LANE":" ","ALLEY":" ","HOUSE_NO":"２５３號之３二樓","E_COORD97":170996.87,"N_COORD97":2546885.75,"ADDRESS":"大橋三街２５３號之３二樓","OBJECTID":354205},"geometry":{"x":170996.87000000104,"y":2546885.75}},{"attributes":{"ID":354215,"DIS_CODE":0,"TOWNNAME":"善化區","LI":"小新里","LIN":"20鄰","STREET":" ","SECT":" ","MAREA":"小新營","LANE":" ","ALLEY":" ","HOUSE_NO":"３４６號之１","E_COORD97":180216.45000000001,"N_COORD97":2557620.4700000002,"ADDRESS":"小新營３４６號之１","OBJECTID":354206},"geometry":{"x":180216.45000000112,"y":2557620.4700000044}},{"attributes":{"ID":354216,"DIS_CODE":0,"TOWNNAME":"善化區","LI":"小新里","LIN":"20鄰","STREET":" ","SECT":" ","MAREA":"小新營","LANE":" ","ALLEY":" ","HOUSE_NO":"３６０號","E_COORD97":180210.67999999999,"N_COORD97":2557367.4500000002,"ADDRESS":"小新營３６０號","OBJECTID":354207},"geometry":{"x":180210.68000000063,"y":2557367.4499999993}},{"attributes":{"ID":354217,"DIS_CODE":0,"TOWNNAME":"永康區","LI":"大橋里","LIN":"8鄰","STREET":"大橋三街","SECT":" ","MAREA":" ","LANE":" ","ALLEY":" ","HOUSE_NO":"２５３號之４六樓","E_COORD97":171002.31,"N_COORD97":2546889,"ADDRESS":"大橋三街２５３號之４六樓","OBJECTID":354208},"geometry":{"x":171002.30999999959,"y":2546889.0000000037}},{"attributes":{"ID":354218,"DIS_CODE":0,"TOWNNAME":"善化區","LI":"小新里","LIN":"20鄰","STREET":" ","SECT":" ","MAREA":"小新營","LANE":" ","ALLEY":" ","HOUSE_NO":"３６２號之１","E_COORD97":180246.92999999999,"N_COORD97":2557311.5899999999,"ADDRESS":"小新營３６２號之１","OBJECTID":354209},"geometry":{"x":180246.9299999997,"y":2557311.5900000017}},{"attributes":{"ID":354219,"DIS_CODE":0,"TOWNNAME":"善化區","LI":"小新里","LIN":"20鄰","STREET":" ","SECT":" ","MAREA":"小新營","LANE":" ","ALLEY":" ","HOUSE_NO":"１６５號之２３","E_COORD97":180119.62,"N_COORD97":2558238.8799999999,"ADDRESS":"小新營１６５號之２３","OBJECTID":354210},"geometry":{"x":180119.62000000197,"y":2558238.879999999}},{"attributes":{"ID":354220,"DIS_CODE":0,"TOWNNAME":"善化區","LI":"小新里","LIN":"20鄰","STREET":" ","SECT":" ","MAREA":"小新營","LANE":" ","ALLEY":" ","HOUSE_NO":"１６６號之１３","E_COORD97":180101.98000000001,"N_COORD97":2558255.23,"ADDRESS":"小新營１６６號之１３","OBJECTID":354211},"geometry":{"x":180101.98000000045,"y":2558255.2300000004}},{"attributes":{"ID":354221,"DIS_CODE":0,"TOWNNAME":"善化區","LI":"小新里","LIN":"20鄰","STREET":" ","SECT":" ","MAREA":"小新營","LANE":" ","ALLEY":" ","HOUSE_NO":"４００號","E_COORD97":180194.53707600001,"N_COORD97":2556496.59944,"ADDRESS":"小新營４００號","OBJECTID":354212},"geometry":{"x":180194.53707600106,"y":2556496.5994440001}},{"attributes":{"ID":354222,"DIS_CODE":0,"TOWNNAME":"善化區","LI":"小新里","LIN":"20鄰","STREET":" ","SECT":" ","MAREA":"小新營","LANE":" ","ALLEY":" ","HOUSE_NO":"４０２號","E_COORD97":180194.11345,"N_COORD97":2556486.8627800001,"ADDRESS":"小新營４０２號","OBJECTID":354213},"geometry":{"x":180194.11345000006,"y":2556486.8627819996}},{"attributes":{"ID":354223,"DIS_CODE":0,"TOWNNAME":"善化區","LI":"小新里","LIN":"20鄰","STREET":" ","SECT":" ","MAREA":"小新營","LANE":" ","ALLEY":" ","HOUSE_NO":"３３８之１號","E_COORD97":180247.07999999999,"N_COORD97":2557998.3799999999,"ADDRESS":"小新營３３８之１號","OBJECTID":354214},"geometry":{"x":180247.08000000194,"y":2557998.379999999}},{"attributes":{"ID":354224,"DIS_CODE":0,"TOWNNAME":"善化區","LI":"小新里","LIN":"20鄰","STREET":" ","SECT":" ","MAREA":"小新營","LANE":" ","ALLEY":" ","HOUSE_NO":"３９０號","E_COORD97":180260.79999999999,"N_COORD97":2557036.8100000001,"ADDRESS":"小新營３９０號","OBJECTID":354215},"geometry":{"x":180260.80000000075,"y":2557036.8100000005}},{"attributes":{"ID":354225,"DIS_CODE":0,"TOWNNAME":"永康區","LI":"大橋里","LIN":"8鄰","STREET":"大橋三街","SECT":" ","MAREA":" ","LANE":" ","ALLEY":" ","HOUSE_NO":"２５３號之２四樓","E_COORD97":171005.84,"N_COORD97":2546884.9500000002,"ADDRESS":"大橋三街２５３號之２四樓","OBJECTID":354216},"geometry":{"x":171005.83999999985,"y":2546884.9499999993}},{"attributes":{"ID":354226,"DIS_CODE":0,"TOWNNAME":"永康區","LI":"二王里","LIN":"8鄰","STREET":"二王路","SECT":" ","MAREA":" ","LANE":" ","ALLEY":" ","HOUSE_NO":"１２號十一樓之３","E_COORD97":172966.69,"N_COORD97":2546841.48,"ADDRESS":"二王路１２號十一樓之３","OBJECTID":354217},"geometry":{"x":172966.69000000041,"y":2546841.4800000004}},{"attributes":{"ID":354227,"DIS_CODE":0,"TOWNNAME":"永康區","LI":"大橋里","LIN":"8鄰","STREET":"大橋三街","SECT":" ","MAREA":" ","LANE":" ","ALLEY":" ","HOUSE_NO":"２５３號之４二樓","E_COORD97":171002.31,"N_COORD97":2546889,"ADDRESS":"大橋三街２５３號之４二樓","OBJECTID":354218},"geometry":{"x":171002.30999999959,"y":2546889.0000000037}},{"attributes":{"ID":354228,"DIS_CODE":0,"TOWNNAME":"永康區","LI":"大橋里","LIN":"8鄰","STREET":"大橋三街","SECT":" ","MAREA":" ","LANE":" ","ALLEY":" ","HOUSE_NO":"２５３號之８五樓","E_COORD97":171020.37,"N_COORD97":2546880.75,"ADDRESS":"大橋三街２５３號之８五樓","OBJECTID":354219},"geometry":{"x":171020.37000000104,"y":2546880.7500000037}},{"attributes":{"ID":354229,"DIS_CODE":0,"TOWNNAME":"中西區","LI":"開山里","LIN":"20鄰","STREET":"開山路","SECT":" ","MAREA":" ","LANE":"２３５巷","ALLEY":" ","HOUSE_NO":"１１號","E_COORD97":169015.70000000001,"N_COORD97":2543019.5699999998,"ADDRESS":"開山路２３５巷１１號","OBJECTID":354220},"geometry":{"x":169015.70000000205,"y":2543019.5700000003}},{"attributes":{"ID":354230,"DIS_CODE":0,"TOWNNAME":"南區","LI":"喜北里","LIN":"6鄰","STREET":"喜樹路","SECT":" ","MAREA":" ","LANE":"９６巷","ALLEY":" ","HOUSE_NO":"２８號","E_COORD97":165770.38,"N_COORD97":2538420.25,"ADDRESS":"喜樹路９６巷２８號","OBJECTID":354221},"geometry":{"x":165770.38000000082,"y":2538420.25}},{"attributes":{"ID":354231,"DIS_CODE":0,"TOWNNAME":"南區","LI":"喜北里","LIN":"6鄰","STREET":"喜樹路","SECT":" ","MAREA":" ","LANE":"９６巷","ALLEY":" ","HOUSE_NO":"３０號","E_COORD97":165765.03,"N_COORD97":2538420.4500000002,"ADDRESS":"喜樹路９６巷３０號","OBJECTID":354222},"geometry":{"x":165765.03000000026,"y":2538420.4500000011}},{"attributes":{"ID":354232,"DIS_CODE":0,"TOWNNAME":"南區","LI":"喜北里","LIN":"6鄰","STREET":"喜樹路","SECT":" ","MAREA":" ","LANE":"９６巷","ALLEY":" ","HOUSE_NO":"３２號","E_COORD97":165759.01000000001,"N_COORD97":2538420.5800000001,"ADDRESS":"喜樹路９６巷３２號","OBJECTID":354223},"geometry":{"x":165759.01000000071,"y":2538420.5800000019}},{"attributes":{"ID":354233,"DIS_CODE":0,"TOWNNAME":"南區","LI":"喜北里","LIN":"6鄰","STREET":"喜樹路","SECT":" ","MAREA":" ","LANE":"９６巷","ALLEY":" ","HOUSE_NO":"３４號","E_COORD97":165753.57999999999,"N_COORD97":2538420.25,"ADDRESS":"喜樹路９６巷３４號","OBJECTID":354224},"geometry":{"x":165753.58000000101,"y":2538420.25}},{"attributes":{"ID":354234,"DIS_CODE":0,"TOWNNAME":"新市區","LI":"大社里","LIN":"20鄰","STREET":" ","SECT":" ","MAREA":"大社","LANE":" ","ALLEY":" ","HOUSE_NO":"７９０號","E_COORD97":179895.73999999999,"N_COORD97":2554190.25,"ADDRESS":"大社７９０號","OBJECTID":354225},"geometry":{"x":179895.74000000115,"y":2554190.2500000037}},{"attributes":{"ID":354235,"DIS_CODE":0,"TOWNNAME":"新市區","LI":"大營里","LIN":"20鄰","STREET":" ","SECT":" ","MAREA":"豐榮","LANE":" ","ALLEY":" ","HOUSE_NO":"５９之１３號","E_COORD97":178806.62,"N_COORD97":2554178.7999999998,"ADDRESS":"豐榮５９之１３號","OBJECTID":354226},"geometry":{"x":178806.62000000104,"y":2554178.8000000026}},{"attributes":{"ID":354236,"DIS_CODE":0,"TOWNNAME":"新市區","LI":"大營里","LIN":"20鄰","STREET":" ","SECT":" ","MAREA":"豐榮","LANE":" ","ALLEY":" ","HOUSE_NO":"５２之９號","E_COORD97":178807.98999999999,"N_COORD97":2554203.5499999998,"ADDRESS":"豐榮５２之９號","OBJECTID":354227},"geometry":{"x":178807.99000000022,"y":2554203.5500000026}},{"attributes":{"ID":354237,"DIS_CODE":0,"TOWNNAME":"新市區","LI":"大營里","LIN":"20鄰","STREET":" ","SECT":" ","MAREA":"豐榮","LANE":" ","ALLEY":" ","HOUSE_NO":"５９之１７號","E_COORD97":178823.64999999999,"N_COORD97":2554183.0499999998,"ADDRESS":"豐榮５９之１７號","OBJECTID":354228},"geometry":{"x":178823.6500000013,"y":2554183.0500000026}},{"attributes":{"ID":354238,"DIS_CODE":0,"TOWNNAME":"北門區","LI":"玉港里","LIN":"20鄰","STREET":" ","SECT":" ","MAREA":"西埔內","LANE":" ","ALLEY":" ","HOUSE_NO":"５４號之５","E_COORD97":162349.84,"N_COORD97":2574772.4700000002,"ADDRESS":"西埔內５４號之５","OBJECTID":354229},"geometry":{"x":162349.83999999985,"y":2574772.4700000044}},{"attributes":{"ID":354239,"DIS_CODE":0,"TOWNNAME":"北門區","LI":"玉港里","LIN":"20鄰","STREET":" ","SECT":" ","MAREA":"西埔內","LANE":" ","ALLEY":" ","HOUSE_NO":"５４號","E_COORD97":162042.54000000001,"N_COORD97":2574102.7400000002,"ADDRESS":"西埔內５４號","OBJECTID":354230},"geometry":{"x":162042.5400000019,"y":2574102.7400000021}},{"attributes":{"ID":354240,"DIS_CODE":0,"TOWNNAME":"北門區","LI":"玉港里","LIN":"20鄰","STREET":" ","SECT":" ","MAREA":"西埔內","LANE":" ","ALLEY":" ","HOUSE_NO":"５７號","E_COORD97":162052.51000000001,"N_COORD97":2574084.77,"ADDRESS":"西埔內５７號","OBJECTID":354231},"geometry":{"x":162052.50999999978,"y":2574084.7700000014}},{"attributes":{"ID":354241,"DIS_CODE":0,"TOWNNAME":"北門區","LI":"玉港里","LIN":"20鄰","STREET":" ","SECT":" ","MAREA":"西埔內","LANE":" ","ALLEY":" ","HOUSE_NO":"５９號","E_COORD97":162043.78,"N_COORD97":2574059.5,"ADDRESS":"西埔內５９號","OBJECTID":354232},"geometry":{"x":162043.78000000026,"y":2574059.5000000037}},{"attributes":{"ID":354242,"DIS_CODE":0,"TOWNNAME":"北門區","LI":"保吉里","LIN":"20鄰","STREET":" ","SECT":" ","MAREA":"蚵寮","LANE":" ","ALLEY":" ","HOUSE_NO":"４４７號","E_COORD97":161586.39000000001,"N_COORD97":2576356.96,"ADDRESS":"蚵寮４４７號","OBJECTID":354233},"geometry":{"x":161586.38999999966,"y":2576356.9600000028}},{"attributes":{"ID":354243,"DIS_CODE":0,"TOWNNAME":"北門區","LI":"保吉里","LIN":"20鄰","STREET":" ","SECT":" ","MAREA":"蚵寮","LANE":" ","ALLEY":" ","HOUSE_NO":"４４９號","E_COORD97":161595.54999999999,"N_COORD97":2576333.98,"ADDRESS":"蚵寮４４９號","OBJECTID":354234},"geometry":{"x":161595.55000000075,"y":2576333.9800000004}},{"attributes":{"ID":354244,"DIS_CODE":0,"TOWNNAME":"北門區","LI":"保吉里","LIN":"20鄰","STREET":" ","SECT":" ","MAREA":"蚵寮","LANE":" ","ALLEY":" ","HOUSE_NO":"４５０號","E_COORD97":161591.14999999999,"N_COORD97":2576332.8399999999,"ADDRESS":"蚵寮４５０號","OBJECTID":354235},"geometry":{"x":161591.14999999944,"y":2576332.8400000017}},{"attributes":{"ID":354245,"DIS_CODE":0,"TOWNNAME":"北門區","LI":"保吉里","LIN":"20鄰","STREET":" ","SECT":" ","MAREA":"蚵寮","LANE":" ","ALLEY":" ","HOUSE_NO":"４５１號","E_COORD97":161582.45000000001,"N_COORD97":2576339.7599999998,"ADDRESS":"蚵寮４５１號","OBJECTID":354236},"geometry":{"x":161582.45000000112,"y":2576339.7600000016}},{"attributes":{"ID":354246,"DIS_CODE":0,"TOWNNAME":"北門區","LI":"保吉里","LIN":"20鄰","STREET":" ","SECT":" ","MAREA":"蚵寮","LANE":" ","ALLEY":" ","HOUSE_NO":"４５２號","E_COORD97":161577.66,"N_COORD97":2576351.7400000002,"ADDRESS":"蚵寮４５２號","OBJECTID":354237},"geometry":{"x":161577.66000000108,"y":2576351.7400000021}},{"attributes":{"ID":354247,"DIS_CODE":0,"TOWNNAME":"南區","LI":"喜北里","LIN":"6鄰","STREET":"喜樹路","SECT":" ","MAREA":" ","LANE":"９６巷","ALLEY":" ","HOUSE_NO":"３６號","E_COORD97":165748.23000000001,"N_COORD97":2538420.1800000002,"ADDRESS":"喜樹路９６巷３６號","OBJECTID":354238},"geometry":{"x":165748.23000000138,"y":2538420.1799999997}},{"attributes":{"ID":354248,"DIS_CODE":0,"TOWNNAME":"永康區","LI":"二王里","LIN":"8鄰","STREET":"二王路","SECT":" ","MAREA":" ","LANE":" ","ALLEY":" ","HOUSE_NO":"１２號十樓之３","E_COORD97":172965.44,"N_COORD97":2546841.48,"ADDRESS":"二王路１２號十樓之３","OBJECTID":354239},"geometry":{"x":172965.44000000041,"y":2546841.4800000004}},{"attributes":{"ID":354249,"DIS_CODE":0,"TOWNNAME":"東區","LI":"忠孝里","LIN":"20鄰","STREET":"崇明路","SECT":" ","MAREA":" ","LANE":"２６６巷","ALLEY":" ","HOUSE_NO":"３０號","E_COORD97":169913.54000000001,"N_COORD97":2542020.6899999999,"ADDRESS":"崇明路２６６巷３０號","OBJECTID":354240},"geometry":{"x":169913.54000000097,"y":2542020.6899999995}},{"attributes":{"ID":354250,"DIS_CODE":0,"TOWNNAME":"東區","LI":"忠孝里","LIN":"20鄰","STREET":"崇明路","SECT":" ","MAREA":" ","LANE":"２６６巷","ALLEY":" ","HOUSE_NO":"３４號","E_COORD97":169918.53,"N_COORD97":2542012.3900000001,"ADDRESS":"崇明路２６６巷３４號","OBJECTID":354241},"geometry":{"x":169918.53000000026,"y":2542012.3900000025}},{"attributes":{"ID":354251,"DIS_CODE":0,"TOWNNAME":"東區","LI":"忠孝里","LIN":"20鄰","STREET":"崇明路","SECT":" ","MAREA":" ","LANE":"２６６巷","ALLEY":" ","HOUSE_NO":"３６號","E_COORD97":169920.60999999999,"N_COORD97":2542007.2000000002,"ADDRESS":"崇明路２６６巷３６號","OBJECTID":354242},"geometry":{"x":169920.61000000127,"y":2542007.1999999993}},{"attributes":{"ID":354252,"DIS_CODE":0,"TOWNNAME":"南區","LI":"喜北里","LIN":"6鄰","STREET":"喜樹路","SECT":" ","MAREA":" ","LANE":"９６巷","ALLEY":" ","HOUSE_NO":"３８號","E_COORD97":165742.87,"N_COORD97":2538420.3799999999,"ADDRESS":"喜樹路９６巷３８號","OBJECTID":354243},"geometry":{"x":165742.87000000104,"y":2538420.3800000008}},{"attributes":{"ID":354253,"DIS_CODE":0,"TOWNNAME":"南區","LI":"喜北里","LIN":"6鄰","STREET":"喜樹路","SECT":" ","MAREA":" ","LANE":"９６巷","ALLEY":" ","HOUSE_NO":"４０號","E_COORD97":165737.17999999999,"N_COORD97":2538420.3799999999,"ADDRESS":"喜樹路９６巷４０號","OBJECTID":354244},"geometry":{"x":165737.18000000063,"y":2538420.3800000008}},{"attributes":{"ID":354254,"DIS_CODE":0,"TOWNNAME":"南區","LI":"喜北里","LIN":"6鄰","STREET":"喜樹路","SECT":" ","MAREA":" ","LANE":"９６巷","ALLEY":" ","HOUSE_NO":"４２號","E_COORD97":165731.69,"N_COORD97":2538420.5800000001,"ADDRESS":"喜樹路９６巷４２號","OBJECTID":354245},"geometry":{"x":165731.69000000041,"y":2538420.5800000019}},{"attributes":{"ID":354255,"DIS_CODE":0,"TOWNNAME":"南區","LI":"喜東里","LIN":"6鄰","STREET":"喜樹路","SECT":" ","MAREA":" ","LANE":"１１５巷","ALLEY":" ","HOUSE_NO":"１號","E_COORD97":165913.39000000001,"N_COORD97":2538251.2400000002,"ADDRESS":"喜樹路１１５巷１號","OBJECTID":354246},"geometry":{"x":165913.39000000153,"y":2538251.2400000002}},{"attributes":{"ID":354256,"DIS_CODE":0,"TOWNNAME":"南區","LI":"喜東里","LIN":"6鄰","STREET":"喜樹路","SECT":" ","MAREA":" ","LANE":"１１５巷","ALLEY":" ","HOUSE_NO":"２號","E_COORD97":165912.67000000001,"N_COORD97":2538235.9300000002,"ADDRESS":"喜樹路１１５巷２號","OBJECTID":354247},"geometry":{"x":165912.66999999993,"y":2538235.9299999997}},{"attributes":{"ID":354257,"DIS_CODE":0,"TOWNNAME":"南區","LI":"喜南里","LIN":"6鄰","STREET":"喜樹路","SECT":" ","MAREA":" ","LANE":"３４０巷","ALLEY":" ","HOUSE_NO":"７６號","E_COORD97":165593.82000000001,"N_COORD97":2537729.9300000002,"ADDRESS":"喜樹路３４０巷７６號","OBJECTID":354248},"geometry":{"x":165593.8200000003,"y":2537729.9300000016}},{"attributes":{"ID":354258,"DIS_CODE":0,"TOWNNAME":"南區","LI":"喜南里","LIN":"6鄰","STREET":"喜樹路","SECT":" ","MAREA":" ","LANE":"３４０巷","ALLEY":" ","HOUSE_NO":"７８號","E_COORD97":165556.28,"N_COORD97":2537706.46,"ADDRESS":"喜樹路３４０巷７８號","OBJECTID":354249},"geometry":{"x":165556.28000000026,"y":2537706.4600000028}},{"attributes":{"ID":354259,"DIS_CODE":0,"TOWNNAME":"南區","LI":"喜南里","LIN":"6鄰","STREET":"喜樹路","SECT":" ","MAREA":" ","LANE":"３４０巷","ALLEY":" ","HOUSE_NO":"８０號","E_COORD97":165559.57999999999,"N_COORD97":2537709.4300000002,"ADDRESS":"喜樹路３４０巷８０號","OBJECTID":354250},"geometry":{"x":165559.58000000007,"y":2537709.4300000016}},{"attributes":{"ID":354260,"DIS_CODE":0,"TOWNNAME":"南區","LI":"喜南里","LIN":"6鄰","STREET":"喜樹路","SECT":" ","MAREA":" ","LANE":"３４０巷","ALLEY":" ","HOUSE_NO":"８２號","E_COORD97":165571.12,"N_COORD97":2537722.1200000001,"ADDRESS":"喜樹路３４０巷８２號","OBJECTID":354251},"geometry":{"x":165571.12000000011,"y":2537722.1200000029}},{"attributes":{"ID":354261,"DIS_CODE":0,"TOWNNAME":"中西區","LI":"普濟里","LIN":"8鄰","STREET":"西門路","SECT":"二段","MAREA":" ","LANE":" ","ALLEY":" ","HOUSE_NO":"３８９號七樓","E_COORD97":168024.01999999999,"N_COORD97":2544361.71,"ADDRESS":"西門路二段３８９號七樓","OBJECTID":354252},"geometry":{"x":168024.01999999955,"y":2544361.7100000009}},{"attributes":{"ID":354262,"DIS_CODE":0,"TOWNNAME":"中西區","LI":"普濟里","LIN":"8鄰","STREET":"西門路","SECT":"二段","MAREA":" ","LANE":" ","ALLEY":" ","HOUSE_NO":"３８９號九樓","E_COORD97":168024.01999999999,"N_COORD97":2544361.71,"ADDRESS":"西門路二段３８９號九樓","OBJECTID":354253},"geometry":{"x":168024.01999999955,"y":2544361.7100000009}},{"attributes":{"ID":354263,"DIS_CODE":0,"TOWNNAME":"中西區","LI":"普濟里","LIN":"8鄰","STREET":"西門路","SECT":"二段","MAREA":" ","LANE":" ","ALLEY":" ","HOUSE_NO":"３８９號二樓","E_COORD97":168024.01999999999,"N_COORD97":2544361.71,"ADDRESS":"西門路二段３８９號二樓","OBJECTID":354254},"geometry":{"x":168024.01999999955,"y":2544361.7100000009}},{"attributes":{"ID":354264,"DIS_CODE":0,"TOWNNAME":"永康區","LI":"勝利里","LIN":"20鄰","STREET":"勝華街","SECT":" ","MAREA":" ","LANE":"１４０巷","ALLEY":" ","HOUSE_NO":"１５號","E_COORD97":171220.94,"N_COORD97":2545283.0099999998,"ADDRESS":"勝華街１４０巷１５號","OBJECTID":354255},"geometry":{"x":171220.94000000041,"y":2545283.0100000016}},{"attributes":{"ID":354265,"DIS_CODE":0,"TOWNNAME":"官田區","LI":"湖山里","LIN":"20鄰","STREET":" ","SECT":" ","MAREA":"烏山頭","LANE":" ","ALLEY":" ","HOUSE_NO":"１２７號","E_COORD97":183414.95999999999,"N_COORD97":2567552.2400000002,"ADDRESS":"烏山頭１２７號","OBJECTID":354256},"geometry":{"x":183414.96000000089,"y":2567552.2400000039}},{"attributes":{"ID":354266,"DIS_CODE":0,"TOWNNAME":"官田區","LI":"湖山里","LIN":"20鄰","STREET":" ","SECT":" ","MAREA":"烏山頭","LANE":" ","ALLEY":" ","HOUSE_NO":"１２８號之１","E_COORD97":183448.32999999999,"N_COORD97":2567580.9199999999,"ADDRESS":"烏山頭１２８號之１","OBJECTID":354257},"geometry":{"x":183448.33000000101,"y":2567580.9199999981}},{"attributes":{"ID":354267,"DIS_CODE":0,"TOWNNAME":"官田區","LI":"湖山里","LIN":"20鄰","STREET":" ","SECT":" ","MAREA":"烏山頭","LANE":" ","ALLEY":" ","HOUSE_NO":"１２８號之２","E_COORD97":183423.06,"N_COORD97":2567571.1200000001,"ADDRESS":"烏山頭１２８號之２","OBJECTID":354258},"geometry":{"x":183423.05999999959,"y":2567571.1200000029}},{"attributes":{"ID":354268,"DIS_CODE":0,"TOWNNAME":"官田區","LI":"湖山里","LIN":"20鄰","STREET":" ","SECT":" ","MAREA":"烏山頭","LANE":" ","ALLEY":" ","HOUSE_NO":"１３０號","E_COORD97":183452.82999999999,"N_COORD97":2567559.27,"ADDRESS":"烏山頭１３０號","OBJECTID":354259},"geometry":{"x":183452.83000000101,"y":2567559.2700000014}},{"attributes":{"ID":354269,"DIS_CODE":0,"TOWNNAME":"永康區","LI":"勝利里","LIN":"20鄰","STREET":"勝華街","SECT":" ","MAREA":" ","LANE":"１４０巷","ALLEY":" ","HOUSE_NO":"７號","E_COORD97":171220.44,"N_COORD97":2545254.75,"ADDRESS":"勝華街１４０巷７號","OBJECTID":354260},"geometry":{"x":171220.44000000134,"y":2545254.7500000019}},{"attributes":{"ID":354270,"DIS_CODE":0,"TOWNNAME":"白河區","LI":"永安里","LIN":"20鄰","STREET":"中正路","SECT":" ","MAREA":" ","LANE":"１２４巷","ALLEY":" ","HOUSE_NO":"１０號","E_COORD97":189872.57999999999,"N_COORD97":2583169.3700000001,"ADDRESS":"中正路１２４巷１０號","OBJECTID":354261},"geometry":{"x":189872.58000000101,"y":2583169.3700000029}},{"attributes":{"ID":354271,"DIS_CODE":0,"TOWNNAME":"白河區","LI":"永安里","LIN":"20鄰","STREET":"中正路","SECT":" ","MAREA":" ","LANE":"１２４巷","ALLEY":" ","HOUSE_NO":"１１號","E_COORD97":189872.45999999999,"N_COORD97":2583185.9500000002,"ADDRESS":"中正路１２４巷１１號","OBJECTID":354262},"geometry":{"x":189872.45999999996,"y":2583185.950000003}},{"attributes":{"ID":354272,"DIS_CODE":0,"TOWNNAME":"白河區","LI":"永安里","LIN":"20鄰","STREET":"中正路","SECT":" ","MAREA":" ","LANE":"１２４巷","ALLEY":" ","HOUSE_NO":"１２號","E_COORD97":189875.76999999999,"N_COORD97":2583171.04,"ADDRESS":"中正路１２４巷１２號","OBJECTID":354263},"geometry":{"x":189875.77000000048,"y":2583171.0399999991}},{"attributes":{"ID":354273,"DIS_CODE":0,"TOWNNAME":"白河區","LI":"永安里","LIN":"20鄰","STREET":"中正路","SECT":" ","MAREA":" ","LANE":"１２４巷","ALLEY":" ","HOUSE_NO":"１３號","E_COORD97":189876.64999999999,"N_COORD97":2583187.5499999998,"ADDRESS":"中正路１２４巷１３號","OBJECTID":354264},"geometry":{"x":189876.65000000037,"y":2583187.5500000026}},{"attributes":{"ID":354274,"DIS_CODE":0,"TOWNNAME":"南區","LI":"喜南里","LIN":"6鄰","STREET":"喜樹路","SECT":" ","MAREA":" ","LANE":"３４０巷","ALLEY":" ","HOUSE_NO":"８６號","E_COORD97":165587.34,"N_COORD97":2537733.1899999999,"ADDRESS":"喜樹路３４０巷８６號","OBJECTID":354265},"geometry":{"x":165587.34000000078,"y":2537733.1900000032}},{"attributes":{"ID":354275,"DIS_CODE":0,"TOWNNAME":"南區","LI":"喜南里","LIN":"6鄰","STREET":"喜樹路","SECT":" ","MAREA":" ","LANE":"３４０巷","ALLEY":" ","HOUSE_NO":"８８號","E_COORD97":165589.64999999999,"N_COORD97":2537748.3500000001,"ADDRESS":"喜樹路３４０巷８８號","OBJECTID":354266},"geometry":{"x":165589.65000000037,"y":2537748.3499999996}},{"attributes":{"ID":354276,"DIS_CODE":0,"TOWNNAME":"南區","LI":"喜南里","LIN":"6鄰","STREET":"喜樹路","SECT":" ","MAREA":" ","LANE":"３４０巷","ALLEY":" ","HOUSE_NO":"１０４號","E_COORD97":165552.98000000001,"N_COORD97":2537720.96,"ADDRESS":"喜樹路３４０巷１０４號","OBJECTID":354267},"geometry":{"x":165552.98000000138,"y":2537720.9600000028}},{"attributes":{"ID":354277,"DIS_CODE":0,"TOWNNAME":"南區","LI":"喜南里","LIN":"6鄰","STREET":"喜樹路","SECT":" ","MAREA":" ","LANE":"３４０巷","ALLEY":" ","HOUSE_NO":"１０８號","E_COORD97":165565.26000000001,"N_COORD97":2537739.71,"ADDRESS":"喜樹路３４０巷１０８號","OBJECTID":354268},"geometry":{"x":165565.26000000071,"y":2537739.7100000009}},{"attributes":{"ID":354278,"DIS_CODE":0,"TOWNNAME":"南區","LI":"喜南里","LIN":"6鄰","STREET":"喜樹路","SECT":" ","MAREA":" ","LANE":"３４０巷","ALLEY":" ","HOUSE_NO":"１１０號","E_COORD97":165544.26999999999,"N_COORD97":2537742.1200000001,"ADDRESS":"喜樹路３４０巷１１０號","OBJECTID":354269},"geometry":{"x":165544.26999999955,"y":2537742.1200000048}},{"attributes":{"ID":354279,"DIS_CODE":0,"TOWNNAME":"南區","LI":"喜南里","LIN":"6鄰","STREET":"喜樹路","SECT":" ","MAREA":" ","LANE":"３４０巷","ALLEY":" ","HOUSE_NO":"１１８號","E_COORD97":165524.89000000001,"N_COORD97":2537759.8999999999,"ADDRESS":"喜樹路３４０巷１１８號","OBJECTID":354270},"geometry":{"x":165524.88999999966,"y":2537759.9000000041}},{"attributes":{"ID":354280,"DIS_CODE":0,"TOWNNAME":"永康區","LI":"埔園里","LIN":"6鄰","STREET":"中山路","SECT":" ","MAREA":" ","LANE":"１６８巷","ALLEY":" ","HOUSE_NO":"１號","E_COORD97":173780.92000000001,"N_COORD97":2547837.7400000002,"ADDRESS":"中山路１６８巷１號","OBJECTID":354271},"geometry":{"x":173780.92000000086,"y":2547837.7400000021}},{"attributes":{"ID":354281,"DIS_CODE":0,"TOWNNAME":"永康區","LI":"埔園里","LIN":"6鄰","STREET":"自強路","SECT":" ","MAREA":" ","LANE":"４６０巷","ALLEY":" ","HOUSE_NO":"２號","E_COORD97":173767.03,"N_COORD97":2547921.7400000002,"ADDRESS":"自強路４６０巷２號","OBJECTID":354272},"geometry":{"x":173767.03000000119,"y":2547921.7400000039}},{"attributes":{"ID":354282,"DIS_CODE":0,"TOWNNAME":"永康區","LI":"東灣里","LIN":"6鄰","STREET":"大灣路","SECT":" ","MAREA":" ","LANE":"４３６巷","ALLEY":" ","HOUSE_NO":"１２號","E_COORD97":174726.39000000001,"N_COORD97":2545072.75,"ADDRESS":"大灣路４３６巷１２號","OBJECTID":354273},"geometry":{"x":174726.38999999966,"y":2545072.75}},{"attributes":{"ID":354283,"DIS_CODE":0,"TOWNNAME":"中西區","LI":"普濟里","LIN":"8鄰","STREET":"西門路","SECT":"二段","MAREA":" ","LANE":" ","ALLEY":" ","HOUSE_NO":"３８９號八樓","E_COORD97":168024.01999999999,"N_COORD97":2544361.71,"ADDRESS":"西門路二段３８９號八樓","OBJECTID":354274},"geometry":{"x":168024.01999999955,"y":2544361.7100000009}},{"attributes":{"ID":354284,"DIS_CODE":0,"TOWNNAME":"中西區","LI":"普濟里","LIN":"8鄰","STREET":"西門路","SECT":"二段","MAREA":" ","LANE":" ","ALLEY":" ","HOUSE_NO":"３８９號十一樓","E_COORD97":168024.01999999999,"N_COORD97":2544361.71,"ADDRESS":"西門路二段３８９號十一樓","OBJECTID":354275},"geometry":{"x":168024.01999999955,"y":2544361.7100000009}},{"attributes":{"ID":354285,"DIS_CODE":0,"TOWNNAME":"中西區","LI":"普濟里","LIN":"8鄰","STREET":"西門路","SECT":"二段","MAREA":" ","LANE":" ","ALLEY":" ","HOUSE_NO":"３８９號十樓","E_COORD97":168024.01999999999,"N_COORD97":2544361.71,"ADDRESS":"西門路二段３８９號十樓","OBJECTID":354276},"geometry":{"x":168024.01999999955,"y":2544361.7100000009}},{"attributes":{"ID":354286,"DIS_CODE":0,"TOWNNAME":"中西區","LI":"普濟里","LIN":"8鄰","STREET":"西門路","SECT":"二段","MAREA":" ","LANE":" ","ALLEY":" ","HOUSE_NO":"３８９號三樓","E_COORD97":168024.01999999999,"N_COORD97":2544361.71,"ADDRESS":"西門路二段３８９號三樓","OBJECTID":354277},"geometry":{"x":168024.01999999955,"y":2544361.7100000009}},{"attributes":{"ID":354287,"DIS_CODE":0,"TOWNNAME":"中西區","LI":"普濟里","LIN":"8鄰","STREET":"西門路","SECT":"二段","MAREA":" ","LANE":" ","ALLEY":" ","HOUSE_NO":"３８９號五樓","E_COORD97":168024.01999999999,"N_COORD97":2544361.71,"ADDRESS":"西門路二段３８９號五樓","OBJECTID":354278},"geometry":{"x":168024.01999999955,"y":2544361.7100000009}},{"attributes":{"ID":354288,"DIS_CODE":0,"TOWNNAME":"永康區","LI":"南灣里","LIN":"1鄰","STREET":"大灣二街","SECT":" ","MAREA":" ","LANE":" ","ALLEY":" ","HOUSE_NO":"１１７號","E_COORD97":174730.14000000001,"N_COORD97":2544793.9500000002,"ADDRESS":"大灣二街１１７號","OBJECTID":354279},"geometry":{"x":174730.1400000006,"y":2544793.9500000011}},{"attributes":{"ID":354289,"DIS_CODE":0,"TOWNNAME":"永康區","LI":"東橋里","LIN":"6鄰","STREET":"大橋一街","SECT":" ","MAREA":" ","LANE":"３２４巷","ALLEY":" ","HOUSE_NO":"１１０號","E_COORD97":171502.35999999999,"N_COORD97":2546400.77,"ADDRESS":"大橋一街３２４巷１１０號","OBJECTID":354280},"geometry":{"x":171502.36000000127,"y":2546400.7699999996}},{"attributes":{"ID":354290,"DIS_CODE":0,"TOWNNAME":"永康區","LI":"東橋里","LIN":"6鄰","STREET":"中山南路","SECT":" ","MAREA":" ","LANE":"１９５巷","ALLEY":" ","HOUSE_NO":"１１號","E_COORD97":171560.42000000001,"N_COORD97":2546219.6000000001,"ADDRESS":"中山南路１９５巷１１號","OBJECTID":354281},"geometry":{"x":171560.42000000086,"y":2546219.5999999996}},{"attributes":{"ID":354291,"DIS_CODE":0,"TOWNNAME":"永康區","LI":"埔園里","LIN":"6鄰","STREET":"中山路","SECT":" ","MAREA":" ","LANE":"１５８巷","ALLEY":" ","HOUSE_NO":"３１號","E_COORD97":173900.88,"N_COORD97":2547864.75,"ADDRESS":"中山路１５８巷３１號","OBJECTID":354282},"geometry":{"x":173900.87999999989,"y":2547864.7500000019}},{"attributes":{"ID":354292,"DIS_CODE":0,"TOWNNAME":"永康區","LI":"埔園里","LIN":"6鄰","STREET":"中山路","SECT":" ","MAREA":" ","LANE":"１５８巷","ALLEY":" ","HOUSE_NO":"５號","E_COORD97":173840.20000000001,"N_COORD97":2547862.5,"ADDRESS":"中山路１５８巷５號","OBJECTID":354283},"geometry":{"x":173840.20000000205,"y":2547862.5000000019}},{"attributes":{"ID":354293,"DIS_CODE":0,"TOWNNAME":"永康區","LI":"埔園里","LIN":"6鄰","STREET":"中山路","SECT":" ","MAREA":" ","LANE":"１５８巷","ALLEY":" ","HOUSE_NO":"１號","E_COORD97":173815.51000000001,"N_COORD97":2547853.9900000002,"ADDRESS":"中山路１５８巷１號","OBJECTID":354284},"geometry":{"x":173815.50999999885,"y":2547853.9900000002}},{"attributes":{"ID":354294,"DIS_CODE":0,"TOWNNAME":"安南區","LI":"城東里","LIN":"6鄰","STREET":"城北路","SECT":" ","MAREA":" ","LANE":"１１２巷","ALLEY":" ","HOUSE_NO":"７２號","E_COORD97":161176.63,"N_COORD97":2551658.4900000002,"ADDRESS":"城北路１１２巷７２號","OBJECTID":354285},"geometry":{"x":161176.62999999989,"y":2551658.4900000002}},{"attributes":{"ID":354295,"DIS_CODE":0,"TOWNNAME":"安南區","LI":"城北里","LIN":"6鄰","STREET":"安中路","SECT":"六段","MAREA":" ","LANE":"５００巷","ALLEY":" ","HOUSE_NO":"２６號","E_COORD97":161056.41,"N_COORD97":2551413.8399999999,"ADDRESS":"安中路六段５００巷２６號","OBJECTID":354286},"geometry":{"x":161056.41000000015,"y":2551413.8400000017}},{"attributes":{"ID":354296,"DIS_CODE":0,"TOWNNAME":"安南區","LI":"城北里","LIN":"6鄰","STREET":"安中路","SECT":"六段","MAREA":" ","LANE":"５００巷","ALLEY":" ","HOUSE_NO":"３０號","E_COORD97":161054,"N_COORD97":2551421.0600000001,"ADDRESS":"安中路六段５００巷３０號","OBJECTID":354287},"geometry":{"x":161054,"y":2551421.0600000005}},{"attributes":{"ID":354297,"DIS_CODE":0,"TOWNNAME":"安南區","LI":"城北里","LIN":"6鄰","STREET":"安中路","SECT":"六段","MAREA":" ","LANE":"５５４巷","ALLEY":" ","HOUSE_NO":"１６號","E_COORD97":160920.73000000001,"N_COORD97":2551412.5600000001,"ADDRESS":"安中路六段５５４巷１６號","OBJECTID":354288},"geometry":{"x":160920.73000000045,"y":2551412.5600000024}},{"attributes":{"ID":354298,"DIS_CODE":0,"TOWNNAME":"安南區","LI":"城北里","LIN":"6鄰","STREET":"安中路","SECT":"六段","MAREA":" ","LANE":"５５４巷","ALLEY":" ","HOUSE_NO":"２０號","E_COORD97":160939.39000000001,"N_COORD97":2551411.79,"ADDRESS":"安中路六段５５４巷２０號","OBJECTID":354289},"geometry":{"x":160939.38999999966,"y":2551411.7899999991}},{"attributes":{"ID":354299,"DIS_CODE":0,"TOWNNAME":"安南區","LI":"城北里","LIN":"6鄰","STREET":"安中路","SECT":"六段","MAREA":" ","LANE":"５５４巷","ALLEY":" ","HOUSE_NO":"３０號","E_COORD97":160958.44,"N_COORD97":2551421.8799999999,"ADDRESS":"安中路六段５５４巷３０號","OBJECTID":354290},"geometry":{"x":160958.44000000041,"y":2551421.8800000027}},{"attributes":{"ID":354300,"DIS_CODE":0,"TOWNNAME":"安南區","LI":"城北里","LIN":"6鄰","STREET":"安中路","SECT":"六段","MAREA":" ","LANE":"５５４巷","ALLEY":" ","HOUSE_NO":"４８號","E_COORD97":161009.03,"N_COORD97":2551430.5899999999,"ADDRESS":"安中路六段５５４巷４８號","OBJECTID":354291},"geometry":{"x":161009.03000000119,"y":2551430.5899999999}},{"attributes":{"ID":354301,"DIS_CODE":0,"TOWNNAME":"安南區","LI":"州北里","LIN":"20鄰","STREET":"安昌街","SECT":" ","MAREA":" ","LANE":"１９巷","ALLEY":" ","HOUSE_NO":"３號","E_COORD97":169811.60999999999,"N_COORD97":2551988.3199999998,"ADDRESS":"安昌街１９巷３號","OBJECTID":354292},"geometry":{"x":169811.6100000022,"y":2551988.3200000003}},{"attributes":{"ID":354302,"DIS_CODE":0,"TOWNNAME":"安南區","LI":"鳳凰里","LIN":"20鄰","STREET":"怡安路","SECT":"二段","MAREA":" ","LANE":"４９５巷","ALLEY":" ","HOUSE_NO":"６號","E_COORD97":167756.79000000001,"N_COORD97":2549361.3999999999,"ADDRESS":"怡安路二段４９５巷６號","OBJECTID":354293},"geometry":{"x":167756.79000000004,"y":2549361.4000000004}},{"attributes":{"ID":354303,"DIS_CODE":0,"TOWNNAME":"安南區","LI":"鳳凰里","LIN":"20鄰","STREET":"怡安路","SECT":"二段","MAREA":" ","LANE":"４９５巷","ALLEY":" ","HOUSE_NO":"１０號","E_COORD97":167781.48000000001,"N_COORD97":2549358.3399999999,"ADDRESS":"怡安路二段４９５巷１０號","OBJECTID":354294},"geometry":{"x":167781.48000000045,"y":2549358.3400000036}},{"attributes":{"ID":354304,"DIS_CODE":0,"TOWNNAME":"安南區","LI":"鳳凰里","LIN":"20鄰","STREET":"怡安路","SECT":"二段","MAREA":" ","LANE":"４９５巷","ALLEY":" ","HOUSE_NO":"１２號","E_COORD97":167796.07999999999,"N_COORD97":2549362.1000000001,"ADDRESS":"怡安路二段４９５巷１２號","OBJECTID":354295},"geometry":{"x":167796.08000000101,"y":2549362.0999999996}},{"attributes":{"ID":354305,"DIS_CODE":0,"TOWNNAME":"安南區","LI":"鳳凰里","LIN":"20鄰","STREET":"怡安路","SECT":"二段","MAREA":" ","LANE":"５３５巷","ALLEY":" ","HOUSE_NO":"１號","E_COORD97":167576.26000000001,"N_COORD97":2549413.7999999998,"ADDRESS":"怡安路二段５３５巷１號","OBJECTID":354296},"geometry":{"x":167576.26000000071,"y":2549413.8000000045}},{"attributes":{"ID":354306,"DIS_CODE":0,"TOWNNAME":"安南區","LI":"鳳凰里","LIN":"20鄰","STREET":"怡安路","SECT":"二段","MAREA":" ","LANE":"５３５巷","ALLEY":" ","HOUSE_NO":"２號","E_COORD97":167564.07999999999,"N_COORD97":2549415.0699999998,"ADDRESS":"怡安路二段５３５巷２號","OBJECTID":354297},"geometry":{"x":167564.08000000101,"y":2549415.0700000022}},{"attributes":{"ID":354307,"DIS_CODE":0,"TOWNNAME":"安南區","LI":"鳳凰里","LIN":"20鄰","STREET":"怡安路","SECT":"二段","MAREA":" ","LANE":"５３５巷","ALLEY":" ","HOUSE_NO":"３號","E_COORD97":167575.07999999999,"N_COORD97":2549408.4700000002,"ADDRESS":"怡安路二段５３５巷３號","OBJECTID":354298},"geometry":{"x":167575.08000000007,"y":2549408.4700000007}},{"attributes":{"ID":354308,"DIS_CODE":0,"TOWNNAME":"安南區","LI":"城北里","LIN":"6鄰","STREET":"安中路","SECT":"六段","MAREA":" ","LANE":"５５４巷","ALLEY":" ","HOUSE_NO":"５２號","E_COORD97":161028.5,"N_COORD97":2551440.5499999998,"ADDRESS":"安中路六段５５４巷５２號","OBJECTID":354299},"geometry":{"x":161028.5,"y":2551440.5500000026}},{"attributes":{"ID":354309,"DIS_CODE":0,"TOWNNAME":"新市區","LI":"新和里","LIN":"6鄰","STREET":"富強路","SECT":" ","MAREA":" ","LANE":"３１巷","ALLEY":" ","HOUSE_NO":"５號","E_COORD97":177341.20999999999,"N_COORD97":2552413,"ADDRESS":"富強路３１巷５號","OBJECTID":354300},"geometry":{"x":177341.21000000089,"y":2552413.0000000019}},{"attributes":{"ID":354310,"DIS_CODE":0,"TOWNNAME":"新市區","LI":"新和里","LIN":"6鄰","STREET":"富強路","SECT":" ","MAREA":" ","LANE":"３１巷","ALLEY":" ","HOUSE_NO":"１１號","E_COORD97":177345.95999999999,"N_COORD97":2552400.75,"ADDRESS":"富強路３１巷１１號","OBJECTID":354301},"geometry":{"x":177345.96000000089,"y":2552400.7500000019}},{"attributes":{"ID":354311,"DIS_CODE":0,"TOWNNAME":"中西區","LI":"普濟里","LIN":"8鄰","STREET":"西門路","SECT":"二段","MAREA":" ","LANE":" ","ALLEY":" ","HOUSE_NO":"３８９號六樓","E_COORD97":168024.01999999999,"N_COORD97":2544361.71,"ADDRESS":"西門路二段３８９號六樓","OBJECTID":354302},"geometry":{"x":168024.01999999955,"y":2544361.7100000009}},{"attributes":{"ID":354312,"DIS_CODE":0,"TOWNNAME":"北區","LI":"長榮里","LIN":"22鄰","STREET":"長榮路","SECT":"五段","MAREA":" ","LANE":" ","ALLEY":" ","HOUSE_NO":"６號","E_COORD97":170136.69,"N_COORD97":2545383.9100000001,"ADDRESS":"長榮路五段６號","OBJECTID":354303},"geometry":{"x":170136.69000000134,"y":2545383.9100000001}},{"attributes":{"ID":354313,"DIS_CODE":0,"TOWNNAME":"北區","LI":"長榮里","LIN":"5鄰","STREET":"長勝路","SECT":" ","MAREA":" ","LANE":" ","ALLEY":" ","HOUSE_NO":"３７號","E_COORD97":169981.91,"N_COORD97":2545592.8300000001,"ADDRESS":"長勝路３７號","OBJECTID":354304},"geometry":{"x":169981.91000000015,"y":2545592.8300000019}},{"attributes":{"ID":354314,"DIS_CODE":0,"TOWNNAME":"中西區","LI":"普濟里","LIN":"8鄰","STREET":"西門路","SECT":"二段","MAREA":" ","LANE":" ","ALLEY":" ","HOUSE_NO":"３８９號四樓","E_COORD97":168024.01999999999,"N_COORD97":2544361.71,"ADDRESS":"西門路二段３８９號四樓","OBJECTID":354305},"geometry":{"x":168024.01999999955,"y":2544361.7100000009}},{"attributes":{"ID":354315,"DIS_CODE":0,"TOWNNAME":"東區","LI":"中西里","LIN":"8鄰","STREET":"勝利路","SECT":" ","MAREA":" ","LANE":" ","ALLEY":" ","HOUSE_NO":"５０號三樓","E_COORD97":169830.25,"N_COORD97":2543536.9100000001,"ADDRESS":"勝利路５０號三樓","OBJECTID":354306},"geometry":{"x":169830.25,"y":2543536.9100000039}},{"attributes":{"ID":354316,"DIS_CODE":0,"TOWNNAME":"東區","LI":"中西里","LIN":"8鄰","STREET":"勝利路","SECT":" ","MAREA":" ","LANE":" ","ALLEY":" ","HOUSE_NO":"５０號三樓之１","E_COORD97":169830.25,"N_COORD97":2543536.9100000001,"ADDRESS":"勝利路５０號三樓之１","OBJECTID":354307},"geometry":{"x":169830.25,"y":2543536.9100000039}},{"attributes":{"ID":354317,"DIS_CODE":0,"TOWNNAME":"東區","LI":"中西里","LIN":"8鄰","STREET":"勝利路","SECT":" ","MAREA":" ","LANE":" ","ALLEY":" ","HOUSE_NO":"５０號三樓之２","E_COORD97":169830.25,"N_COORD97":2543536.9100000001,"ADDRESS":"勝利路５０號三樓之２","OBJECTID":354308},"geometry":{"x":169830.25,"y":2543536.9100000039}},{"attributes":{"ID":354318,"DIS_CODE":0,"TOWNNAME":"東區","LI":"中西里","LIN":"8鄰","STREET":"勝利路","SECT":" ","MAREA":" ","LANE":" ","ALLEY":" ","HOUSE_NO":"５０號三樓之３","E_COORD97":169830.25,"N_COORD97":2543536.9100000001,"ADDRESS":"勝利路５０號三樓之３","OBJECTID":354309},"geometry":{"x":169830.25,"y":2543536.9100000039}},{"attributes":{"ID":354319,"DIS_CODE":0,"TOWNNAME":"新市區","LI":"新和里","LIN":"6鄰","STREET":"富強路","SECT":" ","MAREA":" ","LANE":"３１巷","ALLEY":" ","HOUSE_NO":"１０號","E_COORD97":177336.57000000001,"N_COORD97":2552395.75,"ADDRESS":"富強路３１巷１０號","OBJECTID":354310},"geometry":{"x":177336.56999999937,"y":2552395.75}},{"attributes":{"ID":354320,"DIS_CODE":0,"TOWNNAME":"新市區","LI":"新和里","LIN":"6鄰","STREET":"富強路","SECT":" ","MAREA":" ","LANE":"３１巷","ALLEY":" ","HOUSE_NO":"７號","E_COORD97":177342.32000000001,"N_COORD97":2552408.75,"ADDRESS":"富強路３１巷７號","OBJECTID":354311},"geometry":{"x":177342.32000000123,"y":2552408.75}},{"attributes":{"ID":354321,"DIS_CODE":0,"TOWNNAME":"新市區","LI":"新和里","LIN":"6鄰","STREET":"富強路","SECT":" ","MAREA":" ","LANE":"４１巷","ALLEY":" ","HOUSE_NO":"１號","E_COORD97":177310.95999999999,"N_COORD97":2552414.25,"ADDRESS":"富強路４１巷１號","OBJECTID":354312},"geometry":{"x":177310.95999999996,"y":2552414.2500000019}},{"attributes":{"ID":354322,"DIS_CODE":0,"TOWNNAME":"南區","LI":"再興里","LIN":"15鄰","STREET":"三官路","SECT":" ","MAREA":" ","LANE":"２２２巷","ALLEY":" ","HOUSE_NO":"３９號","E_COORD97":167117.09,"N_COORD97":2542079.5499999998,"ADDRESS":"三官路２２２巷３９號","OBJECTID":354313},"geometry":{"x":167117.08999999985,"y":2542079.5500000026}},{"attributes":{"ID":354323,"DIS_CODE":0,"TOWNNAME":"南區","LI":"再興里","LIN":"15鄰","STREET":"三官路","SECT":" ","MAREA":" ","LANE":"２２２巷","ALLEY":" ","HOUSE_NO":"４５號","E_COORD97":167121.07000000001,"N_COORD97":2542116.9300000002,"ADDRESS":"三官路２２２巷４５號","OBJECTID":354314},"geometry":{"x":167121.0700000003,"y":2542116.9300000016}},{"attributes":{"ID":354324,"DIS_CODE":0,"TOWNNAME":"南區","LI":"再興里","LIN":"19鄰","STREET":"新慶街","SECT":" ","MAREA":" ","LANE":"３３巷","ALLEY":" ","HOUSE_NO":"２６號","E_COORD97":167213.85000000001,"N_COORD97":2542248.1699999999,"ADDRESS":"新慶街３３巷２６號","OBJECTID":354315},"geometry":{"x":167213.85000000149,"y":2542248.1699999999}},{"attributes":{"ID":354325,"DIS_CODE":0,"TOWNNAME":"南區","LI":"再興里","LIN":"19鄰","STREET":"新慶街","SECT":" ","MAREA":" ","LANE":"３３巷","ALLEY":" ","HOUSE_NO":"２７號","E_COORD97":167218.88,"N_COORD97":2542222.1200000001,"ADDRESS":"新慶街３３巷２７號","OBJECTID":354316},"geometry":{"x":167218.88000000175,"y":2542222.1200000029}},{"attributes":{"ID":354326,"DIS_CODE":0,"TOWNNAME":"南區","LI":"再興里","LIN":"19鄰","STREET":"新慶街","SECT":" ","MAREA":" ","LANE":"３３巷","ALLEY":" ","HOUSE_NO":"２８號","E_COORD97":167211.76000000001,"N_COORD97":2542244.4100000001,"ADDRESS":"新慶街３３巷２８號","OBJECTID":354317},"geometry":{"x":167211.76000000071,"y":2542244.4100000001}},{"attributes":{"ID":354327,"DIS_CODE":0,"TOWNNAME":"東區","LI":"後甲里","LIN":"6鄰","STREET":"裕農路","SECT":" ","MAREA":" ","LANE":"６２１巷","ALLEY":" ","HOUSE_NO":"６０號","E_COORD97":171624.48000000001,"N_COORD97":2543366.79,"ADDRESS":"裕農路６２１巷６０號","OBJECTID":354318},"geometry":{"x":171624.48000000045,"y":2543366.7899999972}},{"attributes":{"ID":354328,"DIS_CODE":0,"TOWNNAME":"東區","LI":"崇成里","LIN":"6鄰","STREET":"崇德十二街","SECT":" ","MAREA":" ","LANE":"７６巷","ALLEY":" ","HOUSE_NO":"１１號","E_COORD97":171020.32999999999,"N_COORD97":2541324.0499999998,"ADDRESS":"崇德十二街７６巷１１號","OBJECTID":354319},"geometry":{"x":171020.33000000101,"y":2541324.0500000026}},{"attributes":{"ID":354329,"DIS_CODE":0,"TOWNNAME":"東區","LI":"崇學里","LIN":"6鄰","STREET":"崇德四街","SECT":" ","MAREA":" ","LANE":"３巷","ALLEY":" ","HOUSE_NO":"２之１號","E_COORD97":170496.48999999999,"N_COORD97":2541923.1400000001,"ADDRESS":"崇德四街３巷２之１號","OBJECTID":354320},"geometry":{"x":170496.49000000022,"y":2541923.1400000025}},{"attributes":{"ID":354330,"DIS_CODE":0,"TOWNNAME":"東區","LI":"崇學里","LIN":"6鄰","STREET":"崇德四街","SECT":" ","MAREA":" ","LANE":"３巷","ALLEY":" ","HOUSE_NO":"１０號","E_COORD97":170482.79000000001,"N_COORD97":2541933.2000000002,"ADDRESS":"崇德四街３巷１０號","OBJECTID":354321},"geometry":{"x":170482.79000000004,"y":2541933.1999999993}},{"attributes":{"ID":354331,"DIS_CODE":0,"TOWNNAME":"東區","LI":"崇學里","LIN":"6鄰","STREET":"崇德四街","SECT":" ","MAREA":" ","LANE":"３巷","ALLEY":" ","HOUSE_NO":"１２號","E_COORD97":170478.85999999999,"N_COORD97":2541937.2799999998,"ADDRESS":"崇德四街３巷１２號","OBJECTID":354322},"geometry":{"x":170478.86000000034,"y":2541937.2800000012}},{"attributes":{"ID":354332,"DIS_CODE":0,"TOWNNAME":"東區","LI":"崇學里","LIN":"6鄰","STREET":"崇德四街","SECT":" ","MAREA":" ","LANE":"３巷","ALLEY":" ","HOUSE_NO":"１４號","E_COORD97":170474.04999999999,"N_COORD97":2541941.9399999999,"ADDRESS":"崇德四街３巷１４號","OBJECTID":354323},"geometry":{"x":170474.04999999888,"y":2541941.9399999995}},{"attributes":{"ID":354333,"DIS_CODE":0,"TOWNNAME":"東區","LI":"崇學里","LIN":"6鄰","STREET":"崇德四街","SECT":" ","MAREA":" ","LANE":"３巷","ALLEY":" ","HOUSE_NO":"１６號","E_COORD97":170469.53,"N_COORD97":2541945.1499999999,"ADDRESS":"崇德四街３巷１６號","OBJECTID":354324},"geometry":{"x":170469.53000000026,"y":2541945.1499999985}},{"attributes":{"ID":354334,"DIS_CODE":0,"TOWNNAME":"東區","LI":"崇學里","LIN":"6鄰","STREET":"崇德四街","SECT":" ","MAREA":" ","LANE":"３巷","ALLEY":" ","HOUSE_NO":"６號","E_COORD97":170492.54999999999,"N_COORD97":2541927.6600000001,"ADDRESS":"崇德四街３巷６號","OBJECTID":354325},"geometry":{"x":170492.54999999981,"y":2541927.6600000001}},{"attributes":{"ID":354335,"DIS_CODE":0,"TOWNNAME":"東區","LI":"崇學里","LIN":"6鄰","STREET":"崇德四街","SECT":" ","MAREA":" ","LANE":"３巷","ALLEY":" ","HOUSE_NO":"８號","E_COORD97":170488.91,"N_COORD97":2541930.2799999998,"ADDRESS":"崇德四街３巷８號","OBJECTID":354326},"geometry":{"x":170488.90999999922,"y":2541930.2800000012}},{"attributes":{"ID":354336,"DIS_CODE":0,"TOWNNAME":"善化區","LI":"南關里","LIN":"6鄰","STREET":"文昌路","SECT":" ","MAREA":" ","LANE":"１０７巷","ALLEY":" ","HOUSE_NO":"１６５號","E_COORD97":177045.53,"N_COORD97":2557507.7799999998,"ADDRESS":"文昌路１０７巷１６５號","OBJECTID":354327},"geometry":{"x":177045.53000000119,"y":2557507.7799999993}},{"attributes":{"ID":354337,"DIS_CODE":0,"TOWNNAME":"善化區","LI":"坐駕里","LIN":"6鄰","STREET":"青年路","SECT":" ","MAREA":" ","LANE":"１６６巷","ALLEY":" ","HOUSE_NO":"２號","E_COORD97":177866.35999999999,"N_COORD97":2558896.5,"ADDRESS":"青年路１６６巷２號","OBJECTID":354328},"geometry":{"x":177866.36000000034,"y":2558896.5}},{"attributes":{"ID":354338,"DIS_CODE":0,"TOWNNAME":"善化區","LI":"坐駕里","LIN":"6鄰","STREET":"青年路","SECT":" ","MAREA":" ","LANE":"１６６巷","ALLEY":" ","HOUSE_NO":"１２號","E_COORD97":177898.54000000001,"N_COORD97":2558901.5,"ADDRESS":"青年路１６６巷１２號","OBJECTID":354329},"geometry":{"x":177898.54000000004,"y":2558901.5000000037}},{"attributes":{"ID":354339,"DIS_CODE":0,"TOWNNAME":"善化區","LI":"文正里","LIN":"6鄰","STREET":"文正路","SECT":" ","MAREA":" ","LANE":"７９巷","ALLEY":" ","HOUSE_NO":"３０號","E_COORD97":177055.53,"N_COORD97":2559386.2799999998,"ADDRESS":"文正路７９巷３０號","OBJECTID":354330},"geometry":{"x":177055.53000000212,"y":2559386.2799999993}},{"attributes":{"ID":354340,"DIS_CODE":0,"TOWNNAME":"善化區","LI":"南關里","LIN":"6鄰","STREET":"永福路","SECT":" ","MAREA":" ","LANE":"１６２巷","ALLEY":" ","HOUSE_NO":"１１號","E_COORD97":177159.16,"N_COORD97":2558855.5,"ADDRESS":"永福路１６２巷１１號","OBJECTID":354331},"geometry":{"x":177159.16000000015,"y":2558855.5}},{"attributes":{"ID":354341,"DIS_CODE":0,"TOWNNAME":"仁德區","LI":"大甲里","LIN":"6鄰","STREET":"行大街","SECT":" ","MAREA":" ","LANE":"３０７巷","ALLEY":" ","HOUSE_NO":"２１號","E_COORD97":169700.84,"N_COORD97":2535120.25,"ADDRESS":"行大街３０７巷２１號","OBJECTID":354332},"geometry":{"x":169700.83999999892,"y":2535120.2500000019}},{"attributes":{"ID":354342,"DIS_CODE":0,"TOWNNAME":"仁德區","LI":"大甲里","LIN":"6鄰","STREET":"行大街","SECT":" ","MAREA":" ","LANE":"３０７巷","ALLEY":" ","HOUSE_NO":"３３號","E_COORD97":169716.48999999999,"N_COORD97":2535102.7400000002,"ADDRESS":"行大街３０７巷３３號","OBJECTID":354333},"geometry":{"x":169716.49000000022,"y":2535102.7400000039}},{"attributes":{"ID":354343,"DIS_CODE":0,"TOWNNAME":"仁德區","LI":"土庫里","LIN":"6鄰","STREET":"土庫三街","SECT":" ","MAREA":" ","LANE":"６１巷","ALLEY":" ","HOUSE_NO":"１３號","E_COORD97":174287.23000000001,"N_COORD97":2543125.75,"ADDRESS":"土庫三街６１巷１３號","OBJECTID":354334},"geometry":{"x":174287.23000000045,"y":2543125.7500000019}},{"attributes":{"ID":354344,"DIS_CODE":0,"TOWNNAME":"仁德區","LI":"一甲里","LIN":"6鄰","STREET":"中正路","SECT":"三段","MAREA":" ","LANE":"１６２巷","ALLEY":" ","HOUSE_NO":"５號","E_COORD97":173523.45000000001,"N_COORD97":2541771.79,"ADDRESS":"中正路三段１６２巷５號","OBJECTID":354335},"geometry":{"x":173523.45000000112,"y":2541771.790000001}},{"attributes":{"ID":354345,"DIS_CODE":0,"TOWNNAME":"仁德區","LI":"上崙里","LIN":"6鄰","STREET":"德南路","SECT":" ","MAREA":" ","LANE":"３９９巷","ALLEY":" ","HOUSE_NO":"２號","E_COORD97":173938.67999999999,"N_COORD97":2538254.52,"ADDRESS":"德南路３９９巷２號","OBJECTID":354336},"geometry":{"x":173938.68000000063,"y":2538254.5200000014}},{"attributes":{"ID":354346,"DIS_CODE":0,"TOWNNAME":"仁德區","LI":"一甲里","LIN":"6鄰","STREET":"中正路","SECT":"三段","MAREA":" ","LANE":"１６２巷","ALLEY":" ","HOUSE_NO":"１７號","E_COORD97":173550.16,"N_COORD97":2541763.04,"ADDRESS":"中正路三段１６２巷１７號","OBJECTID":354337},"geometry":{"x":173550.16000000015,"y":2541763.040000001}},{"attributes":{"ID":354347,"DIS_CODE":0,"TOWNNAME":"仁德區","LI":"二行里","LIN":"6鄰","STREET":"二仁路","SECT":"一段","MAREA":" ","LANE":"６３巷","ALLEY":" ","HOUSE_NO":"１４號","E_COORD97":170525.31,"N_COORD97":2535386.27,"ADDRESS":"二仁路一段６３巷１４號","OBJECTID":354338},"geometry":{"x":170525.31000000052,"y":2535386.2699999996}},{"attributes":{"ID":354348,"DIS_CODE":0,"TOWNNAME":"仁德區","LI":"二行里","LIN":"6鄰","STREET":"二仁路","SECT":"一段","MAREA":" ","LANE":"６３巷","ALLEY":" ","HOUSE_NO":"７號","E_COORD97":170531.84,"N_COORD97":2535376.27,"ADDRESS":"二仁路一段６３巷７號","OBJECTID":354339},"geometry":{"x":170531.84000000078,"y":2535376.2699999977}},{"attributes":{"ID":354349,"DIS_CODE":0,"TOWNNAME":"仁德區","LI":"一甲里","LIN":"6鄰","STREET":"中正路","SECT":"三段","MAREA":" ","LANE":"１６２巷","ALLEY":" ","HOUSE_NO":"３號","E_COORD97":173519.19,"N_COORD97":2541773.29,"ADDRESS":"中正路三段１６２巷３號","OBJECTID":354340},"geometry":{"x":173519.19000000134,"y":2541773.2899999972}},{"attributes":{"ID":354350,"DIS_CODE":0,"TOWNNAME":"仁德區","LI":"上崙里","LIN":"6鄰","STREET":"德南路","SECT":" ","MAREA":" ","LANE":"３９９巷","ALLEY":" ","HOUSE_NO":"６號","E_COORD97":173946.34,"N_COORD97":2538257.02,"ADDRESS":"德南路３９９巷６號","OBJECTID":354341},"geometry":{"x":173946.34000000078,"y":2538257.0200000014}},{"attributes":{"ID":354351,"DIS_CODE":0,"TOWNNAME":"新化區","LI":"武安里","LIN":"6鄰","STREET":"中正路","SECT":" ","MAREA":" ","LANE":"３６９巷","ALLEY":" ","HOUSE_NO":"４２號","E_COORD97":179041.95999999999,"N_COORD97":2548270.25,"ADDRESS":"中正路３６９巷４２號","OBJECTID":354342},"geometry":{"x":179041.95999999996,"y":2548270.25}},{"attributes":{"ID":354352,"DIS_CODE":0,"TOWNNAME":"新化區","LI":"武安里","LIN":"6鄰","STREET":"中正路","SECT":" ","MAREA":" ","LANE":"３６９巷","ALLEY":" ","HOUSE_NO":"４４號","E_COORD97":179022.56,"N_COORD97":2548267.25,"ADDRESS":"中正路３６９巷４４號","OBJECTID":354343},"geometry":{"x":179022.55999999866,"y":2548267.2500000037}},{"attributes":{"ID":354353,"DIS_CODE":0,"TOWNNAME":"新化區","LI":"武安里","LIN":"6鄰","STREET":"中正路","SECT":" ","MAREA":" ","LANE":"３６９巷","ALLEY":" ","HOUSE_NO":"１４號","E_COORD97":179089.06,"N_COORD97":2548277.25,"ADDRESS":"中正路３６９巷１４號","OBJECTID":354344},"geometry":{"x":179089.06000000052,"y":2548277.2499999981}},{"attributes":{"ID":354354,"DIS_CODE":0,"TOWNNAME":"新化區","LI":"協興里","LIN":"6鄰","STREET":"忠孝路","SECT":" ","MAREA":" ","LANE":"１９０巷","ALLEY":" ","HOUSE_NO":"４３號","E_COORD97":178364.87,"N_COORD97":2548623.25,"ADDRESS":"忠孝路１９０巷４３號","OBJECTID":354345},"geometry":{"x":178364.87000000011,"y":2548623.2500000037}},{"attributes":{"ID":354355,"DIS_CODE":0,"TOWNNAME":"南區","LI":"彰南里","LIN":"6鄰","STREET":"新建路","SECT":" ","MAREA":" ","LANE":"１４巷","ALLEY":" ","HOUSE_NO":"９號","E_COORD97":166405.73999999999,"N_COORD97":2541321.27,"ADDRESS":"新建路１４巷９號","OBJECTID":354346},"geometry":{"x":166405.74000000022,"y":2541321.2700000014}},{"attributes":{"ID":354356,"DIS_CODE":0,"TOWNNAME":"南區","LI":"廣州里","LIN":"6鄰","STREET":"大德街","SECT":" ","MAREA":" ","LANE":"１７０巷","ALLEY":" ","HOUSE_NO":"１６號","E_COORD97":167486.23000000001,"N_COORD97":2543042.2799999998,"ADDRESS":"大德街１７０巷１６號","OBJECTID":354347},"geometry":{"x":167486.23000000045,"y":2543042.2800000012}},{"attributes":{"ID":354357,"DIS_CODE":0,"TOWNNAME":"安南區","LI":"大安里","LIN":"6鄰","STREET":"大安街","SECT":" ","MAREA":" ","LANE":"１２４巷","ALLEY":" ","HOUSE_NO":"１９號","E_COORD97":167350.47,"N_COORD97":2548085.1000000001,"ADDRESS":"大安街１２４巷１９號","OBJECTID":354348},"geometry":{"x":167350.4700000016,"y":2548085.1000000034}},{"attributes":{"ID":354358,"DIS_CODE":0,"TOWNNAME":"安南區","LI":"大安里","LIN":"6鄰","STREET":"大安街","SECT":" ","MAREA":" ","LANE":"１２４巷","ALLEY":" ","HOUSE_NO":"１號","E_COORD97":167301.14999999999,"N_COORD97":2548114.8199999998,"ADDRESS":"大安街１２４巷１號","OBJECTID":354349},"geometry":{"x":167301.1500000013,"y":2548114.820000004}},{"attributes":{"ID":354359,"DIS_CODE":0,"TOWNNAME":"安南區","LI":"大安里","LIN":"6鄰","STREET":"大安街","SECT":" ","MAREA":" ","LANE":"１２４巷","ALLEY":" ","HOUSE_NO":"２０號","E_COORD97":167338.95999999999,"N_COORD97":2548066.7000000002,"ADDRESS":"大安街１２４巷２０號","OBJECTID":354350},"geometry":{"x":167338.96000000089,"y":2548066.700000003}},{"attributes":{"ID":354360,"DIS_CODE":0,"TOWNNAME":"安南區","LI":"大安里","LIN":"6鄰","STREET":"大安街","SECT":" ","MAREA":" ","LANE":"１２４巷","ALLEY":" ","HOUSE_NO":"２１號","E_COORD97":167357.57000000001,"N_COORD97":2548080.3100000001,"ADDRESS":"大安街１２４巷２１號","OBJECTID":354351},"geometry":{"x":167357.57000000123,"y":2548080.3100000005}},{"attributes":{"ID":354361,"DIS_CODE":0,"TOWNNAME":"安南區","LI":"大安里","LIN":"6鄰","STREET":"大安街","SECT":" ","MAREA":" ","LANE":"１２４巷","ALLEY":" ","HOUSE_NO":"２２號","E_COORD97":167345.29000000001,"N_COORD97":2548061.1400000001,"ADDRESS":"大安街１２４巷２２號","OBJECTID":354352},"geometry":{"x":167345.29000000097,"y":2548061.1400000006}},{"attributes":{"ID":354362,"DIS_CODE":0,"TOWNNAME":"安南區","LI":"大安里","LIN":"6鄰","STREET":"大安街","SECT":" ","MAREA":" ","LANE":"１２４巷","ALLEY":" ","HOUSE_NO":"２３號","E_COORD97":167362.94,"N_COORD97":2548077.6299999999,"ADDRESS":"大安街１２４巷２３號","OBJECTID":354353},"geometry":{"x":167362.94000000041,"y":2548077.6300000008}},{"attributes":{"ID":354363,"DIS_CODE":0,"TOWNNAME":"安南區","LI":"大安里","LIN":"6鄰","STREET":"大安街","SECT":" ","MAREA":" ","LANE":"１２４巷","ALLEY":" ","HOUSE_NO":"２４號","E_COORD97":167350.47,"N_COORD97":2548057.5,"ADDRESS":"大安街１２４巷２４號","OBJECTID":354354},"geometry":{"x":167350.4700000016,"y":2548057.5}},{"attributes":{"ID":354364,"DIS_CODE":0,"TOWNNAME":"安南區","LI":"大安里","LIN":"6鄰","STREET":"大安街","SECT":" ","MAREA":" ","LANE":"１２４巷","ALLEY":" ","HOUSE_NO":"２號","E_COORD97":167289.82999999999,"N_COORD97":2548097.5699999998,"ADDRESS":"大安街１２４巷２號","OBJECTID":354355},"geometry":{"x":167289.83000000007,"y":2548097.5700000022}},{"attributes":{"ID":354365,"DIS_CODE":0,"TOWNNAME":"安南區","LI":"大安里","LIN":"6鄰","STREET":"大安街","SECT":" ","MAREA":" ","LANE":"１２４巷","ALLEY":" ","HOUSE_NO":"３號","E_COORD97":167305.56,"N_COORD97":2548112.1400000001,"ADDRESS":"大安街１２４巷３號","OBJECTID":354356},"geometry":{"x":167305.56000000145,"y":2548112.1400000006}},{"attributes":{"ID":354366,"DIS_CODE":0,"TOWNNAME":"安南區","LI":"大安里","LIN":"6鄰","STREET":"大安街","SECT":" ","MAREA":" ","LANE":"１２４巷","ALLEY":" ","HOUSE_NO":"４號","E_COORD97":167294.82000000001,"N_COORD97":2548094.8799999999,"ADDRESS":"大安街１２４巷４號","OBJECTID":354357},"geometry":{"x":167294.82000000123,"y":2548094.879999999}},{"attributes":{"ID":354367,"DIS_CODE":0,"TOWNNAME":"安南區","LI":"大安里","LIN":"6鄰","STREET":"大安街","SECT":" ","MAREA":" ","LANE":"１２４巷","ALLEY":" ","HOUSE_NO":"５號","E_COORD97":167310.35999999999,"N_COORD97":2548109.4500000002,"ADDRESS":"大安街１２４巷５號","OBJECTID":354358},"geometry":{"x":167310.36000000034,"y":2548109.450000003}},{"attributes":{"ID":354368,"DIS_CODE":0,"TOWNNAME":"安南區","LI":"大安里","LIN":"6鄰","STREET":"大安街","SECT":" ","MAREA":" ","LANE":"１２４巷","ALLEY":" ","HOUSE_NO":"６號","E_COORD97":167299.23000000001,"N_COORD97":2548092.77,"ADDRESS":"大安街１２４巷６號","OBJECTID":354359},"geometry":{"x":167299.23000000138,"y":2548092.7699999996}},{"attributes":{"ID":354369,"DIS_CODE":0,"TOWNNAME":"安南區","LI":"大安里","LIN":"6鄰","STREET":"大安街","SECT":" ","MAREA":" ","LANE":"１２４巷","ALLEY":" ","HOUSE_NO":"７號","E_COORD97":167314.20000000001,"N_COORD97":2548106.96,"ADDRESS":"大安街１２４巷７號","OBJECTID":354360},"geometry":{"x":167314.20000000112,"y":2548106.9600000009}},{"attributes":{"ID":354370,"DIS_CODE":0,"TOWNNAME":"安南區","LI":"大安里","LIN":"6鄰","STREET":"大安街","SECT":" ","MAREA":" ","LANE":"１２４巷","ALLEY":" ","HOUSE_NO":"８號","E_COORD97":167303.26000000001,"N_COORD97":2548089.1299999999,"ADDRESS":"大安街１２４巷８號","OBJECTID":354361},"geometry":{"x":167303.26000000071,"y":2548089.129999999}},{"attributes":{"ID":354371,"DIS_CODE":0,"TOWNNAME":"安南區","LI":"大安里","LIN":"6鄰","STREET":"大安街","SECT":" ","MAREA":" ","LANE":"１２４巷","ALLEY":" ","HOUSE_NO":"９號","E_COORD97":167318.60999999999,"N_COORD97":2548102.7400000002,"ADDRESS":"大安街１２４巷９號","OBJECTID":354362},"geometry":{"x":167318.61000000127,"y":2548102.7400000021}},{"attributes":{"ID":354372,"DIS_CODE":0,"TOWNNAME":"安南區","LI":"大安里","LIN":"6鄰","STREET":"大安街","SECT":" ","MAREA":" ","LANE":"１３８巷","ALLEY":" ","HOUSE_NO":"１０號","E_COORD97":167326.10000000001,"N_COORD97":2548121.1499999999,"ADDRESS":"大安街１３８巷１０號","OBJECTID":354363},"geometry":{"x":167326.10000000056,"y":2548121.1500000004}},{"attributes":{"ID":354373,"DIS_CODE":0,"TOWNNAME":"東區","LI":"大智里","LIN":"20鄰","STREET":"崇善十四街","SECT":" ","MAREA":" ","LANE":"１巷","ALLEY":" ","HOUSE_NO":"９號","E_COORD97":171381.60999999999,"N_COORD97":2540645.54,"ADDRESS":"崇善十四街１巷９號","OBJECTID":354364},"geometry":{"x":171381.61000000127,"y":2540645.5399999991}},{"attributes":{"ID":354374,"DIS_CODE":0,"TOWNNAME":"仁德區","LI":"太子里","LIN":"20鄰","STREET":"長興四街","SECT":" ","MAREA":" ","LANE":"６８巷","ALLEY":" ","HOUSE_NO":"２號","E_COORD97":173925.23000000001,"N_COORD97":2543576.25,"ADDRESS":"長興四街６８巷２號","OBJECTID":354365},"geometry":{"x":173925.23000000138,"y":2543576.2500000019}},{"attributes":{"ID":354375,"DIS_CODE":0,"TOWNNAME":"後壁區","LI":"新嘉里","LIN":"20鄰","STREET":" ","SECT":" ","MAREA":"白沙屯","LANE":" ","ALLEY":" ","HOUSE_NO":"２１１號","E_COORD97":179487.48000000001,"N_COORD97":2585678.1499999999,"ADDRESS":"白沙屯２１１號","OBJECTID":354366},"geometry":{"x":179487.48000000138,"y":2585678.1500000022}},{"attributes":{"ID":354376,"DIS_CODE":0,"TOWNNAME":"後壁區","LI":"新嘉里","LIN":"20鄰","STREET":" ","SECT":" ","MAREA":"白沙屯","LANE":" ","ALLEY":" ","HOUSE_NO":"２１３號","E_COORD97":179444.26999999999,"N_COORD97":2585652.4900000002,"ADDRESS":"白沙屯２１３號","OBJECTID":354367},"geometry":{"x":179444.26999999955,"y":2585652.4900000021}},{"attributes":{"ID":354377,"DIS_CODE":0,"TOWNNAME":"仁德區","LI":"成功里","LIN":"20鄰","STREET":"保生路","SECT":" ","MAREA":" ","LANE":"１２３巷","ALLEY":" ","HOUSE_NO":"３號","E_COORD97":170621.98999999999,"N_COORD97":2539798,"ADDRESS":"保生路１２３巷３號","OBJECTID":354368},"geometry":{"x":170621.99000000022,"y":2539798.0000000019}},{"attributes":{"ID":354378,"DIS_CODE":0,"TOWNNAME":"仁德區","LI":"成功里","LIN":"20鄰","STREET":"保生路","SECT":" ","MAREA":" ","LANE":"１２３巷","ALLEY":" ","HOUSE_NO":"１４號","E_COORD97":170601.63,"N_COORD97":2539767.9900000002,"ADDRESS":"保生路１２３巷１４號","OBJECTID":354369},"geometry":{"x":170601.63000000082,"y":2539767.9900000002}},{"attributes":{"ID":354379,"DIS_CODE":0,"TOWNNAME":"後壁區","LI":"新嘉里","LIN":"20鄰","STREET":" ","SECT":" ","MAREA":"白沙屯","LANE":" ","ALLEY":" ","HOUSE_NO":"２１９號之１","E_COORD97":179480.98999999999,"N_COORD97":2585596.5,"ADDRESS":"白沙屯２１９號之１","OBJECTID":354370},"geometry":{"x":179480.99000000022,"y":2585596.5}},{"attributes":{"ID":354380,"DIS_CODE":0,"TOWNNAME":"永康區","LI":"中興里","LIN":"20鄰","STREET":"中華路","SECT":" ","MAREA":" ","LANE":"２１６巷","ALLEY":" ","HOUSE_NO":"４１號","E_COORD97":171856.89000000001,"N_COORD97":2545162.25,"ADDRESS":"中華路２１６巷４１號","OBJECTID":354371},"geometry":{"x":171856.8900000006,"y":2545162.2500000019}},{"attributes":{"ID":354381,"DIS_CODE":0,"TOWNNAME":"永康區","LI":"三合里","LIN":"20鄰","STREET":"南工街","SECT":" ","MAREA":" ","LANE":"２６９巷","ALLEY":" ","HOUSE_NO":"３號","E_COORD97":171857.03,"N_COORD97":2545964.4900000002,"ADDRESS":"南工街２６９巷３號","OBJECTID":354372},"geometry":{"x":171857.03000000119,"y":2545964.4900000021}},{"attributes":{"ID":354382,"DIS_CODE":0,"TOWNNAME":"永康區","LI":"中興里","LIN":"20鄰","STREET":"中華路","SECT":" ","MAREA":" ","LANE":"２１６巷","ALLEY":" ","HOUSE_NO":"３１號","E_COORD97":171838.01999999999,"N_COORD97":2545160.21,"ADDRESS":"中華路２１６巷３１號","OBJECTID":354373},"geometry":{"x":171838.01999999955,"y":2545160.2100000028}},{"attributes":{"ID":354383,"DIS_CODE":0,"TOWNNAME":"後壁區","LI":"新嘉里","LIN":"20鄰","STREET":" ","SECT":" ","MAREA":"白沙屯","LANE":" ","ALLEY":" ","HOUSE_NO":"２１９號","E_COORD97":179483.95999999999,"N_COORD97":2585612.71,"ADDRESS":"白沙屯２１９號","OBJECTID":354374},"geometry":{"x":179483.96000000089,"y":2585612.7100000009}},{"attributes":{"ID":354384,"DIS_CODE":0,"TOWNNAME":"永康區","LI":"中興里","LIN":"20鄰","STREET":"中華路","SECT":" ","MAREA":" ","LANE":"２１６巷","ALLEY":" ","HOUSE_NO":"３９號","E_COORD97":171853.81,"N_COORD97":2545162.25,"ADDRESS":"中華路２１６巷３９號","OBJECTID":354375},"geometry":{"x":171853.81000000145,"y":2545162.2500000019}},{"attributes":{"ID":354385,"DIS_CODE":0,"TOWNNAME":"安南區","LI":"大安里","LIN":"6鄰","STREET":"大安街","SECT":" ","MAREA":" ","LANE":"１３８巷","ALLEY":" ","HOUSE_NO":"１１號","E_COORD97":167343.79999999999,"N_COORD97":2548140.4300000002,"ADDRESS":"大安街１３８巷１１號","OBJECTID":354376},"geometry":{"x":167343.80000000075,"y":2548140.4300000034}},{"attributes":{"ID":354386,"DIS_CODE":0,"TOWNNAME":"安南區","LI":"大安里","LIN":"6鄰","STREET":"大安街","SECT":" ","MAREA":" ","LANE":"１３８巷","ALLEY":" ","HOUSE_NO":"１２號","E_COORD97":167329.73999999999,"N_COORD97":2548119.04,"ADDRESS":"大安街１３８巷１２號","OBJECTID":354377},"geometry":{"x":167329.74000000022,"y":2548119.040000001}},{"attributes":{"ID":354387,"DIS_CODE":0,"TOWNNAME":"東區","LI":"中西里","LIN":"8鄰","STREET":"勝利路","SECT":" ","MAREA":" ","LANE":" ","ALLEY":" ","HOUSE_NO":"５０號三樓之４","E_COORD97":169830.25,"N_COORD97":2543536.9100000001,"ADDRESS":"勝利路５０號三樓之４","OBJECTID":354378},"geometry":{"x":169830.25,"y":2543536.9100000039}},{"attributes":{"ID":354388,"DIS_CODE":0,"TOWNNAME":"東區","LI":"中西里","LIN":"8鄰","STREET":"勝利路","SECT":" ","MAREA":" ","LANE":" ","ALLEY":" ","HOUSE_NO":"５０號三樓之５","E_COORD97":169830.25,"N_COORD97":2543536.9100000001,"ADDRESS":"勝利路５０號三樓之５","OBJECTID":354379},"geometry":{"x":169830.25,"y":2543536.9100000039}},{"attributes":{"ID":354389,"DIS_CODE":0,"TOWNNAME":"東區","LI":"中西里","LIN":"8鄰","STREET":"勝利路","SECT":" ","MAREA":" ","LANE":" ","ALLEY":" ","HOUSE_NO":"５０號三樓之６","E_COORD97":169830.25,"N_COORD97":2543536.9100000001,"ADDRESS":"勝利路５０號三樓之６","OBJECTID":354380},"geometry":{"x":169830.25,"y":2543536.9100000039}},{"attributes":{"ID":354390,"DIS_CODE":0,"TOWNNAME":"東山區","LI":"東中里","LIN":"20鄰","STREET":"中興路","SECT":" ","MAREA":" ","LANE":" ","ALLEY":" ","HOUSE_NO":"３９號","E_COORD97":188976.35000000001,"N_COORD97":2580179.54,"ADDRESS":"中興路３９號","OBJECTID":354381},"geometry":{"x":188976.34999999963,"y":2580179.540000001}},{"attributes":{"ID":354391,"DIS_CODE":0,"TOWNNAME":"東區","LI":"中西里","LIN":"8鄰","STREET":"勝利路","SECT":" ","MAREA":" ","LANE":" ","ALLEY":" ","HOUSE_NO":"５０號三樓之７","E_COORD97":169830.25,"N_COORD97":2543536.9100000001,"ADDRESS":"勝利路５０號三樓之７","OBJECTID":354382},"geometry":{"x":169830.25,"y":2543536.9100000039}},{"attributes":{"ID":354392,"DIS_CODE":0,"TOWNNAME":"東區","LI":"中西里","LIN":"8鄰","STREET":"勝利路","SECT":" ","MAREA":" ","LANE":" ","ALLEY":" ","HOUSE_NO":"５０號三樓之８","E_COORD97":169830.25,"N_COORD97":2543536.9100000001,"ADDRESS":"勝利路５０號三樓之８","OBJECTID":354383},"geometry":{"x":169830.25,"y":2543536.9100000039}},{"attributes":{"ID":354393,"DIS_CODE":0,"TOWNNAME":"東區","LI":"中西里","LIN":"8鄰","STREET":"勝利路","SECT":" ","MAREA":" ","LANE":" ","ALLEY":" ","HOUSE_NO":"５０號三樓之１０","E_COORD97":169830.25,"N_COORD97":2543536.9100000001,"ADDRESS":"勝利路５０號三樓之１０","OBJECTID":354384},"geometry":{"x":169830.25,"y":2543536.9100000039}},{"attributes":{"ID":354394,"DIS_CODE":0,"TOWNNAME":"東區","LI":"中西里","LIN":"8鄰","STREET":"勝利路","SECT":" ","MAREA":" ","LANE":" ","ALLEY":" ","HOUSE_NO":"５０號三樓之１１","E_COORD97":169830.25,"N_COORD97":2543536.9100000001,"ADDRESS":"勝利路５０號三樓之１１","OBJECTID":354385},"geometry":{"x":169830.25,"y":2543536.9100000039}},{"attributes":{"ID":354395,"DIS_CODE":0,"TOWNNAME":"永康區","LI":"三民里","LIN":" ","STREET":"三民街","SECT":" ","MAREA":" ","LANE":" ","ALLEY":" ","HOUSE_NO":"３１之１號","E_COORD97":172957.45999999999,"N_COORD97":2550802.7999999998,"ADDRESS":"三民街３１之１號","OBJECTID":354386},"geometry":{"x":172957.46000000089,"y":2550802.8000000007}},{"attributes":{"ID":354396,"DIS_CODE":0,"TOWNNAME":"安南區","LI":"安富里","LIN":"20鄰","STREET":"郡安路","SECT":"五段","MAREA":" ","LANE":"１５３巷","ALLEY":" ","HOUSE_NO":"６６號","E_COORD97":167759.70999999999,"N_COORD97":2547549.0099999998,"ADDRESS":"郡安路五段１５３巷６６號","OBJECTID":354387},"geometry":{"x":167759.71000000089,"y":2547549.0099999998}},{"attributes":{"ID":354397,"DIS_CODE":0,"TOWNNAME":"安南區","LI":"安富里","LIN":"20鄰","STREET":"郡安路","SECT":"五段","MAREA":" ","LANE":"１５３巷","ALLEY":" ","HOUSE_NO":"６８號","E_COORD97":167761.54000000001,"N_COORD97":2547544.8900000001,"ADDRESS":"郡安路五段１５３巷６８號","OBJECTID":354388},"geometry":{"x":167761.54000000004,"y":2547544.8900000043}},{"attributes":{"ID":354398,"DIS_CODE":0,"TOWNNAME":"安南區","LI":"安富里","LIN":"20鄰","STREET":"郡安路","SECT":"五段","MAREA":" ","LANE":"１５３巷","ALLEY":" ","HOUSE_NO":"７０號","E_COORD97":167761.76999999999,"N_COORD97":2547540.77,"ADDRESS":"郡安路五段１５３巷７０號","OBJECTID":354389},"geometry":{"x":167761.77000000142,"y":2547540.7699999996}},{"attributes":{"ID":354399,"DIS_CODE":0,"TOWNNAME":"安南區","LI":"安富里","LIN":"20鄰","STREET":"郡安路","SECT":"五段","MAREA":" ","LANE":"１５３巷","ALLEY":" ","HOUSE_NO":"７２號","E_COORD97":167763.38,"N_COORD97":2547537.3300000001,"ADDRESS":"郡安路五段１５３巷７２號","OBJECTID":354390},"geometry":{"x":167763.38000000082,"y":2547537.3300000001}},{"attributes":{"ID":354400,"DIS_CODE":0,"TOWNNAME":"安南區","LI":"安富里","LIN":"20鄰","STREET":"郡安路","SECT":"五段","MAREA":" ","LANE":"１５３巷","ALLEY":" ","HOUSE_NO":"７６號","E_COORD97":167764.98000000001,"N_COORD97":2547527.0299999998,"ADDRESS":"郡安路五段１５３巷７６號","OBJECTID":354391},"geometry":{"x":167764.98000000138,"y":2547527.0300000012}},{"attributes":{"ID":354401,"DIS_CODE":0,"TOWNNAME":"安南區","LI":"安富里","LIN":"20鄰","STREET":"郡安路","SECT":"五段","MAREA":" ","LANE":"１５３巷","ALLEY":" ","HOUSE_NO":"７８號","E_COORD97":167767.73999999999,"N_COORD97":2547523.1400000001,"ADDRESS":"郡安路五段１５３巷７８號","OBJECTID":354392},"geometry":{"x":167767.74000000209,"y":2547523.1400000025}},{"attributes":{"ID":354402,"DIS_CODE":0,"TOWNNAME":"安南區","LI":"安富里","LIN":"20鄰","STREET":"郡安路","SECT":"五段","MAREA":" ","LANE":"１５３巷","ALLEY":" ","HOUSE_NO":"８０號","E_COORD97":167769.34,"N_COORD97":2547518.1000000001,"ADDRESS":"郡安路五段１５３巷８０號","OBJECTID":354393},"geometry":{"x":167769.33999999985,"y":2547518.0999999996}},{"attributes":{"ID":354403,"DIS_CODE":0,"TOWNNAME":"安南區","LI":"安富里","LIN":"20鄰","STREET":"郡安路","SECT":"五段","MAREA":" ","LANE":"１５３巷","ALLEY":" ","HOUSE_NO":"８２號","E_COORD97":167768.64999999999,"N_COORD97":2547513.29,"ADDRESS":"郡安路五段１５３巷８２號","OBJECTID":354394},"geometry":{"x":167768.65000000224,"y":2547513.2900000028}},{"attributes":{"ID":354404,"DIS_CODE":0,"TOWNNAME":"安南區","LI":"安富里","LIN":"20鄰","STREET":"郡安路","SECT":"五段","MAREA":" ","LANE":"１５３巷","ALLEY":" ","HOUSE_NO":"８４號","E_COORD97":167769.57000000001,"N_COORD97":2547509.8500000001,"ADDRESS":"郡安路五段１５３巷８４號","OBJECTID":354395},"geometry":{"x":167769.57000000123,"y":2547509.8499999996}},{"attributes":{"ID":354405,"DIS_CODE":0,"TOWNNAME":"永康區","LI":"龍潭里","LIN":" ","STREET":"永明街","SECT":" ","MAREA":" ","LANE":" ","ALLEY":" ","HOUSE_NO":"３３８之６號","E_COORD97":174606.42999999999,"N_COORD97":2547105.29,"ADDRESS":"永明街３３８之６號","OBJECTID":354396},"geometry":{"x":174606.43000000063,"y":2547105.2899999991}},{"attributes":{"ID":354406,"DIS_CODE":0,"TOWNNAME":"永康區","LI":"中華里","LIN":"25鄰","STREET":"忠義街","SECT":" ","MAREA":" ","LANE":" ","ALLEY":" ","HOUSE_NO":"９４號","E_COORD97":171732.20999999999,"N_COORD97":2544640.6899999999,"ADDRESS":"忠義街９４號","OBJECTID":354397},"geometry":{"x":171732.20999999996,"y":2544640.6900000013}},{"attributes":{"ID":354407,"DIS_CODE":0,"TOWNNAME":"永康區","LI":"永康里","LIN":" ","STREET":"永明街","SECT":" ","MAREA":" ","LANE":" ","ALLEY":" ","HOUSE_NO":"２６號","E_COORD97":174051.89999999999,"N_COORD97":2547337.6699999999,"ADDRESS":"永明街２６號","OBJECTID":354398},"geometry":{"x":174051.90000000037,"y":2547337.6699999999}},{"attributes":{"ID":354408,"DIS_CODE":0,"TOWNNAME":"永康區","LI":"\u25A0洲里","LIN":"20鄰","STREET":"中正南路","SECT":" ","MAREA":" ","LANE":" ","ALLEY":" ","HOUSE_NO":"７８３號","E_COORD97":171682.64999999999,"N_COORD97":2548960.2400000002,"ADDRESS":"中正南路７８３號","OBJECTID":354399},"geometry":{"x":171682.64999999944,"y":2548960.2400000021}},{"attributes":{"ID":354409,"DIS_CODE":0,"TOWNNAME":"永康區","LI":"\u25A0洲里","LIN":"25鄰","STREET":"國聖街","SECT":" ","MAREA":" ","LANE":" ","ALLEY":" ","HOUSE_NO":"１５３號","E_COORD97":170621.37,"N_COORD97":2548234.7400000002,"ADDRESS":"國聖街１５３號","OBJECTID":354400},"geometry":{"x":170621.36999999918,"y":2548234.7400000021}}]}