{"displayFieldName":"TOWNNAME","fieldAliases":{"ID":"ID","DIS_CODE":"DIS_CODE","TOWNNAME":"TOWNNAME","LI":"LI","LIN":"LIN","STREET":"STREET","SECT":"SECT","MAREA":"MAREA","LANE":"LANE","ALLEY":"ALLEY","HOUSE_NO":"HOUSE_NO","E_COORD97":"E_COORD97","N_COORD97":"N_COORD97","ADDRESS":"ADDRESS","OBJECTID":"OBJECTID"},"geometryType":"esriGeometryPoint","spatialReference":{"wkid":102443,"latestWkid":3826},"fields":[{"name":"ID","type":"esriFieldTypeDouble","alias":"ID"},{"name":"DIS_CODE","type":"esriFieldTypeInteger","alias":"DIS_CODE"},{"name":"TOWNNAME","type":"esriFieldTypeString","alias":"TOWNNAME","length":8},{"name":"LI","type":"esriFieldTypeString","alias":"LI","length":8},{"name":"LIN","type":"esriFieldTypeString","alias":"LIN","length":12},{"name":"STREET","type":"esriFieldTypeString","alias":"STREET","length":20},{"name":"SECT","type":"esriFieldTypeString","alias":"SECT","length":8},{"name":"MAREA","type":"esriFieldTypeString","alias":"MAREA","length":12},{"name":"LANE","type":"esriFieldTypeString","alias":"LANE","length":10},{"name":"ALLEY","type":"esriFieldTypeString","alias":"ALLEY","length":10},{"name":"HOUSE_NO","type":"esriFieldTypeString","alias":"HOUSE_NO","length":20},{"name":"E_COORD97","type":"esriFieldTypeDouble","alias":"E_COORD97"},{"name":"N_COORD97","type":"esriFieldTypeDouble","alias":"N_COORD97"},{"name":"ADDRESS","type":"esriFieldTypeString","alias":"ADDRESS","length":50},{"name":"OBJECTID","type":"esriFieldTypeOID","alias":"OBJECTID"}],"features":[{"attributes":{"ID":494828,"DIS_CODE":0,"TOWNNAME":"歸仁區","LI":"後市里","LIN":"8鄰","STREET":"中山五街","SECT":" ","MAREA":" ","LANE":" ","ALLEY":" ","HOUSE_NO":"４３號","E_COORD97":177101.69,"N_COORD97":2540703.25,"ADDRESS":"中山五街４３號","OBJECTID":494801},"geometry":{"x":177101.69000000041,"y":2540703.2500000037}},{"attributes":{"ID":494829,"DIS_CODE":0,"TOWNNAME":"歸仁區","LI":"看西里","LIN":"8鄰","STREET":"仁愛南街","SECT":" ","MAREA":" ","LANE":" ","ALLEY":" ","HOUSE_NO":"２４８號","E_COORD97":178252.88,"N_COORD97":2540203.25,"ADDRESS":"仁愛南街２４８號","OBJECTID":494802},"geometry":{"x":178252.88000000175,"y":2540203.2500000019}},{"attributes":{"ID":494830,"DIS_CODE":0,"TOWNNAME":"歸仁區","LI":"崙頂里","LIN":"8鄰","STREET":"崙頂五街","SECT":" ","MAREA":" ","LANE":" ","ALLEY":" ","HOUSE_NO":"７５號","E_COORD97":177998.63,"N_COORD97":2539841.25,"ADDRESS":"崙頂五街７５號","OBJECTID":494803},"geometry":{"x":177998.63000000175,"y":2539841.25}},{"attributes":{"ID":494831,"DIS_CODE":0,"TOWNNAME":"新市區","LI":"新和里","LIN":"30鄰","STREET":"光華街","SECT":" ","MAREA":" ","LANE":"２１４巷","ALLEY":"５弄","HOUSE_NO":"４號","E_COORD97":177878.89999999999,"N_COORD97":2553048,"ADDRESS":"光華街２１４巷５弄４號","OBJECTID":494804},"geometry":{"x":177878.9000000013,"y":2553048}},{"attributes":{"ID":494832,"DIS_CODE":0,"TOWNNAME":"永康區","LI":"埔園里","LIN":"15鄰","STREET":"中山路","SECT":" ","MAREA":" ","LANE":" ","ALLEY":" ","HOUSE_NO":"３４９號","E_COORD97":173582.88,"N_COORD97":2548447.7400000002,"ADDRESS":"中山路３４９號","OBJECTID":494805},"geometry":{"x":173582.88000000082,"y":2548447.7400000021}},{"attributes":{"ID":494833,"DIS_CODE":0,"TOWNNAME":"歸仁區","LI":"辜厝里","LIN":"8鄰","STREET":"中正六街","SECT":" ","MAREA":" ","LANE":" ","ALLEY":" ","HOUSE_NO":"１３號","E_COORD97":177549.06,"N_COORD97":2540654.1099999999,"ADDRESS":"中正六街１３號","OBJECTID":494806},"geometry":{"x":177549.05999999959,"y":2540654.1100000013}},{"attributes":{"ID":494834,"DIS_CODE":0,"TOWNNAME":"歸仁區","LI":"後市里","LIN":"8鄰","STREET":"中山五街","SECT":" ","MAREA":" ","LANE":" ","ALLEY":" ","HOUSE_NO":"３１號","E_COORD97":177102.79000000001,"N_COORD97":2540728.25,"ADDRESS":"中山五街３１號","OBJECTID":494807},"geometry":{"x":177102.79000000097,"y":2540728.2500000019}},{"attributes":{"ID":494835,"DIS_CODE":0,"TOWNNAME":"歸仁區","LI":"後市里","LIN":"8鄰","STREET":"中山五街","SECT":" ","MAREA":" ","LANE":" ","ALLEY":" ","HOUSE_NO":"４１號","E_COORD97":177101.69,"N_COORD97":2540707.25,"ADDRESS":"中山五街４１號","OBJECTID":494808},"geometry":{"x":177101.69000000041,"y":2540707.2500000019}},{"attributes":{"ID":494836,"DIS_CODE":0,"TOWNNAME":"歸仁區","LI":"崙頂里","LIN":"8鄰","STREET":"成功八街","SECT":" ","MAREA":" ","LANE":" ","ALLEY":" ","HOUSE_NO":"１５號","E_COORD97":178078.82999999999,"N_COORD97":2539894.25,"ADDRESS":"成功八街１５號","OBJECTID":494809},"geometry":{"x":178078.83000000194,"y":2539894.2500000019}},{"attributes":{"ID":494837,"DIS_CODE":0,"TOWNNAME":"歸仁區","LI":"後市里","LIN":"8鄰","STREET":"中山五街","SECT":" ","MAREA":" ","LANE":" ","ALLEY":" ","HOUSE_NO":"４７號","E_COORD97":177101.59,"N_COORD97":2540695.25,"ADDRESS":"中山五街４７號","OBJECTID":494810},"geometry":{"x":177101.58999999985,"y":2540695.25}},{"attributes":{"ID":494838,"DIS_CODE":0,"TOWNNAME":"歸仁區","LI":"辜厝里","LIN":"8鄰","STREET":"中正南路","SECT":"一段","MAREA":" ","LANE":" ","ALLEY":" ","HOUSE_NO":"４０號","E_COORD97":177600.76000000001,"N_COORD97":2540637.1200000001,"ADDRESS":"中正南路一段４０號","OBJECTID":494811},"geometry":{"x":177600.75999999978,"y":2540637.120000001}},{"attributes":{"ID":494839,"DIS_CODE":0,"TOWNNAME":"新營區","LI":"三仙里","LIN":"8鄰","STREET":"正義街","SECT":" ","MAREA":" ","LANE":" ","ALLEY":" ","HOUSE_NO":"２４號之２","E_COORD97":179659.64000000001,"N_COORD97":2578167.9500000002,"ADDRESS":"正義街２４號之２","OBJECTID":494812},"geometry":{"x":179659.64000000153,"y":2578167.9499999993}},{"attributes":{"ID":494840,"DIS_CODE":0,"TOWNNAME":"新營區","LI":"三仙里","LIN":"8鄰","STREET":"正義街","SECT":" ","MAREA":" ","LANE":" ","ALLEY":" ","HOUSE_NO":"２４號之１","E_COORD97":179659.48000000001,"N_COORD97":2578163.52,"ADDRESS":"正義街２４號之１","OBJECTID":494813},"geometry":{"x":179659.48000000045,"y":2578163.5199999996}},{"attributes":{"ID":494841,"DIS_CODE":0,"TOWNNAME":"新營區","LI":"新東里","LIN":"8鄰","STREET":"東學路","SECT":" ","MAREA":" ","LANE":" ","ALLEY":" ","HOUSE_NO":"１０３號","E_COORD97":181194.48999999999,"N_COORD97":2579395.5,"ADDRESS":"東學路１０３號","OBJECTID":494814},"geometry":{"x":181194.49000000115,"y":2579395.5}},{"attributes":{"ID":494842,"DIS_CODE":0,"TOWNNAME":"新營區","LI":"民生里","LIN":"8鄰","STREET":"民生路","SECT":" ","MAREA":" ","LANE":" ","ALLEY":" ","HOUSE_NO":"９號","E_COORD97":179331.51999999999,"N_COORD97":2578114.0800000001,"ADDRESS":"民生路９號","OBJECTID":494815},"geometry":{"x":179331.52000000142,"y":2578114.0800000038}},{"attributes":{"ID":494843,"DIS_CODE":0,"TOWNNAME":"新營區","LI":"民生里","LIN":"8鄰","STREET":"民生路","SECT":" ","MAREA":" ","LANE":" ","ALLEY":" ","HOUSE_NO":"１號","E_COORD97":179391.57000000001,"N_COORD97":2578061.8399999999,"ADDRESS":"民生路１號","OBJECTID":494816},"geometry":{"x":179391.57000000123,"y":2578061.8400000017}},{"attributes":{"ID":494844,"DIS_CODE":0,"TOWNNAME":"楠西區","LI":"楠西里","LIN":"8鄰","STREET":"民權路","SECT":" ","MAREA":" ","LANE":" ","ALLEY":" ","HOUSE_NO":"２號","E_COORD97":197216.79000000001,"N_COORD97":2564262.29,"ADDRESS":"民權路２號","OBJECTID":494817},"geometry":{"x":197216.79000000097,"y":2564262.290000001}},{"attributes":{"ID":494845,"DIS_CODE":0,"TOWNNAME":"楠西區","LI":"楠西里","LIN":"8鄰","STREET":"民權路","SECT":" ","MAREA":" ","LANE":" ","ALLEY":" ","HOUSE_NO":"１０號","E_COORD97":197238.23999999999,"N_COORD97":2564261.2799999998,"ADDRESS":"民權路１０號","OBJECTID":494818},"geometry":{"x":197238.24000000022,"y":2564261.2799999993}},{"attributes":{"ID":494846,"DIS_CODE":0,"TOWNNAME":"楠西區","LI":"東勢里","LIN":"8鄰","STREET":"東勢路","SECT":" ","MAREA":" ","LANE":" ","ALLEY":" ","HOUSE_NO":"１１６號","E_COORD97":197508.76999999999,"N_COORD97":2564053.29,"ADDRESS":"東勢路１１６號","OBJECTID":494819},"geometry":{"x":197508.76999999955,"y":2564053.290000001}},{"attributes":{"ID":494847,"DIS_CODE":0,"TOWNNAME":"楠西區","LI":"楠西里","LIN":"8鄰","STREET":"中華路","SECT":" ","MAREA":" ","LANE":" ","ALLEY":" ","HOUSE_NO":"９６號","E_COORD97":197238.88,"N_COORD97":2564166.6800000002,"ADDRESS":"中華路９６號","OBJECTID":494820},"geometry":{"x":197238.87999999989,"y":2564166.6799999997}},{"attributes":{"ID":494848,"DIS_CODE":0,"TOWNNAME":"楠西區","LI":"楠西里","LIN":"8鄰","STREET":"民權路","SECT":" ","MAREA":" ","LANE":" ","ALLEY":" ","HOUSE_NO":"１２號","E_COORD97":197243.64000000001,"N_COORD97":2564261.2799999998,"ADDRESS":"民權路１２號","OBJECTID":494821},"geometry":{"x":197243.63999999966,"y":2564261.2799999993}},{"attributes":{"ID":494849,"DIS_CODE":0,"TOWNNAME":"楠西區","LI":"東勢里","LIN":"8鄰","STREET":"東勢路","SECT":" ","MAREA":" ","LANE":" ","ALLEY":" ","HOUSE_NO":"１０２號","E_COORD97":197532.67000000001,"N_COORD97":2564055.29,"ADDRESS":"東勢路１０２號","OBJECTID":494822},"geometry":{"x":197532.67000000086,"y":2564055.2900000028}},{"attributes":{"ID":494850,"DIS_CODE":0,"TOWNNAME":"楠西區","LI":"東勢里","LIN":"8鄰","STREET":"東勢路","SECT":" ","MAREA":" ","LANE":" ","ALLEY":" ","HOUSE_NO":"１００號","E_COORD97":197536.26999999999,"N_COORD97":2564056.29,"ADDRESS":"東勢路１００號","OBJECTID":494823},"geometry":{"x":197536.27000000048,"y":2564056.290000001}},{"attributes":{"ID":494851,"DIS_CODE":0,"TOWNNAME":"東山區","LI":"東中里","LIN":"8鄰","STREET":"東仁街","SECT":" ","MAREA":" ","LANE":" ","ALLEY":" ","HOUSE_NO":"２號","E_COORD97":188916.42999999999,"N_COORD97":2579824.3999999999,"ADDRESS":"東仁街２號","OBJECTID":494824},"geometry":{"x":188916.4299999997,"y":2579824.4000000041}},{"attributes":{"ID":494852,"DIS_CODE":0,"TOWNNAME":"新化區","LI":"豐榮里","LIN":"8鄰","STREET":"大智路","SECT":" ","MAREA":" ","LANE":" ","ALLEY":" ","HOUSE_NO":"８５號","E_COORD97":178212.38,"N_COORD97":2548240.25,"ADDRESS":"大智路８５號","OBJECTID":494825},"geometry":{"x":178212.38000000082,"y":2548240.2500000037}},{"attributes":{"ID":494853,"DIS_CODE":0,"TOWNNAME":"新化區","LI":"清水里","LIN":"8鄰","STREET":"民治路","SECT":" ","MAREA":" ","LANE":" ","ALLEY":" ","HOUSE_NO":"２８２號","E_COORD97":178676.41,"N_COORD97":2548570.25,"ADDRESS":"民治路２８２號","OBJECTID":494826},"geometry":{"x":178676.41000000015,"y":2548570.2500000019}},{"attributes":{"ID":494854,"DIS_CODE":0,"TOWNNAME":"新化區","LI":"武安里","LIN":"8鄰","STREET":"信義路","SECT":" ","MAREA":" ","LANE":" ","ALLEY":" ","HOUSE_NO":"３１３號","E_COORD97":178913.63,"N_COORD97":2548299.25,"ADDRESS":"信義路３１３號","OBJECTID":494827},"geometry":{"x":178913.62999999989,"y":2548299.2500000019}},{"attributes":{"ID":494855,"DIS_CODE":0,"TOWNNAME":"新化區","LI":"清水里","LIN":"8鄰","STREET":"民權街","SECT":" ","MAREA":" ","LANE":" ","ALLEY":" ","HOUSE_NO":"８１號","E_COORD97":178726.16,"N_COORD97":2548638.25,"ADDRESS":"民權街８１號","OBJECTID":494828},"geometry":{"x":178726.16000000108,"y":2548638.2500000019}},{"attributes":{"ID":494856,"DIS_CODE":0,"TOWNNAME":"新化區","LI":"太平里","LIN":"8鄰","STREET":"中正路","SECT":" ","MAREA":" ","LANE":" ","ALLEY":" ","HOUSE_NO":"６２０號","E_COORD97":178732.60999999999,"N_COORD97":2549286.25,"ADDRESS":"中正路６２０號","OBJECTID":494829},"geometry":{"x":178732.61000000034,"y":2549286.25}},{"attributes":{"ID":494857,"DIS_CODE":0,"TOWNNAME":"新化區","LI":"清水里","LIN":"8鄰","STREET":"忠孝路","SECT":" ","MAREA":" ","LANE":" ","ALLEY":" ","HOUSE_NO":"９９號","E_COORD97":178737.76999999999,"N_COORD97":2548639.25,"ADDRESS":"忠孝路９９號","OBJECTID":494830},"geometry":{"x":178737.76999999955,"y":2548639.25}},{"attributes":{"ID":494858,"DIS_CODE":0,"TOWNNAME":"新化區","LI":"護國里","LIN":"8鄰","STREET":"信義路","SECT":" ","MAREA":" ","LANE":" ","ALLEY":" ","HOUSE_NO":"１１６號","E_COORD97":179713.03,"N_COORD97":2548645.25,"ADDRESS":"信義路１１６號","OBJECTID":494831},"geometry":{"x":179713.03000000026,"y":2548645.2500000019}},{"attributes":{"ID":494859,"DIS_CODE":0,"TOWNNAME":"新化區","LI":"護國里","LIN":"8鄰","STREET":"信義路","SECT":" ","MAREA":" ","LANE":" ","ALLEY":" ","HOUSE_NO":"２２號","E_COORD97":180854.48000000001,"N_COORD97":2548711.25,"ADDRESS":"信義路２２號","OBJECTID":494832},"geometry":{"x":180854.48000000045,"y":2548711.2499999981}},{"attributes":{"ID":494860,"DIS_CODE":0,"TOWNNAME":"新化區","LI":"太平里","LIN":"8鄰","STREET":"中正路","SECT":" ","MAREA":" ","LANE":" ","ALLEY":" ","HOUSE_NO":"６５２號之１","E_COORD97":178676.94,"N_COORD97":2549400.2599999998,"ADDRESS":"中正路６５２號之１","OBJECTID":494833},"geometry":{"x":178676.94000000227,"y":2549400.2600000016}},{"attributes":{"ID":494861,"DIS_CODE":0,"TOWNNAME":"新化區","LI":"武安里","LIN":"8鄰","STREET":"信義路","SECT":" ","MAREA":" ","LANE":" ","ALLEY":" ","HOUSE_NO":"３０７號","E_COORD97":178932.73000000001,"N_COORD97":2548281.25,"ADDRESS":"信義路３０７號","OBJECTID":494834},"geometry":{"x":178932.73000000138,"y":2548281.2500000019}},{"attributes":{"ID":494862,"DIS_CODE":0,"TOWNNAME":"新化區","LI":"豐榮里","LIN":"8鄰","STREET":"大智路","SECT":" ","MAREA":" ","LANE":" ","ALLEY":" ","HOUSE_NO":"８３號之１","E_COORD97":178224.91,"N_COORD97":2548256.2599999998,"ADDRESS":"大智路８３號之１","OBJECTID":494835},"geometry":{"x":178224.91000000108,"y":2548256.2599999998}},{"attributes":{"ID":494863,"DIS_CODE":0,"TOWNNAME":"新化區","LI":"太平里","LIN":"8鄰","STREET":"中正路","SECT":" ","MAREA":" ","LANE":" ","ALLEY":" ","HOUSE_NO":"６３４號","E_COORD97":178707.91,"N_COORD97":2549337.25,"ADDRESS":"中正路６３４號","OBJECTID":494836},"geometry":{"x":178707.91000000108,"y":2549337.25}},{"attributes":{"ID":494864,"DIS_CODE":0,"TOWNNAME":"新化區","LI":"護國里","LIN":"8鄰","STREET":"信義路","SECT":" ","MAREA":" ","LANE":" ","ALLEY":" ","HOUSE_NO":"１０８號之９","E_COORD97":179771.37,"N_COORD97":2548709.2599999998,"ADDRESS":"信義路１０８號之９","OBJECTID":494837},"geometry":{"x":179771.37000000011,"y":2548709.2600000016}},{"attributes":{"ID":494865,"DIS_CODE":0,"TOWNNAME":"新化區","LI":"武安里","LIN":"8鄰","STREET":"和平街","SECT":" ","MAREA":" ","LANE":" ","ALLEY":" ","HOUSE_NO":"１７０號","E_COORD97":178909.32000000001,"N_COORD97":2548267.25,"ADDRESS":"和平街１７０號","OBJECTID":494838},"geometry":{"x":178909.3200000003,"y":2548267.2500000037}},{"attributes":{"ID":494866,"DIS_CODE":0,"TOWNNAME":"新化區","LI":"清水里","LIN":"8鄰","STREET":"民權街","SECT":" ","MAREA":" ","LANE":" ","ALLEY":" ","HOUSE_NO":"５１號","E_COORD97":178746.06,"N_COORD97":2548553.25,"ADDRESS":"民權街５１號","OBJECTID":494839},"geometry":{"x":178746.05999999959,"y":2548553.2500000019}},{"attributes":{"ID":494867,"DIS_CODE":0,"TOWNNAME":"新化區","LI":"清水里","LIN":"8鄰","STREET":"忠孝路","SECT":" ","MAREA":" ","LANE":" ","ALLEY":" ","HOUSE_NO":"１１９號","E_COORD97":178706.92000000001,"N_COORD97":2548608.25,"ADDRESS":"忠孝路１１９號","OBJECTID":494840},"geometry":{"x":178706.91999999899,"y":2548608.25}},{"attributes":{"ID":494868,"DIS_CODE":0,"TOWNNAME":"新化區","LI":"武安里","LIN":"8鄰","STREET":"和平街","SECT":" ","MAREA":" ","LANE":" ","ALLEY":" ","HOUSE_NO":"１７２號","E_COORD97":178906.01999999999,"N_COORD97":2548278.25,"ADDRESS":"和平街１７２號","OBJECTID":494841},"geometry":{"x":178906.02000000142,"y":2548278.2500000019}},{"attributes":{"ID":494869,"DIS_CODE":0,"TOWNNAME":"新化區","LI":"協興里","LIN":"8鄰","STREET":"太平街","SECT":" ","MAREA":" ","LANE":" ","ALLEY":" ","HOUSE_NO":"１２８號","E_COORD97":178428.92000000001,"N_COORD97":2548707.25,"ADDRESS":"太平街１２８號","OBJECTID":494842},"geometry":{"x":178428.92000000179,"y":2548707.25}},{"attributes":{"ID":494870,"DIS_CODE":0,"TOWNNAME":"新化區","LI":"協興里","LIN":"8鄰","STREET":"太平街","SECT":" ","MAREA":" ","LANE":" ","ALLEY":" ","HOUSE_NO":"１０２號之２","E_COORD97":178586.17999999999,"N_COORD97":2548740.2599999998,"ADDRESS":"太平街１０２號之２","OBJECTID":494843},"geometry":{"x":178586.1799999997,"y":2548740.2599999998}},{"attributes":{"ID":494871,"DIS_CODE":0,"TOWNNAME":"新化區","LI":"豐榮里","LIN":"8鄰","STREET":"大智路","SECT":" ","MAREA":" ","LANE":" ","ALLEY":" ","HOUSE_NO":"６０號","E_COORD97":178234.88,"N_COORD97":2548310.25,"ADDRESS":"大智路６０號","OBJECTID":494844},"geometry":{"x":178234.88000000082,"y":2548310.25}},{"attributes":{"ID":494872,"DIS_CODE":0,"TOWNNAME":"新化區","LI":"豐榮里","LIN":"8鄰","STREET":"大智路","SECT":" ","MAREA":" ","LANE":" ","ALLEY":" ","HOUSE_NO":"６２號","E_COORD97":178218.78,"N_COORD97":2548308.25,"ADDRESS":"大智路６２號","OBJECTID":494845},"geometry":{"x":178218.78000000119,"y":2548308.2500000037}},{"attributes":{"ID":494873,"DIS_CODE":0,"TOWNNAME":"新化區","LI":"豐榮里","LIN":"8鄰","STREET":"大智路","SECT":" ","MAREA":" ","LANE":" ","ALLEY":" ","HOUSE_NO":"８３號之２","E_COORD97":178229.03,"N_COORD97":2548256.2599999998,"ADDRESS":"大智路８３號之２","OBJECTID":494846},"geometry":{"x":178229.03000000119,"y":2548256.2599999998}},{"attributes":{"ID":494874,"DIS_CODE":0,"TOWNNAME":"新化區","LI":"清水里","LIN":"8鄰","STREET":"民治路","SECT":" ","MAREA":" ","LANE":" ","ALLEY":" ","HOUSE_NO":"２９６號","E_COORD97":178675.01000000001,"N_COORD97":2548591.25,"ADDRESS":"民治路２９６號","OBJECTID":494847},"geometry":{"x":178675.00999999978,"y":2548591.25}},{"attributes":{"ID":494875,"DIS_CODE":0,"TOWNNAME":"新化區","LI":"豐榮里","LIN":"8鄰","STREET":"大智路","SECT":" ","MAREA":" ","LANE":" ","ALLEY":" ","HOUSE_NO":"８３號之３","E_COORD97":178233.32999999999,"N_COORD97":2548256.2599999998,"ADDRESS":"大智路８３號之３","OBJECTID":494848},"geometry":{"x":178233.33000000101,"y":2548256.2599999998}},{"attributes":{"ID":494876,"DIS_CODE":0,"TOWNNAME":"新化區","LI":"協興里","LIN":"8鄰","STREET":"太平街","SECT":" ","MAREA":" ","LANE":" ","ALLEY":" ","HOUSE_NO":"１０２號之３","E_COORD97":178579.26999999999,"N_COORD97":2548739.2599999998,"ADDRESS":"太平街１０２號之３","OBJECTID":494849},"geometry":{"x":178579.27000000048,"y":2548739.2600000016}},{"attributes":{"ID":494877,"DIS_CODE":0,"TOWNNAME":"新化區","LI":"護國里","LIN":"8鄰","STREET":"信義路","SECT":" ","MAREA":" ","LANE":" ","ALLEY":" ","HOUSE_NO":"１０８號之３","E_COORD97":179785.67999999999,"N_COORD97":2548695.2599999998,"ADDRESS":"信義路１０８號之３","OBJECTID":494850},"geometry":{"x":179785.6799999997,"y":2548695.2600000016}},{"attributes":{"ID":494878,"DIS_CODE":0,"TOWNNAME":"新化區","LI":"協興里","LIN":"8鄰","STREET":"太平街","SECT":" ","MAREA":" ","LANE":" ","ALLEY":" ","HOUSE_NO":"１０２號之４","E_COORD97":178565.26000000001,"N_COORD97":2548737.2599999998,"ADDRESS":"太平街１０２號之４","OBJECTID":494851},"geometry":{"x":178565.25999999978,"y":2548737.2599999998}},{"attributes":{"ID":494879,"DIS_CODE":0,"TOWNNAME":"新化區","LI":"太平里","LIN":"8鄰","STREET":"中正路","SECT":" ","MAREA":" ","LANE":" ","ALLEY":" ","HOUSE_NO":"６５２號之５","E_COORD97":178671.76999999999,"N_COORD97":2549422.2599999998,"ADDRESS":"中正路６５２號之５","OBJECTID":494852},"geometry":{"x":178671.76999999955,"y":2549422.2599999998}},{"attributes":{"ID":494880,"DIS_CODE":0,"TOWNNAME":"新化區","LI":"武安里","LIN":"8鄰","STREET":"和平街","SECT":" ","MAREA":" ","LANE":" ","ALLEY":" ","HOUSE_NO":"１６８號","E_COORD97":178909.72,"N_COORD97":2548263.25,"ADDRESS":"和平街１６８號","OBJECTID":494853},"geometry":{"x":178909.71999999974,"y":2548263.25}},{"attributes":{"ID":494881,"DIS_CODE":0,"TOWNNAME":"新化區","LI":"豐榮里","LIN":"8鄰","STREET":"大智路","SECT":" ","MAREA":" ","LANE":" ","ALLEY":" ","HOUSE_NO":"８５號之１","E_COORD97":178202.41,"N_COORD97":2548239.2599999998,"ADDRESS":"大智路８５號之１","OBJECTID":494854},"geometry":{"x":178202.41000000108,"y":2548239.2599999998}},{"attributes":{"ID":494882,"DIS_CODE":0,"TOWNNAME":"新化區","LI":"豐榮里","LIN":"8鄰","STREET":"大智路","SECT":" ","MAREA":" ","LANE":" ","ALLEY":" ","HOUSE_NO":"４７號","E_COORD97":178294.98000000001,"N_COORD97":2548337.25,"ADDRESS":"大智路４７號","OBJECTID":494855},"geometry":{"x":178294.98000000045,"y":2548337.25}},{"attributes":{"ID":494883,"DIS_CODE":0,"TOWNNAME":"新化區","LI":"護國里","LIN":"8鄰","STREET":"信義路","SECT":" ","MAREA":" ","LANE":" ","ALLEY":" ","HOUSE_NO":"１０４號","E_COORD97":179804.13,"N_COORD97":2548707.25,"ADDRESS":"信義路１０４號","OBJECTID":494856},"geometry":{"x":179804.13000000175,"y":2548707.25}},{"attributes":{"ID":494884,"DIS_CODE":0,"TOWNNAME":"新化區","LI":"清水里","LIN":"8鄰","STREET":"忠孝路","SECT":" ","MAREA":" ","LANE":" ","ALLEY":" ","HOUSE_NO":"１１５號","E_COORD97":178706.62,"N_COORD97":2548618.25,"ADDRESS":"忠孝路１１５號","OBJECTID":494857},"geometry":{"x":178706.62000000104,"y":2548618.25}},{"attributes":{"ID":494885,"DIS_CODE":0,"TOWNNAME":"新化區","LI":"武安里","LIN":"8鄰","STREET":"和平街","SECT":" ","MAREA":" ","LANE":" ","ALLEY":" ","HOUSE_NO":"１６６號","E_COORD97":178909.51999999999,"N_COORD97":2548258.25,"ADDRESS":"和平街１６６號","OBJECTID":494858},"geometry":{"x":178909.52000000048,"y":2548258.2500000019}},{"attributes":{"ID":494886,"DIS_CODE":0,"TOWNNAME":"新化區","LI":"協興里","LIN":"8鄰","STREET":"太平街","SECT":" ","MAREA":" ","LANE":" ","ALLEY":" ","HOUSE_NO":"１１４號","E_COORD97":178511.22,"N_COORD97":2548725.25,"ADDRESS":"太平街１１４號","OBJECTID":494859},"geometry":{"x":178511.21999999974,"y":2548725.2500000037}},{"attributes":{"ID":494887,"DIS_CODE":0,"TOWNNAME":"新化區","LI":"武安里","LIN":"8鄰","STREET":"大同街","SECT":" ","MAREA":" ","LANE":" ","ALLEY":" ","HOUSE_NO":"４５號","E_COORD97":178997.48000000001,"N_COORD97":2548170.25,"ADDRESS":"大同街４５號","OBJECTID":494860},"geometry":{"x":178997.48000000138,"y":2548170.2500000019}},{"attributes":{"ID":494888,"DIS_CODE":0,"TOWNNAME":"新化區","LI":"清水里","LIN":"8鄰","STREET":"忠孝路","SECT":" ","MAREA":" ","LANE":" ","ALLEY":" ","HOUSE_NO":"１４５號","E_COORD97":178669.92000000001,"N_COORD97":2548626.25,"ADDRESS":"忠孝路１４５號","OBJECTID":494861},"geometry":{"x":178669.92000000086,"y":2548626.25}},{"attributes":{"ID":494889,"DIS_CODE":0,"TOWNNAME":"新化區","LI":"豐榮里","LIN":"8鄰","STREET":"大智路","SECT":" ","MAREA":" ","LANE":" ","ALLEY":" ","HOUSE_NO":"６１號","E_COORD97":178269.07999999999,"N_COORD97":2548315.25,"ADDRESS":"大智路６１號","OBJECTID":494862},"geometry":{"x":178269.08000000101,"y":2548315.2500000019}},{"attributes":{"ID":494890,"DIS_CODE":0,"TOWNNAME":"新化區","LI":"豐榮里","LIN":"8鄰","STREET":"大智路","SECT":" ","MAREA":" ","LANE":" ","ALLEY":" ","HOUSE_NO":"８３號","E_COORD97":178208.48000000001,"N_COORD97":2548253.25,"ADDRESS":"大智路８３號","OBJECTID":494863},"geometry":{"x":178208.48000000045,"y":2548253.25}},{"attributes":{"ID":494891,"DIS_CODE":0,"TOWNNAME":"新化區","LI":"護國里","LIN":"8鄰","STREET":"信義路","SECT":" ","MAREA":" ","LANE":" ","ALLEY":" ","HOUSE_NO":"８４號之２","E_COORD97":179842.63,"N_COORD97":2548723.2599999998,"ADDRESS":"信義路８４號之２","OBJECTID":494864},"geometry":{"x":179842.62999999989,"y":2548723.2599999998}},{"attributes":{"ID":494892,"DIS_CODE":0,"TOWNNAME":"新化區","LI":"武安里","LIN":"8鄰","STREET":"信義路","SECT":" ","MAREA":" ","LANE":" ","ALLEY":" ","HOUSE_NO":"３０９號","E_COORD97":178928.23000000001,"N_COORD97":2548293.25,"ADDRESS":"信義路３０９號","OBJECTID":494865},"geometry":{"x":178928.23000000138,"y":2548293.25}},{"attributes":{"ID":494893,"DIS_CODE":0,"TOWNNAME":"新化區","LI":"清水里","LIN":"8鄰","STREET":"忠孝路","SECT":" ","MAREA":" ","LANE":" ","ALLEY":" ","HOUSE_NO":"１０１號","E_COORD97":178735.72,"N_COORD97":2548640.25,"ADDRESS":"忠孝路１０１號","OBJECTID":494866},"geometry":{"x":178735.72000000067,"y":2548640.2500000037}},{"attributes":{"ID":494894,"DIS_CODE":0,"TOWNNAME":"新化區","LI":"清水里","LIN":"8鄰","STREET":"民治路","SECT":" ","MAREA":" ","LANE":" ","ALLEY":" ","HOUSE_NO":"２９６號之２","E_COORD97":178675.47,"N_COORD97":2548594.2599999998,"ADDRESS":"民治路２９６號之２","OBJECTID":494867},"geometry":{"x":178675.46999999974,"y":2548594.2599999998}},{"attributes":{"ID":494895,"DIS_CODE":0,"TOWNNAME":"新化區","LI":"清水里","LIN":"8鄰","STREET":"民治路","SECT":" ","MAREA":" ","LANE":" ","ALLEY":" ","HOUSE_NO":"３０６號","E_COORD97":178674.51000000001,"N_COORD97":2548604.25,"ADDRESS":"民治路３０６號","OBJECTID":494868},"geometry":{"x":178674.51000000071,"y":2548604.2500000019}},{"attributes":{"ID":494896,"DIS_CODE":0,"TOWNNAME":"新化區","LI":"豐榮里","LIN":"8鄰","STREET":"大智路","SECT":" ","MAREA":" ","LANE":" ","ALLEY":" ","HOUSE_NO":"８３號之７","E_COORD97":178247.01999999999,"N_COORD97":2548258.2599999998,"ADDRESS":"大智路８３號之７","OBJECTID":494869},"geometry":{"x":178247.02000000048,"y":2548258.2600000016}},{"attributes":{"ID":494897,"DIS_CODE":0,"TOWNNAME":"新化區","LI":"護國里","LIN":"8鄰","STREET":"信義路","SECT":" ","MAREA":" ","LANE":" ","ALLEY":" ","HOUSE_NO":"９２號之１","E_COORD97":179809.51000000001,"N_COORD97":2548711.2599999998,"ADDRESS":"信義路９２號之１","OBJECTID":494870},"geometry":{"x":179809.50999999978,"y":2548711.2600000035}},{"attributes":{"ID":494898,"DIS_CODE":0,"TOWNNAME":"新化區","LI":"護國里","LIN":"8鄰","STREET":"信義路","SECT":" ","MAREA":" ","LANE":" ","ALLEY":" ","HOUSE_NO":"９６號","E_COORD97":179825.98000000001,"N_COORD97":2548733.25,"ADDRESS":"信義路９６號","OBJECTID":494871},"geometry":{"x":179825.98000000231,"y":2548733.2500000019}},{"attributes":{"ID":494899,"DIS_CODE":0,"TOWNNAME":"新化區","LI":"豐榮里","LIN":"8鄰","STREET":"大智路","SECT":" ","MAREA":" ","LANE":" ","ALLEY":" ","HOUSE_NO":"８３號之５","E_COORD97":178238.14000000001,"N_COORD97":2548257.2599999998,"ADDRESS":"大智路８３號之５","OBJECTID":494872},"geometry":{"x":178238.1400000006,"y":2548257.2600000016}},{"attributes":{"ID":494900,"DIS_CODE":0,"TOWNNAME":"新化區","LI":"太平里","LIN":"8鄰","STREET":"中正路","SECT":" ","MAREA":" ","LANE":" ","ALLEY":" ","HOUSE_NO":"６５２號之２","E_COORD97":178674.35999999999,"N_COORD97":2549405.2599999998,"ADDRESS":"中正路６５２號之２","OBJECTID":494873},"geometry":{"x":178674.36000000127,"y":2549405.2599999998}},{"attributes":{"ID":494901,"DIS_CODE":0,"TOWNNAME":"新化區","LI":"豐榮里","LIN":"8鄰","STREET":"大智路","SECT":" ","MAREA":" ","LANE":" ","ALLEY":" ","HOUSE_NO":"８７號之３","E_COORD97":178265.53,"N_COORD97":2548254.2599999998,"ADDRESS":"大智路８７號之３","OBJECTID":494874},"geometry":{"x":178265.53000000026,"y":2548254.2600000016}},{"attributes":{"ID":494902,"DIS_CODE":0,"TOWNNAME":"新化區","LI":"豐榮里","LIN":"8鄰","STREET":"大智路","SECT":" ","MAREA":" ","LANE":" ","ALLEY":" ","HOUSE_NO":"８３號之６","E_COORD97":178242.13,"N_COORD97":2548257.2599999998,"ADDRESS":"大智路８３號之６","OBJECTID":494875},"geometry":{"x":178242.12999999989,"y":2548257.2600000016}},{"attributes":{"ID":494903,"DIS_CODE":0,"TOWNNAME":"新化區","LI":"護國里","LIN":"8鄰","STREET":"信義路","SECT":" ","MAREA":" ","LANE":" ","ALLEY":" ","HOUSE_NO":"１０８號之８","E_COORD97":179771.39000000001,"N_COORD97":2548706.2599999998,"ADDRESS":"信義路１０８號之８","OBJECTID":494876},"geometry":{"x":179771.38999999873,"y":2548706.2599999998}},{"attributes":{"ID":494904,"DIS_CODE":0,"TOWNNAME":"安平區","LI":"海頭里","LIN":"8鄰","STREET":"古堡街","SECT":" ","MAREA":" ","LANE":" ","ALLEY":" ","HOUSE_NO":"５１號","E_COORD97":164043.37109299999,"N_COORD97":2544607.04996,"ADDRESS":"古堡街５１號","OBJECTID":494877},"geometry":{"x":164043.37109299935,"y":2544607.0499639995}},{"attributes":{"ID":494905,"DIS_CODE":0,"TOWNNAME":"新化區","LI":"護國里","LIN":"8鄰","STREET":"信義路","SECT":" ","MAREA":" ","LANE":" ","ALLEY":" ","HOUSE_NO":"２號之３８","E_COORD97":181690.16,"N_COORD97":2548835.5800000001,"ADDRESS":"信義路２號之３８","OBJECTID":494878},"geometry":{"x":181690.16000000015,"y":2548835.5800000019}},{"attributes":{"ID":494906,"DIS_CODE":0,"TOWNNAME":"新化區","LI":"護國里","LIN":"8鄰","STREET":"信義路","SECT":" ","MAREA":" ","LANE":" ","ALLEY":" ","HOUSE_NO":"２號之１","E_COORD97":181610.73999999999,"N_COORD97":2548729.9700000002,"ADDRESS":"信義路２號之１","OBJECTID":494879},"geometry":{"x":181610.74000000209,"y":2548729.9700000007}},{"attributes":{"ID":494907,"DIS_CODE":0,"TOWNNAME":"新化區","LI":"護國里","LIN":"8鄰","STREET":"信義路","SECT":" ","MAREA":" ","LANE":" ","ALLEY":" ","HOUSE_NO":"２號之３","E_COORD97":181635.63,"N_COORD97":2548724.9300000002,"ADDRESS":"信義路２號之３","OBJECTID":494880},"geometry":{"x":181635.63000000082,"y":2548724.9300000016}},{"attributes":{"ID":494908,"DIS_CODE":0,"TOWNNAME":"新化區","LI":"護國里","LIN":"8鄰","STREET":"信義路","SECT":" ","MAREA":" ","LANE":" ","ALLEY":" ","HOUSE_NO":"２號之５","E_COORD97":181652.17816099999,"N_COORD97":2548726.1528699999,"ADDRESS":"信義路２號之５","OBJECTID":494881},"geometry":{"x":181652.1781609999,"y":2548726.1528700013}},{"attributes":{"ID":494909,"DIS_CODE":0,"TOWNNAME":"新化區","LI":"護國里","LIN":"8鄰","STREET":"信義路","SECT":" ","MAREA":" ","LANE":" ","ALLEY":" ","HOUSE_NO":"２號之６","E_COORD97":181662.04999999999,"N_COORD97":2548725.1800000002,"ADDRESS":"信義路２號之６","OBJECTID":494882},"geometry":{"x":181662.04999999981,"y":2548725.1800000034}},{"attributes":{"ID":494910,"DIS_CODE":0,"TOWNNAME":"新化區","LI":"護國里","LIN":"8鄰","STREET":"信義路","SECT":" ","MAREA":" ","LANE":" ","ALLEY":" ","HOUSE_NO":"２號之７","E_COORD97":181611.923351,"N_COORD97":2548754.8336900002,"ADDRESS":"信義路２號之７","OBJECTID":494883},"geometry":{"x":181611.92335099913,"y":2548754.8336880021}},{"attributes":{"ID":494911,"DIS_CODE":0,"TOWNNAME":"新化區","LI":"護國里","LIN":"8鄰","STREET":"信義路","SECT":" ","MAREA":" ","LANE":" ","ALLEY":" ","HOUSE_NO":"２號之８","E_COORD97":181625.67000000001,"N_COORD97":2548753.8100000001,"ADDRESS":"信義路２號之８","OBJECTID":494884},"geometry":{"x":181625.66999999993,"y":2548753.8100000024}},{"attributes":{"ID":494912,"DIS_CODE":0,"TOWNNAME":"新化區","LI":"護國里","LIN":"8鄰","STREET":"信義路","SECT":" ","MAREA":" ","LANE":" ","ALLEY":" ","HOUSE_NO":"２號之１１","E_COORD97":181662.34779699999,"N_COORD97":2548754.3045199998,"ADDRESS":"信義路２號之１１","OBJECTID":494885},"geometry":{"x":181662.34779699985,"y":2548754.3045210037}},{"attributes":{"ID":494913,"DIS_CODE":0,"TOWNNAME":"新化區","LI":"護國里","LIN":"8鄰","STREET":"信義路","SECT":" ","MAREA":" ","LANE":" ","ALLEY":" ","HOUSE_NO":"２號之１２","E_COORD97":181610.92000000001,"N_COORD97":2548781.2000000002,"ADDRESS":"信義路２號之１２","OBJECTID":494886},"geometry":{"x":181610.92000000179,"y":2548781.1999999993}},{"attributes":{"ID":494914,"DIS_CODE":0,"TOWNNAME":"新化區","LI":"護國里","LIN":"8鄰","STREET":"信義路","SECT":" ","MAREA":" ","LANE":" ","ALLEY":" ","HOUSE_NO":"２號之１３","E_COORD97":181625.90659999999,"N_COORD97":2548782.03284,"ADDRESS":"信義路２號之１３","OBJECTID":494887},"geometry":{"x":181625.90660000127,"y":2548782.0328400005}},{"attributes":{"ID":494915,"DIS_CODE":0,"TOWNNAME":"新化區","LI":"護國里","LIN":"8鄰","STREET":"信義路","SECT":" ","MAREA":" ","LANE":" ","ALLEY":" ","HOUSE_NO":"２號之１５","E_COORD97":181634.94,"N_COORD97":2548781.4399999999,"ADDRESS":"信義路２號之１５","OBJECTID":494888},"geometry":{"x":181634.94000000227,"y":2548781.4400000013}},{"attributes":{"ID":494916,"DIS_CODE":0,"TOWNNAME":"新化區","LI":"護國里","LIN":"8鄰","STREET":"信義路","SECT":" ","MAREA":" ","LANE":" ","ALLEY":" ","HOUSE_NO":"２號之１６","E_COORD97":181651.33069100001,"N_COORD97":2548778.5403399998,"ADDRESS":"信義路２號之１６","OBJECTID":494889},"geometry":{"x":181651.33069100138,"y":2548778.5403419994}},{"attributes":{"ID":494917,"DIS_CODE":0,"TOWNNAME":"新化區","LI":"護國里","LIN":"8鄰","STREET":"信義路","SECT":" ","MAREA":" ","LANE":" ","ALLEY":" ","HOUSE_NO":"２號之１７","E_COORD97":181661.42000000001,"N_COORD97":2548777.1000000001,"ADDRESS":"信義路２號之１７","OBJECTID":494890},"geometry":{"x":181661.41999999993,"y":2548777.1000000015}},{"attributes":{"ID":494918,"DIS_CODE":0,"TOWNNAME":"新化區","LI":"護國里","LIN":"8鄰","STREET":"信義路","SECT":" ","MAREA":" ","LANE":" ","ALLEY":" ","HOUSE_NO":"２號之１８","E_COORD97":181612.558953,"N_COORD97":2548811.8778200001,"ADDRESS":"信義路２號之１８","OBJECTID":494891},"geometry":{"x":181612.5589530021,"y":2548811.8778239992}},{"attributes":{"ID":494919,"DIS_CODE":0,"TOWNNAME":"新化區","LI":"護國里","LIN":"8鄰","STREET":"信義路","SECT":" ","MAREA":" ","LANE":" ","ALLEY":" ","HOUSE_NO":"２號之１９","E_COORD97":181624.98000000001,"N_COORD97":2548810.3199999998,"ADDRESS":"信義路２號之１９","OBJECTID":494892},"geometry":{"x":181624.98000000138,"y":2548810.3200000022}},{"attributes":{"ID":494920,"DIS_CODE":0,"TOWNNAME":"新化區","LI":"護國里","LIN":"8鄰","STREET":"信義路","SECT":" ","MAREA":" ","LANE":" ","ALLEY":" ","HOUSE_NO":"２號之２０","E_COORD97":181640.73731999999,"N_COORD97":2548810.1844899999,"ADDRESS":"信義路２號之２０","OBJECTID":494893},"geometry":{"x":181640.73732000031,"y":2548810.1844910029}},{"attributes":{"ID":494921,"DIS_CODE":0,"TOWNNAME":"新化區","LI":"護國里","LIN":"8鄰","STREET":"信義路","SECT":" ","MAREA":" ","LANE":" ","ALLEY":" ","HOUSE_NO":"２號之２１","E_COORD97":181649,"N_COORD97":2548810.5600000001,"ADDRESS":"信義路２號之２１","OBJECTID":494894},"geometry":{"x":181649,"y":2548810.5600000005}},{"attributes":{"ID":494922,"DIS_CODE":0,"TOWNNAME":"新化區","LI":"護國里","LIN":"8鄰","STREET":"信義路","SECT":" ","MAREA":" ","LANE":" ","ALLEY":" ","HOUSE_NO":"２號之２３","E_COORD97":181662.13592900001,"N_COORD97":2548810.60782,"ADDRESS":"信義路２號之２３","OBJECTID":494895},"geometry":{"x":181662.13592899963,"y":2548810.6078240015}},{"attributes":{"ID":494923,"DIS_CODE":0,"TOWNNAME":"新化區","LI":"護國里","LIN":"8鄰","STREET":"信義路","SECT":" ","MAREA":" ","LANE":" ","ALLEY":" ","HOUSE_NO":"９４號之３","E_COORD97":179824.69,"N_COORD97":2548763.9199999999,"ADDRESS":"信義路９４號之３","OBJECTID":494896},"geometry":{"x":179824.69000000134,"y":2548763.9199999999}},{"attributes":{"ID":494924,"DIS_CODE":0,"TOWNNAME":"安平區","LI":"億載里","LIN":"8鄰","STREET":"永華路","SECT":"二段","MAREA":" ","LANE":" ","ALLEY":" ","HOUSE_NO":"１２４１號","E_COORD97":163967.14000000001,"N_COORD97":2543575.0800000001,"ADDRESS":"永華路二段１２４１號","OBJECTID":494897},"geometry":{"x":163967.13999999873,"y":2543575.0800000001}},{"attributes":{"ID":494925,"DIS_CODE":0,"TOWNNAME":"永康區","LI":"王行里","LIN":"8鄰","STREET":"王行路","SECT":" ","MAREA":" ","LANE":" ","ALLEY":" ","HOUSE_NO":"２３１號","E_COORD97":175453.29999999999,"N_COORD97":2548459.1800000002,"ADDRESS":"王行路２３１號","OBJECTID":494898},"geometry":{"x":175453.30000000075,"y":2548459.1799999997}},{"attributes":{"ID":494926,"DIS_CODE":0,"TOWNNAME":"歸仁區","LI":"歸仁里","LIN":"8鄰","STREET":"和平北街","SECT":" ","MAREA":" ","LANE":" ","ALLEY":" ","HOUSE_NO":"８號","E_COORD97":177846.88,"N_COORD97":2540807.7999999998,"ADDRESS":"和平北街８號","OBJECTID":494899},"geometry":{"x":177846.88000000082,"y":2540807.8000000007}},{"attributes":{"ID":494927,"DIS_CODE":0,"TOWNNAME":"歸仁區","LI":"歸仁里","LIN":"8鄰","STREET":"和平北街","SECT":" ","MAREA":" ","LANE":" ","ALLEY":" ","HOUSE_NO":"６號","E_COORD97":177845.34,"N_COORD97":2540803.25,"ADDRESS":"和平北街６號","OBJECTID":494900},"geometry":{"x":177845.34000000078,"y":2540803.2500000019}},{"attributes":{"ID":494928,"DIS_CODE":0,"TOWNNAME":"歸仁區","LI":"大廟里","LIN":"8鄰","STREET":"大廟二街","SECT":" ","MAREA":" ","LANE":" ","ALLEY":" ","HOUSE_NO":"１０２號","E_COORD97":176007.84,"N_COORD97":2543870.1000000001,"ADDRESS":"大廟二街１０２號","OBJECTID":494901},"geometry":{"x":176007.84000000078,"y":2543870.0999999996}},{"attributes":{"ID":494929,"DIS_CODE":0,"TOWNNAME":"南區","LI":"日新里","LIN":"8鄰","STREET":"金華路","SECT":"一段","MAREA":" ","LANE":" ","ALLEY":" ","HOUSE_NO":"４８９號","E_COORD97":167014.51999999999,"N_COORD97":2541648.5499999998,"ADDRESS":"金華路一段４８９號","OBJECTID":494902},"geometry":{"x":167014.52000000048,"y":2541648.5500000026}},{"attributes":{"ID":494930,"DIS_CODE":0,"TOWNNAME":"南區","LI":"日新里","LIN":"8鄰","STREET":"金華路","SECT":"一段","MAREA":" ","LANE":" ","ALLEY":" ","HOUSE_NO":"４９１號","E_COORD97":167015.04999999999,"N_COORD97":2541653.98,"ADDRESS":"金華路一段４９１號","OBJECTID":494903},"geometry":{"x":167015.05000000075,"y":2541653.9800000004}},{"attributes":{"ID":494931,"DIS_CODE":0,"TOWNNAME":"南區","LI":"日新里","LIN":"8鄰","STREET":"金華路","SECT":"一段","MAREA":" ","LANE":" ","ALLEY":" ","HOUSE_NO":"５０１號","E_COORD97":167015.20999999999,"N_COORD97":2541675.1499999999,"ADDRESS":"金華路一段５０１號","OBJECTID":494904},"geometry":{"x":167015.21000000089,"y":2541675.1500000022}},{"attributes":{"ID":494932,"DIS_CODE":0,"TOWNNAME":"中西區","LI":"中正里","LIN":"8鄰","STREET":"中正路","SECT":" ","MAREA":" ","LANE":" ","ALLEY":" ","HOUSE_NO":"２３０號","E_COORD97":167677.88,"N_COORD97":2543758.0099999998,"ADDRESS":"中正路２３０號","OBJECTID":494905},"geometry":{"x":167677.87999999989,"y":2543758.0099999998}},{"attributes":{"ID":494933,"DIS_CODE":0,"TOWNNAME":"佳里區","LI":"安西里","LIN":"30鄰","STREET":"佳西路","SECT":" ","MAREA":" ","LANE":"４９３巷","ALLEY":"２２弄","HOUSE_NO":"６號","E_COORD97":164899.03,"N_COORD97":2563135.1800000002,"ADDRESS":"佳西路４９３巷２２弄６號","OBJECTID":494906},"geometry":{"x":164899.03000000026,"y":2563135.1800000016}},{"attributes":{"ID":494934,"DIS_CODE":0,"TOWNNAME":"中西區","LI":"中正里","LIN":"8鄰","STREET":"中正路","SECT":" ","MAREA":" ","LANE":" ","ALLEY":" ","HOUSE_NO":"２３２號","E_COORD97":167674.10999999999,"N_COORD97":2543759.6899999999,"ADDRESS":"中正路２３２號","OBJECTID":494907},"geometry":{"x":167674.11000000127,"y":2543759.6899999995}},{"attributes":{"ID":494935,"DIS_CODE":0,"TOWNNAME":"中西區","LI":"中正里","LIN":"8鄰","STREET":"中正路","SECT":" ","MAREA":" ","LANE":" ","ALLEY":" ","HOUSE_NO":"２３４號","E_COORD97":167668.91,"N_COORD97":2543760.9199999999,"ADDRESS":"中正路２３４號","OBJECTID":494908},"geometry":{"x":167668.91000000108,"y":2543760.9200000018}},{"attributes":{"ID":494936,"DIS_CODE":0,"TOWNNAME":"中西區","LI":"中正里","LIN":"8鄰","STREET":"中正路","SECT":" ","MAREA":" ","LANE":" ","ALLEY":" ","HOUSE_NO":"２３６號","E_COORD97":167663.82999999999,"N_COORD97":2543761.7400000002,"ADDRESS":"中正路２３６號","OBJECTID":494909},"geometry":{"x":167663.83000000101,"y":2543761.7400000039}},{"attributes":{"ID":494937,"DIS_CODE":0,"TOWNNAME":"中西區","LI":"中正里","LIN":"8鄰","STREET":"中正路","SECT":" ","MAREA":" ","LANE":" ","ALLEY":" ","HOUSE_NO":"２４０號","E_COORD97":167651.64000000001,"N_COORD97":2543767.2200000002,"ADDRESS":"中正路２４０號","OBJECTID":494910},"geometry":{"x":167651.6400000006,"y":2543767.2200000025}},{"attributes":{"ID":494938,"DIS_CODE":0,"TOWNNAME":"中西區","LI":"中正里","LIN":"8鄰","STREET":"中正路","SECT":" ","MAREA":" ","LANE":" ","ALLEY":" ","HOUSE_NO":"２４４號","E_COORD97":167656.41,"N_COORD97":2543766.1600000001,"ADDRESS":"中正路２４４號","OBJECTID":494911},"geometry":{"x":167656.41000000201,"y":2543766.160000002}},{"attributes":{"ID":494939,"DIS_CODE":0,"TOWNNAME":"中西區","LI":"中正里","LIN":"8鄰","STREET":"中正路","SECT":" ","MAREA":" ","LANE":" ","ALLEY":" ","HOUSE_NO":"２４６號","E_COORD97":167632.85999999999,"N_COORD97":2543767.6299999999,"ADDRESS":"中正路２４６號","OBJECTID":494912},"geometry":{"x":167632.86000000034,"y":2543767.629999999}},{"attributes":{"ID":494940,"DIS_CODE":0,"TOWNNAME":"中西區","LI":"中正里","LIN":"8鄰","STREET":"中正路","SECT":" ","MAREA":" ","LANE":" ","ALLEY":" ","HOUSE_NO":"２５２號","E_COORD97":167621.64999999999,"N_COORD97":2543768.9100000001,"ADDRESS":"中正路２５２號","OBJECTID":494913},"geometry":{"x":167621.6500000013,"y":2543768.910000002}},{"attributes":{"ID":494941,"DIS_CODE":0,"TOWNNAME":"中西區","LI":"中正里","LIN":"8鄰","STREET":"中正路","SECT":" ","MAREA":" ","LANE":" ","ALLEY":" ","HOUSE_NO":"２５４號","E_COORD97":167619.45999999999,"N_COORD97":2543769.6299999999,"ADDRESS":"中正路２５４號","OBJECTID":494914},"geometry":{"x":167619.45999999996,"y":2543769.6300000008}},{"attributes":{"ID":494942,"DIS_CODE":0,"TOWNNAME":"中西區","LI":"中正里","LIN":"8鄰","STREET":"中正路","SECT":" ","MAREA":" ","LANE":" ","ALLEY":" ","HOUSE_NO":"２５６號","E_COORD97":167615.51999999999,"N_COORD97":2543770.6299999999,"ADDRESS":"中正路２５６號","OBJECTID":494915},"geometry":{"x":167615.51999999955,"y":2543770.629999999}},{"attributes":{"ID":494943,"DIS_CODE":0,"TOWNNAME":"中西區","LI":"中正里","LIN":"8鄰","STREET":"中正路","SECT":" ","MAREA":" ","LANE":" ","ALLEY":" ","HOUSE_NO":"２５８號","E_COORD97":167611.51000000001,"N_COORD97":2543771.1000000001,"ADDRESS":"中正路２５８號","OBJECTID":494916},"geometry":{"x":167611.51000000071,"y":2543771.0999999996}},{"attributes":{"ID":494944,"DIS_CODE":0,"TOWNNAME":"中西區","LI":"中正里","LIN":"8鄰","STREET":"中正路","SECT":" ","MAREA":" ","LANE":" ","ALLEY":" ","HOUSE_NO":"２６０號","E_COORD97":167608.69,"N_COORD97":2543772.2000000002,"ADDRESS":"中正路２６０號","OBJECTID":494917},"geometry":{"x":167608.69000000041,"y":2543772.2000000011}},{"attributes":{"ID":494945,"DIS_CODE":0,"TOWNNAME":"中西區","LI":"中正里","LIN":"8鄰","STREET":"中正路","SECT":" ","MAREA":" ","LANE":" ","ALLEY":" ","HOUSE_NO":"２６２號","E_COORD97":167605.39000000001,"N_COORD97":2543774.48,"ADDRESS":"中正路２６２號","OBJECTID":494918},"geometry":{"x":167605.3900000006,"y":2543774.4800000023}},{"attributes":{"ID":494946,"DIS_CODE":0,"TOWNNAME":"中西區","LI":"中正里","LIN":"8鄰","STREET":"國華街","SECT":"三段","MAREA":" ","LANE":" ","ALLEY":" ","HOUSE_NO":"１號","E_COORD97":167714.76999999999,"N_COORD97":2543768.8799999999,"ADDRESS":"國華街三段１號","OBJECTID":494919},"geometry":{"x":167714.77000000048,"y":2543768.879999999}},{"attributes":{"ID":494947,"DIS_CODE":0,"TOWNNAME":"中西區","LI":"中正里","LIN":"8鄰","STREET":"國華街","SECT":"三段","MAREA":" ","LANE":" ","ALLEY":" ","HOUSE_NO":"５號","E_COORD97":167715.07000000001,"N_COORD97":2543789.7999999998,"ADDRESS":"國華街三段５號","OBJECTID":494920},"geometry":{"x":167715.07000000123,"y":2543789.8000000026}},{"attributes":{"ID":494948,"DIS_CODE":0,"TOWNNAME":"永康區","LI":"安康里","LIN":"8鄰","STREET":"中山南路","SECT":" ","MAREA":" ","LANE":" ","ALLEY":" ","HOUSE_NO":"１７１號","E_COORD97":171122.69,"N_COORD97":2545984.9900000002,"ADDRESS":"中山南路１７１號","OBJECTID":494921},"geometry":{"x":171122.69000000041,"y":2545984.9900000021}},{"attributes":{"ID":494949,"DIS_CODE":0,"TOWNNAME":"東區","LI":"文聖里","LIN":"8鄰","STREET":"裕興街","SECT":" ","MAREA":" ","LANE":" ","ALLEY":" ","HOUSE_NO":"２號","E_COORD97":171930.73999999999,"N_COORD97":2542649.1499999999,"ADDRESS":"裕興街２號","OBJECTID":494922},"geometry":{"x":171930.74000000022,"y":2542649.1500000004}},{"attributes":{"ID":494950,"DIS_CODE":0,"TOWNNAME":"中西區","LI":"元安里","LIN":"8鄰","STREET":"國華街","SECT":"二段","MAREA":" ","LANE":" ","ALLEY":" ","HOUSE_NO":"５１號","E_COORD97":167602.79999999999,"N_COORD97":2543292.52,"ADDRESS":"國華街二段５１號","OBJECTID":494923},"geometry":{"x":167602.80000000075,"y":2543292.5200000014}},{"attributes":{"ID":494951,"DIS_CODE":0,"TOWNNAME":"東區","LI":"文聖里","LIN":"8鄰","STREET":"裕興街","SECT":" ","MAREA":" ","LANE":" ","ALLEY":" ","HOUSE_NO":"３６號","E_COORD97":172000.79999999999,"N_COORD97":2542642.6200000001,"ADDRESS":"裕興街３６號","OBJECTID":494924},"geometry":{"x":172000.79999999981,"y":2542642.6200000029}},{"attributes":{"ID":494952,"DIS_CODE":0,"TOWNNAME":"中西區","LI":"元安里","LIN":"8鄰","STREET":"西門路","SECT":"一段","MAREA":" ","LANE":" ","ALLEY":" ","HOUSE_NO":"７１７號","E_COORD97":167708.44,"N_COORD97":2543283.1600000001,"ADDRESS":"西門路一段７１７號","OBJECTID":494925},"geometry":{"x":167708.44000000041,"y":2543283.1600000001}},{"attributes":{"ID":494953,"DIS_CODE":0,"TOWNNAME":"中西區","LI":"元安里","LIN":"8鄰","STREET":"西門路","SECT":"一段","MAREA":" ","LANE":" ","ALLEY":" ","HOUSE_NO":"７１９號","E_COORD97":167706.78,"N_COORD97":2543286.3599999999,"ADDRESS":"西門路一段７１９號","OBJECTID":494926},"geometry":{"x":167706.78000000119,"y":2543286.3600000013}},{"attributes":{"ID":494954,"DIS_CODE":0,"TOWNNAME":"中西區","LI":"元安里","LIN":"8鄰","STREET":"西門路","SECT":"一段","MAREA":" ","LANE":" ","ALLEY":" ","HOUSE_NO":"７２１號","E_COORD97":167705.42000000001,"N_COORD97":2543288.3100000001,"ADDRESS":"西門路一段７２１號","OBJECTID":494927},"geometry":{"x":167705.42000000086,"y":2543288.3100000024}},{"attributes":{"ID":494955,"DIS_CODE":0,"TOWNNAME":"中西區","LI":"民主里","LIN":"8鄰","STREET":"尊王路","SECT":" ","MAREA":" ","LANE":" ","ALLEY":" ","HOUSE_NO":"１３１號","E_COORD97":167371.28,"N_COORD97":2543612.8700000001,"ADDRESS":"尊王路１３１號","OBJECTID":494928},"geometry":{"x":167371.28000000119,"y":2543612.8700000048}},{"attributes":{"ID":494956,"DIS_CODE":0,"TOWNNAME":"中西區","LI":"民主里","LIN":"8鄰","STREET":"尊王路","SECT":" ","MAREA":" ","LANE":" ","ALLEY":" ","HOUSE_NO":"１３３號","E_COORD97":167367.01000000001,"N_COORD97":2543613.6000000001,"ADDRESS":"尊王路１３３號","OBJECTID":494929},"geometry":{"x":167367.00999999885,"y":2543613.6000000015}},{"attributes":{"ID":494957,"DIS_CODE":0,"TOWNNAME":"中西區","LI":"民主里","LIN":"8鄰","STREET":"尊王路","SECT":" ","MAREA":" ","LANE":" ","ALLEY":" ","HOUSE_NO":"１３５號","E_COORD97":167361.10999999999,"N_COORD97":2543613.5,"ADDRESS":"尊王路１３５號","OBJECTID":494930},"geometry":{"x":167361.11000000034,"y":2543613.5}},{"attributes":{"ID":494958,"DIS_CODE":0,"TOWNNAME":"中西區","LI":"水仙里","LIN":"8鄰","STREET":"民權路","SECT":"三段","MAREA":" ","LANE":" ","ALLEY":" ","HOUSE_NO":"２５號","E_COORD97":167871.04999999999,"N_COORD97":2544089.3199999998,"ADDRESS":"民權路三段２５號","OBJECTID":494931},"geometry":{"x":167871.05000000075,"y":2544089.3200000003}},{"attributes":{"ID":494959,"DIS_CODE":0,"TOWNNAME":"中西區","LI":"水仙里","LIN":"8鄰","STREET":"民權路","SECT":"三段","MAREA":" ","LANE":" ","ALLEY":" ","HOUSE_NO":"３９號","E_COORD97":167839.75,"N_COORD97":2544098.29,"ADDRESS":"民權路三段３９號","OBJECTID":494932},"geometry":{"x":167839.75,"y":2544098.2899999991}},{"attributes":{"ID":494960,"DIS_CODE":0,"TOWNNAME":"中西區","LI":"民生里","LIN":"8鄰","STREET":"金華路","SECT":"三段","MAREA":" ","LANE":" ","ALLEY":" ","HOUSE_NO":"４１號","E_COORD97":167174.16,"N_COORD97":2543332.1400000001,"ADDRESS":"金華路三段４１號","OBJECTID":494933},"geometry":{"x":167174.16000000015,"y":2543332.1399999987}},{"attributes":{"ID":494961,"DIS_CODE":0,"TOWNNAME":"中西區","LI":"光賢里","LIN":"8鄰","STREET":"和美街","SECT":" ","MAREA":" ","LANE":" ","ALLEY":" ","HOUSE_NO":"６６號","E_COORD97":166935.59,"N_COORD97":2544720.4399999999,"ADDRESS":"和美街６６號","OBJECTID":494934},"geometry":{"x":166935.58999999985,"y":2544720.4400000013}},{"attributes":{"ID":494962,"DIS_CODE":0,"TOWNNAME":"北區","LI":"光武里","LIN":"4鄰","STREET":"大武街","SECT":" ","MAREA":" ","LANE":" ","ALLEY":" ","HOUSE_NO":"１３９號","E_COORD97":169615.25,"N_COORD97":2545863.1699999999,"ADDRESS":"大武街１３９號","OBJECTID":494935},"geometry":{"x":169615.25000000186,"y":2545863.1699999999}},{"attributes":{"ID":494963,"DIS_CODE":0,"TOWNNAME":"新化區","LI":"協興里","LIN":"8鄰","STREET":"太平街","SECT":" ","MAREA":" ","LANE":" ","ALLEY":" ","HOUSE_NO":"９８號","E_COORD97":178592.76999999999,"N_COORD97":2548743.25,"ADDRESS":"太平街９８號","OBJECTID":494936},"geometry":{"x":178592.77000000048,"y":2548743.2500000019}},{"attributes":{"ID":494964,"DIS_CODE":0,"TOWNNAME":"新化區","LI":"太平里","LIN":"8鄰","STREET":"中正路","SECT":" ","MAREA":" ","LANE":" ","ALLEY":" ","HOUSE_NO":"６０６號之１","E_COORD97":178775.94,"N_COORD97":2549264.2599999998,"ADDRESS":"中正路６０６號之１","OBJECTID":494937},"geometry":{"x":178775.94000000134,"y":2549264.2600000016}},{"attributes":{"ID":494965,"DIS_CODE":0,"TOWNNAME":"新化區","LI":"太平里","LIN":"8鄰","STREET":"中正路","SECT":" ","MAREA":" ","LANE":" ","ALLEY":" ","HOUSE_NO":"６２６號","E_COORD97":178722.60999999999,"N_COORD97":2549307.25,"ADDRESS":"中正路６２６號","OBJECTID":494938},"geometry":{"x":178722.61000000034,"y":2549307.25}},{"attributes":{"ID":494966,"DIS_CODE":0,"TOWNNAME":"新化區","LI":"清水里","LIN":"8鄰","STREET":"民權街","SECT":" ","MAREA":" ","LANE":" ","ALLEY":" ","HOUSE_NO":"５３號","E_COORD97":178745.66,"N_COORD97":2548562.25,"ADDRESS":"民權街５３號","OBJECTID":494939},"geometry":{"x":178745.66000000015,"y":2548562.2500000037}},{"attributes":{"ID":494967,"DIS_CODE":0,"TOWNNAME":"安南區","LI":"安順里","LIN":"8鄰","STREET":"安和路","SECT":"四段","MAREA":" ","LANE":" ","ALLEY":" ","HOUSE_NO":"６９號","E_COORD97":169926.64000000001,"N_COORD97":2550256.8599999999,"ADDRESS":"安和路四段６９號","OBJECTID":494940},"geometry":{"x":169926.6400000006,"y":2550256.8600000013}},{"attributes":{"ID":494968,"DIS_CODE":0,"TOWNNAME":"安南區","LI":"安順里","LIN":"8鄰","STREET":"安和路","SECT":"四段","MAREA":" ","LANE":" ","ALLEY":" ","HOUSE_NO":"７１號","E_COORD97":169927.54999999999,"N_COORD97":2550262.3199999998,"ADDRESS":"安和路四段７１號","OBJECTID":494941},"geometry":{"x":169927.54999999981,"y":2550262.3200000022}},{"attributes":{"ID":494969,"DIS_CODE":0,"TOWNNAME":"新化區","LI":"清水里","LIN":"8鄰","STREET":"民權街","SECT":" ","MAREA":" ","LANE":" ","ALLEY":" ","HOUSE_NO":"６９號","E_COORD97":178741.45999999999,"N_COORD97":2548597.25,"ADDRESS":"民權街６９號","OBJECTID":494942},"geometry":{"x":178741.46000000089,"y":2548597.2500000019}},{"attributes":{"ID":494970,"DIS_CODE":0,"TOWNNAME":"新化區","LI":"清水里","LIN":"8鄰","STREET":"民權街","SECT":" ","MAREA":" ","LANE":" ","ALLEY":" ","HOUSE_NO":"５７號","E_COORD97":178744.26000000001,"N_COORD97":2548573.25,"ADDRESS":"民權街５７號","OBJECTID":494943},"geometry":{"x":178744.26000000071,"y":2548573.2500000019}},{"attributes":{"ID":494971,"DIS_CODE":0,"TOWNNAME":"新化區","LI":"全興里","LIN":"8鄰","STREET":"中山路","SECT":" ","MAREA":" ","LANE":" ","ALLEY":" ","HOUSE_NO":"９９７號","E_COORD97":177109.20999999999,"N_COORD97":2548209.25,"ADDRESS":"中山路９９７號","OBJECTID":494944},"geometry":{"x":177109.20999999996,"y":2548209.25}},{"attributes":{"ID":494972,"DIS_CODE":0,"TOWNNAME":"新化區","LI":"太平里","LIN":"8鄰","STREET":"中正路","SECT":" ","MAREA":" ","LANE":" ","ALLEY":" ","HOUSE_NO":"６４８號","E_COORD97":178689.70999999999,"N_COORD97":2549370.25,"ADDRESS":"中正路６４８號","OBJECTID":494945},"geometry":{"x":178689.70999999903,"y":2549370.2500000019}},{"attributes":{"ID":494973,"DIS_CODE":0,"TOWNNAME":"新化區","LI":"協興里","LIN":"8鄰","STREET":"太平街","SECT":" ","MAREA":" ","LANE":" ","ALLEY":" ","HOUSE_NO":"１３８號之２","E_COORD97":178389.48000000001,"N_COORD97":2548698.2599999998,"ADDRESS":"太平街１３８號之２","OBJECTID":494946},"geometry":{"x":178389.48000000045,"y":2548698.2600000016}},{"attributes":{"ID":494974,"DIS_CODE":0,"TOWNNAME":"新化區","LI":"太平里","LIN":"8鄰","STREET":"中正路","SECT":" ","MAREA":" ","LANE":" ","ALLEY":" ","HOUSE_NO":"６０２號","E_COORD97":178756.10999999999,"N_COORD97":2549241.25,"ADDRESS":"中正路６０２號","OBJECTID":494947},"geometry":{"x":178756.11000000127,"y":2549241.2500000019}},{"attributes":{"ID":494975,"DIS_CODE":0,"TOWNNAME":"新化區","LI":"協興里","LIN":"8鄰","STREET":"太平街","SECT":" ","MAREA":" ","LANE":" ","ALLEY":" ","HOUSE_NO":"１３８號之１","E_COORD97":178393.14999999999,"N_COORD97":2548699.2599999998,"ADDRESS":"太平街１３８號之１","OBJECTID":494948},"geometry":{"x":178393.15000000037,"y":2548699.2600000016}},{"attributes":{"ID":494976,"DIS_CODE":0,"TOWNNAME":"新化區","LI":"太平里","LIN":"8鄰","STREET":"中正路","SECT":" ","MAREA":" ","LANE":" ","ALLEY":" ","HOUSE_NO":"６１８號","E_COORD97":178736.01000000001,"N_COORD97":2549278.25,"ADDRESS":"中正路６１８號","OBJECTID":494949},"geometry":{"x":178736.00999999978,"y":2549278.2500000019}},{"attributes":{"ID":494977,"DIS_CODE":0,"TOWNNAME":"新化區","LI":"太平里","LIN":"8鄰","STREET":"中正路","SECT":" ","MAREA":" ","LANE":" ","ALLEY":" ","HOUSE_NO":"６００號","E_COORD97":178757.01000000001,"N_COORD97":2549239.25,"ADDRESS":"中正路６００號","OBJECTID":494950},"geometry":{"x":178757.01000000164,"y":2549239.25}},{"attributes":{"ID":494978,"DIS_CODE":0,"TOWNNAME":"新化區","LI":"太平里","LIN":"8鄰","STREET":"中正路","SECT":" ","MAREA":" ","LANE":" ","ALLEY":" ","HOUSE_NO":"５９２號","E_COORD97":178778.01000000001,"N_COORD97":2549202.25,"ADDRESS":"中正路５９２號","OBJECTID":494951},"geometry":{"x":178778.01000000071,"y":2549202.25}},{"attributes":{"ID":494979,"DIS_CODE":0,"TOWNNAME":"新化區","LI":"協興里","LIN":"8鄰","STREET":"太平街","SECT":" ","MAREA":" ","LANE":" ","ALLEY":" ","HOUSE_NO":"１４２號","E_COORD97":178367.22,"N_COORD97":2548693.25,"ADDRESS":"太平街１４２號","OBJECTID":494952},"geometry":{"x":178367.21999999974,"y":2548693.25}},{"attributes":{"ID":494980,"DIS_CODE":0,"TOWNNAME":"新化區","LI":"太平里","LIN":"8鄰","STREET":"中正路","SECT":" ","MAREA":" ","LANE":" ","ALLEY":" ","HOUSE_NO":"５９４號","E_COORD97":178775.01000000001,"N_COORD97":2549208.25,"ADDRESS":"中正路５９４號","OBJECTID":494953},"geometry":{"x":178775.00999999978,"y":2549208.25}},{"attributes":{"ID":494981,"DIS_CODE":0,"TOWNNAME":"新化區","LI":"太平里","LIN":"8鄰","STREET":"中正路","SECT":" ","MAREA":" ","LANE":" ","ALLEY":" ","HOUSE_NO":"６５２號","E_COORD97":178681.81,"N_COORD97":2549388.25,"ADDRESS":"中正路６５２號","OBJECTID":494954},"geometry":{"x":178681.80999999959,"y":2549388.25}},{"attributes":{"ID":494982,"DIS_CODE":0,"TOWNNAME":"新化區","LI":"太平里","LIN":"8鄰","STREET":"中正路","SECT":" ","MAREA":" ","LANE":" ","ALLEY":" ","HOUSE_NO":"６３６號","E_COORD97":178705.91,"N_COORD97":2549340.25,"ADDRESS":"中正路６３６號","OBJECTID":494955},"geometry":{"x":178705.91000000108,"y":2549340.2500000019}},{"attributes":{"ID":494983,"DIS_CODE":0,"TOWNNAME":"新化區","LI":"協興里","LIN":"8鄰","STREET":"太平街","SECT":" ","MAREA":" ","LANE":" ","ALLEY":" ","HOUSE_NO":"１１４號之１","E_COORD97":178506.25,"N_COORD97":2548724.2599999998,"ADDRESS":"太平街１１４號之１","OBJECTID":494956},"geometry":{"x":178506.25,"y":2548724.2599999998}},{"attributes":{"ID":494984,"DIS_CODE":0,"TOWNNAME":"新化區","LI":"清水里","LIN":"8鄰","STREET":"忠孝路","SECT":" ","MAREA":" ","LANE":" ","ALLEY":" ","HOUSE_NO":"１３７號","E_COORD97":178692.42000000001,"N_COORD97":2548632.25,"ADDRESS":"忠孝路１３７號","OBJECTID":494957},"geometry":{"x":178692.42000000086,"y":2548632.25}},{"attributes":{"ID":494985,"DIS_CODE":0,"TOWNNAME":"新化區","LI":"武安里","LIN":"8鄰","STREET":"大同街","SECT":" ","MAREA":" ","LANE":" ","ALLEY":" ","HOUSE_NO":"４３號","E_COORD97":179001.57999999999,"N_COORD97":2548167.25,"ADDRESS":"大同街４３號","OBJECTID":494958},"geometry":{"x":179001.58000000101,"y":2548167.2500000019}},{"attributes":{"ID":494986,"DIS_CODE":0,"TOWNNAME":"新化區","LI":"武安里","LIN":"8鄰","STREET":"大同街","SECT":" ","MAREA":" ","LANE":" ","ALLEY":" ","HOUSE_NO":"４１號","E_COORD97":179002.98000000001,"N_COORD97":2548164.25,"ADDRESS":"大同街４１號","OBJECTID":494959},"geometry":{"x":179002.98000000045,"y":2548164.25}},{"attributes":{"ID":494987,"DIS_CODE":0,"TOWNNAME":"東區","LI":"大福里","LIN":"8鄰","STREET":"立德二路","SECT":" ","MAREA":" ","LANE":" ","ALLEY":" ","HOUSE_NO":"２１號","E_COORD97":169534.60999999999,"N_COORD97":2541744.6899999999,"ADDRESS":"立德二路２１號","OBJECTID":494960},"geometry":{"x":169534.61000000034,"y":2541744.6900000013}},{"attributes":{"ID":494988,"DIS_CODE":0,"TOWNNAME":"北區","LI":"長德里","LIN":"13鄰","STREET":"公園北路","SECT":" ","MAREA":" ","LANE":" ","ALLEY":" ","HOUSE_NO":"２０９號之２","E_COORD97":168645.45000000001,"N_COORD97":2545068.0299999998,"ADDRESS":"公園北路２０９號之２","OBJECTID":494961},"geometry":{"x":168645.45000000019,"y":2545068.0300000012}},{"attributes":{"ID":494989,"DIS_CODE":0,"TOWNNAME":"北區","LI":"長德里","LIN":"13鄰","STREET":"公園北路","SECT":" ","MAREA":" ","LANE":" ","ALLEY":" ","HOUSE_NO":"２１１號","E_COORD97":168637.31,"N_COORD97":2545088.0299999998,"ADDRESS":"公園北路２１１號","OBJECTID":494962},"geometry":{"x":168637.30999999959,"y":2545088.0300000031}},{"attributes":{"ID":494990,"DIS_CODE":0,"TOWNNAME":"北區","LI":"長德里","LIN":"13鄰","STREET":"公園北路","SECT":" ","MAREA":" ","LANE":" ","ALLEY":" ","HOUSE_NO":"２１３號","E_COORD97":168632.31,"N_COORD97":2545087.4100000001,"ADDRESS":"公園北路２１３號","OBJECTID":494963},"geometry":{"x":168632.30999999959,"y":2545087.410000002}},{"attributes":{"ID":494991,"DIS_CODE":0,"TOWNNAME":"北區","LI":"長德里","LIN":"13鄰","STREET":"公園北路","SECT":" ","MAREA":" ","LANE":" ","ALLEY":" ","HOUSE_NO":"２１５號","E_COORD97":168628.97,"N_COORD97":2545085.1200000001,"ADDRESS":"公園北路２１５號","OBJECTID":494964},"geometry":{"x":168628.97000000067,"y":2545085.120000001}},{"attributes":{"ID":494992,"DIS_CODE":0,"TOWNNAME":"北區","LI":"長德里","LIN":"13鄰","STREET":"公園北路","SECT":" ","MAREA":" ","LANE":" ","ALLEY":" ","HOUSE_NO":"２１７號","E_COORD97":168624.79999999999,"N_COORD97":2545086.5699999998,"ADDRESS":"公園北路２１７號","OBJECTID":494965},"geometry":{"x":168624.80000000168,"y":2545086.5700000022}},{"attributes":{"ID":494993,"DIS_CODE":0,"TOWNNAME":"北區","LI":"長德里","LIN":"13鄰","STREET":"公園北路","SECT":" ","MAREA":" ","LANE":" ","ALLEY":" ","HOUSE_NO":"２１９號","E_COORD97":168619.17000000001,"N_COORD97":2545086.5699999998,"ADDRESS":"公園北路２１９號","OBJECTID":494966},"geometry":{"x":168619.17000000086,"y":2545086.5700000022}},{"attributes":{"ID":494994,"DIS_CODE":0,"TOWNNAME":"北區","LI":"長德里","LIN":"13鄰","STREET":"公園北路","SECT":" ","MAREA":" ","LANE":" ","ALLEY":" ","HOUSE_NO":"２２１號","E_COORD97":168614.16,"N_COORD97":2545089.2799999998,"ADDRESS":"公園北路２２１號","OBJECTID":494967},"geometry":{"x":168614.16000000201,"y":2545089.2799999993}},{"attributes":{"ID":494995,"DIS_CODE":0,"TOWNNAME":"北區","LI":"長德里","LIN":"13鄰","STREET":"公園北路","SECT":" ","MAREA":" ","LANE":" ","ALLEY":" ","HOUSE_NO":"２２３號","E_COORD97":168610.82000000001,"N_COORD97":2545090.9500000002,"ADDRESS":"公園北路２２３號","OBJECTID":494968},"geometry":{"x":168610.8200000003,"y":2545090.9499999993}},{"attributes":{"ID":494996,"DIS_CODE":0,"TOWNNAME":"北區","LI":"長德里","LIN":"13鄰","STREET":"公園北路","SECT":" ","MAREA":" ","LANE":" ","ALLEY":" ","HOUSE_NO":"２２５號","E_COORD97":168606.23000000001,"N_COORD97":2545091.7799999998,"ADDRESS":"公園北路２２５號","OBJECTID":494969},"geometry":{"x":168606.23000000138,"y":2545091.7799999993}},{"attributes":{"ID":494997,"DIS_CODE":0,"TOWNNAME":"東區","LI":"南聖里","LIN":"8鄰","STREET":"裕農路","SECT":" ","MAREA":" ","LANE":" ","ALLEY":" ","HOUSE_NO":"７５６號","E_COORD97":171917.10000000001,"N_COORD97":2543237.3700000001,"ADDRESS":"裕農路７５６號","OBJECTID":494970},"geometry":{"x":171917.09999999963,"y":2543237.3700000029}},{"attributes":{"ID":494998,"DIS_CODE":0,"TOWNNAME":"東區","LI":"南聖里","LIN":"8鄰","STREET":"裕農路","SECT":" ","MAREA":" ","LANE":" ","ALLEY":" ","HOUSE_NO":"７９８號","E_COORD97":171987.14000000001,"N_COORD97":2543240.8700000001,"ADDRESS":"裕農路７９８號","OBJECTID":494971},"geometry":{"x":171987.14000000153,"y":2543240.8700000029}},{"attributes":{"ID":494999,"DIS_CODE":0,"TOWNNAME":"東區","LI":"文聖里","LIN":"8鄰","STREET":"裕文路","SECT":" ","MAREA":" ","LANE":" ","ALLEY":" ","HOUSE_NO":"８１號","E_COORD97":171987.87,"N_COORD97":2542597.1499999999,"ADDRESS":"裕文路８１號","OBJECTID":494972},"geometry":{"x":171987.87000000197,"y":2542597.1500000022}},{"attributes":{"ID":495000,"DIS_CODE":0,"TOWNNAME":"東區","LI":"文聖里","LIN":"8鄰","STREET":"裕文路","SECT":" ","MAREA":" ","LANE":" ","ALLEY":" ","HOUSE_NO":"８３號","E_COORD97":171992.5,"N_COORD97":2542599.46,"ADDRESS":"裕文路８３號","OBJECTID":494973},"geometry":{"x":171992.50000000093,"y":2542599.4600000028}},{"attributes":{"ID":495001,"DIS_CODE":0,"TOWNNAME":"東區","LI":"文聖里","LIN":"8鄰","STREET":"裕文路","SECT":" ","MAREA":" ","LANE":" ","ALLEY":" ","HOUSE_NO":"９７號","E_COORD97":172022.13,"N_COORD97":2542588.6600000001,"ADDRESS":"裕文路９７號","OBJECTID":494974},"geometry":{"x":172022.13000000082,"y":2542588.6600000001}},{"attributes":{"ID":495002,"DIS_CODE":0,"TOWNNAME":"東區","LI":"文聖里","LIN":"8鄰","STREET":"裕文路","SECT":" ","MAREA":" ","LANE":" ","ALLEY":" ","HOUSE_NO":"９９號","E_COORD97":172030.14999999999,"N_COORD97":2542587.8900000001,"ADDRESS":"裕文路９９號","OBJECTID":494975},"geometry":{"x":172030.14999999944,"y":2542587.8899999987}},{"attributes":{"ID":495003,"DIS_CODE":0,"TOWNNAME":"東區","LI":"文聖里","LIN":"8鄰","STREET":"裕平路","SECT":" ","MAREA":" ","LANE":" ","ALLEY":" ","HOUSE_NO":"１８號","E_COORD97":171994.09,"N_COORD97":2542806.46,"ADDRESS":"裕平路１８號","OBJECTID":494976},"geometry":{"x":171994.08999999985,"y":2542806.4600000028}},{"attributes":{"ID":495004,"DIS_CODE":0,"TOWNNAME":"東區","LI":"文聖里","LIN":"8鄰","STREET":"裕農一街","SECT":" ","MAREA":" ","LANE":" ","ALLEY":" ","HOUSE_NO":"２０３號","E_COORD97":171934.88,"N_COORD97":2542638.6499999999,"ADDRESS":"裕農一街２０３號","OBJECTID":494977},"geometry":{"x":171934.88000000175,"y":2542638.6500000022}},{"attributes":{"ID":495005,"DIS_CODE":0,"TOWNNAME":"東區","LI":"文聖里","LIN":"8鄰","STREET":"裕農一街","SECT":" ","MAREA":" ","LANE":" ","ALLEY":" ","HOUSE_NO":"２０５號","E_COORD97":171935.70000000001,"N_COORD97":2542632.1600000001,"ADDRESS":"裕農一街２０５號","OBJECTID":494978},"geometry":{"x":171935.70000000019,"y":2542632.1600000001}},{"attributes":{"ID":495006,"DIS_CODE":0,"TOWNNAME":"東區","LI":"文聖里","LIN":"8鄰","STREET":"裕農二街","SECT":" ","MAREA":" ","LANE":" ","ALLEY":" ","HOUSE_NO":"１６１號","E_COORD97":171992.95999999999,"N_COORD97":2542764.9199999999,"ADDRESS":"裕農二街１６１號","OBJECTID":494979},"geometry":{"x":171992.95999999996,"y":2542764.9200000018}},{"attributes":{"ID":495007,"DIS_CODE":0,"TOWNNAME":"東區","LI":"文聖里","LIN":"8鄰","STREET":"裕農二街","SECT":" ","MAREA":" ","LANE":" ","ALLEY":" ","HOUSE_NO":"１８１號","E_COORD97":171990.88,"N_COORD97":2542716.8999999999,"ADDRESS":"裕農二街１８１號","OBJECTID":494980},"geometry":{"x":171990.88000000175,"y":2542716.9000000041}},{"attributes":{"ID":495008,"DIS_CODE":0,"TOWNNAME":"東區","LI":"文聖里","LIN":"8鄰","STREET":"裕農二街","SECT":" ","MAREA":" ","LANE":" ","ALLEY":" ","HOUSE_NO":"１８３號","E_COORD97":171996.29000000001,"N_COORD97":2542718.5899999999,"ADDRESS":"裕農二街１８３號","OBJECTID":494981},"geometry":{"x":171996.29000000004,"y":2542718.5900000017}},{"attributes":{"ID":495009,"DIS_CODE":0,"TOWNNAME":"東區","LI":"文聖里","LIN":"8鄰","STREET":"裕農二街","SECT":" ","MAREA":" ","LANE":" ","ALLEY":" ","HOUSE_NO":"１８５號","E_COORD97":172002.20999999999,"N_COORD97":2542716.3999999999,"ADDRESS":"裕農二街１８５號","OBJECTID":494982},"geometry":{"x":172002.20999999903,"y":2542716.3999999985}},{"attributes":{"ID":495010,"DIS_CODE":0,"TOWNNAME":"東區","LI":"文聖里","LIN":"8鄰","STREET":"裕農二街","SECT":" ","MAREA":" ","LANE":" ","ALLEY":" ","HOUSE_NO":"１８７號","E_COORD97":172008.13,"N_COORD97":2542719.4399999999,"ADDRESS":"裕農二街１８７號","OBJECTID":494983},"geometry":{"x":172008.13000000082,"y":2542719.4400000013}},{"attributes":{"ID":495011,"DIS_CODE":0,"TOWNNAME":"東區","LI":"文聖里","LIN":"8鄰","STREET":"裕農二街","SECT":" ","MAREA":" ","LANE":" ","ALLEY":" ","HOUSE_NO":"１８９號","E_COORD97":172007.28,"N_COORD97":2542694.0899999999,"ADDRESS":"裕農二街１８９號","OBJECTID":494984},"geometry":{"x":172007.28000000212,"y":2542694.0899999999}},{"attributes":{"ID":495012,"DIS_CODE":0,"TOWNNAME":"東區","LI":"文聖里","LIN":"8鄰","STREET":"裕農二街","SECT":" ","MAREA":" ","LANE":" ","ALLEY":" ","HOUSE_NO":"１９１號","E_COORD97":172001.70000000001,"N_COORD97":2542695.27,"ADDRESS":"裕農二街１９１號","OBJECTID":494985},"geometry":{"x":172001.70000000112,"y":2542695.2699999996}},{"attributes":{"ID":495013,"DIS_CODE":0,"TOWNNAME":"東區","LI":"文聖里","LIN":"8鄰","STREET":"裕農二街","SECT":" ","MAREA":" ","LANE":" ","ALLEY":" ","HOUSE_NO":"１９３號","E_COORD97":171996.29000000001,"N_COORD97":2542696.96,"ADDRESS":"裕農二街１９３號","OBJECTID":494986},"geometry":{"x":171996.29000000004,"y":2542696.9600000028}},{"attributes":{"ID":495014,"DIS_CODE":0,"TOWNNAME":"東區","LI":"文聖里","LIN":"8鄰","STREET":"裕農二街","SECT":" ","MAREA":" ","LANE":" ","ALLEY":" ","HOUSE_NO":"１９５號","E_COORD97":171990.70999999999,"N_COORD97":2542694.6000000001,"ADDRESS":"裕農二街１９５號","OBJECTID":494987},"geometry":{"x":171990.71000000089,"y":2542694.6000000015}},{"attributes":{"ID":495015,"DIS_CODE":0,"TOWNNAME":"東區","LI":"南聖里","LIN":"8鄰","STREET":"裕農二街","SECT":" ","MAREA":" ","LANE":" ","ALLEY":" ","HOUSE_NO":"６號","E_COORD97":171946.48000000001,"N_COORD97":2543199.5299999998,"ADDRESS":"裕農二街６號","OBJECTID":494988},"geometry":{"x":171946.48000000045,"y":2543199.5300000031}},{"attributes":{"ID":495016,"DIS_CODE":0,"TOWNNAME":"東區","LI":"文聖里","LIN":"8鄰","STREET":"裕農三街","SECT":" ","MAREA":" ","LANE":" ","ALLEY":" ","HOUSE_NO":"１６８號","E_COORD97":172031.92999999999,"N_COORD97":2542765.3900000001,"ADDRESS":"裕農三街１６８號","OBJECTID":494989},"geometry":{"x":172031.9299999997,"y":2542765.3900000025}},{"attributes":{"ID":495017,"DIS_CODE":0,"TOWNNAME":"東區","LI":"文聖里","LIN":"8鄰","STREET":"裕農三街","SECT":" ","MAREA":" ","LANE":" ","ALLEY":" ","HOUSE_NO":"１７０號","E_COORD97":172024.88,"N_COORD97":2542759.1699999999,"ADDRESS":"裕農三街１７０號","OBJECTID":494990},"geometry":{"x":172024.88000000175,"y":2542759.1700000018}},{"attributes":{"ID":495018,"DIS_CODE":0,"TOWNNAME":"東區","LI":"文聖里","LIN":"8鄰","STREET":"裕農三街","SECT":" ","MAREA":" ","LANE":" ","ALLEY":" ","HOUSE_NO":"１８０號","E_COORD97":172023.94,"N_COORD97":2542719.3700000001,"ADDRESS":"裕農三街１８０號","OBJECTID":494991},"geometry":{"x":172023.94000000134,"y":2542719.370000001}},{"attributes":{"ID":495019,"DIS_CODE":0,"TOWNNAME":"東區","LI":"文聖里","LIN":"8鄰","STREET":"裕農三街","SECT":" ","MAREA":" ","LANE":" ","ALLEY":" ","HOUSE_NO":"１８２號","E_COORD97":172024.60000000001,"N_COORD97":2542712.2799999998,"ADDRESS":"裕農三街１８２號","OBJECTID":494992},"geometry":{"x":172024.5999999987,"y":2542712.2799999993}},{"attributes":{"ID":495020,"DIS_CODE":0,"TOWNNAME":"東區","LI":"文聖里","LIN":"8鄰","STREET":"裕農三街","SECT":" ","MAREA":" ","LANE":" ","ALLEY":" ","HOUSE_NO":"１８６號","E_COORD97":172025.10000000001,"N_COORD97":2542707.0099999998,"ADDRESS":"裕農三街１８６號","OBJECTID":494993},"geometry":{"x":172025.10000000056,"y":2542707.0099999998}},{"attributes":{"ID":495021,"DIS_CODE":0,"TOWNNAME":"東區","LI":"文聖里","LIN":"8鄰","STREET":"裕農三街","SECT":" ","MAREA":" ","LANE":" ","ALLEY":" ","HOUSE_NO":"１８８號","E_COORD97":172024.76999999999,"N_COORD97":2542699.9300000002,"ADDRESS":"裕農三街１８８號","OBJECTID":494994},"geometry":{"x":172024.76999999955,"y":2542699.9300000016}},{"attributes":{"ID":495022,"DIS_CODE":0,"TOWNNAME":"東區","LI":"文聖里","LIN":"8鄰","STREET":"裕農三街","SECT":" ","MAREA":" ","LANE":" ","ALLEY":" ","HOUSE_NO":"２２６號","E_COORD97":172024.91,"N_COORD97":2542603.7799999998,"ADDRESS":"裕農三街２２６號","OBJECTID":494995},"geometry":{"x":172024.91000000201,"y":2542603.7799999993}},{"attributes":{"ID":495023,"DIS_CODE":0,"TOWNNAME":"東區","LI":"文聖里","LIN":"8鄰","STREET":"裕農三街","SECT":" ","MAREA":" ","LANE":" ","ALLEY":" ","HOUSE_NO":"２２８號","E_COORD97":172025.22,"N_COORD97":2542598.3799999999,"ADDRESS":"裕農三街２２８號","OBJECTID":494996},"geometry":{"x":172025.21999999974,"y":2542598.379999999}},{"attributes":{"ID":495024,"DIS_CODE":0,"TOWNNAME":"東區","LI":"文聖里","LIN":"8鄰","STREET":"裕興街","SECT":" ","MAREA":" ","LANE":" ","ALLEY":" ","HOUSE_NO":"１１號","E_COORD97":171989.87,"N_COORD97":2542677.1899999999,"ADDRESS":"裕興街１１號","OBJECTID":494997},"geometry":{"x":171989.87000000104,"y":2542677.1900000013}},{"attributes":{"ID":495025,"DIS_CODE":0,"TOWNNAME":"北區","LI":"長德里","LIN":"13鄰","STREET":"長北街","SECT":" ","MAREA":" ","LANE":" ","ALLEY":" ","HOUSE_NO":"２１２號之１","E_COORD97":168563.89000000001,"N_COORD97":2545046.8100000001,"ADDRESS":"長北街２１２號之１","OBJECTID":494998},"geometry":{"x":168563.88999999966,"y":2545046.8100000042}},{"attributes":{"ID":495026,"DIS_CODE":0,"TOWNNAME":"北區","LI":"長德里","LIN":"13鄰","STREET":"長北街","SECT":" ","MAREA":" ","LANE":" ","ALLEY":" ","HOUSE_NO":"２１２號之２","E_COORD97":168564.51999999999,"N_COORD97":2545050.5600000001,"ADDRESS":"長北街２１２號之２","OBJECTID":494999},"geometry":{"x":168564.51999999955,"y":2545050.5600000005}},{"attributes":{"ID":495027,"DIS_CODE":0,"TOWNNAME":"北區","LI":"長德里","LIN":"13鄰","STREET":"長北街","SECT":" ","MAREA":" ","LANE":" ","ALLEY":" ","HOUSE_NO":"２１２號之３","E_COORD97":168574.10999999999,"N_COORD97":2545047.0099999998,"ADDRESS":"長北街２１２號之３","OBJECTID":495000},"geometry":{"x":168574.1100000022,"y":2545047.0099999998}}]}