{"displayFieldName":"TOWNNAME","fieldAliases":{"ID":"ID","DIS_CODE":"DIS_CODE","TOWNNAME":"TOWNNAME","LI":"LI","LIN":"LIN","STREET":"STREET","SECT":"SECT","MAREA":"MAREA","LANE":"LANE","ALLEY":"ALLEY","HOUSE_NO":"HOUSE_NO","E_COORD97":"E_COORD97","N_COORD97":"N_COORD97","ADDRESS":"ADDRESS","OBJECTID":"OBJECTID"},"geometryType":"esriGeometryPoint","spatialReference":{"wkid":102443,"latestWkid":3826},"fields":[{"name":"ID","type":"esriFieldTypeDouble","alias":"ID"},{"name":"DIS_CODE","type":"esriFieldTypeInteger","alias":"DIS_CODE"},{"name":"TOWNNAME","type":"esriFieldTypeString","alias":"TOWNNAME","length":8},{"name":"LI","type":"esriFieldTypeString","alias":"LI","length":8},{"name":"LIN","type":"esriFieldTypeString","alias":"LIN","length":12},{"name":"STREET","type":"esriFieldTypeString","alias":"STREET","length":20},{"name":"SECT","type":"esriFieldTypeString","alias":"SECT","length":8},{"name":"MAREA","type":"esriFieldTypeString","alias":"MAREA","length":12},{"name":"LANE","type":"esriFieldTypeString","alias":"LANE","length":10},{"name":"ALLEY","type":"esriFieldTypeString","alias":"ALLEY","length":10},{"name":"HOUSE_NO","type":"esriFieldTypeString","alias":"HOUSE_NO","length":20},{"name":"E_COORD97","type":"esriFieldTypeDouble","alias":"E_COORD97"},{"name":"N_COORD97","type":"esriFieldTypeDouble","alias":"N_COORD97"},{"name":"ADDRESS","type":"esriFieldTypeString","alias":"ADDRESS","length":50},{"name":"OBJECTID","type":"esriFieldTypeOID","alias":"OBJECTID"}],"features":[{"attributes":{"ID":136801,"DIS_CODE":0,"TOWNNAME":"後壁區","LI":"烏樹里","LIN":" ","STREET":" ","SECT":" ","MAREA":"烏樹林","LANE":" ","ALLEY":" ","HOUSE_NO":"８３號","E_COORD97":186246.64000000001,"N_COORD97":2581397.8500000001,"ADDRESS":"烏樹林８３號","OBJECTID":136801},"geometry":{"x":186246.63999999966,"y":2581397.8500000015}},{"attributes":{"ID":136802,"DIS_CODE":0,"TOWNNAME":"後壁區","LI":"烏樹里","LIN":" ","STREET":" ","SECT":" ","MAREA":"烏樹林","LANE":" ","ALLEY":" ","HOUSE_NO":"８８之３號","E_COORD97":186285.95999999999,"N_COORD97":2581336.0299999998,"ADDRESS":"烏樹林８８之３號","OBJECTID":136802},"geometry":{"x":186285.96000000183,"y":2581336.0300000012}},{"attributes":{"ID":136803,"DIS_CODE":0,"TOWNNAME":"後壁區","LI":"烏樹里","LIN":" ","STREET":" ","SECT":" ","MAREA":"烏樹林","LANE":" ","ALLEY":" ","HOUSE_NO":"９９之１２號","E_COORD97":186185.03,"N_COORD97":2581251.9199999999,"ADDRESS":"烏樹林９９之１２號","OBJECTID":136803},"geometry":{"x":186185.03000000026,"y":2581251.9200000018}},{"attributes":{"ID":136804,"DIS_CODE":0,"TOWNNAME":"後壁區","LI":"烏樹里","LIN":" ","STREET":" ","SECT":" ","MAREA":"烏樹林","LANE":" ","ALLEY":" ","HOUSE_NO":"９９之１附１號","E_COORD97":186163.73000000001,"N_COORD97":2581217.4300000002,"ADDRESS":"烏樹林９９之１附１號","OBJECTID":136804},"geometry":{"x":186163.73000000045,"y":2581217.4300000016}},{"attributes":{"ID":136805,"DIS_CODE":0,"TOWNNAME":"後壁區","LI":"崁頂里","LIN":" ","STREET":" ","SECT":" ","MAREA":"崩埤","LANE":" ","ALLEY":" ","HOUSE_NO":"１３９號","E_COORD97":185189.20999999999,"N_COORD97":2587761.0600000001,"ADDRESS":"崩埤１３９號","OBJECTID":136805},"geometry":{"x":185189.21000000183,"y":2587761.0600000024}},{"attributes":{"ID":136806,"DIS_CODE":0,"TOWNNAME":"後壁區","LI":"菁豊里","LIN":" ","STREET":" ","SECT":" ","MAREA":"崩埤","LANE":" ","ALLEY":" ","HOUSE_NO":"１之６０號","E_COORD97":185344.62,"N_COORD97":2586804.6800000002,"ADDRESS":"崩埤１之６０號","OBJECTID":136806},"geometry":{"x":185344.62000000104,"y":2586804.6799999997}},{"attributes":{"ID":136807,"DIS_CODE":0,"TOWNNAME":"新營區","LI":"新北里","LIN":"27鄰","STREET":"民生路","SECT":" ","MAREA":" ","LANE":"３８５巷","ALLEY":"１３弄","HOUSE_NO":"１９號之２","E_COORD97":178869.35000000001,"N_COORD97":2579116.3799999999,"ADDRESS":"民生路３８５巷１３弄１９號之２","OBJECTID":136807},"geometry":{"x":178869.34999999963,"y":2579116.379999999}},{"attributes":{"ID":136808,"DIS_CODE":0,"TOWNNAME":"新營區","LI":"新東里","LIN":"27鄰","STREET":"東光街","SECT":" ","MAREA":" ","LANE":"４０巷","ALLEY":"２８弄","HOUSE_NO":"１０號","E_COORD97":180692.82000000001,"N_COORD97":2579556.4199999999,"ADDRESS":"東光街４０巷２８弄１０號","OBJECTID":136808},"geometry":{"x":180692.8200000003,"y":2579556.4200000018}},{"attributes":{"ID":136809,"DIS_CODE":0,"TOWNNAME":"新營區","LI":"新南里","LIN":"27鄰","STREET":"復興路","SECT":" ","MAREA":" ","LANE":"６２０巷","ALLEY":"６１弄","HOUSE_NO":"２２號","E_COORD97":178017.42999999999,"N_COORD97":2578535.71,"ADDRESS":"復興路６２０巷６１弄２２號","OBJECTID":136809},"geometry":{"x":178017.43000000063,"y":2578535.7100000028}},{"attributes":{"ID":136810,"DIS_CODE":0,"TOWNNAME":"北區","LI":"和順里","LIN":"27鄰","STREET":"民德路","SECT":" ","MAREA":" ","LANE":"５８巷","ALLEY":"１１弄","HOUSE_NO":"１號","E_COORD97":168226.53,"N_COORD97":2545262.6000000001,"ADDRESS":"民德路５８巷１１弄１號","OBJECTID":136810},"geometry":{"x":168226.53000000026,"y":2545262.5999999996}},{"attributes":{"ID":136811,"DIS_CODE":0,"TOWNNAME":"新營區","LI":"新北里","LIN":"27鄰","STREET":"民生路","SECT":" ","MAREA":" ","LANE":"３８５巷","ALLEY":"１３弄","HOUSE_NO":"１３之１號","E_COORD97":178889.01000000001,"N_COORD97":2579116.29,"ADDRESS":"民生路３８５巷１３弄１３之１號","OBJECTID":136811},"geometry":{"x":178889.00999999978,"y":2579116.290000001}},{"attributes":{"ID":136812,"DIS_CODE":0,"TOWNNAME":"新營區","LI":"新北里","LIN":"27鄰","STREET":"民生路","SECT":" ","MAREA":" ","LANE":"３８５巷","ALLEY":"１３弄","HOUSE_NO":"３之１號","E_COORD97":178868.47,"N_COORD97":2579126.3500000001,"ADDRESS":"民生路３８５巷１３弄３之１號","OBJECTID":136812},"geometry":{"x":178868.46999999974,"y":2579126.3500000015}},{"attributes":{"ID":136813,"DIS_CODE":0,"TOWNNAME":"歸仁區","LI":"媽廟里","LIN":"27鄰","STREET":"保大路","SECT":"一段","MAREA":" ","LANE":"１５２巷","ALLEY":"１００弄","HOUSE_NO":"２９號","E_COORD97":177743.29000000001,"N_COORD97":2544840.8700000001,"ADDRESS":"保大路一段１５２巷１００弄２９號","OBJECTID":136813},"geometry":{"x":177743.28999999911,"y":2544840.8700000029}},{"attributes":{"ID":136814,"DIS_CODE":0,"TOWNNAME":"新營區","LI":"南興里","LIN":"27鄰","STREET":"建業路","SECT":" ","MAREA":" ","LANE":"８１巷","ALLEY":"２弄","HOUSE_NO":"３號","E_COORD97":178543.78,"N_COORD97":2577430.1299999999,"ADDRESS":"建業路８１巷２弄３號","OBJECTID":136814},"geometry":{"x":178543.77999999933,"y":2577430.129999999}},{"attributes":{"ID":136815,"DIS_CODE":0,"TOWNNAME":"新營區","LI":"新北里","LIN":"27鄰","STREET":"民生路","SECT":" ","MAREA":" ","LANE":"３８５巷","ALLEY":"１３弄","HOUSE_NO":"１之２號","E_COORD97":178861.22,"N_COORD97":2579126.3799999999,"ADDRESS":"民生路３８５巷１３弄１之２號","OBJECTID":136815},"geometry":{"x":178861.22000000067,"y":2579126.379999999}},{"attributes":{"ID":136816,"DIS_CODE":0,"TOWNNAME":"鹽水區","LI":"飯店里","LIN":"6鄰","STREET":" ","SECT":" ","MAREA":"麻油寮","LANE":" ","ALLEY":" ","HOUSE_NO":"４之１號","E_COORD97":169422.44,"N_COORD97":2573830.6099999999,"ADDRESS":"麻油寮４之１號","OBJECTID":136816},"geometry":{"x":169422.44000000041,"y":2573830.6099999994}},{"attributes":{"ID":136817,"DIS_CODE":0,"TOWNNAME":"鹽水區","LI":"飯店里","LIN":"6鄰","STREET":" ","SECT":" ","MAREA":"麻油寮","LANE":" ","ALLEY":" ","HOUSE_NO":"４號","E_COORD97":169430.39000000001,"N_COORD97":2573837.6000000001,"ADDRESS":"麻油寮４號","OBJECTID":136817},"geometry":{"x":169430.38999999966,"y":2573837.5999999996}},{"attributes":{"ID":136818,"DIS_CODE":0,"TOWNNAME":"鹽水區","LI":"飯店里","LIN":"6鄰","STREET":" ","SECT":" ","MAREA":"麻油寮","LANE":" ","ALLEY":" ","HOUSE_NO":"５號之２","E_COORD97":169503.67999999999,"N_COORD97":2573855.21,"ADDRESS":"麻油寮５號之２","OBJECTID":136818},"geometry":{"x":169503.68000000063,"y":2573855.2100000009}},{"attributes":{"ID":136819,"DIS_CODE":0,"TOWNNAME":"鹽水區","LI":"飯店里","LIN":"6鄰","STREET":" ","SECT":" ","MAREA":"麻油寮","LANE":" ","ALLEY":" ","HOUSE_NO":"５號之５","E_COORD97":169471.91,"N_COORD97":2573844.6000000001,"ADDRESS":"麻油寮５號之５","OBJECTID":136819},"geometry":{"x":169471.91000000201,"y":2573844.5999999996}},{"attributes":{"ID":136820,"DIS_CODE":0,"TOWNNAME":"安平區","LI":"平通里","LIN":"27鄰","STREET":"育平九街","SECT":" ","MAREA":" ","LANE":"３７２巷","ALLEY":"８９弄","HOUSE_NO":"９５號","E_COORD97":164384.20999999999,"N_COORD97":2543951.71,"ADDRESS":"育平九街３７２巷８９弄９５號","OBJECTID":136820},"geometry":{"x":164384.21000000183,"y":2543951.7100000009}},{"attributes":{"ID":136821,"DIS_CODE":0,"TOWNNAME":"安平區","LI":"平通里","LIN":"27鄰","STREET":"育平九街","SECT":" ","MAREA":" ","LANE":"３７２巷","ALLEY":"８９弄","HOUSE_NO":"９７號","E_COORD97":164380.28,"N_COORD97":2543951.9100000001,"ADDRESS":"育平九街３７２巷８９弄９７號","OBJECTID":136821},"geometry":{"x":164380.28000000026,"y":2543951.910000002}},{"attributes":{"ID":136822,"DIS_CODE":0,"TOWNNAME":"新營區","LI":"新北里","LIN":"27鄰","STREET":"民生路","SECT":" ","MAREA":" ","LANE":"３８５巷","ALLEY":"１３弄","HOUSE_NO":"２２號","E_COORD97":178822.20999999999,"N_COORD97":2579129.8399999999,"ADDRESS":"民生路３８５巷１３弄２２號","OBJECTID":136822},"geometry":{"x":178822.21000000089,"y":2579129.8400000017}},{"attributes":{"ID":136823,"DIS_CODE":0,"TOWNNAME":"新營區","LI":"南紙里","LIN":"27鄰","STREET":"太子路","SECT":" ","MAREA":" ","LANE":"２００巷","ALLEY":"１０１弄","HOUSE_NO":"１４號","E_COORD97":177791.10999999999,"N_COORD97":2578074.9900000002,"ADDRESS":"太子路２００巷１０１弄１４號","OBJECTID":136823},"geometry":{"x":177791.11000000127,"y":2578074.9900000021}},{"attributes":{"ID":136824,"DIS_CODE":0,"TOWNNAME":"新營區","LI":"南紙里","LIN":"27鄰","STREET":"太子路","SECT":" ","MAREA":" ","LANE":"２００巷","ALLEY":"１０１弄","HOUSE_NO":"２９號","E_COORD97":177760.34,"N_COORD97":2578043.0299999998,"ADDRESS":"太子路２００巷１０１弄２９號","OBJECTID":136824},"geometry":{"x":177760.34000000078,"y":2578043.0300000012}},{"attributes":{"ID":136825,"DIS_CODE":0,"TOWNNAME":"後壁區","LI":"崁頂里","LIN":" ","STREET":" ","SECT":" ","MAREA":"崩埤","LANE":" ","ALLEY":" ","HOUSE_NO":"２２號","E_COORD97":184805.29000000001,"N_COORD97":2587810.5600000001,"ADDRESS":"崩埤２２號","OBJECTID":136825},"geometry":{"x":184805.29000000004,"y":2587810.5600000005}},{"attributes":{"ID":136826,"DIS_CODE":0,"TOWNNAME":"後壁區","LI":"崁頂里","LIN":" ","STREET":" ","SECT":" ","MAREA":"崩埤","LANE":" ","ALLEY":" ","HOUSE_NO":"２７號","E_COORD97":184783.79999999999,"N_COORD97":2587801.3599999999,"ADDRESS":"崩埤２７號","OBJECTID":136826},"geometry":{"x":184783.80000000075,"y":2587801.3600000031}},{"attributes":{"ID":136827,"DIS_CODE":0,"TOWNNAME":"後壁區","LI":"頂安里","LIN":" ","STREET":" ","SECT":" ","MAREA":"頂寮","LANE":" ","ALLEY":" ","HOUSE_NO":"１００號","E_COORD97":183749.32000000001,"N_COORD97":2581232.6400000001,"ADDRESS":"頂寮１００號","OBJECTID":136827},"geometry":{"x":183749.3200000003,"y":2581232.6400000006}},{"attributes":{"ID":136828,"DIS_CODE":0,"TOWNNAME":"後壁區","LI":"頂安里","LIN":" ","STREET":" ","SECT":" ","MAREA":"頂寮","LANE":" ","ALLEY":" ","HOUSE_NO":"１０４號","E_COORD97":183739.51999999999,"N_COORD97":2581201.5499999998,"ADDRESS":"頂寮１０４號","OBJECTID":136828},"geometry":{"x":183739.52000000048,"y":2581201.5500000026}},{"attributes":{"ID":136829,"DIS_CODE":0,"TOWNNAME":"後壁區","LI":"頂安里","LIN":" ","STREET":" ","SECT":" ","MAREA":"頂寮","LANE":" ","ALLEY":" ","HOUSE_NO":"１０５之２１號","E_COORD97":183613.51999999999,"N_COORD97":2581043.1299999999,"ADDRESS":"頂寮１０５之２１號","OBJECTID":136829},"geometry":{"x":183613.52000000142,"y":2581043.1300000008}},{"attributes":{"ID":136830,"DIS_CODE":0,"TOWNNAME":"後壁區","LI":"頂安里","LIN":" ","STREET":" ","SECT":" ","MAREA":"頂寮","LANE":" ","ALLEY":" ","HOUSE_NO":"１０５之２號","E_COORD97":183702.51999999999,"N_COORD97":2581060.6699999999,"ADDRESS":"頂寮１０５之２號","OBJECTID":136830},"geometry":{"x":183702.51999999955,"y":2581060.6700000018}},{"attributes":{"ID":136831,"DIS_CODE":0,"TOWNNAME":"後壁區","LI":"頂安里","LIN":" ","STREET":" ","SECT":" ","MAREA":"頂寮","LANE":" ","ALLEY":" ","HOUSE_NO":"１０５之３７號","E_COORD97":183703.42999999999,"N_COORD97":2581082.9500000002,"ADDRESS":"頂寮１０５之３７號","OBJECTID":136831},"geometry":{"x":183703.4299999997,"y":2581082.9499999993}},{"attributes":{"ID":136832,"DIS_CODE":0,"TOWNNAME":"後壁區","LI":"頂安里","LIN":" ","STREET":" ","SECT":" ","MAREA":"頂寮","LANE":" ","ALLEY":" ","HOUSE_NO":"１０５之３８號","E_COORD97":183703.39000000001,"N_COORD97":2581086.8599999999,"ADDRESS":"頂寮１０５之３８號","OBJECTID":136832},"geometry":{"x":183703.3900000006,"y":2581086.8599999994}},{"attributes":{"ID":136833,"DIS_CODE":0,"TOWNNAME":"新營區","LI":"新北里","LIN":"27鄰","STREET":"民生路","SECT":" ","MAREA":" ","LANE":"３８５巷","ALLEY":"１３弄","HOUSE_NO":"２１號","E_COORD97":178859.98999999999,"N_COORD97":2579116.3700000001,"ADDRESS":"民生路３８５巷１３弄２１號","OBJECTID":136833},"geometry":{"x":178859.99000000115,"y":2579116.370000001}},{"attributes":{"ID":136834,"DIS_CODE":0,"TOWNNAME":"新營區","LI":"南紙里","LIN":"27鄰","STREET":"太子路","SECT":" ","MAREA":" ","LANE":"２００巷","ALLEY":"１１１弄","HOUSE_NO":"３號","E_COORD97":177809.48999999999,"N_COORD97":2578097.0499999998,"ADDRESS":"太子路２００巷１１１弄３號","OBJECTID":136834},"geometry":{"x":177809.49000000022,"y":2578097.0500000007}},{"attributes":{"ID":136835,"DIS_CODE":0,"TOWNNAME":"鹽水區","LI":"飯店里","LIN":"6鄰","STREET":" ","SECT":" ","MAREA":"麻油寮","LANE":" ","ALLEY":" ","HOUSE_NO":"５之７號","E_COORD97":169581.04000000001,"N_COORD97":2573891.3399999999,"ADDRESS":"麻油寮５之７號","OBJECTID":136835},"geometry":{"x":169581.0400000019,"y":2573891.3400000017}},{"attributes":{"ID":136836,"DIS_CODE":0,"TOWNNAME":"鹽水區","LI":"飯店里","LIN":"6鄰","STREET":" ","SECT":" ","MAREA":"麻油寮","LANE":" ","ALLEY":" ","HOUSE_NO":"５號","E_COORD97":169414.35999999999,"N_COORD97":2573847.46,"ADDRESS":"麻油寮５號","OBJECTID":136836},"geometry":{"x":169414.36000000034,"y":2573847.4600000046}},{"attributes":{"ID":136837,"DIS_CODE":0,"TOWNNAME":"鹽水區","LI":"飯店里","LIN":"6鄰","STREET":" ","SECT":" ","MAREA":"麻油寮","LANE":" ","ALLEY":" ","HOUSE_NO":"７號","E_COORD97":169415.23000000001,"N_COORD97":2573826.6499999999,"ADDRESS":"麻油寮７號","OBJECTID":136837},"geometry":{"x":169415.23000000045,"y":2573826.6500000022}},{"attributes":{"ID":136838,"DIS_CODE":0,"TOWNNAME":"新營區","LI":"南紙里","LIN":"27鄰","STREET":"太子路","SECT":" ","MAREA":" ","LANE":"２００巷","ALLEY":"１１１弄","HOUSE_NO":"７號","E_COORD97":177801.23999999999,"N_COORD97":2578095.98,"ADDRESS":"太子路２００巷１１１弄７號","OBJECTID":136838},"geometry":{"x":177801.24000000022,"y":2578095.9800000023}},{"attributes":{"ID":136839,"DIS_CODE":0,"TOWNNAME":"鹽水區","LI":"飯店里","LIN":"6鄰","STREET":" ","SECT":" ","MAREA":"麻油寮","LANE":" ","ALLEY":" ","HOUSE_NO":"８號","E_COORD97":169378.66,"N_COORD97":2573837.29,"ADDRESS":"麻油寮８號","OBJECTID":136839},"geometry":{"x":169378.66000000201,"y":2573837.290000001}},{"attributes":{"ID":136840,"DIS_CODE":0,"TOWNNAME":"鹽水區","LI":"飯店里","LIN":"6鄰","STREET":" ","SECT":" ","MAREA":"麻油寮","LANE":" ","ALLEY":" ","HOUSE_NO":"９號","E_COORD97":169386.10000000001,"N_COORD97":2573827.7999999998,"ADDRESS":"麻油寮９號","OBJECTID":136840},"geometry":{"x":169386.10000000056,"y":2573827.8000000045}},{"attributes":{"ID":136841,"DIS_CODE":0,"TOWNNAME":"鹽水區","LI":"義稠里","LIN":"6鄰","STREET":" ","SECT":" ","MAREA":"義稠","LANE":" ","ALLEY":" ","HOUSE_NO":"８２號","E_COORD97":174083.04000000001,"N_COORD97":2580776.2000000002,"ADDRESS":"義稠８２號","OBJECTID":136841},"geometry":{"x":174083.04000000004,"y":2580776.1999999993}},{"attributes":{"ID":136842,"DIS_CODE":0,"TOWNNAME":"鹽水區","LI":"義稠里","LIN":"6鄰","STREET":" ","SECT":" ","MAREA":"義稠","LANE":" ","ALLEY":" ","HOUSE_NO":"８３號","E_COORD97":174058.13,"N_COORD97":2580759.5800000001,"ADDRESS":"義稠８３號","OBJECTID":136842},"geometry":{"x":174058.13000000082,"y":2580759.5800000019}},{"attributes":{"ID":136843,"DIS_CODE":0,"TOWNNAME":"鹽水區","LI":"義稠里","LIN":"6鄰","STREET":" ","SECT":" ","MAREA":"義稠","LANE":" ","ALLEY":" ","HOUSE_NO":"８５號之１","E_COORD97":174042.64000000001,"N_COORD97":2580782.6600000001,"ADDRESS":"義稠８５號之１","OBJECTID":136843},"geometry":{"x":174042.63999999966,"y":2580782.660000002}},{"attributes":{"ID":136844,"DIS_CODE":0,"TOWNNAME":"鹽水區","LI":"義稠里","LIN":"6鄰","STREET":" ","SECT":" ","MAREA":"義稠","LANE":" ","ALLEY":" ","HOUSE_NO":"８５號","E_COORD97":174059.56,"N_COORD97":2580784.02,"ADDRESS":"義稠８５號","OBJECTID":136844},"geometry":{"x":174059.56000000052,"y":2580784.0199999996}},{"attributes":{"ID":136845,"DIS_CODE":0,"TOWNNAME":"鹽水區","LI":"義稠里","LIN":"6鄰","STREET":" ","SECT":" ","MAREA":"義稠","LANE":" ","ALLEY":" ","HOUSE_NO":"８６之１號","E_COORD97":174010.92999999999,"N_COORD97":2580799.1299999999,"ADDRESS":"義稠８６之１號","OBJECTID":136845},"geometry":{"x":174010.92999999877,"y":2580799.1300000008}},{"attributes":{"ID":136846,"DIS_CODE":0,"TOWNNAME":"鹽水區","LI":"義稠里","LIN":"6鄰","STREET":" ","SECT":" ","MAREA":"義稠","LANE":" ","ALLEY":" ","HOUSE_NO":"８６號之５","E_COORD97":174022.82000000001,"N_COORD97":2580772.8999999999,"ADDRESS":"義稠８６號之５","OBJECTID":136846},"geometry":{"x":174022.82000000123,"y":2580772.9000000004}},{"attributes":{"ID":136847,"DIS_CODE":0,"TOWNNAME":"鹽水區","LI":"義稠里","LIN":"6鄰","STREET":" ","SECT":" ","MAREA":"義稠","LANE":" ","ALLEY":" ","HOUSE_NO":"８６號之６","E_COORD97":174017.28,"N_COORD97":2580770.9399999999,"ADDRESS":"義稠８６號之６","OBJECTID":136847},"geometry":{"x":174017.28000000026,"y":2580770.9399999995}},{"attributes":{"ID":136848,"DIS_CODE":0,"TOWNNAME":"鹽水區","LI":"義稠里","LIN":"6鄰","STREET":" ","SECT":" ","MAREA":"義稠","LANE":" ","ALLEY":" ","HOUSE_NO":"８６號","E_COORD97":174045.20000000001,"N_COORD97":2580744.98,"ADDRESS":"義稠８６號","OBJECTID":136848},"geometry":{"x":174045.19999999925,"y":2580744.9800000004}},{"attributes":{"ID":136849,"DIS_CODE":0,"TOWNNAME":"鹽水區","LI":"義稠里","LIN":"6鄰","STREET":" ","SECT":" ","MAREA":"義稠","LANE":" ","ALLEY":" ","HOUSE_NO":"８８號","E_COORD97":173990.53,"N_COORD97":2580773.23,"ADDRESS":"義稠８８號","OBJECTID":136849},"geometry":{"x":173990.53000000212,"y":2580773.2300000004}},{"attributes":{"ID":136850,"DIS_CODE":0,"TOWNNAME":"鹽水區","LI":"義稠里","LIN":"6鄰","STREET":" ","SECT":" ","MAREA":"義稠","LANE":" ","ALLEY":" ","HOUSE_NO":"９０號","E_COORD97":173952.23999999999,"N_COORD97":2580778.4399999999,"ADDRESS":"義稠９０號","OBJECTID":136850},"geometry":{"x":173952.24000000115,"y":2580778.4399999995}},{"attributes":{"ID":136851,"DIS_CODE":0,"TOWNNAME":"鹽水區","LI":"義稠里","LIN":"6鄰","STREET":" ","SECT":" ","MAREA":"義稠","LANE":" ","ALLEY":" ","HOUSE_NO":"９１號","E_COORD97":173976.79000000001,"N_COORD97":2580746.3900000001,"ADDRESS":"義稠９１號","OBJECTID":136851},"geometry":{"x":173976.7900000019,"y":2580746.3900000006}},{"attributes":{"ID":136852,"DIS_CODE":0,"TOWNNAME":"新營區","LI":"南紙里","LIN":"27鄰","STREET":"太子路","SECT":" ","MAREA":" ","LANE":"２００巷","ALLEY":"１０１弄","HOUSE_NO":"２７號","E_COORD97":177765.45000000001,"N_COORD97":2578043.0099999998,"ADDRESS":"太子路２００巷１０１弄２７號","OBJECTID":136852},"geometry":{"x":177765.45000000019,"y":2578043.0100000035}},{"attributes":{"ID":136853,"DIS_CODE":0,"TOWNNAME":"左鎮區","LI":"二寮里","LIN":"6鄰","STREET":" ","SECT":" ","MAREA":"二寮","LANE":" ","ALLEY":" ","HOUSE_NO":"５２號","E_COORD97":189030.64000000001,"N_COORD97":2544537.25,"ADDRESS":"二寮５２號","OBJECTID":136853},"geometry":{"x":189030.64000000153,"y":2544537.25}},{"attributes":{"ID":136854,"DIS_CODE":0,"TOWNNAME":"新營區","LI":"南紙里","LIN":"27鄰","STREET":"太子路","SECT":" ","MAREA":" ","LANE":"２００巷","ALLEY":"１０１弄","HOUSE_NO":"３號","E_COORD97":177816.45999999999,"N_COORD97":2578057.1499999999,"ADDRESS":"太子路２００巷１０１弄３號","OBJECTID":136854},"geometry":{"x":177816.45999999996,"y":2578057.1500000022}},{"attributes":{"ID":136855,"DIS_CODE":0,"TOWNNAME":"左鎮區","LI":"澄山里","LIN":"6鄰","STREET":" ","SECT":" ","MAREA":"澄山","LANE":" ","ALLEY":" ","HOUSE_NO":"６１號","E_COORD97":187851.89000000001,"N_COORD97":2546247.25,"ADDRESS":"澄山６１號","OBJECTID":136855},"geometry":{"x":187851.88999999966,"y":2546247.2500000019}},{"attributes":{"ID":136856,"DIS_CODE":0,"TOWNNAME":"新營區","LI":"新南里","LIN":"27鄰","STREET":"復興路","SECT":" ","MAREA":" ","LANE":"６２０巷","ALLEY":"６１弄","HOUSE_NO":"１８號","E_COORD97":178010.28,"N_COORD97":2578553.46,"ADDRESS":"復興路６２０巷６１弄１８號","OBJECTID":136856},"geometry":{"x":178010.28000000119,"y":2578553.4600000028}},{"attributes":{"ID":136857,"DIS_CODE":0,"TOWNNAME":"北區","LI":"文元里","LIN":"27鄰","STREET":"中華北路","SECT":"二段","MAREA":" ","LANE":"８０巷","ALLEY":"１０弄","HOUSE_NO":"１號","E_COORD97":167700.04000000001,"N_COORD97":2546570.79,"ADDRESS":"中華北路二段８０巷１０弄１號","OBJECTID":136857},"geometry":{"x":167700.04000000097,"y":2546570.7900000028}},{"attributes":{"ID":136858,"DIS_CODE":0,"TOWNNAME":"新營區","LI":"新南里","LIN":"27鄰","STREET":"復興路","SECT":" ","MAREA":" ","LANE":"６２０巷","ALLEY":"６１弄","HOUSE_NO":"８號","E_COORD97":178031.60999999999,"N_COORD97":2578552.2400000002,"ADDRESS":"復興路６２０巷６１弄８號","OBJECTID":136858},"geometry":{"x":178031.61000000127,"y":2578552.2400000002}},{"attributes":{"ID":136859,"DIS_CODE":0,"TOWNNAME":"左鎮區","LI":"岡林里","LIN":"6鄰","STREET":" ","SECT":" ","MAREA":"岡林","LANE":" ","ALLEY":" ","HOUSE_NO":"６５號","E_COORD97":190210.06,"N_COORD97":2545766.25,"ADDRESS":"岡林６５號","OBJECTID":136859},"geometry":{"x":190210.06000000052,"y":2545766.2500000019}},{"attributes":{"ID":136860,"DIS_CODE":0,"TOWNNAME":"左鎮區","LI":"澄山里","LIN":"6鄰","STREET":" ","SECT":" ","MAREA":"澄山","LANE":" ","ALLEY":" ","HOUSE_NO":"６３號","E_COORD97":187850.69,"N_COORD97":2546287.25,"ADDRESS":"澄山６３號","OBJECTID":136860},"geometry":{"x":187850.69000000041,"y":2546287.2500000037}},{"attributes":{"ID":136861,"DIS_CODE":0,"TOWNNAME":"左鎮區","LI":"澄山里","LIN":"6鄰","STREET":" ","SECT":" ","MAREA":"澄山","LANE":" ","ALLEY":" ","HOUSE_NO":"５９號","E_COORD97":187895.09,"N_COORD97":2546208.25,"ADDRESS":"澄山５９號","OBJECTID":136861},"geometry":{"x":187895.08999999985,"y":2546208.25}},{"attributes":{"ID":136862,"DIS_CODE":0,"TOWNNAME":"左鎮區","LI":"澄山里","LIN":"6鄰","STREET":" ","SECT":" ","MAREA":"澄山","LANE":" ","ALLEY":" ","HOUSE_NO":"５９號之１","E_COORD97":187918.13,"N_COORD97":2546154.2999999998,"ADDRESS":"澄山５９號之１","OBJECTID":136862},"geometry":{"x":187918.12999999989,"y":2546154.3000000007}},{"attributes":{"ID":136863,"DIS_CODE":0,"TOWNNAME":"永康區","LI":"勝利里","LIN":"27鄰","STREET":"中華路","SECT":" ","MAREA":" ","LANE":"１２１巷","ALLEY":"２１弄","HOUSE_NO":"３２號","E_COORD97":171457.37,"N_COORD97":2544659.1499999999,"ADDRESS":"中華路１２１巷２１弄３２號","OBJECTID":136863},"geometry":{"x":171457.37000000104,"y":2544659.1500000022}},{"attributes":{"ID":136864,"DIS_CODE":0,"TOWNNAME":"左鎮區","LI":"內庄里","LIN":"6鄰","STREET":" ","SECT":" ","MAREA":"內庄","LANE":" ","ALLEY":" ","HOUSE_NO":"５７號之１０","E_COORD97":190832.85000000001,"N_COORD97":2549912.5299999998,"ADDRESS":"內庄５７號之１０","OBJECTID":136864},"geometry":{"x":190832.85000000149,"y":2549912.5300000031}},{"attributes":{"ID":136865,"DIS_CODE":0,"TOWNNAME":"永康區","LI":"西勢里","LIN":"27鄰","STREET":"廣興街","SECT":" ","MAREA":" ","LANE":"３８巷","ALLEY":"２６弄","HOUSE_NO":"１１號","E_COORD97":176000.06,"N_COORD97":2546436.5499999998,"ADDRESS":"廣興街３８巷２６弄１１號","OBJECTID":136865},"geometry":{"x":176000.05999999866,"y":2546436.5500000026}},{"attributes":{"ID":136866,"DIS_CODE":0,"TOWNNAME":"永康區","LI":"西勢里","LIN":"27鄰","STREET":"廣興街","SECT":" ","MAREA":" ","LANE":"３８巷","ALLEY":"３４弄","HOUSE_NO":"１０號","E_COORD97":176039.07999999999,"N_COORD97":2546412.5600000001,"ADDRESS":"廣興街３８巷３４弄１０號","OBJECTID":136866},"geometry":{"x":176039.08000000007,"y":2546412.5600000024}},{"attributes":{"ID":136867,"DIS_CODE":0,"TOWNNAME":"永康區","LI":"東橋里","LIN":"27鄰","STREET":"中正路","SECT":" ","MAREA":" ","LANE":"２７９巷","ALLEY":"２１弄","HOUSE_NO":"６１號","E_COORD97":172699.45000000001,"N_COORD97":2547838.4900000002,"ADDRESS":"中正路２７９巷２１弄６１號","OBJECTID":136867},"geometry":{"x":172699.45000000112,"y":2547838.4899999984}},{"attributes":{"ID":136868,"DIS_CODE":0,"TOWNNAME":"永康區","LI":"東橋里","LIN":"27鄰","STREET":"中正路","SECT":" ","MAREA":" ","LANE":"２７９巷","ALLEY":"２１弄","HOUSE_NO":"３１號","E_COORD97":172609.07000000001,"N_COORD97":2547770.75,"ADDRESS":"中正路２７９巷２１弄３１號","OBJECTID":136868},"geometry":{"x":172609.07000000123,"y":2547770.75}},{"attributes":{"ID":136869,"DIS_CODE":0,"TOWNNAME":"永康區","LI":"東橋里","LIN":"27鄰","STREET":"中正路","SECT":" ","MAREA":" ","LANE":"２７９巷","ALLEY":"２１弄","HOUSE_NO":"１１號","E_COORD97":172627.89999999999,"N_COORD97":2547857.25,"ADDRESS":"中正路２７９巷２１弄１１號","OBJECTID":136869},"geometry":{"x":172627.90000000037,"y":2547857.2500000037}},{"attributes":{"ID":136870,"DIS_CODE":0,"TOWNNAME":"永康區","LI":"東橋里","LIN":"27鄰","STREET":"中正路","SECT":" ","MAREA":" ","LANE":"２７９巷","ALLEY":"２１弄","HOUSE_NO":"３４號","E_COORD97":172508.91,"N_COORD97":2547739.7400000002,"ADDRESS":"中正路２７９巷２１弄３４號","OBJECTID":136870},"geometry":{"x":172508.91000000015,"y":2547739.7400000021}},{"attributes":{"ID":136871,"DIS_CODE":0,"TOWNNAME":"永康區","LI":"東橋里","LIN":"27鄰","STREET":"中正路","SECT":" ","MAREA":" ","LANE":"２７９巷","ALLEY":"２１弄","HOUSE_NO":"１９號","E_COORD97":172528.45999999999,"N_COORD97":2547826.4900000002,"ADDRESS":"中正路２７９巷２１弄１９號","OBJECTID":136871},"geometry":{"x":172528.46000000089,"y":2547826.4900000021}},{"attributes":{"ID":136872,"DIS_CODE":0,"TOWNNAME":"永康區","LI":"東橋里","LIN":"27鄰","STREET":"中正路","SECT":" ","MAREA":" ","LANE":"２７９巷","ALLEY":"２１弄","HOUSE_NO":"３６號","E_COORD97":172508.82000000001,"N_COORD97":2547729.9900000002,"ADDRESS":"中正路２７９巷２１弄３６號","OBJECTID":136872},"geometry":{"x":172508.82000000216,"y":2547729.9899999984}},{"attributes":{"ID":136873,"DIS_CODE":0,"TOWNNAME":"仁德區","LI":"仁德里","LIN":"27鄰","STREET":"淨修街","SECT":" ","MAREA":" ","LANE":"１７５巷","ALLEY":"３０弄","HOUSE_NO":"１３號","E_COORD97":171991.17000000001,"N_COORD97":2541207.4300000002,"ADDRESS":"淨修街１７５巷３０弄１３號","OBJECTID":136873},"geometry":{"x":171991.17000000086,"y":2541207.4300000016}},{"attributes":{"ID":136874,"DIS_CODE":0,"TOWNNAME":"安南區","LI":"溪頂里","LIN":"27鄰","STREET":"郡安路","SECT":"四段","MAREA":" ","LANE":"２７８巷","ALLEY":"１５弄","HOUSE_NO":"１３號","E_COORD97":168657.29000000001,"N_COORD97":2547614.8900000001,"ADDRESS":"郡安路四段２７８巷１５弄１３號","OBJECTID":136874},"geometry":{"x":168657.2900000019,"y":2547614.8900000006}},{"attributes":{"ID":136875,"DIS_CODE":0,"TOWNNAME":"安南區","LI":"溪頂里","LIN":"27鄰","STREET":"郡安路","SECT":"四段","MAREA":" ","LANE":"２７８巷","ALLEY":"１５弄","HOUSE_NO":"１５號","E_COORD97":168670.42000000001,"N_COORD97":2547613.98,"ADDRESS":"郡安路四段２７８巷１５弄１５號","OBJECTID":136875},"geometry":{"x":168670.42000000086,"y":2547613.9800000004}},{"attributes":{"ID":136876,"DIS_CODE":0,"TOWNNAME":"左鎮區","LI":"內庄里","LIN":"6鄰","STREET":" ","SECT":" ","MAREA":"內庄","LANE":" ","ALLEY":" ","HOUSE_NO":"５７號之８","E_COORD97":190809.66,"N_COORD97":2549910.6099999999,"ADDRESS":"內庄５７號之８","OBJECTID":136876},"geometry":{"x":190809.66000000108,"y":2549910.6099999994}},{"attributes":{"ID":136877,"DIS_CODE":0,"TOWNNAME":"後壁區","LI":"頂安里","LIN":" ","STREET":" ","SECT":" ","MAREA":"頂寮","LANE":" ","ALLEY":" ","HOUSE_NO":"１０５之４號","E_COORD97":183694.22,"N_COORD97":2581059.3700000001,"ADDRESS":"頂寮１０５之４號","OBJECTID":136877},"geometry":{"x":183694.22000000067,"y":2581059.3700000048}},{"attributes":{"ID":136878,"DIS_CODE":0,"TOWNNAME":"歸仁區","LI":"看東里","LIN":"6鄰","STREET":"成功路","SECT":"一段","MAREA":" ","LANE":" ","ALLEY":" ","HOUSE_NO":"１６９號","E_COORD97":178508.45000000001,"N_COORD97":2540156.4500000002,"ADDRESS":"成功路一段１６９號","OBJECTID":136878},"geometry":{"x":178508.45000000019,"y":2540156.4500000011}},{"attributes":{"ID":136879,"DIS_CODE":0,"TOWNNAME":"後壁區","LI":"頂安里","LIN":" ","STREET":" ","SECT":" ","MAREA":"頂寮","LANE":" ","ALLEY":" ","HOUSE_NO":"１０５之５６號","E_COORD97":183691.45999999999,"N_COORD97":2581100.02,"ADDRESS":"頂寮１０５之５６號","OBJECTID":136879},"geometry":{"x":183691.46000000089,"y":2581100.0199999996}},{"attributes":{"ID":136880,"DIS_CODE":0,"TOWNNAME":"仁德區","LI":"後壁里","LIN":"27鄰","STREET":"德洋一街","SECT":" ","MAREA":" ","LANE":"３０巷","ALLEY":"１９弄","HOUSE_NO":"１８號","E_COORD97":173203.16,"N_COORD97":2539154.8399999999,"ADDRESS":"德洋一街３０巷１９弄１８號","OBJECTID":136880},"geometry":{"x":173203.16000000108,"y":2539154.8400000017}},{"attributes":{"ID":136881,"DIS_CODE":0,"TOWNNAME":"安南區","LI":"溪頂里","LIN":"27鄰","STREET":"郡安路","SECT":"四段","MAREA":" ","LANE":"２７８巷","ALLEY":"１５弄","HOUSE_NO":"１７號","E_COORD97":168680.82000000001,"N_COORD97":2547613.98,"ADDRESS":"郡安路四段２７８巷１５弄１７號","OBJECTID":136881},"geometry":{"x":168680.8200000003,"y":2547613.9800000004}},{"attributes":{"ID":136882,"DIS_CODE":0,"TOWNNAME":"後壁區","LI":"頂安里","LIN":" ","STREET":" ","SECT":" ","MAREA":"頂寮","LANE":" ","ALLEY":" ","HOUSE_NO":"１０５之５７號","E_COORD97":183685.97,"N_COORD97":2581079.7000000002,"ADDRESS":"頂寮１０５之５７號","OBJECTID":136882},"geometry":{"x":183685.97000000067,"y":2581079.7000000011}},{"attributes":{"ID":136883,"DIS_CODE":0,"TOWNNAME":"後壁區","LI":"頂安里","LIN":" ","STREET":" ","SECT":" ","MAREA":"頂寮","LANE":" ","ALLEY":" ","HOUSE_NO":"１０５之６０號","E_COORD97":183682.78,"N_COORD97":2581098.7400000002,"ADDRESS":"頂寮１０５之６０號","OBJECTID":136883},"geometry":{"x":183682.78000000119,"y":2581098.7400000002}},{"attributes":{"ID":136884,"DIS_CODE":0,"TOWNNAME":"後壁區","LI":"頂安里","LIN":" ","STREET":" ","SECT":" ","MAREA":"頂寮","LANE":" ","ALLEY":" ","HOUSE_NO":"１０５之８９號","E_COORD97":183614.06,"N_COORD97":2581064.4100000001,"ADDRESS":"頂寮１０５之８９號","OBJECTID":136884},"geometry":{"x":183614.06000000052,"y":2581064.4100000001}},{"attributes":{"ID":136885,"DIS_CODE":0,"TOWNNAME":"安南區","LI":"溪頂里","LIN":"27鄰","STREET":"郡安路","SECT":"四段","MAREA":" ","LANE":"２７８巷","ALLEY":"１５弄","HOUSE_NO":"５號","E_COORD97":168610.10999999999,"N_COORD97":2547618,"ADDRESS":"郡安路四段２７８巷１５弄５號","OBJECTID":136885},"geometry":{"x":168610.11000000127,"y":2547618.0000000037}},{"attributes":{"ID":136886,"DIS_CODE":0,"TOWNNAME":"後壁區","LI":"頂安里","LIN":" ","STREET":" ","SECT":" ","MAREA":"頂寮","LANE":" ","ALLEY":" ","HOUSE_NO":"１０５之９６號","E_COORD97":183601.06,"N_COORD97":2581084.4500000002,"ADDRESS":"頂寮１０５之９６號","OBJECTID":136886},"geometry":{"x":183601.05999999959,"y":2581084.4500000011}},{"attributes":{"ID":136887,"DIS_CODE":0,"TOWNNAME":"後壁區","LI":"頂安里","LIN":" ","STREET":" ","SECT":" ","MAREA":"頂寮","LANE":" ","ALLEY":" ","HOUSE_NO":"１０５號","E_COORD97":183724.01999999999,"N_COORD97":2581199.98,"ADDRESS":"頂寮１０５號","OBJECTID":136887},"geometry":{"x":183724.02000000048,"y":2581199.9800000004}},{"attributes":{"ID":136888,"DIS_CODE":0,"TOWNNAME":"安南區","LI":"溪頂里","LIN":"27鄰","STREET":"郡安路","SECT":"四段","MAREA":" ","LANE":"２７８巷","ALLEY":"１５弄","HOUSE_NO":"７號","E_COORD97":168622.85000000001,"N_COORD97":2547617.1000000001,"ADDRESS":"郡安路四段２７８巷１５弄７號","OBJECTID":136888},"geometry":{"x":168622.85000000056,"y":2547617.1000000034}},{"attributes":{"ID":136889,"DIS_CODE":0,"TOWNNAME":"後壁區","LI":"頂安里","LIN":" ","STREET":" ","SECT":" ","MAREA":"頂寮","LANE":" ","ALLEY":" ","HOUSE_NO":"１１１號","E_COORD97":183904.32999999999,"N_COORD97":2581126.2799999998,"ADDRESS":"頂寮１１１號","OBJECTID":136889},"geometry":{"x":183904.33000000101,"y":2581126.2800000012}},{"attributes":{"ID":136890,"DIS_CODE":0,"TOWNNAME":"後壁區","LI":"頂安里","LIN":" ","STREET":" ","SECT":" ","MAREA":"頂寮","LANE":" ","ALLEY":" ","HOUSE_NO":"１２號","E_COORD97":184178.22,"N_COORD97":2581649.27,"ADDRESS":"頂寮１２號","OBJECTID":136890},"geometry":{"x":184178.21999999974,"y":2581649.2700000014}},{"attributes":{"ID":136891,"DIS_CODE":0,"TOWNNAME":"安南區","LI":"溪頂里","LIN":"27鄰","STREET":"郡安路","SECT":"四段","MAREA":" ","LANE":"２７８巷","ALLEY":"１５弄","HOUSE_NO":"９號","E_COORD97":168633.51000000001,"N_COORD97":2547616.3199999998,"ADDRESS":"郡安路四段２７８巷１５弄９號","OBJECTID":136891},"geometry":{"x":168633.51000000164,"y":2547616.320000004}},{"attributes":{"ID":136892,"DIS_CODE":0,"TOWNNAME":"永康區","LI":"西勢里","LIN":"27鄰","STREET":"廣興街","SECT":" ","MAREA":" ","LANE":"３８巷","ALLEY":"３４弄","HOUSE_NO":"２號","E_COORD97":176046.07999999999,"N_COORD97":2546427.5600000001,"ADDRESS":"廣興街３８巷３４弄２號","OBJECTID":136892},"geometry":{"x":176046.08000000007,"y":2546427.5600000005}},{"attributes":{"ID":136893,"DIS_CODE":0,"TOWNNAME":"後壁區","LI":"頂安里","LIN":" ","STREET":" ","SECT":" ","MAREA":"頂寮","LANE":" ","ALLEY":" ","HOUSE_NO":"１５３號","E_COORD97":183463.44,"N_COORD97":2581509.7000000002,"ADDRESS":"頂寮１５３號","OBJECTID":136893},"geometry":{"x":183463.44000000041,"y":2581509.700000003}},{"attributes":{"ID":136894,"DIS_CODE":0,"TOWNNAME":"後壁區","LI":"頂安里","LIN":" ","STREET":" ","SECT":" ","MAREA":"頂寮","LANE":" ","ALLEY":" ","HOUSE_NO":"１７之２號","E_COORD97":184126.54999999999,"N_COORD97":2581605.8900000001,"ADDRESS":"頂寮１７之２號","OBJECTID":136894},"geometry":{"x":184126.54999999981,"y":2581605.8900000025}},{"attributes":{"ID":136895,"DIS_CODE":0,"TOWNNAME":"後壁區","LI":"頂安里","LIN":" ","STREET":" ","SECT":" ","MAREA":"頂寮","LANE":" ","ALLEY":" ","HOUSE_NO":"１７之５號","E_COORD97":184102.79000000001,"N_COORD97":2581636.0299999998,"ADDRESS":"頂寮１７之５號","OBJECTID":136895},"geometry":{"x":184102.79000000097,"y":2581636.0299999975}},{"attributes":{"ID":136896,"DIS_CODE":0,"TOWNNAME":"後壁區","LI":"頂安里","LIN":" ","STREET":" ","SECT":" ","MAREA":"頂寮","LANE":" ","ALLEY":" ","HOUSE_NO":"１７號","E_COORD97":184137.04999999999,"N_COORD97":2581606.0099999998,"ADDRESS":"頂寮１７號","OBJECTID":136896},"geometry":{"x":184137.04999999981,"y":2581606.0099999998}},{"attributes":{"ID":136897,"DIS_CODE":0,"TOWNNAME":"後壁區","LI":"頂安里","LIN":" ","STREET":" ","SECT":" ","MAREA":"頂寮","LANE":" ","ALLEY":" ","HOUSE_NO":"２１之３號","E_COORD97":184040.92999999999,"N_COORD97":2581603.6400000001,"ADDRESS":"頂寮２１之３號","OBJECTID":136897},"geometry":{"x":184040.9299999997,"y":2581603.6400000025}},{"attributes":{"ID":136898,"DIS_CODE":0,"TOWNNAME":"永康區","LI":"西勢里","LIN":"27鄰","STREET":"廣興街","SECT":" ","MAREA":" ","LANE":"３８巷","ALLEY":"２６弄","HOUSE_NO":"１３號","E_COORD97":175997.75,"N_COORD97":2546433.7999999998,"ADDRESS":"廣興街３８巷２６弄１３號","OBJECTID":136898},"geometry":{"x":175997.75000000093,"y":2546433.8000000045}},{"attributes":{"ID":136899,"DIS_CODE":0,"TOWNNAME":"永康區","LI":"龍潭里","LIN":"27鄰","STREET":"中山北路","SECT":" ","MAREA":" ","LANE":"４６１巷","ALLEY":"１１弄","HOUSE_NO":"１５號","E_COORD97":175069.59,"N_COORD97":2547803.1200000001,"ADDRESS":"中山北路４６１巷１１弄１５號","OBJECTID":136899},"geometry":{"x":175069.59000000171,"y":2547803.120000001}},{"attributes":{"ID":136900,"DIS_CODE":0,"TOWNNAME":"永康區","LI":"龍潭里","LIN":"27鄰","STREET":"中山北路","SECT":" ","MAREA":" ","LANE":"４６１巷","ALLEY":"１１弄","HOUSE_NO":"１０號","E_COORD97":175068.53,"N_COORD97":2547823.6200000001,"ADDRESS":"中山北路４６１巷１１弄１０號","OBJECTID":136900},"geometry":{"x":175068.53000000026,"y":2547823.620000001}},{"attributes":{"ID":136901,"DIS_CODE":0,"TOWNNAME":"永康區","LI":"龍潭里","LIN":"27鄰","STREET":"中山北路","SECT":" ","MAREA":" ","LANE":"４６１巷","ALLEY":"２９弄","HOUSE_NO":"１３號","E_COORD97":175056.70999999999,"N_COORD97":2547847.0899999999,"ADDRESS":"中山北路４６１巷２９弄１３號","OBJECTID":136901},"geometry":{"x":175056.70999999996,"y":2547847.0899999999}},{"attributes":{"ID":136902,"DIS_CODE":0,"TOWNNAME":"永康區","LI":"龍潭里","LIN":"27鄰","STREET":"中山北路","SECT":" ","MAREA":" ","LANE":"４６１巷","ALLEY":"１１弄","HOUSE_NO":"１１號","E_COORD97":175079.45000000001,"N_COORD97":2547804.3700000001,"ADDRESS":"中山北路４６１巷１１弄１１號","OBJECTID":136902},"geometry":{"x":175079.45000000205,"y":2547804.3700000029}},{"attributes":{"ID":136903,"DIS_CODE":0,"TOWNNAME":"永康區","LI":"復興里","LIN":"27鄰","STREET":"復興路","SECT":" ","MAREA":" ","LANE":"２７７巷","ALLEY":"３４弄","HOUSE_NO":"１２號","E_COORD97":172290.73999999999,"N_COORD97":2544176.7799999998,"ADDRESS":"復興路２７７巷３４弄１２號","OBJECTID":136903},"geometry":{"x":172290.74000000115,"y":2544176.7799999993}},{"attributes":{"ID":136904,"DIS_CODE":0,"TOWNNAME":"永康區","LI":"復興里","LIN":"27鄰","STREET":"復興路","SECT":" ","MAREA":" ","LANE":"２７７巷","ALLEY":"２８弄","HOUSE_NO":"６號","E_COORD97":172309.70000000001,"N_COORD97":2544194.27,"ADDRESS":"復興路２７７巷２８弄６號","OBJECTID":136904},"geometry":{"x":172309.70000000112,"y":2544194.2699999996}},{"attributes":{"ID":136905,"DIS_CODE":0,"TOWNNAME":"永康區","LI":"復興里","LIN":"27鄰","STREET":"復興路","SECT":" ","MAREA":" ","LANE":"２７７巷","ALLEY":"２２弄","HOUSE_NO":"９號","E_COORD97":172296.01000000001,"N_COORD97":2544204.02,"ADDRESS":"復興路２７７巷２２弄９號","OBJECTID":136905},"geometry":{"x":172296.00999999978,"y":2544204.0200000014}},{"attributes":{"ID":136906,"DIS_CODE":0,"TOWNNAME":"永康區","LI":"龍潭里","LIN":"27鄰","STREET":"中山北路","SECT":" ","MAREA":" ","LANE":"４６１巷","ALLEY":"３０弄","HOUSE_NO":"６號","E_COORD97":175124.64999999999,"N_COORD97":2547860.4399999999,"ADDRESS":"中山北路４６１巷３０弄６號","OBJECTID":136906},"geometry":{"x":175124.6500000013,"y":2547860.4399999995}},{"attributes":{"ID":136907,"DIS_CODE":0,"TOWNNAME":"永康區","LI":"復興里","LIN":"27鄰","STREET":"復興路","SECT":" ","MAREA":" ","LANE":"２７７巷","ALLEY":"２８弄","HOUSE_NO":"１２號","E_COORD97":172290.35000000001,"N_COORD97":2544193.52,"ADDRESS":"復興路２７７巷２８弄１２號","OBJECTID":136907},"geometry":{"x":172290.34999999963,"y":2544193.5200000014}},{"attributes":{"ID":136908,"DIS_CODE":0,"TOWNNAME":"永康區","LI":"復興里","LIN":"27鄰","STREET":"復興路","SECT":" ","MAREA":" ","LANE":"２７７巷","ALLEY":"１６弄","HOUSE_NO":"２號","E_COORD97":172332.20999999999,"N_COORD97":2544231.2799999998,"ADDRESS":"復興路２７７巷１６弄２號","OBJECTID":136908},"geometry":{"x":172332.20999999996,"y":2544231.2799999993}},{"attributes":{"ID":136909,"DIS_CODE":0,"TOWNNAME":"永康區","LI":"二王里","LIN":"27鄰","STREET":"中山南路","SECT":" ","MAREA":" ","LANE":"５４４巷","ALLEY":"９２弄","HOUSE_NO":"４號","E_COORD97":172299.01999999999,"N_COORD97":2546243.8799999999,"ADDRESS":"中山南路５４４巷９２弄４號","OBJECTID":136909},"geometry":{"x":172299.01999999955,"y":2546243.879999999}},{"attributes":{"ID":136910,"DIS_CODE":0,"TOWNNAME":"永康區","LI":"二王里","LIN":"27鄰","STREET":"中山南路","SECT":" ","MAREA":" ","LANE":"５４４巷","ALLEY":"７０弄","HOUSE_NO":"４號","E_COORD97":172300.26999999999,"N_COORD97":2546309.6099999999,"ADDRESS":"中山南路５４４巷７０弄４號","OBJECTID":136910},"geometry":{"x":172300.27000000048,"y":2546309.6100000013}},{"attributes":{"ID":136911,"DIS_CODE":0,"TOWNNAME":"永康區","LI":"二王里","LIN":"27鄰","STREET":"中山南路","SECT":" ","MAREA":" ","LANE":"５４４巷","ALLEY":"９２弄","HOUSE_NO":"２２號","E_COORD97":172290.98000000001,"N_COORD97":2546264.6699999999,"ADDRESS":"中山南路５４４巷９２弄２２號","OBJECTID":136911},"geometry":{"x":172290.98000000138,"y":2546264.6700000018}},{"attributes":{"ID":136912,"DIS_CODE":0,"TOWNNAME":"永康區","LI":"二王里","LIN":"27鄰","STREET":"中山南路","SECT":" ","MAREA":" ","LANE":"５４４巷","ALLEY":"９２弄","HOUSE_NO":"３４號","E_COORD97":172263.89000000001,"N_COORD97":2546263.6699999999,"ADDRESS":"中山南路５４４巷９２弄３４號","OBJECTID":136912},"geometry":{"x":172263.8900000006,"y":2546263.6699999999}},{"attributes":{"ID":136913,"DIS_CODE":0,"TOWNNAME":"永康區","LI":"二王里","LIN":"27鄰","STREET":"中山南路","SECT":" ","MAREA":" ","LANE":"５４４巷","ALLEY":"７０弄","HOUSE_NO":"１號","E_COORD97":172303.70000000001,"N_COORD97":2546291.6699999999,"ADDRESS":"中山南路５４４巷７０弄１號","OBJECTID":136913},"geometry":{"x":172303.70000000019,"y":2546291.6700000018}},{"attributes":{"ID":136914,"DIS_CODE":0,"TOWNNAME":"永康區","LI":"二王里","LIN":"27鄰","STREET":"中山南路","SECT":" ","MAREA":" ","LANE":"５４４巷","ALLEY":"７０弄","HOUSE_NO":"７號","E_COORD97":172291.20000000001,"N_COORD97":2546291.4199999999,"ADDRESS":"中山南路５４４巷７０弄７號","OBJECTID":136914},"geometry":{"x":172291.20000000112,"y":2546291.4199999999}},{"attributes":{"ID":136915,"DIS_CODE":0,"TOWNNAME":"永康區","LI":"二王里","LIN":"27鄰","STREET":"中山南路","SECT":" ","MAREA":" ","LANE":"５４４巷","ALLEY":"７０弄","HOUSE_NO":"２號","E_COORD97":172305.53,"N_COORD97":2546310.1099999999,"ADDRESS":"中山南路５４４巷７０弄２號","OBJECTID":136915},"geometry":{"x":172305.53000000212,"y":2546310.1099999994}},{"attributes":{"ID":136916,"DIS_CODE":0,"TOWNNAME":"南區","LI":"府南里","LIN":"14鄰","STREET":"永成路","SECT":"三段","MAREA":" ","LANE":"３７２巷","ALLEY":"６９弄","HOUSE_NO":"２６號","E_COORD97":167677.74731899999,"N_COORD97":2541054.5252,"ADDRESS":"永成路三段３７２巷６９弄２６號","OBJECTID":136916},"geometry":{"x":167677.74731899984,"y":2541054.5252039991}},{"attributes":{"ID":136917,"DIS_CODE":0,"TOWNNAME":"永康區","LI":"二王里","LIN":"27鄰","STREET":"中山南路","SECT":" ","MAREA":" ","LANE":"５４４巷","ALLEY":"９２弄","HOUSE_NO":"２６號","E_COORD97":172282.64000000001,"N_COORD97":2546264.4199999999,"ADDRESS":"中山南路５４４巷９２弄２６號","OBJECTID":136917},"geometry":{"x":172282.6400000006,"y":2546264.4199999999}},{"attributes":{"ID":136918,"DIS_CODE":0,"TOWNNAME":"東區","LI":"泉南里","LIN":"27鄰","STREET":"府連路","SECT":" ","MAREA":" ","LANE":"２６０巷","ALLEY":"２弄","HOUSE_NO":"１９號之２","E_COORD97":169427.20000000001,"N_COORD97":2542782.8500000001,"ADDRESS":"府連路２６０巷２弄１９號之２","OBJECTID":136918},"geometry":{"x":169427.20000000019,"y":2542782.8499999996}},{"attributes":{"ID":136919,"DIS_CODE":0,"TOWNNAME":"北區","LI":"文元里","LIN":"6鄰","STREET":"文賢二街","SECT":" ","MAREA":" ","LANE":" ","ALLEY":" ","HOUSE_NO":"３８８號","E_COORD97":167698.91,"N_COORD97":2546020.02,"ADDRESS":"文賢二街３８８號","OBJECTID":136919},"geometry":{"x":167698.91000000108,"y":2546020.0199999996}},{"attributes":{"ID":136920,"DIS_CODE":0,"TOWNNAME":"北區","LI":"東興里","LIN":"6鄰","STREET":"小東路","SECT":" ","MAREA":" ","LANE":" ","ALLEY":" ","HOUSE_NO":"２６５號","E_COORD97":170934.29000000001,"N_COORD97":2544477.2999999998,"ADDRESS":"小東路２６５號","OBJECTID":136920},"geometry":{"x":170934.29000000097,"y":2544477.3000000045}},{"attributes":{"ID":136921,"DIS_CODE":0,"TOWNNAME":"北區","LI":"東興里","LIN":"6鄰","STREET":"小東路","SECT":" ","MAREA":" ","LANE":" ","ALLEY":" ","HOUSE_NO":"２３３號","E_COORD97":170861.09,"N_COORD97":2544498.6299999999,"ADDRESS":"小東路２３３號","OBJECTID":136921},"geometry":{"x":170861.09000000078,"y":2544498.629999999}},{"attributes":{"ID":136922,"DIS_CODE":0,"TOWNNAME":"北區","LI":"東興里","LIN":"6鄰","STREET":"小東路","SECT":" ","MAREA":" ","LANE":" ","ALLEY":" ","HOUSE_NO":"２３５號","E_COORD97":170898.29000000001,"N_COORD97":2544487.2200000002,"ADDRESS":"小東路２３５號","OBJECTID":136922},"geometry":{"x":170898.2900000019,"y":2544487.2200000007}},{"attributes":{"ID":136923,"DIS_CODE":0,"TOWNNAME":"新營區","LI":"角帶里","LIN":"6鄰","STREET":" ","SECT":" ","MAREA":"角帶圍","LANE":" ","ALLEY":" ","HOUSE_NO":"６７之８號","E_COORD97":174616.57000000001,"N_COORD97":2575675.5,"ADDRESS":"角帶圍６７之８號","OBJECTID":136923},"geometry":{"x":174616.57000000123,"y":2575675.5}},{"attributes":{"ID":136924,"DIS_CODE":0,"TOWNNAME":"新營區","LI":"五興里","LIN":"6鄰","STREET":" ","SECT":" ","MAREA":"五間厝","LANE":" ","ALLEY":" ","HOUSE_NO":"７３之１２號","E_COORD97":175912.62,"N_COORD97":2574770.8199999998,"ADDRESS":"五間厝７３之１２號","OBJECTID":136924},"geometry":{"x":175912.62000000104,"y":2574770.8200000022}},{"attributes":{"ID":136925,"DIS_CODE":0,"TOWNNAME":"新營區","LI":"護鎮里","LIN":"6鄰","STREET":" ","SECT":" ","MAREA":"後鎮","LANE":" ","ALLEY":" ","HOUSE_NO":"６２之５號","E_COORD97":179040.14000000001,"N_COORD97":2581194.2599999998,"ADDRESS":"後鎮６２之５號","OBJECTID":136925},"geometry":{"x":179040.13999999966,"y":2581194.2600000035}},{"attributes":{"ID":136926,"DIS_CODE":0,"TOWNNAME":"新營區","LI":"埤寮里","LIN":"6鄰","STREET":" ","SECT":" ","MAREA":"埤寮","LANE":" ","ALLEY":" ","HOUSE_NO":"２４號","E_COORD97":180386.89000000001,"N_COORD97":2580820.1299999999,"ADDRESS":"埤寮２４號","OBJECTID":136926},"geometry":{"x":180386.89000000153,"y":2580820.129999999}},{"attributes":{"ID":136927,"DIS_CODE":0,"TOWNNAME":"新營區","LI":"埤寮里","LIN":"6鄰","STREET":" ","SECT":" ","MAREA":"埤寮","LANE":" ","ALLEY":" ","HOUSE_NO":"２３之１１號","E_COORD97":180381.26999999999,"N_COORD97":2580784.7799999998,"ADDRESS":"埤寮２３之１１號","OBJECTID":136927},"geometry":{"x":180381.27000000048,"y":2580784.7800000012}},{"attributes":{"ID":136928,"DIS_CODE":0,"TOWNNAME":"新營區","LI":"太北里","LIN":"6鄰","STREET":" ","SECT":" ","MAREA":"太子宮","LANE":" ","ALLEY":" ","HOUSE_NO":"４５之７號","E_COORD97":175790.95000000001,"N_COORD97":2577130.3100000001,"ADDRESS":"太子宮４５之７號","OBJECTID":136928},"geometry":{"x":175790.95000000019,"y":2577130.3100000024}},{"attributes":{"ID":136929,"DIS_CODE":0,"TOWNNAME":"東區","LI":"富強里","LIN":"27鄰","STREET":"裕農路","SECT":" ","MAREA":" ","LANE":"２８８巷","ALLEY":"７０弄","HOUSE_NO":"１７號之１","E_COORD97":170954.32000000001,"N_COORD97":2542877.6699999999,"ADDRESS":"裕農路２８８巷７０弄１７號之１","OBJECTID":136929},"geometry":{"x":170954.32000000216,"y":2542877.6700000018}},{"attributes":{"ID":136930,"DIS_CODE":0,"TOWNNAME":"仁德區","LI":"仁愛里","LIN":"28鄰","STREET":"大同路","SECT":"三段","MAREA":" ","LANE":"４５６巷","ALLEY":" ","HOUSE_NO":"１１號","E_COORD97":169742.24522499999,"N_COORD97":2539280.8199999998,"ADDRESS":"大同路三段４５６巷１１號","OBJECTID":136930},"geometry":{"x":169742.2452250002,"y":2539280.8200000022}},{"attributes":{"ID":136931,"DIS_CODE":0,"TOWNNAME":"後壁區","LI":"頂安里","LIN":" ","STREET":" ","SECT":" ","MAREA":"頂寮","LANE":" ","ALLEY":" ","HOUSE_NO":"２２７號","E_COORD97":184087.70999999999,"N_COORD97":2582361.98,"ADDRESS":"頂寮２２７號","OBJECTID":136931},"geometry":{"x":184087.71000000089,"y":2582361.9800000004}},{"attributes":{"ID":136932,"DIS_CODE":0,"TOWNNAME":"後壁區","LI":"頂安里","LIN":" ","STREET":" ","SECT":" ","MAREA":"頂寮","LANE":" ","ALLEY":" ","HOUSE_NO":"２３５號","E_COORD97":184100.81,"N_COORD97":2582559.7999999998,"ADDRESS":"頂寮２３５號","OBJECTID":136932},"geometry":{"x":184100.80999999959,"y":2582559.8000000007}},{"attributes":{"ID":136933,"DIS_CODE":0,"TOWNNAME":"北區","LI":"東興里","LIN":"6鄰","STREET":"小東路","SECT":" ","MAREA":" ","LANE":" ","ALLEY":" ","HOUSE_NO":"２３７號","E_COORD97":170902.95999999999,"N_COORD97":2544485.96,"ADDRESS":"小東路２３７號","OBJECTID":136933},"geometry":{"x":170902.95999999996,"y":2544485.9600000009}},{"attributes":{"ID":136934,"DIS_CODE":0,"TOWNNAME":"後壁區","LI":"頂安里","LIN":" ","STREET":" ","SECT":" ","MAREA":"頂寮","LANE":" ","ALLEY":" ","HOUSE_NO":"２８７號","E_COORD97":183384.17999999999,"N_COORD97":2582509.7000000002,"ADDRESS":"頂寮２８７號","OBJECTID":136934},"geometry":{"x":183384.18000000063,"y":2582509.700000003}},{"attributes":{"ID":136935,"DIS_CODE":0,"TOWNNAME":"後壁區","LI":"頂安里","LIN":" ","STREET":" ","SECT":" ","MAREA":"頂寮","LANE":" ","ALLEY":" ","HOUSE_NO":"３００號","E_COORD97":183977.79000000001,"N_COORD97":2582737.6000000001,"ADDRESS":"頂寮３００號","OBJECTID":136935},"geometry":{"x":183977.79000000004,"y":2582737.5999999996}},{"attributes":{"ID":136936,"DIS_CODE":0,"TOWNNAME":"後壁區","LI":"頂安里","LIN":" ","STREET":" ","SECT":" ","MAREA":"頂寮","LANE":" ","ALLEY":" ","HOUSE_NO":"３４之２號","E_COORD97":184062.67999999999,"N_COORD97":2581540.2599999998,"ADDRESS":"頂寮３４之２號","OBJECTID":136936},"geometry":{"x":184062.6799999997,"y":2581540.2600000035}},{"attributes":{"ID":136937,"DIS_CODE":0,"TOWNNAME":"永康區","LI":"大灣里","LIN":"27鄰","STREET":"大灣六街","SECT":" ","MAREA":" ","LANE":"８０巷","ALLEY":"３６弄","HOUSE_NO":"２２號","E_COORD97":175296.63,"N_COORD97":2545249.1800000002,"ADDRESS":"大灣六街８０巷３６弄２２號","OBJECTID":136937},"geometry":{"x":175296.63000000175,"y":2545249.1799999997}},{"attributes":{"ID":136938,"DIS_CODE":0,"TOWNNAME":"新營區","LI":"民權里","LIN":"6鄰","STREET":"信義街","SECT":" ","MAREA":" ","LANE":" ","ALLEY":" ","HOUSE_NO":"７號","E_COORD97":179950.41,"N_COORD97":2578113.3599999999,"ADDRESS":"信義街７號","OBJECTID":136938},"geometry":{"x":179950.41000000108,"y":2578113.3599999994}},{"attributes":{"ID":136939,"DIS_CODE":0,"TOWNNAME":"東區","LI":"富強里","LIN":"27鄰","STREET":"東門路","SECT":"二段","MAREA":" ","LANE":"３０１巷","ALLEY":"８０弄","HOUSE_NO":"２號","E_COORD97":170922.35999999999,"N_COORD97":2542714.98,"ADDRESS":"東門路二段３０１巷８０弄２號","OBJECTID":136939},"geometry":{"x":170922.36000000127,"y":2542714.9800000004}},{"attributes":{"ID":136940,"DIS_CODE":0,"TOWNNAME":"東區","LI":"崇誨里","LIN":"27鄰","STREET":"裕豐街","SECT":" ","MAREA":" ","LANE":"１８５巷","ALLEY":"１２弄","HOUSE_NO":"１２號","E_COORD97":170754.17000000001,"N_COORD97":2543236.9700000002,"ADDRESS":"裕豐街１８５巷１２弄１２號","OBJECTID":136940},"geometry":{"x":170754.16999999993,"y":2543236.9700000007}},{"attributes":{"ID":136941,"DIS_CODE":0,"TOWNNAME":"東區","LI":"崇誨里","LIN":"27鄰","STREET":"裕豐街","SECT":" ","MAREA":" ","LANE":"１８５巷","ALLEY":"１２弄","HOUSE_NO":"１４號之１","E_COORD97":170747.09,"N_COORD97":2543241.8799999999,"ADDRESS":"裕豐街１８５巷１２弄１４號之１","OBJECTID":136941},"geometry":{"x":170747.09000000078,"y":2543241.8800000008}},{"attributes":{"ID":136942,"DIS_CODE":0,"TOWNNAME":"新營區","LI":"新南里","LIN":"6鄰","STREET":"秦漢街","SECT":" ","MAREA":" ","LANE":" ","ALLEY":" ","HOUSE_NO":"８０號","E_COORD97":178465.67000000001,"N_COORD97":2578794.8900000001,"ADDRESS":"秦漢街８０號","OBJECTID":136942},"geometry":{"x":178465.66999999993,"y":2578794.8900000025}},{"attributes":{"ID":136943,"DIS_CODE":0,"TOWNNAME":"東區","LI":"崇誨里","LIN":"27鄰","STREET":"裕豐街","SECT":" ","MAREA":" ","LANE":"１８５巷","ALLEY":"１２弄","HOUSE_NO":"１４號之３","E_COORD97":170747.09,"N_COORD97":2543254.5499999998,"ADDRESS":"裕豐街１８５巷１２弄１４號之３","OBJECTID":136943},"geometry":{"x":170747.09000000078,"y":2543254.5500000007}},{"attributes":{"ID":136944,"DIS_CODE":0,"TOWNNAME":"永康區","LI":"二王里","LIN":"27鄰","STREET":"中山南路","SECT":" ","MAREA":" ","LANE":"５４４巷","ALLEY":"６０弄","HOUSE_NO":"５號","E_COORD97":172311.41,"N_COORD97":2546344.3399999999,"ADDRESS":"中山南路５４４巷６０弄５號","OBJECTID":136944},"geometry":{"x":172311.41000000201,"y":2546344.3400000036}},{"attributes":{"ID":136945,"DIS_CODE":0,"TOWNNAME":"永康區","LI":"大灣里","LIN":"27鄰","STREET":"大灣六街","SECT":" ","MAREA":" ","LANE":"８０巷","ALLEY":"３６弄","HOUSE_NO":"９號","E_COORD97":175269.5,"N_COORD97":2545272.7000000002,"ADDRESS":"大灣六街８０巷３６弄９號","OBJECTID":136945},"geometry":{"x":175269.50000000093,"y":2545272.6999999993}},{"attributes":{"ID":136946,"DIS_CODE":0,"TOWNNAME":"新營區","LI":"民生里","LIN":"6鄰","STREET":"民生路","SECT":" ","MAREA":" ","LANE":" ","ALLEY":" ","HOUSE_NO":"３２之３號","E_COORD97":179373.95000000001,"N_COORD97":2578263.4500000002,"ADDRESS":"民生路３２之３號","OBJECTID":136946},"geometry":{"x":179373.95000000112,"y":2578263.450000003}},{"attributes":{"ID":136947,"DIS_CODE":0,"TOWNNAME":"新營區","LI":"民生里","LIN":"6鄰","STREET":"民生路","SECT":" ","MAREA":" ","LANE":" ","ALLEY":" ","HOUSE_NO":"３０號","E_COORD97":179367.23000000001,"N_COORD97":2578237.9500000002,"ADDRESS":"民生路３０號","OBJECTID":136947},"geometry":{"x":179367.23000000138,"y":2578237.9499999993}},{"attributes":{"ID":136948,"DIS_CODE":0,"TOWNNAME":"新營區","LI":"民生里","LIN":"6鄰","STREET":"民生路","SECT":" ","MAREA":" ","LANE":" ","ALLEY":" ","HOUSE_NO":"２２號","E_COORD97":179377.31,"N_COORD97":2578210.2200000002,"ADDRESS":"民生路２２號","OBJECTID":136948},"geometry":{"x":179377.31000000052,"y":2578210.2200000025}},{"attributes":{"ID":136949,"DIS_CODE":0,"TOWNNAME":"新營區","LI":"民生里","LIN":"6鄰","STREET":"三民路","SECT":" ","MAREA":" ","LANE":" ","ALLEY":" ","HOUSE_NO":"１６０號","E_COORD97":179342.31,"N_COORD97":2578346.6000000001,"ADDRESS":"三民路１６０號","OBJECTID":136949},"geometry":{"x":179342.30999999959,"y":2578346.5999999996}},{"attributes":{"ID":136950,"DIS_CODE":0,"TOWNNAME":"新營區","LI":"民生里","LIN":"6鄰","STREET":"民生路","SECT":" ","MAREA":" ","LANE":" ","ALLEY":" ","HOUSE_NO":"３０之２號","E_COORD97":179377.98000000001,"N_COORD97":2578251.25,"ADDRESS":"民生路３０之２號","OBJECTID":136950},"geometry":{"x":179377.98000000045,"y":2578251.25}},{"attributes":{"ID":136951,"DIS_CODE":0,"TOWNNAME":"安南區","LI":"\u25A0田里","LIN":"4鄰","STREET":"\u25A0田六街","SECT":" ","MAREA":" ","LANE":" ","ALLEY":" ","HOUSE_NO":"８６號","E_COORD97":162521.39000000001,"N_COORD97":2548187.5,"ADDRESS":"\u25A0田六街８６號","OBJECTID":136951},"geometry":{"x":162521.3900000006,"y":2548187.5000000037}},{"attributes":{"ID":136952,"DIS_CODE":0,"TOWNNAME":"安南區","LI":"\u25A0田里","LIN":"4鄰","STREET":"\u25A0田六街","SECT":" ","MAREA":" ","LANE":" ","ALLEY":" ","HOUSE_NO":"８８號","E_COORD97":162514.25,"N_COORD97":2548184.3300000001,"ADDRESS":"\u25A0田六街８８號","OBJECTID":136952},"geometry":{"x":162514.25000000093,"y":2548184.3300000001}},{"attributes":{"ID":136953,"DIS_CODE":0,"TOWNNAME":"新營區","LI":"埤寮里","LIN":"6鄰","STREET":" ","SECT":" ","MAREA":"埤寮","LANE":" ","ALLEY":" ","HOUSE_NO":"２５之１２號","E_COORD97":180356.98999999999,"N_COORD97":2580841.3799999999,"ADDRESS":"埤寮２５之１２號","OBJECTID":136953},"geometry":{"x":180356.99000000115,"y":2580841.3800000008}},{"attributes":{"ID":136954,"DIS_CODE":0,"TOWNNAME":"新營區","LI":"埤寮里","LIN":"6鄰","STREET":" ","SECT":" ","MAREA":"埤寮","LANE":" ","ALLEY":" ","HOUSE_NO":"２２號之４","E_COORD97":180276.64000000001,"N_COORD97":2580767.5499999998,"ADDRESS":"埤寮２２號之４","OBJECTID":136954},"geometry":{"x":180276.64000000153,"y":2580767.5500000026}},{"attributes":{"ID":136955,"DIS_CODE":0,"TOWNNAME":"新營區","LI":"埤寮里","LIN":"6鄰","STREET":" ","SECT":" ","MAREA":"埤寮","LANE":" ","ALLEY":" ","HOUSE_NO":"２２之１號","E_COORD97":180359.72,"N_COORD97":2580817,"ADDRESS":"埤寮２２之１號","OBJECTID":136955},"geometry":{"x":180359.72000000067,"y":2580817.0000000019}},{"attributes":{"ID":136956,"DIS_CODE":0,"TOWNNAME":"新營區","LI":"五興里","LIN":"6鄰","STREET":" ","SECT":" ","MAREA":"五間厝","LANE":" ","ALLEY":" ","HOUSE_NO":"７１號","E_COORD97":175846.98000000001,"N_COORD97":2574671.4100000001,"ADDRESS":"五間厝７１號","OBJECTID":136956},"geometry":{"x":175846.98000000045,"y":2574671.410000002}},{"attributes":{"ID":136957,"DIS_CODE":0,"TOWNNAME":"新營區","LI":"五興里","LIN":"6鄰","STREET":" ","SECT":" ","MAREA":"五間厝","LANE":" ","ALLEY":" ","HOUSE_NO":"７３之１１號","E_COORD97":175914.63,"N_COORD97":2574765.2799999998,"ADDRESS":"五間厝７３之１１號","OBJECTID":136957},"geometry":{"x":175914.62999999989,"y":2574765.2799999993}},{"attributes":{"ID":136958,"DIS_CODE":0,"TOWNNAME":"新營區","LI":"五興里","LIN":"6鄰","STREET":" ","SECT":" ","MAREA":"五間厝","LANE":" ","ALLEY":" ","HOUSE_NO":"７３之１０號","E_COORD97":175915.62,"N_COORD97":2574758.6299999999,"ADDRESS":"五間厝７３之１０號","OBJECTID":136958},"geometry":{"x":175915.62000000197,"y":2574758.629999999}},{"attributes":{"ID":136959,"DIS_CODE":0,"TOWNNAME":"新營區","LI":"新南里","LIN":"6鄰","STREET":"秦漢街","SECT":" ","MAREA":" ","LANE":" ","ALLEY":" ","HOUSE_NO":"８２號","E_COORD97":178469.78,"N_COORD97":2578798.1899999999,"ADDRESS":"秦漢街８２號","OBJECTID":136959},"geometry":{"x":178469.78000000119,"y":2578798.1900000013}},{"attributes":{"ID":136960,"DIS_CODE":0,"TOWNNAME":"永康區","LI":"中興里","LIN":"27鄰","STREET":"中興街","SECT":" ","MAREA":" ","LANE":"９１巷","ALLEY":"２７弄","HOUSE_NO":"１８號","E_COORD97":171936.98999999999,"N_COORD97":2545304.5,"ADDRESS":"中興街９１巷２７弄１８號","OBJECTID":136960},"geometry":{"x":171936.99000000115,"y":2545304.5}},{"attributes":{"ID":136961,"DIS_CODE":0,"TOWNNAME":"新營區","LI":"民權里","LIN":"6鄰","STREET":"中山路","SECT":" ","MAREA":" ","LANE":" ","ALLEY":" ","HOUSE_NO":"２１６號","E_COORD97":179948.59,"N_COORD97":2578054.6800000002,"ADDRESS":"中山路２１６號","OBJECTID":136961},"geometry":{"x":179948.59000000078,"y":2578054.6799999997}},{"attributes":{"ID":136962,"DIS_CODE":0,"TOWNNAME":"仁德區","LI":"後壁里","LIN":"27鄰","STREET":"德洋一街","SECT":" ","MAREA":" ","LANE":"３０巷","ALLEY":"１９弄","HOUSE_NO":"１５號","E_COORD97":173190.07000000001,"N_COORD97":2539145.5899999999,"ADDRESS":"德洋一街３０巷１９弄１５號","OBJECTID":136962},"geometry":{"x":173190.0700000003,"y":2539145.5900000017}},{"attributes":{"ID":136963,"DIS_CODE":0,"TOWNNAME":"永康區","LI":"中興里","LIN":"27鄰","STREET":"中興街","SECT":" ","MAREA":" ","LANE":"９１巷","ALLEY":"２７弄","HOUSE_NO":"１號之５","E_COORD97":171974.88,"N_COORD97":2545318.04,"ADDRESS":"中興街９１巷２７弄１號之５","OBJECTID":136963},"geometry":{"x":171974.87999999989,"y":2545318.0400000028}},{"attributes":{"ID":136964,"DIS_CODE":0,"TOWNNAME":"永康區","LI":"中興里","LIN":"27鄰","STREET":"中興街","SECT":" ","MAREA":" ","LANE":"９１巷","ALLEY":"２７弄","HOUSE_NO":"９號","E_COORD97":171990.60999999999,"N_COORD97":2545298.8700000001,"ADDRESS":"中興街９１巷２７弄９號","OBJECTID":136964},"geometry":{"x":171990.61000000127,"y":2545298.8700000029}},{"attributes":{"ID":136965,"DIS_CODE":0,"TOWNNAME":"新營區","LI":"五興里","LIN":"6鄰","STREET":" ","SECT":" ","MAREA":"五間厝","LANE":" ","ALLEY":" ","HOUSE_NO":"７３之６號","E_COORD97":175931.70999999999,"N_COORD97":2574747.4700000002,"ADDRESS":"五間厝７３之６號","OBJECTID":136965},"geometry":{"x":175931.71000000183,"y":2574747.4700000007}},{"attributes":{"ID":136966,"DIS_CODE":0,"TOWNNAME":"新營區","LI":"太北里","LIN":"6鄰","STREET":" ","SECT":" ","MAREA":"太子宮","LANE":" ","ALLEY":" ","HOUSE_NO":"４５號","E_COORD97":175772.47,"N_COORD97":2577150.2799999998,"ADDRESS":"太子宮４５號","OBJECTID":136966},"geometry":{"x":175772.47000000067,"y":2577150.2800000012}},{"attributes":{"ID":136967,"DIS_CODE":0,"TOWNNAME":"新營區","LI":"五興里","LIN":"6鄰","STREET":" ","SECT":" ","MAREA":"五間厝","LANE":" ","ALLEY":" ","HOUSE_NO":"６８號","E_COORD97":175829.04000000001,"N_COORD97":2574772.2799999998,"ADDRESS":"五間厝６８號","OBJECTID":136967},"geometry":{"x":175829.04000000004,"y":2574772.2800000031}},{"attributes":{"ID":136968,"DIS_CODE":0,"TOWNNAME":"永康區","LI":"大橋里","LIN":"27鄰","STREET":"大橋一街","SECT":" ","MAREA":" ","LANE":"２４７巷","ALLEY":"３４弄","HOUSE_NO":"２號","E_COORD97":171262.14999999999,"N_COORD97":2546754,"ADDRESS":"大橋一街２４７巷３４弄２號","OBJECTID":136968},"geometry":{"x":171262.15000000037,"y":2546754.0000000019}},{"attributes":{"ID":136969,"DIS_CODE":0,"TOWNNAME":"新營區","LI":"民生里","LIN":"6鄰","STREET":"民生路","SECT":" ","MAREA":" ","LANE":" ","ALLEY":" ","HOUSE_NO":"２４號","E_COORD97":179388.62,"N_COORD97":2578223.4500000002,"ADDRESS":"民生路２４號","OBJECTID":136969},"geometry":{"x":179388.62000000011,"y":2578223.4500000011}},{"attributes":{"ID":136970,"DIS_CODE":0,"TOWNNAME":"新營區","LI":"太南里","LIN":"6鄰","STREET":" ","SECT":" ","MAREA":"太子宮","LANE":" ","ALLEY":" ","HOUSE_NO":"２１１號","E_COORD97":176160.32999999999,"N_COORD97":2576931.2799999998,"ADDRESS":"太子宮２１１號","OBJECTID":136970},"geometry":{"x":176160.33000000101,"y":2576931.2799999993}},{"attributes":{"ID":136971,"DIS_CODE":0,"TOWNNAME":"新營區","LI":"護鎮里","LIN":"6鄰","STREET":" ","SECT":" ","MAREA":"後鎮","LANE":" ","ALLEY":" ","HOUSE_NO":"６２號","E_COORD97":179049.79000000001,"N_COORD97":2581169.79,"ADDRESS":"後鎮６２號","OBJECTID":136971},"geometry":{"x":179049.79000000004,"y":2581169.7900000028}},{"attributes":{"ID":136972,"DIS_CODE":0,"TOWNNAME":"永康區","LI":"崑山里","LIN":"27鄰","STREET":"大灣路","SECT":" ","MAREA":" ","LANE":"１１０２巷","ALLEY":"１７弄","HOUSE_NO":"８３號","E_COORD97":173393.67999999999,"N_COORD97":2544714.1899999999,"ADDRESS":"大灣路１１０２巷１７弄８３號","OBJECTID":136972},"geometry":{"x":173393.6799999997,"y":2544714.1900000032}},{"attributes":{"ID":136973,"DIS_CODE":0,"TOWNNAME":"東區","LI":"富強里","LIN":"27鄰","STREET":"裕農路","SECT":" ","MAREA":" ","LANE":"２８８巷","ALLEY":"７０弄","HOUSE_NO":"４７號","E_COORD97":170957.20999999999,"N_COORD97":2542789.0899999999,"ADDRESS":"裕農路２８８巷７０弄４７號","OBJECTID":136973},"geometry":{"x":170957.20999999996,"y":2542789.0899999999}},{"attributes":{"ID":136974,"DIS_CODE":0,"TOWNNAME":"東區","LI":"富強里","LIN":"27鄰","STREET":"裕農路","SECT":" ","MAREA":" ","LANE":"２８８巷","ALLEY":"７０弄","HOUSE_NO":"１號","E_COORD97":170950.64999999999,"N_COORD97":2542918.0299999998,"ADDRESS":"裕農路２８８巷７０弄１號","OBJECTID":136974},"geometry":{"x":170950.6500000013,"y":2542918.0300000031}},{"attributes":{"ID":136975,"DIS_CODE":0,"TOWNNAME":"楠西區","LI":"龜丹里","LIN":"6鄰","STREET":" ","SECT":" ","MAREA":"龜丹","LANE":" ","ALLEY":" ","HOUSE_NO":"７５號之２","E_COORD97":199486.51000000001,"N_COORD97":2559985.2999999998,"ADDRESS":"龜丹７５號之２","OBJECTID":136975},"geometry":{"x":199486.51000000071,"y":2559985.3000000026}},{"attributes":{"ID":136976,"DIS_CODE":0,"TOWNNAME":"楠西區","LI":"鹿田里","LIN":"6鄰","STREET":" ","SECT":" ","MAREA":"鹿陶洋","LANE":" ","ALLEY":" ","HOUSE_NO":"９４號","E_COORD97":197763.42000000001,"N_COORD97":2561672.25,"ADDRESS":"鹿陶洋９４號","OBJECTID":136976},"geometry":{"x":197763.42000000086,"y":2561672.25}},{"attributes":{"ID":136977,"DIS_CODE":0,"TOWNNAME":"楠西區","LI":"鹿田里","LIN":"6鄰","STREET":" ","SECT":" ","MAREA":"鹿陶洋","LANE":" ","ALLEY":" ","HOUSE_NO":"１０８號","E_COORD97":197690.76999999999,"N_COORD97":2561678.25,"ADDRESS":"鹿陶洋１０８號","OBJECTID":136977},"geometry":{"x":197690.77000000048,"y":2561678.25}},{"attributes":{"ID":136978,"DIS_CODE":0,"TOWNNAME":"楠西區","LI":"鹿田里","LIN":"6鄰","STREET":" ","SECT":" ","MAREA":"鹿陶洋","LANE":" ","ALLEY":" ","HOUSE_NO":"１００號之４","E_COORD97":197879.32999999999,"N_COORD97":2561848.2999999998,"ADDRESS":"鹿陶洋１００號之４","OBJECTID":136978},"geometry":{"x":197879.33000000101,"y":2561848.3000000007}},{"attributes":{"ID":136979,"DIS_CODE":0,"TOWNNAME":"楠西區","LI":"鹿田里","LIN":"6鄰","STREET":" ","SECT":" ","MAREA":"鹿陶洋","LANE":" ","ALLEY":" ","HOUSE_NO":"９７號之８","E_COORD97":197769.5,"N_COORD97":2561705.2999999998,"ADDRESS":"鹿陶洋９７號之８","OBJECTID":136979},"geometry":{"x":197769.50000000093,"y":2561705.3000000026}},{"attributes":{"ID":136980,"DIS_CODE":0,"TOWNNAME":"楠西區","LI":"密枝里","LIN":"6鄰","STREET":" ","SECT":" ","MAREA":"密枝","LANE":" ","ALLEY":" ","HOUSE_NO":"６３號之１","E_COORD97":199076.79999999999,"N_COORD97":2566742.2999999998,"ADDRESS":"密枝６３號之１","OBJECTID":136980},"geometry":{"x":199076.79999999981,"y":2566742.3000000026}},{"attributes":{"ID":136981,"DIS_CODE":0,"TOWNNAME":"楠西區","LI":"鹿田里","LIN":"6鄰","STREET":" ","SECT":" ","MAREA":"鹿陶洋","LANE":" ","ALLEY":" ","HOUSE_NO":"９２號","E_COORD97":197779.62,"N_COORD97":2561657.25,"ADDRESS":"鹿陶洋９２號","OBJECTID":136981},"geometry":{"x":197779.62000000011,"y":2561657.2500000019}},{"attributes":{"ID":136982,"DIS_CODE":0,"TOWNNAME":"楠西區","LI":"鹿田里","LIN":"6鄰","STREET":" ","SECT":" ","MAREA":"鹿陶洋","LANE":" ","ALLEY":" ","HOUSE_NO":"９７號之１３","E_COORD97":197795.39999999999,"N_COORD97":2561708.2999999998,"ADDRESS":"鹿陶洋９７號之１３","OBJECTID":136982},"geometry":{"x":197795.40000000224,"y":2561708.3000000026}},{"attributes":{"ID":136983,"DIS_CODE":0,"TOWNNAME":"楠西區","LI":"照興里","LIN":"6鄰","STREET":" ","SECT":" ","MAREA":"興北","LANE":" ","ALLEY":" ","HOUSE_NO":"７７號之８","E_COORD97":196841.14999999999,"N_COORD97":2566678.2999999998,"ADDRESS":"興北７７號之８","OBJECTID":136983},"geometry":{"x":196841.15000000224,"y":2566678.3000000026}},{"attributes":{"ID":136984,"DIS_CODE":0,"TOWNNAME":"楠西區","LI":"照興里","LIN":"6鄰","STREET":" ","SECT":" ","MAREA":"興北","LANE":" ","ALLEY":" ","HOUSE_NO":"７８號之２","E_COORD97":197088.44,"N_COORD97":2566912.2999999998,"ADDRESS":"興北７８號之２","OBJECTID":136984},"geometry":{"x":197088.44000000134,"y":2566912.3000000026}},{"attributes":{"ID":136985,"DIS_CODE":0,"TOWNNAME":"楠西區","LI":"密枝里","LIN":"6鄰","STREET":" ","SECT":" ","MAREA":"密枝","LANE":" ","ALLEY":" ","HOUSE_NO":"６３號之１２","E_COORD97":198750.98999999999,"N_COORD97":2566454.2999999998,"ADDRESS":"密枝６３號之１２","OBJECTID":136985},"geometry":{"x":198750.99000000115,"y":2566454.3000000026}},{"attributes":{"ID":136986,"DIS_CODE":0,"TOWNNAME":"楠西區","LI":"鹿田里","LIN":"6鄰","STREET":" ","SECT":" ","MAREA":"鹿陶洋","LANE":" ","ALLEY":" ","HOUSE_NO":"９７號之２","E_COORD97":197792.79000000001,"N_COORD97":2561759.2999999998,"ADDRESS":"鹿陶洋９７號之２","OBJECTID":136986},"geometry":{"x":197792.79000000097,"y":2561759.3000000026}},{"attributes":{"ID":136987,"DIS_CODE":0,"TOWNNAME":"楠西區","LI":"照興里","LIN":"6鄰","STREET":" ","SECT":" ","MAREA":"興北","LANE":" ","ALLEY":" ","HOUSE_NO":"７８號之１","E_COORD97":196840.70000000001,"N_COORD97":2566409.2999999998,"ADDRESS":"興北７８號之１","OBJECTID":136987},"geometry":{"x":196840.70000000112,"y":2566409.3000000007}},{"attributes":{"ID":136988,"DIS_CODE":0,"TOWNNAME":"學甲區","LI":"秀昌里","LIN":"6鄰","STREET":" ","SECT":" ","MAREA":"一秀","LANE":" ","ALLEY":" ","HOUSE_NO":"６１號","E_COORD97":165759.78,"N_COORD97":2570932.6099999999,"ADDRESS":"一秀６１號","OBJECTID":136988},"geometry":{"x":165759.78000000026,"y":2570932.6100000013}},{"attributes":{"ID":136989,"DIS_CODE":0,"TOWNNAME":"學甲區","LI":"秀昌里","LIN":"6鄰","STREET":" ","SECT":" ","MAREA":"一秀","LANE":" ","ALLEY":" ","HOUSE_NO":"６２號之１","E_COORD97":165746.76999999999,"N_COORD97":2570916.8999999999,"ADDRESS":"一秀６２號之１","OBJECTID":136989},"geometry":{"x":165746.77000000048,"y":2570916.9000000004}},{"attributes":{"ID":136990,"DIS_CODE":0,"TOWNNAME":"學甲區","LI":"秀昌里","LIN":"6鄰","STREET":" ","SECT":" ","MAREA":"一秀","LANE":" ","ALLEY":" ","HOUSE_NO":"６２號之２","E_COORD97":165741.57000000001,"N_COORD97":2570917.9900000002,"ADDRESS":"一秀６２號之２","OBJECTID":136990},"geometry":{"x":165741.57000000216,"y":2570917.9900000021}},{"attributes":{"ID":136991,"DIS_CODE":0,"TOWNNAME":"學甲區","LI":"秀昌里","LIN":"6鄰","STREET":" ","SECT":" ","MAREA":"一秀","LANE":" ","ALLEY":" ","HOUSE_NO":"６２號","E_COORD97":165728.19,"N_COORD97":2570931.75,"ADDRESS":"一秀６２號","OBJECTID":136991},"geometry":{"x":165728.19000000041,"y":2570931.7499999981}},{"attributes":{"ID":136992,"DIS_CODE":0,"TOWNNAME":"學甲區","LI":"秀昌里","LIN":"6鄰","STREET":" ","SECT":" ","MAREA":"一秀","LANE":" ","ALLEY":" ","HOUSE_NO":"６３號之１","E_COORD97":165783.54000000001,"N_COORD97":2570928.9900000002,"ADDRESS":"一秀６３號之１","OBJECTID":136992},"geometry":{"x":165783.54000000004,"y":2570928.9900000002}},{"attributes":{"ID":136993,"DIS_CODE":0,"TOWNNAME":"學甲區","LI":"秀昌里","LIN":"6鄰","STREET":" ","SECT":" ","MAREA":"一秀","LANE":" ","ALLEY":" ","HOUSE_NO":"６３號","E_COORD97":165770.22,"N_COORD97":2570932.7000000002,"ADDRESS":"一秀６３號","OBJECTID":136993},"geometry":{"x":165770.21999999974,"y":2570932.7000000011}},{"attributes":{"ID":136994,"DIS_CODE":0,"TOWNNAME":"學甲區","LI":"秀昌里","LIN":"6鄰","STREET":" ","SECT":" ","MAREA":"一秀","LANE":" ","ALLEY":" ","HOUSE_NO":"６７號","E_COORD97":165763.23000000001,"N_COORD97":2570885.25,"ADDRESS":"一秀６７號","OBJECTID":136994},"geometry":{"x":165763.23000000138,"y":2570885.2500000019}},{"attributes":{"ID":136995,"DIS_CODE":0,"TOWNNAME":"學甲區","LI":"秀昌里","LIN":"6鄰","STREET":" ","SECT":" ","MAREA":"一秀","LANE":" ","ALLEY":" ","HOUSE_NO":"６８號","E_COORD97":165739.57000000001,"N_COORD97":2570883.0800000001,"ADDRESS":"一秀６８號","OBJECTID":136995},"geometry":{"x":165739.5700000003,"y":2570883.0800000019}},{"attributes":{"ID":136996,"DIS_CODE":0,"TOWNNAME":"東區","LI":"富強里","LIN":"27鄰","STREET":"裕農路","SECT":" ","MAREA":" ","LANE":"２８８巷","ALLEY":"７０弄","HOUSE_NO":"４５號","E_COORD97":170958.34,"N_COORD97":2542798.6800000002,"ADDRESS":"裕農路２８８巷７０弄４５號","OBJECTID":136996},"geometry":{"x":170958.33999999985,"y":2542798.6800000034}},{"attributes":{"ID":136997,"DIS_CODE":0,"TOWNNAME":"東山區","LI":"嶺南里","LIN":"6鄰","STREET":" ","SECT":" ","MAREA":"宅子內","LANE":" ","ALLEY":" ","HOUSE_NO":"４號之１","E_COORD97":192626.78,"N_COORD97":2572310.04,"ADDRESS":"宅子內４號之１","OBJECTID":136997},"geometry":{"x":192626.78000000026,"y":2572310.040000001}},{"attributes":{"ID":136998,"DIS_CODE":0,"TOWNNAME":"東區","LI":"富強里","LIN":"27鄰","STREET":"裕農路","SECT":" ","MAREA":" ","LANE":"２８８巷","ALLEY":"７０弄","HOUSE_NO":"５１號","E_COORD97":170959.17999999999,"N_COORD97":2542774.4399999999,"ADDRESS":"裕農路２８８巷７０弄５１號","OBJECTID":136998},"geometry":{"x":170959.1799999997,"y":2542774.4400000013}},{"attributes":{"ID":136999,"DIS_CODE":0,"TOWNNAME":"新化區","LI":"羊林里","LIN":"6鄰","STREET":" ","SECT":" ","MAREA":"\u25A0拔林","LANE":" ","ALLEY":" ","HOUSE_NO":"４８１號之２","E_COORD97":183500.17999999999,"N_COORD97":2551691.2599999998,"ADDRESS":"\u25A0拔林４８１號之２","OBJECTID":136999},"geometry":{"x":183500.1799999997,"y":2551691.2600000035}},{"attributes":{"ID":137000,"DIS_CODE":0,"TOWNNAME":"新化區","LI":"全興里","LIN":"6鄰","STREET":" ","SECT":" ","MAREA":"竹子\u25A0","LANE":" ","ALLEY":" ","HOUSE_NO":"７８號之２","E_COORD97":177580.34,"N_COORD97":2547753.2599999998,"ADDRESS":"竹子\u25A0７８號之２","OBJECTID":137000},"geometry":{"x":177580.34000000078,"y":2547753.2600000016}}]}