{"displayFieldName":"TOWNNAME","fieldAliases":{"ID":"ID","DIS_CODE":"DIS_CODE","TOWNNAME":"TOWNNAME","LI":"LI","LIN":"LIN","STREET":"STREET","SECT":"SECT","MAREA":"MAREA","LANE":"LANE","ALLEY":"ALLEY","HOUSE_NO":"HOUSE_NO","E_COORD97":"E_COORD97","N_COORD97":"N_COORD97","ADDRESS":"ADDRESS","OBJECTID":"OBJECTID"},"geometryType":"esriGeometryPoint","spatialReference":{"wkid":102443,"latestWkid":3826},"fields":[{"name":"ID","type":"esriFieldTypeDouble","alias":"ID"},{"name":"DIS_CODE","type":"esriFieldTypeInteger","alias":"DIS_CODE"},{"name":"TOWNNAME","type":"esriFieldTypeString","alias":"TOWNNAME","length":8},{"name":"LI","type":"esriFieldTypeString","alias":"LI","length":8},{"name":"LIN","type":"esriFieldTypeString","alias":"LIN","length":12},{"name":"STREET","type":"esriFieldTypeString","alias":"STREET","length":20},{"name":"SECT","type":"esriFieldTypeString","alias":"SECT","length":8},{"name":"MAREA","type":"esriFieldTypeString","alias":"MAREA","length":12},{"name":"LANE","type":"esriFieldTypeString","alias":"LANE","length":10},{"name":"ALLEY","type":"esriFieldTypeString","alias":"ALLEY","length":10},{"name":"HOUSE_NO","type":"esriFieldTypeString","alias":"HOUSE_NO","length":20},{"name":"E_COORD97","type":"esriFieldTypeDouble","alias":"E_COORD97"},{"name":"N_COORD97","type":"esriFieldTypeDouble","alias":"N_COORD97"},{"name":"ADDRESS","type":"esriFieldTypeString","alias":"ADDRESS","length":50},{"name":"OBJECTID","type":"esriFieldTypeOID","alias":"OBJECTID"}],"features":[{"attributes":{"ID":51801,"DIS_CODE":0,"TOWNNAME":"七股區","LI":"竹港里","LIN":"1鄰","STREET":" ","SECT":" ","MAREA":"竹港","LANE":" ","ALLEY":" ","HOUSE_NO":"１號之６","E_COORD97":164793.70000000001,"N_COORD97":2557923.9300000002,"ADDRESS":"竹港１號之６","OBJECTID":51801},"geometry":{"x":164793.70000000112,"y":2557923.9299999997}},{"attributes":{"ID":51802,"DIS_CODE":0,"TOWNNAME":"七股區","LI":"竹港里","LIN":"1鄰","STREET":" ","SECT":" ","MAREA":"竹港","LANE":" ","ALLEY":" ","HOUSE_NO":"１號之９","E_COORD97":164782.53,"N_COORD97":2558029.4399999999,"ADDRESS":"竹港１號之９","OBJECTID":51802},"geometry":{"x":164782.53000000119,"y":2558029.4399999995}},{"attributes":{"ID":51803,"DIS_CODE":0,"TOWNNAME":"麻豆區","LI":"寮\u25A0里","LIN":"1鄰","STREET":" ","SECT":" ","MAREA":"寮子\u25A0","LANE":" ","ALLEY":" ","HOUSE_NO":"５號之２１","E_COORD97":176361.69,"N_COORD97":2565629.4199999999,"ADDRESS":"寮子\u25A0５號之２１","OBJECTID":51803},"geometry":{"x":176361.69000000134,"y":2565629.4200000018}},{"attributes":{"ID":51804,"DIS_CODE":0,"TOWNNAME":"麻豆區","LI":"寮\u25A0里","LIN":"1鄰","STREET":" ","SECT":" ","MAREA":"寮子\u25A0","LANE":" ","ALLEY":" ","HOUSE_NO":"５號之５","E_COORD97":176317.75,"N_COORD97":2565596.6299999999,"ADDRESS":"寮子\u25A0５號之５","OBJECTID":51804},"geometry":{"x":176317.75,"y":2565596.6300000008}},{"attributes":{"ID":51805,"DIS_CODE":0,"TOWNNAME":"麻豆區","LI":"寮\u25A0里","LIN":"1鄰","STREET":" ","SECT":" ","MAREA":"寮子\u25A0","LANE":" ","ALLEY":" ","HOUSE_NO":"５號之６","E_COORD97":176210.17999999999,"N_COORD97":2565615.1299999999,"ADDRESS":"寮子\u25A0５號之６","OBJECTID":51805},"geometry":{"x":176210.18000000063,"y":2565615.129999999}},{"attributes":{"ID":51806,"DIS_CODE":0,"TOWNNAME":"麻豆區","LI":"寮\u25A0里","LIN":"1鄰","STREET":" ","SECT":" ","MAREA":"寮子\u25A0","LANE":" ","ALLEY":" ","HOUSE_NO":"５號之８","E_COORD97":176487.60000000001,"N_COORD97":2565647.5099999998,"ADDRESS":"寮子\u25A0５號之８","OBJECTID":51806},"geometry":{"x":176487.59999999963,"y":2565647.5099999979}},{"attributes":{"ID":51807,"DIS_CODE":0,"TOWNNAME":"麻豆區","LI":"寮\u25A0里","LIN":"1鄰","STREET":" ","SECT":" ","MAREA":"寮子\u25A0","LANE":" ","ALLEY":" ","HOUSE_NO":"６號","E_COORD97":176500.85999999999,"N_COORD97":2565554.96,"ADDRESS":"寮子\u25A0６號","OBJECTID":51807},"geometry":{"x":176500.86000000127,"y":2565554.9600000028}},{"attributes":{"ID":51808,"DIS_CODE":0,"TOWNNAME":"麻豆區","LI":"寮\u25A0里","LIN":"1鄰","STREET":" ","SECT":" ","MAREA":"寮子\u25A0","LANE":" ","ALLEY":" ","HOUSE_NO":"７號之１","E_COORD97":176531.76000000001,"N_COORD97":2565563.73,"ADDRESS":"寮子\u25A0７號之１","OBJECTID":51808},"geometry":{"x":176531.76000000071,"y":2565563.7300000023}},{"attributes":{"ID":51809,"DIS_CODE":0,"TOWNNAME":"麻豆區","LI":"寮\u25A0里","LIN":"1鄰","STREET":" ","SECT":" ","MAREA":"寮子\u25A0","LANE":" ","ALLEY":" ","HOUSE_NO":"７號","E_COORD97":176520.54000000001,"N_COORD97":2565560.79,"ADDRESS":"寮子\u25A0７號","OBJECTID":51809},"geometry":{"x":176520.54000000004,"y":2565560.790000001}},{"attributes":{"ID":51810,"DIS_CODE":0,"TOWNNAME":"麻豆區","LI":"寮\u25A0里","LIN":"1鄰","STREET":" ","SECT":" ","MAREA":"寮子\u25A0","LANE":" ","ALLEY":" ","HOUSE_NO":"８號","E_COORD97":176549.54999999999,"N_COORD97":2565571.48,"ADDRESS":"寮子\u25A0８號","OBJECTID":51810},"geometry":{"x":176549.54999999981,"y":2565571.4800000023}},{"attributes":{"ID":51811,"DIS_CODE":0,"TOWNNAME":"麻豆區","LI":"寮\u25A0里","LIN":"1鄰","STREET":" ","SECT":" ","MAREA":"寮子\u25A0","LANE":" ","ALLEY":" ","HOUSE_NO":"９號之１００","E_COORD97":176773.57999999999,"N_COORD97":2565994.71,"ADDRESS":"寮子\u25A0９號之１００","OBJECTID":51811},"geometry":{"x":176773.58000000194,"y":2565994.7100000028}},{"attributes":{"ID":51812,"DIS_CODE":0,"TOWNNAME":"麻豆區","LI":"寮\u25A0里","LIN":"1鄰","STREET":" ","SECT":" ","MAREA":"寮子\u25A0","LANE":" ","ALLEY":" ","HOUSE_NO":"９號之１０１","E_COORD97":176777.85000000001,"N_COORD97":2565995.6499999999,"ADDRESS":"寮子\u25A0９號之１０１","OBJECTID":51812},"geometry":{"x":176777.84999999963,"y":2565995.6500000004}},{"attributes":{"ID":51813,"DIS_CODE":0,"TOWNNAME":"麻豆區","LI":"寮\u25A0里","LIN":"1鄰","STREET":" ","SECT":" ","MAREA":"寮子\u25A0","LANE":" ","ALLEY":" ","HOUSE_NO":"９號之１０２","E_COORD97":176781.94,"N_COORD97":2565996.1499999999,"ADDRESS":"寮子\u25A0９號之１０２","OBJECTID":51813},"geometry":{"x":176781.94000000134,"y":2565996.1500000004}},{"attributes":{"ID":51814,"DIS_CODE":0,"TOWNNAME":"麻豆區","LI":"寮\u25A0里","LIN":"1鄰","STREET":" ","SECT":" ","MAREA":"寮子\u25A0","LANE":" ","ALLEY":" ","HOUSE_NO":"９號之１０３","E_COORD97":176786.20000000001,"N_COORD97":2565996.7200000002,"ADDRESS":"寮子\u25A0９號之１０３","OBJECTID":51814},"geometry":{"x":176786.20000000019,"y":2565996.7200000044}},{"attributes":{"ID":51815,"DIS_CODE":0,"TOWNNAME":"左鎮區","LI":"榮和里","LIN":"1鄰","STREET":" ","SECT":" ","MAREA":"菜寮","LANE":" ","ALLEY":" ","HOUSE_NO":"１號","E_COORD97":186719.79000000001,"N_COORD97":2551636.25,"ADDRESS":"菜寮１號","OBJECTID":51815},"geometry":{"x":186719.79000000097,"y":2551636.25}},{"attributes":{"ID":51816,"DIS_CODE":0,"TOWNNAME":"麻豆區","LI":"寮\u25A0里","LIN":"1鄰","STREET":" ","SECT":" ","MAREA":"寮子\u25A0","LANE":" ","ALLEY":" ","HOUSE_NO":"９號之１０４","E_COORD97":176789.95000000001,"N_COORD97":2565997.3700000001,"ADDRESS":"寮子\u25A0９號之１０４","OBJECTID":51816},"geometry":{"x":176789.95000000112,"y":2565997.3700000029}},{"attributes":{"ID":51817,"DIS_CODE":0,"TOWNNAME":"麻豆區","LI":"寮\u25A0里","LIN":"1鄰","STREET":" ","SECT":" ","MAREA":"寮子\u25A0","LANE":" ","ALLEY":" ","HOUSE_NO":"９號之１０５","E_COORD97":176793.95000000001,"N_COORD97":2565997.8399999999,"ADDRESS":"寮子\u25A0９號之１０５","OBJECTID":51817},"geometry":{"x":176793.95000000112,"y":2565997.8399999999}},{"attributes":{"ID":51818,"DIS_CODE":0,"TOWNNAME":"麻豆區","LI":"寮\u25A0里","LIN":"1鄰","STREET":" ","SECT":" ","MAREA":"寮子\u25A0","LANE":" ","ALLEY":" ","HOUSE_NO":"９號之１０７","E_COORD97":176803.22,"N_COORD97":2565999.1499999999,"ADDRESS":"寮子\u25A0９號之１０７","OBJECTID":51818},"geometry":{"x":176803.22000000067,"y":2565999.1500000004}},{"attributes":{"ID":51819,"DIS_CODE":0,"TOWNNAME":"麻豆區","LI":"寮\u25A0里","LIN":"1鄰","STREET":" ","SECT":" ","MAREA":"寮子\u25A0","LANE":" ","ALLEY":" ","HOUSE_NO":"９號之１０８","E_COORD97":176807.29000000001,"N_COORD97":2565999.7200000002,"ADDRESS":"寮子\u25A0９號之１０８","OBJECTID":51819},"geometry":{"x":176807.29000000004,"y":2565999.7199999988}},{"attributes":{"ID":51820,"DIS_CODE":0,"TOWNNAME":"麻豆區","LI":"寮\u25A0里","LIN":"1鄰","STREET":" ","SECT":" ","MAREA":"寮子\u25A0","LANE":" ","ALLEY":" ","HOUSE_NO":"９號之１０９","E_COORD97":176811.59,"N_COORD97":2566000.2000000002,"ADDRESS":"寮子\u25A0９號之１０９","OBJECTID":51820},"geometry":{"x":176811.58999999985,"y":2566000.2000000011}},{"attributes":{"ID":51821,"DIS_CODE":0,"TOWNNAME":"麻豆區","LI":"寮\u25A0里","LIN":"1鄰","STREET":" ","SECT":" ","MAREA":"寮子\u25A0","LANE":" ","ALLEY":" ","HOUSE_NO":"９號之１０","E_COORD97":176515.42000000001,"N_COORD97":2566528.2200000002,"ADDRESS":"寮子\u25A0９號之１０","OBJECTID":51821},"geometry":{"x":176515.42000000086,"y":2566528.2200000007}},{"attributes":{"ID":51822,"DIS_CODE":0,"TOWNNAME":"麻豆區","LI":"寮\u25A0里","LIN":"1鄰","STREET":" ","SECT":" ","MAREA":"寮子\u25A0","LANE":" ","ALLEY":" ","HOUSE_NO":"９號之１１０","E_COORD97":176815.82999999999,"N_COORD97":2566000.6800000002,"ADDRESS":"寮子\u25A0９號之１１０","OBJECTID":51822},"geometry":{"x":176815.82999999914,"y":2566000.6800000016}},{"attributes":{"ID":51823,"DIS_CODE":0,"TOWNNAME":"麻豆區","LI":"寮\u25A0里","LIN":"1鄰","STREET":" ","SECT":" ","MAREA":"寮子\u25A0","LANE":" ","ALLEY":" ","HOUSE_NO":"９號之１１１","E_COORD97":176819.97,"N_COORD97":2566001.52,"ADDRESS":"寮子\u25A0９號之１１１","OBJECTID":51823},"geometry":{"x":176819.97000000067,"y":2566001.5200000014}},{"attributes":{"ID":51824,"DIS_CODE":0,"TOWNNAME":"麻豆區","LI":"寮\u25A0里","LIN":"1鄰","STREET":" ","SECT":" ","MAREA":"寮子\u25A0","LANE":" ","ALLEY":" ","HOUSE_NO":"９號之１１２","E_COORD97":176824.25,"N_COORD97":2566001.8999999999,"ADDRESS":"寮子\u25A0９號之１１２","OBJECTID":51824},"geometry":{"x":176824.25,"y":2566001.9000000041}},{"attributes":{"ID":51825,"DIS_CODE":0,"TOWNNAME":"麻豆區","LI":"寮\u25A0里","LIN":"1鄰","STREET":" ","SECT":" ","MAREA":"寮子\u25A0","LANE":" ","ALLEY":" ","HOUSE_NO":"９號之１１３","E_COORD97":176828.32999999999,"N_COORD97":2566002.5699999998,"ADDRESS":"寮子\u25A0９號之１１３","OBJECTID":51825},"geometry":{"x":176828.33000000101,"y":2566002.5700000003}},{"attributes":{"ID":51826,"DIS_CODE":0,"TOWNNAME":"麻豆區","LI":"寮\u25A0里","LIN":"1鄰","STREET":" ","SECT":" ","MAREA":"寮子\u25A0","LANE":" ","ALLEY":" ","HOUSE_NO":"９號之１１４","E_COORD97":176834.56,"N_COORD97":2566009.6400000001,"ADDRESS":"寮子\u25A0９號之１１４","OBJECTID":51826},"geometry":{"x":176834.56000000052,"y":2566009.6400000006}},{"attributes":{"ID":51827,"DIS_CODE":0,"TOWNNAME":"麻豆區","LI":"寮\u25A0里","LIN":"1鄰","STREET":" ","SECT":" ","MAREA":"寮子\u25A0","LANE":" ","ALLEY":" ","HOUSE_NO":"９號之１１５","E_COORD97":176841.56,"N_COORD97":2566010.1600000001,"ADDRESS":"寮子\u25A0９號之１１５","OBJECTID":51827},"geometry":{"x":176841.56000000052,"y":2566010.1600000039}},{"attributes":{"ID":51828,"DIS_CODE":0,"TOWNNAME":"麻豆區","LI":"寮\u25A0里","LIN":"1鄰","STREET":" ","SECT":" ","MAREA":"寮子\u25A0","LANE":" ","ALLEY":" ","HOUSE_NO":"９號之１１６","E_COORD97":176847.60000000001,"N_COORD97":2566010.79,"ADDRESS":"寮子\u25A0９號之１１６","OBJECTID":51828},"geometry":{"x":176847.60000000149,"y":2566010.7899999991}},{"attributes":{"ID":51829,"DIS_CODE":0,"TOWNNAME":"麻豆區","LI":"寮\u25A0里","LIN":"1鄰","STREET":" ","SECT":" ","MAREA":"寮子\u25A0","LANE":" ","ALLEY":" ","HOUSE_NO":"９號之１１７","E_COORD97":176854.67000000001,"N_COORD97":2566011.77,"ADDRESS":"寮子\u25A0９號之１１７","OBJECTID":51829},"geometry":{"x":176854.67000000086,"y":2566011.7699999977}},{"attributes":{"ID":51830,"DIS_CODE":0,"TOWNNAME":"麻豆區","LI":"寮\u25A0里","LIN":"1鄰","STREET":" ","SECT":" ","MAREA":"寮子\u25A0","LANE":" ","ALLEY":" ","HOUSE_NO":"９號之１１８","E_COORD97":176861.23000000001,"N_COORD97":2566012.9100000001,"ADDRESS":"寮子\u25A0９號之１１８","OBJECTID":51830},"geometry":{"x":176861.23000000138,"y":2566012.910000002}},{"attributes":{"ID":51831,"DIS_CODE":0,"TOWNNAME":"麻豆區","LI":"寮\u25A0里","LIN":"1鄰","STREET":" ","SECT":" ","MAREA":"寮子\u25A0","LANE":" ","ALLEY":" ","HOUSE_NO":"９號之１１９","E_COORD97":176867.84,"N_COORD97":2566014.1200000001,"ADDRESS":"寮子\u25A0９號之１１９","OBJECTID":51831},"geometry":{"x":176867.83999999985,"y":2566014.120000001}},{"attributes":{"ID":51832,"DIS_CODE":0,"TOWNNAME":"麻豆區","LI":"寮\u25A0里","LIN":"1鄰","STREET":" ","SECT":" ","MAREA":"寮子\u25A0","LANE":" ","ALLEY":" ","HOUSE_NO":"９號之１１","E_COORD97":176505.79000000001,"N_COORD97":2566527.5299999998,"ADDRESS":"寮子\u25A0９號之１１","OBJECTID":51832},"geometry":{"x":176505.79000000004,"y":2566527.5299999993}},{"attributes":{"ID":51833,"DIS_CODE":0,"TOWNNAME":"麻豆區","LI":"寮\u25A0里","LIN":"1鄰","STREET":" ","SECT":" ","MAREA":"寮子\u25A0","LANE":" ","ALLEY":" ","HOUSE_NO":"９號之１２０","E_COORD97":176875.17999999999,"N_COORD97":2566015.2000000002,"ADDRESS":"寮子\u25A0９號之１２０","OBJECTID":51833},"geometry":{"x":176875.1799999997,"y":2566015.1999999993}},{"attributes":{"ID":51834,"DIS_CODE":0,"TOWNNAME":"麻豆區","LI":"寮\u25A0里","LIN":"1鄰","STREET":" ","SECT":" ","MAREA":"寮子\u25A0","LANE":" ","ALLEY":" ","HOUSE_NO":"９號之１２１","E_COORD97":176880.79000000001,"N_COORD97":2566015.9700000002,"ADDRESS":"寮子\u25A0９號之１２１","OBJECTID":51834},"geometry":{"x":176880.79000000097,"y":2566015.9700000025}},{"attributes":{"ID":51835,"DIS_CODE":0,"TOWNNAME":"麻豆區","LI":"寮\u25A0里","LIN":"1鄰","STREET":" ","SECT":" ","MAREA":"寮子\u25A0","LANE":" ","ALLEY":" ","HOUSE_NO":"９號之１２２","E_COORD97":176887.75,"N_COORD97":2566016.5,"ADDRESS":"寮子\u25A0９號之１２２","OBJECTID":51835},"geometry":{"x":176887.75000000093,"y":2566016.5}},{"attributes":{"ID":51836,"DIS_CODE":0,"TOWNNAME":"麻豆區","LI":"寮\u25A0里","LIN":"1鄰","STREET":" ","SECT":" ","MAREA":"寮子\u25A0","LANE":" ","ALLEY":" ","HOUSE_NO":"９號之１２３","E_COORD97":176894.17999999999,"N_COORD97":2566017.4700000002,"ADDRESS":"寮子\u25A0９號之１２３","OBJECTID":51836},"geometry":{"x":176894.1799999997,"y":2566017.4700000007}},{"attributes":{"ID":51837,"DIS_CODE":0,"TOWNNAME":"新市區","LI":"港墘里","LIN":" ","STREET":"民族路","SECT":" ","MAREA":" ","LANE":" ","ALLEY":" ","HOUSE_NO":"１４０號","E_COORD97":178148.66,"N_COORD97":2553478.79,"ADDRESS":"民族路１４０號","OBJECTID":51837},"geometry":{"x":178148.66000000108,"y":2553478.790000001}},{"attributes":{"ID":51838,"DIS_CODE":0,"TOWNNAME":"新市區","LI":"新和里","LIN":" ","STREET":"華興街","SECT":" ","MAREA":" ","LANE":" ","ALLEY":" ","HOUSE_NO":"１號","E_COORD97":177824.45000000001,"N_COORD97":2553000.25,"ADDRESS":"華興街１號","OBJECTID":51838},"geometry":{"x":177824.45000000112,"y":2553000.2500000037}},{"attributes":{"ID":51839,"DIS_CODE":0,"TOWNNAME":"安南區","LI":"城東里","LIN":"15鄰","STREET":"城北路","SECT":" ","MAREA":" ","LANE":"２３４巷","ALLEY":"５１弄","HOUSE_NO":"３１號","E_COORD97":161110.04999999999,"N_COORD97":2551923.1499999999,"ADDRESS":"城北路２３４巷５１弄３１號","OBJECTID":51839},"geometry":{"x":161110.05000000168,"y":2551923.1500000041}},{"attributes":{"ID":51840,"DIS_CODE":0,"TOWNNAME":"安南區","LI":"城東里","LIN":"15鄰","STREET":"城北路","SECT":" ","MAREA":" ","LANE":"２３４巷","ALLEY":"５１弄","HOUSE_NO":"３１號之４","E_COORD97":161091.95000000001,"N_COORD97":2551923.0600000001,"ADDRESS":"城北路２３４巷５１弄３１號之４","OBJECTID":51840},"geometry":{"x":161091.95000000019,"y":2551923.0600000005}},{"attributes":{"ID":51841,"DIS_CODE":0,"TOWNNAME":"安南區","LI":"城東里","LIN":"15鄰","STREET":"城北路","SECT":" ","MAREA":" ","LANE":"２３４巷","ALLEY":"５１弄","HOUSE_NO":"３１號之７","E_COORD97":161078.72,"N_COORD97":2551922.6200000001,"ADDRESS":"城北路２３４巷５１弄３１號之７","OBJECTID":51841},"geometry":{"x":161078.72000000067,"y":2551922.620000001}},{"attributes":{"ID":51842,"DIS_CODE":0,"TOWNNAME":"安南區","LI":"城東里","LIN":"15鄰","STREET":"城北路","SECT":" ","MAREA":" ","LANE":"２３４巷","ALLEY":"５１弄","HOUSE_NO":"３３號之１","E_COORD97":161113.88,"N_COORD97":2551942.6299999999,"ADDRESS":"城北路２３４巷５１弄３３號之１","OBJECTID":51842},"geometry":{"x":161113.87999999989,"y":2551942.6300000008}},{"attributes":{"ID":51843,"DIS_CODE":0,"TOWNNAME":"安南區","LI":"城東里","LIN":"15鄰","STREET":"城北路","SECT":" ","MAREA":" ","LANE":"２３４巷","ALLEY":"５１弄","HOUSE_NO":"３３號之４","E_COORD97":161100.17000000001,"N_COORD97":2551941.73,"ADDRESS":"城北路２３４巷５１弄３３號之４","OBJECTID":51843},"geometry":{"x":161100.16999999993,"y":2551941.7300000004}},{"attributes":{"ID":51844,"DIS_CODE":0,"TOWNNAME":"安南區","LI":"城東里","LIN":"15鄰","STREET":"城北路","SECT":" ","MAREA":" ","LANE":"２３４巷","ALLEY":"５１弄","HOUSE_NO":"３３號之６","E_COORD97":161091.51999999999,"N_COORD97":2551941.1699999999,"ADDRESS":"城北路２３４巷５１弄３３號之６","OBJECTID":51844},"geometry":{"x":161091.52000000048,"y":2551941.1700000018}},{"attributes":{"ID":51845,"DIS_CODE":0,"TOWNNAME":"安南區","LI":"城東里","LIN":"15鄰","STREET":"城北路","SECT":" ","MAREA":" ","LANE":"２３４巷","ALLEY":"５１弄","HOUSE_NO":"３３號之７","E_COORD97":161087.01999999999,"N_COORD97":2551940.9500000002,"ADDRESS":"城北路２３４巷５１弄３３號之７","OBJECTID":51845},"geometry":{"x":161087.01999999955,"y":2551940.9500000011}},{"attributes":{"ID":51846,"DIS_CODE":0,"TOWNNAME":"安南區","LI":"城東里","LIN":"15鄰","STREET":"城北路","SECT":" ","MAREA":" ","LANE":"２３４巷","ALLEY":"５１弄","HOUSE_NO":"３３號之８","E_COORD97":161082.42000000001,"N_COORD97":2551940.6099999999,"ADDRESS":"城北路２３４巷５１弄３３號之８","OBJECTID":51846},"geometry":{"x":161082.42000000086,"y":2551940.6100000013}},{"attributes":{"ID":51847,"DIS_CODE":0,"TOWNNAME":"安南區","LI":"城東里","LIN":"15鄰","STREET":"城北路","SECT":" ","MAREA":" ","LANE":"２３４巷","ALLEY":"５１弄","HOUSE_NO":"３３號之９","E_COORD97":161078.14999999999,"N_COORD97":2551940.5,"ADDRESS":"城北路２３４巷５１弄３３號之９","OBJECTID":51847},"geometry":{"x":161078.1500000013,"y":2551940.5}},{"attributes":{"ID":51848,"DIS_CODE":0,"TOWNNAME":"安南區","LI":"城東里","LIN":"15鄰","STREET":"城北路","SECT":" ","MAREA":" ","LANE":"２３４巷","ALLEY":"６５弄","HOUSE_NO":"１６號","E_COORD97":161165.76000000001,"N_COORD97":2551882.77,"ADDRESS":"城北路２３４巷６５弄１６號","OBJECTID":51848},"geometry":{"x":161165.75999999978,"y":2551882.7699999996}},{"attributes":{"ID":51849,"DIS_CODE":0,"TOWNNAME":"安南區","LI":"城東里","LIN":"15鄰","STREET":"城北路","SECT":" ","MAREA":" ","LANE":"２３４巷","ALLEY":"６５弄","HOUSE_NO":"９號","E_COORD97":161149.85999999999,"N_COORD97":2551888.8999999999,"ADDRESS":"城北路２３４巷６５弄９號","OBJECTID":51849},"geometry":{"x":161149.86000000127,"y":2551888.9000000022}},{"attributes":{"ID":51850,"DIS_CODE":0,"TOWNNAME":"安南區","LI":"城東里","LIN":"15鄰","STREET":"城北路","SECT":" ","MAREA":" ","LANE":"２３４巷","ALLEY":"５１弄","HOUSE_NO":"８號","E_COORD97":161126.70999999999,"N_COORD97":2551883.6099999999,"ADDRESS":"城北路２３４巷５１弄８號","OBJECTID":51850},"geometry":{"x":161126.71000000089,"y":2551883.6099999994}},{"attributes":{"ID":51851,"DIS_CODE":0,"TOWNNAME":"安南區","LI":"城東里","LIN":"15鄰","STREET":"城北路","SECT":" ","MAREA":" ","LANE":"２３４巷","ALLEY":"５１弄","HOUSE_NO":"１０號","E_COORD97":161126.42999999999,"N_COORD97":2551889.04,"ADDRESS":"城北路２３４巷５１弄１０號","OBJECTID":51851},"geometry":{"x":161126.43000000063,"y":2551889.040000001}},{"attributes":{"ID":51852,"DIS_CODE":0,"TOWNNAME":"安南區","LI":"城東里","LIN":"15鄰","STREET":"城北路","SECT":" ","MAREA":" ","LANE":"２３４巷","ALLEY":"５１弄","HOUSE_NO":"３１號之２","E_COORD97":161101.16,"N_COORD97":2551923.5499999998,"ADDRESS":"城北路２３４巷５１弄３１號之２","OBJECTID":51852},"geometry":{"x":161101.16000000201,"y":2551923.5500000007}},{"attributes":{"ID":51853,"DIS_CODE":0,"TOWNNAME":"安南區","LI":"淵東里","LIN":"15鄰","STREET":"本原街","SECT":"三段","MAREA":" ","LANE":"１６９巷","ALLEY":"２６弄","HOUSE_NO":"１１號","E_COORD97":165496.79999999999,"N_COORD97":2550223.8799999999,"ADDRESS":"本原街三段１６９巷２６弄１１號","OBJECTID":51853},"geometry":{"x":165496.79999999981,"y":2550223.879999999}},{"attributes":{"ID":51854,"DIS_CODE":0,"TOWNNAME":"安南區","LI":"淵東里","LIN":"15鄰","STREET":"本原街","SECT":"三段","MAREA":" ","LANE":"１６９巷","ALLEY":"２６弄","HOUSE_NO":"５號","E_COORD97":165509.32999999999,"N_COORD97":2550228.1499999999,"ADDRESS":"本原街三段１６９巷２６弄５號","OBJECTID":51854},"geometry":{"x":165509.33000000101,"y":2550228.1500000041}},{"attributes":{"ID":51855,"DIS_CODE":0,"TOWNNAME":"安南區","LI":"淵東里","LIN":"15鄰","STREET":"本原街","SECT":"三段","MAREA":" ","LANE":"１６９巷","ALLEY":"２６弄","HOUSE_NO":"６號","E_COORD97":165504.44,"N_COORD97":2550251.3500000001,"ADDRESS":"本原街三段１６９巷２６弄６號","OBJECTID":51855},"geometry":{"x":165504.44000000041,"y":2550251.3499999996}},{"attributes":{"ID":51856,"DIS_CODE":0,"TOWNNAME":"安南區","LI":"淵東里","LIN":"15鄰","STREET":"本原街","SECT":"三段","MAREA":" ","LANE":"１６９巷","ALLEY":"２６弄","HOUSE_NO":"７號","E_COORD97":165505.35999999999,"N_COORD97":2550226.3199999998,"ADDRESS":"本原街三段１６９巷２６弄７號","OBJECTID":51856},"geometry":{"x":165505.36000000034,"y":2550226.3200000003}},{"attributes":{"ID":51857,"DIS_CODE":0,"TOWNNAME":"安南區","LI":"新順里","LIN":"17鄰","STREET":"慶安路","SECT":" ","MAREA":" ","LANE":" ","ALLEY":" ","HOUSE_NO":"１６６號","E_COORD97":169460.78,"N_COORD97":2549308.04,"ADDRESS":"慶安路１６６號","OBJECTID":51857},"geometry":{"x":169460.78000000026,"y":2549308.0399999991}},{"attributes":{"ID":51858,"DIS_CODE":0,"TOWNNAME":"南區","LI":"建南里","LIN":"17鄰","STREET":"明興路","SECT":" ","MAREA":" ","LANE":" ","ALLEY":" ","HOUSE_NO":"３９號","E_COORD97":166800.41,"N_COORD97":2540097.8199999998,"ADDRESS":"明興路３９號","OBJECTID":51858},"geometry":{"x":166800.41000000201,"y":2540097.8200000022}},{"attributes":{"ID":51859,"DIS_CODE":0,"TOWNNAME":"新市區","LI":"港墘里","LIN":"23鄰","STREET":"南昌街","SECT":" ","MAREA":" ","LANE":" ","ALLEY":" ","HOUSE_NO":"１３之５號","E_COORD97":177989.70999999999,"N_COORD97":2552839.5499999998,"ADDRESS":"南昌街１３之５號","OBJECTID":51859},"geometry":{"x":177989.71000000183,"y":2552839.5500000045}},{"attributes":{"ID":51860,"DIS_CODE":0,"TOWNNAME":"東區","LI":"大福里","LIN":"17鄰","STREET":"立德六路","SECT":" ","MAREA":" ","LANE":" ","ALLEY":" ","HOUSE_NO":"７號","E_COORD97":169516.34,"N_COORD97":2541872.6699999999,"ADDRESS":"立德六路７號","OBJECTID":51860},"geometry":{"x":169516.34000000078,"y":2541872.6699999999}},{"attributes":{"ID":51861,"DIS_CODE":0,"TOWNNAME":"善化區","LI":"光文里","LIN":"17鄰","STREET":"和平路","SECT":" ","MAREA":" ","LANE":" ","ALLEY":" ","HOUSE_NO":"１４０號","E_COORD97":178126.37,"N_COORD97":2558956.5,"ADDRESS":"和平路１４０號","OBJECTID":51861},"geometry":{"x":178126.37000000104,"y":2558956.5000000019}},{"attributes":{"ID":51862,"DIS_CODE":0,"TOWNNAME":"新市區","LI":"新和里","LIN":"23鄰","STREET":"中正路","SECT":" ","MAREA":" ","LANE":" ","ALLEY":" ","HOUSE_NO":"１４３之６號","E_COORD97":177396.56,"N_COORD97":2552781.5499999998,"ADDRESS":"中正路１４３之６號","OBJECTID":51862},"geometry":{"x":177396.55999999959,"y":2552781.5500000007}},{"attributes":{"ID":51863,"DIS_CODE":0,"TOWNNAME":"新市區","LI":"新和里","LIN":" ","STREET":"光華街","SECT":" ","MAREA":" ","LANE":" ","ALLEY":" ","HOUSE_NO":"１３１之１號","E_COORD97":177839.95000000001,"N_COORD97":2552955.0499999998,"ADDRESS":"光華街１３１之１號","OBJECTID":51863},"geometry":{"x":177839.95000000112,"y":2552955.0500000045}},{"attributes":{"ID":51864,"DIS_CODE":0,"TOWNNAME":"新市區","LI":"新和里","LIN":" ","STREET":"民權路","SECT":" ","MAREA":" ","LANE":" ","ALLEY":" ","HOUSE_NO":"９０號","E_COORD97":177145.39999999999,"N_COORD97":2553074.79,"ADDRESS":"民權路９０號","OBJECTID":51864},"geometry":{"x":177145.4000000013,"y":2553074.790000001}},{"attributes":{"ID":51865,"DIS_CODE":0,"TOWNNAME":"麻豆區","LI":"寮\u25A0里","LIN":"1鄰","STREET":" ","SECT":" ","MAREA":"寮子\u25A0","LANE":" ","ALLEY":" ","HOUSE_NO":"９號之１２４","E_COORD97":176829.76000000001,"N_COORD97":2566026.7799999998,"ADDRESS":"寮子\u25A0９號之１２４","OBJECTID":51865},"geometry":{"x":176829.76000000164,"y":2566026.7800000012}},{"attributes":{"ID":51866,"DIS_CODE":0,"TOWNNAME":"後壁區","LI":"嘉田里","LIN":"1鄰","STREET":" ","SECT":" ","MAREA":"上茄苳","LANE":" ","ALLEY":" ","HOUSE_NO":"６號","E_COORD97":186800.64999999999,"N_COORD97":2587542.54,"ADDRESS":"上茄苳６號","OBJECTID":51866},"geometry":{"x":186800.6500000013,"y":2587542.540000001}},{"attributes":{"ID":51867,"DIS_CODE":0,"TOWNNAME":"麻豆區","LI":"寮\u25A0里","LIN":"1鄰","STREET":" ","SECT":" ","MAREA":"寮子\u25A0","LANE":" ","ALLEY":" ","HOUSE_NO":"９號之１２５","E_COORD97":176835.92000000001,"N_COORD97":2566027.9700000002,"ADDRESS":"寮子\u25A0９號之１２５","OBJECTID":51867},"geometry":{"x":176835.92000000086,"y":2566027.9700000007}},{"attributes":{"ID":51868,"DIS_CODE":0,"TOWNNAME":"麻豆區","LI":"寮\u25A0里","LIN":"1鄰","STREET":" ","SECT":" ","MAREA":"寮子\u25A0","LANE":" ","ALLEY":" ","HOUSE_NO":"９號之１２６","E_COORD97":176842.79000000001,"N_COORD97":2566028.7999999998,"ADDRESS":"寮子\u25A0９號之１２６","OBJECTID":51868},"geometry":{"x":176842.79000000004,"y":2566028.8000000007}},{"attributes":{"ID":51869,"DIS_CODE":0,"TOWNNAME":"安南區","LI":"淵東里","LIN":"15鄰","STREET":"本原街","SECT":"三段","MAREA":" ","LANE":"１６９巷","ALLEY":"２６弄","HOUSE_NO":"９號","E_COORD97":165500.47,"N_COORD97":2550225.1000000001,"ADDRESS":"本原街三段１６９巷２６弄９號","OBJECTID":51869},"geometry":{"x":165500.46999999974,"y":2550225.1000000015}},{"attributes":{"ID":51870,"DIS_CODE":0,"TOWNNAME":"安南區","LI":"頂安里","LIN":"15鄰","STREET":"長溪路","SECT":"一段","MAREA":" ","LANE":"３４１巷","ALLEY":"６弄","HOUSE_NO":"３０號","E_COORD97":168625.28,"N_COORD97":2548832.3300000001,"ADDRESS":"長溪路一段３４１巷６弄３０號","OBJECTID":51870},"geometry":{"x":168625.28000000212,"y":2548832.3300000001}},{"attributes":{"ID":51871,"DIS_CODE":0,"TOWNNAME":"安南區","LI":"頂安里","LIN":"15鄰","STREET":"長溪路","SECT":"一段","MAREA":" ","LANE":"３４１巷","ALLEY":"６弄","HOUSE_NO":"２６號","E_COORD97":168637.48999999999,"N_COORD97":2548826.9100000001,"ADDRESS":"長溪路一段３４１巷６弄２６號","OBJECTID":51871},"geometry":{"x":168637.49000000209,"y":2548826.910000002}},{"attributes":{"ID":51872,"DIS_CODE":0,"TOWNNAME":"安南區","LI":"頂安里","LIN":"15鄰","STREET":"長溪路","SECT":"一段","MAREA":" ","LANE":"３４１巷","ALLEY":"６弄","HOUSE_NO":"２８號","E_COORD97":168629.69,"N_COORD97":2548830.9700000002,"ADDRESS":"長溪路一段３４１巷６弄２８號","OBJECTID":51872},"geometry":{"x":168629.69000000134,"y":2548830.9700000025}},{"attributes":{"ID":51873,"DIS_CODE":0,"TOWNNAME":"新營區","LI":"南紙里","LIN":"5鄰","STREET":"南紙街","SECT":" ","MAREA":" ","LANE":"２９巷","ALLEY":"６弄","HOUSE_NO":"７號","E_COORD97":177868.79000000001,"N_COORD97":2577684.7799999998,"ADDRESS":"南紙街２９巷６弄７號","OBJECTID":51873},"geometry":{"x":177868.78999999911,"y":2577684.7800000031}},{"attributes":{"ID":51874,"DIS_CODE":0,"TOWNNAME":"新營區","LI":"南紙里","LIN":"5鄰","STREET":"南紙街","SECT":" ","MAREA":" ","LANE":"２９巷","ALLEY":"６弄","HOUSE_NO":"６號","E_COORD97":177863.60000000001,"N_COORD97":2577671.52,"ADDRESS":"南紙街２９巷６弄６號","OBJECTID":51874},"geometry":{"x":177863.60000000056,"y":2577671.5199999996}},{"attributes":{"ID":51875,"DIS_CODE":0,"TOWNNAME":"安南區","LI":"城東里","LIN":"15鄰","STREET":"城北路","SECT":" ","MAREA":" ","LANE":"２３４巷","ALLEY":"６５弄","HOUSE_NO":"９號之１","E_COORD97":161145.95000000001,"N_COORD97":2551879.8500000001,"ADDRESS":"城北路２３４巷６５弄９號之１","OBJECTID":51875},"geometry":{"x":161145.95000000019,"y":2551879.8499999996}},{"attributes":{"ID":51876,"DIS_CODE":0,"TOWNNAME":"仁德區","LI":"上崙里","LIN":"15鄰","STREET":"德崙路","SECT":" ","MAREA":" ","LANE":"３７０巷","ALLEY":"２１弄","HOUSE_NO":"１３號","E_COORD97":174086.81,"N_COORD97":2538026.77,"ADDRESS":"德崙路３７０巷２１弄１３號","OBJECTID":51876},"geometry":{"x":174086.81000000052,"y":2538026.7699999996}},{"attributes":{"ID":51877,"DIS_CODE":0,"TOWNNAME":"仁德區","LI":"上崙里","LIN":"15鄰","STREET":"德崙路","SECT":" ","MAREA":" ","LANE":"３７０巷","ALLEY":"２１弄","HOUSE_NO":"１１號","E_COORD97":174081.51000000001,"N_COORD97":2538025.52,"ADDRESS":"德崙路３７０巷２１弄１１號","OBJECTID":51877},"geometry":{"x":174081.50999999978,"y":2538025.5199999996}},{"attributes":{"ID":51878,"DIS_CODE":0,"TOWNNAME":"仁德區","LI":"上崙里","LIN":"15鄰","STREET":"德崙路","SECT":" ","MAREA":" ","LANE":"３７０巷","ALLEY":"２１弄","HOUSE_NO":"１１之２號","E_COORD97":174070.76000000001,"N_COORD97":2538042.7999999998,"ADDRESS":"德崙路３７０巷２１弄１１之２號","OBJECTID":51878},"geometry":{"x":174070.75999999978,"y":2538042.8000000026}},{"attributes":{"ID":51879,"DIS_CODE":0,"TOWNNAME":"仁德區","LI":"上崙里","LIN":"15鄰","STREET":"德崙路","SECT":" ","MAREA":" ","LANE":"３７０巷","ALLEY":"２１弄","HOUSE_NO":"７號","E_COORD97":174068.87,"N_COORD97":2538023.02,"ADDRESS":"德崙路３７０巷２１弄７號","OBJECTID":51879},"geometry":{"x":174068.87000000011,"y":2538023.0200000014}},{"attributes":{"ID":51880,"DIS_CODE":0,"TOWNNAME":"仁德區","LI":"仁義里","LIN":"15鄰","STREET":"義林路","SECT":" ","MAREA":" ","LANE":"２５６巷","ALLEY":"２２弄","HOUSE_NO":"２２號","E_COORD97":174730.14000000001,"N_COORD97":2541414.7599999998,"ADDRESS":"義林路２５６巷２２弄２２號","OBJECTID":51880},"geometry":{"x":174730.1400000006,"y":2541414.7599999998}},{"attributes":{"ID":51881,"DIS_CODE":0,"TOWNNAME":"仁德區","LI":"仁義里","LIN":"15鄰","STREET":"義林路","SECT":" ","MAREA":" ","LANE":"２００巷","ALLEY":"６５弄","HOUSE_NO":"１４號","E_COORD97":174626.41,"N_COORD97":2541312.1600000001,"ADDRESS":"義林路２００巷６５弄１４號","OBJECTID":51881},"geometry":{"x":174626.41000000015,"y":2541312.160000002}},{"attributes":{"ID":51882,"DIS_CODE":0,"TOWNNAME":"仁德區","LI":"仁義里","LIN":"15鄰","STREET":"義林路","SECT":" ","MAREA":" ","LANE":"２５６巷","ALLEY":"２２弄","HOUSE_NO":"２１號","E_COORD97":174751.48999999999,"N_COORD97":2541383.7599999998,"ADDRESS":"義林路２５６巷２２弄２１號","OBJECTID":51882},"geometry":{"x":174751.49000000022,"y":2541383.7599999998}},{"attributes":{"ID":51883,"DIS_CODE":0,"TOWNNAME":"麻豆區","LI":"寮\u25A0里","LIN":"1鄰","STREET":" ","SECT":" ","MAREA":"寮子\u25A0","LANE":" ","ALLEY":" ","HOUSE_NO":"９號之１２７","E_COORD97":176849,"N_COORD97":2566029.4399999999,"ADDRESS":"寮子\u25A0９號之１２７","OBJECTID":51883},"geometry":{"x":176849.00000000093,"y":2566029.4399999995}},{"attributes":{"ID":51884,"DIS_CODE":0,"TOWNNAME":"麻豆區","LI":"寮\u25A0里","LIN":"1鄰","STREET":" ","SECT":" ","MAREA":"寮子\u25A0","LANE":" ","ALLEY":" ","HOUSE_NO":"９號之１２８","E_COORD97":176855.60000000001,"N_COORD97":2566030.48,"ADDRESS":"寮子\u25A0９號之１２８","OBJECTID":51884},"geometry":{"x":176855.59999999963,"y":2566030.4800000004}},{"attributes":{"ID":51885,"DIS_CODE":0,"TOWNNAME":"麻豆區","LI":"寮\u25A0里","LIN":"1鄰","STREET":" ","SECT":" ","MAREA":"寮子\u25A0","LANE":" ","ALLEY":" ","HOUSE_NO":"９號之１２９","E_COORD97":176862.39000000001,"N_COORD97":2566031.5899999999,"ADDRESS":"寮子\u25A0９號之１２９","OBJECTID":51885},"geometry":{"x":176862.38999999966,"y":2566031.5900000017}},{"attributes":{"ID":51886,"DIS_CODE":0,"TOWNNAME":"麻豆區","LI":"寮\u25A0里","LIN":"1鄰","STREET":" ","SECT":" ","MAREA":"寮子\u25A0","LANE":" ","ALLEY":" ","HOUSE_NO":"９號之１２","E_COORD97":176732.07000000001,"N_COORD97":2566144.5,"ADDRESS":"寮子\u25A0９號之１２","OBJECTID":51886},"geometry":{"x":176732.07000000123,"y":2566144.5000000019}},{"attributes":{"ID":51887,"DIS_CODE":0,"TOWNNAME":"麻豆區","LI":"寮\u25A0里","LIN":"1鄰","STREET":" ","SECT":" ","MAREA":"寮子\u25A0","LANE":" ","ALLEY":" ","HOUSE_NO":"９號之１３０","E_COORD97":176869.12,"N_COORD97":2566032.52,"ADDRESS":"寮子\u25A0９號之１３０","OBJECTID":51887},"geometry":{"x":176869.12000000011,"y":2566032.5199999996}},{"attributes":{"ID":51888,"DIS_CODE":0,"TOWNNAME":"麻豆區","LI":"寮\u25A0里","LIN":"1鄰","STREET":" ","SECT":" ","MAREA":"寮子\u25A0","LANE":" ","ALLEY":" ","HOUSE_NO":"９號之１３１","E_COORD97":176876.07000000001,"N_COORD97":2566033.3700000001,"ADDRESS":"寮子\u25A0９號之１３１","OBJECTID":51888},"geometry":{"x":176876.07000000123,"y":2566033.3700000048}},{"attributes":{"ID":51889,"DIS_CODE":0,"TOWNNAME":"麻豆區","LI":"寮\u25A0里","LIN":"1鄰","STREET":" ","SECT":" ","MAREA":"寮子\u25A0","LANE":" ","ALLEY":" ","HOUSE_NO":"９號之１３２","E_COORD97":176882.91,"N_COORD97":2566034.4100000001,"ADDRESS":"寮子\u25A0９號之１３２","OBJECTID":51889},"geometry":{"x":176882.91000000015,"y":2566034.4100000001}},{"attributes":{"ID":51890,"DIS_CODE":0,"TOWNNAME":"麻豆區","LI":"寮\u25A0里","LIN":"1鄰","STREET":" ","SECT":" ","MAREA":"寮子\u25A0","LANE":" ","ALLEY":" ","HOUSE_NO":"９號之１３３","E_COORD97":176888.85000000001,"N_COORD97":2566035.1499999999,"ADDRESS":"寮子\u25A0９號之１３３","OBJECTID":51890},"geometry":{"x":176888.85000000056,"y":2566035.1500000022}},{"attributes":{"ID":51891,"DIS_CODE":0,"TOWNNAME":"麻豆區","LI":"寮\u25A0里","LIN":"1鄰","STREET":" ","SECT":" ","MAREA":"寮子\u25A0","LANE":" ","ALLEY":" ","HOUSE_NO":"９號之１３４","E_COORD97":176896.17999999999,"N_COORD97":2566035.9900000002,"ADDRESS":"寮子\u25A0９號之１３４","OBJECTID":51891},"geometry":{"x":176896.18000000156,"y":2566035.9900000021}},{"attributes":{"ID":51892,"DIS_CODE":0,"TOWNNAME":"麻豆區","LI":"寮\u25A0里","LIN":"1鄰","STREET":" ","SECT":" ","MAREA":"寮子\u25A0","LANE":" ","ALLEY":" ","HOUSE_NO":"９號之１３８","E_COORD97":176589.60999999999,"N_COORD97":2565831.8799999999,"ADDRESS":"寮子\u25A0９號之１３８","OBJECTID":51892},"geometry":{"x":176589.61000000127,"y":2565831.8800000008}},{"attributes":{"ID":51893,"DIS_CODE":0,"TOWNNAME":"仁德區","LI":"仁義里","LIN":"15鄰","STREET":"義林路","SECT":" ","MAREA":" ","LANE":"２００巷","ALLEY":"４６弄","HOUSE_NO":"２號","E_COORD97":174671.84,"N_COORD97":2541250.02,"ADDRESS":"義林路２００巷４６弄２號","OBJECTID":51893},"geometry":{"x":174671.84000000078,"y":2541250.0199999996}},{"attributes":{"ID":51894,"DIS_CODE":0,"TOWNNAME":"仁德區","LI":"仁義里","LIN":"15鄰","STREET":"義林路","SECT":" ","MAREA":" ","LANE":"２５６巷","ALLEY":"２２弄","HOUSE_NO":"７號","E_COORD97":174739.23000000001,"N_COORD97":2541446.52,"ADDRESS":"義林路２５６巷２２弄７號","OBJECTID":51894},"geometry":{"x":174739.23000000138,"y":2541446.5199999996}},{"attributes":{"ID":51895,"DIS_CODE":0,"TOWNNAME":"仁德區","LI":"仁義里","LIN":"15鄰","STREET":"義林路","SECT":" ","MAREA":" ","LANE":"２５６巷","ALLEY":"２２弄","HOUSE_NO":"２號","E_COORD97":174716.22,"N_COORD97":2541465.02,"ADDRESS":"義林路２５６巷２２弄２號","OBJECTID":51895},"geometry":{"x":174716.22000000067,"y":2541465.0200000014}},{"attributes":{"ID":51896,"DIS_CODE":0,"TOWNNAME":"麻豆區","LI":"寮\u25A0里","LIN":"1鄰","STREET":" ","SECT":" ","MAREA":"寮子\u25A0","LANE":" ","ALLEY":" ","HOUSE_NO":"９號之１５１","E_COORD97":176102.60999999999,"N_COORD97":2566428.1200000001,"ADDRESS":"寮子\u25A0９號之１５１","OBJECTID":51896},"geometry":{"x":176102.61000000127,"y":2566428.1200000048}},{"attributes":{"ID":51897,"DIS_CODE":0,"TOWNNAME":"東區","LI":"大福里","LIN":"17鄰","STREET":"立德七路","SECT":" ","MAREA":" ","LANE":" ","ALLEY":" ","HOUSE_NO":"８號","E_COORD97":169509.54000000001,"N_COORD97":2541885.5699999998,"ADDRESS":"立德七路８號","OBJECTID":51897},"geometry":{"x":169509.54000000004,"y":2541885.5700000022}},{"attributes":{"ID":51898,"DIS_CODE":0,"TOWNNAME":"麻豆區","LI":"寮\u25A0里","LIN":"1鄰","STREET":" ","SECT":" ","MAREA":"寮子\u25A0","LANE":" ","ALLEY":" ","HOUSE_NO":"９號之１６０","E_COORD97":175544.29999999999,"N_COORD97":2566431.9700000002,"ADDRESS":"寮子\u25A0９號之１６０","OBJECTID":51898},"geometry":{"x":175544.29999999981,"y":2566431.9699999988}},{"attributes":{"ID":51899,"DIS_CODE":0,"TOWNNAME":"麻豆區","LI":"寮\u25A0里","LIN":"1鄰","STREET":" ","SECT":" ","MAREA":"寮子\u25A0","LANE":" ","ALLEY":" ","HOUSE_NO":"９號之１６","E_COORD97":176817.70000000001,"N_COORD97":2566310.8300000001,"ADDRESS":"寮子\u25A0９號之１６","OBJECTID":51899},"geometry":{"x":176817.70000000112,"y":2566310.8300000019}},{"attributes":{"ID":51900,"DIS_CODE":0,"TOWNNAME":"麻豆區","LI":"寮\u25A0里","LIN":"1鄰","STREET":" ","SECT":" ","MAREA":"寮子\u25A0","LANE":" ","ALLEY":" ","HOUSE_NO":"９號之１７","E_COORD97":176649.28,"N_COORD97":2566317.8900000001,"ADDRESS":"寮子\u25A0９號之１７","OBJECTID":51900},"geometry":{"x":176649.28000000119,"y":2566317.8900000025}},{"attributes":{"ID":51901,"DIS_CODE":0,"TOWNNAME":"麻豆區","LI":"寮\u25A0里","LIN":"1鄰","STREET":" ","SECT":" ","MAREA":"寮子\u25A0","LANE":" ","ALLEY":" ","HOUSE_NO":"９號之１８","E_COORD97":176847.03,"N_COORD97":2566533.1200000001,"ADDRESS":"寮子\u25A0９號之１８","OBJECTID":51901},"geometry":{"x":176847.03000000212,"y":2566533.1199999992}},{"attributes":{"ID":51902,"DIS_CODE":0,"TOWNNAME":"仁德區","LI":"仁義里","LIN":"15鄰","STREET":"義林路","SECT":" ","MAREA":" ","LANE":"２５６巷","ALLEY":"２２弄","HOUSE_NO":"３１號","E_COORD97":174777.98000000001,"N_COORD97":2541377.52,"ADDRESS":"義林路２５６巷２２弄３１號","OBJECTID":51902},"geometry":{"x":174777.98000000138,"y":2541377.5199999996}},{"attributes":{"ID":51903,"DIS_CODE":0,"TOWNNAME":"仁德區","LI":"仁義里","LIN":"15鄰","STREET":"義林路","SECT":" ","MAREA":" ","LANE":"２００巷","ALLEY":"６５弄","HOUSE_NO":"１２號","E_COORD97":174627.17000000001,"N_COORD97":2541315.9100000001,"ADDRESS":"義林路２００巷６５弄１２號","OBJECTID":51903},"geometry":{"x":174627.17000000086,"y":2541315.9099999983}},{"attributes":{"ID":51904,"DIS_CODE":0,"TOWNNAME":"仁德區","LI":"仁義里","LIN":"15鄰","STREET":"義林路","SECT":" ","MAREA":" ","LANE":"２５６巷","ALLEY":"２２弄","HOUSE_NO":"１號","E_COORD97":174731.57999999999,"N_COORD97":2541475.77,"ADDRESS":"義林路２５６巷２２弄１號","OBJECTID":51904},"geometry":{"x":174731.58000000101,"y":2541475.7700000033}},{"attributes":{"ID":51905,"DIS_CODE":0,"TOWNNAME":"新營區","LI":"南紙里","LIN":"3鄰","STREET":"太子路","SECT":" ","MAREA":" ","LANE":"１５３巷","ALLEY":"１０弄","HOUSE_NO":"８號","E_COORD97":177920.54999999999,"N_COORD97":2577801.9300000002,"ADDRESS":"太子路１５３巷１０弄８號","OBJECTID":51905},"geometry":{"x":177920.54999999981,"y":2577801.9299999997}},{"attributes":{"ID":51906,"DIS_CODE":0,"TOWNNAME":"新營區","LI":"新北里","LIN":"31鄰","STREET":"新北六街","SECT":" ","MAREA":" ","LANE":"５巷","ALLEY":"８弄","HOUSE_NO":"３６號","E_COORD97":178769.89000000001,"N_COORD97":2579092.4399999999,"ADDRESS":"新北六街５巷８弄３６號","OBJECTID":51906},"geometry":{"x":178769.8900000006,"y":2579092.4400000013}},{"attributes":{"ID":51907,"DIS_CODE":0,"TOWNNAME":"東區","LI":"東光里","LIN":"15鄰","STREET":"莊敬路","SECT":" ","MAREA":" ","LANE":"８１巷","ALLEY":"１弄","HOUSE_NO":"１號","E_COORD97":171316.78,"N_COORD97":2543846.8999999999,"ADDRESS":"莊敬路８１巷１弄１號","OBJECTID":51907},"geometry":{"x":171316.78000000026,"y":2543846.9000000022}},{"attributes":{"ID":51908,"DIS_CODE":0,"TOWNNAME":"東區","LI":"東光里","LIN":"15鄰","STREET":"莊敬路","SECT":" ","MAREA":" ","LANE":"８１巷","ALLEY":"１弄","HOUSE_NO":"２號","E_COORD97":171311.70000000001,"N_COORD97":2543844.3700000001,"ADDRESS":"莊敬路８１巷１弄２號","OBJECTID":51908},"geometry":{"x":171311.70000000112,"y":2543844.3700000029}},{"attributes":{"ID":51909,"DIS_CODE":0,"TOWNNAME":"東區","LI":"東光里","LIN":"15鄰","STREET":"莊敬路","SECT":" ","MAREA":" ","LANE":"８１巷","ALLEY":"１弄","HOUSE_NO":"３號","E_COORD97":171306.12,"N_COORD97":2543847.1000000001,"ADDRESS":"莊敬路８１巷１弄３號","OBJECTID":51909},"geometry":{"x":171306.12000000011,"y":2543847.1000000034}},{"attributes":{"ID":51910,"DIS_CODE":0,"TOWNNAME":"東區","LI":"東光里","LIN":"15鄰","STREET":"莊敬路","SECT":" ","MAREA":" ","LANE":"８１巷","ALLEY":"１弄","HOUSE_NO":"４號","E_COORD97":171301.25,"N_COORD97":2543844.3700000001,"ADDRESS":"莊敬路８１巷１弄４號","OBJECTID":51910},"geometry":{"x":171301.25,"y":2543844.3700000029}},{"attributes":{"ID":51911,"DIS_CODE":0,"TOWNNAME":"東山區","LI":"大客里","LIN":"5鄰","STREET":" ","SECT":" ","MAREA":"大庄","LANE":" ","ALLEY":" ","HOUSE_NO":"２２號","E_COORD97":189696.22,"N_COORD97":2578934.25,"ADDRESS":"大庄２２號","OBJECTID":51911},"geometry":{"x":189696.21999999974,"y":2578934.2500000019}},{"attributes":{"ID":51912,"DIS_CODE":0,"TOWNNAME":"東山區","LI":"大客里","LIN":"4鄰","STREET":" ","SECT":" ","MAREA":"大庄","LANE":" ","ALLEY":" ","HOUSE_NO":"２３號","E_COORD97":189689.48000000001,"N_COORD97":2578913.9199999999,"ADDRESS":"大庄２３號","OBJECTID":51912},"geometry":{"x":189689.48000000045,"y":2578913.9199999999}},{"attributes":{"ID":51913,"DIS_CODE":0,"TOWNNAME":"東山區","LI":"大客里","LIN":"3鄰","STREET":" ","SECT":" ","MAREA":"大庄","LANE":" ","ALLEY":" ","HOUSE_NO":"２１號之２","E_COORD97":189664.97,"N_COORD97":2578933.25,"ADDRESS":"大庄２１號之２","OBJECTID":51913},"geometry":{"x":189664.97000000067,"y":2578933.2500000037}},{"attributes":{"ID":51914,"DIS_CODE":0,"TOWNNAME":"東區","LI":"東光里","LIN":"15鄰","STREET":"莊敬路","SECT":" ","MAREA":" ","LANE":"８１巷","ALLEY":"１弄","HOUSE_NO":"５號","E_COORD97":171296.98000000001,"N_COORD97":2543846.3900000001,"ADDRESS":"莊敬路８１巷１弄５號","OBJECTID":51914},"geometry":{"x":171296.98000000045,"y":2543846.3900000025}},{"attributes":{"ID":51915,"DIS_CODE":0,"TOWNNAME":"麻豆區","LI":"寮\u25A0里","LIN":"1鄰","STREET":" ","SECT":" ","MAREA":"寮子\u25A0","LANE":" ","ALLEY":" ","HOUSE_NO":"９號之８２","E_COORD97":176807.60999999999,"N_COORD97":2566018.3500000001,"ADDRESS":"寮子\u25A0９號之８２","OBJECTID":51915},"geometry":{"x":176807.6100000022,"y":2566018.3500000034}},{"attributes":{"ID":51916,"DIS_CODE":0,"TOWNNAME":"東區","LI":"東光里","LIN":"15鄰","STREET":"莊敬路","SECT":" ","MAREA":" ","LANE":"８１巷","ALLEY":"１弄","HOUSE_NO":"６號","E_COORD97":171291.26999999999,"N_COORD97":2543846.75,"ADDRESS":"莊敬路８１巷１弄６號","OBJECTID":51916},"geometry":{"x":171291.27000000142,"y":2543846.7500000019}},{"attributes":{"ID":51917,"DIS_CODE":0,"TOWNNAME":"東區","LI":"東光里","LIN":"15鄰","STREET":"莊敬路","SECT":" ","MAREA":" ","LANE":"８１巷","ALLEY":"１弄","HOUSE_NO":"７號","E_COORD97":171286.59,"N_COORD97":2543848.3900000001,"ADDRESS":"莊敬路８１巷１弄７號","OBJECTID":51917},"geometry":{"x":171286.59000000078,"y":2543848.3900000006}},{"attributes":{"ID":51918,"DIS_CODE":0,"TOWNNAME":"東區","LI":"東光里","LIN":"15鄰","STREET":"莊敬路","SECT":" ","MAREA":" ","LANE":"８１巷","ALLEY":"１弄","HOUSE_NO":"８號","E_COORD97":171281.01999999999,"N_COORD97":2543849.6200000001,"ADDRESS":"莊敬路８１巷１弄８號","OBJECTID":51918},"geometry":{"x":171281.02000000142,"y":2543849.6200000029}},{"attributes":{"ID":51919,"DIS_CODE":0,"TOWNNAME":"善化區","LI":"文昌里","LIN":"17鄰","STREET":" ","SECT":" ","MAREA":"益民寮","LANE":" ","ALLEY":" ","HOUSE_NO":"６號","E_COORD97":177841.89999999999,"N_COORD97":2557241.7599999998,"ADDRESS":"益民寮６號","OBJECTID":51919},"geometry":{"x":177841.9000000013,"y":2557241.7600000016}},{"attributes":{"ID":51920,"DIS_CODE":0,"TOWNNAME":"麻豆區","LI":"寮\u25A0里","LIN":"1鄰","STREET":" ","SECT":" ","MAREA":"寮子\u25A0","LANE":" ","ALLEY":" ","HOUSE_NO":"９號之１９","E_COORD97":176585.51999999999,"N_COORD97":2566768.9300000002,"ADDRESS":"寮子\u25A0９號之１９","OBJECTID":51920},"geometry":{"x":176585.52000000048,"y":2566768.9299999997}},{"attributes":{"ID":51921,"DIS_CODE":0,"TOWNNAME":"麻豆區","LI":"寮\u25A0里","LIN":"1鄰","STREET":" ","SECT":" ","MAREA":"寮子\u25A0","LANE":" ","ALLEY":" ","HOUSE_NO":"９號之１","E_COORD97":176599.62,"N_COORD97":2565996.52,"ADDRESS":"寮子\u25A0９號之１","OBJECTID":51921},"geometry":{"x":176599.62000000011,"y":2565996.5199999977}},{"attributes":{"ID":51922,"DIS_CODE":0,"TOWNNAME":"麻豆區","LI":"寮\u25A0里","LIN":"1鄰","STREET":" ","SECT":" ","MAREA":"寮子\u25A0","LANE":" ","ALLEY":" ","HOUSE_NO":"９號之２０","E_COORD97":177139.60000000001,"N_COORD97":2566944.6499999999,"ADDRESS":"寮子\u25A0９號之２０","OBJECTID":51922},"geometry":{"x":177139.60000000056,"y":2566944.6500000004}},{"attributes":{"ID":51923,"DIS_CODE":0,"TOWNNAME":"麻豆區","LI":"寮\u25A0里","LIN":"1鄰","STREET":" ","SECT":" ","MAREA":"寮子\u25A0","LANE":" ","ALLEY":" ","HOUSE_NO":"９號之２３","E_COORD97":176830.10000000001,"N_COORD97":2566549.3500000001,"ADDRESS":"寮子\u25A0９號之２３","OBJECTID":51923},"geometry":{"x":176830.09999999963,"y":2566549.3499999996}},{"attributes":{"ID":51924,"DIS_CODE":0,"TOWNNAME":"麻豆區","LI":"寮\u25A0里","LIN":"1鄰","STREET":" ","SECT":" ","MAREA":"寮子\u25A0","LANE":" ","ALLEY":" ","HOUSE_NO":"９號之２７","E_COORD97":176964.22,"N_COORD97":2566396.1400000001,"ADDRESS":"寮子\u25A0９號之２７","OBJECTID":51924},"geometry":{"x":176964.22000000067,"y":2566396.1400000006}},{"attributes":{"ID":51925,"DIS_CODE":0,"TOWNNAME":"麻豆區","LI":"寮\u25A0里","LIN":"1鄰","STREET":" ","SECT":" ","MAREA":"寮子\u25A0","LANE":" ","ALLEY":" ","HOUSE_NO":"９號之２８","E_COORD97":176983.84,"N_COORD97":2566408.6200000001,"ADDRESS":"寮子\u25A0９號之２８","OBJECTID":51925},"geometry":{"x":176983.84000000078,"y":2566408.6200000029}},{"attributes":{"ID":51926,"DIS_CODE":0,"TOWNNAME":"麻豆區","LI":"寮\u25A0里","LIN":"1鄰","STREET":" ","SECT":" ","MAREA":"寮子\u25A0","LANE":" ","ALLEY":" ","HOUSE_NO":"９號之２","E_COORD97":176571.79999999999,"N_COORD97":2566026.4700000002,"ADDRESS":"寮子\u25A0９號之２","OBJECTID":51926},"geometry":{"x":176571.80000000168,"y":2566026.4700000025}},{"attributes":{"ID":51927,"DIS_CODE":0,"TOWNNAME":"麻豆區","LI":"寮\u25A0里","LIN":"1鄰","STREET":" ","SECT":" ","MAREA":"寮子\u25A0","LANE":" ","ALLEY":" ","HOUSE_NO":"９號之３０","E_COORD97":176694.95000000001,"N_COORD97":2566006.5800000001,"ADDRESS":"寮子\u25A0９號之３０","OBJECTID":51927},"geometry":{"x":176694.95000000205,"y":2566006.5800000001}},{"attributes":{"ID":51928,"DIS_CODE":0,"TOWNNAME":"麻豆區","LI":"寮\u25A0里","LIN":"1鄰","STREET":" ","SECT":" ","MAREA":"寮子\u25A0","LANE":" ","ALLEY":" ","HOUSE_NO":"９號之３１","E_COORD97":176697.32000000001,"N_COORD97":2566011.4399999999,"ADDRESS":"寮子\u25A0９號之３１","OBJECTID":51928},"geometry":{"x":176697.3200000003,"y":2566011.4400000013}},{"attributes":{"ID":51929,"DIS_CODE":0,"TOWNNAME":"麻豆區","LI":"寮\u25A0里","LIN":"1鄰","STREET":" ","SECT":" ","MAREA":"寮子\u25A0","LANE":" ","ALLEY":" ","HOUSE_NO":"９號之３２","E_COORD97":176700.10000000001,"N_COORD97":2566015,"ADDRESS":"寮子\u25A0９號之３２","OBJECTID":51929},"geometry":{"x":176700.10000000149,"y":2566015.0000000019}},{"attributes":{"ID":51930,"DIS_CODE":0,"TOWNNAME":"麻豆區","LI":"寮\u25A0里","LIN":"1鄰","STREET":" ","SECT":" ","MAREA":"寮子\u25A0","LANE":" ","ALLEY":" ","HOUSE_NO":"９號之３３","E_COORD97":176702.85000000001,"N_COORD97":2566019.1699999999,"ADDRESS":"寮子\u25A0９號之３３","OBJECTID":51930},"geometry":{"x":176702.84999999963,"y":2566019.1699999999}},{"attributes":{"ID":51931,"DIS_CODE":0,"TOWNNAME":"麻豆區","LI":"寮\u25A0里","LIN":"1鄰","STREET":" ","SECT":" ","MAREA":"寮子\u25A0","LANE":" ","ALLEY":" ","HOUSE_NO":"９號之３４","E_COORD97":176705.84,"N_COORD97":2566023.46,"ADDRESS":"寮子\u25A0９號之３４","OBJECTID":51931},"geometry":{"x":176705.84000000078,"y":2566023.4600000028}},{"attributes":{"ID":51932,"DIS_CODE":0,"TOWNNAME":"麻豆區","LI":"寮\u25A0里","LIN":"1鄰","STREET":" ","SECT":" ","MAREA":"寮子\u25A0","LANE":" ","ALLEY":" ","HOUSE_NO":"９號之３５","E_COORD97":176708.66,"N_COORD97":2566027.3799999999,"ADDRESS":"寮子\u25A0９號之３５","OBJECTID":51932},"geometry":{"x":176708.66000000201,"y":2566027.3800000027}},{"attributes":{"ID":51933,"DIS_CODE":0,"TOWNNAME":"麻豆區","LI":"寮\u25A0里","LIN":"1鄰","STREET":" ","SECT":" ","MAREA":"寮子\u25A0","LANE":" ","ALLEY":" ","HOUSE_NO":"９號之３６","E_COORD97":176711.79000000001,"N_COORD97":2566031.25,"ADDRESS":"寮子\u25A0９號之３６","OBJECTID":51933},"geometry":{"x":176711.79000000097,"y":2566031.25}},{"attributes":{"ID":51934,"DIS_CODE":0,"TOWNNAME":"麻豆區","LI":"寮\u25A0里","LIN":"1鄰","STREET":" ","SECT":" ","MAREA":"寮子\u25A0","LANE":" ","ALLEY":" ","HOUSE_NO":"９號之３７","E_COORD97":176714.13,"N_COORD97":2566034.8100000001,"ADDRESS":"寮子\u25A0９號之３７","OBJECTID":51934},"geometry":{"x":176714.13000000082,"y":2566034.8100000005}},{"attributes":{"ID":51935,"DIS_CODE":0,"TOWNNAME":"麻豆區","LI":"寮\u25A0里","LIN":"1鄰","STREET":" ","SECT":" ","MAREA":"寮子\u25A0","LANE":" ","ALLEY":" ","HOUSE_NO":"９號之３８","E_COORD97":176728.04999999999,"N_COORD97":2566044.1499999999,"ADDRESS":"寮子\u25A0９號之３８","OBJECTID":51935},"geometry":{"x":176728.05000000075,"y":2566044.1500000041}},{"attributes":{"ID":51936,"DIS_CODE":0,"TOWNNAME":"新市區","LI":"港墘里","LIN":" ","STREET":"中山路","SECT":" ","MAREA":" ","LANE":" ","ALLEY":" ","HOUSE_NO":"１６之７號","E_COORD97":178699.12,"N_COORD97":2553690.0499999998,"ADDRESS":"中山路１６之７號","OBJECTID":51936},"geometry":{"x":178699.12000000197,"y":2553690.0500000007}},{"attributes":{"ID":51937,"DIS_CODE":0,"TOWNNAME":"新市區","LI":"新和里","LIN":" ","STREET":"中山路","SECT":" ","MAREA":" ","LANE":" ","ALLEY":" ","HOUSE_NO":"２３８號","E_COORD97":177437.95000000001,"N_COORD97":2552045,"ADDRESS":"中山路２３８號","OBJECTID":51937},"geometry":{"x":177437.95000000112,"y":2552045}},{"attributes":{"ID":51938,"DIS_CODE":0,"TOWNNAME":"新市區","LI":"港墘里","LIN":" ","STREET":"中山路","SECT":" ","MAREA":" ","LANE":" ","ALLEY":" ","HOUSE_NO":"１６之２號","E_COORD97":178689.98000000001,"N_COORD97":2553664.7999999998,"ADDRESS":"中山路１６之２號","OBJECTID":51938},"geometry":{"x":178689.98000000045,"y":2553664.8000000007}},{"attributes":{"ID":51939,"DIS_CODE":0,"TOWNNAME":"新市區","LI":"新市里","LIN":" ","STREET":"仁愛街","SECT":" ","MAREA":" ","LANE":" ","ALLEY":" ","HOUSE_NO":"３０６之１１號","E_COORD97":177690.60999999999,"N_COORD97":2553022.2999999998,"ADDRESS":"仁愛街３０６之１１號","OBJECTID":51939},"geometry":{"x":177690.6099999994,"y":2553022.3000000026}},{"attributes":{"ID":51940,"DIS_CODE":0,"TOWNNAME":"新市區","LI":"港墘里","LIN":" ","STREET":"中山路","SECT":" ","MAREA":" ","LANE":" ","ALLEY":" ","HOUSE_NO":"１６之４號","E_COORD97":178693.82000000001,"N_COORD97":2553675.0499999998,"ADDRESS":"中山路１６之４號","OBJECTID":51940},"geometry":{"x":178693.8200000003,"y":2553675.0500000026}},{"attributes":{"ID":51941,"DIS_CODE":0,"TOWNNAME":"新市區","LI":"新市里","LIN":" ","STREET":"和平路","SECT":" ","MAREA":" ","LANE":" ","ALLEY":" ","HOUSE_NO":"２８５號","E_COORD97":174465.70999999999,"N_COORD97":2551255.75,"ADDRESS":"和平路２８５號","OBJECTID":51941},"geometry":{"x":174465.71000000089,"y":2551255.7500000019}},{"attributes":{"ID":51942,"DIS_CODE":0,"TOWNNAME":"新市區","LI":"新市里","LIN":"14鄰","STREET":"中正路","SECT":" ","MAREA":" ","LANE":" ","ALLEY":" ","HOUSE_NO":"３０３號","E_COORD97":177607.01999999999,"N_COORD97":2553254.5,"ADDRESS":"中正路３０３號","OBJECTID":51942},"geometry":{"x":177607.01999999955,"y":2553254.5000000019}},{"attributes":{"ID":51943,"DIS_CODE":0,"TOWNNAME":"新市區","LI":"新市里","LIN":" ","STREET":"和平路","SECT":" ","MAREA":" ","LANE":" ","ALLEY":" ","HOUSE_NO":"３０３之１號","E_COORD97":174415.53,"N_COORD97":2551299.2999999998,"ADDRESS":"和平路３０３之１號","OBJECTID":51943},"geometry":{"x":174415.53000000026,"y":2551299.3000000026}},{"attributes":{"ID":51944,"DIS_CODE":0,"TOWNNAME":"新市區","LI":"新市里","LIN":" ","STREET":"仁愛街","SECT":" ","MAREA":" ","LANE":" ","ALLEY":" ","HOUSE_NO":"３０６之１６號","E_COORD97":177690.60999999999,"N_COORD97":2553016.5499999998,"ADDRESS":"仁愛街３０６之１６號","OBJECTID":51944},"geometry":{"x":177690.6099999994,"y":2553016.5500000026}},{"attributes":{"ID":51945,"DIS_CODE":0,"TOWNNAME":"東區","LI":"東光里","LIN":"15鄰","STREET":"莊敬路","SECT":" ","MAREA":" ","LANE":"８１巷","ALLEY":"１弄","HOUSE_NO":"９號","E_COORD97":171275.45999999999,"N_COORD97":2543848.6299999999,"ADDRESS":"莊敬路８１巷１弄９號","OBJECTID":51945},"geometry":{"x":171275.46000000089,"y":2543848.629999999}},{"attributes":{"ID":51946,"DIS_CODE":0,"TOWNNAME":"新營區","LI":"新東里","LIN":"17鄰","STREET":"東興四街","SECT":" ","MAREA":" ","LANE":"３２巷","ALLEY":"３１弄","HOUSE_NO":"１６號","E_COORD97":180957.51999999999,"N_COORD97":2579075.4300000002,"ADDRESS":"東興四街３２巷３１弄１６號","OBJECTID":51946},"geometry":{"x":180957.52000000048,"y":2579075.4300000016}},{"attributes":{"ID":51947,"DIS_CODE":0,"TOWNNAME":"永康區","LI":"安康里","LIN":"15鄰","STREET":"中華路","SECT":" ","MAREA":" ","LANE":"６１９巷","ALLEY":"２２弄","HOUSE_NO":"９號","E_COORD97":170979.73000000001,"N_COORD97":2546112.5,"ADDRESS":"中華路６１９巷２２弄９號","OBJECTID":51947},"geometry":{"x":170979.73000000045,"y":2546112.4999999981}},{"attributes":{"ID":51948,"DIS_CODE":0,"TOWNNAME":"安南區","LI":"淵中里","LIN":"15鄰","STREET":"安中路","SECT":"四段","MAREA":" ","LANE":"１５４巷","ALLEY":"５７弄","HOUSE_NO":"１４號","E_COORD97":165044.76000000001,"N_COORD97":2550177.2599999998,"ADDRESS":"安中路四段１５４巷５７弄１４號","OBJECTID":51948},"geometry":{"x":165044.76000000164,"y":2550177.2600000016}},{"attributes":{"ID":51949,"DIS_CODE":0,"TOWNNAME":"永康區","LI":"二王里","LIN":"1鄰","STREET":"二王路","SECT":" ","MAREA":" ","LANE":"２７巷","ALLEY":"２２弄","HOUSE_NO":"２５號","E_COORD97":173094.987677,"N_COORD97":2546743.3957600002,"ADDRESS":"二王路２７巷２２弄２５號","OBJECTID":51949},"geometry":{"x":173094.98767700046,"y":2546743.3957600016}},{"attributes":{"ID":51950,"DIS_CODE":0,"TOWNNAME":"麻豆區","LI":"寮\u25A0里","LIN":"1鄰","STREET":" ","SECT":" ","MAREA":"寮子\u25A0","LANE":" ","ALLEY":" ","HOUSE_NO":"９號之８３","E_COORD97":176812.89000000001,"N_COORD97":2566018.9900000002,"ADDRESS":"寮子\u25A0９號之８３","OBJECTID":51950},"geometry":{"x":176812.88999999966,"y":2566018.9900000021}},{"attributes":{"ID":51951,"DIS_CODE":0,"TOWNNAME":"安南區","LI":"淵中里","LIN":"15鄰","STREET":"安中路","SECT":"四段","MAREA":" ","LANE":"１５４巷","ALLEY":"５７弄","HOUSE_NO":"１０號","E_COORD97":165049.35999999999,"N_COORD97":2550171.04,"ADDRESS":"安中路四段１５４巷５７弄１０號","OBJECTID":51951},"geometry":{"x":165049.36000000034,"y":2550171.040000001}},{"attributes":{"ID":51952,"DIS_CODE":0,"TOWNNAME":"安南區","LI":"淵中里","LIN":"15鄰","STREET":"安中路","SECT":"四段","MAREA":" ","LANE":"１５４巷","ALLEY":"５７弄","HOUSE_NO":"１２號","E_COORD97":165047.01000000001,"N_COORD97":2550174.5600000001,"ADDRESS":"安中路四段１５４巷５７弄１２號","OBJECTID":51952},"geometry":{"x":165047.01000000071,"y":2550174.5600000042}},{"attributes":{"ID":51953,"DIS_CODE":0,"TOWNNAME":"安南區","LI":"淵中里","LIN":"15鄰","STREET":"安中路","SECT":"四段","MAREA":" ","LANE":"１５４巷","ALLEY":"５７弄","HOUSE_NO":"１８號","E_COORD97":165040.42999999999,"N_COORD97":2550184.3799999999,"ADDRESS":"安中路四段１５４巷５７弄１８號","OBJECTID":51953},"geometry":{"x":165040.43000000063,"y":2550184.3800000027}},{"attributes":{"ID":51954,"DIS_CODE":0,"TOWNNAME":"安南區","LI":"淵中里","LIN":"15鄰","STREET":"安中路","SECT":"四段","MAREA":" ","LANE":"１５４巷","ALLEY":"５７弄","HOUSE_NO":"２０號","E_COORD97":165038.17999999999,"N_COORD97":2550187.6200000001,"ADDRESS":"安中路四段１５４巷５７弄２０號","OBJECTID":51954},"geometry":{"x":165038.1799999997,"y":2550187.620000001}},{"attributes":{"ID":51955,"DIS_CODE":0,"TOWNNAME":"安南區","LI":"淵中里","LIN":"15鄰","STREET":"安中路","SECT":"四段","MAREA":" ","LANE":"１５４巷","ALLEY":"５７弄","HOUSE_NO":"３０號","E_COORD97":165054.03,"N_COORD97":2550216.79,"ADDRESS":"安中路四段１５４巷５７弄３０號","OBJECTID":51955},"geometry":{"x":165054.03000000119,"y":2550216.790000001}},{"attributes":{"ID":51956,"DIS_CODE":0,"TOWNNAME":"安南區","LI":"淵中里","LIN":"15鄰","STREET":"安中路","SECT":"四段","MAREA":" ","LANE":"１５４巷","ALLEY":"５７弄","HOUSE_NO":"３２號","E_COORD97":165050.32999999999,"N_COORD97":2550214.8100000001,"ADDRESS":"安中路四段１５４巷５７弄３２號","OBJECTID":51956},"geometry":{"x":165050.33000000101,"y":2550214.8100000024}},{"attributes":{"ID":51957,"DIS_CODE":0,"TOWNNAME":"安南區","LI":"淵中里","LIN":"15鄰","STREET":"安中路","SECT":"四段","MAREA":" ","LANE":"１５４巷","ALLEY":"５７弄","HOUSE_NO":"３６號","E_COORD97":165043.57000000001,"N_COORD97":2550209.9399999999,"ADDRESS":"安中路四段１５４巷５７弄３６號","OBJECTID":51957},"geometry":{"x":165043.57000000123,"y":2550209.9399999995}},{"attributes":{"ID":51958,"DIS_CODE":0,"TOWNNAME":"安南區","LI":"淵中里","LIN":"15鄰","STREET":"安中路","SECT":"四段","MAREA":" ","LANE":"１５４巷","ALLEY":"５７弄","HOUSE_NO":"４０號","E_COORD97":165028.60000000001,"N_COORD97":2550198.4100000001,"ADDRESS":"安中路四段１５４巷５７弄４０號","OBJECTID":51958},"geometry":{"x":165028.60000000149,"y":2550198.4100000001}},{"attributes":{"ID":51959,"DIS_CODE":0,"TOWNNAME":"安南區","LI":"淵中里","LIN":"15鄰","STREET":"安中路","SECT":"四段","MAREA":" ","LANE":"１５４巷","ALLEY":"５７弄","HOUSE_NO":"４２號","E_COORD97":165026.35000000001,"N_COORD97":2550201.4700000002,"ADDRESS":"安中路四段１５４巷５７弄４２號","OBJECTID":51959},"geometry":{"x":165026.34999999963,"y":2550201.4700000007}},{"attributes":{"ID":51960,"DIS_CODE":0,"TOWNNAME":"安南區","LI":"淵中里","LIN":"15鄰","STREET":"安中路","SECT":"四段","MAREA":" ","LANE":"１５４巷","ALLEY":"５７弄","HOUSE_NO":"４４號","E_COORD97":165024.19,"N_COORD97":2550204.3599999999,"ADDRESS":"安中路四段１５４巷５７弄４４號","OBJECTID":51960},"geometry":{"x":165024.19000000134,"y":2550204.3599999994}},{"attributes":{"ID":51961,"DIS_CODE":0,"TOWNNAME":"安南區","LI":"淵中里","LIN":"15鄰","STREET":"安中路","SECT":"四段","MAREA":" ","LANE":"１５４巷","ALLEY":"５７弄","HOUSE_NO":"４６號","E_COORD97":165021.57000000001,"N_COORD97":2550207.5099999998,"ADDRESS":"安中路四段１５４巷５７弄４６號","OBJECTID":51961},"geometry":{"x":165021.57000000123,"y":2550207.5099999998}},{"attributes":{"ID":51962,"DIS_CODE":0,"TOWNNAME":"安南區","LI":"淵中里","LIN":"15鄰","STREET":"安中路","SECT":"四段","MAREA":" ","LANE":"１５４巷","ALLEY":"５７弄","HOUSE_NO":"４８號","E_COORD97":165019.14000000001,"N_COORD97":2550211.29,"ADDRESS":"安中路四段１５４巷５７弄４８號","OBJECTID":51962},"geometry":{"x":165019.13999999966,"y":2550211.2899999991}},{"attributes":{"ID":51963,"DIS_CODE":0,"TOWNNAME":"善化區","LI":"坐駕里","LIN":"17鄰","STREET":"興華路","SECT":" ","MAREA":" ","LANE":" ","ALLEY":" ","HOUSE_NO":"２５９號","E_COORD97":177906.92000000001,"N_COORD97":2558514.5,"ADDRESS":"興華路２５９號","OBJECTID":51963},"geometry":{"x":177906.92000000179,"y":2558514.4999999981}},{"attributes":{"ID":51964,"DIS_CODE":0,"TOWNNAME":"善化區","LI":"光文里","LIN":"17鄰","STREET":"民權路","SECT":" ","MAREA":" ","LANE":" ","ALLEY":" ","HOUSE_NO":"２０３號","E_COORD97":178177.59,"N_COORD97":2558990.5099999998,"ADDRESS":"民權路２０３號","OBJECTID":51964},"geometry":{"x":178177.59000000078,"y":2558990.5100000016}},{"attributes":{"ID":51965,"DIS_CODE":0,"TOWNNAME":"麻豆區","LI":"寮\u25A0里","LIN":"1鄰","STREET":" ","SECT":" ","MAREA":"寮子\u25A0","LANE":" ","ALLEY":" ","HOUSE_NO":"９號之３９","E_COORD97":176737.42999999999,"N_COORD97":2566045.23,"ADDRESS":"寮子\u25A0９號之３９","OBJECTID":51965},"geometry":{"x":176737.43000000063,"y":2566045.2300000023}},{"attributes":{"ID":51966,"DIS_CODE":0,"TOWNNAME":"麻豆區","LI":"寮\u25A0里","LIN":"1鄰","STREET":" ","SECT":" ","MAREA":"寮子\u25A0","LANE":" ","ALLEY":" ","HOUSE_NO":"９號之４０","E_COORD97":176747.48000000001,"N_COORD97":2566046.1600000001,"ADDRESS":"寮子\u25A0９號之４０","OBJECTID":51966},"geometry":{"x":176747.48000000231,"y":2566046.1600000001}},{"attributes":{"ID":51967,"DIS_CODE":0,"TOWNNAME":"安南區","LI":"淵中里","LIN":"15鄰","STREET":"安中路","SECT":"四段","MAREA":" ","LANE":"１５４巷","ALLEY":"５７弄","HOUSE_NO":"４號","E_COORD97":165056.20999999999,"N_COORD97":2550161.5,"ADDRESS":"安中路四段１５４巷５７弄４號","OBJECTID":51967},"geometry":{"x":165056.21000000089,"y":2550161.5000000019}},{"attributes":{"ID":51968,"DIS_CODE":0,"TOWNNAME":"安南區","LI":"淵中里","LIN":"15鄰","STREET":"安中路","SECT":"四段","MAREA":" ","LANE":"１５４巷","ALLEY":"５７弄","HOUSE_NO":"５０號","E_COORD97":165016.25,"N_COORD97":2550214.0899999999,"ADDRESS":"安中路四段１５４巷５７弄５０號","OBJECTID":51968},"geometry":{"x":165016.25000000186,"y":2550214.089999998}},{"attributes":{"ID":51969,"DIS_CODE":0,"TOWNNAME":"安南區","LI":"淵中里","LIN":"15鄰","STREET":"安中路","SECT":"四段","MAREA":" ","LANE":"１５４巷","ALLEY":"５７弄","HOUSE_NO":"５２號","E_COORD97":165014.09,"N_COORD97":2550217.0600000001,"ADDRESS":"安中路四段１５４巷５７弄５２號","OBJECTID":51969},"geometry":{"x":165014.09000000078,"y":2550217.0600000005}},{"attributes":{"ID":51970,"DIS_CODE":0,"TOWNNAME":"安南區","LI":"淵中里","LIN":"15鄰","STREET":"安中路","SECT":"四段","MAREA":" ","LANE":"１５４巷","ALLEY":"５７弄","HOUSE_NO":"５４號","E_COORD97":165011.29000000001,"N_COORD97":2550220.8399999999,"ADDRESS":"安中路四段１５４巷５７弄５４號","OBJECTID":51970},"geometry":{"x":165011.29000000097,"y":2550220.8400000017}},{"attributes":{"ID":51971,"DIS_CODE":0,"TOWNNAME":"善化區","LI":"胡厝里","LIN":"17鄰","STREET":" ","SECT":" ","MAREA":"西衛","LANE":" ","ALLEY":" ","HOUSE_NO":"１號","E_COORD97":174477.89000000001,"N_COORD97":2559435.75,"ADDRESS":"西衛１號","OBJECTID":51971},"geometry":{"x":174477.8900000006,"y":2559435.7500000019}},{"attributes":{"ID":51972,"DIS_CODE":0,"TOWNNAME":"善化區","LI":"文昌里","LIN":"17鄰","STREET":" ","SECT":" ","MAREA":"益民寮","LANE":" ","ALLEY":" ","HOUSE_NO":"２２之１４號","E_COORD97":177668.94,"N_COORD97":2557205.02,"ADDRESS":"益民寮２２之１４號","OBJECTID":51972},"geometry":{"x":177668.94000000134,"y":2557205.0199999996}},{"attributes":{"ID":51973,"DIS_CODE":0,"TOWNNAME":"善化區","LI":"文昌里","LIN":"17鄰","STREET":" ","SECT":" ","MAREA":"益民寮","LANE":" ","ALLEY":" ","HOUSE_NO":"１１號","E_COORD97":177715.97,"N_COORD97":2557190.0099999998,"ADDRESS":"益民寮１１號","OBJECTID":51973},"geometry":{"x":177715.96999999974,"y":2557190.0100000016}},{"attributes":{"ID":51974,"DIS_CODE":0,"TOWNNAME":"善化區","LI":"胡厝里","LIN":"17鄰","STREET":" ","SECT":" ","MAREA":"西衛","LANE":" ","ALLEY":" ","HOUSE_NO":"５號之１","E_COORD97":174479.63,"N_COORD97":2559520.77,"ADDRESS":"西衛５號之１","OBJECTID":51974},"geometry":{"x":174479.63000000082,"y":2559520.7700000014}},{"attributes":{"ID":51975,"DIS_CODE":0,"TOWNNAME":"安南區","LI":"淵中里","LIN":"15鄰","STREET":"安中路","SECT":"四段","MAREA":" ","LANE":"１５４巷","ALLEY":"５７弄","HOUSE_NO":"６號","E_COORD97":165054.32000000001,"N_COORD97":2550165.1000000001,"ADDRESS":"安中路四段１５４巷５７弄６號","OBJECTID":51975},"geometry":{"x":165054.3200000003,"y":2550165.0999999996}},{"attributes":{"ID":51976,"DIS_CODE":0,"TOWNNAME":"新營區","LI":"新南里","LIN":"25鄰","STREET":"復興路","SECT":" ","MAREA":" ","LANE":"６２０巷","ALLEY":"３８弄","HOUSE_NO":"７號","E_COORD97":178066.98999999999,"N_COORD97":2578475.6499999999,"ADDRESS":"復興路６２０巷３８弄７號","OBJECTID":51976},"geometry":{"x":178066.99000000022,"y":2578475.6500000004}},{"attributes":{"ID":51977,"DIS_CODE":0,"TOWNNAME":"新營區","LI":"新東里","LIN":"17鄰","STREET":"東興四街","SECT":" ","MAREA":" ","LANE":"３２巷","ALLEY":"１３弄","HOUSE_NO":"１５號","E_COORD97":180949.66,"N_COORD97":2579143.0299999998,"ADDRESS":"東興四街３２巷１３弄１５號","OBJECTID":51977},"geometry":{"x":180949.66000000015,"y":2579143.0299999993}},{"attributes":{"ID":51978,"DIS_CODE":0,"TOWNNAME":"東區","LI":"東安里","LIN":"15鄰","STREET":"長榮路","SECT":"二段","MAREA":" ","LANE":"２４巷","ALLEY":"７１弄","HOUSE_NO":"１號","E_COORD97":170139.25,"N_COORD97":2543045.3500000001,"ADDRESS":"長榮路二段２４巷７１弄１號","OBJECTID":51978},"geometry":{"x":170139.25000000093,"y":2543045.3500000015}},{"attributes":{"ID":51979,"DIS_CODE":0,"TOWNNAME":"東區","LI":"東安里","LIN":"15鄰","STREET":"長榮路","SECT":"二段","MAREA":" ","LANE":"２４巷","ALLEY":"７１弄","HOUSE_NO":"２號","E_COORD97":170146.60000000001,"N_COORD97":2543053.1499999999,"ADDRESS":"長榮路二段２４巷７１弄２號","OBJECTID":51979},"geometry":{"x":170146.60000000056,"y":2543053.1500000004}},{"attributes":{"ID":51980,"DIS_CODE":0,"TOWNNAME":"東區","LI":"東安里","LIN":"15鄰","STREET":"長榮路","SECT":"二段","MAREA":" ","LANE":"２４巷","ALLEY":"７１弄","HOUSE_NO":"３號","E_COORD97":170134.07999999999,"N_COORD97":2543048.7000000002,"ADDRESS":"長榮路二段２４巷７１弄３號","OBJECTID":51980},"geometry":{"x":170134.08000000101,"y":2543048.6999999993}},{"attributes":{"ID":51981,"DIS_CODE":0,"TOWNNAME":"左鎮區","LI":"岡林里","LIN":"1鄰","STREET":" ","SECT":" ","MAREA":"岡林","LANE":" ","ALLEY":" ","HOUSE_NO":"３號","E_COORD97":188938.51000000001,"N_COORD97":2545918.25,"ADDRESS":"岡林３號","OBJECTID":51981},"geometry":{"x":188938.51000000164,"y":2545918.2500000019}},{"attributes":{"ID":51982,"DIS_CODE":0,"TOWNNAME":"東區","LI":"東安里","LIN":"15鄰","STREET":"長榮路","SECT":"二段","MAREA":" ","LANE":"２４巷","ALLEY":"７１弄","HOUSE_NO":"４號","E_COORD97":170154.59,"N_COORD97":2543070.0499999998,"ADDRESS":"長榮路二段２４巷７１弄４號","OBJECTID":51982},"geometry":{"x":170154.58999999985,"y":2543070.0500000026}},{"attributes":{"ID":51983,"DIS_CODE":0,"TOWNNAME":"東區","LI":"東安里","LIN":"15鄰","STREET":"長榮路","SECT":"二段","MAREA":" ","LANE":"２４巷","ALLEY":"７１弄","HOUSE_NO":"５號","E_COORD97":170126.54000000001,"N_COORD97":2543052.6000000001,"ADDRESS":"長榮路二段２４巷７１弄５號","OBJECTID":51983},"geometry":{"x":170126.54000000004,"y":2543052.5999999996}},{"attributes":{"ID":51984,"DIS_CODE":0,"TOWNNAME":"東區","LI":"東安里","LIN":"15鄰","STREET":"長榮路","SECT":"二段","MAREA":" ","LANE":"２４巷","ALLEY":"７１弄","HOUSE_NO":"６號","E_COORD97":170160.07999999999,"N_COORD97":2543071.7999999998,"ADDRESS":"長榮路二段２４巷７１弄６號","OBJECTID":51984},"geometry":{"x":170160.08000000007,"y":2543071.8000000026}},{"attributes":{"ID":51985,"DIS_CODE":0,"TOWNNAME":"東區","LI":"東安里","LIN":"15鄰","STREET":"長榮路","SECT":"二段","MAREA":" ","LANE":"２４巷","ALLEY":"７１弄","HOUSE_NO":"７號","E_COORD97":170142.06,"N_COORD97":2543051.9700000002,"ADDRESS":"長榮路二段２４巷７１弄７號","OBJECTID":51985},"geometry":{"x":170142.06000000052,"y":2543051.9699999988}},{"attributes":{"ID":51986,"DIS_CODE":0,"TOWNNAME":"善化區","LI":"胡厝里","LIN":"17鄰","STREET":" ","SECT":" ","MAREA":"西衛","LANE":" ","ALLEY":" ","HOUSE_NO":"１６號之２","E_COORD97":174345.67000000001,"N_COORD97":2559436.27,"ADDRESS":"西衛１６號之２","OBJECTID":51986},"geometry":{"x":174345.67000000086,"y":2559436.2700000014}},{"attributes":{"ID":51987,"DIS_CODE":0,"TOWNNAME":"善化區","LI":"胡厝里","LIN":"17鄰","STREET":" ","SECT":" ","MAREA":"西衛","LANE":" ","ALLEY":" ","HOUSE_NO":"１６號之１","E_COORD97":174344.17000000001,"N_COORD97":2559459.02,"ADDRESS":"西衛１６號之１","OBJECTID":51987},"geometry":{"x":174344.17000000086,"y":2559459.0199999996}},{"attributes":{"ID":51988,"DIS_CODE":0,"TOWNNAME":"東區","LI":"東安里","LIN":"15鄰","STREET":"長榮路","SECT":"二段","MAREA":" ","LANE":"２４巷","ALLEY":"７１弄","HOUSE_NO":"８號","E_COORD97":170149.69,"N_COORD97":2543058.5899999999,"ADDRESS":"長榮路二段２４巷７１弄８號","OBJECTID":51988},"geometry":{"x":170149.69000000041,"y":2543058.5900000017}},{"attributes":{"ID":51989,"DIS_CODE":0,"TOWNNAME":"安南區","LI":"淵中里","LIN":"17鄰","STREET":"樂安一街","SECT":" ","MAREA":" ","LANE":" ","ALLEY":" ","HOUSE_NO":"１５３號","E_COORD97":165777.07999999999,"N_COORD97":2549796.77,"ADDRESS":"樂安一街１５３號","OBJECTID":51989},"geometry":{"x":165777.08000000101,"y":2549796.7700000014}},{"attributes":{"ID":51990,"DIS_CODE":0,"TOWNNAME":"安南區","LI":"頂安里","LIN":"17鄰","STREET":"北安路","SECT":"三段","MAREA":" ","LANE":" ","ALLEY":" ","HOUSE_NO":"１２８號","E_COORD97":168347.88,"N_COORD97":2549111.8399999999,"ADDRESS":"北安路三段１２８號","OBJECTID":51990},"geometry":{"x":168347.88000000175,"y":2549111.8400000017}},{"attributes":{"ID":51991,"DIS_CODE":0,"TOWNNAME":"麻豆區","LI":"寮\u25A0里","LIN":"1鄰","STREET":" ","SECT":" ","MAREA":"寮子\u25A0","LANE":" ","ALLEY":" ","HOUSE_NO":"９號之４１","E_COORD97":176756.60000000001,"N_COORD97":2566047.79,"ADDRESS":"寮子\u25A0９號之４１","OBJECTID":51991},"geometry":{"x":176756.60000000056,"y":2566047.7899999991}},{"attributes":{"ID":51992,"DIS_CODE":0,"TOWNNAME":"安南區","LI":"安順里","LIN":"17鄰","STREET":"開安三街","SECT":" ","MAREA":" ","LANE":" ","ALLEY":" ","HOUSE_NO":"１５號","E_COORD97":170539.70999999999,"N_COORD97":2549869.1699999999,"ADDRESS":"開安三街１５號","OBJECTID":51992},"geometry":{"x":170539.71000000089,"y":2549869.1700000018}},{"attributes":{"ID":51993,"DIS_CODE":0,"TOWNNAME":"安南區","LI":"安順里","LIN":"17鄰","STREET":"開安三街","SECT":" ","MAREA":" ","LANE":" ","ALLEY":" ","HOUSE_NO":"１７號","E_COORD97":170547.97,"N_COORD97":2549864.2200000002,"ADDRESS":"開安三街１７號","OBJECTID":51993},"geometry":{"x":170547.97000000067,"y":2549864.2200000007}},{"attributes":{"ID":51994,"DIS_CODE":0,"TOWNNAME":"麻豆區","LI":"寮\u25A0里","LIN":"1鄰","STREET":" ","SECT":" ","MAREA":"寮子\u25A0","LANE":" ","ALLEY":" ","HOUSE_NO":"９號之４２","E_COORD97":176765.82999999999,"N_COORD97":2566048.4300000002,"ADDRESS":"寮子\u25A0９號之４２","OBJECTID":51994},"geometry":{"x":176765.83000000101,"y":2566048.4300000034}},{"attributes":{"ID":51995,"DIS_CODE":0,"TOWNNAME":"麻豆區","LI":"寮\u25A0里","LIN":"1鄰","STREET":" ","SECT":" ","MAREA":"寮子\u25A0","LANE":" ","ALLEY":" ","HOUSE_NO":"９號之４３","E_COORD97":176775.01000000001,"N_COORD97":2566049.3100000001,"ADDRESS":"寮子\u25A0９號之４３","OBJECTID":51995},"geometry":{"x":176775.00999999978,"y":2566049.3100000005}},{"attributes":{"ID":51996,"DIS_CODE":0,"TOWNNAME":"善化區","LI":"小新里","LIN":"17鄰","STREET":" ","SECT":" ","MAREA":"小新營","LANE":" ","ALLEY":" ","HOUSE_NO":"１４１號之２０","E_COORD97":179981.76000000001,"N_COORD97":2558034.52,"ADDRESS":"小新營１４１號之２０","OBJECTID":51996},"geometry":{"x":179981.76000000071,"y":2558034.5199999996}},{"attributes":{"ID":51997,"DIS_CODE":0,"TOWNNAME":"善化區","LI":"文昌里","LIN":"17鄰","STREET":" ","SECT":" ","MAREA":"益民寮","LANE":" ","ALLEY":" ","HOUSE_NO":"１４號","E_COORD97":177863.29000000001,"N_COORD97":2557189.0099999998,"ADDRESS":"益民寮１４號","OBJECTID":51997},"geometry":{"x":177863.29000000004,"y":2557189.0100000035}},{"attributes":{"ID":51998,"DIS_CODE":0,"TOWNNAME":"東區","LI":"東安里","LIN":"15鄰","STREET":"長榮路","SECT":"二段","MAREA":" ","LANE":"２４巷","ALLEY":"７１弄","HOUSE_NO":"９號","E_COORD97":170132.07999999999,"N_COORD97":2543058.5699999998,"ADDRESS":"長榮路二段２４巷７１弄９號","OBJECTID":51998},"geometry":{"x":170132.08000000101,"y":2543058.5700000022}},{"attributes":{"ID":51999,"DIS_CODE":0,"TOWNNAME":"東區","LI":"東安里","LIN":"15鄰","STREET":"長榮路","SECT":"二段","MAREA":" ","LANE":"２４巷","ALLEY":"７１弄","HOUSE_NO":"１１號","E_COORD97":170143.70000000001,"N_COORD97":2543056.96,"ADDRESS":"長榮路二段２４巷７１弄１１號","OBJECTID":51999},"geometry":{"x":170143.70000000112,"y":2543056.9600000028}},{"attributes":{"ID":52000,"DIS_CODE":0,"TOWNNAME":"東區","LI":"東安里","LIN":"15鄰","STREET":"長榮路","SECT":"二段","MAREA":" ","LANE":"２４巷","ALLEY":"７１弄","HOUSE_NO":"１３號","E_COORD97":170145.14999999999,"N_COORD97":2543059.8599999999,"ADDRESS":"長榮路二段２４巷７１弄１３號","OBJECTID":52000},"geometry":{"x":170145.15000000224,"y":2543059.8600000013}}]}