{"displayFieldName":"TOWNNAME","fieldAliases":{"ID":"ID","DIS_CODE":"DIS_CODE","TOWNNAME":"TOWNNAME","LI":"LI","LIN":"LIN","STREET":"STREET","SECT":"SECT","MAREA":"MAREA","LANE":"LANE","ALLEY":"ALLEY","HOUSE_NO":"HOUSE_NO","E_COORD97":"E_COORD97","N_COORD97":"N_COORD97","ADDRESS":"ADDRESS","OBJECTID":"OBJECTID"},"geometryType":"esriGeometryPoint","spatialReference":{"wkid":102443,"latestWkid":3826},"fields":[{"name":"ID","type":"esriFieldTypeDouble","alias":"ID"},{"name":"DIS_CODE","type":"esriFieldTypeInteger","alias":"DIS_CODE"},{"name":"TOWNNAME","type":"esriFieldTypeString","alias":"TOWNNAME","length":8},{"name":"LI","type":"esriFieldTypeString","alias":"LI","length":8},{"name":"LIN","type":"esriFieldTypeString","alias":"LIN","length":12},{"name":"STREET","type":"esriFieldTypeString","alias":"STREET","length":20},{"name":"SECT","type":"esriFieldTypeString","alias":"SECT","length":8},{"name":"MAREA","type":"esriFieldTypeString","alias":"MAREA","length":12},{"name":"LANE","type":"esriFieldTypeString","alias":"LANE","length":10},{"name":"ALLEY","type":"esriFieldTypeString","alias":"ALLEY","length":10},{"name":"HOUSE_NO","type":"esriFieldTypeString","alias":"HOUSE_NO","length":20},{"name":"E_COORD97","type":"esriFieldTypeDouble","alias":"E_COORD97"},{"name":"N_COORD97","type":"esriFieldTypeDouble","alias":"N_COORD97"},{"name":"ADDRESS","type":"esriFieldTypeString","alias":"ADDRESS","length":50},{"name":"OBJECTID","type":"esriFieldTypeOID","alias":"OBJECTID"}],"features":[{"attributes":{"ID":541028,"DIS_CODE":0,"TOWNNAME":"學甲區","LI":"仁得里","LIN":"12鄰","STREET":"建國路","SECT":" ","MAREA":" ","LANE":" ","ALLEY":" ","HOUSE_NO":"１２５號","E_COORD97":165918.48000000001,"N_COORD97":2570037.6699999999,"ADDRESS":"建國路１２５號","OBJECTID":541001},"geometry":{"x":165918.48000000045,"y":2570037.6700000018}},{"attributes":{"ID":541029,"DIS_CODE":0,"TOWNNAME":"學甲區","LI":"仁得里","LIN":"12鄰","STREET":"建國路","SECT":" ","MAREA":" ","LANE":" ","ALLEY":" ","HOUSE_NO":"１２７號","E_COORD97":165913.78,"N_COORD97":2570038.6400000001,"ADDRESS":"建國路１２７號","OBJECTID":541002},"geometry":{"x":165913.78000000119,"y":2570038.6400000025}},{"attributes":{"ID":541030,"DIS_CODE":0,"TOWNNAME":"學甲區","LI":"仁得里","LIN":"12鄰","STREET":"建國路","SECT":" ","MAREA":" ","LANE":" ","ALLEY":" ","HOUSE_NO":"１２９號","E_COORD97":165909.25,"N_COORD97":2570039.3199999998,"ADDRESS":"建國路１２９號","OBJECTID":541003},"geometry":{"x":165909.25,"y":2570039.3200000003}},{"attributes":{"ID":541031,"DIS_CODE":0,"TOWNNAME":"學甲區","LI":"仁得里","LIN":"12鄰","STREET":"建國路","SECT":" ","MAREA":" ","LANE":" ","ALLEY":" ","HOUSE_NO":"１３１號","E_COORD97":165904.70999999999,"N_COORD97":2570040.1400000001,"ADDRESS":"建國路１３１號","OBJECTID":541004},"geometry":{"x":165904.71000000183,"y":2570040.1400000006}},{"attributes":{"ID":541032,"DIS_CODE":0,"TOWNNAME":"學甲區","LI":"仁得里","LIN":"12鄰","STREET":"建國路","SECT":" ","MAREA":" ","LANE":" ","ALLEY":" ","HOUSE_NO":"１３３號","E_COORD97":165898,"N_COORD97":2570041.4900000002,"ADDRESS":"建國路１３３號","OBJECTID":541005},"geometry":{"x":165898.00000000093,"y":2570041.4900000002}},{"attributes":{"ID":541033,"DIS_CODE":0,"TOWNNAME":"學甲區","LI":"仁得里","LIN":"12鄰","STREET":"建國路","SECT":" ","MAREA":" ","LANE":" ","ALLEY":" ","HOUSE_NO":"９２號","E_COORD97":165926.01999999999,"N_COORD97":2570063.54,"ADDRESS":"建國路９２號","OBJECTID":541006},"geometry":{"x":165926.02000000142,"y":2570063.5399999991}},{"attributes":{"ID":541034,"DIS_CODE":0,"TOWNNAME":"學甲區","LI":"仁得里","LIN":"12鄰","STREET":"建國路","SECT":" ","MAREA":" ","LANE":" ","ALLEY":" ","HOUSE_NO":"９４號","E_COORD97":165921.87,"N_COORD97":2570064.3900000001,"ADDRESS":"建國路９４號","OBJECTID":541007},"geometry":{"x":165921.87000000011,"y":2570064.3900000025}},{"attributes":{"ID":541035,"DIS_CODE":0,"TOWNNAME":"學甲區","LI":"仁得里","LIN":"12鄰","STREET":"建國路","SECT":" ","MAREA":" ","LANE":" ","ALLEY":" ","HOUSE_NO":"９６號","E_COORD97":165917.25,"N_COORD97":2570065.2400000002,"ADDRESS":"建國路９６號","OBJECTID":541008},"geometry":{"x":165917.25,"y":2570065.2400000021}},{"attributes":{"ID":541036,"DIS_CODE":0,"TOWNNAME":"學甲區","LI":"仁得里","LIN":"12鄰","STREET":"建國路","SECT":" ","MAREA":" ","LANE":" ","ALLEY":" ","HOUSE_NO":"９８號","E_COORD97":165912.91,"N_COORD97":2570065.8700000001,"ADDRESS":"建國路９８號","OBJECTID":541009},"geometry":{"x":165912.91000000015,"y":2570065.8700000029}},{"attributes":{"ID":541037,"DIS_CODE":0,"TOWNNAME":"學甲區","LI":"明宜里","LIN":"12鄰","STREET":"宮西路","SECT":" ","MAREA":" ","LANE":" ","ALLEY":" ","HOUSE_NO":"１４號之３","E_COORD97":166012.17999999999,"N_COORD97":2570435.1400000001,"ADDRESS":"宮西路１４號之３","OBJECTID":541010},"geometry":{"x":166012.18000000063,"y":2570435.1400000043}},{"attributes":{"ID":541038,"DIS_CODE":0,"TOWNNAME":"學甲區","LI":"明宜里","LIN":"12鄰","STREET":"宮西路","SECT":" ","MAREA":" ","LANE":" ","ALLEY":" ","HOUSE_NO":"１０號之３","E_COORD97":166034.35000000001,"N_COORD97":2570433.5899999999,"ADDRESS":"宮西路１０號之３","OBJECTID":541011},"geometry":{"x":166034.35000000056,"y":2570433.5899999999}},{"attributes":{"ID":541039,"DIS_CODE":0,"TOWNNAME":"學甲區","LI":"明宜里","LIN":"12鄰","STREET":"宮西路","SECT":" ","MAREA":" ","LANE":" ","ALLEY":" ","HOUSE_NO":"１０號","E_COORD97":166049.04000000001,"N_COORD97":2570430.3100000001,"ADDRESS":"宮西路１０號","OBJECTID":541012},"geometry":{"x":166049.04000000097,"y":2570430.3100000042}},{"attributes":{"ID":541040,"DIS_CODE":0,"TOWNNAME":"學甲區","LI":"明宜里","LIN":"12鄰","STREET":"宮西路","SECT":" ","MAREA":" ","LANE":" ","ALLEY":" ","HOUSE_NO":"１２號","E_COORD97":166030.39000000001,"N_COORD97":2570434.4300000002,"ADDRESS":"宮西路１２號","OBJECTID":541013},"geometry":{"x":166030.39000000153,"y":2570434.4299999997}},{"attributes":{"ID":541041,"DIS_CODE":0,"TOWNNAME":"學甲區","LI":"明宜里","LIN":"12鄰","STREET":"宮西路","SECT":" ","MAREA":" ","LANE":" ","ALLEY":" ","HOUSE_NO":"１４號之１","E_COORD97":166021.51000000001,"N_COORD97":2570433.3700000001,"ADDRESS":"宮西路１４號之１","OBJECTID":541014},"geometry":{"x":166021.51000000071,"y":2570433.370000001}},{"attributes":{"ID":541042,"DIS_CODE":0,"TOWNNAME":"學甲區","LI":"明宜里","LIN":"12鄰","STREET":"宮西路","SECT":" ","MAREA":" ","LANE":" ","ALLEY":" ","HOUSE_NO":"１４號之２","E_COORD97":166016.82999999999,"N_COORD97":2570434.1000000001,"ADDRESS":"宮西路１４號之２","OBJECTID":541015},"geometry":{"x":166016.83000000007,"y":2570434.1000000034}},{"attributes":{"ID":541043,"DIS_CODE":0,"TOWNNAME":"東區","LI":"崇文里","LIN":"9鄰","STREET":"崇德十八街","SECT":" ","MAREA":" ","LANE":" ","ALLEY":" ","HOUSE_NO":"７號","E_COORD97":170862.25,"N_COORD97":2541040.4500000002,"ADDRESS":"崇德十八街７號","OBJECTID":541016},"geometry":{"x":170862.25,"y":2541040.450000003}},{"attributes":{"ID":541044,"DIS_CODE":0,"TOWNNAME":"東區","LI":"崇文里","LIN":"9鄰","STREET":"崇德十八街","SECT":" ","MAREA":" ","LANE":" ","ALLEY":" ","HOUSE_NO":"９號","E_COORD97":170867.13,"N_COORD97":2541040.4500000002,"ADDRESS":"崇德十八街９號","OBJECTID":541017},"geometry":{"x":170867.13000000082,"y":2541040.450000003}},{"attributes":{"ID":541045,"DIS_CODE":0,"TOWNNAME":"東區","LI":"泉南里","LIN":"28鄰","STREET":"長榮路","SECT":"一段","MAREA":" ","LANE":" ","ALLEY":" ","HOUSE_NO":"１２５號","E_COORD97":169771.79999999999,"N_COORD97":2542679.4100000001,"ADDRESS":"長榮路一段１２５號","OBJECTID":541018},"geometry":{"x":169771.79999999981,"y":2542679.410000002}},{"attributes":{"ID":541046,"DIS_CODE":0,"TOWNNAME":"東區","LI":"泉南里","LIN":"28鄰","STREET":"長榮路","SECT":"一段","MAREA":" ","LANE":" ","ALLEY":" ","HOUSE_NO":"１２７號","E_COORD97":169775.85999999999,"N_COORD97":2542687.5499999998,"ADDRESS":"長榮路一段１２７號","OBJECTID":541019},"geometry":{"x":169775.8600000022,"y":2542687.5500000007}},{"attributes":{"ID":541047,"DIS_CODE":0,"TOWNNAME":"東區","LI":"泉南里","LIN":"17鄰","STREET":"光華街","SECT":" ","MAREA":" ","LANE":" ","ALLEY":" ","HOUSE_NO":"１３１號","E_COORD97":169739.44,"N_COORD97":2542882.0899999999,"ADDRESS":"光華街１３１號","OBJECTID":541020},"geometry":{"x":169739.44000000041,"y":2542882.0900000017}},{"attributes":{"ID":541048,"DIS_CODE":0,"TOWNNAME":"學甲區","LI":"明宜里","LIN":"12鄰","STREET":"宮西路","SECT":" ","MAREA":" ","LANE":" ","ALLEY":" ","HOUSE_NO":"１４號","E_COORD97":166025.82999999999,"N_COORD97":2570432.4900000002,"ADDRESS":"宮西路１４號","OBJECTID":541021},"geometry":{"x":166025.83000000007,"y":2570432.4900000021}},{"attributes":{"ID":541049,"DIS_CODE":0,"TOWNNAME":"學甲區","LI":"明宜里","LIN":"12鄰","STREET":"宮西路","SECT":" ","MAREA":" ","LANE":" ","ALLEY":" ","HOUSE_NO":"１６號","E_COORD97":166006.95999999999,"N_COORD97":2570438.0299999998,"ADDRESS":"宮西路１６號","OBJECTID":541022},"geometry":{"x":166006.96000000089,"y":2570438.0300000031}},{"attributes":{"ID":541050,"DIS_CODE":0,"TOWNNAME":"學甲區","LI":"明宜里","LIN":"12鄰","STREET":"宮西路","SECT":" ","MAREA":" ","LANE":" ","ALLEY":" ","HOUSE_NO":"２號之１","E_COORD97":166074.70000000001,"N_COORD97":2570424.71,"ADDRESS":"宮西路２號之１","OBJECTID":541023},"geometry":{"x":166074.70000000112,"y":2570424.7100000046}},{"attributes":{"ID":541051,"DIS_CODE":0,"TOWNNAME":"學甲區","LI":"明宜里","LIN":"12鄰","STREET":"宮西路","SECT":" ","MAREA":" ","LANE":" ","ALLEY":" ","HOUSE_NO":"４號之１","E_COORD97":166066.54999999999,"N_COORD97":2570426.8500000001,"ADDRESS":"宮西路４號之１","OBJECTID":541024},"geometry":{"x":166066.54999999888,"y":2570426.8500000015}},{"attributes":{"ID":541052,"DIS_CODE":0,"TOWNNAME":"學甲區","LI":"明宜里","LIN":"12鄰","STREET":"宮西路","SECT":" ","MAREA":" ","LANE":" ","ALLEY":" ","HOUSE_NO":"４號","E_COORD97":166070.45999999999,"N_COORD97":2570425.73,"ADDRESS":"宮西路４號","OBJECTID":541025},"geometry":{"x":166070.45999999996,"y":2570425.7300000023}},{"attributes":{"ID":541053,"DIS_CODE":0,"TOWNNAME":"學甲區","LI":"明宜里","LIN":"12鄰","STREET":"宮西路","SECT":" ","MAREA":" ","LANE":" ","ALLEY":" ","HOUSE_NO":"６號之１","E_COORD97":166058.63,"N_COORD97":2570428.5600000001,"ADDRESS":"宮西路６號之１","OBJECTID":541026},"geometry":{"x":166058.62999999989,"y":2570428.5600000042}},{"attributes":{"ID":541054,"DIS_CODE":0,"TOWNNAME":"學甲區","LI":"明宜里","LIN":"12鄰","STREET":"宮西路","SECT":" ","MAREA":" ","LANE":" ","ALLEY":" ","HOUSE_NO":"６號","E_COORD97":166062.48000000001,"N_COORD97":2570427.5699999998,"ADDRESS":"宮西路６號","OBJECTID":541027},"geometry":{"x":166062.48000000045,"y":2570427.5700000003}},{"attributes":{"ID":541055,"DIS_CODE":0,"TOWNNAME":"東區","LI":"崇文里","LIN":"2鄰","STREET":"崇善路","SECT":" ","MAREA":" ","LANE":" ","ALLEY":" ","HOUSE_NO":"６０８號","E_COORD97":171117.75,"N_COORD97":2541113.4199999999,"ADDRESS":"崇善路６０８號","OBJECTID":541028},"geometry":{"x":171117.75000000093,"y":2541113.4200000018}},{"attributes":{"ID":541056,"DIS_CODE":0,"TOWNNAME":"東區","LI":"崇信里","LIN":"19鄰","STREET":"中華東路","SECT":"三段","MAREA":" ","LANE":" ","ALLEY":" ","HOUSE_NO":"１３０號","E_COORD97":170750.51000000001,"N_COORD97":2542134.54,"ADDRESS":"中華東路三段１３０號","OBJECTID":541029},"geometry":{"x":170750.50999999978,"y":2542134.5400000028}},{"attributes":{"ID":541057,"DIS_CODE":0,"TOWNNAME":"東區","LI":"仁和里","LIN":"12鄰","STREET":"自由路","SECT":"一段","MAREA":" ","LANE":" ","ALLEY":" ","HOUSE_NO":"２２５號","E_COORD97":171818.67000000001,"N_COORD97":2541202.8799999999,"ADDRESS":"自由路一段２２５號","OBJECTID":541030},"geometry":{"x":171818.66999999993,"y":2541202.879999999}},{"attributes":{"ID":541058,"DIS_CODE":0,"TOWNNAME":"學甲區","LI":"明宜里","LIN":"12鄰","STREET":"宮西路","SECT":" ","MAREA":" ","LANE":" ","ALLEY":" ","HOUSE_NO":"８號","E_COORD97":166055.03,"N_COORD97":2570429.2799999998,"ADDRESS":"宮西路８號","OBJECTID":541031},"geometry":{"x":166055.03000000026,"y":2570429.2800000031}},{"attributes":{"ID":541059,"DIS_CODE":0,"TOWNNAME":"學甲區","LI":"新達里","LIN":"12鄰","STREET":"興業路","SECT":" ","MAREA":" ","LANE":" ","ALLEY":" ","HOUSE_NO":"３６０號","E_COORD97":166999.53,"N_COORD97":2570904.4300000002,"ADDRESS":"興業路３６０號","OBJECTID":541032},"geometry":{"x":166999.52999999933,"y":2570904.4300000016}},{"attributes":{"ID":541060,"DIS_CODE":0,"TOWNNAME":"東區","LI":"後甲里","LIN":"28鄰","STREET":"裕永一街","SECT":" ","MAREA":" ","LANE":" ","ALLEY":" ","HOUSE_NO":"２５８號","E_COORD97":172731.20999999999,"N_COORD97":2543465.4700000002,"ADDRESS":"裕永一街２５８號","OBJECTID":541033},"geometry":{"x":172731.21000000183,"y":2543465.4700000007}},{"attributes":{"ID":541061,"DIS_CODE":0,"TOWNNAME":"東區","LI":"後甲里","LIN":"28鄰","STREET":"裕永一街","SECT":" ","MAREA":" ","LANE":" ","ALLEY":" ","HOUSE_NO":"２６２號","E_COORD97":172738.89999999999,"N_COORD97":2543466.3700000001,"ADDRESS":"裕永一街２６２號","OBJECTID":541034},"geometry":{"x":172738.90000000224,"y":2543466.370000001}},{"attributes":{"ID":541062,"DIS_CODE":0,"TOWNNAME":"東區","LI":"崇明里","LIN":"8鄰","STREET":"大同路","SECT":"二段","MAREA":" ","LANE":" ","ALLEY":" ","HOUSE_NO":"４０７號","E_COORD97":169526.60999999999,"N_COORD97":2541374.1200000001,"ADDRESS":"大同路二段４０７號","OBJECTID":541035},"geometry":{"x":169526.6099999994,"y":2541374.1200000029}},{"attributes":{"ID":541063,"DIS_CODE":0,"TOWNNAME":"學甲區","LI":"新達里","LIN":"12鄰","STREET":"興業路","SECT":" ","MAREA":" ","LANE":" ","ALLEY":" ","HOUSE_NO":"３６６號","E_COORD97":167056.67999999999,"N_COORD97":2570884.1400000001,"ADDRESS":"興業路３６６號","OBJECTID":541036},"geometry":{"x":167056.6799999997,"y":2570884.1400000025}},{"attributes":{"ID":541064,"DIS_CODE":0,"TOWNNAME":"學甲區","LI":"新達里","LIN":"12鄰","STREET":"興業路","SECT":" ","MAREA":" ","LANE":" ","ALLEY":" ","HOUSE_NO":"２３２號","E_COORD97":167693.98999999999,"N_COORD97":2570980.8700000001,"ADDRESS":"興業路２３２號","OBJECTID":541037},"geometry":{"x":167693.99000000115,"y":2570980.8700000029}},{"attributes":{"ID":541065,"DIS_CODE":0,"TOWNNAME":"學甲區","LI":"新達里","LIN":"12鄰","STREET":"大順路","SECT":" ","MAREA":" ","LANE":" ","ALLEY":" ","HOUSE_NO":"２１８號","E_COORD97":167114.78,"N_COORD97":2571343.73,"ADDRESS":"大順路２１８號","OBJECTID":541038},"geometry":{"x":167114.77999999933,"y":2571343.7300000023}},{"attributes":{"ID":541066,"DIS_CODE":0,"TOWNNAME":"學甲區","LI":"新達里","LIN":"12鄰","STREET":"大順路","SECT":" ","MAREA":" ","LANE":" ","ALLEY":" ","HOUSE_NO":"１２１號","E_COORD97":167057.51999999999,"N_COORD97":2571334.3900000001,"ADDRESS":"大順路１２１號","OBJECTID":541039},"geometry":{"x":167057.51999999955,"y":2571334.3900000006}},{"attributes":{"ID":541067,"DIS_CODE":0,"TOWNNAME":"學甲區","LI":"新達里","LIN":"12鄰","STREET":"大順路","SECT":" ","MAREA":" ","LANE":" ","ALLEY":" ","HOUSE_NO":"２２０號","E_COORD97":167111.57999999999,"N_COORD97":2571347.3900000001,"ADDRESS":"大順路２２０號","OBJECTID":541040},"geometry":{"x":167111.58000000101,"y":2571347.3900000006}},{"attributes":{"ID":541068,"DIS_CODE":0,"TOWNNAME":"學甲區","LI":"新達里","LIN":"12鄰","STREET":"大順路","SECT":" ","MAREA":" ","LANE":" ","ALLEY":" ","HOUSE_NO":"２２２號","E_COORD97":167108.38,"N_COORD97":2571351.0600000001,"ADDRESS":"大順路２２２號","OBJECTID":541041},"geometry":{"x":167108.37999999989,"y":2571351.0600000042}},{"attributes":{"ID":541069,"DIS_CODE":0,"TOWNNAME":"學甲區","LI":"新達里","LIN":"12鄰","STREET":"大順路","SECT":" ","MAREA":" ","LANE":" ","ALLEY":" ","HOUSE_NO":"２０２號","E_COORD97":167133.78,"N_COORD97":2571321.9399999999,"ADDRESS":"大順路２０２號","OBJECTID":541042},"geometry":{"x":167133.78000000119,"y":2571321.9399999995}},{"attributes":{"ID":541070,"DIS_CODE":0,"TOWNNAME":"學甲區","LI":"新達里","LIN":"12鄰","STREET":"大順路","SECT":" ","MAREA":" ","LANE":" ","ALLEY":" ","HOUSE_NO":"２０６號","E_COORD97":167130.57999999999,"N_COORD97":2571325.6000000001,"ADDRESS":"大順路２０６號","OBJECTID":541043},"geometry":{"x":167130.58000000007,"y":2571325.5999999996}},{"attributes":{"ID":541071,"DIS_CODE":0,"TOWNNAME":"學甲區","LI":"新達里","LIN":"12鄰","STREET":"大順路","SECT":" ","MAREA":" ","LANE":" ","ALLEY":" ","HOUSE_NO":"２０８號","E_COORD97":167127.38,"N_COORD97":2571329.27,"ADDRESS":"大順路２０８號","OBJECTID":541044},"geometry":{"x":167127.38000000175,"y":2571329.2700000014}},{"attributes":{"ID":541072,"DIS_CODE":0,"TOWNNAME":"學甲區","LI":"新達里","LIN":"12鄰","STREET":"大順路","SECT":" ","MAREA":" ","LANE":" ","ALLEY":" ","HOUSE_NO":"２１０號","E_COORD97":167124.17999999999,"N_COORD97":2571332.9300000002,"ADDRESS":"大順路２１０號","OBJECTID":541045},"geometry":{"x":167124.18000000063,"y":2571332.9299999997}},{"attributes":{"ID":541073,"DIS_CODE":0,"TOWNNAME":"學甲區","LI":"新達里","LIN":"12鄰","STREET":"大順路","SECT":" ","MAREA":" ","LANE":" ","ALLEY":" ","HOUSE_NO":"１０１號","E_COORD97":167092.12,"N_COORD97":2571089.0800000001,"ADDRESS":"大順路１０１號","OBJECTID":541046},"geometry":{"x":167092.12000000197,"y":2571089.0800000038}},{"attributes":{"ID":541074,"DIS_CODE":0,"TOWNNAME":"學甲區","LI":"新達里","LIN":"12鄰","STREET":"興業路","SECT":" ","MAREA":" ","LANE":" ","ALLEY":" ","HOUSE_NO":"２３０號","E_COORD97":167162.29000000001,"N_COORD97":2571352.1800000002,"ADDRESS":"興業路２３０號","OBJECTID":541047},"geometry":{"x":167162.29000000097,"y":2571352.1799999997}},{"attributes":{"ID":541075,"DIS_CODE":0,"TOWNNAME":"東區","LI":"龍山里","LIN":"20鄰","STREET":"崇學路","SECT":" ","MAREA":" ","LANE":" ","ALLEY":" ","HOUSE_NO":"１９７號","E_COORD97":170411.12,"N_COORD97":2542346.5899999999,"ADDRESS":"崇學路１９７號","OBJECTID":541048},"geometry":{"x":170411.12000000011,"y":2542346.5900000017}},{"attributes":{"ID":541076,"DIS_CODE":0,"TOWNNAME":"東區","LI":"後甲里","LIN":"33鄰","STREET":"小東路","SECT":" ","MAREA":" ","LANE":" ","ALLEY":" ","HOUSE_NO":"５９０號","E_COORD97":171944.12,"N_COORD97":2544289.8399999999,"ADDRESS":"小東路５９０號","OBJECTID":541049},"geometry":{"x":171944.12000000104,"y":2544289.8400000036}},{"attributes":{"ID":541077,"DIS_CODE":0,"TOWNNAME":"學甲區","LI":"新達里","LIN":"12鄰","STREET":"興業路","SECT":" ","MAREA":" ","LANE":" ","ALLEY":" ","HOUSE_NO":"９９號","E_COORD97":167364.76000000001,"N_COORD97":2571332.3599999999,"ADDRESS":"興業路９９號","OBJECTID":541050},"geometry":{"x":167364.75999999978,"y":2571332.3600000013}},{"attributes":{"ID":541078,"DIS_CODE":0,"TOWNNAME":"學甲區","LI":"新達里","LIN":"12鄰","STREET":"大順路","SECT":" ","MAREA":" ","LANE":" ","ALLEY":" ","HOUSE_NO":"９２號","E_COORD97":167340.81,"N_COORD97":2570897.1000000001,"ADDRESS":"大順路９２號","OBJECTID":541051},"geometry":{"x":167340.80999999959,"y":2570897.0999999996}},{"attributes":{"ID":541079,"DIS_CODE":0,"TOWNNAME":"北區","LI":"和順里","LIN":"12鄰","STREET":"民德路","SECT":" ","MAREA":" ","LANE":" ","ALLEY":" ","HOUSE_NO":"１０７號","E_COORD97":168163.91,"N_COORD97":2545171.7999999998,"ADDRESS":"民德路１０７號","OBJECTID":541052},"geometry":{"x":168163.91000000108,"y":2545171.8000000007}},{"attributes":{"ID":541080,"DIS_CODE":0,"TOWNNAME":"歸仁區","LI":"南興里","LIN":"12鄰","STREET":"南興街","SECT":" ","MAREA":" ","LANE":" ","ALLEY":" ","HOUSE_NO":"８５號","E_COORD97":175904.34,"N_COORD97":2541378.25,"ADDRESS":"南興街８５號","OBJECTID":541053},"geometry":{"x":175904.34000000078,"y":2541378.2500000037}},{"attributes":{"ID":541081,"DIS_CODE":0,"TOWNNAME":"北區","LI":"和順里","LIN":"12鄰","STREET":"民德路","SECT":" ","MAREA":" ","LANE":" ","ALLEY":" ","HOUSE_NO":"１０９號","E_COORD97":168159.47,"N_COORD97":2545177,"ADDRESS":"民德路１０９號","OBJECTID":541054},"geometry":{"x":168159.47000000067,"y":2545177.0000000037}},{"attributes":{"ID":541082,"DIS_CODE":0,"TOWNNAME":"北區","LI":"和順里","LIN":"12鄰","STREET":"民德路","SECT":" ","MAREA":" ","LANE":" ","ALLEY":" ","HOUSE_NO":"１１１號","E_COORD97":168146.54000000001,"N_COORD97":2545183.5600000001,"ADDRESS":"民德路１１１號","OBJECTID":541055},"geometry":{"x":168146.54000000004,"y":2545183.5600000005}},{"attributes":{"ID":541083,"DIS_CODE":0,"TOWNNAME":"北區","LI":"和順里","LIN":"12鄰","STREET":"民德路","SECT":" ","MAREA":" ","LANE":" ","ALLEY":" ","HOUSE_NO":"１１３號","E_COORD97":168143.45999999999,"N_COORD97":2545189.3399999999,"ADDRESS":"民德路１１３號","OBJECTID":541056},"geometry":{"x":168143.45999999996,"y":2545189.3400000017}},{"attributes":{"ID":541084,"DIS_CODE":0,"TOWNNAME":"東區","LI":"南聖里","LIN":"10鄰","STREET":"裕和路","SECT":" ","MAREA":" ","LANE":" ","ALLEY":" ","HOUSE_NO":"２０１號","E_COORD97":172355.04999999999,"N_COORD97":2543145.9300000002,"ADDRESS":"裕和路２０１號","OBJECTID":541057},"geometry":{"x":172355.04999999981,"y":2543145.9299999997}},{"attributes":{"ID":541085,"DIS_CODE":0,"TOWNNAME":"東區","LI":"南聖里","LIN":"10鄰","STREET":"裕和路","SECT":" ","MAREA":" ","LANE":" ","ALLEY":" ","HOUSE_NO":"２０５號","E_COORD97":172364.72,"N_COORD97":2543145.29,"ADDRESS":"裕和路２０５號","OBJECTID":541058},"geometry":{"x":172364.7200000016,"y":2543145.2899999991}},{"attributes":{"ID":541086,"DIS_CODE":0,"TOWNNAME":"歸仁區","LI":"八甲里","LIN":"12鄰","STREET":"大明街","SECT":" ","MAREA":" ","LANE":" ","ALLEY":" ","HOUSE_NO":"７３號","E_COORD97":177924.07000000001,"N_COORD97":2541874.6099999999,"ADDRESS":"大明街７３號","OBJECTID":541059},"geometry":{"x":177924.0700000003,"y":2541874.6100000013}},{"attributes":{"ID":541087,"DIS_CODE":0,"TOWNNAME":"北區","LI":"文元里","LIN":"12鄰","STREET":"文賢路","SECT":" ","MAREA":" ","LANE":" ","ALLEY":" ","HOUSE_NO":"１１６６號","E_COORD97":167328.73999999999,"N_COORD97":2546425.1200000001,"ADDRESS":"文賢路１１６６號","OBJECTID":541060},"geometry":{"x":167328.74000000209,"y":2546425.1200000048}},{"attributes":{"ID":541088,"DIS_CODE":0,"TOWNNAME":"北區","LI":"文元里","LIN":"12鄰","STREET":"文賢路","SECT":" ","MAREA":" ","LANE":" ","ALLEY":" ","HOUSE_NO":"１１６２號","E_COORD97":167331.22,"N_COORD97":2546413.0299999998,"ADDRESS":"文賢路１１６２號","OBJECTID":541061},"geometry":{"x":167331.21999999974,"y":2546413.0299999993}},{"attributes":{"ID":541089,"DIS_CODE":0,"TOWNNAME":"歸仁區","LI":"八甲里","LIN":"12鄰","STREET":"大光街","SECT":" ","MAREA":" ","LANE":" ","ALLEY":" ","HOUSE_NO":"１３１號","E_COORD97":177978.92000000001,"N_COORD97":2541921.6099999999,"ADDRESS":"大光街１３１號","OBJECTID":541062},"geometry":{"x":177978.91999999993,"y":2541921.6100000013}},{"attributes":{"ID":541090,"DIS_CODE":0,"TOWNNAME":"歸仁區","LI":"看東里","LIN":"12鄰","STREET":"忠孝南路","SECT":" ","MAREA":" ","LANE":" ","ALLEY":" ","HOUSE_NO":"９１號","E_COORD97":178535.07999999999,"N_COORD97":2540418.29,"ADDRESS":"忠孝南路９１號","OBJECTID":541063},"geometry":{"x":178535.08000000101,"y":2540418.290000001}},{"attributes":{"ID":541091,"DIS_CODE":0,"TOWNNAME":"歸仁區","LI":"六甲里","LIN":"12鄰","STREET":"中正南路","SECT":"一段","MAREA":" ","LANE":" ","ALLEY":" ","HOUSE_NO":"２４９２號","E_COORD97":175474.66,"N_COORD97":2537414.2799999998,"ADDRESS":"中正南路一段２４９２號","OBJECTID":541064},"geometry":{"x":175474.66000000201,"y":2537414.2800000012}},{"attributes":{"ID":541092,"DIS_CODE":0,"TOWNNAME":"歸仁區","LI":"崙頂里","LIN":"12鄰","STREET":"成功路","SECT":"二段","MAREA":" ","LANE":" ","ALLEY":" ","HOUSE_NO":"１５５號","E_COORD97":177936.67999999999,"N_COORD97":2539683.25,"ADDRESS":"成功路二段１５５號","OBJECTID":541065},"geometry":{"x":177936.6799999997,"y":2539683.2500000019}},{"attributes":{"ID":541093,"DIS_CODE":0,"TOWNNAME":"歸仁區","LI":"南興里","LIN":"12鄰","STREET":"南興街","SECT":" ","MAREA":" ","LANE":" ","ALLEY":" ","HOUSE_NO":"１０３號","E_COORD97":175876.79000000001,"N_COORD97":2541353.25,"ADDRESS":"南興街１０３號","OBJECTID":541066},"geometry":{"x":175876.79000000004,"y":2541353.25}},{"attributes":{"ID":541094,"DIS_CODE":0,"TOWNNAME":"歸仁區","LI":"南興里","LIN":"12鄰","STREET":"南興街","SECT":" ","MAREA":" ","LANE":" ","ALLEY":" ","HOUSE_NO":"１１３號","E_COORD97":175877.69,"N_COORD97":2541331.25,"ADDRESS":"南興街１１３號","OBJECTID":541067},"geometry":{"x":175877.69000000041,"y":2541331.2500000019}},{"attributes":{"ID":541095,"DIS_CODE":0,"TOWNNAME":"歸仁區","LI":"南興里","LIN":"12鄰","STREET":"南興街","SECT":" ","MAREA":" ","LANE":" ","ALLEY":" ","HOUSE_NO":"９３號","E_COORD97":175875.64000000001,"N_COORD97":2541377.25,"ADDRESS":"南興街９３號","OBJECTID":541068},"geometry":{"x":175875.63999999966,"y":2541377.25}},{"attributes":{"ID":541096,"DIS_CODE":0,"TOWNNAME":"歸仁區","LI":"大廟里","LIN":"12鄰","STREET":"大廟六街","SECT":" ","MAREA":" ","LANE":" ","ALLEY":" ","HOUSE_NO":"５６號","E_COORD97":176096.97,"N_COORD97":2544201.25,"ADDRESS":"大廟六街５６號","OBJECTID":541069},"geometry":{"x":176096.96999999974,"y":2544201.25}},{"attributes":{"ID":541097,"DIS_CODE":0,"TOWNNAME":"歸仁區","LI":"大廟里","LIN":"12鄰","STREET":"保大路","SECT":"三段","MAREA":" ","LANE":" ","ALLEY":" ","HOUSE_NO":"１４６號","E_COORD97":176063.17000000001,"N_COORD97":2544123.2799999998,"ADDRESS":"保大路三段１４６號","OBJECTID":541070},"geometry":{"x":176063.17000000086,"y":2544123.2800000031}},{"attributes":{"ID":541098,"DIS_CODE":0,"TOWNNAME":"歸仁區","LI":"大廟里","LIN":"12鄰","STREET":"大廟六街","SECT":" ","MAREA":" ","LANE":" ","ALLEY":" ","HOUSE_NO":"５４之１號","E_COORD97":176087.17000000001,"N_COORD97":2544206.2999999998,"ADDRESS":"大廟六街５４之１號","OBJECTID":541071},"geometry":{"x":176087.16999999993,"y":2544206.3000000045}},{"attributes":{"ID":541099,"DIS_CODE":0,"TOWNNAME":"歸仁區","LI":"大廟里","LIN":"12鄰","STREET":"保大路","SECT":"三段","MAREA":" ","LANE":" ","ALLEY":" ","HOUSE_NO":"１３０號","E_COORD97":176097.97,"N_COORD97":2544121.2799999998,"ADDRESS":"保大路三段１３０號","OBJECTID":541072},"geometry":{"x":176097.97000000067,"y":2544121.2800000012}},{"attributes":{"ID":541100,"DIS_CODE":0,"TOWNNAME":"歸仁區","LI":"大廟里","LIN":"12鄰","STREET":"大廟六街","SECT":" ","MAREA":" ","LANE":" ","ALLEY":" ","HOUSE_NO":"４２號","E_COORD97":176051.48000000001,"N_COORD97":2544217.79,"ADDRESS":"大廟六街４２號","OBJECTID":541073},"geometry":{"x":176051.48000000138,"y":2544217.7899999972}},{"attributes":{"ID":541101,"DIS_CODE":0,"TOWNNAME":"歸仁區","LI":"八甲里","LIN":"12鄰","STREET":"大明街","SECT":" ","MAREA":" ","LANE":" ","ALLEY":" ","HOUSE_NO":"７９號","E_COORD97":177939.67000000001,"N_COORD97":2541907.6099999999,"ADDRESS":"大明街７９號","OBJECTID":541074},"geometry":{"x":177939.67000000086,"y":2541907.6100000013}},{"attributes":{"ID":541102,"DIS_CODE":0,"TOWNNAME":"歸仁區","LI":"七甲里","LIN":"12鄰","STREET":"丁厝街","SECT":" ","MAREA":" ","LANE":" ","ALLEY":" ","HOUSE_NO":"３２號","E_COORD97":176057.09,"N_COORD97":2541984.25,"ADDRESS":"丁厝街３２號","OBJECTID":541075},"geometry":{"x":176057.08999999985,"y":2541984.25}},{"attributes":{"ID":541103,"DIS_CODE":0,"TOWNNAME":"楠西區","LI":"東勢里","LIN":"12鄰","STREET":"仁愛路","SECT":" ","MAREA":" ","LANE":" ","ALLEY":" ","HOUSE_NO":"８０號","E_COORD97":197511.64000000001,"N_COORD97":2563890.2799999998,"ADDRESS":"仁愛路８０號","OBJECTID":541076},"geometry":{"x":197511.64000000153,"y":2563890.2800000012}},{"attributes":{"ID":541104,"DIS_CODE":0,"TOWNNAME":"歸仁區","LI":"大潭里","LIN":"12鄰","STREET":"長榮路","SECT":"一段","MAREA":" ","LANE":" ","ALLEY":" ","HOUSE_NO":"１８７號","E_COORD97":175019.06,"N_COORD97":2534562.2799999998,"ADDRESS":"長榮路一段１８７號","OBJECTID":541077},"geometry":{"x":175019.06000000052,"y":2534562.2799999975}},{"attributes":{"ID":541105,"DIS_CODE":0,"TOWNNAME":"東區","LI":"後甲里","LIN":"28鄰","STREET":"裕永路","SECT":" ","MAREA":" ","LANE":" ","ALLEY":" ","HOUSE_NO":"２８號","E_COORD97":172206.26999999999,"N_COORD97":2543418.73,"ADDRESS":"裕永路２８號","OBJECTID":541078},"geometry":{"x":172206.26999999955,"y":2543418.7300000004}},{"attributes":{"ID":541106,"DIS_CODE":0,"TOWNNAME":"歸仁區","LI":"大廟里","LIN":"12鄰","STREET":"保大路","SECT":"三段","MAREA":" ","LANE":" ","ALLEY":" ","HOUSE_NO":"１１２號","E_COORD97":176141.97,"N_COORD97":2544106.2799999998,"ADDRESS":"保大路三段１１２號","OBJECTID":541079},"geometry":{"x":176141.97000000067,"y":2544106.2800000031}},{"attributes":{"ID":541107,"DIS_CODE":0,"TOWNNAME":"楠西區","LI":"楠西里","LIN":"12鄰","STREET":"中正路","SECT":" ","MAREA":" ","LANE":" ","ALLEY":" ","HOUSE_NO":"２１號","E_COORD97":197108.31,"N_COORD97":2564105.25,"ADDRESS":"中正路２１號","OBJECTID":541080},"geometry":{"x":197108.30999999959,"y":2564105.2500000019}},{"attributes":{"ID":541108,"DIS_CODE":0,"TOWNNAME":"楠西區","LI":"東勢里","LIN":"12鄰","STREET":"仁愛路","SECT":" ","MAREA":" ","LANE":" ","ALLEY":" ","HOUSE_NO":"５２號","E_COORD97":197560.73999999999,"N_COORD97":2563868.2799999998,"ADDRESS":"仁愛路５２號","OBJECTID":541081},"geometry":{"x":197560.74000000209,"y":2563868.2799999993}},{"attributes":{"ID":541109,"DIS_CODE":0,"TOWNNAME":"楠西區","LI":"楠西里","LIN":"12鄰","STREET":"中正路","SECT":" ","MAREA":" ","LANE":" ","ALLEY":" ","HOUSE_NO":"２５號","E_COORD97":197132.20999999999,"N_COORD97":2564102.25,"ADDRESS":"中正路２５號","OBJECTID":541082},"geometry":{"x":197132.21000000089,"y":2564102.25}},{"attributes":{"ID":541110,"DIS_CODE":0,"TOWNNAME":"楠西區","LI":"楠西里","LIN":"12鄰","STREET":"中正路","SECT":" ","MAREA":" ","LANE":" ","ALLEY":" ","HOUSE_NO":"１９號","E_COORD97":197105.60999999999,"N_COORD97":2564105.25,"ADDRESS":"中正路１９號","OBJECTID":541083},"geometry":{"x":197105.6099999994,"y":2564105.2500000019}},{"attributes":{"ID":541111,"DIS_CODE":0,"TOWNNAME":"楠西區","LI":"東勢里","LIN":"12鄰","STREET":"信義路","SECT":" ","MAREA":" ","LANE":" ","ALLEY":" ","HOUSE_NO":"１８９號","E_COORD97":197647.47,"N_COORD97":2563876.27,"ADDRESS":"信義路１８９號","OBJECTID":541084},"geometry":{"x":197647.47000000067,"y":2563876.2700000033}},{"attributes":{"ID":541112,"DIS_CODE":0,"TOWNNAME":"楠西區","LI":"東勢里","LIN":"12鄰","STREET":"信義路","SECT":" ","MAREA":" ","LANE":" ","ALLEY":" ","HOUSE_NO":"２０１號","E_COORD97":197654.97,"N_COORD97":2563906.27,"ADDRESS":"信義路２０１號","OBJECTID":541085},"geometry":{"x":197654.96999999974,"y":2563906.2699999977}},{"attributes":{"ID":541113,"DIS_CODE":0,"TOWNNAME":"楠西區","LI":"楠西里","LIN":"12鄰","STREET":"中正路","SECT":" ","MAREA":" ","LANE":" ","ALLEY":" ","HOUSE_NO":"１５號","E_COORD97":197085.60999999999,"N_COORD97":2564122.25,"ADDRESS":"中正路１５號","OBJECTID":541086},"geometry":{"x":197085.61000000127,"y":2564122.2500000019}},{"attributes":{"ID":541114,"DIS_CODE":0,"TOWNNAME":"楠西區","LI":"楠西里","LIN":"12鄰","STREET":"中華路","SECT":" ","MAREA":" ","LANE":" ","ALLEY":" ","HOUSE_NO":"１０５號","E_COORD97":197121.45999999999,"N_COORD97":2564173.25,"ADDRESS":"中華路１０５號","OBJECTID":541087},"geometry":{"x":197121.45999999996,"y":2564173.2500000019}},{"attributes":{"ID":541115,"DIS_CODE":0,"TOWNNAME":"楠西區","LI":"楠西里","LIN":"12鄰","STREET":"中華路","SECT":" ","MAREA":" ","LANE":" ","ALLEY":" ","HOUSE_NO":"１１１號","E_COORD97":197111.45999999999,"N_COORD97":2564174.25,"ADDRESS":"中華路１１１號","OBJECTID":541088},"geometry":{"x":197111.46000000183,"y":2564174.25}},{"attributes":{"ID":541116,"DIS_CODE":0,"TOWNNAME":"東區","LI":"圍下里","LIN":"24鄰","STREET":"北門路","SECT":"一段","MAREA":" ","LANE":" ","ALLEY":" ","HOUSE_NO":"１２６之１號","E_COORD97":169194.5,"N_COORD97":2543671.9199999999,"ADDRESS":"北門路一段１２６之１號","OBJECTID":541089},"geometry":{"x":169194.5,"y":2543671.9199999981}},{"attributes":{"ID":541117,"DIS_CODE":0,"TOWNNAME":"新營區","LI":"王公里","LIN":"12鄰","STREET":"義和街","SECT":" ","MAREA":" ","LANE":" ","ALLEY":" ","HOUSE_NO":"５之４號","E_COORD97":180462.57999999999,"N_COORD97":2579044.5899999999,"ADDRESS":"義和街５之４號","OBJECTID":541090},"geometry":{"x":180462.58000000101,"y":2579044.5899999999}},{"attributes":{"ID":541118,"DIS_CODE":0,"TOWNNAME":"新營區","LI":"民榮里","LIN":"12鄰","STREET":"興農街","SECT":" ","MAREA":" ","LANE":" ","ALLEY":" ","HOUSE_NO":"４０之３號","E_COORD97":179238.26999999999,"N_COORD97":2577914.1400000001,"ADDRESS":"興農街４０之３號","OBJECTID":541091},"geometry":{"x":179238.27000000142,"y":2577914.1400000043}},{"attributes":{"ID":541119,"DIS_CODE":0,"TOWNNAME":"新營區","LI":"南興里","LIN":"12鄰","STREET":"建業路","SECT":" ","MAREA":" ","LANE":" ","ALLEY":" ","HOUSE_NO":"９０號","E_COORD97":179311.39000000001,"N_COORD97":2577494.0099999998,"ADDRESS":"建業路９０號","OBJECTID":541092},"geometry":{"x":179311.38999999966,"y":2577494.0100000035}},{"attributes":{"ID":541120,"DIS_CODE":0,"TOWNNAME":"新營區","LI":"民生里","LIN":"12鄰","STREET":"復興路","SECT":" ","MAREA":" ","LANE":" ","ALLEY":" ","HOUSE_NO":"２１０之６號","E_COORD97":179034.60999999999,"N_COORD97":2578061.2999999998,"ADDRESS":"復興路２１０之６號","OBJECTID":541093},"geometry":{"x":179034.61000000034,"y":2578061.3000000007}},{"attributes":{"ID":541121,"DIS_CODE":0,"TOWNNAME":"新營區","LI":"延平里","LIN":"12鄰","STREET":"忠義街","SECT":" ","MAREA":" ","LANE":" ","ALLEY":" ","HOUSE_NO":"２號","E_COORD97":179632.451933,"N_COORD97":2577996.5281400001,"ADDRESS":"忠義街２號","OBJECTID":541094},"geometry":{"x":179632.4519330021,"y":2577996.5281389989}},{"attributes":{"ID":541122,"DIS_CODE":0,"TOWNNAME":"新營區","LI":"中營里","LIN":"12鄰","STREET":"東山路","SECT":" ","MAREA":" ","LANE":" ","ALLEY":" ","HOUSE_NO":"２８號之２","E_COORD97":181069.32999999999,"N_COORD97":2578639.75,"ADDRESS":"東山路２８號之２","OBJECTID":541095},"geometry":{"x":181069.33000000101,"y":2578639.7500000019}},{"attributes":{"ID":541123,"DIS_CODE":0,"TOWNNAME":"新營區","LI":"新北里","LIN":"12鄰","STREET":"南新街","SECT":" ","MAREA":" ","LANE":" ","ALLEY":" ","HOUSE_NO":"１６０之１號","E_COORD97":179312.89999999999,"N_COORD97":2578947.0499999998,"ADDRESS":"南新街１６０之１號","OBJECTID":541096},"geometry":{"x":179312.90000000224,"y":2578947.0500000026}},{"attributes":{"ID":541124,"DIS_CODE":0,"TOWNNAME":"新營區","LI":"新北里","LIN":"12鄰","STREET":"南新街","SECT":" ","MAREA":" ","LANE":" ","ALLEY":" ","HOUSE_NO":"１８號","E_COORD97":179359.73999999999,"N_COORD97":2578831.5800000001,"ADDRESS":"南新街１８號","OBJECTID":541097},"geometry":{"x":179359.74000000115,"y":2578831.5800000001}},{"attributes":{"ID":541125,"DIS_CODE":0,"TOWNNAME":"新營區","LI":"民生里","LIN":"12鄰","STREET":"復興路","SECT":" ","MAREA":" ","LANE":" ","ALLEY":" ","HOUSE_NO":"２０２號","E_COORD97":179042.23999999999,"N_COORD97":2578040.1699999999,"ADDRESS":"復興路２０２號","OBJECTID":541098},"geometry":{"x":179042.24000000022,"y":2578040.1700000018}},{"attributes":{"ID":541126,"DIS_CODE":0,"TOWNNAME":"新營區","LI":"新南里","LIN":"12鄰","STREET":"新北七街","SECT":" ","MAREA":" ","LANE":" ","ALLEY":" ","HOUSE_NO":"２４號","E_COORD97":178526.95000000001,"N_COORD97":2579197.71,"ADDRESS":"新北七街２４號","OBJECTID":541099},"geometry":{"x":178526.95000000019,"y":2579197.7100000009}},{"attributes":{"ID":541127,"DIS_CODE":0,"TOWNNAME":"新營區","LI":"延平里","LIN":"12鄰","STREET":"復興路","SECT":" ","MAREA":" ","LANE":" ","ALLEY":" ","HOUSE_NO":"５５號","E_COORD97":179626.730003,"N_COORD97":2578019.9139899998,"ADDRESS":"復興路５５號","OBJECTID":541100},"geometry":{"x":179626.73000300117,"y":2578019.9139860012}},{"attributes":{"ID":541128,"DIS_CODE":0,"TOWNNAME":"新營區","LI":"忠政里","LIN":"12鄰","STREET":"中正路","SECT":" ","MAREA":" ","LANE":" ","ALLEY":" ","HOUSE_NO":"５７之５０號","E_COORD97":180065.53,"N_COORD97":2579554.79,"ADDRESS":"中正路５７之５０號","OBJECTID":541101},"geometry":{"x":180065.53000000026,"y":2579554.7899999991}},{"attributes":{"ID":541129,"DIS_CODE":0,"TOWNNAME":"新營區","LI":"大宏里","LIN":"12鄰","STREET":"綠川路","SECT":" ","MAREA":" ","LANE":" ","ALLEY":" ","HOUSE_NO":"１６號","E_COORD97":180858.17000000001,"N_COORD97":2578825.6200000001,"ADDRESS":"綠川路１６號","OBJECTID":541102},"geometry":{"x":180858.17000000179,"y":2578825.620000001}},{"attributes":{"ID":541130,"DIS_CODE":0,"TOWNNAME":"新營區","LI":"興安里","LIN":"12鄰","STREET":"新進路","SECT":" ","MAREA":" ","LANE":" ","ALLEY":" ","HOUSE_NO":"３７５號","E_COORD97":179806.94,"N_COORD97":2577730.8700000001,"ADDRESS":"新進路３７５號","OBJECTID":541103},"geometry":{"x":179806.94000000041,"y":2577730.8700000029}},{"attributes":{"ID":541131,"DIS_CODE":0,"TOWNNAME":"新營區","LI":"新東里","LIN":"12鄰","STREET":"東興六街","SECT":" ","MAREA":" ","LANE":" ","ALLEY":" ","HOUSE_NO":"２８號","E_COORD97":180847.69,"N_COORD97":2579216.2599999998,"ADDRESS":"東興六街２８號","OBJECTID":541104},"geometry":{"x":180847.69000000041,"y":2579216.2599999998}},{"attributes":{"ID":541132,"DIS_CODE":0,"TOWNNAME":"新營區","LI":"好平里","LIN":"12鄰","STREET":"復興路","SECT":" ","MAREA":" ","LANE":" ","ALLEY":" ","HOUSE_NO":"１１７號","E_COORD97":179452.14999999999,"N_COORD97":2577997.2400000002,"ADDRESS":"復興路１１７號","OBJECTID":541105},"geometry":{"x":179452.1500000013,"y":2577997.2400000002}},{"attributes":{"ID":541133,"DIS_CODE":0,"TOWNNAME":"新營區","LI":"新北里","LIN":"12鄰","STREET":"南新街","SECT":" ","MAREA":" ","LANE":" ","ALLEY":" ","HOUSE_NO":"１６８號","E_COORD97":179325.76999999999,"N_COORD97":2578953.5699999998,"ADDRESS":"南新街１６８號","OBJECTID":541106},"geometry":{"x":179325.76999999955,"y":2578953.5700000003}},{"attributes":{"ID":541134,"DIS_CODE":0,"TOWNNAME":"新營區","LI":"民榮里","LIN":"12鄰","STREET":"興農街","SECT":" ","MAREA":" ","LANE":" ","ALLEY":" ","HOUSE_NO":"７１號","E_COORD97":179266.81,"N_COORD97":2577784.3700000001,"ADDRESS":"興農街７１號","OBJECTID":541107},"geometry":{"x":179266.81000000145,"y":2577784.3700000048}},{"attributes":{"ID":541135,"DIS_CODE":0,"TOWNNAME":"新營區","LI":"新北里","LIN":"12鄰","STREET":"南新街","SECT":" ","MAREA":" ","LANE":" ","ALLEY":" ","HOUSE_NO":"３８號","E_COORD97":179350.82000000001,"N_COORD97":2578871.4900000002,"ADDRESS":"南新街３８號","OBJECTID":541108},"geometry":{"x":179350.82000000123,"y":2578871.4900000021}},{"attributes":{"ID":541136,"DIS_CODE":0,"TOWNNAME":"新營區","LI":"新北里","LIN":"12鄰","STREET":"南新街","SECT":" ","MAREA":" ","LANE":" ","ALLEY":" ","HOUSE_NO":"１６４號","E_COORD97":179325.76999999999,"N_COORD97":2578953.5699999998,"ADDRESS":"南新街１６４號","OBJECTID":541109},"geometry":{"x":179325.76999999955,"y":2578953.5700000003}},{"attributes":{"ID":541137,"DIS_CODE":0,"TOWNNAME":"新營區","LI":"民榮里","LIN":"12鄰","STREET":"興農街","SECT":" ","MAREA":" ","LANE":" ","ALLEY":" ","HOUSE_NO":"４２之１０號","E_COORD97":179210.82999999999,"N_COORD97":2577904.3100000001,"ADDRESS":"興農街４２之１０號","OBJECTID":541110},"geometry":{"x":179210.83000000007,"y":2577904.3100000024}},{"attributes":{"ID":541138,"DIS_CODE":0,"TOWNNAME":"新營區","LI":"民榮里","LIN":"12鄰","STREET":"興農街","SECT":" ","MAREA":" ","LANE":" ","ALLEY":" ","HOUSE_NO":"４２之７號","E_COORD97":179221.85999999999,"N_COORD97":2577905.3599999999,"ADDRESS":"興農街４２之７號","OBJECTID":541111},"geometry":{"x":179221.86000000127,"y":2577905.3600000013}},{"attributes":{"ID":541139,"DIS_CODE":0,"TOWNNAME":"新營區","LI":"民榮里","LIN":"12鄰","STREET":"興農街","SECT":" ","MAREA":" ","LANE":" ","ALLEY":" ","HOUSE_NO":"４０之６號","E_COORD97":179225.98999999999,"N_COORD97":2577914.2000000002,"ADDRESS":"興農街４０之６號","OBJECTID":541112},"geometry":{"x":179225.99000000115,"y":2577914.1999999993}},{"attributes":{"ID":541140,"DIS_CODE":0,"TOWNNAME":"新營區","LI":"新東里","LIN":"12鄰","STREET":"東興六街","SECT":" ","MAREA":" ","LANE":" ","ALLEY":" ","HOUSE_NO":"３６號","E_COORD97":180863.87,"N_COORD97":2579217.3999999999,"ADDRESS":"東興六街３６號","OBJECTID":541113},"geometry":{"x":180863.87000000197,"y":2579217.4000000041}},{"attributes":{"ID":541141,"DIS_CODE":0,"TOWNNAME":"新營區","LI":"民生里","LIN":"12鄰","STREET":"復興路","SECT":" ","MAREA":" ","LANE":" ","ALLEY":" ","HOUSE_NO":"２１０之７號","E_COORD97":179042.79999999999,"N_COORD97":2578063.48,"ADDRESS":"復興路２１０之７號","OBJECTID":541114},"geometry":{"x":179042.79999999981,"y":2578063.4800000004}},{"attributes":{"ID":541142,"DIS_CODE":0,"TOWNNAME":"新營區","LI":"王公里","LIN":"12鄰","STREET":"義和街","SECT":" ","MAREA":" ","LANE":" ","ALLEY":" ","HOUSE_NO":"３之６號","E_COORD97":180509.79000000001,"N_COORD97":2579062.0800000001,"ADDRESS":"義和街３之６號","OBJECTID":541115},"geometry":{"x":180509.79000000004,"y":2579062.0800000001}},{"attributes":{"ID":541143,"DIS_CODE":0,"TOWNNAME":"新營區","LI":"民榮里","LIN":"12鄰","STREET":"興農街","SECT":" ","MAREA":" ","LANE":" ","ALLEY":" ","HOUSE_NO":"９０號","E_COORD97":179255.5,"N_COORD97":2577784.4199999999,"ADDRESS":"興農街９０號","OBJECTID":541116},"geometry":{"x":179255.5,"y":2577784.4199999999}},{"attributes":{"ID":541144,"DIS_CODE":0,"TOWNNAME":"新營區","LI":"新北里","LIN":"12鄰","STREET":"民治路","SECT":" ","MAREA":" ","LANE":" ","ALLEY":" ","HOUSE_NO":"１２４號","E_COORD97":179404.79999999999,"N_COORD97":2578794.8199999998,"ADDRESS":"民治路１２４號","OBJECTID":541117},"geometry":{"x":179404.80000000075,"y":2578794.8200000022}},{"attributes":{"ID":541145,"DIS_CODE":0,"TOWNNAME":"東區","LI":"莊敬里","LIN":"25鄰","STREET":"東平路","SECT":" ","MAREA":" ","LANE":" ","ALLEY":" ","HOUSE_NO":"６０號","E_COORD97":171272.25,"N_COORD97":2543970.6299999999,"ADDRESS":"東平路６０號","OBJECTID":541118},"geometry":{"x":171272.25000000093,"y":2543970.629999999}},{"attributes":{"ID":541146,"DIS_CODE":0,"TOWNNAME":"東區","LI":"大智里","LIN":"19鄰","STREET":"崇善十四街","SECT":" ","MAREA":" ","LANE":" ","ALLEY":" ","HOUSE_NO":"１７號","E_COORD97":171337.82000000001,"N_COORD97":2540648.8900000001,"ADDRESS":"崇善十四街１７號","OBJECTID":541119},"geometry":{"x":171337.82000000123,"y":2540648.8900000043}},{"attributes":{"ID":541147,"DIS_CODE":0,"TOWNNAME":"南區","LI":"省躬里","LIN":"12鄰","STREET":"省躬二街","SECT":" ","MAREA":" ","LANE":" ","ALLEY":" ","HOUSE_NO":"１８號","E_COORD97":165729.39000000001,"N_COORD97":2537012.5600000001,"ADDRESS":"省躬二街１８號","OBJECTID":541120},"geometry":{"x":165729.3900000006,"y":2537012.5600000005}},{"attributes":{"ID":541148,"DIS_CODE":0,"TOWNNAME":"南區","LI":"省躬里","LIN":"12鄰","STREET":"省躬二街","SECT":" ","MAREA":" ","LANE":" ","ALLEY":" ","HOUSE_NO":"１０號","E_COORD97":165718.92999999999,"N_COORD97":2537052.3900000001,"ADDRESS":"省躬二街１０號","OBJECTID":541121},"geometry":{"x":165718.93000000063,"y":2537052.3900000025}},{"attributes":{"ID":541149,"DIS_CODE":0,"TOWNNAME":"南區","LI":"省躬里","LIN":"12鄰","STREET":"省躬二街","SECT":" ","MAREA":" ","LANE":" ","ALLEY":" ","HOUSE_NO":"１２號","E_COORD97":165720.57000000001,"N_COORD97":2537047.4900000002,"ADDRESS":"省躬二街１２號","OBJECTID":541122},"geometry":{"x":165720.5700000003,"y":2537047.4900000021}},{"attributes":{"ID":541150,"DIS_CODE":0,"TOWNNAME":"南區","LI":"省躬里","LIN":"12鄰","STREET":"省躬二街","SECT":" ","MAREA":" ","LANE":" ","ALLEY":" ","HOUSE_NO":"１４號","E_COORD97":165719.91,"N_COORD97":2537041.9399999999,"ADDRESS":"省躬二街１４號","OBJECTID":541123},"geometry":{"x":165719.91000000015,"y":2537041.9399999995}},{"attributes":{"ID":541151,"DIS_CODE":0,"TOWNNAME":"南區","LI":"省躬里","LIN":"12鄰","STREET":"省躬二街","SECT":" ","MAREA":" ","LANE":" ","ALLEY":" ","HOUSE_NO":"２號","E_COORD97":165713.17000000001,"N_COORD97":2537066.8399999999,"ADDRESS":"省躬二街２號","OBJECTID":541124},"geometry":{"x":165713.16999999993,"y":2537066.8399999999}},{"attributes":{"ID":541152,"DIS_CODE":0,"TOWNNAME":"南區","LI":"省躬里","LIN":"12鄰","STREET":"省躬二街","SECT":" ","MAREA":" ","LANE":" ","ALLEY":" ","HOUSE_NO":"６號","E_COORD97":165715.66,"N_COORD97":2537062.1800000002,"ADDRESS":"省躬二街６號","OBJECTID":541125},"geometry":{"x":165715.66000000108,"y":2537062.1800000034}},{"attributes":{"ID":541153,"DIS_CODE":0,"TOWNNAME":"南區","LI":"省躬里","LIN":"12鄰","STREET":"省躬二街","SECT":" ","MAREA":" ","LANE":" ","ALLEY":" ","HOUSE_NO":"８號","E_COORD97":165717.29999999999,"N_COORD97":2537056.6299999999,"ADDRESS":"省躬二街８號","OBJECTID":541126},"geometry":{"x":165717.29999999981,"y":2537056.6300000008}},{"attributes":{"ID":541154,"DIS_CODE":0,"TOWNNAME":"南區","LI":"省躬里","LIN":"12鄰","STREET":"省躬二街","SECT":" ","MAREA":" ","LANE":" ","ALLEY":" ","HOUSE_NO":"２０號","E_COORD97":165731.03,"N_COORD97":2537007.3300000001,"ADDRESS":"省躬二街２０號","OBJECTID":541127},"geometry":{"x":165731.03000000026,"y":2537007.3300000038}},{"attributes":{"ID":541155,"DIS_CODE":0,"TOWNNAME":"南區","LI":"省躬里","LIN":"12鄰","STREET":"省躬二街","SECT":" ","MAREA":" ","LANE":" ","ALLEY":" ","HOUSE_NO":"２２號","E_COORD97":165732.01000000001,"N_COORD97":2537003.4100000001,"ADDRESS":"省躬二街２２號","OBJECTID":541128},"geometry":{"x":165732.01000000071,"y":2537003.4100000039}},{"attributes":{"ID":541156,"DIS_CODE":0,"TOWNNAME":"南區","LI":"省躬里","LIN":"12鄰","STREET":"省躬二街","SECT":" ","MAREA":" ","LANE":" ","ALLEY":" ","HOUSE_NO":"２４號","E_COORD97":165733.97,"N_COORD97":2536998.1899999999,"ADDRESS":"省躬二街２４號","OBJECTID":541129},"geometry":{"x":165733.97000000067,"y":2536998.1900000013}},{"attributes":{"ID":541157,"DIS_CODE":0,"TOWNNAME":"南區","LI":"省躬里","LIN":"12鄰","STREET":"省躬橫街","SECT":" ","MAREA":" ","LANE":" ","ALLEY":" ","HOUSE_NO":"１８號","E_COORD97":165752.60999999999,"N_COORD97":2536962.3500000001,"ADDRESS":"省躬橫街１８號","OBJECTID":541130},"geometry":{"x":165752.61000000034,"y":2536962.3499999996}},{"attributes":{"ID":541158,"DIS_CODE":0,"TOWNNAME":"南區","LI":"省躬里","LIN":"12鄰","STREET":"省躬橫街","SECT":" ","MAREA":" ","LANE":" ","ALLEY":" ","HOUSE_NO":"２０號","E_COORD97":165749.01000000001,"N_COORD97":2536960.3900000001,"ADDRESS":"省躬橫街２０號","OBJECTID":541131},"geometry":{"x":165749.01000000071,"y":2536960.3900000025}},{"attributes":{"ID":541159,"DIS_CODE":0,"TOWNNAME":"南區","LI":"省躬里","LIN":"12鄰","STREET":"省躬橫街","SECT":" ","MAREA":" ","LANE":" ","ALLEY":" ","HOUSE_NO":"２２號","E_COORD97":165745.09,"N_COORD97":2536958.1000000001,"ADDRESS":"省躬橫街２２號","OBJECTID":541132},"geometry":{"x":165745.09000000078,"y":2536958.1000000015}},{"attributes":{"ID":541160,"DIS_CODE":0,"TOWNNAME":"南區","LI":"省躬里","LIN":"12鄰","STREET":"省躬橫街","SECT":" ","MAREA":" ","LANE":" ","ALLEY":" ","HOUSE_NO":"２４號","E_COORD97":165741.16,"N_COORD97":2536955.1699999999,"ADDRESS":"省躬橫街２４號","OBJECTID":541133},"geometry":{"x":165741.16000000108,"y":2536955.1700000018}},{"attributes":{"ID":541161,"DIS_CODE":0,"TOWNNAME":"南區","LI":"省躬里","LIN":"12鄰","STREET":"省躬橫街","SECT":" ","MAREA":" ","LANE":" ","ALLEY":" ","HOUSE_NO":"２６號","E_COORD97":165737.57000000001,"N_COORD97":2536951.25,"ADDRESS":"省躬橫街２６號","OBJECTID":541134},"geometry":{"x":165737.5700000003,"y":2536951.2500000019}},{"attributes":{"ID":541162,"DIS_CODE":0,"TOWNNAME":"南區","LI":"省躬里","LIN":"12鄰","STREET":"省躬橫街","SECT":" ","MAREA":" ","LANE":" ","ALLEY":" ","HOUSE_NO":"２８號","E_COORD97":165733.32000000001,"N_COORD97":2536948.96,"ADDRESS":"省躬橫街２８號","OBJECTID":541135},"geometry":{"x":165733.32000000123,"y":2536948.9600000009}},{"attributes":{"ID":541163,"DIS_CODE":0,"TOWNNAME":"南區","LI":"省躬里","LIN":"12鄰","STREET":"省躬橫街","SECT":" ","MAREA":" ","LANE":" ","ALLEY":" ","HOUSE_NO":"３０號","E_COORD97":165728.41,"N_COORD97":2536950.9199999999,"ADDRESS":"省躬橫街３０號","OBJECTID":541136},"geometry":{"x":165728.41000000015,"y":2536950.9199999999}},{"attributes":{"ID":541164,"DIS_CODE":0,"TOWNNAME":"南區","LI":"省躬里","LIN":"12鄰","STREET":"省躬橫街","SECT":" ","MAREA":" ","LANE":" ","ALLEY":" ","HOUSE_NO":"３２號","E_COORD97":165725.14000000001,"N_COORD97":2536947.98,"ADDRESS":"省躬橫街３２號","OBJECTID":541137},"geometry":{"x":165725.14000000153,"y":2536947.9800000004}},{"attributes":{"ID":541165,"DIS_CODE":0,"TOWNNAME":"南區","LI":"省躬里","LIN":"12鄰","STREET":"省躬橫街","SECT":" ","MAREA":" ","LANE":" ","ALLEY":" ","HOUSE_NO":"３４號","E_COORD97":165719.91,"N_COORD97":2536949.6200000001,"ADDRESS":"省躬橫街３４號","OBJECTID":541138},"geometry":{"x":165719.91000000015,"y":2536949.6200000029}},{"attributes":{"ID":541166,"DIS_CODE":0,"TOWNNAME":"南區","LI":"省躬里","LIN":"12鄰","STREET":"省躬橫街","SECT":" ","MAREA":" ","LANE":" ","ALLEY":" ","HOUSE_NO":"３６號","E_COORD97":165716.32000000001,"N_COORD97":2536946.6800000002,"ADDRESS":"省躬橫街３６號","OBJECTID":541139},"geometry":{"x":165716.32000000123,"y":2536946.6799999997}},{"attributes":{"ID":541167,"DIS_CODE":0,"TOWNNAME":"南區","LI":"省躬里","LIN":"12鄰","STREET":"省躬橫街","SECT":" ","MAREA":" ","LANE":" ","ALLEY":" ","HOUSE_NO":"３８號","E_COORD97":165710.76000000001,"N_COORD97":2536948.96,"ADDRESS":"省躬橫街３８號","OBJECTID":541140},"geometry":{"x":165710.75999999978,"y":2536948.9600000009}},{"attributes":{"ID":541168,"DIS_CODE":0,"TOWNNAME":"南區","LI":"省躬里","LIN":"12鄰","STREET":"省躬橫街","SECT":" ","MAREA":" ","LANE":" ","ALLEY":" ","HOUSE_NO":"４０號","E_COORD97":165706.51000000001,"N_COORD97":2536946.3500000001,"ADDRESS":"省躬橫街４０號","OBJECTID":541141},"geometry":{"x":165706.51000000071,"y":2536946.3500000015}},{"attributes":{"ID":541169,"DIS_CODE":0,"TOWNNAME":"南區","LI":"省躬里","LIN":"12鄰","STREET":"省躬橫街","SECT":" ","MAREA":" ","LANE":" ","ALLEY":" ","HOUSE_NO":"４２號","E_COORD97":165701.60000000001,"N_COORD97":2536943.7400000002,"ADDRESS":"省躬橫街４２號","OBJECTID":541142},"geometry":{"x":165701.60000000149,"y":2536943.7400000039}},{"attributes":{"ID":541170,"DIS_CODE":0,"TOWNNAME":"南區","LI":"省躬里","LIN":"12鄰","STREET":"省躬橫街","SECT":" ","MAREA":" ","LANE":" ","ALLEY":" ","HOUSE_NO":"４６號","E_COORD97":165697.35000000001,"N_COORD97":2536940.1499999999,"ADDRESS":"省躬橫街４６號","OBJECTID":541143},"geometry":{"x":165697.35000000056,"y":2536940.1500000004}},{"attributes":{"ID":541171,"DIS_CODE":0,"TOWNNAME":"南區","LI":"省躬里","LIN":"12鄰","STREET":"省躬橫街","SECT":" ","MAREA":" ","LANE":" ","ALLEY":" ","HOUSE_NO":"４８號","E_COORD97":165691.47,"N_COORD97":2536937.54,"ADDRESS":"省躬橫街４８號","OBJECTID":541144},"geometry":{"x":165691.47000000067,"y":2536937.540000001}},{"attributes":{"ID":541172,"DIS_CODE":0,"TOWNNAME":"南區","LI":"永寧里","LIN":"12鄰","STREET":"省躬三街","SECT":" ","MAREA":" ","LANE":" ","ALLEY":" ","HOUSE_NO":"２１５號","E_COORD97":165786.75,"N_COORD97":2536499.0800000001,"ADDRESS":"省躬三街２１５號","OBJECTID":541145},"geometry":{"x":165786.75,"y":2536499.0800000001}},{"attributes":{"ID":541173,"DIS_CODE":0,"TOWNNAME":"南區","LI":"永寧里","LIN":"12鄰","STREET":"省躬三街","SECT":" ","MAREA":" ","LANE":" ","ALLEY":" ","HOUSE_NO":"２２９號","E_COORD97":165785.23000000001,"N_COORD97":2536504.8500000001,"ADDRESS":"省躬三街２２９號","OBJECTID":541146},"geometry":{"x":165785.23000000138,"y":2536504.8499999978}},{"attributes":{"ID":541174,"DIS_CODE":0,"TOWNNAME":"南區","LI":"永寧里","LIN":"12鄰","STREET":"省躬三街","SECT":" ","MAREA":" ","LANE":" ","ALLEY":" ","HOUSE_NO":"２３１號","E_COORD97":165779.14999999999,"N_COORD97":2536523.3799999999,"ADDRESS":"省躬三街２３１號","OBJECTID":541147},"geometry":{"x":165779.1500000013,"y":2536523.379999999}},{"attributes":{"ID":541175,"DIS_CODE":0,"TOWNNAME":"南區","LI":"永寧里","LIN":"12鄰","STREET":"省躬三街","SECT":" ","MAREA":" ","LANE":" ","ALLEY":" ","HOUSE_NO":"２３１號之１","E_COORD97":165789.19,"N_COORD97":2536527.48,"ADDRESS":"省躬三街２３１號之１","OBJECTID":541148},"geometry":{"x":165789.19000000041,"y":2536527.4800000004}},{"attributes":{"ID":541176,"DIS_CODE":0,"TOWNNAME":"南區","LI":"永寧里","LIN":"12鄰","STREET":"省躬三街","SECT":" ","MAREA":" ","LANE":" ","ALLEY":" ","HOUSE_NO":"２３７號","E_COORD97":165776.10999999999,"N_COORD97":2536539.4100000001,"ADDRESS":"省躬三街２３７號","OBJECTID":541149},"geometry":{"x":165776.11000000034,"y":2536539.410000002}},{"attributes":{"ID":541177,"DIS_CODE":0,"TOWNNAME":"南區","LI":"永寧里","LIN":"12鄰","STREET":"省躬三街","SECT":" ","MAREA":" ","LANE":" ","ALLEY":" ","HOUSE_NO":"２３８號","E_COORD97":165763.48999999999,"N_COORD97":2536521.0299999998,"ADDRESS":"省躬三街２３８號","OBJECTID":541150},"geometry":{"x":165763.49000000022,"y":2536521.0300000012}},{"attributes":{"ID":541178,"DIS_CODE":0,"TOWNNAME":"南區","LI":"永寧里","LIN":"12鄰","STREET":"省躬三街","SECT":" ","MAREA":" ","LANE":" ","ALLEY":" ","HOUSE_NO":"２４１號","E_COORD97":165774.89000000001,"N_COORD97":2536545.48,"ADDRESS":"省躬三街２４１號","OBJECTID":541151},"geometry":{"x":165774.8900000006,"y":2536545.4799999986}},{"attributes":{"ID":541179,"DIS_CODE":0,"TOWNNAME":"南區","LI":"永寧里","LIN":"12鄰","STREET":"省躬三街","SECT":" ","MAREA":" ","LANE":" ","ALLEY":" ","HOUSE_NO":"２４６號","E_COORD97":165763.48999999999,"N_COORD97":2536538.7999999998,"ADDRESS":"省躬三街２４６號","OBJECTID":541152},"geometry":{"x":165763.49000000022,"y":2536538.8000000007}},{"attributes":{"ID":541180,"DIS_CODE":0,"TOWNNAME":"南區","LI":"永寧里","LIN":"12鄰","STREET":"省躬三街","SECT":" ","MAREA":" ","LANE":" ","ALLEY":" ","HOUSE_NO":"２４６號之３","E_COORD97":165764.25,"N_COORD97":2536549.1299999999,"ADDRESS":"省躬三街２４６號之３","OBJECTID":541153},"geometry":{"x":165764.25000000093,"y":2536549.129999999}},{"attributes":{"ID":541181,"DIS_CODE":0,"TOWNNAME":"南區","LI":"永寧里","LIN":"12鄰","STREET":"省躬三街","SECT":" ","MAREA":" ","LANE":" ","ALLEY":" ","HOUSE_NO":"２６６號","E_COORD97":165761.35999999999,"N_COORD97":2536577.6099999999,"ADDRESS":"省躬三街２６６號","OBJECTID":541154},"geometry":{"x":165761.36000000034,"y":2536577.6100000031}},{"attributes":{"ID":541182,"DIS_CODE":0,"TOWNNAME":"南區","LI":"永寧里","LIN":"12鄰","STREET":"省躬三街","SECT":" ","MAREA":" ","LANE":" ","ALLEY":" ","HOUSE_NO":"２７４號","E_COORD97":165761.20999999999,"N_COORD97":2536588.8500000001,"ADDRESS":"省躬三街２７４號","OBJECTID":541155},"geometry":{"x":165761.21000000089,"y":2536588.8499999996}},{"attributes":{"ID":541183,"DIS_CODE":0,"TOWNNAME":"學甲區","LI":"慈福里","LIN":"12鄰","STREET":"綿和路","SECT":" ","MAREA":" ","LANE":" ","ALLEY":" ","HOUSE_NO":"１５號","E_COORD97":166518.14999999999,"N_COORD97":2570311.6800000002,"ADDRESS":"綿和路１５號","OBJECTID":541156},"geometry":{"x":166518.1500000013,"y":2570311.6800000034}},{"attributes":{"ID":541184,"DIS_CODE":0,"TOWNNAME":"學甲區","LI":"慈福里","LIN":"12鄰","STREET":"綿和路","SECT":" ","MAREA":" ","LANE":" ","ALLEY":" ","HOUSE_NO":"１號之１","E_COORD97":166591.79000000001,"N_COORD97":2570295.3599999999,"ADDRESS":"綿和路１號之１","OBJECTID":541157},"geometry":{"x":166591.79000000004,"y":2570295.3599999994}},{"attributes":{"ID":541185,"DIS_CODE":0,"TOWNNAME":"學甲區","LI":"慈福里","LIN":"12鄰","STREET":"綿和路","SECT":" ","MAREA":" ","LANE":" ","ALLEY":" ","HOUSE_NO":"１號","E_COORD97":166599.82999999999,"N_COORD97":2570296.27,"ADDRESS":"綿和路１號","OBJECTID":541158},"geometry":{"x":166599.83000000101,"y":2570296.2699999996}},{"attributes":{"ID":541186,"DIS_CODE":0,"TOWNNAME":"學甲區","LI":"慈福里","LIN":"12鄰","STREET":"綿和路","SECT":" ","MAREA":" ","LANE":" ","ALLEY":" ","HOUSE_NO":"３號","E_COORD97":166583.39000000001,"N_COORD97":2570295.25,"ADDRESS":"綿和路３號","OBJECTID":541159},"geometry":{"x":166583.3900000006,"y":2570295.2500000019}},{"attributes":{"ID":541187,"DIS_CODE":0,"TOWNNAME":"學甲區","LI":"慈福里","LIN":"12鄰","STREET":"綿和路","SECT":" ","MAREA":" ","LANE":" ","ALLEY":" ","HOUSE_NO":"５號","E_COORD97":166558.79999999999,"N_COORD97":2570302.1400000001,"ADDRESS":"綿和路５號","OBJECTID":541160},"geometry":{"x":166558.80000000075,"y":2570302.1400000006}},{"attributes":{"ID":541188,"DIS_CODE":0,"TOWNNAME":"學甲區","LI":"慈福里","LIN":"12鄰","STREET":"綿和路","SECT":" ","MAREA":" ","LANE":" ","ALLEY":" ","HOUSE_NO":"７號","E_COORD97":166551.82000000001,"N_COORD97":2570304.6000000001,"ADDRESS":"綿和路７號","OBJECTID":541161},"geometry":{"x":166551.82000000216,"y":2570304.5999999996}},{"attributes":{"ID":541189,"DIS_CODE":0,"TOWNNAME":"學甲區","LI":"慈福里","LIN":"12鄰","STREET":"綿和路","SECT":" ","MAREA":" ","LANE":" ","ALLEY":" ","HOUSE_NO":"９號之１","E_COORD97":166540.95000000001,"N_COORD97":2570305.2999999998,"ADDRESS":"綿和路９號之１","OBJECTID":541162},"geometry":{"x":166540.95000000112,"y":2570305.3000000045}},{"attributes":{"ID":541190,"DIS_CODE":0,"TOWNNAME":"學甲區","LI":"仁得里","LIN":"12鄰","STREET":"廣文路","SECT":" ","MAREA":" ","LANE":" ","ALLEY":" ","HOUSE_NO":"５１號","E_COORD97":166010.01999999999,"N_COORD97":2570237.6800000002,"ADDRESS":"廣文路５１號","OBJECTID":541163},"geometry":{"x":166010.01999999955,"y":2570237.6800000016}},{"attributes":{"ID":541191,"DIS_CODE":0,"TOWNNAME":"學甲區","LI":"仁得里","LIN":"12鄰","STREET":"廣文路","SECT":" ","MAREA":" ","LANE":" ","ALLEY":" ","HOUSE_NO":"５５號","E_COORD97":165999.72,"N_COORD97":2570238.4500000002,"ADDRESS":"廣文路５５號","OBJECTID":541164},"geometry":{"x":165999.72000000067,"y":2570238.450000003}},{"attributes":{"ID":541192,"DIS_CODE":0,"TOWNNAME":"學甲區","LI":"仁得里","LIN":"12鄰","STREET":"廣文路","SECT":" ","MAREA":" ","LANE":" ","ALLEY":" ","HOUSE_NO":"５７號之１","E_COORD97":165995.69,"N_COORD97":2570239.9399999999,"ADDRESS":"廣文路５７號之１","OBJECTID":541165},"geometry":{"x":165995.69000000134,"y":2570239.9400000013}},{"attributes":{"ID":541193,"DIS_CODE":0,"TOWNNAME":"學甲區","LI":"仁得里","LIN":"12鄰","STREET":"廣文路","SECT":" ","MAREA":" ","LANE":" ","ALLEY":" ","HOUSE_NO":"５７號之２","E_COORD97":165991.51000000001,"N_COORD97":2570240.5600000001,"ADDRESS":"廣文路５７號之２","OBJECTID":541166},"geometry":{"x":165991.50999999978,"y":2570240.5600000005}},{"attributes":{"ID":541194,"DIS_CODE":0,"TOWNNAME":"學甲區","LI":"仁得里","LIN":"12鄰","STREET":"廣文路","SECT":" ","MAREA":" ","LANE":" ","ALLEY":" ","HOUSE_NO":"５７號之３","E_COORD97":165988.04000000001,"N_COORD97":2570241.7599999998,"ADDRESS":"廣文路５７號之３","OBJECTID":541167},"geometry":{"x":165988.04000000097,"y":2570241.7599999998}},{"attributes":{"ID":541195,"DIS_CODE":0,"TOWNNAME":"學甲區","LI":"仁得里","LIN":"12鄰","STREET":"廣文路","SECT":" ","MAREA":" ","LANE":" ","ALLEY":" ","HOUSE_NO":"５７號之４","E_COORD97":165983.89999999999,"N_COORD97":2570242.4700000002,"ADDRESS":"廣文路５７號之４","OBJECTID":541168},"geometry":{"x":165983.9000000013,"y":2570242.4700000007}},{"attributes":{"ID":541196,"DIS_CODE":0,"TOWNNAME":"學甲區","LI":"仁得里","LIN":"12鄰","STREET":"廣文路","SECT":" ","MAREA":" ","LANE":" ","ALLEY":" ","HOUSE_NO":"５９號之３","E_COORD97":165977.64999999999,"N_COORD97":2570243.8500000001,"ADDRESS":"廣文路５９號之３","OBJECTID":541169},"geometry":{"x":165977.65000000037,"y":2570243.8500000015}},{"attributes":{"ID":541197,"DIS_CODE":0,"TOWNNAME":"學甲區","LI":"仁得里","LIN":"12鄰","STREET":"廣文路","SECT":" ","MAREA":" ","LANE":" ","ALLEY":" ","HOUSE_NO":"５９號","E_COORD97":165980.48000000001,"N_COORD97":2570243.52,"ADDRESS":"廣文路５９號","OBJECTID":541170},"geometry":{"x":165980.48000000138,"y":2570243.5199999996}},{"attributes":{"ID":541198,"DIS_CODE":0,"TOWNNAME":"學甲區","LI":"仁得里","LIN":"12鄰","STREET":"廣文路","SECT":" ","MAREA":" ","LANE":" ","ALLEY":" ","HOUSE_NO":"６１號","E_COORD97":165979.06,"N_COORD97":2570214.71,"ADDRESS":"廣文路６１號","OBJECTID":541171},"geometry":{"x":165979.05999999959,"y":2570214.7100000046}},{"attributes":{"ID":541199,"DIS_CODE":0,"TOWNNAME":"學甲區","LI":"仁得里","LIN":"12鄰","STREET":"廣文路","SECT":" ","MAREA":" ","LANE":" ","ALLEY":" ","HOUSE_NO":"６３號","E_COORD97":165983.82999999999,"N_COORD97":2570229.71,"ADDRESS":"廣文路６３號","OBJECTID":541172},"geometry":{"x":165983.83000000101,"y":2570229.7100000009}},{"attributes":{"ID":541200,"DIS_CODE":0,"TOWNNAME":"東區","LI":"裕聖里","LIN":"7鄰","STREET":"裕華一街","SECT":" ","MAREA":" ","LANE":" ","ALLEY":" ","HOUSE_NO":"２１號","E_COORD97":172737.51999999999,"N_COORD97":2542200.6800000002,"ADDRESS":"裕華一街２１號","OBJECTID":541173},"geometry":{"x":172737.52000000048,"y":2542200.6799999997}},{"attributes":{"ID":541201,"DIS_CODE":0,"TOWNNAME":"六甲區","LI":"七甲里","LIN":"12鄰","STREET":"七甲街","SECT":" ","MAREA":" ","LANE":" ","ALLEY":" ","HOUSE_NO":"１５號","E_COORD97":183350.31,"N_COORD97":2568979.9300000002,"ADDRESS":"七甲街１５號","OBJECTID":541174},"geometry":{"x":183350.30999999959,"y":2568979.9299999997}},{"attributes":{"ID":541202,"DIS_CODE":0,"TOWNNAME":"六甲區","LI":"七甲里","LIN":"12鄰","STREET":"七甲街","SECT":" ","MAREA":" ","LANE":" ","ALLEY":" ","HOUSE_NO":"２７號","E_COORD97":183299.39999999999,"N_COORD97":2568960.6600000001,"ADDRESS":"七甲街２７號","OBJECTID":541175},"geometry":{"x":183299.40000000037,"y":2568960.660000002}},{"attributes":{"ID":541203,"DIS_CODE":0,"TOWNNAME":"六甲區","LI":"七甲里","LIN":"12鄰","STREET":"七甲街","SECT":" ","MAREA":" ","LANE":" ","ALLEY":" ","HOUSE_NO":"２９號","E_COORD97":183299.03,"N_COORD97":2568945.5,"ADDRESS":"七甲街２９號","OBJECTID":541176},"geometry":{"x":183299.03000000119,"y":2568945.5}},{"attributes":{"ID":541204,"DIS_CODE":0,"TOWNNAME":"六甲區","LI":"七甲里","LIN":"12鄰","STREET":"七甲街","SECT":" ","MAREA":" ","LANE":" ","ALLEY":" ","HOUSE_NO":"３１號","E_COORD97":183247.23999999999,"N_COORD97":2568938.6600000001,"ADDRESS":"七甲街３１號","OBJECTID":541177},"geometry":{"x":183247.24000000115,"y":2568938.6600000001}},{"attributes":{"ID":541205,"DIS_CODE":0,"TOWNNAME":"六甲區","LI":"七甲里","LIN":"12鄰","STREET":"七甲街","SECT":" ","MAREA":" ","LANE":" ","ALLEY":" ","HOUSE_NO":"４１號","E_COORD97":183193.07000000001,"N_COORD97":2568990.29,"ADDRESS":"七甲街４１號","OBJECTID":541178},"geometry":{"x":183193.0700000003,"y":2568990.2899999991}},{"attributes":{"ID":541206,"DIS_CODE":0,"TOWNNAME":"六甲區","LI":"七甲里","LIN":"12鄰","STREET":"七甲街","SECT":" ","MAREA":" ","LANE":" ","ALLEY":" ","HOUSE_NO":"４３號","E_COORD97":183188.48999999999,"N_COORD97":2568990.54,"ADDRESS":"七甲街４３號","OBJECTID":541179},"geometry":{"x":183188.49000000022,"y":2568990.540000001}},{"attributes":{"ID":541207,"DIS_CODE":0,"TOWNNAME":"六甲區","LI":"七甲里","LIN":"12鄰","STREET":"七甲街","SECT":" ","MAREA":" ","LANE":" ","ALLEY":" ","HOUSE_NO":"４７號","E_COORD97":183179.70999999999,"N_COORD97":2568990.96,"ADDRESS":"七甲街４７號","OBJECTID":541180},"geometry":{"x":183179.70999999996,"y":2568990.9600000009}},{"attributes":{"ID":541208,"DIS_CODE":0,"TOWNNAME":"六甲區","LI":"七甲里","LIN":"12鄰","STREET":"七甲街","SECT":" ","MAREA":" ","LANE":" ","ALLEY":" ","HOUSE_NO":"４９號","E_COORD97":183174.48999999999,"N_COORD97":2568990.3599999999,"ADDRESS":"七甲街４９號","OBJECTID":541181},"geometry":{"x":183174.49000000115,"y":2568990.3599999994}},{"attributes":{"ID":541209,"DIS_CODE":0,"TOWNNAME":"東區","LI":"龍山里","LIN":"8鄰","STREET":"長榮路","SECT":"一段","MAREA":" ","LANE":" ","ALLEY":" ","HOUSE_NO":"１８６號","E_COORD97":169852.32000000001,"N_COORD97":2542795.6499999999,"ADDRESS":"長榮路一段１８６號","OBJECTID":541182},"geometry":{"x":169852.31999999937,"y":2542795.6500000004}},{"attributes":{"ID":541210,"DIS_CODE":0,"TOWNNAME":"六甲區","LI":"七甲里","LIN":"12鄰","STREET":"七甲街","SECT":" ","MAREA":" ","LANE":" ","ALLEY":" ","HOUSE_NO":"５號","E_COORD97":183378.17999999999,"N_COORD97":2568965.0699999998,"ADDRESS":"七甲街５號","OBJECTID":541183},"geometry":{"x":183378.1799999997,"y":2568965.0700000022}},{"attributes":{"ID":541211,"DIS_CODE":0,"TOWNNAME":"南區","LI":"明興里","LIN":"12鄰","STREET":"金華路","SECT":"一段","MAREA":" ","LANE":" ","ALLEY":" ","HOUSE_NO":"９２號","E_COORD97":166908.54999999999,"N_COORD97":2540459.46,"ADDRESS":"金華路一段９２號","OBJECTID":541184},"geometry":{"x":166908.54999999981,"y":2540459.4600000028}},{"attributes":{"ID":541212,"DIS_CODE":0,"TOWNNAME":"南區","LI":"光明里","LIN":"12鄰","STREET":"利南街","SECT":" ","MAREA":" ","LANE":" ","ALLEY":" ","HOUSE_NO":"９５號","E_COORD97":166735.82000000001,"N_COORD97":2541230.0800000001,"ADDRESS":"利南街９５號","OBJECTID":541185},"geometry":{"x":166735.8200000003,"y":2541230.0800000038}},{"attributes":{"ID":541213,"DIS_CODE":0,"TOWNNAME":"南區","LI":"興農里","LIN":"12鄰","STREET":"明興路","SECT":" ","MAREA":" ","LANE":" ","ALLEY":" ","HOUSE_NO":"１１２７號之１","E_COORD97":166561.62,"N_COORD97":2536488.4300000002,"ADDRESS":"明興路１１２７號之１","OBJECTID":541186},"geometry":{"x":166561.62000000197,"y":2536488.4300000016}},{"attributes":{"ID":541214,"DIS_CODE":0,"TOWNNAME":"南區","LI":"日新里","LIN":"12鄰","STREET":"新興路","SECT":" ","MAREA":" ","LANE":" ","ALLEY":" ","HOUSE_NO":"４９１號","E_COORD97":166780.95999999999,"N_COORD97":2541730.27,"ADDRESS":"新興路４９１號","OBJECTID":541187},"geometry":{"x":166780.95999999996,"y":2541730.2700000033}},{"attributes":{"ID":541215,"DIS_CODE":0,"TOWNNAME":"南區","LI":"再興里","LIN":"12鄰","STREET":"三官路","SECT":" ","MAREA":" ","LANE":" ","ALLEY":" ","HOUSE_NO":"１８０號","E_COORD97":167223.42000000001,"N_COORD97":2542010.8399999999,"ADDRESS":"三官路１８０號","OBJECTID":541188},"geometry":{"x":167223.41999999993,"y":2542010.8399999999}},{"attributes":{"ID":541216,"DIS_CODE":0,"TOWNNAME":"南區","LI":"再興里","LIN":"12鄰","STREET":"三官路","SECT":" ","MAREA":" ","LANE":" ","ALLEY":" ","HOUSE_NO":"１７８號","E_COORD97":167227.44,"N_COORD97":2542011.8999999999,"ADDRESS":"三官路１７８號","OBJECTID":541189},"geometry":{"x":167227.43999999948,"y":2542011.9000000022}},{"attributes":{"ID":541217,"DIS_CODE":0,"TOWNNAME":"東區","LI":"崇成里","LIN":"18鄰","STREET":"崇德路","SECT":" ","MAREA":" ","LANE":" ","ALLEY":" ","HOUSE_NO":"６３０號","E_COORD97":170776.57000000001,"N_COORD97":2541205.2200000002,"ADDRESS":"崇德路６３０號","OBJECTID":541190},"geometry":{"x":170776.57000000123,"y":2541205.2200000007}},{"attributes":{"ID":541218,"DIS_CODE":0,"TOWNNAME":"東區","LI":"崇成里","LIN":"18鄰","STREET":"崇德路","SECT":" ","MAREA":" ","LANE":" ","ALLEY":" ","HOUSE_NO":"６４２之１號","E_COORD97":170772.60000000001,"N_COORD97":2541158.3900000001,"ADDRESS":"崇德路６４２之１號","OBJECTID":541191},"geometry":{"x":170772.60000000056,"y":2541158.3900000025}},{"attributes":{"ID":541219,"DIS_CODE":0,"TOWNNAME":"東區","LI":"崇德里","LIN":"7鄰","STREET":"崇德七街","SECT":" ","MAREA":" ","LANE":" ","ALLEY":" ","HOUSE_NO":"３１號","E_COORD97":170785.73999999999,"N_COORD97":2541746.1899999999,"ADDRESS":"崇德七街３１號","OBJECTID":541192},"geometry":{"x":170785.74000000115,"y":2541746.1899999995}},{"attributes":{"ID":541220,"DIS_CODE":0,"TOWNNAME":"北區","LI":"五福里","LIN":"12鄰","STREET":"自強街","SECT":" ","MAREA":" ","LANE":" ","ALLEY":" ","HOUSE_NO":"１８號","E_COORD97":168234.64999999999,"N_COORD97":2544481.1499999999,"ADDRESS":"自強街１８號","OBJECTID":541193},"geometry":{"x":168234.65000000224,"y":2544481.1499999985}},{"attributes":{"ID":541221,"DIS_CODE":0,"TOWNNAME":"北區","LI":"五福里","LIN":"12鄰","STREET":"自強街","SECT":" ","MAREA":" ","LANE":" ","ALLEY":" ","HOUSE_NO":"２４號","E_COORD97":168241.07000000001,"N_COORD97":2544498.6800000002,"ADDRESS":"自強街２４號","OBJECTID":541194},"geometry":{"x":168241.07000000123,"y":2544498.6800000016}},{"attributes":{"ID":541222,"DIS_CODE":0,"TOWNNAME":"北區","LI":"五福里","LIN":"12鄰","STREET":"自強街","SECT":" ","MAREA":" ","LANE":" ","ALLEY":" ","HOUSE_NO":"２６號","E_COORD97":168241.92000000001,"N_COORD97":2544502.8100000001,"ADDRESS":"自強街２６號","OBJECTID":541195},"geometry":{"x":168241.91999999993,"y":2544502.8100000005}},{"attributes":{"ID":541223,"DIS_CODE":0,"TOWNNAME":"北區","LI":"文成里","LIN":"12鄰","STREET":"文賢二街","SECT":" ","MAREA":" ","LANE":" ","ALLEY":" ","HOUSE_NO":"１２３號","E_COORD97":167768.19,"N_COORD97":2545491.4900000002,"ADDRESS":"文賢二街１２３號","OBJECTID":541196},"geometry":{"x":167768.18999999948,"y":2545491.4900000002}},{"attributes":{"ID":541224,"DIS_CODE":0,"TOWNNAME":"北區","LI":"文成里","LIN":"12鄰","STREET":"文賢二街","SECT":" ","MAREA":" ","LANE":" ","ALLEY":" ","HOUSE_NO":"１２５號","E_COORD97":167767.81,"N_COORD97":2545498.2799999998,"ADDRESS":"文賢二街１２５號","OBJECTID":541197},"geometry":{"x":167767.80999999959,"y":2545498.2799999993}},{"attributes":{"ID":541225,"DIS_CODE":0,"TOWNNAME":"北區","LI":"文成里","LIN":"12鄰","STREET":"文賢二街","SECT":" ","MAREA":" ","LANE":" ","ALLEY":" ","HOUSE_NO":"１２７號","E_COORD97":167767.62,"N_COORD97":2545504.5099999998,"ADDRESS":"文賢二街１２７號","OBJECTID":541198},"geometry":{"x":167767.62000000104,"y":2545504.5099999998}},{"attributes":{"ID":541226,"DIS_CODE":0,"TOWNNAME":"北區","LI":"文成里","LIN":"12鄰","STREET":"文賢二街","SECT":" ","MAREA":" ","LANE":" ","ALLEY":" ","HOUSE_NO":"１２９號","E_COORD97":167768,"N_COORD97":2545510.9300000002,"ADDRESS":"文賢二街１２９號","OBJECTID":541199},"geometry":{"x":167768.00000000093,"y":2545510.9300000016}},{"attributes":{"ID":541227,"DIS_CODE":0,"TOWNNAME":"北區","LI":"五福里","LIN":"12鄰","STREET":"自強街","SECT":" ","MAREA":" ","LANE":" ","ALLEY":" ","HOUSE_NO":"２８號","E_COORD97":168243.35000000001,"N_COORD97":2544506.23,"ADDRESS":"自強街２８號","OBJECTID":541200},"geometry":{"x":168243.35000000056,"y":2544506.2300000023}}]}