{"displayFieldName":"TOWNNAME","fieldAliases":{"ID":"ID","DIS_CODE":"DIS_CODE","TOWNNAME":"TOWNNAME","LI":"LI","LIN":"LIN","STREET":"STREET","SECT":"SECT","MAREA":"MAREA","LANE":"LANE","ALLEY":"ALLEY","HOUSE_NO":"HOUSE_NO","E_COORD97":"E_COORD97","N_COORD97":"N_COORD97","ADDRESS":"ADDRESS","OBJECTID":"OBJECTID"},"geometryType":"esriGeometryPoint","spatialReference":{"wkid":102443,"latestWkid":3826},"fields":[{"name":"ID","type":"esriFieldTypeDouble","alias":"ID"},{"name":"DIS_CODE","type":"esriFieldTypeInteger","alias":"DIS_CODE"},{"name":"TOWNNAME","type":"esriFieldTypeString","alias":"TOWNNAME","length":8},{"name":"LI","type":"esriFieldTypeString","alias":"LI","length":8},{"name":"LIN","type":"esriFieldTypeString","alias":"LIN","length":12},{"name":"STREET","type":"esriFieldTypeString","alias":"STREET","length":20},{"name":"SECT","type":"esriFieldTypeString","alias":"SECT","length":8},{"name":"MAREA","type":"esriFieldTypeString","alias":"MAREA","length":12},{"name":"LANE","type":"esriFieldTypeString","alias":"LANE","length":10},{"name":"ALLEY","type":"esriFieldTypeString","alias":"ALLEY","length":10},{"name":"HOUSE_NO","type":"esriFieldTypeString","alias":"HOUSE_NO","length":20},{"name":"E_COORD97","type":"esriFieldTypeDouble","alias":"E_COORD97"},{"name":"N_COORD97","type":"esriFieldTypeDouble","alias":"N_COORD97"},{"name":"ADDRESS","type":"esriFieldTypeString","alias":"ADDRESS","length":50},{"name":"OBJECTID","type":"esriFieldTypeOID","alias":"OBJECTID"}],"features":[{"attributes":{"ID":201002,"DIS_CODE":0,"TOWNNAME":"麻豆區","LI":"東角里","LIN":"9鄰","STREET":"興中路","SECT":" ","MAREA":" ","LANE":" ","ALLEY":" ","HOUSE_NO":"２１７號之６","E_COORD97":173947.28,"N_COORD97":2564847.3700000001,"ADDRESS":"興中路２１７號之６","OBJECTID":201001},"geometry":{"x":173947.28000000119,"y":2564847.3700000029}},{"attributes":{"ID":201003,"DIS_CODE":0,"TOWNNAME":"南區","LI":"大恩里","LIN":"20鄰","STREET":"國民路","SECT":" ","MAREA":" ","LANE":"２１７巷","ALLEY":"２４弄","HOUSE_NO":"２１號","E_COORD97":168992.48000000001,"N_COORD97":2540826.4900000002,"ADDRESS":"國民路２１７巷２４弄２１號","OBJECTID":201002},"geometry":{"x":168992.48000000138,"y":2540826.4900000002}},{"attributes":{"ID":201004,"DIS_CODE":0,"TOWNNAME":"南區","LI":"大恩里","LIN":"20鄰","STREET":"國民路","SECT":" ","MAREA":" ","LANE":"２１７巷","ALLEY":"２４弄","HOUSE_NO":"２２號","E_COORD97":168999.67999999999,"N_COORD97":2540842.75,"ADDRESS":"國民路２１７巷２４弄２２號","OBJECTID":201003},"geometry":{"x":168999.6799999997,"y":2540842.7500000019}},{"attributes":{"ID":201005,"DIS_CODE":0,"TOWNNAME":"善化區","LI":"嘉北里","LIN":"3鄰","STREET":" ","SECT":" ","MAREA":"茄拔","LANE":" ","ALLEY":" ","HOUSE_NO":"２０之１號","E_COORD97":181134.73000000001,"N_COORD97":2559925.27,"ADDRESS":"茄拔２０之１號","OBJECTID":201004},"geometry":{"x":181134.73000000231,"y":2559925.2699999996}},{"attributes":{"ID":201006,"DIS_CODE":0,"TOWNNAME":"麻豆區","LI":"東角里","LIN":"9鄰","STREET":"興中路","SECT":" ","MAREA":" ","LANE":" ","ALLEY":" ","HOUSE_NO":"２５３號","E_COORD97":174138.64000000001,"N_COORD97":2564823.3900000001,"ADDRESS":"興中路２５３號","OBJECTID":201005},"geometry":{"x":174138.6400000006,"y":2564823.3900000025}},{"attributes":{"ID":201007,"DIS_CODE":0,"TOWNNAME":"麻豆區","LI":"東角里","LIN":"9鄰","STREET":"興中路","SECT":" ","MAREA":" ","LANE":" ","ALLEY":" ","HOUSE_NO":"２５５號","E_COORD97":174144.14000000001,"N_COORD97":2564823.3599999999,"ADDRESS":"興中路２５５號","OBJECTID":201006},"geometry":{"x":174144.1400000006,"y":2564823.3599999994}},{"attributes":{"ID":201008,"DIS_CODE":0,"TOWNNAME":"南區","LI":"大恩里","LIN":"20鄰","STREET":"國民路","SECT":" ","MAREA":" ","LANE":"２１７巷","ALLEY":"２４弄","HOUSE_NO":"２３號","E_COORD97":168988.29000000001,"N_COORD97":2540827.5699999998,"ADDRESS":"國民路２１７巷２４弄２３號","OBJECTID":201007},"geometry":{"x":168988.29000000097,"y":2540827.5700000022}},{"attributes":{"ID":201009,"DIS_CODE":0,"TOWNNAME":"南區","LI":"大恩里","LIN":"20鄰","STREET":"國民路","SECT":" ","MAREA":" ","LANE":"２１７巷","ALLEY":"２４弄","HOUSE_NO":"２４號","E_COORD97":168995.92000000001,"N_COORD97":2540844.3599999999,"ADDRESS":"國民路２１７巷２４弄２４號","OBJECTID":201008},"geometry":{"x":168995.92000000086,"y":2540844.3600000031}},{"attributes":{"ID":201010,"DIS_CODE":0,"TOWNNAME":"南區","LI":"大恩里","LIN":"20鄰","STREET":"國民路","SECT":" ","MAREA":" ","LANE":"２１７巷","ALLEY":"２４弄","HOUSE_NO":"２５號","E_COORD97":168984,"N_COORD97":2540829.0699999998,"ADDRESS":"國民路２１７巷２４弄２５號","OBJECTID":201009},"geometry":{"x":168984,"y":2540829.0700000003}},{"attributes":{"ID":201011,"DIS_CODE":0,"TOWNNAME":"南區","LI":"大恩里","LIN":"20鄰","STREET":"國民路","SECT":" ","MAREA":" ","LANE":"２１７巷","ALLEY":"２４弄","HOUSE_NO":"２６號","E_COORD97":168991.94,"N_COORD97":2540845.1099999999,"ADDRESS":"國民路２１７巷２４弄２６號","OBJECTID":201010},"geometry":{"x":168991.94000000041,"y":2540845.1099999994}},{"attributes":{"ID":201012,"DIS_CODE":0,"TOWNNAME":"南區","LI":"大恩里","LIN":"20鄰","STREET":"國民路","SECT":" ","MAREA":" ","LANE":"２１７巷","ALLEY":"２４弄","HOUSE_NO":"２８號","E_COORD97":168987.85999999999,"N_COORD97":2540847.3700000001,"ADDRESS":"國民路２１７巷２４弄２８號","OBJECTID":201011},"geometry":{"x":168987.86000000127,"y":2540847.3700000029}},{"attributes":{"ID":201013,"DIS_CODE":0,"TOWNNAME":"南區","LI":"大恩里","LIN":"20鄰","STREET":"國民路","SECT":" ","MAREA":" ","LANE":"２１７巷","ALLEY":"２４弄","HOUSE_NO":"２號","E_COORD97":169040.16,"N_COORD97":2540832.1499999999,"ADDRESS":"國民路２１７巷２４弄２號","OBJECTID":201012},"geometry":{"x":169040.16000000108,"y":2540832.1500000004}},{"attributes":{"ID":201014,"DIS_CODE":0,"TOWNNAME":"南區","LI":"大恩里","LIN":"20鄰","STREET":"國民路","SECT":" ","MAREA":" ","LANE":"２１７巷","ALLEY":"２４弄","HOUSE_NO":"３號","E_COORD97":169030.82000000001,"N_COORD97":2540814.9100000001,"ADDRESS":"國民路２１７巷２４弄３號","OBJECTID":201013},"geometry":{"x":169030.82000000123,"y":2540814.910000002}},{"attributes":{"ID":201015,"DIS_CODE":0,"TOWNNAME":"南區","LI":"大恩里","LIN":"20鄰","STREET":"國民路","SECT":" ","MAREA":" ","LANE":"２１７巷","ALLEY":"２４弄","HOUSE_NO":"５號","E_COORD97":169026.63,"N_COORD97":2540815.98,"ADDRESS":"國民路２１７巷２４弄５號","OBJECTID":201014},"geometry":{"x":169026.63000000082,"y":2540815.9800000004}},{"attributes":{"ID":201016,"DIS_CODE":0,"TOWNNAME":"南區","LI":"大恩里","LIN":"20鄰","STREET":"國民路","SECT":" ","MAREA":" ","LANE":"２１７巷","ALLEY":"２４弄","HOUSE_NO":"６號","E_COORD97":169032.20999999999,"N_COORD97":2540835.0299999998,"ADDRESS":"國民路２１７巷２４弄６號","OBJECTID":201015},"geometry":{"x":169032.20999999903,"y":2540835.0299999993}},{"attributes":{"ID":201017,"DIS_CODE":0,"TOWNNAME":"南區","LI":"大恩里","LIN":"20鄰","STREET":"國民路","SECT":" ","MAREA":" ","LANE":"２１７巷","ALLEY":"２４弄","HOUSE_NO":"７號","E_COORD97":169022.54999999999,"N_COORD97":2540817.0499999998,"ADDRESS":"國民路２１７巷２４弄７號","OBJECTID":201016},"geometry":{"x":169022.54999999981,"y":2540817.0500000007}},{"attributes":{"ID":201018,"DIS_CODE":0,"TOWNNAME":"南區","LI":"大恩里","LIN":"20鄰","STREET":"國民路","SECT":" ","MAREA":" ","LANE":"２１７巷","ALLEY":"２４弄","HOUSE_NO":"８號","E_COORD97":169027.81,"N_COORD97":2540835.3500000001,"ADDRESS":"國民路２１７巷２４弄８號","OBJECTID":201017},"geometry":{"x":169027.81000000145,"y":2540835.3500000015}},{"attributes":{"ID":201019,"DIS_CODE":0,"TOWNNAME":"南區","LI":"大恩里","LIN":"20鄰","STREET":"國民路","SECT":" ","MAREA":" ","LANE":"２１７巷","ALLEY":"２４弄","HOUSE_NO":"９號","E_COORD97":169018.35999999999,"N_COORD97":2540818.6600000001,"ADDRESS":"國民路２１７巷２４弄９號","OBJECTID":201018},"geometry":{"x":169018.36000000127,"y":2540818.6600000001}},{"attributes":{"ID":201020,"DIS_CODE":0,"TOWNNAME":"北門區","LI":"錦湖里","LIN":"9鄰","STREET":" ","SECT":" ","MAREA":"渡子頭","LANE":" ","ALLEY":" ","HOUSE_NO":"８２號之１","E_COORD97":164804.39999999999,"N_COORD97":2577508.4100000001,"ADDRESS":"渡子頭８２號之１","OBJECTID":201019},"geometry":{"x":164804.4000000013,"y":2577508.4100000039}},{"attributes":{"ID":201021,"DIS_CODE":0,"TOWNNAME":"北門區","LI":"錦湖里","LIN":"9鄰","STREET":" ","SECT":" ","MAREA":"渡子頭","LANE":" ","ALLEY":" ","HOUSE_NO":"８２號","E_COORD97":164802.76999999999,"N_COORD97":2577521.21,"ADDRESS":"渡子頭８２號","OBJECTID":201020},"geometry":{"x":164802.77000000048,"y":2577521.2100000028}},{"attributes":{"ID":201022,"DIS_CODE":0,"TOWNNAME":"北門區","LI":"錦湖里","LIN":"9鄰","STREET":" ","SECT":" ","MAREA":"渡子頭","LANE":" ","ALLEY":" ","HOUSE_NO":"８３號之１","E_COORD97":164668.64000000001,"N_COORD97":2577447.6099999999,"ADDRESS":"渡子頭８３號之１","OBJECTID":201021},"geometry":{"x":164668.63999999966,"y":2577447.6099999994}},{"attributes":{"ID":201023,"DIS_CODE":0,"TOWNNAME":"南區","LI":"大恩里","LIN":"20鄰","STREET":"國民路","SECT":" ","MAREA":" ","LANE":"２１７巷","ALLEY":"３０弄","HOUSE_NO":"１０號","E_COORD97":169014.48999999999,"N_COORD97":2540806.46,"ADDRESS":"國民路２１７巷３０弄１０號","OBJECTID":201022},"geometry":{"x":169014.49000000115,"y":2540806.4600000009}},{"attributes":{"ID":201024,"DIS_CODE":0,"TOWNNAME":"北門區","LI":"錦湖里","LIN":"9鄰","STREET":" ","SECT":" ","MAREA":"渡子頭","LANE":" ","ALLEY":" ","HOUSE_NO":"８３號之３","E_COORD97":164664.45999999999,"N_COORD97":2577438.5099999998,"ADDRESS":"渡子頭８３號之３","OBJECTID":201023},"geometry":{"x":164664.46000000089,"y":2577438.5099999998}},{"attributes":{"ID":201025,"DIS_CODE":0,"TOWNNAME":"北門區","LI":"錦湖里","LIN":"9鄰","STREET":" ","SECT":" ","MAREA":"渡子頭","LANE":" ","ALLEY":" ","HOUSE_NO":"８３號","E_COORD97":164787.26000000001,"N_COORD97":2577501.1200000001,"ADDRESS":"渡子頭８３號","OBJECTID":201024},"geometry":{"x":164787.26000000071,"y":2577501.1200000048}},{"attributes":{"ID":201026,"DIS_CODE":0,"TOWNNAME":"北門區","LI":"錦湖里","LIN":"9鄰","STREET":" ","SECT":" ","MAREA":"渡子頭","LANE":" ","ALLEY":" ","HOUSE_NO":"８４號","E_COORD97":164827.60000000001,"N_COORD97":2577537.1800000002,"ADDRESS":"渡子頭８４號","OBJECTID":201025},"geometry":{"x":164827.60000000056,"y":2577537.1800000016}},{"attributes":{"ID":201027,"DIS_CODE":0,"TOWNNAME":"北門區","LI":"錦湖里","LIN":"9鄰","STREET":" ","SECT":" ","MAREA":"渡子頭","LANE":" ","ALLEY":" ","HOUSE_NO":"８５號","E_COORD97":164848.28,"N_COORD97":2577541.5499999998,"ADDRESS":"渡子頭８５號","OBJECTID":201026},"geometry":{"x":164848.28000000026,"y":2577541.5500000007}},{"attributes":{"ID":201028,"DIS_CODE":0,"TOWNNAME":"北門區","LI":"錦湖里","LIN":"9鄰","STREET":" ","SECT":" ","MAREA":"渡子頭","LANE":" ","ALLEY":" ","HOUSE_NO":"８６號","E_COORD97":164858.10000000001,"N_COORD97":2577533.25,"ADDRESS":"渡子頭８６號","OBJECTID":201027},"geometry":{"x":164858.10000000056,"y":2577533.2500000037}},{"attributes":{"ID":201029,"DIS_CODE":0,"TOWNNAME":"北門區","LI":"錦湖里","LIN":"9鄰","STREET":" ","SECT":" ","MAREA":"渡子頭","LANE":" ","ALLEY":" ","HOUSE_NO":"９０號","E_COORD97":164959.91,"N_COORD97":2577483.8199999998,"ADDRESS":"渡子頭９０號","OBJECTID":201028},"geometry":{"x":164959.91000000108,"y":2577483.8200000003}},{"attributes":{"ID":201030,"DIS_CODE":0,"TOWNNAME":"南區","LI":"大恩里","LIN":"20鄰","STREET":"國民路","SECT":" ","MAREA":" ","LANE":"２１７巷","ALLEY":"３０弄","HOUSE_NO":"１２號","E_COORD97":169010.84,"N_COORD97":2540807.4300000002,"ADDRESS":"國民路２１７巷３０弄１２號","OBJECTID":201029},"geometry":{"x":169010.83999999892,"y":2540807.4300000016}},{"attributes":{"ID":201031,"DIS_CODE":0,"TOWNNAME":"北門區","LI":"錦湖里","LIN":"9鄰","STREET":" ","SECT":" ","MAREA":"渡子頭","LANE":" ","ALLEY":" ","HOUSE_NO":"９１號","E_COORD97":164983.59,"N_COORD97":2577555.2200000002,"ADDRESS":"渡子頭９１號","OBJECTID":201030},"geometry":{"x":164983.59000000078,"y":2577555.2200000025}},{"attributes":{"ID":201032,"DIS_CODE":0,"TOWNNAME":"北門區","LI":"鯤江里","LIN":"9鄰","STREET":" ","SECT":" ","MAREA":"新圍","LANE":" ","ALLEY":" ","HOUSE_NO":"２號","E_COORD97":163204.32999999999,"N_COORD97":2576996.5600000001,"ADDRESS":"新圍２號","OBJECTID":201031},"geometry":{"x":163204.33000000101,"y":2576996.5600000024}},{"attributes":{"ID":201033,"DIS_CODE":0,"TOWNNAME":"南區","LI":"大恩里","LIN":"20鄰","STREET":"國民路","SECT":" ","MAREA":" ","LANE":"２１７巷","ALLEY":"３０弄","HOUSE_NO":"１４號","E_COORD97":169007.51000000001,"N_COORD97":2540808.6099999999,"ADDRESS":"國民路２１７巷３０弄１４號","OBJECTID":201032},"geometry":{"x":169007.50999999978,"y":2540808.6099999975}},{"attributes":{"ID":201034,"DIS_CODE":0,"TOWNNAME":"北門區","LI":"中樞里","LIN":"9鄰","STREET":" ","SECT":" ","MAREA":"溪底寮","LANE":" ","ALLEY":" ","HOUSE_NO":"７２號","E_COORD97":160987.25,"N_COORD97":2571345.1800000002,"ADDRESS":"溪底寮７２號","OBJECTID":201033},"geometry":{"x":160987.25000000093,"y":2571345.1799999997}},{"attributes":{"ID":201035,"DIS_CODE":0,"TOWNNAME":"南區","LI":"大恩里","LIN":"20鄰","STREET":"國民路","SECT":" ","MAREA":" ","LANE":"２１７巷","ALLEY":"３０弄","HOUSE_NO":"１６號","E_COORD97":169003.54000000001,"N_COORD97":2540809.6800000002,"ADDRESS":"國民路２１７巷３０弄１６號","OBJECTID":201034},"geometry":{"x":169003.54000000097,"y":2540809.6800000016}},{"attributes":{"ID":201036,"DIS_CODE":0,"TOWNNAME":"南區","LI":"大恩里","LIN":"20鄰","STREET":"國民路","SECT":" ","MAREA":" ","LANE":"２１７巷","ALLEY":"３０弄","HOUSE_NO":"１８號","E_COORD97":168998.48999999999,"N_COORD97":2540810.1099999999,"ADDRESS":"國民路２１７巷３０弄１８號","OBJECTID":201035},"geometry":{"x":168998.49000000209,"y":2540810.1100000013}},{"attributes":{"ID":201037,"DIS_CODE":0,"TOWNNAME":"南區","LI":"大恩里","LIN":"20鄰","STREET":"國民路","SECT":" ","MAREA":" ","LANE":"２１７巷","ALLEY":"３０弄","HOUSE_NO":"２２號","E_COORD97":168989.47,"N_COORD97":2540813.7599999998,"ADDRESS":"國民路２１７巷３０弄２２號","OBJECTID":201036},"geometry":{"x":168989.46999999974,"y":2540813.7599999998}},{"attributes":{"ID":201038,"DIS_CODE":0,"TOWNNAME":"南區","LI":"大恩里","LIN":"20鄰","STREET":"國民路","SECT":" ","MAREA":" ","LANE":"２１７巷","ALLEY":"３０弄","HOUSE_NO":"２４號","E_COORD97":168984.54000000001,"N_COORD97":2540814.5099999998,"ADDRESS":"國民路２１７巷３０弄２４號","OBJECTID":201037},"geometry":{"x":168984.54000000097,"y":2540814.5100000016}},{"attributes":{"ID":201039,"DIS_CODE":0,"TOWNNAME":"南區","LI":"大恩里","LIN":"20鄰","STREET":"國民路","SECT":" ","MAREA":" ","LANE":"２１７巷","ALLEY":"３０弄","HOUSE_NO":"２６號","E_COORD97":168981.10000000001,"N_COORD97":2540816.0099999998,"ADDRESS":"國民路２１７巷３０弄２６號","OBJECTID":201038},"geometry":{"x":168981.09999999963,"y":2540816.0099999998}},{"attributes":{"ID":201040,"DIS_CODE":0,"TOWNNAME":"南區","LI":"大恩里","LIN":"20鄰","STREET":"國民路","SECT":" ","MAREA":" ","LANE":"２１７巷","ALLEY":"３０弄","HOUSE_NO":"２號","E_COORD97":169031.67000000001,"N_COORD97":2540801.8500000001,"ADDRESS":"國民路２１７巷３０弄２號","OBJECTID":201039},"geometry":{"x":169031.67000000086,"y":2540801.8500000015}},{"attributes":{"ID":201041,"DIS_CODE":0,"TOWNNAME":"南區","LI":"大恩里","LIN":"20鄰","STREET":"國民路","SECT":" ","MAREA":" ","LANE":"２１７巷","ALLEY":"３０弄","HOUSE_NO":"４號","E_COORD97":169027.92000000001,"N_COORD97":2540803.5699999998,"ADDRESS":"國民路２１７巷３０弄４號","OBJECTID":201040},"geometry":{"x":169027.92000000086,"y":2540803.5700000022}},{"attributes":{"ID":201042,"DIS_CODE":0,"TOWNNAME":"南區","LI":"大恩里","LIN":"20鄰","STREET":"國民路","SECT":" ","MAREA":" ","LANE":"２１７巷","ALLEY":"３０弄","HOUSE_NO":"６號","E_COORD97":169023.51000000001,"N_COORD97":2540803.9900000002,"ADDRESS":"國民路２１７巷３０弄６號","OBJECTID":201041},"geometry":{"x":169023.51000000071,"y":2540803.9900000021}},{"attributes":{"ID":201043,"DIS_CODE":0,"TOWNNAME":"下營區","LI":"仁里里","LIN":"9鄰","STREET":"工業街","SECT":" ","MAREA":" ","LANE":"２巷","ALLEY":" ","HOUSE_NO":"１６號","E_COORD97":173735.91,"N_COORD97":2570189.0899999999,"ADDRESS":"工業街２巷１６號","OBJECTID":201042},"geometry":{"x":173735.91000000108,"y":2570189.0899999999}},{"attributes":{"ID":201044,"DIS_CODE":0,"TOWNNAME":"新市區","LI":"新和里","LIN":"40鄰","STREET":"信義街","SECT":" ","MAREA":" ","LANE":" ","ALLEY":" ","HOUSE_NO":"８２號","E_COORD97":177227.38,"N_COORD97":2552938.77,"ADDRESS":"信義街８２號","OBJECTID":201043},"geometry":{"x":177227.38000000175,"y":2552938.7700000033}},{"attributes":{"ID":201045,"DIS_CODE":0,"TOWNNAME":"新市區","LI":"新和里","LIN":"40鄰","STREET":"勝利街","SECT":" ","MAREA":" ","LANE":" ","ALLEY":" ","HOUSE_NO":"６０號","E_COORD97":177187.95000000001,"N_COORD97":2552953.5099999998,"ADDRESS":"勝利街６０號","OBJECTID":201044},"geometry":{"x":177187.95000000019,"y":2552953.5099999998}},{"attributes":{"ID":201046,"DIS_CODE":0,"TOWNNAME":"新市區","LI":"新和里","LIN":"40鄰","STREET":"信義街","SECT":" ","MAREA":" ","LANE":" ","ALLEY":" ","HOUSE_NO":"９３號","E_COORD97":177208.64999999999,"N_COORD97":2552976.52,"ADDRESS":"信義街９３號","OBJECTID":201045},"geometry":{"x":177208.65000000037,"y":2552976.5199999996}},{"attributes":{"ID":201047,"DIS_CODE":0,"TOWNNAME":"永康區","LI":"埔園里","LIN":" ","STREET":"龍埔街","SECT":" ","MAREA":" ","LANE":" ","ALLEY":" ","HOUSE_NO":"２４７號","E_COORD97":174238.39999999999,"N_COORD97":2548280.5600000001,"ADDRESS":"龍埔街２４７號","OBJECTID":201046},"geometry":{"x":174238.40000000037,"y":2548280.5600000024}},{"attributes":{"ID":201048,"DIS_CODE":0,"TOWNNAME":"南區","LI":"大恩里","LIN":"20鄰","STREET":"國民路","SECT":" ","MAREA":" ","LANE":"２１７巷","ALLEY":"３０弄","HOUSE_NO":"８號","E_COORD97":169019.10999999999,"N_COORD97":2540805.2799999998,"ADDRESS":"國民路２１７巷３０弄８號","OBJECTID":201047},"geometry":{"x":169019.11000000034,"y":2540805.2800000012}},{"attributes":{"ID":201049,"DIS_CODE":0,"TOWNNAME":"南區","LI":"彰南里","LIN":"12鄰","STREET":"新孝路","SECT":" ","MAREA":" ","LANE":" ","ALLEY":" ","HOUSE_NO":"２１１號","E_COORD97":165904.01999999999,"N_COORD97":2542047.3100000001,"ADDRESS":"新孝路２１１號","OBJECTID":201048},"geometry":{"x":165904.02000000048,"y":2542047.3100000024}},{"attributes":{"ID":201050,"DIS_CODE":0,"TOWNNAME":"南區","LI":"新生里","LIN":"20鄰","STREET":"大同路","SECT":"二段","MAREA":" ","LANE":"１００巷","ALLEY":"２１弄","HOUSE_NO":"３號","E_COORD97":169203.73999999999,"N_COORD97":2542319.9900000002,"ADDRESS":"大同路二段１００巷２１弄３號","OBJECTID":201049},"geometry":{"x":169203.74000000115,"y":2542319.9900000021}},{"attributes":{"ID":201051,"DIS_CODE":0,"TOWNNAME":"南區","LI":"新生里","LIN":"20鄰","STREET":"大同路","SECT":"二段","MAREA":" ","LANE":"１００巷","ALLEY":"２１弄","HOUSE_NO":"５號","E_COORD97":169205.20999999999,"N_COORD97":2542313.23,"ADDRESS":"大同路二段１００巷２１弄５號","OBJECTID":201050},"geometry":{"x":169205.21000000183,"y":2542313.2300000004}},{"attributes":{"ID":201052,"DIS_CODE":0,"TOWNNAME":"永康區","LI":"尚頂里","LIN":"14鄰","STREET":"正南一街","SECT":" ","MAREA":" ","LANE":" ","ALLEY":" ","HOUSE_NO":"１８３號","E_COORD97":170651.04000000001,"N_COORD97":2547395.1699999999,"ADDRESS":"正南一街１８３號","OBJECTID":201051},"geometry":{"x":170651.04000000097,"y":2547395.1699999999}},{"attributes":{"ID":201053,"DIS_CODE":0,"TOWNNAME":"南區","LI":"新生里","LIN":"20鄰","STREET":"大同路","SECT":"二段","MAREA":" ","LANE":"１００巷","ALLEY":"２１弄","HOUSE_NO":"７號","E_COORD97":169207.95000000001,"N_COORD97":2542306.46,"ADDRESS":"大同路二段１００巷２１弄７號","OBJECTID":201052},"geometry":{"x":169207.95000000112,"y":2542306.4600000046}},{"attributes":{"ID":201054,"DIS_CODE":0,"TOWNNAME":"下營區","LI":"大埤里","LIN":"9鄰","STREET":" ","SECT":" ","MAREA":"大埤寮","LANE":" ","ALLEY":" ","HOUSE_NO":"７９號之３５","E_COORD97":173057.76999999999,"N_COORD97":2569460.6299999999,"ADDRESS":"大埤寮７９號之３５","OBJECTID":201053},"geometry":{"x":173057.77000000048,"y":2569460.6300000008}},{"attributes":{"ID":201055,"DIS_CODE":0,"TOWNNAME":"下營區","LI":"大埤里","LIN":"9鄰","STREET":" ","SECT":" ","MAREA":"大埤寮","LANE":" ","ALLEY":" ","HOUSE_NO":"７９號之３６","E_COORD97":172983.53,"N_COORD97":2569415.02,"ADDRESS":"大埤寮７９號之３６","OBJECTID":201054},"geometry":{"x":172983.52999999933,"y":2569415.0200000014}},{"attributes":{"ID":201056,"DIS_CODE":0,"TOWNNAME":"下營區","LI":"大埤里","LIN":"9鄰","STREET":" ","SECT":" ","MAREA":"大埤寮","LANE":" ","ALLEY":" ","HOUSE_NO":"７９號之３７","E_COORD97":172982.82999999999,"N_COORD97":2569406.71,"ADDRESS":"大埤寮７９號之３７","OBJECTID":201055},"geometry":{"x":172982.83000000007,"y":2569406.7100000009}},{"attributes":{"ID":201057,"DIS_CODE":0,"TOWNNAME":"下營區","LI":"大埤里","LIN":"9鄰","STREET":" ","SECT":" ","MAREA":"大埤寮","LANE":" ","ALLEY":" ","HOUSE_NO":"７９號之３８","E_COORD97":172719.20999999999,"N_COORD97":2569615.29,"ADDRESS":"大埤寮７９號之３８","OBJECTID":201056},"geometry":{"x":172719.20999999996,"y":2569615.2900000028}},{"attributes":{"ID":201058,"DIS_CODE":0,"TOWNNAME":"下營區","LI":"大埤里","LIN":"9鄰","STREET":" ","SECT":" ","MAREA":"大埤寮","LANE":" ","ALLEY":" ","HOUSE_NO":"７９號之３９","E_COORD97":173254.14999999999,"N_COORD97":2569618.0899999999,"ADDRESS":"大埤寮７９號之３９","OBJECTID":201057},"geometry":{"x":173254.15000000224,"y":2569618.0900000017}},{"attributes":{"ID":201059,"DIS_CODE":0,"TOWNNAME":"下營區","LI":"大埤里","LIN":"9鄰","STREET":" ","SECT":" ","MAREA":"大埤寮","LANE":" ","ALLEY":" ","HOUSE_NO":"７９號之３","E_COORD97":173029.17999999999,"N_COORD97":2569465.75,"ADDRESS":"大埤寮７９號之３","OBJECTID":201058},"geometry":{"x":173029.1799999997,"y":2569465.75}},{"attributes":{"ID":201060,"DIS_CODE":0,"TOWNNAME":"下營區","LI":"大埤里","LIN":"9鄰","STREET":" ","SECT":" ","MAREA":"大埤寮","LANE":" ","ALLEY":" ","HOUSE_NO":"７９號之４０","E_COORD97":173458.72,"N_COORD97":2569420.4399999999,"ADDRESS":"大埤寮７９號之４０","OBJECTID":201059},"geometry":{"x":173458.72000000067,"y":2569420.4399999995}},{"attributes":{"ID":201061,"DIS_CODE":0,"TOWNNAME":"下營區","LI":"大埤里","LIN":"9鄰","STREET":" ","SECT":" ","MAREA":"大埤寮","LANE":" ","ALLEY":" ","HOUSE_NO":"７９號之４１","E_COORD97":173082.42000000001,"N_COORD97":2569476.98,"ADDRESS":"大埤寮７９號之４１","OBJECTID":201060},"geometry":{"x":173082.42000000179,"y":2569476.9800000023}},{"attributes":{"ID":201062,"DIS_CODE":0,"TOWNNAME":"下營區","LI":"大埤里","LIN":"9鄰","STREET":" ","SECT":" ","MAREA":"大埤寮","LANE":" ","ALLEY":" ","HOUSE_NO":"７９號之４２","E_COORD97":173093.54999999999,"N_COORD97":2569475.6299999999,"ADDRESS":"大埤寮７９號之４２","OBJECTID":201061},"geometry":{"x":173093.55000000075,"y":2569475.629999999}},{"attributes":{"ID":201063,"DIS_CODE":0,"TOWNNAME":"下營區","LI":"大埤里","LIN":"9鄰","STREET":" ","SECT":" ","MAREA":"大埤寮","LANE":" ","ALLEY":" ","HOUSE_NO":"７９號之４","E_COORD97":173013.38,"N_COORD97":2569437.73,"ADDRESS":"大埤寮７９號之４","OBJECTID":201062},"geometry":{"x":173013.38000000082,"y":2569437.7300000023}},{"attributes":{"ID":201064,"DIS_CODE":0,"TOWNNAME":"下營區","LI":"大埤里","LIN":"9鄰","STREET":" ","SECT":" ","MAREA":"大埤寮","LANE":" ","ALLEY":" ","HOUSE_NO":"７９號之５","E_COORD97":173065.85999999999,"N_COORD97":2569489.6099999999,"ADDRESS":"大埤寮７９號之５","OBJECTID":201063},"geometry":{"x":173065.86000000034,"y":2569489.6100000013}},{"attributes":{"ID":201065,"DIS_CODE":0,"TOWNNAME":"善化區","LI":"東隆里","LIN":"3鄰","STREET":" ","SECT":" ","MAREA":"東勢寮","LANE":" ","ALLEY":" ","HOUSE_NO":"１４４號","E_COORD97":180170.95000000001,"N_COORD97":2561881.7599999998,"ADDRESS":"東勢寮１４４號","OBJECTID":201064},"geometry":{"x":180170.95000000019,"y":2561881.7599999998}},{"attributes":{"ID":201066,"DIS_CODE":0,"TOWNNAME":"善化區","LI":"嘉北里","LIN":"3鄰","STREET":" ","SECT":" ","MAREA":"茄拔","LANE":" ","ALLEY":" ","HOUSE_NO":"２３號","E_COORD97":181152.72,"N_COORD97":2559880.0099999998,"ADDRESS":"茄拔２３號","OBJECTID":201065},"geometry":{"x":181152.7200000016,"y":2559880.0099999998}},{"attributes":{"ID":201067,"DIS_CODE":0,"TOWNNAME":"善化區","LI":"嘉南里","LIN":"3鄰","STREET":" ","SECT":" ","MAREA":"茄拔","LANE":" ","ALLEY":" ","HOUSE_NO":"７５號","E_COORD97":180986.73000000001,"N_COORD97":2559415.2599999998,"ADDRESS":"茄拔７５號","OBJECTID":201066},"geometry":{"x":180986.73000000045,"y":2559415.2600000016}},{"attributes":{"ID":201068,"DIS_CODE":0,"TOWNNAME":"永康區","LI":"尚頂里","LIN":"8鄰","STREET":"中正二街","SECT":" ","MAREA":" ","LANE":" ","ALLEY":" ","HOUSE_NO":"５７號","E_COORD97":170914.31,"N_COORD97":2547413.8799999999,"ADDRESS":"中正二街５７號","OBJECTID":201067},"geometry":{"x":170914.30999999959,"y":2547413.879999999}},{"attributes":{"ID":201069,"DIS_CODE":0,"TOWNNAME":"下營區","LI":"下營里","LIN":"9鄰","STREET":"中山路","SECT":"一段","MAREA":" ","LANE":" ","ALLEY":" ","HOUSE_NO":"１１號","E_COORD97":174416.89000000001,"N_COORD97":2570491.5699999998,"ADDRESS":"中山路一段１１號","OBJECTID":201068},"geometry":{"x":174416.8900000006,"y":2570491.5700000003}},{"attributes":{"ID":201070,"DIS_CODE":0,"TOWNNAME":"北區","LI":"文元里","LIN":"20鄰","STREET":"海安路","SECT":"三段","MAREA":" ","LANE":"７８１巷","ALLEY":"２１１弄","HOUSE_NO":"１３號","E_COORD97":167554.84,"N_COORD97":2545944.6499999999,"ADDRESS":"海安路三段７８１巷２１１弄１３號","OBJECTID":201069},"geometry":{"x":167554.84000000171,"y":2545944.6500000004}},{"attributes":{"ID":201071,"DIS_CODE":0,"TOWNNAME":"北區","LI":"文元里","LIN":"20鄰","STREET":"海安路","SECT":"三段","MAREA":" ","LANE":"７８１巷","ALLEY":"２１１弄","HOUSE_NO":"１５號","E_COORD97":167558.59,"N_COORD97":2545942.4399999999,"ADDRESS":"海安路三段７８１巷２１１弄１５號","OBJECTID":201070},"geometry":{"x":167558.59000000078,"y":2545942.4399999995}},{"attributes":{"ID":201072,"DIS_CODE":0,"TOWNNAME":"北區","LI":"文元里","LIN":"20鄰","STREET":"海安路","SECT":"三段","MAREA":" ","LANE":"７８１巷","ALLEY":"２１１弄","HOUSE_NO":"１７號","E_COORD97":167562.34,"N_COORD97":2545944.4300000002,"ADDRESS":"海安路三段７８１巷２１１弄１７號","OBJECTID":201071},"geometry":{"x":167562.34000000078,"y":2545944.4300000016}},{"attributes":{"ID":201073,"DIS_CODE":0,"TOWNNAME":"善化區","LI":"六分里","LIN":"3鄰","STREET":" ","SECT":" ","MAREA":"東勢宅","LANE":" ","ALLEY":" ","HOUSE_NO":"２號之９（該建物係農","E_COORD97":177907.26000000001,"N_COORD97":2561168.9500000002,"ADDRESS":"東勢宅２號之９（該建物係農業設施不得設施）","OBJECTID":201072},"geometry":{"x":177907.25999999978,"y":2561168.950000003}},{"attributes":{"ID":201074,"DIS_CODE":0,"TOWNNAME":"善化區","LI":"六分里","LIN":"3鄰","STREET":" ","SECT":" ","MAREA":"東勢宅","LANE":" ","ALLEY":" ","HOUSE_NO":"８號之５","E_COORD97":178049.63,"N_COORD97":2560763.4300000002,"ADDRESS":"東勢宅８號之５","OBJECTID":201073},"geometry":{"x":178049.63000000082,"y":2560763.4300000016}},{"attributes":{"ID":201075,"DIS_CODE":0,"TOWNNAME":"善化區","LI":"六分里","LIN":"3鄰","STREET":" ","SECT":" ","MAREA":"東勢宅","LANE":" ","ALLEY":" ","HOUSE_NO":"１５３號","E_COORD97":177944.78,"N_COORD97":2560412.8500000001,"ADDRESS":"東勢宅１５３號","OBJECTID":201074},"geometry":{"x":177944.78000000026,"y":2560412.8499999996}},{"attributes":{"ID":201076,"DIS_CODE":0,"TOWNNAME":"下營區","LI":"中營里","LIN":"9鄰","STREET":" ","SECT":" ","MAREA":"中營","LANE":" ","ALLEY":" ","HOUSE_NO":"１０６４號","E_COORD97":175968.75,"N_COORD97":2568419.0800000001,"ADDRESS":"中營１０６４號","OBJECTID":201075},"geometry":{"x":175968.75000000186,"y":2568419.0800000019}},{"attributes":{"ID":201077,"DIS_CODE":0,"TOWNNAME":"下營區","LI":"中營里","LIN":"9鄰","STREET":" ","SECT":" ","MAREA":"中營","LANE":" ","ALLEY":" ","HOUSE_NO":"１０６５號","E_COORD97":175957.23999999999,"N_COORD97":2568448.3900000001,"ADDRESS":"中營１０６５號","OBJECTID":201076},"geometry":{"x":175957.24000000209,"y":2568448.3900000006}},{"attributes":{"ID":201078,"DIS_CODE":0,"TOWNNAME":"下營區","LI":"中營里","LIN":"9鄰","STREET":" ","SECT":" ","MAREA":"中營","LANE":" ","ALLEY":" ","HOUSE_NO":"１０６６號","E_COORD97":175970.92000000001,"N_COORD97":2568467.6400000001,"ADDRESS":"中營１０６６號","OBJECTID":201077},"geometry":{"x":175970.92000000179,"y":2568467.6400000006}},{"attributes":{"ID":201079,"DIS_CODE":0,"TOWNNAME":"下營區","LI":"中營里","LIN":"9鄰","STREET":" ","SECT":" ","MAREA":"中營","LANE":" ","ALLEY":" ","HOUSE_NO":"１０６７號","E_COORD97":175991.56,"N_COORD97":2568456.1099999999,"ADDRESS":"中營１０６７號","OBJECTID":201078},"geometry":{"x":175991.55999999866,"y":2568456.1099999994}},{"attributes":{"ID":201080,"DIS_CODE":0,"TOWNNAME":"下營區","LI":"中營里","LIN":"9鄰","STREET":" ","SECT":" ","MAREA":"中營","LANE":" ","ALLEY":" ","HOUSE_NO":"１０６８號","E_COORD97":176003.32000000001,"N_COORD97":2568450.2400000002,"ADDRESS":"中營１０６８號","OBJECTID":201079},"geometry":{"x":176003.32000000123,"y":2568450.2400000002}},{"attributes":{"ID":201081,"DIS_CODE":0,"TOWNNAME":"北區","LI":"文元里","LIN":"20鄰","STREET":"海安路","SECT":"三段","MAREA":" ","LANE":"７８１巷","ALLEY":"２１１弄","HOUSE_NO":"１９號","E_COORD97":167566.10000000001,"N_COORD97":2545942.2200000002,"ADDRESS":"海安路三段７８１巷２１１弄１９號","OBJECTID":201080},"geometry":{"x":167566.09999999963,"y":2545942.2199999988}},{"attributes":{"ID":201082,"DIS_CODE":0,"TOWNNAME":"下營區","LI":"後街里","LIN":"9鄰","STREET":"中正北路","SECT":" ","MAREA":" ","LANE":" ","ALLEY":" ","HOUSE_NO":"７３號","E_COORD97":174454.76000000001,"N_COORD97":2570701.5800000001,"ADDRESS":"中正北路７３號","OBJECTID":201081},"geometry":{"x":174454.76000000164,"y":2570701.5800000001}},{"attributes":{"ID":201083,"DIS_CODE":0,"TOWNNAME":"下營區","LI":"後街里","LIN":"9鄰","STREET":"中正北路","SECT":" ","MAREA":" ","LANE":" ","ALLEY":" ","HOUSE_NO":"７５號","E_COORD97":174449.25,"N_COORD97":2570704.2000000002,"ADDRESS":"中正北路７５號","OBJECTID":201082},"geometry":{"x":174449.25,"y":2570704.1999999974}},{"attributes":{"ID":201084,"DIS_CODE":0,"TOWNNAME":"下營區","LI":"後街里","LIN":"9鄰","STREET":"中正北路","SECT":" ","MAREA":" ","LANE":" ","ALLEY":" ","HOUSE_NO":"７７號","E_COORD97":174447.85999999999,"N_COORD97":2570708.4199999999,"ADDRESS":"中正北路７７號","OBJECTID":201083},"geometry":{"x":174447.8600000022,"y":2570708.4200000018}},{"attributes":{"ID":201085,"DIS_CODE":0,"TOWNNAME":"下營區","LI":"中營里","LIN":"9鄰","STREET":" ","SECT":" ","MAREA":"中營","LANE":" ","ALLEY":" ","HOUSE_NO":"１０６９號","E_COORD97":176005.81,"N_COORD97":2568439.1099999999,"ADDRESS":"中營１０６９號","OBJECTID":201084},"geometry":{"x":176005.81000000052,"y":2568439.1099999994}},{"attributes":{"ID":201086,"DIS_CODE":0,"TOWNNAME":"下營區","LI":"開化里","LIN":"9鄰","STREET":" ","SECT":" ","MAREA":"中營","LANE":" ","ALLEY":" ","HOUSE_NO":"５１３號","E_COORD97":176369.54999999999,"N_COORD97":2568023.6099999999,"ADDRESS":"中營５１３號","OBJECTID":201085},"geometry":{"x":176369.54999999981,"y":2568023.6100000031}},{"attributes":{"ID":201087,"DIS_CODE":0,"TOWNNAME":"下營區","LI":"開化里","LIN":"9鄰","STREET":" ","SECT":" ","MAREA":"中營","LANE":" ","ALLEY":" ","HOUSE_NO":"５３５號","E_COORD97":176255.82000000001,"N_COORD97":2568194.2200000002,"ADDRESS":"中營５３５號","OBJECTID":201086},"geometry":{"x":176255.82000000123,"y":2568194.2200000025}},{"attributes":{"ID":201088,"DIS_CODE":0,"TOWNNAME":"下營區","LI":"開化里","LIN":"9鄰","STREET":" ","SECT":" ","MAREA":"中營","LANE":" ","ALLEY":" ","HOUSE_NO":"５３７號","E_COORD97":176247.88,"N_COORD97":2568173.27,"ADDRESS":"中營５３７號","OBJECTID":201087},"geometry":{"x":176247.88000000082,"y":2568173.2700000014}},{"attributes":{"ID":201089,"DIS_CODE":0,"TOWNNAME":"北區","LI":"文元里","LIN":"20鄰","STREET":"海安路","SECT":"三段","MAREA":" ","LANE":"７８１巷","ALLEY":"２１１弄","HOUSE_NO":"１號","E_COORD97":167560.20999999999,"N_COORD97":2545973.8399999999,"ADDRESS":"海安路三段７８１巷２１１弄１號","OBJECTID":201088},"geometry":{"x":167560.20999999996,"y":2545973.8399999999}},{"attributes":{"ID":201090,"DIS_CODE":0,"TOWNNAME":"北區","LI":"文元里","LIN":"20鄰","STREET":"海安路","SECT":"三段","MAREA":" ","LANE":"７８１巷","ALLEY":"２１１弄","HOUSE_NO":"２１號","E_COORD97":167554.17000000001,"N_COORD97":2545932.0800000001,"ADDRESS":"海安路三段７８１巷２１１弄２１號","OBJECTID":201089},"geometry":{"x":167554.16999999993,"y":2545932.0800000001}},{"attributes":{"ID":201091,"DIS_CODE":0,"TOWNNAME":"北區","LI":"文元里","LIN":"20鄰","STREET":"海安路","SECT":"三段","MAREA":" ","LANE":"７８１巷","ALLEY":"２１１弄","HOUSE_NO":"２３號","E_COORD97":167558.14999999999,"N_COORD97":2545930.7599999998,"ADDRESS":"海安路三段７８１巷２１１弄２３號","OBJECTID":201090},"geometry":{"x":167558.15000000037,"y":2545930.7599999979}},{"attributes":{"ID":201092,"DIS_CODE":0,"TOWNNAME":"下營區","LI":"開化里","LIN":"9鄰","STREET":" ","SECT":" ","MAREA":"中營","LANE":" ","ALLEY":" ","HOUSE_NO":"５３９號","E_COORD97":176227.37,"N_COORD97":2568185.5099999998,"ADDRESS":"中營５３９號","OBJECTID":201091},"geometry":{"x":176227.36999999918,"y":2568185.5099999998}},{"attributes":{"ID":201093,"DIS_CODE":0,"TOWNNAME":"下營區","LI":"開化里","LIN":"9鄰","STREET":" ","SECT":" ","MAREA":"中營","LANE":" ","ALLEY":" ","HOUSE_NO":"５４０號","E_COORD97":176221.04000000001,"N_COORD97":2568185.0499999998,"ADDRESS":"中營５４０號","OBJECTID":201092},"geometry":{"x":176221.03999999911,"y":2568185.0500000026}},{"attributes":{"ID":201094,"DIS_CODE":0,"TOWNNAME":"北區","LI":"文元里","LIN":"20鄰","STREET":"海安路","SECT":"三段","MAREA":" ","LANE":"７８１巷","ALLEY":"２１１弄","HOUSE_NO":"２５號","E_COORD97":167561.89999999999,"N_COORD97":2545932.2999999998,"ADDRESS":"海安路三段７８１巷２１１弄２５號","OBJECTID":201093},"geometry":{"x":167561.9000000013,"y":2545932.3000000026}},{"attributes":{"ID":201095,"DIS_CODE":0,"TOWNNAME":"永康區","LI":"南灣里","LIN":"9鄰","STREET":"南興路","SECT":" ","MAREA":" ","LANE":"１０１巷","ALLEY":" ","HOUSE_NO":"１號","E_COORD97":174217.79999999999,"N_COORD97":2544339.5,"ADDRESS":"南興路１０１巷１號","OBJECTID":201094},"geometry":{"x":174217.80000000075,"y":2544339.5000000037}},{"attributes":{"ID":201096,"DIS_CODE":0,"TOWNNAME":"下營區","LI":"開化里","LIN":"9鄰","STREET":" ","SECT":" ","MAREA":"中營","LANE":" ","ALLEY":" ","HOUSE_NO":"５４１號","E_COORD97":176190.20999999999,"N_COORD97":2568177.9300000002,"ADDRESS":"中營５４１號","OBJECTID":201095},"geometry":{"x":176190.21000000089,"y":2568177.9300000016}},{"attributes":{"ID":201097,"DIS_CODE":0,"TOWNNAME":"永康區","LI":"正強里","LIN":"40鄰","STREET":"四維街","SECT":" ","MAREA":" ","LANE":" ","ALLEY":" ","HOUSE_NO":"２０９號","E_COORD97":173244,"N_COORD97":2548500.2999999998,"ADDRESS":"四維街２０９號","OBJECTID":201096},"geometry":{"x":173244,"y":2548500.3000000007}},{"attributes":{"ID":201098,"DIS_CODE":0,"TOWNNAME":"永康區","LI":"正強里","LIN":"40鄰","STREET":"四維街","SECT":" ","MAREA":" ","LANE":" ","ALLEY":" ","HOUSE_NO":"２１７號","E_COORD97":173238.5,"N_COORD97":2548515.5499999998,"ADDRESS":"四維街２１７號","OBJECTID":201097},"geometry":{"x":173238.50000000093,"y":2548515.5500000007}},{"attributes":{"ID":201099,"DIS_CODE":0,"TOWNNAME":"永康區","LI":"正強里","LIN":"40鄰","STREET":"四維街","SECT":" ","MAREA":" ","LANE":" ","ALLEY":" ","HOUSE_NO":"１６９號","E_COORD97":173277.09,"N_COORD97":2548409.1200000001,"ADDRESS":"四維街１６９號","OBJECTID":201098},"geometry":{"x":173277.08999999985,"y":2548409.1200000029}},{"attributes":{"ID":201100,"DIS_CODE":0,"TOWNNAME":"永康區","LI":"北灣里","LIN":"40鄰","STREET":"永大路","SECT":"二段","MAREA":" ","LANE":" ","ALLEY":" ","HOUSE_NO":"８５２之１號","E_COORD97":174533.82000000001,"N_COORD97":2546115.7799999998,"ADDRESS":"永大路二段８５２之１號","OBJECTID":201099},"geometry":{"x":174533.8200000003,"y":2546115.7799999993}},{"attributes":{"ID":201101,"DIS_CODE":0,"TOWNNAME":"永康區","LI":"正強里","LIN":"40鄰","STREET":"四維街","SECT":" ","MAREA":" ","LANE":" ","ALLEY":" ","HOUSE_NO":"１７３號","E_COORD97":173274.89000000001,"N_COORD97":2548416.3700000001,"ADDRESS":"四維街１７３號","OBJECTID":201100},"geometry":{"x":173274.88999999966,"y":2548416.370000001}},{"attributes":{"ID":201102,"DIS_CODE":0,"TOWNNAME":"北區","LI":"文元里","LIN":"20鄰","STREET":"海安路","SECT":"三段","MAREA":" ","LANE":"７８１巷","ALLEY":"２１１弄","HOUSE_NO":"２７號","E_COORD97":167565.70000000001,"N_COORD97":2545930.0699999998,"ADDRESS":"海安路三段７８１巷２１１弄２７號","OBJECTID":201101},"geometry":{"x":167565.70000000019,"y":2545930.0700000022}},{"attributes":{"ID":201103,"DIS_CODE":0,"TOWNNAME":"永康區","LI":"王行里","LIN":"9鄰","STREET":"王行路","SECT":" ","MAREA":" ","LANE":" ","ALLEY":" ","HOUSE_NO":"３８７號","E_COORD97":175403.89999999999,"N_COORD97":2548658.02,"ADDRESS":"王行路３８７號","OBJECTID":201102},"geometry":{"x":175403.9000000013,"y":2548658.0199999977}},{"attributes":{"ID":201104,"DIS_CODE":0,"TOWNNAME":"永康區","LI":"王行里","LIN":"9鄰","STREET":"王行路","SECT":" ","MAREA":" ","LANE":" ","ALLEY":" ","HOUSE_NO":"３８４號","E_COORD97":175432.01000000001,"N_COORD97":2548594.6899999999,"ADDRESS":"王行路３８４號","OBJECTID":201103},"geometry":{"x":175432.00999999978,"y":2548594.6899999995}},{"attributes":{"ID":201105,"DIS_CODE":0,"TOWNNAME":"北區","LI":"文元里","LIN":"20鄰","STREET":"海安路","SECT":"三段","MAREA":" ","LANE":"７８１巷","ALLEY":"２１１弄","HOUSE_NO":"２號","E_COORD97":167543.06,"N_COORD97":2545970.98,"ADDRESS":"海安路三段７８１巷２１１弄２號","OBJECTID":201104},"geometry":{"x":167543.06000000052,"y":2545970.9800000042}},{"attributes":{"ID":201106,"DIS_CODE":0,"TOWNNAME":"永康區","LI":"正強里","LIN":"9鄰","STREET":"自強路","SECT":" ","MAREA":" ","LANE":" ","ALLEY":" ","HOUSE_NO":"３１４號","E_COORD97":173377.79999999999,"N_COORD97":2547662.0600000001,"ADDRESS":"自強路３１４號","OBJECTID":201105},"geometry":{"x":173377.79999999981,"y":2547662.0599999987}},{"attributes":{"ID":201107,"DIS_CODE":0,"TOWNNAME":"佳里區","LI":"民安里","LIN":"9鄰","STREET":" ","SECT":" ","MAREA":"同安寮","LANE":" ","ALLEY":" ","HOUSE_NO":"９６號之５","E_COORD97":167528.85000000001,"N_COORD97":2562510.5,"ADDRESS":"同安寮９６號之５","OBJECTID":201106},"geometry":{"x":167528.84999999963,"y":2562510.5}},{"attributes":{"ID":201108,"DIS_CODE":0,"TOWNNAME":"佳里區","LI":"民安里","LIN":"9鄰","STREET":" ","SECT":" ","MAREA":"同安寮","LANE":" ","ALLEY":" ","HOUSE_NO":"１００號之１","E_COORD97":167418.19,"N_COORD97":2562419.0800000001,"ADDRESS":"同安寮１００號之１","OBJECTID":201107},"geometry":{"x":167418.19000000134,"y":2562419.0800000001}},{"attributes":{"ID":201109,"DIS_CODE":0,"TOWNNAME":"永康區","LI":"正強里","LIN":"9鄰","STREET":"正強街","SECT":" ","MAREA":" ","LANE":" ","ALLEY":" ","HOUSE_NO":"１７８號","E_COORD97":173326.10000000001,"N_COORD97":2547577.25,"ADDRESS":"正強街１７８號","OBJECTID":201108},"geometry":{"x":173326.09999999963,"y":2547577.2500000019}},{"attributes":{"ID":201110,"DIS_CODE":0,"TOWNNAME":"永康區","LI":"正強里","LIN":"9鄰","STREET":"自強路","SECT":" ","MAREA":" ","LANE":" ","ALLEY":" ","HOUSE_NO":"３２６號","E_COORD97":173397.70000000001,"N_COORD97":2547677.3100000001,"ADDRESS":"自強路３２６號","OBJECTID":201109},"geometry":{"x":173397.70000000205,"y":2547677.3099999987}},{"attributes":{"ID":201111,"DIS_CODE":0,"TOWNNAME":"北區","LI":"文元里","LIN":"20鄰","STREET":"海安路","SECT":"三段","MAREA":" ","LANE":"７８１巷","ALLEY":"２１１弄","HOUSE_NO":"３號","E_COORD97":167559.5,"N_COORD97":2545969.3199999998,"ADDRESS":"海安路三段７８１巷２１１弄３號","OBJECTID":201110},"geometry":{"x":167559.50000000093,"y":2545969.3200000022}},{"attributes":{"ID":201112,"DIS_CODE":0,"TOWNNAME":"北區","LI":"文元里","LIN":"20鄰","STREET":"海安路","SECT":"三段","MAREA":" ","LANE":"７８１巷","ALLEY":"２１１弄","HOUSE_NO":"５號","E_COORD97":167559.26000000001,"N_COORD97":2545965.04,"ADDRESS":"海安路三段７８１巷２１１弄５號","OBJECTID":201111},"geometry":{"x":167559.26000000071,"y":2545965.0399999991}},{"attributes":{"ID":201113,"DIS_CODE":0,"TOWNNAME":"北區","LI":"文元里","LIN":"20鄰","STREET":"海安路","SECT":"三段","MAREA":" ","LANE":"７８１巷","ALLEY":"２１１弄","HOUSE_NO":"６號","E_COORD97":167542.34,"N_COORD97":2545964.3199999998,"ADDRESS":"海安路三段７８１巷２１１弄６號","OBJECTID":201112},"geometry":{"x":167542.33999999985,"y":2545964.3200000003}},{"attributes":{"ID":201114,"DIS_CODE":0,"TOWNNAME":"佳里區","LI":"民安里","LIN":"9鄰","STREET":" ","SECT":" ","MAREA":"同安寮","LANE":" ","ALLEY":" ","HOUSE_NO":"１００號","E_COORD97":167450.54999999999,"N_COORD97":2562427.1899999999,"ADDRESS":"同安寮１００號","OBJECTID":201113},"geometry":{"x":167450.55000000075,"y":2562427.1899999995}},{"attributes":{"ID":201115,"DIS_CODE":0,"TOWNNAME":"北區","LI":"文元里","LIN":"20鄰","STREET":"海安路","SECT":"三段","MAREA":" ","LANE":"７８１巷","ALLEY":"２１１弄","HOUSE_NO":"７號","E_COORD97":167558.78,"N_COORD97":2545959.7999999998,"ADDRESS":"海安路三段７８１巷２１１弄７號","OBJECTID":201114},"geometry":{"x":167558.78000000026,"y":2545959.8000000026}},{"attributes":{"ID":201116,"DIS_CODE":0,"TOWNNAME":"北區","LI":"文元里","LIN":"20鄰","STREET":"海安路","SECT":"三段","MAREA":" ","LANE":"７８１巷","ALLEY":"２１１弄","HOUSE_NO":"８號","E_COORD97":167541.85999999999,"N_COORD97":2545957.6600000001,"ADDRESS":"海安路三段７８１巷２１１弄８號","OBJECTID":201115},"geometry":{"x":167541.86000000127,"y":2545957.6600000001}},{"attributes":{"ID":201117,"DIS_CODE":0,"TOWNNAME":"北區","LI":"文元里","LIN":"20鄰","STREET":"海安路","SECT":"三段","MAREA":" ","LANE":"７８１巷","ALLEY":"２１１弄","HOUSE_NO":"９號","E_COORD97":167557.59,"N_COORD97":2545956.4700000002,"ADDRESS":"海安路三段７８１巷２１１弄９號","OBJECTID":201116},"geometry":{"x":167557.58999999985,"y":2545956.4700000007}},{"attributes":{"ID":201118,"DIS_CODE":0,"TOWNNAME":"北區","LI":"文元里","LIN":"20鄰","STREET":"海安路","SECT":"三段","MAREA":" ","LANE":"７８１巷","ALLEY":"２１２弄","HOUSE_NO":"１０號","E_COORD97":167560.45000000001,"N_COORD97":2546003.5800000001,"ADDRESS":"海安路三段７８１巷２１２弄１０號","OBJECTID":201117},"geometry":{"x":167560.45000000019,"y":2546003.5799999982}},{"attributes":{"ID":201119,"DIS_CODE":0,"TOWNNAME":"佳里區","LI":"民安里","LIN":"9鄰","STREET":" ","SECT":" ","MAREA":"同安寮","LANE":" ","ALLEY":" ","HOUSE_NO":"１０１號","E_COORD97":167403.45999999999,"N_COORD97":2562381.4700000002,"ADDRESS":"同安寮１０１號","OBJECTID":201118},"geometry":{"x":167403.46000000089,"y":2562381.4700000025}},{"attributes":{"ID":201120,"DIS_CODE":0,"TOWNNAME":"佳里區","LI":"民安里","LIN":"9鄰","STREET":" ","SECT":" ","MAREA":"同安寮","LANE":" ","ALLEY":" ","HOUSE_NO":"１０２號之１","E_COORD97":167404.51000000001,"N_COORD97":2562407.2200000002,"ADDRESS":"同安寮１０２號之１","OBJECTID":201119},"geometry":{"x":167404.51000000164,"y":2562407.2200000025}},{"attributes":{"ID":201121,"DIS_CODE":0,"TOWNNAME":"佳里區","LI":"民安里","LIN":"9鄰","STREET":" ","SECT":" ","MAREA":"同安寮","LANE":" ","ALLEY":" ","HOUSE_NO":"１０２號","E_COORD97":167410.42000000001,"N_COORD97":2562410.1699999999,"ADDRESS":"同安寮１０２號","OBJECTID":201120},"geometry":{"x":167410.42000000086,"y":2562410.1700000018}},{"attributes":{"ID":201122,"DIS_CODE":0,"TOWNNAME":"佳里區","LI":"民安里","LIN":"9鄰","STREET":" ","SECT":" ","MAREA":"同安寮","LANE":" ","ALLEY":" ","HOUSE_NO":"１０３號","E_COORD97":167377.60999999999,"N_COORD97":2562441.98,"ADDRESS":"同安寮１０３號","OBJECTID":201121},"geometry":{"x":167377.61000000127,"y":2562441.9800000023}},{"attributes":{"ID":201123,"DIS_CODE":0,"TOWNNAME":"佳里區","LI":"民安里","LIN":"9鄰","STREET":" ","SECT":" ","MAREA":"同安寮","LANE":" ","ALLEY":" ","HOUSE_NO":"１０４號之１","E_COORD97":167368.53,"N_COORD97":2562410.46,"ADDRESS":"同安寮１０４號之１","OBJECTID":201122},"geometry":{"x":167368.53000000026,"y":2562410.4600000009}},{"attributes":{"ID":201124,"DIS_CODE":0,"TOWNNAME":"佳里區","LI":"民安里","LIN":"9鄰","STREET":" ","SECT":" ","MAREA":"同安寮","LANE":" ","ALLEY":" ","HOUSE_NO":"１０４號之２","E_COORD97":167355.14999999999,"N_COORD97":2562417.9500000002,"ADDRESS":"同安寮１０４號之２","OBJECTID":201123},"geometry":{"x":167355.1500000013,"y":2562417.9500000011}},{"attributes":{"ID":201125,"DIS_CODE":0,"TOWNNAME":"永康區","LI":"西灣里","LIN":"21鄰","STREET":"國光六街","SECT":" ","MAREA":" ","LANE":" ","ALLEY":" ","HOUSE_NO":"２４號","E_COORD97":174256.79000000001,"N_COORD97":2545277.3100000001,"ADDRESS":"國光六街２４號","OBJECTID":201124},"geometry":{"x":174256.79000000097,"y":2545277.3100000042}},{"attributes":{"ID":201126,"DIS_CODE":0,"TOWNNAME":"北區","LI":"文元里","LIN":"20鄰","STREET":"海安路","SECT":"三段","MAREA":" ","LANE":"７８１巷","ALLEY":"２１２弄","HOUSE_NO":"１１號","E_COORD97":167541.63,"N_COORD97":2546012.6200000001,"ADDRESS":"海安路三段７８１巷２１２弄１１號","OBJECTID":201125},"geometry":{"x":167541.63000000082,"y":2546012.6200000029}},{"attributes":{"ID":201127,"DIS_CODE":0,"TOWNNAME":"佳里區","LI":"民安里","LIN":"9鄰","STREET":" ","SECT":" ","MAREA":"同安寮","LANE":" ","ALLEY":" ","HOUSE_NO":"１０６號之１","E_COORD97":167322.73999999999,"N_COORD97":2562420.3500000001,"ADDRESS":"同安寮１０６號之１","OBJECTID":201126},"geometry":{"x":167322.74000000115,"y":2562420.3499999996}},{"attributes":{"ID":201128,"DIS_CODE":0,"TOWNNAME":"北區","LI":"文元里","LIN":"20鄰","STREET":"海安路","SECT":"三段","MAREA":" ","LANE":"７８１巷","ALLEY":"２１２弄","HOUSE_NO":"１２號","E_COORD97":167561.16,"N_COORD97":2546009.0499999998,"ADDRESS":"海安路三段７８１巷２１２弄１２號","OBJECTID":201127},"geometry":{"x":167561.16000000015,"y":2546009.0500000026}},{"attributes":{"ID":201129,"DIS_CODE":0,"TOWNNAME":"佳里區","LI":"民安里","LIN":"9鄰","STREET":" ","SECT":" ","MAREA":"同安寮","LANE":" ","ALLEY":" ","HOUSE_NO":"１０６號之２","E_COORD97":167322.54000000001,"N_COORD97":2562415.0899999999,"ADDRESS":"同安寮１０６號之２","OBJECTID":201128},"geometry":{"x":167322.54000000004,"y":2562415.0899999999}},{"attributes":{"ID":201130,"DIS_CODE":0,"TOWNNAME":"北區","LI":"文元里","LIN":"20鄰","STREET":"海安路","SECT":"三段","MAREA":" ","LANE":"７８１巷","ALLEY":"２１２弄","HOUSE_NO":"１６號","E_COORD97":167559.01999999999,"N_COORD97":2546014.52,"ADDRESS":"海安路三段７８１巷２１２弄１６號","OBJECTID":201129},"geometry":{"x":167559.02000000048,"y":2546014.5200000014}},{"attributes":{"ID":201131,"DIS_CODE":0,"TOWNNAME":"北區","LI":"文元里","LIN":"20鄰","STREET":"海安路","SECT":"三段","MAREA":" ","LANE":"７８１巷","ALLEY":"２１２弄","HOUSE_NO":"１號","E_COORD97":167539.72,"N_COORD97":2545986.4500000002,"ADDRESS":"海安路三段７８１巷２１２弄１號","OBJECTID":201130},"geometry":{"x":167539.71999999974,"y":2545986.4499999993}},{"attributes":{"ID":201132,"DIS_CODE":0,"TOWNNAME":"北區","LI":"文元里","LIN":"20鄰","STREET":"海安路","SECT":"三段","MAREA":" ","LANE":"７８１巷","ALLEY":"２１２弄","HOUSE_NO":"２號","E_COORD97":167559.97,"N_COORD97":2545987.8799999999,"ADDRESS":"海安路三段７８１巷２１２弄２號","OBJECTID":201131},"geometry":{"x":167559.96999999974,"y":2545987.8800000008}},{"attributes":{"ID":201133,"DIS_CODE":0,"TOWNNAME":"北區","LI":"文元里","LIN":"20鄰","STREET":"海安路","SECT":"三段","MAREA":" ","LANE":"７８１巷","ALLEY":"２１２弄","HOUSE_NO":"３號","E_COORD97":167540.67000000001,"N_COORD97":2545991.6800000002,"ADDRESS":"海安路三段７８１巷２１２弄３號","OBJECTID":201132},"geometry":{"x":167540.66999999899,"y":2545991.6799999997}},{"attributes":{"ID":201134,"DIS_CODE":0,"TOWNNAME":"北區","LI":"文元里","LIN":"20鄰","STREET":"海安路","SECT":"三段","MAREA":" ","LANE":"７８１巷","ALLEY":"２１２弄","HOUSE_NO":"５號","E_COORD97":167541.14999999999,"N_COORD97":2545997.1600000001,"ADDRESS":"海安路三段７８１巷２１２弄５號","OBJECTID":201133},"geometry":{"x":167541.15000000037,"y":2545997.160000002}},{"attributes":{"ID":201135,"DIS_CODE":0,"TOWNNAME":"北區","LI":"文元里","LIN":"20鄰","STREET":"海安路","SECT":"三段","MAREA":" ","LANE":"７８１巷","ALLEY":"２１２弄","HOUSE_NO":"６號","E_COORD97":167559.97,"N_COORD97":2545992.1600000001,"ADDRESS":"海安路三段７８１巷２１２弄６號","OBJECTID":201134},"geometry":{"x":167559.96999999974,"y":2545992.1600000001}},{"attributes":{"ID":201136,"DIS_CODE":0,"TOWNNAME":"北區","LI":"文元里","LIN":"20鄰","STREET":"海安路","SECT":"三段","MAREA":" ","LANE":"７８１巷","ALLEY":"２１２弄","HOUSE_NO":"７號","E_COORD97":167541.14999999999,"N_COORD97":2546002.6299999999,"ADDRESS":"海安路三段７８１巷２１２弄７號","OBJECTID":201135},"geometry":{"x":167541.15000000037,"y":2546002.6300000008}},{"attributes":{"ID":201137,"DIS_CODE":0,"TOWNNAME":"北區","LI":"文元里","LIN":"20鄰","STREET":"海安路","SECT":"三段","MAREA":" ","LANE":"７８１巷","ALLEY":"２１２弄","HOUSE_NO":"８號","E_COORD97":167560.20999999999,"N_COORD97":2545997.8700000001,"ADDRESS":"海安路三段７８１巷２１２弄８號","OBJECTID":201136},"geometry":{"x":167560.20999999996,"y":2545997.870000001}},{"attributes":{"ID":201138,"DIS_CODE":0,"TOWNNAME":"北區","LI":"文元里","LIN":"20鄰","STREET":"海安路","SECT":"三段","MAREA":" ","LANE":"７８１巷","ALLEY":"２１２弄","HOUSE_NO":"９號","E_COORD97":167541.39000000001,"N_COORD97":2546007.6299999999,"ADDRESS":"海安路三段７８１巷２１２弄９號","OBJECTID":201137},"geometry":{"x":167541.3900000006,"y":2546007.629999999}},{"attributes":{"ID":201139,"DIS_CODE":0,"TOWNNAME":"佳里區","LI":"民安里","LIN":"9鄰","STREET":" ","SECT":" ","MAREA":"同安寮","LANE":" ","ALLEY":" ","HOUSE_NO":"１０６號之３","E_COORD97":167317.60999999999,"N_COORD97":2562405.48,"ADDRESS":"同安寮１０６號之３","OBJECTID":201138},"geometry":{"x":167317.61000000034,"y":2562405.4800000023}},{"attributes":{"ID":201140,"DIS_CODE":0,"TOWNNAME":"佳里區","LI":"民安里","LIN":"9鄰","STREET":" ","SECT":" ","MAREA":"同安寮","LANE":" ","ALLEY":" ","HOUSE_NO":"１０６號之４","E_COORD97":167317.70000000001,"N_COORD97":2562400.9900000002,"ADDRESS":"同安寮１０６號之４","OBJECTID":201139},"geometry":{"x":167317.70000000112,"y":2562400.9900000021}},{"attributes":{"ID":201141,"DIS_CODE":0,"TOWNNAME":"佳里區","LI":"民安里","LIN":"9鄰","STREET":" ","SECT":" ","MAREA":"同安寮","LANE":" ","ALLEY":" ","HOUSE_NO":"１０６號之５","E_COORD97":167316.41,"N_COORD97":2562396.5299999998,"ADDRESS":"同安寮１０６號之５","OBJECTID":201140},"geometry":{"x":167316.41000000108,"y":2562396.5300000012}},{"attributes":{"ID":201142,"DIS_CODE":0,"TOWNNAME":"佳里區","LI":"民安里","LIN":"9鄰","STREET":" ","SECT":" ","MAREA":"同安寮","LANE":" ","ALLEY":" ","HOUSE_NO":"１０６號之６","E_COORD97":167335.51000000001,"N_COORD97":2562402.6000000001,"ADDRESS":"同安寮１０６號之６","OBJECTID":201141},"geometry":{"x":167335.51000000071,"y":2562402.6000000034}},{"attributes":{"ID":201143,"DIS_CODE":0,"TOWNNAME":"佳里區","LI":"民安里","LIN":"9鄰","STREET":" ","SECT":" ","MAREA":"同安寮","LANE":" ","ALLEY":" ","HOUSE_NO":"１０６號之７","E_COORD97":167339.98999999999,"N_COORD97":2562402.8700000001,"ADDRESS":"同安寮１０６號之７","OBJECTID":201142},"geometry":{"x":167339.99000000022,"y":2562402.8700000029}},{"attributes":{"ID":201144,"DIS_CODE":0,"TOWNNAME":"佳里區","LI":"民安里","LIN":"9鄰","STREET":" ","SECT":" ","MAREA":"同安寮","LANE":" ","ALLEY":" ","HOUSE_NO":"１０６號","E_COORD97":167319.39999999999,"N_COORD97":2562410.1899999999,"ADDRESS":"同安寮１０６號","OBJECTID":201143},"geometry":{"x":167319.40000000224,"y":2562410.1899999995}},{"attributes":{"ID":201145,"DIS_CODE":0,"TOWNNAME":"佳里區","LI":"民安里","LIN":"9鄰","STREET":" ","SECT":" ","MAREA":"同安寮","LANE":" ","ALLEY":" ","HOUSE_NO":"１０７號之１","E_COORD97":167332.45999999999,"N_COORD97":2562452.3700000001,"ADDRESS":"同安寮１０７號之１","OBJECTID":201144},"geometry":{"x":167332.46000000089,"y":2562452.370000001}},{"attributes":{"ID":201146,"DIS_CODE":0,"TOWNNAME":"佳里區","LI":"民安里","LIN":"9鄰","STREET":" ","SECT":" ","MAREA":"同安寮","LANE":" ","ALLEY":" ","HOUSE_NO":"１０７號之２","E_COORD97":167330.94,"N_COORD97":2562448.2599999998,"ADDRESS":"同安寮１０７號之２","OBJECTID":201145},"geometry":{"x":167330.94000000227,"y":2562448.2599999998}},{"attributes":{"ID":201147,"DIS_CODE":0,"TOWNNAME":"善化區","LI":"胡家里","LIN":"3鄰","STREET":" ","SECT":" ","MAREA":"胡厝寮","LANE":" ","ALLEY":" ","HOUSE_NO":"２０號之７","E_COORD97":175551.79000000001,"N_COORD97":2560622.77,"ADDRESS":"胡厝寮２０號之７","OBJECTID":201146},"geometry":{"x":175551.79000000097,"y":2560622.7700000014}},{"attributes":{"ID":201148,"DIS_CODE":0,"TOWNNAME":"佳里區","LI":"民安里","LIN":"9鄰","STREET":" ","SECT":" ","MAREA":"同安寮","LANE":" ","ALLEY":" ","HOUSE_NO":"１０７號之５","E_COORD97":167376.95999999999,"N_COORD97":2562468.1299999999,"ADDRESS":"同安寮１０７號之５","OBJECTID":201147},"geometry":{"x":167376.95999999996,"y":2562468.129999999}},{"attributes":{"ID":201149,"DIS_CODE":0,"TOWNNAME":"佳里區","LI":"民安里","LIN":"9鄰","STREET":" ","SECT":" ","MAREA":"同安寮","LANE":" ","ALLEY":" ","HOUSE_NO":"１０７號","E_COORD97":167327.48000000001,"N_COORD97":2562428.7999999998,"ADDRESS":"同安寮１０７號","OBJECTID":201148},"geometry":{"x":167327.48000000138,"y":2562428.8000000007}},{"attributes":{"ID":201150,"DIS_CODE":0,"TOWNNAME":"佳里區","LI":"民安里","LIN":"9鄰","STREET":" ","SECT":" ","MAREA":"同安寮","LANE":" ","ALLEY":" ","HOUSE_NO":"９６號之１０","E_COORD97":167537.60000000001,"N_COORD97":2562492.5099999998,"ADDRESS":"同安寮９６號之１０","OBJECTID":201149},"geometry":{"x":167537.60000000149,"y":2562492.5100000016}},{"attributes":{"ID":201151,"DIS_CODE":0,"TOWNNAME":"佳里區","LI":"民安里","LIN":"9鄰","STREET":" ","SECT":" ","MAREA":"同安寮","LANE":" ","ALLEY":" ","HOUSE_NO":"９６號之１１","E_COORD97":167543.92999999999,"N_COORD97":2562513.9199999999,"ADDRESS":"同安寮９６號之１１","OBJECTID":201150},"geometry":{"x":167543.93000000156,"y":2562513.9200000018}},{"attributes":{"ID":201152,"DIS_CODE":0,"TOWNNAME":"北區","LI":"文元里","LIN":"20鄰","STREET":"海安路","SECT":"三段","MAREA":" ","LANE":"７８１巷","ALLEY":"２１５弄","HOUSE_NO":"１０號","E_COORD97":167500.64000000001,"N_COORD97":2545954.5699999998,"ADDRESS":"海安路三段７８１巷２１５弄１０號","OBJECTID":201151},"geometry":{"x":167500.6400000006,"y":2545954.5700000022}},{"attributes":{"ID":201153,"DIS_CODE":0,"TOWNNAME":"歸仁區","LI":"看西里","LIN":"22鄰","STREET":"成功七街","SECT":" ","MAREA":" ","LANE":" ","ALLEY":" ","HOUSE_NO":"７１號","E_COORD97":178263.95999999999,"N_COORD97":2539798.3599999999,"ADDRESS":"成功七街７１號","OBJECTID":201152},"geometry":{"x":178263.95999999996,"y":2539798.3600000013}},{"attributes":{"ID":201154,"DIS_CODE":0,"TOWNNAME":"北區","LI":"文元里","LIN":"20鄰","STREET":"海安路","SECT":"三段","MAREA":" ","LANE":"７８１巷","ALLEY":"２１５弄","HOUSE_NO":"１號","E_COORD97":167518.51000000001,"N_COORD97":2545971.2200000002,"ADDRESS":"海安路三段７８１巷２１５弄１號","OBJECTID":201153},"geometry":{"x":167518.51000000071,"y":2545971.2200000025}},{"attributes":{"ID":201155,"DIS_CODE":0,"TOWNNAME":"北區","LI":"文元里","LIN":"20鄰","STREET":"海安路","SECT":"三段","MAREA":" ","LANE":"７８１巷","ALLEY":"２１５弄","HOUSE_NO":"２號","E_COORD97":167502.54999999999,"N_COORD97":2545971.7000000002,"ADDRESS":"海安路三段７８１巷２１５弄２號","OBJECTID":201154},"geometry":{"x":167502.55000000168,"y":2545971.700000003}},{"attributes":{"ID":201156,"DIS_CODE":0,"TOWNNAME":"北區","LI":"文元里","LIN":"20鄰","STREET":"海安路","SECT":"三段","MAREA":" ","LANE":"７８１巷","ALLEY":"２１５弄","HOUSE_NO":"３號","E_COORD97":167518.51000000001,"N_COORD97":2545964.5600000001,"ADDRESS":"海安路三段７８１巷２１５弄３號","OBJECTID":201155},"geometry":{"x":167518.51000000071,"y":2545964.5600000024}},{"attributes":{"ID":201157,"DIS_CODE":0,"TOWNNAME":"佳里區","LI":"民安里","LIN":"9鄰","STREET":" ","SECT":" ","MAREA":"同安寮","LANE":" ","ALLEY":" ","HOUSE_NO":"９６號之１２","E_COORD97":167542.98999999999,"N_COORD97":2562493.5600000001,"ADDRESS":"同安寮９６號之１２","OBJECTID":201156},"geometry":{"x":167542.99000000115,"y":2562493.5600000005}},{"attributes":{"ID":201158,"DIS_CODE":0,"TOWNNAME":"北區","LI":"文元里","LIN":"20鄰","STREET":"海安路","SECT":"三段","MAREA":" ","LANE":"７８１巷","ALLEY":"２１５弄","HOUSE_NO":"５號","E_COORD97":167518.04000000001,"N_COORD97":2545959.0899999999,"ADDRESS":"海安路三段７８１巷２１５弄５號","OBJECTID":201157},"geometry":{"x":167518.0400000019,"y":2545959.0899999999}},{"attributes":{"ID":201159,"DIS_CODE":0,"TOWNNAME":"北區","LI":"文元里","LIN":"20鄰","STREET":"海安路","SECT":"三段","MAREA":" ","LANE":"７８１巷","ALLEY":"２１５弄","HOUSE_NO":"６號","E_COORD97":167502.54999999999,"N_COORD97":2545965.9900000002,"ADDRESS":"海安路三段７８１巷２１５弄６號","OBJECTID":201158},"geometry":{"x":167502.55000000168,"y":2545965.9900000002}},{"attributes":{"ID":201160,"DIS_CODE":0,"TOWNNAME":"永康區","LI":"\u25A0行里","LIN":"13鄰","STREET":"中正南路","SECT":" ","MAREA":" ","LANE":" ","ALLEY":" ","HOUSE_NO":"７７０號","E_COORD97":171776.60000000001,"N_COORD97":2548994.75,"ADDRESS":"中正南路７７０號","OBJECTID":201159},"geometry":{"x":171776.59999999963,"y":2548994.75}},{"attributes":{"ID":201161,"DIS_CODE":0,"TOWNNAME":"北區","LI":"文元里","LIN":"20鄰","STREET":"海安路","SECT":"三段","MAREA":" ","LANE":"７８１巷","ALLEY":"２１５弄","HOUSE_NO":"７號","E_COORD97":167516.60999999999,"N_COORD97":2545953.6200000001,"ADDRESS":"海安路三段７８１巷２１５弄７號","OBJECTID":201160},"geometry":{"x":167516.61000000127,"y":2545953.6200000048}},{"attributes":{"ID":201162,"DIS_CODE":0,"TOWNNAME":"北區","LI":"文元里","LIN":"20鄰","STREET":"海安路","SECT":"三段","MAREA":" ","LANE":"７８１巷","ALLEY":"２１５弄","HOUSE_NO":"８號","E_COORD97":167501.60000000001,"N_COORD97":2545959.0899999999,"ADDRESS":"海安路三段７８１巷２１５弄８號","OBJECTID":201161},"geometry":{"x":167501.59999999963,"y":2545959.0899999999}},{"attributes":{"ID":201163,"DIS_CODE":0,"TOWNNAME":"北區","LI":"文元里","LIN":"20鄰","STREET":"海安路","SECT":"三段","MAREA":" ","LANE":"７８１巷","ALLEY":"２１６弄","HOUSE_NO":"１０號","E_COORD97":167518.98999999999,"N_COORD97":2546001.2000000002,"ADDRESS":"海安路三段７８１巷２１６弄１０號","OBJECTID":201162},"geometry":{"x":167518.99000000115,"y":2546001.1999999993}},{"attributes":{"ID":201164,"DIS_CODE":0,"TOWNNAME":"北區","LI":"文元里","LIN":"20鄰","STREET":"海安路","SECT":"三段","MAREA":" ","LANE":"７８１巷","ALLEY":"２１６弄","HOUSE_NO":"１１號","E_COORD97":167500.88,"N_COORD97":2546010.7200000002,"ADDRESS":"海安路三段７８１巷２１６弄１１號","OBJECTID":201163},"geometry":{"x":167500.88000000082,"y":2546010.7200000025}},{"attributes":{"ID":201165,"DIS_CODE":0,"TOWNNAME":"北區","LI":"文元里","LIN":"20鄰","STREET":"海安路","SECT":"三段","MAREA":" ","LANE":"７８１巷","ALLEY":"２１６弄","HOUSE_NO":"１２號","E_COORD97":167519.47,"N_COORD97":2546005.7200000002,"ADDRESS":"海安路三段７８１巷２１６弄１２號","OBJECTID":201164},"geometry":{"x":167519.46999999974,"y":2546005.7200000007}},{"attributes":{"ID":201166,"DIS_CODE":0,"TOWNNAME":"北區","LI":"文元里","LIN":"20鄰","STREET":"海安路","SECT":"三段","MAREA":" ","LANE":"７８１巷","ALLEY":"２１６弄","HOUSE_NO":"１６號","E_COORD97":167518.98999999999,"N_COORD97":2546010.96,"ADDRESS":"海安路三段７８１巷２１６弄１６號","OBJECTID":201165},"geometry":{"x":167518.99000000115,"y":2546010.9600000009}},{"attributes":{"ID":201167,"DIS_CODE":0,"TOWNNAME":"北區","LI":"文元里","LIN":"20鄰","STREET":"海安路","SECT":"三段","MAREA":" ","LANE":"７８１巷","ALLEY":"２１６弄","HOUSE_NO":"１號","E_COORD97":167499.92999999999,"N_COORD97":2545985.7400000002,"ADDRESS":"海安路三段７８１巷２１６弄１號","OBJECTID":201166},"geometry":{"x":167499.93000000063,"y":2545985.7399999984}},{"attributes":{"ID":201168,"DIS_CODE":0,"TOWNNAME":"北區","LI":"文元里","LIN":"20鄰","STREET":"海安路","SECT":"三段","MAREA":" ","LANE":"７８１巷","ALLEY":"２１６弄","HOUSE_NO":"２號","E_COORD97":167517.79999999999,"N_COORD97":2545986.21,"ADDRESS":"海安路三段７８１巷２１６弄２號","OBJECTID":201167},"geometry":{"x":167517.80000000168,"y":2545986.2100000009}},{"attributes":{"ID":201169,"DIS_CODE":0,"TOWNNAME":"永康區","LI":"\u25A0洲里","LIN":"7鄰","STREET":"三村二街","SECT":" ","MAREA":" ","LANE":" ","ALLEY":" ","HOUSE_NO":"９８號","E_COORD97":171767.32999999999,"N_COORD97":2549529.5,"ADDRESS":"三村二街９８號","OBJECTID":201168},"geometry":{"x":171767.33000000007,"y":2549529.5}},{"attributes":{"ID":201170,"DIS_CODE":0,"TOWNNAME":"永康區","LI":"\u25A0行里","LIN":"15鄰","STREET":"中正南路","SECT":" ","MAREA":" ","LANE":" ","ALLEY":" ","HOUSE_NO":"７３４號","E_COORD97":171717.70999999999,"N_COORD97":2548943.4900000002,"ADDRESS":"中正南路７３４號","OBJECTID":201169},"geometry":{"x":171717.71000000089,"y":2548943.4900000002}},{"attributes":{"ID":201171,"DIS_CODE":0,"TOWNNAME":"安南區","LI":"顯宮里","LIN":"9鄰","STREET":"媽祖宮一街","SECT":" ","MAREA":" ","LANE":" ","ALLEY":" ","HOUSE_NO":"１３８號","E_COORD97":160247.37,"N_COORD97":2548723.6899999999,"ADDRESS":"媽祖宮一街１３８號","OBJECTID":201170},"geometry":{"x":160247.37000000104,"y":2548723.6899999995}},{"attributes":{"ID":201172,"DIS_CODE":0,"TOWNNAME":"安南區","LI":"顯宮里","LIN":"9鄰","STREET":"媽祖宮路","SECT":" ","MAREA":" ","LANE":" ","ALLEY":" ","HOUSE_NO":"２５２號","E_COORD97":160313.72,"N_COORD97":2548671.1000000001,"ADDRESS":"媽祖宮路２５２號","OBJECTID":201171},"geometry":{"x":160313.7200000016,"y":2548671.0999999996}},{"attributes":{"ID":201173,"DIS_CODE":0,"TOWNNAME":"安南區","LI":"顯宮里","LIN":"9鄰","STREET":"媽祖宮二街","SECT":" ","MAREA":" ","LANE":" ","ALLEY":" ","HOUSE_NO":"２１０號","E_COORD97":160251.92000000001,"N_COORD97":2548743.5899999999,"ADDRESS":"媽祖宮二街２１０號","OBJECTID":201172},"geometry":{"x":160251.92000000086,"y":2548743.5900000017}},{"attributes":{"ID":201174,"DIS_CODE":0,"TOWNNAME":"安南區","LI":"顯宮里","LIN":"9鄰","STREET":"媽祖宮五街","SECT":" ","MAREA":" ","LANE":" ","ALLEY":" ","HOUSE_NO":"５１號","E_COORD97":160232.28,"N_COORD97":2548755.0699999998,"ADDRESS":"媽祖宮五街５１號","OBJECTID":201173},"geometry":{"x":160232.28000000026,"y":2548755.0700000022}},{"attributes":{"ID":201175,"DIS_CODE":0,"TOWNNAME":"安南區","LI":"顯宮里","LIN":"9鄰","STREET":"媽祖宮一街","SECT":" ","MAREA":" ","LANE":" ","ALLEY":" ","HOUSE_NO":"１３８號","E_COORD97":160335.91,"N_COORD97":2548910.77,"ADDRESS":"媽祖宮一街１３８號","OBJECTID":201174},"geometry":{"x":160335.91000000015,"y":2548910.7700000033}},{"attributes":{"ID":201176,"DIS_CODE":0,"TOWNNAME":"永康區","LI":"埔園里","LIN":" ","STREET":"自強路","SECT":" ","MAREA":" ","LANE":" ","ALLEY":" ","HOUSE_NO":"６０７號","E_COORD97":174179.12,"N_COORD97":2548327.46,"ADDRESS":"自強路６０７號","OBJECTID":201175},"geometry":{"x":174179.12000000011,"y":2548327.4600000009}},{"attributes":{"ID":201177,"DIS_CODE":0,"TOWNNAME":"永康區","LI":"\u25A0行里","LIN":"42鄰","STREET":"永安路","SECT":" ","MAREA":" ","LANE":" ","ALLEY":" ","HOUSE_NO":"２２７號","E_COORD97":172451.67999999999,"N_COORD97":2549643.9100000001,"ADDRESS":"永安路２２７號","OBJECTID":201176},"geometry":{"x":172451.68000000063,"y":2549643.910000002}},{"attributes":{"ID":201178,"DIS_CODE":0,"TOWNNAME":"永康區","LI":"\u25A0洲里","LIN":"24鄰","STREET":"正南二街","SECT":" ","MAREA":" ","LANE":" ","ALLEY":" ","HOUSE_NO":"１１０號","E_COORD97":170686.85000000001,"N_COORD97":2548429.3399999999,"ADDRESS":"正南二街１１０號","OBJECTID":201177},"geometry":{"x":170686.84999999963,"y":2548429.3400000036}},{"attributes":{"ID":201179,"DIS_CODE":0,"TOWNNAME":"善化區","LI":"胡家里","LIN":"3鄰","STREET":" ","SECT":" ","MAREA":"胡厝寮","LANE":" ","ALLEY":" ","HOUSE_NO":"２９號之３","E_COORD97":175545.06,"N_COORD97":2560519.21,"ADDRESS":"胡厝寮２９號之３","OBJECTID":201178},"geometry":{"x":175545.05999999959,"y":2560519.2100000028}},{"attributes":{"ID":201180,"DIS_CODE":0,"TOWNNAME":"永康區","LI":"\u25A0洲里","LIN":"7鄰","STREET":"三村二街","SECT":" ","MAREA":" ","LANE":" ","ALLEY":" ","HOUSE_NO":"６１號","E_COORD97":171840.73999999999,"N_COORD97":2549458.75,"ADDRESS":"三村二街６１號","OBJECTID":201179},"geometry":{"x":171840.74000000022,"y":2549458.7500000019}},{"attributes":{"ID":201181,"DIS_CODE":0,"TOWNNAME":"善化區","LI":"田寮里","LIN":"3鄰","STREET":" ","SECT":" ","MAREA":"六分寮","LANE":" ","ALLEY":" ","HOUSE_NO":"４０號之１７","E_COORD97":178305.60000000001,"N_COORD97":2561107.2000000002,"ADDRESS":"六分寮４０號之１７","OBJECTID":201180},"geometry":{"x":178305.60000000056,"y":2561107.2000000011}},{"attributes":{"ID":201182,"DIS_CODE":0,"TOWNNAME":"善化區","LI":"田寮里","LIN":"3鄰","STREET":" ","SECT":" ","MAREA":"六分寮","LANE":" ","ALLEY":" ","HOUSE_NO":"４０號之２２","E_COORD97":178358.45999999999,"N_COORD97":2561119.29,"ADDRESS":"六分寮４０號之２２","OBJECTID":201181},"geometry":{"x":178358.45999999996,"y":2561119.290000001}},{"attributes":{"ID":201183,"DIS_CODE":0,"TOWNNAME":"善化區","LI":"溪美里","LIN":"3鄰","STREET":" ","SECT":" ","MAREA":"溪尾","LANE":" ","ALLEY":" ","HOUSE_NO":"２１號之１","E_COORD97":176851.95999999999,"N_COORD97":2561027.25,"ADDRESS":"溪尾２１號之１","OBJECTID":201182},"geometry":{"x":176851.95999999996,"y":2561027.25}},{"attributes":{"ID":201184,"DIS_CODE":0,"TOWNNAME":"善化區","LI":"嘉南里","LIN":"3鄰","STREET":" ","SECT":" ","MAREA":"茄拔","LANE":" ","ALLEY":" ","HOUSE_NO":"７２號之７","E_COORD97":180851.01000000001,"N_COORD97":2559404.9900000002,"ADDRESS":"茄拔７２號之７","OBJECTID":201183},"geometry":{"x":180851.01000000071,"y":2559404.9900000021}},{"attributes":{"ID":201185,"DIS_CODE":0,"TOWNNAME":"善化區","LI":"六分里","LIN":"3鄰","STREET":" ","SECT":" ","MAREA":"東勢宅","LANE":" ","ALLEY":" ","HOUSE_NO":"２２６號","E_COORD97":177714.20000000001,"N_COORD97":2560255.73,"ADDRESS":"東勢宅２２６號","OBJECTID":201184},"geometry":{"x":177714.20000000112,"y":2560255.7300000004}},{"attributes":{"ID":201186,"DIS_CODE":0,"TOWNNAME":"後壁區","LI":"仕安里","LIN":"3鄰","STREET":" ","SECT":" ","MAREA":"下長","LANE":" ","ALLEY":" ","HOUSE_NO":"２３號","E_COORD97":180571.20999999999,"N_COORD97":2583978.3199999998,"ADDRESS":"下長２３號","OBJECTID":201185},"geometry":{"x":180571.20999999996,"y":2583978.3200000022}},{"attributes":{"ID":201187,"DIS_CODE":0,"TOWNNAME":"後壁區","LI":"仕安里","LIN":"3鄰","STREET":" ","SECT":" ","MAREA":"下長","LANE":" ","ALLEY":" ","HOUSE_NO":"２４號","E_COORD97":180555.31,"N_COORD97":2583958.8700000001,"ADDRESS":"下長２４號","OBJECTID":201186},"geometry":{"x":180555.31000000052,"y":2583958.8700000029}},{"attributes":{"ID":201188,"DIS_CODE":0,"TOWNNAME":"後壁區","LI":"仕安里","LIN":"3鄰","STREET":" ","SECT":" ","MAREA":"下長","LANE":" ","ALLEY":" ","HOUSE_NO":"１７號之１","E_COORD97":180645.45999999999,"N_COORD97":2584026.3300000001,"ADDRESS":"下長１７號之１","OBJECTID":201187},"geometry":{"x":180645.45999999996,"y":2584026.3300000019}},{"attributes":{"ID":201189,"DIS_CODE":0,"TOWNNAME":"後壁區","LI":"仕安里","LIN":"3鄰","STREET":" ","SECT":" ","MAREA":"下長","LANE":" ","ALLEY":" ","HOUSE_NO":"１７號","E_COORD97":180653.85999999999,"N_COORD97":2583991.6000000001,"ADDRESS":"下長１７號","OBJECTID":201188},"geometry":{"x":180653.8600000022,"y":2583991.5999999996}},{"attributes":{"ID":201190,"DIS_CODE":0,"TOWNNAME":"後壁區","LI":"仕安里","LIN":"3鄰","STREET":" ","SECT":" ","MAREA":"下長","LANE":" ","ALLEY":" ","HOUSE_NO":"１８號之２","E_COORD97":180608.28,"N_COORD97":2583980.6099999999,"ADDRESS":"下長１８號之２","OBJECTID":201189},"geometry":{"x":180608.28000000026,"y":2583980.6099999994}},{"attributes":{"ID":201191,"DIS_CODE":0,"TOWNNAME":"後壁區","LI":"仕安里","LIN":"3鄰","STREET":" ","SECT":" ","MAREA":"下長","LANE":" ","ALLEY":" ","HOUSE_NO":"１８號","E_COORD97":180632.88,"N_COORD97":2583983.6299999999,"ADDRESS":"下長１８號","OBJECTID":201190},"geometry":{"x":180632.87999999896,"y":2583983.629999999}},{"attributes":{"ID":201192,"DIS_CODE":0,"TOWNNAME":"後壁區","LI":"仕安里","LIN":"3鄰","STREET":" ","SECT":" ","MAREA":"下長","LANE":" ","ALLEY":" ","HOUSE_NO":"２１號","E_COORD97":180596.12,"N_COORD97":2583998.8500000001,"ADDRESS":"下長２１號","OBJECTID":201191},"geometry":{"x":180596.12000000104,"y":2583998.8500000015}},{"attributes":{"ID":201193,"DIS_CODE":0,"TOWNNAME":"北區","LI":"文元里","LIN":"20鄰","STREET":"海安路","SECT":"三段","MAREA":" ","LANE":"７８１巷","ALLEY":"２１６弄","HOUSE_NO":"３號","E_COORD97":167500.64000000001,"N_COORD97":2545990.9700000002,"ADDRESS":"海安路三段７８１巷２１６弄３號","OBJECTID":201192},"geometry":{"x":167500.6400000006,"y":2545990.9700000007}},{"attributes":{"ID":201194,"DIS_CODE":0,"TOWNNAME":"北區","LI":"文元里","LIN":"20鄰","STREET":"海安路","SECT":"三段","MAREA":" ","LANE":"７８１巷","ALLEY":"２１６弄","HOUSE_NO":"５號","E_COORD97":167501.12,"N_COORD97":2545995.9700000002,"ADDRESS":"海安路三段７８１巷２１６弄５號","OBJECTID":201193},"geometry":{"x":167501.12000000104,"y":2545995.9700000025}},{"attributes":{"ID":201195,"DIS_CODE":0,"TOWNNAME":"北區","LI":"文元里","LIN":"20鄰","STREET":"海安路","SECT":"三段","MAREA":" ","LANE":"７８１巷","ALLEY":"２１６弄","HOUSE_NO":"６號","E_COORD97":167518.51000000001,"N_COORD97":2545991.21,"ADDRESS":"海安路三段７８１巷２１６弄６號","OBJECTID":201194},"geometry":{"x":167518.51000000071,"y":2545991.2100000028}},{"attributes":{"ID":201196,"DIS_CODE":0,"TOWNNAME":"北區","LI":"文元里","LIN":"20鄰","STREET":"海安路","SECT":"三段","MAREA":" ","LANE":"７８１巷","ALLEY":"２１６弄","HOUSE_NO":"７號","E_COORD97":167501.60000000001,"N_COORD97":2546000.96,"ADDRESS":"海安路三段７８１巷２１６弄７號","OBJECTID":201195},"geometry":{"x":167501.59999999963,"y":2546000.9600000009}},{"attributes":{"ID":201197,"DIS_CODE":0,"TOWNNAME":"北區","LI":"文元里","LIN":"20鄰","STREET":"海安路","SECT":"三段","MAREA":" ","LANE":"７８１巷","ALLEY":"２１６弄","HOUSE_NO":"８號","E_COORD97":167518.98999999999,"N_COORD97":2545996.2000000002,"ADDRESS":"海安路三段７８１巷２１６弄８號","OBJECTID":201196},"geometry":{"x":167518.99000000115,"y":2545996.2000000011}},{"attributes":{"ID":201198,"DIS_CODE":0,"TOWNNAME":"北區","LI":"文元里","LIN":"20鄰","STREET":"海安路","SECT":"三段","MAREA":" ","LANE":"７８１巷","ALLEY":"２１６弄","HOUSE_NO":"９號","E_COORD97":167501.12,"N_COORD97":2546005.7200000002,"ADDRESS":"海安路三段７８１巷２１６弄９號","OBJECTID":201197},"geometry":{"x":167501.12000000104,"y":2546005.7200000007}},{"attributes":{"ID":201199,"DIS_CODE":0,"TOWNNAME":"北區","LI":"文成里","LIN":"20鄰","STREET":"海安路","SECT":"三段","MAREA":" ","LANE":"１３５巷","ALLEY":"１２３弄","HOUSE_NO":"１０號","E_COORD97":167593.34,"N_COORD97":2544978.9100000001,"ADDRESS":"海安路三段１３５巷１２３弄１０號","OBJECTID":201198},"geometry":{"x":167593.33999999985,"y":2544978.910000002}},{"attributes":{"ID":201200,"DIS_CODE":0,"TOWNNAME":"北區","LI":"文成里","LIN":"20鄰","STREET":"海安路","SECT":"三段","MAREA":" ","LANE":"１３５巷","ALLEY":"１２３弄","HOUSE_NO":"１１號","E_COORD97":167587.44,"N_COORD97":2544979.1600000001,"ADDRESS":"海安路三段１３５巷１２３弄１１號","OBJECTID":201199},"geometry":{"x":167587.44000000134,"y":2544979.1599999983}},{"attributes":{"ID":201201,"DIS_CODE":0,"TOWNNAME":"北區","LI":"文成里","LIN":"20鄰","STREET":"海安路","SECT":"三段","MAREA":" ","LANE":"１３５巷","ALLEY":"１２３弄","HOUSE_NO":"１２號","E_COORD97":167587.19,"N_COORD97":2544970.5600000001,"ADDRESS":"海安路三段１３５巷１２３弄１２號","OBJECTID":201200},"geometry":{"x":167587.19000000134,"y":2544970.5600000042}}]}