{"displayFieldName":"TOWNNAME","fieldAliases":{"ID":"ID","DIS_CODE":"DIS_CODE","TOWNNAME":"TOWNNAME","LI":"LI","LIN":"LIN","STREET":"STREET","SECT":"SECT","MAREA":"MAREA","LANE":"LANE","ALLEY":"ALLEY","HOUSE_NO":"HOUSE_NO","E_COORD97":"E_COORD97","N_COORD97":"N_COORD97","ADDRESS":"ADDRESS","OBJECTID":"OBJECTID"},"geometryType":"esriGeometryPoint","spatialReference":{"wkid":102443,"latestWkid":3826},"fields":[{"name":"ID","type":"esriFieldTypeDouble","alias":"ID"},{"name":"DIS_CODE","type":"esriFieldTypeInteger","alias":"DIS_CODE"},{"name":"TOWNNAME","type":"esriFieldTypeString","alias":"TOWNNAME","length":8},{"name":"LI","type":"esriFieldTypeString","alias":"LI","length":8},{"name":"LIN","type":"esriFieldTypeString","alias":"LIN","length":12},{"name":"STREET","type":"esriFieldTypeString","alias":"STREET","length":20},{"name":"SECT","type":"esriFieldTypeString","alias":"SECT","length":8},{"name":"MAREA","type":"esriFieldTypeString","alias":"MAREA","length":12},{"name":"LANE","type":"esriFieldTypeString","alias":"LANE","length":10},{"name":"ALLEY","type":"esriFieldTypeString","alias":"ALLEY","length":10},{"name":"HOUSE_NO","type":"esriFieldTypeString","alias":"HOUSE_NO","length":20},{"name":"E_COORD97","type":"esriFieldTypeDouble","alias":"E_COORD97"},{"name":"N_COORD97","type":"esriFieldTypeDouble","alias":"N_COORD97"},{"name":"ADDRESS","type":"esriFieldTypeString","alias":"ADDRESS","length":50},{"name":"OBJECTID","type":"esriFieldTypeOID","alias":"OBJECTID"}],"features":[{"attributes":{"ID":370411,"DIS_CODE":0,"TOWNNAME":"北區","LI":"成德里","LIN":"12鄰","STREET":"海安路","SECT":"三段","MAREA":" ","LANE":"３３８巷","ALLEY":" ","HOUSE_NO":"５６之７號","E_COORD97":168164.12,"N_COORD97":2545472.9300000002,"ADDRESS":"海安路三段３３８巷５６之７號","OBJECTID":370401},"geometry":{"x":168164.12000000104,"y":2545472.9300000016}},{"attributes":{"ID":370412,"DIS_CODE":0,"TOWNNAME":"北區","LI":"成德里","LIN":"12鄰","STREET":"海安路","SECT":"三段","MAREA":" ","LANE":"３３８巷","ALLEY":" ","HOUSE_NO":"５６之８號","E_COORD97":168163.48999999999,"N_COORD97":2545478.1699999999,"ADDRESS":"海安路三段３３８巷５６之８號","OBJECTID":370402},"geometry":{"x":168163.49000000115,"y":2545478.1700000018}},{"attributes":{"ID":370413,"DIS_CODE":0,"TOWNNAME":"北區","LI":"成德里","LIN":"12鄰","STREET":"海安路","SECT":"三段","MAREA":" ","LANE":"３３８巷","ALLEY":" ","HOUSE_NO":"５６之９號","E_COORD97":168163.32999999999,"N_COORD97":2545482.9300000002,"ADDRESS":"海安路三段３３８巷５６之９號","OBJECTID":370403},"geometry":{"x":168163.33000000007,"y":2545482.9300000016}},{"attributes":{"ID":370414,"DIS_CODE":0,"TOWNNAME":"北區","LI":"成德里","LIN":"12鄰","STREET":"海安路","SECT":"三段","MAREA":" ","LANE":"３３８巷","ALLEY":" ","HOUSE_NO":"５６之１１號","E_COORD97":168163.32999999999,"N_COORD97":2545487.0600000001,"ADDRESS":"海安路三段３３８巷５６之１１號","OBJECTID":370404},"geometry":{"x":168163.33000000007,"y":2545487.0600000024}},{"attributes":{"ID":370415,"DIS_CODE":0,"TOWNNAME":"北區","LI":"成德里","LIN":"12鄰","STREET":"海安路","SECT":"三段","MAREA":" ","LANE":"３３８巷","ALLEY":" ","HOUSE_NO":"５６之１０號","E_COORD97":168163.32999999999,"N_COORD97":2545491.6600000001,"ADDRESS":"海安路三段３３８巷５６之１０號","OBJECTID":370405},"geometry":{"x":168163.33000000007,"y":2545491.660000002}},{"attributes":{"ID":370416,"DIS_CODE":0,"TOWNNAME":"北區","LI":"成德里","LIN":"12鄰","STREET":"海安路","SECT":"三段","MAREA":" ","LANE":"３３８巷","ALLEY":" ","HOUSE_NO":"１７號","E_COORD97":168064.35000000001,"N_COORD97":2545513.0099999998,"ADDRESS":"海安路三段３３８巷１７號","OBJECTID":370406},"geometry":{"x":168064.34999999963,"y":2545513.0100000016}},{"attributes":{"ID":370417,"DIS_CODE":0,"TOWNNAME":"南區","LI":"新生里","LIN":"5鄰","STREET":"大同路","SECT":"二段","MAREA":" ","LANE":" ","ALLEY":" ","HOUSE_NO":"１８０號","E_COORD97":169350.72,"N_COORD97":2541967.3900000001,"ADDRESS":"大同路二段１８０號","OBJECTID":370407},"geometry":{"x":169350.7200000016,"y":2541967.3899999987}},{"attributes":{"ID":370418,"DIS_CODE":0,"TOWNNAME":"北區","LI":"成德里","LIN":"12鄰","STREET":"海安路","SECT":"三段","MAREA":" ","LANE":"３３８巷","ALLEY":" ","HOUSE_NO":"１１５號","E_COORD97":168282.87,"N_COORD97":2545515.3199999998,"ADDRESS":"海安路三段３３８巷１１５號","OBJECTID":370408},"geometry":{"x":168282.87000000104,"y":2545515.3200000022}},{"attributes":{"ID":370419,"DIS_CODE":0,"TOWNNAME":"北區","LI":"成德里","LIN":"12鄰","STREET":"海安路","SECT":"三段","MAREA":" ","LANE":"３３８巷","ALLEY":" ","HOUSE_NO":"１０９號","E_COORD97":168258.57999999999,"N_COORD97":2545514.8399999999,"ADDRESS":"海安路三段３３８巷１０９號","OBJECTID":370409},"geometry":{"x":168258.58000000194,"y":2545514.8400000017}},{"attributes":{"ID":370420,"DIS_CODE":0,"TOWNNAME":"北區","LI":"大山里","LIN":"12鄰","STREET":"和緯路","SECT":"一段","MAREA":" ","LANE":"１７６巷","ALLEY":" ","HOUSE_NO":"１０號","E_COORD97":169329.57999999999,"N_COORD97":2545625.1499999999,"ADDRESS":"和緯路一段１７６巷１０號","OBJECTID":370410},"geometry":{"x":169329.58000000007,"y":2545625.1500000022}},{"attributes":{"ID":370421,"DIS_CODE":0,"TOWNNAME":"北區","LI":"成德里","LIN":"12鄰","STREET":"海安路","SECT":"三段","MAREA":" ","LANE":"３３８巷","ALLEY":" ","HOUSE_NO":"２７號","E_COORD97":168097.53,"N_COORD97":2545514.6000000001,"ADDRESS":"海安路三段３３８巷２７號","OBJECTID":370411},"geometry":{"x":168097.53000000026,"y":2545514.5999999996}},{"attributes":{"ID":370422,"DIS_CODE":0,"TOWNNAME":"北區","LI":"成德里","LIN":"12鄰","STREET":"海安路","SECT":"三段","MAREA":" ","LANE":"３３８巷","ALLEY":" ","HOUSE_NO":"２９號","E_COORD97":168104.20000000001,"N_COORD97":2545514.4399999999,"ADDRESS":"海安路三段３３８巷２９號","OBJECTID":370412},"geometry":{"x":168104.20000000112,"y":2545514.4399999995}},{"attributes":{"ID":370423,"DIS_CODE":0,"TOWNNAME":"北區","LI":"成德里","LIN":"12鄰","STREET":"海安路","SECT":"三段","MAREA":" ","LANE":"３３８巷","ALLEY":" ","HOUSE_NO":"３１號","E_COORD97":168103.72,"N_COORD97":2545526.1899999999,"ADDRESS":"海安路三段３３８巷３１號","OBJECTID":370413},"geometry":{"x":168103.72000000067,"y":2545526.1899999995}},{"attributes":{"ID":370424,"DIS_CODE":0,"TOWNNAME":"北區","LI":"成德里","LIN":"12鄰","STREET":"海安路","SECT":"三段","MAREA":" ","LANE":"３３８巷","ALLEY":" ","HOUSE_NO":"３３號","E_COORD97":168112.45000000001,"N_COORD97":2545530.48,"ADDRESS":"海安路三段３３８巷３３號","OBJECTID":370414},"geometry":{"x":168112.45000000112,"y":2545530.4800000023}},{"attributes":{"ID":370425,"DIS_CODE":0,"TOWNNAME":"北區","LI":"成德里","LIN":"12鄰","STREET":"海安路","SECT":"三段","MAREA":" ","LANE":"３３８巷","ALLEY":" ","HOUSE_NO":"３５號","E_COORD97":168112.29000000001,"N_COORD97":2545526.1899999999,"ADDRESS":"海安路三段３３８巷３５號","OBJECTID":370415},"geometry":{"x":168112.29000000004,"y":2545526.1899999995}},{"attributes":{"ID":370426,"DIS_CODE":0,"TOWNNAME":"北區","LI":"成德里","LIN":"12鄰","STREET":"海安路","SECT":"三段","MAREA":" ","LANE":"３３８巷","ALLEY":" ","HOUSE_NO":"３７號","E_COORD97":168111.98000000001,"N_COORD97":2545521.8999999999,"ADDRESS":"海安路三段３３８巷３７號","OBJECTID":370416},"geometry":{"x":168111.98000000045,"y":2545521.9000000022}},{"attributes":{"ID":370427,"DIS_CODE":0,"TOWNNAME":"北區","LI":"成德里","LIN":"12鄰","STREET":"海安路","SECT":"三段","MAREA":" ","LANE":"３３８巷","ALLEY":" ","HOUSE_NO":"３９號","E_COORD97":168111.98000000001,"N_COORD97":2545517.46,"ADDRESS":"海安路三段３３８巷３９號","OBJECTID":370417},"geometry":{"x":168111.98000000045,"y":2545517.4600000046}},{"attributes":{"ID":370428,"DIS_CODE":0,"TOWNNAME":"北區","LI":"成德里","LIN":"12鄰","STREET":"海安路","SECT":"三段","MAREA":" ","LANE":"３３８巷","ALLEY":" ","HOUSE_NO":"４１號","E_COORD97":168112.76999999999,"N_COORD97":2545512.3799999999,"ADDRESS":"海安路三段３３８巷４１號","OBJECTID":370418},"geometry":{"x":168112.77000000142,"y":2545512.3800000027}},{"attributes":{"ID":370429,"DIS_CODE":0,"TOWNNAME":"北區","LI":"成德里","LIN":"12鄰","STREET":"海安路","SECT":"三段","MAREA":" ","LANE":"３３８巷","ALLEY":" ","HOUSE_NO":"４３號","E_COORD97":168118.32999999999,"N_COORD97":2545513.3300000001,"ADDRESS":"海安路三段３３８巷４３號","OBJECTID":370419},"geometry":{"x":168118.33000000101,"y":2545513.3300000001}},{"attributes":{"ID":370430,"DIS_CODE":0,"TOWNNAME":"北區","LI":"成德里","LIN":"12鄰","STREET":"海安路","SECT":"三段","MAREA":" ","LANE":"３３８巷","ALLEY":" ","HOUSE_NO":"４５號","E_COORD97":168123.72,"N_COORD97":2545513.1699999999,"ADDRESS":"海安路三段３３８巷４５號","OBJECTID":370420},"geometry":{"x":168123.72000000067,"y":2545513.1699999999}},{"attributes":{"ID":370431,"DIS_CODE":0,"TOWNNAME":"北區","LI":"成德里","LIN":"12鄰","STREET":"海安路","SECT":"三段","MAREA":" ","LANE":"３３８巷","ALLEY":" ","HOUSE_NO":"４７號","E_COORD97":168128.17000000001,"N_COORD97":2545513.3300000001,"ADDRESS":"海安路三段３３８巷４７號","OBJECTID":370421},"geometry":{"x":168128.16999999993,"y":2545513.3300000001}},{"attributes":{"ID":370432,"DIS_CODE":0,"TOWNNAME":"北區","LI":"成德里","LIN":"12鄰","STREET":"海安路","SECT":"三段","MAREA":" ","LANE":"３３８巷","ALLEY":" ","HOUSE_NO":"４９號","E_COORD97":168132.60999999999,"N_COORD97":2545513.6499999999,"ADDRESS":"海安路三段３３８巷４９號","OBJECTID":370422},"geometry":{"x":168132.61000000034,"y":2545513.6500000022}},{"attributes":{"ID":370433,"DIS_CODE":0,"TOWNNAME":"北區","LI":"成德里","LIN":"12鄰","STREET":"海安路","SECT":"三段","MAREA":" ","LANE":"３３８巷","ALLEY":" ","HOUSE_NO":"５１號","E_COORD97":168137.53,"N_COORD97":2545513.8100000001,"ADDRESS":"海安路三段３３８巷５１號","OBJECTID":370423},"geometry":{"x":168137.53000000119,"y":2545513.8100000005}},{"attributes":{"ID":370434,"DIS_CODE":0,"TOWNNAME":"北區","LI":"成德里","LIN":"12鄰","STREET":"海安路","SECT":"三段","MAREA":" ","LANE":"３３８巷","ALLEY":" ","HOUSE_NO":"５３號","E_COORD97":168142.45999999999,"N_COORD97":2545514.2799999998,"ADDRESS":"海安路三段３３８巷５３號","OBJECTID":370424},"geometry":{"x":168142.46000000183,"y":2545514.2800000012}},{"attributes":{"ID":370435,"DIS_CODE":0,"TOWNNAME":"北區","LI":"成德里","LIN":"12鄰","STREET":"海安路","SECT":"三段","MAREA":" ","LANE":"３３８巷","ALLEY":" ","HOUSE_NO":"５５號","E_COORD97":168147.69,"N_COORD97":2545513.9700000002,"ADDRESS":"海安路三段３３８巷５５號","OBJECTID":370425},"geometry":{"x":168147.69000000041,"y":2545513.9700000025}},{"attributes":{"ID":370436,"DIS_CODE":0,"TOWNNAME":"北區","LI":"大港里","LIN":"12鄰","STREET":"大興街","SECT":" ","MAREA":" ","LANE":"３００巷","ALLEY":" ","HOUSE_NO":"２６號","E_COORD97":166518.92999999999,"N_COORD97":2545725.9900000002,"ADDRESS":"大興街３００巷２６號","OBJECTID":370426},"geometry":{"x":166518.93000000063,"y":2545725.9900000002}},{"attributes":{"ID":370437,"DIS_CODE":0,"TOWNNAME":"北區","LI":"大港里","LIN":"12鄰","STREET":"大興街","SECT":" ","MAREA":" ","LANE":"３００巷","ALLEY":" ","HOUSE_NO":"２７號","E_COORD97":166504.04999999999,"N_COORD97":2545734.7000000002,"ADDRESS":"大興街３００巷２７號","OBJECTID":370427},"geometry":{"x":166504.05000000168,"y":2545734.7000000011}},{"attributes":{"ID":370438,"DIS_CODE":0,"TOWNNAME":"北區","LI":"大港里","LIN":"12鄰","STREET":"大興街","SECT":" ","MAREA":" ","LANE":"３００巷","ALLEY":" ","HOUSE_NO":"２８號","E_COORD97":166518.42000000001,"N_COORD97":2545731.23,"ADDRESS":"大興街３００巷２８號","OBJECTID":370428},"geometry":{"x":166518.41999999993,"y":2545731.2300000004}},{"attributes":{"ID":370439,"DIS_CODE":0,"TOWNNAME":"北區","LI":"大港里","LIN":"12鄰","STREET":"大興街","SECT":" ","MAREA":" ","LANE":"３００巷","ALLEY":" ","HOUSE_NO":"２９號","E_COORD97":166504.57000000001,"N_COORD97":2545739.5299999998,"ADDRESS":"大興街３００巷２９號","OBJECTID":370429},"geometry":{"x":166504.57000000123,"y":2545739.5300000012}},{"attributes":{"ID":370440,"DIS_CODE":0,"TOWNNAME":"北區","LI":"大港里","LIN":"12鄰","STREET":"大興街","SECT":" ","MAREA":" ","LANE":"３００巷","ALLEY":" ","HOUSE_NO":"２號","E_COORD97":166528.35999999999,"N_COORD97":2545675.46,"ADDRESS":"大興街３００巷２號","OBJECTID":370430},"geometry":{"x":166528.36000000127,"y":2545675.4600000009}},{"attributes":{"ID":370441,"DIS_CODE":0,"TOWNNAME":"北區","LI":"大港里","LIN":"12鄰","STREET":"大興街","SECT":" ","MAREA":" ","LANE":"３００巷","ALLEY":" ","HOUSE_NO":"３０號","E_COORD97":166518.17999999999,"N_COORD97":2545735.2400000002,"ADDRESS":"大興街３００巷３０號","OBJECTID":370431},"geometry":{"x":166518.17999999877,"y":2545735.2400000039}},{"attributes":{"ID":370442,"DIS_CODE":0,"TOWNNAME":"北區","LI":"大港里","LIN":"12鄰","STREET":"大興街","SECT":" ","MAREA":" ","LANE":"３００巷","ALLEY":" ","HOUSE_NO":"３２號","E_COORD97":166518.17000000001,"N_COORD97":2545740.1000000001,"ADDRESS":"大興街３００巷３２號","OBJECTID":370432},"geometry":{"x":166518.16999999993,"y":2545740.1000000015}},{"attributes":{"ID":370443,"DIS_CODE":0,"TOWNNAME":"北區","LI":"大港里","LIN":"12鄰","STREET":"大興街","SECT":" ","MAREA":" ","LANE":"３００巷","ALLEY":" ","HOUSE_NO":"４號","E_COORD97":166526.78,"N_COORD97":2545680.4100000001,"ADDRESS":"大興街３００巷４號","OBJECTID":370433},"geometry":{"x":166526.78000000212,"y":2545680.410000002}},{"attributes":{"ID":370444,"DIS_CODE":0,"TOWNNAME":"北區","LI":"大港里","LIN":"12鄰","STREET":"大興街","SECT":" ","MAREA":" ","LANE":"３００巷","ALLEY":" ","HOUSE_NO":"６號","E_COORD97":166525.38,"N_COORD97":2545685.5299999998,"ADDRESS":"大興街３００巷６號","OBJECTID":370434},"geometry":{"x":166525.37999999989,"y":2545685.5300000012}},{"attributes":{"ID":370445,"DIS_CODE":0,"TOWNNAME":"北區","LI":"大港里","LIN":"12鄰","STREET":"大興街","SECT":" ","MAREA":" ","LANE":"３００巷","ALLEY":" ","HOUSE_NO":"８號","E_COORD97":166525.09,"N_COORD97":2545691.2799999998,"ADDRESS":"大興街３００巷８號","OBJECTID":370435},"geometry":{"x":166525.08999999985,"y":2545691.2800000012}},{"attributes":{"ID":370446,"DIS_CODE":0,"TOWNNAME":"北區","LI":"成功里","LIN":"12鄰","STREET":"北成路","SECT":" ","MAREA":" ","LANE":"３８巷","ALLEY":" ","HOUSE_NO":"２號","E_COORD97":169136.13,"N_COORD97":2546604.0499999998,"ADDRESS":"北成路３８巷２號","OBJECTID":370436},"geometry":{"x":169136.13000000175,"y":2546604.0500000007}},{"attributes":{"ID":370447,"DIS_CODE":0,"TOWNNAME":"關廟區","LI":"關廟里","LIN":"12鄰","STREET":"民生街","SECT":" ","MAREA":" ","LANE":"１５２巷","ALLEY":" ","HOUSE_NO":"７號","E_COORD97":180902.19,"N_COORD97":2539823.29,"ADDRESS":"民生街１５２巷７號","OBJECTID":370437},"geometry":{"x":180902.19000000041,"y":2539823.2899999991}},{"attributes":{"ID":370448,"DIS_CODE":0,"TOWNNAME":"關廟區","LI":"南花里","LIN":"12鄰","STREET":"明德街","SECT":" ","MAREA":" ","LANE":"１５巷","ALLEY":" ","HOUSE_NO":"６７號","E_COORD97":181713.69,"N_COORD97":2539981.27,"ADDRESS":"明德街１５巷６７號","OBJECTID":370438},"geometry":{"x":181713.69000000134,"y":2539981.2700000014}},{"attributes":{"ID":370449,"DIS_CODE":0,"TOWNNAME":"關廟區","LI":"南花里","LIN":"12鄰","STREET":"明德街","SECT":" ","MAREA":" ","LANE":"１５巷","ALLEY":" ","HOUSE_NO":"５２號","E_COORD97":181750.09,"N_COORD97":2539985.27,"ADDRESS":"明德街１５巷５２號","OBJECTID":370439},"geometry":{"x":181750.08999999985,"y":2539985.2700000014}},{"attributes":{"ID":370450,"DIS_CODE":0,"TOWNNAME":"關廟區","LI":"關廟里","LIN":"12鄰","STREET":"民生街","SECT":" ","MAREA":" ","LANE":"１５２巷","ALLEY":" ","HOUSE_NO":"１５號","E_COORD97":180918.44,"N_COORD97":2539831.29,"ADDRESS":"民生街１５２巷１５號","OBJECTID":370440},"geometry":{"x":180918.44000000134,"y":2539831.290000001}},{"attributes":{"ID":370451,"DIS_CODE":0,"TOWNNAME":"關廟區","LI":"埤頭里","LIN":"12鄰","STREET":"保東二街","SECT":" ","MAREA":" ","LANE":"１３１巷","ALLEY":" ","HOUSE_NO":"５６號","E_COORD97":178591.82000000001,"N_COORD97":2544441.2999999998,"ADDRESS":"保東二街１３１巷５６號","OBJECTID":370441},"geometry":{"x":178591.82000000123,"y":2544441.3000000026}},{"attributes":{"ID":370452,"DIS_CODE":0,"TOWNNAME":"關廟區","LI":"埤頭里","LIN":"12鄰","STREET":"保東二街","SECT":" ","MAREA":" ","LANE":"１３１巷","ALLEY":" ","HOUSE_NO":"２８號","E_COORD97":178649.92000000001,"N_COORD97":2544428.25,"ADDRESS":"保東二街１３１巷２８號","OBJECTID":370442},"geometry":{"x":178649.92000000086,"y":2544428.25}},{"attributes":{"ID":370453,"DIS_CODE":0,"TOWNNAME":"關廟區","LI":"關廟里","LIN":"12鄰","STREET":"民生街","SECT":" ","MAREA":" ","LANE":"１５２巷","ALLEY":" ","HOUSE_NO":"１３號","E_COORD97":180914.64000000001,"N_COORD97":2539829.29,"ADDRESS":"民生街１５２巷１３號","OBJECTID":370443},"geometry":{"x":180914.6400000006,"y":2539829.2899999991}},{"attributes":{"ID":370454,"DIS_CODE":0,"TOWNNAME":"關廟區","LI":"松腳里","LIN":"12鄰","STREET":"東興路","SECT":" ","MAREA":" ","LANE":"２０５巷","ALLEY":" ","HOUSE_NO":"２２號","E_COORD97":181762.22,"N_COORD97":2539628.25,"ADDRESS":"東興路２０５巷２２號","OBJECTID":370444},"geometry":{"x":181762.21999999974,"y":2539628.25}},{"attributes":{"ID":370455,"DIS_CODE":0,"TOWNNAME":"關廟區","LI":"南花里","LIN":"12鄰","STREET":"明德街","SECT":" ","MAREA":" ","LANE":"１５巷","ALLEY":" ","HOUSE_NO":"６９號","E_COORD97":181713.69,"N_COORD97":2539985.27,"ADDRESS":"明德街１５巷６９號","OBJECTID":370445},"geometry":{"x":181713.69000000134,"y":2539985.2700000014}},{"attributes":{"ID":370456,"DIS_CODE":0,"TOWNNAME":"關廟區","LI":"關廟里","LIN":"12鄰","STREET":"民生街","SECT":" ","MAREA":" ","LANE":"２１８巷","ALLEY":" ","HOUSE_NO":"１２號","E_COORD97":180947.23999999999,"N_COORD97":2539951.29,"ADDRESS":"民生街２１８巷１２號","OBJECTID":370446},"geometry":{"x":180947.24000000022,"y":2539951.2899999991}},{"attributes":{"ID":370457,"DIS_CODE":0,"TOWNNAME":"關廟區","LI":"關廟里","LIN":"12鄰","STREET":"民生街","SECT":" ","MAREA":" ","LANE":"２１８巷","ALLEY":" ","HOUSE_NO":"６號","E_COORD97":180931.79000000001,"N_COORD97":2539953.29,"ADDRESS":"民生街２１８巷６號","OBJECTID":370447},"geometry":{"x":180931.79000000004,"y":2539953.290000001}},{"attributes":{"ID":370458,"DIS_CODE":0,"TOWNNAME":"關廟區","LI":"關廟里","LIN":"12鄰","STREET":"民生街","SECT":" ","MAREA":" ","LANE":"１５２巷","ALLEY":" ","HOUSE_NO":"３１號","E_COORD97":180931.54000000001,"N_COORD97":2539867.29,"ADDRESS":"民生街１５２巷３１號","OBJECTID":370448},"geometry":{"x":180931.54000000004,"y":2539867.2899999991}},{"attributes":{"ID":370459,"DIS_CODE":0,"TOWNNAME":"關廟區","LI":"關廟里","LIN":"12鄰","STREET":"民生街","SECT":" ","MAREA":" ","LANE":"１５２巷","ALLEY":" ","HOUSE_NO":"２號","E_COORD97":180883.39000000001,"N_COORD97":2539804.29,"ADDRESS":"民生街１５２巷２號","OBJECTID":370449},"geometry":{"x":180883.38999999966,"y":2539804.290000001}},{"attributes":{"ID":370460,"DIS_CODE":0,"TOWNNAME":"關廟區","LI":"關廟里","LIN":"12鄰","STREET":"民生街","SECT":" ","MAREA":" ","LANE":"１５２巷","ALLEY":" ","HOUSE_NO":"５號","E_COORD97":180897.98999999999,"N_COORD97":2539821.29,"ADDRESS":"民生街１５２巷５號","OBJECTID":370450},"geometry":{"x":180897.99000000022,"y":2539821.290000001}},{"attributes":{"ID":370461,"DIS_CODE":0,"TOWNNAME":"關廟區","LI":"關廟里","LIN":"12鄰","STREET":"民生街","SECT":" ","MAREA":" ","LANE":"１５２巷","ALLEY":" ","HOUSE_NO":"３號","E_COORD97":180890.69,"N_COORD97":2539816.29,"ADDRESS":"民生街１５２巷３號","OBJECTID":370451},"geometry":{"x":180890.68999999948,"y":2539816.2899999991}},{"attributes":{"ID":370462,"DIS_CODE":0,"TOWNNAME":"關廟區","LI":"埤頭里","LIN":"12鄰","STREET":"保東二街","SECT":" ","MAREA":" ","LANE":"１３１巷","ALLEY":" ","HOUSE_NO":"１２１號","E_COORD97":178564.92000000001,"N_COORD97":2544552.5800000001,"ADDRESS":"保東二街１３１巷１２１號","OBJECTID":370452},"geometry":{"x":178564.92000000086,"y":2544552.5800000038}},{"attributes":{"ID":370463,"DIS_CODE":0,"TOWNNAME":"關廟區","LI":"埤頭里","LIN":"12鄰","STREET":"保東路","SECT":" ","MAREA":" ","LANE":"３５６巷","ALLEY":" ","HOUSE_NO":"１５１號","E_COORD97":178409.16,"N_COORD97":2544042.29,"ADDRESS":"保東路３５６巷１５１號","OBJECTID":370453},"geometry":{"x":178409.16000000108,"y":2544042.290000001}},{"attributes":{"ID":370464,"DIS_CODE":0,"TOWNNAME":"關廟區","LI":"深坑里","LIN":"12鄰","STREET":"南雄路","SECT":"一段","MAREA":" ","LANE":"４９５巷","ALLEY":" ","HOUSE_NO":"３３號","E_COORD97":181464.98000000001,"N_COORD97":2537739.7200000002,"ADDRESS":"南雄路一段４９５巷３３號","OBJECTID":370454},"geometry":{"x":181464.98000000045,"y":2537739.7200000007}},{"attributes":{"ID":370465,"DIS_CODE":0,"TOWNNAME":"安南區","LI":"大安里","LIN":"7鄰","STREET":"大安街","SECT":" ","MAREA":" ","LANE":"１５２巷","ALLEY":" ","HOUSE_NO":"２號","E_COORD97":167334.97,"N_COORD97":2548167.27,"ADDRESS":"大安街１５２巷２號","OBJECTID":370455},"geometry":{"x":167334.96999999974,"y":2548167.2699999996}},{"attributes":{"ID":370466,"DIS_CODE":0,"TOWNNAME":"安南區","LI":"大安里","LIN":"7鄰","STREET":"大安街","SECT":" ","MAREA":" ","LANE":"１５２巷","ALLEY":" ","HOUSE_NO":"３號","E_COORD97":167350.35999999999,"N_COORD97":2548181.3500000001,"ADDRESS":"大安街１５２巷３號","OBJECTID":370456},"geometry":{"x":167350.36000000127,"y":2548181.3500000034}},{"attributes":{"ID":370467,"DIS_CODE":0,"TOWNNAME":"安南區","LI":"大安里","LIN":"7鄰","STREET":"大安街","SECT":" ","MAREA":" ","LANE":"１５２巷","ALLEY":" ","HOUSE_NO":"４號","E_COORD97":167338.62,"N_COORD97":2548164.7799999998,"ADDRESS":"大安街１５２巷４號","OBJECTID":370457},"geometry":{"x":167338.62000000104,"y":2548164.7800000031}},{"attributes":{"ID":370468,"DIS_CODE":0,"TOWNNAME":"安南區","LI":"大安里","LIN":"7鄰","STREET":"大安街","SECT":" ","MAREA":" ","LANE":"１５２巷","ALLEY":" ","HOUSE_NO":"５號","E_COORD97":167354.39000000001,"N_COORD97":2548178.29,"ADDRESS":"大安街１５２巷５號","OBJECTID":370458},"geometry":{"x":167354.3900000006,"y":2548178.290000001}},{"attributes":{"ID":370469,"DIS_CODE":0,"TOWNNAME":"南區","LI":"開南里","LIN":"4鄰","STREET":"中華西路","SECT":"一段","MAREA":" ","LANE":"３６巷","ALLEY":" ","HOUSE_NO":"１１號","E_COORD97":166373.26000000001,"N_COORD97":2540962.73,"ADDRESS":"中華西路一段３６巷１１號","OBJECTID":370459},"geometry":{"x":166373.25999999978,"y":2540962.7300000023}},{"attributes":{"ID":370470,"DIS_CODE":0,"TOWNNAME":"南區","LI":"開南里","LIN":"4鄰","STREET":"中華西路","SECT":"一段","MAREA":" ","LANE":"３６巷","ALLEY":" ","HOUSE_NO":"１號","E_COORD97":166333.35000000001,"N_COORD97":2540962.4399999999,"ADDRESS":"中華西路一段３６巷１號","OBJECTID":370460},"geometry":{"x":166333.34999999963,"y":2540962.4399999976}},{"attributes":{"ID":370471,"DIS_CODE":0,"TOWNNAME":"南區","LI":"開南里","LIN":"4鄰","STREET":"中華西路","SECT":"一段","MAREA":" ","LANE":"３６巷","ALLEY":" ","HOUSE_NO":"３號","E_COORD97":166338.19,"N_COORD97":2540962.73,"ADDRESS":"中華西路一段３６巷３號","OBJECTID":370461},"geometry":{"x":166338.19000000134,"y":2540962.7300000023}},{"attributes":{"ID":370472,"DIS_CODE":0,"TOWNNAME":"南區","LI":"開南里","LIN":"4鄰","STREET":"中華西路","SECT":"一段","MAREA":" ","LANE":"３６巷","ALLEY":" ","HOUSE_NO":"５號","E_COORD97":166351.39000000001,"N_COORD97":2540963.0299999998,"ADDRESS":"中華西路一段３６巷５號","OBJECTID":370462},"geometry":{"x":166351.3900000006,"y":2540963.0300000012}},{"attributes":{"ID":370473,"DIS_CODE":0,"TOWNNAME":"南區","LI":"開南里","LIN":"4鄰","STREET":"中華西路","SECT":"一段","MAREA":" ","LANE":"３６巷","ALLEY":" ","HOUSE_NO":"７號","E_COORD97":166355.79999999999,"N_COORD97":2540962.8799999999,"ADDRESS":"中華西路一段３６巷７號","OBJECTID":370463},"geometry":{"x":166355.79999999981,"y":2540962.8800000008}},{"attributes":{"ID":370474,"DIS_CODE":0,"TOWNNAME":"南區","LI":"開南里","LIN":"4鄰","STREET":"中華西路","SECT":"一段","MAREA":" ","LANE":"３６巷","ALLEY":" ","HOUSE_NO":"９號","E_COORD97":166368.41,"N_COORD97":2540962.73,"ADDRESS":"中華西路一段３６巷９號","OBJECTID":370464},"geometry":{"x":166368.41000000108,"y":2540962.7300000023}},{"attributes":{"ID":370475,"DIS_CODE":0,"TOWNNAME":"新營區","LI":"南興里","LIN":"12鄰","STREET":"興農街","SECT":" ","MAREA":" ","LANE":"１４９巷","ALLEY":" ","HOUSE_NO":"５之３號","E_COORD97":179298.51999999999,"N_COORD97":2577525.1299999999,"ADDRESS":"興農街１４９巷５之３號","OBJECTID":370465},"geometry":{"x":179298.51999999955,"y":2577525.129999999}},{"attributes":{"ID":370476,"DIS_CODE":0,"TOWNNAME":"新營區","LI":"南紙里","LIN":"12鄰","STREET":"太子路","SECT":" ","MAREA":" ","LANE":"１５３巷","ALLEY":" ","HOUSE_NO":"６２號","E_COORD97":177964.07000000001,"N_COORD97":2577672.1499999999,"ADDRESS":"太子路１５３巷６２號","OBJECTID":370466},"geometry":{"x":177964.07000000123,"y":2577672.1500000004}},{"attributes":{"ID":370477,"DIS_CODE":0,"TOWNNAME":"新營區","LI":"南紙里","LIN":"12鄰","STREET":"太子路","SECT":" ","MAREA":" ","LANE":"１５３巷","ALLEY":" ","HOUSE_NO":"４３號","E_COORD97":177952.26999999999,"N_COORD97":2577754.1600000001,"ADDRESS":"太子路１５３巷４３號","OBJECTID":370467},"geometry":{"x":177952.27000000048,"y":2577754.1600000039}},{"attributes":{"ID":370478,"DIS_CODE":0,"TOWNNAME":"新營區","LI":"南紙里","LIN":"12鄰","STREET":"太子路","SECT":" ","MAREA":" ","LANE":"１５３巷","ALLEY":" ","HOUSE_NO":"３５號","E_COORD97":177946.22,"N_COORD97":2577769.6899999999,"ADDRESS":"太子路１５３巷３５號","OBJECTID":370468},"geometry":{"x":177946.21999999974,"y":2577769.6899999995}},{"attributes":{"ID":370479,"DIS_CODE":0,"TOWNNAME":"新營區","LI":"民權里","LIN":"12鄰","STREET":"信義街","SECT":" ","MAREA":" ","LANE":"５３巷","ALLEY":" ","HOUSE_NO":"１０號","E_COORD97":179847.13,"N_COORD97":2578293.25,"ADDRESS":"信義街５３巷１０號","OBJECTID":370469},"geometry":{"x":179847.13000000082,"y":2578293.2500000019}},{"attributes":{"ID":370480,"DIS_CODE":0,"TOWNNAME":"新營區","LI":"民生里","LIN":"12鄰","STREET":"三民路","SECT":" ","MAREA":" ","LANE":"２０８巷","ALLEY":" ","HOUSE_NO":"３號","E_COORD97":179114.60999999999,"N_COORD97":2578079.6699999999,"ADDRESS":"三民路２０８巷３號","OBJECTID":370470},"geometry":{"x":179114.6100000022,"y":2578079.6700000018}},{"attributes":{"ID":370481,"DIS_CODE":0,"TOWNNAME":"新營區","LI":"民生里","LIN":"12鄰","STREET":"三民路","SECT":" ","MAREA":" ","LANE":"２０８巷","ALLEY":" ","HOUSE_NO":"８號","E_COORD97":179113.75,"N_COORD97":2578116.23,"ADDRESS":"三民路２０８巷８號","OBJECTID":370471},"geometry":{"x":179113.75000000093,"y":2578116.2300000004}},{"attributes":{"ID":370482,"DIS_CODE":0,"TOWNNAME":"新營區","LI":"民生里","LIN":"12鄰","STREET":"三民路","SECT":" ","MAREA":" ","LANE":"２０８巷","ALLEY":" ","HOUSE_NO":"５號","E_COORD97":179105.35999999999,"N_COORD97":2578084.1400000001,"ADDRESS":"三民路２０８巷５號","OBJECTID":370472},"geometry":{"x":179105.36000000034,"y":2578084.1400000025}},{"attributes":{"ID":370483,"DIS_CODE":0,"TOWNNAME":"新營區","LI":"民生里","LIN":"12鄰","STREET":"三民路","SECT":" ","MAREA":" ","LANE":"２０８巷","ALLEY":" ","HOUSE_NO":"７號","E_COORD97":179139.28,"N_COORD97":2578117.21,"ADDRESS":"三民路２０８巷７號","OBJECTID":370473},"geometry":{"x":179139.28000000119,"y":2578117.209999999}},{"attributes":{"ID":370484,"DIS_CODE":0,"TOWNNAME":"新營區","LI":"大宏里","LIN":"12鄰","STREET":"開元路","SECT":" ","MAREA":" ","LANE":"５９巷","ALLEY":" ","HOUSE_NO":"４之１號","E_COORD97":180859.17000000001,"N_COORD97":2578754.79,"ADDRESS":"開元路５９巷４之１號","OBJECTID":370474},"geometry":{"x":180859.16999999993,"y":2578754.7899999991}},{"attributes":{"ID":370485,"DIS_CODE":0,"TOWNNAME":"新營區","LI":"興安里","LIN":"12鄰","STREET":"新進路","SECT":" ","MAREA":" ","LANE":"３６３巷","ALLEY":" ","HOUSE_NO":"５號","E_COORD97":179834.06,"N_COORD97":2577737.3700000001,"ADDRESS":"新進路３６３巷５號","OBJECTID":370475},"geometry":{"x":179834.05999999959,"y":2577737.3700000029}},{"attributes":{"ID":370486,"DIS_CODE":0,"TOWNNAME":"新營區","LI":"大宏里","LIN":"12鄰","STREET":"開元路","SECT":" ","MAREA":" ","LANE":"５９巷","ALLEY":" ","HOUSE_NO":"４之９號","E_COORD97":180859.17000000001,"N_COORD97":2578754.79,"ADDRESS":"開元路５９巷４之９號","OBJECTID":370476},"geometry":{"x":180859.16999999993,"y":2578754.7899999991}},{"attributes":{"ID":370487,"DIS_CODE":0,"TOWNNAME":"新營區","LI":"民權里","LIN":"12鄰","STREET":"信義街","SECT":" ","MAREA":" ","LANE":"５３巷","ALLEY":" ","HOUSE_NO":"１２號","E_COORD97":179830.76000000001,"N_COORD97":2578292.2200000002,"ADDRESS":"信義街５３巷１２號","OBJECTID":370477},"geometry":{"x":179830.76000000071,"y":2578292.2200000007}},{"attributes":{"ID":370488,"DIS_CODE":0,"TOWNNAME":"南區","LI":"開南里","LIN":"8鄰","STREET":"中華西路","SECT":"一段","MAREA":" ","LANE":"６巷","ALLEY":" ","HOUSE_NO":"８號","E_COORD97":166356.59,"N_COORD97":2540496.6800000002,"ADDRESS":"中華西路一段６巷８號","OBJECTID":370478},"geometry":{"x":166356.59000000078,"y":2540496.6800000034}},{"attributes":{"ID":370489,"DIS_CODE":0,"TOWNNAME":"南區","LI":"開南里","LIN":"7鄰","STREET":"中華西路","SECT":"一段","MAREA":" ","LANE":"８巷","ALLEY":" ","HOUSE_NO":"６號","E_COORD97":166349.92000000001,"N_COORD97":2540540.9399999999,"ADDRESS":"中華西路一段８巷６號","OBJECTID":370479},"geometry":{"x":166349.91999999993,"y":2540540.9399999995}},{"attributes":{"ID":370490,"DIS_CODE":0,"TOWNNAME":"南區","LI":"開南里","LIN":"1鄰","STREET":"中華西路","SECT":"一段","MAREA":" ","LANE":"４２巷","ALLEY":" ","HOUSE_NO":"１０號","E_COORD97":166368.85000000001,"N_COORD97":2541069.3700000001,"ADDRESS":"中華西路一段４２巷１０號","OBJECTID":370480},"geometry":{"x":166368.84999999963,"y":2541069.370000001}},{"attributes":{"ID":370491,"DIS_CODE":0,"TOWNNAME":"南區","LI":"開南里","LIN":"1鄰","STREET":"中華西路","SECT":"一段","MAREA":" ","LANE":"４２巷","ALLEY":" ","HOUSE_NO":"１２號","E_COORD97":166373.84,"N_COORD97":2541069.2200000002,"ADDRESS":"中華西路一段４２巷１２號","OBJECTID":370481},"geometry":{"x":166373.84000000078,"y":2541069.2200000007}},{"attributes":{"ID":370492,"DIS_CODE":0,"TOWNNAME":"南區","LI":"開南里","LIN":"1鄰","STREET":"中華西路","SECT":"一段","MAREA":" ","LANE":"４２巷","ALLEY":" ","HOUSE_NO":"２號","E_COORD97":166333.35000000001,"N_COORD97":2541069.96,"ADDRESS":"中華西路一段４２巷２號","OBJECTID":370482},"geometry":{"x":166333.34999999963,"y":2541069.9600000028}},{"attributes":{"ID":370493,"DIS_CODE":0,"TOWNNAME":"南區","LI":"開南里","LIN":"1鄰","STREET":"中華西路","SECT":"一段","MAREA":" ","LANE":"４２巷","ALLEY":" ","HOUSE_NO":"４號","E_COORD97":166338.92000000001,"N_COORD97":2541070.3999999999,"ADDRESS":"中華西路一段４２巷４號","OBJECTID":370483},"geometry":{"x":166338.92000000179,"y":2541070.4000000022}},{"attributes":{"ID":370494,"DIS_CODE":0,"TOWNNAME":"南區","LI":"開南里","LIN":"1鄰","STREET":"中華西路","SECT":"一段","MAREA":" ","LANE":"４２巷","ALLEY":" ","HOUSE_NO":"６號","E_COORD97":166351.10000000001,"N_COORD97":2541069.96,"ADDRESS":"中華西路一段４２巷６號","OBJECTID":370484},"geometry":{"x":166351.10000000056,"y":2541069.9600000028}},{"attributes":{"ID":370495,"DIS_CODE":0,"TOWNNAME":"南區","LI":"開南里","LIN":"1鄰","STREET":"中華西路","SECT":"一段","MAREA":" ","LANE":"４２巷","ALLEY":" ","HOUSE_NO":"８號","E_COORD97":166356.09,"N_COORD97":2541070.1000000001,"ADDRESS":"中華西路一段４２巷８號","OBJECTID":370485},"geometry":{"x":166356.08999999985,"y":2541070.1000000034}},{"attributes":{"ID":370496,"DIS_CODE":0,"TOWNNAME":"新營區","LI":"民權里","LIN":"12鄰","STREET":"信義街","SECT":" ","MAREA":" ","LANE":"５３巷","ALLEY":" ","HOUSE_NO":"１０號之１","E_COORD97":179844.14999999999,"N_COORD97":2578292.2200000002,"ADDRESS":"信義街５３巷１０號之１","OBJECTID":370486},"geometry":{"x":179844.1500000013,"y":2578292.2200000007}},{"attributes":{"ID":370497,"DIS_CODE":0,"TOWNNAME":"新營區","LI":"三仙里","LIN":"12鄰","STREET":"民權路","SECT":" ","MAREA":" ","LANE":"４１巷","ALLEY":" ","HOUSE_NO":"６之１號","E_COORD97":179654.95999999999,"N_COORD97":2578270.96,"ADDRESS":"民權路４１巷６之１號","OBJECTID":370487},"geometry":{"x":179654.96000000089,"y":2578270.9600000009}},{"attributes":{"ID":370498,"DIS_CODE":0,"TOWNNAME":"南區","LI":"喜北里","LIN":"12鄰","STREET":"喜樹路","SECT":" ","MAREA":" ","LANE":"２０６巷","ALLEY":" ","HOUSE_NO":"６２之１號","E_COORD97":165736.35000000001,"N_COORD97":2538222.5299999998,"ADDRESS":"喜樹路２０６巷６２之１號","OBJECTID":370488},"geometry":{"x":165736.35000000056,"y":2538222.5300000031}},{"attributes":{"ID":370499,"DIS_CODE":0,"TOWNNAME":"南區","LI":"開南里","LIN":"8鄰","STREET":"中華西路","SECT":"一段","MAREA":" ","LANE":"６巷","ALLEY":" ","HOUSE_NO":"１號","E_COORD97":166349.84,"N_COORD97":2540522.5800000001,"ADDRESS":"中華西路一段６巷１號","OBJECTID":370489},"geometry":{"x":166349.84000000078,"y":2540522.5800000019}},{"attributes":{"ID":370500,"DIS_CODE":0,"TOWNNAME":"南區","LI":"開南里","LIN":"8鄰","STREET":"中華西路","SECT":"一段","MAREA":" ","LANE":"６巷","ALLEY":" ","HOUSE_NO":"２號","E_COORD97":166332.82999999999,"N_COORD97":2540496.5699999998,"ADDRESS":"中華西路一段６巷２號","OBJECTID":370490},"geometry":{"x":166332.83000000194,"y":2540496.5700000003}},{"attributes":{"ID":370501,"DIS_CODE":0,"TOWNNAME":"南區","LI":"開南里","LIN":"8鄰","STREET":"中華西路","SECT":"一段","MAREA":" ","LANE":"６巷","ALLEY":" ","HOUSE_NO":"３號","E_COORD97":166356.73000000001,"N_COORD97":2540522.7000000002,"ADDRESS":"中華西路一段６巷３號","OBJECTID":370491},"geometry":{"x":166356.73000000138,"y":2540522.6999999993}},{"attributes":{"ID":370502,"DIS_CODE":0,"TOWNNAME":"南區","LI":"開南里","LIN":"8鄰","STREET":"中華西路","SECT":"一段","MAREA":" ","LANE":"６巷","ALLEY":" ","HOUSE_NO":"４號","E_COORD97":166338.70999999999,"N_COORD97":2540496.5699999998,"ADDRESS":"中華西路一段６巷４號","OBJECTID":370492},"geometry":{"x":166338.71000000183,"y":2540496.5700000003}},{"attributes":{"ID":370503,"DIS_CODE":0,"TOWNNAME":"南區","LI":"開南里","LIN":"8鄰","STREET":"中華西路","SECT":"一段","MAREA":" ","LANE":"６巷","ALLEY":" ","HOUSE_NO":"５號","E_COORD97":166366.39000000001,"N_COORD97":2540522.8100000001,"ADDRESS":"中華西路一段６巷５號","OBJECTID":370493},"geometry":{"x":166366.3900000006,"y":2540522.8100000005}},{"attributes":{"ID":370504,"DIS_CODE":0,"TOWNNAME":"南區","LI":"開南里","LIN":"8鄰","STREET":"中華西路","SECT":"一段","MAREA":" ","LANE":"６巷","ALLEY":" ","HOUSE_NO":"６號","E_COORD97":166350.26000000001,"N_COORD97":2540496.6800000002,"ADDRESS":"中華西路一段６巷６號","OBJECTID":370494},"geometry":{"x":166350.26000000071,"y":2540496.6800000034}},{"attributes":{"ID":370505,"DIS_CODE":0,"TOWNNAME":"南區","LI":"開南里","LIN":"8鄰","STREET":"中華西路","SECT":"一段","MAREA":" ","LANE":"６巷","ALLEY":" ","HOUSE_NO":"７號","E_COORD97":166374.26999999999,"N_COORD97":2540522.9199999999,"ADDRESS":"中華西路一段６巷７號","OBJECTID":370495},"geometry":{"x":166374.26999999955,"y":2540522.9200000018}},{"attributes":{"ID":370506,"DIS_CODE":0,"TOWNNAME":"南區","LI":"開南里","LIN":"7鄰","STREET":"中華西路","SECT":"一段","MAREA":" ","LANE":"８巷","ALLEY":" ","HOUSE_NO":"１０號","E_COORD97":166367.13,"N_COORD97":2540541.27,"ADDRESS":"中華西路一段８巷１０號","OBJECTID":370496},"geometry":{"x":166367.12999999989,"y":2540541.2700000014}},{"attributes":{"ID":370507,"DIS_CODE":0,"TOWNNAME":"南區","LI":"開南里","LIN":"7鄰","STREET":"中華西路","SECT":"一段","MAREA":" ","LANE":"８巷","ALLEY":" ","HOUSE_NO":"１２號","E_COORD97":166373.01999999999,"N_COORD97":2540541.4900000002,"ADDRESS":"中華西路一段８巷１２號","OBJECTID":370497},"geometry":{"x":166373.01999999955,"y":2540541.4900000002}},{"attributes":{"ID":370508,"DIS_CODE":0,"TOWNNAME":"南區","LI":"開南里","LIN":"7鄰","STREET":"中華西路","SECT":"一段","MAREA":" ","LANE":"８巷","ALLEY":" ","HOUSE_NO":"２號","E_COORD97":166332.14999999999,"N_COORD97":2540541.27,"ADDRESS":"中華西路一段８巷２號","OBJECTID":370498},"geometry":{"x":166332.15000000037,"y":2540541.2700000014}},{"attributes":{"ID":370509,"DIS_CODE":0,"TOWNNAME":"南區","LI":"開南里","LIN":"7鄰","STREET":"中華西路","SECT":"一段","MAREA":" ","LANE":"８巷","ALLEY":" ","HOUSE_NO":"４號","E_COORD97":166337.48000000001,"N_COORD97":2540541.4900000002,"ADDRESS":"中華西路一段８巷４號","OBJECTID":370499},"geometry":{"x":166337.48000000138,"y":2540541.4900000002}},{"attributes":{"ID":370510,"DIS_CODE":0,"TOWNNAME":"南區","LI":"開南里","LIN":"7鄰","STREET":"中華西路","SECT":"一段","MAREA":" ","LANE":"８巷","ALLEY":" ","HOUSE_NO":"８號","E_COORD97":166356.25,"N_COORD97":2540541.0499999998,"ADDRESS":"中華西路一段８巷８號","OBJECTID":370500},"geometry":{"x":166356.25,"y":2540541.0500000026}},{"attributes":{"ID":370511,"DIS_CODE":0,"TOWNNAME":"安平區","LI":"華平里","LIN":"12鄰","STREET":"建平八街","SECT":" ","MAREA":" ","LANE":"３７２巷","ALLEY":" ","HOUSE_NO":"１７號","E_COORD97":165363.64907700001,"N_COORD97":2543616.6592899999,"ADDRESS":"建平八街３７２巷１７號","OBJECTID":370501},"geometry":{"x":165363.6490770001,"y":2543616.6592900045}},{"attributes":{"ID":370512,"DIS_CODE":0,"TOWNNAME":"安平區","LI":"平安里","LIN":"12鄰","STREET":"安平路","SECT":" ","MAREA":" ","LANE":"５００巷","ALLEY":" ","HOUSE_NO":"３９號","E_COORD97":165156.70999999999,"N_COORD97":2544470.4399999999,"ADDRESS":"安平路５００巷３９號","OBJECTID":370502},"geometry":{"x":165156.70999999996,"y":2544470.4399999995}},{"attributes":{"ID":370513,"DIS_CODE":0,"TOWNNAME":"安平區","LI":"平安里","LIN":"12鄰","STREET":"安平路","SECT":" ","MAREA":" ","LANE":"５００巷","ALLEY":" ","HOUSE_NO":"４１號","E_COORD97":165157.01999999999,"N_COORD97":2544473.5,"ADDRESS":"安平路５００巷４１號","OBJECTID":370503},"geometry":{"x":165157.02000000048,"y":2544473.5}},{"attributes":{"ID":370514,"DIS_CODE":0,"TOWNNAME":"安平區","LI":"平安里","LIN":"12鄰","STREET":"安平路","SECT":" ","MAREA":" ","LANE":"５００巷","ALLEY":" ","HOUSE_NO":"４３號","E_COORD97":165157.63,"N_COORD97":2544476.4100000001,"ADDRESS":"安平路５００巷４３號","OBJECTID":370504},"geometry":{"x":165157.63000000175,"y":2544476.410000002}},{"attributes":{"ID":370515,"DIS_CODE":0,"TOWNNAME":"安平區","LI":"平安里","LIN":"12鄰","STREET":"安平路","SECT":" ","MAREA":" ","LANE":"５００巷","ALLEY":" ","HOUSE_NO":"４５號","E_COORD97":165158.09,"N_COORD97":2544479.4700000002,"ADDRESS":"安平路５００巷４５號","OBJECTID":370505},"geometry":{"x":165158.09000000078,"y":2544479.4700000044}},{"attributes":{"ID":370516,"DIS_CODE":0,"TOWNNAME":"安平區","LI":"平安里","LIN":"12鄰","STREET":"安平路","SECT":" ","MAREA":" ","LANE":"５００巷","ALLEY":" ","HOUSE_NO":"４９號","E_COORD97":165159.31,"N_COORD97":2544484.6699999999,"ADDRESS":"安平路５００巷４９號","OBJECTID":370506},"geometry":{"x":165159.30999999866,"y":2544484.6700000018}},{"attributes":{"ID":370517,"DIS_CODE":0,"TOWNNAME":"安平區","LI":"金城里","LIN":"12鄰","STREET":"世平一街","SECT":" ","MAREA":" ","LANE":"５８巷","ALLEY":" ","HOUSE_NO":"１６號","E_COORD97":162857.79999999999,"N_COORD97":2543995.0800000001,"ADDRESS":"世平一街５８巷１６號","OBJECTID":370507},"geometry":{"x":162857.80000000168,"y":2543995.0800000001}},{"attributes":{"ID":370518,"DIS_CODE":0,"TOWNNAME":"南區","LI":"建南里","LIN":"12鄰","STREET":"中華南路","SECT":"二段","MAREA":" ","LANE":"１７７巷","ALLEY":" ","HOUSE_NO":"１２之３號","E_COORD97":167075.22,"N_COORD97":2540179.4900000002,"ADDRESS":"中華南路二段１７７巷１２之３號","OBJECTID":370508},"geometry":{"x":167075.21999999974,"y":2540179.4900000002}},{"attributes":{"ID":370519,"DIS_CODE":0,"TOWNNAME":"南區","LI":"建南里","LIN":"12鄰","STREET":"中華南路","SECT":"二段","MAREA":" ","LANE":"１７７巷","ALLEY":" ","HOUSE_NO":"１２之５號","E_COORD97":167075.01999999999,"N_COORD97":2540161.9100000001,"ADDRESS":"中華南路二段１７７巷１２之５號","OBJECTID":370509},"geometry":{"x":167075.01999999955,"y":2540161.9100000001}},{"attributes":{"ID":370520,"DIS_CODE":0,"TOWNNAME":"南區","LI":"建南里","LIN":"12鄰","STREET":"中華南路","SECT":"二段","MAREA":" ","LANE":"１７７巷","ALLEY":" ","HOUSE_NO":"１２之６號","E_COORD97":167079.16,"N_COORD97":2540162.0099999998,"ADDRESS":"中華南路二段１７７巷１２之６號","OBJECTID":370510},"geometry":{"x":167079.16000000015,"y":2540162.0099999998}},{"attributes":{"ID":370521,"DIS_CODE":0,"TOWNNAME":"南區","LI":"建南里","LIN":"12鄰","STREET":"中華南路","SECT":"二段","MAREA":" ","LANE":"１７７巷","ALLEY":" ","HOUSE_NO":"１２之７號","E_COORD97":167083.26000000001,"N_COORD97":2540161.9399999999,"ADDRESS":"中華南路二段１７７巷１２之７號","OBJECTID":370511},"geometry":{"x":167083.25999999978,"y":2540161.9399999995}},{"attributes":{"ID":370522,"DIS_CODE":0,"TOWNNAME":"南區","LI":"建南里","LIN":"12鄰","STREET":"中華南路","SECT":"二段","MAREA":" ","LANE":"１７７巷","ALLEY":" ","HOUSE_NO":"１２之８號","E_COORD97":167090.16,"N_COORD97":2540162.2000000002,"ADDRESS":"中華南路二段１７７巷１２之８號","OBJECTID":370512},"geometry":{"x":167090.16000000201,"y":2540162.1999999993}},{"attributes":{"ID":370523,"DIS_CODE":0,"TOWNNAME":"南區","LI":"建南里","LIN":"12鄰","STREET":"中華南路","SECT":"二段","MAREA":" ","LANE":"１７７巷","ALLEY":" ","HOUSE_NO":"６之２號","E_COORD97":167040.38,"N_COORD97":2540179.3799999999,"ADDRESS":"中華南路二段１７７巷６之２號","OBJECTID":370513},"geometry":{"x":167040.37999999989,"y":2540179.3800000027}},{"attributes":{"ID":370524,"DIS_CODE":0,"TOWNNAME":"南區","LI":"建南里","LIN":"12鄰","STREET":"中華南路","SECT":"二段","MAREA":" ","LANE":"１７７巷","ALLEY":" ","HOUSE_NO":"６之３號","E_COORD97":167041.45000000001,"N_COORD97":2540173.1499999999,"ADDRESS":"中華南路二段１７７巷６之３號","OBJECTID":370514},"geometry":{"x":167041.45000000112,"y":2540173.1500000022}},{"attributes":{"ID":370525,"DIS_CODE":0,"TOWNNAME":"南區","LI":"建南里","LIN":"12鄰","STREET":"中華南路","SECT":"二段","MAREA":" ","LANE":"１７７巷","ALLEY":" ","HOUSE_NO":"６之５號","E_COORD97":167041.01999999999,"N_COORD97":2540165.4199999999,"ADDRESS":"中華南路二段１７７巷６之５號","OBJECTID":370515},"geometry":{"x":167041.01999999955,"y":2540165.4199999999}},{"attributes":{"ID":370526,"DIS_CODE":0,"TOWNNAME":"南區","LI":"開南里","LIN":"12鄰","STREET":"新建路","SECT":" ","MAREA":" ","LANE":"４６巷","ALLEY":" ","HOUSE_NO":"１２號","E_COORD97":166403.20999999999,"N_COORD97":2540618.1299999999,"ADDRESS":"新建路４６巷１２號","OBJECTID":370516},"geometry":{"x":166403.21000000089,"y":2540618.1299999971}},{"attributes":{"ID":370527,"DIS_CODE":0,"TOWNNAME":"南區","LI":"開南里","LIN":"12鄰","STREET":"新建路","SECT":" ","MAREA":" ","LANE":"４６巷","ALLEY":" ","HOUSE_NO":"２號","E_COORD97":166443.89000000001,"N_COORD97":2540618.9399999999,"ADDRESS":"新建路４６巷２號","OBJECTID":370517},"geometry":{"x":166443.89000000153,"y":2540618.9399999995}},{"attributes":{"ID":370528,"DIS_CODE":0,"TOWNNAME":"南區","LI":"開南里","LIN":"12鄰","STREET":"新建路","SECT":" ","MAREA":" ","LANE":"４６巷","ALLEY":" ","HOUSE_NO":"４號","E_COORD97":166438.59,"N_COORD97":2540619.2200000002,"ADDRESS":"新建路４６巷４號","OBJECTID":370518},"geometry":{"x":166438.58999999985,"y":2540619.2200000007}},{"attributes":{"ID":370529,"DIS_CODE":0,"TOWNNAME":"南區","LI":"開南里","LIN":"12鄰","STREET":"新建路","SECT":" ","MAREA":" ","LANE":"４６巷","ALLEY":" ","HOUSE_NO":"６號","E_COORD97":166425.07000000001,"N_COORD97":2540619.2200000002,"ADDRESS":"新建路４６巷６號","OBJECTID":370519},"geometry":{"x":166425.07000000123,"y":2540619.2200000007}},{"attributes":{"ID":370530,"DIS_CODE":0,"TOWNNAME":"南區","LI":"開南里","LIN":"12鄰","STREET":"新建路","SECT":" ","MAREA":" ","LANE":"４６巷","ALLEY":" ","HOUSE_NO":"８號","E_COORD97":166419.32000000001,"N_COORD97":2540618.02,"ADDRESS":"新建路４６巷８號","OBJECTID":370520},"geometry":{"x":166419.3200000003,"y":2540618.0199999996}},{"attributes":{"ID":370531,"DIS_CODE":0,"TOWNNAME":"南區","LI":"新昌里","LIN":"1鄰","STREET":"大德街","SECT":" ","MAREA":" ","LANE":"１４１巷","ALLEY":" ","HOUSE_NO":"７號","E_COORD97":167584.04999999999,"N_COORD97":2542991.4399999999,"ADDRESS":"大德街１４１巷７號","OBJECTID":370521},"geometry":{"x":167584.05000000075,"y":2542991.4400000013}},{"attributes":{"ID":370532,"DIS_CODE":0,"TOWNNAME":"南區","LI":"新昌里","LIN":"1鄰","STREET":"大德街","SECT":" ","MAREA":" ","LANE":"１４１巷","ALLEY":" ","HOUSE_NO":"９號","E_COORD97":167571.03,"N_COORD97":2542987,"ADDRESS":"大德街１４１巷９號","OBJECTID":370522},"geometry":{"x":167571.03000000212,"y":2542987.0000000037}},{"attributes":{"ID":370533,"DIS_CODE":0,"TOWNNAME":"南區","LI":"新昌里","LIN":"1鄰","STREET":"大德街","SECT":" ","MAREA":" ","LANE":"１４１巷","ALLEY":" ","HOUSE_NO":"１１號","E_COORD97":167571.98999999999,"N_COORD97":2542979.7000000002,"ADDRESS":"大德街１４１巷１１號","OBJECTID":370523},"geometry":{"x":167571.99000000022,"y":2542979.6999999993}},{"attributes":{"ID":370534,"DIS_CODE":0,"TOWNNAME":"安平區","LI":"文平里","LIN":"12鄰","STREET":"永華四街","SECT":" ","MAREA":" ","LANE":"２５巷","ALLEY":" ","HOUSE_NO":"８號之５","E_COORD97":165899.03,"N_COORD97":2543249.0499999998,"ADDRESS":"永華四街２５巷８號之５","OBJECTID":370524},"geometry":{"x":165899.03000000026,"y":2543249.0500000026}},{"attributes":{"ID":370535,"DIS_CODE":0,"TOWNNAME":"安平區","LI":"文平里","LIN":"12鄰","STREET":"建平五街","SECT":" ","MAREA":" ","LANE":"８０巷","ALLEY":" ","HOUSE_NO":"２１號","E_COORD97":165919.73999999999,"N_COORD97":2543201.54,"ADDRESS":"建平五街８０巷２１號","OBJECTID":370525},"geometry":{"x":165919.74000000022,"y":2543201.5399999991}},{"attributes":{"ID":370536,"DIS_CODE":0,"TOWNNAME":"南區","LI":"新昌里","LIN":"5鄰","STREET":"大德街","SECT":" ","MAREA":" ","LANE":"１４１巷","ALLEY":" ","HOUSE_NO":"１０２號","E_COORD97":167509.85000000001,"N_COORD97":2542756.6299999999,"ADDRESS":"大德街１４１巷１０２號","OBJECTID":370526},"geometry":{"x":167509.84999999963,"y":2542756.629999999}},{"attributes":{"ID":370537,"DIS_CODE":0,"TOWNNAME":"南區","LI":"新昌里","LIN":"5鄰","STREET":"大德街","SECT":" ","MAREA":" ","LANE":"１４１巷","ALLEY":" ","HOUSE_NO":"１０４號","E_COORD97":167509.04000000001,"N_COORD97":2542750.4700000002,"ADDRESS":"大德街１４１巷１０４號","OBJECTID":370527},"geometry":{"x":167509.04000000004,"y":2542750.4700000044}},{"attributes":{"ID":370538,"DIS_CODE":0,"TOWNNAME":"南區","LI":"新昌里","LIN":"5鄰","STREET":"大德街","SECT":" ","MAREA":" ","LANE":"１４１巷","ALLEY":" ","HOUSE_NO":"１０６號","E_COORD97":167502.07000000001,"N_COORD97":2542751.1200000001,"ADDRESS":"大德街１４１巷１０６號","OBJECTID":370528},"geometry":{"x":167502.0700000003,"y":2542751.1200000029}},{"attributes":{"ID":370539,"DIS_CODE":0,"TOWNNAME":"南區","LI":"新昌里","LIN":"5鄰","STREET":"大德街","SECT":" ","MAREA":" ","LANE":"１４１巷","ALLEY":" ","HOUSE_NO":"１０８號","E_COORD97":167527.42000000001,"N_COORD97":2542734.3799999999,"ADDRESS":"大德街１４１巷１０８號","OBJECTID":370529},"geometry":{"x":167527.42000000086,"y":2542734.379999999}},{"attributes":{"ID":370540,"DIS_CODE":0,"TOWNNAME":"南區","LI":"新昌里","LIN":"5鄰","STREET":"大德街","SECT":" ","MAREA":" ","LANE":"１４１巷","ALLEY":" ","HOUSE_NO":"１１０號","E_COORD97":167513.59,"N_COORD97":2542736.3700000001,"ADDRESS":"大德街１４１巷１１０號","OBJECTID":370530},"geometry":{"x":167513.58999999985,"y":2542736.370000001}},{"attributes":{"ID":370541,"DIS_CODE":0,"TOWNNAME":"南區","LI":"新昌里","LIN":"5鄰","STREET":"大德街","SECT":" ","MAREA":" ","LANE":"１４１巷","ALLEY":" ","HOUSE_NO":"１１２號","E_COORD97":167500.12,"N_COORD97":2542739.9399999999,"ADDRESS":"大德街１４１巷１１２號","OBJECTID":370531},"geometry":{"x":167500.12000000011,"y":2542739.9400000013}},{"attributes":{"ID":370542,"DIS_CODE":0,"TOWNNAME":"南區","LI":"新昌里","LIN":"5鄰","STREET":"大德街","SECT":" ","MAREA":" ","LANE":"１４１巷","ALLEY":" ","HOUSE_NO":"１１４號","E_COORD97":167503.35999999999,"N_COORD97":2542730.8599999999,"ADDRESS":"大德街１４１巷１１４號","OBJECTID":370532},"geometry":{"x":167503.36000000127,"y":2542730.8600000013}},{"attributes":{"ID":370543,"DIS_CODE":0,"TOWNNAME":"南區","LI":"新昌里","LIN":"7鄰","STREET":"西門路","SECT":"一段","MAREA":" ","LANE":"５４５巷","ALLEY":" ","HOUSE_NO":"３９號","E_COORD97":167557.34,"N_COORD97":2542701.9700000002,"ADDRESS":"西門路一段５４５巷３９號","OBJECTID":370533},"geometry":{"x":167557.34000000078,"y":2542701.9700000007}},{"attributes":{"ID":370544,"DIS_CODE":0,"TOWNNAME":"南區","LI":"新昌里","LIN":"7鄰","STREET":"西門路","SECT":"一段","MAREA":" ","LANE":"５４５巷","ALLEY":" ","HOUSE_NO":"４１號","E_COORD97":167556.20000000001,"N_COORD97":2542698.0800000001,"ADDRESS":"西門路一段５４５巷４１號","OBJECTID":370534},"geometry":{"x":167556.20000000205,"y":2542698.0800000038}},{"attributes":{"ID":370545,"DIS_CODE":0,"TOWNNAME":"南區","LI":"新昌里","LIN":"7鄰","STREET":"府緯街","SECT":" ","MAREA":" ","LANE":"１１５巷","ALLEY":" ","HOUSE_NO":"１號","E_COORD97":167544.03,"N_COORD97":2542691.7599999998,"ADDRESS":"府緯街１１５巷１號","OBJECTID":370535},"geometry":{"x":167544.03000000119,"y":2542691.7599999998}},{"attributes":{"ID":370546,"DIS_CODE":0,"TOWNNAME":"南區","LI":"新昌里","LIN":"7鄰","STREET":"府緯街","SECT":" ","MAREA":" ","LANE":"１１５巷","ALLEY":" ","HOUSE_NO":"２號","E_COORD97":167529.91,"N_COORD97":2542691.2000000002,"ADDRESS":"府緯街１１５巷２號","OBJECTID":370536},"geometry":{"x":167529.91000000108,"y":2542691.2000000011}},{"attributes":{"ID":370547,"DIS_CODE":0,"TOWNNAME":"南區","LI":"新昌里","LIN":"7鄰","STREET":"府緯街","SECT":" ","MAREA":" ","LANE":"１１５巷","ALLEY":" ","HOUSE_NO":"３號","E_COORD97":167545.98000000001,"N_COORD97":2542679.9300000002,"ADDRESS":"府緯街１１５巷３號","OBJECTID":370537},"geometry":{"x":167545.98000000231,"y":2542679.9300000016}},{"attributes":{"ID":370548,"DIS_CODE":0,"TOWNNAME":"南區","LI":"新昌里","LIN":"7鄰","STREET":"府緯街","SECT":" ","MAREA":" ","LANE":"１１５巷","ALLEY":" ","HOUSE_NO":"５號","E_COORD97":167546.45999999999,"N_COORD97":2542673.9300000002,"ADDRESS":"府緯街１１５巷５號","OBJECTID":370538},"geometry":{"x":167546.46000000089,"y":2542673.9299999997}},{"attributes":{"ID":370549,"DIS_CODE":0,"TOWNNAME":"南區","LI":"新昌里","LIN":"7鄰","STREET":"府緯街","SECT":" ","MAREA":" ","LANE":"１１５巷","ALLEY":" ","HOUSE_NO":"６號","E_COORD97":167522.12,"N_COORD97":2542691.3599999999,"ADDRESS":"府緯街１１５巷６號","OBJECTID":370539},"geometry":{"x":167522.12000000011,"y":2542691.3599999994}},{"attributes":{"ID":370550,"DIS_CODE":0,"TOWNNAME":"南區","LI":"新昌里","LIN":"7鄰","STREET":"府緯街","SECT":" ","MAREA":" ","LANE":"１１５巷","ALLEY":" ","HOUSE_NO":"７號","E_COORD97":167546.29999999999,"N_COORD97":2542663.6299999999,"ADDRESS":"府緯街１１５巷７號","OBJECTID":370540},"geometry":{"x":167546.29999999981,"y":2542663.6300000008}},{"attributes":{"ID":370551,"DIS_CODE":0,"TOWNNAME":"南區","LI":"新昌里","LIN":"7鄰","STREET":"府緯街","SECT":" ","MAREA":" ","LANE":"１１５巷","ALLEY":" ","HOUSE_NO":"８號","E_COORD97":167517.42000000001,"N_COORD97":2542691.52,"ADDRESS":"府緯街１１５巷８號","OBJECTID":370541},"geometry":{"x":167517.42000000086,"y":2542691.5200000014}},{"attributes":{"ID":370552,"DIS_CODE":0,"TOWNNAME":"南區","LI":"新昌里","LIN":"7鄰","STREET":"府緯街","SECT":" ","MAREA":" ","LANE":"１１５巷","ALLEY":" ","HOUSE_NO":"９號","E_COORD97":167545.98000000001,"N_COORD97":2542656.5,"ADDRESS":"府緯街１１５巷９號","OBJECTID":370542},"geometry":{"x":167545.98000000231,"y":2542656.5}},{"attributes":{"ID":370553,"DIS_CODE":0,"TOWNNAME":"南區","LI":"新昌里","LIN":"7鄰","STREET":"府緯街","SECT":" ","MAREA":" ","LANE":"１１５巷","ALLEY":" ","HOUSE_NO":"１０號","E_COORD97":167513.51999999999,"N_COORD97":2542690.5499999998,"ADDRESS":"府緯街１１５巷１０號","OBJECTID":370543},"geometry":{"x":167513.51999999955,"y":2542690.5500000026}},{"attributes":{"ID":370554,"DIS_CODE":0,"TOWNNAME":"南區","LI":"新昌里","LIN":"7鄰","STREET":"府緯街","SECT":" ","MAREA":" ","LANE":"１１５巷","ALLEY":" ","HOUSE_NO":"１１號","E_COORD97":167544.67999999999,"N_COORD97":2542645.6400000001,"ADDRESS":"府緯街１１５巷１１號","OBJECTID":370544},"geometry":{"x":167544.68000000063,"y":2542645.6400000025}},{"attributes":{"ID":370555,"DIS_CODE":0,"TOWNNAME":"南區","LI":"新昌里","LIN":"7鄰","STREET":"府緯街","SECT":" ","MAREA":" ","LANE":"１１５巷","ALLEY":" ","HOUSE_NO":"１２號","E_COORD97":167508.64999999999,"N_COORD97":2542690.3900000001,"ADDRESS":"府緯街１１５巷１２號","OBJECTID":370545},"geometry":{"x":167508.65000000037,"y":2542690.3900000025}},{"attributes":{"ID":370556,"DIS_CODE":0,"TOWNNAME":"南區","LI":"新昌里","LIN":"7鄰","STREET":"府緯街","SECT":" ","MAREA":" ","LANE":"１１５巷","ALLEY":" ","HOUSE_NO":"１３號","E_COORD97":167545,"N_COORD97":2542638.5099999998,"ADDRESS":"府緯街１１５巷１３號","OBJECTID":370546},"geometry":{"x":167545,"y":2542638.5100000016}},{"attributes":{"ID":370557,"DIS_CODE":0,"TOWNNAME":"南區","LI":"新昌里","LIN":"7鄰","STREET":"府緯街","SECT":" ","MAREA":" ","LANE":"１１５巷","ALLEY":" ","HOUSE_NO":"１４號","E_COORD97":167504.26999999999,"N_COORD97":2542690.3900000001,"ADDRESS":"府緯街１１５巷１４號","OBJECTID":370547},"geometry":{"x":167504.27000000048,"y":2542690.3900000025}},{"attributes":{"ID":370558,"DIS_CODE":0,"TOWNNAME":"南區","LI":"新昌里","LIN":"7鄰","STREET":"府緯街","SECT":" ","MAREA":" ","LANE":"１１５巷","ALLEY":" ","HOUSE_NO":"１５號","E_COORD97":167546.63,"N_COORD97":2542628.3799999999,"ADDRESS":"府緯街１１５巷１５號","OBJECTID":370548},"geometry":{"x":167546.63000000082,"y":2542628.3800000008}},{"attributes":{"ID":370559,"DIS_CODE":0,"TOWNNAME":"南區","LI":"新昌里","LIN":"7鄰","STREET":"府緯街","SECT":" ","MAREA":" ","LANE":"１１５巷","ALLEY":" ","HOUSE_NO":"１６號","E_COORD97":167499.89000000001,"N_COORD97":2542691.2000000002,"ADDRESS":"府緯街１１５巷１６號","OBJECTID":370549},"geometry":{"x":167499.88999999873,"y":2542691.2000000011}},{"attributes":{"ID":370560,"DIS_CODE":0,"TOWNNAME":"南區","LI":"新昌里","LIN":"7鄰","STREET":"府緯街","SECT":" ","MAREA":" ","LANE":"１１５巷","ALLEY":" ","HOUSE_NO":"１９號","E_COORD97":167531.04999999999,"N_COORD97":2542620.6000000001,"ADDRESS":"府緯街１１５巷１９號","OBJECTID":370550},"geometry":{"x":167531.04999999981,"y":2542620.6000000015}},{"attributes":{"ID":370561,"DIS_CODE":0,"TOWNNAME":"南區","LI":"新昌里","LIN":"7鄰","STREET":"府緯街","SECT":" ","MAREA":" ","LANE":"１１５巷","ALLEY":" ","HOUSE_NO":"２０號","E_COORD97":167530.07000000001,"N_COORD97":2542666.7999999998,"ADDRESS":"府緯街１１５巷２０號","OBJECTID":370551},"geometry":{"x":167530.07000000216,"y":2542666.8000000045}},{"attributes":{"ID":370562,"DIS_CODE":0,"TOWNNAME":"南區","LI":"新昌里","LIN":"7鄰","STREET":"府緯街","SECT":" ","MAREA":" ","LANE":"１１５巷","ALLEY":" ","HOUSE_NO":"２２號","E_COORD97":167525.53,"N_COORD97":2542666.3199999998,"ADDRESS":"府緯街１１５巷２２號","OBJECTID":370552},"geometry":{"x":167525.53000000119,"y":2542666.320000004}},{"attributes":{"ID":370563,"DIS_CODE":0,"TOWNNAME":"南區","LI":"新昌里","LIN":"7鄰","STREET":"府緯街","SECT":" ","MAREA":" ","LANE":"１１５巷","ALLEY":" ","HOUSE_NO":"２４號","E_COORD97":167521.14999999999,"N_COORD97":2542666.48,"ADDRESS":"府緯街１１５巷２４號","OBJECTID":370553},"geometry":{"x":167521.15000000224,"y":2542666.4800000023}},{"attributes":{"ID":370564,"DIS_CODE":0,"TOWNNAME":"南區","LI":"新昌里","LIN":"7鄰","STREET":"府緯街","SECT":" ","MAREA":" ","LANE":"１１５巷","ALLEY":" ","HOUSE_NO":"２６號","E_COORD97":167517.09,"N_COORD97":2542666.6400000001,"ADDRESS":"府緯街１１５巷２６號","OBJECTID":370554},"geometry":{"x":167517.08999999985,"y":2542666.6400000006}},{"attributes":{"ID":370565,"DIS_CODE":0,"TOWNNAME":"南區","LI":"新昌里","LIN":"8鄰","STREET":"五妃街","SECT":" ","MAREA":" ","LANE":"３８６巷","ALLEY":" ","HOUSE_NO":"１３號","E_COORD97":167577.45999999999,"N_COORD97":2542662.9900000002,"ADDRESS":"五妃街３８６巷１３號","OBJECTID":370555},"geometry":{"x":167577.45999999996,"y":2542662.9900000021}},{"attributes":{"ID":370566,"DIS_CODE":0,"TOWNNAME":"南區","LI":"新昌里","LIN":"8鄰","STREET":"五妃街","SECT":" ","MAREA":" ","LANE":"３８６巷","ALLEY":" ","HOUSE_NO":"１５號","E_COORD97":167578.10999999999,"N_COORD97":2542667.04,"ADDRESS":"五妃街３８６巷１５號","OBJECTID":370556},"geometry":{"x":167578.11000000034,"y":2542667.0400000028}},{"attributes":{"ID":370567,"DIS_CODE":0,"TOWNNAME":"南區","LI":"新昌里","LIN":"8鄰","STREET":"五妃街","SECT":" ","MAREA":" ","LANE":"３８６巷","ALLEY":" ","HOUSE_NO":"１７號","E_COORD97":167577.95000000001,"N_COORD97":2542671.5800000001,"ADDRESS":"五妃街３８６巷１７號","OBJECTID":370557},"geometry":{"x":167577.95000000019,"y":2542671.5800000019}},{"attributes":{"ID":370568,"DIS_CODE":0,"TOWNNAME":"南區","LI":"新昌里","LIN":"8鄰","STREET":"五妃街","SECT":" ","MAREA":" ","LANE":"３８６巷","ALLEY":" ","HOUSE_NO":"１９號","E_COORD97":167577.29999999999,"N_COORD97":2542676.6000000001,"ADDRESS":"五妃街３８６巷１９號","OBJECTID":370558},"geometry":{"x":167577.30000000075,"y":2542676.5999999996}},{"attributes":{"ID":370569,"DIS_CODE":0,"TOWNNAME":"南區","LI":"新昌里","LIN":"7鄰","STREET":"府緯街","SECT":" ","MAREA":" ","LANE":"１１５巷","ALLEY":" ","HOUSE_NO":"２８號","E_COORD97":167512.54999999999,"N_COORD97":2542666.9700000002,"ADDRESS":"府緯街１１５巷２８號","OBJECTID":370559},"geometry":{"x":167512.54999999888,"y":2542666.9700000025}},{"attributes":{"ID":370570,"DIS_CODE":0,"TOWNNAME":"南區","LI":"新昌里","LIN":"7鄰","STREET":"府緯街","SECT":" ","MAREA":" ","LANE":"１１５巷","ALLEY":" ","HOUSE_NO":"３０號","E_COORD97":167508.32999999999,"N_COORD97":2542667.4500000002,"ADDRESS":"府緯街１１５巷３０號","OBJECTID":370560},"geometry":{"x":167508.33000000101,"y":2542667.4499999974}},{"attributes":{"ID":370571,"DIS_CODE":0,"TOWNNAME":"南區","LI":"新昌里","LIN":"7鄰","STREET":"府緯街","SECT":" ","MAREA":" ","LANE":"１１５巷","ALLEY":" ","HOUSE_NO":"３４號","E_COORD97":167518.23000000001,"N_COORD97":2542650.3500000001,"ADDRESS":"府緯街１１５巷３４號","OBJECTID":370561},"geometry":{"x":167518.23000000045,"y":2542650.3499999996}},{"attributes":{"ID":370572,"DIS_CODE":0,"TOWNNAME":"南區","LI":"新昌里","LIN":"7鄰","STREET":"府緯街","SECT":" ","MAREA":" ","LANE":"１１５巷","ALLEY":" ","HOUSE_NO":"３６號","E_COORD97":167517.89999999999,"N_COORD97":2542644.5099999998,"ADDRESS":"府緯街１１５巷３６號","OBJECTID":370562},"geometry":{"x":167517.9000000013,"y":2542644.5100000016}},{"attributes":{"ID":370573,"DIS_CODE":0,"TOWNNAME":"南區","LI":"新昌里","LIN":"7鄰","STREET":"府緯街","SECT":" ","MAREA":" ","LANE":"１１５巷","ALLEY":" ","HOUSE_NO":"３８號","E_COORD97":167517.25,"N_COORD97":2542637.71,"ADDRESS":"府緯街１１５巷３８號","OBJECTID":370563},"geometry":{"x":167517.25000000093,"y":2542637.7100000028}},{"attributes":{"ID":370574,"DIS_CODE":0,"TOWNNAME":"南區","LI":"新昌里","LIN":"7鄰","STREET":"府緯街","SECT":" ","MAREA":" ","LANE":"１１５巷","ALLEY":" ","HOUSE_NO":"４０號","E_COORD97":167523.75,"N_COORD97":2542627.4900000002,"ADDRESS":"府緯街１１５巷４０號","OBJECTID":370564},"geometry":{"x":167523.75000000093,"y":2542627.4899999984}},{"attributes":{"ID":370575,"DIS_CODE":0,"TOWNNAME":"南區","LI":"新昌里","LIN":"8鄰","STREET":"西門路","SECT":"一段","MAREA":" ","LANE":"５４５巷","ALLEY":" ","HOUSE_NO":"２２號","E_COORD97":167643.19,"N_COORD97":2542701.73,"ADDRESS":"西門路一段５４５巷２２號","OBJECTID":370565},"geometry":{"x":167643.19000000134,"y":2542701.7300000023}},{"attributes":{"ID":370576,"DIS_CODE":0,"TOWNNAME":"南區","LI":"新昌里","LIN":"8鄰","STREET":"西門路","SECT":"一段","MAREA":" ","LANE":"５４５巷","ALLEY":" ","HOUSE_NO":"２８號","E_COORD97":167622.73999999999,"N_COORD97":2542704.7000000002,"ADDRESS":"西門路一段５４５巷２８號","OBJECTID":370566},"geometry":{"x":167622.74000000115,"y":2542704.7000000011}},{"attributes":{"ID":370577,"DIS_CODE":0,"TOWNNAME":"南區","LI":"新昌里","LIN":"8鄰","STREET":"西門路","SECT":"一段","MAREA":" ","LANE":"５４５巷","ALLEY":" ","HOUSE_NO":"３５號","E_COORD97":167572.26999999999,"N_COORD97":2542687.8700000001,"ADDRESS":"西門路一段５４５巷３５號","OBJECTID":370567},"geometry":{"x":167572.27000000048,"y":2542687.8700000029}},{"attributes":{"ID":370578,"DIS_CODE":0,"TOWNNAME":"南區","LI":"新昌里","LIN":"8鄰","STREET":"西門路","SECT":"一段","MAREA":" ","LANE":"５４５巷","ALLEY":" ","HOUSE_NO":"４２號","E_COORD97":167595.14999999999,"N_COORD97":2542702.7799999998,"ADDRESS":"西門路一段５４５巷４２號","OBJECTID":370568},"geometry":{"x":167595.15000000037,"y":2542702.7800000031}},{"attributes":{"ID":370579,"DIS_CODE":0,"TOWNNAME":"南區","LI":"新昌里","LIN":"8鄰","STREET":"西門路","SECT":"一段","MAREA":" ","LANE":"５４５巷","ALLEY":" ","HOUSE_NO":"４２號之１","E_COORD97":167590.60999999999,"N_COORD97":2542703.1099999999,"ADDRESS":"西門路一段５４５巷４２號之１","OBJECTID":370569},"geometry":{"x":167590.61000000034,"y":2542703.1099999994}},{"attributes":{"ID":370580,"DIS_CODE":0,"TOWNNAME":"南區","LI":"新昌里","LIN":"8鄰","STREET":"西門路","SECT":"一段","MAREA":" ","LANE":"５４５巷","ALLEY":" ","HOUSE_NO":"４６號","E_COORD97":167586.39000000001,"N_COORD97":2542703.1099999999,"ADDRESS":"西門路一段５４５巷４６號","OBJECTID":370570},"geometry":{"x":167586.38999999873,"y":2542703.1099999994}},{"attributes":{"ID":370581,"DIS_CODE":0,"TOWNNAME":"南區","LI":"喜南里","LIN":"12鄰","STREET":"喜樹路","SECT":" ","MAREA":" ","LANE":"３４０巷","ALLEY":" ","HOUSE_NO":"１４２號","E_COORD97":165492.82999999999,"N_COORD97":2537887.1299999999,"ADDRESS":"喜樹路３４０巷１４２號","OBJECTID":370571},"geometry":{"x":165492.83000000101,"y":2537887.1300000008}},{"attributes":{"ID":370582,"DIS_CODE":0,"TOWNNAME":"南區","LI":"喜南里","LIN":"12鄰","STREET":"喜樹路","SECT":" ","MAREA":" ","LANE":"３４０巷","ALLEY":" ","HOUSE_NO":"１５０號","E_COORD97":165497.87,"N_COORD97":2537912.73,"ADDRESS":"喜樹路３４０巷１５０號","OBJECTID":370572},"geometry":{"x":165497.87000000011,"y":2537912.7300000004}},{"attributes":{"ID":370583,"DIS_CODE":0,"TOWNNAME":"南區","LI":"喜南里","LIN":"12鄰","STREET":"喜樹路","SECT":" ","MAREA":" ","LANE":"３４０巷","ALLEY":" ","HOUSE_NO":"１５２號","E_COORD97":165488.16,"N_COORD97":2537916.0800000001,"ADDRESS":"喜樹路３４０巷１５２號","OBJECTID":370573},"geometry":{"x":165488.16000000201,"y":2537916.0800000001}},{"attributes":{"ID":370584,"DIS_CODE":0,"TOWNNAME":"南區","LI":"喜南里","LIN":"12鄰","STREET":"喜樹路","SECT":" ","MAREA":" ","LANE":"３４０巷","ALLEY":" ","HOUSE_NO":"１５４號","E_COORD97":165487.67000000001,"N_COORD97":2537920.52,"ADDRESS":"喜樹路３４０巷１５４號","OBJECTID":370574},"geometry":{"x":165487.66999999993,"y":2537920.5199999996}},{"attributes":{"ID":370585,"DIS_CODE":0,"TOWNNAME":"南區","LI":"喜南里","LIN":"12鄰","STREET":"喜樹路","SECT":" ","MAREA":" ","LANE":"３４０巷","ALLEY":" ","HOUSE_NO":"１５６號","E_COORD97":165487.37,"N_COORD97":2537924.4700000002,"ADDRESS":"喜樹路３４０巷１５６號","OBJECTID":370575},"geometry":{"x":165487.37000000104,"y":2537924.4700000007}},{"attributes":{"ID":370586,"DIS_CODE":0,"TOWNNAME":"南區","LI":"喜南里","LIN":"12鄰","STREET":"喜樹路","SECT":" ","MAREA":" ","LANE":"３４０巷","ALLEY":" ","HOUSE_NO":"６３號","E_COORD97":165478.04000000001,"N_COORD97":2537975.5800000001,"ADDRESS":"喜樹路３４０巷６３號","OBJECTID":370576},"geometry":{"x":165478.04000000004,"y":2537975.5800000038}},{"attributes":{"ID":370587,"DIS_CODE":0,"TOWNNAME":"北區","LI":"小康里","LIN":"12鄰","STREET":"公園路","SECT":" ","MAREA":" ","LANE":"９９４巷","ALLEY":" ","HOUSE_NO":"２７號","E_COORD97":169662.82000000001,"N_COORD97":2546308.5899999999,"ADDRESS":"公園路９９４巷２７號","OBJECTID":370577},"geometry":{"x":169662.82000000123,"y":2546308.5900000036}},{"attributes":{"ID":370588,"DIS_CODE":0,"TOWNNAME":"北區","LI":"興北里","LIN":"12鄰","STREET":"公園路","SECT":" ","MAREA":" ","LANE":"６２４巷","ALLEY":" ","HOUSE_NO":"５６號","E_COORD97":169206.85000000001,"N_COORD97":2545299.25,"ADDRESS":"公園路６２４巷５６號","OBJECTID":370578},"geometry":{"x":169206.84999999963,"y":2545299.25}},{"attributes":{"ID":370589,"DIS_CODE":0,"TOWNNAME":"新營區","LI":"南興里","LIN":"12鄰","STREET":"興農街","SECT":" ","MAREA":" ","LANE":"１４９巷","ALLEY":" ","HOUSE_NO":"１之３號","E_COORD97":179278.04000000001,"N_COORD97":2577525.23,"ADDRESS":"興農街１４９巷１之３號","OBJECTID":370579},"geometry":{"x":179278.04000000097,"y":2577525.2300000004}},{"attributes":{"ID":370590,"DIS_CODE":0,"TOWNNAME":"新營區","LI":"南興里","LIN":"12鄰","STREET":"興農街","SECT":" ","MAREA":" ","LANE":"１４９巷","ALLEY":" ","HOUSE_NO":"７之１號","E_COORD97":179302.62,"N_COORD97":2577525.1099999999,"ADDRESS":"興農街１４９巷７之１號","OBJECTID":370580},"geometry":{"x":179302.62000000197,"y":2577525.1099999994}},{"attributes":{"ID":370591,"DIS_CODE":0,"TOWNNAME":"新營區","LI":"南興里","LIN":"12鄰","STREET":"興農街","SECT":" ","MAREA":" ","LANE":"１４９巷","ALLEY":" ","HOUSE_NO":"１號之２","E_COORD97":179277.81,"N_COORD97":2577525.23,"ADDRESS":"興農街１４９巷１號之２","OBJECTID":370581},"geometry":{"x":179277.81000000052,"y":2577525.2300000004}},{"attributes":{"ID":370592,"DIS_CODE":0,"TOWNNAME":"新營區","LI":"民生里","LIN":"12鄰","STREET":"三民路","SECT":" ","MAREA":" ","LANE":"２０８巷","ALLEY":" ","HOUSE_NO":"１６號","E_COORD97":179081.07999999999,"N_COORD97":2578097.5499999998,"ADDRESS":"三民路２０８巷１６號","OBJECTID":370582},"geometry":{"x":179081.08000000101,"y":2578097.5500000007}},{"attributes":{"ID":370593,"DIS_CODE":0,"TOWNNAME":"新營區","LI":"民生里","LIN":"12鄰","STREET":"三民路","SECT":" ","MAREA":" ","LANE":"２０８巷","ALLEY":" ","HOUSE_NO":"１４號","E_COORD97":179095.48000000001,"N_COORD97":2578111.8900000001,"ADDRESS":"三民路２０８巷１４號","OBJECTID":370583},"geometry":{"x":179095.48000000138,"y":2578111.8900000006}},{"attributes":{"ID":370594,"DIS_CODE":0,"TOWNNAME":"新營區","LI":"南興里","LIN":"12鄰","STREET":"興農街","SECT":" ","MAREA":" ","LANE":"１４９巷","ALLEY":" ","HOUSE_NO":"７號","E_COORD97":179305.23999999999,"N_COORD97":2577525.04,"ADDRESS":"興農街１４９巷７號","OBJECTID":370584},"geometry":{"x":179305.24000000209,"y":2577525.040000001}},{"attributes":{"ID":370595,"DIS_CODE":0,"TOWNNAME":"新營區","LI":"南興里","LIN":"12鄰","STREET":"興農街","SECT":" ","MAREA":" ","LANE":"１４９巷","ALLEY":" ","HOUSE_NO":"７號之３","E_COORD97":179302.62,"N_COORD97":2577525.1099999999,"ADDRESS":"興農街１４９巷７之３號","OBJECTID":370585},"geometry":{"x":179302.62000000197,"y":2577525.1099999994}},{"attributes":{"ID":370596,"DIS_CODE":0,"TOWNNAME":"新營區","LI":"南興里","LIN":"12鄰","STREET":"興農街","SECT":" ","MAREA":" ","LANE":"１４９巷","ALLEY":" ","HOUSE_NO":"５號","E_COORD97":179289.89000000001,"N_COORD97":2577525.1099999999,"ADDRESS":"興農街１４９巷５號","OBJECTID":370586},"geometry":{"x":179289.88999999966,"y":2577525.1099999994}},{"attributes":{"ID":370597,"DIS_CODE":0,"TOWNNAME":"新營區","LI":"南興里","LIN":"12鄰","STREET":"興農街","SECT":" ","MAREA":" ","LANE":"１４９巷","ALLEY":" ","HOUSE_NO":"５之２號","E_COORD97":179298.51999999999,"N_COORD97":2577525.1299999999,"ADDRESS":"興農街１４９巷５之２號","OBJECTID":370587},"geometry":{"x":179298.51999999955,"y":2577525.129999999}},{"attributes":{"ID":370598,"DIS_CODE":0,"TOWNNAME":"新營區","LI":"民生里","LIN":"12鄰","STREET":"三民路","SECT":" ","MAREA":" ","LANE":"２０８巷","ALLEY":" ","HOUSE_NO":"１６之１號","E_COORD97":179086.72,"N_COORD97":2578112,"ADDRESS":"三民路２０８巷１６之１號","OBJECTID":370588},"geometry":{"x":179086.72000000067,"y":2578112.0000000019}},{"attributes":{"ID":370599,"DIS_CODE":0,"TOWNNAME":"新營區","LI":"好平里","LIN":"12鄰","STREET":"濟安街","SECT":" ","MAREA":" ","LANE":"１８巷","ALLEY":" ","HOUSE_NO":"１２號","E_COORD97":179461.01999999999,"N_COORD97":2577976.1400000001,"ADDRESS":"濟安街１８巷１２號","OBJECTID":370589},"geometry":{"x":179461.02000000048,"y":2577976.1400000025}},{"attributes":{"ID":370600,"DIS_CODE":0,"TOWNNAME":"新營區","LI":"南興里","LIN":"12鄰","STREET":"和平路","SECT":" ","MAREA":" ","LANE":"１０４巷","ALLEY":" ","HOUSE_NO":"４５號","E_COORD97":179270.85999999999,"N_COORD97":2577551.7799999998,"ADDRESS":"和平路１０４巷４５號","OBJECTID":370590},"geometry":{"x":179270.86000000127,"y":2577551.7799999993}},{"attributes":{"ID":370601,"DIS_CODE":0,"TOWNNAME":"新營區","LI":"民榮里","LIN":"12鄰","STREET":"興農街","SECT":" ","MAREA":" ","LANE":"４７巷","ALLEY":" ","HOUSE_NO":"２號","E_COORD97":179281.89999999999,"N_COORD97":2577772.1099999999,"ADDRESS":"興農街４７巷２號","OBJECTID":370591},"geometry":{"x":179281.90000000037,"y":2577772.1100000013}},{"attributes":{"ID":370602,"DIS_CODE":0,"TOWNNAME":"新營區","LI":"忠政里","LIN":"12鄰","STREET":"府西路","SECT":" ","MAREA":" ","LANE":"２０２巷","ALLEY":" ","HOUSE_NO":"１９號","E_COORD97":179875.56,"N_COORD97":2579543.4300000002,"ADDRESS":"府西路２０２巷１９號","OBJECTID":370592},"geometry":{"x":179875.56000000052,"y":2579543.4300000016}},{"attributes":{"ID":370603,"DIS_CODE":0,"TOWNNAME":"新營區","LI":"南興里","LIN":"12鄰","STREET":"和平路","SECT":" ","MAREA":" ","LANE":"１０４巷","ALLEY":" ","HOUSE_NO":"４５之４號","E_COORD97":179280.51999999999,"N_COORD97":2577551.7999999998,"ADDRESS":"和平路１０４巷４５之４號","OBJECTID":370593},"geometry":{"x":179280.52000000142,"y":2577551.8000000026}},{"attributes":{"ID":370604,"DIS_CODE":0,"TOWNNAME":"新營區","LI":"民權里","LIN":"12鄰","STREET":"信義街","SECT":" ","MAREA":" ","LANE":"５３巷","ALLEY":" ","HOUSE_NO":"２號之４","E_COORD97":179897.22,"N_COORD97":2578295.2799999998,"ADDRESS":"信義街５３巷２號之４","OBJECTID":370594},"geometry":{"x":179897.22000000067,"y":2578295.2800000012}},{"attributes":{"ID":370605,"DIS_CODE":0,"TOWNNAME":"新營區","LI":"民榮里","LIN":"12鄰","STREET":"興農街","SECT":" ","MAREA":" ","LANE":"４７巷","ALLEY":" ","HOUSE_NO":"６號","E_COORD97":179266.45000000001,"N_COORD97":2577762.21,"ADDRESS":"興農街４７巷６號","OBJECTID":370595},"geometry":{"x":179266.45000000205,"y":2577762.2100000028}},{"attributes":{"ID":370606,"DIS_CODE":0,"TOWNNAME":"新營區","LI":"興業里","LIN":"12鄰","STREET":"中興路","SECT":" ","MAREA":" ","LANE":"１３巷","ALLEY":" ","HOUSE_NO":"４號","E_COORD97":180153.32000000001,"N_COORD97":2577963.9900000002,"ADDRESS":"中興路１３巷４號","OBJECTID":370596},"geometry":{"x":180153.3200000003,"y":2577963.9900000002}},{"attributes":{"ID":370607,"DIS_CODE":0,"TOWNNAME":"楠西區","LI":"東勢里","LIN":"12鄰","STREET":"信義路","SECT":" ","MAREA":" ","LANE":"１９１巷","ALLEY":" ","HOUSE_NO":"９號","E_COORD97":197623.17000000001,"N_COORD97":2563884.27,"ADDRESS":"信義路１９１巷９號","OBJECTID":370597},"geometry":{"x":197623.16999999993,"y":2563884.2700000014}},{"attributes":{"ID":370608,"DIS_CODE":0,"TOWNNAME":"楠西區","LI":"楠西里","LIN":"12鄰","STREET":"中華路","SECT":" ","MAREA":" ","LANE":"１０９巷","ALLEY":" ","HOUSE_NO":"１號","E_COORD97":197134.45999999999,"N_COORD97":2564149.25,"ADDRESS":"中華路１０９巷１號","OBJECTID":370598},"geometry":{"x":197134.45999999996,"y":2564149.2500000019}},{"attributes":{"ID":370609,"DIS_CODE":0,"TOWNNAME":"楠西區","LI":"楠西里","LIN":"12鄰","STREET":"中華路","SECT":" ","MAREA":" ","LANE":"１０９巷","ALLEY":" ","HOUSE_NO":"１６號","E_COORD97":197107.41,"N_COORD97":2564152.25,"ADDRESS":"中華路１０９巷１６號","OBJECTID":370599},"geometry":{"x":197107.41000000108,"y":2564152.2500000019}},{"attributes":{"ID":370610,"DIS_CODE":0,"TOWNNAME":"楠西區","LI":"東勢里","LIN":"12鄰","STREET":"信義路","SECT":" ","MAREA":" ","LANE":"１７３巷","ALLEY":" ","HOUSE_NO":"２０號","E_COORD97":197633.12,"N_COORD97":2563854.27,"ADDRESS":"信義路１７３巷２０號","OBJECTID":370600},"geometry":{"x":197633.12000000104,"y":2563854.2699999996}}]}