{"displayFieldName":"TOWNNAME","fieldAliases":{"ID":"ID","DIS_CODE":"DIS_CODE","TOWNNAME":"TOWNNAME","LI":"LI","LIN":"LIN","STREET":"STREET","SECT":"SECT","MAREA":"MAREA","LANE":"LANE","ALLEY":"ALLEY","HOUSE_NO":"HOUSE_NO","E_COORD97":"E_COORD97","N_COORD97":"N_COORD97","ADDRESS":"ADDRESS","OBJECTID":"OBJECTID"},"geometryType":"esriGeometryPoint","spatialReference":{"wkid":102443,"latestWkid":3826},"fields":[{"name":"ID","type":"esriFieldTypeDouble","alias":"ID"},{"name":"DIS_CODE","type":"esriFieldTypeInteger","alias":"DIS_CODE"},{"name":"TOWNNAME","type":"esriFieldTypeString","alias":"TOWNNAME","length":8},{"name":"LI","type":"esriFieldTypeString","alias":"LI","length":8},{"name":"LIN","type":"esriFieldTypeString","alias":"LIN","length":12},{"name":"STREET","type":"esriFieldTypeString","alias":"STREET","length":20},{"name":"SECT","type":"esriFieldTypeString","alias":"SECT","length":8},{"name":"MAREA","type":"esriFieldTypeString","alias":"MAREA","length":12},{"name":"LANE","type":"esriFieldTypeString","alias":"LANE","length":10},{"name":"ALLEY","type":"esriFieldTypeString","alias":"ALLEY","length":10},{"name":"HOUSE_NO","type":"esriFieldTypeString","alias":"HOUSE_NO","length":20},{"name":"E_COORD97","type":"esriFieldTypeDouble","alias":"E_COORD97"},{"name":"N_COORD97","type":"esriFieldTypeDouble","alias":"N_COORD97"},{"name":"ADDRESS","type":"esriFieldTypeString","alias":"ADDRESS","length":50},{"name":"OBJECTID","type":"esriFieldTypeOID","alias":"OBJECTID"}],"features":[{"attributes":{"ID":263805,"DIS_CODE":0,"TOWNNAME":"安南區","LI":"長安里","LIN":"13鄰","STREET":"長溪路","SECT":"三段","MAREA":" ","LANE":"３８０巷","ALLEY":" ","HOUSE_NO":"８３之３號","E_COORD97":167918.95000000001,"N_COORD97":2552156.5099999998,"ADDRESS":"長溪路三段３８０巷８３之３號","OBJECTID":263801},"geometry":{"x":167918.95000000205,"y":2552156.5099999998}},{"attributes":{"ID":263806,"DIS_CODE":0,"TOWNNAME":"安南區","LI":"長安里","LIN":"13鄰","STREET":"長溪路","SECT":"三段","MAREA":" ","LANE":"３８０巷","ALLEY":" ","HOUSE_NO":"８３之５號","E_COORD97":167912.5,"N_COORD97":2552166.0699999998,"ADDRESS":"長溪路三段３８０巷８３之５號","OBJECTID":263802},"geometry":{"x":167912.5,"y":2552166.0700000022}},{"attributes":{"ID":263807,"DIS_CODE":0,"TOWNNAME":"永康區","LI":"中華里","LIN":"13鄰","STREET":"忠義街","SECT":" ","MAREA":" ","LANE":"１０巷","ALLEY":" ","HOUSE_NO":"５號","E_COORD97":171796.28,"N_COORD97":2544387.1200000001,"ADDRESS":"忠義街１０巷５號","OBJECTID":263803},"geometry":{"x":171796.28000000026,"y":2544387.1199999992}},{"attributes":{"ID":263808,"DIS_CODE":0,"TOWNNAME":"永康區","LI":"中華里","LIN":"13鄰","STREET":"忠義街","SECT":" ","MAREA":" ","LANE":"１０巷","ALLEY":" ","HOUSE_NO":"５號之６","E_COORD97":171799.10000000001,"N_COORD97":2544414.9300000002,"ADDRESS":"忠義街１０巷５號之６","OBJECTID":263804},"geometry":{"x":171799.09999999963,"y":2544414.9300000016}},{"attributes":{"ID":263809,"DIS_CODE":0,"TOWNNAME":"永康區","LI":"中華里","LIN":"13鄰","STREET":"忠義街","SECT":" ","MAREA":" ","LANE":"１０巷","ALLEY":" ","HOUSE_NO":"５號之５","E_COORD97":171799.14999999999,"N_COORD97":2544411.0899999999,"ADDRESS":"忠義街１０巷５號之５","OBJECTID":263805},"geometry":{"x":171799.15000000037,"y":2544411.0900000017}},{"attributes":{"ID":263810,"DIS_CODE":0,"TOWNNAME":"安南區","LI":"安順里","LIN":"13鄰","STREET":"育安二街","SECT":" ","MAREA":" ","LANE":"１３５巷","ALLEY":" ","HOUSE_NO":"２號","E_COORD97":169659.67000000001,"N_COORD97":2550037.9199999999,"ADDRESS":"育安二街１３５巷２號","OBJECTID":263806},"geometry":{"x":169659.66999999899,"y":2550037.9199999999}},{"attributes":{"ID":263811,"DIS_CODE":0,"TOWNNAME":"安南區","LI":"安順里","LIN":"13鄰","STREET":"育安二街","SECT":" ","MAREA":" ","LANE":"１３５巷","ALLEY":" ","HOUSE_NO":"６號","E_COORD97":169655.64999999999,"N_COORD97":2550037.73,"ADDRESS":"育安二街１３５巷６號","OBJECTID":263807},"geometry":{"x":169655.6500000013,"y":2550037.7300000042}},{"attributes":{"ID":263812,"DIS_CODE":0,"TOWNNAME":"安南區","LI":"安順里","LIN":"13鄰","STREET":"育安二街","SECT":" ","MAREA":" ","LANE":"１３５巷","ALLEY":" ","HOUSE_NO":"８號","E_COORD97":169651.64000000001,"N_COORD97":2550037.9199999999,"ADDRESS":"育安二街１３５巷８號","OBJECTID":263808},"geometry":{"x":169651.6400000006,"y":2550037.9199999999}},{"attributes":{"ID":263813,"DIS_CODE":0,"TOWNNAME":"安南區","LI":"安西里","LIN":"13鄰","STREET":"安和路","SECT":"一段","MAREA":" ","LANE":"１５９巷","ALLEY":" ","HOUSE_NO":"５２號","E_COORD97":169248.76999999999,"N_COORD97":2547823.6099999999,"ADDRESS":"安和路一段１５９巷５２號","OBJECTID":263809},"geometry":{"x":169248.77000000048,"y":2547823.6100000031}},{"attributes":{"ID":263814,"DIS_CODE":0,"TOWNNAME":"安南區","LI":"安西里","LIN":"13鄰","STREET":"安和路","SECT":"一段","MAREA":" ","LANE":"１５９巷","ALLEY":" ","HOUSE_NO":"６４號","E_COORD97":169232.32999999999,"N_COORD97":2547842.3700000001,"ADDRESS":"安和路一段１５９巷６４號","OBJECTID":263810},"geometry":{"x":169232.33000000101,"y":2547842.370000001}},{"attributes":{"ID":263815,"DIS_CODE":0,"TOWNNAME":"善化區","LI":"南關里","LIN":"13鄰","STREET":"自由路","SECT":" ","MAREA":" ","LANE":"１８９巷","ALLEY":" ","HOUSE_NO":"１號","E_COORD97":176876.97,"N_COORD97":2558901.75,"ADDRESS":"自由路１８９巷１號","OBJECTID":263811},"geometry":{"x":176876.96999999974,"y":2558901.75}},{"attributes":{"ID":263816,"DIS_CODE":0,"TOWNNAME":"善化區","LI":"南關里","LIN":"13鄰","STREET":"復興街","SECT":" ","MAREA":" ","LANE":"１２１巷","ALLEY":" ","HOUSE_NO":"８號","E_COORD97":176814.29000000001,"N_COORD97":2558981.7599999998,"ADDRESS":"復興街１２１巷８號","OBJECTID":263812},"geometry":{"x":176814.29000000004,"y":2558981.7600000016}},{"attributes":{"ID":263817,"DIS_CODE":0,"TOWNNAME":"善化區","LI":"西關里","LIN":"13鄰","STREET":"南科北路","SECT":" ","MAREA":" ","LANE":"１００巷","ALLEY":" ","HOUSE_NO":"３６號","E_COORD97":175738.17000000001,"N_COORD97":2558864.75,"ADDRESS":"南科北路１００巷３６號","OBJECTID":263813},"geometry":{"x":175738.16999999993,"y":2558864.75}},{"attributes":{"ID":263818,"DIS_CODE":0,"TOWNNAME":"善化區","LI":"南關里","LIN":"13鄰","STREET":"復興街","SECT":" ","MAREA":" ","LANE":"１２１巷","ALLEY":" ","HOUSE_NO":"１６號","E_COORD97":176818.20000000001,"N_COORD97":2558965.2599999998,"ADDRESS":"復興街１２１巷１６號","OBJECTID":263814},"geometry":{"x":176818.20000000019,"y":2558965.2600000016}},{"attributes":{"ID":263819,"DIS_CODE":0,"TOWNNAME":"善化區","LI":"南關里","LIN":"13鄰","STREET":"自由路","SECT":" ","MAREA":" ","LANE":"１８９巷","ALLEY":" ","HOUSE_NO":"２２號","E_COORD97":176888,"N_COORD97":2558828,"ADDRESS":"自由路１８９巷２２號","OBJECTID":263815},"geometry":{"x":176888.00000000093,"y":2558828.0000000019}},{"attributes":{"ID":263820,"DIS_CODE":0,"TOWNNAME":"善化區","LI":"南關里","LIN":"13鄰","STREET":"自由路","SECT":" ","MAREA":" ","LANE":"１８９巷","ALLEY":" ","HOUSE_NO":"１３號","E_COORD97":176864.22,"N_COORD97":2558894.25,"ADDRESS":"自由路１８９巷１３號","OBJECTID":263816},"geometry":{"x":176864.22000000067,"y":2558894.2500000019}},{"attributes":{"ID":263821,"DIS_CODE":0,"TOWNNAME":"東區","LI":"富強里","LIN":"13鄰","STREET":"東門路","SECT":"二段","MAREA":" ","LANE":"３０１巷","ALLEY":" ","HOUSE_NO":"１２５號","E_COORD97":171056.82000000001,"N_COORD97":2542744.77,"ADDRESS":"東門路二段３０１巷１２５號","OBJECTID":263817},"geometry":{"x":171056.82000000123,"y":2542744.7700000014}},{"attributes":{"ID":263822,"DIS_CODE":0,"TOWNNAME":"東區","LI":"富強里","LIN":"13鄰","STREET":"東門路","SECT":"二段","MAREA":" ","LANE":"３０１巷","ALLEY":" ","HOUSE_NO":"１２７號","E_COORD97":171062.20999999999,"N_COORD97":2542744.8599999999,"ADDRESS":"東門路二段３０１巷１２７號","OBJECTID":263818},"geometry":{"x":171062.21000000089,"y":2542744.8599999994}},{"attributes":{"ID":263823,"DIS_CODE":0,"TOWNNAME":"東區","LI":"富強里","LIN":"13鄰","STREET":"東門路","SECT":"二段","MAREA":" ","LANE":"３０１巷","ALLEY":" ","HOUSE_NO":"１３１號","E_COORD97":171073.07000000001,"N_COORD97":2542746.8100000001,"ADDRESS":"東門路二段３０１巷１３１號","OBJECTID":263819},"geometry":{"x":171073.07000000123,"y":2542746.8100000005}},{"attributes":{"ID":263824,"DIS_CODE":0,"TOWNNAME":"東區","LI":"富強里","LIN":"13鄰","STREET":"東門路","SECT":"二段","MAREA":" ","LANE":"３０１巷","ALLEY":" ","HOUSE_NO":"１３３號","E_COORD97":171078.09,"N_COORD97":2542747.3700000001,"ADDRESS":"東門路二段３０１巷１３３號","OBJECTID":263820},"geometry":{"x":171078.09000000078,"y":2542747.370000001}},{"attributes":{"ID":263825,"DIS_CODE":0,"TOWNNAME":"東區","LI":"富強里","LIN":"13鄰","STREET":"裕農路","SECT":" ","MAREA":" ","LANE":"２８８巷","ALLEY":" ","HOUSE_NO":"１９８號","E_COORD97":171072.51000000001,"N_COORD97":2542820.4100000001,"ADDRESS":"裕農路２８８巷１９８號","OBJECTID":263821},"geometry":{"x":171072.50999999978,"y":2542820.4100000001}},{"attributes":{"ID":263826,"DIS_CODE":0,"TOWNNAME":"東區","LI":"富強里","LIN":"13鄰","STREET":"裕農路","SECT":" ","MAREA":" ","LANE":"２８８巷","ALLEY":" ","HOUSE_NO":"２００號","E_COORD97":171066.94,"N_COORD97":2542820.23,"ADDRESS":"裕農路２８８巷２００號","OBJECTID":263822},"geometry":{"x":171066.94000000041,"y":2542820.2300000023}},{"attributes":{"ID":263827,"DIS_CODE":0,"TOWNNAME":"東區","LI":"富強里","LIN":"13鄰","STREET":"裕農路","SECT":" ","MAREA":" ","LANE":"２８８巷","ALLEY":" ","HOUSE_NO":"２１２號","E_COORD97":171062.10999999999,"N_COORD97":2542806.1200000001,"ADDRESS":"裕農路２８８巷２１２號","OBJECTID":263823},"geometry":{"x":171062.11000000034,"y":2542806.120000001}},{"attributes":{"ID":263828,"DIS_CODE":0,"TOWNNAME":"東區","LI":"富強里","LIN":"13鄰","STREET":"裕農路","SECT":" ","MAREA":" ","LANE":"２８８巷","ALLEY":" ","HOUSE_NO":"２１４號","E_COORD97":171056.82000000001,"N_COORD97":2542804.9199999999,"ADDRESS":"裕農路２８８巷２１４號","OBJECTID":263824},"geometry":{"x":171056.82000000123,"y":2542804.9200000018}},{"attributes":{"ID":263829,"DIS_CODE":0,"TOWNNAME":"東區","LI":"富強里","LIN":"13鄰","STREET":"裕農路","SECT":" ","MAREA":" ","LANE":"２８８巷","ALLEY":" ","HOUSE_NO":"２１６號","E_COORD97":171051.34,"N_COORD97":2542804.73,"ADDRESS":"裕農路２８８巷２１６號","OBJECTID":263825},"geometry":{"x":171051.33999999985,"y":2542804.7300000004}},{"attributes":{"ID":263830,"DIS_CODE":0,"TOWNNAME":"東區","LI":"富強里","LIN":"13鄰","STREET":"裕農路","SECT":" ","MAREA":" ","LANE":"２８８巷","ALLEY":" ","HOUSE_NO":"２１８號","E_COORD97":171074.37,"N_COORD97":2542795.9199999999,"ADDRESS":"裕農路２８８巷２１８號","OBJECTID":263826},"geometry":{"x":171074.37000000104,"y":2542795.9199999999}},{"attributes":{"ID":263831,"DIS_CODE":0,"TOWNNAME":"東區","LI":"富強里","LIN":"13鄰","STREET":"裕農路","SECT":" ","MAREA":" ","LANE":"２８８巷","ALLEY":" ","HOUSE_NO":"２２０號","E_COORD97":171068.60999999999,"N_COORD97":2542796.1000000001,"ADDRESS":"裕農路２８８巷２２０號","OBJECTID":263827},"geometry":{"x":171068.61000000034,"y":2542796.1000000034}},{"attributes":{"ID":263832,"DIS_CODE":0,"TOWNNAME":"安南區","LI":"長安里","LIN":"22鄰","STREET":"公學路","SECT":"二段","MAREA":" ","LANE":" ","ALLEY":" ","HOUSE_NO":"４７號","E_COORD97":167790.51999999999,"N_COORD97":2552490.5800000001,"ADDRESS":"公學路二段４７號","OBJECTID":263828},"geometry":{"x":167790.51999999862,"y":2552490.5800000019}},{"attributes":{"ID":263833,"DIS_CODE":0,"TOWNNAME":"永康區","LI":"埔園里","LIN":"25鄰","STREET":"埔東街","SECT":" ","MAREA":" ","LANE":" ","ALLEY":" ","HOUSE_NO":"３７號","E_COORD97":173769.51999999999,"N_COORD97":2548122.2400000002,"ADDRESS":"埔東街３７號","OBJECTID":263829},"geometry":{"x":173769.52000000142,"y":2548122.2400000021}},{"attributes":{"ID":263834,"DIS_CODE":0,"TOWNNAME":"白河區","LI":"白河里","LIN":" ","STREET":"中興街","SECT":" ","MAREA":" ","LANE":" ","ALLEY":" ","HOUSE_NO":"３之１號","E_COORD97":190320.41,"N_COORD97":2583135.25,"ADDRESS":"中興街３之１號","OBJECTID":263830},"geometry":{"x":190320.41000000015,"y":2583135.2500000019}},{"attributes":{"ID":263835,"DIS_CODE":0,"TOWNNAME":"白河區","LI":"白河里","LIN":" ","STREET":"中興街","SECT":" ","MAREA":" ","LANE":" ","ALLEY":" ","HOUSE_NO":"３之５號","E_COORD97":190304.75,"N_COORD97":2583144.8599999999,"ADDRESS":"中興街３之５號","OBJECTID":263831},"geometry":{"x":190304.75,"y":2583144.8599999994}},{"attributes":{"ID":263836,"DIS_CODE":0,"TOWNNAME":"白河區","LI":"白河里","LIN":" ","STREET":"中興街","SECT":" ","MAREA":" ","LANE":" ","ALLEY":" ","HOUSE_NO":"８之２號","E_COORD97":190327.26999999999,"N_COORD97":2583151.23,"ADDRESS":"中興街８之２號","OBJECTID":263832},"geometry":{"x":190327.27000000048,"y":2583151.2300000004}},{"attributes":{"ID":263837,"DIS_CODE":0,"TOWNNAME":"東區","LI":"富強里","LIN":"13鄰","STREET":"裕農路","SECT":" ","MAREA":" ","LANE":"２８８巷","ALLEY":" ","HOUSE_NO":"２２２號","E_COORD97":171062.85999999999,"N_COORD97":2542795.73,"ADDRESS":"裕農路２８８巷２２２號","OBJECTID":263833},"geometry":{"x":171062.86000000127,"y":2542795.7300000042}},{"attributes":{"ID":263838,"DIS_CODE":0,"TOWNNAME":"東區","LI":"富強里","LIN":"13鄰","STREET":"裕農路","SECT":" ","MAREA":" ","LANE":"２８８巷","ALLEY":" ","HOUSE_NO":"２２４號","E_COORD97":171057.75,"N_COORD97":2542795.0800000001,"ADDRESS":"裕農路２８８巷２２４號","OBJECTID":263834},"geometry":{"x":171057.74999999907,"y":2542795.0800000001}},{"attributes":{"ID":263839,"DIS_CODE":0,"TOWNNAME":"東區","LI":"富強里","LIN":"13鄰","STREET":"裕農路","SECT":" ","MAREA":" ","LANE":"２８８巷","ALLEY":" ","HOUSE_NO":"２２６號","E_COORD97":171052.26999999999,"N_COORD97":2542794.8999999999,"ADDRESS":"裕農路２８８巷２２６號","OBJECTID":263835},"geometry":{"x":171052.27000000142,"y":2542794.9000000022}},{"attributes":{"ID":263840,"DIS_CODE":0,"TOWNNAME":"東區","LI":"富強里","LIN":"13鄰","STREET":"裕農路","SECT":" ","MAREA":" ","LANE":"２８８巷","ALLEY":" ","HOUSE_NO":"２２８號","E_COORD97":171075.20999999999,"N_COORD97":2542781.5499999998,"ADDRESS":"裕農路２８８巷２２８號","OBJECTID":263836},"geometry":{"x":171075.21000000089,"y":2542781.5500000026}},{"attributes":{"ID":263841,"DIS_CODE":0,"TOWNNAME":"東區","LI":"富強里","LIN":"13鄰","STREET":"裕農路","SECT":" ","MAREA":" ","LANE":"２８８巷","ALLEY":" ","HOUSE_NO":"２３６號","E_COORD97":171053.48000000001,"N_COORD97":2542779.23,"ADDRESS":"裕農路２８８巷２３６號","OBJECTID":263837},"geometry":{"x":171053.48000000231,"y":2542779.2300000023}},{"attributes":{"ID":263842,"DIS_CODE":0,"TOWNNAME":"永康區","LI":"復華里","LIN":"13鄰","STREET":"復國二路","SECT":" ","MAREA":" ","LANE":"２０５巷","ALLEY":" ","HOUSE_NO":"２１號","E_COORD97":172927.01999999999,"N_COORD97":2545993.0299999998,"ADDRESS":"復國二路２０５巷２１號","OBJECTID":263838},"geometry":{"x":172927.02000000142,"y":2545993.0300000031}},{"attributes":{"ID":263843,"DIS_CODE":0,"TOWNNAME":"東區","LI":"崇信里","LIN":"13鄰","STREET":"崇信街","SECT":" ","MAREA":" ","LANE":"５０巷","ALLEY":" ","HOUSE_NO":"１號","E_COORD97":170702.12,"N_COORD97":2542464.6800000002,"ADDRESS":"崇信街５０巷１號","OBJECTID":263839},"geometry":{"x":170702.12000000011,"y":2542464.6800000016}},{"attributes":{"ID":263844,"DIS_CODE":0,"TOWNNAME":"佳里區","LI":"安西里","LIN":"13鄰","STREET":"長安街","SECT":" ","MAREA":" ","LANE":"７３巷","ALLEY":" ","HOUSE_NO":"１０號","E_COORD97":165373.12,"N_COORD97":2562439.2799999998,"ADDRESS":"長安街７３巷１０號","OBJECTID":263840},"geometry":{"x":165373.12000000197,"y":2562439.2800000012}},{"attributes":{"ID":263845,"DIS_CODE":0,"TOWNNAME":"佳里區","LI":"安西里","LIN":"13鄰","STREET":"長安街","SECT":" ","MAREA":" ","LANE":"７３巷","ALLEY":" ","HOUSE_NO":"１１號","E_COORD97":165371.67999999999,"N_COORD97":2562420.8900000001,"ADDRESS":"長安街７３巷１１號","OBJECTID":263841},"geometry":{"x":165371.6799999997,"y":2562420.8900000006}},{"attributes":{"ID":263846,"DIS_CODE":0,"TOWNNAME":"白河區","LI":"永安里","LIN":" ","STREET":"中興街","SECT":" ","MAREA":" ","LANE":" ","ALLEY":" ","HOUSE_NO":"９號","E_COORD97":190197.85999999999,"N_COORD97":2583201.7599999998,"ADDRESS":"中興街９號","OBJECTID":263842},"geometry":{"x":190197.8600000022,"y":2583201.7600000016}},{"attributes":{"ID":263847,"DIS_CODE":0,"TOWNNAME":"新化區","LI":"協興里","LIN":"13鄰","STREET":"太平街","SECT":" ","MAREA":" ","LANE":"１５０巷","ALLEY":" ","HOUSE_NO":"１１５號","E_COORD97":178285.12,"N_COORD97":2548824.25,"ADDRESS":"太平街１５０巷１１５號","OBJECTID":263843},"geometry":{"x":178285.12000000011,"y":2548824.2500000019}},{"attributes":{"ID":263848,"DIS_CODE":0,"TOWNNAME":"白河區","LI":"永安里","LIN":" ","STREET":"五福街","SECT":" ","MAREA":" ","LANE":" ","ALLEY":" ","HOUSE_NO":"５６號","E_COORD97":189881.13,"N_COORD97":2583059.98,"ADDRESS":"五福街５６號","OBJECTID":263844},"geometry":{"x":189881.12999999989,"y":2583059.9800000023}},{"attributes":{"ID":263849,"DIS_CODE":0,"TOWNNAME":"白河區","LI":"永安里","LIN":" ","STREET":"五福街","SECT":" ","MAREA":" ","LANE":" ","ALLEY":" ","HOUSE_NO":"５８號","E_COORD97":189885.5,"N_COORD97":2583060.3999999999,"ADDRESS":"五福街５８號","OBJECTID":263845},"geometry":{"x":189885.5,"y":2583060.4000000022}},{"attributes":{"ID":263850,"DIS_CODE":0,"TOWNNAME":"北區","LI":"文元里","LIN":"13鄰","STREET":"文賢路","SECT":" ","MAREA":" ","LANE":"１１８０巷","ALLEY":" ","HOUSE_NO":"５５號","E_COORD97":167443.09,"N_COORD97":2546505.0099999998,"ADDRESS":"文賢路１１８０巷５５號","OBJECTID":263846},"geometry":{"x":167443.09000000078,"y":2546505.0099999998}},{"attributes":{"ID":263851,"DIS_CODE":0,"TOWNNAME":"北區","LI":"文元里","LIN":"13鄰","STREET":"文賢路","SECT":" ","MAREA":" ","LANE":"１１８０巷","ALLEY":" ","HOUSE_NO":"３３號","E_COORD97":167401.04000000001,"N_COORD97":2546486.2799999998,"ADDRESS":"文賢路１１８０巷３３號","OBJECTID":263847},"geometry":{"x":167401.0400000019,"y":2546486.2799999975}},{"attributes":{"ID":263852,"DIS_CODE":0,"TOWNNAME":"北區","LI":"文元里","LIN":"13鄰","STREET":"文賢路","SECT":" ","MAREA":" ","LANE":"１１８０巷","ALLEY":" ","HOUSE_NO":"３５號","E_COORD97":167405.20999999999,"N_COORD97":2546487.6600000001,"ADDRESS":"文賢路１１８０巷３５號","OBJECTID":263848},"geometry":{"x":167405.21000000089,"y":2546487.6600000001}},{"attributes":{"ID":263853,"DIS_CODE":0,"TOWNNAME":"南區","LI":"南都里","LIN":"13鄰","STREET":"中華南路","SECT":"二段","MAREA":" ","LANE":"２４９巷","ALLEY":" ","HOUSE_NO":"３０號","E_COORD97":166623.53,"N_COORD97":2540145.7799999998,"ADDRESS":"中華南路二段２４９巷３０號","OBJECTID":263849},"geometry":{"x":166623.53000000119,"y":2540145.7799999993}},{"attributes":{"ID":263854,"DIS_CODE":0,"TOWNNAME":"南區","LI":"南都里","LIN":"13鄰","STREET":"中華南路","SECT":"二段","MAREA":" ","LANE":"２４９巷","ALLEY":" ","HOUSE_NO":"６號之１","E_COORD97":166627.72,"N_COORD97":2540125.9399999999,"ADDRESS":"中華南路二段２４９巷６號之１","OBJECTID":263850},"geometry":{"x":166627.71999999974,"y":2540125.9400000013}},{"attributes":{"ID":263855,"DIS_CODE":0,"TOWNNAME":"北區","LI":"仁愛里","LIN":"13鄰","STREET":"長榮路","SECT":"四段","MAREA":" ","LANE":"３１巷","ALLEY":" ","HOUSE_NO":"２４號","E_COORD97":170191.67999999999,"N_COORD97":2544923.1000000001,"ADDRESS":"長榮路四段３１巷２４號","OBJECTID":263851},"geometry":{"x":170191.67999999877,"y":2544923.1000000015}},{"attributes":{"ID":263856,"DIS_CODE":0,"TOWNNAME":"北區","LI":"中樓里","LIN":"13鄰","STREET":"開元路","SECT":" ","MAREA":" ","LANE":"９０巷","ALLEY":" ","HOUSE_NO":"３０號","E_COORD97":169803.34,"N_COORD97":2545106.98,"ADDRESS":"開元路９０巷３０號","OBJECTID":263852},"geometry":{"x":169803.34000000078,"y":2545106.9800000023}},{"attributes":{"ID":263857,"DIS_CODE":0,"TOWNNAME":"永康區","LI":"崑山里","LIN":"40鄰","STREET":"崑山街","SECT":" ","MAREA":" ","LANE":"２００巷","ALLEY":" ","HOUSE_NO":"５號","E_COORD97":174099.28,"N_COORD97":2544994.9500000002,"ADDRESS":"崑山街２００巷５號","OBJECTID":263853},"geometry":{"x":174099.28000000119,"y":2544994.9500000011}},{"attributes":{"ID":263858,"DIS_CODE":0,"TOWNNAME":"永康區","LI":"崑山里","LIN":"40鄰","STREET":"永大路","SECT":"二段","MAREA":" ","LANE":"１１５巷","ALLEY":" ","HOUSE_NO":"１６號","E_COORD97":174173.95999999999,"N_COORD97":2544989.0099999998,"ADDRESS":"永大路二段１１５巷１６號","OBJECTID":263854},"geometry":{"x":174173.96000000089,"y":2544989.0099999998}},{"attributes":{"ID":263859,"DIS_CODE":0,"TOWNNAME":"永康區","LI":"崑山里","LIN":"40鄰","STREET":"永大路","SECT":"二段","MAREA":" ","LANE":"１１５巷","ALLEY":" ","HOUSE_NO":"６號","E_COORD97":174204.39999999999,"N_COORD97":2544987.1499999999,"ADDRESS":"永大路二段１１５巷６號","OBJECTID":263855},"geometry":{"x":174204.40000000037,"y":2544987.1500000022}},{"attributes":{"ID":263860,"DIS_CODE":0,"TOWNNAME":"永康區","LI":"西灣里","LIN":"40鄰","STREET":"大勇路","SECT":" ","MAREA":" ","LANE":"５巷","ALLEY":" ","HOUSE_NO":"１７號","E_COORD97":174138.63,"N_COORD97":2545352.77,"ADDRESS":"大勇路５巷１７號","OBJECTID":263856},"geometry":{"x":174138.63000000175,"y":2545352.7699999996}},{"attributes":{"ID":263861,"DIS_CODE":0,"TOWNNAME":"白河區","LI":"永安里","LIN":" ","STREET":"六合街","SECT":" ","MAREA":" ","LANE":" ","ALLEY":" ","HOUSE_NO":"２６號","E_COORD97":190078.42999999999,"N_COORD97":2583049.3300000001,"ADDRESS":"六合街２６號","OBJECTID":263857},"geometry":{"x":190078.43000000063,"y":2583049.3300000019}},{"attributes":{"ID":263862,"DIS_CODE":0,"TOWNNAME":"永康區","LI":"西灣里","LIN":"40鄰","STREET":"大勇路","SECT":" ","MAREA":" ","LANE":"５巷","ALLEY":" ","HOUSE_NO":"１９號","E_COORD97":174135.04999999999,"N_COORD97":2545353.9399999999,"ADDRESS":"大勇路５巷１９號","OBJECTID":263858},"geometry":{"x":174135.04999999981,"y":2545353.9400000013}},{"attributes":{"ID":263863,"DIS_CODE":0,"TOWNNAME":"永康區","LI":"崑山里","LIN":"40鄰","STREET":"國光五街","SECT":" ","MAREA":" ","LANE":"９巷","ALLEY":" ","HOUSE_NO":"１６號","E_COORD97":174153.56,"N_COORD97":2545011.3799999999,"ADDRESS":"國光五街９巷１６號","OBJECTID":263859},"geometry":{"x":174153.55999999959,"y":2545011.3800000008}},{"attributes":{"ID":263864,"DIS_CODE":0,"TOWNNAME":"左鎮區","LI":"光和里","LIN":"3鄰","STREET":" ","SECT":" ","MAREA":"光和","LANE":" ","ALLEY":" ","HOUSE_NO":"３２號","E_COORD97":186388.14000000001,"N_COORD97":2551934.25,"ADDRESS":"光和３２號","OBJECTID":263860},"geometry":{"x":186388.1400000006,"y":2551934.25}},{"attributes":{"ID":263865,"DIS_CODE":0,"TOWNNAME":"永康區","LI":"\u25A0洲里","LIN":"40鄰","STREET":"正南六街","SECT":" ","MAREA":" ","LANE":"１０５巷","ALLEY":" ","HOUSE_NO":"１號","E_COORD97":170820.01000000001,"N_COORD97":2548638.8199999998,"ADDRESS":"正南六街１０５巷１號","OBJECTID":263861},"geometry":{"x":170820.00999999978,"y":2548638.8200000003}},{"attributes":{"ID":263866,"DIS_CODE":0,"TOWNNAME":"永康區","LI":"龍潭里","LIN":"40鄰","STREET":"永明街","SECT":" ","MAREA":" ","LANE":"３０２巷","ALLEY":" ","HOUSE_NO":"１０號","E_COORD97":174523.44,"N_COORD97":2547128.2400000002,"ADDRESS":"永明街３０２巷１０號","OBJECTID":263862},"geometry":{"x":174523.44000000041,"y":2547128.2399999984}},{"attributes":{"ID":263867,"DIS_CODE":0,"TOWNNAME":"永康區","LI":"崑山里","LIN":"40鄰","STREET":"崑山街","SECT":" ","MAREA":" ","LANE":"２２２巷","ALLEY":" ","HOUSE_NO":"２７號","E_COORD97":174217.85999999999,"N_COORD97":2545010.02,"ADDRESS":"崑山街２２２巷２７號","OBJECTID":263863},"geometry":{"x":174217.86000000127,"y":2545010.0199999977}},{"attributes":{"ID":263868,"DIS_CODE":0,"TOWNNAME":"永康區","LI":"崑山里","LIN":"40鄰","STREET":"永大路","SECT":"二段","MAREA":" ","LANE":"１０３巷","ALLEY":" ","HOUSE_NO":"８號","E_COORD97":174181.06,"N_COORD97":2544964.96,"ADDRESS":"永大路二段１０３巷８號","OBJECTID":263864},"geometry":{"x":174181.05999999959,"y":2544964.9600000028}},{"attributes":{"ID":263869,"DIS_CODE":0,"TOWNNAME":"永康區","LI":"崑山里","LIN":"40鄰","STREET":"國光五街","SECT":" ","MAREA":" ","LANE":"９巷","ALLEY":" ","HOUSE_NO":"２號","E_COORD97":174172.64000000001,"N_COORD97":2545060.7200000002,"ADDRESS":"國光五街９巷２號","OBJECTID":263865},"geometry":{"x":174172.6400000006,"y":2545060.7199999988}},{"attributes":{"ID":263870,"DIS_CODE":0,"TOWNNAME":"歸仁區","LI":"辜厝里","LIN":"40鄰","STREET":"中正南路","SECT":"一段","MAREA":" ","LANE":"２１８巷","ALLEY":" ","HOUSE_NO":"３號","E_COORD97":177280.26000000001,"N_COORD97":2540345.25,"ADDRESS":"中正南路一段２１８巷３號","OBJECTID":263866},"geometry":{"x":177280.25999999978,"y":2540345.2500000019}},{"attributes":{"ID":263871,"DIS_CODE":0,"TOWNNAME":"玉井區","LI":"玉田里","LIN":"40鄰","STREET":"和平街","SECT":" ","MAREA":" ","LANE":"１６０巷","ALLEY":" ","HOUSE_NO":"４１號","E_COORD97":195254.17999999999,"N_COORD97":2557385.25,"ADDRESS":"和平街１６０巷４１號","OBJECTID":263867},"geometry":{"x":195254.18000000063,"y":2557385.2500000019}},{"attributes":{"ID":263872,"DIS_CODE":0,"TOWNNAME":"東區","LI":"忠孝里","LIN":"40鄰","STREET":"崇明路","SECT":" ","MAREA":" ","LANE":"２６６巷","ALLEY":" ","HOUSE_NO":"４號五樓","E_COORD97":169892.48000000001,"N_COORD97":2542059.71,"ADDRESS":"崇明路２６６巷４號五樓","OBJECTID":263868},"geometry":{"x":169892.48000000138,"y":2542059.7100000009}},{"attributes":{"ID":263873,"DIS_CODE":0,"TOWNNAME":"東區","LI":"忠孝里","LIN":"40鄰","STREET":"崇明路","SECT":" ","MAREA":" ","LANE":"２６６巷","ALLEY":" ","HOUSE_NO":"４號六樓","E_COORD97":169892.48000000001,"N_COORD97":2542059.71,"ADDRESS":"崇明路２６６巷４號六樓","OBJECTID":263869},"geometry":{"x":169892.48000000138,"y":2542059.7100000009}},{"attributes":{"ID":263874,"DIS_CODE":0,"TOWNNAME":"永康區","LI":"崑山里","LIN":"44鄰","STREET":"國光六街","SECT":" ","MAREA":" ","LANE":" ","ALLEY":" ","HOUSE_NO":"８９號","E_COORD97":174033.79000000001,"N_COORD97":2545336.3100000001,"ADDRESS":"國光六街８９號","OBJECTID":263870},"geometry":{"x":174033.79000000004,"y":2545336.3100000024}},{"attributes":{"ID":263875,"DIS_CODE":0,"TOWNNAME":"安南區","LI":"長安里","LIN":"22鄰","STREET":"公學路","SECT":"二段","MAREA":" ","LANE":" ","ALLEY":" ","HOUSE_NO":"５１號","E_COORD97":167788.13,"N_COORD97":2552481.0800000001,"ADDRESS":"公學路二段５１號","OBJECTID":263871},"geometry":{"x":167788.12999999989,"y":2552481.0800000019}},{"attributes":{"ID":263876,"DIS_CODE":0,"TOWNNAME":"安南區","LI":"長安里","LIN":"22鄰","STREET":"公學路","SECT":"二段","MAREA":" ","LANE":" ","ALLEY":" ","HOUSE_NO":"４５號","E_COORD97":167792.17000000001,"N_COORD97":2552495.3700000001,"ADDRESS":"公學路二段４５號","OBJECTID":263872},"geometry":{"x":167792.17000000086,"y":2552495.3700000048}},{"attributes":{"ID":263877,"DIS_CODE":0,"TOWNNAME":"東區","LI":"忠孝里","LIN":"40鄰","STREET":"崇明路","SECT":" ","MAREA":" ","LANE":"２６６巷","ALLEY":" ","HOUSE_NO":"４號四樓","E_COORD97":169892.48000000001,"N_COORD97":2542059.71,"ADDRESS":"崇明路２６６巷４號四樓","OBJECTID":263873},"geometry":{"x":169892.48000000138,"y":2542059.7100000009}},{"attributes":{"ID":263878,"DIS_CODE":0,"TOWNNAME":"安南區","LI":"長安里","LIN":"22鄰","STREET":"公學路","SECT":"二段","MAREA":" ","LANE":" ","ALLEY":" ","HOUSE_NO":"１１５號","E_COORD97":167714.07999999999,"N_COORD97":2552309.46,"ADDRESS":"公學路二段１１５號","OBJECTID":263874},"geometry":{"x":167714.08000000007,"y":2552309.4600000028}},{"attributes":{"ID":263879,"DIS_CODE":0,"TOWNNAME":"安南區","LI":"長安里","LIN":"22鄰","STREET":"公學路","SECT":"二段","MAREA":" ","LANE":" ","ALLEY":" ","HOUSE_NO":"１１７號","E_COORD97":167712.48000000001,"N_COORD97":2552305,"ADDRESS":"公學路二段１１７號","OBJECTID":263875},"geometry":{"x":167712.48000000138,"y":2552305.0000000019}},{"attributes":{"ID":263880,"DIS_CODE":0,"TOWNNAME":"東區","LI":"忠孝里","LIN":"40鄰","STREET":"崇明路","SECT":" ","MAREA":" ","LANE":"２６６巷","ALLEY":" ","HOUSE_NO":"６號七樓","E_COORD97":169895.57000000001,"N_COORD97":2542053.5299999998,"ADDRESS":"崇明路２６６巷６號七樓","OBJECTID":263876},"geometry":{"x":169895.57000000123,"y":2542053.5300000031}},{"attributes":{"ID":263881,"DIS_CODE":0,"TOWNNAME":"東區","LI":"忠孝里","LIN":"40鄰","STREET":"崇明路","SECT":" ","MAREA":" ","LANE":"２６６巷","ALLEY":" ","HOUSE_NO":"６號三樓","E_COORD97":169895.57000000001,"N_COORD97":2542053.5299999998,"ADDRESS":"崇明路２６６巷６號三樓","OBJECTID":263877},"geometry":{"x":169895.57000000123,"y":2542053.5300000031}},{"attributes":{"ID":263882,"DIS_CODE":0,"TOWNNAME":"東區","LI":"忠孝里","LIN":"40鄰","STREET":"崇明路","SECT":" ","MAREA":" ","LANE":"２６６巷","ALLEY":" ","HOUSE_NO":"６號五樓","E_COORD97":169895.57000000001,"N_COORD97":2542053.5299999998,"ADDRESS":"崇明路２６６巷６號五樓","OBJECTID":263878},"geometry":{"x":169895.57000000123,"y":2542053.5300000031}},{"attributes":{"ID":263883,"DIS_CODE":0,"TOWNNAME":"永康區","LI":"崑山里","LIN":"40鄰","STREET":"國光五街","SECT":" ","MAREA":" ","LANE":"９巷","ALLEY":" ","HOUSE_NO":"６號","E_COORD97":174170.85000000001,"N_COORD97":2545050.6499999999,"ADDRESS":"國光五街９巷６號","OBJECTID":263879},"geometry":{"x":174170.85000000149,"y":2545050.6499999985}},{"attributes":{"ID":263884,"DIS_CODE":0,"TOWNNAME":"永康區","LI":"勝利里","LIN":"40鄰","STREET":"中華一路","SECT":" ","MAREA":" ","LANE":"１８２巷","ALLEY":" ","HOUSE_NO":"４號六樓之３","E_COORD97":171533.57000000001,"N_COORD97":2545051.54,"ADDRESS":"中華一路１８２巷４號六樓之３","OBJECTID":263880},"geometry":{"x":171533.5700000003,"y":2545051.540000001}},{"attributes":{"ID":263885,"DIS_CODE":0,"TOWNNAME":"永康區","LI":"勝利里","LIN":"40鄰","STREET":"中華一路","SECT":" ","MAREA":" ","LANE":"１８２巷","ALLEY":" ","HOUSE_NO":"４號四樓之４","E_COORD97":171533.48999999999,"N_COORD97":2545051.54,"ADDRESS":"中華一路１８２巷４號四樓之４","OBJECTID":263881},"geometry":{"x":171533.49000000115,"y":2545051.540000001}},{"attributes":{"ID":263886,"DIS_CODE":0,"TOWNNAME":"永康區","LI":"勝利里","LIN":"40鄰","STREET":"中華一路","SECT":" ","MAREA":" ","LANE":"１８２巷","ALLEY":" ","HOUSE_NO":"４號四樓之３","E_COORD97":171533.57000000001,"N_COORD97":2545051.54,"ADDRESS":"中華一路１８２巷４號四樓之３","OBJECTID":263882},"geometry":{"x":171533.5700000003,"y":2545051.540000001}},{"attributes":{"ID":263887,"DIS_CODE":0,"TOWNNAME":"永康區","LI":"西灣里","LIN":"40鄰","STREET":"大勇路","SECT":" ","MAREA":" ","LANE":"２３巷","ALLEY":" ","HOUSE_NO":"１９號三樓之１","E_COORD97":174164.12,"N_COORD97":2545406.0499999998,"ADDRESS":"大勇路２３巷１９號三樓之１","OBJECTID":263883},"geometry":{"x":174164.12000000011,"y":2545406.0500000026}},{"attributes":{"ID":263888,"DIS_CODE":0,"TOWNNAME":"永康區","LI":"北灣里","LIN":"40鄰","STREET":"大同街","SECT":" ","MAREA":" ","LANE":"４１３巷","ALLEY":" ","HOUSE_NO":"２８號","E_COORD97":174606.95000000001,"N_COORD97":2546186.8900000001,"ADDRESS":"大同街４１３巷２８號","OBJECTID":263884},"geometry":{"x":174606.95000000112,"y":2546186.8900000025}},{"attributes":{"ID":263889,"DIS_CODE":0,"TOWNNAME":"永康區","LI":"正強里","LIN":"40鄰","STREET":"四維街","SECT":" ","MAREA":" ","LANE":"２０７巷","ALLEY":" ","HOUSE_NO":"１８號","E_COORD97":173198.98999999999,"N_COORD97":2548469.7400000002,"ADDRESS":"四維街２０７巷１８號","OBJECTID":263885},"geometry":{"x":173198.99000000022,"y":2548469.7400000002}},{"attributes":{"ID":263890,"DIS_CODE":0,"TOWNNAME":"永康區","LI":"正強里","LIN":"40鄰","STREET":"四維街","SECT":" ","MAREA":" ","LANE":"２０７巷","ALLEY":" ","HOUSE_NO":"５號","E_COORD97":173229.82000000001,"N_COORD97":2548476.5,"ADDRESS":"四維街２０７巷５號","OBJECTID":263886},"geometry":{"x":173229.82000000123,"y":2548476.5000000019}},{"attributes":{"ID":263891,"DIS_CODE":0,"TOWNNAME":"永康區","LI":"正強里","LIN":"40鄰","STREET":"四維街","SECT":" ","MAREA":" ","LANE":"１８１巷","ALLEY":" ","HOUSE_NO":"７號","E_COORD97":173251,"N_COORD97":2548419.5699999998,"ADDRESS":"四維街１８１巷７號","OBJECTID":263887},"geometry":{"x":173251,"y":2548419.5700000022}},{"attributes":{"ID":263892,"DIS_CODE":0,"TOWNNAME":"永康區","LI":"正強里","LIN":"40鄰","STREET":"四維街","SECT":" ","MAREA":" ","LANE":"２０７巷","ALLEY":" ","HOUSE_NO":"６號","E_COORD97":173221.5,"N_COORD97":2548493.48,"ADDRESS":"四維街２０７巷６號","OBJECTID":263888},"geometry":{"x":173221.50000000093,"y":2548493.4800000042}},{"attributes":{"ID":263893,"DIS_CODE":0,"TOWNNAME":"永康區","LI":"正強里","LIN":"40鄰","STREET":"四維街","SECT":" ","MAREA":" ","LANE":"１８１巷","ALLEY":" ","HOUSE_NO":"３號","E_COORD97":173254.06,"N_COORD97":2548410.5899999999,"ADDRESS":"四維街１８１巷３號","OBJECTID":263889},"geometry":{"x":173254.06000000145,"y":2548410.5900000036}},{"attributes":{"ID":263894,"DIS_CODE":0,"TOWNNAME":"永康區","LI":"復華里","LIN":"40鄰","STREET":"復華七街","SECT":" ","MAREA":" ","LANE":"３２巷","ALLEY":" ","HOUSE_NO":"８號","E_COORD97":172662.10000000001,"N_COORD97":2545960.3199999998,"ADDRESS":"復華七街３２巷８號","OBJECTID":263890},"geometry":{"x":172662.10000000149,"y":2545960.3200000003}},{"attributes":{"ID":263895,"DIS_CODE":0,"TOWNNAME":"東區","LI":"崇誨里","LIN":"34鄰","STREET":"東寧路","SECT":" ","MAREA":" ","LANE":" ","ALLEY":" ","HOUSE_NO":"２６８號","E_COORD97":170633.54999999999,"N_COORD97":2543445.1499999999,"ADDRESS":"東寧路２６８號","OBJECTID":263891},"geometry":{"x":170633.55000000168,"y":2543445.1500000022}},{"attributes":{"ID":263896,"DIS_CODE":0,"TOWNNAME":"永康區","LI":"勝利里","LIN":"40鄰","STREET":"中華一路","SECT":" ","MAREA":" ","LANE":" ","ALLEY":" ","HOUSE_NO":"１８８號","E_COORD97":171490.82000000001,"N_COORD97":2544979.75,"ADDRESS":"中華一路１８８號","OBJECTID":263892},"geometry":{"x":171490.8200000003,"y":2544979.7500000019}},{"attributes":{"ID":263897,"DIS_CODE":0,"TOWNNAME":"永康區","LI":"勝利里","LIN":"8鄰","STREET":"勝利街","SECT":" ","MAREA":" ","LANE":" ","ALLEY":" ","HOUSE_NO":"２４號","E_COORD97":171269.22,"N_COORD97":2544588.8700000001,"ADDRESS":"勝利街２４號","OBJECTID":263893},"geometry":{"x":171269.21999999974,"y":2544588.8699999992}},{"attributes":{"ID":263898,"DIS_CODE":0,"TOWNNAME":"歸仁區","LI":"六甲里","LIN":"40鄰","STREET":"民生南街","SECT":"二段","MAREA":" ","LANE":"８３８巷","ALLEY":" ","HOUSE_NO":"２４號","E_COORD97":176013.20000000001,"N_COORD97":2539328.29,"ADDRESS":"民生南街二段８３８巷２４號","OBJECTID":263894},"geometry":{"x":176013.20000000019,"y":2539328.2899999991}},{"attributes":{"ID":263899,"DIS_CODE":0,"TOWNNAME":"歸仁區","LI":"六甲里","LIN":"40鄰","STREET":"民生南街","SECT":"二段","MAREA":" ","LANE":"８３８巷","ALLEY":" ","HOUSE_NO":"２０號","E_COORD97":176028.12800699999,"N_COORD97":2539316.3391100001,"ADDRESS":"民生南街二段８３８巷２０號","OBJECTID":263895},"geometry":{"x":176028.12800700124,"y":2539316.3391070012}},{"attributes":{"ID":263900,"DIS_CODE":0,"TOWNNAME":"歸仁區","LI":"六甲里","LIN":"40鄰","STREET":"民生南街","SECT":"二段","MAREA":" ","LANE":"８１２巷","ALLEY":" ","HOUSE_NO":"８號","E_COORD97":176060.14999999999,"N_COORD97":2539329.29,"ADDRESS":"民生南街二段８１２巷８號","OBJECTID":263896},"geometry":{"x":176060.1500000013,"y":2539329.2900000028}},{"attributes":{"ID":263901,"DIS_CODE":0,"TOWNNAME":"北區","LI":"成德里","LIN":"40鄰","STREET":"育德二路","SECT":" ","MAREA":" ","LANE":"４２１巷","ALLEY":" ","HOUSE_NO":"２號","E_COORD97":168220.42999999999,"N_COORD97":2546393.9199999999,"ADDRESS":"育德二路４２１巷２號","OBJECTID":263897},"geometry":{"x":168220.43000000063,"y":2546393.9199999999}},{"attributes":{"ID":263902,"DIS_CODE":0,"TOWNNAME":"北區","LI":"成德里","LIN":"40鄰","STREET":"育德二路","SECT":" ","MAREA":" ","LANE":"４２１巷","ALLEY":" ","HOUSE_NO":"６號","E_COORD97":168215.67000000001,"N_COORD97":2546392.8100000001,"ADDRESS":"育德二路４２１巷６號","OBJECTID":263898},"geometry":{"x":168215.67000000086,"y":2546392.8100000042}},{"attributes":{"ID":263903,"DIS_CODE":0,"TOWNNAME":"北區","LI":"成德里","LIN":"40鄰","STREET":"育德二路","SECT":" ","MAREA":" ","LANE":"４２１巷","ALLEY":" ","HOUSE_NO":"８號","E_COORD97":168211.07000000001,"N_COORD97":2546391.2200000002,"ADDRESS":"育德二路４２１巷８號","OBJECTID":263899},"geometry":{"x":168211.0700000003,"y":2546391.2200000025}},{"attributes":{"ID":263904,"DIS_CODE":0,"TOWNNAME":"北區","LI":"成德里","LIN":"40鄰","STREET":"育德二路","SECT":" ","MAREA":" ","LANE":"４２１巷","ALLEY":" ","HOUSE_NO":"１０號","E_COORD97":168206.45999999999,"N_COORD97":2546389.4700000002,"ADDRESS":"育德二路４２１巷１０號","OBJECTID":263900},"geometry":{"x":168206.45999999996,"y":2546389.4700000025}},{"attributes":{"ID":263905,"DIS_CODE":0,"TOWNNAME":"永康區","LI":"永康里","LIN":"40鄰","STREET":"永福街","SECT":" ","MAREA":" ","LANE":"７１巷","ALLEY":" ","HOUSE_NO":"２號","E_COORD97":174296.41,"N_COORD97":2546534.4100000001,"ADDRESS":"永福街７１巷２號","OBJECTID":263901},"geometry":{"x":174296.41000000201,"y":2546534.410000002}},{"attributes":{"ID":263906,"DIS_CODE":0,"TOWNNAME":"仁德區","LI":"太子里","LIN":"40鄰","STREET":"太子路","SECT":" ","MAREA":" ","LANE":"２８巷","ALLEY":" ","HOUSE_NO":"５５號","E_COORD97":175324.85000000001,"N_COORD97":2543765,"ADDRESS":"太子路２８巷５５號","OBJECTID":263902},"geometry":{"x":175324.84999999963,"y":2543765}},{"attributes":{"ID":263907,"DIS_CODE":0,"TOWNNAME":"仁德區","LI":"太子里","LIN":"40鄰","STREET":"太子路","SECT":" ","MAREA":" ","LANE":"２８巷","ALLEY":" ","HOUSE_NO":"４９號","E_COORD97":175352.42999999999,"N_COORD97":2543734.7599999998,"ADDRESS":"太子路２８巷４９號","OBJECTID":263903},"geometry":{"x":175352.43000000063,"y":2543734.7600000016}},{"attributes":{"ID":263908,"DIS_CODE":0,"TOWNNAME":"仁德區","LI":"太子里","LIN":"40鄰","STREET":"太子路","SECT":" ","MAREA":" ","LANE":"２８巷","ALLEY":" ","HOUSE_NO":"６１號","E_COORD97":175314.85000000001,"N_COORD97":2543747.2599999998,"ADDRESS":"太子路２８巷６１號","OBJECTID":263904},"geometry":{"x":175314.84999999963,"y":2543747.2599999998}},{"attributes":{"ID":263909,"DIS_CODE":0,"TOWNNAME":"仁德區","LI":"後壁里","LIN":"40鄰","STREET":"德善二街","SECT":" ","MAREA":" ","LANE":"１７巷","ALLEY":" ","HOUSE_NO":"３０號","E_COORD97":173507.06,"N_COORD97":2538966.02,"ADDRESS":"德善二街１７巷３０號","OBJECTID":263905},"geometry":{"x":173507.06000000052,"y":2538966.0200000014}},{"attributes":{"ID":263910,"DIS_CODE":0,"TOWNNAME":"仁德區","LI":"太子里","LIN":"40鄰","STREET":"太子路","SECT":" ","MAREA":" ","LANE":"２８巷","ALLEY":" ","HOUSE_NO":"３６號","E_COORD97":175374.25,"N_COORD97":2543733.2599999998,"ADDRESS":"太子路２８巷３６號","OBJECTID":263906},"geometry":{"x":175374.25000000093,"y":2543733.2599999998}},{"attributes":{"ID":263911,"DIS_CODE":0,"TOWNNAME":"北區","LI":" ","LIN":" ","STREET":"北門路","SECT":"二段","MAREA":" ","LANE":"５２７巷","ALLEY":" ","HOUSE_NO":"１８號","E_COORD97":169525.98999999999,"N_COORD97":2545704.4700000002,"ADDRESS":"北門路二段５２７巷１８號","OBJECTID":263907},"geometry":{"x":169525.99000000115,"y":2545704.4700000025}},{"attributes":{"ID":263912,"DIS_CODE":0,"TOWNNAME":"仁德區","LI":"後壁里","LIN":"40鄰","STREET":"德善二街","SECT":" ","MAREA":" ","LANE":"１７巷","ALLEY":" ","HOUSE_NO":"７號","E_COORD97":173516.51999999999,"N_COORD97":2538924.0099999998,"ADDRESS":"德善二街１７巷７號","OBJECTID":263908},"geometry":{"x":173516.51999999955,"y":2538924.0099999998}},{"attributes":{"ID":263913,"DIS_CODE":0,"TOWNNAME":"北區","LI":"大道里","LIN":"13鄰","STREET":"北門路","SECT":"二段","MAREA":" ","LANE":"５２７巷","ALLEY":" ","HOUSE_NO":"１９號","E_COORD97":169512.5,"N_COORD97":2545592.2599999998,"ADDRESS":"北門路二段５２７巷１９號","OBJECTID":263909},"geometry":{"x":169512.50000000093,"y":2545592.2600000035}},{"attributes":{"ID":263914,"DIS_CODE":0,"TOWNNAME":"永康區","LI":"崑山里","LIN":"40鄰","STREET":"崑山街","SECT":" ","MAREA":" ","LANE":"２２２巷","ALLEY":" ","HOUSE_NO":"３６號","E_COORD97":174200.04999999999,"N_COORD97":2545031.0299999998,"ADDRESS":"崑山街２２２巷３６號","OBJECTID":263910},"geometry":{"x":174200.04999999888,"y":2545031.0300000012}},{"attributes":{"ID":263915,"DIS_CODE":0,"TOWNNAME":"永康區","LI":"北灣里","LIN":"40鄰","STREET":"大同街","SECT":" ","MAREA":" ","LANE":"４１３巷","ALLEY":" ","HOUSE_NO":"１６號","E_COORD97":174631.73000000001,"N_COORD97":2546266.0899999999,"ADDRESS":"大同街４１３巷１６號","OBJECTID":263911},"geometry":{"x":174631.73000000045,"y":2546266.0900000017}},{"attributes":{"ID":263916,"DIS_CODE":0,"TOWNNAME":"新市區","LI":"新和里","LIN":"40鄰","STREET":"勝利街","SECT":" ","MAREA":" ","LANE":"２１巷","ALLEY":" ","HOUSE_NO":"２號","E_COORD97":177336.70000000001,"N_COORD97":2552926.0099999998,"ADDRESS":"勝利街２１巷２號","OBJECTID":263912},"geometry":{"x":177336.70000000019,"y":2552926.0099999998}},{"attributes":{"ID":263917,"DIS_CODE":0,"TOWNNAME":"新市區","LI":"新和里","LIN":"40鄰","STREET":"勝利街","SECT":" ","MAREA":" ","LANE":"２０巷","ALLEY":" ","HOUSE_NO":"２號","E_COORD97":177342.04000000001,"N_COORD97":2552980.7599999998,"ADDRESS":"勝利街２０巷２號","OBJECTID":263913},"geometry":{"x":177342.04000000097,"y":2552980.7600000016}},{"attributes":{"ID":263918,"DIS_CODE":0,"TOWNNAME":"永康區","LI":"崑山里","LIN":"40鄰","STREET":"崑山街","SECT":" ","MAREA":" ","LANE":"２２２巷","ALLEY":" ","HOUSE_NO":"４號","E_COORD97":174117.16,"N_COORD97":2545029.6699999999,"ADDRESS":"崑山街２２２巷４號","OBJECTID":263914},"geometry":{"x":174117.16000000108,"y":2545029.6699999999}},{"attributes":{"ID":263919,"DIS_CODE":0,"TOWNNAME":"善化區","LI":"光文里","LIN":"22鄰","STREET":"中山路","SECT":" ","MAREA":" ","LANE":" ","ALLEY":" ","HOUSE_NO":"１０６號","E_COORD97":178622.48000000001,"N_COORD97":2559198.5,"ADDRESS":"中山路１０６號","OBJECTID":263915},"geometry":{"x":178622.48000000231,"y":2559198.5}},{"attributes":{"ID":263920,"DIS_CODE":0,"TOWNNAME":"白河區","LI":"白河里","LIN":" ","STREET":"文明街","SECT":" ","MAREA":" ","LANE":" ","ALLEY":" ","HOUSE_NO":"１０號","E_COORD97":190273.72,"N_COORD97":2582949.3199999998,"ADDRESS":"文明街１０號","OBJECTID":263916},"geometry":{"x":190273.71999999974,"y":2582949.3200000003}},{"attributes":{"ID":263921,"DIS_CODE":0,"TOWNNAME":"白河區","LI":"白河里","LIN":" ","STREET":"文明街","SECT":" ","MAREA":" ","LANE":" ","ALLEY":" ","HOUSE_NO":"１３號","E_COORD97":190235.01000000001,"N_COORD97":2582982.5499999998,"ADDRESS":"文明街１３號","OBJECTID":263917},"geometry":{"x":190235.00999999978,"y":2582982.5500000007}},{"attributes":{"ID":263922,"DIS_CODE":0,"TOWNNAME":"白河區","LI":"白河里","LIN":" ","STREET":"文明街","SECT":" ","MAREA":" ","LANE":" ","ALLEY":" ","HOUSE_NO":"４１之１號","E_COORD97":190190.76999999999,"N_COORD97":2583042.4500000002,"ADDRESS":"文明街４１之１號","OBJECTID":263918},"geometry":{"x":190190.77000000142,"y":2583042.4499999993}},{"attributes":{"ID":263923,"DIS_CODE":0,"TOWNNAME":"白河區","LI":"白河里","LIN":" ","STREET":"文明街","SECT":" ","MAREA":" ","LANE":" ","ALLEY":" ","HOUSE_NO":"４３號","E_COORD97":190181.10999999999,"N_COORD97":2583044.7200000002,"ADDRESS":"文明街４３號","OBJECTID":263919},"geometry":{"x":190181.11000000127,"y":2583044.7200000025}},{"attributes":{"ID":263924,"DIS_CODE":0,"TOWNNAME":"白河區","LI":"白河里","LIN":" ","STREET":"文明街","SECT":" ","MAREA":" ","LANE":" ","ALLEY":" ","HOUSE_NO":"４號","E_COORD97":190280.56,"N_COORD97":2582938.5800000001,"ADDRESS":"文明街４號","OBJECTID":263920},"geometry":{"x":190280.56000000145,"y":2582938.5800000038}},{"attributes":{"ID":263925,"DIS_CODE":0,"TOWNNAME":"白河區","LI":"白河里","LIN":" ","STREET":"文明街","SECT":" ","MAREA":" ","LANE":" ","ALLEY":" ","HOUSE_NO":"７２號","E_COORD97":190213.29000000001,"N_COORD97":2583038.5299999998,"ADDRESS":"文明街７２號","OBJECTID":263921},"geometry":{"x":190213.2900000019,"y":2583038.5299999993}},{"attributes":{"ID":263926,"DIS_CODE":0,"TOWNNAME":"白河區","LI":"白河里","LIN":" ","STREET":"文明街","SECT":" ","MAREA":" ","LANE":" ","ALLEY":" ","HOUSE_NO":"８號","E_COORD97":190276.14999999999,"N_COORD97":2582945.5,"ADDRESS":"文明街８號","OBJECTID":263922},"geometry":{"x":190276.1500000013,"y":2582945.5}},{"attributes":{"ID":263927,"DIS_CODE":0,"TOWNNAME":"善化區","LI":"坐駕里","LIN":"22鄰","STREET":" ","SECT":" ","MAREA":"陽明新村","LANE":" ","ALLEY":" ","HOUSE_NO":"８７號","E_COORD97":178128.01000000001,"N_COORD97":2558279.0099999998,"ADDRESS":"陽明新村８７號","OBJECTID":263923},"geometry":{"x":178128.00999999978,"y":2558279.0099999998}},{"attributes":{"ID":263928,"DIS_CODE":0,"TOWNNAME":"善化區","LI":"光文里","LIN":"22鄰","STREET":"中山路","SECT":" ","MAREA":" ","LANE":" ","ALLEY":" ","HOUSE_NO":"８２號（半毀）","E_COORD97":178696.53,"N_COORD97":2559246,"ADDRESS":"中山路８２號（半毀）","OBJECTID":263924},"geometry":{"x":178696.53000000212,"y":2559246}},{"attributes":{"ID":263929,"DIS_CODE":0,"TOWNNAME":"善化區","LI":"光文里","LIN":"22鄰","STREET":"光華路","SECT":" ","MAREA":" ","LANE":" ","ALLEY":" ","HOUSE_NO":"９８號","E_COORD97":178635.54000000001,"N_COORD97":2559425.75,"ADDRESS":"光華路９８號","OBJECTID":263925},"geometry":{"x":178635.54000000097,"y":2559425.7500000019}},{"attributes":{"ID":263930,"DIS_CODE":0,"TOWNNAME":"永康區","LI":"南灣里","LIN":"40鄰","STREET":"南灣街","SECT":" ","MAREA":" ","LANE":"１２０巷","ALLEY":" ","HOUSE_NO":"１１號","E_COORD97":174358.45999999999,"N_COORD97":2545059.75,"ADDRESS":"南灣街１２０巷１１號","OBJECTID":263926},"geometry":{"x":174358.45999999903,"y":2545059.7499999981}},{"attributes":{"ID":263931,"DIS_CODE":0,"TOWNNAME":"善化區","LI":"光文里","LIN":"22鄰","STREET":"中山路","SECT":" ","MAREA":" ","LANE":" ","ALLEY":" ","HOUSE_NO":"１０８號之３","E_COORD97":178605.89000000001,"N_COORD97":2559196.02,"ADDRESS":"中山路１０８號之３","OBJECTID":263927},"geometry":{"x":178605.8900000006,"y":2559196.0200000014}},{"attributes":{"ID":263932,"DIS_CODE":0,"TOWNNAME":"新市區","LI":"新和里","LIN":"40鄰","STREET":"勝利街","SECT":" ","MAREA":" ","LANE":"１１巷","ALLEY":" ","HOUSE_NO":"８號","E_COORD97":177356.60000000001,"N_COORD97":2552908.7599999998,"ADDRESS":"勝利街１１巷８號","OBJECTID":263928},"geometry":{"x":177356.60000000056,"y":2552908.7600000016}},{"attributes":{"ID":263933,"DIS_CODE":0,"TOWNNAME":"新市區","LI":"新和里","LIN":"40鄰","STREET":"勝利街","SECT":" ","MAREA":" ","LANE":"２０巷","ALLEY":" ","HOUSE_NO":"１號","E_COORD97":177332.85000000001,"N_COORD97":2552980.0099999998,"ADDRESS":"勝利街２０巷１號","OBJECTID":263929},"geometry":{"x":177332.85000000056,"y":2552980.0099999998}},{"attributes":{"ID":263934,"DIS_CODE":0,"TOWNNAME":"新市區","LI":"新和里","LIN":"40鄰","STREET":"勝利街","SECT":" ","MAREA":" ","LANE":"３５巷","ALLEY":" ","HOUSE_NO":"２號","E_COORD97":177298.54000000001,"N_COORD97":2552927.7599999998,"ADDRESS":"勝利街３５巷２號","OBJECTID":263930},"geometry":{"x":177298.54000000004,"y":2552927.7599999998}},{"attributes":{"ID":263935,"DIS_CODE":0,"TOWNNAME":"善化區","LI":"坐駕里","LIN":"22鄰","STREET":" ","SECT":" ","MAREA":"陽明新村","LANE":" ","ALLEY":" ","HOUSE_NO":"１１號","E_COORD97":178125.34,"N_COORD97":2558378.2599999998,"ADDRESS":"陽明新村１１號","OBJECTID":263931},"geometry":{"x":178125.33999999985,"y":2558378.2600000016}},{"attributes":{"ID":263936,"DIS_CODE":0,"TOWNNAME":"新市區","LI":"新和里","LIN":"40鄰","STREET":"勝利街","SECT":" ","MAREA":" ","LANE":"１１巷","ALLEY":" ","HOUSE_NO":"７號","E_COORD97":177371.23999999999,"N_COORD97":2552924.2599999998,"ADDRESS":"勝利街１１巷７號","OBJECTID":263932},"geometry":{"x":177371.24000000115,"y":2552924.2599999998}},{"attributes":{"ID":263937,"DIS_CODE":0,"TOWNNAME":"新市區","LI":"新和里","LIN":"40鄰","STREET":"勝利街","SECT":" ","MAREA":" ","LANE":"６８巷","ALLEY":" ","HOUSE_NO":"４號","E_COORD97":177171.60000000001,"N_COORD97":2552984.0099999998,"ADDRESS":"勝利街６８巷４號","OBJECTID":263933},"geometry":{"x":177171.60000000056,"y":2552984.0099999998}},{"attributes":{"ID":263938,"DIS_CODE":0,"TOWNNAME":"善化區","LI":"坐駕里","LIN":"22鄰","STREET":" ","SECT":" ","MAREA":"陽明新村","LANE":" ","ALLEY":" ","HOUSE_NO":"４８號","E_COORD97":178137.79000000001,"N_COORD97":2558322.2599999998,"ADDRESS":"陽明新村４８號","OBJECTID":263934},"geometry":{"x":178137.79000000004,"y":2558322.2599999998}},{"attributes":{"ID":263939,"DIS_CODE":0,"TOWNNAME":"永康區","LI":"\u25A0洲里","LIN":"40鄰","STREET":"正南六街","SECT":" ","MAREA":" ","LANE":"１０５巷","ALLEY":" ","HOUSE_NO":"１１號","E_COORD97":170797.39999999999,"N_COORD97":2548597.0800000001,"ADDRESS":"正南六街１０５巷１１號","OBJECTID":263935},"geometry":{"x":170797.40000000037,"y":2548597.0800000001}},{"attributes":{"ID":263940,"DIS_CODE":0,"TOWNNAME":"永康區","LI":"\u25A0洲里","LIN":"40鄰","STREET":"正南六街","SECT":" ","MAREA":" ","LANE":"１０５巷","ALLEY":" ","HOUSE_NO":"６號","E_COORD97":170796.73000000001,"N_COORD97":2548639.9900000002,"ADDRESS":"正南六街１０５巷６號","OBJECTID":263936},"geometry":{"x":170796.73000000045,"y":2548639.9900000021}},{"attributes":{"ID":263941,"DIS_CODE":0,"TOWNNAME":"北區","LI":" ","LIN":" ","STREET":"北門路","SECT":"二段","MAREA":" ","LANE":"５２７巷","ALLEY":" ","HOUSE_NO":"２０號","E_COORD97":169523.45000000001,"N_COORD97":2545686.0499999998,"ADDRESS":"北門路二段５２７巷２０號","OBJECTID":263937},"geometry":{"x":169523.45000000019,"y":2545686.0500000045}},{"attributes":{"ID":263942,"DIS_CODE":0,"TOWNNAME":"善化區","LI":"坐駕里","LIN":"22鄰","STREET":" ","SECT":" ","MAREA":"陽明新村","LANE":" ","ALLEY":" ","HOUSE_NO":"４１號","E_COORD97":178189.82000000001,"N_COORD97":2558306.0099999998,"ADDRESS":"陽明新村４１號","OBJECTID":263938},"geometry":{"x":178189.82000000123,"y":2558306.0099999998}},{"attributes":{"ID":263943,"DIS_CODE":0,"TOWNNAME":"北區","LI":" ","LIN":" ","STREET":"北門路","SECT":"二段","MAREA":" ","LANE":"５７６巷","ALLEY":" ","HOUSE_NO":"１２號","E_COORD97":169651.25,"N_COORD97":2545573.98,"ADDRESS":"北門路二段５７６巷１２號","OBJECTID":263939},"geometry":{"x":169651.25000000093,"y":2545573.9800000004}},{"attributes":{"ID":263944,"DIS_CODE":0,"TOWNNAME":"善化區","LI":"坐駕里","LIN":"22鄰","STREET":" ","SECT":" ","MAREA":"陽明新村","LANE":" ","ALLEY":" ","HOUSE_NO":"６９號","E_COORD97":178165.98000000001,"N_COORD97":2558284.5099999998,"ADDRESS":"陽明新村６９號","OBJECTID":263940},"geometry":{"x":178165.98000000045,"y":2558284.5100000016}},{"attributes":{"ID":263945,"DIS_CODE":0,"TOWNNAME":"永康區","LI":"\u25A0洲里","LIN":"40鄰","STREET":"正南六街","SECT":" ","MAREA":" ","LANE":"１０５巷","ALLEY":" ","HOUSE_NO":"７號","E_COORD97":170806.51000000001,"N_COORD97":2548613.8300000001,"ADDRESS":"正南六街１０５巷７號","OBJECTID":263941},"geometry":{"x":170806.50999999885,"y":2548613.8300000019}},{"attributes":{"ID":263946,"DIS_CODE":0,"TOWNNAME":"善化區","LI":"坐駕里","LIN":"22鄰","STREET":" ","SECT":" ","MAREA":"陽明新村","LANE":" ","ALLEY":" ","HOUSE_NO":"３８號","E_COORD97":178115.39000000001,"N_COORD97":2558336.0099999998,"ADDRESS":"陽明新村３８號","OBJECTID":263942},"geometry":{"x":178115.39000000153,"y":2558336.0100000016}},{"attributes":{"ID":263947,"DIS_CODE":0,"TOWNNAME":"善化區","LI":"坐駕里","LIN":"22鄰","STREET":" ","SECT":" ","MAREA":"陽明新村","LANE":" ","ALLEY":" ","HOUSE_NO":"２９號","E_COORD97":178161.85000000001,"N_COORD97":2558339.7599999998,"ADDRESS":"陽明新村２９號","OBJECTID":263943},"geometry":{"x":178161.85000000056,"y":2558339.7600000035}},{"attributes":{"ID":263948,"DIS_CODE":0,"TOWNNAME":"善化區","LI":"坐駕里","LIN":"22鄰","STREET":" ","SECT":" ","MAREA":"陽明新村","LANE":" ","ALLEY":" ","HOUSE_NO":"２２號","E_COORD97":178106.67000000001,"N_COORD97":2558358.0099999998,"ADDRESS":"陽明新村２２號","OBJECTID":263944},"geometry":{"x":178106.66999999993,"y":2558358.0099999998}},{"attributes":{"ID":263949,"DIS_CODE":0,"TOWNNAME":"善化區","LI":"坐駕里","LIN":"22鄰","STREET":" ","SECT":" ","MAREA":"陽明新村","LANE":" ","ALLEY":" ","HOUSE_NO":"５８號","E_COORD97":178121.67000000001,"N_COORD97":2558319.7599999998,"ADDRESS":"陽明新村５８號","OBJECTID":263945},"geometry":{"x":178121.66999999993,"y":2558319.7600000016}},{"attributes":{"ID":263950,"DIS_CODE":0,"TOWNNAME":"善化區","LI":"坐駕里","LIN":"22鄰","STREET":" ","SECT":" ","MAREA":"陽明新村","LANE":" ","ALLEY":" ","HOUSE_NO":"３７號","E_COORD97":178178.92000000001,"N_COORD97":2558331.0099999998,"ADDRESS":"陽明新村３７號","OBJECTID":263946},"geometry":{"x":178178.92000000086,"y":2558331.0099999998}},{"attributes":{"ID":263951,"DIS_CODE":0,"TOWNNAME":"善化區","LI":"坐駕里","LIN":"22鄰","STREET":" ","SECT":" ","MAREA":"陽明新村","LANE":" ","ALLEY":" ","HOUSE_NO":"８號","E_COORD97":178095.39999999999,"N_COORD97":2558369.2599999998,"ADDRESS":"陽明新村８號","OBJECTID":263947},"geometry":{"x":178095.40000000037,"y":2558369.2599999998}},{"attributes":{"ID":263952,"DIS_CODE":0,"TOWNNAME":"善化區","LI":"坐駕里","LIN":"22鄰","STREET":" ","SECT":" ","MAREA":"坐駕","LANE":" ","ALLEY":" ","HOUSE_NO":"４４之１號","E_COORD97":178134.92000000001,"N_COORD97":2558200.52,"ADDRESS":"坐駕４４之１號","OBJECTID":263948},"geometry":{"x":178134.91999999993,"y":2558200.5199999996}},{"attributes":{"ID":263953,"DIS_CODE":0,"TOWNNAME":"善化區","LI":"光文里","LIN":"22鄰","STREET":"中山路","SECT":" ","MAREA":" ","LANE":" ","ALLEY":" ","HOUSE_NO":"８４號（半毀）","E_COORD97":178690.37,"N_COORD97":2559246,"ADDRESS":"中山路８４號（半毀）","OBJECTID":263949},"geometry":{"x":178690.37000000011,"y":2559246}},{"attributes":{"ID":263954,"DIS_CODE":0,"TOWNNAME":"善化區","LI":"光文里","LIN":"22鄰","STREET":"光華路","SECT":" ","MAREA":" ","LANE":" ","ALLEY":" ","HOUSE_NO":"１６０號","E_COORD97":178615.45999999999,"N_COORD97":2559555.25,"ADDRESS":"光華路１６０號","OBJECTID":263950},"geometry":{"x":178615.46000000089,"y":2559555.2500000019}},{"attributes":{"ID":263955,"DIS_CODE":0,"TOWNNAME":"永康區","LI":"勝利里","LIN":"6鄰","STREET":"勝利街","SECT":" ","MAREA":" ","LANE":" ","ALLEY":" ","HOUSE_NO":"９號","E_COORD97":171191.51999999999,"N_COORD97":2544570.7599999998,"ADDRESS":"勝利街９號","OBJECTID":263951},"geometry":{"x":171191.52000000048,"y":2544570.7599999998}},{"attributes":{"ID":263956,"DIS_CODE":0,"TOWNNAME":"永康區","LI":"\u25A0洲里","LIN":"40鄰","STREET":"正南六街","SECT":" ","MAREA":" ","LANE":"１０５巷","ALLEY":" ","HOUSE_NO":"８號","E_COORD97":170791.59,"N_COORD97":2548631.23,"ADDRESS":"正南六街１０５巷８號","OBJECTID":263952},"geometry":{"x":170791.59000000078,"y":2548631.2300000023}},{"attributes":{"ID":263957,"DIS_CODE":0,"TOWNNAME":"永康區","LI":"龍潭里","LIN":"40鄰","STREET":"永明街","SECT":" ","MAREA":" ","LANE":"３０２巷","ALLEY":" ","HOUSE_NO":"１３號","E_COORD97":174545.66,"N_COORD97":2547115.2400000002,"ADDRESS":"永明街３０２巷１３號","OBJECTID":263953},"geometry":{"x":174545.66000000201,"y":2547115.2400000021}},{"attributes":{"ID":263958,"DIS_CODE":0,"TOWNNAME":"永康區","LI":"西灣里","LIN":"40鄰","STREET":"大勇路","SECT":" ","MAREA":" ","LANE":"２３巷","ALLEY":" ","HOUSE_NO":"１９號","E_COORD97":174159.48999999999,"N_COORD97":2545406.0099999998,"ADDRESS":"大勇路２３巷１９號","OBJECTID":263954},"geometry":{"x":174159.49000000022,"y":2545406.0099999998}},{"attributes":{"ID":263959,"DIS_CODE":0,"TOWNNAME":"永康區","LI":"\u25A0行里","LIN":"40鄰","STREET":"永安路","SECT":" ","MAREA":" ","LANE":"１０５巷","ALLEY":" ","HOUSE_NO":"１４號","E_COORD97":172694.14000000001,"N_COORD97":2549300.2000000002,"ADDRESS":"永安路１０５巷１４號","OBJECTID":263955},"geometry":{"x":172694.14000000153,"y":2549300.1999999993}},{"attributes":{"ID":263960,"DIS_CODE":0,"TOWNNAME":"善化區","LI":"坐駕里","LIN":"22鄰","STREET":" ","SECT":" ","MAREA":"陽明新村","LANE":" ","ALLEY":" ","HOUSE_NO":"１０７號","E_COORD97":178061.04999999999,"N_COORD97":2558309.7599999998,"ADDRESS":"陽明新村１０７號","OBJECTID":263956},"geometry":{"x":178061.04999999981,"y":2558309.7600000016}},{"attributes":{"ID":263961,"DIS_CODE":0,"TOWNNAME":"永康區","LI":"\u25A0洲里","LIN":"40鄰","STREET":"正南六街","SECT":" ","MAREA":" ","LANE":"１０５巷","ALLEY":" ","HOUSE_NO":"１５號","E_COORD97":170786.98000000001,"N_COORD97":2548580.0800000001,"ADDRESS":"正南六街１０５巷１５號","OBJECTID":263957},"geometry":{"x":170786.98000000045,"y":2548580.0800000001}},{"attributes":{"ID":263962,"DIS_CODE":0,"TOWNNAME":"永康區","LI":"\u25A0行里","LIN":"40鄰","STREET":"永安路","SECT":" ","MAREA":" ","LANE":"１０５巷","ALLEY":" ","HOUSE_NO":"３２號","E_COORD97":172653.47,"N_COORD97":2549298.9500000002,"ADDRESS":"永安路１０５巷３２號","OBJECTID":263958},"geometry":{"x":172653.47000000067,"y":2549298.9499999993}},{"attributes":{"ID":263963,"DIS_CODE":0,"TOWNNAME":"永康區","LI":"\u25A0洲里","LIN":"40鄰","STREET":"洲工街","SECT":" ","MAREA":" ","LANE":"１７５巷","ALLEY":" ","HOUSE_NO":"１２號","E_COORD97":170714.92000000001,"N_COORD97":2548732.25,"ADDRESS":"洲工街１７５巷１２號","OBJECTID":263959},"geometry":{"x":170714.92000000086,"y":2548732.2500000019}},{"attributes":{"ID":263964,"DIS_CODE":0,"TOWNNAME":"永康區","LI":"龍潭里","LIN":"40鄰","STREET":"永明街","SECT":" ","MAREA":" ","LANE":"３０２巷","ALLEY":" ","HOUSE_NO":"８號","E_COORD97":174520.16,"N_COORD97":2547135.75,"ADDRESS":"永明街３０２巷８號","OBJECTID":263960},"geometry":{"x":174520.16000000201,"y":2547135.7500000019}},{"attributes":{"ID":263965,"DIS_CODE":0,"TOWNNAME":"永康區","LI":"龍潭里","LIN":"40鄰","STREET":"永明街","SECT":" ","MAREA":" ","LANE":"３０２巷","ALLEY":" ","HOUSE_NO":"７號","E_COORD97":174544.53,"N_COORD97":2547130.5,"ADDRESS":"永明街３０２巷７號","OBJECTID":263961},"geometry":{"x":174544.53000000026,"y":2547130.5000000019}},{"attributes":{"ID":263966,"DIS_CODE":0,"TOWNNAME":"永康區","LI":"\u25A0洲里","LIN":"40鄰","STREET":"正南六街","SECT":" ","MAREA":" ","LANE":"１０５巷","ALLEY":" ","HOUSE_NO":"１０號","E_COORD97":170788.54000000001,"N_COORD97":2548623.5,"ADDRESS":"正南六街１０５巷１０號","OBJECTID":263962},"geometry":{"x":170788.54000000097,"y":2548623.5}},{"attributes":{"ID":263967,"DIS_CODE":0,"TOWNNAME":"善化區","LI":"坐駕里","LIN":"22鄰","STREET":" ","SECT":" ","MAREA":"坐駕","LANE":" ","ALLEY":" ","HOUSE_NO":"４５號之６","E_COORD97":178028.88,"N_COORD97":2558059.02,"ADDRESS":"坐駕４５號之６","OBJECTID":263963},"geometry":{"x":178028.87999999989,"y":2558059.0199999996}},{"attributes":{"ID":263968,"DIS_CODE":0,"TOWNNAME":"永康區","LI":"龍潭里","LIN":"40鄰","STREET":"國民路","SECT":" ","MAREA":" ","LANE":"２０１巷","ALLEY":" ","HOUSE_NO":"１５號","E_COORD97":174524.04000000001,"N_COORD97":2547100.7599999998,"ADDRESS":"國民路２０１巷１５號","OBJECTID":263964},"geometry":{"x":174524.04000000004,"y":2547100.7600000035}},{"attributes":{"ID":263969,"DIS_CODE":0,"TOWNNAME":"永康區","LI":"龍潭里","LIN":"40鄰","STREET":"永明街","SECT":" ","MAREA":" ","LANE":"３０２巷","ALLEY":" ","HOUSE_NO":"１號","E_COORD97":174546.53,"N_COORD97":2547176.9100000001,"ADDRESS":"永明街３０２巷１號","OBJECTID":263965},"geometry":{"x":174546.52999999933,"y":2547176.9100000001}},{"attributes":{"ID":263970,"DIS_CODE":0,"TOWNNAME":"北區","LI":" ","LIN":" ","STREET":"北門路","SECT":"二段","MAREA":" ","LANE":"５２７巷","ALLEY":" ","HOUSE_NO":"２３號","E_COORD97":169509.48000000001,"N_COORD97":2545598.2599999998,"ADDRESS":"北門路二段５２７巷２３號","OBJECTID":263966},"geometry":{"x":169509.48000000138,"y":2545598.2599999998}},{"attributes":{"ID":263971,"DIS_CODE":0,"TOWNNAME":"仁德區","LI":"仁義里","LIN":"40鄰","STREET":"中正路","SECT":"二段","MAREA":" ","LANE":"８６２巷","ALLEY":" ","HOUSE_NO":"２６號","E_COORD97":173561.79999999999,"N_COORD97":2540503.7999999998,"ADDRESS":"中正路二段８６２巷２６號","OBJECTID":263967},"geometry":{"x":173561.80000000075,"y":2540503.8000000045}},{"attributes":{"ID":263972,"DIS_CODE":0,"TOWNNAME":"善化區","LI":"小新里","LIN":"22鄰","STREET":" ","SECT":" ","MAREA":"士宏新村","LANE":" ","ALLEY":" ","HOUSE_NO":"４９號","E_COORD97":180431.44,"N_COORD97":2558587.75,"ADDRESS":"士宏新村４９號","OBJECTID":263968},"geometry":{"x":180431.44000000227,"y":2558587.7500000037}},{"attributes":{"ID":263973,"DIS_CODE":0,"TOWNNAME":"仁德區","LI":"太子里","LIN":"40鄰","STREET":"太子路","SECT":" ","MAREA":" ","LANE":"６６巷","ALLEY":" ","HOUSE_NO":"２８號","E_COORD97":175273.35000000001,"N_COORD97":2543721.7599999998,"ADDRESS":"太子路６６巷２８號","OBJECTID":263969},"geometry":{"x":175273.35000000056,"y":2543721.7600000016}},{"attributes":{"ID":263974,"DIS_CODE":0,"TOWNNAME":"仁德區","LI":"太子里","LIN":"40鄰","STREET":"太子路","SECT":" ","MAREA":" ","LANE":"８巷","ALLEY":" ","HOUSE_NO":"１９號","E_COORD97":175394.04000000001,"N_COORD97":2543656.0099999998,"ADDRESS":"太子路８巷１９號","OBJECTID":263970},"geometry":{"x":175394.04000000097,"y":2543656.0100000016}},{"attributes":{"ID":263975,"DIS_CODE":0,"TOWNNAME":"仁德區","LI":"太子里","LIN":"40鄰","STREET":"太子路","SECT":" ","MAREA":" ","LANE":"８巷","ALLEY":" ","HOUSE_NO":"１７號","E_COORD97":175388.59637000001,"N_COORD97":2543646.5072900001,"ADDRESS":"太子路８巷１７號","OBJECTID":263971},"geometry":{"x":175388.59637000039,"y":2543646.5072920006}},{"attributes":{"ID":263976,"DIS_CODE":0,"TOWNNAME":"仁德區","LI":"太子里","LIN":"40鄰","STREET":"太子路","SECT":" ","MAREA":" ","LANE":"６６巷","ALLEY":" ","HOUSE_NO":"１８號","E_COORD97":175274.01000000001,"N_COORD97":2543703,"ADDRESS":"太子路６６巷１８號","OBJECTID":263972},"geometry":{"x":175274.01000000071,"y":2543703.0000000019}},{"attributes":{"ID":263977,"DIS_CODE":0,"TOWNNAME":"善化區","LI":"坐駕里","LIN":"22鄰","STREET":" ","SECT":" ","MAREA":"陽明新村","LANE":" ","ALLEY":" ","HOUSE_NO":"１６號","E_COORD97":178120.48000000001,"N_COORD97":2558357.7599999998,"ADDRESS":"陽明新村１６號","OBJECTID":263973},"geometry":{"x":178120.47999999952,"y":2558357.7600000016}},{"attributes":{"ID":263978,"DIS_CODE":0,"TOWNNAME":"善化區","LI":"坐駕里","LIN":"22鄰","STREET":" ","SECT":" ","MAREA":"陽明新村","LANE":" ","ALLEY":" ","HOUSE_NO":"５０號","E_COORD97":178133.73999999999,"N_COORD97":2558321.7599999998,"ADDRESS":"陽明新村５０號","OBJECTID":263974},"geometry":{"x":178133.73999999929,"y":2558321.7599999998}},{"attributes":{"ID":263979,"DIS_CODE":0,"TOWNNAME":"善化區","LI":"光文里","LIN":"22鄰","STREET":"光華路","SECT":" ","MAREA":" ","LANE":" ","ALLEY":" ","HOUSE_NO":"５號","E_COORD97":178639.03,"N_COORD97":2559229.75,"ADDRESS":"光華路５號","OBJECTID":263975},"geometry":{"x":178639.03000000119,"y":2559229.7500000019}},{"attributes":{"ID":263980,"DIS_CODE":0,"TOWNNAME":"善化區","LI":"光文里","LIN":"22鄰","STREET":"光華路","SECT":" ","MAREA":" ","LANE":" ","ALLEY":" ","HOUSE_NO":"９４號","E_COORD97":178636.59,"N_COORD97":2559417.75,"ADDRESS":"光華路９４號","OBJECTID":263976},"geometry":{"x":178636.59000000078,"y":2559417.75}},{"attributes":{"ID":263981,"DIS_CODE":0,"TOWNNAME":"善化區","LI":"光文里","LIN":"22鄰","STREET":"光華路","SECT":" ","MAREA":" ","LANE":" ","ALLEY":" ","HOUSE_NO":"１１號","E_COORD97":178636.87,"N_COORD97":2559241.75,"ADDRESS":"光華路１１號","OBJECTID":263977},"geometry":{"x":178636.87000000104,"y":2559241.7499999981}},{"attributes":{"ID":263982,"DIS_CODE":0,"TOWNNAME":"善化區","LI":"光文里","LIN":"22鄰","STREET":"中山路","SECT":" ","MAREA":" ","LANE":" ","ALLEY":" ","HOUSE_NO":"４８之５號","E_COORD97":178803.69,"N_COORD97":2559226.77,"ADDRESS":"中山路４８之５號","OBJECTID":263978},"geometry":{"x":178803.69000000041,"y":2559226.7699999996}},{"attributes":{"ID":263983,"DIS_CODE":0,"TOWNNAME":"永康區","LI":"崑山里","LIN":"44鄰","STREET":"國光六街","SECT":" ","MAREA":" ","LANE":" ","ALLEY":" ","HOUSE_NO":"９５號","E_COORD97":174010.92000000001,"N_COORD97":2545324.0899999999,"ADDRESS":"國光六街９５號","OBJECTID":263979},"geometry":{"x":174010.91999999993,"y":2545324.0899999999}},{"attributes":{"ID":263984,"DIS_CODE":0,"TOWNNAME":"永康區","LI":"崑山里","LIN":"22鄰","STREET":"永大路","SECT":"二段","MAREA":" ","LANE":" ","ALLEY":" ","HOUSE_NO":"１１號","E_COORD97":174088.07000000001,"N_COORD97":2544623.1099999999,"ADDRESS":"永大路二段１１號","OBJECTID":263980},"geometry":{"x":174088.0700000003,"y":2544623.1100000031}},{"attributes":{"ID":263985,"DIS_CODE":0,"TOWNNAME":"永康區","LI":"\u25A0洲里","LIN":"40鄰","STREET":"國聖街","SECT":" ","MAREA":" ","LANE":"２９３巷","ALLEY":" ","HOUSE_NO":"８號","E_COORD97":171008.48999999999,"N_COORD97":2548636.9900000002,"ADDRESS":"國聖街２９３巷８號","OBJECTID":263981},"geometry":{"x":171008.49000000022,"y":2548636.9900000021}},{"attributes":{"ID":263986,"DIS_CODE":0,"TOWNNAME":"永康區","LI":"\u25A0洲里","LIN":"40鄰","STREET":"國聖街","SECT":" ","MAREA":" ","LANE":"２９３巷","ALLEY":" ","HOUSE_NO":"１０號","E_COORD97":171003.42999999999,"N_COORD97":2548641.7400000002,"ADDRESS":"國聖街２９３巷１０號","OBJECTID":263982},"geometry":{"x":171003.4299999997,"y":2548641.7400000021}},{"attributes":{"ID":263987,"DIS_CODE":0,"TOWNNAME":"北區","LI":" ","LIN":" ","STREET":"北門路","SECT":"二段","MAREA":" ","LANE":"５２７巷","ALLEY":" ","HOUSE_NO":"２９號","E_COORD97":169516.14999999999,"N_COORD97":2545639.9399999999,"ADDRESS":"北門路二段５２７巷２９號","OBJECTID":263983},"geometry":{"x":169516.14999999944,"y":2545639.9399999995}},{"attributes":{"ID":263988,"DIS_CODE":0,"TOWNNAME":"永康區","LI":"正強里","LIN":"40鄰","STREET":"四維街","SECT":" ","MAREA":" ","LANE":"１８１巷","ALLEY":" ","HOUSE_NO":"６號","E_COORD97":173237.53,"N_COORD97":2548457.9900000002,"ADDRESS":"四維街１８１巷６號","OBJECTID":263984},"geometry":{"x":173237.53000000026,"y":2548457.9900000002}},{"attributes":{"ID":263989,"DIS_CODE":0,"TOWNNAME":"永康區","LI":"\u25A0洲里","LIN":"40鄰","STREET":"洲工街","SECT":" ","MAREA":" ","LANE":"１７５巷","ALLEY":" ","HOUSE_NO":"１０號","E_COORD97":170723.17000000001,"N_COORD97":2548728.75,"ADDRESS":"洲工街１７５巷１０號","OBJECTID":263985},"geometry":{"x":170723.17000000086,"y":2548728.7500000019}},{"attributes":{"ID":263990,"DIS_CODE":0,"TOWNNAME":"永康區","LI":"\u25A0洲里","LIN":"40鄰","STREET":"洲工街","SECT":" ","MAREA":" ","LANE":"１７５巷","ALLEY":" ","HOUSE_NO":"２號","E_COORD97":170755.07999999999,"N_COORD97":2548721,"ADDRESS":"洲工街１７５巷２號","OBJECTID":263986},"geometry":{"x":170755.08000000007,"y":2548721.0000000019}},{"attributes":{"ID":263991,"DIS_CODE":0,"TOWNNAME":"善化區","LI":"光文里","LIN":"22鄰","STREET":"中山路","SECT":" ","MAREA":" ","LANE":" ","ALLEY":" ","HOUSE_NO":"１１８之１號","E_COORD97":178548.17000000001,"N_COORD97":2559214.27,"ADDRESS":"中山路１１８之１號","OBJECTID":263987},"geometry":{"x":178548.17000000086,"y":2559214.2700000033}},{"attributes":{"ID":263992,"DIS_CODE":0,"TOWNNAME":"永康區","LI":"\u25A0洲里","LIN":"40鄰","STREET":"正南六街","SECT":" ","MAREA":" ","LANE":"１０５巷","ALLEY":" ","HOUSE_NO":"１３號","E_COORD97":170792.26000000001,"N_COORD97":2548588.3300000001,"ADDRESS":"正南六街１０５巷１３號","OBJECTID":263988},"geometry":{"x":170792.25999999978,"y":2548588.3300000001}},{"attributes":{"ID":263993,"DIS_CODE":0,"TOWNNAME":"善化區","LI":"光文里","LIN":"22鄰","STREET":"光華路","SECT":" ","MAREA":" ","LANE":" ","ALLEY":" ","HOUSE_NO":"８６號","E_COORD97":178639.66,"N_COORD97":2559398.75,"ADDRESS":"光華路８６號","OBJECTID":263989},"geometry":{"x":178639.66000000108,"y":2559398.7500000019}},{"attributes":{"ID":263994,"DIS_CODE":0,"TOWNNAME":"善化區","LI":"光文里","LIN":"22鄰","STREET":"中山路","SECT":" ","MAREA":" ","LANE":" ","ALLEY":" ","HOUSE_NO":"１２０號之２","E_COORD97":178545.64000000001,"N_COORD97":2559184.27,"ADDRESS":"中山路１２０號之２","OBJECTID":263990},"geometry":{"x":178545.63999999966,"y":2559184.2700000014}},{"attributes":{"ID":263995,"DIS_CODE":0,"TOWNNAME":"永康區","LI":"\u25A0行里","LIN":"40鄰","STREET":"永安路","SECT":" ","MAREA":" ","LANE":"１０５巷","ALLEY":" ","HOUSE_NO":"３４號","E_COORD97":172649.17000000001,"N_COORD97":2549298.7000000002,"ADDRESS":"永安路１０５巷３４號","OBJECTID":263991},"geometry":{"x":172649.17000000086,"y":2549298.7000000011}},{"attributes":{"ID":263996,"DIS_CODE":0,"TOWNNAME":"永康區","LI":"\u25A0洲里","LIN":"40鄰","STREET":"國聖街","SECT":" ","MAREA":" ","LANE":"２９３巷","ALLEY":" ","HOUSE_NO":"１２號","E_COORD97":170995.79000000001,"N_COORD97":2548647.7400000002,"ADDRESS":"國聖街２９３巷１２號","OBJECTID":263992},"geometry":{"x":170995.79000000004,"y":2548647.7400000021}},{"attributes":{"ID":263997,"DIS_CODE":0,"TOWNNAME":"善化區","LI":"坐駕里","LIN":"22鄰","STREET":" ","SECT":" ","MAREA":"陽明新村","LANE":" ","ALLEY":" ","HOUSE_NO":"５２號","E_COORD97":178129.73999999999,"N_COORD97":2558321.0099999998,"ADDRESS":"陽明新村５２號","OBJECTID":263993},"geometry":{"x":178129.74000000022,"y":2558321.0099999979}},{"attributes":{"ID":263998,"DIS_CODE":0,"TOWNNAME":"善化區","LI":"光文里","LIN":"22鄰","STREET":"中山路","SECT":" ","MAREA":" ","LANE":" ","ALLEY":" ","HOUSE_NO":"６８號","E_COORD97":178734.31,"N_COORD97":2559214.75,"ADDRESS":"中山路６８號","OBJECTID":263994},"geometry":{"x":178734.30999999959,"y":2559214.7500000037}},{"attributes":{"ID":263999,"DIS_CODE":0,"TOWNNAME":"善化區","LI":"坐駕里","LIN":"22鄰","STREET":" ","SECT":" ","MAREA":"陽明新村","LANE":" ","ALLEY":" ","HOUSE_NO":"７０號","E_COORD97":178149.89000000001,"N_COORD97":2558298.7599999998,"ADDRESS":"陽明新村７０號","OBJECTID":263995},"geometry":{"x":178149.8900000006,"y":2558298.7599999998}},{"attributes":{"ID":264000,"DIS_CODE":0,"TOWNNAME":"善化區","LI":"坐駕里","LIN":"22鄰","STREET":" ","SECT":" ","MAREA":"坐駕","LANE":" ","ALLEY":" ","HOUSE_NO":"４５號之９","E_COORD97":178005.95999999999,"N_COORD97":2558231.27,"ADDRESS":"坐駕４５號之９","OBJECTID":263996},"geometry":{"x":178005.95999999996,"y":2558231.2700000033}},{"attributes":{"ID":264001,"DIS_CODE":0,"TOWNNAME":"善化區","LI":"坐駕里","LIN":"22鄰","STREET":" ","SECT":" ","MAREA":"陽明新村","LANE":" ","ALLEY":" ","HOUSE_NO":"５６號","E_COORD97":178125.75,"N_COORD97":2558320.2599999998,"ADDRESS":"陽明新村５６號","OBJECTID":263997},"geometry":{"x":178125.75000000093,"y":2558320.2600000016}},{"attributes":{"ID":264002,"DIS_CODE":0,"TOWNNAME":"善化區","LI":"坐駕里","LIN":"22鄰","STREET":" ","SECT":" ","MAREA":"陽明新村","LANE":" ","ALLEY":" ","HOUSE_NO":"６８號","E_COORD97":178153.95000000001,"N_COORD97":2558299.2599999998,"ADDRESS":"陽明新村６８號","OBJECTID":263998},"geometry":{"x":178153.95000000019,"y":2558299.2600000035}},{"attributes":{"ID":264003,"DIS_CODE":0,"TOWNNAME":"善化區","LI":"坐駕里","LIN":"22鄰","STREET":" ","SECT":" ","MAREA":"坐駕","LANE":" ","ALLEY":" ","HOUSE_NO":"１２號之３０","E_COORD97":178073.76999999999,"N_COORD97":2558473.27,"ADDRESS":"坐駕１２號之３０","OBJECTID":263999},"geometry":{"x":178073.77000000048,"y":2558473.2700000014}},{"attributes":{"ID":264004,"DIS_CODE":0,"TOWNNAME":"善化區","LI":"光文里","LIN":"22鄰","STREET":"光華路","SECT":" ","MAREA":" ","LANE":" ","ALLEY":" ","HOUSE_NO":"４１號","E_COORD97":178626.82000000001,"N_COORD97":2559298.75,"ADDRESS":"光華路４１號","OBJECTID":264000},"geometry":{"x":178626.82000000216,"y":2559298.75}}]}